$PYRTM,2024,124.833337026921,15.942984437060
$GPGGA,195959.00,3516.0679,N,12111.6013,W,1,09,1.0,9.6,M,-31.9,M,,*58
$PYRTM,2024,124.833348585475,15.942995995613
$GPGGA,200000.00,3516.0669,N,12111.6040,W,1,09,1.0,9.3,M,-31.9,M,,*50
$PYRTM,2024,124.833360176817,15.943007586956
$GPGGA,200001.00,3516.0663,N,12111.6066,W,1,09,1.0,9.4,M,-31.9,M,,*58
$PYRTM,2024,124.833371735914,15.943019146053
$GPGGA,200002.00,3516.0658,N,12111.6094,W,1,09,1.0,9.5,M,-31.9,M,,*5F
$PYRTM,2024,124.833379141956,15.943026552095
$GPGGA,200003.00,3516.0650,N,12111.6121,W,1,09,1.0,9.6,M,-31.9,M,,*5A
$PYRTM,2024,124.833397789236,15.943045199375
$GPGGA,200004.00,3516.0639,N,12111.6146,W,1,09,1.0,9.7,M,-31.9,M,,*52
$PYRTM,2024,124.833406473206,15.943053883345
$GPGGA,200005.00,3516.0629,N,12111.6171,W,1,09,1.0,9.8,M,-31.9,M,,*59
$PYRTM,2024,124.833418031725,15.943065441863
$GPGGA,200006.00,3516.0623,N,12111.6198,W,1,09,1.0,10.0,M,-31.9,M,,*67
$PYRTM,2024,124.833429619120,15.943077029259
$GPGGA,200007.00,3516.0617,N,12111.6224,W,1,09,1.0,10.1,M,-31.9,M,,*64
$PYRTM,2024,124.833441179815,15.943088589954
$GPGGA,200008.00,3516.0609,N,12111.6251,W,1,09,1.0,10.1,M,-31.9,M,,*66
$PYRTM,2024,124.833452767743,15.943100177894
$GPGGA,200009.00,3516.0600,N,12111.6277,W,1,09,1.0,9.9,M,-31.9,M,,*5A
$PYRTM,2024,124.833464328113,15.943111738252
$GPGGA,200010.00,3516.0592,N,12111.6302,W,1,09,1.0,9.7,M,-31.9,M,,*57
$PYRTM,2024,124.833475916470,15.943123326609
$GPGGA,200011.00,3516.0586,N,12111.6329,W,1,09,1.0,9.7,M,-31.9,M,,*5A
$PYRTM,2024,124.833487476678,15.943134886817
$GPGGA,200012.00,3516.0579,N,12111.6356,W,1,09,1.0,9.7,M,-31.9,M,,*51
$PYRTM,2024,124.833494883438,15.943142293576
$GPGGA,200013.00,3516.0571,N,12111.6384,W,1,09,1.0,9.6,M,-31.9,M,,*56
$PYRTM,2024,124.833510624664,15.943158034803
$GPGGA,200014.00,3516.0562,N,12111.6410,W,1,09,1.0,9.6,M,-31.9,M,,*59
$PYRTM,2024,124.833522215069,15.943169625208
$GPGGA,200015.00,3516.0554,N,12111.6434,W,1,09,1.0,10.0,M,-31.9,M,,*65
$PYRTM,2024,124.833529606285,15.943177016424
$GPGGA,200016.00,3516.0547,N,12111.6461,W,1,09,1.0,10.3,M,-31.9,M,,*67
$PYRTM,2024,124.833545365069,15.943192775208
$GPGGA,200017.00,3516.0540,N,12111.6490,W,1,09,1.0,10.2,M,-31.9,M,,*6E
$PYRTM,2024,124.833556921979,15.943204332118
$GPGGA,200018.00,3516.0533,N,12111.6518,W,1,09,1.0,10.0,M,-31.9,M,,*66
$PYRTM,2024,124.833564328993,15.943211739132
$GPGGA,200019.00,3516.0524,N,12111.6543,W,1,09,1.0,10.2,M,-31.9,M,,*6D
$PYRTM,2024,124.833580069884,15.943227480023
$GPGGA,200020.00,3516.0514,N,12111.6567,W,1,09,1.0,10.6,M,-31.9,M,,*66
$PYRTM,2024,124.833591656620,15.943239066759
$GPGGA,200021.00,3516.0506,N,12111.6594,W,1,09,1.0,10.6,M,-31.9,M,,*68
$PYRTM,2024,124.833603218762,15.943250628900
$GPGGA,200022.00,3516.0499,N,12111.6623,W,1,09,1.0,10.3,M,-31.9,M,,*66
$PYRTM,2024,124.833614805220,15.943262215359
$GPGGA,200023.00,3516.0492,N,12111.6651,W,1,09,1.0,10.1,M,-31.9,M,,*6B
$PYRTM,2024,124.833626366389,15.943273776528
$GPGGA,200024.00,3516.0484,N,12111.6677,W,1,09,1.0,10.2,M,-31.9,M,,*6C
$PYRTM,2024,124.833637949352,15.943285359491
$GPGGA,200025.00,3516.0474,N,12111.6701,W,1,09,1.0,10.5,M,-31.9,M,,*65
$PYRTM,2024,124.833649516088,15.943296926227
$GPGGA,200026.00,3516.0463,N,12111.6728,W,1,09,1.0,10.4,M,-31.9,M,,*6A
$PYRTM,2024,124.833661104468,15.943308514606
$GPGGA,200027.00,3516.0457,N,12111.6758,W,1,09,1.0,10.1,M,-31.9,M,,*6E
$PYRTM,2024,124.833668497593,15.943315907743
$GPGGA,200028.00,3516.0452,N,12111.6785,W,1,09,1.0,10.2,M,-31.9,M,,*67
$PYRTM,2024,124.833684252801,15.943331662940
$GPGGA,200029.00,3516.0444,N,12111.6810,W,1,09,1.0,10.6,M,-31.9,M,,*66
$PYRTM,2024,124.833695812951,15.943343223090
$GPGGA,200030.00,3516.0434,N,12111.6836,W,1,09,1.0,10.9,M,-31.9,M,,*62
$PYRTM,2024,124.833703220046,15.943350630185
$GPGGA,200031.00,3516.0424,N,12111.6863,W,1,09,1.0,10.8,M,-31.9,M,,*63
$PYRTM,2024,124.833718962153,15.943366372292
$GPGGA,200032.00,3516.0417,N,12111.6890,W,1,09,1.0,10.7,M,-31.9,M,,*63
$PYRTM,2024,124.833730546725,15.943377956863
$GPGGA,200033.00,3516.0411,N,12111.6917,W,1,09,1.0,10.5,M,-31.9,M,,*68
$PYRTM,2024,124.833737948912,15.943385359051
$GPGGA,200034.00,3516.0404,N,12111.6944,W,1,09,1.0,10.2,M,-31.9,M,,*6A
$PYRTM,2024,124.833756589676,15.943403999815
$GPGGA,200035.00,3516.0394,N,12111.6969,W,1,09,1.0,10.3,M,-31.9,M,,*6B
$PYRTM,2024,124.833765255984,15.943412666123
$GPGGA,200036.00,3516.0384,N,12111.6993,W,1,09,1.0,10.4,M,-31.9,M,,*6B
$PYRTM,2024,124.833776844884,15.943424255023
$GPGGA,200037.00,3516.0374,N,12111.7020,W,1,09,1.0,10.4,M,-31.9,M,,*65
$PYRTM,2024,124.833788406030,15.943435816169
$GPGGA,200038.00,3516.0367,N,12111.7048,W,1,09,1.0,10.2,M,-31.9,M,,*60
$PYRTM,2024,124.833799992187,15.943447402326
$GPGGA,200039.00,3516.0360,N,12111.7074,W,1,09,1.0,10.1,M,-31.9,M,,*6A
$PYRTM,2024,124.833807386296,15.943454796435
$GPGGA,200040.00,3516.0351,N,12111.7100,W,1,09,1.0,10.3,M,-31.9,M,,*66
$PYRTM,2024,124.833823140058,15.943470550197
$GPGGA,200041.00,3516.0341,N,12111.7127,W,1,09,1.0,10.4,M,-31.9,M,,*64
$PYRTM,2024,124.833834702153,15.943482112292
$GPGGA,200042.00,3516.0334,N,12111.7155,W,1,09,1.0,9.9,M,-31.9,M,,*55
$PYRTM,2024,124.833846293866,15.943493704005
$GPGGA,200043.00,3516.0327,N,12111.7179,W,1,09,1.0,10.4,M,-31.9,M,,*6D
$PYRTM,2024,124.833857851042,15.943505261181
$GPGGA,200044.00,3516.0320,N,12111.7204,W,1,09,1.0,10.8,M,-31.9,M,,*68
$PYRTM,2024,124.833869441366,15.943516851505
$GPGGA,200045.00,3516.0310,N,12111.7232,W,1,09,1.0,10.6,M,-31.9,M,,*61
$PYRTM,2024,124.833880997222,15.943528407361
$GPGGA,200046.00,3516.0301,N,12111.7259,W,1,09,1.0,10.0,M,-31.9,M,,*69
$PYRTM,2024,124.833892584144,15.943539994282
$GPGGA,200047.00,3516.0293,N,12111.7286,W,1,09,1.0,9.8,M,-31.9,M,,*50
$PYRTM,2024,124.833899878229,15.943547288368
$GPGGA,200048.00,3516.0286,N,12111.7311,W,1,09,1.0,9.9,M,-31.9,M,,*55
$PYRTM,2024,124.833915734861,15.943563145000
$GPGGA,200049.00,3516.0277,N,12111.7337,W,1,09,1.0,10.0,M,-31.9,M,,*6F
$PYRTM,2024,124.833927294734,15.943574704873
$GPGGA,200050.00,3516.0267,N,12111.7364,W,1,09,1.0,9.7,M,-31.9,M,,*5F
$PYRTM,2024,124.833934585127,15.943581995266
$GPGGA,200051.00,3516.0258,N,12111.7391,W,1,09,1.0,9.5,M,-31.9,M,,*5A
$PYRTM,2024,124.833950443681,15.943597853819
$GPGGA,200052.00,3516.0252,N,12111.7420,W,1,09,1.0,9.3,M,-31.9,M,,*58
$PYRTM,2024,124.833962033194,15.943609443333
$GPGGA,200053.00,3516.0245,N,12111.7447,W,1,09,1.0,9.3,M,-31.9,M,,*5E
$PYRTM,2024,124.833969425556,15.943616835694
$GPGGA,200054.00,3516.0235,N,12111.7471,W,1,09,1.0,9.8,M,-31.9,M,,*50
$PYRTM,2024,124.833985181470,15.943632591609
$GPGGA,200055.00,3516.0224,N,12111.7496,W,1,09,1.0,10.3,M,-31.9,M,,*6B
$PYRTM,2024,124.833996741829,15.943644151968
$GPGGA,200056.00,3516.0216,N,12111.7524,W,1,09,1.0,10.2,M,-31.9,M,,*60
$PYRTM,2024,124.834008331285,15.943655741424
$GPGGA,200057.00,3516.0210,N,12111.7553,W,1,09,1.0,9.6,M,-31.9,M,,*5B
$PYRTM,2024,124.834019890301,15.943667300440
$GPGGA,200058.00,3516.0204,N,12111.7579,W,1,09,1.0,9.4,M,-31.9,M,,*5B
$PYRTM,2024,124.834031491354,15.943678901505
$GPGGA,200059.00,3516.0195,N,12111.7603,W,1,09,1.0,9.4,M,-31.9,M,,*5F
$PYRTM,2024,124.834043038576,15.943690448715
$GPGGA,200100.00,3516.0185,N,12111.7628,W,1,09,1.0,9.7,M,-31.9,M,,*59
$PYRTM,2024,124.834054623565,15.943702033704
$GPGGA,200101.00,3516.0176,N,12111.7655,W,1,09,1.0,9.6,M,-31.9,M,,*5F
$PYRTM,2024,124.834061929398,15.943709339537
$GPGGA,200102.00,3516.0169,N,12111.7682,W,1,09,1.0,9.3,M,-31.9,M,,*5D
$PYRTM,2024,124.834077767315,15.943725177454
$GPGGA,200103.00,3516.0164,N,12111.7710,W,1,09,1.0,9.1,M,-31.9,M,,*59
$PYRTM,2024,124.834089332905,15.943736743044
$GPGGA,200104.00,3516.0158,N,12111.7736,W,1,09,1.0,9.1,M,-31.9,M,,*55
$PYRTM,2024,124.834096625347,15.943744035486
$GPGGA,200105.00,3516.0149,N,12111.7762,W,1,09,1.0,8.9,M,-31.9,M,,*5C
$PYRTM,2024,124.834115395799,15.943762805937
$GPGGA,200106.00,3516.0139,N,12111.7788,W,1,09,1.0,9.0,M,-31.9,M,,*54
$PYRTM,2024,124.834124069468,15.943771479606
$GPGGA,200107.00,3516.0131,N,12111.7812,W,1,09,1.0,9.3,M,-31.9,M,,*52
$PYRTM,2024,124.834135629676,15.943783039815
$GPGGA,200108.00,3516.0126,N,12111.7839,W,1,09,1.0,9.5,M,-31.9,M,,*54
$PYRTM,2024,124.834147217095,15.943794627234
$GPGGA,200109.00,3516.0121,N,12111.7869,W,1,09,1.0,9.2,M,-31.9,M,,*50
$PYRTM,2024,124.834158778750,15.943806188889
$GPGGA,200110.00,3516.0113,N,12111.7895,W,1,09,1.0,8.9,M,-31.9,M,,*50
$PYRTM,2024,124.834170367627,15.943817777766
$GPGGA,200111.00,3516.0102,N,12111.7917,W,1,09,1.0,9.3,M,-31.9,M,,*51
$PYRTM,2024,124.834181925475,15.943829335613
$GPGGA,200112.00,3516.0091,N,12111.7941,W,1,09,1.0,9.8,M,-31.9,M,,*51
$PYRTM,2024,124.834193516123,15.943840926273
$GPGGA,200113.00,3516.0083,N,12111.7970,W,1,09,1.0,9.7,M,-31.9,M,,*5E
$PYRTM,2024,124.834205074051,15.943852484190
$GPGGA,200114.00,3516.0077,N,12111.7998,W,1,09,1.0,9.4,M,-31.9,M,,*57
$PYRTM,2024,124.834216665185,15.943864075324
$GPGGA,200115.00,3516.0069,N,12111.8023,W,1,09,1.0,9.4,M,-31.9,M,,*5F
$PYRTM,2024,124.834228223681,15.943875633831
$GPGGA,200116.00,3516.0060,N,12111.8048,W,1,09,1.0,9.5,M,-31.9,M,,*59
$PYRTM,2024,124.834235513958,15.943882924097
$GPGGA,200117.00,3516.0050,N,12111.8074,W,1,09,1.0,9.6,M,-31.9,M,,*57
$PYRTM,2024,124.834251371238,15.943898781377
$GPGGA,200118.00,3516.0041,N,12111.8099,W,1,09,1.0,9.7,M,-31.9,M,,*5A
$PYRTM,2024,124.834258662384,15.943906072523
$GPGGA,200119.00,3516.0033,N,12111.8125,W,1,09,1.0,9.7,M,-31.9,M,,*58
$PYRTM,2024,124.834274519780,15.943921929919
$GPGGA,200120.00,3516.0026,N,12111.8151,W,1,09,1.0,9.8,M,-31.9,M,,*5A
$PYRTM,2024,124.834286106042,15.943933516181
$GPGGA,200121.00,3516.0019,N,12111.8178,W,1,09,1.0,9.7,M,-31.9,M,,*53
$PYRTM,2024,124.834293398252,15.943940808391
$GPGGA,200122.00,3516.0011,N,12111.8205,W,1,09,1.0,9.6,M,-31.9,M,,*50
$PYRTM,2024,124.834305205405,15.943952615544
$GPGGA,200123.00,3516.0000,N,12111.8228,W,1,09,1.0,10.0,M,-31.9,M,,*60
$PYRTM,2024,124.834320816157,15.943968226308
$GPGGA,200124.00,3515.9989,N,12111.8253,W,1,09,1.0,10.4,M,-31.9,M,,*6D
$PYRTM,2024,124.834332403229,15.943979813368
$GPGGA,200125.00,3515.9981,N,12111.8281,W,1,09,1.0,10.3,M,-31.9,M,,*6C
$PYRTM,2024,124.834343965035,15.943991375185
$GPGGA,200126.00,3515.9975,N,12111.8309,W,1,09,1.0,10.0,M,-31.9,M,,*66
$PYRTM,2024,124.834355566377,15.944002976516
$GPGGA,200127.00,3515.9968,N,12111.8332,W,1,09,1.0,10.3,M,-31.9,M,,*60
$PYRTM,2024,124.834367113333,15.944014523472
$GPGGA,200128.00,3515.9958,N,12111.8354,W,1,09,1.0,10.5,M,-31.9,M,,*6A
$PYRTM,2024,124.834378702326,15.944026112465
$GPGGA,200129.00,3515.9948,N,12111.8380,W,1,09,1.0,10.5,M,-31.9,M,,*63
$PYRTM,2024,124.834390260301,15.944037670440
$GPGGA,200130.00,3515.9942,N,12111.8407,W,1,09,1.0,10.3,M,-31.9,M,,*6F
$PYRTM,2024,124.834401848646,15.944049258785
$GPGGA,200131.00,3515.9936,N,12111.8432,W,1,09,1.0,10.4,M,-31.9,M,,*6C
$PYRTM,2024,124.834413410139,15.944060820278
$GPGGA,200132.00,3515.9928,N,12111.8457,W,1,09,1.0,10.6,M,-31.9,M,,*61
$PYRTM,2024,124.834425000312,15.944072410463
$GPGGA,200133.00,3515.9918,N,12111.8482,W,1,09,1.0,10.7,M,-31.9,M,,*6A
$PYRTM,2024,124.834432403681,15.944079813831
$GPGGA,200134.00,3515.9908,N,12111.8508,W,1,09,1.0,10.5,M,-31.9,M,,*6D
$PYRTM,2024,124.834448144375,15.944095554514
$GPGGA,200135.00,3515.9900,N,12111.8535,W,1,09,1.0,10.5,M,-31.9,M,,*6A
$PYRTM,2024,124.834455540093,15.944102950231
$GPGGA,200136.00,3515.9892,N,12111.8562,W,1,09,1.0,10.7,M,-31.9,M,,*63
$PYRTM,2024,124.834474185856,15.944121596007
$GPGGA,200137.00,3515.9883,N,12111.8588,W,1,09,1.0,10.9,M,-31.9,M,,*68
$PYRTM,2024,124.834482855370,15.944130265509
$GPGGA,200138.00,3515.9874,N,12111.8614,W,1,09,1.0,11.1,M,-31.9,M,,*60
$PYRTM,2024,124.834494437905,15.944141848044
$GPGGA,200139.00,3515.9865,N,12111.8640,W,1,09,1.0,11.3,M,-31.9,M,,*62
$PYRTM,2024,124.834506003264,15.944153413403
$GPGGA,200140.00,3515.9856,N,12111.8667,W,1,09,1.0,11.3,M,-31.9,M,,*69
$PYRTM,2024,124.834517593021,15.944165003160
$GPGGA,200141.00,3515.9847,N,12111.8694,W,1,09,1.0,11.2,M,-31.9,M,,*65
$PYRTM,2024,124.834529151528,15.944176561667
$GPGGA,200142.00,3515.9838,N,12111.8720,W,1,09,1.0,11.2,M,-31.9,M,,*60
$PYRTM,2024,124.834540747095,15.944188157245
$GPGGA,200143.00,3515.9830,N,12111.8745,W,1,09,1.0,11.5,M,-31.9,M,,*6D
$PYRTM,2024,124.834552299144,15.944199709282
$GPGGA,200144.00,3515.9822,N,12111.8772,W,1,09,1.0,11.7,M,-31.9,M,,*6F
$PYRTM,2024,124.834563886667,15.944211296806
$GPGGA,200145.00,3515.9812,N,12111.8799,W,1,09,1.0,11.5,M,-31.9,M,,*6A
$PYRTM,2024,124.834570702060,15.944218112199
$GPGGA,200146.00,3515.9801,N,12111.8826,W,1,09,1.0,11.3,M,-31.9,M,,*66
$PYRTM,2024,124.834587034306,15.944234444444
$GPGGA,200147.00,3515.9793,N,12111.8851,W,1,09,1.0,11.5,M,-31.9,M,,*65
$PYRTM,2024,124.834598596910,15.944246007049
$GPGGA,200148.00,3515.9786,N,12111.8875,W,1,09,1.0,11.9,M,-31.9,M,,*64
$PYRTM,2024,124.834606004074,15.944253414213
$GPGGA,200149.00,3515.9778,N,12111.8902,W,1,09,1.0,11.8,M,-31.9,M,,*64
$PYRTM,2024,124.834621744109,15.944269154248
$GPGGA,200150.00,3515.9769,N,12111.8930,W,1,09,1.0,11.3,M,-31.9,M,,*66
$PYRTM,2024,124.834633331088,15.944280741227
$GPGGA,200151.00,3515.9759,N,12111.8955,W,1,09,1.0,11.1,M,-31.9,M,,*65
$PYRTM,2024,124.834640727130,15.944288137269
$GPGGA,200152.00,3515.9749,N,12111.8978,W,1,09,1.0,11.8,M,-31.9,M,,*61
$PYRTM,2024,124.834656480185,15.944303890324
$GPGGA,200153.00,3515.9740,N,12111.9005,W,1,09,1.0,11.9,M,-31.9,M,,*6A
$PYRTM,2024,124.834668039444,15.944315449583
$GPGGA,200154.00,3515.9730,N,12111.9033,W,1,09,1.0,11.6,M,-31.9,M,,*60
$PYRTM,2024,124.834682521655,15.944329931794
$GPGGA,200155.00,3515.9722,N,12111.9059,W,1,09,1.0,11.5,M,-31.9,M,,*6D
$PYRTM,2024,124.834694095255,15.944341505405
$GPGGA,200156.00,3515.9714,N,12111.9085,W,1,09,1.0,11.7,M,-31.9,M,,*68
$PYRTM,2024,124.834702779525,15.944350189676
$GPGGA,200157.00,3515.9704,N,12111.9110,W,1,09,1.0,11.9,M,-31.9,M,,*6B
$PYRTM,2024,124.834710172419,15.944357582558
$GPGGA,200158.00,3515.9693,N,12111.9137,W,1,09,1.0,11.7,M,-31.9,M,,*60
$PYRTM,2024,124.834725924537,15.944373334676
$GPGGA,200159.00,3515.9683,N,12111.9163,W,1,09,1.0,11.6,M,-31.9,M,,*60
$PYRTM,2024,124.834737485509,15.944384895648
$GPGGA,200200.00,3515.9675,N,12111.9189,W,1,09,1.0,11.6,M,-31.9,M,,*62
$PYRTM,2024,124.834749072766,15.944396482905
$GPGGA,200201.00,3515.9666,N,12111.9216,W,1,09,1.0,11.5,M,-31.9,M,,*67
$PYRTM,2024,124.834760634861,15.944408045000
$GPGGA,200202.00,3515.9657,N,12111.9242,W,1,09,1.0,11.4,M,-31.9,M,,*66
$PYRTM,2024,124.834772220301,15.944419630440
$GPGGA,200203.00,3515.9646,N,12111.9267,W,1,09,1.0,11.5,M,-31.9,M,,*61
$PYRTM,2024,124.834783782176,15.944431192315
$GPGGA,200204.00,3515.9635,N,12111.9293,W,1,09,1.0,11.5,M,-31.9,M,,*69
$PYRTM,2024,124.834795365104,15.944442775243
$GPGGA,200205.00,3515.9627,N,12111.9320,W,1,09,1.0,11.3,M,-31.9,M,,*64
$PYRTM,2024,124.834806932894,15.944454343032
$GPGGA,200206.00,3515.9618,N,12111.9346,W,1,09,1.0,11.1,M,-31.9,M,,*69
$PYRTM,2024,124.834814338345,15.944461748484
$GPGGA,200207.00,3515.9609,N,12111.9372,W,1,09,1.0,11.1,M,-31.9,M,,*6F
$PYRTM,2024,124.834832996250,15.944480406389
$GPGGA,200208.00,3515.9599,N,12111.9399,W,1,09,1.0,11.2,M,-31.9,M,,*6C
$PYRTM,2024,124.834844560440,15.944491970579
$GPGGA,200209.00,3515.9588,N,12111.9425,W,1,09,1.0,11.4,M,-31.9,M,,*6B
$PYRTM,2024,124.834856132824,15.944503542963
$GPGGA,200210.00,3515.9577,N,12111.9449,W,1,09,1.0,11.8,M,-31.9,M,,*65
$PYRTM,2024,124.834864817882,15.944512228021
$GPGGA,200211.00,3515.9567,N,12111.9475,W,1,09,1.0,11.3,M,-31.9,M,,*61
$PYRTM,2024,124.834876375231,15.944523785370
$GPGGA,200212.00,3515.9559,N,12111.9504,W,1,09,1.0,10.7,M,-31.9,M,,*6D
$PYRTM,2024,124.834887962674,15.944535372812
$GPGGA,200213.00,3515.9552,N,12111.9531,W,1,09,1.0,10.4,M,-31.9,M,,*62
$PYRTM,2024,124.834899523067,15.944546933206
$GPGGA,200214.00,3515.9540,N,12111.9552,W,1,09,1.0,10.9,M,-31.9,M,,*6E
$PYRTM,2024,124.834911106412,15.944558516551
$GPGGA,200215.00,3515.9525,N,12111.9576,W,1,09,1.0,10.9,M,-31.9,M,,*6A
$PYRTM,2024,124.834922670972,15.944570081111
$GPGGA,200216.00,3515.9513,N,12111.9604,W,1,09,1.0,10.6,M,-31.9,M,,*65
$PYRTM,2024,124.834934261782,15.944581671933
$GPGGA,200217.00,3515.9505,N,12111.9630,W,1,09,1.0,10.4,M,-31.9,M,,*66
$PYRTM,2024,124.834945821400,15.944593231539
$GPGGA,200218.00,3515.9497,N,12111.9654,W,1,09,1.0,10.8,M,-31.9,M,,*6D
$PYRTM,2024,124.834957407257,15.944604817396
$GPGGA,200219.00,3515.9486,N,12111.9679,W,1,09,1.0,11.0,M,-31.9,M,,*6A
$PYRTM,2024,124.834964802245,15.944612212384
$GPGGA,200220.00,3515.9474,N,12111.9705,W,1,09,1.0,10.9,M,-31.9,M,,*6F
$PYRTM,2024,124.834980555706,15.944627965845
$GPGGA,200221.00,3515.9463,N,12111.9730,W,1,09,1.0,10.7,M,-31.9,M,,*60
$PYRTM,2024,124.834992117199,15.944639527338
$GPGGA,200222.00,3515.9453,N,12111.9754,W,1,09,1.0,10.8,M,-31.9,M,,*6D
$PYRTM,2024,124.835003706134,15.944651116273
$GPGGA,200223.00,3515.9444,N,12111.9780,W,1,09,1.0,10.9,M,-31.9,M,,*62
$PYRTM,2024,124.835015265729,15.944662675868
$GPGGA,200224.00,3515.9435,N,12111.9806,W,1,09,1.0,10.7,M,-31.9,M,,*6C
$PYRTM,2024,124.835026855544,15.944674265683
$GPGGA,200225.00,3515.9424,N,12111.9831,W,1,09,1.0,10.4,M,-31.9,M,,*6A
$PYRTM,2024,124.835038413611,15.944685823762
$GPGGA,200226.00,3515.9413,N,12111.9856,W,1,09,1.0,10.1,M,-31.9,M,,*69
$PYRTM,2024,124.835050004896,15.944697415035
$GPGGA,200227.00,3515.9402,N,12111.9883,W,1,09,1.0,9.8,M,-31.9,M,,*51
$PYRTM,2024,124.835057280706,15.944704690845
$GPGGA,200228.00,3515.9393,N,12111.9909,W,1,09,1.0,9.8,M,-31.9,M,,*52
$PYRTM,2024,124.835076042292,15.944723452431
$GPGGA,200229.00,3515.9384,N,12111.9932,W,1,09,1.0,10.2,M,-31.9,M,,*6F
$PYRTM,2024,124.835087627720,15.944735037859
$GPGGA,200230.00,3515.9374,N,12111.9956,W,1,09,1.0,10.3,M,-31.9,M,,*6B
$PYRTM,2024,124.835096294977,15.944743705116
$GPGGA,200231.00,3515.9363,N,12111.9983,W,1,09,1.0,10.3,M,-31.9,M,,*64
$PYRTM,2024,124.835107859028,15.944755269167
$GPGGA,200232.00,3515.9355,N,12112.0009,W,1,09,1.0,10.2,M,-31.9,M,,*62
$PYRTM,2024,124.835119446227,15.944766856366
$GPGGA,200233.00,3515.9348,N,12112.0033,W,1,09,1.0,10.4,M,-31.9,M,,*60
$PYRTM,2024,124.835131006759,15.944778416910
$GPGGA,200234.00,3515.9338,N,12112.0057,W,1,09,1.0,10.8,M,-31.9,M,,*6E
$PYRTM,2024,124.835142595752,15.944790005903
$GPGGA,200235.00,3515.9327,N,12112.0083,W,1,09,1.0,10.5,M,-31.9,M,,*65
$PYRTM,2024,124.835154155035,15.944801565174
$GPGGA,200236.00,3515.9316,N,12112.0109,W,1,09,1.0,10.4,M,-31.9,M,,*66
$PYRTM,2024,124.835165746516,15.944813156655
$GPGGA,200237.00,3515.9307,N,12112.0133,W,1,09,1.0,10.5,M,-31.9,M,,*6F
$PYRTM,2024,124.835173137569,15.944820547708
$GPGGA,200238.00,3515.9296,N,12112.0159,W,1,09,1.0,10.7,M,-31.9,M,,*67
$PYRTM,2024,124.835191784560,15.944839194699
$GPGGA,200239.00,3515.9285,N,12112.0184,W,1,09,1.0,10.7,M,-31.9,M,,*64
$PYRTM,2024,124.835203358275,15.944850768414
$GPGGA,200240.00,3515.9276,N,12112.0209,W,1,09,1.0,10.8,M,-31.9,M,,*6F
$PYRTM,2024,124.835214932998,15.944862343137
$GPGGA,200241.00,3515.9267,N,12112.0235,W,1,09,1.0,11.0,M,-31.9,M,,*68
$PYRTM,2024,124.835223601042,15.944871011169
$GPGGA,200242.00,3515.9256,N,12112.0261,W,1,09,1.0,10.9,M,-31.9,M,,*60
$PYRTM,2024,124.835235186157,15.944882596296
$GPGGA,200243.00,3515.9245,N,12112.0287,W,1,09,1.0,11.0,M,-31.9,M,,*63
$PYRTM,2024,124.835246750162,15.944894160301
$GPGGA,200244.00,3515.9234,N,12112.0310,W,1,09,1.0,11.4,M,-31.9,M,,*69
$PYRTM,2024,124.835258335359,15.944905745498
$GPGGA,200245.00,3515.9224,N,12112.0334,W,1,09,1.0,11.8,M,-31.9,M,,*63
$PYRTM,2024,124.835269896863,15.944917307002
$GPGGA,200246.00,3515.9215,N,12112.0361,W,1,09,1.0,11.5,M,-31.9,M,,*6F
$PYRTM,2024,124.835277305463,15.944924715602
$GPGGA,200247.00,3515.9206,N,12112.0389,W,1,09,1.0,11.0,M,-31.9,M,,*6F
$PYRTM,2024,124.835293045845,15.944940455984
$GPGGA,200248.00,3515.9196,N,12112.0411,W,1,09,1.0,11.7,M,-31.9,M,,*6B
$PYRTM,2024,124.835304632338,15.944952042477
$GPGGA,200249.00,3515.9185,N,12112.0433,W,1,09,1.0,11.8,M,-31.9,M,,*67
$PYRTM,2024,124.835312027049,15.944959437187
$GPGGA,200250.00,3515.9173,N,12112.0458,W,1,09,1.0,12.1,M,-31.9,M,,*61
$PYRTM,2024,124.835327779907,15.944975190046
$GPGGA,200251.00,3515.9163,N,12112.0485,W,1,09,1.0,11.5,M,-31.9,M,,*66
$PYRTM,2024,124.835339341609,15.944986751748
$GPGGA,200252.00,3515.9155,N,12112.0511,W,1,09,1.0,11.3,M,-31.9,M,,*6A
$PYRTM,2024,124.835350925139,15.944998335289
$GPGGA,200253.00,3515.9145,N,12112.0534,W,1,09,1.0,11.6,M,-31.9,M,,*68
$PYRTM,2024,124.835362491852,15.945009902002
$GPGGA,200254.00,3515.9134,N,12112.0558,W,1,09,1.0,11.5,M,-31.9,M,,*60
$PYRTM,2024,124.835369899502,15.945017309641
$GPGGA,200255.00,3515.9123,N,12112.0584,W,1,09,1.0,11.3,M,-31.9,M,,*60
$PYRTM,2024,124.835385637627,15.945033047766
$GPGGA,200256.00,3515.9113,N,12112.0608,W,1,09,1.0,11.3,M,-31.9,M,,*67
$PYRTM,2024,124.835397225046,15.945044635185
$GPGGA,200257.00,3515.9103,N,12112.0632,W,1,09,1.0,11.6,M,-31.9,M,,*6B
$PYRTM,2024,124.835404622222,15.945052032361
$GPGGA,200258.00,3515.9094,N,12112.0657,W,1,09,1.0,11.7,M,-31.9,M,,*69
$PYRTM,2024,124.835420376736,15.945067786875
$GPGGA,200259.00,3515.9085,N,12112.0684,W,1,09,1.0,11.2,M,-31.9,M,,*63
$PYRTM,2024,124.835431934711,15.945079344850
$GPGGA,200300.00,3515.9076,N,12112.0710,W,1,09,1.0,11.0,M,-31.9,M,,*6C
$PYRTM,2024,124.835443525231,15.945090935370
$GPGGA,200301.00,3515.9066,N,12112.0731,W,1,09,1.0,11.3,M,-31.9,M,,*6C
$PYRTM,2024,124.835450930069,15.945098340208
$GPGGA,200302.00,3515.9055,N,12112.0755,W,1,09,1.0,11.5,M,-31.9,M,,*6B
$PYRTM,2024,124.835469564352,15.945116974491
$GPGGA,200303.00,3515.9045,N,12112.0782,W,1,09,1.0,11.2,M,-31.9,M,,*66
$PYRTM,2024,124.835481137755,15.945128547894
$GPGGA,200304.00,3515.9037,N,12112.0808,W,1,09,1.0,10.8,M,-31.9,M,,*62
$PYRTM,2024,124.835489818345,15.945137228484
$GPGGA,200305.00,3515.9030,N,12112.0831,W,1,09,1.0,10.9,M,-31.9,M,,*6F
$PYRTM,2024,124.835501380567,15.945148790706
$GPGGA,200306.00,3515.9021,N,12112.0855,W,1,09,1.0,11.0,M,-31.9,M,,*66
$PYRTM,2024,124.835512966458,15.945160376609
$GPGGA,200307.00,3515.9011,N,12112.0879,W,1,09,1.0,11.0,M,-31.9,M,,*6A
$PYRTM,2024,124.835524533079,15.945171943218
$GPGGA,200308.00,3515.8999,N,12112.0901,W,1,09,1.0,11.1,M,-31.9,M,,*62
$PYRTM,2024,124.835531937245,15.945179347396
$GPGGA,200309.00,3515.8988,N,12112.0925,W,1,09,1.0,10.9,M,-31.9,M,,*6C
$PYRTM,2024,124.835550582604,15.945197992743
$GPGGA,200310.00,3515.8980,N,12112.0952,W,1,09,1.0,10.7,M,-31.9,M,,*62
$PYRTM,2024,124.835559266366,15.945206676505
$GPGGA,200311.00,3515.8974,N,12112.0979,W,1,09,1.0,10.4,M,-31.9,M,,*62
$PYRTM,2024,124.835570823947,15.945218234086
$GPGGA,200312.00,3515.8963,N,12112.1003,W,1,09,1.0,10.5,M,-31.9,M,,*63
$PYRTM,2024,124.835582415648,15.945229825787
$GPGGA,200313.00,3515.8950,N,12112.1025,W,1,09,1.0,10.7,M,-31.9,M,,*64
$PYRTM,2024,124.835593974363,15.945241384502
$GPGGA,200314.00,3515.8939,N,12112.1050,W,1,09,1.0,10.9,M,-31.9,M,,*60
$PYRTM,2024,124.835605564572,15.945252974711
$GPGGA,200315.00,3515.8931,N,12112.1077,W,1,09,1.0,11.1,M,-31.9,M,,*65
$PYRTM,2024,124.835617121065,15.945264531204
$GPGGA,200316.00,3515.8923,N,12112.1103,W,1,09,1.0,11.0,M,-31.9,M,,*66
$PYRTM,2024,124.835628708310,15.945276118449
$GPGGA,200317.00,3515.8913,N,12112.1127,W,1,09,1.0,10.9,M,-31.9,M,,*6A
$PYRTM,2024,124.835636116134,15.945283526273
$GPGGA,200318.00,3515.8901,N,12112.1151,W,1,09,1.0,11.0,M,-31.9,M,,*6F
$PYRTM,2024,124.835651856574,15.945299266713
$GPGGA,200319.00,3515.8889,N,12112.1174,W,1,09,1.0,11.0,M,-31.9,M,,*68
$PYRTM,2024,124.835663418981,15.945310829120
$GPGGA,200320.00,3515.8878,N,12112.1200,W,1,09,1.0,10.8,M,-31.9,M,,*65
$PYRTM,2024,124.835675006146,15.945322416285
$GPGGA,200321.00,3515.8869,N,12112.1227,W,1,09,1.0,10.5,M,-31.9,M,,*6C
$PYRTM,2024,124.835686567315,15.945333977454
$GPGGA,200322.00,3515.8861,N,12112.1251,W,1,09,1.0,10.8,M,-31.9,M,,*6B
$PYRTM,2024,124.835693976528,15.945341386667
$GPGGA,200323.00,3515.8851,N,12112.1275,W,1,09,1.0,10.9,M,-31.9,M,,*6E
$PYRTM,2024,124.835709714340,15.945357124479
$GPGGA,200324.00,3515.8839,N,12112.1300,W,1,09,1.0,10.8,M,-31.9,M,,*65
$PYRTM,2024,124.835721296701,15.945368706840
$GPGGA,200325.00,3515.8828,N,12112.1326,W,1,09,1.0,10.3,M,-31.9,M,,*6B
$PYRTM,2024,124.835728698796,15.945376108935
$GPGGA,200326.00,3515.8818,N,12112.1351,W,1,09,1.0,10.3,M,-31.9,M,,*6B
$PYRTM,2024,124.835744463472,15.945391873611
$GPGGA,200327.00,3515.8809,N,12112.1375,W,1,09,1.0,10.7,M,-31.9,M,,*68
$PYRTM,2024,124.835756010856,15.945403420995
$GPGGA,200328.00,3515.8799,N,12112.1401,W,1,09,1.0,10.9,M,-31.9,M,,*6B
$PYRTM,2024,124.835767598449,15.945415008588
$GPGGA,200329.00,3515.8790,N,12112.1427,W,1,09,1.0,10.8,M,-31.9,M,,*66
$PYRTM,2024,124.835779157905,15.945426568044
$GPGGA,200330.00,3515.8779,N,12112.1452,W,1,09,1.0,10.8,M,-31.9,M,,*6B
$PYRTM,2024,124.835790746736,15.945438156875
$GPGGA,200331.00,3515.8769,N,12112.1476,W,1,09,1.0,10.9,M,-31.9,M,,*6C
$PYRTM,2024,124.835802307789,15.945449717928
$GPGGA,200332.00,3515.8759,N,12112.1501,W,1,09,1.0,11.1,M,-31.9,M,,*64
$PYRTM,2024,124.835813890382,15.945461300521
$GPGGA,200333.00,3515.8750,N,12112.1527,W,1,09,1.0,11.1,M,-31.9,M,,*68
$PYRTM,2024,124.835825457477,15.945472867616
$GPGGA,200334.00,3515.8740,N,12112.1553,W,1,09,1.0,11.0,M,-31.9,M,,*6C
$PYRTM,2024,124.835832862535,15.945480272674
$GPGGA,200335.00,3515.8730,N,12112.1579,W,1,09,1.0,10.9,M,-31.9,M,,*6A
$PYRTM,2024,124.835848604792,15.945496014931
$GPGGA,200336.00,3515.8720,N,12112.1604,W,1,09,1.0,10.7,M,-31.9,M,,*6F
$PYRTM,2024,124.835860191146,15.945507601285
$GPGGA,200337.00,3515.8709,N,12112.1629,W,1,09,1.0,10.8,M,-31.9,M,,*65
$PYRTM,2024,124.835867586863,15.945514997002
$GPGGA,200338.00,3515.8699,N,12112.1652,W,1,09,1.0,11.2,M,-31.9,M,,*65
$PYRTM,2024,124.835883340995,15.945530751146
$GPGGA,200339.00,3515.8689,N,12112.1678,W,1,09,1.0,11.4,M,-31.9,M,,*6B
$PYRTM,2024,124.835890733831,15.945538143970
$GPGGA,200340.00,3515.8678,N,12112.1705,W,1,09,1.0,11.0,M,-31.9,M,,*64
$PYRTM,2024,124.835909380856,15.945556790995
$GPGGA,200341.00,3515.8668,N,12112.1730,W,1,09,1.0,10.7,M,-31.9,M,,*64
$PYRTM,2024,124.835918049086,15.945565459225
$GPGGA,200342.00,3515.8658,N,12112.1753,W,1,09,1.0,11.0,M,-31.9,M,,*67
$PYRTM,2024,124.835929639132,15.945577049282
$GPGGA,200343.00,3515.8647,N,12112.1778,W,1,09,1.0,11.3,M,-31.9,M,,*62
$PYRTM,2024,124.835941196852,15.945588606991
$GPGGA,200344.00,3515.8636,N,12112.1804,W,1,09,1.0,11.2,M,-31.9,M,,*66
$PYRTM,2024,124.835952787431,15.945600197569
$GPGGA,200345.00,3515.8626,N,12112.1829,W,1,09,1.0,11.1,M,-31.9,M,,*6A
$PYRTM,2024,124.835964346725,15.945611756863
$GPGGA,200346.00,3515.8616,N,12112.1853,W,1,09,1.0,11.3,M,-31.9,M,,*65
$PYRTM,2024,124.835975931875,15.945623342014
$GPGGA,200347.00,3515.8608,N,12112.1880,W,1,09,1.0,11.4,M,-31.9,M,,*62
$PYRTM,2024,124.835983344479,15.945630754618
$GPGGA,200348.00,3515.8599,N,12112.1907,W,1,09,1.0,11.0,M,-31.9,M,,*6C
$PYRTM,2024,124.835999076169,15.945646486308
$GPGGA,200349.00,3515.8589,N,12112.1931,W,1,09,1.0,10.8,M,-31.9,M,,*60
$PYRTM,2024,124.836010642338,15.945658052477
$GPGGA,200350.00,3515.8577,N,12112.1955,W,1,09,1.0,11.1,M,-31.9,M,,*63
$PYRTM,2024,124.836018050359,15.945665460498
$GPGGA,200351.00,3515.8567,N,12112.1980,W,1,09,1.0,11.3,M,-31.9,M,,*69
$PYRTM,2024,124.836033790648,15.945681200787
$GPGGA,200352.00,3515.8558,N,12112.2007,W,1,09,1.0,11.1,M,-31.9,M,,*61
$PYRTM,2024,124.836045392697,15.945692802836
$GPGGA,200353.00,3515.8549,N,12112.2033,W,1,09,1.0,11.0,M,-31.9,M,,*66
$PYRTM,2024,124.836056938750,15.945704348889
$GPGGA,200354.00,3515.8540,N,12112.2057,W,1,09,1.0,11.0,M,-31.9,M,,*6A
$PYRTM,2024,124.836068540035,15.945715950174
$GPGGA,200355.00,3515.8529,N,12112.2081,W,1,09,1.0,11.0,M,-31.9,M,,*6F
$PYRTM,2024,124.836080088576,15.945727498715
$GPGGA,200356.00,3515.8517,N,12112.2107,W,1,09,1.0,10.9,M,-31.9,M,,*66
$PYRTM,2024,124.836091678113,15.945739088252
$GPGGA,200357.00,3515.8507,N,12112.2133,W,1,09,1.0,10.7,M,-31.9,M,,*6F
$PYRTM,2024,124.836103235208,15.945750645347
$GPGGA,200358.00,3515.8498,N,12112.2158,W,1,09,1.0,10.8,M,-31.9,M,,*65
$PYRTM,2024,124.836114823287,15.945762233426
$GPGGA,200359.00,3515.8489,N,12112.2183,W,1,09,1.0,11.0,M,-31.9,M,,*6B
$PYRTM,2024,124.836126383623,15.945773793762
$GPGGA,200400.00,3515.8478,N,12112.2209,W,1,09,1.0,10.9,M,-31.9,M,,*67
$PYRTM,2024,124.836137971088,15.945785381227
$GPGGA,200401.00,3515.8468,N,12112.2234,W,1,09,1.0,10.9,M,-31.9,M,,*69
$PYRTM,2024,124.836149531470,15.945796941609
$GPGGA,200402.00,3515.8458,N,12112.2259,W,1,09,1.0,11.1,M,-31.9,M,,*6B
$PYRTM,2024,124.836156940451,15.945804350590
$GPGGA,200403.00,3515.8448,N,12112.2284,W,1,09,1.0,11.3,M,-31.9,M,,*69
$PYRTM,2024,124.836172681053,15.945820091192
$GPGGA,200404.00,3515.8439,N,12112.2310,W,1,09,1.0,11.1,M,-31.9,M,,*66
$PYRTM,2024,124.836184266887,15.945831677025
$GPGGA,200405.00,3515.8429,N,12112.2336,W,1,09,1.0,10.9,M,-31.9,M,,*6B
$PYRTM,2024,124.836195828183,15.945843238322
$GPGGA,200406.00,3515.8419,N,12112.2362,W,1,09,1.0,10.9,M,-31.9,M,,*6A
$PYRTM,2024,124.836203236366,15.945850646505
$GPGGA,200407.00,3515.8409,N,12112.2386,W,1,09,1.0,11.0,M,-31.9,M,,*68
$PYRTM,2024,124.836218976528,15.945866386667
$GPGGA,200408.00,3515.8399,N,12112.2410,W,1,09,1.0,11.3,M,-31.9,M,,*62
$PYRTM,2024,124.836230579028,15.945877989167
$GPGGA,200409.00,3515.8390,N,12112.2439,W,1,09,1.0,10.8,M,-31.9,M,,*6B
$PYRTM,2024,124.836242125324,15.945889535463
$GPGGA,200410.00,3515.8381,N,12112.2465,W,1,09,1.0,11.2,M,-31.9,M,,*61
$PYRTM,2024,124.836249533808,15.945896943958
$GPGGA,200411.00,3515.8370,N,12112.2489,W,1,09,1.0,10.9,M,-31.9,M,,*66
$PYRTM,2024,124.836268191123,15.945915601262
$GPGGA,200412.00,3515.8358,N,12112.2513,W,1,09,1.0,11.0,M,-31.9,M,,*65
$PYRTM,2024,124.836276875231,15.945924285370
$GPGGA,200413.00,3515.8348,N,12112.2540,W,1,09,1.0,11.0,M,-31.9,M,,*63
$PYRTM,2024,124.836288421019,15.945935831157
$GPGGA,200414.00,3515.8340,N,12112.2567,W,1,09,1.0,10.8,M,-31.9,M,,*60
$PYRTM,2024,124.836300009213,15.945947419352
$GPGGA,200415.00,3515.8331,N,12112.2592,W,1,09,1.0,10.9,M,-31.9,M,,*6C
$PYRTM,2024,124.836311570475,15.945958980613
$GPGGA,200416.00,3515.8319,N,12112.2616,W,1,09,1.0,11.3,M,-31.9,M,,*61
$PYRTM,2024,124.836323158044,15.945970568183
$GPGGA,200417.00,3515.8307,N,12112.2641,W,1,09,1.0,11.4,M,-31.9,M,,*6A
$PYRTM,2024,124.836334720069,15.945982130208
$GPGGA,200418.00,3515.8296,N,12112.2667,W,1,09,1.0,11.3,M,-31.9,M,,*6F
$PYRTM,2024,124.836346305926,15.945993716065
$GPGGA,200419.00,3515.8287,N,12112.2693,W,1,09,1.0,11.2,M,-31.9,M,,*64
$PYRTM,2024,124.836357866933,15.946005277072
$GPGGA,200420.00,3515.8278,N,12112.2719,W,1,09,1.0,11.2,M,-31.9,M,,*6D
$PYRTM,2024,124.836369453854,15.946016863993
$GPGGA,200421.00,3515.8268,N,12112.2745,W,1,09,1.0,11.0,M,-31.9,M,,*66
$PYRTM,2024,124.836381016169,15.946028426308
$GPGGA,200422.00,3515.8257,N,12112.2770,W,1,09,1.0,11.0,M,-31.9,M,,*6F
$PYRTM,2024,124.836392616875,15.946040027014
$GPGGA,200423.00,3515.8247,N,12112.2795,W,1,09,1.0,11.1,M,-31.9,M,,*65
$PYRTM,2024,124.836404162801,15.946051572940
$GPGGA,200424.00,3515.8237,N,12112.2820,W,1,09,1.0,11.0,M,-31.9,M,,*65
$PYRTM,2024,124.836415765104,15.946063175243
$GPGGA,200425.00,3515.8229,N,12112.2847,W,1,09,1.0,10.8,M,-31.9,M,,*63
$PYRTM,2024,124.836427312743,15.946074722882
$GPGGA,200426.00,3515.8220,N,12112.2872,W,1,09,1.0,10.9,M,-31.9,M,,*6E
$PYRTM,2024,124.836438894595,15.946086304734
$GPGGA,200427.00,3515.8210,N,12112.2896,W,1,09,1.0,11.2,M,-31.9,M,,*6C
$PYRTM,2024,124.836450460637,15.946097870775
$GPGGA,200428.00,3515.8200,N,12112.2921,W,1,09,1.0,11.0,M,-31.9,M,,*6D
$PYRTM,2024,124.836462048171,15.946109458310
$GPGGA,200429.00,3515.8189,N,12112.2948,W,1,09,1.0,10.6,M,-31.9,M,,*66
$PYRTM,2024,124.836469457801,15.946116867940
$GPGGA,200430.00,3515.8179,N,12112.2973,W,1,09,1.0,10.4,M,-31.9,M,,*6B
$PYRTM,2024,124.836485195937,15.946132606076
$GPGGA,200431.00,3515.8169,N,12112.2996,W,1,09,1.0,10.7,M,-31.9,M,,*63
$PYRTM,2024,124.836492604988,15.946140015127
$GPGGA,200432.00,3515.8160,N,12112.3021,W,1,09,1.0,11.0,M,-31.9,M,,*6B
$PYRTM,2024,124.836508345023,15.946155755162
$GPGGA,200433.00,3515.8150,N,12112.3049,W,1,09,1.0,10.6,M,-31.9,M,,*60
$PYRTM,2024,124.836519905116,15.946167315255
$GPGGA,200434.00,3515.8140,N,12112.3074,W,1,08,1.0,9.3,M,-31.9,M,,*54
$PYRTM,2024,124.836531494039,15.946178904178
$GPGGA,200435.00,3515.8131,N,12112.3096,W,1,08,1.0,9.6,M,-31.9,M,,*5A
$PYRTM,2024,124.836543053646,15.946190463785
$GPGGA,200436.00,3515.8121,N,12112.3119,W,1,08,1.0,9.6,M,-31.9,M,,*5E
$PYRTM,2024,124.836554641019,15.946202051157
$GPGGA,200437.00,3515.8110,N,12112.3147,W,1,08,1.0,9.5,M,-31.9,M,,*55
$PYRTM,2024,124.836566201111,15.946213611250
$GPGGA,200438.00,3515.8100,N,12112.3174,W,1,08,1.0,9.5,M,-31.9,M,,*5B
$PYRTM,2024,124.836573507095,15.946220917234
$GPGGA,200439.00,3515.8093,N,12112.3199,W,1,08,1.0,9.7,M,-31.9,M,,*50
$PYRTM,2024,124.836589349954,15.946236760093
$GPGGA,200440.00,3515.8084,N,12112.3225,W,1,08,1.0,9.4,M,-31.9,M,,*5F
$PYRTM,2024,124.836600941586,15.946248351725
$GPGGA,200441.00,3515.8072,N,12112.3249,W,1,08,1.0,9.5,M,-31.9,M,,*5C
$PYRTM,2024,124.836608215382,15.946255625521
$GPGGA,200442.00,3515.8060,N,12112.3274,W,1,08,1.0,9.3,M,-31.9,M,,*54
$PYRTM,2024,124.836626863993,15.946274274132
$GPGGA,200443.00,3515.8049,N,12112.3302,W,1,08,1.0,9.0,M,-31.9,M,,*5D
$PYRTM,2024,124.836635646620,15.946283056759
$GPGGA,200444.00,3515.8041,N,12112.3328,W,1,08,1.0,8.8,M,-31.9,M,,*53
$PYRTM,2024,124.836647233738,15.946294643877
$GPGGA,200445.00,3515.8032,N,12112.3352,W,1,08,1.0,8.9,M,-31.9,M,,*5A
$PYRTM,2024,124.836658797025,15.946306207164
$GPGGA,200446.00,3515.8021,N,12112.3375,W,1,08,1.0,9.3,M,-31.9,M,,*55
$PYRTM,2024,124.836670377245,15.946317787384
$GPGGA,200447.00,3515.8009,N,12112.3400,W,1,08,1.0,9.5,M,-31.9,M,,*5D
$PYRTM,2024,124.836681944687,15.946329354838
$GPGGA,200448.00,3515.8000,N,12112.3427,W,1,08,1.0,9.2,M,-31.9,M,,*59
$PYRTM,2024,124.836693530312,15.946340940451
$GPGGA,200449.00,3515.7992,N,12112.3453,W,1,08,1.0,8.7,M,-31.9,M,,*52
$PYRTM,2024,124.836705091771,15.946352501910
$GPGGA,200450.00,3515.7984,N,12112.3476,W,1,08,1.0,8.8,M,-31.9,M,,*55
$PYRTM,2024,124.836716677917,15.946364088056
$GPGGA,200451.00,3515.7972,N,12112.3499,W,1,08,1.0,9.3,M,-31.9,M,,*56
$PYRTM,2024,124.836728240127,15.946375650266
$GPGGA,200452.00,3515.7960,N,12112.3524,W,1,08,1.0,9.4,M,-31.9,M,,*56
$PYRTM,2024,124.836739831667,15.946387241806
$GPGGA,200453.00,3515.7951,N,12112.3551,W,1,08,1.0,9.1,M,-31.9,M,,*52
$PYRTM,2024,124.836751388484,15.946398798623
$GPGGA,200454.00,3515.7944,N,12112.3577,W,1,08,1.0,8.8,M,-31.9,M,,*5D
$PYRTM,2024,124.836762978981,15.946410389132
$GPGGA,200455.00,3515.7936,N,12112.3602,W,1,08,1.0,8.5,M,-31.9,M,,*55
$PYRTM,2024,124.836774537743,15.946421947882
$GPGGA,200456.00,3515.7924,N,12112.3626,W,1,08,1.0,8.5,M,-31.9,M,,*53
$PYRTM,2024,124.836786125613,15.946433535752
$GPGGA,200457.00,3515.7911,N,12112.3650,W,1,08,1.0,8.7,M,-31.9,M,,*57
$PYRTM,2024,124.836797685683,15.946445095822
$GPGGA,200458.00,3515.7901,N,12112.3677,W,1,08,1.0,8.8,M,-31.9,M,,*53
$PYRTM,2024,124.836809272685,15.946456682836
$GPGGA,200459.00,3515.7894,N,12112.3703,W,1,08,1.0,9.0,M,-31.9,M,,*54
$PYRTM,2024,124.836820835266,15.946468245405
$GPGGA,200500.00,3515.7887,N,12112.3728,W,1,08,1.0,9.2,M,-31.9,M,,*50
$PYRTM,2024,124.836832422928,15.946479833067
$GPGGA,200501.00,3515.7877,N,12112.3753,W,1,08,1.0,9.3,M,-31.9,M,,*53
$PYRTM,2024,124.836843982708,15.946491392847
$GPGGA,200502.00,3515.7865,N,12112.3779,W,1,08,1.0,9.3,M,-31.9,M,,*5B
$PYRTM,2024,124.836855571308,15.946502981447
$GPGGA,200503.00,3515.7855,N,12112.3804,W,1,08,1.0,9.1,M,-31.9,M,,*5E
$PYRTM,2024,124.836867130891,15.946514541030
$GPGGA,200504.00,3515.7847,N,12112.3830,W,1,08,1.0,9.0,M,-31.9,M,,*5C
$PYRTM,2024,124.836878716863,15.946526127002
$GPGGA,200505.00,3515.7838,N,12112.3855,W,1,08,1.0,9.3,M,-31.9,M,,*55
$PYRTM,2024,124.836890278588,15.946537688727
$GPGGA,200506.00,3515.7828,N,12112.3880,W,1,08,1.0,9.6,M,-31.9,M,,*5A
$PYRTM,2024,124.836901869664,15.946549279815
$GPGGA,200507.00,3515.7818,N,12112.3906,W,1,08,1.0,9.4,M,-31.9,M,,*55
$PYRTM,2024,124.836913426667,15.946560836806
$GPGGA,200508.00,3515.7809,N,12112.3933,W,1,08,1.0,9.1,M,-31.9,M,,*59
$PYRTM,2024,124.836925016921,15.946572427060
$GPGGA,200509.00,3515.7800,N,12112.3957,W,1,08,1.0,9.2,M,-31.9,M,,*50
$PYRTM,2024,124.836936575347,15.946583985486
$GPGGA,200510.00,3515.7788,N,12112.3980,W,1,08,1.0,9.6,M,-31.9,M,,*59
$PYRTM,2024,124.836943878727,15.946591288866
$GPGGA,200511.00,3515.7775,N,12112.4007,W,1,08,1.0,9.6,M,-31.9,M,,*5B
$PYRTM,2024,124.836959723831,15.946607133970
$GPGGA,200512.00,3515.7767,N,12112.4035,W,1,08,1.0,9.6,M,-31.9,M,,*5A
$PYRTM,2024,124.836967026933,15.946614437072
$GPGGA,200513.00,3515.7760,N,12112.4061,W,1,08,1.0,9.9,M,-31.9,M,,*52
$PYRTM,2024,124.836985764340,15.946633174479
$GPGGA,200514.00,3515.7750,N,12112.4085,W,1,08,1.0,10.2,M,-31.9,M,,*6F
$PYRTM,2024,124.836994460590,15.946641870741
$GPGGA,200515.00,3515.7738,N,12112.4110,W,1,08,1.0,10.3,M,-31.9,M,,*6C
$PYRTM,2024,124.837006021169,15.946653431319
$GPGGA,200516.00,3515.7728,N,12112.4136,W,1,08,1.0,10.2,M,-31.9,M,,*6B
$PYRTM,2024,124.837017608958,15.946665019097
$GPGGA,200517.00,3515.7719,N,12112.4162,W,1,08,1.0,10.1,M,-31.9,M,,*6A
$PYRTM,2024,124.837029169792,15.946676579931
$GPGGA,200518.00,3515.7710,N,12112.4188,W,1,08,1.0,10.0,M,-31.9,M,,*69
$PYRTM,2024,124.837040755984,15.946688166123
$GPGGA,200519.00,3515.7701,N,12112.4213,W,1,08,1.0,9.9,M,-31.9,M,,*58
$PYRTM,2024,124.837052317257,15.946699727396
$GPGGA,200520.00,3515.7691,N,12112.4238,W,1,08,1.0,10.0,M,-31.9,M,,*62
$PYRTM,2024,124.837059724606,15.946707134745
$GPGGA,200521.00,3515.7681,N,12112.4264,W,1,08,1.0,10.1,M,-31.9,M,,*6A
$PYRTM,2024,124.837075465093,15.946722875231
$GPGGA,200522.00,3515.7670,N,12112.4291,W,1,08,1.0,9.9,M,-31.9,M,,*5D
$PYRTM,2024,124.837087055475,15.946734465613
$GPGGA,200523.00,3515.7661,N,12112.4317,W,1,08,1.0,9.8,M,-31.9,M,,*52
$PYRTM,2024,124.837098612801,15.946746022951
$GPGGA,200524.00,3515.7653,N,12112.4341,W,1,08,1.0,10.1,M,-31.9,M,,*66
$PYRTM,2024,124.837110203449,15.946757613588
$GPGGA,200525.00,3515.7642,N,12112.4366,W,1,08,1.0,10.4,M,-31.9,M,,*67
$PYRTM,2024,124.837121761759,15.946769171898
$GPGGA,200526.00,3515.7630,N,12112.4392,W,1,08,1.0,10.5,M,-31.9,M,,*6B
$PYRTM,2024,124.837129169630,15.946776579769
$GPGGA,200527.00,3515.7620,N,12112.4418,W,1,08,1.0,10.4,M,-31.9,M,,*6F
$PYRTM,2024,124.837140875995,15.946788286134
$GPGGA,200528.00,3515.7612,N,12112.4444,W,1,08,1.0,10.4,M,-31.9,M,,*68
$PYRTM,2024,124.837156498137,15.946803908275
$GPGGA,200529.00,3515.7604,N,12112.4470,W,1,08,1.0,10.3,M,-31.9,M,,*6E
$PYRTM,2024,124.837168058889,15.946815469028
$GPGGA,200530.00,3515.7594,N,12112.4496,W,1,08,1.0,10.2,M,-31.9,M,,*65
$PYRTM,2024,124.837179646146,15.946827056285
$GPGGA,200531.00,3515.7583,N,12112.4520,W,1,08,1.0,10.3,M,-31.9,M,,*6F
$PYRTM,2024,124.837191206539,15.946838616678
$GPGGA,200532.00,3515.7573,N,12112.4545,W,1,08,1.0,10.4,M,-31.9,M,,*67
$PYRTM,2024,124.837202793843,15.946850203981
$GPGGA,200533.00,3515.7565,N,12112.4572,W,1,08,1.0,10.3,M,-31.9,M,,*62
$PYRTM,2024,124.837214356389,15.946861766528
$GPGGA,200534.00,3515.7556,N,12112.4599,W,1,08,1.0,10.0,M,-31.9,M,,*63
$PYRTM,2024,124.837225956678,15.946873366817
$GPGGA,200535.00,3515.7546,N,12112.4623,W,1,08,1.0,10.0,M,-31.9,M,,*61
$PYRTM,2024,124.837237504954,15.946884915093
$GPGGA,200536.00,3515.7536,N,12112.4647,W,1,08,1.0,10.3,M,-31.9,M,,*64
$PYRTM,2024,124.837244910150,15.946892320289
$GPGGA,200537.00,3515.7526,N,12112.4673,W,1,08,1.0,10.4,M,-31.9,M,,*64
$PYRTM,2024,124.837260651794,15.946908061933
$GPGGA,200538.00,3515.7517,N,12112.4700,W,1,08,1.0,10.2,M,-31.9,M,,*6A
$PYRTM,2024,124.837272238368,15.946919648507
$GPGGA,200539.00,3515.7506,N,12112.4726,W,1,08,1.0,10.0,M,-31.9,M,,*6D
$PYRTM,2024,124.837283799884,15.946931210023
$GPGGA,200540.00,3515.7496,N,12112.4751,W,1,08,1.0,10.1,M,-31.9,M,,*6A
$PYRTM,2024,124.837295387153,15.946942797292
$GPGGA,200541.00,3515.7487,N,12112.4776,W,1,08,1.0,10.4,M,-31.9,M,,*6B
$PYRTM,2024,124.837306948137,15.946954358275
$GPGGA,200542.00,3515.7479,N,12112.4802,W,1,08,1.0,10.4,M,-31.9,M,,*65
$PYRTM,2024,124.837313667789,15.946961077928
$GPGGA,200543.00,3515.7469,N,12112.4829,W,1,08,1.3,10.1,M,-31.9,M,,*6A
$PYRTM,2024,124.837326045336,15.946973455475
$GPGGA,200544.00,3515.7458,N,12112.4855,W,1,08,1.0,9.8,M,-31.9,M,,*56
$PYRTM,2024,124.837344577477,15.946991987616
$GPGGA,200545.00,3515.7448,N,12112.4879,W,1,08,1.0,10.0,M,-31.9,M,,*68
$PYRTM,2024,124.837353244456,15.947000654595
$GPGGA,200546.00,3515.7438,N,12112.4904,W,1,08,1.3,10.3,M,-31.9,M,,*67
$PYRTM,2024,124.837364834653,15.947012244792
$GPGGA,200547.00,3515.7428,N,12112.4930,W,1,08,1.0,10.4,M,-31.9,M,,*64
$PYRTM,2024,124.837376392882,15.947023803021
$GPGGA,200548.00,3515.7418,N,12112.4957,W,1,08,1.0,10.4,M,-31.9,M,,*69
$PYRTM,2024,124.837387980104,15.947035390243
$GPGGA,200549.00,3515.7409,N,12112.4984,W,1,08,1.0,10.0,M,-31.9,M,,*62
$PYRTM,2024,124.837399542072,15.947046952222
$GPGGA,200550.00,3515.7400,N,12112.5009,W,1,08,1.0,9.9,M,-31.9,M,,*5F
$PYRTM,2024,124.837411131285,15.947058541424
$GPGGA,200551.00,3515.7390,N,12112.5034,W,1,08,1.0,10.0,M,-31.9,M,,*6F
$PYRTM,2024,124.837422691806,15.947070101944
$GPGGA,200552.00,3515.7379,N,12112.5058,W,1,08,1.0,10.2,M,-31.9,M,,*63
$PYRTM,2024,124.837430096285,15.947077506424
$GPGGA,200553.00,3515.7368,N,12112.5083,W,1,08,1.0,10.3,M,-31.9,M,,*65
$PYRTM,2024,124.837445837975,15.947093248113
$GPGGA,200554.00,3515.7359,N,12112.5111,W,1,08,1.0,10.1,M,-31.9,M,,*68
$PYRTM,2024,124.837457425012,15.947104835150
$GPGGA,200555.00,3515.7352,N,12112.5138,W,1,08,1.0,9.8,M,-31.9,M,,*58
$PYRTM,2024,124.837464719155,15.947112129294
$GPGGA,200556.00,3515.7344,N,12112.5164,W,1,08,1.0,9.7,M,-31.9,M,,*5A
$PYRTM,2024,124.837480573368,15.947127983507
$GPGGA,200557.00,3515.7332,N,12112.5188,W,1,08,1.0,9.9,M,-31.9,M,,*56
$PYRTM,2024,124.837492136620,15.947139546759
$GPGGA,200558.00,3515.7319,N,12112.5213,W,1,08,1.0,10.2,M,-31.9,M,,*62
$PYRTM,2024,124.837503721493,15.947151131632
$GPGGA,200559.00,3515.7309,N,12112.5239,W,1,08,1.0,10.4,M,-31.9,M,,*6C
$PYRTM,2024,124.837515283889,15.947162694028
$GPGGA,200600.00,3515.7301,N,12112.5265,W,1,08,1.0,10.3,M,-31.9,M,,*65
$PYRTM,2024,124.837526870289,15.947174280428
$GPGGA,200601.00,3515.7294,N,12112.5292,W,1,08,1.0,10.1,M,-31.9,M,,*63
$PYRTM,2024,124.837538432836,15.947185842975
$GPGGA,200602.00,3515.7284,N,12112.5318,W,1,08,1.0,9.8,M,-31.9,M,,*53
$PYRTM,2024,124.837550032789,15.947197442940
$GPGGA,200603.00,3515.7273,N,12112.5343,W,1,08,1.0,9.8,M,-31.9,M,,*54
$PYRTM,2024,124.837561579537,15.947208989676
$GPGGA,200604.00,3515.7262,N,12112.5367,W,1,08,1.0,10.0,M,-31.9,M,,*65
$PYRTM,2024,124.837568987060,15.947216397199
$GPGGA,200605.00,3515.7252,N,12112.5392,W,1,08,1.0,10.2,M,-31.9,M,,*6F
$PYRTM,2024,124.837584728113,15.947232138264
$GPGGA,200606.00,3515.7243,N,12112.5420,W,1,08,1.0,10.1,M,-31.9,M,,*61
$PYRTM,2024,124.837596320891,15.947243731030
$GPGGA,200607.00,3515.7235,N,12112.5445,W,1,08,1.0,10.1,M,-31.9,M,,*62
$PYRTM,2024,124.837603722627,15.947251132766
$GPGGA,200608.00,3515.7226,N,12112.5471,W,1,08,1.0,10.1,M,-31.9,M,,*68
$PYRTM,2024,124.837619467708,15.947266877847
$GPGGA,200609.00,3515.7217,N,12112.5498,W,1,08,1.0,10.0,M,-31.9,M,,*6D
$PYRTM,2024,124.837631024873,15.947278435012
$GPGGA,200610.00,3515.7207,N,12112.5524,W,1,08,1.0,9.8,M,-31.9,M,,*52
$PYRTM,2024,124.837642611887,15.947290022025
$GPGGA,200611.00,3515.7195,N,12112.5547,W,1,08,1.0,10.1,M,-31.9,M,,*6F
$PYRTM,2024,124.837654172419,15.947301582558
$GPGGA,200612.00,3515.7184,N,12112.5572,W,1,08,1.0,10.3,M,-31.9,M,,*68
$PYRTM,2024,124.837665759954,15.947313170093
$GPGGA,200613.00,3515.7175,N,12112.5600,W,1,08,1.0,10.4,M,-31.9,M,,*66
$PYRTM,2024,124.837673154792,15.947320564931
$GPGGA,200614.00,3515.7168,N,12112.5627,W,1,08,1.0,9.9,M,-31.9,M,,*5D
$PYRTM,2024,124.837691686759,15.947339096898
$GPGGA,200615.00,3515.7158,N,12112.5650,W,1,08,1.0,9.9,M,-31.9,M,,*5F
$PYRTM,2024,124.837700468970,15.947347879109
$GPGGA,200616.00,3515.7145,N,12112.5675,W,1,08,1.0,10.2,M,-31.9,M,,*64
$PYRTM,2024,124.837712057396,15.947359467546
$GPGGA,200617.00,3515.7131,N,12112.5701,W,1,08,1.0,10.3,M,-31.9,M,,*65
$PYRTM,2024,124.837723617512,15.947371027662
$GPGGA,200618.00,3515.7121,N,12112.5728,W,1,08,1.0,10.3,M,-31.9,M,,*60
$PYRTM,2024,124.837735208438,15.947382618576
$GPGGA,200619.00,3515.7113,N,12112.5753,W,1,08,1.0,10.2,M,-31.9,M,,*6D
$PYRTM,2024,124.837746765394,15.947394175532
$GPGGA,200620.00,3515.7105,N,12112.5778,W,1,08,1.0,10.3,M,-31.9,M,,*68
$PYRTM,2024,124.837758356806,15.947405766944
$GPGGA,200621.00,3515.7094,N,12112.5805,W,1,08,1.0,10.0,M,-31.9,M,,*66
$PYRTM,2024,124.837769913993,15.947417324132
$GPGGA,200622.00,3515.7085,N,12112.5831,W,1,08,1.0,9.8,M,-31.9,M,,*52
$PYRTM,2024,124.837781501944,15.947428912083
$GPGGA,200623.00,3515.7076,N,12112.5856,W,1,08,1.0,9.8,M,-31.9,M,,*5E
$PYRTM,2024,124.837793063773,15.947440473912
$GPGGA,200624.00,3515.7068,N,12112.5881,W,1,08,1.0,10.1,M,-31.9,M,,*6D
$PYRTM,2024,124.837804649792,15.947452059931
$GPGGA,200625.00,3515.7060,N,12112.5907,W,1,08,1.0,10.4,M,-31.9,M,,*6E
$PYRTM,2024,124.837816211458,15.947463621597
$GPGGA,200626.00,3515.7052,N,12112.5934,W,1,08,1.0,10.2,M,-31.9,M,,*6A
$PYRTM,2024,124.837827798889,15.947475209039
$GPGGA,200627.00,3515.7042,N,12112.5961,W,1,08,1.0,9.7,M,-31.9,M,,*57
$PYRTM,2024,124.837839373495,15.947486783634
$GPGGA,200628.00,3515.7034,N,12112.5985,W,1,08,1.0,9.6,M,-31.9,M,,*52
$PYRTM,2024,124.837846767083,15.947494177222
$GPGGA,200629.00,3515.7025,N,12112.6009,W,1,08,1.0,10.0,M,-31.9,M,,*63
$PYRTM,2024,124.837862521215,15.947509931354
$GPGGA,200630.00,3515.7014,N,12112.6035,W,1,08,1.0,10.3,M,-31.9,M,,*65
$PYRTM,2024,124.837874095185,15.947521505324
$GPGGA,200631.00,3515.7004,N,12112.6062,W,1,08,1.0,10.2,M,-31.9,M,,*66
$PYRTM,2024,124.837885670278,15.947533080428
$GPGGA,200632.00,3515.6995,N,12112.6088,W,1,08,1.0,10.0,M,-31.9,M,,*63
$PYRTM,2024,124.837897246551,15.947544656690
$GPGGA,200633.00,3515.6987,N,12112.6114,W,1,08,1.0,10.0,M,-31.9,M,,*65
$PYRTM,2024,124.837908817442,15.947556227581
$GPGGA,200634.00,3515.6976,N,12112.6138,W,1,08,1.0,10.2,M,-31.9,M,,*60
$PYRTM,2024,124.837920393657,15.947567803796
$GPGGA,200635.00,3515.6964,N,12112.6163,W,1,08,1.0,10.5,M,-31.9,M,,*6B
$PYRTM,2024,124.837931965417,15.947579375556
$GPGGA,200636.00,3515.6954,N,12112.6189,W,1,08,1.0,10.6,M,-31.9,M,,*6C
$PYRTM,2024,124.837943540104,15.947590950243
$GPGGA,200637.00,3515.6947,N,12112.6216,W,1,08,1.0,10.4,M,-31.9,M,,*68
$PYRTM,2024,124.837955113322,15.947602523461
$GPGGA,200638.00,3515.6940,N,12112.6243,W,1,08,1.0,10.2,M,-31.9,M,,*66
$PYRTM,2024,124.837966682789,15.947614092928
$GPGGA,200639.00,3515.6930,N,12112.6267,W,1,08,1.0,10.3,M,-31.9,M,,*67
$PYRTM,2024,124.837978256447,15.947625666586
$GPGGA,200640.00,3515.6918,N,12112.6291,W,1,08,1.0,10.4,M,-31.9,M,,*6D
$PYRTM,2024,124.837989837106,15.947637247245
$GPGGA,200641.00,3515.6908,N,12112.6317,W,1,08,1.0,10.3,M,-31.9,M,,*65
$PYRTM,2024,124.838001411435,15.947648821574
$GPGGA,200642.00,3515.6901,N,12112.6344,W,1,08,1.0,10.0,M,-31.9,M,,*6A
$PYRTM,2024,124.838012988044,15.947660398183
$GPGGA,200643.00,3515.6892,N,12112.6371,W,1,08,1.0,9.9,M,-31.9,M,,*57
$PYRTM,2024,124.838019221887,15.947666632025
$GPGGA,200644.00,3515.6882,N,12112.6395,W,1,08,1.0,10.1,M,-31.9,M,,*6B
$PYRTM,2024,124.838032068380,15.947679478519
$GPGGA,200645.00,3515.6871,N,12112.6421,W,1,08,1.0,10.2,M,-31.9,M,,*6D
$PYRTM,2024,124.838050587616,15.947697997755
$GPGGA,200646.00,3515.6861,N,12112.6447,W,1,08,1.0,10.3,M,-31.9,M,,*6E
$PYRTM,2024,124.838062174653,15.947709584803
$GPGGA,200647.00,3515.6852,N,12112.6472,W,1,08,1.0,10.4,M,-31.9,M,,*6E
$PYRTM,2024,124.838073736181,15.947721146319
$GPGGA,200648.00,3515.6842,N,12112.6498,W,1,08,1.0,10.3,M,-31.9,M,,*63
$PYRTM,2024,124.838082443600,15.947729853738
$GPGGA,200649.00,3515.6833,N,12112.6525,W,1,08,1.0,10.0,M,-31.9,M,,*60
$PYRTM,2024,124.838089823981,15.947737234120
$GPGGA,200650.00,3515.6823,N,12112.6550,W,1,08,1.0,10.0,M,-31.9,M,,*6B
$PYRTM,2024,124.838105576782,15.947752986921
$GPGGA,200651.00,3515.6813,N,12112.6573,W,1,08,1.0,10.4,M,-31.9,M,,*6C
$PYRTM,2024,124.838117150382,15.947764560521
$GPGGA,200652.00,3515.6804,N,12112.6599,W,1,08,1.0,10.5,M,-31.9,M,,*6C
$PYRTM,2024,124.838124546250,15.947771956389
$GPGGA,200653.00,3515.6795,N,12112.6627,W,1,08,1.0,10.2,M,-31.9,M,,*6B
$PYRTM,2024,124.838140300428,15.947787710579
$GPGGA,200654.00,3515.6785,N,12112.6652,W,1,08,1.0,10.0,M,-31.9,M,,*6D
$PYRTM,2024,124.838151879734,15.947799289873
$GPGGA,200655.00,3515.6776,N,12112.6677,W,1,08,1.0,10.3,M,-31.9,M,,*64
$PYRTM,2024,124.838159268843,15.947806678981
$GPGGA,200656.00,3515.6767,N,12112.6703,W,1,08,1.0,10.5,M,-31.9,M,,*63
$PYRTM,2024,124.838175022500,15.947822432639
$GPGGA,200657.00,3515.6758,N,12112.6729,W,1,08,1.0,10.6,M,-31.9,M,,*65
$PYRTM,2024,124.838186596447,15.947834006586
$GPGGA,200658.00,3515.6748,N,12112.6755,W,1,08,1.0,10.4,M,-31.9,M,,*62
$PYRTM,2024,124.838193991343,15.947841401481
$GPGGA,200659.00,3515.6738,N,12112.6781,W,1,08,1.0,10.0,M,-31.9,M,,*69
$PYRTM,2024,124.838209749178,15.947857159317
$GPGGA,200700.00,3515.6730,N,12112.6806,W,1,08,1.0,9.9,M,-31.9,M,,*5D
$PYRTM,2024,124.838221322870,15.947868733009
$GPGGA,200701.00,3515.6720,N,12112.6831,W,1,08,1.0,9.9,M,-31.9,M,,*59
$PYRTM,2024,124.838232894074,15.947880304213
$GPGGA,200702.00,3515.6710,N,12112.6857,W,1,08,1.0,10.0,M,-31.9,M,,*68
$PYRTM,2024,124.838244471528,15.947891881667
$GPGGA,200703.00,3515.6700,N,12112.6883,W,1,08,1.0,10.0,M,-31.9,M,,*61
$PYRTM,2024,124.838256041238,15.947903451389
$GPGGA,200704.00,3515.6691,N,12112.6909,W,1,08,1.0,10.0,M,-31.9,M,,*6C
$PYRTM,2024,124.838267630787,15.947915040926
$GPGGA,200705.00,3515.6680,N,12112.6934,W,1,08,1.0,10.1,M,-31.9,M,,*62
$PYRTM,2024,124.838279189850,15.947926599988
$GPGGA,200706.00,3515.6670,N,12112.6959,W,1,08,1.0,10.4,M,-31.9,M,,*60
$PYRTM,2024,124.838290765544,15.947938175683
$GPGGA,200707.00,3515.6661,N,12112.6986,W,1,08,1.0,10.5,M,-31.9,M,,*62
$PYRTM,2024,124.838298173461,15.947945583600
$GPGGA,200708.00,3515.6652,N,12112.7013,W,1,08,1.0,10.4,M,-31.9,M,,*68
$PYRTM,2024,124.838313908715,15.947961318854
$GPGGA,200709.00,3515.6643,N,12112.7039,W,1,08,1.0,10.3,M,-31.9,M,,*66
$PYRTM,2024,124.838325487465,15.947972897604
$GPGGA,200710.00,3515.6633,N,12112.7064,W,1,08,1.0,10.4,M,-31.9,M,,*66
$PYRTM,2024,124.838332883275,15.947980293414
$GPGGA,200711.00,3515.6623,N,12112.7089,W,1,08,1.0,10.6,M,-31.9,M,,*67
$PYRTM,2024,124.838348630463,15.947996040602
$GPGGA,200712.00,3515.6614,N,12112.7114,W,1,08,1.0,10.7,M,-31.9,M,,*64
$PYRTM,2024,124.838360209294,15.948007619433
$GPGGA,200713.00,3515.6605,N,12112.7140,W,1,08,1.0,10.7,M,-31.9,M,,*64
$PYRTM,2024,124.838371778056,15.948019188194
$GPGGA,200714.00,3515.6596,N,12112.7167,W,1,08,1.0,10.4,M,-31.9,M,,*6C
$PYRTM,2024,124.838383358519,15.948030768657
$GPGGA,200715.00,3515.6586,N,12112.7194,W,1,08,1.0,10.0,M,-31.9,M,,*64
$PYRTM,2024,124.838390752373,15.948038162512
$GPGGA,200716.00,3515.6576,N,12112.7218,W,1,08,1.0,10.1,M,-31.9,M,,*6E
$PYRTM,2024,124.838409402662,15.948056812801
$GPGGA,200717.00,3515.6565,N,12112.7241,W,1,08,1.0,10.5,M,-31.9,M,,*65
$PYRTM,2024,124.838418081227,15.948065491366
$GPGGA,200718.00,3515.6555,N,12112.7268,W,1,08,1.0,10.7,M,-31.9,M,,*60
$PYRTM,2024,124.838429654062,15.948077064201
$GPGGA,200719.00,3515.6546,N,12112.7297,W,1,08,1.0,10.3,M,-31.9,M,,*67
$PYRTM,2024,124.838441229641,15.948088639780
$GPGGA,200720.00,3515.6539,N,12112.7324,W,1,08,1.0,10.0,M,-31.9,M,,*6F
$PYRTM,2024,124.838452803183,15.948100213322
$GPGGA,200721.00,3515.6530,N,12112.7348,W,1,08,1.0,10.4,M,-31.9,M,,*69
$PYRTM,2024,124.838464375845,15.948111785984
$GPGGA,200722.00,3515.6518,N,12112.7371,W,1,08,1.0,11.0,M,-31.9,M,,*6F
$PYRTM,2024,124.838471770660,15.948119180799
$GPGGA,200723.00,3515.6506,N,12112.7397,W,1,08,1.0,11.2,M,-31.9,M,,*6B
$PYRTM,2024,124.838487525313,15.948134935451
$GPGGA,200724.00,3515.6498,N,12112.7425,W,1,08,1.0,10.8,M,-31.9,M,,*6F
$PYRTM,2024,124.838499098796,15.948146508935
$GPGGA,200725.00,3515.6492,N,12112.7452,W,1,08,1.0,10.3,M,-31.9,M,,*6F
$PYRTM,2024,124.838506495428,15.948153905567
$GPGGA,200726.00,3515.6485,N,12112.7476,W,1,08,1.0,10.4,M,-31.9,M,,*6B
$PYRTM,2024,124.838522249317,15.948169659468
$GPGGA,200727.00,3515.6474,N,12112.7498,W,1,08,1.0,10.8,M,-31.9,M,,*68
$PYRTM,2024,124.838533821725,15.948181231863
$GPGGA,200728.00,3515.6459,N,12112.7523,W,1,08,1.0,11.0,M,-31.9,M,,*60
$PYRTM,2024,124.838545395532,15.948192805683
$GPGGA,200729.00,3515.6449,N,12112.7552,W,1,08,1.0,10.6,M,-31.9,M,,*61
$PYRTM,2024,124.838556969259,15.948204379398
$GPGGA,200730.00,3515.6443,N,12112.7580,W,1,08,1.0,10.2,M,-31.9,M,,*68
$PYRTM,2024,124.838568547465,15.948215957604
$GPGGA,200731.00,3515.6436,N,12112.7605,W,1,08,1.0,10.3,M,-31.9,M,,*64
$PYRTM,2024,124.838575938032,15.948223348171
$GPGGA,200732.00,3515.6425,N,12112.7630,W,1,08,1.0,10.6,M,-31.9,M,,*66
$PYRTM,2024,124.838591695729,15.948239105868
$GPGGA,200733.00,3515.6411,N,12112.7654,W,1,08,1.0,11.0,M,-31.9,M,,*65
$PYRTM,2024,124.838603265637,15.948250675775
$GPGGA,200734.00,3515.6400,N,12112.7679,W,1,08,1.0,11.2,M,-31.9,M,,*6F
$PYRTM,2024,124.838610660648,15.948258070799
$GPGGA,200735.00,3515.6395,N,12112.7706,W,1,08,1.0,11.1,M,-31.9,M,,*6F
$PYRTM,2024,124.838626414919,15.948273825069
$GPGGA,200736.00,3515.6390,N,12112.7734,W,1,08,1.0,10.8,M,-31.9,M,,*60
$PYRTM,2024,124.838637989491,15.948285399630
$GPGGA,200737.00,3515.6380,N,12112.7758,W,1,08,1.0,10.6,M,-31.9,M,,*64
$PYRTM,2024,124.838645397558,15.948292807697
$GPGGA,200738.00,3515.6367,N,12112.7781,W,1,08,1.0,10.7,M,-31.9,M,,*67
$PYRTM,2024,124.838661138889,15.948308549039
$GPGGA,200739.00,3515.6355,N,12112.7805,W,1,08,1.0,10.8,M,-31.9,M,,*6B
$PYRTM,2024,124.838672711725,15.948320121863
$GPGGA,200740.00,3515.6348,N,12112.7831,W,1,08,1.0,11.0,M,-31.9,M,,*67
$PYRTM,2024,124.838684631377,15.948332041516
$GPGGA,200741.00,3515.6342,N,12112.7856,W,1,08,1.0,10.9,M,-31.9,M,,*65
$PYRTM,2024,124.838695861146,15.948343271285
$GPGGA,200742.00,3515.6333,N,12112.7882,W,1,08,1.0,10.7,M,-31.9,M,,*67
$PYRTM,2024,124.838707437407,15.948354847546
$GPGGA,200743.00,3515.6321,N,12112.7907,W,1,08,1.0,10.4,M,-31.9,M,,*6A
$PYRTM,2024,124.838719008738,15.948366418877
$GPGGA,200744.00,3515.6311,N,12112.7931,W,1,08,1.0,10.4,M,-31.9,M,,*6B
$PYRTM,2024,124.838730584502,15.948377994641
$GPGGA,200745.00,3515.6301,N,12112.7956,W,1,08,1.0,10.5,M,-31.9,M,,*6B
$PYRTM,2024,124.838742151597,15.948389561736
$GPGGA,200746.00,3515.6292,N,12112.7982,W,1,08,1.0,10.5,M,-31.9,M,,*6A
$PYRTM,2024,124.838749664699,15.948397074838
$GPGGA,200747.00,3515.6284,N,12112.8008,W,1,08,1.0,10.5,M,-31.9,M,,*68
$PYRTM,2024,124.838761239641,15.948408649780
$GPGGA,200748.00,3515.6276,N,12112.8033,W,1,08,1.0,10.5,M,-31.9,M,,*62
$PYRTM,2024,124.838779776782,15.948427186921
$GPGGA,200749.00,3515.6265,N,12112.8058,W,1,08,1.0,10.6,M,-31.9,M,,*6F
$PYRTM,2024,124.838791229722,15.948438639861
$GPGGA,200750.00,3515.6255,N,12112.8084,W,1,08,1.0,10.3,M,-31.9,M,,*60
$PYRTM,2024,124.838802804745,15.948450214884
$GPGGA,200751.00,3515.6246,N,12112.8110,W,1,08,1.0,9.9,M,-31.9,M,,*5D
$PYRTM,2024,124.838811485440,15.948458895590
$GPGGA,200752.00,3515.6239,N,12112.8134,W,1,08,1.0,9.9,M,-31.9,M,,*50
$PYRTM,2024,124.838818301273,15.948465711400
$GPGGA,200753.00,3515.6230,N,12112.8158,W,1,08,1.0,10.4,M,-31.9,M,,*67
$PYRTM,2024,124.838834750880,15.948482161019
$GPGGA,200754.00,3515.6218,N,12112.8185,W,1,08,1.0,10.3,M,-31.9,M,,*6D
$PYRTM,2024,124.838842028194,15.948489438333
$GPGGA,200755.00,3515.6207,N,12112.8212,W,1,08,1.0,9.9,M,-31.9,M,,*5D
$PYRTM,2024,124.838853834896,15.948501245035
$GPGGA,200756.00,3515.6199,N,12112.8237,W,1,08,1.0,9.7,M,-31.9,M,,*53
$PYRTM,2024,124.838869472072,15.948516882211
$GPGGA,200757.00,3515.6191,N,12112.8260,W,1,08,1.0,10.0,M,-31.9,M,,*67
$PYRTM,2024,124.838881041412,15.948528451551
$GPGGA,200758.00,3515.6181,N,12112.8285,W,1,08,1.0,10.4,M,-31.9,M,,*66
$PYRTM,2024,124.838888441574,15.948535851713
$GPGGA,200759.00,3515.6171,N,12112.8313,W,1,08,1.0,10.3,M,-31.9,M,,*61
$PYRTM,2024,124.838904195463,15.948551605602
$GPGGA,200800.00,3515.6160,N,12112.8338,W,1,08,1.0,9.9,M,-31.9,M,,*59
$PYRTM,2024,124.838915772500,15.948563182650
$GPGGA,200801.00,3515.6152,N,12112.8363,W,1,08,1.0,9.9,M,-31.9,M,,*57
$PYRTM,2024,124.838923053970,15.948570464109
$GPGGA,200802.00,3515.6144,N,12112.8386,W,1,08,1.0,10.4,M,-31.9,M,,*6D
$PYRTM,2024,124.838938932014,15.948586342153
$GPGGA,200803.00,3515.6134,N,12112.8411,W,1,08,1.0,10.6,M,-31.9,M,,*60
$PYRTM,2024,124.838950490694,15.948597900833
$GPGGA,200804.00,3515.6124,N,12112.8438,W,1,08,1.0,10.3,M,-31.9,M,,*68
$PYRTM,2024,124.838961950012,15.948609360150
$GPGGA,200805.00,3515.6116,N,12112.8464,W,1,08,1.0,9.9,M,-31.9,M,,*53
$PYRTM,2024,124.838973523044,15.948620933183
$GPGGA,200806.00,3515.6108,N,12112.8489,W,1,08,1.0,9.8,M,-31.9,M,,*5D
$PYRTM,2024,124.838985214861,15.948632625000
$GPGGA,200807.00,3515.6098,N,12112.8512,W,1,08,1.0,10.0,M,-31.9,M,,*67
$PYRTM,2024,124.838996786644,15.948644196782
$GPGGA,200808.00,3515.6087,N,12112.8537,W,1,08,1.0,10.2,M,-31.9,M,,*63
$PYRTM,2024,124.839008362917,15.948655773056
$GPGGA,200809.00,3515.6077,N,12112.8564,W,1,08,1.0,10.0,M,-31.9,M,,*69
$PYRTM,2024,124.839019819595,15.948667229734
$GPGGA,200810.00,3515.6070,N,12112.8591,W,1,08,1.0,9.8,M,-31.9,M,,*5C
$PYRTM,2024,124.839027214919,15.948674625058
$GPGGA,200811.00,3515.6062,N,12112.8615,W,1,08,1.0,10.0,M,-31.9,M,,*61
$PYRTM,2024,124.839043084421,15.948690494572
$GPGGA,200812.00,3515.6052,N,12112.8639,W,1,08,1.0,10.2,M,-31.9,M,,*6D
$PYRTM,2024,124.839054662072,15.948702072211
$GPGGA,200813.00,3515.6042,N,12112.8665,W,1,08,1.0,10.1,M,-31.9,M,,*67
$PYRTM,2024,124.839061949271,15.948709359410
$GPGGA,200814.00,3515.6032,N,12112.8691,W,1,08,1.0,9.9,M,-31.9,M,,*5C
$PYRTM,2024,124.839077698681,15.948725108819
$GPGGA,200815.00,3515.6024,N,12112.8717,W,1,08,1.0,9.6,M,-31.9,M,,*5A
$PYRTM,2024,124.839089381331,15.948736791470
$GPGGA,200816.00,3515.6017,N,12112.8740,W,1,08,1.0,10.0,M,-31.9,M,,*65
$PYRTM,2024,124.839096775648,15.948744185787
$GPGGA,200817.00,3515.6006,N,12112.8764,W,1,08,1.0,10.3,M,-31.9,M,,*61
$PYRTM,2024,124.839115306262,15.948762716400
$GPGGA,200818.00,3515.5994,N,12112.8790,W,1,08,1.0,10.0,M,-31.9,M,,*67
$PYRTM,2024,124.839123986713,15.948771396852
$GPGGA,200819.00,3515.5986,N,12112.8816,W,1,08,1.0,9.5,M,-31.9,M,,*59
$PYRTM,2024,124.839131397963,15.948778808102
$GPGGA,200820.00,3515.5979,N,12112.8841,W,1,08,1.0,9.3,M,-31.9,M,,*57
$PYRTM,2024,124.839143186238,15.948790596377
$GPGGA,200821.00,3515.5970,N,12112.8865,W,1,08,1.0,9.5,M,-31.9,M,,*5F
$PYRTM,2024,124.839158710475,15.948806120613
$GPGGA,200822.00,3515.5958,N,12112.8890,W,1,08,1.0,9.5,M,-31.9,M,,*5C
$PYRTM,2024,124.839166103438,15.948813513576
$GPGGA,200823.00,3515.5947,N,12112.8916,W,1,08,1.0,9.7,M,-31.9,M,,*5E
$PYRTM,2024,124.839181858414,15.948829268565
$GPGGA,200824.00,3515.5939,N,12112.8941,W,1,08,1.0,9.8,M,-31.9,M,,*5D
$PYRTM,2024,124.839193442917,15.948840853056
$GPGGA,200825.00,3515.5932,N,12112.8968,W,1,08,1.0,9.8,M,-31.9,M,,*5C
$PYRTM,2024,124.839200839722,15.948848249861
$GPGGA,200826.00,3515.5924,N,12112.8992,W,1,08,1.0,9.8,M,-31.9,M,,*5D
$PYRTM,2024,124.839216696690,15.948864106840
$GPGGA,200827.00,3515.5912,N,12112.9016,W,1,08,1.0,10.0,M,-31.9,M,,*6D
$PYRTM,2024,124.839228386968,15.948875797106
$GPGGA,200828.00,3515.5900,N,12112.9042,W,1,08,1.0,10.1,M,-31.9,M,,*61
$PYRTM,2024,124.839235665023,15.948883075162
$GPGGA,200829.00,3515.5890,N,12112.9068,W,1,08,1.0,10.0,M,-31.9,M,,*61
$PYRTM,2024,124.839251412986,15.948898823125
$GPGGA,200830.00,3515.5883,N,12112.9092,W,1,08,1.0,10.1,M,-31.9,M,,*6F
$PYRTM,2024,124.839263001065,15.948910411204
$GPGGA,200831.00,3515.5876,N,12112.9118,W,1,08,1.0,10.0,M,-31.9,M,,*66
$PYRTM,2024,124.839274451806,15.948921861956
$GPGGA,200832.00,3515.5867,N,12112.9143,W,1,08,1.0,9.9,M,-31.9,M,,*5A
$PYRTM,2024,124.839286012627,15.948933422778
$GPGGA,200833.00,3515.5855,N,12112.9167,W,1,08,1.0,9.9,M,-31.9,M,,*5C
$PYRTM,2024,124.839297717118,15.948945127257
$GPGGA,200834.00,3515.5844,N,12112.9191,W,1,08,1.0,10.0,M,-31.9,M,,*63
$PYRTM,2024,124.839305110486,15.948952520625
$GPGGA,200835.00,3515.5836,N,12112.9217,W,1,08,1.0,10.0,M,-31.9,M,,*6A
$PYRTM,2024,124.839320865440,15.948968275579
$GPGGA,200836.00,3515.5829,N,12112.9242,W,1,08,1.0,10.0,M,-31.9,M,,*67
