$PYRTM,2024,123.583337204190,14.692984614329
$GPGGA,135959.00,3420.5788,N,12049.0467,W,1,10,1.0,11.5,M,-33.8,M,,*60
$PYRTM,2024,123.583344601215,14.692992011354
$GPGGA,140000.00,3420.5799,N,12049.0481,W,1,10,1.0,11.2,M,-33.8,M,,*68
$PYRTM,2024,123.583360354398,14.693007764537
$GPGGA,140001.00,3420.5810,N,12049.0495,W,1,10,1.0,10.6,M,-33.8,M,,*67
$PYRTM,2024,123.583371927176,14.693019337315
$GPGGA,140002.00,3420.5814,N,12049.0507,W,1,10,1.0,10.3,M,-33.8,M,,*6F
$PYRTM,2024,123.583379333773,14.693026743924
$GPGGA,140003.00,3420.5815,N,12049.0517,W,1,10,1.0,11.2,M,-33.8,M,,*6E
$PYRTM,2024,123.583395101424,14.693042511562
$GPGGA,140004.00,3420.5822,N,12049.0529,W,1,10,1.0,11.6,M,-33.8,M,,*64
$PYRTM,2024,123.583406650289,14.693054060428
$GPGGA,140005.00,3420.5831,N,12049.0542,W,1,10,1.0,11.2,M,-33.8,M,,*6E
$PYRTM,2024,123.583418232986,14.693065643137
$GPGGA,140006.00,3420.5839,N,12049.0554,W,1,10,1.0,10.7,M,-33.8,M,,*66
$PYRTM,2024,123.583429798171,14.693077208310
$GPGGA,140007.00,3420.5846,N,12049.0564,W,1,10,1.0,10.5,M,-33.8,M,,*6E
$PYRTM,2024,123.583441423380,14.693088833519
$GPGGA,140008.00,3420.5853,N,12049.0576,W,1,10,1.0,10.5,M,-33.8,M,,*66
$PYRTM,2024,123.583452946215,14.693100356354
$GPGGA,140009.00,3420.5859,N,12049.0589,W,1,10,1.0,10.7,M,-33.8,M,,*6F
$PYRTM,2024,123.583464522708,14.693111932847
$GPGGA,140010.00,3420.5865,N,12049.0601,W,1,10,1.0,11.2,M,-33.8,M,,*6F
$PYRTM,2024,123.583476095544,14.693123505683
$GPGGA,140011.00,3420.5873,N,12049.0612,W,1,10,1.0,11.6,M,-33.8,M,,*6F
$PYRTM,2024,123.583487667847,14.693135077986
$GPGGA,140012.00,3420.5884,N,12049.0623,W,1,10,1.0,11.4,M,-33.8,M,,*64
$PYRTM,2024,123.583499241933,14.693146652072
$GPGGA,140013.00,3420.5892,N,12049.0636,W,1,10,1.0,10.9,M,-33.8,M,,*6A
$PYRTM,2024,123.583506638993,14.693154049132
$GPGGA,140014.00,3420.5898,N,12049.0651,W,1,10,1.0,10.2,M,-33.8,M,,*6D
$PYRTM,2024,123.583522391042,14.693169801181
$GPGGA,140015.00,3420.5904,N,12049.0667,W,1,10,1.0,10.0,M,-33.8,M,,*6F
$PYRTM,2024,123.583533964306,14.693181374456
$GPGGA,140016.00,3420.5911,N,12049.0677,W,1,10,1.0,10.5,M,-33.8,M,,*6C
$PYRTM,2024,123.583541371030,14.693188781169
$GPGGA,140017.00,3420.5918,N,12049.0683,W,1,10,1.0,11.7,M,-33.8,M,,*6C
$PYRTM,2024,123.583557112674,14.693204522824
$GPGGA,140018.00,3420.5928,N,12049.0695,W,1,10,1.0,12.2,M,-33.8,M,,*61
$PYRTM,2024,123.583568688461,14.693216098611
$GPGGA,140019.00,3420.5937,N,12049.0713,W,1,10,1.0,11.8,M,-33.8,M,,*68
$PYRTM,2024,123.583580287326,14.693227697465
$GPGGA,140020.00,3420.5942,N,12049.0731,W,1,10,1.0,10.8,M,-33.8,M,,*61
$PYRTM,2024,123.583591835266,14.693239245417
$GPGGA,140021.00,3420.5944,N,12049.0744,W,1,10,1.0,10.9,M,-33.8,M,,*65
$PYRTM,2024,123.583603408877,14.693250819016
$GPGGA,140022.00,3420.5949,N,12049.0750,W,1,10,1.0,11.9,M,-33.8,M,,*6F
$PYRTM,2024,123.583614982731,14.693262392882
$GPGGA,140023.00,3420.5959,N,12049.0759,W,1,10,1.0,12.9,M,-33.8,M,,*65
$PYRTM,2024,123.583622379618,14.693269789757
$GPGGA,140024.00,3420.5971,N,12049.0775,W,1,10,1.0,12.0,M,-33.8,M,,*6F
$PYRTM,2024,123.583641024850,14.693288434988
$GPGGA,140025.00,3420.5977,N,12049.0795,W,1,10,1.0,11.2,M,-33.8,M,,*67
$PYRTM,2024,123.583649717593,14.693297127731
$GPGGA,140026.00,3420.5979,N,12049.0807,W,1,10,1.0,10.9,M,-33.8,M,,*64
$PYRTM,2024,123.583661274479,14.693308684618
$GPGGA,140027.00,3420.5982,N,12049.0814,W,1,10,1.0,11.4,M,-33.8,M,,*6F
$PYRTM,2024,123.583672853241,14.693320263380
$GPGGA,140028.00,3420.5990,N,12049.0824,W,1,10,1.0,11.5,M,-33.8,M,,*61
$PYRTM,2024,123.583684426817,14.693331836956
$GPGGA,140029.00,3420.6000,N,12049.0839,W,1,10,1.0,10.9,M,-33.8,M,,*62
$PYRTM,2024,123.583696001296,14.693343411435
$GPGGA,140030.00,3420.6005,N,12049.0855,W,1,10,1.0,10.5,M,-33.8,M,,*69
$PYRTM,2024,123.583707576736,14.693354986887
$GPGGA,140031.00,3420.6008,N,12049.0867,W,1,10,1.0,10.4,M,-33.8,M,,*65
$PYRTM,2024,123.583719169074,14.693366579213
$GPGGA,140032.00,3420.6014,N,12049.0878,W,1,10,1.0,10.7,M,-33.8,M,,*66
$PYRTM,2024,123.583730724097,14.693378134236
$GPGGA,140033.00,3420.6023,N,12049.0888,W,1,10,1.0,11.0,M,-33.8,M,,*6A
$PYRTM,2024,123.583742321065,14.693389731204
$GPGGA,140034.00,3420.6032,N,12049.0900,W,1,10,1.0,11.1,M,-33.8,M,,*6D
$PYRTM,2024,123.583749704988,14.693397115127
$GPGGA,140035.00,3420.6038,N,12049.0914,W,1,10,1.0,11.1,M,-33.8,M,,*63
$PYRTM,2024,123.583765576933,14.693412987083
$GPGGA,140036.00,3420.6042,N,12049.0930,W,1,10,1.0,11.0,M,-33.8,M,,*6A
$PYRTM,2024,123.583777015833,14.693424425972
$GPGGA,140037.00,3420.6048,N,12049.0943,W,1,10,1.0,11.1,M,-33.8,M,,*64
$PYRTM,2024,123.583784415116,14.693431825255
$GPGGA,140038.00,3420.6056,N,12049.0952,W,1,10,1.0,11.3,M,-33.8,M,,*66
$PYRTM,2024,123.583800163299,14.693447573437
$GPGGA,140039.00,3420.6066,N,12049.0963,W,1,10,1.0,11.3,M,-33.8,M,,*66
$PYRTM,2024,123.583811741713,14.693459151852
$GPGGA,140040.00,3420.6073,N,12049.0977,W,1,10,1.0,11.1,M,-33.8,M,,*6B
$PYRTM,2024,123.583823316458,14.693470726597
$GPGGA,140041.00,3420.6079,N,12049.0993,W,1,10,1.0,10.9,M,-33.8,M,,*63
$PYRTM,2024,123.583834902523,14.693482312662
$GPGGA,140042.00,3420.6085,N,12049.1008,W,1,10,1.0,10.7,M,-33.8,M,,*67
$PYRTM,2024,123.583846465521,14.693493875660
$GPGGA,140043.00,3420.6092,N,12049.1019,W,1,10,1.0,11.1,M,-33.8,M,,*67
$PYRTM,2024,123.583853858137,14.693501268275
$GPGGA,140044.00,3420.6098,N,12049.1029,W,1,10,1.0,12.1,M,-33.8,M,,*6A
$PYRTM,2024,123.583869612199,14.693517022338
$GPGGA,140045.00,3420.6104,N,12049.1041,W,1,10,1.0,12.7,M,-33.8,M,,*67
$PYRTM,2024,123.583877009236,14.693524419387
$GPGGA,140046.00,3420.6114,N,12049.1057,W,1,10,1.0,12.1,M,-33.8,M,,*64
$PYRTM,2024,123.583895656655,14.693543066794
$GPGGA,140047.00,3420.6123,N,12049.1074,W,1,10,1.0,11.0,M,-33.8,M,,*62
$PYRTM,2024,123.583904360729,14.693551770868
$GPGGA,140048.00,3420.6127,N,12049.1086,W,1,10,1.0,10.8,M,-33.8,M,,*6D
$PYRTM,2024,123.583915909039,14.693563319178
$GPGGA,140049.00,3420.6130,N,12049.1095,W,1,10,1.0,11.7,M,-33.8,M,,*66
$PYRTM,2024,123.583927492650,14.693574902789
$GPGGA,140050.00,3420.6137,N,12049.1105,W,1,10,1.0,12.6,M,-33.8,M,,*63
$PYRTM,2024,123.583939056250,14.693586466389
$GPGGA,140051.00,3420.6149,N,12049.1119,W,1,10,1.0,12.5,M,-33.8,M,,*65
$PYRTM,2024,123.583950641644,14.693598051782
$GPGGA,140052.00,3420.6156,N,12049.1133,W,1,10,1.0,12.0,M,-33.8,M,,*65
$PYRTM,2024,123.583962204757,14.693609614907
$GPGGA,140053.00,3420.6159,N,12049.1146,W,1,10,1.0,11.9,M,-33.8,M,,*63
$PYRTM,2024,123.583969599919,14.693617010058
$GPGGA,140054.00,3420.6163,N,12049.1159,W,1,10,1.0,12.1,M,-33.8,M,,*68
$PYRTM,2024,123.583981289178,14.693628699317
$GPGGA,140055.00,3420.6173,N,12049.1172,W,1,10,1.0,11.6,M,-33.8,M,,*65
$PYRTM,2024,123.583999821343,14.693647231481
$GPGGA,140056.00,3420.6183,N,12049.1184,W,1,10,1.0,11.5,M,-33.8,M,,*63
$PYRTM,2024,123.584008496562,14.693655906701
$GPGGA,140057.00,3420.6186,N,12049.1195,W,1,10,1.0,12.1,M,-33.8,M,,*60
$PYRTM,2024,123.584020074664,14.693667484803
$GPGGA,140058.00,3420.6187,N,12049.1208,W,1,10,1.0,12.8,M,-33.8,M,,*60
$PYRTM,2024,123.584031648866,14.693679059005
$GPGGA,140059.00,3420.6194,N,12049.1224,W,1,10,1.0,12.5,M,-33.8,M,,*60
$PYRTM,2024,123.584043233924,14.693690644063
$GPGGA,140100.00,3420.6204,N,12049.1238,W,1,10,1.0,11.6,M,-33.8,M,,*6A
$PYRTM,2024,123.584054797211,14.693702207350
$GPGGA,140101.00,3420.6210,N,12049.1247,W,1,10,1.0,11.3,M,-33.8,M,,*63
$PYRTM,2024,123.584066378981,14.693713789120
$GPGGA,140102.00,3420.6212,N,12049.1260,W,1,10,1.0,11.3,M,-33.8,M,,*67
$PYRTM,2024,123.584077945035,14.693725355174
$GPGGA,140103.00,3420.6216,N,12049.1278,W,1,10,1.0,11.2,M,-33.8,M,,*6A
$PYRTM,2024,123.584085341204,14.693732751343
$GPGGA,140104.00,3420.6223,N,12049.1292,W,1,10,1.0,11.2,M,-33.8,M,,*6F
$PYRTM,2024,123.584101095625,14.693748505764
$GPGGA,140105.00,3420.6230,N,12049.1297,W,1,10,1.0,11.8,M,-33.8,M,,*63
$PYRTM,2024,123.584112667639,14.693760077778
$GPGGA,140106.00,3420.6239,N,12049.1302,W,1,10,1.0,12.6,M,-33.8,M,,*69
$PYRTM,2024,123.584120075475,14.693767485613
$GPGGA,140107.00,3420.6247,N,12049.1316,W,1,10,1.0,12.4,M,-33.8,M,,*66
$PYRTM,2024,123.584135816019,14.693783226169
$GPGGA,140108.00,3420.6252,N,12049.1333,W,1,10,1.0,11.7,M,-33.8,M,,*6A
$PYRTM,2024,123.584147391782,14.693794801921
$GPGGA,140109.00,3420.6253,N,12049.1344,W,1,10,1.0,11.3,M,-33.8,M,,*6E
$PYRTM,2024,123.584154787407,14.693802197546
$GPGGA,140110.00,3420.6255,N,12049.1346,W,1,10,1.0,11.3,M,-33.8,M,,*62
$PYRTM,2024,123.584170538125,14.693817948264
$GPGGA,140111.00,3420.6264,N,12049.1351,W,1,10,1.0,11.0,M,-33.8,M,,*64
$PYRTM,2024,123.584182122662,14.693829532801
$GPGGA,140112.00,3420.6274,N,12049.1365,W,1,10,1.0,10.2,M,-33.8,M,,*62
$PYRTM,2024,123.584189519039,14.693836929178
$GPGGA,140113.00,3420.6280,N,12049.1379,W,1,10,1.0,9.0,M,-33.8,M,,*5F
$PYRTM,2024,123.584205267882,14.693852678021
$GPGGA,140114.00,3420.6285,N,12049.1387,W,1,10,1.0,8.4,M,-33.8,M,,*59
$PYRTM,2024,123.584216834410,14.693864244549
$GPGGA,140115.00,3420.6290,N,12049.1393,W,1,10,1.0,8.4,M,-33.8,M,,*59
$PYRTM,2024,123.584224114850,14.693871524988
$GPGGA,140116.00,3420.6295,N,12049.1402,W,1,10,1.0,8.9,M,-33.8,M,,*5D
$PYRTM,2024,123.584239983380,14.693887393519
$GPGGA,140117.00,3420.6299,N,12049.1413,W,1,10,1.0,9.6,M,-33.8,M,,*5E
$PYRTM,2024,123.584247261354,14.693894671493
$GPGGA,140118.00,3420.6304,N,12049.1426,W,1,10,1.0,9.8,M,-33.8,M,,*5C
$PYRTM,2024,123.584259542824,14.693906952963
$GPGGA,140119.00,3420.6313,N,12049.1439,W,1,10,1.0,9.2,M,-33.8,M,,*5F
$PYRTM,2024,123.584274704410,14.693922114549
$GPGGA,140120.00,3420.6321,N,12049.1450,W,1,10,1.0,8.4,M,-33.8,M,,*5C
$PYRTM,2024,123.584286278171,14.693933688310
$GPGGA,140121.00,3420.6325,N,12049.1458,W,1,10,1.0,8.1,M,-33.8,M,,*54
$PYRTM,2024,123.584297851713,14.693945261852
$GPGGA,140122.00,3420.6328,N,12049.1465,W,1,10,1.0,8.2,M,-33.8,M,,*57
$PYRTM,2024,123.584309426470,14.693956836609
$GPGGA,140123.00,3420.6335,N,12049.1477,W,1,10,1.0,8.4,M,-33.8,M,,*5F
$PYRTM,2024,123.584321001146,14.693968411285
$GPGGA,140124.00,3420.6345,N,12049.1491,W,1,10,1.0,8.0,M,-33.8,M,,*53
$PYRTM,2024,123.584332571447,14.693979981586
$GPGGA,140125.00,3420.6354,N,12049.1503,W,1,10,1.0,7.4,M,-33.8,M,,*53
$PYRTM,2024,123.584339866458,14.693987276597
$GPGGA,140126.00,3420.6359,N,12049.1513,W,1,10,1.0,7.4,M,-33.8,M,,*5C
$PYRTM,2024,123.584358611481,14.694006021620
$GPGGA,140127.00,3420.6364,N,12049.1521,W,1,10,1.0,8.0,M,-33.8,M,,*59
$PYRTM,2024,123.584367296910,14.694014707049
$GPGGA,140128.00,3420.6371,N,12049.1533,W,1,10,1.0,8.5,M,-33.8,M,,*54
$PYRTM,2024,123.584378872639,14.694026282789
$GPGGA,140129.00,3420.6379,N,12049.1546,W,1,10,1.0,8.3,M,-33.8,M,,*59
$PYRTM,2024,123.584386166968,14.694033577118
$GPGGA,140130.00,3420.6386,N,12049.1558,W,1,10,1.0,7.8,M,-33.8,M,,*5A
$PYRTM,2024,123.584397955486,14.694045365625
$GPGGA,140131.00,3420.6391,N,12049.1568,W,1,10,1.0,8.3,M,-33.8,M,,*5A
$PYRTM,2024,123.584413602627,14.694061012766
$GPGGA,140132.00,3420.6398,N,12049.1579,W,1,10,1.0,8.2,M,-33.8,M,,*51
$PYRTM,2024,123.584425167257,14.694072577396
$GPGGA,140133.00,3420.6409,N,12049.1591,W,1,10,1.0,8.0,M,-33.8,M,,*5B
$PYRTM,2024,123.584436749051,14.694084159201
$GPGGA,140134.00,3420.6416,N,12049.1603,W,1,10,1.0,8.5,M,-33.8,M,,*5F
$PYRTM,2024,123.584448317940,14.694095728079
$GPGGA,140135.00,3420.6418,N,12049.1615,W,1,10,1.0,9.6,M,-33.8,M,,*55
$PYRTM,2024,123.584455710810,14.694103120949
$GPGGA,140136.00,3420.6421,N,12049.1628,W,1,10,1.0,10.3,M,-33.8,M,,*6F
$PYRTM,2024,123.584471460370,14.694118870509
$GPGGA,140137.00,3420.6429,N,12049.1641,W,1,10,1.0,10.3,M,-33.8,M,,*69
$PYRTM,2024,123.584483049745,14.694130459884
$GPGGA,140138.00,3420.6439,N,12049.1652,W,1,10,1.0,9.8,M,-33.8,M,,*56
$PYRTM,2024,123.584494612245,14.694142022384
$GPGGA,140139.00,3420.6448,N,12049.1659,W,1,10,1.0,10.4,M,-33.8,M,,*6E
$PYRTM,2024,123.584506185845,14.694153595984
$GPGGA,140140.00,3420.6452,N,12049.1669,W,1,10,1.0,11.1,M,-33.8,M,,*6C
$PYRTM,2024,123.584517759537,14.694165169676
$GPGGA,140141.00,3420.6456,N,12049.1683,W,1,10,1.0,11.6,M,-33.8,M,,*6A
$PYRTM,2024,123.584529344572,14.694176754711
$GPGGA,140142.00,3420.6464,N,12049.1697,W,1,10,1.0,11.0,M,-33.8,M,,*6B
$PYRTM,2024,123.584540909190,14.694188319329
$GPGGA,140143.00,3420.6476,N,12049.1709,W,1,10,1.0,10.6,M,-33.8,M,,*68
$PYRTM,2024,123.584552490312,14.694199900451
$GPGGA,140144.00,3420.6485,N,12049.1721,W,1,10,1.0,10.1,M,-33.8,M,,*6E
$PYRTM,2024,123.584564055648,14.694211465787
$GPGGA,140145.00,3420.6490,N,12049.1734,W,1,10,1.0,10.5,M,-33.8,M,,*6B
$PYRTM,2024,123.584575638900,14.694223049039
$GPGGA,140146.00,3420.6493,N,12049.1747,W,1,10,1.0,11.5,M,-33.8,M,,*6E
$PYRTM,2024,123.584587204803,14.694234614942
$GPGGA,140147.00,3420.6501,N,12049.1758,W,1,10,1.0,12.3,M,-33.8,M,,*6E
$PYRTM,2024,123.584598778252,14.694246188391
$GPGGA,140148.00,3420.6513,N,12049.1770,W,1,10,1.0,12.4,M,-33.8,M,,*6F
$PYRTM,2024,123.584610347940,14.694257758079
$GPGGA,140149.00,3420.6525,N,12049.1786,W,1,10,1.0,11.6,M,-33.8,M,,*63
$PYRTM,2024,123.584617747095,14.694265157234
$GPGGA,140150.00,3420.6532,N,12049.1802,W,1,10,1.0,9.9,M,-33.8,M,,*58
$PYRTM,2024,123.584633497257,14.694280907396
$GPGGA,140151.00,3420.6534,N,12049.1814,W,1,10,1.0,9.5,M,-33.8,M,,*54
$PYRTM,2024,123.584645075208,14.694292485347
$GPGGA,140152.00,3420.6540,N,12049.1828,W,1,10,1.0,9.8,M,-33.8,M,,*56
$PYRTM,2024,123.584652481111,14.694299891262
$GPGGA,140153.00,3420.6550,N,12049.1841,W,1,10,1.0,10.5,M,-33.8,M,,*6C
$PYRTM,2024,123.584668234132,14.694315644271
$GPGGA,140154.00,3420.6558,N,12049.1852,W,1,10,1.0,11.2,M,-33.8,M,,*67
$PYRTM,2024,123.584679796574,14.694327206713
$GPGGA,140155.00,3420.6565,N,12049.1863,W,1,10,1.0,11.7,M,-33.8,M,,*6F
$PYRTM,2024,123.584687192431,14.694334602569
$GPGGA,140156.00,3420.6573,N,12049.1878,W,1,10,1.0,11.3,M,-33.8,M,,*65
$PYRTM,2024,123.584698879387,14.694346289525
$GPGGA,140157.00,3420.6580,N,12049.1895,W,1,10,1.0,10.6,M,-33.8,M,,*6F
$PYRTM,2024,123.584717414282,14.694364824433
$GPGGA,140158.00,3420.6584,N,12049.1907,W,1,10,1.0,10.7,M,-33.8,M,,*6F
$PYRTM,2024,123.584728986458,14.694376396597
$GPGGA,140159.00,3420.6589,N,12049.1915,W,1,10,1.0,11.6,M,-33.8,M,,*60
$PYRTM,2024,123.584740561169,14.694387971308
$GPGGA,140200.00,3420.6598,N,12049.1926,W,1,10,1.0,11.7,M,-33.8,M,,*6E
$PYRTM,2024,123.584749241157,14.694396651308
$GPGGA,140201.00,3420.6610,N,12049.1942,W,1,10,1.0,11.4,M,-33.8,M,,*6D
$PYRTM,2024,123.584756637211,14.694404047350
$GPGGA,140202.00,3420.6617,N,12049.1958,W,1,10,1.0,10.7,M,-33.8,M,,*60
$PYRTM,2024,123.584768348356,14.694415758495
$GPGGA,140203.00,3420.6619,N,12049.1971,W,1,10,1.0,10.7,M,-33.8,M,,*64
$PYRTM,2024,123.584783964005,14.694431374144
$GPGGA,140204.00,3420.6622,N,12049.1982,W,1,10,1.0,11.1,M,-33.8,M,,*60
$PYRTM,2024,123.584791371076,14.694438781215
$GPGGA,140205.00,3420.6631,N,12049.1995,W,1,10,1.0,11.4,M,-33.8,M,,*60
$PYRTM,2024,123.584807111701,14.694454521852
$GPGGA,140206.00,3420.6643,N,12049.2009,W,1,10,1.0,10.8,M,-33.8,M,,*64
$PYRTM,2024,123.584818685637,14.694466095787
$GPGGA,140207.00,3420.6651,N,12049.2022,W,1,10,1.0,10.4,M,-33.8,M,,*63
$PYRTM,2024,123.584830270787,14.694477680926
$GPGGA,140208.00,3420.6653,N,12049.2035,W,1,10,1.0,10.6,M,-33.8,M,,*6A
$PYRTM,2024,123.584841834201,14.694489244340
$GPGGA,140209.00,3420.6657,N,12049.2048,W,1,10,1.0,11.3,M,-33.8,M,,*61
$PYRTM,2024,123.584853417951,14.694500828090
$GPGGA,140210.00,3420.6665,N,12049.2061,W,1,10,1.0,11.8,M,-33.8,M,,*68
$PYRTM,2024,123.584864981655,14.694512391794
$GPGGA,140211.00,3420.6674,N,12049.2071,W,1,10,1.0,12.1,M,-33.8,M,,*62
$PYRTM,2024,123.584876581123,14.694523991262
$GPGGA,140212.00,3420.6682,N,12049.2084,W,1,10,1.0,11.8,M,-33.8,M,,*68
$PYRTM,2024,123.584888129699,14.694535539838
$GPGGA,140213.00,3420.6688,N,12049.2100,W,1,10,1.0,11.0,M,-33.8,M,,*66
$PYRTM,2024,123.584899712755,14.694547122894
$GPGGA,140214.00,3420.6693,N,12049.2116,W,1,10,1.0,10.6,M,-33.8,M,,*6B
$PYRTM,2024,123.584911277708,14.694558687847
$GPGGA,140215.00,3420.6699,N,12049.2127,W,1,10,1.0,10.9,M,-33.8,M,,*6D
$PYRTM,2024,123.584922860463,14.694570270602
$GPGGA,140216.00,3420.6708,N,12049.2135,W,1,10,1.0,11.8,M,-33.8,M,,*64
$PYRTM,2024,123.584934427338,14.694581837477
$GPGGA,140217.00,3420.6716,N,12049.2148,W,1,10,1.0,12.6,M,-33.8,M,,*6D
$PYRTM,2024,123.584946001007,14.694593411146
$GPGGA,140218.00,3420.6723,N,12049.2165,W,1,10,1.0,12.6,M,-33.8,M,,*6B
$PYRTM,2024,123.584957572940,14.694604983079
$GPGGA,140219.00,3420.6731,N,12049.2179,W,1,10,1.0,12.1,M,-33.8,M,,*63
$PYRTM,2024,123.584969159074,14.694616569213
$GPGGA,140220.00,3420.6741,N,12049.2192,W,1,10,1.0,11.3,M,-33.8,M,,*6A
$PYRTM,2024,123.584980718530,14.694628128681
$GPGGA,140221.00,3420.6750,N,12049.2205,W,1,10,1.0,10.7,M,-33.8,M,,*63
$PYRTM,2024,123.584992309005,14.694639719144
$GPGGA,140222.00,3420.6756,N,12049.2219,W,1,10,1.0,10.8,M,-33.8,M,,*64
$PYRTM,2024,123.584999698264,14.694647108403
$GPGGA,140223.00,3420.6760,N,12049.2233,W,1,10,1.0,11.6,M,-33.8,M,,*67
$PYRTM,2024,123.585018339271,14.694665749421
$GPGGA,140224.00,3420.6768,N,12049.2247,W,1,10,1.0,12.3,M,-33.8,M,,*6D
$PYRTM,2024,123.585029912465,14.694677322604
$GPGGA,140225.00,3420.6780,N,12049.2263,W,1,10,1.0,12.1,M,-33.8,M,,*6E
$PYRTM,2024,123.585038593264,14.694686003403
$GPGGA,140226.00,3420.6789,N,12049.2275,W,1,10,1.0,11.9,M,-33.8,M,,*68
$PYRTM,2024,123.585050167963,14.694697578113
$GPGGA,140227.00,3420.6793,N,12049.2284,W,1,10,1.0,12.3,M,-33.8,M,,*65
$PYRTM,2024,123.585057562488,14.694704972627
$GPGGA,140228.00,3420.6797,N,12049.2298,W,1,10,1.0,12.5,M,-33.8,M,,*65
$PYRTM,2024,123.585076208090,14.694723618229
$GPGGA,140229.00,3420.6805,N,12049.2318,W,1,10,1.0,11.6,M,-33.8,M,,*69
$PYRTM,2024,123.585084888206,14.694732298345
$GPGGA,140230.00,3420.6814,N,12049.2335,W,1,10,1.0,10.9,M,-33.8,M,,*60
$PYRTM,2024,123.585096463750,14.694743873889
$GPGGA,140231.00,3420.6821,N,12049.2344,W,1,10,1.0,11.3,M,-33.8,M,,*6A
$PYRTM,2024,123.585103858692,14.694751268831
$GPGGA,140232.00,3420.6827,N,12049.2348,W,1,10,1.0,12.6,M,-33.8,M,,*65
$PYRTM,2024,123.585119612998,14.694767023137
$GPGGA,140233.00,3420.6837,N,12049.2360,W,1,10,1.0,13.2,M,-33.8,M,,*6A
$PYRTM,2024,123.585131185590,14.694778595729
$GPGGA,140234.00,3420.6847,N,12049.2379,W,1,10,1.0,12.5,M,-33.8,M,,*64
$PYRTM,2024,123.585138586898,14.694785997049
$GPGGA,140235.00,3420.6851,N,12049.2394,W,1,10,1.0,12.1,M,-33.8,M,,*65
$PYRTM,2024,123.585154334560,14.694801744699
$GPGGA,140236.00,3420.6854,N,12049.2401,W,1,10,1.0,12.2,M,-33.8,M,,*6B
$PYRTM,2024,123.585165903090,14.694813313241
$GPGGA,140237.00,3420.6862,N,12049.2407,W,1,10,1.0,12.3,M,-33.8,M,,*68
$PYRTM,2024,123.585177482558,14.694824892697
$GPGGA,140238.00,3420.6875,N,12049.2419,W,1,10,1.0,12.0,M,-33.8,M,,*6D
$PYRTM,2024,123.585189056435,14.694836466574
$GPGGA,140239.00,3420.6883,N,12049.2434,W,1,10,1.0,11.8,M,-33.8,M,,*61
$PYRTM,2024,123.585196452998,14.694843863137
$GPGGA,140240.00,3420.6883,N,12049.2446,W,1,10,1.0,12.4,M,-33.8,M,,*65
$PYRTM,2024,123.585208140093,14.694855550231
$GPGGA,140241.00,3420.6885,N,12049.2453,W,1,10,1.0,13.7,M,-33.8,M,,*64
$PYRTM,2024,123.585223803345,14.694871213484
$GPGGA,140242.00,3420.6894,N,12049.2463,W,1,10,1.0,14.1,M,-33.8,M,,*65
$PYRTM,2024,123.585231179583,14.694878589722
$GPGGA,140243.00,3420.6907,N,12049.2474,W,1,10,1.0,12.9,M,-33.8,M,,*67
$PYRTM,2024,123.585246936215,14.694894346354
$GPGGA,140244.00,3420.6913,N,12049.2486,W,1,10,1.0,11.6,M,-33.8,M,,*64
$PYRTM,2024,123.585258500556,14.694905910694
$GPGGA,140245.00,3420.6914,N,12049.2498,W,1,10,1.0,11.3,M,-33.8,M,,*68
$PYRTM,2024,123.585270073657,14.694917483796
$GPGGA,140246.00,3420.6917,N,12049.2510,W,1,10,1.0,11.8,M,-33.8,M,,*62
$PYRTM,2024,123.585281648947,14.694929059086
$GPGGA,140247.00,3420.6923,N,12049.2519,W,1,10,1.0,12.7,M,-33.8,M,,*61
$PYRTM,2024,123.585293233461,14.694940643600
$GPGGA,140248.00,3420.6932,N,12049.2527,W,1,10,1.0,13.4,M,-33.8,M,,*61
$PYRTM,2024,123.585304798160,14.694952208299
$GPGGA,140249.00,3420.6939,N,12049.2541,W,1,10,1.0,13.3,M,-33.8,M,,*6C
$PYRTM,2024,123.585316380451,14.694963790590
$GPGGA,140250.00,3420.6945,N,12049.2557,W,1,10,1.0,12.3,M,-33.8,M,,*69
$PYRTM,2024,123.585327943970,14.694975354109
$GPGGA,140251.00,3420.6950,N,12049.2569,W,1,10,1.0,11.5,M,-33.8,M,,*64
$PYRTM,2024,123.585339518009,14.694986928148
$GPGGA,140252.00,3420.6953,N,12049.2576,W,1,10,1.0,11.8,M,-33.8,M,,*67
$PYRTM,2024,123.585351092130,14.694998502269
$GPGGA,140253.00,3420.6958,N,12049.2586,W,1,10,1.0,12.4,M,-33.8,M,,*6D
$PYRTM,2024,123.585362677488,14.695010087627
$GPGGA,140254.00,3420.6966,N,12049.2602,W,1,10,1.0,12.5,M,-33.8,M,,*69
$PYRTM,2024,123.585374242847,14.695021652986
$GPGGA,140255.00,3420.6974,N,12049.2616,W,1,10,1.0,12.3,M,-33.8,M,,*68
$PYRTM,2024,123.585381636227,14.695029046377
$GPGGA,140256.00,3420.6981,N,12049.2624,W,1,10,1.0,12.2,M,-33.8,M,,*61
$PYRTM,2024,123.585400282384,14.695047692523
$GPGGA,140257.00,3420.6988,N,12049.2634,W,1,10,1.0,12.0,M,-33.8,M,,*6A
$PYRTM,2024,123.585408988275,14.695056398414
$GPGGA,140258.00,3420.6992,N,12049.2648,W,1,10,1.0,11.7,M,-33.8,M,,*61
$PYRTM,2024,123.585416369699,14.695063779838
$GPGGA,140259.00,3420.6996,N,12049.2663,W,1,10,1.0,11.5,M,-33.8,M,,*6F
$PYRTM,2024,123.585435008206,14.695082418345
$GPGGA,140300.00,3420.7003,N,12049.2676,W,1,10,1.0,11.4,M,-33.8,M,,*63
$PYRTM,2024,123.585443686273,14.695091096412
$GPGGA,140301.00,3420.7013,N,12049.2685,W,1,10,1.0,11.4,M,-33.8,M,,*6F
$PYRTM,2024,123.585455259074,14.695102669213
$GPGGA,140302.00,3420.7021,N,12049.2696,W,1,10,1.0,11.6,M,-33.8,M,,*6D
$PYRTM,2024,123.585466834583,14.695114244734
$GPGGA,140303.00,3420.7026,N,12049.2711,W,1,10,1.0,12.0,M,-33.8,M,,*60
$PYRTM,2024,123.585474228438,14.695121638576
$GPGGA,140304.00,3420.7029,N,12049.2726,W,1,10,1.0,12.4,M,-33.8,M,,*68
$PYRTM,2024,123.585489977384,14.695137387523
$GPGGA,140305.00,3420.7036,N,12049.2737,W,1,10,1.0,12.4,M,-33.8,M,,*67
$PYRTM,2024,123.585501567558,14.695148977708
$GPGGA,140306.00,3420.7047,N,12049.2749,W,1,10,1.0,11.8,M,-33.8,M,,*64
$PYRTM,2024,123.585508956065,14.695156366204
$GPGGA,140307.00,3420.7056,N,12049.2762,W,1,10,1.0,10.9,M,-33.8,M,,*6C
$PYRTM,2024,123.585524703576,14.695172113715
$GPGGA,140308.00,3420.7062,N,12049.2774,W,1,10,1.0,11.0,M,-33.8,M,,*6B
$PYRTM,2024,123.585536277697,14.695183687836
$GPGGA,140309.00,3420.7069,N,12049.2784,W,1,10,1.0,11.5,M,-33.8,M,,*6B
$PYRTM,2024,123.585547858993,14.695195269132
$GPGGA,140310.00,3420.7078,N,12049.2797,W,1,10,1.0,11.5,M,-33.8,M,,*61
$PYRTM,2024,123.585559426725,14.695206836863
$GPGGA,140311.00,3420.7087,N,12049.2813,W,1,10,1.0,11.5,M,-33.8,M,,*63
$PYRTM,2024,123.585571007222,14.695218417361
$GPGGA,140312.00,3420.7091,N,12049.2826,W,1,10,1.0,11.9,M,-33.8,M,,*6D
$PYRTM,2024,123.585582573287,14.695229983426
$GPGGA,140313.00,3420.7096,N,12049.2837,W,1,10,1.0,12.5,M,-33.8,M,,*64
$PYRTM,2024,123.585589970486,14.695237380625
$GPGGA,140314.00,3420.7106,N,12049.2850,W,1,10,1.0,12.3,M,-33.8,M,,*6C
$PYRTM,2024,123.585605721875,14.695253132014
$GPGGA,140315.00,3420.7117,N,12049.2865,W,1,10,1.0,11.6,M,-33.8,M,,*6D
$PYRTM,2024,123.585617296296,14.695264706435
$GPGGA,140316.00,3420.7124,N,12049.2877,W,1,10,1.0,11.3,M,-33.8,M,,*68
$PYRTM,2024,123.585628870625,14.695276280764
$GPGGA,140317.00,3420.7131,N,12049.2887,W,1,10,1.0,11.5,M,-33.8,M,,*64
$PYRTM,2024,123.585640455231,14.695287865370
$GPGGA,140318.00,3420.7140,N,12049.2898,W,1,10,1.0,11.9,M,-33.8,M,,*6F
$PYRTM,2024,123.585647852211,14.695295262350
$GPGGA,140319.00,3420.7147,N,12049.2913,W,1,10,1.0,12.4,M,-33.8,M,,*65
$PYRTM,2024,123.585663604699,14.695311014838
$GPGGA,140320.00,3420.7151,N,12049.2929,W,1,10,1.0,12.7,M,-33.8,M,,*62
$PYRTM,2024,123.585675167338,14.695322577477
$GPGGA,140321.00,3420.7158,N,12049.2942,W,1,10,1.0,12.5,M,-33.8,M,,*65
$PYRTM,2024,123.585686751632,14.695334161771
$GPGGA,140322.00,3420.7168,N,12049.2954,W,1,10,1.0,11.9,M,-33.8,M,,*6D
$PYRTM,2024,123.585698310278,14.695345720417
$GPGGA,140323.00,3420.7179,N,12049.2964,W,1,10,1.0,11.3,M,-33.8,M,,*65
$PYRTM,2024,123.585705708449,14.695353118588
$GPGGA,140324.00,3420.7186,N,12049.2977,W,1,10,1.0,11.0,M,-33.8,M,,*63
$PYRTM,2024,123.585721463796,14.695368873935
$GPGGA,140325.00,3420.7192,N,12049.2993,W,1,10,1.0,11.2,M,-33.8,M,,*6F
$PYRTM,2024,123.585733044560,14.695380454699
$GPGGA,140326.00,3420.7198,N,12049.3007,W,1,10,1.0,11.8,M,-33.8,M,,*69
$PYRTM,2024,123.585744610683,14.695392020822
$GPGGA,140327.00,3420.7206,N,12049.3020,W,1,10,1.0,12.5,M,-33.8,M,,*67
$PYRTM,2024,123.585752005683,14.695399415822
$GPGGA,140328.00,3420.7215,N,12049.3035,W,1,10,1.0,12.4,M,-33.8,M,,*6F
$PYRTM,2024,123.585770654375,14.695418064514
$GPGGA,140329.00,3420.7224,N,12049.3049,W,1,10,1.0,11.9,M,-33.8,M,,*69
$PYRTM,2024,123.585782228646,14.695429638785
$GPGGA,140330.00,3420.7231,N,12049.3062,W,1,10,1.0,11.5,M,-33.8,M,,*60
$PYRTM,2024,123.585793800197,14.695441210336
$GPGGA,140331.00,3420.7239,N,12049.3074,W,1,10,1.0,11.5,M,-33.8,M,,*6E
$PYRTM,2024,123.585807794606,14.695455204745
$GPGGA,140332.00,3420.7246,N,12049.3089,W,1,10,1.0,11.6,M,-33.8,M,,*64
$PYRTM,2024,123.585814056458,14.695461466597
$GPGGA,140333.00,3420.7254,N,12049.3106,W,1,10,1.0,11.6,M,-33.8,M,,*60
$PYRTM,2024,123.585821450961,14.695468861100
$GPGGA,140334.00,3420.7262,N,12049.3120,W,1,10,1.0,11.8,M,-33.8,M,,*68
$PYRTM,2024,123.585837198796,14.695484608935
$GPGGA,140335.00,3420.7270,N,12049.3131,W,1,10,1.0,12.3,M,-33.8,M,,*62
$PYRTM,2024,123.585848776759,14.695496186898
$GPGGA,140336.00,3420.7279,N,12049.3143,W,1,10,1.0,12.5,M,-33.8,M,,*6B
$PYRTM,2024,123.585860353380,14.695507763519
$GPGGA,140337.00,3420.7288,N,12049.3160,W,1,10,1.0,11.8,M,-33.8,M,,*6B
$PYRTM,2024,123.585871925266,14.695519335405
$GPGGA,140338.00,3420.7295,N,12049.3176,W,1,10,1.0,11.3,M,-33.8,M,,*64
$PYRTM,2024,123.585883495081,14.695530905220
$GPGGA,140339.00,3420.7302,N,12049.3187,W,1,10,1.0,11.5,M,-33.8,M,,*62
$PYRTM,2024,123.585895099421,14.695542509560
$GPGGA,140340.00,3420.7311,N,12049.3199,W,1,10,1.0,12.0,M,-33.8,M,,*67
$PYRTM,2024,123.585906648692,14.695554058831
$GPGGA,140341.00,3420.7320,N,12049.3213,W,1,10,1.0,12.2,M,-33.8,M,,*67
$PYRTM,2024,123.585918229664,14.695565639803
$GPGGA,140342.00,3420.7328,N,12049.3230,W,1,10,1.0,12.0,M,-33.8,M,,*6F
$PYRTM,2024,123.585929796053,14.695577206192
$GPGGA,140343.00,3420.7336,N,12049.3247,W,1,10,1.0,11.6,M,-33.8,M,,*64
$PYRTM,2024,123.585937190914,14.695584601053
$GPGGA,140344.00,3420.7344,N,12049.3260,W,1,10,1.0,11.4,M,-33.8,M,,*61
$PYRTM,2024,123.585952942951,14.695600353090
$GPGGA,140345.00,3420.7352,N,12049.3270,W,1,10,1.0,11.9,M,-33.8,M,,*6B
$PYRTM,2024,123.585964518148,14.695611928287
$GPGGA,140346.00,3420.7361,N,12049.3282,W,1,10,1.0,12.3,M,-33.8,M,,*6C
$PYRTM,2024,123.585976091840,14.695623501979
$GPGGA,140347.00,3420.7369,N,12049.3299,W,1,10,1.0,12.0,M,-33.8,M,,*6C
$PYRTM,2024,123.585987676435,14.695635086574
$GPGGA,140348.00,3420.7375,N,12049.3318,W,1,10,1.0,11.5,M,-33.8,M,,*60
$PYRTM,2024,123.585999239769,14.695646649907
$GPGGA,140349.00,3420.7383,N,12049.3333,W,1,10,1.0,11.1,M,-33.8,M,,*65
$PYRTM,2024,123.586010825498,14.695658235637
$GPGGA,140350.00,3420.7394,N,12049.3343,W,1,10,1.0,11.3,M,-33.8,M,,*6E
$PYRTM,2024,123.586022388576,14.695669798704
$GPGGA,140351.00,3420.7405,N,12049.3352,W,1,10,1.0,11.9,M,-33.8,M,,*6A
$PYRTM,2024,123.586033970394,14.695681380532
$GPGGA,140352.00,3420.7412,N,12049.3368,W,1,10,1.0,12.3,M,-33.8,M,,*6F
$PYRTM,2024,123.586045534942,14.695692945081
$GPGGA,140353.00,3420.7416,N,12049.3389,W,1,10,1.0,12.3,M,-33.8,M,,*65
$PYRTM,2024,123.586057134954,14.695704545093
$GPGGA,140354.00,3420.7422,N,12049.3406,W,1,10,1.0,11.7,M,-33.8,M,,*62
$PYRTM,2024,123.586063463391,14.695710873530
$GPGGA,140355.00,3420.7433,N,12049.3419,W,1,10,1.0,11.3,M,-33.8,M,,*69
$PYRTM,2024,123.586080266227,14.695727676366
$GPGGA,140356.00,3420.7444,N,12049.3430,W,1,10,1.0,11.2,M,-33.8,M,,*60
$PYRTM,2024,123.586087674687,14.695735084826
$GPGGA,140357.00,3420.7452,N,12049.3443,W,1,10,1.0,11.6,M,-33.8,M,,*66
$PYRTM,2024,123.586103405914,14.695750816065
$GPGGA,140358.00,3420.7459,N,12049.3461,W,1,10,1.0,11.6,M,-33.8,M,,*62
$PYRTM,2024,123.586114980266,14.695762390405
$GPGGA,140359.00,3420.7466,N,12049.3478,W,1,10,1.0,11.5,M,-33.8,M,,*64
$PYRTM,2024,123.586126565359,14.695773975498
$GPGGA,140400.00,3420.7475,N,12049.3491,W,1,10,1.0,11.7,M,-33.8,M,,*68
$PYRTM,2024,123.586133976238,14.695781386377
$GPGGA,140401.00,3420.7484,N,12049.3502,W,1,10,1.0,12.2,M,-33.8,M,,*6A
$PYRTM,2024,123.586152596794,14.695800006933
$GPGGA,140402.00,3420.7492,N,12049.3517,W,1,10,1.0,12.4,M,-33.8,M,,*6C
$PYRTM,2024,123.586161275914,14.695808686053
$GPGGA,140403.00,3420.7500,N,12049.3534,W,1,10,1.0,12.2,M,-33.8,M,,*60
$PYRTM,2024,123.586172861725,14.695820271863
$GPGGA,140404.00,3420.7509,N,12049.3551,W,1,10,1.0,11.7,M,-33.8,M,,*6B
$PYRTM,2024,123.586184424907,14.695831835046
$GPGGA,140405.00,3420.7517,N,12049.3564,W,1,10,1.0,11.8,M,-33.8,M,,*6C
$PYRTM,2024,123.586196010243,14.695843420382
$GPGGA,140406.00,3420.7525,N,12049.3576,W,1,10,1.0,12.5,M,-33.8,M,,*63
$PYRTM,2024,123.586203402569,14.695850812708
$GPGGA,140407.00,3420.7533,N,12049.3592,W,1,10,1.0,12.8,M,-33.8,M,,*62
$PYRTM,2024,123.586219170336,14.695866580475
$GPGGA,140408.00,3420.7542,N,12049.3611,W,1,10,1.0,12.3,M,-33.8,M,,*68
$PYRTM,2024,123.586230721910,14.695878132049
$GPGGA,140409.00,3420.7549,N,12049.3627,W,1,10,1.0,11.9,M,-33.8,M,,*6E
$PYRTM,2024,123.586238115544,14.695885525683
$GPGGA,140410.00,3420.7554,N,12049.3637,W,1,10,1.0,12.4,M,-33.8,M,,*65
$PYRTM,2024,123.586249805567,14.695897215706
$GPGGA,140411.00,3420.7563,N,12049.3649,W,1,10,1.0,12.7,M,-33.8,M,,*6A
$PYRTM,2024,123.586265454977,14.695912865116
$GPGGA,140412.00,3420.7575,N,12049.3666,W,1,10,1.0,12.1,M,-33.8,M,,*65
$PYRTM,2024,123.586277017685,14.695924427836
$GPGGA,140413.00,3420.7583,N,12049.3683,W,1,10,1.0,11.4,M,-33.8,M,,*60
$PYRTM,2024,123.586288602766,14.695936012905
$GPGGA,140414.00,3420.7586,N,12049.3698,W,1,10,1.0,11.9,M,-33.8,M,,*65
$PYRTM,2024,123.586295998993,14.695943409144
$GPGGA,140415.00,3420.7591,N,12049.3711,W,1,10,1.0,12.5,M,-33.8,M,,*6D
$PYRTM,2024,123.586311750417,14.695959160556
$GPGGA,140416.00,3420.7600,N,12049.3726,W,1,10,1.0,12.7,M,-33.8,M,,*63
$PYRTM,2024,123.586323314375,14.695970724514
$GPGGA,140417.00,3420.7609,N,12049.3740,W,1,10,1.0,12.7,M,-33.8,M,,*6B
$PYRTM,2024,123.586334887546,14.695982297685
$GPGGA,140418.00,3420.7616,N,12049.3755,W,1,10,1.0,12.5,M,-33.8,M,,*6C
$PYRTM,2024,123.586346461389,14.695993871528
$GPGGA,140419.00,3420.7625,N,12049.3769,W,1,10,1.0,12.1,M,-33.8,M,,*66
$PYRTM,2024,123.586358035914,14.696005446042
$GPGGA,140420.00,3420.7634,N,12049.3782,W,1,10,1.0,11.9,M,-33.8,M,,*62
$PYRTM,2024,123.586369609954,14.696017020093
$GPGGA,140421.00,3420.7640,N,12049.3796,W,1,10,1.0,12.3,M,-33.8,M,,*6C
$PYRTM,2024,123.586381203808,14.696028613958
$GPGGA,140422.00,3420.7645,N,12049.3812,W,1,10,1.0,12.9,M,-33.8,M,,*63
$PYRTM,2024,123.586392758704,14.696040168843
$GPGGA,140423.00,3420.7652,N,12049.3829,W,1,10,1.0,13.1,M,-33.8,M,,*65
$PYRTM,2024,123.586404357789,14.696051767928
$GPGGA,140424.00,3420.7662,N,12049.3843,W,1,10,1.0,12.9,M,-33.8,M,,*64
$PYRTM,2024,123.586411733970,14.696059144109
$GPGGA,140425.00,3420.7673,N,12049.3856,W,1,10,1.0,12.3,M,-33.8,M,,*6B
$PYRTM,2024,123.586427480208,14.696074890347
$GPGGA,140426.00,3420.7682,N,12049.3870,W,1,10,1.0,12.0,M,-33.8,M,,*61
$PYRTM,2024,123.586439054850,14.696086464988
$GPGGA,140427.00,3420.7688,N,12049.3886,W,1,10,1.0,12.1,M,-33.8,M,,*62
$PYRTM,2024,123.586446450926,14.696093861065
$GPGGA,140428.00,3420.7691,N,12049.3904,W,1,10,1.0,12.6,M,-33.8,M,,*69
$PYRTM,2024,123.586462203866,14.696109614005
$GPGGA,140429.00,3420.7696,N,12049.3921,W,1,10,1.0,12.8,M,-33.8,M,,*66
$PYRTM,2024,123.586473787639,14.696121197778
$GPGGA,140430.00,3420.7706,N,12049.3936,W,1,10,1.0,12.8,M,-33.8,M,,*60
$PYRTM,2024,123.586481184225,14.696128594363
$GPGGA,140431.00,3420.7718,N,12049.3948,W,1,10,1.0,12.8,M,-33.8,M,,*67
$PYRTM,2024,123.586492861551,14.696140271690
$GPGGA,140432.00,3420.7727,N,12049.3962,W,1,10,1.0,12.6,M,-33.8,M,,*6E
$PYRTM,2024,123.586511396262,14.696158806400
$GPGGA,140433.00,3420.7733,N,12049.3981,W,1,10,1.0,11.8,M,-33.8,M,,*6A
$PYRTM,2024,123.586520080301,14.696167490440
$GPGGA,140434.00,3420.7737,N,12049.3999,W,1,10,1.0,11.3,M,-33.8,M,,*6B
$PYRTM,2024,123.586531646331,14.696179056458
$GPGGA,140435.00,3420.7741,N,12049.4012,W,1,10,1.0,11.9,M,-33.8,M,,*6C
$PYRTM,2024,123.586543228553,14.696190638692
$GPGGA,140436.00,3420.7748,N,12049.4024,W,1,10,1.0,12.7,M,-33.8,M,,*6E
$PYRTM,2024,123.586554795185,14.696202205324
$GPGGA,140437.00,3420.7760,N,12049.4039,W,1,10,1.0,12.4,M,-33.8,M,,*6A
$PYRTM,2024,123.586562190208,14.696209600336
$GPGGA,140438.00,3420.7772,N,12049.4057,W,1,10,1.0,11.2,M,-33.8,M,,*6B
$PYRTM,2024,123.586577944178,14.696225354317
$GPGGA,140439.00,3420.7778,N,12049.4071,W,1,10,1.0,10.6,M,-33.8,M,,*61
$PYRTM,2024,123.586589518727,14.696236928866
$GPGGA,140440.00,3420.7780,N,12049.4082,W,1,10,1.0,11.3,M,-33.8,M,,*60
$PYRTM,2024,123.586596935984,14.696244346123
$GPGGA,140441.00,3420.7784,N,12049.4095,W,1,10,1.0,12.2,M,-33.8,M,,*61
$PYRTM,2024,123.586612664884,14.696260075035
$GPGGA,140442.00,3420.7793,N,12049.4113,W,1,10,1.0,12.2,M,-33.8,M,,*6B
$PYRTM,2024,123.586624239456,14.696271649595
$GPGGA,140443.00,3420.7804,N,12049.4129,W,1,10,1.0,11.1,M,-33.8,M,,*62
$PYRTM,2024,123.586631635556,14.696279045694
$GPGGA,140444.00,3420.7812,N,12049.4137,W,1,10,1.0,10.7,M,-33.8,M,,*6A
$PYRTM,2024,123.586647390660,14.696294800799
$GPGGA,140445.00,3420.7816,N,12049.4145,W,1,10,1.0,11.2,M,-33.8,M,,*6E
$PYRTM,2024,123.586658974051,14.696306384190
$GPGGA,140446.00,3420.7820,N,12049.4160,W,1,10,1.0,11.7,M,-33.8,M,,*6A
$PYRTM,2024,123.586666363403,14.696313773542
$GPGGA,140447.00,3420.7827,N,12049.4181,W,1,10,1.0,11.1,M,-33.8,M,,*65
$PYRTM,2024,123.586682109641,14.696329519780
$GPGGA,140448.00,3420.7836,N,12049.4198,W,1,10,1.0,10.0,M,-33.8,M,,*62
$PYRTM,2024,123.586693684317,14.696341094456
$GPGGA,140449.00,3420.7843,N,12049.4203,W,1,10,1.0,10.8,M,-33.8,M,,*68
$PYRTM,2024,123.586701079549,14.696348489687
$GPGGA,140450.00,3420.7849,N,12049.4206,W,1,10,1.0,12.3,M,-33.8,M,,*66
$PYRTM,2024,123.586716832049,14.696364242187
$GPGGA,140451.00,3420.7858,N,12049.4215,W,1,10,1.0,12.9,M,-33.8,M,,*6F
$PYRTM,2024,123.586728414236,14.696375824375
$GPGGA,140452.00,3420.7866,N,12049.4230,W,1,10,1.0,11.9,M,-33.8,M,,*65
$PYRTM,2024,123.586739981366,14.696387391505
$GPGGA,140453.00,3420.7869,N,12049.4244,W,1,10,1.0,11.1,M,-33.8,M,,*60
$PYRTM,2024,123.586751561701,14.696398971840
$GPGGA,140454.00,3420.7871,N,12049.4252,W,1,10,1.0,11.3,M,-33.8,M,,*6B
$PYRTM,2024,123.586763128356,14.696410538507
$GPGGA,140455.00,3420.7877,N,12049.4259,W,1,10,1.0,11.9,M,-33.8,M,,*6D
$PYRTM,2024,123.586774714687,14.696422124826
$GPGGA,140456.00,3420.7889,N,12049.4272,W,1,10,1.0,11.8,M,-33.8,M,,*67
$PYRTM,2024,123.586786277303,14.696433687442
$GPGGA,140457.00,3420.7899,N,12049.4285,W,1,10,1.0,11.3,M,-33.8,M,,*64
$PYRTM,2024,123.586797861192,14.696445271331
$GPGGA,140458.00,3420.7901,N,12049.4294,W,1,10,1.0,11.8,M,-33.8,M,,*60
$PYRTM,2024,123.586809424178,14.696456834317
$GPGGA,140459.00,3420.7900,N,12049.4303,W,1,10,1.0,12.7,M,-33.8,M,,*63
$PYRTM,2024,123.586820999086,14.696468409225
$GPGGA,140500.00,3420.7906,N,12049.4315,W,1,10,1.0,12.4,M,-33.8,M,,*6C
$PYRTM,2024,123.586832572928,14.696479983079
$GPGGA,140501.00,3420.7917,N,12049.4329,W,1,10,1.0,10.6,M,-33.8,M,,*62
$PYRTM,2024,123.586839966979,14.696487377118
$GPGGA,140502.00,3420.7923,N,12049.4340,W,1,10,1.0,9.0,M,-33.8,M,,*57
$PYRTM,2024,123.586851657558,14.696499067697
$GPGGA,140503.00,3420.7925,N,12049.4345,W,1,10,1.0,8.8,M,-33.8,M,,*5C
$PYRTM,2024,123.586870191840,14.696517601979
$GPGGA,140504.00,3420.7926,N,12049.4352,W,1,10,1.0,9.0,M,-33.8,M,,*57
$PYRTM,2024,123.586878870301,14.696526280440
$GPGGA,140505.00,3420.7930,N,12049.4366,W,1,10,1.0,9.0,M,-33.8,M,,*56
$PYRTM,2024,123.586890450938,14.696537861076
$GPGGA,140506.00,3420.7937,N,12049.4380,W,1,10,1.0,8.1,M,-33.8,M,,*5A
$PYRTM,2024,123.586897721204,14.696545131343
$GPGGA,140507.00,3420.7945,N,12049.4389,W,1,10,1.0,7.1,M,-33.8,M,,*58
$PYRTM,2024,123.586913601898,14.696561012037
$GPGGA,140508.00,3420.7949,N,12049.4394,W,1,10,1.0,6.8,M,-33.8,M,,*5F
$PYRTM,2024,123.586925165926,14.696572576076
$GPGGA,140509.00,3420.7951,N,12049.4402,W,1,10,1.0,7.0,M,-33.8,M,,*56
$PYRTM,2024,123.586936750382,14.696584160521
$GPGGA,140510.00,3420.7957,N,12049.4416,W,1,10,1.0,6.9,M,-33.8,M,,*55
$PYRTM,2024,123.586948310683,14.696595720822
$GPGGA,140511.00,3420.7966,N,12049.4430,W,1,10,1.0,6.7,M,-33.8,M,,*5C
$PYRTM,2024,123.586959898345,14.696607308484
$GPGGA,140512.00,3420.7974,N,12049.4437,W,1,10,1.0,7.0,M,-33.8,M,,*5D
$PYRTM,2024,123.586971462593,14.696618872731
$GPGGA,140513.00,3420.7979,N,12049.4441,W,1,10,1.0,8.0,M,-33.8,M,,*5F
$PYRTM,2024,123.586983034792,14.696630444931
$GPGGA,140514.00,3420.7983,N,12049.4451,W,1,10,1.0,8.6,M,-33.8,M,,*5A
$PYRTM,2024,123.586994609375,14.696642019514
$GPGGA,140515.00,3420.7989,N,12049.4467,W,1,10,1.0,8.4,M,-33.8,M,,*56
$PYRTM,2024,123.587006194792,14.696653604931
$GPGGA,140516.00,3420.7994,N,12049.4480,W,1,10,1.0,8.1,M,-33.8,M,,*55
$PYRTM,2024,123.587017754722,14.696665164873
$GPGGA,140517.00,3420.7999,N,12049.4487,W,1,10,1.0,8.4,M,-33.8,M,,*5B
$PYRTM,2024,123.587029343160,14.696676753299
$GPGGA,140518.00,3420.8004,N,12049.4494,W,1,10,1.0,9.0,M,-33.8,M,,*51
$PYRTM,2024,123.587040906354,14.696688316505
$GPGGA,140519.00,3420.8010,N,12049.4505,W,1,10,1.0,9.3,M,-33.8,M,,*5F
$PYRTM,2024,123.587052488171,14.696699898310
$GPGGA,140520.00,3420.8018,N,12049.4520,W,1,10,1.0,8.9,M,-33.8,M,,*51
$PYRTM,2024,123.587064055347,14.696711465486
$GPGGA,140521.00,3420.8024,N,12049.4534,W,1,10,1.0,8.6,M,-33.8,M,,*55
$PYRTM,2024,123.587075652859,14.696723062998
$GPGGA,140522.00,3420.8030,N,12049.4543,W,1,10,1.0,9.0,M,-33.8,M,,*54
$PYRTM,2024,123.587087199803,14.696734609942
$GPGGA,140523.00,3420.8033,N,12049.4550,W,1,10,1.0,10.0,M,-33.8,M,,*6C
$PYRTM,2024,123.587098775752,14.696746185891
$GPGGA,140524.00,3420.8036,N,12049.4560,W,1,10,1.0,11.2,M,-33.8,M,,*6E
$PYRTM,2024,123.587110350741,14.696757760880
$GPGGA,140525.00,3420.8043,N,12049.4575,W,1,10,1.0,11.0,M,-33.8,M,,*6B
$PYRTM,2024,123.587121924097,14.696769334236
$GPGGA,140526.00,3420.8051,N,12049.4590,W,1,10,1.0,9.8,M,-33.8,M,,*51
$PYRTM,2024,123.587133499167,14.696780909306
$GPGGA,140527.00,3420.8057,N,12049.4598,W,1,10,1.0,9.4,M,-33.8,M,,*52
$PYRTM,2024,123.587145072593,14.696792482731
$GPGGA,140528.00,3420.8060,N,12049.4602,W,1,10,1.0,9.5,M,-33.8,M,,*58
$PYRTM,2024,123.587156646192,14.696804056331
$GPGGA,140529.00,3420.8065,N,12049.4615,W,1,10,1.0,9.6,M,-33.8,M,,*59
$PYRTM,2024,123.587168220532,14.696815630660
$GPGGA,140530.00,3420.8072,N,12049.4633,W,1,10,1.0,9.0,M,-33.8,M,,*55
$PYRTM,2024,123.587179794803,14.696827204942
$GPGGA,140531.00,3420.8076,N,12049.4645,W,1,10,1.0,8.9,M,-33.8,M,,*59
$PYRTM,2024,123.587191393889,14.696838804028
$GPGGA,140532.00,3420.8077,N,12049.4650,W,1,10,1.0,9.3,M,-33.8,M,,*54
$PYRTM,2024,123.587202944236,14.696850354375
$GPGGA,140533.00,3420.8081,N,12049.4655,W,1,10,1.0,9.4,M,-33.8,M,,*5E
$PYRTM,2024,123.587210235081,14.696857645220
$GPGGA,140534.00,3420.8089,N,12049.4665,W,1,10,1.0,9.1,M,-33.8,M,,*57
$PYRTM,2024,123.587228980509,14.696876390648
$GPGGA,140535.00,3420.8095,N,12049.4676,W,1,10,1.0,8.3,M,-33.8,M,,*5A
$PYRTM,2024,123.587237673264,14.696885083403
$GPGGA,140536.00,3420.8097,N,12049.4686,W,1,10,1.0,8.1,M,-33.8,M,,*56
$PYRTM,2024,123.587249239792,14.696896649931
$GPGGA,140537.00,3420.8098,N,12049.4695,W,1,10,1.0,8.8,M,-33.8,M,,*53
$PYRTM,2024,123.587256531516,14.696903941655
$GPGGA,140538.00,3420.8103,N,12049.4704,W,1,10,1.0,9.8,M,-33.8,M,,*57
$PYRTM,2024,123.587272387650,14.696919797789
$GPGGA,140539.00,3420.8111,N,12049.4714,W,1,10,1.0,10.5,M,-33.8,M,,*61
$PYRTM,2024,123.587283973044,14.696931383183
$GPGGA,140540.00,3420.8117,N,12049.4725,W,1,10,1.0,10.7,M,-33.8,M,,*69
$PYRTM,2024,123.587291380613,14.696938790764
$GPGGA,140541.00,3420.8122,N,12049.4738,W,1,10,1.0,10.4,M,-33.8,M,,*61
$PYRTM,2024,123.587307108981,14.696954519120
$GPGGA,140542.00,3420.8125,N,12049.4749,W,1,10,1.0,9.9,M,-33.8,M,,*56
$PYRTM,2024,123.587318683287,14.696966093426
$GPGGA,140543.00,3420.8129,N,12049.4759,W,1,10,1.0,9.7,M,-33.8,M,,*54
$PYRTM,2024,123.587330268553,14.696977678692
$GPGGA,140544.00,3420.8136,N,12049.4769,W,1,10,1.0,9.4,M,-33.8,M,,*5D
$PYRTM,2024,123.587341831690,14.696989241829
$GPGGA,140545.00,3420.8145,N,12049.4781,W,1,10,1.0,9.1,M,-33.8,M,,*5B
$PYRTM,2024,123.587349124502,14.696996534641
$GPGGA,140546.00,3420.8151,N,12049.4792,W,1,10,1.0,9.2,M,-33.8,M,,*5C
$PYRTM,2024,123.587364980104,14.697012390255
$GPGGA,140547.00,3420.8153,N,12049.4803,W,1,10,1.0,9.9,M,-33.8,M,,*53
$PYRTM,2024,123.587376562199,14.697023972338
$GPGGA,140548.00,3420.8155,N,12049.4817,W,1,10,1.0,10.5,M,-33.8,M,,*6B
$PYRTM,2024,123.587388128715,14.697035538854
$GPGGA,140549.00,3420.8162,N,12049.4832,W,1,10,1.0,10.2,M,-33.8,M,,*6E
$PYRTM,2024,123.587399728125,14.697047138264
$GPGGA,140550.00,3420.8171,N,12049.4841,W,1,10,1.0,9.5,M,-33.8,M,,*5F
$PYRTM,2024,123.587406986377,14.697054396516
$GPGGA,140551.00,3420.8178,N,12049.4848,W,1,10,1.0,9.4,M,-33.8,M,,*5F
$PYRTM,2024,123.587422849942,14.697070260081
$GPGGA,140552.00,3420.8181,N,12049.4862,W,1,10,1.0,9.8,M,-33.8,M,,*5E
$PYRTM,2024,123.587434424896,14.697081835035
$GPGGA,140553.00,3420.8183,N,12049.4879,W,1,10,1.0,10.1,M,-33.8,M,,*66
$PYRTM,2024,123.587441820625,14.697089230775
$GPGGA,140554.00,3420.8187,N,12049.4893,W,1,10,1.0,10.4,M,-33.8,M,,*64
$PYRTM,2024,123.587457567859,14.697104978009
$GPGGA,140555.00,3420.8196,N,12049.4903,W,1,10,1.0,10.6,M,-33.8,M,,*6F
$PYRTM,2024,123.587469147454,14.697116557593
$GPGGA,140556.00,3420.8206,N,12049.4913,W,1,10,1.0,10.5,M,-33.8,M,,*64
$PYRTM,2024,123.587480715752,14.697128125903
$GPGGA,140557.00,3420.8213,N,12049.4925,W,1,10,1.0,10.3,M,-33.8,M,,*62
$PYRTM,2024,123.587492294028,14.697139704178
$GPGGA,140558.00,3420.8215,N,12049.4940,W,1,10,1.0,10.5,M,-33.8,M,,*6E
$PYRTM,2024,123.587503867569,14.697151277708
$GPGGA,140559.00,3420.8219,N,12049.4954,W,1,10,1.0,11.0,M,-33.8,M,,*62
$PYRTM,2024,123.587515453796,14.697162863935
$GPGGA,140600.00,3420.8225,N,12049.4965,W,1,10,1.0,11.4,M,-33.8,M,,*64
$PYRTM,2024,123.587522848148,14.697170258287
$GPGGA,140601.00,3420.8236,N,12049.4975,W,1,10,1.0,11.3,M,-33.8,M,,*61
$PYRTM,2024,123.587538602639,14.697186012778
$GPGGA,140602.00,3420.8246,N,12049.4989,W,1,10,1.0,10.7,M,-33.8,M,,*63
$PYRTM,2024,123.587550160046,14.697197570185
$GPGGA,140603.00,3420.8250,N,12049.5004,W,1,10,1.0,10.5,M,-33.8,M,,*6A
$PYRTM,2024,123.587561746921,14.697209157060
$GPGGA,140604.00,3420.8254,N,12049.5018,W,1,10,1.0,10.9,M,-33.8,M,,*68
$PYRTM,2024,123.587569140949,14.697216551088
$GPGGA,140605.00,3420.8264,N,12049.5029,W,1,10,1.0,11.2,M,-33.8,M,,*62
$PYRTM,2024,123.587587785752,14.697235195903
$GPGGA,140606.00,3420.8275,N,12049.5040,W,1,10,1.0,12.3,M,-33.8,M,,*6C
$PYRTM,2024,123.587596456794,14.697243866933
$GPGGA,140607.00,3420.8282,N,12049.5056,W,1,10,1.0,11.3,M,-33.8,M,,*61
$PYRTM,2024,123.587608046539,14.697255456678
$GPGGA,140608.00,3420.8285,N,12049.5072,W,1,10,1.0,11.8,M,-33.8,M,,*64
$PYRTM,2024,123.587619608762,14.697267018900
$GPGGA,140609.00,3420.8292,N,12049.5083,W,1,10,1.0,12.0,M,-33.8,M,,*66
$PYRTM,2024,123.587631183137,14.697278593275
$GPGGA,140610.00,3420.8302,N,12049.5090,W,1,10,1.0,12.4,M,-33.8,M,,*60
$PYRTM,2024,123.587642752350,14.697290162488
$GPGGA,140611.00,3420.8311,N,12049.5103,W,1,10,1.0,12.2,M,-33.8,M,,*6E
$PYRTM,2024,123.587654342708,14.697301752847
$GPGGA,140612.00,3420.8319,N,12049.5122,W,1,10,1.0,11.4,M,-33.8,M,,*63
$PYRTM,2024,123.587665907037,14.697313317188
$GPGGA,140613.00,3420.8322,N,12049.5140,W,1,10,1.0,10.9,M,-33.8,M,,*62
$PYRTM,2024,123.587677490231,14.697324900370
$GPGGA,140614.00,3420.8326,N,12049.5152,W,1,10,1.0,11.3,M,-33.8,M,,*69
$PYRTM,2024,123.587689054745,14.697336464896
$GPGGA,140615.00,3420.8334,N,12049.5160,W,1,10,1.0,12.5,M,-33.8,M,,*6F
$PYRTM,2024,123.587696449468,14.697343859606
$GPGGA,140616.00,3420.8346,N,12049.5170,W,1,10,1.0,12.6,M,-33.8,M,,*6B
$PYRTM,2024,123.587712201574,14.697359611725
$GPGGA,140617.00,3420.8356,N,12049.5188,W,1,10,1.0,11.8,M,-33.8,M,,*61
$PYRTM,2024,123.587723783565,14.697371193704
$GPGGA,140618.00,3420.8360,N,12049.5206,W,1,10,1.0,11.2,M,-33.8,M,,*64
$PYRTM,2024,123.587735352292,14.697382762431
$GPGGA,140619.00,3420.8360,N,12049.5220,W,1,10,1.0,11.4,M,-33.8,M,,*67
$PYRTM,2024,123.587746923576,14.697394333715
$GPGGA,140620.00,3420.8367,N,12049.5230,W,1,10,1.0,12.0,M,-33.8,M,,*6C
$PYRTM,2024,123.587758497535,14.697405907674
$GPGGA,140621.00,3420.8378,N,12049.5241,W,1,10,1.0,12.2,M,-33.8,M,,*67
$PYRTM,2024,123.587770072072,14.697417482211
$GPGGA,140622.00,3420.8388,N,12049.5257,W,1,10,1.0,11.7,M,-33.8,M,,*6A
$PYRTM,2024,123.587781645961,14.697429056100
$GPGGA,140623.00,3420.8393,N,12049.5275,W,1,10,1.0,11.1,M,-33.8,M,,*67
$PYRTM,2024,123.587793233657,14.697440643796
$GPGGA,140624.00,3420.8398,N,12049.5290,W,1,10,1.0,10.8,M,-33.8,M,,*68
$PYRTM,2024,123.587804794850,14.697452204988
$GPGGA,140625.00,3420.8406,N,12049.5301,W,1,10,1.0,11.2,M,-33.8,M,,*6B
$PYRTM,2024,123.587812188993,14.697459599132
$GPGGA,140626.00,3420.8414,N,12049.5314,W,1,10,1.0,11.7,M,-33.8,M,,*6A
$PYRTM,2024,123.587827942674,14.697475352812
$GPGGA,140627.00,3420.8423,N,12049.5328,W,1,10,1.0,11.9,M,-33.8,M,,*6E
$PYRTM,2024,123.587839528137,14.697486938275
$GPGGA,140628.00,3420.8428,N,12049.5343,W,1,10,1.0,12.1,M,-33.8,M,,*6C
$PYRTM,2024,123.587846917870,14.697494328009
$GPGGA,140629.00,3420.8432,N,12049.5359,W,1,10,1.0,12.1,M,-33.8,M,,*6D
$PYRTM,2024,123.587862664086,14.697510074236
$GPGGA,140630.00,3420.8439,N,12049.5376,W,1,10,1.0,11.2,M,-33.8,M,,*63
$PYRTM,2024,123.587874233507,14.697521643646
$GPGGA,140631.00,3420.8449,N,12049.5389,W,1,10,1.0,10.3,M,-33.8,M,,*65
$PYRTM,2024,123.587885821053,14.697533231192
$GPGGA,140632.00,3420.8458,N,12049.5399,W,1,10,1.0,10.3,M,-33.8,M,,*67
$PYRTM,2024,123.587897386921,14.697544797060
$GPGGA,140633.00,3420.8465,N,12049.5413,W,1,10,1.0,10.7,M,-33.8,M,,*69
$PYRTM,2024,123.587908985775,14.697556395914
$GPGGA,140634.00,3420.8468,N,12049.5431,W,1,10,1.0,11.1,M,-33.8,M,,*64
$PYRTM,2024,123.587920536424,14.697567946562
$GPGGA,140635.00,3420.8474,N,12049.5448,W,1,10,1.0,11.5,M,-33.8,M,,*62
$PYRTM,2024,123.587927929734,14.697575339873
$GPGGA,140636.00,3420.8484,N,12049.5461,W,1,10,1.0,11.3,M,-33.8,M,,*63
$PYRTM,2024,123.587946577118,14.697593987257
$GPGGA,140637.00,3420.8495,N,12049.5474,W,1,10,1.0,10.8,M,-33.8,M,,*6C
$PYRTM,2024,123.587955257778,14.697602667917
$GPGGA,140638.00,3420.8502,N,12049.5489,W,1,10,1.0,10.2,M,-33.8,M,,*64
$PYRTM,2024,123.587966829699,14.697614239838
$GPGGA,140639.00,3420.8508,N,12049.5506,W,1,10,1.0,9.8,M,-33.8,M,,*5B
$PYRTM,2024,123.587978417257,14.697625827396
$GPGGA,140640.00,3420.8515,N,12049.5521,W,1,10,1.0,10.0,M,-33.8,M,,*6C
$PYRTM,2024,123.587985823762,14.697633233900
$GPGGA,140641.00,3420.8523,N,12049.5535,W,1,10,1.0,10.7,M,-33.8,M,,*6A
$PYRTM,2024,123.588001552986,14.697648963125
$GPGGA,140642.00,3420.8528,N,12049.5547,W,1,10,1.0,11.7,M,-33.8,M,,*66
$PYRTM,2024,123.588013128287,14.697660538426
$GPGGA,140643.00,3420.8533,N,12049.5562,W,1,10,1.0,12.3,M,-33.8,M,,*6D
$PYRTM,2024,123.588020522060,14.697667932199
$GPGGA,140644.00,3420.8542,N,12049.5580,W,1,10,1.0,11.4,M,-33.8,M,,*64
$PYRTM,2024,123.588036276238,14.697683686377
$GPGGA,140645.00,3420.8553,N,12049.5596,W,1,10,1.0,9.9,M,-33.8,M,,*56
$PYRTM,2024,123.588047858299,14.697695268438
$GPGGA,140646.00,3420.8557,N,12049.5607,W,1,10,1.0,9.8,M,-33.8,M,,*5B
$PYRTM,2024,123.588059424340,14.697706834479
$GPGGA,140647.00,3420.8555,N,12049.5619,W,1,10,1.0,10.7,M,-33.8,M,,*60
$PYRTM,2024,123.588071004826,14.697718414965
$GPGGA,140648.00,3420.8559,N,12049.5636,W,1,10,1.0,11.3,M,-33.8,M,,*6B
$PYRTM,2024,123.588078400185,14.697725810324
$GPGGA,140649.00,3420.8569,N,12049.5653,W,1,10,1.0,11.2,M,-33.8,M,,*6B
$PYRTM,2024,123.588094156042,14.697741566181
$GPGGA,140650.00,3420.8578,N,12049.5665,W,1,10,1.0,11.1,M,-33.8,M,,*65
$PYRTM,2024,123.588105720359,14.697753130509
$GPGGA,140651.00,3420.8582,N,12049.5679,W,1,10,1.0,10.8,M,-33.8,M,,*64
$PYRTM,2024,123.588113114734,14.697760524873
$GPGGA,140652.00,3420.8585,N,12049.5694,W,1,10,1.0,10.4,M,-33.8,M,,*6F
$PYRTM,2024,123.588128867975,14.697776278113
$GPGGA,140653.00,3420.8591,N,12049.5708,W,1,10,1.0,10.3,M,-33.8,M,,*68
$PYRTM,2024,123.588140452488,14.697787862627
$GPGGA,140654.00,3420.8598,N,12049.5720,W,1,10,1.0,10.6,M,-33.8,M,,*69
$PYRTM,2024,123.588147847025,14.697795257164
$GPGGA,140655.00,3420.8605,N,12049.5737,W,1,10,1.0,10.5,M,-33.8,M,,*6A
$PYRTM,2024,123.588163599803,14.697811009942
$GPGGA,140656.00,3420.8612,N,12049.5753,W,1,10,1.0,10.4,M,-33.8,M,,*6C
$PYRTM,2024,123.588175164641,14.697822574780
$GPGGA,140657.00,3420.8617,N,12049.5766,W,1,10,1.0,10.7,M,-33.8,M,,*6D
$PYRTM,2024,123.588186750220,14.697834160359
$GPGGA,140658.00,3420.8623,N,12049.5780,W,1,10,1.0,11.0,M,-33.8,M,,*6B
$PYRTM,2024,123.588198314306,14.697845724444
$GPGGA,140659.00,3420.8630,N,12049.5797,W,1,10,1.0,11.0,M,-33.8,M,,*6E
$PYRTM,2024,123.588205708183,14.697853118322
$GPGGA,140700.00,3420.8637,N,12049.5809,W,1,10,1.0,11.0,M,-33.8,M,,*6C
$PYRTM,2024,123.588221460903,14.697868871053
$GPGGA,140701.00,3420.8645,N,12049.5818,W,1,10,1.0,11.1,M,-33.8,M,,*69
$PYRTM,2024,123.588233042199,14.697880452338
$GPGGA,140702.00,3420.8653,N,12049.5832,W,1,10,1.0,11.0,M,-33.8,M,,*64
$PYRTM,2024,123.588244607928,14.697892018067
$GPGGA,140703.00,3420.8659,N,12049.5852,W,1,10,1.0,9.8,M,-33.8,M,,*58
$PYRTM,2024,123.588256190127,14.697903600266
$GPGGA,140704.00,3420.8665,N,12049.5867,W,1,10,1.0,9.2,M,-33.8,M,,*5C
$PYRTM,2024,123.588263460451,14.697910870590
$GPGGA,140705.00,3420.8673,N,12049.5872,W,1,10,1.0,9.8,M,-33.8,M,,*54
$PYRTM,2024,123.588279330197,14.697926740336
$GPGGA,140706.00,3420.8684,N,12049.5878,W,1,10,1.0,10.6,M,-33.8,M,,*63
$PYRTM,2024,123.588286749537,14.697934159676
$GPGGA,140707.00,3420.8692,N,12049.5893,W,1,10,1.0,10.5,M,-33.8,M,,*63
$PYRTM,2024,123.588305256910,14.697952667049
$GPGGA,140708.00,3420.8697,N,12049.5910,W,1,10,1.0,9.7,M,-33.8,M,,*59
$PYRTM,2024,123.588314053426,14.697961463565
$GPGGA,140709.00,3420.8703,N,12049.5923,W,1,10,1.0,9.1,M,-33.8,M,,*52
$PYRTM,2024,123.588325627685,14.697973037824
$GPGGA,140710.00,3420.8714,N,12049.5929,W,1,10,1.0,8.9,M,-33.8,M,,*5F
$PYRTM,2024,123.588332905370,14.697980315509
$GPGGA,140711.00,3420.8723,N,12049.5938,W,1,10,1.0,9.2,M,-33.8,M,,*50
$PYRTM,2024,123.588348786389,14.697996196539
$GPGGA,140712.00,3420.8729,N,12049.5953,W,1,10,1.0,9.7,M,-33.8,M,,*51
$PYRTM,2024,123.588360350150,14.698007760289
$GPGGA,140713.00,3420.8736,N,12049.5969,W,1,10,1.0,10.1,M,-33.8,M,,*69
$PYRTM,2024,123.588367744005,14.698015154144
$GPGGA,140714.00,3420.8745,N,12049.5982,W,1,10,1.0,10.3,M,-33.8,M,,*6D
$PYRTM,2024,123.588383497581,14.698030907720
$GPGGA,140715.00,3420.8755,N,12049.5991,W,1,10,1.0,10.6,M,-33.8,M,,*6A
$PYRTM,2024,123.588395078623,14.698042488762
$GPGGA,140716.00,3420.8763,N,12049.6001,W,1,10,1.0,10.9,M,-33.8,M,,*60
$PYRTM,2024,123.588406645440,14.698054055579
$GPGGA,140717.00,3420.8771,N,12049.6014,W,1,10,1.0,10.7,M,-33.8,M,,*68
$PYRTM,2024,123.588418227361,14.698065637500
$GPGGA,140718.00,3420.8779,N,12049.6030,W,1,10,1.0,10.0,M,-33.8,M,,*6E
$PYRTM,2024,123.588425499155,14.698072909294
$GPGGA,140719.00,3420.8788,N,12049.6045,W,1,10,1.0,9.3,M,-33.8,M,,*58
$PYRTM,2024,123.588441367650,14.698088777789
$GPGGA,140720.00,3420.8795,N,12049.6058,W,1,10,1.0,9.3,M,-33.8,M,,*52
$PYRTM,2024,123.588452941609,14.698100351748
$GPGGA,140721.00,3420.8803,N,12049.6068,W,1,10,1.0,10.1,M,-33.8,M,,*6A
$PYRTM,2024,123.588460338472,14.698107748611
$GPGGA,140722.00,3420.8813,N,12049.6079,W,1,10,1.0,11.0,M,-33.8,M,,*68
$PYRTM,2024,123.588476094329,14.698123504468
$GPGGA,140723.00,3420.8823,N,12049.6093,W,1,10,1.0,11.5,M,-33.8,M,,*6B
$PYRTM,2024,123.588487664086,14.698135074225
$GPGGA,140724.00,3420.8831,N,12049.6109,W,1,10,1.0,11.2,M,-33.8,M,,*6A
$PYRTM,2024,123.588495069653,14.698142479792
$GPGGA,140725.00,3420.8835,N,12049.6125,W,1,10,1.0,10.8,M,-33.8,M,,*6A
$PYRTM,2024,123.588510812245,14.698158222384
$GPGGA,140726.00,3420.8842,N,12049.6138,W,1,10,1.0,10.7,M,-33.8,M,,*6A
$PYRTM,2024,123.588522385718,14.698169795856
$GPGGA,140727.00,3420.8852,N,12049.6151,W,1,10,1.0,10.5,M,-33.8,M,,*67
$PYRTM,2024,123.588529781944,14.698177192083
$GPGGA,140728.00,3420.8864,N,12049.6164,W,1,10,1.0,10.3,M,-33.8,M,,*6D
$PYRTM,2024,123.588545533889,14.698192944028
$GPGGA,140729.00,3420.8872,N,12049.6176,W,1,10,1.0,10.7,M,-33.8,M,,*6C
$PYRTM,2024,123.588557133924,14.698204544062
$GPGGA,140730.00,3420.8877,N,12049.6189,W,1,10,1.0,11.8,M,-33.8,M,,*6F
$PYRTM,2024,123.588564509282,14.698211919421
$GPGGA,140731.00,3420.8885,N,12049.6204,W,1,10,1.0,12.5,M,-33.8,M,,*6B
$PYRTM,2024,123.588580263958,14.698227674109
$GPGGA,140732.00,3420.8895,N,12049.6220,W,1,10,1.0,12.1,M,-33.8,M,,*6B
$PYRTM,2024,123.588591830000,14.698239240139
$GPGGA,140733.00,3420.8905,N,12049.6236,W,1,10,1.0,11.0,M,-33.8,M,,*67
$PYRTM,2024,123.588599225845,14.698246635995
$GPGGA,140734.00,3420.8910,N,12049.6251,W,1,10,1.0,10.7,M,-33.8,M,,*63
$PYRTM,2024,123.588614980532,14.698262390671
$GPGGA,140735.00,3420.8916,N,12049.6261,W,1,10,1.0,11.1,M,-33.8,M,,*60
$PYRTM,2024,123.588626552269,14.698273962407
$GPGGA,140736.00,3420.8927,N,12049.6271,W,1,10,1.0,11.5,M,-33.8,M,,*64
$PYRTM,2024,123.588638126632,14.698285536771
$GPGGA,140737.00,3420.8939,N,12049.6286,W,1,10,1.0,11.4,M,-33.8,M,,*63
$PYRTM,2024,123.588645522940,14.698292933079
$GPGGA,140738.00,3420.8946,N,12049.6305,W,1,10,1.0,10.8,M,-33.8,M,,*63
$PYRTM,2024,123.588664168368,14.698311578507
$GPGGA,140739.00,3420.8948,N,12049.6322,W,1,10,1.0,10.6,M,-33.8,M,,*67
$PYRTM,2024,123.588672849155,14.698320259306
$GPGGA,140740.00,3420.8951,N,12049.6335,W,1,10,1.0,11.0,M,-33.8,M,,*60
$PYRTM,2024,123.588684424931,14.698331835081
$GPGGA,140741.00,3420.8960,N,12049.6344,W,1,10,1.0,11.6,M,-33.8,M,,*63
$PYRTM,2024,123.588696000475,14.698343410613
$GPGGA,140742.00,3420.8972,N,12049.6354,W,1,10,1.0,11.9,M,-33.8,M,,*6D
$PYRTM,2024,123.588707570891,14.698354981030
$GPGGA,140743.00,3420.8982,N,12049.6371,W,1,10,1.0,10.5,M,-33.8,M,,*69
$PYRTM,2024,123.588719170926,14.698366581065
$GPGGA,140744.00,3420.8988,N,12049.6392,W,1,10,1.0,9.1,M,-33.8,M,,*55
$PYRTM,2024,123.588726424329,14.698373834468
$GPGGA,140745.00,3420.8988,N,12049.6406,W,1,10,1.0,9.5,M,-33.8,M,,*5A
$PYRTM,2024,123.588742319861,14.698389730000
$GPGGA,140746.00,3420.8990,N,12049.6415,W,1,10,1.0,10.9,M,-33.8,M,,*66
$PYRTM,2024,123.588753862037,14.698401272176
$GPGGA,140747.00,3420.9001,N,12049.6428,W,1,10,1.0,11.0,M,-33.8,M,,*61
$PYRTM,2024,123.588765452523,14.698412862662
$GPGGA,140748.00,3420.9013,N,12049.6444,W,1,10,1.0,10.4,M,-33.8,M,,*62
$PYRTM,2024,123.588777016458,14.698424426597
$GPGGA,140749.00,3420.9020,N,12049.6457,W,1,10,1.0,9.9,M,-33.8,M,,*54
$PYRTM,2024,123.588788590926,14.698436001065
$GPGGA,140750.00,3420.9023,N,12049.6470,W,1,10,1.0,9.8,M,-33.8,M,,*5B
$PYRTM,2024,123.588800159294,14.698447569433
$GPGGA,140751.00,3420.9027,N,12049.6485,W,1,10,1.0,9.7,M,-33.8,M,,*5B
$PYRTM,2024,123.588811749051,14.698459159190
$GPGGA,140752.00,3420.9034,N,12049.6498,W,1,10,1.0,9.8,M,-33.8,M,,*59
$PYRTM,2024,123.588823317049,14.698470727187
$GPGGA,140753.00,3420.9043,N,12049.6510,W,1,10,1.0,10.0,M,-33.8,M,,*69
$PYRTM,2024,123.588834901181,14.698482311319
$GPGGA,140754.00,3420.9052,N,12049.6522,W,1,10,1.0,10.3,M,-33.8,M,,*6C
$PYRTM,2024,123.588842292847,14.698489702986
$GPGGA,140755.00,3420.9057,N,12049.6535,W,1,10,1.0,10.7,M,-33.8,M,,*6A
$PYRTM,2024,123.588858048194,14.698505458345
$GPGGA,140756.00,3420.9061,N,12049.6549,W,1,10,1.0,11.0,M,-33.8,M,,*61
$PYRTM,2024,123.588869611308,14.698517021447
$GPGGA,140757.00,3420.9066,N,12049.6566,W,1,10,1.0,10.6,M,-33.8,M,,*6D
$PYRTM,2024,123.588876903287,14.698524313426
$GPGGA,140758.00,3420.9075,N,12049.6583,W,1,10,1.0,9.9,M,-33.8,M,,*5C
$PYRTM,2024,123.588892759398,14.698540169537
$GPGGA,140759.00,3420.9085,N,12049.6593,W,1,10,1.0,9.7,M,-33.8,M,,*5D
$PYRTM,2024,123.588904338160,14.698551748299
$GPGGA,140800.00,3420.9093,N,12049.6601,W,1,10,1.0,10.2,M,-33.8,M,,*6C
$PYRTM,2024,123.588915904907,14.698563315046
$GPGGA,140801.00,3420.9099,N,12049.6615,W,1,10,1.0,10.9,M,-33.8,M,,*69
$PYRTM,2024,123.588927489340,14.698574899479
$GPGGA,140802.00,3420.9103,N,12049.6631,W,1,10,1.0,11.3,M,-33.8,M,,*65
$PYRTM,2024,123.588934888889,14.698582299039
$GPGGA,140803.00,3420.9108,N,12049.6646,W,1,10,1.0,11.4,M,-33.8,M,,*68
$PYRTM,2024,123.588950626562,14.698598036701
$GPGGA,140804.00,3420.9119,N,12049.6658,W,1,10,1.0,10.6,M,-33.8,M,,*63
$PYRTM,2024,123.588962195255,14.698609605394
$GPGGA,140805.00,3420.9131,N,12049.6671,W,1,10,1.0,9.4,M,-33.8,M,,*59
$PYRTM,2024,123.588969486956,14.698616897095
$GPGGA,140806.00,3420.9138,N,12049.6683,W,1,10,1.0,9.0,M,-33.8,M,,*5A
$PYRTM,2024,123.588985348947,14.698632759086
$GPGGA,140807.00,3420.9143,N,12049.6695,W,1,10,1.0,9.5,M,-33.8,M,,*55
$PYRTM,2024,123.588996922581,14.698644332720
$GPGGA,140808.00,3420.9151,N,12049.6709,W,1,10,1.0,10.2,M,-33.8,M,,*62
$PYRTM,2024,123.589004324120,14.698651734259
$GPGGA,140809.00,3420.9160,N,12049.6723,W,1,10,1.0,10.5,M,-33.8,M,,*6E
$PYRTM,2024,123.589022965208,14.698670375359
$GPGGA,140810.00,3420.9165,N,12049.6737,W,1,10,1.0,10.8,M,-33.8,M,,*6B
$PYRTM,2024,123.589034538715,14.698681948854
$GPGGA,140811.00,3420.9170,N,12049.6751,W,1,10,1.0,10.9,M,-33.8,M,,*6F
$PYRTM,2024,123.589046113738,14.698693523889
$GPGGA,140812.00,3420.9177,N,12049.6766,W,1,10,1.0,10.2,M,-33.8,M,,*64
$PYRTM,2024,123.589054792917,14.698702203067
$GPGGA,140813.00,3420.9186,N,12049.6780,W,1,10,1.0,9.1,M,-33.8,M,,*58
$PYRTM,2024,123.589066388113,14.698713798264
$GPGGA,140814.00,3420.9193,N,12049.6792,W,1,10,1.0,8.9,M,-33.8,M,,*51
$PYRTM,2024,123.589077943414,14.698725353553
$GPGGA,140815.00,3420.9199,N,12049.6802,W,1,10,1.0,9.7,M,-33.8,M,,*53
$PYRTM,2024,123.589089522720,14.698736932859
$GPGGA,140816.00,3420.9207,N,12049.6814,W,1,10,1.0,10.7,M,-33.8,M,,*6B
$PYRTM,2024,123.589101089803,14.698748499942
$GPGGA,140817.00,3420.9214,N,12049.6832,W,1,10,1.0,11.0,M,-33.8,M,,*6A
$PYRTM,2024,123.589112663368,14.698760073519
$GPGGA,140818.00,3420.9222,N,12049.6850,W,1,10,1.0,10.4,M,-33.8,M,,*61
$PYRTM,2024,123.589124232650,14.698771642789
$GPGGA,140819.00,3420.9230,N,12049.6863,W,1,10,1.0,9.7,M,-33.8,M,,*58
$PYRTM,2024,123.589135811748,14.698783221887
$GPGGA,140820.00,3420.9237,N,12049.6871,W,1,10,1.0,10.1,M,-33.8,M,,*68
$PYRTM,2024,123.589147385081,14.698794795208
$GPGGA,140821.00,3420.9241,N,12049.6883,W,1,10,1.0,10.8,M,-33.8,M,,*6C
$PYRTM,2024,123.589158959375,14.698806369514
$GPGGA,140822.00,3420.9247,N,12049.6903,W,1,10,1.0,10.9,M,-33.8,M,,*61
$PYRTM,2024,123.589170533623,14.698817943762
$GPGGA,140823.00,3420.9256,N,12049.6919,W,1,10,1.0,10.1,M,-33.8,M,,*63
$PYRTM,2024,123.589182107350,14.698829517488
$GPGGA,140824.00,3420.9265,N,12049.6930,W,1,10,1.0,9.7,M,-33.8,M,,*51
$PYRTM,2024,123.589193682245,14.698841092384
$GPGGA,140825.00,3420.9271,N,12049.6941,W,1,10,1.0,10.1,M,-33.8,M,,*6D
$PYRTM,2024,123.589205266782,14.698852676921
$GPGGA,140826.00,3420.9274,N,12049.6955,W,1,10,1.0,10.7,M,-33.8,M,,*68
$PYRTM,2024,123.589216829988,14.698864240127
$GPGGA,140827.00,3420.9281,N,12049.6972,W,1,10,1.0,10.7,M,-33.8,M,,*66
$PYRTM,2024,123.589228412176,14.698875822315
$GPGGA,140828.00,3420.9290,N,12049.6988,W,1,10,1.0,10.2,M,-33.8,M,,*69
$PYRTM,2024,123.589235810220,14.698883220359
$GPGGA,140829.00,3420.9298,N,12049.6999,W,1,10,1.0,10.0,M,-33.8,M,,*62
$PYRTM,2024,123.589251564444,14.698898974595
$GPGGA,140830.00,3420.9305,N,12049.7008,W,1,10,1.0,10.4,M,-33.8,M,,*6B
$PYRTM,2024,123.589263126100,14.698910536238
$GPGGA,140831.00,3420.9311,N,12049.7023,W,1,10,1.0,10.4,M,-33.8,M,,*66
$PYRTM,2024,123.589274700012,14.698922110162
$GPGGA,140832.00,3420.9319,N,12049.7042,W,1,10,1.0,10.0,M,-33.8,M,,*6E
$PYRTM,2024,123.589286275058,14.698933685197
$GPGGA,140833.00,3420.9328,N,12049.7056,W,1,10,1.0,9.7,M,-33.8,M,,*57
$PYRTM,2024,123.589293568623,14.698940978762
$GPGGA,140834.00,3420.9336,N,12049.7064,W,1,10,1.0,10.3,M,-33.8,M,,*62
$PYRTM,2024,123.589309423264,14.698956833403
$GPGGA,140835.00,3420.9343,N,12049.7072,W,1,10,1.0,11.1,M,-33.8,M,,*65
$PYRTM,2024,123.589320998727,14.698968408866
$GPGGA,140836.00,3420.9348,N,12049.7087,W,1,10,1.0,11.8,M,-33.8,M,,*6E
