$PYRTM,2024,124.333336859109,15.442984269248
$GPGGA,075959.00,3519.7852,N,12137.7572,W,1,09,0.8,8.4,M,-32.1,M,,*5E
$PYRTM,2024,124.333348446968,15.442995857106
$GPGGA,080000.00,3519.7860,N,12137.7576,W,1,09,0.8,8.1,M,-32.1,M,,*51
$PYRTM,2024,124.333360006539,15.443007416678
$GPGGA,080001.00,3519.7868,N,12137.7576,W,1,09,0.8,8.3,M,-32.1,M,,*5A
$PYRTM,2024,124.333371597627,15.443019007766
$GPGGA,080002.00,3519.7877,N,12137.7576,W,1,09,0.8,8.8,M,-32.1,M,,*5C
$PYRTM,2024,124.333383155382,15.443030565521
$GPGGA,080003.00,3519.7887,N,12137.7578,W,1,09,0.8,9.1,M,-32.1,M,,*54
$PYRTM,2024,124.333394746516,15.443042156655
$GPGGA,080004.00,3519.7898,N,12137.7583,W,1,09,0.8,8.9,M,-32.1,M,,*50
$PYRTM,2024,124.333402138715,15.443049548854
$GPGGA,080005.00,3519.7907,N,12137.7588,W,1,09,0.8,8.7,M,-32.1,M,,*53
$PYRTM,2024,124.333417892338,15.443065302477
$GPGGA,080006.00,3519.7915,N,12137.7592,W,1,09,0.8,8.8,M,-32.1,M,,*57
$PYRTM,2024,124.333429452812,15.443076862963
$GPGGA,080007.00,3519.7924,N,12137.7595,W,1,09,0.8,8.7,M,-32.1,M,,*5C
$PYRTM,2024,124.333441033750,15.443088443889
$GPGGA,080008.00,3519.7934,N,12137.7595,W,1,09,0.8,8.7,M,-32.1,M,,*52
$PYRTM,2024,124.333452600104,15.443100010243
$GPGGA,080009.00,3519.7943,N,12137.7596,W,1,09,0.8,9.0,M,-32.1,M,,*56
$PYRTM,2024,124.333464181794,15.443111591933
$GPGGA,080010.00,3519.7951,N,12137.7599,W,1,09,0.8,9.3,M,-32.1,M,,*51
$PYRTM,2024,124.333475747778,15.443123157917
$GPGGA,080011.00,3519.7960,N,12137.7605,W,1,09,0.8,9.2,M,-32.1,M,,*55
$PYRTM,2024,124.333487331667,15.443134741817
$GPGGA,080012.00,3519.7971,N,12137.7608,W,1,09,0.8,8.9,M,-32.1,M,,*51
$PYRTM,2024,124.333498896574,15.443146306713
$GPGGA,080013.00,3519.7980,N,12137.7609,W,1,09,0.8,8.8,M,-32.1,M,,*5E
$PYRTM,2024,124.333510478981,15.443157889120
$GPGGA,080014.00,3519.7988,N,12137.7612,W,1,09,0.8,9.0,M,-32.1,M,,*52
$PYRTM,2024,124.333517878322,15.443165288461
$GPGGA,080015.00,3519.7996,N,12137.7616,W,1,09,0.8,9.5,M,-32.1,M,,*5D
$PYRTM,2024,124.333533635127,15.443181045278
$GPGGA,080016.00,3519.8005,N,12137.7619,W,1,09,0.8,9.8,M,-32.1,M,,*50
$PYRTM,2024,124.333545193588,15.443192603727
$GPGGA,080017.00,3519.8018,N,12137.7621,W,1,09,0.8,9.1,M,-32.1,M,,*5F
$PYRTM,2024,124.333552600266,15.443200010405
$GPGGA,080018.00,3519.8029,N,12137.7623,W,1,09,0.8,8.5,M,-32.1,M,,*55
$PYRTM,2024,124.333568341204,15.443215751343
$GPGGA,080019.00,3519.8035,N,12137.7626,W,1,09,0.8,8.3,M,-32.1,M,,*5A
$PYRTM,2024,124.333579930370,15.443227340521
$GPGGA,080020.00,3519.8041,N,12137.7629,W,1,09,0.8,8.5,M,-32.1,M,,*5A
$PYRTM,2024,124.333591489919,15.443238900058
$GPGGA,080021.00,3519.8051,N,12137.7632,W,1,09,0.8,8.4,M,-32.1,M,,*51
$PYRTM,2024,124.333598897199,15.443246307338
$GPGGA,080022.00,3519.8064,N,12137.7635,W,1,09,0.8,7.9,M,-32.1,M,,*51
$PYRTM,2024,124.333614639769,15.443262049907
$GPGGA,080023.00,3519.8073,N,12137.7637,W,1,09,0.8,7.5,M,-32.1,M,,*58
$PYRTM,2024,124.333622046771,15.443269456910
$GPGGA,080024.00,3519.8080,N,12137.7640,W,1,09,0.8,7.7,M,-32.1,M,,*51
$PYRTM,2024,124.333640679630,15.443288089769
$GPGGA,080025.00,3519.8087,N,12137.7643,W,1,09,0.8,8.1,M,-32.1,M,,*5D
$PYRTM,2024,124.333649375324,15.443296785463
$GPGGA,080026.00,3519.8098,N,12137.7646,W,1,09,0.8,8.1,M,-32.1,M,,*55
$PYRTM,2024,124.333660935475,15.443308345613
$GPGGA,080027.00,3519.8108,N,12137.7649,W,1,09,0.8,8.0,M,-32.1,M,,*52
$PYRTM,2024,124.333668341100,15.443315751238
$GPGGA,080028.00,3519.8116,N,12137.7650,W,1,09,0.8,8.1,M,-32.1,M,,*5B
$PYRTM,2024,124.333684083310,15.443331493449
$GPGGA,080029.00,3519.8124,N,12137.7651,W,1,09,0.8,8.0,M,-32.1,M,,*5B
$PYRTM,2024,124.333695669780,15.443343079919
$GPGGA,080030.00,3519.8134,N,12137.7655,W,1,09,0.8,7.7,M,-32.1,M,,*5E
$PYRTM,2024,124.333707231863,15.443354642014
$GPGGA,080031.00,3519.8142,N,12137.7659,W,1,09,0.8,7.8,M,-32.1,M,,*5D
$PYRTM,2024,124.333718820937,15.443366231076
$GPGGA,080032.00,3519.8150,N,12137.7663,W,1,09,0.8,8.2,M,-32.1,M,,*51
$PYRTM,2024,124.333730379120,15.443377789259
$GPGGA,080033.00,3519.8159,N,12137.7663,W,1,09,0.8,8.7,M,-32.1,M,,*5C
$PYRTM,2024,124.333741969340,15.443389379479
$GPGGA,080034.00,3519.8171,N,12137.7663,W,1,09,0.8,8.9,M,-32.1,M,,*5F
$PYRTM,2024,124.333753526875,15.443400937014
$GPGGA,080035.00,3519.8180,N,12137.7666,W,1,09,0.8,9.0,M,-32.1,M,,*5D
$PYRTM,2024,124.333765109873,15.443412520012
$GPGGA,080036.00,3519.8188,N,12137.7672,W,1,09,0.8,8.9,M,-32.1,M,,*5B
$PYRTM,2024,124.333772524248,15.443419934387
$GPGGA,080037.00,3519.8198,N,12137.7677,W,1,09,0.8,8.6,M,-32.1,M,,*51
$PYRTM,2024,124.333788262882,15.443435673021
$GPGGA,080038.00,3519.8208,N,12137.7680,W,1,09,0.8,8.3,M,-32.1,M,,*59
$PYRTM,2024,124.333799824618,15.443447234757
$GPGGA,080039.00,3519.8217,N,12137.7679,W,1,09,0.8,8.5,M,-32.1,M,,*56
$PYRTM,2024,124.333811411146,15.443458821285
$GPGGA,080040.00,3519.8227,N,12137.7679,W,1,09,0.8,9.0,M,-32.1,M,,*5F
$PYRTM,2024,124.333822970903,15.443470381042
$GPGGA,080041.00,3519.8237,N,12137.7683,W,1,09,0.8,9.2,M,-32.1,M,,*58
$PYRTM,2024,124.333834559144,15.443481969282
$GPGGA,080042.00,3519.8246,N,12137.7689,W,1,09,0.8,9.2,M,-32.1,M,,*57
$PYRTM,2024,124.333846121921,15.443493532060
$GPGGA,080043.00,3519.8254,N,12137.7695,W,1,09,0.8,8.9,M,-32.1,M,,*52
$PYRTM,2024,124.333857710660,15.443505120799
$GPGGA,080044.00,3519.8264,N,12137.7696,W,1,09,0.8,8.7,M,-32.1,M,,*5B
$PYRTM,2024,124.333869270532,15.443516680671
$GPGGA,080045.00,3519.8275,N,12137.7695,W,1,09,0.8,8.6,M,-32.1,M,,*58
$PYRTM,2024,124.333880857650,15.443528267789
$GPGGA,080046.00,3519.8284,N,12137.7697,W,1,09,0.8,8.9,M,-32.1,M,,*58
$PYRTM,2024,124.333892416620,15.443539826759
$GPGGA,080047.00,3519.8292,N,12137.7702,W,1,09,0.8,9.3,M,-32.1,M,,*58
$PYRTM,2024,124.333904006389,15.443551416528
$GPGGA,080048.00,3519.8300,N,12137.7706,W,1,09,0.8,9.5,M,-32.1,M,,*5F
$PYRTM,2024,124.333915564641,15.443562974780
$GPGGA,080049.00,3519.8311,N,12137.7708,W,1,09,0.8,9.2,M,-32.1,M,,*57
$PYRTM,2024,124.333922972373,15.443570382512
$GPGGA,080050.00,3519.8323,N,12137.7708,W,1,09,0.8,8.8,M,-32.1,M,,*55
$PYRTM,2024,124.333938712361,15.443586122500
$GPGGA,080051.00,3519.8332,N,12137.7711,W,1,09,0.8,8.8,M,-32.1,M,,*5C
$PYRTM,2024,124.333950299063,15.443597709201
$GPGGA,080052.00,3519.8337,N,12137.7715,W,1,09,0.8,9.4,M,-32.1,M,,*53
$PYRTM,2024,124.333957694271,15.443605104410
$GPGGA,080053.00,3519.8347,N,12137.7718,W,1,09,0.8,9.9,M,-32.1,M,,*55
$PYRTM,2024,124.333973563241,15.443620973380
$GPGGA,080054.00,3519.8360,N,12137.7718,W,1,09,0.8,9.6,M,-32.1,M,,*58
$PYRTM,2024,124.333980842639,15.443628252766
$GPGGA,080055.00,3519.8371,N,12137.7719,W,1,09,0.8,9.0,M,-32.1,M,,*5E
$PYRTM,2024,124.333999492882,15.443646903021
$GPGGA,080056.00,3519.8380,N,12137.7723,W,1,09,0.8,8.6,M,-32.1,M,,*5D
$PYRTM,2024,124.334008273426,15.443655683565
$GPGGA,080057.00,3519.8388,N,12137.7729,W,1,09,0.8,8.5,M,-32.1,M,,*5D
$PYRTM,2024,124.334019863600,15.443667273738
$GPGGA,080058.00,3519.8394,N,12137.7732,W,1,09,0.8,8.6,M,-32.1,M,,*56
$PYRTM,2024,124.334031421042,15.443678831181
$GPGGA,080059.00,3519.8402,N,12137.7731,W,1,09,0.8,8.8,M,-32.1,M,,*52
$PYRTM,2024,124.334038714039,15.443686124178
$GPGGA,080100.00,3519.8414,N,12137.7729,W,1,09,0.8,8.5,M,-32.1,M,,*5C
$PYRTM,2024,124.334054570139,15.443701980278
$GPGGA,080101.00,3519.8426,N,12137.7733,W,1,09,0.8,7.6,M,-32.1,M,,*5B
$PYRTM,2024,124.334066047558,15.443713457697
$GPGGA,080102.00,3519.8432,N,12137.7741,W,1,09,0.8,6.9,M,-32.1,M,,*56
$PYRTM,2024,124.334077604317,15.443725014456
$GPGGA,080103.00,3519.8435,N,12137.7745,W,1,09,0.8,6.9,M,-32.1,M,,*54
$PYRTM,2024,124.334089189745,15.443736599884
$GPGGA,080104.00,3519.8443,N,12137.7742,W,1,09,0.8,7.1,M,-32.1,M,,*5C
$PYRTM,2024,124.334100751319,15.443748161458
$GPGGA,080105.00,3519.8456,N,12137.7740,W,1,09,0.8,6.9,M,-32.1,M,,*52
$PYRTM,2024,124.334108158102,15.443755568241
$GPGGA,080106.00,3519.8469,N,12137.7744,W,1,09,0.8,6.1,M,-32.1,M,,*51
$PYRTM,2024,124.334123898669,15.443771308808
$GPGGA,080107.00,3519.8476,N,12137.7751,W,1,09,0.8,5.5,M,-32.1,M,,*5D
$PYRTM,2024,124.334135486933,15.443782897072
$GPGGA,080108.00,3519.8480,N,12137.7757,W,1,09,0.8,5.4,M,-32.1,M,,*5C
$PYRTM,2024,124.334142882118,15.443790292257
$GPGGA,080109.00,3519.8487,N,12137.7757,W,1,09,0.8,5.5,M,-32.1,M,,*5B
$PYRTM,2024,124.334158638032,15.443806048171
$GPGGA,080110.00,3519.8498,N,12137.7755,W,1,09,0.8,5.6,M,-32.1,M,,*5C
$PYRTM,2024,124.334170196065,15.443817606204
$GPGGA,080111.00,3519.8510,N,12137.7756,W,1,09,0.8,5.5,M,-32.1,M,,*5C
$PYRTM,2024,124.334177604595,15.443825014734
$GPGGA,080112.00,3519.8518,N,12137.7760,W,1,09,0.8,5.5,M,-32.1,M,,*52
$PYRTM,2024,124.334193344167,15.443840754306
$GPGGA,080113.00,3519.8524,N,12137.7764,W,1,09,0.8,5.7,M,-32.1,M,,*5A
$PYRTM,2024,124.334204944850,15.443852354988
$GPGGA,080114.00,3519.8531,N,12137.7769,W,1,09,0.8,5.8,M,-32.1,M,,*5B
$PYRTM,2024,124.334212326215,15.443859736354
$GPGGA,080115.00,3519.8540,N,12137.7771,W,1,09,0.8,5.7,M,-32.1,M,,*5A
$PYRTM,2024,124.334228082442,15.443875492593
$GPGGA,080116.00,3519.8549,N,12137.7771,W,1,09,0.8,5.8,M,-32.1,M,,*5F
$PYRTM,2024,124.334239640359,15.443887050498
$GPGGA,080117.00,3519.8555,N,12137.7770,W,1,09,0.8,6.4,M,-32.1,M,,*5D
$PYRTM,2024,124.334247049248,15.443894459387
$GPGGA,080118.00,3519.8564,N,12137.7772,W,1,09,0.8,6.7,M,-32.1,M,,*51
$PYRTM,2024,124.334262789051,15.443910199190
$GPGGA,080119.00,3519.8574,N,12137.7778,W,1,09,0.8,6.3,M,-32.1,M,,*5F
$PYRTM,2024,124.334274370648,15.443921780787
$GPGGA,080120.00,3519.8581,N,12137.7781,W,1,09,0.8,6.1,M,-32.1,M,,*5B
$PYRTM,2024,124.334281784387,15.443929194525
$GPGGA,080121.00,3519.8586,N,12137.7781,W,1,09,0.8,6.2,M,-32.1,M,,*5E
$PYRTM,2024,124.334297524931,15.443944935069
$GPGGA,080122.00,3519.8594,N,12137.7779,W,1,09,0.8,6.1,M,-32.1,M,,*5A
$PYRTM,2024,124.334309085567,15.443956495706
$GPGGA,080123.00,3519.8606,N,12137.7782,W,1,09,0.8,5.5,M,-32.1,M,,*50
$PYRTM,2024,124.334320672674,15.443968082813
$GPGGA,080124.00,3519.8614,N,12137.7786,W,1,09,0.8,5.2,M,-32.1,M,,*57
$PYRTM,2024,124.334328068785,15.443975478924
$GPGGA,080125.00,3519.8618,N,12137.7788,W,1,09,0.8,5.5,M,-32.1,M,,*53
$PYRTM,2024,124.334339758229,15.443987168368
$GPGGA,080126.00,3519.8625,N,12137.7786,W,1,09,0.8,5.8,M,-32.1,M,,*5D
$PYRTM,2024,124.334358274722,15.444005684861
$GPGGA,080127.00,3519.8635,N,12137.7785,W,1,09,0.8,5.8,M,-32.1,M,,*5E
$PYRTM,2024,124.334369865266,15.444017275405
$GPGGA,080128.00,3519.8643,N,12137.7787,W,1,09,0.8,5.5,M,-32.1,M,,*5F
$PYRTM,2024,124.334381424456,15.444028834595
$GPGGA,080129.00,3519.8649,N,12137.7790,W,1,09,0.8,5.6,M,-32.1,M,,*51
$PYRTM,2024,124.334390111169,15.444037521308
$GPGGA,080130.00,3519.8656,N,12137.7791,W,1,09,0.8,5.9,M,-32.1,M,,*59
$PYRTM,2024,124.334397531400,15.444044941539
$GPGGA,080131.00,3519.8665,N,12137.7791,W,1,09,0.8,6.2,M,-32.1,M,,*50
$PYRTM,2024,124.334413268681,15.444060678819
$GPGGA,080132.00,3519.8672,N,12137.7791,W,1,09,0.8,6.5,M,-32.1,M,,*52
$PYRTM,2024,124.334424826481,15.444072236620
$GPGGA,080133.00,3519.8678,N,12137.7793,W,1,09,0.8,6.8,M,-32.1,M,,*56
$PYRTM,2024,124.334432233148,15.444079643287
$GPGGA,080134.00,3519.8685,N,12137.7795,W,1,09,0.8,6.9,M,-32.1,M,,*54
$PYRTM,2024,124.334447974861,15.444095385000
$GPGGA,080135.00,3519.8694,N,12137.7795,W,1,09,0.8,6.7,M,-32.1,M,,*5B
$PYRTM,2024,124.334459562766,15.444106972905
$GPGGA,080136.00,3519.8704,N,12137.7796,W,1,09,0.8,6.4,M,-32.1,M,,*50
$PYRTM,2024,124.334466957546,15.444114367685
$GPGGA,080137.00,3519.8711,N,12137.7798,W,1,09,0.8,6.4,M,-32.1,M,,*5B
$PYRTM,2024,124.334482711956,15.444130122095
$GPGGA,080138.00,3519.8716,N,12137.7798,W,1,09,0.8,6.5,M,-32.1,M,,*52
$PYRTM,2024,124.334494270440,15.444141680579
$GPGGA,080139.00,3519.8725,N,12137.7797,W,1,09,0.8,6.6,M,-32.1,M,,*5F
$PYRTM,2024,124.334505852488,15.444153262627
$GPGGA,080140.00,3519.8736,N,12137.7797,W,1,09,0.8,6.3,M,-32.1,M,,*56
$PYRTM,2024,124.334517419132,15.444164829271
$GPGGA,080141.00,3519.8745,N,12137.7801,W,1,09,0.8,5.8,M,-32.1,M,,*5B
$PYRTM,2024,124.334529009803,15.444176419942
$GPGGA,080142.00,3519.8751,N,12137.7805,W,1,09,0.8,5.6,M,-32.1,M,,*57
$PYRTM,2024,124.334536401157,15.444183811296
$GPGGA,080143.00,3519.8757,N,12137.7803,W,1,09,0.8,5.8,M,-32.1,M,,*58
$PYRTM,2024,124.334548090972,15.444195501123
$GPGGA,080144.00,3519.8768,N,12137.7799,W,1,09,0.8,5.9,M,-32.1,M,,*5E
$PYRTM,2024,124.334563715394,15.444211125532
$GPGGA,080145.00,3519.8778,N,12137.7799,W,1,09,0.8,5.7,M,-32.1,M,,*50
$PYRTM,2024,124.334575302720,15.444222712859
$GPGGA,080146.00,3519.8785,N,12137.7805,W,1,09,0.8,5.7,M,-32.1,M,,*5B
$PYRTM,2024,124.334582714340,15.444230124491
$GPGGA,080147.00,3519.8790,N,12137.7810,W,1,09,0.8,6.0,M,-32.1,M,,*5E
$PYRTM,2024,124.334598454086,15.444245864225
$GPGGA,080148.00,3519.8799,N,12137.7811,W,1,09,0.8,6.1,M,-32.1,M,,*58
$PYRTM,2024,124.334610013241,15.444257423380
$GPGGA,080149.00,3519.8810,N,12137.7809,W,1,09,0.8,5.8,M,-32.1,M,,*54
$PYRTM,2024,124.334621601424,15.444269011563
$GPGGA,080150.00,3519.8818,N,12137.7808,W,1,09,0.8,5.8,M,-32.1,M,,*55
$PYRTM,2024,124.334633160498,15.444280570637
$GPGGA,080151.00,3519.8823,N,12137.7811,W,1,09,0.8,6.0,M,-32.1,M,,*5F
$PYRTM,2024,124.334644744028,15.444292154167
$GPGGA,080152.00,3519.8829,N,12137.7815,W,1,09,0.8,6.1,M,-32.1,M,,*53
$PYRTM,2024,124.334656310475,15.444303720613
$GPGGA,080153.00,3519.8839,N,12137.7817,W,1,09,0.8,6.0,M,-32.1,M,,*50
$PYRTM,2024,124.334667898947,15.444315309086
$GPGGA,080154.00,3519.8848,N,12137.7817,W,1,09,0.8,5.7,M,-32.1,M,,*55
$PYRTM,2024,124.334675290961,15.444322701100
$GPGGA,080155.00,3519.8855,N,12137.7817,W,1,09,0.8,5.9,M,-32.1,M,,*56
$PYRTM,2024,124.334691047477,15.444338457627
$GPGGA,080156.00,3519.8862,N,12137.7819,W,1,09,0.8,6.2,M,-32.1,M,,*57
$PYRTM,2024,124.334698439086,15.444345849225
$GPGGA,080157.00,3519.8871,N,12137.7822,W,1,09,0.8,6.3,M,-32.1,M,,*5D
$PYRTM,2024,124.334717088819,15.444364498958
$GPGGA,080158.00,3519.8879,N,12137.7825,W,1,09,0.8,6.6,M,-32.1,M,,*58
$PYRTM,2024,124.334725752465,15.444373162604
$GPGGA,080159.00,3519.8886,N,12137.7826,W,1,09,0.8,6.9,M,-32.1,M,,*55
$PYRTM,2024,124.334737341644,15.444384751782
$GPGGA,080200.00,3519.8893,N,12137.7827,W,1,09,0.8,7.1,M,-32.1,M,,*56
$PYRTM,2024,124.334748901389,15.444396311528
$GPGGA,080201.00,3519.8903,N,12137.7829,W,1,09,0.8,6.8,M,-32.1,M,,*59
$PYRTM,2024,124.334760484398,15.444407894537
$GPGGA,080202.00,3519.8914,N,12137.7832,W,1,09,0.8,6.1,M,-32.1,M,,*5F
$PYRTM,2024,124.334772050440,15.444419460579
$GPGGA,080203.00,3519.8922,N,12137.7835,W,1,09,0.8,6.1,M,-32.1,M,,*5C
$PYRTM,2024,124.334783636470,15.444431046609
$GPGGA,080204.00,3519.8926,N,12137.7839,W,1,09,0.8,6.3,M,-32.1,M,,*51
$PYRTM,2024,124.334791031308,15.444438441447
$GPGGA,080205.00,3519.8932,N,12137.7843,W,1,09,0.8,6.5,M,-32.1,M,,*5E
$PYRTM,2024,124.334806788183,15.444454198322
$GPGGA,080206.00,3519.8942,N,12137.7844,W,1,09,0.8,6.6,M,-32.1,M,,*5E
$PYRTM,2024,124.334818346620,15.444465756771
$GPGGA,080207.00,3519.8953,N,12137.7844,W,1,09,0.8,6.5,M,-32.1,M,,*5C
$PYRTM,2024,124.334829934248,15.444477344387
$GPGGA,080208.00,3519.8962,N,12137.7847,W,1,09,0.8,6.1,M,-32.1,M,,*56
$PYRTM,2024,124.334841494259,15.444488904398
$GPGGA,080209.00,3519.8970,N,12137.7852,W,1,09,0.8,5.8,M,-32.1,M,,*5A
$PYRTM,2024,124.334853085231,15.444500495370
$GPGGA,080210.00,3519.8976,N,12137.7857,W,1,09,0.8,5.8,M,-32.1,M,,*51
$PYRTM,2024,124.334860476840,15.444507886979
$GPGGA,080211.00,3519.8981,N,12137.7858,W,1,09,0.8,6.0,M,-32.1,M,,*5C
$PYRTM,2024,124.334876232882,15.444523643021
$GPGGA,080212.00,3519.8991,N,12137.7857,W,1,09,0.8,5.9,M,-32.1,M,,*5B
$PYRTM,2024,124.334887791389,15.444535201528
$GPGGA,080213.00,3519.9003,N,12137.7859,W,1,09,0.8,5.2,M,-32.1,M,,*5C
$PYRTM,2024,124.334899373750,15.444546783889
$GPGGA,080214.00,3519.9011,N,12137.7863,W,1,09,0.8,4.9,M,-32.1,M,,*5B
$PYRTM,2024,124.334910939468,15.444558349606
$GPGGA,080215.00,3519.9016,N,12137.7866,W,1,09,0.8,5.1,M,-32.1,M,,*51
$PYRTM,2024,124.334922529028,15.444569939167
$GPGGA,080216.00,3519.9022,N,12137.7868,W,1,09,0.8,5.6,M,-32.1,M,,*5C
$PYRTM,2024,124.334934089803,15.444581499954
$GPGGA,080217.00,3519.9032,N,12137.7869,W,1,09,0.8,5.5,M,-32.1,M,,*5E
$PYRTM,2024,124.334945678912,15.444593089063
$GPGGA,080218.00,3519.9043,N,12137.7872,W,1,09,0.8,4.9,M,-32.1,M,,*50
$PYRTM,2024,124.334957238611,15.444604648750
$GPGGA,080219.00,3519.9050,N,12137.7875,W,1,09,0.8,4.7,M,-32.1,M,,*5A
$PYRTM,2024,124.334968826921,15.444616237060
$GPGGA,080220.00,3519.9055,N,12137.7878,W,1,09,0.8,4.9,M,-32.1,M,,*56
$PYRTM,2024,124.334980385486,15.444627795625
$GPGGA,080221.00,3519.9061,N,12137.7879,W,1,09,0.8,5.1,M,-32.1,M,,*58
$PYRTM,2024,124.334991972153,15.444639382292
$GPGGA,080222.00,3519.9071,N,12137.7881,W,1,09,0.8,5.0,M,-32.1,M,,*5C
$PYRTM,2024,124.335003533565,15.444650943704
$GPGGA,080223.00,3519.9083,N,12137.7885,W,1,09,0.8,4.2,M,-32.1,M,,*57
$PYRTM,2024,124.335015122697,15.444662532847
$GPGGA,080224.00,3519.9090,N,12137.7889,W,1,09,0.8,3.7,M,-32.1,M,,*5C
$PYRTM,2024,124.335026680880,15.444674091019
$GPGGA,080225.00,3519.9094,N,12137.7890,W,1,09,0.8,3.9,M,-32.1,M,,*5F
$PYRTM,2024,124.335038271481,15.444685681620
$GPGGA,080226.00,3519.9101,N,12137.7887,W,1,09,0.8,4.2,M,-32.1,M,,*5B
$PYRTM,2024,124.335049829549,15.444697239687
$GPGGA,080227.00,3519.9113,N,12137.7886,W,1,09,0.8,4.1,M,-32.1,M,,*5B
$PYRTM,2024,124.335057237500,15.444704647639
$GPGGA,080228.00,3519.9122,N,12137.7891,W,1,09,0.8,3.8,M,-32.1,M,,*5E
$PYRTM,2024,124.335075871100,15.444723281238
$GPGGA,080229.00,3519.9126,N,12137.7897,W,1,09,0.8,3.8,M,-32.1,M,,*5D
$PYRTM,2024,124.335084565035,15.444731975174
$GPGGA,080230.00,3519.9131,N,12137.7898,W,1,09,0.8,4.0,M,-32.1,M,,*53
$PYRTM,2024,124.335091975116,15.444739385255
$GPGGA,080231.00,3519.9142,N,12137.7897,W,1,09,0.8,3.7,M,-32.1,M,,*59
$PYRTM,2024,124.335103648935,15.444751059074
$GPGGA,080232.00,3519.9151,N,12137.7897,W,1,09,0.8,3.5,M,-32.1,M,,*5A
$PYRTM,2024,124.335119274190,15.444766684340
$GPGGA,080233.00,3519.9156,N,12137.7899,W,1,09,0.8,3.5,M,-32.1,M,,*52
$PYRTM,2024,124.335130861516,15.444778271655
$GPGGA,080234.00,3519.9160,N,12137.7902,W,1,09,0.8,3.7,M,-32.1,M,,*51
$PYRTM,2024,124.335138255625,15.444785665764
$GPGGA,080235.00,3519.9168,N,12137.7907,W,1,09,0.8,3.6,M,-32.1,M,,*5C
$PYRTM,2024,124.335154004537,15.444801414676
$GPGGA,080236.00,3519.9179,N,12137.7910,W,1,09,0.8,3.2,M,-32.1,M,,*5D
$PYRTM,2024,124.335165571516,15.444812981667
$GPGGA,080237.00,3519.9187,N,12137.7909,W,1,09,0.8,3.1,M,-32.1,M,,*56
$PYRTM,2024,124.335172977743,15.444820387882
$GPGGA,080238.00,3519.9193,N,12137.7907,W,1,09,0.8,3.8,M,-32.1,M,,*5B
$PYRTM,2024,124.335188719213,15.444836129352
$GPGGA,080239.00,3519.9198,N,12137.7908,W,1,09,0.8,4.5,M,-32.1,M,,*54
$PYRTM,2024,124.335200309387,15.444847719525
$GPGGA,080240.00,3519.9206,N,12137.7914,W,1,09,0.8,4.6,M,-32.1,M,,*50
$PYRTM,2024,124.335211868866,15.444859279005
$GPGGA,080241.00,3519.9214,N,12137.7920,W,1,09,0.8,4.0,M,-32.1,M,,*53
$PYRTM,2024,124.335223458461,15.444870868600
$GPGGA,080242.00,3519.9221,N,12137.7920,W,1,09,0.8,3.8,M,-32.1,M,,*59
$PYRTM,2024,124.335235015856,15.444882426007
$GPGGA,080243.00,3519.9230,N,12137.7917,W,1,09,0.8,3.9,M,-32.1,M,,*5D
$PYRTM,2024,124.335246596979,15.444894007130
$GPGGA,080244.00,3519.9237,N,12137.7918,W,1,09,0.8,4.1,M,-32.1,M,,*5D
$PYRTM,2024,124.335254010185,15.444901420324
$GPGGA,080245.00,3519.9242,N,12137.7923,W,1,09,0.8,4.5,M,-32.1,M,,*52
$PYRTM,2024,124.335269746088,15.444917156227
$GPGGA,080246.00,3519.9248,N,12137.7928,W,1,09,0.8,4.9,M,-32.1,M,,*5C
$PYRTM,2024,124.335281312222,15.444928722361
$GPGGA,080247.00,3519.9258,N,12137.7929,W,1,09,0.8,5.0,M,-32.1,M,,*55
$PYRTM,2024,124.335292899861,15.444940310000
$GPGGA,080248.00,3519.9269,N,12137.7930,W,1,09,0.8,4.7,M,-32.1,M,,*56
$PYRTM,2024,124.335304460671,15.444951870810
$GPGGA,080249.00,3519.9276,N,12137.7933,W,1,09,0.8,4.7,M,-32.1,M,,*5A
$PYRTM,2024,124.335316049005,15.444963459144
$GPGGA,080250.00,3519.9280,N,12137.7937,W,1,09,0.8,5.2,M,-32.1,M,,*5B
$PYRTM,2024,124.335327616042,15.444975026181
$GPGGA,080251.00,3519.9287,N,12137.7941,W,1,09,0.8,5.8,M,-32.1,M,,*56
$PYRTM,2024,124.335339209468,15.444986619606
$GPGGA,080252.00,3519.9297,N,12137.7943,W,1,09,0.8,5.9,M,-32.1,M,,*57
$PYRTM,2024,124.335350769410,15.444998179549
$GPGGA,080253.00,3519.9308,N,12137.7944,W,1,09,0.8,5.5,M,-32.1,M,,*5A
$PYRTM,2024,124.335362346632,15.445009756771
$GPGGA,080254.00,3519.9316,N,12137.7946,W,1,09,0.8,5.3,M,-32.1,M,,*56
$PYRTM,2024,124.335373917338,15.445021327477
$GPGGA,080255.00,3519.9323,N,12137.7949,W,1,09,0.8,5.5,M,-32.1,M,,*58
$PYRTM,2024,124.335385493437,15.445032903576
$GPGGA,080256.00,3519.9329,N,12137.7953,W,1,09,0.8,5.7,M,-32.1,M,,*58
$PYRTM,2024,124.335397065127,15.445044475266
$GPGGA,080257.00,3519.9336,N,12137.7958,W,1,09,0.8,5.8,M,-32.1,M,,*53
$PYRTM,2024,124.335408635266,15.445056045405
$GPGGA,080258.00,3519.9345,N,12137.7960,W,1,09,0.8,5.6,M,-32.1,M,,*5D
$PYRTM,2024,124.335416050127,15.445063460266
$GPGGA,080259.00,3519.9355,N,12137.7961,W,1,09,0.8,5.5,M,-32.1,M,,*5F
$PYRTM,2024,124.335434681470,15.445082091609
$GPGGA,080300.00,3519.9365,N,12137.7962,W,1,09,0.8,5.6,M,-32.1,M,,*51
$PYRTM,2024,124.335443464780,15.445090874919
$GPGGA,080301.00,3519.9374,N,12137.7966,W,1,09,0.8,5.7,M,-32.1,M,,*55
$PYRTM,2024,124.335455052963,15.445102463102
$GPGGA,080302.00,3519.9380,N,12137.7973,W,1,09,0.8,6.0,M,-32.1,M,,*5D
$PYRTM,2024,124.335466614236,15.445114024375
$GPGGA,080303.00,3519.9384,N,12137.7979,W,1,09,0.8,6.7,M,-32.1,M,,*55
$PYRTM,2024,124.335478200347,15.445125610486
$GPGGA,080304.00,3519.9393,N,12137.7979,W,1,09,0.8,7.3,M,-32.1,M,,*51
$PYRTM,2024,124.335489762627,15.445137172766
$GPGGA,080305.00,3519.9406,N,12137.7977,W,1,09,0.8,7.3,M,-32.1,M,,*55
$PYRTM,2024,124.335501349838,15.445148759977
$GPGGA,080306.00,3519.9417,N,12137.7979,W,1,09,0.8,6.6,M,-32.1,M,,*5C
$PYRTM,2024,124.335512911690,15.445160321829
$GPGGA,080307.00,3519.9422,N,12137.7988,W,1,09,0.8,6.5,M,-32.1,M,,*56
$PYRTM,2024,124.335520203079,15.445167613218
$GPGGA,080308.00,3519.9424,N,12137.7995,W,1,09,0.8,7.1,M,-32.1,M,,*56
$PYRTM,2024,124.335535950810,15.445183360949
$GPGGA,080309.00,3519.9431,N,12137.7998,W,1,09,0.8,7.8,M,-32.1,M,,*57
$PYRTM,2024,124.335547529560,15.445194939699
$GPGGA,080310.00,3519.9442,N,12137.7997,W,1,09,0.8,8.1,M,-32.1,M,,*52
$PYRTM,2024,124.335559104225,15.445206514375
$GPGGA,080311.00,3519.9454,N,12137.7997,W,1,09,0.8,7.8,M,-32.1,M,,*52
$PYRTM,2024,124.335570681701,15.445218091840
$GPGGA,080312.00,3519.9461,N,12137.8003,W,1,09,0.8,7.3,M,-32.1,M,,*57
$PYRTM,2024,124.335582253530,15.445229663669
$GPGGA,080313.00,3519.9464,N,12137.8013,W,1,09,0.8,7.3,M,-32.1,M,,*52
$PYRTM,2024,124.335593826296,15.445241236435
$GPGGA,080314.00,3519.9469,N,12137.8019,W,1,09,0.8,7.5,M,-32.1,M,,*54
$PYRTM,2024,124.335605401690,15.445252811829
$GPGGA,080315.00,3519.9479,N,12137.8020,W,1,09,0.8,7.8,M,-32.1,M,,*53
$PYRTM,2024,124.335616973183,15.445264383322
$GPGGA,080316.00,3519.9491,N,12137.8020,W,1,09,0.8,7.8,M,-32.1,M,,*56
$PYRTM,2024,124.335628549502,15.445275959641
$GPGGA,080317.00,3519.9499,N,12137.8023,W,1,09,0.8,8.2,M,-32.1,M,,*59
$PYRTM,2024,124.335640117581,15.445287527720
$GPGGA,080318.00,3519.9505,N,12137.8028,W,1,09,0.8,8.6,M,-32.1,M,,*5D
$PYRTM,2024,124.335651696563,15.445299106701
$GPGGA,080319.00,3519.9513,N,12137.8035,W,1,09,0.8,8.6,M,-32.1,M,,*57
$PYRTM,2024,124.335659091782,15.445306501921
$GPGGA,080320.00,3519.9523,N,12137.8040,W,1,09,0.8,8.0,M,-32.1,M,,*5A
$PYRTM,2024,124.335674844294,15.445322254433
$GPGGA,080321.00,3519.9532,N,12137.8043,W,1,09,0.8,7.8,M,-32.1,M,,*5F
$PYRTM,2024,124.335686422188,15.445333832326
$GPGGA,080322.00,3519.9539,N,12137.8044,W,1,09,0.8,8.3,M,-32.1,M,,*54
$PYRTM,2024,124.335693813021,15.445341223160
$GPGGA,080323.00,3519.9547,N,12137.8046,W,1,09,0.8,8.8,M,-32.1,M,,*55
$PYRTM,2024,124.335709581910,15.445356992049
$GPGGA,080324.00,3519.9557,N,12137.8049,W,1,09,0.8,9.0,M,-32.1,M,,*55
$PYRTM,2024,124.335721140914,15.445368551053
$GPGGA,080325.00,3519.9567,N,12137.8054,W,1,09,0.8,8.7,M,-32.1,M,,*5D
$PYRTM,2024,124.335732716296,15.445380126435
$GPGGA,080326.00,3519.9574,N,12137.8061,W,1,09,0.8,8.3,M,-32.1,M,,*5E
$PYRTM,2024,124.335744289190,15.445391699329
$GPGGA,080327.00,3519.9580,N,12137.8068,W,1,09,0.8,8.4,M,-32.1,M,,*5A
$PYRTM,2024,124.335755863981,15.445403274132
$GPGGA,080328.00,3519.9588,N,12137.8070,W,1,09,0.8,8.5,M,-32.1,M,,*55
$PYRTM,2024,124.335767437199,15.445414847338
$GPGGA,080329.00,3519.9599,N,12137.8070,W,1,09,0.8,8.8,M,-32.1,M,,*59
$PYRTM,2024,124.335774833530,15.445422243681
$GPGGA,080330.00,3519.9610,N,12137.8072,W,1,09,0.8,8.7,M,-32.1,M,,*5E
$PYRTM,2024,124.335793468183,15.445440878322
$GPGGA,080331.00,3519.9618,N,12137.8077,W,1,09,0.8,8.7,M,-32.1,M,,*52
$PYRTM,2024,124.335802156273,15.445449566412
$GPGGA,080332.00,3519.9625,N,12137.8085,W,1,09,0.8,8.8,M,-32.1,M,,*5D
$PYRTM,2024,124.335813731840,15.445461141979
$GPGGA,080333.00,3519.9633,N,12137.8090,W,1,09,0.8,8.8,M,-32.1,M,,*5F
$PYRTM,2024,124.335825311088,15.445472721227
$GPGGA,080334.00,3519.9642,N,12137.8090,W,1,09,0.8,9.0,M,-32.1,M,,*57
$PYRTM,2024,124.335832703588,15.445480113727
$GPGGA,080335.00,3519.9651,N,12137.8090,W,1,09,0.8,9.2,M,-32.1,M,,*56
$PYRTM,2024,124.335848457384,15.445495867523
$GPGGA,080336.00,3519.9661,N,12137.8095,W,1,09,0.8,9.0,M,-32.1,M,,*51
$PYRTM,2024,124.335860030799,15.445507440938
$GPGGA,080337.00,3519.9669,N,12137.8103,W,1,09,0.8,8.5,M,-32.1,M,,*52
$PYRTM,2024,124.335867427894,15.445514838032
$GPGGA,080338.00,3519.9678,N,12137.8108,W,1,09,0.8,8.5,M,-32.1,M,,*56
$PYRTM,2024,124.335883175220,15.445530585359
$GPGGA,080339.00,3519.9686,N,12137.8107,W,1,09,0.8,9.1,M,-32.1,M,,*5C
$PYRTM,2024,124.335894748495,15.445542158634
$GPGGA,080340.00,3519.9694,N,12137.8105,W,1,09,0.8,9.9,M,-32.1,M,,*5B
$PYRTM,2024,124.335906431308,15.445553841447
$GPGGA,080341.00,3519.9704,N,12137.8110,W,1,09,0.8,10.0,M,-32.1,M,,*67
$PYRTM,2024,124.335917901574,15.445565311713
$GPGGA,080342.00,3519.9714,N,12137.8120,W,1,09,0.8,9.2,M,-32.1,M,,*5C
$PYRTM,2024,124.335929475208,15.445576885347
$GPGGA,080343.00,3519.9722,N,12137.8127,W,1,09,0.8,8.7,M,-32.1,M,,*5B
$PYRTM,2024,124.335941044282,15.445588454421
$GPGGA,080344.00,3519.9729,N,12137.8127,W,1,09,0.8,9.0,M,-32.1,M,,*51
$PYRTM,2024,124.335952623380,15.445600033507
$GPGGA,080345.00,3519.9737,N,12137.8123,W,1,09,0.8,9.7,M,-32.1,M,,*5C
$PYRTM,2024,124.335964197928,15.445611608067
$GPGGA,080346.00,3519.9749,N,12137.8124,W,1,09,0.8,9.8,M,-32.1,M,,*5E
$PYRTM,2024,124.335971593241,15.445619003380
$GPGGA,080347.00,3519.9759,N,12137.8130,W,1,09,0.8,9.4,M,-32.1,M,,*57
$PYRTM,2024,124.335987347419,15.445634757546
$GPGGA,080348.00,3519.9766,N,12137.8138,W,1,09,0.8,9.1,M,-32.1,M,,*59
$PYRTM,2024,124.335998920208,15.445646330347
$GPGGA,080349.00,3519.9772,N,12137.8143,W,1,09,0.8,9.2,M,-32.1,M,,*52
$PYRTM,2024,124.336006315486,15.445653725625
$GPGGA,080350.00,3519.9780,N,12137.8142,W,1,09,0.8,9.2,M,-32.1,M,,*56
$PYRTM,2024,124.336022067882,15.445669478021
$GPGGA,080351.00,3519.9792,N,12137.8143,W,1,09,0.8,8.8,M,-32.1,M,,*5E
$PYRTM,2024,124.336033667373,15.445681077512
$GPGGA,080352.00,3519.9803,N,12137.8147,W,1,09,0.8,8.3,M,-32.1,M,,*55
$PYRTM,2024,124.336041043368,15.445688453507
$GPGGA,080353.00,3519.9810,N,12137.8153,W,1,09,0.8,8.5,M,-32.1,M,,*55
$PYRTM,2024,124.336056790567,15.445704200706
$GPGGA,080354.00,3519.9815,N,12137.8157,W,1,09,0.8,9.3,M,-32.1,M,,*54
$PYRTM,2024,124.336068364213,15.445715774352
$GPGGA,080355.00,3519.9823,N,12137.8159,W,1,09,0.8,9.8,M,-32.1,M,,*55
$PYRTM,2024,124.336079950127,15.445727360266
$GPGGA,080356.00,3519.9835,N,12137.8160,W,1,09,0.8,9.7,M,-32.1,M,,*54
$PYRTM,2024,124.336091509572,15.445738919699
$GPGGA,080357.00,3519.9845,N,12137.8163,W,1,09,0.8,9.0,M,-32.1,M,,*56
$PYRTM,2024,124.336103087604,15.445750497743
$GPGGA,080358.00,3519.9853,N,12137.8169,W,1,09,0.8,8.4,M,-32.1,M,,*51
$PYRTM,2024,124.336110488137,15.445757898275
$GPGGA,080359.00,3519.9858,N,12137.8174,W,1,09,0.8,8.6,M,-32.1,M,,*55
$PYRTM,2024,124.336126246586,15.445773656725
$GPGGA,080400.00,3519.9865,N,12137.8176,W,1,09,0.8,9.3,M,-32.1,M,,*56
$PYRTM,2024,124.336133641771,15.445781051910
$GPGGA,080401.00,3519.9875,N,12137.8175,W,1,09,0.8,9.8,M,-32.1,M,,*5E
$PYRTM,2024,124.336152277118,15.445799687257
$GPGGA,080402.00,3519.9886,N,12137.8176,W,1,09,0.8,9.4,M,-32.1,M,,*5E
$PYRTM,2024,124.336160957176,15.445808367315
$GPGGA,080403.00,3519.9895,N,12137.8180,W,1,09,0.8,9.1,M,-32.1,M,,*51
$PYRTM,2024,124.336172539178,15.445819949317
$GPGGA,080404.00,3519.9901,N,12137.8184,W,1,09,0.8,9.2,M,-32.1,M,,*5D
$PYRTM,2024,124.336184105417,15.445831515567
$GPGGA,080405.00,3519.9909,N,12137.8188,W,1,09,0.8,9.0,M,-32.1,M,,*5A
$PYRTM,2024,124.336195680752,15.445843090891
$GPGGA,080406.00,3519.9919,N,12137.8191,W,1,09,0.8,8.6,M,-32.1,M,,*57
$PYRTM,2024,124.336207254016,15.445854664155
$GPGGA,080407.00,3519.9927,N,12137.8190,W,1,09,0.8,8.9,M,-32.1,M,,*55
$PYRTM,2024,124.336218842025,15.445866252164
$GPGGA,080408.00,3519.9934,N,12137.8190,W,1,09,0.8,9.6,M,-32.1,M,,*56
$PYRTM,2024,124.336230402106,15.445877812245
$GPGGA,080409.00,3519.9943,N,12137.8192,W,1,09,0.8,9.8,M,-32.1,M,,*5B
$PYRTM,2024,124.336241976250,15.445889386389
$GPGGA,080410.00,3519.9955,N,12137.8197,W,1,09,0.8,9.2,M,-32.1,M,,*5B
$PYRTM,2024,124.336253550961,15.445900961100
$GPGGA,080411.00,3519.9963,N,12137.8202,W,1,09,0.8,8.8,M,-32.1,M,,*5B
$PYRTM,2024,124.336265135613,15.445912545752
$GPGGA,080412.00,3519.9968,N,12137.8205,W,1,09,0.8,8.9,M,-32.1,M,,*55
$PYRTM,2024,124.336276698900,15.445924109039
$GPGGA,080413.00,3519.9975,N,12137.8206,W,1,09,0.8,8.9,M,-32.1,M,,*5B
$PYRTM,2024,124.336284095868,15.445931506007
$GPGGA,080414.00,3519.9986,N,12137.8208,W,1,09,0.8,8.8,M,-32.1,M,,*5F
$PYRTM,2024,124.336299847465,15.445947257604
$GPGGA,080415.00,3519.9996,N,12137.8210,W,1,09,0.8,8.4,M,-32.1,M,,*5A
$PYRTM,2024,124.336311421181,15.445958831331
$GPGGA,080416.00,3520.0002,N,12137.8212,W,1,09,0.8,8.5,M,-32.1,M,,*5D
$PYRTM,2024,124.336318822766,15.445966232905
$GPGGA,080417.00,3520.0010,N,12137.8215,W,1,09,0.8,8.7,M,-32.1,M,,*5A
$PYRTM,2024,124.336334595255,15.445982005394
$GPGGA,080418.00,3520.0020,N,12137.8219,W,1,09,0.8,8.2,M,-32.1,M,,*5F
$PYRTM,2024,124.336346143623,15.445993553762
$GPGGA,080419.00,3520.0027,N,12137.8221,W,1,09,0.8,7.9,M,-32.1,M,,*56
$PYRTM,2024,124.336353538912,15.446000949051
$GPGGA,080420.00,3520.0033,N,12137.8220,W,1,09,0.8,7.8,M,-32.1,M,,*59
$PYRTM,2024,124.336369292292,15.446016702431
$GPGGA,080421.00,3520.0042,N,12137.8222,W,1,09,0.8,7.6,M,-32.1,M,,*52
$PYRTM,2024,124.336380865706,15.446028275845
$GPGGA,080422.00,3520.0053,N,12137.8224,W,1,09,0.8,7.2,M,-32.1,M,,*53
$PYRTM,2024,124.336392439988,15.446039850127
$GPGGA,080423.00,3520.0061,N,12137.8227,W,1,09,0.8,6.7,M,-32.1,M,,*54
$PYRTM,2024,124.336399835081,15.446047245220
$GPGGA,080424.00,3520.0067,N,12137.8230,W,1,09,0.8,6.7,M,-32.1,M,,*53
$PYRTM,2024,124.336415588530,15.446062998669
$GPGGA,080425.00,3520.0075,N,12137.8232,W,1,09,0.8,6.8,M,-32.1,M,,*5C
$PYRTM,2024,124.336427173796,15.446074583935
$GPGGA,080426.00,3520.0084,N,12137.8233,W,1,09,0.8,7.1,M,-32.1,M,,*58
$PYRTM,2024,124.336434573738,15.446081983877
$GPGGA,080427.00,3520.0091,N,12137.8234,W,1,09,0.8,7.7,M,-32.1,M,,*5C
$PYRTM,2024,124.336450321331,15.446097731470
$GPGGA,080428.00,3520.0098,N,12137.8235,W,1,09,0.8,8.3,M,-32.1,M,,*50
$PYRTM,2024,124.336461885590,15.446109295741
$GPGGA,080429.00,3520.0107,N,12137.8239,W,1,09,0.8,8.1,M,-32.1,M,,*58
$PYRTM,2024,124.336473467257,15.446120877396
$GPGGA,080430.00,3520.0116,N,12137.8243,W,1,09,0.8,7.5,M,-32.1,M,,*56
$PYRTM,2024,124.336485033704,15.446132443843
$GPGGA,080431.00,3520.0123,N,12137.8246,W,1,09,0.8,7.4,M,-32.1,M,,*55
$PYRTM,2024,124.336492428958,15.446139839097
$GPGGA,080432.00,3520.0129,N,12137.8248,W,1,09,0.8,7.9,M,-32.1,M,,*5F
$PYRTM,2024,124.336511074144,15.446158484282
$GPGGA,080433.00,3520.0138,N,12137.8248,W,1,09,0.8,8.1,M,-32.1,M,,*59
$PYRTM,2024,124.336519778958,15.446167189097
$GPGGA,080434.00,3520.0148,N,12137.8249,W,1,09,0.8,8.2,M,-32.1,M,,*5B
$PYRTM,2024,124.336531329792,15.446178739931
$GPGGA,080435.00,3520.0156,N,12137.8251,W,1,09,0.8,8.4,M,-32.1,M,,*5A
$PYRTM,2024,124.336542903218,15.446190313356
$GPGGA,080436.00,3520.0163,N,12137.8255,W,1,09,0.8,8.6,M,-32.1,M,,*59
$PYRTM,2024,124.336554472789,15.446201882928
$GPGGA,080437.00,3520.0169,N,12137.8261,W,1,09,0.8,8.5,M,-32.1,M,,*56
$PYRTM,2024,124.336566051354,15.446213461493
$GPGGA,080438.00,3520.0179,N,12137.8264,W,1,09,0.8,8.0,M,-32.1,M,,*58
$PYRTM,2024,124.336577626736,15.446225036875
$GPGGA,080439.00,3520.0189,N,12137.8266,W,1,09,0.8,7.7,M,-32.1,M,,*5C
$PYRTM,2024,124.336585022650,15.446232432789
$GPGGA,080440.00,3520.0196,N,12137.8265,W,1,09,0.8,8.0,M,-32.1,M,,*57
$PYRTM,2024,124.336600774329,15.446248184468
$GPGGA,080441.00,3520.0203,N,12137.8263,W,1,09,0.8,8.6,M,-32.1,M,,*59
$PYRTM,2024,124.336612348241,15.446259758380
$GPGGA,080442.00,3520.0213,N,12137.8267,W,1,09,0.8,8.7,M,-32.1,M,,*5E
$PYRTM,2024,124.336623922257,15.446271332396
$GPGGA,080443.00,3520.0223,N,12137.8274,W,1,09,0.8,8.1,M,-32.1,M,,*58
$PYRTM,2024,124.336635509618,15.446282919757
$GPGGA,080444.00,3520.0230,N,12137.8280,W,1,09,0.8,7.9,M,-32.1,M,,*51
$PYRTM,2024,124.336647071389,15.446294481528
$GPGGA,080445.00,3520.0238,N,12137.8280,W,1,09,0.8,8.3,M,-32.1,M,,*5D
$PYRTM,2024,124.336654466632,15.446301876759
$GPGGA,080446.00,3520.0247,N,12137.8277,W,1,09,0.8,8.7,M,-32.1,M,,*5A
$PYRTM,2024,124.336670219815,15.446317629954
$GPGGA,080447.00,3520.0258,N,12137.8276,W,1,09,0.8,8.8,M,-32.1,M,,*5B
$PYRTM,2024,124.336681819109,15.446329229248
$GPGGA,080448.00,3520.0267,N,12137.8281,W,1,09,0.8,8.5,M,-32.1,M,,*5D
$PYRTM,2024,124.336689200984,15.446336611123
$GPGGA,080449.00,3520.0275,N,12137.8287,W,1,09,0.8,8.2,M,-32.1,M,,*5E
$PYRTM,2024,124.336704950104,15.446352360243
$GPGGA,080450.00,3520.0284,N,12137.8291,W,1,09,0.8,8.1,M,-32.1,M,,*5C
$PYRTM,2024,124.336716511551,15.446363921690
$GPGGA,080451.00,3520.0292,N,12137.8292,W,1,09,0.8,8.2,M,-32.1,M,,*5A
$PYRTM,2024,124.336728077454,15.446375487593
$GPGGA,080452.00,3520.0302,N,12137.8292,W,1,09,0.8,8.3,M,-32.1,M,,*50
$PYRTM,2024,124.336739669005,15.446387079155
$GPGGA,080453.00,3520.0312,N,12137.8295,W,1,09,0.8,8.4,M,-32.1,M,,*50
$PYRTM,2024,124.336751226192,15.446398636331
$GPGGA,080454.00,3520.0321,N,12137.8298,W,1,09,0.8,8.6,M,-32.1,M,,*58
$PYRTM,2024,124.336762816285,15.446410226424
$GPGGA,080455.00,3520.0330,N,12137.8302,W,1,09,0.8,8.6,M,-32.1,M,,*5B
$PYRTM,2024,124.336774373275,15.446421783414
$GPGGA,080456.00,3520.0339,N,12137.8306,W,1,09,0.8,8.4,M,-32.1,M,,*57
$PYRTM,2024,124.336785956204,15.446433366354
$GPGGA,080457.00,3520.0348,N,12137.8309,W,1,09,0.8,8.1,M,-32.1,M,,*5A
$PYRTM,2024,124.336797523171,15.446444933310
$GPGGA,080458.00,3520.0357,N,12137.8312,W,1,09,0.8,8.1,M,-32.1,M,,*51
$PYRTM,2024,124.336809108426,15.446456518565
$GPGGA,080459.00,3520.0367,N,12137.8313,W,1,09,0.8,8.4,M,-32.1,M,,*57
$PYRTM,2024,124.336816520035,15.446463930174
$GPGGA,080500.00,3520.0376,N,12137.8314,W,1,09,0.8,8.8,M,-32.1,M,,*51
$PYRTM,2024,124.336832257269,15.446479667407
$GPGGA,080501.00,3520.0386,N,12137.8316,W,1,09,0.8,8.8,M,-32.1,M,,*5D
$PYRTM,2024,124.336843817859,15.446491227998
$GPGGA,080502.00,3520.0396,N,12137.8322,W,1,09,0.8,8.5,M,-32.1,M,,*55
$PYRTM,2024,124.336851226458,15.446498636597
$GPGGA,080503.00,3520.0404,N,12137.8329,W,1,09,0.8,8.2,M,-32.1,M,,*54
$PYRTM,2024,124.336869897743,15.446517307882
$GPGGA,080504.00,3520.0411,N,12137.8330,W,1,09,0.8,8.6,M,-32.1,M,,*5B
$PYRTM,2024,124.336878555764,15.446525965903
$GPGGA,080505.00,3520.0420,N,12137.8327,W,1,09,0.8,9.1,M,-32.1,M,,*58
$PYRTM,2024,124.336890116690,15.446537526829
$GPGGA,080506.00,3520.0433,N,12137.8326,W,1,09,0.8,8.7,M,-32.1,M,,*5F
$PYRTM,2024,124.336901717014,15.446549127153
$GPGGA,080507.00,3520.0445,N,12137.8332,W,1,09,0.8,7.9,M,-32.1,M,,*5B
$PYRTM,2024,124.336913391794,15.446560801944
$GPGGA,080508.00,3520.0451,N,12137.8339,W,1,09,0.8,7.8,M,-32.1,M,,*5B
$PYRTM,2024,124.336924966157,15.446572376296
$GPGGA,080509.00,3520.0456,N,12137.8341,W,1,09,0.8,8.6,M,-32.1,M,,*53
$PYRTM,2024,124.336936539780,15.446583949931
$GPGGA,080510.00,3520.0464,N,12137.8338,W,1,09,0.8,9.1,M,-32.1,M,,*52
$PYRTM,2024,124.336948114167,15.446595524306
$GPGGA,080511.00,3520.0477,N,12137.8338,W,1,09,0.8,8.6,M,-32.1,M,,*57
$PYRTM,2024,124.336959699236,15.446607109387
$GPGGA,080512.00,3520.0487,N,12137.8343,W,1,09,0.8,8.0,M,-32.1,M,,*51
$PYRTM,2024,124.336966968264,15.446614378403
$GPGGA,080513.00,3520.0494,N,12137.8347,W,1,09,0.8,8.0,M,-32.1,M,,*56
$PYRTM,2024,124.336982707778,15.446630117917
$GPGGA,080514.00,3520.0501,N,12137.8346,W,1,09,0.8,8.7,M,-32.1,M,,*5A
$PYRTM,2024,124.336994297963,15.446641708102
$GPGGA,080515.00,3520.0511,N,12137.8345,W,1,09,0.8,8.9,M,-32.1,M,,*57
$PYRTM,2024,124.337005855613,15.446653265752
$GPGGA,080516.00,3520.0522,N,12137.8348,W,1,09,0.8,8.5,M,-32.1,M,,*55
$PYRTM,2024,124.337017443808,15.446664853958
$GPGGA,080517.00,3520.0531,N,12137.8353,W,1,09,0.8,8.2,M,-32.1,M,,*5B
$PYRTM,2024,124.337029003912,15.446676414063
$GPGGA,080518.00,3520.0538,N,12137.8354,W,1,09,0.8,8.5,M,-32.1,M,,*5D
$PYRTM,2024,124.337040592431,15.446688002569
$GPGGA,080519.00,3520.0547,N,12137.8352,W,1,09,0.8,8.9,M,-32.1,M,,*5E
$PYRTM,2024,124.337052153148,15.446699563287
$GPGGA,080520.00,3520.0557,N,12137.8353,W,1,09,0.8,8.7,M,-32.1,M,,*5A
$PYRTM,2024,124.337063743843,15.446711153981
$GPGGA,080521.00,3520.0568,N,12137.8357,W,1,09,0.8,8.1,M,-32.1,M,,*55
$PYRTM,2024,124.337075302465,15.446722712604
$GPGGA,080522.00,3520.0575,N,12137.8363,W,1,09,0.8,7.9,M,-32.1,M,,*5A
$PYRTM,2024,124.337086892234,15.446734302373
$GPGGA,080523.00,3520.0581,N,12137.8364,W,1,09,0.8,8.3,M,-32.1,M,,*52
$PYRTM,2024,124.337098449201,15.446745859340
$GPGGA,080524.00,3520.0591,N,12137.8361,W,1,09,0.8,8.7,M,-32.1,M,,*55
$PYRTM,2024,124.337110031354,15.446757441493
$GPGGA,080525.00,3520.0603,N,12137.8359,W,1,09,0.8,8.5,M,-32.1,M,,*55
$PYRTM,2024,124.337121598322,15.446769008461
$GPGGA,080526.00,3520.0612,N,12137.8363,W,1,09,0.8,8.1,M,-32.1,M,,*5B
$PYRTM,2024,124.337133184850,15.446780594988
$GPGGA,080527.00,3520.0616,N,12137.8371,W,1,09,0.8,8.0,M,-32.1,M,,*5C
$PYRTM,2024,124.337140595104,15.446788005243
$GPGGA,080528.00,3520.0623,N,12137.8378,W,1,09,0.8,7.9,M,-32.1,M,,*5A
$PYRTM,2024,124.337156328738,15.446803738877
$GPGGA,080529.00,3520.0634,N,12137.8377,W,1,09,0.8,7.9,M,-32.1,M,,*52
$PYRTM,2024,124.337167893032,15.446815303171
$GPGGA,080530.00,3520.0645,N,12137.8372,W,1,09,0.8,8.2,M,-32.1,M,,*5D
$PYRTM,2024,124.337175300451,15.446822710590
$GPGGA,080531.00,3520.0653,N,12137.8369,W,1,09,0.8,8.9,M,-32.1,M,,*5A
$PYRTM,2024,124.337191044259,15.446838454398
$GPGGA,080532.00,3520.0661,N,12137.8371,W,1,09,0.8,9.5,M,-32.1,M,,*5C
$PYRTM,2024,124.337202629213,15.446850039352
$GPGGA,080533.00,3520.0670,N,12137.8378,W,1,09,0.8,9.1,M,-32.1,M,,*50
$PYRTM,2024,124.337210025891,15.446857436042
$GPGGA,080534.00,3520.0679,N,12137.8386,W,1,09,0.8,8.2,M,-32.1,M,,*5D
$PYRTM,2024,124.337228671933,15.446876082072
$GPGGA,080535.00,3520.0686,N,12137.8387,W,1,09,0.8,8.0,M,-32.1,M,,*5F
$PYRTM,2024,124.337237339213,15.446884749363
$GPGGA,080536.00,3520.0694,N,12137.8381,W,1,09,0.8,8.6,M,-32.1,M,,*5F
$PYRTM,2024,124.337244747072,15.446892157222
$GPGGA,080537.00,3520.0705,N,12137.8375,W,1,09,0.8,9.1,M,-32.1,M,,*5A
$PYRTM,2024,124.337260487685,15.446907897824
$GPGGA,080538.00,3520.0715,N,12137.8376,W,1,09,0.8,9.3,M,-32.1,M,,*55
$PYRTM,2024,124.337272086563,15.446919496701
$GPGGA,080539.00,3520.0722,N,12137.8385,W,1,09,0.8,9.0,M,-32.1,M,,*5F
$PYRTM,2024,124.337283634687,15.446931044815
$GPGGA,080540.00,3520.0728,N,12137.8394,W,1,09,0.8,8.6,M,-32.1,M,,*5C
$PYRTM,2024,124.337289885648,15.446937295787
$GPGGA,080541.00,3520.0736,N,12137.8395,W,1,09,0.8,8.4,M,-32.1,M,,*51
$PYRTM,2024,124.337306784352,15.446954194491
$GPGGA,080542.00,3520.0746,N,12137.8389,W,1,09,0.8,8.6,M,-32.1,M,,*5A
$PYRTM,2024,124.337318371806,15.446965781944
$GPGGA,080543.00,3520.0756,N,12137.8384,W,1,09,0.8,9.0,M,-32.1,M,,*50
$PYRTM,2024,124.337329930961,15.446977341100
$GPGGA,080544.00,3520.0764,N,12137.8386,W,1,09,0.8,9.2,M,-32.1,M,,*56
$PYRTM,2024,124.337341514734,15.446988924873
$GPGGA,080545.00,3520.0771,N,12137.8396,W,1,09,0.8,8.8,M,-32.1,M,,*59
$PYRTM,2024,124.337353080150,15.447000490289
$GPGGA,080546.00,3520.0780,N,12137.8404,W,1,09,0.8,8.2,M,-32.1,M,,*52
$PYRTM,2024,124.337360487789,15.447007897928
$GPGGA,080547.00,3520.0789,N,12137.8402,W,1,09,0.8,8.3,M,-32.1,M,,*5D
$PYRTM,2024,124.337376230544,15.447023640683
$GPGGA,080548.00,3520.0798,N,12137.8396,W,1,09,0.8,9.0,M,-32.1,M,,*5A
$PYRTM,2024,124.337387830255,15.447035240394
$GPGGA,080549.00,3520.0808,N,12137.8394,W,1,09,0.8,9.6,M,-32.1,M,,*59
$PYRTM,2024,124.337399377500,15.447046787650
$GPGGA,080550.00,3520.0817,N,12137.8400,W,1,09,0.8,9.4,M,-32.1,M,,*57
$PYRTM,2024,124.337410966910,15.447058377049
$GPGGA,080551.00,3520.0827,N,12137.8407,W,1,09,0.8,8.7,M,-32.1,M,,*50
$PYRTM,2024,124.337422526262,15.447069936400
$GPGGA,080552.00,3520.0834,N,12137.8411,W,1,09,0.8,8.1,M,-32.1,M,,*50
$PYRTM,2024,124.337434113056,15.447081523194
$GPGGA,080553.00,3520.0841,N,12137.8409,W,1,09,0.8,8.5,M,-32.1,M,,*5E
$PYRTM,2024,124.337441521910,15.447088932060
$GPGGA,080554.00,3520.0849,N,12137.8403,W,1,09,0.8,9.3,M,-32.1,M,,*5C
$PYRTM,2024,124.337457259549,15.447104669687
$GPGGA,080555.00,3520.0860,N,12137.8402,W,1,09,0.8,9.5,M,-32.1,M,,*51
$PYRTM,2024,124.337468820521,15.447116230660
$GPGGA,080556.00,3520.0870,N,12137.8409,W,1,09,0.8,9.1,M,-32.1,M,,*5C
$PYRTM,2024,124.337476228715,15.447123638854
$GPGGA,080557.00,3520.0876,N,12137.8418,W,1,09,0.8,8.7,M,-32.1,M,,*5C
$PYRTM,2024,124.337491969410,15.447139379549
$GPGGA,080558.00,3520.0882,N,12137.8420,W,1,09,0.8,8.6,M,-32.1,M,,*52
$PYRTM,2024,124.337503558623,15.447150968762
$GPGGA,080559.00,3520.0891,N,12137.8416,W,1,09,0.8,8.8,M,-32.1,M,,*5A
$PYRTM,2024,124.337515120289,15.447162530428
$GPGGA,080600.00,3520.0901,N,12137.8414,W,1,09,0.8,8.9,M,-32.1,M,,*5E
$PYRTM,2024,124.337526704595,15.447174114734
$GPGGA,080601.00,3520.0910,N,12137.8419,W,1,09,0.8,8.8,M,-32.1,M,,*53
$PYRTM,2024,124.337538265208,15.447185675347
$GPGGA,080602.00,3520.0917,N,12137.8426,W,1,09,0.8,8.7,M,-32.1,M,,*54
$PYRTM,2024,124.337545674363,15.447193084502
$GPGGA,080603.00,3520.0926,N,12137.8430,W,1,09,0.8,8.8,M,-32.1,M,,*5F
$PYRTM,2024,124.337557363530,15.447204773669
$GPGGA,080604.00,3520.0934,N,12137.8429,W,1,09,0.8,9.2,M,-32.1,M,,*58
$PYRTM,2024,124.337568951250,15.447216361389
$GPGGA,080605.00,3520.0944,N,12137.8430,W,1,09,0.8,9.5,M,-32.1,M,,*51
$PYRTM,2024,124.337587469595,15.447234879734
$GPGGA,080606.00,3520.0953,N,12137.8434,W,1,09,0.8,9.5,M,-32.1,M,,*50
$PYRTM,2024,124.337596153565,15.447243563704
$GPGGA,080607.00,3520.0962,N,12137.8440,W,1,09,0.8,9.4,M,-32.1,M,,*51
$PYRTM,2024,124.337607712118,15.447255122257
$GPGGA,080608.00,3520.0969,N,12137.8444,W,1,09,0.8,9.5,M,-32.1,M,,*50
$PYRTM,2024,124.337619293287,15.447266703426
$GPGGA,080609.00,3520.0977,N,12137.8445,W,1,09,0.8,9.7,M,-32.1,M,,*5D
$PYRTM,2024,124.337630859190,15.447278269329
$GPGGA,080610.00,3520.0988,N,12137.8446,W,1,09,0.8,9.3,M,-32.1,M,,*52
$PYRTM,2024,124.337642446412,15.447289856551
$GPGGA,080611.00,3520.0998,N,12137.8450,W,1,09,0.8,8.7,M,-32.1,M,,*50
$PYRTM,2024,124.337654007755,15.447301417894
$GPGGA,080612.00,3520.1006,N,12137.8455,W,1,09,0.8,8.5,M,-32.1,M,,*5B
$PYRTM,2024,124.337665594803,15.447313004942
$GPGGA,080613.00,3520.1013,N,12137.8458,W,1,09,0.8,9.0,M,-32.1,M,,*57
$PYRTM,2024,124.337677155081,15.447324565220
$GPGGA,080614.00,3520.1021,N,12137.8460,W,1,09,0.8,9.4,M,-32.1,M,,*5E
$PYRTM,2024,124.337688742847,15.447336152986
$GPGGA,080615.00,3520.1030,N,12137.8464,W,1,09,0.8,9.5,M,-32.1,M,,*5A
$PYRTM,2024,124.337696137222,15.447343547361
$GPGGA,080616.00,3520.1039,N,12137.8468,W,1,09,0.8,9.3,M,-32.1,M,,*5A
$PYRTM,2024,124.337711894282,15.447359304421
$GPGGA,080617.00,3520.1048,N,12137.8471,W,1,09,0.8,8.8,M,-32.1,M,,*5F
$PYRTM,2024,124.337723453715,15.447370863854
$GPGGA,080618.00,3520.1059,N,12137.8474,W,1,09,0.8,8.1,M,-32.1,M,,*5C
$PYRTM,2024,124.337735042373,15.447382452512
$GPGGA,080619.00,3520.1066,N,12137.8479,W,1,09,0.8,7.9,M,-32.1,M,,*5B
$PYRTM,2024,124.337746599988,15.447394010127
$GPGGA,080620.00,3520.1071,N,12137.8482,W,1,09,0.8,8.1,M,-32.1,M,,*54
$PYRTM,2024,124.337758191609,15.447405601748
$GPGGA,080621.00,3520.1078,N,12137.8483,W,1,09,0.8,8.3,M,-32.1,M,,*5F
$PYRTM,2024,124.337769749525,15.447417159664
$GPGGA,080622.00,3520.1091,N,12137.8484,W,1,09,0.8,8.0,M,-32.1,M,,*5F
$PYRTM,2024,124.337781330718,15.447428740856
$GPGGA,080623.00,3520.1103,N,12137.8488,W,1,09,0.8,7.2,M,-32.1,M,,*55
$PYRTM,2024,124.337792898044,15.447440308183
$GPGGA,080624.00,3520.1109,N,12137.8495,W,1,09,0.8,6.6,M,-32.1,M,,*51
$PYRTM,2024,124.337804479919,15.447451890058
$GPGGA,080625.00,3520.1113,N,12137.8501,W,1,09,0.8,6.5,M,-32.1,M,,*54
$PYRTM,2024,124.337816044271,15.447463454410
$GPGGA,080626.00,3520.1119,N,12137.8501,W,1,09,0.8,6.6,M,-32.1,M,,*5E
$PYRTM,2024,124.337827631412,15.447475041551
$GPGGA,080627.00,3520.1130,N,12137.8499,W,1,09,0.8,6.6,M,-32.1,M,,*54
$PYRTM,2024,124.337839194525,15.447486604664
$GPGGA,080628.00,3520.1142,N,12137.8500,W,1,09,0.8,6.2,M,-32.1,M,,*5B
$PYRTM,2024,124.337850776539,15.447498186678
$GPGGA,080629.00,3520.1150,N,12137.8506,W,1,09,0.8,5.7,M,-32.1,M,,*59
$PYRTM,2024,124.337862341875,15.447509752014
$GPGGA,080630.00,3520.1154,N,12137.8515,W,1,09,0.8,5.9,M,-32.1,M,,*59
$PYRTM,2024,124.337873925116,15.447521335255
$GPGGA,080631.00,3520.1158,N,12137.8520,W,1,09,0.8,6.8,M,-32.1,M,,*50
$PYRTM,2024,124.337881325046,15.447528735185
$GPGGA,080632.00,3520.1167,N,12137.8518,W,1,09,0.8,7.5,M,-32.1,M,,*58
$PYRTM,2024,124.337897079618,15.447544489757
$GPGGA,080633.00,3520.1180,N,12137.8517,W,1,09,0.8,7.4,M,-32.1,M,,*5E
$PYRTM,2024,124.337908638391,15.447556048530
$GPGGA,080634.00,3520.1189,N,12137.8522,W,1,09,0.8,6.8,M,-32.1,M,,*5B
$PYRTM,2024,124.337920228102,15.447567638241
$GPGGA,080635.00,3520.1194,N,12137.8530,W,1,09,0.8,6.5,M,-32.1,M,,*58
$PYRTM,2024,124.337934692373,15.447582102512
$GPGGA,080636.00,3520.1201,N,12137.8536,W,1,09,0.8,6.5,M,-32.1,M,,*52
$PYRTM,2024,124.337949161053,15.447596571204
$GPGGA,080637.00,3520.1209,N,12137.8537,W,1,09,0.8,6.8,M,-32.1,M,,*57
$PYRTM,2024,124.337954935150,15.447602345289
$GPGGA,080638.00,3520.1219,N,12137.8539,W,1,09,0.8,7.1,M,-32.1,M,,*5F
$PYRTM,2024,124.337966521968,15.447613932106
$GPGGA,080639.00,3520.1227,N,12137.8544,W,1,09,0.8,7.2,M,-32.1,M,,*5A
$PYRTM,2024,124.337978082512,15.447625492650
$GPGGA,080640.00,3520.1235,N,12137.8549,W,1,09,0.8,7.2,M,-32.1,M,,*5A
$PYRTM,2024,124.337985490058,15.447632900197
$GPGGA,080641.00,3520.1242,N,12137.8552,W,1,09,0.8,7.4,M,-32.1,M,,*57
$PYRTM,2024,124.338001232523,15.447648642674
$GPGGA,080642.00,3520.1248,N,12137.8555,W,1,09,0.8,7.7,M,-32.1,M,,*5A
$PYRTM,2024,124.338012821944,15.447660232083
$GPGGA,080643.00,3520.1258,N,12137.8561,W,1,09,0.8,7.4,M,-32.1,M,,*5E
$PYRTM,2024,124.338024378958,15.447671789097
$GPGGA,080644.00,3520.1269,N,12137.8566,W,1,09,0.8,6.8,M,-32.1,M,,*51
$PYRTM,2024,124.338035965845,15.447683375984
$GPGGA,080645.00,3520.1276,N,12137.8568,W,1,09,0.8,6.7,M,-32.1,M,,*5F
$PYRTM,2024,124.338047527801,15.447694937940
$GPGGA,080646.00,3520.1280,N,12137.8568,W,1,09,0.8,6.8,M,-32.1,M,,*5A
$PYRTM,2024,124.338054935278,15.447702345417
$GPGGA,080647.00,3520.1287,N,12137.8571,W,1,09,0.8,7.0,M,-32.1,M,,*5D
$PYRTM,2024,124.338070675648,15.447718085787
$GPGGA,080648.00,3520.1297,N,12137.8578,W,1,09,0.8,6.6,M,-32.1,M,,*5D
$PYRTM,2024,124.338082276134,15.447729686273
$GPGGA,080649.00,3520.1308,N,12137.8584,W,1,09,0.8,5.7,M,-32.1,M,,*5A
$PYRTM,2024,124.338093823160,15.447741233299
$GPGGA,080650.00,3520.1313,N,12137.8585,W,1,09,0.8,5.4,M,-32.1,M,,*5A
$PYRTM,2024,124.338105410197,15.447752820336
$GPGGA,080651.00,3520.1316,N,12137.8585,W,1,09,0.8,5.6,M,-32.1,M,,*5C
$PYRTM,2024,124.338116972905,15.447764383044
$GPGGA,080652.00,3520.1324,N,12137.8587,W,1,09,0.8,5.8,M,-32.1,M,,*52
$PYRTM,2024,124.338128559317,15.447775969456
$GPGGA,080653.00,3520.1335,N,12137.8593,W,1,09,0.8,5.5,M,-32.1,M,,*5B
$PYRTM,2024,124.338135969792,15.447783379931
$GPGGA,080654.00,3520.1342,N,12137.8599,W,1,09,0.8,5.3,M,-32.1,M,,*50
$PYRTM,2024,124.338151707708,15.447799117847
$GPGGA,080655.00,3520.1347,N,12137.8602,W,1,09,0.8,5.3,M,-32.1,M,,*55
$PYRTM,2024,124.338163268229,15.447810678368
$GPGGA,080656.00,3520.1354,N,12137.8603,W,1,09,0.8,5.5,M,-32.1,M,,*53
$PYRTM,2024,124.338174856042,15.447822266181
$GPGGA,080657.00,3520.1362,N,12137.8603,W,1,09,0.8,5.8,M,-32.1,M,,*5A
$PYRTM,2024,124.338186418125,15.447833828264
$GPGGA,080658.00,3520.1369,N,12137.8605,W,1,09,0.8,6.2,M,-32.1,M,,*51
$PYRTM,2024,124.338198005243,15.447845415382
$GPGGA,080659.00,3520.1378,N,12137.8610,W,1,09,0.8,6.1,M,-32.1,M,,*57
$PYRTM,2024,124.338209566574,15.447856976713
$GPGGA,080700.00,3520.1387,N,12137.8616,W,1,09,0.8,5.4,M,-32.1,M,,*5A
$PYRTM,2024,124.338221155243,15.447868565382
$GPGGA,080701.00,3520.1394,N,12137.8619,W,1,09,0.8,5.1,M,-32.1,M,,*53
$PYRTM,2024,124.338232714965,15.447880125104
$GPGGA,080702.00,3520.1399,N,12137.8618,W,1,09,0.8,5.2,M,-32.1,M,,*5F
$PYRTM,2024,124.338244300463,15.447891710602
$GPGGA,080703.00,3520.1407,N,12137.8618,W,1,09,0.8,5.4,M,-32.1,M,,*58
$PYRTM,2024,124.338255863067,15.447903273218
$GPGGA,080704.00,3520.1417,N,12137.8620,W,1,09,0.8,5.5,M,-32.1,M,,*54
$PYRTM,2024,124.338267451701,15.447914861840
$GPGGA,080705.00,3520.1424,N,12137.8626,W,1,09,0.8,5.4,M,-32.1,M,,*52
$PYRTM,2024,124.338279010000,15.447926420139
$GPGGA,080706.00,3520.1429,N,12137.8631,W,1,09,0.8,5.5,M,-32.1,M,,*5B
$PYRTM,2024,124.338286418148,15.447933828287
$GPGGA,080707.00,3520.1436,N,12137.8632,W,1,09,0.8,5.6,M,-32.1,M,,*54
$PYRTM,2024,124.338305073044,15.447952483183
$GPGGA,080708.00,3520.1446,N,12137.8630,W,1,09,0.8,5.4,M,-32.1,M,,*5C
$PYRTM,2024,124.338313746354,15.447961156505
$GPGGA,080709.00,3520.1455,N,12137.8632,W,1,09,0.8,5.0,M,-32.1,M,,*59
$PYRTM,2024,124.338325307500,15.447972717639
$GPGGA,080710.00,3520.1461,N,12137.8638,W,1,09,0.8,5.4,M,-32.1,M,,*58
$PYRTM,2024,124.338336894282,15.447984304421
$GPGGA,080711.00,3520.1466,N,12137.8641,W,1,09,0.8,6.2,M,-32.1,M,,*55
$PYRTM,2024,124.338348454352,15.447995864491
$GPGGA,080712.00,3520.1475,N,12137.8641,W,1,09,0.8,6.7,M,-32.1,M,,*51
$PYRTM,2024,124.338360040775,15.448007450914
$GPGGA,080713.00,3520.1486,N,12137.8641,W,1,09,0.8,6.3,M,-32.1,M,,*58
$PYRTM,2024,124.338371603032,15.448019013171
$GPGGA,080714.00,3520.1494,N,12137.8644,W,1,09,0.8,5.8,M,-32.1,M,,*51
$PYRTM,2024,124.338383306956,15.448030717095
$GPGGA,080715.00,3520.1499,N,12137.8649,W,1,09,0.8,5.7,M,-32.1,M,,*5F
$PYRTM,2024,124.338394892153,15.448042302303
$GPGGA,080716.00,3520.1505,N,12137.8652,W,1,09,0.8,5.8,M,-32.1,M,,*5D
$PYRTM,2024,124.338406449236,15.448053859375
$GPGGA,080717.00,3520.1514,N,12137.8651,W,1,09,0.8,5.7,M,-32.1,M,,*50
$PYRTM,2024,124.338413733484,15.448061143623
$GPGGA,080718.00,3520.1526,N,12137.8649,W,1,09,0.8,5.0,M,-32.1,M,,*50
$PYRTM,2024,124.338429483356,15.448076893495
$GPGGA,080719.00,3520.1535,N,12137.8655,W,1,09,0.8,4.3,M,-32.1,M,,*5C
$PYRTM,2024,124.338441047662,15.448088457813
$GPGGA,080720.00,3520.1538,N,12137.8664,W,1,09,0.8,4.4,M,-32.1,M,,*5E
$PYRTM,2024,124.338452635741,15.448100045880
$GPGGA,080721.00,3520.1541,N,12137.8669,W,1,09,0.8,5.1,M,-32.1,M,,*58
$PYRTM,2024,124.338464198426,15.448111608565
$GPGGA,080722.00,3520.1550,N,12137.8667,W,1,09,0.8,5.8,M,-32.1,M,,*5C
$PYRTM,2024,124.338475778912,15.448123189051
$GPGGA,080723.00,3520.1562,N,12137.8663,W,1,09,0.8,5.9,M,-32.1,M,,*59
$PYRTM,2024,124.338487346377,15.448134756516
$GPGGA,080724.00,3520.1571,N,12137.8667,W,1,09,0.8,5.4,M,-32.1,M,,*55
$PYRTM,2024,124.338498932095,15.448146342234
$GPGGA,080725.00,3520.1577,N,12137.8675,W,1,09,0.8,5.1,M,-32.1,M,,*54
$PYRTM,2024,124.338510492801,15.448157902951
$GPGGA,080726.00,3520.1580,N,12137.8681,W,1,09,0.8,5.3,M,-32.1,M,,*56
$PYRTM,2024,124.338522080104,15.448169490243
$GPGGA,080727.00,3520.1586,N,12137.8681,W,1,09,0.8,5.5,M,-32.1,M,,*57
$PYRTM,2024,124.338533640116,15.448181050255
$GPGGA,080728.00,3520.1596,N,12137.8679,W,1,09,0.8,5.4,M,-32.1,M,,*5F
$PYRTM,2024,124.338545230868,15.448192641007
$GPGGA,080729.00,3520.1607,N,12137.8681,W,1,09,0.8,4.9,M,-32.1,M,,*5E
$PYRTM,2024,124.338552624687,15.448200034826
$GPGGA,080730.00,3520.1614,N,12137.8687,W,1,09,0.8,4.7,M,-32.1,M,,*5C
$PYRTM,2024,124.338568390243,15.448215800382
$GPGGA,080731.00,3520.1620,N,12137.8690,W,1,09,0.8,5.0,M,-32.1,M,,*5A
$PYRTM,2024,124.338579937431,15.448227347569
$GPGGA,080732.00,3520.1628,N,12137.8690,W,1,09,0.8,5.4,M,-32.1,M,,*55
$PYRTM,2024,124.338591521910,15.448238932049
$GPGGA,080733.00,3520.1637,N,12137.8692,W,1,09,0.8,5.5,M,-32.1,M,,*59
$PYRTM,2024,124.338603086852,15.448250497002
$GPGGA,080734.00,3520.1644,N,12137.8696,W,1,09,0.8,5.5,M,-32.1,M,,*5E
$PYRTM,2024,124.338614668009,15.448262078160
$GPGGA,080735.00,3520.1650,N,12137.8702,W,1,09,0.8,5.6,M,-32.1,M,,*55
$PYRTM,2024,124.338622082789,15.448269492928
$GPGGA,080736.00,3520.1659,N,12137.8703,W,1,09,0.8,5.7,M,-32.1,M,,*5F
$PYRTM,2024,124.338637820718,15.448285230856
$GPGGA,080737.00,3520.1671,N,12137.8702,W,1,09,0.8,5.6,M,-32.1,M,,*54
$PYRTM,2024,124.338645215532,15.448292625671
$GPGGA,080738.00,3520.1678,N,12137.8703,W,1,09,0.8,5.5,M,-32.1,M,,*50
$PYRTM,2024,124.338663862639,15.448311272778
$GPGGA,080739.00,3520.1680,N,12137.8709,W,1,09,0.8,5.7,M,-32.1,M,,*5E
$PYRTM,2024,124.338672529815,15.448319939954
$GPGGA,080740.00,3520.1686,N,12137.8715,W,1,09,0.8,5.5,M,-32.1,M,,*59
$PYRTM,2024,124.338684116852,15.448331526991
$GPGGA,080741.00,3520.1699,N,12137.8718,W,1,09,0.8,4.8,M,-32.1,M,,*57
$PYRTM,2024,124.338695679340,15.448343089479
$GPGGA,080742.00,3520.1709,N,12137.8717,W,1,09,0.8,4.4,M,-32.1,M,,*5F
$PYRTM,2024,124.338707269005,15.448354679155
$GPGGA,080743.00,3520.1715,N,12137.8716,W,1,09,0.8,4.6,M,-32.1,M,,*50
$PYRTM,2024,124.338718827500,15.448366237639
$GPGGA,080744.00,3520.1719,N,12137.8721,W,1,09,0.8,4.8,M,-32.1,M,,*51
$PYRTM,2024,124.338730427975,15.448377838113
$GPGGA,080745.00,3520.1726,N,12137.8727,W,1,09,0.8,4.9,M,-32.1,M,,*5B
$PYRTM,2024,124.338741974722,15.448389384873
$GPGGA,080746.00,3520.1737,N,12137.8729,W,1,09,0.8,4.7,M,-32.1,M,,*58
$PYRTM,2024,124.338753566296,15.448400976435
$GPGGA,080747.00,3520.1747,N,12137.8729,W,1,09,0.8,4.1,M,-32.1,M,,*58
$PYRTM,2024,124.338760956076,15.448408366215
$GPGGA,080748.00,3520.1755,N,12137.8732,W,1,09,0.8,3.6,M,-32.1,M,,*5E
$PYRTM,2024,124.338776714236,15.448424124375
$GPGGA,080749.00,3520.1759,N,12137.8735,W,1,09,0.8,3.7,M,-32.1,M,,*55
$PYRTM,2024,124.338788274155,15.448435684294
$GPGGA,080750.00,3520.1763,N,12137.8735,W,1,09,0.8,3.8,M,-32.1,M,,*5B
$PYRTM,2024,124.338799858854,15.448447268993
$GPGGA,080751.00,3520.1772,N,12137.8734,W,1,09,0.8,3.8,M,-32.1,M,,*5B
$PYRTM,2024,124.338811419803,15.448458829954
$GPGGA,080752.00,3520.1783,N,12137.8736,W,1,09,0.8,3.2,M,-32.1,M,,*5E
$PYRTM,2024,124.338823001875,15.448470412014
$GPGGA,080753.00,3520.1789,N,12137.8739,W,1,09,0.8,2.9,M,-32.1,M,,*50
$PYRTM,2024,124.338834567188,15.448481977326
$GPGGA,080754.00,3520.1793,N,12137.8742,W,1,09,0.8,3.0,M,-32.1,M,,*58
$PYRTM,2024,124.338846154745,15.448493564884
$GPGGA,080755.00,3520.1799,N,12137.8744,W,1,09,0.8,3.2,M,-32.1,M,,*57
$PYRTM,2024,124.338857717222,15.448505127361
$GPGGA,080756.00,3520.1807,N,12137.8746,W,1,09,0.8,3.0,M,-32.1,M,,*5C
$PYRTM,2024,124.338869307095,15.448516717234
$GPGGA,080757.00,3520.1815,N,12137.8747,W,1,09,0.8,3.2,M,-32.1,M,,*5D
$PYRTM,2024,124.338880865972,15.448528276111
$GPGGA,080758.00,3520.1822,N,12137.8747,W,1,09,0.8,4.0,M,-32.1,M,,*53
$PYRTM,2024,124.338892454826,15.448539864965
$GPGGA,080759.00,3520.1828,N,12137.8747,W,1,09,0.8,5.0,M,-32.1,M,,*59
$PYRTM,2024,124.338899847130,15.448547257269
$GPGGA,080800.00,3520.1836,N,12137.8748,W,1,09,0.8,5.4,M,-32.1,M,,*5E
$PYRTM,2024,124.338915599838,15.448563009988
$GPGGA,080801.00,3520.1845,N,12137.8754,W,1,09,0.8,4.9,M,-32.1,M,,*5A
$PYRTM,2024,124.338927160556,15.448574570694
$GPGGA,080802.00,3520.1853,N,12137.8761,W,1,09,0.8,4.0,M,-32.1,M,,*51
$PYRTM,2024,124.338938743507,15.448586153646
$GPGGA,080803.00,3520.1859,N,12137.8764,W,1,09,0.8,3.6,M,-32.1,M,,*5E
$PYRTM,2024,124.338950310671,15.448597720810
$GPGGA,080804.00,3520.1865,N,12137.8759,W,1,09,0.8,3.7,M,-32.1,M,,*59
$PYRTM,2024,124.338961897002,15.448609307141
$GPGGA,080805.00,3520.1874,N,12137.8753,W,1,09,0.8,3.9,M,-32.1,M,,*5C
$PYRTM,2024,124.338973458565,15.448620868704
$GPGGA,080806.00,3520.1884,N,12137.8755,W,1,09,0.8,3.8,M,-32.1,M,,*57
$PYRTM,2024,124.338985045243,15.448632455382
$GPGGA,080807.00,3520.1891,N,12137.8764,W,1,09,0.8,3.3,M,-32.1,M,,*5B
$PYRTM,2024,124.338996606123,15.448644016262
$GPGGA,080808.00,3520.1896,N,12137.8772,W,1,09,0.8,3.0,M,-32.1,M,,*57
$PYRTM,2024,124.339004011910,15.448651422049
$GPGGA,080809.00,3520.1902,N,12137.8771,W,1,09,0.8,3.1,M,-32.1,M,,*58
$PYRTM,2024,124.339022661806,15.448670071944
$GPGGA,080810.00,3520.1911,N,12137.8765,W,1,09,0.8,3.2,M,-32.1,M,,*54
$PYRTM,2024,124.339031344421,15.448678754560
$GPGGA,080811.00,3520.1921,N,12137.8764,W,1,09,0.8,3.3,M,-32.1,M,,*56
$PYRTM,2024,124.339042903021,15.448690313160
$GPGGA,080812.00,3520.1927,N,12137.8772,W,1,09,0.8,3.4,M,-32.1,M,,*53
$PYRTM,2024,124.339050309213,15.448697719352
$GPGGA,080813.00,3520.1931,N,12137.8782,W,1,09,0.8,3.5,M,-32.1,M,,*5B
$PYRTM,2024,124.339066050440,15.448713460579
$GPGGA,080814.00,3520.1940,N,12137.8785,W,1,09,0.8,3.6,M,-32.1,M,,*5E
$PYRTM,2024,124.339077651875,15.448725062025
$GPGGA,080815.00,3520.1949,N,12137.8781,W,1,09,0.8,3.9,M,-32.1,M,,*5D
$PYRTM,2024,124.339085031794,15.448732441921
$GPGGA,080816.00,3520.1958,N,12137.8779,W,1,09,0.8,4.1,M,-32.1,M,,*56
$PYRTM,2024,124.339096728692,15.448744138831
$GPGGA,080817.00,3520.1965,N,12137.8786,W,1,09,0.8,4.3,M,-32.1,M,,*5B
$PYRTM,2024,124.339112346505,15.448759756644
$GPGGA,080818.00,3520.1971,N,12137.8795,W,1,09,0.8,4.5,M,-32.1,M,,*55
$PYRTM,2024,124.339123930359,15.448771340498
$GPGGA,080819.00,3520.1978,N,12137.8800,W,1,09,0.8,4.7,M,-32.1,M,,*5C
$PYRTM,2024,124.339131329653,15.448778739792
$GPGGA,080820.00,3520.1987,N,12137.8799,W,1,09,0.8,4.8,M,-32.1,M,,*56
$PYRTM,2024,124.339147077986,15.448794488125
$GPGGA,080821.00,3520.1997,N,12137.8799,W,1,09,0.8,4.7,M,-32.1,M,,*59
$PYRTM,2024,124.339158645162,15.448806055301
$GPGGA,080822.00,3520.2004,N,12137.8801,W,1,09,0.8,4.7,M,-32.1,M,,*54
$PYRTM,2024,124.339166050660,15.448813460799
$GPGGA,080823.00,3520.2011,N,12137.8806,W,1,09,0.8,5.0,M,-32.1,M,,*50
$PYRTM,2024,124.339181792998,15.448829203137
$GPGGA,080824.00,3520.2020,N,12137.8812,W,1,09,0.8,5.0,M,-32.1,M,,*50
$PYRTM,2024,124.339193393009,15.448840803148
$GPGGA,080825.00,3520.2028,N,12137.8817,W,1,09,0.8,5.0,M,-32.1,M,,*5C
$PYRTM,2024,124.339200775081,15.448848185220
$GPGGA,080826.00,3520.2034,N,12137.8821,W,1,09,0.8,5.4,M,-32.1,M,,*53
$PYRTM,2024,124.339216530486,15.448863940625
$GPGGA,080827.00,3520.2042,N,12137.8822,W,1,09,0.8,5.6,M,-32.1,M,,*52
$PYRTM,2024,124.339228089352,15.448875499491
$GPGGA,080828.00,3520.2051,N,12137.8825,W,1,09,0.8,5.6,M,-32.1,M,,*58
$PYRTM,2024,124.339239677951,15.448887088090
$GPGGA,080829.00,3520.2059,N,12137.8829,W,1,09,0.8,5.6,M,-32.1,M,,*5D
$PYRTM,2024,124.339251236840,15.448898646979
$GPGGA,080830.00,3520.2065,N,12137.8834,W,1,09,0.8,5.7,M,-32.1,M,,*57
$PYRTM,2024,124.339262818947,15.448910229086
$GPGGA,080831.00,3520.2073,N,12137.8839,W,1,09,0.8,5.7,M,-32.1,M,,*5C
$PYRTM,2024,124.339270232824,15.448917642963
$GPGGA,080832.00,3520.2082,N,12137.8844,W,1,09,0.8,5.6,M,-32.1,M,,*5A
$PYRTM,2024,124.339285975243,15.448933385382
$GPGGA,080833.00,3520.2087,N,12137.8847,W,1,09,0.8,5.8,M,-32.1,M,,*53
$PYRTM,2024,124.339297536481,15.448944946632
$GPGGA,080834.00,3520.2094,N,12137.8848,W,1,09,0.8,5.8,M,-32.1,M,,*59
$PYRTM,2024,124.339304939282,15.448952349421
$GPGGA,080835.00,3520.2104,N,12137.8852,W,1,09,0.8,5.6,M,-32.1,M,,*55
$PYRTM,2024,124.339320681435,15.448968091574
$GPGGA,080836.00,3520.2114,N,12137.8858,W,1,09,0.8,5.1,M,-32.1,M,,*5A
$PYRTM,2024,124.339332267639,15.448979677766
$GPGGA,080837.00,3520.2120,N,12137.8862,W,1,09,0.8,5.0,M,-32.1,M,,*54
$PYRTM,2024,124.339339662407,15.448987072546
$GPGGA,080838.00,3520.2126,N,12137.8862,W,1,09,0.8,5.2,M,-32.1,M,,*5F
$PYRTM,2024,124.339355414039,15.449002824178
$GPGGA,080839.00,3520.2136,N,12137.8864,W,1,09,0.8,4.9,M,-32.1,M,,*53
$PYRTM,2024,124.339362812164,15.449010222303
