$PYRTM,2024,121.833336998495,12.942984408634
$GPGGA,195959.00,3253.0663,N,11748.7158,W,1,10,0.8,12.0,M,-34.6,M,,*64
$PYRTM,2024,121.833348580972,12.942995991111
$GPGGA,200000.00,3253.0673,N,11748.7184,W,1,10,0.8,11.4,M,-34.6,M,,*69
$PYRTM,2024,121.833355978681,12.943003388819
$GPGGA,200001.00,3253.0679,N,11748.7207,W,1,10,0.8,11.3,M,-34.6,M,,*6D
$PYRTM,2024,121.833371729734,12.943019139873
$GPGGA,200002.00,3253.0688,N,11748.7228,W,1,10,0.8,11.4,M,-34.6,M,,*6A
$PYRTM,2024,121.833383295301,12.943030705440
$GPGGA,200003.00,3253.0701,N,11748.7249,W,1,10,0.8,11.8,M,-34.6,M,,*60
$PYRTM,2024,121.833394869641,12.943042279792
$GPGGA,200004.00,3253.0714,N,11748.7270,W,1,10,0.8,12.1,M,-34.6,M,,*63
$PYRTM,2024,121.833406443079,12.943053853218
$GPGGA,200005.00,3253.0723,N,11748.7294,W,1,10,0.8,12.1,M,-34.6,M,,*6C
$PYRTM,2024,121.833418029537,12.943065439676
$GPGGA,200006.00,3253.0731,N,11748.7318,W,1,10,0.8,11.9,M,-34.6,M,,*62
$PYRTM,2024,121.833425436644,12.943072846782
$GPGGA,200007.00,3253.0741,N,11748.7341,W,1,10,0.8,11.6,M,-34.6,M,,*67
$PYRTM,2024,121.833437109398,12.943084519537
$GPGGA,200008.00,3253.0754,N,11748.7361,W,1,10,0.8,11.5,M,-34.6,M,,*6D
$PYRTM,2024,121.833452739884,12.943100150023
$GPGGA,200009.00,3253.0767,N,11748.7383,W,1,10,0.8,11.2,M,-34.6,M,,*67
$PYRTM,2024,121.833464325671,12.943111735810
$GPGGA,200010.00,3253.0777,N,11748.7406,W,1,10,0.8,11.1,M,-34.6,M,,*67
$PYRTM,2024,121.833475883218,12.943123293356
$GPGGA,200011.00,3253.0784,N,11748.7430,W,1,10,0.8,11.2,M,-34.6,M,,*6C
$PYRTM,2024,121.833487462975,12.943134873113
$GPGGA,200012.00,3253.0793,N,11748.7454,W,1,10,0.8,11.6,M,-34.6,M,,*6F
$PYRTM,2024,121.833494863900,12.943142274039
$GPGGA,200013.00,3253.0804,N,11748.7475,W,1,10,0.8,11.8,M,-34.6,M,,*62
$PYRTM,2024,121.833513506620,12.943160916771
$GPGGA,200014.00,3253.0818,N,11748.7497,W,1,10,0.8,11.8,M,-34.6,M,,*64
$PYRTM,2024,121.833522183935,12.943169594074
$GPGGA,200015.00,3253.0829,N,11748.7521,W,1,10,0.8,11.3,M,-34.6,M,,*60
$PYRTM,2024,121.833533766319,12.943181176458
$GPGGA,200016.00,3253.0837,N,11748.7545,W,1,10,0.8,11.0,M,-34.6,M,,*6D
$PYRTM,2024,121.833545334213,12.943192744352
$GPGGA,200017.00,3253.0845,N,11748.7568,W,1,10,0.8,11.2,M,-34.6,M,,*64
$PYRTM,2024,121.833552729491,12.943200139630
$GPGGA,200018.00,3253.0856,N,11748.7588,W,1,10,0.8,11.7,M,-34.6,M,,*62
$PYRTM,2024,121.833568482303,12.943215892442
$GPGGA,200019.00,3253.0870,N,11748.7610,W,1,10,0.8,11.8,M,-34.6,M,,*6A
$PYRTM,2024,121.833580055428,12.943227465567
$GPGGA,200020.00,3253.0882,N,11748.7636,W,1,10,0.8,11.2,M,-34.6,M,,*63
$PYRTM,2024,121.833591630012,12.943239040150
$GPGGA,200021.00,3253.0891,N,11748.7660,W,1,10,0.8,11.0,M,-34.6,M,,*61
$PYRTM,2024,121.833603203762,12.943250613900
$GPGGA,200022.00,3253.0899,N,11748.7680,W,1,10,0.8,11.5,M,-34.6,M,,*61
$PYRTM,2024,121.833614779873,12.943262190012
$GPGGA,200023.00,3253.0911,N,11748.7701,W,1,10,0.8,12.1,M,-34.6,M,,*6E
$PYRTM,2024,121.833626351736,12.943273761875
$GPGGA,200024.00,3253.0924,N,11748.7724,W,1,10,0.8,12.0,M,-34.6,M,,*69
$PYRTM,2024,121.833637926701,12.943285336840
$GPGGA,200025.00,3253.0936,N,11748.7748,W,1,10,0.8,11.5,M,-34.6,M,,*67
$PYRTM,2024,121.833649512303,12.943296922442
$GPGGA,200026.00,3253.0945,N,11748.7771,W,1,10,0.8,11.3,M,-34.6,M,,*6C
$PYRTM,2024,121.833661076678,12.943308486817
$GPGGA,200027.00,3253.0953,N,11748.7792,W,1,10,0.8,11.4,M,-34.6,M,,*60
$PYRTM,2024,121.833672657998,12.943320068137
$GPGGA,200028.00,3253.0964,N,11748.7813,W,1,10,0.8,11.8,M,-34.6,M,,*61
$PYRTM,2024,121.833680056146,12.943327466296
$GPGGA,200029.00,3253.0977,N,11748.7836,W,1,10,0.8,11.6,M,-34.6,M,,*6B
$PYRTM,2024,121.833695806030,12.943343216169
$GPGGA,200030.00,3253.0989,N,11748.7860,W,1,10,0.8,11.4,M,-34.6,M,,*63
$PYRTM,2024,121.833703204236,12.943350614375
$GPGGA,200031.00,3253.0998,N,11748.7882,W,1,10,0.8,11.5,M,-34.6,M,,*6F
$PYRTM,2024,121.833718954190,12.943366364329
$GPGGA,200032.00,3253.1007,N,11748.7906,W,1,10,0.8,11.6,M,-34.6,M,,*6C
$PYRTM,2024,121.833730514676,12.943377924815
$GPGGA,200033.00,3253.1017,N,11748.7930,W,1,10,0.8,11.5,M,-34.6,M,,*6A
$PYRTM,2024,121.833742105660,12.943389515810
$GPGGA,200034.00,3253.1029,N,11748.7952,W,1,10,0.8,11.5,M,-34.6,M,,*64
$PYRTM,2024,121.833753668461,12.943401078600
$GPGGA,200035.00,3253.1040,N,11748.7972,W,1,10,0.8,12.0,M,-34.6,M,,*6E
$PYRTM,2024,121.833761064016,12.943408474155
$GPGGA,200036.00,3253.1051,N,11748.7993,W,1,10,0.8,12.4,M,-34.6,M,,*66
$PYRTM,2024,121.833776812326,12.943424222465
$GPGGA,200037.00,3253.1060,N,11748.8018,W,1,10,0.8,12.3,M,-34.6,M,,*67
$PYRTM,2024,121.833788390729,12.943435800868
$GPGGA,200038.00,3253.1069,N,11748.8043,W,1,10,0.8,11.7,M,-34.6,M,,*68
$PYRTM,2024,121.833799967500,12.943447377639
$GPGGA,200039.00,3253.1080,N,11748.8065,W,1,10,0.8,11.4,M,-34.6,M,,*69
$PYRTM,2024,121.833811550394,12.943458960532
$GPGGA,200040.00,3253.1091,N,11748.8085,W,1,10,0.8,11.6,M,-34.6,M,,*6B
$PYRTM,2024,121.833823114583,12.943470524734
$GPGGA,200041.00,3253.1104,N,11748.8105,W,1,10,0.8,12.0,M,-34.6,M,,*6B
$PYRTM,2024,121.833830509688,12.943477919826
$GPGGA,200042.00,3253.1116,N,11748.8129,W,1,10,0.8,12.0,M,-34.6,M,,*65
$PYRTM,2024,121.833846264375,12.943493674525
$GPGGA,200043.00,3253.1124,N,11748.8155,W,1,10,0.8,11.8,M,-34.6,M,,*65
$PYRTM,2024,121.833853658102,12.943501068241
$GPGGA,200044.00,3253.1131,N,11748.8177,W,1,10,0.8,11.9,M,-34.6,M,,*67
$PYRTM,2024,121.833872304132,12.943519714271
$GPGGA,200045.00,3253.1142,N,11748.8199,W,1,10,0.8,12.1,M,-34.6,M,,*69
$PYRTM,2024,121.833883891609,12.943531301748
$GPGGA,200046.00,3253.1156,N,11748.8220,W,1,10,0.8,12.0,M,-34.6,M,,*6F
$PYRTM,2024,121.833895454456,12.943542864595
$GPGGA,200047.00,3253.1169,N,11748.8242,W,1,10,0.8,11.8,M,-34.6,M,,*6D
$PYRTM,2024,121.833904132431,12.943551542569
$GPGGA,200048.00,3253.1178,N,11748.8266,W,1,10,0.8,11.6,M,-34.6,M,,*6A
$PYRTM,2024,121.833915707361,12.943563117500
$GPGGA,200049.00,3253.1185,N,11748.8291,W,1,10,0.8,11.4,M,-34.6,M,,*63
$PYRTM,2024,121.833923101250,12.943570511389
$GPGGA,200050.00,3253.1194,N,11748.8313,W,1,10,0.8,11.7,M,-34.6,M,,*63
$PYRTM,2024,121.833938849803,12.943586259954
$GPGGA,200051.00,3253.1206,N,11748.8333,W,1,10,0.8,12.3,M,-34.6,M,,*6F
$PYRTM,2024,121.833950427708,12.943597837847
$GPGGA,200052.00,3253.1220,N,11748.8355,W,1,10,0.8,12.3,M,-34.6,M,,*68
$PYRTM,2024,121.833962003299,12.943609413437
$GPGGA,200053.00,3253.1231,N,11748.8382,W,1,10,0.8,11.6,M,-34.6,M,,*65
$PYRTM,2024,121.833973576296,12.943620986435
$GPGGA,200054.00,3253.1239,N,11748.8406,W,1,10,0.8,10.8,M,-34.6,M,,*6E
$PYRTM,2024,121.833985149248,12.943632559387
$GPGGA,200055.00,3253.1247,N,11748.8427,W,1,10,0.8,11.0,M,-34.6,M,,*6C
$PYRTM,2024,121.833996725347,12.943644135486
$GPGGA,200056.00,3253.1259,N,11748.8446,W,1,10,0.8,11.7,M,-34.6,M,,*60
$PYRTM,2024,121.834008300463,12.943655710602
$GPGGA,200057.00,3253.1272,N,11748.8469,W,1,10,0.8,11.8,M,-34.6,M,,*6A
$PYRTM,2024,121.834019881782,12.943667291921
$GPGGA,200058.00,3253.1283,N,11748.8494,W,1,10,0.8,11.5,M,-34.6,M,,*64
$PYRTM,2024,121.834031447049,12.943678857187
$GPGGA,200059.00,3253.1291,N,11748.8516,W,1,10,0.8,11.4,M,-34.6,M,,*6C
$PYRTM,2024,121.834043029132,12.943690439271
$GPGGA,200100.00,3253.1299,N,11748.8538,W,1,10,0.8,11.5,M,-34.6,M,,*64
$PYRTM,2024,121.834054597639,12.943702007778
$GPGGA,200101.00,3253.1310,N,11748.8560,W,1,10,0.8,11.5,M,-34.6,M,,*68
$PYRTM,2024,121.834061991458,12.943709401597
$GPGGA,200102.00,3253.1324,N,11748.8583,W,1,10,0.8,11.2,M,-34.6,M,,*66
$PYRTM,2024,121.834077743924,12.943725154062
$GPGGA,200103.00,3253.1337,N,11748.8606,W,1,10,0.8,10.7,M,-34.6,M,,*6F
$PYRTM,2024,121.834089328762,12.943736738900
$GPGGA,200104.00,3253.1344,N,11748.8628,W,1,10,0.8,11.1,M,-34.6,M,,*67
$PYRTM,2024,121.834100891354,12.943748301493
$GPGGA,200105.00,3253.1351,N,11748.8649,W,1,10,0.8,11.9,M,-34.6,M,,*6D
$PYRTM,2024,121.834112453125,12.943759863264
$GPGGA,200106.00,3253.1362,N,11748.8674,W,1,10,0.8,12.1,M,-34.6,M,,*6B
$PYRTM,2024,121.834119871238,12.943767281377
$GPGGA,200107.00,3253.1376,N,11748.8698,W,1,10,0.8,11.5,M,-34.6,M,,*6A
$PYRTM,2024,121.834135603044,12.943783013183
$GPGGA,200108.00,3253.1387,N,11748.8720,W,1,10,0.8,11.1,M,-34.6,M,,*6D
$PYRTM,2024,121.834147191470,12.943794601609
$GPGGA,200109.00,3253.1396,N,11748.8741,W,1,10,0.8,11.5,M,-34.6,M,,*6F
$PYRTM,2024,121.834158750185,12.943806160324
$GPGGA,200110.00,3253.1404,N,11748.8762,W,1,10,0.8,12.1,M,-34.6,M,,*6D
$PYRTM,2024,121.834170332488,12.943817742627
$GPGGA,200111.00,3253.1414,N,11748.8787,W,1,10,0.8,12.2,M,-34.6,M,,*65
$PYRTM,2024,121.834177740150,12.943825150289
$GPGGA,200112.00,3253.1427,N,11748.8812,W,1,10,0.8,11.7,M,-34.6,M,,*63
$PYRTM,2024,121.834193488727,12.943840898866
$GPGGA,200113.00,3253.1439,N,11748.8833,W,1,10,0.8,11.6,M,-34.6,M,,*6F
$PYRTM,2024,121.834205046632,12.943852456771
$GPGGA,200114.00,3253.1449,N,11748.8853,W,1,10,0.8,11.9,M,-34.6,M,,*66
$PYRTM,2024,121.834212455382,12.943859865521
$GPGGA,200115.00,3253.1459,N,11748.8876,W,1,10,0.8,12.0,M,-34.6,M,,*6B
$PYRTM,2024,121.834231117569,12.943878527720
$GPGGA,200116.00,3253.1469,N,11748.8900,W,1,10,0.8,12.0,M,-34.6,M,,*6B
$PYRTM,2024,121.834239782361,12.943887192500
$GPGGA,200117.00,3253.1479,N,11748.8922,W,1,10,0.8,12.0,M,-34.6,M,,*6B
$PYRTM,2024,121.834251343877,12.943898754028
$GPGGA,200118.00,3253.1489,N,11748.8943,W,1,10,0.8,12.2,M,-34.6,M,,*6E
$PYRTM,2024,121.834262933738,12.943910343877
$GPGGA,200119.00,3253.1501,N,11748.8965,W,1,10,0.8,12.2,M,-34.6,M,,*6A
$PYRTM,2024,121.834274493206,12.943921903345
$GPGGA,200120.00,3253.1512,N,11748.8989,W,1,10,0.8,11.9,M,-34.6,M,,*68
$PYRTM,2024,121.834286081505,12.943933491644
$GPGGA,200121.00,3253.1522,N,11748.9013,W,1,10,0.8,11.7,M,-34.6,M,,*6F
$PYRTM,2024,121.834293473981,12.943940884120
$GPGGA,200122.00,3253.1531,N,11748.9037,W,1,10,0.8,11.8,M,-34.6,M,,*67
$PYRTM,2024,121.834309229861,12.943956640000
$GPGGA,200123.00,3253.1541,N,11748.9059,W,1,10,0.8,12.2,M,-34.6,M,,*60
$PYRTM,2024,121.834320791030,12.943968201169
$GPGGA,200124.00,3253.1553,N,11748.9082,W,1,10,0.8,12.7,M,-34.6,M,,*67
$PYRTM,2024,121.834332375336,12.943979785475
$GPGGA,200125.00,3253.1565,N,11748.9103,W,1,10,0.8,13.1,M,-34.6,M,,*6C
$PYRTM,2024,121.834343936759,12.943991346898
$GPGGA,200126.00,3253.1576,N,11748.9126,W,1,10,0.8,13.1,M,-34.6,M,,*6A
$PYRTM,2024,121.834355518947,12.944002929086
$GPGGA,200127.00,3253.1586,N,11748.9151,W,1,10,0.8,12.4,M,-34.6,M,,*60
$PYRTM,2024,121.834367085012,12.944014495150
$GPGGA,200128.00,3253.1595,N,11748.9174,W,1,10,0.8,11.8,M,-34.6,M,,*65
$PYRTM,2024,121.834378671678,12.944026081817
$GPGGA,200129.00,3253.1606,N,11748.9195,W,1,10,0.8,11.7,M,-34.6,M,,*6D
$PYRTM,2024,121.834390234132,12.944037644271
$GPGGA,200130.00,3253.1617,N,11748.9215,W,1,10,0.8,12.1,M,-34.6,M,,*6B
$PYRTM,2024,121.834401820162,12.944049230301
$GPGGA,200131.00,3253.1629,N,11748.9237,W,1,10,0.8,12.4,M,-34.6,M,,*62
$PYRTM,2024,121.834409215556,12.944056625694
$GPGGA,200132.00,3253.1639,N,11748.9262,W,1,10,0.8,12.2,M,-34.6,M,,*66
$PYRTM,2024,121.834424967940,12.944072378079
$GPGGA,200133.00,3253.1648,N,11748.9288,W,1,10,0.8,11.6,M,-34.6,M,,*62
$PYRTM,2024,121.834432364757,12.944079774896
$GPGGA,200134.00,3253.1659,N,11748.9311,W,1,10,0.8,11.2,M,-34.6,M,,*60
$PYRTM,2024,121.834450894120,12.944098304259
$GPGGA,200135.00,3253.1670,N,11748.9330,W,1,10,0.8,11.6,M,-34.6,M,,*6D
$PYRTM,2024,121.834459678356,12.944107088495
$GPGGA,200136.00,3253.1682,N,11748.9350,W,1,10,0.8,12.4,M,-34.6,M,,*64
$PYRTM,2024,121.834471268519,12.944118678657
$GPGGA,200137.00,3253.1693,N,11748.9374,W,1,10,0.8,12.7,M,-34.6,M,,*60
$PYRTM,2024,121.834482826725,12.944130236863
$GPGGA,200138.00,3253.1703,N,11748.9399,W,1,10,0.8,12.3,M,-34.6,M,,*60
$PYRTM,2024,121.834494413831,12.944141823970
$GPGGA,200139.00,3253.1713,N,11748.9422,W,1,10,0.8,11.9,M,-34.6,M,,*6E
$PYRTM,2024,121.834505974479,12.944153384630
$GPGGA,200140.00,3253.1724,N,11748.9444,W,1,10,0.8,11.7,M,-34.6,M,,*6A
$PYRTM,2024,121.834517562512,12.944164972650
$GPGGA,200141.00,3253.1736,N,11748.9467,W,1,10,0.8,11.3,M,-34.6,M,,*6D
$PYRTM,2024,121.834524964120,12.944172374259
$GPGGA,200142.00,3253.1746,N,11748.9490,W,1,10,0.8,11.0,M,-34.6,M,,*62
$PYRTM,2024,121.834540710162,12.944188120301
$GPGGA,200143.00,3253.1757,N,11748.9511,W,1,10,0.8,11.5,M,-34.6,M,,*6E
$PYRTM,2024,121.834552271250,12.944199681389
$GPGGA,200144.00,3253.1768,N,11748.9533,W,1,10,0.8,12.0,M,-34.6,M,,*63
$PYRTM,2024,121.834559679549,12.944207089688
$GPGGA,200145.00,3253.1777,N,11748.9556,W,1,10,0.8,12.2,M,-34.6,M,,*6D
$PYRTM,2024,121.834571368009,12.944218778148
$GPGGA,200146.00,3253.1786,N,11748.9580,W,1,10,0.8,12.0,M,-34.6,M,,*69
$PYRTM,2024,121.834589784873,12.944237195012
$GPGGA,200147.00,3253.1797,N,11748.9603,W,1,10,0.8,11.6,M,-34.6,M,,*65
$PYRTM,2024,121.834598568877,12.944245979016
$GPGGA,200148.00,3253.1810,N,11748.9625,W,1,10,0.8,11.3,M,-34.6,M,,*6B
$PYRTM,2024,121.834610158981,12.944257569120
$GPGGA,200149.00,3253.1821,N,11748.9646,W,1,10,0.8,11.4,M,-34.6,M,,*6A
$PYRTM,2024,121.834617553437,12.944264963576
$GPGGA,200150.00,3253.1831,N,11748.9669,W,1,10,0.8,11.9,M,-34.6,M,,*63
$PYRTM,2024,121.834633306956,12.944280717095
$GPGGA,200151.00,3253.1841,N,11748.9692,W,1,10,0.8,12.2,M,-34.6,M,,*69
$PYRTM,2024,121.834644865093,12.944292275231
$GPGGA,200152.00,3253.1852,N,11748.9716,W,1,10,0.8,12.3,M,-34.6,M,,*64
$PYRTM,2024,121.834656447546,12.944303857685
$GPGGA,200153.00,3253.1864,N,11748.9739,W,1,10,0.8,12.1,M,-34.6,M,,*6F
$PYRTM,2024,121.834668013843,12.944315423981
$GPGGA,200154.00,3253.1876,N,11748.9761,W,1,10,0.8,11.8,M,-34.6,M,,*6C
$PYRTM,2024,121.834679595394,12.944327005532
$GPGGA,200155.00,3253.1886,N,11748.9785,W,1,10,0.8,11.5,M,-34.6,M,,*65
$PYRTM,2024,121.834691160706,12.944338570845
$GPGGA,200156.00,3253.1896,N,11748.9809,W,1,10,0.8,11.2,M,-34.6,M,,*6B
$PYRTM,2024,121.834702750324,12.944350160463
$GPGGA,200157.00,3253.1905,N,11748.9832,W,1,10,0.8,11.4,M,-34.6,M,,*6F
$PYRTM,2024,121.834714312211,12.944361722350
$GPGGA,200158.00,3253.1915,N,11748.9853,W,1,10,0.8,12.1,M,-34.6,M,,*60
$PYRTM,2024,121.834725891458,12.944373301597
$GPGGA,200159.00,3253.1927,N,11748.9875,W,1,10,0.8,12.3,M,-34.6,M,,*66
$PYRTM,2024,121.834733290799,12.944380700937
$GPGGA,200200.00,3253.1939,N,11748.9901,W,1,10,0.8,11.8,M,-34.6,M,,*6C
$PYRTM,2024,121.834749040972,12.944396451111
$GPGGA,200201.00,3253.1948,N,11748.9926,W,1,10,0.8,11.4,M,-34.6,M,,*62
$PYRTM,2024,121.834760605579,12.944408015718
$GPGGA,200202.00,3253.1956,N,11748.9947,W,1,10,0.8,11.6,M,-34.6,M,,*6B
$PYRTM,2024,121.834772193472,12.944419603623
$GPGGA,200203.00,3253.1967,N,11748.9968,W,1,10,0.8,12.2,M,-34.6,M,,*62
$PYRTM,2024,121.834783755880,12.944431166019
$GPGGA,200204.00,3253.1980,N,11748.9991,W,1,10,0.8,12.2,M,-34.6,M,,*6A
$PYRTM,2024,121.834795348704,12.944442758843
$GPGGA,200205.00,3253.1992,N,11749.0015,W,1,10,0.8,11.9,M,-34.6,M,,*6D
$PYRTM,2024,121.834802736701,12.944450146840
$GPGGA,200206.00,3253.2000,N,11749.0038,W,1,10,0.8,11.9,M,-34.6,M,,*60
$PYRTM,2024,121.834818483831,12.944465893970
$GPGGA,200207.00,3253.2009,N,11749.0061,W,1,10,0.8,12.1,M,-34.6,M,,*6F
$PYRTM,2024,121.834830051053,12.944477461192
$GPGGA,200208.00,3253.2020,N,11749.0085,W,1,10,0.8,12.0,M,-34.6,M,,*60
$PYRTM,2024,121.834841639641,12.944489049780
$GPGGA,200209.00,3253.2032,N,11749.0107,W,1,10,0.8,12.0,M,-34.6,M,,*69
$PYRTM,2024,121.834849047477,12.944496457616
$GPGGA,200210.00,3253.2043,N,11749.0130,W,1,10,0.8,12.0,M,-34.6,M,,*63
$PYRTM,2024,121.834864787014,12.944512197153
$GPGGA,200211.00,3253.2053,N,11749.0154,W,1,10,0.8,12.0,M,-34.6,M,,*61
$PYRTM,2024,121.834876348438,12.944523758576
$GPGGA,200212.00,3253.2063,N,11749.0177,W,1,10,0.8,12.3,M,-34.6,M,,*63
$PYRTM,2024,121.834887929977,12.944535340116
$GPGGA,200213.00,3253.2073,N,11749.0198,W,1,10,0.8,12.7,M,-34.6,M,,*66
$PYRTM,2024,121.834899497975,12.944546908113
$GPGGA,200214.00,3253.2085,N,11749.0221,W,1,10,0.8,12.7,M,-34.6,M,,*69
$PYRTM,2024,121.834911078299,12.944558488437
$GPGGA,200215.00,3253.2096,N,11749.0245,W,1,10,0.8,12.2,M,-34.6,M,,*6D
$PYRTM,2024,121.834922645417,12.944570055556
$GPGGA,200216.00,3253.2107,N,11749.0269,W,1,10,0.8,11.7,M,-34.6,M,,*6F
$PYRTM,2024,121.834930053102,12.944577463241
$GPGGA,200217.00,3253.2116,N,11749.0292,W,1,10,0.8,11.8,M,-34.6,M,,*65
$PYRTM,2024,121.834948570220,12.944595980359
$GPGGA,200218.00,3253.2126,N,11749.0314,W,1,10,0.8,12.2,M,-34.6,M,,*6F
$PYRTM,2024,121.834957383194,12.944604793333
$GPGGA,200219.00,3253.2137,N,11749.0337,W,1,10,0.8,12.4,M,-34.6,M,,*69
$PYRTM,2024,121.834968941042,12.944616351181
$GPGGA,200220.00,3253.2148,N,11749.0362,W,1,10,0.8,12.3,M,-34.6,M,,*6C
$PYRTM,2024,121.834980530799,12.944627940938
$GPGGA,200221.00,3253.2158,N,11749.0385,W,1,10,0.8,12.1,M,-34.6,M,,*67
$PYRTM,2024,121.834992087674,12.944639497812
$GPGGA,200222.00,3253.2168,N,11749.0408,W,1,10,0.8,12.2,M,-34.6,M,,*66
$PYRTM,2024,121.835003676863,12.944651087002
$GPGGA,200223.00,3253.2178,N,11749.0429,W,1,10,0.8,12.6,M,-34.6,M,,*61
$PYRTM,2024,121.835015237350,12.944662647488
$GPGGA,200224.00,3253.2189,N,11749.0452,W,1,10,0.8,12.7,M,-34.6,M,,*65
$PYRTM,2024,121.835022644514,12.944670054653
$GPGGA,200225.00,3253.2200,N,11749.0477,W,1,10,0.8,12.4,M,-34.6,M,,*62
$PYRTM,2024,121.835038386146,12.944685796285
$GPGGA,200226.00,3253.2211,N,11749.0500,W,1,10,0.8,12.0,M,-34.6,M,,*64
$PYRTM,2024,121.835049966933,12.944697377072
$GPGGA,200227.00,3253.2222,N,11749.0522,W,1,10,0.8,12.0,M,-34.6,M,,*65
$PYRTM,2024,121.835061534132,12.944708944271
$GPGGA,200228.00,3253.2233,N,11749.0543,W,1,10,0.8,12.2,M,-34.6,M,,*6F
$PYRTM,2024,121.835073120150,12.944720530289
$GPGGA,200229.00,3253.2244,N,11749.0566,W,1,10,0.8,12.3,M,-34.6,M,,*68
$PYRTM,2024,121.835084682558,12.944732092697
$GPGGA,200230.00,3253.2255,N,11749.0591,W,1,10,0.8,12.1,M,-34.6,M,,*6A
$PYRTM,2024,121.835096269028,12.944743679167
$GPGGA,200231.00,3253.2265,N,11749.0614,W,1,10,0.8,12.0,M,-34.6,M,,*67
$PYRTM,2024,121.835107830544,12.944755240683
$GPGGA,200232.00,3253.2276,N,11749.0635,W,1,10,0.8,12.2,M,-34.6,M,,*67
$PYRTM,2024,121.835119420127,12.944766830266
$GPGGA,200233.00,3253.2287,N,11749.0658,W,1,10,0.8,12.1,M,-34.6,M,,*60
$PYRTM,2024,121.835130977963,12.944778388102
$GPGGA,200234.00,3253.2298,N,11749.0682,W,1,10,0.8,11.8,M,-34.6,M,,*64
$PYRTM,2024,121.835138385914,12.944785796053
$GPGGA,200235.00,3253.2308,N,11749.0706,W,1,10,0.8,11.5,M,-34.6,M,,*6D
$PYRTM,2024,121.835154128113,12.944801538252
$GPGGA,200236.00,3253.2319,N,11749.0728,W,1,10,0.8,11.5,M,-34.6,M,,*62
$PYRTM,2024,121.835165710382,12.944813120521
$GPGGA,200237.00,3253.2330,N,11749.0750,W,1,10,0.8,11.9,M,-34.6,M,,*6B
$PYRTM,2024,121.835173121192,12.944820531331
$GPGGA,200238.00,3253.2341,N,11749.0771,W,1,10,0.8,12.5,M,-34.6,M,,*6E
$PYRTM,2024,121.835188856921,12.944836267072
$GPGGA,200239.00,3253.2352,N,11749.0796,W,1,10,0.8,12.7,M,-34.6,M,,*66
$PYRTM,2024,121.835200423287,12.944847833426
$GPGGA,200240.00,3253.2364,N,11749.0821,W,1,10,0.8,12.0,M,-34.6,M,,*69
$PYRTM,2024,121.835212013287,12.944859423426
$GPGGA,200241.00,3253.2375,N,11749.0844,W,1,10,0.8,11.4,M,-34.6,M,,*6C
$PYRTM,2024,121.835223572303,12.944870982442
$GPGGA,200242.00,3253.2385,N,11749.0864,W,1,10,0.8,11.5,M,-34.6,M,,*63
$PYRTM,2024,121.835235153229,12.944882563368
$GPGGA,200243.00,3253.2396,N,11749.0886,W,1,10,0.8,11.7,M,-34.6,M,,*6E
$PYRTM,2024,121.835246719514,12.944894129664
$GPGGA,200244.00,3253.2408,N,11749.0910,W,1,10,0.8,11.6,M,-34.6,M,,*66
$PYRTM,2024,121.835258302141,12.944905712292
$GPGGA,200245.00,3253.2418,N,11749.0934,W,1,10,0.8,11.4,M,-34.6,M,,*62
$PYRTM,2024,121.835269996319,12.944917406458
$GPGGA,200246.00,3253.2428,N,11749.0958,W,1,10,0.8,11.1,M,-34.6,M,,*6D
$PYRTM,2024,121.835281455081,12.944928865220
$GPGGA,200247.00,3253.2439,N,11749.0981,W,1,10,0.8,11.1,M,-34.6,M,,*68
$PYRTM,2024,121.835288849514,12.944936259653
$GPGGA,200248.00,3253.2450,N,11749.1002,W,1,10,0.8,11.5,M,-34.6,M,,*6F
$PYRTM,2024,121.835307383333,12.944954793472
$GPGGA,200249.00,3253.2461,N,11749.1024,W,1,10,0.8,11.8,M,-34.6,M,,*65
$PYRTM,2024,121.835318942234,12.944966352373
$GPGGA,200250.00,3253.2469,N,11749.1048,W,1,10,0.8,11.9,M,-34.6,M,,*6E
$PYRTM,2024,121.835330532708,12.944977942847
$GPGGA,200251.00,3253.2478,N,11749.1072,W,1,10,0.8,11.9,M,-34.6,M,,*66
$PYRTM,2024,121.835339313206,12.944986723345
$GPGGA,200252.00,3253.2490,N,11749.1096,W,1,10,0.8,11.4,M,-34.6,M,,*64
$PYRTM,2024,121.835350900440,12.944998310579
$GPGGA,200253.00,3253.2502,N,11749.1119,W,1,10,0.8,11.0,M,-34.6,M,,*6D
$PYRTM,2024,121.835362461134,12.945009871273
$GPGGA,200254.00,3253.2512,N,11749.1140,W,1,10,0.8,11.3,M,-34.6,M,,*64
$PYRTM,2024,121.835369870382,12.945017280521
$GPGGA,200255.00,3253.2520,N,11749.1163,W,1,10,0.8,11.7,M,-34.6,M,,*61
$PYRTM,2024,121.835385609711,12.945033019850
$GPGGA,200256.00,3253.2530,N,11749.1188,W,1,10,0.8,12.0,M,-34.6,M,,*62
$PYRTM,2024,121.835397197488,12.945044607627
$GPGGA,200257.00,3253.2542,N,11749.1212,W,1,10,0.8,11.8,M,-34.6,M,,*6D
$PYRTM,2024,121.835408758356,12.945056168495
$GPGGA,200258.00,3253.2553,N,11749.1234,W,1,10,0.8,11.8,M,-34.6,M,,*66
$PYRTM,2024,121.835420344190,12.945067754329
$GPGGA,200259.00,3253.2563,N,11749.1255,W,1,10,0.8,11.8,M,-34.6,M,,*63
$PYRTM,2024,121.835427740613,12.945075150752
$GPGGA,200300.00,3253.2573,N,11749.1280,W,1,10,0.8,11.5,M,-34.6,M,,*6A
$PYRTM,2024,121.835443506944,12.945090917083
$GPGGA,200301.00,3253.2583,N,11749.1302,W,1,10,0.8,11.3,M,-34.6,M,,*69
$PYRTM,2024,121.835455053866,12.945102464005
$GPGGA,200302.00,3253.2595,N,11749.1324,W,1,10,0.8,11.3,M,-34.6,M,,*69
$PYRTM,2024,121.835466656644,12.945114066782
$GPGGA,200303.00,3253.2606,N,11749.1346,W,1,10,0.8,11.3,M,-34.6,M,,*65
$PYRTM,2024,121.835478203287,12.945125613426
$GPGGA,200304.00,3253.2616,N,11749.1369,W,1,10,0.8,11.2,M,-34.6,M,,*6F
$PYRTM,2024,121.835489792303,12.945137202442
$GPGGA,200305.00,3253.2626,N,11749.1392,W,1,10,0.8,11.0,M,-34.6,M,,*6B
$PYRTM,2024,121.835501350787,12.945148760926
$GPGGA,200306.00,3253.2636,N,11749.1416,W,1,10,0.8,10.7,M,-34.6,M,,*64
$PYRTM,2024,121.835512937500,12.945160347639
$GPGGA,200307.00,3253.2646,N,11749.1438,W,1,10,0.8,10.9,M,-34.6,M,,*60
$PYRTM,2024,121.835524498426,12.945171908565
$GPGGA,200308.00,3253.2657,N,11749.1458,W,1,10,0.8,11.6,M,-34.6,M,,*67
$PYRTM,2024,121.835536085718,12.945183495856
$GPGGA,200309.00,3253.2668,N,11749.1480,W,1,10,0.8,11.8,M,-34.6,M,,*61
$PYRTM,2024,121.835547647199,12.945195057338
$GPGGA,200310.00,3253.2679,N,11749.1506,W,1,10,0.8,11.3,M,-34.6,M,,*6D
$PYRTM,2024,121.835555055382,12.945202465521
$GPGGA,200311.00,3253.2689,N,11749.1531,W,1,10,0.8,10.6,M,-34.6,M,,*63
$PYRTM,2024,121.835573575625,12.945220985764
$GPGGA,200312.00,3253.2699,N,11749.1552,W,1,10,0.8,10.7,M,-34.6,M,,*65
$PYRTM,2024,121.835585155961,12.945232566111
$GPGGA,200313.00,3253.2709,N,11749.1572,W,1,10,0.8,11.4,M,-34.6,M,,*6C
$PYRTM,2024,121.835593943634,12.945241353773
$GPGGA,200314.00,3253.2721,N,11749.1595,W,1,10,0.8,11.8,M,-34.6,M,,*64
$PYRTM,2024,121.835601350856,12.945248760995
$GPGGA,200315.00,3253.2734,N,11749.1621,W,1,10,0.8,11.4,M,-34.6,M,,*61
$PYRTM,2024,121.835617091551,12.945264501690
$GPGGA,200316.00,3253.2745,N,11749.1645,W,1,10,0.8,10.8,M,-34.6,M,,*6B
$PYRTM,2024,121.835628684097,12.945276094248
$GPGGA,200317.00,3253.2753,N,11749.1665,W,1,10,0.8,11.1,M,-34.6,M,,*67
$PYRTM,2024,121.835640240787,12.945287650926
$GPGGA,200318.00,3253.2762,N,11749.1688,W,1,10,0.8,11.5,M,-34.6,M,,*6D
$PYRTM,2024,121.835647647870,12.945295058009
$GPGGA,200319.00,3253.2774,N,11749.1711,W,1,10,0.8,11.5,M,-34.6,M,,*6A
$PYRTM,2024,121.835666296042,12.945313706181
$GPGGA,200320.00,3253.2786,N,11749.1733,W,1,10,0.8,11.5,M,-34.6,M,,*6D
$PYRTM,2024,121.835674972558,12.945322382697
$GPGGA,200321.00,3253.2797,N,11749.1754,W,1,10,0.8,11.7,M,-34.6,M,,*6F
$PYRTM,2024,121.835686538345,12.945333948484
$GPGGA,200322.00,3253.2806,N,11749.1778,W,1,10,0.8,11.5,M,-34.6,M,,*67
$PYRTM,2024,121.835698123808,12.945345533947
$GPGGA,200323.00,3253.2816,N,11749.1803,W,1,10,0.8,11.1,M,-34.6,M,,*60
$PYRTM,2024,121.835709686319,12.945357096470
$GPGGA,200324.00,3253.2826,N,11749.1824,W,1,10,0.8,11.2,M,-34.6,M,,*62
$PYRTM,2024,121.835717094826,12.945364504965
$GPGGA,200325.00,3253.2838,N,11749.1844,W,1,10,0.8,11.6,M,-34.6,M,,*6E
$PYRTM,2024,121.835732833634,12.945380243785
$GPGGA,200326.00,3253.2849,N,11749.1867,W,1,10,0.8,11.7,M,-34.6,M,,*6B
$PYRTM,2024,121.835744416806,12.945391826944
$GPGGA,200327.00,3253.2859,N,11749.1892,W,1,10,0.8,11.3,M,-34.6,M,,*65
$PYRTM,2024,121.835755982118,12.945403392269
$GPGGA,200328.00,3253.2868,N,11749.1916,W,1,10,0.8,11.1,M,-34.6,M,,*67
$PYRTM,2024,121.835767566146,12.945414976285
$GPGGA,200329.00,3253.2878,N,11749.1936,W,1,10,0.8,11.5,M,-34.6,M,,*61
$PYRTM,2024,121.835774963831,12.945422373970
$GPGGA,200330.00,3253.2891,N,11749.1958,W,1,10,0.8,11.7,M,-34.6,M,,*64
$PYRTM,2024,121.835790720741,12.945438130891
$GPGGA,200331.00,3253.2904,N,11749.1982,W,1,10,0.8,11.5,M,-34.6,M,,*6D
$PYRTM,2024,121.835802279745,12.945449689884
$GPGGA,200332.00,3253.2914,N,11749.2006,W,1,10,0.8,11.2,M,-34.6,M,,*6E
$PYRTM,2024,121.835813869363,12.945461279502
$GPGGA,200333.00,3253.2922,N,11749.2029,W,1,10,0.8,11.3,M,-34.6,M,,*66
$PYRTM,2024,121.835825427060,12.945472837199
$GPGGA,200334.00,3253.2932,N,11749.2052,W,1,10,0.8,11.5,M,-34.6,M,,*6A
$PYRTM,2024,121.835837013472,12.945484423611
$GPGGA,200335.00,3253.2944,N,11749.2074,W,1,10,0.8,11.6,M,-34.6,M,,*6D
$PYRTM,2024,121.835848576956,12.945495987095
$GPGGA,200336.00,3253.2957,N,11749.2095,W,1,10,0.8,11.5,M,-34.6,M,,*60
$PYRTM,2024,121.835860162650,12.945507572789
$GPGGA,200337.00,3253.2968,N,11749.2117,W,1,10,0.8,11.4,M,-34.6,M,,*67
$PYRTM,2024,121.835871722917,12.945519133067
$GPGGA,200338.00,3253.2975,N,11749.2141,W,1,10,0.8,11.3,M,-34.6,M,,*60
$PYRTM,2024,121.835883311343,12.945530721481
$GPGGA,200339.00,3253.2984,N,11749.2166,W,1,10,0.8,11.1,M,-34.6,M,,*68
$PYRTM,2024,121.835890718345,12.945538128484
$GPGGA,200340.00,3253.2995,N,11749.2188,W,1,10,0.8,11.0,M,-34.6,M,,*67
$PYRTM,2024,121.835906458218,12.945553868356
$GPGGA,200341.00,3253.3008,N,11749.2209,W,1,10,0.8,11.1,M,-34.6,M,,*61
$PYRTM,2024,121.835918020301,12.945565430451
$GPGGA,200342.00,3253.3020,N,11749.2232,W,1,10,0.8,11.2,M,-34.6,M,,*63
$PYRTM,2024,121.835929603542,12.945577013681
$GPGGA,200343.00,3253.3030,N,11749.2256,W,1,10,0.8,11.2,M,-34.6,M,,*61
$PYRTM,2024,121.835937003762,12.945584413900
$GPGGA,200344.00,3253.3038,N,11749.2281,W,1,10,0.8,11.4,M,-34.6,M,,*62
$PYRTM,2024,121.835955536829,12.945602946968
$GPGGA,200345.00,3253.3048,N,11749.2303,W,1,10,0.8,11.8,M,-34.6,M,,*63
$PYRTM,2024,121.835964317685,12.945611727812
$GPGGA,200346.00,3253.3060,N,11749.2325,W,1,10,0.8,12.0,M,-34.6,M,,*65
$PYRTM,2024,121.835975907384,12.945623317523
$GPGGA,200347.00,3253.3073,N,11749.2347,W,1,10,0.8,12.0,M,-34.6,M,,*62
$PYRTM,2024,121.835987465255,12.945634875394
$GPGGA,200348.00,3253.3084,N,11749.2371,W,1,10,0.8,11.7,M,-34.6,M,,*64
$PYRTM,2024,121.835999051690,12.945646461829
$GPGGA,200349.00,3253.3094,N,11749.2395,W,1,10,0.8,11.3,M,-34.6,M,,*6A
$PYRTM,2024,121.836006463125,12.945653873264
$GPGGA,200350.00,3253.3103,N,11749.2418,W,1,10,0.8,11.2,M,-34.6,M,,*6E
$PYRTM,2024,121.836024974039,12.945672384178
$GPGGA,200351.00,3253.3113,N,11749.2441,W,1,10,0.8,11.3,M,-34.6,M,,*63
$PYRTM,2024,121.836033761400,12.945681171539
$GPGGA,200352.00,3253.3125,N,11749.2465,W,1,10,0.8,11.4,M,-34.6,M,,*64
$PYRTM,2024,121.836041167859,12.945688577998
$GPGGA,200353.00,3253.3137,N,11749.2488,W,1,10,0.8,11.4,M,-34.6,M,,*65
$PYRTM,2024,121.836056909259,12.945704319398
$GPGGA,200354.00,3253.3148,N,11749.2512,W,1,10,0.8,11.5,M,-34.6,M,,*69
$PYRTM,2024,121.836068492431,12.945715902581
$GPGGA,200355.00,3253.3156,N,11749.2535,W,1,10,0.8,11.9,M,-34.6,M,,*6E
$PYRTM,2024,121.836080059907,12.945727470046
$GPGGA,200356.00,3253.3167,N,11749.2557,W,1,10,0.8,12.4,M,-34.6,M,,*65
$PYRTM,2024,121.836091645845,12.945739055984
$GPGGA,200357.00,3253.3178,N,11749.2580,W,1,10,0.8,12.5,M,-34.6,M,,*61
$PYRTM,2024,121.836103207211,12.945750617350
$GPGGA,200358.00,3253.3191,N,11749.2604,W,1,10,0.8,12.0,M,-34.6,M,,*63
$PYRTM,2024,121.836114793426,12.945762203565
$GPGGA,200359.00,3253.3202,N,11749.2629,W,1,10,0.8,11.3,M,-34.6,M,,*64
$PYRTM,2024,121.836126355243,12.945773765382
$GPGGA,200400.00,3253.3211,N,11749.2652,W,1,10,0.8,11.3,M,-34.6,M,,*61
$PYRTM,2024,121.836137944259,12.945785354398
$GPGGA,200401.00,3253.3222,N,11749.2673,W,1,10,0.8,11.9,M,-34.6,M,,*69
$PYRTM,2024,121.836149503646,12.945796913785
$GPGGA,200402.00,3253.3234,N,11749.2697,W,1,10,0.8,12.3,M,-34.6,M,,*6E
$PYRTM,2024,121.836161093275,12.945808503426
$GPGGA,200403.00,3253.3247,N,11749.2721,W,1,10,0.8,12.4,M,-34.6,M,,*60
$PYRTM,2024,121.836172651505,12.945820061655
$GPGGA,200404.00,3253.3258,N,11749.2745,W,1,10,0.8,12.4,M,-34.6,M,,*6B
$PYRTM,2024,121.836180059595,12.945827469734
$GPGGA,200405.00,3253.3268,N,11749.2767,W,1,10,0.8,12.6,M,-34.6,M,,*6B
$PYRTM,2024,121.836195799479,12.945843209618
$GPGGA,200406.00,3253.3277,N,11749.2791,W,1,10,0.8,12.5,M,-34.6,M,,*6C
$PYRTM,2024,121.836207382234,12.945854792384
$GPGGA,200407.00,3253.3289,N,11749.2815,W,1,10,0.8,11.9,M,-34.6,M,,*60
$PYRTM,2024,121.836218948634,12.945866358773
$GPGGA,200408.00,3253.3301,N,11749.2838,W,1,10,0.8,11.4,M,-34.6,M,,*6C
$PYRTM,2024,121.836230537245,12.945877947384
$GPGGA,200409.00,3253.3311,N,11749.2859,W,1,10,0.8,11.6,M,-34.6,M,,*69
$PYRTM,2024,121.836242096701,12.945889506840
$GPGGA,200410.00,3253.3321,N,11749.2881,W,1,10,0.8,12.1,M,-34.6,M,,*63
$PYRTM,2024,121.836253680498,12.945901090648
$GPGGA,200411.00,3253.3331,N,11749.2905,W,1,10,0.8,12.5,M,-34.6,M,,*6A
$PYRTM,2024,121.836265245637,12.945912655775
$GPGGA,200412.00,3253.3342,N,11749.2930,W,1,10,0.8,12.4,M,-34.6,M,,*6A
$PYRTM,2024,121.836276826551,12.945924236690
$GPGGA,200413.00,3253.3353,N,11749.2953,W,1,10,0.8,12.3,M,-34.6,M,,*69
$PYRTM,2024,121.836288393715,12.945935803854
$GPGGA,200414.00,3253.3363,N,11749.2975,W,1,10,0.8,12.5,M,-34.6,M,,*6F
$PYRTM,2024,121.836299983345,12.945947393484
$GPGGA,200415.00,3253.3374,N,11749.2997,W,1,10,0.8,12.7,M,-34.6,M,,*66
$PYRTM,2024,121.836311541227,12.945958951366
$GPGGA,200416.00,3253.3385,N,11749.3021,W,1,10,0.8,12.6,M,-34.6,M,,*6F
$PYRTM,2024,121.836323130903,12.945970541042
$GPGGA,200417.00,3253.3395,N,11749.3045,W,1,10,0.8,12.5,M,-34.6,M,,*6E
$PYRTM,2024,121.836334690324,12.945982100463
$GPGGA,200418.00,3253.3405,N,11749.3068,W,1,10,0.8,12.6,M,-34.6,M,,*63
$PYRTM,2024,121.836346272940,12.945993683079
$GPGGA,200419.00,3253.3416,N,11749.3091,W,1,10,0.8,12.9,M,-34.6,M,,*69
$PYRTM,2024,121.836353683796,12.946001093935
$GPGGA,200420.00,3253.3428,N,11749.3113,W,1,10,0.8,13.3,M,-34.6,M,,*6E
$PYRTM,2024,121.836365360301,12.946012770440
$GPGGA,200421.00,3253.3439,N,11749.3136,W,1,10,0.8,13.6,M,-34.6,M,,*6D
$PYRTM,2024,121.836383764479,12.946031174618
$GPGGA,200422.00,3253.3450,N,11749.3159,W,1,10,0.8,13.8,M,-34.6,M,,*66
$PYRTM,2024,121.836392572477,12.946039982616
$GPGGA,200423.00,3253.3460,N,11749.3182,W,1,10,0.8,13.6,M,-34.6,M,,*6C
$PYRTM,2024,121.836404134977,12.946051545127
$GPGGA,200424.00,3253.3472,N,11749.3207,W,1,10,0.8,12.6,M,-34.6,M,,*67
$PYRTM,2024,121.836415721343,12.946063131481
$GPGGA,200425.00,3253.3484,N,11749.3230,W,1,10,0.8,11.9,M,-34.6,M,,*67
$PYRTM,2024,121.836427283310,12.946074693449
$GPGGA,200426.00,3253.3494,N,11749.3249,W,1,10,0.8,12.2,M,-34.6,M,,*63
$PYRTM,2024,121.836438865972,12.946086276111
$GPGGA,200427.00,3253.3505,N,11749.3270,W,1,10,0.8,12.8,M,-34.6,M,,*6B
$PYRTM,2024,121.836450431678,12.946097841817
$GPGGA,200428.00,3253.3517,N,11749.3295,W,1,10,0.8,12.7,M,-34.6,M,,*63
$PYRTM,2024,121.836462020706,12.946109430845
$GPGGA,200429.00,3253.3528,N,11749.3320,W,1,10,0.8,12.1,M,-34.6,M,,*67
$PYRTM,2024,121.836469411296,12.946116821435
$GPGGA,200430.00,3253.3538,N,11749.3342,W,1,10,0.8,11.9,M,-34.6,M,,*61
$PYRTM,2024,121.836485169803,12.946132579942
$GPGGA,200431.00,3253.3547,N,11749.3363,W,1,10,0.8,12.0,M,-34.6,M,,*61
$PYRTM,2024,121.836496727025,12.946144137164
$GPGGA,200432.00,3253.3558,N,11749.3386,W,1,10,0.8,12.1,M,-34.6,M,,*66
$PYRTM,2024,121.836504133553,12.946151543692
$GPGGA,200433.00,3253.3569,N,11749.3407,W,1,10,0.8,12.5,M,-34.6,M,,*6F
$PYRTM,2024,121.836519877141,12.946167287280
$GPGGA,200434.00,3253.3582,N,11749.3430,W,1,10,0.8,12.8,M,-34.6,M,,*64
$PYRTM,2024,121.836531457535,12.946178867674
$GPGGA,200435.00,3253.3593,N,11749.3454,W,1,10,0.8,12.5,M,-34.6,M,,*6A
$PYRTM,2024,121.836543024352,12.946190434491
$GPGGA,200436.00,3253.3602,N,11749.3478,W,1,10,0.8,12.2,M,-34.6,M,,*6B
$PYRTM,2024,121.836554610995,12.946202021134
$GPGGA,200437.00,3253.3610,N,11749.3499,W,1,10,0.8,12.5,M,-34.6,M,,*61
$PYRTM,2024,121.836562007546,12.946209417685
$GPGGA,200438.00,3253.3622,N,11749.3521,W,1,10,0.8,12.8,M,-34.6,M,,*60
$PYRTM,2024,121.836577763715,12.946225173854
$GPGGA,200439.00,3253.3636,N,11749.3544,W,1,10,0.8,12.6,M,-34.6,M,,*69
$PYRTM,2024,121.836589323264,12.946236733414
$GPGGA,200440.00,3253.3648,N,11749.3566,W,1,10,0.8,12.5,M,-34.6,M,,*6D
$PYRTM,2024,121.836600913079,12.946248323218
$GPGGA,200441.00,3253.3656,N,11749.3588,W,1,10,0.8,12.6,M,-34.6,M,,*60
$PYRTM,2024,121.836612472245,12.946259882384
$GPGGA,200442.00,3253.3663,N,11749.3612,W,1,10,0.8,12.6,M,-34.6,M,,*65
$PYRTM,2024,121.836619877731,12.946267287882
$GPGGA,200443.00,3253.3675,N,11749.3637,W,1,10,0.8,12.0,M,-34.6,M,,*62
$PYRTM,2024,121.836635621192,12.946283031331
$GPGGA,200444.00,3253.3687,N,11749.3658,W,1,10,0.8,11.5,M,-34.6,M,,*67
$PYRTM,2024,121.836647220486,12.946294630625
$GPGGA,200445.00,3253.3698,N,11749.3676,W,1,10,0.8,12.0,M,-34.6,M,,*62
$PYRTM,2024,121.836658767222,12.946306177361
$GPGGA,200446.00,3253.3707,N,11749.3698,W,1,10,0.8,12.6,M,-34.6,M,,*60
$PYRTM,2024,121.836666173148,12.946313583287
$GPGGA,200447.00,3253.3716,N,11749.3724,W,1,10,0.8,12.4,M,-34.6,M,,*65
$PYRTM,2024,121.836681913889,12.946329324028
$GPGGA,200448.00,3253.3725,N,11749.3748,W,1,10,0.8,12.0,M,-34.6,M,,*64
$PYRTM,2024,121.836693503218,12.946340913356
$GPGGA,200449.00,3253.3736,N,11749.3768,W,1,10,0.8,12.1,M,-34.6,M,,*64
$PYRTM,2024,121.836705062743,12.946352472894
$GPGGA,200450.00,3253.3748,N,11749.3788,W,1,10,0.8,12.5,M,-34.6,M,,*6F
$PYRTM,2024,121.836716646215,12.946364056354
$GPGGA,200451.00,3253.3759,N,11749.3810,W,1,10,0.8,12.6,M,-34.6,M,,*63
$PYRTM,2024,121.836724057326,12.946371467465
$GPGGA,200452.00,3253.3768,N,11749.3835,W,1,10,0.8,12.4,M,-34.6,M,,*67
$PYRTM,2024,121.836742569711,12.946389979861
$GPGGA,200453.00,3253.3778,N,11749.3860,W,1,10,0.8,12.2,M,-34.6,M,,*61
$PYRTM,2024,121.836751358715,12.946398768854
$GPGGA,200454.00,3253.3789,N,11749.3882,W,1,10,0.8,12.3,M,-34.6,M,,*65
$PYRTM,2024,121.836758769583,12.946406179722
$GPGGA,200455.00,3253.3801,N,11749.3903,W,1,10,0.8,12.5,M,-34.6,M,,*65
$PYRTM,2024,121.836774506817,12.946421916968
$GPGGA,200456.00,3253.3813,N,11749.3924,W,1,10,0.8,12.9,M,-34.6,M,,*6C
$PYRTM,2024,121.836786093576,12.946433503715
$GPGGA,200457.00,3253.3823,N,11749.3946,W,1,10,0.8,13.2,M,-34.6,M,,*60
$PYRTM,2024,121.836797654954,12.946445065093
$GPGGA,200458.00,3253.3832,N,11749.3970,W,1,10,0.8,12.8,M,-34.6,M,,*61
$PYRTM,2024,121.836809246308,12.946456656447
$GPGGA,200459.00,3253.3842,N,11749.3995,W,1,10,0.8,11.8,M,-34.6,M,,*6F
$PYRTM,2024,121.836816636771,12.946464046921
$GPGGA,200500.00,3253.3855,N,11749.4017,W,1,10,0.8,11.3,M,-34.6,M,,*6B
$PYRTM,2024,121.836832393125,12.946479803264
$GPGGA,200501.00,3253.3866,N,11749.4036,W,1,10,0.8,11.8,M,-34.6,M,,*62
$PYRTM,2024,121.836843951447,12.946491361597
$GPGGA,200502.00,3253.3876,N,11749.4057,W,1,10,0.8,12.5,M,-34.6,M,,*69
$PYRTM,2024,121.836855534398,12.946502944549
$GPGGA,200503.00,3253.3885,N,11749.4082,W,1,10,0.8,12.7,M,-34.6,M,,*6E
$PYRTM,2024,121.836867100544,12.946514510683
$GPGGA,200504.00,3253.3894,N,11749.4107,W,1,10,0.8,12.6,M,-34.6,M,,*64
$PYRTM,2024,121.836878687153,12.946526097292
$GPGGA,200505.00,3253.3906,N,11749.4129,W,1,10,0.8,12.5,M,-34.6,M,,*60
$PYRTM,2024,121.836890248067,12.946537658206
$GPGGA,200506.00,3253.3918,N,11749.4151,W,1,10,0.8,12.4,M,-34.6,M,,*62
$PYRTM,2024,121.836901834873,12.946549245012
$GPGGA,200507.00,3253.3929,N,11749.4174,W,1,10,0.8,12.3,M,-34.6,M,,*61
$PYRTM,2024,121.836913397222,12.946560807373
$GPGGA,200508.00,3253.3938,N,11749.4197,W,1,10,0.8,12.3,M,-34.6,M,,*63
$PYRTM,2024,121.836924984144,12.946572394282
$GPGGA,200509.00,3253.3946,N,11749.4220,W,1,10,0.8,12.8,M,-34.6,M,,*6F
$PYRTM,2024,121.836932377523,12.946579787662
$GPGGA,200510.00,3253.3956,N,11749.4242,W,1,10,0.8,13.3,M,-34.6,M,,*68
$PYRTM,2024,121.836948132697,12.946595542836
$GPGGA,200511.00,3253.3969,N,11749.4266,W,1,10,0.8,13.0,M,-34.6,M,,*60
$PYRTM,2024,121.836959693472,12.946607103611
$GPGGA,200512.00,3253.3981,N,11749.4290,W,1,10,0.8,12.4,M,-34.6,M,,*69
$PYRTM,2024,121.836971282975,12.946618693113
$GPGGA,200513.00,3253.3991,N,11749.4312,W,1,10,0.8,12.4,M,-34.6,M,,*62
$PYRTM,2024,121.836982841921,12.946630252060
$GPGGA,200514.00,3253.3999,N,11749.4334,W,1,10,0.8,12.9,M,-34.6,M,,*64
$PYRTM,2024,121.836994432373,12.946641842512
$GPGGA,200515.00,3253.4008,N,11749.4357,W,1,10,0.8,13.2,M,-34.6,M,,*6C
$PYRTM,2024,121.837005991308,12.946653401447
$GPGGA,200516.00,3253.4019,N,11749.4381,W,1,10,0.8,13.2,M,-34.6,M,,*64
$PYRTM,2024,121.837017572975,12.946664983113
$GPGGA,200517.00,3253.4032,N,11749.4404,W,1,10,0.8,13.0,M,-34.6,M,,*64
$PYRTM,2024,121.837029136586,12.946676546725
$GPGGA,200518.00,3253.4044,N,11749.4427,W,1,10,0.8,12.9,M,-34.6,M,,*63
$PYRTM,2024,121.837036544734,12.946683954861
$GPGGA,200519.00,3253.4054,N,11749.4450,W,1,10,0.8,13.0,M,-34.6,M,,*6B
$PYRTM,2024,121.837055063472,12.946702473611
$GPGGA,200520.00,3253.4062,N,11749.4474,W,1,10,0.8,13.2,M,-34.6,M,,*60
$PYRTM,2024,121.837066646088,12.946714056227
$GPGGA,200521.00,3253.4072,N,11749.4497,W,1,10,0.8,13.5,M,-34.6,M,,*6A
$PYRTM,2024,121.837075434213,12.946722844352
$GPGGA,200522.00,3253.4086,N,11749.4518,W,1,10,0.8,13.8,M,-34.6,M,,*69
$PYRTM,2024,121.837082841169,12.946730251308
$GPGGA,200523.00,3253.4098,N,11749.4541,W,1,10,0.8,13.8,M,-34.6,M,,*6B
$PYRTM,2024,121.837101497604,12.946748907743
$GPGGA,200524.00,3253.4107,N,11749.4565,W,1,10,0.8,13.5,M,-34.6,M,,*60
$PYRTM,2024,121.837110164977,12.946757575116
$GPGGA,200525.00,3253.4115,N,11749.4588,W,1,10,0.8,13.4,M,-34.6,M,,*60
$PYRTM,2024,121.837121731609,12.946769141748
$GPGGA,200526.00,3253.4126,N,11749.4612,W,1,10,0.8,13.1,M,-34.6,M,,*66
$PYRTM,2024,121.837133319630,12.946780729769
$GPGGA,200527.00,3253.4139,N,11749.4634,W,1,10,0.8,13.0,M,-34.6,M,,*6C
$PYRTM,2024,121.837140713426,12.946788123576
$GPGGA,200528.00,3253.4152,N,11749.4655,W,1,10,0.8,13.3,M,-34.6,M,,*6A
$PYRTM,2024,121.837156468866,12.946803879005
$GPGGA,200529.00,3253.4161,N,11749.4677,W,1,10,0.8,13.7,M,-34.6,M,,*6F
$PYRTM,2024,121.837168026632,12.946815436771
$GPGGA,200530.00,3253.4170,N,11749.4702,W,1,10,0.8,13.9,M,-34.6,M,,*6A
$PYRTM,2024,121.837179609236,12.946827019375
$GPGGA,200531.00,3253.4180,N,11749.4726,W,1,10,0.8,13.9,M,-34.6,M,,*62
$PYRTM,2024,121.837191174618,12.946838584757
$GPGGA,200532.00,3253.4192,N,11749.4748,W,1,10,0.8,13.7,M,-34.6,M,,*64
$PYRTM,2024,121.837198583333,12.946845993472
$GPGGA,200533.00,3253.4204,N,11749.4770,W,1,10,0.8,13.3,M,-34.6,M,,*66
$PYRTM,2024,121.837214324201,12.946861734352
$GPGGA,200534.00,3253.4215,N,11749.4793,W,1,10,0.8,13.1,M,-34.6,M,,*6E
$PYRTM,2024,121.837225912338,12.946873322488
$GPGGA,200535.00,3253.4225,N,11749.4815,W,1,10,0.8,13.3,M,-34.6,M,,*6F
$PYRTM,2024,121.837237472396,12.946884882535
$GPGGA,200536.00,3253.4236,N,11749.4838,W,1,10,0.8,13.7,M,-34.6,M,,*65
$PYRTM,2024,121.837249063148,12.946896473299
$GPGGA,200537.00,3253.4247,N,11749.4861,W,1,10,0.8,14.0,M,-34.6,M,,*6E
$PYRTM,2024,121.837260621111,12.946908031250
$GPGGA,200538.00,3253.4258,N,11749.4884,W,1,10,0.8,14.0,M,-34.6,M,,*64
$PYRTM,2024,121.837272202940,12.946919613079
$GPGGA,200539.00,3253.4269,N,11749.4907,W,1,10,0.8,14.0,M,-34.6,M,,*6D
$PYRTM,2024,121.837283769884,12.946931180035
$GPGGA,200540.00,3253.4281,N,11749.4930,W,1,10,0.8,13.9,M,-34.6,M,,*6F
$PYRTM,2024,121.837295351424,12.946942761563
$GPGGA,200541.00,3253.4291,N,11749.4953,W,1,10,0.8,13.6,M,-34.6,M,,*65
$PYRTM,2024,121.837306918009,12.946954328148
$GPGGA,200542.00,3253.4302,N,11749.4977,W,1,10,0.8,13.4,M,-34.6,M,,*69
$PYRTM,2024,121.837318507083,12.946965917222
$GPGGA,200543.00,3253.4313,N,11749.4998,W,1,10,0.8,13.6,M,-34.6,M,,*6B
$PYRTM,2024,121.837330065671,12.946977475810
$GPGGA,200544.00,3253.4325,N,11749.5021,W,1,10,0.8,13.8,M,-34.6,M,,*6D
$PYRTM,2024,121.837341656887,12.946989067037
$GPGGA,200545.00,3253.4336,N,11749.5044,W,1,10,0.8,13.9,M,-34.6,M,,*6C
$PYRTM,2024,121.837353215463,12.947000625602
$GPGGA,200546.00,3253.4345,N,11749.5067,W,1,10,0.8,14.0,M,-34.6,M,,*64
$PYRTM,2024,121.837364800208,12.947012210347
$GPGGA,200547.00,3253.4356,N,11749.5090,W,1,10,0.8,14.0,M,-34.6,M,,*6F
$PYRTM,2024,121.837372209259,12.947019619398
$GPGGA,200548.00,3253.4367,N,11749.5114,W,1,10,0.8,13.7,M,-34.6,M,,*6F
$PYRTM,2024,121.837387950220,12.947035360359
$GPGGA,200549.00,3253.4379,N,11749.5137,W,1,10,0.8,13.5,M,-34.6,M,,*62
$PYRTM,2024,121.837399510637,12.947046920775
$GPGGA,200550.00,3253.4389,N,11749.5159,W,1,10,0.8,13.7,M,-34.6,M,,*6F
$PYRTM,2024,121.837411092708,12.947058502847
$GPGGA,200551.00,3253.4399,N,11749.5180,W,1,10,0.8,14.3,M,-34.6,M,,*68
$PYRTM,2024,121.837418493935,12.947065904074
$GPGGA,200552.00,3253.4411,N,11749.5203,W,1,10,0.8,14.6,M,-34.6,M,,*61
$PYRTM,2024,121.837437022905,12.947084433056
$GPGGA,200553.00,3253.4424,N,11749.5229,W,1,10,0.8,14.0,M,-34.6,M,,*68
$PYRTM,2024,121.837448585185,12.947095995336
$GPGGA,200554.00,3253.4434,N,11749.5253,W,1,10,0.8,13.4,M,-34.6,M,,*60
$PYRTM,2024,121.837462718171,12.947110128310
$GPGGA,200555.00,3253.4443,N,11749.5273,W,1,10,0.8,13.5,M,-34.6,M,,*62
$PYRTM,2024,121.837471734387,12.947119144525
$GPGGA,200556.00,3253.4455,N,11749.5293,W,1,10,0.8,13.9,M,-34.6,M,,*64
$PYRTM,2024,121.837483323576,12.947130733715
$GPGGA,200557.00,3253.4469,N,11749.5316,W,1,10,0.8,13.8,M,-34.6,M,,*67
$PYRTM,2024,121.837492103056,12.947139513194
$GPGGA,200558.00,3253.4482,N,11749.5341,W,1,10,0.8,13.3,M,-34.6,M,,*64
$PYRTM,2024,121.837503694097,12.947151104248
$GPGGA,200559.00,3253.4491,N,11749.5365,W,1,10,0.8,13.0,M,-34.6,M,,*62
$PYRTM,2024,121.837515253947,12.947162664086
$GPGGA,200600.00,3253.4499,N,11749.5386,W,1,10,0.8,13.5,M,-34.6,M,,*6D
$PYRTM,2024,121.837522542465,12.947169952604
$GPGGA,200601.00,3253.4510,N,11749.5407,W,1,10,0.8,14.1,M,-34.6,M,,*61
$PYRTM,2024,121.837538398669,12.947185808808
$GPGGA,200602.00,3253.4524,N,11749.5431,W,1,10,0.8,14.1,M,-34.6,M,,*60
$PYRTM,2024,121.837549987141,12.947197397280
$GPGGA,200603.00,3253.4536,N,11749.5455,W,1,10,0.8,13.5,M,-34.6,M,,*63
$PYRTM,2024,121.837561547928,12.947208958067
$GPGGA,200604.00,3253.4546,N,11749.5478,W,1,10,0.8,13.1,M,-34.6,M,,*68
$PYRTM,2024,121.837573135324,12.947220545463
$GPGGA,200605.00,3253.4555,N,11749.5500,W,1,10,0.8,13.3,M,-34.6,M,,*67
$PYRTM,2024,121.837580414190,12.947227824329
$GPGGA,200606.00,3253.4565,N,11749.5522,W,1,10,0.8,13.6,M,-34.6,M,,*62
$PYRTM,2024,121.837596283657,12.947243693796
$GPGGA,200607.00,3253.4577,N,11749.5545,W,1,10,0.8,13.7,M,-34.6,M,,*60
$PYRTM,2024,121.837607843600,12.947255253738
$GPGGA,200608.00,3253.4590,N,11749.5566,W,1,10,0.8,13.8,M,-34.6,M,,*68
$PYRTM,2024,121.837619428507,12.947266838646
$GPGGA,200609.00,3253.4602,N,11749.5589,W,1,10,0.8,13.8,M,-34.6,M,,*60
$PYRTM,2024,121.837630993495,12.947278403634
$GPGGA,200610.00,3253.4612,N,11749.5613,W,1,10,0.8,13.5,M,-34.6,M,,*64
$PYRTM,2024,121.837642595012,12.947290005150
$GPGGA,200611.00,3253.4622,N,11749.5636,W,1,10,0.8,13.3,M,-34.6,M,,*67
$PYRTM,2024,121.837654139954,12.947301550093
$GPGGA,200612.00,3253.4632,N,11749.5656,W,1,10,0.8,13.8,M,-34.6,M,,*68
$PYRTM,2024,121.837665730868,12.947313141007
$GPGGA,200613.00,3253.4644,N,11749.5677,W,1,10,0.8,14.3,M,-34.6,M,,*67
$PYRTM,2024,121.837677289109,12.947324699248
$GPGGA,200614.00,3253.4658,N,11749.5701,W,1,10,0.8,14.0,M,-34.6,M,,*6E
$PYRTM,2024,121.837688890428,12.947336300567
$GPGGA,200615.00,3253.4669,N,11749.5726,W,1,10,0.8,13.2,M,-34.6,M,,*6D
$PYRTM,2024,121.837700437442,12.947347847581
$GPGGA,200616.00,3253.4679,N,11749.5749,W,1,10,0.8,12.9,M,-34.6,M,,*6C
$PYRTM,2024,121.837712024757,12.947359434896
$GPGGA,200617.00,3253.4688,N,11749.5769,W,1,10,0.8,13.3,M,-34.6,M,,*6A
$PYRTM,2024,121.837723586829,12.947370996968
$GPGGA,200618.00,3253.4699,N,11749.5792,W,1,10,0.8,13.8,M,-34.6,M,,*6A
$PYRTM,2024,121.837735168125,12.947382578264
$GPGGA,200619.00,3253.4713,N,11749.5814,W,1,10,0.8,14.0,M,-34.6,M,,*66
$PYRTM,2024,121.837746733600,12.947394143750
$GPGGA,200620.00,3253.4724,N,11749.5835,W,1,10,0.8,14.1,M,-34.6,M,,*6A
$PYRTM,2024,121.837758324248,12.947405734387
$GPGGA,200621.00,3253.4733,N,11749.5857,W,1,10,0.8,14.2,M,-34.6,M,,*6A
$PYRTM,2024,121.837769882419,12.947417292558
$GPGGA,200622.00,3253.4743,N,11749.5881,W,1,10,0.8,13.8,M,-34.6,M,,*68
$PYRTM,2024,121.837777173449,12.947424583588
$GPGGA,200623.00,3253.4755,N,11749.5905,W,1,10,0.8,12.8,M,-34.6,M,,*62
$PYRTM,2024,121.837793030544,12.947440440683
$GPGGA,200624.00,3253.4766,N,11749.5927,W,1,10,0.8,12.5,M,-34.6,M,,*68
$PYRTM,2024,121.837800322465,12.947447732604
$GPGGA,200625.00,3253.4777,N,11749.5948,W,1,10,0.8,12.9,M,-34.6,M,,*6C
$PYRTM,2024,121.837818958299,12.947466368449
$GPGGA,200626.00,3253.4788,N,11749.5970,W,1,10,0.8,13.5,M,-34.6,M,,*69
$PYRTM,2024,121.837827769919,12.947475180069
$GPGGA,200627.00,3253.4798,N,11749.5993,W,1,10,0.8,13.9,M,-34.6,M,,*68
$PYRTM,2024,121.837839328137,12.947486738275
$GPGGA,200628.00,3253.4808,N,11749.6017,W,1,10,0.8,13.9,M,-34.6,M,,*67
$PYRTM,2024,121.837850909630,12.947498319769
$GPGGA,200629.00,3253.4820,N,11749.6041,W,1,10,0.8,13.5,M,-34.6,M,,*63
$PYRTM,2024,121.837862477535,12.947509887674
$GPGGA,200630.00,3253.4831,N,11749.6063,W,1,10,0.8,13.1,M,-34.6,M,,*6F
$PYRTM,2024,121.837869768877,12.947517179016
$GPGGA,200631.00,3253.4841,N,11749.6085,W,1,10,0.8,13.1,M,-34.6,M,,*61
$PYRTM,2024,121.837885623414,12.947533033553
$GPGGA,200632.00,3253.4851,N,11749.6107,W,1,10,0.8,13.3,M,-34.6,M,,*6A
$PYRTM,2024,121.837897211030,12.947544621169
$GPGGA,200633.00,3253.4862,N,11749.6130,W,1,10,0.8,13.5,M,-34.6,M,,*69
$PYRTM,2024,121.837904504433,12.947551914572
$GPGGA,200634.00,3253.4873,N,11749.6154,W,1,10,0.8,13.3,M,-34.6,M,,*6A
$PYRTM,2024,121.837920359236,12.947567769375
$GPGGA,200635.00,3253.4884,N,11749.6179,W,1,10,0.8,13.1,M,-34.6,M,,*6E
$PYRTM,2024,121.837931805197,12.947579215336
$GPGGA,200636.00,3253.4895,N,11749.6201,W,1,10,0.8,13.3,M,-34.6,M,,*63
$PYRTM,2024,121.837943508056,12.947590918194
$GPGGA,200637.00,3253.4905,N,11749.6222,W,1,10,0.8,13.7,M,-34.6,M,,*6F
$PYRTM,2024,121.837955068843,12.947602478981
$GPGGA,200638.00,3253.4916,N,11749.6244,W,1,10,0.8,14.0,M,-34.6,M,,*62
$PYRTM,2024,121.837966655625,12.947614065764
$GPGGA,200639.00,3253.4927,N,11749.6267,W,1,10,0.8,14.0,M,-34.6,M,,*60
$PYRTM,2024,121.837978217882,12.947625628021
$GPGGA,200640.00,3253.4938,N,11749.6290,W,1,10,0.8,13.8,M,-34.6,M,,*67
$PYRTM,2024,121.837989691551,12.947637101690
$GPGGA,200641.00,3253.4949,N,11749.6314,W,1,10,0.8,13.4,M,-34.6,M,,*61
$PYRTM,2024,121.838001365949,12.947648776088
$GPGGA,200642.00,3253.4959,N,11749.6337,W,1,10,0.8,13.2,M,-34.6,M,,*64
$PYRTM,2024,121.838012840336,12.947660250475
$GPGGA,200643.00,3253.4971,N,11749.6358,W,1,10,0.8,13.5,M,-34.6,M,,*61
$PYRTM,2024,121.838020232106,12.947667642245
$GPGGA,200644.00,3253.4983,N,11749.6381,W,1,10,0.8,13.9,M,-34.6,M,,*63
$PYRTM,2024,121.838036101065,12.947683511204
$GPGGA,200645.00,3253.4994,N,11749.6404,W,1,10,0.8,14.2,M,-34.6,M,,*62
$PYRTM,2024,121.838047663472,12.947695073611
$GPGGA,200646.00,3253.5005,N,11749.6426,W,1,10,0.8,14.5,M,-34.6,M,,*66
$PYRTM,2024,121.838059244676,12.947706654826
$GPGGA,200647.00,3253.5016,N,11749.6450,W,1,10,0.8,14.5,M,-34.6,M,,*64
$PYRTM,2024,121.838070821250,12.947718231389
$GPGGA,200648.00,3253.5028,N,11749.6473,W,1,10,0.8,14.1,M,-34.6,M,,*63
$PYRTM,2024,121.838082399306,12.947729809444
$GPGGA,200649.00,3253.5038,N,11749.6495,W,1,10,0.8,13.8,M,-34.6,M,,*65
$PYRTM,2024,121.838093843461,12.947741253600
$GPGGA,200650.00,3253.5049,N,11749.6517,W,1,10,0.8,13.7,M,-34.6,M,,*6F
$PYRTM,2024,121.838105542535,12.947752952674
$GPGGA,200651.00,3253.5062,N,11749.6541,W,1,10,0.8,13.5,M,-34.6,M,,*66
$PYRTM,2024,121.838117107963,12.947764518102
$GPGGA,200652.00,3253.5074,N,11749.6564,W,1,10,0.8,13.5,M,-34.6,M,,*65
$PYRTM,2024,121.838128690648,12.947776100799
$GPGGA,200653.00,3253.5082,N,11749.6586,W,1,10,0.8,13.9,M,-34.6,M,,*6D
$PYRTM,2024,121.838140140347,12.947787550486
$GPGGA,200654.00,3253.5091,N,11749.6608,W,1,10,0.8,14.6,M,-34.6,M,,*65
$PYRTM,2024,121.838151845752,12.947799255891
$GPGGA,200655.00,3253.5102,N,11749.6631,W,1,10,0.8,14.8,M,-34.6,M,,*6B
$PYRTM,2024,121.838159121933,12.947806532072
$GPGGA,200656.00,3253.5116,N,11749.6655,W,1,10,0.8,14.1,M,-34.6,M,,*66
$PYRTM,2024,121.838177771447,12.947825181586
$GPGGA,200657.00,3253.5128,N,11749.6678,W,1,10,0.8,13.4,M,-34.6,M,,*67
$PYRTM,2024,121.838186551968,12.947833962106
$GPGGA,200658.00,3253.5135,N,11749.6699,W,1,10,0.8,13.4,M,-34.6,M,,*6B
$PYRTM,2024,121.838193844734,12.947841254873
$GPGGA,200659.00,3253.5143,N,11749.6721,W,1,10,0.8,13.9,M,-34.6,M,,*64
$PYRTM,2024,121.838209702384,12.947857112523
$GPGGA,200700.00,3253.5155,N,11749.6744,W,1,10,0.8,14.2,M,-34.6,M,,*61
$PYRTM,2024,121.838221172581,12.947868582720
$GPGGA,200701.00,3253.5168,N,11749.6766,W,1,10,0.8,14.2,M,-34.6,M,,*6E
$PYRTM,2024,121.838232734271,12.947880144410
$GPGGA,200702.00,3253.5180,N,11749.6788,W,1,10,0.8,14.2,M,-34.6,M,,*6B
$PYRTM,2024,121.838244319618,12.947891729757
$GPGGA,200703.00,3253.5190,N,11749.6813,W,1,10,0.8,13.8,M,-34.6,M,,*6B
$PYRTM,2024,121.838251715787,12.947899125926
$GPGGA,200704.00,3253.5199,N,11749.6837,W,1,10,0.8,13.2,M,-34.6,M,,*69
$PYRTM,2024,121.838267468623,12.947914878762
$GPGGA,200705.00,3253.5209,N,11749.6857,W,1,10,0.8,13.3,M,-34.6,M,,*65
$PYRTM,2024,121.838279042604,12.947926452755
$GPGGA,200706.00,3253.5221,N,11749.6876,W,1,10,0.8,13.9,M,-34.6,M,,*65
$PYRTM,2024,121.838290620394,12.947938030532
$GPGGA,200707.00,3253.5233,N,11749.6899,W,1,10,0.8,14.0,M,-34.6,M,,*68
$PYRTM,2024,121.838302190845,12.947949600995
$GPGGA,200708.00,3253.5245,N,11749.6925,W,1,10,0.8,13.4,M,-34.6,M,,*63
$PYRTM,2024,121.838309585799,12.947956995938
$GPGGA,200709.00,3253.5254,N,11749.6949,W,1,10,0.8,12.7,M,-34.6,M,,*6A
$PYRTM,2024,121.838325338576,12.947972748715
$GPGGA,200710.00,3253.5262,N,11749.6970,W,1,10,0.8,12.7,M,-34.6,M,,*6D
$PYRTM,2024,121.838336916979,12.947984327130
$GPGGA,200711.00,3253.5275,N,11749.6990,W,1,10,0.8,13.0,M,-34.6,M,,*62
$PYRTM,2024,121.838348592245,12.947996002396
$GPGGA,200712.00,3253.5288,N,11749.7013,W,1,10,0.8,13.2,M,-34.6,M,,*62
$PYRTM,2024,121.838360171921,12.948007582060
$GPGGA,200713.00,3253.5299,N,11749.7036,W,1,10,0.8,13.3,M,-34.6,M,,*65
$PYRTM,2024,121.838367469097,12.948014879236
$GPGGA,200714.00,3253.5308,N,11749.7058,W,1,10,0.8,13.5,M,-34.6,M,,*65
$PYRTM,2024,121.838383204525,12.948030614664
$GPGGA,200715.00,3253.5318,N,11749.7081,W,1,10,0.8,13.5,M,-34.6,M,,*61
$PYRTM,2024,121.838394784421,12.948042194560
$GPGGA,200716.00,3253.5330,N,11749.7104,W,1,10,0.8,13.0,M,-34.6,M,,*61
$PYRTM,2024,121.838406358148,12.948053768287
$GPGGA,200717.00,3253.5342,N,11749.7127,W,1,10,0.8,12.5,M,-34.6,M,,*60
$PYRTM,2024,121.838417935382,12.948065345521
$GPGGA,200718.00,3253.5354,N,11749.7149,W,1,10,0.8,12.6,M,-34.6,M,,*63
$PYRTM,2024,121.838429507454,12.948076917593
$GPGGA,200719.00,3253.5364,N,11749.7169,W,1,10,0.8,13.2,M,-34.6,M,,*66
$PYRTM,2024,121.838441080127,12.948088490266
$GPGGA,200720.00,3253.5373,N,11749.7192,W,1,10,0.8,13.7,M,-34.6,M,,*6B
$PYRTM,2024,121.838452649456,12.948100059595
$GPGGA,200721.00,3253.5383,N,11749.7217,W,1,10,0.8,13.5,M,-34.6,M,,*69
$PYRTM,2024,121.838464229016,12.948111639167
$GPGGA,200722.00,3253.5395,N,11749.7240,W,1,10,0.8,13.0,M,-34.6,M,,*6A
$PYRTM,2024,121.838475805972,12.948123216111
$GPGGA,200723.00,3253.5406,N,11749.7260,W,1,10,0.8,12.9,M,-34.6,M,,*6C
$PYRTM,2024,121.838483197731,12.948130607882
$GPGGA,200724.00,3253.5417,N,11749.7282,W,1,10,0.8,12.8,M,-34.6,M,,*66
$PYRTM,2024,121.838498955602,12.948146365741
$GPGGA,200725.00,3253.5427,N,11749.7307,W,1,10,0.8,12.5,M,-34.6,M,,*65
$PYRTM,2024,121.838510628137,12.948158038275
$GPGGA,200726.00,3253.5435,N,11749.7331,W,1,10,0.8,12.5,M,-34.6,M,,*60
$PYRTM,2024,121.838517921840,12.948165331991
$GPGGA,200727.00,3253.5446,N,11749.7350,W,1,10,0.8,13.3,M,-34.6,M,,*65
$PYRTM,2024,121.838536554375,12.948183964514
$GPGGA,200728.00,3253.5458,N,11749.7369,W,1,10,0.8,14.2,M,-34.6,M,,*69
$PYRTM,2024,121.838545367303,12.948192777442
$GPGGA,200729.00,3253.5470,N,11749.7393,W,1,10,0.8,14.0,M,-34.6,M,,*65
$PYRTM,2024,121.838556925683,12.948204335822
$GPGGA,200730.00,3253.5480,N,11749.7419,W,1,10,0.8,13.1,M,-34.6,M,,*61
$PYRTM,2024,121.838568506956,12.948215917095
$GPGGA,200731.00,3253.5488,N,11749.7441,W,1,10,0.8,12.4,M,-34.6,M,,*61
$PYRTM,2024,121.838580073495,12.948227483634
$GPGGA,200732.00,3253.5499,N,11749.7460,W,1,10,0.8,12.8,M,-34.6,M,,*6D
$PYRTM,2024,121.838591659769,12.948239069907
$GPGGA,200733.00,3253.5511,N,11749.7480,W,1,10,0.8,13.2,M,-34.6,M,,*68
$PYRTM,2024,121.838603223576,12.948250633727
$GPGGA,200734.00,3253.5523,N,11749.7504,W,1,10,0.8,13.1,M,-34.6,M,,*60
$PYRTM,2024,121.838614808333,12.948262218472
$GPGGA,200735.00,3253.5534,N,11749.7529,W,1,10,0.8,12.8,M,-34.6,M,,*60
$PYRTM,2024,121.838626266343,12.948273676481
$GPGGA,200736.00,3253.5542,N,11749.7552,W,1,10,0.8,12.8,M,-34.6,M,,*6E
$PYRTM,2024,121.838637840845,12.948285250984
$GPGGA,200737.00,3253.5551,N,11749.7571,W,1,10,0.8,13.3,M,-34.6,M,,*66
$PYRTM,2024,121.838649415069,12.948296825208
$GPGGA,200738.00,3253.5563,N,11749.7592,W,1,10,0.8,13.5,M,-34.6,M,,*63
$PYRTM,2024,121.838656808414,12.948304218553
$GPGGA,200739.00,3253.5575,N,11749.7614,W,1,10,0.8,13.0,M,-34.6,M,,*6D
$PYRTM,2024,121.838672565301,12.948319975440
$GPGGA,200740.00,3253.5586,N,11749.7637,W,1,10,0.8,12.5,M,-34.6,M,,*6A
$PYRTM,2024,121.838684138715,12.948331548854
$GPGGA,200741.00,3253.5594,N,11749.7661,W,1,10,0.8,12.1,M,-34.6,M,,*6F
$PYRTM,2024,121.838695711539,12.948343121678
$GPGGA,200742.00,3253.5603,N,11749.7682,W,1,10,0.8,12.2,M,-34.6,M,,*6F
$PYRTM,2024,121.838707285394,12.948354695532
$GPGGA,200743.00,3253.5614,N,11749.7702,W,1,10,0.8,12.7,M,-34.6,M,,*64
$PYRTM,2024,121.838718859097,12.948366269236
$GPGGA,200744.00,3253.5627,N,11749.7724,W,1,10,0.8,13.0,M,-34.6,M,,*61
$PYRTM,2024,121.838730434271,12.948377844410
$GPGGA,200745.00,3253.5638,N,11749.7748,W,1,10,0.8,12.8,M,-34.6,M,,*6D
$PYRTM,2024,121.838742009387,12.948389419525
$GPGGA,200746.00,3253.5647,N,11749.7772,W,1,10,0.8,12.4,M,-34.6,M,,*63
$PYRTM,2024,121.838753582315,12.948400992465
$GPGGA,200747.00,3253.5656,N,11749.7794,W,1,10,0.8,12.4,M,-34.6,M,,*6A
$PYRTM,2024,121.838765156655,12.948412566794
$GPGGA,200748.00,3253.5667,N,11749.7816,W,1,10,0.8,12.6,M,-34.6,M,,*60
$PYRTM,2024,121.838772551829,12.948419961968
$GPGGA,200749.00,3253.5679,N,11749.7838,W,1,10,0.8,12.6,M,-34.6,M,,*62
$PYRTM,2024,121.838788304329,12.948435714468
$GPGGA,200750.00,3253.5690,N,11749.7860,W,1,10,0.8,12.7,M,-34.6,M,,*61
$PYRTM,2024,121.838799882523,12.948447292662
$GPGGA,200751.00,3253.5700,N,11749.7883,W,1,10,0.8,12.7,M,-34.6,M,,*65
$PYRTM,2024,121.838811453009,12.948458863148
$GPGGA,200752.00,3253.5709,N,11749.7907,W,1,10,0.8,12.6,M,-34.6,M,,*63
$PYRTM,2024,121.838823030799,12.948470440938
$GPGGA,200753.00,3253.5719,N,11749.7930,W,1,10,0.8,12.5,M,-34.6,M,,*64
$PYRTM,2024,121.838834601863,12.948482012002
$GPGGA,200754.00,3253.5731,N,11749.7950,W,1,10,0.8,12.5,M,-34.6,M,,*6F
$PYRTM,2024,121.838846179514,12.948493589664
$GPGGA,200755.00,3253.5743,N,11749.7971,W,1,10,0.8,12.6,M,-34.6,M,,*6B
$PYRTM,2024,121.838857752674,12.948505162812
$GPGGA,200756.00,3253.5753,N,11749.7995,W,1,10,0.8,12.5,M,-34.6,M,,*60
$PYRTM,2024,121.838869326331,12.948516736470
$GPGGA,200757.00,3253.5762,N,11749.8019,W,1,10,0.8,12.3,M,-34.6,M,,*67
$PYRTM,2024,121.838876732014,12.948524142153
$GPGGA,200758.00,3253.5772,N,11749.8042,W,1,10,0.8,12.3,M,-34.6,M,,*67
$PYRTM,2024,121.838895368090,12.948542778229
$GPGGA,200759.00,3253.5783,N,11749.8063,W,1,10,0.8,12.6,M,-34.6,M,,*6E
$PYRTM,2024,121.838904046227,12.948551456366
$GPGGA,200800.00,3253.5795,N,11749.8084,W,1,10,0.8,13.1,M,-34.6,M,,*65
$PYRTM,2024,121.838915621782,12.948563031921
$GPGGA,200801.00,3253.5807,N,11749.8107,W,1,10,0.8,13.3,M,-34.6,M,,*68
$PYRTM,2024,121.838923015961,12.948570426100
$GPGGA,200802.00,3253.5818,N,11749.8131,W,1,10,0.8,13.0,M,-34.6,M,,*63
$PYRTM,2024,121.838938769039,12.948586179178
$GPGGA,200803.00,3253.5828,N,11749.8154,W,1,10,0.8,12.6,M,-34.6,M,,*65
$PYRTM,2024,121.838950341771,12.948597751910
$GPGGA,200804.00,3253.5837,N,11749.8176,W,1,10,0.8,12.5,M,-34.6,M,,*6F
$PYRTM,2024,121.838961920266,12.948609330405
$GPGGA,200805.00,3253.5847,N,11749.8198,W,1,10,0.8,12.7,M,-34.6,M,,*6B
$PYRTM,2024,121.838973490706,12.948620900845
$GPGGA,200806.00,3253.5859,N,11749.8220,W,1,10,0.8,12.9,M,-34.6,M,,*69
$PYRTM,2024,121.838985067859,12.948632477998
$GPGGA,200807.00,3253.5871,N,11749.8243,W,1,10,0.8,12.7,M,-34.6,M,,*69
$PYRTM,2024,121.838996639259,12.948644049398
$GPGGA,200808.00,3253.5882,N,11749.8267,W,1,10,0.8,12.5,M,-34.6,M,,*6E
$PYRTM,2024,121.839008215475,12.948655625613
$GPGGA,200809.00,3253.5890,N,11749.8289,W,1,10,0.8,12.8,M,-34.6,M,,*61
$PYRTM,2024,121.839019787326,12.948667197465
$GPGGA,200810.00,3253.5898,N,11749.8311,W,1,10,0.8,13.2,M,-34.6,M,,*6A
$PYRTM,2024,121.839031361701,12.948678771840
$GPGGA,200811.00,3253.5910,N,11749.8333,W,1,10,0.8,13.2,M,-34.6,M,,*6A
$PYRTM,2024,121.839042936875,12.948690347014
$GPGGA,200812.00,3253.5923,N,11749.8357,W,1,10,0.8,12.5,M,-34.6,M,,*6D
$PYRTM,2024,121.839054512639,12.948701922778
$GPGGA,200813.00,3253.5934,N,11749.8380,W,1,10,0.8,11.9,M,-34.6,M,,*6F
$PYRTM,2024,121.839061919606,12.948709329745
$GPGGA,200814.00,3253.5941,N,11749.8401,W,1,10,0.8,12.2,M,-34.6,M,,*6C
$PYRTM,2024,121.839077658194,12.948725068333
$GPGGA,200815.00,3253.5951,N,11749.8423,W,1,10,0.8,12.7,M,-34.6,M,,*69
$PYRTM,2024,121.839089227373,12.948736637512
$GPGGA,200816.00,3253.5963,N,11749.8445,W,1,10,0.8,12.9,M,-34.6,M,,*65
$PYRTM,2024,121.839096628449,12.948744038600
$GPGGA,200817.00,3253.5975,N,11749.8469,W,1,10,0.8,12.8,M,-34.6,M,,*6C
$PYRTM,2024,121.839112382616,12.948759792755
$GPGGA,200818.00,3253.5985,N,11749.8492,W,1,10,0.8,12.5,M,-34.6,M,,*65
$PYRTM,2024,121.839123954896,12.948771365035
$GPGGA,200819.00,3253.5994,N,11749.8515,W,1,10,0.8,12.5,M,-34.6,M,,*6A
$PYRTM,2024,121.839135528495,12.948782938634
$GPGGA,200820.00,3253.6004,N,11749.8538,W,1,10,0.8,12.4,M,-34.6,M,,*6D
$PYRTM,2024,121.839147104977,12.948794515116
$GPGGA,200821.00,3253.6015,N,11749.8560,W,1,10,0.8,12.5,M,-34.6,M,,*60
$PYRTM,2024,121.839158676979,12.948806087118
$GPGGA,200822.00,3253.6025,N,11749.8582,W,1,10,0.8,12.9,M,-34.6,M,,*60
$PYRTM,2024,121.839170265127,12.948817675266
$GPGGA,200823.00,3253.6035,N,11749.8604,W,1,10,0.8,13.2,M,-34.6,M,,*67
$PYRTM,2024,121.839177647627,12.948825057766
$GPGGA,200824.00,3253.6046,N,11749.8628,W,1,10,0.8,13.0,M,-34.6,M,,*68
$PYRTM,2024,121.839193402801,12.948840812940
$GPGGA,200825.00,3253.6057,N,11749.8653,W,1,10,0.8,12.4,M,-34.6,M,,*60
$PYRTM,2024,121.839204969352,12.948852379491
$GPGGA,200826.00,3253.6067,N,11749.8675,W,1,10,0.8,12.1,M,-34.6,M,,*61
$PYRTM,2024,121.839212370162,12.948859780301
$GPGGA,200827.00,3253.6076,N,11749.8694,W,1,10,0.8,12.7,M,-34.6,M,,*69
$PYRTM,2024,121.839228121667,12.948875531806
$GPGGA,200828.00,3253.6087,N,11749.8715,W,1,10,0.8,13.4,M,-34.6,M,,*62
$PYRTM,2024,121.839235517616,12.948882927755
$GPGGA,200829.00,3253.6099,N,11749.8741,W,1,10,0.8,13.3,M,-34.6,M,,*6A
$PYRTM,2024,121.839254151053,12.948901561192
$GPGGA,200830.00,3253.6109,N,11749.8767,W,1,10,0.8,12.6,M,-34.6,M,,*6A
$PYRTM,2024,121.839262845602,12.948910255741
$GPGGA,200831.00,3253.6118,N,11749.8788,W,1,10,0.8,12.5,M,-34.6,M,,*69
$PYRTM,2024,121.839270240301,12.948917650451
$GPGGA,200832.00,3253.6129,N,11749.8807,W,1,10,0.8,13.0,M,-34.6,M,,*64
$PYRTM,2024,121.839285987639,12.948933397778
$GPGGA,200833.00,3253.6140,N,11749.8829,W,1,10,0.8,13.4,M,-34.6,M,,*62
$PYRTM,2024,121.839297563264,12.948944973403
$GPGGA,200834.00,3253.6151,N,11749.8854,W,1,10,0.8,13.0,M,-34.6,M,,*6B
$PYRTM,2024,121.839309143657,12.948956553796
$GPGGA,200835.00,3253.6160,N,11749.8880,W,1,10,0.8,12.4,M,-34.6,M,,*64
