$PYRTM,2024,127.750003694676,18.859651104815
$GPGGA,175959.00,3338.5737,N,11900.9301,W,1,10,0.8,11.3,M,-34.0,M,,*67
$PYRTM,2024,127.750015270185,18.859662680324
$GPGGA,180000.00,3338.5738,N,11900.9296,W,1,10,0.8,11.2,M,-34.0,M,,*69
$PYRTM,2024,127.750022676053,18.859670086204
$GPGGA,180001.00,3338.5737,N,11900.9290,W,1,10,0.8,11.1,M,-34.0,M,,*62
$PYRTM,2024,127.750038417060,18.859685827199
$GPGGA,180002.00,3338.5734,N,11900.9286,W,1,10,0.8,11.0,M,-34.0,M,,*64
$PYRTM,2024,127.750045827176,18.859693237315
$GPGGA,180003.00,3338.5730,N,11900.9282,W,1,10,0.8,11.0,M,-34.0,M,,*65
$PYRTM,2024,127.750061680799,18.859709090949
$GPGGA,180004.00,3338.5728,N,11900.9279,W,1,10,0.8,11.0,M,-34.0,M,,*6F
$PYRTM,2024,127.750073138727,18.859720548866
$GPGGA,180005.00,3338.5727,N,11900.9275,W,1,10,0.8,11.1,M,-34.0,M,,*6C
$PYRTM,2024,127.750084708021,18.859732118160
$GPGGA,180006.00,3338.5727,N,11900.9269,W,1,10,0.8,11.1,M,-34.0,M,,*62
$PYRTM,2024,127.750096286609,18.859743696759
$GPGGA,180007.00,3338.5727,N,11900.9262,W,1,10,0.8,11.0,M,-34.0,M,,*69
$PYRTM,2024,127.750107860764,18.859755270903
$GPGGA,180008.00,3338.5724,N,11900.9257,W,1,10,0.8,10.8,M,-34.0,M,,*6A
$PYRTM,2024,127.750115254861,18.859762665012
$GPGGA,180009.00,3338.5720,N,11900.9253,W,1,10,0.8,10.8,M,-34.0,M,,*6B
$PYRTM,2024,127.750133905058,18.859781315185
$GPGGA,180010.00,3338.5717,N,11900.9251,W,1,10,0.8,10.8,M,-34.0,M,,*65
$PYRTM,2024,127.750142578241,18.859789988380
$GPGGA,180011.00,3338.5716,N,11900.9247,W,1,10,0.8,10.9,M,-34.0,M,,*63
$PYRTM,2024,127.750154152674,18.859801562812
$GPGGA,180012.00,3338.5717,N,11900.9241,W,1,10,0.8,10.9,M,-34.0,M,,*67
$PYRTM,2024,127.750165732442,18.859813142581
$GPGGA,180013.00,3338.5715,N,11900.9235,W,1,10,0.8,10.8,M,-34.0,M,,*66
$PYRTM,2024,127.750177308287,18.859824718426
$GPGGA,180014.00,3338.5711,N,11900.9231,W,1,10,0.8,10.8,M,-34.0,M,,*61
$PYRTM,2024,127.750184715220,18.859832125359
$GPGGA,180015.00,3338.5708,N,11900.9228,W,1,10,0.8,10.8,M,-34.0,M,,*60
$PYRTM,2024,127.750200464861,18.859847875000
$GPGGA,180016.00,3338.5706,N,11900.9224,W,1,10,0.8,10.8,M,-34.0,M,,*61
$PYRTM,2024,127.750212028935,18.859859439074
$GPGGA,180017.00,3338.5705,N,11900.9219,W,1,10,0.8,10.9,M,-34.0,M,,*6C
$PYRTM,2024,127.750223601377,18.859871011516
$GPGGA,180018.00,3338.5705,N,11900.9214,W,1,10,0.8,10.9,M,-34.0,M,,*6E
$PYRTM,2024,127.750235175706,18.859882585845
$GPGGA,180019.00,3338.5703,N,11900.9210,W,1,10,0.8,11.0,M,-34.0,M,,*65
$PYRTM,2024,127.750246750035,18.859894160174
$GPGGA,180020.00,3338.5701,N,11900.9205,W,1,10,0.8,11.1,M,-34.0,M,,*68
$PYRTM,2024,127.750254156678,18.859901566817
$GPGGA,180021.00,3338.5698,N,11900.9200,W,1,10,0.8,11.1,M,-34.0,M,,*6D
$PYRTM,2024,127.750269900359,18.859917310498
$GPGGA,180022.00,3338.5697,N,11900.9195,W,1,10,0.8,11.1,M,-34.0,M,,*6E
$PYRTM,2024,127.750281472350,18.859928882488
$GPGGA,180023.00,3338.5696,N,11900.9190,W,1,10,0.8,11.1,M,-34.0,M,,*6B
$PYRTM,2024,127.750293054780,18.859940464919
$GPGGA,180024.00,3338.5695,N,11900.9186,W,1,10,0.8,11.1,M,-34.0,M,,*68
$PYRTM,2024,127.750304621354,18.859952031493
$GPGGA,180025.00,3338.5692,N,11900.9182,W,1,10,0.8,11.1,M,-34.0,M,,*6A
$PYRTM,2024,127.750316203079,18.859963613229
$GPGGA,180026.00,3338.5689,N,11900.9177,W,1,10,0.8,11.0,M,-34.0,M,,*68
$PYRTM,2024,127.750323597222,18.859971007361
$GPGGA,180027.00,3338.5688,N,11900.9171,W,1,10,0.8,10.9,M,-34.0,M,,*66
$PYRTM,2024,127.750335279630,18.859982689769
$GPGGA,180028.00,3338.5686,N,11900.9167,W,1,10,0.8,10.9,M,-34.0,M,,*60
$PYRTM,2024,127.750350918993,18.859998329132
$GPGGA,180029.00,3338.5684,N,11900.9164,W,1,10,0.8,11.0,M,-34.0,M,,*68
$PYRTM,2024,127.750362503090,18.860009913229
$GPGGA,180030.00,3338.5681,N,11900.9160,W,1,10,0.8,11.0,M,-34.0,M,,*61
$PYRTM,2024,127.750374065845,18.860021475984
$GPGGA,180031.00,3338.5679,N,11900.9155,W,1,10,0.8,11.1,M,-34.0,M,,*60
$PYRTM,2024,127.750385650903,18.860033061042
$GPGGA,180032.00,3338.5678,N,11900.9150,W,1,10,0.8,11.1,M,-34.0,M,,*67
$PYRTM,2024,127.750397215613,18.860044625752
$GPGGA,180033.00,3338.5676,N,11900.9145,W,1,10,0.8,11.2,M,-34.0,M,,*6F
$PYRTM,2024,127.750408799815,18.860056209954
$GPGGA,180034.00,3338.5674,N,11900.9140,W,1,10,0.8,11.3,M,-34.0,M,,*6E
$PYRTM,2024,127.750420362627,18.860067772766
$GPGGA,180035.00,3338.5672,N,11900.9136,W,1,10,0.8,11.5,M,-34.0,M,,*6E
$PYRTM,2024,127.750431951748,18.860079361887
$GPGGA,180036.00,3338.5670,N,11900.9131,W,1,10,0.8,11.5,M,-34.0,M,,*68
$PYRTM,2024,127.750443512697,18.860090922836
$GPGGA,180037.00,3338.5670,N,11900.9127,W,1,10,0.8,11.6,M,-34.0,M,,*6D
$PYRTM,2024,127.750455101111,18.860102511250
$GPGGA,180038.00,3338.5668,N,11900.9122,W,1,10,0.8,11.7,M,-34.0,M,,*6F
$PYRTM,2024,127.750466661748,18.860114071887
$GPGGA,180039.00,3338.5666,N,11900.9117,W,1,10,0.8,11.7,M,-34.0,M,,*66
$PYRTM,2024,127.750474053125,18.860121463264
$GPGGA,180040.00,3338.5663,N,11900.9112,W,1,10,0.8,11.6,M,-34.0,M,,*69
$PYRTM,2024,127.750492700926,18.860140111065
$GPGGA,180041.00,3338.5662,N,11900.9106,W,1,10,0.8,11.5,M,-34.0,M,,*6F
$PYRTM,2024,127.750501395556,18.860148805694
$GPGGA,180042.00,3338.5661,N,11900.9102,W,1,10,0.8,11.6,M,-34.0,M,,*68
$PYRTM,2024,127.750512959769,18.860160369907
$GPGGA,180043.00,3338.5660,N,11900.9098,W,1,10,0.8,11.7,M,-34.0,M,,*6B
$PYRTM,2024,127.750524534954,18.860171945093
$GPGGA,180044.00,3338.5656,N,11900.9095,W,1,10,0.8,11.8,M,-34.0,M,,*6B
$PYRTM,2024,127.750536106516,18.860183516655
$GPGGA,180045.00,3338.5652,N,11900.9091,W,1,10,0.8,11.7,M,-34.0,M,,*65
$PYRTM,2024,127.750547680856,18.860195091007
$GPGGA,180046.00,3338.5651,N,11900.9085,W,1,10,0.8,11.7,M,-34.0,M,,*60
$PYRTM,2024,127.750559255069,18.860206665208
$GPGGA,180047.00,3338.5652,N,11900.9078,W,1,10,0.8,11.6,M,-34.0,M,,*61
$PYRTM,2024,127.750570840961,18.860218251100
$GPGGA,180048.00,3338.5651,N,11900.9073,W,1,10,0.8,11.6,M,-34.0,M,,*66
$PYRTM,2024,127.750582403692,18.860229813843
$GPGGA,180049.00,3338.5648,N,11900.9070,W,1,10,0.8,11.8,M,-34.0,M,,*62
$PYRTM,2024,127.750589794780,18.860237204919
$GPGGA,180050.00,3338.5644,N,11900.9068,W,1,10,0.8,11.8,M,-34.0,M,,*6F
$PYRTM,2024,127.750605551505,18.860252961644
$GPGGA,180051.00,3338.5642,N,11900.9063,W,1,10,0.8,11.9,M,-34.0,M,,*62
$PYRTM,2024,127.750612942442,18.860260352581
$GPGGA,180052.00,3338.5642,N,11900.9057,W,1,10,0.8,11.9,M,-34.0,M,,*66
$PYRTM,2024,127.750624632778,18.860272042917
$GPGGA,180053.00,3338.5642,N,11900.9051,W,1,10,0.8,11.9,M,-34.0,M,,*61
$PYRTM,2024,127.750640297187,18.860287707326
$GPGGA,180054.00,3338.5641,N,11900.9046,W,1,10,0.8,11.8,M,-34.0,M,,*62
$PYRTM,2024,127.750651847384,18.860299257523
$GPGGA,180055.00,3338.5638,N,11900.9043,W,1,10,0.8,11.8,M,-34.0,M,,*68
$PYRTM,2024,127.750663426979,18.860310837118
$GPGGA,180056.00,3338.5635,N,11900.9040,W,1,10,0.8,11.8,M,-34.0,M,,*65
$PYRTM,2024,127.750674994560,18.860322404711
$GPGGA,180057.00,3338.5634,N,11900.9035,W,1,10,0.8,11.9,M,-34.0,M,,*66
$PYRTM,2024,127.750682387905,18.860329798044
$GPGGA,180058.00,3338.5634,N,11900.9030,W,1,10,0.8,11.8,M,-34.0,M,,*6D
$PYRTM,2024,127.750698143461,18.860345553600
$GPGGA,180059.00,3338.5633,N,11900.9024,W,1,10,0.8,11.9,M,-34.0,M,,*6F
$PYRTM,2024,127.750705536759,18.860352946898
$GPGGA,180100.00,3338.5631,N,11900.9020,W,1,10,0.8,11.9,M,-34.0,M,,*64
$PYRTM,2024,127.750721289433,18.860368699572
$GPGGA,180101.00,3338.5628,N,11900.9016,W,1,10,0.8,11.9,M,-34.0,M,,*68
$PYRTM,2024,127.750732863692,18.860380273831
$GPGGA,180102.00,3338.5625,N,11900.9012,W,1,10,0.8,11.9,M,-34.0,M,,*62
$PYRTM,2024,127.750740265359,18.860387675498
$GPGGA,180103.00,3338.5624,N,11900.9006,W,1,10,0.8,11.9,M,-34.0,M,,*67
$PYRTM,2024,127.750756011829,18.860403421968
$GPGGA,180104.00,3338.5624,N,11900.9001,W,1,10,0.8,11.8,M,-34.0,M,,*66
$PYRTM,2024,127.750767586678,18.860414996817
$GPGGA,180105.00,3338.5623,N,11900.8996,W,1,10,0.8,11.8,M,-34.0,M,,*66
$PYRTM,2024,127.750779185648,18.860426595787
$GPGGA,180106.00,3338.5620,N,11900.8992,W,1,10,0.8,11.7,M,-34.0,M,,*6D
$PYRTM,2024,127.750790734259,18.860438144398
$GPGGA,180107.00,3338.5617,N,11900.8989,W,1,09,0.8,11.7,M,-34.0,M,,*6A
$PYRTM,2024,127.750802316227,18.860449726377
$GPGGA,180108.00,3338.5614,N,11900.8986,W,1,10,0.8,11.8,M,-34.0,M,,*6E
$PYRTM,2024,127.750813883623,18.860461293762
$GPGGA,180109.00,3338.5614,N,11900.8980,W,1,10,0.8,11.8,M,-34.0,M,,*69
$PYRTM,2024,127.750825467905,18.860472878044
$GPGGA,180110.00,3338.5614,N,11900.8974,W,1,10,0.8,11.8,M,-34.0,M,,*6A
$PYRTM,2024,127.750832864063,18.860480274213
$GPGGA,180111.00,3338.5612,N,11900.8968,W,1,10,0.8,11.8,M,-34.0,M,,*60
$PYRTM,2024,127.750848604687,18.860496014826
$GPGGA,180112.00,3338.5608,N,11900.8964,W,1,10,0.8,11.9,M,-34.0,M,,*65
$PYRTM,2024,127.750860180336,18.860507590475
$GPGGA,180113.00,3338.5605,N,11900.8961,W,1,10,0.8,11.9,M,-34.0,M,,*6C
$PYRTM,2024,127.750871754340,18.860519164479
$GPGGA,180114.00,3338.5605,N,11900.8956,W,1,10,0.8,12.0,M,-34.0,M,,*65
$PYRTM,2024,127.750883329028,18.860530739167
$GPGGA,180115.00,3338.5606,N,11900.8950,W,1,10,0.8,11.8,M,-34.0,M,,*6A
$PYRTM,2024,127.750894913148,18.860542323287
$GPGGA,180116.00,3338.5606,N,11900.8943,W,1,10,0.8,11.7,M,-34.0,M,,*64
$PYRTM,2024,127.750906475995,18.860553886134
$GPGGA,180117.00,3338.5604,N,11900.8937,W,1,10,0.8,11.7,M,-34.0,M,,*64
$PYRTM,2024,127.750918049549,18.860565459687
$GPGGA,180118.00,3338.5600,N,11900.8934,W,1,10,0.8,11.7,M,-34.0,M,,*6C
$PYRTM,2024,127.750929624201,18.860577034352
$GPGGA,180119.00,3338.5596,N,11900.8932,W,1,10,0.8,11.7,M,-34.0,M,,*67
$PYRTM,2024,127.750941198229,18.860588608380
$GPGGA,180120.00,3338.5595,N,11900.8928,W,1,10,0.8,11.6,M,-34.0,M,,*64
$PYRTM,2024,127.750952774676,18.860600184815
$GPGGA,180121.00,3338.5596,N,11900.8922,W,1,10,0.8,11.8,M,-34.0,M,,*62
$PYRTM,2024,127.750964354653,18.860611764792
$GPGGA,180122.00,3338.5594,N,11900.8916,W,1,10,0.8,11.7,M,-34.0,M,,*6B
$PYRTM,2024,127.750975919062,18.860623329201
$GPGGA,180123.00,3338.5591,N,11900.8912,W,1,10,0.8,11.6,M,-34.0,M,,*6A
$PYRTM,2024,127.750987506852,18.860634916991
$GPGGA,180124.00,3338.5587,N,11900.8909,W,1,10,0.8,11.6,M,-34.0,M,,*60
$PYRTM,2024,127.750994904502,18.860642314641
$GPGGA,180125.00,3338.5583,N,11900.8907,W,1,10,0.8,11.6,M,-34.0,M,,*6B
$PYRTM,2024,127.751010642500,18.860658052650
$GPGGA,180126.00,3338.5582,N,11900.8903,W,1,09,0.8,11.5,M,-34.0,M,,*66
$PYRTM,2024,127.751022216887,18.860669627025
$GPGGA,180127.00,3338.5583,N,11900.8896,W,1,09,0.8,11.5,M,-34.0,M,,*6B
$PYRTM,2024,127.751029610729,18.860677020868
$GPGGA,180128.00,3338.5583,N,11900.8889,W,1,10,0.8,11.3,M,-34.0,M,,*64
$PYRTM,2024,127.751045366088,18.860692776227
$GPGGA,180129.00,3338.5581,N,11900.8882,W,1,10,0.8,11.0,M,-34.0,M,,*6F
$PYRTM,2024,127.751056938750,18.860704348900
$GPGGA,180130.00,3338.5579,N,11900.8878,W,1,10,0.8,11.2,M,-34.0,M,,*67
$PYRTM,2024,127.751064340718,18.860711750856
$GPGGA,180131.00,3338.5577,N,11900.8874,W,1,10,0.8,11.4,M,-34.0,M,,*62
$PYRTM,2024,127.751080087674,18.860727497813
$GPGGA,180132.00,3338.5577,N,11900.8869,W,1,09,0.8,11.6,M,-34.0,M,,*67
$PYRTM,2024,127.751091657581,18.860739067720
$GPGGA,180133.00,3338.5577,N,11900.8864,W,1,10,0.8,11.9,M,-34.0,M,,*6C
$PYRTM,2024,127.751103261157,18.860750671296
$GPGGA,180134.00,3338.5575,N,11900.8860,W,1,10,0.8,11.8,M,-34.0,M,,*6C
$PYRTM,2024,127.751114809456,18.860762219595
$GPGGA,180135.00,3338.5572,N,11900.8856,W,1,10,0.8,11.7,M,-34.0,M,,*60
$PYRTM,2024,127.751126409433,18.860773819572
$GPGGA,180136.00,3338.5570,N,11900.8854,W,1,10,0.8,11.8,M,-34.0,M,,*6C
$PYRTM,2024,127.751137958507,18.860785368646
$GPGGA,180137.00,3338.5568,N,11900.8850,W,1,10,0.8,11.8,M,-34.0,M,,*60
$PYRTM,2024,127.751149554931,18.860796965069
$GPGGA,180138.00,3338.5567,N,11900.8845,W,1,10,0.8,11.8,M,-34.0,M,,*64
$PYRTM,2024,127.751161107512,18.860808517650
$GPGGA,180139.00,3338.5566,N,11900.8838,W,1,10,0.8,11.8,M,-34.0,M,,*6E
$PYRTM,2024,127.751172692234,18.860820102373
$GPGGA,180140.00,3338.5562,N,11900.8833,W,1,09,0.8,11.8,M,-34.0,M,,*67
$PYRTM,2024,127.751184255289,18.860831665428
$GPGGA,180141.00,3338.5558,N,11900.8830,W,1,10,0.8,11.7,M,-34.0,M,,*6B
$PYRTM,2024,127.751191650046,18.860839060185
$GPGGA,180142.00,3338.5555,N,11900.8826,W,1,10,0.8,11.5,M,-34.0,M,,*60
$PYRTM,2024,127.751210296782,18.860857706921
$GPGGA,180143.00,3338.5555,N,11900.8821,W,1,10,0.8,11.4,M,-34.0,M,,*67
$PYRTM,2024,127.751218988808,18.860866398947
$GPGGA,180144.00,3338.5555,N,11900.8815,W,1,10,0.8,11.3,M,-34.0,M,,*60
$PYRTM,2024,127.751230551030,18.860877961169
$GPGGA,180145.00,3338.5553,N,11900.8810,W,1,10,0.8,11.4,M,-34.0,M,,*65
$PYRTM,2024,127.751242125880,18.860889536019
$GPGGA,180146.00,3338.5548,N,11900.8807,W,1,10,0.8,11.8,M,-34.0,M,,*66
$PYRTM,2024,127.751253699676,18.860901109815
$GPGGA,180147.00,3338.5544,N,11900.8804,W,1,10,0.8,12.0,M,-34.0,M,,*63
$PYRTM,2024,127.751265272685,18.860912682824
$GPGGA,180148.00,3338.5542,N,11900.8801,W,1,10,0.8,12.2,M,-34.0,M,,*6D
$PYRTM,2024,127.751276846817,18.860924256956
$GPGGA,180149.00,3338.5543,N,11900.8795,W,1,10,0.8,12.1,M,-34.0,M,,*6C
$PYRTM,2024,127.751288447153,18.860935857292
$GPGGA,180150.00,3338.5544,N,11900.8787,W,1,10,0.8,11.8,M,-34.0,M,,*6A
$PYRTM,2024,127.751299995336,18.860947405475
$GPGGA,180151.00,3338.5541,N,11900.8783,W,1,10,0.8,12.0,M,-34.0,M,,*61
$PYRTM,2024,127.751311580509,18.860958990648
$GPGGA,180152.00,3338.5537,N,11900.8781,W,1,10,0.8,11.8,M,-34.0,M,,*6A
$PYRTM,2024,127.751318979294,18.860966389433
$GPGGA,180153.00,3338.5535,N,11900.8778,W,1,10,0.8,11.7,M,-34.0,M,,*60
$PYRTM,2024,127.751334729699,18.860982139838
$GPGGA,180154.00,3338.5535,N,11900.8773,W,1,10,0.8,11.8,M,-34.0,M,,*63
$PYRTM,2024,127.751342126389,18.860989536528
$GPGGA,180155.00,3338.5536,N,11900.8767,W,1,10,0.8,11.8,M,-34.0,M,,*64
$PYRTM,2024,127.751353803299,18.861001213438
$GPGGA,180156.00,3338.5535,N,11900.8762,W,1,10,0.8,11.9,M,-34.0,M,,*60
$PYRTM,2024,127.751369437049,18.861016847187
$GPGGA,180157.00,3338.5530,N,11900.8758,W,1,10,0.8,11.9,M,-34.0,M,,*6D
$PYRTM,2024,127.751381014097,18.861028424236
$GPGGA,180158.00,3338.5526,N,11900.8753,W,1,10,0.8,11.8,M,-34.0,M,,*6F
$PYRTM,2024,127.751392588067,18.861039998206
$GPGGA,180159.00,3338.5526,N,11900.8748,W,1,10,0.8,11.8,M,-34.0,M,,*64
$PYRTM,2024,127.751404162650,18.861051572789
$GPGGA,180200.00,3338.5528,N,11900.8742,W,1,10,0.8,11.9,M,-34.0,M,,*6E
$PYRTM,2024,127.751411570266,18.861058980405
$GPGGA,180201.00,3338.5528,N,11900.8736,W,1,10,0.8,11.8,M,-34.0,M,,*6D
$PYRTM,2024,127.751427311447,18.861074721586
$GPGGA,180202.00,3338.5525,N,11900.8731,W,1,10,0.8,11.9,M,-34.0,M,,*65
$PYRTM,2024,127.751434716944,18.861082127083
$GPGGA,180203.00,3338.5522,N,11900.8727,W,1,11,0.8,11.7,M,-34.0,M,,*6B
$PYRTM,2024,127.751450458634,18.861097868773
$GPGGA,180204.00,3338.5520,N,11900.8723,W,1,11,0.8,12.4,M,-34.0,M,,*6A
$PYRTM,2024,127.751462033542,18.861109443692
$GPGGA,180205.00,3338.5518,N,11900.8719,W,1,11,0.8,12.6,M,-34.0,M,,*6B
$PYRTM,2024,127.751473619676,18.861121029815
$GPGGA,180206.00,3338.5516,N,11900.8714,W,1,11,0.8,13.1,M,-34.0,M,,*6D
$PYRTM,2024,127.751485182975,18.861132593113
$GPGGA,180207.00,3338.5516,N,11900.8708,W,1,11,0.8,13.2,M,-34.0,M,,*62
$PYRTM,2024,127.751496763102,18.861144173241
$GPGGA,180208.00,3338.5515,N,11900.8702,W,1,11,0.8,13.3,M,-34.0,M,,*65
$PYRTM,2024,127.751504162650,18.861151572789
$GPGGA,180209.00,3338.5513,N,11900.8698,W,1,11,0.8,13.2,M,-34.0,M,,*61
$PYRTM,2024,127.751519929514,18.861167339653
$GPGGA,180210.00,3338.5510,N,11900.8693,W,1,11,0.8,13.0,M,-34.0,M,,*63
$PYRTM,2024,127.751531473449,18.861178883588
$GPGGA,180211.00,3338.5508,N,11900.8688,W,1,11,0.8,13.0,M,-34.0,M,,*61
$PYRTM,2024,127.751543064583,18.861190474722
$GPGGA,180212.00,3338.5508,N,11900.8684,W,1,11,0.8,12.9,M,-34.0,M,,*66
$PYRTM,2024,127.751550460324,18.861197870463
$GPGGA,180213.00,3338.5507,N,11900.8680,W,1,11,0.8,12.9,M,-34.0,M,,*6C
$PYRTM,2024,127.751569095162,18.861216505301
$GPGGA,180214.00,3338.5504,N,11900.8674,W,1,11,0.8,12.8,M,-34.0,M,,*62
$PYRTM,2024,127.751577775220,18.861225185370
$GPGGA,180215.00,3338.5502,N,11900.8669,W,1,11,0.8,12.7,M,-34.0,M,,*66
$PYRTM,2024,127.751589349363,18.861236759502
$GPGGA,180216.00,3338.5501,N,11900.8664,W,1,11,0.8,12.6,M,-34.0,M,,*6A
$PYRTM,2024,127.751600922431,18.861248332569
$GPGGA,180217.00,3338.5500,N,11900.8660,W,1,11,0.8,12.6,M,-34.0,M,,*6E
$PYRTM,2024,127.751612496852,18.861259906991
$GPGGA,180218.00,3338.5499,N,11900.8655,W,1,11,0.8,12.5,M,-34.0,M,,*65
$PYRTM,2024,127.751624071586,18.861271481725
$GPGGA,180219.00,3338.5496,N,11900.8651,W,1,11,0.8,12.5,M,-34.0,M,,*6F
$PYRTM,2024,127.751635660440,18.861283070579
$GPGGA,180220.00,3338.5493,N,11900.8647,W,1,11,0.8,12.4,M,-34.0,M,,*66
$PYRTM,2024,127.751647218808,18.861294628947
$GPGGA,180221.00,3338.5490,N,11900.8643,W,1,11,0.8,12.3,M,-34.0,M,,*67
$PYRTM,2024,127.751658818727,18.861306228866
$GPGGA,180222.00,3338.5490,N,11900.8637,W,1,11,0.8,12.3,M,-34.0,M,,*67
$PYRTM,2024,127.751670367095,18.861317777234
$GPGGA,180223.00,3338.5490,N,11900.8633,W,1,11,0.8,12.4,M,-34.0,M,,*65
$PYRTM,2024,127.751681961713,18.861329371852
$GPGGA,180224.00,3338.5488,N,11900.8629,W,1,11,0.8,12.4,M,-34.0,M,,*60
$PYRTM,2024,127.751693516354,18.861340926493
$GPGGA,180225.00,3338.5486,N,11900.8625,W,1,11,0.8,12.5,M,-34.0,M,,*62
$PYRTM,2024,127.751700911215,18.861348321354
$GPGGA,180226.00,3338.5483,N,11900.8620,W,1,11,0.8,12.5,M,-34.0,M,,*61
$PYRTM,2024,127.751716664745,18.861364074884
$GPGGA,180227.00,3338.5483,N,11900.8615,W,1,11,0.8,12.5,M,-34.0,M,,*66
$PYRTM,2024,127.751728238113,18.861375648252
$GPGGA,180228.00,3338.5483,N,11900.8611,W,1,11,0.8,12.5,M,-34.0,M,,*6D
$PYRTM,2024,127.751739808692,18.861387218831
$GPGGA,180229.00,3338.5482,N,11900.8607,W,1,11,0.8,12.5,M,-34.0,M,,*6A
$PYRTM,2024,127.751751393310,18.861398803449
$GPGGA,180230.00,3338.5479,N,11900.8604,W,1,11,0.8,12.5,M,-34.0,M,,*65
$PYRTM,2024,127.751758794537,18.861406204676
$GPGGA,180231.00,3338.5476,N,11900.8600,W,1,11,0.8,12.5,M,-34.0,M,,*6F
$PYRTM,2024,127.751774533310,18.861421943449
$GPGGA,180232.00,3338.5474,N,11900.8594,W,1,11,0.8,12.4,M,-34.0,M,,*61
$PYRTM,2024,127.751786109560,18.861433519699
$GPGGA,180233.00,3338.5474,N,11900.8588,W,1,11,0.8,12.2,M,-34.0,M,,*6B
$PYRTM,2024,127.751797694433,18.861445104583
$GPGGA,180234.00,3338.5473,N,11900.8583,W,1,11,0.8,12.1,M,-34.0,M,,*63
$PYRTM,2024,127.751805088900,18.861452499039
$GPGGA,180235.00,3338.5471,N,11900.8580,W,1,11,0.8,12.1,M,-34.0,M,,*63
$PYRTM,2024,127.751820839745,18.861468249884
$GPGGA,180236.00,3338.5468,N,11900.8576,W,1,11,0.8,12.0,M,-34.0,M,,*60
$PYRTM,2024,127.751832405764,18.861479815914
$GPGGA,180237.00,3338.5465,N,11900.8571,W,1,11,0.8,11.9,M,-34.0,M,,*61
$PYRTM,2024,127.751843988287,18.861491398426
$GPGGA,180238.00,3338.5465,N,11900.8564,W,1,11,0.8,11.9,M,-34.0,M,,*6A
$PYRTM,2024,127.751855553796,18.861502963935
$GPGGA,180239.00,3338.5465,N,11900.8560,W,1,11,0.8,11.9,M,-34.0,M,,*6F
$PYRTM,2024,127.751867121736,18.861514531875
$GPGGA,180240.00,3338.5463,N,11900.8557,W,1,11,0.8,11.9,M,-34.0,M,,*63
$PYRTM,2024,127.751878701863,18.861526112002
$GPGGA,180241.00,3338.5459,N,11900.8554,W,1,11,0.8,11.9,M,-34.0,M,,*68
$PYRTM,2024,127.751890287106,18.861537697245
$GPGGA,180242.00,3338.5456,N,11900.8549,W,1,11,0.8,12.0,M,-34.0,M,,*62
$PYRTM,2024,127.751901846088,18.861549256227
$GPGGA,180243.00,3338.5456,N,11900.8543,W,1,11,0.8,12.0,M,-34.0,M,,*69
$PYRTM,2024,127.751909245069,18.861556655208
$GPGGA,180244.00,3338.5457,N,11900.8537,W,1,11,0.8,11.9,M,-34.0,M,,*66
$PYRTM,2024,127.751924998958,18.861572409109
$GPGGA,180245.00,3338.5455,N,11900.8533,W,1,11,0.8,11.9,M,-34.0,M,,*61
$PYRTM,2024,127.751932393021,18.861579803160
$GPGGA,180246.00,3338.5451,N,11900.8531,W,1,11,0.8,11.8,M,-34.0,M,,*65
$PYRTM,2024,127.751948147986,18.861595558125
$GPGGA,180247.00,3338.5447,N,11900.8528,W,1,11,0.8,11.8,M,-34.0,M,,*6B
$PYRTM,2024,127.751959723819,18.861607133958
$GPGGA,180248.00,3338.5446,N,11900.8521,W,1,11,0.8,11.7,M,-34.0,M,,*63
$PYRTM,2024,127.751971295995,18.861618706123
$GPGGA,180249.00,3338.5447,N,11900.8515,W,1,11,0.8,11.7,M,-34.0,M,,*64
$PYRTM,2024,127.751982888692,18.861630298831
$GPGGA,180250.00,3338.5447,N,11900.8511,W,1,11,0.8,11.8,M,-34.0,M,,*67
$PYRTM,2024,127.751994442697,18.861641852836
$GPGGA,180251.00,3338.5443,N,11900.8509,W,1,11,0.8,11.9,M,-34.0,M,,*6A
$PYRTM,2024,127.752006024965,18.861653435104
$GPGGA,180252.00,3338.5439,N,11900.8506,W,1,11,0.8,11.7,M,-34.0,M,,*65
$PYRTM,2024,127.752017591111,18.861665001250
$GPGGA,180253.00,3338.5436,N,11900.8499,W,1,11,0.8,11.5,M,-34.0,M,,*6E
$PYRTM,2024,127.752029175949,18.861676586088
$GPGGA,180254.00,3338.5437,N,11900.8492,W,1,11,0.8,11.7,M,-34.0,M,,*61
$PYRTM,2024,127.752040739363,18.861688149502
$GPGGA,180255.00,3338.5437,N,11900.8486,W,1,11,0.8,11.9,M,-34.0,M,,*6B
$PYRTM,2024,127.752052324850,18.861699734988
$GPGGA,180256.00,3338.5434,N,11900.8484,W,1,11,0.8,12.0,M,-34.0,M,,*63
$PYRTM,2024,127.752063887245,18.861711297384
$GPGGA,180257.00,3338.5429,N,11900.8481,W,1,11,0.8,12.1,M,-34.0,M,,*6A
$PYRTM,2024,127.752071283692,18.861718693831
$GPGGA,180258.00,3338.5427,N,11900.8476,W,1,11,0.8,12.1,M,-34.0,M,,*63
$PYRTM,2024,127.752087035556,18.861734445694
$GPGGA,180259.00,3338.5428,N,11900.8469,W,1,11,0.8,12.1,M,-34.0,M,,*63
$PYRTM,2024,127.752098622627,18.861746032766
$GPGGA,180300.00,3338.5428,N,11900.8463,W,1,11,0.8,12.0,M,-34.0,M,,*65
$PYRTM,2024,127.752110185081,18.861757595220
$GPGGA,180301.00,3338.5426,N,11900.8459,W,1,11,0.8,11.9,M,-34.0,M,,*69
$PYRTM,2024,127.752121769190,18.861769179329
$GPGGA,180302.00,3338.5421,N,11900.8458,W,1,11,0.8,12.0,M,-34.0,M,,*66
$PYRTM,2024,127.752133333426,18.861780743565
$GPGGA,180303.00,3338.5418,N,11900.8456,W,1,11,0.8,12.1,M,-34.0,M,,*62
$PYRTM,2024,127.752144908067,18.861792318206
$GPGGA,180304.00,3338.5417,N,11900.8451,W,1,11,0.8,12.2,M,-34.0,M,,*6E
$PYRTM,2024,127.752156476435,18.861803886574
$GPGGA,180305.00,3338.5418,N,11900.8444,W,1,11,0.8,12.1,M,-34.0,M,,*67
$PYRTM,2024,127.752163876262,18.861811286400
$GPGGA,180306.00,3338.5417,N,11900.8437,W,1,11,0.8,12.2,M,-34.0,M,,*6C
$PYRTM,2024,127.752179629329,18.861827039468
$GPGGA,180307.00,3338.5414,N,11900.8434,W,1,11,0.8,12.3,M,-34.0,M,,*6C
$PYRTM,2024,127.752187024977,18.861834435116
$GPGGA,180308.00,3338.5410,N,11900.8431,W,1,11,0.8,12.3,M,-34.0,M,,*62
$PYRTM,2024,127.752202780116,18.861850190255
$GPGGA,180309.00,3338.5407,N,11900.8428,W,1,11,0.8,12.2,M,-34.0,M,,*6C
$PYRTM,2024,127.752214363021,18.861861773160
$GPGGA,180310.00,3338.5407,N,11900.8421,W,1,10,0.8,12.3,M,-34.0,M,,*6D
$PYRTM,2024,127.752221761644,18.861869171782
$GPGGA,180311.00,3338.5408,N,11900.8413,W,1,11,0.8,12.2,M,-34.0,M,,*62
$PYRTM,2024,127.752237501134,18.861884911273
$GPGGA,180312.00,3338.5407,N,11900.8408,W,1,11,0.8,12.0,M,-34.0,M,,*66
$PYRTM,2024,127.752249074525,18.861896484664
$GPGGA,180313.00,3338.5404,N,11900.8405,W,1,11,0.8,12.0,M,-34.0,M,,*69
$PYRTM,2024,127.752260648507,18.861908058646
$GPGGA,180314.00,3338.5400,N,11900.8401,W,1,11,0.8,12.2,M,-34.0,M,,*6C
$PYRTM,2024,127.752268053877,18.861915464016
$GPGGA,180315.00,3338.5397,N,11900.8397,W,1,11,0.8,12.2,M,-34.0,M,,*6C
$PYRTM,2024,127.752286690243,18.861934100382
$GPGGA,180316.00,3338.5397,N,11900.8391,W,1,11,0.8,12.1,M,-34.0,M,,*6A
$PYRTM,2024,127.752295371319,18.861942781458
$GPGGA,180317.00,3338.5396,N,11900.8387,W,1,11,0.8,12.0,M,-34.0,M,,*6C
$PYRTM,2024,127.752306944630,18.861954354769
$GPGGA,180318.00,3338.5394,N,11900.8383,W,1,11,0.8,11.9,M,-34.0,M,,*6F
$PYRTM,2024,127.752318518414,18.861965928553
$GPGGA,180319.00,3338.5390,N,11900.8378,W,1,11,0.8,11.8,M,-34.0,M,,*6F
$PYRTM,2024,127.752330119086,18.861977529225
$GPGGA,180320.00,3338.5388,N,11900.8371,W,1,11,0.8,11.8,M,-34.0,M,,*65
$PYRTM,2024,127.752337499491,18.861984909630
$GPGGA,180321.00,3338.5387,N,11900.8364,W,1,11,0.8,12.0,M,-34.0,M,,*64
$PYRTM,2024,127.752353249086,18.862000659225
$GPGGA,180322.00,3338.5386,N,11900.8360,W,1,11,0.8,12.1,M,-34.0,M,,*63
$PYRTM,2024,127.752364815891,18.862012226030
$GPGGA,180323.00,3338.5384,N,11900.8357,W,1,11,0.8,12.2,M,-34.0,M,,*67
$PYRTM,2024,127.752376396713,18.862023806852
$GPGGA,180324.00,3338.5381,N,11900.8354,W,1,11,0.8,12.2,M,-34.0,M,,*66
$PYRTM,2024,127.752387958310,18.862035368449
$GPGGA,180325.00,3338.5379,N,11900.8347,W,1,11,0.8,12.2,M,-34.0,M,,*62
$PYRTM,2024,127.752399549664,18.862046959803
$GPGGA,180326.00,3338.5378,N,11900.8340,W,1,11,0.8,12.2,M,-34.0,M,,*67
$PYRTM,2024,127.752411111539,18.862058521678
$GPGGA,180327.00,3338.5378,N,11900.8335,W,1,11,0.8,12.1,M,-34.0,M,,*67
$PYRTM,2024,127.752422686123,18.862070096262
$GPGGA,180328.00,3338.5377,N,11900.8332,W,1,11,0.8,12.1,M,-34.0,M,,*60
$PYRTM,2024,127.752434263542,18.862081673681
$GPGGA,180329.00,3338.5374,N,11900.8330,W,1,11,0.8,12.1,M,-34.0,M,,*60
$PYRTM,2024,127.752445845567,18.862093255718
$GPGGA,180330.00,3338.5371,N,11900.8326,W,1,11,0.8,12.2,M,-34.0,M,,*69
$PYRTM,2024,127.752457408843,18.862104818981
$GPGGA,180331.00,3338.5370,N,11900.8320,W,1,11,0.8,12.2,M,-34.0,M,,*6F
$PYRTM,2024,127.752468982014,18.862116392164
$GPGGA,180332.00,3338.5368,N,11900.8314,W,1,11,0.8,12.2,M,-34.0,M,,*62
$PYRTM,2024,127.752480557743,18.862127967882
$GPGGA,180333.00,3338.5368,N,11900.8308,W,1,11,0.8,12.2,M,-34.0,M,,*6E
$PYRTM,2024,127.752492157257,18.862139567407
$GPGGA,180334.00,3338.5366,N,11900.8304,W,1,11,0.8,12.2,M,-34.0,M,,*6B
$PYRTM,2024,127.752503704479,18.862151114618
$GPGGA,180335.00,3338.5363,N,11900.8300,W,1,11,0.8,12.2,M,-34.0,M,,*6B
$PYRTM,2024,127.752511101458,18.862158511597
$GPGGA,180336.00,3338.5359,N,11900.8298,W,1,10,0.8,12.1,M,-34.0,M,,*63
$PYRTM,2024,127.752526853657,18.862174263796
$GPGGA,180337.00,3338.5357,N,11900.8294,W,1,10,0.8,12.1,M,-34.0,M,,*60
$PYRTM,2024,127.752534247743,18.862181657882
$GPGGA,180338.00,3338.5358,N,11900.8288,W,1,10,0.8,12.1,M,-34.0,M,,*6D
$PYRTM,2024,127.752549996759,18.862197406898
$GPGGA,180339.00,3338.5359,N,11900.8281,W,1,10,0.8,12.1,M,-34.0,M,,*64
$PYRTM,2024,127.752561586377,18.862208996516
$GPGGA,180340.00,3338.5357,N,11900.8277,W,1,10,0.8,12.1,M,-34.0,M,,*6D
$PYRTM,2024,127.752568982870,18.862216393009
$GPGGA,180341.00,3338.5353,N,11900.8274,W,1,10,0.8,12.1,M,-34.0,M,,*6B
$PYRTM,2024,127.752584723356,18.862232133495
$GPGGA,180342.00,3338.5350,N,11900.8270,W,1,10,0.8,12.1,M,-34.0,M,,*6F
$PYRTM,2024,127.752596297731,18.862243707882
$GPGGA,180343.00,3338.5351,N,11900.8265,W,1,10,0.8,12.1,M,-34.0,M,,*6B
$PYRTM,2024,127.752603692616,18.862251102755
$GPGGA,180344.00,3338.5351,N,11900.8258,W,1,10,0.8,12.1,M,-34.0,M,,*62
$PYRTM,2024,127.752619446377,18.862266856516
$GPGGA,180345.00,3338.5349,N,11900.8253,W,1,10,0.8,12.1,M,-34.0,M,,*61
$PYRTM,2024,127.752626840822,18.862274250972
$GPGGA,180346.00,3338.5346,N,11900.8249,W,1,10,0.8,12.1,M,-34.0,M,,*66
$PYRTM,2024,127.752645486840,18.862292896979
$GPGGA,180347.00,3338.5343,N,11900.8245,W,1,10,0.8,12.0,M,-34.0,M,,*6F
$PYRTM,2024,127.752654179144,18.862301589282
$GPGGA,180348.00,3338.5342,N,11900.8241,W,1,10,0.8,12.0,M,-34.0,M,,*65
$PYRTM,2024,127.752665737257,18.862313147396
$GPGGA,180349.00,3338.5341,N,11900.8235,W,1,10,0.8,11.9,M,-34.0,M,,*6E
$PYRTM,2024,127.752677342303,18.862324752442
$GPGGA,180350.00,3338.5340,N,11900.8231,W,1,10,0.8,11.9,M,-34.0,M,,*63
$PYRTM,2024,127.752688885370,18.862336295509
$GPGGA,180351.00,3338.5338,N,11900.8227,W,1,10,0.8,11.8,M,-34.0,M,,*6B
$PYRTM,2024,127.752700473588,18.862347883727
$GPGGA,180352.00,3338.5336,N,11900.8222,W,1,10,0.8,11.8,M,-34.0,M,,*63
$PYRTM,2024,127.752712039907,18.862359450046
$GPGGA,180353.00,3338.5334,N,11900.8217,W,1,10,0.8,11.8,M,-34.0,M,,*66
$PYRTM,2024,127.752719434363,18.862366844502
$GPGGA,180354.00,3338.5333,N,11900.8213,W,1,10,0.8,11.8,M,-34.0,M,,*62
$PYRTM,2024,127.752735187396,18.862382597546
$GPGGA,180355.00,3338.5331,N,11900.8208,W,1,10,0.8,11.9,M,-34.0,M,,*6A
$PYRTM,2024,127.752746771782,18.862394181921
$GPGGA,180356.00,3338.5328,N,11900.8204,W,1,10,0.8,12.0,M,-34.0,M,,*67
$PYRTM,2024,127.752758335613,18.862405745752
$GPGGA,180357.00,3338.5327,N,11900.8200,W,1,10,0.8,12.0,M,-34.0,M,,*6D
$PYRTM,2024,127.752769909699,18.862417319838
$GPGGA,180358.00,3338.5324,N,11900.8195,W,1,10,0.8,12.1,M,-34.0,M,,*6F
$PYRTM,2024,127.752781483218,18.862428893368
$GPGGA,180359.00,3338.5323,N,11900.8190,W,1,10,0.8,12.1,M,-34.0,M,,*6C
$PYRTM,2024,127.752793068495,18.862440478634
$GPGGA,180400.00,3338.5322,N,11900.8184,W,1,10,0.8,12.1,M,-34.0,M,,*63
$PYRTM,2024,127.752800458484,18.862447868623
$GPGGA,180401.00,3338.5320,N,11900.8179,W,1,10,0.8,12.1,M,-34.0,M,,*62
$PYRTM,2024,127.752816231887,18.862463642025
$GPGGA,180402.00,3338.5317,N,11900.8176,W,1,10,0.8,12.1,M,-34.0,M,,*6A
$PYRTM,2024,127.752827783403,18.862475193542
$GPGGA,180403.00,3338.5314,N,11900.8172,W,1,10,0.8,12.2,M,-34.0,M,,*6F
$PYRTM,2024,127.752839361979,18.862486772118
$GPGGA,180404.00,3338.5312,N,11900.8168,W,1,10,0.8,12.3,M,-34.0,M,,*64
$PYRTM,2024,127.752850927604,18.862498337743
$GPGGA,180405.00,3338.5312,N,11900.8163,W,1,10,0.8,12.3,M,-34.0,M,,*6E
$PYRTM,2024,127.752862511181,18.862509921319
$GPGGA,180406.00,3338.5311,N,11900.8157,W,1,10,0.8,12.3,M,-34.0,M,,*69
$PYRTM,2024,127.752874077280,18.862521487419
$GPGGA,180407.00,3338.5309,N,11900.8152,W,1,10,0.8,12.3,M,-34.0,M,,*64
$PYRTM,2024,127.752885650556,18.862533060694
$GPGGA,180408.00,3338.5306,N,11900.8147,W,1,10,0.8,12.3,M,-34.0,M,,*60
$PYRTM,2024,127.752893060880,18.862540471019
$GPGGA,180409.00,3338.5304,N,11900.8143,W,1,10,0.8,12.3,M,-34.0,M,,*67
$PYRTM,2024,127.752904734491,18.862552144641
$GPGGA,180410.00,3338.5302,N,11900.8139,W,1,10,0.8,12.2,M,-34.0,M,,*65
$PYRTM,2024,127.752920368819,18.862567778958
$GPGGA,180411.00,3338.5300,N,11900.8135,W,1,10,0.8,12.2,M,-34.0,M,,*6A
$PYRTM,2024,127.752931958461,18.862579368600
$GPGGA,180412.00,3338.5300,N,11900.8130,W,1,10,0.8,12.2,M,-34.0,M,,*6C
$PYRTM,2024,127.752943521782,18.862590931933
$GPGGA,180413.00,3338.5299,N,11900.8126,W,1,10,0.8,12.3,M,-34.0,M,,*6A
$PYRTM,2024,127.752950916215,18.862598326354
$GPGGA,180414.00,3338.5297,N,11900.8121,W,1,10,0.8,12.3,M,-34.0,M,,*64
$PYRTM,2024,127.752966669687,18.862614079826
$GPGGA,180415.00,3338.5294,N,11900.8116,W,1,10,0.8,12.3,M,-34.0,M,,*62
$PYRTM,2024,127.752978230880,18.862625641019
$GPGGA,180416.00,3338.5292,N,11900.8110,W,1,10,0.8,12.2,M,-34.0,M,,*60
$PYRTM,2024,127.752985638530,18.862633048669
$GPGGA,180417.00,3338.5291,N,11900.8106,W,1,10,0.8,12.2,M,-34.0,M,,*65
$PYRTM,2024,127.753004297627,18.862651707778
$GPGGA,180418.00,3338.5290,N,11900.8102,W,1,10,0.8,12.2,M,-34.0,M,,*6F
$PYRTM,2024,127.753012966412,18.862660376551
$GPGGA,180419.00,3338.5287,N,11900.8097,W,1,10,0.8,12.2,M,-34.0,M,,*65
$PYRTM,2024,127.753024527905,18.862671938044
$GPGGA,180420.00,3338.5284,N,11900.8093,W,1,10,0.8,12.1,M,-34.0,M,,*6B
$PYRTM,2024,127.753036114444,18.862683524583
$GPGGA,180421.00,3338.5284,N,11900.8087,W,1,10,0.8,12.1,M,-34.0,M,,*6F
$PYRTM,2024,127.753047675475,18.862695085613
$GPGGA,180422.00,3338.5284,N,11900.8082,W,1,10,0.8,12.1,M,-34.0,M,,*69
$PYRTM,2024,127.753059257824,18.862706667963
$GPGGA,180423.00,3338.5281,N,11900.8078,W,1,10,0.8,12.1,M,-34.0,M,,*68
$PYRTM,2024,127.753066657847,18.862714067986
$GPGGA,180424.00,3338.5278,N,11900.8074,W,1,10,0.8,12.2,M,-34.0,M,,*66
$PYRTM,2024,127.753082415521,18.862729825660
$GPGGA,180425.00,3338.5276,N,11900.8070,W,1,10,0.8,12.1,M,-34.0,M,,*6E
$PYRTM,2024,127.753093972269,18.862741382407
$GPGGA,180426.00,3338.5275,N,11900.8064,W,1,10,0.8,12.1,M,-34.0,M,,*6B
$PYRTM,2024,127.753105558241,18.862752968380
$GPGGA,180427.00,3338.5274,N,11900.8059,W,1,10,0.8,12.1,M,-34.0,M,,*65
$PYRTM,2024,127.753117120174,18.862764530312
$GPGGA,180428.00,3338.5272,N,11900.8054,W,1,10,0.8,12.0,M,-34.0,M,,*60
$PYRTM,2024,127.753128708553,18.862776118692
$GPGGA,180429.00,3338.5270,N,11900.8050,W,1,10,0.8,12.0,M,-34.0,M,,*67
$PYRTM,2024,127.753140267986,18.862787678125
$GPGGA,180430.00,3338.5269,N,11900.8046,W,1,10,0.8,12.0,M,-34.0,M,,*60
$PYRTM,2024,127.753151854583,18.862799264722
$GPGGA,180431.00,3338.5267,N,11900.8041,W,1,10,0.8,12.0,M,-34.0,M,,*68
$PYRTM,2024,127.753159266840,18.862806676979
$GPGGA,180432.00,3338.5264,N,11900.8037,W,1,10,0.8,12.0,M,-34.0,M,,*69
$PYRTM,2024,127.753175003565,18.862822413704
$GPGGA,180433.00,3338.5261,N,11900.8033,W,1,10,0.8,12.0,M,-34.0,M,,*69
$PYRTM,2024,127.753186564780,18.862833974931
$GPGGA,180434.00,3338.5259,N,11900.8028,W,1,10,0.8,12.0,M,-34.0,M,,*6F
$PYRTM,2024,127.753198152188,18.862845562326
$GPGGA,180435.00,3338.5260,N,11900.8022,W,1,10,0.8,12.0,M,-34.0,M,,*6E
$PYRTM,2024,127.753209713611,18.862857123750
$GPGGA,180436.00,3338.5259,N,11900.8017,W,1,10,0.8,12.0,M,-34.0,M,,*61
$PYRTM,2024,127.753217119583,18.862864529722
$GPGGA,180437.00,3338.5257,N,11900.8013,W,1,10,0.8,12.1,M,-34.0,M,,*6B
$PYRTM,2024,127.753232862083,18.862880272222
$GPGGA,180438.00,3338.5254,N,11900.8009,W,1,10,0.8,12.1,M,-34.0,M,,*6C
$PYRTM,2024,127.753240270590,18.862887680729
$GPGGA,180439.00,3338.5251,N,11900.8004,W,1,10,0.8,12.0,M,-34.0,M,,*64
$PYRTM,2024,127.753256010035,18.862903420174
$GPGGA,180440.00,3338.5249,N,11900.7999,W,1,10,0.8,12.0,M,-34.0,M,,*61
$PYRTM,2024,127.753267612245,18.862915022384
$GPGGA,180441.00,3338.5248,N,11900.7993,W,1,10,0.8,12.0,M,-34.0,M,,*6B
$PYRTM,2024,127.753274991898,18.862922402037
$GPGGA,180442.00,3338.5247,N,11900.7989,W,1,10,0.8,12.0,M,-34.0,M,,*6C
$PYRTM,2024,127.753290745521,18.862938155660
$GPGGA,180443.00,3338.5246,N,11900.7985,W,1,10,0.8,12.1,M,-34.0,M,,*61
$PYRTM,2024,127.753298155949,18.862945566088
$GPGGA,180444.00,3338.5244,N,11900.7979,W,1,10,0.8,12.0,M,-34.0,M,,*66
$PYRTM,2024,127.753313894572,18.862961304711
$GPGGA,180445.00,3338.5241,N,11900.7973,W,1,10,0.8,12.0,M,-34.0,M,,*68
$PYRTM,2024,127.753325453912,18.862972864051
$GPGGA,180446.00,3338.5239,N,11900.7968,W,1,10,0.8,11.9,M,-34.0,M,,*64
$PYRTM,2024,127.753337042431,18.862984452569
$GPGGA,180447.00,3338.5238,N,11900.7965,W,1,10,0.8,11.9,M,-34.0,M,,*69
$PYRTM,2024,127.753344440185,18.862991850324
$GPGGA,180448.00,3338.5237,N,11900.7961,W,1,10,0.8,11.9,M,-34.0,M,,*6D
$PYRTM,2024,127.753363082882,18.863010493021
$GPGGA,180449.00,3338.5235,N,11900.7958,W,1,10,0.8,11.9,M,-34.0,M,,*64
$PYRTM,2024,127.753371751516,18.863019161655
$GPGGA,180450.00,3338.5233,N,11900.7953,W,1,10,0.8,12.0,M,-34.0,M,,*6B
$PYRTM,2024,127.753383341447,18.863030751586
$GPGGA,180451.00,3338.5232,N,11900.7947,W,1,10,0.8,12.0,M,-34.0,M,,*6E
$PYRTM,2024,127.753394899051,18.863042309190
$GPGGA,180452.00,3338.5231,N,11900.7942,W,1,10,0.8,12.0,M,-34.0,M,,*6B
$PYRTM,2024,127.753406489514,18.863053899653
$GPGGA,180453.00,3338.5229,N,11900.7936,W,1,10,0.8,12.0,M,-34.0,M,,*60
$PYRTM,2024,127.753418046748,18.863065456898
$GPGGA,180454.00,3338.5226,N,11900.7932,W,1,10,0.8,12.0,M,-34.0,M,,*6C
$PYRTM,2024,127.753429638738,18.863077048877
$GPGGA,180455.00,3338.5224,N,11900.7927,W,1,10,0.8,12.0,M,-34.0,M,,*6B
$PYRTM,2024,127.753441195937,18.863088606076
$GPGGA,180456.00,3338.5222,N,11900.7923,W,1,10,0.8,12.0,M,-34.0,M,,*6A
$PYRTM,2024,127.753448603079,18.863096013218
$GPGGA,180457.00,3338.5220,N,11900.7918,W,1,10,0.8,12.1,M,-34.0,M,,*60
$PYRTM,2024,127.753464344132,18.863111754271
$GPGGA,180458.00,3338.5218,N,11900.7914,W,1,10,0.8,12.0,M,-34.0,M,,*69
$PYRTM,2024,127.753475930266,18.863123340405
$GPGGA,180459.00,3338.5216,N,11900.7910,W,1,10,0.8,12.0,M,-34.0,M,,*62
$PYRTM,2024,127.753487492731,18.863134902870
$GPGGA,180500.00,3338.5214,N,11900.7907,W,1,10,0.8,12.0,M,-34.0,M,,*6B
$PYRTM,2024,127.753499080046,18.863146490197
$GPGGA,180501.00,3338.5212,N,11900.7902,W,1,10,0.8,12.0,M,-34.0,M,,*69
$PYRTM,2024,127.753506474282,18.863153884433
$GPGGA,180502.00,3338.5211,N,11900.7896,W,1,10,0.8,12.0,M,-34.0,M,,*65
$PYRTM,2024,127.753522227546,18.863169637685
$GPGGA,180503.00,3338.5210,N,11900.7892,W,1,10,0.8,12.0,M,-34.0,M,,*61
$PYRTM,2024,127.753533788403,18.863181198542
$GPGGA,180504.00,3338.5207,N,11900.7889,W,1,10,0.8,12.1,M,-34.0,M,,*6B
$PYRTM,2024,127.753541197535,18.863188607685
$GPGGA,180505.00,3338.5204,N,11900.7885,W,1,10,0.8,12.1,M,-34.0,M,,*65
$PYRTM,2024,127.753556937083,18.863204347222
$GPGGA,180506.00,3338.5202,N,11900.7879,W,1,10,0.8,12.2,M,-34.0,M,,*60
$PYRTM,2024,127.753568526991,18.863215937130
$GPGGA,180507.00,3338.5201,N,11900.7872,W,1,10,0.8,12.1,M,-34.0,M,,*6A
$PYRTM,2024,127.753580084988,18.863227495139
$GPGGA,180508.00,3338.5201,N,11900.7867,W,1,10,0.8,11.7,M,-34.0,M,,*64
$PYRTM,2024,127.753591675579,18.863239085718
$GPGGA,180509.00,3338.5199,N,11900.7864,W,1,10,0.8,11.7,M,-34.0,M,,*64
$PYRTM,2024,127.753603234282,18.863250644433
$GPGGA,180510.00,3338.5196,N,11900.7860,W,1,10,0.8,11.7,M,-34.0,M,,*67
$PYRTM,2024,127.753614822789,18.863262232928
$GPGGA,180511.00,3338.5195,N,11900.7855,W,1,10,0.8,11.8,M,-34.0,M,,*6C
$PYRTM,2024,127.753626381644,18.863273791782
$GPGGA,180512.00,3338.5194,N,11900.7848,W,1,10,0.8,11.8,M,-34.0,M,,*62
$PYRTM,2024,127.753637968854,18.863285379005
$GPGGA,180513.00,3338.5193,N,11900.7844,W,1,10,0.8,11.8,M,-34.0,M,,*68
$PYRTM,2024,127.753645376644,18.863292786782
$GPGGA,180514.00,3338.5191,N,11900.7840,W,1,10,0.8,12.0,M,-34.0,M,,*62
$PYRTM,2024,127.753664010637,18.863311420775
$GPGGA,180515.00,3338.5189,N,11900.7836,W,1,10,0.8,12.1,M,-34.0,M,,*6A
$PYRTM,2024,127.753675593264,18.863323003403
$GPGGA,180516.00,3338.5186,N,11900.7832,W,1,10,0.8,12.2,M,-34.0,M,,*61
$PYRTM,2024,127.753684265231,18.863331675370
$GPGGA,180517.00,3338.5183,N,11900.7828,W,1,10,0.8,12.2,M,-34.0,M,,*6E
$PYRTM,2024,127.753695827153,18.863343237292
$GPGGA,180518.00,3338.5181,N,11900.7824,W,1,10,0.8,12.3,M,-34.0,M,,*6E
$PYRTM,2024,127.753703233067,18.863350643206
$GPGGA,180519.00,3338.5180,N,11900.7819,W,1,10,0.8,12.3,M,-34.0,M,,*60
$PYRTM,2024,127.753721892002,18.863369302141
$GPGGA,180520.00,3338.5178,N,11900.7814,W,1,10,0.8,12.3,M,-34.0,M,,*60
$PYRTM,2024,127.753730578646,18.863377988785
$GPGGA,180521.00,3338.5176,N,11900.7809,W,1,10,0.8,12.4,M,-34.0,M,,*64
$PYRTM,2024,127.753742124525,18.863389534664
$GPGGA,180522.00,3338.5173,N,11900.7805,W,1,10,0.8,12.4,M,-34.0,M,,*6E
$PYRTM,2024,127.753753713831,18.863401123970
$GPGGA,180523.00,3338.5171,N,11900.7802,W,1,10,0.8,12.4,M,-34.0,M,,*6A
$PYRTM,2024,127.753765272882,18.863412683021
$GPGGA,180524.00,3338.5170,N,11900.7797,W,1,10,0.8,12.3,M,-34.0,M,,*68
$PYRTM,2024,127.753772678137,18.863420088287
$GPGGA,180525.00,3338.5168,N,11900.7793,W,1,10,0.8,12.3,M,-34.0,M,,*64
$PYRTM,2024,127.753788419132,18.863435829271
$GPGGA,180526.00,3338.5166,N,11900.7788,W,1,10,0.8,12.2,M,-34.0,M,,*62
$PYRTM,2024,127.753800007384,18.863447417523
$GPGGA,180527.00,3338.5164,N,11900.7784,W,1,10,0.8,12.1,M,-34.0,M,,*6E
$PYRTM,2024,127.753807416771,18.863454826910
$GPGGA,180528.00,3338.5163,N,11900.7779,W,1,10,0.8,12.1,M,-34.0,M,,*64
$PYRTM,2024,127.753823154306,18.863470564444
$GPGGA,180529.00,3338.5162,N,11900.7774,W,1,10,0.8,12.0,M,-34.0,M,,*68
$PYRTM,2024,127.753834715613,18.863482125764
$GPGGA,180530.00,3338.5158,N,11900.7769,W,1,10,0.8,12.1,M,-34.0,M,,*64
$PYRTM,2024,127.753846303796,18.863493713935
$GPGGA,180531.00,3338.5155,N,11900.7765,W,1,10,0.8,12.1,M,-34.0,M,,*64
$PYRTM,2024,127.753857866887,18.863505277025
$GPGGA,180532.00,3338.5154,N,11900.7761,W,1,10,0.8,12.1,M,-34.0,M,,*62
$PYRTM,2024,127.753869450891,18.863516861030
$GPGGA,180533.00,3338.5155,N,11900.7755,W,1,10,0.8,12.1,M,-34.0,M,,*65
$PYRTM,2024,127.753881012986,18.863528423125
$GPGGA,180534.00,3338.5154,N,11900.7748,W,1,10,0.8,12.0,M,-34.0,M,,*6E
$PYRTM,2024,127.753888419155,18.863535829306
$GPGGA,180535.00,3338.5150,N,11900.7743,W,1,10,0.8,11.8,M,-34.0,M,,*6B
$PYRTM,2024,127.753904160671,18.863551570810
$GPGGA,180536.00,3338.5146,N,11900.7740,W,1,10,0.8,11.7,M,-34.0,M,,*63
$PYRTM,2024,127.753915750220,18.863563160359
$GPGGA,180537.00,3338.5145,N,11900.7737,W,1,10,0.8,11.8,M,-34.0,M,,*6E
$PYRTM,2024,127.753927309236,18.863574719375
$GPGGA,180538.00,3338.5145,N,11900.7731,W,1,10,0.8,11.9,M,-34.0,M,,*66
$PYRTM,2024,127.753938892361,18.863586302500
$GPGGA,180539.00,3338.5144,N,11900.7725,W,1,10,0.8,11.9,M,-34.0,M,,*63
$PYRTM,2024,127.753950457477,18.863597867616
$GPGGA,180540.00,3338.5142,N,11900.7721,W,1,10,0.8,11.9,M,-34.0,M,,*6F
$PYRTM,2024,127.753962043854,18.863609453993
$GPGGA,180541.00,3338.5140,N,11900.7718,W,1,10,0.8,11.9,M,-34.0,M,,*66
$PYRTM,2024,127.753973606250,18.863621016389
$GPGGA,180542.00,3338.5138,N,11900.7713,W,1,10,0.8,11.9,M,-34.0,M,,*61
$PYRTM,2024,127.753985194340,18.863632604479
$GPGGA,180543.00,3338.5136,N,11900.7708,W,1,10,0.8,11.9,M,-34.0,M,,*64
$PYRTM,2024,127.753996755185,18.863644165336
$GPGGA,180544.00,3338.5135,N,11900.7703,W,1,10,0.8,11.9,M,-34.0,M,,*6B
$PYRTM,2024,127.754008340289,18.863655750440
$GPGGA,180545.00,3338.5133,N,11900.7698,W,1,10,0.8,11.8,M,-34.0,M,,*6E
$PYRTM,2024,127.754019901725,18.863667311863
$GPGGA,180546.00,3338.5132,N,11900.7693,W,1,10,0.8,11.9,M,-34.0,M,,*66
$PYRTM,2024,127.754027309757,18.863674719896
$GPGGA,180547.00,3338.5130,N,11900.7687,W,1,10,0.8,11.9,M,-34.0,M,,*60
$PYRTM,2024,127.754043050347,18.863690460486
$GPGGA,180548.00,3338.5128,N,11900.7682,W,1,10,0.8,11.9,M,-34.0,M,,*63
$PYRTM,2024,127.754054639653,18.863702049792
$GPGGA,180549.00,3338.5125,N,11900.7678,W,1,10,0.8,11.9,M,-34.0,M,,*6A
$PYRTM,2024,127.754062031586,18.863709441725
$GPGGA,180550.00,3338.5123,N,11900.7675,W,1,10,0.8,11.9,M,-34.0,M,,*69
$PYRTM,2024,127.754080682060,18.863728092211
$GPGGA,180551.00,3338.5121,N,11900.7670,W,1,10,0.8,11.8,M,-34.0,M,,*6E
$PYRTM,2024,127.754089346516,18.863736756655
$GPGGA,180552.00,3338.5120,N,11900.7665,W,1,10,0.8,11.8,M,-34.0,M,,*68
$PYRTM,2024,127.754096754282,18.863744164421
$GPGGA,180553.00,3338.5119,N,11900.7659,W,1,10,0.8,11.8,M,-34.0,M,,*6C
$PYRTM,2024,127.754112495417,18.863759905556
$GPGGA,180554.00,3338.5118,N,11900.7653,W,1,10,0.8,11.5,M,-34.0,M,,*6D
$PYRTM,2024,127.754124081065,18.863771491204
$GPGGA,180555.00,3338.5115,N,11900.7649,W,1,10,0.8,11.6,M,-34.0,M,,*69
$PYRTM,2024,127.754135643194,18.863783053333
$GPGGA,180556.00,3338.5113,N,11900.7645,W,1,10,0.8,11.9,M,-34.0,M,,*6F
$PYRTM,2024,127.754147231146,18.863794641285
$GPGGA,180557.00,3338.5112,N,11900.7639,W,1,10,0.8,11.9,M,-34.0,M,,*64
$PYRTM,2024,127.754158791840,18.863806201979
$GPGGA,180558.00,3338.5113,N,11900.7632,W,1,10,0.8,11.6,M,-34.0,M,,*6E
$PYRTM,2024,127.754170378576,18.863817788715
$GPGGA,180559.00,3338.5113,N,11900.7624,W,1,10,0.8,11.4,M,-34.0,M,,*6A
$PYRTM,2024,127.754181941690,18.863829351829
$GPGGA,180600.00,3338.5110,N,11900.7620,W,1,10,0.8,11.4,M,-34.0,M,,*62
$PYRTM,2024,127.754193527164,18.863840937303
$GPGGA,180601.00,3338.5107,N,11900.7618,W,1,10,0.8,11.4,M,-34.0,M,,*6E
$PYRTM,2024,127.754205087604,18.863852497743
$GPGGA,180602.00,3338.5104,N,11900.7616,W,1,10,0.8,11.4,M,-34.0,M,,*60
$PYRTM,2024,127.754212495231,18.863859905370
$GPGGA,180603.00,3338.5102,N,11900.7611,W,1,10,0.8,11.3,M,-34.0,M,,*67
$PYRTM,2024,127.754228238391,18.863875648530
$GPGGA,180604.00,3338.5100,N,11900.7606,W,1,10,0.8,11.3,M,-34.0,M,,*64
$PYRTM,2024,127.754239826655,18.863887236806
$GPGGA,180605.00,3338.5099,N,11900.7600,W,1,10,0.8,11.4,M,-34.0,M,,*65
$PYRTM,2024,127.754251386076,18.863898796215
$GPGGA,180606.00,3338.5097,N,11900.7597,W,1,10,0.8,11.4,M,-34.0,M,,*65
$PYRTM,2024,127.754262971539,18.863910381667
$GPGGA,180607.00,3338.5094,N,11900.7593,W,1,10,0.8,11.4,M,-34.0,M,,*63
$PYRTM,2024,127.754270379375,18.863917789514
$GPGGA,180608.00,3338.5091,N,11900.7587,W,1,10,0.8,11.4,M,-34.0,M,,*6C
$PYRTM,2024,127.754286119931,18.863933530069
$GPGGA,180609.00,3338.5089,N,11900.7581,W,1,10,0.8,11.4,M,-34.0,M,,*62
$PYRTM,2024,127.754297681088,18.863945091227
$GPGGA,180610.00,3338.5088,N,11900.7577,W,1,10,0.8,11.5,M,-34.0,M,,*63
$PYRTM,2024,127.754309268183,18.863956678322
$GPGGA,180611.00,3338.5085,N,11900.7572,W,1,10,0.8,11.5,M,-34.0,M,,*6A
$PYRTM,2024,127.754320829641,18.863968239780
$GPGGA,180612.00,3338.5084,N,11900.7568,W,1,10,0.8,11.6,M,-34.0,M,,*60
$PYRTM,2024,127.754332418796,18.863979828935
$GPGGA,180613.00,3338.5083,N,11900.7564,W,1,10,0.8,11.7,M,-34.0,M,,*6B
$PYRTM,2024,127.754343977627,18.863991387766
$GPGGA,180614.00,3338.5081,N,11900.7560,W,1,10,0.8,11.8,M,-34.0,M,,*65
$PYRTM,2024,127.754355565938,18.864002976076
$GPGGA,180615.00,3338.5079,N,11900.7555,W,1,10,0.8,11.8,M,-34.0,M,,*65
$PYRTM,2024,127.754367125660,18.864014535799
$GPGGA,180616.00,3338.5077,N,11900.7550,W,1,10,0.8,11.9,M,-34.0,M,,*6C
$PYRTM,2024,127.754378715197,18.864026125336
$GPGGA,180617.00,3338.5075,N,11900.7545,W,1,10,0.8,11.8,M,-34.0,M,,*6A
$PYRTM,2024,127.754390273345,18.864037683495
$GPGGA,180618.00,3338.5074,N,11900.7540,W,1,10,0.8,11.8,M,-34.0,M,,*61
$PYRTM,2024,127.754397681725,18.864045091863
$GPGGA,180619.00,3338.5073,N,11900.7536,W,1,10,0.8,11.8,M,-34.0,M,,*66
$PYRTM,2024,127.754416327986,18.864063738125
$GPGGA,180620.00,3338.5071,N,11900.7532,W,1,10,0.8,11.8,M,-34.0,M,,*6A
$PYRTM,2024,127.754427897766,18.864075307905
$GPGGA,180621.00,3338.5067,N,11900.7527,W,1,10,0.8,11.8,M,-34.0,M,,*68
$PYRTM,2024,127.754441909294,18.864089319433
$GPGGA,180622.00,3338.5065,N,11900.7523,W,1,10,0.8,11.7,M,-34.0,M,,*62
$PYRTM,2024,127.754448153356,18.864095563495
$GPGGA,180623.00,3338.5064,N,11900.7519,W,1,10,0.8,11.6,M,-34.0,M,,*6A
$PYRTM,2024,127.754459718773,18.864107128912
$GPGGA,180624.00,3338.5063,N,11900.7513,W,1,10,0.8,11.6,M,-34.0,M,,*60
$PYRTM,2024,127.754471305799,18.864118715949
$GPGGA,180625.00,3338.5061,N,11900.7507,W,1,10,0.8,11.6,M,-34.0,M,,*66
$PYRTM,2024,127.754482866829,18.864130276968
$GPGGA,180626.00,3338.5058,N,11900.7502,W,1,10,0.8,11.7,M,-34.0,M,,*6B
$PYRTM,2024,127.754494455926,18.864141866065
$GPGGA,180627.00,3338.5056,N,11900.7498,W,1,10,0.8,11.7,M,-34.0,M,,*66
$PYRTM,2024,127.754506017905,18.864153428044
$GPGGA,180628.00,3338.5054,N,11900.7493,W,1,10,0.8,11.8,M,-34.0,M,,*6F
$PYRTM,2024,127.754517603958,18.864165014097
$GPGGA,180629.00,3338.5053,N,11900.7488,W,1,10,0.8,11.8,M,-34.0,M,,*63
$PYRTM,2024,127.754529164583,18.864176574722
$GPGGA,180630.00,3338.5052,N,11900.7484,W,1,10,0.8,11.8,M,-34.0,M,,*66
$PYRTM,2024,127.754540751146,18.864188161285
$GPGGA,180631.00,3338.5051,N,11900.7479,W,1,10,0.8,11.7,M,-34.0,M,,*69
$PYRTM,2024,127.754552313449,18.864199723588
$GPGGA,180632.00,3338.5049,N,11900.7475,W,1,10,0.8,11.7,M,-34.0,M,,*6F
$PYRTM,2024,127.754563901829,18.864211311968
$GPGGA,180633.00,3338.5047,N,11900.7470,W,1,10,0.8,11.6,M,-34.0,M,,*64
$PYRTM,2024,127.754575459826,18.864222869965
$GPGGA,180634.00,3338.5045,N,11900.7464,W,1,10,0.8,11.8,M,-34.0,M,,*6A
$PYRTM,2024,127.754582867882,18.864230278021
$GPGGA,180635.00,3338.5043,N,11900.7459,W,1,10,0.8,11.8,M,-34.0,M,,*63
$PYRTM,2024,127.754598607639,18.864246017778
$GPGGA,180636.00,3338.5042,N,11900.7454,W,1,10,0.8,11.7,M,-34.0,M,,*63
$PYRTM,2024,127.754610195625,18.864257605775
$GPGGA,180637.00,3338.5042,N,11900.7448,W,1,10,0.8,11.6,M,-34.0,M,,*6E
$PYRTM,2024,127.754621756748,18.864269166887
$GPGGA,180638.00,3338.5040,N,11900.7442,W,1,10,0.8,11.5,M,-34.0,M,,*6A
$PYRTM,2024,127.754633343877,18.864280754016
$GPGGA,180639.00,3338.5037,N,11900.7437,W,1,10,0.8,11.5,M,-34.0,M,,*69
$PYRTM,2024,127.754640622662,18.864288032801
$GPGGA,180640.00,3338.5034,N,11900.7433,W,1,10,0.8,11.4,M,-34.0,M,,*61
$PYRTM,2024,127.754656492315,18.864303902454
$GPGGA,180641.00,3338.5033,N,11900.7428,W,1,10,0.8,11.3,M,-34.0,M,,*6A
$PYRTM,2024,127.754668052569,18.864315462708
$GPGGA,180642.00,3338.5033,N,11900.7422,W,1,10,0.8,11.4,M,-34.0,M,,*64
$PYRTM,2024,127.754675459525,18.864322869664
$GPGGA,180643.00,3338.5032,N,11900.7417,W,1,10,0.8,11.5,M,-34.0,M,,*63
$PYRTM,2024,127.754691200984,18.864338611123
$GPGGA,180644.00,3338.5029,N,11900.7412,W,1,10,0.8,11.5,M,-34.0,M,,*6B
$PYRTM,2024,127.754702788704,18.864350198843
$GPGGA,180645.00,3338.5025,N,11900.7407,W,1,10,0.8,11.7,M,-34.0,M,,*60
$PYRTM,2024,127.754714349213,18.864361759352
$GPGGA,180646.00,3338.5024,N,11900.7401,W,1,10,0.8,11.6,M,-34.0,M,,*65
$PYRTM,2024,127.754725939537,18.864373349676
$GPGGA,180647.00,3338.5025,N,11900.7394,W,1,10,0.8,11.5,M,-34.0,M,,*6D
$PYRTM,2024,127.754737498993,18.864384909132
$GPGGA,180648.00,3338.5024,N,11900.7390,W,1,10,0.8,11.4,M,-34.0,M,,*66
$PYRTM,2024,127.754749087685,18.864396497836
$GPGGA,180649.00,3338.5022,N,11900.7386,W,1,10,0.8,11.0,M,-34.0,M,,*62
$PYRTM,2024,127.754760644329,18.864408054468
$GPGGA,180650.00,3338.5018,N,11900.7384,W,1,10,0.8,11.4,M,-34.0,M,,*65
$PYRTM,2024,127.754768052894,18.864415463032
$GPGGA,180651.00,3338.5016,N,11900.7381,W,1,10,0.8,11.6,M,-34.0,M,,*6D
$PYRTM,2024,127.754786700266,18.864434110405
$GPGGA,180652.00,3338.5016,N,11900.7374,W,1,10,0.8,11.4,M,-34.0,M,,*66
$PYRTM,2024,127.754795381100,18.864442791238
$GPGGA,180653.00,3338.5015,N,11900.7367,W,1,10,0.8,11.3,M,-34.0,M,,*61
$PYRTM,2024,127.754806942558,18.864454352697
$GPGGA,180654.00,3338.5012,N,11900.7362,W,1,10,0.8,11.3,M,-34.0,M,,*64
$PYRTM,2024,127.754818528229,18.864465938368
$GPGGA,180655.00,3338.5009,N,11900.7360,W,1,10,0.8,11.4,M,-34.0,M,,*6A
$PYRTM,2024,127.754825924120,18.864473334259
$GPGGA,180656.00,3338.5007,N,11900.7357,W,1,10,0.8,11.6,M,-34.0,M,,*61
$PYRTM,2024,127.754841673600,18.864489083738
$GPGGA,180657.00,3338.5005,N,11900.7350,W,1,10,0.8,11.5,M,-34.0,M,,*66
$PYRTM,2024,127.754853238681,18.864500648819
$GPGGA,180658.00,3338.5004,N,11900.7344,W,1,10,0.8,11.3,M,-34.0,M,,*6B
$PYRTM,2024,127.754864828947,18.864512239086
$GPGGA,180659.00,3338.5003,N,11900.7339,W,1,10,0.8,11.2,M,-34.0,M,,*66
$PYRTM,2024,127.754876387442,18.864523797581
$GPGGA,180700.00,3338.5001,N,11900.7336,W,1,10,0.8,11.3,M,-34.0,M,,*67
$PYRTM,2024,127.754883795046,18.864531205185
$GPGGA,180701.00,3338.4998,N,11900.7332,W,1,10,0.8,11.3,M,-34.0,M,,*6A
$PYRTM,2024,127.754899535741,18.864546945880
$GPGGA,180702.00,3338.4996,N,11900.7327,W,1,10,0.8,11.4,M,-34.0,M,,*64
$PYRTM,2024,127.754911125891,18.864558536030
$GPGGA,180703.00,3338.4995,N,11900.7322,W,1,10,0.8,11.5,M,-34.0,M,,*62
$PYRTM,2024,127.754918517106,18.864565927245
$GPGGA,180704.00,3338.4994,N,11900.7319,W,1,10,0.8,11.6,M,-34.0,M,,*6F
$PYRTM,2024,127.754934266586,18.864581676725
$GPGGA,180705.00,3338.4991,N,11900.7315,W,1,10,0.8,11.6,M,-34.0,M,,*67
$PYRTM,2024,127.754945832188,18.864593242326
$GPGGA,180706.00,3338.4989,N,11900.7309,W,1,10,0.8,11.6,M,-34.0,M,,*60
$PYRTM,2024,127.754957420058,18.864604830197
$GPGGA,180707.00,3338.4987,N,11900.7302,W,1,10,0.8,11.6,M,-34.0,M,,*64
$PYRTM,2024,127.754968982083,18.864616392222
$GPGGA,180708.00,3338.4986,N,11900.7297,W,1,10,0.8,11.7,M,-34.0,M,,*66
$PYRTM,2024,127.754976271991,18.864623682141
$GPGGA,180709.00,3338.4983,N,11900.7295,W,1,10,0.8,11.8,M,-34.0,M,,*6F
$PYRTM,2024,127.754992129051,18.864639539201
$GPGGA,180710.00,3338.4980,N,11900.7293,W,1,10,0.8,12.0,M,-34.0,M,,*69
$PYRTM,2024,127.755003716736,18.864651126875
$GPGGA,180711.00,3338.4977,N,11900.7288,W,1,10,0.8,12.0,M,-34.0,M,,*6A
$PYRTM,2024,127.755015278935,18.864662689074
$GPGGA,180712.00,3338.4977,N,11900.7280,W,1,10,0.8,11.9,M,-34.0,M,,*6B
$PYRTM,2024,127.755026864618,18.864674274757
$GPGGA,180713.00,3338.4977,N,11900.7272,W,1,10,0.8,11.8,M,-34.0,M,,*66
$PYRTM,2024,127.755034155266,18.864681565405
$GPGGA,180714.00,3338.4976,N,11900.7268,W,1,10,0.8,11.6,M,-34.0,M,,*65
$PYRTM,2024,127.755050015440,18.864697425590
$GPGGA,180715.00,3338.4971,N,11900.7267,W,1,10,0.8,11.8,M,-34.0,M,,*62
$PYRTM,2024,127.755061572801,18.864708982940
$GPGGA,180716.00,3338.4966,N,11900.7264,W,1,10,0.8,11.8,M,-34.0,M,,*64
$PYRTM,2024,127.755073173773,18.864720583912
$GPGGA,180717.00,3338.4964,N,11900.7259,W,1,10,0.8,11.9,M,-34.0,M,,*68
$PYRTM,2024,127.755084721238,18.864732131377
$GPGGA,180718.00,3338.4965,N,11900.7252,W,1,10,0.8,11.8,M,-34.0,M,,*6C
$PYRTM,2024,127.755096314271,18.864743724410
$GPGGA,180719.00,3338.4965,N,11900.7248,W,1,10,0.8,11.8,M,-34.0,M,,*66
$PYRTM,2024,127.755107869606,18.864755279745
$GPGGA,180720.00,3338.4960,N,11900.7245,W,1,10,0.8,11.5,M,-34.0,M,,*69
$PYRTM,2024,127.755119456921,18.864766867060
$GPGGA,180721.00,3338.4955,N,11900.7242,W,1,10,0.8,11.3,M,-34.0,M,,*6F
$PYRTM,2024,127.755126865463,18.864774275602
$GPGGA,180722.00,3338.4954,N,11900.7237,W,1,10,0.8,11.1,M,-34.0,M,,*6D
$PYRTM,2024,127.755145493843,18.864792903981
$GPGGA,180723.00,3338.4955,N,11900.7229,W,1,10,0.8,11.3,M,-34.0,M,,*60
$PYRTM,2024,127.755154166539,18.864801576678
$GPGGA,180724.00,3338.4956,N,11900.7224,W,1,10,0.8,11.8,M,-34.0,M,,*62
$PYRTM,2024,127.755165753391,18.864813163530
$GPGGA,180725.00,3338.4952,N,11900.7221,W,1,10,0.8,12.3,M,-34.0,M,,*6A
$PYRTM,2024,127.755177314884,18.864824725023
$GPGGA,180726.00,3338.4946,N,11900.7219,W,1,10,0.8,12.5,M,-34.0,M,,*61
$PYRTM,2024,127.755188900949,18.864836311088
$GPGGA,180727.00,3338.4943,N,11900.7215,W,1,10,0.8,12.2,M,-34.0,M,,*6E
$PYRTM,2024,127.755200461562,18.864847871701
$GPGGA,180728.00,3338.4944,N,11900.7208,W,1,10,0.8,11.8,M,-34.0,M,,*63
$PYRTM,2024,127.755212063426,18.864859473565
$GPGGA,180729.00,3338.4946,N,11900.7200,W,1,10,0.8,11.3,M,-34.0,M,,*63
$PYRTM,2024,127.755223611088,18.864871021227
$GPGGA,180730.00,3338.4945,N,11900.7195,W,1,10,0.8,11.3,M,-34.0,M,,*67
$PYRTM,2024,127.755230901956,18.864878312095
$GPGGA,180731.00,3338.4941,N,11900.7193,W,1,10,0.8,11.2,M,-34.0,M,,*65
$PYRTM,2024,127.755246759931,18.864894170069
$GPGGA,180732.00,3338.4938,N,11900.7189,W,1,10,0.8,11.2,M,-34.0,M,,*63
$PYRTM,2024,127.755258347546,18.864905757685
$GPGGA,180733.00,3338.4937,N,11900.7183,W,1,10,0.8,11.3,M,-34.0,M,,*66
$PYRTM,2024,127.755265753808,18.864913163947
$GPGGA,180734.00,3338.4939,N,11900.7175,W,1,10,0.8,11.4,M,-34.0,M,,*61
$PYRTM,2024,127.755281489757,18.864928899896
$GPGGA,180735.00,3338.4939,N,11900.7169,W,1,10,0.8,11.3,M,-34.0,M,,*6A
$PYRTM,2024,127.755293055764,18.864940465914
$GPGGA,180736.00,3338.4935,N,11900.7165,W,1,10,0.8,11.4,M,-34.0,M,,*6E
$PYRTM,2024,127.755304643287,18.864952053426
$GPGGA,180737.00,3338.4931,N,11900.7162,W,1,10,0.8,11.5,M,-34.0,M,,*6D
$PYRTM,2024,127.755316203009,18.864963613148
$GPGGA,180738.00,3338.4929,N,11900.7156,W,1,10,0.8,11.4,M,-34.0,M,,*6D
$PYRTM,2024,127.755327786528,18.864975196667
$GPGGA,180739.00,3338.4930,N,11900.7151,W,1,10,0.8,11.4,M,-34.0,M,,*63
$PYRTM,2024,127.755339352002,18.864986762153
$GPGGA,180740.00,3338.4928,N,11900.7147,W,1,10,0.8,11.5,M,-34.0,M,,*62
$PYRTM,2024,127.755350938819,18.864998348958
$GPGGA,180741.00,3338.4925,N,11900.7144,W,1,10,0.8,11.5,M,-34.0,M,,*6D
$PYRTM,2024,127.755362501296,18.865009911435
$GPGGA,180742.00,3338.4921,N,11900.7140,W,1,10,0.8,11.5,M,-34.0,M,,*6E
$PYRTM,2024,127.755374090220,18.865021500359
$GPGGA,180743.00,3338.4919,N,11900.7134,W,1,10,0.8,11.5,M,-34.0,M,,*67
$PYRTM,2024,127.755381481736,18.865028891875
$GPGGA,180744.00,3338.4920,N,11900.7128,W,1,10,0.8,11.5,M,-34.0,M,,*67
$PYRTM,2024,127.755397238831,18.865044648981
$GPGGA,180745.00,3338.4920,N,11900.7122,W,1,10,0.8,11.6,M,-34.0,M,,*6F
$PYRTM,2024,127.755408798252,18.865056208403
$GPGGA,180746.00,3338.4917,N,11900.7118,W,1,10,0.8,11.7,M,-34.0,M,,*60
$PYRTM,2024,127.755420385532,18.865067795671
$GPGGA,180747.00,3338.4911,N,11900.7115,W,1,10,0.8,11.7,M,-34.0,M,,*6A
$PYRTM,2024,127.755431945787,18.865079355926
$GPGGA,180748.00,3338.4909,N,11900.7112,W,1,10,0.8,11.5,M,-34.0,M,,*69
$PYRTM,2024,127.755439351863,18.865086762014
$GPGGA,180749.00,3338.4910,N,11900.7105,W,1,10,0.8,11.3,M,-34.0,M,,*60
$PYRTM,2024,127.755455093461,18.865102503600
$GPGGA,180750.00,3338.4911,N,11900.7099,W,1,10,0.8,11.3,M,-34.0,M,,*6D
$PYRTM,2024,127.755466676215,18.865114086366
$GPGGA,180751.00,3338.4908,N,11900.7095,W,1,10,0.8,11.3,M,-34.0,M,,*68
$PYRTM,2024,127.755478241551,18.865125651690
$GPGGA,180752.00,3338.4902,N,11900.7093,W,1,10,0.8,11.3,M,-34.0,M,,*67
$PYRTM,2024,127.755485648738,18.865133058877
$GPGGA,180753.00,3338.4897,N,11900.7091,W,1,10,0.8,11.4,M,-34.0,M,,*6E
$PYRTM,2024,127.755504303843,18.865151713981
$GPGGA,180754.00,3338.4896,N,11900.7086,W,1,10,0.8,11.5,M,-34.0,M,,*6F
$PYRTM,2024,127.755512972257,18.865160382396
$GPGGA,180755.00,3338.4897,N,11900.7079,W,1,10,0.8,11.5,M,-34.0,M,,*6F
$PYRTM,2024,127.755520256481,18.865167666620
$GPGGA,180756.00,3338.4897,N,11900.7074,W,1,10,0.8,11.3,M,-34.0,M,,*67
$PYRTM,2024,127.755536128148,18.865183538299
$GPGGA,180757.00,3338.4893,N,11900.7070,W,1,10,0.8,11.3,M,-34.0,M,,*66
$PYRTM,2024,127.755547687431,18.865195097569
$GPGGA,180758.00,3338.4890,N,11900.7066,W,1,10,0.8,11.2,M,-34.0,M,,*6C
$PYRTM,2024,127.755559288345,18.865206698484
$GPGGA,180759.00,3338.4888,N,11900.7060,W,1,10,0.8,11.2,M,-34.0,M,,*62
$PYRTM,2024,127.755570833981,18.865218244120
$GPGGA,180800.00,3338.4889,N,11900.7055,W,1,10,0.8,11.3,M,-34.0,M,,*67
$PYRTM,2024,127.755582421678,18.865229831829
$GPGGA,180801.00,3338.4888,N,11900.7051,W,1,10,0.8,11.4,M,-34.0,M,,*64
$PYRTM,2024,127.755593983322,18.865241393461
$GPGGA,180802.00,3338.4885,N,11900.7047,W,1,10,0.8,11.5,M,-34.0,M,,*6C
$PYRTM,2024,127.755605569850,18.865252979988
$GPGGA,180803.00,3338.4882,N,11900.7043,W,1,10,0.8,11.5,M,-34.0,M,,*6E
$PYRTM,2024,127.755617130625,18.865264540764
$GPGGA,180804.00,3338.4879,N,11900.7037,W,1,10,0.8,11.5,M,-34.0,M,,*6E
$PYRTM,2024,127.755628718877,18.865276129016
$GPGGA,180805.00,3338.4878,N,11900.7032,W,1,10,0.8,11.5,M,-34.0,M,,*6B
$PYRTM,2024,127.755640279491,18.865287689630
$GPGGA,180806.00,3338.4879,N,11900.7027,W,1,10,0.8,11.6,M,-34.0,M,,*6E
$PYRTM,2024,127.755651865127,18.865299275266
$GPGGA,180807.00,3338.4878,N,11900.7022,W,1,10,0.8,11.7,M,-34.0,M,,*6A
$PYRTM,2024,127.755663427141,18.865310837280
$GPGGA,180808.00,3338.4874,N,11900.7018,W,1,10,0.8,11.7,M,-34.0,M,,*60
$PYRTM,2024,127.755670834861,18.865318245000
$GPGGA,180809.00,3338.4869,N,11900.7015,W,1,10,0.8,11.6,M,-34.0,M,,*61
$PYRTM,2024,127.755686574919,18.865333985058
$GPGGA,180810.00,3338.4867,N,11900.7010,W,1,10,0.8,11.5,M,-34.0,M,,*61
$PYRTM,2024,127.755698162766,18.865345572905
$GPGGA,180811.00,3338.4869,N,11900.7004,W,1,10,0.8,11.4,M,-34.0,M,,*6A
$PYRTM,2024,127.755705442326,18.865352852465
$GPGGA,180812.00,3338.4870,N,11900.6998,W,1,10,0.8,11.5,M,-34.0,M,,*6D
$PYRTM,2024,127.755721314977,18.865368725116
$GPGGA,180813.00,3338.4868,N,11900.6995,W,1,10,0.8,11.6,M,-34.0,M,,*6B
$PYRTM,2024,127.755732872060,18.865380282199
$GPGGA,180814.00,3338.4862,N,11900.6992,W,1,10,0.8,11.5,M,-34.0,M,,*62
$PYRTM,2024,127.755744454097,18.865391864236
$GPGGA,180815.00,3338.4858,N,11900.6988,W,1,10,0.8,11.5,M,-34.0,M,,*61
$PYRTM,2024,127.755756022824,18.865403432975
$GPGGA,180816.00,3338.4859,N,11900.6981,W,1,10,0.8,11.5,M,-34.0,M,,*6A
$PYRTM,2024,127.755767607315,18.865415017454
$GPGGA,180817.00,3338.4860,N,11900.6974,W,1,10,0.8,11.6,M,-34.0,M,,*68
$PYRTM,2024,127.755779170058,18.865426580197
$GPGGA,180818.00,3338.4859,N,11900.6969,W,1,10,0.8,11.7,M,-34.0,M,,*60
$PYRTM,2024,127.755790755833,18.865438165972
$GPGGA,180819.00,3338.4854,N,11900.6966,W,1,10,0.8,11.8,M,-34.0,M,,*6C
$PYRTM,2024,127.755802319317,18.865449729456
$GPGGA,180820.00,3338.4850,N,11900.6963,W,1,10,0.8,11.8,M,-34.0,M,,*67
$PYRTM,2024,127.755813904502,18.865461314641
$GPGGA,180821.00,3338.4848,N,11900.6959,W,1,10,0.8,11.9,M,-34.0,M,,*67
$PYRTM,2024,127.755821298461,18.865468708611
$GPGGA,180822.00,3338.4850,N,11900.6951,W,1,10,0.8,11.5,M,-34.0,M,,*69
$PYRTM,2024,127.755837052558,18.865484462697
$GPGGA,180823.00,3338.4851,N,11900.6944,W,1,10,0.8,11.5,M,-34.0,M,,*6D
$PYRTM,2024,127.755844344977,18.865491755116
$GPGGA,180824.00,3338.4848,N,11900.6940,W,1,10,0.8,11.7,M,-34.0,M,,*64
$PYRTM,2024,127.755863092731,18.865510502870
$GPGGA,180825.00,3338.4843,N,11900.6938,W,1,10,0.8,11.8,M,-34.0,M,,*6E
$PYRTM,2024,127.755871762697,18.865519172836
$GPGGA,180826.00,3338.4840,N,11900.6934,W,1,10,0.8,11.7,M,-34.0,M,,*6D
$PYRTM,2024,127.755879171273,18.865526581424
$GPGGA,180827.00,3338.4840,N,11900.6928,W,1,10,0.8,11.7,M,-34.0,M,,*61
$PYRTM,2024,127.755894911285,18.865542321424
$GPGGA,180828.00,3338.4842,N,11900.6922,W,1,10,0.8,11.7,M,-34.0,M,,*66
$PYRTM,2024,127.755906511562,18.865553921701
$GPGGA,180829.00,3338.4841,N,11900.6916,W,1,10,0.8,11.4,M,-34.0,M,,*60
$PYRTM,2024,127.755913776447,18.865561186586
$GPGGA,180830.00,3338.4836,N,11900.6913,W,1,10,0.8,11.7,M,-34.0,M,,*6E
$PYRTM,2024,127.755929645324,18.865577055463
$GPGGA,180831.00,3338.4831,N,11900.6910,W,1,10,0.8,11.7,M,-34.0,M,,*6B
$PYRTM,2024,127.755941205845,18.865588615984
$GPGGA,180832.00,3338.4829,N,11900.6906,W,1,10,0.8,11.8,M,-34.0,M,,*69
$PYRTM,2024,127.755952795162,18.865600205301
$GPGGA,180833.00,3338.4831,N,11900.6899,W,1,10,0.8,11.8,M,-34.0,M,,*66
$PYRTM,2024,127.755964357350,18.865611767488
$GPGGA,180834.00,3338.4831,N,11900.6893,W,1,10,0.8,12.0,M,-34.0,M,,*60
$PYRTM,2024,127.755971648229,18.865619058368
$GPGGA,180835.00,3338.4828,N,11900.6888,W,1,10,0.8,12.0,M,-34.0,M,,*63
