$PYRTM,2024,123.416670142373,14.526317552512
$GPGGA,095959.00,3413.4210,N,12029.3881,W,1,09,0.8,8.7,M,-33.8,M,,*54
$PYRTM,2024,123.416681732512,14.526329142650
$GPGGA,100000.00,3413.4213,N,12029.3894,W,1,09,0.8,9.5,M,-33.8,M,,*58
$PYRTM,2024,123.416693419641,14.526340829780
$GPGGA,100001.00,3413.4221,N,12029.3908,W,1,09,0.8,10.1,M,-33.8,M,,*60
$PYRTM,2024,123.416704993669,14.526352403808
$GPGGA,100002.00,3413.4227,N,12029.3921,W,1,09,0.8,10.5,M,-33.8,M,,*6A
$PYRTM,2024,123.416712289444,14.526359699583
$GPGGA,100003.00,3413.4229,N,12029.3932,W,1,09,0.8,11.0,M,-33.8,M,,*63
$PYRTM,2024,123.416728141238,14.526375551377
$GPGGA,100004.00,3413.4230,N,12029.3945,W,1,09,0.8,11.2,M,-33.8,M,,*6E
$PYRTM,2024,123.416739731123,14.526387141262
$GPGGA,100005.00,3413.4234,N,12029.3961,W,1,09,0.8,10.3,M,-33.8,M,,*6D
$PYRTM,2024,123.416746995451,14.526394405590
$GPGGA,100006.00,3413.4240,N,12029.3976,W,1,09,0.8,9.1,M,-33.8,M,,*51
$PYRTM,2024,123.416762735903,14.526410146042
$GPGGA,100007.00,3413.4245,N,12029.3988,W,1,09,0.8,8.9,M,-33.8,M,,*5D
$PYRTM,2024,123.416774322488,14.526421732627
$GPGGA,100008.00,3413.4249,N,12029.3998,W,1,09,0.8,9.7,M,-33.8,M,,*50
$PYRTM,2024,123.416786012269,14.526433422407
$GPGGA,100009.00,3413.4254,N,12029.4012,W,1,09,0.8,10.9,M,-33.8,M,,*67
$PYRTM,2024,123.416797586678,14.526444996817
$GPGGA,100010.00,3413.4259,N,12029.4029,W,1,09,0.8,11.2,M,-33.8,M,,*60
$PYRTM,2024,123.416809160544,14.526456570683
$GPGGA,100011.00,3413.4265,N,12029.4043,W,1,09,0.8,11.2,M,-33.8,M,,*62
$PYRTM,2024,123.416820737963,14.526468148102
$GPGGA,100012.00,3413.4268,N,12029.4053,W,1,09,0.8,11.3,M,-33.8,M,,*6C
$PYRTM,2024,123.416828131389,14.526475541528
$GPGGA,100013.00,3413.4271,N,12029.4066,W,1,09,0.8,10.9,M,-33.8,M,,*68
$PYRTM,2024,123.416843883090,14.526491293229
$GPGGA,100014.00,3413.4276,N,12029.4082,W,1,09,0.8,10.6,M,-33.8,M,,*6D
$PYRTM,2024,123.416855469491,14.526502879630
$GPGGA,100015.00,3413.4281,N,12029.4096,W,1,09,0.8,10.3,M,-33.8,M,,*64
$PYRTM,2024,123.416867033715,14.526514443854
$GPGGA,100016.00,3413.4286,N,12029.4104,W,1,09,0.8,11.2,M,-33.8,M,,*6A
$PYRTM,2024,123.416874426609,14.526521836748
$GPGGA,100017.00,3413.4291,N,12029.4117,W,1,09,0.8,12.4,M,-33.8,M,,*6A
$PYRTM,2024,123.416890182060,14.526537592199
$GPGGA,100018.00,3413.4294,N,12029.4133,W,1,09,0.8,13.2,M,-33.8,M,,*61
$PYRTM,2024,123.416897576366,14.526544986516
$GPGGA,100019.00,3413.4297,N,12029.4147,W,1,09,0.8,12.9,M,-33.8,M,,*6A
$PYRTM,2024,123.416916101238,14.526563511377
$GPGGA,100020.00,3413.4302,N,12029.4159,W,1,09,0.8,12.7,M,-33.8,M,,*6C
$PYRTM,2024,123.416924910394,14.526572320532
$GPGGA,100021.00,3413.4309,N,12029.4173,W,1,09,0.8,12.2,M,-33.8,M,,*6B
$PYRTM,2024,123.416936476424,14.526583886563
$GPGGA,100022.00,3413.4313,N,12029.4188,W,1,09,0.8,11.7,M,-33.8,M,,*61
$PYRTM,2024,123.416948058715,14.526595468854
$GPGGA,100023.00,3413.4315,N,12029.4203,W,1,09,0.8,11.5,M,-33.8,M,,*64
$PYRTM,2024,123.416959627847,14.526607037986
$GPGGA,100024.00,3413.4318,N,12029.4215,W,1,09,0.8,12.2,M,-33.8,M,,*6D
$PYRTM,2024,123.416971211065,14.526618621204
$GPGGA,100025.00,3413.4324,N,12029.4229,W,1,09,0.8,12.5,M,-33.8,M,,*6B
$PYRTM,2024,123.416982775822,14.526630185961
$GPGGA,100026.00,3413.4329,N,12029.4245,W,1,09,0.8,12.1,M,-33.8,M,,*6B
$PYRTM,2024,123.416994348333,14.526641758472
$GPGGA,100027.00,3413.4332,N,12029.4263,W,1,09,0.8,11.5,M,-33.8,M,,*63
$PYRTM,2024,123.417005922766,14.526653332905
$GPGGA,100028.00,3413.4336,N,12029.4278,W,1,09,0.8,10.4,M,-33.8,M,,*62
$PYRTM,2024,123.417017507593,14.526664917743
$GPGGA,100029.00,3413.4341,N,12029.4287,W,1,09,0.8,11.6,M,-33.8,M,,*60
$PYRTM,2024,123.417024775938,14.526672186076
$GPGGA,100030.00,3413.4345,N,12029.4294,W,1,09,0.8,13.3,M,-33.8,M,,*69
$PYRTM,2024,123.417040632188,14.526688042338
$GPGGA,100031.00,3413.4349,N,12029.4311,W,1,09,0.8,13.8,M,-33.8,M,,*63
$PYRTM,2024,123.417052220694,14.526699630833
$GPGGA,100032.00,3413.4354,N,12029.4332,W,1,09,0.8,12.0,M,-33.8,M,,*64
$PYRTM,2024,123.417063780150,14.526711190278
$GPGGA,100033.00,3413.4357,N,12029.4349,W,1,09,0.8,10.4,M,-33.8,M,,*6C
$PYRTM,2024,123.417075368229,14.526722778368
$GPGGA,100034.00,3413.4359,N,12029.4357,W,1,09,0.8,10.0,M,-33.8,M,,*6E
$PYRTM,2024,123.417086928113,14.526734338252
$GPGGA,100035.00,3413.4362,N,12029.4363,W,1,09,0.8,10.4,M,-33.8,M,,*64
$PYRTM,2024,123.417098516377,14.526745926516
$GPGGA,100036.00,3413.4368,N,12029.4380,W,1,09,0.8,11.0,M,-33.8,M,,*65
$PYRTM,2024,123.417109966389,14.526757376528
$GPGGA,100037.00,3413.4374,N,12029.4402,W,1,09,0.8,9.6,M,-33.8,M,,*5B
$PYRTM,2024,123.417117369977,14.526764780116
$GPGGA,100038.00,3413.4376,N,12029.4415,W,1,09,0.8,8.8,M,-33.8,M,,*5F
$PYRTM,2024,123.417133115231,14.526780525382
$GPGGA,100039.00,3413.4378,N,12029.4417,W,1,09,0.8,9.1,M,-33.8,M,,*5A
$PYRTM,2024,123.417144703935,14.526792114074
$GPGGA,100040.00,3413.4382,N,12029.4420,W,1,09,0.8,9.5,M,-33.8,M,,*51
$PYRTM,2024,123.417156260220,14.526803670359
$GPGGA,100041.00,3413.4389,N,12029.4435,W,1,09,0.8,9.5,M,-33.8,M,,*5F
$PYRTM,2024,123.417167847361,14.526815257500
$GPGGA,100042.00,3413.4392,N,12029.4453,W,1,09,0.8,8.8,M,-33.8,M,,*5A
$PYRTM,2024,123.417179406516,14.526826816655
$GPGGA,100043.00,3413.4393,N,12029.4463,W,1,09,0.8,8.4,M,-33.8,M,,*55
$PYRTM,2024,123.417191011192,14.526838421331
$GPGGA,100044.00,3413.4398,N,12029.4469,W,1,09,0.8,9.2,M,-33.8,M,,*54
$PYRTM,2024,123.417202672257,14.526850082396
$GPGGA,100045.00,3413.4404,N,12029.4476,W,1,09,0.8,10.0,M,-33.8,M,,*63
$PYRTM,2024,123.417214261447,14.526861671586
$GPGGA,100046.00,3413.4408,N,12029.4489,W,1,09,0.8,10.8,M,-33.8,M,,*64
$PYRTM,2024,123.417225820567,14.526873230706
$GPGGA,100047.00,3413.4408,N,12029.4505,W,1,09,0.8,11.1,M,-33.8,M,,*68
$PYRTM,2024,123.417237406076,14.526884816215
$GPGGA,100048.00,3413.4408,N,12029.4520,W,1,09,0.8,10.9,M,-33.8,M,,*69
$PYRTM,2024,123.417244695590,14.526892105741
$GPGGA,100049.00,3413.4411,N,12029.4532,W,1,09,0.8,10.8,M,-33.8,M,,*62
$PYRTM,2024,123.417256497569,14.526903907708
$GPGGA,100050.00,3413.4416,N,12029.4540,W,1,09,0.8,11.1,M,-33.8,M,,*60
$PYRTM,2024,123.417274893981,14.526922304120
$GPGGA,100051.00,3413.4422,N,12029.4549,W,1,09,0.8,11.2,M,-33.8,M,,*6C
$PYRTM,2024,123.417283704132,14.526931114271
$GPGGA,100052.00,3413.4425,N,12029.4562,W,1,09,0.8,11.1,M,-33.8,M,,*62
$PYRTM,2024,123.417295266146,14.526942676285
$GPGGA,100053.00,3413.4427,N,12029.4579,W,1,09,0.8,10.8,M,-33.8,M,,*63
$PYRTM,2024,123.417306853345,14.526954263484
$GPGGA,100054.00,3413.4430,N,12029.4594,W,1,09,0.8,10.4,M,-33.8,M,,*6D
$PYRTM,2024,123.417318413380,14.526965823519
$GPGGA,100055.00,3413.4436,N,12029.4606,W,1,09,0.8,10.5,M,-33.8,M,,*63
$PYRTM,2024,123.417330002060,14.526977412199
$GPGGA,100056.00,3413.4442,N,12029.4616,W,1,09,0.8,10.9,M,-33.8,M,,*6E
$PYRTM,2024,123.417341563958,14.526988974097
$GPGGA,100057.00,3413.4447,N,12029.4627,W,1,09,0.8,11.6,M,-33.8,M,,*66
$PYRTM,2024,123.417353153333,14.527000563472
$GPGGA,100058.00,3413.4449,N,12029.4644,W,1,09,0.8,11.7,M,-33.8,M,,*63
$PYRTM,2024,123.417364709572,14.527012119711
$GPGGA,100059.00,3413.4451,N,12029.4663,W,1,09,0.8,11.4,M,-33.8,M,,*6D
$PYRTM,2024,123.417376313171,14.527023723310
$GPGGA,100100.00,3413.4455,N,12029.4677,W,1,09,0.8,10.9,M,-33.8,M,,*6D
$PYRTM,2024,123.417387859144,14.527035269282
$GPGGA,100101.00,3413.4462,N,12029.4685,W,1,09,0.8,11.0,M,-33.8,M,,*6D
$PYRTM,2024,123.417395150637,14.527042560775
$GPGGA,100102.00,3413.4468,N,12029.4697,W,1,09,0.8,11.0,M,-33.8,M,,*67
$PYRTM,2024,123.417411007072,14.527058417211
$GPGGA,100103.00,3413.4473,N,12029.4715,W,1,09,0.8,10.6,M,-33.8,M,,*60
$PYRTM,2024,123.417422594769,14.527070004907
$GPGGA,100104.00,3413.4474,N,12029.4731,W,1,09,0.8,10.8,M,-33.8,M,,*68
$PYRTM,2024,123.417434156782,14.527081566921
$GPGGA,100105.00,3413.4475,N,12029.4740,W,1,09,0.8,12.0,M,-33.8,M,,*64
$PYRTM,2024,123.417445738310,14.527093148449
$GPGGA,100106.00,3413.4481,N,12029.4750,W,1,09,0.8,13.1,M,-33.8,M,,*6D
$PYRTM,2024,123.417457305521,14.527104715660
$GPGGA,100107.00,3413.4489,N,12029.4765,W,1,09,0.8,12.8,M,-33.8,M,,*6A
$PYRTM,2024,123.417464596979,14.527112007118
$GPGGA,100108.00,3413.4493,N,12029.4781,W,1,09,0.8,11.9,M,-33.8,M,,*66
$PYRTM,2024,123.417476404109,14.527123814248
$GPGGA,100109.00,3413.4494,N,12029.4794,W,1,09,0.8,11.7,M,-33.8,M,,*6A
$PYRTM,2024,123.417487975417,14.527135385556
$GPGGA,100110.00,3413.4498,N,12029.4806,W,1,09,0.8,11.5,M,-33.8,M,,*68
$PYRTM,2024,123.417506380451,14.527153790590
$GPGGA,100111.00,3413.4505,N,12029.4820,W,1,09,0.8,11.1,M,-33.8,M,,*6C
$PYRTM,2024,123.417517969120,14.527165379259
$GPGGA,100112.00,3413.4509,N,12029.4833,W,1,09,0.8,11.1,M,-33.8,M,,*61
$PYRTM,2024,123.417526751586,14.527174161725
$GPGGA,100113.00,3413.4509,N,12029.4847,W,1,09,0.8,11.8,M,-33.8,M,,*6A
$PYRTM,2024,123.417534041701,14.527181451840
$GPGGA,100114.00,3413.4510,N,12029.4860,W,1,09,0.8,12.8,M,-33.8,M,,*63
$PYRTM,2024,123.417545848333,14.527193258472
$GPGGA,100115.00,3413.4516,N,12029.4872,W,1,09,0.8,13.4,M,-33.8,M,,*6A
$PYRTM,2024,123.417561488843,14.527208898981
$GPGGA,100116.00,3413.4524,N,12029.4884,W,1,09,0.8,12.9,M,-33.8,M,,*6D
$PYRTM,2024,123.417573049097,14.527220459236
$GPGGA,100117.00,3413.4530,N,12029.4899,W,1,09,0.8,11.8,M,-33.8,M,,*67
$PYRTM,2024,123.417584638889,14.527232049028
$GPGGA,100118.00,3413.4533,N,12029.4917,W,1,09,0.8,10.5,M,-33.8,M,,*60
$PYRTM,2024,123.417596197025,14.527243607164
$GPGGA,100119.00,3413.4535,N,12029.4932,W,1,09,0.8,10.3,M,-33.8,M,,*66
$PYRTM,2024,123.417603487650,14.527250897789
$GPGGA,100120.00,3413.4540,N,12029.4939,W,1,09,0.8,10.6,M,-33.8,M,,*60
$PYRTM,2024,123.417615292685,14.527262702824
$GPGGA,100121.00,3413.4547,N,12029.4944,W,1,09,0.8,10.6,M,-33.8,M,,*6C
$PYRTM,2024,123.417633709444,14.527281119583
$GPGGA,100122.00,3413.4556,N,12029.4959,W,1,09,0.8,10.8,M,-33.8,M,,*6D
$PYRTM,2024,123.417642378194,14.527289788333
$GPGGA,100123.00,3413.4560,N,12029.4981,W,1,09,0.8,9.8,M,-33.8,M,,*54
$PYRTM,2024,123.417653964549,14.527301374688
$GPGGA,100124.00,3413.4562,N,12029.4997,W,1,09,0.8,8.2,M,-33.8,M,,*5D
$PYRTM,2024,123.417665525150,14.527312935289
$GPGGA,100125.00,3413.4566,N,12029.5005,W,1,09,0.8,7.6,M,-33.8,M,,*50
$PYRTM,2024,123.417677113519,14.527324523657
$GPGGA,100126.00,3413.4574,N,12029.5010,W,1,09,0.8,8.1,M,-33.8,M,,*5C
$PYRTM,2024,123.417688676539,14.527336086678
$GPGGA,100127.00,3413.4581,N,12029.5021,W,1,09,0.8,9.1,M,-33.8,M,,*54
$PYRTM,2024,123.417700260579,14.527347670718
$GPGGA,100128.00,3413.4585,N,12029.5037,W,1,09,0.8,9.9,M,-33.8,M,,*50
$PYRTM,2024,123.417711938218,14.527359348356
$GPGGA,100129.00,3413.4587,N,12029.5054,W,1,09,0.8,10.1,M,-33.8,M,,*66
$PYRTM,2024,123.417723412130,14.527370822269
$GPGGA,100130.00,3413.4590,N,12029.5069,W,1,09,0.8,9.8,M,-33.8,M,,*57
$PYRTM,2024,123.417734983194,14.527382393345
$GPGGA,100131.00,3413.4596,N,12029.5079,W,1,09,0.8,9.4,M,-33.8,M,,*5D
$PYRTM,2024,123.417746561100,14.527393971238
$GPGGA,100132.00,3413.4603,N,12029.5087,W,1,09,0.8,9.3,M,-33.8,M,,*57
$PYRTM,2024,123.417758132280,14.527405542419
$GPGGA,100133.00,3413.4609,N,12029.5097,W,1,09,0.8,9.5,M,-33.8,M,,*5B
$PYRTM,2024,123.417769706586,14.527417116725
$GPGGA,100134.00,3413.4613,N,12029.5113,W,1,09,0.8,9.5,M,-33.8,M,,*5A
$PYRTM,2024,123.417781280208,14.527428690347
$GPGGA,100135.00,3413.4614,N,12029.5131,W,1,09,0.8,9.3,M,-33.8,M,,*5A
$PYRTM,2024,123.417792854387,14.527440264525
$GPGGA,100136.00,3413.4616,N,12029.5145,W,1,09,0.8,9.9,M,-33.8,M,,*52
$PYRTM,2024,123.417804531146,14.527451941296
$GPGGA,100137.00,3413.4625,N,12029.5155,W,1,09,0.8,10.5,M,-33.8,M,,*66
$PYRTM,2024,123.417811823935,14.527459234074
$GPGGA,100138.00,3413.4635,N,12029.5164,W,1,09,0.8,10.8,M,-33.8,M,,*67
$PYRTM,2024,123.417827681748,14.527475091898
$GPGGA,100139.00,3413.4638,N,12029.5176,W,1,09,0.8,11.1,M,-33.8,M,,*60
$PYRTM,2024,123.417839266620,14.527486676759
$GPGGA,100140.00,3413.4636,N,12029.5194,W,1,09,0.8,10.9,M,-33.8,M,,*65
$PYRTM,2024,123.417850725370,14.527498135509
$GPGGA,100141.00,3413.4638,N,12029.5212,W,1,09,0.8,9.8,M,-33.8,M,,*5E
$PYRTM,2024,123.417862299919,14.527509710058
$GPGGA,100142.00,3413.4646,N,12029.5225,W,1,09,0.8,9.1,M,-33.8,M,,*59
$PYRTM,2024,123.417869695313,14.527517105451
$GPGGA,100143.00,3413.4655,N,12029.5235,W,1,09,0.8,9.0,M,-33.8,M,,*5A
$PYRTM,2024,123.417885462199,14.527532872338
$GPGGA,100144.00,3413.4659,N,12029.5247,W,1,09,0.8,9.8,M,-33.8,M,,*5C
$PYRTM,2024,123.417892844005,14.527540254155
$GPGGA,100145.00,3413.4659,N,12029.5262,W,1,09,0.8,11.0,M,-33.8,M,,*6B
$PYRTM,2024,123.417908716030,14.527556126181
$GPGGA,100146.00,3413.4663,N,12029.5278,W,1,09,0.8,11.4,M,-33.8,M,,*6E
$PYRTM,2024,123.417920273912,14.527567684063
$GPGGA,100147.00,3413.4671,N,12029.5294,W,1,09,0.8,10.6,M,-33.8,M,,*6D
$PYRTM,2024,123.417931747894,14.527579158032
$GPGGA,100148.00,3413.4679,N,12029.5307,W,1,09,0.8,9.6,M,-33.8,M,,*59
$PYRTM,2024,123.417943313947,14.527590724086
$GPGGA,100149.00,3413.4680,N,12029.5315,W,1,09,0.8,9.4,M,-33.8,M,,*5F
$PYRTM,2024,123.417954893843,14.527602303981
$GPGGA,100150.00,3413.4679,N,12029.5324,W,1,09,0.8,9.9,M,-33.8,M,,*5E
$PYRTM,2024,123.417966570127,14.527613980266
$GPGGA,100151.00,3413.4682,N,12029.5343,W,1,09,0.8,10.1,M,-33.8,M,,*6A
$PYRTM,2024,123.417973862847,14.527621272986
$GPGGA,100152.00,3413.4689,N,12029.5364,W,1,09,0.8,9.2,M,-33.8,M,,*5C
$PYRTM,2024,123.417992496238,14.527639906377
$GPGGA,100153.00,3413.4696,N,12029.5377,W,1,09,0.8,8.2,M,-33.8,M,,*50
$PYRTM,2024,123.418001189850,14.527648599988
$GPGGA,100154.00,3413.4698,N,12029.5384,W,1,09,0.8,8.2,M,-33.8,M,,*55
$PYRTM,2024,123.418012764306,14.527660174444
$GPGGA,100155.00,3413.4697,N,12029.5394,W,1,09,0.8,8.7,M,-33.8,M,,*5F
$PYRTM,2024,123.418024340289,14.527671750428
$GPGGA,100156.00,3413.4700,N,12029.5412,W,1,09,0.8,9.0,M,-33.8,M,,*5C
$PYRTM,2024,123.418035912685,14.527683322824
$GPGGA,100157.00,3413.4704,N,12029.5430,W,1,09,0.8,8.8,M,-33.8,M,,*50
$PYRTM,2024,123.418047487674,14.527694897813
$GPGGA,100158.00,3413.4707,N,12029.5441,W,1,09,0.8,8.9,M,-33.8,M,,*5B
$PYRTM,2024,123.418054882940,14.527702293079
$GPGGA,100159.00,3413.4711,N,12029.5450,W,1,09,0.8,9.3,M,-33.8,M,,*56
$PYRTM,2024,123.418070754676,14.527718164815
$GPGGA,100200.00,3413.4713,N,12029.5462,W,1,09,0.8,10.0,M,-33.8,M,,*61
$PYRTM,2024,123.418082312049,14.527729722187
$GPGGA,100201.00,3413.4715,N,12029.5478,W,1,09,0.8,10.2,M,-33.8,M,,*6F
$PYRTM,2024,123.418089606134,14.527737016273
$GPGGA,100202.00,3413.4719,N,12029.5495,W,1,09,0.8,10.1,M,-33.8,M,,*60
$PYRTM,2024,123.418105461956,14.527752872095
$GPGGA,100203.00,3413.4723,N,12029.5507,W,1,09,0.8,10.2,M,-33.8,M,,*61
$PYRTM,2024,123.418117062072,14.527764472211
$GPGGA,100204.00,3413.4729,N,12029.5518,W,1,09,0.8,10.5,M,-33.8,M,,*65
$PYRTM,2024,123.418124343241,14.527771753380
$GPGGA,100205.00,3413.4733,N,12029.5531,W,1,09,0.8,11.0,M,-33.8,M,,*60
$PYRTM,2024,123.418140195891,14.527787606030
$GPGGA,100206.00,3413.4737,N,12029.5546,W,1,09,0.8,10.9,M,-33.8,M,,*6F
$PYRTM,2024,123.418151759606,14.527799169745
$GPGGA,100207.00,3413.4740,N,12029.5561,W,1,09,0.8,11.0,M,-33.8,M,,*63
$PYRTM,2024,123.418159050509,14.527806460648
$GPGGA,100208.00,3413.4745,N,12029.5574,W,1,09,0.8,11.1,M,-33.8,M,,*6C
$PYRTM,2024,123.418174908519,14.527822318657
$GPGGA,100209.00,3413.4748,N,12029.5586,W,1,09,0.8,11.3,M,-33.8,M,,*6F
$PYRTM,2024,123.418186494074,14.527833904213
$GPGGA,100210.00,3413.4751,N,12029.5602,W,1,09,0.8,11.6,M,-33.8,M,,*65
$PYRTM,2024,123.418193774213,14.527841184352
$GPGGA,100211.00,3413.4754,N,12029.5618,W,1,09,0.8,11.7,M,-33.8,M,,*6B
$PYRTM,2024,123.418209643148,14.527857053299
$GPGGA,100212.00,3413.4760,N,12029.5632,W,1,09,0.8,11.5,M,-33.8,M,,*65
$PYRTM,2024,123.418221202894,14.527868613032
$GPGGA,100213.00,3413.4768,N,12029.5646,W,1,09,0.8,11.1,M,-33.8,M,,*6B
$PYRTM,2024,123.418232790972,14.527880201111
$GPGGA,100214.00,3413.4774,N,12029.5661,W,1,09,0.8,10.9,M,-33.8,M,,*6D
$PYRTM,2024,123.418240070729,14.527887480868
$GPGGA,100215.00,3413.4773,N,12029.5675,W,1,09,0.8,11.9,M,-33.8,M,,*6F
$PYRTM,2024,123.418255941609,14.527903351759
$GPGGA,100216.00,3413.4772,N,12029.5685,W,1,09,0.8,13.4,M,-33.8,M,,*6D
$PYRTM,2024,123.418267500324,14.527914910463
$GPGGA,100217.00,3413.4779,N,12029.5701,W,1,09,0.8,13.6,M,-33.8,M,,*68
$PYRTM,2024,123.418279102836,14.527926512986
$GPGGA,100218.00,3413.4790,N,12029.5718,W,1,09,0.8,12.7,M,-33.8,M,,*68
$PYRTM,2024,123.418290649456,14.527938059595
$GPGGA,100219.00,3413.4794,N,12029.5728,W,1,09,0.8,12.2,M,-33.8,M,,*6B
$PYRTM,2024,123.418302236076,14.527949646215
$GPGGA,100220.00,3413.4795,N,12029.5736,W,1,09,0.8,12.7,M,-33.8,M,,*6A
$PYRTM,2024,123.418313797836,14.527961207975
$GPGGA,100221.00,3413.4798,N,12029.5748,W,1,09,0.8,13.4,M,-33.8,M,,*6D
$PYRTM,2024,123.418325384965,14.527972795104
$GPGGA,100222.00,3413.4804,N,12029.5765,W,1,09,0.8,13.0,M,-33.8,M,,*6F
$PYRTM,2024,123.418332792014,14.527980202153
$GPGGA,100223.00,3413.4808,N,12029.5776,W,1,09,0.8,13.1,M,-33.8,M,,*61
$PYRTM,2024,123.418351436539,14.527998846678
$GPGGA,100224.00,3413.4809,N,12029.5786,W,1,09,0.8,13.5,M,-33.8,M,,*6C
$PYRTM,2024,123.418360094387,14.528007504525
$GPGGA,100225.00,3413.4812,N,12029.5798,W,1,09,0.8,13.8,M,-33.8,M,,*65
$PYRTM,2024,123.418371680544,14.528019090683
$GPGGA,100226.00,3413.4818,N,12029.5811,W,1,09,0.8,13.6,M,-33.8,M,,*6C
$PYRTM,2024,123.418378961215,14.528026371354
$GPGGA,100227.00,3413.4822,N,12029.5823,W,1,09,0.8,13.6,M,-33.8,M,,*65
$PYRTM,2024,123.418394830729,14.528042240868
$GPGGA,100228.00,3413.4823,N,12029.5834,W,1,09,0.8,14.1,M,-33.8,M,,*6D
$PYRTM,2024,123.418406391389,14.528053801528
$GPGGA,100229.00,3413.4826,N,12029.5847,W,1,09,0.8,14.3,M,-33.8,M,,*6F
$PYRTM,2024,123.418418029780,14.528065439919
$GPGGA,100230.00,3413.4830,N,12029.5863,W,1,09,0.8,13.7,M,-33.8,M,,*65
$PYRTM,2024,123.418429539583,14.528076949722
$GPGGA,100231.00,3413.4836,N,12029.5876,W,1,09,0.8,13.2,M,-33.8,M,,*63
$PYRTM,2024,123.418441141065,14.528088551204
$GPGGA,100232.00,3413.4841,N,12029.5888,W,1,09,0.8,13.2,M,-33.8,M,,*61
$PYRTM,2024,123.418452688079,14.528100098218
$GPGGA,100233.00,3413.4845,N,12029.5900,W,1,09,0.8,13.8,M,-33.8,M,,*6F
$PYRTM,2024,123.418464279005,14.528111689144
$GPGGA,100234.00,3413.4849,N,12029.5912,W,1,09,0.8,14.6,M,-33.8,M,,*6E
$PYRTM,2024,123.418475837465,14.528123247604
$GPGGA,100235.00,3413.4853,N,12029.5925,W,1,09,0.8,15.0,M,-33.8,M,,*67
$PYRTM,2024,123.418487423206,14.528134833345
$GPGGA,100236.00,3413.4858,N,12029.5942,W,1,09,0.8,14.5,M,-33.8,M,,*6A
$PYRTM,2024,123.418498985150,14.528146395289
$GPGGA,100237.00,3413.4863,N,12029.5958,W,1,09,0.8,13.5,M,-33.8,M,,*6F
$PYRTM,2024,123.418510571528,14.528157981667
$GPGGA,100238.00,3413.4866,N,12029.5968,W,1,09,0.8,13.3,M,-33.8,M,,*60
$PYRTM,2024,123.418522133391,14.528169543530
$GPGGA,100239.00,3413.4869,N,12029.5977,W,1,09,0.8,13.8,M,-33.8,M,,*6B
$PYRTM,2024,123.418533722789,14.528181132940
$GPGGA,100240.00,3413.4876,N,12029.5990,W,1,09,0.8,13.9,M,-33.8,M,,*63
$PYRTM,2024,123.418545282639,14.528192692778
$GPGGA,100241.00,3413.4883,N,12029.6007,W,1,09,0.8,13.6,M,-33.8,M,,*63
$PYRTM,2024,123.418556868738,14.528204278889
$GPGGA,100242.00,3413.4884,N,12029.6019,W,1,09,0.8,13.8,M,-33.8,M,,*66
$PYRTM,2024,123.418568431134,14.528215841273
$GPGGA,100243.00,3413.4884,N,12029.6032,W,1,09,0.8,14.4,M,-33.8,M,,*65
$PYRTM,2024,123.418580017384,14.528227427535
$GPGGA,100244.00,3413.4888,N,12029.6047,W,1,09,0.8,13.9,M,-33.8,M,,*66
$PYRTM,2024,123.418587298079,14.528234708229
$GPGGA,100245.00,3413.4896,N,12029.6061,W,1,09,0.8,13.2,M,-33.8,M,,*67
$PYRTM,2024,123.418603166979,14.528250577118
$GPGGA,100246.00,3413.4899,N,12029.6070,W,1,09,0.8,13.3,M,-33.8,M,,*6A
$PYRTM,2024,123.418610444884,14.528257855023
$GPGGA,100247.00,3413.4899,N,12029.6083,W,1,09,0.8,14.0,M,-33.8,M,,*63
$PYRTM,2024,123.418629095185,14.528276505324
$GPGGA,100248.00,3413.4900,N,12029.6100,W,1,09,0.8,14.1,M,-33.8,M,,*66
$PYRTM,2024,123.418637874618,14.528285284757
$GPGGA,100249.00,3413.4906,N,12029.6113,W,1,09,0.8,14.0,M,-33.8,M,,*62
$PYRTM,2024,123.418649465324,14.528296875463
$GPGGA,100250.00,3413.4912,N,12029.6122,W,1,09,0.8,14.1,M,-33.8,M,,*6C
$PYRTM,2024,123.418661024410,14.528308434549
$GPGGA,100251.00,3413.4914,N,12029.6135,W,1,09,0.8,14.2,M,-33.8,M,,*6E
$PYRTM,2024,123.418672612708,14.528320022847
$GPGGA,100252.00,3413.4915,N,12029.6154,W,1,09,0.8,13.7,M,-33.8,M,,*69
$PYRTM,2024,123.418684173565,14.528331583704
$GPGGA,100253.00,3413.4918,N,12029.6170,W,1,09,0.8,13.0,M,-33.8,M,,*64
$PYRTM,2024,123.418691463345,14.528338873484
$GPGGA,100254.00,3413.4925,N,12029.6180,W,1,09,0.8,13.1,M,-33.8,M,,*63
$PYRTM,2024,123.418710098611,14.528357508750
$GPGGA,100255.00,3413.4931,N,12029.6188,W,1,09,0.8,13.9,M,-33.8,M,,*67
$PYRTM,2024,123.418718909676,14.528366319815
$GPGGA,100256.00,3413.4933,N,12029.6203,W,1,09,0.8,14.6,M,-33.8,M,,*6E
$PYRTM,2024,123.418726187361,14.528373597500
$GPGGA,100257.00,3413.4935,N,12029.6222,W,1,09,0.8,14.2,M,-33.8,M,,*6E
$PYRTM,2024,123.418742055822,14.528389465961
$GPGGA,100258.00,3413.4939,N,12029.6237,W,1,09,0.8,13.8,M,-33.8,M,,*64
$PYRTM,2024,123.418753617731,14.528401027859
$GPGGA,100259.00,3413.4943,N,12029.6247,W,1,09,0.8,13.6,M,-33.8,M,,*61
$PYRTM,2024,123.418765204491,14.528412614630
$GPGGA,100300.00,3413.4947,N,12029.6260,W,1,09,0.8,13.6,M,-33.8,M,,*6D
$PYRTM,2024,123.418776766042,14.528424176181
$GPGGA,100301.00,3413.4950,N,12029.6276,W,1,09,0.8,13.3,M,-33.8,M,,*68
$PYRTM,2024,123.418788369780,14.528435779931
$GPGGA,100302.00,3413.4954,N,12029.6293,W,1,09,0.8,13.1,M,-33.8,M,,*66
$PYRTM,2024,123.418799915185,14.528447325324
$GPGGA,100303.00,3413.4960,N,12029.6307,W,1,09,0.8,13.1,M,-33.8,M,,*6C
$PYRTM,2024,123.418807206782,14.528454616921
$GPGGA,100304.00,3413.4965,N,12029.6322,W,1,09,0.8,12.8,M,-33.8,M,,*61
$PYRTM,2024,123.418823063032,14.528470473171
$GPGGA,100305.00,3413.4971,N,12029.6337,W,1,09,0.8,12.8,M,-33.8,M,,*61
$PYRTM,2024,123.418834663877,14.528482074016
$GPGGA,100306.00,3413.4973,N,12029.6351,W,1,09,0.8,13.2,M,-33.8,M,,*6B
$PYRTM,2024,123.418846212743,14.528493622882
$GPGGA,100307.00,3413.4974,N,12029.6365,W,1,09,0.8,14.0,M,-33.8,M,,*6F
$PYRTM,2024,123.418857799734,14.528505209873
$GPGGA,100308.00,3413.4978,N,12029.6382,W,1,09,0.8,14.0,M,-33.8,M,,*65
$PYRTM,2024,123.418869358831,14.528516768970
$GPGGA,100309.00,3413.4984,N,12029.6401,W,1,09,0.8,11.7,M,-33.8,M,,*69
$PYRTM,2024,123.418880947106,14.528528357245
$GPGGA,100310.00,3413.4988,N,12029.6415,W,1,09,0.8,10.9,M,-33.8,M,,*67
$PYRTM,2024,123.418892509479,14.528539919618
$GPGGA,100311.00,3413.4987,N,12029.6422,W,1,09,0.8,11.7,M,-33.8,M,,*62
$PYRTM,2024,123.418904096319,14.528551506458
$GPGGA,100312.00,3413.4989,N,12029.6433,W,1,09,0.8,12.8,M,-33.8,M,,*63
$PYRTM,2024,123.418911374988,14.528558785127
$GPGGA,100313.00,3413.4996,N,12029.6452,W,1,09,0.8,13.2,M,-33.8,M,,*60
$PYRTM,2024,123.418927243854,14.528574653993
$GPGGA,100314.00,3413.5001,N,12029.6472,W,1,09,0.8,12.3,M,-33.8,M,,*63
$PYRTM,2024,123.418938805833,14.528586215972
$GPGGA,100315.00,3413.5004,N,12029.6486,W,1,09,0.8,11.8,M,-33.8,M,,*64
$PYRTM,2024,123.418950392627,14.528597802766
$GPGGA,100316.00,3413.5004,N,12029.6494,W,1,09,0.8,12.0,M,-33.8,M,,*6F
$PYRTM,2024,123.418961955012,14.528609365150
$GPGGA,100317.00,3413.5006,N,12029.6503,W,1,09,0.8,12.2,M,-33.8,M,,*61
$PYRTM,2024,123.418973545058,14.528620955197
$GPGGA,100318.00,3413.5011,N,12029.6520,W,1,09,0.8,12.2,M,-33.8,M,,*69
$PYRTM,2024,123.418980820602,14.528628230741
$GPGGA,100319.00,3413.5017,N,12029.6539,W,1,09,0.8,11.1,M,-33.8,M,,*66
$PYRTM,2024,123.418996578877,14.528643989016
$GPGGA,100320.00,3413.5022,N,12029.6552,W,1,09,0.8,9.8,M,-33.8,M,,*57
$PYRTM,2024,123.419008149410,14.528655559549
$GPGGA,100321.00,3413.5024,N,12029.6561,W,1,09,0.8,9.8,M,-33.8,M,,*50
$PYRTM,2024,123.419015542720,14.528662952859
$GPGGA,100322.00,3413.5025,N,12029.6572,W,1,09,0.8,10.8,M,-33.8,M,,*68
$PYRTM,2024,123.419031398935,14.528678809074
$GPGGA,100323.00,3413.5029,N,12029.6588,W,1,09,0.8,11.8,M,-33.8,M,,*61
$PYRTM,2024,123.419042989977,14.528690400116
$GPGGA,100324.00,3413.5031,N,12029.6602,W,1,09,0.8,12.8,M,-33.8,M,,*6D
$PYRTM,2024,123.419050279502,14.528697689641
$GPGGA,100325.00,3413.5033,N,12029.6613,W,1,09,0.8,13.3,M,-33.8,M,,*64
$PYRTM,2024,123.419068912593,14.528716322731
$GPGGA,100326.00,3413.5037,N,12029.6627,W,1,09,0.8,12.6,M,-33.8,M,,*60
$PYRTM,2024,123.419077695613,14.528725105752
$GPGGA,100327.00,3413.5043,N,12029.6642,W,1,09,0.8,11.1,M,-33.8,M,,*65
$PYRTM,2024,123.419089284190,14.528736694329
$GPGGA,100328.00,3413.5047,N,12029.6653,W,1,09,0.8,10.3,M,-33.8,M,,*6D
$PYRTM,2024,123.419096562604,14.528743972743
$GPGGA,100329.00,3413.5046,N,12029.6662,W,1,09,0.8,10.9,M,-33.8,M,,*65
$PYRTM,2024,123.419112431458,14.528759841597
$GPGGA,100330.00,3413.5044,N,12029.6676,W,1,09,0.8,11.8,M,-33.8,M,,*6A
$PYRTM,2024,123.419123994074,14.528771404213
$GPGGA,100331.00,3413.5048,N,12029.6695,W,1,09,0.8,12.1,M,-33.8,M,,*60
$PYRTM,2024,123.419131288032,14.528778698171
$GPGGA,100332.00,3413.5056,N,12029.6711,W,1,09,0.8,11.5,M,-33.8,M,,*66
$PYRTM,2024,123.419147142581,14.528794552720
$GPGGA,100333.00,3413.5061,N,12029.6720,W,1,09,0.8,11.5,M,-33.8,M,,*61
$PYRTM,2024,123.419158731875,14.528806142014
$GPGGA,100334.00,3413.5062,N,12029.6726,W,1,09,0.8,12.4,M,-33.8,M,,*61
$PYRTM,2024,123.419170291319,14.528817701470
$GPGGA,100335.00,3413.5061,N,12029.6736,W,1,09,0.8,13.3,M,-33.8,M,,*64
$PYRTM,2024,123.419181880150,14.528829290289
$GPGGA,100336.00,3413.5064,N,12029.6753,W,1,09,0.8,13.1,M,-33.8,M,,*63
$PYRTM,2024,123.419193437130,14.528840847269
$GPGGA,100337.00,3413.5069,N,12029.6771,W,1,09,0.8,11.9,M,-33.8,M,,*65
$PYRTM,2024,123.419200731551,14.528848141701
$GPGGA,100338.00,3413.5073,N,12029.6782,W,1,09,0.8,11.6,M,-33.8,M,,*62
$PYRTM,2024,123.419212548310,14.528859958449
$GPGGA,100339.00,3413.5076,N,12029.6789,W,1,09,0.8,12.3,M,-33.8,M,,*6B
$PYRTM,2024,123.419228174144,14.528875584282
$GPGGA,100340.00,3413.5080,N,12029.6799,W,1,09,0.8,13.1,M,-33.8,M,,*6E
$PYRTM,2024,123.419239736134,14.528887146273
$GPGGA,100341.00,3413.5086,N,12029.6814,W,1,09,0.8,13.1,M,-33.8,M,,*63
$PYRTM,2024,123.419247025903,14.528894436042
$GPGGA,100342.00,3413.5089,N,12029.6828,W,1,09,0.8,13.0,M,-33.8,M,,*61
$PYRTM,2024,123.419262882512,14.528910292650
$GPGGA,100343.00,3413.5090,N,12029.6841,W,1,09,0.8,13.0,M,-33.8,M,,*67
$PYRTM,2024,123.419274469838,14.528921879977
$GPGGA,100344.00,3413.5091,N,12029.6855,W,1,09,0.8,13.0,M,-33.8,M,,*64
$PYRTM,2024,123.419286030961,14.528933441100
$GPGGA,100345.00,3413.5097,N,12029.6867,W,1,09,0.8,13.0,M,-33.8,M,,*62
$PYRTM,2024,123.419297622442,14.528945032581
$GPGGA,100346.00,3413.5105,N,12029.6875,W,1,09,0.8,13.0,M,-33.8,M,,*68
$PYRTM,2024,123.419309180799,14.528956590949
$GPGGA,100347.00,3413.5112,N,12029.6886,W,1,09,0.8,13.0,M,-33.8,M,,*63
$PYRTM,2024,123.419320764699,14.528968174838
$GPGGA,100348.00,3413.5113,N,12029.6903,W,1,09,0.8,12.8,M,-33.8,M,,*68
$PYRTM,2024,123.419332328461,14.528979738600
$GPGGA,100349.00,3413.5113,N,12029.6922,W,1,09,0.8,12.7,M,-33.8,M,,*65
$PYRTM,2024,123.419343919178,14.528991329317
$GPGGA,100350.00,3413.5117,N,12029.6935,W,1,09,0.8,13.0,M,-33.8,M,,*69
$PYRTM,2024,123.419351194907,14.528998605046
$GPGGA,100351.00,3413.5126,N,12029.6943,W,1,09,0.8,13.5,M,-33.8,M,,*6E
$PYRTM,2024,123.419367067350,14.529014477488
$GPGGA,100352.00,3413.5136,N,12029.6953,W,1,09,0.8,13.7,M,-33.8,M,,*6F
$PYRTM,2024,123.419378625822,14.529026035961
$GPGGA,100353.00,3413.5141,N,12029.6966,W,1,09,0.8,13.8,M,-33.8,M,,*67
$PYRTM,2024,123.419390212639,14.529037622778
$GPGGA,100354.00,3413.5141,N,12029.6980,W,1,09,0.8,14.0,M,-33.8,M,,*67
$PYRTM,2024,123.419401774271,14.529049184410
$GPGGA,100355.00,3413.5141,N,12029.6995,W,1,09,0.8,14.0,M,-33.8,M,,*62
$PYRTM,2024,123.419416139421,14.529063549560
$GPGGA,100356.00,3413.5145,N,12029.7011,W,1,09,0.8,13.2,M,-33.8,M,,*64
$PYRTM,2024,123.419430258762,14.529077668900
$GPGGA,100357.00,3413.5153,N,12029.7028,W,1,09,0.8,11.8,M,-33.8,M,,*60
$PYRTM,2024,123.419436510035,14.529083920174
$GPGGA,100358.00,3413.5163,N,12029.7041,W,1,09,0.8,10.7,M,-33.8,M,,*6D
$PYRTM,2024,123.419448070451,14.529095480590
$GPGGA,100359.00,3413.5168,N,12029.7048,W,1,09,0.8,10.6,M,-33.8,M,,*6F
$PYRTM,2024,123.419459652917,14.529107063056
$GPGGA,100400.00,3413.5170,N,12029.7055,W,1,09,0.8,11.0,M,-33.8,M,,*66
$PYRTM,2024,123.419471219259,14.529118629398
$GPGGA,100401.00,3413.5173,N,12029.7071,W,1,09,0.8,11.8,M,-33.8,M,,*6A
$PYRTM,2024,123.419482806296,14.529130216435
$GPGGA,100402.00,3413.5177,N,12029.7092,W,1,09,0.8,11.4,M,-33.8,M,,*6C
$PYRTM,2024,123.419494367269,14.529141777407
$GPGGA,100403.00,3413.5181,N,12029.7108,W,1,09,0.8,10.0,M,-33.8,M,,*63
$PYRTM,2024,123.419505838333,14.529153248472
$GPGGA,100404.00,3413.5187,N,12029.7116,W,1,09,0.8,9.3,M,-33.8,M,,*56
$PYRTM,2024,123.419517412604,14.529164822743
$GPGGA,100405.00,3413.5194,N,12029.7122,W,1,09,0.8,9.3,M,-33.8,M,,*52
$PYRTM,2024,123.419529001597,14.529176411736
$GPGGA,100406.00,3413.5200,N,12029.7135,W,1,09,0.8,9.5,M,-33.8,M,,*5F
$PYRTM,2024,123.419540561123,14.529187971262
$GPGGA,100407.00,3413.5206,N,12029.7154,W,1,09,0.8,9.4,M,-33.8,M,,*5E
$PYRTM,2024,123.419552139225,14.529199549375
$GPGGA,100408.00,3413.5210,N,12029.7172,W,1,09,0.8,9.4,M,-33.8,M,,*52
$PYRTM,2024,123.419563812801,14.529211222940
$GPGGA,100409.00,3413.5215,N,12029.7183,W,1,09,0.8,10.3,M,-33.8,M,,*67
$PYRTM,2024,123.419575401192,14.529222811331
$GPGGA,100410.00,3413.5218,N,12029.7192,W,1,09,0.8,11.6,M,-33.8,M,,*66
$PYRTM,2024,123.419586960845,14.529234370984
$GPGGA,100411.00,3413.5222,N,12029.7205,W,1,09,0.8,12.5,M,-33.8,M,,*63
$PYRTM,2024,123.419598548391,14.529245958530
$GPGGA,100412.00,3413.5226,N,12029.7221,W,1,09,0.8,12.3,M,-33.8,M,,*64
$PYRTM,2024,123.419610109884,14.529257520023
$GPGGA,100413.00,3413.5228,N,12029.7235,W,1,09,0.8,11.7,M,-33.8,M,,*69
$PYRTM,2024,123.419621697419,14.529269107558
$GPGGA,100414.00,3413.5231,N,12029.7249,W,1,09,0.8,10.5,M,-33.8,M,,*6E
$PYRTM,2024,123.419633155729,14.529280565868
$GPGGA,100415.00,3413.5236,N,12029.7265,W,1,09,0.8,9.6,M,-33.8,M,,*5D
$PYRTM,2024,123.419644730312,14.529292140463
$GPGGA,100416.00,3413.5241,N,12029.7279,W,1,09,0.8,9.5,M,-33.8,M,,*50
$PYRTM,2024,123.419656406678,14.529303816817
$GPGGA,100417.00,3413.5244,N,12029.7288,W,1,09,0.8,10.9,M,-33.8,M,,*6E
$PYRTM,2024,123.419667993229,14.529315403368
$GPGGA,100418.00,3413.5246,N,12029.7298,W,1,09,0.8,12.7,M,-33.8,M,,*6E
$PYRTM,2024,123.419679556748,14.529326966887
$GPGGA,100419.00,3413.5252,N,12029.7314,W,1,09,0.8,13.4,M,-33.8,M,,*6D
$PYRTM,2024,123.419691157986,14.529338568125
$GPGGA,100420.00,3413.5258,N,12029.7331,W,1,09,0.8,12.4,M,-33.8,M,,*6B
$PYRTM,2024,123.419702704711,14.529350114861
$GPGGA,100421.00,3413.5260,N,12029.7342,W,1,09,0.8,11.2,M,-33.8,M,,*60
$PYRTM,2024,123.419714296331,14.529361706470
$GPGGA,100422.00,3413.5257,N,12029.7349,W,1,09,0.8,11.5,M,-33.8,M,,*6B
$PYRTM,2024,123.419721570069,14.529368980208
$GPGGA,100423.00,3413.5258,N,12029.7361,W,1,09,0.8,11.6,M,-33.8,M,,*6C
$PYRTM,2024,123.419737453947,14.529384864086
$GPGGA,100424.00,3413.5263,N,12029.7377,W,1,09,0.8,11.7,M,-33.8,M,,*65
$PYRTM,2024,123.419749001308,14.529396411447
$GPGGA,100425.00,3413.5269,N,12029.7389,W,1,09,0.8,11.8,M,-33.8,M,,*60
$PYRTM,2024,123.419760587326,14.529407997465
$GPGGA,100426.00,3413.5275,N,12029.7400,W,1,09,0.8,11.9,M,-33.8,M,,*69
$PYRTM,2024,123.419767883646,14.529415293796
$GPGGA,100427.00,3413.5276,N,12029.7413,W,1,09,0.8,12.3,M,-33.8,M,,*60
$PYRTM,2024,123.419786629722,14.529434039861
$GPGGA,100428.00,3413.5273,N,12029.7427,W,1,09,0.8,13.0,M,-33.8,M,,*6F
$PYRTM,2024,123.419795299005,14.529442709144
$GPGGA,100429.00,3413.5275,N,12029.7442,W,1,09,0.8,12.9,M,-33.8,M,,*63
$PYRTM,2024,123.419802704873,14.529450115012
$GPGGA,100430.00,3413.5282,N,12029.7455,W,1,09,0.8,12.4,M,-33.8,M,,*68
$PYRTM,2024,123.419818445289,14.529465855428
$GPGGA,100431.00,3413.5287,N,12029.7463,W,1,09,0.8,12.3,M,-33.8,M,,*6E
$PYRTM,2024,123.419830032847,14.529477442986
$GPGGA,100432.00,3413.5290,N,12029.7473,W,1,09,0.8,12.6,M,-33.8,M,,*6F
$PYRTM,2024,123.419841594097,14.529489004236
$GPGGA,100433.00,3413.5291,N,12029.7490,W,1,09,0.8,12.2,M,-33.8,M,,*66
$PYRTM,2024,123.419853182130,14.529500592269
$GPGGA,100434.00,3413.5293,N,12029.7506,W,1,09,0.8,12.0,M,-33.8,M,,*6F
$PYRTM,2024,123.419864743368,14.529512153495
$GPGGA,100435.00,3413.5298,N,12029.7515,W,1,09,0.8,12.4,M,-33.8,M,,*63
$PYRTM,2024,123.419876332465,14.529523742604
$GPGGA,100436.00,3413.5305,N,12029.7525,W,1,09,0.8,12.7,M,-33.8,M,,*65
$PYRTM,2024,123.419887891215,14.529535301354
$GPGGA,100437.00,3413.5312,N,12029.7539,W,1,09,0.8,12.6,M,-33.8,M,,*6E
$PYRTM,2024,123.419899492963,14.529546903102
$GPGGA,100438.00,3413.5313,N,12029.7553,W,1,09,0.8,12.9,M,-33.8,M,,*63
$PYRTM,2024,123.419911038553,14.529558448692
$GPGGA,100439.00,3413.5313,N,12029.7565,W,1,09,0.8,13.5,M,-33.8,M,,*6A
$PYRTM,2024,123.419922626435,14.529570036574
$GPGGA,100440.00,3413.5318,N,12029.7576,W,1,09,0.8,13.4,M,-33.8,M,,*6C
$PYRTM,2024,123.419934191759,14.529581601898
$GPGGA,100441.00,3413.5325,N,12029.7589,W,1,09,0.8,12.8,M,-33.8,M,,*6E
$PYRTM,2024,123.419945777338,14.529593187477
$GPGGA,100442.00,3413.5331,N,12029.7602,W,1,09,0.8,12.1,M,-33.8,M,,*61
$PYRTM,2024,123.419957336898,14.529604747037
$GPGGA,100443.00,3413.5334,N,12029.7616,W,1,09,0.8,11.9,M,-33.8,M,,*6B
$PYRTM,2024,123.419968920023,14.529616330162
$GPGGA,100444.00,3413.5336,N,12029.7630,W,1,09,0.8,11.9,M,-33.8,M,,*6A
$PYRTM,2024,123.419980485370,14.529627895509
$GPGGA,100445.00,3413.5342,N,12029.7644,W,1,09,0.8,12.1,M,-33.8,M,,*60
$PYRTM,2024,123.419992073380,14.529639483519
$GPGGA,100446.00,3413.5351,N,12029.7657,W,1,09,0.8,12.3,M,-33.8,M,,*61
$PYRTM,2024,123.420003634074,14.529651044213
$GPGGA,100447.00,3413.5354,N,12029.7668,W,1,09,0.8,13.0,M,-33.8,M,,*6B
$PYRTM,2024,123.420015221308,14.529662631447
$GPGGA,100448.00,3413.5351,N,12029.7680,W,1,09,0.8,13.9,M,-33.8,M,,*6E
$PYRTM,2024,123.420026784028,14.529674194167
$GPGGA,100449.00,3413.5350,N,12029.7698,W,1,09,0.8,13.8,M,-33.8,M,,*66
$PYRTM,2024,123.420038370856,14.529685780995
$GPGGA,100450.00,3413.5356,N,12029.7716,W,1,09,0.8,12.2,M,-33.8,M,,*64
$PYRTM,2024,123.420049931007,14.529697341146
$GPGGA,100451.00,3413.5362,N,12029.7727,W,1,09,0.8,11.3,M,-33.8,M,,*62
$PYRTM,2024,123.420061417662,14.529708827801
$GPGGA,100452.00,3413.5366,N,12029.7734,W,1,09,0.8,11.4,M,-33.8,M,,*60
$PYRTM,2024,123.420072976620,14.529720386771
$GPGGA,100453.00,3413.5368,N,12029.7745,W,1,09,0.8,12.1,M,-33.8,M,,*6F
$PYRTM,2024,123.420084553414,14.529731963553
$GPGGA,100454.00,3413.5370,N,12029.7761,W,1,09,0.8,12.6,M,-33.8,M,,*60
$PYRTM,2024,123.420091944884,14.529739355023
$GPGGA,100455.00,3413.5371,N,12029.7776,W,1,09,0.8,12.8,M,-33.8,M,,*68
$PYRTM,2024,123.420110594838,14.529758004977
$GPGGA,100456.00,3413.5373,N,12029.7790,W,1,09,0.8,12.8,M,-33.8,M,,*61
$PYRTM,2024,123.420119376481,14.529766786620
$GPGGA,100457.00,3413.5378,N,12029.7804,W,1,09,0.8,11.8,M,-33.8,M,,*6A
$PYRTM,2024,123.420126669618,14.529774079757
$GPGGA,100458.00,3413.5383,N,12029.7817,W,1,09,0.8,10.9,M,-33.8,M,,*63
$PYRTM,2024,123.420145302106,14.529792712245
$GPGGA,100459.00,3413.5385,N,12029.7826,W,1,09,0.8,11.2,M,-33.8,M,,*6C
$PYRTM,2024,123.420153995706,14.529801405845
$GPGGA,100500.00,3413.5386,N,12029.7837,W,1,09,0.8,12.1,M,-33.8,M,,*62
$PYRTM,2024,123.420165565382,14.529812975521
$GPGGA,100501.00,3413.5388,N,12029.7854,W,1,09,0.8,12.5,M,-33.8,M,,*6C
$PYRTM,2024,123.420177143831,14.529824553970
$GPGGA,100502.00,3413.5392,N,12029.7870,W,1,09,0.8,12.4,M,-33.8,M,,*63
$PYRTM,2024,123.420188713275,14.529836123426
$GPGGA,100503.00,3413.5395,N,12029.7883,W,1,09,0.8,12.1,M,-33.8,M,,*6C
$PYRTM,2024,123.420200296713,14.529847706852
$GPGGA,100504.00,3413.5398,N,12029.7894,W,1,09,0.8,11.6,M,-33.8,M,,*64
$PYRTM,2024,123.420211867002,14.529859277141
$GPGGA,100505.00,3413.5402,N,12029.7908,W,1,09,0.8,11.2,M,-33.8,M,,*61
$PYRTM,2024,123.420219263380,14.529866673519
$GPGGA,100506.00,3413.5405,N,12029.7920,W,1,09,0.8,11.5,M,-33.8,M,,*68
$PYRTM,2024,123.420235015787,14.529882425926
$GPGGA,100507.00,3413.5409,N,12029.7933,W,1,09,0.8,12.0,M,-33.8,M,,*61
$PYRTM,2024,123.420246592928,14.529894003067
$GPGGA,100508.00,3413.5412,N,12029.7948,W,1,09,0.8,12.5,M,-33.8,M,,*6D
$PYRTM,2024,123.420258164387,14.529905574525
$GPGGA,100509.00,3413.5416,N,12029.7964,W,1,09,0.8,12.6,M,-33.8,M,,*65
$PYRTM,2024,123.420269741655,14.529917151794
$GPGGA,100510.00,3413.5420,N,12029.7978,W,1,09,0.8,12.0,M,-33.8,M,,*63
$PYRTM,2024,123.420281312257,14.529928722396
$GPGGA,100511.00,3413.5424,N,12029.7990,W,1,09,0.8,12.1,M,-33.8,M,,*61
$PYRTM,2024,123.420292887928,14.529940298067
$GPGGA,100512.00,3413.5428,N,12029.8002,W,1,09,0.8,12.1,M,-33.8,M,,*63
$PYRTM,2024,123.420304460347,14.529951870486
$GPGGA,100513.00,3413.5431,N,12029.8017,W,1,09,0.8,12.0,M,-33.8,M,,*6F
$PYRTM,2024,123.420316036319,14.529963446470
$GPGGA,100514.00,3413.5434,N,12029.8034,W,1,09,0.8,11.9,M,-33.8,M,,*66
$PYRTM,2024,123.420327609282,14.529975019421
$GPGGA,100515.00,3413.5439,N,12029.8051,W,1,09,0.8,11.3,M,-33.8,M,,*63
$PYRTM,2024,123.420339183692,14.529986593831
$GPGGA,100516.00,3413.5444,N,12029.8065,W,1,09,0.8,11.4,M,-33.8,M,,*6A
$PYRTM,2024,123.420350757106,14.529998167245
$GPGGA,100517.00,3413.5447,N,12029.8073,W,1,09,0.8,12.1,M,-33.8,M,,*69
$PYRTM,2024,123.420358157130,14.530005567269
$GPGGA,100518.00,3413.5450,N,12029.8083,W,1,09,0.8,12.8,M,-33.8,M,,*66
$PYRTM,2024,123.420373902292,14.530021312431
$GPGGA,100519.00,3413.5456,N,12029.8102,W,1,09,0.8,12.4,M,-33.8,M,,*65
$PYRTM,2024,123.420385480556,14.530032890706
$GPGGA,100520.00,3413.5461,N,12029.8121,W,1,09,0.8,11.2,M,-33.8,M,,*6F
$PYRTM,2024,123.420397054248,14.530044464387
$GPGGA,100521.00,3413.5463,N,12029.8134,W,1,09,0.8,10.7,M,-33.8,M,,*6C
$PYRTM,2024,123.420408642870,14.530056053009
$GPGGA,100522.00,3413.5466,N,12029.8143,W,1,09,0.8,10.9,M,-33.8,M,,*64
$PYRTM,2024,123.420420306192,14.530067716331
$GPGGA,100523.00,3413.5471,N,12029.8154,W,1,09,0.8,11.2,M,-33.8,M,,*6F
$PYRTM,2024,123.420431792072,14.530079202211
$GPGGA,100524.00,3413.5476,N,12029.8167,W,1,09,0.8,11.8,M,-33.8,M,,*65
$PYRTM,2024,123.420443350428,14.530090760567
$GPGGA,100525.00,3413.5480,N,12029.8179,W,1,09,0.8,12.3,M,-33.8,M,,*6A
$PYRTM,2024,123.420454941389,14.530102351528
$GPGGA,100526.00,3413.5484,N,12029.8193,W,1,09,0.8,12.1,M,-33.8,M,,*6B
$PYRTM,2024,123.420462320949,14.530109731088
$GPGGA,100527.00,3413.5489,N,12029.8208,W,1,09,0.8,11.1,M,-33.8,M,,*65
$PYRTM,2024,123.420478075301,14.530125485440
$GPGGA,100528.00,3413.5493,N,12029.8218,W,1,09,0.8,10.7,M,-33.8,M,,*67
$PYRTM,2024,123.420485485590,14.530132895729
$GPGGA,100529.00,3413.5497,N,12029.8226,W,1,09,0.8,11.0,M,-33.8,M,,*69
$PYRTM,2024,123.420504116655,14.530151526794
$GPGGA,100530.00,3413.5504,N,12029.8238,W,1,09,0.8,11.2,M,-33.8,M,,*67
$PYRTM,2024,123.420512797454,14.530160207593
$GPGGA,100531.00,3413.5510,N,12029.8254,W,1,09,0.8,11.1,M,-33.8,M,,*6A
$PYRTM,2024,123.420524372882,14.530171783021
$GPGGA,100532.00,3413.5511,N,12029.8267,W,1,09,0.8,11.6,M,-33.8,M,,*6F
$PYRTM,2024,123.420535945301,14.530183355440
$GPGGA,100533.00,3413.5510,N,12029.8276,W,1,09,0.8,12.6,M,-33.8,M,,*6C
$PYRTM,2024,123.420547519306,14.530194929444
$GPGGA,100534.00,3413.5516,N,12029.8286,W,1,09,0.8,12.9,M,-33.8,M,,*6D
$PYRTM,2024,123.420559094630,14.530206504769
$GPGGA,100535.00,3413.5526,N,12029.8299,W,1,09,0.8,11.9,M,-33.8,M,,*62
$PYRTM,2024,123.420570668218,14.530218078356
$GPGGA,100536.00,3413.5531,N,12029.8312,W,1,09,0.8,10.9,M,-33.8,M,,*64
$PYRTM,2024,123.420582242720,14.530229652859
$GPGGA,100537.00,3413.5529,N,12029.8324,W,1,09,0.8,11.1,M,-33.8,M,,*60
$PYRTM,2024,123.420593822060,14.530241232199
$GPGGA,100538.00,3413.5526,N,12029.8335,W,1,09,0.8,12.1,M,-33.8,M,,*63
$PYRTM,2024,123.420601211065,14.530248621204
$GPGGA,100539.00,3413.5531,N,12029.8349,W,1,09,0.8,12.7,M,-33.8,M,,*69
$PYRTM,2024,123.420616968287,14.530264378426
$GPGGA,100540.00,3413.5540,N,12029.8362,W,1,09,0.8,12.1,M,-33.8,M,,*6E
$PYRTM,2024,123.420628537257,14.530275947396
$GPGGA,100541.00,3413.5546,N,12029.8374,W,1,09,0.8,11.6,M,-33.8,M,,*6A
$PYRTM,2024,123.420635934560,14.530283344711
$GPGGA,100542.00,3413.5545,N,12029.8385,W,1,09,0.8,11.6,M,-33.8,M,,*64
$PYRTM,2024,123.420651687419,14.530299097569
$GPGGA,100543.00,3413.5546,N,12029.8397,W,1,09,0.8,11.8,M,-33.8,M,,*6B
$PYRTM,2024,123.420663261447,14.530310671586
$GPGGA,100544.00,3413.5552,N,12029.8413,W,1,09,0.8,11.2,M,-33.8,M,,*68
$PYRTM,2024,123.420674835556,14.530322245694
$GPGGA,100545.00,3413.5557,N,12029.8428,W,1,09,0.8,10.7,M,-33.8,M,,*60
$PYRTM,2024,123.420686410266,14.530333820417
$GPGGA,100546.00,3413.5555,N,12029.8437,W,1,09,0.8,12.4,M,-33.8,M,,*6E
$PYRTM,2024,123.420697984780,14.530345394919
$GPGGA,100547.00,3413.5553,N,12029.8444,W,1,09,0.8,14.3,M,-33.8,M,,*6C
$PYRTM,2024,123.420709561296,14.530356971435
$GPGGA,100548.00,3413.5558,N,12029.8457,W,1,09,0.8,14.5,M,-33.8,M,,*6C
$PYRTM,2024,123.420721133310,14.530368543449
$GPGGA,100549.00,3413.5565,N,12029.8474,W,1,09,0.8,13.0,M,-33.8,M,,*60
$PYRTM,2024,123.420732706933,14.530380117072
$GPGGA,100550.00,3413.5566,N,12029.8487,W,1,09,0.8,11.5,M,-33.8,M,,*60
$PYRTM,2024,123.420744280613,14.530391690764
$GPGGA,100551.00,3413.5562,N,12029.8495,W,1,09,0.8,11.6,M,-33.8,M,,*65
$PYRTM,2024,123.420755855301,14.530403265440
$GPGGA,100552.00,3413.5561,N,12029.8504,W,1,09,0.8,12.4,M,-33.8,M,,*6D
$PYRTM,2024,123.420763251030,14.530410661169
$GPGGA,100553.00,3413.5566,N,12029.8519,W,1,09,0.8,12.7,M,-33.8,M,,*64
$PYRTM,2024,123.420779006528,14.530426416667
$GPGGA,100554.00,3413.5571,N,12029.8533,W,1,09,0.8,12.5,M,-33.8,M,,*6F
$PYRTM,2024,123.420790578553,14.530437988692
$GPGGA,100555.00,3413.5572,N,12029.8543,W,1,09,0.8,12.5,M,-33.8,M,,*6A
$PYRTM,2024,123.420802156933,14.530449567072
$GPGGA,100556.00,3413.5574,N,12029.8551,W,1,09,0.8,12.6,M,-33.8,M,,*6F
$PYRTM,2024,123.420813727546,14.530461137685
$GPGGA,100557.00,3413.5579,N,12029.8562,W,1,09,0.8,12.1,M,-33.8,M,,*64
$PYRTM,2024,123.420825301944,14.530472712083
$GPGGA,100558.00,3413.5583,N,12029.8577,W,1,09,0.8,11.4,M,-33.8,M,,*6C
$PYRTM,2024,123.420832712824,14.530480122963
$GPGGA,100559.00,3413.5582,N,12029.8590,W,1,09,0.8,11.6,M,-33.8,M,,*67
$PYRTM,2024,123.420851338079,14.530498748218
$GPGGA,100600.00,3413.5581,N,12029.8600,W,1,09,0.8,12.7,M,-33.8,M,,*63
$PYRTM,2024,123.420860022431,14.530507432558
$GPGGA,100601.00,3413.5586,N,12029.8612,W,1,09,0.8,13.3,M,-33.8,M,,*63
$PYRTM,2024,123.420871597500,14.530519007639
$GPGGA,100602.00,3413.5594,N,12029.8625,W,1,09,0.8,13.0,M,-33.8,M,,*64
$PYRTM,2024,123.420879007836,14.530526417975
$GPGGA,100603.00,3413.5597,N,12029.8637,W,1,09,0.8,12.9,M,-33.8,M,,*6D
$PYRTM,2024,123.420894746053,14.530542156192
$GPGGA,100604.00,3413.5594,N,12029.8648,W,1,09,0.8,13.1,M,-33.8,M,,*68
$PYRTM,2024,123.420906320266,14.530553730405
$GPGGA,100605.00,3413.5593,N,12029.8662,W,1,09,0.8,12.8,M,-33.8,M,,*6E
$PYRTM,2024,123.420917896019,14.530565306157
$GPGGA,100606.00,3413.5598,N,12029.8675,W,1,09,0.8,12.2,M,-33.8,M,,*6A
$PYRTM,2024,123.420929469525,14.530576879664
$GPGGA,100607.00,3413.5605,N,12029.8684,W,1,09,0.8,12.1,M,-33.8,M,,*61
$PYRTM,2024,123.420941042650,14.530588452789
$GPGGA,100608.00,3413.5609,N,12029.8691,W,1,09,0.8,12.7,M,-33.8,M,,*60
$PYRTM,2024,123.420948438021,14.530595848160
$GPGGA,100609.00,3413.5610,N,12029.8705,W,1,09,0.8,13.1,M,-33.8,M,,*62
$PYRTM,2024,123.420964207662,14.530611617801
$GPGGA,100610.00,3413.5611,N,12029.8724,W,1,09,0.8,12.7,M,-33.8,M,,*6F
$PYRTM,2024,123.420975765440,14.530623175579
$GPGGA,100611.00,3413.5613,N,12029.8737,W,1,09,0.8,12.8,M,-33.8,M,,*61
$PYRTM,2024,123.420983160162,14.530630570301
$GPGGA,100612.00,3413.5618,N,12029.8744,W,1,09,0.8,13.2,M,-33.8,M,,*66
$PYRTM,2024,123.420998909757,14.530646319907
$GPGGA,100613.00,3413.5625,N,12029.8753,W,1,09,0.8,13.2,M,-33.8,M,,*6F
$PYRTM,2024,123.421010489317,14.530657899468
$GPGGA,100614.00,3413.5630,N,12029.8766,W,1,09,0.8,13.1,M,-33.8,M,,*69
$PYRTM,2024,123.421017897940,14.530665308079
$GPGGA,100615.00,3413.5631,N,12029.8783,W,1,09,0.8,12.7,M,-33.8,M,,*65
$PYRTM,2024,123.421033636528,14.530681046667
$GPGGA,100616.00,3413.5630,N,12029.8801,W,1,09,0.8,12.4,M,-33.8,M,,*61
$PYRTM,2024,123.421045211123,14.530692621262
$GPGGA,100617.00,3413.5632,N,12029.8815,W,1,09,0.8,12.7,M,-33.8,M,,*64
$PYRTM,2024,123.421052606794,14.530700016944
$GPGGA,100618.00,3413.5638,N,12029.8825,W,1,09,0.8,13.4,M,-33.8,M,,*60
$PYRTM,2024,123.421068359572,14.530715769711
$GPGGA,100619.00,3413.5644,N,12029.8835,W,1,09,0.8,13.5,M,-33.8,M,,*6A
$PYRTM,2024,123.421079933773,14.530727343912
$GPGGA,100620.00,3413.5648,N,12029.8850,W,1,09,0.8,13.8,M,-33.8,M,,*62
$PYRTM,2024,123.421087328669,14.530734738808
$GPGGA,100621.00,3413.5652,N,12029.8868,W,1,09,0.8,13.0,M,-33.8,M,,*6B
$PYRTM,2024,123.421103082778,14.530750492917
$GPGGA,100622.00,3413.5655,N,12029.8883,W,1,09,0.8,12.0,M,-33.8,M,,*6B
$PYRTM,2024,123.421114656042,14.530762066181
$GPGGA,100623.00,3413.5659,N,12029.8894,W,1,09,0.8,12.4,M,-33.8,M,,*64
$PYRTM,2024,123.421122053079,14.530769463218
$GPGGA,100624.00,3413.5661,N,12029.8905,W,1,09,0.8,13.4,M,-33.8,M,,*60
$PYRTM,2024,123.421137804907,14.530785215046
$GPGGA,100625.00,3413.5666,N,12029.8919,W,1,09,0.8,13.7,M,-33.8,M,,*68
$PYRTM,2024,123.421149393345,14.530796803484
$GPGGA,100626.00,3413.5672,N,12029.8936,W,1,09,0.8,13.1,M,-33.8,M,,*65
$PYRTM,2024,123.421161056215,14.530808466354
$GPGGA,100627.00,3413.5677,N,12029.8951,W,1,09,0.8,12.5,M,-33.8,M,,*65
$PYRTM,2024,123.421172656632,14.530820066771
$GPGGA,100628.00,3413.5682,N,12029.8963,W,1,09,0.8,12.3,M,-33.8,M,,*67
$PYRTM,2024,123.421184203981,14.530831614132
$GPGGA,100629.00,3413.5683,N,12029.8972,W,1,09,0.8,13.2,M,-33.8,M,,*67
$PYRTM,2024,123.421191495544,14.530838905683
$GPGGA,100630.00,3413.5684,N,12029.8988,W,1,09,0.8,13.9,M,-33.8,M,,*66
$PYRTM,2024,123.421210131146,14.530857541285
$GPGGA,100631.00,3413.5688,N,12029.9010,W,1,09,0.8,13.3,M,-33.8,M,,*68
$PYRTM,2024,123.421218940440,14.530866350579
$GPGGA,100632.00,3413.5696,N,12029.9028,W,1,09,0.8,12.3,M,-33.8,M,,*6E
$PYRTM,2024,123.421230514722,14.530877924861
$GPGGA,100633.00,3413.5703,N,12029.9034,W,1,09,0.8,12.3,M,-33.8,M,,*6F
$PYRTM,2024,123.421242088727,14.530889498866
$GPGGA,100634.00,3413.5707,N,12029.9039,W,1,09,0.8,13.1,M,-33.8,M,,*62
$PYRTM,2024,123.421253663843,14.530901073981
$GPGGA,100635.00,3413.5709,N,12029.9052,W,1,09,0.8,13.6,M,-33.8,M,,*67
$PYRTM,2024,123.421265132188,14.530912542326
$GPGGA,100636.00,3413.5711,N,12029.9072,W,1,09,0.8,13.2,M,-33.8,M,,*6B
$PYRTM,2024,123.421272527500,14.530919937639
$GPGGA,100637.00,3413.5716,N,12029.9087,W,1,09,0.8,12.3,M,-33.8,M,,*67
$PYRTM,2024,123.421288281447,14.530935691586
$GPGGA,100638.00,3413.5723,N,12029.9096,W,1,09,0.8,11.6,M,-33.8,M,,*68
$PYRTM,2024,123.421299843843,14.530947253981
$GPGGA,100639.00,3413.5731,N,12029.9102,W,1,09,0.8,11.4,M,-33.8,M,,*64
$PYRTM,2024,123.421307241898,14.530954652049
$GPGGA,100640.00,3413.5737,N,12029.9115,W,1,09,0.8,11.7,M,-33.8,M,,*69
$PYRTM,2024,123.421322992604,14.530970402743
$GPGGA,100641.00,3413.5738,N,12029.9132,W,1,09,0.8,11.8,M,-33.8,M,,*6D
$PYRTM,2024,123.421334574884,14.530981985023
$GPGGA,100642.00,3413.5741,N,12029.9149,W,1,09,0.8,12.0,M,-33.8,M,,*67
$PYRTM,2024,123.421346140625,14.530993550764
$GPGGA,100643.00,3413.5748,N,12029.9162,W,1,09,0.8,12.2,M,-33.8,M,,*64
$PYRTM,2024,123.421357723009,14.531005133148
$GPGGA,100644.00,3413.5758,N,12029.9172,W,1,09,0.8,12.2,M,-33.8,M,,*63
$PYRTM,2024,123.421369284931,14.531016695069
$GPGGA,100645.00,3413.5764,N,12029.9182,W,1,09,0.8,12.3,M,-33.8,M,,*63
$PYRTM,2024,123.421380862975,14.531028273113
$GPGGA,100646.00,3413.5762,N,12029.9198,W,1,09,0.8,12.5,M,-33.8,M,,*6B
$PYRTM,2024,123.421388287685,14.531035697824
$GPGGA,100647.00,3413.5762,N,12029.9216,W,1,09,0.8,12.5,M,-33.8,M,,*6F
$PYRTM,2024,123.421404022037,14.531051432176
$GPGGA,100648.00,3413.5769,N,12029.9230,W,1,09,0.8,12.4,M,-33.8,M,,*6E
$PYRTM,2024,123.421415586806,14.531062996944
$GPGGA,100649.00,3413.5780,N,12029.9240,W,1,09,0.8,11.9,M,-33.8,M,,*61
$PYRTM,2024,123.421422980926,14.531070391065
$GPGGA,100650.00,3413.5787,N,12029.9252,W,1,09,0.8,11.7,M,-33.8,M,,*63
$PYRTM,2024,123.421438733241,14.531086143380
$GPGGA,100651.00,3413.5787,N,12029.9269,W,1,09,0.8,12.1,M,-33.8,M,,*6F
$PYRTM,2024,123.421450319167,14.531097729306
$GPGGA,100652.00,3413.5787,N,12029.9288,W,1,09,0.8,12.6,M,-33.8,M,,*64
$PYRTM,2024,123.421461881875,14.531109292014
$GPGGA,100653.00,3413.5794,N,12029.9302,W,1,09,0.8,13.0,M,-33.8,M,,*63
$PYRTM,2024,123.421473467581,14.531120877720
$GPGGA,100654.00,3413.5803,N,12029.9310,W,1,09,0.8,13.7,M,-33.8,M,,*61
$PYRTM,2024,123.421485031736,14.531132441875
$GPGGA,100655.00,3413.5809,N,12029.9321,W,1,09,0.8,13.9,M,-33.8,M,,*66
$PYRTM,2024,123.421496613681,14.531144023819
$GPGGA,100656.00,3413.5811,N,12029.9339,W,1,09,0.8,13.3,M,-33.8,M,,*6F
$PYRTM,2024,123.421508179792,14.531155589931
$GPGGA,100657.00,3413.5813,N,12029.9360,W,1,09,0.8,11.9,M,-33.8,M,,*68
$PYRTM,2024,123.421519762905,14.531167173044
$GPGGA,100658.00,3413.5818,N,12029.9378,W,1,09,0.8,10.3,M,-33.8,M,,*6E
$PYRTM,2024,123.421531328067,14.531178738206
$GPGGA,100659.00,3413.5824,N,12029.9386,W,1,09,0.8,10.6,M,-33.8,M,,*64
$PYRTM,2024,123.421542902292,14.531190312431
$GPGGA,100700.00,3413.5829,N,12029.9392,W,1,09,0.8,12.0,M,-33.8,M,,*65
$PYRTM,2024,123.421550310058,14.531197720197
$GPGGA,100701.00,3413.5834,N,12029.9408,W,1,09,0.8,13.1,M,-33.8,M,,*6C
$PYRTM,2024,123.421568945231,14.531216355370
$GPGGA,100702.00,3413.5839,N,12029.9429,W,1,09,0.8,13.3,M,-33.8,M,,*63
$PYRTM,2024,123.421577624468,14.531225034606
$GPGGA,100703.00,3413.5843,N,12029.9446,W,1,09,0.8,12.0,M,-33.8,M,,*64
$PYRTM,2024,123.421589210903,14.531236621053
$GPGGA,100704.00,3413.5844,N,12029.9455,W,1,09,0.8,11.9,M,-33.8,M,,*6C
$PYRTM,2024,123.421600772894,14.531248183032
$GPGGA,100705.00,3413.5846,N,12029.9467,W,1,09,0.8,11.9,M,-33.8,M,,*6E
$PYRTM,2024,123.421612358727,14.531259768866
$GPGGA,100706.00,3413.5852,N,12029.9484,W,1,09,0.8,11.5,M,-33.8,M,,*69
$PYRTM,2024,123.421623922002,14.531271332141
$GPGGA,100707.00,3413.5856,N,12029.9497,W,1,09,0.8,11.4,M,-33.8,M,,*6F
$PYRTM,2024,123.421635495718,14.531282905868
$GPGGA,100708.00,3413.5859,N,12029.9506,W,1,09,0.8,12.1,M,-33.8,M,,*60
$PYRTM,2024,123.421647065810,14.531294475961
$GPGGA,100709.00,3413.5862,N,12029.9521,W,1,09,0.8,12.6,M,-33.8,M,,*6B
$PYRTM,2024,123.421658644514,14.531306054653
$GPGGA,100710.00,3413.5865,N,12029.9538,W,1,09,0.8,12.3,M,-33.8,M,,*69
$PYRTM,2024,123.421670218218,14.531317628356
$GPGGA,100711.00,3413.5867,N,12029.9552,W,1,09,0.8,11.8,M,-33.8,M,,*6E
$PYRTM,2024,123.421681800579,14.531329210718
$GPGGA,100712.00,3413.5872,N,12029.9563,W,1,09,0.8,11.4,M,-33.8,M,,*67
$PYRTM,2024,123.421693366979,14.531340777118
$GPGGA,100713.00,3413.5879,N,12029.9576,W,1,09,0.8,11.1,M,-33.8,M,,*6C
$PYRTM,2024,123.421704967477,14.531352377616
$GPGGA,100714.00,3413.5882,N,12029.9590,W,1,09,0.8,11.2,M,-33.8,M,,*64
$PYRTM,2024,123.421716515752,14.531363925891
$GPGGA,100715.00,3413.5884,N,12029.9605,W,1,09,0.8,11.7,M,-33.8,M,,*69
$PYRTM,2024,123.421728089803,14.531375499942
$GPGGA,100716.00,3413.5888,N,12029.9621,W,1,09,0.8,12.0,M,-33.8,M,,*64
$PYRTM,2024,123.421739660428,14.531387070567
$GPGGA,100717.00,3413.5895,N,12029.9634,W,1,09,0.8,12.0,M,-33.8,M,,*6D
$PYRTM,2024,123.421751238646,14.531398648785
$GPGGA,100718.00,3413.5901,N,12029.9645,W,1,09,0.8,12.1,M,-33.8,M,,*69
$PYRTM,2024,123.421762807951,14.531410218090
$GPGGA,100719.00,3413.5903,N,12029.9658,W,1,09,0.8,12.2,M,-33.8,M,,*65
$PYRTM,2024,123.421774387187,14.531421797326
$GPGGA,100720.00,3413.5906,N,12029.9678,W,1,09,0.8,11.4,M,-33.8,M,,*6D
$PYRTM,2024,123.421785956678,14.531433366817
$GPGGA,100721.00,3413.5911,N,12029.9696,W,1,09,0.8,10.4,M,-33.8,M,,*6B
$PYRTM,2024,123.421797535694,14.531444945833
$GPGGA,100722.00,3413.5915,N,12029.9707,W,1,09,0.8,10.5,M,-33.8,M,,*64
$PYRTM,2024,123.421804938171,14.531452348310
$GPGGA,100723.00,3413.5917,N,12029.9716,W,1,09,0.8,11.6,M,-33.8,M,,*65
$PYRTM,2024,123.421820683519,14.531468093657
$GPGGA,100724.00,3413.5921,N,12029.9733,W,1,09,0.8,12.2,M,-33.8,M,,*67
$PYRTM,2024,123.421832257303,14.531479667454
$GPGGA,100725.00,3413.5926,N,12029.9751,W,1,09,0.8,11.9,M,-33.8,M,,*6D
$PYRTM,2024,123.421839654444,14.531487064583
$GPGGA,100726.00,3413.5932,N,12029.9765,W,1,09,0.8,10.9,M,-33.8,M,,*6D
$PYRTM,2024,123.421855406620,14.531502816759
$GPGGA,100727.00,3413.5935,N,12029.9777,W,1,09,0.8,10.8,M,-33.8,M,,*69
$PYRTM,2024,123.421867007002,14.531514417141
$GPGGA,100728.00,3413.5935,N,12029.9791,W,1,09,0.8,10.9,M,-33.8,M,,*6F
$PYRTM,2024,123.421878557037,14.531525967176
$GPGGA,100729.00,3413.5936,N,12029.9807,W,1,09,0.8,11.0,M,-33.8,M,,*65
$PYRTM,2024,123.421890136435,14.531537546574
$GPGGA,100730.00,3413.5940,N,12029.9820,W,1,09,0.8,11.7,M,-33.8,M,,*6E
$PYRTM,2024,123.421901703241,14.531549113380
$GPGGA,100731.00,3413.5947,N,12029.9833,W,1,09,0.8,12.1,M,-33.8,M,,*6F
$PYRTM,2024,123.421909098808,14.531556508947
$GPGGA,100732.00,3413.5952,N,12029.9851,W,1,09,0.8,11.9,M,-33.8,M,,*67
$PYRTM,2024,123.421927745046,14.531575155185
$GPGGA,100733.00,3413.5957,N,12029.9868,W,1,09,0.8,11.3,M,-33.8,M,,*63
$PYRTM,2024,123.421936426157,14.531583836296
$GPGGA,100734.00,3413.5957,N,12029.9881,W,1,09,0.8,11.5,M,-33.8,M,,*65
$PYRTM,2024,123.421947995266,14.531595405405
$GPGGA,100735.00,3413.5955,N,12029.9893,W,1,09,0.8,12.5,M,-33.8,M,,*66
$PYRTM,2024,123.421959574988,14.531606985116
$GPGGA,100736.00,3413.5956,N,12029.9908,W,1,09,0.8,13.2,M,-33.8,M,,*63
$PYRTM,2024,123.421971148715,14.531618558854
$GPGGA,100737.00,3413.5963,N,12029.9924,W,1,09,0.8,12.8,M,-33.8,M,,*61
$PYRTM,2024,123.421982722894,14.531630133032
$GPGGA,100738.00,3413.5970,N,12029.9938,W,1,09,0.8,12.0,M,-33.8,M,,*69
$PYRTM,2024,123.421994297118,14.531641707257
$GPGGA,100739.00,3413.5973,N,12029.9953,W,1,09,0.8,11.2,M,-33.8,M,,*67
$PYRTM,2024,123.422005883391,14.531653293530
$GPGGA,100740.00,3413.5973,N,12029.9971,W,1,09,0.8,10.9,M,-33.8,M,,*63
$PYRTM,2024,123.422017440926,14.531664851065
$GPGGA,100741.00,3413.5976,N,12029.9985,W,1,09,0.8,11.5,M,-33.8,M,,*61
$PYRTM,2024,123.422029027731,14.531676437870
$GPGGA,100742.00,3413.5982,N,12029.9995,W,1,09,0.8,12.7,M,-33.8,M,,*69
$PYRTM,2024,123.422040594144,14.531688004282
$GPGGA,100743.00,3413.5988,N,12030.0007,W,1,09,0.8,13.8,M,-33.8,M,,*6F
$PYRTM,2024,123.422052176331,14.531699586470
$GPGGA,100744.00,3413.5992,N,12030.0025,W,1,09,0.8,13.8,M,-33.8,M,,*63
$PYRTM,2024,123.422063741701,14.531711151840
$GPGGA,100745.00,3413.5995,N,12030.0044,W,1,09,0.8,12.4,M,-33.8,M,,*6F
$PYRTM,2024,123.422075342847,14.531722752986
$GPGGA,100746.00,3413.5998,N,12030.0059,W,1,09,0.8,11.0,M,-33.8,M,,*6A
$PYRTM,2024,123.422086891887,14.531734302025
$GPGGA,100747.00,3413.6002,N,12030.0072,W,1,09,0.8,10.9,M,-33.8,M,,*63
$PYRTM,2024,123.422098465150,14.531745875289
$GPGGA,100748.00,3413.6007,N,12030.0085,W,1,09,0.8,11.2,M,-33.8,M,,*6B
$PYRTM,2024,123.422110036100,14.531757446238
$GPGGA,100749.00,3413.6014,N,12030.0100,W,1,09,0.8,11.8,M,-33.8,M,,*6E
$PYRTM,2024,123.422117435625,14.531764845764
$GPGGA,100750.00,3413.6020,N,12030.0116,W,1,09,0.8,12.5,M,-33.8,M,,*68
$PYRTM,2024,123.422133189306,14.531780599444
$GPGGA,100751.00,3413.6021,N,12030.0130,W,1,09,0.8,13.3,M,-33.8,M,,*6B
$PYRTM,2024,123.422144762095,14.531792172234
$GPGGA,100752.00,3413.6022,N,12030.0146,W,1,09,0.8,13.4,M,-33.8,M,,*6D
$PYRTM,2024,123.422152165394,14.531799575532
$GPGGA,100753.00,3413.6027,N,12030.0165,W,1,09,0.8,12.1,M,-33.8,M,,*6C
$PYRTM,2024,123.422167910995,14.531815321134
$GPGGA,100754.00,3413.6035,N,12030.0183,W,1,09,0.8,10.5,M,-33.8,M,,*66
$PYRTM,2024,123.422179486308,14.531826896447
$GPGGA,100755.00,3413.6040,N,12030.0190,W,1,09,0.8,10.4,M,-33.8,M,,*66
$PYRTM,2024,123.422186879514,14.531834289653
$GPGGA,100756.00,3413.6045,N,12030.0197,W,1,09,0.8,11.4,M,-33.8,M,,*66
$PYRTM,2024,123.422202632928,14.531850043067
$GPGGA,100757.00,3413.6051,N,12030.0214,W,1,09,0.8,12.0,M,-33.8,M,,*6D
$PYRTM,2024,123.422214215451,14.531861625590
$GPGGA,100758.00,3413.6055,N,12030.0235,W,1,09,0.8,11.9,M,-33.8,M,,*6F
$PYRTM,2024,123.422221613495,14.531869023634
$GPGGA,100759.00,3413.6057,N,12030.0250,W,1,09,0.8,11.7,M,-33.8,M,,*61
$PYRTM,2024,123.422237363438,14.531884773576
$GPGGA,100800.00,3413.6061,N,12030.0262,W,1,09,0.8,11.5,M,-33.8,M,,*64
$PYRTM,2024,123.422248930937,14.531896341076
$GPGGA,100801.00,3413.6069,N,12030.0274,W,1,09,0.8,11.1,M,-33.8,M,,*6E
$PYRTM,2024,123.422260513773,14.531907923912
$GPGGA,100802.00,3413.6076,N,12030.0287,W,1,09,0.8,11.0,M,-33.8,M,,*6E
$PYRTM,2024,123.422267914491,14.531915324630
$GPGGA,100803.00,3413.6081,N,12030.0297,W,1,09,0.8,11.5,M,-33.8,M,,*63
$PYRTM,2024,123.422286547280,14.531933957419
$GPGGA,100804.00,3413.6085,N,12030.0311,W,1,09,0.8,12.2,M,-33.8,M,,*6B
$PYRTM,2024,123.422295226597,14.531942636736
$GPGGA,100805.00,3413.6088,N,12030.0328,W,1,09,0.8,12.4,M,-33.8,M,,*6B
$PYRTM,2024,123.422306800949,14.531954211100
$GPGGA,100806.00,3413.6092,N,12030.0343,W,1,09,0.8,12.1,M,-33.8,M,,*6B
$PYRTM,2024,123.422318375532,14.531965785671
$GPGGA,100807.00,3413.6098,N,12030.0357,W,1,09,0.8,11.6,M,-33.8,M,,*61
$PYRTM,2024,123.422325770116,14.531973180255
$GPGGA,100808.00,3413.6106,N,12030.0372,W,1,09,0.8,10.9,M,-33.8,M,,*61
$PYRTM,2024,123.422341523588,14.531988933727
$GPGGA,100809.00,3413.6111,N,12030.0384,W,1,09,0.8,11.0,M,-33.8,M,,*67
$PYRTM,2024,123.422353098160,14.532000508310
$GPGGA,100810.00,3413.6114,N,12030.0393,W,1,09,0.8,11.9,M,-33.8,M,,*65
$PYRTM,2024,123.422360505417,14.532007915556
$GPGGA,100811.00,3413.6120,N,12030.0405,W,1,09,0.8,12.6,M,-33.8,M,,*67
$PYRTM,2024,123.422376248773,14.532023658912
$GPGGA,100812.00,3413.6127,N,12030.0422,W,1,09,0.8,12.3,M,-33.8,M,,*63
$PYRTM,2024,123.422387820706,14.532035230856
$GPGGA,100813.00,3413.6132,N,12030.0438,W,1,09,0.8,11.5,M,-33.8,M,,*68
$PYRTM,2024,123.422399420718,14.532046830856
$GPGGA,100814.00,3413.6132,N,12030.0448,W,1,09,0.8,11.6,M,-33.8,M,,*6B
$PYRTM,2024,123.422410964734,14.532058374873
$GPGGA,100815.00,3413.6134,N,12030.0459,W,1,09,0.8,12.1,M,-33.8,M,,*68
$PYRTM,2024,123.422422551157,14.532069961296
$GPGGA,100816.00,3413.6142,N,12030.0473,W,1,09,0.8,11.6,M,-33.8,M,,*66
$PYRTM,2024,123.422434119028,14.532081529167
$GPGGA,100817.00,3413.6152,N,12030.0490,W,1,09,0.8,10.6,M,-33.8,M,,*6A
$PYRTM,2024,123.422441512384,14.532088922523
$GPGGA,100818.00,3413.6156,N,12030.0502,W,1,09,0.8,10.7,M,-33.8,M,,*6A
$PYRTM,2024,123.422457267361,14.532104677500
$GPGGA,100819.00,3413.6154,N,12030.0511,W,1,09,0.8,12.1,M,-33.8,M,,*6F
$PYRTM,2024,123.422468840127,14.532116250266
$GPGGA,100820.00,3413.6154,N,12030.0523,W,1,09,0.8,13.4,M,-33.8,M,,*60
$PYRTM,2024,123.422480415787,14.532127825926
$GPGGA,100821.00,3413.6160,N,12030.0538,W,1,09,0.8,13.5,M,-33.8,M,,*6D
$PYRTM,2024,123.422491999745,14.532139409884
$GPGGA,100822.00,3413.6168,N,12030.0553,W,1,09,0.8,12.3,M,-33.8,M,,*6C
$PYRTM,2024,123.422499396620,14.532146806759
$GPGGA,100823.00,3413.6173,N,12030.0563,W,1,09,0.8,11.3,M,-33.8,M,,*67
$PYRTM,2024,123.422515149769,14.532162559907
$GPGGA,100824.00,3413.6176,N,12030.0574,W,1,09,0.8,10.9,M,-33.8,M,,*68
$PYRTM,2024,123.422526711979,14.532174122118
$GPGGA,100825.00,3413.6178,N,12030.0585,W,1,09,0.8,11.3,M,-33.8,M,,*62
$PYRTM,2024,123.422538288079,14.532185698218
$GPGGA,100826.00,3413.6184,N,12030.0599,W,1,09,0.8,11.9,M,-33.8,M,,*65
$PYRTM,2024,123.422545693183,14.532193103322
$GPGGA,100827.00,3413.6191,N,12030.0614,W,1,09,0.8,12.1,M,-33.8,M,,*6D
$PYRTM,2024,123.422561445428,14.532208855567
$GPGGA,100828.00,3413.6196,N,12030.0629,W,1,09,0.8,12.2,M,-33.8,M,,*68
$PYRTM,2024,123.422573007882,14.532220418021
$GPGGA,100829.00,3413.6199,N,12030.0640,W,1,09,0.8,12.8,M,-33.8,M,,*63
$PYRTM,2024,123.422584607292,14.532232017431
$GPGGA,100830.00,3413.6201,N,12030.0651,W,1,09,0.8,13.4,M,-33.8,M,,*64
$PYRTM,2024,123.422596156597,14.532243566736
$GPGGA,100831.00,3413.6207,N,12030.0666,W,1,09,0.8,13.0,M,-33.8,M,,*63
$PYRTM,2024,123.422607738738,14.532255148877
$GPGGA,100832.00,3413.6214,N,12030.0681,W,1,09,0.8,12.0,M,-33.8,M,,*6A
$PYRTM,2024,123.422619307569,14.532266717708
$GPGGA,100833.00,3413.6221,N,12030.0692,W,1,09,0.8,11.3,M,-33.8,M,,*6F
$PYRTM,2024,123.422626699491,14.532274109630
$GPGGA,100834.00,3413.6224,N,12030.0704,W,1,09,0.8,11.4,M,-33.8,M,,*64
$PYRTM,2024,123.422645346910,14.532292757049
$GPGGA,100835.00,3413.6228,N,12030.0720,W,1,09,0.8,11.7,M,-33.8,M,,*6C
$PYRTM,2024,123.422654143843,14.532301553981
