$PYRTM,2024,123.083336829780,14.192984239919
$GPGGA,015959.00,3404.0555,N,11931.4560,W,1,08,1.0,9.6,M,-33.5,M,,*5B
$PYRTM,2024,123.083348407164,14.192995817303
$GPGGA,020000.00,3404.0565,N,11931.4588,W,1,08,1.0,9.4,M,-33.5,M,,*5F
$PYRTM,2024,123.083359978611,14.193007388750
$GPGGA,020001.00,3404.0575,N,11931.4616,W,1,08,1.0,9.0,M,-33.5,M,,*5F
$PYRTM,2024,123.083371553646,14.193018963785
$GPGGA,020002.00,3404.0585,N,11931.4643,W,1,08,1.0,9.0,M,-33.5,M,,*53
$PYRTM,2024,123.083383127153,14.193030537292
$GPGGA,020003.00,3404.0594,N,11931.4669,W,1,08,1.0,9.5,M,-33.5,M,,*5F
$PYRTM,2024,123.083394701262,14.193042111400
$GPGGA,020004.00,3404.0603,N,11931.4695,W,1,08,1.0,10.0,M,-33.5,M,,*6B
$PYRTM,2024,123.083406276296,14.193053686435
$GPGGA,020005.00,3404.0614,N,11931.4724,W,1,08,1.0,10.0,M,-33.5,M,,*67
$PYRTM,2024,123.083413670937,14.193061081076
$GPGGA,020006.00,3404.0624,N,11931.4753,W,1,08,1.0,9.5,M,-33.5,M,,*5A
$PYRTM,2024,123.083432305833,14.193079715984
$GPGGA,020007.00,3404.0632,N,11931.4782,W,1,08,1.0,9.0,M,-33.5,M,,*55
$PYRTM,2024,123.083443895729,14.193091305868
$GPGGA,020008.00,3404.0642,N,11931.4809,W,1,08,1.0,8.8,M,-33.5,M,,*58
$PYRTM,2024,123.083455453993,14.193102864132
$GPGGA,020009.00,3404.0651,N,11931.4834,W,1,08,1.0,9.4,M,-33.5,M,,*58
$PYRTM,2024,123.083469586887,14.193116997025
$GPGGA,020010.00,3404.0660,N,11931.4859,W,1,08,1.0,10.0,M,-33.5,M,,*65
$PYRTM,2024,123.083475722211,14.193123132350
$GPGGA,020011.00,3404.0669,N,11931.4886,W,1,08,1.0,10.3,M,-33.5,M,,*6C
$PYRTM,2024,123.083487310370,14.193134720509
$GPGGA,020012.00,3404.0679,N,11931.4917,W,1,08,1.0,9.7,M,-33.5,M,,*5B
$PYRTM,2024,123.083498869282,14.193146279421
$GPGGA,020013.00,3404.0687,N,11931.4945,W,1,08,1.0,9.0,M,-33.5,M,,*5B
$PYRTM,2024,123.083510444039,14.193157854178
$GPGGA,020014.00,3404.0696,N,11931.4971,W,1,08,1.0,9.0,M,-33.5,M,,*5B
$PYRTM,2024,123.083522017442,14.193169427581
$GPGGA,020015.00,3404.0706,N,11931.4995,W,1,08,1.0,9.3,M,-33.5,M,,*5B
$PYRTM,2024,123.083533592176,14.193181002315
$GPGGA,020016.00,3404.0716,N,11931.5024,W,1,08,1.0,9.4,M,-33.5,M,,*5C
$PYRTM,2024,123.083545166400,14.193192576551
$GPGGA,020017.00,3404.0726,N,11931.5055,W,1,08,1.0,9.0,M,-33.5,M,,*5C
$PYRTM,2024,123.083556740787,14.193204151111
$GPGGA,020018.00,3404.0735,N,11931.5084,W,1,08,1.0,8.9,M,-33.5,M,,*55
$PYRTM,2024,123.083568314664,14.193215724803
$GPGGA,020019.00,3404.0743,N,11931.5109,W,1,08,1.0,9.6,M,-33.5,M,,*5F
$PYRTM,2024,123.083575708866,14.193223119005
$GPGGA,020020.00,3404.0752,N,11931.5135,W,1,08,1.0,9.7,M,-33.5,M,,*5B
$PYRTM,2024,123.083591462569,14.193238872708
$GPGGA,020021.00,3404.0762,N,11931.5164,W,1,08,1.0,9.4,M,-33.5,M,,*5E
$PYRTM,2024,123.083603039225,14.193250449363
$GPGGA,020022.00,3404.0772,N,11931.5192,W,1,08,1.0,9.2,M,-33.5,M,,*53
$PYRTM,2024,123.083610432975,14.193257843113
$GPGGA,020023.00,3404.0779,N,11931.5219,W,1,08,1.0,9.7,M,-33.5,M,,*5C
$PYRTM,2024,123.083626188681,14.193273598819
$GPGGA,020024.00,3404.0786,N,11931.5246,W,1,08,1.0,9.9,M,-33.5,M,,*5F
$PYRTM,2024,123.083637759954,14.193285170093
$GPGGA,020025.00,3404.0796,N,11931.5273,W,1,08,1.0,9.8,M,-33.5,M,,*58
$PYRTM,2024,123.083649348056,14.193296758194
$GPGGA,020026.00,3404.0806,N,11931.5300,W,1,08,1.0,9.7,M,-33.5,M,,*57
$PYRTM,2024,123.083660908912,14.193308319051
$GPGGA,020027.00,3404.0814,N,11931.5327,W,1,08,1.0,9.8,M,-33.5,M,,*5F
$PYRTM,2024,123.083672496100,14.193319906238
$GPGGA,020028.00,3404.0823,N,11931.5357,W,1,08,1.0,9.4,M,-33.5,M,,*5F
$PYRTM,2024,123.083684057384,14.193331467523
$GPGGA,020029.00,3404.0832,N,11931.5385,W,1,08,1.0,9.2,M,-33.5,M,,*57
$PYRTM,2024,123.083695630197,14.193343040336
$GPGGA,020030.00,3404.0840,N,11931.5409,W,1,08,1.0,9.6,M,-33.5,M,,*5D
$PYRTM,2024,123.083707307002,14.193354717141
$GPGGA,020031.00,3404.0850,N,11931.5435,W,1,08,1.0,10.1,M,-33.5,M,,*6D
$PYRTM,2024,123.083718899977,14.193366310116
$GPGGA,020032.00,3404.0860,N,11931.5464,W,1,08,1.0,9.9,M,-33.5,M,,*59
$PYRTM,2024,123.083726188553,14.193373598692
$GPGGA,020033.00,3404.0869,N,11931.5492,W,1,08,1.0,9.5,M,-33.5,M,,*54
$PYRTM,2024,123.083741928750,14.193389338889
$GPGGA,020034.00,3404.0877,N,11931.5519,W,1,08,1.0,9.6,M,-33.5,M,,*5D
$PYRTM,2024,123.083753496667,14.193400906806
$GPGGA,020035.00,3404.0886,N,11931.5546,W,1,08,1.0,9.4,M,-33.5,M,,*5A
$PYRTM,2024,123.083765077106,14.193412487245
$GPGGA,020036.00,3404.0897,N,11931.5575,W,1,08,1.0,8.8,M,-33.5,M,,*54
$PYRTM,2024,123.083776649861,14.193424060000
$GPGGA,020037.00,3404.0906,N,11931.5602,W,1,08,1.0,8.6,M,-33.5,M,,*51
$PYRTM,2024,123.083788225150,14.193435635289
$GPGGA,020038.00,3404.0913,N,11931.5627,W,1,08,1.0,9.2,M,-33.5,M,,*58
$PYRTM,2024,123.083795619549,14.193443029687
$GPGGA,020039.00,3404.0922,N,11931.5654,W,1,08,1.0,9.7,M,-33.5,M,,*5A
$PYRTM,2024,123.083814266481,14.193461676620
$GPGGA,020040.00,3404.0932,N,11931.5682,W,1,08,1.0,9.6,M,-33.5,M,,*5F
$PYRTM,2024,123.083825828449,14.193473238588
$GPGGA,020041.00,3404.0942,N,11931.5709,W,1,07,1.3,8.2,M,-33.5,M,,*52
$PYRTM,2024,123.083839834907,14.193487245046
$GPGGA,020042.00,3404.0950,N,11931.5735,W,1,07,1.3,8.4,M,-33.5,M,,*5B
$PYRTM,2024,123.083846097083,14.193493507222
$GPGGA,020043.00,3404.0958,N,11931.5762,W,1,07,1.3,8.8,M,-33.5,M,,*5C
$PYRTM,2024,123.083857674167,14.193505084306
$GPGGA,020044.00,3404.0967,N,11931.5791,W,1,07,1.3,8.7,M,-33.5,M,,*54
$PYRTM,2024,123.083869244178,14.193516654317
$GPGGA,020045.00,3404.0976,N,11931.5819,W,1,07,1.3,8.3,M,-33.5,M,,*5E
$PYRTM,2024,123.083880818866,14.193528229005
$GPGGA,020046.00,3404.0984,N,11931.5846,W,1,07,1.3,8.5,M,-33.5,M,,*5C
$PYRTM,2024,123.083892393148,14.193539803287
$GPGGA,020047.00,3404.0993,N,11931.5875,W,1,07,1.3,8.6,M,-33.5,M,,*58
$PYRTM,2024,123.083899787882,14.193547198021
$GPGGA,020048.00,3404.1003,N,11931.5903,W,1,07,1.3,8.5,M,-33.5,M,,*55
$PYRTM,2024,123.083915541042,14.193562951181
$GPGGA,020049.00,3404.1012,N,11931.5931,W,1,07,1.3,8.5,M,-33.5,M,,*55
$PYRTM,2024,123.083927113993,14.193574524132
$GPGGA,020050.00,3404.1022,N,11931.5958,W,1,07,1.3,8.8,M,-33.5,M,,*5C
$PYRTM,2024,123.083938687870,14.193586098009
$GPGGA,020051.00,3404.1031,N,11931.5985,W,1,07,1.3,9.0,M,-33.5,M,,*56
$PYRTM,2024,123.083950263113,14.193597673252
$GPGGA,020052.00,3404.1040,N,11931.6013,W,1,07,1.3,9.0,M,-33.5,M,,*56
$PYRTM,2024,123.083961836968,14.193609247106
$GPGGA,020053.00,3404.1050,N,11931.6042,W,1,07,1.3,8.7,M,-33.5,M,,*54
$PYRTM,2024,123.083973412662,14.193620822801
$GPGGA,020054.00,3404.1058,N,11931.6069,W,1,07,1.3,8.5,M,-33.5,M,,*50
$PYRTM,2024,123.083980808889,14.193628219028
$GPGGA,020055.00,3404.1066,N,11931.6096,W,1,07,1.3,8.6,M,-33.5,M,,*5F
$PYRTM,2024,123.083996574711,14.193643984850
$GPGGA,020056.00,3404.1076,N,11931.6124,W,1,07,1.3,8.8,M,-33.5,M,,*5B
$PYRTM,2024,123.084008135093,14.193655545231
$GPGGA,020057.00,3404.1085,N,11931.6152,W,1,07,1.3,9.0,M,-33.5,M,,*5E
$PYRTM,2024,123.084015529421,14.193662939560
$GPGGA,020058.00,3404.1094,N,11931.6179,W,1,07,1.3,9.2,M,-33.5,M,,*5A
$PYRTM,2024,123.084031277338,14.193678687477
$GPGGA,020059.00,3404.1102,N,11931.6207,W,1,07,1.3,9.4,M,-33.5,M,,*59
$PYRTM,2024,123.084042860961,14.193690271111
$GPGGA,020100.00,3404.1111,N,11931.6235,W,1,07,1.3,9.4,M,-33.5,M,,*57
$PYRTM,2024,123.084050251262,14.193697661400
$GPGGA,020101.00,3404.1121,N,11931.6262,W,1,07,1.3,9.3,M,-33.5,M,,*50
$PYRTM,2024,123.084066000741,14.193713410891
$GPGGA,020102.00,3404.1130,N,11931.6290,W,1,07,1.3,9.0,M,-33.5,M,,*5D
$PYRTM,2024,123.084077579398,14.193724989537
$GPGGA,020103.00,3404.1140,N,11931.6318,W,1,07,1.3,8.9,M,-33.5,M,,*52
$PYRTM,2024,123.084089154398,14.193736564537
$GPGGA,020104.00,3404.1149,N,11931.6346,W,1,07,1.3,8.9,M,-33.5,M,,*57
$PYRTM,2024,123.084100723738,14.193748133877
$GPGGA,020105.00,3404.1158,N,11931.6374,W,1,07,1.3,9.1,M,-33.5,M,,*5E
$PYRTM,2024,123.084112304931,14.193759715069
$GPGGA,020106.00,3404.1167,N,11931.6400,W,1,07,1.3,9.6,M,-33.5,M,,*52
$PYRTM,2024,123.084123877523,14.193771287662
$GPGGA,020107.00,3404.1176,N,11931.6427,W,1,07,1.3,10.0,M,-33.5,M,,*68
$PYRTM,2024,123.084135451296,14.193782861435
$GPGGA,020108.00,3404.1186,N,11931.6456,W,1,07,1.3,9.9,M,-33.5,M,,*5F
$PYRTM,2024,123.084147024838,14.193794434977
$GPGGA,020109.00,3404.1196,N,11931.6484,W,1,07,1.3,9.4,M,-33.5,M,,*5D
$PYRTM,2024,123.084158599398,14.193806009537
$GPGGA,020110.00,3404.1205,N,11931.6512,W,1,07,1.3,8.8,M,-33.5,M,,*5F
$PYRTM,2024,123.084165994514,14.193813404653
$GPGGA,020111.00,3404.1214,N,11931.6539,W,1,07,1.3,8.8,M,-33.5,M,,*57
$PYRTM,2024,123.084184641331,14.193832051470
$GPGGA,020112.00,3404.1222,N,11931.6566,W,1,07,1.3,9.3,M,-33.5,M,,*51
$PYRTM,2024,123.084193322419,14.193840732558
$GPGGA,020113.00,3404.1233,N,11931.6595,W,1,07,1.3,9.6,M,-33.5,M,,*59
$PYRTM,2024,123.084200717813,14.193848127951
$GPGGA,020114.00,3404.1244,N,11931.6623,W,1,07,1.3,9.8,M,-33.5,M,,*5E
$PYRTM,2024,123.084216470023,14.193863880162
$GPGGA,020115.00,3404.1252,N,11931.6650,W,1,07,1.3,10.0,M,-33.5,M,,*6C
$PYRTM,2024,123.084228048125,14.193875458264
$GPGGA,020116.00,3404.1260,N,11931.6677,W,1,07,1.3,10.2,M,-33.5,M,,*69
$PYRTM,2024,123.084239618681,14.193887028819
$GPGGA,020117.00,3404.1270,N,11931.6706,W,1,07,1.3,9.9,M,-33.5,M,,*5D
$PYRTM,2024,123.084251195174,14.193898605312
$GPGGA,020118.00,3404.1279,N,11931.6734,W,1,07,1.3,9.4,M,-33.5,M,,*57
$PYRTM,2024,123.084262767917,14.193910178056
$GPGGA,020119.00,3404.1289,N,11931.6762,W,1,07,1.3,9.2,M,-33.5,M,,*5C
$PYRTM,2024,123.084274336134,14.193921746273
$GPGGA,020120.00,3404.1298,N,11931.6790,W,1,07,1.3,9.2,M,-33.5,M,,*5B
$PYRTM,2024,123.084285916285,14.193933326424
$GPGGA,020121.00,3404.1307,N,11931.6819,W,1,07,1.3,9.4,M,-33.5,M,,*55
$PYRTM,2024,123.084297489109,14.193944899248
$GPGGA,020122.00,3404.1315,N,11931.6846,W,1,07,1.3,10.0,M,-33.5,M,,*63
$PYRTM,2024,123.084309060405,14.193956470544
$GPGGA,020123.00,3404.1325,N,11931.6873,W,1,07,1.3,10.7,M,-33.5,M,,*60
$PYRTM,2024,123.084316457650,14.193963867789
$GPGGA,020124.00,3404.1335,N,11931.6902,W,1,07,1.3,10.6,M,-33.5,M,,*60
$PYRTM,2024,123.084332212477,14.193979622616
$GPGGA,020125.00,3404.1344,N,11931.6931,W,1,07,1.3,10.1,M,-33.5,M,,*60
$PYRTM,2024,123.084343787164,14.193991197303
$GPGGA,020126.00,3404.1351,N,11931.6957,W,1,07,1.3,9.8,M,-33.5,M,,*56
$PYRTM,2024,123.084355361285,14.194002771424
$GPGGA,020127.00,3404.1360,N,11931.6983,W,1,07,1.3,9.8,M,-33.5,M,,*5C
$PYRTM,2024,123.084366937245,14.194014347384
$GPGGA,020128.00,3404.1369,N,11931.7011,W,1,07,1.3,9.6,M,-33.5,M,,*57
$PYRTM,2024,123.084378509352,14.194025919491
$GPGGA,020129.00,3404.1379,N,11931.7041,W,1,07,1.3,9.4,M,-33.5,M,,*50
$PYRTM,2024,123.084385902072,14.194033312211
$GPGGA,020130.00,3404.1387,N,11931.7068,W,1,07,1.3,9.5,M,-33.5,M,,*53
$PYRTM,2024,123.084401656412,14.194049066551
$GPGGA,020131.00,3404.1395,N,11931.7095,W,1,07,1.3,10.0,M,-33.5,M,,*6E
$PYRTM,2024,123.084413235035,14.194060645174
$GPGGA,020132.00,3404.1405,N,11931.7124,W,1,07,1.3,10.3,M,-33.5,M,,*6B
$PYRTM,2024,123.084424805880,14.194072216019
$GPGGA,020133.00,3404.1415,N,11931.7152,W,1,07,1.3,10.2,M,-33.5,M,,*6B
$PYRTM,2024,123.084436380995,14.194083791146
$GPGGA,020134.00,3404.1424,N,11931.7180,W,1,07,1.3,10.0,M,-33.5,M,,*63
$PYRTM,2024,123.084447953947,14.194095364086
$GPGGA,020135.00,3404.1433,N,11931.7208,W,1,07,1.3,10.0,M,-33.5,M,,*67
$PYRTM,2024,123.084459527882,14.194106938021
$GPGGA,020136.00,3404.1441,N,11931.7235,W,1,07,1.3,10.1,M,-33.5,M,,*6E
$PYRTM,2024,123.084471103403,14.194118513542
$GPGGA,020137.00,3404.1451,N,11931.7264,W,1,07,1.3,10.1,M,-33.5,M,,*6A
$PYRTM,2024,123.084482676863,14.194130087002
$GPGGA,020138.00,3404.1461,N,11931.7292,W,1,07,1.3,10.0,M,-33.5,M,,*6E
$PYRTM,2024,123.084494251725,14.194141661863
$GPGGA,020139.00,3404.1470,N,11931.7320,W,1,07,1.3,9.9,M,-33.5,M,,*56
$PYRTM,2024,123.084501646759,14.194149056898
$GPGGA,020140.00,3404.1478,N,11931.7348,W,1,07,1.3,10.0,M,-33.5,M,,*6F
$PYRTM,2024,123.084517399502,14.194164809641
$GPGGA,020141.00,3404.1487,N,11931.7376,W,1,07,1.3,10.1,M,-33.5,M,,*62
$PYRTM,2024,123.084524796204,14.194172206343
$GPGGA,020142.00,3404.1496,N,11931.7405,W,1,07,1.3,9.9,M,-33.5,M,,*52
$PYRTM,2024,123.084543430150,14.194190840289
$GPGGA,020143.00,3404.1506,N,11931.7433,W,1,07,1.3,9.6,M,-33.5,M,,*51
$PYRTM,2024,123.084552123692,14.194199533831
$GPGGA,020144.00,3404.1514,N,11931.7460,W,1,07,1.3,9.7,M,-33.5,M,,*52
$PYRTM,2024,123.084563697118,14.194211107257
$GPGGA,020145.00,3404.1523,N,11931.7488,W,1,07,1.3,9.9,M,-33.5,M,,*5F
$PYRTM,2024,123.084575273692,14.194222683831
$GPGGA,020146.00,3404.1533,N,11931.7517,W,1,07,1.3,9.8,M,-33.5,M,,*5B
$PYRTM,2024,123.084582666563,14.194230076701
$GPGGA,020147.00,3404.1542,N,11931.7545,W,1,07,1.3,9.7,M,-33.5,M,,*54
$PYRTM,2024,123.084598422465,14.194245832604
$GPGGA,020148.00,3404.1551,N,11931.7572,W,1,07,1.3,9.8,M,-33.5,M,,*52
$PYRTM,2024,123.084609993935,14.194257404074
$GPGGA,020149.00,3404.1560,N,11931.7600,W,1,07,1.3,9.9,M,-33.5,M,,*56
$PYRTM,2024,123.084617387882,14.194264798021
$GPGGA,020150.00,3404.1570,N,11931.7628,W,1,07,1.3,9.7,M,-33.5,M,,*5B
$PYRTM,2024,123.084633142222,14.194280552361
$GPGGA,020151.00,3404.1579,N,11931.7657,W,1,07,1.3,9.6,M,-33.5,M,,*5A
$PYRTM,2024,123.084644716053,14.194292126192
$GPGGA,020152.00,3404.1588,N,11931.7684,W,1,07,1.3,9.7,M,-33.5,M,,*58
$PYRTM,2024,123.084656289155,14.194303699294
$GPGGA,020153.00,3404.1597,N,11931.7712,W,1,07,1.3,9.9,M,-33.5,M,,*57
$PYRTM,2024,123.084667859641,14.194315269792
$GPGGA,020154.00,3404.1607,N,11931.7741,W,1,07,1.3,9.8,M,-33.5,M,,*5D
$PYRTM,2024,123.084679438854,14.194326848993
$GPGGA,020155.00,3404.1616,N,11931.7770,W,1,07,1.3,9.8,M,-33.5,M,,*5E
$PYRTM,2024,123.084691013530,14.194338423669
$GPGGA,020156.00,3404.1624,N,11931.7798,W,1,07,1.3,10.0,M,-33.5,M,,*6A
$PYRTM,2024,123.084702586505,14.194349996644
$GPGGA,020157.00,3404.1633,N,11931.7825,W,1,07,1.3,10.3,M,-33.5,M,,*67
$PYRTM,2024,123.084714161968,14.194361572106
$GPGGA,020158.00,3404.1643,N,11931.7854,W,1,07,1.3,10.3,M,-33.5,M,,*69
$PYRTM,2024,123.084725735046,14.194373145185
$GPGGA,020159.00,3404.1653,N,11931.7883,W,1,07,1.3,9.9,M,-33.5,M,,*51
$PYRTM,2024,123.084737309734,14.194384719873
$GPGGA,020200.00,3404.1661,N,11931.7912,W,1,07,1.3,9.4,M,-33.5,M,,*5B
$PYRTM,2024,123.084748887188,14.194396297326
$GPGGA,020201.00,3404.1669,N,11931.7939,W,1,07,1.3,9.4,M,-33.5,M,,*5B
$PYRTM,2024,123.084760461250,14.194407871389
$GPGGA,020202.00,3404.1678,N,11931.7966,W,1,07,1.3,9.8,M,-33.5,M,,*5E
$PYRTM,2024,123.084767853021,14.194415263160
$GPGGA,020203.00,3404.1688,N,11931.7995,W,1,07,1.3,10.0,M,-33.5,M,,*6C
$PYRTM,2024,123.084783609456,14.194431019595
$GPGGA,020204.00,3404.1697,N,11931.8024,W,1,07,1.3,10.1,M,-33.5,M,,*68
$PYRTM,2024,123.084795182245,14.194442592384
$GPGGA,020205.00,3404.1705,N,11931.8053,W,1,07,1.3,9.9,M,-33.5,M,,*53
$PYRTM,2024,123.084806756609,14.194454166748
$GPGGA,020206.00,3404.1714,N,11931.8082,W,1,07,1.3,9.5,M,-33.5,M,,*50
$PYRTM,2024,123.084818329225,14.194465739363
$GPGGA,020207.00,3404.1724,N,11931.8110,W,1,07,1.3,9.2,M,-33.5,M,,*5F
$PYRTM,2024,123.084829903461,14.194477313600
$GPGGA,020208.00,3404.1732,N,11931.8136,W,1,07,1.3,9.6,M,-33.5,M,,*57
$PYRTM,2024,123.084841477488,14.194488887627
$GPGGA,020209.00,3404.1741,N,11931.8163,W,1,07,1.3,10.2,M,-33.5,M,,*6E
$PYRTM,2024,123.084853051007,14.194500461146
$GPGGA,020210.00,3404.1751,N,11931.8193,W,1,07,1.3,10.2,M,-33.5,M,,*68
$PYRTM,2024,123.084864620428,14.194512030567
$GPGGA,020211.00,3404.1760,N,11931.8223,W,1,07,1.3,9.6,M,-33.5,M,,*5F
$PYRTM,2024,123.084876204016,14.194523614167
$GPGGA,020212.00,3404.1769,N,11931.8250,W,1,07,1.3,9.2,M,-33.5,M,,*55
$PYRTM,2024,123.084883595174,14.194531005312
$GPGGA,020213.00,3404.1777,N,11931.8277,W,1,07,1.3,9.3,M,-33.5,M,,*5F
$PYRTM,2024,123.084902243785,14.194549653924
$GPGGA,020214.00,3404.1786,N,11931.8304,W,1,07,1.3,9.6,M,-33.5,M,,*56
$PYRTM,2024,123.084910922720,14.194558332859
$GPGGA,020215.00,3404.1795,N,11931.8332,W,1,07,1.3,9.8,M,-33.5,M,,*5E
$PYRTM,2024,123.084918318414,14.194565728553
$GPGGA,020216.00,3404.1804,N,11931.8360,W,1,07,1.3,10.0,M,-33.5,M,,*6D
$PYRTM,2024,123.084934072963,14.194581483102
$GPGGA,020217.00,3404.1813,N,11931.8387,W,1,07,1.3,10.1,M,-33.5,M,,*62
$PYRTM,2024,123.084945660486,14.194593070637
$GPGGA,020218.00,3404.1822,N,11931.8416,W,1,07,1.3,9.9,M,-33.5,M,,*50
$PYRTM,2024,123.084953041840,14.194600451979
$GPGGA,020219.00,3404.1832,N,11931.8445,W,1,07,1.3,9.2,M,-33.5,M,,*5D
$PYRTM,2024,123.084968796910,14.194616207049
$GPGGA,020220.00,3404.1840,N,11931.8473,W,1,07,1.3,8.8,M,-33.5,M,,*5C
$PYRTM,2024,123.084980368958,14.194627779109
$GPGGA,020221.00,3404.1848,N,11931.8501,W,1,07,1.3,9.0,M,-33.5,M,,*58
$PYRTM,2024,123.084991936100,14.194639346238
$GPGGA,020222.00,3404.1857,N,11931.8528,W,1,07,1.3,9.5,M,-33.5,M,,*5B
$PYRTM,2024,123.085003517269,14.194650927407
$GPGGA,020223.00,3404.1867,N,11931.8555,W,1,07,1.3,10.1,M,-33.5,M,,*6F
$PYRTM,2024,123.085015091759,14.194662501898
$GPGGA,020224.00,3404.1878,N,11931.8585,W,1,07,1.3,10.1,M,-33.5,M,,*6B
$PYRTM,2024,123.085026664722,14.194674074861
$GPGGA,020225.00,3404.1886,N,11931.8614,W,1,07,1.3,9.8,M,-33.5,M,,*51
$PYRTM,2024,123.085038239074,14.194685649213
$GPGGA,020226.00,3404.1894,N,11931.8641,W,1,07,1.3,9.7,M,-33.5,M,,*5E
$PYRTM,2024,123.085049813356,14.194697223495
$GPGGA,020227.00,3404.1902,N,11931.8667,W,1,07,1.3,9.8,M,-33.5,M,,*5A
$PYRTM,2024,123.085061387708,14.194708797847
$GPGGA,020228.00,3404.1912,N,11931.8695,W,1,07,1.3,9.7,M,-33.5,M,,*56
$PYRTM,2024,123.085068780984,14.194716191123
$GPGGA,020229.00,3404.1922,N,11931.8723,W,1,07,1.3,9.5,M,-33.5,M,,*5A
$PYRTM,2024,123.085084535926,14.194731946065
$GPGGA,020230.00,3404.1930,N,11931.8751,W,1,07,1.3,9.6,M,-33.5,M,,*57
$PYRTM,2024,123.085096110440,14.194743520579
$GPGGA,020231.00,3404.1938,N,11931.8780,W,1,07,1.3,9.6,M,-33.5,M,,*52
$PYRTM,2024,123.085103506146,14.194750916285
$GPGGA,020232.00,3404.1947,N,11931.8808,W,1,07,1.3,9.6,M,-33.5,M,,*56
$PYRTM,2024,123.085119258090,14.194766668229
$GPGGA,020233.00,3404.1957,N,11931.8834,W,1,07,1.3,9.8,M,-33.5,M,,*57
$PYRTM,2024,123.085130963229,14.194778373380
$GPGGA,020234.00,3404.1966,N,11931.8862,W,1,07,1.3,10.0,M,-33.5,M,,*61
$PYRTM,2024,123.085142406921,14.194789817060
$GPGGA,020235.00,3404.1976,N,11931.8890,W,1,07,1.3,9.9,M,-33.5,M,,*5D
$PYRTM,2024,123.085153984722,14.194801394861
$GPGGA,020236.00,3404.1985,N,11931.8920,W,1,07,1.3,9.6,M,-33.5,M,,*57
$PYRTM,2024,123.085165556192,14.194812966331
$GPGGA,020237.00,3404.1994,N,11931.8949,W,1,07,1.3,9.3,M,-33.5,M,,*5C
$PYRTM,2024,123.085177129838,14.194824539977
$GPGGA,020238.00,3404.2003,N,11931.8976,W,1,07,1.3,9.5,M,-33.5,M,,*5D
$PYRTM,2024,123.085188704271,14.194836114410
$GPGGA,020239.00,3404.2012,N,11931.9003,W,1,07,1.3,10.0,M,-33.5,M,,*6B
$PYRTM,2024,123.085200278021,14.194847688160
$GPGGA,020240.00,3404.2023,N,11931.9031,W,1,07,1.3,10.3,M,-33.5,M,,*65
$PYRTM,2024,123.085211846956,14.194859257095
$GPGGA,020241.00,3404.2032,N,11931.9061,W,1,07,1.3,10.1,M,-33.5,M,,*63
$PYRTM,2024,123.085219246944,14.194866657083
$GPGGA,020242.00,3404.2042,N,11931.9090,W,1,07,1.3,9.6,M,-33.5,M,,*56
$PYRTM,2024,123.085234999444,14.194882409583
$GPGGA,020243.00,3404.2050,N,11931.9118,W,1,07,1.3,9.5,M,-33.5,M,,*56
$PYRTM,2024,123.085242394977,14.194889805116
$GPGGA,020244.00,3404.2058,N,11931.9144,W,1,07,1.3,9.8,M,-33.5,M,,*5D
$PYRTM,2024,123.085261030440,14.194908440579
$GPGGA,020245.00,3404.2068,N,11931.9172,W,1,07,1.3,10.0,M,-33.5,M,,*6A
$PYRTM,2024,123.085269722813,14.194917132951
$GPGGA,020246.00,3404.2078,N,11931.9202,W,1,07,1.3,9.8,M,-33.5,M,,*5C
$PYRTM,2024,123.085281293773,14.194928703912
$GPGGA,020247.00,3404.2087,N,11931.9228,W,1,07,1.3,9.9,M,-33.5,M,,*54
$PYRTM,2024,123.085292866331,14.194940276470
$GPGGA,020248.00,3404.2094,N,11931.9255,W,1,07,1.3,10.2,M,-33.5,M,,*60
$PYRTM,2024,123.085300267558,14.194947677697
$GPGGA,020249.00,3404.2104,N,11931.9283,W,1,07,1.3,10.2,M,-33.5,M,,*62
$PYRTM,2024,123.085316036470,14.194963446609
$GPGGA,020250.00,3404.2113,N,11931.9312,W,1,07,1.3,9.9,M,-33.5,M,,*56
$PYRTM,2024,123.085327593229,14.194975003368
$GPGGA,020251.00,3404.2122,N,11931.9339,W,1,07,1.3,9.7,M,-33.5,M,,*52
$PYRTM,2024,123.085334990035,14.194982400174
$GPGGA,020252.00,3404.2131,N,11931.9365,W,1,07,1.3,9.9,M,-33.5,M,,*54
$PYRTM,2024,123.085350742338,14.194998152477
$GPGGA,020253.00,3404.2140,N,11931.9395,W,1,07,1.3,10.0,M,-33.5,M,,*6D
$PYRTM,2024,123.085362318461,14.195009728600
$GPGGA,020254.00,3404.2149,N,11931.9425,W,1,07,1.3,9.9,M,-33.5,M,,*5E
$PYRTM,2024,123.085373891701,14.195021301840
$GPGGA,020255.00,3404.2158,N,11931.9451,W,1,07,1.3,10.1,M,-33.5,M,,*6C
$PYRTM,2024,123.085385470475,14.195032880613
$GPGGA,020256.00,3404.2166,N,11931.9476,W,1,07,1.3,10.7,M,-33.5,M,,*61
$PYRTM,2024,123.085397039398,14.195044449537
$GPGGA,020257.00,3404.2176,N,11931.9505,W,1,07,1.3,10.9,M,-33.5,M,,*6A
$PYRTM,2024,123.085408614537,14.195056024676
$GPGGA,020258.00,3404.2186,N,11931.9534,W,1,07,1.3,10.4,M,-33.5,M,,*65
$PYRTM,2024,123.085420183310,14.195067593449
$GPGGA,020259.00,3404.2195,N,11931.9563,W,1,07,1.3,10.0,M,-33.5,M,,*60
$PYRTM,2024,123.085431761829,14.195079171968
$GPGGA,020300.00,3404.2202,N,11931.9589,W,1,07,1.3,9.9,M,-33.5,M,,*55
$PYRTM,2024,123.085443335845,14.195090745984
$GPGGA,020301.00,3404.2211,N,11931.9616,W,1,07,1.3,10.2,M,-33.5,M,,*60
$PYRTM,2024,123.085454910394,14.195102320532
$GPGGA,020302.00,3404.2222,N,11931.9644,W,1,07,1.3,10.3,M,-33.5,M,,*65
$PYRTM,2024,123.085466484873,14.195113895023
$GPGGA,020303.00,3404.2230,N,11931.9672,W,1,07,1.3,10.5,M,-33.5,M,,*64
$PYRTM,2024,123.085478060035,14.195125470174
$GPGGA,020304.00,3404.2238,N,11931.9700,W,1,07,1.3,10.6,M,-33.5,M,,*6C
$PYRTM,2024,123.085485454317,14.195132864456
$GPGGA,020305.00,3404.2247,N,11931.9728,W,1,07,1.3,10.6,M,-33.5,M,,*6F
$PYRTM,2024,123.085501224190,14.195148634329
$GPGGA,020306.00,3404.2256,N,11931.9755,W,1,07,1.3,10.6,M,-33.5,M,,*66
$PYRTM,2024,123.085512782292,14.195160192431
$GPGGA,020307.00,3404.2266,N,11931.9783,W,1,07,1.3,10.3,M,-33.5,M,,*6A
$PYRTM,2024,123.085524360972,14.195171771111
$GPGGA,020308.00,3404.2275,N,11931.9811,W,1,07,1.3,10.1,M,-33.5,M,,*61
$PYRTM,2024,123.085535930926,14.195183341065
$GPGGA,020309.00,3404.2283,N,11931.9839,W,1,07,1.3,10.2,M,-33.5,M,,*60
$PYRTM,2024,123.085547507674,14.195194917812
$GPGGA,020310.00,3404.2291,N,11931.9867,W,1,07,1.3,10.4,M,-33.5,M,,*66
$PYRTM,2024,123.085559078183,14.195206488322
$GPGGA,020311.00,3404.2300,N,11931.9895,W,1,07,1.3,10.5,M,-33.5,M,,*62
$PYRTM,2024,123.085570655625,14.195218065764
$GPGGA,020312.00,3404.2310,N,11931.9924,W,1,07,1.3,10.4,M,-33.5,M,,*6A
$PYRTM,2024,123.085582227153,14.195229637303
$GPGGA,020313.00,3404.2318,N,11931.9952,W,1,07,1.3,10.4,M,-33.5,M,,*62
$PYRTM,2024,123.085593800648,14.195241210787
$GPGGA,020314.00,3404.2326,N,11931.9979,W,1,07,1.3,10.8,M,-33.5,M,,*6D
$PYRTM,2024,123.085601210567,14.195248620706
$GPGGA,020315.00,3404.2335,N,11932.0006,W,1,07,1.3,11.0,M,-33.5,M,,*6C
$PYRTM,2024,123.085619844653,14.195267254803
$GPGGA,020316.00,3404.2345,N,11932.0035,W,1,07,1.3,10.8,M,-33.5,M,,*61
$PYRTM,2024,123.085628523449,14.195275933588
$GPGGA,020317.00,3404.2353,N,11932.0065,W,1,07,1.3,10.3,M,-33.5,M,,*69
$PYRTM,2024,123.085635918565,14.195283328704
$GPGGA,020318.00,3404.2361,N,11932.0091,W,1,07,1.3,10.3,M,-33.5,M,,*6C
$PYRTM,2024,123.085651673137,14.195299083275
$GPGGA,020319.00,3404.2369,N,11932.0118,W,1,07,1.3,10.4,M,-33.5,M,,*62
$PYRTM,2024,123.085663245660,14.195310655799
$GPGGA,020320.00,3404.2378,N,11932.0148,W,1,07,1.3,10.3,M,-33.5,M,,*6A
$PYRTM,2024,123.085674815278,14.195322225417
$GPGGA,020321.00,3404.2387,N,11932.0178,W,1,07,1.3,10.2,M,-33.5,M,,*69
$PYRTM,2024,123.085686397350,14.195333807488
$GPGGA,020322.00,3404.2394,N,11932.0203,W,1,07,1.3,10.5,M,-33.5,M,,*60
$PYRTM,2024,123.085698074375,14.195345484514
$GPGGA,020323.00,3404.2402,N,11932.0230,W,1,07,1.3,11.0,M,-33.5,M,,*6D
$PYRTM,2024,123.085709545903,14.195356956042
$GPGGA,020324.00,3404.2411,N,11932.0259,W,1,07,1.3,11.0,M,-33.5,M,,*67
$PYRTM,2024,123.085721118125,14.195368528264
$GPGGA,020325.00,3404.2419,N,11932.0288,W,1,07,1.3,10.5,M,-33.5,M,,*66
$PYRTM,2024,123.085732694410,14.195380104560
$GPGGA,020326.00,3404.2427,N,11932.0316,W,1,07,1.3,10.2,M,-33.5,M,,*69
$PYRTM,2024,123.085744265764,14.195391675914
$GPGGA,020327.00,3404.2435,N,11932.0344,W,1,07,1.3,10.1,M,-33.5,M,,*6F
$PYRTM,2024,123.085755840440,14.195403250579
$GPGGA,020328.00,3404.2445,N,11932.0372,W,1,07,1.3,10.1,M,-33.5,M,,*62
$PYRTM,2024,123.085767414051,14.195414824190
$GPGGA,020329.00,3404.2453,N,11932.0399,W,1,07,1.3,10.4,M,-33.5,M,,*64
$PYRTM,2024,123.085778988125,14.195426398264
$GPGGA,020330.00,3404.2461,N,11932.0427,W,1,07,1.3,10.8,M,-33.5,M,,*63
$PYRTM,2024,123.085786398102,14.195433808241
$GPGGA,020331.00,3404.2468,N,11932.0457,W,1,07,1.3,10.9,M,-33.5,M,,*6D
$PYRTM,2024,123.085802139398,14.195449549537
$GPGGA,020332.00,3404.2476,N,11932.0485,W,1,07,1.3,10.9,M,-33.5,M,,*6E
$PYRTM,2024,123.085813710914,14.195461121053
$GPGGA,020333.00,3404.2485,N,11932.0511,W,1,07,1.3,10.8,M,-33.5,M,,*6E
$PYRTM,2024,123.085825285752,14.195472695891
$GPGGA,020334.00,3404.2494,N,11932.0539,W,1,07,1.3,10.6,M,-33.5,M,,*6D
$PYRTM,2024,123.085836858356,14.195484268495
$GPGGA,020335.00,3404.2502,N,11932.0569,W,1,07,1.3,10.2,M,-33.5,M,,*63
$PYRTM,2024,123.085848433981,14.195495844120
$GPGGA,020336.00,3404.2509,N,11932.0597,W,1,07,1.3,10.0,M,-33.5,M,,*68
$PYRTM,2024,123.085860007523,14.195507417662
$GPGGA,020337.00,3404.2516,N,11932.0624,W,1,07,1.3,10.3,M,-33.5,M,,*6F
$PYRTM,2024,123.085871584769,14.195518994919
$GPGGA,020338.00,3404.2524,N,11932.0651,W,1,07,1.3,10.9,M,-33.5,M,,*69
$PYRTM,2024,123.085883155937,14.195530566076
$GPGGA,020339.00,3404.2533,N,11932.0680,W,1,07,1.3,10.9,M,-33.5,M,,*62
$PYRTM,2024,123.085894734167,14.195542144306
$GPGGA,020340.00,3404.2542,N,11932.0709,W,1,07,1.3,10.8,M,-33.5,M,,*6B
$PYRTM,2024,123.085902126713,14.195549536852
$GPGGA,020341.00,3404.2549,N,11932.0738,W,1,07,1.3,10.6,M,-33.5,M,,*6D
$PYRTM,2024,123.085917882975,14.195565293113
$GPGGA,020342.00,3404.2555,N,11932.0766,W,1,07,1.3,10.4,M,-33.5,M,,*6A
$PYRTM,2024,123.085929451840,14.195576861979
$GPGGA,020343.00,3404.2563,N,11932.0794,W,1,07,1.3,10.4,M,-33.5,M,,*63
$PYRTM,2024,123.085936847824,14.195584257963
$GPGGA,020344.00,3404.2571,N,11932.0822,W,1,07,1.3,10.6,M,-33.5,M,,*67
$PYRTM,2024,123.085952602315,14.195600012454
$GPGGA,020345.00,3404.2579,N,11932.0852,W,1,07,1.3,10.7,M,-33.5,M,,*68
$PYRTM,2024,123.085959996493,14.195607406632
$GPGGA,020346.00,3404.2586,N,11932.0882,W,1,07,1.3,10.5,M,-33.5,M,,*64
$PYRTM,2024,123.085978630139,14.195626040278
$GPGGA,020347.00,3404.2593,N,11932.0912,W,1,07,1.3,10.4,M,-33.5,M,,*68
$PYRTM,2024,123.085987323623,14.195634733762
$GPGGA,020348.00,3404.2599,N,11932.0939,W,1,07,1.3,10.8,M,-33.5,M,,*68
$PYRTM,2024,123.085998897685,14.195646307824
$GPGGA,020349.00,3404.2606,N,11932.0966,W,1,07,1.3,11.3,M,-33.5,M,,*6C
$PYRTM,2024,123.086010467419,14.195657877558
$GPGGA,020350.00,3404.2613,N,11932.0994,W,1,07,1.3,11.3,M,-33.5,M,,*6D
$PYRTM,2024,123.086022047488,14.195669457627
$GPGGA,020351.00,3404.2621,N,11932.1024,W,1,07,1.3,10.7,M,-33.5,M,,*6B
$PYRTM,2024,123.086033622384,14.195681032523
$GPGGA,020352.00,3404.2627,N,11932.1054,W,1,07,1.3,9.9,M,-33.5,M,,*5F
$PYRTM,2024,123.086045194988,14.195692605127
$GPGGA,020353.00,3404.2633,N,11932.1083,W,1,07,1.3,9.3,M,-33.5,M,,*5B
$PYRTM,2024,123.086052590949,14.195700001100
$GPGGA,020354.00,3404.2639,N,11932.1111,W,1,07,1.3,9.4,M,-33.5,M,,*5B
$PYRTM,2024,123.086068342315,14.195715752454
$GPGGA,020355.00,3404.2645,N,11932.1138,W,1,07,1.3,10.1,M,-33.5,M,,*67
$PYRTM,2024,123.086079931215,14.195727341354
$GPGGA,020356.00,3404.2653,N,11932.1167,W,1,07,1.3,10.9,M,-33.5,M,,*61
$PYRTM,2024,123.086087311898,14.195734722037
$GPGGA,020357.00,3404.2659,N,11932.1196,W,1,07,1.3,11.3,M,-33.5,M,,*6F
$PYRTM,2024,123.086103079988,14.195750490127
$GPGGA,020358.00,3404.2665,N,11932.1226,W,1,07,1.3,11.2,M,-33.5,M,,*66
$PYRTM,2024,123.086114640046,14.195762050185
$GPGGA,020359.00,3404.2672,N,11932.1256,W,1,07,1.3,10.5,M,-33.5,M,,*60
$PYRTM,2024,123.086126213808,14.195773623947
$GPGGA,020400.00,3404.2679,N,11932.1286,W,1,07,1.3,9.7,M,-33.5,M,,*57
$PYRTM,2024,123.086137788079,14.195785198218
$GPGGA,020401.00,3404.2685,N,11932.1314,W,1,07,1.3,9.3,M,-33.5,M,,*5B
$PYRTM,2024,123.086149364676,14.195796774815
$GPGGA,020402.00,3404.2691,N,11932.1342,W,1,07,1.3,9.8,M,-33.5,M,,*55
$PYRTM,2024,123.086160936528,14.195808346667
$GPGGA,020403.00,3404.2697,N,11932.1370,W,1,07,1.3,10.5,M,-33.5,M,,*66
$PYRTM,2024,123.086172510532,14.195819920671
$GPGGA,020404.00,3404.2703,N,11932.1400,W,1,07,1.3,10.9,M,-33.5,M,,*61
$PYRTM,2024,123.086184080093,14.195831490231
$GPGGA,020405.00,3404.2709,N,11932.1430,W,1,07,1.3,11.0,M,-33.5,M,,*61
$PYRTM,2024,123.086195660914,14.195843071053
$GPGGA,020406.00,3404.2716,N,11932.1459,W,1,07,1.3,10.5,M,-33.5,M,,*67
$PYRTM,2024,123.086203054537,14.195850464676
$GPGGA,020407.00,3404.2723,N,11932.1489,W,1,07,1.3,9.5,M,-33.5,M,,*55
$PYRTM,2024,123.086218807130,14.195866217269
$GPGGA,020408.00,3404.2729,N,11932.1519,W,1,07,1.3,8.7,M,-33.5,M,,*5B
$PYRTM,2024,123.086230381481,14.195877791620
$GPGGA,020409.00,3404.2735,N,11932.1548,W,1,07,1.3,8.8,M,-33.5,M,,*5C
$PYRTM,2024,123.086237777153,14.195885187292
$GPGGA,020410.00,3404.2741,N,11932.1577,W,1,07,1.3,9.2,M,-33.5,M,,*50
$PYRTM,2024,123.086253529942,14.195900940081
$GPGGA,020411.00,3404.2747,N,11932.1605,W,1,07,1.3,9.7,M,-33.5,M,,*54
$PYRTM,2024,123.086265107535,14.195912517674
$GPGGA,020412.00,3404.2753,N,11932.1635,W,1,07,1.3,10.0,M,-33.5,M,,*6E
$PYRTM,2024,123.086276678380,14.195924088519
$GPGGA,020413.00,3404.2760,N,11932.1664,W,1,07,1.3,10.1,M,-33.5,M,,*6A
$PYRTM,2024,123.086288267049,14.195935677188
$GPGGA,020414.00,3404.2766,N,11932.1693,W,1,07,1.3,9.5,M,-33.5,M,,*5F
$PYRTM,2024,123.086299826319,14.195947236458
$GPGGA,020415.00,3404.2772,N,11932.1721,W,1,07,1.3,9.0,M,-33.5,M,,*56
$PYRTM,2024,123.086311402106,14.195958812245
$GPGGA,020416.00,3404.2778,N,11932.1749,W,1,07,1.3,9.1,M,-33.5,M,,*50
$PYRTM,2024,123.086318811331,14.195966221470
$GPGGA,020417.00,3404.2784,N,11932.1778,W,1,07,1.3,9.6,M,-33.5,M,,*57
$PYRTM,2024,123.086337443484,14.195984853623
$GPGGA,020418.00,3404.2790,N,11932.1807,W,1,07,1.3,10.1,M,-33.5,M,,*65
$PYRTM,2024,123.086346124028,14.195993534167
$GPGGA,020419.00,3404.2796,N,11932.1836,W,1,07,1.3,10.3,M,-33.5,M,,*62
$PYRTM,2024,123.086353519456,14.196000929595
$GPGGA,020420.00,3404.2801,N,11932.1866,W,1,07,1.3,10.1,M,-33.5,M,,*6E
$PYRTM,2024,123.086369272326,14.196016682465
$GPGGA,020421.00,3404.2808,N,11932.1896,W,1,07,1.3,9.6,M,-33.5,M,,*56
$PYRTM,2024,123.086380848345,14.196028258484
$GPGGA,020422.00,3404.2815,N,11932.1926,W,1,07,1.3,9.1,M,-33.5,M,,*54
$PYRTM,2024,123.086392421505,14.196039831655
$GPGGA,020423.00,3404.2821,N,11932.1955,W,1,07,1.3,8.7,M,-33.5,M,,*51
$PYRTM,2024,123.086403997558,14.196051407697
$GPGGA,020424.00,3404.2826,N,11932.1985,W,1,07,1.3,8.4,M,-33.5,M,,*5F
$PYRTM,2024,123.086415569803,14.196062979942
$GPGGA,020425.00,3404.2831,N,11932.2015,W,1,07,1.3,8.5,M,-33.5,M,,*5A
$PYRTM,2024,123.086427138252,14.196074548391
$GPGGA,020426.00,3404.2837,N,11932.2044,W,1,07,1.3,8.8,M,-33.5,M,,*56
$PYRTM,2024,123.086438711157,14.196086121296
$GPGGA,020427.00,3404.2843,N,11932.2073,W,1,07,1.3,9.0,M,-33.5,M,,*59
$PYRTM,2024,123.086450295093,14.196097705231
$GPGGA,020428.00,3404.2848,N,11932.2103,W,1,07,1.3,9.2,M,-33.5,M,,*59
$PYRTM,2024,123.086461866667,14.196109276806
$GPGGA,020429.00,3404.2854,N,11932.2132,W,1,07,1.3,9.2,M,-33.5,M,,*57
$PYRTM,2024,123.086469262130,14.196116672269
$GPGGA,020430.00,3404.2860,N,11932.2162,W,1,07,1.3,9.0,M,-33.5,M,,*5F
$PYRTM,2024,123.086485015521,14.196132425660
$GPGGA,020431.00,3404.2865,N,11932.2191,W,1,07,1.3,8.9,M,-33.5,M,,*5F
$PYRTM,2024,123.086496588727,14.196143998866
$GPGGA,020432.00,3404.2872,N,11932.2221,W,1,07,1.3,8.5,M,-33.5,M,,*5E
$PYRTM,2024,123.086503996620,14.196151406759
$GPGGA,020433.00,3404.2879,N,11932.2251,W,1,07,1.3,7.9,M,-33.5,M,,*50
$PYRTM,2024,123.086519737118,14.196167147257
$GPGGA,020434.00,3404.2885,N,11932.2281,W,1,07,1.3,7.5,M,-33.5,M,,*55
$PYRTM,2024,123.086531311493,14.196178721632
$GPGGA,020435.00,3404.2890,N,11932.2309,W,1,07,1.3,7.7,M,-33.5,M,,*53
$PYRTM,2024,123.086542885949,14.196190296088
$GPGGA,020436.00,3404.2895,N,11932.2338,W,1,07,1.3,8.2,M,-33.5,M,,*5D
$PYRTM,2024,123.086554459456,14.196201869595
$GPGGA,020437.00,3404.2902,N,11932.2367,W,1,07,1.3,8.5,M,-33.5,M,,*5E
$PYRTM,2024,123.086566034167,14.196213444306
$GPGGA,020438.00,3404.2908,N,11932.2397,W,1,07,1.3,8.3,M,-33.5,M,,*52
$PYRTM,2024,123.086577609132,14.196225019282
$GPGGA,020439.00,3404.2914,N,11932.2427,W,1,07,1.3,7.8,M,-33.5,M,,*56
$PYRTM,2024,123.086589185231,14.196236595370
$GPGGA,020440.00,3404.2919,N,11932.2457,W,1,07,1.3,7.3,M,-33.5,M,,*59
$PYRTM,2024,123.086600756748,14.196248166887
$GPGGA,020441.00,3404.2924,N,11932.2486,W,1,07,1.3,7.1,M,-33.5,M,,*58
$PYRTM,2024,123.086612330150,14.196259740289
$GPGGA,020442.00,3404.2931,N,11932.2515,W,1,07,1.3,7.3,M,-33.5,M,,*56
$PYRTM,2024,123.086623905046,14.196271315197
$GPGGA,020443.00,3404.2938,N,11932.2544,W,1,07,1.3,7.6,M,-33.5,M,,*5F
$PYRTM,2024,123.086635483171,14.196282893310
$GPGGA,020444.00,3404.2943,N,11932.2575,W,1,07,1.3,7.9,M,-33.5,M,,*59
$PYRTM,2024,123.086647053935,14.196294464074
$GPGGA,020445.00,3404.2948,N,11932.2605,W,1,07,1.3,8.1,M,-33.5,M,,*50
$PYRTM,2024,123.086658643183,14.196306053322
$GPGGA,020446.00,3404.2954,N,11932.2634,W,1,07,1.3,8.0,M,-33.5,M,,*5D
$PYRTM,2024,123.086670202755,14.196317612894
$GPGGA,020447.00,3404.2961,N,11932.2663,W,1,07,1.3,7.8,M,-33.5,M,,*5F
$PYRTM,2024,123.086677597338,14.196325007477
$GPGGA,020448.00,3404.2968,N,11932.2691,W,1,07,1.3,7.6,M,-33.5,M,,*5A
$PYRTM,2024,123.086696231192,14.196343641343
$GPGGA,020449.00,3404.2974,N,11932.2721,W,1,07,1.3,7.3,M,-33.5,M,,*59
$PYRTM,2024,123.086704925370,14.196352335521
$GPGGA,020450.00,3404.2979,N,11932.2752,W,1,07,1.3,7.0,M,-33.5,M,,*5B
$PYRTM,2024,123.086716495197,14.196363905336
$GPGGA,020451.00,3404.2984,N,11932.2781,W,1,07,1.3,7.2,M,-33.5,M,,*54
$PYRTM,2024,123.086728072593,14.196375482731
$GPGGA,020452.00,3404.2991,N,11932.2809,W,1,07,1.3,7.7,M,-33.5,M,,*59
$PYRTM,2024,123.086739646516,14.196387056655
$GPGGA,020453.00,3404.2998,N,11932.2837,W,1,07,1.3,8.3,M,-33.5,M,,*57
$PYRTM,2024,123.086751220845,14.196398630984
$GPGGA,020454.00,3404.3004,N,11932.2866,W,1,07,1.3,8.5,M,-33.5,M,,*5F
$PYRTM,2024,123.086762796123,14.196410206262
$GPGGA,020455.00,3404.3009,N,11932.2897,W,1,07,1.3,8.2,M,-33.5,M,,*5A
$PYRTM,2024,123.086774369282,14.196421779421
$GPGGA,020456.00,3404.3014,N,11932.2927,W,1,07,1.3,7.5,M,-33.5,M,,*57
$PYRTM,2024,123.086785943692,14.196433353831
$GPGGA,020457.00,3404.3020,N,11932.2955,W,1,07,1.3,7.1,M,-33.5,M,,*50
$PYRTM,2024,123.086797519375,14.196444929525
$GPGGA,020458.00,3404.3026,N,11932.2982,W,1,07,1.3,7.3,M,-33.5,M,,*51
$PYRTM,2024,123.086809092894,14.196456503032
$GPGGA,020459.00,3404.3032,N,11932.3012,W,1,07,1.3,7.6,M,-33.5,M,,*51
$PYRTM,2024,123.086820670046,14.196468080185
$GPGGA,020500.00,3404.3038,N,11932.3042,W,1,07,1.3,7.8,M,-33.5,M,,*5D
$PYRTM,2024,123.086832241366,14.196479651505
$GPGGA,020501.00,3404.3044,N,11932.3071,W,1,07,1.3,8.0,M,-33.5,M,,*50
$PYRTM,2024,123.086839635775,14.196487045914
$GPGGA,020502.00,3404.3050,N,11932.3100,W,1,07,1.3,8.2,M,-33.5,M,,*53
$PYRTM,2024,123.086855388877,14.196502799016
$GPGGA,020503.00,3404.3056,N,11932.3129,W,1,07,1.3,8.1,M,-33.5,M,,*5C
$PYRTM,2024,123.086866965012,14.196514375150
$GPGGA,020504.00,3404.3062,N,11932.3158,W,1,07,1.3,7.8,M,-33.5,M,,*5C
$PYRTM,2024,123.086874372882,14.196521783021
$GPGGA,020505.00,3404.3068,N,11932.3188,W,1,07,1.3,7.6,M,-33.5,M,,*54
$PYRTM,2024,123.086890112407,14.196537522558
$GPGGA,020506.00,3404.3074,N,11932.3217,W,1,07,1.3,7.6,M,-33.5,M,,*5F
$PYRTM,2024,123.086901685984,14.196549096123
$GPGGA,020507.00,3404.3080,N,11932.3245,W,1,07,1.3,8.1,M,-33.5,M,,*5A
$PYRTM,2024,123.086913263345,14.196560673484
$GPGGA,020508.00,3404.3086,N,11932.3274,W,1,07,1.3,8.6,M,-33.5,M,,*56
$PYRTM,2024,123.086924835359,14.196572245498
$GPGGA,020509.00,3404.3093,N,11932.3304,W,1,07,1.3,8.8,M,-33.5,M,,*5B
$PYRTM,2024,123.086936408148,14.196583818287
$GPGGA,020510.00,3404.3099,N,11932.3334,W,1,07,1.3,8.7,M,-33.5,M,,*55
$PYRTM,2024,123.086947978391,14.196595388530
$GPGGA,020511.00,3404.3105,N,11932.3364,W,1,07,1.3,8.3,M,-33.5,M,,*51
$PYRTM,2024,123.086959552442,14.196606962581
$GPGGA,020512.00,3404.3111,N,11932.3393,W,1,07,1.3,8.1,M,-33.5,M,,*5D
$PYRTM,2024,123.086971131667,14.196618541817
$GPGGA,020513.00,3404.3118,N,11932.3421,W,1,07,1.3,8.2,M,-33.5,M,,*58
$PYRTM,2024,123.086982705637,14.196630115775
$GPGGA,020514.00,3404.3124,N,11932.3449,W,1,07,1.3,8.6,M,-33.5,M,,*5A
$PYRTM,2024,123.086990101470,14.196637511620
$GPGGA,020515.00,3404.3129,N,11932.3479,W,1,07,1.3,8.8,M,-33.5,M,,*5B
$PYRTM,2024,123.087005856829,14.196653266968
$GPGGA,020516.00,3404.3135,N,11932.3509,W,1,07,1.3,8.7,M,-33.5,M,,*5C
$PYRTM,2024,123.087017428738,14.196664838877
$GPGGA,020517.00,3404.3142,N,11932.3539,W,1,07,1.3,8.6,M,-33.5,M,,*5F
$PYRTM,2024,123.087029005046,14.196676415185
$GPGGA,020518.00,3404.3148,N,11932.3566,W,1,07,1.3,8.7,M,-33.5,M,,*51
$PYRTM,2024,123.087036397581,14.196683807720
$GPGGA,020519.00,3404.3154,N,11932.3594,W,1,07,1.3,9.0,M,-33.5,M,,*56
$PYRTM,2024,123.087055049572,14.196702459711
$GPGGA,020520.00,3404.3160,N,11932.3624,W,1,07,1.3,9.1,M,-33.5,M,,*52
$PYRTM,2024,123.087063724896,14.196711135035
$GPGGA,020521.00,3404.3166,N,11932.3655,W,1,07,1.3,9.0,M,-33.5,M,,*52
$PYRTM,2024,123.087071120093,14.196718530231
$GPGGA,020522.00,3404.3172,N,11932.3684,W,1,07,1.3,8.9,M,-33.5,M,,*50
$PYRTM,2024,123.087086872824,14.196734282963
$GPGGA,020523.00,3404.3178,N,11932.3712,W,1,07,1.3,9.0,M,-33.5,M,,*5D
$PYRTM,2024,123.087098448634,14.196745858773
$GPGGA,020524.00,3404.3185,N,11932.3741,W,1,07,1.3,9.2,M,-33.5,M,,*5C
$PYRTM,2024,123.087105842917,14.196753253056
$GPGGA,020525.00,3404.3191,N,11932.3770,W,1,07,1.3,9.4,M,-33.5,M,,*5C
$PYRTM,2024,123.087121596574,14.196769006713
$GPGGA,020526.00,3404.3197,N,11932.3799,W,1,07,1.3,9.5,M,-33.5,M,,*5F
$PYRTM,2024,123.087133170417,14.196780580556
$GPGGA,020527.00,3404.3203,N,11932.3829,W,1,07,1.3,9.4,M,-33.5,M,,*55
$PYRTM,2024,123.087140563576,14.196787973715
$GPGGA,020528.00,3404.3210,N,11932.3858,W,1,07,1.3,9.1,M,-33.5,M,,*5B
$PYRTM,2024,123.087156318484,14.196803728623
$GPGGA,020529.00,3404.3216,N,11932.3887,W,1,07,1.3,8.8,M,-33.5,M,,*56
$PYRTM,2024,123.087167897454,14.196815307593
$GPGGA,020530.00,3404.3223,N,11932.3915,W,1,07,1.3,9.0,M,-33.5,M,,*5B
$PYRTM,2024,123.087179467222,14.196826877361
$GPGGA,020531.00,3404.3228,N,11932.3944,W,1,07,1.3,9.3,M,-33.5,M,,*56
$PYRTM,2024,123.087191055255,14.196838465394
$GPGGA,020532.00,3404.3234,N,11932.3974,W,1,07,1.3,9.4,M,-33.5,M,,*5C
$PYRTM,2024,123.087202616447,14.196850026586
$GPGGA,020533.00,3404.3241,N,11932.4004,W,1,07,1.3,9.2,M,-33.5,M,,*50
$PYRTM,2024,123.087214192813,14.196861602951
$GPGGA,020534.00,3404.3248,N,11932.4034,W,1,07,1.3,9.0,M,-33.5,M,,*5F
$PYRTM,2024,123.087225764572,14.196873174722
$GPGGA,020535.00,3404.3254,N,11932.4062,W,1,07,1.3,9.1,M,-33.5,M,,*51
$PYRTM,2024,123.087237340382,14.196884750521
$GPGGA,020536.00,3404.3259,N,11932.4090,W,1,07,1.3,9.4,M,-33.5,M,,*57
$PYRTM,2024,123.087248912176,14.196896322315
$GPGGA,020537.00,3404.3265,N,11932.4120,W,1,07,1.3,9.5,M,-33.5,M,,*52
$PYRTM,2024,123.087256307859,14.196903717998
$GPGGA,020538.00,3404.3272,N,11932.4151,W,1,07,1.3,9.3,M,-33.5,M,,*5B
$PYRTM,2024,123.087272060949,14.196919471100
$GPGGA,020539.00,3404.3278,N,11932.4180,W,1,07,1.3,9.0,M,-33.5,M,,*5F
$PYRTM,2024,123.087283631123,14.196931041262
$GPGGA,020540.00,3404.3283,N,11932.4209,W,1,07,1.3,9.0,M,-33.5,M,,*57
$PYRTM,2024,123.087295211713,14.196942621852
$GPGGA,020541.00,3404.3289,N,11932.4236,W,1,07,1.3,9.3,M,-33.5,M,,*53
$PYRTM,2024,123.087306783970,14.196954194109
$GPGGA,020542.00,3404.3296,N,11932.4266,W,1,07,1.3,9.5,M,-33.5,M,,*5D
$PYRTM,2024,123.087318353356,14.196965763495
$GPGGA,020543.00,3404.3303,N,11932.4297,W,1,07,1.3,9.2,M,-33.5,M,,*58
$PYRTM,2024,123.087329932905,14.196977343056
$GPGGA,020544.00,3404.3309,N,11932.4326,W,1,07,1.3,8.9,M,-33.5,M,,*54
$PYRTM,2024,123.087337328519,14.196984738657
$GPGGA,020545.00,3404.3313,N,11932.4354,W,1,07,1.3,9.1,M,-33.5,M,,*52
$PYRTM,2024,123.087353081875,14.197000492014
$GPGGA,020546.00,3404.3319,N,11932.4382,W,1,07,1.3,9.3,M,-33.5,M,,*52
$PYRTM,2024,123.087364657130,14.197012067280
$GPGGA,020547.00,3404.3325,N,11932.4413,W,1,07,1.3,9.2,M,-33.5,M,,*52
$PYRTM,2024,123.087376231725,14.197023641863
$GPGGA,020548.00,3404.3331,N,11932.4443,W,1,07,1.3,9.2,M,-33.5,M,,*5D
$PYRTM,2024,123.087387798194,14.197035208333
$GPGGA,020549.00,3404.3337,N,11932.4471,W,1,07,1.3,9.5,M,-33.5,M,,*5C
$PYRTM,2024,123.087395198484,14.197042608623
$GPGGA,020550.00,3404.3342,N,11932.4500,W,1,07,1.3,9.4,M,-33.5,M,,*50
$PYRTM,2024,123.087413832824,14.197061242963
$GPGGA,020551.00,3404.3348,N,11932.4530,W,1,07,1.3,9.1,M,-33.5,M,,*5D
$PYRTM,2024,123.087422529190,14.197069939329
$GPGGA,020552.00,3404.3355,N,11932.4561,W,1,07,1.3,8.8,M,-33.5,M,,*5E
$PYRTM,2024,123.087434099711,14.197081509850
$GPGGA,020553.00,3404.3361,N,11932.4590,W,1,07,1.3,8.9,M,-33.5,M,,*57
$PYRTM,2024,123.087445674525,14.197093084664
$GPGGA,020554.00,3404.3367,N,11932.4619,W,1,07,1.3,9.2,M,-33.5,M,,*5E
$PYRTM,2024,123.087453084294,14.197100494444
$GPGGA,020555.00,3404.3373,N,11932.4650,W,1,07,1.3,9.0,M,-33.5,M,,*55
$PYRTM,2024,123.087468822118,14.197116232257
$GPGGA,020556.00,3404.3378,N,11932.4680,W,1,07,1.3,8.7,M,-33.5,M,,*56
$PYRTM,2024,123.087480392708,14.197127802847
$GPGGA,020557.00,3404.3384,N,11932.4710,W,1,07,1.3,8.2,M,-33.5,M,,*59
$PYRTM,2024,123.087491971192,14.197139381331
$GPGGA,020558.00,3404.3389,N,11932.4739,W,1,07,1.3,8.1,M,-33.5,M,,*53
$PYRTM,2024,123.087503544421,14.197150954560
$GPGGA,020559.00,3404.3395,N,11932.4768,W,1,07,1.3,8.1,M,-33.5,M,,*5B
$PYRTM,2024,123.087515118912,14.197162529051
$GPGGA,020600.00,3404.3401,N,11932.4798,W,1,07,1.3,8.0,M,-33.5,M,,*50
$PYRTM,2024,123.087526689699,14.197174099838
$GPGGA,020601.00,3404.3406,N,11932.4827,W,1,07,1.3,8.7,M,-33.5,M,,*5A
$PYRTM,2024,123.087538268530,14.197185678669
$GPGGA,020602.00,3404.3410,N,11932.4856,W,1,07,1.3,8.9,M,-33.5,M,,*56
$PYRTM,2024,123.087549841713,14.197197251863
$GPGGA,020603.00,3404.3416,N,11932.4886,W,1,07,1.3,8.9,M,-33.5,M,,*5C
$PYRTM,2024,123.087561416817,14.197208826956
$GPGGA,020604.00,3404.3422,N,11932.4915,W,1,07,1.3,8.8,M,-33.5,M,,*56
$PYRTM,2024,123.087568810243,14.197216220382
$GPGGA,020605.00,3404.3428,N,11932.4944,W,1,07,1.3,8.5,M,-33.5,M,,*54
$PYRTM,2024,123.087584567662,14.197231977801
$GPGGA,020606.00,3404.3433,N,11932.4975,W,1,07,1.3,8.5,M,-33.5,M,,*5F
$PYRTM,2024,123.087596138634,14.197243548773
$GPGGA,020607.00,3404.3439,N,11932.5004,W,1,07,1.3,8.6,M,-33.5,M,,*59
$PYRTM,2024,123.087603533947,14.197250944086
$GPGGA,020608.00,3404.3444,N,11932.5034,W,1,07,1.3,8.6,M,-33.5,M,,*5F
$PYRTM,2024,123.087619286782,14.197266696921
$GPGGA,020609.00,3404.3450,N,11932.5065,W,1,07,1.3,8.5,M,-33.5,M,,*5C
$PYRTM,2024,123.087630861539,14.197278271678
$GPGGA,020610.00,3404.3456,N,11932.5094,W,1,07,1.3,8.6,M,-33.5,M,,*5F
$PYRTM,2024,123.087642436262,14.197289846400
$GPGGA,020611.00,3404.3461,N,11932.5123,W,1,07,1.3,8.8,M,-33.5,M,,*59
$PYRTM,2024,123.087654009965,14.197301420104
$GPGGA,020612.00,3404.3466,N,11932.5152,W,1,07,1.3,9.0,M,-33.5,M,,*52
$PYRTM,2024,123.087665578738,14.197312988877
$GPGGA,020613.00,3404.3473,N,11932.5184,W,1,07,1.3,8.5,M,-33.5,M,,*58
$PYRTM,2024,123.087677162407,14.197324572546
$GPGGA,020614.00,3404.3479,N,11932.5214,W,1,07,1.3,8.1,M,-33.5,M,,*5B
$PYRTM,2024,123.087688727812,14.197336137951
$GPGGA,020615.00,3404.3485,N,11932.5242,W,1,07,1.3,8.1,M,-33.5,M,,*5A
$PYRTM,2024,123.087700306481,14.197347716620
$GPGGA,020616.00,3404.3490,N,11932.5271,W,1,07,1.3,8.4,M,-33.5,M,,*58
$PYRTM,2024,123.087711880405,14.197359290556
$GPGGA,020617.00,3404.3495,N,11932.5302,W,1,07,1.3,8.5,M,-33.5,M,,*58
$PYRTM,2024,123.087719275787,14.197366685926
$GPGGA,020618.00,3404.3501,N,11932.5331,W,1,07,1.3,8.7,M,-33.5,M,,*59
$PYRTM,2024,123.087735028426,14.197382438565
$GPGGA,020619.00,3404.3507,N,11932.5360,W,1,07,1.3,9.0,M,-33.5,M,,*5C
$PYRTM,2024,123.087746603171,14.197394013310
$GPGGA,020620.00,3404.3512,N,11932.5390,W,1,07,1.3,8.9,M,-33.5,M,,*55
$PYRTM,2024,123.087754000509,14.197401410648
$GPGGA,020621.00,3404.3518,N,11932.5420,W,1,07,1.3,8.6,M,-33.5,M,,*5D
$PYRTM,2024,123.087772650162,14.197420060301
$GPGGA,020622.00,3404.3524,N,11932.5449,W,1,07,1.3,8.5,M,-33.5,M,,*5D
$PYRTM,2024,123.087781327731,14.197428737870
$GPGGA,020623.00,3404.3530,N,11932.5478,W,1,07,1.3,8.8,M,-33.5,M,,*56
$PYRTM,2024,123.087792902801,14.197440312940
$GPGGA,020624.00,3404.3536,N,11932.5508,W,1,07,1.3,9.1,M,-33.5,M,,*59
$PYRTM,2024,123.087804476562,14.197451886701
$GPGGA,020625.00,3404.3541,N,11932.5537,W,1,07,1.3,9.5,M,-33.5,M,,*50
$PYRTM,2024,123.087816047882,14.197463458021
$GPGGA,020626.00,3404.3548,N,11932.5569,W,1,07,1.3,9.5,M,-33.5,M,,*51
$PYRTM,2024,123.087827622234,14.197475032373
$GPGGA,020627.00,3404.3554,N,11932.5600,W,1,07,1.3,9.1,M,-33.5,M,,*55
$PYRTM,2024,123.087839197257,14.197486607396
$GPGGA,020628.00,3404.3560,N,11932.5628,W,1,07,1.3,9.0,M,-33.5,M,,*56
$PYRTM,2024,123.087850771146,14.197498181285
$GPGGA,020629.00,3404.3566,N,11932.5655,W,1,07,1.3,9.3,M,-33.5,M,,*58
$PYRTM,2024,123.087862345405,14.197509755544
$GPGGA,020630.00,3404.3572,N,11932.5685,W,1,07,1.3,9.4,M,-33.5,M,,*5F
$PYRTM,2024,123.087869740914,14.197517151053
$GPGGA,020631.00,3404.3578,N,11932.5717,W,1,07,1.3,9.0,M,-33.5,M,,*5A
$PYRTM,2024,123.087885493426,14.197532903565
$GPGGA,020632.00,3404.3583,N,11932.5746,W,1,07,1.3,8.7,M,-33.5,M,,*5F
$PYRTM,2024,123.087897067373,14.197544477512
$GPGGA,020633.00,3404.3588,N,11932.5774,W,1,07,1.3,8.8,M,-33.5,M,,*5B
$PYRTM,2024,123.087908641632,14.197556051771
$GPGGA,020634.00,3404.3595,N,11932.5805,W,1,07,1.3,8.8,M,-33.5,M,,*59
$PYRTM,2024,123.087920216655,14.197567626794
$GPGGA,020635.00,3404.3601,N,11932.5835,W,1,07,1.3,8.6,M,-33.5,M,,*5B
$PYRTM,2024,123.087931792639,14.197579202778
$GPGGA,020636.00,3404.3606,N,11932.5864,W,1,07,1.3,8.7,M,-33.5,M,,*5A
$PYRTM,2024,123.087943365035,14.197590775185
$GPGGA,020637.00,3404.3611,N,11932.5892,W,1,07,1.3,9.0,M,-33.5,M,,*52
$PYRTM,2024,123.087954941736,14.197602351875
$GPGGA,020638.00,3404.3616,N,11932.5923,W,1,07,1.3,8.9,M,-33.5,M,,*59
$PYRTM,2024,123.087966513252,14.197613923391
$GPGGA,020639.00,3404.3623,N,11932.5952,W,1,07,1.3,8.6,M,-33.5,M,,*57
$PYRTM,2024,123.087978090532,14.197625500671
$GPGGA,020640.00,3404.3628,N,11932.5981,W,1,07,1.3,8.4,M,-33.5,M,,*5E
$PYRTM,2024,123.087985481863,14.197632892002
$GPGGA,020641.00,3404.3634,N,11932.6011,W,1,07,1.3,8.2,M,-33.5,M,,*57
$PYRTM,2024,123.088001235648,14.197648645787
$GPGGA,020642.00,3404.3640,N,11932.6041,W,1,07,1.3,8.1,M,-33.5,M,,*51
$PYRTM,2024,123.088012809734,14.197660219873
$GPGGA,020643.00,3404.3645,N,11932.6070,W,1,07,1.3,8.3,M,-33.5,M,,*55
$PYRTM,2024,123.088020205243,14.197667615382
$GPGGA,020644.00,3404.3650,N,11932.6098,W,1,07,1.3,8.8,M,-33.5,M,,*5B
$PYRTM,2024,123.088031909664,14.197679319803
$GPGGA,020645.00,3404.3655,N,11932.6128,W,1,07,1.3,9.1,M,-33.5,M,,*5D
$PYRTM,2024,123.088047527442,14.197694937581
$GPGGA,020646.00,3404.3662,N,11932.6159,W,1,07,1.3,8.8,M,-33.5,M,,*54
$PYRTM,2024,123.088059106574,14.197706516713
$GPGGA,020647.00,3404.3668,N,11932.6188,W,1,07,1.3,8.4,M,-33.5,M,,*5F
$PYRTM,2024,123.088070681204,14.197718091343
$GPGGA,020648.00,3404.3672,N,11932.6216,W,1,07,1.3,8.3,M,-33.5,M,,*58
$PYRTM,2024,123.088082255475,14.197729665613
$GPGGA,020649.00,3404.3677,N,11932.6245,W,1,07,1.3,8.4,M,-33.5,M,,*5D
$PYRTM,2024,123.088093828507,14.197741238646
$GPGGA,020650.00,3404.3683,N,11932.6276,W,1,07,1.3,8.2,M,-33.5,M,,*58
$PYRTM,2024,123.088105405556,14.197752815694
$GPGGA,020651.00,3404.3689,N,11932.6307,W,1,07,1.3,8.0,M,-33.5,M,,*56
$PYRTM,2024,123.088112797986,14.197760208125
$GPGGA,020652.00,3404.3694,N,11932.6336,W,1,07,1.3,8.1,M,-33.5,M,,*5A
$PYRTM,2024,123.088131433333,14.197778843461
$GPGGA,020653.00,3404.3699,N,11932.6365,W,1,07,1.3,8.5,M,-33.5,M,,*54
$PYRTM,2024,123.088140129352,14.197787539502
$GPGGA,020654.00,3404.3705,N,11932.6393,W,1,07,1.3,8.8,M,-33.5,M,,*53
$PYRTM,2024,123.088147519896,14.197794930035
$GPGGA,020655.00,3404.3712,N,11932.6423,W,1,07,1.3,8.8,M,-33.5,M,,*58
$PYRTM,2024,123.088163277164,14.197810687303
$GPGGA,020656.00,3404.3718,N,11932.6454,W,1,07,1.3,8.4,M,-33.5,M,,*5D
$PYRTM,2024,123.088174850706,14.197822260845
$GPGGA,020657.00,3404.3723,N,11932.6483,W,1,07,1.3,8.0,M,-33.5,M,,*5A
$PYRTM,2024,123.088186424711,14.197833834850
$GPGGA,020658.00,3404.3727,N,11932.6510,W,1,07,1.3,8.3,M,-33.5,M,,*59
$PYRTM,2024,123.088197998056,14.197845408194
$GPGGA,020659.00,3404.3733,N,11932.6538,W,1,07,1.3,8.7,M,-33.5,M,,*53
$PYRTM,2024,123.088209572720,14.197856982859
$GPGGA,020700.00,3404.3740,N,11932.6569,W,1,07,1.3,8.5,M,-33.5,M,,*5C
$PYRTM,2024,123.088221140185,14.197868550324
$GPGGA,020701.00,3404.3746,N,11932.6600,W,1,07,1.3,8.1,M,-33.5,M,,*53
$PYRTM,2024,123.088232721204,14.197880131354
$GPGGA,020702.00,3404.3750,N,11932.6629,W,1,07,1.3,7.9,M,-33.5,M,,*5B
$PYRTM,2024,123.088244294062,14.197891704201
$GPGGA,020703.00,3404.3755,N,11932.6658,W,1,07,1.3,8.1,M,-33.5,M,,*5E
$PYRTM,2024,123.088255869502,14.197903279641
$GPGGA,020704.00,3404.3761,N,11932.6687,W,1,07,1.3,8.5,M,-33.5,M,,*58
$PYRTM,2024,123.088263264444,14.197910674583
$GPGGA,020705.00,3404.3767,N,11932.6716,W,1,07,1.3,8.9,M,-33.5,M,,*5A
$PYRTM,2024,123.088279012731,14.197926422870
$GPGGA,020706.00,3404.3773,N,11932.6747,W,1,07,1.3,8.8,M,-33.5,M,,*59
$PYRTM,2024,123.088290589757,14.197937999896
$GPGGA,020707.00,3404.3778,N,11932.6778,W,1,07,1.3,8.5,M,-33.5,M,,*52
$PYRTM,2024,123.088297986748,14.197945396887
$GPGGA,020708.00,3404.3784,N,11932.6806,W,1,07,1.3,8.4,M,-33.5,M,,*59
$PYRTM,2024,123.088313740185,14.197961150324
$GPGGA,020709.00,3404.3790,N,11932.6834,W,1,07,1.3,8.4,M,-33.5,M,,*5C
$PYRTM,2024,123.088325317049,14.197972727187
$GPGGA,020710.00,3404.3797,N,11932.6864,W,1,07,1.3,8.1,M,-33.5,M,,*53
$PYRTM,2024,123.088336887813,14.197984297951
$GPGGA,020711.00,3404.3801,N,11932.6893,W,1,07,1.3,7.9,M,-33.5,M,,*5D
$PYRTM,2024,123.088348465255,14.197995875394
$GPGGA,020712.00,3404.3806,N,11932.6923,W,1,07,1.3,7.9,M,-33.5,M,,*53
$PYRTM,2024,123.088360036053,14.198007446192
$GPGGA,020713.00,3404.3813,N,11932.6952,W,1,07,1.3,7.9,M,-33.5,M,,*50
$PYRTM,2024,123.088371611539,14.198019021678
$GPGGA,020714.00,3404.3819,N,11932.6981,W,1,07,1.3,8.0,M,-33.5,M,,*55
$PYRTM,2024,123.088383185451,14.198030595590
$GPGGA,020715.00,3404.3825,N,11932.7008,W,1,07,1.3,8.3,M,-33.5,M,,*51
$PYRTM,2024,123.088394763079,14.198042173218
$GPGGA,020716.00,3404.3830,N,11932.7038,W,1,07,1.3,8.4,M,-33.5,M,,*52
$PYRTM,2024,123.088406333310,14.198053743449
$GPGGA,020717.00,3404.3835,N,11932.7068,W,1,07,1.3,8.2,M,-33.5,M,,*55
$PYRTM,2024,123.088413727049,14.198061137187
$GPGGA,020718.00,3404.3840,N,11932.7098,W,1,07,1.3,7.9,M,-33.5,M,,*53
$PYRTM,2024,123.088429480937,14.198076891076
$GPGGA,020719.00,3404.3847,N,11932.7127,W,1,07,1.3,7.7,M,-33.5,M,,*5E
$PYRTM,2024,123.088441058762,14.198088468900
$GPGGA,020720.00,3404.3853,N,11932.7156,W,1,07,1.3,7.8,M,-33.5,M,,*58
$PYRTM,2024,123.088452630243,14.198100040382
$GPGGA,020721.00,3404.3859,N,11932.7184,W,1,07,1.3,8.1,M,-33.5,M,,*5A
$PYRTM,2024,123.088464204977,14.198111615116
$GPGGA,020722.00,3404.3864,N,11932.7215,W,1,07,1.3,8.1,M,-33.5,M,,*5C
$PYRTM,2024,123.088471600475,14.198119010613
$GPGGA,020723.00,3404.3869,N,11932.7246,W,1,07,1.3,8.0,M,-33.5,M,,*57
$PYRTM,2024,123.088490241065,14.198137651204
$GPGGA,020724.00,3404.3874,N,11932.7275,W,1,07,1.3,7.8,M,-33.5,M,,*5B
$PYRTM,2024,123.088501807731,14.198149217882
$GPGGA,020725.00,3404.3880,N,11932.7304,W,1,07,1.3,7.8,M,-33.5,M,,*56
$PYRTM,2024,123.088513395509,14.198160805648
$GPGGA,020726.00,3404.3887,N,11932.7332,W,1,07,1.3,8.0,M,-33.5,M,,*50
$PYRTM,2024,123.088522074502,14.198169484641
$GPGGA,020727.00,3404.3893,N,11932.7362,W,1,07,1.3,7.9,M,-33.5,M,,*57
$PYRTM,2024,123.088533652153,14.198181062292
$GPGGA,020728.00,3404.3898,N,11932.7393,W,1,07,1.3,7.7,M,-33.5,M,,*53
$PYRTM,2024,123.088541046019,14.198188456157
$GPGGA,020729.00,3404.3903,N,11932.7424,W,1,07,1.3,7.4,M,-33.5,M,,*59
$PYRTM,2024,123.088556800880,14.198204211019
$GPGGA,020730.00,3404.3908,N,11932.7453,W,1,07,1.3,7.6,M,-33.5,M,,*58
$PYRTM,2024,123.088568373102,14.198215783241
$GPGGA,020731.00,3404.3914,N,11932.7479,W,1,07,1.3,8.1,M,-33.5,M,,*54
$PYRTM,2024,123.088579947731,14.198227357870
$GPGGA,020732.00,3404.3920,N,11932.7508,W,1,07,1.3,8.5,M,-33.5,M,,*53
$PYRTM,2024,123.088591519884,14.198238930023
$GPGGA,020733.00,3404.3926,N,11932.7540,W,1,07,1.3,8.5,M,-33.5,M,,*58
$PYRTM,2024,123.088603090532,14.198250500683
$GPGGA,020734.00,3404.3931,N,11932.7571,W,1,07,1.3,7.9,M,-33.5,M,,*58
$PYRTM,2024,123.088610505289,14.198257915440
$GPGGA,020735.00,3404.3935,N,11932.7598,W,1,07,1.3,7.9,M,-33.5,M,,*5A
$PYRTM,2024,123.088626243519,14.198273653657
$GPGGA,020736.00,3404.3941,N,11932.7626,W,1,07,1.3,8.2,M,-33.5,M,,*58
$PYRTM,2024,123.088637812106,14.198285222245
$GPGGA,020737.00,3404.3948,N,11932.7656,W,1,07,1.3,8.3,M,-33.5,M,,*56
$PYRTM,2024,123.088645211296,14.198292621435
$GPGGA,020738.00,3404.3953,N,11932.7688,W,1,07,1.3,8.2,M,-33.5,M,,*51
$PYRTM,2024,123.088660965521,14.198308375660
$GPGGA,020739.00,3404.3959,N,11932.7718,W,1,07,1.3,8.0,M,-33.5,M,,*50
$PYRTM,2024,123.088672540868,14.198319951007
$GPGGA,020740.00,3404.3964,N,11932.7746,W,1,07,1.3,8.1,M,-33.5,M,,*5A
$PYRTM,2024,123.088684115810,14.198331525949
$GPGGA,020741.00,3404.3970,N,11932.7775,W,1,07,1.3,8.1,M,-33.5,M,,*5E
$PYRTM,2024,123.088695691470,14.198343101609
$GPGGA,020742.00,3404.3977,N,11932.7805,W,1,07,1.3,7.8,M,-33.5,M,,*54
$PYRTM,2024,123.088707263414,14.198354673553
$GPGGA,020743.00,3404.3983,N,11932.7835,W,1,07,1.3,7.5,M,-33.5,M,,*50
$PYRTM,2024,123.088718839630,14.198366249769
$GPGGA,020744.00,3404.3988,N,11932.7865,W,1,07,1.3,7.5,M,-33.5,M,,*59
$PYRTM,2024,123.088730404838,14.198377814977
$GPGGA,020745.00,3404.3993,N,11932.7894,W,1,07,1.3,7.8,M,-33.5,M,,*51
$PYRTM,2024,123.088741988125,14.198389398275
$GPGGA,020746.00,3404.3998,N,11932.7923,W,1,07,1.3,7.9,M,-33.5,M,,*55
$PYRTM,2024,123.088753559433,14.198400969572
$GPGGA,020747.00,3404.4005,N,11932.7952,W,1,07,1.3,7.7,M,-33.5,M,,*56
$PYRTM,2024,123.088765133484,14.198412543623
$GPGGA,020748.00,3404.4011,N,11932.7981,W,1,07,1.3,7.5,M,-33.5,M,,*50
$PYRTM,2024,123.088776702639,14.198424112778
$GPGGA,020749.00,3404.4017,N,11932.8010,W,1,07,1.3,7.9,M,-33.5,M,,*55
$PYRTM,2024,123.088788278588,14.198435688727
$GPGGA,020750.00,3404.4022,N,11932.8039,W,1,07,1.3,8.2,M,-33.5,M,,*54
$PYRTM,2024,123.088795689340,14.198443099479
$GPGGA,020751.00,3404.4028,N,11932.8069,W,1,07,1.3,7.9,M,-33.5,M,,*5E
$PYRTM,2024,123.088811431690,14.198458841829
$GPGGA,020752.00,3404.4034,N,11932.8099,W,1,07,1.3,7.5,M,-33.5,M,,*53
$PYRTM,2024,123.088823004456,14.198470414595
$GPGGA,020753.00,3404.4040,N,11932.8129,W,1,07,1.3,7.3,M,-33.5,M,,*5D
$PYRTM,2024,123.088830398970,14.198477809109
$GPGGA,020754.00,3404.4046,N,11932.8158,W,1,07,1.3,7.2,M,-33.5,M,,*5B
$PYRTM,2024,123.088849035405,14.198496445544
$GPGGA,020755.00,3404.4052,N,11932.8188,W,1,07,1.3,7.4,M,-33.5,M,,*54
$PYRTM,2024,123.088857726447,14.198505136574
$GPGGA,020756.00,3404.4057,N,11932.8216,W,1,07,1.3,7.9,M,-33.5,M,,*5B
$PYRTM,2024,123.088869299954,14.198516710081
$GPGGA,020757.00,3404.4063,N,11932.8245,W,1,07,1.3,8.3,M,-33.5,M,,*5E
$PYRTM,2024,123.088880890266,14.198528300405
$GPGGA,020758.00,3404.4069,N,11932.8275,W,1,07,1.3,8.3,M,-33.5,M,,*58
$PYRTM,2024,123.088892449931,14.198539860069
$GPGGA,020759.00,3404.4075,N,11932.8306,W,1,07,1.3,7.8,M,-33.5,M,,*55
$PYRTM,2024,123.088904038299,14.198551448437
$GPGGA,020800.00,3404.4080,N,11932.8335,W,1,07,1.3,7.7,M,-33.5,M,,*53
$PYRTM,2024,123.088911417986,14.198558828125
$GPGGA,020801.00,3404.4085,N,11932.8361,W,1,07,1.3,8.2,M,-33.5,M,,*5C
$PYRTM,2024,123.088927186655,14.198574596794
$GPGGA,020802.00,3404.4091,N,11932.8390,W,1,07,1.3,8.8,M,-33.5,M,,*5E
$PYRTM,2024,123.088938746042,14.198586156181
$GPGGA,020803.00,3404.4097,N,11932.8421,W,1,07,1.3,9.1,M,-33.5,M,,*5C
$PYRTM,2024,123.088950323785,14.198597733924
$GPGGA,020804.00,3404.4103,N,11932.8451,W,1,07,1.3,9.2,M,-33.5,M,,*53
$PYRTM,2024,123.088961895532,14.198609305671
$GPGGA,020805.00,3404.4108,N,11932.8480,W,1,07,1.3,9.2,M,-33.5,M,,*55
$PYRTM,2024,123.088973468808,14.198620878947
$GPGGA,020806.00,3404.4113,N,11932.8510,W,1,07,1.3,9.0,M,-33.5,M,,*56
$PYRTM,2024,123.088985042755,14.198632452894
$GPGGA,020807.00,3404.4120,N,11932.8540,W,1,07,1.3,8.6,M,-33.5,M,,*55
$PYRTM,2024,123.088996617361,14.198644027500
$GPGGA,020808.00,3404.4126,N,11932.8569,W,1,07,1.3,8.5,M,-33.5,M,,*54
$PYRTM,2024,123.089008186713,14.198655596852
$GPGGA,020809.00,3404.4131,N,11932.8597,W,1,07,1.3,8.8,M,-33.5,M,,*5F
$PYRTM,2024,123.089019766863,14.198667177002
$GPGGA,020810.00,3404.4136,N,11932.8627,W,1,07,1.3,9.2,M,-33.5,M,,*53
$PYRTM,2024,123.089031340093,14.198678750243
$GPGGA,020811.00,3404.4142,N,11932.8657,W,1,07,1.3,9.2,M,-33.5,M,,*56
$PYRTM,2024,123.089042915648,14.198690325787
$GPGGA,020812.00,3404.4147,N,11932.8687,W,1,07,1.3,9.0,M,-33.5,M,,*5F
$PYRTM,2024,123.089054488866,14.198701899005
$GPGGA,020813.00,3404.4154,N,11932.8715,W,1,07,1.3,9.0,M,-33.5,M,,*56
$PYRTM,2024,123.089061885463,14.198709295602
$GPGGA,020814.00,3404.4159,N,11932.8744,W,1,07,1.3,9.1,M,-33.5,M,,*59
$PYRTM,2024,123.089077637257,14.198725047396
$GPGGA,020815.00,3404.4165,N,11932.8773,W,1,07,1.3,9.2,M,-33.5,M,,*50
$PYRTM,2024,123.089089214954,14.198736625093
$GPGGA,020816.00,3404.4170,N,11932.8802,W,1,07,1.3,9.5,M,-33.5,M,,*59
$PYRTM,2024,123.089096605301,14.198744015440
$GPGGA,020817.00,3404.4176,N,11932.8832,W,1,07,1.3,9.6,M,-33.5,M,,*5E
$PYRTM,2024,123.089112363206,14.198759773345
$GPGGA,020818.00,3404.4183,N,11932.8862,W,1,07,1.3,9.4,M,-33.5,M,,*5C
$PYRTM,2024,123.089123928808,14.198771338947
$GPGGA,020819.00,3404.4190,N,11932.8892,W,1,07,1.3,9.2,M,-33.5,M,,*56
$PYRTM,2024,123.089135508449,14.198782918588
$GPGGA,020820.00,3404.4194,N,11932.8921,W,1,07,1.3,9.2,M,-33.5,M,,*51
$PYRTM,2024,123.089147082581,14.198794492720
$GPGGA,020821.00,3404.4199,N,11932.8950,W,1,07,1.3,9.5,M,-33.5,M,,*5C
$PYRTM,2024,123.089158656597,14.198806066736
$GPGGA,020822.00,3404.4206,N,11932.8980,W,1,07,1.3,9.6,M,-33.5,M,,*54
$PYRTM,2024,123.089170226146,14.198817636285
$GPGGA,020823.00,3404.4212,N,11932.9010,W,1,07,1.3,9.7,M,-33.5,M,,*50
$PYRTM,2024,123.089181805174,14.198829215313
$GPGGA,020824.00,3404.4218,N,11932.9037,W,1,07,1.3,10.0,M,-33.5,M,,*67
$PYRTM,2024,123.089189201157,14.198836611296
$GPGGA,020825.00,3404.4222,N,11932.9065,W,1,07,1.3,10.3,M,-33.5,M,,*6B
$PYRTM,2024,123.089207846493,14.198855256632
$GPGGA,020826.00,3404.4228,N,11932.9097,W,1,07,1.3,10.0,M,-33.5,M,,*6C
$PYRTM,2024,123.089216526852,14.198863936991
$GPGGA,020827.00,3404.4234,N,11932.9128,W,1,07,1.3,9.2,M,-33.5,M,,*5F
$PYRTM,2024,123.089228103715,14.198875513854
$GPGGA,020828.00,3404.4240,N,11932.9157,W,1,07,1.3,8.8,M,-33.5,M,,*50
$PYRTM,2024,123.089239674815,14.198887084954
$GPGGA,020829.00,3404.4245,N,11932.9184,W,1,07,1.3,9.2,M,-33.5,M,,*51
$PYRTM,2024,123.089247071250,14.198894481389
$GPGGA,020830.00,3404.4249,N,11932.9212,W,1,07,1.3,9.8,M,-33.5,M,,*53
$PYRTM,2024,123.089262824132,14.198910234271
$GPGGA,020831.00,3404.4256,N,11932.9243,W,1,07,1.3,9.9,M,-33.5,M,,*59
$PYRTM,2024,123.089274402257,14.198921812396
$GPGGA,020832.00,3404.4261,N,11932.9273,W,1,07,1.3,9.7,M,-33.5,M,,*53
$PYRTM,2024,123.089285972650,14.198933382789
$GPGGA,020833.00,3404.4267,N,11932.9302,W,1,07,1.3,9.6,M,-33.5,M,,*52
$PYRTM,2024,123.089297558310,14.198944968449
$GPGGA,020834.00,3404.4272,N,11932.9331,W,1,07,1.3,9.5,M,-33.5,M,,*52
$PYRTM,2024,123.089309121424,14.198956531562
$GPGGA,020835.00,3404.4278,N,11932.9360,W,1,07,1.3,9.2,M,-33.5,M,,*5A
$PYRTM,2024,123.089320690382,14.198968100521
$GPGGA,020836.00,3404.4284,N,11932.9390,W,1,07,1.3,9.1,M,-33.5,M,,*56
$PYRTM,2024,123.089328103171,14.198975513310
$GPGGA,020837.00,3404.4288,N,11932.9418,W,1,07,1.3,9.4,M,-33.5,M,,*59
$PYRTM,2024,123.089343846331,14.198991256470
$GPGGA,020838.00,3404.4294,N,11932.9447,W,1,07,1.3,9.8,M,-33.5,M,,*5D
$PYRTM,2024,123.089355418368,14.199002828507
