$PYRTM,2024,124.166681930023,15.276329340162
$GPGGA,040000.00,3506.8360,N,12133.6009,W,1,09,1.0,9.6,M,-32.6,M,,*57
$PYRTM,2024,124.166689310741,15.276336720880
$GPGGA,040001.00,3506.8370,N,12133.6012,W,1,09,1.0,10.2,M,-32.6,M,,*61
$PYRTM,2024,124.166705064236,15.276352474387
$GPGGA,040002.00,3506.8383,N,12133.6015,W,1,09,1.0,10.0,M,-32.6,M,,*6B
$PYRTM,2024,124.166716638796,15.276364048947
$GPGGA,040003.00,3506.8395,N,12133.6022,W,1,09,1.0,9.4,M,-32.6,M,,*55
$PYRTM,2024,124.166728213171,15.276375623310
$GPGGA,040004.00,3506.8402,N,12133.6030,W,1,09,1.0,9.3,M,-32.6,M,,*5F
$PYRTM,2024,124.166739787211,15.276387197361
$GPGGA,040005.00,3506.8409,N,12133.6035,W,1,09,1.0,9.8,M,-32.6,M,,*5B
$PYRTM,2024,124.166751357662,15.276398767801
$GPGGA,040006.00,3506.8419,N,12133.6039,W,1,09,1.0,10.2,M,-32.6,M,,*67
$PYRTM,2024,124.166762936852,15.276410347002
$GPGGA,040007.00,3506.8431,N,12133.6044,W,1,09,1.0,10.0,M,-32.6,M,,*64
$PYRTM,2024,124.166770331725,15.276417741863
$GPGGA,040008.00,3506.8442,N,12133.6054,W,1,09,1.0,9.4,M,-32.6,M,,*52
$PYRTM,2024,124.166786083762,15.276433493900
$GPGGA,040009.00,3506.8451,N,12133.6061,W,1,09,1.0,9.3,M,-32.6,M,,*50
$PYRTM,2024,124.166797658889,15.276445069028
$GPGGA,040010.00,3506.8460,N,12133.6063,W,1,09,1.0,9.7,M,-32.6,M,,*5C
$PYRTM,2024,124.166809231979,15.276456642118
$GPGGA,040011.00,3506.8472,N,12133.6065,W,1,09,1.0,10.0,M,-32.6,M,,*67
$PYRTM,2024,124.166820809421,15.276468219560
$GPGGA,040012.00,3506.8483,N,12133.6073,W,1,09,1.0,10.0,M,-32.6,M,,*6D
$PYRTM,2024,124.166832380162,15.276479790301
$GPGGA,040013.00,3506.8491,N,12133.6084,W,1,09,1.0,10.0,M,-32.6,M,,*67
$PYRTM,2024,124.166843958542,15.276491368692
$GPGGA,040014.00,3506.8500,N,12133.6090,W,1,09,1.0,10.2,M,-32.6,M,,*6E
$PYRTM,2024,124.166855528368,15.276502938507
$GPGGA,040015.00,3506.8512,N,12133.6092,W,1,09,1.0,10.2,M,-32.6,M,,*6E
$PYRTM,2024,124.166867103646,15.276514513785
$GPGGA,040016.00,3506.8524,N,12133.6096,W,1,09,1.0,10.0,M,-32.6,M,,*6E
$PYRTM,2024,124.166874510023,15.276521920162
$GPGGA,040017.00,3506.8533,N,12133.6102,W,1,09,1.0,10.3,M,-32.6,M,,*66
$PYRTM,2024,124.166886187778,15.276533597917
$GPGGA,040018.00,3506.8542,N,12133.6111,W,1,09,1.0,10.6,M,-32.6,M,,*68
$PYRTM,2024,124.166901818449,15.276549228588
$GPGGA,040019.00,3506.8551,N,12133.6120,W,1,09,1.0,10.9,M,-32.6,M,,*66
$PYRTM,2024,124.166913398727,15.276560808866
$GPGGA,040020.00,3506.8561,N,12133.6127,W,1,09,1.0,11.0,M,-32.6,M,,*60
$PYRTM,2024,124.166920801539,15.276568211678
$GPGGA,040021.00,3506.8573,N,12133.6132,W,1,09,1.0,11.1,M,-32.5,M,,*64
$PYRTM,2024,124.166939441505,15.276586851644
$GPGGA,040022.00,3506.8585,N,12133.6136,W,1,09,1.0,11.1,M,-32.5,M,,*6A
$PYRTM,2024,124.166948122199,15.276595532338
$GPGGA,040023.00,3506.8595,N,12133.6143,W,1,09,1.0,11.0,M,-32.5,M,,*69
$PYRTM,2024,124.166959707616,15.276607117755
$GPGGA,040024.00,3506.8607,N,12133.6152,W,1,09,1.0,10.9,M,-32.5,M,,*6E
$PYRTM,2024,124.166971264722,15.276618674861
$GPGGA,040025.00,3506.8617,N,12133.6160,W,1,09,1.0,11.2,M,-32.5,M,,*65
$PYRTM,2024,124.166982851308,15.276630261458
$GPGGA,040026.00,3506.8625,N,12133.6166,W,1,09,1.0,11.8,M,-32.5,M,,*6B
$PYRTM,2024,124.166994415347,15.276641825486
$GPGGA,040027.00,3506.8636,N,12133.6170,W,1,09,1.0,11.9,M,-32.5,M,,*6E
$PYRTM,2024,124.167006001111,15.276653411250
$GPGGA,040028.00,3506.8650,N,12133.6174,W,1,09,1.0,11.6,M,-32.5,M,,*6A
$PYRTM,2024,124.167017566435,15.276664976574
$GPGGA,040029.00,3506.8661,N,12133.6182,W,1,09,1.0,10.9,M,-32.5,M,,*6E
$PYRTM,2024,124.167029147998,15.276676558137
$GPGGA,040030.00,3506.8669,N,12133.6196,W,1,09,1.0,10.4,M,-32.5,M,,*66
$PYRTM,2024,124.167036548241,15.276683958380
$GPGGA,040031.00,3506.8677,N,12133.6205,W,1,09,1.0,10.3,M,-32.5,M,,*66
$PYRTM,2024,124.167052299525,15.276699709664
$GPGGA,040032.00,3506.8687,N,12133.6205,W,1,09,1.0,10.9,M,-32.5,M,,*60
$PYRTM,2024,124.167063862778,15.276711272928
$GPGGA,040033.00,3506.8698,N,12133.6200,W,1,09,1.0,12.1,M,-32.5,M,,*60
$PYRTM,2024,124.167075449120,15.276722859259
$GPGGA,040034.00,3506.8709,N,12133.6207,W,1,09,1.0,12.3,M,-32.5,M,,*6B
$PYRTM,2024,124.167087011655,15.276734421794
$GPGGA,040035.00,3506.8719,N,12133.6225,W,1,09,1.0,10.7,M,-32.5,M,,*6D
$PYRTM,2024,124.167098596782,15.276746006921
$GPGGA,040036.00,3506.8726,N,12133.6239,W,1,09,1.0,9.8,M,-32.5,M,,*58
$PYRTM,2024,124.167110159225,15.276757569363
$GPGGA,040037.00,3506.8734,N,12133.6237,W,1,09,1.0,10.6,M,-32.5,M,,*62
$PYRTM,2024,124.167121733530,15.276769143669
$GPGGA,040038.00,3506.8745,N,12133.6228,W,1,09,1.0,11.7,M,-32.5,M,,*65
$PYRTM,2024,124.167133303009,15.276780713148
$GPGGA,040039.00,3506.8761,N,12133.6230,W,1,09,1.0,11.6,M,-32.5,M,,*6A
$PYRTM,2024,124.167140703576,15.276788113715
$GPGGA,040040.00,3506.8772,N,12133.6244,W,1,09,1.0,11.1,M,-32.5,M,,*62
$PYRTM,2024,124.167156455324,15.276803865463
$GPGGA,040041.00,3506.8777,N,12133.6259,W,1,09,1.0,10.8,M,-32.5,M,,*62
$PYRTM,2024,124.167168037766,15.276815447905
$GPGGA,040042.00,3506.8784,N,12133.6263,W,1,09,1.0,11.1,M,-32.5,M,,*6C
$PYRTM,2024,124.167179605440,15.276827015579
$GPGGA,040043.00,3506.8796,N,12133.6259,W,1,09,1.0,11.2,M,-32.5,M,,*64
$PYRTM,2024,124.167191189514,15.276838599653
$GPGGA,040044.00,3506.8809,N,12133.6258,W,1,09,1.0,11.0,M,-32.5,M,,*69
$PYRTM,2024,124.167202753970,15.276850164109
$GPGGA,040045.00,3506.8817,N,12133.6267,W,1,09,1.0,11.0,M,-32.5,M,,*6B
$PYRTM,2024,124.167214326991,15.276861737130
$GPGGA,040046.00,3506.8825,N,12133.6280,W,1,09,1.0,10.9,M,-32.5,M,,*68
$PYRTM,2024,124.167225896505,15.276873306655
$GPGGA,040047.00,3506.8833,N,12133.6288,W,1,09,0.8,11.0,M,-32.5,M,,*67
$PYRTM,2024,124.167233297303,15.276880707442
$GPGGA,040048.00,3506.8842,N,12133.6286,W,1,09,1.0,11.5,M,-32.5,M,,*6C
$PYRTM,2024,124.167249165150,15.276896575289
$GPGGA,040049.00,3506.8853,N,12133.6285,W,1,09,1.0,11.8,M,-32.5,M,,*63
$PYRTM,2024,124.167260634248,15.276908044387
$GPGGA,040050.00,3506.8865,N,12133.6292,W,1,09,0.8,11.3,M,-32.5,M,,*6A
$PYRTM,2024,124.167268029502,15.276915439641
$GPGGA,040051.00,3506.8874,N,12133.6305,W,1,09,1.0,10.6,M,-32.5,M,,*69
$PYRTM,2024,124.167279707650,15.276927117789
$GPGGA,040052.00,3506.8878,N,12133.6315,W,1,09,0.8,10.9,M,-32.5,M,,*61
$PYRTM,2024,124.167298239780,15.276945649919
$GPGGA,040053.00,3506.8886,N,12133.6316,W,1,09,0.8,11.7,M,-32.5,M,,*6D
$PYRTM,2024,124.167306930521,15.276954340660
$GPGGA,040054.00,3506.8900,N,12133.6313,W,1,09,0.8,12.1,M,-32.5,M,,*65
$PYRTM,2024,124.167318493750,15.276965903889
$GPGGA,040055.00,3506.8914,N,12133.6317,W,1,09,0.8,11.6,M,-32.5,M,,*61
$PYRTM,2024,124.167330077083,15.276977487222
$GPGGA,040056.00,3506.8920,N,12133.6328,W,1,09,0.8,11.4,M,-32.5,M,,*6B
$PYRTM,2024,124.167341642002,15.276989052141
$GPGGA,040057.00,3506.8923,N,12133.6339,W,1,09,0.8,11.6,M,-32.5,M,,*6B
$PYRTM,2024,124.167353223542,15.277000633681
$GPGGA,040058.00,3506.8932,N,12133.6345,W,1,09,0.8,11.5,M,-32.5,M,,*6C
$PYRTM,2024,124.167360619097,15.277008029236
$GPGGA,040059.00,3506.8945,N,12133.6347,W,1,09,0.8,11.2,M,-32.5,M,,*68
$PYRTM,2024,124.167376363819,15.277023773958
$GPGGA,040100.00,3506.8954,N,12133.6350,W,1,09,0.8,11.1,M,-32.5,M,,*60
$PYRTM,2024,124.167387939965,15.277035350104
$GPGGA,040101.00,3506.8960,N,12133.6358,W,1,09,0.8,11.7,M,-32.5,M,,*68
$PYRTM,2024,124.167399524201,15.277046934340
$GPGGA,040102.00,3506.8966,N,12133.6367,W,1,09,0.8,12.1,M,-32.5,M,,*64
$PYRTM,2024,124.167406914630,15.277054324769
$GPGGA,040103.00,3506.8977,N,12133.6376,W,1,09,0.8,11.8,M,-32.5,M,,*6F
$PYRTM,2024,124.167422672130,15.277070082269
$GPGGA,040104.00,3506.8987,N,12133.6381,W,1,09,0.8,11.5,M,-32.5,M,,*62
$PYRTM,2024,124.167434236250,15.277081646389
$GPGGA,040105.00,3506.8994,N,12133.6383,W,1,09,0.8,11.6,M,-32.5,M,,*60
$PYRTM,2024,124.167445821250,15.277093231389
$GPGGA,040106.00,3506.9001,N,12133.6388,W,1,09,0.8,11.9,M,-32.5,M,,*63
$PYRTM,2024,124.167457384398,15.277104794537
$GPGGA,040107.00,3506.9010,N,12133.6398,W,1,09,0.8,11.7,M,-32.5,M,,*6D
$PYRTM,2024,124.167468966366,15.277116376505
$GPGGA,040108.00,3506.9021,N,12133.6411,W,1,09,0.8,11.0,M,-32.5,M,,*61
$PYRTM,2024,124.167476359097,15.277123769236
$GPGGA,040109.00,3506.9029,N,12133.6416,W,1,09,0.8,10.6,M,-32.5,M,,*68
$PYRTM,2024,124.167492114190,15.277139524329
$GPGGA,040110.00,3506.9035,N,12133.6413,W,1,09,0.8,10.8,M,-32.5,M,,*66
$PYRTM,2024,124.167503681609,15.277151091748
$GPGGA,040111.00,3506.9046,N,12133.6411,W,1,09,0.8,10.6,M,-32.5,M,,*6F
$PYRTM,2024,124.167515262477,15.277162672616
$GPGGA,040112.00,3506.9059,N,12133.6418,W,1,09,0.8,9.7,M,-32.5,M,,*52
$PYRTM,2024,124.167526830312,15.277174240451
$GPGGA,040113.00,3506.9069,N,12133.6430,W,1,09,0.8,8.7,M,-32.5,M,,*5B
$PYRTM,2024,124.167538413310,15.277185823449
$GPGGA,040114.00,3506.9074,N,12133.6439,W,1,09,0.8,8.6,M,-32.5,M,,*58
$PYRTM,2024,124.167549976794,15.277197386933
$GPGGA,040115.00,3506.9081,N,12133.6442,W,1,09,0.8,8.1,M,-32.5,M,,*58
$PYRTM,2024,124.167561550926,15.277208961065
$GPGGA,040116.00,3506.9092,N,12133.6442,W,1,09,0.8,8.3,M,-32.5,M,,*5B
$PYRTM,2024,124.167568958461,15.277216368600
$GPGGA,040117.00,3506.9102,N,12133.6444,W,1,09,0.8,8.9,M,-32.5,M,,*5E
$PYRTM,2024,124.167584711551,15.277232121690
$GPGGA,040118.00,3506.9111,N,12133.6449,W,1,09,0.8,9.5,M,-32.5,M,,*53
$PYRTM,2024,124.167596273947,15.277243684086
$GPGGA,040119.00,3506.9119,N,12133.6459,W,1,09,0.8,9.8,M,-32.5,M,,*56
$PYRTM,2024,124.167607848009,15.277255258148
$GPGGA,040120.00,3506.9128,N,12133.6468,W,1,09,0.8,9.6,M,-32.5,M,,*52
$PYRTM,2024,124.167619422928,15.277266833067
$GPGGA,040121.00,3506.9137,N,12133.6472,W,1,09,0.8,9.4,M,-32.5,M,,*54
$PYRTM,2024,124.167630995359,15.277278405486
$GPGGA,040122.00,3506.9147,N,12133.6473,W,1,09,0.8,9.4,M,-32.5,M,,*51
$PYRTM,2024,124.167638276736,15.277285686875
$GPGGA,040123.00,3506.9156,N,12133.6478,W,1,09,0.8,9.8,M,-32.5,M,,*57
$PYRTM,2024,124.167657038565,15.277304448704
$GPGGA,040124.00,3506.9164,N,12133.6484,W,1,09,0.8,10.5,M,-32.5,M,,*67
$PYRTM,2024,124.167668613113,15.277316023252
$GPGGA,040125.00,3506.9174,N,12133.6489,W,1,09,0.8,11.1,M,-32.5,M,,*6F
$PYRTM,2024,124.167680191516,15.277327601667
$GPGGA,040126.00,3506.9186,N,12133.6493,W,1,09,0.8,11.0,M,-32.5,M,,*6B
$PYRTM,2024,124.167688866481,15.277336276620
$GPGGA,040127.00,3506.9197,N,12133.6498,W,1,09,0.8,10.5,M,-32.5,M,,*65
$PYRTM,2024,124.167696263218,15.277343673356
$GPGGA,040128.00,3506.9204,N,12133.6504,W,1,09,0.8,10.5,M,-32.5,M,,*67
$PYRTM,2024,124.167712015961,15.277359426100
$GPGGA,040129.00,3506.9212,N,12133.6510,W,1,09,0.8,10.7,M,-32.5,M,,*66
$PYRTM,2024,124.167723589433,15.277370999583
$GPGGA,040130.00,3506.9223,N,12133.6514,W,1,09,0.8,10.8,M,-32.5,M,,*67
$PYRTM,2024,124.167735157766,15.277382567905
$GPGGA,040131.00,3506.9235,N,12133.6518,W,1,09,0.8,10.3,M,-32.5,M,,*66
$PYRTM,2024,124.167746747616,15.277394157755
$GPGGA,040132.00,3506.9245,N,12133.6525,W,1,09,0.8,10.1,M,-32.5,M,,*6E
$PYRTM,2024,124.167758308715,15.277405718854
$GPGGA,040133.00,3506.9253,N,12133.6532,W,1,09,0.8,10.3,M,-32.5,M,,*6C
$PYRTM,2024,124.167769897060,15.277417307211
$GPGGA,040134.00,3506.9261,N,12133.6535,W,1,09,0.8,11.0,M,-32.5,M,,*6F
$PYRTM,2024,124.167777292373,15.277424702512
$GPGGA,040135.00,3506.9274,N,12133.6539,W,1,09,0.8,11.3,M,-32.5,M,,*65
$PYRTM,2024,124.167788971204,15.277436381343
$GPGGA,040136.00,3506.9287,N,12133.6545,W,1,09,0.8,10.7,M,-32.5,M,,*64
$PYRTM,2024,124.167804608183,15.277452018322
$GPGGA,040137.00,3506.9296,N,12133.6552,W,1,09,0.8,10.5,M,-32.5,M,,*61
$PYRTM,2024,124.167816190660,15.277463600799
$GPGGA,040138.00,3506.9301,N,12133.6556,W,1,09,0.8,11.0,M,-32.5,M,,*61
$PYRTM,2024,124.167823585752,15.277470995891
$GPGGA,040139.00,3506.9308,N,12133.6559,W,1,09,0.8,11.0,M,-32.5,M,,*66
$PYRTM,2024,124.167839341343,15.277486751481
$GPGGA,040140.00,3506.9322,N,12133.6564,W,1,09,0.8,11.1,M,-32.5,M,,*6F
$PYRTM,2024,124.167850906273,15.277498316412
$GPGGA,040141.00,3506.9335,N,12133.6570,W,1,09,0.8,10.2,M,-32.5,M,,*6F
$PYRTM,2024,124.167862478866,15.277509889005
$GPGGA,040142.00,3506.9342,N,12133.6575,W,1,09,0.8,10.3,M,-32.5,M,,*68
$PYRTM,2024,124.167874053762,15.277521463900
$GPGGA,040143.00,3506.9346,N,12133.6578,W,1,09,0.8,11.3,M,-32.5,M,,*61
$PYRTM,2024,124.167885626782,15.277533036921
$GPGGA,040144.00,3506.9355,N,12133.6580,W,1,09,0.8,11.3,M,-32.5,M,,*63
$PYRTM,2024,124.167893035012,15.277540445162
$GPGGA,040145.00,3506.9367,N,12133.6586,W,1,09,0.8,11.1,M,-32.5,M,,*67
$PYRTM,2024,124.167908774792,15.277556184931
$GPGGA,040146.00,3506.9377,N,12133.6594,W,1,09,0.8,10.5,M,-32.5,M,,*63
$PYRTM,2024,124.167916177222,15.277563587361
$GPGGA,040147.00,3506.9385,N,12133.6602,W,1,09,0.8,10.3,M,-32.5,M,,*65
$PYRTM,2024,124.167931924468,15.277579334606
$GPGGA,040148.00,3506.9392,N,12133.6608,W,1,09,0.8,10.5,M,-32.5,M,,*60
$PYRTM,2024,124.167943498519,15.277590908657
$GPGGA,040149.00,3506.9401,N,12133.6611,W,1,09,0.8,10.8,M,-32.5,M,,*69
$PYRTM,2024,124.167950893877,15.277598304028
$GPGGA,040150.00,3506.9412,N,12133.6613,W,1,09,0.8,11.3,M,-32.5,M,,*6B
$PYRTM,2024,124.167962583414,15.277609993553
$GPGGA,040151.00,3506.9422,N,12133.6616,W,1,09,0.8,11.4,M,-32.5,M,,*6B
$PYRTM,2024,124.167978228414,15.277625638553
$GPGGA,040152.00,3506.9431,N,12133.6628,W,1,09,0.8,10.7,M,-32.5,M,,*65
$PYRTM,2024,124.167989794815,15.277637204954
$GPGGA,040153.00,3506.9440,N,12133.6641,W,1,09,0.8,10.1,M,-32.5,M,,*6B
$PYRTM,2024,124.167997190012,15.277644600150
$GPGGA,040154.00,3506.9449,N,12133.6647,W,1,09,0.8,9.4,M,-32.5,M,,*5E
$PYRTM,2024,124.168015836123,15.277663246262
$GPGGA,040155.00,3506.9457,N,12133.6644,W,1,09,0.8,11.1,M,-32.5,M,,*6F
$PYRTM,2024,124.168024528356,15.277671938495
$GPGGA,040156.00,3506.9467,N,12133.6642,W,1,09,0.8,13.0,M,-32.5,M,,*6A
$PYRTM,2024,124.168031924803,15.277679334942
$GPGGA,040157.00,3506.9479,N,12133.6650,W,1,09,0.8,13.4,M,-32.5,M,,*63
$PYRTM,2024,124.168047665880,15.277695076019
$GPGGA,040158.00,3506.9490,N,12133.6665,W,1,09,0.8,12.5,M,-32.5,M,,*6D
$PYRTM,2024,124.168059239826,15.277706649965
$GPGGA,040159.00,3506.9497,N,12133.6677,W,1,09,0.8,11.9,M,-32.5,M,,*67
$PYRTM,2024,124.168070824456,15.277718234606
$GPGGA,040200.00,3506.9502,N,12133.6678,W,1,09,0.8,12.0,M,-32.5,M,,*60
$PYRTM,2024,124.168082385093,15.277729795231
$GPGGA,040201.00,3506.9512,N,12133.6674,W,1,09,0.8,12.3,M,-32.5,M,,*6F
$PYRTM,2024,124.168093975926,15.277741386065
$GPGGA,040202.00,3506.9526,N,12133.6675,W,1,09,0.8,12.2,M,-32.5,M,,*6B
$PYRTM,2024,124.168105531574,15.277752941725
$GPGGA,040203.00,3506.9538,N,12133.6684,W,1,09,0.8,11.9,M,-32.5,M,,*63
$PYRTM,2024,124.168117109815,15.277764519954
$GPGGA,040204.00,3506.9544,N,12133.6696,W,1,09,0.8,11.7,M,-32.5,M,,*62
$PYRTM,2024,124.168128684803,15.277776094954
$GPGGA,040205.00,3506.9549,N,12133.6704,W,1,09,0.8,12.0,M,-32.5,M,,*60
$PYRTM,2024,124.168136080752,15.277783490891
$GPGGA,040206.00,3506.9558,N,12133.6704,W,1,09,0.8,12.2,M,-32.5,M,,*61
$PYRTM,2024,124.168151833299,15.277799243437
$GPGGA,040207.00,3506.9572,N,12133.6705,W,1,09,0.8,11.7,M,-32.5,M,,*6F
$PYRTM,2024,124.168159228241,15.277806638391
$GPGGA,040208.00,3506.9582,N,12133.6712,W,1,09,0.8,11.4,M,-32.5,M,,*6A
$PYRTM,2024,124.168174981806,15.277822391956
$GPGGA,040209.00,3506.9589,N,12133.6720,W,1,09,0.8,11.8,M,-32.5,M,,*6D
$PYRTM,2024,124.168186581076,15.277833991215
$GPGGA,040210.00,3506.9596,N,12133.6728,W,1,09,0.8,12.3,M,-32.5,M,,*6B
$PYRTM,2024,124.168198124583,15.277845534722
$GPGGA,040211.00,3506.9607,N,12133.6733,W,1,09,0.8,12.3,M,-32.5,M,,*6B
$PYRTM,2024,124.168209714282,15.277857124433
$GPGGA,040212.00,3506.9620,N,12133.6738,W,1,09,0.8,11.6,M,-32.5,M,,*60
$PYRTM,2024,124.168221278056,15.277868688206
$GPGGA,040213.00,3506.9631,N,12133.6745,W,1,09,0.8,11.1,M,-32.5,M,,*6C
$PYRTM,2024,124.168232851609,15.277880261748
$GPGGA,040214.00,3506.9636,N,12133.6751,W,1,09,0.8,11.4,M,-32.5,M,,*6C
$PYRTM,2024,124.168240259792,15.277887669931
$GPGGA,040215.00,3506.9643,N,12133.6754,W,1,09,0.8,12.0,M,-32.5,M,,*6D
$PYRTM,2024,124.168255999572,15.277903409711
$GPGGA,040216.00,3506.9656,N,12133.6759,W,1,09,0.8,11.9,M,-32.5,M,,*6D
$PYRTM,2024,124.168267574201,15.277914984340
$GPGGA,040217.00,3506.9668,N,12133.6766,W,1,09,0.8,11.0,M,-32.5,M,,*64
$PYRTM,2024,124.168279149896,15.277926560046
$GPGGA,040218.00,3506.9676,N,12133.6776,W,1,09,0.8,10.5,M,-32.5,M,,*61
$PYRTM,2024,124.168290722743,15.277938132882
$GPGGA,040219.00,3506.9681,N,12133.6782,W,1,09,0.8,10.8,M,-32.5,M,,*6E
$PYRTM,2024,124.168302305498,15.277949715648
$GPGGA,040220.00,3506.9690,N,12133.6785,W,1,09,0.8,11.5,M,-32.5,M,,*6F
$PYRTM,2024,124.168313872326,15.277961282465
$GPGGA,040221.00,3506.9701,N,12133.6789,W,1,09,0.8,11.8,M,-32.5,M,,*66
$PYRTM,2024,124.168325452650,15.277972862789
$GPGGA,040222.00,3506.9712,N,12133.6796,W,1,09,0.8,11.6,M,-32.5,M,,*67
$PYRTM,2024,124.168332847338,15.277980257477
$GPGGA,040223.00,3506.9721,N,12133.6805,W,1,09,0.8,11.1,M,-32.5,M,,*64
$PYRTM,2024,124.168344528414,15.277991938553
$GPGGA,040224.00,3506.9731,N,12133.6812,W,1,09,0.8,10.8,M,-32.5,M,,*6C
$PYRTM,2024,124.168356116968,15.278003527106
$GPGGA,040225.00,3506.9740,N,12133.6818,W,1,09,0.8,10.9,M,-32.5,M,,*60
$PYRTM,2024,124.168374636146,15.278022046285
$GPGGA,040226.00,3506.9746,N,12133.6821,W,1,09,0.8,11.7,M,-32.5,M,,*60
$PYRTM,2024,124.168383311563,15.278030721701
$GPGGA,040227.00,3506.9755,N,12133.6827,W,1,09,0.8,12.5,M,-32.5,M,,*64
$PYRTM,2024,124.168394897118,15.278042307257
$GPGGA,040228.00,3506.9767,N,12133.6836,W,1,09,0.8,11.7,M,-32.5,M,,*6B
$PYRTM,2024,124.168406464282,15.278053874421
$GPGGA,040229.00,3506.9778,N,12133.6844,W,1,09,0.8,11.1,M,-32.5,M,,*67
$PYRTM,2024,124.168418040197,15.278065450336
$GPGGA,040230.00,3506.9784,N,12133.6846,W,1,09,0.8,11.7,M,-32.5,M,,*68
$PYRTM,2024,124.168429611574,15.278077021713
$GPGGA,040231.00,3506.9791,N,12133.6848,W,1,09,0.8,12.1,M,-32.5,M,,*66
$PYRTM,2024,124.168441186377,15.278088596516
$GPGGA,040232.00,3506.9803,N,12133.6854,W,1,09,0.8,11.8,M,-32.5,M,,*66
$PYRTM,2024,124.168452761227,15.278100171377
$GPGGA,040233.00,3506.9814,N,12133.6863,W,1,09,0.8,11.2,M,-32.5,M,,*6F
$PYRTM,2024,124.168464346250,15.278111756389
$GPGGA,040234.00,3506.9819,N,12133.6871,W,1,09,0.8,11.2,M,-32.5,M,,*66
$PYRTM,2024,124.168475909178,15.278123319317
$GPGGA,040235.00,3506.9825,N,12133.6875,W,1,09,0.8,11.7,M,-32.5,M,,*69
$PYRTM,2024,124.168487492431,15.278134902569
$GPGGA,040236.00,3506.9836,N,12133.6876,W,1,09,0.8,11.9,M,-32.5,M,,*65
$PYRTM,2024,124.168499059560,15.278146469711
$GPGGA,040237.00,3506.9847,N,12133.6880,W,1,09,0.8,11.9,M,-32.5,M,,*6B
$PYRTM,2024,124.168510657326,15.278158067465
$GPGGA,040238.00,3506.9854,N,12133.6887,W,1,09,0.8,12.2,M,-32.5,M,,*69
$PYRTM,2024,124.168518033079,15.278165443218
$GPGGA,040239.00,3506.9860,N,12133.6893,W,1,09,0.8,12.6,M,-32.5,M,,*6E
$PYRTM,2024,124.168529715718,15.278177125856
$GPGGA,040240.00,3506.9869,N,12133.6899,W,1,09,0.8,12.5,M,-32.5,M,,*60
$PYRTM,2024,124.168545354896,15.278192765035
$GPGGA,040241.00,3506.9881,N,12133.6905,W,1,09,0.8,11.8,M,-32.5,M,,*6D
$PYRTM,2024,124.168556927396,15.278204337535
$GPGGA,040242.00,3506.9889,N,12133.6911,W,1,09,0.8,11.4,M,-32.5,M,,*6F
$PYRTM,2024,124.168568502882,15.278215913021
$GPGGA,040243.00,3506.9895,N,12133.6915,W,1,09,0.8,11.9,M,-32.5,M,,*6A
$PYRTM,2024,124.168580075556,15.278227485694
$GPGGA,040244.00,3506.9904,N,12133.6919,W,1,09,0.8,12.3,M,-32.5,M,,*61
$PYRTM,2024,124.168587483623,15.278234893762
$GPGGA,040245.00,3506.9916,N,12133.6925,W,1,09,0.8,11.8,M,-32.5,M,,*64
$PYRTM,2024,124.168603236933,15.278250647083
$GPGGA,040246.00,3506.9926,N,12133.6929,W,1,09,0.8,11.7,M,-32.5,M,,*67
$PYRTM,2024,124.168614798900,15.278262209039
$GPGGA,040247.00,3506.9931,N,12133.6936,W,1,09,0.8,11.9,M,-32.5,M,,*60
$PYRTM,2024,124.168626380914,15.278273791053
$GPGGA,040248.00,3506.9939,N,12133.6944,W,1,09,0.8,11.8,M,-32.5,M,,*63
$PYRTM,2024,124.168637948993,15.278285359132
$GPGGA,040249.00,3506.9949,N,12133.6951,W,1,09,0.8,11.0,M,-32.5,M,,*69
$PYRTM,2024,124.168649529016,15.278296939167
$GPGGA,040250.00,3506.9958,N,12133.6953,W,1,09,0.8,11.0,M,-32.5,M,,*63
$PYRTM,2024,124.168661095475,15.278308505613
$GPGGA,040251.00,3506.9966,N,12133.6952,W,1,09,0.8,11.8,M,-32.5,M,,*66
$PYRTM,2024,124.168668490972,15.278315901111
$GPGGA,040252.00,3506.9976,N,12133.6953,W,1,09,0.8,12.6,M,-32.5,M,,*68
$PYRTM,2024,124.168684242940,15.278331653079
$GPGGA,040253.00,3506.9986,N,12133.6960,W,1,09,0.8,12.6,M,-32.5,M,,*66
$PYRTM,2024,124.168695817118,15.278343227257
$GPGGA,040254.00,3506.9992,N,12133.6971,W,1,09,0.8,12.3,M,-32.5,M,,*61
$PYRTM,2024,124.168707392176,15.278354802326
$GPGGA,040255.00,3506.9998,N,12133.6978,W,1,09,0.8,12.3,M,-32.5,M,,*63
$PYRTM,2024,124.168714787188,15.278362197326
$GPGGA,040256.00,3507.0008,N,12133.6980,W,1,09,0.8,12.2,M,-32.5,M,,*6E
$PYRTM,2024,124.168733433264,15.278380843414
$GPGGA,040257.00,3507.0020,N,12133.6979,W,1,09,0.8,11.8,M,-32.5,M,,*6A
$PYRTM,2024,124.168742115012,15.278389525150
$GPGGA,040258.00,3507.0029,N,12133.6980,W,1,09,0.8,11.9,M,-32.5,M,,*6B
$PYRTM,2024,124.168753688032,15.278401098183
$GPGGA,040259.00,3507.0037,N,12133.6985,W,1,09,0.8,12.5,M,-32.5,M,,*6F
$PYRTM,2024,124.168761084340,15.278408494479
$GPGGA,040300.00,3507.0046,N,12133.6994,W,1,09,0.8,12.6,M,-32.5,M,,*67
$PYRTM,2024,124.168776831863,15.278424242002
$GPGGA,040301.00,3507.0056,N,12133.7002,W,1,09,0.8,12.5,M,-32.5,M,,*63
$PYRTM,2024,124.168788412269,15.278435822407
$GPGGA,040302.00,3507.0064,N,12133.7004,W,1,09,0.8,12.6,M,-32.5,M,,*64
$PYRTM,2024,124.168795817326,15.278443227465
$GPGGA,040303.00,3507.0072,N,12133.7002,W,1,09,0.8,13.1,M,-32.5,M,,*62
$PYRTM,2024,124.168811567257,15.278458977396
$GPGGA,040304.00,3507.0084,N,12133.7004,W,1,09,0.8,13.0,M,-32.5,M,,*6B
$PYRTM,2024,124.168823133553,15.278470543692
$GPGGA,040305.00,3507.0093,N,12133.7012,W,1,09,0.8,12.6,M,-32.5,M,,*6C
$PYRTM,2024,124.168834715185,15.278482125324
$GPGGA,040306.00,3507.0102,N,12133.7023,W,1,09,0.8,12.3,M,-32.5,M,,*61
$PYRTM,2024,124.168846276169,15.278493686308
$GPGGA,040307.00,3507.0111,N,12133.7030,W,1,09,0.8,12.3,M,-32.5,M,,*60
$PYRTM,2024,124.168853676667,15.278501086806
$GPGGA,040308.00,3507.0120,N,12133.7030,W,1,09,0.8,13.0,M,-32.5,M,,*6F
$PYRTM,2024,124.168869430116,15.278516840255
$GPGGA,040309.00,3507.0126,N,12133.7024,W,1,09,0.8,14.1,M,-32.5,M,,*6B
$PYRTM,2024,124.168881003484,15.278528413623
$GPGGA,040310.00,3507.0136,N,12133.7022,W,1,09,0.8,14.7,M,-32.5,M,,*62
$PYRTM,2024,124.168892578368,15.278539988507
$GPGGA,040311.00,3507.0149,N,12133.7030,W,1,09,0.8,13.5,M,-32.5,M,,*6D
$PYRTM,2024,124.168899975579,15.278547385718
$GPGGA,040312.00,3507.0157,N,12133.7045,W,1,09,0.8,11.5,M,-32.5,M,,*61
$PYRTM,2024,124.168915726667,15.278563136806
$GPGGA,040313.00,3507.0160,N,12133.7049,W,1,09,0.8,11.8,M,-32.5,M,,*65
$PYRTM,2024,124.168927312095,15.278574722234
$GPGGA,040314.00,3507.0165,N,12133.7039,W,1,09,0.8,12.8,M,-32.5,M,,*63
$PYRTM,2024,124.168938870255,15.278586280394
$GPGGA,040315.00,3507.0177,N,12133.7029,W,1,09,0.8,13.4,M,-32.5,M,,*6D
$PYRTM,2024,124.168950449271,15.278597859410
$GPGGA,040316.00,3507.0191,N,12133.7030,W,1,09,0.8,12.5,M,-32.5,M,,*6E
$PYRTM,2024,124.168957850602,15.278605260741
$GPGGA,040317.00,3507.0201,N,12133.7040,W,1,09,0.8,11.3,M,-32.5,M,,*67
$PYRTM,2024,124.168973622882,15.278621033032
$GPGGA,040318.00,3507.0207,N,12133.7054,W,1,09,0.8,10.3,M,-32.5,M,,*6A
$PYRTM,2024,124.168985172454,15.278632582593
$GPGGA,040319.00,3507.0213,N,12133.7058,W,1,09,0.8,10.2,M,-32.5,M,,*63
$PYRTM,2024,124.168992566227,15.278639976366
$GPGGA,040320.00,3507.0222,N,12133.7052,W,1,09,0.8,10.5,M,-32.5,M,,*66
$PYRTM,2024,124.169008320440,15.278655730579
$GPGGA,040321.00,3507.0233,N,12133.7047,W,1,09,0.8,10.7,M,-32.5,M,,*61
$PYRTM,2024,124.169019893403,15.278667303542
$GPGGA,040322.00,3507.0243,N,12133.7049,W,1,09,0.8,10.7,M,-32.5,M,,*6B
$PYRTM,2024,124.169027313958,15.278674724097
$GPGGA,040323.00,3507.0252,N,12133.7059,W,1,09,0.8,10.7,M,-32.5,M,,*6B
$PYRTM,2024,124.169043042940,15.278690453079
$GPGGA,040324.00,3507.0259,N,12133.7071,W,1,09,0.8,10.3,M,-32.5,M,,*69
$PYRTM,2024,124.169054616412,15.278702026551
$GPGGA,040325.00,3507.0266,N,12133.7079,W,1,09,0.8,9.9,M,-32.5,M,,*5E
$PYRTM,2024,124.169066190278,15.278713600417
$GPGGA,040326.00,3507.0275,N,12133.7076,W,1,09,0.8,9.9,M,-32.5,M,,*50
$PYRTM,2024,124.169073596968,15.278721007106
$GPGGA,040327.00,3507.0284,N,12133.7069,W,1,09,0.8,11.0,M,-32.5,M,,*61
$PYRTM,2024,124.169092232523,15.278739642662
$GPGGA,040328.00,3507.0295,N,12133.7070,W,1,09,0.8,11.2,M,-32.5,M,,*64
$PYRTM,2024,124.169103801725,15.278751211863
$GPGGA,040329.00,3507.0307,N,12133.7081,W,1,09,0.8,10.3,M,-32.5,M,,*61
$PYRTM,2024,124.169115381968,15.278762792106
$GPGGA,040330.00,3507.0315,N,12133.7093,W,1,09,0.8,9.4,M,-32.5,M,,*56
$PYRTM,2024,124.169124062106,15.278771472245
$GPGGA,040331.00,3507.0322,N,12133.7096,W,1,09,0.8,9.9,M,-32.5,M,,*5B
$PYRTM,2024,124.169131456875,15.278778867014
$GPGGA,040332.00,3507.0330,N,12133.7091,W,1,09,0.8,10.8,M,-32.5,M,,*65
$PYRTM,2024,124.169147210266,15.278794620405
$GPGGA,040333.00,3507.0341,N,12133.7090,W,1,09,0.8,11.4,M,-32.5,M,,*6E
$PYRTM,2024,124.169158791690,15.278806201829
$GPGGA,040334.00,3507.0353,N,12133.7096,W,1,09,0.8,11.4,M,-32.5,M,,*6C
$PYRTM,2024,124.169170354144,15.278817764282
$GPGGA,040335.00,3507.0362,N,12133.7106,W,1,09,0.8,11.3,M,-32.5,M,,*60
$PYRTM,2024,124.169181931887,15.278829342025
$GPGGA,040336.00,3507.0370,N,12133.7114,W,1,09,1.0,11.2,M,-32.5,M,,*6B
$PYRTM,2024,124.169189351042,15.278836761181
$GPGGA,040337.00,3507.0379,N,12133.7119,W,1,09,1.0,11.1,M,-32.5,M,,*6D
$PYRTM,2024,124.169201015914,15.278848426053
$GPGGA,040338.00,3507.0390,N,12133.7121,W,1,09,1.0,11.1,M,-32.5,M,,*6E
$PYRTM,2024,124.169216649931,15.278864060081
$GPGGA,040339.00,3507.0399,N,12133.7123,W,1,09,1.0,11.5,M,-32.5,M,,*60
$PYRTM,2024,124.169228228623,15.278875638762
$GPGGA,040340.00,3507.0409,N,12133.7124,W,1,09,1.0,11.9,M,-32.5,M,,*6B
$PYRTM,2024,124.169239803449,15.278887213588
$GPGGA,040341.00,3507.0420,N,12133.7130,W,1,09,1.0,11.9,M,-32.5,M,,*64
$PYRTM,2024,124.169251377338,15.278898787488
$GPGGA,040342.00,3507.0430,N,12133.7142,W,1,09,1.0,11.1,M,-32.5,M,,*6B
$PYRTM,2024,124.169262951644,15.278910361782
$GPGGA,040343.00,3507.0436,N,12133.7148,W,1,09,1.0,11.2,M,-32.5,M,,*65
$PYRTM,2024,124.169270345185,15.278917755324
$GPGGA,040344.00,3507.0443,N,12133.7145,W,1,09,1.0,11.4,M,-32.5,M,,*6B
$PYRTM,2024,124.169282034514,15.278929444653
$GPGGA,040345.00,3507.0456,N,12133.7142,W,1,09,1.0,11.4,M,-32.5,M,,*69
$PYRTM,2024,124.169297693137,15.278945103275
$GPGGA,040346.00,3507.0471,N,12133.7144,W,1,09,1.0,10.5,M,-32.5,M,,*69
$PYRTM,2024,124.169309247836,15.278956657975
$GPGGA,040347.00,3507.0480,N,12133.7155,W,1,09,1.0,9.4,M,-32.5,M,,*5F
$PYRTM,2024,124.169320829051,15.278968239190
$GPGGA,040348.00,3507.0484,N,12133.7168,W,1,09,1.0,9.4,M,-32.5,M,,*5A
$PYRTM,2024,124.169328099931,15.278975510069
$GPGGA,040349.00,3507.0492,N,12133.7171,W,1,09,1.0,9.9,M,-32.5,M,,*59
$PYRTM,2024,124.169343980498,15.278991390637
$GPGGA,040350.00,3507.0505,N,12133.7167,W,1,09,1.0,10.1,M,-32.5,M,,*69
$PYRTM,2024,124.169355543380,15.279002953519
$GPGGA,040351.00,3507.0518,N,12133.7168,W,1,09,1.0,9.9,M,-32.5,M,,*5B
$PYRTM,2024,124.169367130544,15.279014540683
$GPGGA,040352.00,3507.0527,N,12133.7178,W,1,09,1.0,9.4,M,-32.5,M,,*58
$PYRTM,2024,124.169374397975,15.279021808125
$GPGGA,040353.00,3507.0533,N,12133.7191,W,1,09,1.0,9.1,M,-32.5,M,,*5E
$PYRTM,2024,124.169390265995,15.279037676134
$GPGGA,040354.00,3507.0540,N,12133.7196,W,1,09,1.0,9.3,M,-32.5,M,,*58
$PYRTM,2024,124.169401841134,15.279049251273
$GPGGA,040355.00,3507.0550,N,12133.7195,W,1,09,1.0,9.6,M,-32.5,M,,*5E
$PYRTM,2024,124.169413424873,15.279060835012
$GPGGA,040356.00,3507.0562,N,12133.7197,W,1,09,1.0,9.5,M,-32.5,M,,*5D
$PYRTM,2024,124.169424989988,15.279072400127
$GPGGA,040357.00,3507.0571,N,12133.7203,W,1,09,1.0,9.4,M,-32.5,M,,*51
$PYRTM,2024,124.169432280359,15.279079690498
$GPGGA,040358.00,3507.0576,N,12133.7211,W,1,09,1.0,9.7,M,-32.5,M,,*59
$PYRTM,2024,124.169451025127,15.279098435266
$GPGGA,040359.00,3507.0583,N,12133.7218,W,1,09,1.0,9.9,M,-32.5,M,,*55
$PYRTM,2024,124.169459718426,15.279107128565
$GPGGA,040400.00,3507.0593,N,12133.7224,W,1,09,1.0,9.7,M,-32.5,M,,*5E
$PYRTM,2024,124.169471285579,15.279118695718
$GPGGA,040401.00,3507.0603,N,12133.7226,W,1,09,1.0,9.8,M,-32.5,M,,*58
$PYRTM,2024,124.169482885394,15.279130295532
$GPGGA,040402.00,3507.0611,N,12133.7226,W,1,09,1.0,10.4,M,-32.5,M,,*6C
$PYRTM,2024,124.169490265729,15.279137675868
$GPGGA,040403.00,3507.0620,N,12133.7231,W,1,09,1.0,11.0,M,-32.5,M,,*6C
$PYRTM,2024,124.169501943414,15.279149353553
$GPGGA,040404.00,3507.0629,N,12133.7240,W,1,09,1.0,11.1,M,-32.5,M,,*65
$PYRTM,2024,124.169517581447,15.279164991586
$GPGGA,040405.00,3507.0639,N,12133.7248,W,1,09,1.0,10.8,M,-32.5,M,,*65
$PYRTM,2024,124.169524977269,15.279172387407
$GPGGA,040406.00,3507.0649,N,12133.7253,W,1,09,1.0,10.6,M,-32.5,M,,*65
$PYRTM,2024,124.169540729676,15.279188139815
$GPGGA,040407.00,3507.0659,N,12133.7252,W,1,09,1.0,10.8,M,-32.5,M,,*6A
$PYRTM,2024,124.169552315602,15.279199725741
$GPGGA,040408.00,3507.0670,N,12133.7254,W,1,09,1.0,10.8,M,-32.5,M,,*68
$PYRTM,2024,124.169563878553,15.279211288692
$GPGGA,040409.00,3507.0681,N,12133.7263,W,1,09,1.0,10.5,M,-32.5,M,,*6E
$PYRTM,2024,124.169575452326,15.279222862465
$GPGGA,040410.00,3507.0688,N,12133.7271,W,1,09,1.0,10.8,M,-32.5,M,,*61
$PYRTM,2024,124.169582862234,15.279230272373
$GPGGA,040411.00,3507.0696,N,12133.7271,W,1,09,1.0,11.5,M,-32.5,M,,*63
$PYRTM,2024,124.169598611759,15.279246021887
$GPGGA,040412.00,3507.0708,N,12133.7267,W,1,09,1.0,11.6,M,-32.5,M,,*62
$PYRTM,2024,124.169610174653,15.279257584792
$GPGGA,040413.00,3507.0720,N,12133.7271,W,1,09,1.0,10.9,M,-32.5,M,,*60
$PYRTM,2024,124.169621760405,15.279269170544
$GPGGA,040414.00,3507.0727,N,12133.7282,W,1,09,1.0,10.4,M,-32.5,M,,*61
$PYRTM,2024,124.169633323681,15.279280733808
$GPGGA,040415.00,3507.0732,N,12133.7290,W,1,09,1.0,10.8,M,-32.5,M,,*6B
$PYRTM,2024,124.169644919942,15.279292330081
$GPGGA,040416.00,3507.0742,N,12133.7289,W,1,09,1.0,11.3,M,-32.5,M,,*6D
$PYRTM,2024,124.169652304178,15.279299714306
$GPGGA,040417.00,3507.0756,N,12133.7286,W,1,09,1.0,11.4,M,-32.5,M,,*61
$PYRTM,2024,124.169668054132,15.279315464271
$GPGGA,040418.00,3507.0767,N,12133.7291,W,1,09,1.0,11.3,M,-32.5,M,,*6D
$PYRTM,2024,124.169679620602,15.279327030741
$GPGGA,040419.00,3507.0774,N,12133.7303,W,1,09,1.0,11.4,M,-32.5,M,,*63
$PYRTM,2024,124.169691194248,15.279338604387
$GPGGA,040420.00,3507.0779,N,12133.7316,W,1,09,1.0,11.4,M,-32.5,M,,*60
$PYRTM,2024,124.169702768623,15.279350178762
$GPGGA,040421.00,3507.0790,N,12133.7322,W,1,09,1.0,11.1,M,-32.5,M,,*64
$PYRTM,2024,124.169714352882,15.279361763021
$GPGGA,040422.00,3507.0801,N,12133.7321,W,1,09,1.0,11.2,M,-32.5,M,,*60
$PYRTM,2024,124.169725916609,15.279373326748
$GPGGA,040423.00,3507.0809,N,12133.7321,W,1,09,1.0,11.9,M,-32.5,M,,*62
$PYRTM,2024,124.169733311100,15.279380721238
$GPGGA,040424.00,3507.0815,N,12133.7328,W,1,09,1.0,12.4,M,-32.5,M,,*6F
$PYRTM,2024,124.169749065313,15.279396475463
$GPGGA,040425.00,3507.0825,N,12133.7341,W,1,09,1.0,12.3,M,-32.5,M,,*65
$PYRTM,2024,124.169760639225,15.279408049363
$GPGGA,040426.00,3507.0835,N,12133.7350,W,1,09,1.0,11.8,M,-32.5,M,,*6F
$PYRTM,2024,124.169768045313,15.279415455451
$GPGGA,040427.00,3507.0842,N,12133.7352,W,1,09,1.0,12.0,M,-32.5,M,,*67
$PYRTM,2024,124.169783794977,15.279431205116
$GPGGA,040428.00,3507.0848,N,12133.7352,W,1,09,1.0,12.3,M,-32.5,M,,*61
$PYRTM,2024,124.169791189479,15.279438599618
$GPGGA,040429.00,3507.0858,N,12133.7355,W,1,09,1.0,12.3,M,-32.5,M,,*66
$PYRTM,2024,124.169809833137,15.279457243275
$GPGGA,040430.00,3507.0871,N,12133.7364,W,1,09,1.0,11.6,M,-32.5,M,,*61
$PYRTM,2024,124.169818505729,15.279465915868
$GPGGA,040431.00,3507.0882,N,12133.7373,W,1,09,1.0,10.9,M,-32.5,M,,*64
$PYRTM,2024,124.169830095729,15.279477505868
$GPGGA,040432.00,3507.0888,N,12133.7379,W,1,09,1.0,10.2,M,-32.5,M,,*6C
$PYRTM,2024,124.169837503044,15.279484913183
$GPGGA,040433.00,3507.0894,N,12133.7382,W,1,09,1.0,10.8,M,-32.5,M,,*6E
$PYRTM,2024,124.169853232118,15.279500642257
$GPGGA,040434.00,3507.0903,N,12133.7383,W,1,09,1.0,11.5,M,-32.5,M,,*6B
$PYRTM,2024,124.169864808079,15.279512218218
$GPGGA,040435.00,3507.0916,N,12133.7387,W,1,09,1.0,11.1,M,-32.5,M,,*6E
$PYRTM,2024,124.169872200787,15.279519610926
$GPGGA,040436.00,3507.0927,N,12133.7397,W,1,09,1.0,10.2,M,-32.5,M,,*6C
$PYRTM,2024,124.169887955683,15.279535365822
$GPGGA,040437.00,3507.0931,N,12133.7405,W,1,09,1.0,10.5,M,-32.5,M,,*61
$PYRTM,2024,124.169899539005,15.279546949144
$GPGGA,040438.00,3507.0934,N,12133.7409,W,1,09,1.0,11.3,M,-32.5,M,,*60
$PYRTM,2024,124.169911103056,15.279558513194
$GPGGA,040439.00,3507.0945,N,12133.7411,W,1,09,1.0,11.2,M,-32.5,M,,*6F
$PYRTM,2024,124.169922687778,15.279570097917
$GPGGA,040440.00,3507.0957,N,12133.7416,W,1,09,1.0,10.6,M,-32.5,M,,*60
$PYRTM,2024,124.169934252188,15.279581662326
$GPGGA,040441.00,3507.0963,N,12133.7421,W,1,09,1.0,10.6,M,-32.5,M,,*62
$PYRTM,2024,124.169945825556,15.279593235694
$GPGGA,040442.00,3507.0967,N,12133.7423,W,1,09,1.0,11.1,M,-32.5,M,,*61
$PYRTM,2024,124.169957400845,15.279604810984
$GPGGA,040443.00,3507.0975,N,12133.7427,W,1,09,1.0,10.8,M,-32.5,M,,*6F
$PYRTM,2024,124.169968983021,15.279616393160
$GPGGA,040444.00,3507.0986,N,12133.7435,W,1,09,0.8,9.7,M,-32.5,M,,*59
$PYRTM,2024,124.169980547593,15.279627957731
$GPGGA,040445.00,3507.0992,N,12133.7441,W,1,09,0.8,9.1,M,-32.5,M,,*58
$PYRTM,2024,124.169992130116,15.279639540255
$GPGGA,040446.00,3507.0995,N,12133.7441,W,1,09,0.8,9.7,M,-32.5,M,,*5A
$PYRTM,2024,124.170003698264,15.279651108403
$GPGGA,040447.00,3507.1004,N,12133.7439,W,1,09,0.8,9.7,M,-32.5,M,,*54
$PYRTM,2024,124.170015270475,15.279662680625
$GPGGA,040448.00,3507.1016,N,12133.7442,W,1,09,0.8,9.3,M,-32.5,M,,*50
$PYRTM,2024,124.170021983924,15.279669394063
$GPGGA,040449.00,3507.1025,N,12133.7450,W,1,09,0.8,8.8,M,-32.5,M,,*58
$PYRTM,2024,124.170038418449,15.279685828588
$GPGGA,040450.00,3507.1028,N,12133.7460,W,1,09,0.8,8.7,M,-32.5,M,,*51
$PYRTM,2024,124.170049993067,15.279697403206
$GPGGA,040451.00,3507.1033,N,12133.7464,W,1,09,0.8,8.6,M,-32.5,M,,*5F
$PYRTM,2024,124.170061567500,15.279708977639
$GPGGA,040452.00,3507.1042,N,12133.7463,W,1,09,0.8,8.8,M,-32.5,M,,*53
$PYRTM,2024,124.170073141238,15.279720551377
$GPGGA,040453.00,3507.1053,N,12133.7461,W,1,09,0.8,9.0,M,-32.5,M,,*59
$PYRTM,2024,124.170084715162,15.279732125313
$GPGGA,040454.00,3507.1062,N,12133.7464,W,1,09,0.8,9.0,M,-32.5,M,,*59
$PYRTM,2024,124.170096290243,15.279743700394
$GPGGA,040455.00,3507.1068,N,12133.7476,W,1,09,0.8,9.1,M,-32.5,M,,*50
$PYRTM,2024,124.170107863646,15.279755273785
$GPGGA,040456.00,3507.1072,N,12133.7488,W,1,09,0.8,9.3,M,-32.5,M,,*5B
$PYRTM,2024,124.170119433113,15.279766843264
$GPGGA,040457.00,3507.1078,N,12133.7491,W,1,09,0.8,9.5,M,-32.5,M,,*5E
$PYRTM,2024,124.170126832245,15.279774242384
$GPGGA,040458.00,3507.1087,N,12133.7488,W,1,09,0.8,9.8,M,-32.5,M,,*54
$PYRTM,2024,124.170142587581,15.279789997720
$GPGGA,040459.00,3507.1097,N,12133.7486,W,1,09,0.8,10.2,M,-32.5,M,,*68
$PYRTM,2024,124.170149982234,15.279797392373
$GPGGA,040500.00,3507.1106,N,12133.7493,W,1,09,0.8,10.1,M,-32.5,M,,*6B
$PYRTM,2024,124.170168628056,15.279816038194
$GPGGA,040501.00,3507.1113,N,12133.7507,W,1,09,0.8,9.7,M,-32.5,M,,*5C
$PYRTM,2024,124.170177308171,15.279824718310
$GPGGA,040502.00,3507.1120,N,12133.7515,W,1,09,0.8,9.9,M,-32.5,M,,*52
$PYRTM,2024,124.170188882986,15.279836293125
$GPGGA,040503.00,3507.1127,N,12133.7514,W,1,09,0.8,10.3,M,-32.5,M,,*67
$PYRTM,2024,124.170200481285,15.279847891424
$GPGGA,040504.00,3507.1139,N,12133.7509,W,1,09,0.8,10.6,M,-32.5,M,,*66
$PYRTM,2024,124.170212030475,15.279859440613
$GPGGA,040505.00,3507.1151,N,12133.7512,W,1,09,0.8,10.2,M,-32.5,M,,*67
$PYRTM,2024,124.170223612986,15.279871023125
$GPGGA,040506.00,3507.1158,N,12133.7524,W,1,09,0.8,9.7,M,-32.5,M,,*55
$PYRTM,2024,124.170235179363,15.279882589502
$GPGGA,040507.00,3507.1164,N,12133.7535,W,1,09,0.8,9.7,M,-32.5,M,,*5B
$PYRTM,2024,124.170246753623,15.279894163762
$GPGGA,040508.00,3507.1172,N,12133.7539,W,1,09,0.8,10.2,M,-32.5,M,,*62
$PYRTM,2024,124.170258327847,15.279905737998
$GPGGA,040509.00,3507.1183,N,12133.7537,W,1,09,0.8,10.7,M,-32.5,M,,*66
$PYRTM,2024,124.170269902187,15.279917312326
$GPGGA,040510.00,3507.1193,N,12133.7540,W,1,09,0.8,10.9,M,-32.5,M,,*61
$PYRTM,2024,124.170277304722,15.279924714861
$GPGGA,040511.00,3507.1201,N,12133.7549,W,1,09,0.8,11.0,M,-32.5,M,,*69
$PYRTM,2024,124.170293061470,15.279940471609
$GPGGA,040512.00,3507.1209,N,12133.7557,W,1,09,0.8,11.0,M,-32.5,M,,*6D
$PYRTM,2024,124.170304624062,15.279952034201
$GPGGA,040513.00,3507.1218,N,12133.7560,W,1,09,0.8,11.2,M,-32.5,M,,*6A
$PYRTM,2024,124.170316209306,15.279963619444
$GPGGA,040514.00,3507.1228,N,12133.7562,W,1,09,0.8,11.2,M,-32.5,M,,*6C
$PYRTM,2024,124.170327772257,15.279975182407
$GPGGA,040515.00,3507.1239,N,12133.7567,W,1,09,0.8,11.1,M,-32.5,M,,*6B
$PYRTM,2024,124.170339345845,15.279986755984
$GPGGA,040516.00,3507.1247,N,12133.7573,W,1,09,0.8,11.2,M,-32.5,M,,*67
$PYRTM,2024,124.170350921921,15.279998332060
$GPGGA,040517.00,3507.1255,N,12133.7577,W,1,09,0.8,11.7,M,-32.5,M,,*64
$PYRTM,2024,124.170362502928,15.280009913067
$GPGGA,040518.00,3507.1266,N,12133.7579,W,1,09,0.8,11.8,M,-32.5,M,,*6A
$PYRTM,2024,124.170374069641,15.280021479780
$GPGGA,040519.00,3507.1277,N,12133.7587,W,1,09,0.8,11.0,M,-32.5,M,,*62
$PYRTM,2024,124.170381464630,15.280028874769
$GPGGA,040520.00,3507.1287,N,12133.7596,W,1,09,0.8,10.5,M,-32.5,M,,*63
$PYRTM,2024,124.170397217523,15.280044627662
$GPGGA,040521.00,3507.1295,N,12133.7599,W,1,09,0.8,10.7,M,-32.5,M,,*6C
$PYRTM,2024,124.170403352095,15.280050762245
$GPGGA,040522.00,3507.1306,N,12133.7595,W,1,09,0.8,11.3,M,-32.5,M,,*6D
$PYRTM,2024,124.170420366273,15.280067776412
$GPGGA,040523.00,3507.1318,N,12133.7596,W,1,09,0.8,12.0,M,-32.5,M,,*60
$PYRTM,2024,124.170431939306,15.280079349444
$GPGGA,040524.00,3507.1331,N,12133.7607,W,1,09,0.8,11.0,M,-32.5,M,,*64
$PYRTM,2024,124.170443516377,15.280090926516
$GPGGA,040525.00,3507.1341,N,12133.7620,W,1,09,0.8,10.0,M,-32.5,M,,*66
$PYRTM,2024,124.170455088785,15.280102498924
$GPGGA,040526.00,3507.1348,N,12133.7623,W,1,09,0.8,10.0,M,-32.5,M,,*6F
$PYRTM,2024,124.170462494514,15.280109904664
$GPGGA,040527.00,3507.1358,N,12133.7618,W,1,09,0.8,10.5,M,-32.5,M,,*62
$PYRTM,2024,124.170478243970,15.280125654109
$GPGGA,040528.00,3507.1371,N,12133.7615,W,1,09,0.8,10.5,M,-32.5,M,,*6B
$PYRTM,2024,124.170489812535,15.280137222674
$GPGGA,040529.00,3507.1383,N,12133.7620,W,1,09,0.8,10.3,M,-32.5,M,,*67
$PYRTM,2024,124.170497206134,15.280144616273
$GPGGA,040530.00,3507.1391,N,12133.7633,W,1,09,0.8,9.9,M,-32.5,M,,*5C
$PYRTM,2024,124.170508896782,15.280156306921
$GPGGA,040531.00,3507.1398,N,12133.7645,W,1,09,0.8,9.7,M,-32.5,M,,*5B
$PYRTM,2024,124.170527423067,15.280174833206
$GPGGA,040532.00,3507.1407,N,12133.7648,W,1,09,0.8,9.8,M,-32.5,M,,*5B
$PYRTM,2024,124.170539001528,15.280186411667
$GPGGA,040533.00,3507.1418,N,12133.7644,W,1,09,0.8,10.3,M,-32.5,M,,*6B
$PYRTM,2024,124.170550578252,15.280197988391
$GPGGA,040534.00,3507.1431,N,12133.7642,W,1,09,0.8,10.7,M,-32.5,M,,*65
$PYRTM,2024,124.170559255104,15.280206665243
$GPGGA,040535.00,3507.1442,N,12133.7648,W,1,09,0.8,10.7,M,-32.5,M,,*6A
$PYRTM,2024,124.170566651574,15.280214061713
$GPGGA,040536.00,3507.1450,N,12133.7661,W,1,09,0.8,10.5,M,-32.5,M,,*63
$PYRTM,2024,124.170582403576,15.280229813727
$GPGGA,040537.00,3507.1458,N,12133.7672,W,1,09,0.8,10.4,M,-32.5,M,,*69
$PYRTM,2024,124.170593977407,15.280241387546
$GPGGA,040538.00,3507.1468,N,12133.7674,W,1,09,0.8,10.4,M,-32.5,M,,*63
$PYRTM,2024,124.170605552025,15.280252962164
$GPGGA,040539.00,3507.1479,N,12133.7671,W,1,09,0.8,10.9,M,-32.5,M,,*6A
$PYRTM,2024,124.170617125972,15.280264536111
$GPGGA,040540.00,3507.1491,N,12133.7673,W,1,09,0.8,11.0,M,-32.5,M,,*68
$PYRTM,2024,124.170628700440,15.280276110579
$GPGGA,040541.00,3507.1505,N,12133.7681,W,1,09,0.8,10.5,M,-32.5,M,,*6C
$PYRTM,2024,124.170636095370,15.280283505509
$GPGGA,040542.00,3507.1515,N,12133.7692,W,1,09,0.8,9.9,M,-32.5,M,,*58
$PYRTM,2024,124.170647785359,15.280295195498
$GPGGA,040543.00,3507.1522,N,12133.7698,W,1,09,0.8,10.1,M,-32.5,M,,*67
$PYRTM,2024,124.170663422488,15.280310832639
$GPGGA,040544.00,3507.1530,N,12133.7700,W,1,09,0.8,10.7,M,-32.5,M,,*65
$PYRTM,2024,124.170674991366,15.280322401505
$GPGGA,040545.00,3507.1542,N,12133.7702,W,1,09,0.8,10.4,M,-32.5,M,,*60
$PYRTM,2024,124.170686578924,15.280333989063
$GPGGA,040546.00,3507.1556,N,12133.7708,W,1,09,0.8,9.2,M,-32.5,M,,*52
$PYRTM,2024,124.170698146215,15.280345556354
$GPGGA,040547.00,3507.1566,N,12133.7717,W,1,09,0.8,8.6,M,-32.5,M,,*5B
$PYRTM,2024,124.170709727072,15.280357137222
$GPGGA,040548.00,3507.1571,N,12133.7724,W,1,09,0.8,9.0,M,-32.5,M,,*55
$PYRTM,2024,124.170716997604,15.280364407743
$GPGGA,040549.00,3507.1578,N,12133.7728,W,1,09,0.8,9.7,M,-32.5,M,,*56
$PYRTM,2024,124.170732878657,15.280380288808
$GPGGA,040550.00,3507.1591,N,12133.7732,W,1,09,0.8,9.9,M,-32.5,M,,*5C
$PYRTM,2024,124.170744435428,15.280391845567
$GPGGA,040551.00,3507.1604,N,12133.7738,W,1,09,0.8,9.6,M,-32.5,M,,*57
$PYRTM,2024,124.170751728380,15.280399138519
$GPGGA,040552.00,3507.1613,N,12133.7743,W,1,09,0.8,9.7,M,-32.5,M,,*5F
$PYRTM,2024,124.170763539722,15.280410949861
$GPGGA,040553.00,3507.1618,N,12133.7748,W,1,09,0.8,10.1,M,-32.5,M,,*60
$PYRTM,2024,124.170779175567,15.280426585706
$GPGGA,040554.00,3507.1627,N,12133.7753,W,1,09,0.8,10.3,M,-32.5,M,,*63
$PYRTM,2024,124.170790738206,15.280438148356
$GPGGA,040555.00,3507.1639,N,12133.7760,W,1,09,0.8,9.7,M,-32.5,M,,*51
$PYRTM,2024,124.170802313044,15.280449723183
$GPGGA,040556.00,3507.1649,N,12133.7765,W,1,09,0.8,9.6,M,-32.5,M,,*51
$PYRTM,2024,124.170813886667,15.280461296806
$GPGGA,040557.00,3507.1658,N,12133.7768,W,1,09,0.8,9.8,M,-32.5,M,,*53
$PYRTM,2024,124.170821282164,15.280468692303
$GPGGA,040558.00,3507.1667,N,12133.7771,W,1,09,0.8,10.3,M,-32.5,M,,*6B
$PYRTM,2024,124.170837035162,15.280484445313
$GPGGA,040559.00,3507.1678,N,12133.7777,W,1,09,0.8,10.5,M,-32.5,M,,*64
$PYRTM,2024,124.170848619120,15.280496029259
$GPGGA,040600.00,3507.1689,N,12133.7786,W,1,09,0.8,10.0,M,-32.5,M,,*6E
$PYRTM,2024,124.170860183912,15.280507594051
$GPGGA,040601.00,3507.1696,N,12133.7793,W,1,09,0.8,10.1,M,-32.5,M,,*64
$PYRTM,2024,124.170867578275,15.280514988414
$GPGGA,040602.00,3507.1703,N,12133.7794,W,1,09,0.8,10.7,M,-32.5,M,,*6B
$PYRTM,2024,124.170886226169,15.280533636308
$GPGGA,040603.00,3507.1713,N,12133.7794,W,1,09,0.8,11.2,M,-32.5,M,,*6F
$PYRTM,2024,124.170897802141,15.280545212280
$GPGGA,040604.00,3507.1726,N,12133.7801,W,1,09,0.8,10.3,M,-32.5,M,,*6D
$PYRTM,2024,124.170909374317,15.280556784456
$GPGGA,040605.00,3507.1735,N,12133.7811,W,1,09,0.8,9.9,M,-32.5,M,,*5D
$PYRTM,2024,124.170918053727,15.280565463866
$GPGGA,040606.00,3507.1742,N,12133.7814,W,1,09,0.8,10.1,M,-32.5,M,,*6B
$PYRTM,2024,124.170929623750,15.280577033889
$GPGGA,040607.00,3507.1753,N,12133.7814,W,1,09,0.8,10.3,M,-32.5,M,,*68
$PYRTM,2024,124.170941202141,15.280588612280
$GPGGA,040608.00,3507.1767,N,12133.7818,W,1,09,0.8,9.7,M,-32.5,M,,*50
$PYRTM,2024,124.170952772361,15.280600182500
$GPGGA,040609.00,3507.1778,N,12133.7823,W,1,09,0.8,9.2,M,-32.5,M,,*52
$PYRTM,2024,124.170964361586,15.280611771736
$GPGGA,040610.00,3507.1785,N,12133.7827,W,1,09,1.0,9.6,M,-32.5,M,,*51
$PYRTM,2024,124.170975924375,15.280623334514
$GPGGA,040611.00,3507.1795,N,12133.7829,W,1,09,0.8,9.7,M,-32.5,M,,*57
$PYRTM,2024,124.170987510694,15.280634920833
$GPGGA,040612.00,3507.1806,N,12133.7834,W,1,09,0.8,9.3,M,-32.5,M,,*59
$PYRTM,2024,124.170999068553,15.280646478692
$GPGGA,040613.00,3507.1815,N,12133.7839,W,1,09,1.0,9.0,M,-32.5,M,,*5D
$PYRTM,2024,124.171010655324,15.280658065463
$GPGGA,040614.00,3507.1823,N,12133.7840,W,1,09,1.0,9.4,M,-32.5,M,,*55
$PYRTM,2024,124.171022222396,15.280669632546
$GPGGA,040615.00,3507.1832,N,12133.7840,W,1,09,1.0,10.0,M,-32.5,M,,*68
$PYRTM,2024,124.171029617118,15.280677027257
$GPGGA,040616.00,3507.1842,N,12133.7845,W,1,09,1.0,9.8,M,-32.5,M,,*59
$PYRTM,2024,124.171045370058,15.280692780197
$GPGGA,040617.00,3507.1851,N,12133.7853,W,1,09,1.0,9.3,M,-32.5,M,,*56
$PYRTM,2024,124.171056943241,15.280704353380
$GPGGA,040618.00,3507.1860,N,12133.7860,W,1,09,1.0,9.2,M,-32.5,M,,*5A
$PYRTM,2024,124.171064224468,15.280711634606
$GPGGA,040619.00,3507.1870,N,12133.7862,W,1,09,1.0,9.3,M,-32.5,M,,*59
$PYRTM,2024,124.171080093241,15.280727503380
$GPGGA,040620.00,3507.1881,N,12133.7863,W,1,09,0.8,9.7,M,-32.5,M,,*51
$PYRTM,2024,124.171091669641,15.280739079780
$GPGGA,040621.00,3507.1892,N,12133.7866,W,1,09,1.0,10.1,M,-32.5,M,,*60
$PYRTM,2024,124.171103254653,15.280750664792
$GPGGA,040622.00,3507.1901,N,12133.7872,W,1,09,1.0,10.5,M,-32.5,M,,*69
$PYRTM,2024,124.171114816516,15.280762226655
$GPGGA,040623.00,3507.1909,N,12133.7878,W,1,09,0.8,10.8,M,-32.5,M,,*6E
$PYRTM,2024,124.171126404016,15.280773814155
$GPGGA,040624.00,3507.1920,N,12133.7884,W,1,09,0.8,10.5,M,-32.5,M,,*6C
$PYRTM,2024,124.171133794931,15.280781205081
$GPGGA,040625.00,3507.1932,N,12133.7889,W,1,09,1.0,9.8,M,-32.5,M,,*5F
$PYRTM,2024,124.171145474144,15.280792884294
$GPGGA,040626.00,3507.1943,N,12133.7892,W,1,09,0.8,9.5,M,-32.5,M,,*54
$PYRTM,2024,124.171161115637,15.280808525775
$GPGGA,040627.00,3507.1953,N,12133.7895,W,1,09,0.8,10.2,M,-32.5,M,,*6C
$PYRTM,2024,124.171172701609,15.280820111748
$GPGGA,040628.00,3507.1962,N,12133.7901,W,1,09,0.8,10.8,M,-32.5,M,,*67
$PYRTM,2024,124.171184262454,15.280831672593
$GPGGA,040629.00,3507.1972,N,12133.7907,W,1,09,0.8,11.2,M,-32.5,M,,*6A
$PYRTM,2024,124.171195855648,15.280843265799
$GPGGA,040630.00,3507.1984,N,12133.7912,W,1,09,0.8,11.0,M,-32.5,M,,*6D
$PYRTM,2024,124.171207412361,15.280854822512
$GPGGA,040631.00,3507.1997,N,12133.7919,W,1,09,0.8,9.9,M,-32.5,M,,*55
$PYRTM,2024,124.171219084190,15.280866494329
$GPGGA,040632.00,3507.2009,N,12133.7927,W,1,09,0.8,8.8,M,-32.5,M,,*56
$PYRTM,2024,124.171226261898,15.280873672037
$GPGGA,040633.00,3507.2017,N,12133.7934,W,1,09,0.8,8.6,M,-32.5,M,,*54
$PYRTM,2024,124.171245026215,15.280892436354
$GPGGA,040634.00,3507.2024,N,12133.7934,W,1,09,0.8,9.5,M,-32.5,M,,*51
$PYRTM,2024,124.171253708623,15.280901118762
$GPGGA,040635.00,3507.2036,N,12133.7934,W,1,09,1.0,10.3,M,-32.5,M,,*64
$PYRTM,2024,124.171265293426,15.280912703565
$GPGGA,040636.00,3507.2050,N,12133.7941,W,1,09,1.0,10.2,M,-32.5,M,,*64
$PYRTM,2024,124.171276856377,15.280924266516
$GPGGA,040637.00,3507.2060,N,12133.7953,W,1,09,1.0,9.3,M,-32.5,M,,*5C
$PYRTM,2024,124.171288430417,15.280935840556
$GPGGA,040638.00,3507.2065,N,12133.7960,W,1,09,1.0,8.8,M,-32.5,M,,*5C
$PYRTM,2024,124.171300004433,15.280947414572
$GPGGA,040639.00,3507.2071,N,12133.7960,W,1,09,1.0,8.9,M,-32.5,M,,*59
$PYRTM,2024,124.171311589410,15.280958999549
$GPGGA,040640.00,3507.2083,N,12133.7961,W,1,09,1.0,8.7,M,-32.5,M,,*55
$PYRTM,2024,124.171323152095,15.280970562234
$GPGGA,040641.00,3507.2098,N,12133.7966,W,1,09,1.0,8.2,M,-32.5,M,,*5C
$PYRTM,2024,124.171334744641,15.280982154780
$GPGGA,040642.00,3507.2109,N,12133.7973,W,1,09,1.0,7.5,M,-32.5,M,,*5A
$PYRTM,2024,124.171342002338,15.280989412477
$GPGGA,040643.00,3507.2117,N,12133.7978,W,1,09,1.0,7.7,M,-32.5,M,,*5D
$PYRTM,2024,124.171357880139,15.281005290278
$GPGGA,040644.00,3507.2125,N,12133.7984,W,1,09,1.0,7.8,M,-32.5,M,,*57
$PYRTM,2024,124.171369446296,15.281016856435
$GPGGA,040645.00,3507.2136,N,12133.7991,W,1,09,1.0,7.6,M,-32.5,M,,*5E
$PYRTM,2024,124.171376726076,15.281024136215
$GPGGA,040646.00,3507.2146,N,12133.7996,W,1,09,1.0,7.4,M,-32.5,M,,*5F
$PYRTM,2024,124.171392593738,15.281040003877
$GPGGA,040647.00,3507.2156,N,12133.7999,W,1,09,1.0,7.6,M,-32.5,M,,*52
$PYRTM,2024,124.171404182512,15.281051592650
$GPGGA,040648.00,3507.2166,N,12133.8005,W,1,09,1.0,7.5,M,-32.5,M,,*5E
$PYRTM,2024,124.171411445984,15.281058856123
$GPGGA,040649.00,3507.2177,N,12133.8015,W,1,09,1.0,7.5,M,-32.5,M,,*5E
$PYRTM,2024,124.171427326748,15.281074736887
$GPGGA,040650.00,3507.2184,N,12133.8023,W,1,09,1.0,7.8,M,-32.5,M,,*52
$PYRTM,2024,124.171438889780,15.281086299919
$GPGGA,040651.00,3507.2192,N,12133.8024,W,1,09,1.0,8.5,M,-32.5,M,,*51
$PYRTM,2024,124.171450474942,15.281097885081
$GPGGA,040652.00,3507.2204,N,12133.8025,W,1,09,1.0,8.9,M,-32.5,M,,*53
$PYRTM,2024,124.171462038727,15.281109448866
$GPGGA,040653.00,3507.2216,N,12133.8032,W,1,09,1.0,8.6,M,-32.5,M,,*58
$PYRTM,2024,124.171469317836,15.281116727975
$GPGGA,040654.00,3507.2224,N,12133.8044,W,1,09,1.0,8.3,M,-32.5,M,,*5A
$PYRTM,2024,124.171485186493,15.281132596632
$GPGGA,040655.00,3507.2229,N,12133.8053,W,1,09,1.0,8.5,M,-32.5,M,,*56
$PYRTM,2024,124.171496761204,15.281144171354
$GPGGA,040656.00,3507.2238,N,12133.8056,W,1,09,1.0,9.3,M,-32.5,M,,*57
$PYRTM,2024,124.171508336308,15.281155746447
$GPGGA,040657.00,3507.2249,N,12133.8056,W,1,09,1.0,10.0,M,-32.5,M,,*6B
$PYRTM,2024,124.171515731516,15.281163141655
$GPGGA,040658.00,3507.2261,N,12133.8059,W,1,09,1.0,10.3,M,-32.5,M,,*62
$PYRTM,2024,124.171531485613,15.281178895752
$GPGGA,040659.00,3507.2271,N,12133.8069,W,1,09,1.0,9.9,M,-32.5,M,,*53
$PYRTM,2024,124.171543069363,15.281190479514
$GPGGA,040700.00,3507.2281,N,12133.8082,W,1,09,1.0,9.1,M,-32.5,M,,*5C
$PYRTM,2024,124.171554632674,15.281202042824
$GPGGA,040701.00,3507.2290,N,12133.8091,W,1,09,1.0,8.8,M,-32.5,M,,*57
$PYRTM,2024,124.171566206725,15.281213616863
$GPGGA,040702.00,3507.2297,N,12133.8090,W,1,09,1.0,9.4,M,-32.5,M,,*5F
$PYRTM,2024,124.171577781898,15.281225192037
$GPGGA,040703.00,3507.2307,N,12133.8088,W,1,09,1.0,10.4,M,-32.5,M,,*67
$PYRTM,2024,124.171585175081,15.281232585220
$GPGGA,040704.00,3507.2321,N,12133.8092,W,1,09,1.0,10.1,M,-32.5,M,,*6A
$PYRTM,2024,124.171603822720,15.281251232859
$GPGGA,040705.00,3507.2334,N,12133.8103,W,1,09,1.0,9.0,M,-32.5,M,,*5F
$PYRTM,2024,124.171612502593,15.281259912731
$GPGGA,040706.00,3507.2341,N,12133.8114,W,1,09,1.0,8.5,M,-32.5,M,,*5C
$PYRTM,2024,124.171624078368,15.281271488507
$GPGGA,040707.00,3507.2344,N,12133.8118,W,1,09,1.0,9.0,M,-32.5,M,,*50
$PYRTM,2024,124.171635650787,15.281283060926
$GPGGA,040708.00,3507.2353,N,12133.8117,W,1,09,1.0,9.0,M,-32.5,M,,*56
$PYRTM,2024,124.171647226215,15.281294636354
$GPGGA,040709.00,3507.2366,N,12133.8119,W,1,09,1.0,9.0,M,-32.5,M,,*5F
$PYRTM,2024,124.171658812014,15.281306222153
$GPGGA,040710.00,3507.2377,N,12133.8126,W,1,09,1.0,9.0,M,-32.5,M,,*5B
$PYRTM,2024,124.171670374016,15.281317784155
$GPGGA,040711.00,3507.2382,N,12133.8134,W,1,09,1.0,9.2,M,-32.5,M,,*51
$PYRTM,2024,124.171681957002,15.281329367141
$GPGGA,040712.00,3507.2388,N,12133.8139,W,1,09,1.0,9.4,M,-32.5,M,,*53
$PYRTM,2024,124.171693522419,15.281340932558
$GPGGA,040713.00,3507.2399,N,12133.8144,W,1,09,1.0,9.0,M,-32.5,M,,*5C
$PYRTM,2024,124.171700801887,15.281348212025
$GPGGA,040714.00,3507.2409,N,12133.8149,W,1,09,1.0,8.6,M,-32.5,M,,*5F
$PYRTM,2024,124.171712608391,15.281360018530
$GPGGA,040715.00,3507.2417,N,12133.8156,W,1,09,1.0,8.7,M,-32.5,M,,*5E
$PYRTM,2024,124.171728255486,15.281375665625
$GPGGA,040716.00,3507.2425,N,12133.8161,W,1,09,1.0,9.3,M,-32.5,M,,*5D
$PYRTM,2024,124.171739818681,15.281387228819
$GPGGA,040717.00,3507.2433,N,12133.8164,W,1,09,1.0,10.3,M,-32.5,M,,*66
$PYRTM,2024,124.171751392940,15.281398803090
$GPGGA,040718.00,3507.2441,N,12133.8165,W,1,09,1.0,11.2,M,-32.5,M,,*6D
$PYRTM,2024,124.171762961574,15.281410371701
$GPGGA,040719.00,3507.2450,N,12133.8171,W,1,09,1.0,11.4,M,-32.5,M,,*6F
$PYRTM,2024,124.171774541620,15.281421951759
$GPGGA,040720.00,3507.2459,N,12133.8183,W,1,09,1.0,10.9,M,-32.5,M,,*6D
$PYRTM,2024,124.171781942500,15.281429352650
$GPGGA,040721.00,3507.2465,N,12133.8191,W,1,09,1.0,10.6,M,-32.5,M,,*6F
$PYRTM,2024,124.171797690093,15.281445100231
$GPGGA,040722.00,3507.2472,N,12133.8192,W,1,09,1.0,11.1,M,-32.5,M,,*6F
$PYRTM,2024,124.171809265347,15.281456675486
$GPGGA,040723.00,3507.2482,N,12133.8189,W,1,09,1.0,12.1,M,-32.5,M,,*68
$PYRTM,2024,124.171820836690,15.281468246829
$GPGGA,040724.00,3507.2495,N,12133.8190,W,1,09,1.0,12.7,M,-32.5,M,,*67
$PYRTM,2024,124.171832408646,15.281479818796
$GPGGA,040725.00,3507.2504,N,12133.8200,W,1,09,1.0,12.7,M,-32.5,M,,*65
$PYRTM,2024,124.171844013021,15.281491423160
$GPGGA,040726.00,3507.2511,N,12133.8208,W,1,09,1.0,12.6,M,-32.5,M,,*6B
$PYRTM,2024,124.171855560903,15.281502971042
$GPGGA,040727.00,3507.2521,N,12133.8214,W,1,09,1.0,12.1,M,-32.5,M,,*63
$PYRTM,2024,124.171867141528,15.281514551667
$GPGGA,040728.00,3507.2532,N,12133.8218,W,1,09,1.0,11.3,M,-32.5,M,,*63
$PYRTM,2024,124.171878708762,15.281526118900
$GPGGA,040729.00,3507.2542,N,12133.8220,W,1,09,1.0,11.1,M,-32.5,M,,*6C
$PYRTM,2024,124.171886104491,15.281533514630
$GPGGA,040730.00,3507.2551,N,12133.8223,W,1,09,1.0,11.5,M,-32.5,M,,*61
$PYRTM,2024,124.171904749861,15.281552160000
$GPGGA,040731.00,3507.2561,N,12133.8227,W,1,09,1.0,12.2,M,-32.5,M,,*63
$PYRTM,2024,124.171913442361,15.281560852500
$GPGGA,040732.00,3507.2573,N,12133.8236,W,1,09,1.0,11.9,M,-32.5,M,,*6B
$PYRTM,2024,124.171925006655,15.281572416794
$GPGGA,040733.00,3507.2582,N,12133.8247,W,1,09,1.0,11.5,M,-32.5,M,,*6E
$PYRTM,2024,124.171936578900,15.281583989039
$GPGGA,040734.00,3507.2589,N,12133.8254,W,1,09,1.0,11.6,M,-32.5,M,,*63
$PYRTM,2024,124.171943986447,15.281591396586
$GPGGA,040735.00,3507.2596,N,12133.8257,W,1,09,1.0,12.0,M,-32.5,M,,*6A
$PYRTM,2024,124.171962621551,15.281610031690
$GPGGA,040736.00,3507.2609,N,12133.8259,W,1,09,1.0,11.7,M,-32.5,M,,*66
$PYRTM,2024,124.171971301887,15.281618712025
$GPGGA,040737.00,3507.2621,N,12133.8266,W,1,09,1.0,11.4,M,-32.5,M,,*62
$PYRTM,2024,124.171982875243,15.281630285394
$GPGGA,040738.00,3507.2632,N,12133.8274,W,1,09,1.0,10.9,M,-32.5,M,,*60
$PYRTM,2024,124.171994451273,15.281641861412
$GPGGA,040739.00,3507.2641,N,12133.8278,W,1,09,1.0,11.4,M,-32.5,M,,*65
$PYRTM,2024,124.172001845104,15.281649255255
$GPGGA,040740.00,3507.2652,N,12133.8279,W,1,09,1.0,11.8,M,-32.5,M,,*64
$PYRTM,2024,124.172013534306,15.281660944444
$GPGGA,040741.00,3507.2665,N,12133.8283,W,1,09,1.0,11.5,M,-32.5,M,,*69
$PYRTM,2024,124.172029197778,15.281676607917
$GPGGA,040742.00,3507.2675,N,12133.8292,W,1,09,1.0,10.2,M,-32.5,M,,*6D
$PYRTM,2024,124.172036578484,15.281683988623
$GPGGA,040743.00,3507.2681,N,12133.8300,W,1,09,1.0,10.1,M,-32.5,M,,*6E
$PYRTM,2024,124.172052339907,15.281699750046
$GPGGA,040744.00,3507.2690,N,12133.8303,W,1,09,1.0,10.5,M,-32.5,M,,*6E
$PYRTM,2024,124.172063894398,15.281711304537
$GPGGA,040745.00,3507.2703,N,12133.8306,W,1,09,1.0,10.5,M,-32.5,M,,*61
$PYRTM,2024,124.172075480324,15.281722890463
$GPGGA,040746.00,3507.2716,N,12133.8310,W,1,09,1.0,10.2,M,-32.5,M,,*66
$PYRTM,2024,124.172087042488,15.281734452627
$GPGGA,040747.00,3507.2724,N,12133.8316,W,1,09,1.0,10.9,M,-32.5,M,,*6B
$PYRTM,2024,124.172098617188,15.281746027326
$GPGGA,040748.00,3507.2731,N,12133.8321,W,1,09,1.0,11.6,M,-32.5,M,,*6A
$PYRTM,2024,124.172110191065,15.281757601204
$GPGGA,040749.00,3507.2741,N,12133.8327,W,1,09,1.0,11.6,M,-32.5,M,,*6A
$PYRTM,2024,124.172121776829,15.281769186968
$GPGGA,040750.00,3507.2754,N,12133.8335,W,1,09,1.0,10.9,M,-32.5,M,,*6B
$PYRTM,2024,124.172133339942,15.281780750081
$GPGGA,040751.00,3507.2766,N,12133.8343,W,1,09,1.0,9.7,M,-32.5,M,,*5C
$PYRTM,2024,124.172140633727,15.281788043866
$GPGGA,040752.00,3507.2774,N,12133.8349,W,1,09,1.0,9.6,M,-32.5,M,,*57
$PYRTM,2024,124.172156483356,15.281803893495
$GPGGA,040753.00,3507.2782,N,12133.8350,W,1,09,1.0,10.5,M,-32.5,M,,*6C
$PYRTM,2024,124.172168088264,15.281815498403
$GPGGA,040754.00,3507.2793,N,12133.8351,W,1,09,1.0,11.4,M,-32.5,M,,*6A
$PYRTM,2024,124.172175464132,15.281822874282
$GPGGA,040755.00,3507.2807,N,12133.8354,W,1,09,1.0,11.5,M,-32.5,M,,*6D
$PYRTM,2024,124.172191218843,15.281838628981
$GPGGA,040756.00,3507.2818,N,12133.8362,W,1,09,1.0,10.8,M,-32.5,M,,*69
$PYRTM,2024,124.172202784977,15.281850195116
$GPGGA,040757.00,3507.2825,N,12133.8374,W,1,09,1.0,10.3,M,-32.5,M,,*6A
$PYRTM,2024,124.172214358333,15.281861768472
$GPGGA,040758.00,3507.2831,N,12133.8385,W,1,09,1.0,10.3,M,-32.5,M,,*6E
$PYRTM,2024,124.172225933171,15.281873343310
$GPGGA,040759.00,3507.2840,N,12133.8388,W,1,09,1.0,11.0,M,-32.5,M,,*66
$PYRTM,2024,124.172237506366,15.281884916516
$GPGGA,040800.00,3507.2853,N,12133.8385,W,1,09,1.0,11.8,M,-32.5,M,,*62
$PYRTM,2024,124.172244926215,15.281892336354
$GPGGA,040801.00,3507.2867,N,12133.8386,W,1,09,1.0,12.2,M,-32.5,M,,*6E
$PYRTM,2024,124.172256590093,15.281904000231
$GPGGA,040802.00,3507.2879,N,12133.8397,W,1,09,1.0,11.8,M,-32.5,M,,*6B
$PYRTM,2024,124.172272224988,15.281919635127
$GPGGA,040803.00,3507.2886,N,12133.8413,W,1,09,1.0,11.3,M,-32.5,M,,*6A
$PYRTM,2024,124.172283803449,15.281931213588
$GPGGA,040804.00,3507.2892,N,12133.8424,W,1,09,1.0,11.0,M,-32.5,M,,*6F
$PYRTM,2024,124.172295378333,15.281942788472
$GPGGA,040805.00,3507.2902,N,12133.8427,W,1,09,1.0,11.2,M,-32.5,M,,*67
$PYRTM,2024,124.172302771759,15.281950181898
$GPGGA,040806.00,3507.2914,N,12133.8425,W,1,09,1.0,11.9,M,-32.5,M,,*6A
$PYRTM,2024,124.172321421042,15.281968831181
$GPGGA,040807.00,3507.2925,N,12133.8429,W,1,09,1.0,12.1,M,-32.5,M,,*6E
$PYRTM,2024,124.172330099687,15.281977509826
$GPGGA,040808.00,3507.2936,N,12133.8439,W,1,09,1.0,11.8,M,-32.5,M,,*68
$PYRTM,2024,124.172337506991,15.281984917130
$GPGGA,040809.00,3507.2946,N,12133.8450,W,1,09,1.0,10.9,M,-32.5,M,,*61
$PYRTM,2024,124.172353274259,15.282000684398
$GPGGA,040810.00,3507.2955,N,12133.8458,W,1,09,1.0,10.6,M,-32.5,M,,*6C
$PYRTM,2024,124.172364822361,15.282012232500
$GPGGA,040811.00,3507.2966,N,12133.8462,W,1,09,1.0,10.5,M,-32.5,M,,*67
$PYRTM,2024,124.172372217164,15.282019627303
$GPGGA,040812.00,3507.2978,N,12133.8465,W,1,09,1.0,10.5,M,-32.5,M,,*6C
$PYRTM,2024,124.172387971204,15.282035381343
$GPGGA,040813.00,3507.2989,N,12133.8472,W,1,09,1.0,10.8,M,-32.5,M,,*68
$PYRTM,2024,124.172399544722,15.282046954861
$GPGGA,040814.00,3507.2999,N,12133.8480,W,1,09,1.0,10.9,M,-32.5,M,,*62
$PYRTM,2024,124.172411119444,15.282058529583
$GPGGA,040815.00,3507.3011,N,12133.8487,W,1,09,1.0,10.6,M,-32.5,M,,*63
$PYRTM,2024,124.172422705197,15.282070115336
$GPGGA,040816.00,3507.3023,N,12133.8492,W,1,09,1.0,10.3,M,-32.5,M,,*60
$PYRTM,2024,124.172434268322,15.282081678461
$GPGGA,040817.00,3507.3032,N,12133.8498,W,1,09,1.0,10.2,M,-32.5,M,,*6A
$PYRTM,2024,124.172445841308,15.282093251447
$GPGGA,040818.00,3507.3040,N,12133.8508,W,1,09,1.0,10.0,M,-32.5,M,,*6A
$PYRTM,2024,124.172457415359,15.282104825498
$GPGGA,040819.00,3507.3051,N,12133.8518,W,1,09,1.0,9.9,M,-32.5,M,,*5B
$PYRTM,2024,124.172464712199,15.282112122338
$GPGGA,040820.00,3507.3062,N,12133.8519,W,1,09,1.0,10.1,M,-32.5,M,,*60
$PYRTM,2024,124.172480564444,15.282127974583
$GPGGA,040821.00,3507.3073,N,12133.8518,W,1,09,1.0,10.5,M,-32.5,M,,*64
$PYRTM,2024,124.172492164306,15.282139574444
$GPGGA,040822.00,3507.3083,N,12133.8527,W,1,09,1.0,10.4,M,-32.5,M,,*65
$PYRTM,2024,124.172503712315,15.282151122454
$GPGGA,040823.00,3507.3092,N,12133.8541,W,1,09,1.0,10.3,M,-32.5,M,,*63
$PYRTM,2024,124.172515294549,15.282162704687
$GPGGA,040824.00,3507.3101,N,12133.8551,W,1,09,1.0,10.0,M,-32.5,M,,*6D
$PYRTM,2024,124.172522688727,15.282170098866
$GPGGA,040825.00,3507.3111,N,12133.8554,W,1,09,1.0,10.4,M,-32.5,M,,*6C
$PYRTM,2024,124.172538428785,15.282185838924
$GPGGA,040826.00,3507.3122,N,12133.8553,W,1,09,1.0,11.3,M,-32.5,M,,*6E
$PYRTM,2024,124.172550004861,15.282197415000
$GPGGA,040827.00,3507.3135,N,12133.8557,W,1,09,1.0,11.5,M,-32.5,M,,*6B
$PYRTM,2024,124.172561585660,15.282208995799
$GPGGA,040828.00,3507.3148,N,12133.8566,W,1,09,1.0,11.0,M,-32.5,M,,*69
$PYRTM,2024,124.172573157072,15.282220567211
$GPGGA,040829.00,3507.3156,N,12133.8578,W,1,09,1.0,10.6,M,-32.5,M,,*6F
$PYRTM,2024,124.172580552384,15.282227962535
$GPGGA,040830.00,3507.3162,N,12133.8586,W,1,09,1.0,10.9,M,-32.5,M,,*6E
$PYRTM,2024,124.172596305961,15.282243716100
$GPGGA,040831.00,3507.3171,N,12133.8588,W,1,09,1.0,11.5,M,-32.5,M,,*6E
$PYRTM,2024,124.172607880475,15.282255290613
$GPGGA,040832.00,3507.3185,N,12133.8590,W,1,09,1.0,11.0,M,-32.5,M,,*6A
$PYRTM,2024,124.172619449282,15.282266859421
$GPGGA,040833.00,3507.3198,N,12133.8595,W,1,09,1.0,10.5,M,-32.5,M,,*66
$PYRTM,2024,124.172626848241,15.282274258380
$GPGGA,040834.00,3507.3205,N,12133.8602,W,1,09,1.0,10.6,M,-32.5,M,,*68
$PYRTM,2024,124.172642601644,15.282290011782
$GPGGA,040835.00,3507.3211,N,12133.8609,W,1,09,1.0,11.2,M,-32.5,M,,*62
$PYRTM,2024,124.172654187211,15.282301597350
$GPGGA,040836.00,3507.3222,N,12133.8616,W,1,09,1.0,10.7,M,-32.5,M,,*6B
$PYRTM,2024,124.172661577361,15.282308987500
$GPGGA,040837.00,3507.3233,N,12133.8620,W,1,09,1.0,10.2,M,-32.5,M,,*6A
