$PYRTM,2024,127.583337176250,18.692984586389
$GPGGA,135959.00,3327.7850,N,11902.6826,W,1,10,1.0,12.4,M,-34.5,M,,*6A
$PYRTM,2024,127.583348734850,18.692996144988
$GPGGA,140000.00,3327.7852,N,11902.6827,W,1,10,1.0,12.3,M,-34.5,M,,*69
$PYRTM,2024,127.583360325637,18.693007735775
$GPGGA,140001.00,3327.7853,N,11902.6824,W,1,10,1.0,12.3,M,-34.5,M,,*6A
$PYRTM,2024,127.583371882998,18.693019293137
$GPGGA,140002.00,3327.7853,N,11902.6819,W,1,10,1.0,12.3,M,-34.5,M,,*67
$PYRTM,2024,127.583383469942,18.693030880081
$GPGGA,140003.00,3327.7854,N,11902.6815,W,1,10,1.0,12.3,M,-34.5,M,,*6D
$PYRTM,2024,127.583390764398,18.693038174537
$GPGGA,140004.00,3327.7855,N,11902.6814,W,1,10,1.0,12.3,M,-34.5,M,,*6A
$PYRTM,2024,127.583406618657,18.693054028808
$GPGGA,140005.00,3327.7858,N,11902.6814,W,1,10,1.0,12.3,M,-34.5,M,,*66
$PYRTM,2024,127.583418178692,18.693065588831
$GPGGA,140006.00,3327.7860,N,11902.6813,W,1,10,1.0,12.3,M,-34.5,M,,*69
$PYRTM,2024,127.583429767963,18.693077178113
$GPGGA,140007.00,3327.7862,N,11902.6809,W,1,10,1.0,12.2,M,-34.5,M,,*60
$PYRTM,2024,127.583441328125,18.693088738264
$GPGGA,140008.00,3327.7863,N,11902.6805,W,1,10,1.0,12.2,M,-34.5,M,,*62
$PYRTM,2024,127.583452914850,18.693100325000
$GPGGA,140009.00,3327.7863,N,11902.6803,W,1,10,1.0,12.2,M,-34.5,M,,*65
$PYRTM,2024,127.583464476146,18.693111886285
$GPGGA,140010.00,3327.7866,N,11902.6801,W,1,10,1.0,12.2,M,-34.5,M,,*6A
$PYRTM,2024,127.583476062650,18.693123472789
$GPGGA,140011.00,3327.7870,N,11902.6799,W,1,10,1.0,12.2,M,-34.5,M,,*62
$PYRTM,2024,127.583487623634,18.693135033773
$GPGGA,140012.00,3327.7874,N,11902.6795,W,1,10,1.0,12.2,M,-34.5,M,,*69
$PYRTM,2024,127.583499211806,18.693146621944
$GPGGA,140013.00,3327.7875,N,11902.6791,W,1,10,1.0,12.2,M,-34.5,M,,*6D
$PYRTM,2024,127.583506489699,18.693153899838
$GPGGA,140014.00,3327.7875,N,11902.6788,W,1,10,1.0,12.2,M,-34.5,M,,*62
$PYRTM,2024,127.583522362905,18.693169773044
$GPGGA,140015.00,3327.7877,N,11902.6787,W,1,10,1.0,12.1,M,-34.5,M,,*6D
$PYRTM,2024,127.583533920012,18.693181330150
$GPGGA,140016.00,3327.7880,N,11902.6785,W,1,10,1.0,12.2,M,-34.5,M,,*67
$PYRTM,2024,127.583541212269,18.693188622407
$GPGGA,140017.00,3327.7881,N,11902.6781,W,1,10,1.0,12.1,M,-34.5,M,,*60
$PYRTM,2024,127.583557069734,18.693204479884
$GPGGA,140018.00,3327.7881,N,11902.6776,W,1,10,1.0,12.1,M,-34.5,M,,*67
$PYRTM,2024,127.583564361030,18.693211771169
$GPGGA,140019.00,3327.7881,N,11902.6773,W,1,10,1.0,12.1,M,-34.5,M,,*63
$PYRTM,2024,127.583580217396,18.693227627535
$GPGGA,140020.00,3327.7884,N,11902.6772,W,1,10,1.0,12.1,M,-34.5,M,,*6D
$PYRTM,2024,127.583591804306,18.693239214444
$GPGGA,140021.00,3327.7887,N,11902.6773,W,1,10,1.0,12.1,M,-34.5,M,,*6E
$PYRTM,2024,127.583603365174,18.693250775312
$GPGGA,140022.00,3327.7889,N,11902.6770,W,1,10,1.0,12.1,M,-34.5,M,,*60
$PYRTM,2024,127.583614954329,18.693262364479
$GPGGA,140023.00,3327.7888,N,11902.6765,W,1,10,1.0,12.0,M,-34.5,M,,*65
$PYRTM,2024,127.583622231435,18.693269641574
$GPGGA,140024.00,3327.7889,N,11902.6760,W,1,10,1.0,12.0,M,-34.5,M,,*66
$PYRTM,2024,127.583638101586,18.693285511725
$GPGGA,140025.00,3327.7892,N,11902.6757,W,1,10,1.0,12.0,M,-34.5,M,,*69
$PYRTM,2024,127.583649663808,18.693297073947
$GPGGA,140026.00,3327.7896,N,11902.6758,W,1,10,1.0,12.0,M,-34.5,M,,*61
$PYRTM,2024,127.583661249352,18.693308659491
$GPGGA,140027.00,3327.7899,N,11902.6757,W,1,10,1.0,12.0,M,-34.5,M,,*60
$PYRTM,2024,127.583668530046,18.693315940185
$GPGGA,140028.00,3327.7900,N,11902.6752,W,1,10,1.0,12.1,M,-34.5,M,,*6A
$PYRTM,2024,127.583687176157,18.693334586296
$GPGGA,140029.00,3327.7899,N,11902.6745,W,1,10,1.0,11.8,M,-34.5,M,,*66
$PYRTM,2024,127.583698735231,18.693346145370
$GPGGA,140030.00,3327.7900,N,11902.6740,W,1,10,1.0,11.6,M,-34.5,M,,*64
$PYRTM,2024,127.583707548773,18.693354958924
$GPGGA,140031.00,3327.7905,N,11902.6739,W,1,10,1.0,11.5,M,-34.5,M,,*6D
$PYRTM,2024,127.583714826308,18.693362236447
$GPGGA,140032.00,3327.7910,N,11902.6739,W,1,10,1.0,11.5,M,-34.5,M,,*6A
$PYRTM,2024,127.583730697095,18.693378107234
$GPGGA,140033.00,3327.7911,N,11902.6737,W,1,10,1.0,11.5,M,-34.5,M,,*64
$PYRTM,2024,127.583742255000,18.693389665139
$GPGGA,140034.00,3327.7909,N,11902.6733,W,1,10,1.0,11.6,M,-34.5,M,,*6D
$PYRTM,2024,127.583753842199,18.693401252338
$GPGGA,140035.00,3327.7908,N,11902.6727,W,1,10,1.0,11.6,M,-34.5,M,,*68
$PYRTM,2024,127.583765404687,18.693412814826
$GPGGA,140036.00,3327.7911,N,11902.6722,W,1,10,1.0,11.6,M,-34.5,M,,*66
$PYRTM,2024,127.583776992222,18.693424402361
$GPGGA,140037.00,3327.7917,N,11902.6719,W,1,10,1.0,11.4,M,-34.5,M,,*6B
$PYRTM,2024,127.583788552963,18.693435963113
$GPGGA,140038.00,3327.7921,N,11902.6717,W,1,10,1.0,11.3,M,-34.5,M,,*68
$PYRTM,2024,127.583800139965,18.693447550104
$GPGGA,140039.00,3327.7921,N,11902.6714,W,1,10,1.0,11.3,M,-34.5,M,,*6A
$PYRTM,2024,127.583811701516,18.693459111667
$GPGGA,140040.00,3327.7919,N,11902.6711,W,1,10,1.0,11.4,M,-34.5,M,,*6D
$PYRTM,2024,127.583823288333,18.693470698472
$GPGGA,140041.00,3327.7920,N,11902.6708,W,1,10,1.0,11.4,M,-34.5,M,,*6E
$PYRTM,2024,127.583834848738,18.693482258877
$GPGGA,140042.00,3327.7924,N,11902.6704,W,1,10,1.0,11.3,M,-34.5,M,,*62
$PYRTM,2024,127.583842142292,18.693489552442
$GPGGA,140043.00,3327.7927,N,11902.6700,W,1,10,1.0,11.4,M,-34.5,M,,*63
$PYRTM,2024,127.583857997361,18.693505407500
$GPGGA,140044.00,3327.7929,N,11902.6698,W,1,10,1.0,11.4,M,-34.5,M,,*6A
$PYRTM,2024,127.583869583912,18.693516994051
$GPGGA,140045.00,3327.7929,N,11902.6696,W,1,10,1.0,11.4,M,-34.5,M,,*65
$PYRTM,2024,127.583881145243,18.693528555382
$GPGGA,140046.00,3327.7930,N,11902.6692,W,1,10,1.0,11.4,M,-34.5,M,,*6A
$PYRTM,2024,127.583892735961,18.693540146100
$GPGGA,140047.00,3327.7932,N,11902.6687,W,1,10,1.0,11.4,M,-34.5,M,,*6D
$PYRTM,2024,127.583904292836,18.693551702986
$GPGGA,140048.00,3327.7934,N,11902.6685,W,1,10,1.0,11.4,M,-34.5,M,,*66
$PYRTM,2024,127.583911584931,18.693558995069
$GPGGA,140049.00,3327.7936,N,11902.6683,W,1,10,1.0,11.4,M,-34.5,M,,*63
$PYRTM,2024,127.583927441458,18.693574851597
$GPGGA,140050.00,3327.7938,N,11902.6680,W,1,10,1.0,11.5,M,-34.5,M,,*67
$PYRTM,2024,127.583934733900,18.693582144051
$GPGGA,140051.00,3327.7939,N,11902.6675,W,1,10,1.0,11.5,M,-34.5,M,,*6D
$PYRTM,2024,127.583950590590,18.693598000729
$GPGGA,140052.00,3327.7941,N,11902.6671,W,1,10,1.0,11.5,M,-34.5,M,,*65
$PYRTM,2024,127.583962178206,18.693609588345
$GPGGA,140053.00,3327.7943,N,11902.6668,W,1,10,1.0,11.5,M,-34.5,M,,*6E
$PYRTM,2024,127.583973738588,18.693621148738
$GPGGA,140054.00,3327.7944,N,11902.6665,W,1,10,1.0,11.5,M,-34.5,M,,*63
$PYRTM,2024,127.583985325532,18.693632735671
$GPGGA,140055.00,3327.7944,N,11902.6663,W,1,10,1.0,11.5,M,-34.5,M,,*64
$PYRTM,2024,127.583992604271,18.693640014410
$GPGGA,140056.00,3327.7945,N,11902.6660,W,1,10,1.0,11.5,M,-34.5,M,,*65
$PYRTM,2024,127.584008473345,18.693655883484
$GPGGA,140057.00,3327.7946,N,11902.6656,W,1,10,1.0,11.5,M,-34.5,M,,*62
$PYRTM,2024,127.584020035961,18.693667446100
$GPGGA,140058.00,3327.7948,N,11902.6654,W,1,10,1.0,11.5,M,-34.5,M,,*61
$PYRTM,2024,127.584027327824,18.693674737975
$GPGGA,140059.00,3327.7949,N,11902.6651,W,1,10,1.0,11.5,M,-34.5,M,,*64
$PYRTM,2024,127.584043184120,18.693690594259
$GPGGA,140100.00,3327.7950,N,11902.6647,W,1,10,1.0,11.5,M,-34.5,M,,*66
$PYRTM,2024,127.584050476030,18.693697886169
$GPGGA,140101.00,3327.7950,N,11902.6643,W,1,10,1.0,11.5,M,-34.5,M,,*63
$PYRTM,2024,127.584066334317,18.693713744456
$GPGGA,140102.00,3327.7953,N,11902.6641,W,1,10,1.0,11.5,M,-34.5,M,,*61
$PYRTM,2024,127.584077933669,18.693725343808
$GPGGA,140103.00,3327.7954,N,11902.6639,W,1,10,1.0,11.5,M,-34.5,M,,*68
$PYRTM,2024,127.584085196481,18.693732606620
$GPGGA,140104.00,3327.7956,N,11902.6635,W,1,10,1.0,11.5,M,-34.5,M,,*61
$PYRTM,2024,127.584101071794,18.693748481933
$GPGGA,140105.00,3327.7958,N,11902.6631,W,1,10,1.0,11.5,M,-34.5,M,,*6A
$PYRTM,2024,127.584112628333,18.693760038472
$GPGGA,140106.00,3327.7961,N,11902.6627,W,1,10,1.0,11.5,M,-34.5,M,,*64
$PYRTM,2024,127.584124214861,18.693771625000
$GPGGA,140107.00,3327.7964,N,11902.6625,W,1,10,1.0,11.5,M,-34.5,M,,*62
$PYRTM,2024,127.584135776609,18.693783186748
$GPGGA,140108.00,3327.7965,N,11902.6623,W,1,10,1.0,11.5,M,-34.5,M,,*6A
$PYRTM,2024,127.584147364340,18.693794774479
$GPGGA,140109.00,3327.7964,N,11902.6620,W,1,10,1.0,11.6,M,-34.5,M,,*6A
$PYRTM,2024,127.584158927766,18.693806337905
$GPGGA,140110.00,3327.7964,N,11902.6615,W,1,10,1.0,11.6,M,-34.5,M,,*64
$PYRTM,2024,127.584170512674,18.693817922812
$GPGGA,140111.00,3327.7967,N,11902.6612,W,1,10,1.0,11.6,M,-34.5,M,,*61
$PYRTM,2024,127.584182073634,18.693829483773
$GPGGA,140112.00,3327.7971,N,11902.6610,W,1,10,1.0,11.6,M,-34.5,M,,*67
$PYRTM,2024,127.584193660625,18.693841070764
$GPGGA,140113.00,3327.7975,N,11902.6606,W,1,10,1.0,11.6,M,-34.5,M,,*65
$PYRTM,2024,127.584205221215,18.693852631354
$GPGGA,140114.00,3327.7975,N,11902.6602,W,1,10,1.0,11.6,M,-34.5,M,,*66
$PYRTM,2024,127.584216803380,18.693864213519
$GPGGA,140115.00,3327.7974,N,11902.6600,W,1,10,1.0,11.6,M,-34.5,M,,*64
$PYRTM,2024,127.584228371019,18.693875781157
$GPGGA,140116.00,3327.7973,N,11902.6598,W,1,10,1.0,11.7,M,-34.5,M,,*63
$PYRTM,2024,127.584239952917,18.693887363067
$GPGGA,140117.00,3327.7975,N,11902.6595,W,1,10,1.0,11.7,M,-34.5,M,,*69
$PYRTM,2024,127.584251518391,18.693898928530
$GPGGA,140118.00,3327.7979,N,11902.6590,W,1,10,1.0,11.7,M,-34.5,M,,*6F
$PYRTM,2024,127.584258809838,18.693906219977
$GPGGA,140119.00,3327.7980,N,11902.6587,W,1,10,1.0,11.7,M,-34.5,M,,*6E
$PYRTM,2024,127.584270500197,18.693917910336
$GPGGA,140120.00,3327.7981,N,11902.6585,W,1,10,1.0,11.7,M,-34.5,M,,*67
$PYRTM,2024,127.584289035741,18.693936445880
$GPGGA,140121.00,3327.7982,N,11902.6583,W,1,10,1.0,11.7,M,-34.5,M,,*63
$PYRTM,2024,127.584297815544,18.693945225683
$GPGGA,140122.00,3327.7982,N,11902.6579,W,1,10,1.0,11.7,M,-34.5,M,,*65
$PYRTM,2024,127.584309401181,18.693956811319
$GPGGA,140123.00,3327.7983,N,11902.6575,W,1,10,1.0,11.8,M,-34.5,M,,*66
$PYRTM,2024,127.584316696991,18.693964107130
$GPGGA,140124.00,3327.7985,N,11902.6573,W,1,10,1.0,11.8,M,-34.5,M,,*61
$PYRTM,2024,127.584332550405,18.693979960544
$GPGGA,140125.00,3327.7987,N,11902.6571,W,1,10,1.0,11.8,M,-34.5,M,,*60
$PYRTM,2024,127.584344110845,18.693991520984
$GPGGA,140126.00,3327.7989,N,11902.6569,W,1,10,1.0,11.8,M,-34.5,M,,*64
$PYRTM,2024,127.584351403785,18.693998813924
$GPGGA,140127.00,3327.7989,N,11902.6566,W,1,10,1.0,11.8,M,-34.5,M,,*6A
$PYRTM,2024,127.584367261042,18.694014671181
$GPGGA,140128.00,3327.7991,N,11902.6561,W,1,10,1.0,11.8,M,-34.5,M,,*6B
$PYRTM,2024,127.584378843044,18.694026253183
$GPGGA,140129.00,3327.7994,N,11902.6558,W,1,10,1.0,11.8,M,-34.5,M,,*65
$PYRTM,2024,127.584386127801,18.694033537940
$GPGGA,140130.00,3327.7997,N,11902.6555,W,1,10,1.0,11.8,M,-34.5,M,,*63
$PYRTM,2024,127.584401995532,18.694049405671
$GPGGA,140131.00,3327.7997,N,11902.6553,W,1,10,1.0,11.8,M,-34.5,M,,*64
$PYRTM,2024,127.584409275081,18.694056685220
$GPGGA,140132.00,3327.7996,N,11902.6550,W,1,10,1.0,11.8,M,-34.5,M,,*65
$PYRTM,2024,127.584425143831,18.694072553970
$GPGGA,140133.00,3327.7996,N,11902.6546,W,1,10,1.0,11.8,M,-34.5,M,,*63
$PYRTM,2024,127.584432422257,18.694079832396
$GPGGA,140134.00,3327.7998,N,11902.6542,W,1,10,1.0,11.8,M,-34.5,M,,*6E
$PYRTM,2024,127.584444110613,18.694091520752
$GPGGA,140135.00,3327.8000,N,11902.6539,W,1,10,1.0,11.8,M,-34.5,M,,*64
$PYRTM,2024,127.584459853669,18.694107263808
$GPGGA,140136.00,3327.8002,N,11902.6537,W,1,10,1.0,11.8,M,-34.5,M,,*6B
$PYRTM,2024,127.584467144873,18.694114555012
$GPGGA,140137.00,3327.8001,N,11902.6535,W,1,10,1.0,11.8,M,-34.5,M,,*6B
$PYRTM,2024,127.584483004190,18.694130414340
$GPGGA,140138.00,3327.8000,N,11902.6532,W,1,10,1.0,11.8,M,-34.5,M,,*62
$PYRTM,2024,127.584494590058,18.694142000197
$GPGGA,140139.00,3327.8001,N,11902.6529,W,1,10,1.0,11.8,M,-34.5,M,,*68
$PYRTM,2024,127.584506150891,18.694153561030
$GPGGA,140140.00,3327.8004,N,11902.6527,W,1,10,1.0,11.8,M,-34.5,M,,*6D
$PYRTM,2024,127.584517736319,18.694165146458
$GPGGA,140141.00,3327.8008,N,11902.6524,W,1,10,1.0,11.8,M,-34.5,M,,*63
$PYRTM,2024,127.584529299421,18.694176709560
$GPGGA,140142.00,3327.8009,N,11902.6521,W,1,10,1.0,11.8,M,-34.5,M,,*64
$PYRTM,2024,127.584540886551,18.694188296690
$GPGGA,140143.00,3327.8009,N,11902.6517,W,1,10,1.0,11.8,M,-34.5,M,,*60
$PYRTM,2024,127.584552446586,18.694199856725
$GPGGA,140144.00,3327.8008,N,11902.6514,W,1,10,1.0,11.8,M,-34.5,M,,*65
$PYRTM,2024,127.584559737986,18.694207148125
$GPGGA,140145.00,3327.8009,N,11902.6512,W,1,10,1.0,11.8,M,-34.5,M,,*63
$PYRTM,2024,127.584575595278,18.694223005417
$GPGGA,140146.00,3327.8013,N,11902.6511,W,1,10,1.0,11.8,M,-34.5,M,,*68
$PYRTM,2024,127.584587182477,18.694234592616
$GPGGA,140147.00,3327.8016,N,11902.6508,W,1,10,1.0,11.8,M,-34.5,M,,*64
$PYRTM,2024,127.584598742685,18.694246152824
$GPGGA,140148.00,3327.8017,N,11902.6503,W,1,10,1.0,11.8,M,-34.5,M,,*61
$PYRTM,2024,127.584610324641,18.694257734780
$GPGGA,140149.00,3327.8017,N,11902.6498,W,1,10,1.0,11.8,M,-34.5,M,,*63
$PYRTM,2024,127.584617608958,18.694265019097
$GPGGA,140150.00,3327.8018,N,11902.6496,W,1,10,1.0,11.8,M,-34.5,M,,*6A
$PYRTM,2024,127.584629298160,18.694276708299
$GPGGA,140151.00,3327.8018,N,11902.6496,W,1,10,1.0,11.8,M,-34.5,M,,*6B
$PYRTM,2024,127.584645039444,18.694292449583
$GPGGA,140152.00,3327.8019,N,11902.6495,W,1,10,1.0,11.8,M,-34.5,M,,*6A
$PYRTM,2024,127.584656629514,18.694304039653
$GPGGA,140153.00,3327.8020,N,11902.6492,W,1,10,1.0,11.9,M,-34.5,M,,*67
$PYRTM,2024,127.584668187616,18.694315597755
$GPGGA,140154.00,3327.8021,N,11902.6487,W,1,10,1.0,11.9,M,-34.5,M,,*65
$PYRTM,2024,127.584675479352,18.694322889491
$GPGGA,140155.00,3327.8022,N,11902.6482,W,1,10,1.0,11.9,M,-34.5,M,,*62
$PYRTM,2024,127.584691337975,18.694338748113
$GPGGA,140156.00,3327.8023,N,11902.6480,W,1,10,1.0,11.8,M,-34.5,M,,*63
$PYRTM,2024,127.584702923449,18.694350333588
$GPGGA,140157.00,3327.8024,N,11902.6479,W,1,10,1.0,11.8,M,-34.5,M,,*63
$PYRTM,2024,127.584714485937,18.694361896088
$GPGGA,140158.00,3327.8026,N,11902.6477,W,1,10,1.0,11.8,M,-34.5,M,,*60
$PYRTM,2024,127.584726072361,18.694373482500
$GPGGA,140159.00,3327.8026,N,11902.6475,W,1,10,1.0,11.9,M,-34.5,M,,*62
$PYRTM,2024,127.584737631725,18.694385041863
$GPGGA,140200.00,3327.8025,N,11902.6472,W,1,10,1.0,11.9,M,-34.5,M,,*69
$PYRTM,2024,127.584744927025,18.694392337164
$GPGGA,140201.00,3327.8025,N,11902.6470,W,1,10,1.0,11.9,M,-34.5,M,,*6A
$PYRTM,2024,127.584760782025,18.694408192176
$GPGGA,140202.00,3327.8027,N,11902.6467,W,1,10,1.0,12.0,M,-34.5,M,,*67
$PYRTM,2024,127.584772368588,18.694419778727
$GPGGA,140203.00,3327.8030,N,11902.6465,W,1,10,1.0,12.0,M,-34.5,M,,*62
$PYRTM,2024,127.584783930613,18.694431340752
$GPGGA,140204.00,3327.8033,N,11902.6463,W,1,10,1.0,12.0,M,-34.5,M,,*60
$PYRTM,2024,127.584791221516,18.694438631655
$GPGGA,140205.00,3327.8034,N,11902.6461,W,1,10,1.0,12.0,M,-34.5,M,,*64
$PYRTM,2024,127.584807077755,18.694454487894
$GPGGA,140206.00,3327.8033,N,11902.6458,W,1,10,1.0,12.0,M,-34.5,M,,*6A
$PYRTM,2024,127.584814370463,18.694461780602
$GPGGA,140207.00,3327.8033,N,11902.6454,W,1,10,1.0,12.0,M,-34.5,M,,*67
$PYRTM,2024,127.584826058877,18.694473469016
$GPGGA,140208.00,3327.8034,N,11902.6452,W,1,10,1.0,12.0,M,-34.5,M,,*69
$PYRTM,2024,127.584841828391,18.694489238542
$GPGGA,140209.00,3327.8036,N,11902.6451,W,1,10,1.0,12.1,M,-34.5,M,,*68
$PYRTM,2024,127.584853375093,18.694500785243
$GPGGA,140210.00,3327.8038,N,11902.6450,W,1,10,1.0,12.1,M,-34.5,M,,*6F
$PYRTM,2024,127.584864956424,18.694512366574
$GPGGA,140211.00,3327.8037,N,11902.6447,W,1,10,1.0,12.1,M,-34.5,M,,*67
$PYRTM,2024,127.584876522836,18.694523932975
$GPGGA,140212.00,3327.8036,N,11902.6444,W,1,10,1.0,12.1,M,-34.5,M,,*66
$PYRTM,2024,127.584888110278,18.694535520417
$GPGGA,140213.00,3327.8036,N,11902.6442,W,1,10,1.0,12.1,M,-34.5,M,,*61
$PYRTM,2024,127.584899670278,18.694547080417
$GPGGA,140214.00,3327.8038,N,11902.6441,W,1,10,1.0,12.1,M,-34.5,M,,*6B
$PYRTM,2024,127.584911258565,18.694558668704
$GPGGA,140215.00,3327.8040,N,11902.6441,W,1,10,1.0,12.1,M,-34.5,M,,*65
$PYRTM,2024,127.584922819572,18.694570229711
$GPGGA,140216.00,3327.8040,N,11902.6440,W,1,10,1.0,12.1,M,-34.5,M,,*67
$PYRTM,2024,127.584930112685,18.694577522824
$GPGGA,140217.00,3327.8038,N,11902.6438,W,1,10,1.0,12.1,M,-34.5,M,,*66
$PYRTM,2024,127.584945968102,18.694593378241
$GPGGA,140218.00,3327.8037,N,11902.6435,W,1,10,1.0,12.1,M,-34.5,M,,*6B
$PYRTM,2024,127.584957557176,18.694604967315
$GPGGA,140219.00,3327.8040,N,11902.6433,W,1,10,1.0,12.1,M,-34.5,M,,*6C
$PYRTM,2024,127.584964835822,18.694612245961
$GPGGA,140220.00,3327.8043,N,11902.6433,W,1,10,1.0,12.2,M,-34.5,M,,*66
$PYRTM,2024,127.584980698275,18.694628108426
$GPGGA,140221.00,3327.8045,N,11902.6432,W,1,10,1.0,12.2,M,-34.5,M,,*60
$PYRTM,2024,127.584987983194,18.694635393345
$GPGGA,140222.00,3327.8045,N,11902.6431,W,1,10,1.0,12.2,M,-34.5,M,,*60
$PYRTM,2024,127.585003868021,18.694651278160
$GPGGA,140223.00,3327.8043,N,11902.6429,W,1,10,1.0,12.1,M,-34.5,M,,*6D
$PYRTM,2024,127.585015412940,18.694662823079
$GPGGA,140224.00,3327.8044,N,11902.6428,W,1,10,1.0,12.2,M,-34.5,M,,*6F
$PYRTM,2024,127.585027002361,18.694674412500
$GPGGA,140225.00,3327.8045,N,11902.6427,W,1,10,1.0,12.2,M,-34.5,M,,*60
$PYRTM,2024,127.585038561794,18.694685971933
$GPGGA,140226.00,3327.8045,N,11902.6426,W,1,10,1.0,12.2,M,-34.5,M,,*62
$PYRTM,2024,127.585050163090,18.694697573229
$GPGGA,140227.00,3327.8044,N,11902.6426,W,1,10,1.0,12.2,M,-34.5,M,,*62
$PYRTM,2024,127.585061708241,18.694709118380
$GPGGA,140228.00,3327.8045,N,11902.6425,W,1,10,1.0,12.2,M,-34.5,M,,*6F
$PYRTM,2024,127.585073295926,18.694720706076
$GPGGA,140229.00,3327.8046,N,11902.6424,W,1,10,1.0,12.2,M,-34.5,M,,*6C
$PYRTM,2024,127.585084858426,18.694732268565
$GPGGA,140230.00,3327.8047,N,11902.6422,W,1,10,1.0,12.2,M,-34.5,M,,*63
$PYRTM,2024,127.585096445613,18.694743855752
$GPGGA,140231.00,3327.8047,N,11902.6421,W,1,10,1.0,12.2,M,-34.5,M,,*61
$PYRTM,2024,127.585103738507,18.694751148646
$GPGGA,140232.00,3327.8048,N,11902.6421,W,1,10,1.0,12.2,M,-34.5,M,,*6D
$PYRTM,2024,127.585119588090,18.694766998229
$GPGGA,140233.00,3327.8047,N,11902.6421,W,1,10,1.0,12.2,M,-34.5,M,,*63
$PYRTM,2024,127.585131153993,18.694778564144
$GPGGA,140234.00,3327.8047,N,11902.6421,W,1,10,1.0,12.2,M,-34.5,M,,*64
$PYRTM,2024,127.585138445903,18.694785856042
$GPGGA,140235.00,3327.8047,N,11902.6421,W,1,10,1.0,12.2,M,-34.5,M,,*65
$PYRTM,2024,127.585154301875,18.694801712014
$GPGGA,140236.00,3327.8047,N,11902.6421,W,1,10,1.0,12.2,M,-34.5,M,,*66
$PYRTM,2024,127.585165890197,18.694813300336
$GPGGA,140237.00,3327.8049,N,11902.6419,W,1,10,1.0,12.2,M,-34.5,M,,*62
$PYRTM,2024,127.585177452292,18.694824862442
$GPGGA,140238.00,3327.8050,N,11902.6418,W,1,10,1.0,12.2,M,-34.5,M,,*64
$PYRTM,2024,127.585189041505,18.694836451644
$GPGGA,140239.00,3327.8048,N,11902.6419,W,1,10,1.0,12.2,M,-34.5,M,,*6D
$PYRTM,2024,127.585200599780,18.694848009919
$GPGGA,140240.00,3327.8049,N,11902.6420,W,1,10,1.0,12.2,M,-34.5,M,,*68
$PYRTM,2024,127.585212189780,18.694859599919
$GPGGA,140241.00,3327.8050,N,11902.6420,W,1,10,1.0,12.3,M,-34.5,M,,*60
$PYRTM,2024,127.585223747454,18.694871157604
$GPGGA,140242.00,3327.8051,N,11902.6419,W,1,10,1.0,12.3,M,-34.5,M,,*68
$PYRTM,2024,127.585235338079,18.694882748218
$GPGGA,140243.00,3327.8050,N,11902.6419,W,1,10,1.0,12.3,M,-34.5,M,,*68
$PYRTM,2024,127.585246896586,18.694894306725
$GPGGA,140244.00,3327.8049,N,11902.6419,W,1,10,1.0,12.3,M,-34.5,M,,*67
$PYRTM,2024,127.585254189109,18.694901599248
$GPGGA,140245.00,3327.8050,N,11902.6419,W,1,10,1.0,12.3,M,-34.5,M,,*6E
$PYRTM,2024,127.585270058183,18.694917468322
$GPGGA,140246.00,3327.8051,N,11902.6419,W,1,10,1.0,12.3,M,-34.5,M,,*6C
$PYRTM,2024,127.585281632650,18.694929042789
$GPGGA,140247.00,3327.8051,N,11902.6419,W,1,10,1.0,12.2,M,-34.5,M,,*6C
$PYRTM,2024,127.585293202384,18.694940612523
$GPGGA,140248.00,3327.8050,N,11902.6420,W,1,10,1.0,12.3,M,-34.5,M,,*69
$PYRTM,2024,127.585304779931,18.694952190069
$GPGGA,140249.00,3327.8048,N,11902.6422,W,1,10,1.0,12.3,M,-34.5,M,,*63
$PYRTM,2024,127.585316355301,18.694963765440
$GPGGA,140250.00,3327.8049,N,11902.6421,W,1,10,1.0,12.3,M,-34.5,M,,*69
$PYRTM,2024,127.585327926678,18.694975336817
$GPGGA,140251.00,3327.8050,N,11902.6420,W,1,10,1.0,12.3,M,-34.5,M,,*61
$PYRTM,2024,127.585339499919,18.694986910058
$GPGGA,140252.00,3327.8051,N,11902.6421,W,1,10,1.0,12.3,M,-34.5,M,,*62
$PYRTM,2024,127.585346780324,18.694994190463
$GPGGA,140253.00,3327.8051,N,11902.6422,W,1,10,1.0,12.3,M,-34.5,M,,*60
$PYRTM,2024,127.585362650023,18.695010060162
$GPGGA,140254.00,3327.8050,N,11902.6422,W,1,10,1.0,12.3,M,-34.5,M,,*66
$PYRTM,2024,127.585369927627,18.695017337766
$GPGGA,140255.00,3327.8051,N,11902.6422,W,1,10,1.0,12.3,M,-34.5,M,,*66
$PYRTM,2024,127.585385682153,18.695033092292
$GPGGA,140256.00,3327.8052,N,11902.6422,W,1,10,1.0,12.2,M,-34.5,M,,*67
$PYRTM,2024,127.585397375914,18.695044786053
$GPGGA,140257.00,3327.8054,N,11902.6423,W,1,10,1.0,12.2,M,-34.5,M,,*61
$PYRTM,2024,127.585408946412,18.695056356551
$GPGGA,140258.00,3327.8054,N,11902.6424,W,1,10,1.0,12.2,M,-34.5,M,,*69
$PYRTM,2024,127.585420523947,18.695067934086
$GPGGA,140259.00,3327.8053,N,11902.6423,W,1,10,1.0,12.3,M,-34.5,M,,*69
$PYRTM,2024,127.585427810174,18.695075220312
$GPGGA,140300.00,3327.8053,N,11902.6424,W,1,10,1.0,12.3,M,-34.5,M,,*63
$PYRTM,2024,127.585443669317,18.695091079456
$GPGGA,140301.00,3327.8053,N,11902.6424,W,1,10,1.0,12.3,M,-34.5,M,,*62
$PYRTM,2024,127.585455243530,18.695102653669
$GPGGA,140302.00,3327.8053,N,11902.6424,W,1,10,1.0,12.3,M,-34.5,M,,*61
$PYRTM,2024,127.585462522488,18.695109932627
$GPGGA,140303.00,3327.8053,N,11902.6424,W,1,10,1.0,12.3,M,-34.5,M,,*60
$PYRTM,2024,127.585481273727,18.695128683866
$GPGGA,140304.00,3327.8053,N,11902.6425,W,1,10,1.0,12.3,M,-34.5,M,,*66
$PYRTM,2024,127.585489968229,18.695137378368
$GPGGA,140305.00,3327.8053,N,11902.6425,W,1,10,1.0,12.3,M,-34.5,M,,*67
$PYRTM,2024,127.585501539664,18.695148949803
$GPGGA,140306.00,3327.8053,N,11902.6425,W,1,10,1.0,12.3,M,-34.5,M,,*64
$PYRTM,2024,127.585513113681,18.695160523819
$GPGGA,140307.00,3327.8053,N,11902.6426,W,1,10,1.0,12.3,M,-34.5,M,,*66
$PYRTM,2024,127.585524687315,18.695172097454
$GPGGA,140308.00,3327.8052,N,11902.6426,W,1,10,1.0,12.3,M,-34.5,M,,*68
$PYRTM,2024,127.585536262373,18.695183672512
$GPGGA,140309.00,3327.8052,N,11902.6428,W,1,10,1.0,12.5,M,-34.5,M,,*61
$PYRTM,2024,127.585543657801,18.695191067940
$GPGGA,140310.00,3327.8052,N,11902.6429,W,1,10,1.0,12.5,M,-34.5,M,,*68
$PYRTM,2024,127.585559317917,18.695206728056
$GPGGA,140311.00,3327.8054,N,11902.6428,W,1,10,1.0,12.5,M,-34.5,M,,*6E
$PYRTM,2024,127.585570870440,18.695218280579
$GPGGA,140312.00,3327.8054,N,11902.6428,W,1,10,1.0,12.5,M,-34.5,M,,*6D
$PYRTM,2024,127.585582451308,18.695229861447
$GPGGA,140313.00,3327.8054,N,11902.6430,W,1,10,1.0,12.5,M,-34.5,M,,*65
$PYRTM,2024,127.585594018495,18.695241428634
$GPGGA,140314.00,3327.8054,N,11902.6432,W,1,10,1.0,12.5,M,-34.5,M,,*60
$PYRTM,2024,127.585601412731,18.695248822870
$GPGGA,140315.00,3327.8053,N,11902.6434,W,1,10,1.0,12.5,M,-34.5,M,,*60
$PYRTM,2024,127.585617282963,18.695264693102
$GPGGA,140316.00,3327.8053,N,11902.6435,W,1,10,1.0,12.5,M,-34.5,M,,*62
$PYRTM,2024,127.585628856088,18.695276266227
$GPGGA,140317.00,3327.8053,N,11902.6435,W,1,10,1.0,12.5,M,-34.5,M,,*63
$PYRTM,2024,127.585636149155,18.695283559294
$GPGGA,140318.00,3327.8053,N,11902.6436,W,1,10,1.0,12.5,M,-34.5,M,,*6F
$PYRTM,2024,127.585651887512,18.695299297650
$GPGGA,140319.00,3327.8053,N,11902.6437,W,1,10,1.0,12.5,M,-34.5,M,,*6F
$PYRTM,2024,127.585663463519,18.695310873669
$GPGGA,140320.00,3327.8052,N,11902.6439,W,1,10,1.0,12.5,M,-34.5,M,,*6A
$PYRTM,2024,127.585675035567,18.695322445706
$GPGGA,140321.00,3327.8052,N,11902.6440,W,1,10,1.0,12.5,M,-34.5,M,,*65
$PYRTM,2024,127.585686605984,18.695334016123
$GPGGA,140322.00,3327.8052,N,11902.6440,W,1,10,1.0,12.5,M,-34.5,M,,*66
$PYRTM,2024,127.585694006481,18.695341416620
$GPGGA,140323.00,3327.8052,N,11902.6440,W,1,10,1.0,12.5,M,-34.5,M,,*67
$PYRTM,2024,127.585709758889,18.695357169028
$GPGGA,140324.00,3327.8051,N,11902.6441,W,1,10,1.0,12.5,M,-34.5,M,,*62
$PYRTM,2024,127.585717152928,18.695364563067
$GPGGA,140325.00,3327.8050,N,11902.6443,W,1,10,1.0,12.5,M,-34.5,M,,*60
$PYRTM,2024,127.585735802442,18.695383212581
$GPGGA,140326.00,3327.8051,N,11902.6445,W,1,10,1.0,12.5,M,-34.5,M,,*64
$PYRTM,2024,127.585744481204,18.695391891343
$GPGGA,140327.00,3327.8053,N,11902.6447,W,1,10,1.0,12.5,M,-34.5,M,,*65
$PYRTM,2024,127.585756056262,18.695403466400
$GPGGA,140328.00,3327.8054,N,11902.6448,W,1,10,1.0,12.5,M,-34.5,M,,*62
$PYRTM,2024,127.585763451042,18.695410861181
$GPGGA,140329.00,3327.8052,N,11902.6448,W,1,10,1.0,12.5,M,-34.5,M,,*65
$PYRTM,2024,127.585779200428,18.695426610567
$GPGGA,140330.00,3327.8050,N,11902.6448,W,1,10,1.0,12.5,M,-34.5,M,,*6F
$PYRTM,2024,127.585790786262,18.695438196400
$GPGGA,140331.00,3327.8049,N,11902.6449,W,1,10,1.0,12.5,M,-34.5,M,,*67
$PYRTM,2024,127.585802353090,18.695449763241
$GPGGA,140332.00,3327.8052,N,11902.6452,W,1,10,1.0,12.5,M,-34.5,M,,*64
$PYRTM,2024,127.585809747870,18.695457158009
$GPGGA,140333.00,3327.8054,N,11902.6454,W,1,10,1.0,12.5,M,-34.5,M,,*65
$PYRTM,2024,127.585821452766,18.695468862905
$GPGGA,140334.00,3327.8052,N,11902.6456,W,1,10,1.0,12.4,M,-34.5,M,,*67
$PYRTM,2024,127.585839969630,18.695487379769
$GPGGA,140335.00,3327.8049,N,11902.6456,W,1,10,1.0,12.4,M,-34.5,M,,*6C
$PYRTM,2024,127.585848645648,18.695496055787
$GPGGA,140336.00,3327.8047,N,11902.6455,W,1,10,1.0,12.4,M,-34.5,M,,*62
$PYRTM,2024,127.585860223495,18.695507633646
$GPGGA,140337.00,3327.8049,N,11902.6456,W,1,10,1.0,12.4,M,-34.5,M,,*6E
$PYRTM,2024,127.585867630243,18.695515040382
$GPGGA,140338.00,3327.8051,N,11902.6459,W,1,10,1.0,12.5,M,-34.5,M,,*66
$PYRTM,2024,127.585883372431,18.695530782569
$GPGGA,140339.00,3327.8051,N,11902.6462,W,1,10,1.0,12.5,M,-34.5,M,,*6F
$PYRTM,2024,127.585890772072,18.695538182222
$GPGGA,140340.00,3327.8049,N,11902.6462,W,1,10,1.0,12.5,M,-34.5,M,,*68
$PYRTM,2024,127.585902456157,18.695549866308
$GPGGA,140341.00,3327.8047,N,11902.6461,W,1,10,1.0,12.5,M,-34.5,M,,*64
$PYRTM,2024,127.585918088519,18.695565498657
$GPGGA,140342.00,3327.8049,N,11902.6462,W,1,10,1.0,12.5,M,-34.5,M,,*6A
$PYRTM,2024,127.585929667639,18.695577077778
$GPGGA,140343.00,3327.8051,N,11902.6464,W,1,10,1.0,12.5,M,-34.5,M,,*64
$PYRTM,2024,127.585941243403,18.695588653553
$GPGGA,140344.00,3327.8051,N,11902.6467,W,1,10,1.0,12.5,M,-34.5,M,,*60
$PYRTM,2024,127.585952841562,18.695600251701
$GPGGA,140345.00,3327.8048,N,11902.6468,W,1,10,1.0,12.5,M,-34.5,M,,*66
$PYRTM,2024,127.585960222037,18.695607632187
$GPGGA,140346.00,3327.8046,N,11902.6467,W,1,10,1.0,12.5,M,-34.5,M,,*64
$PYRTM,2024,127.585975973021,18.695623383160
$GPGGA,140347.00,3327.8047,N,11902.6468,W,1,10,1.0,12.5,M,-34.5,M,,*6B
$PYRTM,2024,127.585987538773,18.695634948912
$GPGGA,140348.00,3327.8049,N,11902.6471,W,1,10,1.0,12.5,M,-34.5,M,,*62
$PYRTM,2024,127.585999113183,18.695646523322
$GPGGA,140349.00,3327.8050,N,11902.6475,W,1,10,1.0,12.6,M,-34.5,M,,*6C
$PYRTM,2024,127.586010687234,18.695658097373
$GPGGA,140350.00,3327.8048,N,11902.6476,W,1,10,1.0,12.5,M,-34.5,M,,*6D
$PYRTM,2024,127.586022260486,18.695669670625
$GPGGA,140351.00,3327.8046,N,11902.6475,W,1,10,1.0,12.5,M,-34.5,M,,*61
$PYRTM,2024,127.586033834745,18.695681244884
$GPGGA,140352.00,3327.8045,N,11902.6475,W,1,10,1.0,12.5,M,-34.5,M,,*61
$PYRTM,2024,127.586045421065,18.695692831204
$GPGGA,140353.00,3327.8047,N,11902.6477,W,1,10,1.0,12.5,M,-34.5,M,,*60
$PYRTM,2024,127.586056985579,18.695704395718
$GPGGA,140354.00,3327.8048,N,11902.6479,W,1,10,1.0,12.6,M,-34.5,M,,*65
$PYRTM,2024,127.586068568808,18.695715978947
$GPGGA,140355.00,3327.8049,N,11902.6482,W,1,10,1.0,12.6,M,-34.5,M,,*61
$PYRTM,2024,127.586080132639,18.695727542778
$GPGGA,140356.00,3327.8048,N,11902.6484,W,1,10,1.0,12.6,M,-34.5,M,,*65
$PYRTM,2024,127.586087525938,18.695734936076
$GPGGA,140357.00,3327.8047,N,11902.6484,W,1,10,1.0,12.6,M,-34.5,M,,*6B
$PYRTM,2024,127.586103279780,18.695750689931
$GPGGA,140358.00,3327.8046,N,11902.6483,W,1,10,1.0,12.6,M,-34.5,M,,*62
$PYRTM,2024,127.586114854201,18.695762264352
$GPGGA,140359.00,3327.8046,N,11902.6484,W,1,10,1.0,12.6,M,-34.5,M,,*64
$PYRTM,2024,127.586126427859,18.695773837998
$GPGGA,140400.00,3327.8047,N,11902.6487,W,1,10,1.0,12.6,M,-34.5,M,,*6D
$PYRTM,2024,127.586138010799,18.695785420937
$GPGGA,140401.00,3327.8046,N,11902.6490,W,1,10,1.0,12.6,M,-34.5,M,,*6B
$PYRTM,2024,127.586149572083,18.695796982222
$GPGGA,140402.00,3327.8044,N,11902.6492,W,1,10,1.0,12.6,M,-34.5,M,,*68
$PYRTM,2024,127.586161159144,18.695808569282
$GPGGA,140403.00,3327.8042,N,11902.6493,W,1,10,1.0,12.7,M,-34.5,M,,*6F
$PYRTM,2024,127.586172724190,18.695820134329
$GPGGA,140404.00,3327.8042,N,11902.6493,W,1,10,1.0,12.7,M,-34.5,M,,*68
$PYRTM,2024,127.586180121030,18.695827531169
$GPGGA,140405.00,3327.8043,N,11902.6495,W,1,10,1.0,12.7,M,-34.5,M,,*6E
$PYRTM,2024,127.586198765822,18.695846175961
$GPGGA,140406.00,3327.8044,N,11902.6498,W,1,10,1.0,12.7,M,-34.5,M,,*67
$PYRTM,2024,127.586207449965,18.695854860104
$GPGGA,140407.00,3327.8043,N,11902.6500,W,1,10,1.0,12.6,M,-34.5,M,,*60
$PYRTM,2024,127.586219023299,18.695866433437
$GPGGA,140408.00,3327.8043,N,11902.6500,W,1,10,1.0,12.6,M,-34.5,M,,*6F
$PYRTM,2024,127.586230595451,18.695878005590
$GPGGA,140409.00,3327.8042,N,11902.6501,W,1,10,1.0,12.6,M,-34.5,M,,*6E
$PYRTM,2024,127.586242166412,18.695889576551
$GPGGA,140410.00,3327.8042,N,11902.6502,W,1,10,1.0,12.6,M,-34.5,M,,*65
$PYRTM,2024,127.586253743981,18.695901154120
$GPGGA,140411.00,3327.8042,N,11902.6506,W,1,10,1.0,12.6,M,-34.5,M,,*60
$PYRTM,2024,127.586265319676,18.695912729826
$GPGGA,140412.00,3327.8043,N,11902.6509,W,1,10,1.0,12.6,M,-34.5,M,,*6D
$PYRTM,2024,127.586276891968,18.695924302106
$GPGGA,140413.00,3327.8043,N,11902.6510,W,1,10,1.0,12.6,M,-34.5,M,,*64
$PYRTM,2024,127.586288461308,18.695935871447
$GPGGA,140414.00,3327.8042,N,11902.6508,W,1,10,1.0,12.6,M,-34.5,M,,*6B
$PYRTM,2024,127.586300051771,18.695947461910
$GPGGA,140415.00,3327.8040,N,11902.6508,W,1,10,1.0,12.6,M,-34.5,M,,*68
$PYRTM,2024,127.586311609502,18.695959019641
$GPGGA,140416.00,3327.8039,N,11902.6512,W,1,10,1.0,12.6,M,-34.5,M,,*6E
$PYRTM,2024,127.586323197500,18.695970607639
$GPGGA,140417.00,3327.8040,N,11902.6517,W,1,10,1.0,12.6,M,-34.5,M,,*64
$PYRTM,2024,127.586334765903,18.695982176042
$GPGGA,140418.00,3327.8041,N,11902.6519,W,1,10,1.0,12.7,M,-34.5,M,,*65
$PYRTM,2024,127.586346345336,18.695993755475
$GPGGA,140419.00,3327.8040,N,11902.6519,W,1,10,1.0,12.7,M,-34.5,M,,*65
$PYRTM,2024,127.586357911435,18.696005321574
$GPGGA,140420.00,3327.8036,N,11902.6519,W,1,10,1.0,12.7,M,-34.5,M,,*6E
$PYRTM,2024,127.586369496701,18.696016906840
$GPGGA,140421.00,3327.8035,N,11902.6522,W,1,10,1.0,12.7,M,-34.5,M,,*64
$PYRTM,2024,127.586381060208,18.696028470347
$GPGGA,140422.00,3327.8036,N,11902.6525,W,1,10,1.0,12.7,M,-34.5,M,,*63
$PYRTM,2024,127.586388455822,18.696035865961
$GPGGA,140423.00,3327.8038,N,11902.6528,W,1,10,1.0,12.7,M,-34.5,M,,*61
$PYRTM,2024,127.586404207500,18.696051617639
$GPGGA,140424.00,3327.8038,N,11902.6530,W,1,10,1.0,12.7,M,-34.5,M,,*6F
$PYRTM,2024,127.586415781794,18.696063191933
$GPGGA,140425.00,3327.8036,N,11902.6532,W,1,10,1.0,12.6,M,-34.5,M,,*63
$PYRTM,2024,127.586427356991,18.696074767130
$GPGGA,140426.00,3327.8033,N,11902.6533,W,1,10,1.0,12.6,M,-34.5,M,,*64
$PYRTM,2024,127.586438931713,18.696086341852
$GPGGA,140427.00,3327.8030,N,11902.6534,W,1,10,1.0,12.5,M,-34.5,M,,*62
$PYRTM,2024,127.586446332477,18.696093742616
$GPGGA,140428.00,3327.8031,N,11902.6537,W,1,10,1.0,12.5,M,-34.5,M,,*6F
$PYRTM,2024,127.586458016655,18.696105426794
$GPGGA,140429.00,3327.8033,N,11902.6539,W,1,10,1.0,12.5,M,-34.5,M,,*62
$PYRTM,2024,127.586473653727,18.696121063866
$GPGGA,140430.00,3327.8033,N,11902.6541,W,1,10,1.0,12.5,M,-34.5,M,,*65
$PYRTM,2024,127.586485239074,18.696132649213
$GPGGA,140431.00,3327.8030,N,11902.6542,W,1,10,1.0,12.5,M,-34.5,M,,*64
$PYRTM,2024,127.586496802269,18.696144212407
$GPGGA,140432.00,3327.8027,N,11902.6543,W,1,10,1.0,12.5,M,-34.5,M,,*60
$PYRTM,2024,127.586508400845,18.696155810984
$GPGGA,140433.00,3327.8028,N,11902.6544,W,1,10,1.0,12.5,M,-34.5,M,,*69
$PYRTM,2024,127.586519949745,18.696167359884
$GPGGA,140434.00,3327.8030,N,11902.6546,W,1,10,1.0,12.4,M,-34.5,M,,*64
$PYRTM,2024,127.586531532187,18.696178942338
$GPGGA,140435.00,3327.8032,N,11902.6549,W,1,10,1.0,12.4,M,-34.5,M,,*68
$PYRTM,2024,127.586538930208,18.696186340347
$GPGGA,140436.00,3327.8029,N,11902.6551,W,1,10,1.0,12.4,M,-34.5,M,,*68
$PYRTM,2024,127.586557569039,18.696204979178
$GPGGA,140437.00,3327.8026,N,11902.6552,W,1,10,1.0,12.4,M,-34.5,M,,*65
$PYRTM,2024,127.586569139931,18.696216550069
$GPGGA,140438.00,3327.8023,N,11902.6554,W,1,10,1.0,12.4,M,-34.5,M,,*69
$PYRTM,2024,127.586580714583,18.696228124722
$GPGGA,140439.00,3327.8024,N,11902.6556,W,1,10,1.0,12.4,M,-34.5,M,,*6D
$PYRTM,2024,127.586589390312,18.696236800451
$GPGGA,140440.00,3327.8026,N,11902.6558,W,1,10,1.0,12.4,M,-34.5,M,,*6F
$PYRTM,2024,127.586600981111,18.696248391262
$GPGGA,140441.00,3327.8027,N,11902.6560,W,1,10,1.0,12.3,M,-34.5,M,,*63
$PYRTM,2024,127.586612544815,18.696259954954
$GPGGA,140442.00,3327.8026,N,11902.6561,W,1,10,1.0,12.3,M,-34.5,M,,*60
$PYRTM,2024,127.586624128495,18.696271538634
$GPGGA,140443.00,3327.8022,N,11902.6562,W,1,10,1.0,12.3,M,-34.5,M,,*66
$PYRTM,2024,127.586635691528,18.696283101667
$GPGGA,140444.00,3327.8021,N,11902.6565,W,1,10,1.0,12.3,M,-34.5,M,,*65
$PYRTM,2024,127.586647276586,18.696294686725
$GPGGA,140445.00,3327.8021,N,11902.6568,W,1,10,1.0,12.3,M,-34.5,M,,*69
$PYRTM,2024,127.586658839838,18.696306249977
$GPGGA,140446.00,3327.8021,N,11902.6571,W,1,10,1.0,12.3,M,-34.5,M,,*62
$PYRTM,2024,127.586670413912,18.696317824051
$GPGGA,140447.00,3327.8020,N,11902.6572,W,1,10,1.0,12.3,M,-34.5,M,,*61
$PYRTM,2024,127.586677820984,18.696325231123
$GPGGA,140448.00,3327.8018,N,11902.6572,W,1,10,1.0,12.3,M,-34.5,M,,*65
$PYRTM,2024,127.586693569711,18.696340979861
$GPGGA,140449.00,3327.8018,N,11902.6573,W,1,10,1.0,12.3,M,-34.5,M,,*65
$PYRTM,2024,127.586705131088,18.696352541227
$GPGGA,140450.00,3327.8019,N,11902.6577,W,1,10,1.0,12.4,M,-34.5,M,,*6F
$PYRTM,2024,127.586716730289,18.696364140440
$GPGGA,140451.00,3327.8020,N,11902.6580,W,1,10,1.0,12.4,M,-34.5,M,,*6C
$PYRTM,2024,127.586728285324,18.696375695463
$GPGGA,140452.00,3327.8018,N,11902.6582,W,1,10,1.0,12.4,M,-34.5,M,,*66
$PYRTM,2024,127.586735679201,18.696383089340
$GPGGA,140453.00,3327.8015,N,11902.6583,W,1,10,1.0,12.4,M,-34.5,M,,*6B
$PYRTM,2024,127.586751432743,18.696398842894
$GPGGA,140454.00,3327.8014,N,11902.6584,W,1,10,1.0,12.4,M,-34.5,M,,*6A
$PYRTM,2024,127.586763018032,18.696410428171
$GPGGA,140455.00,3327.8014,N,11902.6588,W,1,10,1.0,12.5,M,-34.5,M,,*66
$PYRTM,2024,127.586774580486,18.696421990625
$GPGGA,140456.00,3327.8015,N,11902.6590,W,1,10,1.0,12.5,M,-34.5,M,,*6D
$PYRTM,2024,127.586786178137,18.696433588275
$GPGGA,140457.00,3327.8014,N,11902.6592,W,1,10,1.0,12.5,M,-34.5,M,,*6F
$PYRTM,2024,127.586793561748,18.696440971898
$GPGGA,140458.00,3327.8012,N,11902.6594,W,1,10,1.0,12.5,M,-34.5,M,,*60
$PYRTM,2024,127.586809303854,18.696456713993
$GPGGA,140459.00,3327.8010,N,11902.6595,W,1,10,1.0,12.5,M,-34.5,M,,*62
$PYRTM,2024,127.586820877500,18.696468287639
$GPGGA,140500.00,3327.8009,N,11902.6598,W,1,10,1.0,12.5,M,-34.5,M,,*6A
$PYRTM,2024,127.586828272813,18.696475682951
$GPGGA,140501.00,3327.8009,N,11902.6601,W,1,10,1.0,12.5,M,-34.5,M,,*68
$PYRTM,2024,127.586839977350,18.696487387488
$GPGGA,140502.00,3327.8009,N,11902.6604,W,1,10,1.0,12.5,M,-34.5,M,,*6E
$PYRTM,2024,127.586855601169,18.696503011308
$GPGGA,140503.00,3327.8008,N,11902.6606,W,1,10,1.0,12.5,M,-34.5,M,,*6C
$PYRTM,2024,127.586867174468,18.696514584606
$GPGGA,140504.00,3327.8007,N,11902.6607,W,1,10,1.0,12.5,M,-34.5,M,,*65
$PYRTM,2024,127.586878760093,18.696526170243
$GPGGA,140505.00,3327.8006,N,11902.6609,W,1,10,1.0,12.5,M,-34.5,M,,*6B
$PYRTM,2024,127.586886150312,18.696533560451
$GPGGA,140506.00,3327.8006,N,11902.6612,W,1,10,1.0,12.5,M,-34.5,M,,*62
$PYRTM,2024,127.586897832650,18.696545242789
$GPGGA,140507.00,3327.8005,N,11902.6616,W,1,10,1.0,12.5,M,-34.5,M,,*64
$PYRTM,2024,127.586916364421,18.696563774560
$GPGGA,140508.00,3327.8003,N,11902.6618,W,1,10,1.0,12.5,M,-34.5,M,,*63
$PYRTM,2024,127.586925161007,18.696572571146
$GPGGA,140509.00,3327.8003,N,11902.6618,W,1,10,1.0,12.5,M,-34.5,M,,*62
$PYRTM,2024,127.586936735081,18.696584145220
$GPGGA,140510.00,3327.8003,N,11902.6619,W,1,10,1.0,12.5,M,-34.5,M,,*6B
$PYRTM,2024,127.586948312940,18.696595723079
$GPGGA,140511.00,3327.8003,N,11902.6622,W,1,10,1.0,12.5,M,-34.5,M,,*62
$PYRTM,2024,127.586959883056,18.696607293194
$GPGGA,140512.00,3327.8002,N,11902.6626,W,1,10,1.0,12.5,M,-34.5,M,,*64
$PYRTM,2024,127.586971472940,18.696618883090
$GPGGA,140513.00,3327.8000,N,11902.6628,W,1,10,1.0,12.5,M,-34.5,M,,*69
$PYRTM,2024,127.586983031435,18.696630441574
$GPGGA,140514.00,3327.7999,N,11902.6629,W,1,10,1.0,12.5,M,-34.5,M,,*69
$PYRTM,2024,127.586994619653,18.696642029792
$GPGGA,140515.00,3327.7998,N,11902.6631,W,1,10,1.0,12.5,M,-34.5,M,,*60
$PYRTM,2024,127.587002002685,18.696649412836
$GPGGA,140516.00,3327.7998,N,11902.6636,W,1,10,1.0,12.5,M,-34.5,M,,*64
$PYRTM,2024,127.587017650324,18.696665060463
$GPGGA,140517.00,3327.7997,N,11902.6639,W,1,10,1.0,12.5,M,-34.5,M,,*65
$PYRTM,2024,127.587029208322,18.696676618472
$GPGGA,140518.00,3327.7997,N,11902.6640,W,1,10,1.0,12.4,M,-34.5,M,,*65
$PYRTM,2024,127.587040797257,18.696688207396
$GPGGA,140519.00,3327.7996,N,11902.6641,W,1,10,1.0,12.4,M,-34.5,M,,*64
$PYRTM,2024,127.587052360741,18.696699770880
$GPGGA,140520.00,3327.7994,N,11902.6644,W,1,10,1.0,12.4,M,-34.5,M,,*69
$PYRTM,2024,127.587059758727,18.696707168866
$GPGGA,140521.00,3327.7993,N,11902.6648,W,1,10,1.0,12.4,M,-34.5,M,,*63
$PYRTM,2024,127.587075504248,18.696722914387
$GPGGA,140522.00,3327.7992,N,11902.6651,W,1,10,1.0,12.4,M,-34.5,M,,*69
$PYRTM,2024,127.587087083414,18.696734493553
$GPGGA,140523.00,3327.7991,N,11902.6653,W,1,10,1.0,12.5,M,-34.5,M,,*68
$PYRTM,2024,127.587098653507,18.696746063657
$GPGGA,140524.00,3327.7991,N,11902.6655,W,1,10,1.0,12.4,M,-34.5,M,,*68
$PYRTM,2024,127.587110242812,18.696757652951
$GPGGA,140525.00,3327.7990,N,11902.6656,W,1,10,1.0,12.5,M,-34.5,M,,*6A
$PYRTM,2024,127.587117639456,18.696765049606
$GPGGA,140526.00,3327.7988,N,11902.6658,W,1,10,1.0,12.4,M,-34.5,M,,*6F
$PYRTM,2024,127.587133388160,18.696780798299
$GPGGA,140527.00,3327.7987,N,11902.6660,W,1,10,1.0,12.4,M,-34.5,M,,*6A
$PYRTM,2024,127.587144953866,18.696792364005
$GPGGA,140528.00,3327.7987,N,11902.6664,W,1,10,1.0,12.5,M,-34.5,M,,*60
$PYRTM,2024,127.587156548333,18.696803958472
$GPGGA,140529.00,3327.7988,N,11902.6667,W,1,10,1.0,12.4,M,-34.5,M,,*6C
$PYRTM,2024,127.587168102442,18.696815512581
$GPGGA,140530.00,3327.7987,N,11902.6669,W,1,10,1.0,12.4,M,-34.5,M,,*65
$PYRTM,2024,127.587175498310,18.696822908449
$GPGGA,140531.00,3327.7985,N,11902.6670,W,1,10,1.0,12.4,M,-34.5,M,,*6E
$PYRTM,2024,127.587191250486,18.696838660637
$GPGGA,140532.00,3327.7983,N,11902.6671,W,1,10,1.0,12.4,M,-34.5,M,,*6A
$PYRTM,2024,127.587202824942,18.696850235081
$GPGGA,140533.00,3327.7981,N,11902.6675,W,1,10,1.0,12.4,M,-34.5,M,,*6D
$PYRTM,2024,127.587210232870,18.696857643009
$GPGGA,140534.00,3327.7982,N,11902.6679,W,1,10,1.0,12.4,M,-34.5,M,,*65
$PYRTM,2024,127.587228868044,18.696876278183
$GPGGA,140535.00,3327.7982,N,11902.6683,W,1,10,1.0,12.4,M,-34.5,M,,*61
$PYRTM,2024,127.587237548576,18.696884958715
$GPGGA,140536.00,3327.7979,N,11902.6684,W,1,10,1.0,12.4,M,-34.5,M,,*61
$PYRTM,2024,127.587249121181,18.696896531319
$GPGGA,140537.00,3327.7974,N,11902.6685,W,1,10,1.0,12.3,M,-34.5,M,,*6B
$PYRTM,2024,127.587256528356,18.696903938495
$GPGGA,140538.00,3327.7973,N,11902.6687,W,1,10,1.0,12.3,M,-34.5,M,,*61
$PYRTM,2024,127.587275163553,18.696922573692
$GPGGA,140539.00,3327.7974,N,11902.6692,W,1,10,1.0,12.3,M,-34.5,M,,*63
$PYRTM,2024,127.587283844132,18.696931254271
$GPGGA,140540.00,3327.7974,N,11902.6696,W,1,10,1.0,12.3,M,-34.5,M,,*69
$PYRTM,2024,127.587291239317,18.696938649456
$GPGGA,140541.00,3327.7972,N,11902.6698,W,1,10,1.0,12.3,M,-34.5,M,,*60
$PYRTM,2024,127.587306992315,18.696954402454
$GPGGA,140542.00,3327.7970,N,11902.6698,W,1,10,1.0,12.3,M,-34.5,M,,*61
$PYRTM,2024,127.587318573831,18.696965983970
$GPGGA,140543.00,3327.7968,N,11902.6699,W,1,10,1.0,12.3,M,-34.5,M,,*68
$PYRTM,2024,127.587330140463,18.696977550602
$GPGGA,140544.00,3327.7968,N,11902.6704,W,1,10,1.0,12.3,M,-34.5,M,,*6A
$PYRTM,2024,127.587341722604,18.696989132743
$GPGGA,140545.00,3327.7968,N,11902.6708,W,1,10,1.0,12.3,M,-34.5,M,,*67
$PYRTM,2024,127.587349116759,18.696996526898
$GPGGA,140546.00,3327.7968,N,11902.6710,W,1,10,1.0,12.3,M,-34.5,M,,*6D
$PYRTM,2024,127.587364875012,18.697012285150
$GPGGA,140547.00,3327.7966,N,11902.6711,W,1,10,1.0,12.4,M,-34.5,M,,*64
$PYRTM,2024,127.587376437442,18.697023847593
$GPGGA,140548.00,3327.7965,N,11902.6713,W,1,10,1.0,12.4,M,-34.5,M,,*6A
$PYRTM,2024,127.587383832141,18.697031242280
$GPGGA,140549.00,3327.7964,N,11902.6715,W,1,10,1.0,12.4,M,-34.5,M,,*6C
$PYRTM,2024,127.587399586146,18.697046996285
$GPGGA,140550.00,3327.7964,N,11902.6718,W,1,10,1.0,12.4,M,-34.5,M,,*69
$PYRTM,2024,127.587406979444,18.697054389583
$GPGGA,140551.00,3327.7963,N,11902.6721,W,1,10,1.0,12.4,M,-34.5,M,,*65
$PYRTM,2024,127.587422732859,18.697070142998
$GPGGA,140552.00,3327.7961,N,11902.6725,W,1,10,1.0,12.4,M,-34.5,M,,*60
$PYRTM,2024,127.587434318426,18.697081728565
$GPGGA,140553.00,3327.7958,N,11902.6727,W,1,10,1.0,12.4,M,-34.5,M,,*69
$PYRTM,2024,127.587445881412,18.697093291551
$GPGGA,140554.00,3327.7957,N,11902.6729,W,1,10,1.0,12.4,M,-34.5,M,,*6F
$PYRTM,2024,127.587457455833,18.697104865972
$GPGGA,140555.00,3327.7958,N,11902.6731,W,1,10,1.0,12.4,M,-34.5,M,,*68
$PYRTM,2024,127.587464857315,18.697112267454
$GPGGA,140556.00,3327.7958,N,11902.6735,W,1,10,1.0,12.5,M,-34.5,M,,*6E
$PYRTM,2024,127.587480603981,18.697128014120
$GPGGA,140557.00,3327.7955,N,11902.6739,W,1,10,1.0,12.5,M,-34.5,M,,*6E
$PYRTM,2024,127.587492178796,18.697139588935
$GPGGA,140558.00,3327.7953,N,11902.6740,W,1,10,1.0,12.5,M,-34.5,M,,*69
$PYRTM,2024,127.587499573229,18.697146983380
$GPGGA,140559.00,3327.7950,N,11902.6742,W,1,10,1.0,12.5,M,-34.5,M,,*69
$PYRTM,2024,127.587515327199,18.697162737338
$GPGGA,140600.00,3327.7949,N,11902.6744,W,1,10,1.0,12.5,M,-34.5,M,,*68
$PYRTM,2024,127.587526909016,18.697174319155
$GPGGA,140601.00,3327.7950,N,11902.6749,W,1,10,1.0,12.5,M,-34.5,M,,*6C
$PYRTM,2024,127.587534308160,18.697181718299
$GPGGA,140602.00,3327.7950,N,11902.6753,W,1,10,1.0,12.5,M,-34.5,M,,*64
$PYRTM,2024,127.587550058600,18.697197468738
$GPGGA,140603.00,3327.7950,N,11902.6754,W,1,10,1.0,12.5,M,-34.5,M,,*62
$PYRTM,2024,127.587561623032,18.697209033171
$GPGGA,140604.00,3327.7948,N,11902.6753,W,1,10,1.0,12.5,M,-34.5,M,,*6B
$PYRTM,2024,127.587573208831,18.697220618970
$GPGGA,140605.00,3327.7947,N,11902.6757,W,1,10,1.0,12.5,M,-34.5,M,,*61
$PYRTM,2024,127.587580605127,18.697228015266
$GPGGA,140606.00,3327.7946,N,11902.6762,W,1,10,1.0,12.5,M,-34.5,M,,*65
$PYRTM,2024,127.587596357963,18.697243768102
$GPGGA,140607.00,3327.7945,N,11902.6766,W,1,10,1.0,12.6,M,-34.5,M,,*60
$PYRTM,2024,127.587607920347,18.697255330486
$GPGGA,140608.00,3327.7945,N,11902.6765,W,1,10,1.0,12.7,M,-34.5,M,,*6D
$PYRTM,2024,127.587615314456,18.697262724606
$GPGGA,140609.00,3327.7944,N,11902.6766,W,1,10,1.0,12.7,M,-34.5,M,,*6E
$PYRTM,2024,127.587633961817,18.697281371956
$GPGGA,140610.00,3327.7942,N,11902.6770,W,1,10,1.0,12.7,M,-34.5,M,,*67
$PYRTM,2024,127.587642654433,18.697290064572
$GPGGA,140611.00,3327.7940,N,11902.6775,W,1,10,1.0,12.7,M,-34.5,M,,*61
$PYRTM,2024,127.587654217431,18.697301627569
$GPGGA,140612.00,3327.7939,N,11902.6775,W,1,10,1.0,12.7,M,-34.5,M,,*6C
$PYRTM,2024,127.587665802870,18.697313213009
$GPGGA,140613.00,3327.7937,N,11902.6774,W,1,10,1.0,12.7,M,-34.5,M,,*62
$PYRTM,2024,127.587677366574,18.697324776713
$GPGGA,140614.00,3327.7935,N,11902.6776,W,1,10,1.0,12.7,M,-34.5,M,,*65
$PYRTM,2024,127.587688965220,18.697336375359
$GPGGA,140615.00,3327.7933,N,11902.6781,W,1,10,1.0,12.7,M,-34.5,M,,*6A
$PYRTM,2024,127.587700508067,18.697347918206
$GPGGA,140616.00,3327.7932,N,11902.6786,W,1,10,1.0,12.7,M,-34.5,M,,*6F
$PYRTM,2024,127.587707907685,18.697355317824
$GPGGA,140617.00,3327.7932,N,11902.6787,W,1,10,1.0,12.7,M,-34.5,M,,*6F
$PYRTM,2024,127.587723662269,18.697371072407
$GPGGA,140618.00,3327.7930,N,11902.6786,W,1,10,1.0,12.7,M,-34.5,M,,*63
$PYRTM,2024,127.587731058495,18.697378468634
$GPGGA,140619.00,3327.7929,N,11902.6788,W,1,10,1.0,12.7,M,-34.5,M,,*64
$PYRTM,2024,127.587746810463,18.697394220602
$GPGGA,140620.00,3327.7929,N,11902.6793,W,1,10,1.0,12.7,M,-34.5,M,,*64
$PYRTM,2024,127.587758383912,18.697405794063
$GPGGA,140621.00,3327.7930,N,11902.6795,W,1,10,1.0,12.7,M,-34.5,M,,*6B
$PYRTM,2024,127.587765793831,18.697413203970
$GPGGA,140622.00,3327.7930,N,11902.6796,W,1,10,1.0,12.7,M,-34.5,M,,*6B
$PYRTM,2024,127.587781532951,18.697428943090
$GPGGA,140623.00,3327.7928,N,11902.6796,W,1,10,1.0,12.6,M,-34.5,M,,*62
$PYRTM,2024,127.587793107118,18.697440517269
$GPGGA,140624.00,3327.7926,N,11902.6798,W,1,10,1.0,12.6,M,-34.5,M,,*65
$PYRTM,2024,127.587804680822,18.697452090961
$GPGGA,140625.00,3327.7924,N,11902.6803,W,1,10,1.0,12.7,M,-34.5,M,,*6A
$PYRTM,2024,127.587816250162,18.697463660301
$GPGGA,140626.00,3327.7924,N,11902.6806,W,1,10,1.0,12.7,M,-34.5,M,,*6C
$PYRTM,2024,127.587827828866,18.697475239005
$GPGGA,140627.00,3327.7924,N,11902.6807,W,1,10,1.0,12.7,M,-34.5,M,,*6C
$PYRTM,2024,127.587839398877,18.697486809016
$GPGGA,140628.00,3327.7921,N,11902.6808,W,1,10,1.0,12.7,M,-34.5,M,,*69
$PYRTM,2024,127.587850977211,18.697498387350
$GPGGA,140629.00,3327.7918,N,11902.6809,W,1,10,1.0,12.7,M,-34.5,M,,*63
$PYRTM,2024,127.587862551586,18.697509961725
$GPGGA,140630.00,3327.7917,N,11902.6812,W,1,10,1.0,12.7,M,-34.5,M,,*6E
$PYRTM,2024,127.587874145694,18.697521555833
$GPGGA,140631.00,3327.7916,N,11902.6816,W,1,10,1.0,12.7,M,-34.5,M,,*6A
$PYRTM,2024,127.587881532766,18.697528942905
$GPGGA,140632.00,3327.7915,N,11902.6820,W,1,10,1.0,12.7,M,-34.5,M,,*6F
$PYRTM,2024,127.587897282187,18.697544692326
$GPGGA,140633.00,3327.7913,N,11902.6822,W,1,10,1.0,12.7,M,-34.5,M,,*6A
$PYRTM,2024,127.587908848403,18.697556258542
$GPGGA,140634.00,3327.7912,N,11902.6823,W,1,10,1.0,12.8,M,-34.5,M,,*62
$PYRTM,2024,127.587920430845,18.697567840984
$GPGGA,140635.00,3327.7912,N,11902.6825,W,1,10,1.0,12.8,M,-34.5,M,,*65
$PYRTM,2024,127.587931996574,18.697579406725
$GPGGA,140636.00,3327.7912,N,11902.6828,W,1,10,1.0,12.8,M,-34.5,M,,*6B
$PYRTM,2024,127.587943582106,18.697590992245
$GPGGA,140637.00,3327.7910,N,11902.6830,W,1,10,1.0,12.8,M,-34.5,M,,*61
$PYRTM,2024,127.587950980671,18.697598390822
$GPGGA,140638.00,3327.7908,N,11902.6831,W,1,10,1.0,12.8,M,-34.5,M,,*66
$PYRTM,2024,127.587966720150,18.697614130289
$GPGGA,140639.00,3327.7907,N,11902.6834,W,1,10,1.0,12.8,M,-34.5,M,,*6D
$PYRTM,2024,127.587974138021,18.697621548160
$GPGGA,140640.00,3327.7906,N,11902.6838,W,1,10,1.0,12.8,M,-34.5,M,,*6E
$PYRTM,2024,127.587992761250,18.697640171400
$GPGGA,140641.00,3327.7905,N,11902.6841,W,1,10,1.0,12.8,M,-34.5,M,,*62
$PYRTM,2024,127.588004335532,18.697651745683
$GPGGA,140642.00,3327.7905,N,11902.6840,W,1,10,1.0,12.8,M,-34.5,M,,*60
$PYRTM,2024,127.588015910984,18.697663321123
$GPGGA,140643.00,3327.7903,N,11902.6839,W,1,10,1.0,12.8,M,-34.5,M,,*69
$PYRTM,2024,127.588024591319,18.697672001458
$GPGGA,140644.00,3327.7901,N,11902.6843,W,1,10,1.0,12.8,M,-34.5,M,,*61
$PYRTM,2024,127.588036176134,18.697683586273
$GPGGA,140645.00,3327.7900,N,11902.6848,W,1,10,1.0,12.8,M,-34.5,M,,*6A
$PYRTM,2024,127.588047738148,18.697695148287
$GPGGA,140646.00,3327.7900,N,11902.6852,W,1,10,1.0,12.9,M,-34.5,M,,*63
$PYRTM,2024,127.588059320660,18.697706730799
$GPGGA,140647.00,3327.7899,N,11902.6853,W,1,10,1.0,12.9,M,-34.5,M,,*62
$PYRTM,2024,127.588070883310,18.697718293461
$GPGGA,140648.00,3327.7896,N,11902.6854,W,1,10,1.0,12.9,M,-34.5,M,,*65
$PYRTM,2024,127.588082468924,18.697729879062
$GPGGA,140649.00,3327.7894,N,11902.6856,W,1,10,1.0,12.9,M,-34.5,M,,*64
$PYRTM,2024,127.588094034572,18.697741444711
$GPGGA,140650.00,3327.7894,N,11902.6858,W,1,10,1.0,12.9,M,-34.5,M,,*62
$PYRTM,2024,127.588105634387,18.697753044525
$GPGGA,140651.00,3327.7894,N,11902.6860,W,1,10,1.0,12.9,M,-34.5,M,,*68
$PYRTM,2024,127.588113010521,18.697760420660
$GPGGA,140652.00,3327.7893,N,11902.6864,W,1,10,1.0,13.0,M,-34.5,M,,*60
$PYRTM,2024,127.588128768947,18.697776179086
$GPGGA,140653.00,3327.7890,N,11902.6867,W,1,10,1.0,13.0,M,-34.5,M,,*61
$PYRTM,2024,127.588140331019,18.697787741157
$GPGGA,140654.00,3327.7888,N,11902.6870,W,1,10,1.0,13.0,M,-34.5,M,,*69
$PYRTM,2024,127.588151916921,18.697799327060
$GPGGA,140655.00,3327.7887,N,11902.6871,W,1,10,1.0,13.0,M,-34.5,M,,*66
$PYRTM,2024,127.588163480208,18.697810890359
$GPGGA,140656.00,3327.7888,N,11902.6872,W,1,10,1.0,13.0,M,-34.5,M,,*69
$PYRTM,2024,127.588175053773,18.697822463912
$GPGGA,140657.00,3327.7887,N,11902.6874,W,1,10,1.0,13.0,M,-34.5,M,,*61
$PYRTM,2024,127.588186630313,18.697834040451
$GPGGA,140658.00,3327.7886,N,11902.6876,W,1,10,1.0,13.0,M,-34.5,M,,*6D
$PYRTM,2024,127.588194022905,18.697841433056
$GPGGA,140659.00,3327.7884,N,11902.6877,W,1,10,1.0,13.0,M,-34.5,M,,*6F
$PYRTM,2024,127.588209775405,18.697857185544
$GPGGA,140700.00,3327.7883,N,11902.6879,W,1,10,1.0,13.0,M,-34.5,M,,*6B
$PYRTM,2024,127.588221360463,18.697868770602
$GPGGA,140701.00,3327.7882,N,11902.6881,W,1,10,1.0,13.0,M,-34.5,M,,*6C
$PYRTM,2024,127.588232925509,18.697880335648
$GPGGA,140702.00,3327.7881,N,11902.6884,W,1,10,1.0,13.0,M,-34.5,M,,*69
$PYRTM,2024,127.588244524606,18.697891934745
$GPGGA,140703.00,3327.7880,N,11902.6884,W,1,10,1.0,13.0,M,-34.5,M,,*69
$PYRTM,2024,127.588256071956,18.697903482095
$GPGGA,140704.00,3327.7879,N,11902.6885,W,1,10,1.0,13.0,M,-34.5,M,,*69
$PYRTM,2024,127.588267672350,18.697915082488
$GPGGA,140705.00,3327.7877,N,11902.6887,W,1,10,1.0,13.0,M,-34.5,M,,*64
$PYRTM,2024,127.588279221782,18.697926631921
$GPGGA,140706.00,3327.7876,N,11902.6890,W,1,10,1.0,13.0,M,-34.5,M,,*60
$PYRTM,2024,127.588286617095,18.697934027234
$GPGGA,140707.00,3327.7874,N,11902.6892,W,1,10,1.0,13.0,M,-34.5,M,,*61
$PYRTM,2024,127.588302365613,18.697949775752
$GPGGA,140708.00,3327.7872,N,11902.6895,W,1,10,1.0,13.0,M,-34.5,M,,*6F
$PYRTM,2024,127.588313943727,18.697961353866
$GPGGA,140709.00,3327.7869,N,11902.6895,W,1,10,1.0,13.0,M,-34.5,M,,*64
$PYRTM,2024,127.588325517546,18.697972927685
$GPGGA,140710.00,3327.7869,N,11902.6895,W,1,10,1.0,12.9,M,-34.5,M,,*64
$PYRTM,2024,127.588332914097,18.697980324236
$GPGGA,140711.00,3327.7869,N,11902.6898,W,1,10,1.0,12.9,M,-34.5,M,,*68
$PYRTM,2024,127.588351560579,18.697998970718
$GPGGA,140712.00,3327.7868,N,11902.6901,W,1,10,1.0,12.9,M,-34.5,M,,*6B
$PYRTM,2024,127.588360240301,18.698007650440
$GPGGA,140713.00,3327.7867,N,11902.6904,W,1,10,1.0,12.9,M,-34.5,M,,*60
$PYRTM,2024,127.588371819167,18.698019229317
$GPGGA,140714.00,3327.7866,N,11902.6906,W,1,10,1.0,12.9,M,-34.5,M,,*64
$PYRTM,2024,127.588383499745,18.698030909896
$GPGGA,140715.00,3327.7865,N,11902.6907,W,1,10,1.0,12.9,M,-34.5,M,,*67
$PYRTM,2024,127.588395077778,18.698042487917
$GPGGA,140716.00,3327.7863,N,11902.6907,W,1,10,1.0,12.9,M,-34.5,M,,*62
$PYRTM,2024,127.588406653657,18.698054063796
$GPGGA,140717.00,3327.7863,N,11902.6907,W,1,10,1.0,12.9,M,-34.5,M,,*63
$PYRTM,2024,127.588418226806,18.698065636944
$GPGGA,140718.00,3327.7864,N,11902.6909,W,1,10,1.0,12.9,M,-34.5,M,,*65
$PYRTM,2024,127.588429804676,18.698077214815
$GPGGA,140719.00,3327.7863,N,11902.6911,W,1,10,1.0,12.9,M,-34.5,M,,*6A
$PYRTM,2024,127.588441369896,18.698088780035
$GPGGA,140720.00,3327.7861,N,11902.6913,W,1,10,1.0,12.9,M,-34.5,M,,*60
$PYRTM,2024,127.588452841562,18.698100251701
$GPGGA,140721.00,3327.7858,N,11902.6916,W,1,10,1.0,12.9,M,-34.5,M,,*6E
$PYRTM,2024,127.588464407593,18.698111817731
$GPGGA,140722.00,3327.7855,N,11902.6917,W,1,10,1.0,12.9,M,-34.5,M,,*61
$PYRTM,2024,127.588475989248,18.698123399387
$GPGGA,140723.00,3327.7854,N,11902.6917,W,1,10,1.0,12.9,M,-34.5,M,,*61
$PYRTM,2024,127.588487555903,18.698134966042
$GPGGA,140724.00,3327.7853,N,11902.6916,W,1,10,1.0,12.9,M,-34.5,M,,*60
$PYRTM,2024,127.588499141609,18.698146551748
$GPGGA,140725.00,3327.7852,N,11902.6918,W,1,10,1.0,12.9,M,-34.5,M,,*6E
$PYRTM,2024,127.588510704769,18.698158114907
$GPGGA,140726.00,3327.7851,N,11902.6922,W,1,10,1.0,12.9,M,-34.5,M,,*67
$PYRTM,2024,127.588518098854,18.698165508993
$GPGGA,140727.00,3327.7849,N,11902.6925,W,1,10,1.0,12.9,M,-34.5,M,,*68
$PYRTM,2024,127.588533852905,18.698181263044
$GPGGA,140728.00,3327.7849,N,11902.6927,W,1,10,1.0,12.9,M,-34.5,M,,*65
$PYRTM,2024,127.588545426852,18.698192836991
$GPGGA,140729.00,3327.7848,N,11902.6927,W,1,10,1.0,12.9,M,-34.5,M,,*65
$PYRTM,2024,127.588557001100,18.698204411238
$GPGGA,140730.00,3327.7847,N,11902.6928,W,1,10,1.0,12.9,M,-34.5,M,,*6D
$PYRTM,2024,127.588568574525,18.698215984664
$GPGGA,140731.00,3327.7847,N,11902.6931,W,1,10,1.0,13.0,M,-34.5,M,,*6C
$PYRTM,2024,127.588575981551,18.698223391690
$GPGGA,140732.00,3327.7846,N,11902.6933,W,1,10,1.0,13.0,M,-34.5,M,,*6C
$PYRTM,2024,127.588591734618,18.698239144757
$GPGGA,140733.00,3327.7844,N,11902.6934,W,1,10,1.0,13.0,M,-34.5,M,,*68
$PYRTM,2024,127.588603297731,18.698250707870
$GPGGA,140734.00,3327.7841,N,11902.6935,W,1,10,1.0,13.0,M,-34.5,M,,*6B
$PYRTM,2024,127.588610692766,18.698258102905
$GPGGA,140735.00,3327.7839,N,11902.6935,W,1,10,1.0,13.0,M,-34.5,M,,*65
$PYRTM,2024,127.588626441667,18.698273851806
$GPGGA,140736.00,3327.7840,N,11902.6936,W,1,10,1.0,13.0,M,-34.5,M,,*6B
$PYRTM,2024,127.588638029688,18.698285439826
$GPGGA,140737.00,3327.7841,N,11902.6938,W,1,10,1.0,13.0,M,-34.5,M,,*65
$PYRTM,2024,127.588649595231,18.698297005370
$GPGGA,140738.00,3327.7839,N,11902.6940,W,1,10,1.0,13.0,M,-34.5,M,,*6A
$PYRTM,2024,127.588661176887,18.698308587025
$GPGGA,140739.00,3327.7836,N,11902.6940,W,1,10,1.0,13.0,M,-34.5,M,,*64
$PYRTM,2024,127.588672743137,18.698320153275
$GPGGA,140740.00,3327.7833,N,11902.6939,W,1,10,1.0,13.0,M,-34.5,M,,*61
$PYRTM,2024,127.588684330116,18.698331740266
$GPGGA,140741.00,3327.7832,N,11902.6942,W,1,10,1.0,13.0,M,-34.5,M,,*6D
$PYRTM,2024,127.588691724919,18.698339135058
$GPGGA,140742.00,3327.7832,N,11902.6945,W,1,10,1.0,13.0,M,-34.5,M,,*69
$PYRTM,2024,127.588710359329,18.698357769479
$GPGGA,140743.00,3327.7832,N,11902.6945,W,1,10,1.0,13.0,M,-34.5,M,,*68
$PYRTM,2024,127.588719039063,18.698366449201
$GPGGA,140744.00,3327.7830,N,11902.6945,W,1,10,1.0,13.0,M,-34.5,M,,*6D
$PYRTM,2024,127.588730623958,18.698378034097
$GPGGA,140745.00,3327.7826,N,11902.6946,W,1,10,1.0,13.0,M,-34.5,M,,*68
$PYRTM,2024,127.588742187766,18.698389597917
$GPGGA,140746.00,3327.7823,N,11902.6949,W,1,10,1.0,13.0,M,-34.5,M,,*61
$PYRTM,2024,127.588749585035,18.698396995174
$GPGGA,140747.00,3327.7823,N,11902.6953,W,1,10,1.0,13.0,M,-34.5,M,,*6B
$PYRTM,2024,127.588765336065,18.698412746204
$GPGGA,140748.00,3327.7823,N,11902.6953,W,1,10,1.0,12.9,M,-34.5,M,,*6C
$PYRTM,2024,127.588776910104,18.698424320243
$GPGGA,140749.00,3327.7822,N,11902.6952,W,1,10,1.0,12.9,M,-34.5,M,,*6D
$PYRTM,2024,127.588788484225,18.698435894375
$GPGGA,140750.00,3327.7820,N,11902.6952,W,1,10,1.0,12.9,M,-34.5,M,,*67
$PYRTM,2024,127.588800066181,18.698447476319
$GPGGA,140751.00,3327.7819,N,11902.6954,W,1,10,1.0,12.9,M,-34.5,M,,*6A
$PYRTM,2024,127.588807464387,18.698454874537
$GPGGA,140752.00,3327.7821,N,11902.6957,W,1,10,1.0,12.9,M,-34.5,M,,*61
$PYRTM,2024,127.588823214977,18.698470625116
$GPGGA,140753.00,3327.7822,N,11902.6958,W,1,10,1.0,12.9,M,-34.5,M,,*6C
$PYRTM,2024,127.588834775822,18.698482185961
$GPGGA,140754.00,3327.7820,N,11902.6959,W,1,10,1.0,12.9,M,-34.5,M,,*68
$PYRTM,2024,127.588846362477,18.698493772627
$GPGGA,140755.00,3327.7818,N,11902.6960,W,1,10,1.0,12.9,M,-34.5,M,,*68
$PYRTM,2024,127.588857930475,18.698505340613
$GPGGA,140756.00,3327.7816,N,11902.6961,W,1,10,1.0,12.9,M,-34.5,M,,*64
$PYRTM,2024,127.588865324433,18.698512734583
$GPGGA,140757.00,3327.7816,N,11902.6962,W,1,10,1.0,12.9,M,-34.5,M,,*66
$PYRTM,2024,127.588881077523,18.698528487674
$GPGGA,140758.00,3327.7816,N,11902.6963,W,1,10,1.0,12.9,M,-34.5,M,,*68
$PYRTM,2024,127.588892663414,18.698540073553
$GPGGA,140759.00,3327.7814,N,11902.6964,W,1,10,1.0,12.9,M,-34.5,M,,*6C
$PYRTM,2024,127.588900059167,18.698547469306
$GPGGA,140800.00,3327.7810,N,11902.6964,W,1,10,1.0,12.8,M,-34.5,M,,*6A
$PYRTM,2024,127.588915800104,18.698563210243
$GPGGA,140801.00,3327.7807,N,11902.6965,W,1,10,1.0,12.8,M,-34.5,M,,*6C
$PYRTM,2024,127.588927373750,18.698574783889
$GPGGA,140802.00,3327.7807,N,11902.6967,W,1,10,1.0,12.8,M,-34.5,M,,*6D
$PYRTM,2024,127.588938959514,18.698586369664
$GPGGA,140803.00,3327.7806,N,11902.6971,W,1,10,1.0,12.9,M,-34.5,M,,*6B
$PYRTM,2024,127.588950521887,18.698597932037
$GPGGA,140804.00,3327.7805,N,11902.6973,W,1,10,1.0,12.9,M,-34.5,M,,*6D
$PYRTM,2024,127.588957915775,18.698605325914
$GPGGA,140805.00,3327.7804,N,11902.6973,W,1,10,1.0,12.9,M,-34.5,M,,*6D
$PYRTM,2024,127.588973670752,18.698621080891
$GPGGA,140806.00,3327.7803,N,11902.6972,W,1,10,1.0,12.9,M,-34.5,M,,*68
$PYRTM,2024,127.588985244201,18.698632654352
$GPGGA,140807.00,3327.7802,N,11902.6972,W,1,10,1.0,12.9,M,-34.5,M,,*68
$PYRTM,2024,127.588992651921,18.698640062060
$GPGGA,140808.00,3327.7803,N,11902.6975,W,1,10,1.0,12.8,M,-34.5,M,,*60
$PYRTM,2024,127.589008400822,18.698655810961
$GPGGA,140809.00,3327.7802,N,11902.6979,W,1,10,1.0,12.8,M,-34.5,M,,*6C
$PYRTM,2024,127.589019968322,18.698667378461
$GPGGA,140810.00,3327.7800,N,11902.6981,W,1,10,1.0,12.8,M,-34.5,M,,*61
$PYRTM,2024,127.589031548646,18.698678958785
$GPGGA,140811.00,3327.7798,N,11902.6981,W,1,10,1.0,12.7,M,-34.5,M,,*61
$PYRTM,2024,127.589043115995,18.698690526146
$GPGGA,140812.00,3327.7797,N,11902.6980,W,1,10,1.0,12.7,M,-34.5,M,,*6C
$PYRTM,2024,127.589050511690,18.698697921840
$GPGGA,140813.00,3327.7796,N,11902.6981,W,1,10,1.0,12.6,M,-34.5,M,,*6C
$PYRTM,2024,127.589069157269,18.698716567407
$GPGGA,140814.00,3327.7796,N,11902.6983,W,1,10,1.0,12.6,M,-34.5,M,,*69
$PYRTM,2024,127.589077838032,18.698725248171
$GPGGA,140815.00,3327.7796,N,11902.6985,W,1,10,1.0,12.6,M,-34.5,M,,*6E
$PYRTM,2024,127.589089412500,18.698736822639
$GPGGA,140816.00,3327.7794,N,11902.6985,W,1,10,1.0,12.6,M,-34.5,M,,*6F
$PYRTM,2024,127.589100997303,18.698748407442
$GPGGA,140817.00,3327.7791,N,11902.6985,W,1,10,1.0,12.6,M,-34.5,M,,*6B
$PYRTM,2024,127.589112560289,18.698759970428
$GPGGA,140818.00,3327.7789,N,11902.6986,W,1,10,1.0,12.6,M,-34.5,M,,*6E
$PYRTM,2024,127.589124146771,18.698771556910
$GPGGA,140819.00,3327.7789,N,11902.6989,W,1,10,1.0,12.6,M,-34.5,M,,*60
$PYRTM,2024,127.589135709294,18.698783119433
$GPGGA,140820.00,3327.7788,N,11902.6991,W,1,10,1.0,12.6,M,-34.5,M,,*62
$PYRTM,2024,127.589147294294,18.698794704444
$GPGGA,140821.00,3327.7787,N,11902.6991,W,1,10,1.0,12.6,M,-34.5,M,,*6C
$PYRTM,2024,127.589158857083,18.698806267222
$GPGGA,140822.00,3327.7786,N,11902.6990,W,1,10,1.0,12.6,M,-34.5,M,,*6F
$PYRTM,2024,127.589166252396,18.698813662535
$GPGGA,140823.00,3327.7784,N,11902.6991,W,1,10,1.0,12.6,M,-34.5,M,,*6D
$PYRTM,2024,127.589182006667,18.698829416806
$GPGGA,140824.00,3327.7782,N,11902.6994,W,1,10,1.0,12.6,M,-34.5,M,,*69
$PYRTM,2024,127.589193587697,18.698840997847
$GPGGA,140825.00,3327.7781,N,11902.6997,W,1,10,1.0,12.5,M,-34.5,M,,*6B
$PYRTM,2024,127.589205154410,18.698852564549
$GPGGA,140826.00,3327.7781,N,11902.6998,W,1,10,1.0,12.6,M,-34.5,M,,*64
$PYRTM,2024,127.589216737882,18.698864148021
$GPGGA,140827.00,3327.7780,N,11902.6996,W,1,10,1.0,12.6,M,-34.5,M,,*6A
$PYRTM,2024,127.589224134271,18.698871544421
$GPGGA,140828.00,3327.7778,N,11902.6994,W,1,10,1.0,12.6,M,-34.5,M,,*60
$PYRTM,2024,127.589239887315,18.698887297454
$GPGGA,140829.00,3327.7778,N,11902.6996,W,1,10,1.0,12.6,M,-34.5,M,,*63
$PYRTM,2024,127.589251444907,18.698898855046
$GPGGA,140830.00,3327.7779,N,11902.7000,W,1,10,1.0,12.6,M,-34.5,M,,*6D
$PYRTM,2024,127.589263024387,18.698910434525
$GPGGA,140831.00,3327.7780,N,11902.7003,W,1,10,1.0,12.7,M,-34.5,M,,*68
$PYRTM,2024,127.589274598819,18.698922008958
$GPGGA,140832.00,3327.7780,N,11902.7002,W,1,10,1.0,12.7,M,-34.5,M,,*6A
$PYRTM,2024,127.589286172674,18.698933582813
$GPGGA,140833.00,3327.7777,N,11902.7000,W,1,10,1.0,12.7,M,-34.5,M,,*61
$PYRTM,2024,127.589297752512,18.698945162639
$GPGGA,140834.00,3327.7774,N,11902.7001,W,1,10,1.0,12.7,M,-34.5,M,,*64
$PYRTM,2024,127.589309321331,18.698956731470
$GPGGA,140835.00,3327.7773,N,11902.7004,W,1,10,1.0,12.7,M,-34.5,M,,*67
