$PYRTM,2024,123.666670150683,14.776317560822
$GPGGA,155959.00,3427.2888,N,12056.9875,W,1,11,0.8,8.5,M,-33.6,M,,*5F
$PYRTM,2024,123.666681730046,14.776329140185
$GPGGA,160000.00,3427.2897,N,12056.9882,W,1,11,0.8,8.9,M,-33.6,M,,*56
$PYRTM,2024,123.666693303715,14.776340713854
$GPGGA,160001.00,3427.2906,N,12056.9895,W,1,11,0.8,9.3,M,-33.6,M,,*53
$PYRTM,2024,123.666704881296,14.776352291435
$GPGGA,160002.00,3427.2919,N,12056.9908,W,1,11,0.8,8.9,M,-33.6,M,,*50
$PYRTM,2024,123.666716454201,14.776363864340
$GPGGA,160003.00,3427.2933,N,12056.9913,W,1,11,0.8,8.5,M,-33.6,M,,*5F
$PYRTM,2024,123.666728030220,14.776375440359
$GPGGA,160004.00,3427.2945,N,12056.9914,W,1,11,0.8,8.8,M,-33.6,M,,*53
$PYRTM,2024,123.666739600995,14.776387011134
$GPGGA,160005.00,3427.2957,N,12056.9919,W,1,11,0.8,9.2,M,-33.6,M,,*57
$PYRTM,2024,123.666751188623,14.776398598762
$GPGGA,160006.00,3427.2971,N,12056.9931,W,1,11,0.8,8.9,M,-33.6,M,,*50
$PYRTM,2024,123.666762748819,14.776410158958
$GPGGA,160007.00,3427.2983,N,12056.9943,W,1,11,0.8,8.6,M,-33.6,M,,*56
$PYRTM,2024,123.666774326678,14.776421736817
$GPGGA,160008.00,3427.2992,N,12056.9952,W,1,11,0.8,9.1,M,-33.6,M,,*5F
$PYRTM,2024,123.666785896563,14.776433306701
$GPGGA,160009.00,3427.3004,N,12056.9957,W,1,11,0.8,9.4,M,-33.6,M,,*59
$PYRTM,2024,123.666797471528,14.776444881667
$GPGGA,160010.00,3427.3018,N,12056.9962,W,1,11,0.8,9.7,M,-33.6,M,,*59
$PYRTM,2024,123.666804783565,14.776452193704
$GPGGA,160011.00,3427.3032,N,12056.9969,W,1,11,0.8,9.6,M,-33.6,M,,*5A
$PYRTM,2024,123.666823398090,14.776470808229
$GPGGA,160012.00,3427.3044,N,12056.9978,W,1,11,0.8,9.3,M,-33.6,M,,*5D
$PYRTM,2024,123.666832194387,14.776479604525
$GPGGA,160013.00,3427.3056,N,12056.9990,W,1,11,0.8,8.9,M,-33.6,M,,*52
$PYRTM,2024,123.666843769051,14.776491179190
$GPGGA,160014.00,3427.3068,N,12057.0001,W,1,11,0.8,8.3,M,-33.6,M,,*5B
$PYRTM,2024,123.666855337072,14.776502747211
$GPGGA,160015.00,3427.3079,N,12057.0008,W,1,11,0.8,8.4,M,-33.6,M,,*54
$PYRTM,2024,123.666866917928,14.776514328067
$GPGGA,160016.00,3427.3091,N,12057.0010,W,1,11,0.8,9.1,M,-33.6,M,,*5C
$PYRTM,2024,123.666878488808,14.776525898947
$GPGGA,160017.00,3427.3106,N,12057.0012,W,1,11,0.8,10.0,M,-33.6,M,,*69
$PYRTM,2024,123.666890065602,14.776537475752
$GPGGA,160018.00,3427.3120,N,12057.0022,W,1,11,0.8,10.1,M,-33.6,M,,*60
$PYRTM,2024,123.666901638044,14.776549048183
$GPGGA,160019.00,3427.3129,N,12057.0038,W,1,11,0.8,9.7,M,-33.6,M,,*5D
$PYRTM,2024,123.666908916192,14.776556326331
$GPGGA,160020.00,3427.3139,N,12057.0051,W,1,11,0.8,9.0,M,-33.6,M,,*5E
$PYRTM,2024,123.666924787431,14.776572197569
$GPGGA,160021.00,3427.3152,N,12057.0054,W,1,11,0.8,8.8,M,-33.6,M,,*5E
$PYRTM,2024,123.666936378368,14.776583788507
$GPGGA,160022.00,3427.3167,N,12057.0052,W,1,11,0.8,9.5,M,-33.6,M,,*51
$PYRTM,2024,123.666947934468,14.776595344606
$GPGGA,160023.00,3427.3180,N,12057.0057,W,1,11,0.8,10.2,M,-33.6,M,,*63
$PYRTM,2024,123.666959512731,14.776606922882
$GPGGA,160024.00,3427.3192,N,12057.0073,W,1,11,0.8,10.3,M,-33.6,M,,*60
$PYRTM,2024,123.666966803356,14.776614213495
$GPGGA,160025.00,3427.3203,N,12057.0092,W,1,11,0.8,9.9,M,-33.6,M,,*57
$PYRTM,2024,123.666982659144,14.776630069282
$GPGGA,160026.00,3427.3215,N,12057.0100,W,1,11,0.8,9.5,M,-33.6,M,,*55
$PYRTM,2024,123.666994231690,14.776641641829
$GPGGA,160027.00,3427.3228,N,12057.0098,W,1,11,0.8,10.0,M,-33.6,M,,*67
$PYRTM,2024,123.667005805278,14.776653215417
$GPGGA,160028.00,3427.3243,N,12057.0098,W,1,11,0.8,10.5,M,-33.6,M,,*60
$PYRTM,2024,123.667017380463,14.776664790602
$GPGGA,160029.00,3427.3257,N,12057.0110,W,1,11,0.8,10.2,M,-33.6,M,,*62
$PYRTM,2024,123.667028953738,14.776676363877
$GPGGA,160030.00,3427.3267,N,12057.0126,W,1,11,0.8,9.5,M,-33.6,M,,*53
$PYRTM,2024,123.667040528113,14.776687938252
$GPGGA,160031.00,3427.3277,N,12057.0137,W,1,11,0.8,9.1,M,-33.6,M,,*57
$PYRTM,2024,123.667052102199,14.776699512350
$GPGGA,160032.00,3427.3288,N,12057.0141,W,1,11,0.8,9.2,M,-33.6,M,,*56
$PYRTM,2024,123.667059393461,14.776706803611
$GPGGA,160033.00,3427.3303,N,12057.0144,W,1,11,0.8,9.3,M,-33.6,M,,*51
$PYRTM,2024,123.667075253727,14.776722663866
$GPGGA,160034.00,3427.3317,N,12057.0149,W,1,11,0.8,9.5,M,-33.6,M,,*58
$PYRTM,2024,123.667086825961,14.776734236111
$GPGGA,160035.00,3427.3328,N,12057.0159,W,1,11,0.8,9.7,M,-33.6,M,,*56
$PYRTM,2024,123.667098402558,14.776745812697
$GPGGA,160036.00,3427.3340,N,12057.0171,W,1,11,0.8,9.2,M,-33.6,M,,*54
$PYRTM,2024,123.667109973623,14.776757383762
$GPGGA,160037.00,3427.3352,N,12057.0184,W,1,11,0.8,8.5,M,-33.6,M,,*5A
$PYRTM,2024,123.667121548067,14.776768958206
$GPGGA,160038.00,3427.3364,N,12057.0189,W,1,11,0.8,8.3,M,-33.6,M,,*5B
$PYRTM,2024,123.667133121181,14.776780531319
$GPGGA,160039.00,3427.3378,N,12057.0191,W,1,11,0.8,8.5,M,-33.6,M,,*58
$PYRTM,2024,123.667144695289,14.776792105428
$GPGGA,160040.00,3427.3392,N,12057.0197,W,1,11,0.8,8.8,M,-33.6,M,,*59
$PYRTM,2024,123.667156268461,14.776803678600
$GPGGA,160041.00,3427.3403,N,12057.0209,W,1,11,0.8,8.9,M,-33.6,M,,*52
$PYRTM,2024,123.667163550197,14.776810960336
$GPGGA,160042.00,3427.3415,N,12057.0224,W,1,11,0.8,8.6,M,-33.6,M,,*56
$PYRTM,2024,123.667182196215,14.776829606354
$GPGGA,160043.00,3427.3428,N,12057.0236,W,1,11,0.8,7.9,M,-33.6,M,,*5A
$PYRTM,2024,123.667190992083,14.776838402234
$GPGGA,160044.00,3427.3440,N,12057.0239,W,1,11,0.8,8.0,M,-33.6,M,,*5A
$PYRTM,2024,123.667198293750,14.776845703889
$GPGGA,160045.00,3427.3450,N,12057.0238,W,1,11,0.8,8.7,M,-33.6,M,,*5C
$PYRTM,2024,123.667210074456,14.776857484595
$GPGGA,160046.00,3427.3462,N,12057.0247,W,1,11,0.8,8.8,M,-33.6,M,,*59
$PYRTM,2024,123.667225713449,14.776873123588
$GPGGA,160047.00,3427.3476,N,12057.0263,W,1,11,0.8,7.9,M,-33.6,M,,*55
$PYRTM,2024,123.667233005775,14.776880415914
$GPGGA,160048.00,3427.3486,N,12057.0277,W,1,11,0.8,7.4,M,-33.6,M,,*5D
$PYRTM,2024,123.667248856759,14.776896266898
$GPGGA,160049.00,3427.3493,N,12057.0283,W,1,11,0.8,7.6,M,-33.6,M,,*51
$PYRTM,2024,123.667260449722,14.776907859861
$GPGGA,160050.00,3427.3505,N,12057.0284,W,1,11,0.8,8.3,M,-33.6,M,,*5A
$PYRTM,2024,123.667272010926,14.776919421065
$GPGGA,160051.00,3427.3520,N,12057.0286,W,1,11,0.8,8.5,M,-33.6,M,,*58
$PYRTM,2024,123.667279301331,14.776926711470
$GPGGA,160052.00,3427.3533,N,12057.0293,W,1,11,0.8,8.5,M,-33.6,M,,*5D
$PYRTM,2024,123.667295158148,14.776942568287
$GPGGA,160053.00,3427.3544,N,12057.0305,W,1,11,0.8,8.2,M,-33.6,M,,*55
$PYRTM,2024,123.667306734201,14.776954144340
$GPGGA,160054.00,3427.3553,N,12057.0318,W,1,11,0.8,7.8,M,-33.6,M,,*5D
$PYRTM,2024,123.667318306875,14.776965717002
$GPGGA,160055.00,3427.3562,N,12057.0325,W,1,11,0.8,7.8,M,-33.6,M,,*50
$PYRTM,2024,123.667329881782,14.776977291921
$GPGGA,160056.00,3427.3575,N,12057.0327,W,1,11,0.8,8.0,M,-33.6,M,,*50
$PYRTM,2024,123.667341456354,14.776988866493
$GPGGA,160057.00,3427.3591,N,12057.0330,W,1,11,0.8,8.0,M,-33.6,M,,*5D
$PYRTM,2024,123.667353024722,14.777000434861
$GPGGA,160058.00,3427.3604,N,12057.0338,W,1,11,0.8,8.2,M,-33.6,M,,*57
$PYRTM,2024,123.667364604375,14.777012014514
$GPGGA,160059.00,3427.3611,N,12057.0348,W,1,11,0.8,8.8,M,-33.6,M,,*5F
$PYRTM,2024,123.667371884051,14.777019294190
$GPGGA,160100.00,3427.3619,N,12057.0357,W,1,11,0.8,9.4,M,-33.6,M,,*59
$PYRTM,2024,123.667387751806,14.777035161944
$GPGGA,160101.00,3427.3633,N,12057.0364,W,1,11,0.8,9.2,M,-33.6,M,,*56
$PYRTM,2024,123.667399327720,14.777046737859
$GPGGA,160102.00,3427.3648,N,12057.0371,W,1,11,0.8,8.4,M,-33.6,M,,*5A
$PYRTM,2024,123.667406611910,14.777054022049
$GPGGA,160103.00,3427.3658,N,12057.0378,W,1,11,0.8,8.0,M,-33.6,M,,*57
$PYRTM,2024,123.667422474583,14.777069884734
$GPGGA,160104.00,3427.3666,N,12057.0383,W,1,11,0.8,8.5,M,-33.6,M,,*5C
$PYRTM,2024,123.667429765266,14.777077175405
$GPGGA,160105.00,3427.3677,N,12057.0389,W,1,11,0.8,9.2,M,-33.6,M,,*51
$PYRTM,2024,123.667445625775,14.777093035914
$GPGGA,160106.00,3427.3690,N,12057.0397,W,1,11,0.8,9.6,M,-33.6,M,,*50
$PYRTM,2024,123.667457196157,14.777104606308
$GPGGA,160107.00,3427.3701,N,12057.0406,W,1,11,0.8,9.4,M,-33.6,M,,*55
$PYRTM,2024,123.667468786343,14.777116196481
$GPGGA,160108.00,3427.3712,N,12057.0415,W,1,11,0.8,8.9,M,-33.6,M,,*56
$PYRTM,2024,123.667480340903,14.777127751053
$GPGGA,160109.00,3427.3725,N,12057.0423,W,1,11,0.8,8.0,M,-33.6,M,,*5F
$PYRTM,2024,123.667491919965,14.777139330104
$GPGGA,160110.00,3427.3738,N,12057.0430,W,1,11,0.8,7.3,M,-33.6,M,,*55
$PYRTM,2024,123.667503489248,14.777150899387
$GPGGA,160111.00,3427.3749,N,12057.0434,W,1,11,0.8,7.4,M,-33.6,M,,*51
$PYRTM,2024,123.667515067627,14.777162477766
$GPGGA,160112.00,3427.3760,N,12057.0438,W,1,11,0.8,8.2,M,-33.6,M,,*5C
$PYRTM,2024,123.667522367535,14.777169777674
$GPGGA,160113.00,3427.3773,N,12057.0447,W,1,11,0.8,8.6,M,-33.6,M,,*53
$PYRTM,2024,123.667540995428,14.777188405567
$GPGGA,160114.00,3427.3786,N,12057.0456,W,1,11,0.8,8.5,M,-33.6,M,,*5D
$PYRTM,2024,123.667549788993,14.777197199132
$GPGGA,160115.00,3427.3798,N,12057.0463,W,1,11,0.8,8.2,M,-33.6,M,,*52
$PYRTM,2024,123.667561365150,14.777208775301
$GPGGA,160116.00,3427.3810,N,12057.0470,W,1,11,0.8,7.6,M,-33.6,M,,*57
$PYRTM,2024,123.667572937963,14.777220348102
$GPGGA,160117.00,3427.3822,N,12057.0477,W,1,11,0.8,7.2,M,-33.6,M,,*54
$PYRTM,2024,123.667584515787,14.777231925937
$GPGGA,160118.00,3427.3835,N,12057.0484,W,1,11,0.8,7.0,M,-33.6,M,,*53
$PYRTM,2024,123.667596087488,14.777243497627
$GPGGA,160119.00,3427.3846,N,12057.0490,W,1,11,0.8,7.4,M,-33.6,M,,*57
$PYRTM,2024,123.667603364479,14.777250774618
$GPGGA,160120.00,3427.3858,N,12057.0496,W,1,11,0.8,8.2,M,-33.6,M,,*5D
$PYRTM,2024,123.667619234062,14.777266644201
$GPGGA,160121.00,3427.3871,N,12057.0505,W,1,11,0.8,8.5,M,-33.6,M,,*5B
$PYRTM,2024,123.667630811875,14.777278222025
$GPGGA,160122.00,3427.3884,N,12057.0515,W,1,11,0.8,8.1,M,-33.6,M,,*57
$PYRTM,2024,123.667642383750,14.777289793900
$GPGGA,160123.00,3427.3897,N,12057.0523,W,1,11,0.8,7.8,M,-33.6,M,,*57
$PYRTM,2024,123.667649663785,14.777297073924
$GPGGA,160124.00,3427.3908,N,12057.0528,W,1,11,0.8,7.8,M,-33.6,M,,*5C
$PYRTM,2024,123.667661813495,14.777309223634
$GPGGA,160125.00,3427.3919,N,12057.0535,W,1,11,0.8,8.2,M,-33.6,M,,*54
$PYRTM,2024,123.667677105486,14.777324515625
$GPGGA,160126.00,3427.3933,N,12057.0544,W,1,11,0.8,8.1,M,-33.6,M,,*5A
$PYRTM,2024,123.667688679051,14.777336089190
$GPGGA,160127.00,3427.3948,N,12057.0553,W,1,11,0.8,8.0,M,-33.6,M,,*50
$PYRTM,2024,123.667700253900,14.777347664039
$GPGGA,160128.00,3427.3960,N,12057.0560,W,1,11,0.8,8.0,M,-33.6,M,,*55
$PYRTM,2024,123.667711828032,14.777359238171
$GPGGA,160129.00,3427.3969,N,12057.0569,W,1,11,0.8,8.5,M,-33.6,M,,*51
$PYRTM,2024,123.667723401470,14.777370811609
$GPGGA,160130.00,3427.3981,N,12057.0581,W,1,11,0.8,9.0,M,-33.6,M,,*5D
$PYRTM,2024,123.667734976007,14.777382386146
$GPGGA,160131.00,3427.3998,N,12057.0590,W,1,11,0.8,8.4,M,-33.6,M,,*51
$PYRTM,2024,123.667746561273,14.777393971412
$GPGGA,160132.00,3427.4013,N,12057.0597,W,1,11,0.8,7.7,M,-33.6,M,,*54
$PYRTM,2024,123.667758123889,14.777405534028
$GPGGA,160133.00,3427.4022,N,12057.0602,W,1,11,0.8,7.9,M,-33.6,M,,*56
$PYRTM,2024,123.667769723484,14.777417133623
$GPGGA,160134.00,3427.4030,N,12057.0611,W,1,11,0.8,8.3,M,-33.6,M,,*55
$PYRTM,2024,123.667776978669,14.777424388819
$GPGGA,160135.00,3427.4043,N,12057.0624,W,1,11,0.8,8.3,M,-33.6,M,,*56
$PYRTM,2024,123.667792866181,14.777440276319
$GPGGA,160136.00,3427.4058,N,12057.0635,W,1,11,0.8,7.8,M,-33.6,M,,*5B
$PYRTM,2024,123.667804420475,14.777451830613
$GPGGA,160137.00,3427.4072,N,12057.0640,W,1,11,0.8,7.4,M,-33.6,M,,*5C
$PYRTM,2024,123.667815994688,14.777463404826
$GPGGA,160138.00,3427.4085,N,12057.0644,W,1,11,0.8,7.4,M,-33.6,M,,*5F
$PYRTM,2024,123.667827569606,14.777474979757
$GPGGA,160139.00,3427.4097,N,12057.0654,W,1,11,0.8,7.5,M,-33.6,M,,*5D
$PYRTM,2024,123.667834848553,14.777482258692
$GPGGA,160140.00,3427.4108,N,12057.0666,W,1,11,0.8,7.9,M,-33.6,M,,*59
$PYRTM,2024,123.667850716898,14.777498127037
$GPGGA,160141.00,3427.4118,N,12057.0676,W,1,11,0.8,8.5,M,-33.6,M,,*5B
$PYRTM,2024,123.667862302546,14.777509712685
$GPGGA,160142.00,3427.4131,N,12057.0679,W,1,11,0.8,9.0,M,-33.6,M,,*58
$PYRTM,2024,123.667873866354,14.777521276493
$GPGGA,160143.00,3427.4147,N,12057.0684,W,1,11,0.8,9.0,M,-33.6,M,,*5A
$PYRTM,2024,123.667881157616,14.777528567755
$GPGGA,160144.00,3427.4162,N,12057.0695,W,1,11,0.8,7.9,M,-33.6,M,,*5D
$PYRTM,2024,123.667899908333,14.777547318472
$GPGGA,160145.00,3427.4172,N,12057.0709,W,1,11,0.8,7.3,M,-33.6,M,,*53
$PYRTM,2024,123.667911365162,14.777558775301
$GPGGA,160146.00,3427.4179,N,12057.0718,W,1,11,0.8,7.9,M,-33.6,M,,*51
$PYRTM,2024,123.667922940208,14.777570350347
$GPGGA,160147.00,3427.4192,N,12057.0719,W,1,11,0.8,8.8,M,-33.6,M,,*5A
$PYRTM,2024,123.667934513426,14.777581923565
$GPGGA,160148.00,3427.4210,N,12057.0721,W,1,11,0.8,9.1,M,-33.6,M,,*5F
$PYRTM,2024,123.667946088125,14.777593498264
$GPGGA,160149.00,3427.4224,N,12057.0729,W,1,11,0.8,8.9,M,-33.6,M,,*58
$PYRTM,2024,123.667954892894,14.777602303032
$GPGGA,160150.00,3427.4232,N,12057.0744,W,1,11,0.8,8.4,M,-33.6,M,,*51
$PYRTM,2024,123.667966459734,14.777613869873
$GPGGA,160151.00,3427.4241,N,12057.0759,W,1,11,0.8,7.8,M,-33.6,M,,*5B
$PYRTM,2024,123.667978032604,14.777625442743
$GPGGA,160152.00,3427.4255,N,12057.0765,W,1,11,0.8,7.4,M,-33.6,M,,*5E
$PYRTM,2024,123.667989607083,14.777637017222
$GPGGA,160153.00,3427.4268,N,12057.0763,W,1,11,0.8,7.8,M,-33.6,M,,*5B
$PYRTM,2024,123.668001181134,14.777648591285
$GPGGA,160154.00,3427.4280,N,12057.0769,W,1,11,0.8,8.5,M,-33.6,M,,*52
$PYRTM,2024,123.668012754988,14.777660165127
$GPGGA,160155.00,3427.4292,N,12057.0783,W,1,11,0.8,8.4,M,-33.6,M,,*55
$PYRTM,2024,123.668024329271,14.777671739410
$GPGGA,160156.00,3427.4302,N,12057.0797,W,1,11,0.8,8.1,M,-33.6,M,,*5E
$PYRTM,2024,123.668035901285,14.777683311424
$GPGGA,160157.00,3427.4312,N,12057.0806,W,1,11,0.8,7.9,M,-33.6,M,,*5E
$PYRTM,2024,123.668043184213,14.777690594352
$GPGGA,160158.00,3427.4324,N,12057.0813,W,1,11,0.8,7.8,M,-33.6,M,,*51
$PYRTM,2024,123.668059052025,14.777706462164
$GPGGA,160159.00,3427.4336,N,12057.0818,W,1,11,0.8,7.8,M,-33.6,M,,*58
$PYRTM,2024,123.668070636331,14.777718046470
$GPGGA,160200.00,3427.4347,N,12057.0825,W,1,11,0.8,8.2,M,-33.6,M,,*5A
$PYRTM,2024,123.668082194931,14.777729605069
$GPGGA,160201.00,3427.4358,N,12057.0835,W,1,11,0.8,8.6,M,-33.6,M,,*50
$PYRTM,2024,123.668093785012,14.777741195150
$GPGGA,160202.00,3427.4371,N,12057.0846,W,1,11,0.8,8.5,M,-33.6,M,,*5F
$PYRTM,2024,123.668105348877,14.777752759016
$GPGGA,160203.00,3427.4384,N,12057.0856,W,1,11,0.8,7.9,M,-33.6,M,,*56
$PYRTM,2024,123.668116931551,14.777764341690
$GPGGA,160204.00,3427.4398,N,12057.0863,W,1,11,0.8,7.6,M,-33.6,M,,*55
$PYRTM,2024,123.668128496794,14.777775906933
$GPGGA,160205.00,3427.4410,N,12057.0868,W,1,11,0.8,7.7,M,-33.6,M,,*59
$PYRTM,2024,123.668140079583,14.777787489722
$GPGGA,160206.00,3427.4421,N,12057.0875,W,1,11,0.8,8.4,M,-33.6,M,,*58
$PYRTM,2024,123.668151644942,14.777799055081
$GPGGA,160207.00,3427.4432,N,12057.0885,W,1,11,0.8,9.0,M,-33.6,M,,*51
$PYRTM,2024,123.668163229711,14.777810639850
$GPGGA,160208.00,3427.4446,N,12057.0897,W,1,11,0.8,8.6,M,-33.6,M,,*59
$PYRTM,2024,123.668174789525,14.777822199664
$GPGGA,160209.00,3427.4460,N,12057.0907,W,1,11,0.8,7.9,M,-33.6,M,,*54
$PYRTM,2024,123.668186368102,14.777833778241
$GPGGA,160210.00,3427.4471,N,12057.0911,W,1,11,0.8,7.8,M,-33.6,M,,*5A
$PYRTM,2024,123.668197937118,14.777845347257
$GPGGA,160211.00,3427.4481,N,12057.0914,W,1,11,0.8,8.4,M,-33.6,M,,*52
$PYRTM,2024,123.668209515255,14.777856925394
$GPGGA,160212.00,3427.4495,N,12057.0922,W,1,11,0.8,8.6,M,-33.6,M,,*53
$PYRTM,2024,123.668216793553,14.777864203692
$GPGGA,160213.00,3427.4510,N,12057.0936,W,1,11,0.8,7.9,M,-33.6,M,,*5B
$PYRTM,2024,123.668232663924,14.777880074074
$GPGGA,160214.00,3427.4521,N,12057.0947,W,1,11,0.8,7.6,M,-33.6,M,,*57
$PYRTM,2024,123.668239942060,14.777887352199
$GPGGA,160215.00,3427.4529,N,12057.0951,W,1,11,0.8,8.1,M,-33.6,M,,*51
$PYRTM,2024,123.668258589178,14.777905999329
$GPGGA,160216.00,3427.4541,N,12057.0951,W,1,11,0.8,8.9,M,-33.6,M,,*54
$PYRTM,2024,123.668267381192,14.777914791331
$GPGGA,160217.00,3427.4557,N,12057.0957,W,1,11,0.8,9.1,M,-33.6,M,,*5D
$PYRTM,2024,123.668274681470,14.777922091609
$GPGGA,160218.00,3427.4570,N,12057.0971,W,1,11,0.8,8.3,M,-33.6,M,,*50
$PYRTM,2024,123.668290536505,14.777937946655
$GPGGA,160219.00,3427.4578,N,12057.0984,W,1,11,0.8,8.1,M,-33.6,M,,*51
$PYRTM,2024,123.668302134769,14.777949544907
$GPGGA,160220.00,3427.4586,N,12057.0993,W,1,11,0.8,8.3,M,-33.6,M,,*5E
$PYRTM,2024,123.668313677685,14.777961087824
$GPGGA,160221.00,3427.4599,N,12057.0997,W,1,11,0.8,8.8,M,-33.6,M,,*5E
$PYRTM,2024,123.668325264433,14.777972674572
$GPGGA,160222.00,3427.4616,N,12057.0999,W,1,11,0.8,8.6,M,-33.6,M,,*59
$PYRTM,2024,123.668336830984,14.777984241123
$GPGGA,160223.00,3427.4630,N,12057.1006,W,1,11,0.8,8.5,M,-33.6,M,,*51
$PYRTM,2024,123.668348415926,14.777995826065
$GPGGA,160224.00,3427.4639,N,12057.1017,W,1,11,0.8,8.5,M,-33.6,M,,*5F
$PYRTM,2024,123.668359975579,14.778007385718
$GPGGA,160225.00,3427.4647,N,12057.1028,W,1,11,0.8,8.5,M,-33.6,M,,*5B
$PYRTM,2024,123.668371564560,14.778018974699
$GPGGA,160226.00,3427.4660,N,12057.1035,W,1,11,0.8,8.1,M,-33.6,M,,*55
$PYRTM,2024,123.668383127940,14.778030538079
$GPGGA,160227.00,3427.4675,N,12057.1041,W,1,11,0.8,7.4,M,-33.6,M,,*59
$PYRTM,2024,123.668390406921,14.778037817060
$GPGGA,160228.00,3427.4686,N,12057.1046,W,1,11,0.8,7.4,M,-33.6,M,,*5D
$PYRTM,2024,123.668406270995,14.778053681134
$GPGGA,160229.00,3427.4696,N,12057.1052,W,1,11,0.8,8.0,M,-33.6,M,,*53
$PYRTM,2024,123.668413572512,14.778060982650
$GPGGA,160230.00,3427.4709,N,12057.1059,W,1,11,0.8,8.4,M,-33.6,M,,*53
$PYRTM,2024,123.668425707789,14.778073117928
$GPGGA,160231.00,3427.4723,N,12057.1068,W,1,11,0.8,8.4,M,-33.6,M,,*58
$PYRTM,2024,123.668441023345,14.778088433484
$GPGGA,160232.00,3427.4734,N,12057.1077,W,1,11,0.8,8.2,M,-33.6,M,,*55
$PYRTM,2024,123.668452572315,14.778099982454
$GPGGA,160233.00,3427.4744,N,12057.1086,W,1,11,0.8,8.1,M,-33.6,M,,*5E
$PYRTM,2024,123.668464153900,14.778111564039
$GPGGA,160234.00,3427.4756,N,12057.1093,W,1,11,0.8,8.1,M,-33.6,M,,*5E
$PYRTM,2024,123.668475720208,14.778123130336
$GPGGA,160235.00,3427.4770,N,12057.1098,W,1,11,0.8,8.1,M,-33.6,M,,*50
$PYRTM,2024,123.668487294005,14.778134704144
$GPGGA,160236.00,3427.4783,N,12057.1106,W,1,11,0.8,8.1,M,-33.6,M,,*59
$PYRTM,2024,123.668498870220,14.778146280370
$GPGGA,160237.00,3427.4794,N,12057.1118,W,1,11,0.8,8.2,M,-33.6,M,,*52
$PYRTM,2024,123.668510443160,14.778157853299
$GPGGA,160238.00,3427.4806,N,12057.1128,W,1,11,0.8,8.4,M,-33.6,M,,*5C
$PYRTM,2024,123.668522017014,14.778169427153
$GPGGA,160239.00,3427.4819,N,12057.1132,W,1,11,0.8,8.7,M,-33.6,M,,*5B
$PYRTM,2024,123.668533602523,14.778181012662
$GPGGA,160240.00,3427.4832,N,12057.1135,W,1,11,0.8,8.9,M,-33.6,M,,*55
$PYRTM,2024,123.668545166169,14.778192576319
$GPGGA,160241.00,3427.4846,N,12057.1146,W,1,11,0.8,8.5,M,-33.6,M,,*5F
$PYRTM,2024,123.668556739398,14.778204149537
$GPGGA,160242.00,3427.4857,N,12057.1161,W,1,11,0.8,7.9,M,-33.6,M,,*5A
$PYRTM,2024,123.668564018275,14.778211428414
$GPGGA,160243.00,3427.4867,N,12057.1171,W,1,11,0.8,7.6,M,-33.6,M,,*56
$PYRTM,2024,123.668579899120,14.778227309259
$GPGGA,160244.00,3427.4879,N,12057.1173,W,1,11,0.8,8.1,M,-33.6,M,,*54
$PYRTM,2024,123.668591461574,14.778238871713
$GPGGA,160245.00,3427.4894,N,12057.1173,W,1,11,0.8,8.6,M,-33.6,M,,*51
$PYRTM,2024,123.668598757407,14.778246167546
$GPGGA,160246.00,3427.4910,N,12057.1179,W,1,11,0.8,8.8,M,-33.6,M,,*5B
$PYRTM,2024,123.668617388380,14.778264798519
$GPGGA,160247.00,3427.4922,N,12057.1194,W,1,11,0.8,8.1,M,-33.6,M,,*51
$PYRTM,2024,123.668626204653,14.778273614803
$GPGGA,160248.00,3427.4932,N,12057.1209,W,1,11,0.8,7.5,M,-33.6,M,,*53
$PYRTM,2024,123.668637754294,14.778285164433
$GPGGA,160249.00,3427.4939,N,12057.1215,W,1,11,0.8,7.8,M,-33.6,M,,*59
$PYRTM,2024,123.668649340324,14.778296750463
$GPGGA,160250.00,3427.4952,N,12057.1214,W,1,11,0.8,8.6,M,-33.6,M,,*5C
$PYRTM,2024,123.668660903356,14.778308313495
$GPGGA,160251.00,3427.4971,N,12057.1216,W,1,11,0.8,8.1,M,-33.6,M,,*59
$PYRTM,2024,123.668672480486,14.778319890637
$GPGGA,160252.00,3427.4987,N,12057.1227,W,1,11,0.8,7.7,M,-33.6,M,,*58
$PYRTM,2024,123.668679760544,14.778327170683
$GPGGA,160253.00,3427.4993,N,12057.1239,W,1,11,0.8,8.0,M,-33.6,M,,*5B
$PYRTM,2024,123.668695639479,14.778343049618
$GPGGA,160254.00,3427.4999,N,12057.1245,W,1,11,0.8,8.7,M,-33.6,M,,*5A
$PYRTM,2024,123.668707203484,14.778354613623
$GPGGA,160255.00,3427.5011,N,12057.1247,W,1,11,0.8,9.6,M,-33.6,M,,*51
$PYRTM,2024,123.668718788322,14.778366198461
$GPGGA,160256.00,3427.5028,N,12057.1253,W,1,11,0.8,9.5,M,-33.6,M,,*5E
$PYRTM,2024,123.668730351227,14.778377761366
$GPGGA,160257.00,3427.5041,N,12057.1262,W,1,11,0.8,9.3,M,-33.6,M,,*54
$PYRTM,2024,123.668737645081,14.778385055220
$GPGGA,160258.00,3427.5050,N,12057.1270,W,1,11,0.8,9.2,M,-33.6,M,,*59
$PYRTM,2024,123.668753499097,14.778400909225
$GPGGA,160259.00,3427.5061,N,12057.1277,W,1,11,0.8,9.5,M,-33.6,M,,*5A
$PYRTM,2024,123.668765081944,14.778412492083
$GPGGA,160300.00,3427.5074,N,12057.1283,W,1,11,0.8,9.7,M,-33.6,M,,*5A
$PYRTM,2024,123.668776648530,14.778424058669
$GPGGA,160301.00,3427.5085,N,12057.1287,W,1,11,0.8,10.1,M,-33.6,M,,*6F
$PYRTM,2024,123.668783927581,14.778431337720
$GPGGA,160302.00,3427.5094,N,12057.1290,W,1,11,0.8,10.8,M,-33.6,M,,*63
$PYRTM,2024,123.668799790903,14.778447201042
$GPGGA,160303.00,3427.5106,N,12057.1297,W,1,11,0.8,11.0,M,-33.6,M,,*66
$PYRTM,2024,123.668811379178,14.778458789317
$GPGGA,160304.00,3427.5119,N,12057.1308,W,1,11,0.8,10.4,M,-33.6,M,,*6D
$PYRTM,2024,123.668822939954,14.778470350093
$GPGGA,160305.00,3427.5129,N,12057.1317,W,1,11,0.8,9.5,M,-33.6,M,,*58
$PYRTM,2024,123.668834518727,14.778481928866
$GPGGA,160306.00,3427.5137,N,12057.1322,W,1,11,0.8,9.5,M,-33.6,M,,*52
$PYRTM,2024,123.668846094317,14.778493504456
$GPGGA,160307.00,3427.5146,N,12057.1324,W,1,11,0.8,10.1,M,-33.6,M,,*6F
$PYRTM,2024,123.668853384525,14.778500794664
$GPGGA,160308.00,3427.5158,N,12057.1328,W,1,11,0.8,11.1,M,-33.6,M,,*62
$PYRTM,2024,123.668869236875,14.778516647025
$GPGGA,160309.00,3427.5172,N,12057.1336,W,1,11,0.8,11.0,M,-33.6,M,,*65
$PYRTM,2024,123.668880827639,14.778528237778
$GPGGA,160310.00,3427.5184,N,12057.1347,W,1,11,0.8,10.5,M,-33.6,M,,*66
$PYRTM,2024,123.668892390278,14.778539800417
$GPGGA,160311.00,3427.5193,N,12057.1356,W,1,11,0.8,10.1,M,-33.6,M,,*65
$PYRTM,2024,123.668903963264,14.778551373403
$GPGGA,160312.00,3427.5202,N,12057.1361,W,1,11,0.8,10.1,M,-33.6,M,,*69
$PYRTM,2024,123.668915538958,14.778562949109
$GPGGA,160313.00,3427.5214,N,12057.1367,W,1,11,0.8,10.2,M,-33.6,M,,*6A
$PYRTM,2024,123.668927112593,14.778574522731
$GPGGA,160314.00,3427.5227,N,12057.1375,W,1,11,0.8,10.2,M,-33.6,M,,*6E
$PYRTM,2024,123.668938687396,14.778586097535
$GPGGA,160315.00,3427.5238,N,12057.1384,W,1,11,0.8,10.3,M,-33.6,M,,*6E
$PYRTM,2024,123.668950267917,14.778597678056
$GPGGA,160316.00,3427.5250,N,12057.1390,W,1,11,0.8,10.4,M,-33.6,M,,*61
$PYRTM,2024,123.668957661979,14.778605072118
$GPGGA,160317.00,3427.5262,N,12057.1395,W,1,11,0.8,10.7,M,-33.6,M,,*67
$PYRTM,2024,123.668976319213,14.778623729352
$GPGGA,160318.00,3427.5273,N,12057.1401,W,1,11,0.8,10.8,M,-33.6,M,,*6D
$PYRTM,2024,123.668984982141,14.778632392280
$GPGGA,160319.00,3427.5285,N,12057.1410,W,1,11,0.8,10.3,M,-33.6,M,,*6E
$PYRTM,2024,123.668996556528,14.778643966667
$GPGGA,160320.00,3427.5298,N,12057.1419,W,1,11,0.8,9.7,M,-33.6,M,,*5D
$PYRTM,2024,123.669003835671,14.778651245822
$GPGGA,160321.00,3427.5311,N,12057.1424,W,1,11,0.8,9.5,M,-33.6,M,,*50
$PYRTM,2024,123.669019705440,14.778667115579
$GPGGA,160322.00,3427.5323,N,12057.1430,W,1,11,0.8,9.8,M,-33.6,M,,*5A
$PYRTM,2024,123.669031274398,14.778678684537
$GPGGA,160323.00,3427.5334,N,12057.1437,W,1,11,0.8,10.6,M,-33.6,M,,*6C
$PYRTM,2024,123.669042852998,14.778690263137
$GPGGA,160324.00,3427.5346,N,12057.1441,W,1,11,0.8,11.3,M,-33.6,M,,*6B
$PYRTM,2024,123.669054423935,14.778701834074
$GPGGA,160325.00,3427.5361,N,12057.1446,W,1,11,0.8,11.2,M,-33.6,M,,*69
$PYRTM,2024,123.669066012419,14.778713422558
$GPGGA,160326.00,3427.5376,N,12057.1457,W,1,11,0.8,10.2,M,-33.6,M,,*6D
$PYRTM,2024,123.669077576227,14.778724986366
$GPGGA,160327.00,3427.5384,N,12057.1468,W,1,11,0.8,9.5,M,-33.6,M,,*52
$PYRTM,2024,123.669089150058,14.778736560208
$GPGGA,160328.00,3427.5392,N,12057.1474,W,1,11,0.8,9.6,M,-33.6,M,,*54
$PYRTM,2024,123.669100723877,14.778748134016
$GPGGA,160329.00,3427.5405,N,12057.1474,W,1,11,0.8,10.2,M,-33.6,M,,*60
$PYRTM,2024,123.669112305683,14.778759715822
$GPGGA,160330.00,3427.5422,N,12057.1477,W,1,11,0.8,10.0,M,-33.6,M,,*6C
$PYRTM,2024,123.669123872465,14.778771282604
$GPGGA,160331.00,3427.5435,N,12057.1486,W,1,11,0.8,9.6,M,-33.6,M,,*5B
$PYRTM,2024,123.669135474340,14.778782884491
$GPGGA,160332.00,3427.5444,N,12057.1501,W,1,11,0.8,9.1,M,-33.6,M,,*57
$PYRTM,2024,123.669142725984,14.778790136123
$GPGGA,160333.00,3427.5452,N,12057.1510,W,1,11,0.8,9.1,M,-33.6,M,,*51
$PYRTM,2024,123.669154529606,14.778801939745
$GPGGA,160334.00,3427.5465,N,12057.1511,W,1,11,0.8,9.6,M,-33.6,M,,*54
$PYRTM,2024,123.669170168866,14.778817579005
$GPGGA,160335.00,3427.5481,N,12057.1514,W,1,11,0.8,9.7,M,-33.6,M,,*5B
$PYRTM,2024,123.669177448461,14.778824858600
$GPGGA,160336.00,3427.5494,N,12057.1522,W,1,11,0.8,9.7,M,-33.6,M,,*59
$PYRTM,2024,123.669193318079,14.778840728218
$GPGGA,160337.00,3427.5503,N,12057.1535,W,1,11,0.8,9.8,M,-33.6,M,,*5E
$PYRTM,2024,123.669204890787,14.778852300926
$GPGGA,160338.00,3427.5513,N,12057.1545,W,1,11,0.8,10.0,M,-33.6,M,,*67
$PYRTM,2024,123.669216460544,14.778863870683
$GPGGA,160339.00,3427.5527,N,12057.1550,W,1,11,0.8,9.9,M,-33.6,M,,*54
$PYRTM,2024,123.669228040521,14.778875450660
$GPGGA,160340.00,3427.5543,N,12057.1554,W,1,11,0.8,9.6,M,-33.6,M,,*53
$PYRTM,2024,123.669235317951,14.778882728090
$GPGGA,160341.00,3427.5556,N,12057.1561,W,1,11,0.8,9.4,M,-33.6,M,,*52
$PYRTM,2024,123.669251187894,14.778898598044
$GPGGA,160342.00,3427.5567,N,12057.1571,W,1,11,0.8,9.6,M,-33.6,M,,*50
$PYRTM,2024,123.669262762523,14.778910172662
$GPGGA,160343.00,3427.5578,N,12057.1582,W,1,11,0.8,10.0,M,-33.6,M,,*6D
$PYRTM,2024,123.669274336238,14.778921746377
$GPGGA,160344.00,3427.5590,N,12057.1589,W,1,11,0.8,10.2,M,-33.6,M,,*65
$PYRTM,2024,123.669285909676,14.778933319815
$GPGGA,160345.00,3427.5605,N,12057.1595,W,1,11,0.8,10.0,M,-33.6,M,,*64
$PYRTM,2024,123.669297491412,14.778944901551
$GPGGA,160346.00,3427.5621,N,12057.1603,W,1,11,0.8,9.1,M,-33.6,M,,*54
$PYRTM,2024,123.669309052975,14.778956463113
$GPGGA,160347.00,3427.5634,N,12057.1613,W,1,11,0.8,8.3,M,-33.6,M,,*53
$PYRTM,2024,123.669316351262,14.778963761400
$GPGGA,160348.00,3427.5643,N,12057.1623,W,1,11,0.8,8.2,M,-33.6,M,,*5E
$PYRTM,2024,123.669335099028,14.778982509167
$GPGGA,160349.00,3427.5652,N,12057.1629,W,1,11,0.8,9.0,M,-33.6,M,,*56
$PYRTM,2024,123.669343791806,14.778991201944
$GPGGA,160350.00,3427.5667,N,12057.1632,W,1,11,0.8,9.7,M,-33.6,M,,*55
$PYRTM,2024,123.669351199896,14.778998610035
$GPGGA,160351.00,3427.5685,N,12057.1639,W,1,11,0.8,9.5,M,-33.6,M,,*51
$PYRTM,2024,123.669366927894,14.779014338032
$GPGGA,160352.00,3427.5699,N,12057.1652,W,1,11,0.8,8.8,M,-33.6,M,,*5E
$PYRTM,2024,123.669378503275,14.779025913414
$GPGGA,160353.00,3427.5707,N,12057.1665,W,1,11,0.8,8.7,M,-33.6,M,,*52
$PYRTM,2024,123.669389949167,14.779037359306
$GPGGA,160354.00,3427.5716,N,12057.1671,W,1,11,0.8,9.0,M,-33.6,M,,*56
$PYRTM,2024,123.669401651088,14.779049061227
$GPGGA,160355.00,3427.5732,N,12057.1675,W,1,11,0.8,9.7,M,-33.6,M,,*52
$PYRTM,2024,123.669408943519,14.779056353657
$GPGGA,160356.00,3427.5749,N,12057.1680,W,1,11,0.8,9.4,M,-33.6,M,,*54
$PYRTM,2024,123.669424799734,14.779072209873
$GPGGA,160357.00,3427.5762,N,12057.1689,W,1,11,0.8,8.7,M,-33.6,M,,*57
$PYRTM,2024,123.669436246597,14.779083656736
$GPGGA,160358.00,3427.5773,N,12057.1701,W,1,11,0.8,8.2,M,-33.6,M,,*5C
$PYRTM,2024,123.669443652708,14.779091062847
$GPGGA,160359.00,3427.5783,N,12057.1709,W,1,11,0.8,8.3,M,-33.6,M,,*5B
$PYRTM,2024,123.669459547558,14.779106957697
$GPGGA,160400.00,3427.5794,N,12057.1712,W,1,11,0.8,9.0,M,-33.6,M,,*5E
$PYRTM,2024,123.669470980764,14.779118390903
$GPGGA,160401.00,3427.5810,N,12057.1716,W,1,11,0.8,9.1,M,-33.6,M,,*59
$PYRTM,2024,123.669482670405,14.779130080544
$GPGGA,160402.00,3427.5826,N,12057.1724,W,1,11,0.8,8.5,M,-33.6,M,,*5B
$PYRTM,2024,123.669494245764,14.779141655903
$GPGGA,160403.00,3427.5836,N,12057.1735,W,1,11,0.8,8.1,M,-33.6,M,,*5F
$PYRTM,2024,123.669501535949,14.779148946088
$GPGGA,160404.00,3427.5846,N,12057.1746,W,1,11,0.8,8.0,M,-33.6,M,,*5A
$PYRTM,2024,123.669517277118,14.779164687257
$GPGGA,160405.00,3427.5859,N,12057.1752,W,1,11,0.8,8.5,M,-33.6,M,,*55
$PYRTM,2024,123.669524671956,14.779172082095
$GPGGA,160406.00,3427.5873,N,12057.1753,W,1,11,0.8,9.4,M,-33.6,M,,*5F
$PYRTM,2024,123.669543317951,14.779190728090
$GPGGA,160407.00,3427.5887,N,12057.1758,W,1,11,0.8,10.2,M,-33.6,M,,*60
$PYRTM,2024,123.669551986470,14.779199396620
$GPGGA,160408.00,3427.5900,N,12057.1772,W,1,11,0.8,9.3,M,-33.6,M,,*50
$PYRTM,2024,123.669559393310,14.779206803449
$GPGGA,160409.00,3427.5911,N,12057.1787,W,1,11,0.8,8.5,M,-33.6,M,,*5C
$PYRTM,2024,123.669575274479,14.779222684618
$GPGGA,160410.00,3427.5922,N,12057.1794,W,1,11,0.8,8.3,M,-33.6,M,,*50
$PYRTM,2024,123.669586837650,14.779234247778
$GPGGA,160411.00,3427.5935,N,12057.1796,W,1,11,0.8,8.7,M,-33.6,M,,*51
$PYRTM,2024,123.669598283160,14.779245693287
$GPGGA,160412.00,3427.5949,N,12057.1800,W,1,11,0.8,9.3,M,-33.6,M,,*5C
$PYRTM,2024,123.669609985880,14.779257396019
$GPGGA,160413.00,3427.5963,N,12057.1811,W,1,11,0.8,9.3,M,-33.6,M,,*55
$PYRTM,2024,123.669617265463,14.779264675613
$GPGGA,160414.00,3427.5976,N,12057.1822,W,1,11,0.8,9.0,M,-33.6,M,,*55
$PYRTM,2024,123.669633133773,14.779280543912
$GPGGA,160415.00,3427.5986,N,12057.1828,W,1,11,0.8,9.2,M,-33.6,M,,*53
$PYRTM,2024,123.669644719676,14.779292129815
$GPGGA,160416.00,3427.5998,N,12057.1834,W,1,11,0.8,9.2,M,-33.6,M,,*52
$PYRTM,2024,123.669656282407,14.779303692546
$GPGGA,160417.00,3427.6014,N,12057.1844,W,1,11,0.8,8.4,M,-33.6,M,,*5D
$PYRTM,2024,123.669667867546,14.779315277685
$GPGGA,160418.00,3427.6026,N,12057.1853,W,1,11,0.8,7.7,M,-33.6,M,,*59
$PYRTM,2024,123.669675135440,14.779322545579
$GPGGA,160419.00,3427.6036,N,12057.1857,W,1,11,0.8,7.9,M,-33.6,M,,*53
$PYRTM,2024,123.669693782199,14.779341192338
$GPGGA,160420.00,3427.6048,N,12057.1860,W,1,11,0.8,8.6,M,-33.6,M,,*54
$PYRTM,2024,123.669702580208,14.779349990347
$GPGGA,160421.00,3427.6063,N,12057.1868,W,1,11,0.8,8.5,M,-33.6,M,,*57
$PYRTM,2024,123.669714159329,14.779361569468
$GPGGA,160422.00,3427.6076,N,12057.1877,W,1,11,0.8,8.0,M,-33.6,M,,*5B
$PYRTM,2024,123.669725726366,14.779373136493
$GPGGA,160423.00,3427.6087,N,12057.1886,W,1,11,0.8,7.6,M,-33.6,M,,*53
$PYRTM,2024,123.669737312650,14.779384722789
$GPGGA,160424.00,3427.6098,N,12057.1895,W,1,11,0.8,7.1,M,-33.6,M,,*5F
$PYRTM,2024,123.669748760382,14.779396170521
$GPGGA,160425.00,3427.6111,N,12057.1902,W,1,11,0.8,7.1,M,-33.6,M,,*51
$PYRTM,2024,123.669760320150,14.779407730289
$GPGGA,160426.00,3427.6123,N,12057.1905,W,1,11,0.8,7.7,M,-33.6,M,,*52
$PYRTM,2024,123.669771908252,14.779419318391
$GPGGA,160427.00,3427.6135,N,12057.1910,W,1,11,0.8,8.4,M,-33.6,M,,*5C
$PYRTM,2024,123.669783606574,14.779431016713
$GPGGA,160428.00,3427.6149,N,12057.1920,W,1,11,0.8,8.6,M,-33.6,M,,*59
$PYRTM,2024,123.669790876435,14.779438286574
$GPGGA,160429.00,3427.6162,N,12057.1933,W,1,11,0.8,8.3,M,-33.6,M,,*56
$PYRTM,2024,123.669806755486,14.779454165625
$GPGGA,160430.00,3427.6171,N,12057.1940,W,1,11,0.8,8.5,M,-33.6,M,,*5E
$PYRTM,2024,123.669818206331,14.779465616481
$GPGGA,160431.00,3427.6181,N,12057.1944,W,1,11,0.8,9.0,M,-33.6,M,,*50
$PYRTM,2024,123.669829769363,14.779477179502
$GPGGA,160432.00,3427.6197,N,12057.1951,W,1,11,0.8,8.5,M,-33.6,M,,*54
$PYRTM,2024,123.669841354549,14.779488764688
$GPGGA,160433.00,3427.6211,N,12057.1959,W,1,11,0.8,8.3,M,-33.6,M,,*56
$PYRTM,2024,123.669852914062,14.779500324201
$GPGGA,160434.00,3427.6221,N,12057.1964,W,1,11,0.8,8.7,M,-33.6,M,,*58
$PYRTM,2024,123.669864504595,14.779511914734
$GPGGA,160435.00,3427.6231,N,12057.1970,W,1,11,0.8,9.1,M,-33.6,M,,*5A
$PYRTM,2024,123.669876062905,14.779523473044
$GPGGA,160436.00,3427.6245,N,12057.1981,W,1,11,0.8,8.8,M,-33.6,M,,*5C
$PYRTM,2024,123.669887663553,14.779535073692
$GPGGA,160437.00,3427.6258,N,12057.1989,W,1,11,0.8,8.1,M,-33.6,M,,*50
$PYRTM,2024,123.669895046782,14.779542456921
$GPGGA,160438.00,3427.6267,N,12057.1990,W,1,11,0.8,8.2,M,-33.6,M,,*58
$PYRTM,2024,123.669907195648,14.779554605787
$GPGGA,160439.00,3427.6275,N,12057.1992,W,1,11,0.8,9.1,M,-33.6,M,,*5A
$PYRTM,2024,123.669922358843,14.779569768981
$GPGGA,160440.00,3427.6288,N,12057.2000,W,1,11,0.8,9.3,M,-33.6,M,,*55
$PYRTM,2024,123.669933946169,14.779581356308
$GPGGA,160441.00,3427.6303,N,12057.2013,W,1,11,0.8,8.5,M,-33.6,M,,*53
$PYRTM,2024,123.669945507234,14.779592917373
$GPGGA,160442.00,3427.6312,N,12057.2020,W,1,11,0.8,8.3,M,-33.6,M,,*56
$PYRTM,2024,123.669957094653,14.779604504792
$GPGGA,160443.00,3427.6319,N,12057.2021,W,1,11,0.8,8.7,M,-33.6,M,,*59
$PYRTM,2024,123.669968654931,14.779616065081
$GPGGA,160444.00,3427.6330,N,12057.2023,W,1,11,0.8,9.2,M,-33.6,M,,*53
$PYRTM,2024,123.669980242940,14.779627653079
$GPGGA,160445.00,3427.6345,N,12057.2033,W,1,11,0.8,8.3,M,-33.6,M,,*51
$PYRTM,2024,123.669991804525,14.779639214664
$GPGGA,160446.00,3427.6357,N,12057.2042,W,1,11,0.8,7.9,M,-33.6,M,,*52
$PYRTM,2024,123.670003393241,14.779650803380
$GPGGA,160447.00,3427.6365,N,12057.2047,W,1,11,0.8,8.4,M,-33.6,M,,*55
$PYRTM,2024,123.670014953148,14.779662363287
$GPGGA,160448.00,3427.6373,N,12057.2048,W,1,11,0.8,9.3,M,-33.6,M,,*54
$PYRTM,2024,123.670022360139,14.779669770289
$GPGGA,160449.00,3427.6385,N,12057.2053,W,1,11,0.8,9.6,M,-33.6,M,,*53
$PYRTM,2024,123.670034048576,14.779681458715
$GPGGA,160450.00,3427.6399,N,12057.2061,W,1,11,0.8,8.9,M,-33.6,M,,*59
$PYRTM,2024,123.670052580521,14.779699990660
$GPGGA,160451.00,3427.6411,N,12057.2070,W,1,11,0.8,8.2,M,-33.6,M,,*54
$PYRTM,2024,123.670061249549,14.779708659688
$GPGGA,160452.00,3427.6417,N,12057.2077,W,1,11,0.8,8.3,M,-33.6,M,,*57
$PYRTM,2024,123.670072835498,14.779720245637
$GPGGA,160453.00,3427.6423,N,12057.2083,W,1,11,0.8,9.3,M,-33.6,M,,*5B
$PYRTM,2024,123.670080245521,14.779727655660
$GPGGA,160454.00,3427.6435,N,12057.2088,W,1,11,0.8,10.0,M,-33.6,M,,*6B
$PYRTM,2024,123.670096101123,14.779743511262
$GPGGA,160455.00,3427.6450,N,12057.2092,W,1,11,0.8,10.0,M,-33.6,M,,*62
$PYRTM,2024,123.670107545949,14.779754956088
$GPGGA,160456.00,3427.6461,N,12057.2096,W,1,11,0.8,9.7,M,-33.6,M,,*58
$PYRTM,2024,123.670119127882,14.779766538021
$GPGGA,160457.00,3427.6469,N,12057.2106,W,1,11,0.8,9.3,M,-33.6,M,,*5D
$PYRTM,2024,123.670130693449,14.779778103588
$GPGGA,160458.00,3427.6475,N,12057.2120,W,1,11,0.8,8.8,M,-33.6,M,,*51
$PYRTM,2024,123.670142280752,14.779789690891
$GPGGA,160459.00,3427.6484,N,12057.2128,W,1,11,0.8,8.7,M,-33.6,M,,*59
$PYRTM,2024,123.670153842940,14.779801253079
$GPGGA,160500.00,3427.6498,N,12057.2129,W,1,11,0.8,9.2,M,-33.6,M,,*5C
$PYRTM,2024,123.670165432836,14.779812842975
$GPGGA,160501.00,3427.6513,N,12057.2127,W,1,11,0.8,9.8,M,-33.6,M,,*5B
$PYRTM,2024,123.670177118437,14.779824528576
$GPGGA,160502.00,3427.6524,N,12057.2133,W,1,11,0.8,10.5,M,-33.6,M,,*6C
$PYRTM,2024,123.670188692512,14.779836102650
$GPGGA,160503.00,3427.6530,N,12057.2147,W,1,11,0.8,10.8,M,-33.6,M,,*66
$PYRTM,2024,123.670195973125,14.779843383264
$GPGGA,160504.00,3427.6540,N,12057.2163,W,1,11,0.8,9.7,M,-33.6,M,,*57
$PYRTM,2024,123.670211729167,14.779859139306
$GPGGA,160505.00,3427.6554,N,12057.2170,W,1,11,0.8,8.5,M,-33.6,M,,*52
$PYRTM,2024,123.670223286019,14.779870696157
$GPGGA,160506.00,3427.6566,N,12057.2168,W,1,11,0.8,8.1,M,-33.6,M,,*5D
$PYRTM,2024,123.670234869595,14.779882279734
$GPGGA,160507.00,3427.6575,N,12057.2166,W,1,11,0.8,8.7,M,-33.6,M,,*56
$PYRTM,2024,123.670246435023,14.779893845162
$GPGGA,160508.00,3427.6584,N,12057.2176,W,1,11,0.8,9.4,M,-33.6,M,,*54
$PYRTM,2024,123.670258022025,14.779905432164
$GPGGA,160509.00,3427.6597,N,12057.2190,W,1,11,0.8,9.3,M,-33.6,M,,*58
$PYRTM,2024,123.670265431609,14.779912841748
$GPGGA,160510.00,3427.6611,N,12057.2200,W,1,11,0.8,8.5,M,-33.6,M,,*50
$PYRTM,2024,123.670281165324,14.779928575463
$GPGGA,160511.00,3427.6620,N,12057.2205,W,1,11,0.8,8.3,M,-33.6,M,,*50
$PYRTM,2024,123.670292732396,14.779940142546
$GPGGA,160512.00,3427.6627,N,12057.2211,W,1,11,0.8,8.7,M,-33.6,M,,*55
$PYRTM,2024,123.670304318600,14.779951728738
$GPGGA,160513.00,3427.6637,N,12057.2217,W,1,11,0.8,9.3,M,-33.6,M,,*56
$PYRTM,2024,123.670311714120,14.779959124259
$GPGGA,160514.00,3427.6651,N,12057.2222,W,1,11,0.8,9.4,M,-33.6,M,,*50
$PYRTM,2024,123.670327468310,14.779974878449
$GPGGA,160515.00,3427.6664,N,12057.2227,W,1,11,0.8,9.1,M,-33.6,M,,*57
$PYRTM,2024,123.670339030116,14.779986440255
$GPGGA,160516.00,3427.6675,N,12057.2235,W,1,11,0.8,8.7,M,-33.6,M,,*50
$PYRTM,2024,123.670346436007,14.779993846146
$GPGGA,160517.00,3427.6684,N,12057.2248,W,1,11,0.8,8.0,M,-33.6,M,,*52
$PYRTM,2024,123.670362177454,14.780009587604
$GPGGA,160518.00,3427.6693,N,12057.2258,W,1,11,0.8,7.6,M,-33.6,M,,*53
$PYRTM,2024,123.670373766968,14.780021177106
$GPGGA,160519.00,3427.6705,N,12057.2259,W,1,11,0.8,8.0,M,-33.6,M,,*54
$PYRTM,2024,123.670385325428,14.780032735567
$GPGGA,160520.00,3427.6719,N,12057.2255,W,1,11,0.8,8.7,M,-33.6,M,,*58
$PYRTM,2024,123.670392732118,14.780040142257
$GPGGA,160521.00,3427.6733,N,12057.2260,W,1,11,0.8,9.0,M,-33.6,M,,*51
$PYRTM,2024,123.670411390116,14.780058800255
$GPGGA,160522.00,3427.6744,N,12057.2273,W,1,11,0.8,8.7,M,-33.6,M,,*56
$PYRTM,2024,123.670420064803,14.780067474942
$GPGGA,160523.00,3427.6753,N,12057.2286,W,1,11,0.8,8.2,M,-33.6,M,,*5E
$PYRTM,2024,123.670431622373,14.780079032523
$GPGGA,160524.00,3427.6765,N,12057.2293,W,1,11,0.8,7.9,M,-33.6,M,,*5C
$PYRTM,2024,123.670443207523,14.780090617662
$GPGGA,160525.00,3427.6779,N,12057.2296,W,1,11,0.8,7.9,M,-33.6,M,,*55
$PYRTM,2024,123.670454770891,14.780102181042
$GPGGA,160526.00,3427.6792,N,12057.2301,W,1,11,0.8,8.5,M,-33.6,M,,*5F
$PYRTM,2024,123.670466356678,14.780113766817
$GPGGA,160527.00,3427.6801,N,12057.2306,W,1,11,0.8,9.7,M,-33.6,M,,*5F
$PYRTM,2024,123.670478045949,14.780125456100
$GPGGA,160528.00,3427.6813,N,12057.2312,W,1,11,0.8,10.7,M,-33.6,M,,*6E
$PYRTM,2024,123.670485325833,14.780132735972
$GPGGA,160529.00,3427.6826,N,12057.2321,W,1,11,0.8,10.9,M,-33.6,M,,*67
$PYRTM,2024,123.670501066134,14.780148476273
$GPGGA,160530.00,3427.6839,N,12057.2332,W,1,11,0.8,9.9,M,-33.6,M,,*5B
$PYRTM,2024,123.670512657604,14.780160067743
$GPGGA,160531.00,3427.6850,N,12057.2342,W,1,11,0.8,9.1,M,-33.6,M,,*5A
$PYRTM,2024,123.670524213773,14.780171623912
$GPGGA,160532.00,3427.6861,N,12057.2346,W,1,11,0.8,8.8,M,-33.6,M,,*57
$PYRTM,2024,123.670535804525,14.780183214664
$GPGGA,160533.00,3427.6873,N,12057.2347,W,1,11,0.8,9.5,M,-33.6,M,,*58
$PYRTM,2024,123.670547503125,14.780194913264
$GPGGA,160534.00,3427.6886,N,12057.2351,W,1,11,0.8,10.5,M,-33.6,M,,*6A
$PYRTM,2024,123.670559059988,14.780206470127
$GPGGA,160535.00,3427.6900,N,12057.2361,W,1,11,0.8,10.8,M,-33.6,M,,*6A
$PYRTM,2024,123.670570638854,14.780218048993
$GPGGA,160536.00,3427.6915,N,12057.2372,W,1,11,0.8,10.3,M,-33.6,M,,*64
$PYRTM,2024,123.670582094398,14.780229504537
$GPGGA,160537.00,3427.6925,N,12057.2380,W,1,11,0.8,9.8,M,-33.6,M,,*58
$PYRTM,2024,123.670593658426,14.780241068565
$GPGGA,160538.00,3427.6936,N,12057.2386,W,1,11,0.8,9.6,M,-33.6,M,,*5D
$PYRTM,2024,123.670601066331,14.780248476470
$GPGGA,160539.00,3427.6948,N,12057.2394,W,1,11,0.8,9.5,M,-33.6,M,,*55
$PYRTM,2024,123.670616808519,14.780264218669
$GPGGA,160540.00,3427.6962,N,12057.2402,W,1,11,0.8,9.3,M,-33.6,M,,*5D
$PYRTM,2024,123.670628395486,14.780275805625
$GPGGA,160541.00,3427.6975,N,12057.2409,W,1,11,0.8,9.5,M,-33.6,M,,*57
$PYRTM,2024,123.670635788657,14.780283198796
$GPGGA,160542.00,3427.6986,N,12057.2414,W,1,11,0.8,10.4,M,-33.6,M,,*6D
$PYRTM,2024,123.670651658079,14.780299068218
$GPGGA,160543.00,3427.6998,N,12057.2421,W,1,11,0.8,11.0,M,-33.6,M,,*60
$PYRTM,2024,123.670663247326,14.780310657465
$GPGGA,160544.00,3427.7012,N,12057.2435,W,1,11,0.8,10.5,M,-33.6,M,,*6C
$PYRTM,2024,123.670674695127,14.780322105266
$GPGGA,160545.00,3427.7025,N,12057.2447,W,1,11,0.8,9.7,M,-33.6,M,,*56
$PYRTM,2024,123.670686252153,14.780333662292
$GPGGA,160546.00,3427.7034,N,12057.2451,W,1,11,0.8,9.8,M,-33.6,M,,*5D
$PYRTM,2024,123.670697954919,14.780345365058
$GPGGA,160547.00,3427.7043,N,12057.2450,W,1,11,0.8,10.4,M,-33.6,M,,*69
$PYRTM,2024,123.670709529294,14.780356939433
$GPGGA,160548.00,3427.7056,N,12057.2455,W,1,11,0.8,10.8,M,-33.6,M,,*6B
$PYRTM,2024,123.670716808206,14.780364218345
$GPGGA,160549.00,3427.7071,N,12057.2467,W,1,11,0.8,10.2,M,-33.6,M,,*64
$PYRTM,2024,123.670732689329,14.780380099468
$GPGGA,160550.00,3427.7083,N,12057.2481,W,1,11,0.8,9.7,M,-33.6,M,,*54
$PYRTM,2024,123.670744252512,14.780391662650
$GPGGA,160551.00,3427.7092,N,12057.2487,W,1,11,0.8,9.4,M,-33.6,M,,*50
$PYRTM,2024,123.670751546678,14.780398956817
$GPGGA,160552.00,3427.7103,N,12057.2486,W,1,11,0.8,9.9,M,-33.6,M,,*56
$PYRTM,2024,123.670770293449,14.780417703588
$GPGGA,160553.00,3427.7118,N,12057.2486,W,1,11,0.8,10.1,M,-33.6,M,,*6D
$PYRTM,2024,123.670778999838,14.780426409977
$GPGGA,160554.00,3427.7132,N,12057.2496,W,1,11,0.8,9.6,M,-33.6,M,,*5C
$PYRTM,2024,123.670790548727,14.780437958866
$GPGGA,160555.00,3427.7143,N,12057.2510,W,1,11,0.8,9.0,M,-33.6,M,,*52
$PYRTM,2024,123.670801993449,14.780449403588
$GPGGA,160556.00,3427.7151,N,12057.2519,W,1,11,0.8,9.2,M,-33.6,M,,*59
$PYRTM,2024,123.670813581887,14.780460992025
$GPGGA,160557.00,3427.7161,N,12057.2518,W,1,11,0.8,9.6,M,-33.6,M,,*5E
$PYRTM,2024,123.670825141609,14.780472551748
$GPGGA,160558.00,3427.7178,N,12057.2518,W,1,11,0.8,9.3,M,-33.6,M,,*5C
$PYRTM,2024,123.670832550752,14.780479960891
$GPGGA,160559.00,3427.7194,N,12057.2525,W,1,11,0.8,8.4,M,-33.6,M,,*57
$PYRTM,2024,123.670848289954,14.780495700093
$GPGGA,160600.00,3427.7202,N,12057.2536,W,1,11,0.8,8.0,M,-33.6,M,,*52
$PYRTM,2024,123.670859880729,14.780507290868
$GPGGA,160601.00,3427.7207,N,12057.2541,W,1,11,0.8,8.4,M,-33.6,M,,*52
$PYRTM,2024,123.670871437812,14.780518847940
$GPGGA,160602.00,3427.7220,N,12057.2544,W,1,11,0.8,8.6,M,-33.6,M,,*53
$PYRTM,2024,123.670883024502,14.780530434641
$GPGGA,160603.00,3427.7236,N,12057.2549,W,1,11,0.8,7.8,M,-33.6,M,,*59
$PYRTM,2024,123.670890435405,14.780537845544
$GPGGA,160604.00,3427.7247,N,12057.2554,W,1,11,0.8,7.6,M,-33.6,M,,*5A
$PYRTM,2024,123.670906169560,14.780553579699
$GPGGA,160605.00,3427.7252,N,12057.2559,W,1,11,0.8,8.2,M,-33.6,M,,*59
$PYRTM,2024,123.670917735046,14.780565145197
$GPGGA,160606.00,3427.7260,N,12057.2565,W,1,11,0.8,8.7,M,-33.6,M,,*51
$PYRTM,2024,123.670929327153,14.780576737292
$GPGGA,160607.00,3427.7275,N,12057.2573,W,1,11,0.8,8.2,M,-33.6,M,,*56
$PYRTM,2024,123.670940883530,14.780588293669
$GPGGA,160608.00,3427.7289,N,12057.2580,W,1,11,0.8,7.4,M,-33.6,M,,*5F
$PYRTM,2024,123.670952465671,14.780599875822
$GPGGA,160609.00,3427.7295,N,12057.2583,W,1,11,0.8,7.3,M,-33.6,M,,*57
$PYRTM,2024,123.670964031215,14.780611441354
$GPGGA,160610.00,3427.7300,N,12057.2584,W,1,11,0.8,7.6,M,-33.6,M,,*50
$PYRTM,2024,123.670975619352,14.780623029502
$GPGGA,160611.00,3427.7310,N,12057.2589,W,1,11,0.8,7.7,M,-33.6,M,,*5C
$PYRTM,2024,123.670987179398,14.780634589537
$GPGGA,160612.00,3427.7324,N,12057.2599,W,1,11,0.8,7.2,M,-33.6,M,,*5C
$PYRTM,2024,123.670998762176,14.780646172315
$GPGGA,160613.00,3427.7335,N,12057.2605,W,1,11,0.8,6.6,M,-33.6,M,,*5E
$PYRTM,2024,123.671006162373,14.780653572512
$GPGGA,160614.00,3427.7342,N,12057.2608,W,1,11,0.8,6.7,M,-33.6,M,,*55
$PYRTM,2024,123.671024809664,14.780672219803
$GPGGA,160615.00,3427.7350,N,12057.2613,W,1,11,0.8,7.2,M,-33.6,M,,*59
$PYRTM,2024,123.671033476157,14.780680886308
$GPGGA,160616.00,3427.7361,N,12057.2621,W,1,11,0.8,7.3,M,-33.6,M,,*58
$PYRTM,2024,123.671045077998,14.780692488137
$GPGGA,160617.00,3427.7373,N,12057.2630,W,1,11,0.8,7.2,M,-33.6,M,,*5B
$PYRTM,2024,123.671056624942,14.780704035081
$GPGGA,160618.00,3427.7382,N,12057.2636,W,1,11,0.8,7.4,M,-33.6,M,,*5A
$PYRTM,2024,123.671064031887,14.780711442025
$GPGGA,160619.00,3427.7391,N,12057.2638,W,1,11,0.8,8.0,M,-33.6,M,,*5C
$PYRTM,2024,123.671079772569,14.780727182708
$GPGGA,160620.00,3427.7401,N,12057.2642,W,1,11,0.8,8.5,M,-33.6,M,,*50
$PYRTM,2024,123.671091360289,14.780738770440
$GPGGA,160621.00,3427.7413,N,12057.2651,W,1,11,0.8,8.3,M,-33.6,M,,*56
$PYRTM,2024,123.671102920961,14.780750331100
$GPGGA,160622.00,3427.7424,N,12057.2660,W,1,11,0.8,7.3,M,-33.6,M,,*5C
$PYRTM,2024,123.671110328646,14.780757738785
$GPGGA,160623.00,3427.7434,N,12057.2668,W,1,11,0.8,7.0,M,-33.6,M,,*57
$PYRTM,2024,123.671128984387,14.780776394537
$GPGGA,160624.00,3427.7443,N,12057.2673,W,1,11,0.8,7.5,M,-33.6,M,,*5F
$PYRTM,2024,123.671137658773,14.780785068912
$GPGGA,160625.00,3427.7453,N,12057.2677,W,1,11,0.8,8.3,M,-33.6,M,,*52
$PYRTM,2024,123.671149217581,14.780796627720
$GPGGA,160626.00,3427.7465,N,12057.2684,W,1,11,0.8,8.6,M,-33.6,M,,*5D
$PYRTM,2024,123.671160803819,14.780808213958
$GPGGA,160627.00,3427.7477,N,12057.2692,W,1,11,0.8,8.5,M,-33.6,M,,*5B
$PYRTM,2024,123.671172366586,14.780819776725
$GPGGA,160628.00,3427.7488,N,12057.2698,W,1,11,0.8,8.4,M,-33.6,M,,*5F
$PYRTM,2024,123.671179774722,14.780827184861
$GPGGA,160629.00,3427.7499,N,12057.2703,W,1,11,0.8,8.2,M,-33.6,M,,*5B
$PYRTM,2024,123.671195514942,14.780842925081
$GPGGA,160630.00,3427.7510,N,12057.2713,W,1,11,0.8,7.8,M,-33.6,M,,*57
$PYRTM,2024,123.671207104583,14.780854514722
$GPGGA,160631.00,3427.7519,N,12057.2723,W,1,11,0.8,7.6,M,-33.6,M,,*52
$PYRTM,2024,123.671218662130,14.780866072269
$GPGGA,160632.00,3427.7530,N,12057.2728,W,1,11,0.8,8.1,M,-33.6,M,,*59
$PYRTM,2024,123.671230251586,14.780877661725
$GPGGA,160633.00,3427.7543,N,12057.2729,W,1,11,0.8,8.9,M,-33.6,M,,*55
$PYRTM,2024,123.671241810347,14.780889220486
$GPGGA,160634.00,3427.7556,N,12057.2733,W,1,11,0.8,9.4,M,-33.6,M,,*51
$PYRTM,2024,123.671253399583,14.780900809734
$GPGGA,160635.00,3427.7567,N,12057.2744,W,1,11,0.8,9.2,M,-33.6,M,,*54
$PYRTM,2024,123.671264959120,14.780912369271
$GPGGA,160636.00,3427.7577,N,12057.2758,W,1,11,0.8,8.5,M,-33.6,M,,*5D
$PYRTM,2024,123.671276541597,14.780923951736
$GPGGA,160637.00,3427.7588,N,12057.2763,W,1,11,0.8,8.0,M,-33.6,M,,*51
$PYRTM,2024,123.671288107257,14.780935517396
$GPGGA,160638.00,3427.7600,N,12057.2759,W,1,11,0.8,8.2,M,-33.6,M,,*56
$PYRTM,2024,123.671295514606,14.780942924745
$GPGGA,160639.00,3427.7614,N,12057.2760,W,1,11,0.8,8.1,M,-33.6,M,,*5B
$PYRTM,2024,123.671311257326,14.780958667477
$GPGGA,160640.00,3427.7627,N,12057.2774,W,1,11,0.8,7.6,M,-33.6,M,,*58
$PYRTM,2024,123.671322843345,14.780970253484
$GPGGA,160641.00,3427.7637,N,12057.2791,W,1,11,0.8,7.4,M,-33.6,M,,*51
$PYRTM,2024,123.671330237222,14.780977647361
$GPGGA,160642.00,3427.7645,N,12057.2796,W,1,11,0.8,7.7,M,-33.6,M,,*53
$PYRTM,2024,123.671345994618,14.780993404757
$GPGGA,160643.00,3427.7656,N,12057.2793,W,1,11,0.8,8.5,M,-33.6,M,,*58
$PYRTM,2024,123.671357552014,14.781004962153
$GPGGA,160644.00,3427.7671,N,12057.2793,W,1,11,0.8,8.4,M,-33.6,M,,*5B
$PYRTM,2024,123.671369155810,14.781016565949
$GPGGA,160645.00,3427.7684,N,12057.2806,W,1,11,0.8,8.0,M,-33.6,M,,*57
$PYRTM,2024,123.671376534271,14.781023944410
$GPGGA,160646.00,3427.7691,N,12057.2822,W,1,11,0.8,7.5,M,-33.6,M,,*5C
$PYRTM,2024,123.671392288322,14.781039698461
$GPGGA,160647.00,3427.7698,N,12057.2832,W,1,11,0.8,7.7,M,-33.6,M,,*57
$PYRTM,2024,123.671403848704,14.781051258843
$GPGGA,160648.00,3427.7710,N,12057.2831,W,1,11,0.8,8.4,M,-33.6,M,,*56
$PYRTM,2024,123.671415435451,14.781062845590
$GPGGA,160649.00,3427.7726,N,12057.2829,W,1,11,0.8,8.9,M,-33.6,M,,*56
$PYRTM,2024,123.671426995509,14.781074405648
$GPGGA,160650.00,3427.7741,N,12057.2836,W,1,11,0.8,8.2,M,-33.6,M,,*5A
$PYRTM,2024,123.671438586123,14.781085996262
$GPGGA,160651.00,3427.7752,N,12057.2850,W,1,11,0.8,7.7,M,-33.6,M,,*53
$PYRTM,2024,123.671450146644,14.781097556782
$GPGGA,160652.00,3427.7758,N,12057.2861,W,1,11,0.8,7.7,M,-33.6,M,,*58
$PYRTM,2024,123.671461731655,14.781109141794
$GPGGA,160653.00,3427.7765,N,12057.2866,W,1,11,0.8,8.4,M,-33.6,M,,*5C
$PYRTM,2024,123.671469129039,14.781116539178
$GPGGA,160654.00,3427.7780,N,12057.2870,W,1,11,0.8,8.6,M,-33.6,M,,*55
$PYRTM,2024,123.671487773727,14.781135183866
$GPGGA,160655.00,3427.7795,N,12057.2875,W,1,11,0.8,8.1,M,-33.6,M,,*52
$PYRTM,2024,123.671496441771,14.781143851910
$GPGGA,160656.00,3427.7806,N,12057.2883,W,1,11,0.8,8.0,M,-33.6,M,,*5C
$PYRTM,2024,123.671508033137,14.781155443287
$GPGGA,160657.00,3427.7814,N,12057.2895,W,1,11,0.8,8.1,M,-33.6,M,,*58
$PYRTM,2024,123.671519591065,14.781167001204
$GPGGA,160658.00,3427.7823,N,12057.2908,W,1,11,0.8,8.0,M,-33.6,M,,*57
$PYRTM,2024,123.671526999977,14.781174410116
$GPGGA,160659.00,3427.7835,N,12057.2914,W,1,11,0.8,8.0,M,-33.6,M,,*5C
$PYRTM,2024,123.671542739167,14.781190149306
$GPGGA,160700.00,3427.7847,N,12057.2917,W,1,11,0.8,8.3,M,-33.6,M,,*54
$PYRTM,2024,123.671554328611,14.781201738750
$GPGGA,160701.00,3427.7860,N,12057.2923,W,1,11,0.8,8.7,M,-33.6,M,,*53
$PYRTM,2024,123.671565888981,14.781213299120
$GPGGA,160702.00,3427.7871,N,12057.2935,W,1,11,0.8,8.4,M,-33.6,M,,*54
$PYRTM,2024,123.671577474005,14.781224884144
$GPGGA,160703.00,3427.7880,N,12057.2946,W,1,11,0.8,8.0,M,-33.6,M,,*5B
$PYRTM,2024,123.671584883102,14.781232293241
$GPGGA,160704.00,3427.7891,N,12057.2953,W,1,11,0.8,7.9,M,-33.6,M,,*5E
$PYRTM,2024,123.671600617130,14.781248027269
$GPGGA,160705.00,3427.7905,N,12057.2959,W,1,11,0.8,8.0,M,-33.6,M,,*5F
$PYRTM,2024,123.671612183021,14.781259593160
$GPGGA,160706.00,3427.7916,N,12057.2965,W,1,11,0.8,8.3,M,-33.6,M,,*52
$PYRTM,2024,123.671623770729,14.781271180868
$GPGGA,160707.00,3427.7927,N,12057.2971,W,1,11,0.8,8.6,M,-33.6,M,,*51
$PYRTM,2024,123.671635333924,14.781282744063
$GPGGA,160708.00,3427.7939,N,12057.2981,W,1,11,0.8,8.4,M,-33.6,M,,*5C
$PYRTM,2024,123.671646918125,14.781294328264
$GPGGA,160709.00,3427.7952,N,12057.2993,W,1,11,0.8,7.9,M,-33.6,M,,*51
$PYRTM,2024,123.671658480313,14.781305890451
$GPGGA,160710.00,3427.7963,N,12057.3001,W,1,11,0.8,7.8,M,-33.6,M,,*59
$PYRTM,2024,123.671670061539,14.781317471678
$GPGGA,160711.00,3427.7976,N,12057.3004,W,1,11,0.8,7.9,M,-33.6,M,,*58
$PYRTM,2024,123.671681629051,14.781329039190
$GPGGA,160712.00,3427.7990,N,12057.3011,W,1,11,0.8,7.9,M,-33.6,M,,*57
$PYRTM,2024,123.671693230544,14.781340640683
$GPGGA,160713.00,3427.8002,N,12057.3022,W,1,11,0.8,7.8,M,-33.6,M,,*5A
$PYRTM,2024,123.671704776667,14.781352186806
$GPGGA,160714.00,3427.8013,N,12057.3032,W,1,11,0.8,8.0,M,-33.6,M,,*5B
$PYRTM,2024,123.671716363229,14.781363773368
$GPGGA,160715.00,3427.8024,N,12057.3036,W,1,11,0.8,8.6,M,-33.6,M,,*5C
$PYRTM,2024,123.671727925312,14.781375335451
$GPGGA,160716.00,3427.8037,N,12057.3040,W,1,11,0.8,9.2,M,-33.6,M,,*59
$PYRTM,2024,123.671739512153,14.781386922292
$GPGGA,160717.00,3427.8052,N,12057.3050,W,1,11,0.8,9.0,M,-33.6,M,,*58
$PYRTM,2024,123.671746914757,14.781394324896
$GPGGA,160718.00,3427.8065,N,12057.3064,W,1,11,0.8,8.1,M,-33.6,M,,*54
$PYRTM,2024,123.671759059641,14.781406469780
$GPGGA,160719.00,3427.8074,N,12057.3074,W,1,11,0.8,7.9,M,-33.6,M,,*53
$PYRTM,2024,123.671774219294,14.781421629433
$GPGGA,160720.00,3427.8084,N,12057.3079,W,1,11,0.8,8.5,M,-33.6,M,,*58
$PYRTM,2024,123.671785810266,14.781433220417
$GPGGA,160721.00,3427.8098,N,12057.3082,W,1,11,0.8,9.4,M,-33.6,M,,*50
$PYRTM,2024,123.671797370521,14.781444780660
$GPGGA,160722.00,3427.8114,N,12057.3087,W,1,11,0.8,9.8,M,-33.6,M,,*5F
$PYRTM,2024,123.671808957245,14.781456367384
$GPGGA,160723.00,3427.8128,N,12057.3096,W,1,11,0.8,9.5,M,-33.6,M,,*5C
$PYRTM,2024,123.671816352905,14.781463763044
$GPGGA,160724.00,3427.8140,N,12057.3107,W,1,11,0.8,8.9,M,-33.6,M,,*51
$PYRTM,2024,123.671828055093,14.781475465231
$GPGGA,160725.00,3427.8149,N,12057.3117,W,1,11,0.8,8.6,M,-33.6,M,,*57
$PYRTM,2024,123.671846573148,14.781493983287
$GPGGA,160726.00,3427.8160,N,12057.3123,W,1,11,0.8,8.8,M,-33.6,M,,*56
$PYRTM,2024,123.671855266782,14.781502676921
$GPGGA,160727.00,3427.8175,N,12057.3127,W,1,11,0.8,8.9,M,-33.6,M,,*56
$PYRTM,2024,123.671866813819,14.781514223958
$GPGGA,160728.00,3427.8191,N,12057.3132,W,1,11,0.8,9.1,M,-33.6,M,,*5E
$PYRTM,2024,123.671874222731,14.781521632870
$GPGGA,160729.00,3427.8202,N,12057.3140,W,1,11,0.8,9.5,M,-33.6,M,,*57
$PYRTM,2024,123.671890102639,14.781537512778
$GPGGA,160730.00,3427.8212,N,12057.3151,W,1,11,0.8,10.1,M,-33.6,M,,*62
$PYRTM,2024,123.671901664850,14.781549074988
$GPGGA,160731.00,3427.8225,N,12057.3159,W,1,11,0.8,10.2,M,-33.6,M,,*6C
$PYRTM,2024,123.671913110984,14.781560521123
$GPGGA,160732.00,3427.8241,N,12057.3165,W,1,11,0.8,9.5,M,-33.6,M,,*5D
$PYRTM,2024,123.671924698831,14.781572108970
$GPGGA,160733.00,3427.8253,N,12057.3172,W,1,11,0.8,9.0,M,-33.6,M,,*5C
$PYRTM,2024,123.671932105359,14.781579515498
$GPGGA,160734.00,3427.8263,N,12057.3182,W,1,11,0.8,8.9,M,-33.6,M,,*5F
$PYRTM,2024,123.671947848727,14.781595258877
$GPGGA,160735.00,3427.8275,N,12057.3191,W,1,11,0.8,9.3,M,-33.6,M,,*50
$PYRTM,2024,123.671959542685,14.781606952824
$GPGGA,160736.00,3427.8290,N,12057.3196,W,1,11,0.8,10.0,M,-33.6,M,,*64
$PYRTM,2024,123.671971109421,14.781618519560
$GPGGA,160737.00,3427.8304,N,12057.3200,W,1,11,0.8,10.4,M,-33.6,M,,*61
$PYRTM,2024,123.671982683958,14.781630094097
$GPGGA,160738.00,3427.8317,N,12057.3209,W,1,11,0.8,10.3,M,-33.6,M,,*62
$PYRTM,2024,123.671994156632,14.781641566782
$GPGGA,160739.00,3427.8329,N,12057.3224,W,1,11,0.8,9.5,M,-33.6,M,,*5F
$PYRTM,2024,123.672005704051,14.781653114190
$GPGGA,160740.00,3427.8341,N,12057.3236,W,1,11,0.8,8.6,M,-33.6,M,,*5E
$PYRTM,2024,123.672017294479,14.781664704618
$GPGGA,160741.00,3427.8353,N,12057.3242,W,1,11,0.8,8.5,M,-33.6,M,,*5C
$PYRTM,2024,123.672028853102,14.781676263241
$GPGGA,160742.00,3427.8367,N,12057.3246,W,1,11,0.8,8.9,M,-33.6,M,,*50
$PYRTM,2024,123.672040453970,14.781687864120
$GPGGA,160743.00,3427.8383,N,12057.3251,W,1,11,0.8,9.7,M,-33.6,M,,*52
$PYRTM,2024,123.672047846389,14.781695256528
$GPGGA,160744.00,3427.8398,N,12057.3260,W,1,11,0.8,10.3,M,-33.6,M,,*61
$PYRTM,2024,123.672063703646,14.781711113785
$GPGGA,160745.00,3427.8411,N,12057.3272,W,1,11,0.8,10.3,M,-33.6,M,,*65
$PYRTM,2024,123.672075148079,14.781722558218
$GPGGA,160746.00,3427.8424,N,12057.3284,W,1,11,0.8,9.8,M,-33.6,M,,*5A
$PYRTM,2024,123.672086736655,14.781734146782
$GPGGA,160747.00,3427.8438,N,12057.3293,W,1,11,0.8,9.0,M,-33.6,M,,*58
$PYRTM,2024,123.672098298287,14.781745708438
$GPGGA,160748.00,3427.8452,N,12057.3297,W,1,11,0.8,8.6,M,-33.6,M,,*58
$PYRTM,2024,123.672109884757,14.781757294896
$GPGGA,160749.00,3427.8467,N,12057.3300,W,1,11,0.8,8.7,M,-33.6,M,,*51
$PYRTM,2024,123.672117278380,14.781764688519
$GPGGA,160750.00,3427.8481,N,12057.3310,W,1,11,0.8,8.9,M,-33.6,M,,*5E
$PYRTM,2024,123.672133032546,14.781780442685
$GPGGA,160751.00,3427.8494,N,12057.3324,W,1,11,0.8,8.9,M,-33.6,M,,*5C
$PYRTM,2024,123.672144594132,14.781792004271
$GPGGA,160752.00,3427.8504,N,12057.3339,W,1,11,0.8,9.0,M,-33.6,M,,*53
$PYRTM,2024,123.672156180567,14.781803590706
$GPGGA,160753.00,3427.8516,N,12057.3345,W,1,11,0.8,9.2,M,-33.6,M,,*58
$PYRTM,2024,123.672163575475,14.781810985613
$GPGGA,160754.00,3427.8533,N,12057.3345,W,1,11,0.8,9.4,M,-33.6,M,,*5E
$PYRTM,2024,123.672179444201,14.781826854340
$GPGGA,160755.00,3427.8551,N,12057.3347,W,1,11,0.8,9.1,M,-33.6,M,,*5C
$PYRTM,2024,123.672186723889,14.781834134028
$GPGGA,160756.00,3427.8564,N,12057.3361,W,1,11,0.8,8.9,M,-33.6,M,,*54
$PYRTM,2024,123.672205366944,14.781852777083
$GPGGA,160757.00,3427.8573,N,12057.3378,W,1,11,0.8,8.8,M,-33.6,M,,*5A
$PYRTM,2024,123.672214177685,14.781861587824
$GPGGA,160758.00,3427.8587,N,12057.3388,W,1,11,0.8,8.9,M,-33.6,M,,*50
$PYRTM,2024,123.672225741481,14.781873151620
$GPGGA,160759.00,3427.8603,N,12057.3390,W,1,11,0.8,9.3,M,-33.6,M,,*5C
$PYRTM,2024,123.672237326169,14.781884736308
$GPGGA,160800.00,3427.8618,N,12057.3393,W,1,11,0.8,10.0,M,-33.6,M,,*6D
$PYRTM,2024,123.672248890012,14.781896300150
$GPGGA,160801.00,3427.8631,N,12057.3404,W,1,11,0.8,10.5,M,-33.6,M,,*6B
$PYRTM,2024,123.672260336042,14.781907746181
$GPGGA,160802.00,3427.8644,N,12057.3418,W,1,11,0.8,9.8,M,-33.6,M,,*52
$PYRTM,2024,123.672271917627,14.781919327778
$GPGGA,160803.00,3427.8656,N,12057.3430,W,1,11,0.8,9.6,M,-33.6,M,,*54
$PYRTM,2024,123.672279317604,14.781926727743
$GPGGA,160804.00,3427.8670,N,12057.3439,W,1,11,0.8,9.9,M,-33.6,M,,*51
$PYRTM,2024,123.672295185903,14.781942596042
$GPGGA,160805.00,3427.8686,N,12057.3446,W,1,11,0.8,10.0,M,-33.6,M,,*60
$PYRTM,2024,123.672306759618,14.781954169757
$GPGGA,160806.00,3427.8702,N,12057.3451,W,1,11,0.8,10.4,M,-33.6,M,,*6C
$PYRTM,2024,123.672318334641,14.781965744780
$GPGGA,160807.00,3427.8713,N,12057.3456,W,1,11,0.8,11.3,M,-33.6,M,,*6C
$PYRTM,2024,123.672329920035,14.781977330174
$GPGGA,160808.00,3427.8723,N,12057.3466,W,1,11,0.8,11.8,M,-33.6,M,,*68
$PYRTM,2024,123.672337187882,14.781984598032
$GPGGA,160809.00,3427.8737,N,12057.3481,W,1,11,0.8,11.2,M,-33.6,M,,*6F
$PYRTM,2024,123.672353067002,14.782000477141
$GPGGA,160810.00,3427.8751,N,12057.3495,W,1,11,0.8,10.3,M,-33.6,M,,*62
$PYRTM,2024,123.672364631019,14.782012041157
$GPGGA,160811.00,3427.8763,N,12057.3503,W,1,11,0.8,10.0,M,-33.6,M,,*6F
$PYRTM,2024,123.672376216366,14.782023626505
$GPGGA,160812.00,3427.8774,N,12057.3505,W,1,11,0.8,10.0,M,-33.6,M,,*6C
$PYRTM,2024,123.672387779699,14.782035189838
$GPGGA,160813.00,3427.8787,N,12057.3508,W,1,11,0.8,10.9,M,-33.6,M,,*65
$PYRTM,2024,123.672399352650,14.782046762789
$GPGGA,160814.00,3427.8803,N,12057.3519,W,1,11,0.8,11.1,M,-33.6,M,,*68
$PYRTM,2024,123.672410926632,14.782058336771
$GPGGA,160815.00,3427.8816,N,12057.3533,W,1,11,0.8,10.6,M,-33.6,M,,*63
$PYRTM,2024,123.672422525799,14.782069935937
$GPGGA,160816.00,3427.8829,N,12057.3543,W,1,11,0.8,10.3,M,-33.6,M,,*6E
$PYRTM,2024,123.672434074850,14.782081484988
$GPGGA,160817.00,3427.8842,N,12057.3547,W,1,11,0.8,10.2,M,-33.6,M,,*67
$PYRTM,2024,123.672445522789,14.782092932928
$GPGGA,160818.00,3427.8859,N,12057.3550,W,1,11,0.8,9.8,M,-33.6,M,,*56
$PYRTM,2024,123.672452929340,14.782100339479
$GPGGA,160819.00,3427.8874,N,12057.3559,W,1,11,0.8,9.6,M,-33.6,M,,*5F
$PYRTM,2024,123.672468808391,14.782116218530
$GPGGA,160820.00,3427.8885,N,12057.3569,W,1,11,0.8,10.0,M,-33.6,M,,*66
$PYRTM,2024,123.672480372813,14.782127782951
$GPGGA,160821.00,3427.8896,N,12057.3577,W,1,11,0.8,10.7,M,-33.6,M,,*6D
$PYRTM,2024,123.672487653681,14.782135063819
$GPGGA,160822.00,3427.8912,N,12057.3584,W,1,11,0.8,10.5,M,-33.6,M,,*6D
$PYRTM,2024,123.672506298947,14.782153709097
$GPGGA,160823.00,3427.8929,N,12057.3592,W,1,11,0.8,9.7,M,-33.6,M,,*59
$PYRTM,2024,123.672514965579,14.782162375718
$GPGGA,160824.00,3427.8940,N,12057.3598,W,1,11,0.8,9.1,M,-33.6,M,,*5D
$PYRTM,2024,123.672526556065,14.782173966204
$GPGGA,160825.00,3427.8950,N,12057.3604,W,1,11,0.8,9.4,M,-33.6,M,,*5E
$PYRTM,2024,123.672538113519,14.782185523669
$GPGGA,160826.00,3427.8963,N,12057.3612,W,1,11,0.8,9.5,M,-33.6,M,,*5B
$PYRTM,2024,123.672545520324,14.782192930451
$GPGGA,160827.00,3427.8977,N,12057.3622,W,1,11,0.8,9.3,M,-33.6,M,,*5A
$PYRTM,2024,123.672564155266,14.782211565405
$GPGGA,160828.00,3427.8991,N,12057.3630,W,1,11,0.8,9.1,M,-33.6,M,,*5C
$PYRTM,2024,123.672575743113,14.782223153252
$GPGGA,160829.00,3427.9004,N,12057.3635,W,1,11,0.8,9.9,M,-33.6,M,,*54
$PYRTM,2024,123.672587303900,14.782234714051
$GPGGA,160830.00,3427.9017,N,12057.3639,W,1,11,0.8,10.2,M,-33.6,M,,*61
$PYRTM,2024,123.672596113843,14.782243523981
$GPGGA,160831.00,3427.9029,N,12057.3646,W,1,11,0.8,10.5,M,-33.6,M,,*62
$PYRTM,2024,123.672607674549,14.782255084699
$GPGGA,160832.00,3427.9041,N,12057.3658,W,1,11,0.8,10.5,M,-33.6,M,,*60
$PYRTM,2024,123.672619145984,14.782266556123
$GPGGA,160833.00,3427.9055,N,12057.3672,W,1,11,0.8,9.8,M,-33.6,M,,*59
$PYRTM,2024,123.672626541782,14.782273951921
$GPGGA,160834.00,3427.9070,N,12057.3679,W,1,11,0.8,9.0,M,-33.6,M,,*5A
$PYRTM,2024,123.672642295058,14.782289705197
$GPGGA,160835.00,3427.9084,N,12057.3680,W,1,11,0.8,9.5,M,-33.6,M,,*53
$PYRTM,2024,123.672653856019,14.782301266157
$GPGGA,160836.00,3427.9097,N,12057.3683,W,1,11,0.8,9.9,M,-33.6,M,,*5D
$PYRTM,2024,123.672665561123,14.782312971262
$GPGGA,160837.00,3427.9111,N,12057.3691,W,1,11,0.8,10.2,M,-33.6,M,,*63
$PYRTM,2024,123.672677119525,14.782324529664
$GPGGA,160838.00,3427.9125,N,12057.3703,W,1,11,0.8,10.1,M,-33.6,M,,*62
$PYRTM,2024,123.672688594016,14.782336004155
$GPGGA,160839.00,3427.9138,N,12057.3713,W,1,11,0.8,9.5,M,-33.6,M,,*52
