$PYRTM,2024,123.916670509896,15.026317920035
$GPGGA,215959.00,3450.0553,N,12120.3955,W,1,10,0.8,9.6,M,-33.0,M,,*5D
$PYRTM,2024,123.916677799502,15.026325209630
$GPGGA,220000.00,3450.0560,N,12120.3971,W,1,10,0.8,9.8,M,-33.0,M,,*56
$PYRTM,2024,123.916693657998,15.026341068137
$GPGGA,220001.00,3450.0568,N,12120.3988,W,1,10,0.8,9.4,M,-33.0,M,,*55
$PYRTM,2024,123.916700949155,15.026348359294
$GPGGA,220002.00,3450.0576,N,12120.4003,W,1,10,0.8,9.1,M,-33.0,M,,*51
$PYRTM,2024,123.916719712917,15.026367123056
$GPGGA,220003.00,3450.0583,N,12120.4014,W,1,10,0.8,9.2,M,-33.0,M,,*5F
$PYRTM,2024,123.916728392315,15.026375802454
$GPGGA,220004.00,3450.0591,N,12120.4027,W,1,10,0.8,9.7,M,-33.0,M,,*5E
$PYRTM,2024,123.916739955729,15.026387365868
$GPGGA,220005.00,3450.0597,N,12120.4043,W,1,10,0.8,9.8,M,-33.0,M,,*54
$PYRTM,2024,123.916747247141,15.026394657280
$GPGGA,220006.00,3450.0603,N,12120.4063,W,1,10,0.8,9.4,M,-33.0,M,,*57
$PYRTM,2024,123.916759049977,15.026406460116
$GPGGA,220007.00,3450.0611,N,12120.4079,W,1,10,0.8,9.0,M,-33.0,M,,*5A
$PYRTM,2024,123.916774688889,15.026422099028
$GPGGA,220008.00,3450.0619,N,12120.4087,W,1,10,0.8,9.4,M,-33.0,M,,*58
$PYRTM,2024,123.916786250069,15.026433660208
$GPGGA,220009.00,3450.0626,N,12120.4098,W,1,10,0.8,10.0,M,-33.0,M,,*67
$PYRTM,2024,123.916797839769,15.026445249919
$GPGGA,220010.00,3450.0633,N,12120.4116,W,1,10,0.8,9.7,M,-33.0,M,,*53
$PYRTM,2024,123.916809397604,15.026456807743
$GPGGA,220011.00,3450.0638,N,12120.4138,W,1,10,0.8,8.5,M,-33.0,M,,*56
$PYRTM,2024,123.916820988634,15.026468398773
$GPGGA,220012.00,3450.0643,N,12120.4152,W,1,10,0.8,8.2,M,-33.0,M,,*52
$PYRTM,2024,123.916832546262,15.026479956400
$GPGGA,220013.00,3450.0649,N,12120.4160,W,1,10,0.8,8.7,M,-33.0,M,,*5D
$PYRTM,2024,123.916844137234,15.026491547373
$GPGGA,220014.00,3450.0658,N,12120.4172,W,1,10,0.8,9.4,M,-33.0,M,,*5B
$PYRTM,2024,123.916855694965,15.026503105104
$GPGGA,220015.00,3450.0667,N,12120.4189,W,1,10,0.8,8.8,M,-33.0,M,,*5F
$PYRTM,2024,123.916867278345,15.026514688484
$GPGGA,220016.00,3450.0672,N,12120.4205,W,1,10,0.8,8.9,M,-33.0,M,,*5E
$PYRTM,2024,123.916878843241,15.026526253380
$GPGGA,220017.00,3450.0675,N,12120.4217,W,1,10,0.8,9.4,M,-33.0,M,,*57
$PYRTM,2024,123.916890424687,15.026537834826
$GPGGA,220018.00,3450.0681,N,12120.4230,W,1,10,0.8,9.8,M,-33.0,M,,*5A
$PYRTM,2024,123.916897709525,15.026545119664
$GPGGA,220019.00,3450.0690,N,12120.4245,W,1,10,0.8,9.3,M,-33.0,M,,*52
$PYRTM,2024,123.916913578194,15.026560988333
$GPGGA,220020.00,3450.0699,N,12120.4259,W,1,10,0.8,8.5,M,-33.0,M,,*5B
$PYRTM,2024,123.916925140475,15.026572550613
$GPGGA,220021.00,3450.0702,N,12120.4271,W,1,10,0.8,9.0,M,-33.0,M,,*57
$PYRTM,2024,123.916936727431,15.026584137569
$GPGGA,220022.00,3450.0706,N,12120.4285,W,1,10,0.8,9.7,M,-33.0,M,,*5C
$PYRTM,2024,123.916948287095,15.026595697234
$GPGGA,220023.00,3450.0713,N,12120.4302,W,1,10,0.8,10.0,M,-33.0,M,,*68
$PYRTM,2024,123.916955695208,15.026603105347
$GPGGA,220024.00,3450.0722,N,12120.4317,W,1,10,0.8,9.6,M,-33.0,M,,*57
$PYRTM,2024,123.916971436551,15.026618846690
$GPGGA,220025.00,3450.0726,N,12120.4329,W,1,10,0.8,9.4,M,-33.0,M,,*5D
$PYRTM,2024,123.916983025868,15.026630436007
$GPGGA,220026.00,3450.0731,N,12120.4345,W,1,10,0.8,9.2,M,-33.0,M,,*54
$PYRTM,2024,123.916994583356,15.026641993495
$GPGGA,220027.00,3450.0737,N,12120.4362,W,1,10,0.8,9.1,M,-33.0,M,,*55
$PYRTM,2024,123.917006174375,15.026653584514
$GPGGA,220028.00,3450.0745,N,12120.4374,W,1,10,0.8,9.3,M,-33.0,M,,*5A
$PYRTM,2024,123.917013466644,15.026660876782
$GPGGA,220029.00,3450.0752,N,12120.4385,W,1,10,0.8,9.8,M,-33.0,M,,*58
$PYRTM,2024,123.917029320150,15.026676730289
$GPGGA,220030.00,3450.0757,N,12120.4400,W,1,10,0.8,9.9,M,-33.0,M,,*5E
$PYRTM,2024,123.917040880602,15.026688290741
$GPGGA,220031.00,3450.0762,N,12120.4421,W,1,10,0.8,9.0,M,-33.0,M,,*53
$PYRTM,2024,123.917052462731,15.026699872870
$GPGGA,220032.00,3450.0768,N,12120.4437,W,1,10,0.8,8.2,M,-33.0,M,,*5E
$PYRTM,2024,123.917059754861,15.026707165000
$GPGGA,220033.00,3450.0776,N,12120.4448,W,1,10,0.8,8.3,M,-33.0,M,,*59
$PYRTM,2024,123.917078510741,15.026725920880
$GPGGA,220034.00,3450.0785,N,12120.4458,W,1,10,0.8,8.9,M,-33.0,M,,*59
$PYRTM,2024,123.917087177234,15.026734587373
$GPGGA,220035.00,3450.0793,N,12120.4474,W,1,10,0.8,9.0,M,-33.0,M,,*59
$PYRTM,2024,123.917094469294,15.026741879433
$GPGGA,220036.00,3450.0798,N,12120.4493,W,1,10,0.8,8.7,M,-33.0,M,,*5E
$PYRTM,2024,123.917110326748,15.026757736887
$GPGGA,220037.00,3450.0802,N,12120.4507,W,1,10,0.8,8.7,M,-33.0,M,,*5F
$PYRTM,2024,123.917121927593,15.026769337743
$GPGGA,220038.00,3450.0809,N,12120.4518,W,1,10,0.8,9.0,M,-33.0,M,,*53
$PYRTM,2024,123.917129191944,15.026776602083
$GPGGA,220039.00,3450.0819,N,12120.4530,W,1,10,0.8,8.6,M,-33.0,M,,*5E
$PYRTM,2024,123.917145063530,15.026792473669
$GPGGA,220040.00,3450.0827,N,12120.4545,W,1,10,0.8,8.3,M,-33.0,M,,*5A
$PYRTM,2024,123.917152354039,15.026799764178
$GPGGA,220041.00,3450.0831,N,12120.4559,W,1,10,0.8,8.6,M,-33.0,M,,*54
$PYRTM,2024,123.917168209329,15.026815619468
$GPGGA,220042.00,3450.0836,N,12120.4574,W,1,10,0.8,9.0,M,-33.0,M,,*58
$PYRTM,2024,123.917179772338,15.026827182477
$GPGGA,220043.00,3450.0841,N,12120.4588,W,1,10,0.8,9.6,M,-33.0,M,,*5C
$PYRTM,2024,123.917191357616,15.026838767755
$GPGGA,220044.00,3450.0848,N,12120.4603,W,1,10,0.8,9.8,M,-33.0,M,,*5C
$PYRTM,2024,123.917202917465,15.026850327604
$GPGGA,220045.00,3450.0856,N,12120.4618,W,1,10,0.8,9.1,M,-33.0,M,,*51
$PYRTM,2024,123.917214505498,15.026861915637
$GPGGA,220046.00,3450.0865,N,12120.4632,W,1,10,0.8,8.5,M,-33.0,M,,*5F
$PYRTM,2024,123.917226067535,15.026873477674
$GPGGA,220047.00,3450.0872,N,12120.4644,W,1,10,0.8,8.7,M,-33.0,M,,*5B
$PYRTM,2024,123.917237653796,15.026885063935
$GPGGA,220048.00,3450.0875,N,12120.4660,W,1,10,0.8,9.0,M,-33.0,M,,*53
$PYRTM,2024,123.917249215787,15.026896625926
$GPGGA,220049.00,3450.0880,N,12120.4678,W,1,10,0.8,9.0,M,-33.0,M,,*51
$PYRTM,2024,123.917260803032,15.026908213171
$GPGGA,220050.00,3450.0888,N,12120.4695,W,1,10,0.8,8.8,M,-33.0,M,,*5B
$PYRTM,2024,123.917268095880,15.026915506019
$GPGGA,220051.00,3450.0898,N,12120.4706,W,1,10,0.8,8.7,M,-33.0,M,,*5F
$PYRTM,2024,123.917283950486,15.026931360625
$GPGGA,220052.00,3450.0906,N,12120.4717,W,1,10,0.8,9.0,M,-33.0,M,,*5C
$PYRTM,2024,123.917295510856,15.026942920995
$GPGGA,220053.00,3450.0910,N,12120.4733,W,1,10,0.8,9.2,M,-33.0,M,,*5E
$PYRTM,2024,123.917302802940,15.026950213079
$GPGGA,220054.00,3450.0911,N,12120.4751,W,1,10,0.8,9.5,M,-33.0,M,,*5B
$PYRTM,2024,123.917318658507,15.026966068646
$GPGGA,220055.00,3450.0917,N,12120.4768,W,1,10,0.8,9.4,M,-33.0,M,,*57
$PYRTM,2024,123.917330249063,15.026977659213
$GPGGA,220056.00,3450.0929,N,12120.4782,W,1,10,0.8,8.6,M,-33.0,M,,*5E
$PYRTM,2024,123.917341809769,15.026989219907
$GPGGA,220057.00,3450.0939,N,12120.4793,W,1,10,0.8,8.5,M,-33.0,M,,*5D
$PYRTM,2024,123.917353397500,15.027000807650
$GPGGA,220058.00,3450.0943,N,12120.4805,W,1,10,0.8,9.1,M,-33.0,M,,*5A
$PYRTM,2024,123.917360689988,15.027008100127
$GPGGA,220059.00,3450.0945,N,12120.4823,W,1,10,0.8,9.7,M,-33.0,M,,*5F
$PYRTM,2024,123.917376543449,15.027023953588
$GPGGA,220100.00,3450.0950,N,12120.4844,W,1,10,0.8,9.3,M,-33.0,M,,*53
$PYRTM,2024,123.917388105093,15.027035515231
$GPGGA,220101.00,3450.0960,N,12120.4860,W,1,10,0.8,8.4,M,-33.0,M,,*51
$PYRTM,2024,123.917399687801,15.027047097940
$GPGGA,220102.00,3450.0969,N,12120.4868,W,1,10,0.8,8.0,M,-33.0,M,,*57
$PYRTM,2024,123.917411253090,15.027058663229
$GPGGA,220103.00,3450.0974,N,12120.4878,W,1,10,0.8,8.5,M,-33.0,M,,*5E
$PYRTM,2024,123.917418544213,15.027065954363
$GPGGA,220104.00,3450.0977,N,12120.4894,W,1,10,0.8,9.0,M,-33.0,M,,*5C
$PYRTM,2024,123.917437306736,15.027084716887
$GPGGA,220105.00,3450.0983,N,12120.4913,W,1,10,0.8,9.0,M,-33.0,M,,*58
$PYRTM,2024,123.917445988623,15.027093398762
$GPGGA,220106.00,3450.0991,N,12120.4928,W,1,10,0.8,8.6,M,-33.0,M,,*57
$PYRTM,2024,123.917457550220,15.027104960359
$GPGGA,220107.00,3450.0998,N,12120.4940,W,1,10,0.8,8.4,M,-33.0,M,,*53
$PYRTM,2024,123.917469139803,15.027116549942
$GPGGA,220108.00,3450.1003,N,12120.4952,W,1,10,0.8,8.6,M,-33.0,M,,*57
$PYRTM,2024,123.917476428542,15.027123838681
$GPGGA,220109.00,3450.1009,N,12120.4965,W,1,10,0.8,8.9,M,-33.0,M,,*57
$PYRTM,2024,123.917492287766,15.027139697917
$GPGGA,220110.00,3450.1017,N,12120.4981,W,1,10,0.8,8.8,M,-33.0,M,,*5B
$PYRTM,2024,123.917499571030,15.027146981169
$GPGGA,220111.00,3450.1024,N,12120.4997,W,1,10,0.8,8.7,M,-33.0,M,,*52
$PYRTM,2024,123.917515433681,15.027162843819
$GPGGA,220112.00,3450.1029,N,12120.5011,W,1,10,0.8,9.0,M,-33.0,M,,*5C
$PYRTM,2024,123.917526994016,15.027174404155
$GPGGA,220113.00,3450.1033,N,12120.5025,W,1,10,0.8,9.3,M,-33.0,M,,*52
$PYRTM,2024,123.917538581609,15.027185991748
$GPGGA,220114.00,3450.1041,N,12120.5040,W,1,10,0.8,9.0,M,-33.0,M,,*50
$PYRTM,2024,123.917550142708,15.027197552847
$GPGGA,220115.00,3450.1051,N,12120.5055,W,1,10,0.8,8.5,M,-33.0,M,,*50
$PYRTM,2024,123.917561730278,15.027209140417
$GPGGA,220116.00,3450.1058,N,12120.5068,W,1,10,0.8,8.4,M,-33.0,M,,*55
$PYRTM,2024,123.917573290532,15.027220700671
$GPGGA,220117.00,3450.1063,N,12120.5079,W,1,10,0.8,9.1,M,-33.0,M,,*58
$PYRTM,2024,123.917584873345,15.027232283484
$GPGGA,220118.00,3450.1068,N,12120.5093,W,1,10,0.8,9.6,M,-33.0,M,,*5F
$PYRTM,2024,123.917592157512,15.027239567650
$GPGGA,220119.00,3450.1076,N,12120.5110,W,1,10,0.8,9.3,M,-33.0,M,,*5E
$PYRTM,2024,123.917608029931,15.027255440069
$GPGGA,220120.00,3450.1083,N,12120.5126,W,1,10,0.8,8.6,M,-33.0,M,,*5F
$PYRTM,2024,123.917619588252,15.027266998403
$GPGGA,220121.00,3450.1089,N,12120.5138,W,1,10,0.8,8.3,M,-33.0,M,,*5E
$PYRTM,2024,123.917631177106,15.027278587245
$GPGGA,220122.00,3450.1095,N,12120.5148,W,1,10,0.8,8.7,M,-33.0,M,,*53
$PYRTM,2024,123.917642735278,15.027290145428
$GPGGA,220123.00,3450.1102,N,12120.5163,W,1,10,0.8,9.2,M,-33.0,M,,*50
$PYRTM,2024,123.917654325706,15.027301735845
$GPGGA,220124.00,3450.1109,N,12120.5179,W,1,10,0.8,9.2,M,-33.0,M,,*57
$PYRTM,2024,123.917665884144,15.027313294294
$GPGGA,220125.00,3450.1116,N,12120.5193,W,1,10,0.8,9.0,M,-33.0,M,,*5E
$PYRTM,2024,123.917677472442,15.027324882581
$GPGGA,220126.00,3450.1121,N,12120.5205,W,1,10,0.8,9.0,M,-33.0,M,,*55
$PYRTM,2024,123.917689031586,15.027336441725
$GPGGA,220127.00,3450.1128,N,12120.5220,W,1,10,0.8,8.7,M,-33.0,M,,*5C
$PYRTM,2024,123.917700618472,15.027348028611
$GPGGA,220128.00,3450.1135,N,12120.5236,W,1,10,0.8,8.3,M,-33.0,M,,*5C
$PYRTM,2024,123.917707912639,15.027355322778
$GPGGA,220129.00,3450.1141,N,12120.5249,W,1,10,0.8,8.4,M,-33.0,M,,*51
$PYRTM,2024,123.917723767419,15.027371177558
$GPGGA,220130.00,3450.1147,N,12120.5261,W,1,10,0.8,8.8,M,-33.0,M,,*59
$PYRTM,2024,123.917735329306,15.027382739444
$GPGGA,220131.00,3450.1155,N,12120.5276,W,1,10,0.8,9.2,M,-33.0,M,,*56
$PYRTM,2024,123.917746917859,15.027394327998
$GPGGA,220132.00,3450.1161,N,12120.5291,W,1,10,0.8,9.3,M,-33.0,M,,*5A
$PYRTM,2024,123.917758478113,15.027405888252
$GPGGA,220133.00,3450.1168,N,12120.5305,W,1,10,0.8,9.3,M,-33.0,M,,*5E
$PYRTM,2024,123.917765781042,15.027413191181
$GPGGA,220134.00,3450.1175,N,12120.5319,W,1,10,0.8,9.0,M,-33.0,M,,*5B
$PYRTM,2024,123.917777574062,15.027424984201
$GPGGA,220135.00,3450.1183,N,12120.5336,W,1,10,0.8,8.4,M,-33.0,M,,*5B
$PYRTM,2024,123.917796100127,15.027443510266
$GPGGA,220136.00,3450.1190,N,12120.5349,W,1,10,0.8,8.3,M,-33.0,M,,*55
$PYRTM,2024,123.917804773426,15.027452183565
$GPGGA,220137.00,3450.1196,N,12120.5361,W,1,10,0.8,8.9,M,-33.0,M,,*52
$PYRTM,2024,123.917816363252,15.027463773391
$GPGGA,220138.00,3450.1203,N,12120.5374,W,1,10,0.8,9.4,M,-33.0,M,,*5A
$PYRTM,2024,123.917827922164,15.027475332303
$GPGGA,220139.00,3450.1213,N,12120.5390,W,1,10,0.8,9.2,M,-33.0,M,,*56
$PYRTM,2024,123.917839525972,15.027486936111
$GPGGA,220140.00,3450.1220,N,12120.5407,W,1,10,0.8,8.6,M,-33.0,M,,*54
$PYRTM,2024,123.917851071528,15.027498481667
$GPGGA,220141.00,3450.1223,N,12120.5421,W,1,10,0.8,8.6,M,-33.0,M,,*52
$PYRTM,2024,123.917862653912,15.027510064051
$GPGGA,220142.00,3450.1228,N,12120.5433,W,1,10,0.8,9.0,M,-33.0,M,,*5E
$PYRTM,2024,123.917869962604,15.027517372743
$GPGGA,220143.00,3450.1238,N,12120.5448,W,1,10,0.8,8.9,M,-33.0,M,,*5A
$PYRTM,2024,123.917882217072,15.027529627211
$GPGGA,220144.00,3450.1248,N,12120.5465,W,1,10,0.8,8.3,M,-33.0,M,,*5F
$PYRTM,2024,123.917897366759,15.027544776898
$GPGGA,220145.00,3450.1253,N,12120.5478,W,1,10,0.8,8.4,M,-33.0,M,,*5F
$PYRTM,2024,123.917908953762,15.027556363900
$GPGGA,220146.00,3450.1255,N,12120.5489,W,1,10,0.8,9.3,M,-33.0,M,,*52
$PYRTM,2024,123.917920515602,15.027567925741
$GPGGA,220147.00,3450.1261,N,12120.5503,W,1,10,0.8,10.0,M,-33.0,M,,*6C
$PYRTM,2024,123.917932103738,15.027579513877
$GPGGA,220148.00,3450.1271,N,12120.5519,W,1,10,0.8,9.6,M,-33.0,M,,*57
$PYRTM,2024,123.917943663912,15.027591074051
$GPGGA,220149.00,3450.1279,N,12120.5533,W,1,10,0.8,8.9,M,-33.0,M,,*58
$PYRTM,2024,123.917955252986,15.027602663125
$GPGGA,220150.00,3450.1285,N,12120.5547,W,1,10,0.8,8.5,M,-33.0,M,,*5C
$PYRTM,2024,123.917966810961,15.027614221100
$GPGGA,220151.00,3450.1290,N,12120.5560,W,1,10,0.8,8.7,M,-33.0,M,,*5E
$PYRTM,2024,123.917978401273,15.027625811412
$GPGGA,220152.00,3450.1295,N,12120.5574,W,1,10,0.8,9.3,M,-33.0,M,,*58
$PYRTM,2024,123.917989959907,15.027637370046
$GPGGA,220153.00,3450.1302,N,12120.5589,W,1,10,0.8,9.8,M,-33.0,M,,*5F
$PYRTM,2024,123.918001549352,15.027648959502
$GPGGA,220154.00,3450.1310,N,12120.5604,W,1,10,0.8,9.8,M,-33.0,M,,*5D
$PYRTM,2024,123.918013108403,15.027660518542
$GPGGA,220155.00,3450.1318,N,12120.5618,W,1,10,0.8,9.6,M,-33.0,M,,*57
$PYRTM,2024,123.918024689884,15.027672100035
$GPGGA,220156.00,3450.1324,N,12120.5633,W,1,10,0.8,9.2,M,-33.0,M,,*56
$PYRTM,2024,123.918036256852,15.027683667002
$GPGGA,220157.00,3450.1328,N,12120.5649,W,1,10,0.8,8.7,M,-33.0,M,,*52
$PYRTM,2024,123.918047842986,15.027695253125
$GPGGA,220158.00,3450.1335,N,12120.5665,W,1,10,0.8,8.3,M,-33.0,M,,*5B
$PYRTM,2024,123.918055123669,15.027702533808
$GPGGA,220159.00,3450.1344,N,12120.5677,W,1,10,0.8,8.3,M,-33.0,M,,*5F
$PYRTM,2024,123.918070991644,15.027718401794
$GPGGA,220200.00,3450.1350,N,12120.5689,W,1,10,0.8,9.1,M,-33.0,M,,*57
$PYRTM,2024,123.918082552211,15.027729962361
$GPGGA,220201.00,3450.1354,N,12120.5705,W,1,10,0.8,10.0,M,-33.0,M,,*6E
$PYRTM,2024,123.918094140104,15.027741550243
$GPGGA,220202.00,3450.1359,N,12120.5724,W,1,10,0.8,10.0,M,-33.0,M,,*63
$PYRTM,2024,123.918105700637,15.027753110775
$GPGGA,220203.00,3450.1367,N,12120.5738,W,1,10,0.8,9.6,M,-33.0,M,,*5C
$PYRTM,2024,123.918117287720,15.027764697859
$GPGGA,220204.00,3450.1375,N,12120.5749,W,1,10,0.8,9.5,M,-33.0,M,,*5D
$PYRTM,2024,123.918128848472,15.027776258611
$GPGGA,220205.00,3450.1382,N,12120.5762,W,1,10,0.8,9.5,M,-33.0,M,,*5D
$PYRTM,2024,123.918136152581,15.027783562720
$GPGGA,220206.00,3450.1387,N,12120.5780,W,1,10,0.8,9.4,M,-33.0,M,,*56
$PYRTM,2024,123.918154889745,15.027802299884
$GPGGA,220207.00,3450.1393,N,12120.5797,W,1,10,0.8,9.4,M,-33.0,M,,*54
$PYRTM,2024,123.918163586771,15.027810996910
$GPGGA,220208.00,3450.1399,N,12120.5812,W,1,10,0.8,9.8,M,-33.0,M,,*5F
$PYRTM,2024,123.918175145972,15.027822556111
$GPGGA,220209.00,3450.1407,N,12120.5826,W,1,10,0.8,10.2,M,-33.0,M,,*6B
$PYRTM,2024,123.918186732523,15.027834142662
$GPGGA,220210.00,3450.1416,N,12120.5840,W,1,10,0.8,10.2,M,-33.0,M,,*63
$PYRTM,2024,123.918198293160,15.027845703299
$GPGGA,220211.00,3450.1424,N,12120.5856,W,1,10,0.8,9.7,M,-33.0,M,,*59
$PYRTM,2024,123.918205597326,15.027853007465
$GPGGA,220212.00,3450.1429,N,12120.5872,W,1,10,0.8,9.6,M,-33.0,M,,*50
$PYRTM,2024,123.918221443090,15.027868853241
$GPGGA,220213.00,3450.1432,N,12120.5888,W,1,10,0.8,9.8,M,-33.0,M,,*50
$PYRTM,2024,123.918233028669,15.027880438808
$GPGGA,220214.00,3450.1440,N,12120.5904,W,1,10,0.8,9.6,M,-33.0,M,,*59
$PYRTM,2024,123.918240320162,15.027887730301
$GPGGA,220215.00,3450.1450,N,12120.5918,W,1,10,0.8,9.4,M,-33.0,M,,*56
$PYRTM,2024,123.918256179618,15.027903589769
$GPGGA,220216.00,3450.1459,N,12120.5927,W,1,10,0.8,9.6,M,-33.0,M,,*52
$PYRTM,2024,123.918263573437,15.027910983576
$GPGGA,220217.00,3450.1463,N,12120.5940,W,1,10,0.8,9.9,M,-33.0,M,,*54
$PYRTM,2024,123.918279328206,15.027926738356
$GPGGA,220218.00,3450.1467,N,12120.5960,W,1,10,0.8,9.7,M,-33.0,M,,*53
$PYRTM,2024,123.918290886667,15.027938296806
$GPGGA,220219.00,3450.1472,N,12120.5979,W,1,10,0.8,9.0,M,-33.0,M,,*59
$PYRTM,2024,123.918298293183,15.027945703322
$GPGGA,220220.00,3450.1481,N,12120.5990,W,1,10,0.8,8.9,M,-33.0,M,,*50
$PYRTM,2024,123.918314034965,15.027961445116
$GPGGA,220221.00,3450.1492,N,12120.5998,W,1,10,0.8,9.1,M,-33.0,M,,*52
$PYRTM,2024,123.918325636204,15.027973046343
$GPGGA,220222.00,3450.1500,N,12120.6012,W,1,10,0.8,9.4,M,-33.0,M,,*56
$PYRTM,2024,123.918337183310,15.027984593449
$GPGGA,220223.00,3450.1505,N,12120.6030,W,1,10,0.8,9.2,M,-33.0,M,,*54
$PYRTM,2024,123.918348769722,15.027996179861
$GPGGA,220224.00,3450.1511,N,12120.6049,W,1,10,0.8,8.8,M,-33.0,M,,*53
$PYRTM,2024,123.918356064942,15.028003475081
$GPGGA,220225.00,3450.1517,N,12120.6062,W,1,10,0.8,8.9,M,-33.0,M,,*5C
$PYRTM,2024,123.918371919016,15.028019329155
$GPGGA,220226.00,3450.1526,N,12120.6073,W,1,10,0.8,9.2,M,-33.0,M,,*57
$PYRTM,2024,123.918383479329,15.028030889468
$GPGGA,220227.00,3450.1535,N,12120.6085,W,1,10,0.8,9.2,M,-33.0,M,,*5D
$PYRTM,2024,123.918390784444,15.028038194583
$GPGGA,220228.00,3450.1544,N,12120.6101,W,1,10,0.8,8.7,M,-33.0,M,,*5D
$PYRTM,2024,123.918406627824,15.028054037963
$GPGGA,220229.00,3450.1549,N,12120.6118,W,1,10,0.8,8.3,M,-33.0,M,,*5D
$PYRTM,2024,123.918418209630,15.028065619769
$GPGGA,220230.00,3450.1554,N,12120.6133,W,1,10,0.8,8.3,M,-33.0,M,,*50
$PYRTM,2024,123.918429776065,15.028077186204
$GPGGA,220231.00,3450.1563,N,12120.6144,W,1,10,0.8,8.8,M,-33.0,M,,*5E
$PYRTM,2024,123.918441364977,15.028088775116
$GPGGA,220232.00,3450.1573,N,12120.6155,W,1,10,0.8,9.4,M,-33.0,M,,*51
$PYRTM,2024,123.918448656470,15.028096066609
$GPGGA,220233.00,3450.1580,N,12120.6170,W,1,10,0.8,9.7,M,-33.0,M,,*58
$PYRTM,2024,123.918464530602,15.028111940752
$GPGGA,220234.00,3450.1585,N,12120.6190,W,1,10,0.8,9.3,M,-33.0,M,,*50
$PYRTM,2024,123.918476072072,15.028123482222
$GPGGA,220235.00,3450.1592,N,12120.6207,W,1,10,0.8,8.6,M,-33.0,M,,*5E
$PYRTM,2024,123.918487664769,15.028135074907
$GPGGA,220236.00,3450.1601,N,12120.6217,W,1,10,0.8,8.6,M,-33.0,M,,*55
$PYRTM,2024,123.918494950417,15.028142360556
$GPGGA,220237.00,3450.1610,N,12120.6226,W,1,10,0.8,9.2,M,-33.0,M,,*53
$PYRTM,2024,123.918513704363,15.028161114502
$GPGGA,220238.00,3450.1617,N,12120.6243,W,1,10,0.8,9.4,M,-33.0,M,,*5E
$PYRTM,2024,123.918522369537,15.028169779676
$GPGGA,220239.00,3450.1622,N,12120.6264,W,1,10,0.8,9.2,M,-33.0,M,,*5A
$PYRTM,2024,123.918533956794,15.028181366933
$GPGGA,220240.00,3450.1628,N,12120.6279,W,1,10,0.8,8.9,M,-33.0,M,,*58
$PYRTM,2024,123.918545518333,15.028192928472
$GPGGA,220241.00,3450.1638,N,12120.6290,W,1,10,0.8,9.1,M,-33.0,M,,*56
$PYRTM,2024,123.918557103657,15.028204513796
$GPGGA,220242.00,3450.1649,N,12120.6301,W,1,10,0.8,9.2,M,-33.0,M,,*59
$PYRTM,2024,123.918568666736,15.028216076875
$GPGGA,220243.00,3450.1657,N,12120.6315,W,1,10,0.8,9.2,M,-33.0,M,,*52
$PYRTM,2024,123.918580252766,15.028227662905
$GPGGA,220244.00,3450.1661,N,12120.6333,W,1,10,0.8,9.4,M,-33.0,M,,*52
$PYRTM,2024,123.918591812813,15.028239222951
$GPGGA,220245.00,3450.1666,N,12120.6350,W,1,10,0.8,9.5,M,-33.0,M,,*50
$PYRTM,2024,123.918599105637,15.028246515775
$GPGGA,220246.00,3450.1676,N,12120.6365,W,1,10,0.8,8.9,M,-33.0,M,,*59
$PYRTM,2024,123.918610909722,15.028258319861
$GPGGA,220247.00,3450.1688,N,12120.6378,W,1,10,0.8,8.5,M,-33.0,M,,*59
$PYRTM,2024,123.918622844479,15.028270254618
$GPGGA,220248.00,3450.1697,N,12120.6390,W,1,10,0.8,8.7,M,-33.0,M,,*5C
$PYRTM,2024,123.918638112002,15.028285522141
$GPGGA,220249.00,3450.1702,N,12120.6404,W,1,10,0.8,9.2,M,-33.0,M,,*5E
$PYRTM,2024,123.918649700451,15.028297110590
$GPGGA,220250.00,3450.1706,N,12120.6423,W,1,10,0.8,9.3,M,-33.0,M,,*56
$PYRTM,2024,123.918661258843,15.028308668993
$GPGGA,220251.00,3450.1713,N,12120.6442,W,1,10,0.8,8.8,M,-33.0,M,,*5E
$PYRTM,2024,123.918672844988,15.028320255127
$GPGGA,220252.00,3450.1724,N,12120.6454,W,1,10,0.8,8.3,M,-33.0,M,,*55
$PYRTM,2024,123.918684409653,15.028331819792
$GPGGA,220253.00,3450.1733,N,12120.6464,W,1,10,0.8,8.5,M,-33.0,M,,*57
$PYRTM,2024,123.918695992870,15.028343403009
$GPGGA,220254.00,3450.1738,N,12120.6478,W,1,10,0.8,9.1,M,-33.0,M,,*53
$PYRTM,2024,123.918707554306,15.028354964444
$GPGGA,220255.00,3450.1744,N,12120.6497,W,1,10,0.8,9.1,M,-33.0,M,,*58
$PYRTM,2024,123.918719142083,15.028366552222
$GPGGA,220256.00,3450.1752,N,12120.6517,W,1,10,0.8,8.3,M,-33.0,M,,*56
$PYRTM,2024,123.918730703692,15.028378113831
$GPGGA,220257.00,3450.1760,N,12120.6531,W,1,10,0.8,7.7,M,-33.0,M,,*59
$PYRTM,2024,123.918737995012,15.028385405150
$GPGGA,220258.00,3450.1767,N,12120.6541,W,1,10,0.8,8.0,M,-33.0,M,,*5E
$PYRTM,2024,123.918753850718,15.028401260856
$GPGGA,220259.00,3450.1773,N,12120.6555,W,1,10,0.8,8.7,M,-33.0,M,,*58
$PYRTM,2024,123.918765441574,15.028412851713
$GPGGA,220300.00,3450.1781,N,12120.6574,W,1,10,0.8,8.5,M,-33.0,M,,*59
$PYRTM,2024,123.918772716204,15.028420126343
$GPGGA,220301.00,3450.1790,N,12120.6591,W,1,10,0.8,8.0,M,-33.0,M,,*56
$PYRTM,2024,123.918788586296,15.028435996435
$GPGGA,220302.00,3450.1796,N,12120.6605,W,1,10,0.8,7.8,M,-33.0,M,,*5A
$PYRTM,2024,123.918800151157,15.028447561296
$GPGGA,220303.00,3450.1802,N,12120.6619,W,1,10,0.8,8.0,M,-33.0,M,,*53
$PYRTM,2024,123.918811737245,15.028459147384
$GPGGA,220304.00,3450.1809,N,12120.6633,W,1,10,0.8,8.5,M,-33.0,M,,*52
$PYRTM,2024,123.918823296204,15.028470706343
$GPGGA,220305.00,3450.1815,N,12120.6648,W,1,10,0.8,8.8,M,-33.0,M,,*5F
$PYRTM,2024,123.918830588507,15.028477998657
$GPGGA,220306.00,3450.1821,N,12120.6664,W,1,10,0.8,8.9,M,-33.0,M,,*54
$PYRTM,2024,123.918846443773,15.028493853912
$GPGGA,220307.00,3450.1827,N,12120.6682,W,1,10,0.8,8.1,M,-33.0,M,,*53
$PYRTM,2024,123.918853748391,15.028501158530
$GPGGA,220308.00,3450.1836,N,12120.6698,W,1,10,0.8,7.2,M,-33.0,M,,*5B
$PYRTM,2024,123.918872487106,15.028519897245
$GPGGA,220309.00,3450.1844,N,12120.6709,W,1,10,0.8,7.2,M,-33.0,M,,*56
$PYRTM,2024,123.918881175058,15.028528585208
$GPGGA,220310.00,3450.1849,N,12120.6720,W,1,10,0.8,7.7,M,-33.0,M,,*5D
$PYRTM,2024,123.918888459120,15.028535869259
$GPGGA,220311.00,3450.1854,N,12120.6739,W,1,10,0.8,7.7,M,-33.0,M,,*58
$PYRTM,2024,123.918904327778,15.028551737917
$GPGGA,220312.00,3450.1859,N,12120.6759,W,1,10,0.8,7.4,M,-33.0,M,,*53
$PYRTM,2024,123.918915889421,15.028563299560
$GPGGA,220313.00,3450.1864,N,12120.6772,W,1,10,0.8,7.5,M,-33.0,M,,*54
$PYRTM,2024,123.918923192951,15.028570603090
$GPGGA,220314.00,3450.1874,N,12120.6782,W,1,10,0.8,7.6,M,-33.0,M,,*5E
$PYRTM,2024,123.918939036516,15.028586446655
$GPGGA,220315.00,3450.1884,N,12120.6797,W,1,10,0.8,7.7,M,-33.0,M,,*55
$PYRTM,2024,123.918950627535,15.028598037674
$GPGGA,220316.00,3450.1889,N,12120.6812,W,1,10,0.8,7.9,M,-33.0,M,,*57
$PYRTM,2024,123.918962185775,15.028609595926
$GPGGA,220317.00,3450.1891,N,12120.6828,W,1,10,0.8,8.7,M,-33.0,M,,*57
$PYRTM,2024,123.918973786736,15.028621196875
$GPGGA,220318.00,3450.1898,N,12120.6844,W,1,10,0.8,9.1,M,-33.0,M,,*5C
$PYRTM,2024,123.918981064063,15.028628474201
$GPGGA,220319.00,3450.1906,N,12120.6857,W,1,10,0.8,9.2,M,-33.0,M,,*5A
$PYRTM,2024,123.918996920752,15.028644330891
$GPGGA,220320.00,3450.1915,N,12120.6866,W,1,10,0.8,9.4,M,-33.0,M,,*56
$PYRTM,2024,123.919008484051,15.028655894201
$GPGGA,220321.00,3450.1923,N,12120.6879,W,1,10,0.8,9.2,M,-33.0,M,,*5A
$PYRTM,2024,123.919020071852,15.028667482002
$GPGGA,220322.00,3450.1930,N,12120.6897,W,1,10,0.8,8.6,M,-33.0,M,,*5E
$PYRTM,2024,123.919031630741,15.028679040880
$GPGGA,220323.00,3450.1933,N,12120.6913,W,1,10,0.8,8.3,M,-33.0,M,,*54
$PYRTM,2024,123.919043218183,15.028690628322
$GPGGA,220324.00,3450.1938,N,12120.6922,W,1,10,0.8,8.8,M,-33.0,M,,*51
$PYRTM,2024,123.919054779097,15.028702189236
$GPGGA,220325.00,3450.1948,N,12120.6933,W,1,10,0.8,9.5,M,-33.0,M,,*5B
$PYRTM,2024,123.919062078090,15.028709488229
$GPGGA,220326.00,3450.1958,N,12120.6947,W,1,10,0.8,9.6,M,-33.0,M,,*59
$PYRTM,2024,123.919077927257,15.028725337396
$GPGGA,220327.00,3450.1964,N,12120.6963,W,1,10,0.8,8.2,M,-33.0,M,,*54
$PYRTM,2024,123.919089513704,15.028736923843
$GPGGA,220328.00,3450.1969,N,12120.6977,W,1,10,0.8,7.9,M,-33.0,M,,*57
$PYRTM,2024,123.919101076053,15.028748486192
$GPGGA,220329.00,3450.1974,N,12120.6991,W,1,10,0.8,7.9,M,-33.0,M,,*52
$PYRTM,2024,123.919112664664,15.028760074803
$GPGGA,220330.00,3450.1981,N,12120.7003,W,1,10,0.8,8.1,M,-33.0,M,,*54
$PYRTM,2024,123.919119942697,15.028767352847
$GPGGA,220331.00,3450.1989,N,12120.7017,W,1,10,0.8,8.3,M,-33.0,M,,*5A
$PYRTM,2024,123.919135825706,15.028783235845
$GPGGA,220332.00,3450.1998,N,12120.7031,W,1,10,0.8,8.3,M,-33.0,M,,*5D
$PYRTM,2024,123.919147372025,15.028794782164
$GPGGA,220333.00,3450.2005,N,12120.7044,W,1,10,0.8,8.7,M,-33.0,M,,*54
$PYRTM,2024,123.919154665197,15.028802075336
$GPGGA,220334.00,3450.2011,N,12120.7057,W,1,10,0.8,8.8,M,-33.0,M,,*5B
$PYRTM,2024,123.919170520359,15.028817930498
$GPGGA,220335.00,3450.2019,N,12120.7073,W,1,10,0.8,8.3,M,-33.0,M,,*5F
$PYRTM,2024,123.919182106979,15.028829517118
$GPGGA,220336.00,3450.2027,N,12120.7087,W,1,10,0.8,7.8,M,-33.0,M,,*5E
$PYRTM,2024,123.919193670394,15.028841080544
$GPGGA,220337.00,3450.2034,N,12120.7099,W,1,10,0.8,7.9,M,-33.0,M,,*53
$PYRTM,2024,123.919205255162,15.028852665301
$GPGGA,220338.00,3450.2042,N,12120.7111,W,1,10,0.8,8.4,M,-33.0,M,,*5E
$PYRTM,2024,123.919212535058,15.028859945197
$GPGGA,220339.00,3450.2050,N,12120.7126,W,1,10,0.8,8.4,M,-33.0,M,,*58
$PYRTM,2024,123.919231181157,15.028878591296
$GPGGA,220340.00,3450.2057,N,12120.7140,W,1,10,0.8,8.3,M,-33.0,M,,*56
$PYRTM,2024,123.919239965139,15.028887375278
$GPGGA,220341.00,3450.2062,N,12120.7156,W,1,10,0.8,8.2,M,-33.0,M,,*57
$PYRTM,2024,123.919251554225,15.028898964363
$GPGGA,220342.00,3450.2069,N,12120.7171,W,1,10,0.8,7.9,M,-33.0,M,,*5E
$PYRTM,2024,123.919263112824,15.028910522963
$GPGGA,220343.00,3450.2077,N,12120.7183,W,1,10,0.8,7.9,M,-33.0,M,,*5D
$PYRTM,2024,123.919274701852,15.028922111991
$GPGGA,220344.00,3450.2084,N,12120.7197,W,1,10,0.8,8.1,M,-33.0,M,,*54
$PYRTM,2024,123.919286260880,15.028933671007
$GPGGA,220345.00,3450.2091,N,12120.7214,W,1,10,0.8,8.1,M,-33.0,M,,*59
$PYRTM,2024,123.919297861782,15.028945271921
$GPGGA,220346.00,3450.2096,N,12120.7230,W,1,10,0.8,8.0,M,-33.0,M,,*5A
$PYRTM,2024,123.919309409271,15.028956819421
$GPGGA,220347.00,3450.2101,N,12120.7242,W,1,10,0.8,8.5,M,-33.0,M,,*54
$PYRTM,2024,123.919320998808,15.028968408958
$GPGGA,220348.00,3450.2108,N,12120.7256,W,1,10,0.8,9.1,M,-33.0,M,,*52
$PYRTM,2024,123.919332557222,15.028979967361
$GPGGA,220349.00,3450.2117,N,12120.7273,W,1,10,0.8,8.9,M,-33.0,M,,*53
$PYRTM,2024,123.919344143831,15.028991553970
$GPGGA,220350.00,3450.2124,N,12120.7288,W,1,10,0.8,8.5,M,-33.0,M,,*53
$PYRTM,2024,123.919351438715,15.028998848854
$GPGGA,220351.00,3450.2127,N,12120.7299,W,1,10,0.8,8.9,M,-33.0,M,,*5D
$PYRTM,2024,123.919367291991,15.029014702130
$GPGGA,220352.00,3450.2130,N,12120.7312,W,1,10,0.8,9.6,M,-33.0,M,,*54
$PYRTM,2024,123.919378854734,15.029026264873
$GPGGA,220353.00,3450.2136,N,12120.7329,W,1,10,0.8,9.5,M,-33.0,M,,*58
$PYRTM,2024,123.919390440671,15.029037850822
$GPGGA,220354.00,3450.2144,N,12120.7344,W,1,10,0.8,9.1,M,-33.0,M,,*55
$PYRTM,2024,123.919402003287,15.029049413426
$GPGGA,220355.00,3450.2151,N,12120.7355,W,1,10,0.8,9.0,M,-33.0,M,,*51
$PYRTM,2024,123.919413588877,15.029060999016
$GPGGA,220356.00,3450.2157,N,12120.7367,W,1,10,0.8,9.0,M,-33.0,M,,*55
$PYRTM,2024,123.919425149977,15.029072560116
$GPGGA,220357.00,3450.2161,N,12120.7384,W,1,10,0.8,8.7,M,-33.0,M,,*5A
$PYRTM,2024,123.919436740799,15.029084150938
$GPGGA,220358.00,3450.2165,N,12120.7399,W,1,10,0.8,8.7,M,-33.0,M,,*5D
$PYRTM,2024,123.919448298160,15.029095708299
$GPGGA,220359.00,3450.2171,N,12120.7411,W,1,10,0.8,9.1,M,-33.0,M,,*59
$PYRTM,2024,123.919459888565,15.029107298704
$GPGGA,220400.00,3450.2179,N,12120.7423,W,1,10,0.8,9.4,M,-33.0,M,,*5E
$PYRTM,2024,123.919467177222,15.029114587361
$GPGGA,220401.00,3450.2187,N,12120.7435,W,1,10,0.8,9.5,M,-33.0,M,,*58
$PYRTM,2024,123.919483033808,15.029130443947
$GPGGA,220402.00,3450.2193,N,12120.7451,W,1,10,0.8,9.2,M,-33.0,M,,*5B
$PYRTM,2024,123.919494595174,15.029142005313
$GPGGA,220403.00,3450.2197,N,12120.7467,W,1,10,0.8,9.0,M,-33.0,M,,*59
$PYRTM,2024,123.919501899039,15.029149309178
$GPGGA,220404.00,3450.2204,N,12120.7481,W,1,10,0.8,9.0,M,-33.0,M,,*5F
$PYRTM,2024,123.919517743785,15.029165153924
$GPGGA,220405.00,3450.2214,N,12120.7493,W,1,10,0.8,9.0,M,-33.0,M,,*5C
$PYRTM,2024,123.919529333738,15.029176743877
$GPGGA,220406.00,3450.2223,N,12120.7506,W,1,10,0.8,9.0,M,-33.0,M,,*56
$PYRTM,2024,123.919540892755,15.029188302894
$GPGGA,220407.00,3450.2228,N,12120.7522,W,1,10,0.8,9.1,M,-33.0,M,,*5B
$PYRTM,2024,123.919552478935,15.029199889074
$GPGGA,220408.00,3450.2231,N,12120.7539,W,1,10,0.8,9.1,M,-33.0,M,,*56
$PYRTM,2024,123.919559757778,15.029207167917
$GPGGA,220409.00,3450.2238,N,12120.7554,W,1,10,0.8,9.0,M,-33.0,M,,*54
$PYRTM,2024,123.919571562338,15.029218972477
$GPGGA,220410.00,3450.2249,N,12120.7567,W,1,10,0.8,8.7,M,-33.0,M,,*5C
$PYRTM,2024,123.919589964942,15.029237375069
$GPGGA,220411.00,3450.2258,N,12120.7580,W,1,10,0.8,8.5,M,-33.0,M,,*56
$PYRTM,2024,123.919598774491,15.029246184630
$GPGGA,220412.00,3450.2262,N,12120.7596,W,1,10,0.8,8.5,M,-33.0,M,,*5B
$PYRTM,2024,123.919610335868,15.029257746007
$GPGGA,220413.00,3450.2266,N,12120.7614,W,1,10,0.8,8.7,M,-33.0,M,,*55
$PYRTM,2024,123.919617628611,15.029265038750
$GPGGA,220414.00,3450.2273,N,12120.7628,W,1,10,0.8,8.9,M,-33.0,M,,*57
$PYRTM,2024,123.919633483831,15.029280893970
$GPGGA,220415.00,3450.2282,N,12120.7641,W,1,10,0.8,9.2,M,-33.0,M,,*5D
$PYRTM,2024,123.919645074606,15.029292484745
$GPGGA,220416.00,3450.2291,N,12120.7654,W,1,10,0.8,9.2,M,-33.0,M,,*58
$PYRTM,2024,123.919656632998,15.029304043137
$GPGGA,220417.00,3450.2297,N,12120.7671,W,1,10,0.8,8.5,M,-33.0,M,,*5E
$PYRTM,2024,123.919668220150,15.029315630289
$GPGGA,220418.00,3450.2303,N,12120.7688,W,1,10,0.8,8.3,M,-33.0,M,,*5D
$PYRTM,2024,123.919675511759,15.029322921898
$GPGGA,220419.00,3450.2309,N,12120.7701,W,1,10,0.8,8.4,M,-33.0,M,,*51
$PYRTM,2024,123.919691367616,15.029338777755
$GPGGA,220420.00,3450.2318,N,12120.7715,W,1,10,0.8,8.4,M,-33.0,M,,*5E
$PYRTM,2024,123.919702929560,15.029350339699
$GPGGA,220421.00,3450.2327,N,12120.7730,W,1,10,0.8,8.2,M,-33.0,M,,*52
$PYRTM,2024,123.919714516157,15.029361926296
$GPGGA,220422.00,3450.2333,N,12120.7744,W,1,10,0.8,8.3,M,-33.0,M,,*56
$PYRTM,2024,123.919721796539,15.029369206678
$GPGGA,220423.00,3450.2338,N,12120.7759,W,1,10,0.8,8.3,M,-33.0,M,,*50
$PYRTM,2024,123.919737665417,15.029385075556
$GPGGA,220424.00,3450.2346,N,12120.7776,W,1,10,0.8,7.8,M,-33.0,M,,*57
$PYRTM,2024,123.919749238148,15.029396648299
$GPGGA,220425.00,3450.2355,N,12120.7792,W,1,10,0.8,7.1,M,-33.0,M,,*57
$PYRTM,2024,123.919760812581,15.029408222720
$GPGGA,220426.00,3450.2361,N,12120.7803,W,1,10,0.8,7.4,M,-33.0,M,,*51
$PYRTM,2024,123.919772386991,15.029419797130
$GPGGA,220427.00,3450.2367,N,12120.7817,W,1,10,0.8,8.0,M,-33.0,M,,*58
$PYRTM,2024,123.919783963924,15.029431374063
$GPGGA,220428.00,3450.2374,N,12120.7834,W,1,10,0.8,8.2,M,-33.0,M,,*56
$PYRTM,2024,123.919791247650,15.029438657789
$GPGGA,220429.00,3450.2380,N,12120.7851,W,1,10,0.8,8.0,M,-33.0,M,,*5D
$PYRTM,2024,123.919807113600,15.029454523738
$GPGGA,220430.00,3450.2386,N,12120.7864,W,1,10,0.8,8.1,M,-33.0,M,,*54
$PYRTM,2024,123.919818683565,15.029466093692
$GPGGA,220431.00,3450.2394,N,12120.7876,W,1,10,0.8,8.2,M,-33.0,M,,*56
$PYRTM,2024,123.919830257558,15.029477667685
$GPGGA,220432.00,3450.2402,N,12120.7890,W,1,10,0.8,8.1,M,-33.0,M,,*56
$PYRTM,2024,123.919841830313,15.029489240451
$GPGGA,220433.00,3450.2409,N,12120.7906,W,1,10,0.8,7.8,M,-33.0,M,,*54
$PYRTM,2024,123.919853404873,15.029500815012
$GPGGA,220434.00,3450.2415,N,12120.7922,W,1,10,0.8,7.9,M,-33.0,M,,*59
$PYRTM,2024,123.919864974560,15.029512384699
$GPGGA,220435.00,3450.2419,N,12120.7935,W,1,10,0.8,8.5,M,-33.0,M,,*51
$PYRTM,2024,123.919876553530,15.029523963681
$GPGGA,220436.00,3450.2426,N,12120.7947,W,1,10,0.8,9.2,M,-33.0,M,,*5D
$PYRTM,2024,123.919888127662,15.029535537801
$GPGGA,220437.00,3450.2437,N,12120.7962,W,1,10,0.8,9.2,M,-33.0,M,,*5B
$PYRTM,2024,123.919899702593,15.029547112731
$GPGGA,220438.00,3450.2446,N,12120.7980,W,1,10,0.8,8.2,M,-33.0,M,,*5F
$PYRTM,2024,123.919911276076,15.029558686215
$GPGGA,220439.00,3450.2452,N,12120.7995,W,1,10,0.8,7.3,M,-33.0,M,,*51
$PYRTM,2024,123.919922852593,15.029570262731
$GPGGA,220440.00,3450.2456,N,12120.8008,W,1,10,0.8,7.6,M,-33.0,M,,*5C
$PYRTM,2024,123.919930140278,15.029577550417
$GPGGA,220441.00,3450.2463,N,12120.8021,W,1,10,0.8,8.2,M,-33.0,M,,*5B
$PYRTM,2024,123.919948776377,15.029596186516
$GPGGA,220442.00,3450.2473,N,12120.8037,W,1,10,0.8,8.4,M,-33.0,M,,*58
$PYRTM,2024,123.919957572488,15.029604982639
$GPGGA,220443.00,3450.2479,N,12120.8054,W,1,10,0.8,8.4,M,-33.0,M,,*56
$PYRTM,2024,123.919969149907,15.029616560046
$GPGGA,220444.00,3450.2483,N,12120.8071,W,1,10,0.8,8.2,M,-33.0,M,,*55
$PYRTM,2024,123.919980722928,15.029628133067
$GPGGA,220445.00,3450.2490,N,12120.8085,W,1,10,0.8,8.0,M,-33.0,M,,*5F
$PYRTM,2024,123.919992295116,15.029639705255
$GPGGA,220446.00,3450.2499,N,12120.8096,W,1,10,0.8,7.8,M,-33.0,M,,*50
$PYRTM,2024,123.920003869120,15.029651279259
$GPGGA,220447.00,3450.2509,N,12120.8110,W,1,10,0.8,7.8,M,-33.0,M,,*56
$PYRTM,2024,123.920015439086,15.029662849236
$GPGGA,220448.00,3450.2513,N,12120.8127,W,1,10,0.8,7.9,M,-33.0,M,,*57
$PYRTM,2024,123.920027017060,15.029674427199
$GPGGA,220449.00,3450.2516,N,12120.8145,W,1,10,0.8,8.2,M,-33.0,M,,*53
$PYRTM,2024,123.920038593113,15.029686003252
$GPGGA,220450.00,3450.2522,N,12120.8159,W,1,10,0.8,8.7,M,-33.0,M,,*54
$PYRTM,2024,123.920050166435,15.029697576574
$GPGGA,220451.00,3450.2533,N,12120.8172,W,1,10,0.8,8.7,M,-33.0,M,,*5C
$PYRTM,2024,123.920057457025,15.029704867164
$GPGGA,220452.00,3450.2545,N,12120.8187,W,1,10,0.8,8.0,M,-33.0,M,,*53
$PYRTM,2024,123.920073316204,15.029720726343
$GPGGA,220453.00,3450.2552,N,12120.8203,W,1,10,0.8,7.5,M,-33.0,M,,*51
$PYRTM,2024,123.920084889525,15.029732299664
$GPGGA,220454.00,3450.2554,N,12120.8218,W,1,10,0.8,8.0,M,-33.0,M,,*50
$PYRTM,2024,123.920092174572,15.029739584711
$GPGGA,220455.00,3450.2558,N,12120.8233,W,1,10,0.8,8.7,M,-33.0,M,,*53
$PYRTM,2024,123.920108041319,15.029755451458
$GPGGA,220456.00,3450.2567,N,12120.8250,W,1,10,0.8,8.7,M,-33.0,M,,*59
$PYRTM,2024,123.920119610683,15.029767020822
$GPGGA,220457.00,3450.2578,N,12120.8266,W,1,10,0.8,8.1,M,-33.0,M,,*55
$PYRTM,2024,123.920131189421,15.029778599572
$GPGGA,220458.00,3450.2588,N,12120.8277,W,1,10,0.8,8.0,M,-33.0,M,,*54
$PYRTM,2024,123.920142759977,15.029790170116
$GPGGA,220459.00,3450.2595,N,12120.8290,W,1,10,0.8,8.4,M,-33.0,M,,*54
$PYRTM,2024,123.920154333912,15.029801744039
$GPGGA,220500.00,3450.2600,N,12120.8306,W,1,10,0.8,8.7,M,-33.0,M,,*5B
$PYRTM,2024,123.920165906840,15.029813316979
$GPGGA,220501.00,3450.2606,N,12120.8324,W,1,10,0.8,8.7,M,-33.0,M,,*5C
$PYRTM,2024,123.920177484306,15.029824894444
$GPGGA,220502.00,3450.2614,N,12120.8338,W,1,10,0.8,8.7,M,-33.0,M,,*51
$PYRTM,2024,123.920189055116,15.029836465255
$GPGGA,220503.00,3450.2625,N,12120.8348,W,1,10,0.8,8.9,M,-33.0,M,,*5B
$PYRTM,2024,123.920200629884,15.029848040023
$GPGGA,220504.00,3450.2634,N,12120.8362,W,1,10,0.8,9.1,M,-33.0,M,,*5D
$PYRTM,2024,123.920212205440,15.029859615579
$GPGGA,220505.00,3450.2640,N,12120.8380,W,1,10,0.8,8.9,M,-33.0,M,,*5A
$PYRTM,2024,123.920219482743,15.029866892882
$GPGGA,220506.00,3450.2646,N,12120.8396,W,1,10,0.8,8.7,M,-33.0,M,,*56
$PYRTM,2024,123.920235348252,15.029882758391
$GPGGA,220507.00,3450.2654,N,12120.8409,W,1,10,0.8,8.8,M,-33.0,M,,*5A
$PYRTM,2024,123.920246926400,15.029894336539
$GPGGA,220508.00,3450.2664,N,12120.8421,W,1,10,0.8,9.2,M,-33.0,M,,*57
$PYRTM,2024,123.920258503079,15.029905913218
$GPGGA,220509.00,3450.2673,N,12120.8435,W,1,10,0.8,9.7,M,-33.0,M,,*50
$PYRTM,2024,123.920270069456,15.029917479595
$GPGGA,220510.00,3450.2680,N,12120.8451,W,1,10,0.8,10.1,M,-33.0,M,,*68
$PYRTM,2024,123.920281648264,15.029929058403
$GPGGA,220511.00,3450.2687,N,12120.8468,W,1,10,0.8,10.0,M,-33.0,M,,*65
$PYRTM,2024,123.920288927755,15.029936337894
$GPGGA,220512.00,3450.2696,N,12120.8484,W,1,10,0.8,9.3,M,-33.0,M,,*5F
$PYRTM,2024,123.920307578484,15.029954988623
$GPGGA,220513.00,3450.2704,N,12120.8497,W,1,10,0.8,9.0,M,-33.0,M,,*55
$PYRTM,2024,123.920316373611,15.029963783750
$GPGGA,220514.00,3450.2711,N,12120.8509,W,1,10,0.8,9.5,M,-33.0,M,,*55
$PYRTM,2024,123.920327944525,15.029975354664
$GPGGA,220515.00,3450.2717,N,12120.8526,W,1,10,0.8,10.2,M,-33.0,M,,*60
$PYRTM,2024,123.920339514039,15.029986924190
$GPGGA,220516.00,3450.2725,N,12120.8545,W,1,10,0.8,9.9,M,-33.0,M,,*54
$PYRTM,2024,123.920351094236,15.029998504375
$GPGGA,220517.00,3450.2733,N,12120.8561,W,1,10,0.8,9.5,M,-33.0,M,,*58
$PYRTM,2024,123.920362667558,15.030010077697
$GPGGA,220518.00,3450.2737,N,12120.8574,W,1,10,0.8,9.8,M,-33.0,M,,*5A
$PYRTM,2024,123.920374241597,15.030021651736
$GPGGA,220519.00,3450.2743,N,12120.8588,W,1,10,0.8,10.4,M,-33.0,M,,*6F
$PYRTM,2024,123.920385818588,15.030033228727
$GPGGA,220520.00,3450.2752,N,12120.8605,W,1,10,0.8,10.1,M,-33.0,M,,*66
$PYRTM,2024,123.920393101562,15.030040511701
$GPGGA,220521.00,3450.2762,N,12120.8622,W,1,10,0.8,9.4,M,-33.0,M,,*5C
$PYRTM,2024,123.920408963970,15.030056374120
$GPGGA,220522.00,3450.2766,N,12120.8636,W,1,10,0.8,9.5,M,-33.0,M,,*5F
$PYRTM,2024,123.920420537836,15.030067947975
$GPGGA,220523.00,3450.2768,N,12120.8650,W,1,10,0.8,10.1,M,-33.0,M,,*6C
$PYRTM,2024,123.920432114977,15.030079525116
$GPGGA,220524.00,3450.2776,N,12120.8667,W,1,10,0.8,10.2,M,-33.0,M,,*63
$PYRTM,2024,123.920443687188,15.030091097326
$GPGGA,220525.00,3450.2786,N,12120.8684,W,1,10,0.8,9.8,M,-33.0,M,,*52
$PYRTM,2024,123.920455263958,15.030102674097
$GPGGA,220526.00,3450.2793,N,12120.8697,W,1,10,0.8,9.7,M,-33.0,M,,*58
$PYRTM,2024,123.920462562523,15.030109972650
$GPGGA,220527.00,3450.2798,N,12120.8710,W,1,10,0.8,10.1,M,-33.0,M,,*62
$PYRTM,2024,123.920478423623,15.030125833762
$GPGGA,220528.00,3450.2804,N,12120.8726,W,1,10,0.8,10.5,M,-33.0,M,,*66
$PYRTM,2024,123.920489977975,15.030137388113
$GPGGA,220529.00,3450.2811,N,12120.8744,W,1,10,0.8,10.0,M,-33.0,M,,*62
$PYRTM,2024,123.920501551528,15.030148961667
$GPGGA,220530.00,3450.2819,N,12120.8760,W,1,10,0.8,9.5,M,-33.0,M,,*59
$PYRTM,2024,123.920513130579,15.030160540718
$GPGGA,220531.00,3450.2827,N,12120.8771,W,1,10,0.8,9.6,M,-33.0,M,,*56
$PYRTM,2024,123.920524700417,15.030172110556
$GPGGA,220532.00,3450.2835,N,12120.8784,W,1,10,0.8,10.2,M,-33.0,M,,*60
$PYRTM,2024,123.920536275359,15.030183685498
$GPGGA,220533.00,3450.2844,N,12120.8800,W,1,10,0.8,10.2,M,-33.0,M,,*64
$PYRTM,2024,123.920543673958,15.030191084097
$GPGGA,220534.00,3450.2849,N,12120.8816,W,1,10,0.8,10.1,M,-33.0,M,,*6A
$PYRTM,2024,123.920559422917,15.030206833056
$GPGGA,220535.00,3450.2854,N,12120.8831,W,1,10,0.8,10.2,M,-33.0,M,,*61
$PYRTM,2024,123.920571002384,15.030218412523
$GPGGA,220536.00,3450.2862,N,12120.8846,W,1,10,0.8,10.0,M,-33.0,M,,*65
$PYRTM,2024,123.920582570625,15.030229980775
$GPGGA,220537.00,3450.2872,N,12120.8861,W,1,10,0.8,9.3,M,-33.0,M,,*5B
$PYRTM,2024,123.920594145046,15.030241555185
$GPGGA,220538.00,3450.2882,N,12120.8875,W,1,10,0.8,8.5,M,-33.0,M,,*59
$PYRTM,2024,123.920605724167,15.030253134306
$GPGGA,220539.00,3450.2889,N,12120.8888,W,1,10,0.8,8.6,M,-33.0,M,,*52
$PYRTM,2024,123.920617301655,15.030264711794
$GPGGA,220540.00,3450.2894,N,12120.8903,W,1,10,0.8,9.3,M,-33.0,M,,*56
$PYRTM,2024,123.920624588854,15.030271998993
$GPGGA,220541.00,3450.2900,N,12120.8919,W,1,10,0.8,9.9,M,-33.0,M,,*5A
$PYRTM,2024,123.920640447731,15.030287857870
$GPGGA,220542.00,3450.2908,N,12120.8935,W,1,10,0.8,9.9,M,-33.0,M,,*5F
$PYRTM,2024,123.920647738426,15.030295148565
$GPGGA,220543.00,3450.2918,N,12120.8950,W,1,10,0.8,9.2,M,-33.0,M,,*57
$PYRTM,2024,123.920666375683,15.030313785822
$GPGGA,220544.00,3450.2928,N,12120.8964,W,1,10,0.8,8.5,M,-33.0,M,,*52
$PYRTM,2024,123.920675168322,15.030322578461
$GPGGA,220545.00,3450.2936,N,12120.8978,W,1,10,0.8,8.1,M,-33.0,M,,*55
$PYRTM,2024,123.920686745336,15.030334155463
$GPGGA,220546.00,3450.2942,N,12120.8992,W,1,10,0.8,8.6,M,-33.0,M,,*56
$PYRTM,2024,123.920698317975,15.030345728113
$GPGGA,220547.00,3450.2947,N,12120.9007,W,1,10,0.8,9.7,M,-33.0,M,,*56
$PYRTM,2024,123.920709886713,15.030357296852
$GPGGA,220548.00,3450.2957,N,12120.9021,W,1,10,0.8,10.2,M,-33.0,M,,*61
$PYRTM,2024,123.920721461134,15.030368871273
$GPGGA,220549.00,3450.2969,N,12120.9037,W,1,10,0.8,10.4,M,-33.0,M,,*6C
$PYRTM,2024,123.920733039861,15.030380450000
$GPGGA,220550.00,3450.2976,N,12120.9053,W,1,10,0.8,9.7,M,-33.0,M,,*53
$PYRTM,2024,123.920744616053,15.030392026192
$GPGGA,220551.00,3450.2980,N,12120.9068,W,1,10,0.8,9.4,M,-33.0,M,,*50
$PYRTM,2024,123.920756188843,15.030403598981
$GPGGA,220552.00,3450.2986,N,12120.9080,W,1,10,0.8,9.5,M,-33.0,M,,*52
$PYRTM,2024,123.920767761076,15.030415171215
$GPGGA,220553.00,3450.2996,N,12120.9093,W,1,10,0.8,9.5,M,-33.0,M,,*50
$PYRTM,2024,123.920779350775,15.030426760914
$GPGGA,220554.00,3450.3007,N,12120.9109,W,1,10,0.8,9.4,M,-33.0,M,,*54
$PYRTM,2024,123.920790910764,15.030438320903
$GPGGA,220555.00,3450.3012,N,12120.9126,W,1,10,0.8,9.6,M,-33.0,M,,*5E
$PYRTM,2024,123.920802487338,15.030449897477
$GPGGA,220556.00,3450.3014,N,12120.9141,W,1,10,0.8,10.2,M,-33.0,M,,*66
$PYRTM,2024,123.920814058519,15.030461468657
$GPGGA,220557.00,3450.3019,N,12120.9157,W,1,10,0.8,10.6,M,-33.0,M,,*69
$PYRTM,2024,123.920825632859,15.030473042998
$GPGGA,220558.00,3450.3031,N,12120.9172,W,1,10,0.8,10.2,M,-33.0,M,,*6F
$PYRTM,2024,123.920832923715,15.030480333854
$GPGGA,220559.00,3450.3042,N,12120.9184,W,1,10,0.8,9.9,M,-33.0,M,,*50
$PYRTM,2024,123.920848780845,15.030496190984
$GPGGA,220600.00,3450.3049,N,12120.9198,W,1,10,0.8,9.8,M,-33.0,M,,*58
$PYRTM,2024,123.920860355104,15.030507765243
$GPGGA,220601.00,3450.3054,N,12120.9216,W,1,10,0.8,9.8,M,-33.0,M,,*50
$PYRTM,2024,123.920871930266,15.030519340405
$GPGGA,220602.00,3450.3060,N,12120.9234,W,1,10,0.8,9.9,M,-33.0,M,,*55
$PYRTM,2024,123.920883501991,15.030530912130
$GPGGA,220603.00,3450.3068,N,12120.9248,W,1,10,0.8,9.9,M,-33.0,M,,*57
$PYRTM,2024,123.920890781192,15.030538191331
$GPGGA,220604.00,3450.3079,N,12120.9260,W,1,10,0.8,10.0,M,-33.0,M,,*6B
$PYRTM,2024,123.920906651400,15.030554061539
$GPGGA,220605.00,3450.3089,N,12120.9274,W,1,10,0.8,9.7,M,-33.0,M,,*5F
$PYRTM,2024,123.920918228796,15.030565638947
$GPGGA,220606.00,3450.3095,N,12120.9292,W,1,10,0.8,9.0,M,-33.0,M,,*5E
$PYRTM,2024,123.920929799491,15.030577209630
$GPGGA,220607.00,3450.3099,N,12120.9309,W,1,10,0.8,8.6,M,-33.0,M,,*57
$PYRTM,2024,123.920941377674,15.030588787824
$GPGGA,220608.00,3450.3104,N,12120.9324,W,1,10,0.8,8.9,M,-33.0,M,,*5D
$PYRTM,2024,123.920952949225,15.030600359363
$GPGGA,220609.00,3450.3112,N,12120.9337,W,1,10,0.8,9.3,M,-33.0,M,,*52
$PYRTM,2024,123.920964535787,15.030611945926
$GPGGA,220610.00,3450.3124,N,12120.9350,W,1,10,0.8,9.3,M,-33.0,M,,*5E
$PYRTM,2024,123.920976097106,15.030623507257
$GPGGA,220611.00,3450.3132,N,12120.9365,W,1,10,0.8,9.3,M,-33.0,M,,*5E
$PYRTM,2024,123.920987671493,15.030635081644
$GPGGA,220612.00,3450.3136,N,12120.9381,W,1,10,0.8,9.6,M,-33.0,M,,*56
$PYRTM,2024,123.920999244606,15.030646654745
$GPGGA,220613.00,3450.3142,N,12120.9397,W,1,10,0.8,9.6,M,-33.0,M,,*53
$PYRTM,2024,123.921006525185,15.030653935324
$GPGGA,220614.00,3450.3151,N,12120.9412,W,1,10,0.8,9.4,M,-33.0,M,,*5E
$PYRTM,2024,123.921025170671,15.030672580810
$GPGGA,220615.00,3450.3162,N,12120.9426,W,1,10,0.8,9.2,M,-33.0,M,,*5E
$PYRTM,2024,123.921033966424,15.030681376562
$GPGGA,220616.00,3450.3170,N,12120.9440,W,1,10,0.8,9.4,M,-33.0,M,,*58
$PYRTM,2024,123.921045535868,15.030692946007
$GPGGA,220617.00,3450.3177,N,12120.9454,W,1,10,0.8,9.9,M,-33.0,M,,*56
$PYRTM,2024,123.921057114977,15.030704525116
$GPGGA,220618.00,3450.3185,N,12120.9470,W,1,10,0.8,10.2,M,-33.0,M,,*61
$PYRTM,2024,123.921068689745,15.030716099884
$GPGGA,220619.00,3450.3192,N,12120.9487,W,1,10,0.8,9.9,M,-33.0,M,,*5D
$PYRTM,2024,123.921080264225,15.030727674363
$GPGGA,220620.00,3450.3200,N,12120.9502,W,1,10,0.8,9.5,M,-33.0,M,,*5F
$PYRTM,2024,123.921091839630,15.030739249769
$GPGGA,220621.00,3450.3209,N,12120.9518,W,1,10,0.8,9.0,M,-33.0,M,,*59
$PYRTM,2024,123.921103426609,15.030750836748
$GPGGA,220622.00,3450.3218,N,12120.9532,W,1,10,0.8,9.0,M,-33.0,M,,*52
$PYRTM,2024,123.921114981366,15.030762391505
$GPGGA,220623.00,3450.3224,N,12120.9545,W,1,10,0.8,9.4,M,-33.0,M,,*58
$PYRTM,2024,123.921126585370,15.030773995509
$GPGGA,220624.00,3450.3229,N,12120.9562,W,1,10,0.8,9.5,M,-33.0,M,,*56
$PYRTM,2024,123.921138129375,15.030785539514
$GPGGA,220625.00,3450.3236,N,12120.9581,W,1,10,0.8,9.2,M,-33.0,M,,*53
$PYRTM,2024,123.921149716111,15.030797126250
$GPGGA,220626.00,3450.3244,N,12120.9594,W,1,10,0.8,9.2,M,-33.0,M,,*51
$PYRTM,2024,123.921161282199,15.030808692338
$GPGGA,220627.00,3450.3250,N,12120.9605,W,1,10,0.8,9.8,M,-33.0,M,,*54
$PYRTM,2024,123.921172856111,15.030820266250
$GPGGA,220628.00,3450.3258,N,12120.9621,W,1,10,0.8,9.9,M,-33.0,M,,*54
$PYRTM,2024,123.921180135162,15.030827545301
$GPGGA,220629.00,3450.3266,N,12120.9638,W,1,10,0.8,9.7,M,-33.0,M,,*5E
$PYRTM,2024,123.921196015312,15.030843425451
$GPGGA,220630.00,3450.3272,N,12120.9652,W,1,10,0.8,9.7,M,-33.0,M,,*5F
$PYRTM,2024,123.921203405278,15.030850815417
$GPGGA,220631.00,3450.3277,N,12120.9664,W,1,10,0.8,10.4,M,-33.0,M,,*65
$PYRTM,2024,123.921222046632,15.030869456771
$GPGGA,220632.00,3450.3284,N,12120.9680,W,1,10,0.8,10.4,M,-33.0,M,,*60
$PYRTM,2024,123.921230727569,15.030878137708
$GPGGA,220633.00,3450.3293,N,12120.9695,W,1,10,0.8,10.0,M,-33.0,M,,*67
$PYRTM,2024,123.921242318275,15.030889728414
$GPGGA,220634.00,3450.3301,N,12120.9707,W,1,10,0.8,10.0,M,-33.0,M,,*60
$PYRTM,2024,123.921253869965,15.030901280104
$GPGGA,220635.00,3450.3307,N,12120.9720,W,1,10,0.8,10.2,M,-33.0,M,,*60
$PYRTM,2024,123.921265457095,15.030912867234
$GPGGA,220636.00,3450.3312,N,12120.9738,W,1,10,0.8,10.0,M,-33.0,M,,*6C
$PYRTM,2024,123.921277023125,15.030924433264
$GPGGA,220637.00,3450.3317,N,12120.9754,W,1,10,0.8,9.8,M,-33.0,M,,*52
$PYRTM,2024,123.921288605104,15.030936015243
$GPGGA,220638.00,3450.3326,N,12120.9766,W,1,10,0.8,9.9,M,-33.0,M,,*5F
$PYRTM,2024,123.921300171030,15.030947581181
$GPGGA,220639.00,3450.3335,N,12120.9776,W,1,10,0.8,10.2,M,-33.0,M,,*6E
$PYRTM,2024,123.921311744954,15.030959155093
$GPGGA,220640.00,3450.3340,N,12120.9790,W,1,10,0.8,10.5,M,-33.0,M,,*6D
$PYRTM,2024,123.921323319954,15.030970730093
$GPGGA,220641.00,3450.3344,N,12120.9809,W,1,10,0.8,10.6,M,-33.0,M,,*64
$PYRTM,2024,123.921334906181,15.030982316319
$GPGGA,220642.00,3450.3351,N,12120.9825,W,1,10,0.8,10.1,M,-33.0,M,,*6A
$PYRTM,2024,123.921346470440,15.030993880579
$GPGGA,220643.00,3450.3362,N,12120.9837,W,1,10,0.8,9.7,M,-33.0,M,,*56
$PYRTM,2024,123.921358041678,15.031005451817
$GPGGA,220644.00,3450.3373,N,12120.9847,W,1,10,0.8,9.8,M,-33.0,M,,*59
$PYRTM,2024,123.921365320266,15.031012730405
$GPGGA,220645.00,3450.3378,N,12120.9861,W,1,10,0.8,10.2,M,-33.0,M,,*65
$PYRTM,2024,123.921384083183,15.031031493322
$GPGGA,220646.00,3450.3381,N,12120.9877,W,1,10,0.8,11.1,M,-33.0,M,,*65
$PYRTM,2024,123.921392764074,15.031040174225
$GPGGA,220647.00,3450.3387,N,12120.9892,W,1,10,0.8,11.2,M,-33.0,M,,*6A
$PYRTM,2024,123.921404338206,15.031051748345
$GPGGA,220648.00,3450.3399,N,12120.9908,W,1,10,0.8,10.1,M,-33.0,M,,*6A
$PYRTM,2024,123.921415911528,15.031063321667
$GPGGA,220649.00,3450.3409,N,12120.9923,W,1,10,0.8,8.8,M,-33.0,M,,*5C
$PYRTM,2024,123.921427498229,15.031074908368
$GPGGA,220650.00,3450.3415,N,12120.9937,W,1,10,0.8,8.7,M,-33.0,M,,*53
$PYRTM,2024,123.921439060116,15.031086470255
$GPGGA,220651.00,3450.3419,N,12120.9949,W,1,10,0.8,9.3,M,-33.0,M,,*52
$PYRTM,2024,123.921450659942,15.031098070081
$GPGGA,220652.00,3450.3427,N,12120.9961,W,1,10,0.8,10.2,M,-33.0,M,,*6F
$PYRTM,2024,123.921462208484,15.031109618623
$GPGGA,220653.00,3450.3437,N,12120.9975,W,1,10,0.8,10.4,M,-33.0,M,,*6C
$PYRTM,2024,123.921469487882,15.031116898021
$GPGGA,220654.00,3450.3446,N,12120.9993,W,1,10,0.8,9.6,M,-33.0,M,,*5F
$PYRTM,2024,123.921485356701,15.031132766840
$GPGGA,220655.00,3450.3452,N,12121.0010,W,1,10,0.8,8.2,M,-33.0,M,,*54
$PYRTM,2024,123.921492636319,15.031140046470
$GPGGA,220656.00,3450.3457,N,12121.0022,W,1,10,0.8,7.8,M,-33.0,M,,*56
$PYRTM,2024,123.921508501458,15.031155911609
$GPGGA,220657.00,3450.3464,N,12121.0031,W,1,10,0.8,8.6,M,-33.0,M,,*54
$PYRTM,2024,123.921520079873,15.031167490012
$GPGGA,220658.00,3450.3472,N,12121.0046,W,1,10,0.8,9.5,M,-33.0,M,,*5E
$PYRTM,2024,123.921527360069,15.031174770208
$GPGGA,220659.00,3450.3480,N,12121.0063,W,1,10,0.8,9.6,M,-33.0,M,,*56
$PYRTM,2024,123.921543238576,15.031190648715
$GPGGA,220700.00,3450.3487,N,12121.0078,W,1,10,0.8,9.3,M,-33.0,M,,*53
$PYRTM,2024,123.921554801933,15.031202212072
$GPGGA,220701.00,3450.3493,N,12121.0089,W,1,10,0.8,9.5,M,-33.0,M,,*5F
$PYRTM,2024,123.921566388102,15.031213798241
$GPGGA,220702.00,3450.3500,N,12121.0102,W,1,10,0.8,9.7,M,-33.0,M,,*57
$PYRTM,2024,123.921573655590,15.031221065729
$GPGGA,220703.00,3450.3508,N,12121.0119,W,1,10,0.8,9.3,M,-33.0,M,,*50
$PYRTM,2024,123.921589551273,15.031236961412
$GPGGA,220704.00,3450.3514,N,12121.0134,W,1,10,0.8,8.9,M,-33.0,M,,*5E
$PYRTM,2024,123.921601098831,15.031248508970
$GPGGA,220705.00,3450.3521,N,12121.0146,W,1,10,0.8,9.3,M,-33.0,M,,*57
$PYRTM,2024,123.921612696111,15.031260106250
$GPGGA,220706.00,3450.3527,N,12121.0159,W,1,10,0.8,10.0,M,-33.0,M,,*67
$PYRTM,2024,123.921624247245,15.031271657384
$GPGGA,220707.00,3450.3532,N,12121.0174,W,1,10,0.8,10.7,M,-33.0,M,,*6A
$PYRTM,2024,123.921635843692,15.031283253831
$GPGGA,220708.00,3450.3539,N,12121.0189,W,1,10,0.8,10.7,M,-33.0,M,,*6C
$PYRTM,2024,123.921643222095,15.031290632234
$GPGGA,220709.00,3450.3548,N,12121.0203,W,1,10,0.8,10.2,M,-33.0,M,,*6F
$PYRTM,2024,123.921658969051,15.031306379190
$GPGGA,220710.00,3450.3556,N,12121.0216,W,1,10,0.8,9.5,M,-33.0,M,,*53
$PYRTM,2024,123.921670545532,15.031317955671
$GPGGA,220711.00,3450.3562,N,12121.0229,W,1,10,0.8,9.5,M,-33.0,M,,*59
$PYRTM,2024,123.921682116586,15.031329526725
$GPGGA,220712.00,3450.3567,N,12121.0245,W,1,10,0.8,9.7,M,-33.0,M,,*57
$PYRTM,2024,123.921693691308,15.031341101458
$GPGGA,220713.00,3450.3573,N,12121.0259,W,1,10,0.8,10.2,M,-33.0,M,,*63
$PYRTM,2024,123.921701086620,15.031348496759
$GPGGA,220714.00,3450.3581,N,12121.0271,W,1,10,0.8,10.5,M,-33.0,M,,*64
$PYRTM,2024,123.921716843067,15.031364253206
$GPGGA,220715.00,3450.3593,N,12121.0285,W,1,10,0.8,9.9,M,-33.0,M,,*59
$PYRTM,2024,123.921724130972,15.031371541111
$GPGGA,220716.00,3450.3602,N,12121.0299,W,1,10,0.8,9.2,M,-33.0,M,,*57
$PYRTM,2024,123.921742765301,15.031390175440
$GPGGA,220717.00,3450.3607,N,12121.0314,W,1,10,0.8,9.2,M,-33.0,M,,*57
$PYRTM,2024,123.921751561389,15.031398971528
$GPGGA,220718.00,3450.3611,N,12121.0329,W,1,10,0.8,9.7,M,-33.0,M,,*54
$PYRTM,2024,123.921758841539,15.031406251678
$GPGGA,220719.00,3450.3618,N,12121.0343,W,1,10,0.8,10.1,M,-33.0,M,,*6E
$PYRTM,2024,123.921774718183,15.031422128322
$GPGGA,220720.00,3450.3629,N,12121.0357,W,1,10,0.8,9.8,M,-33.0,M,,*52
$PYRTM,2024,123.921786279236,15.031433689375
$GPGGA,220721.00,3450.3639,N,12121.0371,W,1,10,0.8,9.5,M,-33.0,M,,*5B
$PYRTM,2024,123.921797858160,15.031445268299
$GPGGA,220722.00,3450.3647,N,12121.0385,W,1,10,0.8,9.5,M,-33.0,M,,*5A
$PYRTM,2024,123.921809427766,15.031456837905
$GPGGA,220723.00,3450.3652,N,12121.0399,W,1,10,0.8,9.8,M,-33.0,M,,*5F
$PYRTM,2024,123.921816711898,15.031464122037
$GPGGA,220724.00,3450.3658,N,12121.0414,W,1,10,0.8,10.2,M,-33.0,M,,*62
$PYRTM,2024,123.921832577095,15.031479987245
$GPGGA,220725.00,3450.3666,N,12121.0429,W,1,10,0.8,10.1,M,-33.0,M,,*63
$PYRTM,2024,123.921844167523,15.031491577662
$GPGGA,220726.00,3450.3677,N,12121.0443,W,1,10,0.8,9.7,M,-33.0,M,,*52
$PYRTM,2024,123.921855731377,15.031503141516
$GPGGA,220727.00,3450.3687,N,12121.0457,W,1,10,0.8,9.1,M,-33.0,M,,*5F
$PYRTM,2024,123.921867302812,15.031514712951
$GPGGA,220728.00,3450.3692,N,12121.0472,W,1,10,0.8,9.3,M,-33.0,M,,*51
$PYRTM,2024,123.921874582928,15.031521993079
$GPGGA,220729.00,3450.3695,N,12121.0489,W,1,10,0.8,9.8,M,-33.0,M,,*58
$PYRTM,2024,123.921890463264,15.031537873403
$GPGGA,220730.00,3450.3703,N,12121.0505,W,1,10,0.8,9.9,M,-33.0,M,,*5A
$PYRTM,2024,123.921902025914,15.031549436053
$GPGGA,220731.00,3450.3716,N,12121.0518,W,1,10,0.8,9.2,M,-33.0,M,,*58
$PYRTM,2024,123.921913600023,15.031561010162
$GPGGA,220732.00,3450.3728,N,12121.0531,W,1,10,0.8,8.9,M,-33.0,M,,*57
$PYRTM,2024,123.921925174144,15.031572584282
$GPGGA,220733.00,3450.3731,N,12121.0546,W,1,10,0.8,9.2,M,-33.0,M,,*54
$PYRTM,2024,123.921932466134,15.031579876273
$GPGGA,220734.00,3450.3733,N,12121.0564,W,1,10,0.8,9.7,M,-33.0,M,,*54
$PYRTM,2024,123.921944259144,15.031591669282
$GPGGA,220735.00,3450.3740,N,12121.0580,W,1,10,0.8,9.5,M,-33.0,M,,*59
$PYRTM,2024,123.921959905347,15.031607315486
$GPGGA,220736.00,3450.3751,N,12121.0594,W,1,10,0.8,9.2,M,-33.0,M,,*58
$PYRTM,2024,123.921971471748,15.031618881887
$GPGGA,220737.00,3450.3760,N,12121.0607,W,1,10,0.8,9.0,M,-33.0,M,,*50
$PYRTM,2024,123.921983046042,15.031630456181
$GPGGA,220738.00,3450.3765,N,12121.0622,W,1,10,0.8,9.2,M,-33.0,M,,*5F
$PYRTM,2024,123.921990324248,15.031637734387
$GPGGA,220739.00,3450.3768,N,12121.0637,W,1,10,0.8,9.6,M,-33.0,M,,*53
$PYRTM,2024,123.922006192708,15.031653602847
$GPGGA,220740.00,3450.3773,N,12121.0651,W,1,10,0.8,10.1,M,-33.0,M,,*68
$PYRTM,2024,123.922017762280,15.031665172419
$GPGGA,220741.00,3450.3782,N,12121.0669,W,1,10,0.8,9.6,M,-33.0,M,,*53
$PYRTM,2024,123.922029352060,15.031676762187
$GPGGA,220742.00,3450.3792,N,12121.0685,W,1,10,0.8,8.8,M,-33.0,M,,*5C
$PYRTM,2024,123.922040915347,15.031688325486
$GPGGA,220743.00,3450.3799,N,12121.0695,W,1,10,0.8,8.8,M,-33.0,M,,*57
$PYRTM,2024,123.922052501204,15.031699911343
$GPGGA,220744.00,3450.3802,N,12121.0705,W,1,10,0.8,9.5,M,-33.0,M,,*59
$PYRTM,2024,123.922064064456,15.031711474595
$GPGGA,220745.00,3450.3808,N,12121.0723,W,1,10,0.8,10.0,M,-33.0,M,,*6B
$PYRTM,2024,123.922075637303,15.031723047442
$GPGGA,220746.00,3450.3815,N,12121.0743,W,1,10,0.8,9.4,M,-33.0,M,,*5E
$PYRTM,2024,123.922082917512,15.031730327650
$GPGGA,220747.00,3450.3823,N,12121.0756,W,1,10,0.8,8.9,M,-33.0,M,,*52
$PYRTM,2024,123.922101572118,15.031748982269
$GPGGA,220748.00,3450.3829,N,12121.0765,W,1,10,0.8,9.1,M,-33.0,M,,*5E
$PYRTM,2024,123.922110360359,15.031757770509
$GPGGA,220749.00,3450.3835,N,12121.0777,W,1,10,0.8,9.3,M,-33.0,M,,*53
$PYRTM,2024,123.922117651505,15.031765061644
$GPGGA,220750.00,3450.3840,N,12121.0793,W,1,10,0.8,9.4,M,-33.0,M,,*54
$PYRTM,2024,123.922133503079,15.031780913218
$GPGGA,220751.00,3450.3846,N,12121.0807,W,1,10,0.8,9.5,M,-33.0,M,,*50
$PYRTM,2024,123.922145082095,15.031792492234
$GPGGA,220752.00,3450.3853,N,12121.0820,W,1,10,0.8,9.4,M,-33.0,M,,*53
$PYRTM,2024,123.922156656678,15.031804066817
$GPGGA,220753.00,3450.3862,N,12121.0835,W,1,10,0.8,8.8,M,-33.0,M,,*59
$PYRTM,2024,123.922168230972,15.031815641111
$GPGGA,220754.00,3450.3868,N,12121.0849,W,1,10,0.8,8.5,M,-33.0,M,,*52
$PYRTM,2024,123.922179799965,15.031827210104
$GPGGA,220755.00,3450.3872,N,12121.0860,W,1,10,0.8,9.1,M,-33.0,M,,*56
$PYRTM,2024,123.922191378380,15.031838788519
$GPGGA,220756.00,3450.3879,N,12121.0873,W,1,10,0.8,9.4,M,-33.0,M,,*59
$PYRTM,2024,123.922202950093,15.031850360231
$GPGGA,220757.00,3450.3887,N,12121.0890,W,1,10,0.8,8.8,M,-33.0,M,,*59
$PYRTM,2024,123.922210244873,15.031857655012
$GPGGA,220758.00,3450.3895,N,12121.0906,W,1,10,0.8,8.1,M,-33.0,M,,*52
$PYRTM,2024,123.922226102187,15.031873512326
$GPGGA,220759.00,3450.3902,N,12121.0918,W,1,10,0.8,7.9,M,-33.0,M,,*54
$PYRTM,2024,123.922233396250,15.031880806389
$GPGGA,220800.00,3450.3908,N,12121.0928,W,1,10,0.8,8.6,M,-33.0,M,,*5E
$PYRTM,2024,123.922249249653,15.031896659792
$GPGGA,220801.00,3450.3914,N,12121.0940,W,1,10,0.8,9.6,M,-33.0,M,,*5D
$PYRTM,2024,123.922260830463,15.031908240602
$GPGGA,220802.00,3450.3922,N,12121.0956,W,1,10,0.8,9.9,M,-33.0,M,,*53
$PYRTM,2024,123.922272397407,15.031919807558
$GPGGA,220803.00,3450.3932,N,12121.0972,W,1,10,0.8,8.7,M,-33.0,M,,*5A
$PYRTM,2024,123.922283982002,15.031931392141
$GPGGA,220804.00,3450.3940,N,12121.0987,W,1,10,0.8,7.9,M,-33.0,M,,*53
$PYRTM,2024,123.922295546493,15.031942956632
$GPGGA,220805.00,3450.3945,N,12121.0998,W,1,10,0.8,7.8,M,-33.0,M,,*58
$PYRTM,2024,123.922307140266,15.031954550405
$GPGGA,220806.00,3450.3951,N,12121.1008,W,1,10,0.8,8.5,M,-33.0,M,,*5D
$PYRTM,2024,123.922314398785,15.031961808935
$GPGGA,220807.00,3450.3959,N,12121.1020,W,1,10,0.8,9.2,M,-33.0,M,,*58
$PYRTM,2024,123.922330279398,15.031977689537
$GPGGA,220808.00,3450.3968,N,12121.1033,W,1,10,0.8,9.5,M,-33.0,M,,*50
$PYRTM,2024,123.922341842326,15.031989252465
$GPGGA,220809.00,3450.3974,N,12121.1048,W,1,10,0.8,8.9,M,-33.0,M,,*5D
$PYRTM,2024,123.922349123264,15.031996533403
$GPGGA,220810.00,3450.3979,N,12121.1066,W,1,10,0.8,7.9,M,-33.0,M,,*5B
$PYRTM,2024,123.922364990984,15.032012401123
$GPGGA,220811.00,3450.3984,N,12121.1080,W,1,10,0.8,7.0,M,-33.0,M,,*59
$PYRTM,2024,123.922376576192,15.032023986331
$GPGGA,220812.00,3450.3993,N,12121.1087,W,1,10,0.8,7.4,M,-33.0,M,,*5F
$PYRTM,2024,123.922388138762,15.032035548900
$GPGGA,220813.00,3450.4001,N,12121.1098,W,1,10,0.8,8.1,M,-33.0,M,,*5F
$PYRTM,2024,123.922399712812,15.032047122951
$GPGGA,220814.00,3450.4008,N,12121.1114,W,1,10,0.8,8.5,M,-33.0,M,,*50
$PYRTM,2024,123.922406993264,15.032054403403
$GPGGA,220815.00,3450.4010,N,12121.1131,W,1,10,0.8,8.7,M,-33.0,M,,*5D
$PYRTM,2024,123.922418798866,15.032066209005
$GPGGA,220816.00,3450.4015,N,12121.1145,W,1,10,0.8,8.7,M,-33.0,M,,*58
$PYRTM,2024,123.922434434294,15.032081844433
$GPGGA,220817.00,3450.4024,N,12121.1159,W,1,10,0.8,8.3,M,-33.0,M,,*52
$PYRTM,2024,123.922441714688,15.032089124826
$GPGGA,220818.00,3450.4036,N,12121.1170,W,1,10,0.8,7.8,M,-33.0,M,,*51
$PYRTM,2024,123.922460361366,15.032107771516
$GPGGA,220819.00,3450.4042,N,12121.1182,W,1,10,0.8,8.0,M,-33.0,M,,*59
$PYRTM,2024,123.922469157512,15.032116567650
$GPGGA,220820.00,3450.4044,N,12121.1197,W,1,10,0.8,8.8,M,-33.0,M,,*59
$PYRTM,2024,123.922476437963,15.032123848102
$GPGGA,220821.00,3450.4049,N,12121.1214,W,1,10,0.8,9.5,M,-33.0,M,,*51
$PYRTM,2024,123.922492305590,15.032139715729
$GPGGA,220822.00,3450.4059,N,12121.1227,W,1,10,0.8,9.7,M,-33.0,M,,*51
$PYRTM,2024,123.922503879699,15.032151289838
$GPGGA,220823.00,3450.4070,N,12121.1239,W,1,10,0.8,9.3,M,-33.0,M,,*50
$PYRTM,2024,123.922515454410,15.032162864549
$GPGGA,220824.00,3450.4077,N,12121.1253,W,1,10,0.8,8.6,M,-33.0,M,,*58
$PYRTM,2024,123.922527031296,15.032174441424
$GPGGA,220825.00,3450.4081,N,12121.1268,W,1,10,0.8,8.1,M,-33.0,M,,*5F
$PYRTM,2024,123.922538589792,15.032185999931
$GPGGA,220826.00,3450.4084,N,12121.1282,W,1,10,0.8,8.3,M,-33.0,M,,*5F
$PYRTM,2024,123.922550191007,15.032197601146
$GPGGA,220827.00,3450.4093,N,12121.1294,W,1,10,0.8,8.5,M,-33.0,M,,*59
$PYRTM,2024,123.922561738935,15.032209149074
$GPGGA,220828.00,3450.4104,N,12121.1308,W,1,10,0.8,8.5,M,-33.0,M,,*5D
$PYRTM,2024,123.922573326204,15.032220736343
$GPGGA,220829.00,3450.4108,N,12121.1322,W,1,10,0.8,8.9,M,-33.0,M,,*54
$PYRTM,2024,123.922584886389,15.032232296528
$GPGGA,220830.00,3450.4112,N,12121.1337,W,1,10,0.8,9.0,M,-33.0,M,,*5B
$PYRTM,2024,123.922592177616,15.032239587766
$GPGGA,220831.00,3450.4119,N,12121.1351,W,1,10,0.8,8.9,M,-33.0,M,,*59
$PYRTM,2024,123.922608034352,15.032255444491
$GPGGA,220832.00,3450.4128,N,12121.1365,W,1,10,0.8,8.5,M,-33.0,M,,*53
$PYRTM,2024,123.922619624514,15.032267034653
$GPGGA,220833.00,3450.4134,N,12121.1377,W,1,10,0.8,8.8,M,-33.0,M,,*51
$PYRTM,2024,123.922631183738,15.032278593877
$GPGGA,220834.00,3450.4139,N,12121.1392,W,1,10,0.8,9.4,M,-33.0,M,,*5D
$PYRTM,2024,123.922642769294,15.032290179433
$GPGGA,220835.00,3450.4146,N,12121.1409,W,1,10,0.8,9.7,M,-33.0,M,,*52
$PYRTM,2024,123.922654332211,15.032301742350
$GPGGA,220836.00,3450.4156,N,12121.1424,W,1,10,0.8,9.5,M,-33.0,M,,*5D
$PYRTM,2024,123.922665920012,15.032313330150
$GPGGA,220837.00,3450.4164,N,12121.1437,W,1,10,0.8,9.6,M,-33.0,M,,*5C
$PYRTM,2024,123.922677490590,15.032324900729
$GPGGA,220838.00,3450.4170,N,12121.1451,W,1,10,0.8,9.9,M,-33.0,M,,*59
$PYRTM,2024,123.922684769965,15.032332180104
$GPGGA,220839.00,3450.4175,N,12121.1467,W,1,10,0.8,9.9,M,-33.0,M,,*58
