$PYRTM,2024,122.250003652546,13.359651062685
$GPGGA,055959.00,3324.1609,N,11915.1626,W,1,09,1.0,9.3,M,-34.8,M,,*5D
$PYRTM,2024,122.250015340069,13.359662750208
$GPGGA,060000.00,3324.1620,N,11915.1643,W,1,09,1.0,10.7,M,-34.8,M,,*6A
$PYRTM,2024,122.250026914514,13.359674324653
$GPGGA,060001.00,3324.1631,N,11915.1663,W,1,09,1.0,11.6,M,-34.8,M,,*69
$PYRTM,2024,122.250034309236,13.359681719375
$GPGGA,060002.00,3324.1641,N,11915.1689,W,1,09,1.0,11.3,M,-34.8,M,,*6C
$PYRTM,2024,122.250052839676,13.359700249815
$GPGGA,060003.00,3324.1647,N,11915.1716,W,1,09,1.0,10.6,M,-34.8,M,,*68
$PYRTM,2024,122.250061635648,13.359709045775
$GPGGA,060004.00,3324.1654,N,11915.1740,W,1,09,1.0,10.3,M,-34.8,M,,*6B
$PYRTM,2024,122.250073210046,13.359720620185
$GPGGA,060005.00,3324.1664,N,11915.1762,W,1,09,1.0,10.2,M,-34.8,M,,*68
$PYRTM,2024,122.250084809340,13.359732219479
$GPGGA,060006.00,3324.1676,N,11915.1783,W,1,09,1.0,10.7,M,-34.8,M,,*62
$PYRTM,2024,122.250096359039,13.359743769178
$GPGGA,060007.00,3324.1686,N,11915.1807,W,1,09,1.0,10.9,M,-34.8,M,,*61
$PYRTM,2024,122.250107958113,13.359755368252
$GPGGA,060008.00,3324.1693,N,11915.1834,W,1,09,1.0,11.0,M,-34.8,M,,*62
$PYRTM,2024,122.250119507604,13.359766917743
$GPGGA,060009.00,3324.1700,N,11915.1860,W,1,09,1.0,10.9,M,-34.8,M,,*61
$PYRTM,2024,122.250126902697,13.359774312836
$GPGGA,060010.00,3324.1708,N,11915.1884,W,1,09,1.0,10.8,M,-34.8,M,,*6A
$PYRTM,2024,122.250142650683,13.359790060822
$GPGGA,060011.00,3324.1719,N,11915.1908,W,1,09,1.0,10.6,M,-34.8,M,,*60
$PYRTM,2024,122.250154229039,13.359801639178
$GPGGA,060012.00,3324.1731,N,11915.1932,W,1,09,1.0,10.1,M,-34.8,M,,*67
$PYRTM,2024,122.250165804688,13.359813214826
$GPGGA,060013.00,3324.1739,N,11915.1955,W,1,09,1.0,10.4,M,-34.8,M,,*6A
$PYRTM,2024,122.250177388507,13.359824798657
$GPGGA,060014.00,3324.1746,N,11915.1978,W,1,09,1.0,10.9,M,-34.8,M,,*67
$PYRTM,2024,122.250188952836,13.359836362986
$GPGGA,060015.00,3324.1754,N,11915.2005,W,1,09,1.0,10.9,M,-34.8,M,,*65
$PYRTM,2024,122.250200537118,13.359847947269
$GPGGA,060016.00,3324.1764,N,11915.2032,W,1,09,1.0,10.4,M,-34.8,M,,*6C
$PYRTM,2024,122.250212100081,13.359859510220
$GPGGA,060017.00,3324.1772,N,11915.2055,W,1,09,1.0,10.2,M,-34.8,M,,*6D
$PYRTM,2024,122.250223675035,13.359871085174
$GPGGA,060018.00,3324.1780,N,11915.2076,W,1,09,1.0,10.7,M,-34.8,M,,*6B
$PYRTM,2024,122.250231080752,13.359878490903
$GPGGA,060019.00,3324.1790,N,11915.2100,W,1,09,1.0,10.9,M,-34.8,M,,*65
$PYRTM,2024,122.250249717616,13.359897127755
$GPGGA,060020.00,3324.1800,N,11915.2126,W,1,09,1.0,10.7,M,-34.8,M,,*63
$PYRTM,2024,122.250261290278,13.359908700428
$GPGGA,060021.00,3324.1807,N,11915.2151,W,1,09,1.0,10.7,M,-34.8,M,,*65
$PYRTM,2024,122.250269979653,13.359917389792
$GPGGA,060022.00,3324.1815,N,11915.2174,W,1,09,1.0,10.8,M,-34.8,M,,*6D
$PYRTM,2024,122.250281540856,13.359928950995
$GPGGA,060023.00,3324.1825,N,11915.2199,W,1,09,1.0,10.6,M,-34.8,M,,*62
$PYRTM,2024,122.250288940567,13.359936350706
$GPGGA,060024.00,3324.1834,N,11915.2224,W,1,09,1.0,10.5,M,-34.8,M,,*63
$PYRTM,2024,122.250304689259,13.359952099398
$GPGGA,060025.00,3324.1843,N,11915.2249,W,1,09,1.0,10.3,M,-34.8,M,,*6F
$PYRTM,2024,122.250316279919,13.359963690058
$GPGGA,060026.00,3324.1852,N,11915.2274,W,1,09,1.0,10.3,M,-34.8,M,,*62
$PYRTM,2024,122.250327838275,13.359975248414
$GPGGA,060027.00,3324.1861,N,11915.2298,W,1,09,1.0,10.5,M,-34.8,M,,*67
$PYRTM,2024,122.250339416481,13.359986826620
$GPGGA,060028.00,3324.1869,N,11915.2323,W,1,09,1.0,10.6,M,-34.8,M,,*62
$PYRTM,2024,122.250350987535,13.359998397674
$GPGGA,060029.00,3324.1879,N,11915.2348,W,1,09,1.0,10.4,M,-34.8,M,,*6D
$PYRTM,2024,122.250362576238,13.360009986377
$GPGGA,060030.00,3324.1889,N,11915.2373,W,1,09,1.0,10.4,M,-34.8,M,,*62
$PYRTM,2024,122.250374142269,13.360021552407
$GPGGA,060031.00,3324.1898,N,11915.2397,W,1,09,1.0,10.6,M,-34.8,M,,*6B
$PYRTM,2024,122.250385724039,13.360033134178
$GPGGA,060032.00,3324.1905,N,11915.2421,W,1,09,1.0,11.1,M,-34.8,M,,*61
$PYRTM,2024,122.250393114572,13.360040524711
$GPGGA,060033.00,3324.1913,N,11915.2444,W,1,09,1.0,11.5,M,-34.8,M,,*60
$PYRTM,2024,122.250411650625,13.360059060764
$GPGGA,060034.00,3324.1924,N,11915.2470,W,1,09,1.0,11.2,M,-34.8,M,,*63
$PYRTM,2024,122.250420430150,13.360067840289
$GPGGA,060035.00,3324.1934,N,11915.2497,W,1,09,1.0,10.6,M,-34.8,M,,*6F
$PYRTM,2024,122.250432016852,13.360079426991
$GPGGA,060036.00,3324.1942,N,11915.2521,W,1,09,1.0,10.3,M,-34.8,M,,*64
$PYRTM,2024,122.250443583970,13.360090994109
$GPGGA,060037.00,3324.1950,N,11915.2545,W,1,09,1.0,10.4,M,-34.8,M,,*63
$PYRTM,2024,122.250455145926,13.360102556065
$GPGGA,060038.00,3324.1960,N,11915.2570,W,1,09,1.0,10.8,M,-34.8,M,,*65
$PYRTM,2024,122.250466726644,13.360114136782
$GPGGA,060039.00,3324.1970,N,11915.2597,W,1,09,1.0,10.8,M,-34.8,M,,*6C
$PYRTM,2024,122.250478293437,13.360125703576
$GPGGA,060040.00,3324.1978,N,11915.2623,W,1,09,1.0,10.7,M,-34.8,M,,*69
$PYRTM,2024,122.250489875729,13.360137285868
$GPGGA,060041.00,3324.1985,N,11915.2650,W,1,09,1.0,10.6,M,-34.8,M,,*6F
$PYRTM,2024,122.250501443137,13.360148853275
$GPGGA,060042.00,3324.1992,N,11915.2673,W,1,09,1.0,10.9,M,-34.8,M,,*64
$PYRTM,2024,122.250513027697,13.360160437836
$GPGGA,060043.00,3324.2002,N,11915.2697,W,1,09,1.0,11.4,M,-34.8,M,,*60
$PYRTM,2024,122.250524590486,13.360172000625
$GPGGA,060044.00,3324.2013,N,11915.2722,W,1,09,1.0,11.5,M,-34.8,M,,*69
$PYRTM,2024,122.250536181748,13.360183591887
$GPGGA,060045.00,3324.2023,N,11915.2748,W,1,09,1.0,11.3,M,-34.8,M,,*61
$PYRTM,2024,122.250547739884,13.360195150023
$GPGGA,060046.00,3324.2032,N,11915.2774,W,1,09,1.0,10.9,M,-34.8,M,,*66
$PYRTM,2024,122.250559328241,13.360206738380
$GPGGA,060047.00,3324.2040,N,11915.2800,W,1,09,1.0,10.8,M,-34.8,M,,*6F
$PYRTM,2024,122.250570886400,13.360218296539
$GPGGA,060048.00,3324.2048,N,11915.2826,W,1,09,1.0,10.8,M,-34.8,M,,*6C
$PYRTM,2024,122.250582475127,13.360229885266
$GPGGA,060049.00,3324.2058,N,11915.2852,W,1,09,1.0,11.2,M,-34.8,M,,*64
$PYRTM,2024,122.250594034340,13.360241444479
$GPGGA,060050.00,3324.2069,N,11915.2878,W,1,09,1.0,11.3,M,-34.8,M,,*67
$PYRTM,2024,122.250605623762,13.360253033900
$GPGGA,060051.00,3324.2079,N,11915.2904,W,1,09,1.0,11.5,M,-34.8,M,,*6B
$PYRTM,2024,122.250613034433,13.360260444572
$GPGGA,060052.00,3324.2088,N,11915.2929,W,1,09,1.0,11.6,M,-34.8,M,,*6A
$PYRTM,2024,122.250628767083,13.360276177222
$GPGGA,060053.00,3324.2097,N,11915.2956,W,1,09,1.0,11.5,M,-34.8,M,,*6E
$PYRTM,2024,122.250640331701,13.360287741840
$GPGGA,060054.00,3324.2106,N,11915.2982,W,1,09,1.0,11.1,M,-34.8,M,,*6D
$PYRTM,2024,122.250651918727,13.360299328866
$GPGGA,060055.00,3324.2115,N,11915.3007,W,1,09,1.0,11.0,M,-34.8,M,,*6A
$PYRTM,2024,122.250663480648,13.360310890799
$GPGGA,060056.00,3324.2124,N,11915.3034,W,1,09,1.0,10.9,M,-34.8,M,,*63
$PYRTM,2024,122.250675069803,13.360322479942
$GPGGA,060057.00,3324.2133,N,11915.3061,W,1,09,1.0,10.7,M,-34.8,M,,*6A
$PYRTM,2024,122.250686629525,13.360334039664
$GPGGA,060058.00,3324.2143,N,11915.3084,W,1,09,1.0,11.3,M,-34.8,M,,*6C
$PYRTM,2024,122.250698209734,13.360345619873
$GPGGA,060059.00,3324.2153,N,11915.3110,W,1,09,1.0,11.8,M,-34.8,M,,*6B
$PYRTM,2024,122.250709777280,13.360357187419
$GPGGA,060100.00,3324.2162,N,11915.3138,W,1,09,1.0,11.1,M,-34.8,M,,*67
$PYRTM,2024,122.250721363333,13.360368773472
$GPGGA,060101.00,3324.2171,N,11915.3164,W,1,09,1.0,10.9,M,-34.8,M,,*64
$PYRTM,2024,122.250728758646,13.360376168785
$GPGGA,060102.00,3324.2179,N,11915.3188,W,1,09,1.0,10.8,M,-34.8,M,,*6C
$PYRTM,2024,122.250740459514,13.360387869653
$GPGGA,060103.00,3324.2188,N,11915.3210,W,1,09,1.0,11.2,M,-34.8,M,,*6A
$PYRTM,2024,122.250752021759,13.360399431898
$GPGGA,060104.00,3324.2199,N,11915.3236,W,1,09,1.0,11.0,M,-34.8,M,,*6B
$PYRTM,2024,122.250770436678,13.360417846817
$GPGGA,060105.00,3324.2208,N,11915.3265,W,1,09,1.0,10.2,M,-34.8,M,,*64
$PYRTM,2024,122.250779105313,13.360426515451
$GPGGA,060106.00,3324.2215,N,11915.3294,W,1,09,1.0,9.4,M,-34.8,M,,*5B
$PYRTM,2024,122.250790706667,13.360438116806
$GPGGA,060107.00,3324.2223,N,11915.3318,W,1,09,1.0,9.5,M,-34.8,M,,*5B
$PYRTM,2024,122.250802370139,13.360449780278
$GPGGA,060108.00,3324.2233,N,11915.3340,W,1,09,1.0,10.1,M,-34.8,M,,*64
$PYRTM,2024,122.250813970231,13.360461380370
$GPGGA,060109.00,3324.2245,N,11915.3365,W,1,09,1.0,11.0,M,-34.8,M,,*63
$PYRTM,2024,122.250825517593,13.360472927731
$GPGGA,060110.00,3324.2255,N,11915.3393,W,1,09,1.0,10.8,M,-34.8,M,,*6A
$PYRTM,2024,122.250837105937,13.360484516076
$GPGGA,060111.00,3324.2262,N,11915.3420,W,1,09,1.0,10.3,M,-34.8,M,,*6B
$PYRTM,2024,122.250844512384,13.360491922535
$GPGGA,060112.00,3324.2270,N,11915.3444,W,1,09,1.0,10.7,M,-34.8,M,,*6D
$PYRTM,2024,122.250860253970,13.360507664109
$GPGGA,060113.00,3324.2280,N,11915.3468,W,1,09,1.0,10.4,M,-34.8,M,,*6E
$PYRTM,2024,122.250871815775,13.360519225914
$GPGGA,060114.00,3324.2290,N,11915.3494,W,1,09,1.0,10.0,M,-34.8,M,,*6F
$PYRTM,2024,122.250883397407,13.360530807546
$GPGGA,060115.00,3324.2300,N,11915.3519,W,1,09,1.0,10.2,M,-34.8,M,,*60
$PYRTM,2024,122.250894964016,13.360542374155
$GPGGA,060116.00,3324.2308,N,11915.3541,W,1,09,1.0,10.7,M,-34.8,M,,*63
$PYRTM,2024,122.250906551539,13.360553961678
$GPGGA,060117.00,3324.2316,N,11915.3568,W,1,09,1.0,10.8,M,-34.8,M,,*69
$PYRTM,2024,122.250918111944,13.360565522083
$GPGGA,060118.00,3324.2324,N,11915.3595,W,1,09,1.0,10.5,M,-34.8,M,,*68
$PYRTM,2024,122.250929698137,13.360577108275
$GPGGA,060119.00,3324.2331,N,11915.3618,W,1,09,1.0,10.7,M,-34.8,M,,*69
$PYRTM,2024,122.250941259653,13.360588669792
$GPGGA,060120.00,3324.2342,N,11915.3639,W,1,09,1.0,10.9,M,-34.8,M,,*6A
$PYRTM,2024,122.250952848912,13.360600259051
$GPGGA,060121.00,3324.2355,N,11915.3665,W,1,09,1.0,10.3,M,-34.8,M,,*6E
$PYRTM,2024,122.250964293414,13.360611703553
$GPGGA,060122.00,3324.2365,N,11915.3693,W,1,09,1.0,9.7,M,-34.8,M,,*5B
$PYRTM,2024,122.250975883380,13.360623293519
$GPGGA,060123.00,3324.2370,N,11915.3716,W,1,09,1.0,9.8,M,-34.8,M,,*5D
$PYRTM,2024,122.250983273808,13.360630683958
$GPGGA,060124.00,3324.2377,N,11915.3737,W,1,09,1.0,10.9,M,-34.8,M,,*67
$PYRTM,2024,122.250999145347,13.360646555486
$GPGGA,060125.00,3324.2389,N,11915.3763,W,1,09,1.0,11.4,M,-34.8,M,,*6A
$PYRTM,2024,122.251010703993,13.360658114132
$GPGGA,060126.00,3324.2400,N,11915.3789,W,1,09,1.0,11.1,M,-34.8,M,,*6E
$PYRTM,2024,122.251022293785,13.360669703924
$GPGGA,060127.00,3324.2407,N,11915.3813,W,1,09,1.0,11.0,M,-34.8,M,,*65
$PYRTM,2024,122.251029698646,13.360677108785
$GPGGA,060128.00,3324.2413,N,11915.3835,W,1,09,1.0,11.5,M,-34.8,M,,*6E
$PYRTM,2024,122.251045439803,13.360692849942
$GPGGA,060129.00,3324.2421,N,11915.3861,W,1,09,1.0,11.7,M,-34.8,M,,*6D
$PYRTM,2024,122.251057001829,13.360704411968
$GPGGA,060130.00,3324.2430,N,11915.3886,W,1,09,1.0,11.8,M,-34.8,M,,*63
$PYRTM,2024,122.251068587604,13.360715997743
$GPGGA,060131.00,3324.2439,N,11915.3909,W,1,09,1.0,12.0,M,-34.8,M,,*66
$PYRTM,2024,122.251080150093,13.360727560243
$GPGGA,060132.00,3324.2448,N,11915.3933,W,1,09,1.0,12.5,M,-34.8,M,,*6F
$PYRTM,2024,122.251091736262,13.360739146400
$GPGGA,060133.00,3324.2456,N,11915.3958,W,1,09,1.0,12.4,M,-34.8,M,,*6D
$PYRTM,2024,122.251099130370,13.360746540521
$GPGGA,060134.00,3324.2462,N,11915.3984,W,1,09,1.0,12.1,M,-34.8,M,,*69
$PYRTM,2024,122.251110828519,13.360758238657
$GPGGA,060135.00,3324.2469,N,11915.4009,W,1,09,1.0,11.9,M,-34.8,M,,*63
$PYRTM,2024,122.251129223565,13.360776633704
$GPGGA,060136.00,3324.2478,N,11915.4035,W,1,09,1.0,11.9,M,-34.8,M,,*6F
$PYRTM,2024,122.251138046875,13.360785457025
$GPGGA,060137.00,3324.2489,N,11915.4059,W,1,09,1.0,12.1,M,-34.8,M,,*61
$PYRTM,2024,122.251149593657,13.360797003796
$GPGGA,060138.00,3324.2499,N,11915.4082,W,1,09,1.0,12.4,M,-34.8,M,,*6C
$PYRTM,2024,122.251161182697,13.360808592847
$GPGGA,060139.00,3324.2508,N,11915.4109,W,1,09,1.0,11.9,M,-34.8,M,,*68
$PYRTM,2024,122.251172742211,13.360820152350
$GPGGA,060140.00,3324.2515,N,11915.4138,W,1,09,1.0,11.4,M,-34.8,M,,*65
$PYRTM,2024,122.251184329769,13.360831739907
$GPGGA,060141.00,3324.2521,N,11915.4161,W,1,09,1.0,11.4,M,-34.8,M,,*6F
$PYRTM,2024,122.251195890741,13.360843300880
$GPGGA,060142.00,3324.2531,N,11915.4181,W,1,09,1.0,11.8,M,-34.8,M,,*6F
$PYRTM,2024,122.251207479502,13.360854889653
$GPGGA,060143.00,3324.2544,N,11915.4206,W,1,09,1.0,11.7,M,-34.8,M,,*6F
$PYRTM,2024,122.251214884444,13.360862294583
$GPGGA,060144.00,3324.2553,N,11915.4233,W,1,09,1.0,11.2,M,-34.8,M,,*6D
$PYRTM,2024,122.251230620579,13.360878030718
$GPGGA,060145.00,3324.2557,N,11915.4257,W,1,09,1.0,11.1,M,-34.8,M,,*69
$PYRTM,2024,122.251238020694,13.360885430833
$GPGGA,060146.00,3324.2563,N,11915.4278,W,1,09,1.0,11.6,M,-34.8,M,,*67
$PYRTM,2024,122.251253770787,13.360901180926
$GPGGA,060147.00,3324.2573,N,11915.4302,W,1,09,1.0,11.0,M,-34.8,M,,*6D
$PYRTM,2024,122.251265335382,13.360912745521
$GPGGA,060148.00,3324.2584,N,11915.4328,W,1,09,1.0,10.8,M,-34.8,M,,*6B
$PYRTM,2024,122.251276922998,13.360924333148
$GPGGA,060149.00,3324.2592,N,11915.4353,W,1,09,1.0,10.4,M,-34.8,M,,*6D
$PYRTM,2024,122.251288485266,13.360935895405
$GPGGA,060150.00,3324.2598,N,11915.4377,W,1,09,1.0,10.3,M,-34.8,M,,*6E
$PYRTM,2024,122.251300073519,13.360947483657
$GPGGA,060151.00,3324.2605,N,11915.4400,W,1,09,1.0,10.6,M,-34.8,M,,*6A
$PYRTM,2024,122.251311633519,13.360959043657
$GPGGA,060152.00,3324.2616,N,11915.4424,W,1,09,1.0,10.7,M,-34.8,M,,*6C
$PYRTM,2024,122.251323222060,13.360970632199
$GPGGA,060153.00,3324.2627,N,11915.4448,W,1,09,1.0,10.8,M,-34.8,M,,*6A
$PYRTM,2024,122.251334780741,13.360982190880
$GPGGA,060154.00,3324.2635,N,11915.4474,W,1,09,1.0,10.4,M,-34.8,M,,*6D
$PYRTM,2024,122.251342072674,13.360989482812
$GPGGA,060155.00,3324.2641,N,11915.4501,W,1,09,1.0,9.8,M,-34.8,M,,*58
$PYRTM,2024,122.251353876898,13.361001287037
$GPGGA,060156.00,3324.2650,N,11915.4526,W,1,09,1.0,10.1,M,-34.8,M,,*6F
$PYRTM,2024,122.251369511366,13.361016921505
$GPGGA,060157.00,3324.2660,N,11915.4549,W,1,09,1.0,10.1,M,-34.8,M,,*64
$PYRTM,2024,122.251376910093,13.361024320231
$GPGGA,060158.00,3324.2670,N,11915.4574,W,1,09,1.0,10.7,M,-34.8,M,,*62
$PYRTM,2024,122.251392659595,13.361040069734
$GPGGA,060159.00,3324.2679,N,11915.4601,W,1,09,1.0,10.2,M,-34.8,M,,*6E
$PYRTM,2024,122.251404109421,13.361051519560
$GPGGA,060200.00,3324.2686,N,11915.4628,W,1,09,1.0,9.7,M,-34.8,M,,*57
$PYRTM,2024,122.251411516632,13.361058926771
$GPGGA,060201.00,3324.2694,N,11915.4651,W,1,09,1.0,10.0,M,-34.8,M,,*64
$PYRTM,2024,122.251427373148,13.361074783287
$GPGGA,060202.00,3324.2702,N,11915.4671,W,1,09,1.0,11.0,M,-34.8,M,,*6A
$PYRTM,2024,122.251438960567,13.361086370706
$GPGGA,060203.00,3324.2714,N,11915.4696,W,1,09,1.0,11.0,M,-34.8,M,,*65
$PYRTM,2024,122.251446241690,13.361093651829
$GPGGA,060204.00,3324.2724,N,11915.4725,W,1,09,1.0,9.9,M,-34.8,M,,*58
$PYRTM,2024,122.251458056308,13.361105466447
$GPGGA,060205.00,3324.2730,N,11915.4751,W,1,09,1.0,9.0,M,-34.8,M,,*56
$PYRTM,2024,122.251469618970,13.361117029120
$GPGGA,060206.00,3324.2735,N,11915.4772,W,1,09,1.0,9.8,M,-34.8,M,,*59
$PYRTM,2024,122.251488039178,13.361135449317
$GPGGA,060207.00,3324.2745,N,11915.4794,W,1,09,1.0,9.9,M,-34.8,M,,*56
$PYRTM,2024,122.251499596007,13.361147006146
$GPGGA,060208.00,3324.2758,N,11915.4820,W,1,09,1.0,10.3,M,-34.8,M,,*67
$PYRTM,2024,122.251511186794,13.361158596944
$GPGGA,060209.00,3324.2769,N,11915.4849,W,1,09,1.0,9.8,M,-34.8,M,,*58
$PYRTM,2024,122.251522745301,13.361170155451
$GPGGA,060210.00,3324.2775,N,11915.4875,W,1,09,1.0,9.8,M,-34.8,M,,*52
$PYRTM,2024,122.251534331956,13.361181742095
$GPGGA,060211.00,3324.2780,N,11915.4897,W,1,09,1.0,10.4,M,-34.8,M,,*61
$PYRTM,2024,122.251543116481,13.361190526620
$GPGGA,060212.00,3324.2788,N,11915.4921,W,1,09,1.0,10.3,M,-34.8,M,,*61
$PYRTM,2024,122.251554703206,13.361202113345
$GPGGA,060213.00,3324.2799,N,11915.4947,W,1,09,1.0,10.1,M,-34.8,M,,*62
$PYRTM,2024,122.251566147940,13.361213558079
$GPGGA,060214.00,3324.2809,N,11915.4972,W,1,09,1.0,9.8,M,-34.8,M,,*54
$PYRTM,2024,122.251577729491,13.361225139630
$GPGGA,060215.00,3324.2817,N,11915.4997,W,1,09,1.0,9.8,M,-34.8,M,,*51
$PYRTM,2024,122.251589412662,13.361236822801
$GPGGA,060216.00,3324.2823,N,11915.5022,W,1,09,1.0,10.1,M,-34.8,M,,*62
$PYRTM,2024,122.251600999248,13.361248409387
$GPGGA,060217.00,3324.2831,N,11915.5047,W,1,09,1.0,10.4,M,-34.8,M,,*66
$PYRTM,2024,122.251612559745,13.361259969884
$GPGGA,060218.00,3324.2841,N,11915.5072,W,1,09,1.0,10.4,M,-34.8,M,,*68
$PYRTM,2024,122.251619967755,13.361267377894
$GPGGA,060219.00,3324.2851,N,11915.5097,W,1,09,1.0,10.3,M,-34.8,M,,*64
$PYRTM,2024,122.251635709410,13.361283119549
$GPGGA,060220.00,3324.2858,N,11915.5121,W,1,09,1.0,10.8,M,-34.8,M,,*60
$PYRTM,2024,122.251647309097,13.361294719236
$GPGGA,060221.00,3324.2865,N,11915.5144,W,1,09,1.0,11.5,M,-34.8,M,,*60
$PYRTM,2024,122.251654691123,13.361302101273
$GPGGA,060222.00,3324.2874,N,11915.5170,W,1,09,1.0,11.7,M,-34.8,M,,*66
$PYRTM,2024,122.251666380266,13.361313790405
$GPGGA,060223.00,3324.2884,N,11915.5197,W,1,09,1.0,11.2,M,-34.8,M,,*64
$PYRTM,2024,122.251682007049,13.361329417188
$GPGGA,060224.00,3324.2893,N,11915.5221,W,1,09,1.0,10.8,M,-34.8,M,,*60
$PYRTM,2024,122.251693587766,13.361340997905
$GPGGA,060225.00,3324.2901,N,11915.5244,W,1,09,1.0,10.8,M,-34.8,M,,*68
$PYRTM,2024,122.251705153900,13.361352564039
$GPGGA,060226.00,3324.2909,N,11915.5270,W,1,09,1.0,10.6,M,-34.8,M,,*6A
$PYRTM,2024,122.251716734757,13.361364144896
$GPGGA,060227.00,3324.2917,N,11915.5297,W,1,09,1.0,10.3,M,-34.8,M,,*68
$PYRTM,2024,122.251728301991,13.361375712130
$GPGGA,060228.00,3324.2926,N,11915.5319,W,1,09,1.0,10.7,M,-34.8,M,,*66
$PYRTM,2024,122.251739887998,13.361387298137
$GPGGA,060229.00,3324.2936,N,11915.5341,W,1,09,1.0,11.4,M,-34.8,M,,*69
$PYRTM,2024,122.251747283727,13.361394693877
$GPGGA,060230.00,3324.2946,N,11915.5368,W,1,09,1.0,11.5,M,-34.8,M,,*6C
$PYRTM,2024,122.251765816968,13.361413227106
$GPGGA,060231.00,3324.2955,N,11915.5396,W,1,09,1.0,10.8,M,-34.8,M,,*62
$PYRTM,2024,122.251774598171,13.361422008310
$GPGGA,060232.00,3324.2961,N,11915.5420,W,1,09,1.0,10.6,M,-34.8,M,,*62
$PYRTM,2024,122.251786188310,13.361433598461
$GPGGA,060233.00,3324.2968,N,11915.5441,W,1,09,1.0,11.1,M,-34.8,M,,*6B
$PYRTM,2024,122.251793579977,13.361440990116
$GPGGA,060234.00,3324.2979,N,11915.5464,W,1,09,1.0,12.5,M,-34.8,M,,*6C
$PYRTM,2024,122.251809346910,13.361456757049
$GPGGA,060235.00,3324.2990,N,11915.5491,W,1,09,1.0,11.6,M,-34.8,M,,*60
$PYRTM,2024,122.251820894352,13.361468304491
$GPGGA,060236.00,3324.2998,N,11915.5518,W,1,09,1.0,11.3,M,-34.8,M,,*6E
$PYRTM,2024,122.251828301238,13.361475711389
$GPGGA,060237.00,3324.3004,N,11915.5541,W,1,09,1.0,11.3,M,-34.8,M,,*6E
$PYRTM,2024,122.251846821227,13.361494231366
$GPGGA,060238.00,3324.3012,N,11915.5564,W,1,09,1.0,11.5,M,-34.8,M,,*67
$PYRTM,2024,122.251855625856,13.361503035995
$GPGGA,060239.00,3324.3022,N,11915.5590,W,1,09,1.0,11.3,M,-34.8,M,,*68
$PYRTM,2024,122.251867191979,13.361514602118
$GPGGA,060240.00,3324.3033,N,11915.5617,W,1,09,1.0,10.6,M,-34.8,M,,*6E
$PYRTM,2024,122.251874598819,13.361522008970
$GPGGA,060241.00,3324.3040,N,11915.5643,W,1,09,1.0,10.2,M,-34.8,M,,*6E
$PYRTM,2024,122.251890338935,13.361537749074
$GPGGA,060242.00,3324.3047,N,11915.5665,W,1,09,1.0,10.6,M,-34.8,M,,*6A
$PYRTM,2024,122.251901922755,13.361549332905
$GPGGA,060243.00,3324.3056,N,11915.5688,W,1,09,1.0,11.3,M,-34.8,M,,*6C
$PYRTM,2024,122.251913487650,13.361560897801
$GPGGA,060244.00,3324.3067,N,11915.5715,W,1,09,1.0,11.3,M,-34.8,M,,*6C
$PYRTM,2024,122.251925077674,13.361572487813
$GPGGA,060245.00,3324.3075,N,11915.5742,W,1,09,1.0,10.6,M,-34.8,M,,*68
$PYRTM,2024,122.251936533692,13.361583943831
$GPGGA,060246.00,3324.3082,N,11915.5768,W,1,09,1.0,9.8,M,-34.8,M,,*5D
$PYRTM,2024,122.251948108229,13.361595518368
$GPGGA,060247.00,3324.3091,N,11915.5792,W,1,09,1.0,9.5,M,-34.8,M,,*56
$PYRTM,2024,122.251959784074,13.361607194213
$GPGGA,060248.00,3324.3101,N,11915.5814,W,1,09,1.0,10.2,M,-34.8,M,,*6F
$PYRTM,2024,122.251971374352,13.361618784502
$GPGGA,060249.00,3324.3110,N,11915.5837,W,1,09,1.0,10.8,M,-34.8,M,,*65
$PYRTM,2024,122.251982932894,13.361630343032
$GPGGA,060250.00,3324.3117,N,11915.5864,W,1,09,1.0,11.1,M,-34.8,M,,*64
$PYRTM,2024,122.251994522755,13.361641932894
$GPGGA,060251.00,3324.3124,N,11915.5894,W,1,09,1.0,10.0,M,-34.8,M,,*6A
$PYRTM,2024,122.252005979815,13.361653389954
$GPGGA,060252.00,3324.3133,N,11915.5921,W,1,09,1.0,8.8,M,-34.8,M,,*51
$PYRTM,2024,122.252013372454,13.361660782593
$GPGGA,060253.00,3324.3142,N,11915.5944,W,1,09,1.0,8.8,M,-34.8,M,,*55
$PYRTM,2024,122.252029127002,13.361676537141
$GPGGA,060254.00,3324.3152,N,11915.5966,W,1,09,1.0,9.4,M,-34.8,M,,*5E
$PYRTM,2024,122.252040701701,13.361688111840
$GPGGA,060255.00,3324.3161,N,11915.5993,W,1,09,1.0,9.6,M,-34.8,M,,*57
$PYRTM,2024,122.252052270718,13.361699680856
$GPGGA,060256.00,3324.3168,N,11915.6022,W,1,09,1.0,9.2,M,-34.8,M,,*59
$PYRTM,2024,122.252063851944,13.361711262083
$GPGGA,060257.00,3324.3175,N,11915.6047,W,1,09,1.0,9.3,M,-34.8,M,,*56
$PYRTM,2024,122.252075422743,13.361722832882
$GPGGA,060258.00,3324.3183,N,11915.6069,W,1,09,1.0,9.8,M,-34.8,M,,*57
$PYRTM,2024,122.252086997280,13.361734407419
$GPGGA,060259.00,3324.3194,N,11915.6094,W,1,09,1.0,9.8,M,-34.8,M,,*52
$PYRTM,2024,122.252098571852,13.361745981991
$GPGGA,060300.00,3324.3204,N,11915.6121,W,1,09,1.0,9.2,M,-34.8,M,,*50
$PYRTM,2024,122.252105966366,13.361753376505
$GPGGA,060301.00,3324.3211,N,11915.6146,W,1,09,1.0,9.0,M,-34.8,M,,*56
$PYRTM,2024,122.252117770648,13.361765180787
$GPGGA,060302.00,3324.3217,N,11915.6169,W,1,09,1.0,9.3,M,-34.8,M,,*5D
$PYRTM,2024,122.252133297500,13.361780707639
$GPGGA,060303.00,3324.3226,N,11915.6195,W,1,09,1.0,9.5,M,-34.8,M,,*5B
$PYRTM,2024,122.252144867824,13.361792277963
$GPGGA,060304.00,3324.3237,N,11915.6221,W,1,09,1.0,9.6,M,-34.8,M,,*53
$PYRTM,2024,122.252156561030,13.361803971169
$GPGGA,060305.00,3324.3247,N,11915.6245,W,1,09,1.0,10.0,M,-34.8,M,,*69
$PYRTM,2024,122.252168118229,13.361815528368
$GPGGA,060306.00,3324.3256,N,11915.6268,W,1,09,1.0,10.6,M,-34.8,M,,*63
$PYRTM,2024,122.252175526285,13.361822936424
$GPGGA,060307.00,3324.3264,N,11915.6296,W,1,09,1.0,10.4,M,-34.8,M,,*60
$PYRTM,2024,122.252187215532,13.361834625671
$GPGGA,060308.00,3324.3272,N,11915.6323,W,1,09,1.0,10.0,M,-34.8,M,,*63
$PYRTM,2024,122.252205645949,13.361853056088
$GPGGA,060309.00,3324.3279,N,11915.6345,W,1,09,1.0,10.1,M,-34.8,M,,*68
$PYRTM,2024,122.252217192940,13.361864603079
$GPGGA,060310.00,3324.3288,N,11915.6366,W,1,09,1.0,10.8,M,-34.8,M,,*66
$PYRTM,2024,122.252228780278,13.361876190417
$GPGGA,060311.00,3324.3300,N,11915.6393,W,1,09,1.0,10.7,M,-34.8,M,,*63
$PYRTM,2024,122.252237563299,13.361884973438
$GPGGA,060312.00,3324.3309,N,11915.6420,W,1,09,1.0,10.0,M,-34.8,M,,*61
$PYRTM,2024,122.252249035660,13.361896445799
$GPGGA,060313.00,3324.3316,N,11915.6445,W,1,09,1.0,9.8,M,-34.8,M,,*5D
$PYRTM,2024,122.252260713391,13.361908123530
$GPGGA,060314.00,3324.3322,N,11915.6469,W,1,09,1.0,10.4,M,-34.8,M,,*67
$PYRTM,2024,122.252272299884,13.361919710023
$GPGGA,060315.00,3324.3330,N,11915.6493,W,1,09,1.0,11.0,M,-34.8,M,,*65
$PYRTM,2024,122.252283861991,13.361931272141
$GPGGA,060316.00,3324.3340,N,11915.6519,W,1,09,1.0,11.0,M,-34.8,M,,*62
$PYRTM,2024,122.252295450463,13.361942860602
$GPGGA,060317.00,3324.3351,N,11915.6545,W,1,09,1.0,10.6,M,-34.8,M,,*6D
$PYRTM,2024,122.252307010000,13.361954420139
$GPGGA,060318.00,3324.3358,N,11915.6569,W,1,09,1.0,10.6,M,-34.8,M,,*65
$PYRTM,2024,122.252318601667,13.361966011806
$GPGGA,060319.00,3324.3364,N,11915.6593,W,1,09,1.0,10.8,M,-34.8,M,,*60
$PYRTM,2024,122.252330156794,13.361977566933
$GPGGA,060320.00,3324.3373,N,11915.6621,W,1,09,1.0,10.5,M,-34.8,M,,*6B
$PYRTM,2024,122.252341758449,13.361989168588
$GPGGA,060321.00,3324.3383,N,11915.6648,W,1,09,1.0,10.1,M,-34.8,M,,*6E
$PYRTM,2024,122.252353306921,13.362000717060
$GPGGA,060322.00,3324.3392,N,11915.6668,W,1,09,1.0,10.5,M,-34.8,M,,*6B
$PYRTM,2024,122.252364892986,13.362012303125
$GPGGA,060323.00,3324.3400,N,11915.6688,W,1,09,1.0,11.5,M,-34.8,M,,*69
$PYRTM,2024,122.252376455463,13.362023865602
$GPGGA,060324.00,3324.3411,N,11915.6714,W,1,09,1.0,11.5,M,-34.8,M,,*6A
$PYRTM,2024,122.252388041887,13.362035452025
$GPGGA,060325.00,3324.3420,N,11915.6743,W,1,09,1.0,10.8,M,-34.8,M,,*67
$PYRTM,2024,122.252399604039,13.362047014178
$GPGGA,060326.00,3324.3425,N,11915.6768,W,1,09,1.0,10.2,M,-34.8,M,,*62
$PYRTM,2024,122.252411189086,13.362058599225
$GPGGA,060327.00,3324.3433,N,11915.6787,W,1,09,1.0,10.6,M,-34.8,M,,*61
$PYRTM,2024,122.252422751678,13.362070161817
$GPGGA,060328.00,3324.3446,N,11915.6807,W,1,09,1.0,11.4,M,-34.8,M,,*68
$PYRTM,2024,122.252434339525,13.362081749676
$GPGGA,060329.00,3324.3459,N,11915.6834,W,1,09,1.0,10.7,M,-34.8,M,,*65
$PYRTM,2024,122.252445898391,13.362093308542
$GPGGA,060330.00,3324.3465,N,11915.6863,W,1,09,1.0,10.1,M,-34.8,M,,*66
$PYRTM,2024,122.252457370822,13.362104780961
$GPGGA,060331.00,3324.3468,N,11915.6887,W,1,09,1.0,9.9,M,-34.8,M,,*50
$PYRTM,2024,122.252469047199,13.362116457338
$GPGGA,060332.00,3324.3476,N,11915.6905,W,1,09,1.0,11.1,M,-34.8,M,,*66
$PYRTM,2024,122.252480636968,13.362128047106
$GPGGA,060333.00,3324.3489,N,11915.6925,W,1,09,1.0,11.8,M,-34.8,M,,*6C
$PYRTM,2024,122.252492197211,13.362139607361
$GPGGA,060334.00,3324.3501,N,11915.6952,W,1,09,1.0,11.0,M,-34.8,M,,*62
$PYRTM,2024,122.252499487118,13.362146897257
$GPGGA,060335.00,3324.3506,N,11915.6978,W,1,09,1.0,9.5,M,-34.8,M,,*50
$PYRTM,2024,122.252515345486,13.362162755625
$GPGGA,060336.00,3324.3510,N,11915.7000,W,1,09,1.0,10.1,M,-34.8,M,,*6F
$PYRTM,2024,122.252526925521,13.362174335660
$GPGGA,060337.00,3324.3519,N,11915.7021,W,1,09,1.0,10.3,M,-34.8,M,,*66
$PYRTM,2024,122.252538491458,13.362185901597
$GPGGA,060338.00,3324.3531,N,11915.7045,W,1,09,1.0,10.1,M,-34.8,M,,*63
$PYRTM,2024,122.252545785150,13.362193195289
$GPGGA,060339.00,3324.3541,N,11915.7070,W,1,09,1.0,9.5,M,-34.8,M,,*5F
$PYRTM,2024,122.252564419907,13.362211830046
$GPGGA,060340.00,3324.3548,N,11915.7093,W,1,09,1.0,9.5,M,-34.8,M,,*55
$PYRTM,2024,122.252573228102,13.362220638241
$GPGGA,060341.00,3324.3555,N,11915.7115,W,1,09,1.0,10.0,M,-34.8,M,,*6A
$PYRTM,2024,122.252584788275,13.362232198414
$GPGGA,060342.00,3324.3563,N,11915.7139,W,1,09,1.0,10.4,M,-34.8,M,,*66
$PYRTM,2024,122.252596371389,13.362243781528
$GPGGA,060343.00,3324.3573,N,11915.7162,W,1,09,1.0,10.7,M,-34.8,M,,*6B
$PYRTM,2024,122.252603769456,13.362251179595
$GPGGA,060344.00,3324.3584,N,11915.7186,W,1,09,1.0,10.6,M,-34.8,M,,*6F
$PYRTM,2024,122.252615458611,13.362262868750
$GPGGA,060345.00,3324.3594,N,11915.7213,W,1,09,1.0,9.7,M,-34.8,M,,*59
$PYRTM,2024,122.252630981898,13.362278392037
$GPGGA,060346.00,3324.3601,N,11915.7240,W,1,09,1.0,8.7,M,-34.8,M,,*52
$PYRTM,2024,122.252638377778,13.362285787917
$GPGGA,060347.00,3324.3605,N,11915.7262,W,1,09,1.0,8.8,M,-34.8,M,,*58
$PYRTM,2024,122.252650182106,13.362297592245
$GPGGA,060348.00,3324.3614,N,11915.7281,W,1,09,1.0,9.6,M,-34.8,M,,*55
$PYRTM,2024,122.252665707257,13.362313117396
$GPGGA,060349.00,3324.3627,N,11915.7305,W,1,09,1.0,9.3,M,-34.8,M,,*5C
$PYRTM,2024,122.252677273137,13.362324683275
$GPGGA,060350.00,3324.3636,N,11915.7330,W,1,09,1.0,8.5,M,-34.8,M,,*55
$PYRTM,2024,122.252688848102,13.362336258252
$GPGGA,060351.00,3324.3640,N,11915.7352,W,1,09,1.0,8.1,M,-34.8,M,,*55
$PYRTM,2024,122.252700427176,13.362347837326
$GPGGA,060352.00,3324.3644,N,11915.7373,W,1,09,1.0,8.3,M,-34.8,M,,*53
$PYRTM,2024,122.252712002627,13.362359412778
$GPGGA,060353.00,3324.3652,N,11915.7394,W,1,09,1.0,9.0,M,-34.8,M,,*5E
$PYRTM,2024,122.252723576088,13.362370986227
$GPGGA,060354.00,3324.3662,N,11915.7417,W,1,09,1.0,9.3,M,-34.8,M,,*55
$PYRTM,2024,122.252735150718,13.362382560856
$GPGGA,060355.00,3324.3671,N,11915.7441,W,1,09,1.0,9.4,M,-34.8,M,,*52
$PYRTM,2024,122.252746719352,13.362394129491
$GPGGA,060356.00,3324.3676,N,11915.7466,W,1,09,1.0,9.7,M,-34.8,M,,*50
$PYRTM,2024,122.252758415787,13.362405825926
$GPGGA,060357.00,3324.3680,N,11915.7489,W,1,09,1.0,10.6,M,-34.8,M,,*60
$PYRTM,2024,122.252769975000,13.362417385139
$GPGGA,060358.00,3324.3689,N,11915.7511,W,1,09,1.0,11.2,M,-34.8,M,,*63
$PYRTM,2024,122.252781561551,13.362428971690
$GPGGA,060359.00,3324.3700,N,11915.7536,W,1,09,1.0,11.3,M,-34.8,M,,*66
$PYRTM,2024,122.252788956146,13.362436366285
$GPGGA,060400.00,3324.3710,N,11915.7560,W,1,09,1.0,11.0,M,-34.8,M,,*6C
$PYRTM,2024,122.252804710451,13.362452120590
$GPGGA,060401.00,3324.3715,N,11915.7584,W,1,09,1.0,11.1,M,-34.8,M,,*63
$PYRTM,2024,122.252812106042,13.362459516181
$GPGGA,060402.00,3324.3721,N,11915.7607,W,1,09,1.0,11.6,M,-34.8,M,,*68
$PYRTM,2024,122.252827862755,13.362475272894
$GPGGA,060403.00,3324.3732,N,11915.7632,W,1,09,1.0,11.4,M,-34.8,M,,*6F
$PYRTM,2024,122.252839421227,13.362486831366
$GPGGA,060404.00,3324.3743,N,11915.7660,W,1,09,1.0,10.6,M,-34.8,M,,*6A
$PYRTM,2024,122.252846827523,13.362494237662
$GPGGA,060405.00,3324.3751,N,11915.7685,W,1,09,1.0,10.2,M,-34.8,M,,*67
$PYRTM,2024,122.252862568137,13.362509978275
$GPGGA,060406.00,3324.3757,N,11915.7705,W,1,09,1.0,12.0,M,-34.8,M,,*6B
$PYRTM,2024,122.252869859769,13.362517269907
$GPGGA,060407.00,3324.3765,N,11915.7728,W,1,09,1.0,13.5,M,-34.8,M,,*60
$PYRTM,2024,122.252885716875,13.362533127014
$GPGGA,060408.00,3324.3775,N,11915.7756,W,1,09,1.0,12.4,M,-34.8,M,,*67
$PYRTM,2024,122.252897298970,13.362544709109
$GPGGA,060409.00,3324.3783,N,11915.7780,W,1,09,1.0,11.5,M,-34.8,M,,*66
$PYRTM,2024,122.252904698912,13.362552109051
$GPGGA,060410.00,3324.3789,N,11915.7801,W,1,09,1.0,11.4,M,-34.8,M,,*63
$PYRTM,2024,122.252923232211,13.362570642350
$GPGGA,060411.00,3324.3797,N,11915.7823,W,1,09,1.0,11.2,M,-34.8,M,,*6B
$PYRTM,2024,122.252932012257,13.362579422396
$GPGGA,060412.00,3324.3807,N,11915.7849,W,1,09,1.0,10.8,M,-34.8,M,,*69
$PYRTM,2024,122.252943603796,13.362591013935
$GPGGA,060413.00,3324.3816,N,11915.7875,W,1,09,1.0,10.3,M,-34.8,M,,*6C
$PYRTM,2024,122.252950877824,13.362598287963
$GPGGA,060414.00,3324.3824,N,11915.7900,W,1,09,1.0,10.2,M,-34.8,M,,*68
$PYRTM,2024,122.252966744155,13.362614154294
$GPGGA,060415.00,3324.3831,N,11915.7924,W,1,09,1.0,10.6,M,-34.8,M,,*6F
$PYRTM,2024,122.252978309931,13.362625720081
$GPGGA,060416.00,3324.3840,N,11915.7947,W,1,09,1.0,10.9,M,-34.8,M,,*60
$PYRTM,2024,122.252989900278,13.362637310417
$GPGGA,060417.00,3324.3851,N,11915.7972,W,1,09,1.0,11.0,M,-34.8,M,,*6F
$PYRTM,2024,122.253001458588,13.362648868727
$GPGGA,060418.00,3324.3860,N,11915.7998,W,1,09,1.0,11.3,M,-34.8,M,,*65
$PYRTM,2024,122.253013047928,13.362660458067
$GPGGA,060419.00,3324.3867,N,11915.8024,W,1,09,1.0,10.1,M,-34.8,M,,*61
$PYRTM,2024,122.253024499560,13.362671909711
$GPGGA,060420.00,3324.3874,N,11915.8050,W,1,09,1.0,9.4,M,-34.8,M,,*57
$PYRTM,2024,122.253036074514,13.362683484653
$GPGGA,060421.00,3324.3883,N,11915.8072,W,1,09,1.0,9.8,M,-34.8,M,,*52
$PYRTM,2024,122.253047755231,13.362695165370
$GPGGA,060422.00,3324.3894,N,11915.8094,W,1,09,1.0,10.0,M,-34.8,M,,*6F
$PYRTM,2024,122.253059223102,13.362706633241
$GPGGA,060423.00,3324.3904,N,11915.8122,W,1,09,1.0,9.6,M,-34.8,M,,*54
$PYRTM,2024,122.253066634201,13.362714044340
$GPGGA,060424.00,3324.3911,N,11915.8150,W,1,09,1.0,9.1,M,-34.8,M,,*55
$PYRTM,2024,122.253082376644,13.362729786782
$GPGGA,060425.00,3324.3916,N,11915.8174,W,1,09,1.0,9.1,M,-34.8,M,,*55
$PYRTM,2024,122.253089768831,13.362737178970
$GPGGA,060426.00,3324.3924,N,11915.8197,W,1,09,1.0,8.8,M,-34.8,M,,*52
$PYRTM,2024,122.253105639005,13.362753049144
$GPGGA,060427.00,3324.3937,N,11915.8222,W,1,09,1.0,8.8,M,-34.8,M,,*5C
$PYRTM,2024,122.253117199583,13.362764609722
$GPGGA,060428.00,3324.3948,N,11915.8247,W,1,09,1.0,9.0,M,-34.8,M,,*51
$PYRTM,2024,122.253128787859,13.362776197998
$GPGGA,060429.00,3324.3956,N,11915.8274,W,1,09,1.0,8.5,M,-34.8,M,,*5B
$PYRTM,2024,122.253140347662,13.362787757801
$GPGGA,060430.00,3324.3961,N,11915.8301,W,1,09,1.0,8.0,M,-34.8,M,,*51
$PYRTM,2024,122.253151937153,13.362799347292
$GPGGA,060431.00,3324.3969,N,11915.8323,W,1,09,1.0,8.8,M,-34.8,M,,*50
$PYRTM,2024,122.253163388727,13.362810798866
$GPGGA,060432.00,3324.3981,N,11915.8344,W,1,09,1.0,9.1,M,-34.8,M,,*5C
$PYRTM,2024,122.253170788900,13.362818199039
$GPGGA,060433.00,3324.3993,N,11915.8368,W,1,09,1.0,9.3,M,-34.8,M,,*52
$PYRTM,2024,122.253186541366,13.362833951505
$GPGGA,060434.00,3324.4001,N,11915.8393,W,1,09,1.0,9.0,M,-34.8,M,,*57
$PYRTM,2024,122.253193935856,13.362841345995
$GPGGA,060435.00,3324.4007,N,11915.8422,W,1,09,1.0,8.3,M,-34.8,M,,*5F
$PYRTM,2024,122.253205754780,13.362853164919
$GPGGA,060436.00,3324.4015,N,11915.8448,W,1,09,1.0,7.8,M,-34.8,M,,*57
$PYRTM,2024,122.253221265035,13.362868675174
$GPGGA,060437.00,3324.4023,N,11915.8470,W,1,09,1.0,8.0,M,-34.8,M,,*5F
$PYRTM,2024,122.253228674201,13.362876084340
$GPGGA,060438.00,3324.4032,N,11915.8490,W,1,09,1.0,8.9,M,-34.8,M,,*57
$PYRTM,2024,122.253240464838,13.362887874977
$GPGGA,060439.00,3324.4042,N,11915.8515,W,1,09,1.0,9.5,M,-34.8,M,,*50
$PYRTM,2024,122.253258866285,13.362906276424
$GPGGA,060440.00,3324.4051,N,11915.8544,W,1,09,1.0,9.1,M,-34.8,M,,*5C
$PYRTM,2024,122.253270451505,13.362917861655
$GPGGA,060441.00,3324.4057,N,11915.8569,W,1,09,1.0,8.9,M,-34.8,M,,*5D
$PYRTM,2024,122.253284575417,13.362931985556
$GPGGA,060442.00,3324.4064,N,11915.8592,W,1,09,1.0,9.2,M,-34.8,M,,*50
$PYRTM,2024,122.253290709491,13.362938119630
$GPGGA,060443.00,3324.4074,N,11915.8615,W,1,09,1.0,9.7,M,-34.8,M,,*59
$PYRTM,2024,122.253298103681,13.362945513819
$GPGGA,060444.00,3324.4085,N,11915.8640,W,1,09,1.0,9.8,M,-34.8,M,,*5F
$PYRTM,2024,122.253309908056,13.362957318206
$GPGGA,060445.00,3324.4093,N,11915.8665,W,1,09,1.0,9.7,M,-34.8,M,,*51
$PYRTM,2024,122.253325430822,13.362972840961
$GPGGA,060446.00,3324.4100,N,11915.8692,W,1,09,1.0,9.5,M,-34.8,M,,*53
$PYRTM,2024,122.253337009514,13.362984419653
$GPGGA,060447.00,3324.4109,N,11915.8716,W,1,09,1.0,9.3,M,-34.8,M,,*50
$PYRTM,2024,122.253348580810,13.362995990961
$GPGGA,060448.00,3324.4118,N,11915.8740,W,1,09,1.0,9.3,M,-34.8,M,,*5C
$PYRTM,2024,122.253360156551,13.363007566690
$GPGGA,060449.00,3324.4127,N,11915.8763,W,1,09,1.0,9.4,M,-34.8,M,,*57
$PYRTM,2024,122.253367550000,13.363014960139
$GPGGA,060450.00,3324.4135,N,11915.8790,W,1,09,1.0,9.3,M,-34.8,M,,*57
$PYRTM,2024,122.253379353484,13.363026763623
$GPGGA,060451.00,3324.4144,N,11915.8818,W,1,09,1.0,9.0,M,-34.8,M,,*5C
$PYRTM,2024,122.253394877778,13.363042287928
$GPGGA,060452.00,3324.4153,N,11915.8844,W,1,09,1.0,8.8,M,-34.8,M,,*59
$PYRTM,2024,122.253402270336,13.363049680475
$GPGGA,060453.00,3324.4162,N,11915.8865,W,1,09,1.0,10.2,M,-34.8,M,,*6A
$PYRTM,2024,122.253414091447,13.363061501586
$GPGGA,060454.00,3324.4171,N,11915.8888,W,1,09,1.0,11.8,M,-34.8,M,,*67
$PYRTM,2024,122.253429714456,13.363077124606
$GPGGA,060455.00,3324.4182,N,11915.8915,W,1,09,1.0,11.1,M,-34.8,M,,*66
$PYRTM,2024,122.253441275775,13.363088685914
$GPGGA,060456.00,3324.4190,N,11915.8941,W,1,09,1.0,11.5,M,-34.8,M,,*63
$PYRTM,2024,122.253452864745,13.363100274884
$GPGGA,060457.00,3324.4197,N,11915.8963,W,1,09,1.0,11.9,M,-34.8,M,,*69
$PYRTM,2024,122.253464423414,13.363111833553
$GPGGA,060458.00,3324.4206,N,11915.8985,W,1,09,1.0,12.1,M,-34.8,M,,*6E
$PYRTM,2024,122.253476013391,13.363123423530
$GPGGA,060459.00,3324.4217,N,11915.9010,W,1,09,1.0,11.8,M,-34.8,M,,*61
$PYRTM,2024,122.253487572465,13.363134982604
$GPGGA,060500.00,3324.4226,N,11915.9037,W,1,09,1.0,11.2,M,-34.8,M,,*61
$PYRTM,2024,122.253499162269,13.363146572407
$GPGGA,060501.00,3324.4232,N,11915.9064,W,1,09,1.0,10.6,M,-34.8,M,,*66
$PYRTM,2024,122.253506438519,13.363153848669
$GPGGA,060502.00,3324.4239,N,11915.9088,W,1,09,1.0,10.6,M,-34.8,M,,*6C
$PYRTM,2024,122.253518243692,13.363165653831
$GPGGA,060503.00,3324.4248,N,11915.9111,W,1,09,1.0,10.7,M,-34.8,M,,*6B
$PYRTM,2024,122.253533869387,13.363181279525
$GPGGA,060504.00,3324.4260,N,11915.9137,W,1,09,1.0,10.5,M,-34.8,M,,*60
$PYRTM,2024,122.253545456806,13.363192866944
$GPGGA,060505.00,3324.4270,N,11915.9165,W,1,09,1.0,10.1,M,-34.8,M,,*63
$PYRTM,2024,122.253556910174,13.363204320324
$GPGGA,060506.00,3324.4276,N,11915.9189,W,1,09,1.0,10.4,M,-34.8,M,,*61
$PYRTM,2024,122.253568604491,13.363216014630
$GPGGA,060507.00,3324.4283,N,11915.9213,W,1,09,1.0,10.8,M,-34.8,M,,*66
$PYRTM,2024,122.253580167234,13.363227577373
$GPGGA,060508.00,3324.4295,N,11915.9239,W,1,09,1.0,10.8,M,-34.8,M,,*66
$PYRTM,2024,122.253591755046,13.363239165185
$GPGGA,060509.00,3324.4306,N,11915.9265,W,1,09,1.0,10.5,M,-34.8,M,,*68
$PYRTM,2024,122.253603313924,13.363250724062
$GPGGA,060510.00,3324.4312,N,11915.9285,W,1,09,1.0,10.9,M,-34.8,M,,*67
$PYRTM,2024,122.253610604734,13.363258014873
$GPGGA,060511.00,3324.4319,N,11915.9308,W,1,09,1.0,11.7,M,-34.8,M,,*66
$PYRTM,2024,122.253629241111,13.363276651250
$GPGGA,060512.00,3324.4329,N,11915.9335,W,1,09,1.0,11.2,M,-34.8,M,,*6D
$PYRTM,2024,122.253637933113,13.363285343252
$GPGGA,060513.00,3324.4340,N,11915.9362,W,1,09,1.0,9.8,M,-34.8,M,,*52
$PYRTM,2024,122.253645328090,13.363292738229
$GPGGA,060514.00,3324.4346,N,11915.9386,W,1,09,1.0,9.3,M,-34.8,M,,*52
$PYRTM,2024,122.253661085185,13.363308495324
$GPGGA,060515.00,3324.4351,N,11915.9406,W,1,09,1.0,10.0,M,-34.8,M,,*61
$PYRTM,2024,122.253672759988,13.363320170127
$GPGGA,060516.00,3324.4360,N,11915.9428,W,1,09,1.0,10.7,M,-34.8,M,,*6B
$PYRTM,2024,122.253684234178,13.363331644317
$GPGGA,060517.00,3324.4373,N,11915.9456,W,1,09,1.0,10.3,M,-34.8,M,,*65
$PYRTM,2024,122.253695806875,13.363343217025
$GPGGA,060518.00,3324.4382,N,11915.9484,W,1,09,1.0,9.3,M,-34.8,M,,*53
$PYRTM,2024,122.253707378275,13.363354788414
$GPGGA,060519.00,3324.4386,N,11915.9506,W,1,09,1.0,9.2,M,-34.8,M,,*5C
$PYRTM,2024,122.253718952384,13.363366362523
$GPGGA,060520.00,3324.4392,N,11915.9524,W,1,09,1.0,10.2,M,-34.8,M,,*6B
$PYRTM,2024,122.253726348368,13.363373758507
$GPGGA,060521.00,3324.4404,N,11915.9548,W,1,09,1.0,10.6,M,-34.8,M,,*6C
$PYRTM,2024,122.253742106458,13.363389516597
$GPGGA,060522.00,3324.4415,N,11915.9575,W,1,09,1.0,10.2,M,-34.8,M,,*65
$PYRTM,2024,122.253753674850,13.363401085000
$GPGGA,060523.00,3324.4422,N,11915.9598,W,1,09,1.0,9.7,M,-34.8,M,,*5E
$PYRTM,2024,122.253765250602,13.363412660741
$GPGGA,060524.00,3324.4428,N,11915.9620,W,1,09,1.0,10.0,M,-34.8,M,,*6C
$PYRTM,2024,122.253776824745,13.363424234884
$GPGGA,060525.00,3324.4436,N,11915.9643,W,1,09,1.0,10.6,M,-34.8,M,,*61
$PYRTM,2024,122.253788399456,13.363435809595
$GPGGA,060526.00,3324.4445,N,11915.9666,W,1,09,1.0,10.9,M,-34.8,M,,*6E
$PYRTM,2024,122.253799966840,13.363447376979
$GPGGA,060527.00,3324.4455,N,11915.9688,W,1,09,1.0,11.1,M,-34.8,M,,*67
$PYRTM,2024,122.253811540370,13.363458950509
$GPGGA,060528.00,3324.4463,N,11915.9713,W,1,09,1.0,10.7,M,-34.8,M,,*69
$PYRTM,2024,122.253823122951,13.363470533090
$GPGGA,060529.00,3324.4471,N,11915.9738,W,1,09,1.0,10.0,M,-34.8,M,,*65
$PYRTM,2024,122.253834694572,13.363482104722
$GPGGA,060530.00,3324.4478,N,11915.9761,W,1,09,1.0,9.7,M,-34.8,M,,*57
$PYRTM,2024,122.253846271481,13.363493681620
$GPGGA,060531.00,3324.4485,N,11915.9782,W,1,09,1.0,10.0,M,-34.8,M,,*66
$PYRTM,2024,122.253857837407,13.363505247558
$GPGGA,060532.00,3324.4494,N,11915.9807,W,1,09,1.0,10.3,M,-34.8,M,,*64
$PYRTM,2024,122.253865236424,13.363512646562
$GPGGA,060533.00,3324.4504,N,11915.9834,W,1,09,1.0,10.0,M,-34.8,M,,*6E
$PYRTM,2024,122.253880990000,13.363528400139
$GPGGA,060534.00,3324.4513,N,11915.9859,W,1,09,1.0,9.8,M,-34.8,M,,*54
$PYRTM,2024,122.253892565127,13.363539975266
$GPGGA,060535.00,3324.4520,N,11915.9881,W,1,09,1.0,10.2,M,-34.8,M,,*62
$PYRTM,2024,122.253904140532,13.363551550671
$GPGGA,060536.00,3324.4528,N,11915.9904,W,1,09,1.0,10.7,M,-34.8,M,,*60
$PYRTM,2024,122.253915713553,13.363563123692
$GPGGA,060537.00,3324.4536,N,11915.9928,W,1,09,1.0,10.6,M,-34.8,M,,*61
$PYRTM,2024,122.253927282488,13.363574692627
$GPGGA,060538.00,3324.4545,N,11915.9954,W,1,09,1.0,10.1,M,-34.8,M,,*66
$PYRTM,2024,122.253938861308,13.363586271447
$GPGGA,060539.00,3324.4555,N,11915.9981,W,1,09,1.0,9.1,M,-34.8,M,,*56
$PYRTM,2024,122.253950434583,13.363597844722
$GPGGA,060540.00,3324.4564,N,11916.0005,W,1,09,1.0,8.5,M,-34.8,M,,*50
$PYRTM,2024,122.253957829745,13.363605239884
$GPGGA,060541.00,3324.4570,N,11916.0027,W,1,09,1.0,9.0,M,-34.8,M,,*50
$PYRTM,2024,122.253969635313,13.363617045451
$GPGGA,060542.00,3324.4577,N,11916.0050,W,1,09,1.0,10.0,M,-34.8,M,,*6C
$PYRTM,2024,122.253988052512,13.363635462650
$GPGGA,060543.00,3324.4586,N,11916.0075,W,1,09,1.0,10.5,M,-34.8,M,,*61
$PYRTM,2024,122.253996731528,13.363644141667
$GPGGA,060544.00,3324.4596,N,11916.0101,W,1,09,1.0,10.2,M,-34.8,M,,*62
$PYRTM,2024,122.254008313727,13.363655723866
$GPGGA,060545.00,3324.4606,N,11916.0126,W,1,09,1.0,9.9,M,-34.8,M,,*5F
$PYRTM,2024,122.254019876597,13.363667286748
$GPGGA,060546.00,3324.4613,N,11916.0149,W,1,09,1.0,9.9,M,-34.8,M,,*51
$PYRTM,2024,122.254027275822,13.363674685961
$GPGGA,060547.00,3324.4620,N,11916.0172,W,1,09,1.0,10.2,M,-34.8,M,,*6B
$PYRTM,2024,122.254043029502,13.363690439641
$GPGGA,060548.00,3324.4629,N,11916.0198,W,1,09,1.0,9.6,M,-34.8,M,,*55
$PYRTM,2024,122.254054616100,13.363702026238
$GPGGA,060549.00,3324.4641,N,11916.0228,W,1,09,1.0,9.6,M,-34.8,M,,*52
$PYRTM,2024,122.254062010255,13.363709420394
$GPGGA,060550.00,3324.4649,N,11916.0252,W,1,09,1.0,9.7,M,-34.8,M,,*5E
$PYRTM,2024,122.254073801065,13.363721211204
$GPGGA,060551.00,3324.4655,N,11916.0271,W,1,09,1.0,10.7,M,-34.8,M,,*6B
$PYRTM,2024,122.254089325590,13.363736735729
$GPGGA,060552.00,3324.4664,N,11916.0294,W,1,09,1.0,11.2,M,-34.8,M,,*65
$PYRTM,2024,122.254100899340,13.363748309479
$GPGGA,060553.00,3324.4676,N,11916.0321,W,1,09,1.0,9.9,M,-34.8,M,,*5A
$PYRTM,2024,122.254112476574,13.363759886713
$GPGGA,060554.00,3324.4683,N,11916.0345,W,1,09,1.0,9.8,M,-34.8,M,,*54
$PYRTM,2024,122.254124049595,13.363771459734
$GPGGA,060555.00,3324.4688,N,11916.0365,W,1,09,1.0,10.2,M,-34.8,M,,*6E
$PYRTM,2024,122.254135621308,13.363783031447
$GPGGA,060556.00,3324.4697,N,11916.0385,W,1,09,1.0,10.8,M,-34.8,M,,*67
$PYRTM,2024,122.254147206389,13.363794616528
$GPGGA,060557.00,3324.4708,N,11916.0410,W,1,09,1.0,10.7,M,-34.8,M,,*65
$PYRTM,2024,122.254158769329,13.363806179468
$GPGGA,060558.00,3324.4717,N,11916.0437,W,1,09,1.0,10.1,M,-34.8,M,,*67
$PYRTM,2024,122.254170343576,13.363817753715
$GPGGA,060559.00,3324.4724,N,11916.0462,W,1,09,1.0,9.9,M,-34.8,M,,*56
$PYRTM,2024,122.254177750035,13.363825160174
$GPGGA,060600.00,3324.4732,N,11916.0484,W,1,09,1.0,10.1,M,-34.8,M,,*66
$PYRTM,2024,122.254193502847,13.363840912986
$GPGGA,060601.00,3324.4742,N,11916.0507,W,1,09,1.0,10.5,M,-34.8,M,,*6E
$PYRTM,2024,122.254205065775,13.363852475914
$GPGGA,060602.00,3324.4751,N,11916.0531,W,1,09,1.0,10.7,M,-34.8,M,,*68
$PYRTM,2024,122.254216663461,13.363864073600
$GPGGA,060603.00,3324.4760,N,11916.0555,W,1,09,1.0,10.6,M,-34.8,M,,*68
$PYRTM,2024,122.254228214977,13.363875625127
$GPGGA,060604.00,3324.4769,N,11916.0579,W,1,09,1.0,9.9,M,-34.8,M,,*5F
$PYRTM,2024,122.254239796887,13.363887207025
$GPGGA,060605.00,3324.4777,N,11916.0604,W,1,09,1.0,9.3,M,-34.8,M,,*52
$PYRTM,2024,122.254251362384,13.363898772523
$GPGGA,060606.00,3324.4785,N,11916.0628,W,1,09,1.0,9.0,M,-34.8,M,,*51
$PYRTM,2024,122.254262948773,13.363910358912
$GPGGA,060607.00,3324.4793,N,11916.0650,W,1,09,1.0,9.4,M,-34.8,M,,*5C
$PYRTM,2024,122.254274505532,13.363921915671
$GPGGA,060608.00,3324.4803,N,11916.0670,W,1,09,1.0,10.8,M,-34.8,M,,*63
$PYRTM,2024,122.254286096678,13.363933506817
$GPGGA,060609.00,3324.4814,N,11916.0695,W,1,09,1.0,11.1,M,-34.8,M,,*67
$PYRTM,2024,122.254297658391,13.363945068530
$GPGGA,060610.00,3324.4823,N,11916.0722,W,1,09,1.0,9.9,M,-34.8,M,,*57
$PYRTM,2024,122.254309233762,13.363956643900
$GPGGA,060611.00,3324.4830,N,11916.0746,W,1,09,1.0,9.3,M,-34.8,M,,*5C
$PYRTM,2024,122.254320808889,13.363968219028
$GPGGA,060612.00,3324.4837,N,11916.0765,W,1,09,1.0,10.5,M,-34.8,M,,*67
$PYRTM,2024,122.254328202940,13.363975613079
$GPGGA,060613.00,3324.4847,N,11916.0786,W,1,09,1.0,12.0,M,-34.8,M,,*6B
$PYRTM,2024,122.254346850023,13.363994260162
$GPGGA,060614.00,3324.4859,N,11916.0813,W,1,09,1.0,11.0,M,-34.8,M,,*63
$PYRTM,2024,122.254358423750,13.364005833889
$GPGGA,060615.00,3324.4866,N,11916.0841,W,1,09,1.0,10.3,M,-34.8,M,,*6B
$PYRTM,2024,122.254369997350,13.364017407488
$GPGGA,060616.00,3324.4870,N,11916.0864,W,1,09,1.0,10.5,M,-34.8,M,,*6E
$PYRTM,2024,122.254381575116,13.364028985255
$GPGGA,060617.00,3324.4877,N,11916.0883,W,1,09,1.0,11.7,M,-34.8,M,,*62
$PYRTM,2024,122.254393145602,13.364040555741
$GPGGA,060618.00,3324.4889,N,11916.0905,W,1,09,1.0,12.1,M,-34.8,M,,*66
$PYRTM,2024,122.254401852407,13.364049262546
$GPGGA,060619.00,3324.4901,N,11916.0933,W,1,09,1.0,11.3,M,-34.8,M,,*62
$PYRTM,2024,122.254409245787,13.364056655926
$GPGGA,060620.00,3324.4908,N,11916.0959,W,1,09,1.0,10.6,M,-34.8,M,,*69
$PYRTM,2024,122.254421025671,13.364068435810
$GPGGA,060621.00,3324.4912,N,11916.0978,W,1,09,1.0,11.1,M,-34.8,M,,*66
$PYRTM,2024,122.254436549456,13.364083959595
$GPGGA,060622.00,3324.4922,N,11916.0996,W,1,09,1.0,12.0,M,-34.8,M,,*64
$PYRTM,2024,122.254448133970,13.364095544109
$GPGGA,060623.00,3324.4936,N,11916.1020,W,1,09,1.0,11.5,M,-34.8,M,,*63
$PYRTM,2024,122.254455542245,13.364102952384
$GPGGA,060624.00,3324.4948,N,11916.1047,W,1,09,1.0,10.3,M,-34.8,M,,*6B
$PYRTM,2024,122.254471281933,13.364118692072
$GPGGA,060625.00,3324.4951,N,11916.1069,W,1,09,1.0,9.7,M,-34.8,M,,*52
$PYRTM,2024,122.254478677824,13.364126087963
$GPGGA,060626.00,3324.4955,N,11916.1087,W,1,09,1.0,10.5,M,-34.8,M,,*6F
$PYRTM,2024,122.254494537002,13.364141947141
$GPGGA,060627.00,3324.4967,N,11916.1108,W,1,09,1.0,11.1,M,-34.8,M,,*6C
$PYRTM,2024,122.254506109259,13.364153519398
$GPGGA,060628.00,3324.4978,N,11916.1132,W,1,09,1.0,11.4,M,-34.8,M,,*61
$PYRTM,2024,122.254513505104,13.364160915243
$GPGGA,060629.00,3324.4985,N,11916.1154,W,1,09,1.0,11.3,M,-34.8,M,,*65
$PYRTM,2024,122.254529257488,13.364176667627
$GPGGA,060630.00,3324.4990,N,11916.1176,W,1,09,1.0,11.5,M,-34.8,M,,*6F
$PYRTM,2024,122.254540835162,13.364188245301
$GPGGA,060631.00,3324.4998,N,11916.1197,W,1,09,1.0,11.6,M,-34.8,M,,*6A
$PYRTM,2024,122.254548227060,13.364195637199
$GPGGA,060632.00,3324.5007,N,11916.1219,W,1,09,1.0,11.1,M,-34.8,M,,*65
$PYRTM,2024,122.254563983669,13.364211393808
$GPGGA,060633.00,3324.5016,N,11916.1240,W,1,09,1.0,11.2,M,-34.8,M,,*6B
$PYRTM,2024,122.254575554282,13.364222964421
$GPGGA,060634.00,3324.5023,N,11916.1263,W,1,09,1.0,11.5,M,-34.8,M,,*6C
$PYRTM,2024,122.254587130822,13.364234540961
$GPGGA,060635.00,3324.5031,N,11916.1288,W,1,09,1.0,11.6,M,-34.8,M,,*68
$PYRTM,2024,122.254598698900,13.364246109039
$GPGGA,060636.00,3324.5038,N,11916.1310,W,1,09,1.0,12.1,M,-34.8,M,,*66
$PYRTM,2024,122.254610280567,13.364257690706
$GPGGA,060637.00,3324.5046,N,11916.1330,W,1,09,1.0,12.8,M,-34.8,M,,*65
$PYRTM,2024,122.254621737951,13.364269148090
$GPGGA,060638.00,3324.5055,N,11916.1353,W,1,09,1.0,12.8,M,-34.8,M,,*6D
$PYRTM,2024,122.254633310000,13.364280720150
$GPGGA,060639.00,3324.5064,N,11916.1379,W,1,09,1.0,12.1,M,-34.8,M,,*6F
$PYRTM,2024,122.254644879005,13.364292289144
$GPGGA,060640.00,3324.5071,N,11916.1403,W,1,09,1.0,11.5,M,-34.8,M,,*68
$PYRTM,2024,122.254656457674,13.364303867824
$GPGGA,060641.00,3324.5078,N,11916.1423,W,1,09,1.0,11.7,M,-34.8,M,,*60
$PYRTM,2024,122.254668032037,13.364315442188
$GPGGA,060642.00,3324.5087,N,11916.1443,W,1,09,1.0,12.2,M,-34.8,M,,*63
$PYRTM,2024,122.254679616898,13.364327027049
$GPGGA,060643.00,3324.5096,N,11916.1467,W,1,09,1.0,12.5,M,-34.8,M,,*63
$PYRTM,2024,122.254687012234,13.364334422373
$GPGGA,060644.00,3324.5105,N,11916.1493,W,1,09,1.0,12.1,M,-34.8,M,,*60
$PYRTM,2024,122.254705647616,13.364353057755
$GPGGA,060645.00,3324.5112,N,11916.1517,W,1,09,1.0,11.7,M,-34.8,M,,*6F
$PYRTM,2024,122.254714328345,13.364361738484
$GPGGA,060646.00,3324.5119,N,11916.1539,W,1,09,1.0,11.7,M,-34.8,M,,*6B
$PYRTM,2024,122.254721724375,13.364369134514
$GPGGA,060647.00,3324.5128,N,11916.1562,W,1,09,1.0,11.6,M,-34.8,M,,*67
$PYRTM,2024,122.254737475880,13.364384886019
$GPGGA,060648.00,3324.5139,N,11916.1586,W,1,09,1.0,11.7,M,-34.8,M,,*63
$PYRTM,2024,122.254749062187,13.364396472326
$GPGGA,060649.00,3324.5147,N,11916.1608,W,1,09,1.0,12.0,M,-34.8,M,,*6A
$PYRTM,2024,122.254760626435,13.364408036574
$GPGGA,060650.00,3324.5156,N,11916.1634,W,1,09,1.0,12.0,M,-34.8,M,,*6D
$PYRTM,2024,122.254772198889,13.364419609028
$GPGGA,060651.00,3324.5165,N,11916.1660,W,1,09,1.0,11.5,M,-34.8,M,,*6B
$PYRTM,2024,122.254783774259,13.364431184398
$GPGGA,060652.00,3324.5173,N,11916.1683,W,1,09,1.0,11.5,M,-34.8,M,,*62
$PYRTM,2024,122.254795347419,13.364442757558
$GPGGA,060653.00,3324.5181,N,11916.1704,W,1,09,1.0,12.0,M,-34.8,M,,*66
$PYRTM,2024,122.254806921505,13.364454331644
$GPGGA,060654.00,3324.5190,N,11916.1727,W,1,09,1.0,12.1,M,-34.8,M,,*61
$PYRTM,2024,122.254818495822,13.364465905972
$GPGGA,060655.00,3324.5200,N,11916.1752,W,1,09,1.0,11.7,M,-34.8,M,,*6D
$PYRTM,2024,122.254830071053,13.364477481204
$GPGGA,060656.00,3324.5209,N,11916.1778,W,1,09,1.0,11.0,M,-34.8,M,,*68
$PYRTM,2024,122.254841655637,13.364489065775
$GPGGA,060657.00,3324.5216,N,11916.1801,W,1,09,1.0,11.0,M,-34.8,M,,*66
$PYRTM,2024,122.254853212141,13.364500622280
$GPGGA,060658.00,3324.5225,N,11916.1822,W,1,09,1.0,11.4,M,-34.8,M,,*6C
$PYRTM,2024,122.254864802639,13.364512212778
$GPGGA,060659.00,3324.5236,N,11916.1847,W,1,09,1.0,11.5,M,-34.8,M,,*6D
$PYRTM,2024,122.254876371169,13.364523781308
$GPGGA,060700.00,3324.5246,N,11916.1873,W,1,09,1.0,11.3,M,-34.8,M,,*66
$PYRTM,2024,122.254883761655,13.364531171794
$GPGGA,060701.00,3324.5255,N,11916.1898,W,1,09,1.0,11.1,M,-34.8,M,,*62
$PYRTM,2024,122.254899517164,13.364546927303
$GPGGA,060702.00,3324.5262,N,11916.1923,W,1,09,1.0,11.0,M,-34.8,M,,*65
$PYRTM,2024,122.254911089005,13.364558499144
$GPGGA,060703.00,3324.5271,N,11916.1946,W,1,09,1.0,11.0,M,-34.8,M,,*65
$PYRTM,2024,122.254922663565,13.364570073704
$GPGGA,060704.00,3324.5282,N,11916.1969,W,1,09,1.0,11.2,M,-34.8,M,,*61
$PYRTM,2024,122.254934248553,13.364581658692
$GPGGA,060705.00,3324.5292,N,11916.1994,W,1,09,1.0,11.3,M,-34.8,M,,*62
$PYRTM,2024,122.254945813241,13.364593223380
$GPGGA,060706.00,3324.5300,N,11916.2021,W,1,09,1.0,10.6,M,-34.8,M,,*6B
$PYRTM,2024,122.254957385220,13.364604795359
$GPGGA,060707.00,3324.5306,N,11916.2047,W,1,09,1.0,10.2,M,-34.8,M,,*68
$PYRTM,2024,122.254968955810,13.364616365949
$GPGGA,060708.00,3324.5315,N,11916.2068,W,1,09,1.0,11.0,M,-34.8,M,,*6B
$PYRTM,2024,122.254980533368,13.364627943507
$GPGGA,060709.00,3324.5328,N,11916.2090,W,1,09,1.0,11.4,M,-34.8,M,,*67
$PYRTM,2024,122.254987936157,13.364635346296
$GPGGA,060710.00,3324.5340,N,11916.2117,W,1,09,1.0,11.1,M,-34.8,M,,*6A
$PYRTM,2024,122.255003682859,13.364651093009
$GPGGA,060711.00,3324.5347,N,11916.2144,W,1,09,1.0,10.5,M,-34.8,M,,*6F
$PYRTM,2024,122.255015258947,13.364662669097
$GPGGA,060712.00,3324.5352,N,11916.2169,W,1,09,1.0,10.3,M,-34.8,M,,*61
$PYRTM,2024,122.255022651933,13.364670062083
$GPGGA,060713.00,3324.5362,N,11916.2190,W,1,09,1.0,11.0,M,-34.8,M,,*67
$PYRTM,2024,122.255038399988,13.364685810139
$GPGGA,060714.00,3324.5374,N,11916.2213,W,1,09,1.0,11.3,M,-34.8,M,,*6C
$PYRTM,2024,122.255045801331,13.364693211470
$GPGGA,060715.00,3324.5385,N,11916.2238,W,1,09,1.0,11.0,M,-34.8,M,,*69
$PYRTM,2024,122.255064446377,13.364711856516
$GPGGA,060716.00,3324.5392,N,11916.2263,W,1,09,1.0,10.8,M,-34.8,M,,*6B
$PYRTM,2024,122.255073135185,13.364720545324
$GPGGA,060717.00,3324.5398,N,11916.2288,W,1,09,1.0,10.8,M,-34.8,M,,*65
$PYRTM,2024,122.255084702419,13.364732112558
$GPGGA,060718.00,3324.5406,N,11916.2312,W,1,09,1.0,10.9,M,-34.8,M,,*69
$PYRTM,2024,122.255092095116,13.364739505255
$GPGGA,060719.00,3324.5417,N,11916.2334,W,1,09,1.0,11.1,M,-34.8,M,,*65
$PYRTM,2024,122.255107850486,13.364755260625
$GPGGA,060720.00,3324.5428,N,11916.2357,W,1,09,1.0,11.3,M,-34.8,M,,*64
$PYRTM,2024,122.255119423449,13.364766833588
$GPGGA,060721.00,3324.5437,N,11916.2385,W,1,09,1.0,10.8,M,-34.8,M,,*6E
$PYRTM,2024,122.255126831412,13.364774241551
$GPGGA,060722.00,3324.5443,N,11916.2414,W,1,09,1.0,9.9,M,-34.8,M,,*58
$PYRTM,2024,122.255142572130,13.364789982269
$GPGGA,060723.00,3324.5448,N,11916.2438,W,1,09,1.0,9.8,M,-34.8,M,,*5D
$PYRTM,2024,122.255154141840,13.364801551979
$GPGGA,060724.00,3324.5457,N,11916.2456,W,1,09,1.0,11.1,M,-34.8,M,,*6C
$PYRTM,2024,122.255165720220,13.364813130359
$GPGGA,060725.00,3324.5471,N,11916.2476,W,1,09,1.0,11.8,M,-34.8,M,,*62
$PYRTM,2024,122.255177294236,13.364824704375
$GPGGA,060726.00,3324.5484,N,11916.2503,W,1,09,1.0,11.3,M,-34.8,M,,*63
$PYRTM,2024,122.255188868576,13.364836278715
$GPGGA,060727.00,3324.5490,N,11916.2532,W,1,09,1.0,9.8,M,-34.8,M,,*57
$PYRTM,2024,122.255200444271,13.364847854410
$GPGGA,060728.00,3324.5494,N,11916.2555,W,1,09,1.0,9.5,M,-34.8,M,,*50
$PYRTM,2024,122.255207838600,13.364855248738
$GPGGA,060729.00,3324.5502,N,11916.2572,W,1,09,1.0,10.5,M,-34.8,M,,*62
$PYRTM,2024,122.255223592141,13.364871002280
$GPGGA,060730.00,3324.5515,N,11916.2591,W,1,09,1.0,11.8,M,-34.8,M,,*6D
$PYRTM,2024,122.255230988368,13.364878398507
$GPGGA,060731.00,3324.5528,N,11916.2618,W,1,09,1.0,11.6,M,-34.8,M,,*6E
$PYRTM,2024,122.255242791944,13.364890202083
$GPGGA,060732.00,3324.5535,N,11916.2646,W,1,09,1.0,10.8,M,-34.8,M,,*65
$PYRTM,2024,122.255258326134,13.364905736285
$GPGGA,060733.00,3324.5538,N,11916.2668,W,1,09,1.0,10.6,M,-34.8,M,,*6B
$PYRTM,2024,122.255269889514,13.364917299653
$GPGGA,060734.00,3324.5545,N,11916.2687,W,1,09,1.0,11.0,M,-34.8,M,,*60
$PYRTM,2024,122.255281461771,13.364928871910
$GPGGA,060735.00,3324.5557,N,11916.2708,W,1,09,1.0,11.0,M,-34.8,M,,*64
$PYRTM,2024,122.255293031400,13.364940441539
$GPGGA,060736.00,3324.5568,N,11916.2733,W,1,09,1.0,10.6,M,-34.8,M,,*64
$PYRTM,2024,122.255304609294,13.364952019433
$GPGGA,060737.00,3324.5574,N,11916.2759,W,1,09,1.0,9.9,M,-34.8,M,,*53
$PYRTM,2024,122.255316185093,13.364963595231
$GPGGA,060738.00,3324.5578,N,11916.2780,W,1,09,1.0,10.2,M,-34.8,M,,*67
$PYRTM,2024,122.255327759803,13.364975169942
$GPGGA,060739.00,3324.5588,N,11916.2801,W,1,09,1.0,10.0,M,-34.8,M,,*6D
$PYRTM,2024,122.255335166285,13.364982576424
$GPGGA,060740.00,3324.5601,N,11916.2824,W,1,09,1.0,9.7,M,-34.8,M,,*59
$PYRTM,2024,122.255346843611,13.364994253750
$GPGGA,060741.00,3324.5611,N,11916.2849,W,1,09,1.0,9.2,M,-34.8,M,,*57
$PYRTM,2024,122.255362481609,13.365009891748
$GPGGA,060742.00,3324.5616,N,11916.2871,W,1,09,1.0,9.3,M,-34.8,M,,*59
$PYRTM,2024,122.255374054815,13.365021464965
$GPGGA,060743.00,3324.5622,N,11916.2892,W,1,09,1.0,9.8,M,-34.8,M,,*59
$PYRTM,2024,122.255381463970,13.365028874109
$GPGGA,060744.00,3324.5633,N,11916.2916,W,1,09,1.0,9.9,M,-34.8,M,,*52
$PYRTM,2024,122.255397222303,13.365044632442
$GPGGA,060745.00,3324.5644,N,11916.2941,W,1,09,1.0,9.4,M,-34.8,M,,*5C
$PYRTM,2024,122.255404606354,13.365052016493
$GPGGA,060746.00,3324.5652,N,11916.2964,W,1,09,1.0,9.2,M,-34.8,M,,*59
$PYRTM,2024,122.255423249294,13.365070659433
$GPGGA,060747.00,3324.5658,N,11916.2987,W,1,09,1.0,9.5,M,-34.8,M,,*58
$PYRTM,2024,122.255431921169,13.365079331308
$GPGGA,060748.00,3324.5665,N,11916.3011,W,1,09,1.0,9.8,M,-34.8,M,,*53
$PYRTM,2024,122.255439321146,13.365086731296
$GPGGA,060749.00,3324.5674,N,11916.3035,W,1,09,1.0,9.6,M,-34.8,M,,*5A
$PYRTM,2024,122.255455074606,13.365102484745
$GPGGA,060750.00,3324.5684,N,11916.3061,W,1,09,1.0,9.1,M,-34.8,M,,*5B
$PYRTM,2024,122.255462471400,13.365109881551
$GPGGA,060751.00,3324.5692,N,11916.3083,W,1,09,1.0,8.9,M,-34.8,M,,*58
$PYRTM,2024,122.255478217928,13.365125628067
$GPGGA,060752.00,3324.5700,N,11916.3105,W,1,09,1.0,9.3,M,-34.8,M,,*55
$PYRTM,2024,122.255489798565,13.365137208704
$GPGGA,060753.00,3324.5708,N,11916.3129,W,1,09,1.0,9.5,M,-34.8,M,,*54
$PYRTM,2024,122.255501366910,13.365148777049
$GPGGA,060754.00,3324.5717,N,11916.3156,W,1,09,1.0,9.4,M,-34.8,M,,*54
$PYRTM,2024,122.255508766134,13.365156176285
$GPGGA,060755.00,3324.5725,N,11916.3180,W,1,09,1.0,9.3,M,-34.8,M,,*58
$PYRTM,2024,122.255524519398,13.365171929549
$GPGGA,060756.00,3324.5735,N,11916.3203,W,1,09,1.0,9.5,M,-34.8,M,,*54
$PYRTM,2024,122.255536116273,13.365183526412
$GPGGA,060757.00,3324.5744,N,11916.3226,W,1,09,1.0,9.8,M,-34.8,M,,*59
$PYRTM,2024,122.255543502431,13.365190912569
$GPGGA,060758.00,3324.5753,N,11916.3252,W,1,09,1.0,9.6,M,-34.8,M,,*5D
$PYRTM,2024,122.255555178368,13.365202588507
$GPGGA,060759.00,3324.5762,N,11916.3279,W,1,09,1.0,9.1,M,-34.8,M,,*50
$PYRTM,2024,122.255570816053,13.365218226192
$GPGGA,060800.00,3324.5771,N,11916.3304,W,1,09,1.0,8.8,M,-34.8,M,,*52
$PYRTM,2024,122.255582397650,13.365229807789
$GPGGA,060801.00,3324.5782,N,11916.3325,W,1,09,1.0,9.1,M,-34.8,M,,*54
$PYRTM,2024,122.255593964965,13.365241375104
$GPGGA,060802.00,3324.5791,N,11916.3350,W,1,09,1.0,9.2,M,-34.8,M,,*54
$PYRTM,2024,122.255605537639,13.365252947778
$GPGGA,060803.00,3324.5800,N,11916.3376,W,1,09,1.0,9.1,M,-34.8,M,,*55
$PYRTM,2024,122.255617111574,13.365264521713
$GPGGA,060804.00,3324.5809,N,11916.3401,W,1,09,1.0,9.0,M,-34.8,M,,*5D
$PYRTM,2024,122.255628685937,13.365276096076
$GPGGA,060805.00,3324.5819,N,11916.3422,W,1,09,1.0,10.4,M,-34.8,M,,*60
$PYRTM,2024,122.255640262697,13.365287672836
$GPGGA,060806.00,3324.5831,N,11916.3445,W,1,09,1.0,10.7,M,-34.8,M,,*6B
$PYRTM,2024,122.255651845694,13.365299255833
$GPGGA,060807.00,3324.5840,N,11916.3471,W,1,09,1.0,10.4,M,-34.8,M,,*68
$PYRTM,2024,122.255663404294,13.365310814433
$GPGGA,060808.00,3324.5847,N,11916.3496,W,1,09,1.0,10.1,M,-34.8,M,,*6C
$PYRTM,2024,122.255674982731,13.365322392870
$GPGGA,060809.00,3324.5854,N,11916.3519,W,1,09,1.0,10.5,M,-34.8,M,,*6D
$PYRTM,2024,122.255682385729,13.365329795868
$GPGGA,060810.00,3324.5865,N,11916.3544,W,1,09,1.0,10.7,M,-34.8,M,,*6D
$PYRTM,2024,122.255698143275,13.365345553414
$GPGGA,060811.00,3324.5877,N,11916.3570,W,1,09,1.0,10.5,M,-34.8,M,,*6A
$PYRTM,2024,122.255709705336,13.365357115475
$GPGGA,060812.00,3324.5885,N,11916.3593,W,1,09,1.0,10.7,M,-34.8,M,,*6B
$PYRTM,2024,122.255721286748,13.365368696887
$GPGGA,060813.00,3324.5890,N,11916.3615,W,1,09,1.0,11.5,M,-34.8,M,,*60
$PYRTM,2024,122.255732853137,13.365380263275
$GPGGA,060814.00,3324.5899,N,11916.3639,W,1,09,1.0,12.2,M,-34.8,M,,*64
$PYRTM,2024,122.255744435359,13.365391845498
$GPGGA,060815.00,3324.5910,N,11916.3665,W,1,09,1.0,12.0,M,-34.8,M,,*6E
$PYRTM,2024,122.255756001667,13.365403411806
$GPGGA,060816.00,3324.5920,N,11916.3692,W,1,09,1.0,11.2,M,-34.8,M,,*67
$PYRTM,2024,122.255763396574,13.365410806713
$GPGGA,060817.00,3324.5927,N,11916.3717,W,1,09,1.0,10.6,M,-34.8,M,,*68
$PYRTM,2024,122.255782043484,13.365429453623
$GPGGA,060818.00,3324.5934,N,11916.3737,W,1,09,1.0,11.5,M,-34.8,M,,*65
$PYRTM,2024,122.255790725058,13.365438135197
$GPGGA,060819.00,3324.5945,N,11916.3760,W,1,09,1.0,11.9,M,-34.8,M,,*6C
$PYRTM,2024,122.255798133854,13.365445543993
$GPGGA,060820.00,3324.5957,N,11916.3788,W,1,09,1.0,11.8,M,-34.8,M,,*62
$PYRTM,2024,122.255813871192,13.365461281331
$GPGGA,060821.00,3324.5964,N,11916.3811,W,1,09,1.0,11.8,M,-34.8,M,,*6C
$PYRTM,2024,122.255825441644,13.365472851782
$GPGGA,060822.00,3324.5968,N,11916.3831,W,1,09,1.0,12.3,M,-34.8,M,,*69
$PYRTM,2024,122.255832843102,13.365480253241
$GPGGA,060823.00,3324.5977,N,11916.3855,W,1,09,1.0,12.4,M,-34.8,M,,*63
$PYRTM,2024,122.255848594676,13.365496004815
$GPGGA,060824.00,3324.5989,N,11916.3881,W,1,09,1.0,11.6,M,-34.8,M,,*6D
$PYRTM,2024,122.255860169039,13.365507579178
$GPGGA,060825.00,3324.5997,N,11916.3902,W,1,09,1.0,11.4,M,-34.8,M,,*6B
$PYRTM,2024,122.255871742350,13.365519152488
$GPGGA,060826.00,3324.6003,N,11916.3922,W,1,09,1.0,11.9,M,-34.8,M,,*60
$PYRTM,2024,122.255883324687,13.365530734826
$GPGGA,060827.00,3324.6010,N,11916.3945,W,1,09,1.0,12.3,M,-34.8,M,,*6B
$PYRTM,2024,122.255894892951,13.365542303090
$GPGGA,060828.00,3324.6020,N,11916.3970,W,1,09,1.0,12.1,M,-34.8,M,,*63
$PYRTM,2024,122.255902288194,13.365549698345
$GPGGA,060829.00,3324.6029,N,11916.3995,W,1,09,1.0,11.4,M,-34.8,M,,*66
$PYRTM,2024,122.255918039884,13.365565450023
$GPGGA,060830.00,3324.6037,N,11916.4019,W,1,09,1.0,10.7,M,-34.8,M,,*69
$PYRTM,2024,122.255929621852,13.365577032002
$GPGGA,060831.00,3324.6043,N,11916.4043,W,1,09,1.0,10.5,M,-34.8,M,,*66
$PYRTM,2024,122.255941188970,13.365588599109
$GPGGA,060832.00,3324.6052,N,11916.4065,W,1,09,1.0,11.0,M,-34.8,M,,*65
$PYRTM,2024,122.255952761632,13.365600171771
$GPGGA,060833.00,3324.6063,N,11916.4086,W,1,09,1.0,11.7,M,-34.8,M,,*6C
$PYRTM,2024,122.255964336736,13.365611746875
$GPGGA,060834.00,3324.6072,N,11916.4111,W,1,09,1.0,12.0,M,-34.8,M,,*60
$PYRTM,2024,122.255975910162,13.365623320301
$GPGGA,060835.00,3324.6080,N,11916.4137,W,1,09,1.0,11.5,M,-34.8,M,,*6E
$PYRTM,2024,122.255987600150,13.365635010289
$GPGGA,060836.00,3324.6086,N,11916.4161,W,1,09,1.0,11.3,M,-34.8,M,,*6E
$PYRTM,2024,122.255999170613,13.365646580752
