$PYRTM,2024,127.333337240856,18.442984650995
$GPGGA,075959.00,3351.2036,N,11925.1159,W,1,08,1.0,12.4,M,-33.9,M,,*62
$PYRTM,2024,127.333344621875,18.442992032014
$GPGGA,080000.00,3351.2017,N,11925.1148,W,1,08,1.0,11.9,M,-33.9,M,,*60
$PYRTM,2024,127.333363270012,18.443010680150
$GPGGA,080001.00,3351.1999,N,11925.1135,W,1,08,1.0,11.6,M,-33.9,M,,*68
$PYRTM,2024,127.333371937917,18.443019348056
$GPGGA,080002.00,3351.1980,N,11925.1123,W,1,08,1.0,11.6,M,-33.9,M,,*64
$PYRTM,2024,127.333383408681,18.443030818819
$GPGGA,080003.00,3351.1963,N,11925.1110,W,1,08,1.0,12.0,M,-33.9,M,,*6D
$PYRTM,2024,127.333394973981,18.443042384120
$GPGGA,080004.00,3351.1945,N,11925.1098,W,1,08,1.0,12.5,M,-33.9,M,,*6A
$PYRTM,2024,127.333402377326,18.443049787477
$GPGGA,080005.00,3351.1927,N,11925.1086,W,1,08,1.0,12.9,M,-33.9,M,,*6C
$PYRTM,2024,127.333418119375,18.443065529514
$GPGGA,080006.00,3351.1909,N,11925.1073,W,1,08,1.0,12.9,M,-33.9,M,,*69
$PYRTM,2024,127.333429705532,18.443077115671
$GPGGA,080007.00,3351.1892,N,11925.1059,W,1,08,1.0,12.6,M,-33.9,M,,*6C
$PYRTM,2024,127.333441267025,18.443088677164
$GPGGA,080008.00,3351.1875,N,11925.1045,W,1,08,1.0,12.3,M,-33.9,M,,*62
$PYRTM,2024,127.333452855637,18.443100265775
$GPGGA,080009.00,3351.1858,N,11925.1031,W,1,08,1.0,12.1,M,-33.9,M,,*6D
$PYRTM,2024,127.333464414433,18.443111824572
$GPGGA,080010.00,3351.1841,N,11925.1018,W,1,08,1.0,12.2,M,-33.9,M,,*65
$PYRTM,2024,127.333476001759,18.443123411898
$GPGGA,080011.00,3351.1824,N,11925.1006,W,1,08,1.0,12.3,M,-33.9,M,,*69
$PYRTM,2024,127.333487565093,18.443134975231
$GPGGA,080012.00,3351.1806,N,11925.0994,W,1,08,1.0,12.3,M,-33.9,M,,*69
$PYRTM,2024,127.333499149931,18.443146560069
$GPGGA,080013.00,3351.1787,N,11925.0982,W,1,08,1.0,12.2,M,-33.9,M,,*68
$PYRTM,2024,127.333510714664,18.443158124803
$GPGGA,080014.00,3351.1769,N,11925.0968,W,1,08,1.0,12.0,M,-33.9,M,,*69
$PYRTM,2024,127.333518118970,18.443165529109
$GPGGA,080015.00,3351.1752,N,11925.0954,W,1,08,1.0,12.1,M,-33.9,M,,*6E
$PYRTM,2024,127.333533858565,18.443181268704
$GPGGA,080016.00,3351.1735,N,11925.0941,W,1,08,1.0,12.2,M,-33.9,M,,*6B
$PYRTM,2024,127.333545450046,18.443192860197
$GPGGA,080017.00,3351.1717,N,11925.0928,W,1,08,1.0,12.0,M,-33.9,M,,*67
$PYRTM,2024,127.333557007488,18.443204417627
$GPGGA,080018.00,3351.1697,N,11925.0917,W,1,08,1.0,11.6,M,-33.9,M,,*68
$PYRTM,2024,127.333568595255,18.443216005394
$GPGGA,080019.00,3351.1678,N,11925.0907,W,1,08,1.0,11.5,M,-33.9,M,,*6A
$PYRTM,2024,127.333580155312,18.443227565451
$GPGGA,080020.00,3351.1661,N,11925.0895,W,1,08,1.0,11.7,M,-33.9,M,,*60
$PYRTM,2024,127.333591738160,18.443239148299
$GPGGA,080021.00,3351.1644,N,11925.0880,W,1,08,1.0,12.1,M,-33.9,M,,*67
$PYRTM,2024,127.333603306100,18.443250716238
$GPGGA,080022.00,3351.1627,N,11925.0865,W,1,08,1.0,12.2,M,-33.9,M,,*69
$PYRTM,2024,127.333614892326,18.443262302465
$GPGGA,080023.00,3351.1608,N,11925.0853,W,1,08,1.0,12.2,M,-33.9,M,,*60
$PYRTM,2024,127.333626452500,18.443273862639
$GPGGA,080024.00,3351.1590,N,11925.0842,W,1,08,1.0,12.2,M,-33.9,M,,*65
$PYRTM,2024,127.333638040822,18.443285450961
$GPGGA,080025.00,3351.1572,N,11925.0831,W,1,08,1.0,12.3,M,-33.9,M,,*6D
$PYRTM,2024,127.333649601910,18.443297012049
$GPGGA,080026.00,3351.1555,N,11925.0818,W,1,08,1.0,12.1,M,-33.9,M,,*62
$PYRTM,2024,127.333661202315,18.443308612454
$GPGGA,080027.00,3351.1537,N,11925.0804,W,1,08,1.0,11.8,M,-33.9,M,,*60
$PYRTM,2024,127.333668582407,18.443315992546
$GPGGA,080028.00,3351.1520,N,11925.0789,W,1,08,1.0,11.8,M,-33.9,M,,*63
$PYRTM,2024,127.333684338889,18.443331749028
$GPGGA,080029.00,3351.1503,N,11925.0775,W,1,08,1.0,12.2,M,-33.9,M,,*69
$PYRTM,2024,127.333695897963,18.443343308113
$GPGGA,080030.00,3351.1486,N,11925.0762,W,1,08,1.0,12.6,M,-33.9,M,,*6F
$PYRTM,2024,127.333703305903,18.443350716042
$GPGGA,080031.00,3351.1467,N,11925.0750,W,1,08,1.0,12.6,M,-33.9,M,,*60
$PYRTM,2024,127.333721938090,18.443369348229
$GPGGA,080032.00,3351.1448,N,11925.0740,W,1,08,1.0,12.2,M,-33.9,M,,*6B
$PYRTM,2024,127.333730632500,18.443378042639
$GPGGA,080033.00,3351.1431,N,11925.0726,W,1,08,1.0,11.8,M,-33.9,M,,*6D
$PYRTM,2024,127.333742193426,18.443389603565
$GPGGA,080034.00,3351.1414,N,11925.0711,W,1,08,1.0,11.6,M,-33.9,M,,*67
$PYRTM,2024,127.333753780729,18.443401190880
$GPGGA,080035.00,3351.1397,N,11925.0696,W,1,08,1.0,11.5,M,-33.9,M,,*67
$PYRTM,2024,127.333765342650,18.443412752789
$GPGGA,080036.00,3351.1378,N,11925.0684,W,1,08,1.0,11.5,M,-33.9,M,,*66
$PYRTM,2024,127.333772749954,18.443420160093
$GPGGA,080037.00,3351.1360,N,11925.0673,W,1,08,1.0,11.7,M,-33.9,M,,*64
$PYRTM,2024,127.333788491076,18.443435901215
$GPGGA,080038.00,3351.1341,N,11925.0663,W,1,08,1.0,11.7,M,-33.9,M,,*69
$PYRTM,2024,127.333800077581,18.443447487731
$GPGGA,080039.00,3351.1322,N,11925.0651,W,1,08,1.0,11.5,M,-33.9,M,,*6E
$PYRTM,2024,127.333807473542,18.443454883681
$GPGGA,080040.00,3351.1304,N,11925.0638,W,1,08,1.0,11.3,M,-33.9,M,,*6D
$PYRTM,2024,127.333823225868,18.443470636007
$GPGGA,080041.00,3351.1286,N,11925.0625,W,1,08,1.0,11.2,M,-33.9,M,,*6A
$PYRTM,2024,127.333834787361,18.443482197500
$GPGGA,080042.00,3351.1269,N,11925.0612,W,1,08,1.0,11.4,M,-33.9,M,,*6A
$PYRTM,2024,127.333846376505,18.443493786644
$GPGGA,080043.00,3351.1251,N,11925.0598,W,1,08,1.0,11.9,M,-33.9,M,,*6C
$PYRTM,2024,127.333857935324,18.443505345463
$GPGGA,080044.00,3351.1233,N,11925.0586,W,1,08,1.0,12.3,M,-33.9,M,,*69
$PYRTM,2024,127.333869536539,18.443516946678
$GPGGA,080045.00,3351.1214,N,11925.0574,W,1,08,1.0,12.3,M,-33.9,M,,*60
$PYRTM,2024,127.333876916539,18.443524326678
$GPGGA,080046.00,3351.1196,N,11925.0562,W,1,08,1.0,12.1,M,-33.9,M,,*6F
$PYRTM,2024,127.333892673900,18.443540084039
$GPGGA,080047.00,3351.1180,N,11925.0546,W,1,08,1.0,11.8,M,-33.9,M,,*65
$PYRTM,2024,127.333904234398,18.443551644537
$GPGGA,080048.00,3351.1164,N,11925.0531,W,1,08,1.0,11.6,M,-33.9,M,,*6E
$PYRTM,2024,127.333911640810,18.443559050949
$GPGGA,080049.00,3351.1146,N,11925.0518,W,1,08,1.0,11.6,M,-33.9,M,,*64
$PYRTM,2024,127.333927380116,18.443574790255
$GPGGA,080050.00,3351.1128,N,11925.0507,W,1,08,1.0,11.6,M,-33.9,M,,*6A
$PYRTM,2024,127.333938966400,18.443586376551
$GPGGA,080051.00,3351.1109,N,11925.0497,W,1,08,1.0,11.5,M,-33.9,M,,*63
$PYRTM,2024,127.333946362500,18.443593772639
$GPGGA,080052.00,3351.1091,N,11925.0484,W,1,08,1.0,11.5,M,-33.9,M,,*62
$PYRTM,2024,127.333962109780,18.443609519919
$GPGGA,080053.00,3351.1074,N,11925.0468,W,1,08,1.0,11.7,M,-33.9,M,,*68
$PYRTM,2024,127.333973677697,18.443621087847
$GPGGA,080054.00,3351.1057,N,11925.0453,W,1,08,1.0,11.9,M,-33.9,M,,*68
$PYRTM,2024,127.333985263218,18.443632673356
$GPGGA,080055.00,3351.1038,N,11925.0441,W,1,08,1.0,11.9,M,-33.9,M,,*63
$PYRTM,2024,127.333996824850,18.443644234988
$GPGGA,080056.00,3351.1019,N,11925.0432,W,1,08,1.0,11.8,M,-33.9,M,,*66
$PYRTM,2024,127.334008414826,18.443655824965
$GPGGA,080057.00,3351.1000,N,11925.0421,W,1,08,1.0,11.7,M,-33.9,M,,*62
$PYRTM,2024,127.334015807315,18.443663217454
$GPGGA,080058.00,3351.0983,N,11925.0407,W,1,08,1.0,11.7,M,-33.9,M,,*6A
$PYRTM,2024,127.334031573715,18.443678983854
$GPGGA,080059.00,3351.0966,N,11925.0393,W,1,08,1.0,11.6,M,-33.9,M,,*6B
$PYRTM,2024,127.334043119595,18.443690529734
$GPGGA,080100.00,3351.0948,N,11925.0380,W,1,08,1.0,11.6,M,-33.9,M,,*68
$PYRTM,2024,127.334050528657,18.443697938796
$GPGGA,080101.00,3351.0928,N,11925.0369,W,1,08,1.0,11.6,M,-33.9,M,,*68
$PYRTM,2024,127.334062334456,18.443709744606
$GPGGA,080102.00,3351.0910,N,11925.0357,W,1,08,1.0,11.8,M,-33.9,M,,*63
$PYRTM,2024,127.334080749722,18.443728159873
$GPGGA,080103.00,3351.0893,N,11925.0343,W,1,08,1.0,12.0,M,-33.9,M,,*66
$PYRTM,2024,127.334089416829,18.443736826968
$GPGGA,080104.00,3351.0876,N,11925.0329,W,1,08,1.0,12.2,M,-33.9,M,,*64
$PYRTM,2024,127.334100999005,18.443748409144
$GPGGA,080105.00,3351.0859,N,11925.0315,W,1,08,1.0,12.3,M,-33.9,M,,*66
$PYRTM,2024,127.334112566956,18.443759977095
$GPGGA,080106.00,3351.0840,N,11925.0303,W,1,08,1.0,12.0,M,-33.9,M,,*69
$PYRTM,2024,127.334119973380,18.443767383519
$GPGGA,080107.00,3351.0821,N,11925.0290,W,1,08,1.0,11.7,M,-33.9,M,,*60
$PYRTM,2024,127.334135714664,18.443783124803
$GPGGA,080108.00,3351.0805,N,11925.0276,W,1,08,1.0,11.5,M,-33.9,M,,*63
$PYRTM,2024,127.334147300544,18.443794710683
$GPGGA,080109.00,3351.0788,N,11925.0263,W,1,08,1.0,11.6,M,-33.9,M,,*6F
$PYRTM,2024,127.334154695671,18.443802105810
$GPGGA,080110.00,3351.0770,N,11925.0250,W,1,08,1.0,11.8,M,-33.9,M,,*6E
$PYRTM,2024,127.334170449190,18.443817859340
$GPGGA,080111.00,3351.0752,N,11925.0238,W,1,08,1.0,11.9,M,-33.9,M,,*60
$PYRTM,2024,127.334182010787,18.443829420926
$GPGGA,080112.00,3351.0733,N,11925.0225,W,1,08,1.0,12.2,M,-33.9,M,,*60
$PYRTM,2024,127.334189418299,18.443836828437
$GPGGA,080113.00,3351.0716,N,11925.0213,W,1,08,1.0,12.4,M,-33.9,M,,*65
$PYRTM,2024,127.334205159444,18.443852569595
$GPGGA,080114.00,3351.0697,N,11925.0201,W,1,08,1.0,12.3,M,-33.9,M,,*6E
$PYRTM,2024,127.334216745440,18.443864155590
$GPGGA,080115.00,3351.0679,N,11925.0187,W,1,08,1.0,12.1,M,-33.9,M,,*60
$PYRTM,2024,127.334224154745,18.443871564884
$GPGGA,080116.00,3351.0662,N,11925.0172,W,1,08,1.0,11.9,M,-33.9,M,,*68
$PYRTM,2024,127.334239893692,18.443887303831
$GPGGA,080117.00,3351.0644,N,11925.0159,W,1,08,1.0,11.8,M,-33.9,M,,*65
$PYRTM,2024,127.334251454861,18.443898865000
$GPGGA,080118.00,3351.0625,N,11925.0148,W,1,08,1.0,11.7,M,-33.9,M,,*62
$PYRTM,2024,127.334263042882,18.443910453032
$GPGGA,080119.00,3351.0607,N,11925.0138,W,1,08,1.0,11.8,M,-33.9,M,,*6B
$PYRTM,2024,127.334274604144,18.443922014282
$GPGGA,080120.00,3351.0588,N,11925.0125,W,1,08,1.0,11.8,M,-33.9,M,,*69
$PYRTM,2024,127.334286193889,18.443933604028
$GPGGA,080121.00,3351.0571,N,11925.0110,W,1,08,1.0,11.7,M,-33.9,M,,*67
$PYRTM,2024,127.334297751528,18.443945161667
$GPGGA,080122.00,3351.0554,N,11925.0096,W,1,08,1.0,11.9,M,-33.9,M,,*62
$PYRTM,2024,127.334309338646,18.443956748785
$GPGGA,080123.00,3351.0536,N,11925.0084,W,1,08,1.0,12.2,M,-33.9,M,,*6C
$PYRTM,2024,127.334320899919,18.443968310058
$GPGGA,080124.00,3351.0518,N,11925.0073,W,1,08,1.0,12.3,M,-33.9,M,,*6E
$PYRTM,2024,127.334332489687,18.443979899826
$GPGGA,080125.00,3351.0499,N,11925.0060,W,1,08,1.0,12.2,M,-33.9,M,,*64
$PYRTM,2024,127.334344047338,18.443991457477
$GPGGA,080126.00,3351.0483,N,11925.0046,W,1,08,1.0,12.3,M,-33.9,M,,*69
$PYRTM,2024,127.334355639769,18.444003049907
$GPGGA,080127.00,3351.0467,N,11925.0031,W,1,08,1.0,12.4,M,-33.9,M,,*65
$PYRTM,2024,127.334363031400,18.444010441539
$GPGGA,080128.00,3351.0449,N,11925.0018,W,1,08,1.0,12.4,M,-33.9,M,,*6D
$PYRTM,2024,127.334378786343,18.444026196481
$GPGGA,080129.00,3351.0430,N,11925.0007,W,1,08,1.0,12.1,M,-33.9,M,,*69
$PYRTM,2024,127.334390345382,18.444037755521
$GPGGA,080130.00,3351.0411,N,11924.9996,W,1,08,1.0,11.9,M,-33.9,M,,*60
$PYRTM,2024,127.334401931296,18.444049341435
$GPGGA,080131.00,3351.0394,N,11924.9982,W,1,08,1.0,11.9,M,-33.9,M,,*6E
$PYRTM,2024,127.334413492847,18.444060902986
$GPGGA,080132.00,3351.0376,N,11924.9966,W,1,08,1.0,12.1,M,-33.9,M,,*60
$PYRTM,2024,127.334420901007,18.444068311146
$GPGGA,080133.00,3351.0359,N,11924.9952,W,1,08,1.0,12.2,M,-33.9,M,,*68
$PYRTM,2024,127.334439535081,18.444086945220
$GPGGA,080134.00,3351.0340,N,11924.9941,W,1,08,1.0,12.2,M,-33.9,M,,*65
$PYRTM,2024,127.334448228264,18.444095638414
$GPGGA,080135.00,3351.0321,N,11924.9931,W,1,08,1.0,12.2,M,-33.9,M,,*64
$PYRTM,2024,127.334459791134,18.444107201285
$GPGGA,080136.00,3351.0302,N,11924.9919,W,1,08,1.0,11.9,M,-33.9,M,,*64
$PYRTM,2024,127.334467197326,18.444114607465
$GPGGA,080137.00,3351.0285,N,11924.9905,W,1,08,1.0,11.6,M,-33.9,M,,*69
$PYRTM,2024,127.334482936782,18.444130346933
$GPGGA,080138.00,3351.0268,N,11924.9889,W,1,08,1.0,11.5,M,-33.9,M,,*63
$PYRTM,2024,127.334494524838,18.444141934977
$GPGGA,080139.00,3351.0250,N,11924.9876,W,1,08,1.0,11.6,M,-33.9,M,,*6A
$PYRTM,2024,127.334506085243,18.444153495382
$GPGGA,080140.00,3351.0232,N,11924.9865,W,1,08,1.0,11.9,M,-33.9,M,,*6D
$PYRTM,2024,127.334517674873,18.444165085012
$GPGGA,080141.00,3351.0215,N,11924.9852,W,1,08,1.0,12.3,M,-33.9,M,,*64
$PYRTM,2024,127.334529234306,18.444176644456
$GPGGA,080142.00,3351.0198,N,11924.9838,W,1,08,1.0,12.5,M,-33.9,M,,*6B
$PYRTM,2024,127.334536641412,18.444184051551
$GPGGA,080143.00,3351.0180,N,11924.9823,W,1,08,1.0,12.2,M,-33.9,M,,*6E
$PYRTM,2024,127.334552382859,18.444199793009
$GPGGA,080144.00,3351.0162,N,11924.9809,W,1,08,1.0,11.9,M,-33.9,M,,*65
$PYRTM,2024,127.334563969826,18.444211379965
$GPGGA,080145.00,3351.0145,N,11924.9796,W,1,08,1.0,11.9,M,-33.9,M,,*68
$PYRTM,2024,127.334575532164,18.444222942303
$GPGGA,080146.00,3351.0127,N,11924.9783,W,1,08,1.0,12.1,M,-33.9,M,,*60
$PYRTM,2024,127.334587117569,18.444234527708
$GPGGA,080147.00,3351.0109,N,11924.9770,W,1,08,1.0,12.0,M,-33.9,M,,*60
$PYRTM,2024,127.334594512384,18.444241922523
$GPGGA,080148.00,3351.0091,N,11924.9758,W,1,08,1.0,11.7,M,-33.9,M,,*61
$PYRTM,2024,127.334606316250,18.444253726389
$GPGGA,080149.00,3351.0073,N,11924.9746,W,1,08,1.0,11.6,M,-33.9,M,,*62
$PYRTM,2024,127.334621825845,18.444269235984
$GPGGA,080150.00,3351.0056,N,11924.9733,W,1,08,1.0,11.5,M,-33.9,M,,*6C
$PYRTM,2024,127.334633412836,18.444280822975
$GPGGA,080151.00,3351.0038,N,11924.9718,W,1,08,1.0,11.4,M,-33.9,M,,*6D
$PYRTM,2024,127.334640807419,18.444288217558
$GPGGA,080152.00,3351.0020,N,11924.9705,W,1,08,1.0,11.4,M,-33.9,M,,*6B
$PYRTM,2024,127.334656562350,18.444303972488
$GPGGA,080153.00,3351.0000,N,11924.9695,W,1,08,1.0,11.7,M,-33.9,M,,*63
$PYRTM,2024,127.334668124306,18.444315534444
$GPGGA,080154.00,3350.9982,N,11924.9684,W,1,08,1.0,12.0,M,-33.9,M,,*6B
$PYRTM,2024,127.334675530787,18.444322940926
$GPGGA,080155.00,3350.9964,N,11924.9671,W,1,08,1.0,12.1,M,-33.9,M,,*69
$PYRTM,2024,127.334691270729,18.444338680868
$GPGGA,080156.00,3350.9946,N,11924.9657,W,1,08,1.0,11.9,M,-33.9,M,,*65
$PYRTM,2024,127.334702861678,18.444350271829
$GPGGA,080157.00,3350.9929,N,11924.9642,W,1,08,1.0,11.7,M,-33.9,M,,*67
$PYRTM,2024,127.334714421273,18.444361831412
$GPGGA,080158.00,3350.9912,N,11924.9628,W,1,08,1.0,11.6,M,-33.9,M,,*6D
$PYRTM,2024,127.334726008796,18.444373418935
$GPGGA,080159.00,3350.9894,N,11924.9615,W,1,08,1.0,12.0,M,-33.9,M,,*68
$PYRTM,2024,127.334737569456,18.444384979595
$GPGGA,080200.00,3350.9875,N,11924.9604,W,1,08,1.0,12.3,M,-33.9,M,,*6B
$PYRTM,2024,127.334749156817,18.444396566956
$GPGGA,080201.00,3350.9857,N,11924.9592,W,1,08,1.0,12.6,M,-33.9,M,,*63
$PYRTM,2024,127.334760717176,18.444408127315
$GPGGA,080202.00,3350.9840,N,11924.9579,W,1,08,1.0,12.7,M,-33.9,M,,*62
$PYRTM,2024,127.334772418090,18.444419828229
$GPGGA,080203.00,3350.9823,N,11924.9564,W,1,08,1.0,12.5,M,-33.9,M,,*68
$PYRTM,2024,127.334779698449,18.444427108588
$GPGGA,080204.00,3350.9807,N,11924.9549,W,1,08,1.0,12.2,M,-33.9,M,,*61
$PYRTM,2024,127.334798345579,18.444445755718
$GPGGA,080205.00,3350.9790,N,11924.9535,W,1,08,1.0,11.9,M,-33.9,M,,*62
$PYRTM,2024,127.334807128611,18.444454538750
$GPGGA,080206.00,3350.9772,N,11924.9523,W,1,08,1.0,11.9,M,-33.9,M,,*6A
$PYRTM,2024,127.334818715370,18.444466125509
$GPGGA,080207.00,3350.9753,N,11924.9511,W,1,08,1.0,12.0,M,-33.9,M,,*63
$PYRTM,2024,127.334830162963,18.444477573102
$GPGGA,080208.00,3350.9735,N,11924.9499,W,1,08,1.0,12.1,M,-33.9,M,,*6C
$PYRTM,2024,127.334841750231,18.444489160370
$GPGGA,080209.00,3350.9716,N,11924.9488,W,1,08,1.0,12.2,M,-33.9,M,,*6F
$PYRTM,2024,127.334849142975,18.444496553113
$GPGGA,080210.00,3350.9699,N,11924.9475,W,1,08,1.0,12.2,M,-33.9,M,,*63
$PYRTM,2024,127.334864899074,18.444512309213
$GPGGA,080211.00,3350.9682,N,11924.9460,W,1,08,1.0,11.9,M,-33.9,M,,*64
$PYRTM,2024,127.334876457454,18.444523867593
$GPGGA,080212.00,3350.9664,N,11924.9447,W,1,08,1.0,11.7,M,-33.9,M,,*64
$PYRTM,2024,127.334888045093,18.444535455231
$GPGGA,080213.00,3350.9645,N,11924.9437,W,1,08,1.0,11.5,M,-33.9,M,,*63
$PYRTM,2024,127.334899605556,18.444547015694
$GPGGA,080214.00,3350.9625,N,11924.9429,W,1,08,1.0,11.5,M,-33.9,M,,*6D
$PYRTM,2024,127.334911191655,18.444558601794
$GPGGA,080215.00,3350.9607,N,11924.9414,W,1,08,1.0,11.8,M,-33.9,M,,*6F
$PYRTM,2024,127.334918602940,18.444566013079
$GPGGA,080216.00,3350.9591,N,11924.9397,W,1,08,1.0,12.2,M,-33.9,M,,*65
$PYRTM,2024,127.334934340775,18.444581750914
$GPGGA,080217.00,3350.9573,N,11924.9385,W,1,08,1.0,12.7,M,-33.9,M,,*6E
$PYRTM,2024,127.334945901563,18.444593311713
$GPGGA,080218.00,3350.9554,N,11924.9375,W,1,08,1.0,12.9,M,-33.9,M,,*65
$PYRTM,2024,127.334957489618,18.444604899757
$GPGGA,080219.00,3350.9535,N,11924.9364,W,1,08,1.0,12.9,M,-33.9,M,,*63
$PYRTM,2024,127.334969049491,18.444616459630
$GPGGA,080220.00,3350.9519,N,11924.9350,W,1,08,1.0,12.7,M,-33.9,M,,*6E
$PYRTM,2024,127.334980636007,18.444628046146
$GPGGA,080221.00,3350.9503,N,11924.9334,W,1,08,1.0,12.2,M,-33.9,M,,*63
$PYRTM,2024,127.334992198542,18.444639608681
$GPGGA,080222.00,3350.9486,N,11924.9321,W,1,08,1.0,11.9,M,-33.9,M,,*60
$PYRTM,2024,127.335003787951,18.444651198090
$GPGGA,080223.00,3350.9469,N,11924.9309,W,1,08,1.0,12.1,M,-33.9,M,,*61
$PYRTM,2024,127.335015346956,18.444662757095
$GPGGA,080224.00,3350.9451,N,11924.9297,W,1,08,1.0,12.4,M,-33.9,M,,*6E
$PYRTM,2024,127.335026936354,18.444674346493
$GPGGA,080225.00,3350.9434,N,11924.9283,W,1,08,1.0,12.6,M,-33.9,M,,*6B
$PYRTM,2024,127.335038493819,18.444685903958
$GPGGA,080226.00,3350.9417,N,11924.9270,W,1,08,1.0,12.3,M,-33.9,M,,*60
$PYRTM,2024,127.335050086863,18.444697497002
$GPGGA,080227.00,3350.9399,N,11924.9258,W,1,08,1.0,12.0,M,-33.9,M,,*69
$PYRTM,2024,127.335057477824,18.444704887975
$GPGGA,080228.00,3350.9381,N,11924.9247,W,1,08,1.0,11.8,M,-33.9,M,,*6A
$PYRTM,2024,127.335073229410,18.444720639549
$GPGGA,080229.00,3350.9364,N,11924.9232,W,1,08,1.0,11.8,M,-33.9,M,,*62
$PYRTM,2024,127.335084790822,18.444732200961
$GPGGA,080230.00,3350.9347,N,11924.9217,W,1,08,1.0,12.0,M,-33.9,M,,*67
$PYRTM,2024,127.335096378900,18.444743789039
$GPGGA,080231.00,3350.9329,N,11924.9205,W,1,08,1.0,12.3,M,-33.9,M,,*6E
$PYRTM,2024,127.335107939942,18.444755350081
$GPGGA,080232.00,3350.9310,N,11924.9196,W,1,08,1.0,12.5,M,-33.9,M,,*68
$PYRTM,2024,127.335119526181,18.444766936319
$GPGGA,080233.00,3350.9292,N,11924.9186,W,1,08,1.0,12.5,M,-33.9,M,,*63
$PYRTM,2024,127.335131087963,18.444778498113
$GPGGA,080234.00,3350.9274,N,11924.9172,W,1,08,1.0,12.1,M,-33.9,M,,*63
$PYRTM,2024,127.335138494711,18.444785904850
$GPGGA,080235.00,3350.9258,N,11924.9158,W,1,08,1.0,11.9,M,-33.9,M,,*6F
$PYRTM,2024,127.335157129421,18.444804539560
$GPGGA,080236.00,3350.9241,N,11924.9144,W,1,08,1.0,12.0,M,-33.9,M,,*63
$PYRTM,2024,127.335168716076,18.444816126215
$GPGGA,080237.00,3350.9224,N,11924.9133,W,1,08,1.0,12.3,M,-33.9,M,,*62
$PYRTM,2024,127.335180277407,18.444827687546
$GPGGA,080238.00,3350.9206,N,11924.9121,W,1,08,1.0,12.7,M,-33.9,M,,*6A
$PYRTM,2024,127.335188985914,18.444836396053
$GPGGA,080239.00,3350.9188,N,11924.9108,W,1,08,1.0,12.9,M,-33.9,M,,*6B
$PYRTM,2024,127.335200533137,18.444847943275
$GPGGA,080240.00,3350.9171,N,11924.9095,W,1,08,1.0,12.8,M,-33.9,M,,*67
$PYRTM,2024,127.335212119583,18.444859529734
$GPGGA,080241.00,3350.9155,N,11924.9082,W,1,08,1.0,12.6,M,-33.9,M,,*68
$PYRTM,2024,127.335223679479,18.444871089630
$GPGGA,080242.00,3350.9138,N,11924.9067,W,1,08,1.0,12.3,M,-33.9,M,,*6E
$PYRTM,2024,127.335235267917,18.444882678056
$GPGGA,080243.00,3350.9122,N,11924.9052,W,1,08,1.0,12.0,M,-33.9,M,,*61
$PYRTM,2024,127.335246829988,18.444894240127
$GPGGA,080244.00,3350.9104,N,11924.9039,W,1,08,1.0,11.8,M,-33.9,M,,*64
$PYRTM,2024,127.335258416678,18.444905826829
$GPGGA,080245.00,3350.9086,N,11924.9027,W,1,08,1.0,12.0,M,-33.9,M,,*6A
$PYRTM,2024,127.335269978484,18.444917388634
$GPGGA,080246.00,3350.9067,N,11924.9017,W,1,08,1.0,12.2,M,-33.9,M,,*67
$PYRTM,2024,127.335281564062,18.444928974213
$GPGGA,080247.00,3350.9049,N,11924.9007,W,1,08,1.0,12.3,M,-33.9,M,,*6A
$PYRTM,2024,127.335293124063,18.444940534201
$GPGGA,080248.00,3350.9032,N,11924.8992,W,1,08,1.0,12.3,M,-33.9,M,,*6D
$PYRTM,2024,127.335304711597,18.444952121736
$GPGGA,080249.00,3350.9015,N,11924.8976,W,1,08,1.0,12.4,M,-33.9,M,,*64
$PYRTM,2024,127.335316273669,18.444963683808
$GPGGA,080250.00,3350.8997,N,11924.8962,W,1,08,1.0,12.4,M,-33.9,M,,*6B
$PYRTM,2024,127.335327860810,18.444975270961
$GPGGA,080251.00,3350.8979,N,11924.8951,W,1,08,1.0,12.3,M,-33.9,M,,*6D
$PYRTM,2024,127.335339419919,18.444986830058
$GPGGA,080252.00,3350.8961,N,11924.8941,W,1,08,1.0,12.5,M,-33.9,M,,*60
$PYRTM,2024,127.335351010868,18.444998421007
$GPGGA,080253.00,3350.8943,N,11924.8929,W,1,08,1.0,12.6,M,-33.9,M,,*6C
$PYRTM,2024,127.335362570822,18.445009980961
$GPGGA,080254.00,3350.8926,N,11924.8915,W,1,08,1.0,12.5,M,-33.9,M,,*64
$PYRTM,2024,127.335369977650,18.445017387789
$GPGGA,080255.00,3350.8910,N,11924.8900,W,1,08,1.0,12.4,M,-33.9,M,,*65
$PYRTM,2024,127.335385717604,18.445033127755
$GPGGA,080256.00,3350.8892,N,11924.8887,W,1,08,1.0,12.2,M,-33.9,M,,*65
$PYRTM,2024,127.335397306030,18.445044716169
$GPGGA,080257.00,3350.8873,N,11924.8876,W,1,08,1.0,12.1,M,-33.9,M,,*66
$PYRTM,2024,127.335408866204,18.445056276343
$GPGGA,080258.00,3350.8857,N,11924.8862,W,1,08,1.0,12.4,M,-33.9,M,,*6F
$PYRTM,2024,127.335420456887,18.445067867037
$GPGGA,080259.00,3350.8840,N,11924.8848,W,1,08,1.0,12.8,M,-33.9,M,,*6C
$PYRTM,2024,127.335432015255,18.445079425394
$GPGGA,080300.00,3350.8823,N,11924.8835,W,1,08,1.0,12.8,M,-33.9,M,,*6E
$PYRTM,2024,127.335443602037,18.445091012176
$GPGGA,080301.00,3350.8804,N,11924.8823,W,1,08,1.0,12.5,M,-33.9,M,,*60
$PYRTM,2024,127.335455163611,18.445102573750
$GPGGA,080302.00,3350.8786,N,11924.8811,W,1,08,1.0,12.3,M,-33.9,M,,*61
$PYRTM,2024,127.335466750058,18.445114160197
$GPGGA,080303.00,3350.8769,N,11924.8797,W,1,08,1.0,12.2,M,-33.9,M,,*61
$PYRTM,2024,127.335478311123,18.445125721262
$GPGGA,080304.00,3350.8751,N,11924.8782,W,1,08,1.0,12.2,M,-33.9,M,,*69
$PYRTM,2024,127.335489897720,18.445137307870
$GPGGA,080305.00,3350.8733,N,11924.8770,W,1,08,1.0,12.3,M,-33.9,M,,*60
$PYRTM,2024,127.335497294572,18.445144704711
$GPGGA,080306.00,3350.8714,N,11924.8759,W,1,08,1.0,12.3,M,-33.9,M,,*6D
$PYRTM,2024,127.335515953542,18.445163363681
$GPGGA,080307.00,3350.8696,N,11924.8747,W,1,08,1.0,12.4,M,-33.9,M,,*6F
$PYRTM,2024,127.335524607153,18.445172017292
$GPGGA,080308.00,3350.8678,N,11924.8735,W,1,08,1.0,12.3,M,-33.9,M,,*62
$PYRTM,2024,127.335532015359,18.445179425509
$GPGGA,080309.00,3350.8659,N,11924.8722,W,1,08,1.0,12.1,M,-33.9,M,,*64
$PYRTM,2024,127.335550652813,18.445198062951
$GPGGA,080310.00,3350.8642,N,11924.8708,W,1,08,1.0,12.2,M,-33.9,M,,*6D
$PYRTM,2024,127.335562249769,18.445209659919
$GPGGA,080311.00,3350.8625,N,11924.8693,W,1,08,1.0,12.4,M,-33.9,M,,*68
$PYRTM,2024,127.335570904583,18.445218314722
$GPGGA,080312.00,3350.8607,N,11924.8681,W,1,08,1.0,12.6,M,-33.9,M,,*6A
$PYRTM,2024,127.335582489931,18.445229900069
$GPGGA,080313.00,3350.8587,N,11924.8671,W,1,08,1.0,12.6,M,-33.9,M,,*6F
$PYRTM,2024,127.335594053437,18.445241463576
$GPGGA,080314.00,3350.8569,N,11924.8660,W,1,08,1.0,12.7,M,-33.9,M,,*69
$PYRTM,2024,127.335605638657,18.445253048796
$GPGGA,080315.00,3350.8552,N,11924.8645,W,1,08,1.0,12.7,M,-33.9,M,,*67
$PYRTM,2024,127.335617199109,18.445264609248
$GPGGA,080316.00,3350.8536,N,11924.8628,W,1,08,1.0,12.6,M,-33.9,M,,*6C
$PYRTM,2024,127.335628782604,18.445276192743
$GPGGA,080317.00,3350.8519,N,11924.8613,W,1,08,1.0,12.5,M,-33.9,M,,*6B
$PYRTM,2024,127.335640349572,18.445287759722
$GPGGA,080318.00,3350.8501,N,11924.8603,W,1,08,1.0,12.6,M,-33.9,M,,*6F
$PYRTM,2024,127.335647757176,18.445295167315
$GPGGA,080319.00,3350.8482,N,11924.8592,W,1,08,1.0,12.7,M,-33.9,M,,*6E
$PYRTM,2024,127.335663497222,18.445310907361
$GPGGA,080320.00,3350.8463,N,11924.8580,W,1,08,1.0,12.6,M,-33.9,M,,*69
$PYRTM,2024,127.335675083090,18.445322493229
$GPGGA,080321.00,3350.8446,N,11924.8566,W,1,08,1.0,12.5,M,-33.9,M,,*64
$PYRTM,2024,127.335682480845,18.445329890984
$GPGGA,080322.00,3350.8428,N,11924.8552,W,1,08,1.0,12.3,M,-33.9,M,,*6E
$PYRTM,2024,127.335698246690,18.445345656829
$GPGGA,080323.00,3350.8410,N,11924.8539,W,1,08,1.0,12.1,M,-33.9,M,,*6B
$PYRTM,2024,127.335709794919,18.445357205069
$GPGGA,080324.00,3350.8392,N,11924.8527,W,1,08,1.0,12.1,M,-33.9,M,,*6E
$PYRTM,2024,127.335721380150,18.445368790289
$GPGGA,080325.00,3350.8374,N,11924.8514,W,1,08,1.0,12.2,M,-33.9,M,,*64
$PYRTM,2024,127.335732942419,18.445380352558
$GPGGA,080326.00,3350.8356,N,11924.8501,W,1,08,1.0,12.5,M,-33.9,M,,*64
$PYRTM,2024,127.335744529201,18.445391939340
$GPGGA,080327.00,3350.8337,N,11924.8489,W,1,08,1.0,12.6,M,-33.9,M,,*60
$PYRTM,2024,127.335756091331,18.445403501470
$GPGGA,080328.00,3350.8317,N,11924.8478,W,1,08,1.0,12.7,M,-33.9,M,,*62
$PYRTM,2024,127.335767676516,18.445415086655
$GPGGA,080329.00,3350.8299,N,11924.8466,W,1,08,1.0,12.7,M,-33.9,M,,*6B
$PYRTM,2024,127.335779240382,18.445426650521
$GPGGA,080330.00,3350.8282,N,11924.8451,W,1,08,1.0,12.7,M,-33.9,M,,*6D
$PYRTM,2024,127.335786645648,18.445434055787
$GPGGA,080331.00,3350.8265,N,11924.8436,W,1,08,1.0,12.6,M,-33.9,M,,*65
$PYRTM,2024,127.335802385683,18.445449795833
$GPGGA,080332.00,3350.8247,N,11924.8423,W,1,08,1.0,12.5,M,-33.9,M,,*61
$PYRTM,2024,127.335813974896,18.445461385046
$GPGGA,080333.00,3350.8229,N,11924.8411,W,1,08,1.0,12.4,M,-33.9,M,,*68
$PYRTM,2024,127.335825534039,18.445472944178
$GPGGA,080334.00,3350.8211,N,11924.8399,W,1,08,1.0,12.5,M,-33.9,M,,*62
$PYRTM,2024,127.335837126227,18.445484536377
$GPGGA,080335.00,3350.8194,N,11924.8385,W,1,08,1.0,12.6,M,-33.9,M,,*63
$PYRTM,2024,127.335848683148,18.445496093287
$GPGGA,080336.00,3350.8176,N,11924.8371,W,1,08,1.0,12.5,M,-33.9,M,,*64
$PYRTM,2024,127.335856090775,18.445503500914
$GPGGA,080337.00,3350.8158,N,11924.8357,W,1,08,1.0,12.5,M,-33.9,M,,*6D
$PYRTM,2024,127.335874725093,18.445522135231
$GPGGA,080338.00,3350.8139,N,11924.8345,W,1,08,1.0,12.4,M,-33.9,M,,*67
$PYRTM,2024,127.335883418889,18.445530829039
$GPGGA,080339.00,3350.8121,N,11924.8332,W,1,08,1.0,12.3,M,-33.9,M,,*68
$PYRTM,2024,127.335894980880,18.445542391019
$GPGGA,080340.00,3350.8103,N,11924.8320,W,1,08,1.0,12.2,M,-33.9,M,,*64
$PYRTM,2024,127.335906566921,18.445553977072
$GPGGA,080341.00,3350.8085,N,11924.8306,W,1,08,1.0,12.0,M,-33.9,M,,*6C
$PYRTM,2024,127.335913969514,18.445561379664
$GPGGA,080342.00,3350.8068,N,11924.8291,W,1,08,1.0,12.1,M,-33.9,M,,*62
$PYRTM,2024,127.335929714595,18.445577124734
$GPGGA,080343.00,3350.8050,N,11924.8277,W,1,08,1.0,12.3,M,-33.9,M,,*62
$PYRTM,2024,127.335941275625,18.445588685764
$GPGGA,080344.00,3350.8032,N,11924.8265,W,1,08,1.0,12.4,M,-33.9,M,,*65
$PYRTM,2024,127.335952864549,18.445600274688
$GPGGA,080345.00,3350.8012,N,11924.8254,W,1,08,1.0,12.4,M,-33.9,M,,*64
$PYRTM,2024,127.335960258750,18.445607668889
$GPGGA,080346.00,3350.7993,N,11924.8242,W,1,08,1.0,12.5,M,-33.9,M,,*6E
$PYRTM,2024,127.335976010590,18.445623420741
$GPGGA,080347.00,3350.7977,N,11924.8227,W,1,08,1.0,12.7,M,-33.9,M,,*64
$PYRTM,2024,127.335987573507,18.445634983646
$GPGGA,080348.00,3350.7959,N,11924.8213,W,1,08,1.0,12.7,M,-33.9,M,,*60
$PYRTM,2024,127.335994981968,18.445642392106
$GPGGA,080349.00,3350.7941,N,11924.8200,W,1,08,1.0,12.6,M,-33.9,M,,*6B
$PYRTM,2024,127.336010721053,18.445658131192
$GPGGA,080350.00,3350.7922,N,11924.8187,W,1,08,1.0,12.2,M,-33.9,M,,*6E
$PYRTM,2024,127.336018130347,18.445665540498
$GPGGA,080351.00,3350.7904,N,11924.8175,W,1,08,1.0,12.1,M,-33.9,M,,*65
$PYRTM,2024,127.336033870486,18.445681280625
$GPGGA,080352.00,3350.7886,N,11924.8161,W,1,08,1.0,12.1,M,-33.9,M,,*68
$PYRTM,2024,127.336045455359,18.445692865498
$GPGGA,080353.00,3350.7868,N,11924.8148,W,1,08,1.0,12.2,M,-33.9,M,,*61
$PYRTM,2024,127.336057018785,18.445704428935
$GPGGA,080354.00,3350.7850,N,11924.8135,W,1,08,1.0,12.4,M,-33.9,M,,*61
$PYRTM,2024,127.336068606030,18.445716016169
$GPGGA,080355.00,3350.7831,N,11924.8122,W,1,08,1.0,12.3,M,-33.9,M,,*66
$PYRTM,2024,127.336080165741,18.445727575880
$GPGGA,080356.00,3350.7812,N,11924.8110,W,1,08,1.0,12.3,M,-33.9,M,,*65
$PYRTM,2024,127.336091752222,18.445739162361
$GPGGA,080357.00,3350.7794,N,11924.8098,W,1,08,1.0,12.3,M,-33.9,M,,*64
$PYRTM,2024,127.336099147581,18.445746557720
$GPGGA,080358.00,3350.7777,N,11924.8082,W,1,08,1.0,12.5,M,-33.9,M,,*6B
$PYRTM,2024,127.336114900937,18.445762311088
$GPGGA,080359.00,3350.7760,N,11924.8065,W,1,08,1.0,12.6,M,-33.9,M,,*66
$PYRTM,2024,127.336126461528,18.445773871667
$GPGGA,080400.00,3350.7742,N,11924.8053,W,1,08,1.0,12.6,M,-33.9,M,,*68
$PYRTM,2024,127.336138049306,18.445785459444
$GPGGA,080401.00,3350.7722,N,11924.8043,W,1,08,1.0,12.6,M,-33.9,M,,*6E
$PYRTM,2024,127.336149611539,18.445797021678
$GPGGA,080402.00,3350.7703,N,11924.8032,W,1,08,1.0,12.7,M,-33.9,M,,*69
$PYRTM,2024,127.336161197222,18.445808607373
$GPGGA,080403.00,3350.7686,N,11924.8019,W,1,08,1.0,12.6,M,-33.9,M,,*6C
$PYRTM,2024,127.336172759051,18.445820169201
$GPGGA,080404.00,3350.7669,N,11924.8002,W,1,08,1.0,12.5,M,-33.9,M,,*63
$PYRTM,2024,127.336184348206,18.445831758345
$GPGGA,080405.00,3350.7652,N,11924.7988,W,1,08,1.0,12.2,M,-33.9,M,,*69
$PYRTM,2024,127.336195907465,18.445843317604
$GPGGA,080406.00,3350.7632,N,11924.7977,W,1,08,1.0,12.2,M,-33.9,M,,*6C
$PYRTM,2024,127.336207500069,18.445854910208
$GPGGA,080407.00,3350.7613,N,11924.7966,W,1,08,1.0,12.4,M,-33.9,M,,*68
$PYRTM,2024,127.336214888113,18.445862298252
$GPGGA,080408.00,3350.7596,N,11924.7953,W,1,08,1.0,12.6,M,-33.9,M,,*6D
$PYRTM,2024,127.336233548819,18.445880958958
$GPGGA,080409.00,3350.7579,N,11924.7938,W,1,08,1.0,12.8,M,-33.9,M,,*6E
$PYRTM,2024,127.336245097292,18.445892507431
$GPGGA,080410.00,3350.7561,N,11924.7923,W,1,08,1.0,12.7,M,-33.9,M,,*6A
$PYRTM,2024,127.336256684606,18.445904094745
$GPGGA,080411.00,3350.7543,N,11924.7910,W,1,08,1.0,12.3,M,-33.9,M,,*6F
$PYRTM,2024,127.336265466863,18.445912877002
$GPGGA,080412.00,3350.7524,N,11924.7897,W,1,08,1.0,12.2,M,-33.9,M,,*62
$PYRTM,2024,127.336272873044,18.445920283183
$GPGGA,080413.00,3350.7506,N,11924.7884,W,1,08,1.0,12.2,M,-33.9,M,,*61
$PYRTM,2024,127.336288499722,18.445935909861
$GPGGA,080414.00,3350.7487,N,11924.7871,W,1,08,1.0,12.3,M,-33.9,M,,*65
$PYRTM,2024,127.336295906134,18.445943316273
$GPGGA,080415.00,3350.7470,N,11924.7857,W,1,08,1.0,12.5,M,-33.9,M,,*6E
$PYRTM,2024,127.336314541076,18.445961951215
$GPGGA,080416.00,3350.7453,N,11924.7843,W,1,08,1.0,12.7,M,-33.9,M,,*6B
$PYRTM,2024,127.336323238160,18.445970648299
$GPGGA,080417.00,3350.7435,N,11924.7830,W,1,08,1.0,12.7,M,-33.9,M,,*6E
$PYRTM,2024,127.336334796389,18.445982206528
$GPGGA,080418.00,3350.7416,N,11924.7819,W,1,08,1.0,12.4,M,-33.9,M,,*68
$PYRTM,2024,127.336342204444,18.445989614583
$GPGGA,080419.00,3350.7398,N,11924.7806,W,1,08,1.0,12.2,M,-33.9,M,,*60
$PYRTM,2024,127.336357944144,18.446005354282
$GPGGA,080420.00,3350.7381,N,11924.7792,W,1,08,1.0,12.3,M,-33.9,M,,*61
$PYRTM,2024,127.336369534306,18.446016944444
$GPGGA,080421.00,3350.7363,N,11924.7778,W,1,08,1.0,12.4,M,-33.9,M,,*6F
$PYRTM,2024,127.336376941030,18.446024351169
$GPGGA,080422.00,3350.7345,N,11924.7766,W,1,08,1.0,12.5,M,-33.9,M,,*66
$PYRTM,2024,127.336392678634,18.446040088773
$GPGGA,080423.00,3350.7327,N,11924.7754,W,1,08,1.0,12.6,M,-33.9,M,,*61
$PYRTM,2024,127.336404240880,18.446051651019
$GPGGA,080424.00,3350.7309,N,11924.7742,W,1,08,1.0,12.5,M,-33.9,M,,*6E
$PYRTM,2024,127.336415827650,18.446063237789
$GPGGA,080425.00,3350.7290,N,11924.7728,W,1,08,1.0,12.0,M,-33.9,M,,*67
$PYRTM,2024,127.336427390116,18.446074800255
$GPGGA,080426.00,3350.7272,N,11924.7714,W,1,08,1.0,11.4,M,-33.9,M,,*60
$PYRTM,2024,127.336438975856,18.446086385995
$GPGGA,080427.00,3350.7254,N,11924.7700,W,1,08,1.0,11.4,M,-33.9,M,,*60
$PYRTM,2024,127.336446372234,18.446093782373
$GPGGA,080428.00,3350.7237,N,11924.7687,W,1,08,1.0,11.9,M,-33.9,M,,*69
$PYRTM,2024,127.336462125255,18.446109535394
$GPGGA,080429.00,3350.7219,N,11924.7674,W,1,08,1.0,12.4,M,-33.9,M,,*66
$PYRTM,2024,127.336473685312,18.446121095451
$GPGGA,080430.00,3350.7200,N,11924.7662,W,1,08,1.0,12.7,M,-33.9,M,,*62
$PYRTM,2024,127.336481092326,18.446128502465
$GPGGA,080431.00,3350.7181,N,11924.7650,W,1,08,1.0,12.5,M,-33.9,M,,*6A
$PYRTM,2024,127.336496833472,18.446144243611
$GPGGA,080432.00,3350.7163,N,11924.7635,W,1,08,1.0,12.3,M,-33.9,M,,*60
$PYRTM,2024,127.336508423646,18.446155833785
$GPGGA,080433.00,3350.7147,N,11924.7619,W,1,08,1.0,12.5,M,-33.9,M,,*6F
$PYRTM,2024,127.336515815880,18.446163226019
$GPGGA,080434.00,3350.7132,N,11924.7605,W,1,08,1.0,12.8,M,-33.9,M,,*6A
$PYRTM,2024,127.336531571655,18.446178981794
$GPGGA,080435.00,3350.7113,N,11924.7594,W,1,08,1.0,12.5,M,-33.9,M,,*6E
$PYRTM,2024,127.336543130845,18.446190540984
$GPGGA,080436.00,3350.7093,N,11924.7584,W,1,08,1.0,12.0,M,-33.9,M,,*60
$PYRTM,2024,127.336554720197,18.446202130336
$GPGGA,080437.00,3350.7075,N,11924.7571,W,1,08,1.0,11.6,M,-33.9,M,,*66
$PYRTM,2024,127.336566278657,18.446213688796
$GPGGA,080438.00,3350.7060,N,11924.7555,W,1,08,1.0,11.9,M,-33.9,M,,*64
$PYRTM,2024,127.336573685266,18.446221095405
$GPGGA,080439.00,3350.7043,N,11924.7541,W,1,08,1.0,12.3,M,-33.9,M,,*68
$PYRTM,2024,127.336592319792,18.446239729931
$GPGGA,080440.00,3350.7023,N,11924.7531,W,1,08,1.0,12.5,M,-33.9,M,,*61
$PYRTM,2024,127.336601013762,18.446248423900
$GPGGA,080441.00,3350.7003,N,11924.7521,W,1,08,1.0,12.4,M,-33.9,M,,*62
$PYRTM,2024,127.336612573877,18.446259984028
$GPGGA,080442.00,3350.6985,N,11924.7508,W,1,08,1.0,12.4,M,-33.9,M,,*6C
$PYRTM,2024,127.336619980741,18.446267390880
$GPGGA,080443.00,3350.6969,N,11924.7493,W,1,08,1.0,12.4,M,-33.9,M,,*6C
$PYRTM,2024,127.336635724259,18.446283134398
$GPGGA,080444.00,3350.6953,N,11924.7479,W,1,08,1.0,12.4,M,-33.9,M,,*66
$PYRTM,2024,127.336647309954,18.446294720093
$GPGGA,080445.00,3350.6935,N,11924.7467,W,1,08,1.0,12.3,M,-33.9,M,,*6F
$PYRTM,2024,127.336654706933,18.446302117072
$GPGGA,080446.00,3350.6917,N,11924.7455,W,1,08,1.0,12.2,M,-33.9,M,,*6C
$PYRTM,2024,127.336666394965,18.446313805104
$GPGGA,080447.00,3350.6899,N,11924.7441,W,1,08,1.0,12.1,M,-33.9,M,,*6C
$PYRTM,2024,127.336682020174,18.446329430313
$GPGGA,080448.00,3350.6882,N,11924.7426,W,1,08,1.0,12.0,M,-33.9,M,,*69
$PYRTM,2024,127.336689427199,18.446336837350
$GPGGA,080449.00,3350.6865,N,11924.7413,W,1,08,1.0,12.2,M,-33.9,M,,*65
$PYRTM,2024,127.336705167350,18.446352577731
$GPGGA,080450.00,3350.6846,N,11924.7402,W,1,08,1.0,12.4,M,-33.9,M,,*6A
$PYRTM,2024,127.336716754965,18.446364165104
$GPGGA,080451.00,3350.6828,N,11924.7390,W,1,08,1.0,12.6,M,-33.9,M,,*6D
$PYRTM,2024,127.336724162164,18.446371572303
$GPGGA,080452.00,3350.6811,N,11924.7376,W,1,08,1.0,12.6,M,-33.9,M,,*6C
$PYRTM,2024,127.336739902431,18.446387312581
$GPGGA,080453.00,3350.6793,N,11924.7362,W,1,08,1.0,12.4,M,-33.9,M,,*6F
$PYRTM,2024,127.336751464097,18.446398874236
$GPGGA,080454.00,3350.6775,N,11924.7349,W,1,08,1.0,12.2,M,-33.9,M,,*6F
$PYRTM,2024,127.336763050509,18.446410460648
$GPGGA,080455.00,3350.6758,N,11924.7336,W,1,08,1.0,12.3,M,-33.9,M,,*68
$PYRTM,2024,127.336774611111,18.446422021250
$GPGGA,080456.00,3350.6740,N,11924.7323,W,1,08,1.0,12.4,M,-33.9,M,,*61
$PYRTM,2024,127.336786199525,18.446433609664
$GPGGA,080457.00,3350.6722,N,11924.7311,W,1,08,1.0,12.5,M,-33.9,M,,*64
$PYRTM,2024,127.336797760035,18.446445170174
$GPGGA,080458.00,3350.6702,N,11924.7300,W,1,08,1.0,12.3,M,-33.9,M,,*6F
$PYRTM,2024,127.336809347477,18.446456757616
$GPGGA,080459.00,3350.6684,N,11924.7287,W,1,08,1.0,12.1,M,-33.9,M,,*6D
$PYRTM,2024,127.336820909225,18.446468319363
$GPGGA,080500.00,3350.6666,N,11924.7273,W,1,08,1.0,12.1,M,-33.9,M,,*67
$PYRTM,2024,127.336832494919,18.446479905058
$GPGGA,080501.00,3350.6649,N,11924.7257,W,1,08,1.0,12.1,M,-33.9,M,,*6D
$PYRTM,2024,127.336844057095,18.446491467234
$GPGGA,080502.00,3350.6631,N,11924.7244,W,1,08,1.0,12.2,M,-33.9,M,,*60
$PYRTM,2024,127.336855646979,18.446503057118
$GPGGA,080503.00,3350.6611,N,11924.7233,W,1,08,1.0,12.2,M,-33.9,M,,*63
$PYRTM,2024,127.336867205972,18.446514616111
$GPGGA,080504.00,3350.6592,N,11924.7222,W,1,08,1.0,12.2,M,-33.9,M,,*6C
$PYRTM,2024,127.336878795139,18.446526205278
$GPGGA,080505.00,3350.6574,N,11924.7208,W,1,08,1.0,12.3,M,-33.9,M,,*6C
$PYRTM,2024,127.336890352720,18.446537762870
$GPGGA,080506.00,3350.6557,N,11924.7194,W,1,08,1.0,12.3,M,-33.9,M,,*68
$PYRTM,2024,127.336901941944,18.446549352083
$GPGGA,080507.00,3350.6540,N,11924.7179,W,1,08,1.0,12.3,M,-33.9,M,,*6C
$PYRTM,2024,127.336913502234,18.446560912373
$GPGGA,080508.00,3350.6522,N,11924.7165,W,1,08,1.0,12.2,M,-33.9,M,,*6B
$PYRTM,2024,127.336925088519,18.446572498657
$GPGGA,080509.00,3350.6504,N,11924.7153,W,1,08,1.0,12.4,M,-33.9,M,,*6D
$PYRTM,2024,127.336932483623,18.446579893762
$GPGGA,080510.00,3350.6487,N,11924.7141,W,1,08,1.0,12.6,M,-33.9,M,,*6E
$PYRTM,2024,127.336951129745,18.446598539884
$GPGGA,080511.00,3350.6469,N,11924.7128,W,1,08,1.0,12.6,M,-33.9,M,,*60
$PYRTM,2024,127.336959798438,18.446607208576
$GPGGA,080512.00,3350.6452,N,11924.7114,W,1,08,1.0,12.4,M,-33.9,M,,*66
$PYRTM,2024,127.336967204167,18.446614614306
$GPGGA,080513.00,3350.6434,N,11924.7101,W,1,08,1.0,12.3,M,-33.9,M,,*64
$PYRTM,2024,127.336982948588,18.446630358738
$GPGGA,080514.00,3350.6417,N,11924.7086,W,1,08,1.0,12.3,M,-33.9,M,,*6C
$PYRTM,2024,127.336994532512,18.446641942650
$GPGGA,080515.00,3350.6399,N,11924.7072,W,1,08,1.0,12.4,M,-33.9,M,,*60
$PYRTM,2024,127.337001929190,18.446649339329
$GPGGA,080516.00,3350.6381,N,11924.7060,W,1,08,1.0,12.3,M,-33.9,M,,*6E
$PYRTM,2024,127.337017684051,18.446665094190
$GPGGA,080517.00,3350.6362,N,11924.7048,W,1,08,1.0,12.0,M,-33.9,M,,*6B
$PYRTM,2024,127.337029243773,18.446676653912
$GPGGA,080518.00,3350.6344,N,11924.7033,W,1,08,1.0,11.8,M,-33.9,M,,*67
$PYRTM,2024,127.337036650023,18.446684060162
$GPGGA,080519.00,3350.6327,N,11924.7018,W,1,08,1.0,11.8,M,-33.9,M,,*6A
$PYRTM,2024,127.337052390521,18.446699800660
$GPGGA,080520.00,3350.6308,N,11924.7007,W,1,08,1.0,11.9,M,-33.9,M,,*62
$PYRTM,2024,127.337063978275,18.446711388414
$GPGGA,080521.00,3350.6290,N,11924.6996,W,1,08,1.0,12.0,M,-33.9,M,,*69
$PYRTM,2024,127.337071387060,18.446718797199
$GPGGA,080522.00,3350.6271,N,11924.6983,W,1,08,1.0,12.2,M,-33.9,M,,*63
$PYRTM,2024,127.337087125683,18.446734535822
$GPGGA,080523.00,3350.6254,N,11924.6967,W,1,08,1.0,12.2,M,-33.9,M,,*6F
$PYRTM,2024,127.337098687940,18.446746098079
$GPGGA,080524.00,3350.6237,N,11924.6954,W,1,08,1.0,12.2,M,-33.9,M,,*6D
$PYRTM,2024,127.337106095023,18.446753505174
$GPGGA,080525.00,3350.6218,N,11924.6943,W,1,08,1.0,12.2,M,-33.9,M,,*67
$PYRTM,2024,127.337121834236,18.446769244375
$GPGGA,080526.00,3350.6199,N,11924.6934,W,1,08,1.0,12.1,M,-33.9,M,,*6D
$PYRTM,2024,127.337133418125,18.446780828264
$GPGGA,080527.00,3350.6181,N,11924.6921,W,1,08,1.0,12.2,M,-33.9,M,,*62
$PYRTM,2024,127.337144984306,18.446792394444
$GPGGA,080528.00,3350.6166,N,11924.6904,W,1,08,1.0,12.7,M,-33.9,M,,*66
$PYRTM,2024,127.337152390556,18.446799800706
$GPGGA,080529.00,3350.6149,N,11924.6888,W,1,08,1.0,13.0,M,-33.9,M,,*69
$PYRTM,2024,127.337168131782,18.446815541933
$GPGGA,080530.00,3350.6131,N,11924.6876,W,1,08,1.0,13.0,M,-33.9,M,,*6F
$PYRTM,2024,127.337175538322,18.446822948461
$GPGGA,080531.00,3350.6112,N,11924.6867,W,1,08,1.0,12.8,M,-33.9,M,,*66
$PYRTM,2024,127.337191280579,18.446838690718
$GPGGA,080532.00,3350.6093,N,11924.6853,W,1,08,1.0,12.4,M,-33.9,M,,*66
$PYRTM,2024,127.337202867153,18.446850277292
$GPGGA,080533.00,3350.6077,N,11924.6838,W,1,08,1.0,12.1,M,-33.9,M,,*65
$PYRTM,2024,127.337210277928,18.446857688067
$GPGGA,080534.00,3350.6060,N,11924.6824,W,1,08,1.0,11.9,M,-33.9,M,,*62
$PYRTM,2024,127.337226016262,18.446873426400
$GPGGA,080535.00,3350.6041,N,11924.6813,W,1,08,1.0,11.7,M,-33.9,M,,*6A
$PYRTM,2024,127.337237577535,18.446884987685
$GPGGA,080536.00,3350.6022,N,11924.6802,W,1,08,1.0,11.8,M,-33.9,M,,*63
$PYRTM,2024,127.337244983704,18.446892393854
$GPGGA,080537.00,3350.6005,N,11924.6787,W,1,08,1.0,12.0,M,-33.9,M,,*6E
$PYRTM,2024,127.337260724919,18.446908135058
$GPGGA,080538.00,3350.5988,N,11924.6771,W,1,08,1.0,12.3,M,-33.9,M,,*64
$PYRTM,2024,127.337272312604,18.446919722743
$GPGGA,080539.00,3350.5970,N,11924.6758,W,1,08,1.0,12.6,M,-33.9,M,,*6C
$PYRTM,2024,127.337279706470,18.446927116609
$GPGGA,080540.00,3350.5950,N,11924.6750,W,1,08,1.0,12.7,M,-33.9,M,,*69
$PYRTM,2024,127.337291396713,18.446938806852
$GPGGA,080541.00,3350.5930,N,11924.6741,W,1,08,1.0,12.4,M,-33.9,M,,*6D
$PYRTM,2024,127.337309915405,18.446957325556
$GPGGA,080542.00,3350.5913,N,11924.6726,W,1,08,1.0,12.2,M,-33.9,M,,*68
$PYRTM,2024,127.337318608137,18.446966018275
$GPGGA,080543.00,3350.5898,N,11924.6706,W,1,08,1.0,12.3,M,-33.9,M,,*68
$PYRTM,2024,127.337330170197,18.446977580336
$GPGGA,080544.00,3350.5882,N,11924.6691,W,1,08,1.0,12.5,M,-33.9,M,,*6D
$PYRTM,2024,127.337341760069,18.446989170208
$GPGGA,080545.00,3350.5862,N,11924.6684,W,1,08,1.0,12.7,M,-33.9,M,,*64
$PYRTM,2024,127.337349151088,18.446996561227
$GPGGA,080546.00,3350.5841,N,11924.6676,W,1,08,1.0,12.6,M,-33.9,M,,*6A
$PYRTM,2024,127.337364907384,18.447012317523
$GPGGA,080547.00,3350.5824,N,11924.6663,W,1,08,1.0,12.7,M,-33.9,M,,*6D
$PYRTM,2024,127.337376464699,18.447023874838
$GPGGA,080548.00,3350.5809,N,11924.6646,W,1,08,1.0,12.9,M,-33.9,M,,*64
$PYRTM,2024,127.337388066481,18.447035476620
$GPGGA,080549.00,3350.5794,N,11924.6630,W,1,08,1.0,13.0,M,-33.9,M,,*67
$PYRTM,2024,127.337399613171,18.447047023310
$GPGGA,080550.00,3350.5775,N,11924.6619,W,1,08,1.0,12.8,M,-33.9,M,,*62
$PYRTM,2024,127.337407022373,18.447054432523
$GPGGA,080551.00,3350.5755,N,11924.6608,W,1,08,1.0,12.5,M,-33.9,M,,*6C
$PYRTM,2024,127.337425654896,18.447073065035
$GPGGA,080552.00,3350.5738,N,11924.6594,W,1,08,1.0,12.5,M,-33.9,M,,*62
$PYRTM,2024,127.337437242176,18.447084652315
$GPGGA,080553.00,3350.5722,N,11924.6579,W,1,08,1.0,12.7,M,-33.9,M,,*69
$PYRTM,2024,127.337445909769,18.447093319907
$GPGGA,080554.00,3350.5705,N,11924.6566,W,1,08,1.0,12.7,M,-33.9,M,,*65
$PYRTM,2024,127.337457497014,18.447104907153
$GPGGA,080555.00,3350.5685,N,11924.6556,W,1,08,1.0,12.4,M,-33.9,M,,*6D
$PYRTM,2024,127.337469060556,18.447116470694
$GPGGA,080556.00,3350.5665,N,11924.6546,W,1,08,1.0,12.1,M,-33.9,M,,*64
$PYRTM,2024,127.337480645556,18.447128055694
$GPGGA,080557.00,3350.5649,N,11924.6530,W,1,08,1.0,12.2,M,-33.9,M,,*69
$PYRTM,2024,127.337492208403,18.447139618542
$GPGGA,080558.00,3350.5634,N,11924.6513,W,1,08,1.0,12.5,M,-33.9,M,,*6A
$PYRTM,2024,127.337503796412,18.447151206551
$GPGGA,080559.00,3350.5617,N,11924.6499,W,1,08,1.0,12.8,M,-33.9,M,,*64
$PYRTM,2024,127.337515354664,18.447162764803
$GPGGA,080600.00,3350.5598,N,11924.6489,W,1,08,1.0,12.8,M,-33.9,M,,*6E
$PYRTM,2024,127.337526946447,18.447174356586
$GPGGA,080601.00,3350.5579,N,11924.6478,W,1,08,1.0,12.9,M,-33.9,M,,*6F
$PYRTM,2024,127.337538505081,18.447185915231
$GPGGA,080602.00,3350.5561,N,11924.6465,W,1,08,1.0,13.0,M,-33.9,M,,*61
$PYRTM,2024,127.337550091782,18.447197501921
$GPGGA,080603.00,3350.5545,N,11924.6449,W,1,08,1.0,13.1,M,-33.9,M,,*69
$PYRTM,2024,127.337561651447,18.447209061586
$GPGGA,080604.00,3350.5529,N,11924.6433,W,1,08,1.0,13.1,M,-33.9,M,,*69
$PYRTM,2024,127.337573238356,18.447220648495
$GPGGA,080605.00,3350.5511,N,11924.6421,W,1,08,1.0,12.9,M,-33.9,M,,*69
$PYRTM,2024,127.337584799178,18.447232209317
$GPGGA,080606.00,3350.5491,N,11924.6411,W,1,08,1.0,12.4,M,-33.9,M,,*6D
$PYRTM,2024,127.337596387720,18.447243797859
$GPGGA,080607.00,3350.5473,N,11924.6398,W,1,08,1.0,12.0,M,-33.9,M,,*62
$PYRTM,2024,127.337607948125,18.447255358264
$GPGGA,080608.00,3350.5456,N,11924.6382,W,1,08,1.0,12.2,M,-33.9,M,,*63
$PYRTM,2024,127.337619535428,18.447266945567
$GPGGA,080609.00,3350.5440,N,11924.6366,W,1,08,1.0,12.6,M,-33.9,M,,*6B
$PYRTM,2024,127.337631096493,18.447278506632
$GPGGA,080610.00,3350.5421,N,11924.6355,W,1,08,1.0,12.8,M,-33.9,M,,*6A
$PYRTM,2024,127.337642683692,18.447290093831
$GPGGA,080611.00,3350.5401,N,11924.6347,W,1,08,1.0,12.6,M,-33.9,M,,*64
$PYRTM,2024,127.337650082025,18.447297492164
$GPGGA,080612.00,3350.5383,N,11924.6335,W,1,08,1.0,12.4,M,-33.9,M,,*6D
$PYRTM,2024,127.337668725799,18.447316135937
$GPGGA,080613.00,3350.5366,N,11924.6318,W,1,08,1.0,12.2,M,-33.9,M,,*6E
$PYRTM,2024,127.337677393785,18.447324803924
$GPGGA,080614.00,3350.5350,N,11924.6301,W,1,08,1.0,12.3,M,-33.9,M,,*65
$PYRTM,2024,127.337688993704,18.447336403843
$GPGGA,080615.00,3350.5332,N,11924.6288,W,1,08,1.0,12.6,M,-33.9,M,,*65
$PYRTM,2024,127.337696377106,18.447343787245
$GPGGA,080616.00,3350.5313,N,11924.6279,W,1,08,1.0,12.9,M,-33.9,M,,*64
$PYRTM,2024,127.337712131609,18.447359541748
$GPGGA,080617.00,3350.5293,N,11924.6270,W,1,08,1.0,12.9,M,-33.9,M,,*65
$PYRTM,2024,127.337723807569,18.447371217708
$GPGGA,080618.00,3350.5275,N,11924.6257,W,1,08,1.0,12.6,M,-33.9,M,,*68
$PYRTM,2024,127.337735277280,18.447382687419
$GPGGA,080619.00,3350.5259,N,11924.6241,W,1,08,1.0,12.4,M,-33.9,M,,*62
$PYRTM,2024,127.337746837095,18.447394247234
$GPGGA,080620.00,3350.5243,N,11924.6225,W,1,08,1.0,12.4,M,-33.9,M,,*61
$PYRTM,2024,127.337758424606,18.447405834745
$GPGGA,080621.00,3350.5225,N,11924.6210,W,1,08,1.0,12.5,M,-33.9,M,,*67
$PYRTM,2024,127.337769985509,18.447417395648
$GPGGA,080622.00,3350.5205,N,11924.6201,W,1,08,1.0,12.7,M,-33.9,M,,*64
$PYRTM,2024,127.337781573646,18.447428983785
$GPGGA,080623.00,3350.5186,N,11924.6192,W,1,08,1.0,12.8,M,-33.9,M,,*6B
$PYRTM,2024,127.337788968704,18.447436378843
$GPGGA,080624.00,3350.5168,N,11924.6180,W,1,08,1.0,12.9,M,-33.9,M,,*6E
$PYRTM,2024,127.337807614699,18.447455024838
$GPGGA,080625.00,3350.5152,N,11924.6163,W,1,08,1.0,12.7,M,-33.9,M,,*65
$PYRTM,2024,127.337816282801,18.447463692940
$GPGGA,080626.00,3350.5137,N,11924.6146,W,1,08,1.0,12.3,M,-33.9,M,,*66
$PYRTM,2024,127.337827882928,18.447475293067
$GPGGA,080627.00,3350.5120,N,11924.6131,W,1,08,1.0,12.0,M,-33.9,M,,*62
$PYRTM,2024,127.337839430312,18.447486840451
$GPGGA,080628.00,3350.5101,N,11924.6120,W,1,08,1.0,11.9,M,-33.9,M,,*64
$PYRTM,2024,127.337851020822,18.447498430972
$GPGGA,080629.00,3350.5081,N,11924.6111,W,1,08,1.0,12.0,M,-33.9,M,,*64
$PYRTM,2024,127.337862579537,18.447509989688
$GPGGA,080630.00,3350.5063,N,11924.6098,W,1,08,1.0,12.5,M,-33.9,M,,*65
$PYRTM,2024,127.337874168090,18.447521578229
$GPGGA,080631.00,3350.5048,N,11924.6082,W,1,08,1.0,12.9,M,-33.9,M,,*6A
$PYRTM,2024,127.337885725891,18.447533136030
$GPGGA,080632.00,3350.5032,N,11924.6065,W,1,08,1.0,13.1,M,-33.9,M,,*64
$PYRTM,2024,127.337897314375,18.447544724514
$GPGGA,080633.00,3350.5015,N,11924.6050,W,1,08,1.0,12.8,M,-33.9,M,,*6E
$PYRTM,2024,127.337908875197,18.447556285336
$GPGGA,080634.00,3350.4997,N,11924.6037,W,1,08,1.0,12.4,M,-33.9,M,,*66
$PYRTM,2024,127.337920462280,18.447567872419
$GPGGA,080635.00,3350.4979,N,11924.6024,W,1,08,1.0,12.2,M,-33.9,M,,*63
$PYRTM,2024,127.337932023993,18.447579434144
$GPGGA,080636.00,3350.4963,N,11924.6010,W,1,08,1.0,12.2,M,-33.9,M,,*6C
$PYRTM,2024,127.337939430012,18.447586840150
$GPGGA,080637.00,3350.4945,N,11924.5997,W,1,08,1.0,12.1,M,-33.9,M,,*6F
$PYRTM,2024,127.337955171759,18.447602581910
$GPGGA,080638.00,3350.4928,N,11924.5986,W,1,08,1.0,12.0,M,-33.9,M,,*6A
$PYRTM,2024,127.337966760637,18.447614170775
$GPGGA,080639.00,3350.4909,N,11924.5975,W,1,08,1.0,12.0,M,-33.9,M,,*64
$PYRTM,2024,127.337974154259,18.447621564398
$GPGGA,080640.00,3350.4891,N,11924.5962,W,1,08,1.0,11.8,M,-33.9,M,,*67
$PYRTM,2024,127.337989907269,18.447637317407
$GPGGA,080641.00,3350.4874,N,11924.5946,W,1,08,1.0,11.9,M,-33.9,M,,*6A
$PYRTM,2024,127.338001467824,18.447648877963
$GPGGA,080642.00,3350.4858,N,11924.5930,W,1,08,1.0,12.1,M,-33.9,M,,*6D
$PYRTM,2024,127.338008876458,18.447656286597
$GPGGA,080643.00,3350.4839,N,11924.5918,W,1,08,1.0,12.6,M,-33.9,M,,*66
$PYRTM,2024,127.338027510208,18.447674920347
$GPGGA,080644.00,3350.4819,N,11924.5909,W,1,08,1.0,12.8,M,-33.9,M,,*6D
$PYRTM,2024,127.338036218576,18.447683628715
$GPGGA,080645.00,3350.4799,N,11924.5900,W,1,08,1.0,12.8,M,-33.9,M,,*62
$PYRTM,2024,127.338047765567,18.447695175706
$GPGGA,080646.00,3350.4783,N,11924.5885,W,1,08,1.0,12.6,M,-33.9,M,,*68
$PYRTM,2024,127.338059353588,18.447706763727
$GPGGA,080647.00,3350.4768,N,11924.5867,W,1,08,1.0,12.2,M,-33.9,M,,*64
$PYRTM,2024,127.338070912037,18.447718322176
$GPGGA,080648.00,3350.4751,N,11924.5851,W,1,08,1.0,11.9,M,-33.9,M,,*6C
$PYRTM,2024,127.338082500116,18.447729910255
$GPGGA,080649.00,3350.4733,N,11924.5840,W,1,08,1.0,12.0,M,-33.9,M,,*63
$PYRTM,2024,127.338094060081,18.447741470220
$GPGGA,080650.00,3350.4714,N,11924.5830,W,1,08,1.0,12.3,M,-33.9,M,,*6A
$PYRTM,2024,127.338105649769,18.447753059907
$GPGGA,080651.00,3350.4695,N,11924.5819,W,1,08,1.0,12.5,M,-33.9,M,,*6E
$PYRTM,2024,127.338113042396,18.447760452535
$GPGGA,080652.00,3350.4677,N,11924.5806,W,1,08,1.0,12.5,M,-33.9,M,,*6F
$PYRTM,2024,127.338128795718,18.447776205856
$GPGGA,080653.00,3350.4660,N,11924.5790,W,1,08,1.0,12.7,M,-33.9,M,,*6A
$PYRTM,2024,127.338140357187,18.447787767326
$GPGGA,080654.00,3350.4644,N,11924.5774,W,1,08,1.0,12.8,M,-33.9,M,,*6E
$PYRTM,2024,127.338151944340,18.447799354479
$GPGGA,080655.00,3350.4626,N,11924.5762,W,1,08,1.0,12.9,M,-33.9,M,,*6D
$PYRTM,2024,127.338159339144,18.447806749282
$GPGGA,080656.00,3350.4607,N,11924.5751,W,1,08,1.0,12.7,M,-33.9,M,,*63
$PYRTM,2024,127.338175095521,18.447822505660
$GPGGA,080657.00,3350.4589,N,11924.5739,W,1,08,1.0,12.3,M,-33.9,M,,*6D
$PYRTM,2024,127.338182487419,18.447829897558
$GPGGA,080658.00,3350.4572,N,11924.5725,W,1,08,1.0,12.0,M,-33.9,M,,*68
$PYRTM,2024,127.338198244572,18.447845654699
$GPGGA,080659.00,3350.4555,N,11924.5710,W,1,08,1.0,12.1,M,-33.9,M,,*6B
$PYRTM,2024,127.338209815394,18.447857225532
$GPGGA,080700.00,3350.4537,N,11924.5698,W,1,08,1.0,12.4,M,-33.9,M,,*66
$PYRTM,2024,127.338217210185,18.447864620324
$GPGGA,080701.00,3350.4518,N,11924.5686,W,1,08,1.0,12.8,M,-33.9,M,,*69
$PYRTM,2024,127.338232964537,18.447880374676
$GPGGA,080702.00,3350.4500,N,11924.5673,W,1,08,1.0,13.0,M,-33.9,M,,*60
$PYRTM,2024,127.338244538588,18.447891948727
$GPGGA,080703.00,3350.4482,N,11924.5658,W,1,08,1.0,13.1,M,-33.9,M,,*62
$PYRTM,2024,127.338256111771,18.447903521921
$GPGGA,080704.00,3350.4464,N,11924.5646,W,1,08,1.0,13.1,M,-33.9,M,,*62
$PYRTM,2024,127.338267686019,18.447915096169
$GPGGA,080705.00,3350.4446,N,11924.5633,W,1,08,1.0,12.8,M,-33.9,M,,*69
$PYRTM,2024,127.338279259572,18.447926669711
$GPGGA,080706.00,3350.4427,N,11924.5620,W,1,08,1.0,12.4,M,-33.9,M,,*63
$PYRTM,2024,127.338290834884,18.447938245023
$GPGGA,080707.00,3350.4410,N,11924.5605,W,1,08,1.0,12.3,M,-33.9,M,,*66
$PYRTM,2024,127.338302402975,18.447949813113
$GPGGA,080708.00,3350.4393,N,11924.5591,W,1,08,1.0,12.3,M,-33.9,M,,*6B
$PYRTM,2024,127.338313982442,18.447961392581
$GPGGA,080709.00,3350.4375,N,11924.5578,W,1,08,1.0,12.5,M,-33.9,M,,*63
$PYRTM,2024,127.338325556146,18.447972966285
$GPGGA,080710.00,3350.4357,N,11924.5566,W,1,08,1.0,12.5,M,-33.9,M,,*64
$PYRTM,2024,127.338337131389,18.447984541528
$GPGGA,080711.00,3350.4339,N,11924.5553,W,1,08,1.0,12.6,M,-33.9,M,,*68
$PYRTM,2024,127.338348705093,18.447996115231
$GPGGA,080712.00,3350.4321,N,11924.5539,W,1,08,1.0,12.5,M,-33.9,M,,*6D
$PYRTM,2024,127.338360296713,18.448007706852
$GPGGA,080713.00,3350.4303,N,11924.5525,W,1,08,1.0,12.4,M,-33.9,M,,*60
$PYRTM,2024,127.338367673542,18.448015083692
$GPGGA,080714.00,3350.4286,N,11924.5512,W,1,08,1.0,12.6,M,-33.9,M,,*6D
$PYRTM,2024,127.338386323391,18.448033733530
$GPGGA,080715.00,3350.4268,N,11924.5499,W,1,08,1.0,12.7,M,-33.9,M,,*6F
$PYRTM,2024,127.338397882199,18.448045292338
$GPGGA,080716.00,3350.4250,N,11924.5485,W,1,08,1.0,12.7,M,-33.9,M,,*6A
$PYRTM,2024,127.338409470069,18.448056880208
$GPGGA,080717.00,3350.4232,N,11924.5470,W,1,08,1.0,12.6,M,-33.9,M,,*64
$PYRTM,2024,127.338418148808,18.448065558947
$GPGGA,080718.00,3350.4214,N,11924.5456,W,1,08,1.0,12.5,M,-33.9,M,,*68
$PYRTM,2024,127.338425543194,18.448072953345
$GPGGA,080719.00,3350.4196,N,11924.5443,W,1,08,1.0,12.8,M,-33.9,M,,*69
$PYRTM,2024,127.338441293808,18.448088703947
$GPGGA,080720.00,3350.4177,N,11924.5432,W,1,08,1.0,12.8,M,-33.9,M,,*6A
$PYRTM,2024,127.338452878241,18.448100288380
$GPGGA,080721.00,3350.4157,N,11924.5421,W,1,08,1.0,12.5,M,-33.9,M,,*66
$PYRTM,2024,127.338460266759,18.448107676898
$GPGGA,080722.00,3350.4139,N,11924.5408,W,1,08,1.0,12.2,M,-33.9,M,,*61
$PYRTM,2024,127.338476023160,18.448123433310
$GPGGA,080723.00,3350.4122,N,11924.5393,W,1,08,1.0,12.2,M,-33.9,M,,*6F
$PYRTM,2024,127.338487588461,18.448134998600
$GPGGA,080724.00,3350.4104,N,11924.5378,W,1,08,1.0,12.5,M,-33.9,M,,*6E
$PYRTM,2024,127.338499208322,18.448146618461
$GPGGA,080725.00,3350.4086,N,11924.5363,W,1,08,1.0,12.8,M,-33.9,M,,*63
$PYRTM,2024,127.338510741863,18.448158152002
$GPGGA,080726.00,3350.4068,N,11924.5350,W,1,08,1.0,13.3,M,-33.9,M,,*6A
$PYRTM,2024,127.338522318843,18.448169728970
$GPGGA,080727.00,3350.4049,N,11924.5339,W,1,08,1.0,13.6,M,-33.9,M,,*62
$PYRTM,2024,127.338529711331,18.448177121470
$GPGGA,080728.00,3350.4030,N,11924.5328,W,1,08,1.0,13.6,M,-33.9,M,,*63
$PYRTM,2024,127.338541399988,18.448188810127
$GPGGA,080729.00,3350.4012,N,11924.5313,W,1,08,1.0,13.1,M,-33.9,M,,*6D
$PYRTM,2024,127.338557037627,18.448204447766
$GPGGA,080730.00,3350.3996,N,11924.5296,W,1,08,1.0,12.5,M,-33.9,M,,*6E
$PYRTM,2024,127.338564434225,18.448211844363
$GPGGA,080731.00,3350.3979,N,11924.5280,W,1,08,1.0,12.1,M,-33.9,M,,*6D
$PYRTM,2024,127.338580186782,18.448227596921
$GPGGA,080732.00,3350.3962,N,11924.5266,W,1,08,1.0,12.3,M,-33.9,M,,*6E
$PYRTM,2024,127.338591761968,18.448239172106
$GPGGA,080733.00,3350.3943,N,11924.5255,W,1,08,1.0,12.5,M,-33.9,M,,*6A
$PYRTM,2024,127.338603334676,18.448250744815
$GPGGA,080734.00,3350.3923,N,11924.5246,W,1,08,1.0,12.7,M,-33.9,M,,*6B
$PYRTM,2024,127.338614909028,18.448262319167
$GPGGA,080735.00,3350.3904,N,11924.5233,W,1,08,1.0,12.8,M,-33.9,M,,*62
$PYRTM,2024,127.338626483368,18.448273893507
$GPGGA,080736.00,3350.3888,N,11924.5216,W,1,08,1.0,12.9,M,-33.9,M,,*62
$PYRTM,2024,127.338638057708,18.448285467847
$GPGGA,080737.00,3350.3872,N,11924.5198,W,1,08,1.0,13.1,M,-33.9,M,,*6A
$PYRTM,2024,127.338649632396,18.448297042535
$GPGGA,080738.00,3350.3854,N,11924.5183,W,1,08,1.0,13.2,M,-33.9,M,,*68
$PYRTM,2024,127.338661207060,18.448308617199
$GPGGA,080739.00,3350.3835,N,11924.5172,W,1,08,1.0,13.1,M,-33.9,M,,*63
$PYRTM,2024,127.338668602766,18.448316012905
$GPGGA,080740.00,3350.3815,N,11924.5163,W,1,08,1.0,12.8,M,-33.9,M,,*67
$PYRTM,2024,127.338684357373,18.448331767512
$GPGGA,080741.00,3350.3797,N,11924.5150,W,1,08,1.0,12.3,M,-33.9,M,,*68
$PYRTM,2024,127.338695927616,18.448343337755
$GPGGA,080742.00,3350.3780,N,11924.5135,W,1,08,1.0,12.0,M,-33.9,M,,*6D
$PYRTM,2024,127.338703323206,18.448350733345
$GPGGA,080743.00,3350.3764,N,11924.5119,W,1,08,1.0,12.1,M,-33.9,M,,*69
$PYRTM,2024,127.338719075752,18.448366485891
$GPGGA,080744.00,3350.3746,N,11924.5104,W,1,08,1.0,12.4,M,-33.9,M,,*67
$PYRTM,2024,127.338726471620,18.448373881759
$GPGGA,080745.00,3350.3725,N,11924.5093,W,1,08,1.0,12.8,M,-33.9,M,,*60
$PYRTM,2024,127.338745104780,18.448392514931
$GPGGA,080746.00,3350.3705,N,11924.5082,W,1,08,1.0,13.0,M,-33.9,M,,*68
$PYRTM,2024,127.338753798681,18.448401208831
$GPGGA,080747.00,3350.3687,N,11924.5070,W,1,08,1.0,13.4,M,-33.9,M,,*6B
$PYRTM,2024,127.338765373576,18.448412783715
$GPGGA,080748.00,3350.3670,N,11924.5055,W,1,08,1.0,13.2,M,-33.9,M,,*6D
$PYRTM,2024,127.338776947998,18.448424358137
$GPGGA,080749.00,3350.3654,N,11924.5039,W,1,08,1.0,13.0,M,-33.9,M,,*62
$PYRTM,2024,127.338788519317,18.448435929456
$GPGGA,080750.00,3350.3638,N,11924.5024,W,1,08,1.0,12.3,M,-33.9,M,,*6E
$PYRTM,2024,127.338800095451,18.448447505602
$GPGGA,080751.00,3350.3620,N,11924.5010,W,1,08,1.0,11.7,M,-33.9,M,,*66
$PYRTM,2024,127.338811669329,18.448459079479
$GPGGA,080752.00,3350.3601,N,11924.4998,W,1,08,1.0,11.5,M,-33.9,M,,*6C
$PYRTM,2024,127.338823244479,18.448470654618
$GPGGA,080753.00,3350.3584,N,11924.4984,W,1,08,1.0,11.8,M,-33.9,M,,*63
$PYRTM,2024,127.338834818125,18.448482228275
$GPGGA,080754.00,3350.3566,N,11924.4970,W,1,08,1.0,12.5,M,-33.9,M,,*6D
$PYRTM,2024,127.338842213542,18.448489623681
$GPGGA,080755.00,3350.3548,N,11924.4956,W,1,08,1.0,12.9,M,-33.9,M,,*68
$PYRTM,2024,127.338857962384,18.448505372523
$GPGGA,080756.00,3350.3529,N,11924.4942,W,1,08,1.0,13.0,M,-33.9,M,,*61
$PYRTM,2024,127.338869542535,18.448516952674
$GPGGA,080757.00,3350.3512,N,11924.4928,W,1,08,1.0,13.0,M,-33.9,M,,*64
$PYRTM,2024,127.338881114456,18.448528524595
$GPGGA,080758.00,3350.3496,N,11924.4912,W,1,08,1.0,12.7,M,-33.9,M,,*69
$PYRTM,2024,127.338892688623,18.448540098762
$GPGGA,080759.00,3350.3478,N,11924.4897,W,1,08,1.0,12.2,M,-33.9,M,,*61
$PYRTM,2024,127.338904263565,18.448551673704
$GPGGA,080800.00,3350.3461,N,11924.4884,W,1,08,1.0,11.9,M,-33.9,M,,*60
$PYRTM,2024,127.338911655451,18.448559065590
$GPGGA,080801.00,3350.3443,N,11924.4870,W,1,08,1.0,12.2,M,-33.9,M,,*62
$PYRTM,2024,127.338927404988,18.448574815127
$GPGGA,080802.00,3350.3426,N,11924.4857,W,1,08,1.0,12.6,M,-33.9,M,,*63
$PYRTM,2024,127.338938983414,18.448586393553
$GPGGA,080803.00,3350.3408,N,11924.4845,W,1,08,1.0,12.7,M,-33.9,M,,*6C
$PYRTM,2024,127.338950553264,18.448597963414
$GPGGA,080804.00,3350.3391,N,11924.4832,W,1,08,1.0,12.6,M,-33.9,M,,*6D
$PYRTM,2024,127.338962131933,18.448609542083
$GPGGA,080805.00,3350.3374,N,11924.4817,W,1,08,1.0,12.4,M,-33.9,M,,*62
$PYRTM,2024,127.338973707037,18.448621117176
$GPGGA,080806.00,3350.3358,N,11924.4801,W,1,08,1.0,12.4,M,-33.9,M,,*68
$PYRTM,2024,127.338981101771,18.448628511910
$GPGGA,080807.00,3350.3341,N,11924.4788,W,1,08,1.0,12.4,M,-33.9,M,,*6F
$PYRTM,2024,127.338996856019,18.448644266157
$GPGGA,080808.00,3350.3323,N,11924.4778,W,1,08,1.0,12.5,M,-33.9,M,,*6A
$PYRTM,2024,127.339008454259,18.448655864398
$GPGGA,080809.00,3350.3305,N,11924.4767,W,1,08,1.0,12.6,M,-33.9,M,,*62
$PYRTM,2024,127.339020005405,18.448667415556
$GPGGA,080810.00,3350.3287,N,11924.4754,W,1,08,1.0,12.6,M,-33.9,M,,*61
$PYRTM,2024,127.339031584873,18.448678995012
$GPGGA,080811.00,3350.3270,N,11924.4738,W,1,08,1.0,12.5,M,-33.9,M,,*61
$PYRTM,2024,127.339043150567,18.448690560706
$GPGGA,080812.00,3350.3253,N,11924.4724,W,1,08,1.0,12.6,M,-33.9,M,,*6D
$PYRTM,2024,127.339050547836,18.448697957975
$GPGGA,080813.00,3350.3235,N,11924.4711,W,1,08,1.0,12.6,M,-33.9,M,,*6A
$PYRTM,2024,127.339066300324,18.448713710463
$GPGGA,080814.00,3350.3216,N,11924.4700,W,1,08,1.0,12.6,M,-33.9,M,,*6C
$PYRTM,2024,127.339077873056,18.448725283206
$GPGGA,080815.00,3350.3199,N,11924.4687,W,1,08,1.0,12.7,M,-33.9,M,,*66
$PYRTM,2024,127.339085282766,18.448732692905
$GPGGA,080816.00,3350.3182,N,11924.4673,W,1,08,1.0,12.7,M,-33.9,M,,*64
$PYRTM,2024,127.339103915822,18.448751325961
$GPGGA,080817.00,3350.3165,N,11924.4660,W,1,08,1.0,12.4,M,-33.9,M,,*6D
$PYRTM,2024,127.339112591169,18.448760001308
$GPGGA,080818.00,3350.3147,N,11924.4648,W,1,08,1.0,12.0,M,-33.9,M,,*6C
$PYRTM,2024,127.339124170347,18.448771580486
$GPGGA,080819.00,3350.3129,N,11924.4634,W,1,08,1.0,11.9,M,-33.9,M,,*64
$PYRTM,2024,127.339135739155,18.448783149294
$GPGGA,080820.00,3350.3112,N,11924.4619,W,1,08,1.0,12.4,M,-33.9,M,,*67
$PYRTM,2024,127.339147318241,18.448794728380
$GPGGA,080821.00,3350.3095,N,11924.4606,W,1,08,1.0,12.9,M,-33.9,M,,*6B
$PYRTM,2024,127.339154724329,18.448802134468
$GPGGA,080822.00,3350.3076,N,11924.4594,W,1,08,1.0,13.1,M,-33.9,M,,*64
$PYRTM,2024,127.339170465845,18.448817875984
$GPGGA,080823.00,3350.3057,N,11924.4582,W,1,08,1.0,13.0,M,-33.9,M,,*60
$PYRTM,2024,127.339182041574,18.448829451713
$GPGGA,080824.00,3350.3040,N,11924.4569,W,1,08,1.0,12.9,M,-33.9,M,,*6C
$PYRTM,2024,127.339189434907,18.448836845046
$GPGGA,080825.00,3350.3023,N,11924.4553,W,1,08,1.0,12.9,M,-33.9,M,,*61
$PYRTM,2024,127.339205183275,18.448852593414
$GPGGA,080826.00,3350.3006,N,11924.4538,W,1,08,1.0,12.7,M,-33.9,M,,*66
$PYRTM,2024,127.339216788171,18.448864198310
$GPGGA,080827.00,3350.2988,N,11924.4526,W,1,08,1.0,12.5,M,-33.9,M,,*64
$PYRTM,2024,127.339224164468,18.448871574606
$GPGGA,080828.00,3350.2969,N,11924.4515,W,1,08,1.0,12.5,M,-33.9,M,,*64
$PYRTM,2024,127.339239922234,18.448887332373
$GPGGA,080829.00,3350.2951,N,11924.4503,W,1,08,1.0,12.7,M,-33.9,M,,*6B
$PYRTM,2024,127.339251480185,18.448898890324
$GPGGA,080830.00,3350.2934,N,11924.4488,W,1,08,1.0,12.8,M,-33.9,M,,*6D
$PYRTM,2024,127.339263058854,18.448910468993
$GPGGA,080831.00,3350.2916,N,11924.4473,W,1,08,1.0,12.8,M,-33.9,M,,*68
$PYRTM,2024,127.339274634560,18.448922044699
$GPGGA,080832.00,3350.2897,N,11924.4461,W,1,08,1.0,12.6,M,-33.9,M,,*6E
$PYRTM,2024,127.339282033576,18.448929443715
$GPGGA,080833.00,3350.2879,N,11924.4451,W,1,08,1.0,12.5,M,-33.9,M,,*6F
$PYRTM,2024,127.339300670116,18.448948080255
$GPGGA,080834.00,3350.2860,N,11924.4439,W,1,08,1.0,12.5,M,-33.9,M,,*6E
$PYRTM,2024,127.339309355324,18.448956765463
$GPGGA,080835.00,3350.2844,N,11924.4424,W,1,08,1.0,12.5,M,-33.9,M,,*65
