$PYRTM,2024,124.250003728021,15.359651138160
$GPGGA,055959.00,3513.7675,N,12136.1303,W,1,09,1.0,9.6,M,-32.3,M,,*52
$PYRTM,2024,124.250015295220,15.359662705359
$GPGGA,060000.00,3513.7684,N,12136.1309,W,1,09,1.0,9.5,M,-32.3,M,,*56
$PYRTM,2024,124.250026877199,15.359674287338
$GPGGA,060001.00,3513.7695,N,12136.1309,W,1,09,1.0,9.3,M,-32.3,M,,*51
$PYRTM,2024,124.250038433530,15.359685843681
$GPGGA,060002.00,3513.7707,N,12136.1306,W,1,09,1.0,9.2,M,-32.3,M,,*56
$PYRTM,2024,124.250050024375,15.359697434514
$GPGGA,060003.00,3513.7716,N,12136.1308,W,1,09,1.0,9.4,M,-32.3,M,,*5F
$PYRTM,2024,124.250061582708,15.359708992847
$GPGGA,060004.00,3513.7723,N,12136.1313,W,1,09,1.0,10.2,M,-32.3,M,,*6A
$PYRTM,2024,124.250073171713,15.359720581852
$GPGGA,060005.00,3513.7731,N,12136.1318,W,1,09,1.0,10.8,M,-32.3,M,,*69
$PYRTM,2024,124.250084739167,15.359732149306
$GPGGA,060006.00,3513.7742,N,12136.1322,W,1,09,1.0,10.3,M,-32.3,M,,*6C
$PYRTM,2024,124.250096320810,15.359743730949
$GPGGA,060007.00,3513.7753,N,12136.1325,W,1,09,1.0,9.6,M,-32.3,M,,*57
$PYRTM,2024,124.250103590394,15.359751000532
$GPGGA,060008.00,3513.7761,N,12136.1326,W,1,09,1.0,9.6,M,-32.3,M,,*5A
$PYRTM,2024,124.250122351458,15.359769761597
$GPGGA,060009.00,3513.7769,N,12136.1326,W,1,09,1.0,10.0,M,-32.3,M,,*6D
$PYRTM,2024,124.250131031528,15.359778441667
$GPGGA,060010.00,3513.7779,N,12136.1330,W,1,09,1.0,10.2,M,-32.3,M,,*61
$PYRTM,2024,124.250142613958,15.359790024097
$GPGGA,060011.00,3513.7788,N,12136.1336,W,1,09,1.0,10.3,M,-32.3,M,,*69
$PYRTM,2024,124.250154175289,15.359801585428
$GPGGA,060012.00,3513.7798,N,12136.1337,W,1,09,1.0,10.5,M,-32.3,M,,*6C
$PYRTM,2024,124.250165762049,15.359813172187
$GPGGA,060013.00,3513.7807,N,12136.1335,W,1,09,1.0,10.8,M,-32.3,M,,*6B
$PYRTM,2024,124.250177328530,15.359824738669
$GPGGA,060014.00,3513.7818,N,12136.1337,W,1,09,1.0,10.6,M,-32.3,M,,*6E
$PYRTM,2024,124.250184609144,15.359832019282
$GPGGA,060015.00,3513.7829,N,12136.1344,W,1,09,1.0,9.7,M,-32.3,M,,*50
$PYRTM,2024,124.250200476771,15.359847886910
$GPGGA,060016.00,3513.7838,N,12136.1349,W,1,09,1.0,9.3,M,-32.3,M,,*5A
$PYRTM,2024,124.250212050637,15.359859460775
$GPGGA,060017.00,3513.7845,N,12136.1346,W,1,09,1.0,10.6,M,-32.3,M,,*63
$PYRTM,2024,124.250223625822,15.359871035961
$GPGGA,060018.00,3513.7855,N,12136.1341,W,1,09,1.0,11.7,M,-32.3,M,,*6A
$PYRTM,2024,124.250235199757,15.359882609907
$GPGGA,060019.00,3513.7869,N,12136.1341,W,1,09,1.0,11.1,M,-32.3,M,,*62
$PYRTM,2024,124.250246774618,15.359894184769
$GPGGA,060020.00,3513.7880,N,12136.1346,W,1,09,1.0,10.3,M,-32.3,M,,*6B
$PYRTM,2024,124.250258358252,15.359905768391
$GPGGA,060021.00,3513.7886,N,12136.1354,W,1,09,1.0,9.9,M,-32.3,M,,*5D
$PYRTM,2024,124.250269920903,15.359917331042
$GPGGA,060022.00,3513.7893,N,12136.1356,W,1,09,1.0,10.1,M,-32.3,M,,*68
$PYRTM,2024,124.250281504167,15.359928914317
$GPGGA,060023.00,3513.7904,N,12136.1353,W,1,09,1.0,10.2,M,-32.3,M,,*60
$PYRTM,2024,124.250288902419,15.359936312558
$GPGGA,060024.00,3513.7916,N,12136.1354,W,1,09,1.0,10.0,M,-32.3,M,,*61
$PYRTM,2024,124.250304651968,15.359952062106
$GPGGA,060025.00,3513.7925,N,12136.1357,W,1,09,1.0,10.1,M,-32.3,M,,*62
$PYRTM,2024,124.250316218727,15.359963628866
$GPGGA,060026.00,3513.7932,N,12136.1358,W,1,09,1.0,11.1,M,-32.3,M,,*69
$PYRTM,2024,124.250327800428,15.359975210567
$GPGGA,060027.00,3513.7940,N,12136.1358,W,1,09,1.0,11.9,M,-32.3,M,,*65
$PYRTM,2024,124.250339367396,15.359986777546
$GPGGA,060028.00,3513.7952,N,12136.1359,W,1,09,1.0,11.7,M,-32.3,M,,*66
$PYRTM,2024,124.250350941123,15.359998351262
$GPGGA,060029.00,3513.7963,N,12136.1362,W,1,09,1.0,11.1,M,-32.3,M,,*6B
$PYRTM,2024,124.250362514769,15.360009924907
$GPGGA,060030.00,3513.7971,N,12136.1363,W,1,09,1.0,11.1,M,-32.3,M,,*61
$PYRTM,2024,124.250374096412,15.360021506551
$GPGGA,060031.00,3513.7978,N,12136.1362,W,1,09,1.0,11.7,M,-32.3,M,,*6E
$PYRTM,2024,124.250381496528,15.360028906667
$GPGGA,060032.00,3513.7986,N,12136.1359,W,1,09,1.0,12.3,M,-32.3,M,,*63
$PYRTM,2024,124.250393172118,15.360040582257
$GPGGA,060033.00,3513.7999,N,12136.1362,W,1,09,1.0,11.8,M,-32.3,M,,*6C
$PYRTM,2024,124.250408806539,15.360056216678
$GPGGA,060034.00,3513.8011,N,12136.1367,W,1,09,1.0,10.8,M,-32.3,M,,*69
$PYRTM,2024,124.250416207697,15.360063617836
$GPGGA,060035.00,3513.8018,N,12136.1370,W,1,09,1.0,10.5,M,-32.3,M,,*6A
$PYRTM,2024,124.250431955417,15.360079365556
$GPGGA,060036.00,3513.8022,N,12136.1369,W,1,09,1.0,11.4,M,-32.3,M,,*68
$PYRTM,2024,124.250443533831,15.360090943970
$GPGGA,060037.00,3513.8031,N,12136.1364,W,1,09,1.0,11.8,M,-32.3,M,,*6A
$PYRTM,2024,124.250455109630,15.360102519780
$GPGGA,060038.00,3513.8046,N,12136.1362,W,1,09,1.0,11.3,M,-32.3,M,,*68
$PYRTM,2024,124.250462402535,15.360109812685
$GPGGA,060039.00,3513.8058,N,12136.1366,W,1,09,1.0,10.3,M,-32.3,M,,*63
$PYRTM,2024,124.250481151343,15.360128561481
$GPGGA,060040.00,3513.8063,N,12136.1373,W,1,09,1.0,10.1,M,-32.3,M,,*63
$PYRTM,2024,124.250489855220,15.360137265359
$GPGGA,060041.00,3513.8068,N,12136.1376,W,1,09,1.0,10.7,M,-32.3,M,,*6A
$PYRTM,2024,124.250501400741,15.360148810880
$GPGGA,060042.00,3513.8077,N,12136.1373,W,1,09,1.0,10.6,M,-32.3,M,,*63
$PYRTM,2024,124.250512987500,15.360160397639
$GPGGA,060043.00,3513.8088,N,12136.1368,W,1,09,1.0,10.8,M,-32.3,M,,*66
$PYRTM,2024,124.250524553576,15.360171963715
$GPGGA,060044.00,3513.8097,N,12136.1367,W,1,09,1.0,11.1,M,-32.3,M,,*68
$PYRTM,2024,124.250536138449,15.360183548588
$GPGGA,060045.00,3513.8105,N,12136.1373,W,1,09,1.0,11.0,M,-32.3,M,,*67
$PYRTM,2024,124.250547699850,15.360195109988
$GPGGA,060046.00,3513.8112,N,12136.1380,W,1,09,1.0,10.5,M,-32.3,M,,*6A
$PYRTM,2024,124.250555096157,15.360202506296
$GPGGA,060047.00,3513.8118,N,12136.1379,W,1,09,1.0,10.8,M,-32.3,M,,*6A
$PYRTM,2024,124.250570848715,15.360218258854
$GPGGA,060048.00,3513.8127,N,12136.1373,W,1,09,1.0,11.1,M,-32.3,M,,*6B
$PYRTM,2024,124.250582422894,15.360229833021
$GPGGA,060049.00,3513.8138,N,12136.1372,W,1,09,1.0,11.0,M,-32.3,M,,*64
$PYRTM,2024,124.250589702813,15.360237112951
$GPGGA,060050.00,3513.8146,N,12136.1378,W,1,09,1.0,10.9,M,-32.3,M,,*67
$PYRTM,2024,124.250605581956,15.360252992095
$GPGGA,060051.00,3513.8151,N,12136.1383,W,1,09,1.0,11.2,M,-32.3,M,,*6E
$PYRTM,2024,124.250617145833,15.360264555972
$GPGGA,060052.00,3513.8159,N,12136.1382,W,1,09,1.0,11.8,M,-32.3,M,,*6E
$PYRTM,2024,124.250628740231,15.360276150370
$GPGGA,060053.00,3513.8170,N,12136.1380,W,1,09,1.0,11.5,M,-32.3,M,,*6B
$PYRTM,2024,124.250640293275,15.360287703414
$GPGGA,060054.00,3513.8179,N,12136.1382,W,1,09,1.0,11.1,M,-32.3,M,,*63
$PYRTM,2024,124.250651877627,15.360299287766
$GPGGA,060055.00,3513.8186,N,12136.1387,W,1,09,1.0,10.9,M,-32.3,M,,*6E
$PYRTM,2024,124.250659270984,15.360306681123
$GPGGA,060056.00,3513.8193,N,12136.1389,W,1,09,1.0,11.2,M,-32.3,M,,*6D
$PYRTM,2024,124.250675017847,15.360322427986
$GPGGA,060057.00,3513.8202,N,12136.1388,W,1,09,1.0,11.4,M,-32.3,M,,*60
$PYRTM,2024,124.250682424722,15.360329834861
$GPGGA,060058.00,3513.8212,N,12136.1386,W,1,09,1.0,11.3,M,-32.3,M,,*67
$PYRTM,2024,124.250698176817,15.360345586956
$GPGGA,060059.00,3513.8223,N,12136.1388,W,1,09,1.0,10.7,M,-32.3,M,,*6F
$PYRTM,2024,124.250709734306,15.360357144444
$GPGGA,060100.00,3513.8231,N,12136.1393,W,1,09,1.0,10.6,M,-32.3,M,,*6A
$PYRTM,2024,124.250721330023,15.360368740162
$GPGGA,060101.00,3513.8237,N,12136.1397,W,1,09,1.0,11.0,M,-32.3,M,,*6E
$PYRTM,2024,124.250732882616,15.360380292755
$GPGGA,060102.00,3513.8245,N,12136.1398,W,1,09,1.0,11.3,M,-32.3,M,,*64
$PYRTM,2024,124.250740281968,15.360387692106
$GPGGA,060103.00,3513.8257,N,12136.1397,W,1,09,1.0,11.0,M,-32.3,M,,*6A
$PYRTM,2024,124.250756041771,15.360403451910
$GPGGA,060104.00,3513.8266,N,12136.1398,W,1,09,1.0,10.7,M,-32.3,M,,*66
$PYRTM,2024,124.250767620787,15.360415030926
$GPGGA,060105.00,3513.8273,N,12136.1402,W,1,09,1.0,11.0,M,-32.3,M,,*61
$PYRTM,2024,124.250779182905,15.360426593044
$GPGGA,060106.00,3513.8279,N,12136.1405,W,1,09,1.0,11.5,M,-32.3,M,,*6A
$PYRTM,2024,124.250790774444,15.360438184583
$GPGGA,060107.00,3513.8288,N,12136.1411,W,1,09,1.0,11.2,M,-32.3,M,,*67
$PYRTM,2024,124.250798159699,15.360445569838
$GPGGA,060108.00,3513.8298,N,12136.1415,W,1,09,1.0,10.7,M,-32.3,M,,*69
$PYRTM,2024,124.250813931968,15.360461342106
$GPGGA,060109.00,3513.8307,N,12136.1413,W,1,09,1.0,11.0,M,-32.3,M,,*6F
$PYRTM,2024,124.250821307836,15.360468717975
$GPGGA,060110.00,3513.8315,N,12136.1413,W,1,09,1.0,11.3,M,-32.3,M,,*67
$PYRTM,2024,124.250839951493,15.360487361632
$GPGGA,060111.00,3513.8323,N,12136.1418,W,1,09,1.0,11.5,M,-32.3,M,,*6E
$PYRTM,2024,124.250848629792,15.360496039931
$GPGGA,060112.00,3513.8331,N,12136.1427,W,1,09,1.0,11.3,M,-32.3,M,,*64
$PYRTM,2024,124.250860213125,15.360507623264
$GPGGA,060113.00,3513.8340,N,12136.1431,W,1,09,1.0,11.1,M,-32.3,M,,*66
$PYRTM,2024,124.250871773461,15.360519183611
$GPGGA,060114.00,3513.8347,N,12136.1428,W,1,09,1.0,11.4,M,-32.3,M,,*6B
$PYRTM,2024,124.250883363391,15.360530773530
$GPGGA,060115.00,3513.8357,N,12136.1427,W,1,09,1.0,11.5,M,-32.3,M,,*65
$PYRTM,2024,124.250890758252,15.360538168391
$GPGGA,060116.00,3513.8368,N,12136.1433,W,1,09,1.0,11.2,M,-32.3,M,,*68
$PYRTM,2024,124.250906500255,15.360553910394
$GPGGA,060117.00,3513.8377,N,12136.1442,W,1,09,1.0,10.7,M,-32.3,M,,*65
$PYRTM,2024,124.250918074965,15.360565485104
$GPGGA,060118.00,3513.8381,N,12136.1447,W,1,09,1.0,10.7,M,-32.3,M,,*66
$PYRTM,2024,124.250929647454,15.360577057593
$GPGGA,060119.00,3513.8387,N,12136.1445,W,1,09,1.0,11.0,M,-32.3,M,,*65
$PYRTM,2024,124.250941217280,15.360588627419
$GPGGA,060120.00,3513.8399,N,12136.1443,W,1,09,1.0,10.8,M,-32.3,M,,*6F
$PYRTM,2024,124.250952804051,15.360600214190
$GPGGA,060121.00,3513.8412,N,12136.1447,W,1,09,1.0,9.8,M,-32.3,M,,*56
$PYRTM,2024,124.250964364803,15.360611774942
$GPGGA,060122.00,3513.8417,N,12136.1454,W,1,09,1.0,9.3,M,-32.3,M,,*59
$PYRTM,2024,124.250975972361,15.360623382500
$GPGGA,060123.00,3513.8419,N,12136.1459,W,1,09,1.0,9.4,M,-32.3,M,,*5C
$PYRTM,2024,124.250987520162,15.360634930301
$GPGGA,060124.00,3513.8426,N,12136.1461,W,1,09,1.0,9.6,M,-32.3,M,,*5E
$PYRTM,2024,124.250999100104,15.360646510243
$GPGGA,060125.00,3513.8438,N,12136.1460,W,1,09,1.0,9.7,M,-32.3,M,,*50
$PYRTM,2024,124.251010667292,15.360658077431
$GPGGA,060126.00,3513.8445,N,12136.1458,W,1,09,1.0,9.8,M,-32.3,M,,*5D
$PYRTM,2024,124.251022241505,15.360669651655
$GPGGA,060127.00,3513.8449,N,12136.1459,W,1,09,1.0,9.9,M,-32.3,M,,*50
$PYRTM,2024,124.251029520081,15.360676930220
$GPGGA,060128.00,3513.8457,N,12136.1464,W,1,09,1.0,9.6,M,-32.3,M,,*51
$PYRTM,2024,124.251045388958,15.360692799097
$GPGGA,060129.00,3513.8466,N,12136.1470,W,1,09,1.0,8.9,M,-32.3,M,,*59
$PYRTM,2024,124.251056958056,15.360704368194
$GPGGA,060130.00,3513.8472,N,12136.1471,W,1,09,1.0,8.6,M,-32.3,M,,*5A
$PYRTM,2024,124.251068537072,15.360715947211
$GPGGA,060131.00,3513.8477,N,12136.1470,W,1,09,1.0,8.8,M,-32.3,M,,*51
$PYRTM,2024,124.251080106134,15.360727516273
$GPGGA,060132.00,3513.8484,N,12136.1470,W,1,09,1.0,8.9,M,-32.3,M,,*5F
$PYRTM,2024,124.251091686238,15.360739096377
$GPGGA,060133.00,3513.8494,N,12136.1473,W,1,09,1.0,8.8,M,-32.3,M,,*5D
$PYRTM,2024,124.251103259664,15.360750669803
$GPGGA,060134.00,3513.8503,N,12136.1479,W,1,09,1.0,7.9,M,-32.3,M,,*51
$PYRTM,2024,124.251114833981,15.360762244120
$GPGGA,060135.00,3513.8510,N,12136.1484,W,1,09,1.0,7.5,M,-32.3,M,,*5C
$PYRTM,2024,124.251126408634,15.360773818773
$GPGGA,060136.00,3513.8513,N,12136.1485,W,1,09,1.0,7.7,M,-32.3,M,,*5F
$PYRTM,2024,124.251138008102,15.360785418241
$GPGGA,060137.00,3513.8517,N,12136.1484,W,1,09,1.0,7.8,M,-32.3,M,,*54
$PYRTM,2024,124.251149551354,15.360796961493
$GPGGA,060138.00,3513.8526,N,12136.1486,W,1,09,1.0,7.6,M,-32.3,M,,*55
$PYRTM,2024,124.251156835509,15.360804245648
$GPGGA,060139.00,3513.8537,N,12136.1490,W,1,09,1.0,6.8,M,-32.3,M,,*5C
$PYRTM,2024,124.251172699097,15.360820109236
$GPGGA,060140.00,3513.8545,N,12136.1493,W,1,09,1.0,6.2,M,-32.3,M,,*5E
$PYRTM,2024,124.251179984641,15.360827394780
$GPGGA,060141.00,3513.8548,N,12136.1495,W,1,09,1.0,6.1,M,-32.3,M,,*57
$PYRTM,2024,124.251198629468,15.360846039606
$GPGGA,060142.00,3513.8551,N,12136.1496,W,1,09,1.0,6.3,M,-32.3,M,,*5D
$PYRTM,2024,124.251207427998,15.360854838137
$GPGGA,060143.00,3513.8560,N,12136.1498,W,1,09,1.0,6.3,M,-32.3,M,,*50
$PYRTM,2024,124.251218996458,15.360866406597
$GPGGA,060144.00,3513.8572,N,12136.1499,W,1,09,1.0,5.7,M,-32.3,M,,*52
$PYRTM,2024,124.251230575197,15.360877985336
$GPGGA,060145.00,3513.8581,N,12136.1503,W,1,09,1.0,5.2,M,-32.3,M,,*58
$PYRTM,2024,124.251237852894,15.360885263032
$GPGGA,060146.00,3513.8586,N,12136.1509,W,1,09,1.0,5.2,M,-32.3,M,,*56
$PYRTM,2024,124.251253734132,15.360901144271
$GPGGA,060147.00,3513.8591,N,12136.1510,W,1,09,1.0,5.4,M,-32.3,M,,*5F
$PYRTM,2024,124.251265298299,15.360912708438
$GPGGA,060148.00,3513.8600,N,12136.1509,W,1,09,1.0,5.5,M,-32.3,M,,*52
$PYRTM,2024,124.251272590671,15.360920000799
$GPGGA,060149.00,3513.8611,N,12136.1511,W,1,09,1.0,5.3,M,-32.3,M,,*5C
$PYRTM,2024,124.251288448148,15.360935858287
$GPGGA,060150.00,3513.8619,N,12136.1517,W,1,09,1.0,4.9,M,-32.3,M,,*51
$PYRTM,2024,124.251300044896,15.360947455035
$GPGGA,060151.00,3513.8624,N,12136.1521,W,1,09,1.0,4.9,M,-32.3,M,,*5B
$PYRTM,2024,124.251311588877,15.360958999016
$GPGGA,060152.00,3513.8630,N,12136.1522,W,1,09,1.0,5.1,M,-32.3,M,,*57
$PYRTM,2024,124.251323177465,15.360970587604
$GPGGA,060153.00,3513.8640,N,12136.1521,W,1,09,1.0,5.0,M,-32.3,M,,*53
$PYRTM,2024,124.251334743345,15.360982153484
$GPGGA,060154.00,3513.8650,N,12136.1525,W,1,09,1.0,4.7,M,-32.3,M,,*57
$PYRTM,2024,124.251346316424,15.360993726563
$GPGGA,060155.00,3513.8656,N,12136.1530,W,1,09,1.0,4.6,M,-32.3,M,,*55
$PYRTM,2024,124.251357891030,15.361005301169
$GPGGA,060156.00,3513.8660,N,12136.1532,W,1,09,1.0,4.8,M,-32.3,M,,*5F
$PYRTM,2024,124.251369464826,15.361016874965
$GPGGA,060157.00,3513.8668,N,12136.1530,W,1,09,1.0,5.1,M,-32.3,M,,*5C
$PYRTM,2024,124.251381039387,15.361028449525
$GPGGA,060158.00,3513.8681,N,12136.1531,W,1,09,1.0,4.8,M,-32.3,M,,*5D
$PYRTM,2024,124.251392625035,15.361040035174
$GPGGA,060159.00,3513.8690,N,12136.1535,W,1,09,1.0,4.4,M,-32.3,M,,*54
$PYRTM,2024,124.251400015475,15.361047425625
$GPGGA,060200.00,3513.8694,N,12136.1538,W,1,09,1.0,4.5,M,-32.3,M,,*53
$PYRTM,2024,124.251418539271,15.361065949410
$GPGGA,060201.00,3513.8701,N,12136.1535,W,1,09,1.0,5.2,M,-32.3,M,,*54
$PYRTM,2024,124.251427335556,15.361074745706
$GPGGA,060202.00,3513.8711,N,12136.1532,W,1,09,1.0,5.6,M,-32.3,M,,*55
$PYRTM,2024,124.251438909225,15.361086319363
$GPGGA,060203.00,3513.8722,N,12136.1532,W,1,09,1.0,5.6,M,-32.3,M,,*54
$PYRTM,2024,124.251446188437,15.361093598576
$GPGGA,060204.00,3513.8729,N,12136.1540,W,1,09,1.0,5.9,M,-32.3,M,,*52
$PYRTM,2024,124.251462084225,15.361109494363
$GPGGA,060205.00,3513.8735,N,12136.1544,W,1,09,1.0,6.1,M,-32.3,M,,*51
$PYRTM,2024,124.251473633854,15.361121043993
$GPGGA,060206.00,3513.8745,N,12136.1541,W,1,09,1.0,6.2,M,-32.3,M,,*53
$PYRTM,2024,124.251485216725,15.361132626863
$GPGGA,060207.00,3513.8755,N,12136.1538,W,1,09,1.0,6.1,M,-32.3,M,,*5E
$PYRTM,2024,124.251496779699,15.361144189838
$GPGGA,060208.00,3513.8762,N,12136.1540,W,1,09,1.0,6.5,M,-32.3,M,,*5E
$PYRTM,2024,124.251508364850,15.361155774988
$GPGGA,060209.00,3513.8770,N,12136.1545,W,1,09,1.0,6.8,M,-32.3,M,,*54
$PYRTM,2024,124.251519928576,15.361167338715
$GPGGA,060210.00,3513.8778,N,12136.1546,W,1,09,1.0,7.4,M,-32.3,M,,*5A
$PYRTM,2024,124.251531502662,15.361178912801
$GPGGA,060211.00,3513.8788,N,12136.1545,W,1,09,1.0,7.7,M,-32.3,M,,*54
$PYRTM,2024,124.251538782257,15.361186192396
$GPGGA,060212.00,3513.8798,N,12136.1545,W,1,09,1.0,7.5,M,-32.3,M,,*54
$PYRTM,2024,124.251557440602,15.361204850741
$GPGGA,060213.00,3513.8806,N,12136.1550,W,1,09,1.0,7.1,M,-32.3,M,,*5D
$PYRTM,2024,124.251566221215,15.361213631354
$GPGGA,060214.00,3513.8814,N,12136.1555,W,1,09,1.0,7.1,M,-32.3,M,,*5C
$PYRTM,2024,124.251573504641,15.361220914780
$GPGGA,060215.00,3513.8821,N,12136.1556,W,1,09,1.0,7.8,M,-32.3,M,,*51
$PYRTM,2024,124.251589373808,15.361236783947
$GPGGA,060216.00,3513.8830,N,12136.1553,W,1,09,1.0,8.8,M,-32.3,M,,*58
$PYRTM,2024,124.251600947280,15.361248357419
$GPGGA,060217.00,3513.8841,N,12136.1550,W,1,09,1.0,9.3,M,-32.3,M,,*56
$PYRTM,2024,124.251612521100,15.361259931238
$GPGGA,060218.00,3513.8851,N,12136.1553,W,1,09,1.0,8.8,M,-32.3,M,,*51
$PYRTM,2024,124.251624121053,15.361271531192
$GPGGA,060219.00,3513.8860,N,12136.1563,W,1,09,1.0,7.9,M,-32.3,M,,*5F
$PYRTM,2024,124.251635671829,15.361283081968
$GPGGA,060220.00,3513.8867,N,12136.1570,W,1,09,1.0,7.5,M,-32.3,M,,*5C
$PYRTM,2024,124.251647252650,15.361294662789
$GPGGA,060221.00,3513.8874,N,12136.1569,W,1,09,1.0,8.2,M,-32.3,M,,*5F
$PYRTM,2024,124.251658817616,15.361306227755
$GPGGA,060222.00,3513.8883,N,12136.1564,W,1,09,1.0,9.2,M,-32.3,M,,*58
$PYRTM,2024,124.251666098530,15.361313508669
$GPGGA,060223.00,3513.8895,N,12136.1563,W,1,09,1.0,9.4,M,-32.3,M,,*5F
$PYRTM,2024,124.251681961285,15.361329371424
$GPGGA,060224.00,3513.8906,N,12136.1569,W,1,09,1.0,8.9,M,-32.3,M,,*55
$PYRTM,2024,124.251693551586,15.361340961736
$GPGGA,060225.00,3513.8914,N,12136.1579,W,1,09,1.0,8.3,M,-32.3,M,,*5C
$PYRTM,2024,124.251705115081,15.361352525220
$GPGGA,060226.00,3513.8920,N,12136.1586,W,1,09,1.0,8.3,M,-32.3,M,,*58
$PYRTM,2024,124.251716688356,15.361364098495
$GPGGA,060227.00,3513.8927,N,12136.1586,W,1,09,1.0,8.9,M,-32.3,M,,*54
$PYRTM,2024,124.251728264005,15.361375674144
$GPGGA,060228.00,3513.8938,N,12136.1583,W,1,09,1.0,9.5,M,-32.3,M,,*5D
$PYRTM,2024,124.251739836817,15.361387246956
$GPGGA,060229.00,3513.8950,N,12136.1582,W,1,09,1.0,9.6,M,-32.3,M,,*50
$PYRTM,2024,124.251751411701,15.361398821852
$GPGGA,060230.00,3513.8960,N,12136.1587,W,1,09,1.0,9.2,M,-32.3,M,,*5A
$PYRTM,2024,124.251762993738,15.361410403877
$GPGGA,060231.00,3513.8968,N,12136.1598,W,1,09,1.0,8.7,M,-32.3,M,,*59
$PYRTM,2024,124.251770263472,15.361417673611
$GPGGA,060232.00,3513.8974,N,12136.1606,W,1,09,1.0,8.6,M,-32.3,M,,*52
$PYRTM,2024,124.251786141146,15.361433551285
$GPGGA,060233.00,3513.8981,N,12136.1604,W,1,09,1.0,9.1,M,-32.3,M,,*5D
$PYRTM,2024,124.251797707801,15.361445117940
$GPGGA,060234.00,3513.8992,N,12136.1600,W,1,09,1.0,9.6,M,-32.3,M,,*5B
$PYRTM,2024,124.251804987002,15.361452397141
$GPGGA,060235.00,3513.9005,N,12136.1602,W,1,09,1.0,9.4,M,-32.3,M,,*5C
$PYRTM,2024,124.251820856887,15.361468267025
$GPGGA,060236.00,3513.9013,N,12136.1609,W,1,09,1.0,9.0,M,-32.3,M,,*57
$PYRTM,2024,124.251832441678,15.361479851829
$GPGGA,060237.00,3513.9020,N,12136.1616,W,1,09,1.0,8.9,M,-32.3,M,,*50
$PYRTM,2024,124.251844000822,15.361491410961
$GPGGA,060238.00,3513.9029,N,12136.1619,W,1,09,1.0,8.9,M,-32.3,M,,*59
$PYRTM,2024,124.251855588542,15.361502998681
$GPGGA,060239.00,3513.9041,N,12136.1618,W,1,09,1.0,9.0,M,-32.3,M,,*5F
$PYRTM,2024,124.251867154884,15.361514565035
$GPGGA,060240.00,3513.9051,N,12136.1616,W,1,09,1.0,9.3,M,-32.3,M,,*5D
$PYRTM,2024,124.251878725914,15.361526136053
$GPGGA,060241.00,3513.9061,N,12136.1618,W,1,09,1.0,9.5,M,-32.3,M,,*57
$PYRTM,2024,124.251890301065,15.361537711204
$GPGGA,060242.00,3513.9071,N,12136.1624,W,1,09,1.0,9.3,M,-32.3,M,,*5C
$PYRTM,2024,124.251897580347,15.361544990486
$GPGGA,060243.00,3513.9077,N,12136.1633,W,1,09,1.0,9.0,M,-32.3,M,,*5E
$PYRTM,2024,124.251916224167,15.361563634306
$GPGGA,060244.00,3513.9084,N,12136.1638,W,1,09,1.0,9.0,M,-32.3,M,,*5E
$PYRTM,2024,124.251925034514,15.361572444664
$GPGGA,060245.00,3513.9095,N,12136.1639,W,1,09,1.0,8.8,M,-32.3,M,,*57
$PYRTM,2024,124.251936594965,15.361584005104
$GPGGA,060246.00,3513.9107,N,12136.1637,W,1,09,1.0,8.6,M,-32.3,M,,*5E
$PYRTM,2024,124.251948194815,15.361595604954
$GPGGA,060247.00,3513.9113,N,12136.1638,W,1,09,1.0,9.0,M,-32.3,M,,*52
$PYRTM,2024,124.251955451887,15.361602862025
$GPGGA,060248.00,3513.9117,N,12136.1647,W,1,09,1.0,10.1,M,-32.3,M,,*68
$PYRTM,2024,124.251971327014,15.361618737164
$GPGGA,060249.00,3513.9124,N,12136.1657,W,1,09,1.0,9.9,M,-32.3,M,,*58
$PYRTM,2024,124.251982894352,15.361630304491
$GPGGA,060250.00,3513.9135,N,12136.1662,W,1,09,1.0,8.8,M,-32.3,M,,*56
$PYRTM,2024,124.251994475810,15.361641885949
$GPGGA,060251.00,3513.9142,N,12136.1663,W,1,09,1.0,8.4,M,-32.3,M,,*5A
$PYRTM,2024,124.252006042604,15.361653452755
$GPGGA,060252.00,3513.9148,N,12136.1662,W,1,09,1.0,9.2,M,-32.3,M,,*55
$PYRTM,2024,124.252013320174,15.361660730313
$GPGGA,060253.00,3513.9156,N,12136.1662,W,1,09,1.0,10.0,M,-32.3,M,,*61
$PYRTM,2024,124.252029190556,15.361676600683
$GPGGA,060254.00,3513.9166,N,12136.1669,W,1,09,1.0,9.8,M,-32.3,M,,*5E
$PYRTM,2024,124.252040775139,15.361688185278
$GPGGA,060255.00,3513.9174,N,12136.1676,W,1,09,1.0,9.5,M,-32.3,M,,*5F
$PYRTM,2024,124.252052339699,15.361699749850
$GPGGA,060256.00,3513.9178,N,12136.1680,W,1,09,1.0,9.6,M,-32.3,M,,*5A
$PYRTM,2024,124.252063912963,15.361711323102
$GPGGA,060257.00,3513.9185,N,12136.1680,W,1,09,1.0,9.9,M,-32.3,M,,*56
$PYRTM,2024,124.252071193275,15.361718603426
$GPGGA,060258.00,3513.9197,N,12136.1680,W,1,09,1.0,9.4,M,-32.3,M,,*57
$PYRTM,2024,124.252087061296,15.361734471447
$GPGGA,060259.00,3513.9208,N,12136.1684,W,1,09,1.0,8.8,M,-32.3,M,,*5A
$PYRTM,2024,124.252098635694,15.361746045833
$GPGGA,060300.00,3513.9212,N,12136.1687,W,1,09,1.0,8.9,M,-32.3,M,,*5E
$PYRTM,2024,124.252110234005,15.361757644144
$GPGGA,060301.00,3513.9213,N,12136.1691,W,1,09,1.0,9.6,M,-32.3,M,,*57
$PYRTM,2024,124.252121783218,15.361769193356
$GPGGA,060302.00,3513.9221,N,12136.1694,W,1,09,1.0,9.7,M,-32.3,M,,*51
$PYRTM,2024,124.252133365139,15.361780775278
$GPGGA,060303.00,3513.9233,N,12136.1698,W,1,09,1.0,9.1,M,-32.3,M,,*59
$PYRTM,2024,124.252140637627,15.361788047766
$GPGGA,060304.00,3513.9240,N,12136.1699,W,1,09,1.0,8.8,M,-32.3,M,,*53
$PYRTM,2024,124.252156518194,15.361803928333
$GPGGA,060305.00,3513.9242,N,12136.1699,W,1,09,1.0,9.0,M,-32.3,M,,*59
$PYRTM,2024,124.252168080440,15.361815490579
$GPGGA,060306.00,3513.9247,N,12136.1700,W,1,09,1.0,9.2,M,-32.3,M,,*5C
$PYRTM,2024,124.252179654086,15.361827064225
$GPGGA,060307.00,3513.9256,N,12136.1704,W,1,09,1.0,9.0,M,-32.3,M,,*5B
$PYRTM,2024,124.252186934213,15.361834344352
$GPGGA,060308.00,3513.9266,N,12136.1709,W,1,09,1.0,8.3,M,-32.3,M,,*58
$PYRTM,2024,124.252202802569,15.361850212708
$GPGGA,060309.00,3513.9272,N,12136.1713,W,1,09,1.0,7.9,M,-32.3,M,,*52
$PYRTM,2024,124.252214377616,15.361861787755
$GPGGA,060310.00,3513.9275,N,12136.1715,W,1,09,1.0,8.1,M,-32.3,M,,*5C
$PYRTM,2024,124.252225950972,15.361873361123
$GPGGA,060311.00,3513.9282,N,12136.1715,W,1,09,1.0,8.3,M,-32.3,M,,*57
$PYRTM,2024,124.252237525069,15.361884935208
$GPGGA,060312.00,3513.9291,N,12136.1715,W,1,09,1.0,8.3,M,-32.3,M,,*56
$PYRTM,2024,124.252249098576,15.361896508715
$GPGGA,060313.00,3513.9300,N,12136.1719,W,1,09,1.0,8.1,M,-32.3,M,,*50
$PYRTM,2024,124.252256379097,15.361903789248
$GPGGA,060314.00,3513.9306,N,12136.1726,W,1,09,1.0,8.0,M,-32.3,M,,*5C
$PYRTM,2024,124.252275024919,15.361922435058
$GPGGA,060315.00,3513.9311,N,12136.1730,W,1,09,1.0,8.1,M,-32.3,M,,*5D
$PYRTM,2024,124.252283823056,15.361931233194
$GPGGA,060316.00,3513.9318,N,12136.1731,W,1,09,1.0,8.2,M,-32.3,M,,*55
$PYRTM,2024,124.252295403519,15.361942813657
$GPGGA,060317.00,3513.9326,N,12136.1730,W,1,09,1.0,8.4,M,-32.3,M,,*5E
$PYRTM,2024,124.252306969988,15.361954380127
$GPGGA,060318.00,3513.9333,N,12136.1730,W,1,09,1.0,8.5,M,-32.3,M,,*54
$PYRTM,2024,124.252318543750,15.361965953889
$GPGGA,060319.00,3513.9341,N,12136.1736,W,1,09,1.0,8.3,M,-32.3,M,,*50
$PYRTM,2024,124.252330118148,15.361977528287
$GPGGA,060320.00,3513.9348,N,12136.1742,W,1,09,1.0,8.0,M,-32.3,M,,*53
$PYRTM,2024,124.252337397928,15.361984808067
$GPGGA,060321.00,3513.9355,N,12136.1747,W,1,09,1.0,8.1,M,-32.3,M,,*5A
$PYRTM,2024,124.252353266007,15.362000676146
$GPGGA,060322.00,3513.9362,N,12136.1747,W,1,09,1.0,8.5,M,-32.3,M,,*59
$PYRTM,2024,124.252364840475,15.362012250613
$GPGGA,060323.00,3513.9371,N,12136.1745,W,1,09,1.0,8.8,M,-32.3,M,,*55
$PYRTM,2024,124.252376414444,15.362023824583
$GPGGA,060324.00,3513.9379,N,12136.1747,W,1,09,1.0,9.0,M,-32.3,M,,*51
$PYRTM,2024,124.252387988356,15.362035398495
$GPGGA,060325.00,3513.9388,N,12136.1753,W,1,09,1.0,8.8,M,-32.3,M,,*52
$PYRTM,2024,124.252395266354,15.362042676493
$GPGGA,060326.00,3513.9396,N,12136.1760,W,1,09,1.0,8.3,M,-32.3,M,,*55
$PYRTM,2024,124.252411148438,15.362058558576
$GPGGA,060327.00,3513.9404,N,12136.1763,W,1,09,1.0,8.1,M,-32.3,M,,*59
$PYRTM,2024,124.252418415949,15.362065826088
$GPGGA,060328.00,3513.9410,N,12136.1762,W,1,09,1.0,8.4,M,-32.3,M,,*57
$PYRTM,2024,124.252430221736,15.362077631875
$GPGGA,060329.00,3513.9417,N,12136.1762,W,1,09,1.0,8.9,M,-32.3,M,,*5C
$PYRTM,2024,124.252445859803,15.362093269942
$GPGGA,060330.00,3513.9428,N,12136.1765,W,1,09,1.0,8.7,M,-32.3,M,,*51
$PYRTM,2024,124.252457441505,15.362104851644
$GPGGA,060331.00,3513.9440,N,12136.1769,W,1,09,1.0,8.1,M,-32.3,M,,*54
$PYRTM,2024,124.252469009931,15.362116420069
$GPGGA,060332.00,3513.9445,N,12136.1773,W,1,09,1.0,8.0,M,-32.3,M,,*58
$PYRTM,2024,124.252480604109,15.362128014248
$GPGGA,060333.00,3513.9447,N,12136.1776,W,1,09,1.0,8.4,M,-32.3,M,,*5A
$PYRTM,2024,124.252492161667,15.362139571806
$GPGGA,060334.00,3513.9455,N,12136.1777,W,1,09,1.0,8.7,M,-32.3,M,,*5C
$PYRTM,2024,124.252503724606,15.362151134745
$GPGGA,060335.00,3513.9467,N,12136.1777,W,1,09,1.0,8.3,M,-32.3,M,,*58
$PYRTM,2024,124.252511008090,15.362158418229
$GPGGA,060336.00,3513.9477,N,12136.1781,W,1,09,1.0,7.9,M,-32.3,M,,*56
$PYRTM,2024,124.252526872384,15.362174282523
$GPGGA,060337.00,3513.9482,N,12136.1786,W,1,09,1.0,8.1,M,-32.3,M,,*5D
$PYRTM,2024,124.252538456956,15.362185867095
$GPGGA,060338.00,3513.9485,N,12136.1790,W,1,09,1.0,8.6,M,-32.3,M,,*55
$PYRTM,2024,124.252550014282,15.362197424421
$GPGGA,060339.00,3513.9493,N,12136.1790,W,1,09,1.0,9.2,M,-32.3,M,,*56
$PYRTM,2024,124.252561604676,15.362209014826
$GPGGA,060340.00,3513.9505,N,12136.1792,W,1,09,1.0,8.5,M,-32.3,M,,*52
$PYRTM,2024,124.252573162558,15.362220572697
$GPGGA,060341.00,3513.9514,N,12136.1796,W,1,09,1.0,7.6,M,-32.3,M,,*5B
$PYRTM,2024,124.252584758356,15.362232168495
$GPGGA,060342.00,3513.9521,N,12136.1801,W,1,09,1.0,7.3,M,-32.3,M,,*5A
$PYRTM,2024,124.252596310880,15.362243721019
$GPGGA,060343.00,3513.9525,N,12136.1804,W,1,09,1.0,7.6,M,-32.3,M,,*5F
$PYRTM,2024,124.252607897824,15.362255307963
$GPGGA,060344.00,3513.9531,N,12136.1803,W,1,09,1.0,8.2,M,-32.3,M,,*51
$PYRTM,2024,124.252615189178,15.362262599317
$GPGGA,060345.00,3513.9542,N,12136.1802,W,1,09,1.0,8.5,M,-32.3,M,,*52
$PYRTM,2024,124.252633823183,15.362281233322
$GPGGA,060346.00,3513.9554,N,12136.1807,W,1,09,1.0,7.6,M,-32.3,M,,*5F
$PYRTM,2024,124.252642607234,15.362290017384
$GPGGA,060347.00,3513.9560,N,12136.1815,W,1,09,1.0,7.2,M,-32.3,M,,*5E
$PYRTM,2024,124.252654193634,15.362301603773
$GPGGA,060348.00,3513.9562,N,12136.1819,W,1,09,1.0,7.6,M,-32.3,M,,*5B
$PYRTM,2024,124.252665755567,15.362313165706
$GPGGA,060349.00,3513.9569,N,12136.1817,W,1,09,1.0,8.1,M,-32.3,M,,*57
$PYRTM,2024,124.252677345891,15.362324756042
$GPGGA,060350.00,3513.9581,N,12136.1815,W,1,09,1.0,8.0,M,-32.3,M,,*5A
$PYRTM,2024,124.252688903079,15.362336313229
$GPGGA,060351.00,3513.9591,N,12136.1818,W,1,09,1.0,7.4,M,-32.3,M,,*5C
$PYRTM,2024,124.252700493831,15.362347903970
$GPGGA,060352.00,3513.9596,N,12136.1825,W,1,09,1.0,7.5,M,-32.3,M,,*57
$PYRTM,2024,124.252712051597,15.362359461736
$GPGGA,060353.00,3513.9600,N,12136.1829,W,1,09,1.0,8.0,M,-32.3,M,,*5C
$PYRTM,2024,124.252723638345,15.362371048484
$GPGGA,060354.00,3513.9607,N,12136.1831,W,1,09,1.0,8.4,M,-32.3,M,,*51
$PYRTM,2024,124.252735198958,15.362382609097
$GPGGA,060355.00,3513.9618,N,12136.1831,W,1,09,1.0,8.5,M,-32.3,M,,*5F
$PYRTM,2024,124.252746782604,15.362394192731
$GPGGA,060356.00,3513.9627,N,12136.1830,W,1,09,1.0,8.3,M,-32.3,M,,*57
$PYRTM,2024,124.252758346354,15.362405756493
$GPGGA,060357.00,3513.9632,N,12136.1833,W,1,09,1.0,8.8,M,-32.3,M,,*5A
$PYRTM,2024,124.252769935370,15.362417345509
$GPGGA,060358.00,3513.9638,N,12136.1838,W,1,09,1.0,8.8,M,-32.3,M,,*54
$PYRTM,2024,124.252781497326,15.362428907465
$GPGGA,060359.00,3513.9648,N,12136.1843,W,1,09,1.0,8.9,M,-32.3,M,,*5F
$PYRTM,2024,124.252793083148,15.362440493287
$GPGGA,060400.00,3513.9659,N,12136.1845,W,1,09,1.0,8.4,M,-32.3,M,,*5F
$PYRTM,2024,124.252804646921,15.362452057060
$GPGGA,060401.00,3513.9666,N,12136.1842,W,1,09,1.0,8.7,M,-32.3,M,,*56
$PYRTM,2024,124.252816232095,15.362463642222
$GPGGA,060402.00,3513.9671,N,12136.1840,W,1,09,1.0,9.2,M,-32.3,M,,*55
$PYRTM,2024,124.252827792720,15.362475202859
$GPGGA,060403.00,3513.9680,N,12136.1843,W,1,09,1.0,9.0,M,-32.3,M,,*5B
$PYRTM,2024,124.252839380093,15.362486790231
$GPGGA,060404.00,3513.9691,N,12136.1849,W,1,09,1.0,8.2,M,-32.3,M,,*55
$PYRTM,2024,124.252850941863,15.362498352002
$GPGGA,060405.00,3513.9700,N,12136.1854,W,1,09,1.0,7.3,M,-32.3,M,,*5F
$PYRTM,2024,124.252862543148,15.362509953287
$GPGGA,060406.00,3513.9705,N,12136.1855,W,1,09,1.0,7.5,M,-32.3,M,,*5E
$PYRTM,2024,124.252874090023,15.362521500162
$GPGGA,060407.00,3513.9709,N,12136.1853,W,1,09,1.0,8.7,M,-32.3,M,,*58
$PYRTM,2024,124.252881380903,15.362528791042
$GPGGA,060408.00,3513.9717,N,12136.1852,W,1,09,1.0,8.7,M,-32.3,M,,*59
$PYRTM,2024,124.252900016887,15.362547427025
$GPGGA,060409.00,3513.9729,N,12136.1855,W,1,09,1.0,8.1,M,-32.3,M,,*54
$PYRTM,2024,124.252908824560,15.362556234699
$GPGGA,060410.00,3513.9739,N,12136.1863,W,1,09,1.0,6.9,M,-32.3,M,,*5E
$PYRTM,2024,124.252920387222,15.362567797361
$GPGGA,060411.00,3513.9742,N,12136.1871,W,1,09,1.0,6.4,M,-32.3,M,,*5D
$PYRTM,2024,124.252931976030,15.362579386169
$GPGGA,060412.00,3513.9743,N,12136.1867,W,1,09,1.0,6.9,M,-32.3,M,,*55
$PYRTM,2024,124.252943535266,15.362590945405
$GPGGA,060413.00,3513.9749,N,12136.1856,W,1,09,1.0,7.3,M,-32.3,M,,*57
$PYRTM,2024,124.252955122257,15.362602532396
$GPGGA,060414.00,3513.9761,N,12136.1852,W,1,09,1.0,6.7,M,-32.3,M,,*5B
$PYRTM,2024,124.252966682766,15.362614092905
$GPGGA,060415.00,3513.9773,N,12136.1860,W,1,09,1.0,5.4,M,-32.3,M,,*58
$PYRTM,2024,124.252973975498,15.362621385625
$GPGGA,060416.00,3513.9774,N,12136.1869,W,1,09,1.0,4.8,M,-32.3,M,,*58
$PYRTM,2024,124.252992609340,15.362640019479
$GPGGA,060417.00,3513.9773,N,12136.1869,W,1,09,1.0,5.1,M,-32.3,M,,*56
$PYRTM,2024,124.253001431944,15.362648842083
$GPGGA,060418.00,3513.9779,N,12136.1861,W,1,09,1.0,5.5,M,-32.3,M,,*5F
$PYRTM,2024,124.253012978773,15.362660388912
$GPGGA,060419.00,3513.9790,N,12136.1854,W,1,09,1.0,5.7,M,-32.3,M,,*5D
$PYRTM,2024,124.253020272153,15.362667682292
$GPGGA,060420.00,3513.9799,N,12136.1858,W,1,09,1.0,5.5,M,-32.3,M,,*50
$PYRTM,2024,124.253036127431,15.362683537569
$GPGGA,060421.00,3513.9802,N,12136.1868,W,1,09,1.0,5.4,M,-32.3,M,,*5E
$PYRTM,2024,124.253047728067,15.362695138206
$GPGGA,060422.00,3513.9805,N,12136.1874,W,1,09,1.0,5.5,M,-32.3,M,,*56
$PYRTM,2024,124.253059275660,15.362706685799
$GPGGA,060423.00,3513.9811,N,12136.1871,W,1,09,1.0,5.8,M,-32.3,M,,*5A
$PYRTM,2024,124.253070863009,15.362718273148
$GPGGA,060424.00,3513.9820,N,12136.1865,W,1,09,1.0,6.1,M,-32.3,M,,*50
$PYRTM,2024,124.253082423912,15.362729834051
$GPGGA,060425.00,3513.9827,N,12136.1864,W,1,09,1.0,6.6,M,-32.3,M,,*50
$PYRTM,2024,124.253094007546,15.362741417685
$GPGGA,060426.00,3513.9833,N,12136.1868,W,1,09,1.0,7.1,M,-32.3,M,,*5C
$PYRTM,2024,124.253105573067,15.362752983206
$GPGGA,060427.00,3513.9838,N,12136.1876,W,1,09,1.0,7.1,M,-32.3,M,,*59
$PYRTM,2024,124.253117159699,15.362764569838
$GPGGA,060428.00,3513.9844,N,12136.1880,W,1,09,1.0,6.7,M,-32.3,M,,*53
$PYRTM,2024,124.253128722743,15.362776132894
$GPGGA,060429.00,3513.9852,N,12136.1879,W,1,09,1.0,6.5,M,-32.3,M,,*51
$PYRTM,2024,124.253140302419,15.362787712569
$GPGGA,060430.00,3513.9861,N,12136.1874,W,1,09,1.0,6.8,M,-32.3,M,,*59
$PYRTM,2024,124.253151868275,15.362799278414
$GPGGA,060431.00,3513.9867,N,12136.1874,W,1,09,1.0,7.6,M,-32.3,M,,*51
$PYRTM,2024,124.253163454722,15.362810864861
$GPGGA,060432.00,3513.9873,N,12136.1877,W,1,09,1.0,8.3,M,-32.3,M,,*5E
$PYRTM,2024,124.253170735046,15.362818145185
$GPGGA,060433.00,3513.9881,N,12136.1882,W,1,09,1.0,8.3,M,-32.3,M,,*58
$PYRTM,2024,124.253186618657,15.362834028796
$GPGGA,060434.00,3513.9891,N,12136.1887,W,1,09,1.0,7.6,M,-32.3,M,,*51
$PYRTM,2024,124.253198165810,15.362845575949
$GPGGA,060435.00,3513.9900,N,12136.1889,W,1,09,1.0,7.0,M,-32.3,M,,*51
$PYRTM,2024,124.253209755532,15.362857165671
$GPGGA,060436.00,3513.9906,N,12136.1889,W,1,09,1.0,7.2,M,-32.3,M,,*56
$PYRTM,2024,124.253221313414,15.362868723553
$GPGGA,060437.00,3513.9911,N,12136.1888,W,1,09,1.0,7.6,M,-32.3,M,,*54
$PYRTM,2024,124.253232900347,15.362880310486
$GPGGA,060438.00,3513.9920,N,12136.1888,W,1,09,1.0,8.1,M,-32.3,M,,*51
$PYRTM,2024,124.253244461042,15.362891871181
$GPGGA,060439.00,3513.9930,N,12136.1891,W,1,09,1.0,8.1,M,-32.3,M,,*59
$PYRTM,2024,124.253251753102,15.362899163241
$GPGGA,060440.00,3513.9939,N,12136.1899,W,1,09,1.0,7.5,M,-32.3,M,,*5D
$PYRTM,2024,124.253267609444,15.362915019583
$GPGGA,060441.00,3513.9945,N,12136.1906,W,1,09,1.0,6.9,M,-32.3,M,,*5D
$PYRTM,2024,124.253279197269,15.362926607407
$GPGGA,060442.00,3513.9951,N,12136.1909,W,1,09,1.0,6.9,M,-32.3,M,,*54
$PYRTM,2024,124.253290759317,15.362938169456
$GPGGA,060443.00,3513.9959,N,12136.1904,W,1,09,1.0,7.5,M,-32.3,M,,*5D
$PYRTM,2024,124.253302344931,15.362949755069
$GPGGA,060444.00,3513.9968,N,12136.1900,W,1,09,1.0,8.9,M,-32.3,M,,*5F
$PYRTM,2024,124.253313907743,15.362961317882
$GPGGA,060445.00,3513.9976,N,12136.1904,W,1,09,1.0,9.4,M,-32.3,M,,*59
$PYRTM,2024,124.253321198681,15.362968608819
$GPGGA,060446.00,3513.9984,N,12136.1914,W,1,09,1.0,8.1,M,-32.3,M,,*52
$PYRTM,2024,124.253333008160,15.362980418299
$GPGGA,060447.00,3513.9992,N,12136.1922,W,1,09,1.0,6.6,M,-32.3,M,,*58
$PYRTM,2024,124.253351421019,15.362998831157
$GPGGA,060448.00,3513.9999,N,12136.1926,W,1,09,1.0,6.3,M,-32.3,M,,*5D
$PYRTM,2024,124.253360204340,15.363007614479
$GPGGA,060449.00,3514.0005,N,12136.1923,W,1,09,1.0,7.0,M,-32.3,M,,*59
$PYRTM,2024,124.253371805567,15.363019215706
$GPGGA,060450.00,3514.0013,N,12136.1918,W,1,09,1.0,8.3,M,-32.3,M,,*52
$PYRTM,2024,124.253383354502,15.363030764641
$GPGGA,060451.00,3514.0023,N,12136.1920,W,1,09,1.0,8.8,M,-32.3,M,,*50
$PYRTM,2024,124.253390642454,15.363038052593
$GPGGA,060452.00,3514.0033,N,12136.1927,W,1,09,1.0,8.2,M,-32.3,M,,*5F
$PYRTM,2024,124.253406501389,15.363053911528
$GPGGA,060453.00,3514.0038,N,12136.1936,W,1,09,1.0,7.7,M,-32.3,M,,*5F
$PYRTM,2024,124.253418087604,15.363065497755
$GPGGA,060454.00,3514.0041,N,12136.1937,W,1,09,1.0,8.3,M,-32.3,M,,*5C
$PYRTM,2024,124.253429648403,15.363077058542
$GPGGA,060455.00,3514.0049,N,12136.1931,W,1,09,1.0,9.5,M,-32.3,M,,*54
$PYRTM,2024,124.253441238113,15.363088648252
$GPGGA,060456.00,3514.0060,N,12136.1929,W,1,09,1.0,9.2,M,-32.3,M,,*52
$PYRTM,2024,124.253452798646,15.363100208785
$GPGGA,060457.00,3514.0070,N,12136.1933,W,1,09,1.0,8.6,M,-32.3,M,,*5C
$PYRTM,2024,124.253460087951,15.363107498090
$GPGGA,060458.00,3514.0074,N,12136.1942,W,1,09,1.0,8.8,M,-32.3,M,,*5F
$PYRTM,2024,124.253475946400,15.363123356539
$GPGGA,060459.00,3514.0081,N,12136.1948,W,1,09,1.0,8.8,M,-32.3,M,,*5E
$PYRTM,2024,124.253487531539,15.363134941678
$GPGGA,060500.00,3514.0088,N,12136.1947,W,1,09,1.0,9.2,M,-32.3,M,,*5E
$PYRTM,2024,124.253494825544,15.363142235694
$GPGGA,060501.00,3514.0095,N,12136.1943,W,1,09,1.0,10.0,M,-32.3,M,,*6D
$PYRTM,2024,124.253506640544,15.363154050683
$GPGGA,060502.00,3514.0103,N,12136.1944,W,1,09,1.0,10.5,M,-32.3,M,,*62
$PYRTM,2024,124.253522241713,15.363169651852
$GPGGA,060503.00,3514.0112,N,12136.1950,W,1,09,1.0,10.0,M,-32.3,M,,*63
$PYRTM,2024,124.253533831296,15.363181241435
$GPGGA,060504.00,3514.0121,N,12136.1958,W,1,09,1.0,9.2,M,-32.3,M,,*56
$PYRTM,2024,124.253545390544,15.363192800683
$GPGGA,060505.00,3514.0127,N,12136.1961,W,1,09,1.0,8.9,M,-32.3,M,,*51
$PYRTM,2024,124.253556977060,15.363204387199
$GPGGA,060506.00,3514.0133,N,12136.1958,W,1,09,1.0,9.0,M,-32.3,M,,*55
$PYRTM,2024,124.253568538310,15.363215948449
$GPGGA,060507.00,3514.0142,N,12136.1955,W,1,09,1.0,9.2,M,-32.3,M,,*5D
$PYRTM,2024,124.253580125475,15.363227535613
$GPGGA,060508.00,3514.0151,N,12136.1959,W,1,09,1.0,9.3,M,-32.3,M,,*5D
$PYRTM,2024,124.253591687211,15.363239097350
$GPGGA,060509.00,3514.0160,N,12136.1966,W,1,09,1.0,9.1,M,-32.3,M,,*50
$PYRTM,2024,124.253603274225,15.363250684363
$GPGGA,060510.00,3514.0168,N,12136.1970,W,1,09,1.0,8.8,M,-32.3,M,,*5F
$PYRTM,2024,124.253614835185,15.363262245324
$GPGGA,060511.00,3514.0176,N,12136.1970,W,1,09,1.0,8.9,M,-32.3,M,,*50
$PYRTM,2024,124.253622126782,15.363269536921
$GPGGA,060512.00,3514.0185,N,12136.1970,W,1,09,1.0,9.0,M,-32.3,M,,*57
$PYRTM,2024,124.253637983889,15.363285394028
$GPGGA,060513.00,3514.0194,N,12136.1972,W,1,09,1.0,9.4,M,-32.3,M,,*50
$PYRTM,2024,124.253649570347,15.363296980486
$GPGGA,060514.00,3514.0202,N,12136.1975,W,1,09,1.0,9.8,M,-32.3,M,,*50
$PYRTM,2024,124.253661132176,15.363308542315
$GPGGA,060515.00,3514.0211,N,12136.1978,W,1,09,1.0,9.9,M,-32.3,M,,*5F
$PYRTM,2024,124.253672721852,15.363320131991
$GPGGA,060516.00,3514.0221,N,12136.1982,W,1,09,1.0,9.5,M,-32.3,M,,*56
$PYRTM,2024,124.253684281782,15.363331691921
$GPGGA,060517.00,3514.0229,N,12136.1985,W,1,09,1.0,9.2,M,-32.3,M,,*5F
$PYRTM,2024,124.253691572650,15.363338982789
$GPGGA,060518.00,3514.0235,N,12136.1987,W,1,09,1.0,9.4,M,-32.3,M,,*59
$PYRTM,2024,124.253710204757,15.363357614896
$GPGGA,060519.00,3514.0244,N,12136.1987,W,1,09,1.0,9.7,M,-32.3,M,,*5D
$PYRTM,2024,124.253719018067,15.363366428206
$GPGGA,060520.00,3514.0255,N,12136.1990,W,1,09,1.0,9.5,M,-32.3,M,,*53
$PYRTM,2024,124.253730576285,15.363377986424
$GPGGA,060521.00,3514.0264,N,12136.1994,W,1,09,1.0,9.3,M,-32.3,M,,*52
$PYRTM,2024,124.253737866447,15.363385276586
$GPGGA,060522.00,3514.0269,N,12136.2000,W,1,09,1.0,9.3,M,-32.3,M,,*5B
$PYRTM,2024,124.253753724687,15.363401134826
$GPGGA,060523.00,3514.0277,N,12136.2005,W,1,09,1.0,9.5,M,-32.3,M,,*56
$PYRTM,2024,124.253765306273,15.363412716412
$GPGGA,060524.00,3514.0288,N,12136.2003,W,1,09,1.0,9.6,M,-32.3,M,,*54
$PYRTM,2024,124.253772606389,15.363420016528
$GPGGA,060525.00,3514.0299,N,12136.2000,W,1,09,1.0,9.9,M,-32.3,M,,*59
$PYRTM,2024,124.253788459965,15.363435870104
$GPGGA,060526.00,3514.0307,N,12136.2005,W,1,09,1.0,10.4,M,-32.3,M,,*6C
$PYRTM,2024,124.253800021435,15.363447431574
$GPGGA,060527.00,3514.0314,N,12136.2017,W,1,09,1.0,10.1,M,-32.3,M,,*69
$PYRTM,2024,124.253811607315,15.363459017454
$GPGGA,060528.00,3514.0323,N,12136.2024,W,1,09,1.0,9.7,M,-32.3,M,,*5C
$PYRTM,2024,124.253823169028,15.363470579167
$GPGGA,060529.00,3514.0331,N,12136.2023,W,1,09,1.0,9.8,M,-32.3,M,,*56
$PYRTM,2024,124.253830460660,15.363477870799
$GPGGA,060530.00,3514.0341,N,12136.2018,W,1,09,1.0,10.2,M,-32.3,M,,*63
$PYRTM,2024,124.253846319306,15.363493729444
$GPGGA,060531.00,3514.0351,N,12136.2019,W,1,09,1.0,10.3,M,-32.3,M,,*63
$PYRTM,2024,124.253857907176,15.363505317315
$GPGGA,060532.00,3514.0358,N,12136.2028,W,1,09,1.0,10.0,M,-32.3,M,,*68
$PYRTM,2024,124.253869466308,15.363516876447
$GPGGA,060533.00,3514.0364,N,12136.2037,W,1,09,1.0,10.0,M,-32.3,M,,*68
$PYRTM,2024,124.253881053461,15.363528463600
$GPGGA,060534.00,3514.0372,N,12136.2039,W,1,09,1.0,10.0,M,-32.3,M,,*66
$PYRTM,2024,124.253892615729,15.363540025868
$GPGGA,060535.00,3514.0383,N,12136.2036,W,1,09,1.0,9.9,M,-32.3,M,,*57
$PYRTM,2024,124.253904198634,15.363551608773
$GPGGA,060536.00,3514.0394,N,12136.2038,W,1,09,1.0,9.6,M,-32.3,M,,*53
$PYRTM,2024,124.253915760949,15.363563171088
$GPGGA,060537.00,3514.0402,N,12136.2043,W,1,09,1.0,9.6,M,-32.3,M,,*56
$PYRTM,2024,124.253923053715,15.363570463854
$GPGGA,060538.00,3514.0408,N,12136.2048,W,1,09,1.0,10.2,M,-32.3,M,,*64
$PYRTM,2024,124.253938911227,15.363586321366
$GPGGA,060539.00,3514.0416,N,12136.2052,W,1,09,1.0,10.7,M,-32.3,M,,*64
$PYRTM,2024,124.253950500625,15.363597910764
$GPGGA,060540.00,3514.0426,N,12136.2056,W,1,09,1.0,10.4,M,-32.3,M,,*6E
$PYRTM,2024,124.253957779907,15.363605190046
$GPGGA,060541.00,3514.0439,N,12136.2059,W,1,09,1.0,9.7,M,-32.3,M,,*55
$PYRTM,2024,124.253973645891,15.363621056030
$GPGGA,060542.00,3514.0448,N,12136.2059,W,1,09,1.0,9.4,M,-32.3,M,,*53
$PYRTM,2024,124.253985207014,15.363632617164
$GPGGA,060543.00,3514.0455,N,12136.2061,W,1,09,1.0,9.8,M,-32.3,M,,*59
$PYRTM,2024,124.253992499294,15.363639909433
$GPGGA,060544.00,3514.0463,N,12136.2066,W,1,09,1.0,10.2,M,-32.3,M,,*6E
$PYRTM,2024,124.254008355567,15.363655765706
$GPGGA,060545.00,3514.0474,N,12136.2073,W,1,09,1.0,9.8,M,-32.3,M,,*5F
$PYRTM,2024,124.254015646088,15.363663056227
$GPGGA,060546.00,3514.0483,N,12136.2078,W,1,09,1.0,9.6,M,-32.3,M,,*51
$PYRTM,2024,124.254031502940,15.363678913079
$GPGGA,060547.00,3514.0489,N,12136.2075,W,1,09,1.0,10.1,M,-32.3,M,,*68
$PYRTM,2024,124.254043103947,15.363690514086
$GPGGA,060548.00,3514.0498,N,12136.2073,W,1,09,1.0,10.4,M,-32.3,M,,*64
$PYRTM,2024,124.254050382280,15.363697792419
$GPGGA,060549.00,3514.0511,N,12136.2079,W,1,09,1.0,9.6,M,-32.3,M,,*55
$PYRTM,2024,124.254069030394,15.363716440532
$GPGGA,060550.00,3514.0518,N,12136.2088,W,1,09,1.0,8.7,M,-32.3,M,,*5A
$PYRTM,2024,124.254077800579,15.363725210718
$GPGGA,060551.00,3514.0521,N,12136.2090,W,1,09,1.0,8.7,M,-32.3,M,,*58
$PYRTM,2024,124.254089387419,15.363736797558
$GPGGA,060552.00,3514.0526,N,12136.2086,W,1,09,1.0,8.9,M,-32.3,M,,*55
$PYRTM,2024,124.254100948368,15.363748358507
$GPGGA,060553.00,3514.0538,N,12136.2083,W,1,09,1.0,8.6,M,-32.3,M,,*51
$PYRTM,2024,124.254112530891,15.363759941030
$GPGGA,060554.00,3514.0551,N,12136.2088,W,1,09,1.0,7.7,M,-32.3,M,,*5C
$PYRTM,2024,124.254124096481,15.363771506632
$GPGGA,060555.00,3514.0556,N,12136.2097,W,1,09,1.0,7.3,M,-32.3,M,,*50
$PYRTM,2024,124.254135683993,15.363783094132
$GPGGA,060556.00,3514.0557,N,12136.2100,W,1,09,1.0,7.4,M,-32.3,M,,*5A
$PYRTM,2024,124.254142963125,15.363790373275
$GPGGA,060557.00,3514.0563,N,12136.2095,W,1,09,1.0,7.5,M,-32.3,M,,*50
$PYRTM,2024,124.254158834850,15.363806244988
$GPGGA,060558.00,3514.0575,N,12136.2090,W,1,09,1.0,7.3,M,-32.3,M,,*5B
$PYRTM,2024,124.254170393287,15.363817803426
$GPGGA,060559.00,3514.0587,N,12136.2094,W,1,09,1.0,6.5,M,-32.3,M,,*54
$PYRTM,2024,124.254181993854,15.363829403993
$GPGGA,060600.00,3514.0591,N,12136.2107,W,1,09,1.0,5.8,M,-32.3,M,,*59
$PYRTM,2024,124.254193541424,15.363840951562
$GPGGA,060601.00,3514.0592,N,12136.2113,W,1,09,1.0,5.8,M,-32.3,M,,*5E
$PYRTM,2024,124.254205130822,15.363852540961
$GPGGA,060602.00,3514.0597,N,12136.2106,W,1,09,1.0,6.0,M,-32.3,M,,*57
$PYRTM,2024,124.254216688461,15.363864098600
$GPGGA,060603.00,3514.0609,N,12136.2098,W,1,09,1.0,6.3,M,-32.3,M,,*57
$PYRTM,2024,124.254228278669,15.363875688808
$GPGGA,060604.00,3514.0621,N,12136.2099,W,1,09,1.0,5.7,M,-32.3,M,,*5C
$PYRTM,2024,124.254239836412,15.363887246551
$GPGGA,060605.00,3514.0627,N,12136.2108,W,1,09,1.0,5.1,M,-32.3,M,,*54
$PYRTM,2024,124.254251425498,15.363898835637
$GPGGA,060606.00,3514.0630,N,12136.2117,W,1,09,1.0,5.1,M,-32.3,M,,*5F
$PYRTM,2024,124.254262985417,15.363910395556
$GPGGA,060607.00,3514.0635,N,12136.2119,W,1,09,1.0,5.4,M,-32.3,M,,*50
$PYRTM,2024,124.254274572824,15.363921982963
$GPGGA,060608.00,3514.0643,N,12136.2115,W,1,09,1.0,5.9,M,-32.3,M,,*5F
$PYRTM,2024,124.254286134688,15.363933544826
$GPGGA,060609.00,3514.0652,N,12136.2111,W,1,09,1.0,6.5,M,-32.3,M,,*55
$PYRTM,2024,124.254297716215,15.363945126354
$GPGGA,060610.00,3514.0660,N,12136.2112,W,1,09,1.0,7.1,M,-32.3,M,,*5A
$PYRTM,2024,124.254309282269,15.363956692407
$GPGGA,060611.00,3514.0668,N,12136.2119,W,1,09,1.0,6.8,M,-32.3,M,,*50
$PYRTM,2024,124.254320864352,15.363968274491
$GPGGA,060612.00,3514.0675,N,12136.2128,W,1,09,1.0,6.3,M,-32.3,M,,*56
$PYRTM,2024,124.254332315938,15.363979726076
$GPGGA,060613.00,3514.0680,N,12136.2131,W,1,09,1.0,6.2,M,-32.3,M,,*54
$PYRTM,2024,124.254339720868,15.363987131007
$GPGGA,060614.00,3514.0687,N,12136.2129,W,1,09,1.0,6.6,M,-32.3,M,,*59
$PYRTM,2024,124.254355580532,15.364002990671
$GPGGA,060615.00,3514.0695,N,12136.2126,W,1,09,1.0,7.2,M,-32.3,M,,*51
$PYRTM,2024,124.254362871053,15.364010281192
$GPGGA,060616.00,3514.0705,N,12136.2129,W,1,09,1.0,7.3,M,-32.3,M,,*54
$PYRTM,2024,124.254381506690,15.364028916840
$GPGGA,060617.00,3514.0714,N,12136.2138,W,1,09,1.0,7.0,M,-32.3,M,,*56
$PYRTM,2024,124.254390314606,15.364037724745
$GPGGA,060618.00,3514.0721,N,12136.2143,W,1,09,1.0,7.1,M,-32.3,M,,*52
$PYRTM,2024,124.254401877465,15.364049287604
$GPGGA,060619.00,3514.0727,N,12136.2141,W,1,09,1.0,7.7,M,-32.3,M,,*51
$PYRTM,2024,124.254409168056,15.364056578206
$GPGGA,060620.00,3514.0736,N,12136.2138,W,1,09,1.0,8.2,M,-32.3,M,,*5F
$PYRTM,2024,124.254427803808,15.364075213947
$GPGGA,060621.00,3514.0747,N,12136.2140,W,1,09,1.0,7.8,M,-32.3,M,,*52
$PYRTM,2024,124.254436611713,15.364084021863
$GPGGA,060622.00,3514.0755,N,12136.2148,W,1,09,1.0,7.2,M,-32.3,M,,*50
$PYRTM,2024,124.254448172928,15.364095583067
$GPGGA,060623.00,3514.0760,N,12136.2152,W,1,09,1.0,7.2,M,-32.3,M,,*5C
$PYRTM,2024,124.254459762894,15.364107173032
$GPGGA,060624.00,3514.0767,N,12136.2149,W,1,09,1.0,7.5,M,-32.3,M,,*51
$PYRTM,2024,124.254467038750,15.364114448900
$GPGGA,060625.00,3514.0779,N,12136.2146,W,1,09,1.0,7.5,M,-32.3,M,,*50
$PYRTM,2024,124.254482911227,15.364130321366
$GPGGA,060626.00,3514.0788,N,12136.2151,W,1,09,1.0,7.4,M,-32.3,M,,*5A
$PYRTM,2024,124.254494469144,15.364141879282
$GPGGA,060627.00,3514.0793,N,12136.2158,W,1,09,1.0,7.7,M,-32.3,M,,*5B
$PYRTM,2024,124.254501763414,15.364149173553
$GPGGA,060628.00,3514.0799,N,12136.2161,W,1,09,1.0,8.4,M,-32.3,M,,*58
$PYRTM,2024,124.254517616146,15.364165026285
$GPGGA,060629.00,3514.0808,N,12136.2160,W,1,09,1.0,8.9,M,-32.3,M,,*52
$PYRTM,2024,124.254524910637,15.364172320775
$GPGGA,060630.00,3514.0818,N,12136.2161,W,1,09,1.0,8.6,M,-32.3,M,,*55
$PYRTM,2024,124.254540766748,15.364188176887
$GPGGA,060631.00,3514.0828,N,12136.2165,W,1,09,1.0,8.1,M,-32.3,M,,*54
$PYRTM,2024,124.254552232720,15.364199642870
$GPGGA,060632.00,3514.0836,N,12136.2170,W,1,09,1.0,8.1,M,-32.3,M,,*5C
$PYRTM,2024,124.254563913611,15.364211323762
$GPGGA,060633.00,3514.0844,N,12136.2173,W,1,09,1.0,8.7,M,-32.3,M,,*5D
$PYRTM,2024,124.254575381331,15.364222791470
$GPGGA,060634.00,3514.0851,N,12136.2173,W,1,09,1.0,9.7,M,-32.3,M,,*5F
$PYRTM,2024,124.254587061887,15.364234472037
$GPGGA,060635.00,3514.0859,N,12136.2172,W,1,09,1.0,10.5,M,-32.3,M,,*6D
$PYRTM,2024,124.254598652940,15.364246063079
$GPGGA,060636.00,3514.0872,N,12136.2174,W,1,09,1.0,10.0,M,-32.3,M,,*64
$PYRTM,2024,124.254610211898,15.364257622037
$GPGGA,060637.00,3514.0883,N,12136.2180,W,1,09,1.0,8.9,M,-32.3,M,,*50
$PYRTM,2024,124.254617502025,15.364264912164
$GPGGA,060638.00,3514.0890,N,12136.2185,W,1,09,1.0,8.4,M,-32.3,M,,*55
$PYRTM,2024,124.254633255752,15.364280665891
$GPGGA,060639.00,3514.0894,N,12136.2185,W,1,09,1.0,9.0,M,-32.3,M,,*55
$PYRTM,2024,124.254640650764,15.364288060914
$GPGGA,060640.00,3514.0901,N,12136.2182,W,1,09,1.0,9.2,M,-32.3,M,,*53
$PYRTM,2024,124.254652341273,15.364299751412
$GPGGA,060641.00,3514.0914,N,12136.2183,W,1,09,1.0,8.8,M,-32.3,M,,*5C
$PYRTM,2024,124.254667992986,15.364315403125
$GPGGA,060642.00,3514.0924,N,12136.2188,W,1,09,1.0,8.1,M,-32.3,M,,*5E
$PYRTM,2024,124.254679551227,15.364326961366
$GPGGA,060643.00,3514.0929,N,12136.2192,W,1,09,1.0,8.2,M,-32.3,M,,*5A
$PYRTM,2024,124.254691130266,15.364338540405
$GPGGA,060644.00,3514.0934,N,12136.2191,W,1,09,1.0,8.4,M,-32.3,M,,*54
$PYRTM,2024,124.254702696319,15.364350106470
$GPGGA,060645.00,3514.0944,N,12136.2192,W,1,09,1.0,8.5,M,-32.3,M,,*50
$PYRTM,2024,124.254714274884,15.364361685023
$GPGGA,060646.00,3514.0955,N,12136.2195,W,1,09,1.0,8.0,M,-32.3,M,,*51
$PYRTM,2024,124.254725849780,15.364373259919
$GPGGA,060647.00,3514.0963,N,12136.2198,W,1,09,1.0,8.1,M,-32.3,M,,*59
$PYRTM,2024,124.254733244572,15.364380654711
$GPGGA,060648.00,3514.0969,N,12136.2197,W,1,09,1.0,9.0,M,-32.3,M,,*53
$PYRTM,2024,124.254748997269,15.364396407407
$GPGGA,060649.00,3514.0977,N,12136.2195,W,1,09,1.0,9.8,M,-32.3,M,,*57
$PYRTM,2024,124.254760570046,15.364407980185
$GPGGA,060650.00,3514.0988,N,12136.2197,W,1,09,1.0,9.8,M,-32.3,M,,*5D
$PYRTM,2024,124.254767966111,15.364415376250
$GPGGA,060651.00,3514.0999,N,12136.2200,W,1,09,1.0,9.3,M,-32.3,M,,*5A
$PYRTM,2024,124.254786612789,15.364434022928
$GPGGA,060652.00,3514.1005,N,12136.2204,W,1,09,1.0,9.5,M,-32.3,M,,*56
$PYRTM,2024,124.254795396470,15.364442806597
$GPGGA,060653.00,3514.1010,N,12136.2207,W,1,09,1.0,10.0,M,-32.3,M,,*6D
$PYRTM,2024,124.254806982836,15.364454392975
$GPGGA,060654.00,3514.1019,N,12136.2205,W,1,09,1.0,10.2,M,-32.3,M,,*63
$PYRTM,2024,124.254818435903,15.364465846042
$GPGGA,060655.00,3514.1031,N,12136.2204,W,1,09,1.0,9.7,M,-32.3,M,,*54
$PYRTM,2024,124.254830030926,15.364477441065
$GPGGA,060656.00,3514.1041,N,12136.2206,W,1,09,1.0,9.0,M,-32.3,M,,*55
$PYRTM,2024,124.254841588472,15.364488998611
$GPGGA,060657.00,3514.1046,N,12136.2212,W,1,09,1.0,9.2,M,-32.3,M,,*54
$PYRTM,2024,124.254853167859,15.364500577998
$GPGGA,060658.00,3514.1050,N,12136.2215,W,1,09,1.0,9.9,M,-32.3,M,,*50
$PYRTM,2024,124.254864840775,15.364512250926
$GPGGA,060659.00,3514.1059,N,12136.2214,W,1,09,1.0,10.0,M,-32.3,M,,*68
$PYRTM,2024,124.254876314016,15.364523724155
$GPGGA,060700.00,3514.1071,N,12136.2212,W,1,09,1.0,9.4,M,-32.3,M,,*55
$PYRTM,2024,124.254887887535,15.364535297674
$GPGGA,060701.00,3514.1081,N,12136.2217,W,1,09,1.0,8.7,M,-32.3,M,,*5C
$PYRTM,2024,124.254899460660,15.364546870799
$GPGGA,060702.00,3514.1085,N,12136.2223,W,1,09,1.0,8.7,M,-32.3,M,,*5C
$PYRTM,2024,124.254911036181,15.364558446331
$GPGGA,060703.00,3514.1089,N,12136.2226,W,1,09,1.0,9.2,M,-32.3,M,,*50
$PYRTM,2024,124.254922609769,15.364570019919
$GPGGA,060704.00,3514.1100,N,12136.2224,W,1,09,1.0,9.3,M,-32.3,M,,*54
$PYRTM,2024,124.254930004595,15.364577414734
$GPGGA,060705.00,3514.1113,N,12136.2222,W,1,09,1.0,9.2,M,-32.3,M,,*50
$PYRTM,2024,124.254945757604,15.364593167743
$GPGGA,060706.00,3514.1122,N,12136.2225,W,1,09,1.0,9.4,M,-32.3,M,,*50
$PYRTM,2024,124.254957325822,15.364604735961
$GPGGA,060707.00,3514.1128,N,12136.2231,W,1,09,1.0,9.7,M,-32.3,M,,*5D
$PYRTM,2024,124.254968905370,15.364616315509
$GPGGA,060708.00,3514.1135,N,12136.2237,W,1,09,1.0,9.7,M,-32.3,M,,*58
$PYRTM,2024,124.254980480810,15.364627890949
$GPGGA,060709.00,3514.1146,N,12136.2239,W,1,09,1.0,9.1,M,-32.3,M,,*55
$PYRTM,2024,124.254987875613,15.364635285764
$GPGGA,060710.00,3514.1155,N,12136.2238,W,1,09,1.0,9.0,M,-32.3,M,,*5F
$PYRTM,2024,124.255003629896,15.364651040046
$GPGGA,060711.00,3514.1163,N,12136.2238,W,1,09,1.0,9.4,M,-32.3,M,,*5F
$PYRTM,2024,124.255015205405,15.364662615544
$GPGGA,060712.00,3514.1172,N,12136.2241,W,1,09,1.0,9.6,M,-32.3,M,,*50
$PYRTM,2024,124.255026776146,15.364674186285
$GPGGA,060713.00,3514.1180,N,12136.2247,W,1,09,1.0,9.3,M,-32.3,M,,*5F
$PYRTM,2024,124.255038350486,15.364685760625
$GPGGA,060714.00,3514.1188,N,12136.2252,W,1,09,1.0,9.0,M,-32.3,M,,*57
$PYRTM,2024,124.255049924954,15.364697335093
$GPGGA,060715.00,3514.1197,N,12136.2255,W,1,09,1.0,8.5,M,-32.3,M,,*5B
$PYRTM,2024,124.255057321204,15.364704731343
$GPGGA,060716.00,3514.1206,N,12136.2258,W,1,09,1.0,8.0,M,-32.3,M,,*5B
$PYRTM,2024,124.255073072998,15.364720483137
$GPGGA,060717.00,3514.1214,N,12136.2260,W,1,09,1.0,8.3,M,-32.3,M,,*51
$PYRTM,2024,124.255080468021,15.364727878160
$GPGGA,060718.00,3514.1220,N,12136.2262,W,1,09,1.0,9.1,M,-32.3,M,,*58
$PYRTM,2024,124.255096221157,15.364743631296
$GPGGA,060719.00,3514.1229,N,12136.2265,W,1,09,1.0,9.6,M,-32.3,M,,*50
$PYRTM,2024,124.255103615231,15.364751025370
$GPGGA,060720.00,3514.1240,N,12136.2269,W,1,09,1.0,9.2,M,-32.3,M,,*5D
$PYRTM,2024,124.255119370463,15.364766780602
$GPGGA,060721.00,3514.1250,N,12136.2276,W,1,09,1.0,8.5,M,-32.3,M,,*55
$PYRTM,2024,124.255126764549,15.364774174699
$GPGGA,060722.00,3514.1256,N,12136.2282,W,1,09,1.0,8.5,M,-32.3,M,,*5B
$PYRTM,2024,124.255145398819,15.364792808958
$GPGGA,060723.00,3514.1262,N,12136.2283,W,1,09,1.0,9.2,M,-32.3,M,,*5A
$PYRTM,2024,124.255156985023,15.364804395162
$GPGGA,060724.00,3514.1272,N,12136.2282,W,1,09,1.0,9.8,M,-32.3,M,,*57
$PYRTM,2024,124.255168547037,15.364815957176
$GPGGA,060725.00,3514.1285,N,12136.2284,W,1,09,1.0,9.6,M,-32.3,M,,*56
$PYRTM,2024,124.255177245428,15.364824655567
$GPGGA,060726.00,3514.1295,N,12136.2289,W,1,09,1.0,8.8,M,-32.3,M,,*56
$PYRTM,2024,124.255184634907,15.364832045058
$GPGGA,060727.00,3514.1303,N,12136.2296,W,1,09,1.0,8.0,M,-32.3,M,,*5F
$PYRTM,2024,124.255200388252,15.364847798391
$GPGGA,060728.00,3514.1309,N,12136.2302,W,1,09,1.0,8.3,M,-32.3,M,,*55
$PYRTM,2024,124.255211963137,15.364859373275
$GPGGA,060729.00,3514.1316,N,12136.2305,W,1,09,1.0,8.9,M,-32.3,M,,*57
$PYRTM,2024,124.255223531227,15.364870941366
$GPGGA,060730.00,3514.1327,N,12136.2302,W,1,09,1.0,9.2,M,-32.3,M,,*50
$PYRTM,2024,124.255235111458,15.364882521597
$GPGGA,060731.00,3514.1338,N,12136.2303,W,1,09,1.0,8.9,M,-32.3,M,,*54
$PYRTM,2024,124.255246688924,15.364894099062
$GPGGA,060732.00,3514.1347,N,12136.2310,W,1,09,1.0,8.5,M,-32.3,M,,*51
$PYRTM,2024,124.255258258067,15.364905668206
$GPGGA,060733.00,3514.1354,N,12136.2322,W,1,09,1.0,8.0,M,-32.3,M,,*56
$PYRTM,2024,124.255269833345,15.364917243484
$GPGGA,060734.00,3514.1360,N,12136.2328,W,1,09,1.0,8.2,M,-32.3,M,,*5E
$PYRTM,2024,124.255281407500,15.364928817639
$GPGGA,060735.00,3514.1369,N,12136.2325,W,1,09,1.0,8.9,M,-32.3,M,,*50
$PYRTM,2024,124.255292982801,15.364940392940
$GPGGA,060736.00,3514.1382,N,12136.2323,W,1,09,1.0,9.3,M,-32.3,M,,*5B
$PYRTM,2024,124.255304556389,15.364951966528
$GPGGA,060737.00,3514.1394,N,12136.2328,W,1,09,1.0,9.0,M,-32.3,M,,*55
$PYRTM,2024,124.255316133368,15.364963543507
$GPGGA,060738.00,3514.1402,N,12136.2338,W,1,09,1.0,8.9,M,-32.3,M,,*5B
$PYRTM,2024,124.255327704514,15.364975114653
$GPGGA,060739.00,3514.1407,N,12136.2345,W,1,09,1.0,9.2,M,-32.3,M,,*5F
$PYRTM,2024,124.255339291667,15.364986701806
$GPGGA,060740.00,3514.1415,N,12136.2348,W,1,09,1.0,9.8,M,-32.3,M,,*55
$PYRTM,2024,124.255350852650,15.364998262801
$GPGGA,060741.00,3514.1427,N,12136.2347,W,1,09,1.0,9.4,M,-32.3,M,,*56
$PYRTM,2024,124.255362426262,15.365009836400
$GPGGA,060742.00,3514.1438,N,12136.2350,W,1,09,1.0,8.8,M,-32.3,M,,*50
$PYRTM,2024,124.255374000498,15.365021410637
$GPGGA,060743.00,3514.1445,N,12136.2355,W,1,09,1.0,8.8,M,-32.3,M,,*5E
$PYRTM,2024,124.255385576389,15.365032986528
$GPGGA,060744.00,3514.1452,N,12136.2359,W,1,09,1.0,9.2,M,-32.3,M,,*58
$PYRTM,2024,124.255397148032,15.365044558171
$GPGGA,060745.00,3514.1464,N,12136.2362,W,1,09,1.0,8.9,M,-32.3,M,,*5E
$PYRTM,2024,124.255408723542,15.365056133681
$GPGGA,060746.00,3514.1476,N,12136.2365,W,1,09,1.0,8.5,M,-32.3,M,,*55
$PYRTM,2024,124.255420296794,15.365067706933
$GPGGA,060747.00,3514.1486,N,12136.2370,W,1,09,1.0,8.3,M,-32.3,M,,*59
$PYRTM,2024,124.255431871782,15.365079281921
$GPGGA,060748.00,3514.1494,N,12136.2371,W,1,09,1.0,9.7,M,-32.3,M,,*51
$PYRTM,2024,124.255443547477,15.365090957616
$GPGGA,060749.00,3514.1503,N,12136.2372,W,1,09,1.0,10.3,M,-32.3,M,,*60
$PYRTM,2024,124.255455134942,15.365102545081
$GPGGA,060750.00,3514.1512,N,12136.2377,W,1,09,1.0,10.5,M,-32.3,M,,*6B
$PYRTM,2024,124.255466696875,15.365114107025
$GPGGA,060751.00,3514.1523,N,12136.2385,W,1,09,1.0,10.0,M,-32.3,M,,*60
$PYRTM,2024,124.255473988414,15.365121398553
$GPGGA,060752.00,3514.1534,N,12136.2390,W,1,09,1.0,9.6,M,-32.3,M,,*5F
$PYRTM,2024,124.255485792558,15.365133202697
$GPGGA,060753.00,3514.1543,N,12136.2390,W,1,09,1.0,10.0,M,-32.3,M,,*60
$PYRTM,2024,124.255504212350,15.365151622488
$GPGGA,060754.00,3514.1550,N,12136.2391,W,1,09,1.0,10.9,M,-32.3,M,,*6D
$PYRTM,2024,124.255515771505,15.365163181655
$GPGGA,060755.00,3514.1558,N,12136.2396,W,1,09,1.0,11.5,M,-32.3,M,,*6E
$PYRTM,2024,124.255527372801,15.365174782940
$GPGGA,060756.00,3514.1568,N,12136.2404,W,1,09,1.0,11.3,M,-32.3,M,,*64
$PYRTM,2024,124.255536141678,15.365183551817
$GPGGA,060757.00,3514.1581,N,12136.2410,W,1,09,1.0,10.2,M,-32.3,M,,*67
$PYRTM,2024,124.255547612963,15.365195023102
$GPGGA,060758.00,3514.1592,N,12136.2412,W,1,09,1.0,9.3,M,-32.3,M,,*51
$PYRTM,2024,124.255559186551,15.365206596690
$GPGGA,060759.00,3514.1599,N,12136.2414,W,1,09,1.0,8.9,M,-32.3,M,,*56
$PYRTM,2024,124.255570876157,15.365218286296
$GPGGA,060800.00,3514.1605,N,12136.2420,W,1,09,1.0,10.1,M,-32.3,M,,*65
$PYRTM,2024,124.255582436875,15.365229847014
$GPGGA,060801.00,3514.1614,N,12136.2426,W,1,09,1.0,10.0,M,-32.3,M,,*63
$PYRTM,2024,124.255593904537,15.365241314676
$GPGGA,060802.00,3514.1627,N,12136.2431,W,1,09,1.0,9.4,M,-32.3,M,,*5A
$PYRTM,2024,124.255605482859,15.365252892998
$GPGGA,060803.00,3514.1638,N,12136.2436,W,1,09,1.0,8.4,M,-32.3,M,,*53
$PYRTM,2024,124.255617056771,15.365264466910
$GPGGA,060804.00,3514.1646,N,12136.2441,W,1,09,1.0,8.0,M,-32.3,M,,*59
$PYRTM,2024,124.255628631111,15.365276041250
$GPGGA,060805.00,3514.1652,N,12136.2443,W,1,09,1.0,8.6,M,-32.3,M,,*59
$PYRTM,2024,124.255640211157,15.365287621296
$GPGGA,060806.00,3514.1661,N,12136.2445,W,1,09,1.0,9.5,M,-32.3,M,,*5E
$PYRTM,2024,124.255651882523,15.365299292662
$GPGGA,060807.00,3514.1674,N,12136.2447,W,1,09,1.0,9.6,M,-32.3,M,,*5A
$PYRTM,2024,124.255663483681,15.365310893819
$GPGGA,060808.00,3514.1685,N,12136.2453,W,1,09,1.0,9.5,M,-32.3,M,,*5D
$PYRTM,2024,124.255670749502,15.365318159641
$GPGGA,060809.00,3514.1692,N,12136.2457,W,1,09,1.0,10.0,M,-32.3,M,,*63
$PYRTM,2024,124.255686618484,15.365334028623
$GPGGA,060810.00,3514.1699,N,12136.2462,W,1,09,1.0,10.0,M,-32.3,M,,*66
$PYRTM,2024,124.255698178032,15.365345588171
$GPGGA,060811.00,3514.1710,N,12136.2465,W,1,09,1.0,9.2,M,-32.3,M,,*5A
$PYRTM,2024,124.255709766551,15.365357176701
$GPGGA,060812.00,3514.1722,N,12136.2467,W,1,09,1.0,8.8,M,-32.3,M,,*51
$PYRTM,2024,124.255721326539,15.365368736678
$GPGGA,060813.00,3514.1730,N,12136.2468,W,1,09,1.0,9.1,M,-32.3,M,,*54
$PYRTM,2024,124.255732910428,15.365380320567
$GPGGA,060814.00,3514.1736,N,12136.2472,W,1,09,1.0,9.9,M,-32.3,M,,*56
$PYRTM,2024,124.255744476481,15.365391886632
$GPGGA,060815.00,3514.1745,N,12136.2476,W,1,09,1.0,10.1,M,-32.3,M,,*67
$PYRTM,2024,124.255755951563,15.365403361701
$GPGGA,060816.00,3514.1758,N,12136.2479,W,1,09,1.0,9.5,M,-32.3,M,,*5B
$PYRTM,2024,124.255767521215,15.365414931354
$GPGGA,060817.00,3514.1769,N,12136.2481,W,1,09,1.0,9.0,M,-32.3,M,,*5A
$PYRTM,2024,124.255774917187,15.365422327326
$GPGGA,060818.00,3514.1776,N,12136.2485,W,1,09,1.0,9.3,M,-32.3,M,,*5C
$PYRTM,2024,124.255790669398,15.365438079537
$GPGGA,060819.00,3514.1781,N,12136.2490,W,1,09,1.0,9.9,M,-32.3,M,,*5B
$PYRTM,2024,124.255802359954,15.365449770104
$GPGGA,060820.00,3514.1791,N,12136.2493,W,1,09,1.0,10.2,M,-32.3,M,,*60
$PYRTM,2024,124.255809639618,15.365457049757
$GPGGA,060821.00,3514.1802,N,12136.2493,W,1,09,1.0,10.5,M,-32.3,M,,*63
$PYRTM,2024,124.255825510069,15.365472920208
$GPGGA,060822.00,3514.1810,N,12136.2494,W,1,09,1.0,10.8,M,-32.3,M,,*69
$PYRTM,2024,124.255837067894,15.365484478044
$GPGGA,060823.00,3514.1819,N,12136.2500,W,1,09,1.0,10.6,M,-32.3,M,,*63
$PYRTM,2024,124.255844361771,15.365491771910
$GPGGA,060824.00,3514.1829,N,12136.2508,W,1,09,1.0,10.1,M,-32.3,M,,*68
$PYRTM,2024,124.255862995775,15.365510405914
$GPGGA,060825.00,3514.1836,N,12136.2512,W,1,09,1.0,10.1,M,-32.3,M,,*6C
$PYRTM,2024,124.255871807407,15.365519217546
$GPGGA,060826.00,3514.1842,N,12136.2511,W,1,09,1.0,10.8,M,-32.3,M,,*66
$PYRTM,2024,124.255883364931,15.365530775069
$GPGGA,060827.00,3514.1853,N,12136.2511,W,1,09,1.0,10.5,M,-32.3,M,,*6A
$PYRTM,2024,124.255894952176,15.365542362315
$GPGGA,060828.00,3514.1865,N,12136.2515,W,1,09,1.0,10.1,M,-32.3,M,,*60
$PYRTM,2024,124.255906406389,15.365553816528
$GPGGA,060829.00,3514.1873,N,12136.2523,W,1,09,1.0,9.4,M,-32.3,M,,*5E
$PYRTM,2024,124.255917980058,15.365565390197
$GPGGA,060830.00,3514.1879,N,12136.2529,W,1,09,1.0,9.2,M,-32.3,M,,*50
$PYRTM,2024,124.255925381725,15.365572791875
$GPGGA,060831.00,3514.1888,N,12136.2531,W,1,09,1.0,9.3,M,-32.3,M,,*57
$PYRTM,2024,124.255941134167,15.365588544306
$GPGGA,060832.00,3514.1897,N,12136.2532,W,1,09,1.0,9.6,M,-32.3,M,,*5C
$PYRTM,2024,124.255952810255,15.365600220394
$GPGGA,060833.00,3514.1904,N,12136.2534,W,1,09,1.0,10.2,M,-32.3,M,,*6C
$PYRTM,2024,124.255964400185,15.365611810336
$GPGGA,060834.00,3514.1912,N,12136.2537,W,1,09,1.0,10.8,M,-32.3,M,,*65
$PYRTM,2024,124.255975957535,15.365623367674
$GPGGA,060835.00,3514.1922,N,12136.2541,W,1,09,1.0,10.6,M,-32.3,M,,*68
$PYRTM,2024,124.255983249005,15.365630659144
$GPGGA,060836.00,3514.1931,N,12136.2548,W,1,09,1.0,9.5,M,-32.3,M,,*5B
$PYRTM,2024,124.255999005660,15.365646415799
$GPGGA,060837.00,3514.1938,N,12136.2554,W,1,09,1.0,8.9,M,-32.3,M,,*53
$PYRTM,2024,124.256010593264,15.365658003414
$GPGGA,060838.00,3514.1943,N,12136.2555,W,1,09,1.0,8.9,M,-32.3,M,,*51
$PYRTM,2024,124.256022255150,15.365669665289
