$PYRTM,2024,123.333339554560,14.442986964699
$GPGGA,075959.00,3413.1022,N,12018.5071,W,1,09,0.8,10.1,M,-33.7,M,,*6F
$PYRTM,2024,123.333348248160,14.442995658299
$GPGGA,080000.00,3413.1020,N,12018.5082,W,1,09,0.8,10.9,M,-33.7,M,,*66
$PYRTM,2024,123.333359808727,14.443007218866
$GPGGA,080001.00,3413.1017,N,12018.5100,W,1,09,0.8,10.9,M,-33.7,M,,*68
$PYRTM,2024,123.333371395787,14.443018805926
$GPGGA,080002.00,3413.1017,N,12018.5120,W,1,09,0.8,10.1,M,-33.7,M,,*61
$PYRTM,2024,123.333378701400,14.443026111539
$GPGGA,080003.00,3413.1020,N,12018.5135,W,1,09,0.8,9.4,M,-33.7,M,,*5D
$PYRTM,2024,123.333394543461,14.443041953600
$GPGGA,080004.00,3413.1019,N,12018.5144,W,1,09,0.8,10.3,M,-33.7,M,,*69
$PYRTM,2024,123.333406104618,14.443053514757
$GPGGA,080005.00,3413.1015,N,12018.5154,W,1,09,0.8,11.6,M,-33.7,M,,*61
$PYRTM,2024,123.333413513079,14.443060923229
$GPGGA,080006.00,3413.1011,N,12018.5170,W,1,09,0.8,12.4,M,-33.7,M,,*61
$PYRTM,2024,123.333429252801,14.443076662940
$GPGGA,080007.00,3413.1012,N,12018.5190,W,1,09,0.8,11.9,M,-33.7,M,,*63
$PYRTM,2024,123.333440842731,14.443088252870
$GPGGA,080008.00,3413.1015,N,12018.5206,W,1,09,0.8,11.0,M,-33.7,M,,*6E
$PYRTM,2024,123.333448234398,14.443095644537
$GPGGA,080009.00,3413.1016,N,12018.5217,W,1,09,0.8,11.2,M,-33.7,M,,*6E
$PYRTM,2024,123.333463987477,14.443111397616
$GPGGA,080010.00,3413.1015,N,12018.5231,W,1,09,0.8,11.6,M,-33.7,M,,*65
$PYRTM,2024,123.333475548333,14.443122958472
$GPGGA,080011.00,3413.1014,N,12018.5248,W,1,09,0.8,12.0,M,-33.7,M,,*6E
$PYRTM,2024,123.333482957963,14.443130368102
$GPGGA,080012.00,3413.1013,N,12018.5262,W,1,09,0.8,12.8,M,-33.7,M,,*6A
$PYRTM,2024,123.333494646424,14.443142056563
$GPGGA,080013.00,3413.1011,N,12018.5275,W,1,09,0.8,13.6,M,-33.7,M,,*60
$PYRTM,2024,123.333510287130,14.443157697269
$GPGGA,080014.00,3413.1010,N,12018.5294,W,1,09,0.8,13.1,M,-33.7,M,,*6E
$PYRTM,2024,123.333521846065,14.443169256204
$GPGGA,080015.00,3413.1011,N,12018.5312,W,1,09,0.8,12.2,M,-33.7,M,,*63
$PYRTM,2024,123.333529252512,14.443176662650
$GPGGA,080016.00,3413.1010,N,12018.5323,W,1,09,0.8,11.8,M,-33.7,M,,*6A
$PYRTM,2024,123.333540956181,14.443188366319
$GPGGA,080017.00,3413.1008,N,12018.5334,W,1,09,0.8,11.8,M,-33.7,M,,*64
$PYRTM,2024,123.333556580509,14.443203990648
$GPGGA,080018.00,3413.1008,N,12018.5351,W,1,09,0.8,11.7,M,-33.7,M,,*67
$PYRTM,2024,123.333568142049,14.443215552187
$GPGGA,080019.00,3413.1010,N,12018.5366,W,1,09,0.8,11.5,M,-33.7,M,,*69
$PYRTM,2024,123.333579728819,14.443227138958
$GPGGA,080020.00,3413.1008,N,12018.5379,W,1,09,0.8,11.9,M,-33.7,M,,*68
$PYRTM,2024,123.333591291019,14.443238701157
$GPGGA,080021.00,3413.1007,N,12018.5393,W,1,09,0.8,12.4,M,-33.7,M,,*6C
$PYRTM,2024,123.333602876678,14.443250286817
$GPGGA,080022.00,3413.1007,N,12018.5407,W,1,09,0.8,12.8,M,-33.7,M,,*69
$PYRTM,2024,123.333610273634,14.443257683773
$GPGGA,080023.00,3413.1008,N,12018.5423,W,1,09,0.8,12.6,M,-33.7,M,,*6F
$PYRTM,2024,123.333626026366,14.443273436505
$GPGGA,080024.00,3413.1009,N,12018.5438,W,1,09,0.8,11.8,M,-33.7,M,,*6E
$PYRTM,2024,123.333637586157,14.443284996296
$GPGGA,080025.00,3413.1009,N,12018.5454,W,1,09,0.8,11.3,M,-33.7,M,,*6E
$PYRTM,2024,123.333644993403,14.443292403542
$GPGGA,080026.00,3413.1008,N,12018.5467,W,1,09,0.8,11.6,M,-33.7,M,,*69
$PYRTM,2024,123.333660734525,14.443308144664
$GPGGA,080027.00,3413.1006,N,12018.5481,W,1,09,0.8,12.3,M,-33.7,M,,*68
$PYRTM,2024,123.333672324919,14.443319735058
$GPGGA,080028.00,3413.1006,N,12018.5498,W,1,09,0.8,12.6,M,-33.7,M,,*6A
$PYRTM,2024,123.333679716285,14.443327126424
$GPGGA,080029.00,3413.1009,N,12018.5515,W,1,09,0.8,12.2,M,-33.7,M,,*64
$PYRTM,2024,123.333698365289,14.443345775428
$GPGGA,080030.00,3413.1011,N,12018.5531,W,1,09,0.8,11.7,M,-33.7,M,,*65
$PYRTM,2024,123.333707030394,14.443354440532
$GPGGA,080031.00,3413.1008,N,12018.5546,W,1,09,0.8,11.6,M,-33.7,M,,*6D
$PYRTM,2024,123.333718613681,14.443366023819
$GPGGA,080032.00,3413.1004,N,12018.5563,W,1,09,0.8,11.5,M,-33.7,M,,*66
$PYRTM,2024,123.333726028681,14.443373438819
$GPGGA,080033.00,3413.1005,N,12018.5578,W,1,09,0.8,11.7,M,-33.7,M,,*6E
$PYRTM,2024,123.333741768056,14.443389178194
$GPGGA,080034.00,3413.1008,N,12018.5591,W,1,09,0.8,12.4,M,-33.7,M,,*63
$PYRTM,2024,123.333753327859,14.443400737998
$GPGGA,080035.00,3413.1007,N,12018.5608,W,1,09,0.8,12.8,M,-33.7,M,,*62
$PYRTM,2024,123.333764910868,14.443412321007
$GPGGA,080036.00,3413.1004,N,12018.5630,W,1,09,0.8,12.2,M,-33.7,M,,*63
$PYRTM,2024,123.333776475069,14.443423885208
$GPGGA,080037.00,3413.1002,N,12018.5645,W,1,09,0.8,11.9,M,-33.7,M,,*6E
$PYRTM,2024,123.333788062743,14.443435472882
$GPGGA,080038.00,3413.1002,N,12018.5653,W,1,09,0.8,12.6,M,-33.7,M,,*6A
$PYRTM,2024,123.333799624097,14.443447034236
$GPGGA,080039.00,3413.1004,N,12018.5665,W,1,09,0.8,13.6,M,-33.7,M,,*69
$PYRTM,2024,123.333811210694,14.443458620845
$GPGGA,080040.00,3413.1003,N,12018.5686,W,1,09,0.8,13.3,M,-33.7,M,,*68
$PYRTM,2024,123.333822771956,14.443470182095
$GPGGA,080041.00,3413.1001,N,12018.5708,W,1,09,0.8,12.5,M,-33.7,M,,*6B
$PYRTM,2024,123.333834364074,14.443481774213
$GPGGA,080042.00,3413.1000,N,12018.5721,W,1,09,0.8,12.1,M,-33.7,M,,*66
$PYRTM,2024,123.333845921377,14.443493331516
$GPGGA,080043.00,3413.1002,N,12018.5727,W,1,09,0.8,12.4,M,-33.7,M,,*66
$PYRTM,2024,123.333857510313,14.443504920451
$GPGGA,080044.00,3413.1004,N,12018.5739,W,1,09,0.8,12.4,M,-33.7,M,,*68
$PYRTM,2024,123.333869068229,14.443516478368
$GPGGA,080045.00,3413.1005,N,12018.5758,W,1,09,0.8,12.0,M,-33.7,M,,*6B
$PYRTM,2024,123.333880654537,14.443528064676
$GPGGA,080046.00,3413.1002,N,12018.5776,W,1,09,0.8,11.8,M,-33.7,M,,*68
$PYRTM,2024,123.333892217604,14.443539627743
$GPGGA,080047.00,3413.0999,N,12018.5789,W,1,09,0.8,11.7,M,-33.7,M,,*6C
$PYRTM,2024,123.333903803345,14.443551213484
$GPGGA,080048.00,3413.1000,N,12018.5804,W,1,09,0.8,11.6,M,-33.7,M,,*60
$PYRTM,2024,123.333911197222,14.443558607361
$GPGGA,080049.00,3413.1002,N,12018.5820,W,1,09,0.8,11.6,M,-33.7,M,,*65
$PYRTM,2024,123.333926951076,14.443574361215
$GPGGA,080050.00,3413.1001,N,12018.5833,W,1,09,0.8,12.1,M,-33.7,M,,*68
$PYRTM,2024,123.333938531088,14.443585941227
$GPGGA,080051.00,3413.0999,N,12018.5846,W,1,09,0.8,13.0,M,-33.7,M,,*62
$PYRTM,2024,123.333950109942,14.443597520081
$GPGGA,080052.00,3413.0997,N,12018.5864,W,1,09,0.8,13.2,M,-33.7,M,,*6D
$PYRTM,2024,123.333961660949,14.443609071088
$GPGGA,080053.00,3413.0998,N,12018.5885,W,1,09,0.8,12.5,M,-33.7,M,,*6A
$PYRTM,2024,123.333973253819,14.443620663958
$GPGGA,080054.00,3413.1000,N,12018.5902,W,1,09,0.8,11.3,M,-33.7,M,,*6F
$PYRTM,2024,123.333980644201,14.443628054340
$GPGGA,080055.00,3413.1000,N,12018.5912,W,1,09,0.8,11.5,M,-33.7,M,,*69
$PYRTM,2024,123.333996410150,14.443643820289
$GPGGA,080056.00,3413.0999,N,12018.5924,W,1,09,0.8,12.7,M,-33.7,M,,*66
$PYRTM,2024,123.334007958542,14.443655368681
$GPGGA,080057.00,3413.0997,N,12018.5940,W,1,09,0.8,13.4,M,-33.7,M,,*69
$PYRTM,2024,123.334015365903,14.443662776042
$GPGGA,080058.00,3413.0996,N,12018.5959,W,1,09,0.8,13.3,M,-33.7,M,,*68
$PYRTM,2024,123.334031105475,14.443678515613
$GPGGA,080059.00,3413.0996,N,12018.5978,W,1,09,0.8,12.7,M,-33.7,M,,*6F
$PYRTM,2024,123.334038513426,14.443685923565
$GPGGA,080100.00,3413.0996,N,12018.5993,W,1,09,0.8,12.3,M,-33.7,M,,*63
$PYRTM,2024,123.334057147535,14.443704557674
$GPGGA,080101.00,3413.0994,N,12018.6008,W,1,09,0.8,12.3,M,-33.7,M,,*68
$PYRTM,2024,123.334065842014,14.443713252153
$GPGGA,080102.00,3413.0993,N,12018.6022,W,1,09,0.8,12.8,M,-33.7,M,,*6F
$PYRTM,2024,123.334077404444,14.443724814583
$GPGGA,080103.00,3413.0993,N,12018.6039,W,1,09,0.8,13.3,M,-33.7,M,,*6E
$PYRTM,2024,123.334084809468,14.443732219618
$GPGGA,080104.00,3413.0993,N,12018.6057,W,1,09,0.8,13.4,M,-33.7,M,,*66
$PYRTM,2024,123.334100552234,14.443747962373
$GPGGA,080105.00,3413.0993,N,12018.6076,W,1,09,0.8,12.3,M,-33.7,M,,*62
$PYRTM,2024,123.334112138738,14.443759548877
$GPGGA,080106.00,3413.0993,N,12018.6094,W,1,09,0.8,11.6,M,-33.7,M,,*6B
$PYRTM,2024,123.334119532431,14.443766942569
$GPGGA,080107.00,3413.0993,N,12018.6105,W,1,09,0.8,12.0,M,-33.7,M,,*66
$PYRTM,2024,123.334135286597,14.443782696736
$GPGGA,080108.00,3413.0993,N,12018.6117,W,1,09,0.8,13.3,M,-33.7,M,,*68
$PYRTM,2024,123.334146848426,14.443794258565
$GPGGA,080109.00,3413.0993,N,12018.6134,W,1,09,0.8,14.2,M,-33.7,M,,*6E
$PYRTM,2024,123.334154254815,14.443801664954
$GPGGA,080110.00,3413.0991,N,12018.6157,W,1,09,0.8,13.0,M,-33.7,M,,*64
$PYRTM,2024,123.334169995046,14.443817405185
$GPGGA,080111.00,3413.0990,N,12018.6175,W,1,09,0.8,12.6,M,-33.7,M,,*63
$PYRTM,2024,123.334181585139,14.443828995278
$GPGGA,080112.00,3413.0990,N,12018.6190,W,1,09,0.8,12.6,M,-33.7,M,,*6B
$PYRTM,2024,123.334188977176,14.443836387326
$GPGGA,080113.00,3413.0993,N,12018.6206,W,1,09,0.8,12.6,M,-33.7,M,,*65
$PYRTM,2024,123.334204732407,14.443852142546
$GPGGA,080114.00,3413.0996,N,12018.6224,W,1,09,0.8,12.7,M,-33.7,M,,*66
$PYRTM,2024,123.334216291701,14.443863701840
$GPGGA,080115.00,3413.0997,N,12018.6239,W,1,09,0.8,13.3,M,-33.7,M,,*6F
$PYRTM,2024,123.334223698785,14.443871108924
$GPGGA,080116.00,3413.0995,N,12018.6252,W,1,09,0.8,14.3,M,-33.7,M,,*64
$PYRTM,2024,123.334239443090,14.443886853229
$GPGGA,080117.00,3413.0992,N,12018.6270,W,1,09,0.8,14.8,M,-33.7,M,,*69
$PYRTM,2024,123.334251028137,14.443898438287
$GPGGA,080118.00,3413.0993,N,12018.6291,W,1,09,0.8,13.6,M,-33.7,M,,*61
$PYRTM,2024,123.334258421343,14.443905831493
$GPGGA,080119.00,3413.0996,N,12018.6311,W,1,09,0.8,11.9,M,-33.7,M,,*61
$PYRTM,2024,123.334274176076,14.443921586227
$GPGGA,080120.00,3413.0999,N,12018.6324,W,1,09,0.8,11.4,M,-33.7,M,,*6F
$PYRTM,2024,123.334281569873,14.443928980012
$GPGGA,080121.00,3413.0998,N,12018.6334,W,1,09,0.8,12.4,M,-33.7,M,,*6D
$PYRTM,2024,123.334300218993,14.443947629132
$GPGGA,080122.00,3413.0995,N,12018.6349,W,1,09,0.8,13.4,M,-33.7,M,,*68
$PYRTM,2024,123.334308884109,14.443956294259
$GPGGA,080123.00,3413.0994,N,12018.6370,W,1,09,0.8,13.2,M,-33.7,M,,*64
$PYRTM,2024,123.334320471956,14.443967882095
$GPGGA,080124.00,3413.0996,N,12018.6389,W,1,09,0.8,12.0,M,-33.7,M,,*64
$PYRTM,2024,123.334327866748,14.443975276887
$GPGGA,080125.00,3413.0997,N,12018.6401,W,1,09,0.8,11.7,M,-33.7,M,,*67
$PYRTM,2024,123.334339556516,14.443986966655
$GPGGA,080126.00,3413.0997,N,12018.6413,W,1,09,0.8,12.1,M,-33.7,M,,*62
$PYRTM,2024,123.334355181516,14.444002591667
$GPGGA,080127.00,3413.0995,N,12018.6433,W,1,09,0.8,12.1,M,-33.7,M,,*63
$PYRTM,2024,123.334366782303,14.444014192442
$GPGGA,080128.00,3413.0992,N,12018.6451,W,1,09,0.8,12.1,M,-33.7,M,,*6F
$PYRTM,2024,123.334378329977,14.444025740127
$GPGGA,080129.00,3413.0992,N,12018.6464,W,1,09,0.8,12.6,M,-33.7,M,,*6F
$PYRTM,2024,123.334389917407,14.444037327546
$GPGGA,080130.00,3413.0994,N,12018.6480,W,1,09,0.8,13.1,M,-33.7,M,,*6D
$PYRTM,2024,123.334397323160,14.444044733299
$GPGGA,080131.00,3413.0996,N,12018.6500,W,1,09,0.8,12.8,M,-33.7,M,,*6F
$PYRTM,2024,123.334415957130,14.444063367269
$GPGGA,080132.00,3413.0995,N,12018.6518,W,1,09,0.8,12.2,M,-33.7,M,,*6C
$PYRTM,2024,123.334424625417,14.444072035567
$GPGGA,080133.00,3413.0993,N,12018.6530,W,1,09,0.8,12.7,M,-33.7,M,,*64
$PYRTM,2024,123.334436211238,14.444083621377
$GPGGA,080134.00,3413.0993,N,12018.6543,W,1,09,0.8,13.5,M,-33.7,M,,*64
$PYRTM,2024,123.334443608391,14.444091018530
$GPGGA,080135.00,3413.0995,N,12018.6560,W,1,09,0.8,13.7,M,-33.7,M,,*60
$PYRTM,2024,123.334459363576,14.444106773715
$GPGGA,080136.00,3413.0996,N,12018.6577,W,1,09,0.8,13.1,M,-33.7,M,,*60
$PYRTM,2024,123.334470921898,14.444118332037
$GPGGA,080137.00,3413.0997,N,12018.6593,W,1,09,0.8,12.6,M,-33.7,M,,*6C
$PYRTM,2024,123.334478328113,14.444125738252
$GPGGA,080138.00,3413.0996,N,12018.6608,W,1,09,0.8,12.3,M,-33.7,M,,*66
$PYRTM,2024,123.334494070370,14.444141480521
$GPGGA,080139.00,3413.0995,N,12018.6624,W,1,09,0.8,12.3,M,-33.7,M,,*6A
$PYRTM,2024,123.334505660278,14.444153070417
$GPGGA,080140.00,3413.0995,N,12018.6640,W,1,09,0.8,12.4,M,-33.7,M,,*61
$PYRTM,2024,123.334513051400,14.444160461539
$GPGGA,080141.00,3413.0997,N,12018.6657,W,1,09,0.8,12.2,M,-33.7,M,,*62
$PYRTM,2024,123.334528818877,14.444176229016
$GPGGA,080142.00,3413.1000,N,12018.6676,W,1,09,0.8,11.4,M,-33.7,M,,*61
$PYRTM,2024,123.334540366076,14.444187776215
$GPGGA,080143.00,3413.1000,N,12018.6691,W,1,09,0.8,11.3,M,-33.7,M,,*6E
$PYRTM,2024,123.334547774734,14.444195184873
$GPGGA,080144.00,3413.0997,N,12018.6702,W,1,09,0.8,12.5,M,-33.7,M,,*61
$PYRTM,2024,123.334563514907,14.444210925046
$GPGGA,080145.00,3413.0996,N,12018.6716,W,1,09,0.8,13.4,M,-33.7,M,,*64
$PYRTM,2024,123.334575102211,14.444222512350
$GPGGA,080146.00,3413.0997,N,12018.6737,W,1,09,0.8,13.1,M,-33.7,M,,*60
$PYRTM,2024,123.334586663310,14.444234073449
$GPGGA,080147.00,3413.0997,N,12018.6756,W,1,09,0.8,12.3,M,-33.7,M,,*65
$PYRTM,2024,123.334598250880,14.444245661019
$GPGGA,080148.00,3413.0995,N,12018.6771,W,1,09,0.8,11.5,M,-33.7,M,,*68
$PYRTM,2024,123.334609810336,14.444257220475
$GPGGA,080149.00,3413.0995,N,12018.6786,W,1,09,0.8,11.6,M,-33.7,M,,*62
$PYRTM,2024,123.334621397697,14.444268807836
$GPGGA,080150.00,3413.0999,N,12018.6802,W,1,09,0.8,12.0,M,-33.7,M,,*60
$PYRTM,2024,123.334632958322,14.444280368461
$GPGGA,080151.00,3413.1001,N,12018.6817,W,1,09,0.8,12.9,M,-33.7,M,,*65
$PYRTM,2024,123.334644546088,14.444291956227
$GPGGA,080152.00,3413.0999,N,12018.6832,W,1,09,0.8,13.8,M,-33.7,M,,*68
$PYRTM,2024,123.334651939965,14.444299350104
$GPGGA,080153.00,3413.0995,N,12018.6853,W,1,09,0.8,14.2,M,-33.7,M,,*6F
$PYRTM,2024,123.334667697326,14.444315107465
$GPGGA,080154.00,3413.0993,N,12018.6877,W,1,09,0.8,12.8,M,-33.7,M,,*64
$PYRTM,2024,123.334679255822,14.444326665961
$GPGGA,080155.00,3413.0996,N,12018.6892,W,1,09,0.8,12.1,M,-33.7,M,,*62
$PYRTM,2024,123.334690856481,14.444338266620
$GPGGA,080156.00,3413.0999,N,12018.6899,W,1,09,0.8,12.4,M,-33.7,M,,*60
$PYRTM,2024,123.334702403889,14.444349814028
$GPGGA,080157.00,3413.1001,N,12018.6912,W,1,09,0.8,12.8,M,-33.7,M,,*66
$PYRTM,2024,123.334713995197,14.444361405347
$GPGGA,080158.00,3413.1000,N,12018.6932,W,1,09,0.8,12.3,M,-33.7,M,,*61
$PYRTM,2024,123.334721385498,14.444368795637
$GPGGA,080159.00,3413.0999,N,12018.6952,W,1,09,0.8,11.5,M,-33.7,M,,*6B
$PYRTM,2024,123.334737138264,14.444384548403
$GPGGA,080200.00,3413.0999,N,12018.6965,W,1,09,0.8,12.0,M,-33.7,M,,*66
$PYRTM,2024,123.334748699757,14.444396109896
$GPGGA,080201.00,3413.1000,N,12018.6977,W,1,09,0.8,12.7,M,-33.7,M,,*6B
$PYRTM,2024,123.334756107963,14.444403518102
$GPGGA,080202.00,3413.1001,N,12018.6994,W,1,09,0.8,13.1,M,-33.7,M,,*63
$PYRTM,2024,123.334774741910,14.444422152049
$GPGGA,080203.00,3413.1000,N,12018.7012,W,1,09,0.8,13.0,M,-33.7,M,,*64
$PYRTM,2024,123.334783434294,14.444430844433
$GPGGA,080204.00,3413.0998,N,12018.7028,W,1,09,0.8,13.2,M,-33.7,M,,*61
$PYRTM,2024,123.334790831493,14.444438241632
$GPGGA,080205.00,3413.0996,N,12018.7045,W,1,09,0.8,13.3,M,-33.7,M,,*64
$PYRTM,2024,123.334806583414,14.444453993553
$GPGGA,080206.00,3413.0998,N,12018.7061,W,1,09,0.8,13.1,M,-33.7,M,,*6D
$PYRTM,2024,123.334818145081,14.444465555231
$GPGGA,080207.00,3413.1000,N,12018.7078,W,1,09,0.8,12.6,M,-33.7,M,,*6B
$PYRTM,2024,123.334825551007,14.444472961146
$GPGGA,080208.00,3413.0999,N,12018.7096,W,1,09,0.8,12.3,M,-33.7,M,,*69
$PYRTM,2024,123.334841295266,14.444488705405
$GPGGA,080209.00,3413.0996,N,12018.7113,W,1,09,0.8,12.6,M,-33.7,M,,*6E
$PYRTM,2024,123.334852883252,14.444500293391
$GPGGA,080210.00,3413.0994,N,12018.7127,W,1,09,0.8,13.3,M,-33.7,M,,*67
$PYRTM,2024,123.334860274271,14.444507684410
$GPGGA,080211.00,3413.0996,N,12018.7144,W,1,09,0.8,13.7,M,-33.7,M,,*65
$PYRTM,2024,123.334876029144,14.444523439282
$GPGGA,080212.00,3413.0997,N,12018.7164,W,1,09,0.8,13.4,M,-33.7,M,,*66
$PYRTM,2024,123.334887590613,14.444535000752
$GPGGA,080213.00,3413.0997,N,12018.7183,W,1,09,0.8,12.9,M,-33.7,M,,*62
$PYRTM,2024,123.334899176806,14.444546586944
$GPGGA,080214.00,3413.0996,N,12018.7198,W,1,09,0.8,12.7,M,-33.7,M,,*60
$PYRTM,2024,123.334910737905,14.444558148044
$GPGGA,080215.00,3413.0995,N,12018.7213,W,1,09,0.8,13.0,M,-33.7,M,,*64
$PYRTM,2024,123.334922324074,14.444569734213
$GPGGA,080216.00,3413.0994,N,12018.7231,W,1,09,0.8,13.3,M,-33.7,M,,*65
$PYRTM,2024,123.334933898368,14.444581308507
$GPGGA,080217.00,3413.0996,N,12018.7249,W,1,09,0.8,12.8,M,-33.7,M,,*63
$PYRTM,2024,123.334945473299,14.444592883437
$GPGGA,080218.00,3413.0998,N,12018.7267,W,1,09,0.8,12.1,M,-33.7,M,,*67
$PYRTM,2024,123.334957047674,14.444604457812
$GPGGA,080219.00,3413.0997,N,12018.7282,W,1,09,0.8,12.3,M,-33.7,M,,*60
$PYRTM,2024,123.334968620382,14.444616030521
$GPGGA,080220.00,3413.0995,N,12018.7297,W,1,09,0.8,12.9,M,-33.7,M,,*66
$PYRTM,2024,123.334980197627,14.444627607766
$GPGGA,080221.00,3413.0994,N,12018.7316,W,1,09,0.8,13.3,M,-33.7,M,,*65
$PYRTM,2024,123.334991769549,14.444639179687
$GPGGA,080222.00,3413.0995,N,12018.7334,W,1,09,0.8,13.1,M,-33.7,M,,*65
$PYRTM,2024,123.334999164329,14.444646574468
$GPGGA,080223.00,3413.0996,N,12018.7350,W,1,09,0.8,12.9,M,-33.7,M,,*6C
$PYRTM,2024,123.335014921655,14.444662331794
$GPGGA,080224.00,3413.0997,N,12018.7366,W,1,09,0.8,12.7,M,-33.7,M,,*61
$PYRTM,2024,123.335022312639,14.444669722778
$GPGGA,080225.00,3413.0997,N,12018.7387,W,1,09,0.8,12.0,M,-33.7,M,,*68
$PYRTM,2024,123.335038070208,14.444685480359
$GPGGA,080226.00,3413.0997,N,12018.7405,W,1,09,0.8,11.7,M,-33.7,M,,*62
$PYRTM,2024,123.335049639074,14.444697049213
$GPGGA,080227.00,3413.0995,N,12018.7417,W,1,09,0.8,12.6,M,-33.7,M,,*60
$PYRTM,2024,123.335061214120,14.444708624259
$GPGGA,080228.00,3413.0993,N,12018.7431,W,1,09,0.8,13.7,M,-33.7,M,,*6D
$PYRTM,2024,123.335072788079,14.444720198218
$GPGGA,080229.00,3413.0995,N,12018.7452,W,1,09,0.8,13.2,M,-33.7,M,,*6A
$PYRTM,2024,123.335084361875,14.444731772014
$GPGGA,080230.00,3413.0995,N,12018.7472,W,1,09,0.8,12.7,M,-33.7,M,,*64
$PYRTM,2024,123.335095936470,14.444743346609
$GPGGA,080231.00,3413.0994,N,12018.7485,W,1,09,0.8,12.7,M,-33.7,M,,*6C
$PYRTM,2024,123.335107513241,14.444754923380
$GPGGA,080232.00,3413.0992,N,12018.7498,W,1,09,0.8,13.0,M,-33.7,M,,*63
$PYRTM,2024,123.335114904653,14.444762314792
$GPGGA,080233.00,3413.0992,N,12018.7515,W,1,09,0.8,13.3,M,-33.7,M,,*65
$PYRTM,2024,123.335133552014,14.444780962164
$GPGGA,080234.00,3413.0993,N,12018.7531,W,1,09,0.8,13.7,M,-33.7,M,,*61
$PYRTM,2024,123.335142232384,14.444789642523
$GPGGA,080235.00,3413.0992,N,12018.7547,W,1,09,0.8,13.8,M,-33.7,M,,*6F
$PYRTM,2024,123.335153809676,14.444801219815
$GPGGA,080236.00,3413.0991,N,12018.7565,W,1,09,0.8,13.5,M,-33.7,M,,*62
$PYRTM,2024,123.335165380810,14.444812790949
$GPGGA,080237.00,3413.0990,N,12018.7583,W,1,09,0.8,13.1,M,-33.7,M,,*6E
$PYRTM,2024,123.335176958403,14.444824368542
$GPGGA,080238.00,3413.0992,N,12018.7597,W,1,09,0.8,13.1,M,-33.7,M,,*66
$PYRTM,2024,123.335188530382,14.444835940521
$GPGGA,080239.00,3413.0993,N,12018.7611,W,1,09,0.8,13.4,M,-33.7,M,,*6E
$PYRTM,2024,123.335200106204,14.444847516343
$GPGGA,080240.00,3413.0993,N,12018.7626,W,1,09,0.8,13.6,M,-33.7,M,,*66
$PYRTM,2024,123.335211676852,14.444859086991
$GPGGA,080241.00,3413.0992,N,12018.7644,W,1,09,0.8,13.7,M,-33.7,M,,*63
$PYRTM,2024,123.335223252766,14.444870662905
$GPGGA,080242.00,3413.0993,N,12018.7664,W,1,09,0.8,12.0,M,-33.7,M,,*65
$PYRTM,2024,123.335234827535,14.444882237674
$GPGGA,080243.00,3413.0996,N,12018.7681,W,1,09,0.8,11.2,M,-33.7,M,,*6B
$PYRTM,2024,123.335246400023,14.444893810162
$GPGGA,080244.00,3413.0995,N,12018.7692,W,1,09,0.8,11.7,M,-33.7,M,,*68
$PYRTM,2024,123.335257972998,14.444905383137
$GPGGA,080245.00,3413.0994,N,12018.7705,W,1,09,0.8,12.9,M,-33.7,M,,*6A
$PYRTM,2024,123.335265370451,14.444912780602
$GPGGA,080246.00,3413.0993,N,12018.7724,W,1,09,0.8,13.2,M,-33.7,M,,*67
$PYRTM,2024,123.335281122373,14.444928532512
$GPGGA,080247.00,3413.0993,N,12018.7747,W,1,09,0.8,12.3,M,-33.7,M,,*63
$PYRTM,2024,123.335292696076,14.444940106215
$GPGGA,080248.00,3413.0994,N,12018.7766,W,1,09,0.8,11.6,M,-33.7,M,,*6E
$PYRTM,2024,123.335304269873,14.444951680012
$GPGGA,080249.00,3413.0993,N,12018.7780,W,1,09,0.8,11.5,M,-33.7,M,,*63
$PYRTM,2024,123.335315839329,14.444963249468
$GPGGA,080250.00,3413.0993,N,12018.7795,W,1,09,0.8,11.7,M,-33.7,M,,*6D
$PYRTM,2024,123.335327417407,14.444974827546
$GPGGA,080251.00,3413.0993,N,12018.7813,W,1,09,0.8,12.0,M,-33.7,M,,*69
$PYRTM,2024,123.335338995544,14.444986405683
$GPGGA,080252.00,3413.0993,N,12018.7832,W,1,09,0.8,12.1,M,-33.7,M,,*68
$PYRTM,2024,123.335350565822,14.444997975961
$GPGGA,080253.00,3413.0993,N,12018.7850,W,1,09,0.8,11.9,M,-33.7,M,,*66
$PYRTM,2024,123.335362144479,14.445009554618
$GPGGA,080254.00,3413.0991,N,12018.7864,W,1,09,0.8,12.3,M,-33.7,M,,*6D
$PYRTM,2024,123.335373714769,14.445021124907
$GPGGA,080255.00,3413.0991,N,12018.7877,W,1,09,0.8,13.0,M,-33.7,M,,*6C
$PYRTM,2024,123.335385290706,14.445032700845
$GPGGA,080256.00,3413.0992,N,12018.7894,W,1,09,0.8,13.3,M,-33.7,M,,*62
$PYRTM,2024,123.335392699965,14.445040110104
$GPGGA,080257.00,3413.0991,N,12018.7915,W,1,09,0.8,12.2,M,-33.7,M,,*68
$PYRTM,2024,123.335408436956,14.445055847106
$GPGGA,080258.00,3413.0990,N,12018.7933,W,1,09,0.8,11.6,M,-33.7,M,,*65
$PYRTM,2024,123.335420011424,14.445067421563
$GPGGA,080259.00,3413.0988,N,12018.7946,W,1,09,0.8,12.0,M,-33.7,M,,*6A
$PYRTM,2024,123.335431584769,14.445078994907
$GPGGA,080300.00,3413.0987,N,12018.7960,W,1,09,0.8,12.8,M,-33.7,M,,*64
$PYRTM,2024,123.335443153947,14.445090564086
$GPGGA,080301.00,3413.0988,N,12018.7980,W,1,09,0.8,13.5,M,-33.7,M,,*68
$PYRTM,2024,123.335454732859,14.445102142998
$GPGGA,080302.00,3413.0988,N,12018.8001,W,1,09,0.8,12.5,M,-33.7,M,,*65
$PYRTM,2024,123.335466308912,14.445113719051
$GPGGA,080303.00,3413.0986,N,12018.8018,W,1,09,0.8,12.1,M,-33.7,M,,*66
$PYRTM,2024,123.335473702523,14.445121112674
$GPGGA,080304.00,3413.0985,N,12018.8031,W,1,09,0.8,12.5,M,-33.7,M,,*6D
$PYRTM,2024,123.335492336493,14.445139746632
$GPGGA,080305.00,3413.0986,N,12018.8047,W,1,09,0.8,12.7,M,-33.7,M,,*6C
$PYRTM,2024,123.335501043715,14.445148453854
$GPGGA,080306.00,3413.0986,N,12018.8066,W,1,09,0.8,12.3,M,-33.7,M,,*68
$PYRTM,2024,123.335512603472,14.445160013611
$GPGGA,080307.00,3413.0986,N,12018.8085,W,1,09,0.8,11.5,M,-33.7,M,,*61
$PYRTM,2024,123.335524180891,14.445171591030
$GPGGA,080308.00,3413.0987,N,12018.8101,W,1,09,0.8,11.2,M,-33.7,M,,*65
$PYRTM,2024,123.335531574178,14.445178984317
$GPGGA,080309.00,3413.0988,N,12018.8116,W,1,09,0.8,11.6,M,-33.7,M,,*69
$PYRTM,2024,123.335547326065,14.445194736204
$GPGGA,080310.00,3413.0989,N,12018.8132,W,1,09,0.8,12.1,M,-33.7,M,,*62
$PYRTM,2024,123.335558900394,14.445206310532
$GPGGA,080311.00,3413.0990,N,12018.8151,W,1,09,0.8,12.0,M,-33.7,M,,*6F
$PYRTM,2024,123.335566295961,14.445213706100
$GPGGA,080312.00,3413.0993,N,12018.8172,W,1,09,0.8,11.1,M,-33.7,M,,*6C
$PYRTM,2024,123.335582048356,14.445229458495
$GPGGA,080313.00,3413.0993,N,12018.8186,W,1,09,0.8,11.3,M,-33.7,M,,*64
$PYRTM,2024,123.335593622523,14.445241032662
$GPGGA,080314.00,3413.0990,N,12018.8192,W,1,09,0.8,12.0,M,-33.7,M,,*65
$PYRTM,2024,123.335605195324,14.445252605463
$GPGGA,080315.00,3413.0988,N,12018.8204,W,1,09,0.8,12.4,M,-33.7,M,,*65
$PYRTM,2024,123.335616773831,14.445264183970
$GPGGA,080316.00,3413.0987,N,12018.8229,W,1,09,0.8,11.6,M,-33.7,M,,*67
$PYRTM,2024,123.335628345278,14.445275755417
$GPGGA,080317.00,3413.0985,N,12018.8254,W,1,09,0.8,10.3,M,-33.7,M,,*6A
$PYRTM,2024,123.335639919410,14.445287329549
$GPGGA,080318.00,3413.0987,N,12018.8263,W,1,09,0.8,10.1,M,-33.7,M,,*61
$PYRTM,2024,123.335651492222,14.445298902361
$GPGGA,080319.00,3413.0988,N,12018.8262,W,1,09,0.8,10.3,M,-33.7,M,,*6C
$PYRTM,2024,123.335663069803,14.445310479954
$GPGGA,080320.00,3413.0987,N,12018.8272,W,1,09,0.8,11.1,M,-33.7,M,,*6B
$PYRTM,2024,123.335674641354,14.445322051493
$GPGGA,080321.00,3413.0985,N,12018.8294,W,1,09,0.8,10.8,M,-33.7,M,,*68
$PYRTM,2024,123.335686218426,14.445333628565
$GPGGA,080322.00,3413.0983,N,12018.8309,W,1,09,0.8,10.6,M,-33.7,M,,*66
$PYRTM,2024,123.335697789479,14.445345199618
$GPGGA,080323.00,3413.0982,N,12018.8317,W,1,09,0.8,10.8,M,-33.7,M,,*67
$PYRTM,2024,123.335709362708,14.445356772847
$GPGGA,080324.00,3413.0979,N,12018.8328,W,1,09,0.8,11.1,M,-33.7,M,,*60
$PYRTM,2024,123.335716771169,14.445364181319
$GPGGA,080325.00,3413.0974,N,12018.8342,W,1,09,0.8,11.2,M,-33.7,M,,*63
$PYRTM,2024,123.335732507512,14.445379917662
$GPGGA,080326.00,3413.0973,N,12018.8354,W,1,09,0.8,11.2,M,-33.7,M,,*60
$PYRTM,2024,123.335744084931,14.445391495069
$GPGGA,080327.00,3413.0974,N,12018.8367,W,1,09,0.8,11.4,M,-33.7,M,,*60
$PYRTM,2024,123.335751481424,14.445398891563
$GPGGA,080328.00,3413.0975,N,12018.8383,W,1,09,0.8,11.0,M,-33.7,M,,*60
$PYRTM,2024,123.335763170521,14.445410580660
$GPGGA,080329.00,3413.0975,N,12018.8400,W,1,09,0.8,10.7,M,-33.7,M,,*6B
$PYRTM,2024,123.335781702998,14.445429113137
$GPGGA,080330.00,3413.0973,N,12018.8411,W,1,09,0.8,11.2,M,-33.7,M,,*61
$PYRTM,2024,123.335793262269,14.445440672407
$GPGGA,080331.00,3413.0970,N,12018.8418,W,1,09,0.8,12.0,M,-33.7,M,,*6B
$PYRTM,2024,123.335804850787,14.445452260926
$GPGGA,080332.00,3413.0970,N,12018.8427,W,1,09,0.8,12.1,M,-33.7,M,,*65
$PYRTM,2024,123.335813530208,14.445460940347
$GPGGA,080333.00,3413.0972,N,12018.8444,W,1,09,0.8,12.1,M,-33.7,M,,*63
$PYRTM,2024,123.335825105116,14.445472515255
$GPGGA,080334.00,3413.0972,N,12018.8462,W,1,09,0.8,10.7,M,-33.7,M,,*64
$PYRTM,2024,123.335832388981,14.445479799120
$GPGGA,080335.00,3413.0970,N,12018.8474,W,1,09,0.8,9.9,M,-33.7,M,,*56
$PYRTM,2024,123.335851145949,14.445498556088
$GPGGA,080336.00,3413.0969,N,12018.8481,W,1,09,0.8,10.0,M,-33.7,M,,*66
$PYRTM,2024,123.335862710752,14.445510120891
$GPGGA,080337.00,3413.0972,N,12018.8491,W,1,09,0.8,10.7,M,-33.7,M,,*6B
$PYRTM,2024,123.335874297627,14.445521707766
$GPGGA,080338.00,3413.0975,N,12018.8506,W,1,09,0.8,11.1,M,-33.7,M,,*6B
$PYRTM,2024,123.335882975741,14.445530385880
$GPGGA,080339.00,3413.0975,N,12018.8523,W,1,09,0.8,11.3,M,-33.7,M,,*6F
$PYRTM,2024,123.335894549329,14.445541959479
$GPGGA,080340.00,3413.0971,N,12018.8537,W,1,09,0.8,11.6,M,-33.7,M,,*65
$PYRTM,2024,123.335906124699,14.445553534838
$GPGGA,080341.00,3413.0968,N,12018.8549,W,1,09,0.8,11.9,M,-33.7,M,,*6A
$PYRTM,2024,123.335917698090,14.445565108229
$GPGGA,080342.00,3413.0971,N,12018.8563,W,1,09,0.8,11.8,M,-33.7,M,,*68
$PYRTM,2024,123.335929271956,14.445576682095
$GPGGA,080343.00,3413.0974,N,12018.8577,W,1,09,0.8,11.3,M,-33.7,M,,*62
$PYRTM,2024,123.335940845440,14.445588255579
$GPGGA,080344.00,3413.0973,N,12018.8591,W,1,09,0.8,10.9,M,-33.7,M,,*61
$PYRTM,2024,123.335952418160,14.445599828299
$GPGGA,080345.00,3413.0971,N,12018.8608,W,1,09,0.8,10.6,M,-33.7,M,,*6E
$PYRTM,2024,123.335963993738,14.445611403877
$GPGGA,080346.00,3413.0970,N,12018.8624,W,1,09,0.8,10.7,M,-33.7,M,,*63
$PYRTM,2024,123.335975567442,14.445622977581
$GPGGA,080347.00,3413.0970,N,12018.8636,W,1,09,0.8,11.5,M,-33.7,M,,*62
$PYRTM,2024,123.335987145544,14.445634555694
$GPGGA,080348.00,3413.0971,N,12018.8649,W,1,09,0.8,12.3,M,-33.7,M,,*61
$PYRTM,2024,123.335998714988,14.445646125127
$GPGGA,080349.00,3413.0971,N,12018.8669,W,1,09,0.8,11.9,M,-33.7,M,,*6B
$PYRTM,2024,123.336010293866,14.445657704005
$GPGGA,080350.00,3413.0969,N,12018.8689,W,1,09,0.8,11.2,M,-33.7,M,,*6F
$PYRTM,2024,123.336021863322,14.445669273461
$GPGGA,080351.00,3413.0968,N,12018.8703,W,1,09,0.8,11.0,M,-33.7,M,,*6E
$PYRTM,2024,123.336033437697,14.445680847836
$GPGGA,080352.00,3413.0968,N,12018.8716,W,1,09,0.8,11.3,M,-33.7,M,,*6A
$PYRTM,2024,123.336040847269,14.445688257407
$GPGGA,080353.00,3413.0968,N,12018.8732,W,1,09,0.8,11.6,M,-33.7,M,,*68
$PYRTM,2024,123.336056586551,14.445703996690
$GPGGA,080354.00,3413.0968,N,12018.8749,W,1,09,0.8,11.8,M,-33.7,M,,*6D
$PYRTM,2024,123.336068160984,14.445715571123
$GPGGA,080355.00,3413.0969,N,12018.8764,W,1,09,0.8,12.0,M,-33.7,M,,*69
$PYRTM,2024,123.336079733981,14.445727144120
$GPGGA,080356.00,3413.0969,N,12018.8782,W,1,09,0.8,11.7,M,-33.7,M,,*66
$PYRTM,2024,123.336091303391,14.445738713530
$GPGGA,080357.00,3413.0966,N,12018.8798,W,1,09,0.8,11.4,M,-33.7,M,,*60
$PYRTM,2024,123.336102885822,14.445750295961
$GPGGA,080358.00,3413.0963,N,12018.8811,W,1,09,0.8,11.7,M,-33.7,M,,*67
$PYRTM,2024,123.336114458947,14.445761869086
$GPGGA,080359.00,3413.0963,N,12018.8823,W,1,09,0.8,12.3,M,-33.7,M,,*60
$PYRTM,2024,123.336126034155,14.445773444294
$GPGGA,080400.00,3413.0966,N,12018.8840,W,1,09,0.8,12.2,M,-33.7,M,,*6A
$PYRTM,2024,123.336137604780,14.445785014919
$GPGGA,080401.00,3413.0967,N,12018.8860,W,1,09,0.8,11.5,M,-33.7,M,,*6C
$PYRTM,2024,123.336149178947,14.445796589086
$GPGGA,080402.00,3413.0964,N,12018.8874,W,1,09,0.8,11.5,M,-33.7,M,,*69
$PYRTM,2024,123.336156589248,14.445803999387
$GPGGA,080403.00,3413.0958,N,12018.8885,W,1,09,0.8,12.1,M,-33.7,M,,*6E
$PYRTM,2024,123.336172327315,14.445819737454
$GPGGA,080404.00,3413.0957,N,12018.8901,W,1,09,0.8,12.3,M,-33.7,M,,*69
$PYRTM,2024,123.336183900671,14.445831310810
$GPGGA,080405.00,3413.0961,N,12018.8920,W,1,09,0.8,11.9,M,-33.7,M,,*67
$PYRTM,2024,123.336191294294,14.445838704433
$GPGGA,080406.00,3413.0964,N,12018.8935,W,1,09,0.8,11.8,M,-33.7,M,,*64
$PYRTM,2024,123.336209930544,14.445857340694
$GPGGA,080407.00,3413.0961,N,12018.8946,W,1,09,0.8,12.4,M,-33.7,M,,*6B
$PYRTM,2024,123.336218625104,14.445866035255
$GPGGA,080408.00,3413.0954,N,12018.8962,W,1,09,0.8,12.9,M,-33.7,M,,*69
$PYRTM,2024,123.336230196887,14.445877607025
$GPGGA,080409.00,3413.0951,N,12018.8982,W,1,09,0.8,12.5,M,-33.7,M,,*6F
$PYRTM,2024,123.336241774502,14.445889184641
$GPGGA,080410.00,3413.0954,N,12018.9000,W,1,09,0.8,11.5,M,-33.7,M,,*63
$PYRTM,2024,123.336253346181,14.445900756319
$GPGGA,080411.00,3413.0959,N,12018.9014,W,1,09,0.8,11.4,M,-33.7,M,,*6B
$PYRTM,2024,123.336260740556,14.445908150694
$GPGGA,080412.00,3413.0957,N,12018.9025,W,1,09,0.8,12.4,M,-33.7,M,,*67
$PYRTM,2024,123.336276494803,14.445923904954
$GPGGA,080413.00,3413.0950,N,12018.9038,W,1,09,0.8,13.8,M,-33.7,M,,*60
$PYRTM,2024,123.336288067963,14.445935478102
$GPGGA,080414.00,3413.0945,N,12018.9054,W,1,09,0.8,14.5,M,-33.7,M,,*63
$PYRTM,2024,123.336295477894,14.445942888032
$GPGGA,080415.00,3413.0945,N,12018.9074,W,1,09,0.8,13.5,M,-33.7,M,,*67
$PYRTM,2024,123.336311216377,14.445958626528
$GPGGA,080416.00,3413.0947,N,12018.9091,W,1,09,0.8,12.2,M,-33.7,M,,*6B
$PYRTM,2024,123.336322790012,14.445970200150
$GPGGA,080417.00,3413.0949,N,12018.9104,W,1,09,0.8,11.5,M,-33.7,M,,*6D
$PYRTM,2024,123.336330082616,14.445977492755
$GPGGA,080418.00,3413.0949,N,12018.9117,W,1,09,0.8,11.6,M,-33.7,M,,*63
$PYRTM,2024,123.336345938553,14.445993348692
$GPGGA,080419.00,3413.0947,N,12018.9131,W,1,09,0.8,12.7,M,-33.7,M,,*6A
$PYRTM,2024,123.336357511887,14.446004922014
$GPGGA,080420.00,3413.0944,N,12018.9149,W,1,09,0.8,13.8,M,-33.7,M,,*62
$PYRTM,2024,123.336364803113,14.446012213252
$GPGGA,080421.00,3413.0943,N,12018.9169,W,1,09,0.8,13.9,M,-33.7,M,,*67
$PYRTM,2024,123.336380663403,14.446028073542
$GPGGA,080422.00,3413.0945,N,12018.9184,W,1,09,0.8,14.0,M,-33.7,M,,*6F
$PYRTM,2024,123.336392234387,14.446039644525
$GPGGA,080423.00,3413.0947,N,12018.9194,W,1,09,0.8,14.2,M,-33.7,M,,*6F
$PYRTM,2024,123.336399526620,14.446046936759
$GPGGA,080424.00,3413.0946,N,12018.9209,W,1,09,0.8,14.1,M,-33.7,M,,*6D
$PYRTM,2024,123.336415382928,14.446062793067
$GPGGA,080425.00,3413.0943,N,12018.9230,W,1,09,0.8,12.9,M,-33.7,M,,*6D
$PYRTM,2024,123.336426970926,14.446074381065
$GPGGA,080426.00,3413.0944,N,12018.9248,W,1,09,0.8,11.9,M,-33.7,M,,*65
$PYRTM,2024,123.336434248669,14.446081658808
$GPGGA,080427.00,3413.0947,N,12018.9259,W,1,09,0.8,12.1,M,-33.7,M,,*6C
$PYRTM,2024,123.336450106840,14.446097516979
$GPGGA,080428.00,3413.0949,N,12018.9270,W,1,09,0.8,13.1,M,-33.7,M,,*67
$PYRTM,2024,123.336461680810,14.446109090949
$GPGGA,080429.00,3413.0948,N,12018.9285,W,1,09,0.8,13.9,M,-33.7,M,,*65
$PYRTM,2024,123.336473254074,14.446120664213
$GPGGA,080430.00,3413.0945,N,12018.9306,W,1,09,0.8,14.0,M,-33.7,M,,*64
$PYRTM,2024,123.336484824144,14.446132234282
$GPGGA,080431.00,3413.0945,N,12018.9325,W,1,09,0.8,13.1,M,-33.7,M,,*62
$PYRTM,2024,123.336496402222,14.446143812361
$GPGGA,080432.00,3413.0951,N,12018.9339,W,1,09,0.8,12.4,M,-33.7,M,,*6D
$PYRTM,2024,123.336503688426,14.446151098565
$GPGGA,080433.00,3413.0954,N,12018.9349,W,1,09,0.8,12.8,M,-33.7,M,,*62
$PYRTM,2024,123.336519550648,14.446166960787
$GPGGA,080434.00,3413.0952,N,12018.9361,W,1,09,0.8,13.5,M,-33.7,M,,*65
$PYRTM,2024,123.336526840208,14.446174250347
$GPGGA,080435.00,3413.0950,N,12018.9381,W,1,09,0.8,13.4,M,-33.7,M,,*69
$PYRTM,2024,123.336542698831,14.446190108970
$GPGGA,080436.00,3413.0950,N,12018.9403,W,1,09,0.8,12.7,M,-33.7,M,,*65
$PYRTM,2024,123.336549992523,14.446197402662
$GPGGA,080437.00,3413.0954,N,12018.9417,W,1,09,0.8,12.7,M,-33.7,M,,*65
$PYRTM,2024,123.336568735660,14.446216145799
$GPGGA,080438.00,3413.0957,N,12018.9427,W,1,09,0.8,13.1,M,-33.7,M,,*6D
$PYRTM,2024,123.336577416331,14.446224826470
$GPGGA,080439.00,3413.0956,N,12018.9442,W,1,09,0.8,13.2,M,-33.7,M,,*6D
$PYRTM,2024,123.336588998333,14.446236408472
$GPGGA,080440.00,3413.0955,N,12018.9459,W,1,09,0.8,12.8,M,-33.7,M,,*61
$PYRTM,2024,123.336600563843,14.446247973981
$GPGGA,080441.00,3413.0957,N,12018.9473,W,1,09,0.8,12.8,M,-33.7,M,,*6A
$PYRTM,2024,123.336612157350,14.446259567488
$GPGGA,080442.00,3413.0961,N,12018.9486,W,1,09,0.8,12.9,M,-33.7,M,,*67
$PYRTM,2024,123.336623718287,14.446271128426
$GPGGA,080443.00,3413.0964,N,12018.9502,W,1,09,0.8,12.5,M,-33.7,M,,*62
$PYRTM,2024,123.336635294074,14.446282704213
$GPGGA,080444.00,3413.0963,N,12018.9520,W,1,09,0.8,11.9,M,-33.7,M,,*6D
$PYRTM,2024,123.336646865451,14.446294275590
$GPGGA,080445.00,3413.0961,N,12018.9535,W,1,09,0.8,12.0,M,-33.7,M,,*60
$PYRTM,2024,123.336658439641,14.446305849780
$GPGGA,080446.00,3413.0961,N,12018.9546,W,1,09,0.8,13.1,M,-33.7,M,,*67
$PYRTM,2024,123.336670013241,14.446317423380
$GPGGA,080447.00,3413.0964,N,12018.9560,W,1,09,0.8,14.0,M,-33.7,M,,*61
$PYRTM,2024,123.336681588356,14.446328998495
$GPGGA,080448.00,3413.0967,N,12018.9581,W,1,09,0.8,13.5,M,-33.7,M,,*60
$PYRTM,2024,123.336693158519,14.446340568657
$GPGGA,080449.00,3413.0966,N,12018.9603,W,1,09,0.8,12.0,M,-33.7,M,,*6D
$PYRTM,2024,123.336704731539,14.446352141678
$GPGGA,080450.00,3413.0963,N,12018.9617,W,1,09,0.8,11.7,M,-33.7,M,,*61
$PYRTM,2024,123.336712021470,14.446359431609
$GPGGA,080451.00,3413.0961,N,12018.9626,W,1,09,0.8,12.7,M,-33.7,M,,*63
$PYRTM,2024,123.336727884340,14.446375294479
$GPGGA,080452.00,3413.0963,N,12018.9642,W,1,09,0.8,13.5,M,-33.7,M,,*63
$PYRTM,2024,123.336739458877,14.446386869028
$GPGGA,080453.00,3413.0965,N,12018.9663,W,1,09,0.8,13.7,M,-33.7,M,,*65
$PYRTM,2024,123.336746737558,14.446394147697
$GPGGA,080454.00,3413.0964,N,12018.9680,W,1,09,0.8,13.9,M,-33.7,M,,*60
$PYRTM,2024,123.336762608588,14.446410018727
$GPGGA,080455.00,3413.0960,N,12018.9693,W,1,09,0.8,14.2,M,-33.7,M,,*6B
$PYRTM,2024,123.336774185093,14.446421595231
$GPGGA,080456.00,3413.0958,N,12018.9710,W,1,09,0.8,14.1,M,-33.7,M,,*6A
$PYRTM,2024,123.336781472280,14.446428882419
$GPGGA,080457.00,3413.0958,N,12018.9729,W,1,09,0.8,13.5,M,-33.7,M,,*62
$PYRTM,2024,123.336797332303,14.446444742442
$GPGGA,080458.00,3413.0961,N,12018.9746,W,1,09,0.8,13.0,M,-33.7,M,,*6B
$PYRTM,2024,123.336808901910,14.446456312049
$GPGGA,080459.00,3413.0962,N,12018.9761,W,1,09,0.8,13.3,M,-33.7,M,,*6F
$PYRTM,2024,123.336816183125,14.446463593264
$GPGGA,080500.00,3413.0961,N,12018.9773,W,1,09,0.8,14.3,M,-33.7,M,,*65
$PYRTM,2024,123.336832053333,14.446479463472
$GPGGA,080501.00,3413.0957,N,12018.9788,W,1,09,0.8,15.4,M,-33.7,M,,*63
$PYRTM,2024,123.336843630463,14.446491040602
$GPGGA,080502.00,3413.0954,N,12018.9809,W,1,09,0.8,15.0,M,-33.7,M,,*61
$PYRTM,2024,123.336855202512,14.446502612650
$GPGGA,080503.00,3413.0954,N,12018.9829,W,1,09,0.8,13.5,M,-33.7,M,,*61
$PYRTM,2024,123.336866776227,14.446514186366
$GPGGA,080504.00,3413.0956,N,12018.9841,W,1,09,0.8,13.0,M,-33.7,M,,*6F
$PYRTM,2024,123.336878349479,14.446525759618
$GPGGA,080505.00,3413.0958,N,12018.9848,W,1,09,0.8,13.6,M,-33.7,M,,*6F
$PYRTM,2024,123.336885626782,14.446533036921
$GPGGA,080506.00,3413.0957,N,12018.9862,W,1,09,0.8,13.9,M,-33.7,M,,*64
$PYRTM,2024,123.336897431516,14.446544841667
$GPGGA,080507.00,3413.0956,N,12018.9884,W,1,09,0.8,13.2,M,-33.7,M,,*67
$PYRTM,2024,123.336915965637,14.446563375775
$GPGGA,080508.00,3413.0955,N,12018.9903,W,1,09,0.8,12.1,M,-33.7,M,,*67
$PYRTM,2024,123.336927525903,14.446574936042
$GPGGA,080509.00,3413.0956,N,12018.9913,W,1,09,0.8,11.9,M,-33.7,M,,*6F
$PYRTM,2024,123.336938996053,14.446586406204
$GPGGA,080510.00,3413.0959,N,12018.9919,W,1,09,0.8,12.0,M,-33.7,M,,*68
$PYRTM,2024,123.336947793171,14.446595203310
$GPGGA,080511.00,3413.0963,N,12018.9931,W,1,09,0.8,11.7,M,-33.7,M,,*6E
$PYRTM,2024,123.336959370150,14.446606780289
$GPGGA,080512.00,3413.0963,N,12018.9952,W,1,09,0.8,10.6,M,-33.7,M,,*68
$PYRTM,2024,123.336970939120,14.446618349259
$GPGGA,080513.00,3413.0959,N,12018.9971,W,1,09,0.8,9.4,M,-33.7,M,,*5B
$PYRTM,2024,123.336982529028,14.446629939167
$GPGGA,080514.00,3413.0956,N,12018.9983,W,1,09,0.8,9.5,M,-33.7,M,,*5F
$PYRTM,2024,123.336994088461,14.446641498600
$GPGGA,080515.00,3413.0957,N,12018.9994,W,1,09,0.8,10.2,M,-33.7,M,,*66
$PYRTM,2024,123.337005661944,14.446653072083
$GPGGA,080516.00,3413.0959,N,12019.0011,W,1,09,0.8,10.8,M,-33.7,M,,*6D
$PYRTM,2024,123.337017238299,14.446664648438
$GPGGA,080517.00,3413.0958,N,12019.0033,W,1,09,0.8,10.7,M,-33.7,M,,*62
$PYRTM,2024,123.337028811539,14.446676221690
$GPGGA,080518.00,3413.0954,N,12019.0052,W,1,09,0.8,10.7,M,-33.7,M,,*66
$PYRTM,2024,123.337040384225,14.446687794363
$GPGGA,080519.00,3413.0951,N,12019.0067,W,1,09,0.8,11.2,M,-33.7,M,,*60
$PYRTM,2024,123.337051959282,14.446699369433
$GPGGA,080520.00,3413.0952,N,12019.0081,W,1,09,0.8,11.8,M,-33.7,M,,*6B
$PYRTM,2024,123.337063533183,14.446710943322
$GPGGA,080521.00,3413.0953,N,12019.0097,W,1,09,0.8,12.1,M,-33.7,M,,*66
$PYRTM,2024,123.337075107338,14.446722517477
$GPGGA,080522.00,3413.0951,N,12019.0115,W,1,09,0.8,12.0,M,-33.7,M,,*6D
$PYRTM,2024,123.337086681088,14.446734091227
$GPGGA,080523.00,3413.0950,N,12019.0135,W,1,09,0.8,11.3,M,-33.7,M,,*6F
$PYRTM,2024,123.337098255243,14.446745665382
$GPGGA,080524.00,3413.0950,N,12019.0151,W,1,09,0.8,10.4,M,-33.7,M,,*6C
$PYRTM,2024,123.337109828542,14.446757238681
$GPGGA,080525.00,3413.0951,N,12019.0161,W,1,09,0.8,11.2,M,-33.7,M,,*68
$PYRTM,2024,123.337121406678,14.446768816817
$GPGGA,080526.00,3413.0952,N,12019.0171,W,1,09,0.8,12.3,M,-33.7,M,,*6B
$PYRTM,2024,123.337132978669,14.446780388819
$GPGGA,080527.00,3413.0952,N,12019.0189,W,1,09,0.8,12.6,M,-33.7,M,,*68
$PYRTM,2024,123.337144556042,14.446791966181
$GPGGA,080528.00,3413.0949,N,12019.0212,W,1,09,0.8,12.1,M,-33.7,M,,*6B
$PYRTM,2024,123.337156128044,14.446803538183
$GPGGA,080529.00,3413.0947,N,12019.0231,W,1,09,0.8,11.2,M,-33.7,M,,*65
$PYRTM,2024,123.337163522569,14.446810932708
$GPGGA,080530.00,3413.0945,N,12019.0242,W,1,09,0.8,11.4,M,-33.7,M,,*6D
$PYRTM,2024,123.337179275255,14.446826685394
$GPGGA,080531.00,3413.0946,N,12019.0253,W,1,09,0.8,12.4,M,-33.7,M,,*6C
$PYRTM,2024,123.337190847616,14.446838257755
$GPGGA,080532.00,3413.0946,N,12019.0270,W,1,09,0.8,13.0,M,-33.7,M,,*6B
$PYRTM,2024,123.337202423889,14.446849834028
$GPGGA,080533.00,3413.0945,N,12019.0290,W,1,09,0.8,12.5,M,-33.7,M,,*63
$PYRTM,2024,123.337213998553,14.446861408692
$GPGGA,080534.00,3413.0944,N,12019.0311,W,1,09,0.8,11.6,M,-33.7,M,,*6D
$PYRTM,2024,123.337225570301,14.446872980440
$GPGGA,080535.00,3413.0943,N,12019.0326,W,1,09,0.8,11.0,M,-33.7,M,,*69
$PYRTM,2024,123.337232848854,14.446880258993
$GPGGA,080536.00,3413.0942,N,12019.0335,W,1,09,0.8,11.8,M,-33.7,M,,*61
$PYRTM,2024,123.337248718310,14.446896128449
$GPGGA,080537.00,3413.0939,N,12019.0347,W,1,09,0.8,13.2,M,-33.7,M,,*61
$PYRTM,2024,123.337255997396,14.446903407535
$GPGGA,080538.00,3413.0938,N,12019.0367,W,1,09,0.8,13.2,M,-33.7,M,,*6D
$PYRTM,2024,123.337274749398,14.446922159537
$GPGGA,080539.00,3413.0939,N,12019.0390,W,1,09,0.8,11.2,M,-33.7,M,,*67
$PYRTM,2024,123.337283442072,14.446930852211
$GPGGA,080540.00,3413.0940,N,12019.0405,W,1,09,0.8,10.4,M,-33.7,M,,*6B
$PYRTM,2024,123.337295015394,14.446942425532
$GPGGA,080541.00,3413.0939,N,12019.0412,W,1,09,0.8,11.0,M,-33.7,M,,*67
$PYRTM,2024,123.337302294502,14.446949704641
$GPGGA,080542.00,3413.0939,N,12019.0422,W,1,09,0.8,11.5,M,-33.7,M,,*62
$PYRTM,2024,123.337318163600,14.446965573738
$GPGGA,080543.00,3413.0937,N,12019.0440,W,1,09,0.8,12.0,M,-33.7,M,,*6F
$PYRTM,2024,123.337329738831,14.446977148970
$GPGGA,080544.00,3413.0935,N,12019.0459,W,1,09,0.8,11.6,M,-33.7,M,,*67
$PYRTM,2024,123.337341312245,14.446988722384
$GPGGA,080545.00,3413.0936,N,12019.0476,W,1,09,0.8,10.8,M,-33.7,M,,*67
$PYRTM,2024,123.337352886713,14.447000296863
$GPGGA,080546.00,3413.0938,N,12019.0490,W,1,09,0.8,10.3,M,-33.7,M,,*69
$PYRTM,2024,123.337364455035,14.447011865174
$GPGGA,080547.00,3413.0939,N,12019.0505,W,1,09,0.8,10.3,M,-33.7,M,,*64
$PYRTM,2024,123.337371740231,14.447019150370
$GPGGA,080548.00,3413.0936,N,12019.0522,W,1,09,0.8,10.9,M,-33.7,M,,*6B
$PYRTM,2024,123.337387608125,14.447035018264
$GPGGA,080549.00,3413.0931,N,12019.0541,W,1,09,0.8,11.7,M,-33.7,M,,*67
$PYRTM,2024,123.337399185579,14.447046595718
$GPGGA,080550.00,3413.0928,N,12019.0556,W,1,09,0.8,12.9,M,-33.7,M,,*6C
$PYRTM,2024,123.337406468067,14.447053878218
$GPGGA,080551.00,3413.0931,N,12019.0568,W,1,09,0.8,13.9,M,-33.7,M,,*69
$PYRTM,2024,123.337422331597,14.447069741736
$GPGGA,080552.00,3413.0933,N,12019.0584,W,1,09,0.8,14.2,M,-33.7,M,,*66
$PYRTM,2024,123.337433904537,14.447081314676
$GPGGA,080553.00,3413.0932,N,12019.0603,W,1,09,0.8,13.2,M,-33.7,M,,*6D
$PYRTM,2024,123.337441183565,14.447088593704
$GPGGA,080554.00,3413.0929,N,12019.0623,W,1,09,0.8,11.8,M,-33.7,M,,*6A
$PYRTM,2024,123.337457053843,14.447104463993
$GPGGA,080555.00,3413.0928,N,12019.0639,W,1,09,0.8,11.4,M,-33.7,M,,*6D
$PYRTM,2024,123.337468643461,14.447116053600
$GPGGA,080556.00,3413.0928,N,12019.0650,W,1,09,0.8,12.2,M,-33.7,M,,*64
$PYRTM,2024,123.337475918553,14.447123328692
$GPGGA,080557.00,3413.0929,N,12019.0665,W,1,09,0.8,13.3,M,-33.7,M,,*62
$PYRTM,2024,123.337491779271,14.447139189410
$GPGGA,080558.00,3413.0931,N,12019.0686,W,1,09,0.8,13.7,M,-33.7,M,,*6D
$PYRTM,2024,123.337503348912,14.447150759051
$GPGGA,080559.00,3413.0930,N,12019.0708,W,1,09,0.8,13.2,M,-33.7,M,,*6F
$PYRTM,2024,123.337510629595,14.447158039734
$GPGGA,080600.00,3413.0927,N,12019.0722,W,1,09,0.8,13.0,M,-33.7,M,,*6C
$PYRTM,2024,123.337526491644,14.447173901782
$GPGGA,080601.00,3413.0925,N,12019.0732,W,1,09,0.8,13.4,M,-33.7,M,,*6A
$PYRTM,2024,123.337538078565,14.447185488704
$GPGGA,080602.00,3413.0927,N,12019.0747,W,1,09,0.8,13.4,M,-33.7,M,,*69
$PYRTM,2024,123.337545363519,14.447192773657
$GPGGA,080603.00,3413.0930,N,12019.0766,W,1,09,0.8,12.6,M,-33.7,M,,*6E
$PYRTM,2024,123.337561221007,14.447208631146
$GPGGA,080604.00,3413.0930,N,12019.0783,W,1,09,0.8,11.9,M,-33.7,M,,*6E
$PYRTM,2024,123.337572792940,14.447220203079
$GPGGA,080605.00,3413.0927,N,12019.0795,W,1,09,0.8,12.5,M,-33.7,M,,*61
$PYRTM,2024,123.337580073831,14.447227483970
$GPGGA,080606.00,3413.0925,N,12019.0810,W,1,09,0.8,13.2,M,-33.7,M,,*64
$PYRTM,2024,123.337595936551,14.447243346690
$GPGGA,080607.00,3413.0925,N,12019.0828,W,1,09,0.8,13.2,M,-33.7,M,,*6E
$PYRTM,2024,123.337607516505,14.447254926644
$GPGGA,080608.00,3413.0926,N,12019.0846,W,1,09,0.8,13.2,M,-33.7,M,,*6A
$PYRTM,2024,123.337614802095,14.447262212234
$GPGGA,080609.00,3413.0925,N,12019.0859,W,1,09,0.8,13.8,M,-33.7,M,,*6C
$PYRTM,2024,123.337633446782,14.447280856921
$GPGGA,080610.00,3413.0922,N,12019.0872,W,1,09,0.8,14.2,M,-33.7,M,,*67
$PYRTM,2024,123.337645018553,14.447292428692
$GPGGA,080611.00,3413.0921,N,12019.0891,W,1,09,0.8,13.5,M,-33.7,M,,*68
$PYRTM,2024,123.337656594039,14.447304004178
$GPGGA,080612.00,3413.0921,N,12019.0909,W,1,09,0.8,12.8,M,-33.7,M,,*67
$PYRTM,2024,123.337665386921,14.447312797060
$GPGGA,080613.00,3413.0922,N,12019.0919,W,1,09,0.8,12.6,M,-33.7,M,,*6A
$PYRTM,2024,123.337672666586,14.447320076725
$GPGGA,080614.00,3413.0921,N,12019.0930,W,1,09,0.8,12.6,M,-33.7,M,,*65
$PYRTM,2024,123.337688534653,14.447335944792
$GPGGA,080615.00,3413.0921,N,12019.0953,W,1,09,0.8,12.0,M,-33.7,M,,*67
$PYRTM,2024,123.337700108634,14.447347518773
$GPGGA,080616.00,3413.0920,N,12019.0974,W,1,09,0.8,11.0,M,-33.7,M,,*63
$PYRTM,2024,123.337711678785,14.447359088924
$GPGGA,080617.00,3413.0919,N,12019.0982,W,1,09,0.8,11.2,M,-33.7,M,,*63
$PYRTM,2024,123.337723269016,14.447370679155
$GPGGA,080618.00,3413.0919,N,12019.0984,W,1,09,0.8,11.5,M,-33.7,M,,*6D
$PYRTM,2024,123.337734825694,14.447382235833
$GPGGA,080619.00,3413.0920,N,12019.0996,W,1,09,0.8,12.0,M,-33.7,M,,*63
$PYRTM,2024,123.337742109016,14.447389519155
$GPGGA,080620.00,3413.0919,N,12019.1017,W,1,09,0.8,11.6,M,-33.7,M,,*67
$PYRTM,2024,123.337757978576,14.447405388715
$GPGGA,080621.00,3413.0918,N,12019.1034,W,1,09,0.8,10.7,M,-33.7,M,,*66
$PYRTM,2024,123.337769555718,14.447416965856
$GPGGA,080622.00,3413.0915,N,12019.1040,W,1,09,0.8,10.4,M,-33.7,M,,*68
$PYRTM,2024,123.337776832581,14.447424242720
$GPGGA,080623.00,3413.0912,N,12019.1041,W,1,09,0.8,10.6,M,-33.7,M,,*6D
$PYRTM,2024,123.337792721748,14.447440131887
$GPGGA,080624.00,3413.0910,N,12019.1055,W,1,09,0.8,11.2,M,-33.7,M,,*68
$PYRTM,2024,123.337804162789,14.447451572928
$GPGGA,080625.00,3413.0909,N,12019.1078,W,1,09,0.8,9.9,M,-33.7,M,,*5C
$PYRTM,2024,123.337811555498,14.447458965637
$GPGGA,080626.00,3413.0907,N,12019.1092,W,1,09,0.8,10.0,M,-33.7,M,,*64
$PYRTM,2024,123.337827423854,14.447474834213
$GPGGA,080627.00,3413.0905,N,12019.1096,W,1,09,0.8,10.5,M,-33.7,M,,*66
$PYRTM,2024,123.337838998576,14.447486408715
$GPGGA,080628.00,3413.0905,N,12019.1100,W,1,09,0.8,10.8,M,-33.7,M,,*6A
$PYRTM,2024,123.337850575648,14.447497985787
$GPGGA,080629.00,3413.0905,N,12019.1114,W,1,09,0.8,10.7,M,-33.7,M,,*61
$PYRTM,2024,123.337857854329,14.447505264468
$GPGGA,080630.00,3413.0904,N,12019.1130,W,1,09,0.8,10.1,M,-33.7,M,,*68
$PYRTM,2024,123.337873721343,14.447521131481
$GPGGA,080631.00,3413.0900,N,12019.1138,W,1,09,0.8,10.0,M,-33.7,M,,*64
$PYRTM,2024,123.337885305752,14.447532715891
$GPGGA,080632.00,3413.0896,N,12019.1145,W,1,09,0.8,10.5,M,-33.7,M,,*66
$PYRTM,2024,123.337896863437,14.447544273576
$GPGGA,080633.00,3413.0893,N,12019.1157,W,1,09,0.8,10.5,M,-33.7,M,,*61
$PYRTM,2024,123.337908314190,14.447555724329
$GPGGA,080634.00,3413.0894,N,12019.1174,W,1,09,0.8,9.9,M,-33.7,M,,*54
$PYRTM,2024,123.337919900891,14.447567311030
$GPGGA,080635.00,3413.0895,N,12019.1187,W,1,09,0.8,9.7,M,-33.7,M,,*56
$PYRTM,2024,123.337931590613,14.447579000752
$GPGGA,080636.00,3413.0892,N,12019.1194,W,1,09,0.8,10.5,M,-33.7,M,,*6A
$PYRTM,2024,123.337943159502,14.447590569641
$GPGGA,080637.00,3413.0886,N,12019.1203,W,1,09,0.8,11.6,M,-33.7,M,,*61
$PYRTM,2024,123.337954746551,14.447602156701
$GPGGA,080638.00,3413.0882,N,12019.1216,W,1,09,0.8,12.1,M,-33.7,M,,*6A
$PYRTM,2024,123.337966313600,14.447613723738
$GPGGA,080639.00,3413.0881,N,12019.1231,W,1,09,0.8,11.8,M,-33.7,M,,*67
$PYRTM,2024,123.337973592789,14.447621002928
$GPGGA,080640.00,3413.0879,N,12019.1243,W,1,09,0.8,11.2,M,-33.7,M,,*61
$PYRTM,2024,123.337992239433,14.447639649572
$GPGGA,080641.00,3413.0877,N,12019.1255,W,1,09,0.8,10.6,M,-33.7,M,,*6C
$PYRTM,2024,123.338003820938,14.447651231076
$GPGGA,080642.00,3413.0876,N,12019.1268,W,1,09,0.8,10.2,M,-33.7,M,,*64
$PYRTM,2024,123.338015389236,14.447662799375
$GPGGA,080643.00,3413.0875,N,12019.1281,W,1,09,0.8,10.4,M,-33.7,M,,*67
$PYRTM,2024,123.338024183808,14.447671593947
$GPGGA,080644.00,3413.0872,N,12019.1292,W,1,09,0.8,11.4,M,-33.7,M,,*64
$PYRTM,2024,123.338031463252,14.447678873391
$GPGGA,080645.00,3413.0867,N,12019.1306,W,1,09,0.8,12.3,M,-33.7,M,,*69
$PYRTM,2024,123.338047333206,14.447694743345
$GPGGA,080646.00,3413.0865,N,12019.1322,W,1,09,0.8,12.5,M,-33.7,M,,*68
$PYRTM,2024,123.338058906331,14.447706316470
$GPGGA,080647.00,3413.0865,N,12019.1339,W,1,09,0.8,12.3,M,-33.7,M,,*65
$PYRTM,2024,123.338066185208,14.447713595347
$GPGGA,080648.00,3413.0866,N,12019.1354,W,1,09,0.8,11.7,M,-33.7,M,,*65
$PYRTM,2024,123.338082053762,14.447729463900
$GPGGA,080649.00,3413.0864,N,12019.1365,W,1,09,0.8,12.5,M,-33.7,M,,*65
$PYRTM,2024,123.338093638565,14.447741048704
$GPGGA,080650.00,3413.0862,N,12019.1376,W,1,09,0.8,13.5,M,-33.7,M,,*68
$PYRTM,2024,123.338105202118,14.447752612257
$GPGGA,080651.00,3413.0860,N,12019.1392,W,1,09,0.8,13.4,M,-33.7,M,,*60
$PYRTM,2024,123.338116787060,14.447764197211
$GPGGA,080652.00,3413.0859,N,12019.1410,W,1,09,0.8,12.7,M,-33.7,M,,*66
$PYRTM,2024,123.338128350590,14.447775760729
$GPGGA,080653.00,3413.0858,N,12019.1422,W,1,09,0.8,12.6,M,-33.7,M,,*66
$PYRTM,2024,123.338139948796,14.447787358935
$GPGGA,080654.00,3413.0857,N,12019.1431,W,1,09,0.8,13.2,M,-33.7,M,,*69
$PYRTM,2024,123.338151497986,14.447798908125
$GPGGA,080655.00,3413.0856,N,12019.1447,W,1,09,0.8,13.2,M,-33.7,M,,*68
$PYRTM,2024,123.338163080498,14.447810490637
$GPGGA,080656.00,3413.0853,N,12019.1467,W,1,09,0.8,12.8,M,-33.7,M,,*67
$PYRTM,2024,123.338170351875,14.447817762002
$GPGGA,080657.00,3413.0851,N,12019.1481,W,1,09,0.8,12.8,M,-33.7,M,,*6C
$PYRTM,2024,123.338186232569,14.447833642708
$GPGGA,080658.00,3413.0851,N,12019.1491,W,1,09,0.8,13.5,M,-33.7,M,,*6E
$PYRTM,2024,123.338197794722,14.447845204861
$GPGGA,080659.00,3413.0852,N,12019.1503,W,1,09,0.8,13.9,M,-33.7,M,,*6A
$PYRTM,2024,123.338209379433,14.447856789572
$GPGGA,080700.00,3413.0851,N,12019.1520,W,1,09,0.8,13.7,M,-33.7,M,,*6B
$PYRTM,2024,123.338220945081,14.447868355231
$GPGGA,080701.00,3413.0849,N,12019.1536,W,1,09,0.8,13.2,M,-33.7,M,,*61
$PYRTM,2024,123.338232517882,14.447879928021
$GPGGA,080702.00,3413.0848,N,12019.1553,W,1,09,0.8,12.5,M,-33.7,M,,*66
$PYRTM,2024,123.338244091250,14.447891501389
$GPGGA,080703.00,3413.0848,N,12019.1569,W,1,09,0.8,12.2,M,-33.7,M,,*69
$PYRTM,2024,123.338255667326,14.447903077465
$GPGGA,080704.00,3413.0849,N,12019.1580,W,1,09,0.8,12.8,M,-33.7,M,,*62
$PYRTM,2024,123.338267241111,14.447914651250
$GPGGA,080705.00,3413.0849,N,12019.1590,W,1,09,0.8,14.1,M,-33.7,M,,*6D
$PYRTM,2024,123.338278821748,14.447926231887
$GPGGA,080706.00,3413.0848,N,12019.1607,W,1,09,0.8,14.9,M,-33.7,M,,*6A
$PYRTM,2024,123.338290382593,14.447937792731
$GPGGA,080707.00,3413.0845,N,12019.1629,W,1,09,0.8,14.4,M,-33.7,M,,*67
$PYRTM,2024,123.338301988032,14.447949398171
$GPGGA,080708.00,3413.0842,N,12019.1645,W,1,09,0.8,13.7,M,-33.7,M,,*61
$PYRTM,2024,123.338309242419,14.447956652558
$GPGGA,080709.00,3413.0844,N,12019.1655,W,1,09,0.8,14.0,M,-33.7,M,,*67
$PYRTM,2024,123.338325121146,14.447972531285
$GPGGA,080710.00,3413.0848,N,12019.1667,W,1,09,0.8,14.1,M,-33.7,M,,*63
$PYRTM,2024,123.338332389398,14.447979799537
$GPGGA,080711.00,3413.0850,N,12019.1683,W,1,09,0.8,13.8,M,-33.7,M,,*6F
$PYRTM,2024,123.338351035880,14.447998446019
$GPGGA,080712.00,3413.0848,N,12019.1697,W,1,09,0.8,13.8,M,-33.7,M,,*60
$PYRTM,2024,123.338359832338,14.448007242477
$GPGGA,080713.00,3413.0845,N,12019.1711,W,1,09,0.8,13.8,M,-33.7,M,,*63
$PYRTM,2024,123.338371406088,14.448018816227
$GPGGA,080714.00,3413.0846,N,12019.1727,W,1,09,0.8,13.4,M,-33.7,M,,*6E
$PYRTM,2024,123.338378685775,14.448026095914
$GPGGA,080715.00,3413.0850,N,12019.1741,W,1,09,0.8,13.4,M,-33.7,M,,*68
$PYRTM,2024,123.338394565972,14.448041976111
$GPGGA,080716.00,3413.0853,N,12019.1751,W,1,09,0.8,13.8,M,-33.7,M,,*65
$PYRTM,2024,123.338406124063,14.448053534201
$GPGGA,080717.00,3413.0853,N,12019.1765,W,1,09,0.8,14.0,M,-33.7,M,,*6C
$PYRTM,2024,123.338413409433,14.448060819572
$GPGGA,080718.00,3413.0852,N,12019.1785,W,1,09,0.8,13.4,M,-33.7,M,,*6F
$PYRTM,2024,123.338429278067,14.448076688206
$GPGGA,080719.00,3413.0852,N,12019.1802,W,1,09,0.8,12.8,M,-33.7,M,,*63
$PYRTM,2024,123.338440861806,14.448088271956
$GPGGA,080720.00,3413.0851,N,12019.1809,W,1,09,0.8,12.7,M,-33.7,M,,*6E
$PYRTM,2024,123.338452425150,14.448099835289
$GPGGA,080721.00,3413.0853,N,12019.1816,W,1,09,0.8,13.1,M,-33.7,M,,*64
$PYRTM,2024,123.338464007569,14.448111417720
$GPGGA,080722.00,3413.0858,N,12019.1835,W,1,09,0.8,12.9,M,-33.7,M,,*64
$PYRTM,2024,123.338475572049,14.448122982188
$GPGGA,080723.00,3413.0859,N,12019.1855,W,1,09,0.8,12.3,M,-33.7,M,,*68
$PYRTM,2024,123.338482853264,14.448130263403
$GPGGA,080724.00,3413.0855,N,12019.1867,W,1,09,0.8,12.2,M,-33.7,M,,*63
$PYRTM,2024,123.338498715833,14.448146125972
$GPGGA,080725.00,3413.0851,N,12019.1875,W,1,09,0.8,12.8,M,-33.7,M,,*6F
$PYRTM,2024,123.338510294850,14.448157704988
$GPGGA,080726.00,3413.0852,N,12019.1890,W,1,09,0.8,13.3,M,-33.7,M,,*6E
$PYRTM,2024,123.338517573866,14.448164984005
$GPGGA,080727.00,3413.0856,N,12019.1909,W,1,09,0.8,13.0,M,-33.7,M,,*69
$PYRTM,2024,123.338533443657,14.448180853796
$GPGGA,080728.00,3413.0859,N,12019.1923,W,1,09,0.8,12.5,M,-33.7,M,,*65
$PYRTM,2024,123.338545019387,14.448192429525
$GPGGA,080729.00,3413.0855,N,12019.1932,W,1,09,0.8,13.1,M,-33.7,M,,*6D
$PYRTM,2024,123.338552414074,14.448199824213
$GPGGA,080730.00,3413.0848,N,12019.1940,W,1,09,0.8,14.2,M,-33.7,M,,*68
$PYRTM,2024,123.338568168183,14.448215578322
$GPGGA,080731.00,3413.0844,N,12019.1955,W,1,09,0.8,14.5,M,-33.7,M,,*66
$PYRTM,2024,123.338579740938,14.448227151088
$GPGGA,080732.00,3413.0845,N,12019.1972,W,1,09,0.8,13.7,M,-33.7,M,,*64
$PYRTM,2024,123.338591311725,14.448238721863
$GPGGA,080733.00,3413.0849,N,12019.1988,W,1,09,0.8,12.0,M,-33.7,M,,*6A
$PYRTM,2024,123.338602888206,14.448250298345
$GPGGA,080734.00,3413.0848,N,12019.2002,W,1,09,0.8,10.9,M,-33.7,M,,*6F
$PYRTM,2024,123.338614458125,14.448261868264
$GPGGA,080735.00,3413.0843,N,12019.2014,W,1,09,0.8,11.3,M,-33.7,M,,*69
$PYRTM,2024,123.338626044734,14.448273454873
$GPGGA,080736.00,3413.0841,N,12019.2025,W,1,09,0.8,12.9,M,-33.7,M,,*63
$PYRTM,2024,123.338637611759,14.448285021898
$GPGGA,080737.00,3413.0842,N,12019.2038,W,1,09,0.8,14.4,M,-33.7,M,,*66
$PYRTM,2024,123.338649210590,14.448296620729
$GPGGA,080738.00,3413.0843,N,12019.2053,W,1,09,0.8,15.2,M,-33.7,M,,*62
$PYRTM,2024,123.338660754225,14.448308164363
$GPGGA,080739.00,3413.0842,N,12019.2067,W,1,09,0.8,14.8,M,-33.7,M,,*6E
$PYRTM,2024,123.338672333206,14.448319743345
$GPGGA,080740.00,3413.0839,N,12019.2083,W,1,09,0.8,13.3,M,-33.7,M,,*6A
$PYRTM,2024,123.338683908611,14.448331318750
$GPGGA,080741.00,3413.0836,N,12019.2099,W,1,09,0.8,11.7,M,-33.7,M,,*69
$PYRTM,2024,123.338691187199,14.448338597338
$GPGGA,080742.00,3413.0838,N,12019.2111,W,1,09,0.8,11.1,M,-33.7,M,,*63
$PYRTM,2024,123.338709827778,14.448357237917
$GPGGA,080743.00,3413.0839,N,12019.2120,W,1,09,0.8,11.7,M,-33.7,M,,*67
$PYRTM,2024,123.338718641343,14.448366051481
$GPGGA,080744.00,3413.0838,N,12019.2135,W,1,09,0.8,12.7,M,-33.7,M,,*66
$PYRTM,2024,123.338730200278,14.448377610417
$GPGGA,080745.00,3413.0836,N,12019.2154,W,1,09,0.8,13.0,M,-33.7,M,,*68
$PYRTM,2024,123.338741778356,14.448389188495
$GPGGA,080746.00,3413.0834,N,12019.2170,W,1,09,0.8,13.1,M,-33.7,M,,*6E
$PYRTM,2024,123.338753352014,14.448400762153
$GPGGA,080747.00,3413.0835,N,12019.2182,W,1,09,0.8,13.4,M,-33.7,M,,*66
$PYRTM,2024,123.338764925359,14.448412335498
$GPGGA,080748.00,3413.0836,N,12019.2196,W,1,09,0.8,13.2,M,-33.7,M,,*69
$PYRTM,2024,123.338776499792,14.448423909931
$GPGGA,080749.00,3413.0835,N,12019.2213,W,1,09,0.8,12.4,M,-33.7,M,,*62
$PYRTM,2024,123.338788100139,14.448435510278
$GPGGA,080750.00,3413.0831,N,12019.2229,W,1,09,0.8,11.9,M,-33.7,M,,*69
$PYRTM,2024,123.338799649329,14.448447059468
$GPGGA,080751.00,3413.0830,N,12019.2243,W,1,09,0.8,11.9,M,-33.7,M,,*65
$PYRTM,2024,123.338811234931,14.448458645069
$GPGGA,080752.00,3413.0833,N,12019.2259,W,1,09,0.8,12.3,M,-33.7,M,,*67
$PYRTM,2024,123.338822797095,14.448470207234
$GPGGA,080753.00,3413.0835,N,12019.2274,W,1,09,0.8,12.8,M,-33.7,M,,*64
$PYRTM,2024,123.338834371146,14.448481781285
$GPGGA,080754.00,3413.0833,N,12019.2291,W,1,09,0.8,13.2,M,-33.7,M,,*65
$PYRTM,2024,123.338845945023,14.448493355174
$GPGGA,080755.00,3413.0830,N,12019.2308,W,1,09,0.8,13.4,M,-33.7,M,,*60
$PYRTM,2024,123.338857530197,14.448504940347
$GPGGA,080756.00,3413.0830,N,12019.2325,W,1,09,0.8,13.2,M,-33.7,M,,*6A
$PYRTM,2024,123.338869093854,14.448516503993
$GPGGA,080757.00,3413.0831,N,12019.2341,W,1,09,0.8,12.9,M,-33.7,M,,*62
$PYRTM,2024,123.338880678368,14.448528088507
$GPGGA,080758.00,3413.0831,N,12019.2356,W,1,09,0.8,12.7,M,-33.7,M,,*65
$PYRTM,2024,123.338887946829,14.448535356968
$GPGGA,080759.00,3413.0831,N,12019.2371,W,1,09,0.8,13.0,M,-33.7,M,,*67
$PYRTM,2024,123.338903823322,14.448551233461
$GPGGA,080800.00,3413.0832,N,12019.2388,W,1,09,0.8,13.0,M,-33.7,M,,*61
$PYRTM,2024,123.338915389803,14.448562799942
$GPGGA,080801.00,3413.0833,N,12019.2406,W,1,09,0.8,12.7,M,-33.7,M,,*66
$PYRTM,2024,123.338922671007,14.448570081146
$GPGGA,080802.00,3413.0833,N,12019.2424,W,1,09,0.8,12.6,M,-33.7,M,,*64
$PYRTM,2024,123.338938537280,14.448585947419
$GPGGA,080803.00,3413.0832,N,12019.2439,W,1,09,0.8,12.9,M,-33.7,M,,*67
$PYRTM,2024,123.338950111829,14.448597521968
$GPGGA,080804.00,3413.0832,N,12019.2454,W,1,09,0.8,13.4,M,-33.7,M,,*67
$PYRTM,2024,123.338957390660,14.448604800799
$GPGGA,080805.00,3413.0833,N,12019.2472,W,1,09,0.8,13.3,M,-33.7,M,,*64
$PYRTM,2024,123.338973259826,14.448620669965
$GPGGA,080806.00,3413.0835,N,12019.2490,W,1,09,0.8,12.6,M,-33.7,M,,*69
$PYRTM,2024,123.338984833218,14.448632243356
$GPGGA,080807.00,3413.0836,N,12019.2507,W,1,09,0.8,12.3,M,-33.7,M,,*61
$PYRTM,2024,123.338992130660,14.448639540799
$GPGGA,080808.00,3413.0835,N,12019.2522,W,1,09,0.8,12.5,M,-33.7,M,,*6C
$PYRTM,2024,123.339007982812,14.448655392951
$GPGGA,080809.00,3413.0836,N,12019.2539,W,1,09,0.8,12.8,M,-33.7,M,,*69
$PYRTM,2024,123.339019564282,14.448666974421
$GPGGA,080810.00,3413.0837,N,12019.2555,W,1,09,0.8,13.5,M,-33.7,M,,*66
$PYRTM,2024,123.339031124537,14.448678534676
$GPGGA,080811.00,3413.0838,N,12019.2571,W,1,09,0.8,13.8,M,-33.7,M,,*63
$PYRTM,2024,123.339042704132,14.448690114271
$GPGGA,080812.00,3413.0840,N,12019.2588,W,1,09,0.8,13.5,M,-33.7,M,,*64
$PYRTM,2024,123.339049984711,14.448697394850
$GPGGA,080813.00,3413.0842,N,12019.2608,W,1,09,0.8,11.7,M,-33.7,M,,*6C
$PYRTM,2024,123.339068629988,14.448716040127
$GPGGA,080814.00,3413.0840,N,12019.2627,W,1,09,0.8,11.0,M,-33.7,M,,*63
$PYRTM,2024,123.339077426944,14.448724837095
$GPGGA,080815.00,3413.0841,N,12019.2642,W,1,09,0.8,11.4,M,-33.7,M,,*64
$PYRTM,2024,123.339088988924,14.448736399062
$GPGGA,080816.00,3413.0843,N,12019.2656,W,1,09,0.8,12.5,M,-33.7,M,,*62
$PYRTM,2024,123.339096281933,14.448743692072
$GPGGA,080817.00,3413.0845,N,12019.2672,W,1,09,0.8,13.7,M,-33.7,M,,*60
$PYRTM,2024,123.339108086100,14.448755496238
$GPGGA,080818.00,3413.0844,N,12019.2692,W,1,09,0.8,14.2,M,-33.7,M,,*62
$PYRTM,2024,123.339123723785,14.448771133924
$GPGGA,080819.00,3413.0841,N,12019.2713,W,1,09,0.8,13.8,M,-33.7,M,,*63
$PYRTM,2024,123.339135285220,14.448782695370
$GPGGA,080820.00,3413.0839,N,12019.2730,W,1,09,0.8,13.2,M,-33.7,M,,*6D
$PYRTM,2024,123.339146867662,14.448794277812
$GPGGA,080821.00,3413.0842,N,12019.2746,W,1,09,0.8,12.9,M,-33.7,M,,*6B
$PYRTM,2024,123.339158433056,14.448805843206
$GPGGA,080822.00,3413.0846,N,12019.2765,W,1,09,0.8,12.3,M,-33.7,M,,*67
$PYRTM,2024,123.339170014942,14.448817425081
$GPGGA,080823.00,3413.0846,N,12019.2780,W,1,09,0.8,12.5,M,-33.7,M,,*6B
$PYRTM,2024,123.339181581343,14.448828991481
$GPGGA,080824.00,3413.0840,N,12019.2795,W,1,09,0.8,13.8,M,-33.7,M,,*62
$PYRTM,2024,123.339193168032,14.448840578171
$GPGGA,080825.00,3413.0835,N,12019.2814,W,1,09,0.8,14.7,M,-33.7,M,,*6F
$PYRTM,2024,123.339200447060,14.448847857199
$GPGGA,080826.00,3413.0837,N,12019.2836,W,1,09,0.8,14.4,M,-33.7,M,,*6D
$PYRTM,2024,123.339216317164,14.448863727303
$GPGGA,080827.00,3413.0839,N,12019.2853,W,1,09,0.8,13.8,M,-33.7,M,,*6A
$PYRTM,2024,123.339227878333,14.448875288484
$GPGGA,080828.00,3413.0838,N,12019.2867,W,1,09,0.8,13.6,M,-33.7,M,,*6D
$PYRTM,2024,123.339235168507,14.448882578657
$GPGGA,080829.00,3413.0835,N,12019.2883,W,1,09,0.8,13.9,M,-33.7,M,,*64
$PYRTM,2024,123.339251025868,14.448898436007
$GPGGA,080830.00,3413.0835,N,12019.2902,W,1,09,0.8,13.8,M,-33.7,M,,*65
$PYRTM,2024,123.339262615764,14.448910025914
$GPGGA,080831.00,3413.0837,N,12019.2922,W,1,09,0.8,13.7,M,-33.7,M,,*6B
$PYRTM,2024,123.339269894097,14.448917304236
$GPGGA,080832.00,3413.0838,N,12019.2938,W,1,09,0.8,14.1,M,-33.7,M,,*6D
$PYRTM,2024,123.339285763530,14.448933173669
$GPGGA,080833.00,3413.0836,N,12019.2955,W,1,09,0.8,14.7,M,-33.7,M,,*6F
$PYRTM,2024,123.339297322361,14.448944732500
$GPGGA,080834.00,3413.0835,N,12019.2974,W,1,09,0.8,14.8,M,-33.7,M,,*67
$PYRTM,2024,123.339304613785,14.448952023924
$GPGGA,080835.00,3413.0834,N,12019.2995,W,1,09,0.8,14.4,M,-33.7,M,,*64
