$PYRTM,2024,122.916684720463,14.026332130602
$GPGGA,220000.00,3353.8293,N,11931.6144,W,1,10,0.8,10.7,M,-33.9,M,,*6F
$PYRTM,2024,122.916693389005,14.026340799144
$GPGGA,220001.00,3353.8291,N,11931.6148,W,1,10,0.8,10.7,M,-33.9,M,,*60
$PYRTM,2024,122.916704979433,14.026352389572
$GPGGA,220002.00,3353.8288,N,11931.6151,W,1,10,0.8,10.7,M,-33.9,M,,*63
$PYRTM,2024,122.916716537222,14.026363947361
$GPGGA,220003.00,3353.8285,N,11931.6154,W,1,10,0.8,10.7,M,-33.9,M,,*6A
$PYRTM,2024,122.916728130012,14.026375540150
$GPGGA,220004.00,3353.8284,N,11931.6156,W,1,10,0.8,10.7,M,-33.9,M,,*6E
$PYRTM,2024,122.916739685810,14.026387095949
$GPGGA,220005.00,3353.8282,N,11931.6159,W,1,10,0.8,10.7,M,-33.9,M,,*66
$PYRTM,2024,122.916751270833,14.026398680972
$GPGGA,220006.00,3353.8280,N,11931.6162,W,1,10,0.8,10.7,M,-33.9,M,,*6F
$PYRTM,2024,122.916762833889,14.026410244028
$GPGGA,220007.00,3353.8277,N,11931.6165,W,1,10,0.8,10.7,M,-33.9,M,,*61
$PYRTM,2024,122.916770240058,14.026417650197
$GPGGA,220008.00,3353.8275,N,11931.6168,W,1,10,0.8,10.7,M,-33.9,M,,*61
$PYRTM,2024,122.916785981806,14.026433391944
$GPGGA,220009.00,3353.8273,N,11931.6170,W,1,10,0.8,10.7,M,-33.9,M,,*6F
$PYRTM,2024,122.916797568137,14.026444978275
$GPGGA,220010.00,3353.8272,N,11931.6172,W,1,10,0.8,10.7,M,-33.9,M,,*64
$PYRTM,2024,122.916804963588,14.026452373727
$GPGGA,220011.00,3353.8269,N,11931.6176,W,1,10,0.8,10.7,M,-33.9,M,,*6B
$PYRTM,2024,122.916820715995,14.026468126146
$GPGGA,220012.00,3353.8266,N,11931.6179,W,1,10,0.8,10.7,M,-33.9,M,,*68
$PYRTM,2024,122.916828112407,14.026475522546
$GPGGA,220013.00,3353.8265,N,11931.6181,W,1,10,0.8,10.7,M,-33.9,M,,*6D
$PYRTM,2024,122.916839807743,14.026487217882
$GPGGA,220014.00,3353.8263,N,11931.6184,W,1,10,0.8,10.7,M,-33.9,M,,*69
$PYRTM,2024,122.916855425185,14.026502835336
$GPGGA,220015.00,3353.8261,N,11931.6186,W,1,10,0.8,10.7,M,-33.9,M,,*68
$PYRTM,2024,122.916867015729,14.026514425868
$GPGGA,220016.00,3353.8258,N,11931.6190,W,1,10,0.8,10.7,M,-33.9,M,,*66
$PYRTM,2024,122.916878575486,14.026525985625
$GPGGA,220017.00,3353.8256,N,11931.6193,W,1,10,0.8,10.7,M,-33.9,M,,*6A
$PYRTM,2024,122.916890163194,14.026537573333
$GPGGA,220018.00,3353.8254,N,11931.6195,W,1,10,0.8,10.8,M,-33.9,M,,*6E
$PYRTM,2024,122.916901723229,14.026549133368
$GPGGA,220019.00,3353.8252,N,11931.6197,W,1,10,0.8,10.8,M,-33.9,M,,*6B
$PYRTM,2024,122.916909129792,14.026556539931
$GPGGA,220020.00,3353.8249,N,11931.6201,W,1,10,0.8,10.8,M,-33.9,M,,*67
$PYRTM,2024,122.916924870498,14.026572280637
$GPGGA,220021.00,3353.8247,N,11931.6204,W,1,10,0.8,10.8,M,-33.9,M,,*6D
$PYRTM,2024,122.916936457870,14.026583868009
$GPGGA,220022.00,3353.8245,N,11931.6207,W,1,10,0.8,10.8,M,-33.9,M,,*6F
$PYRTM,2024,122.916943865625,14.026591275764
$GPGGA,220023.00,3353.8243,N,11931.6210,W,1,10,0.8,10.8,M,-33.9,M,,*6E
$PYRTM,2024,122.916959601875,14.026607012025
$GPGGA,220024.00,3353.8241,N,11931.6212,W,1,10,0.8,10.8,M,-33.9,M,,*69
$PYRTM,2024,122.916971167627,14.026618577766
$GPGGA,220025.00,3353.8239,N,11931.6215,W,1,10,0.8,10.8,M,-33.9,M,,*60
$PYRTM,2024,122.916978575903,14.026625986053
$GPGGA,220026.00,3353.8236,N,11931.6218,W,1,10,0.8,10.8,M,-33.9,M,,*61
$PYRTM,2024,122.916994317164,14.026641727303
$GPGGA,220027.00,3353.8234,N,11931.6221,W,1,10,0.8,10.8,M,-33.9,M,,*68
$PYRTM,2024,122.917005902465,14.026653312604
$GPGGA,220028.00,3353.8232,N,11931.6223,W,1,10,0.8,10.8,M,-33.9,M,,*63
$PYRTM,2024,122.917017464780,14.026664874919
$GPGGA,220029.00,3353.8230,N,11931.6225,W,1,10,0.8,10.8,M,-33.9,M,,*66
$PYRTM,2024,122.917024869537,14.026672279676
$GPGGA,220030.00,3353.8227,N,11931.6228,W,1,10,0.8,10.8,M,-33.9,M,,*65
$PYRTM,2024,122.917043520266,14.026690930405
$GPGGA,220031.00,3353.8225,N,11931.6231,W,1,10,0.8,10.8,M,-33.9,M,,*6E
$PYRTM,2024,122.917052201042,14.026699611181
$GPGGA,220032.00,3353.8223,N,11931.6234,W,1,10,0.8,10.8,M,-33.9,M,,*6E
$PYRTM,2024,122.917059593403,14.026707003542
$GPGGA,220033.00,3353.8221,N,11931.6236,W,1,10,0.8,10.8,M,-33.9,M,,*6F
$PYRTM,2024,122.917071289468,14.026718699606
$GPGGA,220034.00,3353.8218,N,11931.6240,W,1,10,0.8,10.8,M,-33.9,M,,*63
$PYRTM,2024,122.917086908808,14.026734318958
$GPGGA,220035.00,3353.8216,N,11931.6243,W,1,10,0.8,10.8,M,-33.9,M,,*6F
$PYRTM,2024,122.917098490694,14.026745900833
$GPGGA,220036.00,3353.8215,N,11931.6245,W,1,10,0.8,10.8,M,-33.9,M,,*69
$PYRTM,2024,122.917105901921,14.026753312060
$GPGGA,220037.00,3353.8212,N,11931.6247,W,1,10,0.8,10.8,M,-33.9,M,,*6D
$PYRTM,2024,122.917121642188,14.026769052326
$GPGGA,220038.00,3353.8209,N,11931.6250,W,1,10,0.8,10.8,M,-33.9,M,,*6E
$PYRTM,2024,122.917133204630,14.026780614769
$GPGGA,220039.00,3353.8207,N,11931.6253,W,1,10,0.8,10.8,M,-33.9,M,,*62
$PYRTM,2024,122.917144794294,14.026792204433
$GPGGA,220040.00,3353.8205,N,11931.6256,W,1,10,0.8,10.8,M,-33.9,M,,*6B
$PYRTM,2024,122.917156352558,14.026803762697
$GPGGA,220041.00,3353.8204,N,11931.6259,W,1,10,0.8,10.8,M,-33.9,M,,*64
$PYRTM,2024,122.917167938519,14.026815348657
$GPGGA,220042.00,3353.8201,N,11931.6262,W,1,10,0.8,10.8,M,-33.9,M,,*6A
$PYRTM,2024,122.917179500648,14.026826910787
$GPGGA,220043.00,3353.8198,N,11931.6264,W,1,10,0.8,10.7,M,-33.9,M,,*61
$PYRTM,2024,122.917186908796,14.026834318947
$GPGGA,220044.00,3353.8195,N,11931.6266,W,1,10,0.8,10.7,M,-33.9,M,,*69
$PYRTM,2024,122.917202649676,14.026850059815
$GPGGA,220045.00,3353.8193,N,11931.6269,W,1,10,0.8,10.8,M,-33.9,M,,*6E
$PYRTM,2024,122.917214250000,14.026861660139
$GPGGA,220046.00,3353.8191,N,11931.6273,W,1,10,0.8,10.7,M,-33.9,M,,*6B
$PYRTM,2024,122.917225796169,14.026873206308
$GPGGA,220047.00,3353.8189,N,11931.6277,W,1,10,0.8,10.7,M,-33.9,M,,*67
$PYRTM,2024,122.917237383472,14.026884793611
$GPGGA,220048.00,3353.8187,N,11931.6279,W,1,10,0.8,10.7,M,-33.9,M,,*68
$PYRTM,2024,122.917244791840,14.026892201991
$GPGGA,220049.00,3353.8185,N,11931.6279,W,1,10,0.8,10.7,M,-33.9,M,,*6B
$PYRTM,2024,122.917260527650,14.026907937789
$GPGGA,220050.00,3353.8182,N,11931.6282,W,1,10,0.8,10.7,M,-33.9,M,,*60
$PYRTM,2024,122.917272094282,14.026919504421
$GPGGA,220051.00,3353.8179,N,11931.6286,W,1,10,0.8,10.7,M,-33.9,M,,*61
$PYRTM,2024,122.917283679410,14.026931089549
$GPGGA,220052.00,3353.8176,N,11931.6290,W,1,10,0.8,10.7,M,-33.9,M,,*6A
$PYRTM,2024,122.917295241134,14.026942651273
$GPGGA,220053.00,3353.8175,N,11931.6292,W,1,10,0.8,10.7,M,-33.9,M,,*6A
$PYRTM,2024,122.917306823356,14.026954233495
$GPGGA,220054.00,3353.8173,N,11931.6293,W,1,10,0.8,10.7,M,-33.9,M,,*6A
$PYRTM,2024,122.917318389896,14.026965800035
$GPGGA,220055.00,3353.8170,N,11931.6296,W,1,10,0.8,10.7,M,-33.9,M,,*6D
$PYRTM,2024,122.917329977558,14.026977387697
$GPGGA,220056.00,3353.8167,N,11931.6300,W,1,10,0.8,10.7,M,-33.9,M,,*66
$PYRTM,2024,122.917341538831,14.026988948970
$GPGGA,220057.00,3353.8164,N,11931.6303,W,1,10,0.8,10.7,M,-33.9,M,,*67
$PYRTM,2024,122.917353129769,14.027000539907
$GPGGA,220058.00,3353.8163,N,11931.6305,W,1,10,0.8,10.7,M,-33.9,M,,*69
$PYRTM,2024,122.917360520729,14.027007930868
$GPGGA,220059.00,3353.8161,N,11931.6308,W,1,10,0.8,10.7,M,-33.9,M,,*67
$PYRTM,2024,122.917376279282,14.027023689421
$GPGGA,220100.00,3353.8159,N,11931.6310,W,1,10,0.8,10.7,M,-33.9,M,,*68
$PYRTM,2024,122.917383669271,14.027031079410
$GPGGA,220101.00,3353.8156,N,11931.6312,W,1,10,0.8,10.7,M,-33.9,M,,*64
$PYRTM,2024,122.917402315000,14.027049725139
$GPGGA,220102.00,3353.8153,N,11931.6315,W,1,10,0.8,10.8,M,-33.9,M,,*6A
$PYRTM,2024,122.917410983958,14.027058394097
$GPGGA,220103.00,3353.8150,N,11931.6317,W,1,10,0.8,10.8,M,-33.9,M,,*6A
$PYRTM,2024,122.917422571053,14.027069981192
$GPGGA,220104.00,3353.8149,N,11931.6320,W,1,10,0.8,10.8,M,-33.9,M,,*61
$PYRTM,2024,122.917434130625,14.027081540764
$GPGGA,220105.00,3353.8147,N,11931.6323,W,1,10,0.8,10.8,M,-33.9,M,,*6D
$PYRTM,2024,122.917445717106,14.027093127245
$GPGGA,220106.00,3353.8144,N,11931.6325,W,1,10,0.8,10.7,M,-33.9,M,,*64
$PYRTM,2024,122.917457278796,14.027104688935
$GPGGA,220107.00,3353.8141,N,11931.6328,W,1,10,0.8,10.7,M,-33.9,M,,*6D
$PYRTM,2024,122.917468861377,14.027116271516
$GPGGA,220108.00,3353.8138,N,11931.6331,W,1,10,0.8,10.7,M,-33.9,M,,*64
$PYRTM,2024,122.917480426481,14.027127836620
$GPGGA,220109.00,3353.8136,N,11931.6333,W,1,10,0.8,10.7,M,-33.9,M,,*69
$PYRTM,2024,122.917492015069,14.027139425208
$GPGGA,220110.00,3353.8136,N,11931.6336,W,1,10,0.8,10.7,M,-33.9,M,,*64
$PYRTM,2024,122.917503575475,14.027150985613
$GPGGA,220111.00,3353.8134,N,11931.6339,W,1,10,0.8,10.7,M,-33.9,M,,*68
$PYRTM,2024,122.917510866262,14.027158276400
$GPGGA,220112.00,3353.8130,N,11931.6342,W,1,10,0.8,10.8,M,-33.9,M,,*6C
$PYRTM,2024,122.917526723808,14.027174133947
$GPGGA,220113.00,3353.8127,N,11931.6344,W,1,10,0.8,10.7,M,-33.9,M,,*62
$PYRTM,2024,122.917538313692,14.027185723831
$GPGGA,220114.00,3353.8125,N,11931.6346,W,1,10,0.8,10.7,M,-33.9,M,,*65
$PYRTM,2024,122.917549871690,14.027197281840
$GPGGA,220115.00,3353.8124,N,11931.6349,W,1,10,0.8,10.7,M,-33.9,M,,*6A
$PYRTM,2024,122.917561473021,14.027208883160
$GPGGA,220116.00,3353.8122,N,11931.6352,W,1,10,0.8,10.7,M,-33.9,M,,*65
$PYRTM,2024,122.917573019850,14.027220429988
$GPGGA,220117.00,3353.8119,N,11931.6355,W,1,10,0.8,10.7,M,-33.9,M,,*6B
$PYRTM,2024,122.917584608819,14.027232018958
$GPGGA,220118.00,3353.8115,N,11931.6356,W,1,10,0.8,10.7,M,-33.9,M,,*6B
$PYRTM,2024,122.917591900648,14.027239310787
$GPGGA,220119.00,3353.8111,N,11931.6358,W,1,10,0.8,10.7,M,-33.9,M,,*60
$PYRTM,2024,122.917607754919,14.027255165058
$GPGGA,220120.00,3353.8109,N,11931.6362,W,1,10,0.8,10.7,M,-33.9,M,,*6A
$PYRTM,2024,122.917619316343,14.027266726481
$GPGGA,220121.00,3353.8109,N,11931.6366,W,1,10,0.8,10.7,M,-33.9,M,,*6F
$PYRTM,2024,122.917626726076,14.027274136215
$GPGGA,220122.00,3353.8107,N,11931.6369,W,1,10,0.8,10.7,M,-33.9,M,,*6D
$PYRTM,2024,122.917642464525,14.027289874664
$GPGGA,220123.00,3353.8104,N,11931.6370,W,1,10,0.8,10.7,M,-33.9,M,,*67
$PYRTM,2024,122.917654054259,14.027301464398
$GPGGA,220124.00,3353.8100,N,11931.6372,W,1,10,0.8,10.7,M,-33.9,M,,*66
$PYRTM,2024,122.917665615162,14.027313025301
$GPGGA,220125.00,3353.8098,N,11931.6375,W,1,10,0.8,10.7,M,-33.9,M,,*60
$PYRTM,2024,122.917677194803,14.027324604942
$GPGGA,220126.00,3353.8097,N,11931.6378,W,1,10,0.8,10.7,M,-33.9,M,,*61
$PYRTM,2024,122.917684479433,14.027331889572
$GPGGA,220127.00,3353.8096,N,11931.6382,W,1,10,0.8,10.7,M,-33.9,M,,*64
$PYRTM,2024,122.917700350995,14.027347761134
$GPGGA,220128.00,3353.8094,N,11931.6384,W,1,10,0.8,10.7,M,-33.9,M,,*6F
$PYRTM,2024,122.917711910579,14.027359320718
$GPGGA,220129.00,3353.8091,N,11931.6386,W,1,10,0.8,10.7,M,-33.9,M,,*69
$PYRTM,2024,122.917723498252,14.027370908391
$GPGGA,220130.00,3353.8087,N,11931.6387,W,1,10,0.8,10.7,M,-33.9,M,,*67
$PYRTM,2024,122.917735060104,14.027382470243
$GPGGA,220131.00,3353.8085,N,11931.6390,W,1,10,0.8,10.7,M,-33.9,M,,*62
$PYRTM,2024,122.917742348877,14.027389759016
$GPGGA,220132.00,3353.8083,N,11931.6394,W,1,10,0.8,10.7,M,-33.9,M,,*63
$PYRTM,2024,122.917761123044,14.027408533183
$GPGGA,220133.00,3353.8081,N,11931.6398,W,1,10,0.8,10.7,M,-33.9,M,,*6C
$PYRTM,2024,122.917769787465,14.027417197604
$GPGGA,220134.00,3353.8079,N,11931.6399,W,1,10,0.8,10.7,M,-33.9,M,,*6D
$PYRTM,2024,122.917781354745,14.027428764884
$GPGGA,220135.00,3353.8076,N,11931.6400,W,1,10,0.8,10.7,M,-33.9,M,,*64
$PYRTM,2024,122.917792941076,14.027440351215
$GPGGA,220136.00,3353.8072,N,11931.6404,W,1,10,0.8,10.7,M,-33.9,M,,*67
$PYRTM,2024,122.917800220625,14.027447630764
$GPGGA,220137.00,3353.8070,N,11931.6408,W,1,10,0.8,10.7,M,-33.9,M,,*68
$PYRTM,2024,122.917816083715,14.027463493854
$GPGGA,220138.00,3353.8069,N,11931.6410,W,1,10,0.8,10.7,M,-33.9,M,,*66
$PYRTM,2024,122.917827650382,14.027475060521
$GPGGA,220139.00,3353.8069,N,11931.6413,W,1,10,0.8,10.7,M,-33.9,M,,*64
$PYRTM,2024,122.917839236609,14.027486646748
$GPGGA,220140.00,3353.8066,N,11931.6415,W,1,10,0.8,10.7,M,-33.9,M,,*63
$PYRTM,2024,122.917850798657,14.027498208808
$GPGGA,220141.00,3353.8062,N,11931.6417,W,1,10,0.8,10.7,M,-33.9,M,,*64
$PYRTM,2024,122.917858090961,14.027505501100
$GPGGA,220142.00,3353.8059,N,11931.6420,W,1,10,0.8,10.7,M,-33.9,M,,*6B
$PYRTM,2024,122.917873948252,14.027521358391
$GPGGA,220143.00,3353.8058,N,11931.6423,W,1,10,0.8,10.7,M,-33.9,M,,*68
$PYRTM,2024,122.917885537222,14.027532947361
$GPGGA,220144.00,3353.8057,N,11931.6426,W,1,10,0.8,10.7,M,-33.9,M,,*65
$PYRTM,2024,122.917897095428,14.027544505567
$GPGGA,220145.00,3353.8056,N,11931.6428,W,1,10,0.8,10.7,M,-33.9,M,,*6B
$PYRTM,2024,122.917908685231,14.027556095370
$GPGGA,220146.00,3353.8052,N,11931.6429,W,1,10,0.8,10.7,M,-33.9,M,,*6D
$PYRTM,2024,122.917915974363,14.027563384502
$GPGGA,220147.00,3353.8048,N,11931.6432,W,1,10,0.8,10.7,M,-33.9,M,,*6D
$PYRTM,2024,122.917931830081,14.027579240220
$GPGGA,220148.00,3353.8046,N,11931.6435,W,1,10,0.8,10.7,M,-33.9,M,,*6B
$PYRTM,2024,122.917943391238,14.027590801377
$GPGGA,220149.00,3353.8046,N,11931.6438,W,1,10,0.8,10.7,M,-33.9,M,,*67
$PYRTM,2024,122.917950798924,14.027598209062
$GPGGA,220150.00,3353.8045,N,11931.6440,W,1,10,0.8,10.7,M,-33.9,M,,*63
$PYRTM,2024,122.917966538507,14.027613948657
$GPGGA,220151.00,3353.8042,N,11931.6443,W,1,10,0.8,10.7,M,-33.9,M,,*66
$PYRTM,2024,122.917978121806,14.027625531944
$GPGGA,220152.00,3353.8038,N,11931.6445,W,1,10,0.8,10.7,M,-33.9,M,,*6E
$PYRTM,2024,122.917989687442,14.027637097581
$GPGGA,220153.00,3353.8035,N,11931.6448,W,1,10,0.8,10.7,M,-33.9,M,,*6F
$PYRTM,2024,122.918001269711,14.027648679850
$GPGGA,220154.00,3353.8034,N,11931.6450,W,1,10,0.8,10.7,M,-33.9,M,,*60
$PYRTM,2024,122.918008669144,14.027656079282
$GPGGA,220155.00,3353.8034,N,11931.6454,W,1,10,0.8,10.7,M,-33.9,M,,*65
$PYRTM,2024,122.918024425718,14.027671835856
$GPGGA,220156.00,3353.8031,N,11931.6457,W,1,10,0.8,10.7,M,-33.9,M,,*60
$PYRTM,2024,122.918035984722,14.027683394861
$GPGGA,220157.00,3353.8028,N,11931.6459,W,1,10,0.8,10.7,M,-33.9,M,,*67
$PYRTM,2024,122.918047574838,14.027694984977
$GPGGA,220158.00,3353.8025,N,11931.6460,W,1,10,0.8,10.7,M,-33.9,M,,*6F
$PYRTM,2024,122.918059131481,14.027706541620
$GPGGA,220159.00,3353.8023,N,11931.6463,W,1,10,0.8,10.8,M,-33.9,M,,*64
$PYRTM,2024,122.918066423958,14.027713834097
$GPGGA,220200.00,3353.8021,N,11931.6467,W,1,10,0.8,10.8,M,-33.9,M,,*6D
$PYRTM,2024,122.918082280590,14.027729690729
$GPGGA,220201.00,3353.8020,N,11931.6469,W,1,10,0.8,10.8,M,-33.9,M,,*63
$PYRTM,2024,122.918093867477,14.027741277616
$GPGGA,220202.00,3353.8018,N,11931.6471,W,1,10,0.8,10.8,M,-33.9,M,,*62
$PYRTM,2024,122.918101159190,14.027748569329
$GPGGA,220203.00,3353.8015,N,11931.6473,W,1,10,0.8,10.8,M,-33.9,M,,*6C
$PYRTM,2024,122.918119909444,14.027767319583
$GPGGA,220204.00,3353.8012,N,11931.6476,W,1,10,0.8,10.8,M,-33.9,M,,*69
$PYRTM,2024,122.918128577199,14.027775987338
$GPGGA,220205.00,3353.8010,N,11931.6479,W,1,10,0.8,10.8,M,-33.9,M,,*65
$PYRTM,2024,122.918140159225,14.027787569363
$GPGGA,220206.00,3353.8009,N,11931.6482,W,1,10,0.8,10.8,M,-33.9,M,,*6A
$PYRTM,2024,122.918151724097,14.027799134236
$GPGGA,220207.00,3353.8008,N,11931.6484,W,1,10,0.8,10.8,M,-33.9,M,,*6C
$PYRTM,2024,122.918163315023,14.027810725162
$GPGGA,220208.00,3353.8005,N,11931.6487,W,1,10,0.8,10.8,M,-33.9,M,,*6D
$PYRTM,2024,122.918174874653,14.027822284792
$GPGGA,220209.00,3353.8002,N,11931.6489,W,1,10,0.8,10.8,M,-33.9,M,,*65
$PYRTM,2024,122.918182165104,14.027829575243
$GPGGA,220210.00,3353.7999,N,11931.6492,W,1,10,0.8,10.8,M,-33.9,M,,*63
$PYRTM,2024,122.918198021644,14.027845431782
$GPGGA,220211.00,3353.7998,N,11931.6494,W,1,10,0.8,10.8,M,-33.9,M,,*65
$PYRTM,2024,122.918209611690,14.027857021829
$GPGGA,220212.00,3353.7996,N,11931.6496,W,1,10,0.8,10.8,M,-33.9,M,,*6A
$PYRTM,2024,122.918221170104,14.027868580243
$GPGGA,220213.00,3353.7994,N,11931.6499,W,1,10,0.8,10.8,M,-33.9,M,,*66
$PYRTM,2024,122.918232759468,14.027880169606
$GPGGA,220214.00,3353.7991,N,11931.6502,W,1,10,0.8,10.8,M,-33.9,M,,*67
$PYRTM,2024,122.918240035093,14.027887445231
$GPGGA,220215.00,3353.7988,N,11931.6504,W,1,10,0.8,10.8,M,-33.9,M,,*68
$PYRTM,2024,122.918255899514,14.027903309653
$GPGGA,220216.00,3353.7987,N,11931.6507,W,1,10,0.8,10.8,M,-33.9,M,,*67
$PYRTM,2024,122.918267468773,14.027914878912
$GPGGA,220217.00,3353.7986,N,11931.6509,W,1,10,0.8,10.8,M,-33.9,M,,*69
$PYRTM,2024,122.918274758229,14.027922168368
$GPGGA,220218.00,3353.7984,N,11931.6512,W,1,10,0.8,10.8,M,-33.9,M,,*6E
$PYRTM,2024,122.918290617535,14.027938027674
$GPGGA,220219.00,3353.7981,N,11931.6515,W,1,10,0.8,10.8,M,-33.9,M,,*6D
$PYRTM,2024,122.918302201678,14.027949611817
$GPGGA,220220.00,3353.7978,N,11931.6517,W,1,10,0.8,10.8,M,-33.9,M,,*63
$PYRTM,2024,122.918313762662,14.027961172801
$GPGGA,220221.00,3353.7976,N,11931.6519,W,1,10,0.8,10.8,M,-33.9,M,,*62
$PYRTM,2024,122.918325348738,14.027972758877
$GPGGA,220222.00,3353.7975,N,11931.6522,W,1,10,0.8,10.8,M,-33.9,M,,*6A
$PYRTM,2024,122.918336910058,14.027984320197
$GPGGA,220223.00,3353.7973,N,11931.6525,W,1,10,0.8,10.8,M,-33.9,M,,*6A
$PYRTM,2024,122.918348513623,14.027995923762
$GPGGA,220224.00,3353.7970,N,11931.6528,W,1,10,0.8,10.8,M,-33.9,M,,*63
$PYRTM,2024,122.918355777720,14.028003187859
$GPGGA,220225.00,3353.7967,N,11931.6530,W,1,10,0.8,10.8,M,-33.9,M,,*6D
$PYRTM,2024,122.918371648264,14.028019058403
$GPGGA,220226.00,3353.7965,N,11931.6532,W,1,10,0.8,10.8,M,-33.9,M,,*6E
$PYRTM,2024,122.918383206898,14.028030617037
$GPGGA,220227.00,3353.7963,N,11931.6535,W,1,10,0.8,10.8,M,-33.9,M,,*6E
$PYRTM,2024,122.918390500532,14.028037910671
$GPGGA,220228.00,3353.7960,N,11931.6537,W,1,10,0.8,10.8,M,-33.9,M,,*60
$PYRTM,2024,122.918406354873,14.028053765012
$GPGGA,220229.00,3353.7958,N,11931.6540,W,1,10,0.8,10.8,M,-33.9,M,,*6A
$PYRTM,2024,122.918417946644,14.028065356782
$GPGGA,220230.00,3353.7956,N,11931.6543,W,1,10,0.8,10.8,M,-33.9,M,,*6F
$PYRTM,2024,122.918429502778,14.028076912917
$GPGGA,220231.00,3353.7955,N,11931.6546,W,1,10,0.8,10.8,M,-33.9,M,,*68
$PYRTM,2024,122.918441085995,14.028088496134
$GPGGA,220232.00,3353.7953,N,11931.6549,W,1,10,0.8,10.8,M,-33.9,M,,*62
$PYRTM,2024,122.918452651528,14.028100061667
$GPGGA,220233.00,3353.7950,N,11931.6551,W,1,10,0.8,10.8,M,-33.9,M,,*69
$PYRTM,2024,122.918459943056,14.028107353194
$GPGGA,220234.00,3353.7948,N,11931.6553,W,1,10,0.8,10.8,M,-33.9,M,,*65
$PYRTM,2024,122.918478578333,14.028125988484
$GPGGA,220235.00,3353.7946,N,11931.6556,W,1,10,0.8,10.8,M,-33.9,M,,*6F
$PYRTM,2024,122.918487387419,14.028134797558
$GPGGA,220236.00,3353.7944,N,11931.6559,W,1,10,0.8,10.8,M,-33.9,M,,*61
$PYRTM,2024,122.918498947384,14.028146357535
$GPGGA,220237.00,3353.7943,N,11931.6562,W,1,10,0.8,10.8,M,-33.9,M,,*6F
$PYRTM,2024,122.918510535440,14.028157945579
$GPGGA,220238.00,3353.7940,N,11931.6564,W,1,10,0.8,10.8,M,-33.9,M,,*65
$PYRTM,2024,122.918522097431,14.028169507569
$GPGGA,220239.00,3353.7937,N,11931.6566,W,1,10,0.8,10.8,M,-33.9,M,,*66
$PYRTM,2024,122.918529391123,14.028176801262
$GPGGA,220240.00,3353.7934,N,11931.6569,W,1,10,0.8,10.8,M,-33.9,M,,*64
$PYRTM,2024,122.918545244769,14.028192654919
$GPGGA,220241.00,3353.7933,N,11931.6572,W,1,10,0.8,10.8,M,-33.9,M,,*68
$PYRTM,2024,122.918556834398,14.028204244537
$GPGGA,220242.00,3353.7931,N,11931.6575,W,1,10,0.8,10.8,M,-33.9,M,,*6E
$PYRTM,2024,122.918568392083,14.028215802234
$GPGGA,220243.00,3353.7929,N,11931.6578,W,1,10,0.8,10.8,M,-33.9,M,,*6B
$PYRTM,2024,122.918579979248,14.028227389398
$GPGGA,220244.00,3353.7926,N,11931.6580,W,1,10,0.8,10.8,M,-33.9,M,,*64
$PYRTM,2024,122.918591541424,14.028238951563
$GPGGA,220245.00,3353.7923,N,11931.6582,W,1,10,0.8,10.8,M,-33.9,M,,*62
$PYRTM,2024,122.918603127963,14.028250538113
$GPGGA,220246.00,3353.7921,N,11931.6585,W,1,10,0.8,10.8,M,-33.9,M,,*64
$PYRTM,2024,122.918614688519,14.028262098657
$GPGGA,220247.00,3353.7920,N,11931.6588,W,1,10,0.8,10.8,M,-33.9,M,,*69
$PYRTM,2024,122.918626276157,14.028273686296
$GPGGA,220248.00,3353.7919,N,11931.6592,W,1,10,0.8,10.8,M,-33.9,M,,*67
$PYRTM,2024,122.918637837836,14.028285247975
$GPGGA,220249.00,3353.7916,N,11931.6595,W,1,10,0.8,10.8,M,-33.9,M,,*6E
$PYRTM,2024,122.918649423438,14.028296833565
$GPGGA,220250.00,3353.7913,N,11931.6597,W,1,10,0.8,10.8,M,-33.9,M,,*61
$PYRTM,2024,122.918660984306,14.028308394444
$GPGGA,220251.00,3353.7911,N,11931.6598,W,1,10,0.8,10.8,M,-33.9,M,,*6D
$PYRTM,2024,122.918672575914,14.028319986053
$GPGGA,220252.00,3353.7910,N,11931.6601,W,1,10,0.8,10.8,M,-33.9,M,,*6C
$PYRTM,2024,122.918684133090,14.028331543229
$GPGGA,220253.00,3353.7909,N,11931.6605,W,1,10,0.8,10.8,M,-33.9,M,,*61
$PYRTM,2024,122.918695723588,14.028343133727
$GPGGA,220254.00,3353.7907,N,11931.6608,W,1,10,0.8,10.8,M,-33.9,M,,*65
$PYRTM,2024,122.918707282373,14.028354692512
$GPGGA,220255.00,3353.7903,N,11931.6609,W,1,10,0.8,10.8,M,-33.9,M,,*61
$PYRTM,2024,122.918718883345,14.028366293484
$GPGGA,220256.00,3353.7900,N,11931.6611,W,1,10,0.8,10.8,M,-33.9,M,,*68
$PYRTM,2024,122.918730429792,14.028377839931
$GPGGA,220257.00,3353.7898,N,11931.6615,W,1,10,0.8,10.8,M,-33.9,M,,*6D
$PYRTM,2024,122.918742018669,14.028389428808
$GPGGA,220258.00,3353.7897,N,11931.6618,W,1,10,0.8,10.8,M,-33.9,M,,*60
$PYRTM,2024,122.918753578634,14.028400988773
$GPGGA,220259.00,3353.7896,N,11931.6621,W,1,10,0.8,10.8,M,-33.9,M,,*6A
$PYRTM,2024,122.918760871192,14.028408281331
$GPGGA,220300.00,3353.7892,N,11931.6624,W,1,10,0.8,10.8,M,-33.9,M,,*66
$PYRTM,2024,122.918776726887,14.028424137025
$GPGGA,220301.00,3353.7888,N,11931.6626,W,1,10,0.8,10.8,M,-33.9,M,,*6E
$PYRTM,2024,122.918788313206,14.028435723356
$GPGGA,220302.00,3353.7886,N,11931.6628,W,1,10,0.8,10.8,M,-33.9,M,,*6D
$PYRTM,2024,122.918799875046,14.028447285185
$GPGGA,220303.00,3353.7887,N,11931.6631,W,1,10,0.8,10.8,M,-33.9,M,,*65
$PYRTM,2024,122.918811464942,14.028458875081
$GPGGA,220304.00,3353.7885,N,11931.6635,W,1,10,0.8,10.8,M,-33.9,M,,*64
$PYRTM,2024,122.918818740266,14.028466150405
$GPGGA,220305.00,3353.7882,N,11931.6637,W,1,10,0.8,10.8,M,-33.9,M,,*60
$PYRTM,2024,122.918837387755,14.028484797894
$GPGGA,220306.00,3353.7878,N,11931.6638,W,1,10,0.8,10.9,M,-33.9,M,,*68
$PYRTM,2024,122.918846171493,14.028493581632
$GPGGA,220307.00,3353.7876,N,11931.6640,W,1,10,0.8,10.9,M,-33.9,M,,*68
$PYRTM,2024,122.918857760891,14.028505171030
$GPGGA,220308.00,3353.7875,N,11931.6643,W,1,10,0.8,10.9,M,-33.9,M,,*67
$PYRTM,2024,122.918869318796,14.028516728935
$GPGGA,220309.00,3353.7874,N,11931.6647,W,1,10,0.8,10.9,M,-33.9,M,,*63
$PYRTM,2024,122.918880920208,14.028528330347
$GPGGA,220310.00,3353.7871,N,11931.6650,W,1,10,0.8,10.9,M,-33.9,M,,*68
$PYRTM,2024,122.918892467141,14.028539877280
$GPGGA,220311.00,3353.7867,N,11931.6651,W,1,10,0.8,10.9,M,-33.9,M,,*6F
$PYRTM,2024,122.918904048808,14.028551458947
$GPGGA,220312.00,3353.7864,N,11931.6654,W,1,10,0.8,10.9,M,-33.9,M,,*6A
$PYRTM,2024,122.918915615579,14.028563025718
$GPGGA,220313.00,3353.7862,N,11931.6657,W,1,10,0.8,10.8,M,-33.9,M,,*6F
$PYRTM,2024,122.918927202951,14.028574613090
$GPGGA,220314.00,3353.7862,N,11931.6661,W,1,10,0.8,10.8,M,-33.9,M,,*6D
$PYRTM,2024,122.918934481250,14.028581891400
$GPGGA,220315.00,3353.7860,N,11931.6663,W,1,10,0.8,10.9,M,-33.9,M,,*6D
$PYRTM,2024,122.918950350822,14.028597760961
$GPGGA,220316.00,3353.7857,N,11931.6665,W,1,10,0.8,10.9,M,-33.9,M,,*6C
$PYRTM,2024,122.918961911644,14.028609321782
$GPGGA,220317.00,3353.7853,N,11931.6668,W,1,10,0.8,10.9,M,-33.9,M,,*64
$PYRTM,2024,122.918973499769,14.028620909907
$GPGGA,220318.00,3353.7851,N,11931.6670,W,1,10,0.8,10.9,M,-33.9,M,,*60
$PYRTM,2024,122.918985060833,14.028632470972
$GPGGA,220319.00,3353.7851,N,11931.6673,W,1,10,0.8,10.9,M,-33.9,M,,*62
$PYRTM,2024,122.918992352650,14.028639762789
$GPGGA,220320.00,3353.7850,N,11931.6676,W,1,10,0.8,10.9,M,-33.9,M,,*6C
$PYRTM,2024,122.919008209884,14.028655620023
$GPGGA,220321.00,3353.7846,N,11931.6678,W,1,10,0.8,10.9,M,-33.9,M,,*64
$PYRTM,2024,122.919019800104,14.028667210243
$GPGGA,220322.00,3353.7843,N,11931.6679,W,1,10,0.8,10.8,M,-33.9,M,,*62
$PYRTM,2024,122.919031357245,14.028678767384
$GPGGA,220323.00,3353.7841,N,11931.6682,W,1,10,0.8,10.8,M,-33.9,M,,*65
$PYRTM,2024,122.919042946806,14.028690356944
$GPGGA,220324.00,3353.7840,N,11931.6686,W,1,10,0.8,10.8,M,-33.9,M,,*67
$PYRTM,2024,122.919054504583,14.028701914722
$GPGGA,220325.00,3353.7837,N,11931.6689,W,1,10,0.8,10.8,M,-33.9,M,,*69
$PYRTM,2024,122.919066095451,14.028713505602
$GPGGA,220326.00,3353.7835,N,11931.6691,W,1,10,0.8,10.8,M,-33.9,M,,*61
$PYRTM,2024,122.919077653646,14.028725063785
$GPGGA,220327.00,3353.7832,N,11931.6693,W,1,10,0.8,10.8,M,-33.9,M,,*65
$PYRTM,2024,122.919089239688,14.028736649826
$GPGGA,220328.00,3353.7831,N,11931.6695,W,1,10,0.8,10.8,M,-33.9,M,,*6F
$PYRTM,2024,122.919100802130,14.028748212269
$GPGGA,220329.00,3353.7829,N,11931.6699,W,1,10,0.8,10.8,M,-33.9,M,,*6B
$PYRTM,2024,122.919108093866,14.028755504005
$GPGGA,220330.00,3353.7826,N,11931.6702,W,1,10,0.8,10.8,M,-33.9,M,,*6F
$PYRTM,2024,122.919123949803,14.028771359942
$GPGGA,220331.00,3353.7824,N,11931.6703,W,1,10,0.8,10.8,M,-33.9,M,,*6D
$PYRTM,2024,122.919135536944,14.028782947095
$GPGGA,220332.00,3353.7822,N,11931.6705,W,1,10,0.8,10.8,M,-33.9,M,,*6E
$PYRTM,2024,122.919147098056,14.028794508194
$GPGGA,220333.00,3353.7820,N,11931.6709,W,1,10,0.8,10.8,M,-33.9,M,,*61
$PYRTM,2024,122.919158684861,14.028806095000
$GPGGA,220334.00,3353.7818,N,11931.6712,W,1,10,0.8,10.8,M,-33.9,M,,*67
$PYRTM,2024,122.919165965567,14.028813375706
$GPGGA,220335.00,3353.7816,N,11931.6714,W,1,10,0.8,10.8,M,-33.9,M,,*6E
$PYRTM,2024,122.919177767940,14.028825178079
$GPGGA,220336.00,3353.7814,N,11931.6715,W,1,10,0.8,10.8,M,-33.9,M,,*6E
$PYRTM,2024,122.919196172569,14.028843582708
$GPGGA,220337.00,3353.7812,N,11931.6717,W,1,10,0.8,10.8,M,-33.9,M,,*6B
$PYRTM,2024,122.919204985394,14.028852395532
$GPGGA,220338.00,3353.7810,N,11931.6721,W,1,10,0.8,10.8,M,-33.9,M,,*63
$PYRTM,2024,122.919216541250,14.028863951389
$GPGGA,220339.00,3353.7808,N,11931.6725,W,1,10,0.8,10.8,M,-33.9,M,,*6F
$PYRTM,2024,122.919223835613,14.028871245752
$GPGGA,220340.00,3353.7805,N,11931.6727,W,1,10,0.8,10.7,M,-33.9,M,,*61
$PYRTM,2024,122.919239691204,14.028887101343
$GPGGA,220341.00,3353.7803,N,11931.6727,W,1,10,0.8,10.7,M,-33.9,M,,*66
$PYRTM,2024,122.919251277963,14.028898688102
$GPGGA,220342.00,3353.7800,N,11931.6730,W,1,10,0.8,10.7,M,-33.9,M,,*60
$PYRTM,2024,122.919262838947,14.028910249097
$GPGGA,220343.00,3353.7799,N,11931.6734,W,1,10,0.8,10.7,M,-33.9,M,,*6A
$PYRTM,2024,122.919274424815,14.028921834954
$GPGGA,220344.00,3353.7797,N,11931.6737,W,1,10,0.8,10.7,M,-33.9,M,,*60
$PYRTM,2024,122.919281703889,14.028929114028
$GPGGA,220345.00,3353.7796,N,11931.6739,W,1,10,0.8,10.7,M,-33.9,M,,*6E
$PYRTM,2024,122.919297573229,14.028944983368
$GPGGA,220346.00,3353.7793,N,11931.6740,W,1,10,0.8,10.6,M,-33.9,M,,*67
$PYRTM,2024,122.919309134410,14.028956544549
$GPGGA,220347.00,3353.7790,N,11931.6742,W,1,10,0.8,10.6,M,-33.9,M,,*67
$PYRTM,2024,122.919320724109,14.028968134248
$GPGGA,220348.00,3353.7789,N,11931.6746,W,1,10,0.8,10.6,M,-33.9,M,,*64
$PYRTM,2024,122.919332282882,14.028979693021
$GPGGA,220349.00,3353.7787,N,11931.6749,W,1,10,0.8,10.6,M,-33.9,M,,*64
$PYRTM,2024,122.919343883345,14.028991293484
$GPGGA,220350.00,3353.7785,N,11931.6751,W,1,10,0.8,10.5,M,-33.9,M,,*64
$PYRTM,2024,122.919355429549,14.029002839676
$GPGGA,220351.00,3353.7782,N,11931.6752,W,1,10,0.8,10.5,M,-33.9,M,,*61
$PYRTM,2024,122.919367020521,14.029014430660
$GPGGA,220352.00,3353.7780,N,11931.6755,W,1,10,0.8,10.5,M,-33.9,M,,*67
$PYRTM,2024,122.919378578530,14.029025988669
$GPGGA,220353.00,3353.7778,N,11931.6758,W,1,10,0.8,10.5,M,-33.9,M,,*6C
$PYRTM,2024,122.919390169236,14.029037579375
$GPGGA,220354.00,3353.7775,N,11931.6762,W,1,10,0.8,10.5,M,-33.9,M,,*6F
$PYRTM,2024,122.919397458380,14.029044868519
$GPGGA,220355.00,3353.7773,N,11931.6764,W,1,10,0.8,10.4,M,-33.9,M,,*6F
$PYRTM,2024,122.919413316644,14.029060726794
$GPGGA,220356.00,3353.7771,N,11931.6767,W,1,10,0.8,10.4,M,-33.9,M,,*6D
$PYRTM,2024,122.919420722187,14.029068132326
$GPGGA,220357.00,3353.7770,N,11931.6769,W,1,10,0.8,10.4,M,-33.9,M,,*63
$PYRTM,2024,122.919432398773,14.029079808912
$GPGGA,220358.00,3353.7768,N,11931.6771,W,1,10,0.8,10.3,M,-33.9,M,,*6B
$PYRTM,2024,122.919448036134,14.029095446273
$GPGGA,220359.00,3353.7766,N,11931.6774,W,1,10,0.8,10.3,M,-33.9,M,,*61
$PYRTM,2024,122.919459614491,14.029107024630
$GPGGA,220400.00,3353.7763,N,11931.6776,W,1,10,0.8,10.3,M,-33.9,M,,*6D
$PYRTM,2024,122.919471186400,14.029118596539
$GPGGA,220401.00,3353.7760,N,11931.6779,W,1,10,0.8,10.3,M,-33.9,M,,*60
$PYRTM,2024,122.919482760116,14.029130170255
$GPGGA,220402.00,3353.7759,N,11931.6782,W,1,10,0.8,10.3,M,-33.9,M,,*6D
$PYRTM,2024,122.919494333252,14.029141743391
$GPGGA,220403.00,3353.7757,N,11931.6784,W,1,10,0.8,10.3,M,-33.9,M,,*64
$PYRTM,2024,122.919505911898,14.029153322037
$GPGGA,220404.00,3353.7756,N,11931.6787,W,1,10,0.8,10.3,M,-33.9,M,,*61
$PYRTM,2024,122.919517480868,14.029164891007
$GPGGA,220405.00,3353.7753,N,11931.6789,W,1,10,0.8,10.3,M,-33.9,M,,*6B
$PYRTM,2024,122.919529058634,14.029176468773
$GPGGA,220406.00,3353.7749,N,11931.6792,W,1,10,0.8,10.3,M,-33.9,M,,*69
$PYRTM,2024,122.919536346019,14.029183756157
$GPGGA,220407.00,3353.7747,N,11931.6795,W,1,10,0.8,10.3,M,-33.9,M,,*61
$PYRTM,2024,122.919554995521,14.029202405648
$GPGGA,220408.00,3353.7746,N,11931.6799,W,1,10,0.8,10.2,M,-33.9,M,,*62
$PYRTM,2024,122.919563776817,14.029211186956
$GPGGA,220409.00,3353.7745,N,11931.6801,W,1,10,0.8,10.2,M,-33.9,M,,*6E
$PYRTM,2024,122.919575352049,14.029222762187
$GPGGA,220410.00,3353.7742,N,11931.6802,W,1,10,0.8,10.2,M,-33.9,M,,*62
$PYRTM,2024,122.919586925394,14.029234335532
$GPGGA,220411.00,3353.7739,N,11931.6804,W,1,10,0.8,10.2,M,-33.9,M,,*69
$PYRTM,2024,122.919598501898,14.029245912037
$GPGGA,220412.00,3353.7737,N,11931.6807,W,1,10,0.8,10.2,M,-33.9,M,,*67
$PYRTM,2024,122.919610073600,14.029257483738
$GPGGA,220413.00,3353.7735,N,11931.6810,W,1,10,0.8,10.2,M,-33.9,M,,*62
$PYRTM,2024,122.919621649039,14.029269059178
$GPGGA,220414.00,3353.7735,N,11931.6814,W,1,10,0.8,10.2,M,-33.9,M,,*61
$PYRTM,2024,122.919633223461,14.029280633600
$GPGGA,220415.00,3353.7733,N,11931.6816,W,1,10,0.8,10.2,M,-33.9,M,,*64
$PYRTM,2024,122.919644796655,14.029292206794
$GPGGA,220416.00,3353.7730,N,11931.6819,W,1,10,0.8,10.2,M,-33.9,M,,*6B
$PYRTM,2024,122.919656370058,14.029303780197
$GPGGA,220417.00,3353.7727,N,11931.6821,W,1,10,0.8,10.2,M,-33.9,M,,*67
$PYRTM,2024,122.919667943912,14.029315354051
$GPGGA,220418.00,3353.7725,N,11931.6823,W,1,10,0.8,10.2,M,-33.9,M,,*68
$PYRTM,2024,122.919679519271,14.029326929410
$GPGGA,220419.00,3353.7724,N,11931.6826,W,1,10,0.8,10.2,M,-33.9,M,,*6D
$PYRTM,2024,122.919691108414,14.029338518553
$GPGGA,220420.00,3353.7722,N,11931.6829,W,1,10,0.8,10.2,M,-33.9,M,,*6E
$PYRTM,2024,122.919702666944,14.029350077083
$GPGGA,220421.00,3353.7720,N,11931.6832,W,1,10,0.8,10.2,M,-33.9,M,,*67
$PYRTM,2024,122.919714245475,14.029361655613
$GPGGA,220422.00,3353.7717,N,11931.6834,W,1,10,0.8,10.2,M,-33.9,M,,*66
$PYRTM,2024,122.919721534120,14.029368944259
$GPGGA,220423.00,3353.7715,N,11931.6835,W,1,10,0.8,10.2,M,-33.9,M,,*64
$PYRTM,2024,122.919737388576,14.029384798715
$GPGGA,220424.00,3353.7714,N,11931.6839,W,1,10,0.8,10.2,M,-33.9,M,,*6E
$PYRTM,2024,122.919748963530,14.029396373669
$GPGGA,220425.00,3353.7712,N,11931.6842,W,1,10,0.8,10.2,M,-33.9,M,,*65
$PYRTM,2024,122.919760537894,14.029407948032
$GPGGA,220426.00,3353.7710,N,11931.6845,W,1,10,0.8,10.2,M,-33.9,M,,*63
$PYRTM,2024,122.919772113634,14.029419523773
$GPGGA,220427.00,3353.7707,N,11931.6847,W,1,10,0.8,10.2,M,-33.9,M,,*66
$PYRTM,2024,122.919783687801,14.029431097940
$GPGGA,220428.00,3353.7705,N,11931.6850,W,1,10,0.8,10.2,M,-33.9,M,,*6D
$PYRTM,2024,122.919795258704,14.029442668843
$GPGGA,220429.00,3353.7703,N,11931.6853,W,1,10,0.8,10.2,M,-33.9,M,,*69
$PYRTM,2024,122.919806836794,14.029454246933
$GPGGA,220430.00,3353.7701,N,11931.6856,W,1,10,0.8,10.2,M,-33.9,M,,*66
$PYRTM,2024,122.919818406690,14.029465816829
$GPGGA,220431.00,3353.7699,N,11931.6858,W,1,10,0.8,10.2,M,-33.9,M,,*69
$PYRTM,2024,122.919829984919,14.029477395058
$GPGGA,220432.00,3353.7696,N,11931.6859,W,1,10,0.8,10.2,M,-33.9,M,,*64
$PYRTM,2024,122.919837272222,14.029484682361
$GPGGA,220433.00,3353.7694,N,11931.6862,W,1,10,0.8,10.2,M,-33.9,M,,*6F
$PYRTM,2024,122.919853145093,14.029500555231
$GPGGA,220434.00,3353.7692,N,11931.6866,W,1,10,0.8,10.2,M,-33.9,M,,*6A
$PYRTM,2024,122.919864703588,14.029512113727
$GPGGA,220435.00,3353.7690,N,11931.6869,W,1,10,0.8,10.2,M,-33.9,M,,*66
$PYRTM,2024,122.919876278275,14.029523688414
$GPGGA,220436.00,3353.7688,N,11931.6871,W,1,10,0.8,10.2,M,-33.9,M,,*65
$PYRTM,2024,122.919887853067,14.029535263206
$GPGGA,220437.00,3353.7686,N,11931.6872,W,1,10,0.8,10.2,M,-33.9,M,,*69
$PYRTM,2024,122.919895132963,14.029542543102
$GPGGA,220438.00,3353.7684,N,11931.6875,W,1,10,0.8,10.2,M,-33.9,M,,*63
$PYRTM,2024,122.919913780185,14.029561190324
$GPGGA,220439.00,3353.7681,N,11931.6879,W,1,10,0.8,10.2,M,-33.9,M,,*6B
$PYRTM,2024,122.919922575012,14.029569985150
$GPGGA,220440.00,3353.7680,N,11931.6882,W,1,10,0.8,10.2,M,-33.9,M,,*60
$PYRTM,2024,122.919934148993,14.029581559132
$GPGGA,220441.00,3353.7678,N,11931.6884,W,1,10,0.8,10.2,M,-33.9,M,,*60
$PYRTM,2024,122.919945723900,14.029593134039
$GPGGA,220442.00,3353.7675,N,11931.6886,W,1,10,0.8,10.2,M,-33.9,M,,*6C
$PYRTM,2024,122.919957297963,14.029604708102
$GPGGA,220443.00,3353.7672,N,11931.6889,W,1,10,0.8,10.2,M,-33.9,M,,*65
$PYRTM,2024,122.919968875081,14.029616285220
$GPGGA,220444.00,3353.7670,N,11931.6892,W,1,10,0.8,10.2,M,-33.9,M,,*6A
$PYRTM,2024,122.919980445613,14.029627855752
$GPGGA,220445.00,3353.7669,N,11931.6895,W,1,10,0.8,10.1,M,-33.9,M,,*67
$PYRTM,2024,122.919992019815,14.029639429954
$GPGGA,220446.00,3353.7667,N,11931.6897,W,1,10,0.8,10.1,M,-33.9,M,,*68
$PYRTM,2024,122.920003593646,14.029651003785
$GPGGA,220447.00,3353.7665,N,11931.6899,W,1,10,0.8,10.1,M,-33.9,M,,*65
$PYRTM,2024,122.920010873102,14.029658283241
$GPGGA,220448.00,3353.7661,N,11931.6901,W,1,10,0.8,10.1,M,-33.9,M,,*6E
$PYRTM,2024,122.920026741933,14.029674152072
$GPGGA,220449.00,3353.7659,N,11931.6905,W,1,10,0.8,10.1,M,-33.9,M,,*60
$PYRTM,2024,122.920038319190,14.029685729329
$GPGGA,220450.00,3353.7657,N,11931.6909,W,1,10,0.8,10.1,M,-33.9,M,,*6A
$PYRTM,2024,122.920049889722,14.029697299861
$GPGGA,220451.00,3353.7656,N,11931.6911,W,1,10,0.8,10.1,M,-33.9,M,,*63
$PYRTM,2024,122.920061459167,14.029708869306
$GPGGA,220452.00,3353.7654,N,11931.6912,W,1,10,0.8,10.1,M,-33.9,M,,*61
$PYRTM,2024,122.920073038900,14.029720449039
$GPGGA,220453.00,3353.7652,N,11931.6915,W,1,10,0.8,10.1,M,-33.9,M,,*61
$PYRTM,2024,122.920084613171,14.029732023322
$GPGGA,220454.00,3353.7648,N,11931.6918,W,1,10,0.8,10.1,M,-33.9,M,,*60
$PYRTM,2024,122.920096189317,14.029743599456
$GPGGA,220455.00,3353.7646,N,11931.6921,W,1,10,0.8,10.1,M,-33.9,M,,*65
$PYRTM,2024,122.920107761019,14.029755171157
$GPGGA,220456.00,3353.7644,N,11931.6924,W,1,10,0.8,10.1,M,-33.9,M,,*61
$PYRTM,2024,122.920119333704,14.029766743843
$GPGGA,220457.00,3353.7643,N,11931.6926,W,1,10,0.8,10.1,M,-33.9,M,,*65
$PYRTM,2024,122.920126613970,14.029774024109
$GPGGA,220458.00,3353.7641,N,11931.6928,W,1,10,0.8,10.1,M,-33.9,M,,*66
$PYRTM,2024,122.920142483611,14.029789893750
$GPGGA,220459.00,3353.7638,N,11931.6930,W,1,10,0.8,10.1,M,-33.9,M,,*60
$PYRTM,2024,122.920154071435,14.029801481574
$GPGGA,220500.00,3353.7635,N,11931.6933,W,1,10,0.8,10.1,M,-33.9,M,,*63
$PYRTM,2024,122.920165631076,14.029813041215
$GPGGA,220501.00,3353.7633,N,11931.6936,W,1,10,0.8,10.1,M,-33.9,M,,*61
$PYRTM,2024,122.920177208889,14.029824619225
$GPGGA,220502.00,3353.7632,N,11931.6940,W,1,10,0.8,10.1,M,-33.9,M,,*62
$PYRTM,2024,122.920188774109,14.029836184259
$GPGGA,220503.00,3353.7630,N,11931.6942,W,1,10,0.8,10.1,M,-33.9,M,,*63
$PYRTM,2024,122.920200356458,14.029847766597
$GPGGA,220504.00,3353.7628,N,11931.6944,W,1,10,0.8,10.1,M,-33.9,M,,*6B
$PYRTM,2024,122.920211922917,14.029859333056
$GPGGA,220505.00,3353.7625,N,11931.6946,W,1,10,0.8,10.2,M,-33.9,M,,*66
$PYRTM,2024,122.920223505116,14.029870915266
$GPGGA,220506.00,3353.7622,N,11931.6948,W,1,10,0.8,10.1,M,-33.9,M,,*6F
$PYRTM,2024,122.920235076169,14.029882486319
$GPGGA,220507.00,3353.7620,N,11931.6952,W,1,10,0.8,10.1,M,-33.9,M,,*67
$PYRTM,2024,122.920242355984,14.029889766123
$GPGGA,220508.00,3353.7619,N,11931.6954,W,1,10,0.8,10.1,M,-33.9,M,,*64
$PYRTM,2024,122.920254168368,14.029901578507
$GPGGA,220509.00,3353.7618,N,11931.6956,W,1,10,0.8,10.1,M,-33.9,M,,*66
$PYRTM,2024,122.920272575417,14.029919985556
$GPGGA,220510.00,3353.7615,N,11931.6958,W,1,10,0.8,10.1,M,-33.9,M,,*6D
$PYRTM,2024,122.920281371817,14.029928781956
$GPGGA,220511.00,3353.7612,N,11931.6962,W,1,10,0.8,10.1,M,-33.9,M,,*62
$PYRTM,2024,122.920292946562,14.029940356701
$GPGGA,220512.00,3353.7609,N,11931.6964,W,1,10,0.8,10.1,M,-33.9,M,,*6D
$PYRTM,2024,122.920300232234,14.029947642373
$GPGGA,220513.00,3353.7608,N,11931.6966,W,1,10,0.8,10.1,M,-33.9,M,,*6F
$PYRTM,2024,122.920316093588,14.029963503727
$GPGGA,220514.00,3353.7606,N,11931.6969,W,1,10,0.8,10.1,M,-33.9,M,,*69
$PYRTM,2024,122.920327672164,14.029975082315
$GPGGA,220515.00,3353.7604,N,11931.6971,W,1,10,0.8,10.1,M,-33.9,M,,*63
$PYRTM,2024,122.920339257396,14.029986667535
$GPGGA,220516.00,3353.7600,N,11931.6974,W,1,10,0.8,10.1,M,-33.9,M,,*61
$PYRTM,2024,122.920350816389,14.029998226528
$GPGGA,220517.00,3353.7598,N,11931.6976,W,1,10,0.8,10.1,M,-33.9,M,,*60
$PYRTM,2024,122.920362404838,14.030009814977
$GPGGA,220518.00,3353.7597,N,11931.6978,W,1,10,0.8,10.1,M,-33.9,M,,*6E
$PYRTM,2024,122.920373965382,14.030021375521
$GPGGA,220519.00,3353.7595,N,11931.6980,W,1,10,0.8,10.1,M,-33.9,M,,*6A
$PYRTM,2024,122.920385540428,14.030032950567
$GPGGA,220520.00,3353.7593,N,11931.6984,W,1,10,0.8,10.1,M,-33.9,M,,*62
$PYRTM,2024,122.920397108021,14.030044518160
$GPGGA,220521.00,3353.7590,N,11931.6986,W,1,10,0.8,10.1,M,-33.9,M,,*62
$PYRTM,2024,122.920408688414,14.030056098553
$GPGGA,220522.00,3353.7589,N,11931.6988,W,1,10,0.8,10.1,M,-33.9,M,,*67
$PYRTM,2024,122.920415979444,14.030063389583
$GPGGA,220523.00,3353.7587,N,11931.6990,W,1,10,0.8,10.1,M,-33.9,M,,*61
$PYRTM,2024,122.920431835359,14.030079245498
$GPGGA,220524.00,3353.7584,N,11931.6993,W,1,10,0.8,10.1,M,-33.9,M,,*66
$PYRTM,2024,122.920443410197,14.030090820336
$GPGGA,220525.00,3353.7581,N,11931.6996,W,1,10,0.8,10.1,M,-33.9,M,,*67
$PYRTM,2024,122.920454986678,14.030102396817
$GPGGA,220526.00,3353.7579,N,11931.6998,W,1,10,0.8,10.1,M,-33.9,M,,*6D
$PYRTM,2024,122.920466558704,14.030113968854
$GPGGA,220527.00,3353.7578,N,11931.7000,W,1,10,0.8,10.1,M,-33.9,M,,*64
$PYRTM,2024,122.920478136458,14.030125546609
$GPGGA,220528.00,3353.7576,N,11931.7002,W,1,10,0.8,10.1,M,-33.9,M,,*67
$PYRTM,2024,122.920489706562,14.030137116701
$GPGGA,220529.00,3353.7573,N,11931.7004,W,1,10,0.8,10.1,M,-33.9,M,,*65
$PYRTM,2024,122.920501294479,14.030148704618
$GPGGA,220530.00,3353.7569,N,11931.7007,W,1,10,0.8,10.1,M,-33.9,M,,*65
$PYRTM,2024,122.920512854120,14.030160264259
$GPGGA,220531.00,3353.7566,N,11931.7010,W,1,10,0.8,10.1,M,-33.9,M,,*6D
$PYRTM,2024,122.920524431100,14.030171841238
$GPGGA,220532.00,3353.7565,N,11931.7013,W,1,10,0.8,10.1,M,-33.9,M,,*6E
$PYRTM,2024,122.920536003796,14.030183413947
$GPGGA,220533.00,3353.7564,N,11931.7015,W,1,10,0.8,10.1,M,-33.9,M,,*68
$PYRTM,2024,122.920547577419,14.030194987558
$GPGGA,220534.00,3353.7562,N,11931.7017,W,1,10,0.8,10.1,M,-33.9,M,,*6B
$PYRTM,2024,122.920554869699,14.030202279838
$GPGGA,220535.00,3353.7558,N,11931.7020,W,1,10,0.8,10.1,M,-33.9,M,,*67
$PYRTM,2024,122.920570726088,14.030218136227
$GPGGA,220536.00,3353.7556,N,11931.7023,W,1,10,0.8,10.0,M,-33.9,M,,*68
$PYRTM,2024,122.920582299838,14.030229709977
$GPGGA,220537.00,3353.7554,N,11931.7025,W,1,10,0.8,10.0,M,-33.9,M,,*6D
$PYRTM,2024,122.920589577523,14.030236987662
$GPGGA,220538.00,3353.7553,N,11931.7027,W,1,10,0.8,10.0,M,-33.9,M,,*67
$PYRTM,2024,122.920605442743,14.030252852882
$GPGGA,220539.00,3353.7551,N,11931.7030,W,1,10,0.8,10.0,M,-33.9,M,,*62
$PYRTM,2024,122.920612726169,14.030260136308
$GPGGA,220540.00,3353.7548,N,11931.7032,W,1,10,0.8,10.0,M,-33.9,M,,*66
$PYRTM,2024,122.920631373090,14.030278783229
$GPGGA,220541.00,3353.7544,N,11931.7034,W,1,10,0.8,10.0,M,-33.9,M,,*6D
$PYRTM,2024,122.920640170000,14.030287580139
$GPGGA,220542.00,3353.7543,N,11931.7037,W,1,10,0.8,10.0,M,-33.9,M,,*6A
$PYRTM,2024,122.920647460995,14.030294871134
$GPGGA,220543.00,3353.7541,N,11931.7040,W,1,10,0.8,10.0,M,-33.9,M,,*69
$PYRTM,2024,122.920663320856,14.030310730995
$GPGGA,220544.00,3353.7540,N,11931.7043,W,1,10,0.8,10.0,M,-33.9,M,,*6C
$PYRTM,2024,122.920674892847,14.030322302986
$GPGGA,220545.00,3353.7537,N,11931.7045,W,1,10,0.8,10.0,M,-33.9,M,,*6B
$PYRTM,2024,122.920686470463,14.030333880602
$GPGGA,220546.00,3353.7534,N,11931.7047,W,1,10,0.8,10.0,M,-33.9,M,,*69
$PYRTM,2024,122.920698040868,14.030345451007
$GPGGA,220547.00,3353.7531,N,11931.7049,W,1,10,0.8,10.0,M,-33.9,M,,*63
$PYRTM,2024,122.920705321134,14.030352731273
$GPGGA,220548.00,3353.7529,N,11931.7052,W,1,10,0.8,10.0,M,-33.9,M,,*6F
$PYRTM,2024,122.920721187836,14.030368597975
$GPGGA,220549.00,3353.7527,N,11931.7055,W,1,10,0.8,10.0,M,-33.9,M,,*67
$PYRTM,2024,122.920732646192,14.030380056331
$GPGGA,220550.00,3353.7526,N,11931.7058,W,1,10,0.8,9.9,M,-33.9,M,,*52
$PYRTM,2024,122.920744221169,14.030391631308
$GPGGA,220551.00,3353.7523,N,11931.7060,W,1,10,0.8,9.9,M,-33.9,M,,*5D
$PYRTM,2024,122.920755806933,14.030403217072
$GPGGA,220552.00,3353.7521,N,11931.7062,W,1,10,0.8,9.9,M,-33.9,M,,*5E
$PYRTM,2024,122.920767369201,14.030414779340
$GPGGA,220553.00,3353.7518,N,11931.7064,W,1,10,0.8,9.9,M,-33.9,M,,*53
$PYRTM,2024,122.920778942731,14.030426352870
$GPGGA,220554.00,3353.7516,N,11931.7067,W,1,10,0.8,9.9,M,-33.9,M,,*59
$PYRTM,2024,122.920790516655,14.030437926794
$GPGGA,220555.00,3353.7514,N,11931.7070,W,1,10,0.8,9.9,M,-33.9,M,,*5C
$PYRTM,2024,122.920802091169,14.030449501308
$GPGGA,220556.00,3353.7513,N,11931.7074,W,1,10,0.8,9.9,M,-33.9,M,,*5C
$PYRTM,2024,122.920813664977,14.030461075116
$GPGGA,220557.00,3353.7510,N,11931.7075,W,1,10,0.8,9.9,M,-33.9,M,,*5F
$PYRTM,2024,122.920825264965,14.030472675104
$GPGGA,220558.00,3353.7507,N,11931.7077,W,1,10,0.8,9.9,M,-33.9,M,,*54
$PYRTM,2024,122.920836813692,14.030484223831
$GPGGA,220559.00,3353.7505,N,11931.7080,W,1,10,0.8,9.9,M,-33.9,M,,*5F
$PYRTM,2024,122.920848394838,14.030495804977
$GPGGA,220600.00,3353.7503,N,11931.7083,W,1,10,0.8,9.9,M,-33.9,M,,*55
$PYRTM,2024,122.920860077454,14.030507487593
$GPGGA,220601.00,3353.7501,N,11931.7086,W,1,10,0.8,9.9,M,-33.9,M,,*53
$PYRTM,2024,122.920871654850,14.030519064988
$GPGGA,220602.00,3353.7499,N,11931.7088,W,1,10,0.8,9.9,M,-33.9,M,,*5E
$PYRTM,2024,122.920878954236,14.030526364375
$GPGGA,220603.00,3353.7496,N,11931.7091,W,1,10,0.8,9.9,M,-33.9,M,,*58
$PYRTM,2024,122.920894799954,14.030542210093
$GPGGA,220604.00,3353.7493,N,11931.7093,W,1,10,0.8,9.9,M,-33.9,M,,*58
$PYRTM,2024,122.920902093808,14.030549503947
$GPGGA,220605.00,3353.7491,N,11931.7096,W,1,10,0.8,9.9,M,-33.9,M,,*5E
$PYRTM,2024,122.920913883785,14.030561293924
$GPGGA,220606.00,3353.7490,N,11931.7099,W,1,10,0.8,9.9,M,-33.9,M,,*53
$PYRTM,2024,122.920929521308,14.030576931447
$GPGGA,220607.00,3353.7488,N,11931.7101,W,1,10,0.8,9.9,M,-33.9,M,,*5B
$PYRTM,2024,122.920940979954,14.030588390093
$GPGGA,220608.00,3353.7486,N,11931.7104,W,1,10,0.8,9.9,M,-33.9,M,,*5F
$PYRTM,2024,122.920952555428,14.030599965567
$GPGGA,220609.00,3353.7483,N,11931.7106,W,1,10,0.8,9.9,M,-33.9,M,,*59
$PYRTM,2024,122.920964127350,14.030611537488
$GPGGA,220610.00,3353.7481,N,11931.7109,W,1,10,0.8,9.9,M,-33.9,M,,*5C
$PYRTM,2024,122.920971536377,14.030618946516
$GPGGA,220611.00,3353.7479,N,11931.7111,W,1,10,0.8,9.9,M,-33.9,M,,*53
$PYRTM,2024,122.920990169942,14.030637580081
$GPGGA,220612.00,3353.7477,N,11931.7114,W,1,10,0.8,9.9,M,-33.9,M,,*5B
$PYRTM,2024,122.920998852454,14.030646262593
$GPGGA,220613.00,3353.7475,N,11931.7117,W,1,10,0.8,9.9,M,-33.9,M,,*5B
$PYRTM,2024,122.921010433542,14.030657843681
$GPGGA,220614.00,3353.7473,N,11931.7119,W,1,10,0.8,9.9,M,-33.9,M,,*54
$PYRTM,2024,122.921021999896,14.030669410035
$GPGGA,220615.00,3353.7470,N,11931.7121,W,1,10,0.8,9.9,M,-33.9,M,,*5D
$PYRTM,2024,122.921029393715,14.030676803854
$GPGGA,220616.00,3353.7467,N,11931.7124,W,1,10,0.8,9.9,M,-33.9,M,,*5D
$PYRTM,2024,122.921045148252,14.030692558391
$GPGGA,220617.00,3353.7465,N,11931.7128,W,1,10,0.8,9.9,M,-33.9,M,,*52
$PYRTM,2024,122.921056722951,14.030704133090
$GPGGA,220618.00,3353.7464,N,11931.7130,W,1,10,0.8,9.9,M,-33.9,M,,*55
$PYRTM,2024,122.921068294931,14.030715705069
$GPGGA,220619.00,3353.7462,N,11931.7132,W,1,10,0.8,9.9,M,-33.9,M,,*50
$PYRTM,2024,122.921079880799,14.030727290938
$GPGGA,220620.00,3353.7459,N,11931.7133,W,1,10,0.8,9.9,M,-33.9,M,,*53
$PYRTM,2024,122.921091439051,14.030738849190
$GPGGA,220621.00,3353.7456,N,11931.7136,W,1,10,0.8,9.9,M,-33.9,M,,*58
$PYRTM,2024,122.921103017627,14.030750427766
$GPGGA,220622.00,3353.7453,N,11931.7139,W,1,10,0.8,9.9,M,-33.9,M,,*51
$PYRTM,2024,122.921110418819,14.030757828970
$GPGGA,220623.00,3353.7452,N,11931.7142,W,1,10,0.8,9.9,M,-33.9,M,,*5D
$PYRTM,2024,122.921126177905,14.030773588044
$GPGGA,220624.00,3353.7451,N,11931.7144,W,1,10,0.8,9.9,M,-33.9,M,,*5F
$PYRTM,2024,122.921137740532,14.030785150671
$GPGGA,220625.00,3353.7449,N,11931.7146,W,1,10,0.8,9.9,M,-33.9,M,,*55
$PYRTM,2024,122.921145134907,14.030792545046
$GPGGA,220626.00,3353.7445,N,11931.7149,W,1,10,0.8,9.9,M,-33.9,M,,*55
$PYRTM,2024,122.921160888588,14.030808298727
$GPGGA,220627.00,3353.7443,N,11931.7152,W,1,10,0.8,9.9,M,-33.9,M,,*58
$PYRTM,2024,122.921172469884,14.030819880023
$GPGGA,220628.00,3353.7442,N,11931.7154,W,1,10,0.8,9.9,M,-33.9,M,,*50
$PYRTM,2024,122.921184037697,14.030831447836
$GPGGA,220629.00,3353.7441,N,11931.7157,W,1,10,0.8,9.9,M,-33.9,M,,*51
$PYRTM,2024,122.921195618252,14.030843028391
$GPGGA,220630.00,3353.7439,N,11931.7160,W,1,10,0.8,9.9,M,-33.9,M,,*52
$PYRTM,2024,122.921207184630,14.030854594769
$GPGGA,220631.00,3353.7435,N,11931.7161,W,1,10,0.8,9.9,M,-33.9,M,,*5E
$PYRTM,2024,122.921218757975,14.030866168113
$GPGGA,220632.00,3353.7432,N,11931.7163,W,1,10,0.8,9.9,M,-33.9,M,,*58
$PYRTM,2024,122.921230332650,14.030877742801
$GPGGA,220633.00,3353.7430,N,11931.7167,W,1,10,0.8,9.9,M,-33.9,M,,*5F
$PYRTM,2024,122.921241906817,14.030889316956
$GPGGA,220634.00,3353.7429,N,11931.7170,W,1,10,0.8,9.9,M,-33.9,M,,*56
$PYRTM,2024,122.921253481053,14.030900891204
$GPGGA,220635.00,3353.7428,N,11931.7171,W,1,10,0.8,9.9,M,-33.9,M,,*57
$PYRTM,2024,122.921260875556,14.030908285694
$GPGGA,220636.00,3353.7425,N,11931.7173,W,1,10,0.8,9.9,M,-33.9,M,,*5B
$PYRTM,2024,122.921276625289,14.030924035428
$GPGGA,220637.00,3353.7421,N,11931.7176,W,1,10,0.8,9.9,M,-33.9,M,,*5B
$PYRTM,2024,122.921288203206,14.030935613356
$GPGGA,220638.00,3353.7417,N,11931.7180,W,1,10,0.8,9.9,M,-33.9,M,,*58
$PYRTM,2024,122.921299777465,14.030947187604
$GPGGA,220639.00,3353.7417,N,11931.7182,W,1,10,0.8,9.9,M,-33.9,M,,*5B
$PYRTM,2024,122.921311359062,14.030958769201
$GPGGA,220640.00,3353.7417,N,11931.7184,W,1,10,0.8,9.9,M,-33.9,M,,*53
$PYRTM,2024,122.921322925463,14.030970335602
$GPGGA,220641.00,3353.7414,N,11931.7186,W,1,10,0.8,9.9,M,-33.9,M,,*53
$PYRTM,2024,122.921330322187,14.030977732326
$GPGGA,220642.00,3353.7410,N,11931.7189,W,1,10,0.8,9.9,M,-33.9,M,,*5B
$PYRTM,2024,122.921348967859,14.030996377998
$GPGGA,220643.00,3353.7407,N,11931.7190,W,1,10,0.8,9.9,M,-33.9,M,,*54
$PYRTM,2024,122.921357758947,14.031005169086
$GPGGA,220644.00,3353.7406,N,11931.7193,W,1,10,0.8,10.0,M,-33.9,M,,*60
$PYRTM,2024,122.921369338148,14.031016748299
$GPGGA,220645.00,3353.7406,N,11931.7195,W,1,10,0.8,10.0,M,-33.9,M,,*67
$PYRTM,2024,122.921376615266,14.031024025405
$GPGGA,220646.00,3353.7404,N,11931.7198,W,1,10,0.8,10.0,M,-33.9,M,,*6B
$PYRTM,2024,122.921392494491,14.031039904630
$GPGGA,220647.00,3353.7401,N,11931.7200,W,1,10,0.8,10.0,M,-33.9,M,,*6D
$PYRTM,2024,122.921403955058,14.031051365197
$GPGGA,220648.00,3353.7397,N,11931.7203,W,1,10,0.8,9.9,M,-33.9,M,,*58
$PYRTM,2024,122.921411353634,14.031058763773
$GPGGA,220649.00,3353.7395,N,11931.7205,W,1,10,0.8,9.9,M,-33.9,M,,*5D
$PYRTM,2024,122.921427103588,14.031074513715
$GPGGA,220650.00,3353.7395,N,11931.7208,W,1,10,0.8,9.9,M,-33.9,M,,*58
$PYRTM,2024,122.921438666528,14.031086076667
$GPGGA,220651.00,3353.7394,N,11931.7211,W,1,10,0.8,9.9,M,-33.9,M,,*50
$PYRTM,2024,122.921450251412,14.031097661551
$GPGGA,220652.00,3353.7390,N,11931.7214,W,1,10,0.8,9.9,M,-33.9,M,,*52
$PYRTM,2024,122.921461814387,14.031109224525
$GPGGA,220653.00,3353.7386,N,11931.7215,W,1,10,0.8,9.9,M,-33.9,M,,*55
$PYRTM,2024,122.921469211227,14.031116621366
$GPGGA,220654.00,3353.7383,N,11931.7218,W,1,10,0.8,9.9,M,-33.9,M,,*5A
$PYRTM,2024,122.921484964201,14.031132374340
$GPGGA,220655.00,3353.7383,N,11931.7221,W,1,10,0.8,9.9,M,-33.9,M,,*51
$PYRTM,2024,122.921496524433,14.031143934572
$GPGGA,220656.00,3353.7383,N,11931.7223,W,1,10,0.8,9.9,M,-33.9,M,,*50
$PYRTM,2024,122.921508106574,14.031155516713
$GPGGA,220657.00,3353.7380,N,11931.7225,W,1,10,0.8,9.9,M,-33.9,M,,*54
$PYRTM,2024,122.921519672106,14.031167082245
$GPGGA,220658.00,3353.7376,N,11931.7227,W,1,10,0.8,9.9,M,-33.9,M,,*50
$PYRTM,2024,122.921531259248,14.031178669387
$GPGGA,220659.00,3353.7373,N,11931.7229,W,1,10,0.8,9.9,M,-33.9,M,,*5A
$PYRTM,2024,122.921542820949,14.031190231088
$GPGGA,220700.00,3353.7373,N,11931.7232,W,1,10,0.8,9.9,M,-33.9,M,,*5D
$PYRTM,2024,122.921554408356,14.031201818495
$GPGGA,220701.00,3353.7373,N,11931.7236,W,1,10,0.8,9.9,M,-33.9,M,,*58
$PYRTM,2024,122.921565970069,14.031213380208
$GPGGA,220702.00,3353.7370,N,11931.7239,W,1,10,0.8,9.9,M,-33.9,M,,*57
$PYRTM,2024,122.921577560243,14.031224970382
$GPGGA,220703.00,3353.7366,N,11931.7240,W,1,10,0.8,9.9,M,-33.9,M,,*5F
$PYRTM,2024,122.921584950428,14.031232360567
$GPGGA,220704.00,3353.7362,N,11931.7240,W,1,10,0.8,9.9,M,-33.9,M,,*5C
$PYRTM,2024,122.921600705127,14.031248115266
$GPGGA,220705.00,3353.7360,N,11931.7244,W,1,10,0.8,9.9,M,-33.9,M,,*5B
$PYRTM,2024,122.921612265231,14.031259675370
$GPGGA,220706.00,3353.7359,N,11931.7248,W,1,10,0.8,9.9,M,-33.9,M,,*5E
$PYRTM,2024,122.921623847593,14.031271257731
$GPGGA,220707.00,3353.7359,N,11931.7252,W,1,10,0.8,9.9,M,-33.9,M,,*54
$PYRTM,2024,122.921635413438,14.031282823576
$GPGGA,220708.00,3353.7356,N,11931.7252,W,1,10,0.8,9.9,M,-33.9,M,,*54
$PYRTM,2024,122.921647004225,14.031294414375
$GPGGA,220709.00,3353.7352,N,11931.7253,W,1,10,0.8,9.9,M,-33.9,M,,*50
$PYRTM,2024,122.921658563125,14.031305973264
$GPGGA,220710.00,3353.7348,N,11931.7256,W,1,10,0.8,9.9,M,-33.9,M,,*56
$PYRTM,2024,122.921670149086,14.031317559225
$GPGGA,220711.00,3353.7347,N,11931.7259,W,1,10,0.8,9.9,M,-33.9,M,,*57
$PYRTM,2024,122.921681712604,14.031329122755
$GPGGA,220712.00,3353.7347,N,11931.7262,W,1,10,0.8,9.9,M,-33.9,M,,*5C
$PYRTM,2024,122.921689117326,14.031336527465
$GPGGA,220713.00,3353.7346,N,11931.7264,W,1,10,0.8,9.9,M,-33.9,M,,*5A
$PYRTM,2024,122.921707790127,14.031355200266
$GPGGA,220714.00,3353.7343,N,11931.7265,W,1,10,0.8,9.9,M,-33.9,M,,*59
$PYRTM,2024,122.921716444873,14.031363855023
$GPGGA,220715.00,3353.7338,N,11931.7267,W,1,10,0.8,9.9,M,-33.9,M,,*56
$PYRTM,2024,122.921728005938,14.031375416076
$GPGGA,220716.00,3353.7336,N,11931.7270,W,1,10,0.8,9.9,M,-33.9,M,,*5D
$PYRTM,2024,122.921739607396,14.031387017535
$GPGGA,220717.00,3353.7335,N,11931.7274,W,1,10,0.8,9.9,M,-33.9,M,,*5B
$PYRTM,2024,122.921751154884,14.031398565023
$GPGGA,220718.00,3353.7334,N,11931.7276,W,1,10,0.8,9.9,M,-33.9,M,,*57
$PYRTM,2024,122.921762744977,14.031410155127
$GPGGA,220719.00,3353.7332,N,11931.7278,W,1,10,0.8,9.9,M,-33.9,M,,*5E
$PYRTM,2024,122.921774304282,14.031421714421
$GPGGA,220720.00,3353.7328,N,11931.7279,W,1,10,0.8,9.9,M,-33.9,M,,*5E
$PYRTM,2024,122.921785890336,14.031433300475
$GPGGA,220721.00,3353.7324,N,11931.7282,W,1,10,0.8,9.8,M,-33.9,M,,*56
$PYRTM,2024,122.921797451157,14.031444861296
$GPGGA,220722.00,3353.7322,N,11931.7287,W,1,10,0.8,9.8,M,-33.9,M,,*56
$PYRTM,2024,122.921809038275,14.031456448414
$GPGGA,220723.00,3353.7322,N,11931.7289,W,1,10,0.8,9.8,M,-33.9,M,,*59
$PYRTM,2024,122.921820599722,14.031468009861
$GPGGA,220724.00,3353.7321,N,11931.7290,W,1,10,0.8,9.8,M,-33.9,M,,*55
$PYRTM,2024,122.921832186979,14.031479597118
$GPGGA,220725.00,3353.7318,N,11931.7291,W,1,10,0.8,9.8,M,-33.9,M,,*5F
$PYRTM,2024,122.921843747546,14.031491157685
$GPGGA,220726.00,3353.7314,N,11931.7294,W,1,10,0.8,9.8,M,-33.9,M,,*55
$PYRTM,2024,122.921855334259,14.031502744398
$GPGGA,220727.00,3353.7311,N,11931.7296,W,1,10,0.8,9.8,M,-33.9,M,,*53
$PYRTM,2024,122.921866897639,14.031514307778
$GPGGA,220728.00,3353.7310,N,11931.7298,W,1,10,0.8,9.9,M,-33.9,M,,*52
$PYRTM,2024,122.921874303588,14.031521713727
$GPGGA,220729.00,3353.7309,N,11931.7301,W,1,10,0.8,9.9,M,-33.9,M,,*5A
$PYRTM,2024,122.921890043032,14.031537453171
$GPGGA,220730.00,3353.7307,N,11931.7304,W,1,10,0.8,9.9,M,-33.9,M,,*59
$PYRTM,2024,122.921901633935,14.031549044074
$GPGGA,220731.00,3353.7302,N,11931.7305,W,1,10,0.8,9.9,M,-33.9,M,,*5C
$PYRTM,2024,122.921913192176,14.031560602315
$GPGGA,220732.00,3353.7299,N,11931.7307,W,1,10,0.8,9.9,M,-33.9,M,,*5E
$PYRTM,2024,122.921924782222,14.031572192361
$GPGGA,220733.00,3353.7298,N,11931.7310,W,1,10,0.8,9.9,M,-33.9,M,,*58
$PYRTM,2024,122.921936340637,14.031583750775
$GPGGA,220734.00,3353.7297,N,11931.7313,W,1,10,0.8,9.9,M,-33.9,M,,*53
$PYRTM,2024,122.921947922940,14.031595333079
$GPGGA,220735.00,3353.7295,N,11931.7315,W,1,10,0.8,9.9,M,-33.9,M,,*56
$PYRTM,2024,122.921959616956,14.031607027083
$GPGGA,220736.00,3353.7291,N,11931.7317,W,1,10,0.8,10.0,M,-33.9,M,,*62
$PYRTM,2024,122.921971075775,14.031618485914
$GPGGA,220737.00,3353.7287,N,11931.7319,W,1,10,0.8,9.9,M,-33.9,M,,*5B
$PYRTM,2024,122.921982636713,14.031630046863
$GPGGA,220738.00,3353.7286,N,11931.7321,W,1,10,0.8,9.9,M,-33.9,M,,*5E
$PYRTM,2024,122.921990043947,14.031637454086
$GPGGA,220739.00,3353.7285,N,11931.7323,W,1,10,0.8,9.9,M,-33.9,M,,*5E
$PYRTM,2024,122.922005783866,14.031653194005
$GPGGA,220740.00,3353.7283,N,11931.7326,W,1,10,0.8,9.9,M,-33.9,M,,*53
$PYRTM,2024,122.922017367859,14.031664777998
$GPGGA,220741.00,3353.7280,N,11931.7328,W,1,10,0.8,9.9,M,-33.9,M,,*5F
$PYRTM,2024,122.922028933032,14.031676343171
$GPGGA,220742.00,3353.7276,N,11931.7329,W,1,10,0.8,9.9,M,-33.9,M,,*54
$PYRTM,2024,122.922040522153,14.031687932292
$GPGGA,220743.00,3353.7274,N,11931.7332,W,1,10,0.8,9.9,M,-33.9,M,,*5D
$PYRTM,2024,122.922047915880,14.031695326019
$GPGGA,220744.00,3353.7273,N,11931.7335,W,1,10,0.8,9.9,M,-33.9,M,,*5A
$PYRTM,2024,122.922066556563,14.031713966713
$GPGGA,220745.00,3353.7272,N,11931.7337,W,1,10,0.8,9.9,M,-33.9,M,,*58
$PYRTM,2024,122.922075229792,14.031722639931
$GPGGA,220746.00,3353.7268,N,11931.7338,W,1,10,0.8,9.9,M,-33.9,M,,*5F
$PYRTM,2024,122.922086819711,14.031734229850
$GPGGA,220747.00,3353.7264,N,11931.7340,W,1,10,0.8,9.9,M,-33.9,M,,*5D
$PYRTM,2024,122.922098377072,14.031745787211
$GPGGA,220748.00,3353.7262,N,11931.7344,W,1,10,0.8,9.8,M,-33.9,M,,*51
$PYRTM,2024,122.922105786134,14.031753196285
$GPGGA,220749.00,3353.7261,N,11931.7347,W,1,10,0.8,9.8,M,-33.9,M,,*50
$PYRTM,2024,122.922121525394,14.031768935532
$GPGGA,220750.00,3353.7261,N,11931.7348,W,1,10,0.8,9.8,M,-33.9,M,,*57
$PYRTM,2024,122.922133112778,14.031780522917
$GPGGA,220751.00,3353.7258,N,11931.7348,W,1,10,0.8,9.8,M,-33.9,M,,*5C
$PYRTM,2024,122.922140521574,14.031787931713
$GPGGA,220752.00,3353.7254,N,11931.7351,W,1,10,0.8,9.8,M,-33.9,M,,*5B
$PYRTM,2024,122.922156264421,14.031803674560
$GPGGA,220753.00,3353.7250,N,11931.7354,W,1,10,0.8,9.8,M,-33.9,M,,*5B
$PYRTM,2024,122.922167824722,14.031815234861
$GPGGA,220754.00,3353.7248,N,11931.7356,W,1,10,0.8,9.8,M,-33.9,M,,*57
$PYRTM,2024,122.922179405035,14.031826815174
$GPGGA,220755.00,3353.7248,N,11931.7358,W,1,10,0.8,9.8,M,-33.9,M,,*58
$PYRTM,2024,122.922190971574,14.031838381713
$GPGGA,220756.00,3353.7245,N,11931.7360,W,1,10,0.8,9.8,M,-33.9,M,,*5D
$PYRTM,2024,122.922202558796,14.031849968947
$GPGGA,220757.00,3353.7242,N,11931.7362,W,1,10,0.8,9.8,M,-33.9,M,,*59
$PYRTM,2024,122.922214120312,14.031861530463
$GPGGA,220758.00,3353.7238,N,11931.7363,W,1,10,0.8,9.7,M,-33.9,M,,*55
$PYRTM,2024,122.922225720359,14.031873130498
$GPGGA,220759.00,3353.7236,N,11931.7365,W,1,10,0.8,9.7,M,-33.9,M,,*5C
$PYRTM,2024,122.922237267118,14.031884677257
$GPGGA,220800.00,3353.7235,N,11931.7368,W,1,10,0.8,9.7,M,-33.9,M,,*51
$PYRTM,2024,122.922248867558,14.031896277697
$GPGGA,220801.00,3353.7233,N,11931.7371,W,1,10,0.8,9.7,M,-33.9,M,,*5E
$PYRTM,2024,122.922260413819,14.031907823958
$GPGGA,220802.00,3353.7230,N,11931.7372,W,1,10,0.8,9.7,M,-33.9,M,,*5D
$PYRTM,2024,122.922272002292,14.031919412431
$GPGGA,220803.00,3353.7227,N,11931.7373,W,1,10,0.8,9.7,M,-33.9,M,,*5B
$PYRTM,2024,122.922279410058,14.031926820197
$GPGGA,220804.00,3353.7224,N,11931.7375,W,1,10,0.8,9.7,M,-33.9,M,,*59
$PYRTM,2024,122.922295152639,14.031942562778
$GPGGA,220805.00,3353.7222,N,11931.7378,W,1,10,0.8,9.7,M,-33.9,M,,*53
$PYRTM,2024,122.922306712512,14.031954122650
$GPGGA,220806.00,3353.7221,N,11931.7380,W,1,10,0.8,9.7,M,-33.9,M,,*54
$PYRTM,2024,122.922318413877,14.031965824016
$GPGGA,220807.00,3353.7219,N,11931.7382,W,1,10,0.8,9.7,M,-33.9,M,,*5C
$PYRTM,2024,122.922329975625,14.031977385764
$GPGGA,220808.00,3353.7216,N,11931.7384,W,1,10,0.8,9.7,M,-33.9,M,,*5A
$PYRTM,2024,122.922341563137,14.031988973275
$GPGGA,220809.00,3353.7212,N,11931.7385,W,1,10,0.8,9.7,M,-33.9,M,,*5E
$PYRTM,2024,122.922353123380,14.032000533519
$GPGGA,220810.00,3353.7211,N,11931.7386,W,1,10,0.8,9.7,M,-33.9,M,,*56
$PYRTM,2024,122.922364711609,14.032012121748
$GPGGA,220811.00,3353.7211,N,11931.7388,W,1,10,0.8,9.7,M,-33.9,M,,*59
$PYRTM,2024,122.922376156076,14.032023566215
$GPGGA,220812.00,3353.7208,N,11931.7391,W,1,10,0.8,9.7,M,-33.9,M,,*5A
$PYRTM,2024,122.922387740428,14.032035150567
$GPGGA,220813.00,3353.7204,N,11931.7392,W,1,10,0.8,9.7,M,-33.9,M,,*54
$PYRTM,2024,122.922399305312,14.032046715451
$GPGGA,220814.00,3353.7201,N,11931.7393,W,1,10,0.8,9.7,M,-33.9,M,,*57
$PYRTM,2024,122.922410894780,14.032058304919
$GPGGA,220815.00,3353.7200,N,11931.7394,W,1,10,0.8,9.7,M,-33.9,M,,*50
$PYRTM,2024,122.922418286400,14.032065696539
$GPGGA,220816.00,3353.7198,N,11931.7397,W,1,10,0.8,9.7,M,-33.9,M,,*52
$PYRTM,2024,122.922436938542,14.032084348681
$GPGGA,220817.00,3353.7196,N,11931.7399,W,1,10,0.8,9.6,M,-33.9,M,,*52
$PYRTM,2024,122.922445601354,14.032093011493
$GPGGA,220818.00,3353.7192,N,11931.7400,W,1,10,0.8,9.6,M,-33.9,M,,*5E
$PYRTM,2024,122.922453008264,14.032100418414
$GPGGA,220819.00,3353.7189,N,11931.7402,W,1,10,0.8,9.6,M,-33.9,M,,*57
$PYRTM,2024,122.922468749259,14.032116159410
$GPGGA,220820.00,3353.7188,N,11931.7403,W,1,10,0.8,9.6,M,-33.9,M,,*5D
$PYRTM,2024,122.922480336100,14.032127746238
$GPGGA,220821.00,3353.7187,N,11931.7405,W,1,10,0.8,9.6,M,-33.9,M,,*55
$PYRTM,2024,122.922491898368,14.032139308507
$GPGGA,220822.00,3353.7186,N,11931.7407,W,1,10,0.8,9.6,M,-33.9,M,,*55
$PYRTM,2024,122.922503485567,14.032150895718
$GPGGA,220823.00,3353.7183,N,11931.7409,W,1,10,0.8,9.6,M,-33.9,M,,*5F
$PYRTM,2024,122.922515046690,14.032162456829
$GPGGA,220824.00,3353.7179,N,11931.7410,W,1,10,0.8,9.6,M,-33.9,M,,*55
$PYRTM,2024,122.922526631748,14.032174041887
$GPGGA,220825.00,3353.7177,N,11931.7410,W,1,10,0.8,9.6,M,-33.9,M,,*5A
$PYRTM,2024,122.922538193322,14.032185603461
$GPGGA,220826.00,3353.7176,N,11931.7411,W,1,10,0.8,9.6,M,-33.9,M,,*59
$PYRTM,2024,122.922549784236,14.032197194387
$GPGGA,220827.00,3353.7174,N,11931.7414,W,1,10,0.8,9.6,M,-33.9,M,,*5F
$PYRTM,2024,122.922561343229,14.032208753380
$GPGGA,220828.00,3353.7172,N,11931.7416,W,1,10,0.8,9.5,M,-33.9,M,,*57
$PYRTM,2024,122.922572932361,14.032220342500
$GPGGA,220829.00,3353.7168,N,11931.7417,W,1,10,0.8,9.5,M,-33.9,M,,*5C
$PYRTM,2024,122.922584491227,14.032231901366
$GPGGA,220830.00,3353.7166,N,11931.7417,W,1,10,0.8,9.5,M,-33.9,M,,*5A
$PYRTM,2024,122.922596071887,14.032243482025
$GPGGA,220831.00,3353.7164,N,11931.7418,W,1,10,0.8,9.5,M,-33.9,M,,*56
$PYRTM,2024,122.922607638032,14.032255048183
$GPGGA,220832.00,3353.7161,N,11931.7421,W,1,10,0.8,9.5,M,-33.9,M,,*5A
$PYRTM,2024,122.922619225579,14.032266635718
$GPGGA,220833.00,3353.7160,N,11931.7423,W,1,10,0.8,9.5,M,-33.9,M,,*58
$PYRTM,2024,122.922626634421,14.032274044560
$GPGGA,220834.00,3353.7158,N,11931.7424,W,1,10,0.8,9.5,M,-33.9,M,,*53
$PYRTM,2024,122.922642373692,14.032289783831
$GPGGA,220835.00,3353.7156,N,11931.7424,W,1,10,0.8,9.5,M,-33.9,M,,*5C
$PYRTM,2024,122.922653935081,14.032301345220
$GPGGA,220836.00,3353.7154,N,11931.7425,W,1,10,0.8,9.5,M,-33.9,M,,*5C
$PYRTM,2024,122.922665515926,14.032312926065
$GPGGA,220837.00,3353.7152,N,11931.7427,W,1,10,0.8,9.5,M,-33.9,M,,*59
$PYRTM,2024,122.922677081771,14.032324491910
