$PYRTM,2024,124.583337129109,15.692984539248
$GPGGA,135959.00,3531.5435,N,12125.6914,W,1,10,1.0,9.5,M,-31.5,M,,*56
$PYRTM,2024,124.583348721169,15.692996131308
$GPGGA,140000.00,3531.5426,N,12125.6889,W,1,10,1.0,9.5,M,-31.5,M,,*56
$PYRTM,2024,124.583360281528,15.693007691667
$GPGGA,140001.00,3531.5418,N,12125.6864,W,1,10,1.0,9.8,M,-31.5,M,,*54
$PYRTM,2024,124.583371855914,15.693019266053
$GPGGA,140002.00,3531.5411,N,12125.6839,W,1,10,1.0,10.0,M,-31.5,M,,*66
$PYRTM,2024,124.583383428634,15.693030838773
$GPGGA,140003.00,3531.5405,N,12125.6811,W,1,10,1.0,10.0,M,-31.5,M,,*68
$PYRTM,2024,124.583390825266,15.693038235405
$GPGGA,140004.00,3531.5397,N,12125.6785,W,1,10,1.0,10.1,M,-31.5,M,,*60
$PYRTM,2024,124.583406572789,15.693053982928
$GPGGA,140005.00,3531.5389,N,12125.6759,W,1,10,1.0,10.0,M,-31.5,M,,*6E
$PYRTM,2024,124.583418152512,15.693065562650
$GPGGA,140006.00,3531.5382,N,12125.6734,W,1,10,1.0,9.9,M,-31.5,M,,*5C
$PYRTM,2024,124.583425438611,15.693072848750
$GPGGA,140007.00,3531.5375,N,12125.6707,W,1,10,1.0,9.7,M,-31.5,M,,*5B
$PYRTM,2024,124.583441315081,15.693088725220
$GPGGA,140008.00,3531.5369,N,12125.6680,W,1,10,1.0,9.8,M,-31.5,M,,*58
$PYRTM,2024,124.583452874051,15.693100284190
$GPGGA,140009.00,3531.5362,N,12125.6654,W,1,10,1.0,10.0,M,-31.5,M,,*6B
$PYRTM,2024,124.583464462037,15.693111872176
$GPGGA,140010.00,3531.5353,N,12125.6628,W,1,10,1.0,10.3,M,-31.5,M,,*69
$PYRTM,2024,124.583476022176,15.693123432315
$GPGGA,140011.00,3531.5344,N,12125.6604,W,1,10,1.0,10.3,M,-31.5,M,,*60
$PYRTM,2024,124.583487595984,15.693135006123
$GPGGA,140012.00,3531.5336,N,12125.6579,W,1,10,1.0,10.1,M,-31.5,M,,*6D
$PYRTM,2024,124.583499171065,15.693146581204
$GPGGA,140013.00,3531.5330,N,12125.6552,W,1,10,1.0,9.8,M,-31.5,M,,*52
$PYRTM,2024,124.583506449444,15.693153859583
$GPGGA,140014.00,3531.5325,N,12125.6524,W,1,10,1.0,9.6,M,-31.5,M,,*5E
$PYRTM,2024,124.583518256053,15.693165666192
$GPGGA,140015.00,3531.5319,N,12125.6498,W,1,10,1.0,9.6,M,-31.5,M,,*56
$PYRTM,2024,124.583536790162,15.693184200301
$GPGGA,140016.00,3531.5310,N,12125.6473,W,1,10,1.0,9.9,M,-31.5,M,,*56
$PYRTM,2024,124.583548347350,15.693195757488
$GPGGA,140017.00,3531.5301,N,12125.6448,W,1,10,1.0,10.1,M,-31.5,M,,*6F
$PYRTM,2024,124.583559934271,15.693207344410
$GPGGA,140018.00,3531.5293,N,12125.6421,W,1,10,1.0,10.2,M,-31.5,M,,*66
$PYRTM,2024,124.583568616088,15.693216026227
$GPGGA,140019.00,3531.5286,N,12125.6395,W,1,10,1.0,10.1,M,-31.5,M,,*68
$PYRTM,2024,124.583580205231,15.693227615359
$GPGGA,140020.00,3531.5280,N,12125.6368,W,1,10,1.0,10.0,M,-31.5,M,,*67
$PYRTM,2024,124.583591762431,15.693239172569
$GPGGA,140021.00,3531.5273,N,12125.6342,W,1,10,1.0,9.9,M,-31.5,M,,*53
$PYRTM,2024,124.583603336725,15.693250746863
$GPGGA,140022.00,3531.5265,N,12125.6316,W,1,10,1.0,9.7,M,-31.5,M,,*58
$PYRTM,2024,124.583614906667,15.693262316806
$GPGGA,140023.00,3531.5258,N,12125.6289,W,1,10,1.0,9.6,M,-31.5,M,,*51
$PYRTM,2024,124.583626485729,15.693273895868
$GPGGA,140024.00,3531.5252,N,12125.6263,W,1,10,1.0,9.7,M,-31.5,M,,*59
$PYRTM,2024,124.583638059884,15.693285470023
$GPGGA,140025.00,3531.5246,N,12125.6236,W,1,10,1.0,10.1,M,-31.5,M,,*63
$PYRTM,2024,124.583649631227,15.693297041366
$GPGGA,140026.00,3531.5238,N,12125.6211,W,1,10,1.0,10.3,M,-31.5,M,,*6E
$PYRTM,2024,124.583661207789,15.693308617928
$GPGGA,140027.00,3531.5230,N,12125.6185,W,1,10,1.0,10.3,M,-31.5,M,,*69
$PYRTM,2024,124.583672783102,15.693320193252
$GPGGA,140028.00,3531.5222,N,12125.6159,W,1,10,1.0,10.0,M,-31.5,M,,*67
$PYRTM,2024,124.583680177812,15.693327587951
$GPGGA,140029.00,3531.5215,N,12125.6132,W,1,10,1.0,10.0,M,-31.5,M,,*6F
$PYRTM,2024,124.583695933611,15.693343343750
$GPGGA,140030.00,3531.5209,N,12125.6105,W,1,10,1.0,10.0,M,-31.5,M,,*6E
$PYRTM,2024,124.583707499734,15.693354909873
$GPGGA,140031.00,3531.5202,N,12125.6078,W,1,10,1.0,10.1,M,-31.5,M,,*6E
$PYRTM,2024,124.583714900069,15.693362310220
$GPGGA,140032.00,3531.5195,N,12125.6051,W,1,10,1.0,10.2,M,-31.5,M,,*68
$PYRTM,2024,124.583730652685,15.693378062824
$GPGGA,140033.00,3531.5188,N,12125.6025,W,1,10,1.0,10.1,M,-31.5,M,,*65
$PYRTM,2024,124.583742231481,15.693389641620
$GPGGA,140034.00,3531.5182,N,12125.5998,W,1,10,1.0,10.1,M,-31.5,M,,*64
$PYRTM,2024,124.583753796238,15.693401206377
$GPGGA,140035.00,3531.5175,N,12125.5972,W,1,10,1.0,10.1,M,-31.5,M,,*69
$PYRTM,2024,124.583765379155,15.693412789306
$GPGGA,140036.00,3531.5168,N,12125.5946,W,1,10,1.0,10.0,M,-31.5,M,,*60
$PYRTM,2024,124.583776949583,15.693424359722
$GPGGA,140037.00,3531.5161,N,12125.5920,W,1,10,1.0,9.7,M,-31.5,M,,*57
$PYRTM,2024,124.583788524201,15.693435934340
$GPGGA,140038.00,3531.5153,N,12125.5895,W,1,10,1.0,9.5,M,-31.5,M,,*54
$PYRTM,2024,124.583800098333,15.693447508472
$GPGGA,140039.00,3531.5146,N,12125.5869,W,1,10,1.0,9.3,M,-31.5,M,,*54
$PYRTM,2024,124.583811672789,15.693459082928
$GPGGA,140040.00,3531.5139,N,12125.5842,W,1,10,1.0,9.4,M,-31.5,M,,*5C
$PYRTM,2024,124.583823247095,15.693470657245
$GPGGA,140041.00,3531.5133,N,12125.5815,W,1,10,1.0,9.4,M,-31.5,M,,*55
$PYRTM,2024,124.583834821389,15.693482231528
$GPGGA,140042.00,3531.5126,N,12125.5787,W,1,10,1.0,9.7,M,-31.5,M,,*55
$PYRTM,2024,124.583842111366,15.693489521505
$GPGGA,140043.00,3531.5118,N,12125.5760,W,1,10,1.0,10.0,M,-31.5,M,,*6F
$PYRTM,2024,124.583853903692,15.693501313831
$GPGGA,140044.00,3531.5110,N,12125.5734,W,1,10,1.0,10.1,M,-31.5,M,,*60
$PYRTM,2024,124.583869538692,15.693516948831
$GPGGA,140045.00,3531.5102,N,12125.5707,W,1,10,1.0,10.0,M,-31.5,M,,*63
$PYRTM,2024,124.583876822639,15.693524232789
$GPGGA,140046.00,3531.5096,N,12125.5680,W,1,10,1.0,9.7,M,-31.5,M,,*5D
$PYRTM,2024,124.583895467870,15.693542878009
$GPGGA,140047.00,3531.5089,N,12125.5654,W,1,10,1.0,9.5,M,-31.5,M,,*59
$PYRTM,2024,124.583904279005,15.693551689144
$GPGGA,140048.00,3531.5082,N,12125.5628,W,1,10,1.0,9.4,M,-31.5,M,,*57
$PYRTM,2024,124.583915839398,15.693563249537
$GPGGA,140049.00,3531.5074,N,12125.5603,W,1,10,1.0,9.5,M,-31.5,M,,*57
$PYRTM,2024,124.583927416331,15.693574826470
$GPGGA,140050.00,3531.5066,N,12125.5578,W,1,10,1.0,9.6,M,-31.5,M,,*50
$PYRTM,2024,124.583938987303,15.693586397442
$GPGGA,140051.00,3531.5058,N,12125.5553,W,1,10,1.0,9.7,M,-31.5,M,,*54
$PYRTM,2024,124.583950564259,15.693597974398
$GPGGA,140052.00,3531.5050,N,12125.5527,W,1,10,1.0,9.9,M,-31.5,M,,*52
$PYRTM,2024,124.583962135370,15.693609545509
$GPGGA,140053.00,3531.5043,N,12125.5501,W,1,10,1.0,10.0,M,-31.5,M,,*64
$PYRTM,2024,124.583973709560,15.693621119699
$GPGGA,140054.00,3531.5036,N,12125.5474,W,1,10,1.0,10.0,M,-31.5,M,,*62
$PYRTM,2024,124.583985284167,15.693632694306
$GPGGA,140055.00,3531.5028,N,12125.5448,W,1,10,1.0,10.1,M,-31.5,M,,*62
$PYRTM,2024,124.583992679144,15.693640089282
$GPGGA,140056.00,3531.5020,N,12125.5421,W,1,10,1.0,10.1,M,-31.5,M,,*66
$PYRTM,2024,124.584008433762,15.693655843900
$GPGGA,140057.00,3531.5013,N,12125.5394,W,1,10,1.0,10.1,M,-31.5,M,,*6E
$PYRTM,2024,124.584020007373,15.693667417512
$GPGGA,140058.00,3531.5005,N,12125.5368,W,1,10,1.0,10.2,M,-31.5,M,,*66
$PYRTM,2024,124.584031581111,15.693678991262
$GPGGA,140059.00,3531.4998,N,12125.5342,W,1,10,1.0,10.2,M,-31.5,M,,*63
$PYRTM,2024,124.584043156667,15.693690566817
$GPGGA,140100.00,3531.4990,N,12125.5317,W,1,10,1.0,10.3,M,-31.5,M,,*67
$PYRTM,2024,124.584054730000,15.693702140139
$GPGGA,140101.00,3531.4981,N,12125.5292,W,1,10,1.0,10.3,M,-31.5,M,,*6A
$PYRTM,2024,124.584066307222,15.693713717361
$GPGGA,140102.00,3531.4973,N,12125.5266,W,1,10,1.0,10.2,M,-31.5,M,,*6E
$PYRTM,2024,124.584077877847,15.693725287986
$GPGGA,140103.00,3531.4966,N,12125.5240,W,1,10,1.0,10.2,M,-31.5,M,,*6F
$PYRTM,2024,124.584089457164,15.693736867315
$GPGGA,140104.00,3531.4959,N,12125.5213,W,1,10,1.0,10.1,M,-31.5,M,,*61
$PYRTM,2024,124.584101025579,15.693748435729
$GPGGA,140105.00,3531.4952,N,12125.5185,W,1,10,1.0,10.0,M,-31.5,M,,*66
$PYRTM,2024,124.584108420417,15.693755830567
$GPGGA,140106.00,3531.4946,N,12125.5158,W,1,10,1.0,10.2,M,-31.5,M,,*62
$PYRTM,2024,124.584124174769,15.693771584907
$GPGGA,140107.00,3531.4939,N,12125.5130,W,1,10,1.0,10.5,M,-31.5,M,,*62
$PYRTM,2024,124.584135748623,15.693783158762
$GPGGA,140108.00,3531.4930,N,12125.5104,W,1,10,1.0,10.7,M,-31.5,M,,*61
$PYRTM,2024,124.584147322025,15.693794732164
$GPGGA,140109.00,3531.4921,N,12125.5079,W,1,10,1.0,10.7,M,-31.5,M,,*6B
$PYRTM,2024,124.584158896354,15.693806306493
$GPGGA,140110.00,3531.4912,N,12125.5053,W,1,10,1.0,10.4,M,-31.5,M,,*68
$PYRTM,2024,124.584170471620,15.693817881759
$GPGGA,140111.00,3531.4904,N,12125.5028,W,1,10,1.0,10.0,M,-31.5,M,,*66
$PYRTM,2024,124.584182044201,15.693829454340
$GPGGA,140112.00,3531.4897,N,12125.5002,W,1,10,1.0,9.8,M,-31.5,M,,*56
$PYRTM,2024,124.584193618333,15.693841028472
$GPGGA,140113.00,3531.4891,N,12125.4976,W,1,10,1.0,9.8,M,-31.5,M,,*5A
$PYRTM,2024,124.584205197025,15.693852607164
$GPGGA,140114.00,3531.4884,N,12125.4949,W,1,10,1.0,9.9,M,-31.5,M,,*54
$PYRTM,2024,124.584216762199,15.693864172338
$GPGGA,140115.00,3531.4877,N,12125.4923,W,1,10,1.0,10.1,M,-31.5,M,,*65
$PYRTM,2024,124.584228344225,15.693875754363
$GPGGA,140116.00,3531.4869,N,12125.4897,W,1,10,1.0,10.4,M,-31.5,M,,*62
$PYRTM,2024,124.584235737546,15.693883147685
$GPGGA,140117.00,3531.4862,N,12125.4870,W,1,10,1.0,10.6,M,-31.5,M,,*63
$PYRTM,2024,124.584254386111,15.693901796250
$GPGGA,140118.00,3531.4854,N,12125.4843,W,1,10,1.0,10.7,M,-31.5,M,,*68
$PYRTM,2024,124.584263063924,15.693910474062
$GPGGA,140119.00,3531.4846,N,12125.4815,W,1,10,1.0,10.6,M,-31.5,M,,*68
$PYRTM,2024,124.584274637847,15.693922047986
$GPGGA,140120.00,3531.4839,N,12125.4788,W,1,10,1.0,10.4,M,-31.5,M,,*63
$PYRTM,2024,124.584282045880,15.693929456019
$GPGGA,140121.00,3531.4832,N,12125.4762,W,1,10,1.0,10.2,M,-31.5,M,,*6B
$PYRTM,2024,124.584297787569,15.693945197708
$GPGGA,140122.00,3531.4824,N,12125.4736,W,1,10,1.0,10.0,M,-31.5,M,,*6C
$PYRTM,2024,124.584309360116,15.693956770255
$GPGGA,140123.00,3531.4817,N,12125.4711,W,1,10,1.0,10.0,M,-31.5,M,,*68
$PYRTM,2024,124.584320936123,15.693968346262
$GPGGA,140124.00,3531.4810,N,12125.4685,W,1,10,1.0,10.0,M,-31.5,M,,*64
$PYRTM,2024,124.584332509132,15.693979919271
$GPGGA,140125.00,3531.4803,N,12125.4659,W,1,10,1.0,9.7,M,-31.5,M,,*59
$PYRTM,2024,124.584344083229,15.693991493368
$GPGGA,140126.00,3531.4796,N,12125.4632,W,1,10,1.0,9.5,M,-31.5,M,,*56
$PYRTM,2024,124.584355652836,15.694003062975
$GPGGA,140127.00,3531.4788,N,12125.4606,W,1,10,1.0,9.6,M,-31.5,M,,*5C
$PYRTM,2024,124.584367233044,15.694014643194
$GPGGA,140128.00,3531.4780,N,12125.4580,W,1,10,1.0,9.9,M,-31.5,M,,*59
$PYRTM,2024,124.584378804850,15.694026215000
$GPGGA,140129.00,3531.4773,N,12125.4554,W,1,10,1.0,10.3,M,-31.5,M,,*6F
$PYRTM,2024,124.584390379711,15.694037789850
$GPGGA,140130.00,3531.4765,N,12125.4527,W,1,10,1.0,10.4,M,-31.5,M,,*63
$PYRTM,2024,124.584397774977,15.694045185116
$GPGGA,140131.00,3531.4756,N,12125.4502,W,1,10,1.0,10.5,M,-31.5,M,,*64
$PYRTM,2024,124.584413542211,15.694060952338
$GPGGA,140132.00,3531.4746,N,12125.4477,W,1,10,1.0,10.3,M,-31.5,M,,*63
$PYRTM,2024,124.584425097616,15.694072507755
$GPGGA,140133.00,3531.4739,N,12125.4450,W,1,10,1.0,10.0,M,-31.5,M,,*6C
$PYRTM,2024,124.584436676389,15.694084086528
$GPGGA,140134.00,3531.4734,N,12125.4421,W,1,10,1.0,9.9,M,-31.5,M,,*51
$PYRTM,2024,124.584448250093,15.694095660231
$GPGGA,140135.00,3531.4730,N,12125.4394,W,1,10,1.0,10.0,M,-31.5,M,,*6C
$PYRTM,2024,124.584459828194,15.694107238333
$GPGGA,140136.00,3531.4723,N,12125.4369,W,1,10,1.0,10.2,M,-31.5,M,,*6D
$PYRTM,2024,124.584471400613,15.694118810752
$GPGGA,140137.00,3531.4714,N,12125.4344,W,1,10,1.0,10.1,M,-31.5,M,,*64
$PYRTM,2024,124.584482973785,15.694130383924
$GPGGA,140138.00,3531.4705,N,12125.4318,W,1,10,1.0,9.9,M,-31.5,M,,*52
$PYRTM,2024,124.584494542141,15.694141952280
$GPGGA,140139.00,3531.4698,N,12125.4292,W,1,10,1.0,9.8,M,-31.5,M,,*54
$PYRTM,2024,124.584506120255,15.694153530394
$GPGGA,140140.00,3531.4692,N,12125.4265,W,1,10,1.0,9.9,M,-31.5,M,,*59
$PYRTM,2024,124.584513412002,15.694160822141
$GPGGA,140141.00,3531.4685,N,12125.4238,W,1,10,1.0,10.0,M,-31.5,M,,*67
$PYRTM,2024,124.584529268981,15.694176679120
$GPGGA,140142.00,3531.4677,N,12125.4212,W,1,10,1.0,10.1,M,-31.5,M,,*60
$PYRTM,2024,124.584540844028,15.694188254167
$GPGGA,140143.00,3531.4669,N,12125.4185,W,1,10,1.0,10.1,M,-31.5,M,,*63
$PYRTM,2024,124.584552424965,15.694199835104
$GPGGA,140144.00,3531.4663,N,12125.4158,W,1,10,1.0,10.0,M,-31.5,M,,*6F
$PYRTM,2024,124.584563992419,15.694211402558
$GPGGA,140145.00,3531.4658,N,12125.4130,W,1,10,1.0,10.1,M,-31.5,M,,*69
$PYRTM,2024,124.584575572569,15.694222982708
$GPGGA,140146.00,3531.4651,N,12125.4104,W,1,10,1.0,10.0,M,-31.5,M,,*65
$PYRTM,2024,124.584587134711,15.694234544850
$GPGGA,140147.00,3531.4642,N,12125.4079,W,1,10,1.0,9.9,M,-31.5,M,,*5C
$PYRTM,2024,124.584594430451,15.694241840590
$GPGGA,140148.00,3531.4633,N,12125.4054,W,1,10,1.0,9.8,M,-31.5,M,,*5B
$PYRTM,2024,124.584613064595,15.694260474734
$GPGGA,140149.00,3531.4626,N,12125.4028,W,1,10,1.0,9.6,M,-31.5,M,,*5B
$PYRTM,2024,124.584621861505,15.694269271655
$GPGGA,140150.00,3531.4621,N,12125.4001,W,1,10,1.0,9.6,M,-31.5,M,,*5F
$PYRTM,2024,124.584633435648,15.694280845787
$GPGGA,140151.00,3531.4616,N,12125.3973,W,1,10,1.0,9.9,M,-31.5,M,,*5E
$PYRTM,2024,124.584645013356,15.694292423495
$GPGGA,140152.00,3531.4610,N,12125.3946,W,1,10,1.0,10.2,M,-31.5,M,,*6E
$PYRTM,2024,124.584656585463,15.694303995602
$GPGGA,140153.00,3531.4602,N,12125.3920,W,1,10,1.0,10.4,M,-31.5,M,,*6A
$PYRTM,2024,124.584668169433,15.694315579572
$GPGGA,140154.00,3531.4594,N,12125.3893,W,1,10,1.0,10.5,M,-31.5,M,,*69
$PYRTM,2024,124.584679727917,15.694327138056
$GPGGA,140155.00,3531.4586,N,12125.3866,W,1,10,1.0,10.4,M,-31.5,M,,*60
$PYRTM,2024,124.584687128380,15.694334538519
$GPGGA,140156.00,3531.4579,N,12125.3840,W,1,10,1.0,10.3,M,-31.5,M,,*60
$PYRTM,2024,124.584702881238,15.694350291377
$GPGGA,140157.00,3531.4572,N,12125.3813,W,1,10,1.0,10.0,M,-31.5,M,,*6F
$PYRTM,2024,124.584714456458,15.694361866597
$GPGGA,140158.00,3531.4566,N,12125.3787,W,1,10,1.0,9.7,M,-31.5,M,,*58
$PYRTM,2024,124.584726029676,15.694373439815
$GPGGA,140159.00,3531.4559,N,12125.3761,W,1,10,1.0,9.5,M,-31.5,M,,*5F
$PYRTM,2024,124.584737611806,15.694385021944
$GPGGA,140200.00,3531.4553,N,12125.3733,W,1,10,1.0,9.4,M,-31.5,M,,*5C
$PYRTM,2024,124.584749177731,15.694396587882
$GPGGA,140201.00,3531.4546,N,12125.3706,W,1,10,1.0,9.7,M,-31.5,M,,*5C
$PYRTM,2024,124.584760751528,15.694408161667
$GPGGA,140202.00,3531.4539,N,12125.3680,W,1,10,1.0,10.1,M,-31.5,M,,*66
$PYRTM,2024,124.584772321262,15.694419731400
$GPGGA,140203.00,3531.4532,N,12125.3654,W,1,10,1.0,10.4,M,-31.5,M,,*60
$PYRTM,2024,124.584783900058,15.694431310197
$GPGGA,140204.00,3531.4524,N,12125.3627,W,1,10,1.0,10.6,M,-31.5,M,,*66
$PYRTM,2024,124.584795473981,15.694442884120
$GPGGA,140205.00,3531.4517,N,12125.3598,W,1,10,1.0,10.4,M,-31.5,M,,*62
$PYRTM,2024,124.584807059676,15.694454469815
$GPGGA,140206.00,3531.4511,N,12125.3570,W,1,10,1.0,10.2,M,-31.5,M,,*67
$PYRTM,2024,124.584818622373,15.694466032523
$GPGGA,140207.00,3531.4504,N,12125.3544,W,1,10,1.0,10.1,M,-31.5,M,,*66
$PYRTM,2024,124.584830195544,15.694477605683
$GPGGA,140208.00,3531.4496,N,12125.3519,W,1,10,1.0,10.0,M,-31.5,M,,*6A
$PYRTM,2024,124.584841771725,15.694489181863
$GPGGA,140209.00,3531.4489,N,12125.3493,W,1,10,1.0,10.0,M,-31.5,M,,*66
$PYRTM,2024,124.584853348461,15.694500758600
$GPGGA,140210.00,3531.4483,N,12125.3466,W,1,10,1.0,9.9,M,-31.5,M,,*5F
$PYRTM,2024,124.584860625208,15.694508035347
$GPGGA,140211.00,3531.4477,N,12125.3439,W,1,10,1.0,9.8,M,-31.5,M,,*5E
$PYRTM,2024,124.584876492963,15.694523903113
$GPGGA,140212.00,3531.4471,N,12125.3412,W,1,10,1.0,9.9,M,-31.5,M,,*53
$PYRTM,2024,124.584888067928,15.694535478067
$GPGGA,140213.00,3531.4462,N,12125.3386,W,1,10,1.0,10.1,M,-31.5,M,,*6A
$PYRTM,2024,124.584899648634,15.694547058773
$GPGGA,140214.00,3531.4453,N,12125.3361,W,1,10,1.0,10.3,M,-31.5,M,,*64
$PYRTM,2024,124.584911210972,15.694558621111
$GPGGA,140215.00,3531.4445,N,12125.3334,W,1,10,1.0,10.3,M,-31.5,M,,*62
$PYRTM,2024,124.584922798021,15.694570208160
$GPGGA,140216.00,3531.4438,N,12125.3306,W,1,10,1.0,10.1,M,-31.5,M,,*68
$PYRTM,2024,124.584934364387,15.694581774525
$GPGGA,140217.00,3531.4432,N,12125.3279,W,1,10,1.0,10.0,M,-31.5,M,,*6B
$PYRTM,2024,124.584945948715,15.694593358854
$GPGGA,140218.00,3531.4425,N,12125.3252,W,1,10,1.0,9.9,M,-31.5,M,,*5A
$PYRTM,2024,124.584953217812,15.694600627951
$GPGGA,140219.00,3531.4417,N,12125.3226,W,1,10,1.0,9.9,M,-31.5,M,,*59
$PYRTM,2024,124.584971974815,15.694619384954
$GPGGA,140220.00,3531.4409,N,12125.3199,W,1,10,1.0,9.9,M,-31.5,M,,*5B
$PYRTM,2024,124.584980661366,15.694628071505
$GPGGA,140221.00,3531.4403,N,12125.3173,W,1,10,1.0,10.0,M,-31.5,M,,*65
$PYRTM,2024,124.584992246065,15.694639656204
$GPGGA,140222.00,3531.4396,N,12125.3146,W,1,10,1.0,10.2,M,-31.5,M,,*69
$PYRTM,2024,124.584999640822,15.694647050961
$GPGGA,140223.00,3531.4389,N,12125.3119,W,1,10,1.0,10.2,M,-31.5,M,,*6C
$PYRTM,2024,124.585015382176,15.694662792315
$GPGGA,140224.00,3531.4381,N,12125.3092,W,1,10,1.0,10.3,M,-31.5,M,,*60
$PYRTM,2024,124.585026958426,15.694674368565
$GPGGA,140225.00,3531.4373,N,12125.3066,W,1,10,1.0,10.2,M,-31.5,M,,*66
$PYRTM,2024,124.585038551620,15.694685961771
$GPGGA,140226.00,3531.4366,N,12125.3040,W,1,10,1.0,10.2,M,-31.5,M,,*65
$PYRTM,2024,124.585050105822,15.694697515961
$GPGGA,140227.00,3531.4359,N,12125.3013,W,1,10,1.0,10.0,M,-31.5,M,,*6C
$PYRTM,2024,124.585061687882,15.694709098032
$GPGGA,140228.00,3531.4352,N,12125.2986,W,1,10,1.0,9.9,M,-31.5,M,,*5D
$PYRTM,2024,124.585073254479,15.694720664618
$GPGGA,140229.00,3531.4344,N,12125.2960,W,1,10,1.0,9.9,M,-31.5,M,,*53
$PYRTM,2024,124.585084835556,15.694732245694
$GPGGA,140230.00,3531.4337,N,12125.2933,W,1,10,1.0,10.0,M,-31.5,M,,*68
$PYRTM,2024,124.585096401690,15.694743811829
$GPGGA,140231.00,3531.4330,N,12125.2906,W,1,10,1.0,10.2,M,-31.5,M,,*6A
$PYRTM,2024,124.585107987627,15.694755397766
$GPGGA,140232.00,3531.4322,N,12125.2879,W,1,10,1.0,10.1,M,-31.5,M,,*60
$PYRTM,2024,124.585119551076,15.694766961215
$GPGGA,140233.00,3531.4315,N,12125.2852,W,1,10,1.0,10.1,M,-31.5,M,,*6C
$PYRTM,2024,124.585131124606,15.694778534745
$GPGGA,140234.00,3531.4308,N,12125.2825,W,1,10,1.0,10.2,M,-31.5,M,,*64
$PYRTM,2024,124.585142693484,15.694790103623
$GPGGA,140235.00,3531.4303,N,12125.2798,W,1,10,1.0,10.1,M,-31.5,M,,*64
$PYRTM,2024,124.585154272755,15.694801682894
$GPGGA,140236.00,3531.4297,N,12125.2771,W,1,10,1.0,9.9,M,-31.5,M,,*5C
$PYRTM,2024,124.585165847847,15.694813257986
$GPGGA,140237.00,3531.4289,N,12125.2746,W,1,10,1.0,9.8,M,-31.5,M,,*57
$PYRTM,2024,124.585177431296,15.694824841435
$GPGGA,140238.00,3531.4281,N,12125.2720,W,1,10,1.0,9.7,M,-31.5,M,,*5F
$PYRTM,2024,124.585188995590,15.694836405729
$GPGGA,140239.00,3531.4273,N,12125.2693,W,1,10,1.0,9.8,M,-31.5,M,,*55
$PYRTM,2024,124.585200569815,15.694847979954
$GPGGA,140240.00,3531.4266,N,12125.2666,W,1,10,1.0,10.1,M,-31.5,M,,*64
$PYRTM,2024,124.585212143507,15.694859553646
$GPGGA,140241.00,3531.4260,N,12125.2639,W,1,10,1.0,10.3,M,-31.5,M,,*6B
$PYRTM,2024,124.585223706296,15.694871116435
$GPGGA,140242.00,3531.4253,N,12125.2612,W,1,10,1.0,10.4,M,-31.5,M,,*66
$PYRTM,2024,124.585235292269,15.694882702407
$GPGGA,140243.00,3531.4245,N,12125.2585,W,1,10,1.0,10.2,M,-31.5,M,,*6B
$PYRTM,2024,124.585246853576,15.694894263715
$GPGGA,140244.00,3531.4238,N,12125.2558,W,1,10,1.0,9.9,M,-31.5,M,,*55
$PYRTM,2024,124.585258439907,15.694905850046
$GPGGA,140245.00,3531.4232,N,12125.2532,W,1,10,1.0,9.7,M,-31.5,M,,*5C
$PYRTM,2024,124.585270001597,15.694917411736
$GPGGA,140246.00,3531.4225,N,12125.2505,W,1,10,1.0,9.6,M,-31.5,M,,*5C
$PYRTM,2024,124.585281584086,15.694928994225
$GPGGA,140247.00,3531.4218,N,12125.2479,W,1,10,1.0,9.6,M,-31.5,M,,*59
$PYRTM,2024,124.585288870463,15.694936280613
$GPGGA,140248.00,3531.4210,N,12125.2453,W,1,10,1.0,9.8,M,-31.5,M,,*58
$PYRTM,2024,124.585304740174,15.694952150312
$GPGGA,140249.00,3531.4203,N,12125.2426,W,1,10,1.0,9.8,M,-31.5,M,,*59
$PYRTM,2024,124.585312023646,15.694959433785
$GPGGA,140250.00,3531.4197,N,12125.2398,W,1,10,1.0,9.8,M,-31.5,M,,*5D
$PYRTM,2024,124.585330665775,15.694978075914
$GPGGA,140251.00,3531.4189,N,12125.2371,W,1,10,1.0,9.7,M,-31.5,M,,*5B
$PYRTM,2024,124.585339446620,15.694986856759
$GPGGA,140252.00,3531.4181,N,12125.2344,W,1,10,1.0,9.7,M,-31.5,M,,*56
$PYRTM,2024,124.585351047812,15.694998457951
$GPGGA,140253.00,3531.4174,N,12125.2316,W,1,10,1.0,9.7,M,-31.5,M,,*5A
$PYRTM,2024,124.585362596181,15.695010006319
$GPGGA,140254.00,3531.4169,N,12125.2289,W,1,10,1.0,9.8,M,-31.5,M,,*59
$PYRTM,2024,124.585374184109,15.695021594248
$GPGGA,140255.00,3531.4163,N,12125.2262,W,1,10,1.0,10.0,M,-31.5,M,,*67
$PYRTM,2024,124.585385745035,15.695033155174
$GPGGA,140256.00,3531.4155,N,12125.2236,W,1,10,1.0,9.9,M,-31.5,M,,*51
$PYRTM,2024,124.585397329387,15.695044739525
$GPGGA,140257.00,3531.4147,N,12125.2211,W,1,10,1.0,9.8,M,-31.5,M,,*57
$PYRTM,2024,124.585408891493,15.695056301632
$GPGGA,140258.00,3531.4140,N,12125.2186,W,1,10,1.0,9.5,M,-31.5,M,,*5F
$PYRTM,2024,124.585420479201,15.695067889340
$GPGGA,140259.00,3531.4133,N,12125.2160,W,1,10,1.0,9.4,M,-31.5,M,,*53
$PYRTM,2024,124.585432039039,15.695079449178
$GPGGA,140300.00,3531.4127,N,12125.2133,W,1,10,1.0,9.4,M,-31.5,M,,*5D
$PYRTM,2024,124.585439332373,15.695086742512
$GPGGA,140301.00,3531.4119,N,12125.2106,W,1,10,1.0,9.6,M,-31.5,M,,*55
$PYRTM,2024,124.585455187755,15.695102597894
$GPGGA,140302.00,3531.4111,N,12125.2080,W,1,10,1.0,9.8,M,-31.5,M,,*5F
$PYRTM,2024,124.585466774352,15.695114184491
$GPGGA,140303.00,3531.4103,N,12125.2053,W,1,10,1.0,10.1,M,-31.5,M,,*62
$PYRTM,2024,124.585478336030,15.695125746181
$GPGGA,140304.00,3531.4096,N,12125.2025,W,1,10,1.0,10.4,M,-31.5,M,,*6C
$PYRTM,2024,124.585489922627,15.695137332766
$GPGGA,140305.00,3531.4090,N,12125.1998,W,1,10,1.0,10.5,M,-31.5,M,,*66
$PYRTM,2024,124.585501484317,15.695148894468
$GPGGA,140306.00,3531.4084,N,12125.1970,W,1,10,1.0,10.5,M,-31.5,M,,*66
$PYRTM,2024,124.585513075093,15.695160485231
$GPGGA,140307.00,3531.4077,N,12125.1944,W,1,10,1.0,10.5,M,-31.5,M,,*6C
$PYRTM,2024,124.585524632639,15.695172042789
$GPGGA,140308.00,3531.4069,N,12125.1918,W,1,10,1.0,10.4,M,-31.5,M,,*64
$PYRTM,2024,124.585536223299,15.695183633438
$GPGGA,140309.00,3531.4062,N,12125.1893,W,1,10,1.0,10.2,M,-31.5,M,,*6A
$PYRTM,2024,124.585547780162,15.695195190301
$GPGGA,140310.00,3531.4055,N,12125.1866,W,1,10,1.0,10.0,M,-31.5,M,,*6E
$PYRTM,2024,124.585555073194,15.695202483333
$GPGGA,140311.00,3531.4049,N,12125.1839,W,1,10,1.0,9.9,M,-31.5,M,,*59
$PYRTM,2024,124.585570929502,15.695218339641
$GPGGA,140312.00,3531.4043,N,12125.1812,W,1,10,1.0,10.0,M,-31.5,M,,*68
$PYRTM,2024,124.585582517211,15.695229927350
$GPGGA,140313.00,3531.4037,N,12125.1785,W,1,10,1.0,10.2,M,-31.5,M,,*69
$PYRTM,2024,124.585589810949,15.695237221100
$GPGGA,140314.00,3531.4029,N,12125.1758,W,1,10,1.0,10.3,M,-31.5,M,,*60
$PYRTM,2024,124.585605660671,15.695253070810
$GPGGA,140315.00,3531.4020,N,12125.1731,W,1,10,1.0,10.3,M,-31.5,M,,*67
$PYRTM,2024,124.585617226123,15.695264636262
$GPGGA,140316.00,3531.4012,N,12125.1704,W,1,10,1.0,10.2,M,-31.5,M,,*62
$PYRTM,2024,124.585628814664,15.695276224803
$GPGGA,140317.00,3531.4006,N,12125.1676,W,1,10,1.0,10.1,M,-31.5,M,,*61
$PYRTM,2024,124.585640373854,15.695287784005
$GPGGA,140318.00,3531.4000,N,12125.1648,W,1,10,1.0,10.0,M,-31.5,M,,*64
$PYRTM,2024,124.585651961238,15.695299371377
$GPGGA,140319.00,3531.3994,N,12125.1621,W,1,10,1.0,10.0,M,-31.5,M,,*69
$PYRTM,2024,124.585663522002,15.695310932141
$GPGGA,140320.00,3531.3986,N,12125.1595,W,1,10,1.0,10.2,M,-31.5,M,,*6E
$PYRTM,2024,124.585670814144,15.695318224282
$GPGGA,140321.00,3531.3978,N,12125.1571,W,1,10,1.0,10.2,M,-31.5,M,,*64
$PYRTM,2024,124.585689449155,15.695336859294
$GPGGA,140322.00,3531.3970,N,12125.1545,W,1,10,1.0,10.1,M,-31.5,M,,*6B
$PYRTM,2024,124.585698157755,15.695345567894
$GPGGA,140323.00,3531.3964,N,12125.1518,W,1,10,1.0,9.8,M,-31.5,M,,*56
$PYRTM,2024,124.585709704340,15.695357114479
$GPGGA,140324.00,3531.3958,N,12125.1490,W,1,10,1.0,9.7,M,-31.5,M,,*50
$PYRTM,2024,124.585721289711,15.695368699850
$GPGGA,140325.00,3531.3952,N,12125.1463,W,1,10,1.0,9.8,M,-31.5,M,,*58
$PYRTM,2024,124.585732966563,15.695380376701
$GPGGA,140326.00,3531.3946,N,12125.1435,W,1,10,1.0,10.1,M,-31.5,M,,*6C
$PYRTM,2024,124.585744550718,15.695391960856
$GPGGA,140327.00,3531.3939,N,12125.1408,W,1,10,1.0,10.3,M,-31.5,M,,*69
$PYRTM,2024,124.585756116794,15.695403526933
$GPGGA,140328.00,3531.3931,N,12125.1381,W,1,10,1.0,10.3,M,-31.5,M,,*68
$PYRTM,2024,124.585767588715,15.695414998866
$GPGGA,140329.00,3531.3923,N,12125.1354,W,1,10,1.0,9.9,M,-31.5,M,,*50
$PYRTM,2024,124.585779147963,15.695426558102
$GPGGA,140330.00,3531.3916,N,12125.1326,W,1,10,1.0,9.6,M,-31.5,M,,*54
$PYRTM,2024,124.585790734884,15.695438145023
$GPGGA,140331.00,3531.3909,N,12125.1299,W,1,10,1.0,9.4,M,-31.5,M,,*5C
$PYRTM,2024,124.585802297685,15.695449707824
$GPGGA,140332.00,3531.3903,N,12125.1272,W,1,10,1.0,9.4,M,-31.5,M,,*50
$PYRTM,2024,124.585813885914,15.695461296053
$GPGGA,140333.00,3531.3896,N,12125.1246,W,1,10,1.0,9.4,M,-31.5,M,,*5B
$PYRTM,2024,124.585825444792,15.695472854931
$GPGGA,140334.00,3531.3888,N,12125.1219,W,1,10,1.0,9.6,M,-31.5,M,,*5B
$PYRTM,2024,124.585837031042,15.695484441181
$GPGGA,140335.00,3531.3880,N,12125.1193,W,1,10,1.0,9.7,M,-31.5,M,,*52
$PYRTM,2024,124.585848591470,15.695496001609
$GPGGA,140336.00,3531.3872,N,12125.1167,W,1,10,1.0,9.7,M,-31.5,M,,*57
$PYRTM,2024,124.585860182847,15.695507592986
$GPGGA,140337.00,3531.3865,N,12125.1140,W,1,10,1.0,9.9,M,-31.5,M,,*5B
$PYRTM,2024,124.585871856539,15.695519266678
$GPGGA,140338.00,3531.3859,N,12125.1112,W,1,10,1.0,10.0,M,-31.5,M,,*6D
$PYRTM,2024,124.585879148935,15.695526559074
$GPGGA,140339.00,3531.3853,N,12125.1085,W,1,10,1.0,10.0,M,-31.5,M,,*69
$PYRTM,2024,124.585894890706,15.695542300845
$GPGGA,140340.00,3531.3846,N,12125.1059,W,1,10,1.0,9.9,M,-31.5,M,,*53
$PYRTM,2024,124.585906476076,15.695553886215
$GPGGA,140341.00,3531.3838,N,12125.1032,W,1,10,1.0,9.7,M,-31.5,M,,*58
$PYRTM,2024,124.585918036435,15.695565446574
$GPGGA,140342.00,3531.3830,N,12125.1005,W,1,10,1.0,9.6,M,-31.5,M,,*56
$PYRTM,2024,124.585929624931,15.695577035069
$GPGGA,140343.00,3531.3823,N,12125.0979,W,1,10,1.0,9.6,M,-31.5,M,,*56
$PYRTM,2024,124.585941185278,15.695588595417
$GPGGA,140344.00,3531.3815,N,12125.0952,W,1,10,1.0,9.8,M,-31.5,M,,*53
$PYRTM,2024,124.585952772975,15.695600183113
$GPGGA,140345.00,3531.3808,N,12125.0925,W,1,10,1.0,9.9,M,-31.5,M,,*5F
$PYRTM,2024,124.585964449630,15.695611859769
$GPGGA,140346.00,3531.3800,N,12125.0899,W,1,10,1.0,10.0,M,-31.5,M,,*63
$PYRTM,2024,124.585975920891,15.695623331030
$GPGGA,140347.00,3531.3793,N,12125.0873,W,1,10,1.0,9.9,M,-31.5,M,,*52
$PYRTM,2024,124.585983315208,15.695630725347
$GPGGA,140348.00,3531.3786,N,12125.0846,W,1,10,1.0,9.8,M,-31.5,M,,*5E
$PYRTM,2024,124.585995004931,15.695642415081
$GPGGA,140349.00,3531.3780,N,12125.0818,W,1,10,1.0,9.4,M,-31.5,M,,*5E
$PYRTM,2024,124.586010629144,15.695658039282
$GPGGA,140350.00,3531.3774,N,12125.0791,W,1,10,1.0,9.3,M,-31.5,M,,*54
$PYRTM,2024,124.586022233750,15.695669643889
$GPGGA,140351.00,3531.3768,N,12125.0764,W,1,10,1.0,9.5,M,-31.5,M,,*54
$PYRTM,2024,124.586029615266,15.695677025417
$GPGGA,140352.00,3531.3761,N,12125.0737,W,1,10,1.0,9.8,M,-31.5,M,,*55
$PYRTM,2024,124.586048275243,15.695695685382
$GPGGA,140353.00,3531.3752,N,12125.0711,W,1,10,1.0,10.0,M,-31.5,M,,*60
$PYRTM,2024,124.586057044769,15.695704454907
$GPGGA,140354.00,3531.3744,N,12125.0684,W,1,10,1.0,10.0,M,-31.5,M,,*6D
$PYRTM,2024,124.586068515405,15.695715925556
$GPGGA,140355.00,3531.3737,N,12125.0657,W,1,10,1.0,9.8,M,-31.5,M,,*56
$PYRTM,2024,124.586080078565,15.695727488704
$GPGGA,140356.00,3531.3731,N,12125.0630,W,1,10,1.0,9.6,M,-31.5,M,,*5C
$PYRTM,2024,124.586091663623,15.695739073762
$GPGGA,140357.00,3531.3725,N,12125.0603,W,1,10,1.0,9.5,M,-31.5,M,,*5B
$PYRTM,2024,124.586103222280,15.695750632419
$GPGGA,140358.00,3531.3718,N,12125.0578,W,1,10,1.0,9.5,M,-31.5,M,,*55
$PYRTM,2024,124.586114810880,15.695762221019
$GPGGA,140359.00,3531.3709,N,12125.0552,W,1,10,1.0,9.3,M,-31.5,M,,*5A
$PYRTM,2024,124.586126371215,15.695773781354
$GPGGA,140400.00,3531.3701,N,12125.0526,W,1,10,1.0,9.1,M,-31.5,M,,*58
$PYRTM,2024,124.586133780984,15.695781191134
$GPGGA,140401.00,3531.3694,N,12125.0499,W,1,10,1.0,9.3,M,-31.5,M,,*53
$PYRTM,2024,124.586149519711,15.695796929850
$GPGGA,140402.00,3531.3687,N,12125.0471,W,1,10,1.0,9.6,M,-31.5,M,,*51
$PYRTM,2024,124.586161103032,15.695808513171
$GPGGA,140403.00,3531.3680,N,12125.0444,W,1,10,1.0,9.9,M,-31.5,M,,*5E
$PYRTM,2024,124.586172784734,15.695820194873
$GPGGA,140404.00,3531.3671,N,12125.0419,W,1,10,1.0,10.0,M,-31.5,M,,*6E
$PYRTM,2024,124.586184385231,15.695831795370
$GPGGA,140405.00,3531.3662,N,12125.0392,W,1,10,1.0,10.0,M,-31.5,M,,*69
$PYRTM,2024,124.586195816505,15.695843226644
$GPGGA,140406.00,3531.3654,N,12125.0366,W,1,10,1.0,9.8,M,-31.5,M,,*54
$PYRTM,2024,124.586207418125,15.695854828264
$GPGGA,140407.00,3531.3648,N,12125.0339,W,1,10,1.0,9.8,M,-31.5,M,,*52
$PYRTM,2024,124.586218964155,15.695866374294
$GPGGA,140408.00,3531.3643,N,12125.0313,W,1,10,1.0,9.8,M,-31.5,M,,*5E
$PYRTM,2024,124.586230551644,15.695877961782
$GPGGA,140409.00,3531.3636,N,12125.0286,W,1,10,1.0,9.7,M,-31.5,M,,*5F
$PYRTM,2024,124.586242113414,15.695889523553
$GPGGA,140410.00,3531.3629,N,12125.0260,W,1,10,1.0,9.8,M,-31.5,M,,*5E
$PYRTM,2024,124.586253700116,15.695901110255
$GPGGA,140411.00,3531.3621,N,12125.0233,W,1,10,1.0,9.9,M,-31.5,M,,*50
$PYRTM,2024,124.586265376597,15.695912786736
$GPGGA,140412.00,3531.3614,N,12125.0205,W,1,10,1.0,10.0,M,-31.5,M,,*61
$PYRTM,2024,124.586276964537,15.695924374676
$GPGGA,140413.00,3531.3607,N,12125.0177,W,1,10,1.0,10.2,M,-31.5,M,,*66
$PYRTM,2024,124.586288525602,15.695935935741
$GPGGA,140414.00,3531.3599,N,12125.0151,W,1,10,1.0,10.3,M,-31.5,M,,*60
$PYRTM,2024,124.586300112824,15.695947522963
$GPGGA,140415.00,3531.3592,N,12125.0124,W,1,10,1.0,10.3,M,-31.5,M,,*68
$PYRTM,2024,124.586307392199,15.695954802338
$GPGGA,140416.00,3531.3585,N,12125.0097,W,1,10,1.0,10.1,M,-31.5,M,,*66
$PYRTM,2024,124.586323145440,15.695970555579
$GPGGA,140417.00,3531.3578,N,12125.0070,W,1,10,1.0,9.8,M,-31.5,M,,*5D
$PYRTM,2024,124.586334705926,15.695982116065
$GPGGA,140418.00,3531.3572,N,12125.0043,W,1,10,1.0,9.6,M,-31.5,M,,*56
$PYRTM,2024,124.586346408102,15.695993818241
$GPGGA,140419.00,3531.3566,N,12125.0016,W,1,10,1.0,9.6,M,-31.5,M,,*52
$PYRTM,2024,124.586357969537,15.696005379676
$GPGGA,140420.00,3531.3558,N,12124.9990,W,1,10,1.0,9.8,M,-31.5,M,,*54
$PYRTM,2024,124.586369560394,15.696016970532
$GPGGA,140421.00,3531.3550,N,12124.9964,W,1,10,1.0,10.1,M,-31.5,M,,*67
$PYRTM,2024,124.586381118785,15.696028528924
$GPGGA,140422.00,3531.3542,N,12124.9938,W,1,10,1.0,10.4,M,-31.5,M,,*6B
$PYRTM,2024,124.586388527222,15.696035937361
$GPGGA,140423.00,3531.3536,N,12124.9910,W,1,10,1.0,10.5,M,-31.5,M,,*62
$PYRTM,2024,124.586407184132,15.696054594271
$GPGGA,140424.00,3531.3531,N,12124.9882,W,1,10,1.0,10.4,M,-31.5,M,,*69
$PYRTM,2024,124.586415849248,15.696063259387
$GPGGA,140425.00,3531.3525,N,12124.9854,W,1,10,1.0,10.2,M,-31.5,M,,*60
$PYRTM,2024,124.586423264491,15.696070674630
$GPGGA,140426.00,3531.3517,N,12124.9828,W,1,10,1.0,9.9,M,-31.5,M,,*5A
$PYRTM,2024,124.586439002083,15.696086412222
$GPGGA,140427.00,3531.3508,N,12124.9801,W,1,10,1.0,9.7,M,-31.5,M,,*50
$PYRTM,2024,124.586450447731,15.696097857870
$GPGGA,140428.00,3531.3501,N,12124.9774,W,1,10,1.0,9.7,M,-31.5,M,,*5B
$PYRTM,2024,124.586462035660,15.696109445799
$GPGGA,140429.00,3531.3496,N,12124.9746,W,1,10,1.0,9.9,M,-31.5,M,,*5A
$PYRTM,2024,124.586473712697,15.696121122836
$GPGGA,140430.00,3531.3490,N,12124.9718,W,1,10,1.0,10.2,M,-31.5,M,,*6C
$PYRTM,2024,124.586485300301,15.696132710440
$GPGGA,140431.00,3531.3482,N,12124.9692,W,1,10,1.0,10.3,M,-31.5,M,,*6C
$PYRTM,2024,124.586496859711,15.696144269850
$GPGGA,140432.00,3531.3473,N,12124.9666,W,1,10,1.0,10.4,M,-31.5,M,,*6D
$PYRTM,2024,124.586508450625,15.696155860764
$GPGGA,140433.00,3531.3465,N,12124.9640,W,1,10,1.0,10.2,M,-31.5,M,,*69
$PYRTM,2024,124.586520008079,15.696167418218
$GPGGA,140434.00,3531.3459,N,12124.9613,W,1,10,1.0,10.0,M,-31.5,M,,*65
$PYRTM,2024,124.586531609931,15.696179020069
$GPGGA,140435.00,3531.3453,N,12124.9586,W,1,10,1.0,10.0,M,-31.5,M,,*61
$PYRTM,2024,124.586538874225,15.696186284363
$GPGGA,140436.00,3531.3447,N,12124.9559,W,1,10,1.0,9.8,M,-31.5,M,,*55
$PYRTM,2024,124.586554627778,15.696202037917
$GPGGA,140437.00,3531.3439,N,12124.9532,W,1,10,1.0,9.8,M,-31.5,M,,*50
$PYRTM,2024,124.586566189039,15.696213599178
$GPGGA,140438.00,3531.3431,N,12124.9505,W,1,10,1.0,9.9,M,-31.5,M,,*52
$PYRTM,2024,124.586577892164,15.696225302292
$GPGGA,140439.00,3531.3424,N,12124.9479,W,1,10,1.0,10.0,M,-31.5,M,,*6C
$PYRTM,2024,124.586589453067,15.696236863206
$GPGGA,140440.00,3531.3417,N,12124.9452,W,1,10,1.0,10.1,M,-31.5,M,,*6A
$PYRTM,2024,124.586596744618,15.696244154757
$GPGGA,140441.00,3531.3409,N,12124.9425,W,1,10,1.0,10.1,M,-31.5,M,,*64
$PYRTM,2024,124.586612611817,15.696260021956
$GPGGA,140442.00,3531.3401,N,12124.9397,W,1,10,1.0,10.1,M,-31.5,M,,*61
$PYRTM,2024,124.586624189757,15.696271599896
$GPGGA,140443.00,3531.3394,N,12124.9371,W,1,10,1.0,10.2,M,-31.5,M,,*60
$PYRTM,2024,124.586631468773,15.696278878912
$GPGGA,140444.00,3531.3388,N,12124.9343,W,1,10,1.0,10.1,M,-31.5,M,,*68
$PYRTM,2024,124.586647338380,15.696294748519
$GPGGA,140445.00,3531.3382,N,12124.9316,W,1,10,1.0,10.0,M,-31.5,M,,*62
$PYRTM,2024,124.586658796991,15.696306207130
$GPGGA,140446.00,3531.3375,N,12124.9288,W,1,10,1.0,9.8,M,-31.5,M,,*5F
$PYRTM,2024,124.586670373773,15.696317783912
$GPGGA,140447.00,3531.3367,N,12124.9262,W,1,10,1.0,9.8,M,-31.5,M,,*59
$PYRTM,2024,124.586681943414,15.696329353553
$GPGGA,140448.00,3531.3358,N,12124.9236,W,1,10,1.0,9.8,M,-31.5,M,,*5B
$PYRTM,2024,124.586693522384,15.696340932535
$GPGGA,140449.00,3531.3351,N,12124.9209,W,1,10,1.0,9.9,M,-31.5,M,,*5E
$PYRTM,2024,124.586705196759,15.696352606898
$GPGGA,140450.00,3531.3344,N,12124.9182,W,1,10,1.0,10.1,M,-31.5,M,,*62
$PYRTM,2024,124.586716785995,15.696364196146
$GPGGA,140451.00,3531.3338,N,12124.9155,W,1,10,1.0,10.0,M,-31.5,M,,*63
$PYRTM,2024,124.586728241921,15.696375652060
$GPGGA,140452.00,3531.3332,N,12124.9127,W,1,10,1.0,9.9,M,-31.5,M,,*5E
$PYRTM,2024,124.586739817303,15.696387227442
$GPGGA,140453.00,3531.3325,N,12124.9100,W,1,10,1.0,9.9,M,-31.5,M,,*5C
$PYRTM,2024,124.586747224074,15.696394634225
$GPGGA,140454.00,3531.3317,N,12124.9074,W,1,10,1.0,9.9,M,-31.5,M,,*58
$PYRTM,2024,124.586765858935,15.696413269074
$GPGGA,140455.00,3531.3310,N,12124.9048,W,1,10,1.0,10.0,M,-31.5,M,,*60
$PYRTM,2024,124.586777421076,15.696424831215
$GPGGA,140456.00,3531.3303,N,12124.9021,W,1,10,1.0,9.9,M,-31.5,M,,*5F
$PYRTM,2024,124.586789004062,15.696436414201
$GPGGA,140457.00,3531.3295,N,12124.8994,W,1,10,1.0,9.8,M,-31.5,M,,*57
$PYRTM,2024,124.586797685428,15.696445095567
$GPGGA,140458.00,3531.3288,N,12124.8967,W,1,10,1.0,9.8,M,-31.5,M,,*58
$PYRTM,2024,124.586809259769,15.696456669907
$GPGGA,140459.00,3531.3282,N,12124.8939,W,1,10,1.0,9.8,M,-31.5,M,,*58
$PYRTM,2024,124.586820833669,15.696468243819
$GPGGA,140500.00,3531.3277,N,12124.8911,W,1,10,1.0,9.8,M,-31.5,M,,*55
$PYRTM,2024,124.586828231412,15.696475641551
$GPGGA,140501.00,3531.3269,N,12124.8883,W,1,10,1.0,9.9,M,-31.5,M,,*50
$PYRTM,2024,124.586844084514,15.696491494653
$GPGGA,140502.00,3531.3261,N,12124.8856,W,1,10,1.0,10.1,M,-31.5,M,,*63
$PYRTM,2024,124.586855674931,15.696503085069
$GPGGA,140503.00,3531.3253,N,12124.8829,W,1,10,1.0,10.1,M,-31.5,M,,*6B
$PYRTM,2024,124.586867232396,15.696514642535
$GPGGA,140504.00,3531.3246,N,12124.8803,W,1,10,1.0,10.0,M,-31.5,M,,*61
$PYRTM,2024,124.586878707326,15.696526117465
$GPGGA,140505.00,3531.3238,N,12124.8777,W,1,10,1.0,9.8,M,-31.5,M,,*55
$PYRTM,2024,124.586886098113,15.696533508252
$GPGGA,140506.00,3531.3230,N,12124.8751,W,1,10,1.0,9.6,M,-31.5,M,,*54
$PYRTM,2024,124.586901853206,15.696549263345
$GPGGA,140507.00,3531.3223,N,12124.8725,W,1,10,1.0,9.4,M,-31.5,M,,*56
$PYRTM,2024,124.586913426794,15.696560836933
$GPGGA,140508.00,3531.3216,N,12124.8699,W,1,10,1.0,9.4,M,-31.5,M,,*59
$PYRTM,2024,124.586925004329,15.696572414468
$GPGGA,140509.00,3531.3210,N,12124.8671,W,1,10,1.0,9.6,M,-31.5,M,,*5A
$PYRTM,2024,124.586936579942,15.696583990081
$GPGGA,140510.00,3531.3203,N,12124.8644,W,1,10,1.0,9.9,M,-31.5,M,,*59
$PYRTM,2024,124.586948265197,15.696595675336
$GPGGA,140511.00,3531.3195,N,12124.8617,W,1,10,1.0,10.2,M,-31.5,M,,*61
$PYRTM,2024,124.586959825984,15.696607236123
$GPGGA,140512.00,3531.3187,N,12124.8590,W,1,10,1.0,10.1,M,-31.5,M,,*6E
$PYRTM,2024,124.586971413970,15.696618824109
$GPGGA,140513.00,3531.3180,N,12124.8562,W,1,10,1.0,10.0,M,-31.5,M,,*64
$PYRTM,2024,124.586982974340,15.696630384479
$GPGGA,140514.00,3531.3172,N,12124.8535,W,1,10,1.0,10.0,M,-31.5,M,,*6C
$PYRTM,2024,124.586994446505,15.696641856644
$GPGGA,140515.00,3531.3164,N,12124.8508,W,1,10,1.0,9.8,M,-31.5,M,,*54
$PYRTM,2024,124.587001841609,15.696649251748
$GPGGA,140516.00,3531.3155,N,12124.8483,W,1,10,1.0,9.7,M,-31.5,M,,*58
$PYRTM,2024,124.587017596539,15.696665006678
$GPGGA,140517.00,3531.3147,N,12124.8457,W,1,10,1.0,9.7,M,-31.5,M,,*53
$PYRTM,2024,124.587029167616,15.696676577755
$GPGGA,140518.00,3531.3140,N,12124.8430,W,1,10,1.0,9.6,M,-31.5,M,,*5B
$PYRTM,2024,124.587040746262,15.696688156400
$GPGGA,140519.00,3531.3134,N,12124.8403,W,1,10,1.0,9.7,M,-31.5,M,,*58
$PYRTM,2024,124.587052317338,15.696699727477
$GPGGA,140520.00,3531.3128,N,12124.8375,W,1,10,1.0,9.8,M,-31.5,M,,*56
$PYRTM,2024,124.587059711215,15.696707121354
$GPGGA,140521.00,3531.3120,N,12124.8349,W,1,10,1.0,10.0,M,-31.5,M,,*60
$PYRTM,2024,124.587075568021,15.696722978160
$GPGGA,140522.00,3531.3111,N,12124.8323,W,1,10,1.0,10.0,M,-31.5,M,,*6D
$PYRTM,2024,124.587087149757,15.696734559896
$GPGGA,140523.00,3531.3102,N,12124.8296,W,1,10,1.0,10.0,M,-31.5,M,,*61
$PYRTM,2024,124.587098608044,15.696746018194
$GPGGA,140524.00,3531.3094,N,12124.8269,W,1,10,1.0,9.9,M,-31.5,M,,*59
$PYRTM,2024,124.587106010104,15.696753420243
$GPGGA,140525.00,3531.3087,N,12124.8243,W,1,10,1.0,9.8,M,-31.5,M,,*53
$PYRTM,2024,124.587124641852,15.696772051991
$GPGGA,140526.00,3531.3078,N,12124.8217,W,1,10,1.0,9.7,M,-31.5,M,,*5E
$PYRTM,2024,124.587133335313,15.696780745451
$GPGGA,140527.00,3531.3070,N,12124.8190,W,1,10,1.0,9.6,M,-31.5,M,,*5A
$PYRTM,2024,124.587140731007,15.696788141146
$GPGGA,140528.00,3531.3063,N,12124.8163,W,1,10,1.0,9.7,M,-31.5,M,,*5A
$PYRTM,2024,124.587156483287,15.696803893426
$GPGGA,140529.00,3531.3057,N,12124.8136,W,1,10,1.0,9.8,M,-31.5,M,,*53
$PYRTM,2024,124.587168161331,15.696815571470
$GPGGA,140530.00,3531.3050,N,12124.8108,W,1,10,1.0,10.0,M,-31.5,M,,*61
$PYRTM,2024,124.587175452986,15.696822863125
$GPGGA,140531.00,3531.3042,N,12124.8081,W,1,10,1.0,10.0,M,-31.5,M,,*63
$PYRTM,2024,124.587191308484,15.696838718623
$GPGGA,140532.00,3531.3034,N,12124.8055,W,1,10,1.0,10.0,M,-31.5,M,,*68
$PYRTM,2024,124.587202794398,15.696850204537
$GPGGA,140533.00,3531.3026,N,12124.8028,W,1,10,1.0,9.8,M,-31.5,M,,*50
$PYRTM,2024,124.587214354606,15.696861764745
$GPGGA,140534.00,3531.3018,N,12124.8001,W,1,10,1.0,9.7,M,-31.5,M,,*5E
$PYRTM,2024,124.587225925382,15.696873335521
$GPGGA,140535.00,3531.3011,N,12124.7974,W,1,10,1.0,9.6,M,-31.5,M,,*53
$PYRTM,2024,124.587237499838,15.696884909977
$GPGGA,140536.00,3531.3004,N,12124.7947,W,1,10,1.0,9.8,M,-31.5,M,,*5A
$PYRTM,2024,124.587249077384,15.696896487523
$GPGGA,140537.00,3531.2997,N,12124.7919,W,1,10,1.0,9.9,M,-31.5,M,,*53
$PYRTM,2024,124.587260753762,15.696908163912
$GPGGA,140538.00,3531.2990,N,12124.7892,W,1,10,1.0,10.0,M,-31.5,M,,*68
$PYRTM,2024,124.587272343206,15.696919753345
$GPGGA,140539.00,3531.2983,N,12124.7864,W,1,10,1.0,10.1,M,-31.5,M,,*63
$PYRTM,2024,124.587283799190,15.696931209329
$GPGGA,140540.00,3531.2976,N,12124.7837,W,1,10,1.0,9.9,M,-31.5,M,,*51
$PYRTM,2024,124.587291194722,15.696938604861
$GPGGA,140541.00,3531.2969,N,12124.7811,W,1,10,1.0,9.7,M,-31.5,M,,*54
$PYRTM,2024,124.587306947951,15.696954358102
$GPGGA,140542.00,3531.2961,N,12124.7784,W,1,10,1.0,9.4,M,-31.5,M,,*5F
$PYRTM,2024,124.587318522384,15.696965932523
$GPGGA,140543.00,3531.2954,N,12124.7757,W,1,10,1.0,9.3,M,-31.5,M,,*51
$PYRTM,2024,124.587330090637,15.696977500775
$GPGGA,140544.00,3531.2948,N,12124.7731,W,1,10,1.0,9.4,M,-31.5,M,,*5C
$PYRTM,2024,124.587341670035,15.696989080174
$GPGGA,140545.00,3531.2940,N,12124.7704,W,1,10,1.0,9.6,M,-31.5,M,,*51
$PYRTM,2024,124.587353239005,15.697000649155
$GPGGA,140546.00,3531.2932,N,12124.7677,W,1,10,1.0,9.6,M,-31.5,M,,*52
$PYRTM,2024,124.587364833646,15.697012243785
$GPGGA,140547.00,3531.2924,N,12124.7648,W,1,10,1.0,9.7,M,-31.5,M,,*59
$PYRTM,2024,124.587376495324,15.697023905463
$GPGGA,140548.00,3531.2918,N,12124.7620,W,1,10,1.0,10.0,M,-31.5,M,,*68
$PYRTM,2024,124.587388083056,15.697035493194
$GPGGA,140549.00,3531.2912,N,12124.7592,W,1,10,1.0,10.2,M,-31.5,M,,*6B
$PYRTM,2024,124.587399643472,15.697047053611
$GPGGA,140550.00,3531.2905,N,12124.7565,W,1,10,1.0,10.2,M,-31.5,M,,*6D
$PYRTM,2024,124.587411231192,15.697058641331
$GPGGA,140551.00,3531.2898,N,12124.7538,W,1,10,1.0,10.1,M,-31.5,M,,*62
$PYRTM,2024,124.587422689838,15.697070099977
$GPGGA,140552.00,3531.2890,N,12124.7512,W,1,10,1.0,9.8,M,-31.5,M,,*50
$PYRTM,2024,124.587434266366,15.697081676505
$GPGGA,140553.00,3531.2883,N,12124.7485,W,1,10,1.0,9.6,M,-31.5,M,,*52
$PYRTM,2024,124.587445838530,15.697093248669
$GPGGA,140554.00,3531.2876,N,12124.7460,W,1,10,1.0,9.5,M,-31.5,M,,*57
$PYRTM,2024,124.587457406308,15.697104816435
$GPGGA,140555.00,3531.2869,N,12124.7434,W,1,10,1.0,9.6,M,-31.5,M,,*5A
$PYRTM,2024,124.587464807824,15.697112217963
$GPGGA,140556.00,3531.2863,N,12124.7406,W,1,10,1.0,9.7,M,-31.5,M,,*53
$PYRTM,2024,124.587483454225,15.697130864363
$GPGGA,140557.00,3531.2856,N,12124.7378,W,1,10,1.0,9.9,M,-31.5,M,,*54
$PYRTM,2024,124.587492237060,15.697139647199
$GPGGA,140558.00,3531.2849,N,12124.7350,W,1,10,1.0,10.1,M,-31.5,M,,*6F
$PYRTM,2024,124.587503838102,15.697151248241
$GPGGA,140559.00,3531.2841,N,12124.7323,W,1,10,1.0,10.0,M,-31.5,M,,*63
$PYRTM,2024,124.587511103692,15.697158513843
$GPGGA,140600.00,3531.2831,N,12124.7296,W,1,10,1.0,9.9,M,-31.5,M,,*55
$PYRTM,2024,124.587523268530,15.697170678681
$GPGGA,140601.00,3531.2823,N,12124.7269,W,1,10,1.0,9.8,M,-31.5,M,,*56
$PYRTM,2024,124.587538429711,15.697185839861
$GPGGA,140602.00,3531.2816,N,12124.7241,W,1,10,1.0,9.6,M,-31.5,M,,*57
$PYRTM,2024,124.587550006921,15.697197417060
$GPGGA,140603.00,3531.2809,N,12124.7214,W,1,10,1.0,9.8,M,-31.5,M,,*56
$PYRTM,2024,124.587561579630,15.697208989769
$GPGGA,140604.00,3531.2802,N,12124.7188,W,1,10,1.0,9.8,M,-31.5,M,,*5C
$PYRTM,2024,124.587573153137,15.697220563275
$GPGGA,140605.00,3531.2794,N,12124.7162,W,1,10,1.0,9.8,M,-31.5,M,,*59
$PYRTM,2024,124.587580560856,15.697227970995
$GPGGA,140606.00,3531.2786,N,12124.7136,W,1,10,1.0,9.7,M,-31.5,M,,*57
$PYRTM,2024,124.587596303252,15.697243713403
$GPGGA,140607.00,3531.2778,N,12124.7110,W,1,10,1.0,9.8,M,-31.5,M,,*5C
$PYRTM,2024,124.587607978773,15.697255388912
$GPGGA,140608.00,3531.2772,N,12124.7081,W,1,10,1.0,10.0,M,-31.5,M,,*60
$PYRTM,2024,124.587619565683,15.697266975822
$GPGGA,140609.00,3531.2765,N,12124.7054,W,1,10,1.0,10.0,M,-31.5,M,,*6F
$PYRTM,2024,124.587631017315,15.697278427454
$GPGGA,140610.00,3531.2757,N,12124.7027,W,1,10,1.0,9.8,M,-31.5,M,,*52
$PYRTM,2024,124.587638418067,15.697285828194
$GPGGA,140611.00,3531.2749,N,12124.7000,W,1,10,1.0,9.7,M,-31.5,M,,*56
$PYRTM,2024,124.587654171227,15.697301581366
$GPGGA,140612.00,3531.2741,N,12124.6972,W,1,10,1.0,9.6,M,-31.5,M,,*51
$PYRTM,2024,124.587665746088,15.697313156227
$GPGGA,140613.00,3531.2735,N,12124.6944,W,1,10,1.0,9.6,M,-31.5,M,,*56
$PYRTM,2024,124.587677320579,15.697324730729
$GPGGA,140614.00,3531.2728,N,12124.6918,W,1,10,1.0,9.6,M,-31.5,M,,*54
$PYRTM,2024,124.587688910995,15.697336321134
$GPGGA,140615.00,3531.2720,N,12124.6893,W,1,10,1.0,9.5,M,-31.5,M,,*5C
$PYRTM,2024,124.587696290012,15.697343700162
$GPGGA,140616.00,3531.2712,N,12124.6867,W,1,10,1.0,9.6,M,-31.5,M,,*56
$PYRTM,2024,124.587712042338,15.697359452477
$GPGGA,140617.00,3531.2705,N,12124.6840,W,1,10,1.0,9.6,M,-31.5,M,,*54
$PYRTM,2024,124.587723616921,15.697371027060
$GPGGA,140618.00,3531.2698,N,12124.6813,W,1,10,1.0,9.5,M,-31.5,M,,*5B
$PYRTM,2024,124.587731011250,15.697378421389
$GPGGA,140619.00,3531.2691,N,12124.6785,W,1,10,1.0,9.7,M,-31.5,M,,*51
$PYRTM,2024,124.587746867535,15.697394277674
$GPGGA,140620.00,3531.2685,N,12124.6756,W,1,10,1.0,10.0,M,-31.5,M,,*6F
$PYRTM,2024,124.587758454410,15.697405864549
$GPGGA,140621.00,3531.2678,N,12124.6728,W,1,10,1.0,10.1,M,-31.5,M,,*64
$PYRTM,2024,124.587770016319,15.697417426458
$GPGGA,140622.00,3531.2669,N,12124.6701,W,1,10,1.0,10.0,M,-31.5,M,,*6D
$PYRTM,2024,124.587781487847,15.697428897986
$GPGGA,140623.00,3531.2661,N,12124.6675,W,1,10,1.0,9.9,M,-31.5,M,,*57
$PYRTM,2024,124.587788882095,15.697436292234
$GPGGA,140624.00,3531.2654,N,12124.6647,W,1,10,1.0,9.7,M,-31.5,M,,*59
$PYRTM,2024,124.587804636088,15.697452046227
$GPGGA,140625.00,3531.2649,N,12124.6620,W,1,10,1.0,9.5,M,-31.5,M,,*57
$PYRTM,2024,124.587816312153,15.697463722292
$GPGGA,140626.00,3531.2643,N,12124.6593,W,1,10,1.0,9.5,M,-31.5,M,,*55
$PYRTM,2024,124.587823605069,15.697471015208
$GPGGA,140627.00,3531.2635,N,12124.6567,W,1,10,1.0,9.5,M,-31.5,M,,*5E
$PYRTM,2024,124.587842241389,15.697489651528
$GPGGA,140628.00,3531.2625,N,12124.6541,W,1,10,1.0,9.5,M,-31.5,M,,*54
$PYRTM,2024,124.587851050949,15.697498461088
$GPGGA,140629.00,3531.2618,N,12124.6514,W,1,10,1.0,9.7,M,-31.5,M,,*59
$PYRTM,2024,124.587862609630,15.697510019769
$GPGGA,140630.00,3531.2614,N,12124.6486,W,1,10,1.0,10.0,M,-31.5,M,,*68
$PYRTM,2024,124.587874199016,15.697521609155
$GPGGA,140631.00,3531.2608,N,12124.6457,W,1,10,1.0,10.0,M,-31.5,M,,*68
$PYRTM,2024,124.587881591852,15.697529001991
$GPGGA,140632.00,3531.2600,N,12124.6429,W,1,10,1.0,10.0,M,-31.5,M,,*6A
$PYRTM,2024,124.587897228484,15.697544638623
$GPGGA,140633.00,3531.2591,N,12124.6402,W,1,10,1.0,9.9,M,-31.5,M,,*58
$PYRTM,2024,124.587904638993,15.697552049132
$GPGGA,140634.00,3531.2583,N,12124.6376,W,1,10,1.0,9.9,M,-31.5,M,,*58
$PYRTM,2024,124.587920377442,15.697567787581
$GPGGA,140635.00,3531.2577,N,12124.6349,W,1,10,1.0,9.8,M,-31.5,M,,*5F
$PYRTM,2024,124.587927784259,15.697575194398
$GPGGA,140636.00,3531.2572,N,12124.6322,W,1,10,1.0,9.9,M,-31.5,M,,*55
$PYRTM,2024,124.587943527396,15.697590937535
$GPGGA,140637.00,3531.2565,N,12124.6295,W,1,10,1.0,9.7,M,-31.5,M,,*51
$PYRTM,2024,124.587955099375,15.697602509514
$GPGGA,140638.00,3531.2557,N,12124.6269,W,1,10,1.0,9.6,M,-31.5,M,,*5D
$PYRTM,2024,124.587966673449,15.697614083600
$GPGGA,140639.00,3531.2549,N,12124.6243,W,1,10,1.0,9.4,M,-31.5,M,,*59
$PYRTM,2024,124.587978242801,15.697625652940
$GPGGA,140640.00,3531.2542,N,12124.6214,W,1,10,1.0,9.5,M,-31.5,M,,*5F
$PYRTM,2024,124.587989825995,15.697637236134
$GPGGA,140641.00,3531.2537,N,12124.6186,W,1,10,1.0,9.8,M,-31.5,M,,*59
$PYRTM,2024,124.588001396644,15.697648806782
$GPGGA,140642.00,3531.2530,N,12124.6158,W,1,10,1.0,9.9,M,-31.5,M,,*5F
$PYRTM,2024,124.588012995174,15.697660405313
$GPGGA,140643.00,3531.2521,N,12124.6130,W,1,10,1.0,9.9,M,-31.5,M,,*50
$PYRTM,2024,124.588020371389,15.697667781528
$GPGGA,140644.00,3531.2513,N,12124.6104,W,1,10,1.0,9.9,M,-31.5,M,,*51
$PYRTM,2024,124.588036143287,15.697683553426
$GPGGA,140645.00,3531.2505,N,12124.6077,W,1,10,1.0,9.7,M,-31.5,M,,*5C
$PYRTM,2024,124.588047694965,15.697695105104
$GPGGA,140646.00,3531.2500,N,12124.6049,W,1,10,1.0,9.6,M,-31.5,M,,*56
$PYRTM,2024,124.588059266424,15.697706676562
$GPGGA,140647.00,3531.2494,N,12124.6022,W,1,10,1.0,9.7,M,-31.5,M,,*57
$PYRTM,2024,124.588070839456,15.697718249595
$GPGGA,140648.00,3531.2487,N,12124.5996,W,1,10,1.0,9.7,M,-31.5,M,,*5F
$PYRTM,2024,124.588082426215,15.697729836354
$GPGGA,140649.00,3531.2478,N,12124.5970,W,1,10,1.0,9.8,M,-31.5,M,,*59
$PYRTM,2024,124.588093988843,15.697741398981
$GPGGA,140650.00,3531.2470,N,12124.5943,W,1,10,1.0,9.8,M,-31.5,M,,*59
$PYRTM,2024,124.588105573241,15.697752983380
$GPGGA,140651.00,3531.2463,N,12124.5916,W,1,10,1.0,9.8,M,-31.5,M,,*5A
$PYRTM,2024,124.588117132431,15.697764542569
$GPGGA,140652.00,3531.2457,N,12124.5887,W,1,10,1.0,9.9,M,-31.5,M,,*56
$PYRTM,2024,124.588128723252,15.697776133391
$GPGGA,140653.00,3531.2451,N,12124.5859,W,1,10,1.0,9.9,M,-31.5,M,,*52
$PYRTM,2024,124.588136117303,15.697783527442
$GPGGA,140654.00,3531.2444,N,12124.5831,W,1,10,1.0,9.7,M,-31.5,M,,*51
$PYRTM,2024,124.588151860741,15.697799270880
$GPGGA,140655.00,3531.2436,N,12124.5804,W,1,10,1.0,9.8,M,-31.5,M,,*5C
$PYRTM,2024,124.588163432500,15.697810842639
$GPGGA,140656.00,3531.2429,N,12124.5778,W,1,10,1.0,9.9,M,-31.5,M,,*54
$PYRTM,2024,124.588170828692,15.697818238831
$GPGGA,140657.00,3531.2421,N,12124.5752,W,1,10,1.0,9.5,M,-31.5,M,,*59
$PYRTM,2024,124.588182520660,15.697829930799
$GPGGA,140658.00,3531.2414,N,12124.5726,W,1,10,1.0,9.4,M,-31.5,M,,*52
$PYRTM,2024,124.588201064248,15.697848474387
$GPGGA,140659.00,3531.2407,N,12124.5700,W,1,10,1.0,9.4,M,-31.5,M,,*55
$PYRTM,2024,124.588209730463,15.697857140602
$GPGGA,140700.00,3531.2400,N,12124.5673,W,1,10,1.0,9.5,M,-31.5,M,,*5B
$PYRTM,2024,124.588221313542,15.697868723692
$GPGGA,140701.00,3531.2393,N,12124.5646,W,1,10,1.0,9.6,M,-31.5,M,,*52
$PYRTM,2024,124.588228711725,15.697876121863
$GPGGA,140702.00,3531.2387,N,12124.5618,W,1,10,1.0,9.8,M,-31.5,M,,*51
$PYRTM,2024,124.588244569514,15.697891979653
$GPGGA,140703.00,3531.2382,N,12124.5589,W,1,10,1.0,10.1,M,-31.5,M,,*6F
$PYRTM,2024,124.588251863472,15.697899273611
$GPGGA,140704.00,3531.2376,N,12124.5561,W,1,10,1.0,10.3,M,-31.5,M,,*67
$PYRTM,2024,124.588267717292,15.697915127431
$GPGGA,140705.00,3531.2368,N,12124.5534,W,1,10,1.0,10.3,M,-31.5,M,,*69
$PYRTM,2024,124.588279286354,15.697926696493
$GPGGA,140706.00,3531.2360,N,12124.5507,W,1,10,1.0,10.2,M,-31.5,M,,*63
$PYRTM,2024,124.588290759919,15.697938170058
$GPGGA,140707.00,3531.2352,N,12124.5481,W,1,10,1.0,9.9,M,-31.5,M,,*5F
$PYRTM,2024,124.588302323866,15.697949734005
$GPGGA,140708.00,3531.2345,N,12124.5455,W,1,10,1.0,9.6,M,-31.5,M,,*50
$PYRTM,2024,124.588313897419,15.697961307558
$GPGGA,140709.00,3531.2339,N,12124.5428,W,1,10,1.0,9.5,M,-31.5,M,,*53
$PYRTM,2024,124.588325471887,15.697972882025
$GPGGA,140710.00,3531.2333,N,12124.5403,W,1,10,1.0,9.3,M,-31.5,M,,*5E
$PYRTM,2024,124.588337055521,15.697984465660
$GPGGA,140711.00,3531.2325,N,12124.5377,W,1,10,1.0,9.2,M,-31.5,M,,*5D
$PYRTM,2024,124.588344446505,15.697991856644
$GPGGA,140712.00,3531.2318,N,12124.5351,W,1,10,1.0,9.2,M,-31.5,M,,*54
$PYRTM,2024,124.588360203021,15.698007613171
$GPGGA,140713.00,3531.2311,N,12124.5323,W,1,10,1.0,9.3,M,-31.5,M,,*58
$PYRTM,2024,124.588371767928,15.698019178067
$GPGGA,140714.00,3531.2306,N,12124.5295,W,1,10,1.0,9.8,M,-31.5,M,,*5E
$PYRTM,2024,124.588383458565,15.698030868704
$GPGGA,140715.00,3531.2299,N,12124.5268,W,1,10,1.0,10.0,M,-31.5,M,,*6A
$PYRTM,2024,124.588395027384,15.698042437523
$GPGGA,140716.00,3531.2291,N,12124.5242,W,1,10,1.0,10.2,M,-31.5,M,,*6B
$PYRTM,2024,124.588406608657,15.698054018796
$GPGGA,140717.00,3531.2282,N,12124.5215,W,1,10,1.0,10.1,M,-31.5,M,,*69
$PYRTM,2024,124.588418181296,15.698065591435
$GPGGA,140718.00,3531.2275,N,12124.5189,W,1,10,1.0,10.0,M,-31.5,M,,*69
$PYRTM,2024,124.588429639039,15.698077049178
$GPGGA,140719.00,3531.2270,N,12124.5162,W,1,10,1.0,9.7,M,-31.5,M,,*57
$PYRTM,2024,124.588441214722,15.698088624861
$GPGGA,140720.00,3531.2265,N,12124.5135,W,1,10,1.0,9.6,M,-31.5,M,,*5A
$PYRTM,2024,124.588452787303,15.698100197454
$GPGGA,140721.00,3531.2258,N,12124.5108,W,1,10,1.0,9.6,M,-31.5,M,,*5B
$PYRTM,2024,124.588460188657,15.698107598796
$GPGGA,140722.00,3531.2250,N,12124.5082,W,1,10,1.0,9.7,M,-31.5,M,,*52
$PYRTM,2024,124.588475946944,15.698123357083
$GPGGA,140723.00,3531.2242,N,12124.5056,W,1,10,1.0,9.7,M,-31.5,M,,*59
$PYRTM,2024,124.588487504873,15.698134915023
$GPGGA,140724.00,3531.2234,N,12124.5029,W,1,10,1.0,9.6,M,-31.5,M,,*56
$PYRTM,2024,124.588499083623,15.698146493762
$GPGGA,140725.00,3531.2229,N,12124.5001,W,1,10,1.0,9.7,M,-31.5,M,,*50
$PYRTM,2024,124.588510659676,15.698158069815
$GPGGA,140726.00,3531.2224,N,12124.4973,W,1,10,1.0,9.7,M,-31.5,M,,*53
$PYRTM,2024,124.588522259630,15.698169669780
$GPGGA,140727.00,3531.2216,N,12124.4946,W,1,10,1.0,9.7,M,-31.5,M,,*55
$PYRTM,2024,124.588533806771,15.698181216910
$GPGGA,140728.00,3531.2207,N,12124.4921,W,1,10,1.0,9.7,M,-31.5,M,,*5B
$PYRTM,2024,124.588541201134,15.698188611273
$GPGGA,140729.00,3531.2197,N,12124.4897,W,1,10,1.0,9.6,M,-31.5,M,,*5D
$PYRTM,2024,124.588559848137,15.698207258275
$GPGGA,140730.00,3531.2189,N,12124.4872,W,1,10,1.0,9.6,M,-31.5,M,,*51
$PYRTM,2024,124.588568528819,15.698215938958
$GPGGA,140731.00,3531.2184,N,12124.4845,W,1,10,1.0,9.7,M,-31.5,M,,*58
$PYRTM,2024,124.588580102928,15.698227513067
$GPGGA,140732.00,3531.2180,N,12124.4817,W,1,10,1.0,9.8,M,-31.5,M,,*57
$PYRTM,2024,124.588591691713,15.698239101852
$GPGGA,140733.00,3531.2174,N,12124.4789,W,1,10,1.0,9.9,M,-31.5,M,,*54
$PYRTM,2024,124.588603251910,15.698250662049
$GPGGA,140734.00,3531.2167,N,12124.4762,W,1,10,1.0,9.9,M,-31.5,M,,*54
$PYRTM,2024,124.588614943333,15.698262353472
$GPGGA,140735.00,3531.2159,N,12124.4736,W,1,10,1.0,10.2,M,-31.5,M,,*6A
$PYRTM,2024,124.588622232593,15.698269642720
$GPGGA,140736.00,3531.2152,N,12124.4709,W,1,10,1.0,10.3,M,-31.5,M,,*6F
$PYRTM,2024,124.588640867454,15.698288277593
$GPGGA,140737.00,3531.2146,N,12124.4682,W,1,10,1.0,10.2,M,-31.5,M,,*68
$PYRTM,2024,124.588652441516,15.698299851655
$GPGGA,140738.00,3531.2140,N,12124.4655,W,1,10,1.0,10.2,M,-31.5,M,,*6B
$PYRTM,2024,124.588661241806,15.698308651956
$GPGGA,140739.00,3531.2133,N,12124.4630,W,1,10,1.0,10.1,M,-31.5,M,,*6E
$PYRTM,2024,124.588672806030,15.698320216169
$GPGGA,140740.00,3531.2123,N,12124.4606,W,1,10,1.0,10.0,M,-31.5,M,,*65
$PYRTM,2024,124.588684278900,15.698331689039
$GPGGA,140741.00,3531.2114,N,12124.4581,W,1,10,1.0,9.8,M,-31.5,M,,*5C
$PYRTM,2024,124.588695844873,15.698343255012
$GPGGA,140742.00,3531.2108,N,12124.4553,W,1,10,1.0,9.8,M,-31.5,M,,*5D
$PYRTM,2024,124.588707538692,15.698354948843
$GPGGA,140743.00,3531.2103,N,12124.4526,W,1,10,1.0,10.1,M,-31.5,M,,*64
$PYRTM,2024,124.588719104097,15.698366514236
$GPGGA,140744.00,3531.2097,N,12124.4498,W,1,10,1.0,10.3,M,-31.5,M,,*69
$PYRTM,2024,124.588730683056,15.698378093194
$GPGGA,140745.00,3531.2089,N,12124.4471,W,1,10,1.0,10.2,M,-31.5,M,,*61
$PYRTM,2024,124.588742256296,15.698389666435
$GPGGA,140746.00,3531.2081,N,12124.4446,W,1,10,1.0,10.2,M,-31.5,M,,*6E
$PYRTM,2024,124.588753832917,15.698401243056
$GPGGA,140747.00,3531.2074,N,12124.4419,W,1,10,1.0,10.2,M,-31.5,M,,*6F
$PYRTM,2024,124.588765405440,15.698412815579
$GPGGA,140748.00,3531.2069,N,12124.4392,W,1,10,1.0,10.0,M,-31.5,M,,*6A
$PYRTM,2024,124.588776874711,15.698424284861
$GPGGA,140749.00,3531.2064,N,12124.4364,W,1,10,1.0,9.9,M,-31.5,M,,*5E
$PYRTM,2024,124.588788437569,15.698435847708
$GPGGA,140750.00,3531.2057,N,12124.4339,W,1,10,1.0,9.7,M,-31.5,M,,*50
$PYRTM,2024,124.588800013113,15.698447423252
$GPGGA,140751.00,3531.2049,N,12124.4313,W,1,10,1.0,9.5,M,-31.5,M,,*54
$PYRTM,2024,124.588807418009,15.698454828160
$GPGGA,140752.00,3531.2041,N,12124.4287,W,1,10,1.0,9.6,M,-31.5,M,,*50
$PYRTM,2024,124.588823159630,15.698470569780
$GPGGA,140753.00,3531.2035,N,12124.4259,W,1,10,1.0,9.9,M,-31.5,M,,*5E
$PYRTM,2024,124.588834849456,15.698482259595
$GPGGA,140754.00,3531.2028,N,12124.4231,W,1,10,1.0,10.1,M,-31.5,M,,*6B
$PYRTM,2024,124.588846439583,15.698493849722
$GPGGA,140755.00,3531.2020,N,12124.4204,W,1,10,1.0,10.1,M,-31.5,M,,*64
$PYRTM,2024,124.588857883183,15.698505293322
$GPGGA,140756.00,3531.2011,N,12124.4177,W,1,10,1.0,9.9,M,-31.5,M,,*52
$PYRTM,2024,124.588865277755,15.698512687905
$GPGGA,140757.00,3531.2004,N,12124.4150,W,1,10,1.0,9.9,M,-31.5,M,,*52
$PYRTM,2024,124.588881030347,15.698528440486
$GPGGA,140758.00,3531.1998,N,12124.4123,W,1,10,1.0,9.8,M,-31.5,M,,*57
$PYRTM,2024,124.588888427419,15.698535837569
$GPGGA,140759.00,3531.1993,N,12124.4095,W,1,10,1.0,9.7,M,-31.5,M,,*5E
$PYRTM,2024,124.588900128171,15.698547538310
$GPGGA,140800.00,3531.1986,N,12124.4070,W,1,10,1.0,9.6,M,-31.5,M,,*53
$PYRTM,2024,124.588918647535,15.698566057674
$GPGGA,140801.00,3531.1978,N,12124.4045,W,1,10,1.0,9.7,M,-31.5,M,,*54
$PYRTM,2024,124.588927328438,15.698574738576
$GPGGA,140802.00,3531.1969,N,12124.4021,W,1,10,1.0,9.8,M,-31.5,M,,*5A
$PYRTM,2024,124.588938900891,15.698586311030
$GPGGA,140803.00,3531.1962,N,12124.3994,W,1,10,1.0,9.9,M,-31.5,M,,*51
$PYRTM,2024,124.588950476192,15.698597886331
$GPGGA,140804.00,3531.1957,N,12124.3966,W,1,10,1.0,9.9,M,-31.5,M,,*5D
$PYRTM,2024,124.588962170937,15.698609581076
$GPGGA,140805.00,3531.1951,N,12124.3938,W,1,10,1.0,10.0,M,-31.5,M,,*60
$PYRTM,2024,124.588973740567,15.698621150706
$GPGGA,140806.00,3531.1943,N,12124.3911,W,1,10,1.0,10.1,M,-31.5,M,,*6A
$PYRTM,2024,124.588985313993,15.698632724144
$GPGGA,140807.00,3531.1934,N,12124.3884,W,1,10,1.0,10.1,M,-31.5,M,,*66
$PYRTM,2024,124.588996888530,15.698644298669
$GPGGA,140808.00,3531.1926,N,12124.3856,W,1,10,1.0,10.0,M,-31.5,M,,*64
$PYRTM,2024,124.589004167292,15.698651577431
$GPGGA,140809.00,3531.1919,N,12124.3828,W,1,10,1.0,10.0,M,-31.5,M,,*60
$PYRTM,2024,124.589019921435,15.698667331574
$GPGGA,140810.00,3531.1913,N,12124.3801,W,1,10,1.0,9.9,M,-31.5,M,,*58
$PYRTM,2024,124.589031502535,15.698678912674
$GPGGA,140811.00,3531.1905,N,12124.3776,W,1,10,1.0,9.7,M,-31.5,M,,*5F
$PYRTM,2024,124.589038896250,15.698686306389
$GPGGA,140812.00,3531.1897,N,12124.3752,W,1,10,1.0,9.6,M,-31.5,M,,*51
$PYRTM,2024,124.589054642755,15.698702052894
$GPGGA,140813.00,3531.1889,N,12124.3726,W,1,10,1.0,9.4,M,-31.5,M,,*5E
$PYRTM,2024,124.589066217095,15.698713627234
$GPGGA,140814.00,3531.1882,N,12124.3699,W,1,10,1.0,9.5,M,-31.5,M,,*56
$PYRTM,2024,124.589077803252,15.698725213391
$GPGGA,140815.00,3531.1877,N,12124.3671,W,1,10,1.0,9.7,M,-31.5,M,,*59
$PYRTM,2024,124.589089482512,15.698736892650
$GPGGA,140816.00,3531.1870,N,12124.3644,W,1,10,1.0,10.0,M,-31.5,M,,*64
$PYRTM,2024,124.589101056100,15.698748466238
$GPGGA,140817.00,3531.1862,N,12124.3617,W,1,10,1.0,10.1,M,-31.5,M,,*61
$PYRTM,2024,124.589112629410,15.698760039549
$GPGGA,140818.00,3531.1852,N,12124.3590,W,1,10,1.0,10.0,M,-31.5,M,,*60
$PYRTM,2024,124.589124088021,15.698771498160
$GPGGA,140819.00,3531.1845,N,12124.3562,W,1,10,1.0,9.9,M,-31.5,M,,*5B
$PYRTM,2024,124.589135777025,15.698783187164
$GPGGA,140820.00,3531.1839,N,12124.3534,W,1,10,1.0,10.0,M,-31.5,M,,*68
$PYRTM,2024,124.589147250822,15.698794660961
$GPGGA,140821.00,3531.1832,N,12124.3508,W,1,10,1.0,9.9,M,-31.5,M,,*5C
$PYRTM,2024,124.589158810370,15.698806220509
$GPGGA,140822.00,3531.1823,N,12124.3483,W,1,10,1.0,9.8,M,-31.5,M,,*5C
$PYRTM,2024,124.589170394873,15.698817805012
$GPGGA,140823.00,3531.1815,N,12124.3457,W,1,10,1.0,9.6,M,-31.5,M,,*5F
$PYRTM,2024,124.589177785266,15.698825195405
$GPGGA,140824.00,3531.1808,N,12124.3431,W,1,10,1.0,9.4,M,-31.5,M,,*56
$PYRTM,2024,124.589189469456,15.698836879595
$GPGGA,140825.00,3531.1803,N,12124.3404,W,1,10,1.0,9.4,M,-31.5,M,,*5A
$PYRTM,2024,124.589205106806,15.698852516944
$GPGGA,140826.00,3531.1798,N,12124.3376,W,1,10,1.0,9.5,M,-31.5,M,,*57
$PYRTM,2024,124.589216681053,15.698864091204
$GPGGA,140827.00,3531.1791,N,12124.3350,W,1,10,1.0,9.6,M,-31.5,M,,*58
$PYRTM,2024,124.589228255579,15.698875665718
$GPGGA,140828.00,3531.1781,N,12124.3324,W,1,10,1.0,9.8,M,-31.5,M,,*5B
$PYRTM,2024,124.589239829201,15.698887239340
$GPGGA,140829.00,3531.1772,N,12124.3298,W,1,10,1.0,9.7,M,-31.5,M,,*5F
$PYRTM,2024,124.589251399109,15.698898809248
$GPGGA,140830.00,3531.1765,N,12124.3270,W,1,10,1.0,9.8,M,-31.5,M,,*58
$PYRTM,2024,124.589258798669,15.698906208808
$GPGGA,140831.00,3531.1760,N,12124.3241,W,1,10,1.0,10.0,M,-31.5,M,,*6E
$PYRTM,2024,124.589277445602,15.698924855741
$GPGGA,140832.00,3531.1754,N,12124.3213,W,1,10,1.0,10.2,M,-31.5,M,,*6F
$PYRTM,2024,124.589286242153,15.698933652292
$GPGGA,140833.00,3531.1746,N,12124.3187,W,1,10,1.0,10.2,M,-31.5,M,,*63
$PYRTM,2024,124.589297816123,15.698945226262
$GPGGA,140834.00,3531.1737,N,12124.3161,W,1,10,1.0,9.9,M,-31.5,M,,*59
$PYRTM,2024,124.589309391285,15.698956801424
$GPGGA,140835.00,3531.1730,N,12124.3135,W,1,10,1.0,9.7,M,-31.5,M,,*50
$PYRTM,2024,124.589320958924,15.698968369063
$GPGGA,140836.00,3531.1725,N,12124.3108,W,1,10,1.0,9.4,M,-31.5,M,,*5A
$PYRTM,2024,124.589332541134,15.698979951285
$GPGGA,140837.00,3531.1720,N,12124.3081,W,1,10,1.0,9.3,M,-31.5,M,,*59
$PYRTM,2024,124.589344107546,15.698991517685
