$PYRTM,2024,127.166670386725,18.276317796863
$GPGGA,035959.00,3359.1738,N,11926.2678,W,1,09,1.0,8.3,M,-33.6,M,,*52
$PYRTM,2024,127.166681988264,18.276329398403
$GPGGA,040000.00,3359.1741,N,11926.2704,W,1,09,1.0,8.7,M,-33.6,M,,*55
$PYRTM,2024,127.166689267060,18.276336677199
$GPGGA,040001.00,3359.1744,N,11926.2732,W,1,09,1.0,8.9,M,-33.6,M,,*5A
$PYRTM,2024,127.166705123461,18.276352533611
$GPGGA,040002.00,3359.1746,N,11926.2763,W,1,09,1.0,8.8,M,-33.6,M,,*5E
$PYRTM,2024,127.166716683484,18.276364093623
$GPGGA,040003.00,3359.1748,N,11926.2791,W,1,09,1.0,8.6,M,-33.6,M,,*52
$PYRTM,2024,127.166723974873,18.276371385012
$GPGGA,040004.00,3359.1751,N,11926.2818,W,1,09,1.0,8.6,M,-33.6,M,,*53
$PYRTM,2024,127.166739831493,18.276387241632
$GPGGA,040005.00,3359.1754,N,11926.2847,W,1,09,1.0,8.5,M,-33.6,M,,*5E
$PYRTM,2024,127.166751418958,18.276398829109
$GPGGA,040006.00,3359.1756,N,11926.2877,W,1,09,1.0,8.3,M,-33.6,M,,*5A
$PYRTM,2024,127.166758699016,18.276406109155
$GPGGA,040007.00,3359.1756,N,11926.2905,W,1,09,1.0,8.4,M,-33.6,M,,*58
$PYRTM,2024,127.166774563669,18.276421973808
$GPGGA,040008.00,3359.1758,N,11926.2934,W,1,09,1.0,8.3,M,-33.6,M,,*5C
$PYRTM,2024,127.166786129826,18.276433539965
$GPGGA,040009.00,3359.1761,N,11926.2964,W,1,09,1.0,8.3,M,-33.6,M,,*52
$PYRTM,2024,127.166793420069,18.276440830208
$GPGGA,040010.00,3359.1764,N,11926.2992,W,1,09,1.0,8.3,M,-33.6,M,,*56
$PYRTM,2024,127.166809277755,18.276456687894
$GPGGA,040011.00,3359.1766,N,11926.3019,W,1,09,1.0,8.5,M,-33.6,M,,*58
$PYRTM,2024,127.166820878113,18.276468288252
$GPGGA,040012.00,3359.1767,N,11926.3049,W,1,09,1.0,8.6,M,-33.6,M,,*5C
$PYRTM,2024,127.166828146053,18.276475556192
$GPGGA,040013.00,3359.1769,N,11926.3079,W,1,09,1.0,8.4,M,-33.6,M,,*52
$PYRTM,2024,127.166844027523,18.276491437674
$GPGGA,040014.00,3359.1771,N,11926.3107,W,1,09,1.0,8.3,M,-33.6,M,,*53
$PYRTM,2024,127.166855574630,18.276502984769
$GPGGA,040015.00,3359.1775,N,11926.3135,W,1,09,1.0,8.5,M,-33.6,M,,*51
$PYRTM,2024,127.166862866678,18.276510276817
$GPGGA,040016.00,3359.1780,N,11926.3163,W,1,09,1.0,8.7,M,-33.6,M,,*59
$PYRTM,2024,127.166878722338,18.276526132477
$GPGGA,040017.00,3359.1783,N,11926.3193,W,1,09,1.0,8.7,M,-33.6,M,,*54
$PYRTM,2024,127.166890309016,18.276537719167
$GPGGA,040018.00,3359.1783,N,11926.3222,W,1,09,1.0,8.6,M,-33.6,M,,*53
$PYRTM,2024,127.166901871563,18.276549281701
$GPGGA,040019.00,3359.1785,N,11926.3251,W,1,09,1.0,8.6,M,-33.6,M,,*50
$PYRTM,2024,127.166913457106,18.276560867245
$GPGGA,040020.00,3359.1788,N,11926.3279,W,1,09,1.0,8.7,M,-33.6,M,,*5C
$PYRTM,2024,127.166920749583,18.276568159722
$GPGGA,040021.00,3359.1792,N,11926.3308,W,1,09,1.0,8.8,M,-33.6,M,,*5E
$PYRTM,2024,127.166939384167,18.276586794306
$GPGGA,040022.00,3359.1795,N,11926.3336,W,1,09,1.0,9.0,M,-33.6,M,,*5E
$PYRTM,2024,127.166950952477,18.276598362616
$GPGGA,040023.00,3359.1797,N,11926.3365,W,1,09,1.0,9.2,M,-33.6,M,,*59
$PYRTM,2024,127.166959754630,18.276607164769
$GPGGA,040024.00,3359.1799,N,11926.3394,W,1,09,1.0,9.0,M,-33.6,M,,*5C
$PYRTM,2024,127.166971314225,18.276618724363
$GPGGA,040025.00,3359.1800,N,11926.3425,W,1,09,1.0,8.7,M,-33.6,M,,*59
$PYRTM,2024,127.166982901863,18.276630312002
$GPGGA,040026.00,3359.1802,N,11926.3455,W,1,09,1.0,8.5,M,-33.6,M,,*5D
$PYRTM,2024,127.166994463044,18.276641873183
$GPGGA,040027.00,3359.1806,N,11926.3481,W,1,09,1.0,9.4,M,-33.6,M,,*51
$PYRTM,2024,127.167001755417,18.276649165556
$GPGGA,040028.00,3359.1810,N,11926.3508,W,1,09,1.0,9.7,M,-33.6,M,,*5A
$PYRTM,2024,127.167020393657,18.276667803796
$GPGGA,040029.00,3359.1812,N,11926.3539,W,1,09,1.0,9.5,M,-33.6,M,,*59
$PYRTM,2024,127.167029202130,18.276676612269
$GPGGA,040030.00,3359.1813,N,11926.3569,W,1,09,1.0,9.1,M,-33.6,M,,*51
$PYRTM,2024,127.167040762546,18.276688172685
$GPGGA,040031.00,3359.1814,N,11926.3596,W,1,09,1.0,9.0,M,-33.6,M,,*56
$PYRTM,2024,127.167052351169,18.276699761308
$GPGGA,040032.00,3359.1817,N,11926.3624,W,1,09,1.0,9.0,M,-33.6,M,,*5C
$PYRTM,2024,127.167063908750,18.276711318889
$GPGGA,040033.00,3359.1821,N,11926.3653,W,1,09,1.0,9.2,M,-33.6,M,,*5A
$PYRTM,2024,127.167075495903,18.276722906042
$GPGGA,040034.00,3359.1825,N,11926.3681,W,1,09,1.0,9.4,M,-33.6,M,,*50
$PYRTM,2024,127.167087057361,18.276734467500
$GPGGA,040035.00,3359.1827,N,11926.3710,W,1,09,1.0,9.4,M,-33.6,M,,*5A
$PYRTM,2024,127.167098645301,18.276746055440
$GPGGA,040036.00,3359.1828,N,11926.3739,W,1,09,1.0,9.3,M,-33.6,M,,*5A
$PYRTM,2024,127.167110206296,18.276757616435
$GPGGA,040037.00,3359.1831,N,11926.3768,W,1,09,1.0,9.1,M,-33.6,M,,*55
$PYRTM,2024,127.167117497002,18.276764907141
$GPGGA,040038.00,3359.1834,N,11926.3797,W,1,09,1.0,9.1,M,-33.6,M,,*5F
$PYRTM,2024,127.167133354769,18.276780764907
$GPGGA,040039.00,3359.1837,N,11926.3826,W,1,09,1.0,9.0,M,-33.6,M,,*59
$PYRTM,2024,127.167144940370,18.276792350509
$GPGGA,040040.00,3359.1840,N,11926.3855,W,1,09,1.0,9.0,M,-33.6,M,,*53
$PYRTM,2024,127.167152220046,18.276799630185
$GPGGA,040041.00,3359.1842,N,11926.3883,W,1,09,1.0,9.1,M,-33.6,M,,*5A
$PYRTM,2024,127.167168089722,18.276815499861
$GPGGA,040042.00,3359.1844,N,11926.3912,W,1,09,1.0,9.3,M,-33.6,M,,*54
$PYRTM,2024,127.167175367882,18.276822778032
$GPGGA,040043.00,3359.1846,N,11926.3941,W,1,09,1.0,9.3,M,-33.6,M,,*51
$PYRTM,2024,127.167187188519,18.276834598657
$GPGGA,040044.00,3359.1850,N,11926.3970,W,1,09,1.0,9.2,M,-33.6,M,,*52
$PYRTM,2024,127.167202798495,18.276850208634
$GPGGA,040045.00,3359.1852,N,11926.3999,W,1,09,0.8,9.2,M,-33.6,M,,*5F
$PYRTM,2024,127.167214400162,18.276861810301
$GPGGA,040046.00,3359.1853,N,11926.4028,W,1,09,0.8,9.3,M,-33.6,M,,*58
$PYRTM,2024,127.167225946956,18.276873357095
$GPGGA,040047.00,3359.1856,N,11926.4057,W,1,09,0.8,9.6,M,-33.6,M,,*51
$PYRTM,2024,127.167237537720,18.276884947870
$GPGGA,040048.00,3359.1859,N,11926.4085,W,1,09,0.8,9.8,M,-33.6,M,,*50
$PYRTM,2024,127.167244826644,18.276892236782
$GPGGA,040049.00,3359.1863,N,11926.4114,W,1,09,0.8,9.8,M,-33.6,M,,*51
$PYRTM,2024,127.167260682454,18.276908092593
$GPGGA,040050.00,3359.1865,N,11926.4144,W,1,09,0.8,9.5,M,-33.6,M,,*57
$PYRTM,2024,127.167272243924,18.276919654062
$GPGGA,040051.00,3359.1866,N,11926.4173,W,1,09,0.8,9.2,M,-33.6,M,,*56
$PYRTM,2024,127.167283826088,18.276931236227
$GPGGA,040052.00,3359.1869,N,11926.4201,W,1,09,0.8,9.2,M,-33.6,M,,*5C
$PYRTM,2024,127.167295392245,18.276942802384
$GPGGA,040053.00,3359.1872,N,11926.4228,W,1,09,0.8,9.5,M,-33.6,M,,*5B
$PYRTM,2024,127.167302683553,18.276950093692
$GPGGA,040054.00,3359.1875,N,11926.4258,W,1,09,0.8,9.5,M,-33.6,M,,*5C
$PYRTM,2024,127.167318541759,18.276965951898
$GPGGA,040055.00,3359.1877,N,11926.4288,W,1,09,0.8,9.4,M,-33.6,M,,*53
$PYRTM,2024,127.167330129051,18.276977539190
$GPGGA,040056.00,3359.1879,N,11926.4317,W,1,09,0.8,9.5,M,-33.6,M,,*58
$PYRTM,2024,127.167341689271,18.276989099410
$GPGGA,040057.00,3359.1882,N,11926.4345,W,1,09,0.8,9.9,M,-33.6,M,,*56
$PYRTM,2024,127.167353276377,18.277000686516
$GPGGA,040058.00,3359.1885,N,11926.4374,W,1,09,0.8,10.0,M,-33.6,M,,*6D
$PYRTM,2024,127.167360556053,18.277007966192
$GPGGA,040059.00,3359.1888,N,11926.4404,W,1,09,0.8,9.8,M,-33.6,M,,*51
$PYRTM,2024,127.167379197523,18.277026607662
$GPGGA,040100.00,3359.1891,N,11926.4433,W,1,09,0.8,9.5,M,-33.6,M,,*5D
$PYRTM,2024,127.167387987072,18.277035397222
$GPGGA,040101.00,3359.1893,N,11926.4461,W,1,09,0.8,9.6,M,-33.6,M,,*5A
$PYRTM,2024,127.167395277546,18.277042687697
$GPGGA,040102.00,3359.1896,N,11926.4489,W,1,09,0.8,10.0,M,-33.6,M,,*64
$PYRTM,2024,127.167411133900,18.277058544039
$GPGGA,040103.00,3359.1898,N,11926.4520,W,1,09,0.8,9.9,M,-33.6,M,,*58
$PYRTM,2024,127.167422724190,18.277070134329
$GPGGA,040104.00,3359.1900,N,11926.4550,W,1,09,0.8,10.3,M,-33.6,M,,*6A
$PYRTM,2024,127.167434284178,18.277081694317
$GPGGA,040105.00,3359.1902,N,11926.4578,W,1,09,0.8,9.8,M,-33.6,M,,*50
$PYRTM,2024,127.167445869873,18.277093280012
$GPGGA,040106.00,3359.1904,N,11926.4606,W,1,09,0.8,9.6,M,-33.6,M,,*51
$PYRTM,2024,127.167453163831,18.277100573970
$GPGGA,040107.00,3359.1907,N,11926.4635,W,1,09,0.8,9.8,M,-33.6,M,,*5D
$PYRTM,2024,127.167469018160,18.277116428299
$GPGGA,040108.00,3359.1909,N,11926.4663,W,1,09,0.8,10.1,M,-33.6,M,,*6E
$PYRTM,2024,127.167480579213,18.277127989352
$GPGGA,040109.00,3359.1912,N,11926.4691,W,1,09,0.8,10.3,M,-33.6,M,,*6A
$PYRTM,2024,127.167492162419,18.277139572558
$GPGGA,040110.00,3359.1915,N,11926.4721,W,1,09,0.8,10.0,M,-33.6,M,,*6C
$PYRTM,2024,127.167503728229,18.277151138368
$GPGGA,040111.00,3359.1917,N,11926.4751,W,1,09,0.8,9.5,M,-33.6,M,,*55
$PYRTM,2024,127.167515315984,18.277162726123
$GPGGA,040112.00,3359.1919,N,11926.4780,W,1,09,0.8,9.3,M,-33.6,M,,*52
$PYRTM,2024,127.167526875150,18.277174285301
$GPGGA,040113.00,3359.1922,N,11926.4807,W,1,09,0.8,9.2,M,-33.6,M,,*5A
$PYRTM,2024,127.167538457731,18.277185867870
$GPGGA,040114.00,3359.1926,N,11926.4834,W,1,09,0.8,10.0,M,-33.6,M,,*63
$PYRTM,2024,127.167550026169,18.277197436308
$GPGGA,040115.00,3359.1930,N,11926.4865,W,1,09,0.8,10.3,M,-33.6,M,,*62
$PYRTM,2024,127.167561945729,18.277209355868
$GPGGA,040116.00,3359.1932,N,11926.4895,W,1,09,0.8,10.0,M,-33.6,M,,*6F
$PYRTM,2024,127.167573171933,18.277220582072
$GPGGA,040117.00,3359.1934,N,11926.4923,W,1,09,0.8,9.9,M,-33.6,M,,*55
$PYRTM,2024,127.167584762755,18.277232172894
$GPGGA,040118.00,3359.1936,N,11926.4951,W,1,09,0.8,10.0,M,-33.6,M,,*6C
$PYRTM,2024,127.167596320972,18.277243731111
$GPGGA,040119.00,3359.1940,N,11926.4980,W,1,09,0.8,10.0,M,-33.6,M,,*60
$PYRTM,2024,127.167607911921,18.277255322072
$GPGGA,040120.00,3359.1944,N,11926.5008,W,1,09,0.8,10.1,M,-33.6,M,,*67
$PYRTM,2024,127.167619468634,18.277266878773
$GPGGA,040121.00,3359.1947,N,11926.5036,W,1,09,0.8,10.3,M,-33.6,M,,*6A
$PYRTM,2024,127.167631056528,18.277278466667
$GPGGA,040122.00,3359.1947,N,11926.5066,W,1,09,0.8,10.3,M,-33.6,M,,*6C
$PYRTM,2024,127.167642616921,18.277290027060
$GPGGA,040123.00,3359.1948,N,11926.5095,W,1,09,0.8,10.1,M,-33.6,M,,*6C
$PYRTM,2024,127.167654205637,18.277301615775
$GPGGA,040124.00,3359.1951,N,11926.5124,W,1,09,0.8,10.0,M,-33.6,M,,*69
$PYRTM,2024,127.167665765093,18.277313175231
$GPGGA,040125.00,3359.1954,N,11926.5152,W,1,09,0.8,10.2,M,-33.6,M,,*6E
$PYRTM,2024,127.167673173854,18.277320583993
$GPGGA,040126.00,3359.1958,N,11926.5181,W,1,09,0.8,10.5,M,-33.6,M,,*68
$PYRTM,2024,127.167688914248,18.277336324398
$GPGGA,040127.00,3359.1960,N,11926.5210,W,1,09,0.8,10.8,M,-33.6,M,,*64
$PYRTM,2024,127.167700501366,18.277347911505
$GPGGA,040128.00,3359.1962,N,11926.5238,W,1,09,0.8,11.1,M,-33.6,M,,*6B
$PYRTM,2024,127.167712062245,18.277359472384
$GPGGA,040129.00,3359.1965,N,11926.5267,W,1,09,0.8,11.0,M,-33.6,M,,*66
$PYRTM,2024,127.167719469120,18.277366879259
$GPGGA,040130.00,3359.1968,N,11926.5297,W,1,09,0.8,10.6,M,-33.6,M,,*6B
$PYRTM,2024,127.167738116690,18.277385526829
$GPGGA,040131.00,3359.1972,N,11926.5325,W,1,09,0.8,10.3,M,-33.6,M,,*6C
$PYRTM,2024,127.167746800521,18.277394210660
$GPGGA,040132.00,3359.1975,N,11926.5354,W,1,09,0.8,10.3,M,-33.6,M,,*6E
$PYRTM,2024,127.167754193692,18.277401603843
$GPGGA,040133.00,3359.1978,N,11926.5381,W,1,09,0.8,10.6,M,-33.6,M,,*6F
$PYRTM,2024,127.167769949294,18.277417359433
$GPGGA,040134.00,3359.1981,N,11926.5410,W,1,09,0.8,10.7,M,-33.6,M,,*60
$PYRTM,2024,127.167781508287,18.277428918426
$GPGGA,040135.00,3359.1983,N,11926.5440,W,1,09,0.8,10.5,M,-33.6,M,,*64
$PYRTM,2024,127.167788915289,18.277436325428
$GPGGA,040136.00,3359.1984,N,11926.5470,W,1,09,0.8,10.2,M,-33.6,M,,*64
$PYRTM,2024,127.167804654861,18.277452065000
$GPGGA,040137.00,3359.1987,N,11926.5497,W,1,09,0.8,10.3,M,-33.6,M,,*6E
$PYRTM,2024,127.167816244618,18.277463654757
$GPGGA,040138.00,3359.1992,N,11926.5525,W,1,09,0.8,10.4,M,-33.6,M,,*6A
$PYRTM,2024,127.167827803981,18.277475214120
$GPGGA,040139.00,3359.1995,N,11926.5555,W,1,09,0.8,10.3,M,-33.6,M,,*6C
$PYRTM,2024,127.167839391782,18.277486801921
$GPGGA,040140.00,3359.1997,N,11926.5584,W,1,09,0.8,10.2,M,-33.6,M,,*6D
$PYRTM,2024,127.167846802072,18.277494212211
$GPGGA,040141.00,3359.1998,N,11926.5612,W,1,09,0.8,10.5,M,-33.6,M,,*68
$PYRTM,2024,127.167862540683,18.277509950822
$GPGGA,040142.00,3359.2000,N,11926.5640,W,1,09,0.8,10.6,M,-33.6,M,,*64
$PYRTM,2024,127.167874102500,18.277521512639
$GPGGA,040143.00,3359.2005,N,11926.5670,W,1,09,0.8,10.3,M,-33.6,M,,*66
$PYRTM,2024,127.167885688634,18.277533098773
$GPGGA,040144.00,3359.2010,N,11926.5698,W,1,09,0.8,10.1,M,-33.6,M,,*61
$PYRTM,2024,127.167897249977,18.277544660116
$GPGGA,040145.00,3359.2013,N,11926.5725,W,1,09,0.8,10.4,M,-33.6,M,,*61
$PYRTM,2024,127.167908836528,18.277556246667
$GPGGA,040146.00,3359.2015,N,11926.5754,W,1,09,0.8,10.5,M,-33.6,M,,*63
$PYRTM,2024,127.167920397106,18.277567807245
$GPGGA,040147.00,3359.2016,N,11926.5784,W,1,09,0.8,10.3,M,-33.6,M,,*6A
$PYRTM,2024,127.167927804144,18.277575214282
$GPGGA,040148.00,3359.2020,N,11926.5813,W,1,09,0.8,9.8,M,-33.6,M,,*52
$PYRTM,2024,127.167943546100,18.277590956250
$GPGGA,040149.00,3359.2024,N,11926.5840,W,1,09,0.8,9.9,M,-33.6,M,,*50
$PYRTM,2024,127.167955146794,18.277602556933
$GPGGA,040150.00,3359.2028,N,11926.5868,W,1,09,0.8,10.0,M,-33.6,M,,*6F
$PYRTM,2024,127.167966693796,18.277614103935
$GPGGA,040151.00,3359.2030,N,11926.5898,W,1,09,0.8,10.0,M,-33.6,M,,*68
$PYRTM,2024,127.167978295718,18.277625705856
$GPGGA,040152.00,3359.2032,N,11926.5928,W,1,09,0.8,9.9,M,-33.6,M,,*52
$PYRTM,2024,127.167989842731,18.277637252870
$GPGGA,040153.00,3359.2034,N,11926.5957,W,1,09,0.8,9.8,M,-33.6,M,,*5C
$PYRTM,2024,127.168001429664,18.277648839803
$GPGGA,040154.00,3359.2038,N,11926.5984,W,1,09,0.8,10.1,M,-33.6,M,,*68
$PYRTM,2024,127.168012995231,18.277660405370
$GPGGA,040155.00,3359.2041,N,11926.6013,W,1,09,0.8,10.2,M,-33.6,M,,*60
$PYRTM,2024,127.168024578113,18.277671988252
$GPGGA,040156.00,3359.2045,N,11926.6043,W,1,09,0.8,9.9,M,-33.6,M,,*51
$PYRTM,2024,127.168036140718,18.277683550868
$GPGGA,040157.00,3359.2047,N,11926.6071,W,1,09,0.8,9.9,M,-33.6,M,,*53
$PYRTM,2024,127.168043546192,18.277690956331
$GPGGA,040158.00,3359.2048,N,11926.6098,W,1,09,0.8,10.0,M,-33.6,M,,*65
$PYRTM,2024,127.168059288102,18.277706698241
$GPGGA,040159.00,3359.2051,N,11926.6127,W,1,09,0.8,10.0,M,-33.6,M,,*69
$PYRTM,2024,127.168070875197,18.277718285336
$GPGGA,040200.00,3359.2054,N,11926.6156,W,1,09,0.8,9.9,M,-33.6,M,,*54
$PYRTM,2024,127.168078153194,18.277725563333
$GPGGA,040201.00,3359.2057,N,11926.6184,W,1,09,0.8,9.8,M,-33.6,M,,*58
$PYRTM,2024,127.168096911273,18.277744321424
$GPGGA,040202.00,3359.2060,N,11926.6212,W,1,09,0.8,10.0,M,-33.6,M,,*63
$PYRTM,2024,127.168108361481,18.277755771620
$GPGGA,040203.00,3359.2062,N,11926.6240,W,1,09,0.8,9.9,M,-33.6,M,,*56
$PYRTM,2024,127.168120064769,18.277767474907
$GPGGA,040204.00,3359.2064,N,11926.6268,W,1,09,0.8,10.0,M,-33.6,M,,*6C
$PYRTM,2024,127.168128733611,18.277776143750
$GPGGA,040205.00,3359.2067,N,11926.6297,W,1,09,0.8,9.9,M,-33.6,M,,*5F
$PYRTM,2024,127.168140334340,18.277787744491
$GPGGA,040206.00,3359.2070,N,11926.6326,W,1,09,0.8,9.7,M,-33.6,M,,*5F
$PYRTM,2024,127.168151881898,18.277799292037
$GPGGA,040207.00,3359.2074,N,11926.6355,W,1,09,0.8,9.7,M,-33.6,M,,*5E
$PYRTM,2024,127.168163482280,18.277810892419
$GPGGA,040208.00,3359.2078,N,11926.6383,W,1,09,0.8,9.8,M,-33.6,M,,*59
$PYRTM,2024,127.168175028310,18.277822438449
$GPGGA,040209.00,3359.2081,N,11926.6413,W,1,09,0.8,9.7,M,-33.6,M,,*5F
$PYRTM,2024,127.168186618507,18.277834028657
$GPGGA,040210.00,3359.2084,N,11926.6441,W,1,09,0.8,9.7,M,-33.6,M,,*55
$PYRTM,2024,127.168198177975,18.277845588113
$GPGGA,040211.00,3359.2087,N,11926.6469,W,1,09,0.8,9.7,M,-33.6,M,,*5D
$PYRTM,2024,127.168209765475,18.277857175613
$GPGGA,040212.00,3359.2091,N,11926.6497,W,1,09,0.8,9.7,M,-33.6,M,,*58
$PYRTM,2024,127.168217057049,18.277864467187
$GPGGA,040213.00,3359.2094,N,11926.6527,W,1,09,0.8,9.4,M,-33.6,M,,*55
$PYRTM,2024,127.168232797766,18.277880207905
$GPGGA,040214.00,3359.2096,N,11926.6556,W,1,09,0.8,9.2,M,-33.6,M,,*50
$PYRTM,2024,127.168244474329,18.277891884468
$GPGGA,040215.00,3359.2099,N,11926.6584,W,1,09,0.8,9.2,M,-33.6,M,,*51
$PYRTM,2024,127.168255946435,18.277903356574
$GPGGA,040216.00,3359.2102,N,11926.6613,W,1,09,0.8,9.4,M,-33.6,M,,*5A
$PYRTM,2024,127.168267507535,18.277914917674
$GPGGA,040217.00,3359.2104,N,11926.6641,W,1,09,0.8,9.6,M,-33.6,M,,*58
$PYRTM,2024,127.168279094387,18.277926504525
$GPGGA,040218.00,3359.2107,N,11926.6669,W,1,09,0.8,9.6,M,-33.6,M,,*5E
$PYRTM,2024,127.168290656400,18.277938066539
$GPGGA,040219.00,3359.2109,N,11926.6700,W,1,09,0.8,8.9,M,-33.6,M,,*51
$PYRTM,2024,127.168302242604,18.277949652743
$GPGGA,040220.00,3359.2111,N,11926.6728,W,1,09,0.8,8.8,M,-33.6,M,,*59
$PYRTM,2024,127.168313804248,18.277961214398
$GPGGA,040221.00,3359.2114,N,11926.6755,W,1,09,0.8,9.1,M,-33.6,M,,*5F
$PYRTM,2024,127.168325395475,18.277972805613
$GPGGA,040222.00,3359.2117,N,11926.6782,W,1,09,0.8,9.1,M,-33.6,M,,*55
$PYRTM,2024,127.168337067789,18.277984477928
$GPGGA,040223.00,3359.2121,N,11926.6812,W,1,09,0.8,8.8,M,-33.6,M,,*5F
$PYRTM,2024,127.168348542361,18.277995952500
$GPGGA,040224.00,3359.2123,N,11926.6842,W,1,09,0.8,8.3,M,-33.6,M,,*54
$PYRTM,2024,127.168360216817,18.278007626956
$GPGGA,040225.00,3359.2125,N,11926.6870,W,1,09,0.8,8.6,M,-33.6,M,,*57
$PYRTM,2024,127.168371803889,18.278019214028
$GPGGA,040226.00,3359.2128,N,11926.6898,W,1,09,0.8,9.2,M,-33.6,M,,*5A
$PYRTM,2024,127.168383364236,18.278030774375
$GPGGA,040227.00,3359.2131,N,11926.6927,W,1,09,0.8,9.6,M,-33.6,M,,*52
$PYRTM,2024,127.168394832083,18.278042242222
$GPGGA,040228.00,3359.2134,N,11926.6958,W,1,09,0.8,9.5,M,-33.6,M,,*53
$PYRTM,2024,127.168402245660,18.278049655799
$GPGGA,040229.00,3359.2138,N,11926.6987,W,1,09,0.8,9.3,M,-33.6,M,,*5A
$PYRTM,2024,127.168418100718,18.278065510856
$GPGGA,040230.00,3359.2140,N,11926.7016,W,1,09,0.8,9.3,M,-33.6,M,,*5D
$PYRTM,2024,127.168425380347,18.278072790486
$GPGGA,040231.00,3359.2142,N,11926.7044,W,1,09,0.8,9.4,M,-33.6,M,,*5E
$PYRTM,2024,127.168444026481,18.278091436620
$GPGGA,040232.00,3359.2145,N,11926.7072,W,1,09,0.8,9.7,M,-33.6,M,,*5C
$PYRTM,2024,127.168452702164,18.278100112303
$GPGGA,040233.00,3359.2149,N,11926.7101,W,1,09,0.8,9.9,M,-33.6,M,,*5A
$PYRTM,2024,127.168460101435,18.278107511574
$GPGGA,040234.00,3359.2153,N,11926.7131,W,1,09,0.8,9.8,M,-33.6,M,,*54
$PYRTM,2024,127.168475855312,18.278123265451
$GPGGA,040235.00,3359.2155,N,11926.7161,W,1,09,0.8,9.4,M,-33.6,M,,*5A
$PYRTM,2024,127.168487544965,18.278134955104
$GPGGA,040236.00,3359.2157,N,11926.7189,W,1,09,0.8,9.0,M,-33.6,M,,*59
$PYRTM,2024,127.168494824850,18.278142234988
$GPGGA,040237.00,3359.2159,N,11926.7216,W,1,09,0.8,9.3,M,-33.6,M,,*50
$PYRTM,2024,127.168510709190,18.278158119329
$GPGGA,040238.00,3359.2163,N,11926.7245,W,1,09,0.8,9.8,M,-33.6,M,,*5B
$PYRTM,2024,127.168522151759,18.278169561898
$GPGGA,040239.00,3359.2167,N,11926.7276,W,1,09,0.8,9.6,M,-33.6,M,,*50
$PYRTM,2024,127.168533728773,18.278181138912
$GPGGA,040240.00,3359.2168,N,11926.7306,W,1,09,0.8,9.3,M,-33.6,M,,*52
$PYRTM,2024,127.168545296319,18.278192706458
$GPGGA,040241.00,3359.2169,N,11926.7334,W,1,09,1.0,9.5,M,-33.6,M,,*5C
$PYRTM,2024,127.168556876458,18.278204286597
$GPGGA,040242.00,3359.2171,N,11926.7361,W,1,09,1.0,9.8,M,-33.6,M,,*5B
$PYRTM,2024,127.168568550845,18.278215960984
$GPGGA,040243.00,3359.2176,N,11926.7391,W,1,09,1.0,10.1,M,-33.6,M,,*63
$PYRTM,2024,127.168580023009,18.278227433148
$GPGGA,040244.00,3359.2180,N,11926.7422,W,1,09,1.0,9.8,M,-33.6,M,,*53
$PYRTM,2024,127.168591597315,18.278239007454
$GPGGA,040245.00,3359.2181,N,11926.7451,W,1,09,1.0,9.6,M,-33.6,M,,*59
$PYRTM,2024,127.168603171412,18.278250581551
$GPGGA,040246.00,3359.2182,N,11926.7478,W,1,09,1.0,9.7,M,-33.6,M,,*53
$PYRTM,2024,127.168614744722,18.278262154861
$GPGGA,040247.00,3359.2185,N,11926.7506,W,1,09,1.0,9.8,M,-33.6,M,,*52
$PYRTM,2024,127.168626315243,18.278273725382
$GPGGA,040248.00,3359.2190,N,11926.7536,W,1,09,1.0,9.6,M,-33.6,M,,*54
$PYRTM,2024,127.168637894282,18.278285304421
$GPGGA,040249.00,3359.2194,N,11926.7566,W,1,09,1.0,9.4,M,-33.6,M,,*56
$PYRTM,2024,127.168649468530,18.278296878669
$GPGGA,040250.00,3359.2197,N,11926.7594,W,1,09,1.0,9.3,M,-33.6,M,,*57
$PYRTM,2024,127.168661040625,18.278308450752
$GPGGA,040251.00,3359.2198,N,11926.7622,W,1,09,1.0,9.5,M,-33.6,M,,*51
$PYRTM,2024,127.168672615336,18.278320025475
$GPGGA,040252.00,3359.2200,N,11926.7651,W,1,09,1.0,9.8,M,-33.6,M,,*59
$PYRTM,2024,127.168684192002,18.278331602141
$GPGGA,040253.00,3359.2204,N,11926.7681,W,1,09,1.0,9.5,M,-33.6,M,,*5C
$PYRTM,2024,127.168695778900,18.278343189039
$GPGGA,040254.00,3359.2207,N,11926.7709,W,1,09,1.0,9.5,M,-33.6,M,,*59
$PYRTM,2024,127.168707338148,18.278354748287
$GPGGA,040255.00,3359.2210,N,11926.7737,W,1,09,1.0,9.8,M,-33.6,M,,*5E
$PYRTM,2024,127.168718926481,18.278366336620
$GPGGA,040256.00,3359.2211,N,11926.7767,W,1,09,1.0,9.8,M,-33.6,M,,*59
$PYRTM,2024,127.168730486308,18.278377896447
$GPGGA,040257.00,3359.2213,N,11926.7796,W,1,09,1.0,9.6,M,-33.6,M,,*5A
$PYRTM,2024,127.168742060556,18.278389470694
$GPGGA,040258.00,3359.2217,N,11926.7824,W,1,09,1.0,9.6,M,-33.6,M,,*57
$PYRTM,2024,127.168753635058,18.278401045197
$GPGGA,040259.00,3359.2221,N,11926.7853,W,1,09,1.0,9.7,M,-33.6,M,,*52
$PYRTM,2024,127.168765208993,18.278412619132
$GPGGA,040300.00,3359.2223,N,11926.7882,W,1,09,1.0,9.7,M,-33.6,M,,*51
$PYRTM,2024,127.168776886296,18.278424296435
$GPGGA,040301.00,3359.2225,N,11926.7909,W,1,09,1.0,10.0,M,-33.6,M,,*6B
$PYRTM,2024,127.168784294329,18.278431704456
$GPGGA,040302.00,3359.2227,N,11926.7938,W,1,09,1.0,10.0,M,-33.6,M,,*68
$PYRTM,2024,127.168802815127,18.278450225266
$GPGGA,040303.00,3359.2230,N,11926.7970,W,1,09,1.0,9.5,M,-33.6,M,,*5E
$PYRTM,2024,127.168814399896,18.278461810046
$GPGGA,040304.00,3359.2233,N,11926.7997,W,1,09,1.0,9.2,M,-33.6,M,,*54
$PYRTM,2024,127.168825960093,18.278473370231
$GPGGA,040305.00,3359.2238,N,11926.8023,W,1,09,1.0,9.9,M,-33.6,M,,*5C
$PYRTM,2024,127.168834772245,18.278482182396
$GPGGA,040306.00,3359.2241,N,11926.8051,W,1,09,1.0,10.5,M,-33.6,M,,*60
$PYRTM,2024,127.168842165498,18.278489575637
$GPGGA,040307.00,3359.2243,N,11926.8082,W,1,09,1.0,10.3,M,-33.6,M,,*6B
$PYRTM,2024,127.168857803623,18.278505213762
$GPGGA,040308.00,3359.2244,N,11926.8111,W,1,09,1.0,9.9,M,-33.6,M,,*5A
$PYRTM,2024,127.168869377280,18.278516787419
$GPGGA,040309.00,3359.2248,N,11926.8138,W,1,09,1.0,9.8,M,-33.6,M,,*5D
$PYRTM,2024,127.168880955845,18.278528365984
$GPGGA,040310.00,3359.2253,N,11926.8166,W,1,09,1.0,9.8,M,-33.6,M,,*54
$PYRTM,2024,127.168892629444,18.278540039595
$GPGGA,040311.00,3359.2256,N,11926.8194,W,1,09,1.0,10.2,M,-33.6,M,,*6F
$PYRTM,2024,127.168900035370,18.278547445509
$GPGGA,040312.00,3359.2259,N,11926.8223,W,1,09,1.0,10.4,M,-33.6,M,,*6A
$PYRTM,2024,127.168915778519,18.278563188669
$GPGGA,040313.00,3359.2260,N,11926.8253,W,1,09,1.0,10.2,M,-33.6,M,,*60
$PYRTM,2024,127.168927248275,18.278574658414
$GPGGA,040314.00,3359.2262,N,11926.8282,W,1,09,1.0,9.9,M,-33.6,M,,*5A
$PYRTM,2024,127.168938821586,18.278586231725
$GPGGA,040315.00,3359.2265,N,11926.8310,W,1,09,1.0,9.6,M,-33.6,M,,*59
$PYRTM,2024,127.168950397870,18.278597808009
$GPGGA,040316.00,3359.2269,N,11926.8338,W,1,09,1.0,9.7,M,-33.6,M,,*5D
$PYRTM,2024,127.168961970058,18.278609380197
$GPGGA,040317.00,3359.2272,N,11926.8366,W,1,09,1.0,9.6,M,-33.6,M,,*5C
$PYRTM,2024,127.168973546933,18.278620957072
$GPGGA,040318.00,3359.2275,N,11926.8395,W,1,09,1.0,9.4,M,-33.6,M,,*5A
$PYRTM,2024,127.168985113808,18.278632523958
$GPGGA,040319.00,3359.2276,N,11926.8424,W,1,09,1.0,9.2,M,-33.6,M,,*53
$PYRTM,2024,127.168996693322,18.278644103461
$GPGGA,040320.00,3359.2278,N,11926.8451,W,1,09,1.0,9.3,M,-33.6,M,,*54
$PYRTM,2024,127.169008267269,18.278655677407
$GPGGA,040321.00,3359.2281,N,11926.8479,W,1,09,1.0,9.4,M,-33.6,M,,*5E
$PYRTM,2024,127.169019842326,18.278667252465
$GPGGA,040322.00,3359.2285,N,11926.8508,W,1,09,1.0,9.4,M,-33.6,M,,*5E
$PYRTM,2024,127.169031416505,18.278678826644
$GPGGA,040323.00,3359.2288,N,11926.8537,W,1,09,1.0,9.3,M,-33.6,M,,*59
$PYRTM,2024,127.169042989398,18.278690399537
$GPGGA,040324.00,3359.2290,N,11926.8567,W,1,09,1.0,9.0,M,-33.6,M,,*51
$PYRTM,2024,127.169054563588,18.278701974016
$GPGGA,040325.00,3359.2293,N,11926.8595,W,1,09,1.0,8.9,M,-33.6,M,,*56
$PYRTM,2024,127.169061960058,18.278709370197
$GPGGA,040326.00,3359.2295,N,11926.8623,W,1,09,1.0,9.1,M,-33.6,M,,*54
$PYRTM,2024,127.169077713102,18.278725123241
$GPGGA,040327.00,3359.2300,N,11926.8652,W,1,09,1.0,9.3,M,-33.6,M,,*5C
$PYRTM,2024,127.169089300451,18.278736710590
$GPGGA,040328.00,3359.2305,N,11926.8681,W,1,09,1.0,9.2,M,-33.6,M,,*59
$PYRTM,2024,127.169100860023,18.278748270162
$GPGGA,040329.00,3359.2308,N,11926.8710,W,1,09,1.0,9.1,M,-33.6,M,,*5F
$PYRTM,2024,127.169112434699,18.278759844838
$GPGGA,040330.00,3359.2309,N,11926.8739,W,1,09,1.0,8.9,M,-33.6,M,,*54
$PYRTM,2024,127.169124008333,18.278771418472
$GPGGA,040331.00,3359.2312,N,11926.8768,W,1,09,1.0,8.9,M,-33.6,M,,*5B
$PYRTM,2024,127.169135582963,18.278782993102
$GPGGA,040332.00,3359.2317,N,11926.8795,W,1,09,1.0,9.0,M,-33.6,M,,*57
$PYRTM,2024,127.169142992523,18.278790402674
$GPGGA,040333.00,3359.2322,N,11926.8823,W,1,09,1.0,9.3,M,-33.6,M,,*51
$PYRTM,2024,127.169161625428,18.278809035579
$GPGGA,040334.00,3359.2325,N,11926.8853,W,1,09,1.0,9.0,M,-33.6,M,,*55
$PYRTM,2024,127.169170306771,18.278817716921
$GPGGA,040335.00,3359.2327,N,11926.8881,W,1,09,1.0,9.2,M,-33.6,M,,*5B
$PYRTM,2024,127.169177702315,18.278825112465
$GPGGA,040336.00,3359.2328,N,11926.8910,W,1,09,1.0,9.1,M,-33.6,M,,*5D
$PYRTM,2024,127.169193448900,18.278840859051
$GPGGA,040337.00,3359.2330,N,11926.8940,W,1,09,1.0,9.0,M,-33.6,M,,*51
$PYRTM,2024,127.169205027650,18.278852437801
$GPGGA,040338.00,3359.2335,N,11926.8968,W,1,09,1.0,9.2,M,-33.6,M,,*53
$PYRTM,2024,127.169212429711,18.278859839861
$GPGGA,040339.00,3359.2339,N,11926.8997,W,1,09,1.0,9.2,M,-33.6,M,,*5E
$PYRTM,2024,127.169228187338,18.278875597477
$GPGGA,040340.00,3359.2341,N,11926.9026,W,1,09,1.0,9.0,M,-33.6,M,,*5F
$PYRTM,2024,127.169239749907,18.278887160046
$GPGGA,040341.00,3359.2342,N,11926.9055,W,1,09,1.0,8.8,M,-33.6,M,,*50
$PYRTM,2024,127.169251332488,18.278898742627
$GPGGA,040342.00,3359.2344,N,11926.9084,W,1,09,1.0,8.6,M,-33.6,M,,*57
$PYRTM,2024,127.169262898692,18.278910308843
$GPGGA,040343.00,3359.2348,N,11926.9112,W,1,09,1.0,8.6,M,-33.6,M,,*54
$PYRTM,2024,127.169274480752,18.278921890891
$GPGGA,040344.00,3359.2353,N,11926.9139,W,1,09,1.0,8.9,M,-33.6,M,,*5F
$PYRTM,2024,127.169286047558,18.278933457697
$GPGGA,040345.00,3359.2356,N,11926.9168,W,1,09,1.0,9.1,M,-33.6,M,,*56
$PYRTM,2024,127.169297632731,18.278945042870
$GPGGA,040346.00,3359.2357,N,11926.9197,W,1,09,1.0,9.1,M,-33.6,M,,*54
$PYRTM,2024,127.169305029687,18.278952439826
$GPGGA,040347.00,3359.2359,N,11926.9227,W,1,09,1.0,9.0,M,-33.6,M,,*52
$PYRTM,2024,127.169320780648,18.278968190787
$GPGGA,040348.00,3359.2363,N,11926.9255,W,1,09,1.0,8.9,M,-33.6,M,,*59
$PYRTM,2024,127.169332340370,18.278979750509
$GPGGA,040349.00,3359.2368,N,11926.9282,W,1,09,1.0,9.1,M,-33.6,M,,*50
$PYRTM,2024,127.169343917488,18.278991327627
$GPGGA,040350.00,3359.2372,N,11926.9310,W,1,09,1.0,9.1,M,-33.6,M,,*59
$PYRTM,2024,127.169355488218,18.279002898356
$GPGGA,040351.00,3359.2374,N,11926.9341,W,1,09,1.0,9.0,M,-33.6,M,,*5B
$PYRTM,2024,127.169367066829,18.279014476968
$GPGGA,040352.00,3359.2375,N,11926.9370,W,1,09,1.0,8.9,M,-33.6,M,,*53
$PYRTM,2024,127.169378635787,18.279026045938
$GPGGA,040353.00,3359.2379,N,11926.9397,W,1,09,1.0,9.0,M,-33.6,M,,*5F
$PYRTM,2024,127.169390214757,18.279037624896
$GPGGA,040354.00,3359.2385,N,11926.9426,W,1,09,1.0,9.0,M,-33.6,M,,*56
$PYRTM,2024,127.169397619248,18.279045029387
$GPGGA,040355.00,3359.2389,N,11926.9455,W,1,09,1.0,8.7,M,-33.6,M,,*59
$PYRTM,2024,127.169413479375,18.279060889514
$GPGGA,040356.00,3359.2391,N,11926.9484,W,1,09,1.0,8.5,M,-33.6,M,,*5D
$PYRTM,2024,127.169425052743,18.279072462882
$GPGGA,040357.00,3359.2392,N,11926.9512,W,1,09,1.0,8.7,M,-33.6,M,,*53
$PYRTM,2024,127.169436630833,18.279084040972
$GPGGA,040358.00,3359.2395,N,11926.9540,W,1,09,1.0,8.8,M,-33.6,M,,*53
$PYRTM,2024,127.169448197546,18.279095607685
$GPGGA,040359.00,3359.2400,N,11926.9568,W,1,09,1.0,8.6,M,-33.6,M,,*5D
$PYRTM,2024,127.169455480799,18.279102890937
$GPGGA,040400.00,3359.2403,N,11926.9597,W,1,09,1.0,8.4,M,-33.6,M,,*57
$PYRTM,2024,127.169471350660,18.279118760799
$GPGGA,040401.00,3359.2404,N,11926.9626,W,1,09,1.0,8.2,M,-33.6,M,,*5E
$PYRTM,2024,127.169482925961,18.279130336100
$GPGGA,040402.00,3359.2407,N,11926.9654,W,1,09,1.0,8.3,M,-33.6,M,,*5A
$PYRTM,2024,127.169490331655,18.279137741806
$GPGGA,040403.00,3359.2411,N,11926.9681,W,1,09,1.0,8.6,M,-33.6,M,,*51
$PYRTM,2024,127.169502009572,18.279149419711
$GPGGA,040404.00,3359.2415,N,11926.9710,W,1,09,1.0,8.8,M,-33.6,M,,*55
$PYRTM,2024,127.169520424583,18.279167834722
$GPGGA,040405.00,3359.2418,N,11926.9739,W,1,09,1.0,8.7,M,-33.6,M,,*5D
$PYRTM,2024,127.169529104803,18.279176514942
$GPGGA,040406.00,3359.2421,N,11926.9768,W,1,09,1.0,8.5,M,-33.6,M,,*52
$PYRTM,2024,127.169540679919,18.279188090069
$GPGGA,040407.00,3359.2424,N,11926.9796,W,1,09,1.0,8.4,M,-33.6,M,,*56
$PYRTM,2024,127.169548074259,18.279195484398
$GPGGA,040408.00,3359.2429,N,11926.9823,W,1,09,1.0,8.6,M,-33.6,M,,*57
$PYRTM,2024,127.169563828113,18.279211238252
$GPGGA,040409.00,3359.2433,N,11926.9851,W,1,09,1.0,9.0,M,-33.6,M,,*5F
$PYRTM,2024,127.169575412674,18.279222822812
$GPGGA,040410.00,3359.2436,N,11926.9880,W,1,09,1.0,9.0,M,-33.6,M,,*5E
$PYRTM,2024,127.169586975845,18.279234385984
$GPGGA,040411.00,3359.2437,N,11926.9910,W,1,09,1.0,8.7,M,-33.6,M,,*50
$PYRTM,2024,127.169598550093,18.279245960231
$GPGGA,040412.00,3359.2440,N,11926.9938,W,1,09,1.0,8.6,M,-33.6,M,,*58
$PYRTM,2024,127.169610124306,18.279257534444
$GPGGA,040413.00,3359.2444,N,11926.9964,W,1,09,1.0,8.9,M,-33.6,M,,*5B
$PYRTM,2024,127.169621706319,18.279269116458
$GPGGA,040414.00,3359.2449,N,11926.9993,W,1,09,1.0,9.0,M,-33.6,M,,*51
$PYRTM,2024,127.169633272025,18.279280682164
$GPGGA,040415.00,3359.2451,N,11927.0024,W,1,09,1.0,8.6,M,-33.6,M,,*53
$PYRTM,2024,127.169640667789,18.279288077928
$GPGGA,040416.00,3359.2452,N,11927.0053,W,1,09,1.0,8.4,M,-33.6,M,,*51
$PYRTM,2024,127.169656421505,18.279303831644
$GPGGA,040417.00,3359.2454,N,11927.0080,W,1,09,1.0,8.6,M,-33.6,M,,*5A
$PYRTM,2024,127.169667995764,18.279315405903
$GPGGA,040418.00,3359.2458,N,11927.0108,W,1,09,1.0,8.9,M,-33.6,M,,*57
$PYRTM,2024,127.169679569329,18.279326979479
$GPGGA,040419.00,3359.2464,N,11927.0137,W,1,09,1.0,8.9,M,-33.6,M,,*55
$PYRTM,2024,127.169691142928,18.279338553067
$GPGGA,040420.00,3359.2469,N,11927.0167,W,1,09,1.0,8.6,M,-33.6,M,,*58
$PYRTM,2024,127.169698553472,18.279345963611
$GPGGA,040421.00,3359.2471,N,11927.0195,W,1,09,1.0,8.6,M,-33.6,M,,*5D
$PYRTM,2024,127.169714292025,18.279361702164
$GPGGA,040422.00,3359.2471,N,11927.0222,W,1,09,1.0,9.2,M,-33.6,M,,*54
$PYRTM,2024,127.169725867234,18.279373277373
$GPGGA,040423.00,3359.2474,N,11927.0251,W,1,09,1.0,8.7,M,-33.6,M,,*50
$PYRTM,2024,127.169737440127,18.279384850266
$GPGGA,040424.00,3359.2478,N,11927.0279,W,1,09,1.0,8.6,M,-33.6,M,,*50
$PYRTM,2024,127.169749015509,18.279396425648
$GPGGA,040425.00,3359.2483,N,11927.0306,W,1,09,1.0,8.8,M,-33.6,M,,*52
$PYRTM,2024,127.169756409201,18.279403819352
$GPGGA,040426.00,3359.2485,N,11927.0332,W,1,09,1.0,9.2,M,-33.6,M,,*5B
$PYRTM,2024,127.169772162431,18.279419572569
$GPGGA,040427.00,3359.2486,N,11927.0362,W,1,09,1.0,9.4,M,-33.6,M,,*5A
$PYRTM,2024,127.169783749294,18.279431159433
$GPGGA,040428.00,3359.2488,N,11927.0393,W,1,09,1.0,9.1,M,-33.6,M,,*50
$PYRTM,2024,127.169795312303,18.279442722442
$GPGGA,040429.00,3359.2492,N,11927.0420,W,1,09,1.0,9.0,M,-33.6,M,,*54
$PYRTM,2024,127.169806893565,18.279454303715
$GPGGA,040430.00,3359.2497,N,11927.0446,W,1,09,1.0,9.3,M,-33.6,M,,*5A
$PYRTM,2024,127.169818459537,18.279465869687
$GPGGA,040431.00,3359.2502,N,11927.0474,W,1,09,1.0,9.9,M,-33.6,M,,*5D
$PYRTM,2024,127.169830041250,18.279477451389
$GPGGA,040432.00,3359.2506,N,11927.0505,W,1,09,1.0,9.8,M,-33.6,M,,*5C
$PYRTM,2024,127.169841602130,18.279489012269
$GPGGA,040433.00,3359.2507,N,11927.0535,W,1,10,0.8,9.7,M,-33.6,M,,*51
$PYRTM,2024,127.169853181389,18.279500591528
$GPGGA,040434.00,3359.2508,N,11927.0560,W,1,10,0.8,9.7,M,-33.6,M,,*59
$PYRTM,2024,127.169860591238,18.279508001377
$GPGGA,040435.00,3359.2513,N,11927.0586,W,1,10,0.8,10.0,M,-33.6,M,,*65
$PYRTM,2024,127.169879223762,18.279526633912
$GPGGA,040436.00,3359.2518,N,11927.0617,W,1,10,0.8,9.6,M,-33.6,M,,*58
$PYRTM,2024,127.169887906100,18.279535316238
$GPGGA,040437.00,3359.2522,N,11927.0645,W,1,10,0.8,9.2,M,-33.6,M,,*53
$PYRTM,2024,127.169899477650,18.279546887789
$GPGGA,040438.00,3359.2523,N,11927.0671,W,1,10,0.8,9.4,M,-33.6,M,,*5C
$PYRTM,2024,127.169911052905,18.279558463044
$GPGGA,040439.00,3359.2525,N,11927.0699,W,1,10,0.8,9.4,M,-33.6,M,,*5D
$PYRTM,2024,127.169922627164,18.279570037303
$GPGGA,040440.00,3359.2529,N,11927.0728,W,1,10,0.8,9.3,M,-33.6,M,,*53
$PYRTM,2024,127.169934201759,18.279581611898
$GPGGA,040441.00,3359.2533,N,11927.0757,W,1,10,0.8,9.2,M,-33.6,M,,*50
$PYRTM,2024,127.169945775035,18.279593185174
$GPGGA,040442.00,3359.2536,N,11927.0784,W,1,10,0.8,9.3,M,-33.6,M,,*59
$PYRTM,2024,127.169957350162,18.279604760301
$GPGGA,040443.00,3359.2539,N,11927.0813,W,1,10,0.8,9.3,M,-33.6,M,,*56
$PYRTM,2024,127.169964744977,18.279612155127
$GPGGA,040444.00,3359.2543,N,11927.0841,W,1,10,0.8,9.1,M,-33.6,M,,*59
$PYRTM,2024,127.169980498484,18.279627908623
$GPGGA,040445.00,3359.2546,N,11927.0868,W,1,10,0.8,9.2,M,-33.6,M,,*55
$PYRTM,2024,127.169992079688,18.279639489826
$GPGGA,040446.00,3359.2549,N,11927.0896,W,1,10,0.8,9.6,M,-33.6,M,,*5C
$PYRTM,2024,127.170003647187,18.279651057326
$GPGGA,040447.00,3359.2554,N,11927.0924,W,1,10,0.8,9.5,M,-33.6,M,,*5A
$PYRTM,2024,127.170015228507,18.279662638646
$GPGGA,040448.00,3359.2558,N,11927.0952,W,1,10,0.8,9.1,M,-33.6,M,,*5C
$PYRTM,2024,127.170026795127,18.279674205266
$GPGGA,040449.00,3359.2560,N,11927.0979,W,1,10,0.8,9.0,M,-33.6,M,,*5E
$PYRTM,2024,127.170038375671,18.279685785810
$GPGGA,040450.00,3359.2563,N,11927.1006,W,1,10,0.8,9.1,M,-33.6,M,,*54
$PYRTM,2024,127.170049943310,18.279697353449
$GPGGA,040451.00,3359.2567,N,11927.1035,W,1,10,0.8,9.1,M,-33.6,M,,*51
$PYRTM,2024,127.170061529606,18.279708939745
$GPGGA,040452.00,3359.2571,N,11927.1063,W,1,10,0.8,8.8,M,-33.6,M,,*5E
$PYRTM,2024,127.170073090671,18.279720500810
$GPGGA,040453.00,3359.2574,N,11927.1091,W,1,10,0.8,8.8,M,-33.6,M,,*57
$PYRTM,2024,127.170084665093,18.279732075231
$GPGGA,040454.00,3359.2576,N,11927.1118,W,1,10,0.8,9.2,M,-33.6,M,,*59
$PYRTM,2024,127.170096241181,18.279743651331
$GPGGA,040455.00,3359.2579,N,11927.1147,W,1,10,0.8,9.3,M,-33.6,M,,*5C
$PYRTM,2024,127.170103635382,18.279751045521
$GPGGA,040456.00,3359.2583,N,11927.1176,W,1,10,0.8,9.2,M,-33.6,M,,*59
$PYRTM,2024,127.170119387847,18.279766797986
$GPGGA,040457.00,3359.2586,N,11927.1203,W,1,10,0.8,9.4,M,-33.6,M,,*5A
$PYRTM,2024,127.170130973646,18.279778383785
$GPGGA,040458.00,3359.2589,N,11927.1231,W,1,10,0.8,9.5,M,-33.6,M,,*5A
$PYRTM,2024,127.170142530833,18.279789940972
$GPGGA,040459.00,3359.2593,N,11927.1261,W,1,10,0.8,9.2,M,-33.6,M,,*52
$PYRTM,2024,127.170154110035,18.279801520174
$GPGGA,040500.00,3359.2596,N,11927.1288,W,1,10,0.8,9.2,M,-33.6,M,,*5D
$PYRTM,2024,127.170165683681,18.279813093819
$GPGGA,040501.00,3359.2601,N,11927.1314,W,1,10,0.8,9.4,M,-33.6,M,,*53
$PYRTM,2024,127.170173080718,18.279820490856
$GPGGA,040502.00,3359.2605,N,11927.1343,W,1,10,0.8,9.4,M,-33.6,M,,*56
$PYRTM,2024,127.170188833669,18.279836243808
$GPGGA,040503.00,3359.2607,N,11927.1373,W,1,10,0.8,9.0,M,-33.6,M,,*52
$PYRTM,2024,127.170200424120,18.279847834259
$GPGGA,040504.00,3359.2609,N,11927.1401,W,1,10,0.8,8.8,M,-33.6,M,,*50
$PYRTM,2024,127.170211985313,18.279859395451
$GPGGA,040505.00,3359.2613,N,11927.1427,W,1,10,0.8,9.0,M,-33.6,M,,*57
$PYRTM,2024,127.170219377315,18.279866787454
$GPGGA,040506.00,3359.2619,N,11927.1455,W,1,10,0.8,9.3,M,-33.6,M,,*58
$PYRTM,2024,127.170238023299,18.279885433437
$GPGGA,040507.00,3359.2623,N,11927.1483,W,1,10,0.8,9.5,M,-33.6,M,,*5D
$PYRTM,2024,127.170246718171,18.279894128310
$GPGGA,040508.00,3359.2625,N,11927.1512,W,1,10,0.8,9.6,M,-33.6,M,,*5E
$PYRTM,2024,127.170254111273,18.279901521412
$GPGGA,040509.00,3359.2628,N,11927.1540,W,1,10,0.8,9.5,M,-33.6,M,,*56
$PYRTM,2024,127.170269861331,18.279917271481
$GPGGA,040510.00,3359.2632,N,11927.1568,W,1,10,0.8,9.3,M,-33.6,M,,*59
$PYRTM,2024,127.170281430428,18.279928840567
$GPGGA,040511.00,3359.2637,N,11927.1595,W,1,10,0.8,9.4,M,-33.6,M,,*58
$PYRTM,2024,127.170293009225,18.279940419363
$GPGGA,040512.00,3359.2641,N,11927.1623,W,1,10,0.8,9.5,M,-33.6,M,,*55
$PYRTM,2024,127.170304577847,18.279951987986
$GPGGA,040513.00,3359.2644,N,11927.1653,W,1,10,0.8,9.3,M,-33.6,M,,*50
$PYRTM,2024,127.170316163623,18.279963573762
$GPGGA,040514.00,3359.2646,N,11927.1682,W,1,10,0.8,9.2,M,-33.6,M,,*58
$PYRTM,2024,127.170327725937,18.279975136076
$GPGGA,040515.00,3359.2650,N,11927.1708,W,1,10,0.8,9.4,M,-33.6,M,,*5B
$PYRTM,2024,127.170339306030,18.279986716169
$GPGGA,040516.00,3359.2654,N,11927.1735,W,1,10,0.8,9.6,M,-33.6,M,,*50
$PYRTM,2024,127.170350875058,18.279998285197
$GPGGA,040517.00,3359.2658,N,11927.1765,W,1,10,0.8,9.2,M,-33.6,M,,*5C
$PYRTM,2024,127.170362472581,18.280009882720
$GPGGA,040518.00,3359.2659,N,11927.1796,W,1,10,0.8,8.7,M,-33.6,M,,*5A
$PYRTM,2024,127.170369846701,18.280017256840
$GPGGA,040519.00,3359.2661,N,11927.1822,W,1,10,0.8,8.8,M,-33.6,M,,*5F
$PYRTM,2024,127.170385620822,18.280033030961
$GPGGA,040520.00,3359.2665,N,11927.1848,W,1,10,0.8,9.4,M,-33.6,M,,*50
$PYRTM,2024,127.170397172014,18.280044582153
$GPGGA,040521.00,3359.2671,N,11927.1876,W,1,10,0.8,9.9,M,-33.6,M,,*54
$PYRTM,2024,127.170404563137,18.280051973275
$GPGGA,040522.00,3359.2675,N,11927.1908,W,1,10,0.8,9.6,M,-33.6,M,,*54
$PYRTM,2024,127.170420315972,18.280067726111
$GPGGA,040523.00,3359.2677,N,11927.1936,W,1,10,0.8,9.4,M,-33.6,M,,*58
$PYRTM,2024,127.170431890938,18.280079301076
$GPGGA,040524.00,3359.2679,N,11927.1962,W,1,10,0.8,9.7,M,-33.6,M,,*53
$PYRTM,2024,127.170443581019,18.280090991169
$GPGGA,040525.00,3359.2683,N,11927.1989,W,1,10,0.8,10.0,M,-33.6,M,,*6D
$PYRTM,2024,127.170455049792,18.280102459931
$GPGGA,040526.00,3359.2689,N,11927.2019,W,1,10,0.8,9.9,M,-33.6,M,,*56
$PYRTM,2024,127.170462448160,18.280109858299
$GPGGA,040527.00,3359.2693,N,11927.2048,W,1,10,0.8,9.5,M,-33.6,M,,*54
$PYRTM,2024,127.170478186655,18.280125596794
$GPGGA,040528.00,3359.2696,N,11927.2075,W,1,10,0.8,9.6,M,-33.6,M,,*53
$PYRTM,2024,127.170489761169,18.280137171308
$GPGGA,040529.00,3359.2698,N,11927.2102,W,1,10,0.8,9.9,M,-33.6,M,,*52
$PYRTM,2024,127.170501346354,18.280148756493
$GPGGA,040530.00,3359.2700,N,11927.2132,W,1,10,0.8,9.8,M,-33.6,M,,*58
$PYRTM,2024,127.170512910069,18.280160320208
$GPGGA,040531.00,3359.2704,N,11927.2161,W,1,10,0.8,9.5,M,-33.6,M,,*56
$PYRTM,2024,127.170520304780,18.280167714919
$GPGGA,040532.00,3359.2709,N,11927.2187,W,1,10,0.8,9.4,M,-33.6,M,,*51
$PYRTM,2024,127.170536058542,18.280183468681
$GPGGA,040533.00,3359.2713,N,11927.2215,W,1,10,0.8,9.5,M,-33.6,M,,*52
$PYRTM,2024,127.170547639537,18.280195049676
$GPGGA,040534.00,3359.2715,N,11927.2243,W,1,10,0.8,9.5,M,-33.6,M,,*50
$PYRTM,2024,127.170559201505,18.280206611644
$GPGGA,040535.00,3359.2717,N,11927.2272,W,1,10,0.8,9.4,M,-33.6,M,,*50
$PYRTM,2024,127.170570805718,18.280218215856
$GPGGA,040536.00,3359.2720,N,11927.2299,W,1,10,0.8,9.4,M,-33.6,M,,*52
$PYRTM,2024,127.170578186968,18.280225597106
$GPGGA,040537.00,3359.2725,N,11927.2327,W,1,10,0.8,9.3,M,-33.6,M,,*55
$PYRTM,2024,127.170596826065,18.280244236204
$GPGGA,040538.00,3359.2730,N,11927.2356,W,1,10,0.8,9.2,M,-33.6,M,,*59
$PYRTM,2024,127.170605502569,18.280252912720
$GPGGA,040539.00,3359.2732,N,11927.2384,W,1,10,0.8,9.3,M,-33.6,M,,*54
$PYRTM,2024,127.170617077373,18.280264487512
$GPGGA,040540.00,3359.2735,N,11927.2412,W,1,10,0.8,9.7,M,-33.6,M,,*51
$PYRTM,2024,127.170628651319,18.280276061458
$GPGGA,040541.00,3359.2738,N,11927.2441,W,1,10,0.8,9.9,M,-33.6,M,,*55
$PYRTM,2024,127.170640226204,18.280287636354
$GPGGA,040542.00,3359.2743,N,11927.2470,W,1,10,0.8,9.7,M,-33.6,M,,*56
$PYRTM,2024,127.170651799907,18.280299210058
$GPGGA,040543.00,3359.2748,N,11927.2498,W,1,10,0.8,9.7,M,-33.6,M,,*5A
$PYRTM,2024,127.170663374664,18.280310784803
$GPGGA,040544.00,3359.2751,N,11927.2525,W,1,10,0.8,9.9,M,-33.6,M,,*5C
$PYRTM,2024,127.170675065451,18.280322475602
$GPGGA,040545.00,3359.2754,N,11927.2554,W,1,10,0.8,10.1,M,-33.6,M,,*6E
$PYRTM,2024,127.170686533854,18.280333943993
$GPGGA,040546.00,3359.2758,N,11927.2583,W,1,10,0.8,9.9,M,-33.6,M,,*5B
$PYRTM,2024,127.170693923600,18.280341333750
$GPGGA,040547.00,3359.2762,N,11927.2611,W,1,10,0.8,9.8,M,-33.6,M,,*5A
$PYRTM,2024,127.170709672234,18.280357082373
$GPGGA,040548.00,3359.2765,N,11927.2639,W,1,10,0.8,9.6,M,-33.6,M,,*56
$PYRTM,2024,127.170721240741,18.280368650891
$GPGGA,040549.00,3359.2769,N,11927.2668,W,1,10,0.8,9.5,M,-33.6,M,,*5C
$PYRTM,2024,127.170732826493,18.280380236644
$GPGGA,040550.00,3359.2773,N,11927.2696,W,1,10,0.8,9.4,M,-33.6,M,,*5F
$PYRTM,2024,127.170744392581,18.280391802720
$GPGGA,040551.00,3359.2775,N,11927.2724,W,1,10,0.8,9.5,M,-33.6,M,,*51
$PYRTM,2024,127.170751788322,18.280399198461
$GPGGA,040552.00,3359.2778,N,11927.2753,W,1,10,0.8,9.7,M,-33.6,M,,*5D
$PYRTM,2024,127.170767541632,18.280414951782
$GPGGA,040553.00,3359.2782,N,11927.2782,W,1,10,0.8,9.5,M,-33.6,M,,*57
$PYRTM,2024,127.170779136991,18.280426547130
$GPGGA,040554.00,3359.2786,N,11927.2812,W,1,10,0.8,9.0,M,-33.6,M,,*57
$PYRTM,2024,127.170790688947,18.280438099086
$GPGGA,040555.00,3359.2788,N,11927.2840,W,1,10,0.8,9.1,M,-33.6,M,,*5E
$PYRTM,2024,127.170802275475,18.280449685613
$GPGGA,040556.00,3359.2791,N,11927.2867,W,1,10,0.8,9.3,M,-33.6,M,,*52
$PYRTM,2024,127.170809673345,18.280457083484
$GPGGA,040557.00,3359.2796,N,11927.2897,W,1,10,0.8,9.3,M,-33.6,M,,*5B
$PYRTM,2024,127.170825423356,18.280472833495
$GPGGA,040558.00,3359.2800,N,11927.2926,W,1,10,0.8,9.2,M,-33.6,M,,*5E
$PYRTM,2024,127.170836986921,18.280484397060
$GPGGA,040559.00,3359.2804,N,11927.2953,W,1,10,0.8,9.3,M,-33.6,M,,*58
$PYRTM,2024,127.170848572164,18.280495982303
$GPGGA,040600.00,3359.2807,N,11927.2980,W,1,10,0.8,9.6,M,-33.6,M,,*5F
$PYRTM,2024,127.170860134769,18.280507544907
$GPGGA,040601.00,3359.2811,N,11927.3010,W,1,10,0.8,9.3,M,-33.6,M,,*5D
$PYRTM,2024,127.170871820301,18.280519230440
$GPGGA,040602.00,3359.2814,N,11927.3040,W,1,10,0.8,9.0,M,-33.6,M,,*5D
$PYRTM,2024,127.170883399005,18.280530809144
$GPGGA,040603.00,3359.2818,N,11927.3066,W,1,10,0.8,9.1,M,-33.6,M,,*55
$PYRTM,2024,127.170890678437,18.280538088576
$GPGGA,040604.00,3359.2823,N,11927.3093,W,1,10,0.8,9.5,M,-33.6,M,,*54
$PYRTM,2024,127.170906547465,18.280553957616
$GPGGA,040605.00,3359.2827,N,11927.3124,W,1,10,0.8,9.3,M,-33.6,M,,*5A
$PYRTM,2024,127.170918124352,18.280565534491
$GPGGA,040606.00,3359.2829,N,11927.3153,W,1,10,0.8,9.0,M,-33.6,M,,*54
$PYRTM,2024,127.170925407940,18.280572818079
$GPGGA,040607.00,3359.2832,N,11927.3179,W,1,10,0.8,9.1,M,-33.6,M,,*56
$PYRTM,2024,127.170937204861,18.280584615000
$GPGGA,040608.00,3359.2836,N,11927.3207,W,1,10,0.8,9.2,M,-33.6,M,,*54
$PYRTM,2024,127.170955622697,18.280603032847
$GPGGA,040609.00,3359.2840,N,11927.3236,W,1,10,0.8,9.0,M,-33.6,M,,*54
$PYRTM,2024,127.170967210312,18.280614620451
$GPGGA,040610.00,3359.2844,N,11927.3263,W,1,10,0.8,9.0,M,-33.6,M,,*58
$PYRTM,2024,127.170978769421,18.280626179560
$GPGGA,040611.00,3359.2847,N,11927.3290,W,1,10,0.8,9.3,M,-33.6,M,,*55
$PYRTM,2024,127.170990344664,18.280637754815
$GPGGA,040612.00,3359.2850,N,11927.3319,W,1,10,0.8,9.2,M,-33.6,M,,*51
$PYRTM,2024,127.171001920370,18.280649330521
$GPGGA,040613.00,3359.2854,N,11927.3347,W,1,10,0.8,8.9,M,-33.6,M,,*55
$PYRTM,2024,127.171010598877,18.280658009016
$GPGGA,040614.00,3359.2858,N,11927.3375,W,1,10,0.8,8.8,M,-33.6,M,,*5E
$PYRTM,2024,127.171018006644,18.280665416782
$GPGGA,040615.00,3359.2861,N,11927.3403,W,1,10,0.8,8.9,M,-33.6,M,,*52
$PYRTM,2024,127.171033747500,18.280681157639
$GPGGA,040616.00,3359.2865,N,11927.3430,W,1,10,0.8,9.1,M,-33.6,M,,*5C
$PYRTM,2024,127.171041150868,18.280688561007
$GPGGA,040617.00,3359.2869,N,11927.3458,W,1,10,0.8,9.0,M,-33.6,M,,*5E
$PYRTM,2024,127.171056906690,18.280704316829
$GPGGA,040618.00,3359.2873,N,11927.3487,W,1,10,0.8,8.7,M,-33.6,M,,*5E
$PYRTM,2024,127.171068465891,18.280715876030
$GPGGA,040619.00,3359.2876,N,11927.3515,W,1,10,0.8,8.6,M,-33.6,M,,*51
$PYRTM,2024,127.171075866042,18.280723276181
$GPGGA,040620.00,3359.2879,N,11927.3542,W,1,10,0.8,8.8,M,-33.6,M,,*58
$PYRTM,2024,127.171091619178,18.280739029317
$GPGGA,040621.00,3359.2883,N,11927.3570,W,1,10,0.8,8.9,M,-33.6,M,,*5C
$PYRTM,2024,127.171103217824,18.280750627963
$GPGGA,040622.00,3359.2888,N,11927.3598,W,1,10,0.8,9.1,M,-33.6,M,,*5B
$PYRTM,2024,127.171110595856,18.280758005995
$GPGGA,040623.00,3359.2893,N,11927.3625,W,1,10,0.8,9.2,M,-33.6,M,,*56
$PYRTM,2024,127.171126348403,18.280773758542
$GPGGA,040624.00,3359.2896,N,11927.3655,W,1,10,0.8,8.9,M,-33.6,M,,*59
$PYRTM,2024,127.171137916829,18.280785326968
$GPGGA,040625.00,3359.2898,N,11927.3684,W,1,10,0.8,8.5,M,-33.6,M,,*56
$PYRTM,2024,127.171149500012,18.280796910150
$GPGGA,040626.00,3359.2901,N,11927.3710,W,1,10,0.8,8.7,M,-33.6,M,,*5A
$PYRTM,2024,127.171161065185,18.280808475324
$GPGGA,040627.00,3359.2906,N,11927.3738,W,1,10,0.8,9.1,M,-33.6,M,,*51
$PYRTM,2024,127.171172648426,18.280820058565
$GPGGA,040628.00,3359.2912,N,11927.3767,W,1,10,0.8,9.1,M,-33.6,M,,*51
$PYRTM,2024,127.171184211319,18.280831621458
$GPGGA,040629.00,3359.2916,N,11927.3795,W,1,10,0.8,9.1,M,-33.6,M,,*59
$PYRTM,2024,127.171195786863,18.280843197002
$GPGGA,040630.00,3359.2918,N,11927.3823,W,1,10,0.8,9.1,M,-33.6,M,,*5D
$PYRTM,2024,127.171207360347,18.280854770486
$GPGGA,040631.00,3359.2919,N,11927.3851,W,1,10,0.8,9.0,M,-33.6,M,,*59
$PYRTM,2024,127.171218945498,18.280866355648
$GPGGA,040632.00,3359.2923,N,11927.3879,W,1,10,0.8,9.1,M,-33.6,M,,*58
$PYRTM,2024,127.171230509815,18.280877919954
$GPGGA,040633.00,3359.2930,N,11927.3907,W,1,10,0.8,9.1,M,-33.6,M,,*53
$PYRTM,2024,127.171242094225,18.280889504363
$GPGGA,040634.00,3359.2935,N,11927.3936,W,1,10,0.8,8.9,M,-33.6,M,,*5A
$PYRTM,2024,127.171249484340,18.280896894479
$GPGGA,040635.00,3359.2937,N,11927.3964,W,1,10,0.8,8.9,M,-33.6,M,,*5E
$PYRTM,2024,127.171265232049,18.280912642188
$GPGGA,040636.00,3359.2938,N,11927.3991,W,1,10,0.8,9.2,M,-33.6,M,,*52
$PYRTM,2024,127.171276806319,18.280924216458
$GPGGA,040637.00,3359.2941,N,11927.4020,W,1,10,0.8,9.2,M,-33.6,M,,*59
$PYRTM,2024,127.171288404502,18.280935814641
$GPGGA,040638.00,3359.2947,N,11927.4049,W,1,10,0.8,9.0,M,-33.6,M,,*5D
$PYRTM,2024,127.171295786412,18.280943196551
$GPGGA,040639.00,3359.2952,N,11927.4077,W,1,10,0.8,8.8,M,-33.6,M,,*5C
$PYRTM,2024,127.171314425671,18.280961835810
$GPGGA,040640.00,3359.2956,N,11927.4103,W,1,10,0.8,9.1,M,-33.6,M,,*5C
$PYRTM,2024,127.171323102153,18.280970512292
$GPGGA,040641.00,3359.2959,N,11927.4130,W,1,10,0.8,9.4,M,-33.6,M,,*57
$PYRTM,2024,127.171334683796,18.280982093935
$GPGGA,040642.00,3359.2962,N,11927.4161,W,1,10,0.8,9.1,M,-33.6,M,,*5D
$PYRTM,2024,127.171342083495,18.280989493634
$GPGGA,040643.00,3359.2964,N,11927.4191,W,1,10,0.8,8.6,M,-33.6,M,,*53
$PYRTM,2024,127.171357824271,18.281005234410
$GPGGA,040644.00,3359.2968,N,11927.4216,W,1,10,0.8,8.9,M,-33.6,M,,*5B
$PYRTM,2024,127.171369399965,18.281016810104
$GPGGA,040645.00,3359.2974,N,11927.4240,W,1,10,0.8,9.7,M,-33.6,M,,*5B
$PYRTM,2024,127.171381095185,18.281028505336
$GPGGA,040646.00,3359.2981,N,11927.4270,W,1,10,0.8,10.0,M,-33.6,M,,*6E
$PYRTM,2024,127.171392547373,18.281039957512
$GPGGA,040647.00,3359.2983,N,11927.4302,W,1,10,0.8,9.4,M,-33.6,M,,*55
$PYRTM,2024,127.171399940961,18.281047351100
$GPGGA,040648.00,3359.2983,N,11927.4329,W,1,10,0.8,9.0,M,-33.6,M,,*57
$PYRTM,2024,127.171415690197,18.281063100347
$GPGGA,040649.00,3359.2985,N,11927.4353,W,1,10,0.8,9.3,M,-33.6,M,,*5E
$PYRTM,2024,127.171427280775,18.281074690926
$GPGGA,040650.00,3359.2992,N,11927.4380,W,1,10,0.8,9.6,M,-33.6,M,,*5B
$PYRTM,2024,127.171438843819,18.281086253958
$GPGGA,040651.00,3359.2999,N,11927.4410,W,1,10,0.8,9.4,M,-33.6,M,,*5D
$PYRTM,2024,127.171450417083,18.281097827222
$GPGGA,040652.00,3359.3002,N,11927.4439,W,1,10,0.8,9.2,M,-33.6,M,,*59
$PYRTM,2024,127.171461991389,18.281109401528
$GPGGA,040653.00,3359.3000,N,11927.4466,W,1,10,0.8,9.2,M,-33.6,M,,*50
$PYRTM,2024,127.171473590671,18.281121000810
$GPGGA,040654.00,3359.3001,N,11927.4493,W,1,10,0.8,9.5,M,-33.6,M,,*5B
$PYRTM,2024,127.171485142025,18.281132552164
$GPGGA,040655.00,3359.3006,N,11927.4520,W,1,10,0.8,9.7,M,-33.6,M,,*56
$PYRTM,2024,127.171496721667,18.281144131806
$GPGGA,040656.00,3359.3014,N,11927.4549,W,1,10,0.8,9.3,M,-33.6,M,,*5D
$PYRTM,2024,127.171508287639,18.281155697778
$GPGGA,040657.00,3359.3018,N,11927.4579,W,1,10,0.8,8.8,M,-33.6,M,,*59
$PYRTM,2024,127.171515682894,18.281163093032
$GPGGA,040658.00,3359.3017,N,11927.4604,W,1,10,0.8,9.1,M,-33.6,M,,*58
$PYRTM,2024,127.171531436574,18.281178846713
$GPGGA,040659.00,3359.3019,N,11927.4629,W,1,10,0.8,9.7,M,-33.6,M,,*5E
$PYRTM,2024,127.171543022604,18.281190432743
$GPGGA,040700.00,3359.3024,N,11927.4658,W,1,10,0.8,9.7,M,-33.6,M,,*5B
$PYRTM,2024,127.171554585012,18.281201995150
$GPGGA,040701.00,3359.3031,N,11927.4688,W,1,10,0.8,9.0,M,-33.6,M,,*54
$PYRTM,2024,127.171566158958,18.281213569109
$GPGGA,040702.00,3359.3034,N,11927.4716,W,1,10,0.8,8.7,M,-33.6,M,,*52
$PYRTM,2024,127.171577733831,18.281225143970
$GPGGA,040703.00,3359.3036,N,11927.4740,W,1,10,0.8,9.2,M,-33.6,M,,*56
$PYRTM,2024,127.171589307720,18.281236717870
$GPGGA,040704.00,3359.3039,N,11927.4767,W,1,10,0.8,9.9,M,-33.6,M,,*50
$PYRTM,2024,127.171600882002,18.281248292141
$GPGGA,040705.00,3359.3045,N,11927.4796,W,1,10,0.8,9.9,M,-33.6,M,,*54
$PYRTM,2024,127.171612455764,18.281259865903
$GPGGA,040706.00,3359.3049,N,11927.4826,W,1,10,0.8,9.4,M,-33.6,M,,*52
$PYRTM,2024,127.171624030775,18.281271440914
$GPGGA,040707.00,3359.3052,N,11927.4853,W,1,10,0.8,9.2,M,-33.6,M,,*5D
$PYRTM,2024,127.171631424340,18.281278834479
$GPGGA,040708.00,3359.3054,N,11927.4879,W,1,10,0.8,9.4,M,-33.6,M,,*5A
$PYRTM,2024,127.171647178576,18.281294588715
$GPGGA,040709.00,3359.3057,N,11927.4907,W,1,10,0.8,9.6,M,-33.6,M,,*52
$PYRTM,2024,127.171654575926,18.281301986065
$GPGGA,040710.00,3359.3062,N,11927.4936,W,1,10,0.8,9.4,M,-33.6,M,,*5C
$PYRTM,2024,127.171673221088,18.281320631238
$GPGGA,040711.00,3359.3067,N,11927.4964,W,1,10,0.8,9.2,M,-33.6,M,,*59
$PYRTM,2024,127.171681926412,18.281329336551
$GPGGA,040712.00,3359.3071,N,11927.4990,W,1,10,0.8,9.3,M,-33.6,M,,*57
$PYRTM,2024,127.171693475440,18.281340885590
$GPGGA,040713.00,3359.3073,N,11927.5018,W,1,10,0.8,9.2,M,-33.6,M,,*5D
$PYRTM,2024,127.171705057755,18.281352467894
$GPGGA,040714.00,3359.3076,N,11927.5047,W,1,10,0.8,9.0,M,-33.6,M,,*57
$PYRTM,2024,127.171712450706,18.281359860845
$GPGGA,040715.00,3359.3079,N,11927.5073,W,1,10,0.8,9.2,M,-33.6,M,,*5C
$PYRTM,2024,127.171728197442,18.281375607581
$GPGGA,040716.00,3359.3085,N,11927.5100,W,1,10,0.8,9.5,M,-33.6,M,,*5E
$PYRTM,2024,127.171739772743,18.281387182882
$GPGGA,040717.00,3359.3091,N,11927.5129,W,1,10,0.8,9.4,M,-33.6,M,,*50
$PYRTM,2024,127.171751357604,18.281398767743
$GPGGA,040718.00,3359.3094,N,11927.5157,W,1,10,0.8,9.1,M,-33.6,M,,*56
$PYRTM,2024,127.171762920891,18.281410331030
$GPGGA,040719.00,3359.3096,N,11927.5184,W,1,10,0.8,9.2,M,-33.6,M,,*58
$PYRTM,2024,127.171774494190,18.281421904340
$GPGGA,040720.00,3359.3100,N,11927.5211,W,1,10,0.8,9.3,M,-33.6,M,,*52
$PYRTM,2024,127.171786070185,18.281433480324
$GPGGA,040721.00,3359.3105,N,11927.5238,W,1,10,0.8,9.4,M,-33.6,M,,*5A
$PYRTM,2024,127.171797653935,18.281445064074
$GPGGA,040722.00,3359.3111,N,11927.5266,W,1,10,0.8,9.3,M,-33.6,M,,*50
$PYRTM,2024,127.171805049514,18.281452459653
$GPGGA,040723.00,3359.3114,N,11927.5295,W,1,10,0.8,9.1,M,-33.6,M,,*5A
$PYRTM,2024,127.171820802465,18.281468212604
$GPGGA,040724.00,3359.3115,N,11927.5322,W,1,10,0.8,9.0,M,-33.6,M,,*50
$PYRTM,2024,127.171832362049,18.281479772187
$GPGGA,040725.00,3359.3119,N,11927.5349,W,1,10,0.8,9.1,M,-33.6,M,,*51
$PYRTM,2024,127.171843947546,18.281491357685
$GPGGA,040726.00,3359.3124,N,11927.5377,W,1,10,0.8,9.1,M,-33.6,M,,*51
$PYRTM,2024,127.171855514965,18.281502925104
$GPGGA,040727.00,3359.3128,N,11927.5406,W,1,10,0.8,9.0,M,-33.6,M,,*5C
$PYRTM,2024,127.171867095764,18.281514505903
$GPGGA,040728.00,3359.3130,N,11927.5434,W,1,10,0.8,9.1,M,-33.6,M,,*5A
$PYRTM,2024,127.171878718773,18.281526128912
$GPGGA,040729.00,3359.3134,N,11927.5460,W,1,10,0.8,9.3,M,-33.6,M,,*5C
$PYRTM,2024,127.171890243866,18.281537654005
$GPGGA,040730.00,3359.3139,N,11927.5488,W,1,10,0.8,9.2,M,-33.6,M,,*5E
$PYRTM,2024,127.171901810278,18.281549220417
$GPGGA,040731.00,3359.3143,N,11927.5518,W,1,10,0.8,8.8,M,-33.6,M,,*51
$PYRTM,2024,127.171913383032,18.281560793171
$GPGGA,040732.00,3359.3146,N,11927.5546,W,1,10,0.8,8.7,M,-33.6,M,,*53
$PYRTM,2024,127.171924958414,18.281572368553
$GPGGA,040733.00,3359.3149,N,11927.5573,W,1,10,0.8,9.1,M,-33.6,M,,*5C
$PYRTM,2024,127.171936532859,18.281583943009
$GPGGA,040734.00,3359.3153,N,11927.5601,W,1,10,0.8,9.6,M,-33.6,M,,*51
$PYRTM,2024,127.171948102558,18.281595512697
$GPGGA,040735.00,3359.3160,N,11927.5629,W,1,10,0.8,9.6,M,-33.6,M,,*5A
$PYRTM,2024,127.171959681632,18.281607091771
$GPGGA,040736.00,3359.3165,N,11927.5658,W,1,10,0.8,9.3,M,-33.6,M,,*5F
$PYRTM,2024,127.171971256620,18.281618666771
$GPGGA,040737.00,3359.3167,N,11927.5687,W,1,10,0.8,8.9,M,-33.6,M,,*55
$PYRTM,2024,127.171978649861,18.281626060000
$GPGGA,040738.00,3359.3169,N,11927.5715,W,1,10,0.8,8.9,M,-33.6,M,,*5E
$PYRTM,2024,127.171994404120,18.281641814271
$GPGGA,040739.00,3359.3174,N,11927.5740,W,1,10,0.8,9.4,M,-33.6,M,,*5F
$PYRTM,2024,127.172005978160,18.281653388299
$GPGGA,040740.00,3359.3181,N,11927.5767,W,1,10,0.8,9.8,M,-33.6,M,,*52
$PYRTM,2024,127.172013379387,18.281660789525
$GPGGA,040741.00,3359.3187,N,11927.5797,W,1,10,0.8,9.5,M,-33.6,M,,*57
$PYRTM,2024,127.172032021910,18.281679432049
$GPGGA,040742.00,3359.3188,N,11927.5826,W,1,10,0.8,9.0,M,-33.6,M,,*5B
$PYRTM,2024,127.172040700637,18.281688110775
$GPGGA,040743.00,3359.3189,N,11927.5853,W,1,10,0.8,9.0,M,-33.6,M,,*59
$PYRTM,2024,127.172052282986,18.281699693125
$GPGGA,040744.00,3359.3193,N,11927.5879,W,1,10,0.8,9.3,M,-33.6,M,,*5E
$PYRTM,2024,127.172063849190,18.281711259329
$GPGGA,040745.00,3359.3200,N,11927.5907,W,1,10,0.8,9.3,M,-33.6,M,,*5E
$PYRTM,2024,127.172075448623,18.281722858762
$GPGGA,040746.00,3359.3206,N,11927.5936,W,1,10,0.8,9.1,M,-33.6,M,,*5B
$PYRTM,2024,127.172082824572,18.281730234722
$GPGGA,040747.00,3359.3208,N,11927.5964,W,1,10,0.8,9.0,M,-33.6,M,,*52
$PYRTM,2024,127.172101468808,18.281748878947
$GPGGA,040748.00,3359.3208,N,11927.5992,W,1,10,0.8,8.9,M,-33.6,M,,*5C
$PYRTM,2024,127.172113039039,18.281760449178
$GPGGA,040749.00,3359.3210,N,11927.6020,W,1,10,0.8,9.0,M,-33.6,M,,*5F
$PYRTM,2024,127.172121719954,18.281769130093
$GPGGA,040750.00,3359.3217,N,11927.6048,W,1,10,0.8,9.0,M,-33.6,M,,*5E
$PYRTM,2024,127.172133291505,18.281780701655
$GPGGA,040751.00,3359.3224,N,11927.6077,W,1,10,0.8,9.0,M,-33.6,M,,*53
$PYRTM,2024,127.172144867766,18.281792277905
$GPGGA,040752.00,3359.3228,N,11927.6103,W,1,10,0.8,9.2,M,-33.6,M,,*5C
$PYRTM,2024,127.172152269201,18.281799679352
$GPGGA,040753.00,3359.3229,N,11927.6132,W,1,10,0.8,9.3,M,-33.6,M,,*5F
$PYRTM,2024,127.172168016759,18.281815426898
$GPGGA,040754.00,3359.3231,N,11927.6162,W,1,10,0.8,8.9,M,-33.6,M,,*5F
$PYRTM,2024,127.172179590359,18.281827000498
$GPGGA,040755.00,3359.3235,N,11927.6190,W,1,10,0.8,8.6,M,-33.6,M,,*58
$PYRTM,2024,127.172191164306,18.281838574444
$GPGGA,040756.00,3359.3242,N,11927.6216,W,1,10,0.8,8.9,M,-33.6,M,,*59
$PYRTM,2024,127.172202737801,18.281850147940
$GPGGA,040757.00,3359.3249,N,11927.6243,W,1,10,0.8,9.4,M,-33.6,M,,*5F
$PYRTM,2024,127.172214320938,18.281861731076
$GPGGA,040758.00,3359.3252,N,11927.6272,W,1,10,0.8,9.5,M,-33.6,M,,*59
$PYRTM,2024,127.172225888287,18.281873298426
$GPGGA,040759.00,3359.3254,N,11927.6302,W,1,10,0.8,9.1,M,-33.6,M,,*5C
$PYRTM,2024,127.172237469132,18.281884879271
$GPGGA,040800.00,3359.3257,N,11927.6329,W,1,10,0.8,9.0,M,-33.6,M,,*54
$PYRTM,2024,127.172249035718,18.281896445856
$GPGGA,040801.00,3359.3263,N,11927.6355,W,1,10,0.8,9.1,M,-33.6,M,,*58
$PYRTM,2024,127.172260617731,18.281908027870
$GPGGA,040802.00,3359.3269,N,11927.6383,W,1,10,0.8,9.1,M,-33.6,M,,*5A
$PYRTM,2024,127.172268011181,18.281915421319
$GPGGA,040803.00,3359.3273,N,11927.6413,W,1,10,0.8,8.8,M,-33.6,M,,*56
$PYRTM,2024,127.172283758704,18.281931168843
$GPGGA,040804.00,3359.3274,N,11927.6440,W,1,10,0.8,8.5,M,-33.6,M,,*5D
$PYRTM,2024,127.172295327812,18.281942737951
$GPGGA,040805.00,3359.3276,N,11927.6467,W,1,10,0.8,8.7,M,-33.6,M,,*59
$PYRTM,2024,127.172306908843,18.281954318981
$GPGGA,040806.00,3359.3280,N,11927.6495,W,1,10,0.8,8.8,M,-33.6,M,,*51
$PYRTM,2024,127.172318482025,18.281965892164
$GPGGA,040807.00,3359.3284,N,11927.6524,W,1,10,0.8,8.8,M,-33.6,M,,*5F
$PYRTM,2024,127.172330054722,18.281977464861
$GPGGA,040808.00,3359.3289,N,11927.6552,W,1,10,0.8,8.7,M,-33.6,M,,*53
$PYRTM,2024,127.172341746146,18.281989156285
$GPGGA,040809.00,3359.3291,N,11927.6579,W,1,10,0.8,8.7,M,-33.6,M,,*52
$PYRTM,2024,127.172353314201,18.282000724340
$GPGGA,040810.00,3359.3293,N,11927.6607,W,1,10,0.8,9.0,M,-33.6,M,,*54
$PYRTM,2024,127.172364894433,18.282012304572
$GPGGA,040811.00,3359.3295,N,11927.6636,W,1,10,0.8,9.3,M,-33.6,M,,*52
$PYRTM,2024,127.172372173669,18.282019583808
$GPGGA,040812.00,3359.3300,N,11927.6665,W,1,10,0.8,9.2,M,-33.6,M,,*5B
$PYRTM,2024,127.172390819329,18.282038229468
$GPGGA,040813.00,3359.3307,N,11927.6692,W,1,10,0.8,9.1,M,-33.6,M,,*56
$PYRTM,2024,127.172399508113,18.282046918252
$GPGGA,040814.00,3359.3313,N,11927.6719,W,1,10,0.8,9.4,M,-33.6,M,,*53
$PYRTM,2024,127.172411074711,18.282058484850
$GPGGA,040815.00,3359.3317,N,11927.6747,W,1,10,0.8,9.5,M,-33.6,M,,*5C
$PYRTM,2024,127.172418468831,18.282065878970
$GPGGA,040816.00,3359.3319,N,11927.6776,W,1,10,0.8,9.3,M,-33.6,M,,*55
$PYRTM,2024,127.172434222836,18.282081632975
$GPGGA,040817.00,3359.3322,N,11927.6805,W,1,10,0.8,9.0,M,-33.6,M,,*54
$PYRTM,2024,127.172441624792,18.282089034931
$GPGGA,040818.00,3359.3328,N,11927.6832,W,1,10,0.8,8.8,M,-33.6,M,,*5C
$PYRTM,2024,127.172457371181,18.282104781319
$GPGGA,040819.00,3359.3335,N,11927.6858,W,1,10,0.8,9.0,M,-33.6,M,,*54
$PYRTM,2024,127.172464765428,18.282112175567
$GPGGA,040820.00,3359.3340,N,11927.6886,W,1,10,0.8,9.3,M,-33.6,M,,*5C
$PYRTM,2024,127.172483412488,18.282130822627
$GPGGA,040821.00,3359.3342,N,11927.6914,W,1,10,0.8,9.2,M,-33.6,M,,*54
$PYRTM,2024,127.172492092859,18.282139502998
$GPGGA,040822.00,3359.3344,N,11927.6944,W,1,10,0.8,8.9,M,-33.6,M,,*5E
$PYRTM,2024,127.172503667361,18.282151077500
$GPGGA,040823.00,3359.3348,N,11927.6972,W,1,10,0.8,8.7,M,-33.6,M,,*58
$PYRTM,2024,127.172515252720,18.282162662859
$GPGGA,040824.00,3359.3353,N,11927.6998,W,1,10,0.8,8.8,M,-33.6,M,,*5E
$PYRTM,2024,127.172526811539,18.282174221678
$GPGGA,040825.00,3359.3357,N,11927.7025,W,1,10,0.8,9.0,M,-33.6,M,,*5C
$PYRTM,2024,127.172538390069,18.282185800208
$GPGGA,040826.00,3359.3361,N,11927.7055,W,1,10,0.8,8.9,M,-33.6,M,,*55
$PYRTM,2024,127.172549966100,18.282197376238
$GPGGA,040827.00,3359.3363,N,11927.7085,W,1,10,0.8,8.7,M,-33.6,M,,*55
$PYRTM,2024,127.172557359051,18.282204769190
$GPGGA,040828.00,3359.3366,N,11927.7111,W,1,10,0.8,9.1,M,-33.6,M,,*54
$PYRTM,2024,127.172573112604,18.282220522743
$GPGGA,040829.00,3359.3371,N,11927.7138,W,1,10,0.8,9.5,M,-33.6,M,,*5C
$PYRTM,2024,127.172584695162,18.282232105301
$GPGGA,040830.00,3359.3376,N,11927.7168,W,1,10,0.8,9.3,M,-33.6,M,,*50
$PYRTM,2024,127.172596261771,18.282243671910
$GPGGA,040831.00,3359.3379,N,11927.7197,W,1,10,0.8,8.9,M,-33.6,M,,*55
$PYRTM,2024,127.172607860799,18.282255270938
$GPGGA,040832.00,3359.3381,N,11927.7225,W,1,10,0.8,8.9,M,-33.6,M,,*5B
$PYRTM,2024,127.172615236319,18.282262646458
$GPGGA,040833.00,3359.3385,N,11927.7251,W,1,10,0.8,9.4,M,-33.6,M,,*51
$PYRTM,2024,127.172630991829,18.282278401968
$GPGGA,040834.00,3359.3391,N,11927.7278,W,1,10,0.8,9.8,M,-33.6,M,,*54
$PYRTM,2024,127.172642558160,18.282289968310
$GPGGA,040835.00,3359.3399,N,11927.7306,W,1,10,0.8,9.8,M,-33.6,M,,*55
$PYRTM,2024,127.172654131875,18.282301542014
$GPGGA,040836.00,3359.3403,N,11927.7336,W,1,10,0.8,9.5,M,-33.6,M,,*5C
$PYRTM,2024,127.172665706111,18.282313116250
$GPGGA,040837.00,3359.3404,N,11927.7364,W,1,10,0.8,9.2,M,-33.6,M,,*5A
$PYRTM,2024,127.172673100139,18.282320510278
$GPGGA,040838.00,3359.3407,N,11927.7390,W,1,10,0.8,9.3,M,-33.6,M,,*5C
$PYRTM,2024,127.172688852269,18.282336262407
$GPGGA,040839.00,3359.3413,N,11927.7417,W,1,10,0.8,9.4,M,-33.6,M,,*57
