$PYRTM,2024,124.916670461829,16.026317871968
$GPGGA,215959.00,3510.6301,N,12128.0454,W,1,10,0.8,11.5,M,-32.3,M,,*60
$PYRTM,2024,124.916682038611,16.026329448750
$GPGGA,220000.00,3510.6299,N,12128.0457,W,1,10,0.8,11.6,M,-32.3,M,,*63
$PYRTM,2024,124.916689315405,16.026336725544
$GPGGA,220001.00,3510.6299,N,12128.0459,W,1,10,0.8,11.6,M,-32.3,M,,*6C
$PYRTM,2024,124.916705184965,16.026352595104
$GPGGA,220002.00,3510.6299,N,12128.0461,W,1,10,0.8,11.6,M,-32.3,M,,*64
$PYRTM,2024,124.916716762164,16.026364172303
$GPGGA,220003.00,3510.6297,N,12128.0464,W,1,10,0.8,11.6,M,-32.3,M,,*6E
$PYRTM,2024,124.916728332928,16.026375743067
$GPGGA,220004.00,3510.6294,N,12128.0468,W,1,10,0.8,11.6,M,-32.3,M,,*66
$PYRTM,2024,124.916739921076,16.026387331215
$GPGGA,220005.00,3510.6293,N,12128.0470,W,1,10,0.8,11.6,M,-32.3,M,,*69
$PYRTM,2024,124.916751481759,16.026398891898
$GPGGA,220006.00,3510.6292,N,12128.0472,W,1,10,0.8,11.6,M,-32.3,M,,*69
$PYRTM,2024,124.916763055046,16.026410465185
$GPGGA,220007.00,3510.6292,N,12128.0475,W,1,10,0.8,11.6,M,-32.3,M,,*6F
$PYRTM,2024,124.916774624826,16.026422034965
$GPGGA,220008.00,3510.6292,N,12128.0478,W,1,10,0.8,11.6,M,-32.3,M,,*6D
$PYRTM,2024,124.916786199965,16.026433610104
$GPGGA,220009.00,3510.6289,N,12128.0480,W,1,10,0.8,11.7,M,-32.3,M,,*60
$PYRTM,2024,124.916793506146,16.026440916285
$GPGGA,220010.00,3510.6286,N,12128.0480,W,1,10,0.8,11.7,M,-32.3,M,,*67
$PYRTM,2024,124.916809355394,16.026456765532
$GPGGA,220011.00,3510.6285,N,12128.0482,W,1,10,0.8,11.7,M,-32.3,M,,*67
$PYRTM,2024,124.916820926748,16.026468336887
$GPGGA,220012.00,3510.6286,N,12128.0487,W,1,10,0.8,11.7,M,-32.3,M,,*62
$PYRTM,2024,124.916832503333,16.026479913472
$GPGGA,220013.00,3510.6287,N,12128.0490,W,1,10,0.8,11.7,M,-32.3,M,,*64
$PYRTM,2024,124.916839790648,16.026487200787
$GPGGA,220014.00,3510.6285,N,12128.0489,W,1,10,0.8,11.8,M,-32.3,M,,*66
$PYRTM,2024,124.916855648426,16.026503058565
$GPGGA,220015.00,3510.6282,N,12128.0488,W,1,10,0.8,11.8,M,-32.3,M,,*61
$PYRTM,2024,124.916867218009,16.026514628148
$GPGGA,220016.00,3510.6279,N,12128.0489,W,1,10,0.8,11.8,M,-32.3,M,,*67
$PYRTM,2024,124.916881691447,16.026529101586
$GPGGA,220017.00,3510.6279,N,12128.0494,W,1,10,0.8,11.8,M,-32.3,M,,*6A
$PYRTM,2024,124.916893149537,16.026540559676
$GPGGA,220018.00,3510.6281,N,12128.0498,W,1,10,0.8,11.8,M,-32.3,M,,*6E
$PYRTM,2024,124.916901946076,16.026549356227
$GPGGA,220019.00,3510.6280,N,12128.0499,W,1,10,0.8,11.8,M,-32.3,M,,*6F
$PYRTM,2024,124.916909230799,16.026556640937
$GPGGA,220020.00,3510.6277,N,12128.0498,W,1,10,0.8,11.8,M,-32.3,M,,*6C
$PYRTM,2024,124.916927989005,16.026575399144
$GPGGA,220021.00,3510.6273,N,12128.0497,W,1,10,0.8,11.8,M,-32.3,M,,*66
$PYRTM,2024,124.916936666979,16.026584077118
$GPGGA,220022.00,3510.6272,N,12128.0500,W,1,10,0.8,11.8,M,-32.3,M,,*6B
$PYRTM,2024,124.916948245220,16.026595655359
$GPGGA,220023.00,3510.6273,N,12128.0505,W,1,10,0.8,11.8,M,-32.3,M,,*6E
$PYRTM,2024,124.916959815856,16.026607226007
$GPGGA,220024.00,3510.6274,N,12128.0508,W,1,10,0.8,11.8,M,-32.3,M,,*63
$PYRTM,2024,124.916971389687,16.026618799838
$GPGGA,220025.00,3510.6272,N,12128.0508,W,1,10,0.8,11.9,M,-32.3,M,,*65
$PYRTM,2024,124.916982963762,16.026630373912
$GPGGA,220026.00,3510.6269,N,12128.0506,W,1,10,0.8,11.9,M,-32.3,M,,*62
$PYRTM,2024,124.916994538634,16.026641948773
$GPGGA,220027.00,3510.6267,N,12128.0507,W,1,10,0.8,11.9,M,-32.3,M,,*6C
$PYRTM,2024,124.917006108067,16.026653518206
$GPGGA,220028.00,3510.6266,N,12128.0510,W,1,10,0.8,11.9,M,-32.3,M,,*64
$PYRTM,2024,124.917017687512,16.026665097650
$GPGGA,220029.00,3510.6267,N,12128.0513,W,1,10,0.8,11.9,M,-32.3,M,,*67
$PYRTM,2024,124.917029262025,16.026676672164
$GPGGA,220030.00,3510.6267,N,12128.0513,W,1,10,0.8,11.9,M,-32.3,M,,*6F
$PYRTM,2024,124.917040835451,16.026688245590
$GPGGA,220031.00,3510.6266,N,12128.0513,W,1,10,0.8,11.9,M,-32.3,M,,*6F
$PYRTM,2024,124.917052409491,16.026699819630
$GPGGA,220032.00,3510.6264,N,12128.0514,W,1,10,0.8,11.9,M,-32.3,M,,*69
$PYRTM,2024,124.917059688565,16.026707098704
$GPGGA,220033.00,3510.6263,N,12128.0515,W,1,10,0.8,11.9,M,-32.3,M,,*6E
$PYRTM,2024,124.917075557014,16.026722967153
$GPGGA,220034.00,3510.6262,N,12128.0516,W,1,10,0.8,12.0,M,-32.3,M,,*61
$PYRTM,2024,124.917082837396,16.026730247535
$GPGGA,220035.00,3510.6262,N,12128.0518,W,1,10,0.8,12.0,M,-32.3,M,,*6E
$PYRTM,2024,124.917098700637,16.026746110775
$GPGGA,220036.00,3510.6261,N,12128.0519,W,1,10,0.8,12.0,M,-32.3,M,,*6F
$PYRTM,2024,124.917110280046,16.026757690185
$GPGGA,220037.00,3510.6259,N,12128.0519,W,1,10,0.8,12.0,M,-32.3,M,,*65
$PYRTM,2024,124.917121849769,16.026769259907
$GPGGA,220038.00,3510.6257,N,12128.0518,W,1,10,0.8,12.0,M,-32.3,M,,*65
$PYRTM,2024,124.917133427697,16.026780837836
$GPGGA,220039.00,3510.6256,N,12128.0519,W,1,10,0.8,12.0,M,-32.3,M,,*64
$PYRTM,2024,124.917145002106,16.026792412245
$GPGGA,220040.00,3510.6256,N,12128.0523,W,1,10,0.8,12.0,M,-32.3,M,,*63
$PYRTM,2024,124.917156579514,16.026803989653
$GPGGA,220041.00,3510.6257,N,12128.0526,W,1,10,0.8,12.0,M,-32.3,M,,*66
$PYRTM,2024,124.917168150637,16.026815560775
$GPGGA,220042.00,3510.6255,N,12128.0525,W,1,10,0.8,12.0,M,-32.3,M,,*64
$PYRTM,2024,124.917179726875,16.026827137014
$GPGGA,220043.00,3510.6251,N,12128.0522,W,1,10,0.8,12.0,M,-32.3,M,,*66
$PYRTM,2024,124.917191299097,16.026838709236
$GPGGA,220044.00,3510.6248,N,12128.0521,W,1,10,0.8,12.0,M,-32.3,M,,*6A
$PYRTM,2024,124.917202874016,16.026850284155
$GPGGA,220045.00,3510.6249,N,12128.0524,W,1,10,0.8,12.1,M,-32.3,M,,*6E
$PYRTM,2024,124.917214446921,16.026861857060
$GPGGA,220046.00,3510.6252,N,12128.0529,W,1,10,0.8,11.8,M,-32.3,M,,*60
$PYRTM,2024,124.917221726238,16.026869136377
$GPGGA,220047.00,3510.6254,N,12128.0531,W,1,10,0.8,11.5,M,-32.3,M,,*63
$PYRTM,2024,124.917237595093,16.026885005231
$GPGGA,220048.00,3510.6250,N,12128.0527,W,1,10,0.8,11.5,M,-32.3,M,,*6F
$PYRTM,2024,124.917244874398,16.026892284537
$GPGGA,220049.00,3510.6244,N,12128.0522,W,1,10,0.8,11.6,M,-32.3,M,,*6D
$PYRTM,2024,124.917263521771,16.026910931910
$GPGGA,220050.00,3510.6241,N,12128.0521,W,1,10,0.8,11.7,M,-32.3,M,,*62
$PYRTM,2024,124.917275098287,16.026922508426
$GPGGA,220051.00,3510.6243,N,12128.0527,W,1,10,0.8,11.7,M,-32.3,M,,*67
$PYRTM,2024,124.917289215683,16.026936625822
$GPGGA,220052.00,3510.6247,N,12128.0532,W,1,10,0.8,11.7,M,-32.3,M,,*64
$PYRTM,2024,124.917295465718,16.026942875856
$GPGGA,220053.00,3510.6247,N,12128.0532,W,1,10,0.8,11.7,M,-32.3,M,,*65
$PYRTM,2024,124.917307041019,16.026954451169
$GPGGA,220054.00,3510.6241,N,12128.0526,W,1,10,0.8,11.9,M,-32.3,M,,*6F
$PYRTM,2024,124.917318621713,16.026966031852
$GPGGA,220055.00,3510.6235,N,12128.0523,W,1,10,0.8,12.0,M,-32.3,M,,*62
$PYRTM,2024,124.917330188090,16.026977598229
$GPGGA,220056.00,3510.6235,N,12128.0526,W,1,10,0.8,12.0,M,-32.3,M,,*64
$PYRTM,2024,124.917337468426,16.026984878565
$GPGGA,220057.00,3510.6239,N,12128.0531,W,1,10,0.8,12.0,M,-32.3,M,,*6F
$PYRTM,2024,124.917353338241,16.027000748380
$GPGGA,220058.00,3510.6242,N,12128.0532,W,1,10,0.8,12.0,M,-32.3,M,,*6F
$PYRTM,2024,124.917364912593,16.027012322731
$GPGGA,220059.00,3510.6239,N,12128.0529,W,1,10,0.8,12.0,M,-32.3,M,,*68
$PYRTM,2024,124.917372211655,16.027019621782
$GPGGA,220100.00,3510.6234,N,12128.0525,W,1,10,0.8,12.0,M,-32.3,M,,*64
$PYRTM,2024,124.917388062882,16.027035473021
$GPGGA,220101.00,3510.6232,N,12128.0526,W,1,10,0.8,12.1,M,-32.3,M,,*61
$PYRTM,2024,124.917399633600,16.027047043738
$GPGGA,220102.00,3510.6235,N,12128.0529,W,1,10,0.8,12.1,M,-32.3,M,,*6A
$PYRTM,2024,124.917411207720,16.027058617859
$GPGGA,220103.00,3510.6236,N,12128.0531,W,1,10,0.8,12.1,M,-32.3,M,,*61
$PYRTM,2024,124.917422782917,16.027070193056
$GPGGA,220104.00,3510.6233,N,12128.0529,W,1,10,0.8,12.1,M,-32.3,M,,*6A
$PYRTM,2024,124.917434356227,16.027081766366
$GPGGA,220105.00,3510.6229,N,12128.0527,W,1,10,0.8,12.1,M,-32.3,M,,*6E
$PYRTM,2024,124.917445926435,16.027093336586
$GPGGA,220106.00,3510.6227,N,12128.0527,W,1,10,0.8,12.1,M,-32.3,M,,*63
$PYRTM,2024,124.917457504606,16.027104914745
$GPGGA,220107.00,3510.6228,N,12128.0530,W,1,10,0.8,12.0,M,-32.3,M,,*6A
$PYRTM,2024,124.917469078681,16.027116488819
$GPGGA,220108.00,3510.6228,N,12128.0531,W,1,10,0.8,12.0,M,-32.3,M,,*64
$PYRTM,2024,124.917480656123,16.027128066262
$GPGGA,220109.00,3510.6226,N,12128.0530,W,1,10,0.8,12.0,M,-32.3,M,,*6A
$PYRTM,2024,124.917492226644,16.027139636782
$GPGGA,220110.00,3510.6223,N,12128.0529,W,1,10,0.8,12.0,M,-32.3,M,,*6F
$PYRTM,2024,124.917503817095,16.027151227234
$GPGGA,220111.00,3510.6222,N,12128.0530,W,1,10,0.8,12.0,M,-32.3,M,,*67
$PYRTM,2024,124.917515374525,16.027162784664
$GPGGA,220112.00,3510.6224,N,12128.0533,W,1,10,0.8,12.0,M,-32.3,M,,*61
$PYRTM,2024,124.917526950046,16.027174360185
$GPGGA,220113.00,3510.6225,N,12128.0533,W,1,10,0.8,12.1,M,-32.3,M,,*60
$PYRTM,2024,124.917538518264,16.027185928403
$GPGGA,220114.00,3510.6222,N,12128.0530,W,1,10,0.8,12.1,M,-32.3,M,,*63
$PYRTM,2024,124.917550098206,16.027197508345
$GPGGA,220115.00,3510.6218,N,12128.0528,W,1,10,0.8,12.1,M,-32.3,M,,*62
$PYRTM,2024,124.917561667002,16.027209077141
$GPGGA,220116.00,3510.6216,N,12128.0530,W,1,10,0.8,12.1,M,-32.3,M,,*66
$PYRTM,2024,124.917573249051,16.027220659201
$GPGGA,220117.00,3510.6218,N,12128.0533,W,1,10,0.8,12.0,M,-32.3,M,,*6B
$PYRTM,2024,124.917584815046,16.027232225185
$GPGGA,220118.00,3510.6221,N,12128.0535,W,1,10,0.8,12.0,M,-32.3,M,,*68
$PYRTM,2024,124.917596409815,16.027243819954
$GPGGA,220119.00,3510.6218,N,12128.0533,W,1,10,0.8,12.0,M,-32.3,M,,*65
$PYRTM,2024,124.917607967396,16.027255377535
$GPGGA,220120.00,3510.6211,N,12128.0529,W,1,10,0.8,12.0,M,-32.3,M,,*6D
$PYRTM,2024,124.917615252025,16.027262662164
$GPGGA,220121.00,3510.6206,N,12128.0527,W,1,10,0.8,12.0,M,-32.3,M,,*64
$PYRTM,2024,124.917633890810,16.027281300961
$GPGGA,220122.00,3510.6207,N,12128.0530,W,1,10,0.8,12.0,M,-32.3,M,,*60
$PYRTM,2024,124.917642690139,16.027290100278
$GPGGA,220123.00,3510.6211,N,12128.0536,W,1,10,0.8,12.0,M,-32.3,M,,*60
$PYRTM,2024,124.917654265556,16.027301675694
$GPGGA,220124.00,3510.6211,N,12128.0537,W,1,10,0.8,12.0,M,-32.3,M,,*66
$PYRTM,2024,124.917665842095,16.027313252234
$GPGGA,220125.00,3510.6207,N,12128.0533,W,1,10,0.8,11.9,M,-32.3,M,,*6E
$PYRTM,2024,124.917677413461,16.027324823600
$GPGGA,220126.00,3510.6201,N,12128.0529,W,1,10,0.8,11.9,M,-32.3,M,,*60
$PYRTM,2024,124.917688987801,16.027336397940
$GPGGA,220127.00,3510.6199,N,12128.0530,W,1,10,0.8,12.0,M,-32.3,M,,*61
$PYRTM,2024,124.917700561782,16.027347971921
$GPGGA,220128.00,3510.6202,N,12128.0534,W,1,10,0.8,12.0,M,-32.3,M,,*6B
$PYRTM,2024,124.917712139653,16.027359549792
$GPGGA,220129.00,3510.6203,N,12128.0537,W,1,10,0.8,11.9,M,-32.3,M,,*62
$PYRTM,2024,124.917723710394,16.027371120532
$GPGGA,220130.00,3510.6200,N,12128.0536,W,1,10,0.8,11.9,M,-32.3,M,,*68
$PYRTM,2024,124.917735284699,16.027382694838
$GPGGA,220131.00,3510.6196,N,12128.0534,W,1,10,0.8,11.9,M,-32.3,M,,*67
$PYRTM,2024,124.917746858125,16.027394268264
$GPGGA,220132.00,3510.6192,N,12128.0531,W,1,10,0.8,11.9,M,-32.3,M,,*65
$PYRTM,2024,124.917758433738,16.027405843877
$GPGGA,220133.00,3510.6191,N,12128.0531,W,1,10,0.8,11.9,M,-32.3,M,,*67
$PYRTM,2024,124.917770001088,16.027417411227
$GPGGA,220134.00,3510.6191,N,12128.0534,W,1,10,0.8,11.9,M,-32.3,M,,*65
$PYRTM,2024,124.917781579942,16.027428990081
$GPGGA,220135.00,3510.6191,N,12128.0536,W,1,10,0.8,11.9,M,-32.3,M,,*66
$PYRTM,2024,124.917793149884,16.027440560023
$GPGGA,220136.00,3510.6188,N,12128.0536,W,1,10,0.8,11.9,M,-32.3,M,,*6D
$PYRTM,2024,124.917804729688,16.027452139826
$GPGGA,220137.00,3510.6184,N,12128.0533,W,1,10,0.8,11.9,M,-32.3,M,,*65
$PYRTM,2024,124.917816302627,16.027463712766
$GPGGA,220138.00,3510.6181,N,12128.0530,W,1,10,0.8,11.9,M,-32.3,M,,*6C
$PYRTM,2024,124.917827880579,16.027475290718
$GPGGA,220139.00,3510.6181,N,12128.0530,W,1,10,0.8,12.0,M,-32.3,M,,*67
$PYRTM,2024,124.917835167812,16.027482577951
$GPGGA,220140.00,3510.6181,N,12128.0534,W,1,10,0.8,12.0,M,-32.3,M,,*6D
$PYRTM,2024,124.917851024456,16.027498434595
$GPGGA,220141.00,3510.6180,N,12128.0538,W,1,10,0.8,12.0,M,-32.3,M,,*61
$PYRTM,2024,124.917862598287,16.027510008426
$GPGGA,220142.00,3510.6177,N,12128.0536,W,1,10,0.8,12.0,M,-32.3,M,,*64
$PYRTM,2024,124.917874177257,16.027521587396
$GPGGA,220143.00,3510.6173,N,12128.0531,W,1,10,0.8,12.2,M,-32.3,M,,*64
$PYRTM,2024,124.917885747766,16.027533157905
$GPGGA,220144.00,3510.6171,N,12128.0528,W,1,10,0.8,12.5,M,-32.3,M,,*6E
$PYRTM,2024,124.917897337569,16.027544747708
$GPGGA,220145.00,3510.6171,N,12128.0531,W,1,10,0.8,12.5,M,-32.3,M,,*67
$PYRTM,2024,124.917908890903,16.027556301042
$GPGGA,220146.00,3510.6170,N,12128.0534,W,1,10,0.8,12.5,M,-32.3,M,,*60
$PYRTM,2024,124.917916174468,16.027563584606
$GPGGA,220147.00,3510.6167,N,12128.0535,W,1,10,0.8,12.5,M,-32.3,M,,*66
$PYRTM,2024,124.917932043611,16.027579453750
$GPGGA,220148.00,3510.6164,N,12128.0531,W,1,10,0.8,12.5,M,-32.3,M,,*6E
$PYRTM,2024,124.917943621123,16.027591031262
$GPGGA,220149.00,3510.6161,N,12128.0527,W,1,10,0.8,12.5,M,-32.3,M,,*6D
$PYRTM,2024,124.917955193137,16.027602603275
$GPGGA,220150.00,3510.6159,N,12128.0527,W,1,10,0.8,12.5,M,-32.3,M,,*6E
$PYRTM,2024,124.917966768299,16.027614178437
$GPGGA,220151.00,3510.6158,N,12128.0528,W,1,10,0.8,12.5,M,-32.3,M,,*61
$PYRTM,2024,124.917974057905,16.027621468044
$GPGGA,220152.00,3510.6156,N,12128.0531,W,1,10,0.8,12.6,M,-32.3,M,,*67
$PYRTM,2024,124.917992692674,16.027640102813
$GPGGA,220153.00,3510.6154,N,12128.0532,W,1,10,0.8,12.6,M,-32.3,M,,*67
$PYRTM,2024,124.918001489201,16.027648899340
$GPGGA,220154.00,3510.6150,N,12128.0530,W,1,10,0.8,12.6,M,-32.3,M,,*66
$PYRTM,2024,124.918013064005,16.027660474144
$GPGGA,220155.00,3510.6147,N,12128.0525,W,1,10,0.8,12.6,M,-32.3,M,,*65
$PYRTM,2024,124.918024639780,16.027672049919
$GPGGA,220156.00,3510.6145,N,12128.0524,W,1,10,0.8,12.6,M,-32.3,M,,*65
$PYRTM,2024,124.918036214919,16.027683625058
$GPGGA,220157.00,3510.6143,N,12128.0528,W,1,10,0.8,12.6,M,-32.3,M,,*6E
$PYRTM,2024,124.918047785116,16.027695195255
$GPGGA,220158.00,3510.6142,N,12128.0531,W,1,10,0.8,12.6,M,-32.3,M,,*68
$PYRTM,2024,124.918059361412,16.027706771551
$GPGGA,220159.00,3510.6139,N,12128.0530,W,1,10,0.8,12.6,M,-32.3,M,,*64
$PYRTM,2024,124.918070933877,16.027718344016
$GPGGA,220200.00,3510.6135,N,12128.0527,W,1,10,0.8,12.6,M,-32.3,M,,*61
$PYRTM,2024,124.918082511192,16.027729921331
$GPGGA,220201.00,3510.6131,N,12128.0525,W,1,10,0.8,12.6,M,-32.3,M,,*66
$PYRTM,2024,124.918094082569,16.027741492708
$GPGGA,220202.00,3510.6129,N,12128.0526,W,1,10,0.8,12.7,M,-32.3,M,,*6E
$PYRTM,2024,124.918105657164,16.027753067303
$GPGGA,220203.00,3510.6128,N,12128.0527,W,1,10,0.8,12.8,M,-32.3,M,,*60
$PYRTM,2024,124.918117231030,16.027764641169
$GPGGA,220204.00,3510.6125,N,12128.0528,W,1,10,0.8,12.8,M,-32.3,M,,*65
$PYRTM,2024,124.918128809363,16.027776219502
$GPGGA,220205.00,3510.6121,N,12128.0526,W,1,10,0.8,12.9,M,-32.3,M,,*6F
$PYRTM,2024,124.918140379549,16.027787789688
$GPGGA,220206.00,3510.6117,N,12128.0524,W,1,10,0.8,12.9,M,-32.3,M,,*6B
$PYRTM,2024,124.918151956019,16.027799366157
$GPGGA,220207.00,3510.6116,N,12128.0523,W,1,10,0.8,13.0,M,-32.3,M,,*64
$PYRTM,2024,124.918163520845,16.027810930984
$GPGGA,220208.00,3510.6114,N,12128.0524,W,1,10,0.8,13.0,M,-32.3,M,,*6E
$PYRTM,2024,124.918175101725,16.027822511863
$GPGGA,220209.00,3510.6112,N,12128.0523,W,1,10,0.8,13.0,M,-32.3,M,,*6E
$PYRTM,2024,124.918182394919,16.027829805058
$GPGGA,220210.00,3510.6107,N,12128.0520,W,1,10,0.8,13.0,M,-32.3,M,,*61
$PYRTM,2024,124.918198249815,16.027845659954
$GPGGA,220211.00,3510.6103,N,12128.0518,W,1,10,0.8,13.0,M,-32.3,M,,*6F
$PYRTM,2024,124.918205541204,16.027852951343
$GPGGA,220212.00,3510.6102,N,12128.0519,W,1,10,0.8,13.0,M,-32.3,M,,*6C
$PYRTM,2024,124.918221402338,16.027868812477
$GPGGA,220213.00,3510.6101,N,12128.0521,W,1,10,0.8,13.0,M,-32.3,M,,*65
$PYRTM,2024,124.918232972060,16.027880382211
$GPGGA,220214.00,3510.6099,N,12128.0522,W,1,10,0.8,13.0,M,-32.3,M,,*61
$PYRTM,2024,124.918244561215,16.027891971354
$GPGGA,220215.00,3510.6095,N,12128.0520,W,1,10,0.8,13.0,M,-32.3,M,,*6E
$PYRTM,2024,124.918256121505,16.027903531644
$GPGGA,220216.00,3510.6091,N,12128.0515,W,1,10,0.8,13.0,M,-32.3,M,,*6F
$PYRTM,2024,124.918263400926,16.027910811065
$GPGGA,220217.00,3510.6087,N,12128.0513,W,1,10,0.8,13.0,M,-32.3,M,,*6F
$PYRTM,2024,124.918279269688,16.027926679826
$GPGGA,220218.00,3510.6085,N,12128.0515,W,1,10,0.8,13.0,M,-32.3,M,,*64
$PYRTM,2024,124.918290842928,16.027938253067
$GPGGA,220219.00,3510.6084,N,12128.0518,W,1,10,0.8,13.0,M,-32.3,M,,*69
$PYRTM,2024,124.918302417465,16.027949827604
$GPGGA,220220.00,3510.6082,N,12128.0516,W,1,10,0.8,13.0,M,-32.3,M,,*6B
$PYRTM,2024,124.918313991736,16.027961401875
$GPGGA,220221.00,3510.6079,N,12128.0510,W,1,10,0.8,13.0,M,-32.3,M,,*68
$PYRTM,2024,124.918321280938,16.027968691076
$GPGGA,220222.00,3510.6076,N,12128.0507,W,1,10,0.8,13.0,M,-32.3,M,,*62
$PYRTM,2024,124.918333075995,16.027980486134
$GPGGA,220223.00,3510.6073,N,12128.0510,W,1,10,0.8,13.0,M,-32.3,M,,*60
$PYRTM,2024,124.918351491181,16.027998901319
$GPGGA,220224.00,3510.6071,N,12128.0513,W,1,10,0.8,13.0,M,-32.3,M,,*66
$PYRTM,2024,124.918360301852,16.028007711991
$GPGGA,220225.00,3510.6069,N,12128.0511,W,1,10,0.8,12.9,M,-32.3,M,,*64
$PYRTM,2024,124.918371862963,16.028019273102
$GPGGA,220226.00,3510.6064,N,12128.0504,W,1,10,0.8,13.1,M,-32.3,M,,*67
$PYRTM,2024,124.918383436829,16.028030846968
$GPGGA,220227.00,3510.6061,N,12128.0499,W,1,10,0.8,13.2,M,-32.3,M,,*65
$PYRTM,2024,124.918395010891,16.028042421030
$GPGGA,220228.00,3510.6059,N,12128.0502,W,1,10,0.8,13.3,M,-32.3,M,,*63
$PYRTM,2024,124.918406584618,16.028053994769
$GPGGA,220229.00,3510.6059,N,12128.0508,W,1,10,0.8,13.2,M,-32.3,M,,*69
$PYRTM,2024,124.918418154213,16.028065564352
$GPGGA,220230.00,3510.6056,N,12128.0508,W,1,10,0.8,13.2,M,-32.3,M,,*6E
$PYRTM,2024,124.918429733669,16.028077143819
$GPGGA,220231.00,3510.6051,N,12128.0500,W,1,10,0.8,13.3,M,-32.3,M,,*61
$PYRTM,2024,124.918441307037,16.028088717176
$GPGGA,220232.00,3510.6046,N,12128.0492,W,1,10,0.8,13.6,M,-32.3,M,,*6B
$PYRTM,2024,124.918452886204,16.028100296343
$GPGGA,220233.00,3510.6044,N,12128.0491,W,1,10,0.8,13.8,M,-32.3,M,,*65
$PYRTM,2024,124.918464455556,16.028111865694
$GPGGA,220234.00,3510.6044,N,12128.0496,W,1,10,0.8,13.8,M,-32.3,M,,*65
$PYRTM,2024,124.918476032905,16.028123443056
$GPGGA,220235.00,3510.6044,N,12128.0501,W,1,10,0.8,13.8,M,-32.3,M,,*6B
$PYRTM,2024,124.918487607454,16.028135017593
$GPGGA,220236.00,3510.6040,N,12128.0498,W,1,10,0.8,13.8,M,-32.3,M,,*6D
$PYRTM,2024,124.918499179630,16.028146589769
$GPGGA,220237.00,3510.6035,N,12128.0489,W,1,10,0.8,13.7,M,-32.3,M,,*61
$PYRTM,2024,124.918510752789,16.028158162928
$GPGGA,220238.00,3510.6031,N,12128.0482,W,1,10,0.8,13.7,M,-32.3,M,,*61
$PYRTM,2024,124.918522328241,16.028169738380
$GPGGA,220239.00,3510.6029,N,12128.0484,W,1,10,0.8,13.6,M,-32.3,M,,*6E
$PYRTM,2024,124.918529616562,16.028177026701
$GPGGA,220240.00,3510.6030,N,12128.0491,W,1,10,0.8,13.7,M,-32.3,M,,*6D
$PYRTM,2024,124.918545475139,16.028192885278
$GPGGA,220241.00,3510.6029,N,12128.0493,W,1,10,0.8,13.7,M,-32.3,M,,*66
$PYRTM,2024,124.918557043912,16.028204454051
$GPGGA,220242.00,3510.6024,N,12128.0485,W,1,10,0.8,13.7,M,-32.3,M,,*6F
$PYRTM,2024,124.918568623299,16.028216033449
$GPGGA,220243.00,3510.6019,N,12128.0477,W,1,10,0.8,13.6,M,-32.3,M,,*6C
$PYRTM,2024,124.918580197211,16.028227607361
$GPGGA,220244.00,3510.6017,N,12128.0476,W,1,10,0.8,13.5,M,-32.3,M,,*67
$PYRTM,2024,124.918591782581,16.028239192720
$GPGGA,220245.00,3510.6017,N,12128.0481,W,1,10,0.8,13.5,M,-32.3,M,,*6E
$PYRTM,2024,124.918603346817,16.028250756956
$GPGGA,220246.00,3510.6016,N,12128.0483,W,1,10,0.8,13.4,M,-32.3,M,,*6F
$PYRTM,2024,124.918614928495,16.028262338634
$GPGGA,220247.00,3510.6012,N,12128.0479,W,1,10,0.8,13.4,M,-32.3,M,,*6F
$PYRTM,2024,124.918626493264,16.028273903403
$GPGGA,220248.00,3510.6009,N,12128.0473,W,1,10,0.8,13.4,M,-32.3,M,,*60
$PYRTM,2024,124.918638075486,16.028285485625
$GPGGA,220249.00,3510.6008,N,12128.0470,W,1,10,0.8,13.4,M,-32.3,M,,*63
$PYRTM,2024,124.918645346331,16.028292756470
$GPGGA,220250.00,3510.6006,N,12128.0472,W,1,10,0.8,13.4,M,-32.3,M,,*67
$PYRTM,2024,124.918661215648,16.028308625787
$GPGGA,220251.00,3510.6004,N,12128.0473,W,1,10,0.8,13.4,M,-32.3,M,,*65
$PYRTM,2024,124.918668494190,16.028315904329
$GPGGA,220252.00,3510.6000,N,12128.0469,W,1,10,0.8,13.4,M,-32.3,M,,*69
$PYRTM,2024,124.918684365266,16.028331775417
$GPGGA,220253.00,3510.5998,N,12128.0463,W,1,10,0.8,13.4,M,-32.3,M,,*69
$PYRTM,2024,124.918691643067,16.028339053206
$GPGGA,220254.00,3510.5997,N,12128.0460,W,1,10,0.8,13.3,M,-32.3,M,,*65
$PYRTM,2024,124.918710303079,16.028357713218
$GPGGA,220255.00,3510.5996,N,12128.0462,W,1,10,0.8,13.3,M,-32.3,M,,*67
$PYRTM,2024,124.918719082477,16.028366492627
$GPGGA,220256.00,3510.5993,N,12128.0463,W,1,10,0.8,13.3,M,-32.3,M,,*60
$PYRTM,2024,124.918730672755,16.028378082894
$GPGGA,220257.00,3510.5990,N,12128.0461,W,1,10,0.8,13.3,M,-32.3,M,,*60
$PYRTM,2024,124.918742235162,16.028389645301
$GPGGA,220258.00,3510.5988,N,12128.0456,W,1,10,0.8,13.3,M,-32.3,M,,*62
$PYRTM,2024,124.918753819711,16.028401229850
$GPGGA,220259.00,3510.5986,N,12128.0451,W,1,10,0.8,13.3,M,-32.3,M,,*6A
$PYRTM,2024,124.918765382315,16.028412792454
$GPGGA,220300.00,3510.5985,N,12128.0451,W,1,10,0.8,13.2,M,-32.3,M,,*65
$PYRTM,2024,124.918776965683,16.028424375822
$GPGGA,220301.00,3510.5983,N,12128.0454,W,1,10,0.8,13.2,M,-32.3,M,,*67
$PYRTM,2024,124.918784236933,16.028431647072
$GPGGA,220302.00,3510.5981,N,12128.0455,W,1,10,0.8,13.2,M,-32.3,M,,*67
$PYRTM,2024,124.918800105266,16.028447515405
$GPGGA,220303.00,3510.5978,N,12128.0450,W,1,10,0.8,13.2,M,-32.3,M,,*65
$PYRTM,2024,124.918811679433,16.028459089572
$GPGGA,220304.00,3510.5975,N,12128.0442,W,1,10,0.8,13.4,M,-32.3,M,,*6A
$PYRTM,2024,124.918818960752,16.028466370891
$GPGGA,220305.00,3510.5973,N,12128.0439,W,1,10,0.8,13.5,M,-32.3,M,,*60
$PYRTM,2024,124.918834823241,16.028482233380
$GPGGA,220306.00,3510.5972,N,12128.0442,W,1,10,0.8,13.4,M,-32.3,M,,*6F
$PYRTM,2024,124.918846401516,16.028493811655
$GPGGA,220307.00,3510.5970,N,12128.0444,W,1,10,0.8,13.4,M,-32.3,M,,*6A
$PYRTM,2024,124.918857976956,16.028505387095
$GPGGA,220308.00,3510.5968,N,12128.0441,W,1,10,0.8,13.4,M,-32.3,M,,*69
$PYRTM,2024,124.918869550174,16.028516960313
$GPGGA,220309.00,3510.5964,N,12128.0433,W,1,10,0.8,13.6,M,-32.3,M,,*63
$PYRTM,2024,124.918881120949,16.028528531100
$GPGGA,220310.00,3510.5963,N,12128.0427,W,1,10,0.8,13.8,M,-32.3,M,,*67
$PYRTM,2024,124.918892706829,16.028540116968
$GPGGA,220311.00,3510.5962,N,12128.0429,W,1,10,0.8,13.7,M,-32.3,M,,*66
$PYRTM,2024,124.918904272581,16.028551682720
$GPGGA,220312.00,3510.5961,N,12128.0434,W,1,10,0.8,13.7,M,-32.3,M,,*6A
$PYRTM,2024,124.918915847326,16.028563257465
$GPGGA,220313.00,3510.5959,N,12128.0432,W,1,10,0.8,13.6,M,-32.3,M,,*67
$PYRTM,2024,124.918927420903,16.028574831042
$GPGGA,220314.00,3510.5955,N,12128.0424,W,1,10,0.8,13.7,M,-32.3,M,,*6A
$PYRTM,2024,124.918939007211,16.028586417350
$GPGGA,220315.00,3510.5952,N,12128.0417,W,1,10,0.8,13.8,M,-32.3,M,,*63
$PYRTM,2024,124.918950567315,16.028597977454
$GPGGA,220316.00,3510.5952,N,12128.0418,W,1,10,0.8,13.8,M,-32.3,M,,*6F
$PYRTM,2024,124.918957849016,16.028605259155
$GPGGA,220317.00,3510.5951,N,12128.0421,W,1,10,0.8,13.7,M,-32.3,M,,*68
$PYRTM,2024,124.918973717535,16.028621127674
$GPGGA,220318.00,3510.5949,N,12128.0421,W,1,10,0.8,13.7,M,-32.3,M,,*6E
$PYRTM,2024,124.918985304109,16.028632714259
$GPGGA,220319.00,3510.5946,N,12128.0415,W,1,10,0.8,13.7,M,-32.3,M,,*67
$PYRTM,2024,124.918996867060,16.028644277199
$GPGGA,220320.00,3510.5943,N,12128.0408,W,1,10,0.8,13.6,M,-32.3,M,,*65
$PYRTM,2024,124.919008447639,16.028655857778
$GPGGA,220321.00,3510.5942,N,12128.0407,W,1,10,0.8,13.6,M,-32.3,M,,*6A
$PYRTM,2024,124.919020014074,16.028667424225
$GPGGA,220322.00,3510.5940,N,12128.0408,W,1,10,0.8,13.6,M,-32.3,M,,*64
$PYRTM,2024,124.919031588079,16.028678998229
$GPGGA,220323.00,3510.5940,N,12128.0409,W,1,10,0.8,13.5,M,-32.3,M,,*67
$PYRTM,2024,124.919043158935,16.028690569074
$GPGGA,220324.00,3510.5939,N,12128.0405,W,1,10,0.8,13.5,M,-32.3,M,,*62
$PYRTM,2024,124.919050442731,16.028697852870
$GPGGA,220325.00,3510.5936,N,12128.0400,W,1,10,0.8,13.5,M,-32.3,M,,*69
$PYRTM,2024,124.919069088854,16.028716498993
$GPGGA,220326.00,3510.5933,N,12128.0395,W,1,10,0.8,13.4,M,-32.3,M,,*65
$PYRTM,2024,124.919077884942,16.028725295081
$GPGGA,220327.00,3510.5931,N,12128.0394,W,1,10,0.8,13.4,M,-32.3,M,,*67
$PYRTM,2024,124.919085164711,16.028732574850
$GPGGA,220328.00,3510.5932,N,12128.0397,W,1,10,0.8,13.4,M,-32.3,M,,*68
$PYRTM,2024,124.919101041331,16.028748451470
$GPGGA,220329.00,3510.5932,N,12128.0397,W,1,10,0.8,13.3,M,-32.3,M,,*6E
$PYRTM,2024,124.919112609062,16.028760019201
$GPGGA,220330.00,3510.5929,N,12128.0392,W,1,10,0.8,13.4,M,-32.3,M,,*6E
$PYRTM,2024,124.919124206563,16.028771616701
$GPGGA,220331.00,3510.5924,N,12128.0384,W,1,10,0.8,13.3,M,-32.3,M,,*62
$PYRTM,2024,124.919135757025,16.028783167164
$GPGGA,220332.00,3510.5922,N,12128.0381,W,1,10,0.8,13.2,M,-32.3,M,,*63
$PYRTM,2024,124.919147340567,16.028794750706
$GPGGA,220333.00,3510.5922,N,12128.0384,W,1,10,0.8,13.2,M,-32.3,M,,*67
$PYRTM,2024,124.919158900729,16.028806310868
$GPGGA,220334.00,3510.5923,N,12128.0387,W,1,10,0.8,13.2,M,-32.3,M,,*62
$PYRTM,2024,124.919170495822,16.028817905961
$GPGGA,220335.00,3510.5922,N,12128.0383,W,1,10,0.8,13.2,M,-32.3,M,,*66
$PYRTM,2024,124.919182052639,16.028829462778
$GPGGA,220336.00,3510.5918,N,12128.0376,W,1,10,0.8,13.0,M,-32.3,M,,*64
$PYRTM,2024,124.919193627512,16.028841037650
$GPGGA,220337.00,3510.5914,N,12128.0371,W,1,10,0.8,12.8,M,-32.3,M,,*67
$PYRTM,2024,124.919205201539,16.028852611678
$GPGGA,220338.00,3510.5913,N,12128.0372,W,1,10,0.8,12.8,M,-32.3,M,,*6C
$PYRTM,2024,124.919216800868,16.028864211007
$GPGGA,220339.00,3510.5914,N,12128.0374,W,1,10,0.8,12.8,M,-32.3,M,,*6C
$PYRTM,2024,124.919228349803,16.028875759942
$GPGGA,220340.00,3510.5913,N,12128.0372,W,1,10,0.8,12.7,M,-32.3,M,,*6C
$PYRTM,2024,124.919239949063,16.028887359201
$GPGGA,220341.00,3510.5910,N,12128.0366,W,1,10,0.8,12.7,M,-32.3,M,,*6B
$PYRTM,2024,124.919251497095,16.028898907234
$GPGGA,220342.00,3510.5907,N,12128.0361,W,1,10,0.8,12.8,M,-32.3,M,,*66
$PYRTM,2024,124.919263070810,16.028910480949
$GPGGA,220343.00,3510.5906,N,12128.0361,W,1,10,0.8,12.7,M,-32.3,M,,*69
$PYRTM,2024,124.919274644965,16.028922055104
$GPGGA,220344.00,3510.5905,N,12128.0363,W,1,10,0.8,12.7,M,-32.3,M,,*6F
$PYRTM,2024,124.919286218935,16.028933629074
$GPGGA,220345.00,3510.5903,N,12128.0361,W,1,10,0.8,12.7,M,-32.3,M,,*6A
$PYRTM,2024,124.919297794028,16.028945204167
$GPGGA,220346.00,3510.5900,N,12128.0355,W,1,10,0.8,12.7,M,-32.3,M,,*6D
$PYRTM,2024,124.919309367662,16.028956777801
$GPGGA,220347.00,3510.5898,N,12128.0350,W,1,10,0.8,12.7,M,-32.3,M,,*69
$PYRTM,2024,124.919320942454,16.028968352593
$GPGGA,220348.00,3510.5897,N,12128.0350,W,1,10,0.8,12.7,M,-32.3,M,,*69
$PYRTM,2024,124.919332527465,16.028979937604
$GPGGA,220349.00,3510.5896,N,12128.0351,W,1,10,0.8,12.6,M,-32.3,M,,*69
$PYRTM,2024,124.919339794086,16.028987204225
$GPGGA,220350.00,3510.5894,N,12128.0350,W,1,10,0.8,12.6,M,-32.3,M,,*62
$PYRTM,2024,124.919355675833,16.029003085972
$GPGGA,220351.00,3510.5892,N,12128.0346,W,1,10,0.8,12.6,M,-32.3,M,,*62
$PYRTM,2024,124.919367238912,16.029014649051
$GPGGA,220352.00,3510.5889,N,12128.0342,W,1,10,0.8,12.6,M,-32.3,M,,*6F
$PYRTM,2024,124.919378812581,16.029026222720
$GPGGA,220353.00,3510.5888,N,12128.0340,W,1,10,0.8,12.6,M,-32.3,M,,*6D
$PYRTM,2024,124.919390386146,16.029037796285
$GPGGA,220354.00,3510.5887,N,12128.0340,W,1,10,0.8,12.6,M,-32.3,M,,*65
$PYRTM,2024,124.919397666481,16.029045076620
$GPGGA,220355.00,3510.5885,N,12128.0341,W,1,10,0.8,12.6,M,-32.3,M,,*67
$PYRTM,2024,124.919409471493,16.029056881632
$GPGGA,220356.00,3510.5882,N,12128.0338,W,1,10,0.8,12.6,M,-32.3,M,,*6D
$PYRTM,2024,124.919427897616,16.029075307755
$GPGGA,220357.00,3510.5880,N,12128.0332,W,1,10,0.8,12.6,M,-32.3,M,,*64
$PYRTM,2024,124.919436683519,16.029084093657
$GPGGA,220358.00,3510.5878,N,12128.0327,W,1,10,0.8,12.5,M,-32.3,M,,*6B
$PYRTM,2024,124.919448268542,16.029095678681
$GPGGA,220359.00,3510.5876,N,12128.0328,W,1,10,0.8,12.5,M,-32.3,M,,*6B
$PYRTM,2024,124.919459831597,16.029107241725
$GPGGA,220400.00,3510.5875,N,12128.0331,W,1,10,0.8,12.4,M,-32.3,M,,*6A
$PYRTM,2024,124.919471431181,16.029118841319
$GPGGA,220401.00,3510.5873,N,12128.0330,W,1,10,0.8,12.4,M,-32.3,M,,*6C
$PYRTM,2024,124.919482979456,16.029130389595
$GPGGA,220402.00,3510.5870,N,12128.0322,W,1,10,0.8,12.4,M,-32.3,M,,*6F
$PYRTM,2024,124.919494554606,16.029141964745
$GPGGA,220403.00,3510.5867,N,12128.0315,W,1,10,0.8,12.5,M,-32.3,M,,*6D
$PYRTM,2024,124.919506129954,16.029153540104
$GPGGA,220404.00,3510.5865,N,12128.0314,W,1,10,0.8,12.5,M,-32.3,M,,*69
$PYRTM,2024,124.919513407002,16.029160817141
$GPGGA,220405.00,3510.5864,N,12128.0318,W,1,10,0.8,12.4,M,-32.3,M,,*64
$PYRTM,2024,124.919529276493,16.029176686632
$GPGGA,220406.00,3510.5863,N,12128.0319,W,1,10,0.8,12.4,M,-32.3,M,,*61
$PYRTM,2024,124.919536558252,16.029183968391
$GPGGA,220407.00,3510.5860,N,12128.0315,W,1,10,0.8,12.3,M,-32.3,M,,*68
$PYRTM,2024,124.919552425799,16.029199835938
$GPGGA,220408.00,3510.5857,N,12128.0309,W,1,10,0.8,12.3,M,-32.3,M,,*6E
$PYRTM,2024,124.919564006424,16.029211416563
$GPGGA,220409.00,3510.5855,N,12128.0306,W,1,10,0.8,12.3,M,-32.3,M,,*62
$PYRTM,2024,124.919575574028,16.029222984167
$GPGGA,220410.00,3510.5854,N,12128.0309,W,1,10,0.8,12.2,M,-32.3,M,,*65
$PYRTM,2024,124.919587155243,16.029234565382
$GPGGA,220411.00,3510.5852,N,12128.0311,W,1,10,0.8,12.2,M,-32.3,M,,*6B
$PYRTM,2024,124.919598721424,16.029246131563
$GPGGA,220412.00,3510.5850,N,12128.0308,W,1,10,0.8,12.1,M,-32.3,M,,*61
$PYRTM,2024,124.919610294873,16.029257705012
$GPGGA,220413.00,3510.5848,N,12128.0303,W,1,10,0.8,12.1,M,-32.3,M,,*62
$PYRTM,2024,124.919621870475,16.029269280613
$GPGGA,220414.00,3510.5846,N,12128.0299,W,1,10,0.8,12.1,M,-32.3,M,,*69
$PYRTM,2024,124.919633455382,16.029280865521
$GPGGA,220415.00,3510.5845,N,12128.0300,W,1,10,0.8,12.1,M,-32.3,M,,*6A
$PYRTM,2024,124.919645019051,16.029292429190
$GPGGA,220416.00,3510.5844,N,12128.0302,W,1,10,0.8,12.0,M,-32.3,M,,*6B
$PYRTM,2024,124.919652297014,16.029299707153
$GPGGA,220417.00,3510.5842,N,12128.0300,W,1,10,0.8,12.0,M,-32.3,M,,*6E
$PYRTM,2024,124.919668166667,16.029315576817
$GPGGA,220418.00,3510.5839,N,12128.0294,W,1,10,0.8,12.0,M,-32.3,M,,*61
$PYRTM,2024,124.919679741331,16.029327151470
$GPGGA,220419.00,3510.5836,N,12128.0289,W,1,10,0.8,11.9,M,-32.3,M,,*69
$PYRTM,2024,124.919687018843,16.029334428981
$GPGGA,220420.00,3510.5835,N,12128.0288,W,1,10,0.8,11.9,M,-32.3,M,,*61
$PYRTM,2024,124.919702900116,16.029350310255
$GPGGA,220421.00,3510.5834,N,12128.0290,W,1,10,0.8,11.9,M,-32.3,M,,*68
$PYRTM,2024,124.919714463542,16.029361873681
$GPGGA,220422.00,3510.5832,N,12128.0292,W,1,10,0.8,11.9,M,-32.3,M,,*6F
$PYRTM,2024,124.919721757176,16.029369167315
$GPGGA,220423.00,3510.5830,N,12128.0288,W,1,10,0.8,11.9,M,-32.3,M,,*67
$PYRTM,2024,124.919737611852,16.029385021991
$GPGGA,220424.00,3510.5828,N,12128.0282,W,1,10,0.8,12.0,M,-32.3,M,,*69
$PYRTM,2024,124.919744890104,16.029392300243
$GPGGA,220425.00,3510.5826,N,12128.0278,W,1,10,0.8,12.2,M,-32.3,M,,*61
$PYRTM,2024,124.919760761539,16.029408171690
$GPGGA,220426.00,3510.5824,N,12128.0279,W,1,10,0.8,12.2,M,-32.3,M,,*61
$PYRTM,2024,124.919768039734,16.029415449873
$GPGGA,220427.00,3510.5823,N,12128.0282,W,1,10,0.8,12.1,M,-32.3,M,,*60
$PYRTM,2024,124.919786686505,16.029434096644
$GPGGA,220428.00,3510.5822,N,12128.0280,W,1,10,0.8,12.1,M,-32.3,M,,*6C
$PYRTM,2024,124.919795481817,16.029442891956
$GPGGA,220429.00,3510.5821,N,12128.0275,W,1,10,0.8,12.1,M,-32.3,M,,*64
$PYRTM,2024,124.919807056782,16.029454466921
$GPGGA,220430.00,3510.5818,N,12128.0269,W,1,10,0.8,12.1,M,-32.3,M,,*6B
$PYRTM,2024,124.919814336458,16.029461746597
$GPGGA,220431.00,3510.5815,N,12128.0267,W,1,10,0.8,12.0,M,-32.3,M,,*68
$PYRTM,2024,124.919830205139,16.029477615278
$GPGGA,220432.00,3510.5815,N,12128.0269,W,1,10,0.8,12.0,M,-32.3,M,,*65
$PYRTM,2024,124.919841789363,16.029489199502
$GPGGA,220433.00,3510.5816,N,12128.0271,W,1,10,0.8,12.0,M,-32.3,M,,*6E
$PYRTM,2024,124.919853353264,16.029500763414
$GPGGA,220434.00,3510.5816,N,12128.0268,W,1,10,0.8,12.0,M,-32.3,M,,*61
$PYRTM,2024,124.919864942049,16.029512352187
$GPGGA,220435.00,3510.5811,N,12128.0261,W,1,10,0.8,12.0,M,-32.3,M,,*6E
$PYRTM,2024,124.919876502731,16.029523912870
$GPGGA,220436.00,3510.5807,N,12128.0255,W,1,10,0.8,12.0,M,-32.3,M,,*6D
$PYRTM,2024,124.919888101574,16.029535511713
$GPGGA,220437.00,3510.5806,N,12128.0256,W,1,10,0.8,12.0,M,-32.3,M,,*6E
$PYRTM,2024,124.919899649468,16.029547059606
$GPGGA,220438.00,3510.5808,N,12128.0260,W,1,10,0.8,12.0,M,-32.3,M,,*6A
$PYRTM,2024,124.919911246019,16.029558656157
$GPGGA,220439.00,3510.5810,N,12128.0262,W,1,10,0.8,12.0,M,-32.3,M,,*60
$PYRTM,2024,124.919922797975,16.029570208102
$GPGGA,220440.00,3510.5807,N,12128.0257,W,1,10,0.8,11.9,M,-32.3,M,,*64
$PYRTM,2024,124.919934383831,16.029581793970
$GPGGA,220441.00,3510.5802,N,12128.0251,W,1,10,0.8,11.8,M,-32.3,M,,*67
$PYRTM,2024,124.919945945949,16.029593356076
$GPGGA,220442.00,3510.5798,N,12128.0247,W,1,10,0.8,11.5,M,-32.3,M,,*62
$PYRTM,2024,124.919953226377,16.029600636516
$GPGGA,220443.00,3510.5799,N,12128.0248,W,1,10,0.8,11.5,M,-32.3,M,,*6D
$PYRTM,2024,124.919965043090,16.029612453229
$GPGGA,220444.00,3510.5802,N,12128.0251,W,1,10,0.8,11.5,M,-32.3,M,,*6F
$PYRTM,2024,124.919980668796,16.029628078947
$GPGGA,220445.00,3510.5803,N,12128.0251,W,1,10,0.8,11.5,M,-32.3,M,,*6F
$PYRTM,2024,124.919992238762,16.029639648900
$GPGGA,220446.00,3510.5800,N,12128.0247,W,1,10,0.8,11.5,M,-32.3,M,,*68
$PYRTM,2024,124.920003829120,16.029651239259
$GPGGA,220447.00,3510.5796,N,12128.0242,W,1,10,0.8,11.4,M,-32.3,M,,*6D
$PYRTM,2024,124.920015392627,16.029662802766
$GPGGA,220448.00,3510.5794,N,12128.0237,W,1,10,0.8,11.2,M,-32.3,M,,*64
$PYRTM,2024,124.920026964965,16.029674375104
$GPGGA,220449.00,3510.5794,N,12128.0236,W,1,10,0.8,11.3,M,-32.3,M,,*65
$PYRTM,2024,124.920038539421,16.029685949560
$GPGGA,220450.00,3510.5795,N,12128.0238,W,1,10,0.8,11.3,M,-32.3,M,,*62
$PYRTM,2024,124.920050138750,16.029697548889
$GPGGA,220451.00,3510.5794,N,12128.0238,W,1,10,0.8,11.3,M,-32.3,M,,*62
$PYRTM,2024,124.920061688877,16.029709099016
$GPGGA,220452.00,3510.5792,N,12128.0234,W,1,10,0.8,11.3,M,-32.3,M,,*6B
$PYRTM,2024,124.920073269780,16.029720679919
$GPGGA,220453.00,3510.5791,N,12128.0230,W,1,10,0.8,11.2,M,-32.3,M,,*6C
$PYRTM,2024,124.920084837315,16.029732247454
$GPGGA,220454.00,3510.5789,N,12128.0229,W,1,10,0.8,11.2,M,-32.3,M,,*6A
$PYRTM,2024,124.920096420602,16.029743830741
$GPGGA,220455.00,3510.5788,N,12128.0229,W,1,10,0.8,11.2,M,-32.3,M,,*6A
$PYRTM,2024,124.920107985359,16.029755395498
$GPGGA,220456.00,3510.5787,N,12128.0227,W,1,10,0.8,11.2,M,-32.3,M,,*68
$PYRTM,2024,124.920119569271,16.029766979410
$GPGGA,220457.00,3510.5787,N,12128.0225,W,1,10,0.8,11.2,M,-32.3,M,,*6B
$PYRTM,2024,124.920126837836,16.029774247975
$GPGGA,220458.00,3510.5787,N,12128.0223,W,1,10,0.8,11.2,M,-32.3,M,,*62
$PYRTM,2024,124.920145485556,16.029792895694
$GPGGA,220459.00,3510.5786,N,12128.0221,W,1,10,0.8,11.2,M,-32.3,M,,*60
$PYRTM,2024,124.920154280567,16.029801690706
$GPGGA,220500.00,3510.5785,N,12128.0220,W,1,10,0.8,11.3,M,-32.3,M,,*6E
$PYRTM,2024,124.920165854421,16.029813264560
$GPGGA,220501.00,3510.5784,N,12128.0217,W,1,10,0.8,11.3,M,-32.3,M,,*6A
$PYRTM,2024,124.920177429398,16.029824839537
$GPGGA,220502.00,3510.5782,N,12128.0214,W,1,10,0.8,11.3,M,-32.3,M,,*6C
$PYRTM,2024,124.920184724699,16.029832134838
$GPGGA,220503.00,3510.5782,N,12128.0211,W,1,10,0.8,11.3,M,-32.3,M,,*68
$PYRTM,2024,124.920200578727,16.029847988877
$GPGGA,220504.00,3510.5782,N,12128.0209,W,1,10,0.8,11.3,M,-32.3,M,,*66
$PYRTM,2024,124.920212159861,16.029859570000
$GPGGA,220505.00,3510.5781,N,12128.0208,W,1,10,0.8,11.3,M,-32.3,M,,*65
$PYRTM,2024,124.920219431470,16.029866841609
$GPGGA,220506.00,3510.5780,N,12128.0207,W,1,10,0.8,11.3,M,-32.3,M,,*68
$PYRTM,2024,124.920235301169,16.029882711308
$GPGGA,220507.00,3510.5778,N,12128.0203,W,1,10,0.8,11.3,M,-32.3,M,,*6A
$PYRTM,2024,124.920246874213,16.029894284352
$GPGGA,220508.00,3510.5777,N,12128.0200,W,1,10,0.8,11.3,M,-32.3,M,,*69
$PYRTM,2024,124.920258461319,16.029905871458
$GPGGA,220509.00,3510.5778,N,12128.0199,W,1,10,0.8,11.3,M,-32.3,M,,*64
$PYRTM,2024,124.920270024375,16.029917434514
$GPGGA,220510.00,3510.5778,N,12128.0200,W,1,10,0.8,11.3,M,-32.3,M,,*6F
$PYRTM,2024,124.920281607037,16.029929017176
$GPGGA,220511.00,3510.5776,N,12128.0199,W,1,10,0.8,11.3,M,-32.3,M,,*63
$PYRTM,2024,124.920293171887,16.029940582025
$GPGGA,220512.00,3510.5773,N,12128.0193,W,1,10,0.8,11.3,M,-32.3,M,,*6F
$PYRTM,2024,124.920304744225,16.029952154363
$GPGGA,220513.00,3510.5771,N,12128.0186,W,1,10,0.8,11.3,M,-32.3,M,,*68
$PYRTM,2024,124.920316321215,16.029963731354
$GPGGA,220514.00,3510.5772,N,12128.0185,W,1,10,0.8,11.3,M,-32.3,M,,*6F
$PYRTM,2024,124.920327901516,16.029975311667
$GPGGA,220515.00,3510.5774,N,12128.0188,W,1,10,0.8,11.3,M,-32.3,M,,*65
$PYRTM,2024,124.920339468183,16.029986878322
$GPGGA,220516.00,3510.5774,N,12128.0188,W,1,10,0.8,11.2,M,-32.3,M,,*67
$PYRTM,2024,124.920351052882,16.029998463021
$GPGGA,220517.00,3510.5771,N,12128.0183,W,1,10,0.8,11.1,M,-32.3,M,,*6B
$PYRTM,2024,124.920362611447,16.030010021586
$GPGGA,220518.00,3510.5767,N,12128.0175,W,1,10,0.8,11.2,M,-32.3,M,,*69
$PYRTM,2024,124.920374189792,16.030021599931
$GPGGA,220519.00,3510.5765,N,12128.0171,W,1,10,0.8,11.3,M,-32.3,M,,*6F
$PYRTM,2024,124.920385764687,16.030033174826
$GPGGA,220520.00,3510.5767,N,12128.0173,W,1,10,0.8,11.3,M,-32.3,M,,*65
$PYRTM,2024,124.920393044618,16.030040454757
$GPGGA,220521.00,3510.5770,N,12128.0177,W,1,10,0.8,11.3,M,-32.3,M,,*66
$PYRTM,2024,124.920408914039,16.030056324178
$GPGGA,220522.00,3510.5769,N,12128.0174,W,1,10,0.8,11.3,M,-32.3,M,,*6E
$PYRTM,2024,124.920420493866,16.030067904005
$GPGGA,220523.00,3510.5766,N,12128.0167,W,1,10,0.8,11.3,M,-32.3,M,,*62
$PYRTM,2024,124.920432061111,16.030079471250
$GPGGA,220524.00,3510.5763,N,12128.0161,W,1,10,0.8,11.3,M,-32.3,M,,*66
$PYRTM,2024,124.920443643241,16.030091053380
$GPGGA,220525.00,3510.5762,N,12128.0161,W,1,10,0.8,11.3,M,-32.3,M,,*66
$PYRTM,2024,124.920450914769,16.030098324907
$GPGGA,220526.00,3510.5765,N,12128.0164,W,1,10,0.8,11.2,M,-32.3,M,,*66
$PYRTM,2024,124.920466783056,16.030114193194
$GPGGA,220527.00,3510.5767,N,12128.0164,W,1,10,0.8,11.2,M,-32.3,M,,*65
$PYRTM,2024,124.920478357269,16.030125767407
$GPGGA,220528.00,3510.5765,N,12128.0158,W,1,10,0.8,11.2,M,-32.3,M,,*67
$PYRTM,2024,124.920485638333,16.030133048472
$GPGGA,220529.00,3510.5762,N,12128.0152,W,1,10,0.8,11.2,M,-32.3,M,,*6B
$PYRTM,2024,124.920504283935,16.030151694074
$GPGGA,220530.00,3510.5761,N,12128.0151,W,1,10,0.8,11.2,M,-32.3,M,,*63
$PYRTM,2024,124.920513092859,16.030160503009
$GPGGA,220531.00,3510.5761,N,12128.0153,W,1,10,0.8,11.2,M,-32.3,M,,*60
$PYRTM,2024,124.920524654039,16.030172064178
$GPGGA,220532.00,3510.5762,N,12128.0152,W,1,10,0.8,11.2,M,-32.3,M,,*61
$PYRTM,2024,124.920536252523,16.030183662662
$GPGGA,220533.00,3510.5760,N,12128.0146,W,1,10,0.8,11.2,M,-32.3,M,,*67
$PYRTM,2024,124.920547801840,16.030195211979
$GPGGA,220534.00,3510.5758,N,12128.0140,W,1,10,0.8,11.2,M,-32.3,M,,*6D
$PYRTM,2024,124.920559387569,16.030206797708
$GPGGA,220535.00,3510.5756,N,12128.0137,W,1,10,0.8,11.2,M,-32.3,M,,*62
$PYRTM,2024,124.920570949954,16.030218360093
$GPGGA,220536.00,3510.5758,N,12128.0139,W,1,10,0.8,11.2,M,-32.3,M,,*61
$PYRTM,2024,124.920582537546,16.030229947685
$GPGGA,220537.00,3510.5759,N,12128.0140,W,1,10,0.8,11.2,M,-32.3,M,,*6F
$PYRTM,2024,124.920589803345,16.030237213484
$GPGGA,220538.00,3510.5758,N,12128.0135,W,1,10,0.8,11.3,M,-32.3,M,,*62
$PYRTM,2024,124.920605672894,16.030253083032
$GPGGA,220539.00,3510.5755,N,12128.0129,W,1,10,0.8,11.3,M,-32.3,M,,*63
$PYRTM,2024,124.920617246389,16.030264656528
$GPGGA,220540.00,3510.5755,N,12128.0126,W,1,10,0.8,11.3,M,-32.3,M,,*62
$PYRTM,2024,124.920628820868,16.030276231007
$GPGGA,220541.00,3510.5757,N,12128.0126,W,1,10,0.8,11.3,M,-32.3,M,,*61
$PYRTM,2024,124.920640397384,16.030287807523
$GPGGA,220542.00,3510.5760,N,12128.0127,W,1,10,0.8,11.3,M,-32.3,M,,*67
$PYRTM,2024,124.920651977060,16.030299387199
$GPGGA,220543.00,3510.5759,N,12128.0125,W,1,10,0.8,11.3,M,-32.3,M,,*6E
$PYRTM,2024,124.920663543889,16.030310954028
$GPGGA,220544.00,3510.5756,N,12128.0118,W,1,10,0.8,11.3,M,-32.3,M,,*68
$PYRTM,2024,124.920675117407,16.030322527546
$GPGGA,220545.00,3510.5754,N,12128.0113,W,1,10,0.8,11.4,M,-32.3,M,,*67
$PYRTM,2024,124.920686691389,16.030334101528
$GPGGA,220546.00,3510.5755,N,12128.0114,W,1,10,0.8,11.4,M,-32.3,M,,*62
$PYRTM,2024,124.920698266262,16.030345676412
$GPGGA,220547.00,3510.5758,N,12128.0116,W,1,10,0.8,11.5,M,-32.3,M,,*6D
$PYRTM,2024,124.920709841481,16.030357251620
$GPGGA,220548.00,3510.5759,N,12128.0115,W,1,10,0.8,11.5,M,-32.3,M,,*60
$PYRTM,2024,124.920721414664,16.030368824803
$GPGGA,220549.00,3510.5755,N,12128.0108,W,1,10,0.8,11.5,M,-32.3,M,,*61
$PYRTM,2024,124.920732989387,16.030380399525
$GPGGA,220550.00,3510.5751,N,12128.0100,W,1,10,0.8,11.7,M,-32.3,M,,*67
$PYRTM,2024,124.920740282882,16.030387693021
$GPGGA,220551.00,3510.5751,N,12128.0098,W,1,10,0.8,11.9,M,-32.3,M,,*68
$PYRTM,2024,124.920756132315,16.030403542454
$GPGGA,220552.00,3510.5755,N,12128.0104,W,1,10,0.8,11.9,M,-32.3,M,,*6B
$PYRTM,2024,124.920767736632,16.030415146771
$GPGGA,220553.00,3510.5758,N,12128.0106,W,1,10,0.8,11.9,M,-32.3,M,,*65
$PYRTM,2024,124.920779287477,16.030426697616
$GPGGA,220554.00,3510.5757,N,12128.0101,W,1,10,0.8,11.9,M,-32.3,M,,*6A
$PYRTM,2024,124.920790859062,16.030438269201
$GPGGA,220555.00,3510.5753,N,12128.0093,W,1,10,0.8,12.0,M,-32.3,M,,*6F
$PYRTM,2024,124.920802433206,16.030449843356
$GPGGA,220556.00,3510.5750,N,12128.0089,W,1,10,0.8,12.0,M,-32.3,M,,*64
$PYRTM,2024,124.920814007002,16.030461417141
$GPGGA,220557.00,3510.5753,N,12128.0091,W,1,10,0.8,12.0,M,-32.3,M,,*6F
$PYRTM,2024,124.920825582396,16.030472992535
$GPGGA,220558.00,3510.5757,N,12128.0093,W,1,10,0.8,12.0,M,-32.3,M,,*66
$PYRTM,2024,124.920837166366,16.030484576493
$GPGGA,220559.00,3510.5758,N,12128.0092,W,1,10,0.8,12.0,M,-32.3,M,,*69
$PYRTM,2024,124.920844437199,16.030491847350
$GPGGA,220600.00,3510.5754,N,12128.0087,W,1,10,0.8,12.0,M,-32.3,M,,*6E
$PYRTM,2024,124.920863081829,16.030510491968
$GPGGA,220601.00,3510.5750,N,12128.0081,W,1,10,0.8,12.0,M,-32.3,M,,*6D
$PYRTM,2024,124.920871879132,16.030519289271
$GPGGA,220602.00,3510.5748,N,12128.0079,W,1,10,0.8,12.0,M,-32.3,M,,*60
$PYRTM,2024,124.920883460347,16.030530870486
$GPGGA,220603.00,3510.5750,N,12128.0079,W,1,10,0.8,12.0,M,-32.3,M,,*68
$PYRTM,2024,124.920895027940,16.030542438079
$GPGGA,220604.00,3510.5752,N,12128.0080,W,1,10,0.8,12.0,M,-32.3,M,,*6B
$PYRTM,2024,124.920906625972,16.030554036111
$GPGGA,220605.00,3510.5752,N,12128.0080,W,1,10,0.8,12.0,M,-32.3,M,,*6A
$PYRTM,2024,124.920918170347,16.030565580486
$GPGGA,220606.00,3510.5749,N,12128.0075,W,1,10,0.8,12.0,M,-32.3,M,,*69
$PYRTM,2024,124.920929760093,16.030577170231
$GPGGA,220607.00,3510.5746,N,12128.0069,W,1,10,0.8,12.0,M,-32.3,M,,*6A
$PYRTM,2024,124.920941318299,16.030588728449
$GPGGA,220608.00,3510.5746,N,12128.0067,W,1,10,0.8,12.0,M,-32.3,M,,*6B
$PYRTM,2024,124.920952897685,16.030600307824
$GPGGA,220609.00,3510.5749,N,12128.0069,W,1,10,0.8,12.1,M,-32.3,M,,*6A
$PYRTM,2024,124.920964471447,16.030611881586
$GPGGA,220610.00,3510.5751,N,12128.0070,W,1,10,0.8,12.1,M,-32.3,M,,*63
$PYRTM,2024,124.920976045463,16.030623455602
$GPGGA,220611.00,3510.5748,N,12128.0066,W,1,10,0.8,12.2,M,-32.3,M,,*6E
$PYRTM,2024,124.920987619722,16.030635029861
$GPGGA,220612.00,3510.5746,N,12128.0061,W,1,10,0.8,12.2,M,-32.3,M,,*64
$PYRTM,2024,124.920994899479,16.030642309618
$GPGGA,220613.00,3510.5745,N,12128.0056,W,1,10,0.8,12.2,M,-32.3,M,,*62
$PYRTM,2024,124.921010653183,16.030658063322
$GPGGA,220614.00,3510.5745,N,12128.0055,W,1,10,0.8,12.3,M,-32.3,M,,*67
$PYRTM,2024,124.921022354479,16.030669764618
$GPGGA,220615.00,3510.5745,N,12128.0056,W,1,10,0.8,12.3,M,-32.3,M,,*65
$PYRTM,2024,124.921029623576,16.030677033715
$GPGGA,220616.00,3510.5745,N,12128.0054,W,1,10,0.8,12.3,M,-32.3,M,,*64
$PYRTM,2024,124.921045363206,16.030692773345
$GPGGA,220617.00,3510.5743,N,12128.0050,W,1,10,0.8,12.3,M,-32.3,M,,*67
$PYRTM,2024,124.921056944687,16.030704354838
$GPGGA,220618.00,3510.5742,N,12128.0046,W,1,10,0.8,12.4,M,-32.3,M,,*69
$PYRTM,2024,124.921068509560,16.030715919699
$GPGGA,220619.00,3510.5741,N,12128.0044,W,1,10,0.8,12.4,M,-32.3,M,,*69
$PYRTM,2024,124.921080214745,16.030727624884
$GPGGA,220620.00,3510.5741,N,12128.0045,W,1,10,0.8,12.4,M,-32.3,M,,*62
$PYRTM,2024,124.921091661748,16.030739071887
$GPGGA,220621.00,3510.5740,N,12128.0044,W,1,10,0.8,12.4,M,-32.3,M,,*63
$PYRTM,2024,124.921103242454,16.030750652593
$GPGGA,220622.00,3510.5739,N,12128.0040,W,1,10,0.8,12.4,M,-32.3,M,,*6A
$PYRTM,2024,124.921110640856,16.030758050995
$GPGGA,220623.00,3510.5737,N,12128.0036,W,1,10,0.8,12.4,M,-32.3,M,,*64
$PYRTM,2024,124.921126407650,16.030773817789
$GPGGA,220624.00,3510.5736,N,12128.0034,W,1,10,0.8,12.4,M,-32.3,M,,*60
$PYRTM,2024,124.921137956690,16.030785366840
$GPGGA,220625.00,3510.5737,N,12128.0036,W,1,10,0.8,12.4,M,-32.3,M,,*62
$PYRTM,2024,124.921145363750,16.030792773889
$GPGGA,220626.00,3510.5738,N,12128.0035,W,1,10,0.8,12.4,M,-32.3,M,,*6D
$PYRTM,2024,124.921161105359,16.030808515498
$GPGGA,220627.00,3510.5736,N,12128.0031,W,1,10,0.8,12.4,M,-32.3,M,,*66
$PYRTM,2024,124.921172690856,16.030820100995
$GPGGA,220628.00,3510.5732,N,12128.0025,W,1,10,0.8,12.4,M,-32.3,M,,*68
$PYRTM,2024,124.921184252951,16.030831663090
$GPGGA,220629.00,3510.5730,N,12128.0023,W,1,10,0.8,12.3,M,-32.3,M,,*6A
$PYRTM,2024,124.921195839664,16.030843249803
$GPGGA,220630.00,3510.5732,N,12128.0024,W,1,10,0.8,12.3,M,-32.3,M,,*67
$PYRTM,2024,124.921203234722,16.030850644873
$GPGGA,220631.00,3510.5735,N,12128.0025,W,1,10,0.8,12.3,M,-32.3,M,,*60
$PYRTM,2024,124.921221879942,16.030869290081
$GPGGA,220632.00,3510.5735,N,12128.0022,W,1,10,0.8,12.3,M,-32.3,M,,*64
$PYRTM,2024,124.921230687593,16.030878097720
$GPGGA,220633.00,3510.5731,N,12128.0017,W,1,10,0.8,12.3,M,-32.3,M,,*67
$PYRTM,2024,124.921242138623,16.030889548762
$GPGGA,220634.00,3510.5726,N,12128.0012,W,1,10,0.8,12.3,M,-32.3,M,,*63
$PYRTM,2024,124.921253841655,16.030901251794
$GPGGA,220635.00,3510.5725,N,12128.0011,W,1,10,0.8,12.3,M,-32.3,M,,*62
$PYRTM,2024,124.921261103981,16.030908514120
$GPGGA,220636.00,3510.5727,N,12128.0013,W,1,10,0.8,12.3,M,-32.3,M,,*61
$PYRTM,2024,124.921276987002,16.030924397141
$GPGGA,220637.00,3510.5730,N,12128.0014,W,1,10,0.8,12.2,M,-32.3,M,,*60
$PYRTM,2024,124.921288548600,16.030935958738
$GPGGA,220638.00,3510.5728,N,12128.0011,W,1,10,0.8,12.2,M,-32.3,M,,*63
$PYRTM,2024,124.921300130220,16.030947540370
$GPGGA,220639.00,3510.5724,N,12128.0006,W,1,10,0.8,12.2,M,-32.3,M,,*68
$PYRTM,2024,124.921311696782,16.030959106921
$GPGGA,220640.00,3510.5722,N,12128.0003,W,1,10,0.8,12.2,M,-32.3,M,,*65
$PYRTM,2024,124.921323270405,16.030970680544
$GPGGA,220641.00,3510.5722,N,12128.0003,W,1,10,0.8,12.2,M,-32.3,M,,*64
$PYRTM,2024,124.921334839479,16.030982249630
$GPGGA,220642.00,3510.5723,N,12128.0004,W,1,10,0.8,12.1,M,-32.3,M,,*62
$PYRTM,2024,124.921346428750,16.030993838889
$GPGGA,220643.00,3510.5723,N,12128.0002,W,1,10,0.8,12.1,M,-32.3,M,,*65
$PYRTM,2024,124.921357992882,16.031005403021
$GPGGA,220644.00,3510.5721,N,12127.9998,W,1,10,0.8,12.1,M,-32.3,M,,*6C
$PYRTM,2024,124.921369566586,16.031016976725
$GPGGA,220645.00,3510.5719,N,12127.9995,W,1,10,0.8,12.1,M,-32.3,M,,*6B
$PYRTM,2024,124.921381140255,16.031028550394
$GPGGA,220646.00,3510.5718,N,12127.9994,W,1,10,0.8,12.1,M,-32.3,M,,*68
$PYRTM,2024,124.921392586829,16.031039996968
$GPGGA,220647.00,3510.5718,N,12127.9992,W,1,10,0.8,12.1,M,-32.3,M,,*6F
$PYRTM,2024,124.921404169039,16.031051579178
$GPGGA,220648.00,3510.5717,N,12127.9990,W,1,10,0.8,12.1,M,-32.3,M,,*6D
$PYRTM,2024,124.921415737060,16.031063147199
$GPGGA,220649.00,3510.5715,N,12127.9987,W,1,10,0.8,12.1,M,-32.3,M,,*68
$PYRTM,2024,124.921427323148,16.031074733287
$GPGGA,220650.00,3510.5713,N,12127.9986,W,1,10,0.8,12.1,M,-32.3,M,,*67
$PYRTM,2024,124.921438883368,16.031086293507
$GPGGA,220651.00,3510.5713,N,12127.9985,W,1,10,0.8,12.1,M,-32.3,M,,*65
$PYRTM,2024,124.921450469410,16.031097879549
$GPGGA,220652.00,3510.5714,N,12127.9984,W,1,10,0.8,12.1,M,-32.3,M,,*60
$PYRTM,2024,124.921457865683,16.031105275822
$GPGGA,220653.00,3510.5713,N,12127.9980,W,1,10,0.8,12.1,M,-32.3,M,,*62
$PYRTM,2024,124.921473624456,16.031121034606
$GPGGA,220654.00,3510.5709,N,12127.9976,W,1,10,0.8,12.1,M,-32.3,M,,*67
$PYRTM,2024,124.921485184722,16.031132594861
$GPGGA,220655.00,3510.5708,N,12127.9974,W,1,10,0.8,12.1,M,-32.3,M,,*65
$PYRTM,2024,124.921496762685,16.031144172824
$GPGGA,220656.00,3510.5710,N,12127.9975,W,1,10,0.8,12.1,M,-32.3,M,,*6E
$PYRTM,2024,124.921508328102,16.031155738241
$GPGGA,220657.00,3510.5712,N,12127.9976,W,1,10,0.8,12.1,M,-32.3,M,,*6E
$PYRTM,2024,124.921519914155,16.031167324282
$GPGGA,220658.00,3510.5711,N,12127.9973,W,1,10,0.8,12.1,M,-32.3,M,,*67
$PYRTM,2024,124.921531476806,16.031178886944
$GPGGA,220659.00,3510.5708,N,12127.9966,W,1,10,0.8,12.0,M,-32.3,M,,*6B
$PYRTM,2024,124.921543068461,16.031190478600
$GPGGA,220700.00,3510.5705,N,12127.9962,W,1,10,0.8,12.0,M,-32.3,M,,*6F
$PYRTM,2024,124.921554626505,16.031202036644
$GPGGA,220701.00,3510.5704,N,12127.9962,W,1,10,0.8,12.0,M,-32.3,M,,*6F
$PYRTM,2024,124.921562032512,16.031209442650
$GPGGA,220702.00,3510.5706,N,12127.9965,W,1,10,0.8,12.0,M,-32.3,M,,*69
$PYRTM,2024,124.921580679086,16.031228089225
$GPGGA,220703.00,3510.5707,N,12127.9964,W,1,10,0.8,11.9,M,-32.3,M,,*62
$PYRTM,2024,124.921589360405,16.031236770544
$GPGGA,220704.00,3510.5705,N,12127.9960,W,1,10,0.8,11.9,M,-32.3,M,,*63
$PYRTM,2024,124.921600920972,16.031248331111
$GPGGA,220705.00,3510.5702,N,12127.9954,W,1,10,0.8,11.9,M,-32.3,M,,*62
$PYRTM,2024,124.921608329387,16.031255739525
$GPGGA,220706.00,3510.5700,N,12127.9952,W,1,10,0.8,11.9,M,-32.3,M,,*65
$PYRTM,2024,124.921624070058,16.031271480197
$GPGGA,220707.00,3510.5700,N,12127.9954,W,1,10,0.8,11.9,M,-32.3,M,,*62
$PYRTM,2024,124.921635651609,16.031283061748
$GPGGA,220708.00,3510.5702,N,12127.9956,W,1,10,0.8,11.9,M,-32.3,M,,*6D
$PYRTM,2024,124.921647218843,16.031294628981
$GPGGA,220709.00,3510.5702,N,12127.9954,W,1,10,0.8,11.9,M,-32.3,M,,*6E
$PYRTM,2024,124.921658819074,16.031306229213
$GPGGA,220710.00,3510.5699,N,12127.9948,W,1,10,0.8,11.9,M,-32.3,M,,*68
$PYRTM,2024,124.921670367280,16.031317777419
$GPGGA,220711.00,3510.5696,N,12127.9943,W,1,10,0.8,11.9,M,-32.3,M,,*6D
$PYRTM,2024,124.921681958171,16.031329368310
$GPGGA,220712.00,3510.5695,N,12127.9941,W,1,10,0.8,11.9,M,-32.3,M,,*6F
$PYRTM,2024,124.921693515116,16.031340925266
$GPGGA,220713.00,3510.5694,N,12127.9943,W,1,10,0.8,11.9,M,-32.3,M,,*6D
$PYRTM,2024,124.921705101053,16.031352511204
$GPGGA,220714.00,3510.5695,N,12127.9944,W,1,10,0.8,11.9,M,-32.3,M,,*6C
$PYRTM,2024,124.921716664271,16.031364074410
$GPGGA,220715.00,3510.5694,N,12127.9942,W,1,10,0.8,11.9,M,-32.3,M,,*6A
$PYRTM,2024,124.921728250336,16.031375660475
$GPGGA,220716.00,3510.5691,N,12127.9938,W,1,10,0.8,12.0,M,-32.3,M,,*6B
$PYRTM,2024,124.921739810880,16.031387221030
$GPGGA,220717.00,3510.5687,N,12127.9932,W,1,10,0.8,12.0,M,-32.3,M,,*67
$PYRTM,2024,124.921747219826,16.031394629965
$GPGGA,220718.00,3510.5685,N,12127.9930,W,1,10,0.8,12.0,M,-32.3,M,,*68
$PYRTM,2024,124.921762958634,16.031410368785
$GPGGA,220719.00,3510.5686,N,12127.9933,W,1,10,0.8,12.0,M,-32.3,M,,*69
$PYRTM,2024,124.921774549398,16.031421959537
$GPGGA,220720.00,3510.5686,N,12127.9936,W,1,10,0.8,12.0,M,-32.3,M,,*66
$PYRTM,2024,124.921786108264,16.031433518403
$GPGGA,220721.00,3510.5684,N,12127.9933,W,1,10,0.8,12.0,M,-32.3,M,,*60
$PYRTM,2024,124.921797697650,16.031445107801
$GPGGA,220722.00,3510.5681,N,12127.9928,W,1,10,0.8,12.0,M,-32.3,M,,*6C
$PYRTM,2024,124.921809255822,16.031456665961
$GPGGA,220723.00,3510.5677,N,12127.9925,W,1,10,0.8,12.0,M,-32.3,M,,*69
$PYRTM,2024,124.921820843819,16.031468253958
$GPGGA,220724.00,3510.5676,N,12127.9924,W,1,10,0.8,12.0,M,-32.3,M,,*6E
$PYRTM,2024,124.921832404861,16.031479815000
$GPGGA,220725.00,3510.5676,N,12127.9925,W,1,10,0.8,12.0,M,-32.3,M,,*6E
$PYRTM,2024,124.921843991840,16.031491401979
$GPGGA,220726.00,3510.5675,N,12127.9925,W,1,10,0.8,12.0,M,-32.3,M,,*6E
$PYRTM,2024,124.921855554097,16.031502964236
$GPGGA,220727.00,3510.5672,N,12127.9923,W,1,10,0.8,12.0,M,-32.3,M,,*6E
$PYRTM,2024,124.921867139583,16.031514549722
$GPGGA,220728.00,3510.5669,N,12127.9920,W,1,10,0.8,12.0,M,-32.3,M,,*68
$PYRTM,2024,124.921878829259,16.031526239398
$GPGGA,220729.00,3510.5666,N,12127.9918,W,1,10,0.8,12.0,M,-32.3,M,,*6D
$PYRTM,2024,124.921890291863,16.031537702014
$GPGGA,220730.00,3510.5663,N,12127.9918,W,1,10,0.8,12.0,M,-32.3,M,,*60
$PYRTM,2024,124.921901849294,16.031549259433
$GPGGA,220731.00,3510.5661,N,12127.9917,W,1,10,0.8,12.0,M,-32.3,M,,*6C
$PYRTM,2024,124.921913436019,16.031560846157
$GPGGA,220732.00,3510.5659,N,12127.9916,W,1,10,0.8,12.0,M,-32.3,M,,*65
$PYRTM,2024,124.921920845926,16.031568256065
$GPGGA,220733.00,3510.5657,N,12127.9916,W,1,10,0.8,12.0,M,-32.3,M,,*6A
$PYRTM,2024,124.921939476713,16.031586886852
$GPGGA,220734.00,3510.5654,N,12127.9916,W,1,10,0.8,12.0,M,-32.3,M,,*6E
$PYRTM,2024,124.921948146296,16.031595556435
$GPGGA,220735.00,3510.5651,N,12127.9915,W,1,10,0.8,12.0,M,-32.3,M,,*69
$PYRTM,2024,124.921959733171,16.031607143310
$GPGGA,220736.00,3510.5648,N,12127.9912,W,1,10,0.8,12.0,M,-32.3,M,,*65
$PYRTM,2024,124.921971295961,16.031618706100
$GPGGA,220737.00,3510.5645,N,12127.9910,W,1,10,0.8,12.0,M,-32.3,M,,*6B
$PYRTM,2024,124.921982881215,16.031630291354
$GPGGA,220738.00,3510.5641,N,12127.9910,W,1,10,0.8,12.0,M,-32.3,M,,*60
$PYRTM,2024,124.921994443218,16.031641853356
$GPGGA,220739.00,3510.5639,N,12127.9912,W,1,10,0.8,12.0,M,-32.3,M,,*6C
$PYRTM,2024,124.922006032431,16.031653442569
$GPGGA,220740.00,3510.5637,N,12127.9911,W,1,10,0.8,11.9,M,-32.3,M,,*65
$PYRTM,2024,124.922013424641,16.031660834780
$GPGGA,220741.00,3510.5633,N,12127.9908,W,1,10,0.8,12.0,M,-32.3,M,,*62
$PYRTM,2024,124.922029172743,16.031676582882
$GPGGA,220742.00,3510.5628,N,12127.9906,W,1,10,0.8,11.9,M,-32.3,M,,*6F
$PYRTM,2024,124.922040739433,16.031688149572
$GPGGA,220743.00,3510.5625,N,12127.9907,W,1,10,0.8,11.9,M,-32.3,M,,*62
$PYRTM,2024,124.922052329144,16.031699739282
$GPGGA,220744.00,3510.5623,N,12127.9909,W,1,10,0.8,11.9,M,-32.3,M,,*6D
$PYRTM,2024,124.922063887812,16.031711297951
$GPGGA,220745.00,3510.5621,N,12127.9910,W,1,10,0.8,12.0,M,-32.3,M,,*6C
$PYRTM,2024,124.922075473866,16.031722884005
$GPGGA,220746.00,3510.5618,N,12127.9909,W,1,10,0.8,12.0,M,-32.3,M,,*6D
$PYRTM,2024,124.922087035914,16.031734446053
$GPGGA,220747.00,3510.5613,N,12127.9907,W,1,10,0.8,12.0,M,-32.3,M,,*69
$PYRTM,2024,124.922098625023,16.031746035162
$GPGGA,220748.00,3510.5609,N,12127.9904,W,1,10,0.8,12.0,M,-32.3,M,,*6E
$PYRTM,2024,124.922110184595,16.031757594734
$GPGGA,220749.00,3510.5605,N,12127.9904,W,1,10,0.8,12.0,M,-32.3,M,,*63
$PYRTM,2024,124.922121770810,16.031769180949
$GPGGA,220750.00,3510.5603,N,12127.9907,W,1,10,0.8,12.0,M,-32.3,M,,*6E
$PYRTM,2024,124.922129181690,16.031776591829
$GPGGA,220751.00,3510.5600,N,12127.9908,W,1,10,0.8,12.0,M,-32.3,M,,*63
$PYRTM,2024,124.922144920463,16.031792330602
$GPGGA,220752.00,3510.5596,N,12127.9906,W,1,10,0.8,12.0,M,-32.3,M,,*62
$PYRTM,2024,124.922152327303,16.031799737442
$GPGGA,220753.00,3510.5590,N,12127.9902,W,1,10,0.8,12.0,M,-32.3,M,,*61
$PYRTM,2024,124.922168063472,16.031815473611
$GPGGA,220754.00,3510.5585,N,12127.9900,W,1,10,0.8,12.0,M,-32.3,M,,*60
$PYRTM,2024,124.922179629155,16.031827039294
$GPGGA,220755.00,3510.5582,N,12127.9903,W,1,10,0.8,12.0,M,-32.3,M,,*65
$PYRTM,2024,124.922191216100,16.031838626238
$GPGGA,220756.00,3510.5580,N,12127.9907,W,1,10,0.8,12.0,M,-32.3,M,,*60
$PYRTM,2024,124.922202776690,16.031850186840
$GPGGA,220757.00,3510.5576,N,12127.9909,W,1,10,0.8,12.0,M,-32.3,M,,*66
$PYRTM,2024,124.922210184780,16.031857594919
$GPGGA,220758.00,3510.5571,N,12127.9906,W,1,10,0.8,12.0,M,-32.3,M,,*61
$PYRTM,2024,124.922225926991,16.031873337130
$GPGGA,220759.00,3510.5564,N,12127.9902,W,1,10,0.8,12.2,M,-32.3,M,,*62
$PYRTM,2024,124.922237512535,16.031884922674
$GPGGA,220800.00,3510.5560,N,12127.9901,W,1,10,0.8,12.4,M,-32.3,M,,*60
$PYRTM,2024,124.922249074109,16.031896484248
$GPGGA,220801.00,3510.5556,N,12127.9904,W,1,10,0.8,12.5,M,-32.3,M,,*60
$PYRTM,2024,124.922260659803,16.031908069942
$GPGGA,220802.00,3510.5553,N,12127.9909,W,1,10,0.8,12.4,M,-32.3,M,,*6A
$PYRTM,2024,124.922272221574,16.031919631713
$GPGGA,220803.00,3510.5549,N,12127.9911,W,1,10,0.8,12.4,M,-32.3,M,,*69
$PYRTM,2024,124.922279629155,16.031927039294
$GPGGA,220804.00,3510.5543,N,12127.9907,W,1,10,0.8,12.6,M,-32.3,M,,*61
$PYRTM,2024,124.922298287558,16.031945697697
$GPGGA,220805.00,3510.5537,N,12127.9903,W,1,10,0.8,12.8,M,-32.3,M,,*69
$PYRTM,2024,124.922309850382,16.031957260521
$GPGGA,220806.00,3510.5532,N,12127.9905,W,1,10,0.8,13.0,M,-32.3,M,,*60
$PYRTM,2024,124.922321436088,16.031968846227
$GPGGA,220807.00,3510.5528,N,12127.9910,W,1,10,0.8,13.0,M,-32.3,M,,*6E
$PYRTM,2024,124.922330108692,16.031977518831
$GPGGA,220808.00,3510.5524,N,12127.9912,W,1,10,0.8,12.9,M,-32.3,M,,*67
$PYRTM,2024,124.922341668426,16.031989078565
$GPGGA,220809.00,3510.5517,N,12127.9910,W,1,10,0.8,12.8,M,-32.3,M,,*65
$PYRTM,2024,124.922353253692,16.032000663831
$GPGGA,220810.00,3510.5512,N,12127.9909,W,1,10,0.8,12.8,M,-32.3,M,,*60
$PYRTM,2024,124.922364815880,16.032012226019
$GPGGA,220811.00,3510.5506,N,12127.9910,W,1,10,0.8,12.7,M,-32.3,M,,*63
$PYRTM,2024,124.922376402049,16.032023812199
$GPGGA,220812.00,3510.5501,N,12127.9912,W,1,10,0.8,12.8,M,-32.3,M,,*6A
$PYRTM,2024,124.922387963843,16.032035373981
$GPGGA,220813.00,3510.5495,N,12127.9913,W,1,10,0.8,13.1,M,-32.3,M,,*6E
$PYRTM,2024,124.922399548229,16.032046958380
$GPGGA,220814.00,3510.5490,N,12127.9912,W,1,10,0.8,13.4,M,-32.3,M,,*68
$PYRTM,2024,124.922411111100,16.032058521238
$GPGGA,220815.00,3510.5484,N,12127.9913,W,1,10,0.8,13.5,M,-32.3,M,,*6C
$PYRTM,2024,124.922422701794,16.032070111933
$GPGGA,220816.00,3510.5480,N,12127.9916,W,1,10,0.8,13.5,M,-32.3,M,,*6E
$PYRTM,2024,124.922434261007,16.032081671146
$GPGGA,220817.00,3510.5474,N,12127.9917,W,1,10,0.8,13.4,M,-32.3,M,,*64
$PYRTM,2024,124.922441668773,16.032089078912
$GPGGA,220818.00,3510.5467,N,12127.9916,W,1,10,0.8,13.4,M,-32.3,M,,*68
$PYRTM,2024,124.922457408947,16.032104819086
$GPGGA,220819.00,3510.5460,N,12127.9914,W,1,10,0.8,13.5,M,-32.3,M,,*6D
$PYRTM,2024,124.922468990278,16.032116400417
$GPGGA,220820.00,3510.5455,N,12127.9915,W,1,10,0.8,13.5,M,-32.3,M,,*60
$PYRTM,2024,124.922480556181,16.032127966319
$GPGGA,220821.00,3510.5451,N,12127.9920,W,1,10,0.8,13.6,M,-32.3,M,,*60
$PYRTM,2024,124.922492143137,16.032139553275
$GPGGA,220822.00,3510.5447,N,12127.9923,W,1,10,0.8,13.4,M,-32.3,M,,*65
$PYRTM,2024,124.922503704248,16.032151114387
$GPGGA,220823.00,3510.5440,N,12127.9923,W,1,10,0.8,13.2,M,-32.3,M,,*65
$PYRTM,2024,124.922515293634,16.032162703773
$GPGGA,220824.00,3510.5433,N,12127.9921,W,1,10,0.8,13.2,M,-32.3,M,,*64
$PYRTM,2024,124.922526853715,16.032174263854
$GPGGA,220825.00,3510.5426,N,12127.9920,W,1,10,0.8,13.2,M,-32.3,M,,*60
$PYRTM,2024,124.922538454016,16.032185864155
$GPGGA,220826.00,3510.5421,N,12127.9923,W,1,10,0.8,13.5,M,-32.3,M,,*60
$PYRTM,2024,124.922550000382,16.032197410521
$GPGGA,220827.00,3510.5417,N,12127.9927,W,1,10,0.8,13.7,M,-32.3,M,,*62
$PYRTM,2024,124.922557409734,16.032204819873
$GPGGA,220828.00,3510.5412,N,12127.9929,W,1,10,0.8,13.9,M,-32.3,M,,*68
$PYRTM,2024,124.922573150498,16.032220560637
$GPGGA,220829.00,3510.5405,N,12127.9930,W,1,10,0.8,13.8,M,-32.3,M,,*66
$PYRTM,2024,124.922584738090,16.032232148229
$GPGGA,220830.00,3510.5399,N,12127.9930,W,1,10,0.8,13.7,M,-32.3,M,,*63
$PYRTM,2024,124.922592133368,16.032239543507
$GPGGA,220831.00,3510.5393,N,12127.9930,W,1,10,0.8,13.6,M,-32.3,M,,*69
$PYRTM,2024,124.922607887801,16.032255297940
$GPGGA,220832.00,3510.5387,N,12127.9931,W,1,10,0.8,13.6,M,-32.3,M,,*6E
$PYRTM,2024,124.922619445961,16.032266856100
$GPGGA,220833.00,3510.5381,N,12127.9933,W,1,10,0.8,13.5,M,-32.3,M,,*68
$PYRTM,2024,124.922631033935,16.032278444074
$GPGGA,220834.00,3510.5375,N,12127.9935,W,1,10,0.8,13.4,M,-32.3,M,,*63
$PYRTM,2024,124.922638428981,16.032285839120
$GPGGA,220835.00,3510.5370,N,12127.9938,W,1,10,0.8,13.3,M,-32.3,M,,*6D
