$PYRTM,2024,128.000015299942,19.109662710081
$GPGGA,000000.00,3308.9277,N,11819.0639,W,1,10,0.8,8.3,M,-34.5,M,,*5C
$PYRTM,2024,128.000026861331,19.109674271470
$GPGGA,000001.00,3308.9262,N,11819.0617,W,1,10,0.8,8.4,M,-34.5,M,,*52
$PYRTM,2024,128.000034269387,19.109681679537
$GPGGA,000002.00,3308.9249,N,11819.0595,W,1,10,0.8,8.5,M,-34.5,M,,*50
$PYRTM,2024,128.000050010764,19.109697420903
$GPGGA,000003.00,3308.9235,N,11819.0572,W,1,11,0.8,8.5,M,-34.5,M,,*52
$PYRTM,2024,128.000061599039,19.109709009178
$GPGGA,000004.00,3308.9220,N,11819.0550,W,1,11,0.8,8.5,M,-34.5,M,,*51
$PYRTM,2024,128.000069007211,19.109716417350
$GPGGA,000005.00,3308.9205,N,11819.0529,W,1,11,0.8,8.5,M,-34.5,M,,*59
$PYRTM,2024,128.000087640833,19.109735050972
$GPGGA,000006.00,3308.9189,N,11819.0506,W,1,11,0.8,8.6,M,-34.5,M,,*53
$PYRTM,2024,128.000096309583,19.109743719722
$GPGGA,000007.00,3308.9175,N,11819.0483,W,1,11,0.8,8.6,M,-34.5,M,,*5D
$PYRTM,2024,128.000103714410,19.109751124549
$GPGGA,000008.00,3308.9160,N,11819.0460,W,1,11,0.8,8.6,M,-34.5,M,,*5B
$PYRTM,2024,128.000119456053,19.109766866192
$GPGGA,000009.00,3308.9145,N,11819.0437,W,1,11,0.8,8.6,M,-34.5,M,,*5F
$PYRTM,2024,128.000126865868,19.109774276019
$GPGGA,000010.00,3308.9129,N,11819.0415,W,1,11,0.8,8.5,M,-34.5,M,,*5E
$PYRTM,2024,128.000145497130,19.109792907269
$GPGGA,000011.00,3308.9114,N,11819.0392,W,1,11,0.8,8.3,M,-34.5,M,,*5F
$PYRTM,2024,128.000157085822,19.109804495961
$GPGGA,000012.00,3308.9100,N,11819.0370,W,1,11,0.8,8.1,M,-34.5,M,,*57
$PYRTM,2024,128.000165753461,19.109813163600
$GPGGA,000013.00,3308.9086,N,11819.0348,W,1,11,0.8,8.0,M,-34.5,M,,*53
$PYRTM,2024,128.000173161528,19.109820571667
$GPGGA,000014.00,3308.9071,N,11819.0327,W,1,11,0.8,7.9,M,-34.5,M,,*53
$PYRTM,2024,128.000188901852,19.109836312002
$GPGGA,000015.00,3308.9056,N,11819.0305,W,1,11,0.8,7.9,M,-34.5,M,,*57
$PYRTM,2024,128.000200489491,19.109847899630
$GPGGA,000016.00,3308.9041,N,11819.0284,W,1,11,0.8,7.9,M,-34.5,M,,*5A
$PYRTM,2024,128.000212048854,19.109859458993
$GPGGA,000017.00,3308.9026,N,11819.0262,W,1,11,0.8,8.1,M,-34.5,M,,*55
$PYRTM,2024,128.000223636910,19.109871047049
$GPGGA,000018.00,3308.9011,N,11819.0239,W,1,11,0.8,8.4,M,-34.5,M,,*55
$PYRTM,2024,128.000235197060,19.109882607199
$GPGGA,000019.00,3308.8996,N,11819.0216,W,1,11,0.8,8.6,M,-34.5,M,,*5C
$PYRTM,2024,128.000246785093,19.109894195231
$GPGGA,000020.00,3308.8980,N,11819.0193,W,1,11,0.8,8.7,M,-34.5,M,,*5E
$PYRTM,2024,128.000258344850,19.109905754988
$GPGGA,000021.00,3308.8965,N,11819.0170,W,1,11,0.8,8.7,M,-34.5,M,,*59
$PYRTM,2024,128.000269935232,19.109917345370
$GPGGA,000022.00,3308.8951,N,11819.0146,W,1,11,0.8,8.5,M,-34.5,M,,*5A
$PYRTM,2024,128.000277330231,19.109924740370
$GPGGA,000023.00,3308.8936,N,11819.0124,W,1,11,0.8,8.4,M,-34.5,M,,*5F
$PYRTM,2024,128.000293075428,19.109940485579
$GPGGA,000024.00,3308.8920,N,11819.0103,W,1,11,0.8,8.3,M,-34.5,M,,*5D
$PYRTM,2024,128.000304643727,19.109952053866
$GPGGA,000025.00,3308.8905,N,11819.0081,W,1,11,0.8,8.1,M,-34.5,M,,*52
$PYRTM,2024,128.000312050382,19.109959460521
$GPGGA,000026.00,3308.8891,N,11819.0059,W,1,11,0.8,7.9,M,-34.5,M,,*5F
$PYRTM,2024,128.000327790579,19.109975200718
$GPGGA,000027.00,3308.8876,N,11819.0037,W,1,11,0.8,7.9,M,-34.5,M,,*5F
$PYRTM,2024,128.000339379699,19.109986789850
$GPGGA,000028.00,3308.8860,N,11819.0015,W,1,11,0.8,7.9,M,-34.5,M,,*57
$PYRTM,2024,128.000350938912,19.109998349051
$GPGGA,000029.00,3308.8845,N,11818.9993,W,1,11,0.8,7.9,M,-34.5,M,,*5E
$PYRTM,2024,128.000362527917,19.110009938067
$GPGGA,000030.00,3308.8829,N,11818.9972,W,1,11,0.8,8.0,M,-34.5,M,,*55
$PYRTM,2024,128.000374087234,19.110021497373
$GPGGA,000031.00,3308.8813,N,11818.9951,W,1,11,0.8,8.2,M,-34.5,M,,*5E
$PYRTM,2024,128.000385673831,19.110033083970
$GPGGA,000032.00,3308.8798,N,11818.9928,W,1,11,0.8,8.3,M,-34.5,M,,*5E
$PYRTM,2024,128.000397235660,19.110044645799
$GPGGA,000033.00,3308.8783,N,11818.9905,W,1,11,0.8,8.3,M,-34.5,M,,*5A
$PYRTM,2024,128.000408822963,19.110056233102
$GPGGA,000034.00,3308.8768,N,11818.9882,W,1,11,0.8,8.4,M,-34.5,M,,*51
$PYRTM,2024,128.000420383981,19.110067794120
$GPGGA,000035.00,3308.8753,N,11818.9860,W,1,11,0.8,8.4,M,-34.5,M,,*54
$PYRTM,2024,128.000427792338,19.110075202488
$GPGGA,000036.00,3308.8737,N,11818.9839,W,1,11,0.8,8.4,M,-34.5,M,,*59
$PYRTM,2024,128.000446432986,19.110093843125
$GPGGA,000037.00,3308.8722,N,11818.9817,W,1,11,0.8,8.3,M,-34.5,M,,*57
$PYRTM,2024,128.000455119271,19.110102529410
$GPGGA,000038.00,3308.8708,N,11818.9793,W,1,11,0.8,8.1,M,-34.5,M,,*51
$PYRTM,2024,128.000466680278,19.110114090417
$GPGGA,000039.00,3308.8694,N,11818.9771,W,1,11,0.8,8.0,M,-34.5,M,,*59
$PYRTM,2024,128.000478267488,19.110125677639
$GPGGA,000040.00,3308.8679,N,11818.9748,W,1,11,0.8,7.9,M,-34.5,M,,*58
$PYRTM,2024,128.000485662373,19.110133072523
$GPGGA,000041.00,3308.8663,N,11818.9727,W,1,11,0.8,7.8,M,-34.5,M,,*5A
$PYRTM,2024,128.000501431215,19.110148841354
$GPGGA,000042.00,3308.8648,N,11818.9705,W,1,10,0.8,7.9,M,-34.5,M,,*50
$PYRTM,2024,128.000508810949,19.110156221088
$GPGGA,000043.00,3308.8634,N,11818.9683,W,1,11,0.8,8.0,M,-34.5,M,,*52
$PYRTM,2024,128.000524564201,19.110171974340
$GPGGA,000044.00,3308.8620,N,11818.9660,W,1,11,0.8,8.1,M,-34.5,M,,*5C
$PYRTM,2024,128.000536125231,19.110183535370
$GPGGA,000045.00,3308.8605,N,11818.9638,W,1,11,0.8,8.2,M,-34.5,M,,*54
$PYRTM,2024,128.000543533333,19.110190943472
$GPGGA,000046.00,3308.8590,N,11818.9617,W,1,11,0.8,8.3,M,-34.5,M,,*54
$PYRTM,2024,128.000559273542,19.110206683681
$GPGGA,000047.00,3308.8575,N,11818.9595,W,1,11,0.8,8.3,M,-34.5,M,,*57
$PYRTM,2024,128.000570861725,19.110218271875
$GPGGA,000048.00,3308.8560,N,11818.9572,W,1,11,0.8,8.2,M,-34.5,M,,*54
$PYRTM,2024,128.000582422789,19.110229832928
$GPGGA,000049.00,3308.8545,N,11818.9550,W,1,11,0.8,8.2,M,-34.5,M,,*52
$PYRTM,2024,128.000594012442,19.110241422581
$GPGGA,000050.00,3308.8531,N,11818.9527,W,1,11,0.8,8.0,M,-34.5,M,,*5B
$PYRTM,2024,128.000601404213,19.110248814352
$GPGGA,000051.00,3308.8516,N,11818.9504,W,1,11,0.8,7.9,M,-34.5,M,,*58
$PYRTM,2024,128.000617157326,19.110264567465
$GPGGA,000052.00,3308.8501,N,11818.9483,W,1,11,0.8,7.9,M,-34.5,M,,*53
$PYRTM,2024,128.000628719329,19.110276129468
$GPGGA,000053.00,3308.8486,N,11818.9462,W,1,11,0.8,7.9,M,-34.5,M,,*53
$PYRTM,2024,128.000640311250,19.110287721389
$GPGGA,000054.00,3308.8472,N,11818.9440,W,1,11,0.8,7.8,M,-34.5,M,,*5E
$PYRTM,2024,128.000651867164,19.110299277303
$GPGGA,000055.00,3308.8458,N,11818.9419,W,1,11,0.8,7.8,M,-34.5,M,,*5B
$PYRTM,2024,128.000663455359,19.110310865509
$GPGGA,000056.00,3308.8443,N,11818.9397,W,1,11,0.8,7.8,M,-34.5,M,,*53
$PYRTM,2024,128.000675015972,19.110322426123
$GPGGA,000057.00,3308.8429,N,11818.9375,W,1,11,0.8,7.9,M,-34.5,M,,*53
$PYRTM,2024,128.000686717836,19.110334127975
$GPGGA,000058.00,3308.8414,N,11818.9352,W,1,11,0.8,8.0,M,-34.5,M,,*51
$PYRTM,2024,128.000698278681,19.110345688819
$GPGGA,000059.00,3308.8399,N,11818.9329,W,1,11,0.8,8.2,M,-34.5,M,,*5C
$PYRTM,2024,128.000709868426,19.110357278565
$GPGGA,000100.00,3308.8384,N,11818.9306,W,1,11,0.8,8.4,M,-34.5,M,,*56
$PYRTM,2024,128.000717145613,19.110364555752
$GPGGA,000101.00,3308.8368,N,11818.9284,W,1,11,0.8,8.5,M,-34.5,M,,*5F
$PYRTM,2024,128.000733016887,19.110380427025
$GPGGA,000102.00,3308.8353,N,11818.9261,W,1,11,0.8,8.5,M,-34.5,M,,*5F
$PYRTM,2024,128.000744574861,19.110391985000
$GPGGA,000103.00,3308.8337,N,11818.9240,W,1,11,0.8,8.5,M,-34.5,M,,*5F
$PYRTM,2024,128.000756156968,19.110403567106
$GPGGA,000104.00,3308.8322,N,11818.9217,W,1,11,0.8,8.4,M,-34.5,M,,*5F
$PYRTM,2024,128.000767724109,19.110415134248
$GPGGA,000105.00,3308.8307,N,11818.9195,W,1,11,0.8,8.2,M,-34.5,M,,*56
$PYRTM,2024,128.000775132731,19.110422542882
$GPGGA,000106.00,3308.8292,N,11818.9173,W,1,11,0.8,8.1,M,-34.5,M,,*53
$PYRTM,2024,128.000786823403,19.110434233553
$GPGGA,000107.00,3308.8277,N,11818.9151,W,1,11,0.8,8.2,M,-34.5,M,,*5A
$PYRTM,2024,128.000805351493,19.110452761644
$GPGGA,000108.00,3308.8261,N,11818.9130,W,1,11,0.8,8.2,M,-34.5,M,,*55
$PYRTM,2024,128.000814021042,19.110461431181
$GPGGA,000109.00,3308.8246,N,11818.9108,W,1,11,0.8,8.2,M,-34.5,M,,*5A
$PYRTM,2024,128.000825492928,19.110472903067
$GPGGA,000110.00,3308.8231,N,11818.9086,W,1,11,0.8,8.3,M,-34.5,M,,*54
$PYRTM,2024,128.000832887604,19.110480297743
$GPGGA,000111.00,3308.8216,N,11818.9064,W,1,11,0.8,8.4,M,-34.5,M,,*5B
$PYRTM,2024,128.000848643148,19.110496053287
$GPGGA,000112.00,3308.8200,N,11818.9041,W,1,11,0.8,8.3,M,-34.5,M,,*5F
$PYRTM,2024,128.000860202407,19.110507612546
$GPGGA,000113.00,3308.8185,N,11818.9019,W,1,11,0.8,8.3,M,-34.5,M,,*5D
$PYRTM,2024,128.000871803750,19.110519213889
$GPGGA,000114.00,3308.8170,N,11818.8996,W,1,11,0.8,8.2,M,-34.5,M,,*5E
$PYRTM,2024,128.000879183669,19.110526593819
$GPGGA,000115.00,3308.8156,N,11818.8973,W,1,11,0.8,8.2,M,-34.5,M,,*50
$PYRTM,2024,128.000897833472,19.110545243611
$GPGGA,000116.00,3308.8141,N,11818.8951,W,1,11,0.8,8.1,M,-34.5,M,,*56
$PYRTM,2024,128.000906497986,19.110553908137
$GPGGA,000117.00,3308.8126,N,11818.8929,W,1,11,0.8,8.1,M,-34.5,M,,*59
$PYRTM,2024,128.000918084606,19.110565494745
$GPGGA,000118.00,3308.8110,N,11818.8907,W,1,11,0.8,8.2,M,-34.5,M,,*5C
$PYRTM,2024,128.000929646157,19.110577056296
$GPGGA,000119.00,3308.8094,N,11818.8885,W,1,11,0.8,8.2,M,-34.5,M,,*5B
$PYRTM,2024,128.000941234491,19.110588644630
$GPGGA,000120.00,3308.8079,N,11818.8864,W,1,11,0.8,8.1,M,-34.5,M,,*5E
$PYRTM,2024,128.000948642743,19.110596052894
$GPGGA,000121.00,3308.8064,N,11818.8841,W,1,11,0.8,8.2,M,-34.5,M,,*57
$PYRTM,2024,128.000964381354,19.110611791493
$GPGGA,000122.00,3308.8049,N,11818.8819,W,1,11,0.8,8.2,M,-34.5,M,,*56
$PYRTM,2024,128.000975941991,19.110623352130
$GPGGA,000123.00,3308.8034,N,11818.8796,W,1,11,0.8,8.3,M,-34.5,M,,*54
$PYRTM,2024,128.000987530347,19.110634940486
$GPGGA,000124.00,3308.8018,N,11818.8773,W,1,11,0.8,8.4,M,-34.5,M,,*51
$PYRTM,2024,128.000999092986,19.110646503125
$GPGGA,000125.00,3308.8003,N,11818.8751,W,1,11,0.8,8.4,M,-34.5,M,,*5A
$PYRTM,2024,128.001010678484,19.110658088634
$GPGGA,000126.00,3308.7987,N,11818.8729,W,1,11,0.8,8.4,M,-34.5,M,,*5C
$PYRTM,2024,128.001022242222,19.110669652361
$GPGGA,000127.00,3308.7972,N,11818.8707,W,1,11,0.8,8.4,M,-34.5,M,,*5B
$PYRTM,2024,128.001033830787,19.110681240937
$GPGGA,000128.00,3308.7957,N,11818.8685,W,1,11,0.8,8.3,M,-34.5,M,,*5F
$PYRTM,2024,128.001045388148,19.110692798287
$GPGGA,000129.00,3308.7942,N,11818.8663,W,1,11,0.8,8.3,M,-34.5,M,,*52
$PYRTM,2024,128.001056977743,19.110704387894
$GPGGA,000130.00,3308.7927,N,11818.8641,W,1,11,0.8,8.1,M,-34.5,M,,*5B
$PYRTM,2024,128.001064370556,19.110711780694
$GPGGA,000131.00,3308.7913,N,11818.8619,W,1,11,0.8,8.0,M,-34.5,M,,*51
$PYRTM,2024,128.001080124687,19.110727534826
$GPGGA,000132.00,3308.7898,N,11818.8597,W,1,11,0.8,8.0,M,-34.5,M,,*55
$PYRTM,2024,128.001091686331,19.110739096470
$GPGGA,000133.00,3308.7882,N,11818.8575,W,1,11,0.8,8.0,M,-34.5,M,,*53
$PYRTM,2024,128.001103271644,19.110750681782
$GPGGA,000134.00,3308.7867,N,11818.8553,W,1,11,0.8,8.1,M,-34.5,M,,*5A
$PYRTM,2024,128.001114832627,19.110762242766
$GPGGA,000135.00,3308.7851,N,11818.8531,W,1,11,0.8,8.3,M,-34.5,M,,*58
$PYRTM,2024,128.001122239815,19.110769649954
$GPGGA,000136.00,3308.7836,N,11818.8508,W,1,11,0.8,8.5,M,-34.5,M,,*56
$PYRTM,2024,128.001134044792,19.110781454931
$GPGGA,000137.00,3308.7820,N,11818.8485,W,1,11,0.8,8.6,M,-34.5,M,,*57
$PYRTM,2024,128.001145627604,19.110793037743
$GPGGA,000138.00,3308.7804,N,11818.8463,W,1,11,0.8,8.8,M,-34.5,M,,*58
$PYRTM,2024,128.001164022477,19.110811432616
$GPGGA,000139.00,3308.7789,N,11818.8441,W,1,11,0.8,8.8,M,-34.5,M,,*53
$PYRTM,2024,128.001172717488,19.110820127639
$GPGGA,000140.00,3308.7774,N,11818.8418,W,1,11,0.8,8.6,M,-34.5,M,,*5D
$PYRTM,2024,128.001184278947,19.110831689086
$GPGGA,000141.00,3308.7759,N,11818.8396,W,1,11,0.8,8.5,M,-34.5,M,,*51
$PYRTM,2024,128.001195867766,19.110843277917
$GPGGA,000142.00,3308.7745,N,11818.8375,W,1,11,0.8,8.4,M,-34.5,M,,*53
$PYRTM,2024,128.001207427095,19.110854837234
$GPGGA,000143.00,3308.7730,N,11818.8354,W,1,11,0.8,8.2,M,-34.5,M,,*55
$PYRTM,2024,128.001214833889,19.110862244039
$GPGGA,000144.00,3308.7715,N,11818.8332,W,1,11,0.8,8.1,M,-34.5,M,,*56
$PYRTM,2024,128.001230574699,19.110877984838
$GPGGA,000145.00,3308.7700,N,11818.8310,W,1,11,0.8,8.0,M,-34.5,M,,*52
$PYRTM,2024,128.001242161366,19.110889571505
$GPGGA,000146.00,3308.7685,N,11818.8288,W,1,11,0.8,8.0,M,-34.5,M,,*5D
$PYRTM,2024,128.001249572350,19.110896982488
$GPGGA,000147.00,3308.7670,N,11818.8265,W,1,11,0.8,8.2,M,-34.5,M,,*57
$PYRTM,2024,128.001265309595,19.110912719734
$GPGGA,000148.00,3308.7654,N,11818.8242,W,1,11,0.8,8.5,M,-34.5,M,,*5C
$PYRTM,2024,128.001272715775,19.110920125914
$GPGGA,000149.00,3308.7638,N,11818.8220,W,1,11,0.8,8.6,M,-34.5,M,,*50
$PYRTM,2024,128.001288457674,19.110935867813
$GPGGA,000150.00,3308.7622,N,11818.8198,W,1,11,0.8,8.7,M,-34.5,M,,*52
$PYRTM,2024,128.001300018831,19.110947428970
$GPGGA,000151.00,3308.7607,N,11818.8176,W,1,11,0.8,8.7,M,-34.5,M,,*54
$PYRTM,2024,128.001311606435,19.110959016574
$GPGGA,000152.00,3308.7592,N,11818.8154,W,1,11,0.8,8.6,M,-34.5,M,,*59
$PYRTM,2024,128.001323168264,19.110970578403
$GPGGA,000153.00,3308.7577,N,11818.8131,W,1,11,0.8,8.4,M,-34.5,M,,*52
$PYRTM,2024,128.001330573310,19.110977983449
$GPGGA,000154.00,3308.7563,N,11818.8109,W,1,11,0.8,8.3,M,-34.5,M,,*5C
$PYRTM,2024,128.001346315579,19.110993725718
$GPGGA,000155.00,3308.7549,N,11818.8088,W,1,11,0.8,8.3,M,-34.5,M,,*5D
$PYRTM,2024,128.001357901898,19.111005312037
$GPGGA,000156.00,3308.7533,N,11818.8067,W,1,11,0.8,8.4,M,-34.5,M,,*55
$PYRTM,2024,128.001369464873,19.111016875012
$GPGGA,000157.00,3308.7517,N,11818.8046,W,1,11,0.8,8.5,M,-34.5,M,,*50
$PYRTM,2024,128.001381054190,19.111028464329
$GPGGA,000158.00,3308.7502,N,11818.8024,W,1,11,0.8,8.4,M,-34.5,M,,*5E
$PYRTM,2024,128.001392612778,19.111040022917
$GPGGA,000159.00,3308.7488,N,11818.8001,W,1,11,0.8,8.5,M,-34.5,M,,*5A
$PYRTM,2024,128.001404198866,19.111051609005
$GPGGA,000200.00,3308.7473,N,11818.7979,W,1,11,0.8,8.5,M,-34.5,M,,*58
$PYRTM,2024,128.001415760347,19.111063170486
$GPGGA,000201.00,3308.7457,N,11818.7958,W,1,11,0.8,8.4,M,-34.5,M,,*5D
$PYRTM,2024,128.001427347141,19.111074757280
$GPGGA,000202.00,3308.7441,N,11818.7936,W,1,11,0.8,8.3,M,-34.5,M,,*56
$PYRTM,2024,128.001438909051,19.111086319190
$GPGGA,000203.00,3308.7426,N,11818.7914,W,1,11,0.8,8.3,M,-34.5,M,,*56
$PYRTM,2024,128.001446315903,19.111093726042
$GPGGA,000204.00,3308.7412,N,11818.7891,W,1,11,0.8,8.4,M,-34.5,M,,*5D
$PYRTM,2024,128.001462057477,19.111109467616
$GPGGA,000205.00,3308.7397,N,11818.7869,W,1,11,0.8,8.6,M,-34.5,M,,*53
$PYRTM,2024,128.001473644664,19.111121054803
$GPGGA,000206.00,3308.7381,N,11818.7847,W,1,11,0.8,8.8,M,-34.5,M,,*55
$PYRTM,2024,128.001481038738,19.111128448877
$GPGGA,000207.00,3308.7365,N,11818.7826,W,1,11,0.8,8.8,M,-34.5,M,,*59
$PYRTM,2024,128.001496792315,19.111144202454
$GPGGA,000208.00,3308.7350,N,11818.7803,W,1,11,0.8,8.9,M,-34.5,M,,*56
$PYRTM,2024,128.001504187604,19.111151597743
$GPGGA,000209.00,3308.7336,N,11818.7780,W,1,11,0.8,8.8,M,-34.5,M,,*52
$PYRTM,2024,128.001522828738,19.111170238877
$GPGGA,000210.00,3308.7323,N,11818.7757,W,1,11,0.8,8.6,M,-34.5,M,,*5A
$PYRTM,2024,128.001531503981,19.111178914120
$GPGGA,000211.00,3308.7308,N,11818.7735,W,1,11,0.8,8.3,M,-34.5,M,,*53
$PYRTM,2024,128.001543091285,19.111190501424
$GPGGA,000212.00,3308.7292,N,11818.7714,W,1,11,0.8,8.3,M,-34.5,M,,*51
$PYRTM,2024,128.001554650544,19.111202060683
$GPGGA,000213.00,3308.7277,N,11818.7693,W,1,11,0.8,8.3,M,-34.5,M,,*55
$PYRTM,2024,128.001566240370,19.111213650521
$GPGGA,000214.00,3308.7261,N,11818.7671,W,1,11,0.8,8.4,M,-34.5,M,,*5E
$PYRTM,2024,128.001577798611,19.111225208750
$GPGGA,000215.00,3308.7246,N,11818.7648,W,1,11,0.8,8.5,M,-34.5,M,,*51
$PYRTM,2024,128.001589387963,19.111236798102
$GPGGA,000216.00,3308.7231,N,11818.7625,W,1,11,0.8,8.5,M,-34.5,M,,*59
$PYRTM,2024,128.001596788056,19.111244198194
$GPGGA,000217.00,3308.7216,N,11818.7603,W,1,11,0.8,8.6,M,-34.5,M,,*5A
$PYRTM,2024,128.001612534931,19.111259945081
$GPGGA,000218.00,3308.7200,N,11818.7581,W,1,11,0.8,8.6,M,-34.5,M,,*5B
$PYRTM,2024,128.001619936053,19.111267346192
$GPGGA,000219.00,3308.7185,N,11818.7560,W,1,11,0.8,8.5,M,-34.5,M,,*58
$PYRTM,2024,128.001635682060,19.111283092211
$GPGGA,000220.00,3308.7170,N,11818.7537,W,1,11,0.8,8.4,M,-34.5,M,,*5B
$PYRTM,2024,128.001647242292,19.111294652431
$GPGGA,000221.00,3308.7156,N,11818.7515,W,1,11,0.8,8.2,M,-34.5,M,,*58
$PYRTM,2024,128.001658831111,19.111306241250
$GPGGA,000222.00,3308.7141,N,11818.7494,W,1,11,0.8,8.2,M,-34.5,M,,*55
$PYRTM,2024,128.001670392025,19.111317802164
$GPGGA,000223.00,3308.7126,N,11818.7472,W,1,11,0.8,8.2,M,-34.5,M,,*5D
$PYRTM,2024,128.001681980266,19.111329390405
$GPGGA,000224.00,3308.7111,N,11818.7449,W,1,11,0.8,8.4,M,-34.5,M,,*50
$PYRTM,2024,128.001693540394,19.111340950532
$GPGGA,000225.00,3308.7095,N,11818.7426,W,1,11,0.8,8.5,M,-34.5,M,,*54
$PYRTM,2024,128.001705130162,19.111352540301
$GPGGA,000226.00,3308.7080,N,11818.7403,W,1,11,0.8,8.7,M,-34.5,M,,*56
$PYRTM,2024,128.001716689259,19.111364099398
$GPGGA,000227.00,3308.7064,N,11818.7380,W,1,11,0.8,8.8,M,-34.5,M,,*5E
$PYRTM,2024,128.001728275683,19.111375685822
$GPGGA,000228.00,3308.7049,N,11818.7358,W,1,11,0.8,8.7,M,-34.5,M,,*54
$PYRTM,2024,128.001739836678,19.111387246817
$GPGGA,000229.00,3308.7034,N,11818.7336,W,1,11,0.8,8.5,M,-34.5,M,,*55
$PYRTM,2024,128.001751425301,19.111398835440
$GPGGA,000230.00,3308.7019,N,11818.7313,W,1,11,0.8,8.2,M,-34.5,M,,*52
$PYRTM,2024,128.001762985428,19.111410395579
$GPGGA,000231.00,3308.7005,N,11818.7291,W,1,11,0.8,7.9,M,-34.5,M,,*51
$PYRTM,2024,128.001774571921,19.111421982060
$GPGGA,000232.00,3308.6990,N,11818.7270,W,1,11,0.8,7.8,M,-34.5,M,,*58
$PYRTM,2024,128.001786134919,19.111433545058
$GPGGA,000233.00,3308.6975,N,11818.7249,W,1,11,0.8,7.8,M,-34.5,M,,*58
$PYRTM,2024,128.001797720810,19.111445130961
$GPGGA,000234.00,3308.6960,N,11818.7227,W,1,11,0.8,8.1,M,-34.5,M,,*55
$PYRTM,2024,128.001809281840,19.111456691979
$GPGGA,000235.00,3308.6945,N,11818.7204,W,1,11,0.8,8.4,M,-34.5,M,,*57
$PYRTM,2024,128.001820868727,19.111468278866
$GPGGA,000236.00,3308.6930,N,11818.7181,W,1,11,0.8,8.7,M,-34.5,M,,*5B
$PYRTM,2024,128.001828264039,19.111475674178
$GPGGA,000237.00,3308.6913,N,11818.7159,W,1,11,0.8,8.9,M,-34.5,M,,*50
$PYRTM,2024,128.001844017072,19.111491427211
$GPGGA,000238.00,3308.6897,N,11818.7137,W,1,11,0.8,8.9,M,-34.5,M,,*5A
$PYRTM,2024,128.001851412164,19.111498822315
$GPGGA,000239.00,3308.6882,N,11818.7113,W,1,11,0.8,8.7,M,-34.5,M,,*57
$PYRTM,2024,128.001863224769,19.111510634907
$GPGGA,000240.00,3308.6868,N,11818.7089,W,1,11,0.8,8.4,M,-34.5,M,,*5C
$PYRTM,2024,128.001881620567,19.111529030706
$GPGGA,000241.00,3308.6854,N,11818.7067,W,1,11,0.8,8.2,M,-34.5,M,,*54
$PYRTM,2024,128.001890316262,19.111537726400
$GPGGA,000242.00,3308.6839,N,11818.7046,W,1,11,0.8,8.0,M,-34.5,M,,*5D
$PYRTM,2024,128.001901874271,19.111549284410
$GPGGA,000243.00,3308.6824,N,11818.7025,W,1,11,0.8,7.9,M,-34.5,M,,*53
$PYRTM,2024,128.001909281944,19.111556692083
$GPGGA,000244.00,3308.6810,N,11818.7003,W,1,11,0.8,7.8,M,-34.5,M,,*56
$PYRTM,2024,128.001925022986,19.111572433125
$GPGGA,000245.00,3308.6796,N,11818.6981,W,1,11,0.8,7.9,M,-34.5,M,,*55
$PYRTM,2024,128.001936611343,19.111584021481
$GPGGA,000246.00,3308.6780,N,11818.6960,W,1,11,0.8,8.2,M,-34.5,M,,*5A
$PYRTM,2024,128.001948170139,19.111595580278
$GPGGA,000247.00,3308.6764,N,11818.6938,W,1,11,0.8,8.6,M,-34.5,M,,*58
$PYRTM,2024,128.001959758194,19.111607168333
$GPGGA,000248.00,3308.6748,N,11818.6916,W,1,11,0.8,8.8,M,-34.5,M,,*5B
$PYRTM,2024,128.001967153090,19.111614563229
$GPGGA,000249.00,3308.6733,N,11818.6892,W,1,11,0.8,8.9,M,-34.5,M,,*5A
$PYRTM,2024,128.001982906204,19.111630316343
$GPGGA,000250.00,3308.6719,N,11818.6868,W,1,11,0.8,8.8,M,-34.5,M,,*5E
$PYRTM,2024,128.001990300498,19.111637710625
$GPGGA,000251.00,3308.6704,N,11818.6844,W,1,11,0.8,8.5,M,-34.5,M,,*50
$PYRTM,2024,128.002008947569,19.111656357708
$GPGGA,000252.00,3308.6689,N,11818.6822,W,1,11,0.8,8.3,M,-34.5,M,,*51
$PYRTM,2024,128.002020509468,19.111667919618
$GPGGA,000253.00,3308.6673,N,11818.6801,W,1,11,0.8,8.2,M,-34.5,M,,*55
$PYRTM,2024,128.002029216678,19.111676626817
$GPGGA,000254.00,3308.6659,N,11818.6780,W,1,11,0.8,8.0,M,-34.5,M,,*5E
$PYRTM,2024,128.002040763438,19.111688173565
$GPGGA,000255.00,3308.6644,N,11818.6758,W,1,11,0.8,7.9,M,-34.5,M,,*50
$PYRTM,2024,128.002052353924,19.111699764063
$GPGGA,000256.00,3308.6631,N,11818.6736,W,1,11,0.8,7.9,M,-34.5,M,,*59
$PYRTM,2024,128.002063913252,19.111711323391
$GPGGA,000257.00,3308.6616,N,11818.6714,W,1,11,0.8,7.9,M,-34.5,M,,*5D
$PYRTM,2024,128.002075500104,19.111722910255
$GPGGA,000258.00,3308.6601,N,11818.6693,W,1,11,0.8,7.9,M,-34.5,M,,*5A
$PYRTM,2024,128.002087061366,19.111734471505
$GPGGA,000259.00,3308.6585,N,11818.6671,W,1,11,0.8,8.1,M,-34.5,M,,*5F
$PYRTM,2024,128.002098648079,19.111746058218
$GPGGA,000300.00,3308.6570,N,11818.6649,W,1,11,0.8,8.3,M,-34.5,M,,*51
$PYRTM,2024,128.002110209225,19.111757619363
$GPGGA,000301.00,3308.6555,N,11818.6625,W,1,11,0.8,8.4,M,-34.5,M,,*5A
$PYRTM,2024,128.002117618137,19.111765028275
$GPGGA,000302.00,3308.6539,N,11818.6602,W,1,11,0.8,8.6,M,-34.5,M,,*54
$PYRTM,2024,128.002133357859,19.111780767998
$GPGGA,000303.00,3308.6523,N,11818.6580,W,1,11,0.8,8.7,M,-34.5,M,,*56
$PYRTM,2024,128.002140765139,19.111788175289
$GPGGA,000304.00,3308.6508,N,11818.6558,W,1,11,0.8,8.8,M,-34.5,M,,*52
$PYRTM,2024,128.002156505833,19.111803915972
$GPGGA,000305.00,3308.6492,N,11818.6536,W,1,11,0.8,8.7,M,-34.5,M,,*56
$PYRTM,2024,128.002168092917,19.111815503056
$GPGGA,000306.00,3308.6478,N,11818.6514,W,1,11,0.8,8.4,M,-34.5,M,,*52
$PYRTM,2024,128.002179653970,19.111827064109
$GPGGA,000307.00,3308.6464,N,11818.6492,W,1,11,0.8,8.2,M,-34.5,M,,*57
$PYRTM,2024,128.002191356215,19.111838766366
$GPGGA,000308.00,3308.6450,N,11818.6471,W,1,11,0.8,7.9,M,-34.5,M,,*56
$PYRTM,2024,128.002198636192,19.111846046331
$GPGGA,000309.00,3308.6435,N,11818.6449,W,1,11,0.8,7.8,M,-34.5,M,,*5E
$PYRTM,2024,128.002214508542,19.111861918692
$GPGGA,000310.00,3308.6420,N,11818.6427,W,1,11,0.8,7.9,M,-34.5,M,,*5B
$PYRTM,2024,128.002221785058,19.111869195208
$GPGGA,000311.00,3308.6405,N,11818.6405,W,1,11,0.8,8.2,M,-34.5,M,,*59
$PYRTM,2024,128.002240434444,19.111887844583
$GPGGA,000312.00,3308.6389,N,11818.6382,W,1,11,0.8,8.6,M,-34.5,M,,*55
$PYRTM,2024,128.002249214560,19.111896624699
$GPGGA,000313.00,3308.6373,N,11818.6359,W,1,11,0.8,8.8,M,-34.5,M,,*59
$PYRTM,2024,128.002256507870,19.111903918009
$GPGGA,000314.00,3308.6358,N,11818.6336,W,1,11,0.8,8.9,M,-34.5,M,,*5F
$PYRTM,2024,128.002272249734,19.111919659873
$GPGGA,000315.00,3308.6343,N,11818.6313,W,1,11,0.8,8.7,M,-34.5,M,,*5D
$PYRTM,2024,128.002283836713,19.111931246852
$GPGGA,000316.00,3308.6328,N,11818.6290,W,1,11,0.8,8.4,M,-34.5,M,,*5A
$PYRTM,2024,128.002295395718,19.111942805856
$GPGGA,000317.00,3308.6314,N,11818.6269,W,1,11,0.8,8.1,M,-34.5,M,,*57
$PYRTM,2024,128.002306982269,19.111954392419
$GPGGA,000318.00,3308.6299,N,11818.6248,W,1,11,0.8,7.8,M,-34.5,M,,*59
$PYRTM,2024,128.002314378241,19.111961788380
$GPGGA,000319.00,3308.6285,N,11818.6227,W,1,11,0.8,7.7,M,-34.5,M,,*53
$PYRTM,2024,128.002330131042,19.111977541181
$GPGGA,000320.00,3308.6272,N,11818.6205,W,1,11,0.8,7.7,M,-34.5,M,,*51
$PYRTM,2024,128.002341693889,19.111989104028
$GPGGA,000321.00,3308.6257,N,11818.6183,W,1,11,0.8,7.9,M,-34.5,M,,*54
$PYRTM,2024,128.002349100289,19.111996510428
$GPGGA,000322.00,3308.6241,N,11818.6161,W,1,11,0.8,8.2,M,-34.5,M,,*58
$PYRTM,2024,128.002364840405,19.112012250544
$GPGGA,000323.00,3308.6224,N,11818.6140,W,1,11,0.8,8.6,M,-34.5,M,,*5D
$PYRTM,2024,128.002372249769,19.112019659907
$GPGGA,000324.00,3308.6208,N,11818.6118,W,1,11,0.8,8.9,M,-34.5,M,,*56
$PYRTM,2024,128.002390881910,19.112038292060
$GPGGA,000325.00,3308.6193,N,11818.6095,W,1,11,0.8,9.0,M,-34.5,M,,*5A
$PYRTM,2024,128.002399574780,19.112046984919
$GPGGA,000326.00,3308.6179,N,11818.6070,W,1,11,0.8,8.8,M,-34.5,M,,*5F
$PYRTM,2024,128.002406983241,19.112054393380
$GPGGA,000327.00,3308.6165,N,11818.6047,W,1,11,0.8,8.5,M,-34.5,M,,*5A
$PYRTM,2024,128.002422724155,19.112070134294
$GPGGA,000328.00,3308.6151,N,11818.6025,W,1,11,0.8,8.2,M,-34.5,M,,*51
$PYRTM,2024,128.002434284028,19.112081694178
$GPGGA,000329.00,3308.6136,N,11818.6004,W,1,11,0.8,7.8,M,-34.5,M,,*57
$PYRTM,2024,128.002441693530,19.112089103669
$GPGGA,000330.00,3308.6121,N,11818.5984,W,1,11,0.8,7.6,M,-34.5,M,,*55
$PYRTM,2024,128.002457433785,19.112104843924
$GPGGA,000331.00,3308.6107,N,11818.5963,W,1,11,0.8,7.7,M,-34.5,M,,*58
$PYRTM,2024,128.002469021505,19.112116431655
$GPGGA,000332.00,3308.6092,N,11818.5943,W,1,11,0.8,8.0,M,-34.5,M,,*5C
$PYRTM,2024,128.002480582002,19.112127992141
$GPGGA,000333.00,3308.6077,N,11818.5921,W,1,11,0.8,8.2,M,-34.5,M,,*50
$PYRTM,2024,128.002492170417,19.112139580556
$GPGGA,000334.00,3308.6062,N,11818.5899,W,1,11,0.8,8.3,M,-34.5,M,,*50
$PYRTM,2024,128.002503730648,19.112151140787
$GPGGA,000335.00,3308.6047,N,11818.5877,W,1,11,0.8,8.4,M,-34.5,M,,*51
$PYRTM,2024,128.002515318472,19.112162728611
$GPGGA,000336.00,3308.6032,N,11818.5855,W,1,11,0.8,8.4,M,-34.5,M,,*50
$PYRTM,2024,128.002526879097,19.112174289236
$GPGGA,000337.00,3308.6018,N,11818.5832,W,1,11,0.8,8.4,M,-34.5,M,,*58
$PYRTM,2024,128.002538480451,19.112185890602
$GPGGA,000338.00,3308.6004,N,11818.5809,W,1,11,0.8,8.3,M,-34.5,M,,*55
$PYRTM,2024,128.002550027130,19.112197437269
$GPGGA,000339.00,3308.5990,N,11818.5787,W,1,11,0.8,8.3,M,-34.5,M,,*5A
$PYRTM,2024,128.002561627685,19.112209037824
$GPGGA,000340.00,3308.5975,N,11818.5766,W,1,11,0.8,8.3,M,-34.5,M,,*50
$PYRTM,2024,128.002573175428,19.112220585579
$GPGGA,000341.00,3308.5959,N,11818.5746,W,1,11,0.8,8.2,M,-34.5,M,,*5C
$PYRTM,2024,128.002580582905,19.112227993044
$GPGGA,000342.00,3308.5945,N,11818.5724,W,1,11,0.8,8.1,M,-34.5,M,,*55
$PYRTM,2024,128.002599217002,19.112246627153
$GPGGA,000343.00,3308.5931,N,11818.5703,W,1,11,0.8,7.9,M,-34.5,M,,*55
$PYRTM,2024,128.002607911319,19.112255321458
$GPGGA,000344.00,3308.5917,N,11818.5682,W,1,11,0.8,7.8,M,-34.5,M,,*5F
$PYRTM,2024,128.002619472164,19.112266882303
$GPGGA,000345.00,3308.5902,N,11818.5660,W,1,11,0.8,7.7,M,-34.5,M,,*59
$PYRTM,2024,128.002631059583,19.112278469722
$GPGGA,000346.00,3308.5887,N,11818.5640,W,1,11,0.8,7.9,M,-34.5,M,,*5A
$PYRTM,2024,128.002638453704,19.112285863854
$GPGGA,000347.00,3308.5871,N,11818.5618,W,1,11,0.8,8.2,M,-34.5,M,,*5B
$PYRTM,2024,128.002654208692,19.112301618831
$GPGGA,000348.00,3308.5856,N,11818.5595,W,1,11,0.8,8.5,M,-34.5,M,,*50
$PYRTM,2024,128.002665770046,19.112313180185
$GPGGA,000349.00,3308.5841,N,11818.5573,W,1,11,0.8,8.7,M,-34.5,M,,*5D
$PYRTM,2024,128.002673175671,19.112320585822
$GPGGA,000350.00,3308.5825,N,11818.5550,W,1,11,0.8,8.8,M,-34.5,M,,*59
$PYRTM,2024,128.002688916713,19.112336326852
$GPGGA,000351.00,3308.5809,N,11818.5528,W,1,11,0.8,8.7,M,-34.5,M,,*56
$PYRTM,2024,128.002700506262,19.112347916400
$GPGGA,000352.00,3308.5794,N,11818.5506,W,1,11,0.8,8.4,M,-34.5,M,,*51
$PYRTM,2024,128.002712064155,19.112359474294
$GPGGA,000353.00,3308.5780,N,11818.5483,W,1,11,0.8,8.1,M,-34.5,M,,*5C
$PYRTM,2024,128.002723655197,19.112371065336
$GPGGA,000354.00,3308.5766,N,11818.5461,W,1,11,0.8,7.9,M,-34.5,M,,*58
$PYRTM,2024,128.002735214109,19.112382624248
$GPGGA,000355.00,3308.5752,N,11818.5440,W,1,11,0.8,7.8,M,-34.5,M,,*5C
$PYRTM,2024,128.002742620463,19.112390030602
$GPGGA,000356.00,3308.5736,N,11818.5420,W,1,11,0.8,7.8,M,-34.5,M,,*5B
$PYRTM,2024,128.002758361493,19.112405771632
$GPGGA,000357.00,3308.5721,N,11818.5399,W,1,11,0.8,7.8,M,-34.5,M,,*59
$PYRTM,2024,128.002769949271,19.112417359410
$GPGGA,000358.00,3308.5707,N,11818.5378,W,1,11,0.8,8.0,M,-34.5,M,,*5A
$PYRTM,2024,128.002781509051,19.112428919190
$GPGGA,000359.00,3308.5693,N,11818.5356,W,1,11,0.8,8.1,M,-34.5,M,,*5A
$PYRTM,2024,128.002788919942,19.112436330081
$GPGGA,000400.00,3308.5678,N,11818.5334,W,1,11,0.8,8.2,M,-34.5,M,,*53
$PYRTM,2024,128.002804659016,19.112452069155
$GPGGA,000401.00,3308.5663,N,11818.5311,W,1,11,0.8,8.3,M,-34.5,M,,*5E
$PYRTM,2024,128.002816240903,19.112463651042
$GPGGA,000402.00,3308.5647,N,11818.5288,W,1,11,0.8,8.5,M,-34.5,M,,*5C
$PYRTM,2024,128.002827806157,19.112475216308
$GPGGA,000403.00,3308.5631,N,11818.5267,W,1,11,0.8,8.5,M,-34.5,M,,*5D
$PYRTM,2024,128.002839395000,19.112486805150
$GPGGA,000404.00,3308.5615,N,11818.5245,W,1,11,0.8,8.6,M,-34.5,M,,*5F
$PYRTM,2024,128.002846789236,19.112494199375
$GPGGA,000405.00,3308.5600,N,11818.5223,W,1,11,0.8,8.5,M,-34.5,M,,*59
$PYRTM,2024,128.002862544178,19.112509954317
$GPGGA,000406.00,3308.5586,N,11818.5201,W,1,11,0.8,8.3,M,-34.5,M,,*51
$PYRTM,2024,128.002874102106,19.112521512245
$GPGGA,000407.00,3308.5572,N,11818.5179,W,1,11,0.8,8.0,M,-34.5,M,,*54
$PYRTM,2024,128.002885694097,19.112533104236
$GPGGA,000408.00,3308.5557,N,11818.5157,W,1,11,0.8,7.9,M,-34.5,M,,*56
$PYRTM,2024,128.002897251609,19.112544661748
$GPGGA,000409.00,3308.5541,N,11818.5137,W,1,11,0.8,7.9,M,-34.5,M,,*56
$PYRTM,2024,128.002904658484,19.112552068623
$GPGGA,000410.00,3308.5526,N,11818.5115,W,1,11,0.8,8.0,M,-34.5,M,,*59
$PYRTM,2024,128.002920399491,19.112567809630
$GPGGA,000411.00,3308.5512,N,11818.5093,W,1,11,0.8,8.3,M,-34.5,M,,*53
$PYRTM,2024,128.002931982431,19.112579392581
$GPGGA,000412.00,3308.5497,N,11818.5071,W,1,11,0.8,8.7,M,-34.5,M,,*54
$PYRTM,2024,128.002939396701,19.112586806852
$GPGGA,000413.00,3308.5483,N,11818.5048,W,1,11,0.8,8.9,M,-34.5,M,,*54
$PYRTM,2024,128.002958027685,19.112605437824
$GPGGA,000414.00,3308.5468,N,11818.5026,W,1,11,0.8,8.7,M,-34.5,M,,*50
$PYRTM,2024,128.002966696887,19.112614107025
$GPGGA,000415.00,3308.5454,N,11818.5004,W,1,11,0.8,8.4,M,-34.5,M,,*5D
$PYRTM,2024,128.002978283218,19.112625693356
$GPGGA,000416.00,3308.5440,N,11818.4981,W,1,11,0.8,8.1,M,-34.5,M,,*5B
$PYRTM,2024,128.002989844722,19.112637254861
$GPGGA,000417.00,3308.5426,N,11818.4958,W,1,11,0.8,7.8,M,-34.5,M,,*58
$PYRTM,2024,128.003001432442,19.112648842581
$GPGGA,000418.00,3308.5412,N,11818.4937,W,1,11,0.8,7.8,M,-34.5,M,,*59
$PYRTM,2024,128.003012993727,19.112660403866
$GPGGA,000419.00,3308.5396,N,11818.4916,W,1,11,0.8,7.9,M,-34.5,M,,*51
$PYRTM,2024,128.003024582639,19.112671992778
$GPGGA,000420.00,3308.5381,N,11818.4895,W,1,11,0.8,8.2,M,-34.5,M,,*53
$PYRTM,2024,128.003036140590,19.112683550729
$GPGGA,000421.00,3308.5365,N,11818.4874,W,1,11,0.8,8.5,M,-34.5,M,,*50
$PYRTM,2024,128.003043548796,19.112690958935
$GPGGA,000422.00,3308.5350,N,11818.4852,W,1,11,0.8,8.7,M,-34.5,M,,*53
$PYRTM,2024,128.003059290220,19.112706700370
$GPGGA,000423.00,3308.5336,N,11818.4829,W,1,11,0.8,8.7,M,-34.5,M,,*5E
$PYRTM,2024,128.003070879074,19.112718289213
$GPGGA,000424.00,3308.5322,N,11818.4807,W,1,11,0.8,8.5,M,-34.5,M,,*52
$PYRTM,2024,128.003082437731,19.112729847870
$GPGGA,000425.00,3308.5307,N,11818.4785,W,1,11,0.8,8.4,M,-34.5,M,,*50
$PYRTM,2024,128.003094024572,19.112741434711
$GPGGA,000426.00,3308.5292,N,11818.4764,W,1,11,0.8,8.3,M,-34.5,M,,*56
$PYRTM,2024,128.003101435116,19.112748845255
$GPGGA,000427.00,3308.5277,N,11818.4742,W,1,11,0.8,8.2,M,-34.5,M,,*59
$PYRTM,2024,128.003113109780,19.112760519919
$GPGGA,000428.00,3308.5262,N,11818.4720,W,1,11,0.8,8.3,M,-34.5,M,,*57
$PYRTM,2024,128.003128733565,19.112776143704
$GPGGA,000429.00,3308.5248,N,11818.4698,W,1,11,0.8,8.4,M,-34.5,M,,*5B
$PYRTM,2024,128.003140321539,19.112787731690
$GPGGA,000430.00,3308.5233,N,11818.4676,W,1,11,0.8,8.5,M,-34.5,M,,*5E
$PYRTM,2024,128.003151883044,19.112799293183
$GPGGA,000431.00,3308.5217,N,11818.4654,W,1,11,0.8,8.6,M,-34.5,M,,*5A
$PYRTM,2024,128.003163469549,19.112810879687
$GPGGA,000432.00,3308.5202,N,11818.4633,W,1,11,0.8,8.5,M,-34.5,M,,*5F
$PYRTM,2024,128.003175031574,19.112822441713
$GPGGA,000433.00,3308.5187,N,11818.4611,W,1,11,0.8,8.4,M,-34.5,M,,*51
$PYRTM,2024,128.003186618935,19.112834029074
$GPGGA,000434.00,3308.5174,N,11818.4588,W,1,11,0.8,8.3,M,-34.5,M,,*5E
$PYRTM,2024,128.003198179722,19.112845589861
$GPGGA,000435.00,3308.5160,N,11818.4565,W,1,11,0.8,8.0,M,-34.5,M,,*5A
$PYRTM,2024,128.003209769178,19.112857179317
$GPGGA,000436.00,3308.5146,N,11818.4544,W,1,11,0.8,7.9,M,-34.5,M,,*58
$PYRTM,2024,128.003217162905,19.112864573044
$GPGGA,000437.00,3308.5130,N,11818.4522,W,1,11,0.8,8.0,M,-34.5,M,,*5E
$PYRTM,2024,128.003232917141,19.112880327292
$GPGGA,000438.00,3308.5115,N,11818.4501,W,1,11,0.8,8.2,M,-34.5,M,,*55
$PYRTM,2024,128.003244475891,19.112891886042
$GPGGA,000439.00,3308.5099,N,11818.4478,W,1,11,0.8,8.5,M,-34.5,M,,*59
$PYRTM,2024,128.003256063600,19.112903473738
$GPGGA,000440.00,3308.5084,N,11818.4456,W,1,11,0.8,8.7,M,-34.5,M,,*55
$PYRTM,2024,128.003267624282,19.112915034433
$GPGGA,000441.00,3308.5068,N,11818.4433,W,1,11,0.8,8.7,M,-34.5,M,,*55
$PYRTM,2024,128.003279211470,19.112926621620
$GPGGA,000442.00,3308.5053,N,11818.4411,W,1,11,0.8,8.7,M,-34.5,M,,*5E
$PYRTM,2024,128.003290773102,19.112938183241
$GPGGA,000443.00,3308.5038,N,11818.4389,W,1,11,0.8,8.5,M,-34.5,M,,*56
$PYRTM,2024,128.003298181574,19.112945591713
$GPGGA,000444.00,3308.5024,N,11818.4367,W,1,11,0.8,8.3,M,-34.5,M,,*5A
$PYRTM,2024,128.003316814132,19.112964224271
$GPGGA,000445.00,3308.5011,N,11818.4345,W,1,11,0.8,8.0,M,-34.5,M,,*5E
$PYRTM,2024,128.003325507674,19.112972917812
$GPGGA,000446.00,3308.4997,N,11818.4324,W,1,11,0.8,7.8,M,-34.5,M,,*5B
$PYRTM,2024,128.003332903681,19.112980313819
$GPGGA,000447.00,3308.4983,N,11818.4303,W,1,11,0.8,7.9,M,-34.5,M,,*5B
$PYRTM,2024,128.003348650613,19.112996060752
$GPGGA,000448.00,3308.4967,N,11818.4282,W,1,11,0.8,8.0,M,-34.5,M,,*50
$PYRTM,2024,128.003360217604,19.113007627743
$GPGGA,000449.00,3308.4951,N,11818.4260,W,1,11,0.8,8.3,M,-34.5,M,,*5B
$PYRTM,2024,128.003371807755,19.113019217894
$GPGGA,000450.00,3308.4936,N,11818.4237,W,1,11,0.8,8.5,M,-34.5,M,,*56
$PYRTM,2024,128.003383365347,19.113030775486
$GPGGA,000451.00,3308.4921,N,11818.4213,W,1,11,0.8,8.8,M,-34.5,M,,*5A
$PYRTM,2024,128.003394967894,19.113042378032
$GPGGA,000452.00,3308.4906,N,11818.4189,W,1,11,0.8,8.9,M,-34.5,M,,*5D
$PYRTM,2024,128.003406514062,19.113053924213
$GPGGA,000453.00,3308.4891,N,11818.4166,W,1,11,0.8,8.9,M,-34.5,M,,*52
$PYRTM,2024,128.003418101470,19.113065511609
$GPGGA,000454.00,3308.4875,N,11818.4144,W,1,11,0.8,8.8,M,-34.5,M,,*5E
$PYRTM,2024,128.003429662627,19.113077072766
$GPGGA,000455.00,3308.4861,N,11818.4123,W,1,11,0.8,8.5,M,-34.5,M,,*56
$PYRTM,2024,128.003441249259,19.113088659398
$GPGGA,000456.00,3308.4847,N,11818.4102,W,1,11,0.8,8.2,M,-34.5,M,,*55
$PYRTM,2024,128.003448659664,19.113096069803
$GPGGA,000457.00,3308.4834,N,11818.4081,W,1,11,0.8,7.8,M,-34.5,M,,*5F
$PYRTM,2024,128.003464397141,19.113111807280
$GPGGA,000458.00,3308.4820,N,11818.4060,W,1,11,0.8,7.5,M,-34.5,M,,*57
$PYRTM,2024,128.003475958507,19.113123368646
$GPGGA,000459.00,3308.4806,N,11818.4040,W,1,11,0.8,7.4,M,-34.5,M,,*51
$PYRTM,2024,128.003483365301,19.113130775451
$GPGGA,000500.00,3308.4790,N,11818.4019,W,1,11,0.8,7.5,M,-34.5,M,,*51
$PYRTM,2024,128.003499105984,19.113146516123
$GPGGA,000501.00,3308.4774,N,11818.3997,W,1,11,0.8,8.0,M,-34.5,M,,*58
$PYRTM,2024,128.003510707616,19.113158117755
$GPGGA,000502.00,3308.4758,N,11818.3974,W,1,11,0.8,8.6,M,-34.5,M,,*5E
$PYRTM,2024,128.003522255787,19.113169665926
$GPGGA,000503.00,3308.4743,N,11818.3951,W,1,11,0.8,9.1,M,-34.5,M,,*54
$PYRTM,2024,128.003533846019,19.113181256157
$GPGGA,000504.00,3308.4728,N,11818.3927,W,1,11,0.8,9.3,M,-34.5,M,,*5D
$PYRTM,2024,128.003545403854,19.113192813993
$GPGGA,000505.00,3308.4713,N,11818.3903,W,1,11,0.8,9.2,M,-34.5,M,,*53
$PYRTM,2024,128.003556990729,19.113204400868
$GPGGA,000506.00,3308.4698,N,11818.3880,W,1,11,0.8,8.8,M,-34.5,M,,*53
$PYRTM,2024,128.003568553646,19.113215963785
$GPGGA,000507.00,3308.4685,N,11818.3858,W,1,11,0.8,8.3,M,-34.5,M,,*50
$PYRTM,2024,128.003580138958,19.113227549097
$GPGGA,000508.00,3308.4671,N,11818.3837,W,1,11,0.8,8.0,M,-34.5,M,,*5E
$PYRTM,2024,128.003591700174,19.113239110312
$GPGGA,000509.00,3308.4658,N,11818.3817,W,1,11,0.8,7.8,M,-34.5,M,,*51
$PYRTM,2024,128.003603288426,19.113250698576
$GPGGA,000510.00,3308.4644,N,11818.3797,W,1,11,0.8,7.7,M,-34.5,M,,*5C
$PYRTM,2024,128.003614849861,19.113262260000
$GPGGA,000511.00,3308.4630,N,11818.3777,W,1,11,0.8,7.7,M,-34.5,M,,*50
$PYRTM,2024,128.003626440359,19.113273850509
$GPGGA,000512.00,3308.4615,N,11818.3755,W,1,11,0.8,7.9,M,-34.5,M,,*5A
$PYRTM,2024,128.003637995359,19.113285405498
$GPGGA,000513.00,3308.4600,N,11818.3733,W,1,11,0.8,8.1,M,-34.5,M,,*58
$PYRTM,2024,128.003645403854,19.113292813993
$GPGGA,000514.00,3308.4585,N,11818.3711,W,1,11,0.8,8.4,M,-34.5,M,,*54
$PYRTM,2024,128.003657210729,19.113304620868
$GPGGA,000515.00,3308.4569,N,11818.3689,W,1,11,0.8,8.7,M,-34.5,M,,*54
$PYRTM,2024,128.003675625301,19.113323035440
$GPGGA,000516.00,3308.4554,N,11818.3667,W,1,11,0.8,8.8,M,-34.5,M,,*56
$PYRTM,2024,128.003687185590,19.113334595729
$GPGGA,000517.00,3308.4539,N,11818.3644,W,1,11,0.8,8.7,M,-34.5,M,,*52
$PYRTM,2024,128.003698774699,19.113346184838
$GPGGA,000518.00,3308.4525,N,11818.3622,W,1,11,0.8,8.6,M,-34.5,M,,*51
$PYRTM,2024,128.003707441725,19.113354851863
$GPGGA,000519.00,3308.4511,N,11818.3600,W,1,11,0.8,8.3,M,-34.5,M,,*52
$PYRTM,2024,128.003719032338,19.113366442477
$GPGGA,000520.00,3308.4497,N,11818.3579,W,1,11,0.8,8.0,M,-34.5,M,,*59
$PYRTM,2024,128.003730590752,19.113378000891
$GPGGA,000521.00,3308.4482,N,11818.3559,W,1,11,0.8,7.9,M,-34.5,M,,*58
$PYRTM,2024,128.003742180231,19.113389590370
$GPGGA,000522.00,3308.4468,N,11818.3539,W,1,11,0.8,7.9,M,-34.5,M,,*59
$PYRTM,2024,128.003753738912,19.113401149051
$GPGGA,000523.00,3308.4454,N,11818.3517,W,1,11,0.8,8.1,M,-34.5,M,,*5C
$PYRTM,2024,128.003765340475,19.113412750613
$GPGGA,000524.00,3308.4438,N,11818.3496,W,1,11,0.8,8.3,M,-34.5,M,,*5B
$PYRTM,2024,128.003776885648,19.113424295787
$GPGGA,000525.00,3308.4423,N,11818.3474,W,1,11,0.8,8.6,M,-34.5,M,,*59
$PYRTM,2024,128.003788474745,19.113435884884
$GPGGA,000526.00,3308.4408,N,11818.3452,W,1,11,0.8,8.7,M,-34.5,M,,*56
$PYRTM,2024,128.003795883426,19.113443293576
$GPGGA,000527.00,3308.4394,N,11818.3429,W,1,11,0.8,8.8,M,-34.5,M,,*56
$PYRTM,2024,128.003811622581,19.113459032731
$GPGGA,000528.00,3308.4379,N,11818.3407,W,1,11,0.8,8.7,M,-34.5,M,,*59
$PYRTM,2024,128.003823182616,19.113470592766
$GPGGA,000529.00,3308.4363,N,11818.3385,W,1,11,0.8,8.4,M,-34.5,M,,*5D
$PYRTM,2024,128.003834768553,19.113482178692
$GPGGA,000530.00,3308.4349,N,11818.3363,W,1,11,0.8,8.1,M,-34.5,M,,*50
$PYRTM,2024,128.003846331458,19.113493741597
$GPGGA,000531.00,3308.4335,N,11818.3342,W,1,11,0.8,7.9,M,-34.5,M,,*5E
$PYRTM,2024,128.003857917975,19.113505328113
$GPGGA,000532.00,3308.4322,N,11818.3321,W,1,11,0.8,7.8,M,-34.5,M,,*5F
$PYRTM,2024,128.003865312940,19.113512723079
$GPGGA,000533.00,3308.4307,N,11818.3300,W,1,11,0.8,7.8,M,-34.5,M,,*5A
$PYRTM,2024,128.003883955417,19.113531365556
$GPGGA,000534.00,3308.4292,N,11818.3279,W,1,11,0.8,7.8,M,-34.5,M,,*5F
$PYRTM,2024,128.003892626759,19.113540036898
$GPGGA,000535.00,3308.4277,N,11818.3257,W,1,11,0.8,8.0,M,-34.5,M,,*5E
$PYRTM,2024,128.003904214792,19.113551624931
$GPGGA,000536.00,3308.4262,N,11818.3235,W,1,11,0.8,8.3,M,-34.5,M,,*5E
$PYRTM,2024,128.003915775764,19.113563185903
$GPGGA,000537.00,3308.4247,N,11818.3212,W,1,11,0.8,8.6,M,-34.5,M,,*58
$PYRTM,2024,128.003927372222,19.113574782361
$GPGGA,000538.00,3308.4231,N,11818.3189,W,1,11,0.8,8.8,M,-34.5,M,,*59
$PYRTM,2024,128.003938924722,19.113586334861
$GPGGA,000539.00,3308.4216,N,11818.3166,W,1,11,0.8,8.9,M,-34.5,M,,*5D
$PYRTM,2024,128.003950514375,19.113597924514
$GPGGA,000540.00,3308.4202,N,11818.3144,W,1,11,0.8,8.7,M,-34.5,M,,*58
$PYRTM,2024,128.003962079387,19.113609489525
$GPGGA,000541.00,3308.4188,N,11818.3123,W,1,11,0.8,8.5,M,-34.5,M,,*5B
$PYRTM,2024,128.003973660521,19.113621070660
$GPGGA,000542.00,3308.4174,N,11818.3102,W,1,11,0.8,8.1,M,-34.5,M,,*5C
$PYRTM,2024,128.003985220637,19.113632630775
$GPGGA,000543.00,3308.4160,N,11818.3080,W,1,11,0.8,7.7,M,-34.5,M,,*5A
$PYRTM,2024,128.003996814109,19.113644224248
$GPGGA,000544.00,3308.4146,N,11818.3060,W,1,11,0.8,7.6,M,-34.5,M,,*56
$PYRTM,2024,128.004008371481,19.113655781620
$GPGGA,000545.00,3308.4131,N,11818.3039,W,1,11,0.8,7.6,M,-34.5,M,,*5B
$PYRTM,2024,128.004015777940,19.113663188079
$GPGGA,000546.00,3308.4116,N,11818.3017,W,1,11,0.8,7.8,M,-34.5,M,,*5F
$PYRTM,2024,128.004034409826,19.113681819965
$GPGGA,000547.00,3308.4100,N,11818.2995,W,1,11,0.8,8.2,M,-34.5,M,,*5E
$PYRTM,2024,128.004043104120,19.113690514259
$GPGGA,000548.00,3308.4085,N,11818.2972,W,1,11,0.8,8.5,M,-34.5,M,,*53
$PYRTM,2024,128.004054665660,19.113702075799
$GPGGA,000549.00,3308.4070,N,11818.2949,W,1,11,0.8,8.7,M,-34.5,M,,*52
$PYRTM,2024,128.004066252211,19.113713662350
$GPGGA,000550.00,3308.4054,N,11818.2926,W,1,11,0.8,8.8,M,-34.5,M,,*5A
$PYRTM,2024,128.004077812535,19.113725222674
$GPGGA,000551.00,3308.4040,N,11818.2903,W,1,11,0.8,8.6,M,-34.5,M,,*57
$PYRTM,2024,128.004089415301,19.113736825440
$GPGGA,000552.00,3308.4026,N,11818.2881,W,1,11,0.8,8.3,M,-34.5,M,,*5A
$PYRTM,2024,128.004100961516,19.113748371655
$GPGGA,000553.00,3308.4012,N,11818.2859,W,1,11,0.8,8.1,M,-34.5,M,,*5B
$PYRTM,2024,128.004112563403,19.113759973542
$GPGGA,000554.00,3308.3998,N,11818.2838,W,1,11,0.8,7.9,M,-34.5,M,,*50
$PYRTM,2024,128.004124110949,19.113771521088
$GPGGA,000555.00,3308.3984,N,11818.2818,W,1,11,0.8,7.8,M,-34.5,M,,*5F
$PYRTM,2024,128.004135698044,19.113783108183
$GPGGA,000556.00,3308.3969,N,11818.2798,W,1,11,0.8,8.0,M,-34.5,M,,*5F
$PYRTM,2024,128.004147258854,19.113794668993
$GPGGA,000557.00,3308.3954,N,11818.2776,W,1,11,0.8,8.3,M,-34.5,M,,*53
$PYRTM,2024,128.004158847407,19.113806257546
$GPGGA,000558.00,3308.3940,N,11818.2754,W,1,11,0.8,8.6,M,-34.5,M,,*5C
$PYRTM,2024,128.004170407963,19.113817818102
$GPGGA,000559.00,3308.3925,N,11818.2731,W,1,11,0.8,8.8,M,-34.5,M,,*53
$PYRTM,2024,128.004181993935,19.113829404074
$GPGGA,000600.00,3308.3911,N,11818.2708,W,1,11,0.8,8.8,M,-34.5,M,,*51
$PYRTM,2024,128.004193556713,19.113840966852
$GPGGA,000601.00,3308.3895,N,11818.2686,W,1,11,0.8,8.7,M,-34.5,M,,*55
$PYRTM,2024,128.004205142558,19.113852552697
$GPGGA,000602.00,3308.3880,N,11818.2664,W,1,11,0.8,8.5,M,-34.5,M,,*5C
$PYRTM,2024,128.004216705683,19.113864115822
$GPGGA,000603.00,3308.3866,N,11818.2642,W,1,11,0.8,8.3,M,-34.5,M,,*57
$PYRTM,2024,128.004224110718,19.113871520868
$GPGGA,000604.00,3308.3852,N,11818.2620,W,1,11,0.8,8.1,M,-34.5,M,,*51
$PYRTM,2024,128.004235801562,19.113883211701
$GPGGA,000605.00,3308.3837,N,11818.2598,W,1,11,0.8,7.9,M,-34.5,M,,*54
$PYRTM,2024,128.004251433924,19.113898844063
$GPGGA,000606.00,3308.3822,N,11818.2578,W,1,11,0.8,7.9,M,-34.5,M,,*5D
$PYRTM,2024,128.004263001435,19.113910411574
$GPGGA,000607.00,3308.3806,N,11818.2557,W,1,11,0.8,7.9,M,-34.5,M,,*57
$PYRTM,2024,128.004274591308,19.113922001447
$GPGGA,000608.00,3308.3792,N,11818.2535,W,1,11,0.8,8.2,M,-34.5,M,,*5A
$PYRTM,2024,128.004281982280,19.113929392419
$GPGGA,000609.00,3308.3777,N,11818.2513,W,1,11,0.8,8.4,M,-34.5,M,,*52
$PYRTM,2024,128.004297740428,19.113945150567
$GPGGA,000610.00,3308.3763,N,11818.2491,W,1,11,0.8,8.6,M,-34.5,M,,*56
$PYRTM,2024,128.004309296944,19.113956707083
$GPGGA,000611.00,3308.3748,N,11818.2469,W,1,11,0.8,8.5,M,-34.5,M,,*5A
$PYRTM,2024,128.004320885324,19.113968295463
$GPGGA,000612.00,3308.3733,N,11818.2447,W,1,11,0.8,8.5,M,-34.5,M,,*59
$PYRTM,2024,128.004332444745,19.113979854884
$GPGGA,000613.00,3308.3719,N,11818.2426,W,1,11,0.8,8.4,M,-34.5,M,,*56
$PYRTM,2024,128.004339852558,19.113987262697
$GPGGA,000614.00,3308.3705,N,11818.2403,W,1,11,0.8,8.3,M,-34.5,M,,*5C
$PYRTM,2024,128.004355593600,19.114003003738
$GPGGA,000615.00,3308.3691,N,11818.2381,W,1,11,0.8,8.2,M,-34.5,M,,*5D
$PYRTM,2024,128.004367181597,19.114014591736
$GPGGA,000616.00,3308.3676,N,11818.2359,W,1,11,0.8,8.2,M,-34.5,M,,*52
$PYRTM,2024,128.004374577153,19.114021987292
$GPGGA,000617.00,3308.3661,N,11818.2338,W,1,11,0.8,8.2,M,-34.5,M,,*52
$PYRTM,2024,128.004393222616,19.114040632755
$GPGGA,000618.00,3308.3646,N,11818.2315,W,1,11,0.8,8.3,M,-34.5,M,,*56
$PYRTM,2024,128.004401890266,19.114049300417
$GPGGA,000619.00,3308.3630,N,11818.2292,W,1,11,0.8,8.4,M,-34.5,M,,*5F
$PYRTM,2024,128.004413480718,19.114060890868
$GPGGA,000620.00,3308.3615,N,11818.2270,W,1,11,0.8,8.5,M,-34.5,M,,*5F
$PYRTM,2024,128.004425038542,19.114072448681
$GPGGA,000621.00,3308.3599,N,11818.2247,W,1,11,0.8,8.6,M,-34.5,M,,*5E
$PYRTM,2024,128.004436640069,19.114084050208
$GPGGA,000622.00,3308.3583,N,11818.2225,W,1,11,0.8,8.5,M,-34.5,M,,*51
$PYRTM,2024,128.004448187014,19.114095597153
$GPGGA,000623.00,3308.3568,N,11818.2203,W,1,11,0.8,8.4,M,-34.5,M,,*50
$PYRTM,2024,128.004459788692,19.114107198831
$GPGGA,000624.00,3308.3554,N,11818.2181,W,1,11,0.8,8.2,M,-34.5,M,,*57
$PYRTM,2024,128.004471334919,19.114118745058
$GPGGA,000625.00,3308.3540,N,11818.2160,W,1,11,0.8,8.0,M,-34.5,M,,*5E
$PYRTM,2024,128.004478744618,19.114126154769
$GPGGA,000626.00,3308.3526,N,11818.2139,W,1,11,0.8,7.9,M,-34.5,M,,*57
$PYRTM,2024,128.004494483380,19.114141893519
$GPGGA,000627.00,3308.3512,N,11818.2118,W,1,11,0.8,8.0,M,-34.5,M,,*54
$PYRTM,2024,128.004506070787,19.114153480926
$GPGGA,000628.00,3308.3497,N,11818.2096,W,1,11,0.8,8.1,M,-34.5,M,,*51
$PYRTM,2024,128.004517631782,19.114165041921
$GPGGA,000629.00,3308.3482,N,11818.2074,W,1,11,0.8,8.3,M,-34.5,M,,*5A
$PYRTM,2024,128.004529219086,19.114176629236
$GPGGA,000630.00,3308.3467,N,11818.2051,W,1,11,0.8,8.5,M,-34.5,M,,*58
$PYRTM,2024,128.004536613715,19.114184023854
$GPGGA,000631.00,3308.3452,N,11818.2029,W,1,11,0.8,8.8,M,-34.5,M,,*5D
$PYRTM,2024,128.004552367292,19.114199777442
$GPGGA,000632.00,3308.3436,N,11818.2007,W,1,11,0.8,9.0,M,-34.5,M,,*59
$PYRTM,2024,128.004563928542,19.114211338681
$GPGGA,000633.00,3308.3421,N,11818.1984,W,1,11,0.8,9.0,M,-34.5,M,,*5F
$PYRTM,2024,128.004575515243,19.114222925382
$GPGGA,000634.00,3308.3407,N,11818.1960,W,1,11,0.8,8.8,M,-34.5,M,,*5F
$PYRTM,2024,128.004587076019,19.114234486157
$GPGGA,000635.00,3308.3394,N,11818.1937,W,1,11,0.8,8.5,M,-34.5,M,,*5C
$PYRTM,2024,128.004594483356,19.114241893495
$GPGGA,000636.00,3308.3380,N,11818.1915,W,1,11,0.8,8.2,M,-34.5,M,,*5D
$PYRTM,2024,128.004606173912,19.114253584051
$GPGGA,000637.00,3308.3365,N,11818.1893,W,1,11,0.8,7.9,M,-34.5,M,,*5C
$PYRTM,2024,128.004621811806,19.114269221944
$GPGGA,000638.00,3308.3350,N,11818.1873,W,1,11,0.8,7.9,M,-34.5,M,,*5B
$PYRTM,2024,128.004629220914,19.114276631065
$GPGGA,000639.00,3308.3334,N,11818.1852,W,1,11,0.8,8.1,M,-34.5,M,,*5C
$PYRTM,2024,128.004644960787,19.114292370926
$GPGGA,000640.00,3308.3320,N,11818.1830,W,1,11,0.8,8.4,M,-34.5,M,,*56
$PYRTM,2024,128.004656522708,19.114303932847
$GPGGA,000641.00,3308.3306,N,11818.1807,W,1,11,0.8,8.6,M,-34.5,M,,*55
$PYRTM,2024,128.004668110475,19.114315520625
$GPGGA,000642.00,3308.3292,N,11818.1784,W,1,11,0.8,8.8,M,-34.5,M,,*50
$PYRTM,2024,128.004679670579,19.114327080718
$GPGGA,000643.00,3308.3278,N,11818.1761,W,1,11,0.8,8.8,M,-34.5,M,,*5E
$PYRTM,2024,128.004691257419,19.114338667558
$GPGGA,000644.00,3308.3264,N,11818.1740,W,1,11,0.8,8.7,M,-34.5,M,,*58
$PYRTM,2024,128.004702819363,19.114350229502
$GPGGA,000645.00,3308.3249,N,11818.1719,W,1,11,0.8,8.6,M,-34.5,M,,*5B
$PYRTM,2024,128.004714405694,19.114361815833
$GPGGA,000646.00,3308.3235,N,11818.1698,W,1,11,0.8,8.5,M,-34.5,M,,*58
$PYRTM,2024,128.004725966701,19.114373376852
$GPGGA,000647.00,3308.3220,N,11818.1677,W,1,11,0.8,8.3,M,-34.5,M,,*5A
$PYRTM,2024,128.004733372998,19.114380783137
$GPGGA,000648.00,3308.3206,N,11818.1654,W,1,11,0.8,8.3,M,-34.5,M,,*50
$PYRTM,2024,128.004752007581,19.114399417720
$GPGGA,000649.00,3308.3192,N,11818.1633,W,1,11,0.8,8.3,M,-34.5,M,,*5E
$PYRTM,2024,128.004760704317,19.114408114456
$GPGGA,000650.00,3308.3177,N,11818.1612,W,1,11,0.8,8.4,M,-34.5,M,,*59
$PYRTM,2024,128.004772262813,19.114419672951
$GPGGA,000651.00,3308.3161,N,11818.1591,W,1,11,0.8,8.4,M,-34.5,M,,*57
$PYRTM,2024,128.004783852569,19.114431262708
$GPGGA,000652.00,3308.3147,N,11818.1569,W,1,11,0.8,8.4,M,-34.5,M,,*57
$PYRTM,2024,128.004795410440,19.114442820579
$GPGGA,000653.00,3308.3134,N,11818.1546,W,1,11,0.8,8.5,M,-34.5,M,,*5E
$PYRTM,2024,128.004806999178,19.114454409317
$GPGGA,000654.00,3308.3120,N,11818.1523,W,1,11,0.8,8.5,M,-34.5,M,,*5F
$PYRTM,2024,128.004818559039,19.114465969178
$GPGGA,000655.00,3308.3105,N,11818.1502,W,1,11,0.8,8.5,M,-34.5,M,,*5A
$PYRTM,2024,128.004830146458,19.114477556597
$GPGGA,000656.00,3308.3089,N,11818.1480,W,1,11,0.8,8.5,M,-34.5,M,,*57
$PYRTM,2024,128.004841707002,19.114489117141
$GPGGA,000657.00,3308.3074,N,11818.1459,W,1,11,0.8,8.5,M,-34.5,M,,*50
$PYRTM,2024,128.004853294803,19.114500704942
$GPGGA,000658.00,3308.3060,N,11818.1436,W,1,11,0.8,8.7,M,-34.5,M,,*51
$PYRTM,2024,128.004864855243,19.114512265382
$GPGGA,000659.00,3308.3046,N,11818.1414,W,1,11,0.8,8.8,M,-34.5,M,,*5B
$PYRTM,2024,128.004876443924,19.114523854074
$GPGGA,000700.00,3308.3032,N,11818.1392,W,1,11,0.8,8.8,M,-34.5,M,,*5C
$PYRTM,2024,128.004888003866,19.114535414005
$GPGGA,000701.00,3308.3018,N,11818.1371,W,1,11,0.8,8.8,M,-34.5,M,,*58
$PYRTM,2024,128.004899591644,19.114547001782
$GPGGA,000702.00,3308.3004,N,11818.1350,W,1,11,0.8,8.8,M,-34.5,M,,*55
$PYRTM,2024,128.004906989190,19.114554399329
$GPGGA,000703.00,3308.2989,N,11818.1328,W,1,11,0.8,8.6,M,-34.5,M,,*58
$PYRTM,2024,128.004922742824,19.114570152963
$GPGGA,000704.00,3308.2976,N,11818.1306,W,1,11,0.8,8.4,M,-34.5,M,,*51
$PYRTM,2024,128.004934301562,19.114581711701
$GPGGA,000705.00,3308.2962,N,11818.1284,W,1,11,0.8,8.3,M,-34.5,M,,*59
$PYRTM,2024,128.004945902512,19.114593312650
$GPGGA,000706.00,3308.2946,N,11818.1263,W,1,11,0.8,8.4,M,-34.5,M,,*52
$PYRTM,2024,128.004957449410,19.114604859549
$GPGGA,000707.00,3308.2930,N,11818.1241,W,1,11,0.8,8.5,M,-34.5,M,,*53
$PYRTM,2024,128.004964856759,19.114612266898
$GPGGA,000708.00,3308.2914,N,11818.1219,W,1,11,0.8,8.5,M,-34.5,M,,*57
$PYRTM,2024,128.004976562650,19.114623972789
$GPGGA,000709.00,3308.2900,N,11818.1196,W,1,11,0.8,8.7,M,-34.5,M,,*55
$PYRTM,2024,128.004992185880,19.114639596019
$GPGGA,000710.00,3308.2885,N,11818.1173,W,1,11,0.8,8.8,M,-34.5,M,,*55
$PYRTM,2024,128.005003747141,19.114651157280
$GPGGA,000711.00,3308.2870,N,11818.1151,W,1,11,0.8,8.8,M,-34.5,M,,*5E
$PYRTM,2024,128.005015332569,19.114662742708
$GPGGA,000712.00,3308.2856,N,11818.1129,W,1,11,0.8,8.7,M,-34.5,M,,*59
$PYRTM,2024,128.005026894086,19.114674304225
$GPGGA,000713.00,3308.2842,N,11818.1107,W,1,11,0.8,8.6,M,-34.5,M,,*50
$PYRTM,2024,128.005038480995,19.114685891134
$GPGGA,000714.00,3308.2829,N,11818.1085,W,1,11,0.8,8.5,M,-34.5,M,,*52
$PYRTM,2024,128.005050042477,19.114697452616
$GPGGA,000715.00,3308.2814,N,11818.1063,W,1,11,0.8,8.4,M,-34.5,M,,*54
$PYRTM,2024,128.005061629051,19.114709039201
$GPGGA,000716.00,3308.2799,N,11818.1042,W,1,11,0.8,8.5,M,-34.5,M,,*5F
$PYRTM,2024,128.005073190278,19.114720600417
$GPGGA,000717.00,3308.2784,N,11818.1022,W,1,11,0.8,8.8,M,-34.5,M,,*59
$PYRTM,2024,128.005084777928,19.114732188067
$GPGGA,000718.00,3308.2769,N,11818.1000,W,1,11,0.8,9.0,M,-34.5,M,,*5C
$PYRTM,2024,128.005092173484,19.114739583634
$GPGGA,000719.00,3308.2755,N,11818.0976,W,1,11,0.8,9.0,M,-34.5,M,,*5B
$PYRTM,2024,128.005110818472,19.114758228611
$GPGGA,000720.00,3308.2740,N,11818.0952,W,1,11,0.8,8.9,M,-34.5,M,,*5B
$PYRTM,2024,128.005119602604,19.114767012755
$GPGGA,000721.00,3308.2726,N,11818.0930,W,1,11,0.8,8.8,M,-34.5,M,,*5F
$PYRTM,2024,128.005131204919,19.114778615058
$GPGGA,000722.00,3308.2711,N,11818.0909,W,1,11,0.8,8.7,M,-34.5,M,,*5D
$PYRTM,2024,128.005142636725,19.114790046863
$GPGGA,000723.00,3308.2696,N,11818.0887,W,1,11,0.8,8.6,M,-34.5,M,,*54
$PYRTM,2024,128.005154223484,19.114801633623
$GPGGA,000724.00,3308.2681,N,11818.0866,W,1,11,0.8,8.5,M,-34.5,M,,*59
$PYRTM,2024,128.005165783692,19.114813193831
$GPGGA,000725.00,3308.2667,N,11818.0844,W,1,11,0.8,8.3,M,-34.5,M,,*56
$PYRTM,2024,128.005177370579,19.114824780718
$GPGGA,000726.00,3308.2653,N,11818.0822,W,1,11,0.8,8.2,M,-34.5,M,,*53
$PYRTM,2024,128.005188932396,19.114836342535
$GPGGA,000727.00,3308.2639,N,11818.0800,W,1,11,0.8,8.2,M,-34.5,M,,*5E
$PYRTM,2024,128.005200519595,19.114847929734
$GPGGA,000728.00,3308.2624,N,11818.0779,W,1,11,0.8,8.3,M,-34.5,M,,*5D
$PYRTM,2024,128.005212082025,19.114859492164
$GPGGA,000729.00,3308.2608,N,11818.0757,W,1,11,0.8,8.5,M,-34.5,M,,*58
$PYRTM,2024,128.005223669491,19.114871079630
$GPGGA,000730.00,3308.2594,N,11818.0735,W,1,11,0.8,8.8,M,-34.5,M,,*5F
$PYRTM,2024,128.005235228947,19.114882639086
$GPGGA,000731.00,3308.2579,N,11818.0714,W,1,11,0.8,9.0,M,-34.5,M,,*57
$PYRTM,2024,128.005246818356,19.114894228495
$GPGGA,000732.00,3308.2564,N,11818.0692,W,1,11,0.8,9.1,M,-34.5,M,,*56
$PYRTM,2024,128.005258376840,19.114905786979
$GPGGA,000733.00,3308.2550,N,11818.0670,W,1,11,0.8,9.1,M,-34.5,M,,*5C
$PYRTM,2024,128.005269966285,19.114917376424
$GPGGA,000734.00,3308.2536,N,11818.0647,W,1,11,0.8,9.0,M,-34.5,M,,*5E
$PYRTM,2024,128.005281526562,19.114928936701
$GPGGA,000735.00,3308.2522,N,11818.0625,W,1,11,0.8,8.9,M,-34.5,M,,*56
$PYRTM,2024,128.005293128125,19.114940538264
$GPGGA,000736.00,3308.2507,N,11818.0603,W,1,11,0.8,8.7,M,-34.5,M,,*58
$PYRTM,2024,128.005304674375,19.114952084525
$GPGGA,000737.00,3308.2492,N,11818.0581,W,1,11,0.8,8.6,M,-34.5,M,,*5C
$PYRTM,2024,128.005316260579,19.114963670729
$GPGGA,000738.00,3308.2477,N,11818.0560,W,1,11,0.8,8.6,M,-34.5,M,,*57
$PYRTM,2024,128.005327823102,19.114975233241
$GPGGA,000739.00,3308.2462,N,11818.0538,W,1,11,0.8,8.7,M,-34.5,M,,*5E
$PYRTM,2024,128.005335228171,19.114982638310
$GPGGA,000740.00,3308.2447,N,11818.0515,W,1,11,0.8,8.7,M,-34.5,M,,*58
$PYRTM,2024,128.005346934803,19.114994344942
$GPGGA,000741.00,3308.2432,N,11818.0493,W,1,11,0.8,8.6,M,-34.5,M,,*55
$PYRTM,2024,128.005365450312,19.115012860463
$GPGGA,000742.00,3308.2417,N,11818.0471,W,1,11,0.8,8.6,M,-34.5,M,,*5D
$PYRTM,2024,128.005374120428,19.115021530579
$GPGGA,000743.00,3308.2402,N,11818.0449,W,1,11,0.8,8.6,M,-34.5,M,,*53
$PYRTM,2024,128.005385705787,19.115033115926
$GPGGA,000744.00,3308.2388,N,11818.0427,W,1,11,0.8,8.7,M,-34.5,M,,*58
$PYRTM,2024,128.005393101644,19.115040511782
$GPGGA,000745.00,3308.2373,N,11818.0405,W,1,11,0.8,8.7,M,-34.5,M,,*5D
$PYRTM,2024,128.005408854977,19.115056265116
$GPGGA,000746.00,3308.2359,N,11818.0383,W,1,11,0.8,8.7,M,-34.5,M,,*5F
$PYRTM,2024,128.005420414977,19.115067825116
$GPGGA,000747.00,3308.2344,N,11818.0361,W,1,11,0.8,8.9,M,-34.5,M,,*50
$PYRTM,2024,128.005432005035,19.115079415174
$GPGGA,000748.00,3308.2328,N,11818.0340,W,1,11,0.8,9.0,M,-34.5,M,,*5E
$PYRTM,2024,128.005443564282,19.115090974421
$GPGGA,000749.00,3308.2313,N,11818.0318,W,1,11,0.8,9.0,M,-34.5,M,,*5A
$PYRTM,2024,128.005450970023,19.115098380162
$GPGGA,000750.00,3308.2299,N,11818.0295,W,1,11,0.8,9.1,M,-34.5,M,,*54
$PYRTM,2024,128.005469605417,19.115117015556
$GPGGA,000751.00,3308.2284,N,11818.0273,W,1,11,0.8,9.0,M,-34.5,M,,*50
$PYRTM,2024,128.005478297951,19.115125708090
$GPGGA,000752.00,3308.2269,N,11818.0251,W,1,11,0.8,8.9,M,-34.5,M,,*58
$PYRTM,2024,128.005485708310,19.115133118449
$GPGGA,000753.00,3308.2254,N,11818.0229,W,1,11,0.8,8.8,M,-34.5,M,,*59
$PYRTM,2024,128.005501442211,19.115148852350
$GPGGA,000754.00,3308.2240,N,11818.0207,W,1,11,0.8,8.7,M,-34.5,M,,*58
$PYRTM,2024,128.005513008507,19.115160418646
$GPGGA,000755.00,3308.2225,N,11818.0185,W,1,11,0.8,8.6,M,-34.5,M,,*52
$PYRTM,2024,128.005524594884,19.115172005023
$GPGGA,000756.00,3308.2210,N,11818.0163,W,1,11,0.8,8.6,M,-34.5,M,,*5F
$PYRTM,2024,128.005536156458,19.115183566597
$GPGGA,000757.00,3308.2195,N,11818.0140,W,1,11,0.8,8.6,M,-34.5,M,,*51
$PYRTM,2024,128.005543563056,19.115190973194
$GPGGA,000758.00,3308.2181,N,11818.0118,W,1,11,0.8,8.7,M,-34.5,M,,*57
$PYRTM,2024,128.005559305590,19.115206715729
$GPGGA,000759.00,3308.2166,N,11818.0096,W,1,11,0.8,8.8,M,-34.5,M,,*57
$PYRTM,2024,128.005570891481,19.115218301632
$GPGGA,000800.00,3308.2150,N,11818.0075,W,1,11,0.8,9.0,M,-34.5,M,,*55
$PYRTM,2024,128.005582451782,19.115229861921
$GPGGA,000801.00,3308.2135,N,11818.0052,W,1,11,0.8,9.1,M,-34.5,M,,*53
$PYRTM,2024,128.005594043356,19.115241453495
$GPGGA,000802.00,3308.2121,N,11818.0030,W,1,11,0.8,9.2,M,-34.5,M,,*52
$PYRTM,2024,128.005601435278,19.115248845428
$GPGGA,000803.00,3308.2106,N,11818.0008,W,1,11,0.8,9.3,M,-34.5,M,,*5C
$PYRTM,2024,128.005617191100,19.115264601238
$GPGGA,000804.00,3308.2092,N,11817.9985,W,1,11,0.8,9.3,M,-34.5,M,,*5D
$PYRTM,2024,128.005628749549,19.115276159688
$GPGGA,000805.00,3308.2077,N,11817.9962,W,1,11,0.8,9.2,M,-34.5,M,,*5F
$PYRTM,2024,128.005640338137,19.115287748275
$GPGGA,000806.00,3308.2063,N,11817.9940,W,1,11,0.8,9.1,M,-34.5,M,,*5A
$PYRTM,2024,128.005651897060,19.115299307199
$GPGGA,000807.00,3308.2047,N,11817.9919,W,1,11,0.8,9.0,M,-34.5,M,,*50
$PYRTM,2024,128.005659305012,19.115306715150
$GPGGA,000808.00,3308.2030,N,11817.9898,W,1,11,0.8,9.0,M,-34.5,M,,*57
$PYRTM,2024,128.005675045255,19.115322455405
$GPGGA,000809.00,3308.2015,N,11817.9876,W,1,11,0.8,8.9,M,-34.5,M,,*59
$PYRTM,2024,128.005686634942,19.115334045093
$GPGGA,000810.00,3308.2001,N,11817.9854,W,1,11,0.8,8.8,M,-34.5,M,,*55
$PYRTM,2024,128.005698194225,19.115345604363
$GPGGA,000811.00,3308.1988,N,11817.9831,W,1,11,0.8,8.8,M,-34.5,M,,*5C
$PYRTM,2024,128.005709782187,19.115357192326
$GPGGA,000812.00,3308.1973,N,11817.9809,W,1,11,0.8,8.8,M,-34.5,M,,*50
$PYRTM,2024,128.005717175799,19.115364585938
$GPGGA,000813.00,3308.1957,N,11817.9788,W,1,11,0.8,8.8,M,-34.5,M,,*51
$PYRTM,2024,128.005732930312,19.115380340463
$GPGGA,000814.00,3308.1941,N,11817.9766,W,1,11,0.8,8.9,M,-34.5,M,,*50
$PYRTM,2024,128.005744492037,19.115391902176
$GPGGA,000815.00,3308.1927,N,11817.9744,W,1,11,0.8,9.0,M,-34.5,M,,*59
$PYRTM,2024,128.005756072975,19.115403483113
$GPGGA,000816.00,3308.1913,N,11817.9720,W,1,11,0.8,9.3,M,-34.5,M,,*5C
$PYRTM,2024,128.005767639688,19.115415049838
$GPGGA,000817.00,3308.1898,N,11817.9697,W,1,11,0.8,9.3,M,-34.5,M,,*52
$PYRTM,2024,128.005779229919,19.115426640058
$GPGGA,000818.00,3308.1882,N,11817.9673,W,1,11,0.8,9.3,M,-34.5,M,,*5C
$PYRTM,2024,128.005790788715,19.115438198854
$GPGGA,000819.00,3308.1867,N,11817.9650,W,1,11,0.8,9.2,M,-34.5,M,,*56
$PYRTM,2024,128.005798195185,19.115445605324
$GPGGA,000820.00,3308.1851,N,11817.9627,W,1,11,0.8,9.2,M,-34.5,M,,*59
$PYRTM,2024,128.005809901678,19.115457311817
$GPGGA,000821.00,3308.1836,N,11817.9605,W,1,11,0.8,9.2,M,-34.5,M,,*59
$PYRTM,2024,128.005828416806,19.115475826956
$GPGGA,000822.00,3308.1821,N,11817.9583,W,1,11,0.8,9.2,M,-34.5,M,,*51
$PYRTM,2024,128.005837084468,19.115484494606
$GPGGA,000823.00,3308.1806,N,11817.9561,W,1,11,0.8,9.0,M,-34.5,M,,*5B
$PYRTM,2024,128.005848671736,19.115496081875
$GPGGA,000824.00,3308.1792,N,11817.9539,W,1,11,0.8,8.8,M,-34.5,M,,*5A
$PYRTM,2024,128.005856065556,19.115503475694
$GPGGA,000825.00,3308.1779,N,11817.9517,W,1,11,0.8,8.6,M,-34.5,M,,*5C
$PYRTM,2024,128.005871818993,19.115519229132
$GPGGA,000826.00,3308.1764,N,11817.9496,W,1,11,0.8,8.5,M,-34.5,M,,*58
$PYRTM,2024,128.005883381053,19.115530791192
$GPGGA,000827.00,3308.1749,N,11817.9474,W,1,11,0.8,8.5,M,-34.5,M,,*5A
$PYRTM,2024,128.005894967616,19.115542377755
$GPGGA,000828.00,3308.1733,N,11817.9453,W,1,11,0.8,8.7,M,-34.5,M,,*5F
$PYRTM,2024,128.005906528889,19.115553939039
$GPGGA,000829.00,3308.1717,N,11817.9430,W,1,11,0.8,9.0,M,-34.5,M,,*5B
$PYRTM,2024,128.005913936655,19.115561346794
$GPGGA,000830.00,3308.1702,N,11817.9406,W,1,11,0.8,9.3,M,-34.5,M,,*51
$PYRTM,2024,128.005929677662,19.115577087801
$GPGGA,000831.00,3308.1686,N,11817.9382,W,1,11,0.8,9.4,M,-34.5,M,,*51
$PYRTM,2024,128.005941268993,19.115588679144
$GPGGA,000832.00,3308.1671,N,11817.9358,W,1,11,0.8,9.4,M,-34.5,M,,*5D
$PYRTM,2024,128.005952827118,19.115600237269
$GPGGA,000833.00,3308.1656,N,11817.9335,W,1,11,0.8,9.3,M,-34.5,M,,*55
$PYRTM,2024,128.005964427269,19.115611837419
$GPGGA,000834.00,3308.1641,N,11817.9313,W,1,11,0.8,9.1,M,-34.5,M,,*52
$PYRTM,2024,128.005975973403,19.115623383542
$GPGGA,000835.00,3308.1628,N,11817.9290,W,1,11,0.8,8.8,M,-34.5,M,,*5E
$PYRTM,2024,128.005987559919,19.115634970058
$GPGGA,000836.00,3308.1614,N,11817.9268,W,1,11,0.8,8.6,M,-34.5,M,,*5B
$PYRTM,2024,128.005999121539,19.115646531678
$GPGGA,000837.00,3308.1600,N,11817.9247,W,1,11,0.8,8.6,M,-34.5,M,,*52
$PYRTM,2024,128.006006530104,19.115653940243
$GPGGA,000838.00,3308.1584,N,11817.9227,W,1,11,0.8,8.7,M,-34.5,M,,*55
$PYRTM,2024,128.006022270868,19.115669681007
$GPGGA,000839.00,3308.1569,N,11817.9206,W,1,11,0.8,8.8,M,-34.5,M,,*5B
$PYRTM,2024,128.006029678067,19.115677088206
$GPGGA,000840.00,3308.1555,N,11817.9183,W,1,11,0.8,9.0,M,-34.5,M,,*5D
$PYRTM,2024,128.006045420266,19.115692830405
