$PYRTM,2024,126.833348555475,17.942995965625
$GPGGA,200000.00,3356.5528,N,11932.2518,W,1,08,1.0,5.8,M,-33.8,M,,*52
$PYRTM,2024,126.833360233137,17.943007643275
$GPGGA,200001.00,3356.5526,N,11932.2520,W,1,08,1.0,5.8,M,-33.8,M,,*56
$PYRTM,2024,126.833367512315,17.943014922454
$GPGGA,200002.00,3356.5524,N,11932.2524,W,1,08,1.0,5.8,M,-33.8,M,,*53
$PYRTM,2024,126.833383381852,17.943030791991
$GPGGA,200003.00,3356.5523,N,11932.2527,W,1,08,1.0,5.8,M,-33.8,M,,*56
$PYRTM,2024,126.833390661389,17.943038071528
$GPGGA,200004.00,3356.5522,N,11932.2531,W,1,08,1.0,5.8,M,-33.8,M,,*57
$PYRTM,2024,126.833402353056,17.943049763194
$GPGGA,200005.00,3356.5520,N,11932.2534,W,1,08,1.0,5.8,M,-33.8,M,,*51
$PYRTM,2024,126.833418001562,17.943065411713
$GPGGA,200006.00,3356.5518,N,11932.2536,W,1,08,1.0,5.8,M,-33.8,M,,*5B
$PYRTM,2024,126.833429558912,17.943076969051
$GPGGA,200007.00,3356.5515,N,11932.2538,W,1,08,1.0,5.8,M,-33.8,M,,*59
$PYRTM,2024,126.833436957269,17.943084367407
$GPGGA,200008.00,3356.5513,N,11932.2541,W,1,08,1.0,5.9,M,-33.8,M,,*5F
$PYRTM,2024,126.833448660903,17.943096071042
$GPGGA,200009.00,3356.5513,N,11932.2545,W,1,08,1.0,5.9,M,-33.8,M,,*5A
$PYRTM,2024,126.833467179676,17.943114589815
$GPGGA,200010.00,3356.5512,N,11932.2550,W,1,08,1.0,5.9,M,-33.8,M,,*57
$PYRTM,2024,126.833478749051,17.943126159201
$GPGGA,200011.00,3356.5510,N,11932.2552,W,1,08,1.0,5.9,M,-33.8,M,,*56
$PYRTM,2024,126.833490328322,17.943137738461
$GPGGA,200012.00,3356.5507,N,11932.2554,W,1,08,1.0,5.9,M,-33.8,M,,*55
$PYRTM,2024,126.833499008275,17.943146418414
$GPGGA,200013.00,3356.5504,N,11932.2556,W,1,08,1.0,5.9,M,-33.8,M,,*55
$PYRTM,2024,126.833510594861,17.943158005000
$GPGGA,200014.00,3356.5502,N,11932.2559,W,1,08,1.0,5.9,M,-33.8,M,,*5B
$PYRTM,2024,126.833522151505,17.943169561644
$GPGGA,200015.00,3356.5501,N,11932.2564,W,1,08,1.0,5.9,M,-33.8,M,,*57
$PYRTM,2024,126.833533746250,17.943181156389
$GPGGA,200016.00,3356.5501,N,11932.2568,W,1,08,1.0,5.9,M,-33.8,M,,*58
$PYRTM,2024,126.833541131285,17.943188541424
$GPGGA,200017.00,3356.5499,N,11932.2570,W,1,08,1.0,5.9,M,-33.8,M,,*50
$PYRTM,2024,126.833556885822,17.943204295972
$GPGGA,200018.00,3356.5496,N,11932.2571,W,1,08,1.0,5.9,M,-33.8,M,,*51
$PYRTM,2024,126.833568446169,17.943215856308
$GPGGA,200019.00,3356.5493,N,11932.2574,W,1,08,1.0,5.9,M,-33.8,M,,*50
$PYRTM,2024,126.833580034757,17.943227444907
$GPGGA,200020.00,3356.5491,N,11932.2578,W,1,08,1.0,5.9,M,-33.8,M,,*54
$PYRTM,2024,126.833591600891,17.943239011030
$GPGGA,200021.00,3356.5491,N,11932.2581,W,1,08,1.0,5.9,M,-33.8,M,,*53
$PYRTM,2024,126.833603187037,17.943250597176
$GPGGA,200022.00,3356.5491,N,11932.2583,W,1,08,1.0,5.9,M,-33.8,M,,*52
$PYRTM,2024,126.833614749178,17.943262159317
$GPGGA,200023.00,3356.5489,N,11932.2586,W,1,08,1.0,5.9,M,-33.8,M,,*5F
$PYRTM,2024,126.833626333773,17.943273743912
$GPGGA,200024.00,3356.5486,N,11932.2590,W,1,08,1.0,6.0,M,-33.8,M,,*5A
$PYRTM,2024,126.833637896944,17.943285307083
$GPGGA,200025.00,3356.5484,N,11932.2594,W,1,08,1.0,6.0,M,-33.8,M,,*5D
$PYRTM,2024,126.833649470949,17.943296881088
$GPGGA,200026.00,3356.5482,N,11932.2595,W,1,08,1.0,6.0,M,-33.8,M,,*59
$PYRTM,2024,126.833661047593,17.943308457731
$GPGGA,200027.00,3356.5482,N,11932.2597,W,1,08,1.0,6.0,M,-33.8,M,,*5A
$PYRTM,2024,126.833672619641,17.943320029780
$GPGGA,200028.00,3356.5480,N,11932.2601,W,1,08,1.0,6.0,M,-33.8,M,,*5B
$PYRTM,2024,126.833684194086,17.943331604225
$GPGGA,200029.00,3356.5479,N,11932.2607,W,1,08,1.0,6.0,M,-33.8,M,,*5A
$PYRTM,2024,126.833695779201,17.943343189340
$GPGGA,200030.00,3356.5476,N,11932.2610,W,1,08,1.0,6.0,M,-33.8,M,,*5B
$PYRTM,2024,126.833703170405,17.943350580544
$GPGGA,200031.00,3356.5473,N,11932.2611,W,1,08,1.0,6.0,M,-33.8,M,,*5E
$PYRTM,2024,126.833718916042,17.943366326181
$GPGGA,200032.00,3356.5470,N,11932.2612,W,1,08,1.0,6.0,M,-33.8,M,,*5D
$PYRTM,2024,126.833726317975,17.943373728113
$GPGGA,200033.00,3356.5469,N,11932.2616,W,1,08,1.0,6.0,M,-33.8,M,,*50
$PYRTM,2024,126.833742073067,17.943389483206
$GPGGA,200034.00,3356.5469,N,11932.2621,W,1,08,1.0,6.0,M,-33.8,M,,*53
$PYRTM,2024,126.833749466134,17.943396876273
$GPGGA,200035.00,3356.5467,N,11932.2624,W,1,08,1.0,6.0,M,-33.8,M,,*59
$PYRTM,2024,126.833765221667,17.943412631806
$GPGGA,200036.00,3356.5465,N,11932.2625,W,1,08,1.0,6.0,M,-33.8,M,,*59
$PYRTM,2024,126.833776782083,17.943424192222
$GPGGA,200037.00,3356.5462,N,11932.2626,W,1,08,1.0,6.0,M,-33.8,M,,*5C
$PYRTM,2024,126.833788361308,17.943435771447
$GPGGA,200038.00,3356.5460,N,11932.2630,W,1,08,1.0,6.0,M,-33.8,M,,*56
$PYRTM,2024,126.833799935174,17.943447345312
$GPGGA,200039.00,3356.5459,N,11932.2634,W,1,08,1.0,6.0,M,-33.8,M,,*59
$PYRTM,2024,126.833807329861,17.943454740000
$GPGGA,200040.00,3356.5459,N,11932.2638,W,1,08,1.0,6.0,M,-33.8,M,,*5B
$PYRTM,2024,126.833825976771,17.943473386910
$GPGGA,200041.00,3356.5456,N,11932.2641,W,1,08,1.0,6.0,M,-33.8,M,,*5B
$PYRTM,2024,126.833834657106,17.943482067245
$GPGGA,200042.00,3356.5454,N,11932.2642,W,1,08,1.0,6.0,M,-33.8,M,,*59
$PYRTM,2024,126.833846232153,17.943493642292
$GPGGA,200043.00,3356.5453,N,11932.2645,W,1,08,1.0,6.0,M,-33.8,M,,*58
$PYRTM,2024,126.833853626215,17.943501036354
$GPGGA,200044.00,3356.5452,N,11932.2649,W,1,08,1.0,6.0,M,-33.8,M,,*52
$PYRTM,2024,126.833869374977,17.943516785116
$GPGGA,200045.00,3356.5450,N,11932.2653,W,1,08,1.0,6.0,M,-33.8,M,,*5A
$PYRTM,2024,126.833880955127,17.943528365266
$GPGGA,200046.00,3356.5447,N,11932.2655,W,1,08,1.0,6.0,M,-33.8,M,,*59
$PYRTM,2024,126.833892523009,17.943539933148
$GPGGA,200047.00,3356.5445,N,11932.2657,W,1,08,1.0,6.0,M,-33.8,M,,*58
$PYRTM,2024,126.833899922558,17.943547332708
$GPGGA,200048.00,3356.5444,N,11932.2660,W,1,08,1.0,6.0,M,-33.8,M,,*52
$PYRTM,2024,126.833915677407,17.943563087558
$GPGGA,200049.00,3356.5443,N,11932.2665,W,1,08,1.0,6.0,M,-33.8,M,,*51
$PYRTM,2024,126.833927269387,17.943574679537
$GPGGA,200050.00,3356.5441,N,11932.2669,W,1,08,1.0,6.0,M,-33.8,M,,*57
$PYRTM,2024,126.833938824491,17.943586234630
$GPGGA,200051.00,3356.5438,N,11932.2670,W,1,08,1.0,6.0,M,-33.8,M,,*50
$PYRTM,2024,126.833950425475,17.943597835613
$GPGGA,200052.00,3356.5435,N,11932.2672,W,1,08,1.0,6.0,M,-33.8,M,,*5C
$PYRTM,2024,126.833957805440,17.943605215579
$GPGGA,200053.00,3356.5434,N,11932.2676,W,1,08,1.0,6.1,M,-33.8,M,,*59
$PYRTM,2024,126.833973558900,17.943620969039
$GPGGA,200054.00,3356.5433,N,11932.2680,W,1,08,1.0,6.1,M,-33.8,M,,*50
$PYRTM,2024,126.833985121481,17.943632531620
$GPGGA,200055.00,3356.5431,N,11932.2682,W,1,08,1.0,6.1,M,-33.8,M,,*51
$PYRTM,2024,126.833996694560,17.943644104699
$GPGGA,200056.00,3356.5429,N,11932.2685,W,1,08,1.0,6.1,M,-33.8,M,,*5C
$PYRTM,2024,126.834008268993,17.943655679132
$GPGGA,200057.00,3356.5427,N,11932.2688,W,1,08,1.0,6.1,M,-33.8,M,,*5E
$PYRTM,2024,126.834019843356,17.943667253507
$GPGGA,200058.00,3356.5426,N,11932.2690,W,1,08,1.0,6.1,M,-33.8,M,,*59
$PYRTM,2024,126.834031417616,17.943678827755
$GPGGA,200059.00,3356.5425,N,11932.2693,W,1,08,1.0,6.1,M,-33.8,M,,*58
$PYRTM,2024,126.834043002870,17.943690413009
$GPGGA,200100.00,3356.5423,N,11932.2698,W,1,08,1.0,6.1,M,-33.8,M,,*58
$PYRTM,2024,126.834054564699,17.943701974838
$GPGGA,200101.00,3356.5421,N,11932.2701,W,1,08,1.0,6.1,M,-33.8,M,,*5A
$PYRTM,2024,126.834061961042,17.943709371181
$GPGGA,200102.00,3356.5418,N,11932.2702,W,1,08,1.0,6.1,M,-33.8,M,,*50
$PYRTM,2024,126.834077714109,17.943725124248
$GPGGA,200103.00,3356.5417,N,11932.2704,W,1,08,1.0,6.1,M,-33.8,M,,*58
$PYRTM,2024,126.834089296319,17.943736706458
$GPGGA,200104.00,3356.5417,N,11932.2707,W,1,08,1.0,6.1,M,-33.8,M,,*5C
$PYRTM,2024,126.834096689780,17.943744099919
$GPGGA,200105.00,3356.5415,N,11932.2712,W,1,08,1.0,6.2,M,-33.8,M,,*58
$PYRTM,2024,126.834112463646,17.943759873785
$GPGGA,200106.00,3356.5411,N,11932.2716,W,1,08,1.3,6.2,M,-33.8,M,,*58
$PYRTM,2024,126.834119843345,17.943767253484
$GPGGA,200107.00,3356.5409,N,11932.2717,W,1,08,1.3,6.2,M,-33.8,M,,*51
$PYRTM,2024,126.834135585301,17.943782995440
$GPGGA,200108.00,3356.5409,N,11932.2718,W,1,08,1.3,6.2,M,-33.8,M,,*51
$PYRTM,2024,126.834147159664,17.943794569803
$GPGGA,200109.00,3356.5409,N,11932.2721,W,1,08,1.3,6.2,M,-33.8,M,,*5A
$PYRTM,2024,126.834158743808,17.943806153958
$GPGGA,200110.00,3356.5407,N,11932.2726,W,1,08,1.0,6.2,M,-33.8,M,,*58
$PYRTM,2024,126.834166151551,17.943813561690
$GPGGA,200111.00,3356.5403,N,11932.2730,W,1,08,1.3,6.2,M,-33.8,M,,*59
$PYRTM,2024,126.834184776759,17.943832186898
$GPGGA,200112.00,3356.5400,N,11932.2731,W,1,08,1.3,6.3,M,-33.8,M,,*59
$PYRTM,2024,126.834193454826,17.943840864965
$GPGGA,200113.00,3356.5399,N,11932.2733,W,1,08,1.3,6.3,M,-33.8,M,,*5D
$PYRTM,2024,126.834205040093,17.943852450231
$GPGGA,200114.00,3356.5400,N,11932.2736,W,1,08,1.3,6.3,M,-33.8,M,,*58
$PYRTM,2024,126.834216604687,17.943864014826
$GPGGA,200115.00,3356.5399,N,11932.2740,W,1,08,1.3,6.3,M,-33.8,M,,*5F
$PYRTM,2024,126.834228178067,17.943875588206
$GPGGA,200116.00,3356.5395,N,11932.2743,W,1,08,1.3,6.3,M,-33.8,M,,*53
$PYRTM,2024,126.834235578993,17.943882989132
$GPGGA,200117.00,3356.5392,N,11932.2746,W,1,08,1.3,6.3,M,-33.8,M,,*50
$PYRTM,2024,126.834251337211,17.943898747350
$GPGGA,200118.00,3356.5390,N,11932.2747,W,1,08,1.3,6.3,M,-33.8,M,,*5C
$PYRTM,2024,126.834262896667,17.943910306806
$GPGGA,200119.00,3356.5390,N,11932.2749,W,1,08,1.3,6.3,M,-33.8,M,,*53
$PYRTM,2024,126.834274482106,17.943921892245
$GPGGA,200120.00,3356.5390,N,11932.2753,W,1,08,1.3,6.3,M,-33.8,M,,*52
$PYRTM,2024,126.834286049942,17.943933460081
$GPGGA,200121.00,3356.5387,N,11932.2757,W,1,08,1.3,6.4,M,-33.8,M,,*56
$PYRTM,2024,126.834297630637,17.943945040775
$GPGGA,200122.00,3356.5384,N,11932.2760,W,1,08,1.3,6.4,M,-33.8,M,,*52
$PYRTM,2024,126.834305029410,17.943952439549
$GPGGA,200123.00,3356.5382,N,11932.2762,W,1,08,1.3,6.4,M,-33.8,M,,*57
$PYRTM,2024,126.834320782674,17.943968192813
$GPGGA,200124.00,3356.5381,N,11932.2763,W,1,08,1.3,6.4,M,-33.8,M,,*52
$PYRTM,2024,126.834332344653,17.943979754792
$GPGGA,200125.00,3356.5381,N,11932.2766,W,1,08,1.3,6.4,M,-33.8,M,,*56
$PYRTM,2024,126.834339740104,17.943987150243
$GPGGA,200126.00,3356.5379,N,11932.2771,W,1,08,1.3,6.4,M,-33.8,M,,*54
$PYRTM,2024,126.834355493032,17.944002903171
$GPGGA,200127.00,3356.5376,N,11932.2775,W,1,08,1.3,6.4,M,-33.8,M,,*5E
$PYRTM,2024,126.834367067326,17.944014477465
$GPGGA,200128.00,3356.5372,N,11932.2778,W,1,08,1.3,6.4,M,-33.8,M,,*58
$PYRTM,2024,126.834374476852,17.944021886991
$GPGGA,200129.00,3356.5371,N,11932.2780,W,1,08,1.3,6.4,M,-33.8,M,,*5D
$PYRTM,2024,126.834390215394,17.944037625532
$GPGGA,200130.00,3356.5371,N,11932.2782,W,1,08,1.3,6.4,M,-33.8,M,,*57
$PYRTM,2024,126.834401788762,17.944049198900
$GPGGA,200131.00,3356.5370,N,11932.2784,W,1,08,1.3,6.4,M,-33.8,M,,*51
$PYRTM,2024,126.834413363090,17.944060773229
$GPGGA,200132.00,3356.5367,N,11932.2788,W,1,08,1.3,6.4,M,-33.8,M,,*58
$PYRTM,2024,126.834424938345,17.944072348484
$GPGGA,200133.00,3356.5363,N,11932.2791,W,1,08,1.3,6.4,M,-33.8,M,,*55
$PYRTM,2024,126.834436519942,17.944083930093
$GPGGA,200134.00,3356.5360,N,11932.2795,W,1,08,1.3,6.4,M,-33.8,M,,*55
$PYRTM,2024,126.834443918345,17.944091328495
$GPGGA,200135.00,3356.5360,N,11932.2798,W,1,08,1.3,6.4,M,-33.8,M,,*59
$PYRTM,2024,126.834459667338,17.944107077477
$GPGGA,200136.00,3356.5361,N,11932.2800,W,1,08,1.3,6.4,M,-33.8,M,,*55
$PYRTM,2024,126.834471235104,17.944118645243
$GPGGA,200137.00,3356.5360,N,11932.2801,W,1,08,1.3,6.4,M,-33.8,M,,*54
$PYRTM,2024,126.834482808241,17.944130218380
$GPGGA,200138.00,3356.5356,N,11932.2803,W,1,08,1.3,6.5,M,-33.8,M,,*5D
$PYRTM,2024,126.834490210174,17.944137620312
$GPGGA,200139.00,3356.5352,N,11932.2807,W,1,08,1.3,6.5,M,-33.8,M,,*5C
$PYRTM,2024,126.834502368958,17.944149779097
$GPGGA,200140.00,3356.5351,N,11932.2811,W,1,08,1.3,6.5,M,-33.8,M,,*56
$PYRTM,2024,126.834513482963,17.944160893102
$GPGGA,200141.00,3356.5352,N,11932.2814,W,1,08,1.3,6.4,M,-33.8,M,,*50
$PYRTM,2024,126.834525042396,17.944172452535
$GPGGA,200142.00,3356.5352,N,11932.2815,W,1,08,1.3,6.4,M,-33.8,M,,*52
$PYRTM,2024,126.834543573183,17.944190983333
$GPGGA,200143.00,3356.5349,N,11932.2817,W,1,08,1.3,6.4,M,-33.8,M,,*5B
$PYRTM,2024,126.834555147245,17.944202557384
$GPGGA,200144.00,3356.5344,N,11932.2821,W,1,08,1.3,6.5,M,-33.8,M,,*55
$PYRTM,2024,126.834566721042,17.944214131181
$GPGGA,200145.00,3356.5342,N,11932.2825,W,1,08,1.3,6.5,M,-33.8,M,,*56
$PYRTM,2024,126.834575400521,17.944222810660
$GPGGA,200146.00,3356.5342,N,11932.2828,W,1,08,1.3,6.5,M,-33.8,M,,*58
$PYRTM,2024,126.834582807951,17.944230218090
$GPGGA,200147.00,3356.5342,N,11932.2830,W,1,08,1.3,6.5,M,-33.8,M,,*50
$PYRTM,2024,126.834594486470,17.944241896620
$GPGGA,200148.00,3356.5340,N,11932.2832,W,1,08,1.3,6.5,M,-33.8,M,,*5F
$PYRTM,2024,126.834610125451,17.944257535590
$GPGGA,200149.00,3356.5336,N,11932.2835,W,1,08,1.3,6.5,M,-33.8,M,,*58
$PYRTM,2024,126.834621705243,17.944269115382
$GPGGA,200150.00,3356.5334,N,11932.2840,W,1,08,1.3,6.5,M,-33.8,M,,*50
$PYRTM,2024,126.834629099190,17.944276509329
$GPGGA,200151.00,3356.5333,N,11932.2843,W,1,08,1.3,6.5,M,-33.8,M,,*55
$PYRTM,2024,126.834644853912,17.944292264051
$GPGGA,200152.00,3356.5333,N,11932.2845,W,1,08,1.3,6.5,M,-33.8,M,,*50
$PYRTM,2024,126.834656420104,17.944303830243
$GPGGA,200153.00,3356.5331,N,11932.2846,W,1,08,1.3,6.5,M,-33.8,M,,*50
$PYRTM,2024,126.834667993970,17.944315404109
$GPGGA,200154.00,3356.5328,N,11932.2848,W,1,08,1.3,6.5,M,-33.8,M,,*51
$PYRTM,2024,126.834679568692,17.944326978831
$GPGGA,200155.00,3356.5324,N,11932.2854,W,1,08,1.3,6.6,M,-33.8,M,,*52
$PYRTM,2024,126.834691153808,17.944338563947
$GPGGA,200156.00,3356.5322,N,11932.2860,W,1,08,1.3,6.6,M,-33.8,M,,*50
$PYRTM,2024,126.834698561597,17.944345971736
$GPGGA,200157.00,3356.5322,N,11932.2861,W,1,08,1.3,6.6,M,-33.8,M,,*50
$PYRTM,2024,126.834714301887,17.944361712025
$GPGGA,200158.00,3356.5321,N,11932.2861,W,1,08,1.3,6.7,M,-33.8,M,,*5D
$PYRTM,2024,126.834725865810,17.944373275949
$GPGGA,200159.00,3356.5318,N,11932.2863,W,1,08,1.3,6.7,M,-33.8,M,,*54
$PYRTM,2024,126.834737450926,17.944384861065
$GPGGA,200200.00,3356.5314,N,11932.2869,W,1,08,1.3,6.8,M,-33.8,M,,*52
$PYRTM,2024,126.834749013148,17.944396423299
$GPGGA,200201.00,3356.5312,N,11932.2873,W,1,08,1.3,6.8,M,-33.8,M,,*5E
$PYRTM,2024,126.834760594699,17.944408004838
$GPGGA,200202.00,3356.5311,N,11932.2875,W,1,08,1.3,6.7,M,-33.8,M,,*57
$PYRTM,2024,126.834772156632,17.944419566771
$GPGGA,200203.00,3356.5311,N,11932.2876,W,1,08,1.3,6.7,M,-33.8,M,,*55
$PYRTM,2024,126.834783761400,17.944431171539
$GPGGA,200204.00,3356.5309,N,11932.2879,W,1,08,1.3,6.7,M,-33.8,M,,*54
$PYRTM,2024,126.834791136944,17.944438547083
$GPGGA,200205.00,3356.5307,N,11932.2882,W,1,08,1.3,6.7,M,-33.8,M,,*5F
$PYRTM,2024,126.834806893275,17.944454303414
$GPGGA,200206.00,3356.5305,N,11932.2885,W,1,08,1.3,6.8,M,-33.8,M,,*56
$PYRTM,2024,126.834818457975,17.944465868125
$GPGGA,200207.00,3356.5303,N,11932.2887,W,1,08,1.3,6.8,M,-33.8,M,,*53
$PYRTM,2024,126.834825854699,17.944473264838
$GPGGA,200208.00,3356.5303,N,11932.2891,W,1,08,1.3,6.7,M,-33.8,M,,*54
$PYRTM,2024,126.834841606447,17.944489016586
$GPGGA,200209.00,3356.5300,N,11932.2894,W,1,08,1.3,6.7,M,-33.8,M,,*53
$PYRTM,2024,126.834853181632,17.944500591771
$GPGGA,200210.00,3356.5298,N,11932.2896,W,1,08,1.3,6.7,M,-33.8,M,,*59
$PYRTM,2024,126.834860589653,17.944507999803
$GPGGA,200211.00,3356.5297,N,11932.2897,W,1,08,1.3,6.8,M,-33.8,M,,*59
$PYRTM,2024,126.834872267060,17.944519677199
$GPGGA,200212.00,3356.5296,N,11932.2900,W,1,08,1.3,6.8,M,-33.8,M,,*54
$PYRTM,2024,126.834890795637,17.944538205775
$GPGGA,200213.00,3356.5294,N,11932.2905,W,1,08,1.3,6.8,M,-33.8,M,,*52
$PYRTM,2024,126.834902374352,17.944549784491
$GPGGA,200214.00,3356.5291,N,11932.2909,W,1,08,1.3,6.8,M,-33.8,M,,*5C
$PYRTM,2024,126.834916378889,17.944563789028
$GPGGA,200215.00,3356.5289,N,11932.2910,W,1,08,1.3,6.8,M,-33.8,M,,*5C
$PYRTM,2024,126.834922625451,17.944570035590
$GPGGA,200216.00,3356.5287,N,11932.2910,W,1,08,1.3,6.7,M,-33.8,M,,*5E
$PYRTM,2024,126.834934194444,17.944581604595
$GPGGA,200217.00,3356.5286,N,11932.2913,W,1,08,1.3,6.8,M,-33.8,M,,*52
$PYRTM,2024,126.834941594502,17.944589004641
$GPGGA,200218.00,3356.5285,N,11932.2918,W,1,08,1.3,6.8,M,-33.8,M,,*55
$PYRTM,2024,126.834957349653,17.944604759792
$GPGGA,200219.00,3356.5283,N,11932.2921,W,1,08,1.3,6.8,M,-33.8,M,,*58
$PYRTM,2024,126.834968930394,17.944616340532
$GPGGA,200220.00,3356.5280,N,11932.2922,W,1,08,1.3,6.8,M,-33.8,M,,*52
$PYRTM,2024,126.834976324537,17.944623734688
$GPGGA,200221.00,3356.5278,N,11932.2924,W,1,08,1.3,6.8,M,-33.8,M,,*52
$PYRTM,2024,126.834992070382,17.944639480521
$GPGGA,200222.00,3356.5277,N,11932.2926,W,1,08,1.3,6.8,M,-33.8,M,,*5C
$PYRTM,2024,126.835003645347,17.944651055486
$GPGGA,200223.00,3356.5277,N,11932.2930,W,1,08,1.3,6.8,M,-33.8,M,,*5A
$PYRTM,2024,126.835015217986,17.944662628125
$GPGGA,200224.00,3356.5276,N,11932.2933,W,1,08,1.3,6.8,M,-33.8,M,,*5F
$PYRTM,2024,126.835026789873,17.944674200012
$GPGGA,200225.00,3356.5272,N,11932.2936,W,1,08,1.3,6.8,M,-33.8,M,,*5F
$PYRTM,2024,126.835038366528,17.944685776667
$GPGGA,200226.00,3356.5268,N,11932.2938,W,1,08,1.3,6.8,M,-33.8,M,,*59
$PYRTM,2024,126.835045768877,17.944693179016
$GPGGA,200227.00,3356.5267,N,11932.2941,W,1,08,1.3,6.8,M,-33.8,M,,*59
$PYRTM,2024,126.835061515509,17.944708925648
$GPGGA,200228.00,3356.5266,N,11932.2944,W,1,08,1.3,6.8,M,-33.8,M,,*52
$PYRTM,2024,126.835073089363,17.944720499502
$GPGGA,200229.00,3356.5266,N,11932.2946,W,1,08,1.3,6.8,M,-33.8,M,,*51
$PYRTM,2024,126.835080484826,17.944727894965
$GPGGA,200230.00,3356.5263,N,11932.2948,W,1,08,1.3,6.8,M,-33.8,M,,*52
$PYRTM,2024,126.835096238461,17.944743648600
$GPGGA,200231.00,3356.5260,N,11932.2951,W,1,08,1.3,6.7,M,-33.8,M,,*57
$PYRTM,2024,126.835107819711,17.944755229850
$GPGGA,200232.00,3356.5257,N,11932.2954,W,1,08,1.3,6.7,M,-33.8,M,,*55
$PYRTM,2024,126.835115214687,17.944762624838
$GPGGA,200233.00,3356.5256,N,11932.2957,W,1,08,1.3,6.7,M,-33.8,M,,*56
$PYRTM,2024,126.835130967303,17.944778377442
$GPGGA,200234.00,3356.5255,N,11932.2960,W,1,08,1.3,6.7,M,-33.8,M,,*56
$PYRTM,2024,126.835142533252,17.944789943391
$GPGGA,200235.00,3356.5253,N,11932.2962,W,1,08,1.3,6.7,M,-33.8,M,,*53
$PYRTM,2024,126.835154107859,17.944801517998
$GPGGA,200236.00,3356.5250,N,11932.2966,W,1,08,1.3,6.7,M,-33.8,M,,*57
$PYRTM,2024,126.835165681273,17.944813091412
$GPGGA,200237.00,3356.5247,N,11932.2969,W,1,08,1.3,6.7,M,-33.8,M,,*5F
$PYRTM,2024,126.835177256296,17.944824666435
$GPGGA,200238.00,3356.5246,N,11932.2972,W,1,08,1.3,6.6,M,-33.8,M,,*5A
$PYRTM,2024,126.835188830683,17.944836240822
$GPGGA,200239.00,3356.5245,N,11932.2976,W,1,08,1.0,6.6,M,-33.8,M,,*5F
$PYRTM,2024,126.835200404838,17.944847814977
$GPGGA,200240.00,3356.5243,N,11932.2979,W,1,08,1.0,6.6,M,-33.8,M,,*58
$PYRTM,2024,126.835211978704,17.944859388843
$GPGGA,200241.00,3356.5241,N,11932.2981,W,1,08,1.0,6.6,M,-33.8,M,,*5C
$PYRTM,2024,126.835223552130,17.944870962269
$GPGGA,200242.00,3356.5238,N,11932.2984,W,1,08,1.0,6.6,M,-33.8,M,,*54
$PYRTM,2024,126.835235127315,17.944882537454
$GPGGA,200243.00,3356.5237,N,11932.2987,W,1,08,1.0,6.6,M,-33.8,M,,*59
$PYRTM,2024,126.835242521817,17.944889931956
$GPGGA,200244.00,3356.5235,N,11932.2991,W,1,08,1.0,6.6,M,-33.8,M,,*5B
$PYRTM,2024,126.835261168021,17.944908578160
$GPGGA,200245.00,3356.5234,N,11932.2994,W,1,08,1.0,6.6,M,-33.8,M,,*5E
$PYRTM,2024,126.835269848611,17.944917258750
$GPGGA,200246.00,3356.5232,N,11932.2996,W,1,08,1.0,6.6,M,-33.8,M,,*59
$PYRTM,2024,126.835277250914,17.944924661065
$GPGGA,200247.00,3356.5230,N,11932.2998,W,1,08,1.0,6.6,M,-33.8,M,,*54
$PYRTM,2024,126.835293022384,17.944940432523
$GPGGA,200248.00,3356.5228,N,11932.3002,W,1,08,1.0,6.6,M,-33.8,M,,*59
$PYRTM,2024,126.835304576725,17.944951986863
$GPGGA,200249.00,3356.5226,N,11932.3006,W,1,08,1.0,6.6,M,-33.8,M,,*52
$PYRTM,2024,126.835311966192,17.944959376331
$GPGGA,200250.00,3356.5224,N,11932.3008,W,1,08,1.0,6.5,M,-33.8,M,,*55
$PYRTM,2024,126.835323669537,17.944971079688
$GPGGA,200251.00,3356.5222,N,11932.3009,W,1,08,1.0,6.5,M,-33.8,M,,*53
$PYRTM,2024,126.835339304132,17.944986714271
$GPGGA,200252.00,3356.5219,N,11932.3013,W,1,08,1.0,6.5,M,-33.8,M,,*53
$PYRTM,2024,126.835350869352,17.944998279491
$GPGGA,200253.00,3356.5217,N,11932.3018,W,1,08,1.0,6.5,M,-33.8,M,,*57
$PYRTM,2024,126.835362452789,17.945009862928
$GPGGA,200254.00,3356.5216,N,11932.3021,W,1,08,1.0,6.5,M,-33.8,M,,*5B
$PYRTM,2024,126.835374017384,17.945021427523
$GPGGA,200255.00,3356.5215,N,11932.3022,W,1,08,1.0,6.5,M,-33.8,M,,*5A
$PYRTM,2024,126.835385589699,17.945032999838
$GPGGA,200256.00,3356.5212,N,11932.3024,W,1,08,1.0,6.5,M,-33.8,M,,*58
$PYRTM,2024,126.835397160312,17.945044570451
$GPGGA,200257.00,3356.5210,N,11932.3026,W,1,08,1.0,6.5,M,-33.8,M,,*59
$PYRTM,2024,126.835408750162,17.945056160301
$GPGGA,200258.00,3356.5208,N,11932.3031,W,1,08,1.0,6.5,M,-33.8,M,,*59
$PYRTM,2024,126.835416139907,17.945063550046
$GPGGA,200259.00,3356.5207,N,11932.3035,W,1,08,1.0,6.5,M,-33.8,M,,*53
$PYRTM,2024,126.835427823021,17.945075233160
$GPGGA,200300.00,3356.5206,N,11932.3037,W,1,08,1.0,6.5,M,-33.8,M,,*5D
$PYRTM,2024,126.835443462118,17.945090872257
$GPGGA,200301.00,3356.5204,N,11932.3039,W,1,08,1.0,6.5,M,-33.8,M,,*50
$PYRTM,2024,126.835455043102,17.945102453241
$GPGGA,200302.00,3356.5201,N,11932.3042,W,1,08,1.0,6.5,M,-33.8,M,,*5A
$PYRTM,2024,126.835466609479,17.945114019618
$GPGGA,200303.00,3356.5199,N,11932.3045,W,1,08,1.0,6.5,M,-33.8,M,,*5E
$PYRTM,2024,126.835478182894,17.945125593032
$GPGGA,200304.00,3356.5197,N,11932.3048,W,1,08,1.0,6.5,M,-33.8,M,,*5A
$PYRTM,2024,126.835489753576,17.945137163727
$GPGGA,200305.00,3356.5195,N,11932.3051,W,1,08,1.0,6.5,M,-33.8,M,,*51
$PYRTM,2024,126.835501343727,17.945148753866
$GPGGA,200306.00,3356.5193,N,11932.3054,W,1,08,1.0,6.5,M,-33.8,M,,*51
$PYRTM,2024,126.835512905278,17.945160315417
$GPGGA,200307.00,3356.5191,N,11932.3057,W,1,08,1.0,6.5,M,-33.8,M,,*51
$PYRTM,2024,126.835524479456,17.945171889595
$GPGGA,200308.00,3356.5188,N,11932.3060,W,1,08,1.0,6.5,M,-33.8,M,,*52
$PYRTM,2024,126.835536049213,17.945183459363
$GPGGA,200309.00,3356.5186,N,11932.3062,W,1,08,1.0,6.4,M,-33.8,M,,*5E
$PYRTM,2024,126.835547628079,17.945195038218
$GPGGA,200310.00,3356.5184,N,11932.3065,W,1,08,1.0,6.4,M,-33.8,M,,*53
$PYRTM,2024,126.835555029583,17.945202439722
$GPGGA,200311.00,3356.5182,N,11932.3068,W,1,08,1.0,6.4,M,-33.8,M,,*59
$PYRTM,2024,126.835570776377,17.945218186516
$GPGGA,200312.00,3356.5181,N,11932.3072,W,1,08,1.0,6.4,M,-33.8,M,,*52
$PYRTM,2024,126.835582351019,17.945229761169
$GPGGA,200313.00,3356.5179,N,11932.3074,W,1,08,1.0,6.4,M,-33.8,M,,*52
$PYRTM,2024,126.835589744456,17.945237154595
$GPGGA,200314.00,3356.5177,N,11932.3077,W,1,08,1.0,6.4,M,-33.8,M,,*58
$PYRTM,2024,126.835601435949,17.945248846088
$GPGGA,200315.00,3356.5175,N,11932.3080,W,1,08,1.3,6.4,M,-33.8,M,,*50
$PYRTM,2024,126.835619980868,17.945267391007
$GPGGA,200316.00,3356.5173,N,11932.3084,W,1,08,1.3,6.4,M,-33.8,M,,*51
$PYRTM,2024,126.835628647106,17.945276057245
$GPGGA,200317.00,3356.5172,N,11932.3086,W,1,08,1.3,6.3,M,-33.8,M,,*54
$PYRTM,2024,126.835640221042,17.945287631181
$GPGGA,200318.00,3356.5170,N,11932.3088,W,1,08,1.3,6.4,M,-33.8,M,,*50
$PYRTM,2024,126.835651796007,17.945299206146
$GPGGA,200319.00,3356.5168,N,11932.3091,W,1,08,1.3,6.4,M,-33.8,M,,*50
$PYRTM,2024,126.835663368437,17.945310778576
$GPGGA,200320.00,3356.5166,N,11932.3096,W,1,08,1.3,6.4,M,-33.8,M,,*53
$PYRTM,2024,126.835674944282,17.945322354421
$GPGGA,200321.00,3356.5163,N,11932.3100,W,1,08,1.3,6.4,M,-33.8,M,,*59
$PYRTM,2024,126.835686518762,17.945333928900
$GPGGA,200322.00,3356.5161,N,11932.3102,W,1,08,1.3,6.4,M,-33.8,M,,*5A
$PYRTM,2024,126.835698093426,17.945345503565
$GPGGA,200323.00,3356.5159,N,11932.3103,W,1,08,1.3,6.4,M,-33.8,M,,*51
$PYRTM,2024,126.835709666713,17.945357076852
$GPGGA,200324.00,3356.5157,N,11932.3107,W,1,08,1.3,6.3,M,-33.8,M,,*5B
$PYRTM,2024,126.835721240440,17.945368650579
$GPGGA,200325.00,3356.5155,N,11932.3111,W,1,08,1.3,6.3,M,-33.8,M,,*5F
$PYRTM,2024,126.835728636250,17.945376046389
$GPGGA,200326.00,3356.5152,N,11932.3114,W,1,08,1.3,6.3,M,-33.8,M,,*5E
$PYRTM,2024,126.835740324340,17.945387734479
$GPGGA,200327.00,3356.5150,N,11932.3116,W,1,08,1.3,6.3,M,-33.8,M,,*5F
$PYRTM,2024,126.835755970613,17.945403380752
$GPGGA,200328.00,3356.5148,N,11932.3118,W,1,08,1.3,6.3,M,-33.8,M,,*57
$PYRTM,2024,126.835767536296,17.945414946435
$GPGGA,200329.00,3356.5147,N,11932.3121,W,1,08,1.3,6.3,M,-33.8,M,,*53
$PYRTM,2024,126.835779119259,17.945426529398
$GPGGA,200330.00,3356.5145,N,11932.3126,W,1,08,1.3,6.3,M,-33.8,M,,*5E
$PYRTM,2024,126.835790684977,17.945438095116
$GPGGA,200331.00,3356.5142,N,11932.3128,W,1,08,1.3,6.3,M,-33.8,M,,*56
$PYRTM,2024,126.835802285278,17.945449695417
$GPGGA,200332.00,3356.5140,N,11932.3129,W,1,08,1.3,6.3,M,-33.8,M,,*56
$PYRTM,2024,126.835809664317,17.945457074456
$GPGGA,200333.00,3356.5138,N,11932.3132,W,1,08,1.3,6.4,M,-33.8,M,,*55
$PYRTM,2024,126.835825407581,17.945472817720
$GPGGA,200334.00,3356.5137,N,11932.3137,W,1,08,1.3,6.4,M,-33.8,M,,*58
$PYRTM,2024,126.835836981273,17.945484391412
$GPGGA,200335.00,3356.5135,N,11932.3141,W,1,08,1.3,6.4,M,-33.8,M,,*5A
$PYRTM,2024,126.835844375752,17.945491785891
$GPGGA,200336.00,3356.5133,N,11932.3143,W,1,08,1.3,6.4,M,-33.8,M,,*5D
$PYRTM,2024,126.835860131169,17.945507541308
$GPGGA,200337.00,3356.5131,N,11932.3144,W,1,08,1.3,6.4,M,-33.8,M,,*59
$PYRTM,2024,126.835871714711,17.945519124850
$GPGGA,200338.00,3356.5128,N,11932.3147,W,1,08,1.3,6.4,M,-33.8,M,,*5D
$PYRTM,2024,126.835879097326,17.945526507465
$GPGGA,200339.00,3356.5126,N,11932.3152,W,1,08,1.3,6.4,M,-33.8,M,,*56
$PYRTM,2024,126.835894851262,17.945542261400
$GPGGA,200340.00,3356.5125,N,11932.3155,W,1,08,1.3,6.4,M,-33.8,M,,*5C
$PYRTM,2024,126.835906427269,17.945553837407
$GPGGA,200341.00,3356.5123,N,11932.3157,W,1,08,1.3,6.4,M,-33.8,M,,*59
$PYRTM,2024,126.835913820903,17.945561231042
$GPGGA,200342.00,3356.5121,N,11932.3159,W,1,08,1.3,6.4,M,-33.8,M,,*56
$PYRTM,2024,126.835929574097,17.945576984248
$GPGGA,200343.00,3356.5119,N,11932.3162,W,1,08,1.3,6.4,M,-33.8,M,,*54
$PYRTM,2024,126.835941174271,17.945588584410
$GPGGA,200344.00,3356.5116,N,11932.3165,W,1,08,1.3,6.4,M,-33.8,M,,*5B
$PYRTM,2024,126.835952723356,17.945600133495
$GPGGA,200345.00,3356.5114,N,11932.3168,W,1,08,1.3,6.4,M,-33.8,M,,*55
$PYRTM,2024,126.835960117488,17.945607527627
$GPGGA,200346.00,3356.5112,N,11932.3171,W,1,08,1.3,6.4,M,-33.8,M,,*58
$PYRTM,2024,126.835978764387,17.945626174537
$GPGGA,200347.00,3356.5109,N,11932.3174,W,1,08,1.3,6.4,M,-33.8,M,,*56
$PYRTM,2024,126.835987468600,17.945634878738
$GPGGA,200348.00,3356.5108,N,11932.3176,W,1,08,1.3,6.4,M,-33.8,M,,*5A
$PYRTM,2024,126.835999014491,17.945646424630
$GPGGA,200349.00,3356.5107,N,11932.3179,W,1,08,1.3,6.4,M,-33.8,M,,*5B
$PYRTM,2024,126.836010593600,17.945658003738
$GPGGA,200350.00,3356.5105,N,11932.3183,W,1,08,1.3,6.4,M,-33.8,M,,*54
$PYRTM,2024,126.836022167998,17.945669578137
$GPGGA,200351.00,3356.5102,N,11932.3185,W,1,08,1.3,6.4,M,-33.8,M,,*54
$PYRTM,2024,126.836033742187,17.945681152326
$GPGGA,200352.00,3356.5100,N,11932.3187,W,1,08,1.3,6.4,M,-33.8,M,,*57
$PYRTM,2024,126.836045311169,17.945692721308
$GPGGA,200353.00,3356.5097,N,11932.3190,W,1,08,1.3,6.4,M,-33.8,M,,*5F
$PYRTM,2024,126.836056889745,17.945704299884
$GPGGA,200354.00,3356.5096,N,11932.3194,W,1,08,1.3,6.4,M,-33.8,M,,*5D
$PYRTM,2024,126.836068459815,17.945715869965
$GPGGA,200355.00,3356.5095,N,11932.3197,W,1,08,1.3,6.4,M,-33.8,M,,*5C
$PYRTM,2024,126.836080038854,17.945727448993
$GPGGA,200356.00,3356.5093,N,11932.3199,W,1,08,1.3,6.4,M,-33.8,M,,*57
$PYRTM,2024,126.836091612766,17.945739022917
$GPGGA,200357.00,3356.5090,N,11932.3202,W,1,08,1.3,6.4,M,-33.8,M,,*54
$PYRTM,2024,126.836103186435,17.945750596574
$GPGGA,200358.00,3356.5087,N,11932.3205,W,1,08,1.3,6.4,M,-33.8,M,,*5A
$PYRTM,2024,126.836114760637,17.945762170775
$GPGGA,200359.00,3356.5085,N,11932.3208,W,1,08,1.3,6.4,M,-33.8,M,,*54
$PYRTM,2024,126.836126685046,17.945774095197
$GPGGA,200400.00,3356.5085,N,11932.3211,W,1,08,1.3,6.4,M,-33.8,M,,*57
$PYRTM,2024,126.836137909352,17.945785319491
$GPGGA,200401.00,3356.5083,N,11932.3213,W,1,08,1.3,6.4,M,-33.8,M,,*52
$PYRTM,2024,126.836149507674,17.945796917813
$GPGGA,200402.00,3356.5079,N,11932.3216,W,1,08,1.3,6.4,M,-33.8,M,,*51
$PYRTM,2024,126.836161058519,17.945808468657
$GPGGA,200403.00,3356.5077,N,11932.3220,W,1,08,1.3,6.4,M,-33.8,M,,*5B
$PYRTM,2024,126.836172631215,17.945820041354
$GPGGA,200404.00,3356.5075,N,11932.3223,W,1,08,1.3,6.3,M,-33.8,M,,*5A
$PYRTM,2024,126.836184205394,17.945831615532
$GPGGA,200405.00,3356.5074,N,11932.3226,W,1,08,1.3,6.3,M,-33.8,M,,*5F
$PYRTM,2024,126.836191600521,17.945839010660
$GPGGA,200406.00,3356.5072,N,11932.3229,W,1,08,1.3,6.3,M,-33.8,M,,*55
$PYRTM,2024,126.836207353403,17.945854763542
$GPGGA,200407.00,3356.5069,N,11932.3231,W,1,08,1.3,6.4,M,-33.8,M,,*50
$PYRTM,2024,126.836218927593,17.945866337731
$GPGGA,200408.00,3356.5066,N,11932.3233,W,1,08,1.3,6.4,M,-33.8,M,,*52
$PYRTM,2024,126.836226328831,17.945873738970
$GPGGA,200409.00,3356.5064,N,11932.3237,W,1,08,1.3,6.3,M,-33.8,M,,*52
$PYRTM,2024,126.836242086262,17.945889496400
$GPGGA,200410.00,3356.5062,N,11932.3241,W,1,08,1.3,6.3,M,-33.8,M,,*5D
$PYRTM,2024,126.836253653449,17.945901063588
$GPGGA,200411.00,3356.5060,N,11932.3244,W,1,08,1.3,6.3,M,-33.8,M,,*5B
$PYRTM,2024,126.836261044109,17.945908454248
$GPGGA,200412.00,3356.5057,N,11932.3246,W,1,08,1.3,6.3,M,-33.8,M,,*5E
$PYRTM,2024,126.836276797407,17.945924207546
$GPGGA,200413.00,3356.5055,N,11932.3247,W,1,08,1.3,6.3,M,-33.8,M,,*5C
$PYRTM,2024,126.836288379132,17.945935789271
$GPGGA,200414.00,3356.5053,N,11932.3250,W,1,08,1.3,6.3,M,-33.8,M,,*5B
$PYRTM,2024,126.836295779479,17.945943189618
$GPGGA,200415.00,3356.5052,N,11932.3255,W,1,08,1.3,6.3,M,-33.8,M,,*5E
$PYRTM,2024,126.836311546308,17.945958956447
$GPGGA,200416.00,3356.5050,N,11932.3259,W,1,08,1.3,6.3,M,-33.8,M,,*53
$PYRTM,2024,126.836318926887,17.945966337025
$GPGGA,200417.00,3356.5047,N,11932.3261,W,1,08,1.3,6.3,M,-33.8,M,,*5F
$PYRTM,2024,126.836337566042,17.945984976192
$GPGGA,200418.00,3356.5044,N,11932.3262,W,1,08,1.3,6.3,M,-33.8,M,,*50
$PYRTM,2024,126.836346242454,17.945993652593
$GPGGA,200419.00,3356.5043,N,11932.3264,W,1,08,1.3,6.3,M,-33.8,M,,*50
$PYRTM,2024,126.836357816250,17.946005226389
$GPGGA,200420.00,3356.5042,N,11932.3269,W,1,08,1.3,6.3,M,-33.8,M,,*56
$PYRTM,2024,126.836369390729,17.946016800868
$GPGGA,200421.00,3356.5040,N,11932.3273,W,1,08,1.3,6.3,M,-33.8,M,,*5E
$PYRTM,2024,126.836380975729,17.946028385868
$GPGGA,200422.00,3356.5037,N,11932.3276,W,1,08,1.3,6.3,M,-33.8,M,,*58
$PYRTM,2024,126.836392539907,17.946039950046
$GPGGA,200423.00,3356.5034,N,11932.3277,W,1,08,1.3,6.3,M,-33.8,M,,*5B
$PYRTM,2024,126.836404112894,17.946051523032
$GPGGA,200424.00,3356.5032,N,11932.3279,W,1,08,1.3,6.3,M,-33.8,M,,*54
$PYRTM,2024,126.836415689618,17.946063099757
$GPGGA,200425.00,3356.5030,N,11932.3284,W,1,08,1.3,6.4,M,-33.8,M,,*52
$PYRTM,2024,126.836427262315,17.946074672454
$GPGGA,200426.00,3356.5029,N,11932.3289,W,1,08,1.3,6.3,M,-33.8,M,,*53
$PYRTM,2024,126.836438835023,17.946086245162
$GPGGA,200427.00,3356.5026,N,11932.3291,W,1,08,1.3,6.3,M,-33.8,M,,*54
$PYRTM,2024,126.836450409711,17.946097819850
$GPGGA,200428.00,3356.5023,N,11932.3292,W,1,08,1.3,6.3,M,-33.8,M,,*5D
$PYRTM,2024,126.836461984410,17.946109394549
$GPGGA,200429.00,3356.5021,N,11932.3295,W,1,08,1.3,6.3,M,-33.8,M,,*59
$PYRTM,2024,126.836473565903,17.946120976042
$GPGGA,200430.00,3356.5019,N,11932.3299,W,1,08,1.3,6.3,M,-33.8,M,,*56
$PYRTM,2024,126.836485132315,17.946132542454
$GPGGA,200431.00,3356.5017,N,11932.3303,W,1,08,1.3,6.3,M,-33.8,M,,*5B
$PYRTM,2024,126.836496714248,17.946144124387
$GPGGA,200432.00,3356.5015,N,11932.3305,W,1,08,1.3,6.3,M,-33.8,M,,*5C
$PYRTM,2024,126.836508281204,17.946155691343
$GPGGA,200433.00,3356.5013,N,11932.3306,W,1,08,1.3,6.3,M,-33.8,M,,*58
$PYRTM,2024,126.836519856678,17.946167266817
$GPGGA,200434.00,3356.5011,N,11932.3308,W,1,08,1.3,6.3,M,-33.8,M,,*53
$PYRTM,2024,126.836531429988,17.946178840139
$GPGGA,200435.00,3356.5008,N,11932.3312,W,1,08,1.3,6.3,M,-33.8,M,,*51
$PYRTM,2024,126.836543015637,17.946190425775
$GPGGA,200436.00,3356.5007,N,11932.3316,W,1,08,1.3,6.3,M,-33.8,M,,*59
$PYRTM,2024,126.836554570891,17.946201981030
$GPGGA,200437.00,3356.5005,N,11932.3318,W,1,08,1.3,6.3,M,-33.8,M,,*54
$PYRTM,2024,126.836566151609,17.946213561748
$GPGGA,200438.00,3356.5003,N,11932.3320,W,1,08,1.3,6.3,M,-33.8,M,,*56
$PYRTM,2024,126.836573556794,17.946220966933
$GPGGA,200439.00,3356.5000,N,11932.3322,W,1,08,1.3,6.3,M,-33.8,M,,*56
$PYRTM,2024,126.836589299792,17.946236709931
$GPGGA,200440.00,3356.4997,N,11932.3326,W,1,08,1.3,6.3,M,-33.8,M,,*5A
$PYRTM,2024,126.836600868993,17.946248279144
$GPGGA,200441.00,3356.4995,N,11932.3331,W,1,08,1.3,6.3,M,-33.8,M,,*5F
$PYRTM,2024,126.836612455660,17.946259865799
$GPGGA,200442.00,3356.4994,N,11932.3334,W,1,08,1.3,6.3,M,-33.8,M,,*58
$PYRTM,2024,126.836619849225,17.946267259363
$GPGGA,200443.00,3356.4992,N,11932.3335,W,1,08,1.3,6.3,M,-33.8,M,,*5E
$PYRTM,2024,126.836635604676,17.946283014815
$GPGGA,200444.00,3356.4989,N,11932.3338,W,1,08,1.3,6.3,M,-33.8,M,,*5E
$PYRTM,2024,126.836647170046,17.946294580185
$GPGGA,200445.00,3356.4987,N,11932.3341,W,1,08,1.3,6.3,M,-33.8,M,,*5F
$PYRTM,2024,126.836658752697,17.946306162836
$GPGGA,200446.00,3356.4985,N,11932.3344,W,1,08,1.3,6.3,M,-33.8,M,,*5B
$PYRTM,2024,126.836670319155,17.946317729294
$GPGGA,200447.00,3356.4983,N,11932.3347,W,1,08,1.3,6.3,M,-33.8,M,,*5F
$PYRTM,2024,126.836677712407,17.946325122546
$GPGGA,200448.00,3356.4981,N,11932.3350,W,1,08,1.3,6.3,M,-33.8,M,,*54
$PYRTM,2024,126.836696360243,17.946343770382
$GPGGA,200449.00,3356.4978,N,11932.3353,W,1,08,1.3,6.3,M,-33.8,M,,*50
$PYRTM,2024,126.836705042211,17.946352452350
$GPGGA,200450.00,3356.4976,N,11932.3355,W,1,08,1.3,6.3,M,-33.8,M,,*50
$PYRTM,2024,126.836716615984,17.946364026123
$GPGGA,200451.00,3356.4975,N,11932.3357,W,1,08,1.3,6.3,M,-33.8,M,,*50
$PYRTM,2024,126.836724009248,17.946371419387
$GPGGA,200452.00,3356.4973,N,11932.3360,W,1,08,1.3,6.3,M,-33.8,M,,*51
$PYRTM,2024,126.836739763588,17.946387173727
$GPGGA,200453.00,3356.4970,N,11932.3365,W,1,08,1.3,6.3,M,-33.8,M,,*56
$PYRTM,2024,126.836751348079,17.946398758218
$GPGGA,200454.00,3356.4967,N,11932.3368,W,1,08,1.3,6.3,M,-33.8,M,,*5A
$PYRTM,2024,126.836762906609,17.946410316748
$GPGGA,200455.00,3356.4966,N,11932.3370,W,1,08,1.3,6.3,M,-33.8,M,,*53
$PYRTM,2024,126.836774498206,17.946421908345
$GPGGA,200456.00,3356.4964,N,11932.3371,W,1,08,1.3,6.3,M,-33.8,M,,*53
$PYRTM,2024,126.836786059583,17.946433469722
$GPGGA,200457.00,3356.4961,N,11932.3374,W,1,08,1.3,6.3,M,-33.8,M,,*52
$PYRTM,2024,126.836797641586,17.946445051725
$GPGGA,200458.00,3356.4959,N,11932.3378,W,1,08,1.0,6.3,M,-33.8,M,,*59
$PYRTM,2024,126.836809208299,17.946456618449
$GPGGA,200459.00,3356.4958,N,11932.3382,W,1,08,1.3,6.3,M,-33.8,M,,*5F
$PYRTM,2024,126.836820808264,17.946468218403
$GPGGA,200500.00,3356.4956,N,11932.3385,W,1,08,1.3,6.3,M,-33.8,M,,*5B
$PYRTM,2024,126.836832362176,17.946479772315
$GPGGA,200501.00,3356.4953,N,11932.3387,W,1,08,1.0,6.3,M,-33.8,M,,*5E
$PYRTM,2024,126.836843941354,17.946491351493
$GPGGA,200502.00,3356.4951,N,11932.3389,W,1,08,1.3,6.3,M,-33.8,M,,*52
$PYRTM,2024,126.836855505081,17.946502915208
$GPGGA,200503.00,3356.4949,N,11932.3391,W,1,08,1.3,6.3,M,-33.8,M,,*53
$PYRTM,2024,126.836867088935,17.946514499063
$GPGGA,200504.00,3356.4948,N,11932.3396,W,1,08,1.0,6.4,M,-33.8,M,,*56
$PYRTM,2024,126.836878647465,17.946526057604
$GPGGA,200505.00,3356.4947,N,11932.3401,W,1,08,1.0,6.4,M,-33.8,M,,*51
$PYRTM,2024,126.836890227639,17.946537637778
$GPGGA,200506.00,3356.4944,N,11932.3404,W,1,08,1.0,6.4,M,-33.8,M,,*54
$PYRTM,2024,126.836901802002,17.946549212141
$GPGGA,200507.00,3356.4942,N,11932.3404,W,1,08,1.0,6.3,M,-33.8,M,,*54
$PYRTM,2024,126.836913375197,17.946560785336
$GPGGA,200508.00,3356.4940,N,11932.3405,W,1,08,1.0,6.3,M,-33.8,M,,*58
$PYRTM,2024,126.836924949491,17.946572359641
$GPGGA,200509.00,3356.4938,N,11932.3408,W,1,08,1.0,6.3,M,-33.8,M,,*5B
$PYRTM,2024,126.836936535856,17.946583945995
$GPGGA,200510.00,3356.4937,N,11932.3414,W,1,08,1.0,6.3,M,-33.8,M,,*51
$PYRTM,2024,126.836948092465,17.946595502616
$GPGGA,200511.00,3356.4934,N,11932.3418,W,1,08,1.0,6.3,M,-33.8,M,,*5F
$PYRTM,2024,126.836959694919,17.946607105058
$GPGGA,200512.00,3356.4931,N,11932.3419,W,1,08,1.0,6.3,M,-33.8,M,,*58
$PYRTM,2024,126.836971245995,17.946618656134
$GPGGA,200513.00,3356.4928,N,11932.3420,W,1,08,1.0,6.3,M,-33.8,M,,*5B
$PYRTM,2024,126.836982827859,17.946630238009
$GPGGA,200514.00,3356.4927,N,11932.3422,W,1,08,1.0,6.3,M,-33.8,M,,*51
$PYRTM,2024,126.836994394861,17.946641805000
$GPGGA,200515.00,3356.4926,N,11932.3426,W,1,08,1.0,6.3,M,-33.8,M,,*55
$PYRTM,2024,126.837005979155,17.946653389294
$GPGGA,200516.00,3356.4924,N,11932.3430,W,1,08,1.0,6.3,M,-33.8,M,,*53
$PYRTM,2024,126.837013389803,17.946660799942
$GPGGA,200517.00,3356.4921,N,11932.3433,W,1,08,1.0,6.3,M,-33.8,M,,*54
$PYRTM,2024,126.837029127593,17.946676537731
$GPGGA,200518.00,3356.4918,N,11932.3435,W,1,08,1.0,6.3,M,-33.8,M,,*57
$PYRTM,2024,126.837036524236,17.946683934387
$GPGGA,200519.00,3356.4917,N,11932.3436,W,1,08,1.0,6.3,M,-33.8,M,,*5A
$PYRTM,2024,126.837055158623,17.946702568762
$GPGGA,200520.00,3356.4917,N,11932.3439,W,1,08,1.0,6.3,M,-33.8,M,,*5F
$PYRTM,2024,126.837063834444,17.946711244583
$GPGGA,200521.00,3356.4917,N,11932.3444,W,1,08,1.0,6.3,M,-33.8,M,,*54
$PYRTM,2024,126.837075412407,17.946722822546
$GPGGA,200522.00,3356.4914,N,11932.3447,W,1,08,1.0,6.3,M,-33.8,M,,*57
$PYRTM,2024,126.837082814734,17.946730224884
$GPGGA,200523.00,3356.4910,N,11932.3449,W,1,08,1.0,6.3,M,-33.8,M,,*5C
$PYRTM,2024,126.837098561435,17.946745971586
$GPGGA,200524.00,3356.4907,N,11932.3451,W,1,08,1.0,6.3,M,-33.8,M,,*54
$PYRTM,2024,126.837110129780,17.946757539931
$GPGGA,200525.00,3356.4906,N,11932.3454,W,1,08,1.0,6.3,M,-33.8,M,,*51
$PYRTM,2024,126.837117530428,17.946764940567
$GPGGA,200526.00,3356.4906,N,11932.3458,W,1,08,1.0,6.3,M,-33.8,M,,*5E
$PYRTM,2024,126.837133283738,17.946780693877
$GPGGA,200527.00,3356.4904,N,11932.3461,W,1,08,1.0,6.2,M,-33.8,M,,*56
$PYRTM,2024,126.837144883380,17.946792293530
$GPGGA,200528.00,3356.4901,N,11932.3464,W,1,08,1.0,6.2,M,-33.8,M,,*59
$PYRTM,2024,126.837152264398,17.946799674537
$GPGGA,200529.00,3356.4897,N,11932.3467,W,1,08,1.0,6.2,M,-33.8,M,,*55
$PYRTM,2024,126.837168015903,17.946815426042
$GPGGA,200530.00,3356.4895,N,11932.3469,W,1,08,1.0,6.2,M,-33.8,M,,*51
$PYRTM,2024,126.837179581343,17.946826991481
$GPGGA,200531.00,3356.4895,N,11932.3472,W,1,08,1.0,6.1,M,-33.8,M,,*59
$PYRTM,2024,126.837186975961,17.946834386100
$GPGGA,200532.00,3356.4893,N,11932.3475,W,1,08,1.0,6.1,M,-33.8,M,,*5B
$PYRTM,2024,126.837202727812,17.946850137951
$GPGGA,200533.00,3356.4891,N,11932.3478,W,1,08,1.0,6.1,M,-33.8,M,,*55
$PYRTM,2024,126.837214302662,17.946861712801
$GPGGA,200534.00,3356.4888,N,11932.3480,W,1,08,1.0,6.1,M,-33.8,M,,*5D
$PYRTM,2024,126.837221704433,17.946869114572
$GPGGA,200535.00,3356.4887,N,11932.3483,W,1,08,1.0,6.0,M,-33.8,M,,*51
$PYRTM,2024,126.837237450868,17.946884861007
$GPGGA,200536.00,3356.4885,N,11932.3486,W,1,08,1.0,6.0,M,-33.8,M,,*55
$PYRTM,2024,126.837249024259,17.946896434398
$GPGGA,200537.00,3356.4884,N,11932.3488,W,1,08,1.0,6.0,M,-33.8,M,,*5B
$PYRTM,2024,126.837256419896,17.946903830046
$GPGGA,200538.00,3356.4883,N,11932.3490,W,1,08,1.0,6.0,M,-33.8,M,,*5A
$PYRTM,2024,126.837272173090,17.946919583241
$GPGGA,200539.00,3356.4881,N,11932.3493,W,1,08,1.0,6.0,M,-33.8,M,,*5A
$PYRTM,2024,126.837283756019,17.946931166169
$GPGGA,200540.00,3356.4880,N,11932.3497,W,1,08,1.0,6.0,M,-33.8,M,,*51
$PYRTM,2024,126.837291153935,17.946938564074
$GPGGA,200541.00,3356.4877,N,11932.3501,W,1,08,1.0,5.9,M,-33.8,M,,*5C
$PYRTM,2024,126.837306903252,17.946954313391
$GPGGA,200542.00,3356.4875,N,11932.3501,W,1,08,1.0,5.9,M,-33.8,M,,*5D
$PYRTM,2024,126.837318464873,17.946965875012
$GPGGA,200543.00,3356.4874,N,11932.3503,W,1,08,1.0,5.9,M,-33.8,M,,*5F
$PYRTM,2024,126.837325864560,17.946973274711
$GPGGA,200544.00,3356.4872,N,11932.3507,W,1,08,1.0,5.9,M,-33.8,M,,*5A
$PYRTM,2024,126.837341618403,17.946989028542
$GPGGA,200545.00,3356.4870,N,11932.3512,W,1,08,1.0,5.8,M,-33.8,M,,*5C
$PYRTM,2024,126.837353191458,17.947000601597
$GPGGA,200546.00,3356.4867,N,11932.3516,W,1,08,1.0,5.8,M,-33.8,M,,*5D
$PYRTM,2024,126.837360599491,17.947008009630
$GPGGA,200547.00,3356.4865,N,11932.3517,W,1,08,1.0,5.8,M,-33.8,M,,*5F
$PYRTM,2024,126.837376350312,17.947023760451
$GPGGA,200548.00,3356.4863,N,11932.3519,W,1,08,1.0,5.8,M,-33.8,M,,*58
$PYRTM,2024,126.837387914352,17.947035324491
$GPGGA,200549.00,3356.4862,N,11932.3521,W,1,08,1.0,5.8,M,-33.8,M,,*53
$PYRTM,2024,126.837395308588,17.947042718727
$GPGGA,200550.00,3356.4860,N,11932.3526,W,1,08,1.0,5.8,M,-33.8,M,,*5E
$PYRTM,2024,126.837413955787,17.947061365926
$GPGGA,200551.00,3356.4858,N,11932.3530,W,1,08,1.0,5.7,M,-33.8,M,,*5C
$PYRTM,2024,126.837422646632,17.947070056771
$GPGGA,200552.00,3356.4856,N,11932.3532,W,1,08,1.0,5.7,M,-33.8,M,,*53
$PYRTM,2024,126.837430042361,17.947077452500
$GPGGA,200553.00,3356.4854,N,11932.3533,W,1,08,1.0,5.7,M,-33.8,M,,*51
$PYRTM,2024,126.837445810208,17.947093220347
$GPGGA,200554.00,3356.4852,N,11932.3536,W,1,08,1.0,5.7,M,-33.8,M,,*55
$PYRTM,2024,126.837457358032,17.947104768171
$GPGGA,200555.00,3356.4851,N,11932.3540,W,1,08,1.0,5.7,M,-33.8,M,,*56
$PYRTM,2024,126.837464754005,17.947112164144
$GPGGA,200556.00,3356.4849,N,11932.3544,W,1,08,1.0,5.7,M,-33.8,M,,*58
$PYRTM,2024,126.837476442836,17.947123852975
$GPGGA,200557.00,3356.4846,N,11932.3546,W,1,08,1.0,5.6,M,-33.8,M,,*55
$PYRTM,2024,126.837492091852,17.947139501991
$GPGGA,200558.00,3356.4844,N,11932.3548,W,1,08,1.0,5.6,M,-33.8,M,,*56
$PYRTM,2024,126.837499488993,17.947146899132
$GPGGA,200559.00,3356.4843,N,11932.3551,W,1,08,1.0,5.6,M,-33.8,M,,*58
$PYRTM,2024,126.837515229502,17.947162639641
$GPGGA,200600.00,3356.4841,N,11932.3555,W,1,08,1.0,5.6,M,-33.8,M,,*51
$PYRTM,2024,126.837526830035,17.947174240174
$GPGGA,200601.00,3356.4839,N,11932.3558,W,1,08,1.0,5.6,M,-33.8,M,,*52
$PYRTM,2024,126.837534198750,17.947181608889
$GPGGA,200602.00,3356.4836,N,11932.3560,W,1,08,1.0,5.6,M,-33.8,M,,*55
$PYRTM,2024,126.837549955509,17.947197365648
$GPGGA,200603.00,3356.4833,N,11932.3562,W,1,08,1.0,5.6,M,-33.8,M,,*53
$PYRTM,2024,126.837561513090,17.947208923229
$GPGGA,200604.00,3356.4832,N,11932.3566,W,1,08,1.0,5.6,M,-33.8,M,,*51
$PYRTM,2024,126.837568919653,17.947216329792
$GPGGA,200605.00,3356.4831,N,11932.3570,W,1,08,1.0,5.5,M,-33.8,M,,*57
$PYRTM,2024,126.837584661308,17.947232071447
$GPGGA,200606.00,3356.4829,N,11932.3573,W,1,08,1.0,5.5,M,-33.8,M,,*5E
$PYRTM,2024,126.837596251736,17.947243661887
$GPGGA,200607.00,3356.4826,N,11932.3574,W,1,08,1.0,5.5,M,-33.8,M,,*57
$PYRTM,2024,126.837607809757,17.947255219896
$GPGGA,200608.00,3356.4823,N,11932.3577,W,1,08,1.0,5.5,M,-33.8,M,,*5E
$PYRTM,2024,126.837619397280,17.947266807431
$GPGGA,200609.00,3356.4821,N,11932.3580,W,1,08,1.0,5.5,M,-33.8,M,,*55
$PYRTM,2024,126.837630958044,17.947278368194
$GPGGA,200610.00,3356.4820,N,11932.3584,W,1,08,1.0,5.5,M,-33.8,M,,*58
$PYRTM,2024,126.837638365174,17.947285775313
$GPGGA,200611.00,3356.4819,N,11932.3588,W,1,08,1.0,5.5,M,-33.8,M,,*5F
$PYRTM,2024,126.837654106250,17.947301516389
$GPGGA,200612.00,3356.4816,N,11932.3591,W,1,08,1.0,5.5,M,-33.8,M,,*5B
$PYRTM,2024,126.837665693796,17.947313103935
$GPGGA,200613.00,3356.4812,N,11932.3593,W,1,08,1.0,5.5,M,-33.8,M,,*5C
$PYRTM,2024,126.837677256215,17.947324666366
$GPGGA,200614.00,3356.4810,N,11932.3594,W,1,08,1.0,5.5,M,-33.8,M,,*5E
$PYRTM,2024,126.837688842593,17.947336252731
$GPGGA,200615.00,3356.4809,N,11932.3597,W,1,08,1.0,5.5,M,-33.8,M,,*54
$PYRTM,2024,126.837700403368,17.947347813507
$GPGGA,200616.00,3356.4808,N,11932.3601,W,1,08,1.0,5.5,M,-33.8,M,,*5A
$PYRTM,2024,126.837711992708,17.947359402847
$GPGGA,200617.00,3356.4805,N,11932.3606,W,1,08,1.0,5.4,M,-33.8,M,,*50
$PYRTM,2024,126.837723553032,17.947370963171
$GPGGA,200618.00,3356.4802,N,11932.3609,W,1,08,1.0,5.4,M,-33.8,M,,*57
$PYRTM,2024,126.837735140556,17.947382550694
$GPGGA,200619.00,3356.4800,N,11932.3610,W,1,08,1.0,5.4,M,-33.8,M,,*5C
$PYRTM,2024,126.837742545243,17.947389955382
$GPGGA,200620.00,3356.4799,N,11932.3611,W,1,08,1.0,5.4,M,-33.8,M,,*58
$PYRTM,2024,126.837754230023,17.947401640174
$GPGGA,200621.00,3356.4797,N,11932.3614,W,1,08,1.0,5.4,M,-33.8,M,,*52
$PYRTM,2024,126.837772765440,17.947420175579
$GPGGA,200622.00,3356.4794,N,11932.3619,W,1,08,1.0,5.5,M,-33.8,M,,*5E
$PYRTM,2024,126.837784327627,17.947431737766
$GPGGA,200623.00,3356.4791,N,11932.3623,W,1,08,1.0,5.4,M,-33.8,M,,*52
$PYRTM,2024,126.837795927442,17.947443337581
$GPGGA,200624.00,3356.4788,N,11932.3625,W,1,08,1.0,5.4,M,-33.8,M,,*5B
$PYRTM,2024,126.837804582407,17.947451992546
$GPGGA,200625.00,3356.4787,N,11932.3626,W,1,08,1.0,5.4,M,-33.8,M,,*56
$PYRTM,2024,126.837816145590,17.947463555729
$GPGGA,200626.00,3356.4787,N,11932.3629,W,1,08,1.0,5.4,M,-33.8,M,,*5A
$PYRTM,2024,126.837827731227,17.947475141366
$GPGGA,200627.00,3356.4784,N,11932.3633,W,1,08,1.0,5.4,M,-33.8,M,,*53
$PYRTM,2024,126.837839294549,17.947486704688
$GPGGA,200628.00,3356.4780,N,11932.3637,W,1,08,1.0,5.4,M,-33.8,M,,*5C
$PYRTM,2024,126.837846700174,17.947494110313
$GPGGA,200629.00,3356.4777,N,11932.3640,W,1,08,1.0,5.4,M,-33.8,M,,*55
$PYRTM,2024,126.837862439919,17.947509850058
$GPGGA,200630.00,3356.4776,N,11932.3641,W,1,08,1.0,5.4,M,-33.8,M,,*5D
$PYRTM,2024,126.837874031065,17.947521441215
$GPGGA,200631.00,3356.4776,N,11932.3644,W,1,08,1.0,5.4,M,-33.8,M,,*59
$PYRTM,2024,126.837885589792,17.947532999931
$GPGGA,200632.00,3356.4774,N,11932.3649,W,1,08,1.0,5.4,M,-33.8,M,,*55
$PYRTM,2024,126.837897178623,17.947544588762
$GPGGA,200633.00,3356.4771,N,11932.3652,W,1,08,1.0,5.4,M,-33.8,M,,*5B
$PYRTM,2024,126.837908736736,17.947556146875
$GPGGA,200634.00,3356.4767,N,11932.3653,W,1,08,1.0,5.4,M,-33.8,M,,*5A
$PYRTM,2024,126.837920324803,17.947567734942
$GPGGA,200635.00,3356.4765,N,11932.3655,W,1,08,1.0,5.4,M,-33.8,M,,*5F
$PYRTM,2024,126.837931886968,17.947579297118
$GPGGA,200636.00,3356.4763,N,11932.3659,W,1,08,1.0,5.4,M,-33.8,M,,*56
$PYRTM,2024,126.837943472257,17.947590882396
$GPGGA,200637.00,3356.4762,N,11932.3664,W,1,08,1.0,5.3,M,-33.8,M,,*5F
$PYRTM,2024,126.837955034444,17.947602444583
$GPGGA,200638.00,3356.4760,N,11932.3667,W,1,08,1.0,5.3,M,-33.8,M,,*51
$PYRTM,2024,126.837966622095,17.947614032234
$GPGGA,200639.00,3356.4757,N,11932.3667,W,1,08,1.0,5.3,M,-33.8,M,,*54
$PYRTM,2024,126.837978184826,17.947625594965
$GPGGA,200640.00,3356.4754,N,11932.3669,W,1,08,1.0,5.3,M,-33.8,M,,*57
$PYRTM,2024,126.837989769815,17.947637179954
$GPGGA,200641.00,3356.4752,N,11932.3673,W,1,08,1.0,5.3,M,-33.8,M,,*5B
$PYRTM,2024,126.838001330729,17.947648740868
$GPGGA,200642.00,3356.4750,N,11932.3678,W,1,08,1.0,5.3,M,-33.8,M,,*51
$PYRTM,2024,126.838008624225,17.947656034363
$GPGGA,200643.00,3356.4748,N,11932.3681,W,1,08,1.0,5.3,M,-33.8,M,,*5F
$PYRTM,2024,126.838024479363,17.947671889514
$GPGGA,200644.00,3356.4746,N,11932.3683,W,1,08,1.0,5.3,M,-33.8,M,,*54
$PYRTM,2024,126.838036068356,17.947683478507
$GPGGA,200645.00,3356.4743,N,11932.3684,W,1,08,1.0,5.3,M,-33.8,M,,*57
$PYRTM,2024,126.838043358530,17.947690768681
$GPGGA,200646.00,3356.4742,N,11932.3688,W,1,08,1.0,5.3,M,-33.8,M,,*59
$PYRTM,2024,126.838059214387,17.947706624525
$GPGGA,200647.00,3356.4740,N,11932.3691,W,1,08,1.0,5.3,M,-33.8,M,,*52
$PYRTM,2024,126.838070773889,17.947718184028
$GPGGA,200648.00,3356.4738,N,11932.3694,W,1,08,1.0,5.3,M,-33.8,M,,*57
$PYRTM,2024,126.838082362488,17.947729772627
$GPGGA,200649.00,3356.4735,N,11932.3697,W,1,08,1.0,5.3,M,-33.8,M,,*58
$PYRTM,2024,126.838093923160,17.947741333299
$GPGGA,200650.00,3356.4732,N,11932.3700,W,1,08,1.0,5.3,M,-33.8,M,,*58
$PYRTM,2024,126.838105509572,17.947752919711
$GPGGA,200651.00,3356.4731,N,11932.3703,W,1,08,1.0,5.3,M,-33.8,M,,*59
$PYRTM,2024,126.838112801713,17.947760211852
$GPGGA,200652.00,3356.4730,N,11932.3706,W,1,08,1.0,5.3,M,-33.8,M,,*5E
$PYRTM,2024,126.838131547002,17.947778957153
$GPGGA,200653.00,3356.4727,N,11932.3710,W,1,08,1.0,5.3,M,-33.8,M,,*5E
$PYRTM,2024,126.838140218148,17.947787628287
$GPGGA,200654.00,3356.4723,N,11932.3713,W,1,08,1.0,5.3,M,-33.8,M,,*5E
$PYRTM,2024,126.838147513831,17.947794923970
$GPGGA,200655.00,3356.4720,N,11932.3714,W,1,08,1.0,5.3,M,-33.8,M,,*5B
$PYRTM,2024,126.838163366968,17.947810777106
$GPGGA,200656.00,3356.4718,N,11932.3716,W,1,08,1.0,5.3,M,-33.8,M,,*51
$PYRTM,2024,126.838174954271,17.947822364410
$GPGGA,200657.00,3356.4718,N,11932.3720,W,1,08,1.0,5.3,M,-33.8,M,,*55
$PYRTM,2024,126.838182249931,17.947829660081
$GPGGA,200658.00,3356.4716,N,11932.3724,W,1,08,1.0,5.3,M,-33.8,M,,*50
$PYRTM,2024,126.838194047199,17.947841457338
$GPGGA,200659.00,3356.4714,N,11932.3726,W,1,08,1.0,5.3,M,-33.8,M,,*51
$PYRTM,2024,126.838209667338,17.947857077477
$GPGGA,200700.00,3356.4710,N,11932.3728,W,1,08,1.0,5.3,M,-33.8,M,,*56
$PYRTM,2024,126.838221254664,17.947868664803
$GPGGA,200701.00,3356.4708,N,11932.3731,W,1,08,1.0,5.3,M,-33.8,M,,*56
$PYRTM,2024,126.838232813021,17.947880223171
$GPGGA,200702.00,3356.4707,N,11932.3735,W,1,08,1.0,5.3,M,-33.8,M,,*5E
$PYRTM,2024,126.838244399421,17.947891809560
$GPGGA,200703.00,3356.4706,N,11932.3738,W,1,08,1.0,5.3,M,-33.8,M,,*53
$PYRTM,2024,126.838251694769,17.947899104919
$GPGGA,200704.00,3356.4704,N,11932.3741,W,1,08,1.3,5.3,M,-33.8,M,,*5B
$PYRTM,2024,126.838267548345,17.947914958495
$GPGGA,200705.00,3356.4700,N,11932.3743,W,1,08,1.0,5.3,M,-33.8,M,,*5F
$PYRTM,2024,126.838279108912,17.947926519051
$GPGGA,200706.00,3356.4697,N,11932.3746,W,1,08,1.3,5.2,M,-33.8,M,,*54
$PYRTM,2024,126.838290695984,17.947938106134
$GPGGA,200707.00,3356.4696,N,11932.3750,W,1,08,1.3,5.2,M,-33.8,M,,*53
$PYRTM,2024,126.838302257188,17.947949667326
$GPGGA,200708.00,3356.4694,N,11932.3754,W,1,08,1.3,5.2,M,-33.8,M,,*5A
$PYRTM,2024,126.838313844792,17.947961254931
$GPGGA,200709.00,3356.4692,N,11932.3757,W,1,08,1.3,5.2,M,-33.8,M,,*5E
$PYRTM,2024,126.838325406424,17.947972816562
$GPGGA,200710.00,3356.4689,N,11932.3758,W,1,08,1.3,5.2,M,-33.8,M,,*53
$PYRTM,2024,126.838336992072,17.947984402211
$GPGGA,200711.00,3356.4687,N,11932.3761,W,1,08,1.3,5.2,M,-33.8,M,,*56
$PYRTM,2024,126.838348555104,17.947995965243
$GPGGA,200712.00,3356.4685,N,11932.3765,W,1,08,1.3,5.2,M,-33.8,M,,*53
$PYRTM,2024,126.838355857778,17.948003267917
$GPGGA,200713.00,3356.4683,N,11932.3769,W,1,08,1.3,5.2,M,-33.8,M,,*58
$PYRTM,2024,126.838371702153,17.948019112292
$GPGGA,200714.00,3356.4681,N,11932.3771,W,1,08,1.3,5.2,M,-33.8,M,,*54
$PYRTM,2024,126.838383288843,17.948030698981
$GPGGA,200715.00,3356.4678,N,11932.3773,W,1,08,1.3,5.2,M,-33.8,M,,*51
$PYRTM,2024,126.838394849965,17.948042260104
$GPGGA,200716.00,3356.4676,N,11932.3776,W,1,08,1.3,5.2,M,-33.8,M,,*59
$PYRTM,2024,126.838406438449,17.948053848588
$GPGGA,200717.00,3356.4675,N,11932.3780,W,1,08,1.3,5.1,M,-33.8,M,,*51
$PYRTM,2024,126.838417999491,17.948065409641
$GPGGA,200718.00,3356.4673,N,11932.3783,W,1,08,1.3,5.1,M,-33.8,M,,*5B
$PYRTM,2024,126.838425298056,17.948072708206
$GPGGA,200719.00,3356.4670,N,11932.3785,W,1,08,1.3,5.1,M,-33.8,M,,*5F
$PYRTM,2024,126.838441148542,17.948088558692
$GPGGA,200720.00,3356.4668,N,11932.3788,W,1,08,1.3,5.1,M,-33.8,M,,*51
$PYRTM,2024,126.838452734433,17.948100144572
$GPGGA,200721.00,3356.4666,N,11932.3792,W,1,08,1.3,5.1,M,-33.8,M,,*55
$PYRTM,2024,126.838460025833,17.948107435972
$GPGGA,200722.00,3356.4664,N,11932.3796,W,1,08,1.3,5.1,M,-33.8,M,,*50
$PYRTM,2024,126.838471817315,17.948119227454
$GPGGA,200723.00,3356.4662,N,11932.3797,W,1,08,1.3,5.1,M,-33.8,M,,*56
$PYRTM,2024,126.838490337720,17.948137747859
$GPGGA,200724.00,3356.4660,N,11932.3799,W,1,08,1.3,5.1,M,-33.8,M,,*5D
$PYRTM,2024,126.838501924560,17.948149334711
$GPGGA,200725.00,3356.4657,N,11932.3803,W,1,08,1.3,5.1,M,-33.8,M,,*54
$PYRTM,2024,126.838513485451,17.948160895590
$GPGGA,200726.00,3356.4655,N,11932.3807,W,1,08,1.3,5.1,M,-33.8,M,,*51
$PYRTM,2024,126.838525072558,17.948172482697
$GPGGA,200727.00,3356.4653,N,11932.3811,W,1,08,1.3,5.1,M,-33.8,M,,*51
$PYRTM,2024,126.838536633819,17.948184043958
$GPGGA,200728.00,3356.4652,N,11932.3814,W,1,08,1.3,5.1,M,-33.8,M,,*5A
$PYRTM,2024,126.838545329907,17.948192740046
$GPGGA,200729.00,3356.4650,N,11932.3815,W,1,08,1.3,5.1,M,-33.8,M,,*58
$PYRTM,2024,126.838556890150,17.948204300289
$GPGGA,200730.00,3356.4648,N,11932.3819,W,1,08,1.3,5.1,M,-33.8,M,,*55
$PYRTM,2024,126.838564180428,17.948211590579
$GPGGA,200731.00,3356.4645,N,11932.3822,W,1,08,1.3,5.1,M,-33.8,M,,*51
$PYRTM,2024,126.838580036817,17.948227446956
$GPGGA,200732.00,3356.4642,N,11932.3826,W,1,08,1.3,5.1,M,-33.8,M,,*51
$PYRTM,2024,126.838591623646,17.948239033785
$GPGGA,200733.00,3356.4640,N,11932.3828,W,1,08,1.3,5.1,M,-33.8,M,,*5C
$PYRTM,2024,126.838598918322,17.948246328461
$GPGGA,200734.00,3356.4640,N,11932.3829,W,1,08,1.3,5.1,M,-33.8,M,,*5A
$PYRTM,2024,126.838614772187,17.948262182326
$GPGGA,200735.00,3356.4638,N,11932.3833,W,1,08,1.3,5.1,M,-33.8,M,,*5F
$PYRTM,2024,126.838626334907,17.948273745046
$GPGGA,200736.00,3356.4635,N,11932.3837,W,1,08,1.3,5.1,M,-33.8,M,,*55
$PYRTM,2024,126.838638151620,17.948285561759
$GPGGA,200737.00,3356.4631,N,11932.3840,W,1,08,1.3,5.2,M,-33.8,M,,*53
$PYRTM,2024,126.838649482477,17.948296892627
$GPGGA,200738.00,3356.4630,N,11932.3841,W,1,08,1.3,5.1,M,-33.8,M,,*5F
$PYRTM,2024,126.838661071481,17.948308481620
$GPGGA,200739.00,3356.4629,N,11932.3843,W,1,08,1.3,5.1,M,-33.8,M,,*54
$PYRTM,2024,126.838668359988,17.948315770127
$GPGGA,200740.00,3356.4628,N,11932.3848,W,1,08,1.3,5.2,M,-33.8,M,,*53
$PYRTM,2024,126.838684230810,17.948331640961
$GPGGA,200741.00,3356.4626,N,11932.3854,W,1,08,1.3,5.2,M,-33.8,M,,*51
$PYRTM,2024,126.838695778889,17.948343189028
$GPGGA,200742.00,3356.4623,N,11932.3856,W,1,08,1.3,5.2,M,-33.8,M,,*55
$PYRTM,2024,126.838703082164,17.948350492303
$GPGGA,200743.00,3356.4621,N,11932.3856,W,1,08,1.3,5.2,M,-33.8,M,,*56
$PYRTM,2024,126.838718925949,17.948366336088
$GPGGA,200744.00,3356.4620,N,11932.3857,W,1,08,1.3,5.2,M,-33.8,M,,*51
$PYRTM,2024,126.838730515648,17.948377925787
$GPGGA,200745.00,3356.4619,N,11932.3862,W,1,08,1.3,5.2,M,-33.8,M,,*5C
$PYRTM,2024,126.838737819039,17.948385229178
$GPGGA,200746.00,3356.4617,N,11932.3867,W,1,08,1.3,5.2,M,-33.8,M,,*54
$PYRTM,2024,126.838753663484,17.948401073623
$GPGGA,200747.00,3356.4613,N,11932.3869,W,1,08,1.3,5.2,M,-33.8,M,,*5F
$PYRTM,2024,126.838765222025,17.948412632164
$GPGGA,200748.00,3356.4610,N,11932.3870,W,1,08,1.3,5.2,M,-33.8,M,,*5B
$PYRTM,2024,126.838772527222,17.948419937373
$GPGGA,200749.00,3356.4609,N,11932.3871,W,1,08,1.3,5.2,M,-33.8,M,,*53
$PYRTM,2024,126.838788370428,17.948435780567
$GPGGA,200750.00,3356.4608,N,11932.3875,W,1,08,1.0,5.2,M,-33.8,M,,*5D
$PYRTM,2024,126.838799958565,17.948447368704
$GPGGA,200751.00,3356.4607,N,11932.3880,W,1,08,1.0,5.2,M,-33.8,M,,*59
$PYRTM,2024,126.838807250637,17.948454660775
$GPGGA,200752.00,3356.4604,N,11932.3884,W,1,08,1.0,5.2,M,-33.8,M,,*5D
$PYRTM,2024,126.838823105926,17.948470516065
$GPGGA,200753.00,3356.4601,N,11932.3885,W,1,08,1.0,5.2,M,-33.8,M,,*58
$PYRTM,2024,126.838830398947,17.948477809086
$GPGGA,200754.00,3356.4599,N,11932.3886,W,1,08,1.0,5.2,M,-33.8,M,,*5E
$PYRTM,2024,126.838849148183,17.948496558333
$GPGGA,200755.00,3356.4598,N,11932.3889,W,1,08,1.0,5.2,M,-33.8,M,,*51
$PYRTM,2024,126.838857817049,17.948505227199
$GPGGA,200756.00,3356.4597,N,11932.3894,W,1,08,1.0,5.2,M,-33.8,M,,*51
$PYRTM,2024,126.838869406655,17.948516816794
$GPGGA,200757.00,3356.4595,N,11932.3898,W,1,08,1.0,5.2,M,-33.8,M,,*5E
$PYRTM,2024,126.838876682627,17.948524092778
$GPGGA,200758.00,3356.4592,N,11932.3899,W,1,08,1.0,5.2,M,-33.8,M,,*57
$PYRTM,2024,126.838892550046,17.948539960185
$GPGGA,200759.00,3356.4589,N,11932.3900,W,1,08,1.0,5.2,M,-33.8,M,,*5D
$PYRTM,2024,126.838904112072,17.948551522211
$GPGGA,200800.00,3356.4588,N,11932.3903,W,1,08,1.0,5.2,M,-33.8,M,,*5C
$PYRTM,2024,126.838911404248,17.948558814387
$GPGGA,200801.00,3356.4587,N,11932.3908,W,1,08,1.0,5.2,M,-33.8,M,,*59
$PYRTM,2024,126.838927260961,17.948574671100
$GPGGA,200802.00,3356.4585,N,11932.3911,W,1,08,1.0,5.2,M,-33.8,M,,*50
$PYRTM,2024,126.838938847130,17.948586257269
$GPGGA,200803.00,3356.4582,N,11932.3913,W,1,08,1.0,5.1,M,-33.8,M,,*57
$PYRTM,2024,126.838946153264,17.948593563403
$GPGGA,200804.00,3356.4580,N,11932.3916,W,1,08,1.0,5.1,M,-33.8,M,,*57
$PYRTM,2024,126.838961995637,17.948609405775
$GPGGA,200805.00,3356.4578,N,11932.3919,W,1,08,1.0,5.1,M,-33.8,M,,*5E
$PYRTM,2024,126.838973556435,17.948620966574
$GPGGA,200806.00,3356.4577,N,11932.3921,W,1,08,1.0,5.1,M,-33.8,M,,*59
$PYRTM,2024,126.838985143553,17.948632553692
$GPGGA,200807.00,3356.4576,N,11932.3924,W,1,08,1.0,5.1,M,-33.8,M,,*5C
$PYRTM,2024,126.838996708067,17.948644118206
$GPGGA,200808.00,3356.4573,N,11932.3927,W,1,08,1.0,5.1,M,-33.8,M,,*55
$PYRTM,2024,126.839008287789,17.948655697928
$GPGGA,200809.00,3356.4570,N,11932.3931,W,1,08,1.0,5.1,M,-33.8,M,,*50
$PYRTM,2024,126.839019853148,17.948667263287
$GPGGA,200810.00,3356.4569,N,11932.3934,W,1,08,1.0,5.1,M,-33.8,M,,*55
$PYRTM,2024,126.839031455683,17.948678865822
$GPGGA,200811.00,3356.4568,N,11932.3937,W,1,08,1.0,5.1,M,-33.8,M,,*56
$PYRTM,2024,126.839043001713,17.948690411852
$GPGGA,200812.00,3356.4566,N,11932.3939,W,1,08,1.0,5.1,M,-33.8,M,,*55
$PYRTM,2024,126.839050293553,17.948697703692
$GPGGA,200813.00,3356.4562,N,11932.3942,W,1,08,1.0,5.1,M,-33.8,M,,*5C
$PYRTM,2024,126.839066150278,17.948713560428
$GPGGA,200814.00,3356.4559,N,11932.3945,W,1,08,1.0,5.1,M,-33.8,M,,*54
$PYRTM,2024,126.839077736782,17.948725146921
$GPGGA,200815.00,3356.4557,N,11932.3949,W,1,08,1.0,5.1,M,-33.8,M,,*57
$PYRTM,2024,126.839085144537,17.948732554676
$GPGGA,200816.00,3356.4557,N,11932.3952,W,1,08,1.0,5.1,M,-33.8,M,,*5E
$PYRTM,2024,126.839100884630,17.948748294769
$GPGGA,200817.00,3356.4556,N,11932.3955,W,1,08,1.0,5.1,M,-33.8,M,,*59
$PYRTM,2024,126.839112446609,17.948759856748
$GPGGA,200818.00,3356.4554,N,11932.3956,W,1,08,1.0,5.1,M,-33.8,M,,*57
$PYRTM,2024,126.839119853715,17.948767263854
$GPGGA,200819.00,3356.4549,N,11932.3959,W,1,08,1.0,5.2,M,-33.8,M,,*56
$PYRTM,2024,126.839135595301,17.948783005440
$GPGGA,200820.00,3356.4547,N,11932.3963,W,1,08,1.0,5.2,M,-33.8,M,,*5B
$PYRTM,2024,126.839147181366,17.948794591505
$GPGGA,200821.00,3356.4546,N,11932.3967,W,1,08,1.0,5.2,M,-33.8,M,,*5F
$PYRTM,2024,126.839154579549,17.948801989687
$GPGGA,200822.00,3356.4546,N,11932.3969,W,1,08,1.0,5.2,M,-33.8,M,,*52
$PYRTM,2024,126.839170330451,17.948817740590
$GPGGA,200823.00,3356.4545,N,11932.3972,W,1,08,1.0,5.2,M,-33.8,M,,*5A
$PYRTM,2024,126.839181890694,17.948829300833
$GPGGA,200824.00,3356.4541,N,11932.3975,W,1,08,1.0,5.2,M,-33.8,M,,*5E
$PYRTM,2024,126.839189195301,17.948836605440
$GPGGA,200825.00,3356.4538,N,11932.3979,W,1,08,1.0,5.2,M,-33.8,M,,*5D
$PYRTM,2024,126.839207932616,17.948855342755
$GPGGA,200826.00,3356.4536,N,11932.3982,W,1,08,1.0,5.2,M,-33.8,M,,*54
$PYRTM,2024,126.839216629549,17.948864039687
$GPGGA,200827.00,3356.4536,N,11932.3985,W,1,08,1.0,5.2,M,-33.8,M,,*52
$PYRTM,2024,126.839228189201,17.948875599352
$GPGGA,200828.00,3356.4534,N,11932.3988,W,1,08,1.0,5.2,M,-33.8,M,,*52
$PYRTM,2024,126.839239778206,17.948887188356
$GPGGA,200829.00,3356.4531,N,11932.3992,W,1,08,1.0,5.2,M,-33.8,M,,*5D
$PYRTM,2024,126.839247068414,17.948894478553
$GPGGA,200830.00,3356.4528,N,11932.3996,W,1,08,1.0,5.2,M,-33.8,M,,*59
$PYRTM,2024,126.839259335509,17.948906745648
$GPGGA,200831.00,3356.4526,N,11932.4000,W,1,08,1.0,5.2,M,-33.8,M,,*57
$PYRTM,2024,126.839274484907,17.948921895046
$GPGGA,200832.00,3356.4525,N,11932.4005,W,1,08,1.0,5.2,M,-33.8,M,,*52
$PYRTM,2024,126.839286071076,17.948933481227
$GPGGA,200833.00,3356.4523,N,11932.4009,W,1,08,1.0,5.2,M,-33.8,M,,*59
$PYRTM,2024,126.839293366042,17.948940776181
$GPGGA,200834.00,3356.4520,N,11932.4013,W,1,08,1.0,5.2,M,-33.8,M,,*56
$PYRTM,2024,126.839309219792,17.948956629931
$GPGGA,200835.00,3356.4517,N,11932.4017,W,1,08,1.0,5.2,M,-33.8,M,,*57
$PYRTM,2024,126.839320781644,17.948968191782
$GPGGA,200836.00,3356.4515,N,11932.4023,W,1,08,1.0,5.2,M,-33.8,M,,*51
$PYRTM,2024,126.839332369583,17.948979779722
$GPGGA,200837.00,3356.4514,N,11932.4030,W,1,08,1.0,5.2,M,-33.8,M,,*53
$PYRTM,2024,126.839343930602,17.948991340741
$GPGGA,200838.00,3356.4512,N,11932.4035,W,1,08,1.0,5.0,M,-33.8,M,,*5D
$PYRTM,2024,126.839355510567,17.949002920706
$GPGGA,200839.00,3356.4510,N,11932.4039,W,1,08,1.0,5.0,M,-33.8,M,,*52
$PYRTM,2024,126.839362801644,17.949010211782
$GPGGA,200840.00,3356.4508,N,11932.4043,W,1,08,1.0,5.1,M,-33.8,M,,*59
$PYRTM,2024,126.839378665150,17.949026075289
