$PYRTM,2024,125.000003690208,16.109651100336
$GPGGA,235959.00,3510.8070,N,12128.5992,W,1,09,1.0,10.4,M,-32.3,M,,*6A
$PYRTM,2024,125.000015279688,16.109662689826
$GPGGA,000000.00,3510.8072,N,12128.5993,W,1,09,1.0,10.4,M,-32.3,M,,*68
$PYRTM,2024,125.000026839537,16.109674249687
$GPGGA,000001.00,3510.8074,N,12128.5992,W,1,09,1.0,10.4,M,-32.3,M,,*6E
$PYRTM,2024,125.000038541493,16.109685951632
$GPGGA,000002.00,3510.8075,N,12128.5991,W,1,09,1.0,10.4,M,-32.3,M,,*6F
$PYRTM,2024,125.000049987616,16.109697397755
$GPGGA,000003.00,3510.8077,N,12128.5992,W,1,09,1.0,10.5,M,-32.3,M,,*6E
$PYRTM,2024,125.000061690035,16.109709100174
$GPGGA,000004.00,3510.8079,N,12128.5995,W,1,09,1.0,10.4,M,-32.3,M,,*61
$PYRTM,2024,125.000073135984,16.109720546134
$GPGGA,000005.00,3510.8080,N,12128.5997,W,1,09,1.0,10.4,M,-32.3,M,,*64
$PYRTM,2024,125.000084725567,16.109732135718
$GPGGA,000006.00,3510.8082,N,12128.5996,W,1,09,1.0,10.4,M,-32.3,M,,*64
$PYRTM,2024,125.000096285324,16.109743695463
$GPGGA,000007.00,3510.8084,N,12128.5994,W,1,09,1.0,10.4,M,-32.3,M,,*61
$PYRTM,2024,125.000103690995,16.109751101134
$GPGGA,000008.00,3510.8086,N,12128.5996,W,1,09,1.0,10.4,M,-32.3,M,,*6E
$PYRTM,2024,125.000122364641,16.109769774780
$GPGGA,000009.00,3510.8087,N,12128.5999,W,1,09,1.0,10.4,M,-32.3,M,,*61
$PYRTM,2024,125.000131015370,16.109778425521
$GPGGA,000010.00,3510.8089,N,12128.6000,W,1,09,1.0,10.4,M,-32.3,M,,*6D
$PYRTM,2024,125.000142579618,16.109789989757
$GPGGA,000011.00,3510.8091,N,12128.5999,W,1,09,1.0,10.4,M,-32.3,M,,*6F
$PYRTM,2024,125.000154171551,16.109801581690
$GPGGA,000012.00,3510.8093,N,12128.5998,W,1,09,1.0,10.4,M,-32.3,M,,*6F
$PYRTM,2024,125.000165728102,16.109813138241
$GPGGA,000013.00,3510.8096,N,12128.6000,W,1,09,1.0,10.4,M,-32.3,M,,*60
$PYRTM,2024,125.000173136424,16.109820546562
$GPGGA,000014.00,3510.8096,N,12128.6002,W,1,09,1.0,10.4,M,-32.3,M,,*65
$PYRTM,2024,125.000188877025,16.109836287164
$GPGGA,000015.00,3510.8096,N,12128.6002,W,1,09,1.0,10.4,M,-32.3,M,,*64
$PYRTM,2024,125.000200464850,16.109847874988
$GPGGA,000016.00,3510.8100,N,12128.6001,W,1,09,1.0,10.4,M,-32.3,M,,*6A
$PYRTM,2024,125.000207871806,16.109855281944
$GPGGA,000017.00,3510.8103,N,12128.6001,W,1,09,1.0,10.4,M,-32.3,M,,*68
$PYRTM,2024,125.000223611759,16.109871021898
$GPGGA,000018.00,3510.8105,N,12128.6003,W,1,09,1.0,10.4,M,-32.3,M,,*63
$PYRTM,2024,125.000235173889,16.109882584028
$GPGGA,000019.00,3510.8104,N,12128.6004,W,1,09,1.0,10.4,M,-32.3,M,,*64
$PYRTM,2024,125.000246762083,16.109894172234
$GPGGA,000020.00,3510.8106,N,12128.6004,W,1,09,1.0,10.4,M,-32.3,M,,*6C
$PYRTM,2024,125.000258322315,16.109905732454
$GPGGA,000021.00,3510.8110,N,12128.6003,W,1,09,1.0,10.4,M,-32.3,M,,*6D
$PYRTM,2024,125.000269924248,16.109917334387
$GPGGA,000022.00,3510.8113,N,12128.6002,W,1,09,1.0,10.4,M,-32.3,M,,*6C
$PYRTM,2024,125.000281471481,16.109928881620
$GPGGA,000023.00,3510.8115,N,12128.6003,W,1,09,1.0,10.4,M,-32.3,M,,*6A
$PYRTM,2024,125.000293173368,16.109940583519
$GPGGA,000024.00,3510.8115,N,12128.6007,W,1,09,1.0,10.4,M,-32.3,M,,*69
$PYRTM,2024,125.000304619317,16.109952029456
$GPGGA,000025.00,3510.8116,N,12128.6008,W,1,09,1.0,10.4,M,-32.3,M,,*64
$PYRTM,2024,125.000316200602,16.109963610741
$GPGGA,000026.00,3510.8119,N,12128.6007,W,1,09,1.0,10.4,M,-32.3,M,,*67
$PYRTM,2024,125.000327767789,16.109975177928
$GPGGA,000027.00,3510.8122,N,12128.6005,W,1,09,1.0,10.4,M,-32.3,M,,*6C
$PYRTM,2024,125.000339355104,16.109986765243
$GPGGA,000028.00,3510.8124,N,12128.6007,W,1,09,1.0,10.4,M,-32.3,M,,*67
$PYRTM,2024,125.000350916528,16.109998326667
$GPGGA,000029.00,3510.8125,N,12128.6011,W,1,09,1.0,10.4,M,-32.3,M,,*60
$PYRTM,2024,125.000358324838,16.110005734977
$GPGGA,000030.00,3510.8126,N,12128.6012,W,1,09,1.0,10.4,M,-32.3,M,,*68
$PYRTM,2024,125.000374062789,16.110021472928
$GPGGA,000031.00,3510.8128,N,12128.6011,W,1,09,1.0,10.4,M,-32.3,M,,*64
$PYRTM,2024,125.000385653669,16.110033063808
$GPGGA,000032.00,3510.8131,N,12128.6009,W,1,09,1.0,10.4,M,-32.3,M,,*66
$PYRTM,2024,125.000393047396,16.110040457546
$GPGGA,000033.00,3510.8134,N,12128.6010,W,1,09,1.0,10.4,M,-32.3,M,,*6A
$PYRTM,2024,125.000408798414,16.110056208553
$GPGGA,000034.00,3510.8136,N,12128.6013,W,1,09,1.0,10.4,M,-32.3,M,,*6C
$PYRTM,2024,125.000416208056,16.110063618194
$GPGGA,000035.00,3510.8137,N,12128.6015,W,1,09,1.0,10.4,M,-32.3,M,,*6A
$PYRTM,2024,125.000431946389,16.110079356539
$GPGGA,000036.00,3510.8140,N,12128.6015,W,1,09,1.0,10.4,M,-32.3,M,,*69
$PYRTM,2024,125.000443509259,16.110090919398
$GPGGA,000037.00,3510.8143,N,12128.6014,W,1,09,1.0,10.4,M,-32.3,M,,*6A
$PYRTM,2024,125.000450915903,16.110098326042
$GPGGA,000038.00,3510.8144,N,12128.6012,W,1,09,1.0,10.4,M,-32.3,M,,*64
$PYRTM,2024,125.000462606192,16.110110016331
$GPGGA,000039.00,3510.8147,N,12128.6013,W,1,09,1.0,10.4,M,-32.3,M,,*67
$PYRTM,2024,125.000481138067,16.110128548206
$GPGGA,000040.00,3510.8150,N,12128.6015,W,1,09,1.0,10.4,M,-32.3,M,,*69
$PYRTM,2024,125.000489804664,16.110137214803
$GPGGA,000041.00,3510.8152,N,12128.6019,W,1,09,1.0,10.4,M,-32.3,M,,*66
$PYRTM,2024,125.000501404919,16.110148815058
$GPGGA,000042.00,3510.8152,N,12128.6021,W,1,09,1.0,10.4,M,-32.3,M,,*6E
$PYRTM,2024,125.000512952731,16.110160362870
$GPGGA,000043.00,3510.8153,N,12128.6018,W,1,09,1.0,10.4,M,-32.3,M,,*64
$PYRTM,2024,125.000524534178,16.110171944317
$GPGGA,000044.00,3510.8155,N,12128.6014,W,1,09,1.0,10.4,M,-32.3,M,,*69
$PYRTM,2024,125.000536101470,16.110183511609
$GPGGA,000045.00,3510.8159,N,12128.6013,W,1,09,1.0,10.4,M,-32.3,M,,*63
$PYRTM,2024,125.000547684329,16.110195094468
$GPGGA,000046.00,3510.8161,N,12128.6017,W,1,09,1.0,10.4,M,-32.3,M,,*6F
$PYRTM,2024,125.000559249769,16.110206659907
$GPGGA,000047.00,3510.8161,N,12128.6022,W,1,09,1.0,10.4,M,-32.3,M,,*68
$PYRTM,2024,125.000566663333,16.110214073472
$GPGGA,000048.00,3510.8161,N,12128.6023,W,1,09,1.0,10.4,M,-32.3,M,,*66
$PYRTM,2024,125.000582397465,16.110229807604
$GPGGA,000049.00,3510.8164,N,12128.6019,W,1,09,1.0,10.4,M,-32.3,M,,*6B
$PYRTM,2024,125.000593998819,16.110241408970
$GPGGA,000050.00,3510.8169,N,12128.6013,W,1,09,1.0,10.5,M,-32.3,M,,*65
$PYRTM,2024,125.000601378854,16.110248788993
$GPGGA,000051.00,3510.8172,N,12128.6013,W,1,09,1.0,10.5,M,-32.3,M,,*6E
$PYRTM,2024,125.000617132211,16.110264542350
$GPGGA,000052.00,3510.8172,N,12128.6021,W,1,09,1.0,10.5,M,-32.3,M,,*6C
$PYRTM,2024,125.000628693600,16.110276103738
$GPGGA,000053.00,3510.8172,N,12128.6026,W,1,09,1.0,10.5,M,-32.3,M,,*6A
$PYRTM,2024,125.000636101713,16.110283511852
$GPGGA,000054.00,3510.8173,N,12128.6024,W,1,09,1.0,10.5,M,-32.3,M,,*6E
$PYRTM,2024,125.000647794167,16.110295204306
$GPGGA,000055.00,3510.8177,N,12128.6018,W,1,09,1.0,10.5,M,-32.3,M,,*64
$PYRTM,2024,125.000663429641,16.110310839780
$GPGGA,000056.00,3510.8180,N,12128.6015,W,1,09,1.0,10.6,M,-32.3,M,,*61
$PYRTM,2024,125.000674991319,16.110322401458
$GPGGA,000057.00,3510.8182,N,12128.6019,W,1,09,1.0,10.6,M,-32.3,M,,*6E
$PYRTM,2024,125.000686578715,16.110333988854
$GPGGA,000058.00,3510.8182,N,12128.6026,W,1,09,1.0,10.6,M,-32.3,M,,*6D
$PYRTM,2024,125.000693973056,16.110341383194
$GPGGA,000059.00,3510.8182,N,12128.6029,W,1,09,1.0,10.6,M,-32.3,M,,*63
$PYRTM,2024,125.000709725266,16.110357135405
$GPGGA,000100.00,3510.8184,N,12128.6025,W,1,09,1.0,10.6,M,-32.3,M,,*64
$PYRTM,2024,125.000721287141,16.110368697280
$GPGGA,000101.00,3510.8189,N,12128.6019,W,1,09,1.0,10.5,M,-32.3,M,,*64
$PYRTM,2024,125.000732878738,16.110380288877
$GPGGA,000102.00,3510.8192,N,12128.6019,W,1,09,1.0,10.5,M,-32.3,M,,*6D
$PYRTM,2024,125.000744434086,16.110391844225
$GPGGA,000103.00,3510.8192,N,12128.6026,W,1,09,1.0,10.5,M,-32.3,M,,*60
$PYRTM,2024,125.000756025694,16.110403435845
$GPGGA,000104.00,3510.8191,N,12128.6032,W,1,09,1.0,10.5,M,-32.3,M,,*61
$PYRTM,2024,125.000767585313,16.110414995451
$GPGGA,000105.00,3510.8193,N,12128.6030,W,1,09,1.0,10.5,M,-32.3,M,,*60
$PYRTM,2024,125.000779171921,16.110426582060
$GPGGA,000106.00,3510.8196,N,12128.6024,W,1,09,1.0,10.5,M,-32.3,M,,*63
$PYRTM,2024,125.000790731771,16.110438141910
$GPGGA,000107.00,3510.8200,N,12128.6021,W,1,09,1.0,10.6,M,-32.3,M,,*68
$PYRTM,2024,125.000802319236,16.110449729375
$GPGGA,000108.00,3510.8202,N,12128.6025,W,1,09,1.0,10.6,M,-32.3,M,,*61
$PYRTM,2024,125.000813879676,16.110461289826
$GPGGA,000109.00,3510.8201,N,12128.6032,W,1,09,1.0,10.6,M,-32.3,M,,*65
$PYRTM,2024,125.000821287419,16.110468697558
$GPGGA,000110.00,3510.8202,N,12128.6035,W,1,09,1.0,10.5,M,-32.3,M,,*6A
$PYRTM,2024,125.000839959340,16.110487369479
$GPGGA,000111.00,3510.8205,N,12128.6032,W,1,09,1.0,10.5,M,-32.3,M,,*6B
$PYRTM,2024,125.000848619167,16.110496029306
$GPGGA,000112.00,3510.8209,N,12128.6026,W,1,09,1.0,10.5,M,-32.3,M,,*61
$PYRTM,2024,125.000860175648,16.110507585787
$GPGGA,000113.00,3510.8212,N,12128.6026,W,1,09,1.0,10.5,M,-32.3,M,,*6A
$PYRTM,2024,125.000871763947,16.110519174086
$GPGGA,000114.00,3510.8213,N,12128.6032,W,1,09,1.0,10.5,M,-32.3,M,,*69
$PYRTM,2024,125.000883326528,16.110530736667
$GPGGA,000115.00,3510.8212,N,12128.6038,W,1,09,1.0,10.5,M,-32.3,M,,*63
$PYRTM,2024,125.000894913102,16.110542323241
$GPGGA,000116.00,3510.8214,N,12128.6040,W,1,09,1.0,10.5,M,-32.3,M,,*69
$PYRTM,2024,125.000906472731,16.110553882870
$GPGGA,000117.00,3510.8218,N,12128.6036,W,1,09,1.0,10.5,M,-32.3,M,,*65
$PYRTM,2024,125.000918063935,16.110565474074
$GPGGA,000118.00,3510.8220,N,12128.6033,W,1,09,1.0,10.5,M,-32.3,M,,*64
$PYRTM,2024,125.000929622211,16.110577032350
$GPGGA,000119.00,3510.8221,N,12128.6034,W,1,09,1.0,10.5,M,-32.3,M,,*63
$PYRTM,2024,125.000941207859,16.110588617998
$GPGGA,000120.00,3510.8222,N,12128.6040,W,1,09,1.0,10.6,M,-32.3,M,,*6A
$PYRTM,2024,125.000952770694,16.110600180833
$GPGGA,000121.00,3510.8223,N,12128.6044,W,1,09,1.0,10.6,M,-32.3,M,,*6E
$PYRTM,2024,125.000964356748,16.110611766887
$GPGGA,000122.00,3510.8225,N,12128.6045,W,1,09,1.0,10.6,M,-32.3,M,,*6A
$PYRTM,2024,125.000975920718,16.110623330856
$GPGGA,000123.00,3510.8227,N,12128.6043,W,1,09,1.0,10.6,M,-32.3,M,,*6F
$PYRTM,2024,125.000987505671,16.110634915810
$GPGGA,000124.00,3510.8230,N,12128.6041,W,1,09,1.0,10.6,M,-32.3,M,,*6C
$PYRTM,2024,125.000999067604,16.110646477743
$GPGGA,000125.00,3510.8231,N,12128.6044,W,1,09,1.0,10.6,M,-32.3,M,,*69
$PYRTM,2024,125.001010654387,16.110658064525
$GPGGA,000126.00,3510.8233,N,12128.6047,W,1,09,1.0,10.6,M,-32.3,M,,*6B
$PYRTM,2024,125.001018048681,16.110665458831
$GPGGA,000127.00,3510.8234,N,12128.6049,W,1,09,1.0,10.6,M,-32.3,M,,*63
$PYRTM,2024,125.001033801852,16.110681211991
$GPGGA,000128.00,3510.8236,N,12128.6051,W,1,09,1.0,10.6,M,-32.3,M,,*67
$PYRTM,2024,125.001045363762,16.110692773900
$GPGGA,000129.00,3510.8239,N,12128.6051,W,1,09,0.8,10.6,M,-32.3,M,,*60
$PYRTM,2024,125.001056953912,16.110704364051
$GPGGA,000130.00,3510.8241,N,12128.6052,W,1,09,0.8,10.6,M,-32.3,M,,*64
$PYRTM,2024,125.001068511319,16.110715921458
$GPGGA,000131.00,3510.8241,N,12128.6053,W,1,09,0.8,10.6,M,-32.3,M,,*64
$PYRTM,2024,125.001075918935,16.110723329074
$GPGGA,000132.00,3510.8242,N,12128.6053,W,1,09,0.8,10.6,M,-32.3,M,,*64
$PYRTM,2024,125.001091660174,16.110739070313
$GPGGA,000133.00,3510.8245,N,12128.6053,W,1,09,0.8,10.7,M,-32.3,M,,*63
$PYRTM,2024,125.001099067106,16.110746477257
$GPGGA,000134.00,3510.8248,N,12128.6055,W,1,09,0.8,10.7,M,-32.3,M,,*6F
$PYRTM,2024,125.001110871539,16.110758281678
$GPGGA,000135.00,3510.8249,N,12128.6058,W,1,09,0.8,10.7,M,-32.3,M,,*62
$PYRTM,2024,125.001126504965,16.110773915104
$GPGGA,000136.00,3510.8250,N,12128.6059,W,1,09,0.8,10.7,M,-32.3,M,,*68
$PYRTM,2024,125.001138095058,16.110785505197
$GPGGA,000137.00,3510.8252,N,12128.6057,W,1,09,0.8,10.7,M,-32.3,M,,*65
$PYRTM,2024,125.001149660787,16.110797070926
$GPGGA,000138.00,3510.8255,N,12128.6056,W,1,09,0.8,10.7,M,-32.3,M,,*6C
$PYRTM,2024,125.001161259363,16.110808669502
$GPGGA,000139.00,3510.8258,N,12128.6058,W,1,09,0.8,10.7,M,-32.3,M,,*6E
$PYRTM,2024,125.001172808484,16.110820218623
$GPGGA,000140.00,3510.8259,N,12128.6062,W,1,09,0.8,10.6,M,-32.3,M,,*69
$PYRTM,2024,125.001180202755,16.110827612894
$GPGGA,000141.00,3510.8260,N,12128.6064,W,1,09,0.8,10.6,M,-32.3,M,,*64
$PYRTM,2024,125.001198848623,16.110846258762
$GPGGA,000142.00,3510.8262,N,12128.6065,W,1,10,0.8,10.6,M,-32.3,M,,*6C
$PYRTM,2024,125.001210307118,16.110857717257
$GPGGA,000143.00,3510.8264,N,12128.6064,W,1,10,0.8,10.6,M,-32.3,M,,*6A
$PYRTM,2024,125.001221881065,16.110869291204
$GPGGA,000144.00,3510.8266,N,12128.6063,W,1,10,0.8,10.6,M,-32.3,M,,*68
$PYRTM,2024,125.001230549884,16.110877960023
$GPGGA,000145.00,3510.8268,N,12128.6066,W,1,10,0.8,10.6,M,-32.3,M,,*62
$PYRTM,2024,125.001242139780,16.110889549919
$GPGGA,000146.00,3510.8269,N,12128.6070,W,1,10,0.8,10.6,M,-32.3,M,,*67
$PYRTM,2024,125.001253697731,16.110901107870
$GPGGA,000147.00,3510.8270,N,12128.6072,W,1,10,0.8,10.6,M,-32.3,M,,*6C
$PYRTM,2024,125.001265285046,16.110912695185
$GPGGA,000148.00,3510.8273,N,12128.6069,W,1,10,0.8,10.6,M,-32.3,M,,*6A
$PYRTM,2024,125.001276847315,16.110924257454
$GPGGA,000149.00,3510.8277,N,12128.6067,W,1,10,0.8,10.6,M,-32.3,M,,*61
$PYRTM,2024,125.001288432616,16.110935842755
$GPGGA,000150.00,3510.8279,N,12128.6070,W,1,10,0.8,10.6,M,-32.3,M,,*61
$PYRTM,2024,125.001299993264,16.110947403403
$GPGGA,000151.00,3510.8279,N,12128.6076,W,1,10,0.8,10.6,M,-32.3,M,,*66
$PYRTM,2024,125.001311575764,16.110958985903
$GPGGA,000152.00,3510.8279,N,12128.6079,W,1,10,0.8,10.6,M,-32.3,M,,*6A
$PYRTM,2024,125.001318979167,16.110966389306
$GPGGA,000153.00,3510.8281,N,12128.6076,W,1,10,0.8,10.6,M,-32.3,M,,*63
$PYRTM,2024,125.001334732442,16.110982142581
$GPGGA,000154.00,3510.8285,N,12128.6072,W,1,10,0.8,10.6,M,-32.3,M,,*64
$PYRTM,2024,125.001346290671,16.110993700810
$GPGGA,000155.00,3510.8287,N,12128.6073,W,1,10,0.8,10.6,M,-32.3,M,,*66
$PYRTM,2024,125.001353699456,16.111001109595
$GPGGA,000156.00,3510.8287,N,12128.6080,W,1,10,0.8,10.6,M,-32.3,M,,*69
$PYRTM,2024,125.001369438449,16.111016848588
$GPGGA,000157.00,3510.8287,N,12128.6085,W,1,10,0.8,10.6,M,-32.3,M,,*6D
$PYRTM,2024,125.001376846933,16.111024257072
$GPGGA,000158.00,3510.8289,N,12128.6082,W,1,10,0.8,10.6,M,-32.3,M,,*6B
$PYRTM,2024,125.001392587963,16.111039998102
$GPGGA,000159.00,3510.8292,N,12128.6079,W,1,10,0.8,10.6,M,-32.3,M,,*64
$PYRTM,2024,125.001399995660,16.111047405810
$GPGGA,000200.00,3510.8293,N,12128.6080,W,1,10,0.8,10.6,M,-32.3,M,,*6C
$PYRTM,2024,125.001415735336,16.111063145475
$GPGGA,000201.00,3510.8294,N,12128.6086,W,1,10,0.8,10.6,M,-32.3,M,,*6C
$PYRTM,2024,125.001427316597,16.111074726736
$GPGGA,000202.00,3510.8295,N,12128.6091,W,1,10,0.8,10.7,M,-32.3,M,,*69
$PYRTM,2024,125.001438884282,16.111086294421
$GPGGA,000203.00,3510.8298,N,12128.6089,W,1,10,0.8,10.7,M,-32.3,M,,*6C
$PYRTM,2024,125.001450466319,16.111097876458
$GPGGA,000204.00,3510.8301,N,12128.6084,W,1,10,0.8,10.7,M,-32.3,M,,*67
$PYRTM,2024,125.001462031667,16.111109441817
$GPGGA,000205.00,3510.8304,N,12128.6083,W,1,10,0.8,10.7,M,-32.3,M,,*64
$PYRTM,2024,125.001473622118,16.111121032257
$GPGGA,000206.00,3510.8305,N,12128.6089,W,1,10,0.8,10.7,M,-32.3,M,,*6C
$PYRTM,2024,125.001485181956,16.111132592106
$GPGGA,000207.00,3510.8305,N,12128.6094,W,1,10,0.8,10.7,M,-32.3,M,,*61
$PYRTM,2024,125.001496770903,16.111144181042
$GPGGA,000208.00,3510.8307,N,12128.6091,W,1,10,0.8,10.7,M,-32.3,M,,*69
$PYRTM,2024,125.001508327060,16.111155737199
$GPGGA,000209.00,3510.8311,N,12128.6086,W,1,10,0.8,10.6,M,-32.3,M,,*68
$PYRTM,2024,125.001519918889,16.111167329028
$GPGGA,000210.00,3510.8314,N,12128.6085,W,1,10,0.8,10.5,M,-32.3,M,,*65
$PYRTM,2024,125.001527311725,16.111174721863
$GPGGA,000211.00,3510.8314,N,12128.6090,W,1,10,0.8,10.5,M,-32.3,M,,*60
$PYRTM,2024,125.001539010914,16.111186421053
$GPGGA,000212.00,3510.8313,N,12128.6095,W,1,10,0.8,10.5,M,-32.3,M,,*61
$PYRTM,2024,125.001557530463,16.111204940602
$GPGGA,000213.00,3510.8316,N,12128.6095,W,1,10,0.8,10.5,M,-32.3,M,,*65
$PYRTM,2024,125.001566212512,16.111213622650
$GPGGA,000214.00,3510.8319,N,12128.6091,W,1,10,0.8,10.5,M,-32.3,M,,*69
$PYRTM,2024,125.001577774977,16.111225185116
$GPGGA,000215.00,3510.8321,N,12128.6089,W,1,10,0.8,10.5,M,-32.3,M,,*6A
$PYRTM,2024,125.001589355289,16.111236765428
$GPGGA,000216.00,3510.8323,N,12128.6091,W,1,10,0.8,10.5,M,-32.3,M,,*62
$PYRTM,2024,125.001600921285,16.111248331424
$GPGGA,000217.00,3510.8324,N,12128.6096,W,1,10,0.8,10.5,M,-32.3,M,,*63
$PYRTM,2024,125.001612509745,16.111259919884
$GPGGA,000218.00,3510.8324,N,12128.6099,W,1,10,0.8,10.5,M,-32.3,M,,*63
$PYRTM,2024,125.001624069757,16.111271479896
$GPGGA,000219.00,3510.8327,N,12128.6097,W,1,10,0.8,10.5,M,-32.3,M,,*6F
$PYRTM,2024,125.001635651713,16.111283061852
$GPGGA,000220.00,3510.8331,N,12128.6094,W,1,10,0.8,10.5,M,-32.3,M,,*61
$PYRTM,2024,125.001643053611,16.111290463750
$GPGGA,000221.00,3510.8333,N,12128.6094,W,1,10,0.8,10.5,M,-32.3,M,,*62
$PYRTM,2024,125.001658818762,16.111306228900
$GPGGA,000222.00,3510.8334,N,12128.6097,W,1,10,0.8,10.5,M,-32.3,M,,*65
$PYRTM,2024,125.001670368750,16.111317778889
$GPGGA,000223.00,3510.8335,N,12128.6101,W,1,10,0.8,10.5,M,-32.3,M,,*6B
$PYRTM,2024,125.001681948102,16.111329358252
$GPGGA,000224.00,3510.8337,N,12128.6102,W,1,10,0.8,10.5,M,-32.3,M,,*6D
$PYRTM,2024,125.001693516192,16.111340926331
$GPGGA,000225.00,3510.8339,N,12128.6100,W,1,10,0.8,10.5,M,-32.3,M,,*60
$PYRTM,2024,125.001705100787,16.111352510926
$GPGGA,000226.00,3510.8342,N,12128.6098,W,1,10,0.8,10.5,M,-32.3,M,,*6F
$PYRTM,2024,125.001716663218,16.111364073356
$GPGGA,000227.00,3510.8343,N,12128.6101,W,1,10,0.8,10.5,M,-32.3,M,,*6E
$PYRTM,2024,125.001728250440,16.111375660579
$GPGGA,000228.00,3510.8344,N,12128.6105,W,1,10,0.8,10.5,M,-32.3,M,,*62
$PYRTM,2024,125.001739812222,16.111387222361
$GPGGA,000229.00,3510.8345,N,12128.6106,W,1,10,0.8,10.5,M,-32.3,M,,*61
$PYRTM,2024,125.001751399294,16.111398809433
$GPGGA,000230.00,3510.8347,N,12128.6105,W,1,10,0.8,10.5,M,-32.3,M,,*68
$PYRTM,2024,125.001762960590,16.111410370741
$GPGGA,000231.00,3510.8351,N,12128.6103,W,1,10,0.8,10.5,M,-32.3,M,,*68
$PYRTM,2024,125.001770368681,16.111417778819
$GPGGA,000232.00,3510.8352,N,12128.6104,W,1,10,0.8,10.5,M,-32.3,M,,*6F
$PYRTM,2024,125.001786108981,16.111433519120
$GPGGA,000233.00,3510.8352,N,12128.6107,W,1,10,0.8,10.5,M,-32.3,M,,*6D
$PYRTM,2024,125.001797694549,16.111445104688
$GPGGA,000234.00,3510.8354,N,12128.6110,W,1,10,0.8,10.5,M,-32.3,M,,*6A
$PYRTM,2024,125.001809256806,16.111456666944
$GPGGA,000235.00,3510.8357,N,12128.6109,W,1,10,0.8,10.5,M,-32.3,M,,*60
$PYRTM,2024,125.001816663426,16.111464073565
$GPGGA,000236.00,3510.8360,N,12128.6107,W,1,10,0.8,10.5,M,-32.3,M,,*69
$PYRTM,2024,125.001832406586,16.111479816725
$GPGGA,000237.00,3510.8362,N,12128.6105,W,1,10,0.8,10.5,M,-32.3,M,,*68
$PYRTM,2024,125.001843990984,16.111491401123
$GPGGA,000238.00,3510.8363,N,12128.6108,W,1,10,0.8,10.5,M,-32.3,M,,*6B
$PYRTM,2024,125.001855552662,16.111502962813
$GPGGA,000239.00,3510.8364,N,12128.6113,W,1,10,0.8,10.5,M,-32.3,M,,*67
$PYRTM,2024,125.001867143241,16.111514553380
$GPGGA,000240.00,3510.8367,N,12128.6115,W,1,10,0.8,10.5,M,-32.3,M,,*6C
$PYRTM,2024,125.001878701655,16.111526111794
$GPGGA,000241.00,3510.8368,N,12128.6112,W,1,10,0.8,10.5,M,-32.3,M,,*65
$PYRTM,2024,125.001890291887,16.111537702025
$GPGGA,000242.00,3510.8371,N,12128.6109,W,1,10,0.8,10.5,M,-32.3,M,,*64
$PYRTM,2024,125.001897683160,16.111545093299
$GPGGA,000243.00,3510.8373,N,12128.6110,W,1,10,0.8,10.5,M,-32.3,M,,*6F
$PYRTM,2024,125.001916328843,16.111563738981
$GPGGA,000244.00,3510.8373,N,12128.6114,W,1,10,0.8,10.5,M,-32.3,M,,*6C
$PYRTM,2024,125.001924996366,16.111572406505
$GPGGA,000245.00,3510.8374,N,12128.6116,W,1,10,0.8,10.5,M,-32.3,M,,*68
$PYRTM,2024,125.001936583877,16.111583994016
$GPGGA,000246.00,3510.8377,N,12128.6115,W,1,10,0.8,10.5,M,-32.3,M,,*6B
$PYRTM,2024,125.001948144861,16.111595555000
$GPGGA,000247.00,3510.8381,N,12128.6113,W,1,10,0.8,10.5,M,-32.3,M,,*65
$PYRTM,2024,125.001959732002,16.111607142141
$GPGGA,000248.00,3510.8382,N,12128.6112,W,1,10,0.8,10.5,M,-32.3,M,,*68
$PYRTM,2024,125.001971294653,16.111618704792
$GPGGA,000249.00,3510.8382,N,12128.6113,W,1,10,0.8,10.5,M,-32.3,M,,*68
$PYRTM,2024,125.001982883750,16.111630293889
$GPGGA,000250.00,3510.8384,N,12128.6116,W,1,10,0.8,10.5,M,-32.3,M,,*63
$PYRTM,2024,125.001990277859,16.111637687998
$GPGGA,000251.00,3510.8387,N,12128.6118,W,1,10,0.8,10.5,M,-32.3,M,,*6F
$PYRTM,2024,125.002006033079,16.111653443218
$GPGGA,000252.00,3510.8390,N,12128.6116,W,1,10,0.8,10.6,M,-32.3,M,,*67
$PYRTM,2024,125.002017589745,16.111664999884
$GPGGA,000253.00,3510.8392,N,12128.6113,W,1,10,0.8,10.6,M,-32.3,M,,*61
$PYRTM,2024,125.002029174572,16.111676584711
$GPGGA,000254.00,3510.8393,N,12128.6112,W,1,10,0.8,10.6,M,-32.3,M,,*66
$PYRTM,2024,125.002040739606,16.111688149745
$GPGGA,000255.00,3510.8395,N,12128.6116,W,1,10,0.8,10.6,M,-32.3,M,,*65
$PYRTM,2024,125.002052327002,16.111699737141
$GPGGA,000256.00,3510.8397,N,12128.6119,W,1,10,0.8,10.6,M,-32.3,M,,*6B
$PYRTM,2024,125.002063886701,16.111711296840
$GPGGA,000257.00,3510.8398,N,12128.6119,W,1,10,0.8,10.6,M,-32.3,M,,*65
$PYRTM,2024,125.002075468947,16.111722879086
$GPGGA,000258.00,3510.8401,N,12128.6116,W,1,10,0.8,10.5,M,-32.3,M,,*61
$PYRTM,2024,125.002087034213,16.111734444352
$GPGGA,000259.00,3510.8404,N,12128.6114,W,1,10,0.8,10.6,M,-32.3,M,,*64
$PYRTM,2024,125.002098622245,16.111746032384
$GPGGA,000300.00,3510.8407,N,12128.6116,W,1,10,0.8,10.5,M,-32.3,M,,*6B
$PYRTM,2024,125.002110183958,16.111757594097
$GPGGA,000301.00,3510.8407,N,12128.6118,W,1,10,0.8,10.5,M,-32.3,M,,*64
$PYRTM,2024,125.002121772882,16.111769183021
$GPGGA,000302.00,3510.8408,N,12128.6120,W,1,10,0.8,10.6,M,-32.3,M,,*60
$PYRTM,2024,125.002133332940,16.111780743079
$GPGGA,000303.00,3510.8410,N,12128.6119,W,1,10,0.8,10.6,M,-32.3,M,,*62
$PYRTM,2024,125.002140739120,16.111788149259
$GPGGA,000304.00,3510.8414,N,12128.6116,W,1,10,0.8,10.6,M,-32.3,M,,*6E
$PYRTM,2024,125.002156479687,16.111803889826
$GPGGA,000305.00,3510.8417,N,12128.6114,W,1,10,0.8,10.6,M,-32.3,M,,*6E
$PYRTM,2024,125.002168069873,16.111815480012
$GPGGA,000306.00,3510.8418,N,12128.6116,W,1,10,0.8,10.6,M,-32.3,M,,*60
$PYRTM,2024,125.002179630069,16.111827040220
$GPGGA,000307.00,3510.8419,N,12128.6119,W,1,10,0.8,10.6,M,-32.3,M,,*6F
$PYRTM,2024,125.002191217326,16.111838627465
$GPGGA,000308.00,3510.8421,N,12128.6120,W,1,10,0.8,10.6,M,-32.3,M,,*61
$PYRTM,2024,125.002198609722,16.111846019861
$GPGGA,000309.00,3510.8424,N,12128.6118,W,1,10,0.8,10.6,M,-32.3,M,,*6E
$PYRTM,2024,125.002214364641,16.111861774780
$GPGGA,000310.00,3510.8427,N,12128.6116,W,1,10,0.8,10.6,M,-32.3,M,,*6B
$PYRTM,2024,125.002225923565,16.111873333704
$GPGGA,000311.00,3510.8429,N,12128.6116,W,1,10,0.8,10.6,M,-32.3,M,,*64
$PYRTM,2024,125.002237511887,16.111884922025
$GPGGA,000312.00,3510.8431,N,12128.6117,W,1,10,0.8,10.6,M,-32.3,M,,*6F
$PYRTM,2024,125.002249073484,16.111896483634
$GPGGA,000313.00,3510.8433,N,12128.6119,W,1,10,0.8,10.7,M,-32.3,M,,*63
$PYRTM,2024,125.002256481088,16.111903891227
$GPGGA,000314.00,3510.8436,N,12128.6119,W,1,10,0.8,10.7,M,-32.3,M,,*61
$PYRTM,2024,125.002275135694,16.111922545833
$GPGGA,000315.00,3510.8437,N,12128.6117,W,1,10,0.8,10.7,M,-32.3,M,,*6F
$PYRTM,2024,125.002283808206,16.111931218345
$GPGGA,000316.00,3510.8440,N,12128.6115,W,1,10,0.8,10.7,M,-32.3,M,,*6E
$PYRTM,2024,125.002295369977,16.111942780116
$GPGGA,000317.00,3510.8443,N,12128.6116,W,1,10,0.8,10.7,M,-32.3,M,,*6F
$PYRTM,2024,125.002306961262,16.111954371400
$GPGGA,000318.00,3510.8445,N,12128.6118,W,1,10,0.8,10.7,M,-32.3,M,,*68
$PYRTM,2024,125.002314351701,16.111961761840
$GPGGA,000319.00,3510.8446,N,12128.6119,W,1,10,0.8,10.6,M,-32.3,M,,*6A
$PYRTM,2024,125.002330099907,16.111977510058
$GPGGA,000320.00,3510.8447,N,12128.6118,W,1,10,0.8,10.6,M,-32.3,M,,*60
$PYRTM,2024,125.002337515243,16.111984925382
$GPGGA,000321.00,3510.8450,N,12128.6116,W,1,10,0.8,10.6,M,-32.3,M,,*69
$PYRTM,2024,125.002353254468,16.112000664606
$GPGGA,000322.00,3510.8453,N,12128.6115,W,1,10,0.8,10.6,M,-32.3,M,,*6A
$PYRTM,2024,125.002364813275,16.112012223414
$GPGGA,000323.00,3510.8454,N,12128.6118,W,1,10,0.8,10.6,M,-32.3,M,,*61
$PYRTM,2024,125.002372220706,16.112019630845
$GPGGA,000324.00,3510.8454,N,12128.6120,W,1,10,0.8,10.6,M,-32.3,M,,*6D
$PYRTM,2024,125.002387962604,16.112035372743
$GPGGA,000325.00,3510.8456,N,12128.6118,W,1,10,0.8,10.6,M,-32.3,M,,*65
$PYRTM,2024,125.002399549641,16.112046959780
$GPGGA,000326.00,3510.8460,N,12128.6114,W,1,10,0.8,10.6,M,-32.3,M,,*6F
$PYRTM,2024,125.002411110660,16.112058520799
$GPGGA,000327.00,3510.8464,N,12128.6113,W,1,10,0.8,10.6,M,-32.3,M,,*6D
$PYRTM,2024,125.002422700984,16.112070111123
$GPGGA,000328.00,3510.8465,N,12128.6117,W,1,10,0.8,10.6,M,-32.3,M,,*67
$PYRTM,2024,125.002430092222,16.112077502361
$GPGGA,000329.00,3510.8466,N,12128.6119,W,1,10,0.8,10.6,M,-32.3,M,,*6B
$PYRTM,2024,125.002445846377,16.112093256528
$GPGGA,000330.00,3510.8468,N,12128.6118,W,1,10,0.8,10.6,M,-32.3,M,,*6C
$PYRTM,2024,125.002457407801,16.112104817940
$GPGGA,000331.00,3510.8471,N,12128.6115,W,1,10,0.8,10.6,M,-32.3,M,,*68
$PYRTM,2024,125.002468994375,16.112116404514
$GPGGA,000332.00,3510.8474,N,12128.6113,W,1,10,0.8,10.6,M,-32.3,M,,*68
$PYRTM,2024,125.002480555903,16.112127966042
$GPGGA,000333.00,3510.8476,N,12128.6115,W,1,10,0.8,10.6,M,-32.3,M,,*6D
$PYRTM,2024,125.002487963866,16.112135374005
$GPGGA,000334.00,3510.8477,N,12128.6117,W,1,10,0.8,10.6,M,-32.3,M,,*69
$PYRTM,2024,125.002503704826,16.112151114965
$GPGGA,000335.00,3510.8478,N,12128.6118,W,1,10,0.8,10.6,M,-32.3,M,,*68
$PYRTM,2024,125.002511111771,16.112158521921
$GPGGA,000336.00,3510.8481,N,12128.6116,W,1,10,0.8,10.5,M,-32.3,M,,*60
$PYRTM,2024,125.002526854005,16.112174264144
$GPGGA,000337.00,3510.8484,N,12128.6116,W,1,10,0.8,10.5,M,-32.3,M,,*64
$PYRTM,2024,125.002538439109,16.112185849248
$GPGGA,000338.00,3510.8486,N,12128.6115,W,1,10,0.8,10.5,M,-32.3,M,,*6A
$PYRTM,2024,125.002545834086,16.112193244225
$GPGGA,000339.00,3510.8487,N,12128.6113,W,1,10,0.8,10.5,M,-32.3,M,,*6C
$PYRTM,2024,125.002561604086,16.112209014236
$GPGGA,000340.00,3510.8489,N,12128.6113,W,1,10,0.8,10.5,M,-32.3,M,,*6C
$PYRTM,2024,125.002573289213,16.112220699352
$GPGGA,000341.00,3510.8492,N,12128.6114,W,1,10,0.8,10.5,M,-32.3,M,,*60
$PYRTM,2024,125.002584853102,16.112232263241
$GPGGA,000342.00,3510.8496,N,12128.6117,W,1,10,0.8,10.5,M,-32.3,M,,*64
$PYRTM,2024,125.002596437477,16.112243847616
$GPGGA,000343.00,3510.8497,N,12128.6118,W,1,10,0.8,10.5,M,-32.3,M,,*6B
$PYRTM,2024,125.002607998762,16.112255408889
$GPGGA,000344.00,3510.8499,N,12128.6116,W,1,10,0.8,10.5,M,-32.3,M,,*6C
$PYRTM,2024,125.002615291134,16.112262701273
$GPGGA,000345.00,3510.8502,N,12128.6112,W,1,10,0.8,10.5,M,-32.3,M,,*6A
$PYRTM,2024,125.002631147419,16.112278557558
$GPGGA,000346.00,3510.8506,N,12128.6111,W,1,10,0.8,10.6,M,-32.3,M,,*6D
$PYRTM,2024,125.002642732199,16.112290142338
$GPGGA,000347.00,3510.8507,N,12128.6115,W,1,10,0.8,10.5,M,-32.3,M,,*6A
$PYRTM,2024,125.002654180625,16.112301590775
$GPGGA,000348.00,3510.8508,N,12128.6119,W,1,10,0.8,10.5,M,-32.3,M,,*66
$PYRTM,2024,125.002665740926,16.112313151076
$GPGGA,000349.00,3510.8509,N,12128.6119,W,1,10,0.8,10.6,M,-32.3,M,,*65
$PYRTM,2024,125.002677328368,16.112324738507
$GPGGA,000350.00,3510.8512,N,12128.6115,W,1,10,0.8,10.5,M,-32.3,M,,*68
$PYRTM,2024,125.002688891389,16.112336301528
$GPGGA,000351.00,3510.8515,N,12128.6111,W,1,10,0.8,10.5,M,-32.3,M,,*6A
$PYRTM,2024,125.002700476817,16.112347886956
$GPGGA,000352.00,3510.8517,N,12128.6111,W,1,10,0.8,10.6,M,-32.3,M,,*68
$PYRTM,2024,125.002712038345,16.112359448484
$GPGGA,000353.00,3510.8519,N,12128.6114,W,1,10,0.8,10.5,M,-32.3,M,,*61
$PYRTM,2024,125.002723639780,16.112371049919
$GPGGA,000354.00,3510.8521,N,12128.6119,W,1,10,0.8,10.5,M,-32.3,M,,*60
$PYRTM,2024,125.002735187222,16.112382597361
$GPGGA,000355.00,3510.8523,N,12128.6119,W,1,10,0.8,10.5,M,-32.3,M,,*63
$PYRTM,2024,125.002746786887,16.112394197025
$GPGGA,000356.00,3510.8526,N,12128.6114,W,1,10,0.8,10.5,M,-32.3,M,,*68
$PYRTM,2024,125.002758335718,16.112405745856
$GPGGA,000357.00,3510.8530,N,12128.6109,W,1,10,0.8,10.5,M,-32.3,M,,*62
$PYRTM,2024,125.002769922431,16.112417332569
$GPGGA,000358.00,3510.8533,N,12128.6109,W,1,10,0.8,10.5,M,-32.3,M,,*6E
$PYRTM,2024,125.002777217697,16.112424627836
$GPGGA,000359.00,3510.8535,N,12128.6114,W,1,10,0.8,10.5,M,-32.3,M,,*65
$PYRTM,2024,125.002793070093,16.112440480231
$GPGGA,000400.00,3510.8535,N,12128.6120,W,1,10,0.8,10.4,M,-32.3,M,,*68
$PYRTM,2024,125.002804630845,16.112452040984
$GPGGA,000401.00,3510.8536,N,12128.6119,W,1,10,0.8,10.4,M,-32.3,M,,*60
$PYRTM,2024,125.002816218877,16.112463629016
$GPGGA,000402.00,3510.8540,N,12128.6111,W,1,10,0.8,10.4,M,-32.3,M,,*6A
$PYRTM,2024,125.002827779248,16.112475189387
$GPGGA,000403.00,3510.8544,N,12128.6105,W,1,10,0.8,10.4,M,-32.3,M,,*6A
$PYRTM,2024,125.002835188900,16.112482599039
$GPGGA,000404.00,3510.8547,N,12128.6106,W,1,10,0.8,10.5,M,-32.3,M,,*6C
$PYRTM,2024,125.002850927951,16.112498338090
$GPGGA,000405.00,3510.8547,N,12128.6114,W,1,10,0.8,10.3,M,-32.3,M,,*68
$PYRTM,2024,125.002862514479,16.112509924618
$GPGGA,000406.00,3510.8548,N,12128.6119,W,1,10,0.8,10.1,M,-32.3,M,,*6B
$PYRTM,2024,125.002869909641,16.112517319780
$GPGGA,000407.00,3510.8550,N,12128.6116,W,1,10,0.8,10.1,M,-32.3,M,,*6C
$PYRTM,2024,125.002888556968,16.112535967106
$GPGGA,000408.00,3510.8553,N,12128.6109,W,1,10,0.8,10.3,M,-32.3,M,,*6C
$PYRTM,2024,125.002897225347,16.112544635486
$GPGGA,000409.00,3510.8555,N,12128.6106,W,1,10,0.8,10.4,M,-32.3,M,,*63
$PYRTM,2024,125.002908825590,16.112556235729
$GPGGA,000410.00,3510.8557,N,12128.6108,W,1,10,0.8,10.4,M,-32.3,M,,*67
$PYRTM,2024,125.002920373125,16.112567783264
$GPGGA,000411.00,3510.8558,N,12128.6114,W,1,10,0.8,10.4,M,-32.3,M,,*64
$PYRTM,2024,125.002931973021,16.112579383160
$GPGGA,000412.00,3510.8558,N,12128.6118,W,1,10,0.8,10.4,M,-32.3,M,,*6B
$PYRTM,2024,125.002943519456,16.112590929595
$GPGGA,000413.00,3510.8560,N,12128.6117,W,1,10,0.8,10.5,M,-32.3,M,,*6F
$PYRTM,2024,125.002955107303,16.112602517442
$GPGGA,000414.00,3510.8563,N,12128.6111,W,1,10,0.8,10.5,M,-32.3,M,,*6D
$PYRTM,2024,125.002966672164,16.112614082303
$GPGGA,000415.00,3510.8566,N,12128.6106,W,1,10,0.8,10.5,M,-32.3,M,,*6F
$PYRTM,2024,125.002974077014,16.112621487153
$GPGGA,000416.00,3510.8568,N,12128.6108,W,1,10,0.8,10.5,M,-32.3,M,,*6C
$PYRTM,2024,125.002989817118,16.112637227257
$GPGGA,000417.00,3510.8570,N,12128.6113,W,1,10,0.8,10.5,M,-32.3,M,,*6E
$PYRTM,2024,125.003001404815,16.112648814954
$GPGGA,000418.00,3510.8572,N,12128.6118,W,1,10,0.8,10.5,M,-32.3,M,,*68
$PYRTM,2024,125.003008798611,16.112656208750
$GPGGA,000419.00,3510.8574,N,12128.6116,W,1,10,0.8,10.4,M,-32.3,M,,*60
$PYRTM,2024,125.003024556053,16.112671966192
$GPGGA,000420.00,3510.8576,N,12128.6110,W,1,10,0.8,10.4,M,-32.3,M,,*6E
$PYRTM,2024,125.003036113241,16.112683523380
$GPGGA,000421.00,3510.8579,N,12128.6106,W,1,10,0.8,10.4,M,-32.3,M,,*67
$PYRTM,2024,125.003047704421,16.112695114572
$GPGGA,000422.00,3510.8581,N,12128.6109,W,1,10,0.8,10.4,M,-32.3,M,,*6C
$PYRTM,2024,125.003059262477,16.112706672616
$GPGGA,000423.00,3510.8582,N,12128.6115,W,1,10,0.8,10.4,M,-32.3,M,,*63
$PYRTM,2024,125.003070862986,16.112718273137
$GPGGA,000424.00,3510.8583,N,12128.6117,W,1,10,0.8,10.4,M,-32.3,M,,*67
$PYRTM,2024,125.003082410405,16.112729820544
$GPGGA,000425.00,3510.8585,N,12128.6115,W,1,10,0.8,10.4,M,-32.3,M,,*62
$PYRTM,2024,125.003093997593,16.112741407731
$GPGGA,000426.00,3510.8588,N,12128.6110,W,1,10,0.8,10.4,M,-32.3,M,,*69
$PYRTM,2024,125.003105557708,16.112752967847
$GPGGA,000427.00,3510.8591,N,12128.6108,W,1,10,0.8,10.4,M,-32.3,M,,*69
$PYRTM,2024,125.003117146134,16.112764556273
$GPGGA,000428.00,3510.8592,N,12128.6111,W,1,10,0.8,10.4,M,-32.3,M,,*6D
$PYRTM,2024,125.003124554769,16.112771964919
$GPGGA,000429.00,3510.8593,N,12128.6118,W,1,10,0.8,10.4,M,-32.3,M,,*64
$PYRTM,2024,125.003140294062,16.112787704201
$GPGGA,000430.00,3510.8595,N,12128.6119,W,1,10,0.8,10.4,M,-32.3,M,,*6B
$PYRTM,2024,125.003151855556,16.112799265694
$GPGGA,000431.00,3510.8599,N,12128.6114,W,1,10,0.8,10.4,M,-32.3,M,,*6B
$PYRTM,2024,125.003163444769,16.112810854907
$GPGGA,000432.00,3510.8603,N,12128.6109,W,1,10,0.8,10.4,M,-32.3,M,,*64
$PYRTM,2024,125.003175005289,16.112822415428
$GPGGA,000433.00,3510.8604,N,12128.6110,W,1,10,0.8,10.4,M,-32.3,M,,*6A
$PYRTM,2024,125.003186590498,16.112834000637
$GPGGA,000434.00,3510.8604,N,12128.6113,W,1,10,0.8,10.4,M,-32.3,M,,*6E
$PYRTM,2024,125.003198152153,16.112845562292
$GPGGA,000435.00,3510.8606,N,12128.6114,W,1,10,0.8,10.4,M,-32.3,M,,*6A
$PYRTM,2024,125.003209739225,16.112857149363
$GPGGA,000436.00,3510.8609,N,12128.6113,W,1,10,0.8,10.4,M,-32.3,M,,*61
$PYRTM,2024,125.003221300150,16.112868710289
$GPGGA,000437.00,3510.8611,N,12128.6112,W,1,10,0.8,10.4,M,-32.3,M,,*68
$PYRTM,2024,125.003228707535,16.112876117674
$GPGGA,000438.00,3510.8612,N,12128.6113,W,1,10,0.8,10.4,M,-32.3,M,,*65
$PYRTM,2024,125.003247342072,16.112894752211
$GPGGA,000439.00,3510.8613,N,12128.6114,W,1,10,0.8,10.3,M,-32.3,M,,*65
$PYRTM,2024,125.003258939120,16.112906349259
$GPGGA,000440.00,3510.8616,N,12128.6113,W,1,10,0.8,10.3,M,-32.3,M,,*69
$PYRTM,2024,125.003267597338,16.112915007477
$GPGGA,000441.00,3510.8620,N,12128.6113,W,1,10,0.8,10.3,M,-32.3,M,,*6D
$PYRTM,2024,125.003275003113,16.112922413264
$GPGGA,000442.00,3510.8622,N,12128.6115,W,1,10,0.8,10.4,M,-32.3,M,,*6D
$PYRTM,2024,125.003290745023,16.112938155162
$GPGGA,000443.00,3510.8623,N,12128.6119,W,1,10,0.8,10.4,M,-32.3,M,,*61
$PYRTM,2024,125.003302326806,16.112949736944
$GPGGA,000444.00,3510.8624,N,12128.6119,W,1,10,0.8,10.4,M,-32.3,M,,*61
$PYRTM,2024,125.003313893796,16.112961303935
$GPGGA,000445.00,3510.8627,N,12128.6116,W,1,10,0.8,10.4,M,-32.3,M,,*6C
$PYRTM,2024,125.003325479722,16.112972889861
$GPGGA,000446.00,3510.8631,N,12128.6114,W,1,10,0.8,10.4,M,-32.3,M,,*6A
$PYRTM,2024,125.003332873692,16.112980283831
$GPGGA,000447.00,3510.8633,N,12128.6115,W,1,10,0.8,10.4,M,-32.3,M,,*68
$PYRTM,2024,125.003348627454,16.112996037593
$GPGGA,000448.00,3510.8634,N,12128.6119,W,1,10,0.8,10.4,M,-32.3,M,,*6C
$PYRTM,2024,125.003360191447,16.113007601597
$GPGGA,000449.00,3510.8635,N,12128.6123,W,1,10,0.8,10.4,M,-32.3,M,,*65
$PYRTM,2024,125.003371790787,16.113019200926
$GPGGA,000450.00,3510.8637,N,12128.6122,W,1,10,0.8,10.4,M,-32.3,M,,*6E
$PYRTM,2024,125.003383337963,16.113030748102
$GPGGA,000451.00,3510.8639,N,12128.6117,W,1,10,0.8,10.4,M,-32.3,M,,*67
$PYRTM,2024,125.003390642813,16.113038052951
$GPGGA,000452.00,3510.8641,N,12128.6115,W,1,10,0.8,10.4,M,-32.3,M,,*69
$PYRTM,2024,125.003406486944,16.113053897083
$GPGGA,000453.00,3510.8643,N,12128.6119,W,1,10,0.8,10.4,M,-32.3,M,,*66
$PYRTM,2024,125.003418074086,16.113065484225
$GPGGA,000454.00,3510.8644,N,12128.6124,W,1,10,0.8,10.4,M,-32.3,M,,*68
$PYRTM,2024,125.003425471435,16.113072881574
$GPGGA,000455.00,3510.8645,N,12128.6123,W,1,10,0.8,10.4,M,-32.3,M,,*6F
$PYRTM,2024,125.003441223009,16.113088633160
$GPGGA,000456.00,3510.8648,N,12128.6117,W,1,10,0.8,10.5,M,-32.3,M,,*67
$PYRTM,2024,125.003448515498,16.113095925637
$GPGGA,000457.00,3510.8653,N,12128.6114,W,1,10,0.8,10.5,M,-32.3,M,,*6F
$PYRTM,2024,125.003460190475,16.113107600625
$GPGGA,000458.00,3510.8655,N,12128.6116,W,1,10,0.8,10.4,M,-32.3,M,,*65
$PYRTM,2024,125.003475932951,16.113123343090
$GPGGA,000459.00,3510.8655,N,12128.6121,W,1,10,0.8,10.4,M,-32.3,M,,*60
$PYRTM,2024,125.003487520787,16.113134930926
$GPGGA,000500.00,3510.8656,N,12128.6124,W,1,10,0.8,10.4,M,-32.3,M,,*6B
$PYRTM,2024,125.003499079074,16.113146489213
$GPGGA,000501.00,3510.8659,N,12128.6121,W,1,10,0.8,10.4,M,-32.3,M,,*60
$PYRTM,2024,125.003510665903,16.113158076042
$GPGGA,000502.00,3510.8663,N,12128.6115,W,1,10,0.8,10.4,M,-32.3,M,,*6D
$PYRTM,2024,125.003522227488,16.113169637627
$GPGGA,000503.00,3510.8666,N,12128.6113,W,1,10,0.8,10.5,M,-32.3,M,,*6E
$PYRTM,2024,125.003533817396,16.113181227535
$GPGGA,000504.00,3510.8667,N,12128.6117,W,1,10,0.8,10.5,M,-32.3,M,,*6C
$PYRTM,2024,125.003541222199,16.113188632338
$GPGGA,000505.00,3510.8667,N,12128.6123,W,1,10,0.8,10.5,M,-32.3,M,,*6A
$PYRTM,2024,125.003556956678,16.113204366817
$GPGGA,000506.00,3510.8668,N,12128.6124,W,1,10,0.8,10.5,M,-32.3,M,,*61
$PYRTM,2024,125.003568524282,16.113215934421
$GPGGA,000507.00,3510.8671,N,12128.6119,W,1,10,0.8,10.5,M,-32.3,M,,*66
$PYRTM,2024,125.003575932188,16.113223342326
$GPGGA,000508.00,3510.8675,N,12128.6114,W,1,10,0.8,10.5,M,-32.3,M,,*60
$PYRTM,2024,125.003591672986,16.113239083125
$GPGGA,000509.00,3510.8678,N,12128.6113,W,1,10,0.8,10.5,M,-32.3,M,,*6B
$PYRTM,2024,125.003598975822,16.113246385961
$GPGGA,000510.00,3510.8678,N,12128.6119,W,1,10,0.8,10.5,M,-32.3,M,,*69
$PYRTM,2024,125.003614822188,16.113262232326
$GPGGA,000511.00,3510.8679,N,12128.6123,W,1,10,0.8,10.5,M,-32.3,M,,*60
$PYRTM,2024,125.003626409039,16.113273819167
$GPGGA,000512.00,3510.8682,N,12128.6120,W,1,10,0.8,10.5,M,-32.3,M,,*64
$PYRTM,2024,125.003637970174,16.113285380313
$GPGGA,000513.00,3510.8685,N,12128.6114,W,1,10,0.8,10.5,M,-32.3,M,,*65
$PYRTM,2024,125.003649559826,16.113296969965
$GPGGA,000514.00,3510.8688,N,12128.6112,W,1,10,0.8,10.6,M,-32.3,M,,*6A
$PYRTM,2024,125.003661118275,16.113308528414
$GPGGA,000515.00,3510.8690,N,12128.6115,W,1,10,0.8,10.6,M,-32.3,M,,*65
$PYRTM,2024,125.003672708148,16.113320118287
$GPGGA,000516.00,3510.8691,N,12128.6120,W,1,10,0.8,10.6,M,-32.3,M,,*61
$PYRTM,2024,125.003684267222,16.113331677373
$GPGGA,000517.00,3510.8692,N,12128.6120,W,1,10,0.8,10.6,M,-32.3,M,,*63
$PYRTM,2024,125.003691674491,16.113339084630
$GPGGA,000518.00,3510.8694,N,12128.6114,W,1,10,0.8,10.7,M,-32.3,M,,*6C
$PYRTM,2024,125.003707414178,16.113354824317
$GPGGA,000519.00,3510.8697,N,12128.6110,W,1,10,0.8,10.7,M,-32.3,M,,*6A
$PYRTM,2024,125.003714822720,16.113362232859
$GPGGA,000520.00,3510.8699,N,12128.6112,W,1,10,0.8,10.7,M,-32.3,M,,*6C
$PYRTM,2024,125.003730564155,16.113377974294
$GPGGA,000521.00,3510.8700,N,12128.6117,W,1,10,0.8,10.7,M,-32.3,M,,*69
$PYRTM,2024,125.003742151921,16.113389562060
$GPGGA,000522.00,3510.8701,N,12128.6119,W,1,10,0.8,10.7,M,-32.3,M,,*65
$PYRTM,2024,125.003753710197,16.113401120336
$GPGGA,000523.00,3510.8703,N,12128.6114,W,1,10,0.8,10.7,M,-32.3,M,,*6B
$PYRTM,2024,125.003765297488,16.113412707627
$GPGGA,000524.00,3510.8707,N,12128.6109,W,1,10,0.8,10.7,M,-32.3,M,,*64
$PYRTM,2024,125.003776859086,16.113424269225
$GPGGA,000525.00,3510.8710,N,12128.6108,W,1,10,0.8,10.8,M,-32.3,M,,*6D
$PYRTM,2024,125.003788460579,16.113435870718
$GPGGA,000526.00,3510.8712,N,12128.6113,W,1,10,0.8,10.8,M,-32.3,M,,*66
$PYRTM,2024,125.003800006736,16.113447416875
$GPGGA,000527.00,3510.8712,N,12128.6117,W,1,10,0.8,10.8,M,-32.3,M,,*63
$PYRTM,2024,125.003811599931,16.113459010069
$GPGGA,000528.00,3510.8714,N,12128.6114,W,1,10,0.8,10.8,M,-32.3,M,,*69
$PYRTM,2024,125.003823155347,16.113470565486
$GPGGA,000529.00,3510.8717,N,12128.6108,W,1,10,0.8,10.7,M,-32.3,M,,*69
$PYRTM,2024,125.003834747870,16.113482158021
$GPGGA,000530.00,3510.8721,N,12128.6106,W,1,10,0.8,10.5,M,-32.3,M,,*68
$PYRTM,2024,125.003846304421,16.113493714560
$GPGGA,000531.00,3510.8721,N,12128.6110,W,1,10,0.8,10.5,M,-32.3,M,,*6E
$PYRTM,2024,125.003857891250,16.113505301389
$GPGGA,000532.00,3510.8721,N,12128.6113,W,1,10,0.8,10.5,M,-32.3,M,,*6E
$PYRTM,2024,125.003865297674,16.113512707813
$GPGGA,000533.00,3510.8724,N,12128.6113,W,1,10,0.8,10.5,M,-32.3,M,,*6A
$PYRTM,2024,125.003881038032,16.113528448171
$GPGGA,000534.00,3510.8727,N,12128.6109,W,1,10,0.8,10.5,M,-32.3,M,,*65
$PYRTM,2024,125.003892600440,16.113540010579
$GPGGA,000535.00,3510.8731,N,12128.6104,W,1,10,0.8,10.5,M,-32.3,M,,*6E
$PYRTM,2024,125.003904188681,16.113551598831
$GPGGA,000536.00,3510.8733,N,12128.6105,W,1,10,0.8,10.5,M,-32.3,M,,*6E
$PYRTM,2024,125.003915748391,16.113563158530
$GPGGA,000537.00,3510.8734,N,12128.6111,W,1,10,0.8,10.5,M,-32.3,M,,*6D
$PYRTM,2024,125.003927336007,16.113574746157
$GPGGA,000538.00,3510.8735,N,12128.6114,W,1,10,0.8,10.5,M,-32.3,M,,*66
$PYRTM,2024,125.003938897187,16.113586307326
$GPGGA,000539.00,3510.8736,N,12128.6109,W,1,10,0.8,10.5,M,-32.3,M,,*68
$PYRTM,2024,125.003950483692,16.113597893831
$GPGGA,000540.00,3510.8740,N,12128.6101,W,1,10,0.8,10.5,M,-32.3,M,,*6F
$PYRTM,2024,125.003957880116,16.113605290255
$GPGGA,000541.00,3510.8744,N,12128.6098,W,1,10,0.8,10.4,M,-32.3,M,,*6A
$PYRTM,2024,125.003973646505,16.113621056644
$GPGGA,000542.00,3510.8745,N,12128.6103,W,1,10,0.8,10.5,M,-32.3,M,,*6A
$PYRTM,2024,125.003980924850,16.113628334988
$GPGGA,000543.00,3510.8744,N,12128.6110,W,1,10,0.8,10.4,M,-32.3,M,,*69
$PYRTM,2024,125.003996783484,16.113644193623
$GPGGA,000544.00,3510.8744,N,12128.6111,W,1,10,0.8,10.4,M,-32.3,M,,*6F
$PYRTM,2024,125.004004175556,16.113651585694
$GPGGA,000545.00,3510.8748,N,12128.6105,W,1,10,0.8,10.4,M,-32.3,M,,*67
$PYRTM,2024,125.004015864514,16.113663274653
$GPGGA,000546.00,3510.8751,N,12128.6098,W,1,10,0.8,10.4,M,-32.3,M,,*69
$PYRTM,2024,125.004031491308,16.113678901447
$GPGGA,000547.00,3510.8753,N,12128.6099,W,1,10,0.8,10.4,M,-32.3,M,,*6B
$PYRTM,2024,125.004043079352,16.113690489491
$GPGGA,000548.00,3510.8754,N,12128.6105,W,1,10,0.8,10.5,M,-32.3,M,,*66
$PYRTM,2024,125.004050484051,16.113697894190
$GPGGA,000549.00,3510.8756,N,12128.6109,W,1,10,0.8,10.5,M,-32.3,M,,*69
$PYRTM,2024,125.004069119433,16.113716529572
$GPGGA,000550.00,3510.8757,N,12128.6108,W,1,10,0.8,10.5,M,-32.3,M,,*61
$PYRTM,2024,125.004080679954,16.113728090093
$GPGGA,000551.00,3510.8760,N,12128.6105,W,1,10,0.8,10.5,M,-32.3,M,,*69
$PYRTM,2024,125.004092268657,16.113739678796
$GPGGA,000552.00,3510.8762,N,12128.6102,W,1,10,0.8,10.5,M,-32.3,M,,*6F
$PYRTM,2024,125.004101053796,16.113748463935
$GPGGA,000553.00,3510.8764,N,12128.6102,W,1,10,0.8,10.5,M,-32.3,M,,*68
$PYRTM,2024,125.004112522245,16.113759932396
$GPGGA,000554.00,3510.8767,N,12128.6103,W,1,10,0.8,10.5,M,-32.3,M,,*6D
$PYRTM,2024,125.004124082465,16.113771492604
$GPGGA,000555.00,3510.8768,N,12128.6105,W,1,10,0.8,10.6,M,-32.3,M,,*66
$PYRTM,2024,125.004131491690,16.113778901829
$GPGGA,000556.00,3510.8768,N,12128.6106,W,1,10,0.8,10.6,M,-32.3,M,,*66
$PYRTM,2024,125.004147231447,16.113794641586
$GPGGA,000557.00,3510.8769,N,12128.6106,W,1,10,0.8,10.6,M,-32.3,M,,*66
$PYRTM,2024,125.004158822130,16.113806232269
$GPGGA,000558.00,3510.8770,N,12128.6104,W,1,10,0.8,10.6,M,-32.3,M,,*63
$PYRTM,2024,125.004170379491,16.113817789630
$GPGGA,000559.00,3510.8773,N,12128.6102,W,1,10,0.8,10.6,M,-32.3,M,,*67
$PYRTM,2024,125.004181967998,16.113829378137
$GPGGA,000600.00,3510.8775,N,12128.6101,W,1,10,0.8,10.6,M,-32.3,M,,*6D
$PYRTM,2024,125.004189262535,16.113836672674
$GPGGA,000601.00,3510.8777,N,12128.6104,W,1,10,0.8,10.7,M,-32.3,M,,*6A
$PYRTM,2024,125.004205114144,16.113852524282
$GPGGA,000602.00,3510.8778,N,12128.6108,W,1,10,0.8,10.7,M,-32.3,M,,*6A
$PYRTM,2024,125.004216676354,16.113864086505
$GPGGA,000603.00,3510.8778,N,12128.6110,W,1,10,0.8,10.6,M,-32.3,M,,*63
$PYRTM,2024,125.004228263021,16.113875673160
$GPGGA,000604.00,3510.8780,N,12128.6106,W,1,10,0.8,10.6,M,-32.3,M,,*64
$PYRTM,2024,125.004239824641,16.113887234780
$GPGGA,000605.00,3510.8785,N,12128.6101,W,1,10,0.8,10.5,M,-32.3,M,,*64
$PYRTM,2024,125.004251411667,16.113898821806
$GPGGA,000606.00,3510.8789,N,12128.6100,W,1,10,0.8,10.4,M,-32.3,M,,*6B
$PYRTM,2024,125.004262973542,16.113910383681
$GPGGA,000607.00,3510.8790,N,12128.6105,W,1,10,0.8,10.4,M,-32.3,M,,*67
$PYRTM,2024,125.004274554132,16.113921964282
$GPGGA,000608.00,3510.8789,N,12128.6110,W,1,10,0.8,10.4,M,-32.3,M,,*64
$PYRTM,2024,125.004281953310,16.113929363449
$GPGGA,000609.00,3510.8790,N,12128.6110,W,1,10,0.8,10.5,M,-32.3,M,,*6C
$PYRTM,2024,125.004297710035,16.113945120174
$GPGGA,000610.00,3510.8794,N,12128.6104,W,1,10,0.8,10.5,M,-32.3,M,,*65
$PYRTM,2024,125.004309270799,16.113956680949
$GPGGA,000611.00,3510.8797,N,12128.6101,W,1,10,0.8,10.5,M,-32.3,M,,*62
$PYRTM,2024,125.004320858287,16.113968268426
$GPGGA,000612.00,3510.8797,N,12128.6103,W,1,10,0.8,10.5,M,-32.3,M,,*63
$PYRTM,2024,125.004332417951,16.113979828090
$GPGGA,000613.00,3510.8796,N,12128.6109,W,1,10,0.8,10.5,M,-32.3,M,,*69
$PYRTM,2024,125.004339825243,16.113987235382
$GPGGA,000614.00,3510.8797,N,12128.6111,W,1,10,0.8,10.5,M,-32.3,M,,*66
$PYRTM,2024,125.004358459294,16.114005869433
$GPGGA,000615.00,3510.8800,N,12128.6109,W,1,10,0.8,10.5,M,-32.3,M,,*6F
$PYRTM,2024,125.004367153773,16.114014563912
$GPGGA,000616.00,3510.8802,N,12128.6106,W,1,10,0.8,10.5,M,-32.3,M,,*61
$PYRTM,2024,125.004378713889,16.114026124028
$GPGGA,000617.00,3510.8803,N,12128.6107,W,1,10,0.8,10.5,M,-32.3,M,,*60
$PYRTM,2024,125.004390300451,16.114037710590
$GPGGA,000618.00,3510.8805,N,12128.6109,W,1,10,0.8,10.5,M,-32.3,M,,*67
$PYRTM,2024,125.004397696713,16.114045106863
$GPGGA,000619.00,3510.8808,N,12128.6110,W,1,10,0.8,10.4,M,-32.3,M,,*62
$PYRTM,2024,125.004409384433,16.114056794572
$GPGGA,000620.00,3510.8810,N,12128.6111,W,1,10,0.8,10.5,M,-32.3,M,,*61
$PYRTM,2024,125.004427905764,16.114075315903
$GPGGA,000621.00,3510.8811,N,12128.6112,W,1,10,0.8,10.5,M,-32.3,M,,*62
$PYRTM,2024,125.004439491285,16.114086901435
$GPGGA,000622.00,3510.8811,N,12128.6113,W,1,10,0.8,10.4,M,-32.3,M,,*61
$PYRTM,2024,125.004451052072,16.114098462211
$GPGGA,000623.00,3510.8813,N,12128.6112,W,1,10,0.8,10.4,M,-32.3,M,,*63
$PYRTM,2024,125.004462640046,16.114110050185
$GPGGA,000624.00,3510.8816,N,12128.6112,W,1,10,0.8,10.4,M,-32.3,M,,*61
$PYRTM,2024,125.004474201551,16.114121611690
$GPGGA,000625.00,3510.8819,N,12128.6111,W,1,10,0.8,10.4,M,-32.3,M,,*6C
$PYRTM,2024,125.004482898252,16.114130308391
$GPGGA,000626.00,3510.8819,N,12128.6113,W,1,10,0.8,10.4,M,-32.3,M,,*6D
$PYRTM,2024,125.004494456296,16.114141866435
$GPGGA,000627.00,3510.8818,N,12128.6117,W,1,10,0.8,10.4,M,-32.3,M,,*69
$PYRTM,2024,125.004506041447,16.114153451574
$GPGGA,000628.00,3510.8817,N,12128.6119,W,1,10,0.8,10.4,M,-32.3,M,,*67
$PYRTM,2024,125.004517604109,16.114165014248
$GPGGA,000629.00,3510.8821,N,12128.6116,W,1,10,0.8,10.4,M,-32.3,M,,*6C
$PYRTM,2024,125.004529190822,16.114176600961
$GPGGA,000630.00,3510.8825,N,12128.6112,W,1,10,0.8,10.4,M,-32.3,M,,*64
$PYRTM,2024,125.004540750602,16.114188160741
$GPGGA,000631.00,3510.8826,N,12128.6113,W,1,10,0.8,10.4,M,-32.3,M,,*67
$PYRTM,2024,125.004552345428,16.114199755567
$GPGGA,000632.00,3510.8826,N,12128.6119,W,1,10,0.8,10.4,M,-32.3,M,,*6E
$PYRTM,2024,125.004563901875,16.114211312014
$GPGGA,000633.00,3510.8825,N,12128.6125,W,1,10,0.8,10.4,M,-32.3,M,,*63
$PYRTM,2024,125.004571307234,16.114218717373
$GPGGA,000634.00,3510.8827,N,12128.6124,W,1,10,0.8,10.4,M,-32.3,M,,*67
$PYRTM,2024,125.004587049375,16.114234459514
$GPGGA,000635.00,3510.8830,N,12128.6119,W,1,10,0.8,10.4,M,-32.3,M,,*6E
$PYRTM,2024,125.004598635405,16.114246045556
$GPGGA,000636.00,3510.8834,N,12128.6116,W,1,10,0.8,10.4,M,-32.3,M,,*66
$PYRTM,2024,125.004605927569,16.114253337708
$GPGGA,000637.00,3510.8835,N,12128.6120,W,1,10,0.8,10.4,M,-32.3,M,,*63
$PYRTM,2024,125.004621783924,16.114269194074
$GPGGA,000638.00,3510.8835,N,12128.6127,W,1,10,0.8,10.2,M,-32.3,M,,*6D
$PYRTM,2024,125.004633344699,16.114280754838
$GPGGA,000639.00,3510.8834,N,12128.6130,W,1,10,0.8,10.0,M,-32.3,M,,*69
$PYRTM,2024,125.004644934884,16.114292345023
$GPGGA,000640.00,3510.8835,N,12128.6127,W,1,10,0.8,10.0,M,-32.3,M,,*60
$PYRTM,2024,125.004656493681,16.114303903819
$GPGGA,000641.00,3510.8837,N,12128.6121,W,1,10,0.8,10.0,M,-32.3,M,,*65
$PYRTM,2024,125.004668080370,16.114315490509
$GPGGA,000642.00,3510.8840,N,12128.6120,W,1,10,0.8,10.0,M,-32.3,M,,*67
$PYRTM,2024,125.004679642222,16.114327052361
$GPGGA,000643.00,3510.8841,N,12128.6126,W,1,10,0.8,9.9,M,-32.3,M,,*50
$PYRTM,2024,125.004691229086,16.114338639225
$GPGGA,000644.00,3510.8840,N,12128.6130,W,1,10,0.8,9.9,M,-32.3,M,,*51
$PYRTM,2024,125.004702790127,16.114350200278
$GPGGA,000645.00,3510.8841,N,12128.6130,W,1,10,0.8,9.9,M,-32.3,M,,*51
$PYRTM,2024,125.004714372245,16.114361782384
$GPGGA,000646.00,3510.8842,N,12128.6128,W,1,10,0.8,9.9,M,-32.3,M,,*58
$PYRTM,2024,125.004725938750,16.114373348889
$GPGGA,000647.00,3510.8844,N,12128.6126,W,1,10,0.8,9.9,M,-32.3,M,,*51
$PYRTM,2024,125.004733345475,16.114380755613
$GPGGA,000648.00,3510.8847,N,12128.6126,W,1,10,0.8,9.9,M,-32.3,M,,*5D
$PYRTM,2024,125.004749085775,16.114396495914
$GPGGA,000649.00,3510.8848,N,12128.6128,W,1,10,0.8,9.9,M,-32.3,M,,*5D
$PYRTM,2024,125.004760671956,16.114408082095
$GPGGA,000650.00,3510.8850,N,12128.6131,W,1,10,0.8,9.8,M,-32.3,M,,*55
$PYRTM,2024,125.004768068715,16.114415478854
$GPGGA,000651.00,3510.8851,N,12128.6131,W,1,10,0.8,9.8,M,-32.3,M,,*55
$PYRTM,2024,125.004786714977,16.114434125116
$GPGGA,000652.00,3510.8851,N,12128.6130,W,1,10,0.8,9.8,M,-32.3,M,,*57
$PYRTM,2024,125.004795382616,16.114442792755
$GPGGA,000653.00,3510.8853,N,12128.6129,W,1,10,0.8,9.8,M,-32.3,M,,*5C
$PYRTM,2024,125.004802789780,16.114450199919
$GPGGA,000654.00,3510.8854,N,12128.6131,W,1,10,0.8,9.8,M,-32.3,M,,*55
$PYRTM,2024,125.004818530845,16.114465940984
$GPGGA,000655.00,3510.8855,N,12128.6131,W,1,10,0.8,9.8,M,-32.3,M,,*55
$PYRTM,2024,125.004830131597,16.114477541736
$GPGGA,000656.00,3510.8856,N,12128.6130,W,1,10,0.8,9.8,M,-32.3,M,,*54
$PYRTM,2024,125.004841694965,16.114489105104
$GPGGA,000657.00,3510.8858,N,12128.6129,W,1,10,0.8,9.8,M,-32.3,M,,*53
$PYRTM,2024,125.004853266053,16.114500676192
$GPGGA,000658.00,3510.8858,N,12128.6132,W,1,10,0.8,9.8,M,-32.3,M,,*56
$PYRTM,2024,125.004860673854,16.114508083993
$GPGGA,000659.00,3510.8858,N,12128.6135,W,1,10,0.8,9.8,M,-32.3,M,,*50
$PYRTM,2024,125.004876408519,16.114523818646
$GPGGA,000700.00,3510.8859,N,12128.6134,W,1,10,0.8,9.8,M,-32.3,M,,*5D
$PYRTM,2024,125.004887976238,16.114535386377
$GPGGA,000701.00,3510.8863,N,12128.6130,W,1,10,0.8,9.8,M,-32.3,M,,*51
$PYRTM,2024,125.004899558588,16.114546968727
$GPGGA,000702.00,3510.8866,N,12128.6129,W,1,10,0.8,9.8,M,-32.3,M,,*5F
$PYRTM,2024,125.004911124294,16.114558534433
$GPGGA,000703.00,3510.8866,N,12128.6132,W,1,10,0.8,9.8,M,-32.3,M,,*54
$PYRTM,2024,125.004922713322,16.114570123461
$GPGGA,000704.00,3510.8865,N,12128.6136,W,1,10,0.8,9.8,M,-32.3,M,,*54
$PYRTM,2024,125.004934273623,16.114581683762
$GPGGA,000705.00,3510.8867,N,12128.6135,W,1,10,0.8,9.8,M,-32.3,M,,*54
$PYRTM,2024,125.004945859398,16.114593269537
$GPGGA,000706.00,3510.8871,N,12128.6133,W,1,10,0.8,9.9,M,-32.3,M,,*57
$PYRTM,2024,125.004957420845,16.114604830984
$GPGGA,000707.00,3510.8873,N,12128.6131,W,1,10,0.8,9.9,M,-32.3,M,,*56
$PYRTM,2024,125.004969011458,16.114616421597
$GPGGA,000708.00,3510.8873,N,12128.6133,W,1,10,0.8,9.9,M,-32.3,M,,*5B
$PYRTM,2024,125.004976401157,16.114623811296
$GPGGA,000709.00,3510.8872,N,12128.6135,W,1,10,0.8,9.9,M,-32.3,M,,*5D
$PYRTM,2024,125.004992155312,16.114639565451
$GPGGA,000710.00,3510.8873,N,12128.6136,W,1,10,0.8,9.9,M,-32.3,M,,*57
$PYRTM,2024,125.005003718380,16.114651128519
$GPGGA,000711.00,3510.8876,N,12128.6137,W,1,10,0.8,9.9,M,-32.3,M,,*52
$PYRTM,2024,125.005011126146,16.114658536285
$GPGGA,000712.00,3510.8878,N,12128.6137,W,1,10,0.8,9.9,M,-32.3,M,,*5F
$PYRTM,2024,125.005026866308,16.114674276447
$GPGGA,000713.00,3510.8879,N,12128.6137,W,1,10,0.8,9.9,M,-32.3,M,,*5F
$PYRTM,2024,125.005038453530,16.114685863669
$GPGGA,000714.00,3510.8880,N,12128.6136,W,1,10,0.8,9.9,M,-32.3,M,,*5F
$PYRTM,2024,125.005050013773,16.114697423912
$GPGGA,000715.00,3510.8882,N,12128.6136,W,1,10,0.8,10.0,M,-32.3,M,,*6D
$PYRTM,2024,125.005061604444,16.114709014583
$GPGGA,000716.00,3510.8884,N,12128.6138,W,1,10,0.8,10.0,M,-32.3,M,,*66
$PYRTM,2024,125.005073163634,16.114720573773
$GPGGA,000717.00,3510.8886,N,12128.6139,W,1,10,0.8,10.0,M,-32.3,M,,*64
$PYRTM,2024,125.005084751065,16.114732161215
$GPGGA,000718.00,3510.8887,N,12128.6139,W,1,10,0.8,10.0,M,-32.3,M,,*6A
$PYRTM,2024,125.005096309780,16.114743719919
$GPGGA,000719.00,3510.8888,N,12128.6139,W,1,10,0.8,10.0,M,-32.3,M,,*64
$PYRTM,2024,125.005103717014,16.114751127153
$GPGGA,000720.00,3510.8891,N,12128.6138,W,1,10,0.8,10.0,M,-32.3,M,,*67
$PYRTM,2024,125.005122351771,16.114769761910
$GPGGA,000721.00,3510.8893,N,12128.6138,W,1,10,0.8,10.0,M,-32.3,M,,*64
$PYRTM,2024,125.005133934282,16.114781344421
$GPGGA,000722.00,3510.8895,N,12128.6139,W,1,10,0.8,10.0,M,-32.3,M,,*60
$PYRTM,2024,125.005145500127,16.114792910266
$GPGGA,000723.00,3510.8895,N,12128.6142,W,1,10,0.8,10.0,M,-32.3,M,,*6D
$PYRTM,2024,125.005159543542,16.114806953681
$GPGGA,000724.00,3510.8897,N,12128.6144,W,1,10,0.8,10.1,M,-32.3,M,,*6F
$PYRTM,2024,125.005165754630,16.114813164769
$GPGGA,000725.00,3510.8898,N,12128.6144,W,1,10,0.8,10.1,M,-32.3,M,,*61
$PYRTM,2024,125.005177343171,16.114824753310
$GPGGA,000726.00,3510.8900,N,12128.6142,W,1,10,0.8,10.1,M,-32.3,M,,*64
$PYRTM,2024,125.005184752176,16.114832162315
$GPGGA,000727.00,3510.8903,N,12128.6140,W,1,10,0.8,10.1,M,-32.3,M,,*64
$PYRTM,2024,125.005200490764,16.114847900903
$GPGGA,000728.00,3510.8905,N,12128.6140,W,1,10,0.8,10.1,M,-32.3,M,,*6D
$PYRTM,2024,125.005212052419,16.114859462558
$GPGGA,000729.00,3510.8906,N,12128.6142,W,1,10,0.8,10.1,M,-32.3,M,,*6D
$PYRTM,2024,125.005223642998,16.114871053137
$GPGGA,000730.00,3510.8907,N,12128.6146,W,1,10,0.8,10.2,M,-32.3,M,,*63
$PYRTM,2024,125.005235203102,16.114882613252
$GPGGA,000731.00,3510.8909,N,12128.6148,W,1,10,0.8,10.2,M,-32.3,M,,*62
$PYRTM,2024,125.005246786539,16.114894196678
$GPGGA,000732.00,3510.8912,N,12128.6145,W,1,10,0.8,10.2,M,-32.3,M,,*66
$PYRTM,2024,125.005258347847,16.114905757986
$GPGGA,000733.00,3510.8915,N,12128.6142,W,1,10,0.8,10.2,M,-32.3,M,,*67
$PYRTM,2024,125.005269937546,16.114917347685
$GPGGA,000734.00,3510.8916,N,12128.6141,W,1,10,0.8,10.2,M,-32.3,M,,*60
$PYRTM,2024,125.005281496169,16.114928906308
$GPGGA,000735.00,3510.8918,N,12128.6144,W,1,10,0.8,10.3,M,-32.3,M,,*6B
$PYRTM,2024,125.005293100995,16.114940511146
$GPGGA,000736.00,3510.8919,N,12128.6149,W,1,10,0.8,10.3,M,-32.3,M,,*64
$PYRTM,2024,125.005304644722,16.114952054861
$GPGGA,000737.00,3510.8920,N,12128.6152,W,1,10,0.8,10.3,M,-32.3,M,,*65
$PYRTM,2024,125.005316246181,16.114963656319
$GPGGA,000738.00,3510.8922,N,12128.6149,W,1,10,0.8,10.3,M,-32.3,M,,*62
$PYRTM,2024,125.005327792674,16.114975202813
$GPGGA,000739.00,3510.8925,N,12128.6143,W,1,10,0.8,10.3,M,-32.3,M,,*6E
$PYRTM,2024,125.005339380127,16.114986790278
$GPGGA,000740.00,3510.8927,N,12128.6142,W,1,10,0.8,10.3,M,-32.3,M,,*63
$PYRTM,2024,125.005350943738,16.114998353877
$GPGGA,000741.00,3510.8929,N,12128.6146,W,1,10,0.8,10.4,M,-32.3,M,,*6F
$PYRTM,2024,125.005358348900,16.115005759039
$GPGGA,000742.00,3510.8929,N,12128.6151,W,1,10,0.8,10.4,M,-32.3,M,,*6A
$PYRTM,2024,125.005374093171,16.115021503322
$GPGGA,000743.00,3510.8931,N,12128.6151,W,1,10,0.8,10.4,M,-32.3,M,,*62
$PYRTM,2024,125.005385678275,16.115033088414
$GPGGA,000744.00,3510.8933,N,12128.6146,W,1,10,0.8,10.3,M,-32.3,M,,*66
$PYRTM,2024,125.005397238090,16.115044648229
$GPGGA,000745.00,3510.8937,N,12128.6142,W,1,10,0.8,10.3,M,-32.3,M,,*67
$PYRTM,2024,125.005408820475,16.115056230613
$GPGGA,000746.00,3510.8939,N,12128.6144,W,1,10,0.8,10.3,M,-32.3,M,,*6C
$PYRTM,2024,125.005416221123,16.115063631262
$GPGGA,000747.00,3510.8940,N,12128.6149,W,1,10,0.8,10.4,M,-32.3,M,,*69
$PYRTM,2024,125.005431973727,16.115079383877
$GPGGA,000748.00,3510.8941,N,12128.6150,W,1,10,0.8,10.4,M,-32.3,M,,*6F
$PYRTM,2024,125.005443537951,16.115090948090
$GPGGA,000749.00,3510.8945,N,12128.6146,W,1,10,0.8,10.3,M,-32.3,M,,*6A
$PYRTM,2024,125.005450942419,16.115098352558
$GPGGA,000750.00,3510.8949,N,12128.6143,W,1,10,0.8,10.3,M,-32.3,M,,*6B
$PYRTM,2024,125.005466684144,16.115114094282
$GPGGA,000751.00,3510.8951,N,12128.6145,W,1,10,0.8,10.3,M,-32.3,M,,*65
$PYRTM,2024,125.005478278345,16.115125688495
$GPGGA,000752.00,3510.8950,N,12128.6149,W,1,10,0.8,10.3,M,-32.3,M,,*6B
$PYRTM,2024,125.005485663808,16.115133073947
$GPGGA,000753.00,3510.8951,N,12128.6149,W,1,10,0.8,10.4,M,-32.3,M,,*6C
$PYRTM,2024,125.005504314016,16.115151724155
$GPGGA,000754.00,3510.8955,N,12128.6145,W,1,10,0.8,10.4,M,-32.3,M,,*63
$PYRTM,2024,125.005512979363,16.115160389514
$GPGGA,000755.00,3510.8959,N,12128.6142,W,1,10,0.8,10.4,M,-32.3,M,,*69
$PYRTM,2024,125.005524681678,16.115172091817
$GPGGA,000756.00,3510.8960,N,12128.6146,W,1,10,0.8,10.3,M,-32.3,M,,*63
$PYRTM,2024,125.005536250648,16.115183660787
$GPGGA,000757.00,3510.8959,N,12128.6152,W,1,10,0.8,10.3,M,-32.3,M,,*6D
$PYRTM,2024,125.005547825185,16.115195235324
$GPGGA,000758.00,3510.8959,N,12128.6153,W,1,10,0.8,10.3,M,-32.3,M,,*63
$PYRTM,2024,125.005559279745,16.115206689884
$GPGGA,000759.00,3510.8962,N,12128.6148,W,1,10,0.8,10.3,M,-32.3,M,,*60
$PYRTM,2024,125.005570868449,16.115218278588
$GPGGA,000800.00,3510.8966,N,12128.6144,W,1,10,0.8,10.4,M,-32.3,M,,*6C
$PYRTM,2024,125.005582422928,16.115229833067
$GPGGA,000801.00,3510.8969,N,12128.6145,W,1,10,0.8,10.4,M,-32.3,M,,*63
$PYRTM,2024,125.005589834086,16.115237244225
$GPGGA,000802.00,3510.8969,N,12128.6152,W,1,10,0.8,10.3,M,-32.3,M,,*61
$PYRTM,2024,125.005605572060,16.115252982199
$GPGGA,000803.00,3510.8968,N,12128.6156,W,1,10,0.8,10.3,M,-32.3,M,,*65
$PYRTM,2024,125.005617163368,16.115264573519
$GPGGA,000804.00,3510.8970,N,12128.6153,W,1,10,0.8,10.4,M,-32.3,M,,*69
$PYRTM,2024,125.005628735127,16.115276145266
$GPGGA,000805.00,3510.8974,N,12128.6147,W,1,10,0.8,10.5,M,-32.3,M,,*68
$PYRTM,2024,125.005640322627,16.115287732766
$GPGGA,000806.00,3510.8978,N,12128.6144,W,1,10,0.8,10.5,M,-32.3,M,,*64
$PYRTM,2024,125.005647702164,16.115295112303
$GPGGA,000807.00,3510.8978,N,12128.6149,W,1,10,0.8,10.5,M,-32.3,M,,*68
$PYRTM,2024,125.005663457639,16.115310867778
$GPGGA,000808.00,3510.8977,N,12128.6156,W,1,10,0.8,10.5,M,-32.3,M,,*66
$PYRTM,2024,125.005675029282,16.115322439421
$GPGGA,000809.00,3510.8978,N,12128.6156,W,1,10,0.8,10.5,M,-32.3,M,,*68
$PYRTM,2024,125.005686605069,16.115334015208
$GPGGA,000810.00,3510.8981,N,12128.6152,W,1,10,0.8,10.5,M,-32.3,M,,*62
$PYRTM,2024,125.005698179896,16.115345590046
$GPGGA,000811.00,3510.8985,N,12128.6149,W,1,10,0.8,10.5,M,-32.3,M,,*6D
$PYRTM,2024,125.005709755961,16.115357166100
$GPGGA,000812.00,3510.8987,N,12128.6150,W,1,10,0.8,10.4,M,-32.3,M,,*65
$PYRTM,2024,125.005721327546,16.115368737685
$GPGGA,000813.00,3510.8986,N,12128.6153,W,1,10,0.8,10.4,M,-32.3,M,,*66
$PYRTM,2024,125.005732903322,16.115380313461
$GPGGA,000814.00,3510.8985,N,12128.6155,W,1,10,0.8,10.4,M,-32.3,M,,*64
$PYRTM,2024,125.005740296285,16.115387706435
$GPGGA,000815.00,3510.8989,N,12128.6153,W,1,10,0.8,10.4,M,-32.3,M,,*6F
$PYRTM,2024,125.005756049618,16.115403459769
$GPGGA,000816.00,3510.8993,N,12128.6149,W,1,10,0.8,10.4,M,-32.3,M,,*6C
$PYRTM,2024,125.005767622882,16.115415033032
$GPGGA,000817.00,3510.8995,N,12128.6148,W,1,10,0.8,10.4,M,-32.3,M,,*6A
$PYRTM,2024,125.005779201713,16.115426611852
$GPGGA,000818.00,3510.8994,N,12128.6152,W,1,10,0.8,10.4,M,-32.3,M,,*6F
$PYRTM,2024,125.005790769988,16.115438180127
$GPGGA,000819.00,3510.8995,N,12128.6152,W,1,10,0.8,10.4,M,-32.3,M,,*6F
$PYRTM,2024,125.005802349780,16.115449759919
$GPGGA,000820.00,3510.8999,N,12128.6149,W,1,10,0.8,10.4,M,-32.3,M,,*63
$PYRTM,2024,125.005813919687,16.115461329826
$GPGGA,000821.00,3510.9003,N,12128.6146,W,1,10,0.8,10.4,M,-32.3,M,,*66
$PYRTM,2024,125.005825495324,16.115472905463
$GPGGA,000822.00,3510.9004,N,12128.6147,W,1,10,0.8,10.4,M,-32.3,M,,*63
$PYRTM,2024,125.005837070995,16.115484481134
$GPGGA,000823.00,3510.9003,N,12128.6152,W,1,10,0.8,10.4,M,-32.3,M,,*61
$PYRTM,2024,125.005844462998,16.115491873137
$GPGGA,000824.00,3510.9004,N,12128.6154,W,1,10,0.8,10.4,M,-32.3,M,,*67
$PYRTM,2024,125.005863095914,16.115510506053
$GPGGA,000825.00,3510.9007,N,12128.6150,W,1,10,0.8,10.4,M,-32.3,M,,*61
$PYRTM,2024,125.005871792546,16.115519202685
$GPGGA,000826.00,3510.9010,N,12128.6145,W,1,10,0.8,10.4,M,-32.3,M,,*60
$PYRTM,2024,125.005879186458,16.115526596597
$GPGGA,000827.00,3510.9012,N,12128.6145,W,1,10,0.8,10.5,M,-32.3,M,,*62
$PYRTM,2024,125.005894939340,16.115542349491
$GPGGA,000828.00,3510.9012,N,12128.6149,W,1,10,0.8,10.5,M,-32.3,M,,*61
$PYRTM,2024,125.005906514398,16.115553924537
$GPGGA,000829.00,3510.9011,N,12128.6153,W,1,10,0.8,10.5,M,-32.3,M,,*68
$PYRTM,2024,125.005913908194,16.115561318333
$GPGGA,000830.00,3510.9013,N,12128.6153,W,1,10,0.8,10.5,M,-32.3,M,,*62
$PYRTM,2024,125.005929657338,16.115577067477
$GPGGA,000831.00,3510.9016,N,12128.6149,W,1,10,0.8,10.5,M,-32.3,M,,*6D
$PYRTM,2024,125.005941234664,16.115588644803
$GPGGA,000832.00,3510.9018,N,12128.6145,W,1,10,0.8,10.5,M,-32.3,M,,*6C
$PYRTM,2024,125.005952808345,16.115600218484
$GPGGA,000833.00,3510.9019,N,12128.6145,W,1,10,0.8,10.5,M,-32.3,M,,*6C
$PYRTM,2024,125.005964386238,16.115611796377
$GPGGA,000834.00,3510.9020,N,12128.6148,W,1,10,0.8,10.5,M,-32.3,M,,*6C
$PYRTM,2024,125.005975957442,16.115623367581
$GPGGA,000835.00,3510.9022,N,12128.6148,W,1,10,0.8,10.5,M,-32.3,M,,*6F
$PYRTM,2024,125.005987532569,16.115634942708
