$PYRTM,2024,122.416670273588,13.526317683727
$GPGGA,095959.00,3334.9325,N,11950.7891,W,1,08,1.0,14.6,M,-34.9,M,,*6F
$PYRTM,2024,122.416681859641,13.526329269780
$GPGGA,100000.00,3334.9333,N,11950.7918,W,1,08,1.0,14.9,M,-34.9,M,,*6F
$PYRTM,2024,122.416689272060,13.526336682199
$GPGGA,100001.00,3334.9342,N,11950.7946,W,1,08,1.0,14.6,M,-34.9,M,,*6C
$PYRTM,2024,122.416705005590,13.526352415729
$GPGGA,100002.00,3334.9350,N,11950.7975,W,1,08,1.0,13.9,M,-34.9,M,,*64
$PYRTM,2024,122.416716569606,13.526363979745
$GPGGA,100003.00,3334.9358,N,11950.8002,W,1,08,1.0,13.8,M,-34.9,M,,*6A
$PYRTM,2024,122.416723976296,13.526371386435
$GPGGA,100004.00,3334.9365,N,11950.8026,W,1,08,1.0,14.3,M,-34.9,M,,*69
$PYRTM,2024,122.416739717569,13.526387127708
$GPGGA,100005.00,3334.9373,N,11950.8053,W,1,08,1.0,14.9,M,-34.9,M,,*67
$PYRTM,2024,122.416751305706,13.526398715845
$GPGGA,100006.00,3334.9382,N,11950.8082,W,1,08,1.0,14.8,M,-34.9,M,,*67
$PYRTM,2024,122.416762867141,13.526410277280
$GPGGA,100007.00,3334.9390,N,11950.8110,W,1,08,1.0,14.4,M,-34.9,M,,*63
$PYRTM,2024,122.416774456400,13.526421866539
$GPGGA,100008.00,3334.9396,N,11950.8136,W,1,08,1.0,14.1,M,-34.9,M,,*6B
$PYRTM,2024,122.416781849537,13.526429259676
$GPGGA,100009.00,3334.9403,N,11950.8162,W,1,08,1.0,14.0,M,-34.9,M,,*61
$PYRTM,2024,122.416800499005,13.526447909144
$GPGGA,100010.00,3334.9410,N,11950.8190,W,1,08,1.0,14.1,M,-34.9,M,,*67
$PYRTM,2024,122.416809165359,13.526456575498
$GPGGA,100011.00,3334.9419,N,11950.8218,W,1,08,1.0,14.2,M,-34.9,M,,*6F
$PYRTM,2024,122.416820750139,13.526468160278
$GPGGA,100012.00,3334.9428,N,11950.8246,W,1,08,1.0,14.1,M,-34.9,M,,*66
$PYRTM,2024,122.416832320718,13.526479730856
$GPGGA,100013.00,3334.9437,N,11950.8273,W,1,08,1.0,14.2,M,-34.9,M,,*6C
$PYRTM,2024,122.416843895486,13.526491305625
$GPGGA,100014.00,3334.9444,N,11950.8300,W,1,08,1.0,14.6,M,-34.9,M,,*6E
$PYRTM,2024,122.416851294525,13.526498704664
$GPGGA,100015.00,3334.9449,N,11950.8325,W,1,08,1.0,15.3,M,-34.9,M,,*61
$PYRTM,2024,122.416867158519,13.526514568657
$GPGGA,100016.00,3334.9458,N,11950.8354,W,1,08,1.0,15.0,M,-34.9,M,,*67
$PYRTM,2024,122.416878724109,13.526526134248
$GPGGA,100017.00,3334.9467,N,11950.8383,W,1,08,1.0,14.2,M,-34.9,M,,*63
$PYRTM,2024,122.416890314051,13.526537724190
$GPGGA,100018.00,3334.9475,N,11950.8407,W,1,08,1.0,13.8,M,-34.9,M,,*69
$PYRTM,2024,122.416901769734,13.526549179873
$GPGGA,100019.00,3334.9482,N,11950.8428,W,1,08,1.0,14.2,M,-34.9,M,,*60
$PYRTM,2024,122.416913343519,13.526560753657
$GPGGA,100020.00,3334.9490,N,11950.8456,W,1,08,1.0,15.3,M,-34.9,M,,*60
$PYRTM,2024,122.416920751366,13.526568161505
$GPGGA,100021.00,3334.9499,N,11950.8488,W,1,08,1.0,14.9,M,-34.9,M,,*60
$PYRTM,2024,122.416936492963,13.526583903102
$GPGGA,100022.00,3334.9504,N,11950.8516,W,1,08,1.0,14.5,M,-34.9,M,,*6C
$PYRTM,2024,122.416948066065,13.526595476204
$GPGGA,100023.00,3334.9509,N,11950.8539,W,1,08,1.0,14.4,M,-34.9,M,,*6C
$PYRTM,2024,122.416959640231,13.526607050370
$GPGGA,100024.00,3334.9517,N,11950.8563,W,1,08,1.0,14.8,M,-34.9,M,,*67
$PYRTM,2024,122.416971213750,13.526618623889
$GPGGA,100025.00,3334.9527,N,11950.8587,W,1,08,1.0,14.5,M,-34.9,M,,*62
$PYRTM,2024,122.416982788356,13.526630198495
$GPGGA,100026.00,3334.9536,N,11950.8613,W,1,08,1.0,14.3,M,-34.9,M,,*69
$PYRTM,2024,122.416994362106,13.526641772245
$GPGGA,100027.00,3334.9543,N,11950.8640,W,1,08,1.0,14.1,M,-34.9,M,,*6E
$PYRTM,2024,122.417005940139,13.526653350278
$GPGGA,100028.00,3334.9549,N,11950.8667,W,1,08,1.0,13.8,M,-34.9,M,,*60
$PYRTM,2024,122.417017505359,13.526664915498
$GPGGA,100029.00,3334.9555,N,11950.8695,W,1,08,1.0,13.4,M,-34.9,M,,*6D
$PYRTM,2024,122.417029085093,13.526676495231
$GPGGA,100030.00,3334.9563,N,11950.8722,W,1,08,1.0,13.1,M,-34.9,M,,*68
$PYRTM,2024,122.417040659641,13.526688069780
$GPGGA,100031.00,3334.9571,N,11950.8747,W,1,08,1.0,13.4,M,-34.9,M,,*6C
$PYRTM,2024,122.417052236435,13.526699646574
$GPGGA,100032.00,3334.9580,N,11950.8772,W,1,08,1.0,14.1,M,-34.9,M,,*65
$PYRTM,2024,122.417063803333,13.526711213472
$GPGGA,100033.00,3334.9588,N,11950.8799,W,1,08,1.0,14.4,M,-34.9,M,,*6C
$PYRTM,2024,122.417075376505,13.526722786644
$GPGGA,100034.00,3334.9595,N,11950.8828,W,1,08,1.0,14.4,M,-34.9,M,,*62
$PYRTM,2024,122.417086955544,13.526734365683
$GPGGA,100035.00,3334.9600,N,11950.8856,W,1,08,1.0,14.3,M,-34.9,M,,*62
$PYRTM,2024,122.417094352465,13.526741762604
$GPGGA,100036.00,3334.9605,N,11950.8882,W,1,08,1.0,14.4,M,-34.9,M,,*6A
$PYRTM,2024,122.417110103889,13.526757514028
$GPGGA,100037.00,3334.9614,N,11950.8907,W,1,08,1.0,14.6,M,-34.9,M,,*65
$PYRTM,2024,122.417121679549,13.526769089687
$GPGGA,100038.00,3334.9624,N,11950.8932,W,1,08,1.0,14.8,M,-34.9,M,,*61
$PYRTM,2024,122.417133247836,13.526780657975
$GPGGA,100039.00,3334.9632,N,11950.8960,W,1,08,1.0,14.6,M,-34.9,M,,*6E
$PYRTM,2024,122.417140647789,13.526788057928
$GPGGA,100040.00,3334.9638,N,11950.8990,W,1,08,1.0,14.0,M,-34.9,M,,*63
$PYRTM,2024,122.417159284676,13.526806694826
$GPGGA,100041.00,3334.9643,N,11950.9020,W,1,08,1.0,13.8,M,-34.9,M,,*62
$PYRTM,2024,122.417167977801,13.526815387940
$GPGGA,100042.00,3334.9650,N,11950.9045,W,1,08,1.0,14.3,M,-34.9,M,,*6C
$PYRTM,2024,122.417179549525,13.526826959676
$GPGGA,100043.00,3334.9660,N,11950.9070,W,1,08,1.0,14.9,M,-34.9,M,,*62
$PYRTM,2024,122.417191137778,13.526838547928
$GPGGA,100044.00,3334.9670,N,11950.9098,W,1,08,1.0,15.2,M,-34.9,M,,*68
$PYRTM,2024,122.417202696806,13.526850106944
$GPGGA,100045.00,3334.9677,N,11950.9127,W,1,08,1.0,15.1,M,-34.9,M,,*68
$PYRTM,2024,122.417214266343,13.526861676481
$GPGGA,100046.00,3334.9680,N,11950.9154,W,1,08,1.0,15.4,M,-34.9,M,,*62
$PYRTM,2024,122.417221681389,13.526869091528
$GPGGA,100047.00,3334.9686,N,11950.9181,W,1,08,1.0,15.7,M,-34.9,M,,*6E
$PYRTM,2024,122.417237420984,13.526884831123
$GPGGA,100048.00,3334.9695,N,11950.9206,W,1,08,1.0,15.8,M,-34.9,M,,*60
$PYRTM,2024,122.417248989745,13.526896399884
$GPGGA,100049.00,3334.9706,N,11950.9232,W,1,08,1.0,15.5,M,-34.9,M,,*60
$PYRTM,2024,122.417260563171,13.526907973310
$GPGGA,100050.00,3334.9714,N,11950.9261,W,1,08,1.0,14.9,M,-34.9,M,,*60
$PYRTM,2024,122.417272141238,13.526919551377
$GPGGA,100051.00,3334.9720,N,11950.9291,W,1,08,1.0,14.4,M,-34.9,M,,*64
$PYRTM,2024,122.417283712593,13.526931122731
$GPGGA,100052.00,3334.9727,N,11950.9318,W,1,08,1.0,14.4,M,-34.9,M,,*60
$PYRTM,2024,122.417295284861,13.526942695000
$GPGGA,100053.00,3334.9736,N,11950.9344,W,1,08,1.0,14.6,M,-34.9,M,,*6A
$PYRTM,2024,122.417306878970,13.526954289109
$GPGGA,100054.00,3334.9747,N,11950.9371,W,1,08,1.0,15.0,M,-34.9,M,,*6A
$PYRTM,2024,122.417318438993,13.526965849132
$GPGGA,100055.00,3334.9756,N,11950.9396,W,1,08,1.0,15.5,M,-34.9,M,,*67
$PYRTM,2024,122.417330016088,13.526977426227
$GPGGA,100056.00,3334.9765,N,11950.9421,W,1,08,1.0,15.6,M,-34.9,M,,*6C
$PYRTM,2024,122.417337410278,13.526984820417
$GPGGA,100057.00,3334.9771,N,11950.9452,W,1,08,1.0,15.0,M,-34.9,M,,*6A
$PYRTM,2024,122.417353155891,13.527000566030
$GPGGA,100058.00,3334.9778,N,11950.9482,W,1,08,1.0,14.1,M,-34.9,M,,*61
$PYRTM,2024,122.417364728993,13.527012139132
$GPGGA,100059.00,3334.9785,N,11950.9507,W,1,08,1.0,13.8,M,-34.9,M,,*60
$PYRTM,2024,122.417376308796,13.527023718935
$GPGGA,100100.00,3334.9794,N,11950.9529,W,1,08,1.0,14.4,M,-34.9,M,,*6A
$PYRTM,2024,122.417387877558,13.527035287708
$GPGGA,100101.00,3334.9805,N,11950.9556,W,1,08,1.0,14.7,M,-34.9,M,,*67
$PYRTM,2024,122.417399457627,13.527046867766
$GPGGA,100102.00,3334.9814,N,11950.9586,W,1,08,1.0,13.9,M,-34.9,M,,*60
$PYRTM,2024,122.417411026204,13.527058436343
$GPGGA,100103.00,3334.9820,N,11950.9615,W,1,08,1.0,13.7,M,-34.9,M,,*61
$PYRTM,2024,122.417422609062,13.527070019201
$GPGGA,100104.00,3334.9825,N,11950.9640,W,1,08,1.0,13.7,M,-34.9,M,,*63
$PYRTM,2024,122.417434179838,13.527081589988
$GPGGA,100105.00,3334.9832,N,11950.9663,W,1,08,1.0,14.1,M,-34.9,M,,*64
$PYRTM,2024,122.417441573646,13.527088983785
$GPGGA,100106.00,3334.9842,N,11950.9689,W,1,08,1.0,14.0,M,-34.9,M,,*65
$PYRTM,2024,122.417457328194,13.527104738333
$GPGGA,100107.00,3334.9850,N,11950.9717,W,1,08,1.0,13.6,M,-34.9,M,,*60
$PYRTM,2024,122.417468902546,13.527116312685
$GPGGA,100108.00,3334.9858,N,11950.9744,W,1,08,1.0,13.4,M,-34.9,M,,*63
$PYRTM,2024,122.417480475324,13.527127885463
$GPGGA,100109.00,3334.9867,N,11950.9770,W,1,08,1.0,13.8,M,-34.9,M,,*65
$PYRTM,2024,122.417492049931,13.527139460069
$GPGGA,100110.00,3334.9874,N,11950.9795,W,1,08,1.0,14.6,M,-34.9,M,,*6D
$PYRTM,2024,122.417499445938,13.527146856076
$GPGGA,100111.00,3334.9883,N,11950.9819,W,1,08,1.0,15.5,M,-34.9,M,,*6D
$PYRTM,2024,122.417518091597,13.527165501736
$GPGGA,100112.00,3334.9892,N,11950.9848,W,1,08,1.0,15.5,M,-34.9,M,,*6A
$PYRTM,2024,122.417526771539,13.527174181678
$GPGGA,100113.00,3334.9901,N,11950.9879,W,1,08,1.0,14.6,M,-34.9,M,,*60
$PYRTM,2024,122.417538360359,13.527185770498
$GPGGA,100114.00,3334.9905,N,11950.9904,W,1,08,1.0,14.2,M,-34.9,M,,*6C
$PYRTM,2024,122.417549920660,13.527197330799
$GPGGA,100115.00,3334.9909,N,11950.9926,W,1,08,1.0,15.0,M,-34.9,M,,*62
$PYRTM,2024,122.417561498657,13.527208908796
$GPGGA,100116.00,3334.9918,N,11950.9951,W,1,08,1.0,15.5,M,-34.9,M,,*64
$PYRTM,2024,122.417573070243,13.527220480382
$GPGGA,100117.00,3334.9929,N,11950.9979,W,1,08,1.0,15.5,M,-34.9,M,,*6D
$PYRTM,2024,122.417584642986,13.527232053125
$GPGGA,100118.00,3334.9936,N,11951.0008,W,1,08,1.0,14.8,M,-34.9,M,,*67
$PYRTM,2024,122.417596216551,13.527243626690
$GPGGA,100119.00,3334.9940,N,11951.0034,W,1,08,1.0,14.4,M,-34.9,M,,*64
$PYRTM,2024,122.417607792234,13.527255202373
$GPGGA,100120.00,3334.9944,N,11951.0058,W,1,08,1.0,14.5,M,-34.9,M,,*61
$PYRTM,2024,122.417619365093,13.527266775231
$GPGGA,100121.00,3334.9953,N,11951.0083,W,1,08,1.0,15.0,M,-34.9,M,,*64
$PYRTM,2024,122.417626760324,13.527274170463
$GPGGA,100122.00,3334.9964,N,11951.0107,W,1,08,1.0,15.3,M,-34.9,M,,*6D
$PYRTM,2024,122.417642513796,13.527289923935
$GPGGA,100123.00,3334.9972,N,11951.0135,W,1,08,1.0,15.2,M,-34.9,M,,*6B
$PYRTM,2024,122.417654090810,13.527301500949
$GPGGA,100124.00,3334.9976,N,11951.0165,W,1,08,1.0,14.7,M,-34.9,M,,*69
$PYRTM,2024,122.417665657998,13.527313068137
$GPGGA,100125.00,3334.9980,N,11951.0191,W,1,08,1.0,14.8,M,-34.9,M,,*65
$PYRTM,2024,122.417673057743,13.527320467882
$GPGGA,100126.00,3334.9989,N,11951.0215,W,1,08,1.0,15.0,M,-34.9,M,,*69
$PYRTM,2024,122.417688810220,13.527336220359
$GPGGA,100127.00,3335.0001,N,11951.0240,W,1,08,1.0,15.1,M,-34.9,M,,*68
$PYRTM,2024,122.417700385833,13.527347795972
$GPGGA,100128.00,3335.0010,N,11951.0268,W,1,08,1.0,15.0,M,-34.9,M,,*6C
$PYRTM,2024,122.417711959167,13.527359369306
$GPGGA,100129.00,3335.0014,N,11951.0294,W,1,08,1.0,15.5,M,-34.9,M,,*6F
$PYRTM,2024,122.417723533692,13.527370943831
$GPGGA,100130.00,3335.0019,N,11951.0320,W,1,08,1.0,15.9,M,-34.9,M,,*68
$PYRTM,2024,122.417735106863,13.527382517002
$GPGGA,100131.00,3335.0027,N,11951.0348,W,1,08,1.0,15.4,M,-34.9,M,,*67
$PYRTM,2024,122.417746680475,13.527394090613
$GPGGA,100132.00,3335.0036,N,11951.0374,W,1,08,1.0,14.9,M,-34.9,M,,*67
$PYRTM,2024,122.417758256609,13.527405666748
$GPGGA,100133.00,3335.0044,N,11951.0396,W,1,08,1.0,15.0,M,-34.9,M,,*67
$PYRTM,2024,122.417769825139,13.527417235278
$GPGGA,100134.00,3335.0050,N,11951.0421,W,1,08,1.0,15.0,M,-34.9,M,,*6E
$PYRTM,2024,122.417781403102,13.527428813241
$GPGGA,100135.00,3335.0056,N,11951.0450,W,1,08,1.0,14.4,M,-34.9,M,,*6A
$PYRTM,2024,122.417792978507,13.527440388646
$GPGGA,100136.00,3335.0063,N,11951.0478,W,1,08,1.0,13.7,M,-34.9,M,,*61
$PYRTM,2024,122.417804551065,13.527451961204
$GPGGA,100137.00,3335.0072,N,11951.0501,W,1,08,1.0,13.8,M,-34.9,M,,*60
$PYRTM,2024,122.417811947083,13.527459357222
$GPGGA,100138.00,3335.0081,N,11951.0526,W,1,08,1.0,14.2,M,-34.9,M,,*6B
$PYRTM,2024,122.417827700729,13.527475110868
$GPGGA,100139.00,3335.0089,N,11951.0553,W,1,08,1.0,14.5,M,-34.9,M,,*67
$PYRTM,2024,122.417839277778,13.527486687917
$GPGGA,100140.00,3335.0096,N,11951.0579,W,1,09,0.8,14.8,M,-34.9,M,,*6A
$PYRTM,2024,122.417846669988,13.527494080127
$GPGGA,100141.00,3335.0103,N,11951.0605,W,1,09,0.8,14.7,M,-34.9,M,,*61
$PYRTM,2024,122.417858358634,13.527505768773
$GPGGA,100142.00,3335.0110,N,11951.0632,W,1,09,0.8,14.3,M,-34.9,M,,*60
$PYRTM,2024,122.417876877720,13.527524287859
$GPGGA,100143.00,3335.0117,N,11951.0659,W,1,09,0.8,13.4,M,-34.9,M,,*6B
$PYRTM,2024,122.417885571354,13.527532981493
$GPGGA,100144.00,3335.0125,N,11951.0685,W,1,09,0.8,13.0,M,-34.9,M,,*68
$PYRTM,2024,122.417897144120,13.527544554271
$GPGGA,100145.00,3335.0134,N,11951.0713,W,1,09,0.8,12.8,M,-34.9,M,,*6E
$PYRTM,2024,122.417908713924,13.527556124062
$GPGGA,100146.00,3335.0143,N,11951.0742,W,1,09,0.8,12.6,M,-34.9,M,,*67
$PYRTM,2024,122.417920292940,13.527567703079
$GPGGA,100147.00,3335.0148,N,11951.0768,W,1,09,0.8,13.2,M,-34.9,M,,*60
$PYRTM,2024,122.417931867338,13.527579277488
$GPGGA,100148.00,3335.0155,N,11951.0791,W,1,09,0.8,14.0,M,-34.9,M,,*60
$PYRTM,2024,122.417943442454,13.527590852593
$GPGGA,100149.00,3335.0165,N,11951.0818,W,1,09,0.8,14.1,M,-34.9,M,,*6D
$PYRTM,2024,122.417955019190,13.527602429329
$GPGGA,100150.00,3335.0174,N,11951.0846,W,1,09,0.8,13.6,M,-34.9,M,,*6E
$PYRTM,2024,122.417962410602,13.527609820741
$GPGGA,100151.00,3335.0180,N,11951.0869,W,1,09,0.8,13.7,M,-34.9,M,,*68
$PYRTM,2024,122.417978166968,13.527625577118
$GPGGA,100152.00,3335.0186,N,11951.0893,W,1,09,0.8,14.0,M,-34.9,M,,*68
$PYRTM,2024,122.417989737569,13.527637147708
$GPGGA,100153.00,3335.0195,N,11951.0921,W,1,09,0.8,14.0,M,-34.9,M,,*63
$PYRTM,2024,122.418001312060,13.527648722199
$GPGGA,100154.00,3335.0204,N,11951.0946,W,1,09,0.8,13.8,M,-34.9,M,,*61
$PYRTM,2024,122.418012887153,13.527660297292
$GPGGA,100155.00,3335.0213,N,11951.0971,W,1,09,0.8,13.9,M,-34.9,M,,*63
$PYRTM,2024,122.418024460255,13.527671870394
$GPGGA,100156.00,3335.0220,N,11951.0997,W,1,09,0.8,14.3,M,-34.9,M,,*65
$PYRTM,2024,122.418036029213,13.527683439352
$GPGGA,100157.00,3335.0225,N,11951.1024,W,1,09,0.8,14.6,M,-34.9,M,,*64
$PYRTM,2024,122.418047608171,13.527695018310
$GPGGA,100158.00,3335.0232,N,11951.1053,W,1,09,0.8,14.2,M,-34.9,M,,*69
$PYRTM,2024,122.418059183368,13.527706593507
$GPGGA,100159.00,3335.0242,N,11951.1079,W,1,09,0.8,13.8,M,-34.9,M,,*6A
$PYRTM,2024,122.418070759352,13.527718169491
$GPGGA,100200.00,3335.0252,N,11951.1101,W,1,09,0.8,14.2,M,-34.9,M,,*67
$PYRTM,2024,122.418082330729,13.527729740868
$GPGGA,100201.00,3335.0261,N,11951.1127,W,1,09,0.8,14.0,M,-34.9,M,,*60
$PYRTM,2024,122.418093908137,13.527741318275
$GPGGA,100202.00,3335.0268,N,11951.1157,W,1,09,0.8,13.6,M,-34.9,M,,*6C
$PYRTM,2024,122.418105479537,13.527752889676
$GPGGA,100203.00,3335.0272,N,11951.1186,W,1,09,0.8,13.5,M,-34.9,M,,*69
$PYRTM,2024,122.418117049317,13.527764459456
$GPGGA,100204.00,3335.0278,N,11951.1209,W,1,09,0.8,14.1,M,-34.9,M,,*63
$PYRTM,2024,122.418128626933,13.527776037072
$GPGGA,100205.00,3335.0287,N,11951.1232,W,1,09,0.8,14.9,M,-34.9,M,,*62
$PYRTM,2024,122.418140201667,13.527787611806
$GPGGA,100206.00,3335.0297,N,11951.1259,W,1,09,0.8,14.6,M,-34.9,M,,*62
$PYRTM,2024,122.418151772292,13.527799182442
$GPGGA,100207.00,3335.0304,N,11951.1288,W,1,09,0.8,14.0,M,-34.9,M,,*62
$PYRTM,2024,122.418163350081,13.527810760220
$GPGGA,100208.00,3335.0308,N,11951.1313,W,1,09,0.8,14.1,M,-34.9,M,,*63
$PYRTM,2024,122.418174924016,13.527822334155
$GPGGA,100209.00,3335.0313,N,11951.1335,W,1,09,0.8,15.1,M,-34.9,M,,*6D
$PYRTM,2024,122.418186497708,13.527833907847
$GPGGA,100210.00,3335.0322,N,11951.1363,W,1,09,0.8,15.3,M,-34.9,M,,*66
$PYRTM,2024,122.418198072778,13.527845482917
$GPGGA,100211.00,3335.0332,N,11951.1392,W,1,09,0.8,13.4,M,-34.9,M,,*69
$PYRTM,2024,122.418209660590,13.527857070729
$GPGGA,100212.00,3335.0339,N,11951.1418,W,1,09,0.8,12.3,M,-34.9,M,,*62
$PYRTM,2024,122.418217042697,13.527864452836
$GPGGA,100213.00,3335.0344,N,11951.1439,W,1,09,0.8,13.0,M,-34.9,M,,*68
$PYRTM,2024,122.418235692373,13.527883102512
$GPGGA,100214.00,3335.0351,N,11951.1461,W,1,09,0.8,14.0,M,-34.9,M,,*61
$PYRTM,2024,122.418244370984,13.527891781123
$GPGGA,100215.00,3335.0359,N,11951.1490,W,1,09,0.8,13.9,M,-34.9,M,,*68
$PYRTM,2024,122.418255938160,13.527903348299
$GPGGA,100216.00,3335.0368,N,11951.1520,W,1,09,0.8,13.0,M,-34.9,M,,*6A
$PYRTM,2024,122.418267517581,13.527914927720
$GPGGA,100217.00,3335.0374,N,11951.1546,W,1,09,0.8,12.4,M,-34.9,M,,*63
$PYRTM,2024,122.418279086215,13.527926496366
$GPGGA,100218.00,3335.0379,N,11951.1568,W,1,09,0.8,13.3,M,-34.9,M,,*6B
$PYRTM,2024,122.418290665995,13.527938076134
$GPGGA,100219.00,3335.0387,N,11951.1591,W,1,09,0.8,13.4,M,-34.9,M,,*6A
$PYRTM,2024,122.418302235891,13.527949646030
$GPGGA,100220.00,3335.0396,N,11951.1620,W,1,09,0.8,12.7,M,-34.9,M,,*6B
$PYRTM,2024,122.418313813056,13.527961223194
$GPGGA,100221.00,3335.0405,N,11951.1647,W,1,09,0.8,11.9,M,-34.9,M,,*6B
$PYRTM,2024,122.418325392662,13.527972802801
$GPGGA,100222.00,3335.0411,N,11951.1671,W,1,09,0.8,12.2,M,-34.9,M,,*60
$PYRTM,2024,122.418337064826,13.527984474977
$GPGGA,100223.00,3335.0417,N,11951.1694,W,1,09,0.8,12.8,M,-34.9,M,,*66
$PYRTM,2024,122.418344357141,13.527991767280
$GPGGA,100224.00,3335.0424,N,11951.1721,W,1,09,0.8,12.7,M,-34.9,M,,*61
$PYRTM,2024,122.418360105660,13.528007515799
$GPGGA,100225.00,3335.0432,N,11951.1748,W,1,09,0.8,12.1,M,-34.9,M,,*6E
$PYRTM,2024,122.418371680625,13.528019090764
$GPGGA,100226.00,3335.0440,N,11951.1773,W,1,09,0.8,11.8,M,-34.9,M,,*6A
$PYRTM,2024,122.418383258252,13.528030668391
$GPGGA,100227.00,3335.0447,N,11951.1798,W,1,09,0.8,11.9,M,-34.9,M,,*68
$PYRTM,2024,122.418394834167,13.528042244306
$GPGGA,100228.00,3335.0453,N,11951.1825,W,1,09,0.8,12.0,M,-34.9,M,,*61
$PYRTM,2024,122.418406407454,13.528053817593
$GPGGA,100229.00,3335.0460,N,11951.1853,W,1,09,0.8,11.8,M,-34.9,M,,*6A
$PYRTM,2024,122.418417975127,13.528065385266
$GPGGA,100230.00,3335.0468,N,11951.1879,W,1,09,0.8,12.0,M,-34.9,M,,*69
$PYRTM,2024,122.418429555532,13.528076965671
$GPGGA,100231.00,3335.0475,N,11951.1906,W,1,09,0.8,12.3,M,-34.9,M,,*6E
$PYRTM,2024,122.418436950394,13.528084360532
$GPGGA,100232.00,3335.0482,N,11951.1933,W,1,09,0.8,12.3,M,-34.9,M,,*63
$PYRTM,2024,122.418448639525,13.528096049676
$GPGGA,100233.00,3335.0488,N,11951.1960,W,1,09,0.8,12.3,M,-34.9,M,,*6E
$PYRTM,2024,122.418464277986,13.528111688125
$GPGGA,100234.00,3335.0494,N,11951.1985,W,1,09,0.8,12.5,M,-34.9,M,,*69
$PYRTM,2024,122.418475851204,13.528123261343
$GPGGA,100235.00,3335.0503,N,11951.2010,W,1,09,0.8,12.6,M,-34.9,M,,*62
$PYRTM,2024,122.418487426505,13.528134836644
$GPGGA,100236.00,3335.0514,N,11951.2039,W,1,09,0.8,12.0,M,-34.9,M,,*6A
$PYRTM,2024,122.418494820984,13.528142231123
$GPGGA,100237.00,3335.0521,N,11951.2067,W,1,09,0.8,11.7,M,-34.9,M,,*62
$PYRTM,2024,122.418506508738,13.528153918877
$GPGGA,100238.00,3335.0525,N,11951.2090,W,1,09,0.8,12.5,M,-34.9,M,,*60
$PYRTM,2024,122.418522148449,13.528169558588
$GPGGA,100239.00,3335.0532,N,11951.2112,W,1,09,0.8,13.6,M,-34.9,M,,*6E
$PYRTM,2024,122.418533737049,13.528181147187
$GPGGA,100240.00,3335.0543,N,11951.2141,W,1,09,0.8,13.6,M,-34.9,M,,*60
$PYRTM,2024,122.418545295463,13.528192705613
$GPGGA,100241.00,3335.0551,N,11951.2171,W,1,09,0.8,13.0,M,-34.9,M,,*67
$PYRTM,2024,122.418556870706,13.528204280845
$GPGGA,100242.00,3335.0555,N,11951.2193,W,1,09,0.8,13.0,M,-34.9,M,,*6C
$PYRTM,2024,122.418568440150,13.528215850289
$GPGGA,100243.00,3335.0561,N,11951.2213,W,1,09,0.8,13.8,M,-34.9,M,,*69
$PYRTM,2024,122.418575838461,13.528223248600
$GPGGA,100244.00,3335.0570,N,11951.2237,W,1,09,0.8,13.8,M,-34.9,M,,*68
$PYRTM,2024,122.418594473333,13.528241883472
$GPGGA,100245.00,3335.0580,N,11951.2266,W,1,09,0.8,13.5,M,-34.9,M,,*6F
$PYRTM,2024,122.418603167176,13.528250577315
$GPGGA,100246.00,3335.0586,N,11951.2293,W,1,09,0.8,12.2,M,-34.9,M,,*66
$PYRTM,2024,122.418614740579,13.528262150718
$GPGGA,100247.00,3335.0592,N,11951.2317,W,1,09,0.8,12.0,M,-34.9,M,,*6D
$PYRTM,2024,122.418622137164,13.528269547303
$GPGGA,100248.00,3335.0601,N,11951.2340,W,1,09,0.8,13.3,M,-34.9,M,,*6B
$PYRTM,2024,122.418637889896,13.528285300046
$GPGGA,100249.00,3335.0609,N,11951.2364,W,1,09,0.8,14.3,M,-34.9,M,,*63
$PYRTM,2024,122.418649463576,13.528296873715
$GPGGA,100250.00,3335.0617,N,11951.2390,W,1,09,0.8,14.6,M,-34.9,M,,*6A
$PYRTM,2024,122.418661031806,13.528308441944
$GPGGA,100251.00,3335.0624,N,11951.2419,W,1,09,0.8,14.6,M,-34.9,M,,*6D
$PYRTM,2024,122.418672615880,13.528320026019
$GPGGA,100252.00,3335.0630,N,11951.2444,W,1,09,0.8,14.9,M,-34.9,M,,*6C
$PYRTM,2024,122.418684182060,13.528331592199
$GPGGA,100253.00,3335.0636,N,11951.2467,W,1,09,0.8,14.9,M,-34.9,M,,*6A
$PYRTM,2024,122.418695762176,13.528343172315
$GPGGA,100254.00,3335.0644,N,11951.2491,W,1,09,0.8,15.0,M,-34.9,M,,*69
$PYRTM,2024,122.418703155336,13.528350565475
$GPGGA,100255.00,3335.0653,N,11951.2519,W,1,09,0.8,14.4,M,-34.9,M,,*6A
$PYRTM,2024,122.418718903275,13.528366313426
$GPGGA,100256.00,3335.0659,N,11951.2546,W,1,09,0.8,14.0,M,-34.9,M,,*6D
$PYRTM,2024,122.418730482292,13.528377892431
$GPGGA,100257.00,3335.0665,N,11951.2571,W,1,09,0.8,14.1,M,-34.9,M,,*66
$PYRTM,2024,122.418737878021,13.528385288160
$GPGGA,100258.00,3335.0674,N,11951.2596,W,1,09,0.8,13.9,M,-34.9,M,,*6F
$PYRTM,2024,122.418753630440,13.528401040579
$GPGGA,100259.00,3335.0684,N,11951.2622,W,1,09,0.8,14.4,M,-34.9,M,,*67
$PYRTM,2024,122.418765199687,13.528412609826
$GPGGA,100300.00,3335.0691,N,11951.2648,W,1,09,0.8,14.9,M,-34.9,M,,*6F
$PYRTM,2024,122.418776779086,13.528424189225
$GPGGA,100301.00,3335.0696,N,11951.2676,W,1,09,0.8,15.1,M,-34.9,M,,*6D
$PYRTM,2024,122.418788348194,13.528435758333
$GPGGA,100302.00,3335.0703,N,11951.2706,W,1,09,0.8,14.6,M,-34.9,M,,*63
$PYRTM,2024,122.418799928183,13.528447338322
$GPGGA,100303.00,3335.0711,N,11951.2731,W,1,09,0.8,14.5,M,-34.9,M,,*66
$PYRTM,2024,122.418811497257,13.528458907396
$GPGGA,100304.00,3335.0718,N,11951.2752,W,1,09,0.8,15.2,M,-34.9,M,,*6B
$PYRTM,2024,122.418823073981,13.528470484120
$GPGGA,100305.00,3335.0726,N,11951.2776,W,1,09,0.8,15.4,M,-34.9,M,,*67
$PYRTM,2024,122.418834650972,13.528482061111
$GPGGA,100306.00,3335.0732,N,11951.2806,W,1,09,0.8,15.0,M,-34.9,M,,*6D
$PYRTM,2024,122.418846222627,13.528493632766
$GPGGA,100307.00,3335.0738,N,11951.2836,W,1,09,0.8,13.7,M,-34.9,M,,*64
$PYRTM,2024,122.418857801296,13.528505211435
$GPGGA,100308.00,3335.0744,N,11951.2861,W,1,09,0.8,13.9,M,-34.9,M,,*6C
$PYRTM,2024,122.418869370845,13.528516780984
$GPGGA,100309.00,3335.0753,N,11951.2886,W,1,09,0.8,14.0,M,-34.9,M,,*6C
$PYRTM,2024,122.418880945069,13.528528355208
$GPGGA,100310.00,3335.0763,N,11951.2913,W,1,09,0.8,14.1,M,-34.9,M,,*6B
$PYRTM,2024,122.418892519271,13.528539929410
$GPGGA,100311.00,3335.0770,N,11951.2940,W,1,09,0.8,14.0,M,-34.9,M,,*6F
$PYRTM,2024,122.418904093727,13.528551503866
$GPGGA,100312.00,3335.0776,N,11951.2967,W,1,09,0.8,14.0,M,-34.9,M,,*6F
$PYRTM,2024,122.418911502639,13.528558912778
$GPGGA,100313.00,3335.0782,N,11951.2992,W,1,09,0.8,14.2,M,-34.9,M,,*6D
$PYRTM,2024,122.418927238148,13.528574648287
$GPGGA,100314.00,3335.0789,N,11951.3018,W,1,09,0.8,14.0,M,-34.9,M,,*69
$PYRTM,2024,122.418934637859,13.528582047998
$GPGGA,100315.00,3335.0797,N,11951.3045,W,1,09,0.8,13.7,M,-34.9,M,,*6F
$PYRTM,2024,122.418953285116,13.528600695255
$GPGGA,100316.00,3335.0806,N,11951.3072,W,1,09,0.8,13.7,M,-34.9,M,,*6F
$PYRTM,2024,122.418961964942,13.528609375081
$GPGGA,100317.00,3335.0814,N,11951.3098,W,1,09,0.8,13.9,M,-34.9,M,,*67
$PYRTM,2024,122.418973539826,13.528620949965
$GPGGA,100318.00,3335.0820,N,11951.3125,W,1,09,0.8,14.3,M,-34.9,M,,*65
$PYRTM,2024,122.418985114329,13.528632524468
$GPGGA,100319.00,3335.0828,N,11951.3153,W,1,09,0.8,14.4,M,-34.9,M,,*6A
$PYRTM,2024,122.418996701377,13.528644111516
$GPGGA,100320.00,3335.0835,N,11951.3180,W,1,09,0.8,14.8,M,-34.9,M,,*6E
$PYRTM,2024,122.419008260937,13.528655671088
$GPGGA,100321.00,3335.0844,N,11951.3204,W,1,09,0.8,14.8,M,-34.9,M,,*66
$PYRTM,2024,122.419019837917,13.528667248067
$GPGGA,100322.00,3335.0854,N,11951.3231,W,1,09,0.8,14.7,M,-34.9,M,,*6D
$PYRTM,2024,122.419031409896,13.528678820046
$GPGGA,100323.00,3335.0862,N,11951.3260,W,1,09,0.8,14.0,M,-34.9,M,,*6A
$PYRTM,2024,122.419038805463,13.528686215613
$GPGGA,100324.00,3335.0868,N,11951.3288,W,1,09,0.8,13.6,M,-34.9,M,,*60
$PYRTM,2024,122.419054552303,13.528701962442
$GPGGA,100325.00,3335.0874,N,11951.3311,W,1,09,0.8,14.0,M,-34.9,M,,*6C
$PYRTM,2024,122.419066133356,13.528713543495
$GPGGA,100326.00,3335.0883,N,11951.3338,W,1,09,0.8,14.3,M,-34.9,M,,*6F
$PYRTM,2024,122.419077700833,13.528725110972
$GPGGA,100327.00,3335.0892,N,11951.3368,W,1,09,0.8,14.0,M,-34.9,M,,*68
$PYRTM,2024,122.419089283484,13.528736693623
$GPGGA,100328.00,3335.0897,N,11951.3394,W,1,09,0.8,14.1,M,-34.9,M,,*60
$PYRTM,2024,122.419100855475,13.528748265613
$GPGGA,100329.00,3335.0902,N,11951.3417,W,1,09,0.8,14.8,M,-34.9,M,,*69
$PYRTM,2024,122.419112424028,13.528759834167
$GPGGA,100330.00,3335.0910,N,11951.3444,W,1,09,0.8,14.8,M,-34.9,M,,*64
$PYRTM,2024,122.419123999039,13.528771409178
$GPGGA,100331.00,3335.0920,N,11951.3474,W,1,09,0.8,14.0,M,-34.9,M,,*6D
$PYRTM,2024,122.419135577685,13.528782987824
$GPGGA,100332.00,3335.0928,N,11951.3498,W,1,09,0.8,13.6,M,-34.9,M,,*65
$PYRTM,2024,122.419147150451,13.528794560602
$GPGGA,100333.00,3335.0934,N,11951.3520,W,1,09,0.8,14.3,M,-34.9,M,,*69
$PYRTM,2024,122.419158726331,13.528806136470
$GPGGA,100334.00,3335.0941,N,11951.3546,W,1,09,0.8,15.1,M,-34.9,M,,*6F
$PYRTM,2024,122.419166121875,13.528813532014
$GPGGA,100335.00,3335.0949,N,11951.3573,W,1,09,0.8,15.3,M,-34.9,M,,*62
$PYRTM,2024,122.419181887245,13.528829297384
$GPGGA,100336.00,3335.0959,N,11951.3601,W,1,09,0.8,14.0,M,-34.9,M,,*64
$PYRTM,2024,122.419193442060,13.528840852199
$GPGGA,100337.00,3335.0965,N,11951.3629,W,1,09,0.8,13.2,M,-34.9,M,,*65
$PYRTM,2024,122.419205021331,13.528852431470
$GPGGA,100338.00,3335.0971,N,11951.3654,W,1,09,0.8,13.0,M,-34.9,M,,*67
$PYRTM,2024,122.419216597222,13.528864007361
$GPGGA,100339.00,3335.0978,N,11951.3679,W,1,09,0.8,13.4,M,-34.9,M,,*64
$PYRTM,2024,122.419228170185,13.528875580324
$GPGGA,100340.00,3335.0986,N,11951.3703,W,1,09,0.8,14.0,M,-34.9,M,,*64
$PYRTM,2024,122.419239739618,13.528887149757
$GPGGA,100341.00,3335.0995,N,11951.3731,W,1,09,0.8,14.0,M,-34.9,M,,*66
$PYRTM,2024,122.419251313403,13.528898723542
$GPGGA,100342.00,3335.1001,N,11951.3759,W,1,09,0.8,13.8,M,-34.9,M,,*61
$PYRTM,2024,122.419262892928,13.528910303067
$GPGGA,100343.00,3335.1006,N,11951.3785,W,1,09,0.8,13.6,M,-34.9,M,,*68
$PYRTM,2024,122.419274461088,13.528921871227
$GPGGA,100344.00,3335.1012,N,11951.3810,W,1,09,0.8,13.9,M,-34.9,M,,*66
$PYRTM,2024,122.419286038681,13.528933448819
$GPGGA,100345.00,3335.1020,N,11951.3835,W,1,09,0.8,14.3,M,-34.9,M,,*6C
$PYRTM,2024,122.419293436227,13.528940846366
$GPGGA,100346.00,3335.1027,N,11951.3863,W,1,09,0.8,14.8,M,-34.9,M,,*60
$PYRTM,2024,122.419312069896,13.528959480035
$GPGGA,100347.00,3335.1033,N,11951.3889,W,1,09,0.8,15.4,M,-34.9,M,,*6D
$PYRTM,2024,122.419323656516,13.528971066655
$GPGGA,100348.00,3335.1040,N,11951.3916,W,1,09,0.8,15.6,M,-34.9,M,,*63
$PYRTM,2024,122.419335216875,13.528982627025
$GPGGA,100349.00,3335.1047,N,11951.3946,W,1,09,0.8,15.1,M,-34.9,M,,*67
$PYRTM,2024,122.419343914942,13.528991325081
$GPGGA,100350.00,3335.1054,N,11951.3972,W,1,09,0.8,14.6,M,-34.9,M,,*6C
$PYRTM,2024,122.419355479861,13.529002890000
$GPGGA,100351.00,3335.1062,N,11951.3997,W,1,09,0.8,14.8,M,-34.9,M,,*6D
$PYRTM,2024,122.419367062500,13.529014472639
$GPGGA,100352.00,3335.1072,N,11951.4023,W,1,09,0.8,15.0,M,-34.9,M,,*67
$PYRTM,2024,122.419378633623,13.529026043773
$GPGGA,100353.00,3335.1081,N,11951.4051,W,1,09,0.8,14.9,M,-34.9,M,,*67
$PYRTM,2024,122.419390207674,13.529037617813
$GPGGA,100354.00,3335.1087,N,11951.4077,W,1,09,0.8,15.0,M,-34.9,M,,*6A
$PYRTM,2024,122.419397615532,13.529045025671
$GPGGA,100355.00,3335.1093,N,11951.4102,W,1,09,0.8,15.5,M,-34.9,M,,*68
$PYRTM,2024,122.419413357373,13.529060767512
$GPGGA,100356.00,3335.1102,N,11951.4128,W,1,09,0.8,15.5,M,-34.9,M,,*6A
$PYRTM,2024,122.419420766667,13.529068176806
$GPGGA,100357.00,3335.1112,N,11951.4155,W,1,09,0.8,14.3,M,-34.9,M,,*67
$PYRTM,2024,122.419436504097,13.529083914236
$GPGGA,100358.00,3335.1118,N,11951.4184,W,1,09,0.8,12.7,M,-34.9,M,,*6C
$PYRTM,2024,122.419448073322,13.529095483461
$GPGGA,100359.00,3335.1124,N,11951.4210,W,1,09,0.8,12.8,M,-34.9,M,,*63
$PYRTM,2024,122.419459652083,13.529107062222
$GPGGA,100400.00,3335.1131,N,11951.4236,W,1,09,0.8,13.4,M,-34.9,M,,*65
$PYRTM,2024,122.419471228333,13.529118638472
$GPGGA,100401.00,3335.1142,N,11951.4263,W,1,09,0.8,13.9,M,-34.9,M,,*6D
$PYRTM,2024,122.419482803542,13.529130213692
$GPGGA,100402.00,3335.1153,N,11951.4290,W,1,09,0.8,14.4,M,-34.9,M,,*68
$PYRTM,2024,122.419490196493,13.529137606632
$GPGGA,100403.00,3335.1160,N,11951.4317,W,1,09,0.8,14.3,M,-34.9,M,,*60
$PYRTM,2024,122.419505952766,13.529153362917
$GPGGA,100404.00,3335.1166,N,11951.4345,W,1,09,0.8,14.4,M,-34.9,M,,*61
$PYRTM,2024,122.419517523113,13.529164933252
$GPGGA,100405.00,3335.1173,N,11951.4373,W,1,09,0.8,14.1,M,-34.9,M,,*64
$PYRTM,2024,122.419524919838,13.529172329977
$GPGGA,100406.00,3335.1181,N,11951.4400,W,1,09,0.8,13.9,M,-34.9,M,,*66
$PYRTM,2024,122.419540667118,13.529188077269
$GPGGA,100407.00,3335.1191,N,11951.4426,W,1,09,0.8,14.0,M,-34.9,M,,*6C
$PYRTM,2024,122.419552245058,13.529199655197
$GPGGA,100408.00,3335.1201,N,11951.4453,W,1,09,0.8,14.2,M,-34.9,M,,*69
$PYRTM,2024,122.419559640220,13.529207050359
$GPGGA,100409.00,3335.1209,N,11951.4482,W,1,09,0.8,14.0,M,-34.9,M,,*6E
$PYRTM,2024,122.419575392870,13.529222803009
$GPGGA,100410.00,3335.1214,N,11951.4513,W,1,09,0.8,13.6,M,-34.9,M,,*62
$PYRTM,2024,122.419586967176,13.529234377326
$GPGGA,100411.00,3335.1220,N,11951.4543,W,1,09,0.8,12.9,M,-34.9,M,,*6F
$PYRTM,2024,122.419594362697,13.529241772836
$GPGGA,100412.00,3335.1229,N,11951.4570,W,1,09,0.8,13.1,M,-34.9,M,,*6C
$PYRTM,2024,122.419610109965,13.529257520104
$GPGGA,100413.00,3335.1239,N,11951.4594,W,1,09,0.8,13.8,M,-34.9,M,,*6F
$PYRTM,2024,122.419621717083,13.529269127222
$GPGGA,100414.00,3335.1248,N,11951.4618,W,1,09,0.8,15.0,M,-34.9,M,,*67
$PYRTM,2024,122.419629091852,13.529276501991
$GPGGA,100415.00,3335.1254,N,11951.4649,W,1,09,0.8,15.8,M,-34.9,M,,*67
$PYRTM,2024,122.419644844907,13.529292255046
$GPGGA,100416.00,3335.1261,N,11951.4682,W,1,09,0.8,14.7,M,-34.9,M,,*6B
$PYRTM,2024,122.419652248877,13.529299659016
$GPGGA,100417.00,3335.1269,N,11951.4707,W,1,09,0.8,13.6,M,-34.9,M,,*68
$PYRTM,2024,122.419670875556,13.529318285694
$GPGGA,100418.00,3335.1276,N,11951.4728,W,1,09,0.8,13.5,M,-34.9,M,,*67
$PYRTM,2024,122.419679561157,13.529326971296
$GPGGA,100419.00,3335.1285,N,11951.4753,W,1,09,0.8,13.8,M,-34.9,M,,*6B
$PYRTM,2024,122.419691146123,13.529338556273
$GPGGA,100420.00,3335.1293,N,11951.4782,W,1,09,0.8,13.7,M,-34.9,M,,*65
$PYRTM,2024,122.419698541412,13.529345951551
$GPGGA,100421.00,3335.1300,N,11951.4812,W,1,09,0.8,12.8,M,-34.9,M,,*67
$PYRTM,2024,122.419714290567,13.529361700706
$GPGGA,100422.00,3335.1307,N,11951.4839,W,1,09,0.8,13.1,M,-34.9,M,,*62
$PYRTM,2024,122.419725857523,13.529373267662
$GPGGA,100423.00,3335.1314,N,11951.4862,W,1,09,0.8,13.4,M,-34.9,M,,*6A
$PYRTM,2024,122.419733252708,13.529380662847
$GPGGA,100424.00,3335.1322,N,11951.4885,W,1,09,0.8,14.0,M,-34.9,M,,*62
$PYRTM,2024,122.419744941447,13.529392351586
$GPGGA,100425.00,3335.1331,N,11951.4915,W,1,09,0.8,13.8,M,-34.9,M,,*66
$PYRTM,2024,122.419760578773,13.529407988912
$GPGGA,100426.00,3335.1339,N,11951.4942,W,1,09,0.8,13.9,M,-34.9,M,,*6E
$PYRTM,2024,122.419772153542,13.529419563669
$GPGGA,100427.00,3335.1346,N,11951.4963,W,1,09,0.8,14.4,M,-34.9,M,,*6E
$PYRTM,2024,122.419783727604,13.529431137743
$GPGGA,100428.00,3335.1355,N,11951.4986,W,1,09,0.8,14.7,M,-34.9,M,,*6B
$PYRTM,2024,122.419795303322,13.529442713461
$GPGGA,100429.00,3335.1365,N,11951.5013,W,1,09,0.8,14.3,M,-34.9,M,,*69
$PYRTM,2024,122.419806875718,13.529454285856
$GPGGA,100430.00,3335.1372,N,11951.5041,W,1,09,0.8,13.3,M,-34.9,M,,*67
$PYRTM,2024,122.419814282836,13.529461692975
$GPGGA,100431.00,3335.1376,N,11951.5066,W,1,09,0.8,13.2,M,-34.9,M,,*66
$PYRTM,2024,122.419830050648,13.529477460787
$GPGGA,100432.00,3335.1383,N,11951.5089,W,1,09,0.8,13.9,M,-34.9,M,,*65
$PYRTM,2024,122.419841598762,13.529489008900
$GPGGA,100433.00,3335.1393,N,11951.5113,W,1,09,0.8,14.7,M,-34.9,M,,*6E
$PYRTM,2024,122.419853637025,13.529501047164
$GPGGA,100434.00,3335.1402,N,11951.5139,W,1,09,0.8,14.9,M,-34.9,M,,*60
$PYRTM,2024,122.419864746968,13.529512157106
$GPGGA,100435.00,3335.1408,N,11951.5168,W,1,09,0.8,14.8,M,-34.9,M,,*6E
$PYRTM,2024,122.419876321817,13.529523731956
$GPGGA,100436.00,3335.1414,N,11951.5196,W,1,09,0.8,14.3,M,-34.9,M,,*6A
$PYRTM,2024,122.419883729664,13.529531139803
$GPGGA,100437.00,3335.1420,N,11951.5222,W,1,09,0.8,14.1,M,-34.9,M,,*62
$PYRTM,2024,122.419899469838,13.529546879977
$GPGGA,100438.00,3335.1427,N,11951.5247,W,1,09,0.8,14.3,M,-34.9,M,,*6B
$PYRTM,2024,122.419911043414,13.529558453553
$GPGGA,100439.00,3335.1435,N,11951.5273,W,1,09,0.8,14.6,M,-34.9,M,,*6B
$PYRTM,2024,122.419922617025,13.529570027164
$GPGGA,100440.00,3335.1444,N,11951.5300,W,1,09,0.8,14.8,M,-34.9,M,,*68
$PYRTM,2024,122.419930023333,13.529577433472
$GPGGA,100441.00,3335.1453,N,11951.5328,W,1,09,0.8,14.6,M,-34.9,M,,*6B
$PYRTM,2024,122.419945773669,13.529593183808
$GPGGA,100442.00,3335.1458,N,11951.5357,W,1,09,0.8,14.5,M,-34.9,M,,*68
$PYRTM,2024,122.419953172812,13.529600582963
$GPGGA,100443.00,3335.1464,N,11951.5382,W,1,09,0.8,14.7,M,-34.9,M,,*6C
$PYRTM,2024,122.419968913368,13.529616323507
$GPGGA,100444.00,3335.1472,N,11951.5407,W,1,09,0.8,15.2,M,-34.9,M,,*62
$PYRTM,2024,122.419980490069,13.529627900208
$GPGGA,100445.00,3335.1483,N,11951.5435,W,1,09,0.8,15.2,M,-34.9,M,,*6C
$PYRTM,2024,122.419992077454,13.529639487593
$GPGGA,100446.00,3335.1491,N,11951.5462,W,1,09,0.8,15.0,M,-34.9,M,,*6C
$PYRTM,2024,122.420003632315,13.529651042454
$GPGGA,100447.00,3335.1497,N,11951.5487,W,1,09,0.8,15.3,M,-34.9,M,,*63
$PYRTM,2024,122.420011031042,13.529658441192
$GPGGA,100448.00,3335.1503,N,11951.5513,W,1,09,0.8,15.7,M,-34.9,M,,*68
$PYRTM,2024,122.420029678669,13.529677088808
$GPGGA,100449.00,3335.1511,N,11951.5541,W,1,09,0.8,15.3,M,-34.9,M,,*69
$PYRTM,2024,122.420038359190,13.529685769329
$GPGGA,100450.00,3335.1520,N,11951.5569,W,1,09,0.8,14.8,M,-34.9,M,,*63
$PYRTM,2024,122.420049932731,13.529697342870
$GPGGA,100451.00,3335.1528,N,11951.5594,W,1,09,0.8,14.8,M,-34.9,M,,*68
$PYRTM,2024,122.420061516794,13.529708926933
$GPGGA,100452.00,3335.1536,N,11951.5619,W,1,09,0.8,15.2,M,-34.9,M,,*69
$PYRTM,2024,122.420073082025,13.529720492164
$GPGGA,100453.00,3335.1542,N,11951.5647,W,1,09,0.8,15.4,M,-34.9,M,,*66
$PYRTM,2024,122.420084655718,13.529732065856
$GPGGA,100454.00,3335.1550,N,11951.5676,W,1,09,0.8,15.5,M,-34.9,M,,*61
$PYRTM,2024,122.420096230336,13.529743640475
$GPGGA,100455.00,3335.1557,N,11951.5702,W,1,09,0.8,15.8,M,-34.9,M,,*68
$PYRTM,2024,122.420107803681,13.529755213831
$GPGGA,100456.00,3335.1566,N,11951.5727,W,1,09,0.8,15.9,M,-34.9,M,,*6F
$PYRTM,2024,122.420119378796,13.529766788935
$GPGGA,100457.00,3335.1574,N,11951.5755,W,1,09,0.8,15.7,M,-34.9,M,,*66
$PYRTM,2024,122.420130951817,13.529778361956
$GPGGA,100458.00,3335.1582,N,11951.5784,W,1,09,0.8,15.2,M,-34.9,M,,*69
$PYRTM,2024,122.420142521065,13.529789931215
$GPGGA,100459.00,3335.1589,N,11951.5812,W,1,09,0.8,14.6,M,-34.9,M,,*66
$PYRTM,2024,122.420154100324,13.529801510463
$GPGGA,100500.00,3335.1596,N,11951.5838,W,1,09,0.8,15.0,M,-34.9,M,,*6A
$PYRTM,2024,122.420165674433,13.529813084572
$GPGGA,100501.00,3335.1606,N,11951.5865,W,1,09,0.8,15.0,M,-34.9,M,,*69
$PYRTM,2024,122.420177255741,13.529824665880
$GPGGA,100502.00,3335.1615,N,11951.5893,W,1,09,0.8,14.9,M,-34.9,M,,*69
$PYRTM,2024,122.420184650521,13.529832060660
$GPGGA,100503.00,3335.1622,N,11951.5920,W,1,09,0.8,14.6,M,-34.9,M,,*6A
$PYRTM,2024,122.420200397083,13.529847807222
$GPGGA,100504.00,3335.1630,N,11951.5947,W,1,09,0.8,14.5,M,-34.9,M,,*6C
$PYRTM,2024,122.420207804097,13.529855214236
$GPGGA,100505.00,3335.1638,N,11951.5976,W,1,09,0.8,14.0,M,-34.9,M,,*62
$PYRTM,2024,122.420223545405,13.529870955556
$GPGGA,100506.00,3335.1646,N,11951.6004,W,1,09,0.8,13.4,M,-34.9,M,,*64
$PYRTM,2024,122.420235114954,13.529882525104
$GPGGA,100507.00,3335.1653,N,11951.6030,W,1,09,0.8,14.1,M,-34.9,M,,*64
$PYRTM,2024,122.420242514595,13.529889924734
$GPGGA,100508.00,3335.1661,N,11951.6055,W,1,09,0.8,13.8,M,-34.9,M,,*67
$PYRTM,2024,122.420258266736,13.529905676875
$GPGGA,100509.00,3335.1670,N,11951.6083,W,1,09,0.8,13.7,M,-34.9,M,,*62
$PYRTM,2024,122.420269840845,13.529917250984
$GPGGA,100510.00,3335.1677,N,11951.6112,W,1,09,0.8,13.3,M,-34.9,M,,*60
$PYRTM,2024,122.420277250498,13.529924660648
$GPGGA,100511.00,3335.1683,N,11951.6137,W,1,09,0.8,13.5,M,-34.9,M,,*6B
$PYRTM,2024,122.420293015127,13.529940425266
$GPGGA,100512.00,3335.1691,N,11951.6161,W,1,09,0.8,14.0,M,-34.9,M,,*6A
$PYRTM,2024,122.420304563785,13.529951973924
$GPGGA,100513.00,3335.1702,N,11951.6188,W,1,09,0.8,14.0,M,-34.9,M,,*67
$PYRTM,2024,122.420316138113,13.529963548264
$GPGGA,100514.00,3335.1710,N,11951.6216,W,1,09,0.8,13.4,M,-34.9,M,,*64
$PYRTM,2024,122.420327712326,13.529975122465
$GPGGA,100515.00,3335.1715,N,11951.6241,W,1,09,0.8,13.3,M,-34.9,M,,*65
$PYRTM,2024,122.420339298090,13.529986708229
$GPGGA,100516.00,3335.1722,N,11951.6268,W,1,09,0.8,13.1,M,-34.9,M,,*6B
$PYRTM,2024,122.420346689282,13.529994099421
$GPGGA,100517.00,3335.1731,N,11951.6294,W,1,09,0.8,13.4,M,-34.9,M,,*6E
$PYRTM,2024,122.420358371725,13.530005781863
$GPGGA,100518.00,3335.1740,N,11951.6318,W,1,09,0.8,13.7,M,-34.9,M,,*61
$PYRTM,2024,122.420369945891,13.530017356030
$GPGGA,100519.00,3335.1750,N,11951.6345,W,1,09,0.8,13.6,M,-34.9,M,,*68
$PYRTM,2024,122.420388477778,13.530035887917
$GPGGA,100520.00,3335.1759,N,11951.6375,W,1,09,0.8,13.0,M,-34.9,M,,*6E
$PYRTM,2024,122.420397157106,13.530044567245
$GPGGA,100521.00,3335.1764,N,11951.6401,W,1,09,0.8,13.0,M,-34.9,M,,*65
$PYRTM,2024,122.420408738727,13.530056148866
$GPGGA,100522.00,3335.1770,N,11951.6421,W,1,09,0.8,14.1,M,-34.9,M,,*67
$PYRTM,2024,122.420420306285,13.530067716424
$GPGGA,100523.00,3335.1781,N,11951.6445,W,1,09,0.8,14.6,M,-34.9,M,,*6D
$PYRTM,2024,122.420431879097,13.530079289236
$GPGGA,100524.00,3335.1791,N,11951.6474,W,1,09,0.8,13.8,M,-34.9,M,,*60
$PYRTM,2024,122.420443455231,13.530090865370
$GPGGA,100525.00,3335.1795,N,11951.6501,W,1,09,0.8,12.9,M,-34.9,M,,*66
$PYRTM,2024,122.420450848252,13.530098258391
$GPGGA,100526.00,3335.1799,N,11951.6523,W,1,09,0.8,13.3,M,-34.9,M,,*62
$PYRTM,2024,122.420466597292,13.530114007431
$GPGGA,100527.00,3335.1807,N,11951.6546,W,1,09,0.8,14.2,M,-34.9,M,,*6E
$PYRTM,2024,122.420478175509,13.530125585648
$GPGGA,100528.00,3335.1818,N,11951.6574,W,1,09,0.8,13.5,M,-34.9,M,,*6E
$PYRTM,2024,122.420489749514,13.530137159653
$GPGGA,100529.00,3335.1825,N,11951.6602,W,1,09,0.8,13.0,M,-34.9,M,,*66
$PYRTM,2024,122.420497145058,13.530144555197
$GPGGA,100530.00,3335.1829,N,11951.6625,W,1,09,0.8,13.4,M,-34.9,M,,*63
$PYRTM,2024,122.420512897593,13.530160307731
$GPGGA,100531.00,3335.1834,N,11951.6649,W,1,09,0.8,14.3,M,-34.9,M,,*64
$PYRTM,2024,122.420524472014,13.530171882153
$GPGGA,100532.00,3335.1841,N,11951.6675,W,1,09,0.8,14.5,M,-34.9,M,,*6C
$PYRTM,2024,122.420531879514,13.530179289653
$GPGGA,100533.00,3335.1849,N,11951.6702,W,1,09,0.8,13.8,M,-34.9,M,,*6E
$PYRTM,2024,122.420547631574,13.530195041713
$GPGGA,100534.00,3335.1856,N,11951.6728,W,1,09,0.8,13.1,M,-34.9,M,,*66
$PYRTM,2024,122.420559195035,13.530206605174
$GPGGA,100535.00,3335.1862,N,11951.6749,W,1,09,0.8,13.6,M,-34.9,M,,*60
$PYRTM,2024,122.420570776806,13.530218186944
$GPGGA,100536.00,3335.1868,N,11951.6771,W,1,09,0.8,14.5,M,-34.9,M,,*66
$PYRTM,2024,122.420582337558,13.530229747697
$GPGGA,100537.00,3335.1876,N,11951.6798,W,1,09,0.8,14.5,M,-34.9,M,,*6F
$PYRTM,2024,122.420593924664,13.530241334803
$GPGGA,100538.00,3335.1884,N,11951.6828,W,1,09,0.8,13.5,M,-34.9,M,,*6E
$PYRTM,2024,122.420605491736,13.530252901887
$GPGGA,100539.00,3335.1888,N,11951.6854,W,1,09,0.8,12.9,M,-34.9,M,,*65
$PYRTM,2024,122.420617065162,13.530264475301
$GPGGA,100540.00,3335.1893,N,11951.6874,W,1,09,0.8,13.7,M,-34.9,M,,*6C
$PYRTM,2024,122.420624483519,13.530271893657
$GPGGA,100541.00,3335.1901,N,11951.6895,W,1,09,0.8,14.8,M,-34.9,M,,*60
$PYRTM,2024,122.420640213194,13.530287623333
$GPGGA,100542.00,3335.1911,N,11951.6921,W,1,09,0.8,15.0,M,-34.9,M,,*65
$PYRTM,2024,122.420651787905,13.530299198044
$GPGGA,100543.00,3335.1918,N,11951.6949,W,1,09,0.8,14.4,M,-34.9,M,,*66
$PYRTM,2024,122.420663373345,13.530310783484
$GPGGA,100544.00,3335.1922,N,11951.6974,W,1,09,0.8,13.9,M,-34.9,M,,*6C
$PYRTM,2024,122.420674932315,13.530322342454
$GPGGA,100545.00,3335.1927,N,11951.6997,W,1,09,0.8,14.4,M,-34.9,M,,*6F
$PYRTM,2024,122.420686510544,13.530333920694
$GPGGA,100546.00,3335.1935,N,11951.7020,W,1,09,0.8,14.3,M,-34.9,M,,*6C
$PYRTM,2024,122.420698085440,13.530345495579
$GPGGA,100547.00,3335.1945,N,11951.7045,W,1,09,0.8,14.3,M,-34.9,M,,*69
$PYRTM,2024,122.420709667859,13.530357077998
$GPGGA,100548.00,3335.1952,N,11951.7072,W,1,09,0.8,14.3,M,-34.9,M,,*64
$PYRTM,2024,122.420721232176,13.530368642315
$GPGGA,100549.00,3335.1957,N,11951.7098,W,1,09,0.8,14.4,M,-34.9,M,,*63
$PYRTM,2024,122.420728626377,13.530376036516
$GPGGA,100550.00,3335.1964,N,11951.7122,W,1,09,0.8,14.6,M,-34.9,M,,*69
$PYRTM,2024,122.420747274248,13.530394684387
$GPGGA,100551.00,3335.1972,N,11951.7146,W,1,09,0.8,14.0,M,-34.9,M,,*6B
$PYRTM,2024,122.420755976238,13.530403386377
$GPGGA,100552.00,3335.1981,N,11951.7173,W,1,09,0.8,13.4,M,-34.9,M,,*61
$PYRTM,2024,122.420767529537,13.530414939676
$GPGGA,100553.00,3335.1990,N,11951.7198,W,1,09,0.8,12.5,M,-34.9,M,,*65
$PYRTM,2024,122.420779103148,13.530426513287
$GPGGA,100554.00,3335.1997,N,11951.7221,W,1,09,0.8,12.8,M,-34.9,M,,*69
$PYRTM,2024,122.420790677708,13.530438087847
$GPGGA,100555.00,3335.2004,N,11951.7247,W,1,09,0.8,13.0,M,-34.9,M,,*61
$PYRTM,2024,122.420802251736,13.530449661887
$GPGGA,100556.00,3335.2011,N,11951.7277,W,1,09,0.8,12.9,M,-34.9,M,,*6D
$PYRTM,2024,122.420813820903,13.530461231042
$GPGGA,100557.00,3335.2018,N,11951.7303,W,1,09,0.8,13.3,M,-34.9,M,,*6C
$PYRTM,2024,122.420825398981,13.530472809120
$GPGGA,100558.00,3335.2025,N,11951.7322,W,1,09,0.8,14.3,M,-34.9,M,,*69
$PYRTM,2024,122.420836973657,13.530484383796
$GPGGA,100559.00,3335.2032,N,11951.7344,W,1,09,0.8,14.8,M,-34.9,M,,*65
$PYRTM,2024,122.420848546968,13.530495957106
$GPGGA,100600.00,3335.2041,N,11951.7372,W,1,09,0.8,14.0,M,-34.9,M,,*63
$PYRTM,2024,122.420860121840,13.530507531991
$GPGGA,100601.00,3335.2047,N,11951.7400,W,1,09,0.8,13.0,M,-34.9,M,,*61
$PYRTM,2024,122.420867521586,13.530514931725
$GPGGA,100602.00,3335.2053,N,11951.7421,W,1,09,0.8,13.8,M,-34.9,M,,*6C
$PYRTM,2024,122.420883271262,13.530530681400
$GPGGA,100603.00,3335.2061,N,11951.7443,W,1,09,0.8,14.3,M,-34.9,M,,*64
$PYRTM,2024,122.420894852905,13.530542263044
$GPGGA,100604.00,3335.2069,N,11951.7468,W,1,09,0.8,13.8,M,-34.9,M,,*6E
$PYRTM,2024,122.420906414641,13.530553824780
$GPGGA,100605.00,3335.2078,N,11951.7498,W,1,09,0.8,12.7,M,-34.9,M,,*6E
$PYRTM,2024,122.420917999711,13.530565409850
$GPGGA,100606.00,3335.2083,N,11951.7527,W,1,09,0.8,12.0,M,-34.9,M,,*6B
$PYRTM,2024,122.420929561563,13.530576971701
$GPGGA,100607.00,3335.2087,N,11951.7549,W,1,09,0.8,12.5,M,-34.9,M,,*63
$PYRTM,2024,122.420941148310,13.530588558449
$GPGGA,100608.00,3335.2095,N,11951.7570,W,1,09,0.8,13.8,M,-34.9,M,,*69
$PYRTM,2024,122.420952715336,13.530600125475
$GPGGA,100609.00,3335.2105,N,11951.7594,W,1,09,0.8,14.6,M,-34.9,M,,*63
$PYRTM,2024,122.420964287963,13.530611698102
$GPGGA,100610.00,3335.2114,N,11951.7623,W,1,09,0.8,14.0,M,-34.9,M,,*62
$PYRTM,2024,122.420971697049,13.530619107187
$GPGGA,100611.00,3335.2118,N,11951.7654,W,1,09,0.8,12.9,M,-34.9,M,,*60
$PYRTM,2024,122.420987436921,13.530634847060
$GPGGA,100612.00,3335.2120,N,11951.7679,W,1,09,0.8,12.8,M,-34.9,M,,*66
$PYRTM,2024,122.420999014178,13.530646424317
$GPGGA,100613.00,3335.2129,N,11951.7697,W,1,09,0.8,13.3,M,-34.9,M,,*64
$PYRTM,2024,122.421006420104,13.530653830243
$GPGGA,100614.00,3335.2143,N,11951.7716,W,1,09,0.8,13.5,M,-34.9,M,,*61
$PYRTM,2024,122.421022161840,13.530669571979
$GPGGA,100615.00,3335.2155,N,11951.7745,W,1,09,0.8,13.0,M,-34.9,M,,*64
$PYRTM,2024,122.421033721597,13.530681131736
$GPGGA,100616.00,3335.2157,N,11951.7773,W,1,09,0.8,12.4,M,-34.9,M,,*65
$PYRTM,2024,122.421045307535,13.530692717674
$GPGGA,100617.00,3335.2158,N,11951.7793,W,1,09,0.8,12.9,M,-34.9,M,,*68
$PYRTM,2024,122.421056870058,13.530704280197
$GPGGA,100618.00,3335.2166,N,11951.7810,W,1,09,0.8,14.2,M,-34.9,M,,*63
$PYRTM,2024,122.421068456632,13.530715866771
$GPGGA,100619.00,3335.2178,N,11951.7834,W,1,09,0.8,14.0,M,-34.9,M,,*69
$PYRTM,2024,122.421080019398,13.530727429537
$GPGGA,100620.00,3335.2187,N,11951.7860,W,1,09,0.8,12.7,M,-34.9,M,,*63
$PYRTM,2024,122.421087425972,13.530734836111
$GPGGA,100621.00,3335.2190,N,11951.7885,W,1,09,0.8,12.0,M,-34.9,M,,*68
$PYRTM,2024,122.421106072083,13.530753482222
$GPGGA,100622.00,3335.2193,N,11951.7908,W,1,09,0.8,12.6,M,-34.9,M,,*6A
$PYRTM,2024,122.421114748519,13.530762158657
$GPGGA,100623.00,3335.2199,N,11951.7930,W,1,09,0.8,13.1,M,-34.9,M,,*6C
$PYRTM,2024,122.421126315787,13.530773725926
$GPGGA,100624.00,3335.2208,N,11951.7952,W,1,09,0.8,14.3,M,-34.9,M,,*61
$PYRTM,2024,122.421137901551,13.530785311690
$GPGGA,100625.00,3335.2216,N,11951.7975,W,1,09,0.8,14.7,M,-34.9,M,,*6E
$PYRTM,2024,122.421149462072,13.530796872211
$GPGGA,100626.00,3335.2222,N,11951.8004,W,1,09,0.8,14.2,M,-34.9,M,,*6F
$PYRTM,2024,122.421161051354,13.530808461493
$GPGGA,100627.00,3335.2226,N,11951.8030,W,1,09,0.8,12.8,M,-34.9,M,,*61
$PYRTM,2024,122.421172610405,13.530820020544
$GPGGA,100628.00,3335.2229,N,11951.8050,W,1,09,0.8,13.2,M,-34.9,M,,*6C
$PYRTM,2024,122.421180018356,13.530827428495
$GPGGA,100629.00,3335.2236,N,11951.8070,W,1,09,0.8,14.2,M,-34.9,M,,*66
$PYRTM,2024,122.421195771887,13.530843182025
$GPGGA,100630.00,3335.2245,N,11951.8094,W,1,09,0.8,14.7,M,-34.9,M,,*65
$PYRTM,2024,122.421207360023,13.530854770162
$GPGGA,100631.00,3335.2253,N,11951.8117,W,1,09,0.8,15.0,M,-34.9,M,,*6F
$PYRTM,2024,122.421218912211,13.530866322350
$GPGGA,100632.00,3335.2260,N,11951.8141,W,1,09,0.8,14.8,M,-34.9,M,,*66
$PYRTM,2024,122.421230494479,13.530877904618
$GPGGA,100633.00,3335.2266,N,11951.8168,W,1,09,0.8,13.5,M,-34.9,M,,*60
$PYRTM,2024,122.421242054491,13.530889464630
$GPGGA,100634.00,3335.2272,N,11951.8193,W,1,09,0.8,12.7,M,-34.9,M,,*65
$PYRTM,2024,122.421253642269,13.530901052407
$GPGGA,100635.00,3335.2280,N,11951.8214,W,1,09,0.8,13.3,M,-34.9,M,,*60
$PYRTM,2024,122.421265202986,13.530912613125
$GPGGA,100636.00,3335.2289,N,11951.8236,W,1,09,0.8,13.3,M,-34.9,M,,*6A
$PYRTM,2024,122.421272611690,13.530920021829
$GPGGA,100637.00,3335.2296,N,11951.8264,W,1,09,0.8,12.8,M,-34.9,M,,*68
$PYRTM,2024,122.421284301412,13.530931711551
$GPGGA,100638.00,3335.2302,N,11951.8291,W,1,09,0.8,12.0,M,-34.9,M,,*69
$PYRTM,2024,122.421299936667,13.530947346817
$GPGGA,100639.00,3335.2306,N,11951.8315,W,1,09,0.8,12.2,M,-34.9,M,,*63
$PYRTM,2024,122.421311503333,13.530958913472
$GPGGA,100640.00,3335.2312,N,11951.8334,W,1,09,0.8,13.1,M,-34.9,M,,*69
$PYRTM,2024,122.421323089942,13.530970500081
$GPGGA,100641.00,3335.2321,N,11951.8358,W,1,09,0.8,13.5,M,-34.9,M,,*66
$PYRTM,2024,122.421334650116,13.530982060255
$GPGGA,100642.00,3335.2329,N,11951.8387,W,1,09,0.8,13.1,M,-34.9,M,,*6B
$PYRTM,2024,122.421342057199,13.530989467338
$GPGGA,100643.00,3335.2335,N,11951.8412,W,1,09,0.8,12.5,M,-34.9,M,,*69
$PYRTM,2024,122.421357798889,13.531005209016
$GPGGA,100644.00,3335.2339,N,11951.8433,W,1,09,0.8,13.3,M,-34.9,M,,*66
$PYRTM,2024,122.421369383449,13.531016793588
$GPGGA,100645.00,3335.2346,N,11951.8454,W,1,09,0.8,13.9,M,-34.9,M,,*64
$PYRTM,2024,122.421380944745,13.531028354884
$GPGGA,100646.00,3335.2355,N,11951.8480,W,1,09,0.8,13.8,M,-34.9,M,,*6D
$PYRTM,2024,122.421392527315,13.531039937454
$GPGGA,100647.00,3335.2363,N,11951.8507,W,1,09,0.8,13.2,M,-34.9,M,,*6D
$PYRTM,2024,122.421404093565,13.531051503704
$GPGGA,100648.00,3335.2369,N,11951.8532,W,1,09,0.8,13.0,M,-34.9,M,,*6C
$PYRTM,2024,122.421415681678,13.531063091817
$GPGGA,100649.00,3335.2373,N,11951.8555,W,1,09,0.8,13.2,M,-34.9,M,,*65
$PYRTM,2024,122.421423074815,13.531070484954
$GPGGA,100650.00,3335.2379,N,11951.8578,W,1,09,0.8,13.8,M,-34.9,M,,*62
$PYRTM,2024,122.421438908877,13.531086319016
$GPGGA,100651.00,3335.2388,N,11951.8603,W,1,09,0.8,13.8,M,-34.9,M,,*62
$PYRTM,2024,122.421446223090,13.531093633229
$GPGGA,100652.00,3335.2396,N,11951.8631,W,1,09,0.8,13.3,M,-34.9,M,,*64
$PYRTM,2024,122.421464870370,13.531112280509
$GPGGA,100653.00,3335.2401,N,11951.8658,W,1,09,0.8,12.6,M,-34.9,M,,*67
$PYRTM,2024,122.421473537824,13.531120947963
$GPGGA,100654.00,3335.2407,N,11951.8680,W,1,09,0.8,13.6,M,-34.9,M,,*62
$PYRTM,2024,122.421485126343,13.531132536481
$GPGGA,100655.00,3335.2416,N,11951.8704,W,1,09,0.8,13.9,M,-34.9,M,,*61
$PYRTM,2024,122.421492538056,13.531139948194
$GPGGA,100656.00,3335.2427,N,11951.8729,W,1,09,0.8,13.8,M,-34.9,M,,*6E
$PYRTM,2024,122.421508268762,13.531155678900
$GPGGA,100657.00,3335.2434,N,11951.8753,W,1,09,0.8,13.7,M,-34.9,M,,*6F
$PYRTM,2024,122.421519836007,13.531167246146
$GPGGA,100658.00,3335.2440,N,11951.8777,W,1,09,0.8,14.1,M,-34.9,M,,*64
$PYRTM,2024,122.421531424942,13.531178835081
$GPGGA,100659.00,3335.2445,N,11951.8803,W,1,09,0.8,13.6,M,-34.9,M,,*6C
$PYRTM,2024,122.421542984167,13.531190394306
$GPGGA,100700.00,3335.2454,N,11951.8830,W,1,09,0.8,11.8,M,-34.9,M,,*6D
$PYRTM,2024,122.421554565116,13.531201975255
$GPGGA,100701.00,3335.2464,N,11951.8855,W,1,09,0.8,11.2,M,-34.9,M,,*66
$PYRTM,2024,122.421566132303,13.531213542454
$GPGGA,100702.00,3335.2470,N,11951.8880,W,1,09,0.8,11.2,M,-34.9,M,,*68
$PYRTM,2024,122.421577719063,13.531225129201
$GPGGA,100703.00,3335.2476,N,11951.8907,W,1,09,0.8,11.5,M,-34.9,M,,*66
$PYRTM,2024,122.421585113750,13.531232523889
$GPGGA,100704.00,3335.2483,N,11951.8933,W,1,09,0.8,11.9,M,-34.9,M,,*60
$PYRTM,2024,122.421600870752,13.531248280891
$GPGGA,100705.00,3335.2493,N,11951.8959,W,1,09,0.8,11.9,M,-34.9,M,,*6C
$PYRTM,2024,122.421612430660,13.531259840799
$GPGGA,100706.00,3335.2503,N,11951.8985,W,1,09,0.8,11.9,M,-34.9,M,,*66
$PYRTM,2024,122.421624030417,13.531271440556
$GPGGA,100707.00,3335.2510,N,11951.9008,W,1,09,0.8,12.5,M,-34.9,M,,*67
$PYRTM,2024,122.421635576470,13.531282986609
$GPGGA,100708.00,3335.2515,N,11951.9032,W,1,09,0.8,13.2,M,-34.9,M,,*62
$PYRTM,2024,122.421647166632,13.531294576782
$GPGGA,100709.00,3335.2523,N,11951.9059,W,1,09,0.8,13.0,M,-34.9,M,,*69
$PYRTM,2024,122.421658725278,13.531306135417
$GPGGA,100710.00,3335.2532,N,11951.9087,W,1,09,0.8,11.9,M,-34.9,M,,*69
$PYRTM,2024,122.421666134120,13.531313544259
$GPGGA,100711.00,3335.2541,N,11951.9113,W,1,09,0.8,11.2,M,-34.9,M,,*6B
$PYRTM,2024,122.421681873414,13.531329283553
$GPGGA,100712.00,3335.2548,N,11951.9136,W,1,09,0.8,11.6,M,-34.9,M,,*62
$PYRTM,2024,122.421693454363,13.531340864502
$GPGGA,100713.00,3335.2553,N,11951.9162,W,1,09,0.8,12.5,M,-34.9,M,,*68
$PYRTM,2024,122.421700871343,13.531348281481
$GPGGA,100714.00,3335.2559,N,11951.9190,W,1,09,0.8,13.1,M,-34.9,M,,*6D
$PYRTM,2024,122.421716602940,13.531364013090
$GPGGA,100715.00,3335.2567,N,11951.9217,W,1,09,0.8,13.2,M,-34.9,M,,*6E
$PYRTM,2024,122.421728171343,13.531375581481
$GPGGA,100716.00,3335.2574,N,11951.9244,W,1,09,0.8,12.9,M,-34.9,M,,*63
$PYRTM,2024,122.421739756181,13.531387166319
$GPGGA,100717.00,3335.2580,N,11951.9270,W,1,09,0.8,12.7,M,-34.9,M,,*60
$PYRTM,2024,122.421751317836,13.531398727975
$GPGGA,100718.00,3335.2585,N,11951.9295,W,1,09,0.8,13.1,M,-34.9,M,,*66
$PYRTM,2024,122.421758725868,13.531406136007
$GPGGA,100719.00,3335.2593,N,11951.9321,W,1,09,0.8,13.4,M,-34.9,M,,*6B
$PYRTM,2024,122.421774465174,13.531421875313
$GPGGA,100720.00,3335.2603,N,11951.9348,W,1,09,0.8,13.5,M,-34.9,M,,*65
$PYRTM,2024,122.421786057199,13.531433467338
$GPGGA,100721.00,3335.2611,N,11951.9373,W,1,09,0.8,13.4,M,-34.9,M,,*6E
$PYRTM,2024,122.421797615324,13.531445025463
$GPGGA,100722.00,3335.2617,N,11951.9402,W,1,09,0.8,13.2,M,-34.9,M,,*6C
$PYRTM,2024,122.421805021563,13.531452431701
$GPGGA,100723.00,3335.2622,N,11951.9432,W,1,09,0.8,12.5,M,-34.9,M,,*6E
$PYRTM,2024,122.421823669919,13.531471080058
$GPGGA,100724.00,3335.2630,N,11951.9456,W,1,09,0.8,13.3,M,-34.9,M,,*6F
$PYRTM,2024,122.421835242280,13.531482652419
$GPGGA,100725.00,3335.2640,N,11951.9478,W,1,09,0.8,14.3,M,-34.9,M,,*62
$PYRTM,2024,122.421846823970,13.531494234109
$GPGGA,100726.00,3335.2650,N,11951.9503,W,1,09,0.8,14.6,M,-34.9,M,,*68
$PYRTM,2024,122.421855497905,13.531502908044
$GPGGA,100727.00,3335.2657,N,11951.9534,W,1,09,0.8,14.0,M,-34.9,M,,*6C
$PYRTM,2024,122.421867059155,13.531514469294
$GPGGA,100728.00,3335.2661,N,11951.9561,W,1,09,0.8,13.8,M,-34.9,M,,*69
$PYRTM,2024,122.421874467465,13.531521877604
$GPGGA,100729.00,3335.2666,N,11951.9583,W,1,09,0.8,14.7,M,-34.9,M,,*6B
$PYRTM,2024,122.421890207546,13.531537617685
$GPGGA,100730.00,3335.2676,N,11951.9606,W,1,09,0.8,15.9,M,-34.9,M,,*63
$PYRTM,2024,122.421897614502,13.531545024641
$GPGGA,100731.00,3335.2687,N,11951.9633,W,1,09,0.8,15.3,M,-34.9,M,,*60
$PYRTM,2024,122.421909306053,13.531556716192
$GPGGA,100732.00,3335.2696,N,11951.9661,W,1,09,0.8,14.3,M,-34.9,M,,*65
$PYRTM,2024,122.421924942257,13.531572352396
$GPGGA,100733.00,3335.2699,N,11951.9687,W,1,09,0.8,13.9,M,-34.9,M,,*6E
$PYRTM,2024,122.421932350532,13.531579760671
$GPGGA,100734.00,3335.2705,N,11951.9713,W,1,09,0.8,13.9,M,-34.9,M,,*61
$PYRTM,2024,122.421944040312,13.531591450451
$GPGGA,100735.00,3335.2713,N,11951.9740,W,1,09,0.8,13.9,M,-34.9,M,,*61
$PYRTM,2024,122.421959652951,13.531607063090
$GPGGA,100736.00,3335.2720,N,11951.9765,W,1,09,0.8,14.4,M,-34.9,M,,*6F
$PYRTM,2024,122.421971234491,13.531618644630
$GPGGA,100737.00,3335.2727,N,11951.9789,W,1,09,0.8,14.8,M,-34.9,M,,*67
$PYRTM,2024,122.421978634039,13.531626044178
$GPGGA,100738.00,3335.2736,N,11951.9818,W,1,09,0.8,14.0,M,-34.9,M,,*67
$PYRTM,2024,122.421994390370,13.531641800521
$GPGGA,100739.00,3335.2742,N,11951.9845,W,1,09,0.8,13.4,M,-34.9,M,,*6E
$PYRTM,2024,122.422005950498,13.531653360648
$GPGGA,100740.00,3335.2748,N,11951.9868,W,1,09,0.8,13.8,M,-34.9,M,,*69
$PYRTM,2024,122.422017530683,13.531664940822
$GPGGA,100741.00,3335.2757,N,11951.9892,W,1,09,0.8,14.0,M,-34.9,M,,*6C
$PYRTM,2024,122.422029096782,13.531676506921
$GPGGA,100742.00,3335.2766,N,11951.9919,W,1,09,0.8,14.1,M,-34.9,M,,*6E
$PYRTM,2024,122.422040687060,13.531688097211
$GPGGA,100743.00,3335.2774,N,11951.9947,W,1,09,0.8,12.8,M,-34.9,M,,*68
$PYRTM,2024,122.422052245231,13.531699655370
$GPGGA,100744.00,3335.2781,N,11951.9972,W,1,09,0.8,12.7,M,-34.9,M,,*6C
$PYRTM,2024,122.422063829155,13.531711239294
$GPGGA,100745.00,3335.2788,N,11951.9997,W,1,09,0.8,12.7,M,-34.9,M,,*6F
$PYRTM,2024,122.422075393634,13.531722803773
$GPGGA,100746.00,3335.2798,N,11952.0024,W,1,09,0.8,12.6,M,-34.9,M,,*67
$PYRTM,2024,122.422086977928,13.531734388079
$GPGGA,100747.00,3335.2807,N,11952.0051,W,1,09,0.8,12.4,M,-34.9,M,,*6F
$PYRTM,2024,122.422098543391,13.531745953530
$GPGGA,100748.00,3335.2814,N,11952.0077,W,1,09,0.8,12.5,M,-34.9,M,,*67
$PYRTM,2024,122.422105949884,13.531753360035
$GPGGA,100749.00,3335.2819,N,11952.0104,W,1,09,0.8,12.5,M,-34.9,M,,*6E
$PYRTM,2024,122.422121694120,13.531769104259
$GPGGA,100750.00,3335.2826,N,11952.0132,W,1,09,0.8,12.5,M,-34.9,M,,*6F
$PYRTM,2024,122.422133277037,13.531780687188
$GPGGA,100751.00,3335.2835,N,11952.0158,W,1,09,0.8,12.3,M,-34.9,M,,*66
$PYRTM,2024,122.422144838356,13.531792248495
$GPGGA,100752.00,3335.2844,N,11952.0184,W,1,09,0.8,12.1,M,-34.9,M,,*60
$PYRTM,2024,122.422156420637,13.531803830775
$GPGGA,100753.00,3335.2850,N,11952.0209,W,1,09,0.8,12.6,M,-34.9,M,,*65
$PYRTM,2024,122.422163835231,13.531811245370
$GPGGA,100754.00,3335.2856,N,11952.0235,W,1,09,0.8,13.2,M,-34.9,M,,*6E
$PYRTM,2024,122.422182467153,13.531829877292
$GPGGA,100755.00,3335.2864,N,11952.0265,W,1,09,0.8,12.4,M,-34.9,M,,*6C
$PYRTM,2024,122.422191134306,13.531838544444
$GPGGA,100756.00,3335.2873,N,11952.0294,W,1,09,0.8,12.2,M,-34.9,M,,*61
$PYRTM,2024,122.422198542199,13.531845952338
$GPGGA,100757.00,3335.2880,N,11952.0316,W,1,09,0.8,13.1,M,-34.9,M,,*65
$PYRTM,2024,122.422214283958,13.531861694109
$GPGGA,100758.00,3335.2888,N,11952.0338,W,1,09,0.8,14.3,M,-34.9,M,,*6B
$PYRTM,2024,122.422221691146,13.531869101285
$GPGGA,100759.00,3335.2896,N,11952.0366,W,1,09,0.8,14.3,M,-34.9,M,,*6E
$PYRTM,2024,122.422237432951,13.531884843090
$GPGGA,100800.00,3335.2903,N,11952.0395,W,1,09,0.8,13.9,M,-34.9,M,,*61
$PYRTM,2024,122.422249013160,13.531896423310
$GPGGA,100801.00,3335.2908,N,11952.0420,W,1,09,0.8,13.8,M,-34.9,M,,*63
$PYRTM,2024,122.422256415058,13.531903825208
$GPGGA,100802.00,3335.2915,N,11952.0443,W,1,09,0.8,14.0,M,-34.9,M,,*66
$PYRTM,2024,122.422272163183,13.531919573322
$GPGGA,100803.00,3335.2924,N,11952.0469,W,1,09,0.8,13.8,M,-34.9,M,,*62
$PYRTM,2024,122.422283728287,13.531931138437
$GPGGA,100804.00,3335.2932,N,11952.0497,W,1,09,0.8,13.5,M,-34.9,M,,*6E
$PYRTM,2024,122.422295320012,13.531942730150
$GPGGA,100805.00,3335.2939,N,11952.0524,W,1,09,0.8,13.1,M,-34.9,M,,*69
$PYRTM,2024,122.422306875706,13.531954285856
$GPGGA,100806.00,3335.2947,N,11952.0551,W,1,09,0.8,12.9,M,-34.9,M,,*68
$PYRTM,2024,122.422314284086,13.531961694225
$GPGGA,100807.00,3335.2954,N,11952.0575,W,1,09,0.8,13.6,M,-34.9,M,,*63
$PYRTM,2024,122.422330025231,13.531977435370
$GPGGA,100808.00,3335.2963,N,11952.0599,W,1,09,0.8,14.2,M,-34.9,M,,*69
$PYRTM,2024,122.422341614850,13.531989024988
$GPGGA,100809.00,3335.2973,N,11952.0627,W,1,09,0.8,14.2,M,-34.9,M,,*6F
$PYRTM,2024,122.422349008160,13.531996418299
$GPGGA,100810.00,3335.2981,N,11952.0655,W,1,09,0.8,13.8,M,-34.9,M,,*62
$PYRTM,2024,122.422364761030,13.532012171169
$GPGGA,100811.00,3335.2987,N,11952.0681,W,1,09,0.8,13.8,M,-34.9,M,,*6C
$PYRTM,2024,122.422376321701,13.532023731840
$GPGGA,100812.00,3335.2992,N,11952.0706,W,1,09,0.8,14.0,M,-34.9,M,,*6A
$PYRTM,2024,122.422387905104,13.532035315243
$GPGGA,100813.00,3335.2999,N,11952.0733,W,1,09,0.8,14.0,M,-34.9,M,,*66
$PYRTM,2024,122.422399468889,13.532046879028
$GPGGA,100814.00,3335.3009,N,11952.0759,W,1,09,0.8,13.9,M,-34.9,M,,*62
$PYRTM,2024,122.422411056192,13.532058466331
$GPGGA,100815.00,3335.3021,N,11952.0787,W,1,09,0.8,13.6,M,-34.9,M,,*65
$PYRTM,2024,122.422422620694,13.532070030833
$GPGGA,100816.00,3335.3028,N,11952.0814,W,1,09,0.8,13.7,M,-34.9,M,,*6B
$PYRTM,2024,122.422430025706,13.532077435845
$GPGGA,100817.00,3335.3030,N,11952.0840,W,1,09,0.8,14.5,M,-34.9,M,,*67
$PYRTM,2024,122.422445765926,13.532093176065
$GPGGA,100818.00,3335.3035,N,11952.0866,W,1,09,0.8,15.1,M,-34.9,M,,*6C
$PYRTM,2024,122.422453174236,13.532100584375
$GPGGA,100819.00,3335.3046,N,11952.0894,W,1,09,0.8,14.9,M,-34.9,M,,*6D
$PYRTM,2024,122.422468916366,13.532116326505
$GPGGA,100820.00,3335.3057,N,11952.0917,W,1,09,0.8,14.8,M,-34.9,M,,*6C
$PYRTM,2024,122.422480497477,13.532127907616
$GPGGA,100821.00,3335.3064,N,11952.0939,W,1,09,0.8,15.1,M,-34.9,M,,*69
$PYRTM,2024,122.422487908669,13.532135318808
$GPGGA,100822.00,3335.3070,N,11952.0967,W,1,09,0.8,14.8,M,-34.9,M,,*6C
$PYRTM,2024,122.422503650787,13.532151060926
$GPGGA,100823.00,3335.3075,N,11952.0999,W,1,09,0.8,13.8,M,-34.9,M,,*6E
$PYRTM,2024,122.422515212477,13.532162622616
$GPGGA,100824.00,3335.3082,N,11952.1025,W,1,09,0.8,13.3,M,-34.9,M,,*65
$PYRTM,2024,122.422522618854,13.532170028993
$GPGGA,100825.00,3335.3089,N,11952.1046,W,1,09,0.8,14.1,M,-34.9,M,,*6F
$PYRTM,2024,122.422541279190,13.532188689329
$GPGGA,100826.00,3335.3097,N,11952.1068,W,1,09,0.8,15.7,M,-34.9,M,,*68
$PYRTM,2024,122.422549948171,13.532197358310
$GPGGA,100827.00,3335.3105,N,11952.1094,W,1,09,0.8,16.3,M,-34.9,M,,*67
$PYRTM,2024,122.422561507350,13.532208917488
$GPGGA,100828.00,3335.3112,N,11952.1125,W,1,09,0.8,15.2,M,-34.9,M,,*67
$PYRTM,2024,122.422568914282,13.532216324421
$GPGGA,100829.00,3335.3116,N,11952.1154,W,1,09,0.8,13.3,M,-34.9,M,,*63
$PYRTM,2024,122.422584656181,13.532232066319
$GPGGA,100830.00,3335.3121,N,11952.1177,W,1,09,0.8,12.6,M,-34.9,M,,*6A
$PYRTM,2024,122.422596242558,13.532243652697
$GPGGA,100831.00,3335.3129,N,11952.1198,W,1,09,0.8,13.0,M,-34.9,M,,*65
$PYRTM,2024,122.422607803322,13.532255213461
$GPGGA,100832.00,3335.3140,N,11952.1221,W,1,09,0.8,14.0,M,-34.9,M,,*6F
$PYRTM,2024,122.422619391400,13.532266801539
$GPGGA,100833.00,3335.3149,N,11952.1250,W,1,09,0.8,14.5,M,-34.9,M,,*64
$PYRTM,2024,122.422626798600,13.532274208738
$GPGGA,100834.00,3335.3153,N,11952.1280,W,1,09,0.8,14.1,M,-34.9,M,,*61
$PYRTM,2024,122.422642540185,13.532289950324
$GPGGA,100835.00,3335.3156,N,11952.1306,W,1,09,0.8,14.2,M,-34.9,M,,*69
