$PYRTM,2024,126.000003640718,17.109651050856
$GPGGA,235959.00,3447.6904,N,12139.0218,W,1,10,0.8,12.1,M,-33.4,M,,*61
$PYRTM,2024,126.000015229491,17.109662639641
$GPGGA,000000.00,3447.6886,N,12139.0202,W,1,10,0.8,11.9,M,-33.4,M,,*6B
$PYRTM,2024,126.000026788322,17.109674198461
$GPGGA,000001.00,3447.6868,N,12139.0187,W,1,10,0.8,11.5,M,-33.4,M,,*68
$PYRTM,2024,126.000038379722,17.109685789873
$GPGGA,000002.00,3447.6852,N,12139.0171,W,1,10,0.8,11.1,M,-33.4,M,,*6F
$PYRTM,2024,126.000045769248,17.109693179387
$GPGGA,000003.00,3447.6836,N,12139.0154,W,1,10,0.8,10.7,M,-33.4,M,,*6C
$PYRTM,2024,126.000061524225,17.109708934363
$GPGGA,000004.00,3447.6820,N,12139.0137,W,1,10,0.8,10.6,M,-33.4,M,,*68
$PYRTM,2024,126.000073084630,17.109720494769
$GPGGA,000005.00,3447.6803,N,12139.0123,W,1,10,0.8,10.9,M,-33.4,M,,*62
$PYRTM,2024,126.000084671296,17.109732081435
$GPGGA,000006.00,3447.6784,N,12139.0107,W,1,10,0.8,11.3,M,-33.4,M,,*6C
$PYRTM,2024,126.000096232106,17.109743642245
$GPGGA,000007.00,3447.6766,N,12139.0090,W,1,10,0.8,11.6,M,-33.4,M,,*6B
$PYRTM,2024,126.000107818819,17.109755228958
$GPGGA,000008.00,3447.6749,N,12139.0071,W,1,10,0.8,11.9,M,-33.4,M,,*69
$PYRTM,2024,126.000115227199,17.109762637350
$GPGGA,000009.00,3447.6733,N,12139.0051,W,1,10,0.8,12.2,M,-33.4,M,,*6F
$PYRTM,2024,126.000133855023,17.109781265162
$GPGGA,000010.00,3447.6716,N,12139.0032,W,1,10,0.8,12.3,M,-33.4,M,,*64
$PYRTM,2024,126.000142528900,17.109789939039
$GPGGA,000011.00,3447.6698,N,12139.0015,W,1,10,0.8,12.0,M,-33.4,M,,*64
$PYRTM,2024,126.000149935509,17.109797345660
$GPGGA,000012.00,3447.6679,N,12138.9999,W,1,10,0.8,11.8,M,-33.4,M,,*66
$PYRTM,2024,126.000165675984,17.109813086123
$GPGGA,000013.00,3447.6663,N,12138.9982,W,1,10,0.8,11.7,M,-33.4,M,,*69
$PYRTM,2024,126.000177264456,17.109824674595
$GPGGA,000014.00,3447.6648,N,12138.9963,W,1,10,0.8,11.7,M,-33.4,M,,*68
$PYRTM,2024,126.000188826424,17.109836236563
$GPGGA,000015.00,3447.6633,N,12138.9945,W,1,10,0.8,11.6,M,-33.4,M,,*60
$PYRTM,2024,126.000200415579,17.109847825718
$GPGGA,000016.00,3447.6617,N,12138.9928,W,1,10,0.8,11.6,M,-33.4,M,,*6E
$PYRTM,2024,126.000211975544,17.109859385694
$GPGGA,000017.00,3447.6600,N,12138.9911,W,1,10,0.8,11.6,M,-33.4,M,,*63
$PYRTM,2024,126.000219382882,17.109866793021
$GPGGA,000018.00,3447.6583,N,12138.9893,W,1,10,0.8,11.7,M,-33.4,M,,*6E
$PYRTM,2024,126.000235130567,17.109882540706
$GPGGA,000019.00,3447.6567,N,12138.9874,W,1,10,0.8,11.9,M,-33.4,M,,*62
$PYRTM,2024,126.000246708125,17.109894118264
$GPGGA,000020.00,3447.6550,N,12138.9855,W,1,10,0.8,11.9,M,-33.4,M,,*6F
$PYRTM,2024,126.000258270845,17.109905680984
$GPGGA,000021.00,3447.6532,N,12138.9838,W,1,10,0.8,11.9,M,-33.4,M,,*61
$PYRTM,2024,126.000269856644,17.109917266782
$GPGGA,000022.00,3447.6514,N,12138.9822,W,1,10,0.8,12.0,M,-33.4,M,,*67
$PYRTM,2024,126.000281418773,17.109928828912
$GPGGA,000023.00,3447.6497,N,12138.9805,W,1,10,0.8,11.9,M,-33.4,M,,*63
$PYRTM,2024,126.000288827546,17.109936237685
$GPGGA,000024.00,3447.6482,N,12138.9786,W,1,10,0.8,11.7,M,-33.4,M,,*6A
$PYRTM,2024,126.000304567049,17.109951977187
$GPGGA,000025.00,3447.6468,N,12138.9766,W,1,10,0.8,11.4,M,-33.4,M,,*62
$PYRTM,2024,126.000316153692,17.109963563831
$GPGGA,000026.00,3447.6453,N,12138.9747,W,1,10,0.8,11.1,M,-33.4,M,,*6F
$PYRTM,2024,126.000327715347,17.109975125486
$GPGGA,000027.00,3447.6436,N,12138.9731,W,1,10,0.8,11.1,M,-33.4,M,,*6C
$PYRTM,2024,126.000339303252,17.109986713391
$GPGGA,000028.00,3447.6418,N,12138.9715,W,1,10,0.8,11.3,M,-33.4,M,,*6B
$PYRTM,2024,126.000350869444,17.109998279583
$GPGGA,000029.00,3447.6400,N,12138.9698,W,1,10,0.8,11.4,M,-33.4,M,,*60
$PYRTM,2024,126.000362465660,17.110009875799
$GPGGA,000030.00,3447.6384,N,12138.9678,W,1,10,0.8,11.7,M,-33.4,M,,*6E
$PYRTM,2024,126.000374010938,17.110021421076
$GPGGA,000031.00,3447.6369,N,12138.9656,W,1,10,0.8,12.2,M,-33.4,M,,*66
$PYRTM,2024,126.000385613229,17.110033023368
$GPGGA,000032.00,3447.6352,N,12138.9635,W,1,10,0.8,12.6,M,-33.4,M,,*6C
$PYRTM,2024,126.000392993843,17.110040403981
$GPGGA,000033.00,3447.6334,N,12138.9616,W,1,10,0.8,12.7,M,-33.4,M,,*6D
$PYRTM,2024,126.000408747581,17.110056157720
$GPGGA,000034.00,3447.6317,N,12138.9598,W,1,10,0.8,12.4,M,-33.4,M,,*6D
$PYRTM,2024,126.000416156678,17.110063566817
$GPGGA,000035.00,3447.6300,N,12138.9580,W,1,10,0.8,11.9,M,-33.4,M,,*6D
$PYRTM,2024,126.000431894664,17.110079304803
$GPGGA,000036.00,3447.6283,N,12138.9562,W,1,10,0.8,11.2,M,-33.4,M,,*63
$PYRTM,2024,126.000443456956,17.110090867106
$GPGGA,000037.00,3447.6268,N,12138.9544,W,1,10,0.8,10.8,M,-33.4,M,,*68
$PYRTM,2024,126.000455045428,17.110102455567
$GPGGA,000038.00,3447.6252,N,12138.9527,W,1,10,0.8,10.7,M,-33.4,M,,*64
$PYRTM,2024,126.000466604688,17.110114014838
$GPGGA,000039.00,3447.6236,N,12138.9509,W,1,10,0.8,11.0,M,-33.4,M,,*6D
$PYRTM,2024,126.000474011100,17.110121421238
$GPGGA,000040.00,3447.6221,N,12138.9492,W,1,10,0.8,11.4,M,-33.4,M,,*62
$PYRTM,2024,126.000492668449,17.110140078600
$GPGGA,000041.00,3447.6205,N,12138.9473,W,1,10,0.8,11.8,M,-33.4,M,,*66
$PYRTM,2024,126.000501339479,17.110148749618
$GPGGA,000042.00,3447.6189,N,12138.9454,W,1,10,0.8,12.2,M,-33.4,M,,*6E
$PYRTM,2024,126.000512902431,17.110160312581
$GPGGA,000043.00,3447.6174,N,12138.9434,W,1,10,0.8,12.3,M,-33.4,M,,*6A
$PYRTM,2024,126.000524491701,17.110171901840
$GPGGA,000044.00,3447.6157,N,12138.9415,W,1,10,0.8,12.2,M,-33.4,M,,*6E
$PYRTM,2024,126.000531885613,17.110179295764
$GPGGA,000045.00,3447.6140,N,12138.9397,W,1,10,0.8,12.0,M,-33.4,M,,*66
$PYRTM,2024,126.000547637442,17.110195047581
$GPGGA,000046.00,3447.6122,N,12138.9380,W,1,10,0.8,11.8,M,-33.4,M,,*6C
$PYRTM,2024,126.000559198576,17.110206608715
$GPGGA,000047.00,3447.6105,N,12138.9363,W,1,10,0.8,11.9,M,-33.4,M,,*64
$PYRTM,2024,126.000570784387,17.110218194525
$GPGGA,000048.00,3447.6089,N,12138.9344,W,1,10,0.8,12.0,M,-33.4,M,,*61
$PYRTM,2024,126.000582344942,17.110229755081
$GPGGA,000049.00,3447.6073,N,12138.9325,W,1,10,0.8,11.8,M,-33.4,M,,*69
$PYRTM,2024,126.000593928993,17.110241339132
$GPGGA,000050.00,3447.6059,N,12138.9305,W,1,10,0.8,11.7,M,-33.4,M,,*64
$PYRTM,2024,126.000605494699,17.110252904838
$GPGGA,000051.00,3447.6044,N,12138.9285,W,1,10,0.8,11.7,M,-33.4,M,,*60
$PYRTM,2024,126.000617083264,17.110264493403
$GPGGA,000052.00,3447.6029,N,12138.9265,W,1,10,0.8,11.8,M,-33.4,M,,*69
$PYRTM,2024,126.000628644444,17.110276054583
$GPGGA,000053.00,3447.6012,N,12138.9247,W,1,10,0.8,11.9,M,-33.4,M,,*61
$PYRTM,2024,126.000640231586,17.110287641725
$GPGGA,000054.00,3447.5996,N,12138.9229,W,1,10,0.8,12.1,M,-33.4,M,,*63
$PYRTM,2024,126.000647624919,17.110295035058
$GPGGA,000055.00,3447.5981,N,12138.9211,W,1,10,0.8,12.2,M,-33.4,M,,*6C
$PYRTM,2024,126.000663377905,17.110310788044
$GPGGA,000056.00,3447.5965,N,12138.9194,W,1,10,0.8,12.0,M,-33.4,M,,*69
$PYRTM,2024,126.000674939630,17.110322349769
$GPGGA,000057.00,3447.5947,N,12138.9176,W,1,10,0.8,11.7,M,-33.4,M,,*60
$PYRTM,2024,126.000682347442,17.110329757581
$GPGGA,000058.00,3447.5930,N,12138.9158,W,1,10,0.8,11.4,M,-33.4,M,,*60
$PYRTM,2024,126.000698088252,17.110345498391
$GPGGA,000059.00,3447.5917,N,12138.9138,W,1,10,0.8,11.6,M,-33.4,M,,*60
$PYRTM,2024,126.000709680556,17.110357090694
$GPGGA,000100.00,3447.5906,N,12138.9117,W,1,10,0.8,11.9,M,-33.4,M,,*6F
$PYRTM,2024,126.000721236319,17.110368646470
$GPGGA,000101.00,3447.5892,N,12138.9097,W,1,10,0.8,12.0,M,-33.4,M,,*61
$PYRTM,2024,126.000732822593,17.110380232731
$GPGGA,000102.00,3447.5875,N,12138.9081,W,1,10,0.8,11.8,M,-33.4,M,,*67
$PYRTM,2024,126.000740233704,17.110387643843
$GPGGA,000103.00,3447.5856,N,12138.9065,W,1,10,0.8,11.6,M,-33.4,M,,*63
$PYRTM,2024,126.000755971991,17.110403382141
$GPGGA,000104.00,3447.5840,N,12138.9048,W,1,10,0.8,11.6,M,-33.4,M,,*6C
$PYRTM,2024,126.000767533495,17.110414943634
$GPGGA,000105.00,3447.5826,N,12138.9027,W,1,10,0.8,11.7,M,-33.4,M,,*65
$PYRTM,2024,126.000779120440,17.110426530590
$GPGGA,000106.00,3447.5812,N,12138.9005,W,1,10,0.8,11.9,M,-33.4,M,,*6F
$PYRTM,2024,126.000790680752,17.110438090891
$GPGGA,000107.00,3447.5797,N,12138.8984,W,1,10,0.8,12.3,M,-33.4,M,,*64
$PYRTM,2024,126.000798088704,17.110445498843
$GPGGA,000108.00,3447.5781,N,12138.8964,W,1,10,0.8,12.4,M,-33.4,M,,*65
$PYRTM,2024,126.000813829086,17.110461239225
$GPGGA,000109.00,3447.5764,N,12138.8944,W,1,10,0.8,12.3,M,-33.4,M,,*6A
$PYRTM,2024,126.000825416863,17.110472827002
$GPGGA,000110.00,3447.5747,N,12138.8925,W,1,10,0.8,12.1,M,-33.4,M,,*66
$PYRTM,2024,126.000832811817,17.110480221956
$GPGGA,000111.00,3447.5731,N,12138.8907,W,1,10,0.8,11.8,M,-33.4,M,,*6C
$PYRTM,2024,126.000851452824,17.110498862963
$GPGGA,000112.00,3447.5717,N,12138.8890,W,1,10,0.8,11.7,M,-33.4,M,,*6B
$PYRTM,2024,126.000863032049,17.110510442187
$GPGGA,000113.00,3447.5704,N,12138.8872,W,1,10,0.8,11.5,M,-33.4,M,,*66
$PYRTM,2024,126.000874602442,17.110522012581
$GPGGA,000114.00,3447.5690,N,12138.8854,W,1,10,0.8,11.1,M,-33.4,M,,*6D
$PYRTM,2024,126.000883273507,17.110530683646
$GPGGA,000115.00,3447.5675,N,12138.8835,W,1,10,0.8,10.9,M,-33.4,M,,*69
$PYRTM,2024,126.000894861887,17.110542272037
$GPGGA,000116.00,3447.5660,N,12138.8815,W,1,10,0.8,11.2,M,-33.4,M,,*66
$PYRTM,2024,126.000906423669,17.110553833808
$GPGGA,000117.00,3447.5644,N,12138.8795,W,1,10,0.8,11.9,M,-33.4,M,,*6D
$PYRTM,2024,126.000918010231,17.110565420370
$GPGGA,000118.00,3447.5627,N,12138.8775,W,1,10,0.8,12.4,M,-33.4,M,,*67
$PYRTM,2024,126.000929569711,17.110576979850
$GPGGA,000119.00,3447.5608,N,12138.8756,W,1,10,0.8,12.5,M,-33.4,M,,*6B
$PYRTM,2024,126.000936978067,17.110584388206
$GPGGA,000120.00,3447.5591,N,12138.8736,W,1,10,0.8,12.5,M,-33.4,M,,*64
$PYRTM,2024,126.000952719745,17.110600129884
$GPGGA,000121.00,3447.5577,N,12138.8717,W,1,10,0.8,12.4,M,-33.4,M,,*6F
$PYRTM,2024,126.000964307188,17.110611717326
$GPGGA,000122.00,3447.5563,N,12138.8697,W,1,10,0.8,11.9,M,-33.4,M,,*6E
$PYRTM,2024,126.000975868067,17.110623278218
$GPGGA,000123.00,3447.5549,N,12138.8678,W,1,10,0.8,11.3,M,-33.4,M,,*6C
$PYRTM,2024,126.000987455116,17.110634865255
$GPGGA,000124.00,3447.5534,N,12138.8660,W,1,10,0.8,11.0,M,-33.4,M,,*6B
$PYRTM,2024,126.000999016389,17.110646426528
$GPGGA,000125.00,3447.5519,N,12138.8643,W,1,10,0.8,11.3,M,-33.4,M,,*67
$PYRTM,2024,126.001010602292,17.110658012431
$GPGGA,000126.00,3447.5503,N,12138.8626,W,1,10,0.8,11.8,M,-33.4,M,,*67
$PYRTM,2024,126.001022163970,17.110669574120
$GPGGA,000127.00,3447.5487,N,12138.8606,W,1,10,0.8,12.3,M,-33.4,M,,*61
$PYRTM,2024,126.001029572442,17.110676982593
$GPGGA,000128.00,3447.5470,N,12138.8587,W,1,10,0.8,12.6,M,-33.4,M,,*69
$PYRTM,2024,126.001045313877,17.110692724016
$GPGGA,000129.00,3447.5455,N,12138.8566,W,1,10,0.8,12.6,M,-33.4,M,,*60
$PYRTM,2024,126.001056904120,17.110704314271
$GPGGA,000130.00,3447.5441,N,12138.8544,W,1,10,0.8,12.6,M,-33.4,M,,*6D
$PYRTM,2024,126.001064293808,17.110711703947
$GPGGA,000131.00,3447.5427,N,12138.8522,W,1,10,0.8,12.4,M,-33.4,M,,*6E
$PYRTM,2024,126.001080047894,17.110727458032
$GPGGA,000132.00,3447.5412,N,12138.8503,W,1,10,0.8,12.0,M,-33.4,M,,*6C
$PYRTM,2024,126.001091608484,17.110739018623
$GPGGA,000133.00,3447.5397,N,12138.8486,W,1,10,0.8,11.7,M,-33.4,M,,*6F
$PYRTM,2024,126.001103195278,17.110750605417
$GPGGA,000134.00,3447.5382,N,12138.8468,W,1,10,0.8,11.5,M,-33.4,M,,*6E
$PYRTM,2024,126.001114755856,17.110762165995
$GPGGA,000135.00,3447.5368,N,12138.8449,W,1,10,0.8,11.3,M,-33.4,M,,*6E
$PYRTM,2024,126.001126345150,17.110773755301
$GPGGA,000136.00,3447.5355,N,12138.8430,W,1,10,0.8,11.3,M,-33.4,M,,*6D
$PYRTM,2024,126.001137905833,17.110785315972
$GPGGA,000137.00,3447.5340,N,12138.8412,W,1,10,0.8,11.3,M,-33.4,M,,*68
$PYRTM,2024,126.001149492153,17.110796902292
$GPGGA,000138.00,3447.5323,N,12138.8394,W,1,10,0.8,11.2,M,-33.4,M,,*6A
$PYRTM,2024,126.001161053785,17.110808463924
$GPGGA,000139.00,3447.5308,N,12138.8375,W,1,10,0.8,11.5,M,-33.4,M,,*6A
$PYRTM,2024,126.001172643032,17.110820053171
$GPGGA,000140.00,3447.5296,N,12138.8354,W,1,10,0.8,12.0,M,-33.4,M,,*67
$PYRTM,2024,126.001180035220,17.110827445359
$GPGGA,000141.00,3447.5283,N,12138.8332,W,1,10,0.8,12.2,M,-33.4,M,,*60
$PYRTM,2024,126.001191730938,17.110839141076
$GPGGA,000142.00,3447.5268,N,12138.8313,W,1,10,0.8,12.3,M,-33.4,M,,*64
$PYRTM,2024,126.001210255590,17.110857665729
$GPGGA,000143.00,3447.5252,N,12138.8296,W,1,10,0.8,12.1,M,-33.4,M,,*62
$PYRTM,2024,126.001218936921,17.110866347060
$GPGGA,000144.00,3447.5235,N,12138.8279,W,1,10,0.8,12.0,M,-33.4,M,,*64
$PYRTM,2024,126.001226346481,17.110873756620
$GPGGA,000145.00,3447.5221,N,12138.8258,W,1,10,0.8,11.9,M,-33.4,M,,*69
$PYRTM,2024,126.001242085347,17.110889495498
$GPGGA,000146.00,3447.5207,N,12138.8237,W,1,10,0.8,11.8,M,-33.4,M,,*66
$PYRTM,2024,126.001253647164,17.110901057303
$GPGGA,000147.00,3447.5192,N,12138.8216,W,1,10,0.8,11.8,M,-33.4,M,,*6B
$PYRTM,2024,126.001265234236,17.110912644375
$GPGGA,000148.00,3447.5177,N,12138.8197,W,1,10,0.8,12.0,M,-33.4,M,,*6E
$PYRTM,2024,126.001276794907,17.110924205046
$GPGGA,000149.00,3447.5163,N,12138.8177,W,1,10,0.8,12.2,M,-33.4,M,,*66
$PYRTM,2024,126.001288382002,17.110935792141
$GPGGA,000150.00,3447.5150,N,12138.8156,W,1,10,0.8,12.3,M,-33.4,M,,*6C
$PYRTM,2024,126.001295780660,17.110943190799
$GPGGA,000151.00,3447.5134,N,12138.8136,W,1,10,0.8,11.9,M,-33.4,M,,*60
$PYRTM,2024,126.001311530185,17.110958940336
$GPGGA,000152.00,3447.5119,N,12138.8116,W,1,10,0.8,11.5,M,-33.4,M,,*62
$PYRTM,2024,126.001323093056,17.110970503194
$GPGGA,000153.00,3447.5104,N,12138.8099,W,1,10,0.8,11.3,M,-33.4,M,,*6F
$PYRTM,2024,126.001330498750,17.110977908889
$GPGGA,000154.00,3447.5091,N,12138.8080,W,1,10,0.8,11.4,M,-33.4,M,,*6A
$PYRTM,2024,126.001346241366,17.110993651505
$GPGGA,000155.00,3447.5079,N,12138.8061,W,1,10,0.8,11.6,M,-33.4,M,,*60
$PYRTM,2024,126.001357829815,17.111005239954
$GPGGA,000156.00,3447.5064,N,12138.8042,W,1,10,0.8,11.7,M,-33.4,M,,*6F
$PYRTM,2024,126.001369387824,17.111016797963
$GPGGA,000157.00,3447.5048,N,12138.8024,W,1,10,0.8,11.8,M,-33.4,M,,*6F
$PYRTM,2024,126.001380979074,17.111028389213
$GPGGA,000158.00,3447.5033,N,12138.8004,W,1,10,0.8,11.8,M,-33.4,M,,*6E
$PYRTM,2024,126.001392536956,17.111039947095
$GPGGA,000159.00,3447.5020,N,12138.7982,W,1,10,0.8,11.8,M,-33.4,M,,*65
$PYRTM,2024,126.001404123889,17.111051534028
$GPGGA,000200.00,3447.5006,N,12138.7959,W,1,10,0.8,11.9,M,-33.4,M,,*69
$PYRTM,2024,126.001415684572,17.111063094711
$GPGGA,000201.00,3447.4992,N,12138.7937,W,1,10,0.8,12.3,M,-33.4,M,,*6C
$PYRTM,2024,126.001427272234,17.111074682373
$GPGGA,000202.00,3447.4976,N,12138.7916,W,1,10,0.8,12.4,M,-33.4,M,,*61
$PYRTM,2024,126.001438833021,17.111086243171
$GPGGA,000203.00,3447.4960,N,12138.7897,W,1,10,0.8,12.2,M,-33.4,M,,*69
$PYRTM,2024,126.001450422130,17.111097832280
$GPGGA,000204.00,3447.4944,N,12138.7879,W,1,10,0.8,11.8,M,-33.4,M,,*61
$PYRTM,2024,126.001461982014,17.111109392153
$GPGGA,000205.00,3447.4930,N,12138.7860,W,1,10,0.8,11.2,M,-33.4,M,,*61
$PYRTM,2024,126.001473569109,17.111120979248
$GPGGA,000206.00,3447.4917,N,12138.7841,W,1,10,0.8,10.9,M,-33.4,M,,*6E
$PYRTM,2024,126.001485131366,17.111132541505
$GPGGA,000207.00,3447.4902,N,12138.7823,W,1,10,0.8,10.8,M,-33.4,M,,*6E
$PYRTM,2024,126.001492537326,17.111139947477
$GPGGA,000208.00,3447.4888,N,12138.7804,W,1,10,0.8,11.0,M,-33.4,M,,*6E
$PYRTM,2024,126.001508277500,17.111155687639
$GPGGA,000209.00,3447.4874,N,12138.7785,W,1,10,0.8,11.3,M,-33.4,M,,*69
$PYRTM,2024,126.001519867639,17.111167277789
$GPGGA,000210.00,3447.4860,N,12138.7765,W,1,10,0.8,11.6,M,-33.4,M,,*6F
$PYRTM,2024,126.001527260197,17.111174670347
$GPGGA,000211.00,3447.4843,N,12138.7745,W,1,10,0.8,12.0,M,-33.4,M,,*68
$PYRTM,2024,126.001543015671,17.111190425810
$GPGGA,000212.00,3447.4826,N,12138.7724,W,1,10,0.8,12.3,M,-33.4,M,,*6C
$PYRTM,2024,126.001550409063,17.111197819213
$GPGGA,000213.00,3447.4809,N,12138.7702,W,1,10,0.8,12.4,M,-33.4,M,,*63
$PYRTM,2024,126.001569049502,17.111216459641
$GPGGA,000214.00,3447.4794,N,12138.7680,W,1,10,0.8,12.3,M,-33.4,M,,*63
$PYRTM,2024,126.001577722986,17.111225133125
$GPGGA,000215.00,3447.4778,N,12138.7661,W,1,10,0.8,12.0,M,-33.4,M,,*6C
$PYRTM,2024,126.001589310625,17.111236720764
$GPGGA,000216.00,3447.4761,N,12138.7644,W,1,10,0.8,11.5,M,-33.4,M,,*66
$PYRTM,2024,126.001596718692,17.111244128831
$GPGGA,000217.00,3447.4747,N,12138.7625,W,1,10,0.8,10.9,M,-33.4,M,,*69
$PYRTM,2024,126.001612458808,17.111259868947
$GPGGA,000218.00,3447.4734,N,12138.7605,W,1,10,0.8,10.5,M,-33.4,M,,*6C
$PYRTM,2024,126.001619852558,17.111267262697
$GPGGA,000219.00,3447.4722,N,12138.7587,W,1,10,0.8,10.3,M,-33.4,M,,*65
$PYRTM,2024,126.001635606331,17.111283016470
$GPGGA,000220.00,3447.4706,N,12138.7571,W,1,10,0.8,10.5,M,-33.4,M,,*66
$PYRTM,2024,126.001647166563,17.111294576701
$GPGGA,000221.00,3447.4689,N,12138.7554,W,1,10,0.8,11.0,M,-33.4,M,,*62
$PYRTM,2024,126.001658754595,17.111306164734
$GPGGA,000222.00,3447.4674,N,12138.7533,W,1,10,0.8,11.5,M,-33.4,M,,*67
$PYRTM,2024,126.001670316123,17.111317726262
$GPGGA,000223.00,3447.4660,N,12138.7509,W,1,10,0.8,12.1,M,-33.4,M,,*6D
$PYRTM,2024,126.001681902234,17.111329312373
$GPGGA,000224.00,3447.4644,N,12138.7486,W,1,10,0.8,12.5,M,-33.4,M,,*6E
$PYRTM,2024,126.001693463750,17.111340873889
$GPGGA,000225.00,3447.4625,N,12138.7465,W,1,10,0.8,12.6,M,-33.4,M,,*66
$PYRTM,2024,126.001705054491,17.111352464630
$GPGGA,000226.00,3447.4607,N,12138.7445,W,1,10,0.8,12.4,M,-33.4,M,,*65
$PYRTM,2024,126.001716612720,17.111364022859
$GPGGA,000227.00,3447.4592,N,12138.7423,W,1,10,0.8,12.0,M,-33.4,M,,*6F
$PYRTM,2024,126.001728199444,17.111375609583
$GPGGA,000228.00,3447.4580,N,12138.7402,W,1,10,0.8,11.3,M,-33.4,M,,*60
$PYRTM,2024,126.001735609942,17.111383020081
$GPGGA,000229.00,3447.4566,N,12138.7382,W,1,10,0.8,10.7,M,-33.4,M,,*63
$PYRTM,2024,126.001751348229,17.111398758380
$GPGGA,000230.00,3447.4552,N,12138.7364,W,1,10,0.8,10.4,M,-33.4,M,,*67
$PYRTM,2024,126.001762909201,17.111410319340
$GPGGA,000231.00,3447.4536,N,12138.7347,W,1,10,0.8,10.5,M,-33.4,M,,*64
$PYRTM,2024,126.001774497187,17.111421907338
$GPGGA,000232.00,3447.4521,N,12138.7330,W,1,10,0.8,10.9,M,-33.4,M,,*6D
$PYRTM,2024,126.001786056921,17.111433467060
$GPGGA,000233.00,3447.4506,N,12138.7309,W,1,10,0.8,11.2,M,-33.4,M,,*69
$PYRTM,2024,126.001797638935,17.111445049074
$GPGGA,000234.00,3447.4491,N,12138.7287,W,1,10,0.8,11.6,M,-33.4,M,,*62
$PYRTM,2024,126.001809205359,17.111456615498
$GPGGA,000235.00,3447.4476,N,12138.7264,W,1,10,0.8,12.1,M,-33.4,M,,*63
$PYRTM,2024,126.001820792037,17.111468202176
$GPGGA,000236.00,3447.4460,N,12138.7241,W,1,10,0.8,12.6,M,-33.4,M,,*67
$PYRTM,2024,126.001832353368,17.111479763507
$GPGGA,000237.00,3447.4443,N,12138.7220,W,1,10,0.8,12.4,M,-33.4,M,,*62
$PYRTM,2024,126.001843954537,17.111491364676
$GPGGA,000238.00,3447.4426,N,12138.7199,W,1,10,0.8,11.9,M,-33.4,M,,*61
$PYRTM,2024,126.001851335775,17.111498745914
$GPGGA,000239.00,3447.4412,N,12138.7178,W,1,10,0.8,11.4,M,-33.4,M,,*65
$PYRTM,2024,126.001867091123,17.111514501262
$GPGGA,000240.00,3447.4400,N,12138.7157,W,1,10,0.8,11.1,M,-33.4,M,,*60
$PYRTM,2024,126.001878651146,17.111526061285
$GPGGA,000241.00,3447.4386,N,12138.7138,W,1,10,0.8,10.8,M,-33.4,M,,*69
$PYRTM,2024,126.001890237604,17.111537647743
$GPGGA,000242.00,3447.4370,N,12138.7121,W,1,10,0.8,10.5,M,-33.4,M,,*66
$PYRTM,2024,126.001901798519,17.111549208657
$GPGGA,000243.00,3447.4354,N,12138.7103,W,1,10,0.8,10.6,M,-33.4,M,,*62
$PYRTM,2024,126.001909207558,17.111556617697
$GPGGA,000244.00,3447.4341,N,12138.7083,W,1,10,0.8,11.2,M,-33.4,M,,*6D
$PYRTM,2024,126.001927864630,17.111575274769
$GPGGA,000245.00,3447.4329,N,12138.7061,W,1,10,0.8,11.8,M,-33.4,M,,*64
$PYRTM,2024,126.001936529653,17.111583939792
$GPGGA,000246.00,3447.4314,N,12138.7040,W,1,10,0.8,11.9,M,-33.4,M,,*6B
$PYRTM,2024,126.001948095220,17.111595505359
$GPGGA,000247.00,3447.4295,N,12138.7021,W,1,10,0.8,11.7,M,-33.4,M,,*6B
$PYRTM,2024,126.001959683322,17.111607093461
$GPGGA,000248.00,3447.4278,N,12138.7002,W,1,10,0.8,11.5,M,-33.4,M,,*64
$PYRTM,2024,126.001967076204,17.111614486343
$GPGGA,000249.00,3447.4263,N,12138.6981,W,1,10,0.8,11.4,M,-33.4,M,,*6D
$PYRTM,2024,126.001982831100,17.111630241238
$GPGGA,000250.00,3447.4251,N,12138.6958,W,1,10,0.8,11.4,M,-33.4,M,,*60
$PYRTM,2024,126.001994392037,17.111641802187
$GPGGA,000251.00,3447.4237,N,12138.6936,W,1,10,0.8,11.4,M,-33.4,M,,*69
$PYRTM,2024,126.002005981111,17.111653391250
$GPGGA,000252.00,3447.4222,N,12138.6916,W,1,10,0.8,11.5,M,-33.4,M,,*6D
$PYRTM,2024,126.002017540625,17.111664950764
$GPGGA,000253.00,3447.4206,N,12138.6898,W,1,10,0.8,11.6,M,-33.4,M,,*6E
$PYRTM,2024,126.002029129757,17.111676539896
$GPGGA,000254.00,3447.4190,N,12138.6881,W,1,10,0.8,11.5,M,-33.4,M,,*6E
$PYRTM,2024,126.002040688542,17.111688098681
$GPGGA,000255.00,3447.4175,N,12138.6861,W,1,10,0.8,11.3,M,-33.4,M,,*6C
$PYRTM,2024,126.002052270058,17.111699680208
$GPGGA,000256.00,3447.4162,N,12138.6840,W,1,10,0.8,11.0,M,-33.4,M,,*69
$PYRTM,2024,126.002063837164,17.111711247315
$GPGGA,000257.00,3447.4148,N,12138.6820,W,1,10,0.8,10.9,M,-33.4,M,,*6E
$PYRTM,2024,126.002075424132,17.111722834271
$GPGGA,000258.00,3447.4133,N,12138.6800,W,1,10,0.8,11.0,M,-33.4,M,,*67
$PYRTM,2024,126.002082832153,17.111730242292
$GPGGA,000259.00,3447.4118,N,12138.6780,W,1,10,0.8,11.0,M,-33.4,M,,*68
$PYRTM,2024,126.002098571458,17.111745981597
$GPGGA,000300.00,3447.4104,N,12138.6760,W,1,10,0.8,11.1,M,-33.4,M,,*67
$PYRTM,2024,126.002110132465,17.111757542604
$GPGGA,000301.00,3447.4088,N,12138.6740,W,1,10,0.8,11.1,M,-33.4,M,,*61
$PYRTM,2024,126.002121721030,17.111769131169
$GPGGA,000302.00,3447.4072,N,12138.6721,W,1,10,0.8,11.0,M,-33.4,M,,*61
$PYRTM,2024,126.002133282222,17.111780692361
$GPGGA,000303.00,3447.4058,N,12138.6701,W,1,10,0.8,11.1,M,-33.4,M,,*6B
$PYRTM,2024,126.002144868785,17.111792278924
$GPGGA,000304.00,3447.4043,N,12138.6682,W,1,10,0.8,11.0,M,-33.4,M,,*6D
$PYRTM,2024,126.002156429896,17.111803840035
$GPGGA,000305.00,3447.4028,N,12138.6663,W,1,10,0.8,10.9,M,-33.4,M,,*66
$PYRTM,2024,126.002168015671,17.111815425810
$GPGGA,000306.00,3447.4014,N,12138.6644,W,1,10,0.8,11.1,M,-33.4,M,,*66
$PYRTM,2024,126.002179576817,17.111826986956
$GPGGA,000307.00,3447.3997,N,12138.6625,W,1,10,0.8,11.3,M,-33.4,M,,*67
$PYRTM,2024,126.002191178692,17.111838588843
$GPGGA,000308.00,3447.3981,N,12138.6605,W,1,10,0.8,11.6,M,-33.4,M,,*68
$PYRTM,2024,126.002202726042,17.111850136181
$GPGGA,000309.00,3447.3965,N,12138.6584,W,1,10,0.8,11.8,M,-33.4,M,,*67
$PYRTM,2024,126.002214326725,17.111861736863
$GPGGA,000310.00,3447.3951,N,12138.6562,W,1,10,0.8,11.9,M,-33.4,M,,*61
$PYRTM,2024,126.002225874942,17.111873285081
$GPGGA,000311.00,3447.3936,N,12138.6541,W,1,10,0.8,11.7,M,-33.4,M,,*6E
$PYRTM,2024,126.002237462234,17.111884872373
$GPGGA,000312.00,3447.3922,N,12138.6521,W,1,10,0.8,11.4,M,-33.4,M,,*6D
$PYRTM,2024,126.002249023495,17.111896433634
$GPGGA,000313.00,3447.3907,N,12138.6502,W,1,10,0.8,11.0,M,-33.4,M,,*6E
$PYRTM,2024,126.002260606053,17.111908016204
$GPGGA,000314.00,3447.3892,N,12138.6484,W,1,10,0.8,10.8,M,-33.4,M,,*62
$PYRTM,2024,126.002268019051,17.111915429190
$GPGGA,000315.00,3447.3877,N,12138.6465,W,1,10,0.8,10.7,M,-33.4,M,,*68
$PYRTM,2024,126.002286651030,17.111934061181
$GPGGA,000316.00,3447.3863,N,12138.6447,W,1,10,0.8,10.8,M,-33.4,M,,*61
$PYRTM,2024,126.002295319086,17.111942729236
$GPGGA,000317.00,3447.3847,N,12138.6427,W,1,10,0.8,10.9,M,-33.4,M,,*61
$PYRTM,2024,126.002306901956,17.111954312095
$GPGGA,000318.00,3447.3830,N,12138.6408,W,1,10,0.8,11.1,M,-33.4,M,,*6A
$PYRTM,2024,126.002318467014,17.111965877153
$GPGGA,000319.00,3447.3814,N,12138.6387,W,1,10,0.8,11.5,M,-33.4,M,,*69
$PYRTM,2024,126.002330057303,17.111977467442
$GPGGA,000320.00,3447.3800,N,12138.6363,W,1,10,0.8,11.7,M,-33.4,M,,*6E
$PYRTM,2024,126.002337449780,17.111984859919
$GPGGA,000321.00,3447.3786,N,12138.6339,W,1,10,0.8,11.9,M,-33.4,M,,*6F
$PYRTM,2024,126.002353205752,17.112000615891
$GPGGA,000322.00,3447.3772,N,12138.6317,W,1,10,0.8,11.6,M,-33.4,M,,*64
$PYRTM,2024,126.002364763854,17.112012173993
$GPGGA,000323.00,3447.3755,N,12138.6299,W,1,10,0.8,11.3,M,-33.4,M,,*62
$PYRTM,2024,126.002376351262,17.112023761400
$GPGGA,000324.00,3447.3739,N,12138.6281,W,1,10,0.8,11.1,M,-33.4,M,,*64
$PYRTM,2024,126.002387915162,17.112035325313
$GPGGA,000325.00,3447.3723,N,12138.6264,W,1,10,0.8,10.8,M,-33.4,M,,*6D
$PYRTM,2024,126.002399500058,17.112046910208
$GPGGA,000326.00,3447.3707,N,12138.6246,W,1,10,0.8,10.6,M,-33.4,M,,*66
$PYRTM,2024,126.002411060012,17.112058470150
$GPGGA,000327.00,3447.3692,N,12138.6228,W,1,10,0.8,10.5,M,-33.4,M,,*61
$PYRTM,2024,126.002422648542,17.112070058681
$GPGGA,000328.00,3447.3677,N,12138.6208,W,1,10,0.8,10.8,M,-33.4,M,,*6A
$PYRTM,2024,126.002434209549,17.112081619688
$GPGGA,000329.00,3447.3663,N,12138.6188,W,1,10,0.8,11.5,M,-33.4,M,,*69
$PYRTM,2024,126.002445796887,17.112093207025
$GPGGA,000330.00,3447.3648,N,12138.6167,W,1,10,0.8,11.8,M,-33.4,M,,*64
$PYRTM,2024,126.002453191030,17.112100601169
$GPGGA,000331.00,3447.3634,N,12138.6147,W,1,10,0.8,11.9,M,-33.4,M,,*6D
$PYRTM,2024,126.002468944178,17.112116354317
$GPGGA,000332.00,3447.3621,N,12138.6125,W,1,10,0.8,12.0,M,-33.4,M,,*64
$PYRTM,2024,126.002480507245,17.112127917384
$GPGGA,000333.00,3447.3609,N,12138.6104,W,1,10,0.8,11.8,M,-33.4,M,,*67
$PYRTM,2024,126.002492092731,17.112139502870
$GPGGA,000334.00,3447.3594,N,12138.6085,W,1,10,0.8,11.6,M,-33.4,M,,*61
$PYRTM,2024,126.002503653391,17.112151063530
$GPGGA,000335.00,3447.3580,N,12138.6066,W,1,10,0.8,11.8,M,-33.4,M,,*66
$PYRTM,2024,126.002511063843,17.112158473981
$GPGGA,000336.00,3447.3566,N,12138.6048,W,1,10,0.8,11.7,M,-33.4,M,,*6E
$PYRTM,2024,126.002526801238,17.112174211377
$GPGGA,000337.00,3447.3552,N,12138.6029,W,1,10,0.8,11.9,M,-33.4,M,,*61
$PYRTM,2024,126.002538391678,17.112185801817
$GPGGA,000338.00,3447.3537,N,12138.6010,W,1,10,0.8,11.8,M,-33.4,M,,*66
$PYRTM,2024,126.002549950220,17.112197360359
$GPGGA,000339.00,3447.3523,N,12138.5990,W,1,10,0.8,11.6,M,-33.4,M,,*6E
$PYRTM,2024,126.002561531632,17.112208941771
$GPGGA,000340.00,3447.3510,N,12138.5969,W,1,10,0.8,11.5,M,-33.4,M,,*65
$PYRTM,2024,126.002573099942,17.112220510081
$GPGGA,000341.00,3447.3496,N,12138.5949,W,1,10,0.8,11.4,M,-33.4,M,,*68
$PYRTM,2024,126.002584681435,17.112232091586
$GPGGA,000342.00,3447.3481,N,12138.5928,W,1,10,0.8,11.4,M,-33.4,M,,*6A
$PYRTM,2024,126.002596246944,17.112243657083
$GPGGA,000343.00,3447.3467,N,12138.5907,W,1,10,0.8,11.6,M,-33.4,M,,*6C
$PYRTM,2024,126.002607833970,17.112255244109
$GPGGA,000344.00,3447.3454,N,12138.5885,W,1,10,0.8,11.9,M,-33.4,M,,*6F
$PYRTM,2024,126.002619394977,17.112266805116
$GPGGA,000345.00,3447.3439,N,12138.5864,W,1,10,0.8,12.4,M,-33.4,M,,*64
$PYRTM,2024,126.002626803924,17.112274214063
$GPGGA,000346.00,3447.3423,N,12138.5844,W,1,10,0.8,12.2,M,-33.4,M,,*68
$PYRTM,2024,126.002645460486,17.112292870625
$GPGGA,000347.00,3447.3405,N,12138.5828,W,1,10,0.8,12.0,M,-33.4,M,,*65
$PYRTM,2024,126.002654123866,17.112301534005
$GPGGA,000348.00,3447.3389,N,12138.5811,W,1,10,0.8,11.7,M,-33.4,M,,*67
$PYRTM,2024,126.002665690694,17.112313100833
$GPGGA,000349.00,3447.3374,N,12138.5793,W,1,10,0.8,11.4,M,-33.4,M,,*62
$PYRTM,2024,126.002677291470,17.112324701609
$GPGGA,000350.00,3447.3361,N,12138.5773,W,1,10,0.8,11.0,M,-33.4,M,,*64
$PYRTM,2024,126.002688839259,17.112336249398
$GPGGA,000351.00,3447.3348,N,12138.5753,W,1,10,0.8,10.8,M,-33.4,M,,*65
$PYRTM,2024,126.002696248137,17.112343658264
$GPGGA,000352.00,3447.3335,N,12138.5734,W,1,10,0.8,10.8,M,-33.4,M,,*6D
$PYRTM,2024,126.002707936169,17.112355346308
$GPGGA,000353.00,3447.3321,N,12138.5715,W,1,10,0.8,11.0,M,-33.4,M,,*63
$PYRTM,2024,126.002723573831,17.112370983958
$GPGGA,000354.00,3447.3306,N,12138.5697,W,1,10,0.8,11.2,M,-33.4,M,,*68
$PYRTM,2024,126.002730984039,17.112378394178
$GPGGA,000355.00,3447.3289,N,12138.5679,W,1,10,0.8,11.5,M,-33.4,M,,*68
$PYRTM,2024,126.002746723264,17.112394133403
$GPGGA,000356.00,3447.3272,N,12138.5662,W,1,10,0.8,11.8,M,-33.4,M,,*68
$PYRTM,2024,126.002758285440,17.112405695579
$GPGGA,000357.00,3447.3256,N,12138.5644,W,1,10,0.8,12.0,M,-33.4,M,,*60
$PYRTM,2024,126.002769871539,17.112417281678
$GPGGA,000358.00,3447.3241,N,12138.5625,W,1,10,0.8,11.8,M,-33.4,M,,*65
$PYRTM,2024,126.002781432060,17.112428842199
$GPGGA,000359.00,3447.3225,N,12138.5606,W,1,10,0.8,11.4,M,-33.4,M,,*6B
$PYRTM,2024,126.002788841609,17.112436251748
$GPGGA,000400.00,3447.3210,N,12138.5587,W,1,10,0.8,11.3,M,-33.4,M,,*6B
$PYRTM,2024,126.002804581331,17.112451991470
$GPGGA,000401.00,3447.3196,N,12138.5568,W,1,10,0.8,11.4,M,-33.4,M,,*61
$PYRTM,2024,126.002816169051,17.112463579190
$GPGGA,000402.00,3447.3180,N,12138.5550,W,1,10,0.8,11.5,M,-33.4,M,,*6F
$PYRTM,2024,126.002827729687,17.112475139826
$GPGGA,000403.00,3447.3165,N,12138.5531,W,1,10,0.8,11.5,M,-33.4,M,,*62
$PYRTM,2024,126.002839312350,17.112486722488
$GPGGA,000404.00,3447.3150,N,12138.5513,W,1,10,0.8,11.5,M,-33.4,M,,*63
$PYRTM,2024,126.002846711100,17.112494121238
$GPGGA,000405.00,3447.3134,N,12138.5495,W,1,10,0.8,11.5,M,-33.4,M,,*6F
$PYRTM,2024,126.002862468056,17.112509878194
$GPGGA,000406.00,3447.3118,N,12138.5478,W,1,10,0.8,11.5,M,-33.4,M,,*61
$PYRTM,2024,126.002874026331,17.112521436470
$GPGGA,000407.00,3447.3101,N,12138.5461,W,1,10,0.8,11.2,M,-33.4,M,,*67
$PYRTM,2024,126.002885614005,17.112533024144
$GPGGA,000408.00,3447.3086,N,12138.5441,W,1,10,0.8,11.0,M,-33.4,M,,*66
$PYRTM,2024,126.002897173252,17.112544583391
$GPGGA,000409.00,3447.3071,N,12138.5422,W,1,10,0.8,11.1,M,-33.4,M,,*6B
$PYRTM,2024,126.002908762326,17.112556172465
$GPGGA,000410.00,3447.3056,N,12138.5403,W,1,10,0.8,11.2,M,-33.4,M,,*66
$PYRTM,2024,126.002920324792,17.112567734931
$GPGGA,000411.00,3447.3040,N,12138.5384,W,1,10,0.8,11.3,M,-33.4,M,,*69
$PYRTM,2024,126.002931909907,17.112579320058
$GPGGA,000412.00,3447.3024,N,12138.5365,W,1,10,0.8,11.3,M,-33.4,M,,*67
$PYRTM,2024,126.002943471968,17.112590882118
$GPGGA,000413.00,3447.3010,N,12138.5346,W,1,10,0.8,11.4,M,-33.4,M,,*67
$PYRTM,2024,126.002955057917,17.112602468056
$GPGGA,000414.00,3447.2996,N,12138.5327,W,1,10,0.8,11.5,M,-33.4,M,,*60
$PYRTM,2024,126.002962453356,17.112609863507
$GPGGA,000415.00,3447.2981,N,12138.5308,W,1,10,0.8,11.5,M,-33.4,M,,*6A
$PYRTM,2024,126.002978207569,17.112625617720
$GPGGA,000416.00,3447.2966,N,12138.5289,W,1,10,0.8,11.3,M,-33.4,M,,*6E
$PYRTM,2024,126.002985601458,17.112633011597
$GPGGA,000417.00,3447.2951,N,12138.5270,W,1,10,0.8,11.3,M,-33.4,M,,*6D
$PYRTM,2024,126.003004247720,17.112651657859
$GPGGA,000418.00,3447.2936,N,12138.5251,W,1,10,0.8,11.5,M,-33.4,M,,*66
$PYRTM,2024,126.003012915752,17.112660325891
$GPGGA,000419.00,3447.2921,N,12138.5231,W,1,10,0.8,11.7,M,-33.4,M,,*65
$PYRTM,2024,126.003024516678,17.112671926817
$GPGGA,000420.00,3447.2905,N,12138.5210,W,1,10,0.8,11.7,M,-33.4,M,,*6A
$PYRTM,2024,126.003036063322,17.112683473461
$GPGGA,000421.00,3447.2890,N,12138.5188,W,1,10,0.8,11.6,M,-33.4,M,,*65
$PYRTM,2024,126.003047654329,17.112695064468
$GPGGA,000422.00,3447.2875,N,12138.5167,W,1,10,0.8,11.6,M,-33.4,M,,*6C
$PYRTM,2024,126.003059212130,17.112706622269
$GPGGA,000423.00,3447.2860,N,12138.5148,W,1,10,0.8,11.6,M,-33.4,M,,*64
$PYRTM,2024,126.003070800220,17.112718210359
$GPGGA,000424.00,3447.2845,N,12138.5129,W,1,10,0.8,11.5,M,-33.4,M,,*60
$PYRTM,2024,126.003078208993,17.112725619132
$GPGGA,000425.00,3447.2831,N,12138.5111,W,1,10,0.8,11.2,M,-33.4,M,,*6E
$PYRTM,2024,126.003093947755,17.112741357894
$GPGGA,000426.00,3447.2817,N,12138.5092,W,1,10,0.8,11.1,M,-33.4,M,,*60
$PYRTM,2024,126.003105507836,17.112752917975
$GPGGA,000427.00,3447.2804,N,12138.5074,W,1,10,0.8,11.2,M,-33.4,M,,*68
$PYRTM,2024,126.003112914549,17.112760324687
$GPGGA,000428.00,3447.2791,N,12138.5054,W,1,10,0.8,11.1,M,-33.4,M,,*65
$PYRTM,2024,126.003128657199,17.112776067338
$GPGGA,000429.00,3447.2776,N,12138.5035,W,1,10,0.8,11.1,M,-33.4,M,,*6A
$PYRTM,2024,126.003140245370,17.112787655509
$GPGGA,000430.00,3447.2762,N,12138.5014,W,1,10,0.8,11.3,M,-33.4,M,,*66
$PYRTM,2024,126.003151805046,17.112799215185
$GPGGA,000431.00,3447.2748,N,12138.4993,W,1,10,0.8,11.5,M,-33.4,M,,*6E
$PYRTM,2024,126.003163391794,17.112810801933
$GPGGA,000432.00,3447.2732,N,12138.4971,W,1,10,0.8,11.6,M,-33.4,M,,*6F
$PYRTM,2024,126.003174953437,17.112822363576
$GPGGA,000433.00,3447.2716,N,12138.4950,W,1,10,0.8,11.7,M,-33.4,M,,*6A
$PYRTM,2024,126.003186543854,17.112833953993
$GPGGA,000434.00,3447.2700,N,12138.4931,W,1,10,0.8,11.7,M,-33.4,M,,*6D
$PYRTM,2024,126.003193935567,17.112841345706
$GPGGA,000435.00,3447.2684,N,12138.4913,W,1,10,0.8,11.5,M,-33.4,M,,*63
$PYRTM,2024,126.003209691412,17.112857101551
$GPGGA,000436.00,3447.2668,N,12138.4895,W,1,10,0.8,11.2,M,-33.4,M,,*6A
$PYRTM,2024,126.003221249965,17.112868660104
$GPGGA,000437.00,3447.2655,N,12138.4875,W,1,10,0.8,10.9,M,-33.4,M,,*61
$PYRTM,2024,126.003232838437,17.112880248576
$GPGGA,000438.00,3447.2644,N,12138.4854,W,1,10,0.8,10.9,M,-33.4,M,,*6D
$PYRTM,2024,126.003244398299,17.112891808437
$GPGGA,000439.00,3447.2633,N,12138.4832,W,1,10,0.8,11.0,M,-33.4,M,,*64
$PYRTM,2024,126.003251803576,17.112899213715
$GPGGA,000440.00,3447.2619,N,12138.4812,W,1,10,0.8,11.2,M,-33.4,M,,*62
$PYRTM,2024,126.003267545613,17.112914955752
$GPGGA,000441.00,3447.2602,N,12138.4793,W,1,10,0.8,11.6,M,-33.4,M,,*6B
$PYRTM,2024,126.003279133507,17.112926543646
$GPGGA,000442.00,3447.2585,N,12138.4773,W,1,10,0.8,11.9,M,-33.4,M,,*65
$PYRTM,2024,126.003290693935,17.112938104074
$GPGGA,000443.00,3447.2570,N,12138.4754,W,1,10,0.8,12.0,M,-33.4,M,,*61
$PYRTM,2024,126.003302282130,17.112949692269
$GPGGA,000444.00,3447.2555,N,12138.4734,W,1,10,0.8,11.8,M,-33.4,M,,*6C
$PYRTM,2024,126.003309676157,17.112957086296
$GPGGA,000445.00,3447.2540,N,12138.4716,W,1,10,0.8,11.4,M,-33.4,M,,*65
$PYRTM,2024,126.003325428970,17.112972839109
$GPGGA,000446.00,3447.2525,N,12138.4699,W,1,10,0.8,10.9,M,-33.4,M,,*6F
$PYRTM,2024,126.003336990440,17.112984400579
$GPGGA,000447.00,3447.2511,N,12138.4682,W,1,10,0.8,10.6,M,-33.4,M,,*6C
$PYRTM,2024,126.003344398241,17.112991808380
$GPGGA,000448.00,3447.2498,N,12138.4663,W,1,10,0.8,10.5,M,-33.4,M,,*6F
$PYRTM,2024,126.003363034676,17.113010444815
$GPGGA,000449.00,3447.2485,N,12138.4643,W,1,10,0.8,10.6,M,-33.4,M,,*63
$PYRTM,2024,126.003374622789,17.113022032928
$GPGGA,000450.00,3447.2471,N,12138.4622,W,1,10,0.8,10.9,M,-33.4,M,,*68
$PYRTM,2024,126.003386181389,17.113033591528
$GPGGA,000451.00,3447.2456,N,12138.4602,W,1,10,0.8,11.5,M,-33.4,M,,*63
$PYRTM,2024,126.003394874734,17.113042284873
$GPGGA,000452.00,3447.2439,N,12138.4583,W,1,10,0.8,12.0,M,-33.4,M,,*65
$PYRTM,2024,126.003402284618,17.113049694757
$GPGGA,000453.00,3447.2423,N,12138.4563,W,1,10,0.8,12.4,M,-33.4,M,,*65
$PYRTM,2024,126.003418022975,17.113065433113
$GPGGA,000454.00,3447.2407,N,12138.4543,W,1,10,0.8,12.5,M,-33.4,M,,*67
$PYRTM,2024,126.003429585382,17.113076995521
$GPGGA,000455.00,3447.2393,N,12138.4523,W,1,10,0.8,12.3,M,-33.4,M,,*6C
$PYRTM,2024,126.003441171215,17.113088581354
$GPGGA,000456.00,3447.2379,N,12138.4504,W,1,10,0.8,11.8,M,-33.4,M,,*66
$PYRTM,2024,126.003452732488,17.113100142627
$GPGGA,000457.00,3447.2366,N,12138.4486,W,1,10,0.8,11.3,M,-33.4,M,,*69
$PYRTM,2024,126.003460140185,17.113107550324
$GPGGA,000458.00,3447.2352,N,12138.4467,W,1,10,0.8,10.8,M,-33.4,M,,*64
$PYRTM,2024,126.003475881493,17.113123291644
$GPGGA,000459.00,3447.2338,N,12138.4449,W,1,10,0.8,10.6,M,-33.4,M,,*6B
$PYRTM,2024,126.003487467650,17.113134877789
$GPGGA,000500.00,3447.2324,N,12138.4430,W,1,10,0.8,10.7,M,-33.4,M,,*64
$PYRTM,2024,126.003499028715,17.113146438854
$GPGGA,000501.00,3447.2309,N,12138.4411,W,1,10,0.8,10.8,M,-33.4,M,,*66
$PYRTM,2024,126.003510619132,17.113158029271
$GPGGA,000502.00,3447.2296,N,12138.4390,W,1,10,0.8,10.9,M,-33.4,M,,*6D
$PYRTM,2024,126.003518011759,17.113165421898
$GPGGA,000503.00,3447.2282,N,12138.4368,W,1,10,0.8,11.2,M,-33.4,M,,*64
$PYRTM,2024,126.003533767917,17.113181178056
$GPGGA,000504.00,3447.2267,N,12138.4347,W,1,10,0.8,11.7,M,-33.4,M,,*60
$PYRTM,2024,126.003545325498,17.113192735637
$GPGGA,000505.00,3447.2251,N,12138.4328,W,1,10,0.8,12.1,M,-33.4,M,,*68
$PYRTM,2024,126.003556913773,17.113204323912
$GPGGA,000506.00,3447.2237,N,12138.4308,W,1,10,0.8,12.2,M,-33.4,M,,*6A
$PYRTM,2024,126.003568474514,17.113215884653
$GPGGA,000507.00,3447.2224,N,12138.4289,W,1,10,0.8,11.8,M,-33.4,M,,*68
$PYRTM,2024,126.003575882164,17.113223292315
$GPGGA,000508.00,3447.2212,N,12138.4270,W,1,10,0.8,11.4,M,-33.4,M,,*68
$PYRTM,2024,126.003591622164,17.113239032303
$GPGGA,000509.00,3447.2199,N,12138.4250,W,1,10,0.8,11.1,M,-33.4,M,,*6E
$PYRTM,2024,126.003603209491,17.113250619630
$GPGGA,000510.00,3447.2185,N,12138.4232,W,1,10,0.8,10.9,M,-33.4,M,,*66
$PYRTM,2024,126.003614772234,17.113262182373
$GPGGA,000511.00,3447.2171,N,12138.4214,W,1,10,0.8,11.0,M,-33.4,M,,*60
$PYRTM,2024,126.003626358044,17.113273768183
$GPGGA,000512.00,3447.2157,N,12138.4194,W,1,10,0.8,11.2,M,-33.4,M,,*6E
$PYRTM,2024,126.003633754815,17.113281164954
$GPGGA,000513.00,3447.2143,N,12138.4172,W,1,10,0.8,11.3,M,-33.4,M,,*63
$PYRTM,2024,126.003649506285,17.113296916424
$GPGGA,000514.00,3447.2129,N,12138.4149,W,1,10,0.8,11.6,M,-33.4,M,,*65
$PYRTM,2024,126.003661066794,17.113308476933
$GPGGA,000515.00,3447.2114,N,12138.4127,W,1,10,0.8,12.0,M,-33.4,M,,*67
$PYRTM,2024,126.003668474097,17.113315884236
$GPGGA,000516.00,3447.2098,N,12138.4107,W,1,10,0.8,12.3,M,-33.4,M,,*60
$PYRTM,2024,126.003684215208,17.113331625347
$GPGGA,000517.00,3447.2084,N,12138.4088,W,1,10,0.8,12.5,M,-33.4,M,,*6C
$PYRTM,2024,126.003691624306,17.113339034444
$GPGGA,000518.00,3447.2070,N,12138.4068,W,1,10,0.8,12.3,M,-33.4,M,,*60
$PYRTM,2024,126.003703313796,17.113350723935
$GPGGA,000519.00,3447.2057,N,12138.4049,W,1,10,0.8,11.8,M,-33.4,M,,*6F
$PYRTM,2024,126.003721848565,17.113369258715
$GPGGA,000520.00,3447.2043,N,12138.4030,W,1,10,0.8,11.0,M,-33.4,M,,*66
$PYRTM,2024,126.003730512940,17.113377923079
$GPGGA,000521.00,3447.2030,N,12138.4012,W,1,10,0.8,10.4,M,-33.4,M,,*66
$PYRTM,2024,126.003742099317,17.113389509468
$GPGGA,000522.00,3447.2017,N,12138.3993,W,1,10,0.8,10.3,M,-33.4,M,,*60
$PYRTM,2024,126.003753662569,17.113401072720
$GPGGA,000523.00,3447.2005,N,12138.3974,W,1,10,0.8,10.7,M,-33.4,M,,*6F
$PYRTM,2024,126.003765247905,17.113412658044
$GPGGA,000524.00,3447.1992,N,12138.3955,W,1,10,0.8,11.2,M,-33.4,M,,*6B
$PYRTM,2024,126.003776810278,17.113424220417
$GPGGA,000525.00,3447.1978,N,12138.3936,W,1,10,0.8,11.5,M,-33.4,M,,*6C
$PYRTM,2024,126.003784217141,17.113431627292
$GPGGA,000526.00,3447.1963,N,12138.3917,W,1,10,0.8,11.6,M,-33.4,M,,*65
$PYRTM,2024,126.003799957361,17.113447367500
$GPGGA,000527.00,3447.1948,N,12138.3897,W,1,10,0.8,11.8,M,-33.4,M,,*6A
$PYRTM,2024,126.003811545081,17.113458955220
$GPGGA,000528.00,3447.1933,N,12138.3876,W,1,10,0.8,12.0,M,-33.4,M,,*6D
$PYRTM,2024,126.003823103692,17.113470513831
$GPGGA,000529.00,3447.1918,N,12138.3855,W,1,10,0.8,12.0,M,-33.4,M,,*64
$PYRTM,2024,126.003830514757,17.113477924896
$GPGGA,000530.00,3447.1903,N,12138.3834,W,1,10,0.8,12.2,M,-33.4,M,,*63
$PYRTM,2024,126.003849148009,17.113496558160
$GPGGA,000531.00,3447.1889,N,12138.3812,W,1,10,0.8,12.4,M,-33.4,M,,*63
$PYRTM,2024,126.003860737593,17.113508147731
$GPGGA,000532.00,3447.1875,N,12138.3790,W,1,10,0.8,12.3,M,-33.4,M,,*61
$PYRTM,2024,126.003869401539,17.113516811678
$GPGGA,000533.00,3447.1861,N,12138.3768,W,1,10,0.8,11.9,M,-33.4,M,,*6B
$PYRTM,2024,126.003880991146,17.113528401285
$GPGGA,000534.00,3447.1848,N,12138.3748,W,1,10,0.8,11.4,M,-33.4,M,,*68
$PYRTM,2024,126.003892552755,17.113539962905
$GPGGA,000535.00,3447.1834,N,12138.3729,W,1,10,0.8,11.0,M,-33.4,M,,*61
$PYRTM,2024,126.003904138044,17.113551548183
$GPGGA,000536.00,3447.1822,N,12138.3711,W,1,10,0.8,10.6,M,-33.4,M,,*69
$PYRTM,2024,126.003915698194,17.113563108333
$GPGGA,000537.00,3447.1809,N,12138.3693,W,1,10,0.8,10.3,M,-33.4,M,,*6F
$PYRTM,2024,126.003927286088,17.113574696227
$GPGGA,000538.00,3447.1796,N,12138.3676,W,1,10,0.8,10.3,M,-33.4,M,,*62
$PYRTM,2024,126.003938847593,17.113586257731
$GPGGA,000539.00,3447.1782,N,12138.3657,W,1,10,0.8,10.5,M,-33.4,M,,*63
$PYRTM,2024,126.003950435278,17.113597845417
$GPGGA,000540.00,3447.1767,N,12138.3637,W,1,10,0.8,10.9,M,-33.4,M,,*6C
$PYRTM,2024,126.003961995428,17.113609405567
$GPGGA,000541.00,3447.1752,N,12138.3615,W,1,10,0.8,11.5,M,-33.4,M,,*66
$PYRTM,2024,126.003973581979,17.113620992118
$GPGGA,000542.00,3447.1737,N,12138.3592,W,1,10,0.8,12.1,M,-33.4,M,,*6D
$PYRTM,2024,126.003985144456,17.113632554595
$GPGGA,000543.00,3447.1724,N,12138.3569,W,1,10,0.8,12.5,M,-33.4,M,,*6E
$PYRTM,2024,126.003996734306,17.113644144444
$GPGGA,000544.00,3447.1711,N,12138.3546,W,1,10,0.8,12.5,M,-33.4,M,,*62
$PYRTM,2024,126.004008292731,17.113655702882
$GPGGA,000545.00,3447.1698,N,12138.3525,W,1,10,0.8,12.1,M,-33.4,M,,*62
$PYRTM,2024,126.004015699271,17.113663109410
$GPGGA,000546.00,3447.1684,N,12138.3506,W,1,10,0.8,11.5,M,-33.4,M,,*6A
$PYRTM,2024,126.004031440359,17.113678850498
$GPGGA,000547.00,3447.1670,N,12138.3488,W,1,10,0.8,10.8,M,-33.4,M,,*6B
$PYRTM,2024,126.004043041308,17.113690451447
$GPGGA,000548.00,3447.1657,N,12138.3470,W,1,10,0.8,10.5,M,-33.4,M,,*6B
$PYRTM,2024,126.004054588275,17.113701998414
$GPGGA,000549.00,3447.1644,N,12138.3452,W,1,10,0.8,10.6,M,-33.4,M,,*6B
$PYRTM,2024,126.004061996123,17.113709406262
$GPGGA,000550.00,3447.1631,N,12138.3432,W,1,10,0.8,11.0,M,-33.4,M,,*60
$PYRTM,2024,126.004080630185,17.113728040324
$GPGGA,000551.00,3447.1618,N,12138.3412,W,1,10,0.8,11.5,M,-33.4,M,,*6D
$PYRTM,2024,126.004089318738,17.113736728877
$GPGGA,000552.00,3447.1604,N,12138.3391,W,1,10,0.8,11.8,M,-33.4,M,,*62
$PYRTM,2024,126.004100898785,17.113748308935
$GPGGA,000553.00,3447.1588,N,12138.3370,W,1,10,0.8,11.9,M,-33.4,M,,*6A
$PYRTM,2024,126.004108315729,17.113755725868
$GPGGA,000554.00,3447.1574,N,12138.3348,W,1,10,0.8,11.9,M,-33.4,M,,*65
$PYRTM,2024,126.004124046655,17.113771456806
$GPGGA,000555.00,3447.1562,N,12138.3326,W,1,10,0.8,11.8,M,-33.4,M,,*6A
$PYRTM,2024,126.004135619711,17.113783029861
$GPGGA,000556.00,3447.1551,N,12138.3305,W,1,10,0.8,11.7,M,-33.4,M,,*67
$PYRTM,2024,126.004147194248,17.113794604398
$GPGGA,000557.00,3447.1538,N,12138.3287,W,1,10,0.8,11.2,M,-33.4,M,,*67
$PYRTM,2024,126.004158773600,17.113806183750
$GPGGA,000558.00,3447.1524,N,12138.3270,W,1,10,0.8,10.7,M,-33.4,M,,*69
$PYRTM,2024,126.004166162836,17.113813572975
$GPGGA,000559.00,3447.1510,N,12138.3254,W,1,10,0.8,10.3,M,-33.4,M,,*6D
$PYRTM,2024,126.004181930023,17.113829340162
$GPGGA,000600.00,3447.1497,N,12138.3236,W,1,10,0.8,10.3,M,-33.4,M,,*68
$PYRTM,2024,126.004193485174,17.113840895312
$GPGGA,000601.00,3447.1486,N,12138.3215,W,1,10,0.8,10.4,M,-33.4,M,,*6F
$PYRTM,2024,126.004205079387,17.113852489525
$GPGGA,000602.00,3447.1475,N,12138.3194,W,1,10,0.8,10.8,M,-33.4,M,,*66
$PYRTM,2024,126.004212459225,17.113859869363
$GPGGA,000603.00,3447.1462,N,12138.3173,W,1,10,0.8,11.3,M,-33.4,M,,*62
$PYRTM,2024,126.004228213461,17.113875623600
$GPGGA,000604.00,3447.1446,N,12138.3152,W,1,10,0.8,11.6,M,-33.4,M,,*65
$PYRTM,2024,126.004239786458,17.113887196597
$GPGGA,000605.00,3447.1430,N,12138.3133,W,1,10,0.8,11.8,M,-33.4,M,,*6C
$PYRTM,2024,126.004247181586,17.113894591725
$GPGGA,000606.00,3447.1416,N,12138.3113,W,1,10,0.8,12.0,M,-33.4,M,,*62
$PYRTM,2024,126.004258878484,17.113906288623
$GPGGA,000607.00,3447.1404,N,12138.3092,W,1,10,0.8,11.8,M,-33.4,M,,*63
$PYRTM,2024,126.004274511296,17.113921921435
$GPGGA,000608.00,3447.1391,N,12138.3072,W,1,10,0.8,11.3,M,-33.4,M,,*62
$PYRTM,2024,126.004286078530,17.113933488669
$GPGGA,000609.00,3447.1376,N,12138.3053,W,1,10,0.8,10.7,M,-33.4,M,,*6C
$PYRTM,2024,126.004297658542,17.113945068681
$GPGGA,000610.00,3447.1361,N,12138.3036,W,1,10,0.8,10.5,M,-33.4,M,,*63
$PYRTM,2024,126.004309235185,17.113956645324
$GPGGA,000611.00,3447.1348,N,12138.3016,W,1,10,0.8,10.7,M,-33.4,M,,*69
$PYRTM,2024,126.004316627824,17.113964037975
$GPGGA,000612.00,3447.1338,N,12138.2994,W,1,10,0.8,11.1,M,-33.4,M,,*68
$PYRTM,2024,126.004332379248,17.113979789387
$GPGGA,000613.00,3447.1327,N,12138.2972,W,1,10,0.8,11.3,M,-33.4,M,,*6D
$PYRTM,2024,126.004343958634,17.113991368785
$GPGGA,000614.00,3447.1313,N,12138.2953,W,1,10,0.8,11.4,M,-33.4,M,,*69
$PYRTM,2024,126.004355527477,17.114002937616
$GPGGA,000615.00,3447.1299,N,12138.2935,W,1,10,0.8,11.2,M,-33.4,M,,*6D
$PYRTM,2024,126.004367118657,17.114014528796
$GPGGA,000616.00,3447.1285,N,12138.2918,W,1,10,0.8,10.7,M,-33.4,M,,*68
$PYRTM,2024,126.004374497627,17.114021907766
$GPGGA,000617.00,3447.1272,N,12138.2900,W,1,10,0.8,10.3,M,-33.4,M,,*6C
$PYRTM,2024,126.004390250880,17.114037661019
$GPGGA,000618.00,3447.1260,N,12138.2882,W,1,10,0.8,10.1,M,-33.4,M,,*69
$PYRTM,2024,126.004401825856,17.114049235995
$GPGGA,000619.00,3447.1246,N,12138.2865,W,1,10,0.8,10.3,M,-33.4,M,,*67
$PYRTM,2024,126.004409219213,17.114056629352
$GPGGA,000620.00,3447.1233,N,12138.2846,W,1,10,0.8,10.5,M,-33.4,M,,*68
$PYRTM,2024,126.004420922326,17.114068332465
$GPGGA,000621.00,3447.1221,N,12138.2824,W,1,10,0.8,10.8,M,-33.4,M,,*63
$PYRTM,2024,126.004439437072,17.114086847222
$GPGGA,000622.00,3447.1210,N,12138.2802,W,1,10,0.8,11.2,M,-33.4,M,,*6D
$PYRTM,2024,126.004448118530,17.114095528669
$GPGGA,000623.00,3447.1198,N,12138.2781,W,1,10,0.8,11.6,M,-33.4,M,,*6F
$PYRTM,2024,126.004459698021,17.114107108171
$GPGGA,000624.00,3447.1183,N,12138.2761,W,1,10,0.8,11.7,M,-33.4,M,,*6D
$PYRTM,2024,126.004467091065,17.114114501204
$GPGGA,000625.00,3447.1166,N,12138.2742,W,1,10,0.8,11.4,M,-33.4,M,,*65
$PYRTM,2024,126.004482843692,17.114130253831
$GPGGA,000626.00,3447.1149,N,12138.2724,W,1,10,0.8,11.0,M,-33.4,M,,*6F
$PYRTM,2024,126.004494414722,17.114141824861
$GPGGA,000627.00,3447.1135,N,12138.2706,W,1,10,0.8,10.9,M,-33.4,M,,*6D
$PYRTM,2024,126.004505995324,17.114153405463
$GPGGA,000628.00,3447.1124,N,12138.2685,W,1,10,0.8,10.9,M,-33.4,M,,*68
$PYRTM,2024,126.004517561690,17.114164971829
$GPGGA,000629.00,3447.1114,N,12138.2665,W,1,10,0.8,10.8,M,-33.4,M,,*65
$PYRTM,2024,126.004529145544,17.114176555683
$GPGGA,000630.00,3447.1102,N,12138.2646,W,1,10,0.8,10.5,M,-33.4,M,,*66
$PYRTM,2024,126.004540716250,17.114188126389
$GPGGA,000631.00,3447.1089,N,12138.2628,W,1,10,0.8,10.4,M,-33.4,M,,*6C
$PYRTM,2024,126.004552289456,17.114199699595
$GPGGA,000632.00,3447.1076,N,12138.2610,W,1,10,0.8,10.3,M,-33.4,M,,*63
$PYRTM,2024,126.004563862523,17.114211272662
$GPGGA,000633.00,3447.1063,N,12138.2592,W,1,10,0.8,10.3,M,-33.4,M,,*6F
$PYRTM,2024,126.004575437789,17.114222847928
$GPGGA,000634.00,3447.1050,N,12138.2574,W,1,10,0.8,10.2,M,-33.4,M,,*61
$PYRTM,2024,126.004582847604,17.114230257755
$GPGGA,000635.00,3447.1036,N,12138.2556,W,1,10,0.8,10.4,M,-33.4,M,,*66
$PYRTM,2024,126.004598581100,17.114245991238
$GPGGA,000636.00,3447.1023,N,12138.2537,W,1,10,0.8,10.8,M,-33.4,M,,*6A
$PYRTM,2024,126.004610159294,17.114257569433
$GPGGA,000637.00,3447.1012,N,12138.2516,W,1,10,0.8,11.1,M,-33.4,M,,*62
$PYRTM,2024,126.004621733958,17.114269144097
$GPGGA,000638.00,3447.0999,N,12138.2495,W,1,10,0.8,11.2,M,-33.4,M,,*6F
$PYRTM,2024,126.004633308264,17.114280718403
$GPGGA,000639.00,3447.0985,N,12138.2476,W,1,10,0.8,11.1,M,-33.4,M,,*6D
$PYRTM,2024,126.004644882593,17.114292292731
$GPGGA,000640.00,3447.0971,N,12138.2457,W,1,10,0.8,11.0,M,-33.4,M,,*6A
$PYRTM,2024,126.004656456586,17.114303866725
$GPGGA,000641.00,3447.0958,N,12138.2438,W,1,10,0.8,11.0,M,-33.4,M,,*69
$PYRTM,2024,126.004668046528,17.114315456667
$GPGGA,000642.00,3447.0947,N,12138.2416,W,1,10,0.8,11.0,M,-33.4,M,,*68
$PYRTM,2024,126.004679606053,17.114327016204
$GPGGA,000643.00,3447.0935,N,12138.2395,W,1,10,0.8,11.0,M,-33.4,M,,*60
$PYRTM,2024,126.004691182523,17.114338592662
$GPGGA,000644.00,3447.0922,N,12138.2375,W,1,10,0.8,11.0,M,-33.4,M,,*6F
$PYRTM,2024,126.004702753044,17.114350163194
$GPGGA,000645.00,3447.0908,N,12138.2356,W,1,10,0.8,11.1,M,-33.4,M,,*66
$PYRTM,2024,126.004714327199,17.114361737338
$GPGGA,000646.00,3447.0894,N,12138.2337,W,1,10,0.8,11.0,M,-33.4,M,,*67
$PYRTM,2024,126.004725895394,17.114373305532
$GPGGA,000647.00,3447.0880,N,12138.2316,W,1,10,0.8,10.9,M,-33.4,M,,*68
$PYRTM,2024,126.004737475336,17.114384885475
$GPGGA,000648.00,3447.0867,N,12138.2296,W,1,10,0.8,10.8,M,-33.4,M,,*66
$PYRTM,2024,126.004749048079,17.114396458218
$GPGGA,000649.00,3447.0853,N,12138.2277,W,1,10,0.8,10.7,M,-33.4,M,,*60
$PYRTM,2024,126.004756443681,17.114403853819
$GPGGA,000650.00,3447.0840,N,12138.2258,W,1,10,0.8,10.6,M,-33.4,M,,*66
$PYRTM,2024,126.004772196366,17.114419606505
$GPGGA,000651.00,3447.0826,N,12138.2238,W,1,10,0.8,10.6,M,-33.4,M,,*61
$PYRTM,2024,126.004779592060,17.114427002199
$GPGGA,000652.00,3447.0813,N,12138.2219,W,1,10,0.8,10.6,M,-33.4,M,,*67
$PYRTM,2024,126.004798124340,17.114445534479
$GPGGA,000653.00,3447.0802,N,12138.2199,W,1,10,0.8,10.6,M,-33.4,M,,*6D
$PYRTM,2024,126.004806920891,17.114454331030
$GPGGA,000654.00,3447.0788,N,12138.2179,W,1,10,0.8,10.6,M,-33.4,M,,*69
$PYRTM,2024,126.004814314884,17.114461725035
$GPGGA,000655.00,3447.0774,N,12138.2161,W,1,10,0.8,10.7,M,-33.4,M,,*63
$PYRTM,2024,126.004830082523,17.114477492662
$GPGGA,000656.00,3447.0759,N,12138.2142,W,1,10,0.8,10.9,M,-33.4,M,,*60
$PYRTM,2024,126.004841642419,17.114489052558
$GPGGA,000657.00,3447.0745,N,12138.2122,W,1,10,0.8,11.0,M,-33.4,M,,*62
$PYRTM,2024,126.004853220069,17.114500630208
$GPGGA,000658.00,3447.0731,N,12138.2101,W,1,10,0.8,11.1,M,-33.4,M,,*6E
$PYRTM,2024,126.004864794514,17.114512204653
$GPGGA,000659.00,3447.0718,N,12138.2080,W,1,10,0.8,11.2,M,-33.4,M,,*6F
$PYRTM,2024,126.004872185197,17.114519595336
$GPGGA,000700.00,3447.0704,N,12138.2058,W,1,10,0.8,11.3,M,-33.4,M,,*6B
$PYRTM,2024,126.004887938461,17.114535348600
$GPGGA,000701.00,3447.0689,N,12138.2037,W,1,10,0.8,11.4,M,-33.4,M,,*60
$PYRTM,2024,126.004899513229,17.114546923368
$GPGGA,000702.00,3447.0675,N,12138.2017,W,1,10,0.8,11.3,M,-33.4,M,,*65
$PYRTM,2024,126.004911082639,17.114558492778
$GPGGA,000703.00,3447.0661,N,12138.1997,W,1,10,0.8,11.2,M,-33.4,M,,*62
$PYRTM,2024,126.004922663021,17.114570073160
$GPGGA,000704.00,3447.0647,N,12138.1976,W,1,10,0.8,11.0,M,-33.4,M,,*6C
$PYRTM,2024,126.004930069572,17.114577479711
$GPGGA,000705.00,3447.0633,N,12138.1956,W,1,10,0.8,10.8,M,-33.4,M,,*65
$PYRTM,2024,126.004945810174,17.114593220312
$GPGGA,000706.00,3447.0619,N,12138.1937,W,1,10,0.8,10.6,M,-33.4,M,,*67
$PYRTM,2024,126.004953205648,17.114600615799
$GPGGA,000707.00,3447.0604,N,12138.1918,W,1,10,0.8,10.5,M,-33.4,M,,*64
$PYRTM,2024,126.004968958472,17.114616368623
$GPGGA,000708.00,3447.0591,N,12138.1897,W,1,10,0.8,10.5,M,-33.4,M,,*62
$PYRTM,2024,126.004980531991,17.114627942130
$GPGGA,000709.00,3447.0578,N,12138.1876,W,1,10,0.8,10.6,M,-33.4,M,,*68
$PYRTM,2024,126.004992108981,17.114639519120
$GPGGA,000710.00,3447.0565,N,12138.1855,W,1,10,0.8,10.7,M,-33.4,M,,*6C
$PYRTM,2024,126.005003677951,17.114651088090
$GPGGA,000711.00,3447.0551,N,12138.1835,W,1,10,0.8,10.9,M,-33.4,M,,*62
$PYRTM,2024,126.005015272118,17.114662682269
$GPGGA,000712.00,3447.0536,N,12138.1815,W,1,10,0.8,11.0,M,-33.4,M,,*6A
$PYRTM,2024,126.005026828333,17.114674238472
$GPGGA,000713.00,3447.0522,N,12138.1795,W,1,10,0.8,10.9,M,-33.4,M,,*61
$PYRTM,2024,126.005038403241,17.114685813380
$GPGGA,000714.00,3447.0508,N,12138.1775,W,1,10,0.8,10.7,M,-33.4,M,,*6E
$PYRTM,2024,126.005045810278,17.114693220428
$GPGGA,000715.00,3447.0494,N,12138.1756,W,1,10,0.8,10.5,M,-33.4,M,,*68
$PYRTM,2024,126.005061551308,17.114708961447
$GPGGA,000716.00,3447.0479,N,12138.1737,W,1,10,0.8,10.5,M,-33.4,M,,*6F
$PYRTM,2024,126.005073125208,17.114720535347
$GPGGA,000717.00,3447.0464,N,12138.1716,W,1,10,0.8,10.7,M,-33.4,M,,*63
$PYRTM,2024,126.005084699317,17.114732109456
$GPGGA,000718.00,3447.0452,N,12138.1694,W,1,10,0.8,11.0,M,-33.4,M,,*64
$PYRTM,2024,126.005096273356,17.114743683495
$GPGGA,000719.00,3447.0440,N,12138.1673,W,1,10,0.8,11.4,M,-33.4,M,,*6B
$PYRTM,2024,126.005103667581,17.114751077720
$GPGGA,000720.00,3447.0425,N,12138.1652,W,1,10,0.8,11.5,M,-33.4,M,,*60
$PYRTM,2024,126.005119417199,17.114766827338
$GPGGA,000721.00,3447.0408,N,12138.1633,W,1,10,0.8,11.3,M,-33.4,M,,*6F
$PYRTM,2024,126.005130991250,17.114778401389
$GPGGA,000722.00,3447.0390,N,12138.1614,W,1,10,0.8,11.0,M,-33.4,M,,*6C
$PYRTM,2024,126.005138390139,17.114785800278
$GPGGA,000723.00,3447.0376,N,12138.1592,W,1,10,0.8,10.7,M,-33.4,M,,*6E
$PYRTM,2024,126.005156923021,17.114804333160
$GPGGA,000724.00,3447.0365,N,12138.1569,W,1,10,0.8,10.7,M,-33.4,M,,*6F
$PYRTM,2024,126.005168495903,17.114815906042
$GPGGA,000725.00,3447.0354,N,12138.1546,W,1,10,0.8,10.7,M,-33.4,M,,*61
$PYRTM,2024,126.005180070440,17.114827480590
$GPGGA,000726.00,3447.0342,N,12138.1525,W,1,10,0.8,10.7,M,-33.4,M,,*60
$PYRTM,2024,126.005188867187,17.114836277326
$GPGGA,000727.00,3447.0326,N,12138.1508,W,1,10,0.8,10.6,M,-33.4,M,,*6D
$PYRTM,2024,126.005200443924,17.114847854062
$GPGGA,000728.00,3447.0309,N,12138.1492,W,1,10,0.8,10.6,M,-33.4,M,,*6D
$PYRTM,2024,126.005212014838,17.114859424988
$GPGGA,000729.00,3447.0296,N,12138.1475,W,1,10,0.8,10.4,M,-33.4,M,,*60
$PYRTM,2024,126.005219411562,17.114866821933
$GPGGA,000730.00,3447.0284,N,12138.1454,W,1,10,0.8,10.1,M,-33.4,M,,*6D
$PYRTM,2024,126.005235162778,17.114882572928
$GPGGA,000731.00,3447.0272,N,12138.1434,W,1,10,0.8,10.0,M,-33.4,M,,*62
$PYRTM,2024,126.005246737442,17.114894147581
$GPGGA,000732.00,3447.0259,N,12138.1415,W,1,10,0.8,10.3,M,-33.4,M,,*68
$PYRTM,2024,126.005254148310,17.114901558449
$GPGGA,000733.00,3447.0243,N,12138.1395,W,1,10,0.8,10.7,M,-33.4,M,,*69
$PYRTM,2024,126.005269886181,17.114917296319
$GPGGA,000734.00,3447.0228,N,12138.1374,W,1,10,0.8,11.0,M,-33.4,M,,*6A
$PYRTM,2024,126.005281459213,17.114928869352
$GPGGA,000735.00,3447.0214,N,12138.1351,W,1,10,0.8,11.3,M,-33.4,M,,*60
$PYRTM,2024,126.005293034225,17.114940444363
$GPGGA,000736.00,3447.0200,N,12138.1329,W,1,10,0.8,11.5,M,-33.4,M,,*6F
$PYRTM,2024,126.005304608125,17.114952018275
$GPGGA,000737.00,3447.0185,N,12138.1309,W,1,10,0.8,11.5,M,-33.4,M,,*62
$PYRTM,2024,126.005312002083,17.114959412222
$GPGGA,000738.00,3447.0170,N,12138.1291,W,1,10,0.8,11.2,M,-33.4,M,,*60
$PYRTM,2024,126.005327756875,17.114975167025
$GPGGA,000739.00,3447.0155,N,12138.1273,W,1,10,0.8,10.7,M,-33.4,M,,*6E
$PYRTM,2024,126.005335152766,17.114982562905
$GPGGA,000740.00,3447.0142,N,12138.1253,W,1,10,0.8,10.2,M,-33.4,M,,*61
$PYRTM,2024,126.005353681088,17.115001091227
$GPGGA,000741.00,3447.0130,N,12138.1234,W,1,10,0.8,10.0,M,-33.4,M,,*66
$PYRTM,2024,126.005362492627,17.115009902766
$GPGGA,000742.00,3447.0116,N,12138.1215,W,1,10,0.8,10.2,M,-33.4,M,,*60
$PYRTM,2024,126.005374052731,17.115021462870
$GPGGA,000743.00,3447.0102,N,12138.1196,W,1,10,0.8,10.7,M,-33.4,M,,*69
$PYRTM,2024,126.005385627940,17.115033038079
$GPGGA,000744.00,3447.0087,N,12138.1177,W,1,10,0.8,11.0,M,-33.4,M,,*6B
$PYRTM,2024,126.005397201134,17.115044611273
$GPGGA,000745.00,3447.0074,N,12138.1157,W,1,10,0.8,11.0,M,-33.4,M,,*64
$PYRTM,2024,126.005404597350,17.115052007488
$GPGGA,000746.00,3447.0061,N,12138.1136,W,1,10,0.8,11.0,M,-33.4,M,,*64
$PYRTM,2024,126.005420350208,17.115067760359
$GPGGA,000747.00,3447.0047,N,12138.1116,W,1,10,0.8,11.0,M,-33.4,M,,*63
$PYRTM,2024,126.005431925463,17.115079335602
$GPGGA,000748.00,3447.0034,N,12138.1097,W,1,10,0.8,10.7,M,-33.4,M,,*66
$PYRTM,2024,126.005443492222,17.115090902361
$GPGGA,000749.00,3447.0021,N,12138.1078,W,1,10,0.8,10.4,M,-33.4,M,,*61
$PYRTM,2024,126.005455067917,17.115102478067
$GPGGA,000750.00,3447.0008,N,12138.1060,W,1,10,0.8,10.2,M,-33.4,M,,*6D
$PYRTM,2024,126.005462466574,17.115109876713
$GPGGA,000751.00,3446.9996,N,12138.1041,W,1,10,0.8,10.2,M,-33.4,M,,*69
$PYRTM,2024,126.005478220394,17.115125630532
$GPGGA,000752.00,3446.9982,N,12138.1022,W,1,10,0.8,10.2,M,-33.4,M,,*6A
$PYRTM,2024,126.005489795718,17.115137205868
$GPGGA,000753.00,3446.9967,N,12138.1002,W,1,10,0.8,10.4,M,-33.4,M,,*64
$PYRTM,2024,126.005497189028,17.115144599167
$GPGGA,000754.00,3446.9953,N,12138.0981,W,1,10,0.8,10.9,M,-33.4,M,,*6A
$PYRTM,2024,126.005515719745,17.115163129896
$GPGGA,000755.00,3446.9941,N,12138.0960,W,1,10,0.8,11.3,M,-33.4,M,,*6C
$PYRTM,2024,126.005524531898,17.115171942037
$GPGGA,000756.00,3446.9928,N,12138.0939,W,1,10,0.8,11.3,M,-33.4,M,,*6C
$PYRTM,2024,126.005536091215,17.115183501354
$GPGGA,000757.00,3446.9913,N,12138.0918,W,1,10,0.8,11.1,M,-33.4,M,,*64
$PYRTM,2024,126.005547666042,17.115195076181
$GPGGA,000758.00,3446.9898,N,12138.0900,W,1,10,0.8,10.8,M,-33.4,M,,*68
$PYRTM,2024,126.005555072060,17.115202482199
$GPGGA,000759.00,3446.9883,N,12138.0881,W,1,10,0.8,10.7,M,-33.4,M,,*64
$PYRTM,2024,126.005570814294,17.115218224433
$GPGGA,000800.00,3446.9870,N,12138.0862,W,1,10,0.8,10.6,M,-33.4,M,,*67
$PYRTM,2024,126.005582388449,17.115229798588
$GPGGA,000801.00,3446.9857,N,12138.0842,W,1,10,0.8,10.4,M,-33.4,M,,*63
$PYRTM,2024,126.005593961644,17.115241371782
$GPGGA,000802.00,3446.9844,N,12138.0820,W,1,10,0.8,10.3,M,-33.4,M,,*61
$PYRTM,2024,126.005605536169,17.115252946319
$GPGGA,000803.00,3446.9832,N,12138.0800,W,1,10,0.8,10.5,M,-33.4,M,,*65
$PYRTM,2024,126.005612932512,17.115260342650
$GPGGA,000804.00,3446.9819,N,12138.0780,W,1,10,0.8,10.7,M,-33.4,M,,*6E
$PYRTM,2024,126.005628678808,17.115276088958
$GPGGA,000805.00,3446.9806,N,12138.0760,W,1,10,0.8,10.7,M,-33.4,M,,*6F
$PYRTM,2024,126.005640261620,17.115287671759
$GPGGA,000806.00,3446.9790,N,12138.0740,W,1,10,0.8,10.7,M,-33.4,M,,*6E
$PYRTM,2024,126.005651828657,17.115299238796
$GPGGA,000807.00,3446.9775,N,12138.0722,W,1,10,0.8,10.7,M,-33.4,M,,*60
$PYRTM,2024,126.005663406111,17.115310816250
$GPGGA,000808.00,3446.9761,N,12138.0703,W,1,10,0.8,10.8,M,-33.4,M,,*66
$PYRTM,2024,126.005674975822,17.115322385961
$GPGGA,000809.00,3446.9748,N,12138.0684,W,1,10,0.8,10.8,M,-33.4,M,,*62
$PYRTM,2024,126.005686555567,17.115333965718
$GPGGA,000810.00,3446.9735,N,12138.0664,W,1,10,0.8,10.7,M,-33.4,M,,*61
$PYRTM,2024,126.005698123727,17.115345533866
$GPGGA,000811.00,3446.9721,N,12138.0644,W,1,10,0.8,10.5,M,-33.4,M,,*65
$PYRTM,2024,126.005705523287,17.115352933426
$GPGGA,000812.00,3446.9706,N,12138.0625,W,1,10,0.8,10.4,M,-33.4,M,,*65
$PYRTM,2024,126.005721277905,17.115368688044
$GPGGA,000813.00,3446.9691,N,12138.0606,W,1,10,0.8,10.4,M,-33.4,M,,*6A
$PYRTM,2024,126.005732853727,17.115380263866
$GPGGA,000814.00,3446.9676,N,12138.0586,W,1,10,0.8,10.5,M,-33.4,M,,*6E
$PYRTM,2024,126.005744425440,17.115391835579
$GPGGA,000815.00,3446.9663,N,12138.0565,W,1,10,0.8,10.8,M,-33.4,M,,*6B
$PYRTM,2024,126.005755999387,17.115403409525
$GPGGA,000816.00,3446.9650,N,12138.0543,W,1,10,0.8,11.0,M,-33.4,M,,*65
$PYRTM,2024,126.005767572720,17.115414982859
$GPGGA,000817.00,3446.9637,N,12138.0522,W,1,10,0.8,11.1,M,-33.4,M,,*63
$PYRTM,2024,126.005779151690,17.115426561829
$GPGGA,000818.00,3446.9621,N,12138.0503,W,1,10,0.8,11.0,M,-33.4,M,,*69
$PYRTM,2024,126.005786541968,17.115433952106
$GPGGA,000819.00,3446.9604,N,12138.0485,W,1,10,0.8,10.7,M,-33.4,M,,*66
$PYRTM,2024,126.005802299178,17.115449709317
$GPGGA,000820.00,3446.9589,N,12138.0466,W,1,10,0.8,10.5,M,-33.4,M,,*65
$PYRTM,2024,126.005813869630,17.115461279780
$GPGGA,000821.00,3446.9577,N,12138.0446,W,1,10,0.8,10.5,M,-33.4,M,,*67
$PYRTM,2024,126.005825444572,17.115472854722
$GPGGA,000822.00,3446.9563,N,12138.0425,W,1,10,0.8,10.3,M,-33.4,M,,*62
$PYRTM,2024,126.005837017882,17.115484428032
$GPGGA,000823.00,3446.9549,N,12138.0404,W,1,10,0.8,10.2,M,-33.4,M,,*69
$PYRTM,2024,126.005844414225,17.115491824363
$GPGGA,000824.00,3446.9533,N,12138.0386,W,1,10,0.8,10.1,M,-33.4,M,,*6D
$PYRTM,2024,126.005856118461,17.115503528600
$GPGGA,000825.00,3446.9519,N,12138.0366,W,1,10,0.8,10.2,M,-33.4,M,,*69
$PYRTM,2024,126.005874518333,17.115521928472
$GPGGA,000826.00,3446.9505,N,12138.0345,W,1,10,0.8,10.4,M,-33.4,M,,*60
$PYRTM,2024,126.005883314572,17.115530724711
$GPGGA,000827.00,3446.9494,N,12138.0323,W,1,10,0.8,10.6,M,-33.4,M,,*6A
$PYRTM,2024,126.005894885764,17.115542295903
$GPGGA,000828.00,3446.9481,N,12138.0303,W,1,10,0.8,10.8,M,-33.4,M,,*6D
$PYRTM,2024,126.005906463600,17.115553873750
$GPGGA,000829.00,3446.9467,N,12138.0284,W,1,10,0.8,10.8,M,-33.4,M,,*6A
$PYRTM,2024,126.005918038345,17.115565448495
$GPGGA,000830.00,3446.9452,N,12138.0264,W,1,10,0.8,10.6,M,-33.4,M,,*64
$PYRTM,2024,126.005929612905,17.115577023044
$GPGGA,000831.00,3446.9436,N,12138.0245,W,1,10,0.8,10.4,M,-33.4,M,,*66
$PYRTM,2024,126.005937007002,17.115584417153
$GPGGA,000832.00,3446.9421,N,12138.0224,W,1,10,0.8,10.4,M,-33.4,M,,*64
$PYRTM,2024,126.005952754387,17.115600164537
$GPGGA,000833.00,3446.9407,N,12138.0203,W,1,10,0.8,10.6,M,-33.4,M,,*66
$PYRTM,2024,126.005960156227,17.115607566366
$GPGGA,000834.00,3446.9393,N,12138.0182,W,1,10,0.8,10.8,M,-33.4,M,,*6F
$PYRTM,2024,126.005975907720,17.115623317870
$GPGGA,000835.00,3446.9380,N,12138.0160,W,1,10,0.8,10.9,M,-33.4,M,,*61
