$PYRTM,2024,123.166670594780,14.276318004919
$GPGGA,035959.00,3408.0080,N,11950.8744,W,1,09,0.8,7.9,M,-33.5,M,,*5E
$PYRTM,2024,123.166678001632,14.276325411771
$GPGGA,040000.00,3408.0087,N,11950.8764,W,1,09,0.8,8.6,M,-33.5,M,,*5C
$PYRTM,2024,123.166693744213,14.276341154352
$GPGGA,040001.00,3408.0093,N,11950.8780,W,1,09,0.8,10.0,M,-33.5,M,,*6D
$PYRTM,2024,123.166705325961,14.276352736100
$GPGGA,040002.00,3408.0099,N,11950.8803,W,1,09,0.8,11.2,M,-33.5,M,,*63
$PYRTM,2024,123.166716891412,14.276364301551
$GPGGA,040003.00,3408.0104,N,11950.8835,W,1,09,0.8,10.9,M,-33.5,M,,*68
$PYRTM,2024,123.166728480243,14.276375890394
$GPGGA,040004.00,3408.0108,N,11950.8866,W,1,09,0.8,9.8,M,-33.5,M,,*5C
$PYRTM,2024,123.166740040266,14.276387450405
$GPGGA,040005.00,3408.0112,N,11950.8887,W,1,09,0.8,9.3,M,-33.5,M,,*52
$PYRTM,2024,123.166751622616,14.276399032755
$GPGGA,040006.00,3408.0117,N,11950.8904,W,1,09,0.8,10.0,M,-33.5,M,,*65
$PYRTM,2024,123.166763189259,14.276410599398
$GPGGA,040007.00,3408.0125,N,11950.8925,W,1,09,0.8,11.0,M,-33.5,M,,*67
$PYRTM,2024,123.166774779468,14.276422189606
$GPGGA,040008.00,3408.0132,N,11950.8953,W,1,09,0.8,10.9,M,-33.5,M,,*67
$PYRTM,2024,123.166786335509,14.276433745648
$GPGGA,040009.00,3408.0138,N,11950.8981,W,1,09,0.8,10.3,M,-33.5,M,,*69
$PYRTM,2024,123.166793745174,14.276441155313
$GPGGA,040010.00,3408.0142,N,11950.9002,W,1,09,0.8,10.0,M,-33.5,M,,*6C
$PYRTM,2024,123.166809486343,14.276456896493
$GPGGA,040011.00,3408.0148,N,11950.9021,W,1,09,0.8,10.3,M,-33.5,M,,*65
$PYRTM,2024,123.166821075556,14.276468485694
$GPGGA,040012.00,3408.0154,N,11950.9043,W,1,09,0.8,10.3,M,-33.5,M,,*6F
$PYRTM,2024,123.166832634190,14.276480044329
$GPGGA,040013.00,3408.0162,N,11950.9066,W,1,09,0.8,9.8,M,-33.5,M,,*5F
$PYRTM,2024,123.166844224190,14.276491634329
$GPGGA,040014.00,3408.0169,N,11950.9089,W,1,09,0.8,9.5,M,-33.5,M,,*5F
$PYRTM,2024,123.166855783738,14.276503193877
$GPGGA,040015.00,3408.0174,N,11950.9111,W,1,09,0.8,9.6,M,-33.5,M,,*51
$PYRTM,2024,123.166867363854,14.276514773993
$GPGGA,040016.00,3408.0179,N,11950.9135,W,1,09,0.8,9.7,M,-33.5,M,,*58
$PYRTM,2024,123.166878930671,14.276526340810
$GPGGA,040017.00,3408.0186,N,11950.9158,W,1,09,0.8,9.7,M,-33.5,M,,*52
$PYRTM,2024,123.166890516863,14.276537927002
$GPGGA,040018.00,3408.0192,N,11950.9181,W,1,09,0.8,9.9,M,-33.5,M,,*52
$PYRTM,2024,123.166902078414,14.276549488553
$GPGGA,040019.00,3408.0199,N,11950.9205,W,1,09,0.8,10.1,M,-33.5,M,,*67
$PYRTM,2024,123.166909486215,14.276556896366
$GPGGA,040020.00,3408.0205,N,11950.9231,W,1,09,0.8,10.1,M,-33.5,M,,*6C
$PYRTM,2024,123.166925226956,14.276572637106
$GPGGA,040021.00,3408.0210,N,11950.9258,W,1,09,0.8,9.9,M,-33.5,M,,*56
$PYRTM,2024,123.166936813796,14.276584223947
$GPGGA,040022.00,3408.0215,N,11950.9282,W,1,09,0.8,9.9,M,-33.5,M,,*57
$PYRTM,2024,123.166944208681,14.276591618819
$GPGGA,040023.00,3408.0221,N,11950.9305,W,1,09,0.8,10.2,M,-33.5,M,,*6C
$PYRTM,2024,123.166959965058,14.276607375197
$GPGGA,040024.00,3408.0228,N,11950.9327,W,1,09,0.8,11.2,M,-33.5,M,,*63
$PYRTM,2024,123.166971523322,14.276618933461
$GPGGA,040025.00,3408.0235,N,11950.9353,W,1,09,0.8,11.4,M,-33.5,M,,*6B
$PYRTM,2024,123.166978930394,14.276626340532
$GPGGA,040026.00,3408.0240,N,11950.9381,W,1,09,0.8,10.8,M,-33.5,M,,*68
$PYRTM,2024,123.166997566250,14.276644976389
$GPGGA,040027.00,3408.0244,N,11950.9407,W,1,09,0.8,9.8,M,-33.5,M,,*5C
$PYRTM,2024,123.167006262685,14.276653672824
$GPGGA,040028.00,3408.0249,N,11950.9428,W,1,09,0.8,9.8,M,-33.5,M,,*53
$PYRTM,2024,123.167017819190,14.276665229329
$GPGGA,040029.00,3408.0256,N,11950.9448,W,1,09,0.8,10.6,M,-33.5,M,,*6C
$PYRTM,2024,123.167029407731,14.276676817882
$GPGGA,040030.00,3408.0262,N,11950.9473,W,1,09,0.8,11.7,M,-33.5,M,,*6B
$PYRTM,2024,123.167040968993,14.276688379132
$GPGGA,040031.00,3408.0269,N,11950.9500,W,1,09,0.8,11.7,M,-33.5,M,,*64
$PYRTM,2024,123.167052557130,14.276699967269
$GPGGA,040032.00,3408.0275,N,11950.9528,W,1,09,0.8,11.2,M,-33.5,M,,*65
$PYRTM,2024,123.167059957477,14.276707367616
$GPGGA,040033.00,3408.0279,N,11950.9554,W,1,09,0.8,10.1,M,-33.5,M,,*61
$PYRTM,2024,123.167075699456,14.276723109606
$GPGGA,040034.00,3408.0284,N,11950.9577,W,1,09,0.8,10.0,M,-33.5,M,,*64
$PYRTM,2024,123.167083099097,14.276730509248
$GPGGA,040035.00,3408.0291,N,11950.9600,W,1,09,0.8,10.5,M,-33.5,M,,*67
$PYRTM,2024,123.167098855440,14.276746265579
$GPGGA,040036.00,3408.0299,N,11950.9623,W,1,09,0.8,10.8,M,-33.5,M,,*60
$PYRTM,2024,123.167110414248,14.276757824387
$GPGGA,040037.00,3408.0305,N,11950.9646,W,1,09,0.8,11.1,M,-33.5,M,,*6E
$PYRTM,2024,123.167117820336,14.276765230475
$GPGGA,040038.00,3408.0310,N,11950.9672,W,1,09,0.8,11.1,M,-33.5,M,,*62
$PYRTM,2024,123.167133562882,14.276780973021
$GPGGA,040039.00,3408.0315,N,11950.9699,W,1,09,0.8,10.3,M,-33.5,M,,*60
$PYRTM,2024,123.167145151771,14.276792561910
$GPGGA,040040.00,3408.0321,N,11950.9722,W,1,09,0.8,9.8,M,-33.5,M,,*5B
$PYRTM,2024,123.167156712859,14.276804122998
$GPGGA,040041.00,3408.0326,N,11950.9743,W,1,09,0.8,9.9,M,-33.5,M,,*5B
$PYRTM,2024,123.167164118113,14.276811528252
$GPGGA,040042.00,3408.0332,N,11950.9767,W,1,09,0.8,10.2,M,-33.5,M,,*68
$PYRTM,2024,123.167182751794,14.276830161933
$GPGGA,040043.00,3408.0339,N,11950.9794,W,1,09,0.8,10.4,M,-33.5,M,,*68
$PYRTM,2024,123.167194341968,14.276841752106
$GPGGA,040044.00,3408.0345,N,11950.9820,W,1,09,0.8,10.4,M,-33.5,M,,*64
$PYRTM,2024,123.167203006285,14.276850416424
$GPGGA,040045.00,3408.0352,N,11950.9845,W,1,09,0.8,10.3,M,-33.5,M,,*67
$PYRTM,2024,123.167214593356,14.276862003495
$GPGGA,040046.00,3408.0357,N,11950.9867,W,1,09,0.8,10.8,M,-33.5,M,,*6A
$PYRTM,2024,123.167226154201,14.276873564340
$GPGGA,040047.00,3408.0363,N,11950.9892,W,1,09,0.8,10.8,M,-33.5,M,,*66
$PYRTM,2024,123.167237742523,14.276885152662
$GPGGA,040048.00,3408.0370,N,11950.9920,W,1,09,0.8,10.2,M,-33.5,M,,*69
$PYRTM,2024,123.167249302743,14.276896712882
$GPGGA,040049.00,3408.0377,N,11950.9947,W,1,09,0.8,9.4,M,-33.5,M,,*50
$PYRTM,2024,123.167260891273,14.276908301424
$GPGGA,040050.00,3408.0382,N,11950.9969,W,1,09,0.8,9.7,M,-33.5,M,,*5D
$PYRTM,2024,123.167272451181,14.276919861319
$GPGGA,040051.00,3408.0387,N,11950.9991,W,1,09,0.8,10.4,M,-33.5,M,,*65
$PYRTM,2024,123.167284038322,14.276931448461
$GPGGA,040052.00,3408.0393,N,11951.0018,W,1,09,0.8,10.2,M,-33.5,M,,*65
$PYRTM,2024,123.167295598773,14.276943008912
$GPGGA,040053.00,3408.0400,N,11951.0046,W,1,09,0.8,9.6,M,-33.5,M,,*5E
$PYRTM,2024,123.167307189398,14.276954599537
$GPGGA,040054.00,3408.0406,N,11951.0068,W,1,09,0.8,9.4,M,-33.5,M,,*51
$PYRTM,2024,123.167318746736,14.276966156875
$GPGGA,040055.00,3408.0410,N,11951.0088,W,1,09,0.8,10.0,M,-33.5,M,,*65
$PYRTM,2024,123.167330337847,14.276977747998
$GPGGA,040056.00,3408.0415,N,11951.0114,W,1,09,0.8,10.4,M,-33.5,M,,*63
$PYRTM,2024,123.167337734236,14.276985144375
$GPGGA,040057.00,3408.0421,N,11951.0145,W,1,09,0.8,9.4,M,-33.5,M,,*59
$PYRTM,2024,123.167356376574,14.277003786713
$GPGGA,040058.00,3408.0426,N,11951.0171,W,1,09,0.8,10.1,M,-33.5,M,,*6B
$PYRTM,2024,123.167365044479,14.277012454618
$GPGGA,040059.00,3408.0430,N,11951.0191,W,1,09,0.8,10.9,M,-33.5,M,,*6B
$PYRTM,2024,123.167372452199,14.277019862338
$GPGGA,040100.00,3408.0435,N,11951.0214,W,1,09,0.8,12.0,M,-33.5,M,,*66
$PYRTM,2024,123.167388192685,14.277035602824
$GPGGA,040101.00,3408.0441,N,11951.0242,W,1,09,0.8,11.6,M,-33.5,M,,*62
$PYRTM,2024,123.167399779699,14.277047189838
$GPGGA,040102.00,3408.0447,N,11951.0271,W,1,09,0.8,10.8,M,-33.5,M,,*68
$PYRTM,2024,123.167407173576,14.277054583715
$GPGGA,040103.00,3408.0453,N,11951.0296,W,1,09,0.8,10.2,M,-33.5,M,,*6F
$PYRTM,2024,123.167422927813,14.277070337951
$GPGGA,040104.00,3408.0458,N,11951.0317,W,1,09,0.8,10.5,M,-33.5,M,,*6C
$PYRTM,2024,123.167434489387,14.277081899525
$GPGGA,040105.00,3408.0463,N,11951.0337,W,1,09,0.8,11.1,M,-33.5,M,,*62
$PYRTM,2024,123.167441897222,14.277089307361
$GPGGA,040106.00,3408.0470,N,11951.0361,W,1,09,0.8,11.6,M,-33.5,M,,*67
$PYRTM,2024,123.167457636007,14.277105046146
$GPGGA,040107.00,3408.0477,N,11951.0389,W,1,09,0.8,11.2,M,-33.5,M,,*63
$PYRTM,2024,123.167469227569,14.277116637708
$GPGGA,040108.00,3408.0484,N,11951.0412,W,1,09,0.8,10.8,M,-33.5,M,,*6E
$PYRTM,2024,123.167480786481,14.277128196620
$GPGGA,040109.00,3408.0489,N,11951.0434,W,1,09,0.8,10.5,M,-33.5,M,,*6B
$PYRTM,2024,123.167492503032,14.277139913171
$GPGGA,040110.00,3408.0494,N,11951.0457,W,1,09,0.8,10.5,M,-33.5,M,,*6A
$PYRTM,2024,123.167504050000,14.277151460139
$GPGGA,040111.00,3408.0500,N,11951.0482,W,1,09,0.8,10.7,M,-33.5,M,,*6D
$PYRTM,2024,123.167515631840,14.277163041979
$GPGGA,040112.00,3408.0506,N,11951.0509,W,1,09,0.8,10.9,M,-33.5,M,,*64
$PYRTM,2024,123.167527084120,14.277174494259
$GPGGA,040113.00,3408.0513,N,11951.0536,W,1,09,0.8,11.0,M,-33.5,M,,*65
$PYRTM,2024,123.167538670370,14.277186080509
$GPGGA,040114.00,3408.0518,N,11951.0561,W,1,09,0.8,11.2,M,-33.5,M,,*69
$PYRTM,2024,123.167546077488,14.277193487627
$GPGGA,040115.00,3408.0524,N,11951.0583,W,1,09,0.8,11.7,M,-33.5,M,,*6E
$PYRTM,2024,123.167564706181,14.277212116319
$GPGGA,040116.00,3408.0530,N,11951.0607,W,1,09,0.8,12.0,M,-33.5,M,,*63
$PYRTM,2024,123.167576272882,14.277223683021
$GPGGA,040117.00,3408.0536,N,11951.0632,W,1,09,0.8,12.0,M,-33.5,M,,*62
$PYRTM,2024,123.167587860127,14.277235270266
$GPGGA,040118.00,3408.0541,N,11951.0659,W,1,09,0.8,10.5,M,-33.5,M,,*67
$PYRTM,2024,123.167596526956,14.277243937095
$GPGGA,040119.00,3408.0546,N,11951.0684,W,1,09,0.8,10.1,M,-33.5,M,,*65
$PYRTM,2024,123.167603934074,14.277251344213
$GPGGA,040120.00,3408.0552,N,11951.0709,W,1,09,0.8,9.7,M,-33.5,M,,*50
$PYRTM,2024,123.167619675440,14.277267085567
$GPGGA,040121.00,3408.0559,N,11951.0733,W,1,09,0.8,9.9,M,-33.5,M,,*5D
$PYRTM,2024,123.167631275833,14.277278685972
$GPGGA,040122.00,3408.0564,N,11951.0756,W,1,09,0.8,10.3,M,-33.5,M,,*61
$PYRTM,2024,123.167638658299,14.277286068449
$GPGGA,040123.00,3408.0570,N,11951.0782,W,1,09,0.8,11.0,M,-33.5,M,,*6E
$PYRTM,2024,123.167654425694,14.277301835833
$GPGGA,040124.00,3408.0576,N,11951.0808,W,1,09,0.8,10.9,M,-33.5,M,,*6A
$PYRTM,2024,123.167665972581,14.277313382720
$GPGGA,040125.00,3408.0582,N,11951.0832,W,1,09,0.8,10.8,M,-33.5,M,,*68
$PYRTM,2024,123.167673379618,14.277320789757
$GPGGA,040126.00,3408.0589,N,11951.0857,W,1,09,0.8,10.3,M,-33.5,M,,*68
$PYRTM,2024,123.167689119421,14.277336529560
$GPGGA,040127.00,3408.0596,N,11951.0884,W,1,09,0.8,9.9,M,-33.5,M,,*5B
$PYRTM,2024,123.167696528125,14.277343938264
$GPGGA,040128.00,3408.0602,N,11951.0908,W,1,09,0.8,9.8,M,-33.5,M,,*5E
$PYRTM,2024,123.167715161771,14.277362571910
$GPGGA,040129.00,3408.0607,N,11951.0930,W,1,09,0.8,10.1,M,-33.5,M,,*60
$PYRTM,2024,123.167723850660,14.277371260810
$GPGGA,040130.00,3408.0612,N,11951.0955,W,1,09,0.8,10.4,M,-33.5,M,,*6A
$PYRTM,2024,123.167735418993,14.277382829132
$GPGGA,040131.00,3408.0619,N,11951.0986,W,1,09,0.8,10.3,M,-33.5,M,,*69
$PYRTM,2024,123.167747004410,14.277394414549
$GPGGA,040132.00,3408.0625,N,11951.1016,W,1,09,0.8,9.9,M,-33.5,M,,*56
$PYRTM,2024,123.167758565081,14.277405975220
$GPGGA,040133.00,3408.0630,N,11951.1038,W,1,09,0.8,9.8,M,-33.5,M,,*5E
$PYRTM,2024,123.167770152685,14.277417562824
$GPGGA,040134.00,3408.0636,N,11951.1059,W,1,09,0.8,11.5,M,-33.5,M,,*6C
$PYRTM,2024,123.167777548206,14.277424958345
$GPGGA,040135.00,3408.0643,N,11951.1085,W,1,09,0.8,10.2,M,-33.5,M,,*68
$PYRTM,2024,123.167793300069,14.277440710208
$GPGGA,040136.00,3408.0649,N,11951.1109,W,1,09,0.8,10.0,M,-33.5,M,,*66
$PYRTM,2024,123.167804862396,14.277452272535
$GPGGA,040137.00,3408.0656,N,11951.1130,W,1,09,0.8,10.2,M,-33.5,M,,*61
$PYRTM,2024,123.167816453021,14.277463863171
$GPGGA,040138.00,3408.0662,N,11951.1154,W,1,09,0.8,10.3,M,-33.5,M,,*6A
$PYRTM,2024,123.167828010799,14.277475420937
$GPGGA,040139.00,3408.0668,N,11951.1182,W,1,09,0.8,9.4,M,-33.5,M,,*55
$PYRTM,2024,123.167839611285,14.277487021424
$GPGGA,040140.00,3408.0674,N,11951.1207,W,1,09,0.8,9.0,M,-33.5,M,,*5C
$PYRTM,2024,123.167851160104,14.277498570243
$GPGGA,040141.00,3408.0678,N,11951.1230,W,1,09,0.8,9.4,M,-33.5,M,,*51
$PYRTM,2024,123.167862749294,14.277510159433
$GPGGA,040142.00,3408.0683,N,11951.1255,W,1,09,0.8,10.0,M,-33.5,M,,*69
$PYRTM,2024,123.167874309074,14.277521719213
$GPGGA,040143.00,3408.0690,N,11951.1281,W,1,09,0.8,10.3,M,-33.5,M,,*60
$PYRTM,2024,123.167885893646,14.277533303785
$GPGGA,040144.00,3408.0696,N,11951.1305,W,1,09,0.8,10.7,M,-33.5,M,,*68
$PYRTM,2024,123.167897456667,14.277544866806
$GPGGA,040145.00,3408.0703,N,11951.1329,W,1,09,0.8,10.7,M,-33.5,M,,*6A
$PYRTM,2024,123.167909042523,14.277556452662
$GPGGA,040146.00,3408.0709,N,11951.1353,W,1,09,0.8,9.9,M,-33.5,M,,*58
$PYRTM,2024,123.167920603843,14.277568013981
$GPGGA,040147.00,3408.0716,N,11951.1379,W,1,09,0.8,10.1,M,-33.5,M,,*6F
$PYRTM,2024,123.167928010475,14.277575420613
$GPGGA,040148.00,3408.0722,N,11951.1402,W,1,09,0.8,8.8,M,-33.5,M,,*5C
$PYRTM,2024,123.167943753044,14.277591163194
$GPGGA,040149.00,3408.0729,N,11951.1423,W,1,09,0.8,9.8,M,-33.5,M,,*54
$PYRTM,2024,123.167955338472,14.277602748611
$GPGGA,040150.00,3408.0737,N,11951.1446,W,1,09,0.8,9.9,M,-33.5,M,,*51
$PYRTM,2024,123.167966900405,14.277614310544
$GPGGA,040151.00,3408.0743,N,11951.1474,W,1,09,0.8,9.7,M,-33.5,M,,*5C
$PYRTM,2024,123.167978493067,14.277625903206
$GPGGA,040152.00,3408.0748,N,11951.1501,W,1,09,0.8,9.4,M,-33.5,M,,*54
$PYRTM,2024,123.167990048113,14.277637458252
$GPGGA,040153.00,3408.0752,N,11951.1526,W,1,09,0.8,9.5,M,-33.5,M,,*5A
$PYRTM,2024,123.168001650324,14.277649060463
$GPGGA,040154.00,3408.0757,N,11951.1551,W,1,09,0.8,9.6,M,-33.5,M,,*5B
$PYRTM,2024,123.168013196354,14.277660606493
$GPGGA,040155.00,3408.0763,N,11951.1579,W,1,09,0.8,9.4,M,-33.5,M,,*55
$PYRTM,2024,123.168024780104,14.277672190243
$GPGGA,040156.00,3408.0770,N,11951.1606,W,1,09,0.8,9.3,M,-33.5,M,,*58
$PYRTM,2024,123.168036346250,14.277683756389
$GPGGA,040157.00,3408.0777,N,11951.1630,W,1,09,0.8,9.1,M,-33.5,M,,*59
$PYRTM,2024,123.168047932419,14.277695342558
$GPGGA,040158.00,3408.0784,N,11951.1652,W,1,09,0.8,10.5,M,-33.5,M,,*62
$PYRTM,2024,123.168055339433,14.277702749572
$GPGGA,040159.00,3408.0790,N,11951.1677,W,1,09,0.8,10.8,M,-33.5,M,,*6C
$PYRTM,2024,123.168073973391,14.277721383530
$GPGGA,040200.00,3408.0796,N,11951.1704,W,1,09,0.8,10.5,M,-33.5,M,,*6D
$PYRTM,2024,123.168082641863,14.277730052002
$GPGGA,040201.00,3408.0802,N,11951.1729,W,1,09,0.8,10.2,M,-33.5,M,,*66
$PYRTM,2024,123.168090048600,14.277737458738
$GPGGA,040202.00,3408.0809,N,11951.1751,W,1,09,0.8,10.3,M,-33.5,M,,*60
$PYRTM,2024,123.168105791829,14.277753201968
$GPGGA,040203.00,3408.0816,N,11951.1777,W,1,09,0.8,10.1,M,-33.5,M,,*69
$PYRTM,2024,123.168117378553,14.277764788692
$GPGGA,040204.00,3408.0822,N,11951.1805,W,1,09,0.8,10.0,M,-33.5,M,,*62
$PYRTM,2024,123.168124772130,14.277772182269
$GPGGA,040205.00,3408.0827,N,11951.1831,W,1,09,0.8,9.9,M,-33.5,M,,*50
$PYRTM,2024,123.168140524850,14.277787934988
$GPGGA,040206.00,3408.0834,N,11951.1855,W,1,09,0.8,10.7,M,-33.5,M,,*65
$PYRTM,2024,123.168152085984,14.277799496123
$GPGGA,040207.00,3408.0841,N,11951.1878,W,1,09,0.8,11.5,M,-33.5,M,,*6A
$PYRTM,2024,123.168159493808,14.277806903947
$GPGGA,040208.00,3408.0847,N,11951.1902,W,1,09,0.8,11.8,M,-33.5,M,,*62
$PYRTM,2024,123.168175235185,14.277822645324
$GPGGA,040209.00,3408.0853,N,11951.1929,W,1,09,0.8,11.8,M,-33.5,M,,*6F
$PYRTM,2024,123.168186824826,14.277834234977
$GPGGA,040210.00,3408.0858,N,11951.1958,W,1,09,0.8,10.6,M,-33.5,M,,*65
$PYRTM,2024,123.168198383229,14.277845793368
$GPGGA,040211.00,3408.0865,N,11951.1983,W,1,09,0.8,9.7,M,-33.5,M,,*55
$PYRTM,2024,123.168209966285,14.277857376424
$GPGGA,040212.00,3408.0872,N,11951.2005,W,1,09,0.8,9.5,M,-33.5,M,,*56
$PYRTM,2024,123.168221532303,14.277868942442
$GPGGA,040213.00,3408.0879,N,11951.2026,W,1,09,0.8,10.1,M,-33.5,M,,*61
$PYRTM,2024,123.168233114190,14.277880524329
$GPGGA,040214.00,3408.0886,N,11951.2053,W,1,09,0.8,10.1,M,-33.5,M,,*64
$PYRTM,2024,123.168244681493,14.277892091632
$GPGGA,040215.00,3408.0892,N,11951.2083,W,1,09,0.8,9.8,M,-33.5,M,,*5C
$PYRTM,2024,123.168256267083,14.277903677222
$GPGGA,040216.00,3408.0896,N,11951.2110,W,1,09,0.8,9.3,M,-33.5,M,,*5B
$PYRTM,2024,123.168267828715,14.277915238854
$GPGGA,040217.00,3408.0902,N,11951.2135,W,1,09,0.8,9.1,M,-33.5,M,,*53
$PYRTM,2024,123.168279413738,14.277926823877
$GPGGA,040218.00,3408.0908,N,11951.2160,W,1,09,0.8,9.4,M,-33.5,M,,*53
$PYRTM,2024,123.168290976262,14.277938386400
$GPGGA,040219.00,3408.0914,N,11951.2184,W,1,09,0.8,9.9,M,-33.5,M,,*58
$PYRTM,2024,123.168298383715,14.277945793854
$GPGGA,040220.00,3408.0919,N,11951.2211,W,1,09,0.8,10.9,M,-33.5,M,,*68
$PYRTM,2024,123.168314125289,14.277961535428
$GPGGA,040221.00,3408.0924,N,11951.2242,W,1,09,0.8,9.8,M,-33.5,M,,*58
$PYRTM,2024,123.168325724676,14.277973134815
$GPGGA,040222.00,3408.0931,N,11951.2268,W,1,09,0.8,9.3,M,-33.5,M,,*5C
$PYRTM,2024,123.168337272292,14.277984682431
$GPGGA,040223.00,3408.0936,N,11951.2287,W,1,09,0.8,9.7,M,-33.5,M,,*5F
$PYRTM,2024,123.168348862454,14.277996272593
$GPGGA,040224.00,3408.0944,N,11951.2306,W,1,09,0.8,10.9,M,-33.5,M,,*63
$PYRTM,2024,123.168356254699,14.278003664838
$GPGGA,040225.00,3408.0952,N,11951.2333,W,1,09,0.8,10.3,M,-33.5,M,,*69
$PYRTM,2024,123.168372022963,14.278019433102
$GPGGA,040226.00,3408.0957,N,11951.2360,W,1,09,0.8,9.6,M,-33.5,M,,*54
$PYRTM,2024,123.168383569502,14.278030979641
$GPGGA,040227.00,3408.0963,N,11951.2383,W,1,09,0.8,9.2,M,-33.5,M,,*5B
$PYRTM,2024,123.168390976343,14.278038386481
$GPGGA,040228.00,3408.0969,N,11951.2406,W,1,09,0.8,9.3,M,-33.5,M,,*55
$PYRTM,2024,123.168406719687,14.278054129826
$GPGGA,040229.00,3408.0976,N,11951.2431,W,1,09,0.8,10.2,M,-33.5,M,,*67
$PYRTM,2024,123.168418308322,14.278065718461
$GPGGA,040230.00,3408.0982,N,11951.2459,W,1,09,0.8,9.6,M,-33.5,M,,*56
$PYRTM,2024,123.168425700185,14.278073110336
$GPGGA,040231.00,3408.0986,N,11951.2485,W,1,09,0.8,9.8,M,-33.5,M,,*5C
$PYRTM,2024,123.168441460451,14.278088870590
$GPGGA,040232.00,3408.0990,N,11951.2507,W,1,09,0.8,10.0,M,-33.5,M,,*63
$PYRTM,2024,123.168453016308,14.278100426458
$GPGGA,040233.00,3408.0997,N,11951.2533,W,1,09,0.8,9.9,M,-33.5,M,,*53
$PYRTM,2024,123.168464602130,14.278112012269
$GPGGA,040234.00,3408.1004,N,11951.2558,W,1,09,0.8,9.6,M,-33.5,M,,*54
$PYRTM,2024,123.168476164514,14.278123574653
$GPGGA,040235.00,3408.1010,N,11951.2581,W,1,09,0.8,9.4,M,-33.5,M,,*56
$PYRTM,2024,123.168487752257,14.278135162407
$GPGGA,040236.00,3408.1016,N,11951.2605,W,1,09,0.8,10.0,M,-33.5,M,,*60
$PYRTM,2024,123.168495143692,14.278142553831
$GPGGA,040237.00,3408.1022,N,11951.2632,W,1,09,0.8,9.5,M,-33.5,M,,*5F
$PYRTM,2024,123.168510901458,14.278158311597
$GPGGA,040238.00,3408.1028,N,11951.2657,W,1,09,0.8,9.1,M,-33.5,M,,*5D
$PYRTM,2024,123.168522458877,14.278169869016
$GPGGA,040239.00,3408.1033,N,11951.2678,W,1,09,0.8,9.5,M,-33.5,M,,*5F
$PYRTM,2024,123.168534046377,14.278181456516
$GPGGA,040240.00,3408.1038,N,11951.2702,W,1,09,0.8,10.6,M,-33.5,M,,*6D
$PYRTM,2024,123.168545606991,14.278193017130
$GPGGA,040241.00,3408.1044,N,11951.2731,W,1,09,0.8,10.2,M,-33.5,M,,*63
$PYRTM,2024,123.168557194595,14.278204604734
$GPGGA,040242.00,3408.1049,N,11951.2757,W,1,09,0.8,9.8,M,-33.5,M,,*5F
$PYRTM,2024,123.168568755579,14.278216165718
$GPGGA,040243.00,3408.1054,N,11951.2777,W,1,09,0.8,10.4,M,-33.5,M,,*64
$PYRTM,2024,123.168580338623,14.278227748762
$GPGGA,040244.00,3408.1060,N,11951.2799,W,1,09,0.8,10.9,M,-33.5,M,,*69
$PYRTM,2024,123.168587752662,14.278235162801
$GPGGA,040245.00,3408.1067,N,11951.2825,W,1,09,0.8,11.0,M,-33.5,M,,*6F
$PYRTM,2024,123.168603490590,14.278250900729
$GPGGA,040246.00,3408.1073,N,11951.2853,W,1,09,0.8,9.9,M,-33.5,M,,*58
$PYRTM,2024,123.168615064745,14.278262474884
$GPGGA,040247.00,3408.1079,N,11951.2877,W,1,09,0.8,9.3,M,-33.5,M,,*5F
$PYRTM,2024,123.168626640301,14.278274050440
$GPGGA,040248.00,3408.1085,N,11951.2897,W,1,09,0.8,9.7,M,-33.5,M,,*59
$PYRTM,2024,123.168638213692,14.278285623831
$GPGGA,040249.00,3408.1093,N,11951.2920,W,1,09,0.8,11.1,M,-33.5,M,,*6D
$PYRTM,2024,123.168649790799,14.278297200938
$GPGGA,040250.00,3408.1099,N,11951.2949,W,1,09,0.8,10.6,M,-33.5,M,,*66
$PYRTM,2024,123.168657181412,14.278304591551
$GPGGA,040251.00,3408.1103,N,11951.2978,W,1,09,0.8,9.9,M,-33.5,M,,*50
$PYRTM,2024,123.168672937639,14.278320347766
$GPGGA,040252.00,3408.1108,N,11951.3002,W,1,09,0.8,10.3,M,-33.5,M,,*6F
$PYRTM,2024,123.168684509583,14.278331919722
$GPGGA,040253.00,3408.1114,N,11951.3023,W,1,09,0.8,10.1,M,-33.5,M,,*62
$PYRTM,2024,123.168696087477,14.278343497616
$GPGGA,040254.00,3408.1122,N,11951.3046,W,1,09,0.8,10.2,M,-33.5,M,,*60
$PYRTM,2024,123.168707658669,14.278355068808
$GPGGA,040255.00,3408.1128,N,11951.3073,W,1,09,0.8,9.9,M,-33.5,M,,*5E
$PYRTM,2024,123.168719235185,14.278366645336
$GPGGA,040256.00,3408.1133,N,11951.3097,W,1,09,0.8,10.0,M,-33.5,M,,*6C
$PYRTM,2024,123.168730805810,14.278378215961
$GPGGA,040257.00,3408.1138,N,11951.3120,W,1,09,0.8,10.2,M,-33.5,M,,*69
$PYRTM,2024,123.168742382708,14.278389792847
$GPGGA,040258.00,3408.1144,N,11951.3144,W,1,09,0.8,10.5,M,-33.5,M,,*68
$PYRTM,2024,123.168753955197,14.278401365336
$GPGGA,040259.00,3408.1152,N,11951.3167,W,1,09,0.8,10.8,M,-33.5,M,,*62
$PYRTM,2024,123.168761349734,14.278408759873
$GPGGA,040300.00,3408.1159,N,11951.3194,W,1,09,0.8,10.4,M,-33.5,M,,*64
$PYRTM,2024,123.168779983345,14.278427393484
$GPGGA,040301.00,3408.1165,N,11951.3223,W,1,09,0.8,10.4,M,-33.5,M,,*65
$PYRTM,2024,123.168788676597,14.278436086736
$GPGGA,040302.00,3408.1170,N,11951.3249,W,1,09,0.8,9.0,M,-33.5,M,,*52
$PYRTM,2024,123.168800251007,14.278447661146
$GPGGA,040303.00,3408.1176,N,11951.3270,W,1,09,0.8,9.5,M,-33.5,M,,*5A
$PYRTM,2024,123.168811826019,14.278459236157
$GPGGA,040304.00,3408.1183,N,11951.3291,W,1,09,0.8,10.1,M,-33.5,M,,*64
$PYRTM,2024,123.168823398877,14.278470809016
$GPGGA,040305.00,3408.1190,N,11951.3318,W,1,09,0.8,9.7,M,-33.5,M,,*59
$PYRTM,2024,123.168830793287,14.278478203426
$GPGGA,040306.00,3408.1196,N,11951.3344,W,1,09,0.8,9.2,M,-33.5,M,,*50
$PYRTM,2024,123.168846547836,14.278493957975
$GPGGA,040307.00,3408.1200,N,11951.3365,W,1,09,0.8,9.3,M,-33.5,M,,*5F
$PYRTM,2024,123.168858124954,14.278505535093
$GPGGA,040308.00,3408.1207,N,11951.3386,W,1,09,0.8,9.2,M,-33.5,M,,*5B
$PYRTM,2024,123.168865517222,14.278512927373
$GPGGA,040309.00,3408.1215,N,11951.3414,W,1,09,0.8,8.4,M,-33.5,M,,*52
$PYRTM,2024,123.168881274375,14.278528684514
$GPGGA,040310.00,3408.1222,N,11951.3442,W,1,09,0.8,7.5,M,-33.5,M,,*53
$PYRTM,2024,123.168892839155,14.278540249294
$GPGGA,040311.00,3408.1226,N,11951.3466,W,1,09,0.8,8.6,M,-33.5,M,,*5C
$PYRTM,2024,123.168904419363,14.278551829502
$GPGGA,040312.00,3408.1229,N,11951.3489,W,1,09,0.8,9.3,M,-33.5,M,,*55
$PYRTM,2024,123.168915993646,14.278563403785
$GPGGA,040313.00,3408.1235,N,11951.3514,W,1,09,0.8,10.1,M,-33.5,M,,*66
$PYRTM,2024,123.168927567176,14.278574977315
$GPGGA,040314.00,3408.1242,N,11951.3541,W,1,09,0.8,10.0,M,-33.5,M,,*60
$PYRTM,2024,123.168934976539,14.278582386678
$GPGGA,040315.00,3408.1249,N,11951.3567,W,1,09,0.8,9.3,M,-33.5,M,,*55
$PYRTM,2024,123.168950716748,14.278598126887
$GPGGA,040316.00,3408.1254,N,11951.3591,W,1,09,0.8,9.0,M,-33.5,M,,*50
$PYRTM,2024,123.168962290706,14.278609700845
$GPGGA,040317.00,3408.1257,N,11951.3616,W,1,09,0.8,8.8,M,-33.5,M,,*57
$PYRTM,2024,123.168969684051,14.278617094190
$GPGGA,040318.00,3408.1261,N,11951.3641,W,1,09,0.8,9.0,M,-33.5,M,,*56
$PYRTM,2024,123.168985436829,14.278632846968
$GPGGA,040319.00,3408.1268,N,11951.3664,W,1,09,0.8,9.3,M,-33.5,M,,*5A
$PYRTM,2024,123.168997011470,14.278644421609
$GPGGA,040320.00,3408.1275,N,11951.3690,W,1,09,0.8,10.0,M,-33.5,M,,*6C
$PYRTM,2024,123.169004407940,14.278651818079
$GPGGA,040321.00,3408.1281,N,11951.3717,W,1,09,0.8,9.7,M,-33.5,M,,*57
$PYRTM,2024,123.169020163576,14.278667573715
$GPGGA,040322.00,3408.1286,N,11951.3744,W,1,09,0.8,9.7,M,-33.5,M,,*55
$PYRTM,2024,123.169027555579,14.278674965718
$GPGGA,040323.00,3408.1290,N,11951.3769,W,1,09,0.8,9.8,M,-33.5,M,,*53
$PYRTM,2024,123.169046216042,14.278693626181
$GPGGA,040324.00,3408.1294,N,11951.3792,W,1,09,0.8,10.0,M,-33.5,M,,*64
$PYRTM,2024,123.169054881875,14.278702292014
$GPGGA,040325.00,3408.1303,N,11951.3817,W,1,09,0.8,10.0,M,-33.5,M,,*68
$PYRTM,2024,123.169066470856,14.278713880995
$GPGGA,040326.00,3408.1312,N,11951.3843,W,1,09,0.8,9.8,M,-33.5,M,,*5A
$PYRTM,2024,123.169073892280,14.278721302419
$GPGGA,040327.00,3408.1318,N,11951.3867,W,1,09,0.8,10.1,M,-33.5,M,,*66
$PYRTM,2024,123.169089603796,14.278737013935
$GPGGA,040328.00,3408.1322,N,11951.3889,W,1,09,0.8,10.6,M,-33.5,M,,*67
$PYRTM,2024,123.169101178530,14.278748588669
$GPGGA,040329.00,3408.1327,N,11951.3915,W,1,09,0.8,10.9,M,-33.5,M,,*68
$PYRTM,2024,123.169108572847,14.278755982998
$GPGGA,040330.00,3408.1335,N,11951.3941,W,1,09,0.8,10.9,M,-33.5,M,,*62
$PYRTM,2024,123.169120277176,14.278767687315
$GPGGA,040331.00,3408.1342,N,11951.3967,W,1,09,0.8,10.6,M,-33.5,M,,*68
$PYRTM,2024,123.169138789549,14.278786199687
$GPGGA,040332.00,3408.1350,N,11951.3992,W,1,09,0.8,10.4,M,-33.5,M,,*60
$PYRTM,2024,123.169150354676,14.278797764815
$GPGGA,040333.00,3408.1356,N,11951.4017,W,1,09,0.8,10.2,M,-33.5,M,,*62
$PYRTM,2024,123.169161943241,14.278809353380
$GPGGA,040334.00,3408.1361,N,11951.4043,W,1,09,0.8,9.9,M,-33.5,M,,*53
$PYRTM,2024,123.169170623194,14.278818033333
$GPGGA,040335.00,3408.1366,N,11951.4068,W,1,09,0.8,9.8,M,-33.5,M,,*5D
$PYRTM,2024,123.169182198808,14.278829608947
$GPGGA,040336.00,3408.1373,N,11951.4089,W,1,09,0.8,10.1,M,-33.5,M,,*64
$PYRTM,2024,123.169193772419,14.278841182558
$GPGGA,040337.00,3408.1382,N,11951.4114,W,1,09,0.8,10.4,M,-33.5,M,,*6B
$PYRTM,2024,123.169205350382,14.278852760521
$GPGGA,040338.00,3408.1389,N,11951.4143,W,1,09,0.8,9.8,M,-33.5,M,,*59
$PYRTM,2024,123.169212740093,14.278860150231
$GPGGA,040339.00,3408.1393,N,11951.4170,W,1,09,0.8,9.5,M,-33.5,M,,*5E
$PYRTM,2024,123.169228508530,14.278875918669
$GPGGA,040340.00,3408.1396,N,11951.4195,W,1,09,0.8,9.8,M,-33.5,M,,*53
$PYRTM,2024,123.169240067963,14.278887478102
$GPGGA,040341.00,3408.1402,N,11951.4220,W,1,09,0.8,10.3,M,-33.5,M,,*66
$PYRTM,2024,123.169247463900,14.278894874039
$GPGGA,040342.00,3408.1411,N,11951.4242,W,1,09,0.8,10.8,M,-33.5,M,,*68
$PYRTM,2024,123.169263215775,14.278910625914
$GPGGA,040343.00,3408.1419,N,11951.4270,W,1,09,0.8,10.0,M,-33.5,M,,*68
$PYRTM,2024,123.169274793484,14.278922203623
$GPGGA,040344.00,3408.1424,N,11951.4298,W,1,09,0.8,9.3,M,-33.5,M,,*5C
$PYRTM,2024,123.169282198299,14.278929608438
$GPGGA,040345.00,3408.1428,N,11951.4320,W,1,09,0.8,9.4,M,-33.5,M,,*54
$PYRTM,2024,123.169297938565,14.278945348704
$GPGGA,040346.00,3408.1436,N,11951.4340,W,1,09,0.8,9.6,M,-33.5,M,,*5C
$PYRTM,2024,123.169309513229,14.278956923368
$GPGGA,040347.00,3408.1445,N,11951.4367,W,1,09,0.8,9.8,M,-33.5,M,,*52
$PYRTM,2024,123.169321087014,14.278968497153
$GPGGA,040348.00,3408.1451,N,11951.4396,W,1,09,0.8,9.2,M,-33.5,M,,*5C
$PYRTM,2024,123.169332661470,14.278980071609
$GPGGA,040349.00,3408.1455,N,11951.4419,W,1,09,0.8,9.6,M,-33.5,M,,*5D
$PYRTM,2024,123.169344235197,14.278991645336
$GPGGA,040350.00,3408.1458,N,11951.4441,W,1,09,0.8,10.4,M,-33.5,M,,*6F
$PYRTM,2024,123.169355809919,14.279003220046
$GPGGA,040351.00,3408.1465,N,11951.4468,W,1,09,0.8,10.5,M,-33.5,M,,*6A
$PYRTM,2024,123.169367383970,14.279014794109
$GPGGA,040352.00,3408.1473,N,11951.4494,W,1,09,0.8,10.3,M,-33.5,M,,*6B
$PYRTM,2024,123.169378959537,14.279026369676
$GPGGA,040353.00,3408.1479,N,11951.4516,W,1,09,0.8,10.2,M,-33.5,M,,*6A
$PYRTM,2024,123.169386353275,14.279033763414
$GPGGA,040354.00,3408.1484,N,11951.4539,W,1,09,0.8,10.2,M,-33.5,M,,*62
$PYRTM,2024,123.169402106852,14.279049516991
$GPGGA,040355.00,3408.1489,N,11951.4565,W,1,09,0.8,9.6,M,-33.5,M,,*5B
$PYRTM,2024,123.169409501782,14.279056911921
$GPGGA,040356.00,3408.1495,N,11951.4589,W,1,09,0.8,9.3,M,-33.5,M,,*52
$PYRTM,2024,123.169428136238,14.279075546389
$GPGGA,040357.00,3408.1503,N,11951.4611,W,1,09,0.8,10.3,M,-33.5,M,,*67
$PYRTM,2024,123.169439724687,14.279087134826
$GPGGA,040358.00,3408.1509,N,11951.4635,W,1,09,0.8,10.7,M,-33.5,M,,*60
$PYRTM,2024,123.169448402975,14.279095813113
$GPGGA,040359.00,3408.1514,N,11951.4662,W,1,09,0.8,10.6,M,-33.5,M,,*6E
$PYRTM,2024,123.169455797882,14.279103208021
$GPGGA,040400.00,3408.1520,N,11951.4686,W,1,09,0.8,9.9,M,-33.5,M,,*5F
$PYRTM,2024,123.169471549977,14.279118960116
$GPGGA,040401.00,3408.1525,N,11951.4707,W,1,09,0.8,10.2,M,-33.5,M,,*60
$PYRTM,2024,123.169478945590,14.279126355729
$GPGGA,040402.00,3408.1532,N,11951.4730,W,1,09,0.8,10.6,M,-33.5,M,,*65
$PYRTM,2024,123.169497579410,14.279144989549
$GPGGA,040403.00,3408.1539,N,11951.4758,W,1,09,0.8,10.3,M,-33.5,M,,*64
$PYRTM,2024,123.169506273333,14.279153683472
$GPGGA,040404.00,3408.1545,N,11951.4784,W,1,09,0.8,9.5,M,-33.5,M,,*57
$PYRTM,2024,123.169517847292,14.279165257431
$GPGGA,040405.00,3408.1550,N,11951.4808,W,1,09,0.8,9.2,M,-33.5,M,,*5E
$PYRTM,2024,123.169525242350,14.279172652488
$GPGGA,040406.00,3408.1555,N,11951.4832,W,1,09,0.8,9.9,M,-33.5,M,,*5A
$PYRTM,2024,123.169540995301,14.279188405440
$GPGGA,040407.00,3408.1561,N,11951.4858,W,1,09,0.8,10.3,M,-33.5,M,,*62
$PYRTM,2024,123.169552583600,14.279199993738
$GPGGA,040408.00,3408.1568,N,11951.4884,W,1,09,0.8,9.5,M,-33.5,M,,*5B
$PYRTM,2024,123.169559965625,14.279207375764
$GPGGA,040409.00,3408.1575,N,11951.4910,W,1,09,0.8,8.4,M,-33.5,M,,*5A
$PYRTM,2024,123.169575732593,14.279223142731
$GPGGA,040410.00,3408.1581,N,11951.4932,W,1,09,0.8,8.4,M,-33.5,M,,*59
$PYRTM,2024,123.169587294352,14.279234704491
$GPGGA,040411.00,3408.1586,N,11951.4955,W,1,09,0.8,9.3,M,-33.5,M,,*58
$PYRTM,2024,123.169598880868,14.279246291007
$GPGGA,040412.00,3408.1590,N,11951.4978,W,1,09,0.8,10.2,M,-33.5,M,,*6A
$PYRTM,2024,123.169610440556,14.279257850694
$GPGGA,040413.00,3408.1597,N,11951.5003,W,1,09,0.8,10.0,M,-33.5,M,,*6A
$PYRTM,2024,123.169622014988,14.279269425127
$GPGGA,040414.00,3408.1604,N,11951.5030,W,1,09,0.8,9.5,M,-33.5,M,,*59
$PYRTM,2024,123.169633588785,14.279280998924
$GPGGA,040415.00,3408.1610,N,11951.5056,W,1,09,0.8,8.3,M,-33.5,M,,*5A
$PYRTM,2024,123.169645163750,14.279292573889
$GPGGA,040416.00,3408.1615,N,11951.5081,W,1,09,0.8,7.4,M,-33.5,M,,*5E
$PYRTM,2024,123.169656737500,14.279304147639
$GPGGA,040417.00,3408.1619,N,11951.5104,W,1,09,0.8,7.6,M,-33.5,M,,*5D
$PYRTM,2024,123.169668312535,14.279315722662
$GPGGA,040418.00,3408.1625,N,11951.5125,W,1,09,0.8,8.8,M,-33.5,M,,*5F
$PYRTM,2024,123.169679988600,14.279327398750
$GPGGA,040419.00,3408.1632,N,11951.5148,W,1,09,0.8,10.1,M,-33.5,M,,*63
$PYRTM,2024,123.169691459780,14.279338869919
$GPGGA,040420.00,3408.1640,N,11951.5178,W,1,09,0.8,10.2,M,-33.5,M,,*6C
$PYRTM,2024,123.169698855313,14.279346265463
$GPGGA,040421.00,3408.1644,N,11951.5208,W,1,09,0.8,9.4,M,-33.5,M,,*53
$PYRTM,2024,123.169714608681,14.279362018831
$GPGGA,040422.00,3408.1647,N,11951.5230,W,1,09,0.8,9.3,M,-33.5,M,,*5F
$PYRTM,2024,123.169726182697,14.279373592836
$GPGGA,040423.00,3408.1652,N,11951.5249,W,1,09,0.8,9.7,M,-33.5,M,,*50
$PYRTM,2024,123.169733577662,14.279380987801
$GPGGA,040424.00,3408.1662,N,11951.5274,W,1,09,0.8,9.8,M,-33.5,M,,*55
$PYRTM,2024,123.169749330856,14.279396740995
$GPGGA,040425.00,3408.1669,N,11951.5303,W,1,09,0.8,9.0,M,-33.5,M,,*56
$PYRTM,2024,123.169760907650,14.279408317789
$GPGGA,040426.00,3408.1673,N,11951.5326,W,1,09,0.8,9.3,M,-33.5,M,,*5A
$PYRTM,2024,123.169768300370,14.279415710498
$GPGGA,040427.00,3408.1678,N,11951.5343,W,1,09,0.8,9.9,M,-33.5,M,,*59
$PYRTM,2024,123.169784055301,14.279431465440
$GPGGA,040428.00,3408.1685,N,11951.5367,W,1,09,0.8,10.2,M,-33.5,M,,*61
$PYRTM,2024,123.169791462639,14.279438872778
$GPGGA,040429.00,3408.1692,N,11951.5396,W,1,09,0.8,9.2,M,-33.5,M,,*50
$PYRTM,2024,123.169807196597,14.279454606736
$GPGGA,040430.00,3408.1696,N,11951.5419,W,1,09,0.8,9.0,M,-33.5,M,,*5E
$PYRTM,2024,123.169818775208,14.279466185347
$GPGGA,040431.00,3408.1700,N,11951.5435,W,1,09,0.8,9.6,M,-33.5,M,,*59
$PYRTM,2024,123.169830349444,14.279477759583
$GPGGA,040432.00,3408.1707,N,11951.5455,W,1,09,0.8,10.1,M,-33.5,M,,*64
$PYRTM,2024,123.169837744410,14.279485154549
$GPGGA,040433.00,3408.1713,N,11951.5483,W,1,09,0.8,9.2,M,-33.5,M,,*50
$PYRTM,2024,123.169856391701,14.279503801840
$GPGGA,040434.00,3408.1717,N,11951.5509,W,1,09,0.8,8.7,M,-33.5,M,,*54
$PYRTM,2024,123.169865066956,14.279512477095
$GPGGA,040435.00,3408.1721,N,11951.5530,W,1,09,0.8,9.1,M,-33.5,M,,*5D
$PYRTM,2024,123.169876649190,14.279524059329
$GPGGA,040436.00,3408.1726,N,11951.5551,W,1,09,0.8,8.6,M,-33.5,M,,*58
$PYRTM,2024,123.169888219734,14.279535629873
$GPGGA,040437.00,3408.1732,N,11951.5574,W,1,09,0.8,9.1,M,-33.5,M,,*5D
$PYRTM,2024,123.169899809178,14.279547219317
$GPGGA,040438.00,3408.1738,N,11951.5597,W,1,09,0.8,9.4,M,-33.5,M,,*50
$PYRTM,2024,123.169911369502,14.279558779641
$GPGGA,040439.00,3408.1743,N,11951.5624,W,1,09,0.8,8.9,M,-33.5,M,,*5A
$PYRTM,2024,123.169918763461,14.279566173600
$GPGGA,040440.00,3408.1747,N,11951.5649,W,1,09,0.8,9.0,M,-33.5,M,,*53
$PYRTM,2024,123.169934517928,14.279581928067
$GPGGA,040441.00,3408.1751,N,11951.5671,W,1,09,0.8,8.6,M,-33.5,M,,*59
$PYRTM,2024,123.169946091435,14.279593501562
$GPGGA,040442.00,3408.1757,N,11951.5692,W,1,09,0.8,8.4,M,-33.5,M,,*53
$PYRTM,2024,123.169953501505,14.279600911655
$GPGGA,040443.00,3408.1765,N,11951.5712,W,1,09,0.8,8.7,M,-33.5,M,,*59
$PYRTM,2024,123.169969241354,14.279616651493
$GPGGA,040444.00,3408.1773,N,11951.5735,W,1,09,0.8,9.2,M,-33.5,M,,*58
$PYRTM,2024,123.169980814306,14.279628224444
$GPGGA,040445.00,3408.1777,N,11951.5760,W,1,09,0.8,10.0,M,-33.5,M,,*67
$PYRTM,2024,123.169992389722,14.279639799861
$GPGGA,040446.00,3408.1780,N,11951.5788,W,1,09,0.8,9.7,M,-33.5,M,,*55
$PYRTM,2024,123.170003961563,14.279651371701
$GPGGA,040447.00,3408.1785,N,11951.5814,W,1,09,0.8,8.9,M,-33.5,M,,*54
$PYRTM,2024,123.170015538148,14.279662948287
$GPGGA,040448.00,3408.1792,N,11951.5834,W,1,09,0.8,8.8,M,-33.5,M,,*5E
$PYRTM,2024,123.170027110278,14.279674520428
$GPGGA,040449.00,3408.1800,N,11951.5853,W,1,09,0.8,9.0,M,-33.5,M,,*53
$PYRTM,2024,123.170038686644,14.279686096771
$GPGGA,040450.00,3408.1805,N,11951.5878,W,1,09,0.8,9.0,M,-33.5,M,,*57
$PYRTM,2024,123.170050259352,14.279697669491
$GPGGA,040451.00,3408.1809,N,11951.5907,W,1,09,0.8,8.6,M,-33.5,M,,*54
$PYRTM,2024,123.170061846493,14.279709256632
$GPGGA,040452.00,3408.1814,N,11951.5932,W,1,09,0.8,8.3,M,-33.5,M,,*58
$PYRTM,2024,123.170073406169,14.279720816308
$GPGGA,040453.00,3408.1822,N,11951.5954,W,1,09,0.8,8.7,M,-33.5,M,,*58
$PYRTM,2024,123.170084984722,14.279732394861
$GPGGA,040454.00,3408.1830,N,11951.5977,W,1,09,0.8,9.3,M,-33.5,M,,*58
$PYRTM,2024,123.170092376759,14.279739786898
$GPGGA,040455.00,3408.1835,N,11951.6002,W,1,09,0.8,9.5,M,-33.5,M,,*52
$PYRTM,2024,123.170108129630,14.279755539769
$GPGGA,040456.00,3408.1838,N,11951.6026,W,1,09,0.8,9.8,M,-33.5,M,,*57
$PYRTM,2024,123.170119702894,14.279767113032
$GPGGA,040457.00,3408.1844,N,11951.6051,W,1,09,0.8,9.2,M,-33.5,M,,*57
$PYRTM,2024,123.170131277523,14.279778687662
$GPGGA,040458.00,3408.1853,N,11951.6077,W,1,09,0.8,8.7,M,-33.5,M,,*5E
$PYRTM,2024,123.170142851644,14.279790261782
$GPGGA,040459.00,3408.1860,N,11951.6099,W,1,09,0.8,8.3,M,-33.5,M,,*5B
$PYRTM,2024,123.170154421690,14.279801831829
$GPGGA,040500.00,3408.1865,N,11951.6117,W,1,09,0.8,8.7,M,-33.5,M,,*50
$PYRTM,2024,123.170161820370,14.279809230509
$GPGGA,040501.00,3408.1870,N,11951.6139,W,1,09,0.8,9.2,M,-33.5,M,,*5D
$PYRTM,2024,123.170177572824,14.279824982963
$GPGGA,040502.00,3408.1877,N,11951.6169,W,1,09,0.8,9.1,M,-33.5,M,,*5F
$PYRTM,2024,123.170189147766,14.279836557905
$GPGGA,040503.00,3408.1884,N,11951.6196,W,1,09,0.8,8.9,M,-33.5,M,,*5B
$PYRTM,2024,123.170196543252,14.279843953391
$GPGGA,040504.00,3408.1889,N,11951.6216,W,1,09,0.8,9.2,M,-33.5,M,,*50
$PYRTM,2024,123.170215177847,14.279862587986
$GPGGA,040505.00,3408.1895,N,11951.6236,W,1,09,0.8,9.5,M,-33.5,M,,*59
$PYRTM,2024,123.170223875486,14.279871285625
$GPGGA,040506.00,3408.1901,N,11951.6264,W,1,09,0.8,8.9,M,-33.5,M,,*5C
$PYRTM,2024,123.170235444398,14.279882854537
$GPGGA,040507.00,3408.1907,N,11951.6293,W,1,09,0.8,9.0,M,-33.5,M,,*5B
$PYRTM,2024,123.170247023021,14.279894433160
$GPGGA,040508.00,3408.1912,N,11951.6315,W,1,09,0.8,9.4,M,-33.5,M,,*5B
$PYRTM,2024,123.170258592951,14.279906003090
$GPGGA,040509.00,3408.1918,N,11951.6336,W,1,09,0.8,10.3,M,-33.5,M,,*6E
$PYRTM,2024,123.170270166910,14.279917577049
$GPGGA,040510.00,3408.1923,N,11951.6358,W,1,09,0.8,10.9,M,-33.5,M,,*6C
$PYRTM,2024,123.170281736713,14.279929146852
$GPGGA,040511.00,3408.1928,N,11951.6382,W,1,09,0.8,10.7,M,-33.5,M,,*6F
$PYRTM,2024,123.170293318507,14.279940728646
$GPGGA,040512.00,3408.1934,N,11951.6409,W,1,09,0.8,9.4,M,-33.5,M,,*5E
$PYRTM,2024,123.170304890451,14.279952300602
$GPGGA,040513.00,3408.1941,N,11951.6434,W,1,09,0.8,8.3,M,-33.5,M,,*55
$PYRTM,2024,123.170316463657,14.279963873796
$GPGGA,040514.00,3408.1948,N,11951.6456,W,1,09,0.8,8.1,M,-33.5,M,,*5D
$PYRTM,2024,123.170328037442,14.279975447581
$GPGGA,040515.00,3408.1954,N,11951.6478,W,1,09,0.8,9.4,M,-33.5,M,,*59
$PYRTM,2024,123.170339611956,14.279987022095
$GPGGA,040516.00,3408.1958,N,11951.6503,W,1,09,0.8,10.4,M,-33.5,M,,*63
$PYRTM,2024,123.170351186181,14.279998596319
$GPGGA,040517.00,3408.1964,N,11951.6531,W,1,09,0.8,10.6,M,-33.5,M,,*6E
$PYRTM,2024,123.170362760799,14.280010170938
$GPGGA,040518.00,3408.1970,N,11951.6558,W,1,09,0.8,10.2,M,-33.5,M,,*6F
$PYRTM,2024,123.170374334734,14.280021744873
$GPGGA,040519.00,3408.1979,N,11951.6579,W,1,09,0.8,9.6,M,-33.5,M,,*58
$PYRTM,2024,123.170385908854,14.280033318993
$GPGGA,040520.00,3408.1984,N,11951.6597,W,1,09,0.8,10.3,M,-33.5,M,,*6D
$PYRTM,2024,123.170397483067,14.280044893206
$GPGGA,040521.00,3408.1988,N,11951.6622,W,1,09,0.8,10.6,M,-33.5,M,,*68
$PYRTM,2024,123.170404878461,14.280052288600
$GPGGA,040522.00,3408.1993,N,11951.6651,W,1,09,0.8,10.0,M,-33.5,M,,*63
$PYRTM,2024,123.170420626389,14.280068036528
$GPGGA,040523.00,3408.1999,N,11951.6678,W,1,09,0.8,9.2,M,-33.5,M,,*59
$PYRTM,2024,123.170432208137,14.280079618287
$GPGGA,040524.00,3408.2005,N,11951.6696,W,1,09,0.8,9.2,M,-33.5,M,,*51
$PYRTM,2024,123.170439613611,14.280087023750
$GPGGA,040525.00,3408.2012,N,11951.6715,W,1,09,0.8,9.5,M,-33.5,M,,*5B
$PYRTM,2024,123.170455348900,14.280102759039
$GPGGA,040526.00,3408.2018,N,11951.6740,W,1,09,0.8,9.7,M,-33.5,M,,*50
$PYRTM,2024,123.170466928715,14.280114338854
$GPGGA,040527.00,3408.2023,N,11951.6768,W,1,09,0.8,9.4,M,-33.5,M,,*50
$PYRTM,2024,123.170474321875,14.280121732014
$GPGGA,040528.00,3408.2028,N,11951.6792,W,1,09,0.8,9.5,M,-33.5,M,,*50
$PYRTM,2024,123.170490071736,14.280137481875
$GPGGA,040529.00,3408.2034,N,11951.6816,W,1,09,0.8,9.5,M,-33.5,M,,*5F
$PYRTM,2024,123.170501645463,14.280149055602
$GPGGA,040530.00,3408.2041,N,11951.6842,W,1,09,0.8,9.0,M,-33.5,M,,*51
$PYRTM,2024,123.170513224965,14.280160635104
$GPGGA,040531.00,3408.2047,N,11951.6867,W,1,09,0.8,8.8,M,-33.5,M,,*58
$PYRTM,2024,123.170524794028,14.280172204167
$GPGGA,040532.00,3408.2052,N,11951.6887,W,1,09,0.8,9.0,M,-33.5,M,,*58
$PYRTM,2024,123.170532192836,14.280179602975
$GPGGA,040533.00,3408.2057,N,11951.6911,W,1,09,0.8,9.2,M,-33.5,M,,*50
$PYRTM,2024,123.170550839630,14.280198249769
$GPGGA,040534.00,3408.2064,N,11951.6940,W,1,09,0.8,8.7,M,-33.5,M,,*57
$PYRTM,2024,123.170562401250,14.280209811389
$GPGGA,040535.00,3408.2070,N,11951.6966,W,1,09,0.8,8.3,M,-33.5,M,,*53
$PYRTM,2024,123.170576406667,14.280223816806
$GPGGA,040536.00,3408.2074,N,11951.6987,W,1,09,0.8,8.4,M,-33.5,M,,*5C
$PYRTM,2024,123.170582669549,14.280230079699
$GPGGA,040537.00,3408.2078,N,11951.7008,W,1,09,0.8,9.5,M,-33.5,M,,*5E
$PYRTM,2024,123.170594248947,14.280241659086
$GPGGA,040538.00,3408.2084,N,11951.7033,W,1,09,0.8,9.7,M,-33.5,M,,*58
$PYRTM,2024,123.170605817940,14.280253228079
$GPGGA,040539.00,3408.2091,N,11951.7060,W,1,09,0.8,8.6,M,-33.5,M,,*5B
$PYRTM,2024,123.170617392616,14.280264802755
$GPGGA,040540.00,3408.2096,N,11951.7083,W,1,09,0.8,8.9,M,-33.5,M,,*50
$PYRTM,2024,123.170628965243,14.280276375382
$GPGGA,040541.00,3408.2102,N,11951.7103,W,1,09,0.8,8.5,M,-33.5,M,,*58
$PYRTM,2024,123.170640541204,14.280287951343
$GPGGA,040542.00,3408.2108,N,11951.7127,W,1,09,0.8,9.7,M,-33.5,M,,*54
$PYRTM,2024,123.170652114919,14.280299525058
$GPGGA,040543.00,3408.2115,N,11951.7156,W,1,09,0.8,9.2,M,-33.5,M,,*5A
$PYRTM,2024,123.170663685463,14.280311095602
$GPGGA,040544.00,3408.2121,N,11951.7182,W,1,09,0.8,9.5,M,-33.5,M,,*54
$PYRTM,2024,123.170675262940,14.280322673090
$GPGGA,040545.00,3408.2125,N,11951.7203,W,1,09,0.8,10.4,M,-33.5,M,,*62
$PYRTM,2024,123.170682656817,14.280330066956
$GPGGA,040546.00,3408.2131,N,11951.7224,W,1,09,0.8,11.0,M,-33.5,M,,*64
$PYRTM,2024,123.170698410775,14.280345820926
$GPGGA,040547.00,3408.2137,N,11951.7247,W,1,09,0.8,10.9,M,-33.5,M,,*6E
$PYRTM,2024,123.170709984560,14.280357394699
$GPGGA,040548.00,3408.2144,N,11951.7274,W,1,09,0.8,10.2,M,-33.5,M,,*6E
$PYRTM,2024,123.170717386678,14.280364796817
$GPGGA,040549.00,3408.2150,N,11951.7300,W,1,09,0.8,9.4,M,-33.5,M,,*56
$PYRTM,2024,123.170733141076,14.280380551215
$GPGGA,040550.00,3408.2155,N,11951.7323,W,1,09,0.8,9.5,M,-33.5,M,,*5B
$PYRTM,2024,123.170744708322,14.280392118461
$GPGGA,040551.00,3408.2159,N,11951.7347,W,1,09,0.8,10.3,M,-33.5,M,,*6A
$PYRTM,2024,123.170752103611,14.280399513750
$GPGGA,040552.00,3408.2167,N,11951.7372,W,1,09,0.8,10.9,M,-33.5,M,,*68
$PYRTM,2024,123.170767856296,14.280415266435
$GPGGA,040553.00,3408.2174,N,11951.7398,W,1,09,0.8,10.8,M,-33.5,M,,*6E
$PYRTM,2024,123.170779430266,14.280426840405
$GPGGA,040554.00,3408.2179,N,11951.7424,W,1,09,0.8,10.3,M,-33.5,M,,*6F
$PYRTM,2024,123.170791003762,14.280438413912
$GPGGA,040555.00,3408.2184,N,11951.7447,W,1,09,0.8,9.9,M,-33.5,M,,*5B
$PYRTM,2024,123.170802589398,14.280449999537
$GPGGA,040556.00,3408.2190,N,11951.7469,W,1,09,0.8,10.1,M,-33.5,M,,*61
$PYRTM,2024,123.170814152558,14.280461562697
$GPGGA,040557.00,3408.2197,N,11951.7494,W,1,09,0.8,10.0,M,-33.5,M,,*64
$PYRTM,2024,123.170825726551,14.280473136690
$GPGGA,040558.00,3408.2205,N,11951.7524,W,1,09,0.8,9.2,M,-33.5,M,,*53
$PYRTM,2024,123.170837296285,14.280484706424
$GPGGA,040559.00,3408.2210,N,11951.7547,W,1,09,0.8,9.0,M,-33.5,M,,*51
$PYRTM,2024,123.170844696053,14.280492106192
$GPGGA,040600.00,3408.2215,N,11951.7567,W,1,09,0.8,9.6,M,-33.5,M,,*5F
$PYRTM,2024,123.170860449421,14.280507859560
$GPGGA,040601.00,3408.2222,N,11951.7590,W,1,09,0.8,10.2,M,-33.5,M,,*6E
$PYRTM,2024,123.170872034225,14.280519444363
$GPGGA,040602.00,3408.2229,N,11951.7619,W,1,09,0.8,9.5,M,-33.5,M,,*5B
$PYRTM,2024,123.170879416539,14.280526826678
$GPGGA,040603.00,3408.2234,N,11951.7647,W,1,09,0.8,8.7,M,-33.5,M,,*5E
$PYRTM,2024,123.170895170069,14.280542580208
$GPGGA,040604.00,3408.2238,N,11951.7668,W,1,09,0.8,8.4,M,-33.5,M,,*5B
$PYRTM,2024,123.170902577072,14.280549987211
$GPGGA,040605.00,3408.2244,N,11951.7687,W,1,09,0.8,9.4,M,-33.5,M,,*51
$PYRTM,2024,123.170921212650,14.280568622789
$GPGGA,040606.00,3408.2251,N,11951.7712,W,1,09,0.8,9.7,M,-33.5,M,,*58
$PYRTM,2024,123.170929893600,14.280577303738
$GPGGA,040607.00,3408.2258,N,11951.7737,W,1,09,0.8,9.4,M,-33.5,M,,*54
$PYRTM,2024,123.170941494306,14.280588904456
$GPGGA,040608.00,3408.2262,N,11951.7757,W,1,09,0.8,10.1,M,-33.5,M,,*69
$PYRTM,2024,123.170953041817,14.280600451956
$GPGGA,040609.00,3408.2267,N,11951.7778,W,1,09,0.8,10.6,M,-33.5,M,,*67
$PYRTM,2024,123.170964623542,14.280612033681
$GPGGA,040610.00,3408.2272,N,11951.7807,W,1,09,0.8,9.3,M,-33.5,M,,*51
$PYRTM,2024,123.170976189965,14.280623600104
$GPGGA,040611.00,3408.2279,N,11951.7833,W,1,09,0.8,8.9,M,-33.5,M,,*57
$PYRTM,2024,123.170987764051,14.280635174190
$GPGGA,040612.00,3408.2284,N,11951.7852,W,1,09,0.8,8.9,M,-33.5,M,,*51
$PYRTM,2024,123.170999338796,14.280646748935
$GPGGA,040613.00,3408.2289,N,11951.7868,W,1,09,0.8,9.3,M,-33.5,M,,*5F
$PYRTM,2024,123.171010923264,14.280658333403
$GPGGA,040614.00,3408.2296,N,11951.7893,W,1,09,0.8,9.9,M,-33.5,M,,*58
$PYRTM,2024,123.171022486701,14.280669896840
$GPGGA,040615.00,3408.2301,N,11951.7922,W,1,09,0.8,9.4,M,-33.5,M,,*50
$PYRTM,2024,123.171034060625,14.280681470764
$GPGGA,040616.00,3408.2306,N,11951.7946,W,1,09,0.8,9.2,M,-33.5,M,,*50
$PYRTM,2024,123.171045635278,14.280693045417
$GPGGA,040617.00,3408.2310,N,11951.7965,W,1,09,0.8,9.5,M,-33.5,M,,*50
$PYRTM,2024,123.171057219375,14.280704629514
$GPGGA,040618.00,3408.2317,N,11951.7984,W,1,09,0.8,9.8,M,-33.5,M,,*5A
$PYRTM,2024,123.171068784734,14.280716194873
$GPGGA,040619.00,3408.2324,N,11951.8008,W,1,09,0.8,9.3,M,-33.5,M,,*52
$PYRTM,2024,123.171080357199,14.280727767338
$GPGGA,040620.00,3408.2330,N,11951.8034,W,1,09,0.8,9.0,M,-33.5,M,,*51
$PYRTM,2024,123.171091926111,14.280739336262
$GPGGA,040621.00,3408.2334,N,11951.8058,W,1,09,0.8,8.8,M,-33.5,M,,*57
$PYRTM,2024,123.171103512627,14.280750922778
$GPGGA,040622.00,3408.2338,N,11951.8080,W,1,09,0.8,9.3,M,-33.5,M,,*57
$PYRTM,2024,123.171115074954,14.280762485093
$GPGGA,040623.00,3408.2344,N,11951.8101,W,1,09,0.8,10.7,M,-33.5,M,,*69
$PYRTM,2024,123.171126661863,14.280774072002
$GPGGA,040624.00,3408.2351,N,11951.8127,W,1,09,0.8,10.1,M,-33.5,M,,*68
$PYRTM,2024,123.171138228414,14.280785638553
$GPGGA,040625.00,3408.2358,N,11951.8152,W,1,09,0.8,8.9,M,-33.5,M,,*53
$PYRTM,2024,123.171149802326,14.280797212465
$GPGGA,040626.00,3408.2363,N,11951.8173,W,1,09,0.8,8.6,M,-33.5,M,,*54
$PYRTM,2024,123.171157211979,14.280804622130
$GPGGA,040627.00,3408.2368,N,11951.8194,W,1,09,0.8,8.5,M,-33.5,M,,*54
$PYRTM,2024,123.171172950069,14.280820360208
$GPGGA,040628.00,3408.2375,N,11951.8218,W,1,09,0.8,8.2,M,-33.5,M,,*57
$PYRTM,2024,123.171184525486,14.280831935637
$GPGGA,040629.00,3408.2382,N,11951.8243,W,1,09,0.8,8.0,M,-33.5,M,,*52
$PYRTM,2024,123.171196109884,14.280843520023
$GPGGA,040630.00,3408.2387,N,11951.8266,W,1,09,0.8,8.1,M,-33.5,M,,*59
$PYRTM,2024,123.171207673519,14.280855083657
$GPGGA,040631.00,3408.2392,N,11951.8289,W,1,09,0.8,8.5,M,-33.5,M,,*59
$PYRTM,2024,123.171219258079,14.280866668218
$GPGGA,040632.00,3408.2397,N,11951.8310,W,1,09,0.8,9.0,M,-33.5,M,,*5A
$PYRTM,2024,123.171230821296,14.280878231435
$GPGGA,040633.00,3408.2403,N,11951.8336,W,1,09,0.8,8.9,M,-33.5,M,,*5D
$PYRTM,2024,123.171242405498,14.280889815637
$GPGGA,040634.00,3408.2408,N,11951.8366,W,1,09,0.8,8.2,M,-33.5,M,,*5F
$PYRTM,2024,123.171249801516,14.280897211655
$GPGGA,040635.00,3408.2412,N,11951.8390,W,1,09,0.8,8.0,M,-33.5,M,,*5E
$PYRTM,2024,123.171261480799,14.280908890937
$GPGGA,040636.00,3408.2417,N,11951.8409,W,1,09,0.8,8.5,M,-33.5,M,,*5A
$PYRTM,2024,123.171280012604,14.280927422743
$GPGGA,040637.00,3408.2424,N,11951.8431,W,1,09,0.8,9.4,M,-33.5,M,,*50
$PYRTM,2024,123.171291589722,14.280938999861
$GPGGA,040638.00,3408.2432,N,11951.8457,W,1,09,0.8,9.6,M,-33.5,M,,*5A
$PYRTM,2024,123.171303159826,14.280950569965
$GPGGA,040639.00,3408.2437,N,11951.8488,W,1,09,0.8,8.2,M,-33.5,M,,*59
$PYRTM,2024,123.171311839687,14.280959249826
$GPGGA,040640.00,3408.2440,N,11951.8512,W,1,09,0.8,7.6,M,-33.5,M,,*5E
$PYRTM,2024,123.171319247627,14.280966657766
$GPGGA,040641.00,3408.2445,N,11951.8530,W,1,09,0.8,8.4,M,-33.5,M,,*57
$PYRTM,2024,123.171334989063,14.280982399201
$GPGGA,040642.00,3408.2453,N,11951.8551,W,1,09,0.8,9.5,M,-33.5,M,,*54
$PYRTM,2024,123.171346563414,14.280993973553
$GPGGA,040643.00,3408.2460,N,11951.8578,W,1,09,0.8,9.8,M,-33.5,M,,*53
$PYRTM,2024,123.171353959167,14.281001369306
$GPGGA,040644.00,3408.2465,N,11951.8604,W,1,09,0.8,9.3,M,-33.5,M,,*52
$PYRTM,2024,123.171369711100,14.281017121238
$GPGGA,040645.00,3408.2469,N,11951.8628,W,1,09,0.8,8.6,M,-33.5,M,,*55
$PYRTM,2024,123.171377108762,14.281024518912
$GPGGA,040646.00,3408.2473,N,11951.8649,W,1,09,0.8,8.5,M,-33.5,M,,*59
$PYRTM,2024,123.171388797188,14.281036207326
$GPGGA,040647.00,3408.2480,N,11951.8673,W,1,09,0.8,8.6,M,-33.5,M,,*5E
$PYRTM,2024,123.171404433137,14.281051843275
$GPGGA,040648.00,3408.2486,N,11951.8698,W,1,09,0.8,8.7,M,-33.5,M,,*53
$PYRTM,2024,123.171416007523,14.281063417662
$GPGGA,040649.00,3408.2492,N,11951.8722,W,1,09,0.8,8.9,M,-33.5,M,,*59
$PYRTM,2024,123.171427590347,14.281075000498
$GPGGA,040650.00,3408.2497,N,11951.8747,W,1,09,0.8,9.4,M,-33.5,M,,*5B
$PYRTM,2024,123.171439155625,14.281086565764
$GPGGA,040651.00,3408.2504,N,11951.8772,W,1,09,0.8,9.6,M,-33.5,M,,*55
$PYRTM,2024,123.171446548970,14.281093959109
$GPGGA,040652.00,3408.2510,N,11951.8797,W,1,09,0.8,9.7,M,-33.5,M,,*59
$PYRTM,2024,123.171462304282,14.281109714433
$GPGGA,040653.00,3408.2516,N,11951.8820,W,1,09,0.8,9.7,M,-33.5,M,,*5D
$PYRTM,2024,123.171473900937,14.281121311076
$GPGGA,040654.00,3408.2522,N,11951.8845,W,1,09,1.0,9.5,M,-33.5,M,,*55
$PYRTM,2024,123.171485450729,14.281132860868
$GPGGA,040655.00,3408.2529,N,11951.8871,W,1,09,0.8,9.2,M,-33.5,M,,*56
$PYRTM,2024,123.171497036007,14.281144446146
$GPGGA,040656.00,3408.2535,N,11951.8895,W,1,09,0.8,9.3,M,-33.5,M,,*53
$PYRTM,2024,123.171508601690,14.281156011829
$GPGGA,040657.00,3408.2541,N,11951.8917,W,1,09,1.0,10.0,M,-33.5,M,,*68
$PYRTM,2024,123.171520174248,14.281167584387
$GPGGA,040658.00,3408.2545,N,11951.8942,W,1,09,1.0,11.0,M,-33.5,M,,*62
$PYRTM,2024,123.171531748067,14.281179158206
$GPGGA,040659.00,3408.2552,N,11951.8972,W,1,09,1.0,10.5,M,-33.5,M,,*62
$PYRTM,2024,123.171543322894,14.281190733044
$GPGGA,040700.00,3408.2559,N,11951.8999,W,1,09,1.0,10.1,M,-33.5,M,,*65
$PYRTM,2024,123.171554898171,14.281202308310
$GPGGA,040701.00,3408.2566,N,11951.9018,W,1,09,1.0,10.2,M,-33.5,M,,*6A
$PYRTM,2024,123.171562292176,14.281209702315
$GPGGA,040702.00,3408.2572,N,11951.9038,W,1,09,1.0,10.9,M,-33.5,M,,*65
$PYRTM,2024,123.171578045359,14.281225455486
$GPGGA,040703.00,3408.2579,N,11951.9064,W,1,09,1.0,11.2,M,-33.5,M,,*6C
$PYRTM,2024,123.171589619861,14.281237030012
$GPGGA,040704.00,3408.2584,N,11951.9093,W,1,09,1.0,10.0,M,-33.5,M,,*62
$PYRTM,2024,123.171597025613,14.281244435752
$GPGGA,040705.00,3408.2591,N,11951.9119,W,1,09,1.0,9.3,M,-33.5,M,,*5F
$PYRTM,2024,123.171612775810,14.281260185949
$GPGGA,040706.00,3408.2596,N,11951.9140,W,1,09,1.0,9.5,M,-33.5,M,,*51
$PYRTM,2024,123.171620172384,14.281267582523
$GPGGA,040707.00,3408.2602,N,11951.9160,W,1,09,1.0,9.8,M,-33.5,M,,*51
$PYRTM,2024,123.171638813449,14.281286223588
$GPGGA,040708.00,3408.2609,N,11951.9185,W,1,09,1.0,9.8,M,-33.5,M,,*5E
$PYRTM,2024,123.171647490706,14.281294900845
$GPGGA,040709.00,3408.2616,N,11951.9212,W,1,09,1.0,9.9,M,-33.5,M,,*5D
$PYRTM,2024,123.171659063507,14.281306473646
$GPGGA,040710.00,3408.2622,N,11951.9238,W,1,09,1.0,9.9,M,-33.5,M,,*5A
$PYRTM,2024,123.171670639757,14.281318049896
$GPGGA,040711.00,3408.2626,N,11951.9263,W,1,09,1.0,10.0,M,-33.5,M,,*60
$PYRTM,2024,123.171682212743,14.281329622882
$GPGGA,040712.00,3408.2631,N,11951.9286,W,1,09,1.0,10.5,M,-33.5,M,,*6B
$PYRTM,2024,123.171693782789,14.281341192928
$GPGGA,040713.00,3408.2637,N,11951.9310,W,1,09,1.0,10.9,M,-33.5,M,,*6E
$PYRTM,2024,123.171701181030,14.281348591169
$GPGGA,040714.00,3408.2645,N,11951.9336,W,1,09,1.0,10.7,M,-33.5,M,,*66
$PYRTM,2024,123.171716938426,14.281364348565
$GPGGA,040715.00,3408.2651,N,11951.9362,W,1,09,1.0,10.3,M,-33.5,M,,*67
$PYRTM,2024,123.171728509120,14.281375919259
$GPGGA,040716.00,3408.2655,N,11951.9389,W,1,09,1.0,9.9,M,-33.5,M,,*57
$PYRTM,2024,123.171735917037,14.281383327176
$GPGGA,040717.00,3408.2660,N,11951.9413,W,1,09,1.0,9.0,M,-33.5,M,,*5D
$PYRTM,2024,123.171751657199,14.281399067350
$GPGGA,040718.00,3408.2666,N,11951.9433,W,1,09,1.0,10.1,M,-33.5,M,,*6F
$PYRTM,2024,123.171763233704,14.281410643843
$GPGGA,040719.00,3408.2674,N,11951.9457,W,1,09,1.0,11.1,M,-33.5,M,,*6E
$PYRTM,2024,123.171774813924,14.281422224062
$GPGGA,040720.00,3408.2681,N,11951.9487,W,1,09,1.0,10.7,M,-33.5,M,,*64
$PYRTM,2024,123.171786380556,14.281433790706
$GPGGA,040721.00,3408.2685,N,11951.9515,W,1,09,1.0,10.6,M,-33.5,M,,*6A
$PYRTM,2024,123.171797962407,14.281445372546
$GPGGA,040722.00,3408.2688,N,11951.9537,W,1,09,1.0,11.4,M,-33.5,M,,*67
$PYRTM,2024,123.171809528958,14.281456939097
$GPGGA,040723.00,3408.2695,N,11951.9559,W,1,09,1.0,11.5,M,-33.5,M,,*63
$PYRTM,2024,123.171821110417,14.281468520556
$GPGGA,040724.00,3408.2702,N,11951.9586,W,1,09,1.0,10.8,M,-33.5,M,,*65
$PYRTM,2024,123.171832678472,14.281480088623
$GPGGA,040725.00,3408.2709,N,11951.9613,W,1,09,1.0,10.6,M,-33.5,M,,*6E
$PYRTM,2024,123.171844262234,14.281491672373
$GPGGA,040726.00,3408.2713,N,11951.9637,W,1,09,1.0,10.6,M,-33.5,M,,*60
$PYRTM,2024,123.171855826516,14.281503236655
$GPGGA,040727.00,3408.2717,N,11951.9659,W,1,09,1.0,11.3,M,-33.5,M,,*69
$PYRTM,2024,123.171867399201,14.281514809340
$GPGGA,040728.00,3408.2721,N,11951.9684,W,1,09,1.0,12.1,M,-33.5,M,,*62
$PYRTM,2024,123.171879089722,14.281526499861
$GPGGA,040729.00,3408.2728,N,11951.9712,W,1,09,1.0,12.0,M,-33.5,M,,*65
$PYRTM,2024,123.171890558646,14.281537968796
$GPGGA,040730.00,3408.2735,N,11951.9739,W,1,09,1.0,11.4,M,-33.5,M,,*6F
$PYRTM,2024,123.171902121088,14.281549531227
$GPGGA,040731.00,3408.2741,N,11951.9762,W,1,09,1.0,11.2,M,-33.5,M,,*65
$PYRTM,2024,123.171913696655,14.281561106794
$GPGGA,040732.00,3408.2746,N,11951.9785,W,1,09,1.0,11.5,M,-33.5,M,,*6F
$PYRTM,2024,123.171925271806,14.281572681944
$GPGGA,040733.00,3408.2751,N,11951.9809,W,1,09,1.0,11.8,M,-33.5,M,,*6E
$PYRTM,2024,123.171936851609,14.281584261748
$GPGGA,040734.00,3408.2759,N,11951.9834,W,1,09,1.0,11.8,M,-33.5,M,,*6F
$PYRTM,2024,123.171948418681,14.281595828819
$GPGGA,040735.00,3408.2767,N,11951.9859,W,1,09,1.0,11.5,M,-33.5,M,,*65
$PYRTM,2024,123.171960018947,14.281607429086
$GPGGA,040736.00,3408.2774,N,11951.9885,W,1,09,1.0,11.0,M,-33.5,M,,*60
$PYRTM,2024,123.171971566910,14.281618977049
$GPGGA,040737.00,3408.2777,N,11951.9908,W,1,09,1.0,10.9,M,-33.5,M,,*6E
$PYRTM,2024,123.171978961204,14.281626371343
$GPGGA,040738.00,3408.2780,N,11951.9931,W,1,09,1.0,11.5,M,-33.5,M,,*6E
$PYRTM,2024,123.171997608646,14.281645018785
$GPGGA,040739.00,3408.2788,N,11951.9957,W,1,09,1.0,11.3,M,-33.5,M,,*61
$PYRTM,2024,123.172006288461,14.281653698611
$GPGGA,040740.00,3408.2796,N,11951.9985,W,1,09,1.0,10.9,M,-33.5,M,,*64
$PYRTM,2024,123.172017862951,14.281665273090
$GPGGA,040741.00,3408.2802,N,11952.0009,W,1,09,1.0,10.6,M,-33.5,M,,*6F
$PYRTM,2024,123.172029436447,14.281676846586
$GPGGA,040742.00,3408.2806,N,11952.0032,W,1,09,1.0,10.9,M,-33.5,M,,*6F
$PYRTM,2024,123.172041008287,14.281688418426
$GPGGA,040743.00,3408.2811,N,11952.0056,W,1,09,1.0,11.3,M,-33.5,M,,*61
$PYRTM,2024,123.172052592627,14.281700002766
$GPGGA,040744.00,3408.2818,N,11952.0082,W,1,09,1.0,11.5,M,-33.5,M,,*60
$PYRTM,2024,123.172064160764,14.281711570914
$GPGGA,040745.00,3408.2825,N,11952.0109,W,1,09,1.0,11.2,M,-33.5,M,,*6A
$PYRTM,2024,123.172075744479,14.281723154618
$GPGGA,040746.00,3408.2831,N,11952.0136,W,1,09,1.0,10.5,M,-33.5,M,,*66
$PYRTM,2024,123.172087308495,14.281734718634
$GPGGA,040747.00,3408.2837,N,11952.0162,W,1,09,1.0,9.9,M,-33.5,M,,*54
$PYRTM,2024,123.172098881956,14.281746292095
$GPGGA,040748.00,3408.2843,N,11952.0187,W,1,09,1.0,9.8,M,-33.5,M,,*52
$PYRTM,2024,123.172110455984,14.281757866123
$GPGGA,040749.00,3408.2848,N,11952.0212,W,1,09,1.0,10.2,M,-33.5,M,,*65
$PYRTM,2024,123.172122053229,14.281769463368
$GPGGA,040750.00,3408.2854,N,11952.0238,W,1,09,1.0,10.6,M,-33.5,M,,*6C
$PYRTM,2024,123.172133605289,14.281781015428
$GPGGA,040751.00,3408.2860,N,11952.0265,W,1,09,1.0,10.7,M,-33.5,M,,*63
$PYRTM,2024,123.172145204433,14.281792614583
$GPGGA,040752.00,3408.2866,N,11952.0291,W,1,09,0.8,10.7,M,-33.5,M,,*64
$PYRTM,2024,123.172152580405,14.281799990544
$GPGGA,040753.00,3408.2872,N,11952.0316,W,1,09,0.8,10.6,M,-33.5,M,,*6F
$PYRTM,2024,123.172168339815,14.281815749954
$GPGGA,040754.00,3408.2878,N,11952.0342,W,1,09,0.8,10.3,M,-33.5,M,,*66
$PYRTM,2024,123.172179901065,14.281827311204
$GPGGA,040755.00,3408.2885,N,11952.0369,W,1,09,0.8,9.9,M,-33.5,M,,*5E
$PYRTM,2024,123.172187295382,14.281834705521
$GPGGA,040756.00,3408.2892,N,11952.0395,W,1,09,0.8,9.7,M,-33.5,M,,*56
$PYRTM,2024,123.172203049676,14.281850459815
$GPGGA,040757.00,3408.2897,N,11952.0419,W,1,09,0.8,10.2,M,-33.5,M,,*6C
$PYRTM,2024,123.172214634896,14.281862045035
$GPGGA,040758.00,3408.2903,N,11952.0444,W,1,09,0.8,10.8,M,-33.5,M,,*6D
$PYRTM,2024,123.172226198160,14.281873608299
$GPGGA,040759.00,3408.2909,N,11952.0473,W,1,09,0.8,10.8,M,-33.5,M,,*62
$PYRTM,2024,123.172237771169,14.281885181308
$GPGGA,040800.00,3408.2915,N,11952.0503,W,1,09,0.8,10.5,M,-33.5,M,,*67
$PYRTM,2024,123.172249347685,14.281896757824
$GPGGA,040801.00,3408.2921,N,11952.0528,W,1,09,0.8,10.2,M,-33.5,M,,*6F
$PYRTM,2024,123.172260929491,14.281908339630
$GPGGA,040802.00,3408.2925,N,11952.0550,W,1,09,0.8,10.6,M,-33.5,M,,*63
$PYRTM,2024,123.172272495440,14.281919905579
$GPGGA,040803.00,3408.2931,N,11952.0576,W,1,09,0.8,10.9,M,-33.5,M,,*6C
$PYRTM,2024,123.172279887743,14.281927297882
$GPGGA,040804.00,3408.2938,N,11952.0604,W,1,09,0.8,10.5,M,-33.5,M,,*68
$PYRTM,2024,123.172295640972,14.281943051111
$GPGGA,040805.00,3408.2946,N,11952.0630,W,1,09,0.8,10.1,M,-33.5,M,,*63
$PYRTM,2024,123.172307216088,14.281954626227
$GPGGA,040806.00,3408.2951,N,11952.0651,W,1,09,0.8,10.6,M,-33.5,M,,*66
$PYRTM,2024,123.172318790486,14.281966200625
$GPGGA,040807.00,3408.2955,N,11952.0675,W,1,09,0.8,11.2,M,-33.5,M,,*60
$PYRTM,2024,123.172330376863,14.281977787002
$GPGGA,040808.00,3408.2961,N,11952.0704,W,1,09,0.8,10.5,M,-33.5,M,,*69
$PYRTM,2024,123.172337766007,14.281985176146
$GPGGA,040809.00,3408.2968,N,11952.0730,W,1,09,0.8,9.7,M,-33.5,M,,*5C
$PYRTM,2024,123.172356407396,14.282003817535
$GPGGA,040810.00,3408.2974,N,11952.0751,W,1,09,0.8,10.4,M,-33.5,M,,*65
$PYRTM,2024,123.172365087245,14.282012497384
$GPGGA,040811.00,3408.2980,N,11952.0773,W,1,09,0.8,11.1,M,-33.5,M,,*6B
$PYRTM,2024,123.172372482211,14.282019892350
$GPGGA,040812.00,3408.2986,N,11952.0798,W,1,09,0.8,11.4,M,-33.5,M,,*6E
$PYRTM,2024,123.172388236215,14.282035646354
$GPGGA,040813.00,3408.2991,N,11952.0829,W,1,09,0.8,10.3,M,-33.5,M,,*6A
$PYRTM,2024,123.172399817373,14.282047227512
$GPGGA,040814.00,3408.2997,N,11952.0856,W,1,09,0.8,9.3,M,-33.5,M,,*5B
$PYRTM,2024,123.172411379236,14.282058789375
$GPGGA,040815.00,3408.3004,N,11952.0877,W,1,09,0.8,9.8,M,-33.5,M,,*50
$PYRTM,2024,123.172422970127,14.282070380266
$GPGGA,040816.00,3408.3010,N,11952.0895,W,1,09,0.8,10.7,M,-33.5,M,,*6D
$PYRTM,2024,123.172434532245,14.282081942384
$GPGGA,040817.00,3408.3017,N,11952.0921,W,1,09,0.8,10.2,M,-33.5,M,,*60
$PYRTM,2024,123.172441926863,14.282089337002
$GPGGA,040818.00,3408.3022,N,11952.0951,W,1,09,0.8,9.2,M,-33.5,M,,*56
$PYRTM,2024,123.172457676007,14.282105086146
$GPGGA,040819.00,3408.3027,N,11952.0977,W,1,09,0.8,9.3,M,-33.5,M,,*57
$PYRTM,2024,123.172469255880,14.282116666019
$GPGGA,040820.00,3408.3034,N,11952.0998,W,1,09,0.8,9.4,M,-33.5,M,,*59
$PYRTM,2024,123.172480824502,14.282128234641
$GPGGA,040821.00,3408.3041,N,11952.1021,W,1,09,0.8,10.2,M,-33.5,M,,*6E
$PYRTM,2024,123.172492403414,14.282139813553
$GPGGA,040822.00,3408.3047,N,11952.1046,W,1,09,0.8,10.5,M,-33.5,M,,*6D
$PYRTM,2024,123.172503977396,14.282151387535
$GPGGA,040823.00,3408.3052,N,11952.1071,W,1,09,0.8,10.2,M,-33.5,M,,*6B
$PYRTM,2024,123.172515562072,14.282162972211
$GPGGA,040824.00,3408.3058,N,11952.1094,W,1,09,0.8,9.5,M,-33.5,M,,*52
$PYRTM,2024,123.172527125914,14.282174536053
$GPGGA,040825.00,3408.3066,N,11952.1118,W,1,09,0.8,9.1,M,-33.5,M,,*5F
$PYRTM,2024,123.172538699016,14.282186109155
$GPGGA,040826.00,3408.3073,N,11952.1142,W,1,09,0.8,9.0,M,-33.5,M,,*56
$PYRTM,2024,123.172550274734,14.282197684873
$GPGGA,040827.00,3408.3078,N,11952.1167,W,1,09,0.8,9.3,M,-33.5,M,,*58
$PYRTM,2024,123.172561855428,14.282209265567
$GPGGA,040828.00,3408.3083,N,11952.1192,W,1,09,0.8,9.6,M,-33.5,M,,*5C
$PYRTM,2024,123.172573422523,14.282220832662
$GPGGA,040829.00,3408.3090,N,11952.1217,W,1,09,0.8,9.9,M,-33.5,M,,*5E
$PYRTM,2024,123.172585003854,14.282232414005
$GPGGA,040830.00,3408.3097,N,11952.1242,W,1,09,0.8,10.3,M,-33.5,M,,*63
$PYRTM,2024,123.172596570556,14.282243980694
$GPGGA,040831.00,3408.3103,N,11952.1268,W,1,09,0.8,10.2,M,-33.5,M,,*67
$PYRTM,2024,123.172608155590,14.282255565729
$GPGGA,040832.00,3408.3107,N,11952.1294,W,1,09,0.8,10.0,M,-33.5,M,,*61
$PYRTM,2024,123.172619714259,14.282267124398
$GPGGA,040833.00,3408.3113,N,11952.1319,W,1,09,0.8,10.1,M,-33.5,M,,*60
$PYRTM,2024,123.172631303021,14.282278713160
$GPGGA,040834.00,3408.3120,N,11952.1344,W,1,09,0.8,10.1,M,-33.5,M,,*6F
$PYRTM,2024,123.172642863252,14.282290273391
$GPGGA,040835.00,3408.3127,N,11952.1370,W,1,09,0.8,9.8,M,-33.5,M,,*5F
$PYRTM,2024,123.172654451701,14.282301861840
$GPGGA,040836.00,3408.3132,N,11952.1394,W,1,09,0.8,9.9,M,-33.5,M,,*53
$PYRTM,2024,123.172666009826,14.282313419965
$GPGGA,040837.00,3408.3137,N,11952.1416,W,1,09,0.8,10.4,M,-33.5,M,,*6F
$PYRTM,2024,123.172677597130,14.282325007269
