$PYRTM,2024,125.750003730463,16.859651140602
$GPGGA,175959.00,3501.5859,N,12208.4524,W,1,10,0.8,18.2,M,-33.3,M,,*6C
$PYRTM,2024,125.750011140301,16.859658550440
$GPGGA,180000.00,3501.5831,N,12208.4527,W,1,10,0.8,17.7,M,-33.3,M,,*64
$PYRTM,2024,125.750026877569,16.859674287720
$GPGGA,180001.00,3501.5804,N,12208.4530,W,1,10,0.8,17.7,M,-33.3,M,,*65
$PYRTM,2024,125.750038440336,16.859685850475
$GPGGA,180002.00,3501.5778,N,12208.4523,W,1,10,0.8,18.1,M,-33.3,M,,*69
$PYRTM,2024,125.750045848160,16.859693258299
$GPGGA,180003.00,3501.5751,N,12208.4512,W,1,10,0.8,18.8,M,-33.3,M,,*68
$PYRTM,2024,125.750061588530,16.859708998669
$GPGGA,180004.00,3501.5723,N,12208.4505,W,1,10,0.8,18.9,M,-33.3,M,,*6D
$PYRTM,2024,125.750073176435,16.859720586574
$GPGGA,180005.00,3501.5694,N,12208.4507,W,1,10,0.8,18.6,M,-33.3,M,,*6C
$PYRTM,2024,125.750080570289,16.859727980428
$GPGGA,180006.00,3501.5667,N,12208.4507,W,1,10,0.8,18.2,M,-33.3,M,,*67
$PYRTM,2024,125.750096326644,16.859743736782
$GPGGA,180007.00,3501.5641,N,12208.4500,W,1,10,0.8,18.0,M,-33.3,M,,*67
$PYRTM,2024,125.750107885266,16.859755295405
$GPGGA,180008.00,3501.5614,N,12208.4490,W,1,10,0.8,17.8,M,-33.3,M,,*67
$PYRTM,2024,125.750115291019,16.859762701157
$GPGGA,180009.00,3501.5588,N,12208.4487,W,1,10,0.8,17.7,M,-33.3,M,,*69
$PYRTM,2024,125.750126981817,16.859774391956
$GPGGA,180010.00,3501.5561,N,12208.4491,W,1,10,0.8,17.5,M,-33.3,M,,*63
$PYRTM,2024,125.750145508171,16.859792918310
$GPGGA,180011.00,3501.5535,N,12208.4494,W,1,10,0.8,17.5,M,-33.3,M,,*66
$PYRTM,2024,125.750154181123,16.859801591273
$GPGGA,180012.00,3501.5510,N,12208.4488,W,1,10,0.8,17.9,M,-33.3,M,,*63
$PYRTM,2024,125.750165764086,16.859813174236
$GPGGA,180013.00,3501.5484,N,12208.4478,W,1,10,0.8,18.2,M,-33.3,M,,*65
$PYRTM,2024,125.750177329942,16.859824740081
$GPGGA,180014.00,3501.5457,N,12208.4471,W,1,10,0.8,18.0,M,-33.3,M,,*67
$PYRTM,2024,125.750188916991,16.859836327130
$GPGGA,180015.00,3501.5430,N,12208.4473,W,1,10,0.8,18.1,M,-33.3,M,,*64
$PYRTM,2024,125.750200477928,16.859847888067
$GPGGA,180016.00,3501.5403,N,12208.4474,W,1,10,0.8,18.3,M,-33.3,M,,*62
$PYRTM,2024,125.750207885174,16.859855295312
$GPGGA,180017.00,3501.5377,N,12208.4472,W,1,10,0.8,18.5,M,-33.3,M,,*67
$PYRTM,2024,125.750223628148,16.859871038287
$GPGGA,180018.00,3501.5350,N,12208.4465,W,1,10,0.8,18.5,M,-33.3,M,,*6B
$PYRTM,2024,125.750235213738,16.859882623877
$GPGGA,180019.00,3501.5323,N,12208.4459,W,1,10,0.8,17.7,M,-33.3,M,,*6C
$PYRTM,2024,125.750242607639,16.859890017778
$GPGGA,180020.00,3501.5296,N,12208.4455,W,1,10,0.8,17.8,M,-33.3,M,,*6A
$PYRTM,2024,125.750258364063,16.859905774213
$GPGGA,180021.00,3501.5269,N,12208.4454,W,1,10,0.8,18.0,M,-33.3,M,,*6D
$PYRTM,2024,125.750269923113,16.859917333252
$GPGGA,180022.00,3501.5241,N,12208.4456,W,1,10,0.8,18.3,M,-33.3,M,,*65
$PYRTM,2024,125.750281513819,16.859928923958
$GPGGA,180023.00,3501.5213,N,12208.4454,W,1,10,0.8,18.0,M,-33.3,M,,*62
$PYRTM,2024,125.750293070324,16.859940480463
$GPGGA,180024.00,3501.5187,N,12208.4447,W,1,10,0.8,18.2,M,-33.3,M,,*6B
$PYRTM,2024,125.750304662454,16.859952072593
$GPGGA,180025.00,3501.5161,N,12208.4439,W,1,10,0.8,18.4,M,-33.3,M,,*6D
$PYRTM,2024,125.750316220394,16.859963630532
$GPGGA,180026.00,3501.5134,N,12208.4433,W,1,10,0.8,18.5,M,-33.3,M,,*65
$PYRTM,2024,125.750327807153,16.859975217292
$GPGGA,180027.00,3501.5107,N,12208.4432,W,1,10,0.8,18.4,M,-33.3,M,,*64
$PYRTM,2024,125.750339368981,16.859986779120
$GPGGA,180028.00,3501.5081,N,12208.4432,W,1,10,0.8,18.1,M,-33.3,M,,*61
$PYRTM,2024,125.750350949514,16.859998359653
$GPGGA,180029.00,3501.5054,N,12208.4431,W,1,10,0.8,17.6,M,-33.3,M,,*63
$PYRTM,2024,125.750362516389,16.860009926539
$GPGGA,180030.00,3501.5027,N,12208.4427,W,1,10,0.8,17.5,M,-33.3,M,,*6B
$PYRTM,2024,125.750374105822,16.860021515961
$GPGGA,180031.00,3501.5001,N,12208.4421,W,1,10,0.8,17.4,M,-33.3,M,,*69
$PYRTM,2024,125.750385665197,16.860033075336
$GPGGA,180032.00,3501.4975,N,12208.4415,W,1,10,0.8,17.9,M,-33.3,M,,*6B
$PYRTM,2024,125.750393069792,16.860040479931
$GPGGA,180033.00,3501.4948,N,12208.4413,W,1,10,0.8,18.3,M,-33.3,M,,*67
$PYRTM,2024,125.750408812002,16.860056222153
$GPGGA,180034.00,3501.4921,N,12208.4414,W,1,10,0.8,18.3,M,-33.3,M,,*68
$PYRTM,2024,125.750416220463,16.860063630602
$GPGGA,180035.00,3501.4893,N,12208.4412,W,1,10,0.8,18.3,M,-33.3,M,,*67
$PYRTM,2024,125.750431960579,16.860079370718
$GPGGA,180036.00,3501.4866,N,12208.4406,W,1,10,0.8,18.2,M,-33.3,M,,*6A
$PYRTM,2024,125.750443550845,16.860090960984
$GPGGA,180037.00,3501.4839,N,12208.4400,W,1,10,0.8,18.3,M,-33.3,M,,*66
$PYRTM,2024,125.750455109502,16.860102519641
$GPGGA,180038.00,3501.4812,N,12208.4396,W,1,10,0.8,18.5,M,-33.3,M,,*6E
$PYRTM,2024,125.750466699028,16.860114109167
$GPGGA,180039.00,3501.4785,N,12208.4394,W,1,10,0.8,18.4,M,-33.3,M,,*6D
$PYRTM,2024,125.750478257616,16.860125667755
$GPGGA,180040.00,3501.4758,N,12208.4392,W,1,10,0.8,18.3,M,-33.3,M,,*62
$PYRTM,2024,125.750485666053,16.860133076204
$GPGGA,180041.00,3501.4730,N,12208.4388,W,1,10,0.8,18.1,M,-33.3,M,,*64
$PYRTM,2024,125.750504311968,16.860151722106
$GPGGA,180042.00,3501.4703,N,12208.4383,W,1,10,0.8,17.8,M,-33.3,M,,*6A
$PYRTM,2024,125.750512994028,16.860160404167
$GPGGA,180043.00,3501.4675,N,12208.4379,W,1,10,0.8,17.8,M,-33.3,M,,*6E
$PYRTM,2024,125.750524555556,16.860171965694
$GPGGA,180044.00,3501.4649,N,12208.4376,W,1,10,0.8,18.0,M,-33.3,M,,*6E
$PYRTM,2024,125.750531961262,16.860179371400
$GPGGA,180045.00,3501.4622,N,12208.4374,W,1,10,0.8,18.3,M,-33.3,M,,*63
$PYRTM,2024,125.750547702708,16.860195112847
$GPGGA,180046.00,3501.4595,N,12208.4371,W,1,10,0.8,18.4,M,-33.3,M,,*6D
$PYRTM,2024,125.750559290081,16.860206700220
$GPGGA,180047.00,3501.4566,N,12208.4367,W,1,10,0.8,18.0,M,-33.3,M,,*63
$PYRTM,2024,125.750570852269,16.860218262407
$GPGGA,180048.00,3501.4538,N,12208.4363,W,1,10,0.8,17.6,M,-33.3,M,,*6A
$PYRTM,2024,125.750582438032,16.860229848171
$GPGGA,180049.00,3501.4512,N,12208.4359,W,1,10,0.8,17.7,M,-33.3,M,,*6B
$PYRTM,2024,125.750589832222,16.860237242361
$GPGGA,180050.00,3501.4487,N,12208.4355,W,1,10,0.8,18.0,M,-33.3,M,,*6A
$PYRTM,2024,125.750605585069,16.860252995208
$GPGGA,180051.00,3501.4460,N,12208.4351,W,1,10,0.8,18.1,M,-33.3,M,,*67
$PYRTM,2024,125.750617147234,16.860264557373
$GPGGA,180052.00,3501.4433,N,12208.4348,W,1,10,0.8,17.8,M,-33.3,M,,*6C
$PYRTM,2024,125.750624555475,16.860271965613
$GPGGA,180053.00,3501.4406,N,12208.4344,W,1,10,0.8,17.4,M,-33.3,M,,*6B
$PYRTM,2024,125.750640295023,16.860287705162
$GPGGA,180054.00,3501.4380,N,12208.4339,W,1,10,0.8,17.5,M,-33.3,M,,*6E
$PYRTM,2024,125.750651883542,16.860299293681
$GPGGA,180055.00,3501.4354,N,12208.4335,W,1,10,0.8,17.6,M,-33.3,M,,*69
$PYRTM,2024,125.750663444734,16.860310854873
$GPGGA,180056.00,3501.4325,N,12208.4333,W,1,10,0.8,17.6,M,-33.3,M,,*6A
$PYRTM,2024,125.750675030532,16.860322440683
$GPGGA,180057.00,3501.4297,N,12208.4332,W,1,10,0.8,17.8,M,-33.3,M,,*6C
$PYRTM,2024,125.750682434329,16.860329844468
$GPGGA,180058.00,3501.4270,N,12208.4326,W,1,10,0.8,18.4,M,-33.3,M,,*6C
$PYRTM,2024,125.750698179306,16.860345589456
$GPGGA,180059.00,3501.4242,N,12208.4317,W,1,10,0.8,19.1,M,-33.3,M,,*6A
$PYRTM,2024,125.750709740544,16.860357150683
$GPGGA,180100.00,3501.4214,N,12208.4311,W,1,10,0.8,19.2,M,-33.3,M,,*61
$PYRTM,2024,125.750721327998,16.860368738148
$GPGGA,180101.00,3501.4185,N,12208.4311,W,1,10,0.8,18.6,M,-33.3,M,,*6E
$PYRTM,2024,125.750732888310,16.860380298449
$GPGGA,180102.00,3501.4158,N,12208.4309,W,1,10,0.8,17.8,M,-33.3,M,,*65
$PYRTM,2024,125.750740294745,16.860387704884
$GPGGA,180103.00,3501.4132,N,12208.4300,W,1,10,0.8,17.5,M,-33.3,M,,*6C
$PYRTM,2024,125.750756038310,16.860403448449
$GPGGA,180104.00,3501.4107,N,12208.4291,W,1,10,0.8,17.3,M,-33.3,M,,*62
$PYRTM,2024,125.750767626262,16.860415036400
$GPGGA,180105.00,3501.4080,N,12208.4289,W,1,10,0.8,17.1,M,-33.3,M,,*66
$PYRTM,2024,125.750775019838,16.860422429977
$GPGGA,180106.00,3501.4054,N,12208.4293,W,1,10,0.8,17.0,M,-33.3,M,,*66
$PYRTM,2024,125.750790785556,16.860438195706
$GPGGA,180107.00,3501.4028,N,12208.4294,W,1,10,0.8,17.3,M,-33.3,M,,*68
$PYRTM,2024,125.750802332060,16.860449742199
$GPGGA,180108.00,3501.4003,N,12208.4285,W,1,10,0.8,17.6,M,-33.3,M,,*6B
$PYRTM,2024,125.750813922535,16.860461332674
$GPGGA,180109.00,3501.3977,N,12208.4275,W,1,10,0.8,17.9,M,-33.3,M,,*67
$PYRTM,2024,125.750825480544,16.860472890683
$GPGGA,180110.00,3501.3950,N,12208.4273,W,1,10,0.8,17.8,M,-33.3,M,,*6D
$PYRTM,2024,125.750832887685,16.860480297824
$GPGGA,180111.00,3501.3922,N,12208.4274,W,1,10,0.8,17.7,M,-33.3,M,,*61
$PYRTM,2024,125.750844579965,16.860491990104
$GPGGA,180112.00,3501.3895,N,12208.4272,W,1,10,0.8,18.0,M,-33.3,M,,*61
$PYRTM,2024,125.750863109271,16.860510519410
$GPGGA,180113.00,3501.3868,N,12208.4265,W,1,10,0.8,18.2,M,-33.3,M,,*66
$PYRTM,2024,125.750871778032,16.860519188171
$GPGGA,180114.00,3501.3840,N,12208.4259,W,1,10,0.8,17.9,M,-33.3,M,,*60
$PYRTM,2024,125.750883359931,16.860530770069
$GPGGA,180115.00,3501.3814,N,12208.4257,W,1,10,0.8,17.6,M,-33.3,M,,*61
$PYRTM,2024,125.750894926447,16.860542336586
$GPGGA,180116.00,3501.3787,N,12208.4257,W,1,10,0.8,17.7,M,-33.3,M,,*66
$PYRTM,2024,125.750906507940,16.860553918079
$GPGGA,180117.00,3501.3761,N,12208.4255,W,1,10,0.8,17.8,M,-33.3,M,,*62
$PYRTM,2024,125.750918074595,16.860565484734
$GPGGA,180118.00,3501.3735,N,12208.4249,W,1,10,0.8,17.7,M,-33.3,M,,*6E
$PYRTM,2024,125.750929690903,16.860577101053
$GPGGA,180119.00,3501.3709,N,12208.4245,W,1,10,0.8,17.6,M,-33.3,M,,*6D
$PYRTM,2024,125.750941223426,16.860588633565
$GPGGA,180120.00,3501.3683,N,12208.4243,W,1,10,0.8,17.5,M,-33.3,M,,*61
$PYRTM,2024,125.750948636065,16.860596046204
$GPGGA,180121.00,3501.3657,N,12208.4242,W,1,10,0.8,17.6,M,-33.3,M,,*6B
$PYRTM,2024,125.750964371157,16.860611781296
$GPGGA,180122.00,3501.3630,N,12208.4240,W,1,10,0.8,17.4,M,-33.3,M,,*69
$PYRTM,2024,125.750975958206,16.860623368345
$GPGGA,180123.00,3501.3603,N,12208.4234,W,1,10,0.8,17.1,M,-33.3,M,,*6E
$PYRTM,2024,125.750983367963,16.860630778113
$GPGGA,180124.00,3501.3575,N,12208.4227,W,1,10,0.8,17.0,M,-33.3,M,,*68
$PYRTM,2024,125.750999105972,16.860646516111
$GPGGA,180125.00,3501.3547,N,12208.4225,W,1,10,0.8,17.0,M,-33.3,M,,*6A
$PYRTM,2024,125.751010666782,16.860658076921
$GPGGA,180126.00,3501.3520,N,12208.4227,W,1,10,0.8,17.3,M,-33.3,M,,*69
$PYRTM,2024,125.751022249456,16.860669659595
$GPGGA,180127.00,3501.3493,N,12208.4224,W,1,10,0.8,17.7,M,-33.3,M,,*66
$PYRTM,2024,125.751033816817,16.860681226956
$GPGGA,180128.00,3501.3466,N,12208.4217,W,1,10,0.8,17.9,M,-33.3,M,,*6D
$PYRTM,2024,125.751045397917,16.860692808056
$GPGGA,180129.00,3501.3440,N,12208.4210,W,1,10,0.8,17.5,M,-33.3,M,,*63
$PYRTM,2024,125.751056964456,16.860704374595
$GPGGA,180130.00,3501.3414,N,12208.4209,W,1,10,0.8,16.9,M,-33.3,M,,*6F
$PYRTM,2024,125.751068545880,16.860715956019
$GPGGA,180131.00,3501.3388,N,12208.4208,W,1,10,0.8,16.5,M,-33.3,M,,*61
$PYRTM,2024,125.751080114537,16.860727524676
$GPGGA,180132.00,3501.3363,N,12208.4205,W,1,10,0.8,16.3,M,-33.3,M,,*6C
$PYRTM,2024,125.751091726354,16.860739136493
$GPGGA,180133.00,3501.3335,N,12208.4201,W,1,10,0.8,16.6,M,-33.3,M,,*6F
$PYRTM,2024,125.751103261146,16.860750671285
$GPGGA,180134.00,3501.3309,N,12208.4196,W,1,10,0.8,17.0,M,-33.3,M,,*6D
$PYRTM,2024,125.751114850625,16.860762260775
$GPGGA,180135.00,3501.3283,N,12208.4191,W,1,10,0.8,17.6,M,-33.3,M,,*6E
$PYRTM,2024,125.751122244236,16.860769654387
$GPGGA,180136.00,3501.3254,N,12208.4188,W,1,10,0.8,17.8,M,-33.3,M,,*61
$PYRTM,2024,125.751137999352,16.860785409502
$GPGGA,180137.00,3501.3224,N,12208.4185,W,1,10,0.8,17.5,M,-33.3,M,,*67
$PYRTM,2024,125.751149557894,16.860796968044
$GPGGA,180138.00,3501.3196,N,12208.4181,W,1,10,0.8,17.3,M,-33.3,M,,*60
$PYRTM,2024,125.751156964653,16.860804374792
$GPGGA,180139.00,3501.3170,N,12208.4173,W,1,10,0.8,17.6,M,-33.3,M,,*61
$PYRTM,2024,125.751172708819,16.860820118958
$GPGGA,180140.00,3501.3143,N,12208.4165,W,1,10,0.8,17.8,M,-33.3,M,,*66
$PYRTM,2024,125.751184292211,16.860831702361
$GPGGA,180141.00,3501.3116,N,12208.4162,W,1,10,0.8,17.4,M,-33.3,M,,*6C
$PYRTM,2024,125.751195855637,16.860843265775
$GPGGA,180142.00,3501.3089,N,12208.4161,W,1,10,0.8,17.0,M,-33.3,M,,*6F
$PYRTM,2024,125.751203260856,16.860850670995
$GPGGA,180143.00,3501.3063,N,12208.4160,W,1,10,0.8,16.9,M,-33.3,M,,*63
$PYRTM,2024,125.751221915961,16.860869326100
$GPGGA,180144.00,3501.3038,N,12208.4156,W,1,10,0.8,17.0,M,-33.3,M,,*67
$PYRTM,2024,125.751230589271,16.860877999410
$GPGGA,180145.00,3501.3013,N,12208.4151,W,1,10,0.8,17.1,M,-33.3,M,,*69
$PYRTM,2024,125.751242150509,16.860889560648
$GPGGA,180146.00,3501.2987,N,12208.4147,W,1,10,0.8,17.0,M,-33.3,M,,*69
$PYRTM,2024,125.751249557998,16.860896968137
$GPGGA,180147.00,3501.2959,N,12208.4146,W,1,10,0.8,17.0,M,-33.3,M,,*6A
$PYRTM,2024,125.751265297859,16.860912707998
$GPGGA,180148.00,3501.2933,N,12208.4144,W,1,10,0.8,17.4,M,-33.3,M,,*6F
$PYRTM,2024,125.751276888218,16.860924298356
$GPGGA,180149.00,3501.2906,N,12208.4140,W,1,10,0.8,17.8,M,-33.3,M,,*60
$PYRTM,2024,125.751284281516,16.860931691655
$GPGGA,180150.00,3501.2878,N,12208.4135,W,1,10,0.8,18.0,M,-33.3,M,,*65
$PYRTM,2024,125.751300048044,16.860947458183
$GPGGA,180151.00,3501.2850,N,12208.4129,W,1,10,0.8,17.9,M,-33.3,M,,*65
$PYRTM,2024,125.751311595127,16.860959005266
$GPGGA,180152.00,3501.2822,N,12208.4125,W,1,10,0.8,17.7,M,-33.3,M,,*61
$PYRTM,2024,125.751323176829,16.860970586979
$GPGGA,180153.00,3501.2794,N,12208.4125,W,1,10,0.8,17.6,M,-33.3,M,,*63
$PYRTM,2024,125.751334745671,16.860982155810
$GPGGA,180154.00,3501.2767,N,12208.4123,W,1,10,0.8,17.5,M,-33.3,M,,*6D
$PYRTM,2024,125.751346331794,16.860993741933
$GPGGA,180155.00,3501.2741,N,12208.4117,W,1,10,0.8,17.4,M,-33.3,M,,*6E
$PYRTM,2024,125.751357891007,16.861005301146
$GPGGA,180156.00,3501.2715,N,12208.4109,W,1,10,0.8,17.4,M,-33.3,M,,*63
$PYRTM,2024,125.751369478970,16.861016889109
$GPGGA,180157.00,3501.2688,N,12208.4107,W,1,10,0.8,17.4,M,-33.3,M,,*69
$PYRTM,2024,125.751376875197,16.861024285336
$GPGGA,180158.00,3501.2662,N,12208.4108,W,1,10,0.8,17.3,M,-33.3,M,,*6A
$PYRTM,2024,125.751392627373,16.861040037512
$GPGGA,180159.00,3501.2635,N,12208.4108,W,1,10,0.8,17.3,M,-33.3,M,,*69
$PYRTM,2024,125.751404188542,16.861051598681
$GPGGA,180200.00,3501.2607,N,12208.4103,W,1,10,0.8,17.3,M,-33.3,M,,*6C
$PYRTM,2024,125.751411595336,16.861059005486
$GPGGA,180201.00,3501.2580,N,12208.4096,W,1,10,0.8,17.4,M,-33.3,M,,*6B
$PYRTM,2024,125.751427336748,16.861074746887
$GPGGA,180202.00,3501.2554,N,12208.4091,W,1,10,0.8,17.8,M,-33.3,M,,*6A
$PYRTM,2024,125.751438926539,16.861086336678
$GPGGA,180203.00,3501.2526,N,12208.4090,W,1,10,0.8,18.0,M,-33.3,M,,*68
$PYRTM,2024,125.751450484595,16.861097894745
$GPGGA,180204.00,3501.2498,N,12208.4090,W,1,10,0.8,18.1,M,-33.3,M,,*6A
$PYRTM,2024,125.751462074792,16.861109484931
$GPGGA,180205.00,3501.2469,N,12208.4087,W,1,10,0.8,17.8,M,-33.3,M,,*65
$PYRTM,2024,125.751473633889,16.861121044028
$GPGGA,180206.00,3501.2442,N,12208.4080,W,1,10,0.8,17.4,M,-33.3,M,,*64
$PYRTM,2024,125.751485223345,16.861132633484
$GPGGA,180207.00,3501.2416,N,12208.4073,W,1,10,0.8,17.8,M,-33.3,M,,*64
$PYRTM,2024,125.751496782616,16.861144192755
$GPGGA,180208.00,3501.2390,N,12208.4071,W,1,10,0.8,17.8,M,-33.3,M,,*60
$PYRTM,2024,125.751508370579,16.861155780718
$GPGGA,180209.00,3501.2363,N,12208.4073,W,1,10,0.8,17.3,M,-33.3,M,,*64
$PYRTM,2024,125.751519929780,16.861167339931
$GPGGA,180210.00,3501.2337,N,12208.4072,W,1,10,0.8,17.1,M,-33.3,M,,*6E
$PYRTM,2024,125.751527336007,16.861174746146
$GPGGA,180211.00,3501.2312,N,12208.4066,W,1,10,0.8,17.1,M,-33.3,M,,*6D
$PYRTM,2024,125.751543077569,16.861190487708
$GPGGA,180212.00,3501.2285,N,12208.4058,W,1,10,0.8,17.4,M,-33.3,M,,*69
$PYRTM,2024,125.751554664757,16.861202074896
$GPGGA,180213.00,3501.2258,N,12208.4055,W,1,10,0.8,17.9,M,-33.3,M,,*68
$PYRTM,2024,125.751562060197,16.861209470336
$GPGGA,180214.00,3501.2232,N,12208.4055,W,1,10,0.8,18.5,M,-33.3,M,,*60
$PYRTM,2024,125.751580591701,16.861228001840
$GPGGA,180215.00,3501.2203,N,12208.4055,W,1,10,0.8,18.9,M,-33.3,M,,*6F
$PYRTM,2024,125.751589374780,16.861236784919
$GPGGA,180216.00,3501.2174,N,12208.4050,W,1,10,0.8,18.7,M,-33.3,M,,*64
$PYRTM,2024,125.751600975868,16.861248386007
$GPGGA,180217.00,3501.2145,N,12208.4042,W,1,10,0.8,18.1,M,-33.3,M,,*62
$PYRTM,2024,125.751612522222,16.861259932373
$GPGGA,180218.00,3501.2119,N,12208.4033,W,1,10,0.8,18.5,M,-33.3,M,,*66
$PYRTM,2024,125.751619930486,16.861267340637
$GPGGA,180219.00,3501.2093,N,12208.4028,W,1,10,0.8,18.6,M,-33.3,M,,*6D
$PYRTM,2024,125.751635670660,16.861283080799
$GPGGA,180220.00,3501.2066,N,12208.4028,W,1,10,0.8,18.5,M,-33.3,M,,*6E
$PYRTM,2024,125.751647259155,16.861294669306
$GPGGA,180221.00,3501.2039,N,12208.4028,W,1,10,0.8,18.0,M,-33.3,M,,*60
$PYRTM,2024,125.751654666204,16.861302076343
$GPGGA,180222.00,3501.2015,N,12208.4024,W,1,10,0.8,17.6,M,-33.3,M,,*68
$PYRTM,2024,125.751670406551,16.861317816690
$GPGGA,180223.00,3501.1990,N,12208.4018,W,1,10,0.8,17.5,M,-33.3,M,,*62
$PYRTM,2024,125.751681966875,16.861329377025
$GPGGA,180224.00,3501.1964,N,12208.4014,W,1,10,0.8,17.8,M,-33.3,M,,*6F
$PYRTM,2024,125.751693557546,16.861340967685
$GPGGA,180225.00,3501.1938,N,12208.4013,W,1,10,0.8,18.0,M,-33.3,M,,*67
$PYRTM,2024,125.751705116319,16.861352526458
$GPGGA,180226.00,3501.1911,N,12208.4012,W,1,10,0.8,18.3,M,-33.3,M,,*6D
$PYRTM,2024,125.751716702917,16.861364113056
$GPGGA,180227.00,3501.1884,N,12208.4008,W,1,10,0.8,18.5,M,-33.3,M,,*6C
$PYRTM,2024,125.751724099363,16.861371509514
$GPGGA,180228.00,3501.1857,N,12208.4003,W,1,10,0.8,18.4,M,-33.3,M,,*67
$PYRTM,2024,125.751739853137,16.861387263275
$GPGGA,180229.00,3501.1828,N,12208.3999,W,1,10,0.8,18.1,M,-33.3,M,,*66
$PYRTM,2024,125.751751412824,16.861398822975
$GPGGA,180230.00,3501.1801,N,12208.3996,W,1,10,0.8,18.1,M,-33.3,M,,*6A
$PYRTM,2024,125.751758819213,16.861406229352
$GPGGA,180231.00,3501.1774,N,12208.3990,W,1,10,0.8,18.3,M,-33.3,M,,*62
$PYRTM,2024,125.751774561215,16.861421971366
$GPGGA,180232.00,3501.1748,N,12208.3984,W,1,10,0.8,18.5,M,-33.3,M,,*6D
$PYRTM,2024,125.751786150648,16.861433560787
$GPGGA,180233.00,3501.1721,N,12208.3981,W,1,10,0.8,18.4,M,-33.3,M,,*67
$PYRTM,2024,125.751793542581,16.861440952720
$GPGGA,180234.00,3501.1695,N,12208.3979,W,1,10,0.8,18.3,M,-33.3,M,,*6E
$PYRTM,2024,125.751809298773,16.861456708912
$GPGGA,180235.00,3501.1668,N,12208.3976,W,1,10,0.8,17.9,M,-33.3,M,,*67
$PYRTM,2024,125.751820858854,16.861468268993
$GPGGA,180236.00,3501.1641,N,12208.3973,W,1,10,0.8,17.3,M,-33.3,M,,*60
$PYRTM,2024,125.751828264884,16.861475675023
$GPGGA,180237.00,3501.1614,N,12208.3968,W,1,10,0.8,17.0,M,-33.3,M,,*68
$PYRTM,2024,125.751844006343,16.861491416481
$GPGGA,180238.00,3501.1587,N,12208.3962,W,1,10,0.8,17.3,M,-33.3,M,,*67
$PYRTM,2024,125.751855593333,16.861503003472
$GPGGA,180239.00,3501.1560,N,12208.3956,W,1,10,0.8,18.1,M,-33.3,M,,*65
$PYRTM,2024,125.751862987500,16.861510397650
$GPGGA,180240.00,3501.1532,N,12208.3953,W,1,10,0.8,18.7,M,-33.3,M,,*6F
$PYRTM,2024,125.751878736875,16.861526147014
$GPGGA,180241.00,3501.1503,N,12208.3954,W,1,10,0.8,18.8,M,-33.3,M,,*64
$PYRTM,2024,125.751890302361,16.861537712500
$GPGGA,180242.00,3501.1476,N,12208.3953,W,1,10,0.8,18.1,M,-33.3,M,,*6A
$PYRTM,2024,125.751897710417,16.861545120556
$GPGGA,180243.00,3501.1450,N,12208.3947,W,1,10,0.8,17.9,M,-33.3,M,,*6D
$PYRTM,2024,125.751913449815,16.861560859965
$GPGGA,180244.00,3501.1424,N,12208.3940,W,1,10,0.8,17.5,M,-33.3,M,,*62
$PYRTM,2024,125.751920857095,16.861568267245
$GPGGA,180245.00,3501.1398,N,12208.3936,W,1,10,0.8,17.1,M,-33.3,M,,*66
$PYRTM,2024,125.751939376782,16.861586786921
$GPGGA,180246.00,3501.1372,N,12208.3936,W,1,10,0.8,17.1,M,-33.3,M,,*61
$PYRTM,2024,125.751948189398,16.861595599537
$GPGGA,180247.00,3501.1346,N,12208.3935,W,1,10,0.8,17.4,M,-33.3,M,,*61
$PYRTM,2024,125.751959752951,16.861607163090
$GPGGA,180248.00,3501.1319,N,12208.3933,W,1,10,0.8,17.7,M,-33.3,M,,*61
$PYRTM,2024,125.751967154942,16.861614565093
$GPGGA,180249.00,3501.1292,N,12208.3929,W,1,10,0.8,18.0,M,-33.3,M,,*61
$PYRTM,2024,125.751982896782,16.861630306921
$GPGGA,180250.00,3501.1264,N,12208.3922,W,1,10,0.8,18.3,M,-33.3,M,,*68
$PYRTM,2024,125.751994482894,16.861641893032
$GPGGA,180251.00,3501.1236,N,12208.3916,W,1,10,0.8,18.7,M,-33.3,M,,*6D
$PYRTM,2024,125.752001885637,16.861649295787
$GPGGA,180252.00,3501.1207,N,12208.3913,W,1,10,0.8,19.0,M,-33.3,M,,*6F
$PYRTM,2024,125.752017630949,16.861665041088
$GPGGA,180253.00,3501.1179,N,12208.3911,W,1,10,0.8,18.9,M,-33.3,M,,*6E
$PYRTM,2024,125.752029191829,16.861676601968
$GPGGA,180254.00,3501.1152,N,12208.3906,W,1,10,0.8,18.5,M,-33.3,M,,*6A
$PYRTM,2024,125.752036598507,16.861684008657
$GPGGA,180255.00,3501.1126,N,12208.3898,W,1,10,0.8,17.9,M,-33.3,M,,*6D
$PYRTM,2024,125.752052341123,16.861699751262
$GPGGA,180256.00,3501.1100,N,12208.3894,W,1,10,0.8,17.4,M,-33.3,M,,*6B
$PYRTM,2024,125.752063926574,16.861711336725
$GPGGA,180257.00,3501.1074,N,12208.3892,W,1,10,0.8,17.0,M,-33.3,M,,*6A
$PYRTM,2024,125.752071321343,16.861718731481
$GPGGA,180258.00,3501.1048,N,12208.3889,W,1,10,0.8,17.0,M,-33.3,M,,*60
$PYRTM,2024,125.752087075845,16.861734485995
$GPGGA,180259.00,3501.1021,N,12208.3883,W,1,10,0.8,17.3,M,-33.3,M,,*67
$PYRTM,2024,125.752098637847,16.861746047986
$GPGGA,180300.00,3501.0994,N,12208.3880,W,1,10,0.8,18.0,M,-33.3,M,,*63
$PYRTM,2024,125.752110237975,16.861757648113
$GPGGA,180301.00,3501.0968,N,12208.3879,W,1,10,0.8,18.6,M,-33.3,M,,*61
$PYRTM,2024,125.752121784977,16.861769195127
$GPGGA,180302.00,3501.0940,N,12208.3880,W,1,10,0.8,18.6,M,-33.3,M,,*6E
$PYRTM,2024,125.752133373067,16.861780783218
$GPGGA,180303.00,3501.0912,N,12208.3876,W,1,10,0.8,18.4,M,-33.3,M,,*63
$PYRTM,2024,125.752144934294,16.861792344433
$GPGGA,180304.00,3501.0885,N,12208.3867,W,1,10,0.8,18.5,M,-33.3,M,,*6A
$PYRTM,2024,125.752156520556,16.861803930706
$GPGGA,180305.00,3501.0859,N,12208.3858,W,1,10,0.8,18.7,M,-33.3,M,,*64
$PYRTM,2024,125.752168080602,16.861815490741
$GPGGA,180306.00,3501.0833,N,12208.3855,W,1,10,0.8,18.9,M,-33.3,M,,*68
$PYRTM,2024,125.752179665139,16.861827075278
$GPGGA,180307.00,3501.0805,N,12208.3858,W,1,10,0.8,18.5,M,-33.3,M,,*6D
$PYRTM,2024,125.752191229433,16.861838639572
$GPGGA,180308.00,3501.0779,N,12208.3858,W,1,10,0.8,18.1,M,-33.3,M,,*62
$PYRTM,2024,125.752202816782,16.861850226921
$GPGGA,180309.00,3501.0754,N,12208.3852,W,1,10,0.8,18.1,M,-33.3,M,,*66
$PYRTM,2024,125.752210212014,16.861857622153
$GPGGA,180310.00,3501.0728,N,12208.3841,W,1,10,0.8,18.2,M,-33.3,M,,*64
$PYRTM,2024,125.752225960590,16.861873370741
$GPGGA,180311.00,3501.0701,N,12208.3836,W,1,10,0.8,18.1,M,-33.3,M,,*6D
$PYRTM,2024,125.752237527477,16.861884937627
$GPGGA,180312.00,3501.0674,N,12208.3837,W,1,10,0.8,18.0,M,-33.3,M,,*6D
$PYRTM,2024,125.752249113438,16.861896523576
$GPGGA,180313.00,3501.0648,N,12208.3837,W,1,10,0.8,18.2,M,-33.3,M,,*61
$PYRTM,2024,125.752260674618,16.861908084769
$GPGGA,180314.00,3501.0621,N,12208.3832,W,1,10,0.8,18.7,M,-33.3,M,,*69
$PYRTM,2024,125.752268082292,16.861915492431
$GPGGA,180315.00,3501.0595,N,12208.3824,W,1,10,0.8,18.9,M,-33.3,M,,*6D
$PYRTM,2024,125.752279773241,16.861927183380
$GPGGA,180316.00,3501.0567,N,12208.3820,W,1,10,0.8,18.9,M,-33.3,M,,*67
$PYRTM,2024,125.752298305810,16.861945715949
$GPGGA,180317.00,3501.0541,N,12208.3818,W,1,10,0.8,18.9,M,-33.3,M,,*69
$PYRTM,2024,125.752306971539,16.861954381678
$GPGGA,180318.00,3501.0515,N,12208.3816,W,1,10,0.8,18.8,M,-33.3,M,,*68
$PYRTM,2024,125.752318559340,16.861965969479
$GPGGA,180319.00,3501.0489,N,12208.3813,W,1,10,0.8,18.5,M,-33.3,M,,*65
$PYRTM,2024,125.752330120046,16.861977530185
$GPGGA,180320.00,3501.0463,N,12208.3809,W,1,10,0.8,18.1,M,-33.3,M,,*64
$PYRTM,2024,125.752341706377,16.861989116516
$GPGGA,180321.00,3501.0437,N,12208.3806,W,1,10,0.8,18.0,M,-33.3,M,,*6A
$PYRTM,2024,125.752353266921,16.862000677072
$GPGGA,180322.00,3501.0412,N,12208.3804,W,1,10,0.8,17.9,M,-33.3,M,,*6A
$PYRTM,2024,125.752364856238,16.862012266389
$GPGGA,180323.00,3501.0385,N,12208.3802,W,1,10,0.8,18.0,M,-33.3,M,,*62
$PYRTM,2024,125.752376416181,16.862023826319
$GPGGA,180324.00,3501.0358,N,12208.3799,W,1,10,0.8,18.2,M,-33.3,M,,*6A
$PYRTM,2024,125.752383823935,16.862031234074
$GPGGA,180325.00,3501.0331,N,12208.3795,W,1,10,0.8,18.4,M,-33.3,M,,*6E
$PYRTM,2024,125.752399566563,16.862046976701
$GPGGA,180326.00,3501.0303,N,12208.3791,W,1,10,0.8,18.6,M,-33.3,M,,*6A
$PYRTM,2024,125.752411151181,16.862058561319
$GPGGA,180327.00,3501.0276,N,12208.3788,W,1,10,0.8,18.7,M,-33.3,M,,*61
$PYRTM,2024,125.752418545660,16.862065955799
$GPGGA,180328.00,3501.0248,N,12208.3786,W,1,10,0.8,18.7,M,-33.3,M,,*6D
$PYRTM,2024,125.752434302743,16.862081712882
$GPGGA,180329.00,3501.0220,N,12208.3782,W,1,10,0.8,18.5,M,-33.3,M,,*64
$PYRTM,2024,125.752445861875,16.862093272014
$GPGGA,180330.00,3501.0193,N,12208.3777,W,1,10,0.8,18.4,M,-33.3,M,,*6C
$PYRTM,2024,125.752457450069,16.862104860220
$GPGGA,180331.00,3501.0167,N,12208.3771,W,1,10,0.8,18.3,M,-33.3,M,,*67
$PYRTM,2024,125.752469008958,16.862116419097
$GPGGA,180332.00,3501.0141,N,12208.3767,W,1,10,0.8,18.1,M,-33.3,M,,*65
$PYRTM,2024,125.752480595718,16.862128005856
$GPGGA,180333.00,3501.0115,N,12208.3765,W,1,10,0.8,17.9,M,-33.3,M,,*60
$PYRTM,2024,125.752492158160,16.862139568299
$GPGGA,180334.00,3501.0089,N,12208.3764,W,1,10,0.8,17.7,M,-33.3,M,,*6C
$PYRTM,2024,125.752503744641,16.862151154780
$GPGGA,180335.00,3501.0062,N,12208.3761,W,1,10,0.8,17.8,M,-33.3,M,,*62
$PYRTM,2024,125.752515306551,16.862162716690
$GPGGA,180336.00,3501.0035,N,12208.3757,W,1,10,0.8,17.9,M,-33.3,M,,*67
$PYRTM,2024,125.752526887569,16.862174297708
$GPGGA,180337.00,3501.0009,N,12208.3752,W,1,10,0.8,18.2,M,-33.3,M,,*68
$PYRTM,2024,125.752538453912,16.862185864062
$GPGGA,180338.00,3500.9981,N,12208.3748,W,1,10,0.8,18.4,M,-33.3,M,,*6B
$PYRTM,2024,125.752550042778,16.862197452928
$GPGGA,180339.00,3500.9953,N,12208.3745,W,1,10,0.8,18.4,M,-33.3,M,,*68
$PYRTM,2024,125.752557436181,16.862204846319
$GPGGA,180340.00,3500.9925,N,12208.3742,W,1,10,0.8,18.4,M,-33.3,M,,*60
$PYRTM,2024,125.752573190868,16.862220601007
$GPGGA,180341.00,3500.9898,N,12208.3738,W,1,10,0.8,18.5,M,-33.3,M,,*6A
$PYRTM,2024,125.752584750602,16.862232160741
$GPGGA,180342.00,3500.9870,N,12208.3734,W,1,10,0.8,18.2,M,-33.3,M,,*64
$PYRTM,2024,125.752596340162,16.862243750313
$GPGGA,180343.00,3500.9843,N,12208.3732,W,1,10,0.8,17.8,M,-33.3,M,,*66
$PYRTM,2024,125.752607898843,16.862255308981
$GPGGA,180344.00,3500.9817,N,12208.3730,W,1,10,0.8,17.7,M,-33.3,M,,*6D
$PYRTM,2024,125.752619490463,16.862266900613
$GPGGA,180345.00,3500.9791,N,12208.3727,W,1,10,0.8,18.0,M,-33.3,M,,*63
$PYRTM,2024,125.752631046458,16.862278456597
$GPGGA,180346.00,3500.9765,N,12208.3724,W,1,10,0.8,18.1,M,-33.3,M,,*69
$PYRTM,2024,125.752638453171,16.862285863322
$GPGGA,180347.00,3500.9738,N,12208.3721,W,1,10,0.8,17.7,M,-33.3,M,,*6C
$PYRTM,2024,125.752656971516,16.862304381644
$GPGGA,180348.00,3500.9711,N,12208.3719,W,1,10,0.8,17.4,M,-33.3,M,,*60
$PYRTM,2024,125.752665781956,16.862313192095
$GPGGA,180349.00,3500.9685,N,12208.3714,W,1,10,0.8,17.7,M,-33.3,M,,*63
$PYRTM,2024,125.752677341968,16.862324752106
$GPGGA,180350.00,3500.9658,N,12208.3708,W,1,10,0.8,18.1,M,-33.3,M,,*6F
$PYRTM,2024,125.752688930127,16.862336340266
$GPGGA,180351.00,3500.9629,N,12208.3704,W,1,10,0.8,18.1,M,-33.3,M,,*64
$PYRTM,2024,125.752700490069,16.862347900208
$GPGGA,180352.00,3500.9599,N,12208.3704,W,1,10,0.8,17.7,M,-33.3,M,,*66
$PYRTM,2024,125.752712078194,16.862359488333
$GPGGA,180353.00,3500.9572,N,12208.3703,W,1,10,0.8,17.3,M,-33.3,M,,*61
$PYRTM,2024,125.752723640127,16.862371050266
$GPGGA,180354.00,3500.9544,N,12208.3696,W,1,10,0.8,17.3,M,-33.3,M,,*6E
$PYRTM,2024,125.752731046829,16.862378456968
$GPGGA,180355.00,3500.9517,N,12208.3686,W,1,10,0.8,17.3,M,-33.3,M,,*68
$PYRTM,2024,125.752746788819,16.862394198958
$GPGGA,180356.00,3500.9491,N,12208.3680,W,1,10,0.8,17.0,M,-33.3,M,,*61
$PYRTM,2024,125.752758390706,16.862405800845
$GPGGA,180357.00,3500.9465,N,12208.3679,W,1,10,0.8,16.6,M,-33.3,M,,*6A
$PYRTM,2024,125.752769937245,16.862417347384
$GPGGA,180358.00,3500.9439,N,12208.3680,W,1,10,0.8,16.1,M,-33.3,M,,*6D
$PYRTM,2024,125.752781526204,16.862428936343
$GPGGA,180359.00,3500.9412,N,12208.3677,W,1,10,0.8,15.6,M,-33.3,M,,*69
$PYRTM,2024,125.752788919259,16.862436329410
$GPGGA,180400.00,3500.9386,N,12208.3671,W,1,10,0.8,15.2,M,-33.3,M,,*6A
$PYRTM,2024,125.752804671273,16.862452081412
$GPGGA,180401.00,3500.9359,N,12208.3665,W,1,10,0.8,15.0,M,-33.3,M,,*6E
$PYRTM,2024,125.752816233808,16.862463643947
$GPGGA,180402.00,3500.9332,N,12208.3661,W,1,10,0.8,15.2,M,-33.3,M,,*66
$PYRTM,2024,125.752823640926,16.862471051076
$GPGGA,180403.00,3500.9303,N,12208.3659,W,1,10,0.8,15.5,M,-33.3,M,,*69
$PYRTM,2024,125.752839380509,16.862486790648
$GPGGA,180404.00,3500.9274,N,12208.3656,W,1,10,0.8,15.6,M,-33.3,M,,*63
$PYRTM,2024,125.752850971412,16.862498381551
$GPGGA,180405.00,3500.9246,N,12208.3652,W,1,10,0.8,15.5,M,-33.3,M,,*64
$PYRTM,2024,125.752862530683,16.862509940822
$GPGGA,180406.00,3500.9219,N,12208.3647,W,1,10,0.8,15.1,M,-33.3,M,,*6D
$PYRTM,2024,125.752874120914,16.862521531053
$GPGGA,180407.00,3500.9192,N,12208.3641,W,1,10,0.8,14.6,M,-33.3,M,,*6C
$PYRTM,2024,125.752881511516,16.862528921667
$GPGGA,180408.00,3500.9165,N,12208.3635,W,1,10,0.8,14.1,M,-33.3,M,,*6F
$PYRTM,2024,125.752897265046,16.862544675185
$GPGGA,180409.00,3500.9138,N,12208.3631,W,1,10,0.8,13.7,M,-33.3,M,,*63
$PYRTM,2024,125.752908826331,16.862556236470
$GPGGA,180410.00,3500.9113,N,12208.3628,W,1,10,0.8,13.9,M,-33.3,M,,*64
$PYRTM,2024,125.752920413854,16.862567823993
$GPGGA,180411.00,3500.9087,N,12208.3626,W,1,10,0.8,14.0,M,-33.3,M,,*69
$PYRTM,2024,125.752931974317,16.862579384468
$GPGGA,180412.00,3500.9061,N,12208.3623,W,1,10,0.8,13.8,M,-33.3,M,,*68
$PYRTM,2024,125.752943560961,16.862590971100
$GPGGA,180413.00,3500.9033,N,12208.3617,W,1,10,0.8,13.4,M,-33.3,M,,*65
$PYRTM,2024,125.752955126597,16.862602536736
$GPGGA,180414.00,3500.9006,N,12208.3610,W,1,10,0.8,13.2,M,-33.3,M,,*65
$PYRTM,2024,125.752966712859,16.862614122998
$GPGGA,180415.00,3500.8979,N,12208.3604,W,1,10,0.8,13.2,M,-33.3,M,,*61
$PYRTM,2024,125.752978272789,16.862625682940
$GPGGA,180416.00,3500.8952,N,12208.3600,W,1,10,0.8,13.3,M,-33.3,M,,*6E
$PYRTM,2024,125.752989861979,16.862637272130
$GPGGA,180417.00,3500.8925,N,12208.3599,W,1,10,0.8,13.3,M,-33.3,M,,*6C
$PYRTM,2024,125.752997255336,16.862644665475
$GPGGA,180418.00,3500.8898,N,12208.3597,W,1,10,0.8,13.2,M,-33.3,M,,*6B
$PYRTM,2024,125.753015787396,16.862663197535
$GPGGA,180419.00,3500.8871,N,12208.3593,W,1,10,0.8,12.9,M,-33.3,M,,*63
$PYRTM,2024,125.753024568322,16.862671978461
$GPGGA,180420.00,3500.8846,N,12208.3587,W,1,10,0.8,12.7,M,-33.3,M,,*66
$PYRTM,2024,125.753036155347,16.862683565498
$GPGGA,180421.00,3500.8820,N,12208.3581,W,1,10,0.8,12.5,M,-33.3,M,,*63
$PYRTM,2024,125.753047716748,16.862695126887
$GPGGA,180422.00,3500.8793,N,12208.3580,W,1,10,0.8,12.3,M,-33.3,M,,*60
$PYRTM,2024,125.753059303854,16.862706714005
$GPGGA,180423.00,3500.8764,N,12208.3579,W,1,10,0.8,12.2,M,-33.3,M,,*6E
$PYRTM,2024,125.753070862396,16.862718272535
$GPGGA,180424.00,3500.8737,N,12208.3576,W,1,10,0.8,12.3,M,-33.3,M,,*61
$PYRTM,2024,125.753082450394,16.862729860532
$GPGGA,180425.00,3500.8710,N,12208.3573,W,1,10,0.8,12.4,M,-33.3,M,,*67
$PYRTM,2024,125.753094012095,16.862741422234
$GPGGA,180426.00,3500.8683,N,12208.3571,W,1,10,0.8,12.2,M,-33.3,M,,*6B
$PYRTM,2024,125.753105598530,16.862753008669
$GPGGA,180427.00,3500.8655,N,12208.3568,W,1,10,0.8,11.7,M,-33.3,M,,*6F
$PYRTM,2024,125.753112994525,16.862760404664
$GPGGA,180428.00,3500.8627,N,12208.3562,W,1,10,0.8,11.4,M,-33.3,M,,*6C
$PYRTM,2024,125.753128750162,16.862776160301
$GPGGA,180429.00,3500.8602,N,12208.3558,W,1,10,0.8,11.5,M,-33.3,M,,*62
$PYRTM,2024,125.753140308530,16.862787718669
$GPGGA,180430.00,3500.8577,N,12208.3556,W,1,10,0.8,11.7,M,-33.3,M,,*67
$PYRTM,2024,125.753147713727,16.862795123866
$GPGGA,180431.00,3500.8550,N,12208.3554,W,1,10,0.8,11.6,M,-33.3,M,,*60
$PYRTM,2024,125.753163455637,16.862810865775
$GPGGA,180432.00,3500.8522,N,12208.3549,W,1,10,0.8,11.4,M,-33.3,M,,*68
$PYRTM,2024,125.753170864850,16.862818274988
$GPGGA,180433.00,3500.8496,N,12208.3544,W,1,10,0.8,11.4,M,-33.3,M,,*6A
$PYRTM,2024,125.753186605903,16.862834016042
$GPGGA,180434.00,3500.8471,N,12208.3538,W,1,10,0.8,11.8,M,-33.3,M,,*63
$PYRTM,2024,125.753198206539,16.862845616667
$GPGGA,180435.00,3500.8443,N,12208.3534,W,1,10,0.8,11.8,M,-33.3,M,,*6F
$PYRTM,2024,125.753209752986,16.862857163125
$GPGGA,180436.00,3500.8415,N,12208.3532,W,1,10,0.8,11.4,M,-33.3,M,,*65
$PYRTM,2024,125.753221340706,16.862868750845
$GPGGA,180437.00,3500.8388,N,12208.3530,W,1,10,0.8,10.8,M,-33.3,M,,*68
$PYRTM,2024,125.753232901620,16.862880311759
$GPGGA,180438.00,3500.8360,N,12208.3527,W,1,10,0.8,10.6,M,-33.3,M,,*69
$PYRTM,2024,125.753244489525,16.862891899664
$GPGGA,180439.00,3500.8334,N,12208.3520,W,1,10,0.8,10.7,M,-33.3,M,,*6F
$PYRTM,2024,125.753256049549,16.862903459688
$GPGGA,180440.00,3500.8308,N,12208.3513,W,1,10,0.8,11.0,M,-33.3,M,,*68
$PYRTM,2024,125.753267637523,16.862915047662
$GPGGA,180441.00,3500.8281,N,12208.3512,W,1,10,0.8,11.1,M,-33.3,M,,*69
$PYRTM,2024,125.753279198287,16.862926608426
$GPGGA,180442.00,3500.8255,N,12208.3514,W,1,10,0.8,11.2,M,-33.3,M,,*66
$PYRTM,2024,125.753290784884,16.862938195035
$GPGGA,180443.00,3500.8229,N,12208.3513,W,1,10,0.8,11.1,M,-33.3,M,,*68
$PYRTM,2024,125.753302347049,16.862949757188
$GPGGA,180444.00,3500.8201,N,12208.3508,W,1,10,0.8,10.7,M,-33.3,M,,*68
$PYRTM,2024,125.753313927002,16.862961337141
$GPGGA,180445.00,3500.8174,N,12208.3502,W,1,10,0.8,10.3,M,-33.3,M,,*66
$PYRTM,2024,125.753325494803,16.862972904942
$GPGGA,180446.00,3500.8148,N,12208.3497,W,1,10,0.8,10.4,M,-33.3,M,,*60
$PYRTM,2024,125.753337094988,16.862984505127
$GPGGA,180447.00,3500.8121,N,12208.3494,W,1,10,0.8,10.7,M,-33.3,M,,*6E
$PYRTM,2024,125.753348642616,16.862996052755
$GPGGA,180448.00,3500.8093,N,12208.3492,W,1,10,0.8,10.6,M,-33.3,M,,*6E
$PYRTM,2024,125.753356050197,16.863003460336
$GPGGA,180449.00,3500.8066,N,12208.3490,W,1,10,0.8,10.4,M,-33.3,M,,*65
$PYRTM,2024,125.753374568646,16.863021978785
$GPGGA,180450.00,3500.8040,N,12208.3487,W,1,10,0.8,10.3,M,-33.3,M,,*68
$PYRTM,2024,125.753383379676,16.863030789815
$GPGGA,180451.00,3500.8013,N,12208.3482,W,1,10,0.8,10.3,M,-33.3,M,,*6A
$PYRTM,2024,125.753394938715,16.863042348843
$GPGGA,180452.00,3500.7986,N,12208.3476,W,1,10,0.8,10.2,M,-33.3,M,,*69
$PYRTM,2024,125.753406526898,16.863053937037
$GPGGA,180453.00,3500.7960,N,12208.3472,W,1,10,0.8,10.2,M,-33.3,M,,*64
$PYRTM,2024,125.753418088750,16.863065498889
$GPGGA,180454.00,3500.7935,N,12208.3471,W,1,10,0.8,10.4,M,-33.3,M,,*66
$PYRTM,2024,125.753429674745,16.863077084896
$GPGGA,180455.00,3500.7909,N,12208.3470,W,1,10,0.8,10.3,M,-33.3,M,,*6E
$PYRTM,2024,125.753441132419,16.863088542558
$GPGGA,180456.00,3500.7882,N,12208.3466,W,1,10,0.8,9.9,M,-33.3,M,,*5A
$PYRTM,2024,125.753452707130,16.863100117269
$GPGGA,180457.00,3500.7856,N,12208.3458,W,1,10,0.8,9.5,M,-33.3,M,,*53
$PYRTM,2024,125.753464276458,16.863111686597
$GPGGA,180458.00,3500.7830,N,12208.3450,W,1,10,0.8,9.7,M,-33.3,M,,*56
$PYRTM,2024,125.753475971204,16.863123381343
$GPGGA,180459.00,3500.7804,N,12208.3446,W,1,10,0.8,10.4,M,-33.3,M,,*6C
$PYRTM,2024,125.753487532905,16.863134943056
$GPGGA,180500.00,3500.7776,N,12208.3447,W,1,10,0.8,10.6,M,-33.3,M,,*68
$PYRTM,2024,125.753499128519,16.863146538657
$GPGGA,180501.00,3500.7748,N,12208.3448,W,1,10,0.8,10.4,M,-33.3,M,,*69
$PYRTM,2024,125.753510681736,16.863158091887
$GPGGA,180502.00,3500.7721,N,12208.3444,W,1,10,0.8,10.0,M,-33.3,M,,*6D
$PYRTM,2024,125.753517973449,16.863165383588
$GPGGA,180503.00,3500.7696,N,12208.3435,W,1,10,0.8,9.9,M,-33.3,M,,*56
$PYRTM,2024,125.753533726354,16.863181136493
$GPGGA,180504.00,3500.7670,N,12208.3428,W,1,10,0.8,9.4,M,-33.3,M,,*58
$PYRTM,2024,125.753541121505,16.863188531644
$GPGGA,180505.00,3500.7643,N,12208.3426,W,1,09,0.8,8.8,M,-33.3,M,,*52
$PYRTM,2024,125.753556874352,16.863204284491
$GPGGA,180506.00,3500.7618,N,12208.3429,W,1,09,0.8,8.7,M,-33.3,M,,*5F
$PYRTM,2024,125.753568448785,16.863215858924
$GPGGA,180507.00,3500.7593,N,12208.3428,W,1,09,0.8,8.3,M,-33.3,M,,*5B
$PYRTM,2024,125.753580022500,16.863227432639
$GPGGA,180508.00,3500.7568,N,12208.3420,W,1,09,0.8,8.5,M,-33.3,M,,*5E
$PYRTM,2024,125.753591597384,16.863239007523
$GPGGA,180509.00,3500.7542,N,12208.3413,W,1,09,0.8,8.4,M,-33.3,M,,*56
$PYRTM,2024,125.753603168252,16.863250578391
$GPGGA,180510.00,3500.7515,N,12208.3412,W,1,09,0.8,8.3,M,-33.3,M,,*5A
$PYRTM,2024,125.753614745880,16.863262156019
$GPGGA,180511.00,3500.7489,N,12208.3413,W,1,09,0.8,8.2,M,-33.3,M,,*5F
$PYRTM,2024,125.753626320069,16.863273730208
$GPGGA,180512.00,3500.7462,N,12208.3410,W,1,09,0.8,8.1,M,-33.3,M,,*59
$PYRTM,2024,125.753637890683,16.863285300833
$GPGGA,180513.00,3500.7436,N,12208.3403,W,1,09,0.8,8.1,M,-33.3,M,,*5B
$PYRTM,2024,125.753649468576,16.863296878715
$GPGGA,180514.00,3500.7410,N,12208.3396,W,1,09,0.8,8.0,M,-33.3,M,,*52
$PYRTM,2024,125.753661045301,16.863308455428
$GPGGA,180515.00,3500.7384,N,12208.3395,W,1,09,0.8,8.2,M,-33.3,M,,*58
$PYRTM,2024,125.753672618681,16.863320028819
$GPGGA,180516.00,3500.7358,N,12208.3395,W,1,09,0.8,8.4,M,-33.3,M,,*5C
$PYRTM,2024,125.753684205093,16.863331615243
$GPGGA,180517.00,3500.7331,N,12208.3395,W,1,09,0.8,8.2,M,-33.3,M,,*54
$PYRTM,2024,125.753695764062,16.863343174213
$GPGGA,180518.00,3500.7304,N,12208.3390,W,1,09,0.8,7.8,M,-33.3,M,,*5D
$PYRTM,2024,125.753707453854,16.863354863993
$GPGGA,180519.00,3500.7278,N,12208.3382,W,1,09,0.8,7.6,M,-33.3,M,,*5B
$PYRTM,2024,125.753714748889,16.863362159028
$GPGGA,180520.00,3500.7254,N,12208.3375,W,1,09,0.8,8.1,M,-33.3,M,,*5F
$PYRTM,2024,125.753733380833,16.863380790972
$GPGGA,180521.00,3500.7228,N,12208.3373,W,1,09,0.8,8.8,M,-33.3,M,,*5A
$PYRTM,2024,125.753742162431,16.863389572569
$GPGGA,180522.00,3500.7201,N,12208.3375,W,1,09,0.8,9.1,M,-33.3,M,,*5C
$PYRTM,2024,125.753749454873,16.863396865012
$GPGGA,180523.00,3500.7173,N,12208.3375,W,1,09,0.8,8.8,M,-33.3,M,,*53
$PYRTM,2024,125.753765311933,16.863412722083
$GPGGA,180524.00,3500.7146,N,12208.3372,W,1,09,0.8,8.6,M,-33.3,M,,*5B
$PYRTM,2024,125.753776898866,16.863424309005
$GPGGA,180525.00,3500.7121,N,12208.3366,W,1,09,0.8,9.0,M,-33.3,M,,*59
$PYRTM,2024,125.753784177384,16.863431587523
$GPGGA,180526.00,3500.7095,N,12208.3360,W,1,09,0.8,9.4,M,-33.3,M,,*56
$PYRTM,2024,125.753799932315,16.863447342454
$GPGGA,180527.00,3500.7067,N,12208.3357,W,1,09,0.8,9.5,M,-33.3,M,,*5F
$PYRTM,2024,125.753811506516,16.863458916667
$GPGGA,180528.00,3500.7040,N,12208.3358,W,1,09,0.8,9.4,M,-33.3,M,,*5B
$PYRTM,2024,125.753823080278,16.863470490417
$GPGGA,180529.00,3500.7014,N,12208.3357,W,1,09,0.8,9.3,M,-33.3,M,,*53
$PYRTM,2024,125.753834655660,16.863482065799
$GPGGA,180530.00,3500.6988,N,12208.3353,W,1,09,0.8,9.1,M,-33.3,M,,*50
$PYRTM,2024,125.753842048264,16.863489458403
$GPGGA,180531.00,3500.6962,N,12208.3346,W,1,09,0.8,9.1,M,-33.3,M,,*51
$PYRTM,2024,125.753857801725,16.863505211863
$GPGGA,180532.00,3500.6937,N,12208.3340,W,1,09,0.8,9.1,M,-33.3,M,,*54
$PYRTM,2024,125.753869379282,16.863516789421
$GPGGA,180533.00,3500.6911,N,12208.3339,W,1,09,0.8,9.2,M,-33.3,M,,*5C
$PYRTM,2024,125.753880950683,16.863528360822
$GPGGA,180534.00,3500.6884,N,12208.3340,W,1,09,0.8,9.3,M,-33.3,M,,*59
$PYRTM,2024,125.753892523970,16.863539934109
$GPGGA,180535.00,3500.6857,N,12208.3338,W,1,09,0.8,9.4,M,-33.3,M,,*5E
$PYRTM,2024,125.753899932257,16.863547342396
$GPGGA,180536.00,3500.6830,N,12208.3329,W,1,09,0.8,9.5,M,-33.3,M,,*5D
$PYRTM,2024,125.753915673519,16.863563083657
$GPGGA,180537.00,3500.6803,N,12208.3321,W,1,09,0.8,9.3,M,-33.3,M,,*52
$PYRTM,2024,125.753927248507,16.863574658646
$GPGGA,180538.00,3500.6776,N,12208.3318,W,1,09,0.8,9.1,M,-33.3,M,,*58
$PYRTM,2024,125.753938834039,16.863586244178
$GPGGA,180539.00,3500.6749,N,12208.3317,W,1,09,0.8,9.0,M,-33.3,M,,*5B
$PYRTM,2024,125.753950395255,16.863597805394
$GPGGA,180540.00,3500.6722,N,12208.3315,W,1,09,0.8,9.2,M,-33.3,M,,*58
$PYRTM,2024,125.753961980185,16.863609390324
$GPGGA,180541.00,3500.6695,N,12208.3308,W,1,09,0.8,9.1,M,-33.3,M,,*5B
$PYRTM,2024,125.753973543646,16.863620953785
$GPGGA,180542.00,3500.6669,N,12208.3302,W,1,09,0.8,9.0,M,-33.3,M,,*50
$PYRTM,2024,125.753985117604,16.863632527743
$GPGGA,180543.00,3500.6642,N,12208.3300,W,1,09,0.8,8.9,M,-33.3,M,,*52
$PYRTM,2024,125.753992523646,16.863639933785
$GPGGA,180544.00,3500.6616,N,12208.3302,W,1,09,0.8,8.9,M,-33.3,M,,*56
$PYRTM,2024,125.754008292847,16.863655702998
$GPGGA,180545.00,3500.6590,N,12208.3302,W,1,09,0.8,9.0,M,-33.3,M,,*52
$PYRTM,2024,125.754019840150,16.863667250289
$GPGGA,180546.00,3500.6563,N,12208.3296,W,1,09,0.8,9.0,M,-33.3,M,,*51
$PYRTM,2024,125.754031421701,16.863678831840
$GPGGA,180547.00,3500.6537,N,12208.3288,W,1,09,0.8,9.0,M,-33.3,M,,*5E
$PYRTM,2024,125.754042988727,16.863690398866
$GPGGA,180548.00,3500.6511,N,12208.3283,W,1,09,0.8,9.0,M,-33.3,M,,*5E
$PYRTM,2024,125.754050384051,16.863697794190
$GPGGA,180549.00,3500.6484,N,12208.3284,W,1,09,0.8,9.1,M,-33.3,M,,*54
$PYRTM,2024,125.754066137616,16.863713547755
$GPGGA,180550.00,3500.6456,N,12208.3286,W,1,09,0.8,9.0,M,-33.3,M,,*50
$PYRTM,2024,125.754073532720,16.863720942859
$GPGGA,180551.00,3500.6429,N,12208.3283,W,1,09,0.8,8.9,M,-33.3,M,,*54
$PYRTM,2024,125.754092180590,16.863739590729
$GPGGA,180552.00,3500.6403,N,12208.3276,W,1,09,0.8,9.3,M,-33.3,M,,*5E
$PYRTM,2024,125.754100870243,16.863748280382
$GPGGA,180553.00,3500.6376,N,12208.3271,W,1,09,0.8,9.6,M,-33.3,M,,*58
$PYRTM,2024,125.754112434491,16.863759844630
$GPGGA,180554.00,3500.6349,N,12208.3268,W,1,09,0.8,9.9,M,-33.3,M,,*54
$PYRTM,2024,125.754124008472,16.863771418611
$GPGGA,180555.00,3500.6324,N,12208.3266,W,1,09,0.8,9.9,M,-33.3,M,,*50
$PYRTM,2024,125.754135582593,16.863782992731
$GPGGA,180556.00,3500.6297,N,12208.3265,W,1,09,0.8,9.4,M,-33.3,M,,*54
$PYRTM,2024,125.754142977199,16.863790387350
$GPGGA,180557.00,3500.6270,N,12208.3262,W,1,09,0.8,8.8,M,-33.3,M,,*56
$PYRTM,2024,125.754158729873,16.863806140012
$GPGGA,180558.00,3500.6245,N,12208.3255,W,1,09,0.8,8.8,M,-33.3,M,,*5B
$PYRTM,2024,125.754170312442,16.863817722593
$GPGGA,180559.00,3500.6219,N,12208.3247,W,1,09,0.8,9.3,M,-33.3,M,,*5A
$PYRTM,2024,125.754177711238,16.863825121377
$GPGGA,180600.00,3500.6193,N,12208.3242,W,1,09,0.8,10.1,M,-33.3,M,,*6B
$PYRTM,2024,125.754193571366,16.863840981516
$GPGGA,180601.00,3500.6166,N,12208.3240,W,1,09,0.8,10.6,M,-33.3,M,,*65
$PYRTM,2024,125.754205141782,16.863852551933
$GPGGA,180602.00,3500.6138,N,12208.3241,W,1,09,0.8,10.3,M,-33.3,M,,*69
$PYRTM,2024,125.754212537431,16.863859947569
$GPGGA,180603.00,3500.6112,N,12208.3239,W,1,09,0.8,10.6,M,-33.3,M,,*6A
$PYRTM,2024,125.754228284988,16.863875695127
$GPGGA,180604.00,3500.6087,N,12208.3233,W,1,09,0.8,10.3,M,-33.3,M,,*6F
$PYRTM,2024,125.754239865880,16.863887276019
$GPGGA,180605.00,3500.6062,N,12208.3223,W,1,09,0.8,10.1,M,-33.3,M,,*66
$PYRTM,2024,125.754251439618,16.863898849757
$GPGGA,180606.00,3500.6036,N,12208.3219,W,1,09,0.8,10.0,M,-33.3,M,,*6C
$PYRTM,2024,125.754262896597,16.863910306736
$GPGGA,180607.00,3500.6009,N,12208.3219,W,1,09,0.8,9.7,M,-33.3,M,,*5E
$PYRTM,2024,125.754274466655,16.863921876806
$GPGGA,180608.00,3500.5982,N,12208.3220,W,1,09,0.8,9.5,M,-33.3,M,,*50
$PYRTM,2024,125.754286045810,16.863933455949
$GPGGA,180609.00,3500.5955,N,12208.3218,W,1,09,0.8,9.6,M,-33.3,M,,*53
$PYRTM,2024,125.754297620694,16.863945030833
$GPGGA,180610.00,3500.5929,N,12208.3212,W,1,09,0.8,9.7,M,-33.3,M,,*5B
$PYRTM,2024,125.754309309155,16.863956719294
$GPGGA,180611.00,3500.5902,N,12208.3207,W,1,09,0.8,10.0,M,-33.3,M,,*68
$PYRTM,2024,125.754320883252,16.863968293391
$GPGGA,180612.00,3500.5874,N,12208.3203,W,1,09,0.8,10.3,M,-33.3,M,,*6C
$PYRTM,2024,125.754332461250,16.863979871389
$GPGGA,180613.00,3500.5846,N,12208.3200,W,1,09,0.8,10.3,M,-33.3,M,,*6F
$PYRTM,2024,125.754344033368,16.863991443507
$GPGGA,180614.00,3500.5820,N,12208.3197,W,1,09,0.8,10.5,M,-33.3,M,,*63
$PYRTM,2024,125.754355609375,16.864003019525
$GPGGA,180615.00,3500.5793,N,12208.3193,W,1,09,0.8,10.3,M,-33.3,M,,*67
$PYRTM,2024,125.754367064294,16.864014474433
$GPGGA,180616.00,3500.5766,N,12208.3191,W,1,09,0.8,9.7,M,-33.3,M,,*50
$PYRTM,2024,125.754378638229,16.864026048380
$GPGGA,180617.00,3500.5739,N,12208.3188,W,1,09,0.8,9.3,M,-33.3,M,,*57
$PYRTM,2024,125.754390213194,16.864037623345
$GPGGA,180618.00,3500.5713,N,12208.3182,W,1,09,0.8,9.3,M,-33.3,M,,*5A
$PYRTM,2024,125.754401787326,16.864049197465
$GPGGA,180619.00,3500.5688,N,12208.3175,W,1,09,0.8,9.8,M,-33.3,M,,*5B
$PYRTM,2024,125.754413361678,16.864060771817
$GPGGA,180620.00,3500.5660,N,12208.3172,W,1,09,0.8,9.5,M,-33.3,M,,*5D
$PYRTM,2024,125.754424936204,16.864072346343
$GPGGA,180621.00,3500.5632,N,12208.3174,W,1,09,0.8,9.0,M,-33.3,M,,*58
$PYRTM,2024,125.754432342269,16.864079752407
$GPGGA,180622.00,3500.5605,N,12208.3172,W,1,09,0.8,9.0,M,-33.3,M,,*59
$PYRTM,2024,125.754450977396,16.864098387535
$GPGGA,180623.00,3500.5580,N,12208.3162,W,1,09,0.8,9.4,M,-33.3,M,,*53
$PYRTM,2024,125.754462550856,16.864109961007
$GPGGA,180624.00,3500.5553,N,12208.3153,W,1,09,0.8,9.8,M,-33.3,M,,*54
$PYRTM,2024,125.754474124884,16.864121535035
$GPGGA,180625.00,3500.5525,N,12208.3150,W,1,09,0.8,9.7,M,-33.3,M,,*58
$PYRTM,2024,125.754485698403,16.864133108553
$GPGGA,180626.00,3500.5498,N,12208.3154,W,1,09,0.8,9.5,M,-33.3,M,,*5A
$PYRTM,2024,125.754497276817,16.864144686956
$GPGGA,180627.00,3500.5472,N,12208.3153,W,1,09,0.8,9.3,M,-33.3,M,,*5E
$PYRTM,2024,125.754505954074,16.864153364213
$GPGGA,180628.00,3500.5447,N,12208.3147,W,1,09,0.8,9.4,M,-33.3,M,,*55
$PYRTM,2024,125.754513348553,16.864160758692
$GPGGA,180629.00,3500.5421,N,12208.3139,W,1,09,0.8,9.3,M,-33.3,M,,*5A
$PYRTM,2024,125.754529102245,16.864176512384
$GPGGA,180630.00,3500.5394,N,12208.3136,W,1,09,0.8,9.2,M,-33.3,M,,*55
$PYRTM,2024,125.754540687477,16.864188097627
$GPGGA,180631.00,3500.5368,N,12208.3135,W,1,09,0.8,9.3,M,-33.3,M,,*55
$PYRTM,2024,125.754552251632,16.864199661771
$GPGGA,180632.00,3500.5340,N,12208.3136,W,1,09,0.8,9.3,M,-33.3,M,,*5F
$PYRTM,2024,125.754563824375,16.864211234514
$GPGGA,180633.00,3500.5314,N,12208.3132,W,1,09,0.8,9.2,M,-33.3,M,,*5A
$PYRTM,2024,125.754575510741,16.864222920880
$GPGGA,180634.00,3500.5288,N,12208.3127,W,1,09,0.8,10.0,M,-33.3,M,,*67
$PYRTM,2024,125.754586972361,16.864234382500
$GPGGA,180635.00,3500.5259,N,12208.3123,W,1,09,0.8,9.9,M,-33.3,M,,*5F
$PYRTM,2024,125.754598543600,16.864245953750
$GPGGA,180636.00,3500.5231,N,12208.3121,W,1,09,0.8,9.0,M,-33.3,M,,*59
$PYRTM,2024,125.754610121933,16.864257532072
$GPGGA,180637.00,3500.5205,N,12208.3116,W,1,09,0.8,9.6,M,-33.3,M,,*5D
$PYRTM,2024,125.754621811123,16.864269221262
$GPGGA,180638.00,3500.5180,N,12208.3111,W,1,09,0.8,10.2,M,-33.3,M,,*67
$PYRTM,2024,125.754633385289,16.864280795428
$GPGGA,180639.00,3500.5154,N,12208.3107,W,1,09,0.8,10.0,M,-33.3,M,,*6A
$PYRTM,2024,125.754644843264,16.864292253403
$GPGGA,180640.00,3500.5127,N,12208.3107,W,1,09,0.8,9.2,M,-33.3,M,,*5A
$PYRTM,2024,125.754656428819,16.864303838958
$GPGGA,180641.00,3500.5101,N,12208.3105,W,1,09,0.8,8.7,M,-33.3,M,,*59
$PYRTM,2024,125.754667991875,16.864315402014
$GPGGA,180642.00,3500.5076,N,12208.3099,W,1,09,0.8,8.8,M,-33.3,M,,*50
$PYRTM,2024,125.754679573924,16.864326984063
$GPGGA,180643.00,3500.5050,N,12208.3094,W,1,09,0.8,8.9,M,-33.3,M,,*59
$PYRTM,2024,125.754691140359,16.864338550498
$GPGGA,180644.00,3500.5022,N,12208.3091,W,1,09,0.8,9.2,M,-33.3,M,,*54
$PYRTM,2024,125.754702740370,16.864350150509
$GPGGA,180645.00,3500.4995,N,12208.3088,W,1,09,0.8,9.7,M,-33.3,M,,*5C
$PYRTM,2024,125.754714400278,16.864361810417
$GPGGA,180646.00,3500.4967,N,12208.3084,W,1,09,0.8,10.2,M,-33.3,M,,*63
$PYRTM,2024,125.754721799537,16.864369209676
$GPGGA,180647.00,3500.4939,N,12208.3078,W,1,09,0.8,10.3,M,-33.3,M,,*6B
$PYRTM,2024,125.754737553461,16.864384963611
$GPGGA,180648.00,3500.4912,N,12208.3073,W,1,09,0.8,10.1,M,-33.3,M,,*64
$PYRTM,2024,125.754744831771,16.864392241921
$GPGGA,180649.00,3500.4886,N,12208.3069,W,1,09,0.8,9.7,M,-33.3,M,,*5C
$PYRTM,2024,125.754756648843,16.864404058981
$GPGGA,180650.00,3500.4860,N,12208.3067,W,1,09,0.8,8.9,M,-33.3,M,,*5D
$PYRTM,2024,125.754772169491,16.864419579630
$GPGGA,180651.00,3500.4835,N,12208.3064,W,1,09,0.8,8.4,M,-33.3,M,,*52
$PYRTM,2024,125.754783734433,16.864431144572
$GPGGA,180652.00,3500.4810,N,12208.3060,W,1,09,0.8,8.5,M,-33.3,M,,*53
$PYRTM,2024,125.754791127523,16.864438537662
$GPGGA,180653.00,3500.4785,N,12208.3056,W,1,09,0.8,8.9,M,-33.3,M,,*58
$PYRTM,2024,125.754809774803,16.864457184942
$GPGGA,180654.00,3500.4758,N,12208.3054,W,1,09,0.8,9.2,M,-33.3,M,,*57
$PYRTM,2024,125.754821348600,16.864468758738
$GPGGA,180655.00,3500.4732,N,12208.3054,W,1,09,0.8,9.4,M,-33.3,M,,*5C
$PYRTM,2024,125.754832923484,16.864480333623
$GPGGA,180656.00,3500.4705,N,12208.3051,W,1,09,0.8,9.6,M,-33.3,M,,*5C
$PYRTM,2024,125.754845886088,16.864493296238
$GPGGA,180657.00,3500.4678,N,12208.3046,W,1,09,0.8,9.7,M,-33.3,M,,*51
$PYRTM,2024,125.754856071262,16.864503481400
$GPGGA,180658.00,3500.4650,N,12208.3040,W,1,09,0.8,9.5,M,-33.3,M,,*50
$PYRTM,2024,125.754864763843,16.864512173981
$GPGGA,180659.00,3500.4623,N,12208.3038,W,1,09,0.8,9.2,M,-33.3,M,,*5D
$PYRTM,2024,125.754876321725,16.864523731863
$GPGGA,180700.00,3500.4597,N,12208.3035,W,1,09,0.8,9.0,M,-33.3,M,,*53
$PYRTM,2024,125.754887911852,16.864535321991
$GPGGA,180701.00,3500.4572,N,12208.3032,W,1,09,0.8,9.0,M,-33.3,M,,*5E
$PYRTM,2024,125.754899474606,16.864546884745
$GPGGA,180702.00,3500.4547,N,12208.3029,W,1,09,0.8,8.8,M,-33.3,M,,*58
$PYRTM,2024,125.754906878403,16.864554288553
$GPGGA,180703.00,3500.4521,N,12208.3026,W,1,09,0.8,8.5,M,-33.3,M,,*5B
$PYRTM,2024,125.754922617824,16.864570027963
$GPGGA,180704.00,3500.4495,N,12208.3023,W,1,09,0.8,8.4,M,-33.3,M,,*56
$PYRTM,2024,125.754934198542,16.864581608681
$GPGGA,180705.00,3500.4469,N,12208.3019,W,1,09,0.8,8.7,M,-33.3,M,,*5E
$PYRTM,2024,125.754941599595,16.864589009734
$GPGGA,180706.00,3500.4442,N,12208.3016,W,1,09,0.8,9.1,M,-33.3,M,,*5C
$PYRTM,2024,125.754957347002,16.864604757141
$GPGGA,180707.00,3500.4415,N,12208.3013,W,1,09,0.8,9.6,M,-33.3,M,,*5D
$PYRTM,2024,125.754968921771,16.864616331910
$GPGGA,180708.00,3500.4388,N,12208.3011,W,1,09,0.8,9.8,M,-33.3,M,,*5D
$PYRTM,2024,125.754980494491,16.864627904641
$GPGGA,180709.00,3500.4361,N,12208.3007,W,1,09,0.8,9.7,M,-33.3,M,,*53
$PYRTM,2024,125.754992069977,16.864639480116
$GPGGA,180710.00,3500.4334,N,12208.3000,W,1,09,0.8,9.4,M,-33.3,M,,*5F
$PYRTM,2024,125.755003649965,16.864651060104
$GPGGA,180711.00,3500.4307,N,12208.2994,W,1,09,0.8,9.3,M,-33.3,M,,*5C
$PYRTM,2024,125.755015216852,16.864662626991
$GPGGA,180712.00,3500.4281,N,12208.2990,W,1,09,0.8,9.2,M,-33.3,M,,*55
$PYRTM,2024,125.755026799653,16.864674209792
$GPGGA,180713.00,3500.4254,N,12208.2989,W,1,09,0.8,9.0,M,-33.3,M,,*56
$PYRTM,2024,125.755038364525,16.864685774676
$GPGGA,180714.00,3500.4228,N,12208.2989,W,1,09,0.8,9.0,M,-33.3,M,,*5A
$PYRTM,2024,125.755049950637,16.864697360775
$GPGGA,180715.00,3500.4202,N,12208.2987,W,1,09,0.8,9.0,M,-33.3,M,,*5D
$PYRTM,2024,125.755061512951,16.864708923090
$GPGGA,180716.00,3500.4176,N,12208.2981,W,1,09,0.8,9.1,M,-33.3,M,,*59
$PYRTM,2024,125.755073088090,16.864720498229
$GPGGA,180717.00,3500.4150,N,12208.2976,W,1,09,0.8,9.2,M,-33.3,M,,*57
$PYRTM,2024,125.755080487616,16.864727897755
$GPGGA,180718.00,3500.4124,N,12208.2972,W,1,09,0.8,9.4,M,-33.3,M,,*59
$PYRTM,2024,125.755096246748,16.864743656887
$GPGGA,180719.00,3500.4098,N,12208.2972,W,1,09,0.8,9.2,M,-33.3,M,,*58
$PYRTM,2024,125.755107809028,16.864755219167
$GPGGA,180720.00,3500.4071,N,12208.2970,W,1,09,0.8,9.0,M,-33.3,M,,*55
$PYRTM,2024,125.755115205475,16.864762615613
$GPGGA,180721.00,3500.4045,N,12208.2965,W,1,09,0.8,9.2,M,-33.3,M,,*55
$PYRTM,2024,125.755130962187,16.864778372326
$GPGGA,180722.00,3500.4018,N,12208.2957,W,1,09,0.8,9.6,M,-33.3,M,,*5B
$PYRTM,2024,125.755142531285,16.864789941424
$GPGGA,180723.00,3500.3990,N,12208.2952,W,1,09,0.8,9.9,M,-33.3,M,,*5E
$PYRTM,2024,125.755149937951,16.864797348090
$GPGGA,180724.00,3500.3962,N,12208.2951,W,1,09,0.8,9.9,M,-33.3,M,,*57
$PYRTM,2024,125.755168578125,16.864815988264
$GPGGA,180725.00,3500.3935,N,12208.2951,W,1,09,0.8,10.0,M,-33.3,M,,*65
$PYRTM,2024,125.755180250359,16.864827660509
$GPGGA,180726.00,3500.3909,N,12208.2948,W,1,09,0.8,10.0,M,-33.3,M,,*61
$PYRTM,2024,125.755191725833,16.864839135972
$GPGGA,180727.00,3500.3882,N,12208.2942,W,1,09,0.8,9.5,M,-33.3,M,,*55
$PYRTM,2024,125.755200517650,16.864847927789
$GPGGA,180728.00,3500.3855,N,12208.2938,W,1,09,0.8,9.0,M,-33.3,M,,*58
$PYRTM,2024,125.755207801782,16.864855211933
$GPGGA,180729.00,3500.3830,N,12208.2935,W,1,09,0.8,8.9,M,-33.3,M,,*5F
$PYRTM,2024,125.755223665972,16.864871076111
$GPGGA,180730.00,3500.3805,N,12208.2933,W,1,09,0.8,9.0,M,-33.3,M,,*5F
$PYRTM,2024,125.755230945567,16.864878355706
$GPGGA,180731.00,3500.3779,N,12208.2930,W,1,09,0.8,9.3,M,-33.3,M,,*5A
$PYRTM,2024,125.755246698993,16.864894109132
$GPGGA,180732.00,3500.3753,N,12208.2926,W,1,09,0.8,9.6,M,-33.3,M,,*53
$PYRTM,2024,125.755258285937,16.864905696076
$GPGGA,180733.00,3500.3726,N,12208.2922,W,1,09,0.8,9.9,M,-33.3,M,,*5B
$PYRTM,2024,125.755269848137,16.864917258275
$GPGGA,180734.00,3500.3699,N,12208.2920,W,1,09,0.8,9.9,M,-33.3,M,,*5B
$PYRTM,2024,125.755281420741,16.864928830880
$GPGGA,180735.00,3500.3670,N,12208.2918,W,1,09,0.8,9.5,M,-33.3,M,,*5A
$PYRTM,2024,125.755288828426,16.864936238576
$GPGGA,180736.00,3500.3642,N,12208.2914,W,1,09,0.8,9.3,M,-33.3,M,,*52
$PYRTM,2024,125.755304569502,16.864951979641
$GPGGA,180737.00,3500.3615,N,12208.2908,W,1,09,0.8,9.6,M,-33.3,M,,*59
$PYRTM,2024,125.755316143669,16.864963553808
$GPGGA,180738.00,3500.3588,N,12208.2902,W,1,09,0.8,9.7,M,-33.3,M,,*5A
$PYRTM,2024,125.755323539410,16.864970949549
$GPGGA,180739.00,3500.3562,N,12208.2900,W,1,09,0.8,9.5,M,-33.3,M,,*5F
$PYRTM,2024,125.755339293137,16.864986703275
$GPGGA,180740.00,3500.3536,N,12208.2900,W,1,09,0.8,9.1,M,-33.3,M,,*54
$PYRTM,2024,125.755350873623,16.864998283773
$GPGGA,180741.00,3500.3510,N,12208.2898,W,1,09,0.8,8.8,M,-33.3,M,,*59
$PYRTM,2024,125.755362442303,16.865009852442
$GPGGA,180742.00,3500.3486,N,12208.2891,W,1,09,0.8,8.9,M,-33.3,M,,*5C
$PYRTM,2024,125.755374017535,16.865021427674
$GPGGA,180743.00,3500.3461,N,12208.2882,W,1,09,0.8,9.2,M,-33.3,M,,*5C
$PYRTM,2024,125.755385588981,16.865032999120
$GPGGA,180744.00,3500.3434,N,12208.2878,W,1,09,0.8,9.5,M,-33.3,M,,*59
$PYRTM,2024,125.755397162106,16.865044572245
$GPGGA,180745.00,3500.3406,N,12208.2882,W,1,09,0.8,9.5,M,-33.3,M,,*5C
$PYRTM,2024,125.755408732095,16.865056142245
$GPGGA,180746.00,3500.3377,N,12208.2885,W,1,09,0.8,9.6,M,-33.3,M,,*5A
$PYRTM,2024,125.755420310220,16.865067720359
$GPGGA,180747.00,3500.3349,N,12208.2879,W,1,09,0.8,9.9,M,-33.3,M,,*5A
$PYRTM,2024,125.755431999757,16.865079409896
$GPGGA,180748.00,3500.3321,N,12208.2866,W,1,09,0.8,10.2,M,-33.3,M,,*66
$PYRTM,2024,125.755443575833,16.865090985972
$GPGGA,180749.00,3500.3295,N,12208.2856,W,1,09,0.8,10.3,M,-33.3,M,,*6B
$PYRTM,2024,125.755450861181,16.865098271319
$GPGGA,180750.00,3500.3270,N,12208.2855,W,1,09,0.8,10.0,M,-33.3,M,,*68
$PYRTM,2024,125.755466607535,16.865114017674
$GPGGA,180751.00,3500.3244,N,12208.2859,W,1,09,0.8,9.1,M,-33.3,M,,*5B
$PYRTM,2024,125.755478182199,16.865125592338
$GPGGA,180752.00,3500.3219,N,12208.2858,W,1,09,0.8,8.2,M,-33.3,M,,*53
$PYRTM,2024,125.755489765139,16.865137175278
$GPGGA,180753.00,3500.3195,N,12208.2848,W,1,09,0.8,7.9,M,-33.3,M,,*50
$PYRTM,2024,125.755501330706,16.865148740845
$GPGGA,180754.00,3500.3171,N,12208.2838,W,1,09,0.8,8.4,M,-33.3,M,,*58
$PYRTM,2024,125.755508725613,16.865156135752
$GPGGA,180755.00,3500.3146,N,12208.2835,W,1,09,0.8,9.2,M,-33.3,M,,*57
$PYRTM,2024,125.755527372789,16.865174782928
$GPGGA,180756.00,3500.3118,N,12208.2839,W,1,09,0.8,9.7,M,-33.3,M,,*56
$PYRTM,2024,125.755536051655,16.865183461794
$GPGGA,180757.00,3500.3091,N,12208.2841,W,1,09,0.8,9.8,M,-33.3,M,,*57
$PYRTM,2024,125.755547737569,16.865195147708
$GPGGA,180758.00,3500.3066,N,12208.2834,W,1,09,0.8,10.0,M,-33.3,M,,*62
$PYRTM,2024,125.755555021586,16.865202431725
$GPGGA,180759.00,3500.3041,N,12208.2822,W,1,09,0.8,10.1,M,-33.3,M,,*60
$PYRTM,2024,125.755570775394,16.865218185532
$GPGGA,180800.00,3500.3016,N,12208.2814,W,1,09,0.8,9.9,M,-33.3,M,,*54
$PYRTM,2024,125.755578170208,16.865225580359
$GPGGA,180801.00,3500.2990,N,12208.2813,W,1,09,0.8,9.2,M,-33.3,M,,*5F
$PYRTM,2024,125.755596816435,16.865244226574
$GPGGA,180802.00,3500.2962,N,12208.2815,W,1,09,0.8,8.0,M,-33.3,M,,*54
$PYRTM,2024,125.755608387303,16.865255797442
$GPGGA,180803.00,3500.2938,N,12208.2812,W,1,09,0.8,8.5,M,-33.3,M,,*58
$PYRTM,2024,125.755617066713,16.865264476863
$GPGGA,180804.00,3500.2914,N,12208.2804,W,1,09,0.8,9.1,M,-33.3,M,,*53
$PYRTM,2024,125.755624467338,16.865271877488
$GPGGA,180805.00,3500.2889,N,12208.2798,W,1,09,0.8,9.7,M,-33.3,M,,*5B
$PYRTM,2024,125.755640221424,16.865287631574
$GPGGA,180806.00,3500.2863,N,12208.2796,W,1,09,0.8,10.0,M,-33.3,M,,*6D
$PYRTM,2024,125.755651801100,16.865299211238
$GPGGA,180807.00,3500.2838,N,12208.2797,W,1,09,0.8,9.9,M,-33.3,M,,*52
$PYRTM,2024,125.755659200475,16.865306610613
$GPGGA,180808.00,3500.2812,N,12208.2796,W,1,09,0.8,9.6,M,-33.3,M,,*5B
$PYRTM,2024,125.755674950185,16.865322360324
$GPGGA,180809.00,3500.2787,N,12208.2789,W,1,09,0.8,9.4,M,-33.3,M,,*55
$PYRTM,2024,125.755686517211,16.865333927350
$GPGGA,180810.00,3500.2762,N,12208.2778,W,1,09,0.8,9.4,M,-33.3,M,,*58
$PYRTM,2024,125.755698091736,16.865345501875
$GPGGA,180811.00,3500.2737,N,12208.2772,W,1,09,0.8,9.6,M,-33.3,M,,*51
$PYRTM,2024,125.755709665405,16.865357075544
$GPGGA,180812.00,3500.2712,N,12208.2775,W,1,09,0.8,9.6,M,-33.3,M,,*52
$PYRTM,2024,125.755721249931,16.865368660069
$GPGGA,180813.00,3500.2686,N,12208.2779,W,1,09,0.8,9.4,M,-33.3,M,,*51
$PYRTM,2024,125.755728648681,16.865376058819
$GPGGA,180814.00,3500.2661,N,12208.2777,W,1,09,0.8,9.2,M,-33.3,M,,*57
$PYRTM,2024,125.755744386944,16.865391797083
$GPGGA,180815.00,3500.2636,N,12208.2768,W,1,09,0.8,9.3,M,-33.3,M,,*5B
$PYRTM,2024,125.755755961597,16.865403371736
$GPGGA,180816.00,3500.2613,N,12208.2759,W,1,09,0.8,9.5,M,-33.3,M,,*5B
$PYRTM,2024,125.755763355081,16.865410765220
$GPGGA,180817.00,3500.2588,N,12208.2756,W,1,09,0.8,9.9,M,-33.3,M,,*58
$PYRTM,2024,125.755779108762,16.865426518900
$GPGGA,180818.00,3500.2562,N,12208.2757,W,1,09,0.8,10.1,M,-33.3,M,,*62
$PYRTM,2024,125.755790683056,16.865438093194
$GPGGA,180819.00,3500.2536,N,12208.2758,W,1,09,0.8,10.1,M,-33.3,M,,*6D
$PYRTM,2024,125.755798084525,16.865445494664
$GPGGA,180820.00,3500.2511,N,12208.2754,W,1,09,0.8,10.1,M,-33.3,M,,*6E
$PYRTM,2024,125.755813949931,16.865461360069
$GPGGA,180821.00,3500.2486,N,12208.2746,W,1,09,0.8,10.0,M,-33.3,M,,*62
$PYRTM,2024,125.755825405972,16.865472816111
$GPGGA,180822.00,3500.2460,N,12208.2739,W,1,09,0.8,9.9,M,-33.3,M,,*50
$PYRTM,2024,125.755837058345,16.865484468495
$GPGGA,180823.00,3500.2433,N,12208.2737,W,1,09,0.8,9.7,M,-33.3,M,,*57
$PYRTM,2024,125.755848554525,16.865495964664
$GPGGA,180824.00,3500.2407,N,12208.2738,W,1,09,0.8,9.5,M,-33.3,M,,*5A
$PYRTM,2024,125.755860135926,16.865507546065
$GPGGA,180825.00,3500.2382,N,12208.2734,W,1,09,0.8,9.5,M,-33.3,M,,*5D
$PYRTM,2024,125.755867536065,16.865514946215
$GPGGA,180826.00,3500.2357,N,12208.2727,W,1,09,0.8,9.7,M,-33.3,M,,*56
$PYRTM,2024,125.755886173241,16.865533583380
$GPGGA,180827.00,3500.2331,N,12208.2721,W,1,09,0.8,9.9,M,-33.3,M,,*5F
$PYRTM,2024,125.755894849722,16.865542259861
$GPGGA,180828.00,3500.2305,N,12208.2720,W,1,09,0.8,10.0,M,-33.3,M,,*67
$PYRTM,2024,125.755906435810,16.865553845961
$GPGGA,180829.00,3500.2279,N,12208.2721,W,1,09,0.8,9.9,M,-33.3,M,,*5C
$PYRTM,2024,125.755917999734,16.865565409873
$GPGGA,180830.00,3500.2253,N,12208.2719,W,1,09,0.8,9.9,M,-33.3,M,,*57
$PYRTM,2024,125.755929582859,16.865576992998
$GPGGA,180831.00,3500.2228,N,12208.2713,W,1,09,0.8,10.1,M,-33.3,M,,*60
$PYRTM,2024,125.755941147245,16.865588557384
$GPGGA,180832.00,3500.2202,N,12208.2705,W,1,09,0.8,10.3,M,-33.3,M,,*6E
$PYRTM,2024,125.755952721551,16.865600131690
$GPGGA,180833.00,3500.2175,N,12208.2702,W,1,09,0.8,10.3,M,-33.3,M,,*6B
$PYRTM,2024,125.755960128588,16.865607538727
$GPGGA,180834.00,3500.2149,N,12208.2703,W,1,09,0.8,9.9,M,-33.3,M,,*50
$PYRTM,2024,125.755975895150,16.865623305301
$GPGGA,180835.00,3500.2124,N,12208.2704,W,1,09,0.8,9.6,M,-33.3,M,,*52
$PYRTM,2024,125.755983280856,16.865630690995
$GPGGA,180836.00,3500.2099,N,12208.2699,W,1,09,0.8,9.6,M,-33.3,M,,*53
$PYRTM,2024,125.755999026794,16.865646436933
