$PYRTM,2024,126.166670292477,17.276317702616
$GPGGA,035959.00,3425.7950,N,12108.0178,W,1,09,1.0,12.3,M,-33.8,M,,*6F
$PYRTM,2024,126.166681865671,17.276329275810
$GPGGA,040000.00,3425.7934,N,12108.0158,W,1,09,1.0,12.1,M,-33.8,M,,*6A
$PYRTM,2024,126.166693444965,17.276340855104
$GPGGA,040001.00,3425.7915,N,12108.0137,W,1,09,1.0,12.1,M,-33.8,M,,*61
$PYRTM,2024,126.166705019109,17.276352429248
$GPGGA,040002.00,3425.7898,N,12108.0116,W,1,09,1.0,12.4,M,-33.8,M,,*60
$PYRTM,2024,126.166712415336,17.276359825475
$GPGGA,040003.00,3425.7883,N,12108.0094,W,1,09,1.0,12.8,M,-33.8,M,,*6C
$PYRTM,2024,126.166728167789,17.276375577928
$GPGGA,040004.00,3425.7867,N,12108.0072,W,1,09,1.0,13.2,M,-33.8,M,,*62
$PYRTM,2024,126.166739741319,17.276387151458
$GPGGA,040005.00,3425.7850,N,12108.0051,W,1,09,1.0,13.2,M,-33.8,M,,*66
$PYRTM,2024,126.166747152188,17.276394562326
$GPGGA,040006.00,3425.7830,N,12108.0031,W,1,09,1.0,13.0,M,-33.8,M,,*67
$PYRTM,2024,126.166758939757,17.276406349896
$GPGGA,040007.00,3425.7811,N,12108.0011,W,1,09,1.0,12.8,M,-33.8,M,,*6E
$PYRTM,2024,126.166774463171,17.276421873310
$GPGGA,040008.00,3425.7793,N,12107.9989,W,1,09,1.0,12.8,M,-33.8,M,,*6A
$PYRTM,2024,126.166781860926,17.276429271065
$GPGGA,040009.00,3425.7778,N,12107.9965,W,1,09,1.0,12.9,M,-33.8,M,,*6D
$PYRTM,2024,126.166793675382,17.276441085521
$GPGGA,040010.00,3425.7761,N,12107.9942,W,1,09,1.0,13.2,M,-33.8,M,,*62
$PYRTM,2024,126.166812079977,17.276459490116
$GPGGA,040011.00,3425.7743,N,12107.9920,W,1,09,1.0,13.3,M,-33.8,M,,*66
$PYRTM,2024,126.166823641493,17.276471051644
$GPGGA,040012.00,3425.7724,N,12107.9898,W,1,09,1.0,13.3,M,-33.8,M,,*66
$PYRTM,2024,126.166835228657,17.276482638796
$GPGGA,040013.00,3425.7706,N,12107.9876,W,1,09,1.0,13.2,M,-33.8,M,,*66
$PYRTM,2024,126.166843909676,17.276491319815
$GPGGA,040014.00,3425.7688,N,12107.9855,W,1,09,1.0,13.1,M,-33.8,M,,*64
$PYRTM,2024,126.166851304329,17.276498714468
$GPGGA,040015.00,3425.7671,N,12107.9834,W,1,09,1.0,13.1,M,-33.8,M,,*64
$PYRTM,2024,126.166867051319,17.276514461458
$GPGGA,040016.00,3425.7654,N,12107.9814,W,1,09,1.0,13.2,M,-33.8,M,,*61
$PYRTM,2024,126.166878634109,17.276526044248
$GPGGA,040017.00,3425.7636,N,12107.9794,W,1,09,1.0,13.1,M,-33.8,M,,*60
$PYRTM,2024,126.166890205208,17.276537615347
$GPGGA,040018.00,3425.7619,N,12107.9773,W,1,09,1.0,12.9,M,-33.8,M,,*62
$PYRTM,2024,126.166897600370,17.276545010509
$GPGGA,040019.00,3425.7602,N,12107.9751,W,1,09,1.0,12.6,M,-33.8,M,,*66
$PYRTM,2024,126.166913354132,17.276560764271
$GPGGA,040020.00,3425.7585,N,12107.9728,W,1,09,1.0,12.5,M,-33.8,M,,*6D
$PYRTM,2024,126.166924929398,17.276572339537
$GPGGA,040021.00,3425.7568,N,12107.9706,W,1,09,1.0,12.6,M,-33.8,M,,*60
$PYRTM,2024,126.166936496458,17.276583906597
$GPGGA,040022.00,3425.7551,N,12107.9685,W,1,09,1.0,12.8,M,-33.8,M,,*6D
$PYRTM,2024,126.166948071354,17.276595481493
$GPGGA,040023.00,3425.7532,N,12107.9664,W,1,09,1.0,12.9,M,-33.8,M,,*67
$PYRTM,2024,126.166955483449,17.276602893588
$GPGGA,040024.00,3425.7512,N,12107.9643,W,1,09,1.0,12.6,M,-33.8,M,,*68
$PYRTM,2024,126.166971224838,17.276618634977
$GPGGA,040025.00,3425.7493,N,12107.9623,W,1,09,1.0,12.5,M,-33.8,M,,*64
$PYRTM,2024,126.166982799850,17.276630209988
$GPGGA,040026.00,3425.7475,N,12107.9602,W,1,09,1.0,12.6,M,-33.8,M,,*6F
$PYRTM,2024,126.166990194491,17.276637604641
$GPGGA,040027.00,3425.7458,N,12107.9580,W,1,09,1.0,12.8,M,-33.8,M,,*66
$PYRTM,2024,126.167005945914,17.276653356053
$GPGGA,040028.00,3425.7442,N,12107.9558,W,1,09,1.0,13.0,M,-33.8,M,,*6E
$PYRTM,2024,126.167017520729,17.276664930868
$GPGGA,040029.00,3425.7426,N,12107.9536,W,1,09,1.0,13.2,M,-33.8,M,,*67
$PYRTM,2024,126.167029099317,17.276676509456
$GPGGA,040030.00,3425.7407,N,12107.9515,W,1,09,1.0,12.9,M,-33.8,M,,*67
$PYRTM,2024,126.167040686111,17.276688096250
$GPGGA,040031.00,3425.7389,N,12107.9495,W,1,09,1.0,12.5,M,-33.8,M,,*62
$PYRTM,2024,126.167052248970,17.276699659109
$GPGGA,040032.00,3425.7371,N,12107.9473,W,1,09,1.0,12.3,M,-33.8,M,,*68
$PYRTM,2024,126.167063825567,17.276711235706
$GPGGA,040033.00,3425.7354,N,12107.9450,W,1,09,1.0,12.3,M,-33.8,M,,*6F
$PYRTM,2024,126.167075395984,17.276722806123
$GPGGA,040034.00,3425.7336,N,12107.9428,W,1,09,1.0,12.4,M,-33.8,M,,*64
$PYRTM,2024,126.167082787407,17.276730197558
$GPGGA,040035.00,3425.7319,N,12107.9407,W,1,09,1.0,12.6,M,-33.8,M,,*67
$PYRTM,2024,126.167098535949,17.276745946088
$GPGGA,040036.00,3425.7301,N,12107.9386,W,1,09,1.0,12.6,M,-33.8,M,,*63
$PYRTM,2024,126.167110122639,17.276757532789
$GPGGA,040037.00,3425.7284,N,12107.9364,W,1,09,1.0,12.3,M,-33.8,M,,*67
$PYRTM,2024,126.167121792905,17.276769203044
$GPGGA,040038.00,3425.7266,N,12107.9343,W,1,09,1.0,12.0,M,-33.8,M,,*62
$PYRTM,2024,126.167133377836,17.276780787975
$GPGGA,040039.00,3425.7247,N,12107.9323,W,1,09,1.0,11.9,M,-33.8,M,,*6C
$PYRTM,2024,126.167140658345,17.276788068495
$GPGGA,040040.00,3425.7229,N,12107.9302,W,1,09,1.0,11.9,M,-33.8,M,,*69
$PYRTM,2024,126.167152463160,17.276799873299
$GPGGA,040041.00,3425.7213,N,12107.9278,W,1,09,1.0,12.1,M,-33.8,M,,*66
$PYRTM,2024,126.167170865243,17.276818275382
$GPGGA,040042.00,3425.7197,N,12107.9256,W,1,09,1.0,12.5,M,-33.8,M,,*62
$PYRTM,2024,126.167182452975,17.276829863113
$GPGGA,040043.00,3425.7179,N,12107.9234,W,1,09,1.0,12.9,M,-33.8,M,,*6B
$PYRTM,2024,126.167194130463,17.276841540602
$GPGGA,040044.00,3425.7160,N,12107.9213,W,1,09,1.0,13.1,M,-33.8,M,,*68
$PYRTM,2024,126.167202823715,17.276850233854
$GPGGA,040045.00,3425.7142,N,12107.9191,W,1,09,1.0,13.0,M,-33.8,M,,*61
$PYRTM,2024,126.167214280961,17.276861691100
$GPGGA,040046.00,3425.7126,N,12107.9168,W,1,09,1.0,12.7,M,-33.8,M,,*60
$PYRTM,2024,126.167225858576,17.276873268715
$GPGGA,040047.00,3425.7110,N,12107.9144,W,1,09,1.0,12.3,M,-33.8,M,,*6E
$PYRTM,2024,126.167233250162,17.276880660301
$GPGGA,040048.00,3425.7092,N,12107.9122,W,1,09,1.0,12.0,M,-33.8,M,,*69
$PYRTM,2024,126.167245056157,17.276892466296
$GPGGA,040049.00,3425.7072,N,12107.9102,W,1,09,1.0,12.0,M,-33.8,M,,*64
$PYRTM,2024,126.167260578044,17.276907988183
$GPGGA,040050.00,3425.7053,N,12107.9082,W,1,09,1.0,12.3,M,-33.8,M,,*65
$PYRTM,2024,126.167267973519,17.276915383657
$GPGGA,040051.00,3425.7037,N,12107.9061,W,1,09,1.0,12.7,M,-33.8,M,,*6F
$PYRTM,2024,126.167283725833,17.276931135972
$GPGGA,040052.00,3425.7021,N,12107.9039,W,1,09,1.0,13.1,M,-33.8,M,,*61
$PYRTM,2024,126.167295301227,17.276942711366
$GPGGA,040053.00,3425.7003,N,12107.9018,W,1,09,1.0,13.4,M,-33.8,M,,*66
$PYRTM,2024,126.167306878218,17.276954288368
$GPGGA,040054.00,3425.6984,N,12107.9000,W,1,09,1.0,13.4,M,-33.8,M,,*6F
$PYRTM,2024,126.167318448287,17.276965858426
$GPGGA,040055.00,3425.6966,N,12107.8981,W,1,09,1.0,13.3,M,-33.8,M,,*64
$PYRTM,2024,126.167330022338,17.276977432477
$GPGGA,040056.00,3425.6949,N,12107.8960,W,1,09,1.0,13.7,M,-33.8,M,,*61
$PYRTM,2024,126.167341597025,17.276989007176
$GPGGA,040057.00,3425.6933,N,12107.8937,W,1,09,1.0,13.9,M,-33.8,M,,*61
$PYRTM,2024,126.167353171181,17.277000581319
$GPGGA,040058.00,3425.6915,N,12107.8915,W,1,09,1.0,14.3,M,-33.8,M,,*67
$PYRTM,2024,126.167364748530,17.277012158669
$GPGGA,040059.00,3425.6896,N,12107.8895,W,1,09,1.0,14.3,M,-33.8,M,,*65
$PYRTM,2024,126.167376319537,17.277023729676
$GPGGA,040100.00,3425.6875,N,12107.8874,W,1,09,1.0,14.2,M,-33.8,M,,*6B
$PYRTM,2024,126.167387896493,17.277035306644
$GPGGA,040101.00,3425.6857,N,12107.8853,W,1,09,1.0,14.2,M,-33.8,M,,*6F
$PYRTM,2024,126.167395289259,17.277042699398
$GPGGA,040102.00,3425.6841,N,12107.8831,W,1,09,1.0,14.3,M,-33.8,M,,*6E
$PYRTM,2024,126.167411043970,17.277058454109
$GPGGA,040103.00,3425.6824,N,12107.8810,W,1,09,1.0,14.1,M,-33.8,M,,*6D
$PYRTM,2024,126.167422609965,17.277070020104
$GPGGA,040104.00,3425.6805,N,12107.8791,W,1,09,0.8,14.2,M,-33.8,M,,*65
$PYRTM,2024,126.167434190567,17.277081600706
$GPGGA,040105.00,3425.6788,N,12107.8772,W,1,09,0.8,14.2,M,-33.8,M,,*63
$PYRTM,2024,126.167445763947,17.277093174086
$GPGGA,040106.00,3425.6771,N,12107.8751,W,1,09,0.8,14.3,M,-33.8,M,,*66
$PYRTM,2024,126.167457338472,17.277104748611
$GPGGA,040107.00,3425.6755,N,12107.8728,W,1,09,0.8,14.2,M,-33.8,M,,*6E
$PYRTM,2024,126.167468913125,17.277116323264
$GPGGA,040108.00,3425.6737,N,12107.8705,W,1,09,0.8,14.1,M,-33.8,M,,*69
$PYRTM,2024,126.167476306979,17.277123717118
$GPGGA,040109.00,3425.6718,N,12107.8684,W,1,09,0.8,14.3,M,-33.8,M,,*6F
$PYRTM,2024,126.167492061771,17.277139471910
$GPGGA,040110.00,3425.6700,N,12107.8663,W,1,09,0.8,14.7,M,-33.8,M,,*63
$PYRTM,2024,126.167503635845,17.277151045984
$GPGGA,040111.00,3425.6683,N,12107.8639,W,1,09,0.8,14.8,M,-33.8,M,,*68
$PYRTM,2024,126.167511030752,17.277158440891
$GPGGA,040112.00,3425.6668,N,12107.8616,W,1,09,0.8,14.6,M,-33.8,M,,*6D
$PYRTM,2024,126.167529677905,17.277177088044
$GPGGA,040113.00,3425.6651,N,12107.8594,W,1,09,0.8,14.4,M,-33.8,M,,*6D
$PYRTM,2024,126.167538358102,17.277185768241
$GPGGA,040114.00,3425.6633,N,12107.8575,W,1,09,0.8,14.3,M,-33.8,M,,*66
$PYRTM,2024,126.167549945995,17.277197356134
$GPGGA,040115.00,3425.6615,N,12107.8555,W,1,09,0.8,14.1,M,-33.8,M,,*63
$PYRTM,2024,126.167557327419,17.277204737558
$GPGGA,040116.00,3425.6599,N,12107.8534,W,1,09,0.8,14.1,M,-33.8,M,,*60
$PYRTM,2024,126.167573096725,17.277220506875
$GPGGA,040117.00,3425.6584,N,12107.8512,W,1,09,0.8,14.2,M,-33.8,M,,*6A
$PYRTM,2024,126.167584654595,17.277232064734
$GPGGA,040118.00,3425.6568,N,12107.8490,W,1,09,0.8,14.5,M,-33.8,M,,*6B
$PYRTM,2024,126.167596224618,17.277243634757
$GPGGA,040119.00,3425.6548,N,12107.8469,W,1,09,0.8,14.8,M,-33.8,M,,*63
$PYRTM,2024,126.167607802454,17.277255212604
$GPGGA,040120.00,3425.6529,N,12107.8447,W,1,09,0.8,14.8,M,-33.8,M,,*62
$PYRTM,2024,126.167619378229,17.277266788368
$GPGGA,040121.00,3425.6512,N,12107.8424,W,1,09,0.8,14.7,M,-33.8,M,,*61
$PYRTM,2024,126.167630950984,17.277278361123
$GPGGA,040122.00,3425.6497,N,12107.8399,W,1,09,0.8,14.6,M,-33.8,M,,*6E
$PYRTM,2024,126.167642525856,17.277289935995
$GPGGA,040123.00,3425.6479,N,12107.8375,W,1,09,0.8,14.5,M,-33.8,M,,*6E
$PYRTM,2024,126.167654099225,17.277301509363
$GPGGA,040124.00,3425.6459,N,12107.8354,W,1,09,0.8,14.3,M,-33.8,M,,*6E
$PYRTM,2024,126.167665675023,17.277313085162
$GPGGA,040125.00,3425.6439,N,12107.8335,W,1,09,0.8,14.3,M,-33.8,M,,*6E
$PYRTM,2024,126.167673069329,17.277320479468
$GPGGA,040126.00,3425.6422,N,12107.8314,W,1,09,0.8,14.3,M,-33.8,M,,*64
$PYRTM,2024,126.167688821563,17.277336231701
$GPGGA,040127.00,3425.6406,N,12107.8292,W,1,09,0.8,14.2,M,-33.8,M,,*6D
$PYRTM,2024,126.167700401898,17.277347812037
$GPGGA,040128.00,3425.6391,N,12107.8269,W,1,09,0.8,14.0,M,-33.8,M,,*6D
$PYRTM,2024,126.167711973681,17.277359383831
$GPGGA,040129.00,3425.6374,N,12107.8247,W,1,09,0.8,14.0,M,-33.8,M,,*6B
$PYRTM,2024,126.167723544201,17.277370954340
$GPGGA,040130.00,3425.6357,N,12107.8226,W,1,09,0.8,14.0,M,-33.8,M,,*65
$PYRTM,2024,126.167735122419,17.277382532569
$GPGGA,040131.00,3425.6337,N,12107.8206,W,1,09,0.8,14.1,M,-33.8,M,,*61
$PYRTM,2024,126.167746692894,17.277394103032
$GPGGA,040132.00,3425.6319,N,12107.8185,W,1,09,0.8,14.1,M,-33.8,M,,*66
$PYRTM,2024,126.167758267998,17.277405678148
$GPGGA,040133.00,3425.6301,N,12107.8162,W,1,09,0.8,14.2,M,-33.8,M,,*64
$PYRTM,2024,126.167765676273,17.277413086412
$GPGGA,040134.00,3425.6286,N,12107.8138,W,1,09,0.8,14.3,M,-33.8,M,,*63
$PYRTM,2024,126.167781417245,17.277428827384
$GPGGA,040135.00,3425.6268,N,12107.8116,W,1,09,0.8,14.5,M,-33.8,M,,*68
$PYRTM,2024,126.167792984664,17.277440394803
$GPGGA,040136.00,3425.6249,N,12107.8094,W,1,09,0.8,14.4,M,-33.8,M,,*62
$PYRTM,2024,126.167804564850,17.277451974988
$GPGGA,040137.00,3425.6229,N,12107.8073,W,1,09,0.8,14.3,M,-33.8,M,,*6B
$PYRTM,2024,126.167816138044,17.277463548183
$GPGGA,040138.00,3425.6212,N,12107.8051,W,1,09,0.8,14.3,M,-33.8,M,,*6C
$PYRTM,2024,126.167827714306,17.277475124444
$GPGGA,040139.00,3425.6196,N,12107.8029,W,1,09,0.8,14.3,M,-33.8,M,,*6D
$PYRTM,2024,126.167839281273,17.277486691412
$GPGGA,040140.00,3425.6180,N,12107.8006,W,1,09,0.8,14.1,M,-33.8,M,,*6B
$PYRTM,2024,126.167850860752,17.277498270891
$GPGGA,040141.00,3425.6160,N,12107.7985,W,1,09,0.8,13.7,M,-33.8,M,,*68
$PYRTM,2024,126.167862434201,17.277509844340
$GPGGA,040142.00,3425.6141,N,12107.7965,W,1,09,0.8,13.6,M,-33.8,M,,*67
$PYRTM,2024,126.167869828738,17.277517238877
$GPGGA,040143.00,3425.6124,N,12107.7943,W,1,09,0.8,13.8,M,-33.8,M,,*6F
$PYRTM,2024,126.167888462500,17.277535872639
$GPGGA,040144.00,3425.6108,N,12107.7919,W,1,09,0.8,14.2,M,-33.8,M,,*64
$PYRTM,2024,126.167897159838,17.277544569977
$GPGGA,040145.00,3425.6092,N,12107.7894,W,1,09,0.8,14.3,M,-33.8,M,,*62
$PYRTM,2024,126.167904552211,17.277551962361
$GPGGA,040146.00,3425.6074,N,12107.7872,W,1,09,0.8,14.4,M,-33.8,M,,*66
$PYRTM,2024,126.167916355000,17.277563765139
$GPGGA,040147.00,3425.6055,N,12107.7852,W,1,09,0.8,14.5,M,-33.8,M,,*67
$PYRTM,2024,126.167927938148,17.277575348287
$GPGGA,040148.00,3425.6037,N,12107.7832,W,1,09,0.8,14.4,M,-33.8,M,,*6B
$PYRTM,2024,126.167946347060,17.277593757211
$GPGGA,040149.00,3425.6019,N,12107.7810,W,1,09,0.8,13.9,M,-33.8,M,,*6C
$PYRTM,2024,126.167957908194,17.277605318333
$GPGGA,040150.00,3425.6002,N,12107.7787,W,1,09,0.8,13.4,M,-33.8,M,,*62
$PYRTM,2024,126.167966602859,17.277614012998
$GPGGA,040151.00,3425.5986,N,12107.7765,W,1,09,0.8,13.4,M,-33.8,M,,*69
$PYRTM,2024,126.167978170637,17.277625580775
$GPGGA,040152.00,3425.5969,N,12107.7745,W,1,09,0.8,13.8,M,-33.8,M,,*65
$PYRTM,2024,126.167989751215,17.277637161354
$GPGGA,040153.00,3425.5950,N,12107.7724,W,1,09,0.8,14.1,M,-33.8,M,,*67
$PYRTM,2024,126.167997144919,17.277644555058
$GPGGA,040154.00,3425.5931,N,12107.7702,W,1,09,0.8,14.2,M,-33.8,M,,*60
$PYRTM,2024,126.168012897870,17.277660308009
$GPGGA,040155.00,3425.5914,N,12107.7681,W,1,09,0.8,14.3,M,-33.8,M,,*6D
$PYRTM,2024,126.168024472060,17.277671882199
$GPGGA,040156.00,3425.5898,N,12107.7659,W,1,09,0.8,14.4,M,-33.8,M,,*69
$PYRTM,2024,126.168036050000,17.277683460139
$GPGGA,040157.00,3425.5881,N,12107.7637,W,1,09,0.8,14.3,M,-33.8,M,,*6F
$PYRTM,2024,126.168047621736,17.277695031875
$GPGGA,040158.00,3425.5862,N,12107.7615,W,1,09,0.8,14.1,M,-33.8,M,,*6F
$PYRTM,2024,126.168059209178,17.277706619317
$GPGGA,040159.00,3425.5844,N,12107.7593,W,1,09,0.8,14.0,M,-33.8,M,,*66
$PYRTM,2024,126.168070768403,17.277718178542
$GPGGA,040200.00,3425.5827,N,12107.7571,W,1,09,0.8,14.1,M,-33.8,M,,*61
$PYRTM,2024,126.168082346505,17.277729756644
$GPGGA,040201.00,3425.5810,N,12107.7548,W,1,09,0.8,14.2,M,-33.8,M,,*6D
$PYRTM,2024,126.168089738750,17.277737148889
$GPGGA,040202.00,3425.5792,N,12107.7525,W,1,09,0.8,14.2,M,-33.8,M,,*60
$PYRTM,2024,126.168105491863,17.277752902002
$GPGGA,040203.00,3425.5774,N,12107.7503,W,1,09,0.8,14.1,M,-33.8,M,,*6E
$PYRTM,2024,126.168117065405,17.277764475544
$GPGGA,040204.00,3425.5755,N,12107.7483,W,1,09,0.8,14.0,M,-33.8,M,,*62
$PYRTM,2024,126.168128640463,17.277776050602
$GPGGA,040205.00,3425.5736,N,12107.7464,W,1,09,0.8,13.9,M,-33.8,M,,*61
$PYRTM,2024,126.168140209757,17.277787619896
$GPGGA,040206.00,3425.5719,N,12107.7443,W,1,09,0.8,13.7,M,-33.8,M,,*64
$PYRTM,2024,126.168151782894,17.277799193032
$GPGGA,040207.00,3425.5704,N,12107.7421,W,1,09,0.8,13.5,M,-33.8,M,,*6F
$PYRTM,2024,126.168163359468,17.277810769606
$GPGGA,040208.00,3425.5690,N,12107.7399,W,1,09,0.8,13.5,M,-33.8,M,,*68
$PYRTM,2024,126.168174938310,17.277822348461
$GPGGA,040209.00,3425.5672,N,12107.7378,W,1,09,0.8,13.6,M,-33.8,M,,*69
$PYRTM,2024,126.168186508241,17.277833918380
$GPGGA,040210.00,3425.5651,N,12107.7358,W,1,09,0.8,13.8,M,-33.8,M,,*6C
$PYRTM,2024,126.168198084433,17.277845494583
$GPGGA,040211.00,3425.5632,N,12107.7336,W,1,09,0.8,14.0,M,-33.8,M,,*6F
$PYRTM,2024,126.168205479757,17.277852889896
$GPGGA,040212.00,3425.5615,N,12107.7312,W,1,09,0.8,14.5,M,-33.8,M,,*6A
$PYRTM,2024,126.168217284792,17.277864694931
$GPGGA,040213.00,3425.5599,N,12107.7288,W,1,09,0.8,14.9,M,-33.8,M,,*62
$PYRTM,2024,126.168228858576,17.277876268715
$GPGGA,040214.00,3425.5582,N,12107.7265,W,1,09,0.8,14.9,M,-33.8,M,,*6C
$PYRTM,2024,126.168247278438,17.277894688576
$GPGGA,040215.00,3425.5564,N,12107.7243,W,1,09,0.8,14.4,M,-33.8,M,,*6C
$PYRTM,2024,126.168255956076,17.277903366215
$GPGGA,040216.00,3425.5549,N,12107.7222,W,1,09,0.8,13.8,M,-33.8,M,,*6C
$PYRTM,2024,126.168267530799,17.277914940937
$GPGGA,040217.00,3425.5533,N,12107.7200,W,1,09,0.8,13.4,M,-33.8,M,,*6C
$PYRTM,2024,126.168279106551,17.277926516690
$GPGGA,040218.00,3425.5516,N,12107.7179,W,1,09,0.8,13.3,M,-33.8,M,,*6E
$PYRTM,2024,126.168290677106,17.277938087245
$GPGGA,040219.00,3425.5496,N,12107.7160,W,1,09,0.8,13.4,M,-33.8,M,,*69
$PYRTM,2024,126.168302248738,17.277949658877
$GPGGA,040220.00,3425.5478,N,12107.7139,W,1,09,0.8,13.8,M,-33.8,M,,*63
$PYRTM,2024,126.168309648449,17.277957058588
$GPGGA,040221.00,3425.5461,N,12107.7116,W,1,09,0.8,14.2,M,-33.8,M,,*6A
$PYRTM,2024,126.168325400891,17.277972811030
$GPGGA,040222.00,3425.5446,N,12107.7091,W,1,09,0.8,14.5,M,-33.8,M,,*65
$PYRTM,2024,126.168336975590,17.277984385729
$GPGGA,040223.00,3425.5429,N,12107.7067,W,1,09,0.8,14.3,M,-33.8,M,,*62
$PYRTM,2024,126.168348549097,17.277995959236
$GPGGA,040224.00,3425.5411,N,12107.7045,W,1,09,0.8,14.0,M,-33.8,M,,*6D
$PYRTM,2024,126.168360123275,17.278007533426
$GPGGA,040225.00,3425.5393,N,12107.7025,W,1,09,1.0,13.7,M,-33.8,M,,*6E
$PYRTM,2024,126.168371699699,17.278019109838
$GPGGA,040226.00,3425.5375,N,12107.7005,W,1,09,0.8,13.4,M,-33.8,M,,*6D
$PYRTM,2024,126.168379093461,17.278026503600
$GPGGA,040227.00,3425.5359,N,12107.6984,W,1,09,0.8,13.3,M,-33.8,M,,*64
$PYRTM,2024,126.168394845671,17.278042255810
$GPGGA,040228.00,3425.5345,N,12107.6964,W,1,09,0.8,13.5,M,-33.8,M,,*6E
$PYRTM,2024,126.168406423368,17.278053833519
$GPGGA,040229.00,3425.5330,N,12107.6942,W,1,09,1.0,13.7,M,-33.8,M,,*62
$PYRTM,2024,126.168417989641,17.278065399780
$GPGGA,040230.00,3425.5312,N,12107.6921,W,1,09,1.0,13.7,M,-33.8,M,,*6F
$PYRTM,2024,126.168429571586,17.278076981725
$GPGGA,040231.00,3425.5293,N,12107.6898,W,1,09,0.8,13.7,M,-33.8,M,,*6C
$PYRTM,2024,126.168441142558,17.278088552697
$GPGGA,040232.00,3425.5275,N,12107.6875,W,1,09,1.0,13.9,M,-33.8,M,,*63
$PYRTM,2024,126.168452711539,17.278100121678
$GPGGA,040233.00,3425.5258,N,12107.6850,W,1,09,0.8,14.3,M,-33.8,M,,*6E
$PYRTM,2024,126.168464290035,17.278111700174
$GPGGA,040234.00,3425.5239,N,12107.6828,W,1,09,0.8,14.6,M,-33.8,M,,*64
$PYRTM,2024,126.168475865799,17.278123275938
$GPGGA,040235.00,3425.5221,N,12107.6806,W,1,09,0.8,14.6,M,-33.8,M,,*60
$PYRTM,2024,126.168487439120,17.278134849259
$GPGGA,040236.00,3425.5204,N,12107.6785,W,1,09,0.8,14.4,M,-33.8,M,,*62
$PYRTM,2024,126.168499013912,17.278146424051
$GPGGA,040237.00,3425.5189,N,12107.6762,W,1,09,0.8,13.9,M,-33.8,M,,*66
$PYRTM,2024,126.168506408912,17.278153819051
$GPGGA,040238.00,3425.5173,N,12107.6740,W,1,09,0.8,13.4,M,-33.8,M,,*61
$PYRTM,2024,126.168522165440,17.278169575579
$GPGGA,040239.00,3425.5156,N,12107.6720,W,1,09,0.8,13.1,M,-33.8,M,,*64
$PYRTM,2024,126.168529557222,17.278176967361
$GPGGA,040240.00,3425.5138,N,12107.6701,W,1,09,0.8,13.3,M,-33.8,M,,*63
$PYRTM,2024,126.168541361296,17.278188771435
$GPGGA,040241.00,3425.5120,N,12107.6682,W,1,09,0.8,13.6,M,-33.8,M,,*64
$PYRTM,2024,126.168556884525,17.278204294676
$GPGGA,040242.00,3425.5104,N,12107.6660,W,1,09,0.8,13.9,M,-33.8,M,,*62
$PYRTM,2024,126.168568461273,17.278215871424
$GPGGA,040243.00,3425.5087,N,12107.6637,W,1,09,0.8,14.0,M,-33.8,M,,*65
$PYRTM,2024,126.168580031690,17.278227441829
$GPGGA,040244.00,3425.5069,N,12107.6615,W,1,09,0.8,14.1,M,-33.8,M,,*63
$PYRTM,2024,126.168587426481,17.278234836620
$GPGGA,040245.00,3425.5050,N,12107.6594,W,1,09,0.8,14.2,M,-33.8,M,,*61
$PYRTM,2024,126.168606062257,17.278253472396
$GPGGA,040246.00,3425.5032,N,12107.6572,W,1,09,0.8,14.2,M,-33.8,M,,*6E
$PYRTM,2024,126.168614872211,17.278262282350
$GPGGA,040247.00,3425.5013,N,12107.6550,W,1,09,0.8,13.9,M,-33.8,M,,*60
$PYRTM,2024,126.168626432269,17.278273842407
$GPGGA,040248.00,3425.4996,N,12107.6528,W,1,09,0.8,13.7,M,-33.8,M,,*6B
$PYRTM,2024,126.168638023391,17.278285433530
$GPGGA,040249.00,3425.4980,N,12107.6505,W,1,09,0.8,13.6,M,-33.8,M,,*63
$PYRTM,2024,126.168645414387,17.278292824537
$GPGGA,040250.00,3425.4963,N,12107.6484,W,1,09,0.8,13.7,M,-33.8,M,,*6F
$PYRTM,2024,126.168661046690,17.278308456840
$GPGGA,040251.00,3425.4944,N,12107.6463,W,1,09,0.8,13.7,M,-33.8,M,,*62
$PYRTM,2024,126.168672625856,17.278320035995
$GPGGA,040252.00,3425.4926,N,12107.6443,W,1,09,0.8,13.7,M,-33.8,M,,*67
$PYRTM,2024,126.168680019954,17.278327430104
$GPGGA,040253.00,3425.4909,N,12107.6423,W,1,09,0.8,13.6,M,-33.8,M,,*6C
$PYRTM,2024,126.168698654016,17.278346064155
$GPGGA,040254.00,3425.4893,N,12107.6402,W,1,09,0.8,13.6,M,-33.8,M,,*6A
$PYRTM,2024,126.168710241204,17.278357651343
$GPGGA,040255.00,3425.4877,N,12107.6380,W,1,09,0.8,13.8,M,-33.8,M,,*62
$PYRTM,2024,126.168721804028,17.278369214178
$GPGGA,040256.00,3425.4860,N,12107.6358,W,1,09,0.8,14.0,M,-33.8,M,,*6D
$PYRTM,2024,126.168730499132,17.278377909282
$GPGGA,040257.00,3425.4843,N,12107.6337,W,1,09,0.8,14.3,M,-33.8,M,,*67
$PYRTM,2024,126.168737892234,17.278385302373
$GPGGA,040258.00,3425.4825,N,12107.6315,W,1,09,0.8,14.3,M,-33.8,M,,*68
$PYRTM,2024,126.168753647975,17.278401058113
$GPGGA,040259.00,3425.4806,N,12107.6294,W,1,09,0.8,14.2,M,-33.8,M,,*61
$PYRTM,2024,126.168761039757,17.278408449896
$GPGGA,040300.00,3425.4787,N,12107.6272,W,1,09,0.8,14.0,M,-33.8,M,,*60
$PYRTM,2024,126.168772843623,17.278420253762
$GPGGA,040301.00,3425.4770,N,12107.6248,W,1,09,0.8,13.9,M,-33.8,M,,*6E
$PYRTM,2024,126.168788362095,17.278435772234
$GPGGA,040302.00,3425.4752,N,12107.6225,W,1,09,0.8,14.0,M,-33.8,M,,*68
$PYRTM,2024,126.168799937141,17.278447347280
$GPGGA,040303.00,3425.4736,N,12107.6203,W,1,10,0.8,14.7,M,-33.8,M,,*60
$PYRTM,2024,126.168811509988,17.278458920127
$GPGGA,040304.00,3425.4719,N,12107.6183,W,1,10,0.8,14.3,M,-33.8,M,,*65
$PYRTM,2024,126.168823090127,17.278470500266
$GPGGA,040305.00,3425.4700,N,12107.6162,W,1,10,0.8,14.4,M,-33.8,M,,*64
$PYRTM,2024,126.168834662766,17.278482072905
$GPGGA,040306.00,3425.4682,N,12107.6142,W,1,10,0.8,14.2,M,-33.8,M,,*68
$PYRTM,2024,126.168846237674,17.278493647812
$GPGGA,040307.00,3425.4666,N,12107.6120,W,1,10,0.8,13.9,M,-33.8,M,,*6B
$PYRTM,2024,126.168853632465,17.278501042604
$GPGGA,040308.00,3425.4650,N,12107.6097,W,1,10,0.8,13.8,M,-33.8,M,,*6D
$PYRTM,2024,126.168869391366,17.278516801505
$GPGGA,040309.00,3425.4632,N,12107.6076,W,1,10,0.8,13.8,M,-33.8,M,,*67
$PYRTM,2024,126.168880960382,17.278528370521
$GPGGA,040310.00,3425.4612,N,12107.6055,W,1,10,0.8,13.9,M,-33.8,M,,*6D
$PYRTM,2024,126.168892549676,17.278539959815
$GPGGA,040311.00,3425.4593,N,12107.6033,W,1,10,0.8,14.2,M,-33.8,M,,*6A
$PYRTM,2024,126.168904109468,17.278551519606
$GPGGA,040312.00,3425.4575,N,12107.6010,W,1,10,0.8,14.4,M,-33.8,M,,*66
$PYRTM,2024,126.168915683345,17.278563093484
$GPGGA,040313.00,3425.4558,N,12107.5986,W,1,10,0.8,14.5,M,-33.8,M,,*6C
$PYRTM,2024,126.168927256019,17.278574666157
$GPGGA,040314.00,3425.4540,N,12107.5964,W,1,10,0.8,14.6,M,-33.8,M,,*6D
$PYRTM,2024,126.168938831343,17.278586241493
$GPGGA,040315.00,3425.4521,N,12107.5942,W,1,10,0.8,14.6,M,-33.8,M,,*6F
$PYRTM,2024,126.168946256782,17.278593666921
$GPGGA,040316.00,3425.4502,N,12107.5921,W,1,10,0.8,14.6,M,-33.8,M,,*68
$PYRTM,2024,126.168964873634,17.278612283773
$GPGGA,040317.00,3425.4485,N,12107.5900,W,1,10,0.8,14.7,M,-33.8,M,,*65
$PYRTM,2024,126.168973552905,17.278620963044
$GPGGA,040318.00,3425.4469,N,12107.5878,W,1,10,0.8,14.7,M,-33.8,M,,*66
$PYRTM,2024,126.168985128669,17.278632538808
$GPGGA,040319.00,3425.4453,N,12107.5857,W,1,10,0.8,14.5,M,-33.8,M,,*61
$PYRTM,2024,126.168992524016,17.278639934155
$GPGGA,040320.00,3425.4437,N,12107.5836,W,1,10,0.8,14.3,M,-33.8,M,,*68
$PYRTM,2024,126.169008278380,17.278655688530
$GPGGA,040321.00,3425.4419,N,12107.5815,W,1,10,0.8,14.1,M,-33.8,M,,*66
$PYRTM,2024,126.169019850718,17.278667260868
$GPGGA,040322.00,3425.4401,N,12107.5795,W,1,10,0.8,13.9,M,-33.8,M,,*64
$PYRTM,2024,126.169031424421,17.278678834560
$GPGGA,040323.00,3425.4384,N,12107.5773,W,1,10,0.8,13.9,M,-33.8,M,,*67
$PYRTM,2024,126.169042999676,17.278690409815
$GPGGA,040324.00,3425.4367,N,12107.5750,W,1,10,0.8,14.2,M,-33.8,M,,*60
$PYRTM,2024,126.169054586725,17.278701996875
$GPGGA,040325.00,3425.4349,N,12107.5727,W,1,10,0.8,14.5,M,-33.8,M,,*6A
$PYRTM,2024,126.169061967836,17.278709377975
$GPGGA,040326.00,3425.4330,N,12107.5705,W,1,10,0.8,14.7,M,-33.8,M,,*65
$PYRTM,2024,126.169077721389,17.278725131528
$GPGGA,040327.00,3425.4312,N,12107.5683,W,1,10,0.8,14.8,M,-33.8,M,,*64
$PYRTM,2024,126.169089290220,17.278736700359
$GPGGA,040328.00,3425.4295,N,12107.5660,W,1,10,0.8,14.9,M,-33.8,M,,*69
$PYRTM,2024,126.169100869178,17.278748279317
$GPGGA,040329.00,3425.4277,N,12107.5637,W,1,10,0.8,14.7,M,-33.8,M,,*68
$PYRTM,2024,126.169112440243,17.278759850382
$GPGGA,040330.00,3425.4258,N,12107.5617,W,1,10,0.8,14.3,M,-33.8,M,,*6B
$PYRTM,2024,126.169124012384,17.278771422523
$GPGGA,040331.00,3425.4240,N,12107.5596,W,1,10,0.8,14.0,M,-33.8,M,,*6A
$PYRTM,2024,126.169135594745,17.278783004884
$GPGGA,040332.00,3425.4222,N,12107.5574,W,1,10,0.8,13.8,M,-33.8,M,,*6E
$PYRTM,2024,126.169142988611,17.278790398750
$GPGGA,040333.00,3425.4206,N,12107.5551,W,1,10,0.8,13.7,M,-33.8,M,,*61
$PYRTM,2024,126.169158739826,17.278806149965
$GPGGA,040334.00,3425.4191,N,12107.5528,W,1,10,0.8,13.9,M,-33.8,M,,*6B
$PYRTM,2024,126.169170314641,17.278817724780
$GPGGA,040335.00,3425.4173,N,12107.5507,W,1,10,0.8,14.1,M,-33.8,M,,*64
$PYRTM,2024,126.169181887141,17.278829297280
$GPGGA,040336.00,3425.4153,N,12107.5489,W,1,10,0.8,14.2,M,-33.8,M,,*61
$PYRTM,2024,126.169193477627,17.278840887766
$GPGGA,040337.00,3425.4133,N,12107.5471,W,1,10,0.8,14.2,M,-33.8,M,,*61
$PYRTM,2024,126.169205036748,17.278852446887
$GPGGA,040338.00,3425.4116,N,12107.5450,W,1,10,0.8,14.1,M,-33.8,M,,*69
$PYRTM,2024,126.169216614618,17.278864024757
$GPGGA,040339.00,3425.4102,N,12107.5427,W,1,10,0.8,14.0,M,-33.8,M,,*6C
$PYRTM,2024,126.169224008310,17.278871418449
$GPGGA,040340.00,3425.4086,N,12107.5403,W,1,10,0.8,13.8,M,-33.8,M,,*66
$PYRTM,2024,126.169239762245,17.278887172384
$GPGGA,040341.00,3425.4069,N,12107.5381,W,1,10,0.8,13.7,M,-33.8,M,,*64
$PYRTM,2024,126.169251333657,17.278898743796
$GPGGA,040342.00,3425.4050,N,12107.5360,W,1,10,0.8,13.9,M,-33.8,M,,*6C
$PYRTM,2024,126.169262907674,17.278910317812
$GPGGA,040343.00,3425.4031,N,12107.5339,W,1,10,0.8,14.3,M,-33.8,M,,*6B
$PYRTM,2024,126.169274481644,17.278921891782
$GPGGA,040344.00,3425.4012,N,12107.5316,W,1,10,0.8,14.5,M,-33.8,M,,*66
$PYRTM,2024,126.169286056991,17.278933467141
$GPGGA,040345.00,3425.3996,N,12107.5292,W,1,10,0.8,14.4,M,-33.8,M,,*69
$PYRTM,2024,126.169293463079,17.278940873229
$GPGGA,040346.00,3425.3980,N,12107.5269,W,1,10,0.8,14.2,M,-33.8,M,,*6F
$PYRTM,2024,126.169305139734,17.278952549873
$GPGGA,040347.00,3425.3963,N,12107.5248,W,1,10,0.8,13.9,M,-33.8,M,,*6C
$PYRTM,2024,126.169323658218,17.278971068356
$GPGGA,040348.00,3425.3945,N,12107.5228,W,1,10,0.8,13.8,M,-33.8,M,,*60
$PYRTM,2024,126.169332351632,17.278979761771
$GPGGA,040349.00,3425.3927,N,12107.5210,W,1,10,0.8,13.7,M,-33.8,M,,*61
$PYRTM,2024,126.169339745891,17.278987156030
$GPGGA,040350.00,3425.3909,N,12107.5189,W,1,10,0.8,13.3,M,-33.8,M,,*62
$PYRTM,2024,126.169351437593,17.278998847731
$GPGGA,040351.00,3425.3894,N,12107.5168,W,1,10,0.8,13.1,M,-33.8,M,,*6B
$PYRTM,2024,126.169367075220,17.279014485359
$GPGGA,040352.00,3425.3878,N,12107.5145,W,1,10,0.8,13.2,M,-33.8,M,,*66
$PYRTM,2024,126.169374468623,17.279021878762
$GPGGA,040353.00,3425.3861,N,12107.5123,W,1,10,0.8,13.4,M,-33.8,M,,*69
$PYRTM,2024,126.169390223056,17.279037633194
$GPGGA,040354.00,3425.3842,N,12107.5101,W,1,10,0.8,13.8,M,-33.8,M,,*63
$PYRTM,2024,126.169401797674,17.279049207813
$GPGGA,040355.00,3425.3822,N,12107.5079,W,1,10,0.8,14.0,M,-33.8,M,,*65
$PYRTM,2024,126.169413370602,17.279060780741
$GPGGA,040356.00,3425.3804,N,12107.5058,W,1,10,0.8,13.9,M,-33.8,M,,*6F
$PYRTM,2024,126.169424944815,17.279072354954
$GPGGA,040357.00,3425.3787,N,12107.5035,W,1,10,0.8,13.7,M,-33.8,M,,*6F
$PYRTM,2024,126.169432356701,17.279079766840
$GPGGA,040358.00,3425.3771,N,12107.5012,W,1,10,0.8,13.5,M,-33.8,M,,*6E
$PYRTM,2024,126.169448096366,17.279095506505
$GPGGA,040359.00,3425.3755,N,12107.4991,W,1,10,0.8,13.4,M,-33.8,M,,*6B
$PYRTM,2024,126.169459663137,17.279107073287
$GPGGA,040400.00,3425.3737,N,12107.4971,W,1,10,0.8,13.4,M,-33.8,M,,*6A
$PYRTM,2024,126.169471241725,17.279118651863
$GPGGA,040401.00,3425.3720,N,12107.4951,W,1,10,0.8,13.5,M,-33.8,M,,*6E
$PYRTM,2024,126.169482816817,17.279130226968
$GPGGA,040402.00,3425.3704,N,12107.4931,W,1,10,0.8,13.6,M,-33.8,M,,*6E
$PYRTM,2024,126.169490211366,17.279137621516
$GPGGA,040403.00,3425.3688,N,12107.4909,W,1,10,0.8,13.6,M,-33.8,M,,*61
$PYRTM,2024,126.169505959294,17.279153369433
$GPGGA,040404.00,3425.3671,N,12107.4887,W,1,10,0.8,13.6,M,-33.8,M,,*67
$PYRTM,2024,126.169517538900,17.279164949039
$GPGGA,040405.00,3425.3653,N,12107.4864,W,1,10,0.8,13.7,M,-33.8,M,,*6A
$PYRTM,2024,126.169529113634,17.279176523773
$GPGGA,040406.00,3425.3635,N,12107.4842,W,1,10,0.8,13.9,M,-33.8,M,,*63
$PYRTM,2024,126.169540691505,17.279188101644
$GPGGA,040407.00,3425.3616,N,12107.4820,W,1,10,0.8,14.2,M,-33.8,M,,*6B
$PYRTM,2024,126.169552256551,17.279199666690
$GPGGA,040408.00,3425.3598,N,12107.4797,W,1,10,0.8,14.2,M,-33.8,M,,*62
$PYRTM,2024,126.169563849769,17.279211259907
$GPGGA,040409.00,3425.3581,N,12107.4773,W,1,10,0.8,13.9,M,-33.8,M,,*6D
$PYRTM,2024,126.169575408970,17.279222819109
$GPGGA,040410.00,3425.3565,N,12107.4749,W,1,10,0.8,13.6,M,-33.8,M,,*69
$PYRTM,2024,126.169586984410,17.279234394549
$GPGGA,040411.00,3425.3548,N,12107.4727,W,1,10,0.8,13.5,M,-33.8,M,,*6C
$PYRTM,2024,126.169598552593,17.279245962731
$GPGGA,040412.00,3425.3530,N,12107.4708,W,1,10,0.8,13.4,M,-33.8,M,,*6C
$PYRTM,2024,126.169605952766,17.279253362905
$GPGGA,040413.00,3425.3511,N,12107.4690,W,1,10,0.8,13.3,M,-33.8,M,,*69
$PYRTM,2024,126.169617655440,17.279265065579
$GPGGA,040414.00,3425.3494,N,12107.4671,W,1,10,0.8,13.1,M,-33.8,M,,*6F
$PYRTM,2024,126.169633275880,17.279280686019
$GPGGA,040415.00,3425.3479,N,12107.4649,W,1,10,0.8,13.0,M,-33.8,M,,*67
$PYRTM,2024,126.169640675625,17.279288085764
$GPGGA,040416.00,3425.3465,N,12107.4626,W,1,10,0.8,13.0,M,-33.8,M,,*60
$PYRTM,2024,126.169652365243,17.279299775394
$GPGGA,040417.00,3425.3449,N,12107.4605,W,1,10,0.8,13.2,M,-33.8,M,,*6C
$PYRTM,2024,126.169663940787,17.279311350926
$GPGGA,040418.00,3425.3429,N,12107.4583,W,1,10,0.8,13.5,M,-33.8,M,,*6F
$PYRTM,2024,126.169682472269,17.279329882407
$GPGGA,040419.00,3425.3410,N,12107.4561,W,1,10,0.8,13.9,M,-33.8,M,,*64
$PYRTM,2024,126.169691150370,17.279338560509
$GPGGA,040420.00,3425.3392,N,12107.4537,W,1,10,0.8,14.3,M,-33.8,M,,*6D
$PYRTM,2024,126.169702739549,17.279350149688
$GPGGA,040421.00,3425.3375,N,12107.4512,W,1,10,0.8,14.4,M,-33.8,M,,*65
$PYRTM,2024,126.169714300347,17.279361710486
$GPGGA,040422.00,3425.3356,N,12107.4489,W,1,10,0.8,14.3,M,-33.8,M,,*63
$PYRTM,2024,126.169725887002,17.279373297141
$GPGGA,040423.00,3425.3337,N,12107.4468,W,1,10,0.8,14.1,M,-33.8,M,,*68
$PYRTM,2024,126.169733280521,17.279380690660
$GPGGA,040424.00,3425.3319,N,12107.4447,W,1,10,0.8,14.0,M,-33.8,M,,*6F
$PYRTM,2024,126.169749021933,17.279396432072
$GPGGA,040425.00,3425.3304,N,12107.4425,W,1,10,0.8,13.8,M,-33.8,M,,*69
$PYRTM,2024,126.169760594618,17.279408004757
$GPGGA,040426.00,3425.3288,N,12107.4403,W,1,10,0.8,13.5,M,-33.8,M,,*66
$PYRTM,2024,126.169772172847,17.279419582986
$GPGGA,040427.00,3425.3272,N,12107.4382,W,1,10,0.8,13.2,M,-33.8,M,,*6B
$PYRTM,2024,126.169783745451,17.279431155590
$GPGGA,040428.00,3425.3255,N,12107.4361,W,1,10,0.8,13.2,M,-33.8,M,,*6C
$PYRTM,2024,126.169791139514,17.279438549653
$GPGGA,040429.00,3425.3238,N,12107.4342,W,1,10,0.8,13.4,M,-33.8,M,,*61
$PYRTM,2024,126.169802829398,17.279450239560
$GPGGA,040430.00,3425.3220,N,12107.4320,W,1,10,0.8,13.6,M,-33.8,M,,*66
$PYRTM,2024,126.169818465521,17.279465875660
$GPGGA,040431.00,3425.3201,N,12107.4298,W,1,10,0.8,13.7,M,-33.8,M,,*67
$PYRTM,2024,126.169825862373,17.279473272512
$GPGGA,040432.00,3425.3184,N,12107.4276,W,1,10,0.8,13.8,M,-33.8,M,,*65
$PYRTM,2024,126.169841615613,17.279489025752
$GPGGA,040433.00,3425.3167,N,12107.4252,W,1,10,0.8,13.8,M,-33.8,M,,*6F
$PYRTM,2024,126.169853188669,17.279500598808
$GPGGA,040434.00,3425.3149,N,12107.4230,W,1,10,0.8,13.7,M,-33.8,M,,*6F
$PYRTM,2024,126.169864777975,17.279512188113
$GPGGA,040435.00,3425.3130,N,12107.4210,W,1,10,0.8,13.8,M,-33.8,M,,*6D
$PYRTM,2024,126.169876338368,17.279523748507
$GPGGA,040436.00,3425.3111,N,12107.4190,W,1,10,0.8,13.9,M,-33.8,M,,*67
$PYRTM,2024,126.169887925625,17.279535335764
$GPGGA,040437.00,3425.3096,N,12107.4168,W,1,10,0.8,13.9,M,-33.8,M,,*6F
$PYRTM,2024,126.169899485914,17.279546896053
$GPGGA,040438.00,3425.3083,N,12107.4145,W,1,10,0.8,13.8,M,-33.8,M,,*6A
$PYRTM,2024,126.169911074086,17.279558484225
$GPGGA,040439.00,3425.3068,N,12107.4125,W,1,10,0.8,13.6,M,-33.8,M,,*66
$PYRTM,2024,126.169922633727,17.279570043866
$GPGGA,040440.00,3425.3047,N,12107.4108,W,1,10,0.8,13.2,M,-33.8,M,,*6E
$PYRTM,2024,126.169934208102,17.279581618241
$GPGGA,040441.00,3425.3026,N,12107.4090,W,1,10,0.8,12.9,M,-33.8,M,,*62
$PYRTM,2024,126.169941620567,17.279589030706
$GPGGA,040442.00,3425.3009,N,12107.4068,W,1,10,0.8,12.8,M,-33.8,M,,*6A
$PYRTM,2024,126.169957357303,17.279604767442
$GPGGA,040443.00,3425.2996,N,12107.4043,W,1,10,0.8,13.3,M,-33.8,M,,*66
$PYRTM,2024,126.169968930775,17.279616340926
$GPGGA,040444.00,3425.2980,N,12107.4019,W,1,10,0.8,14.0,M,-33.8,M,,*6D
$PYRTM,2024,126.169980505752,17.279627915903
$GPGGA,040445.00,3425.2960,N,12107.3997,W,1,10,0.8,14.5,M,-33.8,M,,*6F
$PYRTM,2024,126.169992078681,17.279639488819
$GPGGA,040446.00,3425.2940,N,12107.3977,W,1,10,0.8,14.7,M,-33.8,M,,*62
$PYRTM,2024,126.169999473241,17.279646883380
$GPGGA,040447.00,3425.2923,N,12107.3956,W,1,10,0.8,14.7,M,-33.8,M,,*65
$PYRTM,2024,126.170015227928,17.279662638067
$GPGGA,040448.00,3425.2908,N,12107.3934,W,1,10,0.8,14.3,M,-33.8,M,,*63
$PYRTM,2024,126.170022621539,17.279670031690
$GPGGA,040449.00,3425.2892,N,12107.3914,W,1,10,0.8,13.5,M,-33.8,M,,*63
$PYRTM,2024,126.170041255000,17.279688665139
$GPGGA,040450.00,3425.2875,N,12107.3896,W,1,10,0.8,12.9,M,-33.8,M,,*64
$PYRTM,2024,126.170049963773,17.279697373912
$GPGGA,040451.00,3425.2857,N,12107.3877,W,1,10,0.8,12.6,M,-33.8,M,,*65
$PYRTM,2024,126.170061523576,17.279708933715
$GPGGA,040452.00,3425.2840,N,12107.3856,W,1,10,0.8,12.7,M,-33.8,M,,*62
$PYRTM,2024,126.170068917882,17.279716328021
$GPGGA,040453.00,3425.2824,N,12107.3835,W,1,10,0.8,13.2,M,-33.8,M,,*60
$PYRTM,2024,126.170084774444,17.279732184583
$GPGGA,040454.00,3425.2807,N,12107.3813,W,1,10,0.8,13.7,M,-33.8,M,,*67
$PYRTM,2024,126.170096363750,17.279743773889
$GPGGA,040455.00,3425.2789,N,12107.3791,W,1,10,0.8,13.9,M,-33.8,M,,*64
$PYRTM,2024,126.170107815417,17.279755225544
$GPGGA,040456.00,3425.2771,N,12107.3770,W,1,10,0.8,14.0,M,-33.8,M,,*61
$PYRTM,2024,126.170119394248,17.279766804375
$GPGGA,040457.00,3425.2754,N,12107.3750,W,1,10,0.8,14.1,M,-33.8,M,,*64
$PYRTM,2024,126.170130962384,17.279778372523
$GPGGA,040458.00,3425.2738,N,12107.3731,W,1,10,0.8,13.8,M,-33.8,M,,*68
$PYRTM,2024,126.170142544722,17.279789954861
$GPGGA,040459.00,3425.2721,N,12107.3710,W,1,10,0.8,13.3,M,-33.8,M,,*69
$PYRTM,2024,126.170149938449,17.279797348588
$GPGGA,040500.00,3425.2703,N,12107.3689,W,1,10,0.8,13.0,M,-33.8,M,,*66
$PYRTM,2024,126.170165690972,17.279813101111
$GPGGA,040501.00,3425.2685,N,12107.3668,W,1,10,0.8,13.1,M,-33.8,M,,*66
$PYRTM,2024,126.170173085046,17.279820495185
$GPGGA,040502.00,3425.2668,N,12107.3646,W,1,10,0.8,13.7,M,-33.8,M,,*6C
$PYRTM,2024,126.170191733530,17.279839143669
$GPGGA,040503.00,3425.2652,N,12107.3623,W,1,10,0.8,14.2,M,-33.8,M,,*65
$PYRTM,2024,126.170200412882,17.279847823021
$GPGGA,040504.00,3425.2637,N,12107.3599,W,1,10,0.8,14.5,M,-33.8,M,,*64
$PYRTM,2024,126.170212003646,17.279859413796
$GPGGA,040505.00,3425.2621,N,12107.3577,W,1,10,0.8,14.4,M,-33.8,M,,*63
$PYRTM,2024,126.170223561458,17.279870971597
$GPGGA,040506.00,3425.2603,N,12107.3557,W,1,10,0.8,14.0,M,-33.8,M,,*66
$PYRTM,2024,126.170235150174,17.279882560313
$GPGGA,040507.00,3425.2586,N,12107.3537,W,1,10,0.8,13.2,M,-33.8,M,,*6A
$PYRTM,2024,126.170246710625,17.279894120764
$GPGGA,040508.00,3425.2570,N,12107.3518,W,1,10,0.8,12.6,M,-33.8,M,,*64
$PYRTM,2024,126.170258284769,17.279905694907
$GPGGA,040509.00,3425.2555,N,12107.3499,W,1,10,0.8,12.7,M,-33.8,M,,*6B
$PYRTM,2024,126.170265693044,17.279913103183
$GPGGA,040510.00,3425.2543,N,12107.3478,W,1,10,0.8,13.1,M,-33.8,M,,*6C
$PYRTM,2024,126.170277376979,17.279924787118
$GPGGA,040511.00,3425.2528,N,12107.3456,W,1,10,0.8,13.6,M,-33.8,M,,*6B
$PYRTM,2024,126.170293010370,17.279940420509
$GPGGA,040512.00,3425.2510,N,12107.3437,W,1,10,0.8,13.8,M,-33.8,M,,*6A
$PYRTM,2024,126.170300402512,17.279947812650
$GPGGA,040513.00,3425.2491,N,12107.3418,W,1,10,0.8,13.9,M,-33.8,M,,*6F
$PYRTM,2024,126.170316155370,17.279963565509
$GPGGA,040514.00,3425.2475,N,12107.3396,W,1,10,0.8,13.9,M,-33.8,M,,*63
$PYRTM,2024,126.170327730081,17.279975140220
$GPGGA,040515.00,3425.2462,N,12107.3372,W,1,10,0.8,13.8,M,-33.8,M,,*6F
$PYRTM,2024,126.170339303762,17.279986713900
$GPGGA,040516.00,3425.2448,N,12107.3350,W,1,10,0.8,13.6,M,-33.8,M,,*6A
$PYRTM,2024,126.170350881343,17.279998291481
$GPGGA,040517.00,3425.2430,N,12107.3331,W,1,10,0.8,13.4,M,-33.8,M,,*61
$PYRTM,2024,126.170362452558,17.280009862697
$GPGGA,040518.00,3425.2410,N,12107.3313,W,1,10,0.8,13.2,M,-33.8,M,,*6A
$PYRTM,2024,126.170374029560,17.280021439699
$GPGGA,040519.00,3425.2392,N,12107.3291,W,1,10,0.8,13.2,M,-33.8,M,,*6D
$PYRTM,2024,126.170381421308,17.280028831447
$GPGGA,040520.00,3425.2377,N,12107.3269,W,1,10,0.8,13.5,M,-33.8,M,,*6C
$PYRTM,2024,126.170400082940,17.280047493079
$GPGGA,040521.00,3425.2362,N,12107.3246,W,1,10,0.8,14.0,M,-33.8,M,,*66
$PYRTM,2024,126.170408748727,17.280056158877
$GPGGA,040522.00,3425.2348,N,12107.3225,W,1,10,0.8,14.4,M,-33.8,M,,*6C
$PYRTM,2024,126.170416143704,17.280063553843
$GPGGA,040523.00,3425.2330,N,12107.3206,W,1,10,0.8,14.3,M,-33.8,M,,*64
$PYRTM,2024,126.170431898565,17.280079308715
$GPGGA,040524.00,3425.2312,N,12107.3188,W,1,10,0.8,13.6,M,-33.8,M,,*64
$PYRTM,2024,126.170443471215,17.280090881354
$GPGGA,040525.00,3425.2294,N,12107.3170,W,1,10,0.8,13.0,M,-33.8,M,,*6B
$PYRTM,2024,126.170455045370,17.280102455509
$GPGGA,040526.00,3425.2278,N,12107.3150,W,1,10,0.8,12.7,M,-33.8,M,,*6E
$PYRTM,2024,126.170466621632,17.280114031771
$GPGGA,040527.00,3425.2263,N,12107.3130,W,1,10,0.8,12.8,M,-33.8,M,,*6C
$PYRTM,2024,126.170474015625,17.280121425764
$GPGGA,040528.00,3425.2247,N,12107.3109,W,1,10,0.8,13.2,M,-33.8,M,,*64
$PYRTM,2024,126.170489768333,17.280137178484
$GPGGA,040529.00,3425.2230,N,12107.3089,W,1,10,0.8,13.8,M,-33.8,M,,*66
$PYRTM,2024,126.170501341979,17.280148752118
$GPGGA,040530.00,3425.2213,N,12107.3069,W,1,10,0.8,14.3,M,-33.8,M,,*6D
$PYRTM,2024,126.170512911806,17.280160321944
$GPGGA,040531.00,3425.2195,N,12107.3048,W,1,10,0.8,14.4,M,-33.8,M,,*65
$PYRTM,2024,126.170524484850,17.280171895000
$GPGGA,040532.00,3425.2178,N,12107.3028,W,1,10,0.8,14.3,M,-33.8,M,,*64
$PYRTM,2024,126.170536068530,17.280183478669
$GPGGA,040533.00,3425.2161,N,12107.3008,W,1,10,0.8,13.9,M,-33.8,M,,*62
$PYRTM,2024,126.170543459329,17.280190869468
$GPGGA,040534.00,3425.2144,N,12107.2988,W,1,10,0.8,13.4,M,-33.8,M,,*6F
$PYRTM,2024,126.170559216377,17.280206626516
$GPGGA,040535.00,3425.2129,N,12107.2967,W,1,10,0.8,13.2,M,-33.8,M,,*62
$PYRTM,2024,126.170566608623,17.280214018762
$GPGGA,040536.00,3425.2113,N,12107.2947,W,1,10,0.8,13.4,M,-33.8,M,,*6C
$PYRTM,2024,126.170578298403,17.280225708542
$GPGGA,040537.00,3425.2096,N,12107.2927,W,1,10,0.8,13.6,M,-33.8,M,,*65
$PYRTM,2024,126.170593935509,17.280241345648
$GPGGA,040538.00,3425.2076,N,12107.2909,W,1,10,0.8,13.8,M,-33.8,M,,*66
$PYRTM,2024,126.170605510324,17.280252920463
$GPGGA,040539.00,3425.2058,N,12107.2888,W,1,10,0.8,13.8,M,-33.8,M,,*63
$PYRTM,2024,126.170617079468,17.280264489606
$GPGGA,040540.00,3425.2042,N,12107.2866,W,1,10,0.8,13.8,M,-33.8,M,,*66
$PYRTM,2024,126.170628657685,17.280276067824
$GPGGA,040541.00,3425.2027,N,12107.2843,W,1,10,0.8,13.8,M,-33.8,M,,*63
$PYRTM,2024,126.170640226840,17.280287636979
$GPGGA,040542.00,3425.2009,N,12107.2822,W,1,10,0.8,13.7,M,-33.8,M,,*64
$PYRTM,2024,126.170651802928,17.280299213067
$GPGGA,040543.00,3425.1991,N,12107.2804,W,1,10,0.8,13.5,M,-33.8,M,,*68
$PYRTM,2024,126.170663380405,17.280310790544
$GPGGA,040544.00,3425.1973,N,12107.2785,W,1,10,0.8,13.2,M,-33.8,M,,*62
$PYRTM,2024,126.170674954572,17.280322364711
$GPGGA,040545.00,3425.1958,N,12107.2765,W,1,10,0.8,13.0,M,-33.8,M,,*66
$PYRTM,2024,126.170682348461,17.280329758600
$GPGGA,040546.00,3425.1943,N,12107.2744,W,1,10,0.8,13.1,M,-33.8,M,,*6D
$PYRTM,2024,126.170694041192,17.280341451331
$GPGGA,040547.00,3425.1926,N,12107.2724,W,1,10,0.8,13.2,M,-33.8,M,,*6A
$PYRTM,2024,126.170709676644,17.280357086782
$GPGGA,040548.00,3425.1908,N,12107.2706,W,1,10,0.8,13.2,M,-33.8,M,,*69
$PYRTM,2024,126.170717071794,17.280364481944
$GPGGA,040549.00,3425.1890,N,12107.2688,W,1,10,0.8,13.3,M,-33.8,M,,*6E
$PYRTM,2024,126.170728762257,17.280376172396
$GPGGA,040550.00,3425.1874,N,12107.2667,W,1,10,0.8,13.4,M,-33.8,M,,*6A
$PYRTM,2024,126.170740336030,17.280387746169
$GPGGA,040551.00,3425.1859,N,12107.2642,W,1,10,0.8,13.5,M,-33.8,M,,*62
$PYRTM,2024,126.170758855150,17.280406265289
$GPGGA,040552.00,3425.1842,N,12107.2620,W,1,10,0.8,13.6,M,-33.8,M,,*6C
$PYRTM,2024,126.170767548252,17.280414958391
$GPGGA,040553.00,3425.1823,N,12107.2600,W,1,10,0.8,13.7,M,-33.8,M,,*69
$PYRTM,2024,126.170779117153,17.280426527292
$GPGGA,040554.00,3425.1804,N,12107.2580,W,1,10,0.8,13.9,M,-33.8,M,,*6E
$PYRTM,2024,126.170790697755,17.280438107894
$GPGGA,040555.00,3425.1788,N,12107.2560,W,1,10,0.8,14.0,M,-33.8,M,,*64
$PYRTM,2024,126.170802270544,17.280449680683
$GPGGA,040556.00,3425.1771,N,12107.2539,W,1,10,0.8,14.0,M,-33.8,M,,*6D
$PYRTM,2024,126.170813844468,17.280461254606
$GPGGA,040557.00,3425.1753,N,12107.2520,W,1,10,0.8,13.5,M,-33.8,M,,*66
$PYRTM,2024,126.170825416690,17.280472826829
$GPGGA,040558.00,3425.1733,N,12107.2502,W,1,10,0.8,13.1,M,-33.8,M,,*6B
$PYRTM,2024,126.170836994039,17.280484404178
$GPGGA,040559.00,3425.1716,N,12107.2482,W,1,10,0.8,13.1,M,-33.8,M,,*64
$PYRTM,2024,126.170848567234,17.280495977373
$GPGGA,040600.00,3425.1701,N,12107.2460,W,1,10,0.8,13.3,M,-33.8,M,,*63
$PYRTM,2024,126.170860144352,17.280507554491
$GPGGA,040601.00,3425.1686,N,12107.2437,W,1,10,0.8,13.4,M,-33.8,M,,*69
$PYRTM,2024,126.170871715023,17.280519125174
$GPGGA,040602.00,3425.1669,N,12107.2416,W,1,10,0.8,13.3,M,-33.8,M,,*6F
$PYRTM,2024,126.170883294317,17.280530704456
$GPGGA,040603.00,3425.1651,N,12107.2397,W,1,10,0.8,13.3,M,-33.8,M,,*6B
$PYRTM,2024,126.170890684120,17.280538094259
$GPGGA,040604.00,3425.1633,N,12107.2379,W,1,10,0.8,13.4,M,-33.8,M,,*6F
$PYRTM,2024,126.170906438067,17.280553848206
$GPGGA,040605.00,3425.1615,N,12107.2362,W,1,10,0.8,13.4,M,-33.8,M,,*60
$PYRTM,2024,126.170913850637,17.280561260775
$GPGGA,040606.00,3425.1597,N,12107.2344,W,1,10,0.8,13.1,M,-33.8,M,,*6B
$PYRTM,2024,126.170929588090,17.280576998229
$GPGGA,040607.00,3425.1580,N,12107.2326,W,1,10,0.8,12.9,M,-33.8,M,,*61
$PYRTM,2024,126.170941161829,17.280588571968
$GPGGA,040608.00,3425.1564,N,12107.2307,W,1,10,0.8,12.9,M,-33.8,M,,*67
$PYRTM,2024,126.170952729352,17.280600139491
$GPGGA,040609.00,3425.1548,N,12107.2286,W,1,10,0.8,13.2,M,-33.8,M,,*6A
$PYRTM,2024,126.170964303032,17.280611713171
$GPGGA,040610.00,3425.1530,N,12107.2266,W,1,10,0.8,13.7,M,-33.8,M,,*66
$PYRTM,2024,126.170975883461,17.280623293600
$GPGGA,040611.00,3425.1512,N,12107.2245,W,1,10,0.8,14.0,M,-33.8,M,,*66
$PYRTM,2024,126.170987457882,17.280634868021
$GPGGA,040612.00,3425.1493,N,12107.2224,W,1,10,0.8,14.2,M,-33.8,M,,*68
$PYRTM,2024,126.170999025706,17.280646435845
$GPGGA,040613.00,3425.1474,N,12107.2204,W,1,10,0.8,14.1,M,-33.8,M,,*61
$PYRTM,2024,126.171010604410,17.280658014549
$GPGGA,040614.00,3425.1456,N,12107.2185,W,1,10,0.8,13.9,M,-33.8,M,,*63
$PYRTM,2024,126.171022182187,17.280669592326
$GPGGA,040615.00,3425.1438,N,12107.2166,W,1,10,0.8,13.6,M,-33.8,M,,*68
$PYRTM,2024,126.171029572431,17.280676982569
$GPGGA,040616.00,3425.1420,N,12107.2147,W,1,10,0.8,13.2,M,-33.8,M,,*65
$PYRTM,2024,126.171045331516,17.280692741667
$GPGGA,040617.00,3425.1402,N,12107.2128,W,1,10,0.8,13.1,M,-33.8,M,,*6E
$PYRTM,2024,126.171056902234,17.280704312373
$GPGGA,040618.00,3425.1386,N,12107.2109,W,1,10,0.8,13.1,M,-33.8,M,,*69
$PYRTM,2024,126.171064297384,17.280711707523
$GPGGA,040619.00,3425.1371,N,12107.2089,W,1,10,0.8,13.3,M,-33.8,M,,*6B
$PYRTM,2024,126.171080044595,17.280727454734
$GPGGA,040620.00,3425.1355,N,12107.2070,W,1,10,0.8,13.3,M,-33.8,M,,*61
$PYRTM,2024,126.171091623924,17.280739034062
$GPGGA,040621.00,3425.1338,N,12107.2052,W,1,10,0.8,13.3,M,-33.8,M,,*6B
$PYRTM,2024,126.171099034537,17.280746444676
$GPGGA,040622.00,3425.1321,N,12107.2033,W,1,10,0.8,13.2,M,-33.8,M,,*66
$PYRTM,2024,126.171117670995,17.280765081134
$GPGGA,040623.00,3425.1305,N,12107.2014,W,1,10,0.8,13.1,M,-33.8,M,,*67
$PYRTM,2024,126.171126347581,17.280773757720
$GPGGA,040624.00,3425.1288,N,12107.1995,W,1,10,0.8,13.0,M,-33.8,M,,*66
$PYRTM,2024,126.171137924097,17.280785334236
$GPGGA,040625.00,3425.1271,N,12107.1977,W,1,10,0.8,12.9,M,-33.8,M,,*65
$PYRTM,2024,126.171149491227,17.280796901366
$GPGGA,040626.00,3425.1252,N,12107.1959,W,1,10,0.8,13.0,M,-33.8,M,,*63
$PYRTM,2024,126.171161069398,17.280808479537
$GPGGA,040627.00,3425.1234,N,12107.1939,W,1,10,0.8,13.3,M,-33.8,M,,*67
$PYRTM,2024,126.171172644259,17.280820054410
$GPGGA,040628.00,3425.1216,N,12107.1916,W,1,10,0.8,13.4,M,-33.8,M,,*62
$PYRTM,2024,126.171184222245,17.280831632384
$GPGGA,040629.00,3425.1200,N,12107.1892,W,1,10,0.8,13.5,M,-33.8,M,,*68
$PYRTM,2024,126.171195791644,17.280843201782
$GPGGA,040630.00,3425.1185,N,12107.1870,W,1,10,0.8,13.7,M,-33.8,M,,*60
$PYRTM,2024,126.171207369063,17.280854779190
$GPGGA,040631.00,3425.1167,N,12107.1852,W,1,10,0.8,14.0,M,-33.8,M,,*6D
$PYRTM,2024,126.171218942199,17.280866352338
$GPGGA,040632.00,3425.1148,N,12107.1836,W,1,10,0.8,14.0,M,-33.8,M,,*61
$PYRTM,2024,126.171230514931,17.280877925069
$GPGGA,040633.00,3425.1129,N,12107.1818,W,1,10,0.8,13.5,M,-33.8,M,,*69
$PYRTM,2024,126.171242088356,17.280889498495
$GPGGA,040634.00,3425.1113,N,12107.1799,W,1,10,0.8,13.2,M,-33.8,M,,*66
$PYRTM,2024,126.171253661956,17.280901072095
$GPGGA,040635.00,3425.1099,N,12107.1777,W,1,10,0.8,13.1,M,-33.8,M,,*67
$PYRTM,2024,126.171265236655,17.280912646806
$GPGGA,040636.00,3425.1083,N,12107.1758,W,1,10,0.8,13.3,M,-33.8,M,,*60
$PYRTM,2024,126.171276810440,17.280924220579
$GPGGA,040637.00,3425.1066,N,12107.1738,W,1,10,0.8,13.4,M,-33.8,M,,*6B
$PYRTM,2024,126.171284219097,17.280931629236
$GPGGA,040638.00,3425.1048,N,12107.1717,W,1,10,0.8,13.7,M,-33.8,M,,*66
$PYRTM,2024,126.171299959479,17.280947369618
$GPGGA,040639.00,3425.1032,N,12107.1695,W,1,10,0.8,13.8,M,-33.8,M,,*6E
$PYRTM,2024,126.171311528565,17.280958938704
$GPGGA,040640.00,3425.1014,N,12107.1674,W,1,10,0.8,13.7,M,-33.8,M,,*64
$PYRTM,2024,126.171323108623,17.280970518773
$GPGGA,040641.00,3425.0994,N,12107.1657,W,1,10,0.8,13.4,M,-33.8,M,,*67
$PYRTM,2024,126.171334675521,17.280982085660
$GPGGA,040642.00,3425.0974,N,12107.1641,W,1,10,0.8,13.0,M,-33.8,M,,*69
$PYRTM,2024,126.171346251354,17.280993661493
$GPGGA,040643.00,3425.0956,N,12107.1624,W,1,10,0.8,12.8,M,-33.8,M,,*62
$PYRTM,2024,126.171357829491,17.281005239630
$GPGGA,040644.00,3425.0940,N,12107.1605,W,1,10,0.8,12.6,M,-33.8,M,,*6F
$PYRTM,2024,126.171369407025,17.281016817164
$GPGGA,040645.00,3425.0927,N,12107.1586,W,1,10,0.8,12.9,M,-33.8,M,,*68
$PYRTM,2024,126.171376800162,17.281024210301
$GPGGA,040646.00,3425.0911,N,12107.1567,W,1,10,0.8,13.1,M,-33.8,M,,*68
$PYRTM,2024,126.171388487454,17.281035897593
$GPGGA,040647.00,3425.0893,N,12107.1550,W,1,10,0.8,13.2,M,-33.8,M,,*65
$PYRTM,2024,126.171404125671,17.281051535810
$GPGGA,040648.00,3425.0875,N,12107.1531,W,1,10,0.8,13.3,M,-33.8,M,,*64
$PYRTM,2024,126.171411520336,17.281058930475
$GPGGA,040649.00,3425.0859,N,12107.1510,W,1,10,0.8,13.8,M,-33.8,M,,*63
$PYRTM,2024,126.171427274491,17.281074684630
$GPGGA,040650.00,3425.0842,N,12107.1488,W,1,10,0.8,14.1,M,-33.8,M,,*6F
$PYRTM,2024,126.171438851678,17.281086261817
$GPGGA,040651.00,3425.0822,N,12107.1468,W,1,10,0.8,14.0,M,-33.8,M,,*67
$PYRTM,2024,126.171450422569,17.281097832708
$GPGGA,040652.00,3425.0800,N,12107.1449,W,1,10,0.8,13.9,M,-33.8,M,,*69
$PYRTM,2024,126.171457816655,17.281105226794
$GPGGA,040653.00,3425.0782,N,12107.1430,W,1,10,0.8,13.8,M,-33.8,M,,*62
$PYRTM,2024,126.171476451701,17.281123861852
$GPGGA,040654.00,3425.0766,N,12107.1409,W,1,10,0.8,13.8,M,-33.8,M,,*65
$PYRTM,2024,126.171485147674,17.281132557813
$GPGGA,040655.00,3425.0751,N,12107.1387,W,1,10,0.8,13.5,M,-33.8,M,,*6C
$PYRTM,2024,126.171496718947,17.281144129086
$GPGGA,040656.00,3425.0736,N,12107.1366,W,1,10,0.8,13.1,M,-33.8,M,,*65
$PYRTM,2024,126.171508296470,17.281155706609
$GPGGA,040657.00,3425.0720,N,12107.1349,W,1,10,0.8,12.9,M,-33.8,M,,*67
$PYRTM,2024,126.171519867303,17.281167277454
$GPGGA,040658.00,3425.0704,N,12107.1330,W,1,10,0.8,12.8,M,-33.8,M,,*61
$PYRTM,2024,126.171527262581,17.281174672720
$GPGGA,040659.00,3425.0690,N,12107.1311,W,1,10,0.8,12.7,M,-33.8,M,,*60
$PYRTM,2024,126.171543015856,17.281190425995
$GPGGA,040700.00,3425.0675,N,12107.1291,W,1,10,0.8,12.8,M,-33.8,M,,*60
$PYRTM,2024,126.171554706632,17.281202116771
$GPGGA,040701.00,3425.0659,N,12107.1271,W,1,10,0.8,12.9,M,-33.8,M,,*60
$PYRTM,2024,126.171566164016,17.281213574155
$GPGGA,040702.00,3425.0640,N,12107.1252,W,1,10,0.8,13.1,M,-33.8,M,,*63
$PYRTM,2024,126.171577735359,17.281225145498
$GPGGA,040703.00,3425.0622,N,12107.1232,W,1,10,0.8,13.1,M,-33.8,M,,*60
$PYRTM,2024,126.171585133623,17.281232543762
$GPGGA,040704.00,3425.0605,N,12107.1210,W,1,10,0.8,13.1,M,-33.8,M,,*62
$PYRTM,2024,126.171600887801,17.281248297940
$GPGGA,040705.00,3425.0590,N,12107.1187,W,1,10,0.8,13.2,M,-33.8,M,,*62
$PYRTM,2024,126.171612459954,17.281259870093
$GPGGA,040706.00,3425.0575,N,12107.1165,W,1,10,0.8,13.2,M,-33.8,M,,*66
$PYRTM,2024,126.171619856933,17.281267267072
$GPGGA,040707.00,3425.0557,N,12107.1145,W,1,10,0.8,13.2,M,-33.8,M,,*65
$PYRTM,2024,126.171635609144,17.281283019282
$GPGGA,040708.00,3425.0539,N,12107.1126,W,1,10,0.8,13.1,M,-33.8,M,,*64
$PYRTM,2024,126.171647186991,17.281294597130
$GPGGA,040709.00,3425.0522,N,12107.1106,W,1,10,0.8,13.1,M,-33.8,M,,*6D
$PYRTM,2024,126.171654578553,17.281301988692
$GPGGA,040710.00,3425.0507,N,12107.1085,W,1,10,0.8,13.1,M,-33.8,M,,*68
$PYRTM,2024,126.171673229468,17.281320639606
$GPGGA,040711.00,3425.0493,N,12107.1063,W,1,10,0.8,13.1,M,-33.8,M,,*6D
$PYRTM,2024,126.171684787975,17.281332198113
$GPGGA,040712.00,3425.0477,N,12107.1041,W,1,10,0.8,13.3,M,-33.8,M,,*66
$PYRTM,2024,126.171696372963,17.281343783102
$GPGGA,040713.00,3425.0459,N,12107.1022,W,1,10,0.8,13.5,M,-33.8,M,,*68
$PYRTM,2024,126.171705054641,17.281352464780
$GPGGA,040714.00,3425.0440,N,12107.1002,W,1,10,0.8,13.4,M,-33.8,M,,*64
$PYRTM,2024,126.171712448796,17.281359858935
$GPGGA,040715.00,3425.0421,N,12107.0982,W,1,10,0.8,13.1,M,-33.8,M,,*67
$PYRTM,2024,126.171728203681,17.281375613831
$GPGGA,040716.00,3425.0404,N,12107.0961,W,1,10,0.8,12.7,M,-33.8,M,,*69
$PYRTM,2024,126.171739777720,17.281387187859
$GPGGA,040717.00,3425.0390,N,12107.0938,W,1,10,0.8,12.6,M,-33.8,M,,*6F
$PYRTM,2024,126.171751350498,17.281398760637
$GPGGA,040718.00,3425.0377,N,12107.0915,W,1,10,0.8,12.5,M,-33.8,M,,*65
$PYRTM,2024,126.171762919942,17.281410330081
$GPGGA,040719.00,3425.0360,N,12107.0895,W,1,10,0.8,12.5,M,-33.8,M,,*6B
$PYRTM,2024,126.171770322257,17.281417732407
$GPGGA,040720.00,3425.0340,N,12107.0877,W,1,10,0.8,12.5,M,-33.8,M,,*6F
$PYRTM,2024,126.171786075787,17.281433485926
$GPGGA,040721.00,3425.0323,N,12107.0859,W,1,10,0.8,12.8,M,-33.8,M,,*6A
$PYRTM,2024,126.171797647720,17.281445057859
$GPGGA,040722.00,3425.0310,N,12107.0838,W,1,10,0.8,13.2,M,-33.8,M,,*65
$PYRTM,2024,126.171809226250,17.281456636400
$GPGGA,040723.00,3425.0297,N,12107.0815,W,1,10,0.8,13.3,M,-33.8,M,,*64
$PYRTM,2024,126.171816618287,17.281464028426
$GPGGA,040724.00,3425.0282,N,12107.0793,W,1,10,0.8,13.3,M,-33.8,M,,*66
$PYRTM,2024,126.171835267697,17.281482677836
$GPGGA,040725.00,3425.0264,N,12107.0773,W,1,10,0.8,13.2,M,-33.8,M,,*60
$PYRTM,2024,126.171846825706,17.281494235845
$GPGGA,040726.00,3425.0246,N,12107.0753,W,1,10,0.8,13.1,M,-33.8,M,,*62
$PYRTM,2024,126.171858416192,17.281505826331
$GPGGA,040727.00,3425.0229,N,12107.0731,W,1,10,0.8,12.9,M,-33.8,M,,*67
$PYRTM,2024,126.171869973623,17.281517383762
$GPGGA,040728.00,3425.0215,N,12107.0708,W,1,10,0.8,12.8,M,-33.8,M,,*6C
$PYRTM,2024,126.171881556782,17.281528966921
$GPGGA,040729.00,3425.0199,N,12107.0686,W,1,10,0.8,12.8,M,-33.8,M,,*6D
$PYRTM,2024,126.171890237477,17.281537647616
$GPGGA,040730.00,3425.0183,N,12107.0665,W,1,10,0.8,13.0,M,-33.8,M,,*6A
$PYRTM,2024,126.171897636100,17.281545046238
$GPGGA,040731.00,3425.0166,N,12107.0645,W,1,10,0.8,13.1,M,-33.8,M,,*63
$PYRTM,2024,126.171913388403,17.281560798542
$GPGGA,040732.00,3425.0151,N,12107.0625,W,1,10,0.8,13.0,M,-33.8,M,,*63
$PYRTM,2024,126.171924963194,17.281572373333
$GPGGA,040733.00,3425.0135,N,12107.0602,W,1,10,0.8,12.9,M,-33.8,M,,*6D
$PYRTM,2024,126.171936537465,17.281583947604
$GPGGA,040734.00,3425.0118,N,12107.0581,W,1,10,0.8,12.9,M,-33.8,M,,*6D
$PYRTM,2024,126.171948115961,17.281595526100
$GPGGA,040735.00,3425.0101,N,12107.0561,W,1,10,0.8,13.1,M,-33.8,M,,*63
$PYRTM,2024,126.171959680255,17.281607090394
$GPGGA,040736.00,3425.0085,N,12107.0538,W,1,10,0.8,13.4,M,-33.8,M,,*64
$PYRTM,2024,126.171971262639,17.281618672778
$GPGGA,040737.00,3425.0073,N,12107.0513,W,1,10,0.8,13.5,M,-33.8,M,,*64
$PYRTM,2024,126.171982833495,17.281630243634
$GPGGA,040738.00,3425.0061,N,12107.0489,W,1,10,0.8,13.2,M,-33.8,M,,*6D
$PYRTM,2024,126.171994408727,17.281641818877
$GPGGA,040739.00,3425.0045,N,12107.0468,W,1,10,0.8,12.9,M,-33.8,M,,*6F
$PYRTM,2024,126.172005981921,17.281653392060
$GPGGA,040740.00,3425.0026,N,12107.0450,W,1,10,0.8,12.5,M,-33.8,M,,*63
$PYRTM,2024,126.172017556910,17.281664967049
$GPGGA,040741.00,3425.0008,N,12107.0431,W,1,10,0.8,12.3,M,-33.8,M,,*6F
$PYRTM,2024,126.172029130174,17.281676540312
$GPGGA,040742.00,3424.9994,N,12107.0410,W,1,10,0.8,12.4,M,-33.8,M,,*6C
$PYRTM,2024,126.172040706100,17.281688116238
$GPGGA,040743.00,3424.9981,N,12107.0388,W,1,10,0.8,12.8,M,-33.8,M,,*63
$PYRTM,2024,126.172052274792,17.281699684931
$GPGGA,040744.00,3424.9965,N,12107.0368,W,1,10,0.8,13.1,M,-33.8,M,,*68
$PYRTM,2024,126.172059673403,17.281707083553
$GPGGA,040745.00,3424.9947,N,12107.0348,W,1,10,0.8,13.4,M,-33.8,M,,*6E
$PYRTM,2024,126.172075422813,17.281722832951
$GPGGA,040746.00,3424.9931,N,12107.0325,W,1,10,0.8,13.4,M,-33.8,M,,*67
$PYRTM,2024,126.172087005637,17.281734415787
$GPGGA,040747.00,3424.9919,N,12107.0300,W,1,10,0.8,13.4,M,-33.8,M,,*6B
$PYRTM,2024,126.172094396887,17.281741807025
$GPGGA,040748.00,3424.9906,N,12107.0275,W,1,10,0.8,13.4,M,-33.8,M,,*69
$PYRTM,2024,126.172106085729,17.281753495868
$GPGGA,040749.00,3424.9889,N,12107.0252,W,1,10,0.8,13.3,M,-33.8,M,,*6C
$PYRTM,2024,126.172121723924,17.281769134063
$GPGGA,040750.00,3424.9869,N,12107.0232,W,1,10,0.8,13.0,M,-33.8,M,,*6F
$PYRTM,2024,126.172133301157,17.281780711296
$GPGGA,040751.00,3424.9851,N,12107.0211,W,1,10,0.8,12.8,M,-33.8,M,,*6D
$PYRTM,2024,126.172144871910,17.281792282049
$GPGGA,040752.00,3424.9838,N,12107.0188,W,1,10,0.8,12.8,M,-33.8,M,,*62
$PYRTM,2024,126.172156451285,17.281803861424
$GPGGA,040753.00,3424.9827,N,12107.0165,W,1,10,0.8,12.9,M,-33.8,M,,*6F
$PYRTM,2024,126.172168020521,17.281815430660
$GPGGA,040754.00,3424.9810,N,12107.0145,W,1,10,0.8,12.8,M,-33.8,M,,*6F
$PYRTM,2024,126.172175415903,17.281822826042
$GPGGA,040755.00,3424.9791,N,12107.0127,W,1,10,0.8,12.3,M,-33.8,M,,*67
$PYRTM,2024,126.172194049352,17.281841459502
$GPGGA,040756.00,3424.9774,N,12107.0107,W,1,10,0.8,12.0,M,-33.8,M,,*6E
$PYRTM,2024,126.172202744201,17.281850154352
$GPGGA,040757.00,3424.9761,N,12107.0084,W,1,10,0.8,12.1,M,-33.8,M,,*60
$PYRTM,2024,126.172214317280,17.281861727419
$GPGGA,040758.00,3424.9749,N,12107.0060,W,1,10,0.8,12.5,M,-33.8,M,,*6B
$PYRTM,2024,126.172225891065,17.281873301204
$GPGGA,040759.00,3424.9734,N,12107.0038,W,1,10,0.8,13.1,M,-33.8,M,,*68
$PYRTM,2024,126.172237464954,17.281884875093
$GPGGA,040800.00,3424.9714,N,12107.0019,W,1,10,0.8,13.3,M,-33.8,M,,*68
$PYRTM,2024,126.172249041285,17.281896451424
$GPGGA,040801.00,3424.9694,N,12106.9999,W,1,10,0.8,13.1,M,-33.8,M,,*6B
$PYRTM,2024,126.172260613704,17.281908023843
$GPGGA,040802.00,3424.9677,N,12106.9978,W,1,10,0.8,12.9,M,-33.8,M,,*63
$PYRTM,2024,126.172272190984,17.281919601123
$GPGGA,040803.00,3424.9664,N,12106.9953,W,1,10,0.8,12.8,M,-33.8,M,,*68
$PYRTM,2024,126.172283764306,17.281931174456
$GPGGA,040804.00,3424.9649,N,12106.9928,W,1,10,0.8,12.8,M,-33.8,M,,*6C
$PYRTM,2024,126.172295352766,17.281942762905
$GPGGA,040805.00,3424.9631,N,12106.9907,W,1,10,0.8,12.8,M,-33.8,M,,*6F
$PYRTM,2024,126.172306910127,17.281954320266
$GPGGA,040806.00,3424.9612,N,12106.9888,W,1,10,0.8,12.9,M,-33.8,M,,*6A
$PYRTM,2024,126.172318488843,17.281965898981
$GPGGA,040807.00,3424.9594,N,12106.9870,W,1,10,0.8,13.2,M,-33.8,M,,*6B
$PYRTM,2024,126.172325881458,17.281973291597
$GPGGA,040808.00,3424.9578,N,12106.9848,W,1,10,0.8,13.1,M,-33.8,M,,*6E
$PYRTM,2024,126.172341633704,17.281989043843
$GPGGA,040809.00,3424.9561,N,12106.9828,W,1,10,0.8,12.7,M,-33.8,M,,*66
$PYRTM,2024,126.172353206377,17.282000616516
$GPGGA,040810.00,3424.9543,N,12106.9809,W,1,10,0.8,12.6,M,-33.8,M,,*6C
$PYRTM,2024,126.172360603403,17.282008013553
$GPGGA,040811.00,3424.9528,N,12106.9788,W,1,10,0.8,12.7,M,-33.8,M,,*67
$PYRTM,2024,126.172376355347,17.282023765486
$GPGGA,040812.00,3424.9513,N,12106.9765,W,1,10,0.8,12.7,M,-33.8,M,,*6F
$PYRTM,2024,126.172387929062,17.282035339213
$GPGGA,040813.00,3424.9498,N,12106.9742,W,1,10,0.8,12.7,M,-33.8,M,,*69
$PYRTM,2024,126.172395326285,17.282042736435
$GPGGA,040814.00,3424.9481,N,12106.9721,W,1,10,0.8,12.9,M,-33.8,M,,*6D
$PYRTM,2024,126.172411072593,17.282058482731
$GPGGA,040815.00,3424.9463,N,12106.9700,W,1,10,0.8,13.2,M,-33.8,M,,*69
$PYRTM,2024,126.172418471030,17.282065881181
$GPGGA,040816.00,3424.9444,N,12106.9679,W,1,10,0.8,13.3,M,-33.8,M,,*61
$PYRTM,2024,126.172430163056,17.282077573194
$GPGGA,040817.00,3424.9426,N,12106.9658,W,1,10,0.8,13.0,M,-33.8,M,,*64
$PYRTM,2024,126.172445801146,17.282093211285
$GPGGA,040818.00,3424.9410,N,12106.9637,W,1,10,0.8,12.8,M,-33.8,M,,*6E
$PYRTM,2024,126.172457378148,17.282104788287
$GPGGA,040819.00,3424.9396,N,12106.9614,W,1,10,0.8,12.8,M,-33.8,M,,*67
$PYRTM,2024,126.172468949132,17.282116359271
$GPGGA,040820.00,3424.9382,N,12106.9592,W,1,10,0.8,12.9,M,-33.8,M,,*64
$PYRTM,2024,126.172480525706,17.282127935845
$GPGGA,040821.00,3424.9365,N,12106.9572,W,1,10,0.8,12.8,M,-33.8,M,,*63
$PYRTM,2024,126.172492096701,17.282139506852
$GPGGA,040822.00,3424.9347,N,12106.9552,W,1,10,0.8,12.7,M,-33.8,M,,*6D
$PYRTM,2024,126.172503672812,17.282151082951
$GPGGA,040823.00,3424.9331,N,12106.9532,W,1,10,0.8,12.8,M,-33.8,M,,*64
$PYRTM,2024,126.172511081019,17.282158491157
$GPGGA,040824.00,3424.9317,N,12106.9509,W,1,10,0.8,13.0,M,-33.8,M,,*66
$PYRTM,2024,126.172526819097,17.282174229236
$GPGGA,040825.00,3424.9303,N,12106.9485,W,1,10,0.8,13.2,M,-33.8,M,,*65
$PYRTM,2024,126.172534231644,17.282181641782
$GPGGA,040826.00,3424.9287,N,12106.9462,W,1,10,0.8,13.3,M,-33.8,M,,*63
$PYRTM,2024,126.172552862072,17.282200272211
$GPGGA,040827.00,3424.9268,N,12106.9441,W,1,10,0.8,13.2,M,-33.8,M,,*63
$PYRTM,2024,126.172561542130,17.282208952269
$GPGGA,040828.00,3424.9249,N,12106.9419,W,1,10,0.8,13.1,M,-33.8,M,,*61
$PYRTM,2024,126.172573115868,17.282220526007
$GPGGA,040829.00,3424.9233,N,12106.9396,W,1,10,0.8,13.3,M,-33.8,M,,*6F
$PYRTM,2024,126.172584685301,17.282232095440
$GPGGA,040830.00,3424.9220,N,12106.9372,W,1,10,0.8,13.5,M,-33.8,M,,*69
$PYRTM,2024,126.172596264468,17.282243674606
$GPGGA,040831.00,3424.9205,N,12106.9350,W,1,10,0.8,13.4,M,-33.8,M,,*6E
$PYRTM,2024,126.172607838113,17.282255248264
$GPGGA,040832.00,3424.9188,N,12106.9329,W,1,10,0.8,13.0,M,-33.8,M,,*61
$PYRTM,2024,126.172619415648,17.282266825799
$GPGGA,040833.00,3424.9170,N,12106.9311,W,1,10,0.8,12.5,M,-33.8,M,,*68
$PYRTM,2024,126.172630987836,17.282278397975
$GPGGA,040834.00,3424.9153,N,12106.9292,W,1,10,0.8,12.3,M,-33.8,M,,*62
$PYRTM,2024,126.172642564259,17.282289974398
$GPGGA,040835.00,3424.9140,N,12106.9269,W,1,10,0.8,12.5,M,-33.8,M,,*63
