$PYRTM,2024,126.250003726238,17.359651136377
$GPGGA,055959.00,3419.7918,N,12049.4432,W,1,09,1.0,8.2,M,-33.8,M,,*5B
$PYRTM,2024,126.250015313681,17.359662723819
$GPGGA,060000.00,3419.7905,N,12049.4408,W,1,09,1.0,8.0,M,-33.8,M,,*5F
$PYRTM,2024,126.250026875625,17.359674285764
$GPGGA,060001.00,3419.7895,N,12049.4383,W,1,09,1.0,8.0,M,-33.8,M,,*52
$PYRTM,2024,126.250038459456,17.359685869595
$GPGGA,060002.00,3419.7890,N,12049.4357,W,1,09,1.0,7.9,M,-33.8,M,,*5B
$PYRTM,2024,126.250050025394,17.359697435532
$GPGGA,060003.00,3419.7886,N,12049.4329,W,1,09,1.0,8.0,M,-33.8,M,,*52
$PYRTM,2024,126.250057315266,17.359704725405
$GPGGA,060004.00,3419.7879,N,12049.4302,W,1,09,1.0,8.3,M,-33.8,M,,*5F
$PYRTM,2024,126.250073171285,17.359720581424
$GPGGA,060005.00,3419.7868,N,12049.4275,W,1,09,1.0,8.3,M,-33.8,M,,*5F
$PYRTM,2024,126.250084764294,17.359732174444
$GPGGA,060006.00,3419.7856,N,12049.4249,W,1,09,1.0,8.4,M,-33.8,M,,*59
$PYRTM,2024,126.250096321771,17.359743731910
$GPGGA,060007.00,3419.7847,N,12049.4222,W,1,09,1.0,8.4,M,-33.8,M,,*55
$PYRTM,2024,126.250107910475,17.359755320625
$GPGGA,060008.00,3419.7839,N,12049.4193,W,1,09,1.0,8.5,M,-33.8,M,,*5B
$PYRTM,2024,126.250119469711,17.359766879850
$GPGGA,060009.00,3419.7832,N,12049.4165,W,1,09,1.0,8.6,M,-33.8,M,,*5B
$PYRTM,2024,126.250131056400,17.359778466539
$GPGGA,060010.00,3419.7823,N,12049.4138,W,1,09,1.0,8.8,M,-33.8,M,,*55
$PYRTM,2024,126.250138352373,17.359785762512
$GPGGA,060011.00,3419.7815,N,12049.4112,W,1,09,1.0,8.7,M,-33.8,M,,*56
$PYRTM,2024,126.250154202720,17.359801612859
$GPGGA,060012.00,3419.7807,N,12049.4085,W,1,09,1.0,8.3,M,-33.8,M,,*5D
$PYRTM,2024,126.250165765313,17.359813175451
$GPGGA,060013.00,3419.7798,N,12049.4058,W,1,09,1.0,8.0,M,-33.8,M,,*56
$PYRTM,2024,126.250177347928,17.359824758067
$GPGGA,060014.00,3419.7788,N,12049.4031,W,1,09,1.0,7.9,M,-33.8,M,,*59
$PYRTM,2024,126.250188913310,17.359836323449
$GPGGA,060015.00,3419.7778,N,12049.4005,W,1,09,1.0,8.2,M,-33.8,M,,*54
$PYRTM,2024,126.250200495116,17.359847905266
$GPGGA,060016.00,3419.7770,N,12049.3979,W,1,09,1.0,8.5,M,-33.8,M,,*5D
$PYRTM,2024,126.250212062847,17.359859472998
$GPGGA,060017.00,3419.7764,N,12049.3953,W,1,09,1.0,8.6,M,-33.8,M,,*52
$PYRTM,2024,126.250223650046,17.359871060185
$GPGGA,060018.00,3419.7757,N,12049.3927,W,1,09,1.0,8.2,M,-33.8,M,,*5A
$PYRTM,2024,126.250235210498,17.359882620637
$GPGGA,060019.00,3419.7746,N,12049.3901,W,1,09,1.0,7.5,M,-33.8,M,,*57
$PYRTM,2024,126.250246800104,17.359894210243
$GPGGA,060020.00,3419.7732,N,12049.3875,W,1,09,1.0,7.6,M,-33.8,M,,*5F
$PYRTM,2024,126.250258358819,17.359905768958
$GPGGA,060021.00,3419.7722,N,12049.3848,W,1,09,1.0,7.8,M,-33.8,M,,*5F
$PYRTM,2024,126.250269948669,17.359917358808
$GPGGA,060022.00,3419.7716,N,12049.3820,W,1,09,1.0,8.4,M,-33.8,M,,*56
$PYRTM,2024,126.250281506863,17.359928917002
$GPGGA,060023.00,3419.7710,N,12049.3792,W,1,09,1.0,9.0,M,-33.8,M,,*52
$PYRTM,2024,126.250293087870,17.359940498009
$GPGGA,060024.00,3419.7703,N,12049.3764,W,1,09,1.0,9.2,M,-33.8,M,,*5C
$PYRTM,2024,126.250300388854,17.359947798993
$GPGGA,060025.00,3419.7694,N,12049.3738,W,1,09,1.0,9.1,M,-33.8,M,,*58
$PYRTM,2024,126.250319136146,17.359966546285
$GPGGA,060026.00,3419.7683,N,12049.3711,W,1,09,1.0,8.6,M,-33.8,M,,*50
$PYRTM,2024,126.250330734329,17.359978144468
$GPGGA,060027.00,3419.7670,N,12049.3685,W,1,09,1.0,8.3,M,-33.8,M,,*54
$PYRTM,2024,126.250342283079,17.359989693229
$GPGGA,060028.00,3419.7659,N,12049.3659,W,1,09,1.0,8.1,M,-33.8,M,,*53
$PYRTM,2024,126.250350952708,17.359998362847
$GPGGA,060029.00,3419.7654,N,12049.3631,W,1,09,1.0,8.0,M,-33.8,M,,*50
$PYRTM,2024,126.250358358044,17.360005768183
$GPGGA,060030.00,3419.7650,N,12049.3603,W,1,09,1.0,8.3,M,-33.8,M,,*5E
$PYRTM,2024,126.250374099676,17.360021509815
$GPGGA,060031.00,3419.7643,N,12049.3577,W,1,09,1.0,8.5,M,-33.8,M,,*5B
$PYRTM,2024,126.250385682546,17.360033092685
$GPGGA,060032.00,3419.7630,N,12049.3551,W,1,09,1.0,8.5,M,-33.8,M,,*58
$PYRTM,2024,126.250397248426,17.360044658576
$GPGGA,060033.00,3419.7618,N,12049.3525,W,1,09,1.0,8.3,M,-33.8,M,,*56
$PYRTM,2024,126.250408837685,17.360056247836
$GPGGA,060034.00,3419.7609,N,12049.3499,W,1,09,1.0,7.9,M,-33.8,M,,*52
$PYRTM,2024,126.250420397141,17.360067807280
$GPGGA,060035.00,3419.7603,N,12049.3473,W,1,09,1.0,7.6,M,-33.8,M,,*52
$PYRTM,2024,126.250431997836,17.360079407975
$GPGGA,060036.00,3419.7595,N,12049.3447,W,1,09,1.0,7.5,M,-33.8,M,,*59
$PYRTM,2024,126.250443544294,17.360090954433
$GPGGA,060037.00,3419.7585,N,12049.3421,W,1,09,1.0,7.5,M,-33.8,M,,*59
$PYRTM,2024,126.250455131169,17.360102541308
$GPGGA,060038.00,3419.7575,N,12049.3395,W,1,09,1.0,7.7,M,-33.8,M,,*53
$PYRTM,2024,126.250466694595,17.360114104734
$GPGGA,060039.00,3419.7566,N,12049.3368,W,1,09,1.0,7.9,M,-33.8,M,,*5C
$PYRTM,2024,126.250478281169,17.360125691308
$GPGGA,060040.00,3419.7559,N,12049.3342,W,1,09,1.0,8.1,M,-33.8,M,,*51
$PYRTM,2024,126.250485574954,17.360132985104
$GPGGA,060041.00,3419.7552,N,12049.3315,W,1,09,1.0,8.3,M,-33.8,M,,*5B
$PYRTM,2024,126.250501423727,17.360148833866
$GPGGA,060042.00,3419.7542,N,12049.3288,W,1,09,1.0,8.1,M,-33.8,M,,*5E
$PYRTM,2024,126.250512989491,17.360160399630
$GPGGA,060043.00,3419.7529,N,12049.3262,W,1,09,1.0,8.0,M,-33.8,M,,*57
$PYRTM,2024,126.250524577917,17.360171988056
$GPGGA,060044.00,3419.7517,N,12049.3237,W,1,09,1.0,8.3,M,-33.8,M,,*5E
$PYRTM,2024,126.250536137083,17.360183547222
$GPGGA,060045.00,3419.7509,N,12049.3210,W,1,09,1.0,9.0,M,-33.8,M,,*57
$PYRTM,2024,126.250547724641,17.360195134780
$GPGGA,060046.00,3419.7505,N,12049.3182,W,1,09,1.0,9.0,M,-33.8,M,,*50
$PYRTM,2024,126.250559286238,17.360206696377
$GPGGA,060047.00,3419.7500,N,12049.3154,W,1,09,1.0,8.9,M,-33.8,M,,*57
$PYRTM,2024,126.250566577280,17.360213987419
$GPGGA,060048.00,3419.7489,N,12049.3129,W,1,09,1.0,8.6,M,-33.8,M,,*5D
$PYRTM,2024,126.250578382222,17.360225792361
$GPGGA,060049.00,3419.7474,N,12049.3104,W,1,09,1.0,8.3,M,-33.8,M,,*54
$PYRTM,2024,126.250594024051,17.360241434190
$GPGGA,060050.00,3419.7463,N,12049.3079,W,1,09,1.0,8.0,M,-33.8,M,,*52
$PYRTM,2024,126.250601414838,17.360248824965
$GPGGA,060051.00,3419.7457,N,12049.3052,W,1,09,1.0,8.0,M,-33.8,M,,*5D
$PYRTM,2024,126.250617170231,17.360264580370
$GPGGA,060052.00,3419.7451,N,12049.3026,W,1,09,1.0,7.8,M,-33.8,M,,*5C
$PYRTM,2024,126.250628731343,17.360276141481
$GPGGA,060053.00,3419.7444,N,12049.3000,W,1,09,1.0,8.1,M,-33.8,M,,*5B
$PYRTM,2024,126.250640317396,17.360287727535
$GPGGA,060054.00,3419.7436,N,12049.2975,W,1,09,1.0,8.5,M,-33.8,M,,*57
$PYRTM,2024,126.250651878449,17.360299288588
$GPGGA,060055.00,3419.7427,N,12049.2949,W,1,09,1.0,8.7,M,-33.8,M,,*5B
$PYRTM,2024,126.250659170475,17.360306580613
$GPGGA,060056.00,3419.7417,N,12049.2923,W,1,09,1.0,8.7,M,-33.8,M,,*57
$PYRTM,2024,126.250677957407,17.360325367558
$GPGGA,060057.00,3419.7407,N,12049.2896,W,1,09,1.0,8.6,M,-33.8,M,,*59
$PYRTM,2024,126.250686614340,17.360334024479
$GPGGA,060058.00,3419.7399,N,12049.2869,W,1,09,1.0,8.6,M,-33.8,M,,*56
$PYRTM,2024,126.250693907431,17.360341317569
$GPGGA,060059.00,3419.7394,N,12049.2842,W,1,09,1.0,8.6,M,-33.8,M,,*53
$PYRTM,2024,126.250709758588,17.360357168727
$GPGGA,060100.00,3419.7387,N,12049.2815,W,1,09,1.0,8.5,M,-33.8,M,,*5D
$PYRTM,2024,126.250717055579,17.360364465718
$GPGGA,060101.00,3419.7377,N,12049.2788,W,1,09,1.0,8.3,M,-33.8,M,,*5E
$PYRTM,2024,126.250732925417,17.360380335556
$GPGGA,060102.00,3419.7367,N,12049.2762,W,1,09,1.0,8.1,M,-33.8,M,,*5A
$PYRTM,2024,126.250744472766,17.360391882905
$GPGGA,060103.00,3419.7360,N,12049.2736,W,1,09,1.0,8.1,M,-33.8,M,,*5D
$PYRTM,2024,126.250756062025,17.360403472164
$GPGGA,060104.00,3419.7355,N,12049.2711,W,1,09,1.0,8.1,M,-33.8,M,,*59
$PYRTM,2024,126.250767620718,17.360415030856
$GPGGA,060105.00,3419.7347,N,12049.2685,W,1,09,1.0,8.0,M,-33.8,M,,*56
$PYRTM,2024,126.250779210926,17.360426621065
$GPGGA,060106.00,3419.7337,N,12049.2659,W,1,09,1.0,7.8,M,-33.8,M,,*54
$PYRTM,2024,126.250790769387,17.360438179525
$GPGGA,060107.00,3419.7327,N,12049.2632,W,1,09,1.0,7.8,M,-33.8,M,,*59
$PYRTM,2024,126.250802351771,17.360449761910
$GPGGA,060108.00,3419.7317,N,12049.2606,W,1,09,1.0,8.3,M,-33.8,M,,*56
$PYRTM,2024,126.250813917535,17.360461327674
$GPGGA,060109.00,3419.7309,N,12049.2579,W,1,09,1.0,8.9,M,-33.8,M,,*59
$PYRTM,2024,126.250825499444,17.360472909595
$GPGGA,060110.00,3419.7302,N,12049.2552,W,1,09,1.0,9.0,M,-33.8,M,,*5B
$PYRTM,2024,126.250837069850,17.360484480000
$GPGGA,060111.00,3419.7295,N,12049.2524,W,1,09,1.0,8.8,M,-33.8,M,,*5D
$PYRTM,2024,126.250848654884,17.360496065023
$GPGGA,060112.00,3419.7285,N,12049.2497,W,1,09,1.0,8.5,M,-33.8,M,,*5B
$PYRTM,2024,126.250860215046,17.360507625185
$GPGGA,060113.00,3419.7275,N,12049.2471,W,1,09,1.0,8.3,M,-33.8,M,,*5B
$PYRTM,2024,126.250871801447,17.360519211586
$GPGGA,060114.00,3419.7267,N,12049.2444,W,1,09,1.0,8.2,M,-33.8,M,,*58
$PYRTM,2024,126.250883362292,17.360530772431
$GPGGA,060115.00,3419.7260,N,12049.2418,W,1,09,1.0,8.2,M,-33.8,M,,*57
$PYRTM,2024,126.250890655093,17.360538065231
$GPGGA,060116.00,3419.7252,N,12049.2393,W,1,09,1.0,8.4,M,-33.8,M,,*57
$PYRTM,2024,126.250906510567,17.360553920706
$GPGGA,060117.00,3419.7245,N,12049.2367,W,1,09,1.0,8.2,M,-33.8,M,,*5D
$PYRTM,2024,126.250918099861,17.360565510000
$GPGGA,060118.00,3419.7238,N,12049.2341,W,1,09,1.0,7.9,M,-33.8,M,,*58
$PYRTM,2024,126.250925384433,17.360572794583
$GPGGA,060119.00,3419.7228,N,12049.2314,W,1,09,1.0,7.7,M,-33.8,M,,*56
$PYRTM,2024,126.250941243634,17.360588653773
$GPGGA,060120.00,3419.7215,N,12049.2288,W,1,09,1.0,8.0,M,-33.8,M,,*5E
$PYRTM,2024,126.250952807801,17.360600217940
$GPGGA,060121.00,3419.7204,N,12049.2261,W,1,09,1.0,8.6,M,-33.8,M,,*5E
$PYRTM,2024,126.250964394722,17.360611804861
$GPGGA,060122.00,3419.7197,N,12049.2234,W,1,09,1.0,8.8,M,-33.8,M,,*5A
$PYRTM,2024,126.250975956470,17.360623366609
$GPGGA,060123.00,3419.7191,N,12049.2207,W,1,09,1.0,8.6,M,-33.8,M,,*53
$PYRTM,2024,126.250987544005,17.360634954144
$GPGGA,060124.00,3419.7183,N,12049.2180,W,1,09,1.0,8.3,M,-33.8,M,,*5E
$PYRTM,2024,126.250999103137,17.360646513275
$GPGGA,060125.00,3419.7173,N,12049.2153,W,1,09,1.0,7.9,M,-33.8,M,,*5B
$PYRTM,2024,126.251010690185,17.360658100324
$GPGGA,060126.00,3419.7163,N,12049.2128,W,1,09,1.0,7.7,M,-33.8,M,,*5B
$PYRTM,2024,126.251018085683,17.360665495822
$GPGGA,060127.00,3419.7155,N,12049.2102,W,1,09,1.0,7.9,M,-33.8,M,,*59
$PYRTM,2024,126.251036732523,17.360684142662
$GPGGA,060128.00,3419.7149,N,12049.2076,W,1,09,1.0,8.2,M,-33.8,M,,*5D
$PYRTM,2024,126.251045401123,17.360692811262
$GPGGA,060129.00,3419.7143,N,12049.2050,W,1,09,1.0,8.5,M,-33.8,M,,*55
$PYRTM,2024,126.251056987002,17.360704397141
$GPGGA,060130.00,3419.7136,N,12049.2024,W,1,09,1.0,8.5,M,-33.8,M,,*5C
$PYRTM,2024,126.251068548056,17.360715958206
$GPGGA,060131.00,3419.7126,N,12049.1997,W,1,09,1.0,8.4,M,-33.8,M,,*5F
$PYRTM,2024,126.251075839398,17.360723249537
$GPGGA,060132.00,3419.7114,N,12049.1970,W,1,09,1.0,8.4,M,-33.8,M,,*54
$PYRTM,2024,126.251091697384,17.360739107523
$GPGGA,060133.00,3419.7105,N,12049.1942,W,1,09,1.0,8.5,M,-33.8,M,,*55
$PYRTM,2024,126.251103287766,17.360750697905
$GPGGA,060134.00,3419.7098,N,12049.1914,W,1,09,1.0,8.8,M,-33.8,M,,*59
$PYRTM,2024,126.251114845903,17.360762256042
$GPGGA,060135.00,3419.7092,N,12049.1886,W,1,09,1.0,9.0,M,-33.8,M,,*51
$PYRTM,2024,126.251126432407,17.360773842546
$GPGGA,060136.00,3419.7085,N,12049.1859,W,1,09,1.0,9.5,M,-33.8,M,,*53
$PYRTM,2024,126.251137994977,17.360785405127
$GPGGA,060137.00,3419.7074,N,12049.1834,W,1,09,1.0,8.7,M,-33.8,M,,*54
$PYRTM,2024,126.251145285035,17.360792695174
$GPGGA,060138.00,3419.7062,N,12049.1809,W,1,09,1.0,8.1,M,-33.8,M,,*54
$PYRTM,2024,126.251161143623,17.360808553762
$GPGGA,060139.00,3419.7053,N,12049.1784,W,1,09,1.0,7.6,M,-33.8,M,,*55
$PYRTM,2024,126.251172731829,17.360820141968
$GPGGA,060140.00,3419.7047,N,12049.1759,W,1,09,1.0,7.6,M,-33.8,M,,*5E
$PYRTM,2024,126.251184290301,17.360831700451
$GPGGA,060141.00,3419.7040,N,12049.1732,W,1,09,1.0,7.8,M,-33.8,M,,*5B
$PYRTM,2024,126.251195876285,17.360843286424
$GPGGA,060142.00,3419.7031,N,12049.1704,W,1,09,1.0,7.9,M,-33.8,M,,*5A
$PYRTM,2024,126.251207438275,17.360854848414
$GPGGA,060143.00,3419.7021,N,12049.1676,W,1,09,1.0,8.3,M,-33.8,M,,*5B
$PYRTM,2024,126.251219039838,17.360866449977
$GPGGA,060144.00,3419.7012,N,12049.1649,W,1,09,1.0,8.8,M,-33.8,M,,*5B
$PYRTM,2024,126.251230587280,17.360877997419
$GPGGA,060145.00,3419.7002,N,12049.1622,W,1,09,1.0,9.2,M,-33.8,M,,*5D
$PYRTM,2024,126.251242177465,17.360889587604
$GPGGA,060146.00,3419.6992,N,12049.1595,W,1,09,1.0,9.3,M,-33.8,M,,*51
$PYRTM,2024,126.251253734850,17.360901144988
$GPGGA,060147.00,3419.6984,N,12049.1568,W,1,09,1.0,8.8,M,-33.8,M,,*5F
$PYRTM,2024,126.251265325035,17.360912735185
$GPGGA,060148.00,3419.6976,N,12049.1543,W,1,09,1.0,8.2,M,-33.8,M,,*5E
$PYRTM,2024,126.251276883194,17.360924293333
$GPGGA,060149.00,3419.6968,N,12049.1519,W,1,09,1.0,7.8,M,-33.8,M,,*5A
$PYRTM,2024,126.251288470868,17.360935881007
$GPGGA,060150.00,3419.6958,N,12049.1495,W,1,09,1.0,7.7,M,-33.8,M,,*5B
$PYRTM,2024,126.251295928322,17.360943338461
$GPGGA,060151.00,3419.6948,N,12049.1470,W,1,09,1.0,7.8,M,-33.8,M,,*5F
$PYRTM,2024,126.251311618021,17.360959028160
$GPGGA,060152.00,3419.6941,N,12049.1442,W,1,09,1.0,7.8,M,-33.8,M,,*54
$PYRTM,2024,126.251323178762,17.360970588900
$GPGGA,060153.00,3419.6934,N,12049.1413,W,1,09,1.0,8.0,M,-33.8,M,,*54
$PYRTM,2024,126.251334766458,17.360982176597
$GPGGA,060154.00,3419.6923,N,12049.1385,W,1,09,1.0,8.5,M,-33.8,M,,*58
$PYRTM,2024,126.251346329630,17.360993739769
$GPGGA,060155.00,3419.6909,N,12049.1358,W,1,09,1.0,9.2,M,-33.8,M,,*57
$PYRTM,2024,126.251357915081,17.361005325220
$GPGGA,060156.00,3419.6899,N,12049.1330,W,1,09,1.0,9.6,M,-33.8,M,,*56
$PYRTM,2024,126.251369476736,17.361016886875
$GPGGA,060157.00,3419.6892,N,12049.1303,W,1,09,1.0,9.1,M,-33.8,M,,*5B
$PYRTM,2024,126.251376884225,17.361024294352
$GPGGA,060158.00,3419.6883,N,12049.1276,W,1,09,1.0,8.4,M,-33.8,M,,*53
$PYRTM,2024,126.251395519931,17.361042930069
$GPGGA,060159.00,3419.6871,N,12049.1253,W,1,09,1.0,7.8,M,-33.8,M,,*5B
$PYRTM,2024,126.251404214630,17.361051624780
$GPGGA,060200.00,3419.6862,N,12049.1229,W,1,09,1.0,7.5,M,-33.8,M,,*56
$PYRTM,2024,126.251415772500,17.361063182639
$GPGGA,060201.00,3419.6855,N,12049.1206,W,1,09,1.0,7.4,M,-33.8,M,,*5F
$PYRTM,2024,126.251423179988,17.361070590127
$GPGGA,060202.00,3419.6850,N,12049.1181,W,1,09,1.0,7.7,M,-33.8,M,,*56
$PYRTM,2024,126.251438921840,17.361086331979
$GPGGA,060203.00,3419.6842,N,12049.1155,W,1,09,1.0,8.2,M,-33.8,M,,*57
$PYRTM,2024,126.251446225787,17.361093635926
$GPGGA,060204.00,3419.6832,N,12049.1128,W,1,09,1.0,8.7,M,-33.8,M,,*58
$PYRTM,2024,126.251462069873,17.361109480023
$GPGGA,060205.00,3419.6820,N,12049.1101,W,1,09,1.0,9.0,M,-33.8,M,,*57
$PYRTM,2024,126.251473657512,17.361121067650
$GPGGA,060206.00,3419.6809,N,12049.1073,W,1,09,1.0,9.1,M,-33.8,M,,*5A
$PYRTM,2024,126.251481064317,17.361128474456
$GPGGA,060207.00,3419.6800,N,12049.1045,W,1,09,1.0,9.0,M,-33.8,M,,*56
$PYRTM,2024,126.251496804745,17.361144214884
$GPGGA,060208.00,3419.6792,N,12049.1019,W,1,09,1.0,8.9,M,-33.8,M,,*5C
$PYRTM,2024,126.251508366053,17.361155776192
$GPGGA,060209.00,3419.6783,N,12049.0993,W,1,09,1.0,8.5,M,-33.8,M,,*5B
$PYRTM,2024,126.251515772384,17.361163182523
$GPGGA,060210.00,3419.6773,N,12049.0968,W,1,09,1.0,8.0,M,-33.8,M,,*5D
$PYRTM,2024,126.251531515127,17.361178925266
$GPGGA,060211.00,3419.6763,N,12049.0942,W,1,09,1.0,7.8,M,-33.8,M,,*52
$PYRTM,2024,126.251543096701,17.361190506852
$GPGGA,060212.00,3419.6755,N,12049.0918,W,1,09,1.0,7.9,M,-33.8,M,,*5A
$PYRTM,2024,126.251554662106,17.361202072245
$GPGGA,060213.00,3419.6749,N,12049.0892,W,1,09,1.0,7.9,M,-33.8,M,,*55
$PYRTM,2024,126.251566252650,17.361213662801
$GPGGA,060214.00,3419.6741,N,12049.0866,W,1,09,1.0,8.0,M,-33.8,M,,*57
$PYRTM,2024,126.251573536377,17.361220946528
$GPGGA,060215.00,3419.6731,N,12049.0841,W,1,09,1.0,8.0,M,-33.8,M,,*54
$PYRTM,2024,126.251589400856,17.361236810995
$GPGGA,060216.00,3419.6720,N,12049.0815,W,1,09,1.0,8.0,M,-33.8,M,,*56
$PYRTM,2024,126.251600958750,17.361248368889
$GPGGA,060217.00,3419.6709,N,12049.0789,W,1,09,1.0,7.9,M,-33.8,M,,*50
$PYRTM,2024,126.251608367373,17.361255777512
$GPGGA,060218.00,3419.6700,N,12049.0763,W,1,09,1.0,8.0,M,-33.8,M,,*54
$PYRTM,2024,126.251624107581,17.361271517720
$GPGGA,060219.00,3419.6692,N,12049.0738,W,1,09,1.0,8.1,M,-33.8,M,,*50
$PYRTM,2024,126.251635694618,17.361283104757
$GPGGA,060220.00,3419.6685,N,12049.0711,W,1,09,1.0,8.0,M,-33.8,M,,*56
$PYRTM,2024,126.251647255139,17.361294665278
$GPGGA,060221.00,3419.6675,N,12049.0684,W,1,09,1.0,8.1,M,-33.8,M,,*54
$PYRTM,2024,126.251658842650,17.361306252789
$GPGGA,060222.00,3419.6663,N,12049.0660,W,1,09,1.0,8.3,M,-33.8,M,,*58
$PYRTM,2024,126.251670403854,17.361317813993
$GPGGA,060223.00,3419.6655,N,12049.0635,W,1,09,1.0,8.6,M,-33.8,M,,*59
$PYRTM,2024,126.251681992905,17.361329403056
$GPGGA,060224.00,3419.6649,N,12049.0609,W,1,09,1.0,8.4,M,-33.8,M,,*5E
$PYRTM,2024,126.251693553079,17.361340963218
$GPGGA,060225.00,3419.6642,N,12049.0581,W,1,09,1.0,8.0,M,-33.8,M,,*53
$PYRTM,2024,126.251705141563,17.361352551713
$GPGGA,060226.00,3419.6629,N,12049.0556,W,1,09,1.0,8.3,M,-33.8,M,,*54
$PYRTM,2024,126.251712535613,17.361359945752
$GPGGA,060227.00,3419.6615,N,12049.0531,W,1,09,1.0,8.5,M,-33.8,M,,*5D
$PYRTM,2024,126.251728287662,17.361375697801
$GPGGA,060228.00,3419.6604,N,12049.0506,W,1,09,1.0,8.5,M,-33.8,M,,*56
$PYRTM,2024,126.251735682674,17.361383092813
$GPGGA,060229.00,3419.6597,N,12049.0479,W,1,09,1.0,8.7,M,-33.8,M,,*55
$PYRTM,2024,126.251754332373,17.361401742512
$GPGGA,060230.00,3419.6593,N,12049.0451,W,1,09,1.0,8.0,M,-33.8,M,,*54
$PYRTM,2024,126.251762997847,17.361410407986
$GPGGA,060231.00,3419.6585,N,12049.0423,W,1,09,1.0,7.6,M,-33.8,M,,*5E
$PYRTM,2024,126.251770301250,17.361417711389
$GPGGA,060232.00,3419.6574,N,12049.0397,W,1,09,1.0,7.6,M,-33.8,M,,*5B
$PYRTM,2024,126.251786146586,17.361433556725
$GPGGA,060233.00,3419.6563,N,12049.0371,W,1,09,1.0,7.9,M,-33.8,M,,*5B
$PYRTM,2024,126.251797733715,17.361445143854
$GPGGA,060234.00,3419.6556,N,12049.0345,W,1,09,1.0,8.2,M,-33.8,M,,*59
$PYRTM,2024,126.251809294120,17.361456704259
$GPGGA,060235.00,3419.6550,N,12049.0318,W,1,09,1.0,8.3,M,-33.8,M,,*57
$PYRTM,2024,126.251820881296,17.361468291435
$GPGGA,060236.00,3419.6543,N,12049.0292,W,1,09,1.0,8.4,M,-33.8,M,,*52
$PYRTM,2024,126.251832442037,17.361479852176
$GPGGA,060237.00,3419.6533,N,12049.0268,W,1,09,1.0,8.1,M,-33.8,M,,*54
$PYRTM,2024,126.251839741169,17.361487151308
$GPGGA,060238.00,3419.6523,N,12049.0245,W,1,09,1.0,7.5,M,-33.8,M,,*5E
$PYRTM,2024,126.251855590139,17.361503000278
$GPGGA,060239.00,3419.6513,N,12049.0220,W,1,09,1.0,7.2,M,-33.8,M,,*58
$PYRTM,2024,126.251862999433,17.361510409572
$GPGGA,060240.00,3419.6504,N,12049.0195,W,1,09,1.0,7.4,M,-33.8,M,,*5B
$PYRTM,2024,126.251874688727,17.361522098877
$GPGGA,060241.00,3419.6497,N,12049.0169,W,1,09,1.0,8.0,M,-33.8,M,,*59
$PYRTM,2024,126.251890363067,17.361537773206
$GPGGA,060242.00,3419.6490,N,12049.0142,W,1,09,1.0,8.5,M,-33.8,M,,*51
$PYRTM,2024,126.251897604687,17.361545014826
$GPGGA,060243.00,3419.6481,N,12049.0114,W,1,09,1.0,8.9,M,-33.8,M,,*5F
$PYRTM,2024,126.251913488102,17.361560898252
$GPGGA,060244.00,3419.6467,N,12049.0087,W,1,09,1.0,9.2,M,-33.8,M,,*51
$PYRTM,2024,126.251925037431,17.361572447569
$GPGGA,060245.00,3419.6455,N,12049.0061,W,1,09,1.0,9.5,M,-33.8,M,,*5E
$PYRTM,2024,126.251936637280,17.361584047419
$GPGGA,060246.00,3419.6447,N,12049.0033,W,1,09,1.0,9.4,M,-33.8,M,,*58
$PYRTM,2024,126.251948184456,17.361595594595
$GPGGA,060247.00,3419.6440,N,12049.0006,W,1,09,1.0,8.9,M,-33.8,M,,*54
$PYRTM,2024,126.251955482512,17.361602892650
$GPGGA,060248.00,3419.6431,N,12048.9980,W,1,09,1.0,8.4,M,-33.8,M,,*5F
$PYRTM,2024,126.251967294236,17.361614704387
$GPGGA,060249.00,3419.6418,N,12048.9956,W,1,09,1.0,8.0,M,-33.8,M,,*5A
$PYRTM,2024,126.251982918634,17.361630328773
$GPGGA,060250.00,3419.6408,N,12048.9931,W,1,09,1.0,7.7,M,-33.8,M,,*5A
$PYRTM,2024,126.251994479780,17.361641889919
$GPGGA,060251.00,3419.6401,N,12048.9906,W,1,09,1.0,7.4,M,-33.8,M,,*55
$PYRTM,2024,126.252006067697,17.361653477836
$GPGGA,060252.00,3419.6395,N,12048.9882,W,1,09,1.0,7.1,M,-33.8,M,,*54
$PYRTM,2024,126.252017629178,17.361665039317
$GPGGA,060253.00,3419.6389,N,12048.9857,W,1,09,1.0,7.0,M,-33.8,M,,*51
$PYRTM,2024,126.252024919734,17.361672329873
$GPGGA,060254.00,3419.6378,N,12048.9833,W,1,09,1.0,7.2,M,-33.8,M,,*58
$PYRTM,2024,126.252040777211,17.361688187350
$GPGGA,060255.00,3419.6367,N,12048.9809,W,1,09,1.0,7.4,M,-33.8,M,,*58
$PYRTM,2024,126.252052359340,17.361699769479
$GPGGA,060256.00,3419.6358,N,12048.9784,W,1,09,1.0,7.8,M,-33.8,M,,*51
$PYRTM,2024,126.252059759641,17.361707169780
$GPGGA,060257.00,3419.6353,N,12048.9758,W,1,09,1.0,8.1,M,-33.8,M,,*5C
$PYRTM,2024,126.252075518275,17.361722928426
$GPGGA,060258.00,3419.6347,N,12048.9732,W,1,09,1.0,8.3,M,-33.8,M,,*58
$PYRTM,2024,126.252082804421,17.361730214560
$GPGGA,060259.00,3419.6337,N,12048.9705,W,1,09,1.0,8.3,M,-33.8,M,,*5A
$PYRTM,2024,126.252094596539,17.361742006690
$GPGGA,060300.00,3419.6325,N,12048.9678,W,1,09,1.0,8.2,M,-33.8,M,,*5E
$PYRTM,2024,126.252113115197,17.361760525336
$GPGGA,060301.00,3419.6313,N,12048.9651,W,1,09,1.0,8.3,M,-33.8,M,,*50
$PYRTM,2024,126.252121808646,17.361769218785
$GPGGA,060302.00,3419.6305,N,12048.9624,W,1,09,1.0,8.4,M,-33.8,M,,*51
$PYRTM,2024,126.252133370081,17.361780780220
$GPGGA,060303.00,3419.6301,N,12048.9597,W,1,09,1.0,8.2,M,-33.8,M,,*59
$PYRTM,2024,126.252140675475,17.361788085613
$GPGGA,060304.00,3419.6293,N,12048.9571,W,1,09,1.0,7.9,M,-33.8,M,,*58
$PYRTM,2024,126.252152468032,17.361799878171
$GPGGA,060305.00,3419.6281,N,12048.9546,W,1,09,1.0,7.6,M,-33.8,M,,*51
$PYRTM,2024,126.252168104803,17.361815514942
$GPGGA,060306.00,3419.6269,N,12048.9522,W,1,09,1.0,7.4,M,-33.8,M,,*54
$PYRTM,2024,126.252179667326,17.361827077465
$GPGGA,060307.00,3419.6262,N,12048.9497,W,1,09,1.0,7.1,M,-33.8,M,,*54
$PYRTM,2024,126.252191257442,17.361838667581
$GPGGA,060308.00,3419.6257,N,12048.9472,W,1,09,1.0,7.5,M,-33.8,M,,*52
$PYRTM,2024,126.252202815880,17.361850226019
$GPGGA,060309.00,3419.6252,N,12048.9447,W,1,09,1.0,7.7,M,-33.8,M,,*52
$PYRTM,2024,126.252214402095,17.361861812234
$GPGGA,060310.00,3419.6244,N,12048.9421,W,1,09,1.0,7.7,M,-33.8,M,,*5D
$PYRTM,2024,126.252225964109,17.361873374259
$GPGGA,060311.00,3419.6233,N,12048.9395,W,1,09,1.0,7.6,M,-33.8,M,,*55
$PYRTM,2024,126.252237550741,17.361884960880
$GPGGA,060312.00,3419.6222,N,12048.9369,W,1,09,1.0,7.7,M,-33.8,M,,*54
$PYRTM,2024,126.252244945475,17.361892355613
$GPGGA,060313.00,3419.6214,N,12048.9344,W,1,09,1.0,7.9,M,-33.8,M,,*51
$PYRTM,2024,126.252260698206,17.361908108345
$GPGGA,060314.00,3419.6206,N,12048.9317,W,1,09,1.0,8.0,M,-33.8,M,,*55
$PYRTM,2024,126.252267985833,17.361915395972
$GPGGA,060315.00,3419.6199,N,12048.9291,W,1,09,1.0,7.9,M,-33.8,M,,*58
$PYRTM,2024,126.252283847350,17.361931257488
$GPGGA,060316.00,3419.6189,N,12048.9265,W,1,09,1.0,7.7,M,-33.8,M,,*5F
$PYRTM,2024,126.252295408542,17.361942818681
$GPGGA,060317.00,3419.6178,N,12048.9241,W,1,09,1.0,7.7,M,-33.8,M,,*56
$PYRTM,2024,126.252306995856,17.361954405995
$GPGGA,060318.00,3419.6169,N,12048.9215,W,1,09,1.0,7.8,M,-33.8,M,,*57
$PYRTM,2024,126.252318557963,17.361965968102
$GPGGA,060319.00,3419.6163,N,12048.9188,W,1,09,1.0,7.9,M,-33.8,M,,*5A
$PYRTM,2024,126.252325861644,17.361973271782
$GPGGA,060320.00,3419.6157,N,12048.9160,W,1,09,1.0,8.0,M,-33.8,M,,*57
$PYRTM,2024,126.252341706910,17.361989117049
$GPGGA,060321.00,3419.6149,N,12048.9134,W,1,09,1.0,8.3,M,-33.8,M,,*5B
$PYRTM,2024,126.252353295231,17.362000705370
$GPGGA,060322.00,3419.6136,N,12048.9108,W,1,09,1.0,8.5,M,-33.8,M,,*59
$PYRTM,2024,126.252360583669,17.362007993808
$GPGGA,060323.00,3419.6124,N,12048.9082,W,1,09,1.0,8.4,M,-33.8,M,,*59
$PYRTM,2024,126.252376439780,17.362023849919
$GPGGA,060324.00,3419.6113,N,12048.9055,W,1,09,1.0,7.9,M,-33.8,M,,*52
$PYRTM,2024,126.252388002546,17.362035412685
$GPGGA,060325.00,3419.6105,N,12048.9028,W,1,09,1.0,7.5,M,-33.8,M,,*52
$PYRTM,2024,126.252399588252,17.362046998391
$GPGGA,060326.00,3419.6097,N,12048.9002,W,1,09,1.0,7.3,M,-33.8,M,,*55
$PYRTM,2024,126.252411151285,17.362058561424
$GPGGA,060327.00,3419.6087,N,12048.8977,W,1,09,1.0,7.4,M,-33.8,M,,*58
$PYRTM,2024,126.252422738044,17.362070148194
$GPGGA,060328.00,3419.6076,N,12048.8951,W,1,09,1.0,7.6,M,-33.8,M,,*5F
$PYRTM,2024,126.252434299398,17.362081709537
$GPGGA,060329.00,3419.6069,N,12048.8925,W,1,09,1.0,7.7,M,-33.8,M,,*52
$PYRTM,2024,126.252445886481,17.362093296620
$GPGGA,060330.00,3419.6063,N,12048.8900,W,1,09,1.0,7.9,M,-33.8,M,,*59
$PYRTM,2024,126.252453176678,17.362100586817
$GPGGA,060331.00,3419.6055,N,12048.8876,W,1,09,1.0,8.0,M,-33.8,M,,*5B
$PYRTM,2024,126.252471927859,17.362119338009
$GPGGA,060332.00,3419.6044,N,12048.8852,W,1,09,1.0,7.8,M,-33.8,M,,*59
$PYRTM,2024,126.252480595405,17.362128005544
$GPGGA,060333.00,3419.6033,N,12048.8826,W,1,09,1.0,7.7,M,-33.8,M,,*54
$PYRTM,2024,126.252492184769,17.362139594907
$GPGGA,060334.00,3419.6023,N,12048.8800,W,1,09,1.0,7.6,M,-33.8,M,,*57
$PYRTM,2024,126.252503743854,17.362151153993
$GPGGA,060335.00,3419.6015,N,12048.8773,W,1,09,1.0,7.9,M,-33.8,M,,*57
$PYRTM,2024,126.252515333287,17.362162743426
$GPGGA,060336.00,3419.6007,N,12048.8747,W,1,09,1.0,8.2,M,-33.8,M,,*54
$PYRTM,2024,126.252526890382,17.362174300521
$GPGGA,060337.00,3419.5998,N,12048.8720,W,1,09,1.0,8.4,M,-33.8,M,,*5E
$PYRTM,2024,126.252538472569,17.362185882708
$GPGGA,060338.00,3419.5988,N,12048.8692,W,1,09,1.0,8.1,M,-33.8,M,,*5D
$PYRTM,2024,126.252545885463,17.362193295602
$GPGGA,060339.00,3419.5979,N,12048.8665,W,1,10,1.0,8.0,M,-33.8,M,,*53
$PYRTM,2024,126.252561626100,17.362209036238
$GPGGA,060340.00,3419.5970,N,12048.8639,W,1,10,1.0,7.3,M,-33.8,M,,*51
$PYRTM,2024,126.252568918414,17.362216328553
$GPGGA,060341.00,3419.5961,N,12048.8613,W,1,10,1.0,7.5,M,-33.8,M,,*5E
$PYRTM,2024,126.252580711505,17.362228121644
$GPGGA,060342.00,3419.5953,N,12048.8587,W,1,10,1.0,7.7,M,-33.8,M,,*50
$PYRTM,2024,126.252596337037,17.362243747176
$GPGGA,060343.00,3419.5947,N,12048.8561,W,1,10,1.0,7.8,M,-33.8,M,,*53
$PYRTM,2024,126.252607926563,17.362255336701
$GPGGA,060344.00,3419.5939,N,12048.8536,W,1,10,1.0,7.6,M,-33.8,M,,*51
$PYRTM,2024,126.252619486435,17.362266896574
$GPGGA,060345.00,3419.5930,N,12048.8511,W,1,10,1.0,7.4,M,-33.8,M,,*5E
$PYRTM,2024,126.252631073796,17.362278483947
$GPGGA,060346.00,3419.5921,N,12048.8485,W,1,10,1.0,7.3,M,-33.8,M,,*56
$PYRTM,2024,126.252642631470,17.362290041609
$GPGGA,060347.00,3419.5913,N,12048.8458,W,1,10,1.0,7.2,M,-33.8,M,,*57
$PYRTM,2024,126.252654219248,17.362301629387
$GPGGA,060348.00,3419.5903,N,12048.8431,W,1,10,1.0,7.3,M,-33.8,M,,*57
$PYRTM,2024,126.252665779687,17.362313189826
$GPGGA,060349.00,3419.5893,N,12048.8404,W,1,10,1.0,7.6,M,-33.8,M,,*5D
$PYRTM,2024,126.252677367384,17.362324777523
$GPGGA,060350.00,3419.5884,N,12048.8378,W,1,10,1.0,7.8,M,-33.8,M,,*51
$PYRTM,2024,126.252688932315,17.362336342454
$GPGGA,060351.00,3419.5876,N,12048.8351,W,1,10,1.0,7.9,M,-33.8,M,,*57
$PYRTM,2024,126.252700516366,17.362347926505
$GPGGA,060352.00,3419.5870,N,12048.8323,W,1,10,1.0,7.6,M,-33.8,M,,*58
$PYRTM,2024,126.252712077442,17.362359487581
$GPGGA,060353.00,3419.5860,N,12048.8297,W,1,10,1.0,7.4,M,-33.8,M,,*54
$PYRTM,2024,126.252723663646,17.362371073785
$GPGGA,060354.00,3419.5848,N,12048.8273,W,1,10,1.0,7.8,M,-33.8,M,,*5F
$PYRTM,2024,126.252735226840,17.362382636979
$GPGGA,060355.00,3419.5836,N,12048.8248,W,1,10,1.0,8.2,M,-33.8,M,,*5A
$PYRTM,2024,126.252742632743,17.362390042882
$GPGGA,060356.00,3419.5827,N,12048.8223,W,1,10,1.0,8.2,M,-33.8,M,,*54
$PYRTM,2024,126.252758375718,17.362405785856
$GPGGA,060357.00,3419.5817,N,12048.8195,W,1,10,1.0,8.1,M,-33.8,M,,*5B
$PYRTM,2024,126.252769965081,17.362417375220
$GPGGA,060358.00,3419.5808,N,12048.8167,W,1,10,1.0,7.9,M,-33.8,M,,*50
$PYRTM,2024,126.252781523669,17.362428933808
$GPGGA,060359.00,3419.5799,N,12048.8140,W,1,10,1.0,8.0,M,-33.8,M,,*55
$PYRTM,2024,126.252793113322,17.362440523461
$GPGGA,060400.00,3419.5791,N,12048.8114,W,1,10,1.0,8.1,M,-33.8,M,,*56
$PYRTM,2024,126.252804671516,17.362452081655
$GPGGA,060401.00,3419.5782,N,12048.8087,W,1,10,1.0,7.9,M,-33.8,M,,*59
$PYRTM,2024,126.252811975231,17.362459385370
$GPGGA,060402.00,3419.5773,N,12048.8060,W,1,10,1.0,7.5,M,-33.8,M,,*51
$PYRTM,2024,126.252830712824,17.362478122963
$GPGGA,060403.00,3419.5764,N,12048.8035,W,1,10,1.0,7.0,M,-33.8,M,,*53
$PYRTM,2024,126.252839408472,17.362486818611
$GPGGA,060404.00,3419.5753,N,12048.8009,W,1,10,1.0,7.1,M,-33.8,M,,*5E
$PYRTM,2024,126.252850968206,17.362498378345
$GPGGA,060405.00,3419.5742,N,12048.7985,W,1,10,1.0,7.4,M,-33.8,M,,*58
$PYRTM,2024,126.252862548866,17.362509959005
$GPGGA,060406.00,3419.5734,N,12048.7959,W,1,10,1.0,7.9,M,-33.8,M,,*56
$PYRTM,2024,126.252874115660,17.362521525799
$GPGGA,060407.00,3419.5730,N,12048.7933,W,1,10,1.0,8.1,M,-33.8,M,,*58
$PYRTM,2024,126.252881420116,17.362528830255
$GPGGA,060408.00,3419.5725,N,12048.7906,W,1,10,1.0,7.9,M,-33.8,M,,*52
$PYRTM,2024,126.252893213345,17.362540623484
$GPGGA,060409.00,3419.5716,N,12048.7879,W,1,10,1.0,7.5,M,-33.8,M,,*56
$PYRTM,2024,126.252908852338,17.362556262477
$GPGGA,060410.00,3419.5705,N,12048.7853,W,1,10,1.0,7.4,M,-33.8,M,,*55
$PYRTM,2024,126.252920412535,17.362567822674
$GPGGA,060411.00,3419.5695,N,12048.7827,W,1,10,1.0,7.4,M,-33.8,M,,*5F
$PYRTM,2024,126.252932003877,17.362579414028
$GPGGA,060412.00,3419.5686,N,12048.7800,W,1,10,1.0,7.9,M,-33.8,M,,*56
$PYRTM,2024,126.252943561111,17.362590971262
$GPGGA,060413.00,3419.5679,N,12048.7774,W,1,10,1.0,8.1,M,-33.8,M,,*5C
$PYRTM,2024,126.252955148657,17.362602558796
$GPGGA,060414.00,3419.5674,N,12048.7747,W,1,10,1.0,8.2,M,-33.8,M,,*55
$PYRTM,2024,126.252966708333,17.362614118472
$GPGGA,060415.00,3419.5667,N,12048.7722,W,1,10,1.0,8.1,M,-33.8,M,,*56
$PYRTM,2024,126.252974012407,17.362621422546
$GPGGA,060416.00,3419.5656,N,12048.7697,W,1,10,1.0,7.8,M,-33.8,M,,*5E
$PYRTM,2024,126.252989857998,17.362637268148
$GPGGA,060417.00,3419.5644,N,12048.7671,W,1,10,1.0,7.3,M,-33.8,M,,*5F
$PYRTM,2024,126.253001445752,17.362648855891
$GPGGA,060418.00,3419.5635,N,12048.7645,W,1,10,1.0,6.9,M,-33.8,M,,*5A
$PYRTM,2024,126.253013004456,17.362660414595
$GPGGA,060419.00,3419.5629,N,12048.7618,W,1,10,1.0,7.6,M,-33.8,M,,*50
$PYRTM,2024,126.253024593646,17.362672003785
$GPGGA,060420.00,3419.5624,N,12048.7592,W,1,10,1.0,8.2,M,-33.8,M,,*5D
$PYRTM,2024,126.253036154572,17.362683564722
$GPGGA,060421.00,3419.5616,N,12048.7566,W,1,10,1.0,8.3,M,-33.8,M,,*57
$PYRTM,2024,126.253047740938,17.362695151076
$GPGGA,060422.00,3419.5606,N,12048.7539,W,1,10,1.0,8.0,M,-33.8,M,,*5C
$PYRTM,2024,126.253059302141,17.362706712280
$GPGGA,060423.00,3419.5596,N,12048.7513,W,1,10,1.0,8.0,M,-33.8,M,,*5F
$PYRTM,2024,126.253070893808,17.362718303947
$GPGGA,060424.00,3419.5587,N,12048.7487,W,1,10,1.0,8.2,M,-33.8,M,,*56
$PYRTM,2024,126.253082450231,17.362729860370
$GPGGA,060425.00,3419.5581,N,12048.7460,W,1,10,1.0,8.5,M,-33.8,M,,*5F
$PYRTM,2024,126.253094040243,17.362741450394
$GPGGA,060426.00,3419.5573,N,12048.7434,W,1,10,1.0,8.1,M,-33.8,M,,*54
$PYRTM,2024,126.253105598750,17.362753008889
$GPGGA,060427.00,3419.5564,N,12048.7408,W,1,10,1.0,7.8,M,-33.8,M,,*5A
$PYRTM,2024,126.253117199456,17.362764609583
$GPGGA,060428.00,3419.5553,N,12048.7383,W,1,10,1.0,7.5,M,-33.8,M,,*58
$PYRTM,2024,126.253128746748,17.362776156887
$GPGGA,060429.00,3419.5544,N,12048.7357,W,1,10,1.0,7.3,M,-33.8,M,,*50
$PYRTM,2024,126.253140333484,17.362787743623
$GPGGA,060430.00,3419.5535,N,12048.7332,W,1,10,1.0,7.5,M,-33.8,M,,*5B
$PYRTM,2024,126.253147639109,17.362795049248
$GPGGA,060431.00,3419.5528,N,12048.7305,W,1,10,1.0,7.7,M,-33.8,M,,*50
$PYRTM,2024,126.253163482778,17.362810892917
$GPGGA,060432.00,3419.5522,N,12048.7277,W,1,10,1.0,7.9,M,-33.8,M,,*53
$PYRTM,2024,126.253170787940,17.362818198079
$GPGGA,060433.00,3419.5515,N,12048.7249,W,1,10,1.0,7.9,M,-33.8,M,,*5B
$PYRTM,2024,126.253189524722,17.362836934861
$GPGGA,060434.00,3419.5506,N,12048.7222,W,1,10,1.0,8.0,M,-33.8,M,,*55
$PYRTM,2024,126.253198192083,17.362845602234
$GPGGA,060435.00,3419.5496,N,12048.7196,W,1,10,1.0,8.1,M,-33.8,M,,*51
$PYRTM,2024,126.253205495810,17.362852905961
$GPGGA,060436.00,3419.5485,N,12048.7169,W,1,10,1.0,8.1,M,-33.8,M,,*50
$PYRTM,2024,126.253221341053,17.362868751204
$GPGGA,060437.00,3419.5476,N,12048.7143,W,1,10,1.0,8.0,M,-33.8,M,,*54
$PYRTM,2024,126.253232922130,17.362880332269
$GPGGA,060438.00,3419.5470,N,12048.7117,W,1,09,1.0,8.0,M,-33.8,M,,*54
$PYRTM,2024,126.253244488611,17.362891898762
$GPGGA,060439.00,3419.5464,N,12048.7092,W,1,09,1.0,7.7,M,-33.8,M,,*54
$PYRTM,2024,126.253256077905,17.362903488044
$GPGGA,060440.00,3419.5457,N,12048.7065,W,1,09,1.0,7.3,M,-33.8,M,,*56
$PYRTM,2024,126.253267635718,17.362915045856
$GPGGA,060441.00,3419.5447,N,12048.7038,W,1,09,1.0,7.2,M,-33.8,M,,*5F
$PYRTM,2024,126.253274935903,17.362922346042
$GPGGA,060442.00,3419.5436,N,12048.7011,W,1,09,1.0,7.3,M,-33.8,M,,*50
$PYRTM,2024,126.253290785544,17.362938195683
$GPGGA,060443.00,3419.5427,N,12048.6984,W,1,09,1.0,7.6,M,-33.8,M,,*50
$PYRTM,2024,126.253298089294,17.362945499433
$GPGGA,060444.00,3419.5419,N,12048.6958,W,1,09,1.0,7.7,M,-33.8,M,,*5A
$PYRTM,2024,126.253313932998,17.362961343137
$GPGGA,060445.00,3419.5412,N,12048.6931,W,1,09,1.0,7.4,M,-33.8,M,,*5C
$PYRTM,2024,126.253325520394,17.362972930532
$GPGGA,060446.00,3419.5404,N,12048.6904,W,1,09,1.0,6.9,M,-33.8,M,,*52
$PYRTM,2024,126.253337081204,17.362984491343
$GPGGA,060447.00,3419.5392,N,12048.6880,W,1,09,1.0,6.3,M,-33.8,M,,*5C
$PYRTM,2024,126.253348668391,17.362996078530
$GPGGA,060448.00,3419.5379,N,12048.6857,W,1,09,1.0,6.8,M,-33.8,M,,*57
$PYRTM,2024,126.253360228553,17.363007638692
$GPGGA,060449.00,3419.5371,N,12048.6833,W,1,09,1.0,6.9,M,-33.8,M,,*5D
$PYRTM,2024,126.253371815810,17.363019225949
$GPGGA,060450.00,3419.5367,N,12048.6806,W,1,09,1.0,6.6,M,-33.8,M,,*5B
$PYRTM,2024,126.253383377176,17.363030787315
$GPGGA,060451.00,3419.5360,N,12048.6779,W,1,09,1.0,6.4,M,-33.8,M,,*58
$PYRTM,2024,126.253394965880,17.363042376030
$GPGGA,060452.00,3419.5348,N,12048.6752,W,1,09,1.0,6.7,M,-33.8,M,,*5B
$PYRTM,2024,126.253406526528,17.363053936667
$GPGGA,060453.00,3419.5334,N,12048.6726,W,1,09,1.0,7.3,M,-33.8,M,,*57
$PYRTM,2024,126.253418126921,17.363065537060
$GPGGA,060454.00,3419.5325,N,12048.6698,W,1,09,1.0,7.8,M,-33.8,M,,*5F
$PYRTM,2024,126.253429673472,17.363077083611
$GPGGA,060455.00,3419.5319,N,12048.6670,W,1,09,1.0,7.8,M,-33.8,M,,*57
$PYRTM,2024,126.253441264375,17.363088674514
$GPGGA,060456.00,3419.5312,N,12048.6642,W,1,09,1.0,7.6,M,-33.8,M,,*50
$PYRTM,2024,126.253452822894,17.363100233032
$GPGGA,060457.00,3419.5301,N,12048.6615,W,1,09,1.0,7.1,M,-33.8,M,,*56
$PYRTM,2024,126.253464425694,17.363111835833
$GPGGA,060458.00,3419.5286,N,12048.6591,W,1,09,1.0,6.5,M,-33.8,M,,*5D
$PYRTM,2024,126.253475970336,17.363123380475
$GPGGA,060459.00,3419.5274,N,12048.6568,W,1,09,1.0,6.3,M,-33.8,M,,*51
$PYRTM,2024,126.253487557951,17.363134968090
$GPGGA,060500.00,3419.5268,N,12048.6543,W,1,09,1.0,6.4,M,-33.8,M,,*5F
$PYRTM,2024,126.253499119502,17.363146529641
$GPGGA,060501.00,3419.5267,N,12048.6517,W,1,09,1.0,6.5,M,-33.8,M,,*51
$PYRTM,2024,126.253506423819,17.363153833958
$GPGGA,060502.00,3419.5262,N,12048.6490,W,1,09,1.0,6.5,M,-33.8,M,,*59
$PYRTM,2024,126.253522268206,17.363169678345
$GPGGA,060503.00,3419.5251,N,12048.6464,W,1,09,1.0,6.7,M,-33.8,M,,*51
$PYRTM,2024,126.253529571366,17.363176981505
$GPGGA,060504.00,3419.5235,N,12048.6439,W,1,09,1.0,7.0,M,-33.8,M,,*5A
$PYRTM,2024,126.253548309537,17.363195719676
$GPGGA,060505.00,3419.5222,N,12048.6415,W,1,09,1.0,7.6,M,-33.8,M,,*55
$PYRTM,2024,126.253557003310,17.363204413449
$GPGGA,060506.00,3419.5215,N,12048.6389,W,1,09,1.0,8.0,M,-33.8,M,,*59
$PYRTM,2024,126.253564398623,17.363211808762
$GPGGA,060507.00,3419.5211,N,12048.6361,W,1,09,1.0,7.7,M,-33.8,M,,*52
$PYRTM,2024,126.253580166690,17.363227576829
$GPGGA,060508.00,3419.5203,N,12048.6333,W,1,09,1.0,7.1,M,-33.8,M,,*5F
$PYRTM,2024,126.253591713067,17.363239123206
$GPGGA,060509.00,3419.5190,N,12048.6309,W,1,09,1.0,6.9,M,-33.8,M,,*57
$PYRTM,2024,126.253603313935,17.363250724074
$GPGGA,060510.00,3419.5179,N,12048.6284,W,1,09,1.0,6.8,M,-33.8,M,,*5D
$PYRTM,2024,126.253614860775,17.363262270914
$GPGGA,060511.00,3419.5172,N,12048.6257,W,1,09,1.0,7.0,M,-33.8,M,,*50
$PYRTM,2024,126.253622164919,17.363269575058
$GPGGA,060512.00,3419.5166,N,12048.6230,W,1,09,1.0,7.3,M,-33.8,M,,*54
$PYRTM,2024,126.253638008669,17.363285418808
$GPGGA,060513.00,3419.5159,N,12048.6203,W,1,09,1.0,7.5,M,-33.8,M,,*5F
$PYRTM,2024,126.253649597315,17.363297007454
$GPGGA,060514.00,3419.5149,N,12048.6178,W,1,09,1.0,7.4,M,-33.8,M,,*57
$PYRTM,2024,126.253661158171,17.363308568299
$GPGGA,060515.00,3419.5138,N,12048.6154,W,1,09,1.0,7.3,M,-33.8,M,,*59
$PYRTM,2024,126.253672745382,17.363320155521
$GPGGA,060516.00,3419.5126,N,12048.6131,W,1,09,1.0,7.1,M,-33.8,M,,*54
$PYRTM,2024,126.253684307245,17.363331717384
$GPGGA,060517.00,3419.5116,N,12048.6106,W,1,09,1.0,7.1,M,-33.8,M,,*52
$PYRTM,2024,126.253691611100,17.363339021238
$GPGGA,060518.00,3419.5108,N,12048.6080,W,1,09,1.0,7.1,M,-33.8,M,,*5D
$PYRTM,2024,126.253707454965,17.363354865104
$GPGGA,060519.00,3419.5101,N,12048.6054,W,1,09,1.0,7.1,M,-33.8,M,,*5C
$PYRTM,2024,126.253719042164,17.363366452315
$GPGGA,060520.00,3419.5094,N,12048.6028,W,1,09,1.0,7.2,M,-33.8,M,,*53
$PYRTM,2024,126.253726335359,17.363373745498
$GPGGA,060521.00,3419.5086,N,12048.6002,W,1,09,1.0,7.4,M,-33.8,M,,*5F
$PYRTM,2024,126.253742189479,17.363389599618
$GPGGA,060522.00,3419.5076,N,12048.5976,W,1,09,1.0,7.6,M,-33.8,M,,*58
$PYRTM,2024,126.253749481377,17.363396891516
$GPGGA,060523.00,3419.5066,N,12048.5949,W,1,09,1.0,7.7,M,-33.8,M,,*55
$PYRTM,2024,126.253765342998,17.363412753148
$GPGGA,060524.00,3419.5056,N,12048.5921,W,1,09,1.0,7.5,M,-33.8,M,,*5D
$PYRTM,2024,126.253776900671,17.363424310810
$GPGGA,060525.00,3419.5049,N,12048.5895,W,1,09,1.0,7.3,M,-33.8,M,,*5A
$PYRTM,2024,126.253784204213,17.363431614363
$GPGGA,060526.00,3419.5043,N,12048.5869,W,1,09,1.0,7.3,M,-33.8,M,,*50
$PYRTM,2024,126.253800049213,17.363447459363
$GPGGA,060527.00,3419.5035,N,12048.5844,W,1,09,1.0,7.1,M,-33.8,M,,*5D
$PYRTM,2024,126.253811634769,17.363459044907
$GPGGA,060528.00,3419.5024,N,12048.5819,W,1,09,1.0,7.3,M,-33.8,M,,*58
$PYRTM,2024,126.253823197708,17.363470607847
$GPGGA,060529.00,3419.5013,N,12048.5794,W,1,09,1.0,7.3,M,-33.8,M,,*57
$PYRTM,2024,126.253830501019,17.363477911157
$GPGGA,060530.00,3419.5005,N,12048.5767,W,1,09,1.0,7.5,M,-33.8,M,,*52
$PYRTM,2024,126.253846344178,17.363493754317
$GPGGA,060531.00,3419.4999,N,12048.5738,W,1,09,1.0,7.5,M,-33.8,M,,*54
$PYRTM,2024,126.253853647755,17.363501057894
$GPGGA,060532.00,3419.4991,N,12048.5712,W,1,09,1.0,7.5,M,-33.8,M,,*57
$PYRTM,2024,126.253869492419,17.363516902558
$GPGGA,060533.00,3419.4981,N,12048.5685,W,1,09,1.0,7.3,M,-33.8,M,,*5E
$PYRTM,2024,126.253881079965,17.363528490104
$GPGGA,060534.00,3419.4971,N,12048.5659,W,1,09,1.0,6.9,M,-33.8,M,,*5C
$PYRTM,2024,126.253888371412,17.363535781551
$GPGGA,060535.00,3419.4962,N,12048.5633,W,1,09,1.0,6.7,M,-33.8,M,,*5D
$PYRTM,2024,126.253907121539,17.363554531678
$GPGGA,060536.00,3419.4953,N,12048.5608,W,1,09,1.0,6.5,M,-33.8,M,,*56
$PYRTM,2024,126.253915790081,17.363563200220
$GPGGA,060537.00,3419.4946,N,12048.5582,W,1,09,1.0,6.6,M,-33.8,M,,*51
$PYRTM,2024,126.253927379734,17.363574789873
$GPGGA,060538.00,3419.4938,N,12048.5556,W,1,09,1.0,6.7,M,-33.8,M,,*5F
$PYRTM,2024,126.253938937882,17.363586348021
$GPGGA,060539.00,3419.4930,N,12048.5532,W,1,09,1.0,7.0,M,-33.8,M,,*52
$PYRTM,2024,126.253950531134,17.363597941285
$GPGGA,060540.00,3419.4922,N,12048.5507,W,1,09,1.0,7.5,M,-33.8,M,,*5C
$PYRTM,2024,126.253962084734,17.363609494884
$GPGGA,060541.00,3419.4914,N,12048.5480,W,1,09,1.0,7.8,M,-33.8,M,,*5B
$PYRTM,2024,126.253973672847,17.363621082986
$GPGGA,060542.00,3419.4906,N,12048.5453,W,1,09,1.0,7.9,M,-33.8,M,,*54
$PYRTM,2024,126.253985234583,17.363632644722
$GPGGA,060543.00,3419.4898,N,12048.5426,W,1,09,1.0,7.8,M,-33.8,M,,*50
$PYRTM,2024,126.253996821285,17.363644231424
$GPGGA,060544.00,3419.4888,N,12048.5400,W,1,09,1.0,7.6,M,-33.8,M,,*5C
$PYRTM,2024,126.254008382986,17.363655793125
$GPGGA,060545.00,3419.4878,N,12048.5374,W,1,09,1.0,7.5,M,-33.8,M,,*55
$PYRTM,2024,126.254019968912,17.363667379051
$GPGGA,060546.00,3419.4870,N,12048.5349,W,1,09,1.0,7.4,M,-33.8,M,,*51
$PYRTM,2024,126.254027261319,17.363674671470
$GPGGA,060547.00,3419.4863,N,12048.5322,W,1,09,1.0,7.1,M,-33.8,M,,*5A
$PYRTM,2024,126.254043117951,17.363690528090
$GPGGA,060548.00,3419.4855,N,12048.5294,W,1,09,1.0,7.0,M,-33.8,M,,*5D
$PYRTM,2024,126.254050409560,17.363697819711
$GPGGA,060549.00,3419.4842,N,12048.5268,W,1,09,1.0,7.2,M,-33.8,M,,*5B
$PYRTM,2024,126.254066267465,17.363713677604
$GPGGA,060550.00,3419.4830,N,12048.5242,W,1,09,1.0,7.8,M,-33.8,M,,*54
$PYRTM,2024,126.254077827234,17.363725237373
$GPGGA,060551.00,3419.4821,N,12048.5214,W,1,09,1.0,8.3,M,-33.8,M,,*52
$PYRTM,2024,126.254085234560,17.363732644699
$GPGGA,060552.00,3419.4815,N,12048.5186,W,1,09,1.0,8.3,M,-33.8,M,,*5E
$PYRTM,2024,126.254100975926,17.363748386065
$GPGGA,060553.00,3419.4808,N,12048.5159,W,1,09,1.0,8.1,M,-33.8,M,,*53
$PYRTM,2024,126.254112565787,17.363759975938
$GPGGA,060554.00,3419.4795,N,12048.5134,W,1,09,1.0,7.8,M,-33.8,M,,*52
$PYRTM,2024,126.254119956956,17.363767367095
$GPGGA,060555.00,3419.4782,N,12048.5109,W,1,09,1.0,7.6,M,-33.8,M,,*55
$PYRTM,2024,126.254135712303,17.363783122454
$GPGGA,060556.00,3419.4774,N,12048.5084,W,1,09,1.0,7.2,M,-33.8,M,,*5F
$PYRTM,2024,126.254147272025,17.363794682164
$GPGGA,060557.00,3419.4770,N,12048.5058,W,1,09,1.0,7.1,M,-33.8,M,,*58
$PYRTM,2024,126.254154679884,17.363802090023
$GPGGA,060558.00,3419.4763,N,12048.5033,W,1,09,1.0,7.5,M,-33.8,M,,*5C
$PYRTM,2024,126.254170421609,17.363817831748
$GPGGA,060559.00,3419.4753,N,12048.5007,W,1,09,1.0,7.6,M,-33.8,M,,*5A
$PYRTM,2024,126.254182008356,17.363829418495
$GPGGA,060600.00,3419.4740,N,12048.4981,W,1,09,1.0,7.8,M,-33.8,M,,*5F
$PYRTM,2024,126.254189404155,17.363836814294
$GPGGA,060601.00,3419.4729,N,12048.4953,W,1,09,1.0,7.9,M,-33.8,M,,*5F
$PYRTM,2024,126.254205155683,17.363852565822
$GPGGA,060602.00,3419.4722,N,12048.4925,W,1,09,1.0,8.1,M,-33.8,M,,*51
$PYRTM,2024,126.254216717072,17.363864127211
$GPGGA,060603.00,3419.4715,N,12048.4897,W,1,09,1.0,8.3,M,-33.8,M,,*5E
$PYRTM,2024,126.254224123576,17.363871533715
$GPGGA,060604.00,3419.4706,N,12048.4870,W,1,09,1.0,8.0,M,-33.8,M,,*51
$PYRTM,2024,126.254239865914,17.363887276053
$GPGGA,060605.00,3419.4693,N,12048.4843,W,1,09,1.0,7.5,M,-33.8,M,,*57
$PYRTM,2024,126.254247170023,17.363894580162
$GPGGA,060606.00,3419.4680,N,12048.4819,W,1,09,1.0,7.2,M,-33.8,M,,*5E
$PYRTM,2024,126.254265792106,17.363913202245
$GPGGA,060607.00,3419.4669,N,12048.4794,W,1,09,1.0,7.3,M,-33.8,M,,*53
$PYRTM,2024,126.254274614861,17.363922025000
$GPGGA,060608.00,3419.4663,N,12048.4768,W,1,09,1.0,7.4,M,-33.8,M,,*52
$PYRTM,2024,126.254286160914,17.363933571053
$GPGGA,060609.00,3419.4657,N,12048.4741,W,1,09,1.0,7.5,M,-33.8,M,,*5E
$PYRTM,2024,126.254297749144,17.363945159282
$GPGGA,060610.00,3419.4648,N,12048.4716,W,1,09,1.0,7.6,M,-33.8,M,,*59
$PYRTM,2024,126.254309309606,17.363956719745
$GPGGA,060611.00,3419.4636,N,12048.4692,W,1,09,1.0,7.8,M,-33.8,M,,*52
$PYRTM,2024,126.254320898623,17.363968308762
$GPGGA,060612.00,3419.4627,N,12048.4667,W,1,09,1.0,7.9,M,-33.8,M,,*5A
$PYRTM,2024,126.254332460023,17.363979870162
$GPGGA,060613.00,3419.4620,N,12048.4640,W,1,09,1.0,7.8,M,-33.8,M,,*58
$PYRTM,2024,126.254344045069,17.363991455208
$GPGGA,060614.00,3419.4611,N,12048.4612,W,1,09,1.0,7.8,M,-33.8,M,,*5A
$PYRTM,2024,126.254355606817,17.364003016956
$GPGGA,060615.00,3419.4599,N,12048.4586,W,1,09,1.0,8.0,M,-33.8,M,,*51
$PYRTM,2024,126.254367189259,17.364014599410
$GPGGA,060616.00,3419.4586,N,12048.4560,W,1,09,1.0,8.1,M,-33.8,M,,*55
$PYRTM,2024,126.254378755197,17.364026165336
$GPGGA,060617.00,3419.4577,N,12048.4533,W,1,09,1.0,8.0,M,-33.8,M,,*5D
$PYRTM,2024,126.254390337593,17.364037747731
$GPGGA,060618.00,3419.4570,N,12048.4506,W,1,09,1.0,7.9,M,-33.8,M,,*55
$PYRTM,2024,126.254401903924,17.364049314063
$GPGGA,060619.00,3419.4561,N,12048.4479,W,1,09,1.0,7.9,M,-33.8,M,,*5D
$PYRTM,2024,126.254413493808,17.364060903947
$GPGGA,060620.00,3419.4552,N,12048.4453,W,1,09,1.0,7.9,M,-33.8,M,,*5F
$PYRTM,2024,126.254425054491,17.364072464630
$GPGGA,060621.00,3419.4541,N,12048.4427,W,1,09,1.0,7.9,M,-33.8,M,,*5F
$PYRTM,2024,126.254436642303,17.364084052442
$GPGGA,060622.00,3419.4530,N,12048.4400,W,1,09,1.0,7.9,M,-33.8,M,,*5F
$PYRTM,2024,126.254448201319,17.364095611458
$GPGGA,060623.00,3419.4520,N,12048.4374,W,1,09,1.0,8.1,M,-33.8,M,,*5C
$PYRTM,2024,126.254455492164,17.364102902303
$GPGGA,060624.00,3419.4512,N,12048.4347,W,1,09,1.0,8.2,M,-33.8,M,,*59
$PYRTM,2024,126.254467312164,17.364114722303
$GPGGA,060625.00,3419.4505,N,12048.4319,W,1,09,1.0,7.9,M,-33.8,M,,*51
$PYRTM,2024,126.254482935972,17.364130346111
$GPGGA,060626.00,3419.4497,N,12048.4292,W,1,09,1.0,7.7,M,-33.8,M,,*54
$PYRTM,2024,126.254494496528,17.364141906667
$GPGGA,060627.00,3419.4484,N,12048.4267,W,1,09,1.0,7.6,M,-33.8,M,,*5C
$PYRTM,2024,126.254506084549,17.364153494687
$GPGGA,060628.00,3419.4469,N,12048.4241,W,1,09,1.0,7.7,M,-33.8,M,,*55
$PYRTM,2024,126.254517645058,17.364165055208
$GPGGA,060629.00,3419.4458,N,12048.4214,W,1,09,1.0,7.7,M,-33.8,M,,*56
$PYRTM,2024,126.254529231817,17.364176641956
$GPGGA,060630.00,3419.4452,N,12048.4187,W,1,09,1.0,7.5,M,-33.8,M,,*5F
$PYRTM,2024,126.254540793241,17.364188203380
$GPGGA,060631.00,3419.4444,N,12048.4160,W,1,09,1.0,7.5,M,-33.8,M,,*50
$PYRTM,2024,126.254552381123,17.364199791262
$GPGGA,060632.00,3419.4435,N,12048.4135,W,1,09,1.0,7.6,M,-33.8,M,,*56
$PYRTM,2024,126.254559666979,17.364207077130
$GPGGA,060633.00,3419.4425,N,12048.4110,W,1,09,1.0,7.5,M,-33.8,M,,*52
$PYRTM,2024,126.254575528866,17.364222939005
$GPGGA,060634.00,3419.4414,N,12048.4084,W,1,09,1.0,7.5,M,-33.8,M,,*5B
$PYRTM,2024,126.254587089525,17.364234499664
$GPGGA,060635.00,3419.4402,N,12048.4058,W,1,09,1.0,7.7,M,-33.8,M,,*5E
$PYRTM,2024,126.254598679630,17.364246089769
$GPGGA,060636.00,3419.4394,N,12048.4032,W,1,09,1.0,8.0,M,-33.8,M,,*51
$PYRTM,2024,126.254605956296,17.364253366435
$GPGGA,060637.00,3419.4386,N,12048.4005,W,1,09,1.0,8.0,M,-33.8,M,,*57
$PYRTM,2024,126.254624605741,17.364272015880
$GPGGA,060638.00,3419.4376,N,12048.3978,W,1,09,1.0,7.8,M,-33.8,M,,*54
$PYRTM,2024,126.254633386748,17.364280796898
$GPGGA,060639.00,3419.4361,N,12048.3950,W,1,09,1.0,7.7,M,-33.8,M,,*56
$PYRTM,2024,126.254644974780,17.364292384919
$GPGGA,060640.00,3419.4349,N,12048.3923,W,1,09,1.0,7.7,M,-33.8,M,,*56
$PYRTM,2024,126.254652267720,17.364299677870
$GPGGA,060641.00,3419.4342,N,12048.3894,W,1,09,1.0,7.9,M,-33.8,M,,*5F
$PYRTM,2024,126.254668121968,17.364315532106
$GPGGA,060642.00,3419.4337,N,12048.3867,W,1,09,1.0,7.9,M,-33.8,M,,*52
$PYRTM,2024,126.254675415579,17.364322825718
$GPGGA,060643.00,3419.4329,N,12048.3840,W,1,09,1.0,7.8,M,-33.8,M,,*58
$PYRTM,2024,126.254691272454,17.364338682593
$GPGGA,060644.00,3419.4318,N,12048.3814,W,1,09,1.0,7.9,M,-33.8,M,,*5D
$PYRTM,2024,126.254702831863,17.364350242014
$GPGGA,060645.00,3419.4306,N,12048.3790,W,1,09,1.0,7.8,M,-33.8,M,,*51
$PYRTM,2024,126.254710134919,17.364357545058
$GPGGA,060646.00,3419.4297,N,12048.3765,W,1,09,1.0,7.7,M,-33.8,M,,*5E
$PYRTM,2024,126.254721928831,17.364369338970
$GPGGA,060647.00,3419.4291,N,12048.3740,W,1,09,1.0,7.5,M,-33.8,M,,*5C
$PYRTM,2024,126.254737580162,17.364384990301
$GPGGA,060648.00,3419.4285,N,12048.3713,W,1,09,1.0,6.9,M,-33.8,M,,*5D
$PYRTM,2024,126.254749127037,17.364396537176
$GPGGA,060649.00,3419.4276,N,12048.3685,W,1,09,1.0,6.6,M,-33.8,M,,*51
$PYRTM,2024,126.254756418623,17.364403828762
$GPGGA,060650.00,3419.4265,N,12048.3659,W,1,09,1.0,6.8,M,-33.8,M,,*54
$PYRTM,2024,126.254772275938,17.364419686076
$GPGGA,060651.00,3419.4254,N,12048.3631,W,1,09,1.0,7.5,M,-33.8,M,,*55
$PYRTM,2024,126.254783877269,17.364431287407
$GPGGA,060652.00,3419.4247,N,12048.3604,W,1,09,1.0,8.0,M,-33.8,M,,*58
$PYRTM,2024,126.254795423993,17.364442834132
$GPGGA,060653.00,3419.4241,N,12048.3576,W,1,09,1.0,7.9,M,-33.8,M,,*5F
$PYRTM,2024,126.254807014005,17.364454424144
$GPGGA,060654.00,3419.4232,N,12048.3550,W,1,09,1.0,7.5,M,-33.8,M,,*54
$PYRTM,2024,126.254818573796,17.364465983935
$GPGGA,060655.00,3419.4219,N,12048.3527,W,1,09,1.0,7.1,M,-33.8,M,,*58
$PYRTM,2024,126.254830160243,17.364477570382
$GPGGA,060656.00,3419.4205,N,12048.3504,W,1,09,1.0,6.9,M,-33.8,M,,*5E
$PYRTM,2024,126.254841722315,17.364489132454
$GPGGA,060657.00,3419.4197,N,12048.3478,W,1,09,1.0,6.8,M,-33.8,M,,*5C
$PYRTM,2024,126.254853308275,17.364500718414
$GPGGA,060658.00,3419.4192,N,12048.3451,W,1,09,1.0,7.1,M,-33.8,M,,*55
$PYRTM,2024,126.254864868171,17.364512278310
$GPGGA,060659.00,3419.4186,N,12048.3425,W,1,09,1.0,7.4,M,-33.8,M,,*57
$PYRTM,2024,126.254876457662,17.364523867801
$GPGGA,060700.00,3419.4174,N,12048.3400,W,1,09,1.0,7.4,M,-33.8,M,,*50
$PYRTM,2024,126.254888020463,17.364535430613
$GPGGA,060701.00,3419.4161,N,12048.3374,W,1,09,1.0,7.5,M,-33.8,M,,*50
$PYRTM,2024,126.254895321493,17.364542731632
$GPGGA,060702.00,3419.4150,N,12048.3348,W,1,09,1.0,7.4,M,-33.8,M,,*5F
$PYRTM,2024,126.254911166887,17.364558577025
$GPGGA,060703.00,3419.4141,N,12048.3321,W,1,09,1.0,7.4,M,-33.8,M,,*51
$PYRTM,2024,126.254922755926,17.364570166065
$GPGGA,060704.00,3419.4134,N,12048.3295,W,1,09,1.0,7.5,M,-33.8,M,,*5B
$PYRTM,2024,126.254934315660,17.364581725799
$GPGGA,060705.00,3419.4126,N,12048.3268,W,1,09,1.0,7.5,M,-33.8,M,,*5B
$PYRTM,2024,126.254945904826,17.364593314965
$GPGGA,060706.00,3419.4115,N,12048.3244,W,1,09,1.0,7.4,M,-33.8,M,,*57
$PYRTM,2024,126.254957462280,17.364604872419
$GPGGA,060707.00,3419.4105,N,12048.3220,W,1,09,1.0,7.5,M,-33.8,M,,*54
$PYRTM,2024,126.254964754132,17.364612164271
$GPGGA,060708.00,3419.4095,N,12048.3195,W,1,09,1.0,7.4,M,-33.8,M,,*5F
$PYRTM,2024,126.254983388912,17.364630799051
$GPGGA,060709.00,3419.4086,N,12048.3169,W,1,09,1.0,7.3,M,-33.8,M,,*58
$PYRTM,2024,126.254994975231,17.364642385370
$GPGGA,060710.00,3419.4075,N,12048.3144,W,1,09,1.0,7.2,M,-33.8,M,,*52
$PYRTM,2024,126.255006537604,17.364653947755
$GPGGA,060711.00,3419.4065,N,12048.3121,W,1,09,1.0,7.2,M,-33.8,M,,*51
$PYRTM,2024,126.255015346910,17.364662757049
$GPGGA,060712.00,3419.4056,N,12048.3096,W,1,09,1.0,7.2,M,-33.8,M,,*5F
$PYRTM,2024,126.255027024375,17.364674434525
$GPGGA,060713.00,3419.4047,N,12048.3069,W,1,09,1.0,7.2,M,-33.8,M,,*5E
$PYRTM,2024,126.255038494745,17.364685904884
$GPGGA,060714.00,3419.4035,N,12048.3043,W,1,09,1.0,7.5,M,-33.8,M,,*53
$PYRTM,2024,126.255045773958,17.364693184097
$GPGGA,060715.00,3419.4024,N,12048.3017,W,1,09,1.0,7.9,M,-33.8,M,,*5F
$PYRTM,2024,126.255061643900,17.364709054039
$GPGGA,060716.00,3419.4017,N,12048.2990,W,1,09,1.0,8.2,M,-33.8,M,,*5F
$PYRTM,2024,126.255073206238,17.364720616377
$GPGGA,060717.00,3419.4008,N,12048.2962,W,1,09,1.0,8.2,M,-33.8,M,,*5D
$PYRTM,2024,126.255080495718,17.364727905868
$GPGGA,060718.00,3419.3997,N,12048.2936,W,1,09,1.0,7.9,M,-33.8,M,,*5F
$PYRTM,2024,126.255092302731,17.364739712882
$GPGGA,060719.00,3419.3984,N,12048.2910,W,1,09,1.0,7.5,M,-33.8,M,,*54
$PYRTM,2024,126.255107941586,17.364755351725
$GPGGA,060720.00,3419.3972,N,12048.2884,W,1,09,1.0,7.2,M,-33.8,M,,*5C
$PYRTM,2024,126.255119501956,17.364766912095
$GPGGA,060721.00,3419.3962,N,12048.2859,W,1,09,1.0,7.1,M,-33.8,M,,*5F
$PYRTM,2024,126.255131083218,17.364778493356
$GPGGA,060722.00,3419.3952,N,12048.2832,W,1,09,1.0,7.2,M,-33.8,M,,*51
$PYRTM,2024,126.255142648773,17.364790058924
$GPGGA,060723.00,3419.3943,N,12048.2806,W,1,09,1.0,7.4,M,-33.8,M,,*51
$PYRTM,2024,126.255149941238,17.364797351389
$GPGGA,060724.00,3419.3934,N,12048.2781,W,1,09,1.0,7.6,M,-33.8,M,,*54
$PYRTM,2024,126.255161759514,17.364809169664
$GPGGA,060725.00,3419.3925,N,12048.2756,W,1,09,1.0,7.6,M,-33.8,M,,*5F
$PYRTM,2024,126.255177380012,17.364824790150
$GPGGA,060726.00,3419.3915,N,12048.2731,W,1,09,1.0,7.3,M,-33.8,M,,*5B
$PYRTM,2024,126.255184663553,17.364832073692
$GPGGA,060727.00,3419.3903,N,12048.2706,W,1,09,1.0,6.9,M,-33.8,M,,*52
$PYRTM,2024,126.255200533796,17.364847943935
$GPGGA,060728.00,3419.3893,N,12048.2681,W,1,09,1.0,6.8,M,-33.8,M,,*5A
$PYRTM,2024,126.255212095220,17.364859505359
$GPGGA,060729.00,3419.3883,N,12048.2656,W,1,09,1.0,7.0,M,-33.8,M,,*59
$PYRTM,2024,126.255223681875,17.364871092014
$GPGGA,060730.00,3419.3873,N,12048.2630,W,1,09,1.0,7.4,M,-33.8,M,,*5A
$PYRTM,2024,126.255235243333,17.364882653472
$GPGGA,060731.00,3419.3865,N,12048.2602,W,1,09,1.0,7.7,M,-33.8,M,,*5E
$PYRTM,2024,126.255246829514,17.364894239664
$GPGGA,060732.00,3419.3856,N,12048.2575,W,1,09,1.0,7.7,M,-33.8,M,,*5E
$PYRTM,2024,126.255258390799,17.364905800937
$GPGGA,060733.00,3419.3844,N,12048.2548,W,1,09,1.0,7.5,M,-33.8,M,,*50
$PYRTM,2024,126.255269984352,17.364917394491
$GPGGA,060734.00,3419.3830,N,12048.2522,W,1,09,1.0,7.4,M,-33.8,M,,*59
$PYRTM,2024,126.255281540324,17.364928950463
$GPGGA,060735.00,3419.3818,N,12048.2495,W,1,09,1.0,7.3,M,-33.8,M,,*58
$PYRTM,2024,126.255288830799,17.364936240937
$GPGGA,060736.00,3419.3810,N,12048.2467,W,1,09,1.0,7.3,M,-33.8,M,,*5E
$PYRTM,2024,126.255304687245,17.364952097384
$GPGGA,060737.00,3419.3803,N,12048.2441,W,1,09,1.0,7.2,M,-33.8,M,,*58
$PYRTM,2024,126.255316274387,17.364963684525
$GPGGA,060738.00,3419.3794,N,12048.2415,W,1,09,1.0,7.2,M,-33.8,M,,*57
$PYRTM,2024,126.255323568021,17.364970978171
$GPGGA,060739.00,3419.3783,N,12048.2391,W,1,09,1.0,7.2,M,-33.8,M,,*5B
$PYRTM,2024,126.255342200150,17.364989610289
$GPGGA,060740.00,3419.3770,N,12048.2367,W,1,09,1.0,7.1,M,-33.8,M,,*53
$PYRTM,2024,126.255350983310,17.364998393449
$GPGGA,060741.00,3419.3759,N,12048.2341,W,1,09,1.0,7.0,M,-33.8,M,,*5C
$PYRTM,2024,126.255358283912,17.365005694062
$GPGGA,060742.00,3419.3751,N,12048.2315,W,1,09,1.0,7.0,M,-33.8,M,,*56
$PYRTM,2024,126.255374131933,17.365021542072
$GPGGA,060743.00,3419.3742,N,12048.2287,W,1,09,1.0,6.9,M,-33.8,M,,*57
$PYRTM,2024,126.255385718866,17.365033129005
$GPGGA,060744.00,3419.3731,N,12048.2259,W,1,09,1.0,7.0,M,-33.8,M,,*5F
$PYRTM,2024,126.255397280243,17.365044690382
$GPGGA,060745.00,3419.3718,N,12048.2233,W,1,09,1.0,7.3,M,-33.8,M,,*5A
$PYRTM,2024,126.255408871910,17.365056282060
$GPGGA,060746.00,3419.3707,N,12048.2206,W,1,09,1.0,7.6,M,-33.8,M,,*54
$PYRTM,2024,126.255420428715,17.365067838854
$GPGGA,060747.00,3419.3699,N,12048.2178,W,1,09,1.0,7.6,M,-33.8,M,,*59
$PYRTM,2024,126.255432030648,17.365079440787
$GPGGA,060748.00,3419.3690,N,12048.2151,W,1,09,1.0,7.4,M,-33.8,M,,*56
$PYRTM,2024,126.255443577488,17.365090987627
$GPGGA,060749.00,3419.3678,N,12048.2126,W,1,09,1.0,7.3,M,-33.8,M,,*56
$PYRTM,2024,126.255450870278,17.365098280417
$GPGGA,060750.00,3419.3666,N,12048.2101,W,1,09,1.0,7.0,M,-33.8,M,,*57
$PYRTM,2024,126.255462674745,17.365110084884
$GPGGA,060751.00,3419.3657,N,12048.2075,W,1,09,1.0,6.7,M,-33.8,M,,*50
$PYRTM,2024,126.255478312257,17.365125722396
$GPGGA,060752.00,3419.3650,N,12048.2049,W,1,09,1.0,6.6,M,-33.8,M,,*5A
$PYRTM,2024,126.255489886088,17.365137296227
$GPGGA,060753.00,3419.3641,N,12048.2024,W,1,09,1.0,6.8,M,-33.8,M,,*5E
$PYRTM,2024,126.255501460972,17.365148871111
$GPGGA,060754.00,3419.3630,N,12048.1998,W,1,09,1.0,7.1,M,-33.8,M,,*5A
$PYRTM,2024,126.255513035012,17.365160445150
$GPGGA,060755.00,3419.3618,N,12048.1970,W,1,09,1.0,7.3,M,-33.8,M,,*55
$PYRTM,2024,126.255524603611,17.365172013750
$GPGGA,060756.00,3419.3605,N,12048.1943,W,1,09,1.0,7.6,M,-33.8,M,,*5F
$PYRTM,2024,126.255536178056,17.365183588206
$GPGGA,060757.00,3419.3595,N,12048.1914,W,1,09,1.0,8.0,M,-33.8,M,,*5F
$PYRTM,2024,126.255547758299,17.365195168437
$GPGGA,060758.00,3419.3587,N,12048.1885,W,1,09,1.0,8.2,M,-33.8,M,,*58
$PYRTM,2024,126.255559327477,17.365206737616
$GPGGA,060759.00,3419.3580,N,12048.1857,W,1,09,1.0,8.0,M,-33.8,M,,*53
$PYRTM,2024,126.255570901956,17.365218312106
$GPGGA,060800.00,3419.3571,N,12048.1832,W,1,09,1.0,7.6,M,-33.8,M,,*54
$PYRTM,2024,126.255578191551,17.365225601690
$GPGGA,060801.00,3419.3560,N,12048.1807,W,1,09,1.0,7.1,M,-33.8,M,,*54
$PYRTM,2024,126.255594057211,17.365241467350
$GPGGA,060802.00,3419.3548,N,12048.1782,W,1,09,1.0,6.6,M,-33.8,M,,*59
$PYRTM,2024,126.255605627315,17.365253037454
$GPGGA,060803.00,3419.3537,N,12048.1756,W,1,09,1.0,6.3,M,-33.8,M,,*5C
$PYRTM,2024,126.255617202512,17.365264612650
$GPGGA,060804.00,3419.3529,N,12048.1731,W,1,09,1.0,6.5,M,-33.8,M,,*53
$PYRTM,2024,126.255628776736,17.365276186875
$GPGGA,060805.00,3419.3521,N,12048.1705,W,1,09,1.0,7.0,M,-33.8,M,,*59
$PYRTM,2024,126.255636171181,17.365283581331
$GPGGA,060806.00,3419.3512,N,12048.1679,W,1,09,1.0,7.2,M,-33.8,M,,*52
$PYRTM,2024,126.255647874583,17.365295284722
$GPGGA,060807.00,3419.3501,N,12048.1652,W,1,09,1.0,7.3,M,-33.8,M,,*59
$PYRTM,2024,126.255663500463,17.365310910602
$GPGGA,060808.00,3419.3490,N,12048.1626,W,1,09,1.0,7.4,M,-33.8,M,,*5B
$PYRTM,2024,126.255675069190,17.365322479329
$GPGGA,060809.00,3419.3480,N,12048.1598,W,1,09,1.0,7.5,M,-33.8,M,,*5C
$PYRTM,2024,126.255682352095,17.365329762234
$GPGGA,060810.00,3419.3472,N,12048.1570,W,1,09,1.0,7.5,M,-33.8,M,,*5F
$PYRTM,2024,126.255700994155,17.365348404294
$GPGGA,060811.00,3419.3465,N,12048.1542,W,1,09,1.0,7.5,M,-33.8,M,,*59
$PYRTM,2024,126.255709795243,17.365357205394
$GPGGA,060812.00,3419.3454,N,12048.1513,W,1,09,1.0,7.4,M,-33.8,M,,*5D
$PYRTM,2024,126.255721363981,17.365368774120
$GPGGA,060813.00,3419.3443,N,12048.1485,W,1,09,1.0,7.6,M,-33.8,M,,*56
$PYRTM,2024,126.255728649954,17.365376060093
$GPGGA,060814.00,3419.3432,N,12048.1458,W,1,09,1.0,7.8,M,-33.8,M,,*59
$PYRTM,2024,126.255744512685,17.365391922824
$GPGGA,060815.00,3419.3423,N,12048.1431,W,1,09,1.0,7.8,M,-33.8,M,,*57
$PYRTM,2024,126.255756093981,17.365403504120
$GPGGA,060816.00,3419.3415,N,12048.1404,W,1,09,1.0,7.4,M,-33.8,M,,*5B
$PYRTM,2024,126.255763383275,17.365410793414
$GPGGA,060817.00,3419.3404,N,12048.1379,W,1,09,1.0,6.9,M,-33.8,M,,*5B
$PYRTM,2024,126.255779243102,17.365426653241
$GPGGA,060818.00,3419.3393,N,12048.1354,W,1,09,1.0,6.5,M,-33.8,M,,*5E
$PYRTM,2024,126.255790813843,17.365438223981
$GPGGA,060819.00,3419.3382,N,12048.1329,W,1,09,1.0,6.3,M,-33.8,M,,*53
$PYRTM,2024,126.255802388414,17.365449798553
$GPGGA,060820.00,3419.3373,N,12048.1302,W,1,09,1.0,6.2,M,-33.8,M,,*5F
$PYRTM,2024,126.255813962477,17.365461372616
$GPGGA,060821.00,3419.3364,N,12048.1274,W,1,09,1.0,6.7,M,-33.8,M,,*5D
$PYRTM,2024,126.255825538333,17.365472948472
$GPGGA,060822.00,3419.3356,N,12048.1247,W,1,09,1.0,7.5,M,-33.8,M,,*5C
$PYRTM,2024,126.255837110845,17.365484520995
$GPGGA,060823.00,3419.3347,N,12048.1220,W,1,09,1.0,8.2,M,-33.8,M,,*54
$PYRTM,2024,126.255844396933,17.365491807072
$GPGGA,060824.00,3419.3337,N,12048.1192,W,1,09,1.0,8.4,M,-33.8,M,,*58
$PYRTM,2024,126.255856195880,17.365503606019
$GPGGA,060825.00,3419.3326,N,12048.1164,W,1,09,1.0,7.9,M,-33.8,M,,*52
$PYRTM,2024,126.255871834606,17.365519244745
$GPGGA,060826.00,3419.3313,N,12048.1137,W,1,09,1.0,7.3,M,-33.8,M,,*5B
$PYRTM,2024,126.255883406944,17.365530817083
$GPGGA,060827.00,3419.3300,N,12048.1111,W,1,09,1.0,6.9,M,-33.8,M,,*57
$PYRTM,2024,126.255894981921,17.365542392060
$GPGGA,060828.00,3419.3291,N,12048.1086,W,1,09,1.0,7.0,M,-33.8,M,,*56
$PYRTM,2024,126.255906556447,17.365553966586
$GPGGA,060829.00,3419.3283,N,12048.1060,W,1,09,1.0,6.7,M,-33.8,M,,*5A
$PYRTM,2024,126.255918132975,17.365565543113
$GPGGA,060830.00,3419.3275,N,12048.1033,W,1,09,1.0,6.7,M,-33.8,M,,*5D
$PYRTM,2024,126.255929704595,17.365577114745
$GPGGA,060831.00,3419.3264,N,12048.1004,W,1,09,1.0,6.6,M,-33.8,M,,*59
$PYRTM,2024,126.255941282106,17.365588692245
$GPGGA,060832.00,3419.3251,N,12048.0978,W,1,09,1.0,6.9,M,-33.8,M,,*50
$PYRTM,2024,126.255952853657,17.365600263796
$GPGGA,060833.00,3419.3237,N,12048.0951,W,1,09,1.0,7.3,M,-33.8,M,,*51
$PYRTM,2024,126.255964426725,17.365611836863
$GPGGA,060834.00,3419.3228,N,12048.0923,W,1,09,1.0,7.8,M,-33.8,M,,*56
$PYRTM,2024,126.255976000451,17.365623410590
$GPGGA,060835.00,3419.3220,N,12048.0895,W,1,09,1.0,8.0,M,-33.8,M,,*54
$PYRTM,2024,126.255987575579,17.365634985718
$GPGGA,060836.00,3419.3211,N,12048.0868,W,1,09,1.0,7.8,M,-33.8,M,,*50
$PYRTM,2024,126.255999148576,17.365646558715
$GPGGA,060837.00,3419.3198,N,12048.0842,W,1,09,1.0,7.4,M,-33.8,M,,*57
$PYRTM,2024,126.256010723507,17.365658133646
$GPGGA,060838.00,3419.3184,N,12048.0818,W,1,09,1.0,7.0,M,-33.8,M,,*5E
$PYRTM,2024,126.256018015324,17.365665425475
$GPGGA,060839.00,3419.3172,N,12048.0794,W,1,09,1.0,6.7,M,-33.8,M,,*5B
$PYRTM,2024,126.256033871562,17.365681281701
