$PYRTM,2024,125.833336957998,16.942984368137
$GPGGA,195959.00,3454.2401,N,12154.9493,W,1,08,1.0,8.9,M,-33.4,M,,*52
$PYRTM,2024,125.833348504028,16.942995914167
$GPGGA,200000.00,3454.2404,N,12154.9465,W,1,08,1.0,8.8,M,-33.4,M,,*55
$PYRTM,2024,125.833360105428,16.943007515567
$GPGGA,200001.00,3454.2405,N,12154.9436,W,1,08,1.0,8.5,M,-33.4,M,,*5E
$PYRTM,2024,125.833367485486,16.943014895625
$GPGGA,200002.00,3454.2404,N,12154.9409,W,1,08,1.0,8.4,M,-33.4,M,,*51
$PYRTM,2024,125.833379176019,16.943026586157
$GPGGA,200003.00,3454.2405,N,12154.9381,W,1,08,1.0,8.6,M,-33.4,M,,*54
$PYRTM,2024,125.833394800023,16.943042210174
$GPGGA,200004.00,3454.2407,N,12154.9354,W,1,08,1.0,9.0,M,-33.4,M,,*5E
$PYRTM,2024,125.833406389340,16.943053799479
$GPGGA,200005.00,3454.2407,N,12154.9326,W,1,08,1.0,9.3,M,-33.4,M,,*59
$PYRTM,2024,125.833413795937,16.943061206076
$GPGGA,200006.00,3454.2410,N,12154.9296,W,1,08,1.0,9.2,M,-33.4,M,,*57
$PYRTM,2024,125.833429537650,16.943076947789
$GPGGA,200007.00,3454.2415,N,12154.9267,W,1,08,1.0,8.6,M,-33.4,M,,*58
$PYRTM,2024,125.833441097095,16.943088507234
$GPGGA,200008.00,3454.2417,N,12154.9240,W,1,08,1.0,8.6,M,-33.4,M,,*50
$PYRTM,2024,125.833448504086,16.943095914225
$GPGGA,200009.00,3454.2415,N,12154.9210,W,1,08,1.0,8.8,M,-33.4,M,,*58
$PYRTM,2024,125.833460194410,16.943107604560
$GPGGA,200010.00,3454.2414,N,12154.9180,W,1,08,1.0,8.7,M,-33.4,M,,*54
$PYRTM,2024,125.833475833785,16.943123243935
$GPGGA,200011.00,3454.2419,N,12154.9152,W,1,08,1.0,8.6,M,-33.4,M,,*56
$PYRTM,2024,125.833487393819,16.943134803958
$GPGGA,200012.00,3454.2426,N,12154.9126,W,1,08,1.0,8.4,M,-33.4,M,,*58
$PYRTM,2024,125.833498981366,16.943146391505
$GPGGA,200013.00,3454.2427,N,12154.9100,W,1,08,1.0,8.5,M,-33.4,M,,*5D
$PYRTM,2024,125.833510541771,16.943157951921
$GPGGA,200014.00,3454.2424,N,12154.9073,W,1,08,1.0,8.5,M,-33.4,M,,*5C
$PYRTM,2024,125.833522132407,16.943169542546
$GPGGA,200015.00,3454.2422,N,12154.9046,W,1,08,1.0,8.3,M,-33.4,M,,*5B
$PYRTM,2024,125.833533691389,16.943181101528
$GPGGA,200016.00,3454.2426,N,12154.9020,W,1,08,1.0,8.1,M,-33.4,M,,*5E
$PYRTM,2024,125.833545279780,16.943192689919
$GPGGA,200017.00,3454.2433,N,12154.8992,W,1,08,1.0,8.1,M,-33.4,M,,*5A
$PYRTM,2024,125.833556838854,16.943204248993
$GPGGA,200018.00,3454.2437,N,12154.8964,W,1,08,1.0,8.4,M,-33.4,M,,*5D
$PYRTM,2024,125.833568425833,16.943215835972
$GPGGA,200019.00,3454.2436,N,12154.8934,W,1,08,1.0,8.8,M,-33.4,M,,*54
$PYRTM,2024,125.833575837106,16.943223247245
$GPGGA,200020.00,3454.2435,N,12154.8903,W,1,08,1.0,9.3,M,-33.4,M,,*53
$PYRTM,2024,125.833591575012,16.943238985162
$GPGGA,200021.00,3454.2437,N,12154.8872,W,1,08,1.0,9.5,M,-33.4,M,,*51
$PYRTM,2024,125.833603135405,16.943250545544
$GPGGA,200022.00,3454.2442,N,12154.8841,W,1,08,1.0,9.4,M,-33.4,M,,*51
$PYRTM,2024,125.833614723333,16.943262133472
$GPGGA,200023.00,3454.2446,N,12154.8811,W,1,08,1.0,9.4,M,-33.4,M,,*51
$PYRTM,2024,125.833622118495,16.943269528634
$GPGGA,200024.00,3454.2446,N,12154.8784,W,1,08,1.0,9.3,M,-33.4,M,,*52
$PYRTM,2024,125.833637870579,16.943285280718
$GPGGA,200025.00,3454.2446,N,12154.8756,W,1,08,1.0,8.9,M,-33.4,M,,*57
$PYRTM,2024,125.833649432940,16.943296843079
$GPGGA,200026.00,3454.2450,N,12154.8729,W,1,08,1.0,8.0,M,-33.4,M,,*52
$PYRTM,2024,125.833656838507,16.943304248646
$GPGGA,200027.00,3454.2453,N,12154.8704,W,1,08,1.0,7.4,M,-33.4,M,,*54
$PYRTM,2024,125.833672582350,16.943319992488
$GPGGA,200028.00,3454.2452,N,12154.8677,W,1,08,1.0,7.4,M,-33.4,M,,*5F
$PYRTM,2024,125.833679990046,16.943327400185
$GPGGA,200029.00,3454.2453,N,12154.8649,W,1,08,1.0,7.6,M,-33.4,M,,*50
$PYRTM,2024,125.833698634178,16.943346044317
$GPGGA,200030.00,3454.2457,N,12154.8622,W,1,08,1.0,8.1,M,-33.4,M,,*59
$PYRTM,2024,125.833710208611,16.943357618750
$GPGGA,200031.00,3454.2462,N,12154.8595,W,1,08,1.0,8.8,M,-33.4,M,,*58
$PYRTM,2024,125.833718875382,16.943366285521
$GPGGA,200032.00,3454.2464,N,12154.8567,W,1,08,1.0,9.4,M,-33.4,M,,*5D
$PYRTM,2024,125.833730463970,16.943377874120
$GPGGA,200033.00,3454.2463,N,12154.8538,W,1,08,1.0,9.8,M,-33.4,M,,*5D
$PYRTM,2024,125.833742025347,16.943389435486
$GPGGA,200034.00,3454.2463,N,12154.8510,W,1,08,1.0,9.4,M,-33.4,M,,*5C
$PYRTM,2024,125.833753607222,16.943401017361
$GPGGA,200035.00,3454.2460,N,12154.8482,W,1,08,1.0,9.0,M,-33.4,M,,*50
$PYRTM,2024,125.833765173808,16.943412583947
$GPGGA,200036.00,3454.2460,N,12154.8453,W,1,08,1.0,8.9,M,-33.4,M,,*57
$PYRTM,2024,125.833776760475,16.943424170625
$GPGGA,200037.00,3454.2462,N,12154.8425,W,1,08,1.0,8.6,M,-33.4,M,,*5A
$PYRTM,2024,125.833788322697,16.943435732847
$GPGGA,200038.00,3454.2468,N,12154.8398,W,1,08,1.0,8.6,M,-33.4,M,,*5E
$PYRTM,2024,125.833799908472,16.943447318611
$GPGGA,200039.00,3454.2471,N,12154.8371,W,1,08,1.0,8.4,M,-33.4,M,,*52
$PYRTM,2024,125.833811469329,16.943458879468
$GPGGA,200040.00,3454.2470,N,12154.8343,W,1,08,1.0,8.2,M,-33.4,M,,*5A
$PYRTM,2024,125.833823057060,16.943470467199
$GPGGA,200041.00,3454.2468,N,12154.8313,W,1,08,1.0,8.6,M,-33.4,M,,*53
$PYRTM,2024,125.833830451447,16.943477861586
$GPGGA,200042.00,3454.2470,N,12154.8284,W,1,08,1.0,9.0,M,-33.4,M,,*51
$PYRTM,2024,125.833846208206,16.943493618345
$GPGGA,200043.00,3454.2477,N,12154.8257,W,1,08,1.0,9.3,M,-33.4,M,,*5A
$PYRTM,2024,125.833857766609,16.943505176748
$GPGGA,200044.00,3454.2484,N,12154.8229,W,1,08,1.0,9.2,M,-33.4,M,,*59
$PYRTM,2024,125.833869353345,16.943516763484
$GPGGA,200045.00,3454.2486,N,12154.8200,W,1,08,1.0,9.0,M,-33.4,M,,*53
$PYRTM,2024,125.833880913877,16.943528324016
$GPGGA,200046.00,3454.2485,N,12154.8170,W,1,08,1.0,8.8,M,-33.4,M,,*5E
$PYRTM,2024,125.833892500880,16.943539911019
$GPGGA,200047.00,3454.2486,N,12154.8141,W,1,08,1.0,8.5,M,-33.4,M,,*53
$PYRTM,2024,125.833904062465,16.943551472604
$GPGGA,200048.00,3454.2491,N,12154.8113,W,1,08,1.0,8.2,M,-33.4,M,,*5A
$PYRTM,2024,125.833915649988,16.943563060127
$GPGGA,200049.00,3454.2495,N,12154.8085,W,1,08,1.0,8.0,M,-33.4,M,,*53
$PYRTM,2024,125.833927211435,16.943574621574
$GPGGA,200050.00,3454.2497,N,12154.8057,W,1,08,1.0,8.4,M,-33.4,M,,*52
$PYRTM,2024,125.833934617373,16.943582027512
$GPGGA,200051.00,3454.2497,N,12154.8030,W,1,08,1.0,8.7,M,-33.4,M,,*51
$PYRTM,2024,125.833950358762,16.943597768900
$GPGGA,200052.00,3454.2498,N,12154.8002,W,1,08,1.0,8.9,M,-33.4,M,,*52
$PYRTM,2024,125.833961945544,16.943609355683
$GPGGA,200053.00,3454.2501,N,12154.7973,W,1,08,1.0,8.5,M,-33.4,M,,*5E
$PYRTM,2024,125.833969341574,16.943616751713
$GPGGA,200054.00,3454.2503,N,12154.7946,W,1,08,1.0,8.2,M,-33.4,M,,*5A
$PYRTM,2024,125.833985094282,16.943632504421
$GPGGA,200055.00,3454.2503,N,12154.7918,W,1,08,1.0,8.4,M,-33.4,M,,*56
$PYRTM,2024,125.833992490382,16.943639900532
$GPGGA,200056.00,3454.2501,N,12154.7889,W,1,08,1.0,8.7,M,-33.4,M,,*5D
$PYRTM,2024,125.834008245741,16.943655655891
$GPGGA,200057.00,3454.2504,N,12154.7861,W,1,08,1.0,9.0,M,-33.4,M,,*59
$PYRTM,2024,125.834019804132,16.943667214271
$GPGGA,200058.00,3454.2509,N,12154.7832,W,1,08,1.0,9.2,M,-33.4,M,,*5F
$PYRTM,2024,125.834031405590,16.943678815729
$GPGGA,200059.00,3454.2512,N,12154.7804,W,1,08,1.0,9.3,M,-33.4,M,,*50
$PYRTM,2024,125.834038786111,16.943686196250
$GPGGA,200100.00,3454.2510,N,12154.7775,W,1,08,1.0,9.4,M,-33.4,M,,*51
$PYRTM,2024,125.834054543079,16.943701953218
$GPGGA,200101.00,3454.2509,N,12154.7746,W,1,08,1.0,9.0,M,-33.4,M,,*5C
$PYRTM,2024,125.834066102477,16.943713512616
$GPGGA,200102.00,3454.2514,N,12154.7717,W,1,08,1.0,8.5,M,-33.4,M,,*53
$PYRTM,2024,125.834077682396,16.943725092535
$GPGGA,200103.00,3454.2520,N,12154.7689,W,1,08,1.0,8.1,M,-33.4,M,,*57
$PYRTM,2024,125.834089249248,16.943736659387
$GPGGA,200104.00,3454.2522,N,12154.7661,W,1,08,1.0,8.0,M,-33.4,M,,*55
$PYRTM,2024,125.834100836412,16.943748246551
$GPGGA,200105.00,3454.2520,N,12154.7631,W,1,08,1.0,8.5,M,-33.4,M,,*56
$PYRTM,2024,125.834112397083,16.943759807222
$GPGGA,200106.00,3454.2519,N,12154.7602,W,1,08,1.0,8.8,M,-33.4,M,,*52
$PYRTM,2024,125.834123984213,16.943771394352
$GPGGA,200107.00,3454.2523,N,12154.7576,W,1,08,1.0,8.6,M,-33.4,M,,*54
$PYRTM,2024,125.834135545637,16.943782955775
$GPGGA,200108.00,3454.2527,N,12154.7550,W,1,08,1.0,8.3,M,-33.4,M,,*5E
$PYRTM,2024,125.834147132859,16.943794543009
$GPGGA,200109.00,3454.2527,N,12154.7523,W,1,08,1.0,7.9,M,-33.4,M,,*5E
$PYRTM,2024,125.834158695174,16.943806105313
$GPGGA,200110.00,3454.2523,N,12154.7496,W,1,08,1.0,7.8,M,-33.4,M,,*5C
$PYRTM,2024,125.834170284653,16.943817694792
$GPGGA,200111.00,3454.2522,N,12154.7468,W,1,08,1.0,8.1,M,-33.4,M,,*5B
$PYRTM,2024,125.834181842940,16.943829253079
$GPGGA,200112.00,3454.2528,N,12154.7442,W,1,08,1.0,8.6,M,-33.4,M,,*5D
$PYRTM,2024,125.834193432546,16.943840842685
$GPGGA,200113.00,3454.2536,N,12154.7415,W,1,08,1.0,9.1,M,-33.4,M,,*57
$PYRTM,2024,125.834204992639,16.943852402778
$GPGGA,200114.00,3454.2540,N,12154.7386,W,1,08,1.0,9.6,M,-33.4,M,,*5B
$PYRTM,2024,125.834216572801,16.943863982951
$GPGGA,200115.00,3454.2540,N,12154.7355,W,1,08,1.0,9.9,M,-33.4,M,,*5B
$PYRTM,2024,125.834228139560,16.943875549699
$GPGGA,200116.00,3454.2540,N,12154.7327,W,1,08,1.0,10.1,M,-33.4,M,,*6D
$PYRTM,2024,125.834239725810,16.943887135961
$GPGGA,200117.00,3454.2544,N,12154.7300,W,1,08,1.0,9.8,M,-33.4,M,,*5C
$PYRTM,2024,125.834251288090,16.943898698241
$GPGGA,200118.00,3454.2548,N,12154.7273,W,1,08,1.0,9.1,M,-33.4,M,,*53
$PYRTM,2024,125.834262874745,16.943910284884
$GPGGA,200119.00,3454.2547,N,12154.7246,W,1,08,1.0,8.3,M,-33.4,M,,*58
$PYRTM,2024,125.834274435255,16.943921845394
$GPGGA,200120.00,3454.2546,N,12154.7219,W,1,08,1.0,7.6,M,-33.4,M,,*53
$PYRTM,2024,125.834286023854,16.943933433993
$GPGGA,200121.00,3454.2548,N,12154.7192,W,1,08,1.0,7.2,M,-33.4,M,,*58
$PYRTM,2024,125.834297585278,16.943944995417
$GPGGA,200122.00,3454.2552,N,12154.7166,W,1,08,1.0,7.4,M,-33.4,M,,*5D
$PYRTM,2024,125.834309171319,16.943956581458
$GPGGA,200123.00,3454.2555,N,12154.7139,W,1,08,1.0,7.9,M,-33.4,M,,*5C
$PYRTM,2024,125.834320731505,16.943968141655
$GPGGA,200124.00,3454.2556,N,12154.7109,W,1,08,1.0,8.5,M,-33.4,M,,*58
$PYRTM,2024,125.834332314306,16.943979724444
$GPGGA,200125.00,3454.2555,N,12154.7081,W,1,08,1.0,8.8,M,-33.4,M,,*56
$PYRTM,2024,125.834343881667,16.943991291806
$GPGGA,200126.00,3454.2556,N,12154.7052,W,1,08,1.0,9.3,M,-33.4,M,,*52
$PYRTM,2024,125.834351286690,16.943998696829
$GPGGA,200127.00,3454.2558,N,12154.7024,W,1,08,1.0,9.4,M,-33.4,M,,*5B
$PYRTM,2024,125.834367027465,16.944014437604
$GPGGA,200128.00,3454.2559,N,12154.6995,W,1,08,1.0,9.2,M,-33.4,M,,*51
$PYRTM,2024,125.834378625613,16.944026035752
$GPGGA,200129.00,3454.2560,N,12154.6967,W,1,08,1.0,9.2,M,-33.4,M,,*57
$PYRTM,2024,125.834390176076,16.944037586215
$GPGGA,200130.00,3454.2561,N,12154.6942,W,1,08,1.0,9.1,M,-33.4,M,,*5A
$PYRTM,2024,125.834397583322,16.944044993461
$GPGGA,200131.00,3454.2566,N,12154.6916,W,1,08,1.0,8.7,M,-33.4,M,,*5A
$PYRTM,2024,125.834413324815,16.944060734965
$GPGGA,200132.00,3454.2572,N,12154.6890,W,1,08,1.0,8.1,M,-33.4,M,,*55
$PYRTM,2024,125.834424912512,16.944072322650
$GPGGA,200133.00,3454.2574,N,12154.6865,W,1,08,1.0,7.9,M,-33.4,M,,*5F
$PYRTM,2024,125.834436474120,16.944083884259
$GPGGA,200134.00,3454.2571,N,12154.6837,W,1,08,1.0,8.3,M,-33.4,M,,*5F
$PYRTM,2024,125.834448060602,16.944095470741
$GPGGA,200135.00,3454.2567,N,12154.6808,W,1,08,1.0,8.9,M,-33.4,M,,*5F
$PYRTM,2024,125.834459621863,16.944107032014
$GPGGA,200136.00,3454.2571,N,12154.6779,W,1,08,1.0,9.5,M,-33.4,M,,*5F
$PYRTM,2024,125.834471203565,16.944118613704
$GPGGA,200137.00,3454.2579,N,12154.6751,W,1,08,1.0,9.7,M,-33.4,M,,*5E
$PYRTM,2024,125.834482771065,16.944130181204
$GPGGA,200138.00,3454.2583,N,12154.6721,W,1,08,1.0,9.7,M,-33.4,M,,*53
$PYRTM,2024,125.834494359826,16.944141769965
$GPGGA,200139.00,3454.2583,N,12154.6690,W,1,08,1.0,9.8,M,-33.4,M,,*56
$PYRTM,2024,125.834505919051,16.944153329190
$GPGGA,200140.00,3454.2581,N,12154.6661,W,1,08,1.0,9.6,M,-33.4,M,,*5A
$PYRTM,2024,125.834517507870,16.944164918009
$GPGGA,200141.00,3454.2584,N,12154.6632,W,1,08,1.0,9.3,M,-33.4,M,,*5D
$PYRTM,2024,125.834529065579,16.944176475718
$GPGGA,200142.00,3454.2590,N,12154.6605,W,1,08,1.0,8.8,M,-33.4,M,,*55
$PYRTM,2024,125.834540656979,16.944188067118
$GPGGA,200143.00,3454.2595,N,12154.6578,W,1,08,1.0,8.5,M,-33.4,M,,*55
$PYRTM,2024,125.834552216308,16.944199626447
$GPGGA,200144.00,3454.2597,N,12154.6551,W,1,08,1.0,8.5,M,-33.4,M,,*5B
$PYRTM,2024,125.834563801759,16.944211211898
$GPGGA,200145.00,3454.2596,N,12154.6524,W,1,08,1.0,8.8,M,-33.4,M,,*54
$PYRTM,2024,125.834575490556,16.944222900694
$GPGGA,200146.00,3454.2598,N,12154.6496,W,1,08,1.0,9.1,M,-33.4,M,,*59
$PYRTM,2024,125.834587064769,16.944234474907
$GPGGA,200147.00,3454.2603,N,12154.6468,W,1,08,1.0,9.4,M,-33.4,M,,*5D
$PYRTM,2024,125.834598647546,16.944246057685
$GPGGA,200148.00,3454.2607,N,12154.6439,W,1,08,1.0,9.6,M,-33.4,M,,*50
$PYRTM,2024,125.834610213113,16.944257623264
$GPGGA,200149.00,3454.2607,N,12154.6410,W,1,08,1.0,9.8,M,-33.3,M,,*53
$PYRTM,2024,125.834621659167,16.944269069306
$GPGGA,200150.00,3454.2605,N,12154.6381,W,1,08,1.0,9.8,M,-33.3,M,,*56
$PYRTM,2024,125.834633241250,16.944280651389
$GPGGA,200151.00,3454.2606,N,12154.6352,W,1,08,1.0,9.6,M,-33.3,M,,*54
$PYRTM,2024,125.834644808345,16.944292218484
$GPGGA,200152.00,3454.2610,N,12154.6323,W,1,08,1.0,9.2,M,-33.3,M,,*52
$PYRTM,2024,125.834656394352,16.944303804491
$GPGGA,200153.00,3454.2614,N,12154.6294,W,1,08,1.0,8.8,M,-33.3,M,,*51
$PYRTM,2024,125.834667956817,16.944315366956
$GPGGA,200154.00,3454.2615,N,12154.6266,W,1,08,1.0,8.7,M,-33.3,M,,*55
$PYRTM,2024,125.834679546238,16.944326956377
$GPGGA,200155.00,3454.2615,N,12154.6238,W,1,08,1.0,8.9,M,-33.3,M,,*51
$PYRTM,2024,125.834691106644,16.944338516782
$GPGGA,200156.00,3454.2617,N,12154.6209,W,1,08,1.0,9.3,M,-33.3,M,,*59
$PYRTM,2024,125.834702706157,16.944350116296
$GPGGA,200157.00,3454.2622,N,12154.6181,W,1,08,1.0,9.3,M,-33.3,M,,*5D
$PYRTM,2024,125.834710087222,16.944357497361
$GPGGA,200158.00,3454.2625,N,12154.6155,W,1,08,1.0,9.5,M,-33.3,M,,*5A
$PYRTM,2024,125.834728735937,16.944376146076
$GPGGA,200159.00,3454.2623,N,12154.6128,W,1,08,1.0,9.6,M,-33.3,M,,*54
$PYRTM,2024,125.834737400544,16.944384810683
$GPGGA,200200.00,3454.2621,N,12154.6100,W,1,08,1.0,9.6,M,-33.3,M,,*53
$PYRTM,2024,125.834748987454,16.944396397604
$GPGGA,200201.00,3454.2623,N,12154.6072,W,1,08,1.0,9.2,M,-33.3,M,,*50
$PYRTM,2024,125.834756382720,16.944403792859
$GPGGA,200202.00,3454.2628,N,12154.6043,W,1,08,1.0,9.0,M,-33.3,M,,*58
$PYRTM,2024,125.834772131389,16.944419541539
$GPGGA,200203.00,3454.2631,N,12154.6015,W,1,08,1.0,9.1,M,-33.3,M,,*53
$PYRTM,2024,125.834783698067,16.944431108206
$GPGGA,200204.00,3454.2632,N,12154.5986,W,1,08,1.0,9.5,M,-33.3,M,,*53
$PYRTM,2024,125.834795283889,16.944442694028
$GPGGA,200205.00,3454.2634,N,12154.5956,W,1,08,1.0,9.9,M,-33.3,M,,*55
$PYRTM,2024,125.834806847060,16.944454257211
$GPGGA,200206.00,3454.2637,N,12154.5926,W,1,08,1.0,10.0,M,-33.3,M,,*63
$PYRTM,2024,125.834818433102,16.944465843241
$GPGGA,200207.00,3454.2640,N,12154.5898,W,1,08,1.0,9.9,M,-33.3,M,,*57
$PYRTM,2024,125.834829995116,16.944477405255
$GPGGA,200208.00,3454.2643,N,12154.5870,W,1,08,1.0,9.7,M,-33.3,M,,*53
$PYRTM,2024,125.834841584074,16.944488994213
$GPGGA,200209.00,3454.2644,N,12154.5842,W,1,08,1.0,9.2,M,-33.3,M,,*51
$PYRTM,2024,125.834853141551,16.944500551690
$GPGGA,200210.00,3454.2643,N,12154.5813,W,1,08,1.0,8.9,M,-33.3,M,,*50
$PYRTM,2024,125.834864732905,16.944512143044
$GPGGA,200211.00,3454.2642,N,12154.5785,W,1,08,1.0,9.0,M,-33.3,M,,*58
$PYRTM,2024,125.834876291192,16.944523701343
$GPGGA,200212.00,3454.2644,N,12154.5758,W,1,08,1.0,9.2,M,-33.3,M,,*5F
$PYRTM,2024,125.834887876597,16.944535286725
$GPGGA,200213.00,3454.2651,N,12154.5729,W,1,08,1.0,9.3,M,-33.3,M,,*5D
$PYRTM,2024,125.834899440278,16.944546850417
$GPGGA,200214.00,3454.2655,N,12154.5700,W,1,08,1.0,9.2,M,-33.3,M,,*54
$PYRTM,2024,125.834911022442,16.944558432581
$GPGGA,200215.00,3454.2653,N,12154.5670,W,1,08,1.0,9.6,M,-33.3,M,,*51
$PYRTM,2024,125.834922588056,16.944569998194
$GPGGA,200216.00,3454.2649,N,12154.5640,W,1,08,1.0,10.2,M,-33.3,M,,*66
$PYRTM,2024,125.834934174086,16.944581584225
$GPGGA,200217.00,3454.2650,N,12154.5608,W,1,08,1.0,10.3,M,-33.3,M,,*62
$PYRTM,2024,125.834941574259,16.944588984410
$GPGGA,200218.00,3454.2657,N,12154.5578,W,1,08,1.0,10.0,M,-33.3,M,,*6D
$PYRTM,2024,125.834957322292,16.944604732442
$GPGGA,200219.00,3454.2663,N,12154.5550,W,1,08,1.0,9.8,M,-33.3,M,,*51
$PYRTM,2024,125.834968882951,16.944616293090
$GPGGA,200220.00,3454.2664,N,12154.5524,W,1,08,1.0,9.8,M,-33.3,M,,*5F
$PYRTM,2024,125.834976291539,16.944623701678
$GPGGA,200221.00,3454.2662,N,12154.5496,W,1,08,1.0,9.5,M,-33.3,M,,*5D
$PYRTM,2024,125.834992031366,16.944639441505
$GPGGA,200222.00,3454.2661,N,12154.5467,W,1,08,1.0,8.9,M,-33.3,M,,*5E
$PYRTM,2024,125.835003621713,16.944651031852
$GPGGA,200223.00,3454.2664,N,12154.5439,W,1,08,1.0,8.6,M,-33.3,M,,*5E
$PYRTM,2024,125.835011014942,16.944658425081
$GPGGA,200224.00,3454.2669,N,12154.5412,W,1,08,1.0,8.7,M,-33.3,M,,*5C
$PYRTM,2024,125.835026781285,16.944674191424
$GPGGA,200225.00,3454.2671,N,12154.5384,W,1,08,1.0,8.9,M,-33.3,M,,*52
$PYRTM,2024,125.835038328218,16.944685738356
$GPGGA,200226.00,3454.2670,N,12154.5354,W,1,08,1.0,9.2,M,-33.3,M,,*57
$PYRTM,2024,125.835049915266,16.944697325417
$GPGGA,200227.00,3454.2670,N,12154.5324,W,1,08,1.0,9.7,M,-33.3,M,,*54
$PYRTM,2024,125.835061477569,16.944708887708
$GPGGA,200228.00,3454.2672,N,12154.5296,W,1,08,1.0,10.2,M,-33.3,M,,*6C
$PYRTM,2024,125.835068883727,16.944716293866
$GPGGA,200229.00,3454.2677,N,12154.5267,W,1,08,1.0,10.4,M,-33.3,M,,*60
$PYRTM,2024,125.835081056933,16.944728467083
$GPGGA,200230.00,3454.2681,N,12154.5238,W,1,08,1.0,10.1,M,-33.3,M,,*6E
$PYRTM,2024,125.835096210949,16.944743621088
$GPGGA,200231.00,3454.2680,N,12154.5208,W,1,08,1.0,9.4,M,-33.3,M,,*50
$PYRTM,2024,125.835107772512,16.944755182650
$GPGGA,200232.00,3454.2678,N,12154.5179,W,1,08,1.0,9.0,M,-33.3,M,,*55
$PYRTM,2024,125.835115179861,16.944762590000
$GPGGA,200233.00,3454.2679,N,12154.5151,W,1,08,1.0,8.9,M,-33.3,M,,*57
$PYRTM,2024,125.835130922326,16.944778332477
$GPGGA,200234.00,3454.2681,N,12154.5125,W,1,08,1.0,9.2,M,-33.3,M,,*5E
$PYRTM,2024,125.835142508241,16.944789918380
$GPGGA,200235.00,3454.2686,N,12154.5098,W,1,08,1.0,9.3,M,-33.3,M,,*5E
$PYRTM,2024,125.835154069363,16.944801479502
$GPGGA,200236.00,3454.2690,N,12154.5070,W,1,08,1.0,8.8,M,-33.3,M,,*56
$PYRTM,2024,125.835165659711,16.944813069850
$GPGGA,200237.00,3454.2689,N,12154.5042,W,1,08,1.0,8.5,M,-33.3,M,,*53
$PYRTM,2024,125.835177218345,16.944824628484
$GPGGA,200238.00,3454.2686,N,12154.5013,W,1,08,1.0,8.8,M,-33.3,M,,*5A
$PYRTM,2024,125.835188808241,16.944836218380
$GPGGA,200239.00,3454.2687,N,12154.4985,W,1,08,1.0,9.2,M,-33.3,M,,*56
$PYRTM,2024,125.835200366840,16.944847776979
$GPGGA,200240.00,3454.2694,N,12154.4956,W,1,08,1.0,9.4,M,-33.3,M,,*52
$PYRTM,2024,125.835211969919,16.944859380058
$GPGGA,200241.00,3454.2700,N,12154.4927,W,1,08,1.0,9.5,M,-33.3,M,,*58
$PYRTM,2024,125.835219348646,16.944866758785
$GPGGA,200242.00,3454.2701,N,12154.4897,W,1,08,1.0,9.8,M,-33.3,M,,*5D
$PYRTM,2024,125.835235101447,16.944882511586
$GPGGA,200243.00,3454.2701,N,12154.4866,W,1,08,1.0,9.9,M,-33.3,M,,*53
$PYRTM,2024,125.835246662616,16.944894072755
$GPGGA,200244.00,3454.2705,N,12154.4837,W,1,08,1.0,9.8,M,-33.3,M,,*55
$PYRTM,2024,125.835258250069,16.944905660208
$GPGGA,200245.00,3454.2709,N,12154.4808,W,1,08,1.0,9.9,M,-33.3,M,,*55
$PYRTM,2024,125.835269811308,16.944917221447
$GPGGA,200246.00,3454.2711,N,12154.4780,W,1,08,1.0,10.1,M,-33.3,M,,*60
$PYRTM,2024,125.835281394907,16.944928805058
$GPGGA,200247.00,3454.2711,N,12154.4751,W,1,08,1.0,10.1,M,-33.3,M,,*6D
$PYRTM,2024,125.835292960150,16.944940370289
$GPGGA,200248.00,3454.2713,N,12154.4724,W,1,08,1.0,9.8,M,-33.3,M,,*53
$PYRTM,2024,125.835304546875,16.944951957014
$GPGGA,200249.00,3454.2717,N,12154.4697,W,1,08,1.0,9.4,M,-33.3,M,,*53
$PYRTM,2024,125.835316108854,16.944963518993
$GPGGA,200250.00,3454.2720,N,12154.4669,W,1,08,1.0,9.4,M,-33.3,M,,*5E
$PYRTM,2024,125.835327698113,16.944975108252
$GPGGA,200251.00,3454.2722,N,12154.4642,W,1,08,1.0,9.6,M,-33.3,M,,*56
$PYRTM,2024,125.835339256377,16.944986666516
$GPGGA,200252.00,3454.2724,N,12154.4614,W,1,08,1.0,9.9,M,-33.3,M,,*5F
$PYRTM,2024,125.835350846620,16.944998256759
$GPGGA,200253.00,3454.2724,N,12154.4585,W,1,08,1.0,10.3,M,-33.3,M,,*67
$PYRTM,2024,125.835362404815,16.945009814954
$GPGGA,200254.00,3454.2725,N,12154.4555,W,1,08,1.0,10.5,M,-33.3,M,,*6A
$PYRTM,2024,125.835373991586,16.945021401736
$GPGGA,200255.00,3454.2727,N,12154.4525,W,1,08,1.0,10.5,M,-33.3,M,,*6E
$PYRTM,2024,125.835385553194,16.945032963333
$GPGGA,200256.00,3454.2728,N,12154.4496,W,1,08,1.0,10.4,M,-33.3,M,,*6A
$PYRTM,2024,125.835397139931,16.945044550069
$GPGGA,200257.00,3454.2728,N,12154.4467,W,1,08,1.0,10.2,M,-33.3,M,,*63
$PYRTM,2024,125.835408702025,16.945056112164
$GPGGA,200258.00,3454.2730,N,12154.4437,W,1,08,1.0,9.8,M,-33.3,M,,*52
$PYRTM,2024,125.835420284282,16.945067694421
$GPGGA,200259.00,3454.2735,N,12154.4410,W,1,08,1.0,9.5,M,-33.3,M,,*5E
$PYRTM,2024,125.835427694803,16.945075104942
$GPGGA,200300.00,3454.2738,N,12154.4382,W,1,08,1.0,9.5,M,-33.3,M,,*52
$PYRTM,2024,125.835443436852,16.945090846991
$GPGGA,200301.00,3454.2740,N,12154.4353,W,1,08,1.0,9.6,M,-33.3,M,,*53
$PYRTM,2024,125.835454998090,16.945102408229
$GPGGA,200302.00,3454.2740,N,12154.4324,W,1,08,1.0,9.8,M,-33.3,M,,*5E
$PYRTM,2024,125.835466584653,16.945113994803
$GPGGA,200303.00,3454.2741,N,12154.4296,W,1,08,1.0,10.0,M,-33.3,M,,*66
$PYRTM,2024,125.835473980764,16.945121390903
$GPGGA,200304.00,3454.2745,N,12154.4269,W,1,08,1.0,10.2,M,-33.3,M,,*67
$PYRTM,2024,125.835489727454,16.945137137593
$GPGGA,200305.00,3454.2749,N,12154.4241,W,1,08,1.0,10.0,M,-33.3,M,,*62
$PYRTM,2024,125.835497128704,16.945144538843
$GPGGA,200306.00,3454.2751,N,12154.4213,W,1,08,1.0,9.9,M,-33.3,M,,*5E
$PYRTM,2024,125.835512885613,16.945160295752
$GPGGA,200307.00,3454.2751,N,12154.4185,W,1,08,1.0,9.8,M,-33.3,M,,*52
$PYRTM,2024,125.835524441736,16.945171851875
$GPGGA,200308.00,3454.2754,N,12154.4157,W,1,08,1.0,9.8,M,-33.3,M,,*57
$PYRTM,2024,125.835531849097,16.945179259236
$GPGGA,200309.00,3454.2758,N,12154.4129,W,1,08,1.0,10.0,M,-33.3,M,,*63
$PYRTM,2024,125.835547591215,16.945195001354
$GPGGA,200310.00,3454.2760,N,12154.4102,W,1,08,1.0,10.5,M,-33.3,M,,*6C
$PYRTM,2024,125.835559177257,16.945206587396
$GPGGA,200311.00,3454.2762,N,12154.4073,W,1,08,1.0,10.8,M,-33.3,M,,*65
$PYRTM,2024,125.835570740359,16.945218150498
$GPGGA,200312.00,3454.2763,N,12154.4045,W,1,08,1.0,11.0,M,-33.3,M,,*6B
$PYRTM,2024,125.835582325984,16.945229736134
$GPGGA,200313.00,3454.2765,N,12154.4018,W,1,08,1.0,10.7,M,-33.3,M,,*62
$PYRTM,2024,125.835593887315,16.945241297454
$GPGGA,200314.00,3454.2769,N,12154.3991,W,1,08,1.0,10.1,M,-33.3,M,,*60
$PYRTM,2024,125.835605473796,16.945252883935
$GPGGA,200315.00,3454.2770,N,12154.3963,W,1,08,1.0,9.5,M,-33.3,M,,*58
$PYRTM,2024,125.835617037095,16.945264447234
$GPGGA,200316.00,3454.2769,N,12154.3934,W,1,08,1.0,9.2,M,-33.3,M,,*56
$PYRTM,2024,125.835628623009,16.945276033148
$GPGGA,200317.00,3454.2768,N,12154.3905,W,1,08,1.0,9.5,M,-33.3,M,,*53
$PYRTM,2024,125.835640183796,16.945287593947
$GPGGA,200318.00,3454.2769,N,12154.3877,W,1,08,1.0,10.2,M,-33.3,M,,*66
$PYRTM,2024,125.835651797002,16.945299207153
$GPGGA,200319.00,3454.2775,N,12154.3849,W,1,08,1.0,10.9,M,-33.3,M,,*6C
$PYRTM,2024,125.835663330903,16.945310741042
$GPGGA,200320.00,3454.2781,N,12154.3821,W,1,08,1.0,10.9,M,-33.3,M,,*63
$PYRTM,2024,125.835670739641,16.945318149780
$GPGGA,200321.00,3454.2782,N,12154.3792,W,1,08,1.0,11.1,M,-33.3,M,,*6F
$PYRTM,2024,125.835686480799,16.945333890937
$GPGGA,200322.00,3454.2780,N,12154.3762,W,1,08,1.0,10.9,M,-33.3,M,,*68
$PYRTM,2024,125.835698070648,16.945345480787
$GPGGA,200323.00,3454.2781,N,12154.3733,W,1,08,1.0,10.6,M,-33.3,M,,*63
$PYRTM,2024,125.835709628947,16.945357039086
$GPGGA,200324.00,3454.2786,N,12154.3706,W,1,08,1.0,10.6,M,-33.3,M,,*65
$PYRTM,2024,125.835721216968,16.945368627106
$GPGGA,200325.00,3454.2793,N,12154.3678,W,1,08,1.0,10.4,M,-33.3,M,,*6A
$PYRTM,2024,125.835732777396,16.945380187535
$GPGGA,200326.00,3454.2795,N,12154.3650,W,1,08,1.0,10.6,M,-33.3,M,,*67
$PYRTM,2024,125.835744363646,16.945391773785
$GPGGA,200327.00,3454.2793,N,12154.3622,W,1,08,1.0,10.8,M,-33.3,M,,*6B
$PYRTM,2024,125.835755924525,16.945403334676
$GPGGA,200328.00,3454.2792,N,12154.3594,W,1,08,1.0,10.7,M,-33.3,M,,*64
$PYRTM,2024,125.835767512141,16.945414922280
$GPGGA,200329.00,3454.2796,N,12154.3566,W,1,08,1.0,10.2,M,-33.3,M,,*69
$PYRTM,2024,125.835779073958,16.945426484097
$GPGGA,200330.00,3454.2800,N,12154.3540,W,1,08,1.0,9.8,M,-33.3,M,,*57
$PYRTM,2024,125.835786480266,16.945433890417
$GPGGA,200331.00,3454.2800,N,12154.3512,W,1,08,1.0,9.9,M,-33.3,M,,*50
$PYRTM,2024,125.835802221458,16.945449631597
$GPGGA,200332.00,3454.2798,N,12154.3484,W,1,08,1.0,10.1,M,-33.3,M,,*63
$PYRTM,2024,125.835809628981,16.945457039120
$GPGGA,200333.00,3454.2800,N,12154.3456,W,1,08,1.0,10.2,M,-33.3,M,,*60
$PYRTM,2024,125.835825369491,16.945472779641
$GPGGA,200334.00,3454.2802,N,12154.3428,W,1,08,1.0,10.4,M,-33.3,M,,*6A
$PYRTM,2024,125.835832777512,16.945480187650
$GPGGA,200335.00,3454.2804,N,12154.3399,W,1,08,1.0,10.5,M,-33.3,M,,*61
$PYRTM,2024,125.835848517581,16.945495927731
$GPGGA,200336.00,3454.2805,N,12154.3370,W,1,08,1.0,10.8,M,-33.3,M,,*69
$PYRTM,2024,125.835860120058,16.945507530197
$GPGGA,200337.00,3454.2805,N,12154.3342,W,1,08,1.0,10.9,M,-33.3,M,,*68
$PYRTM,2024,125.835871665938,16.945519076076
$GPGGA,200338.00,3454.2807,N,12154.3314,W,1,08,1.0,11.0,M,-33.3,M,,*6E
$PYRTM,2024,125.835883253403,16.945530663542
$GPGGA,200339.00,3454.2809,N,12154.3286,W,1,08,1.0,10.8,M,-33.3,M,,*62
$PYRTM,2024,125.835894814688,16.945542224826
$GPGGA,200340.00,3454.2811,N,12154.3257,W,1,08,1.0,10.8,M,-33.3,M,,*69
$PYRTM,2024,125.835906397407,16.945553807546
$GPGGA,200341.00,3454.2812,N,12154.3230,W,1,08,1.0,11.0,M,-33.3,M,,*63
$PYRTM,2024,125.835917963218,16.945565373356
$GPGGA,200342.00,3454.2815,N,12154.3202,W,1,08,1.0,11.0,M,-33.3,M,,*66
$PYRTM,2024,125.835929550162,16.945576960313
$GPGGA,200343.00,3454.2820,N,12154.3176,W,1,08,1.0,10.8,M,-33.3,M,,*68
$PYRTM,2024,125.835941111088,16.945588521227
$GPGGA,200344.00,3454.2824,N,12154.3148,W,1,08,1.0,10.6,M,-33.3,M,,*68
$PYRTM,2024,125.835948518368,16.945595928507
$GPGGA,200345.00,3454.2825,N,12154.3119,W,1,08,1.0,10.5,M,-33.3,M,,*6F
$PYRTM,2024,125.835964259352,16.945611669491
$GPGGA,200346.00,3454.2825,N,12154.3089,W,1,08,1.0,10.4,M,-33.3,M,,*65
$PYRTM,2024,125.835975845509,16.945623255648
$GPGGA,200347.00,3454.2827,N,12154.3060,W,1,08,1.0,10.8,M,-33.3,M,,*6D
$PYRTM,2024,125.835987546262,16.945634956400
$GPGGA,200348.00,3454.2831,N,12154.3031,W,1,08,1.0,11.3,M,-33.3,M,,*6B
$PYRTM,2024,125.835999110451,16.945646520602
$GPGGA,200349.00,3454.2836,N,12154.3003,W,1,08,1.0,11.4,M,-33.3,M,,*6B
$PYRTM,2024,125.836010683796,16.945658093935
$GPGGA,200350.00,3454.2838,N,12154.2973,W,1,08,1.0,11.1,M,-33.3,M,,*67
$PYRTM,2024,125.836022253218,16.945669663356
$GPGGA,200351.00,3454.2837,N,12154.2944,W,1,08,1.0,10.8,M,-33.3,M,,*65
$PYRTM,2024,125.836033843843,16.945681253981
$GPGGA,200352.00,3454.2837,N,12154.2917,W,1,08,1.0,10.8,M,-33.3,M,,*60
$PYRTM,2024,125.836045406944,16.945692817083
$GPGGA,200353.00,3454.2839,N,12154.2890,W,1,08,1.0,10.8,M,-33.3,M,,*61
$PYRTM,2024,125.836056979329,16.945704389468
$GPGGA,200354.00,3454.2842,N,12154.2864,W,1,08,1.0,10.7,M,-33.3,M,,*6E
$PYRTM,2024,125.836068439861,16.945715850012
$GPGGA,200355.00,3454.2844,N,12154.2836,W,1,08,1.0,10.6,M,-33.3,M,,*6F
$PYRTM,2024,125.836080001296,16.945727411435
$GPGGA,200356.00,3454.2844,N,12154.2807,W,1,08,1.0,10.7,M,-33.3,M,,*6F
$PYRTM,2024,125.836087407535,16.945734817674
$GPGGA,200357.00,3454.2844,N,12154.2777,W,1,08,1.0,11.1,M,-33.3,M,,*61
$PYRTM,2024,125.836103149560,16.945750559699
$GPGGA,200358.00,3454.2846,N,12154.2746,W,1,08,1.0,11.5,M,-33.3,M,,*6A
$PYRTM,2024,125.836114730694,16.945762140833
$GPGGA,200359.00,3454.2849,N,12154.2715,W,1,08,1.0,11.7,M,-33.3,M,,*60
$PYRTM,2024,125.836122131655,16.945769541794
$GPGGA,200400.00,3454.2854,N,12154.2684,W,1,08,1.0,11.7,M,-33.3,M,,*6E
$PYRTM,2024,125.836137884340,16.945785294479
$GPGGA,200401.00,3454.2856,N,12154.2654,W,1,08,1.0,11.7,M,-33.3,M,,*60
$PYRTM,2024,125.836145280347,16.945792690498
$GPGGA,200402.00,3454.2854,N,12154.2626,W,1,08,1.0,11.4,M,-33.3,M,,*67
$PYRTM,2024,125.836163921586,16.945811331736
$GPGGA,200403.00,3454.2856,N,12154.2598,W,1,08,1.0,11.0,M,-33.3,M,,*66
$PYRTM,2024,125.836172594074,16.945820004213
$GPGGA,200404.00,3454.2861,N,12154.2572,W,1,08,1.0,10.4,M,-33.3,M,,*64
$PYRTM,2024,125.836184183657,16.945831593796
$GPGGA,200405.00,3454.2863,N,12154.2545,W,1,08,1.0,10.2,M,-33.3,M,,*65
$PYRTM,2024,125.836191575775,16.945838985914
$GPGGA,200406.00,3454.2863,N,12154.2518,W,1,08,1.0,10.4,M,-33.3,M,,*68
$PYRTM,2024,125.836207329282,16.945854739421
$GPGGA,200407.00,3454.2865,N,12154.2491,W,1,08,1.0,10.5,M,-33.3,M,,*6E
$PYRTM,2024,125.836218890752,16.945866300891
$GPGGA,200408.00,3454.2868,N,12154.2463,W,1,08,1.0,10.6,M,-33.3,M,,*62
$PYRTM,2024,125.836230478206,16.945877888345
$GPGGA,200409.00,3454.2870,N,12154.2435,W,1,08,1.0,10.7,M,-33.3,M,,*68
$PYRTM,2024,125.836242038993,16.945889449132
$GPGGA,200410.00,3454.2872,N,12154.2404,W,1,08,1.0,10.7,M,-33.3,M,,*60
$PYRTM,2024,125.836253633981,16.945901044132
$GPGGA,200411.00,3454.2873,N,12154.2373,W,1,08,1.0,10.7,M,-33.3,M,,*67
$PYRTM,2024,125.836261022500,16.945908432639
$GPGGA,200412.00,3454.2874,N,12154.2342,W,1,08,1.0,10.9,M,-33.3,M,,*6F
$PYRTM,2024,125.836276768819,16.945924178958
$GPGGA,200413.00,3454.2875,N,12154.2313,W,1,08,1.0,11.4,M,-33.3,M,,*67
$PYRTM,2024,125.836288335567,16.945935745706
$GPGGA,200414.00,3454.2878,N,12154.2284,W,1,08,1.0,11.6,M,-33.3,M,,*60
$PYRTM,2024,125.836299921875,16.945947332014
$GPGGA,200415.00,3454.2880,N,12154.2257,W,1,08,1.0,11.3,M,-33.3,M,,*6D
$PYRTM,2024,125.836311484664,16.945958894803
$GPGGA,200416.00,3454.2882,N,12154.2230,W,1,08,1.0,10.6,M,-33.3,M,,*69
$PYRTM,2024,125.836323073391,16.945970483530
$GPGGA,200417.00,3454.2883,N,12154.2202,W,1,08,1.0,9.9,M,-33.3,M,,*5F
$PYRTM,2024,125.836334632847,16.945982042986
$GPGGA,200418.00,3454.2883,N,12154.2175,W,1,08,1.0,9.7,M,-33.3,M,,*5D
$PYRTM,2024,125.836346222581,16.945993632720
$GPGGA,200419.00,3454.2883,N,12154.2147,W,1,08,1.0,10.0,M,-33.3,M,,*62
$PYRTM,2024,125.836357780648,16.946005190799
$GPGGA,200420.00,3454.2885,N,12154.2119,W,1,08,1.0,10.6,M,-33.3,M,,*63
$PYRTM,2024,125.836369370648,16.946016780787
$GPGGA,200421.00,3454.2888,N,12154.2090,W,1,08,1.0,11.1,M,-33.3,M,,*69
$PYRTM,2024,125.836380929884,16.946028340023
$GPGGA,200422.00,3454.2890,N,12154.2059,W,1,08,1.0,11.3,M,-33.3,M,,*64
$PYRTM,2024,125.836392515926,16.946039926076
$GPGGA,200423.00,3454.2892,N,12154.2028,W,1,08,1.0,11.3,M,-33.3,M,,*61
$PYRTM,2024,125.836399928600,16.946047338750
$GPGGA,200424.00,3454.2892,N,12154.1998,W,1,08,1.0,11.3,M,-33.3,M,,*67
$PYRTM,2024,125.836415664363,16.946063074502
$GPGGA,200425.00,3454.2894,N,12154.1970,W,1,08,1.0,10.9,M,-33.3,M,,*6D
$PYRTM,2024,125.836427224201,16.946074634352
$GPGGA,200426.00,3454.2897,N,12154.1942,W,1,08,1.0,10.3,M,-33.3,M,,*66
$PYRTM,2024,125.836438811470,16.946086221609
$GPGGA,200427.00,3454.2900,N,12154.1915,W,1,08,1.0,9.8,M,-33.3,M,,*59
$PYRTM,2024,125.836450372674,16.946097782824
$GPGGA,200428.00,3454.2898,N,12154.1888,W,1,08,1.0,9.7,M,-33.3,M,,*5C
$PYRTM,2024,125.836461961690,16.946109371829
$GPGGA,200429.00,3454.2897,N,12154.1860,W,1,08,1.0,10.3,M,-33.3,M,,*68
$PYRTM,2024,125.836473523067,16.946120933206
$GPGGA,200430.00,3454.2899,N,12154.1832,W,1,08,1.0,11.0,M,-33.3,M,,*6B
$PYRTM,2024,125.836485108183,16.946132518322
$GPGGA,200431.00,3454.2904,N,12154.1805,W,1,08,1.0,11.5,M,-33.3,M,,*6E
$PYRTM,2024,125.836496668102,16.946144078241
$GPGGA,200432.00,3454.2909,N,12154.1776,W,1,08,1.0,11.7,M,-33.3,M,,*69
$PYRTM,2024,125.836504076887,16.946151487025
$GPGGA,200433.00,3454.2908,N,12154.1745,W,1,08,1.0,11.3,M,-33.3,M,,*6D
$PYRTM,2024,125.836519817060,16.946167227199
$GPGGA,200434.00,3454.2906,N,12154.1715,W,1,08,1.0,11.1,M,-33.3,M,,*63
$PYRTM,2024,125.836531404248,16.946178814387
$GPGGA,200435.00,3454.2907,N,12154.1684,W,1,08,1.0,10.5,M,-33.3,M,,*6F
$PYRTM,2024,125.836542969016,16.946190379155
$GPGGA,200436.00,3454.2910,N,12154.1654,W,1,08,1.0,10.2,M,-33.3,M,,*60
$PYRTM,2024,125.836550372222,16.946197782361
$GPGGA,200437.00,3454.2912,N,12154.1625,W,1,08,1.0,10.4,M,-33.3,M,,*63
$PYRTM,2024,125.836566114815,16.946213524954
$GPGGA,200438.00,3454.2914,N,12154.1597,W,1,08,1.0,10.7,M,-33.3,M,,*63
$PYRTM,2024,125.836577696366,16.946225106505
$GPGGA,200439.00,3454.2918,N,12154.1568,W,1,08,1.0,10.6,M,-33.3,M,,*6F
$PYRTM,2024,125.836589263113,16.946236673252
$GPGGA,200440.00,3454.2919,N,12154.1539,W,1,08,1.0,10.4,M,-33.3,M,,*66
$PYRTM,2024,125.836600851065,16.946248261204
$GPGGA,200441.00,3454.2917,N,12154.1511,W,1,08,1.0,10.4,M,-33.3,M,,*63
$PYRTM,2024,125.836612410775,16.946259820914
$GPGGA,200442.00,3454.2916,N,12154.1483,W,1,08,1.0,10.5,M,-33.3,M,,*6A
$PYRTM,2024,125.836623997616,16.946271407755
$GPGGA,200443.00,3454.2920,N,12154.1457,W,1,08,1.0,10.3,M,-33.3,M,,*61
$PYRTM,2024,125.836635558391,16.946282968519
$GPGGA,200444.00,3454.2926,N,12154.1432,W,1,08,1.0,10.0,M,-33.3,M,,*60
$PYRTM,2024,125.836647149259,16.946294559398
$GPGGA,200445.00,3454.2928,N,12154.1405,W,1,08,1.0,9.8,M,-33.3,M,,*5B
$PYRTM,2024,125.836658707581,16.946306117720
$GPGGA,200446.00,3454.2926,N,12154.1375,W,1,08,1.0,9.9,M,-33.3,M,,*57
$PYRTM,2024,125.836670310069,16.946317720208
$GPGGA,200447.00,3454.2925,N,12154.1344,W,1,08,1.0,10.5,M,-33.3,M,,*63
$PYRTM,2024,125.836681857604,16.946329267743
$GPGGA,200448.00,3454.2929,N,12154.1316,W,1,08,1.0,11.5,M,-33.3,M,,*66
$PYRTM,2024,125.836693445625,16.946340855764
$GPGGA,200449.00,3454.2938,N,12154.1287,W,1,08,1.0,11.8,M,-33.3,M,,*63
$PYRTM,2024,125.836705003299,16.946352413437
$GPGGA,200450.00,3454.2943,N,12154.1257,W,1,08,1.0,11.7,M,-33.3,M,,*65
$PYRTM,2024,125.836716591238,16.946364001377
$GPGGA,200451.00,3454.2942,N,12154.1227,W,1,08,1.0,11.4,M,-33.3,M,,*61
$PYRTM,2024,125.836728152847,16.946375562986
$GPGGA,200452.00,3454.2938,N,12154.1197,W,1,08,1.0,10.9,M,-33.3,M,,*6B
$PYRTM,2024,125.836739739248,16.946387149387
$GPGGA,200453.00,3454.2938,N,12154.1169,W,1,08,1.0,10.4,M,-33.3,M,,*66
$PYRTM,2024,125.836751300498,16.946398710637
$GPGGA,200454.00,3454.2942,N,12154.1142,W,1,08,1.0,10.3,M,-33.3,M,,*62
$PYRTM,2024,125.836762888229,16.946410298368
$GPGGA,200455.00,3454.2947,N,12154.1116,W,1,08,1.0,10.2,M,-33.3,M,,*66
$PYRTM,2024,125.836774448356,16.946421858495
$GPGGA,200456.00,3454.2948,N,12154.1090,W,1,08,1.0,10.2,M,-33.3,M,,*65
$PYRTM,2024,125.836786034919,16.946433445058
$GPGGA,200457.00,3454.2946,N,12154.1062,W,1,08,1.0,10.4,M,-33.3,M,,*61
$PYRTM,2024,125.836797597187,16.946445007326
$GPGGA,200458.00,3454.2946,N,12154.1033,W,1,08,1.0,10.7,M,-33.3,M,,*69
$PYRTM,2024,125.836809199803,16.946456609942
$GPGGA,200459.00,3454.2950,N,12154.1005,W,1,08,1.0,11.0,M,-33.3,M,,*6C
$PYRTM,2024,125.836816578935,16.946463989086
$GPGGA,200500.00,3454.2954,N,12154.0976,W,1,08,1.0,11.2,M,-33.3,M,,*6B
$PYRTM,2024,125.836832333275,16.946479743414
$GPGGA,200501.00,3454.2955,N,12154.0946,W,1,08,1.0,11.2,M,-33.3,M,,*68
$PYRTM,2024,125.836843892859,16.946491302998
$GPGGA,200502.00,3454.2954,N,12154.0915,W,1,08,1.0,11.3,M,-33.3,M,,*6D
$PYRTM,2024,125.836855480671,16.946502890810
$GPGGA,200503.00,3454.2955,N,12154.0885,W,1,08,1.0,11.4,M,-33.3,M,,*62
$PYRTM,2024,125.836862876146,16.946510286285
$GPGGA,200504.00,3454.2959,N,12154.0858,W,1,08,1.0,11.4,M,-33.3,M,,*69
$PYRTM,2024,125.836878629421,16.946526039560
$GPGGA,200505.00,3454.2965,N,12154.0831,W,1,08,1.0,11.3,M,-33.3,M,,*6F
$PYRTM,2024,125.836890189549,16.946537599687
$GPGGA,200506.00,3454.2967,N,12154.0805,W,1,08,1.0,10.7,M,-33.3,M,,*6C
$PYRTM,2024,125.836901792454,16.946549202593
$GPGGA,200507.00,3454.2968,N,12154.0777,W,1,08,1.0,10.0,M,-33.3,M,,*6F
$PYRTM,2024,125.836909170625,16.946556580764
$GPGGA,200508.00,3454.2968,N,12154.0749,W,1,08,1.0,9.6,M,-33.3,M,,*53
$PYRTM,2024,125.836924940440,16.946572350579
$GPGGA,200509.00,3454.2969,N,12154.0722,W,1,08,1.0,10.1,M,-33.3,M,,*61
$PYRTM,2024,125.836936486157,16.946583896296
$GPGGA,200510.00,3454.2971,N,12154.0693,W,1,08,1.0,11.0,M,-33.3,M,,*6B
$PYRTM,2024,125.836948069132,16.946595479271
$GPGGA,200511.00,3454.2977,N,12154.0662,W,1,08,1.0,11.8,M,-33.3,M,,*6A
$PYRTM,2024,125.836959635880,16.946607046030
$GPGGA,200512.00,3454.2980,N,12154.0632,W,1,08,1.0,12.2,M,-33.3,M,,*6D
$PYRTM,2024,125.836971222130,16.946618632269
$GPGGA,200513.00,3454.2979,N,12154.0601,W,1,08,1.0,12.5,M,-33.3,M,,*6D
$PYRTM,2024,125.836982783519,16.946630193657
$GPGGA,200514.00,3454.2977,N,12154.0571,W,1,08,1.0,12.5,M,-33.3,M,,*60
$PYRTM,2024,125.836994371736,16.946641781887
$GPGGA,200515.00,3454.2979,N,12154.0542,W,1,08,1.0,11.5,M,-33.3,M,,*6C
$PYRTM,2024,125.837005931655,16.946653341794
$GPGGA,200516.00,3454.2981,N,12154.0514,W,1,08,1.0,10.8,M,-33.3,M,,*67
$PYRTM,2024,125.837017520313,16.946664930451
$GPGGA,200517.00,3454.2982,N,12154.0487,W,1,08,1.0,10.5,M,-33.3,M,,*63
$PYRTM,2024,125.837029080069,16.946676490220
$GPGGA,200518.00,3454.2982,N,12154.0459,W,1,08,1.0,10.6,M,-33.3,M,,*6C
$PYRTM,2024,125.837040662257,16.946688072396
$GPGGA,200519.00,3454.2984,N,12154.0430,W,1,08,1.0,10.6,M,-33.3,M,,*64
$PYRTM,2024,125.837052228009,16.946699638148
$GPGGA,200520.00,3454.2988,N,12154.0403,W,1,08,1.0,10.8,M,-33.3,M,,*6C
$PYRTM,2024,125.837063818137,16.946711228275
$GPGGA,200521.00,3454.2990,N,12154.0376,W,1,08,1.0,11.2,M,-33.3,M,,*6A
$PYRTM,2024,125.837075375845,16.946722785995
$GPGGA,200522.00,3454.2992,N,12154.0347,W,1,08,1.0,11.4,M,-33.3,M,,*6F
$PYRTM,2024,125.837086958380,16.946734368519
$GPGGA,200523.00,3454.2994,N,12154.0317,W,1,08,1.0,11.3,M,-33.3,M,,*6A
$PYRTM,2024,125.837098769444,16.946746179595
$GPGGA,200524.00,3454.2993,N,12154.0286,W,1,08,1.0,11.2,M,-33.3,M,,*62
$PYRTM,2024,125.837110112326,16.946757522465
$GPGGA,200525.00,3454.2994,N,12154.0256,W,1,08,1.0,11.4,M,-33.3,M,,*6F
$PYRTM,2024,125.837121673264,16.946769083403
$GPGGA,200526.00,3454.2996,N,12154.0226,W,1,08,1.0,11.7,M,-33.3,M,,*6A
$PYRTM,2024,125.837129081030,16.946776491181
$GPGGA,200527.00,3454.3001,N,12154.0198,W,1,08,1.0,11.9,M,-33.3,M,,*65
$PYRTM,2024,125.837144821759,16.946792231898
$GPGGA,200528.00,3454.3005,N,12154.0169,W,1,08,1.0,11.8,M,-33.3,M,,*61
$PYRTM,2024,125.837152228229,16.946799638368
$GPGGA,200529.00,3454.3007,N,12154.0141,W,1,08,1.0,11.6,M,-33.3,M,,*66
$PYRTM,2024,125.837163917477,16.946811327616
$GPGGA,200530.00,3454.3005,N,12154.0112,W,1,08,1.0,11.5,M,-33.3,M,,*69
$PYRTM,2024,125.837179551343,16.946826961481
$GPGGA,200531.00,3454.3003,N,12154.0083,W,1,08,1.0,11.7,M,-33.3,M,,*65
$PYRTM,2024,125.837186951597,16.946834361736
$GPGGA,200532.00,3454.3007,N,12154.0056,W,1,08,1.0,12.0,M,-33.3,M,,*6E
$PYRTM,2024,125.837198652454,16.946846062593
$GPGGA,200533.00,3454.3014,N,12154.0029,W,1,08,1.0,11.9,M,-33.3,M,,*6F
$PYRTM,2024,125.837214267558,16.946861677708
$GPGGA,200534.00,3454.3018,N,12154.0001,W,1,08,1.0,11.7,M,-33.3,M,,*60
$PYRTM,2024,125.837221677928,16.946869088067
$GPGGA,200535.00,3454.3016,N,12153.9971,W,1,08,1.0,11.5,M,-33.3,M,,*6D
$PYRTM,2024,125.837237415556,16.946884825706
$GPGGA,200536.00,3454.3013,N,12153.9942,W,1,08,1.0,11.4,M,-33.3,M,,*6A
$PYRTM,2024,125.837249005405,16.946896415544
$GPGGA,200537.00,3454.3013,N,12153.9913,W,1,08,1.0,11.5,M,-33.3,M,,*6E
$PYRTM,2024,125.837260563287,16.946907973437
$GPGGA,200538.00,3454.3018,N,12153.9884,W,1,08,1.0,11.5,M,-33.3,M,,*65
$PYRTM,2024,125.837267970810,16.946915380949
$GPGGA,200539.00,3454.3022,N,12153.9856,W,1,08,1.0,11.6,M,-33.3,M,,*61
$PYRTM,2024,125.837283710637,16.946931120775
$GPGGA,200540.00,3454.3023,N,12153.9828,W,1,08,1.0,11.8,M,-33.3,M,,*69
$PYRTM,2024,125.837295300417,16.946942710567
$GPGGA,200541.00,3454.3021,N,12153.9800,W,1,08,1.0,11.8,M,-33.3,M,,*60
$PYRTM,2024,125.837306861713,16.946954271852
$GPGGA,200542.00,3454.3021,N,12153.9771,W,1,08,1.0,11.7,M,-33.3,M,,*65
$PYRTM,2024,125.837318446076,16.946965856215
$GPGGA,200543.00,3454.3025,N,12153.9741,W,1,08,1.0,11.4,M,-33.3,M,,*60
$PYRTM,2024,125.837330007824,16.946977417963
$GPGGA,200544.00,3454.3031,N,12153.9713,W,1,08,1.0,11.4,M,-33.3,M,,*65
$PYRTM,2024,125.837337414838,16.946984824977
$GPGGA,200545.00,3454.3035,N,12153.9685,W,1,08,1.0,11.7,M,-33.3,M,,*6D
$PYRTM,2024,125.837353157847,16.947000567986
$GPGGA,200546.00,3454.3034,N,12153.9656,W,1,08,1.0,12.0,M,-33.3,M,,*65
$PYRTM,2024,125.837364744688,16.947012154826
$GPGGA,200547.00,3454.3032,N,12153.9626,W,1,08,1.0,12.3,M,-33.3,M,,*66
$PYRTM,2024,125.837376304931,16.947023715069
$GPGGA,200548.00,3454.3035,N,12153.9597,W,1,08,1.0,12.4,M,-33.3,M,,*60
$PYRTM,2024,125.837387894155,16.947035304294
$GPGGA,200549.00,3454.3042,N,12153.9569,W,1,08,1.0,12.3,M,-33.3,M,,*67
$PYRTM,2024,125.837399580880,16.947046991019
$GPGGA,200550.00,3454.3047,N,12153.9540,W,1,08,1.0,12.2,M,-33.3,M,,*60
$PYRTM,2024,125.837411155810,16.947058565961
$GPGGA,200551.00,3454.3046,N,12153.9511,W,1,08,1.0,12.1,M,-33.3,M,,*67
$PYRTM,2024,125.837422728993,16.947070139132
$GPGGA,200552.00,3454.3044,N,12153.9481,W,1,08,1.0,11.8,M,-33.3,M,,*64
$PYRTM,2024,125.837434303206,16.947081713345
$GPGGA,200553.00,3454.3045,N,12153.9452,W,1,08,1.0,11.4,M,-33.3,M,,*66
$PYRTM,2024,125.837445887940,16.947093298079
$GPGGA,200554.00,3454.3049,N,12153.9423,W,1,08,1.0,11.1,M,-33.3,M,,*6E
$PYRTM,2024,125.837457450382,16.947104860521
$GPGGA,200555.00,3454.3053,N,12153.9396,W,1,08,1.0,11.1,M,-33.3,M,,*6D
$PYRTM,2024,125.837469033414,16.947116443553
$GPGGA,200556.00,3454.3054,N,12153.9368,W,1,08,1.0,11.3,M,-33.3,M,,*6A
$PYRTM,2024,125.837480599838,16.947128009977
$GPGGA,200557.00,3454.3053,N,12153.9340,W,1,08,1.0,11.1,M,-33.3,M,,*64
$PYRTM,2024,125.837492181771,16.947139591910
$GPGGA,200558.00,3454.3052,N,12153.9311,W,1,08,1.0,11.0,M,-33.3,M,,*6F
$PYRTM,2024,125.837503633507,16.947151043657
$GPGGA,200559.00,3454.3054,N,12153.9281,W,1,08,1.0,11.0,M,-33.3,M,,*60
$PYRTM,2024,125.837515195359,16.947162605498
$GPGGA,200600.00,3454.3057,N,12153.9251,W,1,08,1.0,11.2,M,-33.3,M,,*63
$PYRTM,2024,125.837526777685,16.947174187836
$GPGGA,200601.00,3454.3060,N,12153.9223,W,1,08,1.0,11.5,M,-33.3,M,,*64
$PYRTM,2024,125.837538344294,16.947185754433
$GPGGA,200602.00,3454.3062,N,12153.9193,W,1,08,1.0,11.7,M,-33.3,M,,*6F
$PYRTM,2024,125.837549930116,16.947197340255
$GPGGA,200603.00,3454.3064,N,12153.9163,W,1,08,1.0,11.7,M,-33.3,M,,*67
$PYRTM,2024,125.837561491076,16.947208901215
$GPGGA,200604.00,3454.3064,N,12153.9134,W,1,08,1.0,11.7,M,-33.3,M,,*62
$PYRTM,2024,125.837573080648,16.947220490787
$GPGGA,200605.00,3454.3066,N,12153.9105,W,1,08,1.0,11.7,M,-33.3,M,,*63
$PYRTM,2024,125.837580472373,16.947227882512
$GPGGA,200606.00,3454.3068,N,12153.9075,W,1,08,1.0,11.5,M,-33.3,M,,*6A
$PYRTM,2024,125.837599120023,16.947246530162
$GPGGA,200607.00,3454.3072,N,12153.9045,W,1,08,1.0,11.4,M,-33.3,M,,*62
$PYRTM,2024,125.837607787072,16.947255197211
$GPGGA,200608.00,3454.3076,N,12153.9015,W,1,08,1.0,11.5,M,-33.3,M,,*6D
$PYRTM,2024,125.837619374560,16.947266784699
$GPGGA,200609.00,3454.3077,N,12153.8986,W,1,08,1.0,11.6,M,-33.3,M,,*6C
$PYRTM,2024,125.837626781875,16.947274192014
$GPGGA,200610.00,3454.3078,N,12153.8957,W,1,08,1.0,11.7,M,-33.3,M,,*66
$PYRTM,2024,125.837642523056,16.947289933194
$GPGGA,200611.00,3454.3078,N,12153.8927,W,1,08,1.0,11.5,M,-33.3,M,,*62
$PYRTM,2024,125.837654083345,16.947301493495
$GPGGA,200612.00,3454.3079,N,12153.8897,W,1,08,1.0,11.3,M,-33.3,M,,*6C
$PYRTM,2024,125.837665670324,16.947313080463
$GPGGA,200613.00,3454.3081,N,12153.8868,W,1,08,1.0,11.3,M,-33.3,M,,*6A
$PYRTM,2024,125.837677231192,16.947324641331
$GPGGA,200614.00,3454.3085,N,12153.8839,W,1,08,1.0,11.1,M,-33.3,M,,*6F
$PYRTM,2024,125.837688819201,16.947336229352
$GPGGA,200615.00,3454.3087,N,12153.8810,W,1,08,1.0,10.9,M,-33.3,M,,*6E
$PYRTM,2024,125.837700381806,16.947347791944
$GPGGA,200616.00,3454.3088,N,12153.8781,W,1,08,1.0,10.9,M,-33.3,M,,*65
$PYRTM,2024,125.837711971053,16.947359381192
$GPGGA,200617.00,3454.3089,N,12153.8751,W,1,08,1.0,11.0,M,-33.3,M,,*60
$PYRTM,2024,125.837723527766,16.947370937917
$GPGGA,200618.00,3454.3091,N,12153.8723,W,1,08,1.0,11.4,M,-33.3,M,,*67
$PYRTM,2024,125.837735121435,16.947382531574
$GPGGA,200619.00,3454.3094,N,12153.8696,W,1,08,1.0,11.8,M,-33.3,M,,*60
$PYRTM,2024,125.837746677095,16.947394087245
$GPGGA,200620.00,3454.3096,N,12153.8667,W,1,08,1.0,11.8,M,-33.3,M,,*66
$PYRTM,2024,125.837758266493,16.947405676632
$GPGGA,200621.00,3454.3097,N,12153.8638,W,1,08,1.0,11.5,M,-33.3,M,,*61
$PYRTM,2024,125.837769825093,16.947417235243
$GPGGA,200622.00,3454.3097,N,12153.8607,W,1,08,1.0,11.1,M,-33.3,M,,*6A
$PYRTM,2024,125.837781406562,16.947428816701
$GPGGA,200623.00,3454.3098,N,12153.8577,W,1,08,1.0,11.2,M,-33.3,M,,*63
$PYRTM,2024,125.837792972847,16.947440382998
$GPGGA,200624.00,3454.3100,N,12153.8548,W,1,08,1.0,11.6,M,-33.3,M,,*6C
$PYRTM,2024,125.837804561123,16.947451971262
$GPGGA,200625.00,3454.3105,N,12153.8518,W,1,08,1.0,11.5,M,-33.3,M,,*6E
$PYRTM,2024,125.837816121863,16.947463532002
$GPGGA,200626.00,3454.3110,N,12153.8489,W,1,08,1.0,11.3,M,-33.3,M,,*66
$PYRTM,2024,125.837827708715,16.947475118866
$GPGGA,200627.00,3454.3109,N,12153.8460,W,1,08,1.0,11.2,M,-33.3,M,,*69
$PYRTM,2024,125.837839271505,16.947486681644
$GPGGA,200628.00,3454.3107,N,12153.8430,W,1,08,1.0,11.1,M,-33.3,M,,*6E
$PYRTM,2024,125.837850857060,16.947498267199
$GPGGA,200629.00,3454.3109,N,12153.8399,W,1,08,1.0,10.9,M,-33.3,M,,*6C
$PYRTM,2024,125.837862419282,16.947509829421
$GPGGA,200630.00,3454.3113,N,12153.8370,W,1,08,1.0,10.9,M,-33.3,M,,*68
$PYRTM,2024,125.837874004896,16.947521415035
$GPGGA,200631.00,3454.3116,N,12153.8342,W,1,08,1.0,11.3,M,-33.3,M,,*66
$PYRTM,2024,125.837885566979,16.947532977118
$GPGGA,200632.00,3454.3117,N,12153.8313,W,1,08,1.0,11.7,M,-33.3,M,,*64
$PYRTM,2024,125.837892974572,16.947540384711
$GPGGA,200633.00,3454.3118,N,12153.8283,W,1,08,1.0,11.5,M,-33.3,M,,*60
$PYRTM,2024,125.837908714097,16.947556124236
$GPGGA,200634.00,3454.3120,N,12153.8254,W,1,08,1.0,11.2,M,-33.3,M,,*61
$PYRTM,2024,125.837920305012,16.947567715150
$GPGGA,200635.00,3454.3120,N,12153.8225,W,1,08,1.0,11.0,M,-33.3,M,,*64
$PYRTM,2024,125.837927696053,16.947575106192
$GPGGA,200636.00,3454.3120,N,12153.8197,W,1,08,1.0,11.2,M,-33.3,M,,*6F
$PYRTM,2024,125.837939385312,16.947586795451
$GPGGA,200637.00,3454.3123,N,12153.8168,W,1,08,1.0,11.4,M,-33.3,M,,*6B
$PYRTM,2024,125.837955011644,16.947602421782
$GPGGA,200638.00,3454.3126,N,12153.8140,W,1,08,1.0,11.0,M,-33.3,M,,*6F
$PYRTM,2024,125.837962418079,16.947609828218
$GPGGA,200639.00,3454.3128,N,12153.8113,W,1,08,1.0,10.7,M,-33.3,M,,*60
$PYRTM,2024,125.837978161007,16.947625571146
$GPGGA,200640.00,3454.3128,N,12153.8084,W,1,08,1.0,10.7,M,-33.3,M,,*61
$PYRTM,2024,125.837985567199,16.947632977338
$GPGGA,200641.00,3454.3128,N,12153.8055,W,1,08,1.0,10.8,M,-33.3,M,,*63
$PYRTM,2024,125.838004221863,16.947651632002
$GPGGA,200642.00,3454.3130,N,12153.8025,W,1,08,1.0,11.3,M,-33.3,M,,*64
$PYRTM,2024,125.838015788241,16.947663198380
$GPGGA,200643.00,3454.3133,N,12153.7995,W,1,08,1.0,11.8,M,-33.3,M,,*60
$PYRTM,2024,125.838024456528,16.947671866678
$GPGGA,200644.00,3454.3136,N,12153.7965,W,1,08,1.0,12.1,M,-33.3,M,,*67
$PYRTM,2024,125.838036043762,16.947683453900
$GPGGA,200645.00,3454.3138,N,12153.7935,W,1,08,1.0,12.3,M,-33.3,M,,*6F
$PYRTM,2024,125.838047604676,16.947695014815
$GPGGA,200646.00,3454.3138,N,12153.7905,W,1,08,1.0,12.0,M,-33.3,M,,*6C
$PYRTM,2024,125.838059193947,16.947706604086
$GPGGA,200647.00,3454.3139,N,12153.7876,W,1,08,1.0,11.4,M,-33.3,M,,*6E
$PYRTM,2024,125.838070752419,16.947718162558
$GPGGA,200648.00,3454.3141,N,12153.7847,W,1,08,1.0,10.7,M,-33.3,M,,*6E
$PYRTM,2024,125.838082342257,16.947729752396
$GPGGA,200649.00,3454.3144,N,12153.7819,W,1,08,1.0,10.4,M,-33.3,M,,*62
$PYRTM,2024,125.838093901296,16.947741311435
$GPGGA,200650.00,3454.3146,N,12153.7791,W,1,08,1.0,10.5,M,-33.3,M,,*66
$PYRTM,2024,125.838105487755,16.947752897894
$GPGGA,200651.00,3454.3147,N,12153.7763,W,1,08,1.0,10.6,M,-33.3,M,,*68
$PYRTM,2024,125.838117049086,16.947764459225
$GPGGA,200652.00,3454.3149,N,12153.7734,W,1,08,1.0,10.7,M,-33.3,M,,*66
$PYRTM,2024,125.838128636042,16.947776046181
$GPGGA,200653.00,3454.3150,N,12153.7705,W,1,08,1.0,11.0,M,-33.3,M,,*6B
$PYRTM,2024,125.838140197488,16.947787607627
$GPGGA,200654.00,3454.3152,N,12153.7676,W,1,08,1.0,11.3,M,-33.3,M,,*68
$PYRTM,2024,125.838151783819,16.947799193958
$GPGGA,200655.00,3454.3153,N,12153.7645,W,1,08,1.0,11.4,M,-33.3,M,,*6F
$PYRTM,2024,125.838163345023,16.947810755174
$GPGGA,200656.00,3454.3154,N,12153.7615,W,1,08,1.0,11.2,M,-33.3,M,,*68
$PYRTM,2024,125.838174933137,16.947822343275
$GPGGA,200657.00,3454.3156,N,12153.7586,W,1,08,1.0,11.0,M,-33.3,M,,*60
$PYRTM,2024,125.838186493993,16.947833904132
$GPGGA,200658.00,3454.3160,N,12153.7557,W,1,08,1.0,11.0,M,-33.3,M,,*66
$PYRTM,2024,125.838198081412,16.947845491551
$GPGGA,200659.00,3454.3162,N,12153.7529,W,1,08,1.0,10.9,M,-33.3,M,,*64
$PYRTM,2024,125.838209642789,16.947857052928
$GPGGA,200700.00,3454.3164,N,12153.7499,W,1,08,1.0,10.8,M,-33.3,M,,*64
$PYRTM,2024,125.838221225185,16.947868635336
$GPGGA,200701.00,3454.3166,N,12153.7469,W,1,08,1.0,10.8,M,-33.3,M,,*68
$PYRTM,2024,125.838232791181,16.947880201319
$GPGGA,200702.00,3454.3168,N,12153.7440,W,1,08,1.0,11.0,M,-33.3,M,,*67
$PYRTM,2024,125.838244380718,16.947891790856
$GPGGA,200703.00,3454.3170,N,12153.7411,W,1,08,1.0,11.3,M,-33.3,M,,*68
$PYRTM,2024,125.838255937917,16.947903348056
$GPGGA,200704.00,3454.3173,N,12153.7383,W,1,08,1.0,11.5,M,-33.3,M,,*66
$PYRTM,2024,125.838267525914,16.947914936053
$GPGGA,200705.00,3454.3175,N,12153.7354,W,1,08,1.0,11.4,M,-33.3,M,,*6A
$PYRTM,2024,125.838274935764,16.947922345903
$GPGGA,200706.00,3454.3176,N,12153.7326,W,1,08,1.0,10.9,M,-33.3,M,,*63
$PYRTM,2024,125.838290673553,16.947938083704
$GPGGA,200707.00,3454.3175,N,12153.7298,W,1,08,1.0,10.5,M,-33.3,M,,*69
$PYRTM,2024,125.838302234838,16.947949644977
$GPGGA,200708.00,3454.3174,N,12153.7270,W,1,08,1.0,10.6,M,-33.3,M,,*62
$PYRTM,2024,125.838309642731,16.947957052882
$GPGGA,200709.00,3454.3174,N,12153.7242,W,1,08,1.0,11.0,M,-33.3,M,,*65
$PYRTM,2024,125.838325381887,16.947972792025
$GPGGA,200710.00,3454.3179,N,12153.7212,W,1,08,1.0,11.1,M,-33.3,M,,*64
$PYRTM,2024,125.838336971852,16.947984381991
$GPGGA,200711.00,3454.3185,N,12153.7183,W,1,08,1.0,11.0,M,-33.3,M,,*6C
$PYRTM,2024,125.838344364769,16.947991774919
$GPGGA,200712.00,3454.3190,N,12153.7154,W,1,08,1.0,10.9,M,-33.3,M,,*69
$PYRTM,2024,125.838360119618,16.948007529757
$GPGGA,200713.00,3454.3189,N,12153.7123,W,1,08,1.0,11.3,M,-33.3,M,,*6B
$PYRTM,2024,125.838371679792,16.948019089931
$GPGGA,200714.00,3454.3186,N,12153.7091,W,1,08,1.0,11.5,M,-33.3,M,,*6D
$PYRTM,2024,125.838383281493,16.948030691644
$GPGGA,200715.00,3454.3187,N,12153.7061,W,1,08,1.0,11.6,M,-33.3,M,,*61
$PYRTM,2024,125.838394828009,16.948042238148
$GPGGA,200716.00,3454.3192,N,12153.7031,W,1,08,1.0,11.6,M,-33.3,M,,*63
$PYRTM,2024,125.838406418090,16.948053828241
$GPGGA,200717.00,3454.3198,N,12153.7004,W,1,08,1.0,11.5,M,-33.3,M,,*6D
$PYRTM,2024,125.838413810185,16.948061220336
$GPGGA,200718.00,3454.3201,N,12153.6975,W,1,08,1.0,11.0,M,-33.3,M,,*6A
$PYRTM,2024,125.838425500938,16.948072911076
$GPGGA,200719.00,3454.3200,N,12153.6946,W,1,08,1.0,10.5,M,-33.3,M,,*6E
$PYRTM,2024,125.838441124664,16.948088534803
$GPGGA,200720.00,3454.3199,N,12153.6916,W,1,08,1.0,10.2,M,-33.3,M,,*65
$PYRTM,2024,125.838452713171,16.948100123310
$GPGGA,200721.00,3454.3201,N,12153.6886,W,1,08,1.0,10.3,M,-33.3,M,,*6F
$PYRTM,2024,125.838460122199,16.948107532350
$GPGGA,200722.00,3454.3203,N,12153.6857,W,1,08,1.0,10.8,M,-33.3,M,,*69
$PYRTM,2024,125.838475861586,16.948123271736
$GPGGA,200723.00,3454.3206,N,12153.6827,W,1,08,1.0,11.2,M,-33.3,M,,*61
$PYRTM,2024,125.838487421377,16.948134831516
$GPGGA,200724.00,3454.3208,N,12153.6797,W,1,08,1.0,11.0,M,-33.3,M,,*6E
$PYRTM,2024,125.838499009931,16.948146420081
$GPGGA,200725.00,3454.3209,N,12153.6767,W,1,08,1.0,10.8,M,-33.3,M,,*68
$PYRTM,2024,125.838510570301,16.948157980440
$GPGGA,200726.00,3454.3210,N,12153.6739,W,1,08,1.0,10.8,M,-33.3,M,,*68
$PYRTM,2024,125.838522157650,16.948169567789
$GPGGA,200727.00,3454.3211,N,12153.6710,W,1,08,1.0,10.8,M,-33.3,M,,*63
$PYRTM,2024,125.838533718160,16.948181128299
$GPGGA,200728.00,3454.3212,N,12153.6681,W,1,08,1.0,10.8,M,-33.3,M,,*66
$PYRTM,2024,125.838545299780,16.948192709919
$GPGGA,200729.00,3454.3213,N,12153.6655,W,1,08,1.0,10.9,M,-33.3,M,,*6E
$PYRTM,2024,125.838556868299,16.948204278438
$GPGGA,200730.00,3454.3215,N,12153.6628,W,1,08,1.0,11.0,M,-33.3,M,,*62
$PYRTM,2024,125.838564274201,16.948211684352
$GPGGA,200731.00,3454.3219,N,12153.6599,W,1,08,1.0,10.7,M,-33.3,M,,*60
$PYRTM,2024,125.838580014051,16.948227424190
$GPGGA,200732.00,3454.3223,N,12153.6569,W,1,08,1.0,10.1,M,-33.3,M,,*63
$PYRTM,2024,125.838591602176,16.948239012315
$GPGGA,200733.00,3454.3222,N,12153.6539,W,1,08,1.0,10.2,M,-33.3,M,,*65
$PYRTM,2024,125.838599010266,16.948246420417
$GPGGA,200734.00,3454.3219,N,12153.6509,W,1,08,1.0,10.6,M,-33.3,M,,*6D
$PYRTM,2024,125.838614745069,16.948262155208
$GPGGA,200735.00,3454.3221,N,12153.6479,W,1,08,1.0,11.0,M,-33.3,M,,*66
$PYRTM,2024,125.838626312720,16.948273722859
$GPGGA,200736.00,3454.3226,N,12153.6448,W,1,08,1.0,11.2,M,-33.3,M,,*62
$PYRTM,2024,125.838637901539,16.948285311678
$GPGGA,200737.00,3454.3232,N,12153.6419,W,1,08,1.0,11.0,M,-33.3,M,,*60
$PYRTM,2024,125.838649459248,16.948296869387
$GPGGA,200738.00,3454.3232,N,12153.6392,W,1,08,1.0,10.8,M,-33.3,M,,*62
$PYRTM,2024,125.838661046123,16.948308456262
$GPGGA,200739.00,3454.3230,N,12153.6363,W,1,08,1.0,10.5,M,-33.3,M,,*62
$PYRTM,2024,125.838675539120,16.948322949259
$GPGGA,200740.00,3454.3229,N,12153.6333,W,1,08,1.0,10.0,M,-33.3,M,,*64
$PYRTM,2024,125.838687088252,16.948334498391
$GPGGA,200741.00,3454.3233,N,12153.6306,W,1,08,1.0,10.1,M,-33.3,M,,*69
$PYRTM,2024,125.838695757431,16.948343167581
$GPGGA,200742.00,3454.3239,N,12153.6279,W,1,08,1.0,10.2,M,-33.3,M,,*6A
$PYRTM,2024,125.838703163704,16.948350573843
$GPGGA,200743.00,3454.3243,N,12153.6250,W,1,08,1.0,10.5,M,-33.3,M,,*6A
$PYRTM,2024,125.838718904988,16.948366315127
$GPGGA,200744.00,3454.3243,N,12153.6221,W,1,08,1.0,10.5,M,-33.3,M,,*6B
$PYRTM,2024,125.838730495613,16.948377905752
$GPGGA,200745.00,3454.3242,N,12153.6190,W,1,08,1.0,10.6,M,-33.3,M,,*61
$PYRTM,2024,125.838742052280,16.948389462419
$GPGGA,200746.00,3454.3243,N,12153.6161,W,1,08,1.0,10.8,M,-33.3,M,,*63
$PYRTM,2024,125.838753643218,16.948401053368
$GPGGA,200747.00,3454.3246,N,12153.6132,W,1,08,1.0,10.9,M,-33.3,M,,*60
$PYRTM,2024,125.838765201736,16.948412611875
$GPGGA,200748.00,3454.3252,N,12153.6104,W,1,08,1.0,10.8,M,-33.3,M,,*6E
$PYRTM,2024,125.838776788206,16.948424198345
$GPGGA,200749.00,3454.3256,N,12153.6076,W,1,08,1.0,10.4,M,-33.3,M,,*63
$PYRTM,2024,125.838788349248,16.948435759387
$GPGGA,200750.00,3454.3256,N,12153.6048,W,1,08,1.0,10.2,M,-33.3,M,,*60
$PYRTM,2024,125.838799936840,16.948447346979
$GPGGA,200751.00,3454.3255,N,12153.6019,W,1,08,1.0,10.0,M,-33.3,M,,*64
$PYRTM,2024,125.838811497928,16.948458908067
$GPGGA,200752.00,3454.3257,N,12153.5989,W,1,08,1.0,10.0,M,-33.3,M,,*66
$PYRTM,2024,125.838823084340,16.948470494479
$GPGGA,200753.00,3454.3259,N,12153.5960,W,1,08,1.0,10.3,M,-33.3,M,,*6D
$PYRTM,2024,125.838834648727,16.948482058866
$GPGGA,200754.00,3454.3262,N,12153.5932,W,1,08,1.0,10.7,M,-33.3,M,,*61
$PYRTM,2024,125.838842053657,16.948489463796
$GPGGA,200755.00,3454.3265,N,12153.5903,W,1,08,1.0,10.9,M,-33.3,M,,*6B
$PYRTM,2024,125.838857793912,16.948505204051
$GPGGA,200756.00,3454.3266,N,12153.5872,W,1,08,1.0,10.6,M,-33.3,M,,*63
$PYRTM,2024,125.838869383657,16.948516793808
$GPGGA,200757.00,3454.3267,N,12153.5843,W,1,08,1.0,10.4,M,-33.3,M,,*63
$PYRTM,2024,125.838876776389,16.948524186528
$GPGGA,200758.00,3454.3268,N,12153.5814,W,1,08,1.0,10.4,M,-33.3,M,,*61
$PYRTM,2024,125.838892532824,16.948539942963
$GPGGA,200759.00,3454.3272,N,12153.5786,W,1,08,1.0,10.4,M,-33.3,M,,*6F
$PYRTM,2024,125.838904090463,16.948551500602
$GPGGA,200800.00,3454.3276,N,12153.5758,W,1,08,1.0,10.4,M,-33.3,M,,*6B
$PYRTM,2024,125.838911498588,16.948558908727
$GPGGA,200801.00,3454.3276,N,12153.5730,W,1,08,1.0,10.5,M,-33.3,M,,*65
$PYRTM,2024,125.838927354317,16.948574764456
$GPGGA,200802.00,3454.3277,N,12153.5702,W,1,08,1.0,10.5,M,-33.3,M,,*66
$PYRTM,2024,125.838938936586,16.948586346725
$GPGGA,200803.00,3454.3280,N,12153.5672,W,1,08,1.0,10.3,M,-33.3,M,,*6F
$PYRTM,2024,125.838946237905,16.948593648044
$GPGGA,200804.00,3454.3283,N,12153.5643,W,1,08,1.0,10.4,M,-33.3,M,,*6E
$PYRTM,2024,125.838961973333,16.948609383472
$GPGGA,200805.00,3454.3284,N,12153.5614,W,1,08,1.0,10.7,M,-33.3,M,,*69
$PYRTM,2024,125.838973536470,16.948620946620
$GPGGA,200806.00,3454.3284,N,12153.5584,W,1,08,1.0,10.9,M,-33.3,M,,*6E
$PYRTM,2024,125.838980943056,16.948628353194
$GPGGA,200807.00,3454.3288,N,12153.5554,W,1,08,1.0,10.7,M,-33.3,M,,*60
$PYRTM,2024,125.838996683808,16.948644093947
$GPGGA,200808.00,3454.3291,N,12153.5524,W,1,08,1.0,10.8,M,-33.3,M,,*6F
$PYRTM,2024,125.839008270370,16.948655680509
$GPGGA,200809.00,3454.3292,N,12153.5496,W,1,08,1.0,10.5,M,-33.3,M,,*68
$PYRTM,2024,125.839015667083,16.948663077222
$GPGGA,200810.00,3454.3291,N,12153.5468,W,1,08,1.0,10.5,M,-33.3,M,,*62
$PYRTM,2024,125.839027354086,16.948674764225
$GPGGA,200811.00,3454.3293,N,12153.5441,W,1,08,1.0,10.4,M,-33.3,M,,*6B
$PYRTM,2024,125.839045873530,16.948693283669
$GPGGA,200812.00,3454.3297,N,12153.5413,W,1,08,1.0,10.0,M,-33.3,M,,*6F
$PYRTM,2024,125.839057462998,16.948704873137
$GPGGA,200813.00,3454.3302,N,12153.5384,W,1,08,1.0,9.8,M,-33.3,M,,*5A
$PYRTM,2024,125.839069022789,16.948716432928
$GPGGA,200814.00,3454.3304,N,12153.5355,W,1,08,1.0,10.0,M,-33.3,M,,*67
$PYRTM,2024,125.839080611956,16.948728022095
$GPGGA,200815.00,3454.3304,N,12153.5325,W,1,08,1.0,10.5,M,-33.3,M,,*64
$PYRTM,2024,125.839094614560,16.948742024699
$GPGGA,200816.00,3454.3305,N,12153.5294,W,1,08,1.0,11.0,M,-33.3,M,,*69
$PYRTM,2024,125.839100866435,16.948748276574
$GPGGA,200817.00,3454.3308,N,12153.5265,W,1,08,1.0,11.4,M,-33.3,M,,*6F
$PYRTM,2024,125.839112424757,16.948759834896
$GPGGA,200818.00,3454.3313,N,12153.5235,W,1,08,1.0,11.3,M,-33.3,M,,*68
$PYRTM,2024,125.839119832222,16.948767242361
$GPGGA,200819.00,3454.3315,N,12153.5206,W,1,08,1.0,10.8,M,-33.3,M,,*65
$PYRTM,2024,125.839135574294,16.948782984444
$GPGGA,200820.00,3454.3315,N,12153.5178,W,1,08,1.0,10.5,M,-33.3,M,,*68
$PYRTM,2024,125.839147160486,16.948794570625
$GPGGA,200821.00,3454.3316,N,12153.5150,W,1,08,1.0,10.4,M,-33.3,M,,*61
$PYRTM,2024,125.839158722546,16.948806132685
$GPGGA,200822.00,3454.3318,N,12153.5123,W,1,08,1.0,10.4,M,-33.3,M,,*68
$PYRTM,2024,125.839170309074,16.948817719213
$GPGGA,200823.00,3454.3321,N,12153.5095,W,1,08,1.0,10.4,M,-33.3,M,,*6F
$PYRTM,2024,125.839181871875,16.948829282014
$GPGGA,200824.00,3454.3323,N,12153.5066,W,1,08,1.0,10.5,M,-33.3,M,,*67
$PYRTM,2024,125.839189276979,16.948836687118
$GPGGA,200825.00,3454.3322,N,12153.5038,W,1,08,1.0,10.8,M,-33.3,M,,*61
$PYRTM,2024,125.839205017905,16.948852428044
$GPGGA,200826.00,3454.3322,N,12153.5008,W,1,08,1.0,10.9,M,-33.3,M,,*60
$PYRTM,2024,125.839216609097,16.948864019248
$GPGGA,200827.00,3454.3325,N,12153.4978,W,1,08,1.0,10.7,M,-33.3,M,,*67
$PYRTM,2024,125.839228166493,16.948875576632
$GPGGA,200828.00,3454.3329,N,12153.4949,W,1,08,1.0,10.6,M,-33.3,M,,*67
$PYRTM,2024,125.839239757106,16.948887167257
$GPGGA,200829.00,3454.3330,N,12153.4921,W,1,08,1.0,10.9,M,-33.3,M,,*6F
$PYRTM,2024,125.839251314213,16.948898724363
$GPGGA,200830.00,3454.3329,N,12153.4892,W,1,08,1.0,10.9,M,-33.3,M,,*66
$PYRTM,2024,125.839262902731,16.948910312870
$GPGGA,200831.00,3454.3331,N,12153.4863,W,1,08,1.0,10.8,M,-33.3,M,,*61
$PYRTM,2024,125.839274462940,16.948921873079
$GPGGA,200832.00,3454.3333,N,12153.4834,W,1,08,1.0,10.7,M,-33.3,M,,*6D
$PYRTM,2024,125.839286050486,16.948933460625
$GPGGA,200833.00,3454.3336,N,12153.4806,W,1,08,1.0,10.8,M,-33.3,M,,*67
$PYRTM,2024,125.839293456991,16.948940867130
$GPGGA,200834.00,3454.3340,N,12153.4779,W,1,08,1.0,10.9,M,-33.3,M,,*67
$PYRTM,2024,125.839309199583,16.948956609722
$GPGGA,200835.00,3454.3341,N,12153.4751,W,1,08,1.0,11.0,M,-33.3,M,,*65
$PYRTM,2024,125.839320761481,16.948968171620
$GPGGA,200836.00,3454.3340,N,12153.4723,W,1,08,1.0,11.0,M,-33.3,M,,*62
$PYRTM,2024,125.839332346991,16.948979757130
