$PYRTM,2024,124.083336930093,15.192984340231
$GPGGA,015959.00,3459.3321,N,12130.1511,W,1,08,1.0,11.9,M,-32.8,M,,*66
$PYRTM,2024,124.083348518437,15.192995928576
$GPGGA,020000.00,3459.3333,N,12130.1508,W,1,08,1.0,12.6,M,-32.8,M,,*62
$PYRTM,2024,124.083360078044,15.193007488183
$GPGGA,020001.00,3459.3346,N,12130.1504,W,1,08,1.0,13.3,M,-32.8,M,,*69
$PYRTM,2024,124.083371654641,15.193019064780
$GPGGA,020002.00,3459.3362,N,12130.1505,W,1,08,1.0,13.1,M,-32.8,M,,*6F
$PYRTM,2024,124.083383226840,15.193030636979
$GPGGA,020003.00,3459.3378,N,12130.1514,W,1,08,1.0,12.1,M,-32.8,M,,*64
$PYRTM,2024,124.083394799954,15.193042210093
$GPGGA,020004.00,3459.3394,N,12130.1527,W,1,08,1.0,11.2,M,-32.8,M,,*61
$PYRTM,2024,124.083406369572,15.193053779711
$GPGGA,020005.00,3459.3411,N,12130.1532,W,1,08,1.0,10.9,M,-32.8,M,,*64
$PYRTM,2024,124.083417948067,15.193065358206
$GPGGA,020006.00,3459.3426,N,12130.1528,W,1,08,1.0,11.3,M,-32.8,M,,*63
$PYRTM,2024,124.083425350370,15.193072760509
$GPGGA,020007.00,3459.3441,N,12130.1525,W,1,08,1.0,11.4,M,-32.8,M,,*69
$PYRTM,2024,124.083443992303,15.193091402442
$GPGGA,020008.00,3459.3457,N,12130.1532,W,1,08,1.0,10.8,M,-32.8,M,,*6A
$PYRTM,2024,124.083452672176,15.193100082315
$GPGGA,020009.00,3459.3470,N,12130.1540,W,1,08,1.0,10.2,M,-32.8,M,,*61
$PYRTM,2024,124.083460066146,15.193107476285
$GPGGA,020010.00,3459.3480,N,12130.1542,W,1,08,1.0,10.3,M,-32.8,M,,*65
$PYRTM,2024,124.083475818854,15.193123228993
$GPGGA,020011.00,3459.3490,N,12130.1542,W,1,08,1.0,10.8,M,-32.8,M,,*6E
$PYRTM,2024,124.083487401123,15.193134811273
$GPGGA,020012.00,3459.3503,N,12130.1544,W,1,08,1.0,10.8,M,-32.8,M,,*60
$PYRTM,2024,124.083498967569,15.193146377708
$GPGGA,020013.00,3459.3520,N,12130.1546,W,1,08,1.0,10.3,M,-32.8,M,,*69
$PYRTM,2024,124.083510550197,15.193157960336
$GPGGA,020014.00,3459.3535,N,12130.1549,W,1,08,1.0,9.9,M,-32.8,M,,*57
$PYRTM,2024,124.083522115486,15.193169525625
$GPGGA,020015.00,3459.3546,N,12130.1553,W,1,08,1.0,10.6,M,-32.8,M,,*6E
$PYRTM,2024,124.083533715775,15.193181125914
$GPGGA,020016.00,3459.3553,N,12130.1555,W,1,08,1.0,11.8,M,-32.8,M,,*60
$PYRTM,2024,124.083541099606,15.193188509745
$GPGGA,020017.00,3459.3564,N,12130.1552,W,1,08,1.0,12.4,M,-32.8,M,,*6D
$PYRTM,2024,124.083556837894,15.193204248032
$GPGGA,020018.00,3459.3578,N,12130.1552,W,1,08,1.0,11.9,M,-32.8,M,,*61
$PYRTM,2024,124.083568412593,15.193215822731
$GPGGA,020019.00,3459.3593,N,12130.1559,W,1,08,1.0,11.1,M,-32.8,M,,*66
$PYRTM,2024,124.083579986644,15.193227396782
$GPGGA,020020.00,3459.3602,N,12130.1568,W,1,08,1.0,11.3,M,-32.8,M,,*67
$PYRTM,2024,124.083591560694,15.193238970833
$GPGGA,020021.00,3459.3612,N,12130.1567,W,1,08,1.0,12.4,M,-32.8,M,,*6C
$PYRTM,2024,124.083603135313,15.193250545451
$GPGGA,020022.00,3459.3627,N,12130.1564,W,1,08,1.0,12.9,M,-32.8,M,,*67
$PYRTM,2024,124.083610541782,15.193257951933
$GPGGA,020023.00,3459.3645,N,12130.1566,W,1,08,1.0,12.4,M,-32.8,M,,*6D
$PYRTM,2024,124.083626295359,15.193273705498
$GPGGA,020024.00,3459.3657,N,12130.1574,W,1,08,1.0,12.0,M,-32.8,M,,*6E
$PYRTM,2024,124.083637852685,15.193285262824
$GPGGA,020025.00,3459.3666,N,12130.1581,W,1,08,1.0,12.3,M,-32.8,M,,*64
$PYRTM,2024,124.083649438553,15.193296848692
$GPGGA,020026.00,3459.3678,N,12130.1584,W,1,08,1.0,12.4,M,-32.8,M,,*6A
$PYRTM,2024,124.083661000104,15.193308410243
$GPGGA,020027.00,3459.3694,N,12130.1586,W,1,08,1.0,12.0,M,-32.8,M,,*6F
$PYRTM,2024,124.083672587037,15.193319997176
$GPGGA,020028.00,3459.3708,N,12130.1589,W,1,08,1.0,11.6,M,-32.8,M,,*6E
$PYRTM,2024,124.083684154803,15.193331564942
$GPGGA,020029.00,3459.3719,N,12130.1592,W,1,08,1.0,12.2,M,-32.8,M,,*62
$PYRTM,2024,124.083695740012,15.193343150150
$GPGGA,020030.00,3459.3729,N,12130.1594,W,1,08,1.0,13.1,M,-32.8,M,,*6D
$PYRTM,2024,124.083707303090,15.193354713229
$GPGGA,020031.00,3459.3740,N,12130.1594,W,1,08,1.0,13.5,M,-32.8,M,,*67
$PYRTM,2024,124.083718875694,15.193366285833
$GPGGA,020032.00,3459.3752,N,12130.1598,W,1,08,1.0,12.9,M,-32.8,M,,*66
$PYRTM,2024,124.083726286863,15.193373697002
$GPGGA,020033.00,3459.3765,N,12130.1606,W,1,08,1.0,12.0,M,-32.8,M,,*6E
$PYRTM,2024,124.083742023252,15.193389433391
$GPGGA,020034.00,3459.3775,N,12130.1608,W,1,08,1.0,12.5,M,-32.8,M,,*63
$PYRTM,2024,124.083753599583,15.193401009722
$GPGGA,020035.00,3459.3785,N,12130.1606,W,1,08,1.0,13.5,M,-32.8,M,,*62
$PYRTM,2024,124.083765184109,15.193412594259
$GPGGA,020036.00,3459.3800,N,12130.1605,W,1,08,1.0,13.7,M,-32.8,M,,*62
$PYRTM,2024,124.083776742292,15.193424152431
$GPGGA,020037.00,3459.3816,N,12130.1611,W,1,08,1.0,12.7,M,-32.8,M,,*60
$PYRTM,2024,124.083784141169,15.193431551308
$GPGGA,020038.00,3459.3830,N,12130.1622,W,1,08,1.0,11.9,M,-32.8,M,,*66
$PYRTM,2024,124.083802789248,15.193450199387
$GPGGA,020039.00,3459.3840,N,12130.1629,W,1,08,1.0,12.0,M,-32.8,M,,*61
$PYRTM,2024,124.083811469271,15.193458879410
$GPGGA,020040.00,3459.3852,N,12130.1627,W,1,08,1.0,12.5,M,-32.8,M,,*67
$PYRTM,2024,124.083823046134,15.193470456273
$GPGGA,020041.00,3459.3867,N,12130.1624,W,1,08,1.0,12.1,M,-32.8,M,,*67
$PYRTM,2024,124.083830439213,15.193477849352
$GPGGA,020042.00,3459.3882,N,12130.1628,W,1,09,0.8,11.5,M,-32.8,M,,*6C
$PYRTM,2024,124.083846191782,15.193493601921
$GPGGA,020043.00,3459.3891,N,12130.1637,W,1,09,0.8,11.7,M,-32.8,M,,*63
$PYRTM,2024,124.083857774248,15.193505184387
$GPGGA,020044.00,3459.3900,N,12130.1643,W,1,09,0.8,12.1,M,-32.8,M,,*6B
$PYRTM,2024,124.083865169803,15.193512579942
$GPGGA,020045.00,3459.3913,N,12130.1644,W,1,09,0.8,12.1,M,-32.8,M,,*6F
$PYRTM,2024,124.083880914769,15.193528324907
$GPGGA,020046.00,3459.3927,N,12130.1643,W,1,09,0.8,11.9,M,-32.8,M,,*67
$PYRTM,2024,124.083892489340,15.193539899491
$GPGGA,020047.00,3459.3938,N,12130.1645,W,1,09,0.8,12.0,M,-32.8,M,,*64
$PYRTM,2024,124.083904062743,15.193551472882
$GPGGA,020048.00,3459.3949,N,12130.1650,W,1,09,0.8,12.0,M,-32.8,M,,*69
$PYRTM,2024,124.083911472326,15.193558882465
$GPGGA,020049.00,3459.3961,N,12130.1656,W,1,09,0.8,11.7,M,-32.8,M,,*60
$PYRTM,2024,124.083927221146,15.193574631285
$GPGGA,020050.00,3459.3973,N,12130.1662,W,1,09,0.8,11.4,M,-32.8,M,,*6F
$PYRTM,2024,124.083938785000,15.193586195139
$GPGGA,020051.00,3459.3984,N,12130.1664,W,1,09,0.8,11.7,M,-32.8,M,,*63
$PYRTM,2024,124.083950369861,15.193597780000
$GPGGA,020052.00,3459.3997,N,12130.1664,W,1,09,0.8,12.0,M,-32.8,M,,*66
$PYRTM,2024,124.083961929340,15.193609339468
$GPGGA,020053.00,3459.4011,N,12130.1666,W,1,09,0.8,12.1,M,-32.8,M,,*64
$PYRTM,2024,124.083973531169,15.193620941308
$GPGGA,020054.00,3459.4024,N,12130.1671,W,1,09,0.8,11.9,M,-32.8,M,,*68
$PYRTM,2024,124.083985081644,15.193632491771
$GPGGA,020055.00,3459.4035,N,12130.1676,W,1,09,0.8,12.0,M,-32.8,M,,*64
$PYRTM,2024,124.083996663912,15.193644074051
$GPGGA,020056.00,3459.4048,N,12130.1681,W,1,09,0.8,11.9,M,-32.8,M,,*6F
$PYRTM,2024,124.084008230845,15.193655640984
$GPGGA,020057.00,3459.4060,N,12130.1686,W,1,09,0.8,11.8,M,-32.8,M,,*62
$PYRTM,2024,124.084019805347,15.193667215486
$GPGGA,020058.00,3459.4072,N,12130.1689,W,1,09,0.8,12.0,M,-32.8,M,,*6A
$PYRTM,2024,124.084031379815,15.193678789965
$GPGGA,020059.00,3459.4085,N,12130.1691,W,1,09,0.8,12.1,M,-32.8,M,,*6B
$PYRTM,2024,124.084042952813,15.193690362951
$GPGGA,020100.00,3459.4102,N,12130.1697,W,1,09,0.8,11.4,M,-32.8,M,,*68
$PYRTM,2024,124.084054528542,15.193701938681
$GPGGA,020101.00,3459.4116,N,12130.1703,W,1,09,0.8,11.0,M,-32.8,M,,*64
$PYRTM,2024,124.084066100301,15.193713510440
$GPGGA,020102.00,3459.4125,N,12130.1708,W,1,08,1.0,11.4,M,-32.8,M,,*60
$PYRTM,2024,124.084077678993,15.193725089132
$GPGGA,020103.00,3459.4134,N,12130.1710,W,1,08,1.0,12.0,M,-32.8,M,,*6F
$PYRTM,2024,124.084089236319,15.193736646458
$GPGGA,020104.00,3459.4149,N,12130.1712,W,1,08,1.0,11.8,M,-32.8,M,,*6B
$PYRTM,2024,124.084100838345,15.193748248484
$GPGGA,020105.00,3459.4165,N,12130.1717,W,1,08,1.0,11.0,M,-32.8,M,,*69
$PYRTM,2024,124.084112385231,15.193759795370
$GPGGA,020106.00,3459.4175,N,12130.1722,W,1,08,1.0,11.1,M,-32.8,M,,*6C
$PYRTM,2024,124.084123972442,15.193771382581
$GPGGA,020107.00,3459.4182,N,12130.1725,W,1,08,1.0,11.9,M,-32.8,M,,*6A
$PYRTM,2024,124.084135534028,15.193782944167
$GPGGA,020108.00,3459.4195,N,12130.1727,W,1,08,1.0,12.2,M,-32.8,M,,*69
$PYRTM,2024,124.084142941215,15.193790351354
$GPGGA,020109.00,3459.4210,N,12130.1731,W,1,08,1.0,11.6,M,-32.8,M,,*66
$PYRTM,2024,124.084161587384,15.193808997523
$GPGGA,020110.00,3459.4222,N,12130.1738,W,1,08,1.0,11.2,M,-32.8,M,,*62
$PYRTM,2024,124.084170267905,15.193817678044
$GPGGA,020111.00,3459.4230,N,12130.1742,W,1,08,1.0,11.6,M,-32.8,M,,*69
$PYRTM,2024,124.084181829491,15.193829239630
$GPGGA,020112.00,3459.4241,N,12130.1743,W,1,08,1.0,12.1,M,-32.8,M,,*69
$PYRTM,2024,124.084193417500,15.193840827639
$GPGGA,020113.00,3459.4255,N,12130.1747,W,1,08,1.0,12.0,M,-32.8,M,,*68
$PYRTM,2024,124.084200811377,15.193848221528
$GPGGA,020114.00,3459.4266,N,12130.1753,W,1,08,1.0,11.7,M,-32.8,M,,*6E
$PYRTM,2024,124.084219458102,15.193866868241
$GPGGA,020115.00,3459.4276,N,12130.1757,W,1,08,1.0,11.8,M,-32.8,M,,*65
$PYRTM,2024,124.084231032303,15.193878442454
$GPGGA,020116.00,3459.4288,N,12130.1759,W,1,08,1.0,11.9,M,-32.8,M,,*68
$PYRTM,2024,124.084239715752,15.193887125891
$GPGGA,020117.00,3459.4302,N,12130.1762,W,1,08,1.0,11.5,M,-32.8,M,,*6E
$PYRTM,2024,124.084247110197,15.193894520336
$GPGGA,020118.00,3459.4314,N,12130.1767,W,1,08,1.0,11.3,M,-32.8,M,,*65
$PYRTM,2024,124.084262861493,15.193910271632
$GPGGA,020119.00,3459.4322,N,12130.1772,W,1,08,1.0,11.9,M,-32.8,M,,*6F
$PYRTM,2024,124.084274423588,15.193921833727
$GPGGA,020120.00,3459.4334,N,12130.1776,W,1,08,1.0,12.2,M,-32.8,M,,*6E
$PYRTM,2024,124.084286009919,15.193933420069
$GPGGA,020121.00,3459.4350,N,12130.1779,W,1,08,1.0,11.7,M,-32.8,M,,*64
$PYRTM,2024,124.084293419583,15.193940829722
$GPGGA,020122.00,3459.4362,N,12130.1782,W,1,08,1.0,11.4,M,-32.8,M,,*61
$PYRTM,2024,124.084309158750,15.193956568889
$GPGGA,020123.00,3459.4370,N,12130.1784,W,1,08,1.0,11.8,M,-32.8,M,,*69
$PYRTM,2024,124.084320720197,15.193968130336
$GPGGA,020124.00,3459.4383,N,12130.1786,W,1,08,1.0,11.8,M,-32.8,M,,*60
$PYRTM,2024,124.084332306343,15.193979716481
$GPGGA,020125.00,3459.4398,N,12130.1792,W,1,08,1.0,11.0,M,-32.8,M,,*66
$PYRTM,2024,124.084343868264,15.193991278414
$GPGGA,020126.00,3459.4408,N,12130.1799,W,1,08,1.0,10.7,M,-32.8,M,,*66
$PYRTM,2024,124.084355454641,15.194002864780
$GPGGA,020127.00,3459.4415,N,12130.1802,W,1,08,1.0,11.4,M,-32.8,M,,*64
$PYRTM,2024,124.084367017269,15.194014427407
$GPGGA,020128.00,3459.4427,N,12130.1799,W,1,08,1.0,12.0,M,-32.8,M,,*60
$PYRTM,2024,124.084378597801,15.194026007940
$GPGGA,020129.00,3459.4444,N,12130.1799,W,1,08,1.0,11.7,M,-32.8,M,,*60
$PYRTM,2024,124.084390164005,15.194037574144
$GPGGA,020130.00,3459.4457,N,12130.1807,W,1,08,1.0,11.2,M,-32.8,M,,*67
$PYRTM,2024,124.084397572882,15.194044983021
$GPGGA,020131.00,3459.4465,N,12130.1816,W,1,08,1.0,11.1,M,-32.8,M,,*64
$PYRTM,2024,124.084413312083,15.194060722222
$GPGGA,020132.00,3459.4475,N,12130.1820,W,1,08,1.0,11.3,M,-32.8,M,,*61
$PYRTM,2024,124.084424902326,15.194072312465
$GPGGA,020133.00,3459.4490,N,12130.1819,W,1,08,1.0,11.1,M,-32.8,M,,*63
$PYRTM,2024,124.084436462049,15.194083872188
$GPGGA,020134.00,3459.4504,N,12130.1820,W,1,08,1.0,10.8,M,-32.8,M,,*6A
$PYRTM,2024,124.084443868333,15.194091278484
$GPGGA,020135.00,3459.4513,N,12130.1826,W,1,08,1.0,11.3,M,-32.8,M,,*61
$PYRTM,2024,124.084459610347,15.194107020498
$GPGGA,020136.00,3459.4522,N,12130.1833,W,1,08,1.0,11.7,M,-32.8,M,,*60
$PYRTM,2024,124.084471199699,15.194118609838
$GPGGA,020137.00,3459.4535,N,12130.1837,W,1,08,1.0,11.5,M,-32.8,M,,*61
$PYRTM,2024,124.084482757257,15.194130167407
$GPGGA,020138.00,3459.4550,N,12130.1838,W,1,08,1.0,11.0,M,-32.8,M,,*67
$PYRTM,2024,124.084494344375,15.194141754514
$GPGGA,020139.00,3459.4561,N,12130.1841,W,1,08,1.0,10.6,M,-32.8,M,,*6D
$PYRTM,2024,124.084501754641,15.194149164780
$GPGGA,020140.00,3459.4571,N,12130.1848,W,1,08,1.0,10.6,M,-32.8,M,,*6B
$PYRTM,2024,124.084520386574,15.194167796713
$GPGGA,020141.00,3459.4581,N,12130.1857,W,1,08,1.0,10.7,M,-32.8,M,,*6A
$PYRTM,2024,124.084531967766,15.194179377905
$GPGGA,020142.00,3459.4594,N,12130.1862,W,1,08,1.0,10.8,M,-32.8,M,,*64
$PYRTM,2024,124.084543534769,15.194190944907
$GPGGA,020143.00,3459.4608,N,12130.1863,W,1,08,1.0,11.0,M,-32.8,M,,*6B
$PYRTM,2024,124.084552202870,15.194199613009
$GPGGA,020144.00,3459.4619,N,12130.1863,W,1,08,1.0,11.3,M,-32.8,M,,*6F
$PYRTM,2024,124.084563792905,15.194211203044
$GPGGA,020145.00,3459.4632,N,12130.1868,W,1,08,1.0,11.3,M,-32.8,M,,*6C
$PYRTM,2024,124.084575350833,15.194222760972
$GPGGA,020146.00,3459.4646,N,12130.1877,W,1,08,1.0,10.8,M,-32.8,M,,*68
$PYRTM,2024,124.084586952442,15.194234362581
$GPGGA,020147.00,3459.4657,N,12130.1887,W,1,08,1.0,10.3,M,-32.8,M,,*6D
$PYRTM,2024,124.084594335185,15.194241745324
$GPGGA,020148.00,3459.4667,N,12130.1889,W,1,08,1.0,10.7,M,-32.8,M,,*6B
$PYRTM,2024,124.084610086389,15.194257496528
$GPGGA,020149.00,3459.4680,N,12130.1886,W,1,08,1.0,11.2,M,-32.8,M,,*68
$PYRTM,2024,124.084621647859,15.194269058009
$GPGGA,020150.00,3459.4696,N,12130.1888,W,1,08,1.0,11.1,M,-32.8,M,,*6A
$PYRTM,2024,124.084633234225,15.194280644363
$GPGGA,020151.00,3459.4710,N,12130.1897,W,1,08,1.0,10.7,M,-32.8,M,,*6D
$PYRTM,2024,124.084640645741,15.194288055880
$GPGGA,020152.00,3459.4720,N,12130.1906,W,1,08,1.0,10.7,M,-32.8,M,,*64
$PYRTM,2024,124.084656384363,15.194303794502
$GPGGA,020153.00,3459.4730,N,12130.1909,W,1,08,1.0,11.2,M,-32.8,M,,*6F
$PYRTM,2024,124.084668080104,15.194315490243
$GPGGA,020154.00,3459.4744,N,12130.1909,W,1,08,1.0,11.4,M,-32.8,M,,*6D
$PYRTM,2024,124.084675351100,15.194322761238
$GPGGA,020155.00,3459.4761,N,12130.1911,W,1,08,1.0,10.7,M,-32.8,M,,*60
$PYRTM,2024,124.084687155093,15.194334565231
$GPGGA,020156.00,3459.4773,N,12130.1916,W,1,08,1.0,10.6,M,-32.8,M,,*66
$PYRTM,2024,124.084702789572,15.194350199711
$GPGGA,020157.00,3459.4781,N,12130.1920,W,1,08,1.0,11.3,M,-32.8,M,,*6B
$PYRTM,2024,124.084714380741,15.194361790880
$GPGGA,020158.00,3459.4790,N,12130.1922,W,1,08,1.0,12.2,M,-32.8,M,,*64
$PYRTM,2024,124.084721647361,15.194369057500
$GPGGA,020159.00,3459.4804,N,12130.1923,W,1,08,1.0,12.0,M,-32.8,M,,*64
$PYRTM,2024,124.084737528264,15.194384938403
$GPGGA,020200.00,3459.4821,N,12130.1926,W,1,08,1.0,11.0,M,-32.8,M,,*6A
$PYRTM,2024,124.084748991343,15.194396401493
$GPGGA,020201.00,3459.4833,N,12130.1933,W,1,08,1.0,10.3,M,-32.8,M,,*6E
$PYRTM,2024,124.084760536817,15.194407946956
$GPGGA,020202.00,3459.4843,N,12130.1940,W,1,08,1.0,10.3,M,-32.8,M,,*6E
$PYRTM,2024,124.084767944282,15.194415354421
$GPGGA,020203.00,3459.4854,N,12130.1943,W,1,08,1.0,10.7,M,-32.8,M,,*6E
$PYRTM,2024,124.084783685394,15.194431095532
$GPGGA,020204.00,3459.4870,N,12130.1943,W,1,08,1.0,10.8,M,-32.8,M,,*60
$PYRTM,2024,124.084795268403,15.194442678553
$GPGGA,020205.00,3459.4884,N,12130.1945,W,1,08,1.0,10.6,M,-32.8,M,,*62
$PYRTM,2024,124.084806834236,15.194454244375
$GPGGA,020206.00,3459.4897,N,12130.1950,W,1,08,1.0,10.5,M,-32.8,M,,*64
$PYRTM,2024,124.084818422025,15.194465832164
$GPGGA,020207.00,3459.4911,N,12130.1955,W,1,08,1.0,10.2,M,-32.8,M,,*68
$PYRTM,2024,124.084829983113,15.194477393264
$GPGGA,020208.00,3459.4923,N,12130.1961,W,1,08,1.0,9.9,M,-32.8,M,,*52
$PYRTM,2024,124.084841564306,15.194488974444
$GPGGA,020209.00,3459.4934,N,12130.1965,W,1,08,1.0,10.2,M,-32.8,M,,*62
$PYRTM,2024,124.084848964931,15.194496375081
$GPGGA,020210.00,3459.4948,N,12130.1966,W,1,08,1.0,10.4,M,-32.8,M,,*64
$PYRTM,2024,124.084860677257,15.194508087396
$GPGGA,020211.00,3459.4965,N,12130.1969,W,1,08,1.0,9.7,M,-32.8,M,,*5E
$PYRTM,2024,124.084879185231,15.194526595370
$GPGGA,020212.00,3459.4977,N,12130.1975,W,1,08,1.0,9.4,M,-32.8,M,,*50
$PYRTM,2024,124.084887879549,15.194535289687
$GPGGA,020213.00,3459.4986,N,12130.1979,W,1,08,1.0,9.8,M,-32.8,M,,*5F
$PYRTM,2024,124.084899426678,15.194546836817
$GPGGA,020214.00,3459.4998,N,12130.1983,W,1,08,1.0,10.0,M,-32.8,M,,*62
$PYRTM,2024,124.084911017824,15.194558427963
$GPGGA,020215.00,3459.5013,N,12130.1988,W,1,08,1.0,9.8,M,-32.8,M,,*53
$PYRTM,2024,124.084918410312,15.194565820451
$GPGGA,020216.00,3459.5026,N,12130.1993,W,1,08,1.3,9.6,M,-32.8,M,,*51
$PYRTM,2024,124.084934162708,15.194581572847
$GPGGA,020217.00,3459.5037,N,12130.1995,W,1,08,1.3,9.6,M,-32.8,M,,*56
$PYRTM,2024,124.084945723391,15.194593133530
$GPGGA,020218.00,3459.5052,N,12130.1996,W,1,08,1.3,9.6,M,-32.8,M,,*59
$PYRTM,2024,124.084957307153,15.194604717292
$GPGGA,020219.00,3459.5068,N,12130.2002,W,1,08,1.3,9.3,M,-32.8,M,,*53
$PYRTM,2024,124.084964719051,15.194612129201
$GPGGA,020220.00,3459.5079,N,12130.2010,W,1,08,1.3,9.4,M,-32.8,M,,*5D
$PYRTM,2024,124.084980460752,15.194627870891
$GPGGA,020221.00,3459.5090,N,12130.2015,W,1,08,1.3,9.8,M,-32.8,M,,*52
$PYRTM,2024,124.084992020590,15.194639430729
$GPGGA,020222.00,3459.5105,N,12130.2017,W,1,08,1.3,10.0,M,-32.8,M,,*6E
$PYRTM,2024,124.085003614757,15.194651024907
$GPGGA,020223.00,3459.5122,N,12130.2017,W,1,08,1.3,10.0,M,-32.8,M,,*6A
$PYRTM,2024,124.085015169850,15.194662579988
$GPGGA,020224.00,3459.5137,N,12130.2021,W,1,08,1.3,9.7,M,-32.8,M,,*53
$PYRTM,2024,124.085026756539,15.194674166678
$GPGGA,020225.00,3459.5150,N,12130.2030,W,1,08,1.3,9.3,M,-32.8,M,,*57
$PYRTM,2024,124.085038319201,15.194685729340
$GPGGA,020226.00,3459.5161,N,12130.2038,W,1,08,1.3,9.1,M,-32.8,M,,*5C
$PYRTM,2024,124.085049905347,15.194697315486
$GPGGA,020227.00,3459.5173,N,12130.2041,W,1,08,1.3,9.6,M,-32.8,M,,*57
$PYRTM,2024,124.085061465660,15.194708875799
$GPGGA,020228.00,3459.5189,N,12130.2039,W,1,08,1.3,9.9,M,-32.8,M,,*5D
$PYRTM,2024,124.085073055139,15.194720465278
$GPGGA,020229.00,3459.5206,N,12130.2041,W,1,08,1.3,9.7,M,-32.8,M,,*59
$PYRTM,2024,124.085084613102,15.194732023241
$GPGGA,020230.00,3459.5220,N,12130.2051,W,1,08,1.3,9.5,M,-32.8,M,,*56
$PYRTM,2024,124.085096216088,15.194743626227
$GPGGA,020231.00,3459.5230,N,12130.2059,W,1,08,1.3,9.6,M,-32.8,M,,*5D
$PYRTM,2024,124.085107762986,15.194755173125
$GPGGA,020232.00,3459.5242,N,12130.2063,W,1,08,1.3,9.9,M,-32.8,M,,*5D
$PYRTM,2024,124.085119348854,15.194766758993
$GPGGA,020233.00,3459.5259,N,12130.2063,W,1,08,1.3,9.9,M,-32.8,M,,*56
$PYRTM,2024,124.085130910498,15.194778320637
$GPGGA,020234.00,3459.5276,N,12130.2066,W,1,08,1.3,9.7,M,-32.8,M,,*57
$PYRTM,2024,124.085142497269,15.194789907407
$GPGGA,020235.00,3459.5287,N,12130.2074,W,1,08,1.3,10.3,M,-32.8,M,,*67
$PYRTM,2024,124.085149893819,15.194797303958
$GPGGA,020236.00,3459.5300,N,12130.2081,W,1,08,1.3,10.6,M,-32.8,M,,*65
$PYRTM,2024,124.085161587662,15.194808997801
$GPGGA,020237.00,3459.5316,N,12130.2085,W,1,08,1.3,11.0,M,-32.8,M,,*60
$PYRTM,2024,124.085177206435,15.194824616574
$GPGGA,020238.00,3459.5332,N,12130.2086,W,1,08,1.3,10.8,M,-32.8,M,,*63
$PYRTM,2024,124.085188788264,15.194836198414
$GPGGA,020239.00,3459.5345,N,12130.2089,W,1,08,1.3,11.0,M,-32.8,M,,*64
$PYRTM,2024,124.085200356042,15.194847766181
$GPGGA,020240.00,3459.5359,N,12130.2096,W,1,08,1.3,11.2,M,-32.8,M,,*6B
$PYRTM,2024,124.085211945903,15.194859356053
$GPGGA,020241.00,3459.5375,N,12130.2106,W,1,08,1.3,10.5,M,-32.8,M,,*6A
$PYRTM,2024,124.085219337755,15.194866747894
$GPGGA,020242.00,3459.5391,N,12130.2112,W,1,08,1.3,10.0,M,-32.8,M,,*63
$PYRTM,2024,124.085237984433,15.194885394572
$GPGGA,020243.00,3459.5404,N,12130.2111,W,1,08,1.3,10.3,M,-32.8,M,,*69
$PYRTM,2024,124.085246650961,15.194894061100
$GPGGA,020244.00,3459.5416,N,12130.2111,W,1,08,1.3,10.6,M,-32.8,M,,*68
$PYRTM,2024,124.085258241354,15.194905651493
$GPGGA,020245.00,3459.5431,N,12130.2117,W,1,08,1.3,10.5,M,-32.8,M,,*69
$PYRTM,2024,124.085265633669,15.194913043808
$GPGGA,020246.00,3459.5446,N,12130.2127,W,1,08,1.3,9.8,M,-32.8,M,,*5C
$PYRTM,2024,124.085281385845,15.194928795984
$GPGGA,020247.00,3459.5460,N,12130.2134,W,1,08,1.3,9.1,M,-32.8,M,,*52
$PYRTM,2024,124.085292947859,15.194940357998
$GPGGA,020248.00,3459.5471,N,12130.2132,W,1,08,1.3,9.1,M,-32.8,M,,*5B
$PYRTM,2024,124.085304529942,15.194951940093
$GPGGA,020249.00,3459.5483,N,12130.2129,W,1,08,1.3,9.8,M,-32.8,M,,*54
$PYRTM,2024,124.085316097859,15.194963507998
$GPGGA,020250.00,3459.5499,N,12130.2132,W,1,08,1.3,9.6,M,-32.8,M,,*53
$PYRTM,2024,124.085327684306,15.194975094444
$GPGGA,020251.00,3459.5516,N,12130.2142,W,1,08,1.3,9.2,M,-32.8,M,,*57
$PYRTM,2024,124.085335079479,15.194982489618
$GPGGA,020252.00,3459.5531,N,12130.2150,W,1,08,1.3,8.8,M,-32.8,M,,*59
$PYRTM,2024,124.085353727083,15.195001137222
$GPGGA,020253.00,3459.5544,N,12130.2153,W,1,08,1.3,8.9,M,-32.8,M,,*58
$PYRTM,2024,124.085365306551,15.195012716690
$GPGGA,020254.00,3459.5556,N,12130.2149,W,1,08,1.3,9.7,M,-32.8,M,,*58
$PYRTM,2024,124.085373981100,15.195021391238
$GPGGA,020255.00,3459.5573,N,12130.2146,W,1,08,1.3,9.9,M,-32.8,M,,*5F
$PYRTM,2024,124.085385540787,15.195032950926
$GPGGA,020256.00,3459.5592,N,12130.2152,W,1,08,1.3,9.0,M,-32.8,M,,*5F
$PYRTM,2024,124.085397130556,15.195044540694
$GPGGA,020257.00,3459.5605,N,12130.2166,W,1,08,1.3,8.6,M,-32.8,M,,*53
$PYRTM,2024,124.085408691169,15.195056101319
$GPGGA,020258.00,3459.5613,N,12130.2173,W,1,08,1.3,8.9,M,-32.8,M,,*50
$PYRTM,2024,124.085416096076,15.195063506215
$GPGGA,020259.00,3459.5625,N,12130.2168,W,1,08,1.3,9.6,M,-32.8,M,,*50
$PYRTM,2024,124.085431839398,15.195079249549
$GPGGA,020300.00,3459.5643,N,12130.2161,W,1,08,1.3,8.9,M,-32.8,M,,*5A
$PYRTM,2024,124.085443425231,15.195090835370
$GPGGA,020301.00,3459.5659,N,12130.2166,W,1,08,1.3,8.5,M,-32.8,M,,*5B
$PYRTM,2024,124.085450834213,15.195098244352
$GPGGA,020302.00,3459.5667,N,12130.2179,W,1,08,1.3,8.8,M,-32.8,M,,*56
$PYRTM,2024,124.085466572928,15.195113983067
$GPGGA,020303.00,3459.5676,N,12130.2190,W,1,08,1.3,9.3,M,-32.8,M,,*5A
$PYRTM,2024,124.085478133738,15.195125543877
$GPGGA,020304.00,3459.5690,N,12130.2193,W,1,08,1.3,9.4,M,-32.8,M,,*51
$PYRTM,2024,124.085489724375,15.195137134514
$GPGGA,020305.00,3459.5707,N,12130.2188,W,1,08,1.3,9.3,M,-32.8,M,,*52
$PYRTM,2024,124.085501282164,15.195148692303
$GPGGA,020306.00,3459.5722,N,12130.2185,W,1,08,1.3,9.2,M,-32.8,M,,*5A
$PYRTM,2024,124.085512870463,15.195160280602
$GPGGA,020307.00,3459.5735,N,12130.2193,W,1,08,1.3,9.2,M,-32.8,M,,*5A
$PYRTM,2024,124.085524430891,15.195171841030
$GPGGA,020308.00,3459.5746,N,12130.2208,W,1,08,1.3,9.5,M,-32.8,M,,*57
$PYRTM,2024,124.085536017153,15.195183427292
$GPGGA,020309.00,3459.5753,N,12130.2214,W,1,08,1.3,10.1,M,-32.8,M,,*63
$PYRTM,2024,124.085547579792,15.195194989942
$GPGGA,020310.00,3459.5766,N,12130.2208,W,1,08,1.3,10.4,M,-32.8,M,,*65
$PYRTM,2024,124.085559168947,15.195206579086
$GPGGA,020311.00,3459.5785,N,12130.2202,W,1,08,1.3,10.0,M,-32.8,M,,*67
$PYRTM,2024,124.085570726794,15.195218136933
$GPGGA,020312.00,3459.5803,N,12130.2208,W,1,08,1.3,9.3,M,-32.8,M,,*54
$PYRTM,2024,124.085578135787,15.195225545926
$GPGGA,020313.00,3459.5813,N,12130.2221,W,1,08,1.3,9.1,M,-32.8,M,,*5D
$PYRTM,2024,124.085596782176,15.195244192315
$GPGGA,020314.00,3459.5821,N,12130.2228,W,1,08,1.3,9.6,M,-32.8,M,,*55
$PYRTM,2024,124.085605458981,15.195252869120
$GPGGA,020315.00,3459.5834,N,12130.2228,W,1,08,1.3,10.0,M,-32.8,M,,*6E
$PYRTM,2024,124.085617023843,15.195264433981
$GPGGA,020316.00,3459.5851,N,12130.2228,W,1,08,1.3,10.0,M,-32.8,M,,*6E
$PYRTM,2024,124.085628611412,15.195276021551
$GPGGA,020317.00,3459.5863,N,12130.2230,W,1,08,1.3,10.5,M,-32.8,M,,*62
$PYRTM,2024,124.085640172130,15.195287582269
$GPGGA,020318.00,3459.5871,N,12130.2237,W,1,08,1.3,11.0,M,-32.8,M,,*6D
$PYRTM,2024,124.085647579954,15.195294990093
$GPGGA,020319.00,3459.5881,N,12130.2246,W,1,08,1.3,11.1,M,-32.8,M,,*64
$PYRTM,2024,124.085663319468,15.195310729606
$GPGGA,020320.00,3459.5895,N,12130.2252,W,1,08,1.3,10.2,M,-32.8,M,,*6C
$PYRTM,2024,124.085674902859,15.195322312998
$GPGGA,020321.00,3459.5909,N,12130.2252,W,1,08,1.3,9.7,M,-32.8,M,,*54
$PYRTM,2024,124.085686468657,15.195333878796
$GPGGA,020322.00,3459.5919,N,12130.2251,W,1,08,1.3,10.6,M,-32.8,M,,*6C
$PYRTM,2024,124.085698057731,15.195345467870
$GPGGA,020323.00,3459.5930,N,12130.2253,W,1,08,1.3,11.4,M,-32.8,M,,*67
$PYRTM,2024,124.085709617060,15.195357027199
$GPGGA,020324.00,3459.5943,N,12130.2260,W,1,08,1.3,11.6,M,-32.8,M,,*66
$PYRTM,2024,124.085717026065,15.195364436204
$GPGGA,020325.00,3459.5956,N,12130.2268,W,1,08,1.3,11.4,M,-32.8,M,,*69
$PYRTM,2024,124.085732764988,15.195380175127
$GPGGA,020326.00,3459.5967,N,12130.2271,W,1,08,1.3,11.7,M,-32.8,M,,*63
$PYRTM,2024,124.085744357211,15.195391767350
$GPGGA,020327.00,3459.5979,N,12130.2271,W,1,08,1.3,11.9,M,-32.8,M,,*63
$PYRTM,2024,124.085755915289,15.195403325428
$GPGGA,020328.00,3459.5994,N,12130.2272,W,1,08,1.3,11.7,M,-32.8,M,,*62
$PYRTM,2024,124.085767496088,15.195414906227
$GPGGA,020329.00,3459.6006,N,12130.2277,W,1,08,1.3,11.7,M,-32.8,M,,*67
$PYRTM,2024,124.085779063194,15.195426473333
$GPGGA,020330.00,3459.6017,N,12130.2285,W,1,08,1.3,12.1,M,-32.8,M,,*67
$PYRTM,2024,124.085790649363,15.195438059502
$GPGGA,020331.00,3459.6029,N,12130.2290,W,1,08,1.3,12.5,M,-32.8,M,,*6B
$PYRTM,2024,124.085798058819,15.195445468958
$GPGGA,020332.00,3459.6044,N,12130.2292,W,1,08,1.3,12.5,M,-32.8,M,,*61
$PYRTM,2024,124.085813797766,15.195461207905
$GPGGA,020333.00,3459.6057,N,12130.2294,W,1,08,1.3,12.4,M,-32.8,M,,*65
$PYRTM,2024,124.085825358796,15.195472768935
$GPGGA,020334.00,3459.6068,N,12130.2300,W,1,08,1.3,12.5,M,-32.8,M,,*63
$PYRTM,2024,124.085832765868,15.195480176007
$GPGGA,020335.00,3459.6080,N,12130.2306,W,1,08,1.3,12.4,M,-32.8,M,,*63
$PYRTM,2024,124.085848506968,15.195495917106
$GPGGA,020336.00,3459.6096,N,12130.2311,W,1,08,1.3,11.6,M,-32.8,M,,*60
$PYRTM,2024,124.085860094329,15.195507504479
$GPGGA,020337.00,3459.6111,N,12130.2315,W,1,08,1.3,10.9,M,-32.8,M,,*65
$PYRTM,2024,124.085867488576,15.195514898715
$GPGGA,020338.00,3459.6123,N,12130.2316,W,1,08,1.3,11.1,M,-32.8,M,,*61
$PYRTM,2024,124.085883245903,15.195530656042
$GPGGA,020339.00,3459.6133,N,12130.2317,W,1,08,1.3,11.7,M,-32.8,M,,*66
$PYRTM,2024,124.085894803380,15.195542213519
$GPGGA,020340.00,3459.6147,N,12130.2320,W,1,08,1.3,12.0,M,-32.8,M,,*6B
$PYRTM,2024,124.085902211644,15.195549621782
$GPGGA,020341.00,3459.6164,N,12130.2327,W,1,08,1.3,11.5,M,-32.8,M,,*6A
$PYRTM,2024,124.085917951898,15.195565362037
$GPGGA,020342.00,3459.6179,N,12130.2337,W,1,08,1.3,10.5,M,-32.8,M,,*65
$PYRTM,2024,124.085929553090,15.195576963229
$GPGGA,020343.00,3459.6189,N,12130.2341,W,1,08,1.3,10.4,M,-32.8,M,,*6B
$PYRTM,2024,124.085936933044,15.195584343194
$GPGGA,020344.00,3459.6197,N,12130.2338,W,1,08,1.3,11.1,M,-32.8,M,,*69
$PYRTM,2024,124.085955579803,15.195602989942
$GPGGA,020345.00,3459.6211,N,12130.2337,W,1,08,1.3,11.6,M,-32.8,M,,*6D
$PYRTM,2024,124.085967154769,15.195614564907
$GPGGA,020346.00,3459.6227,N,12130.2343,W,1,08,1.3,11.3,M,-32.8,M,,*6D
$PYRTM,2024,124.085978728762,15.195626138900
$GPGGA,020347.00,3459.6242,N,12130.2352,W,1,08,1.3,10.7,M,-32.8,M,,*6A
$PYRTM,2024,124.085987396030,15.195634806169
$GPGGA,020348.00,3459.6253,N,12130.2358,W,1,08,1.3,10.5,M,-32.8,M,,*6D
$PYRTM,2024,124.085998987072,15.195646397211
$GPGGA,020349.00,3459.6263,N,12130.2359,W,1,08,1.3,10.9,M,-32.8,M,,*62
$PYRTM,2024,124.086010545845,15.195657955984
$GPGGA,020350.00,3459.6278,N,12130.2359,W,1,08,1.3,10.8,M,-32.8,M,,*61
$PYRTM,2024,124.086017953808,15.195665363947
$GPGGA,020351.00,3459.6294,N,12130.2363,W,1,08,1.3,10.3,M,-32.8,M,,*60
$PYRTM,2024,124.086033692373,15.195681102512
$GPGGA,020352.00,3459.6306,N,12130.2370,W,1,08,1.3,10.4,M,-32.8,M,,*6C
$PYRTM,2024,124.086045293819,15.195692703958
$GPGGA,020353.00,3459.6315,N,12130.2375,W,1,08,1.3,11.0,M,-32.8,M,,*6F
$PYRTM,2024,124.086056841771,15.195704251910
$GPGGA,020354.00,3459.6328,N,12130.2378,W,1,08,1.3,11.2,M,-32.8,M,,*69
$PYRTM,2024,124.086068442593,15.195715852743
$GPGGA,020355.00,3459.6343,N,12130.2380,W,1,08,1.3,10.8,M,-32.8,M,,*69
$PYRTM,2024,124.086079989549,15.195727399688
$GPGGA,020356.00,3459.6357,N,12130.2382,W,1,08,1.3,10.3,M,-32.8,M,,*66
$PYRTM,2024,124.086091576609,15.195738986748
$GPGGA,020357.00,3459.6369,N,12130.2388,W,1,08,1.3,9.9,M,-32.8,M,,*52
$PYRTM,2024,124.086098984178,15.195746394317
$GPGGA,020358.00,3459.6383,N,12130.2397,W,1,08,1.3,9.5,M,-32.8,M,,*5B
$PYRTM,2024,124.086114724873,15.195762135012
$GPGGA,020359.00,3459.6395,N,12130.2402,W,1,08,1.3,9.6,M,-32.8,M,,*55
$PYRTM,2024,124.086126425741,15.195773835880
$GPGGA,020400.00,3459.6407,N,12130.2401,W,1,08,1.3,10.2,M,-32.8,M,,*6D
$PYRTM,2024,124.086137988380,15.195785398519
$GPGGA,020401.00,3459.6422,N,12130.2400,W,1,08,1.3,10.5,M,-32.8,M,,*6D
$PYRTM,2024,124.086149587674,15.195796997813
$GPGGA,020402.00,3459.6439,N,12130.2405,W,1,08,1.3,10.3,M,-32.8,M,,*67
$PYRTM,2024,124.086161136991,15.195808547130
$GPGGA,020403.00,3459.6452,N,12130.2415,W,1,08,1.3,10.0,M,-32.8,M,,*69
$PYRTM,2024,124.086168416597,15.195815826736
$GPGGA,020404.00,3459.6465,N,12130.2422,W,1,08,1.3,9.8,M,-32.8,M,,*5E
$PYRTM,2024,124.086184169954,15.195831580093
$GPGGA,020405.00,3459.6479,N,12130.2424,W,1,08,1.3,9.8,M,-32.8,M,,*54
$PYRTM,2024,124.086195731343,15.195843141481
$GPGGA,020406.00,3459.6494,N,12130.2424,W,1,08,1.3,9.8,M,-32.8,M,,*54
$PYRTM,2024,124.086207318032,15.195854728171
$GPGGA,020407.00,3459.6507,N,12130.2425,W,1,08,1.3,10.3,M,-32.8,M,,*6C
$PYRTM,2024,124.086218879352,15.195866289491
$GPGGA,020408.00,3459.6521,N,12130.2431,W,1,08,1.3,10.4,M,-32.8,M,,*65
$PYRTM,2024,124.086230469248,15.195877879387
$GPGGA,020409.00,3459.6536,N,12130.2437,W,1,08,1.3,10.3,M,-32.8,M,,*63
$PYRTM,2024,124.086242027072,15.195889437211
$GPGGA,020410.00,3459.6551,N,12130.2440,W,1,08,1.3,10.1,M,-32.8,M,,*68
$PYRTM,2024,124.086253629838,15.195901039977
$GPGGA,020411.00,3459.6564,N,12130.2444,W,1,08,1.3,9.9,M,-32.8,M,,*5B
$PYRTM,2024,124.086265176019,15.195912586157
$GPGGA,020412.00,3459.6578,N,12130.2449,W,1,08,1.3,10.0,M,-32.8,M,,*69
$PYRTM,2024,124.086276759479,15.195924169618
$GPGGA,020413.00,3459.6592,N,12130.2453,W,1,08,1.3,10.3,M,-32.8,M,,*64
$PYRTM,2024,124.086284175185,15.195931585324
$GPGGA,020414.00,3459.6606,N,12130.2455,W,1,08,1.3,10.7,M,-32.8,M,,*6F
$PYRTM,2024,124.086295859479,15.195943269618
$GPGGA,020415.00,3459.6622,N,12130.2458,W,1,08,1.3,10.9,M,-32.8,M,,*6B
$PYRTM,2024,124.086314389618,15.195961799757
$GPGGA,020416.00,3459.6638,N,12130.2464,W,1,08,1.3,10.5,M,-32.8,M,,*60
$PYRTM,2024,124.086323059757,15.195970469896
$GPGGA,020417.00,3459.6653,N,12130.2472,W,1,08,1.3,10.1,M,-32.8,M,,*6F
$PYRTM,2024,124.086330454688,15.195977864826
$GPGGA,020418.00,3459.6666,N,12130.2477,W,1,08,1.3,10.1,M,-32.8,M,,*63
$PYRTM,2024,124.086346208125,15.195993618264
$GPGGA,020419.00,3459.6680,N,12130.2478,W,1,08,1.3,10.6,M,-32.8,M,,*62
$PYRTM,2024,124.086357768449,15.196005178588
$GPGGA,020420.00,3459.6696,N,12130.2479,W,1,08,1.3,11.1,M,-32.8,M,,*68
$PYRTM,2024,124.086369359537,15.196016769676
$GPGGA,020421.00,3459.6712,N,12130.2482,W,1,08,1.3,11.3,M,-32.8,M,,*62
$PYRTM,2024,124.086380916782,15.196028326921
$GPGGA,020422.00,3459.6727,N,12130.2492,W,1,08,1.3,10.9,M,-32.8,M,,*6D
$PYRTM,2024,124.086392518484,15.196039928611
$GPGGA,020423.00,3459.6740,N,12130.2502,W,1,08,1.3,10.3,M,-32.8,M,,*6F
$PYRTM,2024,124.086399898866,15.196047309005
$GPGGA,020424.00,3459.6753,N,12130.2506,W,1,08,1.3,10.0,M,-32.8,M,,*6D
$PYRTM,2024,124.086415667639,15.196063077778
$GPGGA,020425.00,3459.6768,N,12130.2504,W,1,08,1.3,9.8,M,-32.8,M,,*56
$PYRTM,2024,124.086427214456,15.196074624606
$GPGGA,020426.00,3459.6786,N,12130.2505,W,1,08,1.3,9.5,M,-32.8,M,,*59
$PYRTM,2024,124.086438802419,15.196086212558
$GPGGA,020427.00,3459.6801,N,12130.2514,W,1,08,1.3,9.1,M,-32.8,M,,*5C
$PYRTM,2024,124.086446211493,15.196093621632
$GPGGA,020428.00,3459.6811,N,12130.2522,W,1,08,1.3,9.7,M,-32.8,M,,*51
$PYRTM,2024,124.086461950000,15.196109360139
$GPGGA,020429.00,3459.6820,N,12130.2525,W,1,08,1.3,10.0,M,-32.8,M,,*6A
$PYRTM,2024,124.086469360116,15.196116770255
$GPGGA,020430.00,3459.6838,N,12130.2528,W,1,08,1.3,9.5,M,-32.8,M,,*5B
$PYRTM,2024,124.086485093519,15.196132503657
$GPGGA,020431.00,3459.6856,N,12130.2532,W,1,08,1.3,8.8,M,-32.8,M,,*55
$PYRTM,2024,124.086496659734,15.196144069873
$GPGGA,020432.00,3459.6871,N,12130.2536,W,1,08,1.3,8.5,M,-32.8,M,,*5A
$PYRTM,2024,124.086508248796,15.196155658935
$GPGGA,020433.00,3459.6882,N,12130.2536,W,1,08,1.3,9.0,M,-32.8,M,,*53
$PYRTM,2024,124.086519808044,15.196167218194
$GPGGA,020434.00,3459.6894,N,12130.2532,W,1,08,1.3,9.5,M,-32.8,M,,*52
$PYRTM,2024,124.086531393808,15.196178803947
$GPGGA,020435.00,3459.6909,N,12130.2535,W,1,08,1.3,9.3,M,-32.8,M,,*57
$PYRTM,2024,124.086542954919,15.196190365058
$GPGGA,020436.00,3459.6922,N,12130.2542,W,1,08,1.3,8.9,M,-32.8,M,,*56
$PYRTM,2024,124.086554545556,15.196201955694
$GPGGA,020437.00,3459.6933,N,12130.2547,W,1,08,1.3,8.4,M,-32.8,M,,*5F
$PYRTM,2024,124.086566103646,15.196213513785
$GPGGA,020438.00,3459.6946,N,12130.2547,W,1,08,1.3,8.3,M,-32.8,M,,*55
$PYRTM,2024,124.086577704815,15.196225114954
$GPGGA,020439.00,3459.6961,N,12130.2545,W,1,08,1.3,8.5,M,-32.8,M,,*55
$PYRTM,2024,124.086589251308,15.196236661447
$GPGGA,020440.00,3459.6973,N,12130.2543,W,1,08,1.3,9.4,M,-32.8,M,,*5E
$PYRTM,2024,124.086600838981,15.196248249120
$GPGGA,020441.00,3459.6984,N,12130.2543,W,1,08,1.3,9.9,M,-32.8,M,,*5A
$PYRTM,2024,124.086612400162,15.196259810301
$GPGGA,020442.00,3459.6997,N,12130.2546,W,1,08,1.3,10.0,M,-32.8,M,,*6F
$PYRTM,2024,124.086623987269,15.196271397407
$GPGGA,020443.00,3459.7011,N,12130.2551,W,1,08,1.3,9.3,M,-32.8,M,,*55
$PYRTM,2024,124.086635549444,15.196282959583
$GPGGA,020444.00,3459.7023,N,12130.2555,W,1,08,1.3,8.7,M,-32.8,M,,*52
$PYRTM,2024,124.086647140093,15.196294550231
$GPGGA,020445.00,3459.7032,N,12130.2554,W,1,08,1.3,9.2,M,-32.8,M,,*56
$PYRTM,2024,124.086654530787,15.196301940926
$GPGGA,020446.00,3459.7047,N,12130.2553,W,1,08,1.3,9.8,M,-32.8,M,,*5A
$PYRTM,2024,124.086673177465,15.196320587604
$GPGGA,020447.00,3459.7065,N,12130.2555,W,1,08,1.3,9.8,M,-32.8,M,,*5D
$PYRTM,2024,124.086684761262,15.196332171400
$GPGGA,020448.00,3459.7079,N,12130.2561,W,1,08,1.3,9.9,M,-32.8,M,,*59
$PYRTM,2024,124.086696325926,15.196343736065
$GPGGA,020449.00,3459.7090,N,12130.2565,W,1,08,1.3,10.4,M,-32.8,M,,*6E
$PYRTM,2024,124.086704993657,15.196352403796
$GPGGA,020450.00,3459.7104,N,12130.2568,W,1,08,1.3,10.1,M,-32.8,M,,*62
$PYRTM,2024,124.086712402234,15.196359812384
$GPGGA,020451.00,3459.7120,N,12130.2570,W,1,08,1.3,9.6,M,-32.8,M,,*53
$PYRTM,2024,124.086724091863,15.196371502002
$GPGGA,020452.00,3459.7134,N,12130.2573,W,1,08,1.3,9.0,M,-32.8,M,,*50
$PYRTM,2024,124.086739732593,15.196387142743
$GPGGA,020453.00,3459.7145,N,12130.2577,W,1,08,1.3,9.4,M,-32.8,M,,*57
$PYRTM,2024,124.086751290069,15.196398700208
$GPGGA,020454.00,3459.7156,N,12130.2579,W,1,08,1.3,10.0,M,-32.8,M,,*60
$PYRTM,2024,124.086758698704,15.196406108843
$GPGGA,020455.00,3459.7172,N,12130.2581,W,1,08,1.3,10.4,M,-32.8,M,,*64
$PYRTM,2024,124.086774440046,15.196421850185
$GPGGA,020456.00,3459.7187,N,12130.2583,W,1,08,1.3,10.0,M,-32.8,M,,*6B
$PYRTM,2024,124.086786020532,15.196433430671
$GPGGA,020457.00,3459.7199,N,12130.2590,W,1,08,1.3,9.6,M,-32.8,M,,*59
$PYRTM,2024,124.086793435590,15.196440845729
$GPGGA,020458.00,3459.7210,N,12130.2600,W,1,08,1.3,9.4,M,-32.8,M,,*5C
$PYRTM,2024,124.086809173750,15.196456583889
$GPGGA,020459.00,3459.7223,N,12130.2603,W,1,08,1.3,9.4,M,-32.8,M,,*5E
$PYRTM,2024,124.086820736389,15.196468146528
$GPGGA,020500.00,3459.7238,N,12130.2601,W,1,08,1.3,9.4,M,-32.8,M,,*5B
$PYRTM,2024,124.086832322049,15.196479732188
$GPGGA,020501.00,3459.7254,N,12130.2602,W,1,08,1.3,9.3,M,-32.8,M,,*54
$PYRTM,2024,124.086843883981,15.196491294120
$GPGGA,020502.00,3459.7267,N,12130.2611,W,1,08,1.3,9.4,M,-32.8,M,,*52
$PYRTM,2024,124.086851290694,15.196498700833
$GPGGA,020503.00,3459.7278,N,12130.2622,W,1,08,1.3,9.6,M,-32.8,M,,*5F
$PYRTM,2024,124.086867031840,15.196514441979
$GPGGA,020504.00,3459.7292,N,12130.2627,W,1,08,1.3,9.6,M,-32.8,M,,*59
$PYRTM,2024,124.086874438472,15.196521848611
$GPGGA,020505.00,3459.7310,N,12130.2626,W,1,08,1.3,9.4,M,-32.8,M,,*50
$PYRTM,2024,124.086890180301,15.196537590440
$GPGGA,020506.00,3459.7325,N,12130.2629,W,1,08,1.3,9.4,M,-32.8,M,,*5A
$PYRTM,2024,124.086901767280,15.196549177419
$GPGGA,020507.00,3459.7336,N,12130.2638,W,1,08,1.3,9.6,M,-32.8,M,,*5B
$PYRTM,2024,124.086913330648,15.196560740799
$GPGGA,020508.00,3459.7347,N,12130.2648,W,1,08,1.3,10.0,M,-32.8,M,,*6B
$PYRTM,2024,124.086924919294,15.196572329433
$GPGGA,020509.00,3459.7363,N,12130.2653,W,1,08,1.3,10.0,M,-32.8,M,,*66
$PYRTM,2024,124.086936476863,15.196583887002
$GPGGA,020510.00,3459.7381,N,12130.2655,W,1,08,1.3,9.6,M,-32.8,M,,*5A
$PYRTM,2024,124.086948064352,15.196595474491
$GPGGA,020511.00,3459.7396,N,12130.2659,W,1,08,1.3,9.3,M,-32.8,M,,*54
$PYRTM,2024,124.086959625787,15.196607035938
$GPGGA,020512.00,3459.7408,N,12130.2666,W,1,08,1.3,9.3,M,-32.8,M,,*5B
$PYRTM,2024,124.086971212465,15.196618622604
$GPGGA,020513.00,3459.7420,N,12130.2675,W,1,08,1.3,9.5,M,-32.8,M,,*54
$PYRTM,2024,124.086982773009,15.196630183148
$GPGGA,020514.00,3459.7436,N,12130.2680,W,1,08,1.3,9.7,M,-32.8,M,,*5C
$PYRTM,2024,124.086994359942,15.196641770081
$GPGGA,020515.00,3459.7453,N,12130.2684,W,1,08,1.3,9.1,M,-32.8,M,,*5C
$PYRTM,2024,124.087005921204,15.196653331343
$GPGGA,020516.00,3459.7468,N,12130.2688,W,1,08,1.3,9.0,M,-32.8,M,,*5A
$PYRTM,2024,124.087013328900,15.196660739039
$GPGGA,020517.00,3459.7479,N,12130.2691,W,1,08,1.3,9.3,M,-32.8,M,,*50
$PYRTM,2024,124.087031983611,15.196679393750
$GPGGA,020518.00,3459.7492,N,12130.2697,W,1,08,1.3,10.0,M,-32.8,M,,*67
$PYRTM,2024,124.087040657998,15.196688068137
$GPGGA,020519.00,3459.7509,N,12130.2704,W,1,08,1.3,9.5,M,-32.8,M,,*53
$PYRTM,2024,124.087052217882,15.196699628021
$GPGGA,020520.00,3459.7527,N,12130.2711,W,1,08,1.3,8.9,M,-32.8,M,,*5C
$PYRTM,2024,124.087063805231,15.196711215370
$GPGGA,020521.00,3459.7542,N,12130.2718,W,1,08,1.3,8.4,M,-32.8,M,,*5A
$PYRTM,2024,124.087075367257,15.196722777396
$GPGGA,020522.00,3459.7556,N,12130.2721,W,1,08,1.3,8.5,M,-32.8,M,,*57
$PYRTM,2024,124.087086957431,15.196734367569
$GPGGA,020523.00,3459.7567,N,12130.2721,W,1,08,1.3,9.3,M,-32.8,M,,*53
$PYRTM,2024,124.087098514016,15.196745924155
$GPGGA,020524.00,3459.7582,N,12130.2723,W,1,08,1.3,10.0,M,-32.8,M,,*66
$PYRTM,2024,124.087110104780,15.196757514919
$GPGGA,020525.00,3459.7599,N,12130.2728,W,1,08,1.3,9.3,M,-32.8,M,,*5D
$PYRTM,2024,124.087121662917,15.196769073067
$GPGGA,020526.00,3459.7613,N,12130.2735,W,1,08,1.3,8.8,M,-32.8,M,,*59
$PYRTM,2024,124.087129070440,15.196776480579
$GPGGA,020527.00,3459.7621,N,12130.2741,W,1,08,1.3,9.2,M,-32.8,M,,*51
$PYRTM,2024,124.087144811123,15.196792221262
$GPGGA,020528.00,3459.7634,N,12130.2743,W,1,08,1.3,9.1,M,-32.8,M,,*5B
$PYRTM,2024,124.087156399583,15.196803809722
$GPGGA,020529.00,3459.7651,N,12130.2746,W,1,08,1.3,8.4,M,-32.8,M,,*58
$PYRTM,2024,124.087163806991,15.196811217130
$GPGGA,020530.00,3459.7665,N,12130.2748,W,1,08,1.3,8.8,M,-32.8,M,,*55
$PYRTM,2024,124.087179548044,15.196826958183
$GPGGA,020531.00,3459.7673,N,12130.2746,W,1,08,1.3,9.6,M,-32.8,M,,*52
$PYRTM,2024,124.087191109421,15.196838519572
$GPGGA,020532.00,3459.7686,N,12130.2744,W,1,08,1.3,9.9,M,-32.8,M,,*56
$PYRTM,2024,124.087198515486,15.196845925625
$GPGGA,020533.00,3459.7702,N,12130.2749,W,1,08,1.3,9.0,M,-32.8,M,,*5E
$PYRTM,2024,124.087214258414,15.196861668553
$GPGGA,020534.00,3459.7716,N,12130.2760,W,1,08,1.3,7.9,M,-32.8,M,,*50
$PYRTM,2024,124.087221662257,15.196869072396
$GPGGA,020535.00,3459.7728,N,12130.2765,W,1,08,1.3,7.8,M,-32.8,M,,*58
$PYRTM,2024,124.087237404410,15.196884814549
$GPGGA,020536.00,3459.7737,N,12130.2758,W,1,08,1.3,8.6,M,-32.8,M,,*5A
$PYRTM,2024,124.087248993947,15.196896404086
$GPGGA,020537.00,3459.7747,N,12130.2748,W,1,08,1.3,9.0,M,-32.8,M,,*5A
$PYRTM,2024,124.087260553160,15.196907963310
$GPGGA,020538.00,3459.7758,N,12130.2748,W,1,08,1.3,8.9,M,-32.8,M,,*53
$PYRTM,2024,124.087272143519,15.196919553657
$GPGGA,020539.00,3459.7768,N,12130.2760,W,1,08,1.3,8.2,M,-32.8,M,,*50
$PYRTM,2024,124.087283700810,15.196931110949
$GPGGA,020540.00,3459.7775,N,12130.2771,W,1,08,1.3,7.9,M,-32.8,M,,*56
$PYRTM,2024,124.087295283519,15.196942693657
$GPGGA,020541.00,3459.7784,N,12130.2769,W,1,08,1.3,8.1,M,-32.8,M,,*57
$PYRTM,2024,124.087306848970,15.196954259109
$GPGGA,020542.00,3459.7797,N,12130.2759,W,1,08,1.3,8.5,M,-32.8,M,,*51
$PYRTM,2024,124.087314258889,15.196961669028
$GPGGA,020543.00,3459.7811,N,12130.2755,W,1,08,1.3,8.9,M,-32.8,M,,*51
$PYRTM,2024,124.087329997928,15.196977408067
$GPGGA,020544.00,3459.7823,N,12130.2763,W,1,08,1.3,9.1,M,-32.8,M,,*5B
$PYRTM,2024,124.087341585301,15.196988995440
$GPGGA,020545.00,3459.7834,N,12130.2775,W,1,08,1.3,8.9,M,-32.8,M,,*52
$PYRTM,2024,124.087353146817,15.197000556968
$GPGGA,020546.00,3459.7847,N,12130.2783,W,1,08,1.3,8.4,M,-32.8,M,,*51
$PYRTM,2024,124.087364733600,15.197012143738
$GPGGA,020547.00,3459.7860,N,12130.2782,W,1,08,1.3,8.4,M,-32.8,M,,*54
$PYRTM,2024,124.087372127685,15.197019537824
$GPGGA,020548.00,3459.7872,N,12130.2775,W,1,08,1.3,8.9,M,-32.8,M,,*5D
$PYRTM,2024,124.087390775521,15.197038185660
$GPGGA,020549.00,3459.7885,N,12130.2772,W,1,08,1.3,9.7,M,-32.8,M,,*5C
$PYRTM,2024,124.087399442604,15.197046852743
$GPGGA,020550.00,3459.7898,N,12130.2779,W,1,08,1.3,10.0,M,-32.8,M,,*6C
$PYRTM,2024,124.087411032905,15.197058443044
$GPGGA,020551.00,3459.7911,N,12130.2789,W,1,08,1.3,9.8,M,-32.8,M,,*52
$PYRTM,2024,124.087422590440,15.197070000579
$GPGGA,020552.00,3459.7924,N,12130.2795,W,1,08,1.3,9.1,M,-32.8,M,,*53
$PYRTM,2024,124.087434183414,15.197081593565
$GPGGA,020553.00,3459.7938,N,12130.2796,W,1,08,1.3,8.6,M,-32.8,M,,*5A
$PYRTM,2024,124.087445739306,15.197093149444
$GPGGA,020554.00,3459.7951,N,12130.2793,W,1,08,1.3,8.8,M,-32.8,M,,*59
$PYRTM,2024,124.087457327639,15.197104737778
$GPGGA,020555.00,3459.7962,N,12130.2790,W,1,08,1.3,9.8,M,-32.8,M,,*5A
$PYRTM,2024,124.087464736817,15.197112146956
$GPGGA,020556.00,3459.7974,N,12130.2794,W,1,08,1.3,10.4,M,-32.8,M,,*6E
$PYRTM,2024,124.087480474051,15.197127884201
$GPGGA,020557.00,3459.7989,N,12130.2801,W,1,08,1.3,10.1,M,-32.8,M,,*6B
$PYRTM,2024,124.087492036296,15.197139446435
$GPGGA,020558.00,3459.8004,N,12130.2808,W,1,08,1.3,9.2,M,-32.8,M,,*55
$PYRTM,2024,124.087503618831,15.197151028970
$GPGGA,020559.00,3459.8014,N,12130.2809,W,1,08,1.3,9.1,M,-32.8,M,,*57
$PYRTM,2024,124.087515184167,15.197162594306
$GPGGA,020600.00,3459.8024,N,12130.2806,W,1,08,1.3,9.4,M,-32.8,M,,*51
$PYRTM,2024,124.087526774954,15.197174185093
$GPGGA,020601.00,3459.8039,N,12130.2807,W,1,08,1.3,9.7,M,-32.8,M,,*5E
$PYRTM,2024,124.087538332222,15.197185742361
$GPGGA,020602.00,3459.8054,N,12130.2812,W,1,08,1.3,9.4,M,-32.8,M,,*51
$PYRTM,2024,124.087549922674,15.197197332813
$GPGGA,020603.00,3459.8065,N,12130.2817,W,1,08,1.3,9.6,M,-32.8,M,,*55
$PYRTM,2024,124.087561480718,15.197208890856
$GPGGA,020604.00,3459.8077,N,12130.2822,W,1,08,1.3,9.9,M,-32.8,M,,*58
$PYRTM,2024,124.087573070266,15.197220480417
$GPGGA,020605.00,3459.8092,N,12130.2828,W,1,08,1.3,9.4,M,-32.8,M,,*55
$PYRTM,2024,124.087584627824,15.197232037963
$GPGGA,020606.00,3459.8106,N,12130.2832,W,1,08,1.3,9.1,M,-32.8,M,,*54
$PYRTM,2024,124.087592038449,15.197239448588
$GPGGA,020607.00,3459.8120,N,12130.2831,W,1,08,1.3,9.2,M,-32.8,M,,*51
$PYRTM,2024,124.087607777512,15.197255187650
$GPGGA,020608.00,3459.8135,N,12130.2830,W,1,08,1.3,9.4,M,-32.8,M,,*5D
$PYRTM,2024,124.087619364155,15.197266774294
$GPGGA,020609.00,3459.8148,N,12130.2835,W,1,08,1.3,9.5,M,-32.8,M,,*52
$PYRTM,2024,124.087630925428,15.197278335567
$GPGGA,020610.00,3459.8160,N,12130.2844,W,1,08,1.3,9.4,M,-32.8,M,,*57
$PYRTM,2024,124.087642513345,15.197289923484
$GPGGA,020611.00,3459.8175,N,12130.2850,W,1,08,1.3,9.1,M,-32.8,M,,*52
$PYRTM,2024,124.087654074618,15.197301484757
$GPGGA,020612.00,3459.8190,N,12130.2851,W,1,08,1.3,8.8,M,-32.8,M,,*53
$PYRTM,2024,124.087665663183,15.197313073322
$GPGGA,020613.00,3459.8201,N,12130.2849,W,1,08,1.3,9.1,M,-32.8,M,,*58
$PYRTM,2024,124.087677223715,15.197324633854
$GPGGA,020614.00,3459.8210,N,12130.2850,W,1,08,1.3,9.7,M,-32.8,M,,*51
$PYRTM,2024,124.087688809120,15.197336219259
$GPGGA,020615.00,3459.8224,N,12130.2855,W,1,08,1.3,9.5,M,-32.8,M,,*50
$PYRTM,2024,124.087700370174,15.197347780312
$GPGGA,020616.00,3459.8240,N,12130.2862,W,1,08,1.3,8.8,M,-32.8,M,,*59
$PYRTM,2024,124.087711957164,15.197359367303
$GPGGA,020617.00,3459.8253,N,12130.2867,W,1,08,1.3,8.6,M,-32.8,M,,*51
$PYRTM,2024,124.087723519491,15.197370929630
$GPGGA,020618.00,3459.8264,N,12130.2868,W,1,08,1.3,9.2,M,-32.8,M,,*50
$PYRTM,2024,124.087730926840,15.197378336991
$GPGGA,020619.00,3459.8277,N,12130.2868,W,1,08,1.3,9.7,M,-32.8,M,,*56
$PYRTM,2024,124.087749560868,15.197396971007
$GPGGA,020620.00,3459.8292,N,12130.2870,W,1,08,1.3,10.1,M,-32.8,M,,*60
$PYRTM,2024,124.087758256794,15.197405666933
$GPGGA,020621.00,3459.8308,N,12130.2877,W,1,08,1.3,9.7,M,-32.8,M,,*5A
$PYRTM,2024,124.087765648206,15.197413058345
$GPGGA,020622.00,3459.8323,N,12130.2885,W,1,08,1.3,9.0,M,-32.8,M,,*5A
$PYRTM,2024,124.087777338125,15.197424748264
$GPGGA,020623.00,3459.8335,N,12130.2890,W,1,08,1.0,8.9,M,-32.8,M,,*53
$PYRTM,2024,124.087792965579,15.197440375718
$GPGGA,020624.00,3459.8347,N,12130.2892,W,1,08,1.0,9.3,M,-32.8,M,,*58
$PYRTM,2024,124.087804551157,15.197451961308
$GPGGA,020625.00,3459.8362,N,12130.2891,W,1,08,1.3,9.4,M,-32.8,M,,*59
$PYRTM,2024,124.087811960475,15.197459370613
$GPGGA,020626.00,3459.8375,N,12130.2891,W,1,08,1.0,9.8,M,-32.8,M,,*53
$PYRTM,2024,124.087827699225,15.197475109363
$GPGGA,020627.00,3459.8387,N,12130.2897,W,1,08,1.0,9.9,M,-32.8,M,,*58
$PYRTM,2024,124.087839261157,15.197486671296
$GPGGA,020628.00,3459.8401,N,12130.2908,W,1,08,1.0,9.2,M,-32.8,M,,*52
$PYRTM,2024,124.087850848021,15.197498258160
$GPGGA,020629.00,3459.8414,N,12130.2916,W,1,08,1.0,8.4,M,-32.8,M,,*5F
$PYRTM,2024,124.087862408194,15.197509818333
$GPGGA,020630.00,3459.8423,N,12130.2914,W,1,08,1.0,8.6,M,-32.8,M,,*53
$PYRTM,2024,124.087873996678,15.197521406817
$GPGGA,020631.00,3459.8433,N,12130.2907,W,1,08,1.0,9.3,M,-32.8,M,,*55
$PYRTM,2024,124.087881390417,15.197528800556
$GPGGA,020632.00,3459.8447,N,12130.2906,W,1,08,1.0,9.3,M,-32.8,M,,*54
$PYRTM,2024,124.087897146748,15.197544556887
$GPGGA,020633.00,3459.8463,N,12130.2917,W,1,08,1.0,8.3,M,-32.8,M,,*52
$PYRTM,2024,124.087908707396,15.197556117535
$GPGGA,020634.00,3459.8476,N,12130.2930,W,1,08,1.0,7.6,M,-32.8,M,,*5E
$PYRTM,2024,124.087920306887,15.197567717025
$GPGGA,020635.00,3459.8486,N,12130.2933,W,1,08,1.0,7.7,M,-32.8,M,,*52
$PYRTM,2024,124.087931855706,15.197579265845
$GPGGA,020636.00,3459.8496,N,12130.2927,W,1,08,1.0,8.5,M,-32.8,M,,*58
$PYRTM,2024,124.087943440394,15.197590850532
$GPGGA,020637.00,3459.8509,N,12130.2923,W,1,08,1.0,9.3,M,-32.8,M,,*5D
$PYRTM,2024,124.087955003287,15.197602413438
$GPGGA,020638.00,3459.8528,N,12130.2926,W,1,08,1.0,9.5,M,-32.8,M,,*52
$PYRTM,2024,124.087962409653,15.197609819803
$GPGGA,020639.00,3459.8547,N,12130.2937,W,1,08,1.0,8.7,M,-32.8,M,,*59
$PYRTM,2024,124.087978150590,15.197625560741
$GPGGA,020640.00,3459.8560,N,12130.2948,W,1,08,1.0,8.2,M,-32.8,M,,*5F
$PYRTM,2024,124.087989737569,15.197637147708
$GPGGA,020641.00,3459.8568,N,12130.2948,W,1,08,1.0,8.8,M,-32.8,M,,*5C
$PYRTM,2024,124.087997143681,15.197644553819
$GPGGA,020642.00,3459.8579,N,12130.2942,W,1,08,1.0,9.5,M,-32.8,M,,*59
$PYRTM,2024,124.088012885625,15.197660295764
$GPGGA,020643.00,3459.8595,N,12130.2941,W,1,08,1.0,9.4,M,-32.8,M,,*58
$PYRTM,2024,124.088024447546,15.197671857697
$GPGGA,020644.00,3459.8610,N,12130.2949,W,1,08,1.0,8.8,M,-32.8,M,,*54
$PYRTM,2024,124.088036033495,15.197683443646
$GPGGA,020645.00,3459.8622,N,12130.2957,W,1,08,1.0,8.6,M,-32.8,M,,*55
$PYRTM,2024,124.088047596285,15.197695006435
$GPGGA,020646.00,3459.8631,N,12130.2961,W,1,08,1.0,9.2,M,-32.8,M,,*54
$PYRTM,2024,124.088059181852,15.197706591991
$GPGGA,020647.00,3459.8642,N,12130.2961,W,1,08,1.0,9.6,M,-32.8,M,,*55
$PYRTM,2024,124.088070743704,15.197718153843
$GPGGA,020648.00,3459.8656,N,12130.2962,W,1,08,1.0,9.9,M,-32.8,M,,*53
$PYRTM,2024,124.088082342951,15.197729753090
$GPGGA,020649.00,3459.8671,N,12130.2961,W,1,08,1.0,10.1,M,-32.8,M,,*64
$PYRTM,2024,124.088089725174,15.197737135312
$GPGGA,020650.00,3459.8686,N,12130.2962,W,1,08,1.0,10.1,M,-32.8,M,,*67
$PYRTM,2024,124.088108385926,15.197755796065
$GPGGA,020651.00,3459.8699,N,12130.2970,W,1,08,1.0,10.2,M,-32.8,M,,*68
$PYRTM,2024,124.088117038079,15.197764448218
$GPGGA,020652.00,3459.8709,N,12130.2979,W,1,08,1.0,10.1,M,-32.8,M,,*69
$PYRTM,2024,124.088128626458,15.197776036597
$GPGGA,020653.00,3459.8721,N,12130.2980,W,1,08,1.0,10.5,M,-32.8,M,,*60
$PYRTM,2024,124.088140187963,15.197787598102
$GPGGA,020654.00,3459.8737,N,12130.2974,W,1,08,1.0,11.0,M,-32.8,M,,*6F
$PYRTM,2024,124.088151774826,15.197799184965
$GPGGA,020655.00,3459.8753,N,12130.2971,W,1,08,1.0,11.1,M,-32.8,M,,*68
$PYRTM,2024,124.088159169630,15.197806579769
$GPGGA,020656.00,3459.8766,N,12130.2977,W,1,08,1.0,11.0,M,-32.8,M,,*6A
$PYRTM,2024,124.088174927361,15.197822337512
$GPGGA,020657.00,3459.8779,N,12130.2988,W,1,08,1.0,10.4,M,-32.8,M,,*60
$PYRTM,2024,124.088186487211,15.197833897350
$GPGGA,020658.00,3459.8794,N,12130.2995,W,1,08,1.0,9.9,M,-32.8,M,,*55
$PYRTM,2024,124.088198071331,15.197845481470
$GPGGA,020659.00,3459.8806,N,12130.2992,W,1,08,1.0,10.1,M,-32.8,M,,*67
$PYRTM,2024,124.088209633287,15.197857043426
$GPGGA,020700.00,3459.8818,N,12130.2986,W,1,08,1.0,10.7,M,-32.8,M,,*66
$PYRTM,2024,124.088221223565,15.197868633704
$GPGGA,020701.00,3459.8832,N,12130.2984,W,1,08,1.0,10.8,M,-32.8,M,,*62
$PYRTM,2024,124.088228616447,15.197876026586
$GPGGA,020702.00,3459.8846,N,12130.2992,W,1,08,1.0,10.3,M,-32.8,M,,*6E
$PYRTM,2024,124.088244371377,15.197891781516
$GPGGA,020703.00,3459.8858,N,12130.3004,W,1,08,1.0,10.2,M,-32.8,M,,*66
$PYRTM,2024,124.088255930613,15.197903340752
$GPGGA,020704.00,3459.8869,N,12130.3006,W,1,08,1.0,10.7,M,-32.8,M,,*64
$PYRTM,2024,124.088267519259,15.197914929398
$GPGGA,020705.00,3459.8885,N,12130.3002,W,1,08,1.0,10.6,M,-32.8,M,,*62
$PYRTM,2024,124.088274912002,15.197922322141
$GPGGA,020706.00,3459.8902,N,12130.3003,W,1,08,1.0,10.5,M,-32.8,M,,*6D
$PYRTM,2024,124.088290659757,15.197938069896
$GPGGA,020707.00,3459.8914,N,12130.3012,W,1,08,1.0,10.3,M,-32.8,M,,*6D
$PYRTM,2024,124.088302225961,15.197949636100
$GPGGA,020708.00,3459.8924,N,12130.3021,W,1,08,1.0,10.4,M,-32.8,M,,*66
$PYRTM,2024,124.088309634468,15.197957044618
$GPGGA,020709.00,3459.8937,N,12130.3024,W,1,08,1.0,10.6,M,-32.8,M,,*62
$PYRTM,2024,124.088325375405,15.197972785556
$GPGGA,020710.00,3459.8952,N,12130.3022,W,1,08,1.0,11.0,M,-32.8,M,,*68
$PYRTM,2024,124.088332782431,15.197980192569
$GPGGA,020711.00,3459.8966,N,12130.3023,W,1,08,1.0,11.1,M,-32.8,M,,*6E
$PYRTM,2024,124.088348523218,15.197995933356
$GPGGA,020712.00,3459.8981,N,12130.3033,W,1,08,1.0,10.8,M,-32.8,M,,*6D
$PYRTM,2024,124.088360111458,15.198007521597
$GPGGA,020713.00,3459.8994,N,12130.3044,W,1,08,1.0,10.5,M,-32.8,M,,*65
$PYRTM,2024,124.088371672396,15.198019082535
$GPGGA,020714.00,3459.9004,N,12130.3047,W,1,08,1.0,10.7,M,-32.8,M,,*62
$PYRTM,2024,124.088383257894,15.198030668032
$GPGGA,020715.00,3459.9016,N,12130.3044,W,1,08,1.0,11.3,M,-32.8,M,,*66
$PYRTM,2024,124.088394820648,15.198042230787
$GPGGA,020716.00,3459.9032,N,12130.3045,W,1,08,1.0,11.5,M,-32.8,M,,*64
$PYRTM,2024,124.088406420856,15.198053830995
$GPGGA,020717.00,3459.9049,N,12130.3052,W,1,08,1.0,11.2,M,-32.8,M,,*68
$PYRTM,2024,124.088417968565,15.198065378704
$GPGGA,020718.00,3459.9063,N,12130.3062,W,1,08,1.0,10.3,M,-32.8,M,,*6C
$PYRTM,2024,124.088429556412,15.198076966551
$GPGGA,020719.00,3459.9071,N,12130.3068,W,1,08,1.0,10.5,M,-32.8,M,,*62
$PYRTM,2024,124.088441116273,15.198088526412
$GPGGA,020720.00,3459.9083,N,12130.3071,W,1,08,1.0,10.8,M,-32.8,M,,*60
$PYRTM,2024,124.088448523819,15.198095933958
$GPGGA,020721.00,3459.9101,N,12130.3074,W,1,08,1.0,10.3,M,-32.8,M,,*64
$PYRTM,2024,124.088467159144,15.198114569282
$GPGGA,020722.00,3459.9115,N,12130.3076,W,1,08,1.0,11.0,M,-32.8,M,,*62
$PYRTM,2024,124.088475851273,15.198123261412
$GPGGA,020723.00,3459.9125,N,12130.3080,W,1,08,1.0,11.5,M,-32.8,M,,*6C
$PYRTM,2024,124.088487412407,15.198134822546
$GPGGA,020724.00,3459.9139,N,12130.3089,W,1,08,1.0,11.3,M,-32.8,M,,*69
$PYRTM,2024,124.088494819919,15.198142230058
$GPGGA,020725.00,3459.9155,N,12130.3098,W,1,08,1.0,10.3,M,-32.8,M,,*63
$PYRTM,2024,124.088510560625,15.198157970775
$GPGGA,020726.00,3459.9167,N,12130.3102,W,1,08,1.0,9.9,M,-32.8,M,,*51
$PYRTM,2024,124.088522149734,15.198169559873
$GPGGA,020727.00,3459.9178,N,12130.3100,W,1,08,1.0,10.2,M,-32.8,M,,*6F
$PYRTM,2024,124.088533709618,15.198181119757
$GPGGA,020728.00,3459.9192,N,12130.3098,W,1,08,1.0,10.4,M,-32.8,M,,*62
$PYRTM,2024,124.088545297407,15.198192707546
$GPGGA,020729.00,3459.9207,N,12130.3103,W,1,08,1.0,10.4,M,-32.8,M,,*6F
$PYRTM,2024,124.088556858160,15.198204268299
$GPGGA,020730.00,3459.9219,N,12130.3114,W,1,08,1.0,10.4,M,-32.8,M,,*6E
$PYRTM,2024,124.088568447685,15.198215857824
$GPGGA,020731.00,3459.9229,N,12130.3123,W,1,08,1.0,10.6,M,-32.8,M,,*6A
$PYRTM,2024,124.088580007002,15.198227417141
$GPGGA,020732.00,3459.9243,N,12130.3126,W,1,08,1.0,10.6,M,-32.8,M,,*60
$PYRTM,2024,124.088591595810,15.198239005949
$GPGGA,020733.00,3459.9261,N,12130.3127,W,1,08,1.0,10.0,M,-32.8,M,,*66
$PYRTM,2024,124.088603152581,15.198250562720
$GPGGA,020734.00,3459.9275,N,12130.3129,W,1,08,1.0,9.8,M,-32.8,M,,*5A
$PYRTM,2024,124.088617649271,15.198265059410
$GPGGA,020735.00,3459.9283,N,12130.3134,W,1,08,1.0,10.4,M,-32.8,M,,*6A
$PYRTM,2024,124.088629196308,15.198276606447
$GPGGA,020736.00,3459.9295,N,12130.3140,W,1,08,1.0,10.3,M,-32.8,M,,*6A
$PYRTM,2024,124.088637890301,15.198285300440
$GPGGA,020737.00,3459.9312,N,12130.3147,W,1,08,1.0,9.3,M,-32.8,M,,*5A
$PYRTM,2024,124.088649451181,15.198296861319
$GPGGA,020738.00,3459.9324,N,12130.3154,W,1,08,1.0,8.6,M,-32.8,M,,*56
$PYRTM,2024,124.088656857431,15.198304267569
$GPGGA,020739.00,3459.9333,N,12130.3158,W,1,08,1.0,8.7,M,-32.8,M,,*5C
$PYRTM,2024,124.088672599062,15.198320009213
$GPGGA,020740.00,3459.9345,N,12130.3158,W,1,08,1.0,8.8,M,-32.8,M,,*5C
$PYRTM,2024,124.088684188831,15.198331598970
$GPGGA,020741.00,3459.9360,N,12130.3159,W,1,08,1.0,9.0,M,-32.8,M,,*52
$PYRTM,2024,124.088695748275,15.198343158414
$GPGGA,020742.00,3459.9373,N,12130.3164,W,1,08,1.0,9.3,M,-32.8,M,,*5E
$PYRTM,2024,124.088707337106,15.198354747245
$GPGGA,020743.00,3459.9383,N,12130.3175,W,1,08,1.0,9.5,M,-32.8,M,,*56
$PYRTM,2024,124.088714729780,15.198362139931
$GPGGA,020744.00,3459.9396,N,12130.3183,W,1,08,1.0,9.1,M,-32.8,M,,*58
$PYRTM,2024,124.088726897650,15.198374307801
$GPGGA,020745.00,3459.9412,N,12130.3187,W,1,08,1.0,8.4,M,-32.8,M,,*52
$PYRTM,2024,124.088742044005,15.198389454144
$GPGGA,020746.00,3459.9426,N,12130.3191,W,1,08,1.0,8.3,M,-32.8,M,,*56
$PYRTM,2024,124.088753633970,15.198401044109
$GPGGA,020747.00,3459.9437,N,12130.3194,W,1,08,1.0,9.1,M,-32.8,M,,*51
$PYRTM,2024,124.088765193310,15.198412603449
$GPGGA,020748.00,3459.9448,N,12130.3193,W,1,08,1.0,10.2,M,-32.8,M,,*6A
$PYRTM,2024,124.088772598553,15.198420008692
$GPGGA,020749.00,3459.9465,N,12130.3194,W,1,08,1.0,10.5,M,-32.8,M,,*64
$PYRTM,2024,124.088788340509,15.198435750648
$GPGGA,020750.00,3459.9481,N,12130.3202,W,1,08,1.0,9.8,M,-32.8,M,,*5F
$PYRTM,2024,124.088799927292,15.198447337431
$GPGGA,020751.00,3459.9489,N,12130.3213,W,1,08,1.0,9.2,M,-32.8,M,,*5C
$PYRTM,2024,124.088807335718,15.198454745856
$GPGGA,020752.00,3459.9495,N,12130.3216,W,1,08,1.0,9.4,M,-32.8,M,,*51
$PYRTM,2024,124.088825968900,15.198473379039
$GPGGA,020753.00,3459.9509,N,12130.3212,W,1,08,1.0,9.8,M,-32.8,M,,*5C
$PYRTM,2024,124.088834637720,15.198482047859
$GPGGA,020754.00,3459.9525,N,12130.3209,W,1,08,1.0,10.1,M,-32.8,M,,*6E
$PYRTM,2024,124.088842044502,15.198489454641
$GPGGA,020755.00,3459.9536,N,12130.3215,W,1,08,1.0,10.3,M,-32.8,M,,*62
$PYRTM,2024,124.088857785058,15.198505195197
$GPGGA,020756.00,3459.9546,N,12130.3228,W,1,08,1.0,10.8,M,-32.8,M,,*63
$PYRTM,2024,124.088869373218,15.198516783356
$GPGGA,020757.00,3459.9559,N,12130.3239,W,1,08,1.0,9.8,M,-32.8,M,,*54
$PYRTM,2024,124.088880934282,15.198528344421
$GPGGA,020758.00,3459.9573,N,12130.3243,W,1,08,1.0,9.3,M,-32.8,M,,*55
$PYRTM,2024,124.088888340312,15.198535750451
$GPGGA,020759.00,3459.9584,N,12130.3240,W,1,08,1.0,9.4,M,-32.8,M,,*58
$PYRTM,2024,124.088904081250,15.198551491389
$GPGGA,020800.00,3459.9595,N,12130.3238,W,1,08,1.0,10.1,M,-32.8,M,,*69
$PYRTM,2024,124.088915682396,15.198563092535
$GPGGA,020801.00,3459.9608,N,12130.3241,W,1,08,1.0,10.8,M,-32.8,M,,*68
$PYRTM,2024,124.088923063056,15.198570473194
$GPGGA,020802.00,3459.9621,N,12130.3249,W,1,08,1.0,10.6,M,-32.8,M,,*66
$PYRTM,2024,124.088938821319,15.198586231470
$GPGGA,020803.00,3459.9635,N,12130.3260,W,1,08,1.0,9.8,M,-32.8,M,,*5F
$PYRTM,2024,124.088950378229,15.198597788368
$GPGGA,020804.00,3459.9648,N,12130.3267,W,1,08,1.0,9.1,M,-32.8,M,,*5C
$PYRTM,2024,124.088957678877,15.198605089016
$GPGGA,020805.00,3459.9659,N,12130.3267,W,1,08,1.0,9.3,M,-32.8,M,,*5F
$PYRTM,2024,124.088969489375,15.198616899514
$GPGGA,020806.00,3459.9671,N,12130.3264,W,1,08,1.0,9.7,M,-32.8,M,,*51
$PYRTM,2024,124.088985110023,15.198632520162
$GPGGA,020807.00,3459.9687,N,12130.3265,W,1,08,1.0,9.9,M,-32.8,M,,*56
$PYRTM,2024,124.088996674687,15.198644084826
$GPGGA,020808.00,3459.9702,N,12130.3274,W,1,08,1.0,9.8,M,-32.8,M,,*54
$PYRTM,2024,124.089004083438,15.198651493576
$GPGGA,020809.00,3459.9713,N,12130.3285,W,1,08,1.0,10.0,M,-32.8,M,,*6B
$PYRTM,2024,124.089019823507,15.198667233646
$GPGGA,020810.00,3459.9723,N,12130.3291,W,1,08,1.0,9.9,M,-32.8,M,,*54
$PYRTM,2024,124.089031409306,15.198678819444
$GPGGA,020811.00,3459.9739,N,12130.3291,W,1,08,1.0,9.5,M,-32.8,M,,*52
$PYRTM,2024,124.089042972176,15.198690382315
$GPGGA,020812.00,3459.9758,N,12130.3292,W,1,08,1.0,8.1,M,-32.8,M,,*50
$PYRTM,2024,124.089054562465,15.198701972604
$GPGGA,020813.00,3459.9771,N,12130.3298,W,1,08,1.0,7.6,M,-32.8,M,,*58
$PYRTM,2024,124.089066119583,15.198713529722
$GPGGA,020814.00,3459.9777,N,12130.3303,W,1,08,1.0,7.9,M,-32.8,M,,*55
$PYRTM,2024,124.089077709965,15.198725120104
$GPGGA,020815.00,3459.9786,N,12130.3303,W,1,08,1.0,8.1,M,-32.8,M,,*5D
$PYRTM,2024,124.089085101227,15.198732511366
$GPGGA,020816.00,3459.9802,N,12130.3303,W,1,08,1.0,7.8,M,-32.8,M,,*5B
$PYRTM,2024,124.089103751563,15.198751161701
$GPGGA,020817.00,3459.9818,N,12130.3309,W,1,08,1.0,6.6,M,-32.8,M,,*54
$PYRTM,2024,124.089112418576,15.198759828715
$GPGGA,020818.00,3459.9830,N,12130.3320,W,1,08,1.0,6.2,M,-32.8,M,,*5E
$PYRTM,2024,124.089124004803,15.198771414942
$GPGGA,020819.00,3459.9837,N,12130.3324,W,1,08,1.0,6.6,M,-32.8,M,,*58
$PYRTM,2024,124.089135565532,15.198782975671
$GPGGA,020820.00,3459.9848,N,12130.3321,W,1,08,1.0,7.5,M,-32.8,M,,*5D
$PYRTM,2024,124.089147151655,15.198794561794
$GPGGA,020821.00,3459.9863,N,12130.3321,W,1,08,1.0,7.7,M,-32.8,M,,*57
$PYRTM,2024,124.089158713299,15.198806123437
$GPGGA,020822.00,3459.9878,N,12130.3327,W,1,08,1.0,7.6,M,-32.8,M,,*59
$PYRTM,2024,124.089166119965,15.198813530116
$GPGGA,020823.00,3459.9888,N,12130.3334,W,1,08,1.0,7.7,M,-32.8,M,,*54
$PYRTM,2024,124.089184754317,15.198832164456
$GPGGA,020824.00,3459.9897,N,12130.3339,W,1,08,1.0,8.0,M,-32.8,M,,*58
$PYRTM,2024,124.089193450891,15.198840861030
$GPGGA,020825.00,3459.9909,N,12130.3343,W,1,08,1.0,8.2,M,-32.8,M,,*50
$PYRTM,2024,124.089205013391,15.198852423530
$GPGGA,020826.00,3459.9922,N,12130.3349,W,1,08,1.0,7.8,M,-32.8,M,,*55
$PYRTM,2024,124.089216597720,15.198864007870
$GPGGA,020827.00,3459.9936,N,12130.3353,W,1,08,1.0,7.8,M,-32.8,M,,*5A
$PYRTM,2024,124.089228158507,15.198875568646
$GPGGA,020828.00,3459.9949,N,12130.3356,W,1,08,1.0,8.1,M,-32.8,M,,*5E
$PYRTM,2024,124.089235566516,15.198882976655
$GPGGA,020829.00,3459.9961,N,12130.3356,W,1,08,1.0,8.7,M,-32.8,M,,*53
$PYRTM,2024,124.089251306250,15.198898716389
$GPGGA,020830.00,3459.9975,N,12130.3361,W,1,08,1.0,8.8,M,-32.8,M,,*55
$PYRTM,2024,124.089262897245,15.198910307384
$GPGGA,020831.00,3459.9988,N,12130.3371,W,1,08,1.0,8.5,M,-32.8,M,,*5A
$PYRTM,2024,124.089270187951,15.198917598090
$GPGGA,020832.00,3459.9999,N,12130.3380,W,1,08,1.0,8.4,M,-32.8,M,,*56
$PYRTM,2024,124.089286041771,15.198933451910
$GPGGA,020833.00,3500.0012,N,12130.3380,W,1,08,1.0,8.4,M,-32.8,M,,*59
$PYRTM,2024,124.089297602824,15.198945012975
$GPGGA,020834.00,3500.0029,N,12130.3378,W,1,08,1.0,8.0,M,-32.8,M,,*55
$PYRTM,2024,124.089309191065,15.198956601204
$GPGGA,020835.00,3500.0044,N,12130.3382,W,1,08,1.0,7.6,M,-32.8,M,,*53
$PYRTM,2024,124.089320751562,15.198968161701
$GPGGA,020836.00,3500.0052,N,12130.3390,W,1,08,1.0,7.8,M,-32.8,M,,*5A
$PYRTM,2024,124.089332339225,15.198979749375
$GPGGA,020837.00,3500.0060,N,12130.3396,W,1,08,1.0,8.7,M,-32.8,M,,*5C
