$PYRTM,2024,127.000015154653,18.109662564803
$GPGGA,000000.00,3357.6920,N,11922.5640,W,1,10,0.8,5.0,M,-33.6,M,,*58
$PYRTM,2024,127.000026738877,18.109674149016
$GPGGA,000001.00,3357.6917,N,11922.5644,W,1,10,0.8,5.1,M,-33.6,M,,*58
$PYRTM,2024,127.000034007604,18.109681417743
$GPGGA,000002.00,3357.6912,N,11922.5647,W,1,10,0.8,5.0,M,-33.6,M,,*5C
$PYRTM,2024,127.000049878727,18.109697288866
$GPGGA,000003.00,3357.6905,N,11922.5649,W,1,10,0.8,4.9,M,-33.6,M,,*5D
$PYRTM,2024,127.000057154410,18.109704564549
$GPGGA,000004.00,3357.6900,N,11922.5651,W,1,10,0.8,4.9,M,-33.6,M,,*56
$PYRTM,2024,127.000073025324,18.109720435463
$GPGGA,000005.00,3357.6899,N,11922.5654,W,1,10,0.8,4.9,M,-33.6,M,,*53
$PYRTM,2024,127.000084600637,18.109732010775
$GPGGA,000006.00,3357.6896,N,11922.5658,W,1,10,0.8,4.9,M,-33.6,M,,*53
$PYRTM,2024,127.000096175208,18.109743585347
$GPGGA,000007.00,3357.6891,N,11922.5662,W,1,10,0.8,5.0,M,-33.6,M,,*54
$PYRTM,2024,127.000107747049,18.109755157188
$GPGGA,000008.00,3357.6884,N,11922.5665,W,1,10,0.8,4.9,M,-33.6,M,,*50
$PYRTM,2024,127.000119388866,18.109766799005
$GPGGA,000009.00,3357.6881,N,11922.5666,W,1,10,0.8,4.8,M,-33.6,M,,*56
$PYRTM,2024,127.000130894618,18.109778304757
$GPGGA,000010.00,3357.6879,N,11922.5668,W,1,10,0.8,4.9,M,-33.6,M,,*56
$PYRTM,2024,127.000142480556,18.109789890694
$GPGGA,000011.00,3357.6875,N,11922.5672,W,1,10,0.8,4.9,M,-33.6,M,,*50
$PYRTM,2024,127.000149746979,18.109797157118
$GPGGA,000012.00,3357.6869,N,11922.5675,W,1,10,0.8,4.7,M,-33.6,M,,*57
$PYRTM,2024,127.000165617211,18.109813027350
$GPGGA,000013.00,3357.6864,N,11922.5678,W,1,10,0.8,4.5,M,-33.6,M,,*54
$PYRTM,2024,127.000177192535,18.109824602674
$GPGGA,000014.00,3357.6861,N,11922.5680,W,1,10,0.8,4.6,M,-33.6,M,,*52
$PYRTM,2024,127.000188778889,18.109836189028
$GPGGA,000015.00,3357.6858,N,11922.5682,W,1,10,0.8,4.7,M,-33.6,M,,*5A
$PYRTM,2024,127.000196044213,18.109843454352
$GPGGA,000016.00,3357.6853,N,11922.5684,W,1,10,0.8,4.7,M,-33.6,M,,*54
$PYRTM,2024,127.000214807569,18.109862217708
$GPGGA,000017.00,3357.6847,N,11922.5687,W,1,10,0.8,4.7,M,-33.6,M,,*53
$PYRTM,2024,127.000223485613,18.109870895752
$GPGGA,000018.00,3357.6843,N,11922.5690,W,1,10,0.8,4.6,M,-33.6,M,,*5F
$PYRTM,2024,127.000235062315,18.109882472454
$GPGGA,000019.00,3357.6839,N,11922.5693,W,1,10,0.8,4.6,M,-33.6,M,,*50
$PYRTM,2024,127.000242341840,18.109889751979
$GPGGA,000020.00,3357.6835,N,11922.5697,W,1,10,0.8,4.7,M,-33.6,M,,*53
$PYRTM,2024,127.000258218264,18.109905628414
$GPGGA,000021.00,3357.6831,N,11922.5698,W,1,10,0.8,4.7,M,-33.6,M,,*59
$PYRTM,2024,127.000265490428,18.109912900567
$GPGGA,000022.00,3357.6827,N,11922.5699,W,1,10,0.8,4.8,M,-33.6,M,,*53
$PYRTM,2024,127.000281385185,18.109928795324
$GPGGA,000023.00,3357.6821,N,11922.5701,W,1,10,0.8,4.9,M,-33.6,M,,*55
$PYRTM,2024,127.000292935359,18.109940345498
$GPGGA,000024.00,3357.6816,N,11922.5706,W,1,10,0.8,4.7,M,-33.6,M,,*5F
$PYRTM,2024,127.000304508218,18.109951918356
$GPGGA,000025.00,3357.6813,N,11922.5710,W,1,10,0.8,4.4,M,-33.6,M,,*5F
$PYRTM,2024,127.000316081620,18.109963491759
$GPGGA,000026.00,3357.6810,N,11922.5712,W,1,10,0.8,4.5,M,-33.6,M,,*5C
$PYRTM,2024,127.000327655602,18.109975065741
$GPGGA,000027.00,3357.6806,N,11922.5713,W,1,10,0.8,4.6,M,-33.6,M,,*58
$PYRTM,2024,127.000339224676,18.109986634815
$GPGGA,000028.00,3357.6799,N,11922.5715,W,1,10,0.8,4.5,M,-33.6,M,,*5B
$PYRTM,2024,127.000350813947,18.109998224086
$GPGGA,000029.00,3357.6793,N,11922.5718,W,1,10,0.8,4.3,M,-33.6,M,,*5B
$PYRTM,2024,127.000362377847,18.110009787986
$GPGGA,000030.00,3357.6788,N,11922.5722,W,1,10,0.8,4.2,M,-33.6,M,,*51
$PYRTM,2024,127.000373951470,18.110021361609
$GPGGA,000031.00,3357.6786,N,11922.5727,W,1,10,0.8,4.3,M,-33.6,M,,*5A
$PYRTM,2024,127.000385520845,18.110032930984
$GPGGA,000032.00,3357.6784,N,11922.5728,W,1,10,0.8,4.3,M,-33.6,M,,*54
$PYRTM,2024,127.000397103241,18.110044513391
$GPGGA,000033.00,3357.6778,N,11922.5726,W,1,10,0.8,4.4,M,-33.6,M,,*5F
$PYRTM,2024,127.000408674225,18.110056084363
$GPGGA,000034.00,3357.6770,N,11922.5727,W,1,10,0.8,4.1,M,-33.6,M,,*54
$PYRTM,2024,127.000420248032,18.110067658171
$GPGGA,000035.00,3357.6764,N,11922.5733,W,1,10,0.8,3.5,M,-33.6,M,,*56
$PYRTM,2024,127.000431823090,18.110079233229
$GPGGA,000036.00,3357.6763,N,11922.5737,W,1,10,0.8,3.2,M,-33.6,M,,*51
$PYRTM,2024,127.000443404734,18.110090814873
$GPGGA,000037.00,3357.6762,N,11922.5737,W,1,10,0.8,3.2,M,-33.6,M,,*51
$PYRTM,2024,127.000454970012,18.110102380150
$GPGGA,000038.00,3357.6756,N,11922.5736,W,1,10,0.8,3.3,M,-33.6,M,,*59
$PYRTM,2024,127.000466555602,18.110113965741
$GPGGA,000039.00,3357.6746,N,11922.5736,W,1,10,0.8,3.2,M,-33.6,M,,*58
$PYRTM,2024,127.000478118947,18.110125529086
$GPGGA,000040.00,3357.6740,N,11922.5739,W,1,10,0.8,3.1,M,-33.6,M,,*5C
$PYRTM,2024,127.000489704410,18.110137114560
$GPGGA,000041.00,3357.6738,N,11922.5743,W,1,10,0.8,3.1,M,-33.6,M,,*5F
$PYRTM,2024,127.000501262350,18.110148672488
$GPGGA,000042.00,3357.6736,N,11922.5746,W,1,10,0.8,3.2,M,-33.6,M,,*54
$PYRTM,2024,127.000508558484,18.110155968623
$GPGGA,000043.00,3357.6731,N,11922.5748,W,1,10,0.8,3.3,M,-33.6,M,,*5D
$PYRTM,2024,127.000524410637,18.110171820775
$GPGGA,000044.00,3357.6725,N,11922.5748,W,1,10,0.8,3.4,M,-33.6,M,,*58
$PYRTM,2024,127.000536000255,18.110183410394
$GPGGA,000045.00,3357.6720,N,11922.5748,W,1,10,0.8,3.5,M,-33.6,M,,*5D
$PYRTM,2024,127.000550457014,18.110197867153
$GPGGA,000046.00,3357.6716,N,11922.5750,W,1,10,0.8,3.7,M,-33.6,M,,*50
$PYRTM,2024,127.000562031736,18.110209441875
$GPGGA,000047.00,3357.6710,N,11922.5755,W,1,10,0.8,3.4,M,-33.6,M,,*51
$PYRTM,2024,127.000573606400,18.110221016539
$GPGGA,000048.00,3357.6707,N,11922.5759,W,1,10,0.8,3.2,M,-33.6,M,,*52
$PYRTM,2024,127.000587597106,18.110235007245
$GPGGA,000049.00,3357.6704,N,11922.5761,W,1,10,0.8,3.3,M,-33.6,M,,*5A
$PYRTM,2024,127.000593859641,18.110241269780
$GPGGA,000050.00,3357.6699,N,11922.5760,W,1,10,0.8,3.4,M,-33.6,M,,*51
$PYRTM,2024,127.000605443322,18.110252853461
$GPGGA,000051.00,3357.6692,N,11922.5761,W,1,10,0.8,3.5,M,-33.6,M,,*5B
$PYRTM,2024,127.000617008542,18.110264418681
$GPGGA,000052.00,3357.6685,N,11922.5764,W,1,10,0.8,3.5,M,-33.6,M,,*5B
$PYRTM,2024,127.000624295995,18.110271706134
$GPGGA,000053.00,3357.6681,N,11922.5767,W,1,10,0.8,3.5,M,-33.6,M,,*5D
$PYRTM,2024,127.000636571227,18.110283981354
$GPGGA,000054.00,3357.6680,N,11922.5770,W,1,10,0.8,3.5,M,-33.6,M,,*5D
$PYRTM,2024,127.000651742211,18.110299152350
$GPGGA,000055.00,3357.6676,N,11922.5773,W,1,10,0.8,3.6,M,-33.6,M,,*55
$PYRTM,2024,127.000663304896,18.110310715046
$GPGGA,000056.00,3357.6670,N,11922.5772,W,1,10,0.8,3.8,M,-33.6,M,,*5F
$PYRTM,2024,127.000670698530,18.110318108669
$GPGGA,000057.00,3357.6665,N,11922.5772,W,1,10,0.8,4.0,M,-33.6,M,,*55
$PYRTM,2024,127.000686456528,18.110333866667
$GPGGA,000058.00,3357.6662,N,11922.5775,W,1,10,0.8,4.1,M,-33.6,M,,*5B
$PYRTM,2024,127.000698014977,18.110345425116
$GPGGA,000059.00,3357.6660,N,11922.5780,W,1,10,0.8,4.3,M,-33.6,M,,*50
$PYRTM,2024,127.000709605301,18.110357015440
$GPGGA,000100.00,3357.6657,N,11922.5782,W,1,10,0.8,4.3,M,-33.6,M,,*5B
$PYRTM,2024,127.000721163090,18.110368573241
$GPGGA,000101.00,3357.6652,N,11922.5781,W,1,10,0.8,4.5,M,-33.6,M,,*5A
$PYRTM,2024,127.000728453623,18.110375863762
$GPGGA,000102.00,3357.6647,N,11922.5781,W,1,10,0.8,4.4,M,-33.6,M,,*5C
$PYRTM,2024,127.000744312118,18.110391722257
$GPGGA,000103.00,3357.6642,N,11922.5784,W,1,10,0.8,4.4,M,-33.6,M,,*5D
$PYRTM,2024,127.000755900116,18.110403310255
$GPGGA,000104.00,3357.6640,N,11922.5788,W,1,10,0.8,4.5,M,-33.6,M,,*55
$PYRTM,2024,127.000767459988,18.110414870127
$GPGGA,000105.00,3357.6638,N,11922.5791,W,1,10,0.8,4.5,M,-33.6,M,,*53
$PYRTM,2024,127.000779045718,18.110426455856
$GPGGA,000106.00,3357.6633,N,11922.5791,W,1,10,0.8,4.6,M,-33.6,M,,*58
$PYRTM,2024,127.000790608380,18.110438018519
$GPGGA,000107.00,3357.6626,N,11922.5791,W,1,10,0.8,4.7,M,-33.6,M,,*5C
$PYRTM,2024,127.000802195220,18.110449605359
$GPGGA,000108.00,3357.6621,N,11922.5793,W,1,10,0.8,4.7,M,-33.6,M,,*56
$PYRTM,2024,127.000813754873,18.110461165012
$GPGGA,000109.00,3357.6618,N,11922.5796,W,1,10,0.8,4.8,M,-33.6,M,,*57
$PYRTM,2024,127.000825347164,18.110472757303
$GPGGA,000110.00,3357.6615,N,11922.5800,W,1,10,0.8,4.8,M,-33.6,M,,*52
$PYRTM,2024,127.000836904410,18.110484314549
$GPGGA,000111.00,3357.6611,N,11922.5803,W,1,10,0.8,4.9,M,-33.6,M,,*55
$PYRTM,2024,127.000844196840,18.110491606979
$GPGGA,000112.00,3357.6605,N,11922.5804,W,1,10,0.8,5.0,M,-33.6,M,,*5C
$PYRTM,2024,127.000860052419,18.110507462569
$GPGGA,000113.00,3357.6600,N,11922.5802,W,1,10,0.8,5.2,M,-33.6,M,,*5C
$PYRTM,2024,127.000871639826,18.110519049965
$GPGGA,000114.00,3357.6596,N,11922.5804,W,1,10,0.8,5.2,M,-33.6,M,,*51
$PYRTM,2024,127.000883200880,18.110530611019
$GPGGA,000115.00,3357.6592,N,11922.5810,W,1,10,0.8,5.3,M,-33.6,M,,*50
$PYRTM,2024,127.000894787500,18.110542197639
$GPGGA,000116.00,3357.6588,N,11922.5813,W,1,10,0.8,5.3,M,-33.6,M,,*5B
$PYRTM,2024,127.000906348310,18.110553758449
$GPGGA,000117.00,3357.6583,N,11922.5812,W,1,10,0.8,5.4,M,-33.6,M,,*57
$PYRTM,2024,127.000917930926,18.110565341065
$GPGGA,000118.00,3357.6577,N,11922.5811,W,1,10,0.8,5.4,M,-33.6,M,,*50
$PYRTM,2024,127.000925228206,18.110572638345
$GPGGA,000119.00,3357.6572,N,11922.5814,W,1,10,0.8,5.4,M,-33.6,M,,*51
$PYRTM,2024,127.000943977801,18.110591387940
$GPGGA,000120.00,3357.6568,N,11922.5816,W,1,10,0.8,5.5,M,-33.6,M,,*53
$PYRTM,2024,127.000952645868,18.110600056007
$GPGGA,000121.00,3357.6564,N,11922.5817,W,1,10,0.8,5.5,M,-33.6,M,,*5F
$PYRTM,2024,127.000964232789,18.110611642928
$GPGGA,000122.00,3357.6560,N,11922.5819,W,1,10,0.8,5.6,M,-33.6,M,,*55
$PYRTM,2024,127.000975794282,18.110623204421
$GPGGA,000123.00,3357.6555,N,11922.5821,W,1,10,0.8,5.6,M,-33.6,M,,*59
$PYRTM,2024,127.000987375521,18.110634785660
$GPGGA,000124.00,3357.6550,N,11922.5822,W,1,10,0.8,5.6,M,-33.6,M,,*58
$PYRTM,2024,127.000994659792,18.110642069931
$GPGGA,000125.00,3357.6545,N,11922.5821,W,1,10,0.8,5.7,M,-33.6,M,,*5F
$PYRTM,2024,127.001010544896,18.110657955046
$GPGGA,000126.00,3357.6540,N,11922.5824,W,1,10,0.8,5.8,M,-33.6,M,,*53
$PYRTM,2024,127.001017807940,18.110665218079
$GPGGA,000127.00,3357.6537,N,11922.5827,W,1,10,0.8,5.8,M,-33.6,M,,*51
$PYRTM,2024,127.001033680440,18.110681090579
$GPGGA,000128.00,3357.6533,N,11922.5828,W,1,10,0.8,5.9,M,-33.6,M,,*54
$PYRTM,2024,127.001045239687,18.110692649838
$GPGGA,000129.00,3357.6527,N,11922.5830,W,1,10,0.8,6.0,M,-33.6,M,,*53
$PYRTM,2024,127.001056826470,18.110704236620
$GPGGA,000130.00,3357.6521,N,11922.5832,W,1,10,0.8,5.9,M,-33.6,M,,*55
$PYRTM,2024,127.001068391910,18.110715802049
$GPGGA,000131.00,3357.6517,N,11922.5833,W,1,10,0.8,5.8,M,-33.6,M,,*51
$PYRTM,2024,127.001075678287,18.110723088426
$GPGGA,000132.00,3357.6513,N,11922.5834,W,1,10,0.8,5.9,M,-33.6,M,,*50
$PYRTM,2024,127.001091535660,18.110738945799
$GPGGA,000133.00,3357.6508,N,11922.5837,W,1,10,0.8,6.0,M,-33.6,M,,*52
$PYRTM,2024,127.001103121910,18.110750532049
$GPGGA,000134.00,3357.6502,N,11922.5840,W,1,10,0.8,6.0,M,-33.6,M,,*5F
$PYRTM,2024,127.001114682905,18.110762093044
$GPGGA,000135.00,3357.6497,N,11922.5841,W,1,10,0.8,5.9,M,-33.6,M,,*58
$PYRTM,2024,127.001126270694,18.110773680845
$GPGGA,000136.00,3357.6493,N,11922.5842,W,1,10,0.8,6.0,M,-33.6,M,,*56
$PYRTM,2024,127.001133562002,18.110780972141
$GPGGA,000137.00,3357.6488,N,11922.5843,W,1,10,0.8,6.1,M,-33.6,M,,*5D
$PYRTM,2024,127.001149421620,18.110796831759
$GPGGA,000138.00,3357.6483,N,11922.5846,W,1,10,0.8,6.0,M,-33.6,M,,*5D
$PYRTM,2024,127.001160979919,18.110808390058
$GPGGA,000139.00,3357.6479,N,11922.5849,W,1,10,0.8,6.0,M,-33.6,M,,*56
$PYRTM,2024,127.001172580567,18.110819990706
$GPGGA,000140.00,3357.6476,N,11922.5851,W,1,10,0.8,6.0,M,-33.6,M,,*5E
$PYRTM,2024,127.001184127755,18.110831537894
$GPGGA,000141.00,3357.6473,N,11922.5851,W,1,10,0.8,6.0,M,-33.6,M,,*5A
$PYRTM,2024,127.001195729387,18.110843139525
$GPGGA,000142.00,3357.6467,N,11922.5852,W,1,10,0.8,6.1,M,-33.6,M,,*5E
$PYRTM,2024,127.001207276806,18.110854686944
$GPGGA,000143.00,3357.6460,N,11922.5854,W,1,10,0.8,5.9,M,-33.6,M,,*55
$PYRTM,2024,127.001218863345,18.110866273484
$GPGGA,000144.00,3357.6456,N,11922.5857,W,1,10,0.8,5.6,M,-33.6,M,,*5B
$PYRTM,2024,127.001230424838,18.110877834977
$GPGGA,000145.00,3357.6454,N,11922.5860,W,1,10,0.8,5.6,M,-33.6,M,,*5C
$PYRTM,2024,127.001242011713,18.110889421852
$GPGGA,000146.00,3357.6451,N,11922.5860,W,1,10,0.8,5.7,M,-33.6,M,,*5B
$PYRTM,2024,127.001253574525,18.110900984676
$GPGGA,000147.00,3357.6444,N,11922.5859,W,1,10,0.8,5.7,M,-33.6,M,,*54
$PYRTM,2024,127.001265160035,18.110912570174
$GPGGA,000148.00,3357.6437,N,11922.5860,W,1,10,0.8,5.6,M,-33.6,M,,*54
$PYRTM,2024,127.001276720336,18.110924130475
$GPGGA,000149.00,3357.6433,N,11922.5865,W,1,10,0.8,5.1,M,-33.6,M,,*53
$PYRTM,2024,127.001284012211,18.110931422350
$GPGGA,000150.00,3357.6432,N,11922.5870,W,1,10,0.8,4.9,M,-33.6,M,,*57
$PYRTM,2024,127.001302645648,18.110950055787
$GPGGA,000151.00,3357.6429,N,11922.5870,W,1,10,0.8,4.9,M,-33.6,M,,*5C
$PYRTM,2024,127.001314233588,18.110961643727
$GPGGA,000152.00,3357.6423,N,11922.5867,W,1,10,0.8,5.0,M,-33.6,M,,*5B
$PYRTM,2024,127.001325796100,18.110973206238
$GPGGA,000153.00,3357.6416,N,11922.5868,W,1,10,0.8,4.9,M,-33.6,M,,*5B
$PYRTM,2024,127.001334607917,18.110982018056
$GPGGA,000154.00,3357.6410,N,11922.5873,W,1,10,0.8,4.4,M,-33.6,M,,*5D
$PYRTM,2024,127.001346166389,18.110993576539
$GPGGA,000155.00,3357.6408,N,11922.5876,W,1,10,0.8,4.2,M,-33.6,M,,*56
$PYRTM,2024,127.001357753218,18.111005163368
$GPGGA,000156.00,3357.6406,N,11922.5877,W,1,10,0.8,4.3,M,-33.6,M,,*5B
$PYRTM,2024,127.001369314306,18.111016724444
$GPGGA,000157.00,3357.6402,N,11922.5878,W,1,10,0.8,4.3,M,-33.6,M,,*51
$PYRTM,2024,127.001376606481,18.111024016620
$GPGGA,000158.00,3357.6395,N,11922.5878,W,1,10,0.8,4.4,M,-33.6,M,,*50
$PYRTM,2024,127.001388759051,18.111036169201
$GPGGA,000159.00,3357.6388,N,11922.5878,W,1,10,0.8,4.5,M,-33.6,M,,*5C
$PYRTM,2024,127.001404050266,18.111051460405
$GPGGA,000200.00,3357.6384,N,11922.5879,W,1,10,0.8,4.5,M,-33.6,M,,*5E
$PYRTM,2024,127.001415610683,18.111063020822
$GPGGA,000201.00,3357.6381,N,11922.5883,W,1,10,0.8,4.6,M,-33.6,M,,*5C
$PYRTM,2024,127.001422902257,18.111070312407
$GPGGA,000202.00,3357.6377,N,11922.5886,W,1,10,0.8,4.7,M,-33.6,M,,*52
$PYRTM,2024,127.001438759097,18.111086169236
$GPGGA,000203.00,3357.6372,N,11922.5886,W,1,10,0.8,4.8,M,-33.6,M,,*59
$PYRTM,2024,127.001450346586,18.111097756725
$GPGGA,000204.00,3357.6366,N,11922.5885,W,1,10,0.8,5.0,M,-33.6,M,,*51
$PYRTM,2024,127.001461908380,18.111109318519
$GPGGA,000205.00,3357.6362,N,11922.5887,W,1,10,0.8,5.0,M,-33.6,M,,*56
$PYRTM,2024,127.001473495532,18.111120905671
$GPGGA,000206.00,3357.6358,N,11922.5890,W,1,10,0.8,5.1,M,-33.6,M,,*5B
$PYRTM,2024,127.001480774363,18.111128184514
$GPGGA,000207.00,3357.6354,N,11922.5892,W,1,10,0.8,5.2,M,-33.6,M,,*57
$PYRTM,2024,127.001496645289,18.111144055428
$GPGGA,000208.00,3357.6348,N,11922.5892,W,1,10,0.8,5.1,M,-33.6,M,,*56
$PYRTM,2024,127.001508203079,18.111155613218
$GPGGA,000209.00,3357.6342,N,11922.5892,W,1,10,0.8,5.0,M,-33.6,M,,*5C
$PYRTM,2024,127.001519804502,18.111167214641
$GPGGA,000210.00,3357.6338,N,11922.5894,W,1,10,0.8,5.1,M,-33.6,M,,*5E
$PYRTM,2024,127.001531351065,18.111178761204
$GPGGA,000211.00,3357.6334,N,11922.5897,W,1,10,0.8,5.1,M,-33.6,M,,*50
$PYRTM,2024,127.001538644039,18.111186054178
$GPGGA,000212.00,3357.6329,N,11922.5900,W,1,10,0.8,5.1,M,-33.6,M,,*50
$PYRTM,2024,127.001554500567,18.111201910718
$GPGGA,000213.00,3357.6323,N,11922.5900,W,1,10,0.8,5.1,M,-33.6,M,,*5B
$PYRTM,2024,127.001566086123,18.111213496262
$GPGGA,000214.00,3357.6317,N,11922.5899,W,1,10,0.8,5.3,M,-33.6,M,,*58
$PYRTM,2024,127.001577648345,18.111225058484
$GPGGA,000215.00,3357.6312,N,11922.5899,W,1,10,0.8,5.4,M,-33.6,M,,*5B
$PYRTM,2024,127.001589229792,18.111236639931
$GPGGA,000216.00,3357.6307,N,11922.5903,W,1,10,0.8,5.4,M,-33.6,M,,*5E
$PYRTM,2024,127.001596514896,18.111243925035
$GPGGA,000217.00,3357.6302,N,11922.5907,W,1,10,0.8,5.3,M,-33.6,M,,*59
$PYRTM,2024,127.001612384444,18.111259794583
$GPGGA,000218.00,3357.6297,N,11922.5908,W,1,10,0.8,5.1,M,-33.6,M,,*56
$PYRTM,2024,127.001623944965,18.111271355104
$GPGGA,000219.00,3357.6293,N,11922.5906,W,1,10,0.8,5.2,M,-33.6,M,,*5E
$PYRTM,2024,127.001631237512,18.111278647650
$GPGGA,000220.00,3357.6288,N,11922.5905,W,1,10,0.8,5.3,M,-33.6,M,,*5C
$PYRTM,2024,127.001643041505,18.111290451644
$GPGGA,000221.00,3357.6281,N,11922.5906,W,1,10,0.8,5.1,M,-33.6,M,,*55
$PYRTM,2024,127.001661460475,18.111308870613
$GPGGA,000222.00,3357.6275,N,11922.5909,W,1,10,0.8,5.0,M,-33.6,M,,*53
$PYRTM,2024,127.001670241632,18.111317651771
$GPGGA,000223.00,3357.6272,N,11922.5912,W,1,10,0.8,5.0,M,-33.6,M,,*5F
$PYRTM,2024,127.001681829977,18.111329240116
$GPGGA,000224.00,3357.6268,N,11922.5913,W,1,10,0.8,5.1,M,-33.6,M,,*53
$PYRTM,2024,127.001689122708,18.111336532847
$GPGGA,000225.00,3357.6262,N,11922.5912,W,1,10,0.8,5.2,M,-33.6,M,,*5A
$PYRTM,2024,127.001704972407,18.111352382546
$GPGGA,000226.00,3357.6256,N,11922.5912,W,1,10,0.8,5.2,M,-33.6,M,,*5E
$PYRTM,2024,127.001712270579,18.111359680718
$GPGGA,000227.00,3357.6250,N,11922.5914,W,1,10,0.8,5.1,M,-33.6,M,,*5C
$PYRTM,2024,127.001728127072,18.111375537211
$GPGGA,000228.00,3357.6245,N,11922.5918,W,1,10,0.8,4.8,M,-33.6,M,,*53
$PYRTM,2024,127.001739687465,18.111387097616
$GPGGA,000229.00,3357.6240,N,11922.5921,W,1,10,0.8,4.7,M,-33.6,M,,*52
$PYRTM,2024,127.001746977002,18.111394387141
$GPGGA,000230.00,3357.6236,N,11922.5921,W,1,10,0.8,4.7,M,-33.6,M,,*5B
$PYRTM,2024,127.001762835058,18.111410245197
$GPGGA,000231.00,3357.6229,N,11922.5920,W,1,10,0.8,4.8,M,-33.6,M,,*5A
$PYRTM,2024,127.001774421412,18.111421831562
$GPGGA,000232.00,3357.6222,N,11922.5920,W,1,10,0.8,4.9,M,-33.6,M,,*53
$PYRTM,2024,127.001785984028,18.111433394178
$GPGGA,000233.00,3357.6216,N,11922.5922,W,1,10,0.8,4.8,M,-33.6,M,,*56
$PYRTM,2024,127.001797570752,18.111444980903
$GPGGA,000234.00,3357.6212,N,11922.5925,W,1,10,0.8,4.8,M,-33.6,M,,*52
$PYRTM,2024,127.001809132859,18.111456542998
$GPGGA,000235.00,3357.6209,N,11922.5927,W,1,10,0.8,4.9,M,-33.6,M,,*5A
$PYRTM,2024,127.001820720579,18.111468130718
$GPGGA,000236.00,3357.6203,N,11922.5926,W,1,10,0.8,5.0,M,-33.6,M,,*5A
$PYRTM,2024,127.001832279907,18.111479690046
$GPGGA,000237.00,3357.6196,N,11922.5925,W,1,10,0.8,4.8,M,-33.6,M,,*5E
$PYRTM,2024,127.001843869317,18.111491279456
$GPGGA,000238.00,3357.6189,N,11922.5926,W,1,10,0.8,4.6,M,-33.6,M,,*52
$PYRTM,2024,127.001855426412,18.111502836551
$GPGGA,000239.00,3357.6187,N,11922.5930,W,1,10,0.8,4.6,M,-33.6,M,,*5A
$PYRTM,2024,127.001862732060,18.111510142199
$GPGGA,000240.00,3357.6185,N,11922.5932,W,1,10,0.8,4.7,M,-33.6,M,,*55
$PYRTM,2024,127.001878577917,18.111525988056
$GPGGA,000241.00,3357.6179,N,11922.5931,W,1,10,0.8,4.8,M,-33.6,M,,*5B
$PYRTM,2024,127.001890162789,18.111537572928
$GPGGA,000242.00,3357.6170,N,11922.5929,W,1,10,0.8,4.6,M,-33.6,M,,*56
$PYRTM,2024,127.001901724410,18.111549134560
$GPGGA,000243.00,3357.6164,N,11922.5930,W,1,10,0.8,4.4,M,-33.6,M,,*58
$PYRTM,2024,127.001913311146,18.111560721285
$GPGGA,000244.00,3357.6161,N,11922.5933,W,1,10,0.8,4.5,M,-33.6,M,,*58
$PYRTM,2024,127.001924872569,18.111572282708
$GPGGA,000245.00,3357.6160,N,11922.5938,W,1,10,0.8,4.6,M,-33.6,M,,*50
$PYRTM,2024,127.001936459363,18.111583869502
$GPGGA,000246.00,3357.6154,N,11922.5939,W,1,10,0.8,4.7,M,-33.6,M,,*54
$PYRTM,2024,127.001943752234,18.111591162373
$GPGGA,000247.00,3357.6145,N,11922.5936,W,1,10,0.8,4.9,M,-33.6,M,,*54
$PYRTM,2024,127.001959610347,18.111607020486
$GPGGA,000248.00,3357.6138,N,11922.5933,W,1,10,0.8,5.1,M,-33.6,M,,*5D
$PYRTM,2024,127.001971167720,18.111618577859
$GPGGA,000249.00,3357.6134,N,11922.5937,W,1,10,0.8,5.2,M,-33.6,M,,*57
$PYRTM,2024,127.001982769468,18.111630179606
$GPGGA,000250.00,3357.6131,N,11922.5943,W,1,10,0.8,5.3,M,-33.6,M,,*58
$PYRTM,2024,127.001994317731,18.111641727882
$GPGGA,000251.00,3357.6127,N,11922.5945,W,1,10,0.8,5.4,M,-33.6,M,,*5F
$PYRTM,2024,127.002008695961,18.111656106100
$GPGGA,000252.00,3357.6120,N,11922.5943,W,1,10,0.8,5.5,M,-33.6,M,,*5C
$PYRTM,2024,127.002022801921,18.111670212060
$GPGGA,000253.00,3357.6113,N,11922.5941,W,1,10,0.8,5.5,M,-33.6,M,,*5F
$PYRTM,2024,127.002029051840,18.111676461979
$GPGGA,000254.00,3357.6107,N,11922.5942,W,1,10,0.8,5.6,M,-33.6,M,,*5D
$PYRTM,2024,127.002040614259,18.111688024410
$GPGGA,000255.00,3357.6105,N,11922.5947,W,1,10,0.8,5.7,M,-33.6,M,,*5A
$PYRTM,2024,127.002052200093,18.111699610231
$GPGGA,000256.00,3357.6102,N,11922.5952,W,1,10,0.8,5.7,M,-33.6,M,,*5A
$PYRTM,2024,127.002059506505,18.111706916644
$GPGGA,000257.00,3357.6096,N,11922.5953,W,1,10,0.8,5.8,M,-33.6,M,,*59
$PYRTM,2024,127.002075363183,18.111722773322
$GPGGA,000258.00,3357.6088,N,11922.5950,W,1,10,0.8,6.0,M,-33.6,M,,*51
$PYRTM,2024,127.002086925162,18.111734335301
$GPGGA,000259.00,3357.6082,N,11922.5947,W,1,10,0.8,6.3,M,-33.6,M,,*5F
$PYRTM,2024,127.002098496516,18.111745906667
$GPGGA,000300.00,3357.6079,N,11922.5951,W,1,10,0.8,6.3,M,-33.6,M,,*51
$PYRTM,2024,127.002110070972,18.111757481111
$GPGGA,000301.00,3357.6076,N,11922.5957,W,1,10,0.8,6.2,M,-33.6,M,,*58
$PYRTM,2024,127.002117350301,18.111764760440
$GPGGA,000302.00,3357.6071,N,11922.5959,W,1,10,0.8,5.9,M,-33.6,M,,*5A
$PYRTM,2024,127.002133216667,18.111780626806
$GPGGA,000303.00,3357.6064,N,11922.5957,W,1,10,0.8,5.9,M,-33.6,M,,*51
$PYRTM,2024,127.002144807813,18.111792217951
$GPGGA,000304.00,3357.6058,N,11922.5955,W,1,10,0.8,6.1,M,-33.6,M,,*50
$PYRTM,2024,127.002152187303,18.111799597442
$GPGGA,000305.00,3357.6053,N,11922.5957,W,1,10,0.8,6.3,M,-33.6,M,,*5A
$PYRTM,2024,127.002167944711,18.111815354850
$GPGGA,000306.00,3357.6050,N,11922.5961,W,1,10,0.8,6.3,M,-33.6,M,,*5F
$PYRTM,2024,127.002179515475,18.111826925613
$GPGGA,000307.00,3357.6046,N,11922.5965,W,1,10,0.8,6.4,M,-33.6,M,,*5A
$PYRTM,2024,127.002186795035,18.111834205174
$GPGGA,000308.00,3357.6039,N,11922.5964,W,1,10,0.8,6.4,M,-33.6,M,,*5C
$PYRTM,2024,127.002202663426,18.111850073576
$GPGGA,000309.00,3357.6031,N,11922.5963,W,1,10,0.8,6.3,M,-33.6,M,,*55
$PYRTM,2024,127.002214237917,18.111861648056
$GPGGA,000310.00,3357.6026,N,11922.5964,W,1,10,0.8,6.2,M,-33.6,M,,*5D
$PYRTM,2024,127.002225812350,18.111873222488
$GPGGA,000311.00,3357.6023,N,11922.5967,W,1,10,0.8,6.3,M,-33.6,M,,*5B
$PYRTM,2024,127.002237386748,18.111884796887
$GPGGA,000312.00,3357.6019,N,11922.5969,W,1,10,0.8,6.3,M,-33.6,M,,*5F
$PYRTM,2024,127.002248961771,18.111896371921
$GPGGA,000313.00,3357.6013,N,11922.5970,W,1,10,0.8,6.4,M,-33.6,M,,*5B
$PYRTM,2024,127.002260535602,18.111907945741
$GPGGA,000314.00,3357.6005,N,11922.5970,W,1,10,0.8,6.2,M,-33.6,M,,*5D
$PYRTM,2024,127.002272108600,18.111919518738
$GPGGA,000315.00,3357.6001,N,11922.5971,W,1,10,0.8,6.1,M,-33.6,M,,*5A
$PYRTM,2024,127.002283682222,18.111931092361
$GPGGA,000316.00,3357.5998,N,11922.5972,W,1,10,0.8,6.2,M,-33.6,M,,*53
$PYRTM,2024,127.002290969167,18.111938379306
$GPGGA,000317.00,3357.5993,N,11922.5974,W,1,10,0.8,6.2,M,-33.6,M,,*5F
$PYRTM,2024,127.002306834919,18.111954245058
$GPGGA,000318.00,3357.5986,N,11922.5975,W,1,10,0.8,6.1,M,-33.6,M,,*56
$PYRTM,2024,127.002318400058,18.111965810197
$GPGGA,000319.00,3357.5981,N,11922.5976,W,1,10,0.8,6.0,M,-33.6,M,,*52
$PYRTM,2024,127.002329994132,18.111977404271
$GPGGA,000320.00,3357.5977,N,11922.5976,W,1,10,0.8,6.0,M,-33.6,M,,*51
$PYRTM,2024,127.002341553264,18.111988963403
$GPGGA,000321.00,3357.5973,N,11922.5976,W,1,10,0.8,6.1,M,-33.6,M,,*55
$PYRTM,2024,127.002348833565,18.111996243715
$GPGGA,000322.00,3357.5967,N,11922.5978,W,1,10,0.8,5.9,M,-33.6,M,,*56
$PYRTM,2024,127.002360649525,18.112008059664
$GPGGA,000323.00,3357.5960,N,11922.5979,W,1,10,0.8,5.7,M,-33.6,M,,*5F
$PYRTM,2024,127.002379053970,18.112026464109
$GPGGA,000324.00,3357.5955,N,11922.5979,W,1,10,0.8,5.6,M,-33.6,M,,*5F
$PYRTM,2024,127.002387848495,18.112035258634
$GPGGA,000325.00,3357.5952,N,11922.5981,W,1,10,0.8,5.7,M,-33.6,M,,*5F
$PYRTM,2024,127.002399426134,18.112046836273
$GPGGA,000326.00,3357.5946,N,11922.5983,W,1,10,0.8,5.7,M,-33.6,M,,*5B
$PYRTM,2024,127.002406710081,18.112054120220
$GPGGA,000327.00,3357.5940,N,11922.5984,W,1,10,0.8,5.9,M,-33.6,M,,*55
$PYRTM,2024,127.002422574074,18.112069984225
$GPGGA,000328.00,3357.5934,N,11922.5983,W,1,10,0.8,6.0,M,-33.6,M,,*54
$PYRTM,2024,127.002434146528,18.112081556667
$GPGGA,000329.00,3357.5929,N,11922.5983,W,1,10,0.8,6.1,M,-33.6,M,,*58
$PYRTM,2024,127.002445720880,18.112093131019
$GPGGA,000330.00,3357.5924,N,11922.5985,W,1,10,0.8,6.2,M,-33.6,M,,*58
$PYRTM,2024,127.002457295359,18.112104705498
$GPGGA,000331.00,3357.5918,N,11922.5987,W,1,10,0.8,6.1,M,-33.6,M,,*57
$PYRTM,2024,127.002468868229,18.112116278368
$GPGGA,000332.00,3357.5913,N,11922.5989,W,1,10,0.8,5.9,M,-33.6,M,,*5A
$PYRTM,2024,127.002480442581,18.112127852720
$GPGGA,000333.00,3357.5909,N,11922.5990,W,1,10,0.8,5.9,M,-33.6,M,,*58
$PYRTM,2024,127.002487723079,18.112135133218
$GPGGA,000334.00,3357.5904,N,11922.5989,W,1,10,0.8,6.0,M,-33.6,M,,*50
$PYRTM,2024,127.002499875567,18.112147285706
$GPGGA,000335.00,3357.5897,N,11922.5990,W,1,10,0.8,6.0,M,-33.6,M,,*52
$PYRTM,2024,127.002515166470,18.112162576609
$GPGGA,000336.00,3357.5891,N,11922.5992,W,1,10,0.8,6.0,M,-33.6,M,,*55
$PYRTM,2024,127.002526739190,18.112174149329
$GPGGA,000337.00,3357.5886,N,11922.5994,W,1,10,0.8,6.0,M,-33.6,M,,*54
$PYRTM,2024,127.002538314062,18.112185724201
$GPGGA,000338.00,3357.5881,N,11922.5994,W,1,10,0.8,6.0,M,-33.6,M,,*5C
$PYRTM,2024,127.002549889167,18.112197299306
$GPGGA,000339.00,3357.5875,N,11922.5996,W,1,10,0.8,6.1,M,-33.6,M,,*55
$PYRTM,2024,127.002561465336,18.112208875475
$GPGGA,000340.00,3357.5870,N,11922.5998,W,1,10,0.8,6.1,M,-33.6,M,,*50
$PYRTM,2024,127.002573041088,18.112220451227
$GPGGA,000341.00,3357.5866,N,11922.5997,W,1,10,0.8,6.2,M,-33.6,M,,*5A
$PYRTM,2024,127.002584606389,18.112232016539
$GPGGA,000342.00,3357.5860,N,11922.5995,W,1,10,0.8,6.3,M,-33.6,M,,*5C
$PYRTM,2024,127.002596184039,18.112243594178
$GPGGA,000343.00,3357.5854,N,11922.5996,W,1,10,0.8,6.0,M,-33.6,M,,*5A
$PYRTM,2024,127.002607758322,18.112255168461
$GPGGA,000344.00,3357.5847,N,11922.5999,W,1,10,0.8,5.3,M,-33.6,M,,*50
$PYRTM,2024,127.002615044120,18.112262454259
$GPGGA,000345.00,3357.5843,N,11922.6000,W,1,10,0.8,5.0,M,-33.6,M,,*5C
$PYRTM,2024,127.002630910058,18.112278320197
$GPGGA,000346.00,3357.5840,N,11922.5998,W,1,10,0.8,5.0,M,-33.6,M,,*57
$PYRTM,2024,127.002642475532,18.112289885671
$GPGGA,000347.00,3357.5834,N,11922.5995,W,1,10,0.8,5.1,M,-33.6,M,,*59
$PYRTM,2024,127.002654057708,18.112301467847
$GPGGA,000348.00,3357.5826,N,11922.5996,W,1,10,0.8,4.8,M,-33.6,M,,*5E
$PYRTM,2024,127.002665629734,18.112313039873
$GPGGA,000349.00,3357.5819,N,11922.6000,W,1,10,0.8,4.0,M,-33.6,M,,*5E
$PYRTM,2024,127.002677203854,18.112324614005
$GPGGA,000350.00,3357.5815,N,11922.6001,W,1,10,0.8,3.7,M,-33.6,M,,*5B
$PYRTM,2024,127.002688777477,18.112336187616
$GPGGA,000351.00,3357.5812,N,11922.5999,W,1,10,0.8,3.8,M,-33.6,M,,*59
$PYRTM,2024,127.002700351435,18.112347761574
$GPGGA,000352.00,3357.5806,N,11922.5997,W,1,10,0.8,3.9,M,-33.6,M,,*50
$PYRTM,2024,127.002711925127,18.112359335266
$GPGGA,000353.00,3357.5797,N,11922.5997,W,1,10,0.8,3.8,M,-33.6,M,,*57
$PYRTM,2024,127.002719205868,18.112366616019
$GPGGA,000354.00,3357.5791,N,11922.6000,W,1,10,0.8,3.6,M,-33.6,M,,*5C
$PYRTM,2024,127.002737850891,18.112385261030
$GPGGA,000355.00,3357.5788,N,11922.6003,W,1,10,0.8,3.8,M,-33.6,M,,*58
$PYRTM,2024,127.002746648079,18.112394058218
$GPGGA,000356.00,3357.5786,N,11922.6004,W,1,10,0.8,3.8,M,-33.6,M,,*52
$PYRTM,2024,127.002753933681,18.112401343819
$GPGGA,000357.00,3357.5780,N,11922.6002,W,1,10,0.8,4.0,M,-33.6,M,,*5C
$PYRTM,2024,127.002769796308,18.112417206458
$GPGGA,000358.00,3357.5772,N,11922.5999,W,1,10,0.8,4.1,M,-33.6,M,,*57
$PYRTM,2024,127.002781372431,18.112428782569
$GPGGA,000359.00,3357.5765,N,11922.5997,W,1,10,0.8,4.1,M,-33.6,M,,*5E
$PYRTM,2024,127.002792944282,18.112440354421
$GPGGA,000400.00,3357.5762,N,11922.6001,W,1,10,0.8,4.3,M,-33.6,M,,*55
$PYRTM,2024,127.002804519086,18.112451929225
$GPGGA,000401.00,3357.5760,N,11922.6005,W,1,10,0.8,4.3,M,-33.6,M,,*52
$PYRTM,2024,127.002816096088,18.112463506227
$GPGGA,000402.00,3357.5756,N,11922.6006,W,1,10,0.8,4.4,M,-33.6,M,,*50
$PYRTM,2024,127.002827666505,18.112475076644
$GPGGA,000403.00,3357.5750,N,11922.6004,W,1,10,0.8,4.5,M,-33.6,M,,*54
$PYRTM,2024,127.002839242176,18.112486652315
$GPGGA,000404.00,3357.5742,N,11922.6000,W,1,10,0.8,4.5,M,-33.6,M,,*54
$PYRTM,2024,127.002846544618,18.112493954757
$GPGGA,000405.00,3357.5736,N,11922.6000,W,1,10,0.8,4.6,M,-33.6,M,,*55
$PYRTM,2024,127.002858324606,18.112505734745
$GPGGA,000406.00,3357.5733,N,11922.6004,W,1,10,0.8,4.7,M,-33.6,M,,*56
$PYRTM,2024,127.002873963715,18.112521373854
$GPGGA,000407.00,3357.5730,N,11922.6008,W,1,10,0.8,4.8,M,-33.6,M,,*57
$PYRTM,2024,127.002885538345,18.112532948484
$GPGGA,000408.00,3357.5724,N,11922.6007,W,1,10,0.8,4.8,M,-33.6,M,,*52
$PYRTM,2024,127.002897107500,18.112544517639
$GPGGA,000409.00,3357.5716,N,11922.6002,W,1,10,0.8,4.9,M,-33.6,M,,*56
$PYRTM,2024,127.002908685359,18.112556095498
$GPGGA,000410.00,3357.5709,N,11922.6000,W,1,10,0.8,4.9,M,-33.6,M,,*52
$PYRTM,2024,127.002920259641,18.112567669792
$GPGGA,000411.00,3357.5705,N,11922.6004,W,1,10,0.8,4.8,M,-33.6,M,,*5A
$PYRTM,2024,127.002927540706,18.112574950845
$GPGGA,000412.00,3357.5702,N,11922.6010,W,1,10,0.8,4.7,M,-33.6,M,,*54
$PYRTM,2024,127.002943409294,18.112590819433
$GPGGA,000413.00,3357.5697,N,11922.6010,W,1,10,0.8,4.8,M,-33.6,M,,*57
$PYRTM,2024,127.002954982014,18.112602392153
$GPGGA,000414.00,3357.5691,N,11922.6004,W,1,10,0.8,5.1,M,-33.6,M,,*5B
$PYRTM,2024,127.002966556678,18.112613966817
$GPGGA,000415.00,3357.5684,N,11922.6000,W,1,10,0.8,5.3,M,-33.6,M,,*58
$PYRTM,2024,127.002978135718,18.112625545868
$GPGGA,000416.00,3357.5678,N,11922.6002,W,1,10,0.8,5.1,M,-33.6,M,,*58
$PYRTM,2024,127.002989704236,18.112637114375
$GPGGA,000417.00,3357.5674,N,11922.6008,W,1,10,0.8,4.9,M,-33.6,M,,*56
$PYRTM,2024,127.003001294572,18.112648704711
$GPGGA,000418.00,3357.5672,N,11922.6010,W,1,10,0.8,5.0,M,-33.6,M,,*5E
$PYRTM,2024,127.003012853252,18.112660263391
$GPGGA,000419.00,3357.5668,N,11922.6008,W,1,10,0.8,5.1,M,-33.6,M,,*5C
$PYRTM,2024,127.003024429896,18.112671840035
$GPGGA,000420.00,3357.5659,N,11922.6004,W,1,10,0.8,5.0,M,-33.6,M,,*59
$PYRTM,2024,127.003036000914,18.112683411053
$GPGGA,000421.00,3357.5651,N,11922.6002,W,1,10,0.8,4.8,M,-33.6,M,,*5F
$PYRTM,2024,127.003043280926,18.112690691076
$GPGGA,000422.00,3357.5647,N,11922.6004,W,1,10,0.8,4.8,M,-33.6,M,,*5D
$PYRTM,2024,127.003059150567,18.112706560718
$GPGGA,000423.00,3357.5646,N,11922.6008,W,1,10,0.8,4.9,M,-33.6,M,,*50
$PYRTM,2024,127.003070723206,18.112718133345
$GPGGA,000424.00,3357.5642,N,11922.6010,W,1,10,0.8,5.0,M,-33.6,M,,*52
$PYRTM,2024,127.003078014294,18.112725424433
$GPGGA,000425.00,3357.5634,N,11922.6008,W,1,10,0.8,5.0,M,-33.6,M,,*5B
$PYRTM,2024,127.003096649398,18.112744059549
$GPGGA,000426.00,3357.5627,N,11922.6004,W,1,10,0.8,5.0,M,-33.6,M,,*56
$PYRTM,2024,127.003105445255,18.112752855394
$GPGGA,000427.00,3357.5622,N,11922.6004,W,1,10,0.8,5.0,M,-33.6,M,,*52
$PYRTM,2024,127.003117019803,18.112764429942
$GPGGA,000428.00,3357.5618,N,11922.6008,W,1,10,0.8,5.1,M,-33.6,M,,*59
$PYRTM,2024,127.003128594896,18.112776005035
$GPGGA,000429.00,3357.5614,N,11922.6011,W,1,10,0.8,5.1,M,-33.6,M,,*5C
$PYRTM,2024,127.003140173947,18.112787584086
$GPGGA,000430.00,3357.5609,N,11922.6009,W,1,10,0.8,5.2,M,-33.6,M,,*52
$PYRTM,2024,127.003151742141,18.112799152280
$GPGGA,000431.00,3357.5601,N,11922.6004,W,1,10,0.8,5.2,M,-33.6,M,,*56
$PYRTM,2024,127.003163316678,18.112810726817
$GPGGA,000432.00,3357.5594,N,11922.6003,W,1,10,0.8,5.1,M,-33.6,M,,*5E
$PYRTM,2024,127.003174890625,18.112822300764
$GPGGA,000433.00,3357.5591,N,11922.6006,W,1,10,0.8,5.0,M,-33.6,M,,*5E
$PYRTM,2024,127.003186465671,18.112833875810
$GPGGA,000434.00,3357.5588,N,11922.6011,W,1,10,0.8,5.1,M,-33.6,M,,*56
$PYRTM,2024,127.003198040347,18.112845450486
$GPGGA,000435.00,3357.5583,N,11922.6011,W,1,10,0.8,5.2,M,-33.6,M,,*5F
$PYRTM,2024,127.003209612917,18.112857023056
$GPGGA,000436.00,3357.5575,N,11922.6006,W,1,10,0.8,5.3,M,-33.6,M,,*52
$PYRTM,2024,127.003216904687,18.112864314826
$GPGGA,000437.00,3357.5569,N,11922.6003,W,1,10,0.8,5.5,M,-33.6,M,,*5D
$PYRTM,2024,127.003228696157,18.112876106308
$GPGGA,000438.00,3357.5565,N,11922.6006,W,1,10,0.8,5.6,M,-33.6,M,,*58
$PYRTM,2024,127.003244334792,18.112891744931
$GPGGA,000439.00,3357.5561,N,11922.6010,W,1,10,0.8,5.6,M,-33.6,M,,*5A
$PYRTM,2024,127.003255909896,18.112903320035
$GPGGA,000440.00,3357.5557,N,11922.6012,W,1,10,0.8,5.7,M,-33.6,M,,*52
$PYRTM,2024,127.003267479502,18.112914889653
$GPGGA,000441.00,3357.5551,N,11922.6009,W,1,10,0.8,5.8,M,-33.6,M,,*50
$PYRTM,2024,127.003279059190,18.112926469329
$GPGGA,000442.00,3357.5544,N,11922.6006,W,1,10,0.8,5.9,M,-33.6,M,,*59
$PYRTM,2024,127.003290631146,18.112938041285
$GPGGA,000443.00,3357.5539,N,11922.6004,W,1,10,0.8,6.1,M,-33.6,M,,*5B
$PYRTM,2024,127.003302209086,18.112949619225
$GPGGA,000444.00,3357.5535,N,11922.6006,W,1,10,0.8,6.2,M,-33.6,M,,*51
$PYRTM,2024,127.003309496644,18.112956906782
$GPGGA,000445.00,3357.5531,N,11922.6010,W,1,10,0.8,6.3,M,-33.6,M,,*52
$PYRTM,2024,127.003325369965,18.112972780104
$GPGGA,000446.00,3357.5525,N,11922.6011,W,1,10,0.8,6.2,M,-33.6,M,,*54
$PYRTM,2024,127.003336927940,18.112984338079
$GPGGA,000447.00,3357.5519,N,11922.6008,W,1,10,0.8,6.2,M,-33.6,M,,*52
$PYRTM,2024,127.003348497755,18.112995907894
$GPGGA,000448.00,3357.5513,N,11922.6005,W,1,10,0.8,6.4,M,-33.6,M,,*5C
$PYRTM,2024,127.003360076644,18.113007486782
$GPGGA,000449.00,3357.5507,N,11922.6006,W,1,10,0.8,6.6,M,-33.6,M,,*59
$PYRTM,2024,127.003367356493,18.113014766644
$GPGGA,000450.00,3357.5502,N,11922.6009,W,1,10,0.8,6.6,M,-33.6,M,,*5B
$PYRTM,2024,127.003383224178,18.113030634317
$GPGGA,000451.00,3357.5497,N,11922.6010,W,1,10,0.8,6.7,M,-33.6,M,,*5E
$PYRTM,2024,127.003390511030,18.113037921181
$GPGGA,000452.00,3357.5491,N,11922.6009,W,1,10,0.8,6.6,M,-33.6,M,,*52
$PYRTM,2024,127.003406372083,18.113053782222
$GPGGA,000453.00,3357.5484,N,11922.6009,W,1,10,0.8,6.5,M,-33.6,M,,*54
$PYRTM,2024,127.003417947407,18.113065357546
$GPGGA,000454.00,3357.5479,N,11922.6010,W,1,10,0.8,6.5,M,-33.6,M,,*59
$PYRTM,2024,127.003429520880,18.113076931019
$GPGGA,000455.00,3357.5476,N,11922.6010,W,1,10,0.8,6.6,M,-33.6,M,,*54
$PYRTM,2024,127.003436800914,18.113084211053
$GPGGA,000456.00,3357.5470,N,11922.6009,W,1,10,0.8,6.6,M,-33.6,M,,*59
$PYRTM,2024,127.003455446887,18.113102857025
$GPGGA,000457.00,3357.5463,N,11922.6007,W,1,10,0.8,6.4,M,-33.6,M,,*56
$PYRTM,2024,127.003464246586,18.113111656725
$GPGGA,000458.00,3357.5456,N,11922.6008,W,1,10,0.8,6.2,M,-33.6,M,,*56
$PYRTM,2024,127.003475816852,18.113123226991
$GPGGA,000459.00,3357.5453,N,11922.6009,W,1,10,0.8,6.3,M,-33.6,M,,*52
$PYRTM,2024,127.003483096736,18.113130506875
$GPGGA,000500.00,3357.5450,N,11922.6009,W,1,10,0.8,6.3,M,-33.6,M,,*5C
$PYRTM,2024,127.003498967801,18.113146377951
$GPGGA,000501.00,3357.5444,N,11922.6008,W,1,10,0.8,6.4,M,-33.6,M,,*5E
$PYRTM,2024,127.003510540822,18.113157950972
$GPGGA,000502.00,3357.5436,N,11922.6006,W,1,10,0.8,6.3,M,-33.6,M,,*51
$PYRTM,2024,127.003522114549,18.113169524687
$GPGGA,000503.00,3357.5430,N,11922.6005,W,1,10,0.8,6.2,M,-33.6,M,,*54
$PYRTM,2024,127.003533688472,18.113181098623
$GPGGA,000504.00,3357.5427,N,11922.6007,W,1,10,0.8,6.3,M,-33.6,M,,*56
$PYRTM,2024,127.003545262708,18.113192672859
$GPGGA,000505.00,3357.5423,N,11922.6008,W,1,10,0.8,6.3,M,-33.6,M,,*5C
$PYRTM,2024,127.003556836968,18.113204247106
$GPGGA,000506.00,3357.5416,N,11922.6007,W,1,10,0.8,6.3,M,-33.6,M,,*56
$PYRTM,2024,127.003564116412,18.113211526562
$GPGGA,000507.00,3357.5408,N,11922.6004,W,1,10,0.8,6.2,M,-33.6,M,,*5A
$PYRTM,2024,127.003579986273,18.113227396412
$GPGGA,000508.00,3357.5403,N,11922.6004,W,1,10,0.8,6.2,M,-33.6,M,,*5E
$PYRTM,2024,127.003591559444,18.113238969595
$GPGGA,000509.00,3357.5400,N,11922.6007,W,1,10,0.8,6.2,M,-33.6,M,,*5F
$PYRTM,2024,127.003598854178,18.113246264329
$GPGGA,000510.00,3357.5396,N,11922.6010,W,1,10,0.8,6.3,M,-33.6,M,,*58
$PYRTM,2024,127.003617487870,18.113264898021
$GPGGA,000511.00,3357.5389,N,11922.6009,W,1,10,0.8,6.4,M,-33.6,M,,*58
$PYRTM,2024,127.003626290787,18.113273700926
$GPGGA,000512.00,3357.5383,N,11922.6005,W,1,10,0.8,6.6,M,-33.6,M,,*5F
$PYRTM,2024,127.003637855208,18.113285265347
$GPGGA,000513.00,3357.5377,N,11922.6004,W,1,10,0.8,6.8,M,-33.6,M,,*5A
$PYRTM,2024,127.003649437535,18.113296847674
$GPGGA,000514.00,3357.5373,N,11922.6007,W,1,10,0.8,6.9,M,-33.6,M,,*5B
$PYRTM,2024,127.003661003241,18.113308413380
$GPGGA,000515.00,3357.5368,N,11922.6011,W,1,10,0.8,6.8,M,-33.6,M,,*56
$PYRTM,2024,127.003672603646,18.113320013785
$GPGGA,000516.00,3357.5362,N,11922.6011,W,1,10,0.8,6.8,M,-33.6,M,,*5F
$PYRTM,2024,127.003684154016,18.113331564155
$GPGGA,000517.00,3357.5357,N,11922.6008,W,1,10,0.8,7.0,M,-33.6,M,,*59
$PYRTM,2024,127.003695725579,18.113343135729
$GPGGA,000518.00,3357.5352,N,11922.6006,W,1,10,0.8,7.2,M,-33.6,M,,*5F
$PYRTM,2024,127.003707302720,18.113354712859
$GPGGA,000519.00,3357.5347,N,11922.6008,W,1,10,0.8,7.2,M,-33.6,M,,*54
$PYRTM,2024,127.003714586979,18.113361997118
$GPGGA,000520.00,3357.5342,N,11922.6010,W,1,10,0.8,7.2,M,-33.6,M,,*52
$PYRTM,2024,127.003730444109,18.113377854248
$GPGGA,000521.00,3357.5337,N,11922.6011,W,1,10,0.8,7.3,M,-33.6,M,,*51
$PYRTM,2024,127.003742022546,18.113389432685
$GPGGA,000522.00,3357.5332,N,11922.6010,W,1,10,0.8,7.3,M,-33.6,M,,*56
$PYRTM,2024,127.003753596806,18.113401006956
$GPGGA,000523.00,3357.5328,N,11922.6009,W,1,10,0.8,7.4,M,-33.6,M,,*53
$PYRTM,2024,127.003765170752,18.113412580903
$GPGGA,000524.00,3357.5322,N,11922.6010,W,1,10,0.8,7.4,M,-33.6,M,,*56
$PYRTM,2024,127.003776744398,18.113424154537
$GPGGA,000525.00,3357.5315,N,11922.6010,W,1,10,0.8,7.3,M,-33.6,M,,*54
$PYRTM,2024,127.003788345220,18.113435755359
$GPGGA,000526.00,3357.5310,N,11922.6011,W,1,10,0.8,7.4,M,-33.6,M,,*54
$PYRTM,2024,127.003795598692,18.113443008831
$GPGGA,000527.00,3357.5305,N,11922.6012,W,1,10,0.8,7.4,M,-33.6,M,,*52
$PYRTM,2024,127.003814254317,18.113461664456
$GPGGA,000528.00,3357.5300,N,11922.6013,W,1,10,0.8,7.4,M,-33.6,M,,*59
$PYRTM,2024,127.003823041933,18.113470452083
$GPGGA,000529.00,3357.5295,N,11922.6014,W,1,10,0.8,7.5,M,-33.6,M,,*53
$PYRTM,2024,127.003834626424,18.113482036562
$GPGGA,000530.00,3357.5289,N,11922.6012,W,1,10,0.8,7.5,M,-33.6,M,,*50
$PYRTM,2024,127.003846189155,18.113493599294
$GPGGA,000531.00,3357.5282,N,11922.6010,W,1,10,0.8,7.6,M,-33.6,M,,*5B
$PYRTM,2024,127.003857774178,18.113505184317
$GPGGA,000532.00,3357.5276,N,11922.6011,W,1,10,0.8,7.6,M,-33.6,M,,*52
$PYRTM,2024,127.003869334421,18.113516744560
$GPGGA,000533.00,3357.5272,N,11922.6014,W,1,10,0.8,7.6,M,-33.6,M,,*52
$PYRTM,2024,127.003880911910,18.113528322049
$GPGGA,000534.00,3357.5269,N,11922.6016,W,1,10,0.8,7.7,M,-33.6,M,,*5C
$PYRTM,2024,127.003888190440,18.113535600579
$GPGGA,000535.00,3357.5264,N,11922.6014,W,1,10,0.8,7.8,M,-33.6,M,,*5D
$PYRTM,2024,127.003904070556,18.113551480694
$GPGGA,000536.00,3357.5257,N,11922.6011,W,1,10,0.8,7.7,M,-33.6,M,,*54
$PYRTM,2024,127.003915633183,18.113563043322
$GPGGA,000537.00,3357.5250,N,11922.6011,W,1,10,0.8,7.5,M,-33.6,M,,*50
$PYRTM,2024,127.003922927211,18.113570337350
$GPGGA,000538.00,3357.5246,N,11922.6014,W,1,10,0.8,7.4,M,-33.6,M,,*5C
$PYRTM,2024,127.003938793495,18.113586203634
$GPGGA,000539.00,3357.5243,N,11922.6017,W,1,10,0.8,7.4,M,-33.6,M,,*5B
$PYRTM,2024,127.003950362975,18.113597773113
$GPGGA,000540.00,3357.5238,N,11922.6018,W,1,10,0.8,7.4,M,-33.6,M,,*56
$PYRTM,2024,127.003961927222,18.113609337361
$GPGGA,000541.00,3357.5231,N,11922.6015,W,1,10,0.8,7.5,M,-33.6,M,,*52
$PYRTM,2024,127.003969225035,18.113616635174
$GPGGA,000542.00,3357.5224,N,11922.6012,W,1,10,0.8,7.6,M,-33.6,M,,*51
$PYRTM,2024,127.003981363843,18.113628773981
$GPGGA,000543.00,3357.5219,N,11922.6015,W,1,10,0.8,7.7,M,-33.6,M,,*58
$PYRTM,2024,127.003996655995,18.113644066134
$GPGGA,000544.00,3357.5216,N,11922.6018,W,1,10,0.8,7.8,M,-33.6,M,,*52
$PYRTM,2024,127.004008237870,18.113655648009
$GPGGA,000545.00,3357.5212,N,11922.6020,W,1,10,0.8,7.8,M,-33.6,M,,*5C
$PYRTM,2024,127.004015507118,18.113662917257
$GPGGA,000546.00,3357.5206,N,11922.6018,W,1,10,0.8,7.6,M,-33.6,M,,*5F
$PYRTM,2024,127.004031370544,18.113678780683
$GPGGA,000547.00,3357.5197,N,11922.6015,W,1,10,0.8,7.4,M,-33.6,M,,*5A
$PYRTM,2024,127.004038654630,18.113686064769
$GPGGA,000548.00,3357.5192,N,11922.6015,W,1,10,0.8,7.4,M,-33.6,M,,*50
$PYRTM,2024,127.004054519039,18.113701929178
$GPGGA,000549.00,3357.5189,N,11922.6018,W,1,10,0.8,7.6,M,-33.6,M,,*54
$PYRTM,2024,127.004066098356,18.113713508495
$GPGGA,000550.00,3357.5185,N,11922.6021,W,1,10,0.8,7.7,M,-33.6,M,,*5B
$PYRTM,2024,127.004077672188,18.113725082326
$GPGGA,000551.00,3357.5178,N,11922.6022,W,1,10,0.8,7.7,M,-33.6,M,,*5B
$PYRTM,2024,127.004089246597,18.113736656736
$GPGGA,000552.00,3357.5172,N,11922.6021,W,1,10,0.8,7.7,M,-33.6,M,,*51
$PYRTM,2024,127.004100820359,18.113748230498
$GPGGA,000553.00,3357.5166,N,11922.6019,W,1,10,0.8,7.9,M,-33.6,M,,*50
$PYRTM,2024,127.004112424919,18.113759835058
$GPGGA,000554.00,3357.5162,N,11922.6018,W,1,10,0.8,8.1,M,-33.6,M,,*55
$PYRTM,2024,127.004123963611,18.113771373750
$GPGGA,000555.00,3357.5156,N,11922.6020,W,1,10,0.8,8.3,M,-33.6,M,,*5A
$PYRTM,2024,127.004131249248,18.113778659387
$GPGGA,000556.00,3357.5152,N,11922.6023,W,1,10,0.8,8.3,M,-33.6,M,,*5E
$PYRTM,2024,127.004147116690,18.113794526829
$GPGGA,000557.00,3357.5147,N,11922.6023,W,1,10,0.8,8.3,M,-33.6,M,,*5B
$PYRTM,2024,127.004154396435,18.113801806574
$GPGGA,000558.00,3357.5142,N,11922.6024,W,1,10,0.8,8.3,M,-33.6,M,,*56
$PYRTM,2024,127.004173043461,18.113820453600
$GPGGA,000559.00,3357.5136,N,11922.6024,W,1,10,0.8,8.3,M,-33.6,M,,*54
$PYRTM,2024,127.004181828970,18.113829239109
$GPGGA,000600.00,3357.5130,N,11922.6022,W,1,10,0.8,8.4,M,-33.6,M,,*5C
$PYRTM,2024,127.004193416505,18.113840826644
$GPGGA,000601.00,3357.5125,N,11922.6021,W,1,10,0.8,8.6,M,-33.6,M,,*58
$PYRTM,2024,127.004204974988,18.113852385127
$GPGGA,000602.00,3357.5120,N,11922.6022,W,1,10,0.8,8.6,M,-33.6,M,,*5D
$PYRTM,2024,127.004216565544,18.113863975683
$GPGGA,000603.00,3357.5116,N,11922.6026,W,1,10,0.8,8.5,M,-33.6,M,,*5E
$PYRTM,2024,127.004228123507,18.113875533646
$GPGGA,000604.00,3357.5111,N,11922.6026,W,1,10,0.8,8.5,M,-33.6,M,,*5E
$PYRTM,2024,127.004239713426,18.113887123565
$GPGGA,000605.00,3357.5105,N,11922.6023,W,1,10,0.8,8.4,M,-33.6,M,,*5E
$PYRTM,2024,127.004251272141,18.113898682292
$GPGGA,000606.00,3357.5098,N,11922.6021,W,1,10,0.8,8.3,M,-33.6,M,,*5D
$PYRTM,2024,127.004262858426,18.113910268565
$GPGGA,000607.00,3357.5091,N,11922.6022,W,1,10,0.8,8.2,M,-33.6,M,,*57
$PYRTM,2024,127.004274421713,18.113921831852
$GPGGA,000608.00,3357.5089,N,11922.6026,W,1,10,0.8,8.0,M,-33.6,M,,*57
$PYRTM,2024,127.004286002014,18.113933412153
$GPGGA,000609.00,3357.5085,N,11922.6029,W,1,10,0.8,8.0,M,-33.6,M,,*55
$PYRTM,2024,127.004297568391,18.113944978530
$GPGGA,000610.00,3357.5079,N,11922.6027,W,1,10,0.8,8.0,M,-33.6,M,,*50
$PYRTM,2024,127.004309154444,18.113956564583
$GPGGA,000611.00,3357.5071,N,11922.6025,W,1,10,0.8,7.9,M,-33.6,M,,*5D
$PYRTM,2024,127.004320716817,18.113968126956
$GPGGA,000612.00,3357.5065,N,11922.6025,W,1,10,0.8,7.8,M,-33.6,M,,*5A
$PYRTM,2024,127.004332302928,18.113979713067
$GPGGA,000613.00,3357.5062,N,11922.6027,W,1,10,0.8,7.8,M,-33.6,M,,*5E
$PYRTM,2024,127.004339583241,18.113986993380
$GPGGA,000614.00,3357.5060,N,11922.6029,W,1,10,0.8,7.9,M,-33.6,M,,*54
$PYRTM,2024,127.004355455058,18.114002865208
$GPGGA,000615.00,3357.5055,N,11922.6031,W,1,10,0.8,7.8,M,-33.6,M,,*5B
$PYRTM,2024,127.004367013588,18.114014423727
$GPGGA,000616.00,3357.5048,N,11922.6032,W,1,10,0.8,7.5,M,-33.6,M,,*5A
$PYRTM,2024,127.004378603206,18.114026013345
$GPGGA,000617.00,3357.5043,N,11922.6030,W,1,10,0.8,7.8,M,-33.6,M,,*5F
$PYRTM,2024,127.004390161759,18.114037571898
$GPGGA,000618.00,3357.5040,N,11922.6027,W,1,10,0.8,7.8,M,-33.6,M,,*55
$PYRTM,2024,127.004401748009,18.114049158148
$GPGGA,000619.00,3357.5034,N,11922.6028,W,1,10,0.8,7.8,M,-33.6,M,,*58
$PYRTM,2024,127.004413309201,18.114060719340
$GPGGA,000620.00,3357.5027,N,11922.6031,W,1,10,0.8,7.6,M,-33.6,M,,*56
$PYRTM,2024,127.004424891690,18.114072301829
$GPGGA,000621.00,3357.5022,N,11922.6031,W,1,10,0.8,7.7,M,-33.6,M,,*53
$PYRTM,2024,127.004436458032,18.114083868171
$GPGGA,000622.00,3357.5018,N,11922.6030,W,1,10,0.8,7.8,M,-33.6,M,,*57
$PYRTM,2024,127.004443748935,18.114091159074
$GPGGA,000623.00,3357.5014,N,11922.6026,W,1,10,0.8,8.2,M,-33.6,M,,*58
$PYRTM,2024,127.004459605509,18.114107015660
$GPGGA,000624.00,3357.5008,N,11922.6024,W,1,10,0.8,8.0,M,-33.6,M,,*52
$PYRTM,2024,127.004471195046,18.114118605185
$GPGGA,000625.00,3357.5002,N,11922.6026,W,1,10,0.8,7.5,M,-33.6,M,,*51
$PYRTM,2024,127.004482754016,18.114130164155
$GPGGA,000626.00,3357.4997,N,11922.6027,W,1,10,0.8,7.4,M,-33.6,M,,*56
$PYRTM,2024,127.004494341644,18.114141751782
$GPGGA,000627.00,3357.4992,N,11922.6025,W,1,10,0.8,7.5,M,-33.6,M,,*51
$PYRTM,2024,127.004501623125,18.114149033264
$GPGGA,000628.00,3357.4986,N,11922.6023,W,1,10,0.8,7.7,M,-33.6,M,,*5F
$PYRTM,2024,127.004513437928,18.114160848067
$GPGGA,000629.00,3357.4978,N,11922.6023,W,1,10,0.8,7.5,M,-33.6,M,,*5D
$PYRTM,2024,127.004531831088,18.114179241227
$GPGGA,000630.00,3357.4973,N,11922.6027,W,1,10,0.8,7.3,M,-33.6,M,,*5C
$PYRTM,2024,127.004540641100,18.114188051238
$GPGGA,000631.00,3357.4969,N,11922.6028,W,1,10,0.8,7.3,M,-33.6,M,,*59
$PYRTM,2024,127.004552198808,18.114199608947
$GPGGA,000632.00,3357.4964,N,11922.6026,W,1,10,0.8,7.5,M,-33.6,M,,*5F
$PYRTM,2024,127.004563789687,18.114211199826
$GPGGA,000633.00,3357.4958,N,11922.6022,W,1,10,0.8,7.8,M,-33.6,M,,*58
$PYRTM,2024,127.004575346343,18.114222756481
$GPGGA,000634.00,3357.4951,N,11922.6021,W,1,10,0.8,7.5,M,-33.6,M,,*58
$PYRTM,2024,127.004586934803,18.114234344954
$GPGGA,000635.00,3357.4946,N,11922.6025,W,1,10,0.8,7.4,M,-33.6,M,,*5A
$PYRTM,2024,127.004598494722,18.114245904873
$GPGGA,000636.00,3357.4944,N,11922.6030,W,1,10,0.8,7.3,M,-33.6,M,,*58
$PYRTM,2024,127.004610082836,18.114257492975
$GPGGA,000637.00,3357.4942,N,11922.6030,W,1,10,0.8,7.3,M,-33.6,M,,*5F
$PYRTM,2024,127.004617363067,18.114264773206
$GPGGA,000638.00,3357.4936,N,11922.6025,W,1,10,0.8,7.6,M,-33.6,M,,*52
$PYRTM,2024,127.004633227025,18.114280637164
$GPGGA,000639.00,3357.4929,N,11922.6022,W,1,10,0.8,7.8,M,-33.6,M,,*54
$PYRTM,2024,127.004644791562,18.114292201701
$GPGGA,000640.00,3357.4924,N,11922.6024,W,1,10,0.8,7.6,M,-33.6,M,,*5F
$PYRTM,2024,127.004652086667,18.114299496806
$GPGGA,000641.00,3357.4921,N,11922.6029,W,1,10,0.8,7.5,M,-33.6,M,,*55
$PYRTM,2024,127.004667939479,18.114315349618
$GPGGA,000642.00,3357.4918,N,11922.6028,W,1,10,0.8,7.7,M,-33.6,M,,*5F
$PYRTM,2024,127.004679530544,18.114326940683
$GPGGA,000643.00,3357.4913,N,11922.6024,W,1,10,0.8,7.8,M,-33.6,M,,*56
$PYRTM,2024,127.004691088958,18.114338499097
$GPGGA,000644.00,3357.4905,N,11922.6020,W,1,10,0.8,7.7,M,-33.6,M,,*5D
$PYRTM,2024,127.004702691609,18.114350101748
$GPGGA,000645.00,3357.4898,N,11922.6021,W,1,10,0.8,7.6,M,-33.6,M,,*59
$PYRTM,2024,127.004709961771,18.114357371910
$GPGGA,000646.00,3357.4894,N,11922.6026,W,1,10,0.8,7.6,M,-33.6,M,,*51
$PYRTM,2024,127.004725839236,18.114373249375
$GPGGA,000647.00,3357.4892,N,11922.6029,W,1,10,0.8,7.7,M,-33.6,M,,*58
$PYRTM,2024,127.004733118426,18.114380528565
$GPGGA,000648.00,3357.4889,N,11922.6026,W,1,10,0.8,8.0,M,-33.6,M,,*5A
$PYRTM,2024,127.004748972095,18.114396382245
$GPGGA,000649.00,3357.4881,N,11922.6022,W,1,10,0.8,8.1,M,-33.6,M,,*56
$PYRTM,2024,127.004760533819,18.114407943958
$GPGGA,000650.00,3357.4873,N,11922.6020,W,1,10,0.8,7.9,M,-33.6,M,,*56
$PYRTM,2024,127.004767823669,18.114415233808
$GPGGA,000651.00,3357.4869,N,11922.6022,W,1,10,0.8,7.9,M,-33.6,M,,*5E
$PYRTM,2024,127.004783680741,18.114431090880
$GPGGA,000652.00,3357.4867,N,11922.6026,W,1,10,0.8,8.0,M,-33.6,M,,*51
$PYRTM,2024,127.004795268287,18.114442678437
$GPGGA,000653.00,3357.4863,N,11922.6028,W,1,10,0.8,8.2,M,-33.6,M,,*58
$PYRTM,2024,127.004806829769,18.114454239919
$GPGGA,000654.00,3357.4856,N,11922.6026,W,1,10,0.8,8.3,M,-33.6,M,,*56
$PYRTM,2024,127.004818416921,18.114465827060
$GPGGA,000655.00,3357.4850,N,11922.6022,W,1,10,0.8,8.5,M,-33.6,M,,*53
$PYRTM,2024,127.004829977153,18.114477387292
$GPGGA,000656.00,3357.4845,N,11922.6022,W,1,10,0.8,8.8,M,-33.6,M,,*59
$PYRTM,2024,127.004841564826,18.114488974965
$GPGGA,000657.00,3357.4842,N,11922.6025,W,1,10,0.8,8.8,M,-33.6,M,,*58
$PYRTM,2024,127.004848856331,18.114496266470
$GPGGA,000658.00,3357.4839,N,11922.6029,W,1,10,0.8,8.8,M,-33.6,M,,*57
$PYRTM,2024,127.004864726887,18.114512137025
$GPGGA,000659.00,3357.4834,N,11922.6029,W,1,10,0.8,8.9,M,-33.6,M,,*5A
$PYRTM,2024,127.004872005359,18.114519415498
$GPGGA,000700.00,3357.4828,N,11922.6026,W,1,10,0.8,8.9,M,-33.6,M,,*55
$PYRTM,2024,127.004890643287,18.114538053426
$GPGGA,000701.00,3357.4824,N,11922.6024,W,1,10,0.8,9.0,M,-33.6,M,,*52
$PYRTM,2024,127.004899423218,18.114546833356
$GPGGA,000702.00,3357.4820,N,11922.6026,W,1,10,0.8,8.9,M,-33.6,M,,*5F
$PYRTM,2024,127.004911009676,18.114558419815
$GPGGA,000703.00,3357.4816,N,11922.6029,W,1,10,0.8,8.9,M,-33.6,M,,*54
$PYRTM,2024,127.004922571111,18.114569981250
$GPGGA,000704.00,3357.4811,N,11922.6032,W,1,10,0.8,8.9,M,-33.6,M,,*5E
$PYRTM,2024,127.004934153102,18.114581563241
$GPGGA,000705.00,3357.4806,N,11922.6030,W,1,10,0.8,8.8,M,-33.6,M,,*5A
$PYRTM,2024,127.004941436678,18.114588846817
$GPGGA,000706.00,3357.4800,N,11922.6027,W,1,10,0.8,9.0,M,-33.6,M,,*50
$PYRTM,2024,127.004957306308,18.114604716447
$GPGGA,000707.00,3357.4794,N,11922.6025,W,1,10,0.8,9.2,M,-33.6,M,,*53
$PYRTM,2024,127.004968867049,18.114616277188
$GPGGA,000708.00,3357.4789,N,11922.6027,W,1,10,0.8,8.7,M,-33.6,M,,*56
$PYRTM,2024,127.004980449734,18.114627859873
$GPGGA,000709.00,3357.4784,N,11922.6032,W,1,10,0.8,8.0,M,-33.6,M,,*59
$PYRTM,2024,127.004992015637,18.114639425775
$GPGGA,000710.00,3357.4781,N,11922.6033,W,1,10,0.8,7.8,M,-33.6,M,,*52
$PYRTM,2024,127.005003603310,18.114651013449
$GPGGA,000711.00,3357.4777,N,11922.6030,W,1,10,0.8,7.9,M,-33.6,M,,*58
$PYRTM,2024,127.005015163819,18.114662573958
$GPGGA,000712.00,3357.4771,N,11922.6026,W,1,10,0.8,8.0,M,-33.6,M,,*5C
$PYRTM,2024,127.005026754236,18.114674164387
$GPGGA,000713.00,3357.4765,N,11922.6025,W,1,10,0.8,8.0,M,-33.6,M,,*5B
$PYRTM,2024,127.005038313356,18.114685723495
$GPGGA,000714.00,3357.4760,N,11922.6028,W,1,10,0.8,7.6,M,-33.6,M,,*5D
$PYRTM,2024,127.005049913785,18.114697323924
$GPGGA,000715.00,3357.4758,N,11922.6031,W,1,10,0.8,7.8,M,-33.6,M,,*51
$PYRTM,2024,127.005061358426,18.114708768565
$GPGGA,000716.00,3357.4756,N,11922.6031,W,1,10,0.8,7.6,M,-33.6,M,,*52
$PYRTM,2024,127.005072931597,18.114720341736
$GPGGA,000717.00,3357.4752,N,11922.6026,W,1,10,0.8,7.9,M,-33.6,M,,*5E
$PYRTM,2024,127.005080341678,18.114727751817
$GPGGA,000718.00,3357.4745,N,11922.6023,W,1,10,0.8,7.8,M,-33.6,M,,*53
$PYRTM,2024,127.005098973646,18.114746383785
$GPGGA,000719.00,3357.4739,N,11922.6024,W,1,10,0.8,7.3,M,-33.6,M,,*55
$PYRTM,2024,127.005107648796,18.114755058935
$GPGGA,000720.00,3357.4737,N,11922.6027,W,1,10,0.8,6.9,M,-33.6,M,,*59
$PYRTM,2024,127.005119228819,18.114766638970
$GPGGA,000721.00,3357.4734,N,11922.6029,W,1,10,0.8,7.0,M,-33.6,M,,*5D
$PYRTM,2024,127.005130803125,18.114778213264
$GPGGA,000722.00,3357.4729,N,11922.6027,W,1,10,0.8,7.0,M,-33.6,M,,*5C
$PYRTM,2024,127.005142492755,18.114789902905
$GPGGA,000723.00,3357.4722,N,11922.6025,W,1,10,0.8,7.1,M,-33.6,M,,*55
$PYRTM,2024,127.005154053380,18.114801463519
$GPGGA,000724.00,3357.4716,N,11922.6024,W,1,10,0.8,7.2,M,-33.6,M,,*57
$PYRTM,2024,127.005165640220,18.114813050359
$GPGGA,000725.00,3357.4713,N,11922.6027,W,1,10,0.8,7.2,M,-33.6,M,,*50
$PYRTM,2024,127.005172921424,18.114820331574
$GPGGA,000726.00,3357.4710,N,11922.6031,W,1,10,0.8,7.3,M,-33.6,M,,*56
$PYRTM,2024,127.005188803218,18.114836213356
$GPGGA,000727.00,3357.4704,N,11922.6032,W,1,10,0.8,7.5,M,-33.6,M,,*57
$PYRTM,2024,127.005200246725,18.114847656863
$GPGGA,000728.00,3357.4698,N,11922.6029,W,1,10,0.8,7.7,M,-33.6,M,,*54
$PYRTM,2024,127.005207642234,18.114855052373
$GPGGA,000729.00,3357.4693,N,11922.6026,W,1,10,0.8,8.0,M,-33.6,M,,*59
$PYRTM,2024,127.005223396377,18.114870806528
$GPGGA,000730.00,3357.4688,N,11922.6027,W,1,10,0.8,8.2,M,-33.6,M,,*58
$PYRTM,2024,127.005230789329,18.114878199468
$GPGGA,000731.00,3357.4684,N,11922.6030,W,1,10,0.8,8.4,M,-33.6,M,,*55
$PYRTM,2024,127.005249425127,18.114896835266
$GPGGA,000732.00,3357.4680,N,11922.6033,W,1,10,0.8,8.3,M,-33.6,M,,*56
$PYRTM,2024,127.005258119132,18.114905529271
$GPGGA,000733.00,3357.4676,N,11922.6033,W,1,10,0.8,8.3,M,-33.6,M,,*5E
$PYRTM,2024,127.005269692176,18.114917102315
$GPGGA,000734.00,3357.4671,N,11922.6030,W,1,10,0.8,8.3,M,-33.6,M,,*5D
$PYRTM,2024,127.005281266748,18.114928676887
$GPGGA,000735.00,3357.4665,N,11922.6028,W,1,10,0.8,8.3,M,-33.6,M,,*50
$PYRTM,2024,127.005292841366,18.114940251505
$GPGGA,000736.00,3357.4660,N,11922.6030,W,1,10,0.8,8.2,M,-33.6,M,,*5E
$PYRTM,2024,127.005299093935,18.114946504074
$GPGGA,000737.00,3357.4656,N,11922.6033,W,1,10,0.8,8.2,M,-33.6,M,,*59
$PYRTM,2024,127.005315988287,18.114963398437
$GPGGA,000738.00,3357.4652,N,11922.6035,W,1,10,0.8,8.2,M,-33.6,M,,*54
$PYRTM,2024,127.005323384086,18.114970794225
$GPGGA,000739.00,3357.4647,N,11922.6035,W,1,10,0.8,8.3,M,-33.6,M,,*50
$PYRTM,2024,127.005335073495,18.114982483634
$GPGGA,000740.00,3357.4642,N,11922.6032,W,1,10,0.8,8.5,M,-33.6,M,,*5A
$PYRTM,2024,127.005350714734,18.114998124873
$GPGGA,000741.00,3357.4636,N,11922.6030,W,1,10,0.8,8.6,M,-33.6,M,,*59
$PYRTM,2024,127.005358106447,18.115005516586
$GPGGA,000742.00,3357.4632,N,11922.6032,W,1,10,0.8,8.6,M,-33.6,M,,*5C
$PYRTM,2024,127.005373861736,18.115021271887
$GPGGA,000743.00,3357.4627,N,11922.6035,W,1,10,0.8,8.6,M,-33.6,M,,*5E
$PYRTM,2024,127.005385433356,18.115032843495
$GPGGA,000744.00,3357.4624,N,11922.6036,W,1,10,0.8,8.6,M,-33.6,M,,*59
$PYRTM,2024,127.005397007593,18.115044417731
$GPGGA,000745.00,3357.4619,N,11922.6034,W,1,10,0.8,8.6,M,-33.6,M,,*54
$PYRTM,2024,127.005408576586,18.115055986725
$GPGGA,000746.00,3357.4613,N,11922.6031,W,1,10,0.8,8.7,M,-33.6,M,,*59
$PYRTM,2024,127.005420155243,18.115067565382
$GPGGA,000747.00,3357.4608,N,11922.6031,W,1,10,0.8,8.5,M,-33.6,M,,*50
$PYRTM,2024,127.005431729572,18.115079139711
$GPGGA,000748.00,3357.4604,N,11922.6037,W,1,10,0.8,8.2,M,-33.6,M,,*52
$PYRTM,2024,127.005439126354,18.115086536493
$GPGGA,000749.00,3357.4601,N,11922.6040,W,1,10,0.8,8.1,M,-33.6,M,,*55
$PYRTM,2024,127.005450817164,18.115098227303
$GPGGA,000750.00,3357.4598,N,11922.6037,W,1,10,0.8,8.2,M,-33.6,M,,*5D
$PYRTM,2024,127.005466568044,18.115113978183
$GPGGA,000751.00,3357.4592,N,11922.6032,W,1,10,0.8,8.2,M,-33.6,M,,*53
$PYRTM,2024,127.005478026701,18.115125436840
$GPGGA,000752.00,3357.4585,N,11922.6030,W,1,10,0.8,8.0,M,-33.6,M,,*56
$PYRTM,2024,127.005489600671,18.115137010810
$GPGGA,000753.00,3357.4581,N,11922.6033,W,1,10,0.8,7.5,M,-33.6,M,,*5A
$PYRTM,2024,127.005501171100,18.115148581238
$GPGGA,000754.00,3357.4579,N,11922.6037,W,1,10,0.8,7.4,M,-33.6,M,,*5F
$PYRTM,2024,127.005512751991,18.115160162130
$GPGGA,000755.00,3357.4577,N,11922.6038,W,1,10,0.8,7.5,M,-33.6,M,,*5E
$PYRTM,2024,127.005524324965,18.115171735104
$GPGGA,000756.00,3357.4571,N,11922.6034,W,1,10,0.8,7.6,M,-33.6,M,,*54
$PYRTM,2024,127.005531716759,18.115179126898
$GPGGA,000757.00,3357.4564,N,11922.6030,W,1,10,0.8,7.7,M,-33.6,M,,*54
$PYRTM,2024,127.005547471227,18.115194881377
$GPGGA,000758.00,3357.4559,N,11922.6032,W,1,10,0.8,7.7,M,-33.6,M,,*57
$PYRTM,2024,127.005559041366,18.115206451505
$GPGGA,000759.00,3357.4556,N,11922.6037,W,1,10,0.8,7.8,M,-33.6,M,,*53
$PYRTM,2024,127.005570619722,18.115218029861
$GPGGA,000800.00,3357.4553,N,11922.6040,W,1,10,0.8,7.9,M,-33.6,M,,*54
$PYRTM,2024,127.005582193843,18.115229603993
$GPGGA,000801.00,3357.4547,N,11922.6038,W,1,10,0.8,8.0,M,-33.6,M,,*59
$PYRTM,2024,127.005589604931,18.115237015081
$GPGGA,000802.00,3357.4541,N,11922.6035,W,1,10,0.8,7.9,M,-33.6,M,,*57
$PYRTM,2024,127.005608235162,18.115255645313
$GPGGA,000803.00,3357.4537,N,11922.6036,W,1,10,0.8,7.9,M,-33.6,M,,*54
$PYRTM,2024,127.005616917049,18.115264327188
$GPGGA,000804.00,3357.4533,N,11922.6038,W,1,10,0.8,8.0,M,-33.6,M,,*5F
$PYRTM,2024,127.005628489676,18.115275899815
$GPGGA,000805.00,3357.4528,N,11922.6040,W,1,10,0.8,8.0,M,-33.6,M,,*5B
$PYRTM,2024,127.005640066204,18.115287476343
$GPGGA,000806.00,3357.4523,N,11922.6041,W,1,10,0.8,8.0,M,-33.6,M,,*52
$PYRTM,2024,127.005651639051,18.115299049190
$GPGGA,000807.00,3357.4519,N,11922.6040,W,1,10,0.8,8.1,M,-33.6,M,,*5A
$PYRTM,2024,127.005663212141,18.115310622280
$GPGGA,000808.00,3357.4514,N,11922.6041,W,1,10,0.8,8.1,M,-33.6,M,,*59
$PYRTM,2024,127.005674786192,18.115322196343
$GPGGA,000809.00,3357.4508,N,11922.6042,W,1,10,0.8,8.1,M,-33.6,M,,*56
$PYRTM,2024,127.005686358785,18.115333768924
$GPGGA,000810.00,3357.4503,N,11922.6044,W,1,10,0.8,8.2,M,-33.6,M,,*50
$PYRTM,2024,127.005697937812,18.115345347951
$GPGGA,000811.00,3357.4499,N,11922.6044,W,1,10,0.8,8.3,M,-33.6,M,,*52
$PYRTM,2024,127.005709508264,18.115356918403
$GPGGA,000812.00,3357.4495,N,11922.6043,W,1,10,0.8,8.3,M,-33.6,M,,*5A
$PYRTM,2024,127.005721085880,18.115368496019
$GPGGA,000813.00,3357.4490,N,11922.6042,W,1,10,0.8,8.3,M,-33.6,M,,*5F
$PYRTM,2024,127.005732657778,18.115380067928
$GPGGA,000814.00,3357.4484,N,11922.6044,W,1,10,0.8,7.9,M,-33.6,M,,*5E
$PYRTM,2024,127.005744232639,18.115391642778
$GPGGA,000815.00,3357.4480,N,11922.6048,W,1,10,0.8,7.6,M,-33.6,M,,*58
$PYRTM,2024,127.005755803900,18.115403214039
$GPGGA,000816.00,3357.4478,N,11922.6049,W,1,10,0.8,8.1,M,-33.6,M,,*55
$PYRTM,2024,127.005767380301,18.115414790440
$GPGGA,000817.00,3357.4474,N,11922.6047,W,1,10,0.8,7.8,M,-33.6,M,,*50
$PYRTM,2024,127.005778948727,18.115426358866
$GPGGA,000818.00,3357.4468,N,11922.6043,W,1,10,0.8,7.8,M,-33.6,M,,*56
$PYRTM,2024,127.005790529120,18.115437939271
$GPGGA,000819.00,3357.4461,N,11922.6041,W,1,10,0.8,7.6,M,-33.6,M,,*52
$PYRTM,2024,127.005802102627,18.115449512778
$GPGGA,000820.00,3357.4456,N,11922.6046,W,1,10,0.8,6.9,M,-33.6,M,,*55
$PYRTM,2024,127.005813676111,18.115461086250
$GPGGA,000821.00,3357.4455,N,11922.6053,W,1,10,0.8,6.6,M,-33.6,M,,*5C
$PYRTM,2024,127.005821073241,18.115468483380
$GPGGA,000822.00,3357.4453,N,11922.6054,W,1,10,0.8,6.8,M,-33.6,M,,*50
$PYRTM,2024,127.005836826968,18.115484237106
$GPGGA,000823.00,3357.4447,N,11922.6049,W,1,10,0.8,6.8,M,-33.6,M,,*58
$PYRTM,2024,127.005848398148,18.115495808287
$GPGGA,000824.00,3357.4438,N,11922.6045,W,1,10,0.8,6.9,M,-33.6,M,,*5A
$PYRTM,2024,127.005855792303,18.115503202442
$GPGGA,000825.00,3357.4431,N,11922.6044,W,1,10,0.8,7.0,M,-33.6,M,,*5B
$PYRTM,2024,127.005871546933,18.115518957083
$GPGGA,000826.00,3357.4427,N,11922.6049,W,1,10,0.8,7.2,M,-33.6,M,,*50
$PYRTM,2024,127.005883123692,18.115530533831
$GPGGA,000827.00,3357.4425,N,11922.6053,W,1,10,0.8,7.2,M,-33.6,M,,*58
$PYRTM,2024,127.005894694549,18.115542104687
$GPGGA,000828.00,3357.4422,N,11922.6054,W,1,10,0.8,7.1,M,-33.6,M,,*54
$PYRTM,2024,127.005906263750,18.115553673889
$GPGGA,000829.00,3357.4415,N,11922.6050,W,1,10,0.8,7.5,M,-33.6,M,,*51
$PYRTM,2024,127.005913676007,18.115561086146
$GPGGA,000830.00,3357.4409,N,11922.6045,W,1,10,0.8,8.0,M,-33.6,M,,*5A
$PYRTM,2024,127.005929417049,18.115576827187
$GPGGA,000831.00,3357.4404,N,11922.6045,W,1,10,0.8,8.3,M,-33.6,M,,*55
$PYRTM,2024,127.005940991898,18.115588402037
$GPGGA,000832.00,3357.4400,N,11922.6050,W,1,10,0.8,8.5,M,-33.6,M,,*50
$PYRTM,2024,127.005948386007,18.115595796146
$GPGGA,000833.00,3357.4397,N,11922.6056,W,1,10,0.8,8.3,M,-33.6,M,,*58
$PYRTM,2024,127.005967020440,18.115614430579
$GPGGA,000834.00,3357.4393,N,11922.6056,W,1,10,0.8,8.2,M,-33.6,M,,*5A
$PYRTM,2024,127.005975714722,18.115623124873
$GPGGA,000835.00,3357.4388,N,11922.6049,W,1,10,0.8,8.2,M,-33.6,M,,*5F
$PYRTM,2024,127.005987287234,18.115634697373
$GPGGA,000836.00,3357.4380,N,11922.6044,W,1,10,0.8,8.2,M,-33.6,M,,*59
$PYRTM,2024,127.005998863032,18.115646273171
$GPGGA,000837.00,3357.4374,N,11922.6046,W,1,10,0.8,8.0,M,-33.6,M,,*53
$PYRTM,2024,127.006006258634,18.115653668773
$GPGGA,000838.00,3357.4372,N,11922.6053,W,1,10,0.8,7.4,M,-33.6,M,,*55
$PYRTM,2024,127.006022013090,18.115669423241
$GPGGA,000839.00,3357.4371,N,11922.6058,W,1,10,0.8,7.0,M,-33.6,M,,*58
$PYRTM,2024,127.006033585046,18.115680995185
$GPGGA,000840.00,3357.4367,N,11922.6055,W,1,10,0.8,7.3,M,-33.6,M,,*5F
$PYRTM,2024,127.006040979606,18.115688389757
