$PYRTM,2024,121.916677895081,13.026325305220
$GPGGA,220000.00,3300.2114,N,11804.8269,W,1,11,0.8,11.7,M,-34.6,M,,*62
$PYRTM,2024,121.916696296030,13.026343706169
$GPGGA,220001.00,3300.2125,N,11804.8292,W,1,11,0.8,11.5,M,-34.6,M,,*67
$PYRTM,2024,121.916705094282,13.026352504421
$GPGGA,220002.00,3300.2136,N,11804.8316,W,1,11,0.8,11.0,M,-34.6,M,,*6E
$PYRTM,2024,121.916716669201,13.026364079340
$GPGGA,220003.00,3300.2145,N,11804.8339,W,1,11,0.8,10.7,M,-34.6,M,,*60
$PYRTM,2024,121.916728235231,13.026375645370
$GPGGA,220004.00,3300.2153,N,11804.8362,W,1,11,0.8,10.7,M,-34.6,M,,*6E
$PYRTM,2024,121.916739824838,13.026387234977
$GPGGA,220005.00,3300.2162,N,11804.8382,W,1,11,0.8,11.5,M,-34.6,M,,*60
$PYRTM,2024,121.916751388148,13.026398798287
$GPGGA,220006.00,3300.2173,N,11804.8404,W,1,11,0.8,12.5,M,-34.6,M,,*69
$PYRTM,2024,121.916762973414,13.026410383565
$GPGGA,220007.00,3300.2184,N,11804.8428,W,1,11,0.8,12.1,M,-34.6,M,,*6A
$PYRTM,2024,121.916774537512,13.026421947650
$GPGGA,220008.00,3300.2195,N,11804.8453,W,1,11,0.8,11.3,M,-34.6,M,,*68
$PYRTM,2024,121.916786136285,13.026433546424
$GPGGA,220009.00,3300.2203,N,11804.8474,W,1,11,0.8,11.2,M,-34.6,M,,*61
$PYRTM,2024,121.916793393067,13.026440803206
$GPGGA,220010.00,3300.2212,N,11804.8494,W,1,11,0.8,11.8,M,-34.6,M,,*6D
$PYRTM,2024,121.916809270370,13.026456680509
$GPGGA,220011.00,3300.2224,N,11804.8516,W,1,11,0.8,12.2,M,-34.6,M,,*6B
$PYRTM,2024,121.916820832211,13.026468242350
$GPGGA,220012.00,3300.2235,N,11804.8539,W,1,11,0.8,12.2,M,-34.6,M,,*65
$PYRTM,2024,121.916832408171,13.026479818310
$GPGGA,220013.00,3300.2245,N,11804.8561,W,1,11,0.8,12.3,M,-34.6,M,,*6F
$PYRTM,2024,121.916843984907,13.026491395046
$GPGGA,220014.00,3300.2253,N,11804.8582,W,1,11,0.8,12.5,M,-34.6,M,,*64
$PYRTM,2024,121.916851262350,13.026498672488
$GPGGA,220015.00,3300.2261,N,11804.8605,W,1,11,0.8,12.5,M,-34.6,M,,*68
$PYRTM,2024,121.916867126678,13.026514536817
$GPGGA,220016.00,3300.2271,N,11804.8628,W,1,11,0.8,12.4,M,-34.6,M,,*64
$PYRTM,2024,121.916878703981,13.026526114120
$GPGGA,220017.00,3300.2282,N,11804.8651,W,1,11,0.8,12.0,M,-34.6,M,,*63
$PYRTM,2024,121.916885983530,13.026533393669
$GPGGA,220018.00,3300.2291,N,11804.8674,W,1,11,0.8,11.8,M,-34.6,M,,*62
$PYRTM,2024,121.916901863507,13.026549273646
$GPGGA,220019.00,3300.2299,N,11804.8696,W,1,11,0.8,12.0,M,-34.6,M,,*6C
$PYRTM,2024,121.916913427153,13.026560837303
$GPGGA,220020.00,3300.2308,N,11804.8717,W,1,11,0.8,12.5,M,-34.6,M,,*62
$PYRTM,2024,121.916924988773,13.026572398924
$GPGGA,220021.00,3300.2319,N,11804.8740,W,1,11,0.8,12.6,M,-34.6,M,,*62
$PYRTM,2024,121.916936571273,13.026583981412
$GPGGA,220022.00,3300.2330,N,11804.8764,W,1,11,0.8,12.3,M,-34.6,M,,*69
$PYRTM,2024,121.916948137164,13.026595547303
$GPGGA,220023.00,3300.2339,N,11804.8786,W,1,11,0.8,12.2,M,-34.6,M,,*6C
$PYRTM,2024,121.916959723125,13.026607133275
$GPGGA,220024.00,3300.2348,N,11804.8806,W,1,11,0.8,12.7,M,-34.6,M,,*6F
$PYRTM,2024,121.916971284687,13.026618694838
$GPGGA,220025.00,3300.2357,N,11804.8828,W,1,11,0.8,13.0,M,-34.6,M,,*6A
$PYRTM,2024,121.916982874271,13.026630284410
$GPGGA,220026.00,3300.2368,N,11804.8853,W,1,11,0.8,12.4,M,-34.6,M,,*6C
$PYRTM,2024,121.916990151528,13.026637561667
$GPGGA,220027.00,3300.2378,N,11804.8878,W,1,11,0.8,11.9,M,-34.6,M,,*6B
$PYRTM,2024,121.917006019676,13.026653429826
$GPGGA,220028.00,3300.2387,N,11804.8900,W,1,11,0.8,11.7,M,-34.6,M,,*64
$PYRTM,2024,121.917017581111,13.026664991250
$GPGGA,220029.00,3300.2396,N,11804.8920,W,1,11,0.8,12.2,M,-34.6,M,,*61
$PYRTM,2024,121.917029182604,13.026676592743
$GPGGA,220030.00,3300.2406,N,11804.8940,W,1,11,0.8,13.0,M,-34.6,M,,*62
$PYRTM,2024,121.917036448993,13.026683859144
$GPGGA,220031.00,3300.2416,N,11804.8962,W,1,11,0.8,13.0,M,-34.6,M,,*62
$PYRTM,2024,121.917055097731,13.026702507870
$GPGGA,220032.00,3300.2427,N,11804.8987,W,1,11,0.8,12.4,M,-34.6,M,,*6D
$PYRTM,2024,121.917063879583,13.026711289722
$GPGGA,220033.00,3300.2435,N,11804.9010,W,1,11,0.8,12.3,M,-34.6,M,,*6E
$PYRTM,2024,121.917075460278,13.026722870417
$GPGGA,220034.00,3300.2444,N,11804.9032,W,1,11,0.8,12.2,M,-34.6,M,,*6E
$PYRTM,2024,121.917082757558,13.026730167697
$GPGGA,220035.00,3300.2454,N,11804.9053,W,1,11,0.8,12.4,M,-34.6,M,,*6F
$PYRTM,2024,121.917098608206,13.026746018356
$GPGGA,220036.00,3300.2466,N,11804.9074,W,1,11,0.8,12.8,M,-34.6,M,,*64
$PYRTM,2024,121.917110174074,13.026757584213
$GPGGA,220037.00,3300.2475,N,11804.9096,W,1,11,0.8,13.3,M,-34.6,M,,*61
$PYRTM,2024,121.917121762905,13.026769173044
$GPGGA,220038.00,3300.2484,N,11804.9120,W,1,11,0.8,13.3,M,-34.6,M,,*6C
$PYRTM,2024,121.917133322106,13.026780732245
$GPGGA,220039.00,3300.2492,N,11804.9143,W,1,11,0.8,12.9,M,-34.6,M,,*64
$PYRTM,2024,121.917140615590,13.026788025729
$GPGGA,220040.00,3300.2502,N,11804.9166,W,1,11,0.8,12.3,M,-34.6,M,,*6F
$PYRTM,2024,121.917156471377,13.026803881516
$GPGGA,220041.00,3300.2513,N,11804.9189,W,1,11,0.8,11.6,M,-34.6,M,,*69
$PYRTM,2024,121.917163763125,13.026811173264
$GPGGA,220042.00,3300.2523,N,11804.9211,W,1,11,0.8,11.4,M,-34.6,M,,*69
$PYRTM,2024,121.917179620961,13.026827031100
$GPGGA,220043.00,3300.2532,N,11804.9233,W,1,11,0.8,11.8,M,-34.6,M,,*64
$PYRTM,2024,121.917191209155,13.026838619294
$GPGGA,220044.00,3300.2541,N,11804.9255,W,1,11,0.8,12.8,M,-34.6,M,,*64
$PYRTM,2024,121.917198485799,13.026845895937
$GPGGA,220045.00,3300.2550,N,11804.9278,W,1,11,0.8,13.2,M,-34.6,M,,*61
$PYRTM,2024,121.917214358773,13.026861768912
$GPGGA,220046.00,3300.2560,N,11804.9301,W,1,11,0.8,13.0,M,-34.6,M,,*6C
$PYRTM,2024,121.917225916319,13.026873326470
$GPGGA,220047.00,3300.2570,N,11804.9323,W,1,11,0.8,12.5,M,-34.6,M,,*68
$PYRTM,2024,121.917237507257,13.026884917396
$GPGGA,220048.00,3300.2579,N,11804.9344,W,1,11,0.8,12.2,M,-34.6,M,,*68
$PYRTM,2024,121.917249064248,13.026896474398
$GPGGA,220049.00,3300.2588,N,11804.9366,W,1,11,0.8,12.1,M,-34.6,M,,*64
$PYRTM,2024,121.917260651065,13.026908061215
$GPGGA,220050.00,3300.2599,N,11804.9389,W,1,11,0.8,12.0,M,-34.6,M,,*6C
$PYRTM,2024,121.917272213310,13.026919623449
$GPGGA,220051.00,3300.2609,N,11804.9412,W,1,11,0.8,12.0,M,-34.6,M,,*62
$PYRTM,2024,121.917283795463,13.026931205602
$GPGGA,220052.00,3300.2619,N,11804.9435,W,1,11,0.8,12.1,M,-34.6,M,,*64
$PYRTM,2024,121.917295245532,13.026942655683
$GPGGA,220053.00,3300.2629,N,11804.9459,W,1,11,0.8,12.0,M,-34.6,M,,*6D
$PYRTM,2024,121.917306948160,13.026954358299
$GPGGA,220054.00,3300.2639,N,11804.9481,W,1,11,0.8,12.1,M,-34.6,M,,*6F
$PYRTM,2024,121.917314228391,13.026961638530
$GPGGA,220055.00,3300.2649,N,11804.9503,W,1,11,0.8,12.4,M,-34.6,M,,*67
$PYRTM,2024,121.917329975613,13.026977385752
$GPGGA,220056.00,3300.2659,N,11804.9525,W,1,11,0.8,12.4,M,-34.6,M,,*61
$PYRTM,2024,121.917341541875,13.026988952014
$GPGGA,220057.00,3300.2669,N,11804.9548,W,1,11,0.8,12.0,M,-34.6,M,,*6C
$PYRTM,2024,121.917353124051,13.027000534190
$GPGGA,220058.00,3300.2677,N,11804.9571,W,1,11,0.8,11.7,M,-34.6,M,,*62
$PYRTM,2024,121.917364692245,13.027012102396
$GPGGA,220059.00,3300.2686,N,11804.9593,W,1,11,0.8,11.5,M,-34.6,M,,*63
$PYRTM,2024,121.917376280532,13.027023690671
$GPGGA,220100.00,3300.2698,N,11804.9615,W,1,11,0.8,11.5,M,-34.6,M,,*6C
$PYRTM,2024,121.917387838171,13.027035248310
$GPGGA,220101.00,3300.2709,N,11804.9637,W,1,11,0.8,11.5,M,-34.6,M,,*64
$PYRTM,2024,121.917395244988,13.027042655127
$GPGGA,220102.00,3300.2718,N,11804.9660,W,1,11,0.8,11.5,M,-34.6,M,,*65
$PYRTM,2024,121.917413879687,13.027061289826
$GPGGA,220103.00,3300.2727,N,11804.9684,W,1,11,0.8,11.7,M,-34.6,M,,*60
$PYRTM,2024,121.917422685683,13.027070095822
$GPGGA,220104.00,3300.2737,N,11804.9706,W,1,11,0.8,11.9,M,-34.6,M,,*63
$PYRTM,2024,121.917429981215,13.027077391354
$GPGGA,220105.00,3300.2747,N,11804.9727,W,1,11,0.8,12.2,M,-34.6,M,,*6E
$PYRTM,2024,121.917445832720,13.027093242859
$GPGGA,220106.00,3300.2759,N,11804.9748,W,1,11,0.8,12.2,M,-34.6,M,,*6B
$PYRTM,2024,121.917457281759,13.027104691898
$GPGGA,220107.00,3300.2769,N,11804.9772,W,1,11,0.8,11.5,M,-34.6,M,,*64
$PYRTM,2024,121.917468985845,13.027116395984
$GPGGA,220108.00,3300.2778,N,11804.9799,W,1,11,0.8,10.4,M,-34.6,M,,*6E
$PYRTM,2024,121.917480546644,13.027127956782
$GPGGA,220109.00,3300.2786,N,11804.9823,W,1,11,0.8,10.3,M,-34.6,M,,*67
$PYRTM,2024,121.917487837766,13.027135247905
$GPGGA,220110.00,3300.2796,N,11804.9843,W,1,11,0.8,11.2,M,-34.6,M,,*68
$PYRTM,2024,121.917503580266,13.027150990405
$GPGGA,220111.00,3300.2807,N,11804.9863,W,1,11,0.8,12.0,M,-34.6,M,,*6D
$PYRTM,2024,121.917515171620,13.027162581759
$GPGGA,220112.00,3300.2818,N,11804.9885,W,1,11,0.8,12.4,M,-34.6,M,,*6C
$PYRTM,2024,121.917526728935,13.027174139074
$GPGGA,220113.00,3300.2827,N,11804.9910,W,1,11,0.8,11.5,M,-34.6,M,,*6E
$PYRTM,2024,121.917534135787,13.027181545926
$GPGGA,220114.00,3300.2834,N,11804.9933,W,1,11,0.8,10.9,M,-34.6,M,,*67
$PYRTM,2024,121.917549992674,13.027197402812
$GPGGA,220115.00,3300.2844,N,11804.9955,W,1,11,0.8,10.3,M,-34.6,M,,*6B
$PYRTM,2024,121.917561466053,13.027208876192
$GPGGA,220116.00,3300.2855,N,11804.9976,W,1,11,0.8,10.5,M,-34.6,M,,*6F
$PYRTM,2024,121.917573140752,13.027220550891
$GPGGA,220117.00,3300.2867,N,11804.9996,W,1,11,0.8,11.2,M,-34.6,M,,*67
$PYRTM,2024,121.917584612083,13.027232022234
$GPGGA,220118.00,3300.2877,N,11805.0017,W,1,11,0.8,12.0,M,-34.6,M,,*60
$PYRTM,2024,121.917596172789,13.027243582928
$GPGGA,220119.00,3300.2886,N,11805.0042,W,1,11,0.8,12.1,M,-34.6,M,,*6E
$PYRTM,2024,121.917603581285,13.027250991424
$GPGGA,220120.00,3300.2896,N,11805.0066,W,1,11,0.8,11.7,M,-34.6,M,,*66
$PYRTM,2024,121.917619321574,13.027266731713
$GPGGA,220121.00,3300.2907,N,11805.0086,W,1,11,0.8,11.4,M,-34.6,M,,*63
$PYRTM,2024,121.917630911250,13.027278321389
$GPGGA,220122.00,3300.2917,N,11805.0107,W,1,11,0.8,11.4,M,-34.6,M,,*69
$PYRTM,2024,121.917642469225,13.027289879363
$GPGGA,220123.00,3300.2927,N,11805.0130,W,1,11,0.8,11.2,M,-34.6,M,,*69
$PYRTM,2024,121.917654056250,13.027301466389
$GPGGA,220124.00,3300.2937,N,11805.0155,W,1,11,0.8,10.6,M,-34.6,M,,*69
$PYRTM,2024,121.917661455822,13.027308865961
$GPGGA,220125.00,3300.2946,N,11805.0178,W,1,11,0.8,10.5,M,-34.6,M,,*62
$PYRTM,2024,121.917677205231,13.027324615370
$GPGGA,220126.00,3300.2957,N,11805.0199,W,1,11,0.8,10.9,M,-34.6,M,,*62
$PYRTM,2024,121.917688766366,13.027336176505
$GPGGA,220127.00,3300.2967,N,11805.0222,W,1,11,0.8,11.2,M,-34.6,M,,*69
$PYRTM,2024,121.917700356713,13.027347766863
$GPGGA,220128.00,3300.2977,N,11805.0245,W,1,11,0.8,11.2,M,-34.6,M,,*66
$PYRTM,2024,121.917711914826,13.027359324965
$GPGGA,220129.00,3300.2985,N,11805.0267,W,1,11,0.8,11.4,M,-34.6,M,,*6C
$PYRTM,2024,121.917719322396,13.027366732546
$GPGGA,220130.00,3300.2994,N,11805.0289,W,1,11,0.8,11.4,M,-34.6,M,,*64
$PYRTM,2024,121.917735061701,13.027382471840
$GPGGA,220131.00,3300.3004,N,11805.0312,W,1,11,0.8,11.1,M,-34.6,M,,*62
$PYRTM,2024,121.917742470255,13.027389880394
$GPGGA,220132.00,3300.3014,N,11805.0333,W,1,11,0.8,11.0,M,-34.6,M,,*62
$PYRTM,2024,121.917754275556,13.027401685694
$GPGGA,220133.00,3300.3025,N,11805.0355,W,1,11,0.8,10.8,M,-34.6,M,,*68
$PYRTM,2024,121.917772686991,13.027420097130
$GPGGA,220134.00,3300.3034,N,11805.0379,W,1,11,0.8,10.5,M,-34.6,M,,*6C
$PYRTM,2024,121.917784253449,13.027431663588
$GPGGA,220135.00,3300.3043,N,11805.0401,W,1,11,0.8,10.7,M,-34.6,M,,*67
$PYRTM,2024,121.917795839884,13.027443250023
$GPGGA,220136.00,3300.3051,N,11805.0421,W,1,11,0.8,11.4,M,-34.6,M,,*67
$PYRTM,2024,121.917804508576,13.027451918715
$GPGGA,220137.00,3300.3063,N,11805.0443,W,1,11,0.8,11.9,M,-34.6,M,,*6E
$PYRTM,2024,121.917816094329,13.027463504468
$GPGGA,220138.00,3300.3074,N,11805.0468,W,1,11,0.8,11.2,M,-34.6,M,,*65
$PYRTM,2024,121.917827656447,13.027475066586
$GPGGA,220139.00,3300.3083,N,11805.0491,W,1,11,0.8,11.2,M,-34.6,M,,*6A
$PYRTM,2024,121.917835062338,13.027482472477
$GPGGA,220140.00,3300.3092,N,11805.0512,W,1,11,0.8,11.1,M,-34.6,M,,*6D
$PYRTM,2024,121.917850804005,13.027498214155
$GPGGA,220141.00,3300.3102,N,11805.0532,W,1,11,0.8,11.6,M,-34.6,M,,*61
$PYRTM,2024,121.917862394722,13.027509804861
$GPGGA,220142.00,3300.3112,N,11805.0553,W,1,11,0.8,11.8,M,-34.6,M,,*6A
$PYRTM,2024,121.917874067731,13.027521477870
$GPGGA,220143.00,3300.3123,N,11805.0576,W,1,11,0.8,11.4,M,-34.6,M,,*62
$PYRTM,2024,121.917885657060,13.027533067199
$GPGGA,220144.00,3300.3133,N,11805.0600,W,1,11,0.8,11.0,M,-34.6,M,,*62
$PYRTM,2024,121.917892935938,13.027540346076
$GPGGA,220145.00,3300.3141,N,11805.0622,W,1,11,0.8,10.9,M,-34.6,M,,*6E
$PYRTM,2024,121.917908806354,13.027556216493
$GPGGA,220146.00,3300.3150,N,11805.0643,W,1,11,0.8,11.0,M,-34.6,M,,*62
$PYRTM,2024,121.917916212072,13.027563622222
$GPGGA,220147.00,3300.3160,N,11805.0664,W,1,11,0.8,11.4,M,-34.6,M,,*61
$PYRTM,2024,121.917931946678,13.027579356817
$GPGGA,220148.00,3300.3172,N,11805.0686,W,1,11,0.8,11.5,M,-34.6,M,,*60
$PYRTM,2024,121.917943514757,13.027590924896
$GPGGA,220149.00,3300.3183,N,11805.0711,W,1,11,0.8,11.0,M,-34.6,M,,*65
$PYRTM,2024,121.917955095405,13.027602505544
$GPGGA,220150.00,3300.3192,N,11805.0734,W,1,11,0.8,10.7,M,-34.6,M,,*6C
$PYRTM,2024,121.917966661285,13.027614071424
$GPGGA,220151.00,3300.3199,N,11805.0754,W,1,11,0.8,11.0,M,-34.6,M,,*66
$PYRTM,2024,121.917978243206,13.027625653345
$GPGGA,220152.00,3300.3209,N,11805.0774,W,1,11,0.8,11.6,M,-34.6,M,,*6B
$PYRTM,2024,121.917989694757,13.027637104896
$GPGGA,220153.00,3300.3220,N,11805.0798,W,1,11,0.8,11.3,M,-34.6,M,,*66
$PYRTM,2024,121.918001280509,13.027648690648
$GPGGA,220154.00,3300.3230,N,11805.0822,W,1,11,0.8,10.7,M,-34.6,M,,*6B
$PYRTM,2024,121.918008675914,13.027656086053
$GPGGA,220155.00,3300.3239,N,11805.0845,W,1,11,0.8,10.4,M,-34.6,M,,*61
$PYRTM,2024,121.918024432616,13.027671842755
$GPGGA,220156.00,3300.3247,N,11805.0865,W,1,11,0.8,10.9,M,-34.6,M,,*64
$PYRTM,2024,121.918031824826,13.027679234965
$GPGGA,220157.00,3300.3258,N,11805.0885,W,1,11,0.8,11.5,M,-34.6,M,,*68
$PYRTM,2024,121.918047580463,13.027694990602
$GPGGA,220158.00,3300.3269,N,11805.0908,W,1,11,0.8,11.5,M,-34.6,M,,*61
$PYRTM,2024,121.918059138877,13.027706549016
$GPGGA,220159.00,3300.3279,N,11805.0931,W,1,11,0.8,11.0,M,-34.6,M,,*6E
$PYRTM,2024,121.918066547743,13.027713957882
$GPGGA,220200.00,3300.3289,N,11805.0954,W,1,11,0.8,10.6,M,-34.6,M,,*6A
$PYRTM,2024,121.918082287708,13.027729697859
$GPGGA,220201.00,3300.3298,N,11805.0974,W,1,11,0.8,10.8,M,-34.6,M,,*67
$PYRTM,2024,121.918093869398,13.027741279537
$GPGGA,220202.00,3300.3309,N,11805.0995,W,1,11,0.8,11.2,M,-34.6,M,,*69
$PYRTM,2024,121.918105435475,13.027752845613
$GPGGA,220203.00,3300.3320,N,11805.1018,W,1,11,0.8,11.3,M,-34.6,M,,*6F
$PYRTM,2024,121.918112843345,13.027760253484
$GPGGA,220204.00,3300.3329,N,11805.1042,W,1,11,0.8,11.1,M,-34.6,M,,*6C
$PYRTM,2024,121.918131479005,13.027778889144
$GPGGA,220205.00,3300.3338,N,11805.1064,W,1,10,0.8,11.3,M,-34.6,M,,*6A
$PYRTM,2024,121.918140174236,13.027787584375
$GPGGA,220206.00,3300.3349,N,11805.1088,W,1,10,0.8,11.7,M,-34.6,M,,*69
$PYRTM,2024,121.918151734572,13.027799144711
$GPGGA,220207.00,3300.3361,N,11805.1111,W,1,10,0.8,11.4,M,-34.6,M,,*60
$PYRTM,2024,121.918159139410,13.027806549549
$GPGGA,220208.00,3300.3371,N,11805.1134,W,1,10,0.8,11.5,M,-34.6,M,,*68
$PYRTM,2024,121.918174880880,13.027822291019
$GPGGA,220209.00,3300.3380,N,11805.1155,W,1,10,0.8,11.9,M,-34.6,M,,*6C
$PYRTM,2024,121.918186467095,13.027833877234
$GPGGA,220210.00,3300.3389,N,11805.1178,W,1,10,0.8,12.1,M,-34.6,M,,*69
$PYRTM,2024,121.918198028264,13.027845438403
$GPGGA,220211.00,3300.3400,N,11805.1201,W,1,10,0.8,11.8,M,-34.6,M,,*69
$PYRTM,2024,121.918209619016,13.027857029155
$GPGGA,220212.00,3300.3409,N,11805.1223,W,1,10,0.8,11.6,M,-34.6,M,,*6D
$PYRTM,2024,121.918221176204,13.027868586343
$GPGGA,220213.00,3300.3419,N,11805.1245,W,1,10,0.8,11.5,M,-34.6,M,,*6E
$PYRTM,2024,121.918232767083,13.027880177234
$GPGGA,220214.00,3300.3428,N,11805.1269,W,1,10,0.8,11.4,M,-34.6,M,,*64
$PYRTM,2024,121.918244327245,13.027891737384
$GPGGA,220215.00,3300.3438,N,11805.1291,W,1,10,0.8,11.6,M,-34.6,M,,*61
$PYRTM,2024,121.918255907465,13.027903317604
$GPGGA,220216.00,3300.3446,N,11805.1313,W,1,10,0.8,12.3,M,-34.6,M,,*66
$PYRTM,2024,121.918267475764,13.027914885903
$GPGGA,220217.00,3300.3456,N,11805.1336,W,1,10,0.8,12.9,M,-34.6,M,,*6B
$PYRTM,2024,121.918279060602,13.027926470741
$GPGGA,220218.00,3300.3467,N,11805.1360,W,1,10,0.8,13.0,M,-34.6,M,,*6D
$PYRTM,2024,121.918286455694,13.027933865833
$GPGGA,220219.00,3300.3477,N,11805.1382,W,1,10,0.8,12.8,M,-34.6,M,,*68
$PYRTM,2024,121.918302208368,13.027949618519
$GPGGA,220220.00,3300.3486,N,11805.1405,W,1,10,0.8,12.8,M,-34.6,M,,*64
$PYRTM,2024,121.918313770486,13.027961180625
$GPGGA,220221.00,3300.3495,N,11805.1428,W,1,10,0.8,12.8,M,-34.6,M,,*68
$PYRTM,2024,121.918325357824,13.027972767975
$GPGGA,220222.00,3300.3505,N,11805.1451,W,1,10,0.8,12.5,M,-34.6,M,,*60
$PYRTM,2024,121.918336917662,13.027984327801
$GPGGA,220223.00,3300.3515,N,11805.1473,W,1,10,0.8,12.4,M,-34.6,M,,*61
$PYRTM,2024,121.918348507778,13.027995917917
$GPGGA,220224.00,3300.3524,N,11805.1495,W,1,10,0.8,12.7,M,-34.6,M,,*6F
$PYRTM,2024,121.918355900058,13.028003310208
$GPGGA,220225.00,3300.3534,N,11805.1518,W,1,10,0.8,12.9,M,-34.6,M,,*65
$PYRTM,2024,121.918371657049,13.028019067187
$GPGGA,220226.00,3300.3543,N,11805.1542,W,1,10,0.8,12.8,M,-34.6,M,,*68
$PYRTM,2024,121.918383214363,13.028030624502
$GPGGA,220227.00,3300.3553,N,11805.1564,W,1,10,0.8,12.9,M,-34.6,M,,*6D
$PYRTM,2024,121.918394805023,13.028042215162
$GPGGA,220228.00,3300.3561,N,11805.1585,W,1,10,0.8,13.3,M,-34.6,M,,*67
$PYRTM,2024,121.918406363264,13.028053773403
$GPGGA,220229.00,3300.3571,N,11805.1607,W,1,10,0.8,13.5,M,-34.6,M,,*68
$PYRTM,2024,121.918417945231,13.028065355370
$GPGGA,220230.00,3300.3582,N,11805.1631,W,1,10,0.8,13.3,M,-34.6,M,,*6F
$PYRTM,2024,121.918429511331,13.028076921470
$GPGGA,220231.00,3300.3592,N,11805.1654,W,1,10,0.8,12.8,M,-34.6,M,,*66
$PYRTM,2024,121.918441099005,13.028088509144
$GPGGA,220232.00,3300.3601,N,11805.1677,W,1,10,0.8,12.6,M,-34.6,M,,*63
$PYRTM,2024,121.918452660799,13.028100070937
$GPGGA,220233.00,3300.3611,N,11805.1700,W,1,10,0.8,12.7,M,-34.6,M,,*63
$PYRTM,2024,121.918464249838,13.028111659977
$GPGGA,220234.00,3300.3621,N,11805.1721,W,1,10,0.8,12.9,M,-34.6,M,,*6A
$PYRTM,2024,121.918471643553,13.028119053692
$GPGGA,220235.00,3300.3631,N,11805.1743,W,1,10,0.8,13.2,M,-34.6,M,,*64
$PYRTM,2024,121.918490293032,13.028137703171
$GPGGA,220236.00,3300.3641,N,11805.1767,W,1,10,0.8,13.2,M,-34.6,M,,*66
$PYRTM,2024,121.918498956968,13.028146367118
$GPGGA,220237.00,3300.3651,N,11805.1790,W,1,10,0.8,13.1,M,-34.6,M,,*6D
$PYRTM,2024,121.918510539109,13.028157949248
$GPGGA,220238.00,3300.3659,N,11805.1810,W,1,10,0.8,13.4,M,-34.6,M,,*68
$PYRTM,2024,121.918522104595,13.028169514734
$GPGGA,220239.00,3300.3669,N,11805.1831,W,1,10,0.8,13.6,M,-34.6,M,,*6B
$PYRTM,2024,121.918533693356,13.028181103495
$GPGGA,220240.00,3300.3680,N,11805.1856,W,1,10,0.8,12.5,M,-34.6,M,,*61
$PYRTM,2024,121.918545252338,13.028192662488
$GPGGA,220241.00,3300.3689,N,11805.1880,W,1,10,0.8,11.6,M,-34.6,M,,*62
$PYRTM,2024,121.918556842569,13.028204252708
$GPGGA,220242.00,3300.3698,N,11805.1902,W,1,10,0.8,11.6,M,-34.6,M,,*6A
$PYRTM,2024,121.918568400995,13.028215811134
$GPGGA,220243.00,3300.3707,N,11805.1923,W,1,10,0.8,12.3,M,-34.6,M,,*69
$PYRTM,2024,121.918579983044,13.028227393183
$GPGGA,220244.00,3300.3718,N,11805.1945,W,1,10,0.8,12.8,M,-34.6,M,,*6B
$PYRTM,2024,121.918587397141,13.028234807280
$GPGGA,220245.00,3300.3729,N,11805.1969,W,1,10,0.8,12.8,M,-34.6,M,,*66
$PYRTM,2024,121.918603136273,13.028250546412
$GPGGA,220246.00,3300.3738,N,11805.1992,W,1,10,0.8,12.8,M,-34.6,M,,*61
$PYRTM,2024,121.918614696956,13.028262107106
$GPGGA,220247.00,3300.3747,N,11805.2014,W,1,10,0.8,12.5,M,-34.6,M,,*61
$PYRTM,2024,121.918626280301,13.028273690440
$GPGGA,220248.00,3300.3757,N,11805.2035,W,1,10,0.8,12.4,M,-34.6,M,,*6D
$PYRTM,2024,121.918637845914,13.028285256053
$GPGGA,220249.00,3300.3767,N,11805.2057,W,1,10,0.8,12.3,M,-34.6,M,,*6C
$PYRTM,2024,121.918649435347,13.028296845498
$GPGGA,220250.00,3300.3777,N,11805.2080,W,1,10,0.8,12.2,M,-34.6,M,,*6E
$PYRTM,2024,121.918656830000,13.028304240139
$GPGGA,220251.00,3300.3786,N,11805.2104,W,1,10,0.8,12.2,M,-34.6,M,,*6C
$PYRTM,2024,121.918672581597,13.028319991736
$GPGGA,220252.00,3300.3796,N,11805.2126,W,1,10,0.8,12.4,M,-34.6,M,,*68
$PYRTM,2024,121.918684143993,13.028331554132
$GPGGA,220253.00,3300.3806,N,11805.2149,W,1,10,0.8,12.5,M,-34.6,M,,*67
$PYRTM,2024,121.918695732373,13.028343142512
$GPGGA,220254.00,3300.3817,N,11805.2171,W,1,10,0.8,12.5,M,-34.6,M,,*6B
$PYRTM,2024,121.918703125961,13.028350536100
$GPGGA,220255.00,3300.3827,N,11805.2193,W,1,10,0.8,12.7,M,-34.6,M,,*67
$PYRTM,2024,121.918718881412,13.028366291551
$GPGGA,220256.00,3300.3836,N,11805.2217,W,1,10,0.8,12.5,M,-34.6,M,,*69
$PYRTM,2024,121.918730439352,13.028377849491
$GPGGA,220257.00,3300.3846,N,11805.2241,W,1,10,0.8,12.1,M,-34.6,M,,*68
$PYRTM,2024,121.918742040428,13.028389450579
$GPGGA,220258.00,3300.3856,N,11805.2262,W,1,10,0.8,12.0,M,-34.6,M,,*66
$PYRTM,2024,121.918753587407,13.028400997546
$GPGGA,220259.00,3300.3866,N,11805.2282,W,1,10,0.8,12.3,M,-34.6,M,,*69
$PYRTM,2024,121.918760995116,13.028408405255
$GPGGA,220300.00,3300.3876,N,11805.2304,W,1,10,0.8,12.6,M,-34.6,M,,*6F
$PYRTM,2024,121.918776734803,13.028424144942
$GPGGA,220301.00,3300.3886,N,11805.2329,W,1,10,0.8,12.3,M,-34.6,M,,*6B
$PYRTM,2024,121.918788324560,13.028435734711
$GPGGA,220302.00,3300.3895,N,11805.2353,W,1,10,0.8,12.0,M,-34.6,M,,*64
$PYRTM,2024,121.918799883553,13.028447293692
$GPGGA,220303.00,3300.3904,N,11805.2375,W,1,10,0.8,12.0,M,-34.6,M,,*68
$PYRTM,2024,121.918811470255,13.028458880405
$GPGGA,220304.00,3300.3914,N,11805.2396,W,1,10,0.8,12.4,M,-34.6,M,,*67
$PYRTM,2024,121.918823032535,13.028470442685
$GPGGA,220305.00,3300.3925,N,11805.2418,W,1,10,0.8,12.6,M,-34.6,M,,*67
$PYRTM,2024,121.918830439525,13.028477849664
$GPGGA,220306.00,3300.3936,N,11805.2442,W,1,10,0.8,12.5,M,-34.6,M,,*6A
$PYRTM,2024,121.918849073345,13.028496483484
$GPGGA,220307.00,3300.3945,N,11805.2466,W,1,10,0.8,12.3,M,-34.6,M,,*6F
$PYRTM,2024,121.918857766493,13.028505176620
$GPGGA,220308.00,3300.3953,N,11805.2488,W,1,10,0.8,12.5,M,-34.6,M,,*61
$PYRTM,2024,121.918869329468,13.028516739606
$GPGGA,220309.00,3300.3963,N,11805.2509,W,1,10,0.8,12.6,M,-34.6,M,,*68
$PYRTM,2024,121.918876737187,13.028524147326
$GPGGA,220310.00,3300.3975,N,11805.2532,W,1,10,0.8,12.6,M,-34.6,M,,*6F
$PYRTM,2024,121.918892479086,13.028539889225
$GPGGA,220311.00,3300.3985,N,11805.2555,W,1,10,0.8,12.3,M,-34.6,M,,*65
$PYRTM,2024,121.918904066690,13.028551476829
$GPGGA,220312.00,3300.3994,N,11805.2578,W,1,10,0.8,12.2,M,-34.6,M,,*68
$PYRTM,2024,121.918915625093,13.028563035243
$GPGGA,220313.00,3300.4003,N,11805.2600,W,1,10,0.8,12.3,M,-34.6,M,,*64
$PYRTM,2024,121.918927207130,13.028574617269
$GPGGA,220314.00,3300.4014,N,11805.2622,W,1,10,0.8,12.5,M,-34.6,M,,*63
$PYRTM,2024,121.918938773900,13.028586184039
$GPGGA,220315.00,3300.4024,N,11805.2645,W,1,10,0.8,12.5,M,-34.6,M,,*60
$PYRTM,2024,121.918950360417,13.028597770556
$GPGGA,220316.00,3300.4034,N,11805.2667,W,1,10,0.8,12.5,M,-34.6,M,,*62
$PYRTM,2024,121.918961921447,13.028609331586
$GPGGA,220317.00,3300.4044,N,11805.2690,W,1,10,0.8,12.4,M,-34.6,M,,*6D
$PYRTM,2024,121.918973509838,13.028620919977
$GPGGA,220318.00,3300.4054,N,11805.2712,W,1,10,0.8,12.3,M,-34.6,M,,*6F
$PYRTM,2024,121.918985070475,13.028632480613
$GPGGA,220319.00,3300.4064,N,11805.2736,W,1,10,0.8,11.9,M,-34.6,M,,*62
$PYRTM,2024,121.918992478681,13.028639888819
$GPGGA,220320.00,3300.4074,N,11805.2759,W,1,10,0.8,11.6,M,-34.6,M,,*6F
$PYRTM,2024,121.919008230729,13.028655640868
$GPGGA,220321.00,3300.4083,N,11805.2781,W,1,10,0.8,12.0,M,-34.6,M,,*66
$PYRTM,2024,121.919019806678,13.028667216829
$GPGGA,220322.00,3300.4092,N,11805.2802,W,1,10,0.8,12.7,M,-34.6,M,,*66
$PYRTM,2024,121.919027201134,13.028674611273
$GPGGA,220323.00,3300.4103,N,11805.2825,W,1,10,0.8,13.0,M,-34.6,M,,*6D
$PYRTM,2024,121.919042968773,13.028690378912
$GPGGA,220324.00,3300.4113,N,11805.2849,W,1,10,0.8,12.7,M,-34.6,M,,*67
$PYRTM,2024,121.919050348808,13.028697758947
$GPGGA,220325.00,3300.4123,N,11805.2872,W,1,10,0.8,12.1,M,-34.6,M,,*6B
$PYRTM,2024,121.919066117917,13.028713528056
$GPGGA,220326.00,3300.4132,N,11805.2896,W,1,10,0.8,11.6,M,-34.6,M,,*66
$PYRTM,2024,121.919077671782,13.028725081933
$GPGGA,220327.00,3300.4142,N,11805.2917,W,1,10,0.8,11.7,M,-34.6,M,,*69
$PYRTM,2024,121.919089245718,13.028736655856
$GPGGA,220328.00,3300.4153,N,11805.2938,W,1,10,0.8,12.3,M,-34.6,M,,*6C
$PYRTM,2024,121.919100824641,13.028748234792
$GPGGA,220329.00,3300.4162,N,11805.2959,W,1,10,0.8,13.0,M,-34.6,M,,*6A
$PYRTM,2024,121.919112403634,13.028759813773
$GPGGA,220330.00,3300.4172,N,11805.2984,W,1,10,0.8,12.9,M,-34.6,M,,*6B
$PYRTM,2024,121.919123978275,13.028771388414
$GPGGA,220331.00,3300.4182,N,11805.3010,W,1,10,0.8,12.1,M,-34.6,M,,*68
$PYRTM,2024,121.919135542292,13.028782952431
$GPGGA,220332.00,3300.4192,N,11805.3030,W,1,10,0.8,11.8,M,-34.6,M,,*62
$PYRTM,2024,121.919147117836,13.028794527975
$GPGGA,220333.00,3300.4202,N,11805.3048,W,1,10,0.8,12.2,M,-34.6,M,,*6F
$PYRTM,2024,121.919158699826,13.028806109965
$GPGGA,220334.00,3300.4213,N,11805.3070,W,1,10,0.8,12.4,M,-34.6,M,,*65
$PYRTM,2024,121.919166089676,13.028813499815
$GPGGA,220335.00,3300.4222,N,11805.3096,W,1,10,0.8,12.0,M,-34.6,M,,*6A
$PYRTM,2024,121.919181848565,13.028829258704
$GPGGA,220336.00,3300.4231,N,11805.3121,W,1,10,0.8,11.6,M,-34.6,M,,*63
$PYRTM,2024,121.919189239688,13.028836649826
$GPGGA,220337.00,3300.4241,N,11805.3141,W,1,10,0.8,11.8,M,-34.6,M,,*6D
$PYRTM,2024,121.919207886898,13.028855297037
$GPGGA,220338.00,3300.4253,N,11805.3162,W,1,10,0.8,12.3,M,-34.6,M,,*68
$PYRTM,2024,121.919216566238,13.028863976377
$GPGGA,220339.00,3300.4264,N,11805.3184,W,1,10,0.8,12.6,M,-34.6,M,,*60
$PYRTM,2024,121.919228161447,13.028875571586
$GPGGA,220340.00,3300.4272,N,11805.3206,W,1,10,0.8,12.8,M,-34.6,M,,*6E
$PYRTM,2024,121.919239713970,13.028887124109
$GPGGA,220341.00,3300.4282,N,11805.3230,W,1,10,0.8,12.7,M,-34.6,M,,*6A
$PYRTM,2024,121.919251290579,13.028898700718
$GPGGA,220342.00,3300.4293,N,11805.3253,W,1,10,0.8,12.0,M,-34.6,M,,*6B
$PYRTM,2024,121.919262858854,13.028910268993
$GPGGA,220343.00,3300.4305,N,11805.3274,W,1,10,0.8,11.5,M,-34.6,M,,*67
$PYRTM,2024,121.919274436887,13.028921847025
$GPGGA,220344.00,3300.4314,N,11805.3293,W,1,10,0.8,11.9,M,-34.6,M,,*65
$PYRTM,2024,121.919281846701,13.028929256852
$GPGGA,220345.00,3300.4323,N,11805.3314,W,1,10,0.8,12.3,M,-34.6,M,,*67
$PYRTM,2024,121.919297587396,13.028944997535
$GPGGA,220346.00,3300.4332,N,11805.3338,W,1,10,0.8,12.2,M,-34.6,M,,*6B
$PYRTM,2024,121.919309160752,13.028956570891
$GPGGA,220347.00,3300.4342,N,11805.3363,W,1,10,0.8,11.7,M,-34.6,M,,*65
$PYRTM,2024,121.919320729595,13.028968139745
$GPGGA,220348.00,3300.4352,N,11805.3385,W,1,10,0.8,11.8,M,-34.6,M,,*6C
$PYRTM,2024,121.919332300891,13.028979711030
$GPGGA,220349.00,3300.4362,N,11805.3406,W,1,10,0.8,12.2,M,-34.6,M,,*6B
$PYRTM,2024,121.919343998588,13.028991408727
$GPGGA,220350.00,3300.4373,N,11805.3427,W,1,10,0.8,12.7,M,-34.6,M,,*65
$PYRTM,2024,121.919355558924,13.029002969062
$GPGGA,220351.00,3300.4383,N,11805.3449,W,1,10,0.8,12.8,M,-34.6,M,,*6C
$PYRTM,2024,121.919367146725,13.029014556863
$GPGGA,220352.00,3300.4392,N,11805.3472,W,1,10,0.8,12.8,M,-34.6,M,,*67
$PYRTM,2024,121.919378706701,13.029026116840
$GPGGA,220353.00,3300.4402,N,11805.3495,W,1,10,0.8,12.4,M,-34.6,M,,*6D
$PYRTM,2024,121.919390297164,13.029037707303
$GPGGA,220354.00,3300.4412,N,11805.3517,W,1,10,0.8,12.1,M,-34.6,M,,*65
$PYRTM,2024,121.919397688519,13.029045098657
$GPGGA,220355.00,3300.4422,N,11805.3540,W,1,10,0.8,12.0,M,-34.6,M,,*64
$PYRTM,2024,121.919413447257,13.029060857396
$GPGGA,220356.00,3300.4433,N,11805.3562,W,1,10,0.8,12.1,M,-34.6,M,,*66
$PYRTM,2024,121.919425003067,13.029072413206
$GPGGA,220357.00,3300.4443,N,11805.3585,W,1,10,0.8,12.1,M,-34.6,M,,*69
$PYRTM,2024,121.919436475093,13.029083885231
$GPGGA,220358.00,3300.4453,N,11805.3609,W,1,10,0.8,11.9,M,-34.6,M,,*6B
$PYRTM,2024,121.919448048611,13.029095458750
$GPGGA,220359.00,3300.4463,N,11805.3632,W,1,10,0.8,12.1,M,-34.6,M,,*6A
$PYRTM,2024,121.919455444120,13.029102854259
$GPGGA,220400.00,3300.4472,N,11805.3653,W,1,10,0.8,12.4,M,-34.6,M,,*63
$PYRTM,2024,121.919471196076,13.029118606215
$GPGGA,220401.00,3300.4482,N,11805.3673,W,1,10,0.8,12.7,M,-34.6,M,,*6C
$PYRTM,2024,121.919482771308,13.029130181447
$GPGGA,220402.00,3300.4492,N,11805.3696,W,1,10,0.8,12.6,M,-34.6,M,,*64
$PYRTM,2024,121.919494346204,13.029141756354
$GPGGA,220403.00,3300.4502,N,11805.3719,W,1,10,0.8,12.3,M,-34.6,M,,*6E
$PYRTM,2024,121.919505920116,13.029153330255
$GPGGA,220404.00,3300.4512,N,11805.3741,W,1,10,0.8,12.1,M,-34.6,M,,*67
$PYRTM,2024,121.919517492813,13.029164902951
$GPGGA,220405.00,3300.4522,N,11805.3763,W,1,10,0.8,12.2,M,-34.6,M,,*66
$PYRTM,2024,121.919529071308,13.029176481458
$GPGGA,220406.00,3300.4533,N,11805.3786,W,1,10,0.8,12.2,M,-34.6,M,,*6E
$PYRTM,2024,121.919540641528,13.029188051667
$GPGGA,220407.00,3300.4543,N,11805.3812,W,1,10,0.8,11.9,M,-34.6,M,,*62
$PYRTM,2024,121.919548037593,13.029195447731
$GPGGA,220408.00,3300.4552,N,11805.3833,W,1,10,0.8,12.2,M,-34.6,M,,*66
$PYRTM,2024,121.919566670718,13.029214080856
$GPGGA,220409.00,3300.4562,N,11805.3853,W,1,10,0.8,13.0,M,-34.6,M,,*61
$PYRTM,2024,121.919578260579,13.029225670729
$GPGGA,220410.00,3300.4573,N,11805.3875,W,1,10,0.8,13.2,M,-34.6,M,,*6F
$PYRTM,2024,121.919589821007,13.029237231146
$GPGGA,220411.00,3300.4584,N,11805.3900,W,1,10,0.8,12.3,M,-34.6,M,,*65
$PYRTM,2024,121.919598508102,13.029245918241
$GPGGA,220412.00,3300.4594,N,11805.3923,W,1,10,0.8,11.6,M,-34.6,M,,*60
$PYRTM,2024,121.919605923264,13.029253333403
$GPGGA,220413.00,3300.4601,N,11805.3944,W,1,10,0.8,11.5,M,-34.6,M,,*6C
$PYRTM,2024,121.919621661343,13.029269071493
$GPGGA,220414.00,3300.4609,N,11805.3962,W,1,10,0.8,12.4,M,-34.6,M,,*65
$PYRTM,2024,121.919633235324,13.029280645463
$GPGGA,220415.00,3300.4620,N,11805.3983,W,1,10,0.8,13.1,M,-34.6,M,,*64
$PYRTM,2024,121.919644809167,13.029292219306
$GPGGA,220416.00,3300.4632,N,11805.4007,W,1,10,0.8,12.7,M,-34.6,M,,*61
$PYRTM,2024,121.919656384734,13.029303794873
$GPGGA,220417.00,3300.4641,N,11805.4031,W,1,10,0.8,12.1,M,-34.6,M,,*67
$PYRTM,2024,121.919667957685,13.029315367824
$GPGGA,220418.00,3300.4648,N,11805.4053,W,1,10,0.8,12.0,M,-34.6,M,,*64
$PYRTM,2024,121.919679532627,13.029326942766
$GPGGA,220419.00,3300.4656,N,11805.4073,W,1,10,0.8,12.5,M,-34.6,M,,*6D
$PYRTM,2024,121.919686927083,13.029334337234
$GPGGA,220420.00,3300.4668,N,11805.4095,W,1,10,0.8,12.7,M,-34.6,M,,*60
$PYRTM,2024,121.919702680613,13.029350090752
$GPGGA,220421.00,3300.4680,N,11805.4120,W,1,10,0.8,12.3,M,-34.6,M,,*6C
$PYRTM,2024,121.919714253391,13.029361663530
$GPGGA,220422.00,3300.4690,N,11805.4143,W,1,10,0.8,12.0,M,-34.6,M,,*68
$PYRTM,2024,121.919721649618,13.029369059757
$GPGGA,220423.00,3300.4697,N,11805.4165,W,1,10,0.8,12.4,M,-34.6,M,,*6E
$PYRTM,2024,121.919737405579,13.029384815718
$GPGGA,220424.00,3300.4706,N,11805.4186,W,1,10,0.8,12.9,M,-34.6,M,,*60
$PYRTM,2024,121.919748974468,13.029396384606
$GPGGA,220425.00,3300.4717,N,11805.4207,W,1,10,0.8,13.1,M,-34.6,M,,*62
$PYRTM,2024,121.919760551319,13.029407961458
$GPGGA,220426.00,3300.4728,N,11805.4230,W,1,10,0.8,12.5,M,-34.6,M,,*6C
$PYRTM,2024,121.919772127049,13.029419537188
$GPGGA,220427.00,3300.4738,N,11805.4253,W,1,10,0.8,11.6,M,-34.6,M,,*69
$PYRTM,2024,121.919779521181,13.029426931319
$GPGGA,220428.00,3300.4746,N,11805.4275,W,1,10,0.8,11.3,M,-34.6,M,,*6E
$PYRTM,2024,121.919795272778,13.029442682928
$GPGGA,220429.00,3300.4754,N,11805.4297,W,1,10,0.8,11.4,M,-34.6,M,,*67
$PYRTM,2024,121.919806851678,13.029454261817
$GPGGA,220430.00,3300.4763,N,11805.4319,W,1,10,0.8,11.5,M,-34.6,M,,*6D
$PYRTM,2024,121.919818421296,13.029465831435
$GPGGA,220431.00,3300.4774,N,11805.4342,W,1,10,0.8,11.8,M,-34.6,M,,*69
$PYRTM,2024,121.919829996377,13.029477406516
$GPGGA,220432.00,3300.4785,N,11805.4364,W,1,10,0.8,12.0,M,-34.6,M,,*6B
$PYRTM,2024,121.919837390810,13.029484800949
$GPGGA,220433.00,3300.4794,N,11805.4386,W,1,10,0.8,12.2,M,-34.6,M,,*64
$PYRTM,2024,121.919853143681,13.029500553819
$GPGGA,220434.00,3300.4803,N,11805.4408,W,1,10,0.8,12.3,M,-34.6,M,,*62
$PYRTM,2024,121.919864718009,13.029512128148
$GPGGA,220435.00,3300.4812,N,11805.4431,W,1,10,0.8,12.2,M,-34.6,M,,*68
$PYRTM,2024,121.919876295498,13.029523705637
$GPGGA,220436.00,3300.4821,N,11805.4452,W,1,10,0.8,12.2,M,-34.6,M,,*6E
$PYRTM,2024,121.919887865394,13.029535275532
$GPGGA,220437.00,3300.4831,N,11805.4474,W,1,10,0.8,12.2,M,-34.6,M,,*6A
$PYRTM,2024,121.919895261412,13.029542671551
$GPGGA,220438.00,3300.4841,N,11805.4497,W,1,10,0.8,12.1,M,-34.6,M,,*6C
$PYRTM,2024,121.919907065104,13.029554475255
$GPGGA,220439.00,3300.4851,N,11805.4520,W,1,10,0.8,12.0,M,-34.6,M,,*60
$PYRTM,2024,121.919925484873,13.029572895012
$GPGGA,220440.00,3300.4861,N,11805.4543,W,1,10,0.8,12.3,M,-34.6,M,,*6B
$PYRTM,2024,121.919934164525,13.029581574664
$GPGGA,220441.00,3300.4870,N,11805.4565,W,1,10,0.8,12.8,M,-34.6,M,,*65
$PYRTM,2024,121.919945737882,13.029593148021
$GPGGA,220442.00,3300.4879,N,11805.4586,W,1,10,0.8,13.3,M,-34.6,M,,*68
$PYRTM,2024,121.919957311019,13.029604721157
$GPGGA,220443.00,3300.4890,N,11805.4609,W,1,10,0.8,13.3,M,-34.6,M,,*6A
$PYRTM,2024,121.919968880498,13.029616290637
$GPGGA,220444.00,3300.4900,N,11805.4633,W,1,10,0.8,12.7,M,-34.6,M,,*69
$PYRTM,2024,121.919980459028,13.029627869178
$GPGGA,220445.00,3300.4909,N,11805.4656,W,1,10,0.8,12.1,M,-34.6,M,,*64
$PYRTM,2024,121.919992033704,13.029639443843
$GPGGA,220446.00,3300.4918,N,11805.4676,W,1,10,0.8,12.8,M,-34.6,M,,*6C
$PYRTM,2024,121.920003608333,13.029651018472
$GPGGA,220447.00,3300.4929,N,11805.4697,W,1,10,0.8,13.2,M,-34.6,M,,*6B
$PYRTM,2024,121.920011003461,13.029658413600
$GPGGA,220448.00,3300.4940,N,11805.4720,W,1,10,0.8,12.8,M,-34.6,M,,*6D
$PYRTM,2024,121.920026756505,13.029674166644
$GPGGA,220449.00,3300.4951,N,11805.4745,W,1,10,0.8,12.2,M,-34.6,M,,*65
$PYRTM,2024,121.920038330093,13.029685740231
$GPGGA,220450.00,3300.4959,N,11805.4768,W,1,10,0.8,12.2,M,-34.6,M,,*6A
$PYRTM,2024,121.920049903958,13.029697314097
$GPGGA,220451.00,3300.4968,N,11805.4789,W,1,10,0.8,12.5,M,-34.6,M,,*61
$PYRTM,2024,121.920061482986,13.029708893125
$GPGGA,220452.00,3300.4979,N,11805.4810,W,1,10,0.8,12.7,M,-34.6,M,,*6F
$PYRTM,2024,121.920073052465,13.029720462604
$GPGGA,220453.00,3300.4990,N,11805.4833,W,1,10,0.8,12.5,M,-34.6,M,,*6A
$PYRTM,2024,121.920084627535,13.029732037674
$GPGGA,220454.00,3300.5000,N,11805.4856,W,1,10,0.8,12.2,M,-34.6,M,,*68
$PYRTM,2024,121.920096201088,13.029743611238
$GPGGA,220455.00,3300.5008,N,11805.4879,W,1,10,0.8,12.2,M,-34.6,M,,*6C
$PYRTM,2024,121.920107776736,13.029755186875
$GPGGA,220456.00,3300.5016,N,11805.4901,W,1,10,0.8,12.4,M,-34.6,M,,*68
$PYRTM,2024,121.920119348947,13.029766759086
$GPGGA,220457.00,3300.5027,N,11805.4923,W,1,10,0.8,12.5,M,-34.6,M,,*6A
$PYRTM,2024,121.920130924884,13.029778335023
$GPGGA,220458.00,3300.5038,N,11805.4947,W,1,10,0.8,12.2,M,-34.6,M,,*6E
$PYRTM,2024,121.920142493854,13.029789903993
$GPGGA,220459.00,3300.5049,N,11805.4969,W,1,10,0.8,12.2,M,-34.6,M,,*65
$PYRTM,2024,121.920149892581,13.029797302731
$GPGGA,220500.00,3300.5058,N,11805.4990,W,1,10,0.8,12.6,M,-34.6,M,,*6A
$PYRTM,2024,121.920165645382,13.029813055521
$GPGGA,220501.00,3300.5067,N,11805.5012,W,1,10,0.8,13.0,M,-34.6,M,,*62
$PYRTM,2024,121.920177215255,13.029824625394
$GPGGA,220502.00,3300.5077,N,11805.5036,W,1,10,0.8,12.8,M,-34.6,M,,*6F
$PYRTM,2024,121.920184615683,13.029832025822
$GPGGA,220503.00,3300.5088,N,11805.5059,W,1,10,0.8,12.4,M,-34.6,M,,*6B
$PYRTM,2024,121.920200369167,13.029847779306
$GPGGA,220504.00,3300.5098,N,11805.5081,W,1,10,0.8,12.3,M,-34.6,M,,*6F
$PYRTM,2024,121.920211942419,13.029859352558
$GPGGA,220505.00,3300.5108,N,11805.5102,W,1,10,0.8,12.5,M,-34.6,M,,*6A
$PYRTM,2024,121.920223530961,13.029870941100
$GPGGA,220506.00,3300.5117,N,11805.5125,W,1,10,0.8,12.7,M,-34.6,M,,*60
$PYRTM,2024,121.920235088287,13.029882498437
$GPGGA,220507.00,3300.5126,N,11805.5148,W,1,10,0.8,12.8,M,-34.6,M,,*67
$PYRTM,2024,121.920246679977,13.029894090116
$GPGGA,220508.00,3300.5135,N,11805.5171,W,1,10,0.8,12.8,M,-34.6,M,,*60
$PYRTM,2024,121.920258239363,13.029905649502
$GPGGA,220509.00,3300.5147,N,11805.5194,W,1,10,0.8,12.6,M,-34.6,M,,*61
$PYRTM,2024,121.920265633426,13.029913043565
$GPGGA,220510.00,3300.5157,N,11805.5217,W,1,10,0.8,12.4,M,-34.6,M,,*62
$PYRTM,2024,121.920284266725,13.029931676863
$GPGGA,220511.00,3300.5166,N,11805.5239,W,1,10,0.8,12.6,M,-34.6,M,,*6F
$PYRTM,2024,121.920292961400,13.029940371539
$GPGGA,220512.00,3300.5174,N,11805.5260,W,1,10,0.8,12.9,M,-34.6,M,,*6C
$PYRTM,2024,121.920300371667,13.029947781806
$GPGGA,220513.00,3300.5184,N,11805.5284,W,1,10,0.8,12.8,M,-34.6,M,,*69
$PYRTM,2024,121.920316109618,13.029963519757
$GPGGA,220514.00,3300.5195,N,11805.5309,W,1,10,0.8,12.3,M,-34.6,M,,*61
$PYRTM,2024,121.920327678958,13.029975089109
$GPGGA,220515.00,3300.5206,N,11805.5331,W,1,10,0.8,11.9,M,-34.6,M,,*6B
$PYRTM,2024,121.920339257083,13.029986667222
$GPGGA,220516.00,3300.5214,N,11805.5351,W,1,10,0.8,12.4,M,-34.6,M,,*63
$PYRTM,2024,121.920350832014,13.029998242153
$GPGGA,220517.00,3300.5223,N,11805.5372,W,1,10,0.8,13.1,M,-34.6,M,,*63
$PYRTM,2024,121.920362407396,13.030009817546
$GPGGA,220518.00,3300.5233,N,11805.5396,W,1,10,0.8,13.1,M,-34.6,M,,*67
$PYRTM,2024,121.920373981100,13.030021391238
$GPGGA,220519.00,3300.5244,N,11805.5421,W,1,10,0.8,12.5,M,-34.6,M,,*68
$PYRTM,2024,121.920385568611,13.030032978750
$GPGGA,220520.00,3300.5253,N,11805.5444,W,1,10,0.8,12.0,M,-34.6,M,,*62
$PYRTM,2024,121.920397128148,13.030044538287
$GPGGA,220521.00,3300.5263,N,11805.5465,W,1,10,0.8,12.0,M,-34.6,M,,*63
$PYRTM,2024,121.920408717373,13.030056127512
$GPGGA,220522.00,3300.5274,N,11805.5485,W,1,10,0.8,12.5,M,-34.6,M,,*6D
$PYRTM,2024,121.920420278137,13.030067688275
$GPGGA,220523.00,3300.5284,N,11805.5506,W,1,10,0.8,13.0,M,-34.6,M,,*6D
$PYRTM,2024,121.920431850799,13.030079260937
$GPGGA,220524.00,3300.5293,N,11805.5530,W,1,10,0.8,13.1,M,-34.6,M,,*68
$PYRTM,2024,121.920443425880,13.030090836019
$GPGGA,220525.00,3300.5302,N,11805.5555,W,1,10,0.8,12.6,M,-34.6,M,,*65
$PYRTM,2024,121.920455000660,13.030102410799
$GPGGA,220526.00,3300.5311,N,11805.5576,W,1,10,0.8,12.3,M,-34.6,M,,*60
$PYRTM,2024,121.920466569815,13.030113979954
$GPGGA,220527.00,3300.5321,N,11805.5597,W,1,10,0.8,12.4,M,-34.6,M,,*6A
$PYRTM,2024,121.920473969630,13.030121379769
$GPGGA,220528.00,3300.5332,N,11805.5619,W,1,10,0.8,12.3,M,-34.6,M,,*65
$PYRTM,2024,121.920489717025,13.030137127176
$GPGGA,220529.00,3300.5342,N,11805.5644,W,1,10,0.8,12.2,M,-34.6,M,,*6A
$PYRTM,2024,121.920501296875,13.030148707014
$GPGGA,220530.00,3300.5349,N,11805.5667,W,1,10,0.8,12.4,M,-34.6,M,,*6E
$PYRTM,2024,121.920512865382,13.030160275532
$GPGGA,220531.00,3300.5359,N,11805.5688,W,1,10,0.8,12.8,M,-34.6,M,,*63
$PYRTM,2024,121.920520265486,13.030167675625
$GPGGA,220532.00,3300.5370,N,11805.5710,W,1,10,0.8,13.1,M,-34.6,M,,*63
$PYRTM,2024,121.920538899676,13.030186309815
$GPGGA,220533.00,3300.5382,N,11805.5731,W,1,10,0.8,13.2,M,-34.6,M,,*6F
$PYRTM,2024,121.920550486435,13.030197896574
$GPGGA,220534.00,3300.5391,N,11805.5753,W,1,10,0.8,12.7,M,-34.6,M,,*6A
$PYRTM,2024,121.920559165498,13.030206575637
$GPGGA,220535.00,3300.5399,N,11805.5778,W,1,10,0.8,12.4,M,-34.6,M,,*69
$PYRTM,2024,121.920570744873,13.030218155012
$GPGGA,220536.00,3300.5408,N,11805.5801,W,1,10,0.8,11.9,M,-34.6,M,,*6A
$PYRTM,2024,121.920582314421,13.030229724560
$GPGGA,220537.00,3300.5419,N,11805.5822,W,1,10,0.8,12.0,M,-34.6,M,,*60
$PYRTM,2024,121.920589709931,13.030237120069
$GPGGA,220538.00,3300.5431,N,11805.5842,W,1,10,0.8,12.3,M,-34.6,M,,*60
$PYRTM,2024,121.920605462153,13.030252872292
$GPGGA,220539.00,3300.5439,N,11805.5865,W,1,10,0.8,12.8,M,-34.6,M,,*67
$PYRTM,2024,121.920617032303,13.030264442442
$GPGGA,220540.00,3300.5446,N,11805.5890,W,1,10,0.8,12.9,M,-34.6,M,,*6A
$PYRTM,2024,121.920624445278,13.030271855417
$GPGGA,220541.00,3300.5454,N,11805.5914,W,1,10,0.8,12.7,M,-34.6,M,,*6B
$PYRTM,2024,121.920643074537,13.030290484676
$GPGGA,220542.00,3300.5466,N,11805.5936,W,1,10,0.8,12.3,M,-34.6,M,,*6D
$PYRTM,2024,121.920651754456,13.030299164595
$GPGGA,220543.00,3300.5478,N,11805.5954,W,1,10,0.8,13.2,M,-34.6,M,,*67
$PYRTM,2024,121.920663328252,13.030310738403
$GPGGA,220544.00,3300.5487,N,11805.5975,W,1,10,0.8,13.3,M,-34.6,M,,*62
$PYRTM,2024,121.920674907801,13.030322317940
$GPGGA,220545.00,3300.5495,N,11805.6000,W,1,10,0.8,12.8,M,-34.6,M,,*62
$PYRTM,2024,121.920686477731,13.030333887870
$GPGGA,220546.00,3300.5504,N,11805.6025,W,1,10,0.8,12.5,M,-34.6,M,,*62
$PYRTM,2024,121.920698057303,13.030345467442
$GPGGA,220547.00,3300.5515,N,11805.6047,W,1,10,0.8,12.4,M,-34.6,M,,*66
$PYRTM,2024,121.920709645579,13.030357055718
$GPGGA,220548.00,3300.5526,N,11805.6067,W,1,10,0.8,12.5,M,-34.6,M,,*6A
$PYRTM,2024,121.920721205625,13.030368615764
$GPGGA,220549.00,3300.5536,N,11805.6086,W,1,10,0.8,13.1,M,-34.6,M,,*60
$PYRTM,2024,121.920732781817,13.030380191956
$GPGGA,220550.00,3300.5545,N,11805.6109,W,1,10,0.8,13.3,M,-34.6,M,,*68
$PYRTM,2024,121.920744353519,13.030391763669
$GPGGA,220551.00,3300.5554,N,11805.6135,W,1,10,0.8,12.6,M,-34.6,M,,*62
$PYRTM,2024,121.920755941007,13.030403351146
$GPGGA,220552.00,3300.5563,N,11805.6159,W,1,10,0.8,11.8,M,-34.6,M,,*62
$PYRTM,2024,121.920763322269,13.030410732419
$GPGGA,220553.00,3300.5573,N,11805.6180,W,1,10,0.8,11.7,M,-34.6,M,,*69
$PYRTM,2024,121.920779070394,13.030426480532
$GPGGA,220554.00,3300.5584,N,11805.6198,W,1,10,0.8,12.5,M,-34.6,M,,*6E
$PYRTM,2024,121.920790645440,13.030438055579
$GPGGA,220555.00,3300.5595,N,11805.6219,W,1,10,0.8,13.1,M,-34.6,M,,*60
$PYRTM,2024,121.920802219225,13.030449629363
$GPGGA,220556.00,3300.5605,N,11805.6244,W,1,10,0.8,13.0,M,-34.6,M,,*60
$PYRTM,2024,121.920813902847,13.030461312998
$GPGGA,220557.00,3300.5613,N,11805.6267,W,1,10,0.8,12.9,M,-34.6,M,,*6F
$PYRTM,2024,121.920825489097,13.030472899236
$GPGGA,220558.00,3300.5622,N,11805.6288,W,1,10,0.8,12.9,M,-34.6,M,,*63
$PYRTM,2024,121.920837050058,13.030484460197
$GPGGA,220559.00,3300.5633,N,11805.6310,W,1,10,0.8,12.6,M,-34.6,M,,*6D
$PYRTM,2024,121.920848634583,13.030496044722
$GPGGA,220600.00,3300.5644,N,11805.6333,W,1,10,0.8,12.3,M,-34.6,M,,*66
$PYRTM,2024,121.920860197245,13.030507607384
$GPGGA,220601.00,3300.5653,N,11805.6355,W,1,10,0.8,12.3,M,-34.6,M,,*61
$PYRTM,2024,121.920871668773,13.030519078912
$GPGGA,220602.00,3300.5662,N,11805.6377,W,1,10,0.8,12.9,M,-34.6,M,,*6A
$PYRTM,2024,121.920879063206,13.030526473345
$GPGGA,220603.00,3300.5670,N,11805.6398,W,1,10,0.8,13.5,M,-34.6,M,,*64
$PYRTM,2024,121.920894820718,13.030542230868
$GPGGA,220604.00,3300.5681,N,11805.6421,W,1,10,0.8,13.6,M,-34.6,M,,*6B
$PYRTM,2024,121.920902212130,13.030549622269
$GPGGA,220605.00,3300.5691,N,11805.6445,W,1,10,0.8,13.1,M,-34.6,M,,*6E
$PYRTM,2024,121.920920873229,13.030568283368
$GPGGA,220606.00,3300.5701,N,11805.6468,W,1,10,0.8,12.4,M,-34.6,M,,*6E
$PYRTM,2024,121.920929538785,13.030576948924
$GPGGA,220607.00,3300.5710,N,11805.6488,W,1,10,0.8,12.5,M,-34.6,M,,*60
$PYRTM,2024,121.920936934410,13.030584344549
$GPGGA,220608.00,3300.5719,N,11805.6507,W,1,10,0.8,13.0,M,-34.6,M,,*64
$PYRTM,2024,121.920952687662,13.030600097801
$GPGGA,220609.00,3300.5729,N,11805.6529,W,1,10,0.8,13.1,M,-34.6,M,,*6B
$PYRTM,2024,121.920964261157,13.030611671308
$GPGGA,220610.00,3300.5739,N,11805.6555,W,1,10,0.8,12.1,M,-34.6,M,,*68
$PYRTM,2024,121.920975835278,13.030623245417
$GPGGA,220611.00,3300.5749,N,11805.6579,W,1,10,0.8,11.4,M,-34.6,M,,*66
$PYRTM,2024,121.920983230000,13.030630640139
$GPGGA,220612.00,3300.5757,N,11805.6599,W,1,10,0.8,11.5,M,-34.6,M,,*65
$PYRTM,2024,121.921001864329,13.030649274479
$GPGGA,220613.00,3300.5766,N,11805.6618,W,1,10,0.8,12.4,M,-34.6,M,,*6E
$PYRTM,2024,121.921010556921,13.030657967060
$GPGGA,220614.00,3300.5777,N,11805.6640,W,1,10,0.8,12.8,M,-34.6,M,,*68
$PYRTM,2024,121.921022131956,13.030669542095
$GPGGA,220615.00,3300.5787,N,11805.6664,W,1,10,0.8,12.6,M,-34.6,M,,*6E
$PYRTM,2024,121.921029526458,13.030676936597
$GPGGA,220616.00,3300.5796,N,11805.6686,W,1,10,0.8,12.2,M,-34.6,M,,*65
$PYRTM,2024,121.921045280822,13.030692690961
$GPGGA,220617.00,3300.5805,N,11805.6707,W,1,10,0.8,11.9,M,-34.6,M,,*61
$PYRTM,2024,121.921056868981,13.030704279120
$GPGGA,220618.00,3300.5815,N,11805.6730,W,1,10,0.8,11.7,M,-34.6,M,,*65
$PYRTM,2024,121.921068428669,13.030715838808
$GPGGA,220619.00,3300.5826,N,11805.6752,W,1,10,0.8,11.9,M,-34.6,M,,*6E
$PYRTM,2024,121.921080019826,13.030727429965
$GPGGA,220620.00,3300.5836,N,11805.6774,W,1,10,0.8,12.5,M,-34.6,M,,*6E
$PYRTM,2024,121.921087397326,13.030734807465
$GPGGA,220621.00,3300.5847,N,11805.6796,W,1,10,0.8,13.1,M,-34.6,M,,*60
$PYRTM,2024,121.921103164618,13.030750574757
$GPGGA,220622.00,3300.5857,N,11805.6819,W,1,10,0.8,12.6,M,-34.6,M,,*6C
$PYRTM,2024,121.921114724745,13.030762134884
$GPGGA,220623.00,3300.5866,N,11805.6844,W,1,10,0.8,12.6,M,-34.6,M,,*67
$PYRTM,2024,121.921126299549,13.030773709687
$GPGGA,220624.00,3300.5875,N,11805.6867,W,1,10,0.8,12.2,M,-34.6,M,,*67
$PYRTM,2024,121.921137872731,13.030785282870
$GPGGA,220625.00,3300.5885,N,11805.6887,W,1,10,0.8,12.5,M,-34.6,M,,*60
$PYRTM,2024,121.921149448345,13.030796858484
$GPGGA,220626.00,3300.5896,N,11805.6908,W,1,10,0.8,12.8,M,-34.6,M,,*6A
$PYRTM,2024,121.921161020602,13.030808430741
$GPGGA,220627.00,3300.5906,N,11805.6931,W,1,10,0.8,12.4,M,-34.6,M,,*65
$PYRTM,2024,121.921172596377,13.030820006516
$GPGGA,220628.00,3300.5914,N,11805.6956,W,1,10,0.8,11.5,M,-34.6,M,,*6A
$PYRTM,2024,121.921184167396,13.030831577535
$GPGGA,220629.00,3300.5922,N,11805.6978,W,1,10,0.8,12.7,M,-34.6,M,,*63
$PYRTM,2024,121.921195744259,13.030843154410
$GPGGA,220630.00,3300.5932,N,11805.6999,W,1,10,0.8,13.0,M,-34.6,M,,*63
$PYRTM,2024,121.921207319317,13.030854729468
$GPGGA,220631.00,3300.5943,N,11805.7022,W,1,10,0.8,13.1,M,-34.6,M,,*6D
$PYRTM,2024,121.921218894178,13.030866304329
$GPGGA,220632.00,3300.5954,N,11805.7045,W,1,10,0.8,13.0,M,-34.6,M,,*68
$PYRTM,2024,121.921230467812,13.030877877963
$GPGGA,220633.00,3300.5962,N,11805.7067,W,1,10,0.8,13.1,M,-34.6,M,,*6D
$PYRTM,2024,121.921242055972,13.030889466111
$GPGGA,220634.00,3300.5970,N,11805.7088,W,1,10,0.8,13.5,M,-34.6,M,,*6C
$PYRTM,2024,121.921253614954,13.030901025093
$GPGGA,220635.00,3300.5981,N,11805.7111,W,1,10,0.8,13.5,M,-34.6,M,,*62
$PYRTM,2024,121.921265188437,13.030912598576
$GPGGA,220636.00,3300.5993,N,11805.7133,W,1,10,0.8,13.2,M,-34.6,M,,*65
$PYRTM,2024,121.921272598519,13.030920008646
$GPGGA,220637.00,3300.6003,N,11805.7154,W,1,10,0.8,13.3,M,-34.6,M,,*67
$PYRTM,2024,121.921291230556,13.030938640694
$GPGGA,220638.00,3300.6011,N,11805.7174,W,1,10,0.8,13.9,M,-34.6,M,,*63
$PYRTM,2024,121.921302792188,13.030950202326
$GPGGA,220639.00,3300.6020,N,11805.7197,W,1,10,0.8,14.0,M,-34.6,M,,*63
$PYRTM,2024,121.921311485706,13.030958895845
$GPGGA,220640.00,3300.6030,N,11805.7221,W,1,10,0.8,13.6,M,-34.6,M,,*63
$PYRTM,2024,121.921318879734,13.030966289873
$GPGGA,220641.00,3300.6041,N,11805.7244,W,1,10,0.8,13.0,M,-34.6,M,,*61
$PYRTM,2024,121.921334636262,13.030982046412
$GPGGA,220642.00,3300.6051,N,11805.7265,W,1,10,0.8,13.0,M,-34.6,M,,*60
$PYRTM,2024,121.921342031574,13.030989441713
$GPGGA,220643.00,3300.6060,N,11805.7285,W,1,10,0.8,13.7,M,-34.6,M,,*6A
$PYRTM,2024,121.921360676238,13.031008086377
$GPGGA,220644.00,3300.6070,N,11805.7307,W,1,10,0.8,14.3,M,-34.6,M,,*64
$PYRTM,2024,121.921369357141,13.031016767280
$GPGGA,220645.00,3300.6081,N,11805.7331,W,1,10,0.8,14.0,M,-34.6,M,,*6D
$PYRTM,2024,121.921380930833,13.031028340972
$GPGGA,220646.00,3300.6091,N,11805.7354,W,1,10,0.8,13.5,M,-34.6,M,,*6E
$PYRTM,2024,121.921392505637,13.031039915787
$GPGGA,220647.00,3300.6100,N,11805.7375,W,1,10,0.8,13.1,M,-34.6,M,,*61
$PYRTM,2024,121.921404083160,13.031051493299
$GPGGA,220648.00,3300.6109,N,11805.7397,W,1,10,0.8,13.2,M,-34.6,M,,*68
$PYRTM,2024,121.921415652674,13.031063062813
$GPGGA,220649.00,3300.6118,N,11805.7419,W,1,10,0.8,13.4,M,-34.6,M,,*6E
$PYRTM,2024,121.921427230926,13.031074641076
$GPGGA,220650.00,3300.6129,N,11805.7441,W,1,10,0.8,13.5,M,-34.6,M,,*68
$PYRTM,2024,121.921438796076,13.031086206215
$GPGGA,220651.00,3300.6140,N,11805.7464,W,1,10,0.8,13.3,M,-34.6,M,,*67
$PYRTM,2024,121.921450375475,13.031097785613
$GPGGA,220652.00,3300.6149,N,11805.7487,W,1,10,0.8,13.1,M,-34.6,M,,*62
$PYRTM,2024,121.921457783681,13.031105193831
$GPGGA,220653.00,3300.6158,N,11805.7510,W,1,10,0.8,12.9,M,-34.6,M,,*65
$PYRTM,2024,121.921473523542,13.031120933692
$GPGGA,220654.00,3300.6168,N,11805.7532,W,1,10,0.8,13.1,M,-34.6,M,,*68
$PYRTM,2024,121.921485097778,13.031132507917
$GPGGA,220655.00,3300.6178,N,11805.7553,W,1,10,0.8,13.5,M,-34.6,M,,*6B
$PYRTM,2024,121.921496671921,13.031144082060
$GPGGA,220656.00,3300.6189,N,11805.7574,W,1,10,0.8,13.7,M,-34.6,M,,*61
$PYRTM,2024,121.921508241204,13.031155651354
$GPGGA,220657.00,3300.6199,N,11805.7596,W,1,10,0.8,13.8,M,-34.6,M,,*62
$PYRTM,2024,121.921515640984,13.031163051123
$GPGGA,220658.00,3300.6207,N,11805.7619,W,1,10,0.8,13.6,M,-34.6,M,,*63
$PYRTM,2024,121.921531394062,13.031178804201
$GPGGA,220659.00,3300.6216,N,11805.7642,W,1,10,0.8,13.2,M,-34.6,M,,*68
$PYRTM,2024,121.921542968206,13.031190378345
$GPGGA,220700.00,3300.6225,N,11805.7664,W,1,10,0.8,12.8,M,-34.6,M,,*6A
$PYRTM,2024,121.921550364016,13.031197774155
$GPGGA,220701.00,3300.6236,N,11805.7686,W,1,10,0.8,13.8,M,-34.6,M,,*64
$PYRTM,2024,121.921566131840,13.031213541979
$GPGGA,220702.00,3300.6247,N,11805.7707,W,1,10,0.8,14.5,M,-34.6,M,,*63
$PYRTM,2024,121.921577691215,13.031225101354
$GPGGA,220703.00,3300.6256,N,11805.7730,W,1,10,0.8,14.8,M,-34.6,M,,*6B
$PYRTM,2024,121.921589268935,13.031236679074
$GPGGA,220704.00,3300.6266,N,11805.7754,W,1,10,0.8,14.7,M,-34.6,M,,*62
$PYRTM,2024,121.921600839306,13.031248249456
$GPGGA,220705.00,3300.6276,N,11805.7779,W,1,10,0.8,14.2,M,-34.6,M,,*68
$PYRTM,2024,121.921608234421,13.031255644560
$GPGGA,220706.00,3300.6286,N,11805.7801,W,1,10,0.8,13.9,M,-34.6,M,,*68
$PYRTM,2024,121.921623987558,13.031271397697
$GPGGA,220707.00,3300.6296,N,11805.7821,W,1,10,0.8,14.1,M,-34.6,M,,*65
$PYRTM,2024,121.921635562917,13.031282973056
$GPGGA,220708.00,3300.6307,N,11805.7844,W,1,10,0.8,14.1,M,-34.6,M,,*60
$PYRTM,2024,121.921647135648,13.031294545787
$GPGGA,220709.00,3300.6317,N,11805.7868,W,1,10,0.8,13.6,M,-34.6,M,,*6E
$PYRTM,2024,121.921654529988,13.031301940127
$GPGGA,220710.00,3300.6326,N,11805.7892,W,1,10,0.8,13.2,M,-34.6,M,,*65
$PYRTM,2024,121.921673166042,13.031320576181
$GPGGA,220711.00,3300.6335,N,11805.7915,W,1,10,0.8,13.5,M,-34.6,M,,*6F
$PYRTM,2024,121.921684753252,13.031332163391
$GPGGA,220712.00,3300.6345,N,11805.7935,W,1,10,0.8,14.0,M,-34.6,M,,*6B
$PYRTM,2024,121.921693432083,13.031340842222
$GPGGA,220713.00,3300.6357,N,11805.7957,W,1,10,0.8,14.3,M,-34.6,M,,*6E
$PYRTM,2024,121.921700828414,13.031348238553
$GPGGA,220714.00,3300.6368,N,11805.7980,W,1,10,0.8,14.2,M,-34.6,M,,*6E
$PYRTM,2024,121.921719463345,13.031366873484
$GPGGA,220715.00,3300.6378,N,11805.8004,W,1,10,0.8,13.8,M,-34.6,M,,*69
$PYRTM,2024,121.921728155127,13.031375565266
$GPGGA,220716.00,3300.6385,N,11805.8028,W,1,10,0.8,13.4,M,-34.6,M,,*6A
$PYRTM,2024,121.921739729155,13.031387139306
$GPGGA,220717.00,3300.6395,N,11805.8050,W,1,10,0.8,13.5,M,-34.6,M,,*64
$PYRTM,2024,121.921751306389,13.031398716528
$GPGGA,220718.00,3300.6407,N,11805.8070,W,1,10,0.8,14.0,M,-34.6,M,,*67
$PYRTM,2024,121.921762877269,13.031410287407
$GPGGA,220719.00,3300.6418,N,11805.8094,W,1,10,0.8,13.9,M,-34.6,M,,*6C
$PYRTM,2024,121.921774465255,13.031421875394
$GPGGA,220720.00,3300.6428,N,11805.8118,W,1,10,0.8,13.8,M,-34.6,M,,*61
$PYRTM,2024,121.921781846481,13.031429256620
$GPGGA,220721.00,3300.6436,N,11805.8140,W,1,10,0.8,13.9,M,-34.6,M,,*63
$PYRTM,2024,121.921797599676,13.031445009826
$GPGGA,220722.00,3300.6446,N,11805.8163,W,1,10,0.8,14.0,M,-34.6,M,,*68
$PYRTM,2024,121.921809173056,13.031456583194
$GPGGA,220723.00,3300.6457,N,11805.8184,W,1,10,0.8,13.9,M,-34.6,M,,*6E
$PYRTM,2024,121.921820742523,13.031468152662
$GPGGA,220724.00,3300.6468,N,11805.8206,W,1,10,0.8,13.8,M,-34.6,M,,*6D
$PYRTM,2024,121.921832321539,13.031479731678
$GPGGA,220725.00,3300.6479,N,11805.8228,W,1,10,0.8,13.6,M,-34.6,M,,*6E
$PYRTM,2024,121.921839716690,13.031487126829
$GPGGA,220726.00,3300.6488,N,11805.8251,W,1,10,0.8,13.3,M,-34.6,M,,*68
$PYRTM,2024,121.921855469676,13.031502879815
$GPGGA,220727.00,3300.6497,N,11805.8274,W,1,10,0.8,13.3,M,-34.6,M,,*60
$PYRTM,2024,121.921867043750,13.031514453889
$GPGGA,220728.00,3300.6506,N,11805.8297,W,1,10,0.8,13.4,M,-34.6,M,,*6C
$PYRTM,2024,121.921878619456,13.031526029595
$GPGGA,220729.00,3300.6518,N,11805.8319,W,1,10,0.8,13.6,M,-34.6,M,,*67
$PYRTM,2024,121.921890196354,13.031537606493
$GPGGA,220730.00,3300.6529,N,11805.8340,W,1,10,0.8,14.0,M,-34.6,M,,*60
$PYRTM,2024,121.921897589248,13.031544999398
$GPGGA,220731.00,3300.6537,N,11805.8363,W,1,10,0.8,14.1,M,-34.6,M,,*6E
$PYRTM,2024,121.921913344282,13.031560754421
$GPGGA,220732.00,3300.6546,N,11805.8389,W,1,10,0.8,13.7,M,-34.6,M,,*6E
$PYRTM,2024,121.921924915544,13.031572325683
$GPGGA,220733.00,3300.6555,N,11805.8412,W,1,10,0.8,13.2,M,-34.6,M,,*6D
$PYRTM,2024,121.921936491875,13.031583902014
$GPGGA,220734.00,3300.6566,N,11805.8432,W,1,10,0.8,13.9,M,-34.6,M,,*63
$PYRTM,2024,121.921948062199,13.031595472338
$GPGGA,220735.00,3300.6578,N,11805.8452,W,1,10,0.8,14.2,M,-34.6,M,,*67
$PYRTM,2024,121.921955458750,13.031602868889
$GPGGA,220736.00,3300.6589,N,11805.8477,W,1,10,0.8,14.1,M,-34.6,M,,*6E
$PYRTM,2024,121.921971212500,13.031618622639
$GPGGA,220737.00,3300.6597,N,11805.8502,W,1,10,0.8,13.6,M,-34.6,M,,*63
$PYRTM,2024,121.921982786435,13.031630196574
$GPGGA,220738.00,3300.6606,N,11805.8524,W,1,10,0.8,13.6,M,-34.6,M,,*63
$PYRTM,2024,121.921994359850,13.031641769988
$GPGGA,220739.00,3300.6617,N,11805.8544,W,1,10,0.8,14.0,M,-34.6,M,,*65
$PYRTM,2024,121.922005935046,13.031653345185
$GPGGA,220740.00,3300.6630,N,11805.8565,W,1,10,0.8,14.4,M,-34.6,M,,*69
$PYRTM,2024,121.922013329664,13.031660739803
$GPGGA,220741.00,3300.6641,N,11805.8588,W,1,10,0.8,14.0,M,-34.6,M,,*69
$PYRTM,2024,121.922029082477,13.031676492616
$GPGGA,220742.00,3300.6649,N,11805.8611,W,1,10,0.8,13.7,M,-34.6,M,,*61
$PYRTM,2024,121.922036477431,13.031683887569
$GPGGA,220743.00,3300.6657,N,11805.8633,W,1,10,0.8,13.8,M,-34.6,M,,*60
$PYRTM,2024,121.922052231007,13.031699641157
$GPGGA,220744.00,3300.6668,N,11805.8654,W,1,10,0.8,14.0,M,-34.6,M,,*65
$PYRTM,2024,121.922059626840,13.031707036979
$GPGGA,220745.00,3300.6682,N,11805.8676,W,1,10,0.8,13.4,M,-34.6,M,,*63
$PYRTM,2024,121.922078272940,13.031725683079
$GPGGA,220746.00,3300.6693,N,11805.8698,W,1,10,0.8,13.2,M,-34.6,M,,*66
$PYRTM,2024,121.922086952894,13.031734363032
$GPGGA,220747.00,3300.6701,N,11805.8721,W,1,10,0.8,13.5,M,-34.6,M,,*69
$PYRTM,2024,121.922098530822,13.031745940961
$GPGGA,220748.00,3300.6708,N,11805.8744,W,1,10,0.8,14.0,M,-34.6,M,,*6E
$PYRTM,2024,121.922110096528,13.031757506667
$GPGGA,220749.00,3300.6719,N,11805.8769,W,1,10,0.8,13.9,M,-34.6,M,,*6E
$PYRTM,2024,121.922121674907,13.031769085046
$GPGGA,220750.00,3300.6731,N,11805.8792,W,1,10,0.8,13.8,M,-34.6,M,,*69
$PYRTM,2024,121.922129085937,13.031776496076
$GPGGA,220751.00,3300.6741,N,11805.8812,W,1,10,0.8,14.0,M,-34.6,M,,*67
$PYRTM,2024,121.922144824074,13.031792234213
$GPGGA,220752.00,3300.6749,N,11805.8833,W,1,10,0.8,14.5,M,-34.6,M,,*6A
$PYRTM,2024,121.922156397766,13.031803807905
$GPGGA,220753.00,3300.6759,N,11805.8856,W,1,10,0.8,14.7,M,-34.6,M,,*6B
$PYRTM,2024,121.922163792847,13.031811202986
$GPGGA,220754.00,3300.6770,N,11805.8879,W,1,10,0.8,14.3,M,-34.6,M,,*6E
$PYRTM,2024,121.922179541840,13.031826951979
$GPGGA,220755.00,3300.6780,N,11805.8901,W,1,10,0.8,13.6,M,-34.6,M,,*6C
$PYRTM,2024,121.922191121829,13.031838531968
$GPGGA,220756.00,3300.6790,N,11805.8924,W,1,10,0.8,13.0,M,-34.6,M,,*6F
$PYRTM,2024,121.922202694595,13.031850104734
$GPGGA,220757.00,3300.6801,N,11805.8947,W,1,10,0.8,12.6,M,-34.6,M,,*6B
$PYRTM,2024,121.922214264745,13.031861674884
$GPGGA,220758.00,3300.6810,N,11805.8969,W,1,10,0.8,12.6,M,-34.6,M,,*68
$PYRTM,2024,121.922221663970,13.031869074109
$GPGGA,220759.00,3300.6820,N,11805.8990,W,1,10,0.8,13.2,M,-34.6,M,,*69
$PYRTM,2024,121.922237420289,13.031884830428
$GPGGA,220800.00,3300.6830,N,11805.9011,W,1,10,0.8,13.6,M,-34.6,M,,*6E
$PYRTM,2024,121.922248986019,13.031896396157
$GPGGA,220801.00,3300.6841,N,11805.9035,W,1,10,0.8,13.6,M,-34.6,M,,*6F
$PYRTM,2024,121.922260568218,13.031907978368
$GPGGA,220802.00,3300.6851,N,11805.9059,W,1,10,0.8,12.9,M,-34.6,M,,*69
$PYRTM,2024,121.922272243264,13.031919653414
$GPGGA,220803.00,3300.6860,N,11805.9082,W,1,10,0.8,12.5,M,-34.6,M,,*60
$PYRTM,2024,121.922283838090,13.031931248229
$GPGGA,220804.00,3300.6870,N,11805.9102,W,1,10,0.8,12.9,M,-34.6,M,,*63
$PYRTM,2024,121.922295393912,13.031942804051
$GPGGA,220805.00,3300.6880,N,11805.9122,W,1,10,0.8,13.5,M,-34.6,M,,*62
$PYRTM,2024,121.922306972222,13.031954382361
$GPGGA,220806.00,3300.6891,N,11805.9145,W,1,10,0.8,13.5,M,-34.6,M,,*60
$PYRTM,2024,121.922314385278,13.031961795417
$GPGGA,220807.00,3300.6902,N,11805.9171,W,1,10,0.8,12.8,M,-34.6,M,,*61
$PYRTM,2024,121.922330005984,13.031977416134
$GPGGA,220808.00,3300.6913,N,11805.9194,W,1,10,0.8,12.3,M,-34.6,M,,*6E
$PYRTM,2024,121.922341583762,13.031988993900
$GPGGA,220809.00,3300.6922,N,11805.9212,W,1,10,0.8,13.6,M,-34.6,M,,*64
$PYRTM,2024,121.922353161227,13.032000571366
$GPGGA,220810.00,3300.6932,N,11805.9232,W,1,10,0.8,13.8,M,-34.6,M,,*61
$PYRTM,2024,121.922364728900,13.032012139039
$GPGGA,220811.00,3300.6944,N,11805.9256,W,1,10,0.8,13.5,M,-34.6,M,,*6E
$PYRTM,2024,121.922372126910,13.032019537060
$GPGGA,220812.00,3300.6954,N,11805.9280,W,1,10,0.8,12.7,M,-34.6,M,,*64
$PYRTM,2024,121.922387875775,13.032035285914
$GPGGA,220813.00,3300.6963,N,11805.9303,W,1,10,0.8,12.3,M,-34.6,M,,*6F
$PYRTM,2024,121.922399455231,13.032046865382
$GPGGA,220814.00,3300.6971,N,11805.9324,W,1,10,0.8,12.5,M,-34.6,M,,*68
$PYRTM,2024,121.922406850833,13.032054260972
$GPGGA,220815.00,3300.6981,N,11805.9346,W,1,10,0.8,12.5,M,-34.6,M,,*62
$PYRTM,2024,121.922425499792,13.032072909931
$GPGGA,220816.00,3300.6992,N,11805.9369,W,1,10,0.8,12.5,M,-34.6,M,,*6E
$PYRTM,2024,121.922437058183,13.032084468322
$GPGGA,220817.00,3300.7003,N,11805.9391,W,1,10,0.8,12.4,M,-34.6,M,,*69
$PYRTM,2024,121.922451063137,13.032098473275
$GPGGA,220818.00,3300.7012,N,11805.9415,W,1,10,0.8,12.5,M,-34.6,M,,*6C
$PYRTM,2024,121.922457325405,13.032104735544
$GPGGA,220819.00,3300.7020,N,11805.9438,W,1,10,0.8,12.8,M,-34.6,M,,*6E
$PYRTM,2024,121.922464720856,13.032112130995
$GPGGA,220820.00,3300.7031,N,11805.9459,W,1,10,0.8,13.2,M,-34.6,M,,*68
$PYRTM,2024,121.922480474734,13.032127884884
$GPGGA,220821.00,3300.7043,N,11805.9480,W,1,10,0.8,13.4,M,-34.6,M,,*6E
$PYRTM,2024,121.922492047639,13.032139457778
$GPGGA,220822.00,3300.7055,N,11805.9503,W,1,10,0.8,13.0,M,-34.6,M,,*64
$PYRTM,2024,121.922503623519,13.032151033657
$GPGGA,220823.00,3300.7064,N,11805.9527,W,1,10,0.8,12.5,M,-34.6,M,,*65
$PYRTM,2024,121.922515196563,13.032162606713
$GPGGA,220824.00,3300.7072,N,11805.9549,W,1,10,0.8,12.7,M,-34.6,M,,*6F
$PYRTM,2024,121.922526770405,13.032174180544
$GPGGA,220825.00,3300.7080,N,11805.9569,W,1,10,0.8,13.1,M,-34.6,M,,*66
$PYRTM,2024,121.922538345637,13.032185755775
$GPGGA,220826.00,3300.7092,N,11805.9591,W,1,10,0.8,13.3,M,-34.6,M,,*63
$PYRTM,2024,121.922545740116,13.032193150255
$GPGGA,220827.00,3300.7103,N,11805.9614,W,1,10,0.8,12.8,M,-34.6,M,,*6F
$PYRTM,2024,121.922561489225,13.032208899363
$GPGGA,220828.00,3300.7113,N,11805.9638,W,1,10,0.8,12.3,M,-34.6,M,,*64
$PYRTM,2024,121.922573062755,13.032220472894
$GPGGA,220829.00,3300.7122,N,11805.9661,W,1,10,0.8,12.0,M,-34.6,M,,*68
$PYRTM,2024,121.922580462187,13.032227872326
$GPGGA,220830.00,3300.7130,N,11805.9683,W,1,10,0.8,12.0,M,-34.6,M,,*6F
$PYRTM,2024,121.922596215764,13.032243625914
$GPGGA,220831.00,3300.7140,N,11805.9704,W,1,10,0.8,12.6,M,-34.6,M,,*61
$PYRTM,2024,121.922607793866,13.032255203993
$GPGGA,220832.00,3300.7151,N,11805.9724,W,1,10,0.8,13.4,M,-34.6,M,,*63
$PYRTM,2024,121.922619364595,13.032266774734
$GPGGA,220833.00,3300.7162,N,11805.9747,W,1,10,0.8,13.4,M,-34.6,M,,*67
$PYRTM,2024,121.922630940486,13.032278350625
$GPGGA,220834.00,3300.7173,N,11805.9771,W,1,10,0.8,12.8,M,-34.6,M,,*68
$PYRTM,2024,121.922638348333,13.032285758472
$GPGGA,220835.00,3300.7182,N,11805.9793,W,1,10,0.8,12.1,M,-34.6,M,,*62
$PYRTM,2024,121.922654081875,13.032301492014
$GPGGA,220836.00,3300.7192,N,11805.9813,W,1,10,0.8,12.6,M,-34.6,M,,*60
