$PYRTM,2024,126.916670261701,18.026317671840
$GPGGA,215959.00,3357.6308,N,11928.3777,W,1,10,0.8,6.6,M,-33.7,M,,*56
$PYRTM,2024,126.916677552627,18.026324962778
$GPGGA,220000.00,3357.6311,N,11928.3748,W,1,10,0.8,6.6,M,-33.7,M,,*51
$PYRTM,2024,126.916693409086,18.026340819225
$GPGGA,220001.00,3357.6315,N,11928.3719,W,1,10,0.8,6.8,M,-33.7,M,,*5E
$PYRTM,2024,126.916704996817,18.026352406956
$GPGGA,220002.00,3357.6319,N,11928.3689,W,1,10,0.8,7.0,M,-33.7,M,,*50
$PYRTM,2024,126.916716557720,18.026363967859
$GPGGA,220003.00,3357.6323,N,11928.3660,W,1,10,0.8,7.2,M,-33.7,M,,*5D
$PYRTM,2024,126.916728146111,18.026375556250
$GPGGA,220004.00,3357.6328,N,11928.3631,W,1,10,0.8,7.3,M,-33.7,M,,*54
$PYRTM,2024,126.916739705127,18.026387115266
$GPGGA,220005.00,3357.6333,N,11928.3603,W,1,10,0.8,7.2,M,-33.7,M,,*5F
$PYRTM,2024,126.916751307650,18.026398717789
$GPGGA,220006.00,3357.6337,N,11928.3575,W,1,10,0.8,7.0,M,-33.7,M,,*58
$PYRTM,2024,126.916758586412,18.026405996562
$GPGGA,220007.00,3357.6341,N,11928.3547,W,1,10,0.8,6.8,M,-33.7,M,,*50
$PYRTM,2024,126.916770377315,18.026417787454
$GPGGA,220008.00,3357.6345,N,11928.3520,W,1,10,0.8,6.7,M,-33.7,M,,*55
$PYRTM,2024,126.916786002813,18.026433412951
$GPGGA,220009.00,3357.6350,N,11928.3492,W,1,10,0.8,6.6,M,-33.7,M,,*59
$PYRTM,2024,126.916797588900,18.026444999039
$GPGGA,220010.00,3357.6354,N,11928.3465,W,1,10,0.8,6.5,M,-33.7,M,,*5E
$PYRTM,2024,126.916804288970,18.026451699109
$GPGGA,220011.00,3357.6358,N,11928.3436,W,1,10,0.8,6.5,M,-33.7,M,,*55
$PYRTM,2024,126.916820738183,18.026468148322
$GPGGA,220012.00,3357.6362,N,11928.3408,W,1,10,0.8,6.6,M,-33.7,M,,*51
$PYRTM,2024,126.916832297928,18.026479708067
$GPGGA,220013.00,3357.6366,N,11928.3380,W,1,10,0.8,6.8,M,-33.7,M,,*5D
$PYRTM,2024,126.916843881042,18.026491291181
$GPGGA,220014.00,3357.6371,N,11928.3351,W,1,10,0.8,6.9,M,-33.7,M,,*51
$PYRTM,2024,126.916855447650,18.026502857789
$GPGGA,220015.00,3357.6376,N,11928.3322,W,1,10,0.8,7.0,M,-33.7,M,,*5B
$PYRTM,2024,126.916867036667,18.026514446806
$GPGGA,220016.00,3357.6380,N,11928.3293,W,1,10,0.8,7.0,M,-33.7,M,,*5A
$PYRTM,2024,126.916878596076,18.026526006227
$GPGGA,220017.00,3357.6384,N,11928.3265,W,1,10,0.8,7.0,M,-33.7,M,,*56
$PYRTM,2024,126.916890183495,18.026537593634
$GPGGA,220018.00,3357.6387,N,11928.3237,W,1,10,0.8,6.9,M,-33.7,M,,*55
$PYRTM,2024,126.916901744572,18.026549154722
$GPGGA,220019.00,3357.6391,N,11928.3209,W,1,10,0.8,6.7,M,-33.7,M,,*50
$PYRTM,2024,126.916913334433,18.026560744572
$GPGGA,220020.00,3357.6397,N,11928.3181,W,1,10,0.8,6.5,M,-33.7,M,,*5D
$PYRTM,2024,126.916924892164,18.026572302303
$GPGGA,220021.00,3357.6401,N,11928.3154,W,1,10,0.8,6.4,M,-33.7,M,,*5D
$PYRTM,2024,126.916936479676,18.026583889815
$GPGGA,220022.00,3357.6404,N,11928.3126,W,1,10,0.8,6.3,M,-33.7,M,,*59
$PYRTM,2024,126.916943179167,18.026590589306
$GPGGA,220023.00,3357.6407,N,11928.3098,W,1,10,0.8,6.4,M,-33.7,M,,*58
$PYRTM,2024,126.916959628287,18.026607038426
$GPGGA,220024.00,3357.6411,N,11928.3069,W,1,10,0.8,6.5,M,-33.7,M,,*57
$PYRTM,2024,126.916971188507,18.026618598646
$GPGGA,220025.00,3357.6417,N,11928.3041,W,1,10,0.8,6.5,M,-33.7,M,,*5A
$PYRTM,2024,126.916982776644,18.026630186782
$GPGGA,220026.00,3357.6422,N,11928.3013,W,1,10,0.8,6.6,M,-33.7,M,,*5B
$PYRTM,2024,126.916994337234,18.026641747373
$GPGGA,220027.00,3357.6426,N,11928.2984,W,1,10,0.8,6.7,M,-33.7,M,,*59
$PYRTM,2024,126.917005923924,18.026653334063
$GPGGA,220028.00,3357.6430,N,11928.2956,W,1,10,0.8,6.8,M,-33.7,M,,*51
$PYRTM,2024,126.917013216690,18.026660626829
$GPGGA,220029.00,3357.6434,N,11928.2927,W,1,10,0.8,6.7,M,-33.7,M,,*5D
$PYRTM,2024,126.917029073137,18.026676483275
$GPGGA,220030.00,3357.6438,N,11928.2899,W,1,10,0.8,6.6,M,-33.7,M,,*5C
$PYRTM,2024,126.917036365671,18.026683775810
$GPGGA,220031.00,3357.6443,N,11928.2872,W,1,10,0.8,6.5,M,-33.7,M,,*57
$PYRTM,2024,126.917052223241,18.026699633380
$GPGGA,220032.00,3357.6447,N,11928.2843,W,1,10,0.8,6.5,M,-33.7,M,,*52
$PYRTM,2024,126.917063782269,18.026711192407
$GPGGA,220033.00,3357.6451,N,11928.2815,W,1,10,0.8,6.6,M,-33.7,M,,*54
$PYRTM,2024,126.917075368970,18.026722779109
$GPGGA,220034.00,3357.6455,N,11928.2787,W,1,10,0.8,6.6,M,-33.7,M,,*53
$PYRTM,2024,126.917086930127,18.026734340266
$GPGGA,220035.00,3357.6459,N,11928.2758,W,1,10,0.8,6.5,M,-33.7,M,,*5F
$PYRTM,2024,126.917098513171,18.026745923310
$GPGGA,220036.00,3357.6463,N,11928.2729,W,1,10,0.8,6.5,M,-33.7,M,,*53
$PYRTM,2024,126.917110081181,18.026757491319
$GPGGA,220037.00,3357.6468,N,11928.2701,W,1,10,0.8,6.5,M,-33.7,M,,*53
$PYRTM,2024,126.917117485903,18.026764896053
$GPGGA,220038.00,3357.6472,N,11928.2673,W,1,10,0.8,6.5,M,-33.7,M,,*53
$PYRTM,2024,126.917129176597,18.026776586736
$GPGGA,220039.00,3357.6476,N,11928.2645,W,1,10,0.8,6.4,M,-33.7,M,,*52
$PYRTM,2024,126.917144814919,18.026792225058
$GPGGA,220040.00,3357.6480,N,11928.2616,W,1,10,0.8,6.3,M,-33.7,M,,*54
$PYRTM,2024,126.917152105810,18.026799515949
$GPGGA,220041.00,3357.6483,N,11928.2589,W,1,10,0.8,6.2,M,-33.7,M,,*52
$PYRTM,2024,126.917167965833,18.026815375972
$GPGGA,220042.00,3357.6487,N,11928.2561,W,1,10,0.8,6.2,M,-33.7,M,,*53
$PYRTM,2024,126.917179523102,18.026826933241
$GPGGA,220043.00,3357.6492,N,11928.2533,W,1,10,0.8,6.1,M,-33.7,M,,*52
$PYRTM,2024,126.917191110856,18.026838520995
$GPGGA,220044.00,3357.6496,N,11928.2505,W,1,10,0.8,6.0,M,-33.7,M,,*55
$PYRTM,2024,126.917202671863,18.026850082002
$GPGGA,220045.00,3357.6500,N,11928.2477,W,1,10,0.8,6.0,M,-33.7,M,,*5E
$PYRTM,2024,126.917214258808,18.026861668947
$GPGGA,220046.00,3357.6504,N,11928.2449,W,1,10,0.8,6.1,M,-33.7,M,,*55
$PYRTM,2024,126.917225818704,18.026873228843
$GPGGA,220047.00,3357.6509,N,11928.2420,W,1,10,0.8,6.1,M,-33.7,M,,*56
$PYRTM,2024,126.917237407986,18.026884818125
$GPGGA,220048.00,3357.6514,N,11928.2392,W,1,10,0.8,6.2,M,-33.7,M,,*58
$PYRTM,2024,126.917248968576,18.026896378727
$GPGGA,220049.00,3357.6517,N,11928.2364,W,1,10,0.8,6.2,M,-33.7,M,,*53
$PYRTM,2024,126.917260556898,18.026907967037
$GPGGA,220050.00,3357.6521,N,11928.2335,W,1,10,0.8,6.2,M,-33.7,M,,*5A
$PYRTM,2024,126.917267843137,18.026915253275
$GPGGA,220051.00,3357.6525,N,11928.2308,W,1,10,0.8,6.3,M,-33.7,M,,*50
$PYRTM,2024,126.917283706956,18.026931117095
$GPGGA,220052.00,3357.6530,N,11928.2280,W,1,10,0.8,6.3,M,-33.7,M,,*56
$PYRTM,2024,126.917290997049,18.026938407188
$GPGGA,220053.00,3357.6535,N,11928.2252,W,1,10,0.8,6.2,M,-33.7,M,,*5C
$PYRTM,2024,126.917309745532,18.026957155671
$GPGGA,220054.00,3357.6538,N,11928.2225,W,1,10,0.8,6.2,M,-33.7,M,,*56
$PYRTM,2024,126.917318412778,18.026965822917
$GPGGA,220055.00,3357.6541,N,11928.2197,W,1,10,0.8,6.2,M,-33.7,M,,*53
$PYRTM,2024,126.917325705301,18.026973115440
$GPGGA,220056.00,3357.6545,N,11928.2168,W,1,10,0.8,6.2,M,-33.7,M,,*54
$PYRTM,2024,126.917341561296,18.026988971435
$GPGGA,220057.00,3357.6551,N,11928.2140,W,1,10,0.8,6.1,M,-33.7,M,,*59
$PYRTM,2024,126.917353149907,18.027000560046
$GPGGA,220058.00,3357.6556,N,11928.2111,W,1,10,0.8,6.0,M,-33.7,M,,*54
$PYRTM,2024,126.917364710324,18.027012120463
$GPGGA,220059.00,3357.6561,N,11928.2083,W,1,10,0.8,6.1,M,-33.7,M,,*5A
$PYRTM,2024,126.917372002674,18.027019412812
$GPGGA,220100.00,3357.6564,N,11928.2055,W,1,10,0.8,6.1,M,-33.7,M,,*59
$PYRTM,2024,126.917387858935,18.027035269074
$GPGGA,220101.00,3357.6568,N,11928.2026,W,1,10,0.8,6.0,M,-33.7,M,,*51
$PYRTM,2024,126.917399447975,18.027046858113
$GPGGA,220102.00,3357.6572,N,11928.1998,W,1,10,0.8,5.8,M,-33.7,M,,*5D
$PYRTM,2024,126.917411006829,18.027058416968
$GPGGA,220103.00,3357.6577,N,11928.1971,W,1,10,0.8,5.8,M,-33.7,M,,*5E
$PYRTM,2024,126.917422594039,18.027070004178
$GPGGA,220104.00,3357.6581,N,11928.1943,W,1,10,0.8,5.7,M,-33.7,M,,*5E
$PYRTM,2024,126.917434154687,18.027081564826
$GPGGA,220105.00,3357.6585,N,11928.1916,W,1,10,0.8,5.6,M,-33.7,M,,*5A
$PYRTM,2024,126.917441447558,18.027088857708
$GPGGA,220106.00,3357.6589,N,11928.1888,W,1,10,0.8,5.7,M,-33.7,M,,*52
$PYRTM,2024,126.917457302338,18.027104712477
$GPGGA,220107.00,3357.6593,N,11928.1860,W,1,10,0.8,5.8,M,-33.7,M,,*51
$PYRTM,2024,126.917468889884,18.027116300023
$GPGGA,220108.00,3357.6597,N,11928.1832,W,1,10,0.8,5.9,M,-33.7,M,,*5C
$PYRTM,2024,126.917480450694,18.027127860845
$GPGGA,220109.00,3357.6602,N,11928.1803,W,1,10,0.8,5.9,M,-33.7,M,,*50
$PYRTM,2024,126.917492041273,18.027139451412
$GPGGA,220110.00,3357.6607,N,11928.1775,W,1,10,0.8,6.0,M,-33.7,M,,*59
$PYRTM,2024,126.917503599803,18.027151009942
$GPGGA,220111.00,3357.6611,N,11928.1746,W,1,10,0.8,6.1,M,-33.7,M,,*5E
$PYRTM,2024,126.917515181782,18.027162591921
$GPGGA,220112.00,3357.6615,N,11928.1717,W,1,10,0.8,6.0,M,-33.7,M,,*5C
$PYRTM,2024,126.917526748206,18.027174158345
$GPGGA,220113.00,3357.6619,N,11928.1689,W,1,10,0.8,5.9,M,-33.7,M,,*5D
$PYRTM,2024,126.917538335833,18.027185745972
$GPGGA,220114.00,3357.6623,N,11928.1661,W,1,10,0.8,5.8,M,-33.7,M,,*54
$PYRTM,2024,126.917549896921,18.027197307060
$GPGGA,220115.00,3357.6628,N,11928.1634,W,1,10,0.8,5.7,M,-33.7,M,,*51
$PYRTM,2024,126.917561483669,18.027208893808
$GPGGA,220116.00,3357.6632,N,11928.1606,W,1,10,0.8,5.6,M,-33.7,M,,*59
$PYRTM,2024,126.917573044225,18.027220454363
$GPGGA,220117.00,3357.6636,N,11928.1579,W,1,10,0.8,5.5,M,-33.7,M,,*54
$PYRTM,2024,126.917584631759,18.027232041898
$GPGGA,220118.00,3357.6640,N,11928.1551,W,1,10,0.8,5.5,M,-33.7,M,,*50
$PYRTM,2024,126.917591917025,18.027239327164
$GPGGA,220119.00,3357.6645,N,11928.1523,W,1,10,0.8,5.7,M,-33.7,M,,*53
$PYRTM,2024,126.917607793356,18.027255203495
$GPGGA,220120.00,3357.6649,N,11928.1495,W,1,10,0.8,5.9,M,-33.7,M,,*57
$PYRTM,2024,126.917619341921,18.027266752060
$GPGGA,220121.00,3357.6654,N,11928.1466,W,1,10,0.8,5.9,M,-33.7,M,,*56
$PYRTM,2024,126.917630927836,18.027278337975
$GPGGA,220122.00,3357.6658,N,11928.1438,W,1,10,0.8,5.9,M,-33.7,M,,*52
$PYRTM,2024,126.917642487789,18.027289897928
$GPGGA,220123.00,3357.6662,N,11928.1409,W,1,10,0.8,6.0,M,-33.7,M,,*52
$PYRTM,2024,126.917649781285,18.027297191424
$GPGGA,220124.00,3357.6667,N,11928.1381,W,1,10,0.8,5.9,M,-33.7,M,,*5D
$PYRTM,2024,126.917665638079,18.027313048218
$GPGGA,220125.00,3357.6672,N,11928.1353,W,1,10,0.8,5.8,M,-33.7,M,,*56
$PYRTM,2024,126.917677225150,18.027324635289
$GPGGA,220126.00,3357.6676,N,11928.1326,W,1,10,0.8,5.6,M,-33.7,M,,*5D
$PYRTM,2024,126.917688786100,18.027336196238
$GPGGA,220127.00,3357.6680,N,11928.1298,W,1,10,0.8,5.6,M,-33.7,M,,*51
$PYRTM,2024,126.917700372130,18.027347782269
$GPGGA,220128.00,3357.6684,N,11928.1271,W,1,10,0.8,5.5,M,-33.7,M,,*5E
$PYRTM,2024,126.917707658831,18.027355068970
$GPGGA,220129.00,3357.6687,N,11928.1243,W,1,10,0.8,5.5,M,-33.7,M,,*5D
$PYRTM,2024,126.917723538796,18.027370948947
$GPGGA,220130.00,3357.6691,N,11928.1215,W,1,10,0.8,5.5,M,-33.7,M,,*51
$PYRTM,2024,126.917730813171,18.027378223310
$GPGGA,220131.00,3357.6695,N,11928.1187,W,1,10,0.8,5.5,M,-33.7,M,,*5C
$PYRTM,2024,126.917746670671,18.027394080810
$GPGGA,220132.00,3357.6700,N,11928.1159,W,1,10,0.8,5.7,M,-33.7,M,,*53
$PYRTM,2024,126.917758230127,18.027405640278
$GPGGA,220133.00,3357.6704,N,11928.1131,W,1,10,0.8,5.7,M,-33.7,M,,*58
$PYRTM,2024,126.917769818021,18.027417228171
$GPGGA,220134.00,3357.6708,N,11928.1102,W,1,10,0.8,5.7,M,-33.7,M,,*53
$PYRTM,2024,126.917781380856,18.027428791007
$GPGGA,220135.00,3357.6712,N,11928.1074,W,1,10,0.8,5.6,M,-33.7,M,,*58
$PYRTM,2024,126.917792965590,18.027440375729
$GPGGA,220136.00,3357.6715,N,11928.1046,W,1,10,0.8,5.5,M,-33.7,M,,*5E
$PYRTM,2024,126.917804527083,18.027451937222
$GPGGA,220137.00,3357.6720,N,11928.1019,W,1,10,0.8,5.4,M,-33.7,M,,*52
$PYRTM,2024,126.917816116910,18.027463527049
$GPGGA,220138.00,3357.6724,N,11928.0991,W,1,10,0.8,5.5,M,-33.7,M,,*50
$PYRTM,2024,126.917827674468,18.027475084606
$GPGGA,220139.00,3357.6729,N,11928.0963,W,1,10,0.8,5.7,M,-33.7,M,,*53
$PYRTM,2024,126.917839265926,18.027486676065
$GPGGA,220140.00,3357.6734,N,11928.0936,W,1,10,0.8,5.9,M,-33.7,M,,*5F
$PYRTM,2024,126.917850823854,18.027498234005
$GPGGA,220141.00,3357.6738,N,11928.0907,W,1,10,0.8,5.9,M,-33.7,M,,*50
$PYRTM,2024,126.917862410220,18.027509820359
$GPGGA,220142.00,3357.6742,N,11928.0879,W,1,10,0.8,5.8,M,-33.7,M,,*57
$PYRTM,2024,126.917873972245,18.027521382384
$GPGGA,220143.00,3357.6747,N,11928.0851,W,1,10,0.8,5.9,M,-33.7,M,,*58
$PYRTM,2024,126.917885559722,18.027532969873
$GPGGA,220144.00,3357.6752,N,11928.0824,W,1,10,0.8,6.0,M,-33.7,M,,*53
$PYRTM,2024,126.917897122037,18.027544532176
$GPGGA,220145.00,3357.6757,N,11928.0795,W,1,10,0.8,6.1,M,-33.7,M,,*53
$PYRTM,2024,126.917908702083,18.027556112222
$GPGGA,220146.00,3357.6761,N,11928.0766,W,1,10,0.8,5.9,M,-33.7,M,,*52
$PYRTM,2024,126.917920269711,18.027567679850
$GPGGA,220147.00,3357.6764,N,11928.0738,W,1,10,0.8,5.6,M,-33.7,M,,*52
$PYRTM,2024,126.917931858461,18.027579268600
$GPGGA,220148.00,3357.6768,N,11928.0710,W,1,10,0.8,5.5,M,-33.7,M,,*58
$PYRTM,2024,126.917943415891,18.027590826030
$GPGGA,220149.00,3357.6772,N,11928.0683,W,1,10,0.8,5.4,M,-33.7,M,,*58
$PYRTM,2024,126.917955003970,18.027602414109
$GPGGA,220150.00,3357.6776,N,11928.0654,W,1,10,0.8,5.2,M,-33.7,M,,*58
$PYRTM,2024,126.917966565000,18.027613975139
$GPGGA,220151.00,3357.6779,N,11928.0626,W,1,10,0.8,5.1,M,-33.7,M,,*50
$PYRTM,2024,126.917978151898,18.027625562037
$GPGGA,220152.00,3357.6782,N,11928.0600,W,1,10,0.8,5.3,M,-33.7,M,,*51
$PYRTM,2024,126.917989712674,18.027637122813
$GPGGA,220153.00,3357.6787,N,11928.0572,W,1,10,0.8,5.5,M,-33.7,M,,*55
$PYRTM,2024,126.918001300243,18.027648710382
$GPGGA,220154.00,3357.6791,N,11928.0544,W,1,10,0.8,5.6,M,-33.7,M,,*53
$PYRTM,2024,126.918008592801,18.027656002940
$GPGGA,220155.00,3357.6794,N,11928.0516,W,1,10,0.8,5.6,M,-33.7,M,,*50
$PYRTM,2024,126.918020743438,18.027668153576
$GPGGA,220156.00,3357.6798,N,11928.0488,W,1,10,0.8,5.8,M,-33.7,M,,*57
$PYRTM,2024,126.918036010451,18.027683420590
$GPGGA,220157.00,3357.6802,N,11928.0460,W,1,10,0.8,6.0,M,-33.7,M,,*57
$PYRTM,2024,126.918043301817,18.027690711956
$GPGGA,220158.00,3357.6808,N,11928.0431,W,1,10,0.8,6.1,M,-33.7,M,,*57
$PYRTM,2024,126.918055105278,18.027702515417
$GPGGA,220159.00,3357.6813,N,11928.0402,W,1,10,0.8,6.1,M,-33.7,M,,*5C
$PYRTM,2024,126.918070744919,18.027718155058
$GPGGA,220200.00,3357.6817,N,11928.0373,W,1,10,0.8,6.1,M,-33.7,M,,*56
$PYRTM,2024,126.918082306227,18.027729716366
$GPGGA,220201.00,3357.6822,N,11928.0345,W,1,10,0.8,6.0,M,-33.7,M,,*55
$PYRTM,2024,126.918089596516,18.027737006655
$GPGGA,220202.00,3357.6826,N,11928.0317,W,1,10,0.8,5.8,M,-33.7,M,,*5E
$PYRTM,2024,126.918105453831,18.027752863970
$GPGGA,220203.00,3357.6831,N,11928.0290,W,1,10,0.8,5.7,M,-33.7,M,,*58
$PYRTM,2024,126.918112746192,18.027760156331
$GPGGA,220204.00,3357.6835,N,11928.0263,W,1,10,0.8,5.5,M,-33.7,M,,*55
$PYRTM,2024,126.918128603611,18.027776013750
$GPGGA,220205.00,3357.6840,N,11928.0236,W,1,10,0.8,5.4,M,-33.7,M,,*57
$PYRTM,2024,126.918140190729,18.027787600868
$GPGGA,220206.00,3357.6844,N,11928.0209,W,1,10,0.8,5.4,M,-33.7,M,,*5C
$PYRTM,2024,126.918151751551,18.027799161690
$GPGGA,220207.00,3357.6846,N,11928.0181,W,1,10,0.8,5.5,M,-33.7,M,,*5D
$PYRTM,2024,126.918163341400,18.027810751539
$GPGGA,220208.00,3357.6850,N,11928.0153,W,1,10,0.8,5.6,M,-33.7,M,,*59
$PYRTM,2024,126.918174899549,18.027822309687
$GPGGA,220209.00,3357.6854,N,11928.0124,W,1,10,0.8,5.8,M,-33.7,M,,*52
$PYRTM,2024,126.918186485961,18.027833896100
$GPGGA,220210.00,3357.6859,N,11928.0095,W,1,10,0.8,5.8,M,-33.7,M,,*5C
$PYRTM,2024,126.918193780949,18.027841191088
$GPGGA,220211.00,3357.6864,N,11928.0066,W,1,10,0.8,5.9,M,-33.7,M,,*5E
$PYRTM,2024,126.918205570625,18.027852980764
$GPGGA,220212.00,3357.6868,N,11928.0037,W,1,10,0.8,6.0,M,-33.7,M,,*5F
$PYRTM,2024,126.918221195729,18.027868605868
$GPGGA,220213.00,3357.6871,N,11928.0008,W,1,10,0.8,6.0,M,-33.7,M,,*5A
$PYRTM,2024,126.918232782569,18.027880192708
$GPGGA,220214.00,3357.6875,N,11927.9980,W,1,10,0.8,5.8,M,-33.7,M,,*5D
$PYRTM,2024,126.918244344201,18.027891754340
$GPGGA,220215.00,3357.6880,N,11927.9953,W,1,10,0.8,5.7,M,-33.7,M,,*57
$PYRTM,2024,126.918255931516,18.027903341655
$GPGGA,220216.00,3357.6885,N,11927.9926,W,1,10,0.8,5.5,M,-33.7,M,,*51
$PYRTM,2024,126.918267492766,18.027914902905
$GPGGA,220217.00,3357.6889,N,11927.9899,W,1,10,0.8,5.3,M,-33.7,M,,*5F
$PYRTM,2024,126.918279084456,18.027926494595
$GPGGA,220218.00,3357.6893,N,11927.9872,W,1,10,0.8,5.2,M,-33.7,M,,*5F
$PYRTM,2024,126.918290641563,18.027938051701
$GPGGA,220219.00,3357.6897,N,11927.9845,W,1,10,0.8,5.4,M,-33.7,M,,*58
$PYRTM,2024,126.918302228519,18.027949638657
$GPGGA,220220.00,3357.6900,N,11927.9818,W,1,10,0.8,5.5,M,-33.7,M,,*54
$PYRTM,2024,126.918313789792,18.027961199931
$GPGGA,220221.00,3357.6904,N,11927.9789,W,1,10,0.8,5.7,M,-33.7,M,,*54
$PYRTM,2024,126.918325376944,18.027972787083
$GPGGA,220222.00,3357.6909,N,11927.9761,W,1,10,0.8,5.8,M,-33.7,M,,*53
$PYRTM,2024,126.918336937535,18.027984347674
$GPGGA,220223.00,3357.6913,N,11927.9732,W,1,10,0.8,6.0,M,-33.7,M,,*54
$PYRTM,2024,126.918344230324,18.027991640463
$GPGGA,220224.00,3357.6918,N,11927.9704,W,1,10,0.8,6.1,M,-33.7,M,,*5C
$PYRTM,2024,126.918360084468,18.028007494606
$GPGGA,220225.00,3357.6922,N,11927.9675,W,1,10,0.8,6.0,M,-33.7,M,,*52
$PYRTM,2024,126.918367378449,18.028014788588
$GPGGA,220226.00,3357.6926,N,11927.9647,W,1,10,0.8,5.8,M,-33.7,M,,*5F
$PYRTM,2024,126.918383234456,18.028030644606
$GPGGA,220227.00,3357.6931,N,11927.9620,W,1,10,0.8,5.7,M,-33.7,M,,*56
$PYRTM,2024,126.918394835069,18.028042245208
$GPGGA,220228.00,3357.6935,N,11927.9593,W,1,10,0.8,5.6,M,-33.7,M,,*57
$PYRTM,2024,126.918406382442,18.028053792581
$GPGGA,220229.00,3357.6939,N,11927.9566,W,1,10,0.8,5.4,M,-33.7,M,,*52
$PYRTM,2024,126.918417970787,18.028065380937
$GPGGA,220230.00,3357.6942,N,11927.9538,W,1,10,0.8,5.3,M,-33.7,M,,*5A
$PYRTM,2024,126.918429531100,18.028076941250
$GPGGA,220231.00,3357.6945,N,11927.9511,W,1,10,0.8,5.3,M,-33.7,M,,*57
$PYRTM,2024,126.918441117917,18.028088528056
$GPGGA,220232.00,3357.6949,N,11927.9483,W,1,10,0.8,5.4,M,-33.7,M,,*55
$PYRTM,2024,126.918448409769,18.028095819907
$GPGGA,220233.00,3357.6954,N,11927.9454,W,1,10,0.8,5.5,M,-33.7,M,,*53
$PYRTM,2024,126.918464265764,18.028111675903
$GPGGA,220234.00,3357.6958,N,11927.9426,W,1,10,0.8,5.7,M,-33.7,M,,*5F
$PYRTM,2024,126.918475828576,18.028123238715
$GPGGA,220235.00,3357.6962,N,11927.9398,W,1,10,0.8,5.8,M,-33.7,M,,*5A
$PYRTM,2024,126.918483126319,18.028130536458
$GPGGA,220236.00,3357.6965,N,11927.9369,W,1,10,0.8,5.9,M,-33.7,M,,*51
$PYRTM,2024,126.918498974826,18.028146384965
$GPGGA,220237.00,3357.6970,N,11927.9341,W,1,10,0.8,5.8,M,-33.7,M,,*5F
$PYRTM,2024,126.918510562523,18.028157972662
$GPGGA,220238.00,3357.6975,N,11927.9314,W,1,10,0.8,5.6,M,-33.7,M,,*5B
$PYRTM,2024,126.918522124421,18.028169534560
$GPGGA,220239.00,3357.6980,N,11927.9287,W,1,10,0.8,5.5,M,-33.7,M,,*58
$PYRTM,2024,126.918533711840,18.028181121979
$GPGGA,220240.00,3357.6984,N,11927.9260,W,1,10,0.8,5.5,M,-33.7,M,,*5B
$PYRTM,2024,126.918545272616,18.028192682755
$GPGGA,220241.00,3357.6987,N,11927.9233,W,1,10,0.8,5.4,M,-33.7,M,,*5E
$PYRTM,2024,126.918556859340,18.028204269479
$GPGGA,220242.00,3357.6990,N,11927.9205,W,1,10,0.8,5.4,M,-33.7,M,,*5E
$PYRTM,2024,126.918568420231,18.028215830370
$GPGGA,220243.00,3357.6994,N,11927.9177,W,1,10,0.8,5.6,M,-33.7,M,,*5F
$PYRTM,2024,126.918580003113,18.028227413252
$GPGGA,220244.00,3357.6999,N,11927.9149,W,1,10,0.8,5.7,M,-33.7,M,,*59
$PYRTM,2024,126.918591568507,18.028238978646
$GPGGA,220245.00,3357.7004,N,11927.9121,W,1,10,0.8,5.8,M,-33.7,M,,*55
$PYRTM,2024,126.918603159410,18.028250569549
$GPGGA,220246.00,3357.7008,N,11927.9092,W,1,10,0.8,5.8,M,-33.7,M,,*53
$PYRTM,2024,126.918614717245,18.028262127384
$GPGGA,220247.00,3357.7012,N,11927.9064,W,1,10,0.8,5.8,M,-33.7,M,,*50
$PYRTM,2024,126.918626305278,18.028273715417
$GPGGA,220248.00,3357.7016,N,11927.9036,W,1,10,0.8,5.8,M,-33.7,M,,*5C
$PYRTM,2024,126.918633598403,18.028281008542
$GPGGA,220249.00,3357.7020,N,11927.9008,W,1,10,0.8,5.7,M,-33.7,M,,*5A
$PYRTM,2024,126.918649455914,18.028296866053
$GPGGA,220250.00,3357.7025,N,11927.8980,W,1,10,0.8,5.5,M,-33.7,M,,*5D
$PYRTM,2024,126.918661014931,18.028308425069
$GPGGA,220251.00,3357.7029,N,11927.8953,W,1,10,0.8,5.5,M,-33.7,M,,*5E
$PYRTM,2024,126.918668317454,18.028315727593
$GPGGA,220252.00,3357.7033,N,11927.8925,W,1,10,0.8,5.4,M,-33.7,M,,*56
$PYRTM,2024,126.918684163137,18.028331573275
$GPGGA,220253.00,3357.7037,N,11927.8898,W,1,10,0.8,5.4,M,-33.7,M,,*54
$PYRTM,2024,126.918695748738,18.028343158877
$GPGGA,220254.00,3357.7040,N,11927.8870,W,1,10,0.8,5.4,M,-33.7,M,,*55
$PYRTM,2024,126.918707308935,18.028354719074
$GPGGA,220255.00,3357.7045,N,11927.8843,W,1,10,0.8,5.5,M,-33.7,M,,*50
$PYRTM,2024,126.918718910567,18.028366320706
$GPGGA,220256.00,3357.7051,N,11927.8815,W,1,10,0.8,5.6,M,-33.7,M,,*56
$PYRTM,2024,126.918726188472,18.028373598611
$GPGGA,220257.00,3357.7056,N,11927.8788,W,1,10,0.8,5.5,M,-33.7,M,,*58
$PYRTM,2024,126.918744939086,18.028392349225
$GPGGA,220258.00,3357.7059,N,11927.8760,W,1,10,0.8,5.5,M,-33.7,M,,*5E
$PYRTM,2024,126.918756500602,18.028403910741
$GPGGA,220259.00,3357.7063,N,11927.8731,W,1,10,0.8,5.5,M,-33.7,M,,*52
$PYRTM,2024,126.918768086979,18.028415497118
$GPGGA,220300.00,3357.7068,N,11927.8703,W,1,10,0.8,5.5,M,-33.7,M,,*55
$PYRTM,2024,126.918776755058,18.028424165197
$GPGGA,220301.00,3357.7073,N,11927.8676,W,1,10,0.8,5.6,M,-33.7,M,,*5E
$PYRTM,2024,126.918784058576,18.028431468715
$GPGGA,220302.00,3357.7077,N,11927.8647,W,1,10,0.8,5.7,M,-33.7,M,,*5A
$PYRTM,2024,126.918799902419,18.028447312558
$GPGGA,220303.00,3357.7081,N,11927.8618,W,1,10,0.8,5.6,M,-33.7,M,,*59
$PYRTM,2024,126.918807207083,18.028454617222
$GPGGA,220304.00,3357.7085,N,11927.8590,W,1,10,0.8,5.6,M,-33.7,M,,*59
$PYRTM,2024,126.918825944977,18.028473355116
$GPGGA,220305.00,3357.7089,N,11927.8563,W,1,10,0.8,5.6,M,-33.7,M,,*58
$PYRTM,2024,126.918837546806,18.028484956944
$GPGGA,220306.00,3357.7094,N,11927.8535,W,1,10,0.8,5.6,M,-33.7,M,,*54
$PYRTM,2024,126.918846198958,18.028493609097
$GPGGA,220307.00,3357.7099,N,11927.8508,W,1,10,0.8,5.5,M,-33.7,M,,*55
$PYRTM,2024,126.918857786806,18.028505196944
$GPGGA,220308.00,3357.7102,N,11927.8480,W,1,10,0.8,5.3,M,-33.7,M,,*5E
$PYRTM,2024,126.918869347836,18.028516757975
$GPGGA,220309.00,3357.7107,N,11927.8453,W,1,10,0.8,5.3,M,-33.7,M,,*54
$PYRTM,2024,126.918880937616,18.028528347755
$GPGGA,220310.00,3357.7112,N,11927.8426,W,1,10,0.8,5.3,M,-33.7,M,,*5A
$PYRTM,2024,126.918892495706,18.028539905856
$GPGGA,220311.00,3357.7117,N,11927.8398,W,1,10,0.8,5.4,M,-33.7,M,,*5B
$PYRTM,2024,126.918899795278,18.028547205417
$GPGGA,220312.00,3357.7121,N,11927.8370,W,1,10,0.8,5.6,M,-33.7,M,,*59
$PYRTM,2024,126.918915645023,18.028563055162
$GPGGA,220313.00,3357.7124,N,11927.8342,W,1,10,0.8,5.7,M,-33.7,M,,*5D
$PYRTM,2024,126.918927242188,18.028574652326
$GPGGA,220314.00,3357.7129,N,11927.8313,W,1,10,0.8,5.8,M,-33.7,M,,*5C
$PYRTM,2024,126.918934524028,18.028581934167
$GPGGA,220315.00,3357.7134,N,11927.8284,W,1,10,0.8,5.8,M,-33.7,M,,*5E
$PYRTM,2024,126.918950381100,18.028597791238
$GPGGA,220316.00,3357.7138,N,11927.8256,W,1,10,0.8,5.7,M,-33.7,M,,*51
$PYRTM,2024,126.918961940914,18.028609351053
$GPGGA,220317.00,3357.7142,N,11927.8228,W,1,10,0.8,5.6,M,-33.7,M,,*55
$PYRTM,2024,126.918973527731,18.028620937870
$GPGGA,220318.00,3357.7146,N,11927.8201,W,1,10,0.8,5.4,M,-33.7,M,,*57
$PYRTM,2024,126.918985088356,18.028632498495
$GPGGA,220319.00,3357.7150,N,11927.8173,W,1,10,0.8,5.3,M,-33.7,M,,*50
$PYRTM,2024,126.918992393681,18.028639803831
$GPGGA,220320.00,3357.7154,N,11927.8147,W,1,10,0.8,5.3,M,-33.7,M,,*59
$PYRTM,2024,126.919008238715,18.028655648854
$GPGGA,220321.00,3357.7159,N,11927.8119,W,1,10,0.8,5.3,M,-33.7,M,,*5E
$PYRTM,2024,126.919019824595,18.028667234734
$GPGGA,220322.00,3357.7163,N,11927.8092,W,1,10,0.8,5.3,M,-33.7,M,,*56
$PYRTM,2024,126.919031386273,18.028678796412
$GPGGA,220323.00,3357.7166,N,11927.8064,W,1,10,0.8,5.4,M,-33.7,M,,*5C
$PYRTM,2024,126.919042975903,18.028690386042
$GPGGA,220324.00,3357.7170,N,11927.8035,W,1,10,0.8,5.6,M,-33.7,M,,*5A
$PYRTM,2024,126.919054534942,18.028701945081
$GPGGA,220325.00,3357.7174,N,11927.8006,W,1,10,0.8,5.8,M,-33.7,M,,*51
$PYRTM,2024,126.919066120394,18.028713530532
$GPGGA,220326.00,3357.7179,N,11927.7978,W,1,10,0.8,5.9,M,-33.7,M,,*51
$PYRTM,2024,126.919077683461,18.028725093600
$GPGGA,220327.00,3357.7184,N,11927.7950,W,1,10,0.8,5.9,M,-33.7,M,,*58
$PYRTM,2024,126.919084988438,18.028732398588
$GPGGA,220328.00,3357.7189,N,11927.7921,W,1,10,0.8,5.8,M,-33.7,M,,*5D
$PYRTM,2024,126.919100830984,18.028748241123
$GPGGA,220329.00,3357.7193,N,11927.7894,W,1,10,0.8,5.5,M,-33.7,M,,*55
$PYRTM,2024,126.919108135394,18.028755545532
$GPGGA,220330.00,3357.7197,N,11927.7867,W,1,10,0.8,5.3,M,-33.7,M,,*53
$PYRTM,2024,126.919123979167,18.028771389306
$GPGGA,220331.00,3357.7203,N,11927.7840,W,1,10,0.8,5.2,M,-33.7,M,,*58
$PYRTM,2024,126.919135566181,18.028782976331
$GPGGA,220332.00,3357.7207,N,11927.7813,W,1,10,0.8,5.1,M,-33.7,M,,*5A
$PYRTM,2024,126.919147126296,18.028794536435
$GPGGA,220333.00,3357.7211,N,11927.7785,W,1,10,0.8,5.1,M,-33.7,M,,*5C
$PYRTM,2024,126.919158718924,18.028806129062
$GPGGA,220334.00,3357.7215,N,11927.7757,W,1,10,0.8,5.3,M,-33.7,M,,*52
$PYRTM,2024,126.919166006875,18.028813417025
$GPGGA,220335.00,3357.7218,N,11927.7729,W,1,10,0.8,5.5,M,-33.7,M,,*51
$PYRTM,2024,126.919184755787,18.028832165938
$GPGGA,220336.00,3357.7223,N,11927.7700,W,1,10,0.8,5.6,M,-33.7,M,,*52
$PYRTM,2024,126.919196319282,18.028843729421
$GPGGA,220337.00,3357.7227,N,11927.7671,W,1,10,0.8,5.7,M,-33.7,M,,*51
$PYRTM,2024,126.919205011921,18.028852422060
$GPGGA,220338.00,3357.7231,N,11927.7643,W,1,10,0.8,5.8,M,-33.7,M,,*57
$PYRTM,2024,126.919216570683,18.028863980822
$GPGGA,220339.00,3357.7236,N,11927.7614,W,1,10,0.8,5.8,M,-33.7,M,,*53
$PYRTM,2024,126.919223876736,18.028871286875
$GPGGA,220340.00,3357.7241,N,11927.7586,W,1,10,0.8,5.6,M,-33.7,M,,*5B
$PYRTM,2024,126.919239720127,18.028887130266
$GPGGA,220341.00,3357.7245,N,11927.7559,W,1,10,0.8,5.4,M,-33.7,M,,*5E
$PYRTM,2024,126.919251311215,18.028898721354
$GPGGA,220342.00,3357.7250,N,11927.7532,W,1,10,0.8,5.3,M,-33.7,M,,*53
$PYRTM,2024,126.919262871470,18.028910281609
$GPGGA,220343.00,3357.7254,N,11927.7505,W,1,10,0.8,5.1,M,-33.7,M,,*50
$PYRTM,2024,126.919274458333,18.028921868472
$GPGGA,220344.00,3357.7259,N,11927.7478,W,1,10,0.8,5.1,M,-33.7,M,,*51
$PYRTM,2024,126.919281735116,18.028929145255
$GPGGA,220345.00,3357.7263,N,11927.7450,W,1,10,0.8,5.1,M,-33.7,M,,*53
$PYRTM,2024,126.919297604433,18.028945014572
$GPGGA,220346.00,3357.7267,N,11927.7422,W,1,10,0.8,5.3,M,-33.7,M,,*53
$PYRTM,2024,126.919309165162,18.028956575313
$GPGGA,220347.00,3357.7271,N,11927.7394,W,1,10,0.8,5.6,M,-33.7,M,,*5A
$PYRTM,2024,126.919316463264,18.028963873403
$GPGGA,220348.00,3357.7275,N,11927.7366,W,1,10,0.8,5.8,M,-33.7,M,,*52
$PYRTM,2024,126.919332313704,18.028979723843
$GPGGA,220349.00,3357.7280,N,11927.7337,W,1,10,0.8,5.7,M,-33.7,M,,*52
$PYRTM,2024,126.919339617917,18.028987028056
$GPGGA,220350.00,3357.7285,N,11927.7309,W,1,10,0.8,5.6,M,-33.7,M,,*53
$PYRTM,2024,126.919351293831,18.028998703970
$GPGGA,220351.00,3357.7290,N,11927.7282,W,1,10,0.8,5.5,M,-33.7,M,,*57
$PYRTM,2024,126.919367052303,18.029014462442
$GPGGA,220352.00,3357.7295,N,11927.7254,W,1,10,0.8,5.4,M,-33.7,M,,*5B
$PYRTM,2024,126.919378610486,18.029026020625
$GPGGA,220353.00,3357.7299,N,11927.7226,W,1,10,0.8,5.3,M,-33.7,M,,*54
$PYRTM,2024,126.919390196863,18.029037607014
$GPGGA,220354.00,3357.7303,N,11927.7199,W,1,10,0.8,5.3,M,-33.7,M,,*56
$PYRTM,2024,126.919401757697,18.029049167836
$GPGGA,220355.00,3357.7307,N,11927.7171,W,1,10,0.8,5.2,M,-33.7,M,,*54
$PYRTM,2024,126.919413346551,18.029060756690
$GPGGA,220356.00,3357.7312,N,11927.7144,W,1,10,0.8,5.2,M,-33.7,M,,*55
$PYRTM,2024,126.919424908171,18.029072318310
$GPGGA,220357.00,3357.7316,N,11927.7116,W,1,10,0.8,5.2,M,-33.7,M,,*57
$PYRTM,2024,126.919436493866,18.029083904005
$GPGGA,220358.00,3357.7319,N,11927.7088,W,1,10,0.8,5.2,M,-33.7,M,,*51
$PYRTM,2024,126.919448055093,18.029095465243
$GPGGA,220359.00,3357.7323,N,11927.7061,W,1,10,0.8,5.3,M,-33.7,M,,*5F
$PYRTM,2024,126.919459640810,18.029107050949
$GPGGA,220400.00,3357.7328,N,11927.7033,W,1,10,0.8,5.4,M,-33.7,M,,*5F
$PYRTM,2024,126.919471202882,18.029118613021
$GPGGA,220401.00,3357.7334,N,11927.7006,W,1,10,0.8,5.5,M,-33.7,M,,*54
$PYRTM,2024,126.919478506389,18.029125916528
$GPGGA,220402.00,3357.7338,N,11927.6978,W,1,10,0.8,5.5,M,-33.7,M,,*5A
$PYRTM,2024,126.919490645521,18.029138055660
$GPGGA,220403.00,3357.7342,N,11927.6951,W,1,10,0.8,5.5,M,-33.7,M,,*5D
$PYRTM,2024,126.919505939769,18.029153349919
$GPGGA,220404.00,3357.7347,N,11927.6923,W,1,10,0.8,5.6,M,-33.7,M,,*59
$PYRTM,2024,126.919517500370,18.029164910509
$GPGGA,220405.00,3357.7352,N,11927.6895,W,1,10,0.8,5.5,M,-33.7,M,,*53
$PYRTM,2024,126.919524804097,18.029172214236
$GPGGA,220406.00,3357.7356,N,11927.6867,W,1,10,0.8,5.4,M,-33.7,M,,*58
$PYRTM,2024,126.919540648935,18.029188059074
$GPGGA,220407.00,3357.7360,N,11927.6838,W,1,10,0.8,5.3,M,-33.7,M,,*51
$PYRTM,2024,126.919552236782,18.029199646921
$GPGGA,220408.00,3357.7363,N,11927.6810,W,1,10,0.8,5.3,M,-33.7,M,,*57
$PYRTM,2024,126.919563795926,18.029211206065
$GPGGA,220409.00,3357.7366,N,11927.6782,W,1,10,0.8,5.4,M,-33.7,M,,*50
$PYRTM,2024,126.919575378646,18.029222788785
$GPGGA,220410.00,3357.7371,N,11927.6755,W,1,10,0.8,5.3,M,-33.7,M,,*53
$PYRTM,2024,126.919586944421,18.029234354560
$GPGGA,220411.00,3357.7376,N,11927.6727,W,1,10,0.8,5.2,M,-33.7,M,,*51
$PYRTM,2024,126.919598545648,18.029245955787
$GPGGA,220412.00,3357.7380,N,11927.6700,W,1,10,0.8,5.2,M,-33.7,M,,*5E
$PYRTM,2024,126.919610093148,18.029257503287
$GPGGA,220413.00,3357.7384,N,11927.6673,W,1,10,0.8,5.2,M,-33.7,M,,*5E
$PYRTM,2024,126.919621679468,18.029269089606
$GPGGA,220414.00,3357.7388,N,11927.6645,W,1,10,0.8,5.2,M,-33.7,M,,*50
$PYRTM,2024,126.919628986725,18.029276396875
$GPGGA,220415.00,3357.7394,N,11927.6618,W,1,10,0.8,5.3,M,-33.7,M,,*55
$PYRTM,2024,126.919640648519,18.029288058657
$GPGGA,220416.00,3357.7399,N,11927.6590,W,1,10,0.8,5.3,M,-33.7,M,,*58
$PYRTM,2024,126.919656390255,18.029303800394
$GPGGA,220417.00,3357.7403,N,11927.6562,W,1,10,0.8,5.5,M,-33.7,M,,*56
$PYRTM,2024,126.919667976782,18.029315386921
$GPGGA,220418.00,3357.7407,N,11927.6534,W,1,10,0.8,5.6,M,-33.7,M,,*5D
$PYRTM,2024,126.919679537998,18.029326948148
$GPGGA,220419.00,3357.7412,N,11927.6505,W,1,10,0.8,5.6,M,-33.7,M,,*5A
$PYRTM,2024,126.919691124236,18.029338534375
$GPGGA,220420.00,3357.7417,N,11927.6477,W,1,10,0.8,5.5,M,-33.7,M,,*52
$PYRTM,2024,126.919698404421,18.029345814560
$GPGGA,220421.00,3357.7422,N,11927.6449,W,1,10,0.8,5.4,M,-33.7,M,,*59
$PYRTM,2024,126.919714286262,18.029361696400
$GPGGA,220422.00,3357.7426,N,11927.6423,W,1,10,0.8,5.2,M,-33.7,M,,*54
$PYRTM,2024,126.919721564398,18.029368974549
$GPGGA,220423.00,3357.7429,N,11927.6395,W,1,10,0.8,5.2,M,-33.7,M,,*50
$PYRTM,2024,126.919737421829,18.029384831968
$GPGGA,220424.00,3357.7433,N,11927.6368,W,1,10,0.8,5.2,M,-33.7,M,,*5E
$PYRTM,2024,126.919748982431,18.029396392569
$GPGGA,220425.00,3357.7437,N,11927.6340,W,1,10,0.8,5.2,M,-33.7,M,,*51
$PYRTM,2024,126.919756281539,18.029403691678
$GPGGA,220426.00,3357.7442,N,11927.6313,W,1,10,0.8,5.4,M,-33.7,M,,*50
$PYRTM,2024,126.919772130440,18.029419540579
$GPGGA,220427.00,3357.7446,N,11927.6285,W,1,10,0.8,5.5,M,-33.7,M,,*5A
$PYRTM,2024,126.919783717199,18.029431127338
$GPGGA,220428.00,3357.7450,N,11927.6257,W,1,10,0.8,5.6,M,-33.7,M,,*5E
$PYRTM,2024,126.919795280764,18.029442690903
$GPGGA,220429.00,3357.7454,N,11927.6228,W,1,10,0.8,5.5,M,-33.7,M,,*50
$PYRTM,2024,126.919806881019,18.029454291169
$GPGGA,220430.00,3357.7459,N,11927.6200,W,1,10,0.8,5.4,M,-33.7,M,,*5E
$PYRTM,2024,126.919818428264,18.029465838403
$GPGGA,220431.00,3357.7464,N,11927.6172,W,1,10,0.8,5.5,M,-33.7,M,,*56
$PYRTM,2024,126.919830017488,18.029477427627
$GPGGA,220432.00,3357.7468,N,11927.6145,W,1,10,0.8,5.5,M,-33.7,M,,*5D
$PYRTM,2024,126.919837321655,18.029484731794
$GPGGA,220433.00,3357.7473,N,11927.6117,W,1,10,0.8,5.4,M,-33.7,M,,*50
$PYRTM,2024,126.919853164792,18.029500574931
$GPGGA,220434.00,3357.7478,N,11927.6089,W,1,10,0.8,5.2,M,-33.7,M,,*5C
$PYRTM,2024,126.919864724838,18.029512134977
$GPGGA,220435.00,3357.7482,N,11927.6062,W,1,10,0.8,5.2,M,-33.7,M,,*5D
$PYRTM,2024,126.919872028021,18.029519438160
$GPGGA,220436.00,3357.7486,N,11927.6035,W,1,10,0.8,5.2,M,-33.7,M,,*58
$PYRTM,2024,126.919883705937,18.029531116076
$GPGGA,220437.00,3357.7490,N,11927.6007,W,1,10,0.8,5.3,M,-33.7,M,,*5E
$PYRTM,2024,126.919902353681,18.029549763831
$GPGGA,220438.00,3357.7494,N,11927.5979,W,1,10,0.8,5.3,M,-33.7,M,,*56
$PYRTM,2024,126.919913913067,18.029561323206
$GPGGA,220439.00,3357.7498,N,11927.5952,W,1,10,0.8,5.6,M,-33.7,M,,*57
$PYRTM,2024,126.919922612118,18.029570022269
$GPGGA,220440.00,3357.7502,N,11927.5924,W,1,10,0.8,5.8,M,-33.7,M,,*54
$PYRTM,2024,126.919934168646,18.029581578785
$GPGGA,220441.00,3357.7507,N,11927.5895,W,1,10,0.8,5.8,M,-33.7,M,,*5B
$PYRTM,2024,126.919945755938,18.029593166076
$GPGGA,220442.00,3357.7511,N,11927.5867,W,1,10,0.8,5.7,M,-33.7,M,,*5D
$PYRTM,2024,126.919957318704,18.029604728843
$GPGGA,220443.00,3357.7515,N,11927.5839,W,1,10,0.8,5.6,M,-33.7,M,,*52
$PYRTM,2024,126.919968903437,18.029616313576
$GPGGA,220444.00,3357.7519,N,11927.5812,W,1,10,0.8,5.6,M,-33.7,M,,*50
$PYRTM,2024,126.919980463900,18.029627874039
$GPGGA,220445.00,3357.7524,N,11927.5784,W,1,10,0.8,5.6,M,-33.7,M,,*5F
$PYRTM,2024,126.919987872350,18.029635282488
$GPGGA,220446.00,3357.7529,N,11927.5756,W,1,10,0.8,5.5,M,-33.7,M,,*5D
$PYRTM,2024,126.920003614039,18.029651024190
$GPGGA,220447.00,3357.7532,N,11927.5728,W,1,10,0.8,5.4,M,-33.7,M,,*5E
$PYRTM,2024,126.920015200127,18.029662610266
$GPGGA,220448.00,3357.7536,N,11927.5700,W,1,10,0.8,5.4,M,-33.7,M,,*5F
$PYRTM,2024,126.920022492014,18.029669902153
$GPGGA,220449.00,3357.7540,N,11927.5673,W,1,10,0.8,5.5,M,-33.7,M,,*5B
$PYRTM,2024,126.920038352801,18.029685762940
$GPGGA,220450.00,3357.7544,N,11927.5645,W,1,10,0.8,5.5,M,-33.7,M,,*52
$PYRTM,2024,126.920049910278,18.029697320417
$GPGGA,220451.00,3357.7549,N,11927.5617,W,1,10,0.8,5.5,M,-33.7,M,,*59
$PYRTM,2024,126.920057214016,18.029704624155
$GPGGA,220452.00,3357.7554,N,11927.5589,W,1,10,0.8,5.4,M,-33.7,M,,*53
$PYRTM,2024,126.920073059398,18.029720469537
$GPGGA,220453.00,3357.7558,N,11927.5561,W,1,10,0.8,5.4,M,-33.7,M,,*58
$PYRTM,2024,126.920084651053,18.029732061192
$GPGGA,220454.00,3357.7562,N,11927.5534,W,1,10,0.8,5.5,M,-33.7,M,,*57
$PYRTM,2024,126.920096206389,18.029743616528
$GPGGA,220455.00,3357.7567,N,11927.5506,W,1,10,0.8,5.5,M,-33.7,M,,*52
$PYRTM,2024,126.920107793611,18.029755203750
$GPGGA,220456.00,3357.7571,N,11927.5477,W,1,10,0.8,5.5,M,-33.7,M,,*51
$PYRTM,2024,126.920119356100,18.029766766238
$GPGGA,220457.00,3357.7575,N,11927.5449,W,1,10,0.8,5.4,M,-33.7,M,,*58
$PYRTM,2024,126.920130941285,18.029778351424
$GPGGA,220458.00,3357.7579,N,11927.5421,W,1,10,0.8,5.3,M,-33.7,M,,*52
$PYRTM,2024,126.920138220694,18.029785630833
$GPGGA,220459.00,3357.7584,N,11927.5394,W,1,10,0.8,5.3,M,-33.7,M,,*58
$PYRTM,2024,126.920154093090,18.029801503229
$GPGGA,220500.00,3357.7588,N,11927.5366,W,1,10,0.8,5.3,M,-33.7,M,,*54
$PYRTM,2024,126.920165652384,18.029813062523
$GPGGA,220501.00,3357.7593,N,11927.5337,W,1,10,0.8,5.2,M,-33.7,M,,*5A
$PYRTM,2024,126.920177238762,18.029824648900
$GPGGA,220502.00,3357.7596,N,11927.5309,W,1,10,0.8,5.2,M,-33.7,M,,*51
$PYRTM,2024,126.920188801030,18.029836211169
$GPGGA,220503.00,3357.7600,N,11927.5281,W,1,10,0.8,5.3,M,-33.7,M,,*5C
$PYRTM,2024,126.920196091528,18.029843501667
$GPGGA,220504.00,3357.7604,N,11927.5252,W,1,10,0.8,5.4,M,-33.7,M,,*56
$PYRTM,2024,126.920207783762,18.029855193900
$GPGGA,220505.00,3357.7609,N,11927.5223,W,1,10,0.8,5.3,M,-33.7,M,,*5B
$PYRTM,2024,126.920226312593,18.029873722743
$GPGGA,220506.00,3357.7614,N,11927.5194,W,1,10,0.8,5.3,M,-33.7,M,,*5B
$PYRTM,2024,126.920235095289,18.029882505428
$GPGGA,220507.00,3357.7618,N,11927.5166,W,1,10,0.8,5.3,M,-33.7,M,,*5B
$PYRTM,2024,126.920242399618,18.029889809757
$GPGGA,220508.00,3357.7622,N,11927.5138,W,1,10,0.8,5.3,M,-33.7,M,,*56
$PYRTM,2024,126.920258245220,18.029905655359
$GPGGA,220509.00,3357.7626,N,11927.5111,W,1,10,0.8,5.3,M,-33.7,M,,*58
$PYRTM,2024,126.920269847743,18.029917257894
$GPGGA,220510.00,3357.7631,N,11927.5083,W,1,10,0.8,5.1,M,-33.7,M,,*5E
$PYRTM,2024,126.920277123102,18.029924533241
$GPGGA,220511.00,3357.7636,N,11927.5056,W,1,10,0.8,5.0,M,-33.7,M,,*51
$PYRTM,2024,126.920292981921,18.029940392060
$GPGGA,220512.00,3357.7640,N,11927.5029,W,1,10,0.8,5.0,M,-33.7,M,,*5B
$PYRTM,2024,126.920304542060,18.029951952199
$GPGGA,220513.00,3357.7644,N,11927.5001,W,1,10,0.8,5.0,M,-33.7,M,,*54
$PYRTM,2024,126.920311846134,18.029959256285
$GPGGA,220514.00,3357.7648,N,11927.4973,W,1,10,0.8,5.0,M,-33.7,M,,*52
$PYRTM,2024,126.920327690451,18.029975100590
$GPGGA,220515.00,3357.7652,N,11927.4944,W,1,10,0.8,5.0,M,-33.7,M,,*5C
$PYRTM,2024,126.920339276875,18.029986687014
$GPGGA,220516.00,3357.7656,N,11927.4915,W,1,10,0.8,5.1,M,-33.7,M,,*5E
$PYRTM,2024,126.920350837650,18.029998247789
$GPGGA,220517.00,3357.7660,N,11927.4887,W,1,10,0.8,5.2,M,-33.7,M,,*53
$PYRTM,2024,126.920362430231,18.030009840370
$GPGGA,220518.00,3357.7664,N,11927.4858,W,1,10,0.8,5.3,M,-33.7,M,,*5B
$PYRTM,2024,126.920373986644,18.030021396782
$GPGGA,220519.00,3357.7668,N,11927.4830,W,1,10,0.8,5.2,M,-33.6,M,,*58
$PYRTM,2024,126.920385573241,18.030032983380
$GPGGA,220520.00,3357.7672,N,11927.4801,W,1,10,0.8,5.1,M,-33.6,M,,*58
$PYRTM,2024,126.920397134826,18.030044544965
$GPGGA,220521.00,3357.7677,N,11927.4774,W,1,10,0.8,5.0,M,-33.6,M,,*50
$PYRTM,2024,126.920408722350,18.030056132488
$GPGGA,220522.00,3357.7681,N,11927.4746,W,1,10,0.8,5.1,M,-33.6,M,,*5A
$PYRTM,2024,126.920420282604,18.030067692743
$GPGGA,220523.00,3357.7685,N,11927.4719,W,1,10,0.8,5.2,M,-33.6,M,,*56
$PYRTM,2024,126.920431872095,18.030079282234
$GPGGA,220524.00,3357.7689,N,11927.4691,W,1,10,0.8,5.1,M,-33.6,M,,*5F
$PYRTM,2024,126.920443431852,18.030090841991
$GPGGA,220525.00,3357.7693,N,11927.4663,W,1,10,0.8,5.1,M,-33.6,M,,*58
$PYRTM,2024,126.920455019711,18.030102429850
$GPGGA,220526.00,3357.7697,N,11927.4635,W,1,10,0.8,5.1,M,-33.6,M,,*5C
$PYRTM,2024,126.920466579248,18.030113989387
$GPGGA,220527.00,3357.7702,N,11927.4607,W,1,10,0.8,5.0,M,-33.6,M,,*50
$PYRTM,2024,126.920478168646,18.030125578785
$GPGGA,220528.00,3357.7707,N,11927.4579,W,1,10,0.8,5.0,M,-33.6,M,,*50
$PYRTM,2024,126.920485446748,18.030132856887
$GPGGA,220529.00,3357.7711,N,11927.4551,W,1,10,0.8,5.1,M,-33.6,M,,*5D
$PYRTM,2024,126.920501313345,18.030148723484
$GPGGA,220530.00,3357.7714,N,11927.4522,W,1,10,0.8,5.1,M,-33.6,M,,*54
$PYRTM,2024,126.920512875035,18.030160285174
$GPGGA,220531.00,3357.7718,N,11927.4494,W,1,10,0.8,5.1,M,-33.6,M,,*55
$PYRTM,2024,126.920520175093,18.030167585231
$GPGGA,220532.00,3357.7723,N,11927.4466,W,1,10,0.8,5.1,M,-33.6,M,,*53
$PYRTM,2024,126.920536023877,18.030183434028
$GPGGA,220533.00,3357.7728,N,11927.4439,W,1,10,0.8,5.1,M,-33.6,M,,*53
$PYRTM,2024,126.920547612083,18.030195022222
$GPGGA,220534.00,3357.7732,N,11927.4410,W,1,10,0.8,5.0,M,-33.6,M,,*55
$PYRTM,2024,126.920559172894,18.030206583032
$GPGGA,220535.00,3357.7735,N,11927.4382,W,1,10,0.8,4.9,M,-33.6,M,,*57
$PYRTM,2024,126.920566476215,18.030213886354
$GPGGA,220536.00,3357.7739,N,11927.4354,W,1,10,0.8,4.9,M,-33.6,M,,*53
$PYRTM,2024,126.920578616435,18.030226026574
$GPGGA,220537.00,3357.7743,N,11927.4326,W,1,10,0.8,5.0,M,-33.6,M,,*52
$PYRTM,2024,126.920593910174,18.030241320312
$GPGGA,220538.00,3357.7748,N,11927.4298,W,1,10,0.8,5.1,M,-33.6,M,,*53
$PYRTM,2024,126.920601187025,18.030248597164
$GPGGA,220539.00,3357.7752,N,11927.4270,W,1,10,0.8,5.1,M,-33.6,M,,*5F
$PYRTM,2024,126.920617055764,18.030264465903
$GPGGA,220540.00,3357.7756,N,11927.4241,W,1,10,0.8,5.0,M,-33.6,M,,*56
$PYRTM,2024,126.920628618715,18.030276028854
$GPGGA,220541.00,3357.7759,N,11927.4214,W,1,10,0.8,5.0,M,-33.6,M,,*58
$PYRTM,2024,126.920640205359,18.030287615509
$GPGGA,220542.00,3357.7762,N,11927.4186,W,1,10,0.8,5.0,M,-33.6,M,,*5B
$PYRTM,2024,126.920651765220,18.030299175359
$GPGGA,220543.00,3357.7767,N,11927.4158,W,1,10,0.8,4.9,M,-33.6,M,,*54
$PYRTM,2024,126.920663352280,18.030310762419
$GPGGA,220544.00,3357.7772,N,11927.4130,W,1,10,0.8,4.8,M,-33.6,M,,*58
$PYRTM,2024,126.920674914792,18.030322324942
$GPGGA,220545.00,3357.7777,N,11927.4103,W,1,10,0.8,4.8,M,-33.6,M,,*5C
$PYRTM,2024,126.920686506030,18.030333916169
$GPGGA,220546.00,3357.7779,N,11927.4075,W,1,10,0.8,5.0,M,-33.6,M,,*58
$PYRTM,2024,126.920698062072,18.030345472211
$GPGGA,220547.00,3357.7782,N,11927.4046,W,1,10,0.8,5.2,M,-33.6,M,,*5F
$PYRTM,2024,126.920709651516,18.030357061655
$GPGGA,220548.00,3357.7787,N,11927.4017,W,1,10,0.8,5.2,M,-33.6,M,,*51
$PYRTM,2024,126.920716928345,18.030364338484
$GPGGA,220549.00,3357.7793,N,11927.3990,W,1,10,0.8,5.1,M,-33.6,M,,*57
$PYRTM,2024,126.920732797951,18.030380208090
$GPGGA,220550.00,3357.7798,N,11927.3962,W,1,10,0.8,5.2,M,-33.6,M,,*5A
$PYRTM,2024,126.920744358530,18.030391768669
$GPGGA,220551.00,3357.7802,N,11927.3934,W,1,10,0.8,5.1,M,-33.6,M,,*57
$PYRTM,2024,126.920755944838,18.030403354977
$GPGGA,220552.00,3357.7806,N,11927.3906,W,1,10,0.8,4.9,M,-33.6,M,,*58
$PYRTM,2024,126.920767505509,18.030414915648
$GPGGA,220553.00,3357.7809,N,11927.3878,W,1,10,0.8,4.9,M,-33.6,M,,*5E
$PYRTM,2024,126.920779093912,18.030426504051
$GPGGA,220554.00,3357.7813,N,11927.3851,W,1,10,0.8,5.0,M,-33.6,M,,*51
$PYRTM,2024,126.920790655150,18.030438065289
$GPGGA,220555.00,3357.7818,N,11927.3823,W,1,10,0.8,5.0,M,-33.6,M,,*5E
$PYRTM,2024,126.920802255787,18.030449665926
$GPGGA,220556.00,3357.7823,N,11927.3795,W,1,10,0.8,5.0,M,-33.6,M,,*57
$PYRTM,2024,126.920813802685,18.030461212824
$GPGGA,220557.00,3357.7826,N,11927.3767,W,1,10,0.8,5.0,M,-33.6,M,,*5E
$PYRTM,2024,126.920825391331,18.030472801470
$GPGGA,220558.00,3357.7830,N,11927.3738,W,1,10,0.8,5.0,M,-33.6,M,,*5C
$PYRTM,2024,126.920836951921,18.030484362060
$GPGGA,220559.00,3357.7834,N,11927.3710,W,1,10,0.8,5.1,M,-33.6,M,,*52
$PYRTM,2024,126.920848538843,18.030495948981
$GPGGA,220600.00,3357.7839,N,11927.3681,W,1,10,0.8,5.2,M,-33.6,M,,*5A
$PYRTM,2024,126.920860102789,18.030507512940
$GPGGA,220601.00,3357.7844,N,11927.3653,W,1,10,0.8,5.1,M,-33.6,M,,*5D
$PYRTM,2024,126.920871686458,18.030519096597
$GPGGA,220602.00,3357.7848,N,11927.3624,W,1,10,0.8,5.1,M,-33.6,M,,*52
$PYRTM,2024,126.920883248194,18.030530658333
$GPGGA,220603.00,3357.7851,N,11927.3597,W,1,10,0.8,5.1,M,-33.6,M,,*50
$PYRTM,2024,126.920894835683,18.030542245822
$GPGGA,220604.00,3357.7855,N,11927.3569,W,1,10,0.8,5.1,M,-33.6,M,,*52
$PYRTM,2024,126.920906395544,18.030553805683
$GPGGA,220605.00,3357.7860,N,11927.3541,W,1,10,0.8,5.0,M,-33.6,M,,*5E
$PYRTM,2024,126.920917985787,18.030565395926
$GPGGA,220606.00,3357.7864,N,11927.3514,W,1,10,0.8,4.9,M,-33.6,M,,*51
$PYRTM,2024,126.920925275590,18.030572685729
$GPGGA,220607.00,3357.7867,N,11927.3486,W,1,10,0.8,4.8,M,-33.6,M,,*58
$PYRTM,2024,126.920941132199,18.030588542350
$GPGGA,220608.00,3357.7870,N,11927.3459,W,1,10,0.8,4.9,M,-33.6,M,,*52
$PYRTM,2024,126.920952692500,18.030600102639
$GPGGA,220609.00,3357.7874,N,11927.3431,W,1,10,0.8,5.0,M,-33.6,M,,*51
$PYRTM,2024,126.920959983438,18.030607393576
$GPGGA,220610.00,3357.7879,N,11927.3403,W,1,10,0.8,5.0,M,-33.6,M,,*55
$PYRTM,2024,126.920978618194,18.030626028333
$GPGGA,220611.00,3357.7884,N,11927.3375,W,1,10,0.8,5.1,M,-33.6,M,,*51
$PYRTM,2024,126.920990207095,18.030637617234
$GPGGA,220612.00,3357.7888,N,11927.3347,W,1,10,0.8,5.2,M,-33.6,M,,*5C
$PYRTM,2024,126.920998990069,18.030646400208
$GPGGA,220613.00,3357.7891,N,11927.3318,W,1,10,0.8,5.3,M,-33.6,M,,*5E
$PYRTM,2024,126.921006281817,18.030653691956
$GPGGA,220614.00,3357.7896,N,11927.3289,W,1,10,0.8,5.3,M,-33.6,M,,*57
$PYRTM,2024,126.921022137824,18.030669547975
$GPGGA,220615.00,3357.7901,N,11927.3261,W,1,10,0.8,5.3,M,-33.6,M,,*5F
$PYRTM,2024,126.921033729317,18.030681139456
$GPGGA,220616.00,3357.7905,N,11927.3232,W,1,10,0.8,5.2,M,-33.6,M,,*5F
$PYRTM,2024,126.921041017847,18.030688427986
$GPGGA,220617.00,3357.7909,N,11927.3204,W,1,10,0.8,5.2,M,-33.6,M,,*57
$PYRTM,2024,126.921056872465,18.030704282604
$GPGGA,220618.00,3357.7912,N,11927.3176,W,1,10,0.8,5.2,M,-33.6,M,,*54
$PYRTM,2024,126.921068435116,18.030715845255
$GPGGA,220619.00,3357.7916,N,11927.3149,W,1,10,0.8,5.1,M,-33.6,M,,*5E
$PYRTM,2024,126.921080020764,18.030727430903
$GPGGA,220620.00,3357.7921,N,11927.3121,W,1,10,0.8,4.9,M,-33.6,M,,*57
$PYRTM,2024,126.921091581759,18.030738991898
$GPGGA,220621.00,3357.7926,N,11927.3094,W,1,10,0.8,4.8,M,-33.6,M,,*5F
$PYRTM,2024,126.921098885799,18.030746295938
$GPGGA,220622.00,3357.7930,N,11927.3066,W,1,10,0.8,4.8,M,-33.6,M,,*56
$PYRTM,2024,126.921114730741,18.030762140880
$GPGGA,220623.00,3357.7934,N,11927.3039,W,1,10,0.8,4.9,M,-33.6,M,,*58
$PYRTM,2024,126.921126332014,18.030773742153
$GPGGA,220624.00,3357.7938,N,11927.3011,W,1,10,0.8,5.0,M,-33.6,M,,*51
$PYRTM,2024,126.921137879711,18.030785289861
$GPGGA,220625.00,3357.7942,N,11927.2982,W,1,10,0.8,5.1,M,-33.6,M,,*5E
$PYRTM,2024,126.921149468681,18.030796878819
$GPGGA,220626.00,3357.7946,N,11927.2953,W,1,10,0.8,5.1,M,-33.6,M,,*55
$PYRTM,2024,126.921161027350,18.030808437488
$GPGGA,220627.00,3357.7950,N,11927.2924,W,1,10,0.8,5.3,M,-33.6,M,,*51
$PYRTM,2024,126.921172614236,18.030820024375
$GPGGA,220628.00,3357.7954,N,11927.2896,W,1,10,0.8,5.4,M,-33.6,M,,*55
$PYRTM,2024,126.921179910023,18.030827320162
$GPGGA,220629.00,3357.7959,N,11927.2868,W,1,10,0.8,5.4,M,-33.6,M,,*58
$PYRTM,2024,126.921191582847,18.030838992986
$GPGGA,220630.00,3357.7962,N,11927.2840,W,1,10,0.8,5.4,M,-33.6,M,,*52
$PYRTM,2024,126.921207323218,18.030854733356
$GPGGA,220631.00,3357.7967,N,11927.2812,W,1,10,0.8,5.3,M,-33.6,M,,*56
$PYRTM,2024,126.921218910984,18.030866321123
$GPGGA,220632.00,3357.7971,N,11927.2784,W,1,10,0.8,5.1,M,-33.6,M,,*50
$PYRTM,2024,126.921230472650,18.030877882789
$GPGGA,220633.00,3357.7975,N,11927.2756,W,1,10,0.8,5.1,M,-33.6,M,,*5A
$PYRTM,2024,126.921242061759,18.030889471898
$GPGGA,220634.00,3357.7979,N,11927.2728,W,1,10,0.8,5.2,M,-33.6,M,,*5B
$PYRTM,2024,126.921253632222,18.030901042361
$GPGGA,220635.00,3357.7984,N,11927.2700,W,1,10,0.8,5.3,M,-33.6,M,,*53
$PYRTM,2024,126.921265210139,18.030912620278
$GPGGA,220636.00,3357.7988,N,11927.2672,W,1,10,0.8,5.3,M,-33.6,M,,*58
$PYRTM,2024,126.921276781192,18.030924191331
$GPGGA,220637.00,3357.7991,N,11927.2642,W,1,10,0.8,5.3,M,-33.6,M,,*52
$PYRTM,2024,126.921288356586,18.030935766725
$GPGGA,220638.00,3357.7995,N,11927.2614,W,1,10,0.8,5.2,M,-33.6,M,,*5B
$PYRTM,2024,126.921295648032,18.030943058171
$GPGGA,220639.00,3357.7999,N,11927.2586,W,1,10,0.8,5.2,M,-33.6,M,,*5E
$PYRTM,2024,126.921311504838,18.030958914988
$GPGGA,220640.00,3357.8004,N,11927.2557,W,1,10,0.8,5.2,M,-33.6,M,,*5E
$PYRTM,2024,126.921318794965,18.030966205104
$GPGGA,220641.00,3357.8009,N,11927.2529,W,1,10,0.8,5.2,M,-33.6,M,,*5B
$PYRTM,2024,126.921334652222,18.030982062373
$GPGGA,220642.00,3357.8013,N,11927.2501,W,1,10,0.8,5.2,M,-33.6,M,,*59
$PYRTM,2024,126.921346227245,18.030993637396
$GPGGA,220643.00,3357.8017,N,11927.2473,W,1,10,0.8,5.3,M,-33.6,M,,*59
$PYRTM,2024,126.921357803611,18.031005213750
$GPGGA,220644.00,3357.8020,N,11927.2445,W,1,10,0.8,5.4,M,-33.6,M,,*58
$PYRTM,2024,126.921369374213,18.031016784352
$GPGGA,220645.00,3357.8025,N,11927.2417,W,1,10,0.8,5.4,M,-33.6,M,,*5B
$PYRTM,2024,126.921380949502,18.031028359641
$GPGGA,220646.00,3357.8030,N,11927.2389,W,1,10,0.8,5.5,M,-33.6,M,,*5D
$PYRTM,2024,126.921388248692,18.031035658831
$GPGGA,220647.00,3357.8034,N,11927.2361,W,1,10,0.8,5.4,M,-33.6,M,,*5F
$PYRTM,2024,126.921404097650,18.031051507789
$GPGGA,220648.00,3357.8037,N,11927.2332,W,1,10,0.8,5.4,M,-33.6,M,,*55
$PYRTM,2024,126.921415671609,18.031063081748
$GPGGA,220649.00,3357.8040,N,11927.2304,W,1,10,0.8,5.3,M,-33.6,M,,*56
$PYRTM,2024,126.921427246157,18.031074656308
$GPGGA,220650.00,3357.8044,N,11927.2275,W,1,10,0.8,5.3,M,-33.6,M,,*5D
$PYRTM,2024,126.921438819005,18.031086229144
$GPGGA,220651.00,3357.8049,N,11927.2247,W,1,10,0.8,5.4,M,-33.6,M,,*57
$PYRTM,2024,126.921446213657,18.031093623796
$GPGGA,220652.00,3357.8053,N,11927.2219,W,1,10,0.8,5.4,M,-33.6,M,,*54
$PYRTM,2024,126.921461967905,18.031109378044
$GPGGA,220653.00,3357.8056,N,11927.2190,W,1,10,0.8,5.3,M,-33.6,M,,*55
$PYRTM,2024,126.921473556632,18.031120966771
$GPGGA,220654.00,3357.8059,N,11927.2162,W,1,10,0.8,5.3,M,-33.6,M,,*50
$PYRTM,2024,126.921485115324,18.031132525463
$GPGGA,220655.00,3357.8063,N,11927.2134,W,1,10,0.8,5.5,M,-33.6,M,,*5D
$PYRTM,2024,126.921496689722,18.031144099861
$GPGGA,220656.00,3357.8068,N,11927.2106,W,1,10,0.8,5.6,M,-33.6,M,,*57
$PYRTM,2024,126.921508262882,18.031155673009
$GPGGA,220657.00,3357.8072,N,11927.2077,W,1,10,0.8,5.6,M,-33.6,M,,*5A
$PYRTM,2024,126.921519838264,18.031167248403
$GPGGA,220658.00,3357.8075,N,11927.2049,W,1,10,0.8,5.5,M,-33.6,M,,*5C
$PYRTM,2024,126.921527128600,18.031174538738
$GPGGA,220659.00,3357.8079,N,11927.2021,W,1,10,0.8,5.6,M,-33.6,M,,*5C
$PYRTM,2024,126.921542986667,18.031190396806
$GPGGA,220700.00,3357.8084,N,11927.1993,W,1,10,0.8,5.7,M,-33.6,M,,*51
$PYRTM,2024,126.921554561597,18.031201971736
$GPGGA,220701.00,3357.8089,N,11927.1965,W,1,10,0.8,5.6,M,-33.6,M,,*55
$PYRTM,2024,126.921561856157,18.031209266296
$GPGGA,220702.00,3357.8093,N,11927.1937,W,1,10,0.8,5.7,M,-33.6,M,,*5B
$PYRTM,2024,126.921577709259,18.031225119398
$GPGGA,220703.00,3357.8096,N,11927.1909,W,1,10,0.8,5.8,M,-33.6,M,,*5D
$PYRTM,2024,126.921589286713,18.031236696852
$GPGGA,220704.00,3357.8099,N,11927.1880,W,1,10,0.8,5.7,M,-33.6,M,,*5A
$PYRTM,2024,126.921596574572,18.031243984711
$GPGGA,220705.00,3357.8103,N,11927.1852,W,1,10,0.8,5.6,M,-33.6,M,,*57
$PYRTM,2024,126.921612431644,18.031259841782
$GPGGA,220706.00,3357.8108,N,11927.1824,W,1,10,0.8,5.4,M,-33.6,M,,*5C
$PYRTM,2024,126.921624005521,18.031271415648
$GPGGA,220707.00,3357.8112,N,11927.1795,W,1,10,0.8,5.4,M,-33.6,M,,*53
$PYRTM,2024,126.921635579248,18.031282989387
$GPGGA,220708.00,3357.8115,N,11927.1767,W,1,10,0.8,5.4,M,-33.6,M,,*56
$PYRTM,2024,126.921647154514,18.031294564664
$GPGGA,220709.00,3357.8118,N,11927.1739,W,1,10,0.8,5.6,M,-33.6,M,,*53
$PYRTM,2024,126.921654432315,18.031301842454
$GPGGA,220710.00,3357.8122,N,11927.1711,W,1,10,0.8,5.6,M,-33.6,M,,*58
$PYRTM,2024,126.921673080081,18.031320490220
$GPGGA,220711.00,3357.8126,N,11927.1683,W,1,10,0.8,5.6,M,-33.6,M,,*57
$PYRTM,2024,126.921684648970,18.031332059109
$GPGGA,220712.00,3357.8131,N,11927.1655,W,1,10,0.8,5.7,M,-33.6,M,,*58
$PYRTM,2024,126.921698658889,18.031346069039
$GPGGA,220713.00,3357.8135,N,11927.1628,W,1,10,0.8,5.7,M,-33.6,M,,*57
$PYRTM,2024,126.921705027512,18.031352437650
$GPGGA,220714.00,3357.8138,N,11927.1599,W,1,10,0.8,5.7,M,-33.6,M,,*54
$PYRTM,2024,126.921716598623,18.031364008762
$GPGGA,220715.00,3357.8143,N,11927.1571,W,1,10,0.8,5.7,M,-33.6,M,,*5F
$PYRTM,2024,126.921728174792,18.031375584931
$GPGGA,220716.00,3357.8147,N,11927.1544,W,1,10,0.8,5.8,M,-33.6,M,,*51
$PYRTM,2024,126.921735465162,18.031382875312
$GPGGA,220717.00,3357.8152,N,11927.1516,W,1,10,0.8,5.9,M,-33.6,M,,*52
$PYRTM,2024,126.921751322986,18.031398733125
$GPGGA,220718.00,3357.8155,N,11927.1487,W,1,10,0.8,5.9,M,-33.6,M,,*53
$PYRTM,2024,126.921762892176,18.031410302315
$GPGGA,220719.00,3357.8159,N,11927.1458,W,1,10,0.8,5.8,M,-33.6,M,,*5D
$PYRTM,2024,126.921774471354,18.031421881493
$GPGGA,220720.00,3357.8163,N,11927.1430,W,1,10,0.8,5.8,M,-33.6,M,,*50
$PYRTM,2024,126.921786042882,18.031433453021
$GPGGA,220721.00,3357.8167,N,11927.1402,W,1,10,0.8,5.8,M,-33.6,M,,*54
$PYRTM,2024,126.921793335174,18.031440745324
$GPGGA,220722.00,3357.8171,N,11927.1373,W,1,10,0.8,5.8,M,-33.6,M,,*51
$PYRTM,2024,126.921809196493,18.031456606632
$GPGGA,220723.00,3357.8175,N,11927.1345,W,1,10,0.8,5.8,M,-33.6,M,,*51
$PYRTM,2024,126.921820765312,18.031468175451
$GPGGA,220724.00,3357.8178,N,11927.1317,W,1,10,0.8,5.7,M,-33.6,M,,*53
$PYRTM,2024,126.921832340937,18.031479751076
$GPGGA,220725.00,3357.8182,N,11927.1289,W,1,10,0.8,5.6,M,-33.6,M,,*50
$PYRTM,2024,126.921843915556,18.031491325694
$GPGGA,220726.00,3357.8186,N,11927.1261,W,1,10,0.8,5.6,M,-33.6,M,,*51
$PYRTM,2024,126.921855489178,18.031502899317
$GPGGA,220727.00,3357.8190,N,11927.1232,W,1,10,0.8,5.6,M,-33.6,M,,*51
$PYRTM,2024,126.921867062454,18.031514472593
$GPGGA,220728.00,3357.8193,N,11927.1204,W,1,10,0.8,5.6,M,-33.6,M,,*58
$PYRTM,2024,126.921878636250,18.031526046389
$GPGGA,220729.00,3357.8197,N,11927.1177,W,1,10,0.8,5.7,M,-33.6,M,,*5B
$PYRTM,2024,126.921890210694,18.031537620833
$GPGGA,220730.00,3357.8202,N,11927.1148,W,1,10,0.8,5.6,M,-33.6,M,,*51
$PYRTM,2024,126.921901784144,18.031549194282
$GPGGA,220731.00,3357.8205,N,11927.1120,W,1,10,0.8,5.6,M,-33.6,M,,*59
$PYRTM,2024,126.921909064271,18.031556474410
$GPGGA,220732.00,3357.8208,N,11927.1092,W,1,10,0.8,5.6,M,-33.6,M,,*5F
$PYRTM,2024,126.921924933333,18.031572343472
$GPGGA,220733.00,3357.8213,N,11927.1064,W,1,10,0.8,5.8,M,-33.6,M,,*53
$PYRTM,2024,126.921936507859,18.031583917998
$GPGGA,220734.00,3357.8218,N,11927.1037,W,1,10,0.8,5.8,M,-33.6,M,,*59
$PYRTM,2024,126.921948081505,18.031595491644
$GPGGA,220735.00,3357.8222,N,11927.1008,W,1,10,0.8,5.8,M,-33.6,M,,*5D
$PYRTM,2024,126.921959656458,18.031607066597
$GPGGA,220736.00,3357.8225,N,11927.0980,W,1,10,0.8,5.7,M,-33.6,M,,*5E
$PYRTM,2024,126.921971229618,18.031618639757
$GPGGA,220737.00,3357.8229,N,11927.0952,W,1,10,0.8,5.8,M,-33.6,M,,*53
$PYRTM,2024,126.921982804711,18.031630214850
$GPGGA,220738.00,3357.8234,N,11927.0924,W,1,10,0.8,5.8,M,-33.6,M,,*51
$PYRTM,2024,126.921994378461,18.031641788600
$GPGGA,220739.00,3357.8239,N,11927.0896,W,1,10,0.8,5.7,M,-33.6,M,,*5A
$PYRTM,2024,126.922005952072,18.031653362211
$GPGGA,220740.00,3357.8243,N,11927.0867,W,1,10,0.8,5.7,M,-33.6,M,,*57
$PYRTM,2024,126.922017520567,18.031664930706
$GPGGA,220741.00,3357.8246,N,11927.0838,W,1,10,0.8,5.7,M,-33.6,M,,*59
$PYRTM,2024,126.922024819028,18.031672229178
$GPGGA,220742.00,3357.8250,N,11927.0810,W,1,10,0.8,5.7,M,-33.6,M,,*57
$PYRTM,2024,126.922043459572,18.031690869711
$GPGGA,220743.00,3357.8255,N,11927.0782,W,1,10,0.8,5.6,M,-33.6,M,,*56
$PYRTM,2024,126.922052249248,18.031699659387
$GPGGA,220744.00,3357.8259,N,11927.0754,W,1,10,0.8,5.4,M,-33.6,M,,*54
$PYRTM,2024,126.922063822905,18.031711233044
$GPGGA,220745.00,3357.8262,N,11927.0726,W,1,10,0.8,5.4,M,-33.6,M,,*58
$PYRTM,2024,126.922075396678,18.031722806817
$GPGGA,220746.00,3357.8265,N,11927.0698,W,1,10,0.8,5.5,M,-33.6,M,,*59
$PYRTM,2024,126.922086971030,18.031734381169
$GPGGA,220747.00,3357.8270,N,11927.0670,W,1,10,0.8,5.6,M,-33.6,M,,*59
$PYRTM,2024,126.922098546644,18.031745956782
$GPGGA,220748.00,3357.8274,N,11927.0642,W,1,10,0.8,5.5,M,-33.6,M,,*50
$PYRTM,2024,126.922110114803,18.031757524942
$GPGGA,220749.00,3357.8278,N,11927.0613,W,1,10,0.8,5.5,M,-33.6,M,,*59
$PYRTM,2024,126.922121696331,18.031769106470
$GPGGA,220750.00,3357.8281,N,11927.0585,W,1,10,0.8,5.7,M,-33.6,M,,*59
$PYRTM,2024,126.922133266933,18.031780677083
$GPGGA,220751.00,3357.8284,N,11927.0556,W,1,10,0.8,5.8,M,-33.6,M,,*5C
$PYRTM,2024,126.922140546910,18.031787957049
$GPGGA,220752.00,3357.8290,N,11927.0527,W,1,10,0.8,5.8,M,-33.6,M,,*5C
$PYRTM,2024,126.922156411956,18.031803822095
$GPGGA,220753.00,3357.8295,N,11927.0499,W,1,10,0.8,5.6,M,-33.6,M,,*52
$PYRTM,2024,126.922167989699,18.031815399838
$GPGGA,220754.00,3357.8299,N,11927.0471,W,1,10,0.8,5.6,M,-33.6,M,,*5F
$PYRTM,2024,126.922179564583,18.031826974722
$GPGGA,220755.00,3357.8302,N,11927.0443,W,1,10,0.8,5.5,M,-33.6,M,,*5F
$PYRTM,2024,126.922191139722,18.031838549861
$GPGGA,220756.00,3357.8306,N,11927.0415,W,1,10,0.8,5.5,M,-33.6,M,,*5B
$PYRTM,2024,126.922198440590,18.031845850729
$GPGGA,220757.00,3357.8310,N,11927.0388,W,1,10,0.8,5.3,M,-33.6,M,,*58
$PYRTM,2024,126.922214286181,18.031861696319
$GPGGA,220758.00,3357.8315,N,11927.0360,W,1,10,0.8,5.2,M,-33.6,M,,*55
$PYRTM,2024,126.922225869514,18.031873279653
$GPGGA,220759.00,3357.8318,N,11927.0332,W,1,10,0.8,5.4,M,-33.6,M,,*58
$PYRTM,2024,126.922237449352,18.031884859491
$GPGGA,220800.00,3357.8321,N,11927.0303,W,1,10,0.8,5.6,M,-33.6,M,,*51
$PYRTM,2024,126.922249008715,18.031896418854
$GPGGA,220801.00,3357.8325,N,11927.0274,W,1,10,0.8,5.7,M,-33.6,M,,*54
$PYRTM,2024,126.922260578507,18.031907988657
$GPGGA,220802.00,3357.8329,N,11927.0245,W,1,10,0.8,5.8,M,-33.6,M,,*56
$PYRTM,2024,126.922272156713,18.031919566852
$GPGGA,220803.00,3357.8334,N,11927.0216,W,1,10,0.8,5.8,M,-33.6,M,,*5D
$PYRTM,2024,126.922283733241,18.031931143391
$GPGGA,220804.00,3357.8338,N,11927.0187,W,1,10,0.8,5.8,M,-33.6,M,,*5D
$PYRTM,2024,126.922295305220,18.031942715359
$GPGGA,220805.00,3357.8343,N,11927.0159,W,1,10,0.8,5.8,M,-33.6,M,,*53
$PYRTM,2024,126.922306880035,18.031954290174
$GPGGA,220806.00,3357.8347,N,11927.0131,W,1,10,0.8,5.7,M,-33.6,M,,*55
$PYRTM,2024,126.922318453576,18.031965863715
$GPGGA,220807.00,3357.8351,N,11927.0103,W,1,10,0.8,5.6,M,-33.6,M,,*53
$PYRTM,2024,126.922330029225,18.031977439363
$GPGGA,220808.00,3357.8356,N,11927.0075,W,1,10,0.8,5.4,M,-33.6,M,,*59
$PYRTM,2024,126.922337314630,18.031984724780
$GPGGA,220809.00,3357.8360,N,11927.0048,W,1,10,0.8,5.4,M,-33.6,M,,*53
$PYRTM,2024,126.922353190752,18.032000600891
$GPGGA,220810.00,3357.8364,N,11927.0020,W,1,10,0.8,5.4,M,-33.6,M,,*51
$PYRTM,2024,126.922364751377,18.032012161516
$GPGGA,220811.00,3357.8367,N,11926.9992,W,1,10,0.8,5.4,M,-33.6,M,,*5B
$PYRTM,2024,126.922372035231,18.032019445370
$GPGGA,220812.00,3357.8372,N,11926.9963,W,1,10,0.8,5.4,M,-33.6,M,,*52
$PYRTM,2024,126.922383734282,18.032031144421
$GPGGA,220813.00,3357.8376,N,11926.9935,W,1,10,0.8,5.6,M,-33.6,M,,*56
$PYRTM,2024,126.922402249884,18.032049660023
$GPGGA,220814.00,3357.8379,N,11926.9906,W,1,10,0.8,5.7,M,-33.6,M,,*5F
$PYRTM,2024,126.922411048553,18.032058458692
$GPGGA,220815.00,3357.8383,N,11926.9878,W,1,10,0.8,5.8,M,-33.6,M,,*5C
$PYRTM,2024,126.922422620856,18.032070030995
$GPGGA,220816.00,3357.8387,N,11926.9850,W,1,10,0.8,5.8,M,-33.6,M,,*51
$PYRTM,2024,126.922434191157,18.032081601296
$GPGGA,220817.00,3357.8391,N,11926.9822,W,1,10,0.8,5.8,M,-33.6,M,,*52
$PYRTM,2024,126.922445769560,18.032093179699
$GPGGA,220818.00,3357.8395,N,11926.9794,W,1,10,0.8,5.6,M,-33.6,M,,*55
$PYRTM,2024,126.922457343322,18.032104753461
$GPGGA,220819.00,3357.8399,N,11926.9767,W,1,10,0.8,5.5,M,-33.6,M,,*57
$PYRTM,2024,126.922468920532,18.032116330671
$GPGGA,220820.00,3357.8403,N,11926.9739,W,1,10,0.8,5.4,M,-33.6,M,,*53
$PYRTM,2024,126.922480492836,18.032127902986
$GPGGA,220821.00,3357.8407,N,11926.9711,W,1,10,0.8,5.3,M,-33.6,M,,*5B
$PYRTM,2024,126.922492066875,18.032139477014
$GPGGA,220822.00,3357.8410,N,11926.9683,W,1,10,0.8,5.4,M,-33.6,M,,*53
$PYRTM,2024,126.922503640162,18.032151050312
$GPGGA,220823.00,3357.8415,N,11926.9654,W,1,10,0.8,5.6,M,-33.6,M,,*5F
$PYRTM,2024,126.922510918889,18.032158329028
$GPGGA,220824.00,3357.8419,N,11926.9626,W,1,10,0.8,5.7,M,-33.6,M,,*50
$PYRTM,2024,126.922526788414,18.032174198553
$GPGGA,220825.00,3357.8423,N,11926.9597,W,1,10,0.8,5.8,M,-33.6,M,,*5E
$PYRTM,2024,126.922538362141,18.032185772280
$GPGGA,220826.00,3357.8428,N,11926.9568,W,1,10,0.8,5.8,M,-33.6,M,,*56
$PYRTM,2024,126.922549935775,18.032197345914
$GPGGA,220827.00,3357.8432,N,11926.9540,W,1,10,0.8,5.8,M,-33.6,M,,*56
$PYRTM,2024,126.922561511181,18.032208921319
$GPGGA,220828.00,3357.8436,N,11926.9512,W,1,10,0.8,5.8,M,-33.6,M,,*5A
$PYRTM,2024,126.922573083935,18.032220494074
$GPGGA,220829.00,3357.8440,N,11926.9484,W,1,10,0.8,5.6,M,-33.6,M,,*5A
$PYRTM,2024,126.922584662269,18.032232072407
$GPGGA,220830.00,3357.8443,N,11926.9456,W,1,10,0.8,5.4,M,-33.6,M,,*5C
$PYRTM,2024,126.922596233333,18.032243643472
$GPGGA,220831.00,3357.8447,N,11926.9429,W,1,10,0.8,5.3,M,-33.6,M,,*56
$PYRTM,2024,126.922607807870,18.032255218021
$GPGGA,220832.00,3357.8451,N,11926.9402,W,1,10,0.8,5.4,M,-33.6,M,,*5C
$PYRTM,2024,126.922619382130,18.032266792269
$GPGGA,220833.00,3357.8456,N,11926.9374,W,1,10,0.8,5.5,M,-33.6,M,,*5D
$PYRTM,2024,126.922630956840,18.032278366979
$GPGGA,220834.00,3357.8459,N,11926.9346,W,1,10,0.8,5.6,M,-33.6,M,,*57
$PYRTM,2024,126.922642529167,18.032289939306
$GPGGA,220835.00,3357.8462,N,11926.9317,W,1,10,0.8,5.7,M,-33.6,M,,*5B
$PYRTM,2024,126.922654104641,18.032301514780
$GPGGA,220836.00,3357.8466,N,11926.9289,W,1,10,0.8,5.9,M,-33.6,M,,*54
$PYRTM,2024,126.922665678588,18.032313088727
$GPGGA,220837.00,3357.8470,N,11926.9260,W,1,10,0.8,6.0,M,-33.6,M,,*5F
$PYRTM,2024,126.922677254375,18.032324664514
$GPGGA,220838.00,3357.8475,N,11926.9232,W,1,10,0.8,6.0,M,-33.6,M,,*52
$PYRTM,2024,126.922688827072,18.032336237211
$GPGGA,220839.00,3357.8479,N,11926.9204,W,1,10,0.8,5.9,M,-33.6,M,,*50
$PYRTM,2024,126.922700404711,18.032347814850
