$PYRTM,2024,124.750003632373,15.859651042512
$GPGGA,175959.00,3521.4815,N,12053.8265,W,1,09,0.8,13.4,M,-31.4,M,,*65
$PYRTM,2024,124.750015190162,15.859662600301
$GPGGA,180000.00,3521.4815,N,12053.8271,W,1,09,0.8,13.4,M,-31.4,M,,*6F
$PYRTM,2024,124.750022597488,15.859670007627
$GPGGA,180001.00,3521.4815,N,12053.8274,W,1,09,0.8,13.4,M,-31.4,M,,*6B
$PYRTM,2024,124.750038341204,15.859685751343
$GPGGA,180002.00,3521.4813,N,12053.8277,W,1,09,0.8,13.4,M,-31.4,M,,*6D
$PYRTM,2024,124.750049927106,15.859697337245
$GPGGA,180003.00,3521.4812,N,12053.8280,W,1,09,0.8,13.4,M,-31.4,M,,*65
$PYRTM,2024,124.750061489410,15.859708899549
$GPGGA,180004.00,3521.4812,N,12053.8285,W,1,09,0.8,13.5,M,-31.4,M,,*66
$PYRTM,2024,124.750073078600,15.859720488738
$GPGGA,180005.00,3521.4813,N,12053.8291,W,1,09,0.8,13.5,M,-31.4,M,,*63
$PYRTM,2024,124.750084636447,15.859732046597
$GPGGA,180006.00,3521.4812,N,12053.8295,W,1,09,0.8,13.5,M,-31.4,M,,*65
$PYRTM,2024,124.750096226817,15.859743636956
$GPGGA,180007.00,3521.4812,N,12053.8298,W,1,09,0.8,13.5,M,-31.4,M,,*69
$PYRTM,2024,124.750107784769,15.859755194907
$GPGGA,180008.00,3521.4811,N,12053.8301,W,1,09,0.8,13.5,M,-31.4,M,,*64
$PYRTM,2024,124.750119371968,15.859766782106
$GPGGA,180009.00,3521.4810,N,12053.8305,W,1,09,0.8,13.5,M,-31.4,M,,*60
$PYRTM,2024,124.750130933414,15.859778343553
$GPGGA,180010.00,3521.4810,N,12053.8310,W,1,09,0.8,13.5,M,-31.4,M,,*6C
$PYRTM,2024,124.750142520266,15.859789930405
$GPGGA,180011.00,3521.4811,N,12053.8315,W,1,09,0.8,13.5,M,-31.4,M,,*69
$PYRTM,2024,124.750154081875,15.859801492014
$GPGGA,180012.00,3521.4811,N,12053.8319,W,1,09,0.8,13.5,M,-31.4,M,,*66
$PYRTM,2024,124.750165783970,15.859813194109
$GPGGA,180013.00,3521.4809,N,12053.8322,W,1,09,0.8,13.5,M,-31.4,M,,*66
$PYRTM,2024,124.750177383785,15.859824793924
$GPGGA,180014.00,3521.4808,N,12053.8326,W,1,09,0.8,13.6,M,-31.4,M,,*67
$PYRTM,2024,124.750188932269,15.859836342407
$GPGGA,180015.00,3521.4807,N,12053.8330,W,1,09,0.8,13.6,M,-31.4,M,,*6E
$PYRTM,2024,124.750196212153,15.859843622292
$GPGGA,180016.00,3521.4809,N,12053.8335,W,1,09,0.8,13.6,M,-31.4,M,,*66
$PYRTM,2024,124.750214858241,15.859862268380
$GPGGA,180017.00,3521.4811,N,12053.8340,W,1,09,0.8,13.6,M,-31.4,M,,*6C
$PYRTM,2024,124.750223525174,15.859870935312
$GPGGA,180018.00,3521.4809,N,12053.8344,W,1,09,0.8,13.6,M,-31.4,M,,*6E
$PYRTM,2024,124.750235108160,15.859882518299
$GPGGA,180019.00,3521.4806,N,12053.8347,W,1,09,0.8,13.6,M,-31.4,M,,*63
$PYRTM,2024,124.750246675544,15.859894085694
$GPGGA,180020.00,3521.4805,N,12053.8350,W,1,09,0.8,13.6,M,-31.4,M,,*6C
$PYRTM,2024,124.750258264387,15.859905674525
$GPGGA,180021.00,3521.4807,N,12053.8355,W,1,09,0.8,13.6,M,-31.4,M,,*6A
$PYRTM,2024,124.750269822801,15.859917232940
$GPGGA,180022.00,3521.4809,N,12053.8361,W,1,09,0.8,13.7,M,-31.4,M,,*61
$PYRTM,2024,124.750281414340,15.859928824479
$GPGGA,180023.00,3521.4809,N,12053.8365,W,1,09,0.8,13.7,M,-31.4,M,,*64
$PYRTM,2024,124.750292970405,15.859940380544
$GPGGA,180024.00,3521.4805,N,12053.8368,W,1,09,0.8,13.7,M,-31.4,M,,*62
$PYRTM,2024,124.750300377581,15.859947787720
$GPGGA,180025.00,3521.4803,N,12053.8371,W,1,09,0.8,13.7,M,-31.4,M,,*6D
$PYRTM,2024,124.750312067905,15.859959478056
$GPGGA,180026.00,3521.4804,N,12053.8374,W,1,09,0.8,13.7,M,-31.4,M,,*6C
$PYRTM,2024,124.750323649051,15.859971059190
$GPGGA,180027.00,3521.4806,N,12053.8380,W,1,09,0.8,13.7,M,-31.4,M,,*64
$PYRTM,2024,124.750339267616,15.859986677755
$GPGGA,180028.00,3521.4807,N,12053.8385,W,1,09,0.8,13.7,M,-31.4,M,,*6F
$PYRTM,2024,124.750346674769,15.859994084907
$GPGGA,180029.00,3521.4805,N,12053.8388,W,1,09,0.8,13.7,M,-31.4,M,,*61
$PYRTM,2024,124.750362415127,15.860009825266
$GPGGA,180030.00,3521.4802,N,12053.8391,W,1,09,0.8,13.6,M,-31.4,M,,*67
$PYRTM,2024,124.750374003981,15.860021414120
$GPGGA,180031.00,3521.4802,N,12053.8394,W,1,09,0.8,13.6,M,-31.4,M,,*63
$PYRTM,2024,124.750385565833,15.860032975972
$GPGGA,180032.00,3521.4804,N,12053.8399,W,1,09,0.8,13.7,M,-31.4,M,,*6A
$PYRTM,2024,124.750392971979,15.860040382118
$GPGGA,180033.00,3521.4805,N,12053.8403,W,1,09,0.8,13.8,M,-31.4,M,,*61
$PYRTM,2024,124.750408712049,15.860056122188
$GPGGA,180034.00,3521.4805,N,12053.8407,W,1,09,0.8,13.9,M,-31.4,M,,*63
$PYRTM,2024,124.750420299491,15.860067709641
$GPGGA,180035.00,3521.4802,N,12053.8411,W,1,09,0.8,13.9,M,-31.4,M,,*62
$PYRTM,2024,124.750431862465,15.860079272604
$GPGGA,180036.00,3521.4800,N,12053.8415,W,1,09,0.8,13.9,M,-31.4,M,,*67
$PYRTM,2024,124.750443463565,15.860090873704
$GPGGA,180037.00,3521.4800,N,12053.8419,W,1,09,0.8,13.9,M,-31.4,M,,*6A
$PYRTM,2024,124.750455009421,15.860102419560
$GPGGA,180038.00,3521.4802,N,12053.8422,W,1,09,0.8,14.0,M,-31.4,M,,*61
$PYRTM,2024,124.750466600417,15.860114010556
$GPGGA,180039.00,3521.4802,N,12053.8426,W,1,09,0.8,14.1,M,-31.4,M,,*65
$PYRTM,2024,124.750473991771,15.860121401910
$GPGGA,180040.00,3521.4800,N,12053.8431,W,1,09,0.8,14.1,M,-31.4,M,,*6F
$PYRTM,2024,124.750489743484,15.860137153623
$GPGGA,180041.00,3521.4797,N,12053.8434,W,1,09,0.8,14.0,M,-31.4,M,,*6B
$PYRTM,2024,124.750501305625,15.860148715764
$GPGGA,180042.00,3521.4798,N,12053.8436,W,1,09,0.8,14.0,M,-31.4,M,,*65
$PYRTM,2024,124.750512889005,15.860160299144
$GPGGA,180043.00,3521.4799,N,12053.8440,W,1,09,0.8,14.0,M,-31.4,M,,*64
$PYRTM,2024,124.750524452917,15.860171863056
$GPGGA,180044.00,3521.4799,N,12053.8446,W,1,09,0.8,14.0,M,-31.4,M,,*65
$PYRTM,2024,124.750531862546,15.860179272685
$GPGGA,180045.00,3521.4797,N,12053.8449,W,1,09,0.8,14.0,M,-31.4,M,,*65
$PYRTM,2024,124.750547600660,15.860195010799
$GPGGA,180046.00,3521.4796,N,12053.8452,W,1,09,0.8,14.0,M,-31.4,M,,*6D
$PYRTM,2024,124.750555008657,15.860202418796
$GPGGA,180047.00,3521.4796,N,12053.8455,W,1,09,0.8,14.0,M,-31.4,M,,*6B
$PYRTM,2024,124.750573664711,15.860221074850
$GPGGA,180048.00,3521.4795,N,12053.8460,W,1,09,0.8,14.1,M,-31.4,M,,*60
$PYRTM,2024,124.750582337292,15.860229747442
$GPGGA,180049.00,3521.4795,N,12053.8465,W,1,09,0.8,14.0,M,-31.4,M,,*65
$PYRTM,2024,124.750593898275,15.860241308414
$GPGGA,180050.00,3521.4794,N,12053.8468,W,1,09,0.8,14.0,M,-31.4,M,,*61
$PYRTM,2024,124.750605486227,15.860252896366
$GPGGA,180051.00,3521.4794,N,12053.8470,W,1,09,0.8,14.0,M,-31.4,M,,*69
$PYRTM,2024,124.750612880023,15.860260290162
$GPGGA,180052.00,3521.4793,N,12053.8474,W,1,09,0.8,14.1,M,-31.4,M,,*68
$PYRTM,2024,124.750628648472,15.860276058611
$GPGGA,180053.00,3521.4792,N,12053.8479,W,1,09,0.8,14.1,M,-31.4,M,,*65
$PYRTM,2024,124.750640196053,15.860287606192
$GPGGA,180054.00,3521.4791,N,12053.8484,W,1,09,0.8,14.1,M,-31.4,M,,*63
$PYRTM,2024,124.750647601597,15.860295011736
$GPGGA,180055.00,3521.4790,N,12053.8486,W,1,09,0.8,14.1,M,-31.4,M,,*61
$PYRTM,2024,124.750663342847,15.860310752986
$GPGGA,180056.00,3521.4790,N,12053.8489,W,1,09,0.8,14.1,M,-31.4,M,,*6D
$PYRTM,2024,124.750674931238,15.860322341377
$GPGGA,180057.00,3521.4790,N,12053.8493,W,1,09,0.8,14.1,M,-31.4,M,,*67
$PYRTM,2024,124.750686491516,15.860333901667
$GPGGA,180058.00,3521.4789,N,12053.8497,W,1,09,0.8,14.1,M,-31.4,M,,*64
$PYRTM,2024,124.750698081331,15.860345491470
$GPGGA,180059.00,3521.4788,N,12053.8501,W,1,09,0.8,14.2,M,-31.4,M,,*69
$PYRTM,2024,124.750709639884,15.860357050023
$GPGGA,180100.00,3521.4787,N,12053.8504,W,1,09,0.8,14.2,M,-31.4,M,,*6E
$PYRTM,2024,124.750717048368,15.860364458519
$GPGGA,180101.00,3521.4787,N,12053.8507,W,1,09,0.8,14.2,M,-31.4,M,,*6C
$PYRTM,2024,124.750732788148,15.860380198287
$GPGGA,180102.00,3521.4787,N,12053.8511,W,1,09,0.8,14.3,M,-31.4,M,,*69
$PYRTM,2024,124.750744375394,15.860391785532
$GPGGA,180103.00,3521.4786,N,12053.8514,W,1,09,0.8,14.3,M,-31.4,M,,*6C
$PYRTM,2024,124.750751771111,15.860399181250
$GPGGA,180104.00,3521.4785,N,12053.8518,W,1,09,0.8,14.3,M,-31.4,M,,*64
$PYRTM,2024,124.750763470301,15.860410880440
$GPGGA,180105.00,3521.4784,N,12053.8522,W,1,09,0.8,14.3,M,-31.4,M,,*6D
$PYRTM,2024,124.750779084086,15.860426494225
$GPGGA,180106.00,3521.4783,N,12053.8525,W,1,09,0.8,14.3,M,-31.4,M,,*6E
$PYRTM,2024,124.750786491852,15.860433902002
$GPGGA,180107.00,3521.4783,N,12053.8528,W,1,09,0.8,14.3,M,-31.4,M,,*62
$PYRTM,2024,124.750802233380,15.860449643519
$GPGGA,180108.00,3521.4783,N,12053.8532,W,1,09,0.8,14.3,M,-31.4,M,,*66
$PYRTM,2024,124.750813822847,15.860461232986
$GPGGA,180109.00,3521.4782,N,12053.8536,W,1,09,0.8,14.3,M,-31.4,M,,*62
$PYRTM,2024,124.750825382292,15.860472792431
$GPGGA,180110.00,3521.4781,N,12053.8539,W,1,09,0.8,14.3,M,-31.4,M,,*66
$PYRTM,2024,124.750836972905,15.860484383044
$GPGGA,180111.00,3521.4779,N,12053.8543,W,1,09,0.8,14.3,M,-31.4,M,,*6D
$PYRTM,2024,124.750848528866,15.860495939005
$GPGGA,180112.00,3521.4779,N,12053.8546,W,1,09,0.8,14.3,M,-31.4,M,,*6B
$PYRTM,2024,124.750860111713,15.860507521852
$GPGGA,180113.00,3521.4779,N,12053.8549,W,1,09,0.8,14.3,M,-31.4,M,,*65
$PYRTM,2024,124.750871677431,15.860519087569
$GPGGA,180114.00,3521.4779,N,12053.8552,W,1,09,0.8,14.3,M,-31.4,M,,*68
$PYRTM,2024,124.750883264213,15.860530674352
$GPGGA,180115.00,3521.4778,N,12053.8555,W,1,09,0.8,14.3,M,-31.4,M,,*6F
$PYRTM,2024,124.750894826204,15.860542236343
$GPGGA,180116.00,3521.4776,N,12053.8559,W,1,09,0.8,14.3,M,-31.4,M,,*6E
$PYRTM,2024,124.750906413773,15.860553823912
$GPGGA,180117.00,3521.4775,N,12053.8562,W,1,09,0.8,14.3,M,-31.4,M,,*64
$PYRTM,2024,124.750913808275,15.860561218414
$GPGGA,180118.00,3521.4776,N,12053.8565,W,1,09,0.8,14.3,M,-31.4,M,,*6F
$PYRTM,2024,124.750932458461,15.860579868600
$GPGGA,180119.00,3521.4776,N,12053.8569,W,1,09,0.8,14.3,M,-31.4,M,,*62
$PYRTM,2024,124.750941123264,15.860588533403
$GPGGA,180120.00,3521.4774,N,12053.8573,W,1,09,0.8,14.3,M,-31.4,M,,*61
$PYRTM,2024,124.750952704248,15.860600114387
$GPGGA,180121.00,3521.4772,N,12053.8575,W,1,09,0.8,14.3,M,-31.4,M,,*60
$PYRTM,2024,124.750964270532,15.860611680671
$GPGGA,180122.00,3521.4772,N,12053.8578,W,1,09,0.8,14.3,M,-31.4,M,,*6E
$PYRTM,2024,124.750975858391,15.860623268542
$GPGGA,180123.00,3521.4772,N,12053.8582,W,1,09,0.8,14.4,M,-31.4,M,,*6D
$PYRTM,2024,124.750987419815,15.860634829954
$GPGGA,180124.00,3521.4772,N,12053.8587,W,1,09,0.8,14.3,M,-31.4,M,,*68
$PYRTM,2024,124.750999021019,15.860646431157
$GPGGA,180125.00,3521.4772,N,12053.8590,W,1,09,0.8,14.4,M,-31.4,M,,*68
$PYRTM,2024,124.751010567396,15.860657977535
$GPGGA,180126.00,3521.4770,N,12053.8592,W,1,09,0.8,14.4,M,-31.4,M,,*6B
$PYRTM,2024,124.751022157963,15.860669568102
$GPGGA,180127.00,3521.4770,N,12053.8595,W,1,09,0.8,14.4,M,-31.4,M,,*6D
$PYRTM,2024,124.751033716389,15.860681126528
$GPGGA,180128.00,3521.4770,N,12053.8599,W,1,09,0.8,14.4,M,-31.4,M,,*6E
$PYRTM,2024,124.751045298148,15.860692708287
$GPGGA,180129.00,3521.4770,N,12053.8603,W,1,09,0.8,14.4,M,-31.4,M,,*6F
$PYRTM,2024,124.751056863588,15.860704273727
$GPGGA,180130.00,3521.4769,N,12053.8606,W,1,09,0.8,14.4,M,-31.4,M,,*6A
$PYRTM,2024,124.751068452106,15.860715862245
$GPGGA,180131.00,3521.4768,N,12053.8609,W,1,09,0.8,14.5,M,-31.4,M,,*64
$PYRTM,2024,124.751075858889,15.860723269039
$GPGGA,180132.00,3521.4768,N,12053.8612,W,1,09,0.8,14.5,M,-31.4,M,,*6D
$PYRTM,2024,124.751087535694,15.860734945833
$GPGGA,180133.00,3521.4767,N,12053.8616,W,1,09,0.8,14.5,M,-31.4,M,,*67
$PYRTM,2024,124.751103160752,15.860750570891
$GPGGA,180134.00,3521.4767,N,12053.8619,W,1,09,0.8,14.5,M,-31.4,M,,*6F
$PYRTM,2024,124.751114749757,15.860762159896
$GPGGA,180135.00,3521.4766,N,12053.8622,W,1,09,0.8,14.5,M,-31.4,M,,*67
$PYRTM,2024,124.751126308252,15.860773718391
$GPGGA,180136.00,3521.4767,N,12053.8625,W,1,09,0.8,14.5,M,-31.4,M,,*62
$PYRTM,2024,124.751137896007,15.860785306146
$GPGGA,180137.00,3521.4766,N,12053.8628,W,1,09,0.8,14.5,M,-31.4,M,,*6F
$PYRTM,2024,124.751149459097,15.860796869236
$GPGGA,180138.00,3521.4765,N,12053.8632,W,1,09,0.8,14.5,M,-31.4,M,,*68
$PYRTM,2024,124.751161045012,15.860808455150
$GPGGA,180139.00,3521.4763,N,12053.8635,W,1,09,0.8,14.5,M,-31.4,M,,*68
$PYRTM,2024,124.751172605903,15.860820016053
$GPGGA,180140.00,3521.4763,N,12053.8637,W,1,09,0.8,14.5,M,-31.4,M,,*64
$PYRTM,2024,124.751184206794,15.860831616933
$GPGGA,180141.00,3521.4764,N,12053.8640,W,1,10,0.8,14.5,M,-31.4,M,,*6A
$PYRTM,2024,124.751191588079,15.860838998218
$GPGGA,180142.00,3521.4764,N,12053.8645,W,1,10,0.8,14.5,M,-31.4,M,,*6C
$PYRTM,2024,124.751207356319,15.860854766470
$GPGGA,180143.00,3521.4763,N,12053.8649,W,1,10,0.8,14.5,M,-31.4,M,,*66
$PYRTM,2024,124.751214736655,15.860862146794
$GPGGA,180144.00,3521.4761,N,12053.8651,W,1,10,0.8,14.5,M,-31.4,M,,*6A
$PYRTM,2024,124.751226426308,15.860873836447
$GPGGA,180145.00,3521.4760,N,12053.8653,W,1,10,0.8,14.5,M,-31.4,M,,*68
$PYRTM,2024,124.751242052164,15.860889462303
$GPGGA,180146.00,3521.4760,N,12053.8657,W,1,10,0.8,14.5,M,-31.4,M,,*6F
$PYRTM,2024,124.751253637685,15.860901047836
$GPGGA,180147.00,3521.4761,N,12053.8661,W,1,10,0.8,14.5,M,-31.4,M,,*6A
$PYRTM,2024,124.751265198600,15.860912608738
$GPGGA,180148.00,3521.4761,N,12053.8664,W,1,10,0.8,14.5,M,-31.4,M,,*60
$PYRTM,2024,124.751272605231,15.860920015370
$GPGGA,180149.00,3521.4760,N,12053.8667,W,1,10,0.8,14.5,M,-31.4,M,,*63
$PYRTM,2024,124.751291241319,15.860938651458
$GPGGA,180150.00,3521.4758,N,12053.8670,W,1,10,0.8,14.5,M,-31.4,M,,*66
$PYRTM,2024,124.751299930220,15.860947340359
$GPGGA,180151.00,3521.4758,N,12053.8672,W,1,10,0.8,14.5,M,-31.4,M,,*65
$PYRTM,2024,124.751311494132,15.860958904271
$GPGGA,180152.00,3521.4758,N,12053.8674,W,1,10,0.8,14.5,M,-31.4,M,,*60
$PYRTM,2024,124.751323083380,15.860970493530
$GPGGA,180153.00,3521.4757,N,12053.8678,W,1,10,0.8,14.5,M,-31.4,M,,*62
$PYRTM,2024,124.751334644433,15.860982054572
$GPGGA,180154.00,3521.4756,N,12053.8682,W,1,10,0.8,14.5,M,-31.4,M,,*61
$PYRTM,2024,124.751342050799,15.860989460937
$GPGGA,180155.00,3521.4756,N,12053.8685,W,1,10,0.8,14.5,M,-31.4,M,,*67
$PYRTM,2024,124.751357792755,15.861005202894
$GPGGA,180156.00,3521.4756,N,12053.8688,W,1,10,0.8,14.5,M,-31.4,M,,*69
$PYRTM,2024,124.751369381308,15.861016791458
$GPGGA,180157.00,3521.4756,N,12053.8691,W,1,10,0.8,14.5,M,-31.4,M,,*60
$PYRTM,2024,124.751380941146,15.861028351296
$GPGGA,180158.00,3521.4754,N,12053.8693,W,1,10,0.8,14.5,M,-31.4,M,,*6F
$PYRTM,2024,124.751392540810,15.861039950949
$GPGGA,180159.00,3521.4753,N,12053.8696,W,1,10,0.8,14.5,M,-31.4,M,,*6C
$PYRTM,2024,124.751404087187,15.861051497326
$GPGGA,180200.00,3521.4752,N,12053.8699,W,1,10,0.8,14.5,M,-31.4,M,,*6D
$PYRTM,2024,124.751415674931,15.861063085069
$GPGGA,180201.00,3521.4752,N,12053.8704,W,1,10,0.8,14.5,M,-31.4,M,,*69
$PYRTM,2024,124.751427236169,15.861074646319
$GPGGA,180202.00,3521.4753,N,12053.8707,W,1,10,0.8,14.5,M,-31.4,M,,*68
$PYRTM,2024,124.751438823530,15.861086233669
$GPGGA,180203.00,3521.4754,N,12053.8709,W,1,10,0.8,14.5,M,-31.4,M,,*60
$PYRTM,2024,124.751450385787,15.861097795938
$GPGGA,180204.00,3521.4752,N,12053.8711,W,1,10,0.8,14.5,M,-31.4,M,,*68
$PYRTM,2024,124.751457793345,15.861105203484
$GPGGA,180205.00,3521.4750,N,12053.8713,W,1,10,0.8,14.5,M,-31.4,M,,*69
$PYRTM,2024,124.751473533958,15.861120944097
$GPGGA,180206.00,3521.4749,N,12053.8717,W,1,10,0.8,14.5,M,-31.4,M,,*66
$PYRTM,2024,124.751485120451,15.861132530590
$GPGGA,180207.00,3521.4750,N,12053.8722,W,1,10,0.8,14.5,M,-31.4,M,,*69
$PYRTM,2024,124.751496681007,15.861144091146
$GPGGA,180208.00,3521.4751,N,12053.8726,W,1,10,0.8,14.5,M,-31.4,M,,*63
$PYRTM,2024,124.751508267824,15.861155677963
$GPGGA,180209.00,3521.4751,N,12053.8727,W,1,10,0.8,14.5,M,-31.4,M,,*63
$PYRTM,2024,124.751515663727,15.861163073866
$GPGGA,180210.00,3521.4748,N,12053.8729,W,1,10,0.8,14.5,M,-31.4,M,,*6D
$PYRTM,2024,124.751531420671,15.861178830810
$GPGGA,180211.00,3521.4745,N,12053.8733,W,1,10,0.8,14.4,M,-31.4,M,,*6B
$PYRTM,2024,124.751542977292,15.861190387431
$GPGGA,180212.00,3521.4745,N,12053.8738,W,1,10,0.8,14.4,M,-31.4,M,,*63
$PYRTM,2024,124.751554567847,15.861201977986
$GPGGA,180213.00,3521.4747,N,12053.8741,W,1,10,0.8,14.4,M,-31.4,M,,*6E
$PYRTM,2024,124.751566124965,15.861213535104
$GPGGA,180214.00,3521.4747,N,12053.8743,W,1,10,0.8,14.4,M,-31.4,M,,*6B
$PYRTM,2024,124.751577717269,15.861225127407
$GPGGA,180215.00,3521.4745,N,12053.8746,W,1,10,0.8,14.4,M,-31.4,M,,*6D
$PYRTM,2024,124.751589276146,15.861236686285
$GPGGA,180216.00,3521.4743,N,12053.8750,W,1,10,0.8,14.5,M,-31.4,M,,*6E
$PYRTM,2024,124.751600863461,15.861248273600
$GPGGA,180217.00,3521.4742,N,12053.8752,W,1,10,0.8,14.5,M,-31.4,M,,*6C
$PYRTM,2024,124.751612424248,15.861259834387
$GPGGA,180218.00,3521.4743,N,12053.8754,W,1,10,0.8,14.5,M,-31.4,M,,*64
$PYRTM,2024,124.751624009688,15.861271419826
$GPGGA,180219.00,3521.4744,N,12053.8757,W,1,10,0.8,14.5,M,-31.4,M,,*61
$PYRTM,2024,124.751631421111,15.861278831250
$GPGGA,180220.00,3521.4745,N,12053.8761,W,1,10,0.8,14.5,M,-31.4,M,,*6F
$PYRTM,2024,124.751650051157,15.861297461296
$GPGGA,180221.00,3521.4743,N,12053.8765,W,1,10,0.8,14.5,M,-31.4,M,,*6C
$PYRTM,2024,124.751658720972,15.861306131111
$GPGGA,180222.00,3521.4740,N,12053.8766,W,1,10,0.8,14.5,M,-31.4,M,,*6F
$PYRTM,2024,124.751670305266,15.861317715405
$GPGGA,180223.00,3521.4740,N,12053.8768,W,1,10,0.8,14.5,M,-31.4,M,,*60
$PYRTM,2024,124.751681867870,15.861329278009
$GPGGA,180224.00,3521.4740,N,12053.8773,W,1,10,0.8,14.5,M,-31.4,M,,*6D
$PYRTM,2024,124.751689274630,15.861336684769
$GPGGA,180225.00,3521.4740,N,12053.8777,W,1,10,0.8,14.5,M,-31.4,M,,*68
$PYRTM,2024,124.751705015914,15.861352426053
$GPGGA,180226.00,3521.4740,N,12053.8780,W,1,10,0.8,14.5,M,-31.4,M,,*63
$PYRTM,2024,124.751716605347,15.861364015486
$GPGGA,180227.00,3521.4738,N,12053.8783,W,1,10,0.8,14.5,M,-31.4,M,,*6E
$PYRTM,2024,124.751728164560,15.861375574699
$GPGGA,180228.00,3521.4736,N,12053.8786,W,1,10,0.8,14.5,M,-31.4,M,,*6A
$PYRTM,2024,124.751739754398,15.861387164537
$GPGGA,180229.00,3521.4735,N,12053.8789,W,1,10,0.8,14.5,M,-31.4,M,,*67
$PYRTM,2024,124.751751312616,15.861398722755
$GPGGA,180230.00,3521.4736,N,12053.8793,W,1,10,0.8,14.5,M,-31.4,M,,*67
$PYRTM,2024,124.751762901250,15.861410311389
$GPGGA,180231.00,3521.4736,N,12053.8796,W,1,10,0.8,14.5,M,-31.4,M,,*63
$PYRTM,2024,124.751774461620,15.861421871759
$GPGGA,180232.00,3521.4736,N,12053.8799,W,1,10,0.8,14.6,M,-31.4,M,,*6C
$PYRTM,2024,124.751786047743,15.861433457882
$GPGGA,180233.00,3521.4733,N,12053.8801,W,1,10,0.8,14.6,M,-31.4,M,,*66
$PYRTM,2024,124.751797609641,15.861445019780
$GPGGA,180234.00,3521.4732,N,12053.8805,W,1,10,0.8,14.6,M,-31.4,M,,*64
$PYRTM,2024,124.751805016493,15.861452426632
$GPGGA,180235.00,3521.4733,N,12053.8809,W,1,10,0.8,14.6,M,-31.4,M,,*68
$PYRTM,2024,124.751820756250,15.861468166389
$GPGGA,180236.00,3521.4734,N,12053.8812,W,1,10,0.8,14.6,M,-31.4,M,,*66
$PYRTM,2024,124.751828164456,15.861475574595
$GPGGA,180237.00,3521.4733,N,12053.8814,W,1,10,0.8,14.6,M,-31.4,M,,*66
$PYRTM,2024,124.751846799028,15.861494209167
$GPGGA,180238.00,3521.4731,N,12053.8815,W,1,10,0.8,14.6,M,-31.4,M,,*6A
$PYRTM,2024,124.751855492465,15.861502902616
$GPGGA,180239.00,3521.4729,N,12053.8819,W,1,10,0.8,14.6,M,-31.4,M,,*6E
$PYRTM,2024,124.751862887025,15.861510297164
$GPGGA,180240.00,3521.4728,N,12053.8824,W,1,10,0.8,14.6,M,-31.4,M,,*6F
$PYRTM,2024,124.751878639803,15.861526049942
$GPGGA,180241.00,3521.4729,N,12053.8829,W,1,10,0.8,14.6,M,-31.4,M,,*62
$PYRTM,2024,124.751890200498,15.861537610637
$GPGGA,180242.00,3521.4730,N,12053.8832,W,1,10,0.8,14.6,M,-31.4,M,,*63
$PYRTM,2024,124.751901806019,15.861549216157
$GPGGA,180243.00,3521.4729,N,12053.8833,W,1,10,0.8,14.6,M,-31.4,M,,*6B
$PYRTM,2024,124.751913350127,15.861560760266
$GPGGA,180244.00,3521.4726,N,12053.8836,W,1,10,0.8,14.7,M,-31.4,M,,*67
$PYRTM,2024,124.751924940266,15.861572350405
$GPGGA,180245.00,3521.4724,N,12053.8840,W,1,10,0.8,14.7,M,-31.4,M,,*65
$PYRTM,2024,124.751936499178,15.861583909317
$GPGGA,180246.00,3521.4725,N,12053.8844,W,1,10,0.8,14.7,M,-31.4,M,,*63
$PYRTM,2024,124.751948084896,15.861595495035
$GPGGA,180247.00,3521.4727,N,12053.8847,W,1,10,0.8,14.7,M,-31.4,M,,*63
$PYRTM,2024,124.751959647141,15.861607057280
$GPGGA,180248.00,3521.4727,N,12053.8850,W,1,10,0.8,14.7,M,-31.4,M,,*6A
$PYRTM,2024,124.751971232836,15.861618642975
$GPGGA,180249.00,3521.4724,N,12053.8852,W,1,10,0.8,14.7,M,-31.4,M,,*6A
$PYRTM,2024,124.751978642986,15.861626053125
$GPGGA,180250.00,3521.4721,N,12053.8854,W,1,10,0.8,14.7,M,-31.4,M,,*61
$PYRTM,2024,124.751990317928,15.861637728067
$GPGGA,180251.00,3521.4721,N,12053.8857,W,1,10,0.8,14.7,M,-31.4,M,,*63
$PYRTM,2024,124.752008837604,15.861656247743
$GPGGA,180252.00,3521.4723,N,12053.8860,W,1,10,0.8,14.8,M,-31.4,M,,*69
$PYRTM,2024,124.752017529873,15.861664940012
$GPGGA,180253.00,3521.4724,N,12053.8865,W,1,10,0.8,14.8,M,-31.4,M,,*6A
$PYRTM,2024,124.752029093611,15.861676503750
$GPGGA,180254.00,3521.4723,N,12053.8869,W,1,10,0.8,14.8,M,-31.4,M,,*66
$PYRTM,2024,124.752040678808,15.861688088947
$GPGGA,180255.00,3521.4720,N,12053.8870,W,1,10,0.8,14.8,M,-31.4,M,,*6C
$PYRTM,2024,124.752052239051,15.861699649190
$GPGGA,180256.00,3521.4718,N,12053.8871,W,1,10,0.8,14.8,M,-31.4,M,,*65
$PYRTM,2024,124.752063822188,15.861711232326
$GPGGA,180257.00,3521.4719,N,12053.8874,W,1,10,0.8,14.8,M,-31.4,M,,*60
$PYRTM,2024,124.752075389213,15.861722799352
$GPGGA,180258.00,3521.4721,N,12053.8880,W,1,10,0.8,14.9,M,-31.4,M,,*6E
$PYRTM,2024,124.752086978588,15.861734388727
$GPGGA,180259.00,3521.4721,N,12053.8884,W,1,10,0.8,14.9,M,-31.4,M,,*6B
$PYRTM,2024,124.752094370787,15.861741780926
$GPGGA,180300.00,3521.4719,N,12053.8886,W,1,10,0.8,14.8,M,-31.4,M,,*6E
$PYRTM,2024,124.752110126991,15.861757537130
$GPGGA,180301.00,3521.4716,N,12053.8887,W,1,10,0.8,14.8,M,-31.4,M,,*61
$PYRTM,2024,124.752121686863,15.861769097002
$GPGGA,180302.00,3521.4715,N,12053.8889,W,1,10,0.8,14.8,M,-31.4,M,,*6F
$PYRTM,2024,124.752133271435,15.861780681574
$GPGGA,180303.00,3521.4715,N,12053.8893,W,1,10,0.8,14.8,M,-31.4,M,,*65
$PYRTM,2024,124.752144832303,15.861792242454
$GPGGA,180304.00,3521.4718,N,12053.8898,W,1,10,0.8,14.8,M,-31.4,M,,*64
$PYRTM,2024,124.752156415903,15.861803826042
$GPGGA,180305.00,3521.4719,N,12053.8902,W,1,10,0.8,14.9,M,-31.4,M,,*67
$PYRTM,2024,124.752167981493,15.861815391632
$GPGGA,180306.00,3521.4716,N,12053.8903,W,1,10,0.8,14.9,M,-31.4,M,,*6A
$PYRTM,2024,124.752179567789,15.861826977928
$GPGGA,180307.00,3521.4713,N,12053.8904,W,1,10,0.8,14.9,M,-31.4,M,,*69
$PYRTM,2024,124.752191130336,15.861838540475
$GPGGA,180308.00,3521.4711,N,12053.8906,W,1,10,0.8,14.9,M,-31.4,M,,*66
$PYRTM,2024,124.752198537338,15.861845947477
$GPGGA,180309.00,3521.4712,N,12053.8911,W,1,10,0.8,14.9,M,-31.4,M,,*62
$PYRTM,2024,124.752217172951,15.861864583102
$GPGGA,180310.00,3521.4713,N,12053.8916,W,1,10,0.8,14.9,M,-31.4,M,,*6C
$PYRTM,2024,124.752228759942,15.861876170081
$GPGGA,180311.00,3521.4715,N,12053.8919,W,1,10,0.8,14.8,M,-31.4,M,,*65
$PYRTM,2024,124.752237433380,15.861884843519
$GPGGA,180312.00,3521.4713,N,12053.8921,W,1,10,0.8,14.9,M,-31.4,M,,*6A
$PYRTM,2024,124.752244833889,15.861892244039
$GPGGA,180313.00,3521.4710,N,12053.8924,W,1,10,0.8,14.9,M,-31.4,M,,*6D
$PYRTM,2024,124.752260587199,15.861907997338
$GPGGA,180314.00,3521.4708,N,12053.8927,W,1,10,0.8,14.9,M,-31.4,M,,*60
$PYRTM,2024,124.752272163542,15.861919573681
$GPGGA,180315.00,3521.4708,N,12053.8930,W,1,10,0.8,14.9,M,-31.4,M,,*67
$PYRTM,2024,124.752283734583,15.861931144734
$GPGGA,180316.00,3521.4710,N,12053.8934,W,1,10,0.8,14.9,M,-31.4,M,,*69
$PYRTM,2024,124.752295311979,15.861942722118
$GPGGA,180317.00,3521.4711,N,12053.8937,W,1,10,0.8,14.9,M,-31.4,M,,*6A
$PYRTM,2024,124.752306883241,15.861954293380
$GPGGA,180318.00,3521.4710,N,12053.8939,W,1,10,0.8,14.9,M,-31.4,M,,*6A
$PYRTM,2024,124.752318457257,15.861965867396
$GPGGA,180319.00,3521.4708,N,12053.8941,W,1,10,0.8,14.9,M,-31.4,M,,*6D
$PYRTM,2024,124.752330031875,15.861977442014
$GPGGA,180320.00,3521.4707,N,12053.8945,W,1,10,0.8,14.9,M,-31.4,M,,*6C
$PYRTM,2024,124.752341607535,15.861989017674
$GPGGA,180321.00,3521.4706,N,12053.8948,W,1,10,0.8,14.9,M,-31.4,M,,*61
$PYRTM,2024,124.752349016134,15.861996426273
$GPGGA,180322.00,3521.4707,N,12053.8951,W,1,10,0.8,14.9,M,-31.4,M,,*6B
$PYRTM,2024,124.752367647569,15.862015057708
$GPGGA,180323.00,3521.4707,N,12053.8954,W,1,10,0.8,14.9,M,-31.4,M,,*6F
$PYRTM,2024,124.752376323715,15.862023733854
$GPGGA,180324.00,3521.4707,N,12053.8957,W,1,10,0.8,14.9,M,-31.4,M,,*6B
$PYRTM,2024,124.752387902778,15.862035312917
$GPGGA,180325.00,3521.4706,N,12053.8961,W,1,10,0.8,14.9,M,-31.4,M,,*6E
$PYRTM,2024,124.752399471331,15.862046881470
$GPGGA,180326.00,3521.4706,N,12053.8963,W,1,10,0.8,14.9,M,-31.4,M,,*6F
$PYRTM,2024,124.752411051308,15.862058461447
$GPGGA,180327.00,3521.4705,N,12053.8965,W,1,10,0.8,14.9,M,-31.4,M,,*6B
$PYRTM,2024,124.752422625984,15.862070036123
$GPGGA,180328.00,3521.4704,N,12053.8968,W,1,10,0.8,14.9,M,-31.4,M,,*68
$PYRTM,2024,124.752434199421,15.862081609560
$GPGGA,180329.00,3521.4704,N,12053.8973,W,1,10,0.8,14.9,M,-31.4,M,,*63
$PYRTM,2024,124.752441595231,15.862089005370
$GPGGA,180330.00,3521.4704,N,12053.8977,W,1,10,0.8,14.9,M,-31.4,M,,*6F
$PYRTM,2024,124.752457350162,15.862104760301
$GPGGA,180331.00,3521.4705,N,12053.8980,W,1,10,0.8,14.9,M,-31.4,M,,*67
$PYRTM,2024,124.752468921933,15.862116332072
$GPGGA,180332.00,3521.4705,N,12053.8981,W,1,10,0.8,14.9,M,-31.4,M,,*65
$PYRTM,2024,124.752480498264,15.862127908403
$GPGGA,180333.00,3521.4703,N,12053.8984,W,1,10,0.8,14.9,M,-31.4,M,,*67
$PYRTM,2024,124.752492069560,15.862139479699
$GPGGA,180334.00,3521.4702,N,12053.8989,W,1,10,0.8,14.9,M,-31.4,M,,*6C
$PYRTM,2024,124.752503646620,15.862151056771
$GPGGA,180335.00,3521.4703,N,12053.8992,W,1,10,0.8,14.9,M,-31.4,M,,*66
$PYRTM,2024,124.752515218090,15.862162628241
$GPGGA,180336.00,3521.4705,N,12053.8995,W,1,10,0.8,14.8,M,-31.4,M,,*65
$PYRTM,2024,124.752526792650,15.862174202789
$GPGGA,180337.00,3521.4705,N,12053.8997,W,1,10,0.8,14.9,M,-31.4,M,,*67
$PYRTM,2024,124.752538362998,15.862185773137
$GPGGA,180338.00,3521.4703,N,12053.9001,W,1,10,0.8,14.8,M,-31.4,M,,*68
$PYRTM,2024,124.752549940602,15.862197350741
$GPGGA,180339.00,3521.4702,N,12053.9004,W,1,10,0.8,14.8,M,-31.4,M,,*6D
$PYRTM,2024,124.752557335417,15.862204745556
$GPGGA,180340.00,3521.4702,N,12053.9007,W,1,10,0.8,14.8,M,-31.4,M,,*60
$PYRTM,2024,124.752573088032,15.862220498171
$GPGGA,180341.00,3521.4703,N,12053.9010,W,1,10,0.8,14.8,M,-31.4,M,,*66
$PYRTM,2024,124.752580483981,15.862227894120
$GPGGA,180342.00,3521.4704,N,12053.9014,W,1,10,0.8,14.8,M,-31.4,M,,*66
$PYRTM,2024,124.752596237859,15.862243647998
$GPGGA,180343.00,3521.4703,N,12053.9017,W,1,10,0.8,14.8,M,-31.4,M,,*63
$PYRTM,2024,124.752607810718,15.862255220856
$GPGGA,180344.00,3521.4703,N,12053.9020,W,1,10,0.8,14.8,M,-31.4,M,,*60
$PYRTM,2024,124.752615207350,15.862262617488
$GPGGA,180345.00,3521.4702,N,12053.9023,W,1,10,0.8,14.8,M,-31.4,M,,*63
$PYRTM,2024,124.752630959433,15.862278369583
$GPGGA,180346.00,3521.4702,N,12053.9027,W,1,10,0.8,14.8,M,-31.4,M,,*64
$PYRTM,2024,124.752642547755,15.862289957894
$GPGGA,180347.00,3521.4702,N,12053.9031,W,1,10,0.8,14.8,M,-31.4,M,,*62
$PYRTM,2024,124.752654107338,15.862301517477
$GPGGA,180348.00,3521.4703,N,12053.9034,W,1,10,0.8,14.8,M,-31.4,M,,*69
$PYRTM,2024,124.752665684491,15.862313094630
$GPGGA,180349.00,3521.4704,N,12053.9036,W,1,10,0.8,14.8,M,-31.4,M,,*6D
$PYRTM,2024,124.752673075752,15.862320485891
$GPGGA,180350.00,3521.4705,N,12053.9039,W,1,10,0.8,14.8,M,-31.4,M,,*6B
$PYRTM,2024,124.752688830544,15.862336240683
$GPGGA,180351.00,3521.4704,N,12053.9043,W,1,10,0.8,14.7,M,-31.4,M,,*69
$PYRTM,2024,124.752700402905,15.862347813044
$GPGGA,180352.00,3521.4703,N,12053.9046,W,1,10,0.8,14.7,M,-31.4,M,,*68
$PYRTM,2024,124.752707798206,15.862355208345
$GPGGA,180353.00,3521.4703,N,12053.9049,W,1,10,0.8,14.7,M,-31.4,M,,*66
$PYRTM,2024,124.752726432766,15.862373842905
$GPGGA,180354.00,3521.4704,N,12053.9051,W,1,10,0.8,14.7,M,-31.4,M,,*6F
$PYRTM,2024,124.752738020463,15.862385430602
$GPGGA,180355.00,3521.4707,N,12053.9054,W,1,10,0.8,14.7,M,-31.4,M,,*68
$PYRTM,2024,124.752749581597,15.862396991736
$GPGGA,180356.00,3521.4707,N,12053.9059,W,1,10,0.8,14.7,M,-31.4,M,,*66
$PYRTM,2024,124.752758277431,15.862405687569
$GPGGA,180357.00,3521.4705,N,12053.9062,W,1,10,0.8,14.7,M,-31.4,M,,*6D
$PYRTM,2024,124.752769849398,15.862417259537
$GPGGA,180358.00,3521.4703,N,12053.9065,W,1,10,0.8,14.7,M,-31.4,M,,*63
$PYRTM,2024,124.752781423137,15.862428833275
$GPGGA,180359.00,3521.4704,N,12053.9068,W,1,10,0.8,14.7,M,-31.4,M,,*68
$PYRTM,2024,124.752788820845,15.862436230984
$GPGGA,180400.00,3521.4706,N,12053.9072,W,1,10,0.8,14.6,M,-31.4,M,,*6B
$PYRTM,2024,124.752804570868,15.862451981007
$GPGGA,180401.00,3521.4708,N,12053.9075,W,1,10,0.8,14.7,M,-31.4,M,,*62
$PYRTM,2024,124.752816144861,15.862463555000
$GPGGA,180402.00,3521.4708,N,12053.9079,W,1,10,0.8,14.6,M,-31.4,M,,*6C
$PYRTM,2024,124.752823541435,15.862470951574
$GPGGA,180403.00,3521.4706,N,12053.9082,W,1,10,0.8,14.6,M,-31.4,M,,*67
$PYRTM,2024,124.752839294421,15.862486704560
$GPGGA,180404.00,3521.4705,N,12053.9085,W,1,10,0.8,14.6,M,-31.4,M,,*64
$PYRTM,2024,124.752846688750,15.862494098900
$GPGGA,180405.00,3521.4707,N,12053.9088,W,1,10,0.8,14.6,M,-31.4,M,,*6A
$PYRTM,2024,124.752862443333,15.862509853472
$GPGGA,180406.00,3521.4710,N,12053.9092,W,1,10,0.8,14.6,M,-31.4,M,,*64
$PYRTM,2024,124.752874016134,15.862521426273
$GPGGA,180407.00,3521.4711,N,12053.9096,W,1,10,0.8,14.6,M,-31.4,M,,*60
$PYRTM,2024,124.752885590150,15.862533000289
$GPGGA,180408.00,3521.4709,N,12053.9098,W,1,10,0.8,14.6,M,-31.4,M,,*68
$PYRTM,2024,124.752897163646,15.862544573785
$GPGGA,180409.00,3521.4707,N,12053.9101,W,1,10,0.8,14.6,M,-31.4,M,,*66
$PYRTM,2024,124.752908738472,15.862556148611
$GPGGA,180410.00,3521.4708,N,12053.9105,W,1,10,0.8,14.6,M,-31.4,M,,*65
$PYRTM,2024,124.752920311632,15.862567721759
$GPGGA,180411.00,3521.4710,N,12053.9109,W,1,10,0.8,14.6,M,-31.4,M,,*61
$PYRTM,2024,124.752931892963,15.862579303090
$GPGGA,180412.00,3521.4712,N,12053.9113,W,1,10,0.8,14.6,M,-31.4,M,,*6B
$PYRTM,2024,124.752943461458,15.862590871597
$GPGGA,180413.00,3521.4711,N,12053.9115,W,1,10,0.8,14.6,M,-31.4,M,,*6F
$PYRTM,2024,124.752955034398,15.862602444537
$GPGGA,180414.00,3521.4709,N,12053.9118,W,1,10,0.8,14.6,M,-31.4,M,,*6C
$PYRTM,2024,124.752962429213,15.862609839352
$GPGGA,180415.00,3521.4709,N,12053.9122,W,1,10,0.8,14.5,M,-31.4,M,,*67
$PYRTM,2024,124.752978182558,15.862625592697
$GPGGA,180416.00,3521.4711,N,12053.9126,W,1,10,0.8,14.5,M,-31.4,M,,*69
$PYRTM,2024,124.752989772095,15.862637182234
$GPGGA,180417.00,3521.4712,N,12053.9130,W,1,10,0.8,14.5,M,-31.4,M,,*6C
$PYRTM,2024,124.753001332257,15.862648742396
$GPGGA,180418.00,3521.4713,N,12053.9133,W,1,10,0.8,14.5,M,-31.4,M,,*61
$PYRTM,2024,124.753012920637,15.862660330775
$GPGGA,180419.00,3521.4712,N,12053.9137,W,1,10,0.8,14.5,M,-31.4,M,,*65
$PYRTM,2024,124.753024479537,15.862671889676
$GPGGA,180420.00,3521.4712,N,12053.9140,W,1,10,0.8,14.5,M,-31.4,M,,*6F
$PYRTM,2024,124.753036068507,15.862683478646
$GPGGA,180421.00,3521.4712,N,12053.9145,W,1,10,0.8,14.5,M,-31.4,M,,*6B
$PYRTM,2024,124.753047627627,15.862695037766
$GPGGA,180422.00,3521.4714,N,12053.9148,W,1,10,0.8,14.5,M,-31.4,M,,*63
$PYRTM,2024,124.753059203449,15.862706613588
$GPGGA,180423.00,3521.4715,N,12053.9151,W,1,10,0.8,14.5,M,-31.4,M,,*6B
$PYRTM,2024,124.753066611551,15.862714021690
$GPGGA,180424.00,3521.4714,N,12053.9154,W,1,10,0.8,14.5,M,-31.4,M,,*68
$PYRTM,2024,124.753085243889,15.862732654028
$GPGGA,180425.00,3521.4714,N,12053.9157,W,1,10,0.8,14.5,M,-31.4,M,,*6A
$PYRTM,2024,124.753093925266,15.862741335405
$GPGGA,180426.00,3521.4715,N,12053.9160,W,1,10,0.8,14.5,M,-31.4,M,,*6C
$PYRTM,2024,124.753105498889,15.862752909028
$GPGGA,180427.00,3521.4715,N,12053.9164,W,1,10,0.8,14.5,M,-31.4,M,,*69
$PYRTM,2024,124.753112895127,15.862760305266
$GPGGA,180428.00,3521.4715,N,12053.9168,W,1,10,0.8,14.5,M,-31.4,M,,*6A
$PYRTM,2024,124.753128647292,15.862776057431
$GPGGA,180429.00,3521.4715,N,12053.9171,W,1,10,0.8,14.5,M,-31.4,M,,*63
$PYRTM,2024,124.753140221262,15.862787631400
$GPGGA,180430.00,3521.4715,N,12053.9174,W,1,10,0.8,14.5,M,-31.4,M,,*6E
$PYRTM,2024,124.753151796829,15.862799206968
$GPGGA,180431.00,3521.4715,N,12053.9177,W,1,10,0.8,14.5,M,-31.4,M,,*6C
$PYRTM,2024,124.753163369641,15.862810779780
$GPGGA,180432.00,3521.4715,N,12053.9182,W,1,10,0.8,14.4,M,-31.4,M,,*64
$PYRTM,2024,124.753170764340,15.862818174479
$GPGGA,180433.00,3521.4715,N,12053.9186,W,1,10,0.8,14.4,M,-31.4,M,,*61
$PYRTM,2024,124.753186517269,15.862833927419
$GPGGA,180434.00,3521.4715,N,12053.9190,W,1,10,0.8,14.4,M,-31.4,M,,*61
$PYRTM,2024,124.753198106701,15.862845516852
$GPGGA,180435.00,3521.4716,N,12053.9192,W,1,10,0.8,14.4,M,-31.4,M,,*61
$PYRTM,2024,124.753209665486,15.862857075625
$GPGGA,180436.00,3521.4717,N,12053.9195,W,1,10,0.8,14.4,M,-31.4,M,,*64
$PYRTM,2024,124.753221255266,15.862868665405
$GPGGA,180437.00,3521.4717,N,12053.9200,W,1,10,0.8,14.5,M,-31.4,M,,*6B
$PYRTM,2024,124.753232814167,15.862880224306
$GPGGA,180438.00,3521.4716,N,12053.9205,W,1,10,0.8,14.4,M,-31.4,M,,*61
$PYRTM,2024,124.753244389178,15.862891799317
$GPGGA,180439.00,3521.4715,N,12053.9206,W,1,10,0.8,14.4,M,-31.4,M,,*60
$PYRTM,2024,124.753255962222,15.862903372361
$GPGGA,180440.00,3521.4715,N,12053.9208,W,1,10,0.8,14.4,M,-31.4,M,,*60
$PYRTM,2024,124.753263357454,15.862910767593
$GPGGA,180441.00,3521.4717,N,12053.9212,W,1,10,0.8,14.5,M,-31.4,M,,*69
$PYRTM,2024,124.753279110486,15.862926520625
$GPGGA,180442.00,3521.4718,N,12053.9217,W,1,10,0.8,14.5,M,-31.4,M,,*60
$PYRTM,2024,124.753290687488,15.862938097627
$GPGGA,180443.00,3521.4718,N,12053.9222,W,1,10,0.8,14.5,M,-31.4,M,,*67
$PYRTM,2024,124.753302259456,15.862949669595
$GPGGA,180444.00,3521.4716,N,12053.9223,W,1,10,0.8,14.4,M,-31.4,M,,*6E
$PYRTM,2024,124.753313832373,15.862961242512
$GPGGA,180445.00,3521.4715,N,12053.9225,W,1,10,0.8,14.4,M,-31.4,M,,*6A
$PYRTM,2024,124.753325407523,15.862972817662
$GPGGA,180446.00,3521.4716,N,12053.9229,W,1,10,0.8,14.4,M,-31.4,M,,*66
$PYRTM,2024,124.753332801713,15.862980211852
$GPGGA,180447.00,3521.4717,N,12053.9234,W,1,10,0.8,14.4,M,-31.4,M,,*6A
$PYRTM,2024,124.753351437442,15.862998847581
$GPGGA,180448.00,3521.4718,N,12053.9239,W,1,10,0.8,14.4,M,-31.4,M,,*67
$PYRTM,2024,124.753360133889,15.863007544028
$GPGGA,180449.00,3521.4718,N,12053.9241,W,1,10,0.8,14.4,M,-31.4,M,,*69
$PYRTM,2024,124.753371699005,15.863019109144
$GPGGA,180450.00,3521.4717,N,12053.9242,W,1,10,0.8,14.4,M,-31.4,M,,*6D
$PYRTM,2024,124.753383292060,15.863030702199
$GPGGA,180451.00,3521.4717,N,12053.9245,W,1,10,0.8,14.5,M,-31.4,M,,*6A
$PYRTM,2024,124.753394853426,15.863042263565
$GPGGA,180452.00,3521.4717,N,12053.9249,W,1,10,0.8,14.5,M,-31.4,M,,*65
$PYRTM,2024,124.753402248113,15.863049658252
$GPGGA,180453.00,3521.4717,N,12053.9253,W,1,10,0.8,14.5,M,-31.4,M,,*6F
$PYRTM,2024,124.753417994155,15.863065404294
$GPGGA,180454.00,3521.4717,N,12053.9257,W,1,10,0.8,14.5,M,-31.4,M,,*6C
$PYRTM,2024,124.753425395394,15.863072805532
$GPGGA,180455.00,3521.4718,N,12053.9260,W,1,10,0.8,14.5,M,-31.4,M,,*66
$PYRTM,2024,124.753444029433,15.863091439572
$GPGGA,180456.00,3521.4717,N,12053.9262,W,1,10,0.8,14.5,M,-31.4,M,,*68
$PYRTM,2024,124.753452722535,15.863100132674
$GPGGA,180457.00,3521.4716,N,12053.9265,W,1,10,0.8,14.5,M,-31.4,M,,*6F
$PYRTM,2024,124.753464296678,15.863111706817
$GPGGA,180458.00,3521.4717,N,12053.9269,W,1,10,0.8,14.5,M,-31.4,M,,*6D
$PYRTM,2024,124.753475871725,15.863123281863
$GPGGA,180459.00,3521.4718,N,12053.9273,W,1,10,0.8,14.5,M,-31.4,M,,*68
$PYRTM,2024,124.753487445706,15.863134855856
$GPGGA,180500.00,3521.4718,N,12053.9277,W,1,10,0.8,14.5,M,-31.4,M,,*61
$PYRTM,2024,124.753499020394,15.863146430532
$GPGGA,180501.00,3521.4716,N,12053.9280,W,1,10,0.8,14.4,M,-31.4,M,,*67
$PYRTM,2024,124.753510595914,15.863158006053
$GPGGA,180502.00,3521.4715,N,12053.9283,W,1,10,0.8,14.4,M,-31.4,M,,*64
$PYRTM,2024,124.753517988449,15.863165398600
$GPGGA,180503.00,3521.4715,N,12053.9287,W,1,10,0.8,14.4,M,-31.4,M,,*61
$PYRTM,2024,124.753533742465,15.863181152604
$GPGGA,180504.00,3521.4717,N,12053.9291,W,1,10,0.8,14.5,M,-31.4,M,,*62
$PYRTM,2024,124.753545330671,15.863192740810
$GPGGA,180505.00,3521.4718,N,12053.9294,W,1,10,0.8,14.5,M,-31.4,M,,*69
$PYRTM,2024,124.753556889757,15.863204299896
$GPGGA,180506.00,3521.4716,N,12053.9297,W,1,10,0.8,14.5,M,-31.4,M,,*67
$PYRTM,2024,124.753568467014,15.863215877153
$GPGGA,180507.00,3521.4714,N,12053.9301,W,1,10,0.8,14.5,M,-31.4,M,,*6A
$PYRTM,2024,124.753575858970,15.863223269109
$GPGGA,180508.00,3521.4713,N,12053.9306,W,1,10,0.8,14.5,M,-31.4,M,,*65
$PYRTM,2024,124.753591612755,15.863239022894
$GPGGA,180509.00,3521.4715,N,12053.9309,W,1,10,0.8,14.5,M,-31.4,M,,*6D
$PYRTM,2024,124.753603186944,15.863250597083
$GPGGA,180510.00,3521.4718,N,12053.9311,W,1,10,0.8,14.5,M,-31.4,M,,*61
$PYRTM,2024,124.753610582095,15.863257992234
$GPGGA,180511.00,3521.4718,N,12053.9314,W,1,10,0.8,14.6,M,-31.4,M,,*66
$PYRTM,2024,124.753626334815,15.863273744954
$GPGGA,180512.00,3521.4715,N,12053.9318,W,1,10,0.8,14.6,M,-31.4,M,,*64
$PYRTM,2024,124.753637909745,15.863285319884
$GPGGA,180513.00,3521.4714,N,12053.9323,W,1,10,0.8,14.6,M,-31.4,M,,*6C
$PYRTM,2024,124.753649483750,15.863296893889
$GPGGA,180514.00,3521.4714,N,12053.9326,W,1,10,0.8,14.6,M,-31.4,M,,*6E
$PYRTM,2024,124.753661058634,15.863308468773
$GPGGA,180515.00,3521.4716,N,12053.9330,W,1,10,0.8,14.6,M,-31.4,M,,*6A
$PYRTM,2024,124.753672632280,15.863320042431
$GPGGA,180516.00,3521.4717,N,12053.9333,W,1,10,0.8,14.7,M,-31.4,M,,*6A
$PYRTM,2024,124.753684205741,15.863331615880
$GPGGA,180517.00,3521.4715,N,12053.9335,W,1,10,0.8,14.7,M,-31.4,M,,*6F
$PYRTM,2024,124.753695779630,15.863343189769
$GPGGA,180518.00,3521.4714,N,12053.9339,W,1,10,0.8,14.7,M,-31.4,M,,*6D
$PYRTM,2024,124.753703174630,15.863350584769
$GPGGA,180519.00,3521.4715,N,12053.9343,W,1,10,0.8,14.7,M,-31.4,M,,*60
$PYRTM,2024,124.753718928646,15.863366338785
$GPGGA,180520.00,3521.4716,N,12053.9348,W,1,10,0.8,14.7,M,-31.4,M,,*62
$PYRTM,2024,124.753726324282,15.863373734433
$GPGGA,180521.00,3521.4716,N,12053.9351,W,1,10,0.8,14.7,M,-31.4,M,,*6B
$PYRTM,2024,124.753742075926,15.863389486065
$GPGGA,180522.00,3521.4715,N,12053.9353,W,1,10,0.8,14.7,M,-31.4,M,,*69
$PYRTM,2024,124.753753654028,15.863401064167
$GPGGA,180523.00,3521.4714,N,12053.9356,W,1,10,0.8,14.7,M,-31.4,M,,*6C
$PYRTM,2024,124.753765224653,15.863412634792
$GPGGA,180524.00,3521.4715,N,12053.9361,W,1,10,0.8,14.7,M,-31.4,M,,*6E
$PYRTM,2024,124.753776801204,15.863424211343
$GPGGA,180525.00,3521.4716,N,12053.9365,W,1,10,0.8,14.7,M,-31.4,M,,*68
$PYRTM,2024,124.753784206968,15.863431617106
$GPGGA,180526.00,3521.4717,N,12053.9368,W,1,10,0.8,14.7,M,-31.4,M,,*67
$PYRTM,2024,124.753802843461,15.863450253600
$GPGGA,180527.00,3521.4716,N,12053.9371,W,1,10,0.8,14.7,M,-31.4,M,,*6F
$PYRTM,2024,124.753811520880,15.863458931019
$GPGGA,180528.00,3521.4714,N,12053.9373,W,1,10,0.8,14.7,M,-31.4,M,,*60
$PYRTM,2024,124.753823096134,15.863470506273
$GPGGA,180529.00,3521.4713,N,12053.9377,W,1,10,0.8,14.7,M,-31.4,M,,*62
$PYRTM,2024,124.753834669954,15.863482080093
$GPGGA,180530.00,3521.4715,N,12053.9382,W,1,10,0.8,14.6,M,-31.4,M,,*67
$PYRTM,2024,124.753846244421,15.863493654560
$GPGGA,180531.00,3521.4717,N,12053.9386,W,1,10,0.8,14.6,M,-31.4,M,,*60
$PYRTM,2024,124.753857818785,15.863505228924
$GPGGA,180532.00,3521.4717,N,12053.9388,W,1,10,0.8,14.6,M,-31.4,M,,*6D
$PYRTM,2024,124.753869392072,15.863516802211
$GPGGA,180533.00,3521.4715,N,12053.9391,W,1,10,0.8,14.6,M,-31.4,M,,*66
$PYRTM,2024,124.753880967014,15.863528377153
$GPGGA,180534.00,3521.4712,N,12053.9394,W,1,10,0.8,14.6,M,-31.4,M,,*63
$PYRTM,2024,124.753892540741,15.863539950880
$GPGGA,180535.00,3521.4714,N,12053.9399,W,1,10,0.8,14.6,M,-31.4,M,,*69
$PYRTM,2024,124.753899935116,15.863547345255
$GPGGA,180536.00,3521.4718,N,12053.9404,W,1,10,0.8,14.6,M,-31.4,M,,*65
$PYRTM,2024,124.753915692894,15.863563103032
$GPGGA,180537.00,3521.4718,N,12053.9408,W,1,10,0.8,14.6,M,-31.4,M,,*68
$PYRTM,2024,124.753927262500,15.863574672639
$GPGGA,180538.00,3521.4716,N,12053.9409,W,1,10,0.8,14.6,M,-31.4,M,,*68
$PYRTM,2024,124.753938853079,15.863586263218
$GPGGA,180539.00,3521.4713,N,12053.9412,W,1,10,0.8,14.6,M,-31.4,M,,*66
$PYRTM,2024,124.753950410255,15.863597820394
$GPGGA,180540.00,3521.4713,N,12053.9416,W,1,10,0.8,14.6,M,-31.4,M,,*6C
$PYRTM,2024,124.753961985336,15.863609395475
$GPGGA,180541.00,3521.4716,N,12053.9422,W,1,10,0.8,14.6,M,-31.4,M,,*6F
$PYRTM,2024,124.753973558646,15.863620968785
$GPGGA,180542.00,3521.4718,N,12053.9426,W,1,10,0.8,14.6,M,-31.4,M,,*66
$PYRTM,2024,124.753985134977,15.863632545116
$GPGGA,180543.00,3521.4717,N,12053.9429,W,1,10,0.8,14.6,M,-31.4,M,,*67
$PYRTM,2024,124.753996703194,15.863644113333
$GPGGA,180544.00,3521.4714,N,12053.9431,W,1,10,0.8,14.5,M,-31.4,M,,*69
$PYRTM,2024,124.754008282697,15.863655692847
$GPGGA,180545.00,3521.4712,N,12053.9435,W,1,10,0.8,14.5,M,-31.4,M,,*6A
$PYRTM,2024,124.754015677998,15.863663088137
$GPGGA,180546.00,3521.4714,N,12053.9440,W,1,10,0.8,14.5,M,-31.4,M,,*6D
$PYRTM,2024,124.754031432211,15.863678842361
$GPGGA,180547.00,3521.4717,N,12053.9444,W,1,10,0.8,14.5,M,-31.4,M,,*6B
$PYRTM,2024,124.754043004051,15.863690414190
$GPGGA,180548.00,3521.4719,N,12053.9448,W,1,10,0.8,14.5,M,-31.4,M,,*66
$PYRTM,2024,124.754054578090,15.863701988229
$GPGGA,180549.00,3521.4718,N,12053.9451,W,1,10,0.8,14.5,M,-31.4,M,,*6E
$PYRTM,2024,124.754066152975,15.863713563125
$GPGGA,180550.00,3521.4716,N,12053.9453,W,1,10,0.8,14.5,M,-31.4,M,,*6A
$PYRTM,2024,124.754073548438,15.863720958576
$GPGGA,180551.00,3521.4715,N,12053.9457,W,1,10,0.8,14.5,M,-31.4,M,,*6C
$PYRTM,2024,124.754089300660,15.863736710799
$GPGGA,180552.00,3521.4717,N,12053.9461,W,1,10,0.8,14.5,M,-31.4,M,,*68
$PYRTM,2024,124.754100877836,15.863748287975
$GPGGA,180553.00,3521.4719,N,12053.9465,W,1,10,0.8,14.5,M,-31.4,M,,*63
$PYRTM,2024,124.754112448854,15.863759858993
$GPGGA,180554.00,3521.4720,N,12053.9468,W,1,10,0.8,14.4,M,-31.4,M,,*62
$PYRTM,2024,124.754124025718,15.863771435856
$GPGGA,180555.00,3521.4718,N,12053.9471,W,1,10,0.8,14.4,M,-31.4,M,,*60
$PYRTM,2024,124.754131419375,15.863778829525
$GPGGA,180556.00,3521.4717,N,12053.9475,W,1,10,0.8,14.4,M,-31.4,M,,*68
$PYRTM,2024,124.754143107720,15.863790517870
$GPGGA,180557.00,3521.4717,N,12053.9480,W,1,10,0.8,14.4,M,-31.4,M,,*63
$PYRTM,2024,124.754161627801,15.863809037951
$GPGGA,180558.00,3521.4717,N,12053.9485,W,1,10,0.8,14.4,M,-31.4,M,,*69
$PYRTM,2024,124.754170319595,15.863817729734
$GPGGA,180559.00,3521.4718,N,12053.9489,W,1,10,0.8,14.4,M,-31.4,M,,*6B
$PYRTM,2024,124.754181892535,15.863829302674
$GPGGA,180600.00,3521.4719,N,12053.9492,W,1,10,0.8,14.4,M,-31.4,M,,*6F
$PYRTM,2024,124.754189289248,15.863836699387
$GPGGA,180601.00,3521.4720,N,12053.9496,W,1,10,0.8,14.4,M,-31.4,M,,*60
$PYRTM,2024,124.754205041516,15.863852451655
$GPGGA,180602.00,3521.4719,N,12053.9500,W,1,10,0.8,14.4,M,-31.4,M,,*67
$PYRTM,2024,124.754216615995,15.863864026134
$GPGGA,180603.00,3521.4718,N,12053.9505,W,1,10,0.8,14.3,M,-31.4,M,,*65
$PYRTM,2024,124.754228189838,15.863875599977
$GPGGA,180604.00,3521.4718,N,12053.9509,W,1,10,0.8,14.3,M,-31.4,M,,*6E
$PYRTM,2024,124.754239765706,15.863887175845
$GPGGA,180605.00,3521.4720,N,12053.9509,W,1,10,0.8,14.3,M,-31.4,M,,*64
$PYRTM,2024,124.754251337674,15.863898747812
$GPGGA,180606.00,3521.4722,N,12053.9512,W,1,10,0.8,14.3,M,-31.4,M,,*6F
$PYRTM,2024,124.754262913785,15.863910323924
$GPGGA,180607.00,3521.4722,N,12053.9516,W,1,10,0.8,14.3,M,-31.4,M,,*6A
$PYRTM,2024,124.754274487037,15.863921897188
$GPGGA,180608.00,3521.4721,N,12053.9520,W,1,10,0.8,14.2,M,-31.4,M,,*62
$PYRTM,2024,124.754286075949,15.863933486088
$GPGGA,180609.00,3521.4721,N,12053.9523,W,1,10,0.8,14.2,M,-31.4,M,,*60
$PYRTM,2024,124.754297636157,15.863945046296
$GPGGA,180610.00,3521.4721,N,12053.9525,W,1,10,0.8,14.2,M,-31.4,M,,*6E
$PYRTM,2024,124.754305031366,15.863952441505
$GPGGA,180611.00,3521.4722,N,12053.9529,W,1,10,0.8,14.1,M,-31.4,M,,*63
$PYRTM,2024,124.754320782384,15.863968192523
$GPGGA,180612.00,3521.4723,N,12053.9534,W,1,10,0.8,14.1,M,-31.4,M,,*6D
$PYRTM,2024,124.754332357176,15.863979767326
$GPGGA,180613.00,3521.4723,N,12053.9539,W,1,10,0.8,14.1,M,-31.4,M,,*61
$PYRTM,2024,124.754343931458,15.863991341597
$GPGGA,180614.00,3521.4722,N,12053.9542,W,1,10,0.8,14.1,M,-31.4,M,,*6B
$PYRTM,2024,124.754355505301,15.864002915440
$GPGGA,180615.00,3521.4722,N,12053.9545,W,1,10,0.8,14.0,M,-31.4,M,,*6C
$PYRTM,2024,124.754367085961,15.864014496100
$GPGGA,180616.00,3521.4723,N,12053.9549,W,1,10,0.8,14.0,M,-31.4,M,,*62
$PYRTM,2024,124.754378654074,15.864026064213
$GPGGA,180617.00,3521.4723,N,12053.9553,W,1,10,0.8,14.0,M,-31.4,M,,*68
$PYRTM,2024,124.754390229028,15.864037639167
$GPGGA,180618.00,3521.4723,N,12053.9557,W,1,10,0.8,14.0,M,-31.4,M,,*63
$PYRTM,2024,124.754401803692,15.864049213831
$GPGGA,180619.00,3521.4724,N,12053.9560,W,1,10,0.8,14.0,M,-31.4,M,,*61
$PYRTM,2024,124.754413378426,15.864060788565
$GPGGA,180620.00,3521.4724,N,12053.9563,W,1,10,0.8,14.0,M,-31.4,M,,*68
$PYRTM,2024,124.754424950590,15.864072360729
$GPGGA,180621.00,3521.4724,N,12053.9567,W,1,10,0.8,14.0,M,-31.4,M,,*6D
$PYRTM,2024,124.754436524479,15.864083934618
$GPGGA,180622.00,3521.4724,N,12053.9571,W,1,10,0.8,14.0,M,-31.4,M,,*69
$PYRTM,2024,124.754443920440,15.864091330579
$GPGGA,180623.00,3521.4724,N,12053.9575,W,1,10,0.8,14.0,M,-31.4,M,,*6C
$PYRTM,2024,124.754459672130,15.864107082269
$GPGGA,180624.00,3521.4724,N,12053.9578,W,1,10,0.8,14.0,M,-31.4,M,,*66
$PYRTM,2024,124.754471263299,15.864118673438
$GPGGA,180625.00,3521.4725,N,12053.9581,W,1,10,0.8,14.0,M,-31.4,M,,*60
$PYRTM,2024,124.754482821331,15.864130231470
$GPGGA,180626.00,3521.4726,N,12053.9585,W,1,10,0.8,14.0,M,-31.4,M,,*64
$PYRTM,2024,124.754494411134,15.864141821273
$GPGGA,180627.00,3521.4726,N,12053.9590,W,1,10,0.8,14.0,M,-31.4,M,,*61
$PYRTM,2024,124.754501791169,15.864149201308
$GPGGA,180628.00,3521.4725,N,12053.9595,W,1,10,0.8,14.0,M,-31.4,M,,*68
$PYRTM,2024,124.754520440752,15.864167850891
$GPGGA,180629.00,3521.4724,N,12053.9599,W,1,10,0.8,14.0,M,-31.4,M,,*64
$PYRTM,2024,124.754529118171,15.864176528310
$GPGGA,180630.00,3521.4723,N,12053.9602,W,1,10,0.8,14.0,M,-31.4,M,,*6A
$PYRTM,2024,124.754540695544,15.864188105683
$GPGGA,180631.00,3521.4724,N,12053.9604,W,1,10,0.8,14.0,M,-31.4,M,,*6A
$PYRTM,2024,124.754552267095,15.864199677234
$GPGGA,180632.00,3521.4726,N,12053.9609,W,1,10,0.8,14.0,M,-31.4,M,,*66
$PYRTM,2024,124.754559659792,15.864207069931
$GPGGA,180633.00,3521.4727,N,12053.9614,W,1,10,0.8,14.0,M,-31.4,M,,*6A
$PYRTM,2024,124.754575415613,15.864222825752
$GPGGA,180634.00,3521.4725,N,12053.9618,W,1,10,0.8,14.0,M,-31.4,M,,*63
$PYRTM,2024,124.754582810197,15.864230220336
$GPGGA,180635.00,3521.4724,N,12053.9621,W,1,10,0.8,14.0,M,-31.4,M,,*69
$PYRTM,2024,124.754594498322,15.864241908449
$GPGGA,180636.00,3521.4724,N,12053.9624,W,1,10,0.8,13.9,M,-31.4,M,,*61
$PYRTM,2024,124.754610137049,15.864257547188
$GPGGA,180637.00,3521.4726,N,12053.9628,W,1,10,0.8,14.0,M,-31.4,M,,*60
$PYRTM,2024,124.754621710810,15.864269120949
$GPGGA,180638.00,3521.4729,N,12053.9633,W,1,10,0.8,14.0,M,-31.4,M,,*6A
$PYRTM,2024,124.754633286296,15.864280696435
$GPGGA,180639.00,3521.4729,N,12053.9637,W,1,10,0.8,14.0,M,-31.4,M,,*6F
$PYRTM,2024,124.754644859444,15.864292269583
$GPGGA,180640.00,3521.4726,N,12053.9639,W,1,10,0.8,14.0,M,-31.4,M,,*60
$PYRTM,2024,124.754656436227,15.864303846366
$GPGGA,180641.00,3521.4725,N,12053.9643,W,1,10,0.8,13.9,M,-31.4,M,,*61
$PYRTM,2024,124.754668006701,15.864315416840
$GPGGA,180642.00,3521.4725,N,12053.9648,W,1,10,0.8,13.9,M,-31.4,M,,*69
$PYRTM,2024,124.754679584340,15.864326994479
$GPGGA,180643.00,3521.4728,N,12053.9652,W,1,10,0.8,13.9,M,-31.4,M,,*6E
$PYRTM,2024,124.754691156574,15.864338566713
$GPGGA,180644.00,3521.4729,N,12053.9655,W,1,10,0.8,13.9,M,-31.4,M,,*6F
$PYRTM,2024,124.754702730602,15.864350140752
$GPGGA,180645.00,3521.4728,N,12053.9658,W,1,10,0.8,13.9,M,-31.4,M,,*62
$PYRTM,2024,124.754710141019,15.864357551169
$GPGGA,180646.00,3521.4726,N,12053.9663,W,1,10,0.8,13.9,M,-31.4,M,,*67
$PYRTM,2024,124.754725878067,15.864373288206
$GPGGA,180647.00,3521.4725,N,12053.9668,W,1,10,0.8,13.9,M,-31.4,M,,*6E
$PYRTM,2024,124.754733286991,15.864380697130
$GPGGA,180648.00,3521.4727,N,12053.9672,W,1,10,0.8,13.9,M,-31.4,M,,*68
$PYRTM,2024,124.754744961146,15.864392371285
$GPGGA,180649.00,3521.4728,N,12053.9675,W,1,10,0.8,14.0,M,-31.4,M,,*6F
$PYRTM,2024,124.754760599201,15.864408009340
$GPGGA,180650.00,3521.4727,N,12053.9678,W,1,10,0.8,14.0,M,-31.4,M,,*65
$PYRTM,2024,124.754772174306,15.864419584444
$GPGGA,180651.00,3521.4726,N,12053.9682,W,1,10,0.8,14.0,M,-31.4,M,,*60
$PYRTM,2024,124.754783748009,15.864431158148
$GPGGA,180652.00,3521.4727,N,12053.9687,W,1,10,0.8,14.0,M,-31.4,M,,*67
$PYRTM,2024,124.754795325231,15.864442735370
$GPGGA,180653.00,3521.4728,N,12053.9691,W,1,10,0.8,14.0,M,-31.4,M,,*6E
$PYRTM,2024,124.754806899190,15.864454309329
$GPGGA,180654.00,3521.4729,N,12053.9694,W,1,10,0.8,14.0,M,-31.4,M,,*6D
$PYRTM,2024,124.754814291852,15.864461702002
$GPGGA,180655.00,3521.4727,N,12053.9698,W,1,10,0.8,14.0,M,-31.4,M,,*6E
$PYRTM,2024,124.754832925093,15.864480335231
$GPGGA,180656.00,3521.4725,N,12053.9701,W,1,10,0.8,14.0,M,-31.4,M,,*6E
$PYRTM,2024,124.754841635405,15.864489045556
$GPGGA,180657.00,3521.4726,N,12053.9704,W,1,10,0.8,14.0,M,-31.4,M,,*69
$PYRTM,2024,124.754853190347,15.864500600486
$GPGGA,180658.00,3521.4728,N,12053.9709,W,1,10,0.8,14.0,M,-31.4,M,,*65
$PYRTM,2024,124.754860588854,15.864507998993
$GPGGA,180659.00,3521.4729,N,12053.9714,W,1,10,0.8,14.0,M,-31.4,M,,*69
$PYRTM,2024,124.754879222975,15.864526633113
$GPGGA,180700.00,3521.4728,N,12053.9718,W,1,10,0.8,14.0,M,-31.4,M,,*69
$PYRTM,2024,124.754890813345,15.864538223484
$GPGGA,180701.00,3521.4726,N,12053.9721,W,1,10,0.8,14.0,M,-31.4,M,,*6C
$PYRTM,2024,124.754902373032,15.864549783171
$GPGGA,180702.00,3521.4725,N,12053.9722,W,1,10,0.8,14.0,M,-31.4,M,,*6F
$PYRTM,2024,124.754911065370,15.864558475509
$GPGGA,180703.00,3521.4726,N,12053.9724,W,1,10,0.8,14.0,M,-31.4,M,,*6B
$PYRTM,2024,124.754922638113,15.864570048252
$GPGGA,180704.00,3521.4727,N,12053.9730,W,1,10,0.8,14.0,M,-31.4,M,,*68
$PYRTM,2024,124.754934214896,15.864581625046
$GPGGA,180705.00,3521.4728,N,12053.9736,W,1,10,0.8,14.0,M,-31.4,M,,*60
$PYRTM,2024,124.754945785891,15.864593196030
$GPGGA,180706.00,3521.4726,N,12053.9740,W,1,10,0.8,14.0,M,-31.4,M,,*6C
$PYRTM,2024,124.754957360498,15.864604770637
$GPGGA,180707.00,3521.4725,N,12053.9740,W,1,10,0.8,14.0,M,-31.4,M,,*6E
$PYRTM,2024,124.754968934618,15.864616344757
$GPGGA,180708.00,3521.4724,N,12053.9743,W,1,10,0.8,14.0,M,-31.4,M,,*63
$PYRTM,2024,124.754980509722,15.864627919873
$GPGGA,180709.00,3521.4724,N,12053.9748,W,1,10,0.8,14.0,M,-31.4,M,,*69
$PYRTM,2024,124.754992084028,15.864639494167
$GPGGA,180710.00,3521.4725,N,12053.9754,W,1,10,0.8,14.0,M,-31.4,M,,*6D
$PYRTM,2024,124.754999478229,15.864646888368
$GPGGA,180711.00,3521.4726,N,12053.9758,W,1,10,0.8,14.0,M,-31.4,M,,*63
$PYRTM,2024,124.755015231412,15.864662641551
$GPGGA,180712.00,3521.4725,N,12053.9759,W,1,10,0.8,14.0,M,-31.4,M,,*62
$PYRTM,2024,124.755026813391,15.864674223542
$GPGGA,180713.00,3521.4723,N,12053.9762,W,1,10,0.8,14.0,M,-31.4,M,,*6D
$PYRTM,2024,124.755038380035,15.864685790174
$GPGGA,180714.00,3521.4721,N,12053.9766,W,1,10,0.8,14.0,M,-31.4,M,,*6C
$PYRTM,2024,124.755049961528,15.864697371667
$GPGGA,180715.00,3521.4722,N,12053.9770,W,1,10,0.8,13.9,M,-31.4,M,,*67
$PYRTM,2024,124.755061527940,15.864708938079
$GPGGA,180716.00,3521.4724,N,12053.9774,W,1,10,0.8,13.9,M,-31.4,M,,*66
$PYRTM,2024,124.755073113137,15.864720523275
$GPGGA,180717.00,3521.4724,N,12053.9777,W,1,10,0.8,13.9,M,-31.4,M,,*64
$PYRTM,2024,124.755084677373,15.864732087512
$GPGGA,180718.00,3521.4723,N,12053.9780,W,1,10,0.8,13.9,M,-31.4,M,,*64
$PYRTM,2024,124.755096250313,15.864743660451
$GPGGA,180719.00,3521.4721,N,12053.9784,W,1,10,0.8,13.9,M,-31.4,M,,*63
$PYRTM,2024,124.755107824421,15.864755234560
$GPGGA,180720.00,3521.4721,N,12053.9788,W,1,10,0.8,13.9,M,-31.4,M,,*65
$PYRTM,2024,124.755119410313,15.864766820451
$GPGGA,180721.00,3521.4722,N,12053.9792,W,1,10,0.8,13.9,M,-31.4,M,,*6C
$PYRTM,2024,124.755130971921,15.864778382060
$GPGGA,180722.00,3521.4723,N,12053.9796,W,1,10,0.8,13.9,M,-31.4,M,,*6A
$PYRTM,2024,124.755142546319,15.864789956458
$GPGGA,180723.00,3521.4722,N,12053.9799,W,1,10,0.8,13.9,M,-31.4,M,,*65
$PYRTM,2024,124.755154120810,15.864801530949
$GPGGA,180724.00,3521.4722,N,12053.9802,W,1,10,0.8,13.9,M,-31.4,M,,*6F
$PYRTM,2024,124.755165695613,15.864813105752
$GPGGA,180725.00,3521.4722,N,12053.9805,W,1,10,0.8,13.9,M,-31.4,M,,*69
$PYRTM,2024,124.755173101435,15.864820511586
$GPGGA,180726.00,3521.4721,N,12053.9809,W,1,10,0.8,13.8,M,-31.4,M,,*64
$PYRTM,2024,124.755188869630,15.864836279769
$GPGGA,180727.00,3521.4721,N,12053.9813,W,1,10,0.8,13.8,M,-31.4,M,,*6E
$PYRTM,2024,124.755196251273,15.864843661412
$GPGGA,180728.00,3521.4722,N,12053.9816,W,1,10,0.8,13.8,M,-31.4,M,,*67
$PYRTM,2024,124.755212000729,15.864859410868
$GPGGA,180729.00,3521.4722,N,12053.9820,W,1,10,0.8,13.8,M,-31.4,M,,*63
$PYRTM,2024,124.755219395174,15.864866805312
$GPGGA,180730.00,3521.4722,N,12053.9823,W,1,10,0.8,13.9,M,-31.4,M,,*69
$PYRTM,2024,124.755238037072,15.864885447222
$GPGGA,180731.00,3521.4721,N,12053.9827,W,1,10,0.8,13.8,M,-31.4,M,,*6E
$PYRTM,2024,124.755246717014,15.864894127153
$GPGGA,180732.00,3521.4720,N,12053.9831,W,1,10,0.8,13.8,M,-31.4,M,,*6B
$PYRTM,2024,124.755258288600,15.864905698738
$GPGGA,180733.00,3521.4721,N,12053.9834,W,1,10,0.8,13.8,M,-31.4,M,,*6E
$PYRTM,2024,124.755269863056,15.864917273206
$GPGGA,180734.00,3521.4722,N,12053.9837,W,1,10,0.8,13.8,M,-31.4,M,,*69
$PYRTM,2024,124.755281436551,15.864928846690
$GPGGA,180735.00,3521.4723,N,12053.9841,W,1,10,0.8,13.8,M,-31.4,M,,*68
$PYRTM,2024,124.755293011539,15.864940421678
$GPGGA,180736.00,3521.4721,N,12053.9845,W,1,10,0.8,13.9,M,-31.4,M,,*6C
$PYRTM,2024,124.755304594815,15.864952004954
$GPGGA,180737.00,3521.4719,N,12053.9848,W,1,10,0.8,13.9,M,-31.4,M,,*6B
$PYRTM,2024,124.755316159491,15.864963569630
$GPGGA,180738.00,3521.4719,N,12053.9851,W,1,10,0.8,13.8,M,-31.4,M,,*6D
$PYRTM,2024,124.755327733264,15.864975143403
$GPGGA,180739.00,3521.4720,N,12053.9854,W,1,10,0.8,13.8,M,-31.4,M,,*63
$PYRTM,2024,124.755339307373,15.864986717512
$GPGGA,180740.00,3521.4721,N,12053.9858,W,1,10,0.8,13.8,M,-31.4,M,,*60
$PYRTM,2024,124.755346702187,15.864994112326
$GPGGA,180741.00,3521.4720,N,12053.9863,W,1,10,0.8,13.8,M,-31.4,M,,*68
$PYRTM,2024,124.755362455729,15.865009865868
$GPGGA,180742.00,3521.4718,N,12053.9866,W,1,10,0.8,13.8,M,-31.4,M,,*65
$PYRTM,2024,124.755374038148,15.865021448287
$GPGGA,180743.00,3521.4718,N,12053.9870,W,1,10,0.8,13.8,M,-31.4,M,,*63
$PYRTM,2024,124.755385603866,15.865033014016
$GPGGA,180744.00,3521.4718,N,12053.9874,W,1,10,0.8,13.8,M,-31.4,M,,*60
$PYRTM,2024,124.755397184931,15.865044595069
$GPGGA,180745.00,3521.4719,N,12053.9877,W,1,10,0.8,13.8,M,-31.4,M,,*63
$PYRTM,2024,124.755408752454,15.865056162593
$GPGGA,180746.00,3521.4718,N,12053.9881,W,1,10,0.8,13.8,M,-31.4,M,,*68
$PYRTM,2024,124.755420338148,15.865067748287
$GPGGA,180747.00,3521.4718,N,12053.9884,W,1,10,0.8,13.8,M,-31.4,M,,*6C
$PYRTM,2024,124.755431900810,15.865079310949
$GPGGA,180748.00,3521.4717,N,12053.9888,W,1,10,0.8,13.8,M,-31.4,M,,*60
$PYRTM,2024,124.755443485694,15.865090895833
$GPGGA,180749.00,3521.4717,N,12053.9892,W,1,10,0.8,13.8,M,-31.4,M,,*6A
$PYRTM,2024,124.755455049792,15.865102459931
$GPGGA,180750.00,3521.4717,N,12053.9895,W,1,10,0.8,13.8,M,-31.4,M,,*65
$PYRTM,2024,124.755462443542,15.865109853681
$GPGGA,180751.00,3521.4716,N,12053.9899,W,1,10,0.8,13.8,M,-31.4,M,,*69
$PYRTM,2024,124.755478198206,15.865125608345
$GPGGA,180752.00,3521.4716,N,12053.9902,W,1,10,0.8,13.8,M,-31.4,M,,*69
$PYRTM,2024,124.755489770972,15.865137181111
$GPGGA,180753.00,3521.4716,N,12053.9905,W,1,10,0.8,13.8,M,-31.4,M,,*6F
$PYRTM,2024,124.755497178623,15.865144588773
$GPGGA,180754.00,3521.4717,N,12053.9909,W,1,10,0.8,13.8,M,-31.4,M,,*65
$PYRTM,2024,124.755512920255,15.865160330394
$GPGGA,180755.00,3521.4715,N,12053.9914,W,1,10,0.8,13.8,M,-31.4,M,,*6A
$PYRTM,2024,124.755524493356,15.865171903495
$GPGGA,180756.00,3521.4713,N,12053.9918,W,1,10,0.8,13.8,M,-31.4,M,,*63
$PYRTM,2024,124.755536067431,15.865183477569
$GPGGA,180757.00,3521.4713,N,12053.9921,W,1,10,0.8,13.8,M,-31.4,M,,*68
$PYRTM,2024,124.755547636528,15.865195046667
$GPGGA,180758.00,3521.4715,N,12053.9924,W,1,10,0.8,13.8,M,-31.4,M,,*64
$PYRTM,2024,124.755559240000,15.865206650139
$GPGGA,180759.00,3521.4716,N,12053.9928,W,1,10,0.8,13.8,M,-31.4,M,,*6A
$PYRTM,2024,124.755566617847,15.865214027986
$GPGGA,180800.00,3521.4714,N,12053.9932,W,1,10,0.8,13.8,M,-31.4,M,,*60
$PYRTM,2024,124.755585272674,15.865232682812
$GPGGA,180801.00,3521.4711,N,12053.9935,W,1,10,0.8,13.8,M,-31.4,M,,*63
$PYRTM,2024,124.755593939352,15.865241349491
$GPGGA,180802.00,3521.4710,N,12053.9939,W,1,10,0.8,13.8,M,-31.4,M,,*6D
$PYRTM,2024,124.755601334167,15.865248744317
$GPGGA,180803.00,3521.4712,N,12053.9943,W,1,10,0.8,13.8,M,-31.4,M,,*63
$PYRTM,2024,124.755617087662,15.865264497801
$GPGGA,180804.00,3521.4714,N,12053.9947,W,1,10,0.8,13.8,M,-31.4,M,,*66
$PYRTM,2024,124.755628662650,15.865276072789
$GPGGA,180805.00,3521.4713,N,12053.9951,W,1,10,0.8,13.8,M,-31.4,M,,*67
$PYRTM,2024,124.755636068079,15.865283478229
$GPGGA,180806.00,3521.4710,N,12053.9953,W,1,10,0.8,13.8,M,-31.4,M,,*65
$PYRTM,2024,124.755651820174,15.865299230313
$GPGGA,180807.00,3521.4708,N,12053.9957,W,1,10,0.8,13.8,M,-31.4,M,,*69
$PYRTM,2024,124.755659228414,15.865306638553
$GPGGA,180808.00,3521.4710,N,12053.9961,W,1,10,0.8,13.8,M,-31.4,M,,*6A
$PYRTM,2024,124.755674957558,15.865322367697
$GPGGA,180809.00,3521.4711,N,12053.9965,W,1,10,0.8,13.8,M,-31.4,M,,*6E
$PYRTM,2024,124.755686530868,15.865333941007
$GPGGA,180810.00,3521.4712,N,12053.9969,W,1,10,0.8,13.8,M,-31.4,M,,*69
$PYRTM,2024,124.755698118183,15.865345528322
$GPGGA,180811.00,3521.4710,N,12053.9972,W,1,10,0.8,13.8,M,-31.4,M,,*60
$PYRTM,2024,124.755709680579,15.865357090718
$GPGGA,180812.00,3521.4708,N,12053.9976,W,1,10,0.8,13.8,M,-31.4,M,,*6E
$PYRTM,2024,124.755721241030,15.865368651169
$GPGGA,180813.00,3521.4708,N,12053.9979,W,1,10,0.8,13.7,M,-31.4,M,,*6F
$PYRTM,2024,124.755732828762,15.865380238900
$GPGGA,180814.00,3521.4710,N,12053.9983,W,1,10,0.8,13.7,M,-31.4,M,,*64
$PYRTM,2024,124.755744389421,15.865391799572
$GPGGA,180815.00,3521.4711,N,12053.9988,W,1,10,0.8,13.7,M,-31.4,M,,*6F
$PYRTM,2024,124.755751797176,15.865399207315
$GPGGA,180816.00,3521.4710,N,12053.9992,W,1,10,0.8,13.6,M,-31.4,M,,*67
$PYRTM,2024,124.755767539294,15.865414949433
$GPGGA,180817.00,3521.4707,N,12053.9995,W,1,10,0.8,13.5,M,-31.4,M,,*64
$PYRTM,2024,124.755779125833,15.865426535972
$GPGGA,180818.00,3521.4706,N,12053.9998,W,1,10,0.8,13.5,M,-31.4,M,,*67
$PYRTM,2024,124.755786518993,15.865433929132
$GPGGA,180819.00,3521.4708,N,12054.0001,W,1,10,0.8,13.5,M,-31.4,M,,*6F
$PYRTM,2024,124.755802273750,15.865449683889
$GPGGA,180820.00,3521.4710,N,12054.0006,W,1,10,0.8,13.5,M,-31.4,M,,*6B
$PYRTM,2024,124.755813834248,15.865461244387
$GPGGA,180821.00,3521.4710,N,12054.0011,W,1,10,0.8,13.5,M,-31.4,M,,*6C
$PYRTM,2024,124.755825426053,15.865472836192
$GPGGA,180822.00,3521.4707,N,12054.0014,W,1,10,0.8,13.5,M,-31.4,M,,*6C
$PYRTM,2024,124.755836984178,15.865484394317
$GPGGA,180823.00,3521.4704,N,12054.0017,W,1,10,0.8,13.5,M,-31.4,M,,*6D
$PYRTM,2024,124.755848583252,15.865495993391
$GPGGA,180824.00,3521.4705,N,12054.0019,W,1,10,0.8,13.5,M,-31.4,M,,*65
$PYRTM,2024,124.755860132847,15.865507542986
$GPGGA,180825.00,3521.4707,N,12054.0024,W,1,10,0.8,13.5,M,-31.4,M,,*68
$PYRTM,2024,124.755867537928,15.865514948067
$GPGGA,180826.00,3521.4708,N,12054.0030,W,1,10,0.8,13.4,M,-31.4,M,,*60
$PYRTM,2024,124.755883278900,15.865530689039
$GPGGA,180827.00,3521.4706,N,12054.0035,W,1,10,0.8,13.4,M,-31.4,M,,*6A
$PYRTM,2024,124.755894866470,15.865542276609
$GPGGA,180828.00,3521.4704,N,12054.0037,W,1,10,0.8,13.4,M,-31.4,M,,*65
$PYRTM,2024,124.755902274792,15.865549684931
$GPGGA,180829.00,3521.4703,N,12054.0040,W,1,10,0.8,13.4,M,-31.4,M,,*63
$PYRTM,2024,124.755918018484,15.865565428623
$GPGGA,180830.00,3521.4703,N,12054.0045,W,1,10,0.8,13.4,M,-31.4,M,,*6E
$PYRTM,2024,124.755925422303,15.865572832442
$GPGGA,180831.00,3521.4704,N,12054.0051,W,1,10,0.8,13.4,M,-31.4,M,,*6D
$PYRTM,2024,124.755944056065,15.865591466204
$GPGGA,180832.00,3521.4705,N,12054.0055,W,1,10,0.8,13.4,M,-31.4,M,,*6B
$PYRTM,2024,124.755952725833,15.865600135972
$GPGGA,180833.00,3521.4703,N,12054.0059,W,1,10,0.8,13.4,M,-31.4,M,,*60
$PYRTM,2024,124.755960132859,15.865607542998
$GPGGA,180834.00,3521.4701,N,12054.0062,W,1,10,0.8,13.5,M,-31.4,M,,*6C
$PYRTM,2024,124.755975872477,15.865623282616
$GPGGA,180835.00,3521.4701,N,12054.0067,W,1,10,0.8,13.5,M,-31.4,M,,*68
