$PYRTM,2024,124.000003731806,15.109651141944
$GPGGA,235959.00,3454.4335,N,12128.5533,W,1,09,1.0,5.4,M,-33.0,M,,*54
$PYRTM,2024,124.000015302836,15.109662712986
$GPGGA,000000.00,3454.4339,N,12128.5535,W,1,09,1.0,5.5,M,-33.0,M,,*5E
$PYRTM,2024,124.000026875833,15.109674285972
$GPGGA,000001.00,3454.4342,N,12128.5541,W,1,09,1.0,5.6,M,-33.0,M,,*53
$PYRTM,2024,124.000038445984,15.109685856123
$GPGGA,000002.00,3454.4344,N,12128.5543,W,1,09,1.0,5.7,M,-33.0,M,,*55
$PYRTM,2024,124.000050025231,15.109697435370
$GPGGA,000003.00,3454.4346,N,12128.5541,W,1,09,1.0,5.8,M,-33.0,M,,*5B
$PYRTM,2024,124.000061599653,15.109709009792
$GPGGA,000004.00,3454.4351,N,12128.5539,W,1,09,1.0,5.9,M,-33.0,M,,*54
$PYRTM,2024,124.000068876748,15.109716286887
$GPGGA,000005.00,3454.4357,N,12128.5541,W,1,09,1.0,5.9,M,-33.0,M,,*5C
$PYRTM,2024,124.000084748900,15.109732159051
$GPGGA,000006.00,3454.4360,N,12128.5545,W,1,09,1.0,5.9,M,-33.0,M,,*5F
$PYRTM,2024,124.000096324502,15.109743734641
$GPGGA,000007.00,3454.4359,N,12128.5547,W,1,09,1.0,6.0,M,-33.0,M,,*5C
$PYRTM,2024,124.000103612419,15.109751022569
$GPGGA,000008.00,3454.4362,N,12128.5548,W,1,09,1.0,6.1,M,-33.0,M,,*55
$PYRTM,2024,124.000119469687,15.109766879826
$GPGGA,000009.00,3454.4370,N,12128.5548,W,1,09,1.0,5.9,M,-33.0,M,,*5C
$PYRTM,2024,124.000131045451,15.109778455590
$GPGGA,000010.00,3454.4375,N,12128.5548,W,1,09,1.0,5.8,M,-33.0,M,,*50
$PYRTM,2024,124.000142618171,15.109790028310
$GPGGA,000011.00,3454.4376,N,12128.5547,W,1,09,1.0,5.8,M,-33.0,M,,*5D
$PYRTM,2024,124.000154188681,15.109801598819
$GPGGA,000012.00,3454.4377,N,12128.5545,W,1,09,1.0,6.0,M,-33.0,M,,*56
$PYRTM,2024,124.000165765845,15.109813175984
$GPGGA,000013.00,3454.4381,N,12128.5546,W,1,09,1.0,6.1,M,-33.0,M,,*5C
$PYRTM,2024,124.000177340937,15.109824751076
$GPGGA,000014.00,3454.4388,N,12128.5550,W,1,09,1.0,5.9,M,-33.0,M,,*5E
$PYRTM,2024,124.000188915289,15.109836325428
$GPGGA,000015.00,3454.4391,N,12128.5554,W,1,09,1.0,5.8,M,-33.0,M,,*52
$PYRTM,2024,124.000196204884,15.109843615023
$GPGGA,000016.00,3454.4392,N,12128.5554,W,1,09,1.0,5.9,M,-33.0,M,,*53
$PYRTM,2024,124.000212077141,15.109859487280
$GPGGA,000017.00,3454.4397,N,12128.5550,W,1,09,1.0,6.0,M,-33.0,M,,*59
$PYRTM,2024,124.000223636632,15.109871046782
$GPGGA,000018.00,3454.4402,N,12128.5548,W,1,09,1.0,6.1,M,-33.0,M,,*55
$PYRTM,2024,124.000235211863,15.109882622002
$GPGGA,000019.00,3454.4404,N,12128.5549,W,1,09,1.0,6.2,M,-33.0,M,,*50
$PYRTM,2024,124.000246785961,15.109894196100
$GPGGA,000020.00,3454.4406,N,12128.5551,W,1,09,1.0,6.3,M,-33.0,M,,*50
$PYRTM,2024,124.000254065428,15.109901475567
$GPGGA,000021.00,3454.4409,N,12128.5554,W,1,09,1.0,6.5,M,-33.0,M,,*5D
$PYRTM,2024,124.000272710926,15.109920121065
$GPGGA,000022.00,3454.4416,N,12128.5558,W,1,09,1.0,6.3,M,-33.0,M,,*5A
$PYRTM,2024,124.000281507384,15.109928917523
$GPGGA,000023.00,3454.4420,N,12128.5557,W,1,09,1.0,6.2,M,-33.0,M,,*50
$PYRTM,2024,124.000293081389,15.109940491528
$GPGGA,000024.00,3454.4420,N,12128.5552,W,1,09,1.0,6.2,M,-33.0,M,,*52
$PYRTM,2024,124.000304658831,15.109952068970
$GPGGA,000025.00,3454.4420,N,12128.5549,W,1,09,1.0,6.3,M,-33.0,M,,*58
$PYRTM,2024,124.000316231991,15.109963642130
$GPGGA,000026.00,3454.4425,N,12128.5549,W,1,09,1.0,6.4,M,-33.0,M,,*59
$PYRTM,2024,124.000327804005,15.109975214144
$GPGGA,000027.00,3454.4431,N,12128.5551,W,1,09,1.0,6.2,M,-33.0,M,,*52
$PYRTM,2024,124.000339377836,15.109986787975
$GPGGA,000028.00,3454.4437,N,12128.5553,W,1,09,1.0,6.0,M,-33.0,M,,*5B
$PYRTM,2024,124.000350952720,15.109998362859
$GPGGA,000029.00,3454.4438,N,12128.5554,W,1,09,1.0,6.1,M,-33.0,M,,*53
$PYRTM,2024,124.000362525810,15.110009935949
$GPGGA,000030.00,3454.4440,N,12128.5554,W,1,09,1.0,6.2,M,-33.0,M,,*57
$PYRTM,2024,124.000374101655,15.110021511794
$GPGGA,000031.00,3454.4443,N,12128.5554,W,1,09,1.0,6.3,M,-33.0,M,,*54
$PYRTM,2024,124.000385675868,15.110033086007
$GPGGA,000032.00,3454.4447,N,12128.5552,W,1,09,1.0,6.4,M,-33.0,M,,*52
$PYRTM,2024,124.000397249676,15.110044659815
$GPGGA,000033.00,3454.4451,N,12128.5550,W,1,09,1.0,6.5,M,-33.0,M,,*57
$PYRTM,2024,124.000408823484,15.110056233623
$GPGGA,000034.00,3454.4455,N,12128.5548,W,1,09,1.0,6.5,M,-33.0,M,,*5D
$PYRTM,2024,124.000420400069,15.110067810208
$GPGGA,000035.00,3454.4461,N,12128.5551,W,1,09,1.0,6.4,M,-33.0,M,,*52
$PYRTM,2024,124.000431967581,15.110079377720
$GPGGA,000036.00,3454.4464,N,12128.5559,W,1,09,1.0,6.1,M,-33.0,M,,*59
$PYRTM,2024,124.000443546123,15.110090956273
$GPGGA,000037.00,3454.4465,N,12128.5562,W,1,09,1.0,6.1,M,-33.0,M,,*51
$PYRTM,2024,124.000455119282,15.110102529421
$GPGGA,000038.00,3454.4467,N,12128.5556,W,1,09,1.0,6.2,M,-33.0,M,,*58
$PYRTM,2024,124.000466693900,15.110114104039
$GPGGA,000039.00,3454.4472,N,12128.5547,W,1,09,1.0,6.2,M,-33.0,M,,*5D
$PYRTM,2024,124.000478267303,15.110125677454
$GPGGA,000040.00,3454.4478,N,12128.5546,W,1,09,1.0,6.0,M,-33.0,M,,*5A
$PYRTM,2024,124.000489842824,15.110137252963
$GPGGA,000041.00,3454.4484,N,12128.5555,W,1,09,1.0,5.3,M,-33.0,M,,*5A
$PYRTM,2024,124.000501415394,15.110148825532
$GPGGA,000042.00,3454.4485,N,12128.5563,W,1,09,1.0,5.1,M,-33.0,M,,*5F
$PYRTM,2024,124.000512993264,15.110160403403
$GPGGA,000043.00,3454.4485,N,12128.5563,W,1,09,1.0,5.2,M,-33.0,M,,*5D
$PYRTM,2024,124.000524564363,15.110171974502
$GPGGA,000044.00,3454.4489,N,12128.5557,W,1,09,1.0,5.4,M,-33.0,M,,*57
$PYRTM,2024,124.000536141389,15.110183551528
$GPGGA,000045.00,3454.4496,N,12128.5553,W,1,09,1.0,5.4,M,-33.0,M,,*5C
$PYRTM,2024,124.000547706933,15.110195117072
$GPGGA,000046.00,3454.4500,N,12128.5554,W,1,09,1.0,5.4,M,-33.0,M,,*56
$PYRTM,2024,124.000559158218,15.110206568356
$GPGGA,000047.00,3454.4502,N,12128.5558,W,1,09,1.0,5.5,M,-33.0,M,,*58
$PYRTM,2024,124.000570860417,15.110218270556
$GPGGA,000048.00,3454.4505,N,12128.5561,W,1,09,1.0,5.6,M,-33.0,M,,*59
$PYRTM,2024,124.000582434074,15.110229844213
$GPGGA,000049.00,3454.4510,N,12128.5561,W,1,09,1.0,5.7,M,-33.0,M,,*5D
$PYRTM,2024,124.000594007396,15.110241417535
$GPGGA,000050.00,3454.4514,N,12128.5560,W,1,09,1.0,5.8,M,-33.0,M,,*5F
$PYRTM,2024,124.000605592627,15.110253002766
$GPGGA,000051.00,3454.4518,N,12128.5560,W,1,09,1.0,5.9,M,-33.0,M,,*53
$PYRTM,2024,124.000612860706,15.110260270845
$GPGGA,000052.00,3454.4521,N,12128.5564,W,1,09,1.0,6.0,M,-33.0,M,,*54
$PYRTM,2024,124.000631519514,15.110278929653
$GPGGA,000053.00,3454.4522,N,12128.5566,W,1,09,1.0,6.1,M,-33.0,M,,*55
$PYRTM,2024,124.000643082998,15.110290493137
$GPGGA,000054.00,3454.4525,N,12128.5564,W,1,09,1.0,6.3,M,-33.0,M,,*55
$PYRTM,2024,124.000654681424,15.110302091562
$GPGGA,000055.00,3454.4532,N,12128.5563,W,1,09,1.0,6.1,M,-33.0,M,,*57
$PYRTM,2024,124.000663452407,15.110310862546
$GPGGA,000056.00,3454.4538,N,12128.5567,W,1,09,1.0,5.4,M,-33.0,M,,*5C
$PYRTM,2024,124.000670732836,15.110318142986
$GPGGA,000057.00,3454.4540,N,12128.5571,W,1,09,1.0,5.0,M,-33.0,M,,*51
$PYRTM,2024,124.000686601910,15.110334012049
$GPGGA,000058.00,3454.4539,N,12128.5572,W,1,09,1.0,5.1,M,-33.0,M,,*52
$PYRTM,2024,124.000698186389,15.110345596528
$GPGGA,000059.00,3454.4540,N,12128.5571,W,1,09,1.0,5.3,M,-33.0,M,,*5C
$PYRTM,2024,124.000709749444,15.110357159583
$GPGGA,000100.00,3454.4546,N,12128.5569,W,1,09,1.0,5.3,M,-33.0,M,,*5E
$PYRTM,2024,124.000721323866,15.110368734005
$GPGGA,000101.00,3454.4553,N,12128.5567,W,1,09,1.0,5.4,M,-33.0,M,,*52
$PYRTM,2024,124.000732897662,15.110380307801
$GPGGA,000102.00,3454.4557,N,12128.5567,W,1,09,1.0,5.6,M,-33.0,M,,*57
$PYRTM,2024,124.000744480613,15.110391890764
$GPGGA,000103.00,3454.4561,N,12128.5570,W,1,09,1.0,5.7,M,-33.0,M,,*54
$PYRTM,2024,124.000751753229,15.110399163368
$GPGGA,000104.00,3454.4565,N,12128.5576,W,1,09,1.0,5.8,M,-33.0,M,,*5E
$PYRTM,2024,124.000767631562,15.110415041701
$GPGGA,000105.00,3454.4567,N,12128.5579,W,1,09,1.0,5.9,M,-33.0,M,,*53
$PYRTM,2024,124.000779196169,15.110426606308
$GPGGA,000106.00,3454.4568,N,12128.5574,W,1,09,1.0,6.0,M,-33.0,M,,*58
$PYRTM,2024,124.000790768889,15.110438179028
$GPGGA,000107.00,3454.4573,N,12128.5568,W,1,09,1.0,6.1,M,-33.0,M,,*5F
$PYRTM,2024,124.000802342963,15.110449753102
$GPGGA,000108.00,3454.4580,N,12128.5567,W,1,09,1.0,5.9,M,-33.0,M,,*58
$PYRTM,2024,124.000813790231,15.110461200370
$GPGGA,000109.00,3454.4583,N,12128.5572,W,1,09,1.0,5.7,M,-33.0,M,,*50
$PYRTM,2024,124.000825376447,15.110472786586
$GPGGA,000110.00,3454.4584,N,12128.5577,W,1,09,1.0,5.7,M,-33.0,M,,*5A
$PYRTM,2024,124.000837064884,15.110484475023
$GPGGA,000111.00,3454.4588,N,12128.5577,W,1,09,1.0,5.7,M,-33.0,M,,*57
$PYRTM,2024,124.000848634583,15.110496044942
$GPGGA,000112.00,3454.4594,N,12128.5573,W,1,09,1.0,5.9,M,-33.0,M,,*53
$PYRTM,2024,124.000860086053,15.110507496204
$GPGGA,000113.00,3454.4598,N,12128.5571,W,1,09,1.0,6.0,M,-33.0,M,,*56
$PYRTM,2024,124.000871787257,15.110519197396
$GPGGA,000114.00,3454.4601,N,12128.5574,W,1,09,1.0,6.1,M,-33.0,M,,*56
$PYRTM,2024,124.000883233299,15.110530643437
$GPGGA,000115.00,3454.4605,N,12128.5576,W,1,09,1.0,6.2,M,-33.0,M,,*52
$PYRTM,2024,124.000894821944,15.110542232083
$GPGGA,000116.00,3454.4610,N,12128.5574,W,1,09,1.0,6.3,M,-33.0,M,,*56
$PYRTM,2024,124.000906522257,15.110553932396
$GPGGA,000117.00,3454.4615,N,12128.5572,W,1,09,1.0,6.1,M,-33.0,M,,*56
$PYRTM,2024,124.000917972373,15.110565382512
$GPGGA,000118.00,3454.4620,N,12128.5574,W,1,09,1.0,5.9,M,-33.0,M,,*52
$PYRTM,2024,124.000929533125,15.110576943264
$GPGGA,000119.00,3454.4622,N,12128.5578,W,1,09,1.0,6.0,M,-33.0,M,,*57
$PYRTM,2024,124.000936937824,15.110584347963
$GPGGA,000120.00,3454.4624,N,12128.5581,W,1,09,1.0,6.0,M,-33.0,M,,*5D
$PYRTM,2024,124.000955598507,15.110603008657
$GPGGA,000121.00,3454.4629,N,12128.5581,W,1,09,1.0,6.0,M,-33.0,M,,*51
$PYRTM,2024,124.000964265544,15.110611675683
$GPGGA,000122.00,3454.4636,N,12128.5579,W,1,09,1.0,6.1,M,-33.0,M,,*5A
$PYRTM,2024,124.000971661725,15.110619071863
$GPGGA,000123.00,3454.4640,N,12128.5578,W,1,09,1.0,6.2,M,-33.0,M,,*58
$PYRTM,2024,124.000990306447,15.110637716586
$GPGGA,000124.00,3454.4641,N,12128.5578,W,1,09,1.0,6.3,M,-33.0,M,,*5F
$PYRTM,2024,124.001001890579,15.110649300718
$GPGGA,000125.00,3454.4644,N,12128.5582,W,1,09,1.0,6.4,M,-33.0,M,,*59
$PYRTM,2024,124.001013454606,15.110660864745
$GPGGA,000126.00,3454.4649,N,12128.5587,W,1,09,1.0,6.5,M,-33.0,M,,*53
$PYRTM,2024,124.001022123067,15.110669533206
$GPGGA,000127.00,3454.4654,N,12128.5589,W,1,09,1.0,6.6,M,-33.0,M,,*53
$PYRTM,2024,124.001029530845,15.110676940984
$GPGGA,000128.00,3454.4657,N,12128.5587,W,1,09,1.0,6.7,M,-33.0,M,,*50
$PYRTM,2024,124.001045271678,15.110692681817
$GPGGA,000129.00,3454.4657,N,12128.5583,W,1,09,1.0,6.8,M,-33.0,M,,*5A
$PYRTM,2024,124.001056859606,15.110704269757
$GPGGA,000130.00,3454.4659,N,12128.5584,W,1,09,1.0,6.9,M,-33.0,M,,*5A
$PYRTM,2024,124.001068420706,15.110715830845
$GPGGA,000131.00,3454.4665,N,12128.5589,W,1,09,1.0,7.0,M,-33.0,M,,*51
$PYRTM,2024,124.001080006238,15.110727416377
$GPGGA,000132.00,3454.4672,N,12128.5592,W,1,09,1.0,6.9,M,-33.0,M,,*56
$PYRTM,2024,124.001091567234,15.110738977373
$GPGGA,000133.00,3454.4675,N,12128.5590,W,1,09,1.0,6.9,M,-33.0,M,,*52
$PYRTM,2024,124.001103155035,15.110750565174
$GPGGA,000134.00,3454.4675,N,12128.5585,W,1,09,1.0,7.0,M,-33.0,M,,*59
$PYRTM,2024,124.001114715324,15.110762125463
$GPGGA,000135.00,3454.4678,N,12128.5586,W,1,09,1.0,7.0,M,-33.0,M,,*56
$PYRTM,2024,124.001126308889,15.110773719028
$GPGGA,000136.00,3454.4685,N,12128.5593,W,1,09,1.0,6.7,M,-33.0,M,,*55
$PYRTM,2024,124.001133698137,15.110781108275
$GPGGA,000137.00,3454.4691,N,12128.5597,W,1,09,1.0,6.4,M,-33.0,M,,*56
$PYRTM,2024,124.001149452338,15.110796862477
$GPGGA,000138.00,3454.4691,N,12128.5592,W,1,09,1.0,6.5,M,-33.0,M,,*5D
$PYRTM,2024,124.001161018889,15.110808429039
$GPGGA,000139.00,3454.4692,N,12128.5584,W,1,09,1.0,6.7,M,-33.0,M,,*5A
$PYRTM,2024,124.001168308403,15.110815718542
$GPGGA,000140.00,3454.4697,N,12128.5582,W,1,09,1.0,6.7,M,-33.0,M,,*57
$PYRTM,2024,124.001184162245,15.110831572384
$GPGGA,000141.00,3454.4703,N,12128.5587,W,1,09,1.0,6.4,M,-33.0,M,,*5C
$PYRTM,2024,124.001195747604,15.110843157743
$GPGGA,000142.00,3454.4705,N,12128.5595,W,1,09,1.0,6.0,M,-33.0,M,,*5E
$PYRTM,2024,124.001207308299,15.110854718438
$GPGGA,000143.00,3454.4707,N,12128.5596,W,1,09,1.0,5.9,M,-33.0,M,,*54
$PYRTM,2024,124.001218898113,15.110866308264
$GPGGA,000144.00,3454.4712,N,12128.5590,W,1,09,1.0,6.0,M,-33.0,M,,*5B
$PYRTM,2024,124.001230459375,15.110877869514
$GPGGA,000145.00,3454.4718,N,12128.5584,W,1,09,1.0,6.0,M,-33.0,M,,*55
$PYRTM,2024,124.001242047546,15.110889457685
$GPGGA,000146.00,3454.4720,N,12128.5586,W,1,09,1.0,6.1,M,-33.0,M,,*5E
$PYRTM,2024,124.001253604757,15.110901014907
$GPGGA,000147.00,3454.4720,N,12128.5592,W,1,09,1.0,6.3,M,-33.0,M,,*58
$PYRTM,2024,124.001265188160,15.110912598299
$GPGGA,000148.00,3454.4724,N,12128.5597,W,1,09,1.0,6.2,M,-33.0,M,,*57
$PYRTM,2024,124.001276754491,15.110924164630
$GPGGA,000149.00,3454.4730,N,12128.5595,W,1,09,1.0,5.6,M,-33.0,M,,*56
$PYRTM,2024,124.001288336296,15.110935746435
$GPGGA,000150.00,3454.4735,N,12128.5589,W,1,09,1.0,5.1,M,-33.0,M,,*51
$PYRTM,2024,124.001299902014,15.110947312153
$GPGGA,000151.00,3454.4738,N,12128.5586,W,1,09,1.0,5.0,M,-33.0,M,,*53
$PYRTM,2024,124.001307308484,15.110954718623
$GPGGA,000152.00,3454.4740,N,12128.5590,W,1,09,1.0,5.1,M,-33.0,M,,*59
$PYRTM,2024,124.001318999225,15.110966409363
$GPGGA,000153.00,3454.4743,N,12128.5597,W,1,09,1.0,5.3,M,-33.0,M,,*5E
$PYRTM,2024,124.001337530255,15.110984940405
$GPGGA,000154.00,3454.4747,N,12128.5599,W,1,09,1.0,5.4,M,-33.0,M,,*54
$PYRTM,2024,124.001346198819,15.110993608958
$GPGGA,000155.00,3454.4753,N,12128.5594,W,1,09,1.0,5.5,M,-33.0,M,,*5C
$PYRTM,2024,124.001357789537,15.111005199676
$GPGGA,000156.00,3454.4757,N,12128.5588,W,1,09,1.0,5.5,M,-33.0,M,,*56
$PYRTM,2024,124.001369347384,15.111016757523
$GPGGA,000157.00,3454.4761,N,12128.5587,W,1,09,1.0,5.6,M,-33.0,M,,*5E
$PYRTM,2024,124.001380934271,15.111028344410
$GPGGA,000158.00,3454.4765,N,12128.5593,W,1,09,1.0,5.7,M,-33.0,M,,*51
$PYRTM,2024,124.001392494711,15.111039904850
$GPGGA,000159.00,3454.4768,N,12128.5600,W,1,09,1.0,5.8,M,-33.0,M,,*5B
$PYRTM,2024,124.001404077870,15.111051488009
$GPGGA,000200.00,3454.4771,N,12128.5600,W,1,09,1.0,5.9,M,-33.0,M,,*5D
$PYRTM,2024,124.001411476481,15.111058886620
$GPGGA,000201.00,3454.4773,N,12128.5593,W,1,09,1.0,6.3,M,-33.0,M,,*5E
$PYRTM,2024,124.001427232546,15.111074642685
$GPGGA,000202.00,3454.4777,N,12128.5590,W,1,09,1.0,6.6,M,-33.0,M,,*5F
$PYRTM,2024,124.001438791551,15.111086201690
$GPGGA,000203.00,3454.4781,N,12128.5593,W,1,09,1.0,6.8,M,-33.0,M,,*5A
$PYRTM,2024,124.001450381123,15.111097791262
$GPGGA,000204.00,3454.4787,N,12128.5600,W,1,09,1.0,6.5,M,-33.0,M,,*5F
$PYRTM,2024,124.001461940185,15.111109350324
$GPGGA,000205.00,3454.4791,N,12128.5603,W,1,09,1.0,6.3,M,-33.0,M,,*5C
$PYRTM,2024,124.001473528947,15.111120939086
$GPGGA,000206.00,3454.4792,N,12128.5603,W,1,09,1.0,6.5,M,-33.0,M,,*5A
$PYRTM,2024,124.001485087917,15.111132498056
$GPGGA,000207.00,3454.4792,N,12128.5599,W,1,09,1.0,6.6,M,-33.0,M,,*58
$PYRTM,2024,124.001496670012,15.111144080150
$GPGGA,000208.00,3454.4797,N,12128.5597,W,1,09,1.0,6.7,M,-33.0,M,,*5D
$PYRTM,2024,124.001508238252,15.111155648391
$GPGGA,000209.00,3454.4804,N,12128.5601,W,1,09,1.0,6.5,M,-33.0,M,,*57
$PYRTM,2024,124.001515643461,15.111163053600
$GPGGA,000210.00,3454.4807,N,12128.5605,W,1,09,1.0,6.4,M,-33.0,M,,*59
$PYRTM,2024,124.001531384178,15.111178794317
$GPGGA,000211.00,3454.4806,N,12128.5606,W,1,09,1.0,6.5,M,-33.0,M,,*5B
$PYRTM,2024,124.001542967431,15.111190377569
$GPGGA,000212.00,3454.4809,N,12128.5603,W,1,09,1.0,6.6,M,-33.0,M,,*51
$PYRTM,2024,124.001554533160,15.111201943299
$GPGGA,000213.00,3454.4816,N,12128.5601,W,1,09,1.0,6.3,M,-33.0,M,,*59
$PYRTM,2024,124.001566134688,15.111213544838
$GPGGA,000214.00,3454.4822,N,12128.5602,W,1,09,1.0,6.1,M,-33.0,M,,*58
$PYRTM,2024,124.001577683252,15.111225093391
$GPGGA,000215.00,3454.4823,N,12128.5606,W,1,09,1.0,6.2,M,-33.0,M,,*5F
$PYRTM,2024,124.001589263912,15.111236674051
$GPGGA,000216.00,3454.4821,N,12128.5611,W,1,09,1.0,6.3,M,-33.0,M,,*59
$PYRTM,2024,124.001600829340,15.111248239479
$GPGGA,000217.00,3454.4823,N,12128.5612,W,1,09,1.0,6.5,M,-33.0,M,,*5F
$PYRTM,2024,124.001612416609,15.111259826748
$GPGGA,000218.00,3454.4830,N,12128.5607,W,1,09,1.0,6.3,M,-33.0,M,,*50
$PYRTM,2024,124.001623977002,15.111271387141
$GPGGA,000219.00,3454.4837,N,12128.5604,W,1,09,1.0,5.8,M,-33.0,M,,*5D
$PYRTM,2024,124.001631385324,15.111278795463
$GPGGA,000220.00,3454.4840,N,12128.5609,W,1,09,1.0,5.3,M,-33.0,M,,*51
$PYRTM,2024,124.001647125868,15.111294536007
$GPGGA,000221.00,3454.4838,N,12128.5617,W,1,09,1.0,5.6,M,-33.0,M,,*55
$PYRTM,2024,124.001658712731,15.111306122870
$GPGGA,000222.00,3454.4836,N,12128.5620,W,1,09,1.0,6.1,M,-33.0,M,,*58
$PYRTM,2024,124.001666107766,15.111313517905
$GPGGA,000223.00,3454.4840,N,12128.5616,W,1,09,1.0,6.2,M,-33.0,M,,*5E
$PYRTM,2024,124.001677803171,15.111325213310
$GPGGA,000224.00,3454.4849,N,12128.5611,W,1,09,1.0,6.0,M,-33.0,M,,*55
$PYRTM,2024,124.001696339097,15.111343749236
$GPGGA,000225.00,3454.4854,N,12128.5613,W,1,09,1.0,5.8,M,-33.0,M,,*51
$PYRTM,2024,124.001705005116,15.111352415255
$GPGGA,000226.00,3454.4854,N,12128.5619,W,1,09,1.0,5.9,M,-33.0,M,,*59
$PYRTM,2024,124.001716570926,15.111363981065
$GPGGA,000227.00,3454.4852,N,12128.5624,W,1,09,1.0,6.0,M,-33.0,M,,*5A
$PYRTM,2024,124.001728158264,15.111375568414
$GPGGA,000228.00,3454.4855,N,12128.5625,W,1,09,1.0,6.2,M,-33.0,M,,*51
$PYRTM,2024,124.001739720058,15.111387130197
$GPGGA,000229.00,3454.4861,N,12128.5624,W,1,09,1.0,6.1,M,-33.0,M,,*55
$PYRTM,2024,124.001751306655,15.111398716794
$GPGGA,000230.00,3454.4866,N,12128.5624,W,1,09,1.0,6.1,M,-33.0,M,,*5A
$PYRTM,2024,124.001762867593,15.111410277731
$GPGGA,000231.00,3454.4866,N,12128.5624,W,1,09,1.0,6.3,M,-33.0,M,,*59
$PYRTM,2024,124.001774453322,15.111421863472
$GPGGA,000232.00,3454.4867,N,12128.5625,W,1,09,1.0,6.4,M,-33.0,M,,*5D
$PYRTM,2024,124.001786015706,15.111433425845
$GPGGA,000233.00,3454.4872,N,12128.5629,W,1,09,1.0,6.5,M,-33.0,M,,*55
$PYRTM,2024,124.001797604942,15.111445015081
$GPGGA,000234.00,3454.4878,N,12128.5631,W,1,09,1.0,6.7,M,-33.0,M,,*53
$PYRTM,2024,124.001804996759,15.111452406898
$GPGGA,000235.00,3454.4880,N,12128.5631,W,1,09,1.0,6.8,M,-33.0,M,,*5A
$PYRTM,2024,124.001820751088,15.111468161227
$GPGGA,000236.00,3454.4881,N,12128.5632,W,1,09,1.0,6.9,M,-33.0,M,,*5A
$PYRTM,2024,124.001832310440,15.111479720579
$GPGGA,000237.00,3454.4883,N,12128.5635,W,1,09,1.0,7.1,M,-33.0,M,,*57
$PYRTM,2024,124.001843893438,15.111491303785
$GPGGA,000238.00,3454.4887,N,12128.5637,W,1,09,1.0,7.2,M,-33.0,M,,*5D
$PYRTM,2024,124.001855459444,15.111502869595
$GPGGA,000239.00,3454.4893,N,12128.5638,W,1,09,1.0,7.1,M,-33.0,M,,*55
$PYRTM,2024,124.001867046366,15.111514456505
$GPGGA,000240.00,3454.4897,N,12128.5638,W,1,09,1.0,7.1,M,-33.0,M,,*5F
$PYRTM,2024,124.001874443333,15.111521853472
$GPGGA,000241.00,3454.4898,N,12128.5639,W,1,09,1.0,7.3,M,-33.0,M,,*52
$PYRTM,2024,124.001890197442,15.111537607581
$GPGGA,000242.00,3454.4898,N,12128.5641,W,1,09,1.0,7.3,M,-33.0,M,,*5E
$PYRTM,2024,124.001901757188,15.111549167326
$GPGGA,000243.00,3454.4901,N,12128.5643,W,1,09,1.0,7.5,M,-33.0,M,,*5A
$PYRTM,2024,124.001913343356,15.111560753495
$GPGGA,000244.00,3454.4907,N,12128.5645,W,1,09,1.0,7.2,M,-33.0,M,,*5A
$PYRTM,2024,124.001924903275,15.111572313414
$GPGGA,000245.00,3454.4912,N,12128.5643,W,1,09,1.0,6.9,M,-33.0,M,,*53
$PYRTM,2024,124.001936486134,15.111583896273
$GPGGA,000246.00,3454.4915,N,12128.5641,W,1,09,1.0,7.0,M,-33.0,M,,*5D
$PYRTM,2024,124.001948053634,15.111595463773
$GPGGA,000247.00,3454.4918,N,12128.5643,W,1,09,1.0,7.1,M,-33.0,M,,*52
$PYRTM,2024,124.001959640637,15.111607050787
$GPGGA,000248.00,3454.4921,N,12128.5651,W,1,09,1.0,7.2,M,-33.0,M,,*57
$PYRTM,2024,124.001971201991,15.111618612130
$GPGGA,000249.00,3454.4923,N,12128.5655,W,1,09,1.0,7.3,M,-33.0,M,,*51
$PYRTM,2024,124.001982787940,15.111630198079
$GPGGA,000250.00,3454.4926,N,12128.5652,W,1,09,1.0,7.4,M,-33.0,M,,*5C
$PYRTM,2024,124.001994350590,15.111641760729
$GPGGA,000251.00,3454.4932,N,12128.5646,W,1,09,1.0,7.3,M,-33.0,M,,*5A
$PYRTM,2024,124.002005939502,15.111653349641
$GPGGA,000252.00,3454.4939,N,12128.5646,W,1,09,1.0,6.6,M,-33.0,M,,*56
$PYRTM,2024,124.002017497384,15.111664907523
$GPGGA,000253.00,3454.4942,N,12128.5654,W,1,09,1.0,6.1,M,-33.0,M,,*5F
$PYRTM,2024,124.002029085671,15.111676495810
$GPGGA,000254.00,3454.4940,N,12128.5661,W,1,09,1.0,6.1,M,-33.0,M,,*5C
$PYRTM,2024,124.002036487292,15.111683897431
$GPGGA,000255.00,3454.4941,N,12128.5661,W,1,09,1.0,6.2,M,-33.0,M,,*5F
$PYRTM,2024,124.002055125938,15.111702536088
$GPGGA,000256.00,3454.4948,N,12128.5657,W,1,09,1.0,6.4,M,-33.0,M,,*56
$PYRTM,2024,124.002063794352,15.111711204491
$GPGGA,000257.00,3454.4954,N,12128.5655,W,1,09,1.0,6.4,M,-33.0,M,,*58
$PYRTM,2024,124.002075383391,15.111722793530
$GPGGA,000258.00,3454.4957,N,12128.5656,W,1,09,1.0,6.6,M,-33.0,M,,*55
$PYRTM,2024,124.002086943368,15.111734353507
$GPGGA,000259.00,3454.4959,N,12128.5661,W,1,09,1.0,6.7,M,-33.0,M,,*5F
$PYRTM,2024,124.002098529734,15.111745939873
$GPGGA,000300.00,3454.4961,N,12128.5667,W,1,09,1.0,6.8,M,-33.0,M,,*50
$PYRTM,2024,124.002110090301,15.111757500440
$GPGGA,000301.00,3454.4964,N,12128.5668,W,1,09,1.0,6.9,M,-33.0,M,,*5A
$PYRTM,2024,124.002121681100,15.111769091250
$GPGGA,000302.00,3454.4966,N,12128.5662,W,1,09,1.0,7.0,M,-33.0,M,,*59
$PYRTM,2024,124.002133240185,15.111780650324
$GPGGA,000303.00,3454.4971,N,12128.5657,W,1,09,1.0,7.0,M,-33.0,M,,*58
$PYRTM,2024,124.002140645150,15.111788055289
$GPGGA,000304.00,3454.4977,N,12128.5661,W,1,09,1.0,6.5,M,-33.0,M,,*58
$PYRTM,2024,124.002156386343,15.111803796481
$GPGGA,000305.00,3454.4981,N,12128.5671,W,1,09,1.0,6.1,M,-33.0,M,,*55
$PYRTM,2024,124.002168088750,15.111815498889
$GPGGA,000306.00,3454.4982,N,12128.5674,W,1,09,1.0,6.1,M,-33.0,M,,*50
$PYRTM,2024,124.002175368356,15.111822778495
$GPGGA,000307.00,3454.4984,N,12128.5668,W,1,09,1.0,6.2,M,-33.0,M,,*59
$PYRTM,2024,124.002191240174,15.111838650313
$GPGGA,000308.00,3454.4989,N,12128.5661,W,1,09,1.0,6.2,M,-33.0,M,,*52
$PYRTM,2024,124.002202799248,15.111850209387
$GPGGA,000309.00,3454.4994,N,12128.5661,W,1,09,1.0,6.1,M,-33.0,M,,*5C
$PYRTM,2024,124.002210091343,15.111857501481
$GPGGA,000310.00,3454.4997,N,12128.5668,W,1,09,1.0,6.3,M,-33.0,M,,*5C
$PYRTM,2024,124.002225949329,15.111873359468
$GPGGA,000311.00,3454.4999,N,12128.5676,W,1,09,1.0,6.1,M,-33.0,M,,*5E
$PYRTM,2024,124.002237538588,15.111884948727
$GPGGA,000312.00,3454.5002,N,12128.5679,W,1,09,1.0,6.0,M,-33.0,M,,*59
$PYRTM,2024,124.002244813808,15.111892223947
$GPGGA,000313.00,3454.5006,N,12128.5673,W,1,09,1.0,6.0,M,-33.0,M,,*56
$PYRTM,2024,124.002260567512,15.111907977650
$GPGGA,000314.00,3454.5010,N,12128.5666,W,1,09,1.0,6.4,M,-33.0,M,,*56
$PYRTM,2024,124.002272130405,15.111919540556
$GPGGA,000315.00,3454.5013,N,12128.5666,W,1,09,1.0,6.8,M,-33.0,M,,*58
$PYRTM,2024,124.002283715625,15.111931125775
$GPGGA,000316.00,3454.5017,N,12128.5673,W,1,09,1.0,6.8,M,-33.0,M,,*5B
$PYRTM,2024,124.002295277350,15.111942687488
$GPGGA,000317.00,3454.5021,N,12128.5679,W,1,09,1.0,6.7,M,-33.0,M,,*5A
$PYRTM,2024,124.002306864213,15.111954274352
$GPGGA,000318.00,3454.5024,N,12128.5679,W,1,09,1.0,6.7,M,-33.0,M,,*50
$PYRTM,2024,124.002318425104,15.111965835243
$GPGGA,000319.00,3454.5028,N,12128.5674,W,1,09,1.0,6.8,M,-33.0,M,,*5F
$PYRTM,2024,124.002330015278,15.111977425417
$GPGGA,000320.00,3454.5031,N,12128.5671,W,1,09,1.0,6.9,M,-33.0,M,,*59
$PYRTM,2024,124.002341574375,15.111988984514
$GPGGA,000321.00,3454.5035,N,12128.5673,W,1,09,1.0,6.9,M,-33.0,M,,*5E
$PYRTM,2024,124.002353154664,15.112000564803
$GPGGA,000322.00,3454.5039,N,12128.5678,W,1,09,1.0,6.9,M,-33.0,M,,*5A
$PYRTM,2024,124.002364720660,15.112012130799
$GPGGA,000323.00,3454.5044,N,12128.5681,W,1,09,1.0,6.8,M,-33.0,M,,*56
$PYRTM,2024,124.002376308229,15.112023718368
$GPGGA,000324.00,3454.5046,N,12128.5679,W,1,09,1.0,6.9,M,-33.0,M,,*55
$PYRTM,2024,124.002387868773,15.112035278912
$GPGGA,000325.00,3454.5049,N,12128.5675,W,1,09,1.0,7.0,M,-33.0,M,,*5F
$PYRTM,2024,124.002395275995,15.112042686134
$GPGGA,000326.00,3454.5053,N,12128.5674,W,1,09,1.0,7.0,M,-33.0,M,,*56
$PYRTM,2024,124.002413912500,15.112061322639
$GPGGA,000327.00,3454.5058,N,12128.5677,W,1,09,1.0,7.1,M,-33.0,M,,*5E
$PYRTM,2024,124.002425503275,15.112072913426
$GPGGA,000328.00,3454.5062,N,12128.5685,W,1,09,1.0,6.9,M,-33.0,M,,*5C
$PYRTM,2024,124.002437059063,15.112084469201
$GPGGA,000329.00,3454.5065,N,12128.5689,W,1,09,1.0,6.8,M,-33.0,M,,*57
$PYRTM,2024,124.002445755938,15.112093166076
$GPGGA,000330.00,3454.5069,N,12128.5683,W,1,09,1.0,7.0,M,-33.0,M,,*50
$PYRTM,2024,124.002457316875,15.112104727014
$GPGGA,000331.00,3454.5073,N,12128.5676,W,1,09,1.0,7.5,M,-33.0,M,,*55
$PYRTM,2024,124.002468902222,15.112116312361
$GPGGA,000332.00,3454.5077,N,12128.5676,W,1,09,1.0,8.0,M,-33.0,M,,*58
$PYRTM,2024,124.002480462465,15.112127872604
$GPGGA,000333.00,3454.5081,N,12128.5685,W,1,09,1.0,7.9,M,-33.0,M,,*5A
$PYRTM,2024,124.002492049005,15.112139459144
$GPGGA,000334.00,3454.5084,N,12128.5691,W,1,09,1.0,8.2,M,-33.0,M,,*59
$PYRTM,2024,124.002503610602,15.112151020741
$GPGGA,000335.00,3454.5088,N,12128.5689,W,1,09,1.0,8.5,M,-33.0,M,,*5A
$PYRTM,2024,124.002511018588,15.112158428727
$GPGGA,000336.00,3454.5094,N,12128.5684,W,1,09,1.0,8.7,M,-33.0,M,,*5B
$PYRTM,2024,124.002526758530,15.112174168669
$GPGGA,000337.00,3454.5098,N,12128.5683,W,1,09,1.0,9.0,M,-33.0,M,,*57
$PYRTM,2024,124.002538345822,15.112185755961
$GPGGA,000338.00,3454.5100,N,12128.5685,W,1,09,1.0,9.2,M,-33.0,M,,*5C
$PYRTM,2024,124.002545741748,15.112193151887
$GPGGA,000339.00,3454.5103,N,12128.5687,W,1,09,1.0,9.6,M,-33.0,M,,*58
$PYRTM,2024,124.002561508137,15.112208918275
$GPGGA,000340.00,3454.5110,N,12128.5687,W,1,09,1.0,9.5,M,-33.0,M,,*57
$PYRTM,2024,124.002573055069,15.112220465208
$GPGGA,000341.00,3454.5116,N,12128.5687,W,1,09,1.0,9.5,M,-33.0,M,,*50
$PYRTM,2024,124.002584645336,15.112232055475
$GPGGA,000342.00,3454.5116,N,12128.5689,W,1,09,1.0,9.8,M,-33.0,M,,*50
$PYRTM,2024,124.002596318507,15.112243728646
$GPGGA,000343.00,3454.5117,N,12128.5693,W,1,09,1.0,10.0,M,-33.0,M,,*6B
$PYRTM,2024,124.002607905579,15.112255315718
$GPGGA,000344.00,3454.5123,N,12128.5695,W,1,09,1.0,10.0,M,-33.0,M,,*6D
$PYRTM,2024,124.002619466933,15.112266877072
$GPGGA,000345.00,3454.5127,N,12128.5693,W,1,09,1.0,10.0,M,-33.0,M,,*6E
$PYRTM,2024,124.002626757998,15.112274168137
$GPGGA,000346.00,3454.5128,N,12128.5690,W,1,09,1.0,10.1,M,-33.0,M,,*60
$PYRTM,2024,124.002642615000,15.112290025139
$GPGGA,000347.00,3454.5131,N,12128.5692,W,1,09,1.0,10.3,M,-33.0,M,,*69
$PYRTM,2024,124.002654205139,15.112301615278
$GPGGA,000348.00,3454.5136,N,12128.5699,W,1,09,1.0,10.0,M,-33.0,M,,*69
$PYRTM,2024,124.002665648079,15.112313058218
$GPGGA,000349.00,3454.5140,N,12128.5702,W,1,09,1.0,9.7,M,-33.0,M,,*55
$PYRTM,2024,124.002677234387,15.112324644525
$GPGGA,000350.00,3454.5140,N,12128.5698,W,1,09,1.0,9.8,M,-33.0,M,,*50
$PYRTM,2024,124.002688911875,15.112336322014
$GPGGA,000351.00,3454.5139,N,12128.5693,W,1,09,1.0,10.0,M,-33.0,M,,*64
$PYRTM,2024,124.002700500637,15.112347910775
$GPGGA,000352.00,3454.5145,N,12128.5696,W,1,09,1.0,10.0,M,-33.0,M,,*69
$PYRTM,2024,124.002711944144,15.112359354282
$GPGGA,000353.00,3454.5152,N,12128.5704,W,1,09,1.0,9.8,M,-33.0,M,,*54
$PYRTM,2024,124.002723532650,15.112370942789
$GPGGA,000354.00,3454.5154,N,12128.5707,W,1,09,1.0,9.7,M,-33.0,M,,*59
$PYRTM,2024,124.002735092616,15.112382502743
$GPGGA,000355.00,3454.5152,N,12128.5702,W,1,09,1.0,9.8,M,-33.0,M,,*54
$PYRTM,2024,124.002746680810,15.112394090949
$GPGGA,000356.00,3454.5152,N,12128.5696,W,1,09,1.0,9.9,M,-33.0,M,,*5A
$PYRTM,2024,124.002753973530,15.112401383669
$GPGGA,000357.00,3454.5157,N,12128.5696,W,1,09,1.0,9.7,M,-33.0,M,,*50
$PYRTM,2024,124.002772723738,15.112420133877
$GPGGA,000358.00,3454.5164,N,12128.5703,W,1,09,1.0,8.7,M,-33.0,M,,*53
$PYRTM,2024,124.002786725486,15.112434135625
$GPGGA,000359.00,3454.5166,N,12128.5711,W,1,09,1.0,8.0,M,-33.0,M,,*54
$PYRTM,2024,124.002792975718,15.112440385856
$GPGGA,000400.00,3454.5163,N,12128.5709,W,1,09,1.0,8.1,M,-33.0,M,,*52
$PYRTM,2024,124.002804538032,15.112451948171
$GPGGA,000401.00,3454.5160,N,12128.5698,W,1,09,1.0,8.3,M,-33.0,M,,*5B
$PYRTM,2024,124.002816123958,15.112463534097
$GPGGA,000402.00,3454.5164,N,12128.5689,W,1,09,1.0,8.2,M,-33.0,M,,*5D
$PYRTM,2024,124.002827686829,15.112475096968
$GPGGA,000403.00,3454.5173,N,12128.5692,W,1,09,1.0,7.1,M,-33.0,M,,*5C
$PYRTM,2024,124.002839275069,15.112486685208
$GPGGA,000404.00,3454.5177,N,12128.5702,W,1,09,1.0,6.1,M,-33.0,M,,*56
$PYRTM,2024,124.002850834699,15.112498244850
$GPGGA,000405.00,3454.5174,N,12128.5705,W,1,09,1.0,6.1,M,-33.0,M,,*53
$PYRTM,2024,124.002858241007,15.112505651146
$GPGGA,000406.00,3454.5170,N,12128.5697,W,1,09,1.0,7.0,M,-33.0,M,,*5E
$PYRTM,2024,124.002873981319,15.112521391458
$GPGGA,000407.00,3454.5172,N,12128.5685,W,1,09,1.0,7.6,M,-33.0,M,,*58
$PYRTM,2024,124.002885584120,15.112532994259
$GPGGA,000408.00,3454.5180,N,12128.5681,W,1,09,1.0,7.4,M,-33.0,M,,*5C
$PYRTM,2024,124.002897129861,15.112544540000
$GPGGA,000409.00,3454.5182,N,12128.5687,W,1,09,1.0,7.0,M,-33.0,M,,*5D
$PYRTM,2024,124.002908718611,15.112556128750
$GPGGA,000410.00,3454.5178,N,12128.5694,W,1,09,1.0,7.2,M,-33.0,M,,*50
$PYRTM,2024,124.002920278403,15.112567688542
$GPGGA,000411.00,3454.5175,N,12128.5692,W,1,09,1.0,7.7,M,-33.0,M,,*5F
$PYRTM,2024,124.002927684769,15.112575094896
$GPGGA,000412.00,3454.5179,N,12128.5683,W,1,09,1.0,7.8,M,-33.0,M,,*5F
$PYRTM,2024,124.002943426435,15.112590836574
$GPGGA,000413.00,3454.5184,N,12128.5679,W,1,09,1.0,7.7,M,-33.0,M,,*56
$PYRTM,2024,124.002955013495,15.112602423634
$GPGGA,000414.00,3454.5183,N,12128.5684,W,1,09,1.0,7.9,M,-33.0,M,,*5A
$PYRTM,2024,124.002962407500,15.112609817639
$GPGGA,000415.00,3454.5180,N,12128.5690,W,1,09,1.0,8.1,M,-33.0,M,,*5A
$PYRTM,2024,124.002978161852,15.112625571991
$GPGGA,000416.00,3454.5180,N,12128.5685,W,1,09,1.0,8.0,M,-33.0,M,,*5C
$PYRTM,2024,124.002989838171,15.112637248310
$GPGGA,000417.00,3454.5186,N,12128.5674,W,1,09,1.0,7.9,M,-33.0,M,,*53
$PYRTM,2024,124.003001313322,15.112648723461
$GPGGA,000418.00,3454.5190,N,12128.5669,W,1,09,1.0,7.6,M,-33.0,M,,*58
$PYRTM,2024,124.003012870984,15.112660281123
$GPGGA,000419.00,3454.5189,N,12128.5676,W,1,09,1.0,7.8,M,-33.0,M,,*51
$PYRTM,2024,124.003024473796,15.112671883947
$GPGGA,000420.00,3454.5186,N,12128.5684,W,1,09,1.0,8.0,M,-33.0,M,,*5E
$PYRTM,2024,124.003036021343,15.112683431481
$GPGGA,000421.00,3454.5187,N,12128.5682,W,1,09,1.0,8.3,M,-33.0,M,,*5B
$PYRTM,2024,124.003047610301,15.112695020440
$GPGGA,000422.00,3454.5192,N,12128.5672,W,1,09,1.0,8.2,M,-33.0,M,,*52
$PYRTM,2024,124.003059167350,15.112706577488
$GPGGA,000423.00,3454.5197,N,12128.5665,W,1,09,1.0,8.1,M,-33.0,M,,*53
$PYRTM,2024,124.003066575463,15.112713985602
$GPGGA,000424.00,3454.5199,N,12128.5669,W,1,09,1.0,8.2,M,-33.0,M,,*55
$PYRTM,2024,124.003082316806,15.112729726944
$GPGGA,000425.00,3454.5197,N,12128.5678,W,1,09,1.0,8.3,M,-33.0,M,,*5B
$PYRTM,2024,124.003093898924,15.112741309062
$GPGGA,000426.00,3454.5197,N,12128.5681,W,1,09,1.0,8.3,M,-33.0,M,,*5E
$PYRTM,2024,124.003101321470,15.112748731609
$GPGGA,000427.00,3454.5200,N,12128.5674,W,1,09,1.0,8.5,M,-33.0,M,,*5E
$PYRTM,2024,124.003112987454,15.112760397593
$GPGGA,000428.00,3454.5204,N,12128.5665,W,1,09,1.0,8.8,M,-33.0,M,,*58
$PYRTM,2024,124.003131506748,15.112778916898
$GPGGA,000429.00,3454.5205,N,12128.5664,W,1,09,1.0,9.1,M,-33.0,M,,*51
$PYRTM,2024,124.003145523160,15.112792933287
$GPGGA,000430.00,3454.5205,N,12128.5671,W,1,09,1.0,9.4,M,-33.0,M,,*58
$PYRTM,2024,124.003151761424,15.112799171574
$GPGGA,000431.00,3454.5205,N,12128.5678,W,1,09,1.0,9.5,M,-33.0,M,,*51
$PYRTM,2024,124.003163348762,15.112810758900
$GPGGA,000432.00,3454.5207,N,12128.5678,W,1,09,1.0,9.5,M,-33.0,M,,*50
$PYRTM,2024,124.003174908750,15.112822318889
$GPGGA,000433.00,3454.5211,N,12128.5669,W,1,09,1.0,9.5,M,-33.0,M,,*56
$PYRTM,2024,124.003186502049,15.112833912187
$GPGGA,000434.00,3454.5215,N,12128.5662,W,1,09,1.0,9.5,M,-33.0,M,,*5E
$PYRTM,2024,124.003193786551,15.112841196690
$GPGGA,000435.00,3454.5216,N,12128.5663,W,1,09,1.0,9.6,M,-33.0,M,,*5E
$PYRTM,2024,124.003209646586,15.112857056713
$GPGGA,000436.00,3454.5216,N,12128.5672,W,1,09,1.0,9.4,M,-33.0,M,,*5F
$PYRTM,2024,124.003221206007,15.112868616146
$GPGGA,000437.00,3454.5217,N,12128.5679,W,1,09,1.0,9.3,M,-33.0,M,,*53
$PYRTM,2024,124.003232792245,15.112880202384
$GPGGA,000438.00,3454.5219,N,12128.5675,W,1,09,1.0,9.4,M,-33.0,M,,*59
$PYRTM,2024,124.003244356933,15.112891767072
$GPGGA,000439.00,3454.5222,N,12128.5664,W,1,09,1.0,9.7,M,-33.0,M,,*53
$PYRTM,2024,124.003251657523,15.112899067662
$GPGGA,000440.00,3454.5225,N,12128.5657,W,1,09,1.0,9.9,M,-33.0,M,,*54
$PYRTM,2024,124.003267617847,15.112915027986
$GPGGA,000441.00,3454.5228,N,12128.5662,W,1,09,1.0,10.0,M,-33.0,M,,*6F
$PYRTM,2024,124.003279090081,15.112926500220
$GPGGA,000442.00,3454.5229,N,12128.5672,W,1,09,1.0,9.9,M,-33.0,M,,*5D
$PYRTM,2024,124.003286482604,15.112933892743
$GPGGA,000443.00,3454.5229,N,12128.5676,W,1,09,1.0,9.8,M,-33.0,M,,*59
$PYRTM,2024,124.003302236933,15.112949647072
$GPGGA,000444.00,3454.5230,N,12128.5668,W,1,09,1.0,9.8,M,-33.0,M,,*59
$PYRTM,2024,124.003313797708,15.112961207847
$GPGGA,000445.00,3454.5234,N,12128.5658,W,1,09,1.0,9.8,M,-33.0,M,,*5F
$PYRTM,2024,124.003325385660,15.112972795799
$GPGGA,000446.00,3454.5240,N,12128.5657,W,1,09,1.0,9.5,M,-33.0,M,,*5D
$PYRTM,2024,124.003336946597,15.112984356736
$GPGGA,000447.00,3454.5242,N,12128.5664,W,1,09,1.0,9.2,M,-33.0,M,,*59
$PYRTM,2024,124.003348538009,15.112995948148
$GPGGA,000448.00,3454.5241,N,12128.5670,W,1,09,1.0,9.2,M,-33.0,M,,*50
$PYRTM,2024,124.003360095949,15.113007506100
$GPGGA,000449.00,3454.5240,N,12128.5668,W,1,10,0.8,9.3,M,-33.0,M,,*59
$PYRTM,2024,124.003371686134,15.113019096273
$GPGGA,000450.00,3454.5245,N,12128.5661,W,1,10,0.8,9.1,M,-33.0,M,,*5F
$PYRTM,2024,124.003383246887,15.113030657025
$GPGGA,000451.00,3454.5251,N,12128.5658,W,1,10,0.8,8.9,M,-33.0,M,,*58
$PYRTM,2024,124.003394826065,15.113042236215
$GPGGA,000452.00,3454.5251,N,12128.5661,W,1,10,0.8,8.9,M,-33.0,M,,*51
$PYRTM,2024,124.003406392292,15.113053802431
$GPGGA,000453.00,3454.5249,N,12128.5666,W,1,10,0.8,9.0,M,-33.0,M,,*56
$PYRTM,2024,124.003413800162,15.113061210301
$GPGGA,000454.00,3454.5251,N,12128.5667,W,1,10,0.8,9.1,M,-33.0,M,,*58
$PYRTM,2024,124.003429541435,15.113076951574
$GPGGA,000455.00,3454.5257,N,12128.5661,W,1,10,0.8,9.1,M,-33.0,M,,*59
$PYRTM,2024,124.003441127257,15.113088537396
$GPGGA,000456.00,3454.5262,N,12128.5656,W,1,10,0.8,9.2,M,-33.0,M,,*5B
$PYRTM,2024,124.003452689687,15.113100099826
$GPGGA,000457.00,3454.5261,N,12128.5657,W,1,10,0.8,9.3,M,-33.0,M,,*59
$PYRTM,2024,124.003464276470,15.113111686609
$GPGGA,000458.00,3454.5260,N,12128.5663,W,1,10,0.8,9.5,M,-33.0,M,,*56
$PYRTM,2024,124.003471670255,15.113119080394
$GPGGA,000459.00,3454.5263,N,12128.5668,W,1,10,0.8,9.3,M,-33.0,M,,*59
$PYRTM,2024,124.003490317280,15.113137727419
$GPGGA,000500.00,3454.5269,N,12128.5667,W,1,10,0.8,8.9,M,-33.0,M,,*5A
$PYRTM,2024,124.003501878634,15.113149288773
$GPGGA,000501.00,3454.5272,N,12128.5661,W,1,10,0.8,9.0,M,-33.0,M,,*5F
$PYRTM,2024,124.003513464595,15.113160874734
$GPGGA,000502.00,3454.5273,N,12128.5657,W,1,10,0.8,9.3,M,-33.0,M,,*5B
$PYRTM,2024,124.003522133437,15.113169543576
$GPGGA,000503.00,3454.5273,N,12128.5660,W,1,10,0.8,9.5,M,-33.0,M,,*58
$PYRTM,2024,124.003533724259,15.113181134398
$GPGGA,000504.00,3454.5276,N,12128.5666,W,1,10,0.8,9.6,M,-33.0,M,,*5F
$PYRTM,2024,124.003545282164,15.113192692303
$GPGGA,000505.00,3454.5279,N,12128.5671,W,1,10,0.8,9.6,M,-33.0,M,,*57
$PYRTM,2024,124.003552689884,15.113200100035
$GPGGA,000506.00,3454.5280,N,12128.5670,W,1,10,0.8,9.7,M,-33.0,M,,*52
$PYRTM,2024,124.003568430741,15.113215840880
$GPGGA,000507.00,3454.5279,N,12128.5666,W,1,10,0.8,9.8,M,-33.0,M,,*5D
$PYRTM,2024,124.003580011516,15.113227421655
$GPGGA,000508.00,3454.5282,N,12128.5663,W,1,10,0.8,9.8,M,-33.0,M,,*53
$PYRTM,2024,124.003591577500,15.113238987639
$GPGGA,000509.00,3454.5287,N,12128.5665,W,1,10,0.8,9.9,M,-33.0,M,,*50
$PYRTM,2024,124.003603281424,15.113250691563
$GPGGA,000510.00,3454.5287,N,12128.5670,W,1,10,0.8,10.0,M,-33.0,M,,*6D
$PYRTM,2024,124.003610560440,15.113257970590
$GPGGA,000511.00,3454.5285,N,12128.5674,W,1,10,0.8,10.0,M,-33.0,M,,*6A
$PYRTM,2024,124.003626429676,15.113273839815
$GPGGA,000512.00,3454.5286,N,12128.5673,W,1,10,0.8,10.1,M,-33.0,M,,*6C
$PYRTM,2024,124.003637991331,15.113285401470
$GPGGA,000513.00,3454.5291,N,12128.5670,W,1,10,0.8,10.2,M,-33.0,M,,*6B
$PYRTM,2024,124.003649577234,15.113296987373
$GPGGA,000514.00,3454.5295,N,12128.5669,W,1,10,0.8,10.2,M,-33.0,M,,*60
$PYRTM,2024,124.003661138843,15.113308548981
$GPGGA,000515.00,3454.5295,N,12128.5672,W,1,10,0.8,10.3,M,-33.0,M,,*6A
$PYRTM,2024,124.003672729815,15.113320139954
$GPGGA,000516.00,3454.5293,N,12128.5678,W,1,10,0.8,10.4,M,-33.0,M,,*62
$PYRTM,2024,124.003684287616,15.113331697755
$GPGGA,000517.00,3454.5296,N,12128.5679,W,1,10,0.8,10.4,M,-33.0,M,,*67
$PYRTM,2024,124.003695875729,15.113343285868
$GPGGA,000518.00,3454.5300,N,12128.5675,W,1,10,0.8,10.4,M,-33.0,M,,*6A
$PYRTM,2024,124.003707435046,15.113354845185
$GPGGA,000519.00,3454.5302,N,12128.5673,W,1,10,0.8,10.4,M,-33.0,M,,*6F
$PYRTM,2024,124.003719024074,15.113366434213
$GPGGA,000520.00,3454.5302,N,12128.5677,W,1,10,0.8,10.4,M,-33.0,M,,*61
$PYRTM,2024,124.003730582384,15.113377992523
$GPGGA,000521.00,3454.5301,N,12128.5685,W,1,10,0.8,10.4,M,-33.0,M,,*6E
$PYRTM,2024,124.003742170498,15.113389580637
$GPGGA,000522.00,3454.5303,N,12128.5685,W,1,10,0.8,10.5,M,-33.0,M,,*6E
$PYRTM,2024,124.003753731991,15.113401142130
$GPGGA,000523.00,3454.5308,N,12128.5678,W,1,10,0.8,10.5,M,-33.0,M,,*66
$PYRTM,2024,124.003761023032,15.113408433171
$GPGGA,000524.00,3454.5312,N,12128.5672,W,1,10,0.8,10.5,M,-33.0,M,,*60
$PYRTM,2024,124.003776879456,15.113424289595
$GPGGA,000525.00,3454.5313,N,12128.5678,W,1,10,0.8,10.5,M,-33.0,M,,*6A
$PYRTM,2024,124.003788465880,15.113435876030
$GPGGA,000526.00,3454.5313,N,12128.5689,W,1,10,0.8,10.3,M,-33.0,M,,*61
$PYRTM,2024,124.003795746065,15.113443156204
$GPGGA,000527.00,3454.5313,N,12128.5693,W,1,10,0.8,10.2,M,-33.0,M,,*6A
$PYRTM,2024,124.003811615729,15.113459025868
$GPGGA,000528.00,3454.5317,N,12128.5686,W,1,10,0.8,10.1,M,-33.0,M,,*66
$PYRTM,2024,124.003823175903,15.113470586042
$GPGGA,000529.00,3454.5323,N,12128.5679,W,1,10,0.8,10.2,M,-33.0,M,,*63
$PYRTM,2024,124.003834777755,15.113482187894
$GPGGA,000530.00,3454.5327,N,12128.5683,W,1,10,0.8,10.1,M,-33.0,M,,*69
$PYRTM,2024,124.003846325556,15.113493735694
$GPGGA,000531.00,3454.5326,N,12128.5693,W,1,10,0.8,10.0,M,-33.0,M,,*69
$PYRTM,2024,124.003853615660,15.113501025799
$GPGGA,000532.00,3454.5327,N,12128.5698,W,1,10,0.8,10.0,M,-33.0,M,,*60
$PYRTM,2024,124.003872252535,15.113519662674
$GPGGA,000533.00,3454.5331,N,12128.5695,W,1,10,0.8,10.0,M,-33.0,M,,*6B
$PYRTM,2024,124.003880943657,15.113528353796
$GPGGA,000534.00,3454.5337,N,12128.5689,W,1,10,0.8,9.8,M,-33.0,M,,*57
$PYRTM,2024,124.003892507199,15.113539917338
$GPGGA,000535.00,3454.5340,N,12128.5689,W,1,10,0.8,9.6,M,-33.0,M,,*58
$PYRTM,2024,124.003904092743,15.113551502882
$GPGGA,000536.00,3454.5340,N,12128.5696,W,1,10,0.8,9.6,M,-33.0,M,,*55
$PYRTM,2024,124.003915653079,15.113563063218
$GPGGA,000537.00,3454.5341,N,12128.5704,W,1,10,0.8,9.6,M,-33.0,M,,*5F
$PYRTM,2024,124.003927236065,15.113574646204
$GPGGA,000538.00,3454.5344,N,12128.5705,W,1,10,0.8,9.6,M,-33.0,M,,*54
$PYRTM,2024,124.003938801840,15.113586211979
$GPGGA,000539.00,3454.5349,N,12128.5701,W,1,10,0.8,9.7,M,-33.0,M,,*5D
$PYRTM,2024,124.003950391285,15.113597801424
$GPGGA,000540.00,3454.5352,N,12128.5697,W,1,10,0.8,9.7,M,-33.0,M,,*57
$PYRTM,2024,124.003961950498,15.113609360648
$GPGGA,000541.00,3454.5354,N,12128.5699,W,1,10,0.8,9.7,M,-33.0,M,,*5E
$PYRTM,2024,124.003973539907,15.113620950058
$GPGGA,000542.00,3454.5355,N,12128.5705,W,1,10,0.8,9.8,M,-33.0,M,,*57
$PYRTM,2024,124.003985099109,15.113632509248
$GPGGA,000543.00,3454.5358,N,12128.5712,W,1,10,0.8,9.4,M,-33.0,M,,*51
$PYRTM,2024,124.003992504942,15.113639915081
$GPGGA,000544.00,3454.5363,N,12128.5714,W,1,10,0.8,9.1,M,-33.0,M,,*5D
$PYRTM,2024,124.004004195729,15.113651605868
$GPGGA,000545.00,3454.5364,N,12128.5710,W,1,10,0.8,9.1,M,-33.0,M,,*5F
$PYRTM,2024,124.004019834120,15.113667244259
$GPGGA,000546.00,3454.5366,N,12128.5704,W,1,10,0.8,9.2,M,-33.0,M,,*58
$PYRTM,2024,124.004027227535,15.113674637674
$GPGGA,000547.00,3454.5371,N,12128.5705,W,1,10,0.8,9.2,M,-33.0,M,,*5E
$PYRTM,2024,124.004042981644,15.113690391794
$GPGGA,000548.00,3454.5377,N,12128.5711,W,1,10,0.8,9.0,M,-33.0,M,,*50
$PYRTM,2024,124.004054543345,15.113701953484
$GPGGA,000549.00,3454.5377,N,12128.5716,W,1,10,0.8,8.8,M,-33.0,M,,*5F
$PYRTM,2024,124.004066131921,15.113713542060
$GPGGA,000550.00,3454.5376,N,12128.5714,W,1,10,0.8,8.8,M,-33.0,M,,*54
$PYRTM,2024,124.004077690764,15.113725100903
$GPGGA,000551.00,3454.5378,N,12128.5710,W,1,10,0.8,8.9,M,-33.0,M,,*5E
$PYRTM,2024,124.004089278981,15.113736689120
$GPGGA,000552.00,3454.5384,N,12128.5711,W,1,10,0.8,8.6,M,-33.0,M,,*50
$PYRTM,2024,124.004100838796,15.113748248935
$GPGGA,000553.00,3454.5387,N,12128.5718,W,1,10,0.8,8.0,M,-33.0,M,,*5D
$PYRTM,2024,124.004112422269,15.113759832407
$GPGGA,000554.00,3454.5387,N,12128.5722,W,1,10,0.8,8.2,M,-33.0,M,,*51
$PYRTM,2024,124.004123988912,15.113771399051
$GPGGA,000555.00,3454.5386,N,12128.5721,W,1,10,0.8,8.4,M,-33.0,M,,*54
$PYRTM,2024,124.004135574514,15.113782984653
$GPGGA,000556.00,3454.5388,N,12128.5718,W,1,10,0.8,8.6,M,-33.0,M,,*51
$PYRTM,2024,124.004147134954,15.113794545093
$GPGGA,000557.00,3454.5393,N,12128.5720,W,1,10,0.8,8.7,M,-33.0,M,,*50
$PYRTM,2024,124.004158726007,15.113806136146
$GPGGA,000558.00,3454.5396,N,12128.5725,W,1,10,0.8,8.8,M,-33.0,M,,*50
$PYRTM,2024,124.004170284039,15.113817694178
$GPGGA,000559.00,3454.5395,N,12128.5728,W,1,10,0.8,8.9,M,-33.0,M,,*5E
$PYRTM,2024,124.004177691968,15.113825102106
$GPGGA,000600.00,3454.5396,N,12128.5728,W,1,10,0.8,9.1,M,-33.0,M,,*5B
$PYRTM,2024,124.004196325625,15.113843735764
$GPGGA,000601.00,3454.5400,N,12128.5728,W,1,10,0.8,9.1,M,-33.0,M,,*52
$PYRTM,2024,124.004205019375,15.113852429514
$GPGGA,000602.00,3454.5404,N,12128.5731,W,1,10,0.8,9.2,M,-33.0,M,,*5E
$PYRTM,2024,124.004216580868,15.113863991007
$GPGGA,000603.00,3454.5406,N,12128.5734,W,1,10,0.8,9.3,M,-33.0,M,,*59
$PYRTM,2024,124.004223988345,15.113871398484
$GPGGA,000604.00,3454.5405,N,12128.5732,W,1,10,0.8,9.4,M,-33.0,M,,*5C
$PYRTM,2024,124.004239729329,15.113887139468
$GPGGA,000605.00,3454.5408,N,12128.5730,W,1,10,0.8,9.4,M,-33.0,M,,*52
$PYRTM,2024,124.004251316019,15.113898726157
$GPGGA,000606.00,3454.5413,N,12128.5731,W,1,10,0.8,9.4,M,-33.0,M,,*5A
$PYRTM,2024,124.004262879086,15.113910289225
$GPGGA,000607.00,3454.5415,N,12128.5736,W,1,10,0.8,9.4,M,-33.0,M,,*5A
$PYRTM,2024,124.004274467199,15.113921877338
$GPGGA,000608.00,3454.5415,N,12128.5739,W,1,10,0.8,9.4,M,-33.0,M,,*5A
$PYRTM,2024,124.004286025231,15.113933435370
$GPGGA,000609.00,3454.5414,N,12128.5739,W,1,10,0.8,9.5,M,-33.0,M,,*5B
$PYRTM,2024,124.004293433588,15.113940843727
$GPGGA,000610.00,3454.5418,N,12128.5737,W,1,10,0.8,9.5,M,-33.0,M,,*51
$PYRTM,2024,124.004309172882,15.113956583021
$GPGGA,000611.00,3454.5421,N,12128.5737,W,1,10,0.8,9.5,M,-33.0,M,,*5A
$PYRTM,2024,124.004320759850,15.113968169988
$GPGGA,000612.00,3454.5422,N,12128.5738,W,1,10,0.8,9.6,M,-33.0,M,,*56
$PYRTM,2024,124.004332322419,15.113979732558
$GPGGA,000613.00,3454.5423,N,12128.5741,W,1,10,0.8,9.6,M,-33.0,M,,*58
$PYRTM,2024,124.004343903738,15.113991313877
$GPGGA,000614.00,3454.5426,N,12128.5743,W,1,10,0.8,9.7,M,-33.0,M,,*59
$PYRTM,2024,124.004351305660,15.113998715799
$GPGGA,000615.00,3454.5429,N,12128.5744,W,1,10,0.8,9.7,M,-33.0,M,,*50
$PYRTM,2024,124.004367058808,15.114014468947
$GPGGA,000616.00,3454.5429,N,12128.5743,W,1,10,0.8,9.8,M,-33.0,M,,*5B
$PYRTM,2024,124.004378619028,15.114026029167
$GPGGA,000617.00,3454.5430,N,12128.5742,W,1,10,0.8,9.8,M,-33.0,M,,*53
$PYRTM,2024,124.004386025637,15.114033435775
$GPGGA,000618.00,3454.5434,N,12128.5743,W,1,10,0.8,9.8,M,-33.0,M,,*59
$PYRTM,2024,124.004401766181,15.114049176319
$GPGGA,000619.00,3454.5438,N,12128.5746,W,1,10,0.8,9.9,M,-33.0,M,,*50
$PYRTM,2024,124.004413353333,15.114060763472
$GPGGA,000620.00,3454.5439,N,12128.5749,W,1,10,0.8,10.0,M,-33.0,M,,*65
$PYRTM,2024,124.004425030116,15.114072440255
$GPGGA,000621.00,3454.5441,N,12128.5750,W,1,10,0.8,10.0,M,-33.0,M,,*63
$PYRTM,2024,124.004436618090,15.114084028229
$GPGGA,000622.00,3454.5444,N,12128.5751,W,1,10,0.8,10.0,M,-33.0,M,,*64
$PYRTM,2024,124.004443899201,15.114091309340
$GPGGA,000623.00,3454.5447,N,12128.5751,W,1,10,0.8,10.0,M,-33.0,M,,*66
$PYRTM,2024,124.004459765984,15.114107176123
$GPGGA,000624.00,3454.5449,N,12128.5753,W,1,10,0.8,10.0,M,-33.0,M,,*6D
$PYRTM,2024,124.004471326701,15.114118736840
$GPGGA,000625.00,3454.5450,N,12128.5754,W,1,10,0.8,10.0,M,-33.0,M,,*63
$PYRTM,2024,124.004482916424,15.114130326574
$GPGGA,000626.00,3454.5453,N,12128.5754,W,1,10,0.8,10.1,M,-33.0,M,,*62
$PYRTM,2024,124.004494360475,15.114141770613
$GPGGA,000627.00,3454.5458,N,12128.5755,W,1,10,0.8,10.1,M,-33.0,M,,*69
$PYRTM,2024,124.004506065278,15.114153475417
$GPGGA,000628.00,3454.5461,N,12128.5758,W,1,10,0.8,10.0,M,-33.0,M,,*60
$PYRTM,2024,124.004517508646,15.114164918796
$GPGGA,000629.00,3454.5459,N,12128.5761,W,1,10,0.8,9.9,M,-33.0,M,,*51
$PYRTM,2024,124.004529094340,15.114176504479
$GPGGA,000630.00,3454.5459,N,12128.5760,W,1,10,0.8,9.9,M,-33.0,M,,*58
$PYRTM,2024,124.004536503900,15.114183914039
$GPGGA,000631.00,3454.5464,N,12128.5757,W,1,10,0.8,10.0,M,-33.0,M,,*62
$PYRTM,2024,124.004555131493,15.114202541632
$GPGGA,000632.00,3454.5473,N,12128.5757,W,1,10,0.8,9.7,M,-33.0,M,,*58
$PYRTM,2024,124.004566697234,15.114214107373
$GPGGA,000633.00,3454.5475,N,12128.5760,W,1,10,0.8,9.5,M,-33.0,M,,*59
$PYRTM,2024,124.004578284896,15.114225695035
$GPGGA,000634.00,3454.5471,N,12128.5765,W,1,10,0.8,9.5,M,-33.0,M,,*5F
$PYRTM,2024,124.004586953021,15.114234363160
$GPGGA,000635.00,3454.5469,N,12128.5766,W,1,10,0.8,9.5,M,-33.0,M,,*54
$PYRTM,2024,124.004594359306,15.114241769444
$GPGGA,000636.00,3454.5474,N,12128.5764,W,1,10,0.8,9.6,M,-33.0,M,,*5A
$PYRTM,2024,124.004606051898,15.114253462037
$GPGGA,000637.00,3454.5481,N,12128.5760,W,1,10,0.8,9.2,M,-33.0,M,,*51
$PYRTM,2024,124.004621691736,15.114269101875
$GPGGA,000638.00,3454.5485,N,12128.5762,W,1,10,0.8,8.7,M,-33.0,M,,*5C
$PYRTM,2024,124.004633250382,15.114280660521
$GPGGA,000639.00,3454.5483,N,12128.5769,W,1,10,0.8,8.8,M,-33.0,M,,*5F
$PYRTM,2024,124.004644836782,15.114292246921
$GPGGA,000640.00,3454.5480,N,12128.5774,W,1,10,0.8,8.9,M,-33.0,M,,*5F
$PYRTM,2024,124.004656396944,15.114303807083
$GPGGA,000641.00,3454.5482,N,12128.5770,W,1,10,0.8,9.0,M,-33.0,M,,*50
$PYRTM,2024,124.004667983981,15.114315394132
$GPGGA,000642.00,3454.5490,N,12128.5761,W,1,10,0.8,8.8,M,-33.0,M,,*59
$PYRTM,2024,124.004675378310,15.114322788449
$GPGGA,000643.00,3454.5496,N,12128.5759,W,1,10,0.8,8.5,M,-33.0,M,,*58
$PYRTM,2024,124.004691132222,15.114338542373
$GPGGA,000644.00,3454.5496,N,12128.5766,W,1,10,0.8,8.6,M,-33.0,M,,*50
$PYRTM,2024,124.004702699838,15.114350109977
$GPGGA,000645.00,3454.5492,N,12128.5776,W,1,10,0.8,8.7,M,-33.0,M,,*55
$PYRTM,2024,124.004714284063,15.114361694213
$GPGGA,000646.00,3454.5491,N,12128.5778,W,1,10,0.8,8.9,M,-33.0,M,,*55
$PYRTM,2024,124.004725855683,15.114373265822
$GPGGA,000647.00,3454.5497,N,12128.5771,W,1,10,0.8,8.9,M,-33.0,M,,*5B
$PYRTM,2024,124.004737433727,15.114384843854
$GPGGA,000648.00,3454.5503,N,12128.5765,W,1,10,0.8,8.9,M,-33.0,M,,*5D
$PYRTM,2024,124.004749001794,15.114396411933
$GPGGA,000649.00,3454.5506,N,12128.5767,W,1,10,0.8,9.0,M,-33.0,M,,*53
$PYRTM,2024,124.004760578947,15.114407989086
$GPGGA,000650.00,3454.5505,N,12128.5776,W,1,10,0.8,9.1,M,-33.0,M,,*59
$PYRTM,2024,124.004767983403,15.114415393542
$GPGGA,000651.00,3454.5504,N,12128.5784,W,1,10,0.8,9.1,M,-33.0,M,,*54
$PYRTM,2024,124.004783724086,15.114431134225
$GPGGA,000652.00,3454.5508,N,12128.5784,W,1,10,0.8,9.1,M,-33.0,M,,*5B
$PYRTM,2024,124.004795299178,15.114442709317
$GPGGA,000653.00,3454.5512,N,12128.5778,W,1,10,0.8,9.5,M,-33.0,M,,*56
$PYRTM,2024,124.004806868287,15.114454278426
$GPGGA,000654.00,3454.5513,N,12128.5773,W,1,10,0.8,9.8,M,-33.0,M,,*56
$PYRTM,2024,124.004818447118,15.114465857257
$GPGGA,000655.00,3454.5514,N,12128.5772,W,1,10,0.8,9.8,M,-33.0,M,,*51
$PYRTM,2024,124.004825738542,15.114473148681
$GPGGA,000656.00,3454.5517,N,12128.5777,W,1,10,0.8,9.8,M,-33.0,M,,*54
$PYRTM,2024,124.004841595764,15.114489005903
$GPGGA,000657.00,3454.5518,N,12128.5782,W,1,10,0.8,9.8,M,-33.0,M,,*50
$PYRTM,2024,124.004853171470,15.114500581609
$GPGGA,000658.00,3454.5516,N,12128.5782,W,1,10,0.8,9.8,M,-33.0,M,,*51
$PYRTM,2024,124.004864743646,15.114512153785
$GPGGA,000659.00,3454.5517,N,12128.5778,W,1,10,0.8,9.8,M,-33.0,M,,*54
$PYRTM,2024,124.004876318356,15.114523728495
$GPGGA,000700.00,3454.5522,N,12128.5776,W,1,10,0.8,9.9,M,-33.0,M,,*50
$PYRTM,2024,124.004887891956,15.114535302095
$GPGGA,000701.00,3454.5526,N,12128.5777,W,1,10,0.8,9.9,M,-33.0,M,,*54
$PYRTM,2024,124.004895287986,15.114542698125
$GPGGA,000702.00,3454.5529,N,12128.5779,W,1,10,0.8,9.9,M,-33.0,M,,*56
$PYRTM,2024,124.004913921134,15.114561331273
$GPGGA,000703.00,3454.5530,N,12128.5780,W,1,10,0.8,9.9,M,-33.0,M,,*59
$PYRTM,2024,124.004922615741,15.114570025880
$GPGGA,000704.00,3454.5532,N,12128.5781,W,1,10,0.8,9.9,M,-33.0,M,,*5D
$PYRTM,2024,124.004934188252,15.114581598391
$GPGGA,000705.00,3454.5536,N,12128.5784,W,1,10,0.8,9.9,M,-33.0,M,,*5D
$PYRTM,2024,124.004941583495,15.114588993634
$GPGGA,000706.00,3454.5539,N,12128.5785,W,1,10,0.8,9.9,M,-33.0,M,,*50
$PYRTM,2024,124.004957336528,15.114604746667
$GPGGA,000707.00,3454.5542,N,12128.5784,W,1,10,0.8,9.9,M,-33.0,M,,*5C
$PYRTM,2024,124.004968925278,15.114616335428
$GPGGA,000708.00,3454.5544,N,12128.5784,W,1,10,0.8,9.9,M,-33.0,M,,*55
$PYRTM,2024,124.004976305833,15.114623715972
$GPGGA,000709.00,3454.5548,N,12128.5784,W,1,10,0.8,9.9,M,-33.0,M,,*58
$PYRTM,2024,124.004992063391,15.114639473530
$GPGGA,000710.00,3454.5552,N,12128.5785,W,1,10,0.8,9.9,M,-33.0,M,,*5A
$PYRTM,2024,124.005003627836,15.114651037975
$GPGGA,000711.00,3454.5555,N,12128.5788,W,1,10,0.8,9.9,M,-33.0,M,,*51
$PYRTM,2024,124.005015223958,15.114662634097
$GPGGA,000712.00,3454.5556,N,12128.5791,W,1,10,0.8,9.8,M,-33.0,M,,*58
$PYRTM,2024,124.005026782500,15.114674192639
$GPGGA,000713.00,3454.5558,N,12128.5792,W,1,10,0.8,9.8,M,-33.0,M,,*54
$PYRTM,2024,124.005034176968,15.114681587106
$GPGGA,000714.00,3454.5563,N,12128.5789,W,1,10,0.8,9.8,M,-33.0,M,,*51
$PYRTM,2024,124.005049931157,15.114697341296
$GPGGA,000715.00,3454.5569,N,12128.5788,W,1,10,0.8,9.8,M,-33.0,M,,*5B
$PYRTM,2024,124.005061504051,15.114708914201
$GPGGA,000716.00,3454.5572,N,12128.5790,W,1,10,0.8,9.8,M,-33.0,M,,*5B
$PYRTM,2024,124.005073078657,15.114720488808
$GPGGA,000717.00,3454.5573,N,12128.5793,W,1,10,0.8,9.8,M,-33.0,M,,*58
$PYRTM,2024,124.005084653345,15.114732063484
$GPGGA,000718.00,3454.5574,N,12128.5794,W,1,10,0.8,9.8,M,-33.0,M,,*57
$PYRTM,2024,124.005096221539,15.114743631678
$GPGGA,000719.00,3454.5577,N,12128.5793,W,1,10,0.8,9.8,M,-33.0,M,,*52
$PYRTM,2024,124.005107917569,15.114755327708
$GPGGA,000720.00,3454.5583,N,12128.5793,W,1,10,0.8,9.8,M,-33.0,M,,*53
$PYRTM,2024,124.005119476840,15.114766886979
$GPGGA,000721.00,3454.5586,N,12128.5795,W,1,10,0.8,9.8,M,-33.0,M,,*51
$PYRTM,2024,124.005131066875,15.114778477014
$GPGGA,000722.00,3454.5588,N,12128.5798,W,1,10,0.8,9.7,M,-33.0,M,,*5E
$PYRTM,2024,124.005142626979,15.114790037130
$GPGGA,000723.00,3454.5591,N,12128.5800,W,1,10,0.8,9.8,M,-33.0,M,,*56
$PYRTM,2024,124.005149917928,15.114797328067
$GPGGA,000724.00,3454.5594,N,12128.5798,W,1,10,0.8,9.8,M,-33.0,M,,*5A
$PYRTM,2024,124.005165666644,15.114813076782
$GPGGA,000725.00,3454.5597,N,12128.5794,W,1,10,0.8,9.8,M,-33.0,M,,*54
$PYRTM,2024,124.005177245023,15.114824655162
$GPGGA,000726.00,3454.5600,N,12128.5794,W,1,10,0.8,9.9,M,-33.0,M,,*5B
$PYRTM,2024,124.005188818750,15.114836228889
$GPGGA,000727.00,3454.5604,N,12128.5797,W,1,10,0.8,9.9,M,-33.0,M,,*5D
$PYRTM,2024,124.005200393912,15.114847804051
$GPGGA,000728.00,3454.5607,N,12128.5800,W,1,10,0.8,9.9,M,-33.0,M,,*50
$PYRTM,2024,124.005211968449,15.114859378588
$GPGGA,000729.00,3454.5610,N,12128.5801,W,1,10,0.8,9.8,M,-33.0,M,,*57
$PYRTM,2024,124.005223542211,15.114870952350
$GPGGA,000730.00,3454.5613,N,12128.5801,W,1,10,0.8,9.8,M,-33.0,M,,*5C
$PYRTM,2024,124.005235116921,15.114882527060
$GPGGA,000731.00,3454.5616,N,12128.5799,W,1,10,0.8,9.8,M,-33.0,M,,*56
$PYRTM,2024,124.005246704410,15.114894114549
$GPGGA,000732.00,3454.5618,N,12128.5796,W,1,10,0.8,9.8,M,-33.0,M,,*54
$PYRTM,2024,124.005253992176,15.114901402315
$GPGGA,000733.00,3454.5623,N,12128.5793,W,1,10,0.8,9.9,M,-33.0,M,,*59
$PYRTM,2024,124.005272735556,15.114920145694
$GPGGA,000734.00,3454.5629,N,12128.5795,W,1,10,0.8,9.4,M,-33.0,M,,*5F
$PYRTM,2024,124.005281412477,15.114928822616
$GPGGA,000735.00,3454.5631,N,12128.5802,W,1,10,0.8,8.6,M,-33.0,M,,*55
$PYRTM,2024,124.005292981701,15.114940391840
$GPGGA,000736.00,3454.5632,N,12128.5809,W,1,10,0.8,8.2,M,-33.0,M,,*5A
$PYRTM,2024,124.005304560671,15.114951970810
$GPGGA,000737.00,3454.5635,N,12128.5809,W,1,10,0.8,8.2,M,-33.0,M,,*5C
$PYRTM,2024,124.005316135428,15.114963545567
$GPGGA,000738.00,3454.5640,N,12128.5801,W,1,10,0.8,8.6,M,-33.0,M,,*5D
$PYRTM,2024,124.005323530162,15.114970940301
$GPGGA,000739.00,3454.5645,N,12128.5793,W,1,10,0.8,9.1,M,-33.0,M,,*5B
$PYRTM,2024,124.005339283854,15.114986693993
$GPGGA,000740.00,3454.5650,N,12128.5794,W,1,10,0.8,9.0,M,-33.0,M,,*57
$PYRTM,2024,124.005346573727,15.114993983866
$GPGGA,000741.00,3454.5653,N,12128.5805,W,1,10,0.8,8.4,M,-33.0,M,,*57
$PYRTM,2024,124.005362445289,15.115009855428
$GPGGA,000742.00,3454.5653,N,12128.5814,W,1,10,0.8,7.9,M,-33.0,M,,*56
$PYRTM,2024,124.005374005382,15.115021415532
$GPGGA,000743.00,3454.5655,N,12128.5813,W,1,10,0.8,7.9,M,-33.0,M,,*56
$PYRTM,2024,124.005385579826,15.115032989965
$GPGGA,000744.00,3454.5661,N,12128.5804,W,1,10,0.8,7.9,M,-33.0,M,,*50
$PYRTM,2024,124.005397153854,15.115044563993
$GPGGA,000745.00,3454.5666,N,12128.5800,W,1,10,0.8,7.9,M,-33.0,M,,*52
$PYRTM,2024,124.005408728137,15.115056138275
$GPGGA,000746.00,3454.5668,N,12128.5803,W,1,10,0.8,8.0,M,-33.0,M,,*5A
$PYRTM,2024,124.005420302431,15.115067712581
$GPGGA,000747.00,3454.5670,N,12128.5808,W,1,10,0.8,8.1,M,-33.0,M,,*58
$PYRTM,2024,124.005431871343,15.115079281481
$GPGGA,000748.00,3454.5674,N,12128.5810,W,1,10,0.8,8.1,M,-33.0,M,,*5A
$PYRTM,2024,124.005443448576,15.115090858715
$GPGGA,000749.00,3454.5677,N,12128.5810,W,1,10,0.8,8.1,M,-33.0,M,,*58
$PYRTM,2024,124.005455023669,15.115102433808
$GPGGA,000750.00,3454.5679,N,12128.5812,W,1,10,0.8,8.2,M,-33.0,M,,*5F
$PYRTM,2024,124.005462420046,15.115109830185
$GPGGA,000751.00,3454.5681,N,12128.5813,W,1,10,0.8,8.2,M,-33.0,M,,*58
$PYRTM,2024,124.005474109549,15.115121519688
$GPGGA,000752.00,3454.5686,N,12128.5811,W,1,10,0.8,8.2,M,-33.0,M,,*5E
$PYRTM,2024,124.005489746667,15.115137156806
$GPGGA,000753.00,3454.5693,N,12128.5807,W,1,10,0.8,8.0,M,-33.0,M,,*5E
$PYRTM,2024,124.005497037894,15.115144448032
$GPGGA,000754.00,3454.5698,N,12128.5807,W,1,10,0.8,7.9,M,-33.0,M,,*54
$PYRTM,2024,124.005512895509,15.115160305648
$GPGGA,000755.00,3454.5698,N,12128.5815,W,1,10,0.8,8.0,M,-33.0,M,,*50
$PYRTM,2024,124.005524470984,15.115171881123
$GPGGA,000756.00,3454.5698,N,12128.5823,W,1,10,0.8,8.0,M,-33.0,M,,*56
$PYRTM,2024,124.005536040069,15.115183450208
$GPGGA,000757.00,3454.5702,N,12128.5822,W,1,10,0.8,8.0,M,-33.0,M,,*54
$PYRTM,2024,124.005547617037,15.115195027176
$GPGGA,000758.00,3454.5709,N,12128.5816,W,1,10,0.8,8.1,M,-33.0,M,,*56
$PYRTM,2024,124.005559186100,15.115206596238
$GPGGA,000759.00,3454.5712,N,12128.5812,W,1,10,0.8,8.3,M,-33.0,M,,*5B
$PYRTM,2024,124.005566478889,15.115213889028
$GPGGA,000800.00,3454.5711,N,12128.5813,W,1,10,0.8,8.3,M,-33.0,M,,*5A
$PYRTM,2024,124.005582342870,15.115229753009
$GPGGA,000801.00,3454.5713,N,12128.5817,W,1,10,0.8,8.3,M,-33.0,M,,*5D
$PYRTM,2024,124.005589736111,15.115237146250
$GPGGA,000802.00,3454.5719,N,12128.5823,W,1,10,0.8,7.9,M,-33.0,M,,*56
$PYRTM,2024,124.005601424005,15.115248834144
$GPGGA,000803.00,3454.5723,N,12128.5823,W,1,10,0.8,7.4,M,-33.0,M,,*53
$PYRTM,2024,124.005612997454,15.115260407593
$GPGGA,000804.00,3454.5722,N,12128.5818,W,1,10,0.8,7.5,M,-33.0,M,,*5C
$PYRTM,2024,124.005631517431,15.115278927569
$GPGGA,000805.00,3454.5721,N,12128.5811,W,1,10,0.8,7.8,M,-33.0,M,,*5A
$PYRTM,2024,124.005640209630,15.115287619769
$GPGGA,000806.00,3454.5725,N,12128.5807,W,1,10,0.8,7.8,M,-33.0,M,,*5A
$PYRTM,2024,124.005651785093,15.115299195231
$GPGGA,000807.00,3454.5732,N,12128.5810,W,1,10,0.8,7.1,M,-33.0,M,,*52
$PYRTM,2024,124.005663359502,15.115310769641
$GPGGA,000808.00,3454.5734,N,12128.5816,W,1,10,0.8,6.4,M,-33.0,M,,*59
$PYRTM,2024,124.005674932292,15.115322342431
$GPGGA,000809.00,3454.5733,N,12128.5819,W,1,10,0.8,6.3,M,-33.0,M,,*57
$PYRTM,2024,124.005686509757,15.115333919896
$GPGGA,000810.00,3454.5734,N,12128.5814,W,1,10,0.8,6.4,M,-33.0,M,,*52
$PYRTM,2024,124.005698075764,15.115345485903
$GPGGA,000811.00,3454.5739,N,12128.5807,W,1,10,0.8,6.4,M,-33.0,M,,*5C
$PYRTM,2024,124.005709658669,15.115357068808
$GPGGA,000812.00,3454.5742,N,12128.5806,W,1,10,0.8,6.5,M,-33.0,M,,*53
$PYRTM,2024,124.005716956620,15.115364366759
$GPGGA,000813.00,3454.5743,N,12128.5812,W,1,10,0.8,6.5,M,-33.0,M,,*56
$PYRTM,2024,124.005732803831,15.115380213970
$GPGGA,000814.00,3454.5743,N,12128.5816,W,1,10,0.8,6.6,M,-33.0,M,,*56
$PYRTM,2024,124.005740213102,15.115387623241
$GPGGA,000815.00,3454.5746,N,12128.5813,W,1,10,0.8,6.7,M,-33.0,M,,*56
$PYRTM,2024,124.005755948333,15.115403358472
$GPGGA,000816.00,3454.5749,N,12128.5809,W,1,10,0.8,6.7,M,-33.0,M,,*51
$PYRTM,2024,124.005767525903,15.115414936042
$GPGGA,000817.00,3454.5751,N,12128.5810,W,1,10,0.8,6.8,M,-33.0,M,,*5E
$PYRTM,2024,124.005779104502,15.115426514641
$GPGGA,000818.00,3454.5751,N,12128.5813,W,1,10,0.8,6.8,M,-33.0,M,,*52
$PYRTM,2024,124.005790674363,15.115438084502
$GPGGA,000819.00,3454.5752,N,12128.5813,W,1,10,0.8,7.0,M,-33.0,M,,*59
$PYRTM,2024,124.005797965336,15.115445375475
$GPGGA,000820.00,3454.5757,N,12128.5811,W,1,10,0.8,7.0,M,-33.0,M,,*54
$PYRTM,2024,124.005813816377,15.115461226516
$GPGGA,000821.00,3454.5764,N,12128.5809,W,1,10,0.8,6.6,M,-33.0,M,,*5B
$PYRTM,2024,124.005825398715,15.115472808866
$GPGGA,000822.00,3454.5767,N,12128.5810,W,1,10,0.8,6.3,M,-33.0,M,,*56
$PYRTM,2024,124.005832696921,15.115480107060
$GPGGA,000823.00,3454.5765,N,12128.5815,W,1,10,0.8,6.4,M,-33.0,M,,*57
$PYRTM,2024,124.005848539919,15.115495950069
$GPGGA,000824.00,3454.5764,N,12128.5816,W,1,10,0.8,6.5,M,-33.0,M,,*53
$PYRTM,2024,124.005860118391,15.115507528530
$GPGGA,000825.00,3454.5768,N,12128.5811,W,1,10,0.8,6.5,M,-33.0,M,,*59
$PYRTM,2024,124.005871687442,15.115519097581
$GPGGA,000826.00,3454.5773,N,12128.5805,W,1,10,0.8,6.4,M,-33.0,M,,*54
$PYRTM,2024,124.005883267280,15.115530677419
$GPGGA,000827.00,3454.5777,N,12128.5807,W,1,10,0.8,5.9,M,-33.0,M,,*5D
$PYRTM,2024,124.005890557859,15.115537967998
$GPGGA,000828.00,3454.5777,N,12128.5816,W,1,10,0.8,5.3,M,-33.0,M,,*58
$PYRTM,2024,124.005906416042,15.115553826181
$GPGGA,000829.00,3454.5778,N,12128.5820,W,1,10,0.8,5.1,M,-33.0,M,,*51
$PYRTM,2024,124.005918004028,15.115565414178
$GPGGA,000830.00,3454.5779,N,12128.5815,W,1,10,0.8,5.2,M,-33.0,M,,*5D
$PYRTM,2024,124.005929562905,15.115576973044
$GPGGA,000831.00,3454.5782,N,12128.5809,W,1,10,0.8,5.2,M,-33.0,M,,*55
$PYRTM,2024,124.005941136678,15.115588546817
$GPGGA,000832.00,3454.5786,N,12128.5810,W,1,10,0.8,5.3,M,-33.0,M,,*5B
$PYRTM,2024,124.005952705891,15.115600116030
$GPGGA,000833.00,3454.5790,N,12128.5816,W,1,10,0.8,5.3,M,-33.0,M,,*5B
$PYRTM,2024,124.005964286065,15.115611696215
$GPGGA,000834.00,3454.5793,N,12128.5820,W,1,10,0.8,5.2,M,-33.0,M,,*5B
$PYRTM,2024,124.005971680613,15.115619090752
$GPGGA,000835.00,3454.5793,N,12128.5818,W,1,10,0.8,5.3,M,-33.0,M,,*50
$PYRTM,2024,124.005990327350,15.115637737488
$GPGGA,000836.00,3454.5796,N,12128.5813,W,1,10,0.8,5.5,M,-33.0,M,,*5B
$PYRTM,2024,124.005999008935,15.115646419074
$GPGGA,000837.00,3454.5801,N,12128.5811,W,1,10,0.8,5.2,M,-33.0,M,,*5E
$PYRTM,2024,124.006006401343,15.115653811481
$GPGGA,000838.00,3454.5805,N,12128.5815,W,1,10,0.8,4.7,M,-33.0,M,,*55
$PYRTM,2024,124.006022156192,15.115669566331
$GPGGA,000839.00,3454.5807,N,12128.5821,W,1,10,0.8,4.6,M,-33.0,M,,*50
