$PYRTM,2024,125.500006623484,16.609654033623
$GPGGA,115959.00,3511.6797,N,12148.1232,W,1,12,0.8,10.4,M,-32.6,M,,*6F
$PYRTM,2024,125.500015331574,16.609662741713
$GPGGA,120000.00,3511.6794,N,12148.1224,W,1,12,0.8,10.2,M,-32.6,M,,*6E
$PYRTM,2024,125.500026891794,16.609674301933
$GPGGA,120001.00,3511.6789,N,12148.1217,W,1,12,0.8,10.2,M,-32.6,M,,*63
$PYRTM,2024,125.500038480440,16.609685890579
$GPGGA,120002.00,3511.6784,N,12148.1213,W,1,12,0.8,10.3,M,-32.6,M,,*68
$PYRTM,2024,125.500050040104,16.609697450243
$GPGGA,120003.00,3511.6780,N,12148.1206,W,1,12,0.8,10.5,M,-32.6,M,,*6F
$PYRTM,2024,125.500061628750,16.609709038889
$GPGGA,120004.00,3511.6778,N,12148.1198,W,1,12,0.8,10.8,M,-32.6,M,,*66
$PYRTM,2024,125.500073187789,16.609720597928
$GPGGA,120005.00,3511.6776,N,12148.1189,W,1,12,0.8,10.9,M,-32.6,M,,*68
$PYRTM,2024,125.500080583171,16.609727993310
$GPGGA,120006.00,3511.6772,N,12148.1181,W,1,12,0.8,10.8,M,-32.6,M,,*66
$PYRTM,2024,125.500096336296,16.609743746435
$GPGGA,120007.00,3511.6766,N,12148.1174,W,1,12,0.8,10.7,M,-32.6,M,,*67
$PYRTM,2024,125.500107905579,16.609755315729
$GPGGA,120008.00,3511.6762,N,12148.1168,W,1,12,0.8,10.9,M,-32.6,M,,*6F
$PYRTM,2024,125.500119484942,16.609766895093
$GPGGA,120009.00,3511.6759,N,12148.1162,W,1,12,0.8,11.1,M,-32.6,M,,*65
$PYRTM,2024,125.500131059815,16.609778469954
$GPGGA,120010.00,3511.6758,N,12148.1155,W,1,12,0.8,11.0,M,-32.6,M,,*69
$PYRTM,2024,125.500142632951,16.609790043090
$GPGGA,120011.00,3511.6755,N,12148.1148,W,1,12,0.8,10.6,M,-32.6,M,,*6E
$PYRTM,2024,125.500154208449,16.609801618588
$GPGGA,120012.00,3511.6751,N,12148.1141,W,1,12,0.8,10.0,M,-32.6,M,,*66
$PYRTM,2024,125.500165779583,16.609813189722
$GPGGA,120013.00,3511.6747,N,12148.1134,W,1,12,0.8,9.7,M,-32.6,M,,*5D
$PYRTM,2024,125.500177355336,16.609824765486
$GPGGA,120014.00,3511.6744,N,12148.1127,W,1,12,0.8,9.7,M,-32.6,M,,*5B
$PYRTM,2024,125.500188928808,16.609836338958
$GPGGA,120015.00,3511.6740,N,12148.1123,W,1,12,0.8,9.9,M,-32.6,M,,*54
$PYRTM,2024,125.500196208056,16.609843618194
$GPGGA,120016.00,3511.6736,N,12148.1118,W,1,12,0.8,10.0,M,-32.6,M,,*6F
$PYRTM,2024,125.500214958461,16.609862368600
$GPGGA,120017.00,3511.6732,N,12148.1112,W,1,12,0.8,10.0,M,-32.6,M,,*60
$PYRTM,2024,125.500223652697,16.609871062836
$GPGGA,120018.00,3511.6729,N,12148.1103,W,1,12,0.8,10.0,M,-32.6,M,,*65
$PYRTM,2024,125.500235226782,16.609882636921
$GPGGA,120019.00,3511.6728,N,12148.1094,W,1,12,0.8,10.3,M,-32.6,M,,*69
$PYRTM,2024,125.500246799988,16.609894210127
$GPGGA,120020.00,3511.6725,N,12148.1087,W,1,12,0.8,10.9,M,-32.6,M,,*66
$PYRTM,2024,125.500258370729,16.609905780868
$GPGGA,120021.00,3511.6720,N,12148.1082,W,1,12,0.8,11.4,M,-32.6,M,,*6B
$PYRTM,2024,125.500269948252,16.609917358391
$GPGGA,120022.00,3511.6713,N,12148.1077,W,1,12,0.8,11.6,M,-32.6,M,,*60
$PYRTM,2024,125.500281517326,16.609928927465
$GPGGA,120023.00,3511.6709,N,12148.1071,W,1,12,0.8,11.5,M,-32.6,M,,*6F
$PYRTM,2024,125.500293096898,16.609940507049
$GPGGA,120024.00,3511.6708,N,12148.1062,W,1,12,0.8,11.2,M,-32.6,M,,*6C
$PYRTM,2024,125.500304670544,16.609952080683
$GPGGA,120025.00,3511.6707,N,12148.1053,W,1,12,0.8,10.8,M,-32.6,M,,*6B
$PYRTM,2024,125.500316245035,16.609963655174
$GPGGA,120026.00,3511.6704,N,12148.1046,W,1,12,0.8,10.3,M,-32.6,M,,*64
$PYRTM,2024,125.500327819375,16.609975229514
$GPGGA,120027.00,3511.6699,N,12148.1041,W,1,12,0.8,10.0,M,-32.6,M,,*64
$PYRTM,2024,125.500335105903,16.609982516042
$GPGGA,120028.00,3511.6693,N,12148.1037,W,1,12,0.8,9.7,M,-32.6,M,,*5F
$PYRTM,2024,125.500350969086,16.609998379225
$GPGGA,120029.00,3511.6688,N,12148.1031,W,1,12,0.8,9.5,M,-32.6,M,,*50
$PYRTM,2024,125.500358246308,16.610005656447
$GPGGA,120030.00,3511.6687,N,12148.1022,W,1,12,0.8,9.9,M,-32.6,M,,*59
$PYRTM,2024,125.500374115428,16.610021525579
$GPGGA,120031.00,3511.6687,N,12148.1014,W,1,12,0.8,10.2,M,-32.6,M,,*6E
$PYRTM,2024,125.500385693715,16.610033103854
$GPGGA,120032.00,3511.6684,N,12148.1007,W,1,12,0.8,10.3,M,-32.6,M,,*6D
$PYRTM,2024,125.500397263692,16.610044673831
$GPGGA,120033.00,3511.6679,N,12148.1001,W,1,12,0.8,10.1,M,-32.6,M,,*6A
$PYRTM,2024,125.500408838102,16.610056248252
$GPGGA,120034.00,3511.6673,N,12148.0993,W,1,12,0.8,9.9,M,-32.6,M,,*54
$PYRTM,2024,125.500416129954,16.610063540104
$GPGGA,120035.00,3511.6671,N,12148.0985,W,1,12,0.5,9.8,M,-32.6,M,,*5C
$PYRTM,2024,125.500431987419,16.610079397558
$GPGGA,120036.00,3511.6670,N,12148.0977,W,1,12,0.8,10.2,M,-32.6,M,,*6C
$PYRTM,2024,125.500443556204,16.610090966343
$GPGGA,120037.00,3511.6668,N,12148.0971,W,1,12,0.8,10.1,M,-32.6,M,,*61
$PYRTM,2024,125.500455135081,16.610102545220
$GPGGA,120038.00,3511.6663,N,12148.0964,W,1,12,0.5,10.5,M,-32.6,M,,*68
$PYRTM,2024,125.500466705718,16.610114115868
$GPGGA,120039.00,3511.6658,N,12148.0956,W,1,12,0.8,10.4,M,-32.6,M,,*6C
$PYRTM,2024,125.500473988252,16.610121398391
$GPGGA,120040.00,3511.6656,N,12148.0948,W,1,12,0.8,10.4,M,-32.6,M,,*63
$PYRTM,2024,125.500489856551,16.610137266690
$GPGGA,120041.00,3511.6655,N,12148.0941,W,1,12,0.5,10.4,M,-32.6,M,,*65
$PYRTM,2024,125.500501427234,16.610148837373
$GPGGA,120042.00,3511.6653,N,12148.0934,W,1,12,0.5,10.3,M,-32.6,M,,*65
$PYRTM,2024,125.500513004595,16.610160414734
$GPGGA,120043.00,3511.6648,N,12148.0926,W,1,12,0.8,10.0,M,-32.6,M,,*63
$PYRTM,2024,125.500524594167,16.610172004306
$GPGGA,120044.00,3511.6643,N,12148.0918,W,1,12,0.5,9.8,M,-32.6,M,,*5F
$PYRTM,2024,125.500531871065,16.610179281204
$GPGGA,120045.00,3511.6639,N,12148.0912,W,1,12,0.5,9.9,M,-32.6,M,,*58
$PYRTM,2024,125.500547726597,16.610195136736
$GPGGA,120046.00,3511.6637,N,12148.0906,W,1,12,0.5,10.2,M,-32.6,M,,*63
$PYRTM,2024,125.500555019120,16.610202429259
$GPGGA,120047.00,3511.6635,N,12148.0900,W,1,12,0.5,10.3,M,-32.6,M,,*67
$PYRTM,2024,125.500573769433,16.610221179572
$GPGGA,120048.00,3511.6631,N,12148.0893,W,1,12,0.5,10.0,M,-32.6,M,,*64
$PYRTM,2024,125.500582449144,16.610229859282
$GPGGA,120049.00,3511.6628,N,12148.0887,W,1,12,0.5,9.3,M,-32.6,M,,*53
$PYRTM,2024,125.500594026007,16.610241436134
$GPGGA,120050.00,3511.6624,N,12148.0880,W,1,12,0.5,8.7,M,-32.6,M,,*55
$PYRTM,2024,125.500605597465,16.610253007604
$GPGGA,120051.00,3511.6621,N,12148.0873,W,1,12,0.5,8.3,M,-32.6,M,,*59
$PYRTM,2024,125.500617173437,16.610264583576
$GPGGA,120052.00,3511.6620,N,12148.0866,W,1,12,0.5,9.3,M,-32.6,M,,*5E
$PYRTM,2024,125.500628745845,16.610276155984
$GPGGA,120053.00,3511.6617,N,12148.0859,W,1,12,0.5,10.0,M,-32.6,M,,*6C
$PYRTM,2024,125.500640320509,16.610287730648
$GPGGA,120054.00,3511.6610,N,12148.0853,W,1,12,0.5,10.3,M,-32.6,M,,*65
$PYRTM,2024,125.500647714109,16.610295124236
$GPGGA,120055.00,3511.6604,N,12148.0848,W,1,12,0.5,10.1,M,-32.6,M,,*69
$PYRTM,2024,125.500663468681,16.610310878819
$GPGGA,120056.00,3511.6602,N,12148.0839,W,1,12,0.5,9.8,M,-32.6,M,,*5B
$PYRTM,2024,125.500675043368,16.610322453507
$GPGGA,120057.00,3511.6601,N,12148.0829,W,1,12,0.5,9.4,M,-32.6,M,,*54
$PYRTM,2024,125.500686633137,16.610334043275
$GPGGA,120058.00,3511.6598,N,12148.0820,W,1,12,0.5,9.1,M,-32.6,M,,*54
$PYRTM,2024,125.500698193368,16.610345603519
$GPGGA,120059.00,3511.6592,N,12148.0815,W,1,12,0.5,9.2,M,-32.6,M,,*5A
$PYRTM,2024,125.500705471262,16.610352881412
$GPGGA,120100.00,3511.6587,N,12148.0812,W,1,12,0.5,9.5,M,-32.6,M,,*53
$PYRTM,2024,125.500721341470,16.610368751609
$GPGGA,120101.00,3511.6584,N,12148.0806,W,1,12,0.5,9.7,M,-32.6,M,,*56
$PYRTM,2024,125.500728619271,16.610376029410
$GPGGA,120102.00,3511.6581,N,12148.0796,W,1,12,0.5,9.7,M,-32.6,M,,*56
$PYRTM,2024,125.500744488877,16.610391899016
$GPGGA,120103.00,3511.6579,N,12148.0787,W,1,12,0.5,9.6,M,-32.6,M,,*51
$PYRTM,2024,125.500756062049,16.610403472199
$GPGGA,120104.00,3511.6577,N,12148.0781,W,1,12,0.5,9.5,M,-32.6,M,,*5D
$PYRTM,2024,125.500763356644,16.610410766782
$GPGGA,120105.00,3511.6573,N,12148.0777,W,1,12,0.5,9.3,M,-32.6,M,,*57
$PYRTM,2024,125.500779213877,16.610426624016
$GPGGA,120106.00,3511.6568,N,12148.0774,W,1,12,0.5,8.9,M,-32.6,M,,*56
$PYRTM,2024,125.500790785081,16.610438195231
$GPGGA,120107.00,3511.6564,N,12148.0767,W,1,12,0.5,8.3,M,-32.6,M,,*53
$PYRTM,2024,125.500802359965,16.610449770104
$GPGGA,120108.00,3511.6562,N,12148.0759,W,1,12,0.5,8.0,M,-32.6,M,,*54
$PYRTM,2024,125.500813933646,16.610461343785
$GPGGA,120109.00,3511.6559,N,12148.0751,W,1,12,0.5,8.3,M,-32.6,M,,*56
$PYRTM,2024,125.500821212130,16.610468622269
$GPGGA,120110.00,3511.6555,N,12148.0745,W,1,12,0.5,9.2,M,-32.6,M,,*57
$PYRTM,2024,125.500837080833,16.610484490972
$GPGGA,120111.00,3511.6551,N,12148.0738,W,1,12,0.5,10.2,M,-32.6,M,,*60
$PYRTM,2024,125.500848670139,16.610496080278
$GPGGA,120112.00,3511.6545,N,12148.0732,W,1,12,0.5,10.2,M,-32.6,M,,*6C
$PYRTM,2024,125.500860230590,16.610507640729
$GPGGA,120113.00,3511.6539,N,12148.0724,W,1,12,0.5,9.8,M,-32.6,M,,*53
$PYRTM,2024,125.500871806667,16.610519216806
$GPGGA,120114.00,3511.6536,N,12148.0716,W,1,12,0.5,9.3,M,-32.6,M,,*51
$PYRTM,2024,125.500879094144,16.610526504282
$GPGGA,120115.00,3511.6534,N,12148.0708,W,1,12,0.5,9.0,M,-32.6,M,,*5E
$PYRTM,2024,125.500894952662,16.610542362801
$GPGGA,120116.00,3511.6532,N,12148.0701,W,1,12,0.5,8.8,M,-32.6,M,,*5B
$PYRTM,2024,125.500906527187,16.610553937326
$GPGGA,120117.00,3511.6528,N,12148.0694,W,1,12,0.5,8.6,M,-32.6,M,,*52
$PYRTM,2024,125.500913806505,16.610561216644
$GPGGA,120118.00,3511.6524,N,12148.0689,W,1,12,0.5,8.6,M,-32.6,M,,*5D
$PYRTM,2024,125.500932451933,16.610579862072
$GPGGA,120119.00,3511.6521,N,12148.0683,W,1,12,0.5,8.9,M,-32.6,M,,*5C
$PYRTM,2024,125.500941247998,16.610588658137
$GPGGA,120120.00,3511.6518,N,12148.0676,W,1,12,0.5,9.4,M,-32.6,M,,*5A
$PYRTM,2024,125.500952822581,16.610600232720
$GPGGA,120121.00,3511.6516,N,12148.0669,W,1,12,0.5,9.6,M,-32.6,M,,*59
$PYRTM,2024,125.500964391690,16.610611801829
$GPGGA,120122.00,3511.6512,N,12148.0663,W,1,12,0.5,9.2,M,-32.6,M,,*50
$PYRTM,2024,125.500975970799,16.610623380938
$GPGGA,120123.00,3511.6508,N,12148.0655,W,1,12,0.5,8.5,M,-32.6,M,,*59
$PYRTM,2024,125.500987545417,16.610634955556
$GPGGA,120124.00,3511.6504,N,12148.0648,W,1,12,0.5,8.0,M,-32.6,M,,*5B
$PYRTM,2024,125.500999113727,16.610646523866
$GPGGA,120125.00,3511.6502,N,12148.0642,W,1,12,0.5,8.4,M,-32.6,M,,*52
$PYRTM,2024,125.501010696979,16.610658107130
$GPGGA,120126.00,3511.6500,N,12148.0636,W,1,12,0.5,9.1,M,-32.6,M,,*54
$PYRTM,2024,125.501022267153,16.610669677292
$GPGGA,120127.00,3511.6498,N,12148.0629,W,1,12,0.5,9.6,M,-32.6,M,,*5C
$PYRTM,2024,125.501033856921,16.610681267060
$GPGGA,120128.00,3511.6493,N,12148.0623,W,1,12,0.5,9.8,M,-32.6,M,,*5C
$PYRTM,2024,125.501045415903,16.610692826042
$GPGGA,120129.00,3511.6488,N,12148.0617,W,1,12,0.5,9.8,M,-32.6,M,,*50
$PYRTM,2024,125.501056993495,16.610704403634
$GPGGA,120130.00,3511.6485,N,12148.0610,W,1,12,0.5,9.6,M,-32.6,M,,*5C
$PYRTM,2024,125.501068559398,16.610715969537
$GPGGA,120131.00,3511.6484,N,12148.0601,W,1,12,0.5,9.3,M,-32.6,M,,*59
$PYRTM,2024,125.501075845637,16.610723255775
$GPGGA,120132.00,3511.6481,N,12148.0593,W,1,12,0.5,9.0,M,-32.6,M,,*54
$PYRTM,2024,125.501091709201,16.610739119352
$GPGGA,120133.00,3511.6476,N,12148.0588,W,1,12,0.5,8.9,M,-32.6,M,,*5F
$PYRTM,2024,125.501098992280,16.610746402419
$GPGGA,120134.00,3511.6471,N,12148.0584,W,1,12,0.5,9.0,M,-32.6,M,,*5B
$PYRTM,2024,125.501114746123,16.610762156262
$GPGGA,120135.00,3511.6468,N,12148.0578,W,1,12,0.5,9.1,M,-32.6,M,,*50
$PYRTM,2024,125.501126434988,16.610773845127
$GPGGA,120136.00,3511.6465,N,12148.0569,W,1,12,0.5,9.2,M,-32.6,M,,*5D
$PYRTM,2024,125.501138009051,16.610785419201
$GPGGA,120137.00,3511.6462,N,12148.0560,W,1,12,0.5,9.2,M,-32.6,M,,*52
$PYRTM,2024,125.501149583194,16.610796993333
$GPGGA,120138.00,3511.6457,N,12148.0555,W,1,12,0.5,9.3,M,-32.6,M,,*5C
$PYRTM,2024,125.501161157998,16.610808568137
$GPGGA,120139.00,3511.6452,N,12148.0552,W,1,12,0.5,9.3,M,-32.6,M,,*5F
$PYRTM,2024,125.501168436377,16.610815846516
$GPGGA,120140.00,3511.6449,N,12148.0546,W,1,12,0.5,9.2,M,-32.6,M,,*5F
$PYRTM,2024,125.501184305718,16.610831715856
$GPGGA,120141.00,3511.6447,N,12148.0538,W,1,12,0.5,9.0,M,-32.6,M,,*5B
$PYRTM,2024,125.501191587419,16.610838997558
$GPGGA,120142.00,3511.6446,N,12148.0530,W,1,12,0.5,8.9,M,-32.6,M,,*59
$PYRTM,2024,125.501207454363,16.610854864514
$GPGGA,120143.00,3511.6444,N,12148.0523,W,1,12,0.5,8.9,M,-32.6,M,,*58
$PYRTM,2024,125.501219029051,16.610866439190
$GPGGA,120144.00,3511.6440,N,12148.0517,W,1,12,0.5,9.3,M,-32.6,M,,*57
$PYRTM,2024,125.501230603160,16.610878013299
$GPGGA,120145.00,3511.6438,N,12148.0510,W,1,12,0.5,9.9,M,-32.6,M,,*54
$PYRTM,2024,125.501242176308,16.610889586447
$GPGGA,120146.00,3511.6434,N,12148.0504,W,1,12,0.5,10.2,M,-32.6,M,,*6D
$PYRTM,2024,125.501253745880,16.610901156019
$GPGGA,120147.00,3511.6430,N,12148.0498,W,1,12,0.5,10.0,M,-32.6,M,,*6E
$PYRTM,2024,125.501265326319,16.610912736470
$GPGGA,120148.00,3511.6425,N,12148.0491,W,1,12,0.5,9.5,M,-32.6,M,,*51
$PYRTM,2024,125.501272616331,16.610920026470
$GPGGA,120149.00,3511.6421,N,12148.0483,W,1,12,0.5,9.0,M,-32.6,M,,*52
$PYRTM,2024,125.501291370683,16.610938780822
$GPGGA,120150.00,3511.6419,N,12148.0475,W,1,12,0.5,8.9,M,-32.6,M,,*50
$PYRTM,2024,125.501300047373,16.610947457512
$GPGGA,120151.00,3511.6415,N,12148.0469,W,1,12,0.5,9.0,M,-32.6,M,,*58
$PYRTM,2024,125.501311622269,16.610959032407
$GPGGA,120152.00,3511.6411,N,12148.0464,W,1,12,0.5,9.3,M,-32.6,M,,*51
$PYRTM,2024,125.501323196262,16.610970606400
$GPGGA,120153.00,3511.6406,N,12148.0458,W,1,12,0.5,9.5,M,-32.6,M,,*5F
$PYRTM,2024,125.501330475046,16.610977885185
$GPGGA,120154.00,3511.6403,N,12148.0450,W,1,12,0.5,9.6,M,-32.6,M,,*56
$PYRTM,2024,125.501346344120,16.610993754259
$GPGGA,120155.00,3511.6400,N,12148.0443,W,1,12,0.5,9.7,M,-32.6,M,,*57
$PYRTM,2024,125.501357921806,16.611005331944
$GPGGA,120156.00,3511.6398,N,12148.0437,W,1,12,0.5,9.5,M,-32.6,M,,*53
$PYRTM,2024,125.501369491921,16.611016902060
$GPGGA,120157.00,3511.6396,N,12148.0430,W,1,12,0.5,9.1,M,-32.6,M,,*5F
$PYRTM,2024,125.501381066192,16.611028476343
$GPGGA,120158.00,3511.6393,N,12148.0423,W,1,12,0.5,8.9,M,-32.6,M,,*5E
$PYRTM,2024,125.501388357593,16.611035767731
$GPGGA,120159.00,3511.6388,N,12148.0418,W,1,12,0.5,9.0,M,-32.6,M,,*55
$PYRTM,2024,125.501404097546,16.611051507685
$GPGGA,120200.00,3511.6383,N,12148.0413,W,1,12,0.5,9.2,M,-32.6,M,,*58
$PYRTM,2024,125.501415785150,16.611063195289
$GPGGA,120201.00,3511.6382,N,12148.0406,W,1,12,0.5,9.4,M,-32.6,M,,*5A
$PYRTM,2024,125.501423067975,16.611070478113
$GPGGA,120202.00,3511.6381,N,12148.0399,W,1,12,0.5,9.5,M,-32.6,M,,*5A
$PYRTM,2024,125.501438816169,16.611086226308
$GPGGA,120203.00,3511.6379,N,12148.0391,W,1,12,0.5,9.5,M,-32.6,M,,*54
$PYRTM,2024,125.501450394884,16.611097805023
$GPGGA,120204.00,3511.6373,N,12148.0384,W,1,12,0.5,9.2,M,-32.6,M,,*5A
$PYRTM,2024,125.501461968565,16.611109378704
$GPGGA,120205.00,3511.6366,N,12148.0377,W,1,12,0.5,9.2,M,-32.6,M,,*53
$PYRTM,2024,125.501469364271,16.611116774410
$GPGGA,120206.00,3511.6362,N,12148.0372,W,1,12,0.5,9.3,M,-32.6,M,,*50
$PYRTM,2024,125.501488010428,16.611135420567
$GPGGA,120207.00,3511.6361,N,12148.0366,W,1,12,0.5,9.5,M,-32.6,M,,*51
$PYRTM,2024,125.501496810961,16.611144221100
$GPGGA,120208.00,3511.6359,N,12148.0359,W,1,12,0.5,9.6,M,-32.6,M,,*5A
$PYRTM,2024,125.501504092963,16.611151503102
$GPGGA,120209.00,3511.6355,N,12148.0351,W,1,12,0.5,9.5,M,-32.6,M,,*5C
$PYRTM,2024,125.501519865370,16.611167275509
$GPGGA,120210.00,3511.6350,N,12148.0343,W,1,12,0.5,9.4,M,-32.6,M,,*53
$PYRTM,2024,125.501531413762,16.611178823900
$GPGGA,120211.00,3511.6345,N,12148.0336,W,1,12,0.5,9.3,M,-32.6,M,,*53
$PYRTM,2024,125.501542987847,16.611190397986
$GPGGA,120212.00,3511.6343,N,12148.0329,W,1,12,0.5,9.7,M,-32.6,M,,*5C
$PYRTM,2024,125.501554677975,16.611202088113
$GPGGA,120213.00,3511.6342,N,12148.0323,W,1,12,0.5,10.0,M,-32.6,M,,*69
$PYRTM,2024,125.501561957604,16.611209367743
$GPGGA,120214.00,3511.6340,N,12148.0318,W,1,12,0.5,10.0,M,-32.6,M,,*64
$PYRTM,2024,125.501577706701,16.611225116840
$GPGGA,120215.00,3511.6335,N,12148.0312,W,1,12,0.5,9.8,M,-32.6,M,,*5D
$PYRTM,2024,125.501589295937,16.611236706076
$GPGGA,120216.00,3511.6330,N,12148.0306,W,1,12,0.5,9.4,M,-32.6,M,,*52
$PYRTM,2024,125.501600859248,16.611248269387
$GPGGA,120217.00,3511.6327,N,12148.0298,W,1,12,0.5,9.0,M,-32.6,M,,*57
$PYRTM,2024,125.501612432419,16.611259842569
$GPGGA,120218.00,3511.6326,N,12148.0292,W,1,12,0.5,9.6,M,-32.6,M,,*55
$PYRTM,2024,125.501624122951,16.611271533090
$GPGGA,120219.00,3511.6323,N,12148.0287,W,1,12,0.5,10.2,M,-32.6,M,,*69
$PYRTM,2024,125.501631402755,16.611278812894
$GPGGA,120220.00,3511.6319,N,12148.0282,W,1,12,0.5,10.2,M,-32.6,M,,*6F
$PYRTM,2024,125.501650044560,16.611297454699
$GPGGA,120221.00,3511.6315,N,12148.0273,W,1,12,0.5,10.2,M,-32.6,M,,*6C
$PYRTM,2024,125.501658845648,16.611306255787
$GPGGA,120222.00,3511.6313,N,12148.0263,W,1,12,0.5,10.2,M,-32.6,M,,*68
$PYRTM,2024,125.501670416632,16.611317826771
$GPGGA,120223.00,3511.6309,N,12148.0255,W,1,12,0.5,10.1,M,-32.6,M,,*64
$PYRTM,2024,125.501677698461,16.611325108600
$GPGGA,120224.00,3511.6304,N,12148.0250,W,1,12,0.5,10.3,M,-32.6,M,,*69
$PYRTM,2024,125.501693567882,16.611340978021
$GPGGA,120225.00,3511.6301,N,12148.0244,W,1,12,0.5,10.5,M,-32.6,M,,*6E
$PYRTM,2024,125.501705137037,16.611352547176
$GPGGA,120226.00,3511.6299,N,12148.0237,W,1,12,0.5,10.5,M,-32.6,M,,*69
$PYRTM,2024,125.501716717326,16.611364127477
$GPGGA,120227.00,3511.6296,N,12148.0229,W,1,12,0.5,10.3,M,-32.6,M,,*6E
$PYRTM,2024,125.501728291053,16.611375701204
$GPGGA,120228.00,3511.6291,N,12148.0223,W,1,12,0.5,10.1,M,-32.6,M,,*6E
$PYRTM,2024,125.501735593287,16.611383003426
$GPGGA,120229.00,3511.6287,N,12148.0219,W,1,12,0.5,10.0,M,-32.6,M,,*60
$PYRTM,2024,125.501751324884,16.611398735035
$GPGGA,120230.00,3511.6284,N,12148.0213,W,1,12,0.5,9.9,M,-32.6,M,,*50
$PYRTM,2024,125.501762892812,16.611410302963
$GPGGA,120231.00,3511.6282,N,12148.0204,W,1,12,0.5,9.6,M,-32.6,M,,*5E
$PYRTM,2024,125.501774471516,16.611421881655
$GPGGA,120232.00,3511.6279,N,12148.0195,W,1,12,0.5,9.4,M,-32.6,M,,*50
$PYRTM,2024,125.501786046042,16.611433456181
$GPGGA,120233.00,3511.6275,N,12148.0188,W,1,12,0.5,9.0,M,-32.6,M,,*55
$PYRTM,2024,125.501793453669,16.611440863808
$GPGGA,120234.00,3511.6269,N,12148.0184,W,1,12,0.5,9.6,M,-32.6,M,,*55
$PYRTM,2024,125.501809193970,16.611456604109
$GPGGA,120235.00,3511.6264,N,12148.0181,W,1,12,0.5,9.9,M,-32.6,M,,*53
$PYRTM,2024,125.501820776111,16.611468186250
$GPGGA,120236.00,3511.6261,N,12148.0173,W,1,12,0.5,9.7,M,-32.6,M,,*56
$PYRTM,2024,125.501832337292,16.611479747431
$GPGGA,120237.00,3511.6261,N,12148.0163,W,1,12,0.5,9.8,M,-32.6,M,,*59
$PYRTM,2024,125.501839736806,16.611487146944
$GPGGA,120238.00,3511.6258,N,12148.0156,W,1,12,0.5,9.8,M,-32.6,M,,*5A
$PYRTM,2024,125.501858384479,16.611505794618
$GPGGA,120239.00,3511.6252,N,12148.0153,W,1,12,0.5,10.0,M,-32.6,M,,*64
$PYRTM,2024,125.501869961667,16.611517371806
$GPGGA,120240.00,3511.6246,N,12148.0148,W,1,12,0.5,10.2,M,-32.6,M,,*67
$PYRTM,2024,125.501878754525,16.611526164664
$GPGGA,120241.00,3511.6244,N,12148.0139,W,1,12,0.5,10.7,M,-32.6,M,,*67
$PYRTM,2024,125.501890328449,16.611537738588
$GPGGA,120242.00,3511.6245,N,12148.0129,W,1,12,0.5,11.1,M,-32.6,M,,*63
$PYRTM,2024,125.501901903785,16.611549313924
$GPGGA,120243.00,3511.6241,N,12148.0124,W,1,12,0.5,11.3,M,-32.6,M,,*69
$PYRTM,2024,125.501909185046,16.611556595185
$GPGGA,120244.00,3511.6233,N,12148.0121,W,1,12,0.5,10.9,M,-32.6,M,,*65
$PYRTM,2024,125.501925051262,16.611572461400
$GPGGA,120245.00,3511.6227,N,12148.0114,W,1,12,0.5,10.3,M,-32.6,M,,*6D
$PYRTM,2024,125.501936624525,16.611584034664
$GPGGA,120246.00,3511.6226,N,12148.0104,W,1,12,0.5,10.0,M,-32.6,M,,*6D
$PYRTM,2024,125.501948082743,16.611595492882
$GPGGA,120247.00,3511.6226,N,12148.0093,W,1,12,0.5,9.8,M,-32.6,M,,*53
$PYRTM,2024,125.501959657083,16.611607067222
$GPGGA,120248.00,3511.6223,N,12148.0088,W,1,12,0.5,9.8,M,-32.6,M,,*53
$PYRTM,2024,125.501971231493,16.611618641632
$GPGGA,120249.00,3511.6216,N,12148.0086,W,1,12,0.5,9.9,M,-32.6,M,,*5B
$PYRTM,2024,125.501982916146,16.611630326285
$GPGGA,120250.00,3511.6210,N,12148.0082,W,1,12,0.5,10.0,M,-32.6,M,,*60
$PYRTM,2024,125.501990210995,16.611637621134
$GPGGA,120251.00,3511.6208,N,12148.0073,W,1,12,0.5,10.0,M,-32.6,M,,*66
$PYRTM,2024,125.502008851192,16.611656261331
$GPGGA,120252.00,3511.6209,N,12148.0062,W,1,12,0.5,9.9,M,-32.6,M,,*55
$PYRTM,2024,125.502017529155,16.611664939294
$GPGGA,120253.00,3511.6206,N,12148.0054,W,1,12,0.5,9.8,M,-32.6,M,,*5F
$PYRTM,2024,125.502024923275,16.611672333414
$GPGGA,120254.00,3511.6200,N,12148.0051,W,1,12,0.5,10.0,M,-32.6,M,,*6B
$PYRTM,2024,125.502040788183,16.611688198322
$GPGGA,120255.00,3511.6195,N,12148.0048,W,1,12,0.5,10.1,M,-32.6,M,,*6C
$PYRTM,2024,125.502052366806,16.611699776944
$GPGGA,120256.00,3511.6192,N,12148.0041,W,1,12,0.5,10.3,M,-32.6,M,,*63
$PYRTM,2024,125.502063936053,16.611711346204
$GPGGA,120257.00,3511.6191,N,12148.0031,W,1,12,0.5,10.2,M,-32.6,M,,*67
$PYRTM,2024,125.502075515162,16.611722925301
$GPGGA,120258.00,3511.6190,N,12148.0023,W,1,12,0.5,10.3,M,-32.6,M,,*6B
$PYRTM,2024,125.502082800069,16.611730210208
$GPGGA,120259.00,3511.6187,N,12148.0017,W,1,12,0.5,10.3,M,-32.6,M,,*6B
$PYRTM,2024,125.502098663727,16.611746073866
$GPGGA,120300.00,3511.6180,N,12148.0011,W,1,12,0.5,10.3,M,-32.6,M,,*67
$PYRTM,2024,125.502110233785,16.611757643924
$GPGGA,120301.00,3511.6173,N,12148.0004,W,1,12,0.5,10.2,M,-32.6,M,,*6F
$PYRTM,2024,125.502121813854,16.611769223993
$GPGGA,120302.00,3511.6170,N,12147.9997,W,1,12,0.5,10.2,M,-32.6,M,,*6A
$PYRTM,2024,125.502133385197,16.611780795347
$GPGGA,120303.00,3511.6170,N,12147.9989,W,1,12,0.5,10.3,M,-32.6,M,,*65
$PYRTM,2024,125.502144855139,16.611792265278
$GPGGA,120304.00,3511.6167,N,12147.9981,W,1,12,0.5,9.7,M,-32.6,M,,*50
$PYRTM,2024,125.502156418113,16.611803828252
$GPGGA,120305.00,3511.6162,N,12147.9975,W,1,12,0.5,9.7,M,-32.6,M,,*5F
$PYRTM,2024,125.502168017859,16.611815427998
$GPGGA,120306.00,3511.6157,N,12147.9969,W,1,12,0.5,9.4,M,-32.6,M,,*54
$PYRTM,2024,125.502179567083,16.611826977222
$GPGGA,120307.00,3511.6154,N,12147.9964,W,1,12,0.5,9.3,M,-32.6,M,,*5C
$PYRTM,2024,125.502191148495,16.611838558646
$GPGGA,120308.00,3511.6152,N,12147.9957,W,1,12,0.5,9.5,M,-32.6,M,,*53
$PYRTM,2024,125.502198541308,16.611845951447
$GPGGA,120309.00,3511.6149,N,12147.9950,W,1,12,0.5,9.7,M,-32.6,M,,*5D
$PYRTM,2024,125.502214404375,16.611861814514
$GPGGA,120310.00,3511.6145,N,12147.9942,W,1,12,0.5,10.0,M,-32.6,M,,*65
$PYRTM,2024,125.502221707546,16.611869117685
$GPGGA,120311.00,3511.6142,N,12147.9935,W,1,12,0.5,10.2,M,-32.6,M,,*61
$PYRTM,2024,125.502237553924,16.611884964063
$GPGGA,120312.00,3511.6139,N,12147.9928,W,1,12,0.5,10.2,M,-32.6,M,,*62
$PYRTM,2024,125.502249126771,16.611896536910
$GPGGA,120313.00,3511.6134,N,12147.9923,W,1,12,0.5,10.1,M,-32.6,M,,*66
$PYRTM,2024,125.502260597072,16.611908007211
$GPGGA,120314.00,3511.6130,N,12147.9916,W,1,12,0.5,9.7,M,-32.6,M,,*5D
$PYRTM,2024,125.502272155995,16.611919566134
$GPGGA,120315.00,3511.6127,N,12147.9909,W,1,12,0.5,9.3,M,-32.6,M,,*50
$PYRTM,2024,125.502283744329,16.611931154468
$GPGGA,120316.00,3511.6125,N,12147.9903,W,1,12,0.5,9.5,M,-32.6,M,,*5D
$PYRTM,2024,125.502295308194,16.611942718333
$GPGGA,120317.00,3511.6122,N,12147.9897,W,1,12,0.5,9.8,M,-32.6,M,,*5A
$PYRTM,2024,125.502307001053,16.611954411192
$GPGGA,120318.00,3511.6118,N,12147.9889,W,1,12,0.5,10.2,M,-32.6,M,,*61
$PYRTM,2024,125.502318570775,16.611965980914
$GPGGA,120319.00,3511.6113,N,12147.9880,W,1,12,0.5,10.6,M,-32.6,M,,*66
$PYRTM,2024,125.502330149132,16.611977559282
$GPGGA,120320.00,3511.6111,N,12147.9871,W,1,12,0.5,11.1,M,-32.6,M,,*66
$PYRTM,2024,125.502337436632,16.611984846771
$GPGGA,120321.00,3511.6109,N,12147.9865,W,1,12,0.5,11.0,M,-32.6,M,,*6A
$PYRTM,2024,125.502349229120,16.611996639259
$GPGGA,120322.00,3511.6103,N,12147.9859,W,1,12,0.5,10.1,M,-32.6,M,,*6C
$PYRTM,2024,125.502367646319,16.612015056458
$GPGGA,120323.00,3511.6097,N,12147.9853,W,1,12,0.5,9.1,M,-32.6,M,,*53
$PYRTM,2024,125.502376326076,16.612023736215
$GPGGA,120324.00,3511.6094,N,12147.9845,W,1,12,0.5,9.0,M,-32.6,M,,*51
$PYRTM,2024,125.502387901481,16.612035311620
$GPGGA,120325.00,3511.6094,N,12147.9837,W,1,12,0.5,9.5,M,-32.6,M,,*50
$PYRTM,2024,125.502395296331,16.612042706470
$GPGGA,120326.00,3511.6093,N,12147.9831,W,1,12,0.5,9.6,M,-32.6,M,,*51
$PYRTM,2024,125.502411048356,16.612058458495
$GPGGA,120327.00,3511.6089,N,12147.9827,W,1,12,0.5,9.9,M,-32.6,M,,*53
$PYRTM,2024,125.502422739803,16.612070149942
$GPGGA,120328.00,3511.6084,N,12147.9822,W,1,12,0.5,10.1,M,-32.6,M,,*64
$PYRTM,2024,125.502434313935,16.612081724074
$GPGGA,120329.00,3511.6081,N,12147.9814,W,1,12,0.5,10.0,M,-32.6,M,,*64
$PYRTM,2024,125.502445771736,16.612093181875
$GPGGA,120330.00,3511.6078,N,12147.9805,W,1,12,0.5,9.8,M,-32.6,M,,*5A
$PYRTM,2024,125.502453177870,16.612100588009
$GPGGA,120331.00,3511.6075,N,12147.9797,W,1,12,0.5,9.6,M,-32.6,M,,*5C
$PYRTM,2024,125.502468919664,16.612116329803
$GPGGA,120332.00,3511.6071,N,12147.9791,W,1,12,0.5,9.4,M,-32.6,M,,*5F
$PYRTM,2024,125.502480494225,16.612127904363
$GPGGA,120333.00,3511.6066,N,12147.9784,W,1,12,0.5,9.5,M,-32.6,M,,*5D
$PYRTM,2024,125.502492075694,16.612139485833
$GPGGA,120334.00,3511.6063,N,12147.9775,W,1,12,0.5,9.8,M,-32.6,M,,*5C
$PYRTM,2024,125.502503758958,16.612151169097
$GPGGA,120335.00,3511.6061,N,12147.9767,W,1,12,0.5,10.2,M,-32.6,M,,*6E
$PYRTM,2024,125.502511038194,16.612158448333
$GPGGA,120336.00,3511.6058,N,12147.9761,W,1,12,0.5,10.3,M,-32.6,M,,*60
$PYRTM,2024,125.502526905764,16.612174315903
$GPGGA,120337.00,3511.6053,N,12147.9754,W,1,12,0.5,10.2,M,-32.6,M,,*6D
$PYRTM,2024,125.502538364699,16.612185774838
$GPGGA,120338.00,3511.6047,N,12147.9747,W,1,12,0.5,9.8,M,-32.6,M,,*57
$PYRTM,2024,125.502549939144,16.612197349282
$GPGGA,120339.00,3511.6042,N,12147.9740,W,1,12,0.5,9.6,M,-32.6,M,,*5A
$PYRTM,2024,125.502561523681,16.612208933819
$GPGGA,120340.00,3511.6039,N,12147.9733,W,1,12,0.5,9.5,M,-32.6,M,,*5F
$PYRTM,2024,125.502568919826,16.612216329954
$GPGGA,120341.00,3511.6037,N,12147.9725,W,1,12,0.5,9.5,M,-32.6,M,,*57
$PYRTM,2024,125.502584660185,16.612232070324
$GPGGA,120342.00,3511.6035,N,12147.9718,W,1,12,0.5,9.5,M,-32.6,M,,*58
$PYRTM,2024,125.502592062951,16.612239473090
$GPGGA,120343.00,3511.6032,N,12147.9712,W,1,12,0.5,9.7,M,-32.6,M,,*56
$PYRTM,2024,125.502607819201,16.612255229340
$GPGGA,120344.00,3511.6027,N,12147.9707,W,1,12,0.5,9.7,M,-32.6,M,,*51
$PYRTM,2024,125.502619382882,16.612266793021
$GPGGA,120345.00,3511.6023,N,12147.9701,W,1,12,0.5,9.6,M,-32.6,M,,*53
$PYRTM,2024,125.502626778218,16.612274188356
$GPGGA,120346.00,3511.6020,N,12147.9693,W,1,12,0.5,9.5,M,-32.6,M,,*5A
$PYRTM,2024,125.502642533009,16.612289943148
$GPGGA,120347.00,3511.6019,N,12147.9686,W,1,12,0.5,9.6,M,-32.6,M,,*56
$PYRTM,2024,125.502654113391,16.612301523530
$GPGGA,120348.00,3511.6017,N,12147.9679,W,1,12,0.5,9.8,M,-32.6,M,,*59
$PYRTM,2024,125.502665679688,16.612313089826
$GPGGA,120349.00,3511.6013,N,12147.9673,W,1,12,0.5,9.9,M,-32.6,M,,*57
$PYRTM,2024,125.502677264317,16.612324674456
$GPGGA,120350.00,3511.6007,N,12147.9667,W,1,12,0.5,9.8,M,-32.6,M,,*5E
$PYRTM,2024,125.502688828345,16.612336238484
$GPGGA,120351.00,3511.6003,N,12147.9660,W,1,12,0.5,9.8,M,-32.6,M,,*5C
$PYRTM,2024,125.502700521215,16.612347931354
$GPGGA,120352.00,3511.6001,N,12147.9653,W,1,12,0.5,10.1,M,-32.6,M,,*6C
$PYRTM,2024,125.502707803877,16.612355214016
$GPGGA,120353.00,3511.5999,N,12147.9646,W,1,12,0.5,10.1,M,-32.6,M,,*62
$PYRTM,2024,125.502726447095,16.612373857234
$GPGGA,120354.00,3511.5995,N,12147.9637,W,1,12,0.5,9.9,M,-32.6,M,,*5F
$PYRTM,2024,125.502735239919,16.612382650058
$GPGGA,120355.00,3511.5990,N,12147.9630,W,1,12,0.5,9.5,M,-32.6,M,,*50
$PYRTM,2024,125.502746817373,16.612394227500
$GPGGA,120356.00,3511.5986,N,12147.9623,W,1,12,0.5,9.5,M,-32.6,M,,*56
$PYRTM,2024,125.502758388021,16.612405798160
$GPGGA,120357.00,3511.5983,N,12147.9617,W,1,12,0.5,9.8,M,-32.6,M,,*58
$PYRTM,2024,125.502765667674,16.612413077813
$GPGGA,120358.00,3511.5979,N,12147.9610,W,1,12,0.5,9.8,M,-32.6,M,,*55
$PYRTM,2024,125.502781536100,16.612428946238
$GPGGA,120359.00,3511.5974,N,12147.9603,W,1,12,0.5,9.6,M,-32.6,M,,*55
$PYRTM,2024,125.502793110359,16.612440520498
$GPGGA,120400.00,3511.5970,N,12147.9595,W,1,12,0.5,9.6,M,-32.6,M,,*56
$PYRTM,2024,125.502804570000,16.612451980139
$GPGGA,120401.00,3511.5970,N,12147.9588,W,1,12,0.5,9.8,M,-32.6,M,,*55
$PYRTM,2024,125.502816154676,16.612463564815
$GPGGA,120402.00,3511.5968,N,12147.9583,W,1,12,0.5,9.8,M,-32.6,M,,*54
$PYRTM,2024,125.502823545093,16.612470955231
$GPGGA,120403.00,3511.5965,N,12147.9578,W,1,12,0.5,9.7,M,-32.6,M,,*53
$PYRTM,2024,125.502839302847,16.612486712986
$GPGGA,120404.00,3511.5961,N,12147.9572,W,1,12,0.5,9.2,M,-32.6,M,,*5F
$PYRTM,2024,125.502850865810,16.612498275949
$GPGGA,120405.00,3511.5956,N,12147.9564,W,1,12,0.5,8.9,M,-32.6,M,,*57
$PYRTM,2024,125.502862452025,16.612509862164
$GPGGA,120406.00,3511.5954,N,12147.9556,W,1,12,0.5,9.5,M,-32.6,M,,*5A
$PYRTM,2024,125.502874129815,16.612521539965
$GPGGA,120407.00,3511.5952,N,12147.9548,W,1,12,0.5,10.4,M,-32.6,M,,*6B
$PYRTM,2024,125.502881409213,16.612528819352
$GPGGA,120408.00,3511.5947,N,12147.9543,W,1,12,0.5,11.1,M,-32.6,M,,*6F
$PYRTM,2024,125.502897279884,16.612544690023
$GPGGA,120409.00,3511.5942,N,12147.9537,W,1,12,0.5,11.0,M,-32.6,M,,*69
$PYRTM,2024,125.502908852731,16.612556262870
$GPGGA,120410.00,3511.5937,N,12147.9528,W,1,12,0.5,10.4,M,-32.6,M,,*68
$PYRTM,2024,125.502920310324,16.612567720463
$GPGGA,120411.00,3511.5934,N,12147.9519,W,1,12,0.5,9.7,M,-32.6,M,,*53
$PYRTM,2024,125.502931883993,16.612579294132
$GPGGA,120412.00,3511.5931,N,12147.9511,W,1,12,0.5,9.1,M,-32.6,M,,*5B
$PYRTM,2024,125.502943454271,16.612590864410
$GPGGA,120413.00,3511.5929,N,12147.9505,W,1,12,0.5,9.1,M,-32.6,M,,*56
$PYRTM,2024,125.502955044595,16.612602454734
$GPGGA,120414.00,3511.5927,N,12147.9500,W,1,12,0.5,9.4,M,-32.6,M,,*5F
$PYRTM,2024,125.502962435891,16.612609846030
$GPGGA,120415.00,3511.5924,N,12147.9492,W,1,12,0.5,9.5,M,-32.6,M,,*56
$PYRTM,2024,125.502981075000,16.612628485139
$GPGGA,120416.00,3511.5919,N,12147.9484,W,1,12,0.5,9.7,M,-32.6,M,,*5E
$PYRTM,2024,125.502989756088,16.612637166227
$GPGGA,120417.00,3511.5914,N,12147.9478,W,1,12,0.5,9.8,M,-32.6,M,,*5E
$PYRTM,2024,125.503001445764,16.612648855903
$GPGGA,120418.00,3511.5910,N,12147.9474,W,1,12,0.5,10.0,M,-32.6,M,,*69
$PYRTM,2024,125.503012903565,16.612660313704
$GPGGA,120419.00,3511.5907,N,12147.9467,W,1,12,0.5,9.9,M,-32.6,M,,*5D
$PYRTM,2024,125.503024490058,16.612671900197
$GPGGA,120420.00,3511.5905,N,12147.9458,W,1,12,0.5,9.6,M,-32.6,M,,*56
$PYRTM,2024,125.503036052315,16.612683462454
$GPGGA,120421.00,3511.5903,N,12147.9450,W,1,12,0.5,9.2,M,-32.6,M,,*5D
$PYRTM,2024,125.503047649838,16.612695059977
$GPGGA,120422.00,3511.5899,N,12147.9446,W,1,12,0.5,9.1,M,-32.6,M,,*58
$PYRTM,2024,125.503055031319,16.612702441458
$GPGGA,120423.00,3511.5894,N,12147.9442,W,1,12,0.5,9.0,M,-32.6,M,,*51
$PYRTM,2024,125.503066711863,16.612714122014
$GPGGA,120424.00,3511.5890,N,12147.9436,W,1,12,0.5,9.2,M,-32.6,M,,*53
$PYRTM,2024,125.503085243600,16.612732653738
$GPGGA,120425.00,3511.5888,N,12147.9428,W,1,12,0.5,9.7,M,-32.6,M,,*51
$PYRTM,2024,125.503094038634,16.612741448773
$GPGGA,120426.00,3511.5885,N,12147.9420,W,1,12,0.5,10.3,M,-32.6,M,,*6B
$PYRTM,2024,125.503105613831,16.612753023970
$GPGGA,120427.00,3511.5880,N,12147.9414,W,1,12,0.5,10.8,M,-32.6,M,,*63
$PYRTM,2024,125.503117187789,16.612764597928
$GPGGA,120428.00,3511.5874,N,12147.9409,W,1,12,0.5,10.8,M,-32.6,M,,*6B
$PYRTM,2024,125.503128762326,16.612776172465
$GPGGA,120429.00,3511.5870,N,12147.9403,W,1,12,0.5,10.1,M,-32.6,M,,*6D
$PYRTM,2024,125.503140219306,16.612787629444
$GPGGA,120430.00,3511.5867,N,12147.9395,W,1,12,0.5,9.6,M,-32.6,M,,*54
$PYRTM,2024,125.503151794074,16.612799204213
$GPGGA,120431.00,3511.5865,N,12147.9386,W,1,12,0.5,9.4,M,-32.6,M,,*57
$PYRTM,2024,125.503163378831,16.612810788981
$GPGGA,120432.00,3511.5863,N,12147.9377,W,1,12,0.5,9.3,M,-32.6,M,,*5B
$PYRTM,2024,125.503174940961,16.612822351100
$GPGGA,120433.00,3511.5858,N,12147.9371,W,1,12,0.5,9.4,M,-32.6,M,,*53
$PYRTM,2024,125.503186523611,16.612833933750
$GPGGA,120434.00,3511.5852,N,12147.9366,W,1,12,0.5,9.7,M,-32.6,M,,*5B
$PYRTM,2024,125.503193922812,16.612841332951
$GPGGA,120435.00,3511.5848,N,12147.9360,W,1,12,0.5,9.8,M,-32.6,M,,*58
$PYRTM,2024,125.503209794664,16.612857204803
$GPGGA,120436.00,3511.5846,N,12147.9351,W,1,12,0.5,10.1,M,-32.6,M,,*66
$PYRTM,2024,125.503221354479,16.612868764618
$GPGGA,120437.00,3511.5845,N,12147.9342,W,1,12,0.5,10.0,M,-32.6,M,,*67
$PYRTM,2024,125.503232820475,16.612880230613
$GPGGA,120438.00,3511.5842,N,12147.9335,W,1,12,0.5,9.7,M,-32.6,M,,*50
$PYRTM,2024,125.503244386076,16.612891796215
$GPGGA,120439.00,3511.5837,N,12147.9330,W,1,12,0.5,9.4,M,-32.6,M,,*55
$PYRTM,2024,125.503251783808,16.612899193958
$GPGGA,120440.00,3511.5832,N,12147.9326,W,1,12,0.5,9.3,M,-32.6,M,,*5E
$PYRTM,2024,125.503267530197,16.612914940336
$GPGGA,120441.00,3511.5828,N,12147.9321,W,1,12,0.5,9.4,M,-32.6,M,,*54
$PYRTM,2024,125.503279121470,16.612926531609
$GPGGA,120442.00,3511.5826,N,12147.9314,W,1,12,0.5,9.7,M,-32.6,M,,*5C
$PYRTM,2024,125.503290800116,16.612938210255
$GPGGA,120443.00,3511.5824,N,12147.9306,W,1,12,0.5,10.0,M,-32.6,M,,*63
$PYRTM,2024,125.503302375336,16.612949785475
$GPGGA,120444.00,3511.5820,N,12147.9299,W,1,12,0.5,10.3,M,-32.6,M,,*64
$PYRTM,2024,125.503309665289,16.612957075428
$GPGGA,120445.00,3511.5815,N,12147.9293,W,1,12,0.5,10.4,M,-32.6,M,,*6E
$PYRTM,2024,125.503325522326,16.612972932465
$GPGGA,120446.00,3511.5810,N,12147.9287,W,1,12,0.5,10.2,M,-32.6,M,,*6B
$PYRTM,2024,125.503332812674,16.612980222812
$GPGGA,120447.00,3511.5806,N,12147.9280,W,1,12,0.5,9.9,M,-32.6,M,,*59
$PYRTM,2024,125.503348554942,16.612995965081
$GPGGA,120448.00,3511.5802,N,12147.9271,W,1,12,0.5,9.8,M,-32.6,M,,*5D
$PYRTM,2024,125.503360129803,16.613007539942
$GPGGA,120449.00,3511.5799,N,12147.9265,W,1,12,0.5,9.8,M,-32.6,M,,*54
$PYRTM,2024,125.503367524988,16.613014935127
$GPGGA,120450.00,3511.5796,N,12147.9259,W,1,12,0.5,9.8,M,-32.6,M,,*5C
$PYRTM,2024,125.503383276667,16.613030686806
$GPGGA,120451.00,3511.5792,N,12147.9253,W,1,12,0.5,9.9,M,-32.6,M,,*52
$PYRTM,2024,125.503394859294,16.613042269433
$GPGGA,120452.00,3511.5788,N,12147.9246,W,1,12,0.5,9.8,M,-32.6,M,,*5F
$PYRTM,2024,125.503406425984,16.613053836123
$GPGGA,120453.00,3511.5784,N,12147.9240,W,1,12,0.5,9.9,M,-32.6,M,,*55
$PYRTM,2024,125.503418026597,16.613065436736
$GPGGA,120454.00,3511.5781,N,12147.9233,W,1,12,0.5,9.9,M,-32.6,M,,*53
$PYRTM,2024,125.503425405544,16.613072815683
$GPGGA,120455.00,3511.5780,N,12147.9225,W,1,12,0.5,10.0,M,-32.6,M,,*65
$PYRTM,2024,125.503444044271,16.613091454410
$GPGGA,120456.00,3511.5777,N,12147.9218,W,1,12,0.5,9.9,M,-32.6,M,,*51
$PYRTM,2024,125.503452722095,16.613100132234
$GPGGA,120457.00,3511.5773,N,12147.9211,W,1,12,0.5,9.9,M,-32.6,M,,*5D
$PYRTM,2024,125.503464296806,16.613111706944
$GPGGA,120458.00,3511.5769,N,12147.9205,W,1,12,0.5,9.7,M,-32.6,M,,*52
$PYRTM,2024,125.503475865984,16.613123276123
$GPGGA,120459.00,3511.5765,N,12147.9198,W,1,12,0.5,9.5,M,-32.6,M,,*5A
$PYRTM,2024,125.503483265984,16.613130676123
$GPGGA,120500.00,3511.5763,N,12147.9190,W,1,12,0.5,9.4,M,-32.6,M,,*58
$PYRTM,2024,125.503499018391,16.613146428530
$GPGGA,120501.00,3511.5762,N,12147.9182,W,1,12,0.5,9.5,M,-32.6,M,,*5A
$PYRTM,2024,125.503510605289,16.613158015428
$GPGGA,120502.00,3511.5759,N,12147.9177,W,1,12,0.5,9.3,M,-32.6,M,,*5D
$PYRTM,2024,125.503522166898,16.613169577037
$GPGGA,120503.00,3511.5752,N,12147.9173,W,1,12,0.5,9.0,M,-32.6,M,,*50
$PYRTM,2024,125.503533752998,16.613181163137
$GPGGA,120504.00,3511.5745,N,12147.9168,W,1,12,0.5,8.6,M,-32.6,M,,*5C
$PYRTM,2024,125.503545316319,16.613192726458
$GPGGA,120505.00,3511.5743,N,12147.9158,W,1,12,0.5,9.3,M,-32.6,M,,*5C
$PYRTM,2024,125.503556914595,16.613204324734
$GPGGA,120506.00,3511.5744,N,12147.9147,W,1,12,0.5,9.9,M,-32.6,M,,*5C
$PYRTM,2024,125.503568580139,16.613215990278
$GPGGA,120507.00,3511.5741,N,12147.9139,W,1,12,0.5,10.4,M,-32.6,M,,*64
$PYRTM,2024,125.503580168183,16.613227578322
$GPGGA,120508.00,3511.5734,N,12147.9135,W,1,12,0.5,10.1,M,-32.6,M,,*60
$PYRTM,2024,125.503591611979,16.613239022130
$GPGGA,120509.00,3511.5727,N,12147.9132,W,1,12,0.5,9.8,M,-32.6,M,,*55
$PYRTM,2024,125.503603196852,16.613250606991
$GPGGA,120510.00,3511.5723,N,12147.9125,W,1,12,0.5,9.2,M,-32.6,M,,*55
$PYRTM,2024,125.503614759699,16.613262169838
$GPGGA,120511.00,3511.5724,N,12147.9114,W,1,12,0.5,8.5,M,-32.6,M,,*57
$PYRTM,2024,125.503626333704,16.613273743843
$GPGGA,120512.00,3511.5724,N,12147.9104,W,1,12,0.5,8.2,M,-32.6,M,,*52
$PYRTM,2024,125.503637908403,16.613285318542
$GPGGA,120513.00,3511.5720,N,12147.9099,W,1,12,0.5,8.7,M,-32.6,M,,*57
$PYRTM,2024,125.503649493796,16.613296903935
$GPGGA,120514.00,3511.5712,N,12147.9098,W,1,12,0.5,9.8,M,-32.6,M,,*5E
$PYRTM,2024,125.503661172500,16.613308582639
$GPGGA,120515.00,3511.5705,N,12147.9094,W,1,12,0.5,10.2,M,-32.6,M,,*67
$PYRTM,2024,125.503672742998,16.613320153137
$GPGGA,120516.00,3511.5703,N,12147.9084,W,1,12,0.5,10.3,M,-32.6,M,,*62
$PYRTM,2024,125.503680032014,16.613327442153
$GPGGA,120517.00,3511.5704,N,12147.9072,W,1,12,0.5,10.3,M,-32.6,M,,*6D
$PYRTM,2024,125.503695894884,16.613343305035
$GPGGA,120518.00,3511.5704,N,12147.9063,W,1,12,0.5,10.4,M,-32.6,M,,*65
$PYRTM,2024,125.503703181736,16.613350591875
$GPGGA,120519.00,3511.5697,N,12147.9060,W,1,12,0.5,10.4,M,-32.6,M,,*6C
$PYRTM,2024,125.503718937917,16.613366348056
$GPGGA,120520.00,3511.5689,N,12147.9059,W,1,12,0.5,9.8,M,-32.6,M,,*57
$PYRTM,2024,125.503730501227,16.613377911366
$GPGGA,120521.00,3511.5684,N,12147.9053,W,1,12,0.5,9.0,M,-32.6,M,,*59
$PYRTM,2024,125.503737895914,16.613385306053
$GPGGA,120522.00,3511.5685,N,12147.9040,W,1,12,0.5,9.0,M,-32.6,M,,*59
$PYRTM,2024,125.503753649479,16.613401059618
$GPGGA,120523.00,3511.5686,N,12147.9027,W,1,12,0.5,9.7,M,-32.6,M,,*5D
$PYRTM,2024,125.503765340324,16.613412750463
$GPGGA,120524.00,3511.5682,N,12147.9020,W,1,12,0.5,10.4,M,-32.6,M,,*62
$PYRTM,2024,125.503772631273,16.613420041424
$GPGGA,120525.00,3511.5674,N,12147.9018,W,1,12,0.5,10.7,M,-32.6,M,,*62
$PYRTM,2024,125.503784425023,16.613431835174
$GPGGA,120526.00,3511.5665,N,12147.9015,W,1,12,0.5,10.5,M,-32.6,M,,*6E
$PYRTM,2024,125.503802839618,16.613450249757
$GPGGA,120527.00,3511.5661,N,12147.9008,W,1,12,0.5,9.8,M,-32.6,M,,*52
$PYRTM,2024,125.503811519988,16.613458930127
$GPGGA,120528.00,3511.5660,N,12147.8998,W,1,12,0.5,9.0,M,-32.6,M,,*55
$PYRTM,2024,125.503823094132,16.613470504271
$GPGGA,120529.00,3511.5660,N,12147.8988,W,1,12,0.5,8.4,M,-32.6,M,,*50
$PYRTM,2024,125.503834669074,16.613482079213
$GPGGA,120530.00,3511.5657,N,12147.8982,W,1,12,0.5,8.4,M,-32.6,M,,*56
$PYRTM,2024,125.503846243160,16.613493653310
$GPGGA,120531.00,3511.5650,N,12147.8979,W,1,12,0.5,9.0,M,-32.6,M,,*51
$PYRTM,2024,125.503853638333,16.613501048472
$GPGGA,120532.00,3511.5645,N,12147.8974,W,1,12,0.5,9.7,M,-32.6,M,,*5C
$PYRTM,2024,125.503869501516,16.613516911655
$GPGGA,120533.00,3511.5642,N,12147.8966,W,1,12,0.5,10.2,M,-32.6,M,,*64
$PYRTM,2024,125.503881084491,16.613528494630
$GPGGA,120534.00,3511.5641,N,12147.8957,W,1,12,0.5,10.2,M,-32.6,M,,*62
$PYRTM,2024,125.503888366296,16.613535776435
$GPGGA,120535.00,3511.5638,N,12147.8951,W,1,12,0.5,9.7,M,-32.6,M,,*56
$PYRTM,2024,125.503904136690,16.613551546829
$GPGGA,120536.00,3511.5632,N,12147.8945,W,1,12,0.5,9.0,M,-32.6,M,,*5D
$PYRTM,2024,125.503915689537,16.613563099676
$GPGGA,120537.00,3511.5627,N,12147.8940,W,1,12,0.5,7.9,M,-32.6,M,,*5A
$PYRTM,2024,125.503927269988,16.613574680127
$GPGGA,120538.00,3511.5624,N,12147.8932,W,1,12,0.5,7.8,M,-32.6,M,,*52
$PYRTM,2024,125.503938832002,16.613586242141
$GPGGA,120539.00,3511.5622,N,12147.8923,W,1,12,0.5,8.1,M,-32.6,M,,*53
$PYRTM,2024,125.503950409919,16.613597820058
$GPGGA,120540.00,3511.5618,N,12147.8916,W,1,12,0.5,9.0,M,-32.6,M,,*52
$PYRTM,2024,125.503961983993,16.613609394132
$GPGGA,120541.00,3511.5613,N,12147.8910,W,1,12,0.5,9.9,M,-32.6,M,,*57
$PYRTM,2024,125.503973668981,16.613621079120
$GPGGA,120542.00,3511.5609,N,12147.8906,W,1,12,0.5,10.5,M,-32.6,M,,*6C
$PYRTM,2024,125.503985247801,16.613632657940
$GPGGA,120543.00,3511.5606,N,12147.8899,W,1,12,0.5,10.4,M,-32.6,M,,*64
$PYRTM,2024,125.503996707153,16.613644117292
$GPGGA,120544.00,3511.5604,N,12147.8890,W,1,12,0.5,9.8,M,-32.6,M,,*5C
$PYRTM,2024,125.504008280764,16.613655690903
$GPGGA,120545.00,3511.5600,N,12147.8880,W,1,12,0.5,9.0,M,-32.6,M,,*50
$PYRTM,2024,125.504019865521,16.613667275671
$GPGGA,120546.00,3511.5595,N,12147.8873,W,1,12,0.5,9.0,M,-32.6,M,,*50
$PYRTM,2024,125.504027260856,16.613674670995
$GPGGA,120547.00,3511.5591,N,12147.8869,W,1,12,0.5,9.6,M,-32.6,M,,*58
$PYRTM,2024,125.504043017164,16.613690427303
$GPGGA,120548.00,3511.5588,N,12147.8864,W,1,12,0.5,9.9,M,-32.6,M,,*5D
$PYRTM,2024,125.504054694583,16.613702104722
$GPGGA,120549.00,3511.5587,N,12147.8858,W,1,12,0.5,10.0,M,-32.6,M,,*6D
$PYRTM,2024,125.504061973634,16.613709383773
$GPGGA,120550.00,3511.5584,N,12147.8849,W,1,12,0.5,9.8,M,-32.6,M,,*56
$PYRTM,2024,125.504073662998,16.613721073137
$GPGGA,120551.00,3511.5579,N,12147.8841,W,1,12,0.5,9.2,M,-32.6,M,,*57
$PYRTM,2024,125.504089300116,16.613736710255
$GPGGA,120552.00,3511.5575,N,12147.8834,W,1,12,0.5,9.1,M,-32.6,M,,*59
$PYRTM,2024,125.504100875660,16.613748285799
$GPGGA,120553.00,3511.5573,N,12147.8827,W,1,12,0.5,9.3,M,-32.6,M,,*5E
$PYRTM,2024,125.504112447396,16.613759857535
$GPGGA,120554.00,3511.5571,N,12147.8821,W,1,12,0.5,9.4,M,-32.6,M,,*5A
$PYRTM,2024,125.504119855671,16.613767265810
$GPGGA,120555.00,3511.5567,N,12147.8814,W,1,12,0.5,9.7,M,-32.6,M,,*59
$PYRTM,2024,125.504135606991,16.613783017130
$GPGGA,120556.00,3511.5563,N,12147.8807,W,1,12,0.5,9.9,M,-32.6,M,,*52
$PYRTM,2024,125.504142989514,16.613790399653
$GPGGA,120557.00,3511.5560,N,12147.8798,W,1,12,0.5,9.8,M,-32.6,M,,*58
$PYRTM,2024,125.504161638160,16.613809048299
$GPGGA,120558.00,3511.5557,N,12147.8790,W,1,12,0.5,9.7,M,-32.6,M,,*54
$PYRTM,2024,125.504170433611,16.613817843750
$GPGGA,120559.00,3511.5554,N,12147.8783,W,1,12,0.5,9.5,M,-32.6,M,,*56
$PYRTM,2024,125.504182008472,16.613829418611
$GPGGA,120600.00,3511.5550,N,12147.8777,W,1,12,0.5,9.3,M,-32.6,M,,*50
$PYRTM,2024,125.504193586875,16.613840997014
$GPGGA,120601.00,3511.5545,N,12147.8772,W,1,12,0.5,9.2,M,-32.6,M,,*51
$PYRTM,2024,125.504205159062,16.613852569201
$GPGGA,120602.00,3511.5541,N,12147.8766,W,1,12,0.5,9.1,M,-32.6,M,,*50
$PYRTM,2024,125.504216731134,16.613864141273
$GPGGA,120603.00,3511.5540,N,12147.8758,W,1,12,0.5,9.1,M,-32.6,M,,*5D
$PYRTM,2024,125.504228308924,16.613875719062
$GPGGA,120604.00,3511.5539,N,12147.8750,W,1,12,0.5,9.3,M,-32.6,M,,*5E
$PYRTM,2024,125.504239879792,16.613887289931
$GPGGA,120605.00,3511.5536,N,12147.8743,W,1,12,0.5,9.5,M,-32.6,M,,*54
$PYRTM,2024,125.504251357627,16.613898767766
$GPGGA,120606.00,3511.5529,N,12147.8739,W,1,12,0.5,9.3,M,-32.6,M,,*52
$PYRTM,2024,125.504262915417,16.613910325556
$GPGGA,120607.00,3511.5522,N,12147.8734,W,1,12,0.5,9.1,M,-32.6,M,,*57
$PYRTM,2024,125.504274489074,16.613921899213
$GPGGA,120608.00,3511.5519,N,12147.8727,W,1,12,0.5,9.0,M,-32.6,M,,*53
$PYRTM,2024,125.504286064456,16.613933474606
$GPGGA,120609.00,3511.5520,N,12147.8717,W,1,12,0.5,9.1,M,-32.6,M,,*5A
$PYRTM,2024,125.504297648947,16.613945059086
$GPGGA,120610.00,3511.5520,N,12147.8709,W,1,12,0.5,9.1,M,-32.6,M,,*5D
$PYRTM,2024,125.504309211343,16.613956621481
$GPGGA,120611.00,3511.5515,N,12147.8704,W,1,12,0.5,8.9,M,-32.6,M,,*5E
$PYRTM,2024,125.504320797014,16.613968207153
$GPGGA,120612.00,3511.5509,N,12147.8700,W,1,12,0.5,8.6,M,-32.6,M,,*5B
$PYRTM,2024,125.504332362326,16.613979772465
$GPGGA,120613.00,3511.5503,N,12147.8696,W,1,12,0.5,8.6,M,-32.6,M,,*5E
$PYRTM,2024,125.504343945208,16.613991355347
$GPGGA,120614.00,3511.5501,N,12147.8688,W,1,12,0.5,9.0,M,-32.6,M,,*53
$PYRTM,2024,125.504355510116,16.614002920255
$GPGGA,120615.00,3511.5501,N,12147.8678,W,1,12,0.5,9.3,M,-32.6,M,,*5E
$PYRTM,2024,125.504367106528,16.614014516667
$GPGGA,120616.00,3511.5498,N,12147.8671,W,1,12,0.5,9.5,M,-32.6,M,,*53
$PYRTM,2024,125.504378654062,16.614026064201
$GPGGA,120617.00,3511.5492,N,12147.8666,W,1,12,0.5,9.5,M,-32.6,M,,*5E
$PYRTM,2024,125.504390235301,16.614037645440
$GPGGA,120618.00,3511.5486,N,12147.8660,W,1,12,0.5,9.2,M,-32.6,M,,*55
$PYRTM,2024,125.504401801215,16.614049211354
$GPGGA,120619.00,3511.5484,N,12147.8652,W,1,12,0.5,8.9,M,-32.6,M,,*5D
$PYRTM,2024,125.504413375660,16.614060785799
$GPGGA,120620.00,3511.5483,N,12147.8643,W,1,12,0.5,8.7,M,-32.6,M,,*5E
$PYRTM,2024,125.504424950081,16.614072360231
$GPGGA,120621.00,3511.5479,N,12147.8637,W,1,12,0.5,8.5,M,-32.6,M,,*5B
$PYRTM,2024,125.504436535567,16.614083945706
$GPGGA,120622.00,3511.5473,N,12147.8634,W,1,12,0.5,8.3,M,-32.6,M,,*57
$PYRTM,2024,125.504443931597,16.614091341736
$GPGGA,120623.00,3511.5467,N,12147.8629,W,1,12,0.5,8.3,M,-32.6,M,,*5F
$PYRTM,2024,125.504462565810,16.614109975949
$GPGGA,120624.00,3511.5466,N,12147.8620,W,1,12,0.5,8.6,M,-32.6,M,,*55
$PYRTM,2024,125.504471247396,16.614118657535
$GPGGA,120625.00,3511.5467,N,12147.8610,W,1,12,0.5,9.2,M,-32.6,M,,*53
$PYRTM,2024,125.504482820579,16.614130230718
$GPGGA,120626.00,3511.5464,N,12147.8604,W,1,12,0.5,9.6,M,-32.6,M,,*52
$PYRTM,2024,125.504494396007,16.614141806146
$GPGGA,120627.00,3511.5457,N,12147.8602,W,1,12,0.5,9.5,M,-32.6,M,,*56
$PYRTM,2024,125.504501789375,16.614149199514
$GPGGA,120628.00,3511.5450,N,12147.8599,W,1,12,0.5,9.0,M,-32.6,M,,*5A
$PYRTM,2024,125.504520436725,16.614167846863
$GPGGA,120629.00,3511.5447,N,12147.8591,W,1,12,0.5,8.5,M,-32.6,M,,*51
$PYRTM,2024,125.504529116678,16.614176526817
$GPGGA,120630.00,3511.5447,N,12147.8579,W,1,12,0.5,8.4,M,-32.6,M,,*5E
$PYRTM,2024,125.504540692731,16.614188102870
$GPGGA,120631.00,3511.5445,N,12147.8571,W,1,12,0.5,8.7,M,-32.6,M,,*56
$PYRTM,2024,125.504552285729,16.614199695868
$GPGGA,120632.00,3511.5440,N,12147.8568,W,1,12,0.5,9.3,M,-32.6,M,,*5D
$PYRTM,2024,125.504563839572,16.614211249711
$GPGGA,120633.00,3511.5434,N,12147.8566,W,1,12,0.5,9.7,M,-32.6,M,,*55
$PYRTM,2024,125.504571233970,16.614218644120
$GPGGA,120634.00,3511.5431,N,12147.8559,W,1,12,0.5,9.5,M,-32.6,M,,*59
$PYRTM,2024,125.504586987859,16.614234398009
$GPGGA,120635.00,3511.5428,N,12147.8549,W,1,12,0.5,9.1,M,-32.6,M,,*55
$PYRTM,2024,125.504598562072,16.614245972211
$GPGGA,120636.00,3511.5424,N,12147.8540,W,1,12,0.5,8.9,M,-32.6,M,,*5A
$PYRTM,2024,125.504610136227,16.614257546366
$GPGGA,120637.00,3511.5419,N,12147.8535,W,1,12,0.5,9.2,M,-32.6,M,,*5D
$PYRTM,2024,125.504621723009,16.614269133148
$GPGGA,120638.00,3511.5415,N,12147.8531,W,1,12,0.5,9.6,M,-32.6,M,,*5E
$PYRTM,2024,125.504629117801,16.614276527940
$GPGGA,120639.00,3511.5412,N,12147.8525,W,1,12,0.5,9.7,M,-32.6,M,,*5C
$PYRTM,2024,125.504644859051,16.614292269201
$GPGGA,120640.00,3511.5410,N,12147.8519,W,1,12,0.5,9.8,M,-32.6,M,,*50
$PYRTM,2024,125.504656432488,16.614303842639
$GPGGA,120641.00,3511.5406,N,12147.8512,W,1,12,0.5,9.5,M,-32.6,M,,*50
$PYRTM,2024,125.504668006458,16.614315416597
$GPGGA,120642.00,3511.5402,N,12147.8504,W,1,12,0.5,9.2,M,-32.6,M,,*57
$PYRTM,2024,125.504679581875,16.614326992014
$GPGGA,120643.00,3511.5399,N,12147.8497,W,1,12,0.5,9.4,M,-32.6,M,,*5E
$PYRTM,2024,125.504686977037,16.614334387176
$GPGGA,120644.00,3511.5397,N,12147.8491,W,1,12,0.5,9.8,M,-32.6,M,,*5D
$PYRTM,2024,125.504702844653,16.614350254792
$GPGGA,120645.00,3511.5393,N,12147.8487,W,1,12,0.5,10.0,M,-32.6,M,,*6F
$PYRTM,2024,125.504714423380,16.614361833519
$GPGGA,120646.00,3511.5387,N,12147.8482,W,1,12,0.5,10.0,M,-32.6,M,,*6C
$PYRTM,2024,125.504725878241,16.614373288380
$GPGGA,120647.00,3511.5383,N,12147.8475,W,1,12,0.5,9.9,M,-32.6,M,,*50
$PYRTM,2024,125.504737459630,16.614384869769
$GPGGA,120648.00,3511.5381,N,12147.8468,W,1,12,0.5,9.7,M,-32.6,M,,*5F
$PYRTM,2024,125.504744857199,16.614392267338
$GPGGA,120649.00,3511.5379,N,12147.8461,W,1,12,0.5,9.7,M,-32.6,M,,*50
$PYRTM,2024,125.504760599086,16.614408009225
$GPGGA,120650.00,3511.5376,N,12147.8454,W,1,12,0.5,9.6,M,-32.6,M,,*50
$PYRTM,2024,125.504772173738,16.614419583877
$GPGGA,120651.00,3511.5371,N,12147.8447,W,1,12,0.5,9.8,M,-32.6,M,,*5A
$PYRTM,2024,125.504783866632,16.614431276771
$GPGGA,120652.00,3511.5367,N,12147.8440,W,1,12,0.5,10.1,M,-32.6,M,,*68
$PYRTM,2024,125.504795442176,16.614442852315
$GPGGA,120653.00,3511.5365,N,12147.8434,W,1,12,0.5,10.4,M,-32.6,M,,*6D
$PYRTM,2024,125.504802716655,16.614450126806
$GPGGA,120654.00,3511.5362,N,12147.8426,W,1,12,0.5,10.3,M,-32.6,M,,*69
$PYRTM,2024,125.504814523113,16.614461933252
$GPGGA,120655.00,3511.5358,N,12147.8418,W,1,12,0.5,10.2,M,-32.6,M,,*6D
$PYRTM,2024,125.504830164988,16.614477575127
$GPGGA,120656.00,3511.5354,N,12147.8412,W,1,12,0.5,10.0,M,-32.6,M,,*6A
$PYRTM,2024,125.504841737743,16.614489147882
$GPGGA,120657.00,3511.5350,N,12147.8408,W,1,12,0.5,10.0,M,-32.6,M,,*64
$PYRTM,2024,125.504853202674,16.614500612812
$GPGGA,120658.00,3511.5346,N,12147.8403,W,1,12,0.5,9.9,M,-32.6,M,,*56
$PYRTM,2024,125.504860594780,16.614508004919
$GPGGA,120659.00,3511.5343,N,12147.8396,W,1,12,0.5,9.9,M,-32.6,M,,*59
$PYRTM,2024,125.504879234757,16.614526644896
$GPGGA,120700.00,3511.5340,N,12147.8387,W,1,12,0.5,10.0,M,-32.6,M,,*66
$PYRTM,2024,125.504888031620,16.614535441759
$GPGGA,120701.00,3511.5338,N,12147.8379,W,1,12,0.5,10.2,M,-32.6,M,,*6B
$PYRTM,2024,125.504899608900,16.614547019039
$GPGGA,120702.00,3511.5336,N,12147.8373,W,1,12,0.5,10.4,M,-32.6,M,,*6A
$PYRTM,2024,125.504911181806,16.614558591944
$GPGGA,120703.00,3511.5333,N,12147.8367,W,1,12,0.5,10.5,M,-32.6,M,,*6A
$PYRTM,2024,125.504922757593,16.614570167731
$GPGGA,120704.00,3511.5328,N,12147.8359,W,1,12,0.5,10.3,M,-32.6,M,,*6C
$PYRTM,2024,125.504934328704,16.614581738843
$GPGGA,120705.00,3511.5322,N,12147.8353,W,1,12,0.5,10.0,M,-32.6,M,,*6E
$PYRTM,2024,125.504945786678,16.614593196817
$GPGGA,120706.00,3511.5317,N,12147.8347,W,1,12,0.5,9.9,M,-32.6,M,,*5F
$PYRTM,2024,125.504957478090,16.614604888229
$GPGGA,120707.00,3511.5315,N,12147.8341,W,1,12,0.5,10.0,M,-32.6,M,,*6B
$PYRTM,2024,125.504969051181,16.614616461319
$GPGGA,120708.00,3511.5314,N,12147.8332,W,1,12,0.5,10.3,M,-32.6,M,,*62
$PYRTM,2024,125.504976337106,16.614623747245
$GPGGA,120709.00,3511.5312,N,12147.8324,W,1,12,0.5,10.3,M,-32.6,M,,*62
$PYRTM,2024,125.504992200243,16.614639610382
$GPGGA,120710.00,3511.5307,N,12147.8317,W,1,12,0.5,10.1,M,-32.6,M,,*6C
$PYRTM,2024,125.505003773704,16.614651183843
$GPGGA,120711.00,3511.5301,N,12147.8311,W,1,12,0.5,10.0,M,-32.6,M,,*6C
$PYRTM,2024,125.505015342755,16.614662752905
$GPGGA,120712.00,3511.5296,N,12147.8306,W,1,12,0.5,10.0,M,-32.6,M,,*66
$PYRTM,2024,125.505026921620,16.614674331771
$GPGGA,120713.00,3511.5293,N,12147.8301,W,1,12,0.5,10.1,M,-32.6,M,,*64
$PYRTM,2024,125.505034200185,16.614681610324
$GPGGA,120714.00,3511.5292,N,12147.8295,W,1,12,0.5,10.1,M,-32.6,M,,*6E
$PYRTM,2024,125.505049953808,16.614697363947
$GPGGA,120715.00,3511.5289,N,12147.8287,W,1,12,0.5,9.8,M,-32.6,M,,*57
$PYRTM,2024,125.505061536690,16.614708946829
$GPGGA,120716.00,3511.5285,N,12147.8278,W,1,12,0.5,9.5,M,-32.6,M,,*55
$PYRTM,2024,125.505073102928,16.614720513067
$GPGGA,120717.00,3511.5282,N,12147.8269,W,1,12,0.5,9.7,M,-32.6,M,,*51
$PYRTM,2024,125.505084791123,16.614732201262
$GPGGA,120718.00,3511.5279,N,12147.8262,W,1,12,0.5,10.3,M,-32.6,M,,*6D
$PYRTM,2024,125.505096366539,16.614743776678
$GPGGA,120719.00,3511.5275,N,12147.8257,W,1,12,0.5,10.7,M,-32.6,M,,*62
$PYRTM,2024,125.505107940579,16.614755350718
$GPGGA,120720.00,3511.5270,N,12147.8252,W,1,12,0.5,10.7,M,-32.6,M,,*68
$PYRTM,2024,125.505119509410,16.614766919549
$GPGGA,120721.00,3511.5267,N,12147.8244,W,1,12,0.5,10.2,M,-32.6,M,,*6D
$PYRTM,2024,125.505126792697,16.614774202836
$GPGGA,120722.00,3511.5265,N,12147.8234,W,1,12,0.5,9.6,M,-32.6,M,,*57
$PYRTM,2024,125.505142546933,16.614789957083
$GPGGA,120723.00,3511.5263,N,12147.8225,W,1,12,0.5,9.1,M,-32.6,M,,*57
$PYRTM,2024,125.505149941991,16.614797352130
$GPGGA,120724.00,3511.5259,N,12147.8219,W,1,12,0.5,9.0,M,-32.6,M,,*57
$PYRTM,2024,125.505165694954,16.614813105093
$GPGGA,120725.00,3511.5254,N,12147.8215,W,1,12,0.5,9.4,M,-32.6,M,,*53
$PYRTM,2024,125.505177269039,16.614824679178
$GPGGA,120726.00,3511.5250,N,12147.8209,W,1,12,0.5,9.8,M,-32.6,M,,*55
$PYRTM,2024,125.505184676100,16.614832086238
$GPGGA,120727.00,3511.5247,N,12147.8200,W,1,12,0.5,10.0,M,-32.6,M,,*6B
$PYRTM,2024,125.505200533391,16.614847943542
$GPGGA,120728.00,3511.5245,N,12147.8191,W,1,12,0.5,10.1,M,-32.6,M,,*6C
$PYRTM,2024,125.505207824074,16.614855234213
$GPGGA,120729.00,3511.5242,N,12147.8184,W,1,12,0.5,10.1,M,-32.6,M,,*6E
$PYRTM,2024,125.505219617512,16.614867027650
$GPGGA,120730.00,3511.5238,N,12147.8179,W,1,12,0.5,10.0,M,-32.6,M,,*68
$PYRTM,2024,125.505238027905,16.614885438044
$GPGGA,120731.00,3511.5232,N,12147.8175,W,1,12,0.5,9.8,M,-32.6,M,,*5F
$PYRTM,2024,125.505246714120,16.614894124259
$GPGGA,120732.00,3511.5228,N,12147.8168,W,1,12,0.5,9.4,M,-32.6,M,,*57
$PYRTM,2024,125.505258289005,16.614905699144
$GPGGA,120733.00,3511.5227,N,12147.8158,W,1,12,0.5,9.5,M,-32.6,M,,*5B
$PYRTM,2024,125.505265683368,16.614913093507
$GPGGA,120734.00,3511.5227,N,12147.8148,W,1,12,0.5,9.9,M,-32.6,M,,*51
$PYRTM,2024,125.505281554919,16.614928965058
$GPGGA,120735.00,3511.5225,N,12147.8139,W,1,12,0.5,10.3,M,-32.6,M,,*66
$PYRTM,2024,125.505293126794,16.614940536933
$GPGGA,120736.00,3511.5219,N,12147.8134,W,1,12,0.5,10.6,M,-32.6,M,,*62
$PYRTM,2024,125.505304585093,16.614951995231
$GPGGA,120737.00,3511.5213,N,12147.8130,W,1,12,0.5,10.5,M,-32.6,M,,*6E
$PYRTM,2024,125.505316170764,16.614963580903
$GPGGA,120738.00,3511.5208,N,12147.8124,W,1,12,0.5,9.8,M,-32.6,M,,*5B
$PYRTM,2024,125.505327733472,16.614975143611
$GPGGA,120739.00,3511.5207,N,12147.8114,W,1,12,0.5,9.2,M,-32.6,M,,*5C
$PYRTM,2024,125.505339306887,16.614986717025
$GPGGA,120740.00,3511.5207,N,12147.8103,W,1,12,0.5,8.9,M,-32.6,M,,*5E
$PYRTM,2024,125.505350876354,16.614998286493
$GPGGA,120741.00,3511.5203,N,12147.8096,W,1,12,0.5,8.6,M,-32.6,M,,*59
$PYRTM,2024,125.505362462593,16.615009872731
$GPGGA,120742.00,3511.5196,N,12147.8092,W,1,12,0.5,9.3,M,-32.6,M,,*55
$PYRTM,2024,125.505374031875,16.615021442014
$GPGGA,120743.00,3511.5190,N,12147.8089,W,1,12,0.5,9.8,M,-32.6,M,,*53
$PYRTM,2024,125.505385722708,16.615033132859
$GPGGA,120744.00,3511.5189,N,12147.8081,W,1,12,0.5,10.5,M,-32.6,M,,*61
$PYRTM,2024,125.505397293264,16.615044703403
$GPGGA,120745.00,3511.5190,N,12147.8068,W,1,12,0.5,10.1,M,-32.6,M,,*6B
$PYRTM,2024,125.505408764051,16.615056174190
$GPGGA,120746.00,3511.5187,N,12147.8059,W,1,12,0.5,9.5,M,-32.6,M,,*50
$PYRTM,2024,125.505420327905,16.615067738044
$GPGGA,120747.00,3511.5180,N,12147.8054,W,1,12,0.5,9.2,M,-32.6,M,,*5C
$PYRTM,2024,125.505431900150,16.615079310289
$GPGGA,120748.00,3511.5173,N,12147.8051,W,1,12,0.5,9.2,M,-32.6,M,,*5A
$PYRTM,2024,125.505443477604,16.615090887743
$GPGGA,120749.00,3511.5171,N,12147.8043,W,1,12,0.5,9.5,M,-32.6,M,,*5D
$PYRTM,2024,125.505455049005,16.615102459155
$GPGGA,120750.00,3511.5174,N,12147.8032,W,1,12,0.5,9.9,M,-32.6,M,,*5A
$PYRTM,2024,125.505462449699,16.615109859838
$GPGGA,120751.00,3511.5174,N,12147.8022,W,1,12,0.5,10.1,M,-32.6,M,,*6A
$PYRTM,2024,125.505478313032,16.615125723171
$GPGGA,120752.00,3511.5168,N,12147.8018,W,1,12,0.5,10.0,M,-32.6,M,,*6C
$PYRTM,2024,125.505489770428,16.615137180567
$GPGGA,120753.00,3511.5158,N,12147.8015,W,1,12,0.5,9.6,M,-32.6,M,,*5D
$PYRTM,2024,125.505501346076,16.615148756215
$GPGGA,120754.00,3511.5152,N,12147.8008,W,1,12,0.5,9.3,M,-32.6,M,,*59
$PYRTM,2024,125.505512918993,16.615160329132
$GPGGA,120755.00,3511.5152,N,12147.7997,W,1,12,0.5,9.4,M,-32.6,M,,*5F
$PYRTM,2024,125.505527382859,16.615174792998
$GPGGA,120756.00,3511.5154,N,12147.7986,W,1,12,0.5,9.7,M,-32.6,M,,*59
$PYRTM,2024,125.505538963299,16.615186373437
$GPGGA,120757.00,3511.5150,N,12147.7980,W,1,12,0.5,9.8,M,-32.6,M,,*55
$PYRTM,2024,125.505547649410,16.615195059549
$GPGGA,120758.00,3511.5141,N,12147.7977,W,1,12,0.5,9.5,M,-32.6,M,,*5F
$PYRTM,2024,125.505559216319,16.615206626458
$GPGGA,120759.00,3511.5135,N,12147.7972,W,1,12,0.5,9.2,M,-32.6,M,,*5F
$PYRTM,2024,125.505566609664,16.615214019803
$GPGGA,120800.00,3511.5134,N,12147.7964,W,1,12,0.5,9.5,M,-32.6,M,,*5D
$PYRTM,2024,125.505585252627,16.615232662766
$GPGGA,120801.00,3511.5133,N,12147.7955,W,1,12,0.5,9.6,M,-32.6,M,,*5A
$PYRTM,2024,125.505593938461,16.615241348600
$GPGGA,120802.00,3511.5130,N,12147.7948,W,1,12,0.5,9.6,M,-32.6,M,,*56
$PYRTM,2024,125.505605624479,16.615253034618
$GPGGA,120803.00,3511.5123,N,12147.7943,W,1,12,0.5,9.7,M,-32.6,M,,*5F
$PYRTM,2024,125.505617204757,16.615264614896
$GPGGA,120804.00,3511.5116,N,12147.7937,W,1,11,0.8,8.5,M,-32.6,M,,*50
$PYRTM,2024,125.505628777396,16.615276187535
$GPGGA,120805.00,3511.5113,N,12147.7930,W,1,11,0.8,10.0,M,-32.6,M,,*6F
$PYRTM,2024,125.505636170949,16.615283581088
$GPGGA,120806.00,3511.5113,N,12147.7922,W,1,11,0.8,10.3,M,-32.6,M,,*6C
$PYRTM,2024,125.505651919410,16.615299329560
$GPGGA,120807.00,3511.5113,N,12147.7914,W,1,11,0.8,10.0,M,-32.6,M,,*6B
$PYRTM,2024,125.505663494792,16.615310904931
$GPGGA,120808.00,3511.5108,N,12147.7909,W,1,11,0.8,9.6,M,-32.6,M,,*5C
$PYRTM,2024,125.505675074306,16.615322484444
$GPGGA,120809.00,3511.5101,N,12147.7905,W,1,11,0.8,9.3,M,-32.6,M,,*5D
$PYRTM,2024,125.505686662963,16.615334073102
$GPGGA,120810.00,3511.5096,N,12147.7898,W,1,11,0.8,9.0,M,-32.6,M,,*5C
$PYRTM,2024,125.505693938785,16.615341348924
$GPGGA,120811.00,3511.5095,N,12147.7888,W,1,11,0.8,9.4,M,-32.6,M,,*5B
$PYRTM,2024,125.505709689525,16.615357099664
$GPGGA,120812.00,3511.5094,N,12147.7879,W,1,11,0.8,10.1,M,-32.6,M,,*6A
$PYRTM,2024,125.505721256435,16.615368666574
$GPGGA,120813.00,3511.5090,N,12147.7874,W,1,11,0.8,10.6,M,-32.6,M,,*65
$PYRTM,2024,125.505732852813,16.615380262951
$GPGGA,120814.00,3511.5082,N,12147.7869,W,1,11,0.8,10.4,M,-32.6,M,,*6F
$PYRTM,2024,125.505744402199,16.615391812350
$GPGGA,120815.00,3511.5074,N,12147.7862,W,1,11,0.8,9.9,M,-32.6,M,,*59
$PYRTM,2024,125.505755987604,16.615403397743
$GPGGA,120816.00,3511.5071,N,12147.7852,W,1,11,0.8,9.7,M,-32.6,M,,*52
$PYRTM,2024,125.505767550324,16.615414960463
$GPGGA,120817.00,3511.5072,N,12147.7842,W,1,11,0.8,9.8,M,-32.6,M,,*5E
$PYRTM,2024,125.505779124433,16.615426534583
$GPGGA,120818.00,3511.5071,N,12147.7836,W,1,11,0.8,9.9,M,-32.6,M,,*50
$PYRTM,2024,125.505790699317,16.615438109456
$GPGGA,120819.00,3511.5065,N,12147.7833,W,1,11,0.8,9.9,M,-32.6,M,,*51
$PYRTM,2024,125.505802272407,16.615449682546
$GPGGA,120820.00,3511.5058,N,12147.7829,W,1,11,0.8,9.6,M,-32.6,M,,*51
$PYRTM,2024,125.505809674086,16.615457084225
$GPGGA,120821.00,3511.5053,N,12147.7821,W,1,11,0.8,9.2,M,-32.6,M,,*57
$PYRTM,2024,125.505825433148,16.615472843299
$GPGGA,120822.00,3511.5052,N,12147.7811,W,1,11,0.8,9.4,M,-32.6,M,,*50
$PYRTM,2024,125.505836996493,16.615484406632
$GPGGA,120823.00,3511.5051,N,12147.7802,W,1,11,0.8,9.7,M,-32.6,M,,*53
$PYRTM,2024,125.505848577431,16.615495987569
$GPGGA,120824.00,3511.5047,N,12147.7796,W,1,11,0.8,10.4,M,-32.6,M,,*6A
$PYRTM,2024,125.505860138576,16.615507548715
$GPGGA,120825.00,3511.5041,N,12147.7792,W,1,11,0.8,10.5,M,-32.6,M,,*68
$PYRTM,2024,125.505871726238,16.615519136377
$GPGGA,120826.00,3511.5036,N,12147.7784,W,1,11,0.8,10.1,M,-32.6,M,,*68
$PYRTM,2024,125.505883293218,16.615530703356
$GPGGA,120827.00,3511.5033,N,12147.7774,W,1,11,0.8,9.8,M,-32.6,M,,*52
$PYRTM,2024,125.505894865625,16.615542275764
$GPGGA,120828.00,3511.5032,N,12147.7765,W,1,11,0.8,9.5,M,-32.6,M,,*51
$PYRTM,2024,125.505906439491,16.615553849630
$GPGGA,120829.00,3511.5029,N,12147.7759,W,1,11,0.8,9.5,M,-32.6,M,,*55
$PYRTM,2024,125.505918014583,16.615565424722
$GPGGA,120830.00,3511.5023,N,12147.7755,W,1,11,0.8,9.4,M,-32.6,M,,*5A
$PYRTM,2024,125.505925421609,16.615572831759
$GPGGA,120831.00,3511.5019,N,12147.7748,W,1,11,0.8,9.3,M,-32.6,M,,*59
$PYRTM,2024,125.505944057315,16.615591467454
$GPGGA,120832.00,3511.5017,N,12147.7738,W,1,11,0.8,9.4,M,-32.6,M,,*54
$PYRTM,2024,125.505952737813,16.615600148148
$GPGGA,120833.00,3511.5016,N,12147.7729,W,1,11,0.8,9.6,M,-32.6,M,,*56
$PYRTM,2024,125.505960132072,16.615607542222
$GPGGA,120834.00,3511.5013,N,12147.7720,W,1,11,0.8,9.8,M,-32.6,M,,*53
$PYRTM,2024,125.505975885035,16.615623295174
$GPGGA,120835.00,3511.5007,N,12147.7714,W,1,11,0.8,10.0,M,-32.6,M,,*60
$PYRTM,2024,125.505987458796,16.615634868935
$GPGGA,120836.00,3511.5001,N,12147.7708,W,1,11,0.8,10.0,M,-32.6,M,,*68
$PYRTM,2024,125.505999033322,16.615646443461
$GPGGA,120837.00,3511.4998,N,12147.7702,W,1,11,0.8,9.9,M,-32.6,M,,*5A
$PYRTM,2024,125.506010608611,16.615658018750
$GPGGA,120838.00,3511.4996,N,12147.7695,W,1,11,0.8,9.7,M,-32.6,M,,*5A
