$PYRTM,2024,121.666670375775,12.776317785914
$GPGGA,155959.00,3237.2400,N,11717.2619,W,1,10,1.0,8.7,M,-34.6,M,,*57
$PYRTM,2024,121.666677783472,12.776325193611
$GPGGA,160000.00,3237.2402,N,11717.2644,W,1,10,1.0,8.9,M,-34.6,M,,*50
$PYRTM,2024,121.666693523461,12.776340933600
$GPGGA,160001.00,3237.2405,N,11717.2669,W,1,10,1.0,9.1,M,-34.6,M,,*50
$PYRTM,2024,121.666700933183,12.776348343322
$GPGGA,160002.00,3237.2409,N,11717.2694,W,1,10,1.0,9.1,M,-34.6,M,,*5D
$PYRTM,2024,121.666716673160,12.776364083299
$GPGGA,160003.00,3237.2413,N,11717.2722,W,1,10,1.0,8.6,M,-34.6,M,,*5D
$PYRTM,2024,121.666728233646,12.776375643785
$GPGGA,160004.00,3237.2416,N,11717.2749,W,1,10,1.0,8.0,M,-34.6,M,,*54
$PYRTM,2024,121.666739818275,12.776387228414
$GPGGA,160005.00,3237.2421,N,11717.2772,W,1,10,1.0,7.8,M,-34.6,M,,*5E
$PYRTM,2024,121.666747215127,12.776394625266
$GPGGA,160006.00,3237.2425,N,11717.2794,W,1,10,1.0,8.6,M,-34.6,M,,*50
$PYRTM,2024,121.666758904074,12.776406314213
$GPGGA,160007.00,3237.2429,N,11717.2820,W,1,10,1.0,9.4,M,-34.6,M,,*5E
$PYRTM,2024,121.666777425023,12.776424835162
$GPGGA,160008.00,3237.2433,N,11717.2849,W,1,10,1.0,9.2,M,-34.6,M,,*53
$PYRTM,2024,121.666789009792,12.776436419931
$GPGGA,160009.00,3237.2437,N,11717.2877,W,1,10,1.0,9.4,M,-34.6,M,,*5D
$PYRTM,2024,121.666800570926,12.776447981065
$GPGGA,160010.00,3237.2441,N,11717.2902,W,1,10,1.0,9.5,M,-34.6,M,,*56
$PYRTM,2024,121.666809278472,12.776456688600
$GPGGA,160011.00,3237.2446,N,11717.2926,W,1,10,1.0,9.7,M,-34.6,M,,*54
$PYRTM,2024,121.666816659896,12.776464070035
$GPGGA,160012.00,3237.2451,N,11717.2953,W,1,10,1.0,9.7,M,-34.6,M,,*53
$PYRTM,2024,121.666832416169,12.776479826308
$GPGGA,160013.00,3237.2455,N,11717.2981,W,1,10,1.0,9.3,M,-34.6,M,,*5D
$PYRTM,2024,121.666843974734,12.776491384873
$GPGGA,160014.00,3237.2458,N,11717.3008,W,1,10,1.0,9.2,M,-34.6,M,,*5F
$PYRTM,2024,121.666855560255,12.776502970394
$GPGGA,160015.00,3237.2462,N,11717.3034,W,1,10,1.0,9.6,M,-34.6,M,,*5C
$PYRTM,2024,121.666867122870,12.776514533009
$GPGGA,160016.00,3237.2467,N,11717.3058,W,1,10,1.0,10.0,M,-34.6,M,,*6E
$PYRTM,2024,121.666878712882,12.776526123021
$GPGGA,160017.00,3237.2472,N,11717.3084,W,1,10,1.0,10.1,M,-34.6,M,,*6B
$PYRTM,2024,121.666890271019,12.776537681157
$GPGGA,160018.00,3237.2476,N,11717.3112,W,1,10,1.0,9.9,M,-34.6,M,,*5E
$PYRTM,2024,121.666901858183,12.776549268333
$GPGGA,160019.00,3237.2478,N,11717.3139,W,1,10,1.0,9.6,M,-34.6,M,,*57
$PYRTM,2024,121.666913534780,12.776560944919
$GPGGA,160020.00,3237.2481,N,11717.3163,W,1,10,1.0,10.0,M,-34.6,M,,*6A
$PYRTM,2024,121.666925117812,12.776572527951
$GPGGA,160021.00,3237.2487,N,11717.3186,W,1,10,1.0,10.6,M,-34.6,M,,*60
$PYRTM,2024,121.666936683808,12.776584093947
$GPGGA,160022.00,3237.2493,N,11717.3212,W,1,10,1.0,11.0,M,-34.6,M,,*6F
$PYRTM,2024,121.666944090683,12.776591500833
$GPGGA,160023.00,3237.2498,N,11717.3239,W,1,10,1.0,10.2,M,-34.6,M,,*6F
$PYRTM,2024,121.666959717500,12.776607127639
$GPGGA,160024.00,3237.2502,N,11717.3268,W,1,10,1.0,9.6,M,-34.6,M,,*52
$PYRTM,2024,121.666971298218,12.776618708356
$GPGGA,160025.00,3237.2505,N,11717.3295,W,1,10,1.0,9.4,M,-34.6,M,,*54
$PYRTM,2024,121.666978699907,12.776626110046
$GPGGA,160026.00,3237.2509,N,11717.3318,W,1,10,1.0,10.0,M,-34.6,M,,*63
$PYRTM,2024,121.666994454201,12.776641864340
$GPGGA,160027.00,3237.2515,N,11717.3342,W,1,10,1.0,10.9,M,-34.6,M,,*69
$PYRTM,2024,121.667006012963,12.776653423102
$GPGGA,160028.00,3237.2522,N,11717.3369,W,1,10,1.0,10.7,M,-34.6,M,,*65
$PYRTM,2024,121.667013419734,12.776660829873
$GPGGA,160029.00,3237.2527,N,11717.3397,W,1,10,1.0,10.8,M,-34.6,M,,*6F
$PYRTM,2024,121.667029162095,12.776676572234
$GPGGA,160030.00,3237.2528,N,11717.3422,W,1,10,1.0,10.7,M,-34.6,M,,*6E
$PYRTM,2024,121.667040742998,12.776688153137
$GPGGA,160031.00,3237.2531,N,11717.3447,W,1,10,1.0,10.6,M,-34.6,M,,*65
$PYRTM,2024,121.667048159005,12.776695569144
$GPGGA,160032.00,3237.2536,N,11717.3472,W,1,10,1.0,10.7,M,-34.6,M,,*66
$PYRTM,2024,121.667059832650,12.776707242789
$GPGGA,160033.00,3237.2543,N,11717.3496,W,1,10,1.0,10.8,M,-34.6,M,,*60
$PYRTM,2024,121.667075458148,12.776722868287
$GPGGA,160034.00,3237.2549,N,11717.3523,W,1,10,1.0,10.9,M,-34.6,M,,*63
$PYRTM,2024,121.667087041562,12.776734451701
$GPGGA,160035.00,3237.2553,N,11717.3552,W,1,10,1.0,10.7,M,-34.6,M,,*61
$PYRTM,2024,121.667098605752,12.776746015891
$GPGGA,160036.00,3237.2556,N,11717.3580,W,1,10,1.0,10.3,M,-34.6,M,,*6C
$PYRTM,2024,121.667106013333,12.776753423472
$GPGGA,160037.00,3237.2560,N,11717.3604,W,1,10,1.0,10.6,M,-34.6,M,,*62
$PYRTM,2024,121.667117704086,12.776765114225
$GPGGA,160038.00,3237.2568,N,11717.3625,W,1,10,1.0,11.4,M,-34.6,M,,*65
$PYRTM,2024,121.667136235938,12.776783646088
$GPGGA,160039.00,3237.2575,N,11717.3651,W,1,10,1.0,10.9,M,-34.6,M,,*67
$PYRTM,2024,121.667144904271,12.776792314421
$GPGGA,160040.00,3237.2581,N,11717.3677,W,1,10,1.0,11.1,M,-34.6,M,,*6F
$PYRTM,2024,121.667156490833,12.776803900972
$GPGGA,160041.00,3237.2585,N,11717.3701,W,1,10,1.0,10.9,M,-34.6,M,,*63
$PYRTM,2024,121.667163887581,12.776811297720
$GPGGA,160042.00,3237.2589,N,11717.3727,W,1,10,1.0,10.3,M,-34.6,M,,*62
$PYRTM,2024,121.667179640370,12.776827050509
$GPGGA,160043.00,3237.2594,N,11717.3754,W,1,10,1.0,9.5,M,-34.6,M,,*55
$PYRTM,2024,121.667191198565,12.776838608704
$GPGGA,160044.00,3237.2601,N,11717.3777,W,1,10,1.0,9.5,M,-34.6,M,,*5C
$PYRTM,2024,121.667202789618,12.776850199757
$GPGGA,160045.00,3237.2608,N,11717.3800,W,1,10,1.0,10.0,M,-34.6,M,,*66
$PYRTM,2024,121.667214348275,12.776861758414
$GPGGA,160046.00,3237.2613,N,11717.3825,W,1,10,1.0,10.4,M,-34.6,M,,*6C
$PYRTM,2024,121.667221754514,12.776869164653
$GPGGA,160047.00,3237.2618,N,11717.3852,W,1,10,1.0,10.4,M,-34.6,M,,*66
$PYRTM,2024,121.667237496574,12.776884906713
$GPGGA,160048.00,3237.2625,N,11717.3877,W,1,10,1.0,10.2,M,-34.6,M,,*66
$PYRTM,2024,121.667249077766,12.776896487905
$GPGGA,160049.00,3237.2630,N,11717.3901,W,1,10,1.0,9.8,M,-34.6,M,,*51
$PYRTM,2024,121.667256489861,12.776903900000
$GPGGA,160050.00,3237.2635,N,11717.3925,W,1,10,1.0,9.3,M,-34.6,M,,*51
$PYRTM,2024,121.667272231215,12.776919641354
$GPGGA,160051.00,3237.2640,N,11717.3950,W,1,10,1.0,9.0,M,-34.6,M,,*53
$PYRTM,2024,121.667283791481,12.776931201620
$GPGGA,160052.00,3237.2647,N,11717.3976,W,1,10,1.0,8.7,M,-34.6,M,,*55
$PYRTM,2024,121.667295379282,12.776942789421
$GPGGA,160053.00,3237.2654,N,11717.4002,W,1,10,1.0,8.7,M,-34.6,M,,*5B
$PYRTM,2024,121.667306940197,12.776954350336
$GPGGA,160054.00,3237.2659,N,11717.4026,W,1,10,1.0,9.0,M,-34.6,M,,*51
$PYRTM,2024,121.667318522500,12.776965932650
$GPGGA,160055.00,3237.2665,N,11717.4049,W,1,10,1.0,9.6,M,-34.6,M,,*50
$PYRTM,2024,121.667330088935,12.776977499074
$GPGGA,160056.00,3237.2672,N,11717.4074,W,1,10,1.0,10.0,M,-34.6,M,,*65
$PYRTM,2024,121.667341670579,12.776989080718
$GPGGA,160057.00,3237.2679,N,11717.4102,W,1,10,1.0,9.6,M,-34.6,M,,*51
$PYRTM,2024,121.667353236539,12.777000646678
$GPGGA,160058.00,3237.2684,N,11717.4131,W,1,10,1.0,9.6,M,-34.6,M,,*5C
$PYRTM,2024,121.667364826227,12.777012236366
$GPGGA,160059.00,3237.2688,N,11717.4156,W,1,10,1.0,9.2,M,-34.6,M,,*54
$PYRTM,2024,121.667376386134,12.777023796273
$GPGGA,160100.00,3237.2694,N,11717.4177,W,1,10,1.0,9.7,M,-34.6,M,,*52
$PYRTM,2024,121.667387975185,12.777035385324
$GPGGA,160101.00,3237.2702,N,11717.4200,W,1,10,1.0,11.0,M,-34.6,M,,*60
$PYRTM,2024,121.667395366759,12.777042776898
$GPGGA,160102.00,3237.2710,N,11717.4227,W,1,10,1.0,11.2,M,-34.6,M,,*67
$PYRTM,2024,121.667411123356,12.777058533495
$GPGGA,160103.00,3237.2715,N,11717.4255,W,1,10,1.0,10.6,M,-34.6,M,,*63
$PYRTM,2024,121.667422681794,12.777070091933
$GPGGA,160104.00,3237.2719,N,11717.4281,W,1,10,1.0,10.3,M,-34.6,M,,*64
$PYRTM,2024,121.667434271655,12.777081681794
$GPGGA,160105.00,3237.2725,N,11717.4304,W,1,10,1.0,10.4,M,-34.6,M,,*61
$PYRTM,2024,121.667441662523,12.777089072662
$GPGGA,160106.00,3237.2733,N,11717.4326,W,1,10,1.0,11.0,M,-34.6,M,,*60
$PYRTM,2024,121.667457417234,12.777104827373
$GPGGA,160107.00,3237.2742,N,11717.4353,W,1,10,1.0,11.1,M,-34.6,M,,*64
$PYRTM,2024,121.667468980012,12.777116390150
$GPGGA,160108.00,3237.2746,N,11717.4382,W,1,10,1.0,10.1,M,-34.6,M,,*62
$PYRTM,2024,121.667476385255,12.777123795394
$GPGGA,160109.00,3237.2749,N,11717.4406,W,1,10,1.0,10.3,M,-34.6,M,,*65
$PYRTM,2024,121.667495021366,12.777142431516
$GPGGA,160110.00,3237.2755,N,11717.4428,W,1,10,1.0,10.7,M,-34.6,M,,*68
$PYRTM,2024,121.667503708738,12.777151118877
$GPGGA,160111.00,3237.2763,N,11717.4454,W,1,10,1.0,10.8,M,-34.6,M,,*68
$PYRTM,2024,121.667511110046,12.777158520185
$GPGGA,160112.00,3237.2772,N,11717.4481,W,1,10,1.0,10.4,M,-34.6,M,,*6F
$PYRTM,2024,121.667526862558,12.777174272697
$GPGGA,160113.00,3237.2778,N,11717.4507,W,1,10,1.0,10.1,M,-34.6,M,,*6E
$PYRTM,2024,121.667538424606,12.777185834745
$GPGGA,160114.00,3237.2783,N,11717.4530,W,1,10,1.0,10.4,M,-34.6,M,,*6C
$PYRTM,2024,121.667545831609,12.777193241748
$GPGGA,160115.00,3237.2789,N,11717.4555,W,1,10,1.0,10.6,M,-34.6,M,,*66
$PYRTM,2024,121.667561572454,12.777208982593
$GPGGA,160116.00,3237.2796,N,11717.4581,W,1,10,1.0,10.5,M,-34.6,M,,*61
$PYRTM,2024,121.667573161782,12.777220571921
$GPGGA,160117.00,3237.2804,N,11717.4604,W,1,10,1.0,10.4,M,-34.6,M,,*6B
$PYRTM,2024,121.667584719248,12.777232129387
$GPGGA,160118.00,3237.2811,N,11717.4627,W,1,10,1.0,10.3,M,-34.6,M,,*66
$PYRTM,2024,121.667596309294,12.777243719433
$GPGGA,160119.00,3237.2817,N,11717.4651,W,1,10,1.0,10.3,M,-34.6,M,,*60
$PYRTM,2024,121.667603700475,12.777251110613
$GPGGA,160120.00,3237.2823,N,11717.4677,W,1,10,1.0,10.0,M,-34.6,M,,*6A
$PYRTM,2024,121.667619458461,12.777266868611
$GPGGA,160121.00,3237.2829,N,11717.4702,W,1,10,1.0,9.7,M,-34.6,M,,*5D
$PYRTM,2024,121.667631015856,12.777278426007
$GPGGA,160122.00,3237.2835,N,11717.4725,W,1,10,1.0,10.0,M,-34.6,M,,*69
$PYRTM,2024,121.667642605949,12.777290016088
$GPGGA,160123.00,3237.2843,N,11717.4749,W,1,10,1.0,10.4,M,-34.6,M,,*67
$PYRTM,2024,121.667654165312,12.777301575451
$GPGGA,160124.00,3237.2849,N,11717.4775,W,1,10,1.0,10.0,M,-34.6,M,,*61
$PYRTM,2024,121.667661573148,12.777308983287
$GPGGA,160125.00,3237.2855,N,11717.4801,W,1,10,1.0,9.7,M,-34.6,M,,*5E
$PYRTM,2024,121.667677313368,12.777324723519
$GPGGA,160126.00,3237.2861,N,11717.4825,W,1,10,1.0,9.8,M,-34.6,M,,*53
$PYRTM,2024,121.667688902014,12.777336312153
$GPGGA,160127.00,3237.2867,N,11717.4849,W,1,10,1.0,9.8,M,-34.6,M,,*5E
$PYRTM,2024,121.667696295150,12.777343705289
$GPGGA,160128.00,3237.2875,N,11717.4874,W,1,10,1.0,9.5,M,-34.6,M,,*51
$PYRTM,2024,121.667712044387,12.777359454537
$GPGGA,160129.00,3237.2882,N,11717.4900,W,1,10,1.0,9.1,M,-34.6,M,,*5E
$PYRTM,2024,121.667723609074,12.777371019213
$GPGGA,160130.00,3237.2887,N,11717.4924,W,1,10,1.0,9.2,M,-34.6,M,,*56
$PYRTM,2024,121.667735196088,12.777382606227
$GPGGA,160131.00,3237.2893,N,11717.4949,W,1,10,1.0,9.6,M,-34.6,M,,*5D
$PYRTM,2024,121.667746757488,12.777394167639
$GPGGA,160132.00,3237.2899,N,11717.4974,W,1,10,1.0,9.6,M,-34.6,M,,*5A
$PYRTM,2024,121.667758344051,12.777405754190
$GPGGA,160133.00,3237.2907,N,11717.5001,W,1,10,1.0,9.3,M,-34.6,M,,*52
$PYRTM,2024,121.667769907639,12.777417317778
$GPGGA,160134.00,3237.2913,N,11717.5026,W,1,10,1.0,8.9,M,-34.6,M,,*5E
$PYRTM,2024,121.667781495532,12.777428905671
$GPGGA,160135.00,3237.2917,N,11717.5050,W,1,10,1.0,9.1,M,-34.6,M,,*53
$PYRTM,2024,121.667793053785,12.777440463924
$GPGGA,160136.00,3237.2922,N,11717.5074,W,1,10,1.0,9.6,M,-34.6,M,,*57
$PYRTM,2024,121.667804643785,12.777452053924
$GPGGA,160137.00,3237.2929,N,11717.5099,W,1,10,1.0,9.7,M,-34.6,M,,*5F
$PYRTM,2024,121.667812038449,12.777459448588
$GPGGA,160138.00,3237.2936,N,11717.5128,W,1,10,1.0,9.2,M,-34.6,M,,*50
$PYRTM,2024,121.667827784549,12.777475194699
$GPGGA,160139.00,3237.2940,N,11717.5153,W,1,10,1.0,8.8,M,-34.6,M,,*57
$PYRTM,2024,121.667835197465,12.777482607604
$GPGGA,160140.00,3237.2946,N,11717.5174,W,1,10,1.0,8.8,M,-34.6,M,,*5A
$PYRTM,2024,121.667853830567,12.777501240706
$GPGGA,160141.00,3237.2952,N,11717.5198,W,1,10,1.0,9.3,M,-34.6,M,,*56
$PYRTM,2024,121.667862498588,12.777509908727
$GPGGA,160142.00,3237.2958,N,11717.5227,W,1,10,1.0,8.6,M,-34.6,M,,*5C
$PYRTM,2024,121.667874087338,12.777521497477
$GPGGA,160143.00,3237.2962,N,11717.5253,W,1,10,1.0,8.6,M,-34.6,M,,*57
$PYRTM,2024,121.667885647257,12.777533057396
$GPGGA,160144.00,3237.2967,N,11717.5274,W,1,10,1.0,9.4,M,-34.6,M,,*53
$PYRTM,2024,121.667897237014,12.777544647153
$GPGGA,160145.00,3237.2974,N,11717.5297,W,1,10,1.0,10.2,M,-34.6,M,,*63
$PYRTM,2024,121.667908795405,12.777556205544
$GPGGA,160146.00,3237.2982,N,11717.5322,W,1,10,1.0,10.3,M,-34.6,M,,*67
$PYRTM,2024,121.667920383426,12.777567793576
$GPGGA,160147.00,3237.2988,N,11717.5349,W,1,10,1.0,10.2,M,-34.6,M,,*60
$PYRTM,2024,121.667931944815,12.777579354954
$GPGGA,160148.00,3237.2990,N,11717.5374,W,1,10,1.0,10.3,M,-34.6,M,,*69
$PYRTM,2024,121.667943531088,12.777590941238
$GPGGA,160149.00,3237.2993,N,11717.5399,W,1,10,1.0,10.5,M,-34.6,M,,*6E
$PYRTM,2024,121.667950926863,12.777598337002
$GPGGA,160150.00,3237.2999,N,11717.5424,W,1,10,1.0,10.5,M,-34.6,M,,*6D
$PYRTM,2024,121.667966682512,12.777614092650
$GPGGA,160151.00,3237.3006,N,11717.5449,W,1,10,1.0,10.5,M,-34.6,M,,*69
$PYRTM,2024,121.667978242257,12.777625652396
$GPGGA,160152.00,3237.3013,N,11717.5474,W,1,10,1.0,10.9,M,-34.6,M,,*6C
$PYRTM,2024,121.667985649653,12.777633059792
$GPGGA,160153.00,3237.3016,N,11717.5500,W,1,10,1.0,11.0,M,-34.6,M,,*62
$PYRTM,2024,121.668001389028,12.777648799167
$GPGGA,160154.00,3237.3018,N,11717.5526,W,1,10,1.0,11.4,M,-34.6,M,,*6B
$PYRTM,2024,121.668012975741,12.777660385880
$GPGGA,160155.00,3237.3021,N,11717.5551,W,1,10,1.0,11.7,M,-34.6,M,,*63
$PYRTM,2024,121.668024538600,12.777671948738
$GPGGA,160156.00,3237.3029,N,11717.5576,W,1,10,1.0,11.7,M,-34.6,M,,*6D
$PYRTM,2024,121.668036125046,12.777683535185
$GPGGA,160157.00,3237.3036,N,11717.5602,W,1,10,1.0,11.3,M,-34.6,M,,*66
$PYRTM,2024,121.668043531238,12.777690941377
$GPGGA,160158.00,3237.3040,N,11717.5627,W,1,10,1.0,11.0,M,-34.6,M,,*6C
$PYRTM,2024,121.668059273125,12.777706683264
$GPGGA,160159.00,3237.3042,N,11717.5651,W,1,10,1.0,11.1,M,-34.6,M,,*6F
$PYRTM,2024,121.668070832523,12.777718242662
$GPGGA,160200.00,3237.3047,N,11717.5675,W,1,10,1.0,11.5,M,-34.6,M,,*67
$PYRTM,2024,121.668082421377,12.777729831516
$GPGGA,160201.00,3237.3055,N,11717.5701,W,1,10,1.0,11.5,M,-34.6,M,,*67
$PYRTM,2024,121.668093982500,12.777741392639
$GPGGA,160202.00,3237.3061,N,11717.5727,W,1,10,1.0,11.4,M,-34.6,M,,*66
$PYRTM,2024,121.668105568507,12.777752978646
$GPGGA,160203.00,3237.3064,N,11717.5752,W,1,10,1.0,11.4,M,-34.6,M,,*60
$PYRTM,2024,121.668117131123,12.777764541262
$GPGGA,160204.00,3237.3067,N,11717.5777,W,1,10,1.0,11.5,M,-34.6,M,,*62
$PYRTM,2024,121.668128711921,12.777776122060
$GPGGA,160205.00,3237.3072,N,11717.5802,W,1,10,1.0,11.8,M,-34.6,M,,*67
$PYRTM,2024,121.668136112407,12.777783522546
$GPGGA,160206.00,3237.3080,N,11717.5827,W,1,10,1.0,11.9,M,-34.6,M,,*6F
$PYRTM,2024,121.668151880220,12.777799290359
$GPGGA,160207.00,3237.3086,N,11717.5853,W,1,10,1.0,11.9,M,-34.6,M,,*6B
$PYRTM,2024,121.668163426991,12.777810837141
$GPGGA,160208.00,3237.3089,N,11717.5877,W,1,10,1.0,12.1,M,-34.6,M,,*66
$PYRTM,2024,121.668175016181,12.777822426319
$GPGGA,160209.00,3237.3094,N,11717.5902,W,1,10,1.0,12.2,M,-34.6,M,,*6B
$PYRTM,2024,121.668182409421,12.777829819560
$GPGGA,160210.00,3237.3099,N,11717.5930,W,1,10,1.0,11.9,M,-34.6,M,,*67
$PYRTM,2024,121.668201058600,12.777848468750
$GPGGA,160211.00,3237.3105,N,11717.5957,W,1,10,1.0,11.4,M,-34.6,M,,*6E
$PYRTM,2024,121.668209723067,12.777857133206
$GPGGA,160212.00,3237.3112,N,11717.5979,W,1,10,1.0,11.4,M,-34.6,M,,*67
$PYRTM,2024,121.668221310081,12.777868720220
$GPGGA,160213.00,3237.3117,N,11717.6002,W,1,10,1.0,12.0,M,-34.6,M,,*62
$PYRTM,2024,121.668232872141,12.777880282292
$GPGGA,160214.00,3237.3122,N,11717.6028,W,1,10,1.0,12.1,M,-34.6,M,,*6A
$PYRTM,2024,121.668244459641,12.777891869780
$GPGGA,160215.00,3237.3125,N,11717.6055,W,1,10,1.0,12.1,M,-34.6,M,,*66
$PYRTM,2024,121.668256020336,12.777903430475
$GPGGA,160216.00,3237.3130,N,11717.6079,W,1,10,1.0,12.0,M,-34.6,M,,*6E
$PYRTM,2024,121.668267611065,12.777915021204
$GPGGA,160217.00,3237.3138,N,11717.6103,W,1,10,1.0,11.6,M,-34.6,M,,*6E
$PYRTM,2024,121.668275002662,12.777922412801
$GPGGA,160218.00,3237.3144,N,11717.6129,W,1,10,1.0,10.9,M,-34.6,M,,*6C
$PYRTM,2024,121.668290750660,12.777938160799
$GPGGA,160219.00,3237.3149,N,11717.6155,W,1,10,1.0,10.4,M,-34.6,M,,*66
$PYRTM,2024,121.668302316933,12.777949727072
$GPGGA,160220.00,3237.3153,N,11717.6180,W,1,10,1.0,10.5,M,-34.6,M,,*6E
$PYRTM,2024,121.668313904086,12.777961314225
$GPGGA,160221.00,3237.3159,N,11717.6203,W,1,10,1.0,11.3,M,-34.6,M,,*6A
$PYRTM,2024,121.668325463981,12.777972874132
$GPGGA,160222.00,3237.3166,N,11717.6228,W,1,10,1.0,12.0,M,-34.6,M,,*6C
$PYRTM,2024,121.668337054479,12.777984464630
$GPGGA,160223.00,3237.3172,N,11717.6254,W,1,10,1.0,11.3,M,-34.6,M,,*63
$PYRTM,2024,121.668348614132,12.777996024271
$GPGGA,160224.00,3237.3176,N,11717.6280,W,1,10,1.0,11.5,M,-34.6,M,,*6F
$PYRTM,2024,121.668360203056,12.778007613194
$GPGGA,160225.00,3237.3180,N,11717.6306,W,1,10,1.0,10.8,M,-34.6,M,,*64
$PYRTM,2024,121.668371877211,12.778019287350
$GPGGA,160226.00,3237.3184,N,11717.6332,W,1,10,1.0,10.3,M,-34.6,M,,*6F
$PYRTM,2024,121.668383348727,12.778030758877
$GPGGA,160227.00,3237.3191,N,11717.6357,W,1,10,1.0,10.1,M,-34.6,M,,*6B
$PYRTM,2024,121.668390755637,12.778038165775
$GPGGA,160228.00,3237.3198,N,11717.6378,W,1,10,1.0,10.4,M,-34.6,M,,*65
$PYRTM,2024,121.668406499167,12.778053909306
$GPGGA,160229.00,3237.3204,N,11717.6404,W,1,10,1.0,11.2,M,-34.6,M,,*69
$PYRTM,2024,121.668418058958,12.778065469097
$GPGGA,160230.00,3237.3209,N,11717.6435,W,1,10,1.0,10.5,M,-34.6,M,,*68
$PYRTM,2024,121.668425466910,12.778072877049
$GPGGA,160231.00,3237.3211,N,11717.6465,W,1,10,1.0,10.2,M,-34.6,M,,*62
$PYRTM,2024,121.668441205463,12.778088615613
$GPGGA,160232.00,3237.3216,N,11717.6487,W,1,10,1.0,10.3,M,-34.6,M,,*6B
$PYRTM,2024,121.668452788484,12.778100198634
$GPGGA,160233.00,3237.3222,N,11717.6505,W,1,10,1.0,11.1,M,-34.6,M,,*65
$PYRTM,2024,121.668464355301,12.778111765440
$GPGGA,160234.00,3237.3229,N,11717.6529,W,1,10,1.0,11.9,M,-34.6,M,,*6F
$PYRTM,2024,121.668475940903,12.778123351042
$GPGGA,160235.00,3237.3235,N,11717.6560,W,1,10,1.0,11.5,M,-34.6,M,,*62
$PYRTM,2024,121.668487502049,12.778134912188
$GPGGA,160236.00,3237.3237,N,11717.6591,W,1,10,1.0,10.6,M,-34.6,M,,*6F
$PYRTM,2024,121.668499089537,12.778146499676
$GPGGA,160237.00,3237.3241,N,11717.6614,W,1,10,1.0,10.9,M,-34.6,M,,*6E
$PYRTM,2024,121.668510651169,12.778158061308
$GPGGA,160238.00,3237.3246,N,11717.6635,W,1,10,1.0,11.4,M,-34.6,M,,*69
$PYRTM,2024,121.668522241956,12.778169652095
$GPGGA,160239.00,3237.3254,N,11717.6660,W,1,10,1.0,11.8,M,-34.6,M,,*67
$PYRTM,2024,121.668533799190,12.778181209340
$GPGGA,160240.00,3237.3260,N,11717.6685,W,1,10,1.0,12.1,M,-34.6,M,,*6F
$PYRTM,2024,121.668541206678,12.778188616817
$GPGGA,160241.00,3237.3264,N,11717.6710,W,1,10,1.0,12.3,M,-34.6,M,,*65
$PYRTM,2024,121.668559840069,12.778207250208
$GPGGA,160242.00,3237.3268,N,11717.6736,W,1,10,1.0,11.9,M,-34.6,M,,*67
$PYRTM,2024,121.668571430544,12.778218840683
$GPGGA,160243.00,3237.3273,N,11717.6763,W,1,10,1.0,11.2,M,-34.6,M,,*67
$PYRTM,2024,121.668582989144,12.778230399282
$GPGGA,160244.00,3237.3279,N,11717.6784,W,1,10,1.0,11.1,M,-34.6,M,,*60
$PYRTM,2024,121.668591677697,12.778239087847
$GPGGA,160245.00,3237.3287,N,11717.6803,W,1,10,1.0,11.3,M,-34.6,M,,*62
$PYRTM,2024,121.668599090949,12.778246501088
$GPGGA,160246.00,3237.3293,N,11717.6827,W,1,10,1.0,11.2,M,-34.6,M,,*63
$PYRTM,2024,121.668614825903,12.778262236042
$GPGGA,160247.00,3237.3298,N,11717.6855,W,1,10,1.0,10.5,M,-34.6,M,,*6A
$PYRTM,2024,121.668626393634,12.778273803773
$GPGGA,160248.00,3237.3301,N,11717.6880,W,1,10,1.0,10.0,M,-34.6,M,,*69
$PYRTM,2024,121.668633799884,12.778281210023
$GPGGA,160249.00,3237.3307,N,11717.6900,W,1,10,1.0,10.4,M,-34.6,M,,*63
$PYRTM,2024,121.668649540787,12.778296950926
$GPGGA,160250.00,3237.3314,N,11717.6925,W,1,10,1.0,10.8,M,-34.6,M,,*62
$PYRTM,2024,121.668661130266,12.778308540405
$GPGGA,160251.00,3237.3319,N,11717.6953,W,1,10,1.0,10.4,M,-34.6,M,,*63
$PYRTM,2024,121.668672688125,12.778320098264
$GPGGA,160252.00,3237.3323,N,11717.6978,W,1,10,1.0,10.3,M,-34.6,M,,*67
$PYRTM,2024,121.668684275567,12.778331685706
$GPGGA,160253.00,3237.3327,N,11717.7000,W,1,10,1.0,10.5,M,-34.6,M,,*63
$PYRTM,2024,121.668691669745,12.778339079884
$GPGGA,160254.00,3237.3333,N,11717.7025,W,1,10,1.0,10.8,M,-34.6,M,,*6B
$PYRTM,2024,121.668707427199,12.778354837350
$GPGGA,160255.00,3237.3339,N,11717.7052,W,1,10,1.0,10.5,M,-34.6,M,,*6D
$PYRTM,2024,121.668718984433,12.778366394572
$GPGGA,160256.00,3237.3344,N,11717.7077,W,1,10,1.0,10.6,M,-34.6,M,,*60
$PYRTM,2024,121.668726392523,12.778373802662
$GPGGA,160257.00,3237.3348,N,11717.7100,W,1,10,1.0,11.0,M,-34.6,M,,*6B
$PYRTM,2024,121.668742132766,12.778389542905
$GPGGA,160258.00,3237.3353,N,11717.7123,W,1,10,1.0,11.3,M,-34.6,M,,*6C
$PYRTM,2024,121.668753736308,12.778401146447
$GPGGA,160259.00,3237.3359,N,11717.7150,W,1,10,1.0,11.5,M,-34.6,M,,*65
$PYRTM,2024,121.668761131215,12.778408541354
$GPGGA,160300.00,3237.3364,N,11717.7177,W,1,10,1.0,11.4,M,-34.6,M,,*62
$PYRTM,2024,121.668776865174,12.778424275324
$GPGGA,160301.00,3237.3369,N,11717.7201,W,1,10,1.0,11.3,M,-34.6,M,,*6B
$PYRTM,2024,121.668788428900,12.778435839039
$GPGGA,160302.00,3237.3372,N,11717.7226,W,1,10,1.0,11.5,M,-34.6,M,,*61
$PYRTM,2024,121.668800017523,12.778447427662
$GPGGA,160303.00,3237.3376,N,11717.7251,W,1,10,1.0,11.6,M,-34.6,M,,*67
$PYRTM,2024,121.668811578310,12.778458988461
$GPGGA,160304.00,3237.3382,N,11717.7276,W,1,10,1.0,11.7,M,-34.6,M,,*6F
$PYRTM,2024,121.668818986956,12.778466397095
$GPGGA,160305.00,3237.3389,N,11717.7301,W,1,10,1.0,11.8,M,-34.6,M,,*6B
$PYRTM,2024,121.668834725775,12.778482135914
$GPGGA,160306.00,3237.3395,N,11717.7325,W,1,10,1.0,11.8,M,-34.6,M,,*63
$PYRTM,2024,121.668846312778,12.778493722917
$GPGGA,160307.00,3237.3398,N,11717.7352,W,1,10,1.0,11.8,M,-34.6,M,,*6F
$PYRTM,2024,121.668853708368,12.778501118507
$GPGGA,160308.00,3237.3401,N,11717.7378,W,1,10,1.0,11.7,M,-34.6,M,,*60
$PYRTM,2024,121.668869461424,12.778516871563
$GPGGA,160309.00,3237.3407,N,11717.7402,W,1,10,1.0,11.7,M,-34.6,M,,*6D
$PYRTM,2024,121.668881022581,12.778528432720
$GPGGA,160310.00,3237.3414,N,11717.7428,W,1,10,1.0,11.8,M,-34.6,M,,*60
$PYRTM,2024,121.668892612118,12.778540022257
$GPGGA,160311.00,3237.3419,N,11717.7453,W,1,10,1.0,11.7,M,-34.6,M,,*6F
$PYRTM,2024,121.668900004722,12.778547414861
$GPGGA,160312.00,3237.3423,N,11717.7478,W,1,10,1.0,11.9,M,-34.6,M,,*62
$PYRTM,2024,121.668918654942,12.778566065081
$GPGGA,160313.00,3237.3427,N,11717.7503,W,1,10,1.0,12.0,M,-34.6,M,,*60
$PYRTM,2024,121.668927319780,12.778574729919
$GPGGA,160314.00,3237.3433,N,11717.7531,W,1,10,1.0,11.9,M,-34.6,M,,*69
$PYRTM,2024,121.668938909965,12.778586320116
$GPGGA,160315.00,3237.3439,N,11717.7556,W,1,10,1.0,11.5,M,-34.6,M,,*6F
$PYRTM,2024,121.668950467604,12.778597877743
$GPGGA,160316.00,3237.3445,N,11717.7581,W,1,10,1.0,11.5,M,-34.6,M,,*6D
$PYRTM,2024,121.668962054456,12.778609464595
$GPGGA,160317.00,3237.3450,N,11717.7605,W,1,10,1.0,11.8,M,-34.6,M,,*6A
$PYRTM,2024,121.668973617523,12.778621027662
$GPGGA,160318.00,3237.3455,N,11717.7630,W,1,10,1.0,12.1,M,-34.6,M,,*6C
$PYRTM,2024,121.668985204780,12.778632614919
$GPGGA,160319.00,3237.3460,N,11717.7657,W,1,10,1.0,12.0,M,-34.6,M,,*6B
$PYRTM,2024,121.668992611991,12.778640022130
$GPGGA,160320.00,3237.3465,N,11717.7684,W,1,10,1.0,11.6,M,-34.6,M,,*6F
$PYRTM,2024,121.669008347060,12.778655757199
$GPGGA,160321.00,3237.3470,N,11717.7711,W,1,10,1.0,11.2,M,-34.6,M,,*63
$PYRTM,2024,121.669019912662,12.778667322813
$GPGGA,160322.00,3237.3475,N,11717.7736,W,1,10,1.0,11.2,M,-34.6,M,,*60
$PYRTM,2024,121.669027321644,12.778674731782
$GPGGA,160323.00,3237.3481,N,11717.7760,W,1,10,1.0,11.4,M,-34.6,M,,*6F
$PYRTM,2024,121.669043061146,12.778690471296
$GPGGA,160324.00,3237.3486,N,11717.7785,W,1,10,1.0,11.9,M,-34.6,M,,*69
$PYRTM,2024,121.669054648854,12.778702058993
$GPGGA,160325.00,3237.3492,N,11717.7812,W,1,10,1.0,12.0,M,-34.6,M,,*66
$PYRTM,2024,121.669066208889,12.778713619028
$GPGGA,160326.00,3237.3496,N,11717.7840,W,1,10,1.0,11.7,M,-34.6,M,,*62
$PYRTM,2024,121.669077798785,12.778725208924
$GPGGA,160327.00,3237.3499,N,11717.7866,W,1,10,1.0,11.4,M,-34.6,M,,*6B
$PYRTM,2024,121.669089357361,12.778736767500
$GPGGA,160328.00,3237.3505,N,11717.7888,W,1,10,1.0,11.6,M,-34.6,M,,*62
$PYRTM,2024,121.669100947292,12.778748357431
$GPGGA,160329.00,3237.3513,N,11717.7912,W,1,10,1.0,11.8,M,-34.6,M,,*68
$PYRTM,2024,121.669112507662,12.778759917801
$GPGGA,160330.00,3237.3519,N,11717.7940,W,1,10,1.0,11.5,M,-34.6,M,,*60
$PYRTM,2024,121.669124095891,12.778771506030
$GPGGA,160331.00,3237.3523,N,11717.7968,W,1,10,1.0,11.1,M,-34.6,M,,*66
$PYRTM,2024,121.669135653056,12.778783063194
$GPGGA,160332.00,3237.3527,N,11717.7994,W,1,10,1.0,10.8,M,-34.6,M,,*6A
$PYRTM,2024,121.669147241308,12.778794651458
$GPGGA,160333.00,3237.3532,N,11717.8019,W,1,10,1.0,11.1,M,-34.6,M,,*64
$PYRTM,2024,121.669158802060,12.778806212199
$GPGGA,160334.00,3237.3538,N,11717.8043,W,1,10,1.0,11.5,M,-34.6,M,,*62
$PYRTM,2024,121.669166209907,12.778813620046
$GPGGA,160335.00,3237.3543,N,11717.8068,W,1,10,1.0,12.0,M,-34.6,M,,*60
$PYRTM,2024,121.669181950127,12.778829360266
$GPGGA,160336.00,3237.3549,N,11717.8096,W,1,10,1.0,11.7,M,-34.6,M,,*6C
$PYRTM,2024,121.669193537778,12.778840947917
$GPGGA,160337.00,3237.3553,N,11717.8123,W,1,10,1.0,10.7,M,-34.6,M,,*68
$PYRTM,2024,121.669205098414,12.778852508565
$GPGGA,160338.00,3237.3556,N,11717.8146,W,1,10,1.0,10.6,M,-34.6,M,,*60
$PYRTM,2024,121.669216685903,12.778864096053
$GPGGA,160339.00,3237.3560,N,11717.8170,W,1,10,1.0,11.0,M,-34.6,M,,*66
$PYRTM,2024,121.669228247963,12.778875658102
$GPGGA,160340.00,3237.3568,N,11717.8196,W,1,10,1.0,11.0,M,-34.6,M,,*68
$PYRTM,2024,121.669239834699,12.778887244838
$GPGGA,160341.00,3237.3574,N,11717.8224,W,1,10,1.0,10.7,M,-34.6,M,,*68
$PYRTM,2024,121.669251395451,12.778898805590
$GPGGA,160342.00,3237.3578,N,11717.8249,W,1,10,1.0,10.8,M,-34.6,M,,*63
$PYRTM,2024,121.669258802708,12.778906212859
$GPGGA,160343.00,3237.3582,N,11717.8272,W,1,10,1.0,11.7,M,-34.6,M,,*61
$PYRTM,2024,121.669277436586,12.778924846736
$GPGGA,160344.00,3237.3587,N,11717.8296,W,1,10,1.0,12.6,M,-34.6,M,,*6B
$PYRTM,2024,121.669289026898,12.778936437049
$GPGGA,160345.00,3237.3594,N,11717.8323,W,1,10,1.0,12.4,M,-34.6,M,,*65
$PYRTM,2024,121.669300584410,12.778947994560
$GPGGA,160346.00,3237.3600,N,11717.8351,W,1,10,1.0,11.5,M,-34.6,M,,*6F
$PYRTM,2024,121.669309283229,12.778956693380
$GPGGA,160347.00,3237.3604,N,11717.8375,W,1,10,1.0,10.8,M,-34.6,M,,*60
$PYRTM,2024,121.669320840208,12.778968250347
$GPGGA,160348.00,3237.3608,N,11717.8398,W,1,10,1.0,11.4,M,-34.6,M,,*6D
$PYRTM,2024,121.669332422905,12.778979833056
$GPGGA,160349.00,3237.3614,N,11717.8422,W,1,10,1.0,12.0,M,-34.6,M,,*60
$PYRTM,2024,121.669343987326,12.778991397465
$GPGGA,160350.00,3237.3620,N,11717.8447,W,1,10,1.0,12.6,M,-34.6,M,,*6A
$PYRTM,2024,121.669355570370,12.779002980509
$GPGGA,160351.00,3237.3625,N,11717.8474,W,1,10,1.0,11.7,M,-34.6,M,,*6C
$PYRTM,2024,121.669367136979,12.779014547130
$GPGGA,160352.00,3237.3629,N,11717.8502,W,1,10,1.0,11.3,M,-34.6,M,,*67
$PYRTM,2024,121.669378725012,12.779026135150
$GPGGA,160353.00,3237.3634,N,11717.8525,W,1,10,1.0,11.3,M,-34.6,M,,*6F
$PYRTM,2024,121.669390285243,12.779037695382
$GPGGA,160354.00,3237.3640,N,11717.8545,W,1,10,1.0,11.7,M,-34.6,M,,*69
$PYRTM,2024,121.669397693194,12.779045103333
$GPGGA,160355.00,3237.3647,N,11717.8571,W,1,10,1.0,11.8,M,-34.6,M,,*67
$PYRTM,2024,121.669413432350,12.779060842488
$GPGGA,160356.00,3237.3653,N,11717.8600,W,1,10,1.0,11.1,M,-34.6,M,,*6D
$PYRTM,2024,121.669425022442,12.779072432581
$GPGGA,160357.00,3237.3656,N,11717.8627,W,1,10,1.0,10.5,M,-34.6,M,,*69
$PYRTM,2024,121.669436581493,12.779083991632
$GPGGA,160358.00,3237.3661,N,11717.8647,W,1,10,1.0,11.3,M,-34.6,M,,*63
$PYRTM,2024,121.669448167766,12.779095577905
$GPGGA,160359.00,3237.3669,N,11717.8668,W,1,10,1.0,11.6,M,-34.6,M,,*62
$PYRTM,2024,121.669459730208,12.779107140347
$GPGGA,160400.00,3237.3676,N,11717.8696,W,1,10,1.0,10.6,M,-34.6,M,,*67
$PYRTM,2024,121.669471330417,12.779118740556
$GPGGA,160401.00,3237.3680,N,11717.8724,W,1,10,1.0,10.2,M,-34.6,M,,*63
$PYRTM,2024,121.669482878449,12.779130288588
$GPGGA,160402.00,3237.3683,N,11717.8746,W,1,10,1.0,10.4,M,-34.6,M,,*61
$PYRTM,2024,121.669494468681,12.779141878819
$GPGGA,160403.00,3237.3687,N,11717.8767,W,1,10,1.0,11.5,M,-34.6,M,,*67
$PYRTM,2024,121.669506028333,12.779153438472
$GPGGA,160404.00,3237.3693,N,11717.8792,W,1,10,1.0,12.0,M,-34.6,M,,*69
$PYRTM,2024,121.669517612940,12.779165023079
$GPGGA,160405.00,3237.3699,N,11717.8820,W,1,10,1.0,11.2,M,-34.6,M,,*65
$PYRTM,2024,121.669529175521,12.779176585660
$GPGGA,160406.00,3237.3703,N,11717.8846,W,1,10,1.0,10.5,M,-34.6,M,,*62
$PYRTM,2024,121.669540756412,12.779188166562
$GPGGA,160407.00,3237.3705,N,11717.8870,W,1,10,1.0,10.6,M,-34.6,M,,*63
$PYRTM,2024,121.669548164132,12.779195574282
$GPGGA,160408.00,3237.3710,N,11717.8893,W,1,10,1.0,11.0,M,-34.6,M,,*62
$PYRTM,2024,121.669563909792,12.779211319931
$GPGGA,160409.00,3237.3716,N,11717.8918,W,1,10,1.0,10.9,M,-34.6,M,,*6F
$PYRTM,2024,121.669575471331,12.779222881470
$GPGGA,160410.00,3237.3722,N,11717.8943,W,1,10,1.0,10.6,M,-34.6,M,,*61
$PYRTM,2024,121.669587057488,12.779234467627
$GPGGA,160411.00,3237.3725,N,11717.8968,W,1,10,1.0,10.6,M,-34.6,M,,*6E
$PYRTM,2024,121.669598620579,12.779246030718
$GPGGA,160412.00,3237.3727,N,11717.8993,W,1,10,1.0,10.7,M,-34.6,M,,*6A
$PYRTM,2024,121.669606026910,12.779253437060
$GPGGA,160413.00,3237.3731,N,11717.9019,W,1,10,1.0,10.7,M,-34.6,M,,*66
$PYRTM,2024,121.669617716493,12.779265126632
$GPGGA,160414.00,3237.3737,N,11717.9044,W,1,10,1.0,10.7,M,-34.6,M,,*6F
$PYRTM,2024,121.669636247130,12.779283657269
$GPGGA,160415.00,3237.3743,N,11717.9067,W,1,10,1.0,10.9,M,-34.6,M,,*62
$PYRTM,2024,121.669644918194,12.779292328333
$GPGGA,160416.00,3237.3748,N,11717.9091,W,1,10,1.0,11.3,M,-34.6,M,,*68
$PYRTM,2024,121.669652324583,12.779299734734
$GPGGA,160417.00,3237.3752,N,11717.9118,W,1,10,1.0,11.1,M,-34.6,M,,*60
$PYRTM,2024,121.669670957095,12.779318367234
$GPGGA,160418.00,3237.3756,N,11717.9146,W,1,10,1.0,10.5,M,-34.6,M,,*65
$PYRTM,2024,121.669682547454,12.779329957593
$GPGGA,160419.00,3237.3761,N,11717.9171,W,1,10,1.0,10.3,M,-34.6,M,,*62
$PYRTM,2024,121.669691211053,12.779338621192
$GPGGA,160420.00,3237.3767,N,11717.9193,W,1,10,1.0,11.2,M,-34.6,M,,*62
$PYRTM,2024,121.669702802859,12.779350212998
$GPGGA,160421.00,3237.3773,N,11717.9215,W,1,10,1.0,12.2,M,-34.6,M,,*68
$PYRTM,2024,121.669714360914,12.779361771053
$GPGGA,160422.00,3237.3779,N,11717.9242,W,1,10,1.0,12.1,M,-34.6,M,,*60
$PYRTM,2024,121.669721767558,12.779369177697
$GPGGA,160423.00,3237.3782,N,11717.9271,W,1,10,1.0,11.3,M,-34.6,M,,*64
$PYRTM,2024,121.669737508287,12.779384918426
$GPGGA,160424.00,3237.3786,N,11717.9295,W,1,10,1.0,11.2,M,-34.6,M,,*6C
$PYRTM,2024,121.669749097072,12.779396507211
$GPGGA,160425.00,3237.3794,N,11717.9318,W,1,10,1.0,11.5,M,-34.6,M,,*6D
$PYRTM,2024,121.669760658287,12.779408068426
$GPGGA,160426.00,3237.3801,N,11717.9341,W,1,10,1.0,11.6,M,-34.6,M,,*62
$PYRTM,2024,121.669772243669,12.779419653808
$GPGGA,160427.00,3237.3806,N,11717.9366,W,1,10,1.0,11.7,M,-34.6,M,,*60
$PYRTM,2024,121.669783804606,12.779431214745
$GPGGA,160428.00,3237.3808,N,11717.9395,W,1,10,1.0,11.5,M,-34.6,M,,*6F
$PYRTM,2024,121.669795393461,12.779442803600
$GPGGA,160429.00,3237.3813,N,11717.9420,W,1,10,1.0,11.6,M,-34.6,M,,*6E
$PYRTM,2024,121.669806954549,12.779454364687
$GPGGA,160430.00,3237.3820,N,11717.9441,W,1,10,1.0,12.3,M,-34.6,M,,*67
$PYRTM,2024,121.669818541597,12.779465951748
$GPGGA,160431.00,3237.3828,N,11717.9464,W,1,10,1.0,12.5,M,-34.6,M,,*6F
$PYRTM,2024,121.669830100972,12.779477511111
$GPGGA,160432.00,3237.3833,N,11717.9493,W,1,10,1.0,12.1,M,-34.6,M,,*6A
$PYRTM,2024,121.669841692442,12.779489102581
$GPGGA,160433.00,3237.3835,N,11717.9520,W,1,10,1.0,11.6,M,-34.6,M,,*60
$PYRTM,2024,121.669853250637,12.779500660775
$GPGGA,160434.00,3237.3839,N,11717.9543,W,1,10,1.0,11.5,M,-34.6,M,,*6D
$PYRTM,2024,121.669864863125,12.779512273264
$GPGGA,160435.00,3237.3845,N,11717.9566,W,1,10,1.0,11.8,M,-34.6,M,,*6D
$PYRTM,2024,121.669876399005,12.779523809144
$GPGGA,160436.00,3237.3852,N,11717.9592,W,1,10,1.0,11.9,M,-34.6,M,,*62
$PYRTM,2024,121.669887981921,12.779535392060
$GPGGA,160437.00,3237.3857,N,11717.9619,W,1,10,1.0,11.8,M,-34.6,M,,*67
$PYRTM,2024,121.669895392581,12.779542802720
$GPGGA,160438.00,3237.3860,N,11717.9644,W,1,10,1.0,12.0,M,-34.6,M,,*6F
$PYRTM,2024,121.669911134259,12.779558544398
$GPGGA,160439.00,3237.3862,N,11717.9669,W,1,10,1.0,12.4,M,-34.6,M,,*67
$PYRTM,2024,121.669922693785,12.779570103924
$GPGGA,160440.00,3237.3867,N,11717.9694,W,1,10,1.0,12.5,M,-34.6,M,,*6F
$PYRTM,2024,121.669934284769,12.779581694907
$GPGGA,160441.00,3237.3874,N,11717.9720,W,1,10,1.0,12.2,M,-34.6,M,,*65
$PYRTM,2024,121.669945845556,12.779593255706
$GPGGA,160442.00,3237.3880,N,11717.9745,W,1,10,1.0,11.9,M,-34.6,M,,*66
$PYRTM,2024,121.669953251065,12.779600661204
$GPGGA,160443.00,3237.3883,N,11717.9770,W,1,10,1.0,11.8,M,-34.6,M,,*63
$PYRTM,2024,121.669968991979,12.779616402118
$GPGGA,160444.00,3237.3887,N,11717.9796,W,1,10,1.0,11.9,M,-34.6,M,,*69
$PYRTM,2024,121.669976400174,12.779623810312
$GPGGA,160445.00,3237.3892,N,11717.9821,W,1,10,1.0,12.0,M,-34.6,M,,*65
$PYRTM,2024,121.669995034051,12.779642444190
$GPGGA,160446.00,3237.3898,N,11717.9846,W,1,10,1.0,12.1,M,-34.6,M,,*6C
$PYRTM,2024,121.670003727280,12.779651137419
$GPGGA,160447.00,3237.3904,N,11717.9870,W,1,10,1.0,12.5,M,-34.6,M,,*68
$PYRTM,2024,121.670011122419,12.779658532558
$GPGGA,160448.00,3237.3908,N,11717.9894,W,1,10,1.0,12.9,M,-34.6,M,,*6D
$PYRTM,2024,121.670026880301,12.779674290440
$GPGGA,160449.00,3237.3913,N,11717.9922,W,1,10,1.0,12.6,M,-34.6,M,,*65
$PYRTM,2024,121.670034270185,12.779681680324
$GPGGA,160450.00,3237.3918,N,11717.9949,W,1,10,1.0,12.1,M,-34.6,M,,*6C
$PYRTM,2024,121.670050025949,12.779697436088
$GPGGA,160451.00,3237.3922,N,11717.9971,W,1,10,1.0,11.9,M,-34.6,M,,*64
$PYRTM,2024,121.670061586539,12.779708996678
$GPGGA,160452.00,3237.3928,N,11717.9995,W,1,10,1.0,12.5,M,-34.6,M,,*68
$PYRTM,2024,121.670073172488,12.779720582627
$GPGGA,160453.00,3237.3935,N,11718.0021,W,1,10,1.0,12.8,M,-34.6,M,,*68
$PYRTM,2024,121.670084733264,12.779732143403
$GPGGA,160454.00,3237.3941,N,11718.0046,W,1,10,1.0,12.2,M,-34.6,M,,*67
$PYRTM,2024,121.670096319329,12.779743729468
$GPGGA,160455.00,3237.3946,N,11718.0069,W,1,10,1.0,12.2,M,-34.6,M,,*6C
$PYRTM,2024,121.670107881331,12.779755291481
$GPGGA,160456.00,3237.3950,N,11718.0093,W,1,10,1.0,12.5,M,-34.6,M,,*6A
$PYRTM,2024,121.670119467407,12.779766877558
$GPGGA,160457.00,3237.3954,N,11718.0118,W,1,10,1.0,12.5,M,-34.6,M,,*6D
$PYRTM,2024,121.670126875405,12.779774285544
$GPGGA,160458.00,3237.3960,N,11718.0145,W,1,10,1.0,12.0,M,-34.6,M,,*68
$PYRTM,2024,121.670142615197,12.779790025336
$GPGGA,160459.00,3237.3966,N,11718.0170,W,1,10,1.0,11.7,M,-34.6,M,,*6D
$PYRTM,2024,121.670154177512,12.779801587650
$GPGGA,160500.00,3237.3971,N,11718.0192,W,1,10,1.0,11.9,M,-34.6,M,,*64
$PYRTM,2024,121.670161586377,12.779808996516
$GPGGA,160501.00,3237.3976,N,11718.0217,W,1,10,1.0,12.1,M,-34.6,M,,*67
$PYRTM,2024,121.670177324653,12.779824734792
$GPGGA,160502.00,3237.3981,N,11718.0245,W,1,10,1.0,12.0,M,-34.6,M,,*6A
$PYRTM,2024,121.670188915440,12.779836325579
$GPGGA,160503.00,3237.3985,N,11718.0271,W,1,10,1.0,11.8,M,-34.6,M,,*63
$PYRTM,2024,121.670200480069,12.779847890208
$GPGGA,160504.00,3237.3990,N,11718.0294,W,1,10,1.0,12.1,M,-34.6,M,,*61
$PYRTM,2024,121.670212064005,12.779859474144
$GPGGA,160505.00,3237.3997,N,11718.0319,W,1,10,1.0,12.5,M,-34.6,M,,*67
$PYRTM,2024,121.670223623738,12.779871033877
$GPGGA,160506.00,3237.4003,N,11718.0345,W,1,10,1.0,12.5,M,-34.6,M,,*6E
$PYRTM,2024,121.670235212025,12.779882622176
$GPGGA,160507.00,3237.4007,N,11718.0371,W,1,10,1.0,12.2,M,-34.6,M,,*6B
$PYRTM,2024,121.670246771146,12.779894181285
$GPGGA,160508.00,3237.4012,N,11718.0397,W,1,10,1.0,11.9,M,-34.6,M,,*60
$PYRTM,2024,121.670258357708,12.779905767847
$GPGGA,160509.00,3237.4016,N,11718.0421,W,1,10,1.0,11.6,M,-34.6,M,,*60
$PYRTM,2024,121.670269920127,12.779917330266
$GPGGA,160510.00,3237.4021,N,11718.0444,W,1,10,1.0,12.0,M,-34.6,M,,*6A
$PYRTM,2024,121.670281502118,12.779928912257
$GPGGA,160511.00,3237.4025,N,11718.0468,W,1,10,1.0,12.5,M,-34.6,M,,*64
$PYRTM,2024,121.670293066551,12.779940476690
$GPGGA,160512.00,3237.4030,N,11718.0495,W,1,10,1.0,12.6,M,-34.6,M,,*62
$PYRTM,2024,121.670300474907,12.779947885046
$GPGGA,160513.00,3237.4035,N,11718.0523,W,1,10,1.0,12.6,M,-34.6,M,,*6A
$PYRTM,2024,121.670316216285,12.779963626424
$GPGGA,160514.00,3237.4039,N,11718.0548,W,1,10,1.0,12.3,M,-34.6,M,,*69
$PYRTM,2024,121.670327803565,12.779975213704
$GPGGA,160515.00,3237.4042,N,11718.0571,W,1,10,1.0,12.5,M,-34.6,M,,*68
$PYRTM,2024,121.670335197581,12.779982607720
$GPGGA,160516.00,3237.4047,N,11718.0596,W,1,10,1.0,12.8,M,-34.6,M,,*6A
$PYRTM,2024,121.670353844896,12.780001255035
$GPGGA,160517.00,3237.4052,N,11718.0624,W,1,10,1.0,12.5,M,-34.6,M,,*68
$PYRTM,2024,121.670362512627,12.780009922778
$GPGGA,160518.00,3237.4057,N,11718.0650,W,1,10,1.0,12.2,M,-34.6,M,,*66
$PYRTM,2024,121.670374095648,12.780021505787
$GPGGA,160519.00,3237.4061,N,11718.0672,W,1,10,1.0,12.5,M,-34.6,M,,*65
$PYRTM,2024,121.670385661400,12.780033071539
$GPGGA,160520.00,3237.4066,N,11718.0695,W,1,10,1.0,13.2,M,-34.6,M,,*67
$PYRTM,2024,121.670397250417,12.780044660556
$GPGGA,160521.00,3237.4071,N,11718.0722,W,1,10,1.0,13.2,M,-34.6,M,,*6D
$PYRTM,2024,121.670404644630,12.780052054769
$GPGGA,160522.00,3237.4074,N,11718.0750,W,1,10,1.0,12.8,M,-34.6,M,,*65
$PYRTM,2024,121.670420398484,12.780067808623
$GPGGA,160523.00,3237.4077,N,11718.0774,W,1,10,1.0,12.6,M,-34.6,M,,*6F
$PYRTM,2024,121.670431957072,12.780079367211
$GPGGA,160524.00,3237.4082,N,11718.0796,W,1,10,1.0,12.9,M,-34.6,M,,*61
$PYRTM,2024,121.670443547951,12.780090958102
$GPGGA,160525.00,3237.4089,N,11718.0820,W,1,10,1.0,13.2,M,-34.6,M,,*63
$PYRTM,2024,121.670455104491,12.780102514630
$GPGGA,160526.00,3237.4096,N,11718.0847,W,1,10,1.0,12.8,M,-34.6,M,,*64
$PYRTM,2024,121.670466686863,12.780114097002
$GPGGA,160527.00,3237.4099,N,11718.0876,W,1,10,1.0,11.3,M,-34.6,M,,*60
$PYRTM,2024,121.670474103252,12.780121513403
$GPGGA,160528.00,3237.4100,N,11718.0901,W,1,10,1.0,11.5,M,-34.6,M,,*69
$PYRTM,2024,121.670489841319,12.780137251458
$GPGGA,160529.00,3237.4104,N,11718.0919,W,1,10,1.0,12.5,M,-34.6,M,,*66
$PYRTM,2024,121.670501402396,12.780148812535
$GPGGA,160530.00,3237.4113,N,11718.0941,W,1,10,1.0,13.5,M,-34.6,M,,*64
$PYRTM,2024,121.670512988773,12.780160398912
$GPGGA,160531.00,3237.4122,N,11718.0969,W,1,10,1.0,13.5,M,-34.6,M,,*6D
$PYRTM,2024,121.670524551690,12.780171961829
$GPGGA,160532.00,3237.4125,N,11718.0998,W,1,10,1.0,12.9,M,-34.6,M,,*6A
$PYRTM,2024,121.670536132176,12.780183542315
$GPGGA,160533.00,3237.4125,N,11718.1021,W,1,10,1.0,12.8,M,-34.6,M,,*60
$PYRTM,2024,121.670547700845,12.780195110984
$GPGGA,160534.00,3237.4128,N,11718.1043,W,1,10,1.0,13.2,M,-34.6,M,,*65
$PYRTM,2024,121.670559280116,12.780206690266
$GPGGA,160535.00,3237.4137,N,11718.1067,W,1,10,1.0,13.6,M,-34.6,M,,*68
$PYRTM,2024,121.670570847593,12.780218257731
$GPGGA,160536.00,3237.4146,N,11718.1096,W,1,10,1.0,13.0,M,-34.6,M,,*65
$PYRTM,2024,121.670582437130,12.780229847269
$GPGGA,160537.00,3237.4150,N,11718.1123,W,1,10,1.0,12.4,M,-34.6,M,,*69
$PYRTM,2024,121.670589828299,12.780237238438
$GPGGA,160538.00,3237.4150,N,11718.1144,W,1,10,1.0,12.8,M,-34.6,M,,*6B
$PYRTM,2024,121.670605584491,12.780252994630
$GPGGA,160539.00,3237.4152,N,11718.1163,W,1,10,1.0,13.8,M,-34.6,M,,*6C
$PYRTM,2024,121.670617141840,12.780264551979
$GPGGA,160540.00,3237.4158,N,11718.1187,W,1,10,1.0,14.6,M,-34.6,M,,*6B
$PYRTM,2024,121.670628732894,12.780276143032
$GPGGA,160541.00,3237.4166,N,11718.1214,W,1,10,1.0,14.1,M,-34.6,M,,*69
$PYRTM,2024,121.670640291123,12.780287701262
$GPGGA,160542.00,3237.4169,N,11718.1239,W,1,10,1.0,13.2,M,-34.6,M,,*6E
$PYRTM,2024,121.670651878194,12.780299288333
$GPGGA,160543.00,3237.4171,N,11718.1259,W,1,10,1.0,13.0,M,-34.6,M,,*62
$PYRTM,2024,121.670663440590,12.780310850729
$GPGGA,160544.00,3237.4173,N,11718.1282,W,1,10,1.0,13.1,M,-34.6,M,,*60
$PYRTM,2024,121.670675025613,12.780322435752
$GPGGA,160545.00,3237.4179,N,11718.1307,W,1,10,1.0,13.1,M,-34.6,M,,*67
$PYRTM,2024,121.670686588021,12.780333998160
$GPGGA,160546.00,3237.4185,N,11718.1333,W,1,10,1.0,13.2,M,-34.6,M,,*63
$PYRTM,2024,121.670693995035,12.780341405174
$GPGGA,160547.00,3237.4191,N,11718.1357,W,1,10,1.0,13.5,M,-34.6,M,,*62
$PYRTM,2024,121.670712629271,12.780360039410
$GPGGA,160548.00,3237.4194,N,11718.1380,W,1,10,1.0,14.0,M,-34.6,M,,*60
$PYRTM,2024,121.670721322975,12.780368733113
$GPGGA,160549.00,3237.4197,N,11718.1405,W,1,10,1.0,14.2,M,-34.6,M,,*6A
$PYRTM,2024,121.670732884630,12.780380294769
$GPGGA,160550.00,3237.4201,N,11718.1430,W,1,10,1.0,13.8,M,-34.6,M,,*65
$PYRTM,2024,121.670744471238,12.780391881377
$GPGGA,160551.00,3237.4205,N,11718.1455,W,1,10,1.0,13.2,M,-34.6,M,,*69
$PYRTM,2024,121.670756034190,12.780403444329
$GPGGA,160552.00,3237.4211,N,11718.1479,W,1,10,1.0,13.0,M,-34.6,M,,*63
$PYRTM,2024,121.670767622720,12.780415032859
$GPGGA,160553.00,3237.4216,N,11718.1501,W,1,10,1.0,13.1,M,-34.6,M,,*6A
$PYRTM,2024,121.670775016192,12.780422426331
$GPGGA,160554.00,3237.4220,N,11718.1526,W,1,10,1.0,13.2,M,-34.6,M,,*6E
$PYRTM,2024,121.670790770741,12.780438180880
$GPGGA,160555.00,3237.4224,N,11718.1554,W,1,10,1.0,13.0,M,-34.6,M,,*6C
$PYRTM,2024,121.670802330012,12.780449740150
$GPGGA,160556.00,3237.4228,N,11718.1580,W,1,10,1.0,12.9,M,-34.6,M,,*62
$PYRTM,2024,121.670813929699,12.780461339838
$GPGGA,160557.00,3237.4232,N,11718.1601,W,1,10,1.0,13.3,M,-34.6,M,,*69
$PYRTM,2024,121.670821309931,12.780468720069
$GPGGA,160558.00,3237.4239,N,11718.1620,W,1,10,1.0,14.0,M,-34.6,M,,*6A
$PYRTM,2024,121.670837064363,12.780484474502
$GPGGA,160559.00,3237.4245,N,11718.1644,W,1,10,1.0,13.6,M,-34.6,M,,*63
$PYRTM,2024,121.670844471505,12.780491881644
$GPGGA,160600.00,3237.4248,N,11718.1672,W,1,10,1.0,12.9,M,-34.6,M,,*6A
$PYRTM,2024,121.670856147870,12.780503558009
$GPGGA,160601.00,3237.4250,N,11718.1700,W,1,10,1.0,12.2,M,-34.6,M,,*6D
$PYRTM,2024,121.670871772512,12.780519182650
$GPGGA,160602.00,3237.4253,N,11718.1724,W,1,10,1.0,12.3,M,-34.6,M,,*6A
$PYRTM,2024,121.670883359618,12.780530769757
$GPGGA,160603.00,3237.4259,N,11718.1744,W,1,10,1.0,12.7,M,-34.6,M,,*63
$PYRTM,2024,121.670894921354,12.780542331493
$GPGGA,160604.00,3237.4267,N,11718.1766,W,1,10,1.0,13.6,M,-34.6,M,,*69
$PYRTM,2024,121.670906508275,12.780553918414
$GPGGA,160605.00,3237.4273,N,11718.1794,W,1,10,1.0,12.8,M,-34.6,M,,*6F
$PYRTM,2024,121.670913904144,12.780561314282
$GPGGA,160606.00,3237.4276,N,11718.1823,W,1,10,1.0,11.8,M,-34.6,M,,*69
$PYRTM,2024,121.670929657049,12.780577067187
$GPGGA,160607.00,3237.4278,N,11718.1846,W,1,10,1.0,11.7,M,-34.6,M,,*6A
$PYRTM,2024,121.670941219398,12.780588629537
$GPGGA,160608.00,3237.4282,N,11718.1865,W,1,10,1.0,12.1,M,-34.6,M,,*64
$PYRTM,2024,121.670952808958,12.780600219097
$GPGGA,160609.00,3237.4289,N,11718.1887,W,1,10,1.0,12.6,M,-34.6,M,,*65
$PYRTM,2024,121.670964366748,12.780611776887
$GPGGA,160610.00,3237.4296,N,11718.1913,W,1,10,1.0,12.4,M,-34.6,M,,*6D
$PYRTM,2024,121.670971774167,12.780619184306
$GPGGA,160611.00,3237.4300,N,11718.1939,W,1,10,1.0,12.0,M,-34.6,M,,*6E
$PYRTM,2024,121.670987514977,12.780634925116
$GPGGA,160612.00,3237.4302,N,11718.1961,W,1,10,1.0,11.7,M,-34.6,M,,*66
$PYRTM,2024,121.670999115590,12.780646525729
$GPGGA,160613.00,3237.4307,N,11718.1984,W,1,10,1.0,11.7,M,-34.6,M,,*69
$PYRTM,2024,121.671010663125,12.780658073264
$GPGGA,160614.00,3237.4314,N,11718.2010,W,1,10,1.0,11.5,M,-34.6,M,,*69
$PYRTM,2024,121.671022250498,12.780669660637
$GPGGA,160615.00,3237.4320,N,11718.2036,W,1,10,1.0,10.8,M,-34.6,M,,*67
$PYRTM,2024,121.671029658750,12.780677068889
$GPGGA,160616.00,3237.4324,N,11718.2059,W,1,10,1.0,10.9,M,-34.6,M,,*68
$PYRTM,2024,121.671045398275,12.780692808414
$GPGGA,160617.00,3237.4328,N,11718.2081,W,1,10,1.0,11.6,M,-34.6,M,,*6E
$PYRTM,2024,121.671052807998,12.780700218137
$GPGGA,160618.00,3237.4334,N,11718.2106,W,1,10,1.0,12.1,M,-34.6,M,,*66
$PYRTM,2024,121.671071440440,12.780718850579
$GPGGA,160619.00,3237.4339,N,11718.2132,W,1,10,1.0,11.2,M,-34.6,M,,*6D
$PYRTM,2024,121.671080109907,12.780727520046
$GPGGA,160620.00,3237.4343,N,11718.2158,W,1,10,1.0,12.0,M,-34.6,M,,*67
$PYRTM,2024,121.671087514630,12.780734924769
$GPGGA,160621.00,3237.4345,N,11718.2183,W,1,10,1.0,12.0,M,-34.6,M,,*66
$PYRTM,2024,121.671103257454,12.780750667593
$GPGGA,160622.00,3237.4350,N,11718.2207,W,1,10,1.0,12.5,M,-34.6,M,,*6B
$PYRTM,2024,121.671114843368,12.780762253507
$GPGGA,160623.00,3237.4356,N,11718.2230,W,1,10,1.0,13.1,M,-34.6,M,,*6D
$PYRTM,2024,121.671126405289,12.780773815428
$GPGGA,160624.00,3237.4361,N,11718.2257,W,1,10,1.0,13.3,M,-34.6,M,,*6D
$PYRTM,2024,121.671137991574,12.780785401713
$GPGGA,160625.00,3237.4365,N,11718.2287,W,1,10,1.0,12.9,M,-34.6,M,,*6E
$PYRTM,2024,121.671145386100,12.780792796238
$GPGGA,160626.00,3237.4369,N,11718.2313,W,1,10,1.0,12.8,M,-34.6,M,,*6C
$PYRTM,2024,121.671161153947,12.780808564086
$GPGGA,160627.00,3237.4373,N,11718.2334,W,1,10,1.0,13.2,M,-34.6,M,,*68
$PYRTM,2024,121.671172700648,12.780820110787
$GPGGA,160628.00,3237.4378,N,11718.2356,W,1,10,1.0,13.0,M,-34.6,M,,*6A
$PYRTM,2024,121.671184302650,12.780831712789
$GPGGA,160629.00,3237.4384,N,11718.2383,W,1,10,1.0,12.7,M,-34.6,M,,*66
$PYRTM,2024,121.671195849329,12.780843259479
$GPGGA,160630.00,3237.4390,N,11718.2409,W,1,10,1.0,12.0,M,-34.6,M,,*69
$PYRTM,2024,121.671207438704,12.780854848843
$GPGGA,160631.00,3237.4393,N,11718.2433,W,1,10,1.0,11.6,M,-34.6,M,,*67
$PYRTM,2024,121.671218997164,12.780866407303
$GPGGA,160632.00,3237.4397,N,11718.2456,W,1,10,1.0,11.7,M,-34.6,M,,*62
$PYRTM,2024,121.671230579340,12.780877989479
$GPGGA,160633.00,3237.4402,N,11718.2480,W,1,10,1.0,12.0,M,-34.6,M,,*67
$PYRTM,2024,121.671242145891,12.780889556030
$GPGGA,160634.00,3237.4408,N,11718.2504,W,1,10,1.0,12.5,M,-34.6,M,,*62
$PYRTM,2024,121.671253732882,12.780901143021
$GPGGA,160635.00,3237.4413,N,11718.2530,W,1,10,1.0,12.6,M,-34.6,M,,*6D
$PYRTM,2024,121.671261129560,12.780908539699
$GPGGA,160636.00,3237.4418,N,11718.2558,W,1,10,1.0,12.3,M,-34.6,M,,*6E
$PYRTM,2024,121.671276881366,12.780924291505
$GPGGA,160637.00,3237.4423,N,11718.2583,W,1,10,1.0,12.0,M,-34.6,M,,*62
$PYRTM,2024,121.671288452164,12.780935862303
$GPGGA,160638.00,3237.4427,N,11718.2605,W,1,10,1.0,12.4,M,-34.6,M,,*60
$PYRTM,2024,121.671295850359,12.780943260498
$GPGGA,160639.00,3237.4433,N,11718.2628,W,1,10,1.0,13.1,M,-34.6,M,,*6F
$PYRTM,2024,121.671311603715,12.780959013854
$GPGGA,160640.00,3237.4440,N,11718.2654,W,1,10,1.0,13.2,M,-34.6,M,,*6D
$PYRTM,2024,121.671323177836,12.780970587986
$GPGGA,160641.00,3237.4445,N,11718.2682,W,1,10,1.0,12.3,M,-34.6,M,,*62
$PYRTM,2024,121.671334747419,12.780982157558
$GPGGA,160642.00,3237.4447,N,11718.2709,W,1,10,1.0,11.8,M,-34.6,M,,*69
$PYRTM,2024,121.671346340509,12.780993750648
$GPGGA,160643.00,3237.4450,N,11718.2732,W,1,10,1.0,11.5,M,-34.6,M,,*6B
$PYRTM,2024,121.671353721366,12.781001131505
$GPGGA,160644.00,3237.4456,N,11718.2753,W,1,10,1.0,11.8,M,-34.6,M,,*60
$PYRTM,2024,121.671369477512,12.781016887650
$GPGGA,160645.00,3237.4463,N,11718.2779,W,1,10,1.0,12.5,M,-34.6,M,,*61
$PYRTM,2024,121.671381049190,12.781028459329
$GPGGA,160646.00,3237.4470,N,11718.2806,W,1,10,1.0,12.4,M,-34.6,M,,*66
$PYRTM,2024,121.671392623715,12.781040033854
$GPGGA,160647.00,3237.4473,N,11718.2831,W,1,10,1.0,12.3,M,-34.6,M,,*67
$PYRTM,2024,121.671404197049,12.781051607187
$GPGGA,160648.00,3237.4475,N,11718.2856,W,1,10,1.0,12.5,M,-34.6,M,,*69
$PYRTM,2024,121.671411591400,12.781059001539
$GPGGA,160649.00,3237.4481,N,11718.2880,W,1,10,1.0,12.3,M,-34.6,M,,*6E
$PYRTM,2024,121.671430226019,12.781077636157
$GPGGA,160650.00,3237.4487,N,11718.2906,W,1,10,1.0,12.5,M,-34.6,M,,*69
$PYRTM,2024,121.671438916470,12.781086326609
$GPGGA,160651.00,3237.4493,N,11718.2932,W,1,10,1.0,12.0,M,-34.6,M,,*6F
$PYRTM,2024,121.671446315579,12.781093725718
$GPGGA,160652.00,3237.4498,N,11718.2959,W,1,10,1.0,11.6,M,-34.6,M,,*6F
$PYRTM,2024,121.671462063229,12.781109473368
$GPGGA,160653.00,3237.4501,N,11718.2984,W,1,10,1.0,11.7,M,-34.6,M,,*6E
$PYRTM,2024,121.671473644988,12.781121055127
$GPGGA,160654.00,3237.4505,N,11718.3007,W,1,10,1.0,12.5,M,-34.6,M,,*6F
$PYRTM,2024,121.671485216829,12.781132626968
$GPGGA,160655.00,3237.4510,N,11718.3032,W,1,10,1.0,13.0,M,-34.6,M,,*68
$PYRTM,2024,121.671496790359,12.781144200498
$GPGGA,160656.00,3237.4516,N,11718.3059,W,1,10,1.0,12.9,M,-34.6,M,,*68
$PYRTM,2024,121.671504186019,12.781151596157
$GPGGA,160657.00,3237.4522,N,11718.3086,W,1,10,1.0,12.6,M,-34.6,M,,*63
$PYRTM,2024,121.671515874167,12.781163284306
$GPGGA,160658.00,3237.4526,N,11718.3111,W,1,10,1.0,12.1,M,-34.6,M,,*60
$PYRTM,2024,121.671531526204,12.781178936343
$GPGGA,160659.00,3237.4530,N,11718.3135,W,1,10,1.0,12.1,M,-34.6,M,,*60
$PYRTM,2024,121.671543081238,12.781190491377
$GPGGA,160700.00,3237.4534,N,11718.3160,W,1,10,1.0,12.5,M,-34.6,M,,*6D
$PYRTM,2024,121.671554663507,12.781202073646
$GPGGA,160701.00,3237.4540,N,11718.3185,W,1,10,1.0,13.0,M,-34.6,M,,*60
$PYRTM,2024,121.671566234259,12.781213644398
$GPGGA,160702.00,3237.4547,N,11718.3213,W,1,10,1.0,12.9,M,-34.6,M,,*60
$PYRTM,2024,121.671577805648,12.781225215787
$GPGGA,160703.00,3237.4551,N,11718.3240,W,1,10,1.0,12.3,M,-34.6,M,,*6A
$PYRTM,2024,121.671589383264,12.781236793403
$GPGGA,160704.00,3237.4553,N,11718.3264,W,1,10,1.0,12.5,M,-34.6,M,,*6F
$PYRTM,2024,121.671600958391,12.781248368530
$GPGGA,160705.00,3237.4557,N,11718.3289,W,1,10,1.0,12.3,M,-34.6,M,,*6F
$PYRTM,2024,121.671612530648,12.781259940787
$GPGGA,160706.00,3237.4564,N,11718.3315,W,1,10,1.0,11.7,M,-34.6,M,,*6F
$PYRTM,2024,121.671619926400,12.781267336539
$GPGGA,160707.00,3237.4571,N,11718.3340,W,1,10,1.0,11.6,M,-34.6,M,,*6B
$PYRTM,2024,121.671635681111,12.781283091250
$GPGGA,160708.00,3237.4577,N,11718.3364,W,1,10,1.0,11.7,M,-34.6,M,,*65
$PYRTM,2024,121.671647252847,12.781294662986
$GPGGA,160709.00,3237.4580,N,11718.3389,W,1,10,1.0,12.1,M,-34.6,M,,*6A
$PYRTM,2024,121.671658822025,12.781306232176
$GPGGA,160710.00,3237.4584,N,11718.3417,W,1,10,1.0,11.7,M,-34.6,M,,*63
$PYRTM,2024,121.671670403542,12.781317813692
$GPGGA,160711.00,3237.4589,N,11718.3445,W,1,10,1.0,11.3,M,-34.6,M,,*6C
$PYRTM,2024,121.671681970799,12.781329380937
$GPGGA,160712.00,3237.4595,N,11718.3470,W,1,10,1.0,11.4,M,-34.6,M,,*63
$PYRTM,2024,121.671693550035,12.781340960174
$GPGGA,160713.00,3237.4600,N,11718.3494,W,1,10,1.0,12.0,M,-34.6,M,,*60
$PYRTM,2024,121.671705124745,12.781352534884
$GPGGA,160714.00,3237.4603,N,11718.3520,W,1,10,1.0,12.3,M,-34.6,M,,*69
$PYRTM,2024,121.671716701829,12.781364111968
$GPGGA,160715.00,3237.4607,N,11718.3549,W,1,10,1.0,12.0,M,-34.6,M,,*60
$PYRTM,2024,121.671728273056,12.781375683194
$GPGGA,160716.00,3237.4611,N,11718.3576,W,1,10,1.0,11.8,M,-34.6,M,,*63
$PYRTM,2024,121.671735667442,12.781383077581
$GPGGA,160717.00,3237.4617,N,11718.3598,W,1,10,1.0,12.8,M,-34.6,M,,*67
$PYRTM,2024,121.671751421319,12.781398831458
$GPGGA,160718.00,3237.4623,N,11718.3622,W,1,10,1.0,13.6,M,-34.6,M,,*62
$PYRTM,2024,121.671762995787,12.781410405926
$GPGGA,160719.00,3237.4629,N,11718.3649,W,1,10,1.0,12.9,M,-34.6,M,,*6A
$PYRTM,2024,121.671770406030,12.781417816169
$GPGGA,160720.00,3237.4633,N,11718.3676,W,1,10,1.0,12.7,M,-34.6,M,,*69
$PYRTM,2024,121.671789036806,12.781436446944
$GPGGA,160721.00,3237.4637,N,11718.3702,W,1,10,1.0,12.5,M,-34.6,M,,*6C
$PYRTM,2024,121.671797712106,12.781445122245
$GPGGA,160722.00,3237.4641,N,11718.3726,W,1,10,1.0,12.7,M,-34.6,M,,*6A
$PYRTM,2024,121.671809292801,12.781456702940
$GPGGA,160723.00,3237.4648,N,11718.3751,W,1,10,1.0,12.8,M,-34.6,M,,*6D
$PYRTM,2024,121.671820865231,12.781468275370
$GPGGA,160724.00,3237.4654,N,11718.3777,W,1,10,1.0,12.4,M,-34.6,M,,*6F
$PYRTM,2024,121.671832435046,12.781479845185
$GPGGA,160725.00,3237.4659,N,11718.3804,W,1,10,1.0,11.9,M,-34.6,M,,*66
$PYRTM,2024,121.671844010556,12.781491420694
$GPGGA,160726.00,3237.4662,N,11718.3828,W,1,10,1.0,11.9,M,-34.6,M,,*63
$PYRTM,2024,121.671855591655,12.781503001794
$GPGGA,160727.00,3237.4667,N,11718.3851,W,1,10,1.0,12.1,M,-34.6,M,,*62
$PYRTM,2024,121.671867160752,12.781514570891
$GPGGA,160728.00,3237.4673,N,11718.3877,W,1,10,1.0,12.2,M,-34.6,M,,*6F
$PYRTM,2024,121.671878731030,12.781526141169
$GPGGA,160729.00,3237.4679,N,11718.3904,W,1,10,1.0,11.9,M,-34.6,M,,*69
$PYRTM,2024,121.671886131586,12.781533541725
$GPGGA,160730.00,3237.4683,N,11718.3930,W,1,10,1.0,11.7,M,-34.6,M,,*6D
$PYRTM,2024,121.671901889583,12.781549299722
$GPGGA,160731.00,3237.4689,N,11718.3953,W,1,10,1.0,12.5,M,-34.6,M,,*62
$PYRTM,2024,121.671909279803,12.781556689942
$GPGGA,160732.00,3237.4695,N,11718.3976,W,1,10,1.0,14.0,M,-34.6,M,,*68
$PYRTM,2024,121.671925036759,12.781572446898
$GPGGA,160733.00,3237.4701,N,11718.4003,W,1,10,1.0,13.7,M,-34.6,M,,*69
$PYRTM,2024,121.671936607141,12.781584017269
$GPGGA,160734.00,3237.4706,N,11718.4031,W,1,10,1.0,12.5,M,-34.6,M,,*6B
$PYRTM,2024,121.671948180822,12.781595590961
$GPGGA,160735.00,3237.4709,N,11718.4057,W,1,10,1.0,12.0,M,-34.6,M,,*60
$PYRTM,2024,121.671959755208,12.781607165347
$GPGGA,160736.00,3237.4715,N,11718.4080,W,1,10,1.0,12.5,M,-34.6,M,,*61
$PYRTM,2024,121.671967150880,12.781614561019
$GPGGA,160737.00,3237.4721,N,11718.4103,W,1,10,1.0,13.4,M,-34.6,M,,*6D
$PYRTM,2024,121.671982904850,12.781630314988
$GPGGA,160738.00,3237.4727,N,11718.4130,W,1,10,1.0,13.5,M,-34.6,M,,*65
$PYRTM,2024,121.671994479491,12.781641889630
$GPGGA,160739.00,3237.4732,N,11718.4156,W,1,10,1.0,13.4,M,-34.6,M,,*61
$PYRTM,2024,121.672001884745,12.781649294884
$GPGGA,160740.00,3237.4736,N,11718.4182,W,1,10,1.0,13.5,M,-34.6,M,,*63
$PYRTM,2024,121.672017625058,12.781665035208
$GPGGA,160741.00,3237.4740,N,11718.4208,W,1,10,1.0,13.4,M,-34.6,M,,*63
$PYRTM,2024,121.672029195671,12.781676605810
$GPGGA,160742.00,3237.4745,N,11718.4235,W,1,10,1.0,13.3,M,-34.6,M,,*6C
$PYRTM,2024,121.672040773600,12.781688183750
$GPGGA,160743.00,3237.4752,N,11718.4260,W,1,10,1.0,13.0,M,-34.6,M,,*68
$PYRTM,2024,121.672052348681,12.781699758819
$GPGGA,160744.00,3237.4757,N,11718.4285,W,1,10,1.0,13.0,M,-34.6,M,,*61
$PYRTM,2024,121.672059742257,12.781707152396
$GPGGA,160745.00,3237.4761,N,11718.4309,W,1,10,1.0,13.3,M,-34.6,M,,*63
$PYRTM,2024,121.672075496053,12.781722906192
$GPGGA,160746.00,3237.4766,N,11718.4336,W,1,10,1.0,13.5,M,-34.6,M,,*6D
$PYRTM,2024,121.672087095926,12.781734506065
$GPGGA,160747.00,3237.4771,N,11718.4364,W,1,10,1.0,13.4,M,-34.6,M,,*6C
$PYRTM,2024,121.672098644329,12.781746054479
$GPGGA,160748.00,3237.4777,N,11718.4389,W,1,10,1.0,13.3,M,-34.6,M,,*61
$PYRTM,2024,121.672110229248,12.781757639387
$GPGGA,160749.00,3237.4782,N,11718.4413,W,1,10,1.0,13.5,M,-34.6,M,,*68
$PYRTM,2024,121.672121794005,12.781769204144
$GPGGA,160750.00,3237.4786,N,11718.4438,W,1,10,1.0,13.7,M,-34.6,M,,*6F
$PYRTM,2024,121.672129188241,12.781776598380
$GPGGA,160751.00,3237.4791,N,11718.4467,W,1,10,1.0,14.0,M,-34.6,M,,*62
$PYRTM,2024,121.672147834387,12.781795244525
$GPGGA,160752.00,3237.4797,N,11718.4493,W,1,10,1.0,14.0,M,-34.6,M,,*6C
$PYRTM,2024,121.672156514931,12.781803925069
$GPGGA,160753.00,3237.4802,N,11718.4516,W,1,10,1.0,14.2,M,-34.6,M,,*60
$PYRTM,2024,121.672168091609,12.781815501748
$GPGGA,160754.00,3237.4806,N,11718.4541,W,1,10,1.0,14.4,M,-34.6,M,,*67
$PYRTM,2024,121.672175484884,12.781822895023
$GPGGA,160755.00,3237.4811,N,11718.4569,W,1,10,1.0,14.1,M,-34.6,M,,*6F
$PYRTM,2024,121.672191239051,12.781838649190
$GPGGA,160756.00,3237.4816,N,11718.4598,W,1,10,1.0,13.6,M,-34.6,M,,*65
$PYRTM,2024,121.672202811400,12.781850221539
$GPGGA,160757.00,3237.4820,N,11718.4622,W,1,10,1.0,13.6,M,-34.6,M,,*63
$PYRTM,2024,121.672214387280,12.781861797419
$GPGGA,160758.00,3237.4826,N,11718.4644,W,1,10,1.0,14.2,M,-34.6,M,,*69
$PYRTM,2024,121.672225960069,12.781873370208
$GPGGA,160759.00,3237.4832,N,11718.4669,W,1,10,1.0,14.7,M,-34.6,M,,*67
$PYRTM,2024,121.672233361273,12.781880771412
$GPGGA,160800.00,3237.4837,N,11718.4695,W,1,10,1.0,14.8,M,-34.6,M,,*6D
$PYRTM,2024,121.672249108472,12.781896518611
$GPGGA,160801.00,3237.4841,N,11718.4724,W,1,10,1.0,13.9,M,-34.6,M,,*60
$PYRTM,2024,121.672256511192,12.781903921331
$GPGGA,160802.00,3237.4845,N,11718.4750,W,1,10,1.0,12.9,M,-34.6,M,,*65
$PYRTM,2024,121.672275146007,12.781922556157
$GPGGA,160803.00,3237.4851,N,11718.4772,W,1,10,1.0,13.1,M,-34.6,M,,*68
$PYRTM,2024,121.672286723958,12.781934134097
$GPGGA,160804.00,3237.4857,N,11718.4794,W,1,10,1.0,13.6,M,-34.6,M,,*66
$PYRTM,2024,121.672295412060,12.781942822211
$GPGGA,160805.00,3237.4863,N,11718.4821,W,1,10,1.0,13.3,M,-34.6,M,,*64
$PYRTM,2024,121.672307018600,12.781954428738
$GPGGA,160806.00,3237.4868,N,11718.4850,W,1,10,1.0,12.9,M,-34.6,M,,*61
$PYRTM,2024,121.672318561169,12.781965971308
$GPGGA,160807.00,3237.4872,N,11718.4875,W,1,10,1.0,13.0,M,-34.6,M,,*64
$PYRTM,2024,121.672325954225,12.781973364363
$GPGGA,160808.00,3237.4877,N,11718.4898,W,1,10,1.0,13.6,M,-34.6,M,,*6B
$PYRTM,2024,121.672341701019,12.781989111157
$GPGGA,160809.00,3237.4883,N,11718.4923,W,1,10,1.0,14.2,M,-34.6,M,,*63
$PYRTM,2024,121.672353275903,12.782000686042
$GPGGA,160810.00,3237.4889,N,11718.4950,W,1,10,1.0,14.4,M,-34.6,M,,*63
$PYRTM,2024,121.672364861366,12.782012271505
$GPGGA,160811.00,3237.4893,N,11718.4976,W,1,10,1.0,14.3,M,-34.6,M,,*6A
$PYRTM,2024,121.672376427593,12.782023837731
$GPGGA,160812.00,3237.4897,N,11718.5003,W,1,10,1.0,14.0,M,-34.6,M,,*64
$PYRTM,2024,121.672387997963,12.782035408102
$GPGGA,160813.00,3237.4902,N,11718.5030,W,1,10,1.0,13.3,M,-34.6,M,,*6C
$PYRTM,2024,121.672399571968,12.782046982106
$GPGGA,160814.00,3237.4908,N,11718.5053,W,1,10,1.0,13.7,M,-34.6,M,,*60
$PYRTM,2024,121.672411146377,12.782058556516
$GPGGA,160815.00,3237.4915,N,11718.5075,W,1,10,1.0,15.0,M,-34.6,M,,*68
$PYRTM,2024,121.672422720382,12.782070130521
$GPGGA,160816.00,3237.4921,N,11718.5101,W,1,10,1.0,14.9,M,-34.6,M,,*66
$PYRTM,2024,121.672434294109,12.782081704248
$GPGGA,160817.00,3237.4925,N,11718.5129,W,1,10,1.0,14.5,M,-34.6,M,,*65
$PYRTM,2024,121.672445869502,12.782093279641
$GPGGA,160818.00,3237.4928,N,11718.5158,W,1,10,1.0,13.1,M,-34.6,M,,*62
$PYRTM,2024,121.672457450405,12.782104860544
$GPGGA,160819.00,3237.4931,N,11718.5184,W,1,10,1.0,11.6,M,-34.6,M,,*6F
$PYRTM,2024,121.672469017755,12.782116427894
$GPGGA,160820.00,3237.4939,N,11718.5203,W,1,10,1.0,12.2,M,-34.6,M,,*66
$PYRTM,2024,121.672480599792,12.782128009942
$GPGGA,160821.00,3237.4947,N,11718.5223,W,1,10,1.0,12.3,M,-34.6,M,,*6D
$PYRTM,2024,121.672487992905,12.782135403056
$GPGGA,160822.00,3237.4953,N,11718.5251,W,1,10,1.0,12.0,M,-34.6,M,,*6D
$PYRTM,2024,121.672506636296,12.782154046435
$GPGGA,160823.00,3237.4955,N,11718.5280,W,1,10,1.0,12.2,M,-34.6,M,,*64
$PYRTM,2024,121.672515315000,12.782162725139
$GPGGA,160824.00,3237.4958,N,11718.5305,W,1,10,1.0,12.2,M,-34.6,M,,*62
$PYRTM,2024,121.672526899144,12.782174309294
$GPGGA,160825.00,3237.4965,N,11718.5329,W,1,10,1.0,12.0,M,-34.6,M,,*61
$PYRTM,2024,121.672534297650,12.782181707789
$GPGGA,160826.00,3237.4972,N,11718.5355,W,1,10,1.0,12.0,M,-34.6,M,,*6F
$PYRTM,2024,121.672550036296,12.782197446447
$GPGGA,160827.00,3237.4977,N,11718.5379,W,1,10,1.0,12.0,M,-34.6,M,,*65
$PYRTM,2024,121.672561609815,12.782209019954
$GPGGA,160828.00,3237.4982,N,11718.5405,W,1,10,1.0,12.1,M,-34.6,M,,*6D
$PYRTM,2024,121.672573184236,12.782220594375
$GPGGA,160829.00,3237.4986,N,11718.5432,W,1,10,1.0,12.4,M,-34.6,M,,*69
$PYRTM,2024,121.672584760706,12.782232170845
$GPGGA,160830.00,3237.4991,N,11718.5457,W,1,10,1.0,12.6,M,-34.6,M,,*66
$PYRTM,2024,121.672592152766,12.782239562905
$GPGGA,160831.00,3237.4997,N,11718.5483,W,1,10,1.0,13.1,M,-34.6,M,,*6E
$PYRTM,2024,121.672607902164,12.782255312315
$GPGGA,160832.00,3237.5004,N,11718.5510,W,1,10,1.0,12.9,M,-34.6,M,,*6D
$PYRTM,2024,121.672619480613,12.782266890752
$GPGGA,160833.00,3237.5009,N,11718.5536,W,1,10,1.0,13.3,M,-34.6,M,,*6E
$PYRTM,2024,121.672631057083,12.782278467222
$GPGGA,160834.00,3237.5013,N,11718.5558,W,1,10,1.0,13.8,M,-34.6,M,,*61
$PYRTM,2024,121.672638450370,12.782285860509
$GPGGA,160835.00,3237.5018,N,11718.5584,W,1,10,1.0,13.9,M,-34.6,M,,*6B
$PYRTM,2024,121.672654202523,12.782301612662
