$PYRTM,2024,124.416681736204,15.526329146331
$GPGGA,100000.00,3525.7697,N,12140.8743,W,1,09,0.8,9.4,M,-31.9,M,,*55
$PYRTM,2024,124.416693327465,15.526340737604
$GPGGA,100001.00,3525.7708,N,12140.8746,W,1,09,0.8,9.3,M,-31.9,M,,*51
$PYRTM,2024,124.416700732037,15.526348142176
$GPGGA,100002.00,3525.7716,N,12140.8757,W,1,09,0.8,9.4,M,-31.9,M,,*5A
$PYRTM,2024,124.416716583345,15.526363993484
$GPGGA,100003.00,3525.7724,N,12140.8767,W,1,09,0.8,9.6,M,-31.9,M,,*5B
$PYRTM,2024,124.416728149595,15.526375559734
$GPGGA,100004.00,3525.7734,N,12140.8773,W,1,09,0.8,9.7,M,-31.9,M,,*59
$PYRTM,2024,124.416739616470,15.526387026609
$GPGGA,100005.00,3525.7746,N,12140.8774,W,1,09,0.8,9.7,M,-31.9,M,,*5A
$PYRTM,2024,124.416754076736,15.526401486875
$GPGGA,100006.00,3525.7756,N,12140.8778,W,1,09,0.8,9.4,M,-31.9,M,,*57
$PYRTM,2024,124.416765662986,15.526413073125
$GPGGA,100007.00,3525.7764,N,12140.8786,W,1,09,0.8,9.5,M,-31.9,M,,*57
$PYRTM,2024,124.416774356100,15.526421766238
$GPGGA,100008.00,3525.7772,N,12140.8796,W,1,09,0.8,9.7,M,-31.9,M,,*5C
$PYRTM,2024,124.416781737604,15.526429147743
$GPGGA,100009.00,3525.7784,N,12140.8802,W,1,09,0.8,9.5,M,-31.9,M,,*54
$PYRTM,2024,124.416800373611,15.526447783750
$GPGGA,100010.00,3525.7794,N,12140.8807,W,1,09,0.8,9.4,M,-31.9,M,,*59
$PYRTM,2024,124.416809069120,15.526456479259
$GPGGA,100011.00,3525.7802,N,12140.8811,W,1,09,0.8,9.6,M,-31.9,M,,*5D
$PYRTM,2024,124.416820629398,15.526468039537
$GPGGA,100012.00,3525.7811,N,12140.8817,W,1,09,0.8,9.9,M,-31.9,M,,*55
$PYRTM,2024,124.416832217685,15.526479627824
$GPGGA,100013.00,3525.7822,N,12140.8824,W,1,09,0.8,9.7,M,-31.9,M,,*5A
$PYRTM,2024,124.416843776782,15.526491186921
$GPGGA,100014.00,3525.7833,N,12140.8829,W,1,09,0.8,9.6,M,-31.9,M,,*51
$PYRTM,2024,124.416851183530,15.526498593669
$GPGGA,100015.00,3525.7840,N,12140.8835,W,1,09,0.8,9.9,M,-31.9,M,,*56
$PYRTM,2024,124.416866926424,15.526514336563
$GPGGA,100016.00,3525.7849,N,12140.8842,W,1,09,0.8,9.9,M,-31.9,M,,*5C
$PYRTM,2024,124.416878513183,15.526525923322
$GPGGA,100017.00,3525.7861,N,12140.8850,W,1,09,0.8,9.3,M,-31.9,M,,*5E
$PYRTM,2024,124.416890071424,15.526537481563
$GPGGA,100018.00,3525.7870,N,12140.8857,W,1,09,0.8,9.0,M,-31.9,M,,*55
$PYRTM,2024,124.416901658947,15.526549069086
$GPGGA,100019.00,3525.7878,N,12140.8859,W,1,09,0.8,9.8,M,-31.9,M,,*5A
$PYRTM,2024,124.416913221782,15.526560631921
$GPGGA,100020.00,3525.7887,N,12140.8861,W,1,09,0.8,10.4,M,-31.9,M,,*6F
$PYRTM,2024,124.416924807431,15.526572217569
$GPGGA,100021.00,3525.7899,N,12140.8866,W,1,09,0.8,10.7,M,-31.9,M,,*65
$PYRTM,2024,124.416932203738,15.526579613877
$GPGGA,100022.00,3525.7908,N,12140.8876,W,1,09,0.8,9.7,M,-31.9,M,,*56
$PYRTM,2024,124.416947958264,15.526595368403
$GPGGA,100023.00,3525.7913,N,12140.8887,W,1,09,0.8,9.4,M,-31.9,M,,*50
$PYRTM,2024,124.416959516620,15.526606926759
$GPGGA,100024.00,3525.7919,N,12140.8893,W,1,09,0.8,9.5,M,-31.9,M,,*59
$PYRTM,2024,124.416971128264,15.526618538403
$GPGGA,100025.00,3525.7928,N,12140.8893,W,1,09,0.8,9.9,M,-31.9,M,,*56
$PYRTM,2024,124.416978500139,15.526625910278
$GPGGA,100026.00,3525.7939,N,12140.8891,W,1,09,0.8,10.2,M,-31.9,M,,*64
$PYRTM,2024,124.416994267269,15.526641677407
$GPGGA,100027.00,3525.7950,N,12140.8898,W,1,09,0.8,9.9,M,-31.9,M,,*50
$PYRTM,2024,124.417005816690,15.526653226829
$GPGGA,100028.00,3525.7958,N,12140.8913,W,1,09,0.8,9.0,M,-31.9,M,,*5C
$PYRTM,2024,124.417017400787,15.526664810926
$GPGGA,100029.00,3525.7964,N,12140.8927,W,1,09,0.8,8.6,M,-31.9,M,,*52
$PYRTM,2024,124.417028962442,15.526676372581
$GPGGA,100030.00,3525.7972,N,12140.8931,W,1,09,0.8,9.0,M,-31.9,M,,*5D
$PYRTM,2024,124.417040544259,15.526687954398
$GPGGA,100031.00,3525.7983,N,12140.8927,W,1,09,0.8,9.7,M,-31.9,M,,*52
$PYRTM,2024,124.417052111215,15.526699521354
$GPGGA,100032.00,3525.7995,N,12140.8927,W,1,09,0.8,10.0,M,-31.9,M,,*69
$PYRTM,2024,124.417059518137,15.526706928275
$GPGGA,100033.00,3525.8006,N,12140.8938,W,1,09,0.8,9.7,M,-31.9,M,,*55
$PYRTM,2024,124.417075258356,15.526722668495
$GPGGA,100034.00,3525.8013,N,12140.8954,W,1,09,0.8,9.2,M,-31.9,M,,*59
$PYRTM,2024,124.417082665741,15.526730075880
$GPGGA,100035.00,3525.8021,N,12140.8964,W,1,09,0.8,8.4,M,-31.9,M,,*5D
$PYRTM,2024,124.417098408611,15.526745818750
$GPGGA,100036.00,3525.8031,N,12140.8964,W,1,09,0.8,8.8,M,-31.9,M,,*53
$PYRTM,2024,124.417109990382,15.526757400521
$GPGGA,100037.00,3525.8042,N,12140.8962,W,1,09,0.8,8.8,M,-31.9,M,,*50
$PYRTM,2024,124.417121555914,15.526768966053
$GPGGA,100038.00,3525.8053,N,12140.8968,W,1,09,0.8,9.1,M,-31.9,M,,*5D
$PYRTM,2024,124.417133156794,15.526780566933
$GPGGA,100039.00,3525.8061,N,12140.8980,W,1,09,0.8,8.9,M,-31.9,M,,*52
$PYRTM,2024,124.417140538345,15.526787948484
$GPGGA,100040.00,3525.8066,N,12140.8990,W,1,09,0.8,9.0,M,-31.9,M,,*52
$PYRTM,2024,124.417159187627,15.526806597766
$GPGGA,100041.00,3525.8075,N,12140.8995,W,1,09,0.8,9.0,M,-31.9,M,,*54
$PYRTM,2024,124.417167851898,15.526815262037
$GPGGA,100042.00,3525.8087,N,12140.8998,W,1,09,0.8,8.4,M,-31.9,M,,*52
$PYRTM,2024,124.417179438762,15.526826848900
$GPGGA,100043.00,3525.8098,N,12140.9003,W,1,09,0.8,7.9,M,-31.9,M,,*55
$PYRTM,2024,124.417191002072,15.526838412211
$GPGGA,100044.00,3525.8105,N,12140.9010,W,1,09,0.8,8.3,M,-31.9,M,,*50
$PYRTM,2024,124.417202590729,15.526850000868
$GPGGA,100045.00,3525.8111,N,12140.9017,W,1,09,0.8,9.2,M,-31.9,M,,*53
$PYRTM,2024,124.417214150648,15.526861560787
$GPGGA,100046.00,3525.8123,N,12140.9023,W,1,09,0.8,9.3,M,-31.9,M,,*57
$PYRTM,2024,124.417225730914,15.526873141053
$GPGGA,100047.00,3525.8135,N,12140.9028,W,1,09,0.8,8.7,M,-31.9,M,,*5F
$PYRTM,2024,124.417237295602,15.526884705741
$GPGGA,100048.00,3525.8143,N,12140.9035,W,1,09,0.8,8.7,M,-31.9,M,,*5D
$PYRTM,2024,124.417244703171,15.526892113310
$GPGGA,100049.00,3525.8148,N,12140.9043,W,1,09,0.8,9.1,M,-31.9,M,,*51
$PYRTM,2024,124.417260445706,15.526907855845
$GPGGA,100050.00,3525.8157,N,12140.9050,W,1,09,0.8,9.3,M,-31.9,M,,*57
$PYRTM,2024,124.417272031481,15.526919441620
$GPGGA,100051.00,3525.8170,N,12140.9054,W,1,09,0.8,9.0,M,-31.9,M,,*54
$PYRTM,2024,124.417283592928,15.526931003079
$GPGGA,100052.00,3525.8181,N,12140.9054,W,1,09,0.8,8.8,M,-31.9,M,,*50
$PYRTM,2024,124.417295194398,15.526942604537
$GPGGA,100053.00,3525.8189,N,12140.9059,W,1,09,0.8,9.1,M,-31.9,M,,*5C
$PYRTM,2024,124.417302574803,15.526949984931
$GPGGA,100054.00,3525.8197,N,12140.9071,W,1,09,0.8,9.0,M,-31.9,M,,*5F
$PYRTM,2024,124.417314741007,15.526962151146
$GPGGA,100055.00,3525.8204,N,12140.9081,W,1,09,0.8,8.8,M,-31.9,M,,*51
$PYRTM,2024,124.417329889352,15.526977299491
$GPGGA,100056.00,3525.8210,N,12140.9083,W,1,09,0.8,9.2,M,-31.9,M,,*5E
$PYRTM,2024,124.417341478391,15.526988888530
$GPGGA,100057.00,3525.8220,N,12140.9083,W,1,09,0.8,9.2,M,-31.9,M,,*5C
$PYRTM,2024,124.417353039502,15.527000449653
$GPGGA,100058.00,3525.8231,N,12140.9088,W,1,09,0.8,8.8,M,-31.9,M,,*53
$PYRTM,2024,124.417364625625,15.527012035764
$GPGGA,100059.00,3525.8239,N,12140.9099,W,1,09,0.8,8.1,M,-31.9,M,,*53
$PYRTM,2024,124.417376187986,15.527023598125
$GPGGA,100100.00,3525.8241,N,12140.9109,W,1,09,0.8,8.6,M,-31.9,M,,*5E
$PYRTM,2024,124.417383593484,15.527031003623
$GPGGA,100101.00,3525.8246,N,12140.9112,W,1,09,0.8,9.7,M,-31.9,M,,*52
$PYRTM,2024,124.417399337280,15.527046747419
$GPGGA,100102.00,3525.8257,N,12140.9112,W,1,09,0.8,10.2,M,-31.9,M,,*6C
$PYRTM,2024,124.417410918125,15.527058328264
$GPGGA,100103.00,3525.8270,N,12140.9117,W,1,09,0.8,9.6,M,-31.9,M,,*51
$PYRTM,2024,124.417418317477,15.527065727616
$GPGGA,100104.00,3525.8277,N,12140.9127,W,1,09,0.8,9.1,M,-31.9,M,,*55
$PYRTM,2024,124.417434070671,15.527081480810
$GPGGA,100105.00,3525.8281,N,12140.9134,W,1,09,0.8,9.4,M,-31.9,M,,*5A
$PYRTM,2024,124.417445634132,15.527093044271
$GPGGA,100106.00,3525.8287,N,12140.9137,W,1,09,0.8,9.9,M,-31.9,M,,*51
$PYRTM,2024,124.417457221887,15.527104632025
$GPGGA,100107.00,3525.8298,N,12140.9138,W,1,09,0.8,10.0,M,-31.9,M,,*60
$PYRTM,2024,124.417468781400,15.527116191539
$GPGGA,100108.00,3525.8309,N,12140.9141,W,1,09,0.8,9.6,M,-31.9,M,,*56
$PYRTM,2024,124.417480381551,15.527127791690
$GPGGA,100109.00,3525.8317,N,12140.9148,W,1,09,0.8,9.3,M,-31.9,M,,*54
$PYRTM,2024,124.417491928252,15.527139338391
$GPGGA,100110.00,3525.8322,N,12140.9157,W,1,09,0.8,9.1,M,-31.9,M,,*56
$PYRTM,2024,124.417499335359,15.527146745498
$GPGGA,100111.00,3525.8329,N,12140.9164,W,1,09,0.8,9.0,M,-31.9,M,,*5D
$PYRTM,2024,124.417517969722,15.527165379861
$GPGGA,100112.00,3525.8337,N,12140.9166,W,1,09,0.8,9.2,M,-31.9,M,,*51
$PYRTM,2024,124.417529571759,15.527176981898
$GPGGA,100113.00,3525.8346,N,12140.9167,W,1,09,0.8,9.4,M,-31.9,M,,*51
$PYRTM,2024,124.417541119167,15.527188529306
$GPGGA,100114.00,3525.8354,N,12140.9172,W,1,09,0.8,9.7,M,-31.9,M,,*52
$PYRTM,2024,124.417549812847,15.527197222986
$GPGGA,100115.00,3525.8360,N,12140.9182,W,1,09,0.8,9.5,M,-31.9,M,,*59
$PYRTM,2024,124.417561373461,15.527208783600
$GPGGA,100116.00,3525.8369,N,12140.9193,W,1,09,0.8,8.9,M,-31.9,M,,*5E
$PYRTM,2024,124.417572961319,15.527220371458
$GPGGA,100117.00,3525.8377,N,12140.9198,W,1,09,0.8,8.6,M,-31.9,M,,*54
$PYRTM,2024,124.417584522361,15.527231932500
$GPGGA,100118.00,3525.8385,N,12140.9199,W,1,09,0.8,9.2,M,-31.9,M,,*52
$PYRTM,2024,124.417596109769,15.527243519907
$GPGGA,100119.00,3525.8394,N,12140.9200,W,1,09,0.8,9.8,M,-31.9,M,,*5A
$PYRTM,2024,124.417607671458,15.527255081597
$GPGGA,100120.00,3525.8404,N,12140.9207,W,1,09,0.8,9.6,M,-31.9,M,,*57
$PYRTM,2024,124.417619260926,15.527266671065
$GPGGA,100121.00,3525.8415,N,12140.9217,W,1,09,0.8,9.0,M,-31.9,M,,*51
$PYRTM,2024,124.417630818356,15.527278228495
$GPGGA,100122.00,3525.8422,N,12140.9224,W,1,09,0.8,9.0,M,-31.9,M,,*56
$PYRTM,2024,124.417638225671,15.527285635810
$GPGGA,100123.00,3525.8427,N,12140.9229,W,1,09,0.8,9.6,M,-31.9,M,,*59
$PYRTM,2024,124.417653965602,15.527301375741
$GPGGA,100124.00,3525.8436,N,12140.9233,W,1,09,0.8,10.0,M,-31.9,M,,*6B
$PYRTM,2024,124.417665553137,15.527312963275
$GPGGA,100125.00,3525.8448,N,12140.9238,W,1,09,0.8,9.4,M,-31.9,M,,*54
$PYRTM,2024,124.417672962986,15.527320373125
$GPGGA,100126.00,3525.8459,N,12140.9245,W,1,09,0.8,8.6,M,-31.9,M,,*5E
$PYRTM,2024,124.417684638935,15.527332049074
$GPGGA,100127.00,3525.8466,N,12140.9253,W,1,09,0.8,8.5,M,-31.9,M,,*57
$PYRTM,2024,124.417700263750,15.527347673889
$GPGGA,100128.00,3525.8470,N,12140.9259,W,1,09,0.8,9.2,M,-31.9,M,,*53
$PYRTM,2024,124.417707669375,15.527355079514
$GPGGA,100129.00,3525.8478,N,12140.9263,W,1,09,0.8,9.9,M,-31.9,M,,*58
$PYRTM,2024,124.417723412164,15.527370822303
$GPGGA,100130.00,3525.8489,N,12140.9268,W,1,09,0.8,9.8,M,-31.9,M,,*54
$PYRTM,2024,124.417735000093,15.527382410231
$GPGGA,100131.00,3525.8500,N,12140.9275,W,1,09,0.8,8.8,M,-31.9,M,,*58
$PYRTM,2024,124.417746560521,15.527393970660
$GPGGA,100132.00,3525.8507,N,12140.9285,W,1,09,0.8,8.1,M,-31.9,M,,*5A
$PYRTM,2024,124.417758147072,15.527405557211
$GPGGA,100133.00,3525.8513,N,12140.9292,W,1,09,0.8,8.5,M,-31.9,M,,*5C
$PYRTM,2024,124.417769710208,15.527417120347
$GPGGA,100134.00,3525.8520,N,12140.9294,W,1,09,0.8,9.4,M,-31.9,M,,*5D
$PYRTM,2024,124.417781527720,15.527428937859
$GPGGA,100135.00,3525.8531,N,12140.9296,W,1,09,0.8,9.8,M,-31.9,M,,*52
$PYRTM,2024,124.417792855336,15.527440265475
$GPGGA,100136.00,3525.8542,N,12140.9304,W,1,09,0.8,9.3,M,-31.9,M,,*54
$PYRTM,2024,124.417804446377,15.527451856516
$GPGGA,100137.00,3525.8551,N,12140.9315,W,1,09,0.8,8.9,M,-31.9,M,,*5C
$PYRTM,2024,124.417811838785,15.527459248935
$GPGGA,100138.00,3525.8558,N,12140.9324,W,1,09,0.8,8.9,M,-31.9,M,,*58
$PYRTM,2024,124.417827594132,15.527475004271
$GPGGA,100139.00,3525.8568,N,12140.9330,W,1,09,0.8,9.1,M,-31.9,M,,*56
$PYRTM,2024,124.417839152870,15.527486563009
$GPGGA,100140.00,3525.8578,N,12140.9332,W,1,09,0.8,9.2,M,-31.9,M,,*58
$PYRTM,2024,124.417846560012,15.527493970150
$GPGGA,100141.00,3525.8587,N,12140.9335,W,1,09,0.8,9.6,M,-31.9,M,,*5A
$PYRTM,2024,124.417858265729,15.527505675868
$GPGGA,100142.00,3525.8596,N,12140.9343,W,1,09,0.8,9.5,M,-31.9,M,,*5B
$PYRTM,2024,124.417876777141,15.527524187280
$GPGGA,100143.00,3525.8605,N,12140.9354,W,1,09,0.8,9.0,M,-31.9,M,,*50
$PYRTM,2024,124.417885449745,15.527532859884
$GPGGA,100144.00,3525.8612,N,12140.9363,W,1,09,0.8,8.7,M,-31.9,M,,*53
$PYRTM,2024,124.417897037512,15.527544447650
$GPGGA,100145.00,3525.8619,N,12140.9367,W,1,09,0.8,8.9,M,-31.9,M,,*53
$PYRTM,2024,124.417908599294,15.527556009433
$GPGGA,100146.00,3525.8628,N,12140.9369,W,1,09,0.8,9.3,M,-31.9,M,,*57
$PYRTM,2024,124.417916006181,15.527563416319
$GPGGA,100147.00,3525.8639,N,12140.9373,W,1,09,0.8,9.3,M,-31.9,M,,*5D
$PYRTM,2024,124.417931746470,15.527579156609
$GPGGA,100148.00,3525.8650,N,12140.9382,W,1,09,0.8,8.8,M,-31.9,M,,*59
$PYRTM,2024,124.417943336725,15.527590746863
$GPGGA,100149.00,3525.8656,N,12140.9393,W,1,09,0.8,8.8,M,-31.9,M,,*5E
$PYRTM,2024,124.417954893808,15.527602303947
$GPGGA,100150.00,3525.8660,N,12140.9402,W,1,09,0.8,9.3,M,-31.9,M,,*56
$PYRTM,2024,124.417962302002,15.527609712141
$GPGGA,100151.00,3525.8669,N,12140.9408,W,1,09,0.8,9.7,M,-31.9,M,,*50
$PYRTM,2024,124.417978043785,15.527625453924
$GPGGA,100152.00,3525.8683,N,12140.9411,W,1,09,0.8,9.4,M,-31.9,M,,*5C
$PYRTM,2024,124.417989633380,15.527637043519
$GPGGA,100153.00,3525.8693,N,12140.9415,W,1,09,0.8,9.2,M,-31.9,M,,*5E
$PYRTM,2024,124.418001191505,15.527648601644
$GPGGA,100154.00,3525.8700,N,12140.9422,W,1,09,0.8,9.3,M,-31.9,M,,*57
$PYRTM,2024,124.418012778241,15.527660188380
$GPGGA,100155.00,3525.8707,N,12140.9433,W,1,09,0.8,9.4,M,-31.9,M,,*56
$PYRTM,2024,124.418024341030,15.527671751169
$GPGGA,100156.00,3525.8715,N,12140.9442,W,1,09,0.8,9.3,M,-31.9,M,,*57
$PYRTM,2024,124.418035927014,15.527683337153
$GPGGA,100157.00,3525.8724,N,12140.9447,W,1,09,0.8,9.3,M,-31.9,M,,*51
$PYRTM,2024,124.418047487905,15.527694898044
$GPGGA,100158.00,3525.8734,N,12140.9450,W,1,09,0.8,9.3,M,-31.9,M,,*59
$PYRTM,2024,124.418054897245,15.527702307384
$GPGGA,100159.00,3525.8744,N,12140.9455,W,1,09,0.8,9.1,M,-31.9,M,,*58
$PYRTM,2024,124.418070636285,15.527718046424
$GPGGA,100200.00,3525.8752,N,12140.9464,W,1,09,0.8,8.9,M,-31.9,M,,*5B
$PYRTM,2024,124.418082223600,15.527729633738
$GPGGA,100201.00,3525.8758,N,12140.9473,W,1,09,0.8,9.2,M,-31.9,M,,*5C
$PYRTM,2024,124.418089618021,15.527737028160
$GPGGA,100202.00,3525.8766,N,12140.9480,W,1,09,0.8,9.3,M,-31.9,M,,*5F
$PYRTM,2024,124.418105372894,15.527752783044
$GPGGA,100203.00,3525.8776,N,12140.9485,W,1,09,0.8,9.0,M,-31.9,M,,*59
$PYRTM,2024,124.418116935486,15.527764345625
$GPGGA,100204.00,3525.8784,N,12140.9491,W,1,09,0.8,8.9,M,-31.9,M,,*5E
$PYRTM,2024,124.418128523229,15.527775933368
$GPGGA,100205.00,3525.8793,N,12140.9498,W,1,09,0.8,8.9,M,-31.9,M,,*50
$PYRTM,2024,124.418140081875,15.527787492014
$GPGGA,100206.00,3525.8802,N,12140.9507,W,1,09,0.8,8.9,M,-31.9,M,,*53
$PYRTM,2024,124.418151682870,15.527799093009
$GPGGA,100207.00,3525.8811,N,12140.9513,W,1,09,0.8,9.1,M,-31.9,M,,*5C
$PYRTM,2024,124.418159063657,15.527806473796
$GPGGA,100208.00,3525.8820,N,12140.9517,W,1,09,0.8,9.5,M,-31.9,M,,*51
$PYRTM,2024,124.418174815938,15.527822226076
$GPGGA,100209.00,3525.8830,N,12140.9523,W,1,09,0.8,9.5,M,-31.9,M,,*56
$PYRTM,2024,124.418186492743,15.527833902882
$GPGGA,100210.00,3525.8839,N,12140.9533,W,1,09,0.8,9.2,M,-31.9,M,,*51
$PYRTM,2024,124.418197965150,15.527845375289
$GPGGA,100211.00,3525.8848,N,12140.9541,W,1,09,0.8,8.8,M,-31.9,M,,*58
$PYRTM,2024,124.418205358530,15.527852768669
$GPGGA,100212.00,3525.8858,N,12140.9546,W,1,09,0.8,9.3,M,-31.9,M,,*57
$PYRTM,2024,124.418217048588,15.527864458727
$GPGGA,100213.00,3525.8867,N,12140.9549,W,1,09,0.8,9.5,M,-31.9,M,,*53
$PYRTM,2024,124.418235567546,15.527882977685
$GPGGA,100214.00,3525.8875,N,12140.9554,W,1,09,0.8,10.1,M,-31.9,M,,*67
$PYRTM,2024,124.418247155208,15.527894565347
$GPGGA,100215.00,3525.8885,N,12140.9562,W,1,09,0.8,10.2,M,-31.9,M,,*6F
$PYRTM,2024,124.418258719236,15.527906129375
$GPGGA,100216.00,3525.8896,N,12140.9570,W,1,09,0.8,9.5,M,-31.9,M,,*52
$PYRTM,2024,124.418267410139,15.527914820278
$GPGGA,100217.00,3525.8904,N,12140.9576,W,1,09,0.8,9.2,M,-31.9,M,,*58
$PYRTM,2024,124.418278972164,15.527926382315
$GPGGA,100218.00,3525.8912,N,12140.9581,W,1,09,0.8,9.3,M,-31.9,M,,*59
$PYRTM,2024,124.418290571736,15.527937981875
$GPGGA,100219.00,3525.8921,N,12140.9587,W,1,09,0.8,9.4,M,-31.9,M,,*59
$PYRTM,2024,124.418302118808,15.527949528947
$GPGGA,100220.00,3525.8930,N,12140.9594,W,1,09,0.8,9.5,M,-31.9,M,,*50
$PYRTM,2024,124.418309526123,15.527956936262
$GPGGA,100221.00,3525.8940,N,12140.9602,W,1,09,0.8,9.4,M,-31.9,M,,*5B
$PYRTM,2024,124.418325267627,15.527972677766
$GPGGA,100222.00,3525.8951,N,12140.9609,W,1,09,0.8,8.8,M,-31.9,M,,*5E
$PYRTM,2024,124.418336855856,15.527984265995
$GPGGA,100223.00,3525.8961,N,12140.9613,W,1,09,0.8,8.7,M,-31.9,M,,*58
$PYRTM,2024,124.418344263646,15.527991673785
$GPGGA,100224.00,3525.8967,N,12140.9618,W,1,09,0.8,9.2,M,-31.9,M,,*56
$PYRTM,2024,124.418360004896,15.528007415035
$GPGGA,100225.00,3525.8973,N,12140.9625,W,1,09,0.8,9.8,M,-31.9,M,,*56
$PYRTM,2024,124.418371562766,15.528018972905
$GPGGA,100226.00,3525.8984,N,12140.9633,W,1,09,0.8,9.5,M,-31.9,M,,*57
$PYRTM,2024,124.418378971481,15.528026381632
$GPGGA,100227.00,3525.8996,N,12140.9638,W,1,09,0.8,9.2,M,-31.9,M,,*59
$PYRTM,2024,124.418394714144,15.528042124282
$GPGGA,100228.00,3525.9003,N,12140.9642,W,1,09,0.8,9.4,M,-31.9,M,,*59
$PYRTM,2024,124.418406301539,15.528053711678
$GPGGA,100229.00,3525.9009,N,12140.9646,W,1,09,0.8,9.9,M,-31.9,M,,*5B
$PYRTM,2024,124.418413695081,15.528061105220
$GPGGA,100230.00,3525.9019,N,12140.9655,W,1,09,0.8,9.6,M,-31.9,M,,*5F
$PYRTM,2024,124.418425382917,15.528072793056
$GPGGA,100231.00,3525.9030,N,12140.9663,W,1,09,0.8,9.2,M,-31.9,M,,*54
$PYRTM,2024,124.418436958576,15.528084368715
$GPGGA,100232.00,3525.9038,N,12140.9669,W,1,09,0.8,9.2,M,-31.9,M,,*55
$PYRTM,2024,124.418452610289,15.528100020428
$GPGGA,100233.00,3525.9044,N,12140.9672,W,1,09,0.8,9.8,M,-31.9,M,,*5F
$PYRTM,2024,124.418464158750,15.528111568889
$GPGGA,100234.00,3525.9052,N,12140.9677,W,1,09,0.8,10.0,M,-31.9,M,,*6A
$PYRTM,2024,124.418475748345,15.528123158495
$GPGGA,100235.00,3525.9063,N,12140.9684,W,1,09,0.8,9.3,M,-31.9,M,,*5E
$PYRTM,2024,124.418487306586,15.528134716725
$GPGGA,100236.00,3525.9072,N,12140.9693,W,1,09,0.8,8.6,M,-31.9,M,,*5F
$PYRTM,2024,124.418498893125,15.528146303264
$GPGGA,100237.00,3525.9078,N,12140.9701,W,1,09,0.8,8.6,M,-31.9,M,,*5E
$PYRTM,2024,124.418510453958,15.528157864097
$GPGGA,100238.00,3525.9084,N,12140.9706,W,1,09,0.8,9.3,M,-31.9,M,,*51
$PYRTM,2024,124.418522042141,15.528169452280
$GPGGA,100239.00,3525.9093,N,12140.9709,W,1,09,0.8,9.7,M,-31.9,M,,*5D
$PYRTM,2024,124.418529452454,15.528176862593
$GPGGA,100240.00,3525.9105,N,12140.9714,W,1,09,0.8,9.3,M,-31.9,M,,*55
$PYRTM,2024,124.418545191516,15.528192601655
$GPGGA,100241.00,3525.9114,N,12140.9722,W,1,09,0.8,8.8,M,-31.9,M,,*5B
$PYRTM,2024,124.418556750023,15.528204160162
$GPGGA,100242.00,3525.9120,N,12140.9733,W,1,09,0.8,8.8,M,-31.9,M,,*5F
$PYRTM,2024,124.418568338958,15.528215749097
$GPGGA,100243.00,3525.9126,N,12140.9740,W,1,09,0.8,9.3,M,-31.9,M,,*56
$PYRTM,2024,124.418575733565,15.528223143704
$GPGGA,100244.00,3525.9135,N,12140.9741,W,1,09,0.8,9.9,M,-31.9,M,,*58
$PYRTM,2024,124.418594383252,15.528241793391
$GPGGA,100245.00,3525.9147,N,12140.9743,W,1,09,0.8,9.8,M,-31.9,M,,*5F
$PYRTM,2024,124.418605941100,15.528253351238
$GPGGA,100246.00,3525.9159,N,12140.9751,W,1,09,0.8,9.0,M,-31.9,M,,*58
$PYRTM,2024,124.418617526956,15.528264937095
$GPGGA,100247.00,3525.9167,N,12140.9762,W,1,09,0.8,8.5,M,-31.9,M,,*50
$PYRTM,2024,124.418626195208,15.528273605347
$GPGGA,100248.00,3525.9171,N,12140.9771,W,1,09,0.8,9.0,M,-31.9,M,,*5E
$PYRTM,2024,124.418637796875,15.528285207014
$GPGGA,100249.00,3525.9178,N,12140.9773,W,1,09,0.8,9.8,M,-31.9,M,,*5C
$PYRTM,2024,124.418649344664,15.528296754803
$GPGGA,100250.00,3525.9190,N,12140.9774,W,1,09,0.8,10.1,M,-31.9,M,,*64
$PYRTM,2024,124.418660932199,15.528308342338
$GPGGA,100251.00,3525.9201,N,12140.9780,W,1,09,0.8,9.5,M,-31.9,M,,*59
$PYRTM,2024,124.418672493819,15.528319903958
$GPGGA,100252.00,3525.9210,N,12140.9792,W,1,09,0.8,8.7,M,-31.9,M,,*5A
$PYRTM,2024,124.418684079734,15.528331489873
$GPGGA,100253.00,3525.9215,N,12140.9802,W,1,09,0.8,8.7,M,-31.9,M,,*58
$PYRTM,2024,124.418695642095,15.528343052245
$GPGGA,100254.00,3525.9221,N,12140.9807,W,1,09,0.8,9.3,M,-31.9,M,,*58
$PYRTM,2024,124.418707227164,15.528354637303
$GPGGA,100255.00,3525.9231,N,12140.9809,W,1,09,0.8,9.6,M,-31.9,M,,*53
$PYRTM,2024,124.418718790347,15.528366200486
$GPGGA,100256.00,3525.9242,N,12140.9813,W,1,09,0.8,9.7,M,-31.9,M,,*5E
$PYRTM,2024,124.418730378727,15.528377788877
$GPGGA,100257.00,3525.9251,N,12140.9821,W,1,09,0.8,9.6,M,-31.9,M,,*5D
$PYRTM,2024,124.418741938600,15.528389348750
$GPGGA,100258.00,3525.9258,N,12140.9833,W,1,09,0.8,9.4,M,-31.9,M,,*5A
$PYRTM,2024,124.418753525162,15.528400935301
$GPGGA,100259.00,3525.9267,N,12140.9842,W,1,09,0.8,8.8,M,-31.9,M,,*5C
$PYRTM,2024,124.418765085069,15.528412495208
$GPGGA,100300.00,3525.9275,N,12140.9845,W,1,09,0.8,9.3,M,-31.9,M,,*5F
$PYRTM,2024,124.418776675729,15.528424085868
$GPGGA,100301.00,3525.9283,N,12140.9847,W,1,09,0.8,10.1,M,-31.9,M,,*6F
$PYRTM,2024,124.418788234074,15.528435644213
$GPGGA,100302.00,3525.9294,N,12140.9852,W,1,09,0.8,9.6,M,-31.9,M,,*51
$PYRTM,2024,124.418795642164,15.528443052303
$GPGGA,100303.00,3525.9305,N,12140.9863,W,1,09,0.8,9.1,M,-31.9,M,,*5C
$PYRTM,2024,124.418807333218,15.528454743356
$GPGGA,100304.00,3525.9313,N,12140.9873,W,1,09,0.8,8.5,M,-31.9,M,,*58
$PYRTM,2024,124.418818904769,15.528466314907
$GPGGA,100305.00,3525.9320,N,12140.9878,W,1,09,0.8,9.1,M,-31.9,M,,*57
$PYRTM,2024,124.418834530752,15.528481940891
$GPGGA,100306.00,3525.9329,N,12140.9881,W,1,09,0.8,9.8,M,-31.9,M,,*52
$PYRTM,2024,124.418841938414,15.528489348565
$GPGGA,100307.00,3525.9340,N,12140.9885,W,1,09,0.8,9.6,M,-31.9,M,,*56
$PYRTM,2024,124.418857681354,15.528505091493
$GPGGA,100308.00,3525.9350,N,12140.9892,W,1,09,0.8,9.1,M,-31.9,M,,*59
$PYRTM,2024,124.418869267639,15.528516677778
$GPGGA,100309.00,3525.9357,N,12140.9899,W,1,09,0.8,9.1,M,-31.9,M,,*54
$PYRTM,2024,124.418880826701,15.528528236840
$GPGGA,100310.00,3525.9363,N,12140.9906,W,1,09,0.8,9.5,M,-31.9,M,,*58
$PYRTM,2024,124.418892415116,15.528539825255
$GPGGA,100311.00,3525.9372,N,12140.9915,W,1,09,0.8,9.4,M,-31.9,M,,*5A
$PYRTM,2024,124.418903976192,15.528551386343
$GPGGA,100312.00,3525.9383,N,12140.9923,W,1,09,0.8,9.3,M,-31.9,M,,*55
$PYRTM,2024,124.418915563796,15.528562973935
$GPGGA,100313.00,3525.9392,N,12140.9927,W,1,09,0.8,9.4,M,-31.9,M,,*57
$PYRTM,2024,124.418927123692,15.528574533831
$GPGGA,100314.00,3525.9399,N,12140.9926,W,1,09,0.8,10.7,M,-31.9,M,,*61
$PYRTM,2024,124.418934531076,15.528581941215
$GPGGA,100315.00,3525.9408,N,12140.9928,W,1,09,0.8,11.3,M,-31.9,M,,*64
$PYRTM,2024,124.418953167350,15.528600577500
$GPGGA,100316.00,3525.9420,N,12140.9936,W,1,09,0.8,10.7,M,-31.9,M,,*67
$PYRTM,2024,124.418961873692,15.528609283831
$GPGGA,100317.00,3525.9428,N,12140.9950,W,1,09,0.8,9.7,M,-31.9,M,,*56
$PYRTM,2024,124.418973421285,15.528620831424
$GPGGA,100318.00,3525.9435,N,12140.9959,W,1,09,0.8,9.3,M,-31.9,M,,*58
$PYRTM,2024,124.418980827720,15.528628237859
$GPGGA,100319.00,3525.9443,N,12140.9957,W,1,09,0.8,9.7,M,-31.9,M,,*52
$PYRTM,2024,124.418996569144,15.528643979282
$GPGGA,100320.00,3525.9455,N,12140.9953,W,1,09,0.8,10.1,M,-31.9,M,,*65
$PYRTM,2024,124.419008156181,15.528655566319
$GPGGA,100321.00,3525.9465,N,12140.9958,W,1,09,0.8,10.0,M,-31.9,M,,*6D
$PYRTM,2024,124.419019717905,15.528667128044
$GPGGA,100322.00,3525.9472,N,12140.9971,W,1,09,0.8,9.6,M,-31.9,M,,*5D
$PYRTM,2024,124.419031304549,15.528678714688
$GPGGA,100323.00,3525.9478,N,12140.9983,W,1,09,0.8,9.2,M,-31.9,M,,*5F
$PYRTM,2024,124.419042866204,15.528690276343
$GPGGA,100324.00,3525.9486,N,12140.9988,W,1,09,0.8,8.9,M,-31.9,M,,*58
$PYRTM,2024,124.419050272743,15.528697682882
$GPGGA,100325.00,3525.9496,N,12140.9989,W,1,09,0.8,8.8,M,-31.9,M,,*58
$PYRTM,2024,124.419066014282,15.528713424433
$GPGGA,100326.00,3525.9506,N,12140.9990,W,1,09,0.8,9.0,M,-31.9,M,,*52
$PYRTM,2024,124.419077601435,15.528725011574
$GPGGA,100327.00,3525.9514,N,12140.9997,W,1,09,0.8,10.0,M,-31.9,M,,*6F
$PYRTM,2024,124.419089163044,15.528736573183
$GPGGA,100328.00,3525.9523,N,12141.0007,W,1,09,0.8,10.0,M,-31.9,M,,*6C
$PYRTM,2024,124.419100763368,15.528748173519
$GPGGA,100329.00,3525.9532,N,12141.0017,W,1,09,0.8,9.8,M,-31.9,M,,*5C
$PYRTM,2024,124.419112312593,15.528759722731
$GPGGA,100330.00,3525.9540,N,12141.0024,W,1,09,0.8,9.3,M,-31.9,M,,*5A
$PYRTM,2024,124.419123900023,15.528771310162
$GPGGA,100331.00,3525.9549,N,12141.0030,W,1,09,0.8,8.8,M,-31.9,M,,*5D
$PYRTM,2024,124.419135460613,15.528782870752
$GPGGA,100332.00,3525.9558,N,12141.0035,W,1,09,0.8,8.7,M,-31.9,M,,*54
$PYRTM,2024,124.419147046227,15.528794456366
$GPGGA,100333.00,3525.9567,N,12141.0037,W,1,09,0.8,9.2,M,-31.9,M,,*5F
$PYRTM,2024,124.419158607593,15.528806017731
$GPGGA,100334.00,3525.9577,N,12141.0042,W,1,09,0.8,9.6,M,-31.9,M,,*5F
$PYRTM,2024,124.419170194606,15.528817604745
$GPGGA,100335.00,3525.9586,N,12141.0051,W,1,09,0.8,10.0,M,-31.9,M,,*6C
$PYRTM,2024,124.419181755035,15.528829165174
$GPGGA,100336.00,3525.9594,N,12141.0062,W,1,09,0.8,9.6,M,-31.9,M,,*52
$PYRTM,2024,124.419189162627,15.528836572766
$GPGGA,100337.00,3525.9601,N,12141.0068,W,1,09,0.8,9.6,M,-31.9,M,,*56
$PYRTM,2024,124.419201316863,15.528848727002
$GPGGA,100338.00,3525.9610,N,12141.0069,W,1,09,0.8,9.9,M,-31.9,M,,*57
$PYRTM,2024,124.419216491157,15.528863901308
$GPGGA,100339.00,3525.9620,N,12141.0071,W,1,09,0.8,9.9,M,-31.9,M,,*5C
$PYRTM,2024,124.419228052338,15.528875462477
$GPGGA,100340.00,3525.9631,N,12141.0078,W,1,09,0.8,9.9,M,-31.9,M,,*5B
$PYRTM,2024,124.419239642049,15.528887052187
$GPGGA,100341.00,3525.9639,N,12141.0090,W,1,09,0.8,9.5,M,-31.9,M,,*58
$PYRTM,2024,124.419251201134,15.528898611273
$GPGGA,100342.00,3525.9646,N,12141.0099,W,1,09,0.8,9.6,M,-31.9,M,,*59
$PYRTM,2024,124.419262788009,15.528910198148
$GPGGA,100343.00,3525.9655,N,12141.0102,W,1,09,0.8,9.9,M,-31.9,M,,*56
$PYRTM,2024,124.419270182477,15.528917592616
$GPGGA,100344.00,3525.9665,N,12141.0106,W,1,09,0.8,9.8,M,-31.9,M,,*57
$PYRTM,2024,124.419285938519,15.528933348669
$GPGGA,100345.00,3525.9675,N,12141.0112,W,1,09,0.8,9.7,M,-31.9,M,,*5D
$PYRTM,2024,124.419293332384,15.528940742523
$GPGGA,100346.00,3525.9684,N,12141.0120,W,1,09,0.8,9.7,M,-31.9,M,,*51
$PYRTM,2024,124.419311992153,15.528959402292
$GPGGA,100347.00,3525.9694,N,12141.0126,W,1,09,0.8,9.7,M,-31.9,M,,*57
$PYRTM,2024,124.419320644560,15.528968054699
$GPGGA,100348.00,3525.9706,N,12141.0132,W,1,09,0.8,9.3,M,-31.9,M,,*53
$PYRTM,2024,124.419332227627,15.528979637766
$GPGGA,100349.00,3525.9715,N,12141.0139,W,1,09,0.8,9.1,M,-31.9,M,,*59
$PYRTM,2024,124.419343793287,15.528991203426
$GPGGA,100350.00,3525.9721,N,12141.0148,W,1,09,0.8,9.2,M,-31.9,M,,*53
$PYRTM,2024,124.419355382292,15.529002792431
$GPGGA,100351.00,3525.9730,N,12141.0156,W,1,09,0.8,9.4,M,-31.9,M,,*5B
$PYRTM,2024,124.419366941250,15.529014351389
$GPGGA,100352.00,3525.9741,N,12141.0159,W,1,09,0.8,9.5,M,-31.9,M,,*50
$PYRTM,2024,124.419378530162,15.529025940301
$GPGGA,100353.00,3525.9753,N,12141.0160,W,1,09,0.8,9.3,M,-31.9,M,,*5E
$PYRTM,2024,124.419390090637,15.529037500775
$GPGGA,100354.00,3525.9763,N,12141.0166,W,1,09,0.8,8.9,M,-31.9,M,,*57
$PYRTM,2024,124.419401677442,15.529049087581
$GPGGA,100355.00,3525.9770,N,12141.0178,W,1,09,0.8,8.8,M,-31.9,M,,*5A
$PYRTM,2024,124.419413239051,15.529060649190
$GPGGA,100356.00,3525.9776,N,12141.0189,W,1,09,0.8,9.1,M,-31.9,M,,*59
$PYRTM,2024,124.419424839294,15.529072249433
$GPGGA,100357.00,3525.9786,N,12141.0192,W,1,09,0.8,9.4,M,-31.9,M,,*58
$PYRTM,2024,124.419436387824,15.529083797963
$GPGGA,100358.00,3525.9800,N,12141.0192,W,1,09,0.8,9.2,M,-31.9,M,,*50
$PYRTM,2024,124.419443793414,15.529091203553
$GPGGA,100359.00,3525.9810,N,12141.0197,W,1,09,0.8,8.8,M,-31.9,M,,*5E
$PYRTM,2024,124.419459533449,15.529106943588
$GPGGA,100400.00,3525.9817,N,12141.0207,W,1,09,0.8,8.9,M,-31.9,M,,*59
$PYRTM,2024,124.419466942593,15.529114352731
$GPGGA,100401.00,3525.9822,N,12141.0218,W,1,09,0.8,9.3,M,-31.9,M,,*5B
$PYRTM,2024,124.419482683137,15.529130093275
$GPGGA,100402.00,3525.9832,N,12141.0225,W,1,09,0.8,9.1,M,-31.9,M,,*55
$PYRTM,2024,124.419494273252,15.529141683391
$GPGGA,100403.00,3525.9843,N,12141.0228,W,1,09,0.8,8.9,M,-31.9,M,,*56
$PYRTM,2024,124.419505831076,15.529153241215
$GPGGA,100404.00,3525.9852,N,12141.0232,W,1,09,0.8,8.8,M,-31.9,M,,*5B
$PYRTM,2024,124.419517418160,15.529164828299
$GPGGA,100405.00,3525.9861,N,12141.0239,W,1,09,0.8,8.8,M,-31.9,M,,*51
$PYRTM,2024,124.419528980058,15.529176390197
$GPGGA,100406.00,3525.9870,N,12141.0247,W,1,09,0.8,8.9,M,-31.9,M,,*5A
$PYRTM,2024,124.419540566366,15.529187976505
$GPGGA,100407.00,3525.9878,N,12141.0253,W,1,09,0.8,9.5,M,-31.9,M,,*5B
$PYRTM,2024,124.419552128900,15.529199539039
$GPGGA,100408.00,3525.9886,N,12141.0259,W,1,09,0.8,9.9,M,-31.9,M,,*53
$PYRTM,2024,124.419559535150,15.529206945289
$GPGGA,100409.00,3525.9898,N,12141.0266,W,1,09,0.8,9.1,M,-31.9,M,,*59
$PYRTM,2024,124.419575275822,15.529222685961
$GPGGA,100410.00,3525.9907,N,12141.0273,W,1,09,0.8,8.8,M,-31.9,M,,*5A
$PYRTM,2024,124.419586863044,15.529234273183
$GPGGA,100411.00,3525.9914,N,12141.0277,W,1,09,0.8,9.5,M,-31.9,M,,*51
$PYRTM,2024,124.419598539653,15.529245949792
$GPGGA,100412.00,3525.9922,N,12141.0281,W,1,09,0.8,10.0,M,-31.9,M,,*63
$PYRTM,2024,124.419610025127,15.529257435266
$GPGGA,100413.00,3525.9934,N,12141.0289,W,1,09,0.8,9.5,M,-31.9,M,,*50
$PYRTM,2024,124.419617407546,15.529264817685
$GPGGA,100414.00,3525.9944,N,12141.0297,W,1,09,0.8,9.0,M,-31.9,M,,*5A
$PYRTM,2024,124.419633174653,15.529280584792
$GPGGA,100415.00,3525.9951,N,12141.0304,W,1,09,0.8,9.2,M,-31.9,M,,*56
$PYRTM,2024,124.419644721053,15.529292131192
$GPGGA,100416.00,3525.9959,N,12141.0307,W,1,09,0.8,9.7,M,-31.9,M,,*5B
$PYRTM,2024,124.419652128715,15.529299538854
$GPGGA,100417.00,3525.9969,N,12141.0310,W,1,09,0.8,9.9,M,-31.9,M,,*51
$PYRTM,2024,124.419670763090,15.529318173229
$GPGGA,100418.00,3525.9979,N,12141.0318,W,1,09,0.8,9.3,M,-31.9,M,,*5D
$PYRTM,2024,124.419679457164,15.529326867303
$GPGGA,100419.00,3525.9987,N,12141.0326,W,1,09,0.8,9.3,M,-31.9,M,,*50
$PYRTM,2024,124.419691018171,15.529338428310
$GPGGA,100420.00,3525.9995,N,12141.0332,W,1,09,0.8,9.3,M,-31.9,M,,*5C
$PYRTM,2024,124.419702604468,15.529350014606
$GPGGA,100421.00,3526.0002,N,12141.0336,W,1,09,0.8,10.0,M,-31.9,M,,*6F
$PYRTM,2024,124.419714167292,15.529361577431
$GPGGA,100422.00,3526.0012,N,12141.0339,W,1,09,0.8,10.3,M,-31.9,M,,*61
$PYRTM,2024,124.419725753148,15.529373163299
$GPGGA,100423.00,3526.0022,N,12141.0344,W,1,09,0.8,10.2,M,-31.9,M,,*68
$PYRTM,2024,124.419737314271,15.529384724410
$GPGGA,100424.00,3526.0031,N,12141.0354,W,1,09,0.8,9.8,M,-31.9,M,,*5E
$PYRTM,2024,124.419748912303,15.529396322442
$GPGGA,100425.00,3526.0038,N,12141.0363,W,1,09,0.8,9.7,M,-31.9,M,,*5D
$PYRTM,2024,124.419760463241,15.529407873380
$GPGGA,100426.00,3526.0046,N,12141.0368,W,1,09,0.8,10.0,M,-31.9,M,,*63
$PYRTM,2024,124.419772052963,15.529419463102
$GPGGA,100427.00,3526.0056,N,12141.0369,W,1,09,0.8,10.4,M,-31.9,M,,*66
$PYRTM,2024,124.419783613044,15.529431023183
$GPGGA,100428.00,3526.0068,N,12141.0373,W,1,09,0.8,10.4,M,-31.9,M,,*6F
$PYRTM,2024,124.419795211968,15.529442622106
$GPGGA,100429.00,3526.0079,N,12141.0382,W,1,09,0.8,10.2,M,-31.9,M,,*66
$PYRTM,2024,124.419806758646,15.529454168785
$GPGGA,100430.00,3526.0086,N,12141.0393,W,1,09,0.8,10.0,M,-31.9,M,,*6C
$PYRTM,2024,124.419818346956,15.529465757095
$GPGGA,100431.00,3526.0094,N,12141.0402,W,1,09,0.8,9.6,M,-31.9,M,,*5F
$PYRTM,2024,124.419829908171,15.529477318310
$GPGGA,100432.00,3526.0105,N,12141.0405,W,1,09,0.8,9.3,M,-31.9,M,,*57
$PYRTM,2024,124.419841493819,15.529488903958
$GPGGA,100433.00,3526.0114,N,12141.0405,W,1,09,0.8,9.5,M,-31.9,M,,*50
$PYRTM,2024,124.419848902778,15.529496312917
$GPGGA,100434.00,3526.0123,N,12141.0409,W,1,09,0.8,9.9,M,-31.9,M,,*53
$PYRTM,2024,124.419864643368,15.529512053507
$GPGGA,100435.00,3526.0132,N,12141.0420,W,1,09,0.8,9.6,M,-31.9,M,,*56
$PYRTM,2024,124.419876204178,15.529523614317
$GPGGA,100436.00,3526.0141,N,12141.0431,W,1,09,0.8,9.0,M,-31.9,M,,*57
$PYRTM,2024,124.419883611481,15.529531021620
$GPGGA,100437.00,3526.0148,N,12141.0437,W,1,09,0.8,9.1,M,-31.9,M,,*58
$PYRTM,2024,124.419899352488,15.529546762627
$GPGGA,100438.00,3526.0156,N,12141.0437,W,1,09,0.8,9.7,M,-31.9,M,,*5E
$PYRTM,2024,124.419910939479,15.529558349618
$GPGGA,100439.00,3526.0167,N,12141.0440,W,1,09,0.8,9.9,M,-31.9,M,,*53
$PYRTM,2024,124.419918335602,15.529565745741
$GPGGA,100440.00,3526.0177,N,12141.0449,W,1,09,0.8,9.5,M,-31.9,M,,*59
$PYRTM,2024,124.419930023715,15.529577433854
$GPGGA,100441.00,3526.0184,N,12141.0461,W,1,09,0.8,9.4,M,-31.9,M,,*5F
$PYRTM,2024,124.419945650174,15.529593060313
$GPGGA,100442.00,3526.0191,N,12141.0466,W,1,09,0.8,9.8,M,-31.9,M,,*53
$PYRTM,2024,124.419953055845,15.529600465984
$GPGGA,100443.00,3526.0201,N,12141.0467,W,1,09,0.8,10.4,M,-31.9,M,,*6D
$PYRTM,2024,124.419968796609,15.529616206748
$GPGGA,100444.00,3526.0213,N,12141.0471,W,1,09,0.8,10.1,M,-31.9,M,,*6B
$PYRTM,2024,124.419980384248,15.529627794387
$GPGGA,100445.00,3526.0221,N,12141.0480,W,1,09,0.8,10.0,M,-31.9,M,,*64
$PYRTM,2024,124.419991948484,15.529639358623
$GPGGA,100446.00,3526.0226,N,12141.0490,W,1,09,0.8,10.5,M,-31.9,M,,*64
$PYRTM,2024,124.420003534815,15.529650944954
$GPGGA,100447.00,3526.0234,N,12141.0497,W,1,09,0.8,10.6,M,-31.9,M,,*62
$PYRTM,2024,124.420010941632,15.529658351771
$GPGGA,100448.00,3526.0247,N,12141.0500,W,1,09,0.8,10.0,M,-31.9,M,,*60
$PYRTM,2024,124.420029576725,15.529676986863
$GPGGA,100449.00,3526.0257,N,12141.0504,W,1,09,0.8,9.3,M,-31.9,M,,*5F
$PYRTM,2024,124.420038242535,15.529685652674
$GPGGA,100450.00,3526.0263,N,12141.0510,W,1,09,0.8,9.6,M,-31.9,M,,*50
$PYRTM,2024,124.420049830463,15.529697240602
$GPGGA,100451.00,3526.0269,N,12141.0517,W,1,09,0.8,10.4,M,-31.9,M,,*66
$PYRTM,2024,124.420061392153,15.529708802292
$GPGGA,100452.00,3526.0276,N,12141.0525,W,1,09,0.8,10.9,M,-31.9,M,,*67
$PYRTM,2024,124.420072978750,15.529720388889
$GPGGA,100453.00,3526.0286,N,12141.0532,W,1,09,0.8,10.4,M,-31.9,M,,*62
$PYRTM,2024,124.420084539514,15.529731949653
$GPGGA,100454.00,3526.0297,N,12141.0539,W,1,09,0.8,9.3,M,-31.9,M,,*51
$PYRTM,2024,124.420096129792,15.529743539931
$GPGGA,100455.00,3526.0304,N,12141.0545,W,1,09,0.8,8.9,M,-31.9,M,,*5B
$PYRTM,2024,124.420107689502,15.529755099641
$GPGGA,100456.00,3526.0308,N,12141.0549,W,1,09,0.8,9.9,M,-31.9,M,,*59
$PYRTM,2024,124.420119277697,15.529766687836
$GPGGA,100457.00,3526.0315,N,12141.0554,W,1,09,0.8,10.7,M,-31.9,M,,*6E
$PYRTM,2024,124.420126669375,15.529774079514
$GPGGA,100458.00,3526.0327,N,12141.0560,W,1,09,0.8,10.5,M,-31.9,M,,*65
$PYRTM,2024,124.420142423507,15.529789833646
$GPGGA,100459.00,3526.0338,N,12141.0568,W,1,09,0.8,10.1,M,-31.9,M,,*66
$PYRTM,2024,124.420153986516,15.529801396655
$GPGGA,100500.00,3526.0344,N,12141.0576,W,1,09,0.8,10.0,M,-31.9,M,,*6E
$PYRTM,2024,124.420161391447,15.529808801586
$GPGGA,100501.00,3526.0349,N,12141.0582,W,1,09,0.8,10.6,M,-31.9,M,,*6F
$PYRTM,2024,124.420177132049,15.529824542187
$GPGGA,100502.00,3526.0358,N,12141.0587,W,1,09,0.8,10.9,M,-31.9,M,,*66
$PYRTM,2024,124.420188722674,15.529836132812
$GPGGA,100503.00,3526.0369,N,12141.0592,W,1,09,0.8,10.8,M,-31.9,M,,*60
$PYRTM,2024,124.420196126493,15.529843536632
$GPGGA,100504.00,3526.0378,N,12141.0598,W,1,09,0.8,10.8,M,-31.9,M,,*6D
$PYRTM,2024,124.420211868553,15.529859278692
$GPGGA,100505.00,3526.0385,N,12141.0606,W,1,09,0.8,10.8,M,-31.9,M,,*6A
$PYRTM,2024,124.420223429641,15.529870839780
$GPGGA,100506.00,3526.0394,N,12141.0614,W,1,09,0.8,10.4,M,-31.9,M,,*66
$PYRTM,2024,124.420235016285,15.529882426435
$GPGGA,100507.00,3526.0404,N,12141.0620,W,1,09,0.8,10.1,M,-31.9,M,,*6B
$PYRTM,2024,124.420246577292,15.529893987431
$GPGGA,100508.00,3526.0410,N,12141.0625,W,1,09,0.8,10.2,M,-31.9,M,,*67
$PYRTM,2024,124.420258179387,15.529905589525
$GPGGA,100509.00,3526.0414,N,12141.0631,W,1,09,0.8,10.6,M,-31.9,M,,*63
$PYRTM,2024,124.420269724884,15.529917135023
$GPGGA,100510.00,3526.0422,N,12141.0639,W,1,09,0.8,10.3,M,-31.9,M,,*63
$PYRTM,2024,124.420281316493,15.529928726632
$GPGGA,100511.00,3526.0435,N,12141.0645,W,1,09,0.8,9.4,M,-31.9,M,,*50
$PYRTM,2024,124.420292875185,15.529940285324
$GPGGA,100512.00,3526.0443,N,12141.0651,W,1,09,0.8,8.9,M,-31.9,M,,*5B
$PYRTM,2024,124.420300281204,15.529947691343
$GPGGA,100513.00,3526.0446,N,12141.0657,W,1,09,0.8,9.3,M,-31.9,M,,*52
$PYRTM,2024,124.420316022095,15.529963432234
$GPGGA,100514.00,3526.0450,N,12141.0661,W,1,09,0.8,9.9,M,-31.9,M,,*5D
$PYRTM,2024,124.420327609039,15.529975019178
$GPGGA,100515.00,3526.0459,N,12141.0667,W,1,09,0.8,10.0,M,-31.9,M,,*62
$PYRTM,2024,124.420335018611,15.529982428750
$GPGGA,100516.00,3526.0470,N,12141.0674,W,1,09,0.8,9.5,M,-31.9,M,,*55
$PYRTM,2024,124.420350758264,15.529998168403
$GPGGA,100517.00,3526.0479,N,12141.0681,W,1,09,0.8,9.0,M,-31.9,M,,*52
$PYRTM,2024,124.420362318252,15.530009728391
$GPGGA,100518.00,3526.0484,N,12141.0686,W,1,09,0.8,9.0,M,-31.9,M,,*58
$PYRTM,2024,124.420369726435,15.530017136574
$GPGGA,100519.00,3526.0492,N,12141.0690,W,1,09,0.8,9.7,M,-31.9,M,,*5E
$PYRTM,2024,124.420388360799,15.530035770949
$GPGGA,100520.00,3526.0500,N,12141.0696,W,1,09,0.8,9.7,M,-31.9,M,,*58
$PYRTM,2024,124.420397055521,15.530044465660
$GPGGA,100521.00,3526.0508,N,12141.0704,W,1,09,0.8,9.7,M,-31.9,M,,*5B
$PYRTM,2024,124.420408615949,15.530056026088
$GPGGA,100522.00,3526.0516,N,12141.0710,W,1,09,0.8,9.8,M,-31.9,M,,*5D
$PYRTM,2024,124.420420205243,15.530067615382
$GPGGA,100523.00,3526.0526,N,12141.0715,W,1,09,0.8,9.6,M,-31.9,M,,*54
$PYRTM,2024,124.420431764745,15.530079174884
$GPGGA,100524.00,3526.0536,N,12141.0721,W,1,09,0.8,9.2,M,-31.9,M,,*51
$PYRTM,2024,124.420443354734,15.530090764873
$GPGGA,100525.00,3526.0542,N,12141.0729,W,1,09,0.8,9.2,M,-31.9,M,,*5B
$PYRTM,2024,124.420454912002,15.530102322141
$GPGGA,100526.00,3526.0548,N,12141.0735,W,1,09,0.8,9.6,M,-31.9,M,,*5B
$PYRTM,2024,124.420466503877,15.530113914016
$GPGGA,100527.00,3526.0558,N,12141.0740,W,1,09,0.8,9.8,M,-31.9,M,,*57
$PYRTM,2024,124.420473894491,15.530121304630
$GPGGA,100528.00,3526.0567,N,12141.0744,W,1,09,0.8,9.7,M,-31.9,M,,*5F
$PYRTM,2024,124.420489646921,15.530137057049
$GPGGA,100529.00,3526.0575,N,12141.0750,W,1,09,0.8,9.8,M,-31.9,M,,*57
$PYRTM,2024,124.420501208067,15.530148618206
$GPGGA,100530.00,3526.0582,N,12141.0759,W,1,09,0.8,9.9,M,-31.9,M,,*5F
$PYRTM,2024,124.420512798437,15.530160208576
$GPGGA,100531.00,3526.0590,N,12141.0765,W,1,09,0.8,9.9,M,-31.9,M,,*52
$PYRTM,2024,124.420524357326,15.530171767465
$GPGGA,100532.00,3526.0600,N,12141.0770,W,1,09,0.8,9.9,M,-31.9,M,,*5F
$PYRTM,2024,124.420535939363,15.530183349502
$GPGGA,100533.00,3526.0609,N,12141.0774,W,1,09,0.8,9.9,M,-31.9,M,,*53
$PYRTM,2024,124.420547505324,15.530194915463
$GPGGA,100534.00,3526.0616,N,12141.0781,W,1,09,0.8,10.2,M,-31.9,M,,*63
$PYRTM,2024,124.420559087778,15.530206497917
$GPGGA,100535.00,3526.0624,N,12141.0790,W,1,09,0.8,10.4,M,-31.9,M,,*65
$PYRTM,2024,124.420570653032,15.530218063171
$GPGGA,100536.00,3526.0635,N,12141.0796,W,1,09,0.8,10.0,M,-31.9,M,,*64
$PYRTM,2024,124.420578063310,15.530225473437
$GPGGA,100537.00,3526.0645,N,12141.0802,W,1,09,0.8,9.8,M,-31.9,M,,*50
$PYRTM,2024,124.420593801030,15.530241211169
$GPGGA,100538.00,3526.0652,N,12141.0806,W,1,09,0.8,10.1,M,-31.9,M,,*6C
$PYRTM,2024,124.420605404340,15.530252814479
$GPGGA,100539.00,3526.0658,N,12141.0813,W,1,09,0.8,10.3,M,-31.9,M,,*61
$PYRTM,2024,124.420612784606,15.530260194745
$GPGGA,100540.00,3526.0669,N,12141.0823,W,1,09,0.8,9.8,M,-31.9,M,,*5D
$PYRTM,2024,124.420628540336,15.530275950475
$GPGGA,100541.00,3526.0679,N,12141.0831,W,1,09,0.8,8.8,M,-31.9,M,,*5F
$PYRTM,2024,124.420640101991,15.530287512130
$GPGGA,100542.00,3526.0685,N,12141.0835,W,1,09,0.8,9.0,M,-31.9,M,,*52
$PYRTM,2024,124.420647505706,15.530294915845
$GPGGA,100543.00,3526.0692,N,12141.0835,W,1,09,0.8,9.7,M,-31.9,M,,*52
$PYRTM,2024,124.420663247639,15.530310657778
$GPGGA,100544.00,3526.0702,N,12141.0840,W,1,09,0.8,9.7,M,-31.9,M,,*5F
$PYRTM,2024,124.420670656319,15.530318066458
$GPGGA,100545.00,3526.0712,N,12141.0849,W,1,09,0.8,8.9,M,-31.9,M,,*59
$PYRTM,2024,124.420682808148,15.530330218287
$GPGGA,100546.00,3526.0717,N,12141.0858,W,1,09,0.8,8.7,M,-31.9,M,,*51
$PYRTM,2024,124.420693920752,15.530341330891
$GPGGA,100547.00,3526.0721,N,12141.0862,W,1,09,0.8,9.2,M,-31.9,M,,*58
$PYRTM,2024,124.420709545683,15.530356955822
$GPGGA,100548.00,3526.0730,N,12141.0864,W,1,09,0.8,9.4,M,-31.9,M,,*57
$PYRTM,2024,124.420721132118,15.530368542257
$GPGGA,100549.00,3526.0739,N,12141.0867,W,1,09,0.8,9.3,M,-31.9,M,,*5B
$PYRTM,2024,124.420728525556,15.530375935694
$GPGGA,100550.00,3526.0746,N,12141.0873,W,1,09,0.8,9.3,M,-31.9,M,,*5E
$PYRTM,2024,124.420747172836,15.530394582975
$GPGGA,100551.00,3526.0751,N,12141.0882,W,1,09,0.8,9.3,M,-31.9,M,,*57
$PYRTM,2024,124.420755840625,15.530403250764
$GPGGA,100552.00,3526.0760,N,12141.0889,W,1,09,0.8,9.1,M,-31.9,M,,*5F
$PYRTM,2024,124.420767442141,15.530414852280
$GPGGA,100553.00,3526.0769,N,12141.0894,W,1,09,0.8,8.9,M,-31.9,M,,*52
$PYRTM,2024,124.420778989074,15.530426399213
$GPGGA,100554.00,3526.0775,N,12141.0899,W,1,09,0.8,9.2,M,-31.9,M,,*5F
$PYRTM,2024,124.420790579410,15.530437989549
$GPGGA,100555.00,3526.0783,N,12141.0907,W,1,09,0.8,8.9,M,-31.9,M,,*5B
$PYRTM,2024,124.420802138449,15.530449548588
$GPGGA,100556.00,3526.0792,N,12141.0914,W,1,09,0.8,8.8,M,-31.9,M,,*5B
$PYRTM,2024,124.420813724294,15.530461134433
$GPGGA,100557.00,3526.0801,N,12141.0919,W,1,09,0.8,8.8,M,-31.9,M,,*52
$PYRTM,2024,124.420825286262,15.530472696400
$GPGGA,100558.00,3526.0810,N,12141.0923,W,1,09,0.8,8.8,M,-31.9,M,,*54
$PYRTM,2024,124.420836873588,15.530484283727
$GPGGA,100559.00,3526.0818,N,12141.0928,W,1,09,0.8,8.8,M,-31.9,M,,*56
$PYRTM,2024,124.420848432859,15.530495843009
$GPGGA,100600.00,3526.0826,N,12141.0938,W,1,09,0.8,8.8,M,-31.9,M,,*55
$PYRTM,2024,124.420855839653,15.530503249792
$GPGGA,100601.00,3526.0832,N,12141.0947,W,1,09,0.8,8.9,M,-31.9,M,,*58
$PYRTM,2024,124.420871581563,15.530518991701
$GPGGA,100602.00,3526.0839,N,12141.0952,W,1,09,0.8,9.0,M,-31.9,M,,*5C
$PYRTM,2024,124.420883170046,15.530530580185
$GPGGA,100603.00,3526.0848,N,12141.0955,W,1,09,0.8,9.0,M,-31.9,M,,*5C
$PYRTM,2024,124.420890563275,15.530537973414
$GPGGA,100604.00,3526.0859,N,12141.0959,W,1,09,0.8,8.6,M,-31.9,M,,*50
$PYRTM,2024,124.420906321759,15.530553731898
$GPGGA,100605.00,3526.0868,N,12141.0967,W,1,09,0.8,8.1,M,-31.9,M,,*59
$PYRTM,2024,124.420917878403,15.530565288542
$GPGGA,100606.00,3526.0874,N,12141.0979,W,1,09,0.8,8.1,M,-31.9,M,,*58
$PYRTM,2024,124.420929468275,15.530576878414
$GPGGA,100607.00,3526.0880,N,12141.0986,W,1,09,0.8,8.8,M,-31.9,M,,*5B
$PYRTM,2024,124.420936861204,15.530584271343
$GPGGA,100608.00,3526.0888,N,12141.0989,W,1,09,0.8,9.5,M,-31.9,M,,*5F
$PYRTM,2024,124.420952620463,15.530600030613
$GPGGA,100609.00,3526.0901,N,12141.0992,W,1,09,0.8,9.5,M,-31.9,M,,*54
$PYRTM,2024,124.420964175289,15.530611585428
$GPGGA,100610.00,3526.0912,N,12141.0999,W,1,09,0.8,9.0,M,-31.9,M,,*50
$PYRTM,2024,124.420975764479,15.530623174630
$GPGGA,100611.00,3526.0917,N,12141.1010,W,1,09,0.8,9.1,M,-31.9,M,,*5C
$PYRTM,2024,124.420987322963,15.530634733102
$GPGGA,100612.00,3526.0922,N,12141.1017,W,1,10,0.8,9.6,M,-31.9,M,,*51
$PYRTM,2024,124.420998910706,15.530646320845
$GPGGA,100613.00,3526.0931,N,12141.1022,W,1,10,0.8,9.7,M,-31.9,M,,*55
$PYRTM,2024,124.421006318900,15.530653729039
$GPGGA,100614.00,3526.0942,N,12141.1025,W,1,10,0.8,9.0,M,-31.9,M,,*56
$PYRTM,2024,124.421022063299,15.530669473438
$GPGGA,100615.00,3526.0952,N,12141.1031,W,1,10,0.8,8.6,M,-31.9,M,,*54
$PYRTM,2024,124.421029453148,15.530676863287
$GPGGA,100616.00,3526.0958,N,12141.1040,W,1,10,0.8,9.0,M,-31.9,M,,*5C
$PYRTM,2024,124.421041145567,15.530688555706
$GPGGA,100617.00,3526.0961,N,12141.1049,W,1,10,0.8,9.8,M,-31.9,M,,*56
$PYRTM,2024,124.421056767940,15.530704178079
$GPGGA,100618.00,3526.0968,N,12141.1055,W,1,10,0.8,10.3,M,-31.9,M,,*6E
$PYRTM,2024,124.421068356065,15.530715766204
$GPGGA,100619.00,3526.0980,N,12141.1059,W,1,10,0.8,9.6,M,-31.9,M,,*58
$PYRTM,2024,124.421079916794,15.530727326933
$GPGGA,100620.00,3526.0993,N,12141.1063,W,1,10,0.8,8.5,M,-31.9,M,,*5B
$PYRTM,2024,124.421087322546,15.530734732685
$GPGGA,100621.00,3526.0999,N,12141.1069,W,1,10,0.8,8.5,M,-31.9,M,,*5A
$PYRTM,2024,124.421105958264,15.530753368403
$GPGGA,100622.00,3526.1001,N,12141.1076,W,1,10,0.8,9.7,M,-31.9,M,,*5D
$PYRTM,2024,124.421114661551,15.530762071690
$GPGGA,100623.00,3526.1008,N,12141.1083,W,1,10,0.8,10.3,M,-31.9,M,,*63
$PYRTM,2024,124.421122048241,15.530769458380
$GPGGA,100624.00,3526.1021,N,12141.1088,W,1,10,0.8,9.1,M,-31.9,M,,*5E
$PYRTM,2024,124.421137802222,15.530785212373
$GPGGA,100625.00,3526.1031,N,12141.1094,W,1,10,0.8,8.2,M,-31.9,M,,*51
$PYRTM,2024,124.421149362384,15.530796772523
$GPGGA,100626.00,3526.1035,N,12141.1098,W,1,10,0.8,8.4,M,-31.9,M,,*5C
$PYRTM,2024,124.421160949826,15.530808359965
$GPGGA,100627.00,3526.1039,N,12141.1102,W,1,10,0.8,8.9,M,-31.9,M,,*5E
$PYRTM,2024,124.421172510671,15.530819920810
$GPGGA,100628.00,3526.1048,N,12141.1108,W,1,10,0.8,9.0,M,-31.9,M,,*55
$PYRTM,2024,124.421184097060,15.530831507199
$GPGGA,100629.00,3526.1059,N,12141.1115,W,1,10,0.8,8.2,M,-31.9,M,,*5B
$PYRTM,2024,124.421195658437,15.530843068576
$GPGGA,100630.00,3526.1065,N,12141.1123,W,1,10,0.8,7.7,M,-31.9,M,,*53
$PYRTM,2024,124.421207247500,15.530854657650
$GPGGA,100631.00,3526.1069,N,12141.1128,W,1,10,0.8,8.1,M,-31.9,M,,*5C
$PYRTM,2024,124.421218806528,15.530866216667
$GPGGA,100632.00,3526.1075,N,12141.1131,W,1,10,0.8,8.6,M,-31.9,M,,*5D
$PYRTM,2024,124.421230393843,15.530877803981
$GPGGA,100633.00,3526.1085,N,12141.1138,W,1,10,0.8,8.5,M,-31.9,M,,*59
$PYRTM,2024,124.421237789213,15.530885199352
$GPGGA,100634.00,3526.1093,N,12141.1145,W,1,10,0.8,8.0,M,-31.9,M,,*56
$PYRTM,2024,124.421253545637,15.530900955775
$GPGGA,100635.00,3526.1098,N,12141.1152,W,1,10,0.8,8.0,M,-31.9,M,,*5A
$PYRTM,2024,124.421265103843,15.530912513981
$GPGGA,100636.00,3526.1104,N,12141.1156,W,1,10,0.8,8.5,M,-31.9,M,,*5C
$PYRTM,2024,124.421276704722,15.530924114861
$GPGGA,100637.00,3526.1111,N,12141.1161,W,1,10,0.8,8.8,M,-31.9,M,,*50
$PYRTM,2024,124.421288251273,15.530935661412
$GPGGA,100638.00,3526.1120,N,12141.1167,W,1,10,0.8,8.6,M,-31.9,M,,*55
$PYRTM,2024,124.421295554931,15.530942965069
$GPGGA,100639.00,3526.1127,N,12141.1176,W,1,10,0.8,8.5,M,-31.9,M,,*50
$PYRTM,2024,124.421307362095,15.530954772234
$GPGGA,100640.00,3526.1134,N,12141.1183,W,1,10,0.8,8.4,M,-31.9,M,,*57
$PYRTM,2024,124.421322986840,15.530970396979
$GPGGA,100641.00,3526.1142,N,12141.1187,W,1,10,0.8,8.7,M,-31.9,M,,*50
$PYRTM,2024,124.421330281690,15.530977691829
$GPGGA,100642.00,3526.1149,N,12141.1190,W,1,10,0.8,9.3,M,-31.9,M,,*5B
$PYRTM,2024,124.421346134769,15.530993544907
$GPGGA,100643.00,3526.1158,N,12141.1196,W,1,10,0.8,9.4,M,-31.9,M,,*5B
$PYRTM,2024,124.421357697986,15.531005108125
$GPGGA,100644.00,3526.1168,N,12141.1207,W,1,10,0.8,7.6,M,-31.9,M,,*58
$PYRTM,2024,124.421369285139,15.531016695278
$GPGGA,100645.00,3526.1176,N,12141.1216,W,1,10,0.8,7.1,M,-31.9,M,,*51
$PYRTM,2024,124.421380845602,15.531028255741
$GPGGA,100646.00,3526.1182,N,12141.1220,W,1,10,0.8,7.7,M,-31.9,M,,*5A
$PYRTM,2024,124.421392430961,15.531039841100
$GPGGA,100647.00,3526.1190,N,12141.1222,W,1,10,0.8,8.7,M,-31.9,M,,*55
$PYRTM,2024,124.421403994896,15.531051405035
$GPGGA,100648.00,3526.1199,N,12141.1228,W,1,10,0.8,8.8,M,-31.9,M,,*56
$PYRTM,2024,124.421411399745,15.531058809884
$GPGGA,100649.00,3526.1206,N,12141.1236,W,1,10,0.8,8.2,M,-31.9,M,,*57
$PYRTM,2024,124.421427141400,15.531074551551
$GPGGA,100650.00,3526.1213,N,12141.1244,W,1,10,0.8,8.0,M,-31.9,M,,*5C
$PYRTM,2024,124.421438730590,15.531086140718
$GPGGA,100651.00,3526.1219,N,12141.1248,W,1,10,0.8,8.4,M,-31.9,M,,*5F
$PYRTM,2024,124.421446009016,15.531093419155
$GPGGA,100652.00,3526.1227,N,12141.1251,W,1,10,0.8,9.1,M,-31.9,M,,*5D
$PYRTM,2024,124.421464764687,15.531112174826
$GPGGA,100653.00,3526.1235,N,12141.1257,W,1,10,0.8,9.5,M,-31.9,M,,*5D
$PYRTM,2024,124.421473436030,15.531120846169
$GPGGA,100654.00,3526.1244,N,12141.1267,W,1,10,0.8,9.2,M,-31.9,M,,*58
$PYRTM,2024,124.421485025428,15.531132435567
$GPGGA,100655.00,3526.1252,N,12141.1276,W,1,10,0.8,9.1,M,-31.9,M,,*5D
$PYRTM,2024,124.421496585324,15.531143995463
$GPGGA,100656.00,3526.1261,N,12141.1280,W,1,10,0.8,9.2,M,-31.9,M,,*54
$PYRTM,2024,124.421508173958,15.531155584097
$GPGGA,100657.00,3526.1270,N,12141.1282,W,1,10,0.8,9.4,M,-31.9,M,,*51
$PYRTM,2024,124.421519734062,15.531167144201
$GPGGA,100658.00,3526.1280,N,12141.1287,W,1,10,0.8,9.5,M,-31.9,M,,*55
$PYRTM,2024,124.421531322940,15.531178733079
$GPGGA,100659.00,3526.1288,N,12141.1299,W,1,10,0.8,9.1,M,-31.9,M,,*57
$PYRTM,2024,124.421542883102,15.531190293241
$GPGGA,100700.00,3526.1296,N,12141.1312,W,1,10,0.8,8.6,M,-31.9,M,,*51
$PYRTM,2024,124.421554469630,15.531201879769
$GPGGA,100701.00,3526.1304,N,12141.1318,W,1,10,0.8,8.7,M,-31.9,M,,*51
$PYRTM,2024,124.421561761053,15.531209171192
$GPGGA,100702.00,3526.1314,N,12141.1317,W,1,10,0.8,9.1,M,-31.9,M,,*5B
$PYRTM,2024,124.421577621447,15.531225031586
$GPGGA,100703.00,3526.1324,N,12141.1319,W,1,10,0.8,9.3,M,-31.9,M,,*55
$PYRTM,2024,124.421589179560,15.531236589699
$GPGGA,100704.00,3526.1333,N,12141.1330,W,1,10,0.8,9.0,M,-31.9,M,,*5C
$PYRTM,2024,124.421600769699,15.531248179838
$GPGGA,100705.00,3526.1340,N,12141.1346,W,1,10,0.8,8.5,M,-31.9,M,,*5C
$PYRTM,2024,124.421612328692,15.531259738831
$GPGGA,100706.00,3526.1348,N,12141.1356,W,1,10,0.8,8.2,M,-31.9,M,,*51
$PYRTM,2024,124.421619632025,15.531267042164
$GPGGA,100707.00,3526.1357,N,12141.1357,W,1,10,0.8,9.0,M,-31.9,M,,*5C
$PYRTM,2024,124.421635477199,15.531282887338
$GPGGA,100708.00,3526.1367,N,12141.1356,W,1,10,0.8,9.6,M,-31.9,M,,*57
$PYRTM,2024,124.421647180544,15.531294590683
$GPGGA,100709.00,3526.1376,N,12141.1363,W,1,10,0.8,10.0,M,-31.9,M,,*6E
$PYRTM,2024,124.421658636296,15.531306046435
$GPGGA,100710.00,3526.1385,N,12141.1374,W,1,10,0.8,9.9,M,-31.9,M,,*5D
$PYRTM,2024,124.421670213854,15.531317623993
$GPGGA,100711.00,3526.1393,N,12141.1386,W,1,10,0.8,9.5,M,-31.9,M,,*5A
$PYRTM,2024,124.421681785301,15.531329195440
$GPGGA,100712.00,3526.1402,N,12141.1393,W,1,10,0.8,9.5,M,-31.9,M,,*52
$PYRTM,2024,124.421693360150,15.531340770289
$GPGGA,100713.00,3526.1411,N,12141.1397,W,1,10,0.8,9.4,M,-31.9,M,,*54
$PYRTM,2024,124.421704928843,15.531352338981
$GPGGA,100714.00,3526.1421,N,12141.1401,W,1,10,0.8,9.5,M,-31.9,M,,*59
$PYRTM,2024,124.421716508044,15.531363918183
$GPGGA,100715.00,3526.1431,N,12141.1408,W,1,10,0.8,9.8,M,-31.9,M,,*5D
$PYRTM,2024,124.421728081806,15.531375491944
$GPGGA,100716.00,3526.1439,N,12141.1416,W,1,10,0.8,10.2,M,-31.9,M,,*6B
$PYRTM,2024,124.421739670914,15.531387081053
$GPGGA,100717.00,3526.1448,N,12141.1423,W,1,10,0.8,10.3,M,-31.9,M,,*6B
$PYRTM,2024,124.421751230266,15.531398640405
$GPGGA,100718.00,3526.1459,N,12141.1431,W,1,10,0.8,9.5,M,-31.9,M,,*59
$PYRTM,2024,124.421762807755,15.531410217894
$GPGGA,100719.00,3526.1469,N,12141.1438,W,1,10,0.8,9.2,M,-31.9,M,,*55
$PYRTM,2024,124.421774373588,15.531421783727
$GPGGA,100720.00,3526.1476,N,12141.1444,W,1,10,0.8,9.8,M,-31.9,M,,*50
$PYRTM,2024,124.421781772951,15.531429183090
$GPGGA,100721.00,3526.1483,N,12141.1450,W,1,10,0.8,10.3,M,-31.9,M,,*6D
$PYRTM,2024,124.421800408877,15.531447819016
$GPGGA,100722.00,3526.1494,N,12141.1456,W,1,10,0.8,10.5,M,-31.9,M,,*68
$PYRTM,2024,124.421811994618,15.531459404757
$GPGGA,100723.00,3526.1507,N,12141.1463,W,1,10,0.8,10.0,M,-31.9,M,,*61
$PYRTM,2024,124.421823555972,15.531470966111
$GPGGA,100724.00,3526.1517,N,12141.1469,W,1,10,0.8,9.7,M,-31.9,M,,*52
$PYRTM,2024,124.421837561632,15.531484971771
$GPGGA,100725.00,3526.1524,N,12141.1477,W,1,10,0.8,10.0,M,-31.9,M,,*63
$PYRTM,2024,124.421843826053,15.531491236192
$GPGGA,100726.00,3526.1533,N,12141.1488,W,1,10,0.8,10.0,M,-31.9,M,,*66
$PYRTM,2024,124.421855399155,15.531502809294
$GPGGA,100727.00,3526.1542,N,12141.1497,W,1,10,0.8,9.7,M,-31.9,M,,*50
$PYRTM,2024,124.421862794294,15.531510204433
$GPGGA,100728.00,3526.1552,N,12141.1500,W,1,10,0.8,10.0,M,-31.9,M,,*6E
$PYRTM,2024,124.421878545775,15.531525955914
$GPGGA,100729.00,3526.1563,N,12141.1501,W,1,10,0.8,10.1,M,-31.9,M,,*6D
$PYRTM,2024,124.421885942326,15.531533352465
$GPGGA,100730.00,3526.1573,N,12141.1505,W,1,10,0.8,10.3,M,-31.9,M,,*62
$PYRTM,2024,124.421901698171,15.531549108310
$GPGGA,100731.00,3526.1582,N,12141.1520,W,1,10,0.8,9.5,M,-31.9,M,,*54
$PYRTM,2024,124.421913269664,15.531560679803
$GPGGA,100732.00,3526.1589,N,12141.1535,W,1,10,0.8,8.5,M,-31.9,M,,*59
$PYRTM,2024,124.421924858785,15.531572268924
$GPGGA,100733.00,3526.1598,N,12141.1541,W,1,10,0.8,8.6,M,-31.9,M,,*58
$PYRTM,2024,124.421936417326,15.531583827465
$GPGGA,100734.00,3526.1608,N,12141.1541,W,1,10,0.8,9.0,M,-31.9,M,,*52
$PYRTM,2024,124.421943707928,15.531591118067
$GPGGA,100735.00,3526.1620,N,12141.1545,W,1,10,0.8,9.1,M,-31.9,M,,*5C
$PYRTM,2024,124.421959560451,15.531606970590
$GPGGA,100736.00,3526.1629,N,12141.1556,W,1,10,0.8,8.8,M,-31.9,M,,*5C
$PYRTM,2024,124.421971140613,15.531618550764
$GPGGA,100737.00,3526.1637,N,12141.1570,W,1,10,0.8,8.8,M,-31.9,M,,*56
$PYRTM,2024,124.421982713183,15.531630123322
$GPGGA,100738.00,3526.1645,N,12141.1579,W,1,10,0.8,9.0,M,-31.9,M,,*5C
$PYRTM,2024,124.421994289097,15.531641699236
$GPGGA,100739.00,3526.1655,N,12141.1582,W,1,10,0.8,9.3,M,-31.9,M,,*5B
$PYRTM,2024,124.422005861181,15.531653271319
$GPGGA,100740.00,3526.1665,N,12141.1585,W,1,10,0.8,9.2,M,-31.9,M,,*50
$PYRTM,2024,124.422017436690,15.531664846829
$GPGGA,100741.00,3526.1675,N,12141.1593,W,1,10,0.8,9.0,M,-31.9,M,,*55
$PYRTM,2024,124.422029004653,15.531676414792
$GPGGA,100742.00,3526.1684,N,12141.1603,W,1,10,0.8,8.8,M,-31.9,M,,*5B
$PYRTM,2024,124.422040584340,15.531687994479
$GPGGA,100743.00,3526.1691,N,12141.1611,W,1,10,0.8,8.7,M,-31.9,M,,*52
$PYRTM,2024,124.422052158148,15.531699568287
$GPGGA,100744.00,3526.1701,N,12141.1616,W,1,10,0.8,8.8,M,-31.9,M,,*55
$PYRTM,2024,124.422063735799,15.531711145937
$GPGGA,100745.00,3526.1711,N,12141.1623,W,1,10,0.8,8.7,M,-31.9,M,,*5C
$PYRTM,2024,124.422071024352,15.531718434491
$GPGGA,100746.00,3526.1718,N,12141.1631,W,1,10,0.8,8.9,M,-31.9,M,,*5B
$PYRTM,2024,124.422086895880,15.531734306019
$GPGGA,100747.00,3526.1725,N,12141.1638,W,1,10,0.8,9.2,M,-31.9,M,,*57
$PYRTM,2024,124.422098455718,15.531745865856
$GPGGA,100748.00,3526.1736,N,12141.1644,W,1,10,0.8,9.0,M,-31.9,M,,*53
$PYRTM,2024,124.422110030567,15.531757440706
$GPGGA,100749.00,3526.1746,N,12141.1650,W,1,10,0.8,8.8,M,-31.9,M,,*59
$PYRTM,2024,124.422121602940,15.531769013079
$GPGGA,100750.00,3526.1753,N,12141.1658,W,1,10,0.8,9.2,M,-31.9,M,,*56
$PYRTM,2024,124.422133177859,15.531780587986
$GPGGA,100751.00,3526.1760,N,12141.1667,W,1,10,0.8,9.7,M,-31.9,M,,*5E
$PYRTM,2024,124.422144751204,15.531792161343
$GPGGA,100752.00,3526.1769,N,12141.1676,W,1,10,0.8,9.8,M,-31.9,M,,*5B
$PYRTM,2024,124.422156325394,15.531803735532
$GPGGA,100753.00,3526.1780,N,12141.1682,W,1,10,0.8,9.7,M,-31.9,M,,*59
$PYRTM,2024,124.422163617234,15.531811027373
$GPGGA,100754.00,3526.1790,N,12141.1687,W,1,10,0.8,9.7,M,-31.9,M,,*5A
$PYRTM,2024,124.422182368738,15.531829778877
$GPGGA,100755.00,3526.1797,N,12141.1694,W,1,10,0.8,9.9,M,-31.9,M,,*50
$PYRTM,2024,124.422193929363,15.531841339502
$GPGGA,100756.00,3526.1805,N,12141.1705,W,1,10,0.8,10.2,M,-31.9,M,,*6D
$PYRTM,2024,124.422205516528,15.531852926667
$GPGGA,100757.00,3526.1814,N,12141.1714,W,1,10,0.8,9.8,M,-31.9,M,,*5E
$PYRTM,2024,124.422214191030,15.531861601169
$GPGGA,100758.00,3526.1825,N,12141.1722,W,1,10,0.8,9.2,M,-31.9,M,,*5C
$PYRTM,2024,124.422225770463,15.531873180602
$GPGGA,100759.00,3526.1835,N,12141.1729,W,1,10,0.8,8.8,M,-31.9,M,,*5C
$PYRTM,2024,124.422237345116,15.531884755255
$GPGGA,100800.00,3526.1843,N,12141.1737,W,1,10,0.8,9.3,M,-31.9,M,,*5B
$PYRTM,2024,124.422248933646,15.531896343785
$GPGGA,100801.00,3526.1850,N,12141.1745,W,1,10,0.8,10.0,M,-31.9,M,,*66
$PYRTM,2024,124.422260487882,15.531907898021
$GPGGA,100802.00,3526.1860,N,12141.1752,W,1,10,0.8,10.2,M,-31.9,M,,*62
$PYRTM,2024,124.422272071505,15.531919481644
$GPGGA,100803.00,3526.1872,N,12141.1759,W,1,10,0.8,9.7,M,-31.9,M,,*56
$PYRTM,2024,124.422283641933,15.531931052072
$GPGGA,100804.00,3526.1882,N,12141.1767,W,1,10,0.8,9.1,M,-31.9,M,,*55
$PYRTM,2024,124.422295216250,15.531942626389
$GPGGA,100805.00,3526.1890,N,12141.1778,W,1,10,0.8,8.9,M,-31.9,M,,*50
$PYRTM,2024,124.422306790903,15.531954201042
$GPGGA,100806.00,3526.1897,N,12141.1787,W,1,10,0.8,9.5,M,-31.9,M,,*59
$PYRTM,2024,124.422318364410,15.531965774549
$GPGGA,100807.00,3526.1906,N,12141.1791,W,1,10,0.8,10.3,M,-31.9,M,,*68
$PYRTM,2024,124.422329937998,15.531977348137
$GPGGA,100808.00,3526.1919,N,12141.1796,W,1,10,0.8,10.3,M,-31.9,M,,*6E
$PYRTM,2024,124.422337334225,15.531984744363
$GPGGA,100809.00,3526.1930,N,12141.1805,W,1,10,0.8,9.7,M,-31.9,M,,*5D
$PYRTM,2024,124.422353086551,15.532000496690
$GPGGA,100810.00,3526.1936,N,12141.1816,W,1,10,0.8,9.6,M,-31.9,M,,*50
$PYRTM,2024,124.422364660301,15.532012070440
$GPGGA,100811.00,3526.1942,N,12141.1825,W,1,10,0.8,10.0,M,-31.9,M,,*6C
$PYRTM,2024,124.422376235671,15.532023645810
$GPGGA,100812.00,3526.1953,N,12141.1831,W,1,10,0.8,10.0,M,-31.9,M,,*6A
$PYRTM,2024,124.422387811840,15.532035221991
$GPGGA,100813.00,3526.1966,N,12141.1836,W,1,10,0.8,9.5,M,-31.9,M,,*57
$PYRTM,2024,124.422399382998,15.532046793137
$GPGGA,100814.00,3526.1974,N,12141.1843,W,1,10,0.8,9.4,M,-31.9,M,,*50
$PYRTM,2024,124.422410961412,15.532058371563
$GPGGA,100815.00,3526.1981,N,12141.1853,W,1,10,0.8,9.8,M,-31.9,M,,*56
$PYRTM,2024,124.422422531019,15.532069941157
$GPGGA,100816.00,3526.1989,N,12141.1863,W,1,10,0.8,10.0,M,-31.9,M,,*6E
$PYRTM,2024,124.422434121481,15.532081531620
$GPGGA,100817.00,3526.2000,N,12141.1872,W,1,10,0.8,9.7,M,-31.9,M,,*5B
$PYRTM,2024,124.422445680324,15.532093090475
$GPGGA,100818.00,3526.2010,N,12141.1878,W,1,10,0.8,9.5,M,-31.9,M,,*5D
$PYRTM,2024,124.422457253924,15.532104664062
$GPGGA,100819.00,3526.2018,N,12141.1882,W,1,10,0.8,9.8,M,-31.9,M,,*5C
$PYRTM,2024,124.422468828843,15.532116238993
$GPGGA,100820.00,3526.2026,N,12141.1888,W,1,10,0.8,10.5,M,-31.9,M,,*64
$PYRTM,2024,124.422476222465,15.532123632604
$GPGGA,100821.00,3526.2035,N,12141.1900,W,1,10,0.8,10.0,M,-31.9,M,,*63
$PYRTM,2024,124.422491977488,15.532139387627
$GPGGA,100822.00,3526.2044,N,12141.1912,W,1,10,0.8,9.4,M,-31.9,M,,*59
$PYRTM,2024,124.422503550451,15.532150960602
$GPGGA,100823.00,3526.2054,N,12141.1919,W,1,10,0.8,9.3,M,-31.9,M,,*55
$PYRTM,2024,124.422510945752,15.532158355891
$GPGGA,100824.00,3526.2064,N,12141.1921,W,1,10,0.8,10.0,M,-31.9,M,,*61
$PYRTM,2024,124.422522636806,15.532170046944
$GPGGA,100825.00,3526.2073,N,12141.1925,W,1,10,0.8,10.0,M,-31.9,M,,*62
$PYRTM,2024,124.422541154861,15.532188565000
$GPGGA,100826.00,3526.2082,N,12141.1936,W,1,10,0.8,10.2,M,-31.9,M,,*6F
$PYRTM,2024,124.422549846887,15.532197257025
$GPGGA,100827.00,3526.2091,N,12141.1948,W,1,10,0.8,9.8,M,-31.9,M,,*57
$PYRTM,2024,124.422561422650,15.532208832789
$GPGGA,100828.00,3526.2100,N,12141.1956,W,1,10,0.8,9.8,M,-31.9,M,,*5E
$PYRTM,2024,124.422568713437,15.532216123576
$GPGGA,100829.00,3526.2110,N,12141.1959,W,1,10,0.8,9.9,M,-31.9,M,,*50
$PYRTM,2024,124.422584569190,15.532231979329
$GPGGA,100830.00,3526.2119,N,12141.1964,W,1,10,0.8,10.4,M,-31.9,M,,*6A
$PYRTM,2024,124.422596146875,15.532243557014
$GPGGA,100831.00,3526.2127,N,12141.1974,W,1,10,0.8,10.5,M,-31.9,M,,*66
$PYRTM,2024,124.422603539468,15.532250949606
$GPGGA,100832.00,3526.2136,N,12141.1985,W,1,10,0.8,10.5,M,-31.9,M,,*6B
$PYRTM,2024,124.422619292917,15.532266703056
$GPGGA,100833.00,3526.2147,N,12141.1994,W,1,10,0.8,10.0,M,-31.9,M,,*69
$PYRTM,2024,124.422630866493,15.532278276632
$GPGGA,100834.00,3526.2158,N,12141.2000,W,1,10,0.8,9.6,M,-31.9,M,,*59
$PYRTM,2024,124.422642440764,15.532289850903
$GPGGA,100835.00,3526.2166,N,12141.2005,W,1,10,0.8,9.8,M,-31.9,M,,*5E
$PYRTM,2024,124.422654009896,15.532301420046
$GPGGA,100836.00,3526.2173,N,12141.2011,W,1,10,0.8,10.4,M,-31.9,M,,*68
$PYRTM,2024,124.422665588275,15.532312998414
$GPGGA,100837.00,3526.2182,N,12141.2020,W,1,10,0.8,10.7,M,-31.9,M,,*66
$PYRTM,2024,124.422677163681,15.532324573819
$GPGGA,100838.00,3526.2193,N,12141.2030,W,1,10,0.8,10.3,M,-31.9,M,,*6C
$PYRTM,2024,124.422688740405,15.532336150544
$GPGGA,100839.00,3526.2204,N,12141.2038,W,1,10,0.8,8.9,M,-31.9,M,,*5B
$PYRTM,2024,124.422700312569,15.532347722708
