$PYRTM,2024,123.833348693738,14.942996103877
$GPGGA,200000.00,3443.3694,N,12111.4343,W,1,10,0.8,7.0,M,-33.2,M,,*57
$PYRTM,2024,123.833360268160,14.943007678310
$GPGGA,200001.00,3443.3704,N,12111.4356,W,1,10,0.8,6.9,M,-33.2,M,,*52
$PYRTM,2024,123.833367662269,14.943015072407
$GPGGA,200002.00,3443.3716,N,12111.4362,W,1,10,0.8,7.2,M,-33.2,M,,*5F
$PYRTM,2024,123.833383416354,14.943030826493
$GPGGA,200003.00,3443.3731,N,12111.4368,W,1,10,0.8,7.3,M,-33.2,M,,*50
$PYRTM,2024,123.833394995521,14.943042405660
$GPGGA,200004.00,3443.3747,N,12111.4378,W,1,10,0.8,7.0,M,-33.2,M,,*54
$PYRTM,2024,123.833402386238,14.943049796377
$GPGGA,200005.00,3443.3759,N,12111.4391,W,1,10,0.8,6.9,M,-33.2,M,,*55
$PYRTM,2024,123.833418150231,14.943065560370
$GPGGA,200006.00,3443.3767,N,12111.4404,W,1,10,0.8,7.5,M,-33.2,M,,*5D
$PYRTM,2024,123.833429713345,14.943077123484
$GPGGA,200007.00,3443.3779,N,12111.4415,W,1,10,0.8,7.8,M,-33.2,M,,*5E
$PYRTM,2024,123.833441303148,14.943088713287
$GPGGA,200008.00,3443.3794,N,12111.4425,W,1,10,0.8,7.4,M,-33.2,M,,*5D
$PYRTM,2024,123.833448685000,14.943096095139
$GPGGA,200009.00,3443.3810,N,12111.4435,W,1,10,0.8,6.9,M,-33.2,M,,*52
$PYRTM,2024,123.833467332650,14.943114742789
$GPGGA,200010.00,3443.3822,N,12111.4442,W,1,10,0.8,7.0,M,-33.2,M,,*53
$PYRTM,2024,123.833476010058,14.943123420197
$GPGGA,200011.00,3443.3835,N,12111.4451,W,1,10,0.8,7.5,M,-33.2,M,,*53
$PYRTM,2024,123.833487584815,14.943134994954
$GPGGA,200012.00,3443.3848,N,12111.4464,W,1,10,0.8,7.4,M,-33.2,M,,*5D
$PYRTM,2024,123.833494994294,14.943142404433
$GPGGA,200013.00,3443.3861,N,12111.4478,W,1,10,0.8,7.0,M,-33.2,M,,*5E
$PYRTM,2024,123.833510734097,14.943158144236
$GPGGA,200014.00,3443.3873,N,12111.4487,W,1,10,0.8,7.0,M,-33.2,M,,*5A
$PYRTM,2024,123.833522307315,14.943169717465
$GPGGA,200015.00,3443.3887,N,12111.4493,W,1,10,0.8,7.4,M,-33.2,M,,*51
$PYRTM,2024,123.833529702407,14.943177112546
$GPGGA,200016.00,3443.3903,N,12111.4502,W,1,10,0.8,7.5,M,-33.2,M,,*57
$PYRTM,2024,123.833545452257,14.943192862396
$GPGGA,200017.00,3443.3917,N,12111.4514,W,1,10,0.8,7.2,M,-33.2,M,,*53
$PYRTM,2024,123.833557028796,14.943204438935
$GPGGA,200018.00,3443.3930,N,12111.4528,W,1,10,0.8,6.8,M,-33.2,M,,*5D
$PYRTM,2024,123.833564424225,14.943211834363
$GPGGA,200019.00,3443.3941,N,12111.4538,W,1,10,0.8,6.9,M,-33.2,M,,*5A
$PYRTM,2024,123.833580179861,14.943227590000
$GPGGA,200020.00,3443.3955,N,12111.4543,W,1,10,0.8,7.7,M,-33.2,M,,*56
$PYRTM,2024,123.833587573900,14.943234984039
$GPGGA,200021.00,3443.3970,N,12111.4549,W,1,10,0.8,8.3,M,-33.2,M,,*51
$PYRTM,2024,123.833606220093,14.943253630243
$GPGGA,200022.00,3443.3985,N,12111.4561,W,1,10,0.8,7.9,M,-33.2,M,,*57
$PYRTM,2024,123.833617781088,14.943265191227
$GPGGA,200023.00,3443.3999,N,12111.4576,W,1,10,0.8,6.8,M,-33.2,M,,*5D
$PYRTM,2024,123.833629383403,14.943276793542
$GPGGA,200024.00,3443.4011,N,12111.4587,W,1,10,0.8,6.3,M,-33.2,M,,*51
$PYRTM,2024,123.833640928819,14.943288338958
$GPGGA,200025.00,3443.4024,N,12111.4591,W,1,10,0.8,6.7,M,-33.2,M,,*55
$PYRTM,2024,123.833649643194,14.943297053333
$GPGGA,200026.00,3443.4039,N,12111.4597,W,1,10,0.8,7.3,M,-33.2,M,,*59
$PYRTM,2024,123.833661197998,14.943308608148
$GPGGA,200027.00,3443.4056,N,12111.4609,W,1,10,0.8,7.3,M,-33.2,M,,*55
$PYRTM,2024,123.833668592222,14.943316002373
$GPGGA,200028.00,3443.4069,N,12111.4623,W,1,10,0.8,7.2,M,-33.2,M,,*5F
$PYRTM,2024,123.833684350845,14.943331760995
$GPGGA,200029.00,3443.4081,N,12111.4633,W,1,10,0.8,7.3,M,-33.2,M,,*58
$PYRTM,2024,123.833695918854,14.943343328993
$GPGGA,200030.00,3443.4095,N,12111.4642,W,1,10,0.8,7.2,M,-33.2,M,,*52
$PYRTM,2024,123.833703314398,14.943350724537
$GPGGA,200031.00,3443.4112,N,12111.4652,W,1,10,0.8,6.7,M,-33.2,M,,*58
$PYRTM,2024,123.833719071134,14.943366481273
$GPGGA,200032.00,3443.4127,N,12111.4662,W,1,10,0.8,6.4,M,-33.2,M,,*5D
$PYRTM,2024,123.833730640729,14.943378050868
$GPGGA,200033.00,3443.4139,N,12111.4672,W,1,10,0.8,6.9,M,-33.2,M,,*5F
$PYRTM,2024,123.833742219850,14.943389629988
$GPGGA,200034.00,3443.4151,N,12111.4680,W,1,10,0.8,7.7,M,-33.2,M,,*54
$PYRTM,2024,123.833753790324,14.943401200463
$GPGGA,200035.00,3443.4167,N,12111.4691,W,1,10,0.8,7.7,M,-33.2,M,,*50
$PYRTM,2024,123.833761184097,14.943408594236
$GPGGA,200036.00,3443.4183,N,12111.4702,W,1,10,0.8,7.1,M,-33.2,M,,*54
$PYRTM,2024,123.833776938715,14.943424348854
$GPGGA,200037.00,3443.4196,N,12111.4713,W,1,10,0.8,6.7,M,-33.2,M,,*56
$PYRTM,2024,123.833788513495,14.943435923634
$GPGGA,200038.00,3443.4208,N,12111.4722,W,1,10,0.8,7.0,M,-33.2,M,,*59
$PYRTM,2024,123.833800085995,14.943447496134
$GPGGA,200039.00,3443.4222,N,12111.4731,W,1,10,0.8,7.4,M,-33.2,M,,*56
$PYRTM,2024,123.833807484340,14.943454894479
$GPGGA,200040.00,3443.4237,N,12111.4742,W,1,10,0.8,7.7,M,-33.2,M,,*5B
$PYRTM,2024,123.833826118426,14.943473528565
$GPGGA,200041.00,3443.4251,N,12111.4754,W,1,10,0.8,7.9,M,-33.2,M,,*53
$PYRTM,2024,123.833834810660,14.943482220799
$GPGGA,200042.00,3443.4265,N,12111.4766,W,1,10,0.8,7.8,M,-33.2,M,,*57
$PYRTM,2024,123.833846385590,14.943493795729
$GPGGA,200043.00,3443.4281,N,12111.4777,W,1,10,0.8,7.6,M,-33.2,M,,*52
$PYRTM,2024,123.833857973137,14.943505383287
$GPGGA,200044.00,3443.4295,N,12111.4786,W,1,10,0.8,7.7,M,-33.2,M,,*5F
$PYRTM,2024,123.833869533218,14.943516943356
$GPGGA,200045.00,3443.4308,N,12111.4796,W,1,10,0.8,8.1,M,-33.2,M,,*53
$PYRTM,2024,123.833881106123,14.943528516262
$GPGGA,200046.00,3443.4321,N,12111.4811,W,1,10,0.8,8.1,M,-33.2,M,,*5B
$PYRTM,2024,123.833892680220,14.943540090359
$GPGGA,200047.00,3443.4336,N,12111.4826,W,1,10,0.8,7.6,M,-33.2,M,,*50
$PYRTM,2024,123.833904257338,14.943551667477
$GPGGA,200048.00,3443.4350,N,12111.4834,W,1,10,0.8,7.5,M,-33.2,M,,*5F
$PYRTM,2024,123.833915828762,14.943563238900
$GPGGA,200049.00,3443.4363,N,12111.4839,W,1,10,0.8,8.1,M,-33.2,M,,*58
$PYRTM,2024,123.833927402535,14.943574812674
$GPGGA,200050.00,3443.4376,N,12111.4851,W,1,10,0.8,8.3,M,-33.2,M,,*58
$PYRTM,2024,123.833934797662,14.943582207801
$GPGGA,200051.00,3443.4389,N,12111.4868,W,1,10,0.8,7.7,M,-33.2,M,,*58
$PYRTM,2024,123.833950552975,14.943597963113
$GPGGA,200052.00,3443.4400,N,12111.4879,W,1,10,0.8,7.4,M,-33.2,M,,*5E
$PYRTM,2024,123.833962128576,14.943609538715
$GPGGA,200053.00,3443.4413,N,12111.4884,W,1,10,0.8,7.7,M,-33.2,M,,*5C
$PYRTM,2024,123.833973706215,14.943621116354
$GPGGA,200054.00,3443.4428,N,12111.4892,W,1,10,0.8,7.6,M,-33.2,M,,*55
$PYRTM,2024,123.833981095417,14.943628505556
$GPGGA,200055.00,3443.4442,N,12111.4905,W,1,10,0.8,7.0,M,-33.2,M,,*51
$PYRTM,2024,123.833996858530,14.943644268669
$GPGGA,200056.00,3443.4453,N,12111.4918,W,1,10,0.8,7.1,M,-33.2,M,,*5F
$PYRTM,2024,123.834008433368,14.943655843507
$GPGGA,200057.00,3443.4462,N,12111.4928,W,1,10,0.8,7.8,M,-33.2,M,,*56
$PYRTM,2024,123.834019996123,14.943667406273
$GPGGA,200058.00,3443.4478,N,12111.4937,W,1,10,0.8,8.1,M,-33.2,M,,*5A
$PYRTM,2024,123.834031566204,14.943678976343
$GPGGA,200059.00,3443.4495,N,12111.4948,W,1,10,0.8,7.4,M,-33.2,M,,*5A
$PYRTM,2024,123.834043153218,14.943690563356
$GPGGA,200100.00,3443.4506,N,12111.4958,W,1,10,0.8,7.1,M,-33.2,M,,*58
$PYRTM,2024,123.834054726331,14.943702136470
$GPGGA,200101.00,3443.4513,N,12111.4968,W,1,10,0.8,7.9,M,-33.2,M,,*56
$PYRTM,2024,123.834066298322,14.943713708461
$GPGGA,200102.00,3443.4526,N,12111.4979,W,1,10,0.8,8.3,M,-33.2,M,,*56
$PYRTM,2024,123.834077874977,14.943725285116
$GPGGA,200103.00,3443.4543,N,12111.4991,W,1,10,0.8,7.6,M,-33.2,M,,*58
$PYRTM,2024,123.834089447303,14.943736857442
$GPGGA,200104.00,3443.4555,N,12111.5000,W,1,10,0.8,7.2,M,-33.2,M,,*5C
$PYRTM,2024,123.834101016458,14.943748426597
$GPGGA,200105.00,3443.4564,N,12111.5008,W,1,10,0.8,7.6,M,-33.2,M,,*53
$PYRTM,2024,123.834108409988,14.943755820127
$GPGGA,200106.00,3443.4576,N,12111.5018,W,1,10,0.8,7.8,M,-33.2,M,,*5C
$PYRTM,2024,123.834124158137,14.943771568275
$GPGGA,200107.00,3443.4591,N,12111.5028,W,1,10,0.8,7.5,M,-33.2,M,,*5A
$PYRTM,2024,123.834135737546,14.943783147685
$GPGGA,200108.00,3443.4605,N,12111.5039,W,1,10,0.8,7.0,M,-33.2,M,,*5E
$PYRTM,2024,123.834147312361,14.943794722500
$GPGGA,200109.00,3443.4614,N,12111.5049,W,1,10,0.8,7.1,M,-33.2,M,,*59
$PYRTM,2024,123.834158886100,14.943806296238
$GPGGA,200110.00,3443.4623,N,12111.5058,W,1,10,0.8,7.6,M,-33.2,M,,*52
$PYRTM,2024,123.834166292940,14.943813703079
$GPGGA,200111.00,3443.4637,N,12111.5068,W,1,10,0.8,7.6,M,-33.2,M,,*55
$PYRTM,2024,123.834184928785,14.943832338924
$GPGGA,200112.00,3443.4653,N,12111.5079,W,1,10,0.8,6.8,M,-33.2,M,,*5B
$PYRTM,2024,123.834193610162,14.943841020313
$GPGGA,200113.00,3443.4667,N,12111.5087,W,1,10,0.8,6.3,M,-33.2,M,,*57
$PYRTM,2024,123.834205208519,14.943852618657
$GPGGA,200114.00,3443.4676,N,12111.5096,W,1,10,0.8,6.9,M,-33.2,M,,*5A
$PYRTM,2024,123.834216752407,14.943864162546
$GPGGA,200115.00,3443.4686,N,12111.5107,W,1,10,0.8,7.7,M,-33.2,M,,*52
$PYRTM,2024,123.834228343495,14.943875753634
$GPGGA,200116.00,3443.4699,N,12111.5119,W,1,10,0.8,7.6,M,-33.2,M,,*51
$PYRTM,2024,123.834239906586,14.943887316736
$GPGGA,200117.00,3443.4715,N,12111.5128,W,1,10,0.8,7.1,M,-33.2,M,,*50
$PYRTM,2024,123.834251478993,14.943898889132
$GPGGA,200118.00,3443.4729,N,12111.5136,W,1,10,0.8,6.6,M,-33.2,M,,*59
$PYRTM,2024,123.834263055301,14.943910465440
$GPGGA,200119.00,3443.4743,N,12111.5147,W,1,10,0.8,6.2,M,-33.2,M,,*56
$PYRTM,2024,123.834274638727,14.943922048866
$GPGGA,200120.00,3443.4754,N,12111.5160,W,1,10,0.8,6.4,M,-33.2,M,,*59
$PYRTM,2024,123.834282033912,14.943929444051
$GPGGA,200121.00,3443.4764,N,12111.5166,W,1,10,0.8,7.3,M,-33.2,M,,*5B
$PYRTM,2024,123.834297797095,14.943945207245
$GPGGA,200122.00,3443.4780,N,12111.5171,W,1,10,0.8,7.9,M,-33.2,M,,*5E
$PYRTM,2024,123.834309350775,14.943956760914
$GPGGA,200123.00,3443.4796,N,12111.5181,W,1,10,0.8,7.7,M,-33.2,M,,*59
$PYRTM,2024,123.834320924444,14.943968334583
$GPGGA,200124.00,3443.4807,N,12111.5194,W,1,10,0.8,7.2,M,-33.2,M,,*58
$PYRTM,2024,123.834332494051,14.943979904190
$GPGGA,200125.00,3443.4816,N,12111.5206,W,1,10,0.8,6.9,M,-33.2,M,,*5B
$PYRTM,2024,123.834344084433,14.943991494583
$GPGGA,200126.00,3443.4831,N,12111.5215,W,1,10,0.8,6.4,M,-33.2,M,,*52
$PYRTM,2024,123.834351491586,14.943998901725
$GPGGA,200127.00,3443.4847,N,12111.5221,W,1,10,0.8,6.0,M,-33.2,M,,*51
$PYRTM,2024,123.834367221701,14.944014631840
$GPGGA,200128.00,3443.4856,N,12111.5225,W,1,10,0.8,6.8,M,-33.2,M,,*52
$PYRTM,2024,123.834378795139,14.944026205278
$GPGGA,200129.00,3443.4863,N,12111.5234,W,1,10,0.8,8.2,M,-33.2,M,,*51
$PYRTM,2024,123.834390380602,14.944037790741
$GPGGA,200130.00,3443.4875,N,12111.5250,W,1,10,0.8,8.6,M,-33.2,M,,*58
$PYRTM,2024,123.834397776331,14.944045186470
$GPGGA,200131.00,3443.4892,N,12111.5267,W,1,10,0.8,7.9,M,-33.2,M,,*54
$PYRTM,2024,123.834413543218,14.944060953356
$GPGGA,200132.00,3443.4905,N,12111.5275,W,1,10,0.8,7.4,M,-33.2,M,,*56
$PYRTM,2024,123.834425092002,14.944072502141
$GPGGA,200133.00,3443.4913,N,12111.5276,W,1,10,0.8,8.1,M,-33.2,M,,*59
$PYRTM,2024,123.834432487211,14.944079897350
$GPGGA,200134.00,3443.4922,N,12111.5282,W,1,10,0.8,9.1,M,-33.2,M,,*56
$PYRTM,2024,123.834448240417,14.944095650556
$GPGGA,200135.00,3443.4936,N,12111.5293,W,1,10,0.8,9.2,M,-33.2,M,,*51
$PYRTM,2024,123.834459827639,14.944107237778
$GPGGA,200136.00,3443.4949,N,12111.5306,W,1,10,0.8,8.8,M,-33.2,M,,*5C
$PYRTM,2024,123.834471389630,14.944118799769
$GPGGA,200137.00,3443.4960,N,12111.5316,W,1,10,0.8,8.5,M,-33.2,M,,*5A
$PYRTM,2024,123.834482963542,14.944130373681
$GPGGA,200138.00,3443.4971,N,12111.5323,W,1,10,0.8,8.3,M,-33.2,M,,*55
$PYRTM,2024,123.834490369144,14.944137779282
$GPGGA,200139.00,3443.4984,N,12111.5331,W,1,10,0.8,8.1,M,-33.2,M,,*5F
$PYRTM,2024,123.834506122650,14.944153532789
$GPGGA,200140.00,3443.4996,N,12111.5340,W,1,10,0.8,8.1,M,-33.2,M,,*54
$PYRTM,2024,123.834517685521,14.944165095660
$GPGGA,200141.00,3443.5008,N,12111.5349,W,1,10,0.8,8.5,M,-33.2,M,,*57
$PYRTM,2024,123.834525079896,14.944172490035
$GPGGA,200142.00,3443.5019,N,12111.5359,W,1,10,0.8,9.0,M,-33.2,M,,*51
$PYRTM,2024,123.834543727789,14.944191137928
$GPGGA,200143.00,3443.5032,N,12111.5370,W,1,10,0.8,8.9,M,-33.2,M,,*5A
$PYRTM,2024,123.834552428368,14.944199838507
$GPGGA,200144.00,3443.5045,N,12111.5380,W,1,10,0.8,8.4,M,-33.2,M,,*5F
$PYRTM,2024,123.834563983229,14.944211393368
$GPGGA,200145.00,3443.5058,N,12111.5390,W,1,10,0.8,7.9,M,-33.2,M,,*51
$PYRTM,2024,123.834575556262,14.944222966400
$GPGGA,200146.00,3443.5070,N,12111.5400,W,1,10,0.8,7.6,M,-33.2,M,,*59
$PYRTM,2024,123.834587130833,14.944234540972
$GPGGA,200147.00,3443.5082,N,12111.5408,W,1,10,0.8,8.1,M,-33.2,M,,*55
$PYRTM,2024,123.834598704491,14.944246114630
$GPGGA,200148.00,3443.5094,N,12111.5416,W,1,10,0.8,8.8,M,-33.2,M,,*5B
$PYRTM,2024,123.834606113056,14.944253523194
$GPGGA,200149.00,3443.5109,N,12111.5427,W,1,10,0.8,8.7,M,-33.2,M,,*52
$PYRTM,2024,123.834621864236,14.944269274375
$GPGGA,200150.00,3443.5123,N,12111.5439,W,1,10,0.8,8.1,M,-33.2,M,,*5B
$PYRTM,2024,123.834633422813,14.944280832951
$GPGGA,200151.00,3443.5133,N,12111.5449,W,1,10,0.8,8.0,M,-33.2,M,,*5D
$PYRTM,2024,123.834640822164,14.944288232303
$GPGGA,200152.00,3443.5145,N,12111.5459,W,1,10,0.8,8.3,M,-33.2,M,,*5D
$PYRTM,2024,123.834656575752,14.944303985903
$GPGGA,200153.00,3443.5159,N,12111.5469,W,1,10,0.8,8.1,M,-33.2,M,,*50
$PYRTM,2024,123.834668150104,14.944315560243
$GPGGA,200154.00,3443.5173,N,12111.5477,W,1,10,0.8,7.8,M,-33.2,M,,*56
$PYRTM,2024,123.834679724016,14.944327134155
$GPGGA,200155.00,3443.5186,N,12111.5484,W,1,10,0.8,8.3,M,-33.2,M,,*55
$PYRTM,2024,123.834691310174,14.944338720313
$GPGGA,200156.00,3443.5197,N,12111.5494,W,1,10,0.8,8.9,M,-33.2,M,,*5D
$PYRTM,2024,123.834698703970,14.944346114109
$GPGGA,200157.00,3443.5211,N,12111.5507,W,1,10,0.8,8.7,M,-33.2,M,,*54
$PYRTM,2024,123.834714454977,14.944361865116
$GPGGA,200158.00,3443.5225,N,12111.5521,W,1,10,0.8,7.9,M,-33.2,M,,*59
$PYRTM,2024,123.834721853264,14.944369263403
$GPGGA,200159.00,3443.5238,N,12111.5530,W,1,10,0.8,7.6,M,-33.2,M,,*5B
$PYRTM,2024,123.834737603125,14.944385013264
$GPGGA,200200.00,3443.5250,N,12111.5537,W,1,10,0.8,8.1,M,-33.2,M,,*55
$PYRTM,2024,123.834749168866,14.944396579005
$GPGGA,200201.00,3443.5265,N,12111.5544,W,1,10,0.8,8.6,M,-33.2,M,,*51
$PYRTM,2024,123.834760744340,14.944408154479
$GPGGA,200202.00,3443.5280,N,12111.5554,W,1,10,0.8,8.7,M,-33.2,M,,*59
$PYRTM,2024,123.834772319340,14.944419729479
$GPGGA,200203.00,3443.5292,N,12111.5568,W,1,10,0.8,8.6,M,-33.2,M,,*55
$PYRTM,2024,123.834783891516,14.944431301655
$GPGGA,200204.00,3443.5303,N,12111.5582,W,1,10,0.8,8.3,M,-33.2,M,,*5A
$PYRTM,2024,123.834795466516,14.944442876655
$GPGGA,200205.00,3443.5316,N,12111.5594,W,1,10,0.8,7.8,M,-33.2,M,,*5C
$PYRTM,2024,123.834807052431,14.944454462569
$GPGGA,200206.00,3443.5332,N,12111.5600,W,1,10,0.8,7.7,M,-33.2,M,,*58
$PYRTM,2024,123.834814441725,14.944461851863
$GPGGA,200207.00,3443.5347,N,12111.5605,W,1,10,0.8,8.1,M,-33.2,M,,*57
$PYRTM,2024,123.834830196458,14.944477606597
$GPGGA,200208.00,3443.5359,N,12111.5615,W,1,10,0.8,8.7,M,-33.2,M,,*50
$PYRTM,2024,123.834841762222,14.944489172361
$GPGGA,200209.00,3443.5370,N,12111.5631,W,1,10,0.8,8.7,M,-33.2,M,,*5C
$PYRTM,2024,123.834849157998,14.944496568137
$GPGGA,200210.00,3443.5383,N,12111.5646,W,1,10,0.8,8.3,M,-33.2,M,,*5C
$PYRTM,2024,123.834864911215,14.944512321366
$GPGGA,200211.00,3443.5399,N,12111.5655,W,1,10,0.8,7.7,M,-33.2,M,,*5F
$PYRTM,2024,123.834876485174,14.944523895313
$GPGGA,200212.00,3443.5415,N,12111.5662,W,1,10,0.8,7.5,M,-33.2,M,,*59
$PYRTM,2024,123.834883905023,14.944531315162
$GPGGA,200213.00,3443.5428,N,12111.5671,W,1,10,0.8,7.9,M,-33.2,M,,*58
$PYRTM,2024,123.834902529317,14.944549939456
$GPGGA,200214.00,3443.5439,N,12111.5683,W,1,10,0.8,8.8,M,-33.2,M,,*5C
$PYRTM,2024,123.834914102870,14.944561513009
$GPGGA,200215.00,3443.5452,N,12111.5695,W,1,10,0.8,9.2,M,-33.2,M,,*5C
$PYRTM,2024,123.834925681539,14.944573091678
$GPGGA,200216.00,3443.5470,N,12111.5706,W,1,10,0.8,8.7,M,-33.2,M,,*50
$PYRTM,2024,123.834934356574,14.944581766713
$GPGGA,200217.00,3443.5488,N,12111.5717,W,1,10,0.8,7.5,M,-33.2,M,,*5B
$PYRTM,2024,123.834945950660,14.944593360810
$GPGGA,200218.00,3443.5500,N,12111.5726,W,1,10,0.8,7.0,M,-33.2,M,,*52
$PYRTM,2024,123.834957503866,14.944604914005
$GPGGA,200219.00,3443.5509,N,12111.5734,W,1,10,0.8,7.6,M,-33.2,M,,*5F
$PYRTM,2024,123.834964899745,14.944612309884
$GPGGA,200220.00,3443.5520,N,12111.5746,W,1,10,0.8,8.4,M,-33.2,M,,*56
$PYRTM,2024,123.834980652639,14.944628062778
$GPGGA,200221.00,3443.5537,N,12111.5758,W,1,10,0.8,8.2,M,-33.2,M,,*58
$PYRTM,2024,123.834992227512,14.944639637650
$GPGGA,200222.00,3443.5556,N,12111.5768,W,1,10,0.8,7.0,M,-33.2,M,,*52
$PYRTM,2024,123.834999634826,14.944647044965
$GPGGA,200223.00,3443.5569,N,12111.5776,W,1,10,0.8,6.6,M,-33.2,M,,*57
$PYRTM,2024,123.835015386620,14.944662796771
$GPGGA,200224.00,3443.5575,N,12111.5786,W,1,10,0.8,7.1,M,-33.2,M,,*54
$PYRTM,2024,123.835026949896,14.944674360035
$GPGGA,200225.00,3443.5582,N,12111.5800,W,1,10,0.8,7.5,M,-33.2,M,,*58
$PYRTM,2024,123.835038523576,14.944685933715
$GPGGA,200226.00,3443.5599,N,12111.5813,W,1,10,0.8,7.2,M,-33.2,M,,*54
$PYRTM,2024,123.835050099132,14.944697509271
$GPGGA,200227.00,3443.5616,N,12111.5820,W,1,10,0.8,6.9,M,-33.2,M,,*5B
$PYRTM,2024,123.835061698692,14.944709108831
$GPGGA,200228.00,3443.5628,N,12111.5821,W,1,10,0.8,7.2,M,-33.2,M,,*52
$PYRTM,2024,123.835073247396,14.944720657535
$GPGGA,200229.00,3443.5640,N,12111.5830,W,1,10,0.8,7.4,M,-33.2,M,,*5B
$PYRTM,2024,123.835080640660,14.944728050799
$GPGGA,200230.00,3443.5653,N,12111.5846,W,1,10,0.8,6.9,M,-33.2,M,,*5C
$PYRTM,2024,123.835096395023,14.944743805162
$GPGGA,200231.00,3443.5663,N,12111.5858,W,1,10,0.8,6.7,M,-33.2,M,,*5F
$PYRTM,2024,123.835103792234,14.944751202373
$GPGGA,200232.00,3443.5672,N,12111.5862,W,1,10,0.8,7.4,M,-33.2,M,,*57
$PYRTM,2024,123.835115950255,14.944763360394
$GPGGA,200233.00,3443.5685,N,12111.5867,W,1,10,0.8,8.0,M,-33.2,M,,*50
$PYRTM,2024,123.835131117523,14.944778527662
$GPGGA,200234.00,3443.5702,N,12111.5878,W,1,10,0.8,7.3,M,-33.2,M,,*5B
$PYRTM,2024,123.835142691701,14.944790101840
$GPGGA,200235.00,3443.5715,N,12111.5888,W,1,10,0.8,6.4,M,-33.2,M,,*55
$PYRTM,2024,123.835150087130,14.944797497280
$GPGGA,200236.00,3443.5723,N,12111.5894,W,1,10,0.8,6.5,M,-33.2,M,,*5F
$PYRTM,2024,123.835165840012,14.944813250150
$GPGGA,200237.00,3443.5732,N,12111.5901,W,1,10,0.8,7.0,M,-33.2,M,,*57
$PYRTM,2024,123.835177425012,14.944824835150
$GPGGA,200238.00,3443.5743,N,12111.5911,W,1,10,0.8,7.1,M,-33.2,M,,*5E
$PYRTM,2024,123.835188987778,14.944836397928
$GPGGA,200239.00,3443.5756,N,12111.5921,W,1,10,0.8,6.8,M,-33.2,M,,*50
$PYRTM,2024,123.835200562720,14.944847972859
$GPGGA,200240.00,3443.5770,N,12111.5927,W,1,10,0.8,6.7,M,-33.2,M,,*53
$PYRTM,2024,123.835212135833,14.944859545972
$GPGGA,200241.00,3443.5782,N,12111.5934,W,1,10,0.8,6.7,M,-33.2,M,,*5D
$PYRTM,2024,123.835223735706,14.944871145856
$GPGGA,200242.00,3443.5793,N,12111.5943,W,1,10,0.8,6.8,M,-33.2,M,,*51
$PYRTM,2024,123.835235284699,14.944882694838
$GPGGA,200243.00,3443.5802,N,12111.5954,W,1,10,0.8,7.2,M,-33.2,M,,*5A
$PYRTM,2024,123.835242680845,14.944890090984
$GPGGA,200244.00,3443.5815,N,12111.5963,W,1,10,0.8,7.3,M,-33.2,M,,*5E
$PYRTM,2024,123.835261325637,14.944908735775
$GPGGA,200245.00,3443.5829,N,12111.5971,W,1,10,0.8,7.2,M,-33.2,M,,*52
$PYRTM,2024,123.835270007188,14.944917417326
$GPGGA,200246.00,3443.5842,N,12111.5979,W,1,10,0.8,7.0,M,-33.2,M,,*56
$PYRTM,2024,123.835281582407,14.944928992558
$GPGGA,200247.00,3443.5853,N,12111.5990,W,1,10,0.8,6.8,M,-33.2,M,,*59
$PYRTM,2024,123.835288975683,14.944936385822
$GPGGA,200248.00,3443.5866,N,12111.5999,W,1,10,0.8,6.8,M,-33.2,M,,*59
$PYRTM,2024,123.835304730752,14.944952140891
$GPGGA,200249.00,3443.5878,N,12111.6007,W,1,10,0.8,7.2,M,-33.2,M,,*51
$PYRTM,2024,123.835312124653,14.944959534792
$GPGGA,200250.00,3443.5890,N,12111.6015,W,1,10,0.8,7.5,M,-33.2,M,,*5B
$PYRTM,2024,123.835323814190,14.944971224329
$GPGGA,200251.00,3443.5902,N,12111.6027,W,1,10,0.8,7.4,M,-33.2,M,,*50
$PYRTM,2024,123.835339462905,14.944986873044
$GPGGA,200252.00,3443.5915,N,12111.6039,W,1,10,0.8,7.0,M,-33.2,M,,*5E
$PYRTM,2024,123.835351027963,14.944998438102
$GPGGA,200253.00,3443.5928,N,12111.6050,W,1,10,0.8,6.6,M,-33.2,M,,*59
$PYRTM,2024,123.835362599745,14.945010009884
$GPGGA,200254.00,3443.5940,N,12111.6057,W,1,10,0.8,6.8,M,-33.2,M,,*59
$PYRTM,2024,123.835374175347,14.945021585486
$GPGGA,200255.00,3443.5951,N,12111.6063,W,1,10,0.8,7.6,M,-33.2,M,,*50
$PYRTM,2024,123.835385757731,14.945033167870
$GPGGA,200256.00,3443.5964,N,12111.6072,W,1,10,0.8,8.0,M,-33.2,M,,*5C
$PYRTM,2024,123.835397322720,14.945044732859
$GPGGA,200257.00,3443.5978,N,12111.6088,W,1,10,0.8,7.4,M,-33.2,M,,*5E
$PYRTM,2024,123.835404718738,14.945052128877
$GPGGA,200258.00,3443.5990,N,12111.6100,W,1,10,0.8,6.7,M,-33.2,M,,*54
$PYRTM,2024,123.835416420810,14.945063830961
$GPGGA,200259.00,3443.6000,N,12111.6104,W,1,10,0.8,7.1,M,-33.2,M,,*55
$PYRTM,2024,123.835432056296,14.945079466435
$GPGGA,200300.00,3443.6012,N,12111.6108,W,1,10,0.8,7.7,M,-33.2,M,,*51
$PYRTM,2024,123.835439451481,14.945086861620
$GPGGA,200301.00,3443.6029,N,12111.6118,W,1,10,0.8,7.4,M,-33.2,M,,*5A
$PYRTM,2024,123.835455204769,14.945102614907
$GPGGA,200302.00,3443.6042,N,12111.6130,W,1,10,0.8,6.8,M,-33.2,M,,*53
$PYRTM,2024,123.835466767095,14.945114177234
$GPGGA,200303.00,3443.6049,N,12111.6138,W,1,10,0.8,7.2,M,-33.2,M,,*5A
$PYRTM,2024,123.835474163391,14.945121573530
$GPGGA,200304.00,3443.6058,N,12111.6144,W,1,10,0.8,8.2,M,-33.2,M,,*59
$PYRTM,2024,123.835489916377,14.945137326516
$GPGGA,200305.00,3443.6072,N,12111.6154,W,1,10,0.8,8.0,M,-33.2,M,,*53
$PYRTM,2024,123.835501499942,14.945148910081
$GPGGA,200306.00,3443.6088,N,12111.6164,W,1,10,0.8,7.0,M,-33.2,M,,*59
$PYRTM,2024,123.835513065081,14.945160475220
$GPGGA,200307.00,3443.6100,N,12111.6171,W,1,10,0.8,6.5,M,-33.2,M,,*59
$PYRTM,2024,123.835524638449,14.945172048588
$GPGGA,200308.00,3443.6108,N,12111.6177,W,1,10,0.8,7.1,M,-33.2,M,,*5D
$PYRTM,2024,123.835536207905,14.945183618044
$GPGGA,200309.00,3443.6117,N,12111.6185,W,1,10,0.8,8.1,M,-33.2,M,,*50
$PYRTM,2024,123.835547800359,14.945195210498
$GPGGA,200310.00,3443.6128,N,12111.6196,W,1,10,0.8,8.5,M,-33.2,M,,*52
$PYRTM,2024,123.835555193588,14.945202603727
$GPGGA,200311.00,3443.6143,N,12111.6205,W,1,10,0.8,7.9,M,-33.2,M,,*54
$PYRTM,2024,123.835570947419,14.945218357558
$GPGGA,200312.00,3443.6159,N,12111.6212,W,1,10,0.8,6.8,M,-33.2,M,,*5A
$PYRTM,2024,123.835582508785,14.945229918924
$GPGGA,200313.00,3443.6171,N,12111.6219,W,1,10,0.8,6.1,M,-33.2,M,,*53
$PYRTM,2024,123.835594110880,14.945241521019
$GPGGA,200314.00,3443.6178,N,12111.6227,W,1,10,0.8,6.5,M,-33.2,M,,*54
$PYRTM,2024,123.835601492812,14.945248902951
$GPGGA,200315.00,3443.6186,N,12111.6236,W,1,10,0.8,7.4,M,-33.2,M,,*54
$PYRTM,2024,123.835620128819,14.945267538958
$GPGGA,200316.00,3443.6200,N,12111.6245,W,1,10,0.8,7.7,M,-33.2,M,,*5D
$PYRTM,2024,123.835628803102,14.945276213241
$GPGGA,200317.00,3443.6216,N,12111.6253,W,1,10,0.8,7.1,M,-33.2,M,,*5A
$PYRTM,2024,123.835640389537,14.945287799676
$GPGGA,200318.00,3443.6229,N,12111.6263,W,1,10,0.8,6.3,M,-33.2,M,,*59
$PYRTM,2024,123.835647787986,14.945295198125
$GPGGA,200319.00,3443.6239,N,12111.6272,W,1,10,0.8,6.1,M,-33.2,M,,*5B
$PYRTM,2024,123.835663540822,14.945310950972
$GPGGA,200320.00,3443.6250,N,12111.6280,W,1,10,0.8,6.5,M,-33.2,M,,*57
$PYRTM,2024,123.835675103762,14.945322513900
$GPGGA,200321.00,3443.6263,N,12111.6288,W,1,10,0.8,7.1,M,-33.2,M,,*5B
$PYRTM,2024,123.835686676806,14.945334086956
$GPGGA,200322.00,3443.6276,N,12111.6297,W,1,10,0.8,7.5,M,-33.2,M,,*56
$PYRTM,2024,123.835698253183,14.945345663322
$GPGGA,200323.00,3443.6288,N,12111.6308,W,1,10,0.8,7.7,M,-33.2,M,,*53
$PYRTM,2024,123.835705646238,14.945353056377
$GPGGA,200324.00,3443.6301,N,12111.6319,W,1,10,0.8,7.5,M,-33.2,M,,*56
$PYRTM,2024,123.835721394977,14.945368805116
$GPGGA,200325.00,3443.6316,N,12111.6328,W,1,10,0.8,6.9,M,-33.2,M,,*5E
$PYRTM,2024,123.835732973947,14.945380384086
$GPGGA,200326.00,3443.6331,N,12111.6336,W,1,10,0.8,6.3,M,-33.2,M,,*5D
$PYRTM,2024,123.835744547963,14.945391958102
$GPGGA,200327.00,3443.6343,N,12111.6344,W,1,10,0.8,6.5,M,-33.2,M,,*5A
$PYRTM,2024,123.835756132697,14.945403542836
$GPGGA,200328.00,3443.6352,N,12111.6354,W,1,10,0.8,7.1,M,-33.2,M,,*51
$PYRTM,2024,123.835763516227,14.945410926366
$GPGGA,200329.00,3443.6364,N,12111.6366,W,1,10,0.8,7.4,M,-33.2,M,,*51
$PYRTM,2024,123.835779285914,14.945426696065
$GPGGA,200330.00,3443.6380,N,12111.6375,W,1,10,0.8,7.0,M,-33.2,M,,*55
$PYRTM,2024,123.835790844769,14.945438254907
$GPGGA,200331.00,3443.6397,N,12111.6383,W,1,10,0.8,6.1,M,-33.2,M,,*5B
$PYRTM,2024,123.835802426470,14.945449836620
$GPGGA,200332.00,3443.6408,N,12111.6392,W,1,10,0.8,5.7,M,-33.2,M,,*5C
$PYRTM,2024,123.835813993368,14.945461403507
$GPGGA,200333.00,3443.6416,N,12111.6403,W,1,10,0.8,6.0,M,-33.2,M,,*59
$PYRTM,2024,123.835821388762,14.945468798900
$GPGGA,200334.00,3443.6427,N,12111.6414,W,1,10,0.8,6.5,M,-33.2,M,,*5F
$PYRTM,2024,123.835837141944,14.945484552083
$GPGGA,200335.00,3443.6443,N,12111.6423,W,1,10,0.8,6.7,M,-33.2,M,,*5A
$PYRTM,2024,123.835844536620,14.945491946759
$GPGGA,200336.00,3443.6460,N,12111.6432,W,1,10,0.8,6.3,M,-33.2,M,,*5C
$PYRTM,2024,123.835863180046,14.945510590185
$GPGGA,200337.00,3443.6471,N,12111.6443,W,1,10,0.8,6.1,M,-33.2,M,,*59
$PYRTM,2024,123.835874758565,14.945522168704
$GPGGA,200338.00,3443.6479,N,12111.6453,W,1,10,0.8,6.6,M,-33.2,M,,*58
$PYRTM,2024,123.835883439144,14.945530849282
$GPGGA,200339.00,3443.6492,N,12111.6465,W,1,10,0.8,7.0,M,-33.2,M,,*5E
$PYRTM,2024,123.835895012998,14.945542423137
$GPGGA,200340.00,3443.6508,N,12111.6476,W,1,10,0.8,6.6,M,-33.2,M,,*57
$PYRTM,2024,123.835906586447,14.945553996586
$GPGGA,200341.00,3443.6523,N,12111.6484,W,1,10,0.8,6.3,M,-33.2,M,,*57
$PYRTM,2024,123.835918168160,14.945565578299
$GPGGA,200342.00,3443.6533,N,12111.6489,W,1,10,0.8,6.9,M,-33.2,M,,*52
$PYRTM,2024,123.835929733727,14.945577143866
$GPGGA,200343.00,3443.6545,N,12111.6500,W,1,10,0.8,7.4,M,-33.2,M,,*5E
$PYRTM,2024,123.835937130556,14.945584540694
$GPGGA,200344.00,3443.6560,N,12111.6515,W,1,10,0.8,6.8,M,-33.2,M,,*57
$PYRTM,2024,123.835952883576,14.945600293715
$GPGGA,200345.00,3443.6573,N,12111.6525,W,1,10,0.8,6.0,M,-33.2,M,,*5F
$PYRTM,2024,123.835960278750,14.945607688889
$GPGGA,200346.00,3443.6583,N,12111.6532,W,1,10,0.8,6.2,M,-33.2,M,,*57
$PYRTM,2024,123.835978925324,14.945626335463
$GPGGA,200347.00,3443.6596,N,12111.6541,W,1,10,0.8,6.5,M,-33.2,M,,*51
$PYRTM,2024,123.835987617060,14.945635027199
$GPGGA,200348.00,3443.6610,N,12111.6551,W,1,10,0.8,6.5,M,-33.2,M,,*52
$PYRTM,2024,123.835995013414,14.945642423553
$GPGGA,200349.00,3443.6622,N,12111.6560,W,1,10,0.8,6.5,M,-33.2,M,,*50
$PYRTM,2024,123.836010766528,14.945658176667
$GPGGA,200350.00,3443.6633,N,12111.6569,W,1,10,0.8,6.7,M,-33.2,M,,*53
$PYRTM,2024,123.836022328148,14.945669738287
$GPGGA,200351.00,3443.6646,N,12111.6582,W,1,10,0.8,6.4,M,-33.2,M,,*56
$PYRTM,2024,123.836033910127,14.945681320266
$GPGGA,200352.00,3443.6658,N,12111.6594,W,1,10,0.8,6.0,M,-33.2,M,,*59
$PYRTM,2024,123.836045476620,14.945692886759
$GPGGA,200353.00,3443.6671,N,12111.6600,W,1,10,0.8,6.4,M,-33.2,M,,*59
$PYRTM,2024,123.836052871470,14.945700281609
$GPGGA,200354.00,3443.6685,N,12111.6606,W,1,10,0.8,7.0,M,-33.2,M,,*56
$PYRTM,2024,123.836068625810,14.945716035949
$GPGGA,200355.00,3443.6699,N,12111.6615,W,1,10,0.8,7.2,M,-33.2,M,,*5A
$PYRTM,2024,123.836080210174,14.945727620312
$GPGGA,200356.00,3443.6713,N,12111.6627,W,1,10,0.8,7.2,M,-33.2,M,,*5B
$PYRTM,2024,123.836087617928,14.945735028067
$GPGGA,200357.00,3443.6725,N,12111.6637,W,1,10,0.8,7.1,M,-33.2,M,,*5D
$PYRTM,2024,123.836103358356,14.945750768495
$GPGGA,200358.00,3443.6738,N,12111.6647,W,1,10,0.8,6.8,M,-33.2,M,,*51
$PYRTM,2024,123.836114922662,14.945762332801
$GPGGA,200359.00,3443.6752,N,12111.6657,W,1,10,0.8,6.2,M,-33.2,M,,*57
$PYRTM,2024,123.836122315914,14.945769726053
$GPGGA,200400.00,3443.6766,N,12111.6665,W,1,10,0.8,6.1,M,-33.2,M,,*59
$PYRTM,2024,123.836138069688,14.945785479826
$GPGGA,200401.00,3443.6777,N,12111.6671,W,1,10,0.8,6.9,M,-33.2,M,,*55
$PYRTM,2024,123.836149651794,14.945797061933
$GPGGA,200402.00,3443.6788,N,12111.6679,W,1,10,0.8,7.5,M,-33.2,M,,*53
$PYRTM,2024,123.836161218808,14.945808628947
$GPGGA,200403.00,3443.6804,N,12111.6693,W,1,10,0.8,7.1,M,-33.2,M,,*59
$PYRTM,2024,123.836172793738,14.945820203877
$GPGGA,200404.00,3443.6820,N,12111.6708,W,1,10,0.8,5.9,M,-33.2,M,,*51
$PYRTM,2024,123.836184361516,14.945831771667
$GPGGA,200405.00,3443.6830,N,12111.6715,W,1,10,0.8,5.6,M,-33.2,M,,*52
$PYRTM,2024,123.836195942222,14.945843352361
$GPGGA,200406.00,3443.6838,N,12111.6715,W,1,10,0.8,6.7,M,-33.2,M,,*5B
$PYRTM,2024,123.836207515394,14.945854925532
$GPGGA,200407.00,3443.6849,N,12111.6717,W,1,10,0.8,7.6,M,-33.2,M,,*5E
$PYRTM,2024,123.836214806910,14.945862217049
$GPGGA,200408.00,3443.6865,N,12111.6731,W,1,10,0.8,7.2,M,-33.2,M,,*5F
$PYRTM,2024,123.836226601539,14.945874011678
$GPGGA,200409.00,3443.6880,N,12111.6748,W,1,10,0.8,6.1,M,-33.2,M,,*59
$PYRTM,2024,123.836242236840,14.945889646979
$GPGGA,200410.00,3443.6889,N,12111.6756,W,1,10,0.8,5.5,M,-33.2,M,,*50
$PYRTM,2024,123.836249516250,14.945896926389
$GPGGA,200411.00,3443.6898,N,12111.6756,W,1,10,0.8,6.1,M,-33.2,M,,*56
$PYRTM,2024,123.836265394167,14.945912804306
$GPGGA,200412.00,3443.6910,N,12111.6761,W,1,10,0.8,7.0,M,-33.2,M,,*50
$PYRTM,2024,123.836276960498,14.945924370637
$GPGGA,200413.00,3443.6926,N,12111.6772,W,1,10,0.8,6.9,M,-33.2,M,,*5E
$PYRTM,2024,123.836288544896,14.945935955035
$GPGGA,200414.00,3443.6939,N,12111.6783,W,1,10,0.8,6.5,M,-33.2,M,,*55
$PYRTM,2024,123.836300108275,14.945947518414
$GPGGA,200415.00,3443.6947,N,12111.6789,W,1,10,0.8,6.7,M,-33.2,M,,*55
$PYRTM,2024,123.836311692824,14.945959102963
$GPGGA,200416.00,3443.6956,N,12111.6796,W,1,10,0.8,7.2,M,-33.2,M,,*5C
$PYRTM,2024,123.836318961366,14.945966371505
$GPGGA,200417.00,3443.6969,N,12111.6805,W,1,10,0.8,6.9,M,-33.2,M,,*5E
$PYRTM,2024,123.836337726400,14.945985136539
$GPGGA,200418.00,3443.6985,N,12111.6814,W,1,10,0.8,6.2,M,-33.2,M,,*58
$PYRTM,2024,123.836346405648,14.945993815787
$GPGGA,200419.00,3443.6997,N,12111.6822,W,1,10,0.8,5.9,M,-33.2,M,,*57
$PYRTM,2024,123.836357990347,14.946005400486
$GPGGA,200420.00,3443.7005,N,12111.6828,W,1,10,0.8,6.5,M,-33.2,M,,*5B
$PYRTM,2024,123.836369552708,14.946016962847
$GPGGA,200421.00,3443.7013,N,12111.6836,W,1,10,0.8,7.4,M,-33.2,M,,*52
$PYRTM,2024,123.836381127801,14.946028537940
$GPGGA,200422.00,3443.7027,N,12111.6847,W,1,10,0.8,7.4,M,-33.2,M,,*50
$PYRTM,2024,123.836392702986,14.946040113125
$GPGGA,200423.00,3443.7043,N,12111.6856,W,1,10,0.8,6.7,M,-33.2,M,,*51
$PYRTM,2024,123.836404288669,14.946051698808
$GPGGA,200424.00,3443.7055,N,12111.6864,W,1,10,0.8,6.0,M,-33.2,M,,*57
$PYRTM,2024,123.836415850880,14.946063261019
$GPGGA,200425.00,3443.7064,N,12111.6870,W,1,10,0.8,6.2,M,-33.2,M,,*53
$PYRTM,2024,123.836427431817,14.946074841956
$GPGGA,200426.00,3443.7075,N,12111.6879,W,1,10,0.8,6.6,M,-33.2,M,,*5D
$PYRTM,2024,123.836439001551,14.946086411701
$GPGGA,200427.00,3443.7088,N,12111.6888,W,1,10,0.8,6.8,M,-33.2,M,,*5E
$PYRTM,2024,123.836450598657,14.946098008796
$GPGGA,200428.00,3443.7101,N,12111.6896,W,1,10,0.8,6.9,M,-33.2,M,,*5F
$PYRTM,2024,123.836462148681,14.946109558819
$GPGGA,200429.00,3443.7113,N,12111.6905,W,1,10,0.8,6.9,M,-33.2,M,,*56
$PYRTM,2024,123.836473734491,14.946121144630
$GPGGA,200430.00,3443.7125,N,12111.6917,W,1,10,0.8,6.6,M,-33.2,M,,*57
$PYRTM,2024,123.836485294444,14.946132704583
$GPGGA,200431.00,3443.7136,N,12111.6928,W,1,10,0.8,6.4,M,-33.2,M,,*5A
$PYRTM,2024,123.836496868970,14.946144279109
$GPGGA,200432.00,3443.7149,N,12111.6935,W,1,10,0.8,6.7,M,-33.2,M,,*5E
$PYRTM,2024,123.836508443333,14.946155853472
$GPGGA,200433.00,3443.7164,N,12111.6942,W,1,10,0.8,6.9,M,-33.2,M,,*5E
$PYRTM,2024,123.836520029433,14.946167439572
$GPGGA,200434.00,3443.7179,N,12111.6951,W,1,10,0.8,7.0,M,-33.2,M,,*5F
$PYRTM,2024,123.836531592396,14.946179002535
$GPGGA,200435.00,3443.7187,N,12111.6962,W,1,10,0.8,7.3,M,-33.2,M,,*5C
$PYRTM,2024,123.836543166493,14.946190576632
$GPGGA,200436.00,3443.7196,N,12111.6972,W,1,10,0.8,7.6,M,-33.2,M,,*5B
$PYRTM,2024,123.836554740810,14.946202150949
$GPGGA,200437.00,3443.7211,N,12111.6982,W,1,10,0.8,7.0,M,-33.2,M,,*5F
$PYRTM,2024,123.836566337801,14.946213747940
$GPGGA,200438.00,3443.7229,N,12111.6992,W,1,10,0.8,5.8,M,-33.2,M,,*50
$PYRTM,2024,123.836577888576,14.946225298715
$GPGGA,200439.00,3443.7240,N,12111.6998,W,1,10,0.8,5.3,M,-33.2,M,,*5F
$PYRTM,2024,123.836589488854,14.946236898993
$GPGGA,200440.00,3443.7247,N,12111.7003,W,1,10,0.8,6.0,M,-33.2,M,,*5C
$PYRTM,2024,123.836596741713,14.946244151863
$GPGGA,200441.00,3443.7258,N,12111.7012,W,1,10,0.8,7.0,M,-33.2,M,,*52
$PYRTM,2024,123.836612622326,14.946260032465
$GPGGA,200442.00,3443.7273,N,12111.7024,W,1,10,0.8,7.2,M,-33.2,M,,*5F
$PYRTM,2024,123.836624180903,14.946271591053
$GPGGA,200443.00,3443.7288,N,12111.7034,W,1,10,0.8,6.7,M,-33.2,M,,*5F
$PYRTM,2024,123.836635771123,14.946283181262
$GPGGA,200444.00,3443.7300,N,12111.7041,W,1,10,0.8,6.5,M,-33.2,M,,*59
$PYRTM,2024,123.836647335359,14.946294745498
$GPGGA,200445.00,3443.7311,N,12111.7050,W,1,10,0.8,6.3,M,-33.2,M,,*5E
$PYRTM,2024,123.836658918958,14.946306329097
$GPGGA,200446.00,3443.7323,N,12111.7061,W,1,10,0.8,6.2,M,-33.2,M,,*5F
$PYRTM,2024,123.836670483877,14.946317894016
$GPGGA,200447.00,3443.7336,N,12111.7070,W,1,10,0.8,6.4,M,-33.2,M,,*5C
$PYRTM,2024,123.836677777558,14.946325187697
$GPGGA,200448.00,3443.7348,N,12111.7077,W,1,10,0.8,7.2,M,-33.2,M,,*5A
$PYRTM,2024,123.836696525995,14.946343936134
$GPGGA,200449.00,3443.7361,N,12111.7084,W,1,10,0.8,7.7,M,-33.2,M,,*59
$PYRTM,2024,123.836705231366,14.946352641505
$GPGGA,200450.00,3443.7376,N,12111.7094,W,1,10,0.8,7.2,M,-33.2,M,,*53
$PYRTM,2024,123.836716780660,14.946364190799
$GPGGA,200451.00,3443.7389,N,12111.7106,W,1,10,0.8,6.4,M,-33.2,M,,*5F
$PYRTM,2024,123.836728353229,14.946375763380
$GPGGA,200452.00,3443.7401,N,12111.7117,W,1,10,0.8,6.0,M,-33.2,M,,*5F
$PYRTM,2024,123.836739927569,14.946387337708
$GPGGA,200453.00,3443.7412,N,12111.7125,W,1,10,0.8,6.4,M,-33.2,M,,*59
$PYRTM,2024,123.836751501366,14.946398911505
$GPGGA,200454.00,3443.7422,N,12111.7132,W,1,10,0.8,7.3,M,-33.2,M,,*5D
$PYRTM,2024,123.836763075417,14.946410485556
$GPGGA,200455.00,3443.7435,N,12111.7142,W,1,10,0.8,7.7,M,-33.2,M,,*59
$PYRTM,2024,123.836774661076,14.946422071215
$GPGGA,200456.00,3443.7451,N,12111.7154,W,1,10,0.8,7.1,M,-33.2,M,,*59
$PYRTM,2024,123.836786223785,14.946433633924
$GPGGA,200457.00,3443.7464,N,12111.7162,W,1,10,0.8,6.5,M,-33.2,M,,*5E
$PYRTM,2024,123.836797799271,14.946445209410
$GPGGA,200458.00,3443.7475,N,12111.7171,W,1,10,0.8,6.7,M,-33.2,M,,*51
$PYRTM,2024,123.836809372558,14.946456782697
$GPGGA,200459.00,3443.7485,N,12111.7183,W,1,10,0.8,6.9,M,-33.2,M,,*5C
$PYRTM,2024,123.836820946887,14.946468357025
$GPGGA,200500.00,3443.7497,N,12111.7196,W,1,10,0.8,6.9,M,-33.2,M,,*56
$PYRTM,2024,123.836828226481,14.946475636620
$GPGGA,200501.00,3443.7511,N,12111.7204,W,1,10,0.8,7.2,M,-33.2,M,,*5A
$PYRTM,2024,123.836844107025,14.946491517164
$GPGGA,200502.00,3443.7525,N,12111.7210,W,1,10,0.8,7.6,M,-33.2,M,,*5F
$PYRTM,2024,123.836855668854,14.946503078993
$GPGGA,200503.00,3443.7541,N,12111.7219,W,1,10,0.8,7.4,M,-33.2,M,,*57
$PYRTM,2024,123.836867251285,14.946514661424
$GPGGA,200504.00,3443.7554,N,12111.7231,W,1,10,0.8,7.0,M,-33.2,M,,*5A
$PYRTM,2024,123.836878816840,14.946526226979
$GPGGA,200505.00,3443.7564,N,12111.7242,W,1,10,0.8,7.1,M,-33.2,M,,*5D
$PYRTM,2024,123.836886213264,14.946533623403
$GPGGA,200506.00,3443.7574,N,12111.7253,W,1,10,0.8,7.3,M,-33.2,M,,*5D
$PYRTM,2024,123.836901966447,14.946549376586
$GPGGA,200507.00,3443.7589,N,12111.7265,W,1,10,0.8,6.9,M,-33.2,M,,*50
$PYRTM,2024,123.836913528090,14.946560938229
$GPGGA,200508.00,3443.7605,N,12111.7274,W,1,10,0.8,6.4,M,-33.2,M,,*55
$PYRTM,2024,123.836925113264,14.946572523403
$GPGGA,200509.00,3443.7616,N,12111.7279,W,1,10,0.8,6.8,M,-33.2,M,,*57
$PYRTM,2024,123.836936677211,14.946584087350
$GPGGA,200510.00,3443.7627,N,12111.7285,W,1,09,1.0,7.5,M,-33.2,M,,*53
$PYRTM,2024,123.836943967384,14.946591377523
$GPGGA,200511.00,3443.7641,N,12111.7296,W,1,09,1.0,7.5,M,-33.2,M,,*50
$PYRTM,2024,123.836959825556,14.946607235694
$GPGGA,200512.00,3443.7655,N,12111.7310,W,1,09,1.0,6.9,M,-33.2,M,,*54
$PYRTM,2024,123.836967233241,14.946614643380
$GPGGA,200513.00,3443.7666,N,12111.7322,W,1,09,1.0,6.3,M,-33.2,M,,*5E
$PYRTM,2024,123.836982972384,14.946630382523
$GPGGA,200514.00,3443.7678,N,12111.7330,W,1,09,1.0,6.4,M,-33.2,M,,*52
$PYRTM,2024,123.836994559711,14.946641969861
$GPGGA,200515.00,3443.7692,N,12111.7336,W,1,09,1.0,7.1,M,-33.2,M,,*55
$PYRTM,2024,123.837006122280,14.946653532419
$GPGGA,200516.00,3443.7707,N,12111.7343,W,1,09,1.0,7.9,M,-33.2,M,,*51
$PYRTM,2024,123.837017708183,14.946665118322
$GPGGA,200517.00,3443.7720,N,12111.7353,W,1,09,1.0,8.5,M,-33.2,M,,*57
$PYRTM,2024,123.837029269421,14.946676679560
$GPGGA,200518.00,3443.7733,N,12111.7365,W,1,09,1.0,8.4,M,-33.2,M,,*5E
$PYRTM,2024,123.837036675382,14.946684085521
$GPGGA,200519.00,3443.7749,N,12111.7378,W,1,09,1.0,7.3,M,-33.2,M,,*56
$PYRTM,2024,123.837055349549,14.946702759688
$GPGGA,200520.00,3443.7763,N,12111.7388,W,1,09,1.0,6.0,M,-33.2,M,,*59
$PYRTM,2024,123.837064000625,14.946711410764
$GPGGA,200521.00,3443.7775,N,12111.7395,W,1,09,1.0,5.6,M,-33.2,M,,*56
$PYRTM,2024,123.837075810058,14.946723220197
$GPGGA,200522.00,3443.7787,N,12111.7401,W,1,09,1.0,6.2,M,-33.2,M,,*55
$PYRTM,2024,123.837087152766,14.946734562905
$GPGGA,200523.00,3443.7799,N,12111.7409,W,1,09,1.0,7.2,M,-33.2,M,,*52
$PYRTM,2024,123.837098715139,14.946746125278
$GPGGA,200524.00,3443.7812,N,12111.7419,W,1,09,1.0,7.9,M,-33.2,M,,*53
$PYRTM,2024,123.837105440174,14.946752850324
$GPGGA,200525.00,3443.7828,N,12111.7430,W,1,09,1.0,7.5,M,-33.2,M,,*5C
$PYRTM,2024,123.837121862743,14.946769272870
$GPGGA,200526.00,3443.7843,N,12111.7442,W,1,09,1.0,6.3,M,-33.2,M,,*50
$PYRTM,2024,123.837133452431,14.946780862581
$GPGGA,200527.00,3443.7856,N,12111.7453,W,1,09,1.0,5.1,M,-33.2,M,,*54
$PYRTM,2024,123.837145011227,14.946792421377
$GPGGA,200528.00,3443.7865,N,12111.7460,W,1,09,1.0,5.1,M,-33.2,M,,*5B
$PYRTM,2024,123.837156598194,14.946804008333
$GPGGA,200529.00,3443.7875,N,12111.7466,W,1,09,1.0,6.3,M,-33.2,M,,*5C
$PYRTM,2024,123.837163892118,14.946811302257
$GPGGA,200530.00,3443.7891,N,12111.7475,W,1,09,1.0,7.7,M,-33.2,M,,*59
$PYRTM,2024,123.837175689028,14.946823099178
$GPGGA,200531.00,3443.7911,N,12111.7488,W,1,09,1.0,7.1,M,-33.2,M,,*55
$PYRTM,2024,123.837191306840,14.946838716979
$GPGGA,200532.00,3443.7925,N,12111.7497,W,1,09,1.0,6.7,M,-33.2,M,,*58
$PYRTM,2024,123.837202895093,14.946850305231
$GPGGA,200533.00,3443.7935,N,12111.7502,W,1,09,1.0,7.0,M,-33.2,M,,*53
$PYRTM,2024,123.837214458183,14.946861868322
$GPGGA,200534.00,3443.7947,N,12111.7512,W,1,09,1.0,6.9,M,-33.2,M,,*58
$PYRTM,2024,123.837226044734,14.946873454884
$GPGGA,200535.00,3443.7962,N,12111.7527,W,1,09,1.0,6.0,M,-33.2,M,,*51
$PYRTM,2024,123.837237604456,14.946885014595
$GPGGA,200536.00,3443.7976,N,12111.7535,W,1,09,1.0,5.2,M,-33.2,M,,*55
$PYRTM,2024,123.837245011493,14.946892421632
$GPGGA,200537.00,3443.7988,N,12111.7534,W,1,09,1.0,5.6,M,-33.2,M,,*50
$PYRTM,2024,123.837260752951,14.946908163102
$GPGGA,200538.00,3443.8001,N,12111.7535,W,1,09,1.0,6.4,M,-33.2,M,,*58
$PYRTM,2024,123.837272342593,14.946919752731
$GPGGA,200539.00,3443.8016,N,12111.7546,W,1,09,1.0,6.7,M,-33.2,M,,*58
$PYRTM,2024,123.837279735787,14.946927145926
$GPGGA,200540.00,3443.8030,N,12111.7563,W,1,09,1.0,5.9,M,-33.2,M,,*58
$PYRTM,2024,123.837295491736,14.946942901875
$GPGGA,200541.00,3443.8040,N,12111.7573,W,1,09,1.0,5.3,M,-33.2,M,,*55
$PYRTM,2024,123.837307048796,14.946954458935
$GPGGA,200542.00,3443.8053,N,12111.7576,W,1,09,1.0,5.3,M,-33.2,M,,*51
$PYRTM,2024,123.837314457975,14.946961868113
$GPGGA,200543.00,3443.8070,N,12111.7580,W,1,09,1.0,5.3,M,-33.2,M,,*58
$PYRTM,2024,123.837330197975,14.946977608113
$GPGGA,200544.00,3443.8082,N,12111.7588,W,1,09,1.0,5.3,M,-33.2,M,,*5A
$PYRTM,2024,123.837337603819,14.946985013958
$GPGGA,200545.00,3443.8090,N,12111.7598,W,1,09,1.0,6.0,M,-33.2,M,,*59
$PYRTM,2024,123.837356262928,14.947003673067
$GPGGA,200546.00,3443.8102,N,12111.7610,W,1,09,1.0,6.3,M,-33.2,M,,*50
$PYRTM,2024,123.837364935174,14.947012345324
$GPGGA,200547.00,3443.8121,N,12111.7621,W,1,09,1.0,5.8,M,-33.2,M,,*5A
$PYRTM,2024,123.837376495139,14.947023905278
$GPGGA,200548.00,3443.8136,N,12111.7627,W,1,09,1.0,5.2,M,-33.2,M,,*5F
$PYRTM,2024,123.837383901343,14.947031311481
$GPGGA,200549.00,3443.8143,N,12111.7630,W,1,09,1.0,5.6,M,-33.2,M,,*5E
$PYRTM,2024,123.837395592685,14.947043002824
$GPGGA,200550.00,3443.8151,N,12111.7639,W,1,09,1.0,6.2,M,-33.2,M,,*5B
$PYRTM,2024,123.837414122419,14.947061532569
$GPGGA,200551.00,3443.8165,N,12111.7654,W,1,09,1.0,6.1,M,-33.2,M,,*55
$PYRTM,2024,123.837425696725,14.947073106863
$GPGGA,200552.00,3443.8181,N,12111.7664,W,1,09,1.0,5.5,M,-33.2,M,,*58
$PYRTM,2024,123.837437271562,14.947084681701
$GPGGA,200553.00,3443.8192,N,12111.7665,W,1,09,1.0,6.0,M,-33.2,M,,*5C
$PYRTM,2024,123.837445938356,14.947093348495
$GPGGA,200554.00,3443.8200,N,12111.7667,W,1,09,1.0,6.9,M,-33.2,M,,*58
$PYRTM,2024,123.837457529109,14.947104939248
$GPGGA,200555.00,3443.8212,N,12111.7679,W,1,09,1.0,6.4,M,-33.2,M,,*58
$PYRTM,2024,123.837469088553,14.947116498692
$GPGGA,200556.00,3443.8226,N,12111.7695,W,1,09,1.0,5.9,M,-33.2,M,,*50
$PYRTM,2024,123.837480678287,14.947128088438
$GPGGA,200557.00,3443.8236,N,12111.7705,W,1,09,1.0,5.4,M,-33.2,M,,*55
$PYRTM,2024,123.837487953924,14.947135364063
$GPGGA,200558.00,3443.8247,N,12111.7708,W,1,09,1.0,5.8,M,-33.2,M,,*5D
$PYRTM,2024,123.837503823032,14.947151233183
$GPGGA,200559.00,3443.8258,N,12111.7712,W,1,09,1.0,6.5,M,-33.2,M,,*57
$PYRTM,2024,123.837515385278,14.947162795417
$GPGGA,200600.00,3443.8269,N,12111.7719,W,1,09,1.0,7.3,M,-33.2,M,,*56
$PYRTM,2024,123.837522676759,14.947170086898
$GPGGA,200601.00,3443.8279,N,12111.7729,W,1,09,1.0,7.8,M,-33.2,M,,*5E
$PYRTM,2024,123.837538534560,14.947185944699
$GPGGA,200602.00,3443.8292,N,12111.7741,W,1,09,1.0,6.8,M,-33.2,M,,*57
$PYRTM,2024,123.837550120347,14.947197530486
$GPGGA,200603.00,3443.8306,N,12111.7754,W,1,09,1.0,5.3,M,-33.2,M,,*56
$PYRTM,2024,123.837557411412,14.947204821551
$GPGGA,200604.00,3443.8316,N,12111.7762,W,1,09,1.0,4.4,M,-33.2,M,,*53
$PYRTM,2024,123.837573269225,14.947220679363
$GPGGA,200605.00,3443.8325,N,12111.7764,W,1,09,1.0,5.2,M,-33.2,M,,*53
$PYRTM,2024,123.837584829375,14.947232239514
$GPGGA,200606.00,3443.8336,N,12111.7766,W,1,09,1.0,6.4,M,-33.2,M,,*55
$PYRTM,2024,123.837592121701,14.947239531840
$GPGGA,200607.00,3443.8350,N,12111.7774,W,1,09,1.0,7.1,M,-33.2,M,,*53
$PYRTM,2024,123.837607979363,14.947255389502
$GPGGA,200608.00,3443.8363,N,12111.7788,W,1,09,1.0,6.3,M,-33.2,M,,*5C
$PYRTM,2024,123.837619566389,14.947266976528
$GPGGA,200609.00,3443.8375,N,12111.7802,W,1,09,1.0,5.0,M,-33.2,M,,*57
$PYRTM,2024,123.837631127049,14.947278537188
$GPGGA,200610.00,3443.8383,N,12111.7807,W,1,09,1.0,4.5,M,-33.2,M,,*57
$PYRTM,2024,123.837642714387,14.947290124525
$GPGGA,200611.00,3443.8394,N,12111.7808,W,1,09,1.0,5.1,M,-33.2,M,,*5A
$PYRTM,2024,123.837654275081,14.947301685220
$GPGGA,200612.00,3443.8408,N,12111.7814,W,1,09,1.0,5.7,M,-33.2,M,,*50
$PYRTM,2024,123.837665861412,14.947313271551
$GPGGA,200613.00,3443.8420,N,12111.7827,W,1,09,1.0,5.8,M,-33.2,M,,*54
$PYRTM,2024,123.837677422211,14.947324832350
$GPGGA,200614.00,3443.8430,N,12111.7836,W,1,09,1.0,6.1,M,-33.2,M,,*58
$PYRTM,2024,123.837684729167,14.947332139306
$GPGGA,200615.00,3443.8443,N,12111.7840,W,1,09,1.0,6.4,M,-33.2,M,,*59
$PYRTM,2024,123.837700570856,14.947347980995
$GPGGA,200616.00,3443.8458,N,12111.7845,W,1,09,1.0,6.0,M,-33.2,M,,*51
$PYRTM,2024,123.837712162257,14.947359572396
$GPGGA,200617.00,3443.8471,N,12111.7856,W,1,09,1.0,5.2,M,-33.2,M,,*58
$PYRTM,2024,123.837719449861,14.947366860000
$GPGGA,200618.00,3443.8479,N,12111.7865,W,1,09,1.0,5.1,M,-33.2,M,,*5C
$PYRTM,2024,123.837735306678,14.947382716817
$GPGGA,200619.00,3443.8490,N,12111.7872,W,1,09,1.0,5.5,M,-33.2,M,,*58
$PYRTM,2024,123.837746868171,14.947394278310
$GPGGA,200620.00,3443.8506,N,12111.7878,W,1,09,1.0,5.7,M,-33.2,M,,*54
$PYRTM,2024,123.837754162153,14.947401572303
$GPGGA,200621.00,3443.8520,N,12111.7884,W,1,09,1.0,5.2,M,-33.2,M,,*57
$PYRTM,2024,123.837772910382,14.947420320532
$GPGGA,200622.00,3443.8530,N,12111.7892,W,1,09,1.0,5.5,M,-33.2,M,,*55
$PYRTM,2024,123.837784498403,14.947431908542
$GPGGA,200623.00,3443.8539,N,12111.7902,W,1,09,1.0,5.8,M,-33.2,M,,*58
$PYRTM,2024,123.837796057419,14.947443467558
$GPGGA,200624.00,3443.8552,N,12111.7910,W,1,09,1.0,5.8,M,-33.2,M,,*51
$PYRTM,2024,123.837804754271,14.947452164410
$GPGGA,200625.00,3443.8567,N,12111.7917,W,1,09,1.0,5.5,M,-33.2,M,,*5C
$PYRTM,2024,123.837812042465,14.947459452604
$GPGGA,200626.00,3443.8582,N,12111.7926,W,1,09,1.0,4.7,M,-33.2,M,,*55
$PYRTM,2024,123.837827903264,14.947475313403
$GPGGA,200627.00,3443.8594,N,12111.7936,W,1,09,1.0,4.3,M,-33.2,M,,*56
$PYRTM,2024,123.837839459850,14.947486869988
$GPGGA,200628.00,3443.8603,N,12111.7944,W,1,09,1.0,5.0,M,-33.2,M,,*53
$PYRTM,2024,123.837851049190,14.947498459329
$GPGGA,200629.00,3443.8614,N,12111.7947,W,1,09,1.0,6.4,M,-33.2,M,,*50
$PYRTM,2024,123.837862611146,14.947510021285
$GPGGA,200630.00,3443.8629,N,12111.7954,W,1,09,1.0,7.2,M,-33.2,M,,*53
$PYRTM,2024,123.837874196435,14.947521606574
$GPGGA,200631.00,3443.8646,N,12111.7968,W,1,09,1.0,6.3,M,-33.2,M,,*54
$PYRTM,2024,123.837885759769,14.947533169907
$GPGGA,200632.00,3443.8660,N,12111.7983,W,1,09,1.0,4.6,M,-33.2,M,,*51
$PYRTM,2024,123.837897345625,14.947544755764
$GPGGA,200633.00,3443.8669,N,12111.7991,W,1,09,1.0,3.9,M,-33.2,M,,*52
$PYRTM,2024,123.837908906377,14.947556316516
$GPGGA,200634.00,3443.8676,N,12111.7991,W,1,09,1.0,4.0,M,-33.2,M,,*55
$PYRTM,2024,123.837920509097,14.947567919236
$GPGGA,200635.00,3443.8689,N,12111.7997,W,1,09,1.0,4.3,M,-33.2,M,,*51
$PYRTM,2024,123.837932056354,14.947579466493
$GPGGA,200636.00,3443.8704,N,12111.8012,W,1,09,1.0,3.9,M,-33.2,M,,*50
$PYRTM,2024,123.837943641377,14.947591051516
$GPGGA,200637.00,3443.8716,N,12111.8025,W,1,09,1.0,3.7,M,-33.2,M,,*58
$PYRTM,2024,123.837955202917,14.947602613056
$GPGGA,200638.00,3443.8726,N,12111.8031,W,1,09,1.0,4.1,M,-33.2,M,,*50
$PYRTM,2024,123.837966790093,14.947614200231
$GPGGA,200639.00,3443.8738,N,12111.8036,W,1,09,1.0,4.5,M,-33.2,M,,*5D
$PYRTM,2024,123.837974068750,14.947621478889
$GPGGA,200640.00,3443.8751,N,12111.8047,W,1,09,1.0,4.3,M,-33.2,M,,*5C
$PYRTM,2024,123.837989938183,14.947637348322
$GPGGA,200641.00,3443.8764,N,12111.8058,W,1,09,1.0,4.0,M,-33.2,M,,*56
$PYRTM,2024,123.838001499039,14.947648909178
$GPGGA,200642.00,3443.8775,N,12111.8064,W,1,09,1.0,4.3,M,-33.2,M,,*59
$PYRTM,2024,123.838013089780,14.947660499919
$GPGGA,200643.00,3443.8790,N,12111.8070,W,1,09,1.0,4.5,M,-33.2,M,,*50
$PYRTM,2024,123.838024647373,14.947672057512
$GPGGA,200644.00,3443.8804,N,12111.8079,W,1,09,1.0,4.5,M,-33.2,M,,*5C
$PYRTM,2024,123.838036238843,14.947683648981
$GPGGA,200645.00,3443.8817,N,12111.8089,W,1,09,1.0,4.2,M,-33.2,M,,*57
$PYRTM,2024,123.838043514711,14.947690924850
$GPGGA,200646.00,3443.8827,N,12111.8099,W,1,09,1.0,4.6,M,-33.2,M,,*52
$PYRTM,2024,123.838059384016,14.947706794155
$GPGGA,200647.00,3443.8841,N,12111.8108,W,1,09,1.0,5.0,M,-33.2,M,,*5D
$PYRTM,2024,123.838066680023,14.947714090162
$GPGGA,200648.00,3443.8857,N,12111.8117,W,1,09,1.0,4.8,M,-33.2,M,,*52
$PYRTM,2024,123.838082530856,14.947729940995
$GPGGA,200649.00,3443.8870,N,12111.8128,W,1,09,1.0,4.4,M,-33.2,M,,*56
$PYRTM,2024,123.838094094340,14.947741504491
$GPGGA,200650.00,3443.8881,N,12111.8139,W,1,09,1.0,4.5,M,-33.2,M,,*51
$PYRTM,2024,123.838101384329,14.947748794468
$GPGGA,200651.00,3443.8894,N,12111.8149,W,1,09,1.0,4.7,M,-33.2,M,,*51
$PYRTM,2024,123.838120135972,14.947767546111
$GPGGA,200652.00,3443.8909,N,12111.8159,W,1,09,1.0,4.9,M,-33.2,M,,*58
$PYRTM,2024,123.838128828113,14.947776238252
$GPGGA,200653.00,3443.8922,N,12111.8167,W,1,09,1.0,5.3,M,-33.2,M,,*56
$PYRTM,2024,123.838140390926,14.947787801065
$GPGGA,200654.00,3443.8934,N,12111.8175,W,1,09,1.0,5.6,M,-33.2,M,,*50
$PYRTM,2024,123.838151992037,14.947799402176
$GPGGA,200655.00,3443.8948,N,12111.8185,W,1,09,1.0,5.2,M,-33.2,M,,*51
$PYRTM,2024,123.838163537199,14.947810947338
$GPGGA,200656.00,3443.8961,N,12111.8197,W,1,09,1.0,5.8,M,-33.2,M,,*50
$PYRTM,2024,123.838175125174,14.947822535313
$GPGGA,200657.00,3443.8972,N,12111.8209,W,1,09,1.0,5.3,M,-33.2,M,,*5C
$PYRTM,2024,123.838186687234,14.947834097373
$GPGGA,200658.00,3443.8985,N,12111.8217,W,1,09,1.0,5.4,M,-33.2,M,,*53
$PYRTM,2024,123.838194093623,14.947841503762
$GPGGA,200659.00,3443.8998,N,12111.8221,W,1,09,1.0,6.0,M,-33.2,M,,*5C
$PYRTM,2024,123.838209835648,14.947857245787
$GPGGA,200700.00,3443.9015,N,12111.8227,W,1,09,1.0,6.5,M,-33.2,M,,*5F
$PYRTM,2024,123.838221421343,14.947868831481
$GPGGA,200701.00,3443.9031,N,12111.8241,W,1,09,1.0,5.9,M,-33.2,M,,*57
$PYRTM,2024,123.838228817419,14.947876227558
$GPGGA,200702.00,3443.9041,N,12111.8256,W,1,09,1.0,5.4,M,-33.2,M,,*58
$PYRTM,2024,123.838244573634,14.947891983773
$GPGGA,200703.00,3443.9050,N,12111.8267,W,1,09,1.0,5.5,M,-33.2,M,,*5A
$PYRTM,2024,123.838256132639,14.947903542778
$GPGGA,200704.00,3443.9065,N,12111.8273,W,1,09,1.0,5.7,M,-33.2,M,,*5C
$PYRTM,2024,123.838263538333,14.947910948472
$GPGGA,200705.00,3443.9082,N,12111.8279,W,1,09,1.0,5.5,M,-33.2,M,,*5C
$PYRTM,2024,123.838279280370,14.947926690509
$GPGGA,200706.00,3443.9097,N,12111.8288,W,1,09,1.0,5.2,M,-33.2,M,,*52
$PYRTM,2024,123.838290903391,14.947938313530
$GPGGA,200707.00,3443.9107,N,12111.8300,W,1,09,1.0,5.3,M,-33.2,M,,*5B
$PYRTM,2024,123.838298277106,14.947945687245
$GPGGA,200708.00,3443.9118,N,12111.8313,W,1,09,1.0,5.5,M,-33.2,M,,*5E
$PYRTM,2024,123.838314014907,14.947961425046
$GPGGA,200709.00,3443.9131,N,12111.8325,W,1,09,1.0,5.3,M,-33.2,M,,*57
$PYRTM,2024,123.838325575625,14.947972985764
$GPGGA,200710.00,3443.9146,N,12111.8333,W,1,09,1.0,5.0,M,-33.2,M,,*5B
$PYRTM,2024,123.838337158044,14.947984568183
$GPGGA,200711.00,3443.9161,N,12111.8339,W,1,09,1.0,5.0,M,-33.2,M,,*55
$PYRTM,2024,123.838348724444,14.947996134595
$GPGGA,200712.00,3443.9176,N,12111.8348,W,1,09,1.0,5.0,M,-33.2,M,,*56
$PYRTM,2024,123.838360314317,14.948007724456
$GPGGA,200713.00,3443.9188,N,12111.8361,W,1,09,1.0,5.0,M,-33.2,M,,*5D
$PYRTM,2024,123.838371874873,14.948019285012
$GPGGA,200714.00,3443.9198,N,12111.8372,W,1,09,1.0,5.3,M,-33.2,M,,*5A
$PYRTM,2024,123.838383455012,14.948030865150
$GPGGA,200715.00,3443.9211,N,12111.8381,W,1,09,1.0,5.6,M,-33.2,M,,*50
$PYRTM,2024,123.838390870046,14.948038280185
$GPGGA,200716.00,3443.9228,N,12111.8394,W,1,09,1.0,5.3,M,-33.2,M,,*58
$PYRTM,2024,123.838406609560,14.948054019699
$GPGGA,200717.00,3443.9242,N,12111.8405,W,1,09,1.0,4.7,M,-33.2,M,,*5F
$PYRTM,2024,123.838418170822,14.948065580972
$GPGGA,200718.00,3443.9253,N,12111.8411,W,1,09,1.0,5.1,M,-33.2,M,,*52
$PYRTM,2024,123.838425578750,14.948072988889
$GPGGA,200719.00,3443.9267,N,12111.8417,W,1,09,1.0,5.5,M,-33.2,M,,*56
$PYRTM,2024,123.838441320891,14.948088731030
$GPGGA,200720.00,3443.9284,N,12111.8427,W,1,09,1.0,5.1,M,-33.1,M,,*55
$PYRTM,2024,123.838452899294,14.948100309433
$GPGGA,200721.00,3443.9296,N,12111.8440,W,1,09,1.0,5.0,M,-33.1,M,,*57
$PYRTM,2024,123.838460299479,14.948107709618
$GPGGA,200722.00,3443.9306,N,12111.8451,W,1,09,1.0,5.2,M,-33.1,M,,*5E
$PYRTM,2024,123.838478961111,14.948126371250
$GPGGA,200723.00,3443.9320,N,12111.8461,W,1,09,1.0,5.3,M,-33.1,M,,*59
$PYRTM,2024,123.838490507870,14.948137918009
$GPGGA,200724.00,3443.9336,N,12111.8468,W,1,09,1.0,5.2,M,-33.1,M,,*51
$PYRTM,2024,123.838502100289,14.948149510428
$GPGGA,200725.00,3443.9350,N,12111.8474,W,1,09,1.0,5.4,M,-33.1,M,,*5B
$PYRTM,2024,123.838510762708,14.948158172847
$GPGGA,200726.00,3443.9362,N,12111.8487,W,1,09,1.0,5.5,M,-33.1,M,,*54
$PYRTM,2024,123.838522351956,14.948169762095
$GPGGA,200727.00,3443.9375,N,12111.8501,W,1,09,1.0,4.9,M,-33.1,M,,*51
$PYRTM,2024,123.838529744919,14.948177155058
$GPGGA,200728.00,3443.9388,N,12111.8511,W,1,09,1.0,4.5,M,-33.1,M,,*51
$PYRTM,2024,123.838545499190,14.948192909329
$GPGGA,200729.00,3443.9400,N,12111.8513,W,1,09,1.0,5.2,M,-33.1,M,,*53
$PYRTM,2024,123.838557060498,14.948204470637
$GPGGA,200730.00,3443.9411,N,12111.8518,W,1,09,1.0,6.2,M,-33.1,M,,*53
$PYRTM,2024,123.838564352662,14.948211762801
$GPGGA,200731.00,3443.9426,N,12111.8534,W,1,09,1.0,5.9,M,-33.1,M,,*50
$PYRTM,2024,123.838580206748,14.948227616887
$GPGGA,200732.00,3443.9440,N,12111.8550,W,1,09,1.0,4.5,M,-33.1,M,,*5C
$PYRTM,2024,123.838591799028,14.948239209167
$GPGGA,200733.00,3443.9454,N,12111.8558,W,1,08,1.0,3.8,M,-33.1,M,,*5B
$PYRTM,2024,123.838598381678,14.948245791817
$GPGGA,200734.00,3443.9467,N,12111.8559,W,1,08,1.0,4.1,M,-33.1,M,,*53
$PYRTM,2024,123.838614950451,14.948262360590
$GPGGA,200735.00,3443.9479,N,12111.8564,W,1,08,1.0,4.9,M,-33.1,M,,*5B
$PYRTM,2024,123.838622249988,14.948269660127
$GPGGA,200736.00,3443.9492,N,12111.8578,W,1,08,1.0,5.2,M,-33.1,M,,*5A
$PYRTM,2024,123.838634028241,14.948281438380
$GPGGA,200737.00,3443.9506,N,12111.8592,W,1,08,1.0,4.8,M,-33.1,M,,*58
$PYRTM,2024,123.838649653368,14.948297063507
$GPGGA,200738.00,3443.9519,N,12111.8599,W,1,08,1.0,4.5,M,-33.1,M,,*5F
$PYRTM,2024,123.838661241713,14.948308651852
$GPGGA,200739.00,3443.9533,N,12111.8602,W,1,08,1.0,4.4,M,-33.1,M,,*56
$PYRTM,2024,123.838668532025,14.948315942164
$GPGGA,200740.00,3443.9549,N,12111.8611,W,1,08,1.0,3.8,M,-33.1,M,,*5C
$PYRTM,2024,123.838684391794,14.948331801933
$GPGGA,200741.00,3443.9562,N,12111.8625,W,1,08,1.0,3.3,M,-33.1,M,,*58
$PYRTM,2024,123.838695951111,14.948343361250
$GPGGA,200742.00,3443.9570,N,12111.8635,W,1,08,1.0,3.8,M,-33.1,M,,*52
$PYRTM,2024,123.838707551701,14.948354961852
$GPGGA,200743.00,3443.9580,N,12111.8641,W,1,08,1.0,4.6,M,-33.1,M,,*56
$PYRTM,2024,123.838719098611,14.948366508750
$GPGGA,200744.00,3443.9597,N,12111.8649,W,1,08,1.0,4.7,M,-33.1,M,,*5E
$PYRTM,2024,123.838730686424,14.948378096563
$GPGGA,200745.00,3443.9616,N,12111.8660,W,1,08,1.0,4.0,M,-33.1,M,,*59
$PYRTM,2024,123.838742246563,14.948389656701
$GPGGA,200746.00,3443.9627,N,12111.8669,W,1,08,1.0,3.7,M,-33.1,M,,*51
$PYRTM,2024,123.838753833750,14.948401243889
$GPGGA,200747.00,3443.9632,N,12111.8678,W,1,08,1.0,4.2,M,-33.1,M,,*56
$PYRTM,2024,123.838765394734,14.948412804873
$GPGGA,200748.00,3443.9641,N,12111.8687,W,1,08,1.0,5.0,M,-33.1,M,,*5E
$PYRTM,2024,123.838772802338,14.948420212477
$GPGGA,200749.00,3443.9655,N,12111.8699,W,1,08,1.0,5.0,M,-33.1,M,,*55
$PYRTM,2024,123.838788544745,14.948435954884
$GPGGA,200750.00,3443.9672,N,12111.8710,W,1,08,1.0,3.9,M,-33.1,M,,*57
$PYRTM,2024,123.838800134294,14.948447544433
$GPGGA,200751.00,3443.9684,N,12111.8717,W,1,08,1.0,3.1,M,-33.1,M,,*50
$PYRTM,2024,123.838807525938,14.948454936076
$GPGGA,200752.00,3443.9689,N,12111.8720,W,1,08,1.0,3.0,M,-33.1,M,,*5B
$PYRTM,2024,123.838819215463,14.948466625602
$GPGGA,200753.00,3443.9695,N,12111.8727,W,1,08,1.0,3.3,M,-33.1,M,,*53
$PYRTM,2024,123.838837734688,14.948485144838
$GPGGA,200754.00,3443.9710,N,12111.8741,W,1,08,1.0,3.1,M,-33.1,M,,*5A
$PYRTM,2024,123.838846428032,14.948493838171
$GPGGA,200755.00,3443.9726,N,12111.8757,W,1,08,1.0,2.2,M,-33.1,M,,*5B
$PYRTM,2024,123.838857988403,14.948505398542
$GPGGA,200756.00,3443.9737,N,12111.8763,W,1,08,1.0,2.0,M,-33.1,M,,*5D
$PYRTM,2024,123.838869571921,14.948516982060
$GPGGA,200757.00,3443.9744,N,12111.8765,W,1,08,1.0,2.8,M,-33.1,M,,*56
$PYRTM,2024,123.838881138102,14.948528548241
$GPGGA,200758.00,3443.9752,N,12111.8771,W,1,08,1.0,3.9,M,-33.1,M,,*5B
$PYRTM,2024,123.838892724329,14.948540134468
$GPGGA,200759.00,3443.9764,N,12111.8785,W,1,08,1.0,4.4,M,-33.1,M,,*5E
$PYRTM,2024,123.838904285093,14.948551695231
$GPGGA,200800.00,3443.9778,N,12111.8800,W,1,08,1.0,3.6,M,-33.1,M,,*57
$PYRTM,2024,123.838915872581,14.948563282720
$GPGGA,200801.00,3443.9792,N,12111.8808,W,1,08,1.0,2.7,M,-33.1,M,,*5A
$PYRTM,2024,123.838927433866,14.948574844005
$GPGGA,200802.00,3443.9801,N,12111.8811,W,1,08,1.0,2.7,M,-33.1,M,,*54
$PYRTM,2024,123.838939019907,14.948586430046
$GPGGA,200803.00,3443.9805,N,12111.8816,W,1,08,1.0,3.7,M,-33.1,M,,*57
$PYRTM,2024,123.838950583102,14.948597993241
$GPGGA,200804.00,3443.9813,N,12111.8828,W,1,08,1.0,4.4,M,-33.1,M,,*5E
$PYRTM,2024,123.838962170394,14.948609580532
$GPGGA,200805.00,3443.9826,N,12111.8842,W,1,08,1.0,4.2,M,-33.1,M,,*53
$PYRTM,2024,123.838973730706,14.948621140856
$GPGGA,200806.00,3443.9841,N,12111.8852,W,1,08,1.0,3.6,M,-33.1,M,,*53
$PYRTM,2024,123.838985328438,14.948632738576
$GPGGA,200807.00,3443.9852,N,12111.8855,W,1,08,1.0,3.5,M,-33.1,M,,*54
$PYRTM,2024,123.838996878426,14.948644288565
$GPGGA,200808.00,3443.9859,N,12111.8860,W,1,08,1.0,4.0,M,-33.1,M,,*54
$PYRTM,2024,123.839008468634,14.948655878773
$GPGGA,200809.00,3443.9866,N,12111.8872,W,1,08,1.0,4.4,M,-33.1,M,,*5E
$PYRTM,2024,123.839020027535,14.948667437674
$GPGGA,200810.00,3443.9877,N,12111.8884,W,1,08,1.0,4.5,M,-33.1,M,,*5E
$PYRTM,2024,123.839027327118,14.948674737257
$GPGGA,200811.00,3443.9890,N,12111.8891,W,1,08,1.0,4.5,M,-33.1,M,,*52
$PYRTM,2024,123.839043175174,14.948690585313
$GPGGA,200812.00,3443.9902,N,12111.8896,W,1,08,1.0,4.5,M,-33.1,M,,*5C
$PYRTM,2024,123.839054757581,14.948702167720
$GPGGA,200813.00,3443.9913,N,12111.8904,W,1,08,1.0,4.4,M,-33.1,M,,*56
$PYRTM,2024,123.839062057153,14.948709467292
$GPGGA,200814.00,3443.9924,N,12111.8914,W,1,08,1.0,4.3,M,-33.1,M,,*53
$PYRTM,2024,123.839077912072,14.948725322211
$GPGGA,200815.00,3443.9935,N,12111.8924,W,1,08,1.0,4.3,M,-33.1,M,,*51
$PYRTM,2024,123.839089471458,14.948736881597
$GPGGA,200816.00,3443.9947,N,12111.8931,W,1,08,1.0,4.4,M,-33.1,M,,*54
$PYRTM,2024,123.839101060266,14.948748470405
$GPGGA,200817.00,3443.9959,N,12111.8939,W,1,08,1.0,4.5,M,-33.1,M,,*53
$PYRTM,2024,123.839112620382,14.948760030521
$GPGGA,200818.00,3443.9971,N,12111.8948,W,1,08,1.0,4.5,M,-33.1,M,,*50
$PYRTM,2024,123.839124212674,14.948771622812
$GPGGA,200819.00,3443.9984,N,12111.8958,W,1,08,1.0,4.5,M,-33.1,M,,*5A
$PYRTM,2024,123.839135769803,14.948783179942
$GPGGA,200820.00,3443.9996,N,12111.8966,W,1,08,1.0,4.7,M,-33.1,M,,*5C
$PYRTM,2024,123.839147356701,14.948794766840
$GPGGA,200821.00,3444.0008,N,12111.8972,W,1,08,1.0,5.0,M,-33.1,M,,*5E
$PYRTM,2024,123.839158918113,14.948806328264
$GPGGA,200822.00,3444.0022,N,12111.8981,W,1,08,1.0,5.0,M,-33.1,M,,*59
$PYRTM,2024,123.839170505023,14.948817915162
$GPGGA,200823.00,3444.0036,N,12111.8994,W,1,08,1.0,4.2,M,-33.1,M,,*5A
$PYRTM,2024,123.839177790579,14.948825200718
$GPGGA,200824.00,3444.0049,N,12111.9007,W,1,08,1.0,3.6,M,-33.1,M,,*54
$PYRTM,2024,123.839196546250,14.948843956389
$GPGGA,200825.00,3444.0058,N,12111.9011,W,1,08,1.0,3.9,M,-33.1,M,,*5D
$PYRTM,2024,123.839205215000,14.948852625139
$GPGGA,200826.00,3444.0069,N,12111.9009,W,1,08,1.0,4.7,M,-33.1,M,,*5C
$PYRTM,2024,123.839216800984,14.948864211123
$GPGGA,200827.00,3444.0085,N,12111.9014,W,1,08,1.0,5.0,M,-33.1,M,,*55
$PYRTM,2024,123.839228362998,14.948875773137
$GPGGA,200828.00,3444.0101,N,12111.9028,W,1,08,1.0,4.4,M,-33.1,M,,*5D
$PYRTM,2024,123.839239953275,14.948887363414
$GPGGA,200829.00,3444.0112,N,12111.9043,W,1,08,1.0,3.8,M,-33.1,M,,*58
$PYRTM,2024,123.839251511192,14.948898921331
$GPGGA,200830.00,3444.0120,N,12111.9049,W,1,08,1.0,3.8,M,-33.1,M,,*5B
$PYRTM,2024,123.839263097917,14.948910508056
$GPGGA,200831.00,3444.0134,N,12111.9050,W,1,08,1.0,4.3,M,-33.1,M,,*5B
$PYRTM,2024,123.839274659086,14.948922069236
$GPGGA,200832.00,3444.0150,N,12111.9054,W,1,08,1.0,4.7,M,-33.1,M,,*5A
$PYRTM,2024,123.839286248669,14.948933658808
$GPGGA,200833.00,3444.0164,N,12111.9065,W,1,08,1.0,4.7,M,-33.1,M,,*5E
$PYRTM,2024,123.839297810648,14.948945220787
$GPGGA,200834.00,3444.0176,N,12111.9080,W,1,08,1.0,4.3,M,-33.1,M,,*55
$PYRTM,2024,123.839309395405,14.948956805544
$GPGGA,200835.00,3444.0188,N,12111.9088,W,1,08,1.0,4.1,M,-33.1,M,,*5F
$PYRTM,2024,123.839316685301,14.948964095440
$GPGGA,200836.00,3444.0201,N,12111.9089,W,1,08,1.0,4.5,M,-33.1,M,,*5B
$PYRTM,2024,123.839332542396,14.948979952535
$GPGGA,200837.00,3444.0213,N,12111.9093,W,1,08,1.0,4.9,M,-33.1,M,,*5E
$PYRTM,2024,123.839344103345,14.948991513484
$GPGGA,200838.00,3444.0227,N,12111.9108,W,1,08,1.0,4.6,M,-33.1,M,,*5A
$PYRTM,2024,123.839351395625,14.948998805764
$GPGGA,200839.00,3444.0241,N,12111.9125,W,1,08,1.0,3.7,M,-33.1,M,,*52
$PYRTM,2024,123.839367252917,14.949014663056
$GPGGA,200840.00,3444.0252,N,12111.9130,W,1,08,1.0,3.4,M,-33.1,M,,*59
$PYRTM,2024,123.839378843241,14.949026253391
