$PYRTM,2024,125.666670368403,16.776317778542
$GPGGA,155959.00,3510.6637,N,12207.8438,W,1,11,0.8,9.7,M,-32.9,M,,*5B
$PYRTM,2024,125.666681955428,16.776329365567
$GPGGA,160000.00,3510.6638,N,12207.8443,W,1,11,0.8,9.9,M,-32.9,M,,*55
$PYRTM,2024,125.666689365880,16.776336776019
$GPGGA,160001.00,3510.6639,N,12207.8449,W,1,11,0.8,10.0,M,-32.9,M,,*6E
$PYRTM,2024,125.666705103981,16.776352514120
$GPGGA,160002.00,3510.6639,N,12207.8458,W,1,11,0.8,9.9,M,-32.9,M,,*5C
$PYRTM,2024,125.666716664676,16.776364074815
$GPGGA,160003.00,3510.6639,N,12207.8466,W,1,11,0.8,9.8,M,-32.9,M,,*51
$PYRTM,2024,125.666728252975,16.776375663113
$GPGGA,160004.00,3510.6641,N,12207.8472,W,1,11,0.8,9.8,M,-32.9,M,,*5C
$PYRTM,2024,125.666739813634,16.776387223785
$GPGGA,160005.00,3510.6644,N,12207.8477,W,1,11,0.8,9.8,M,-32.9,M,,*5D
$PYRTM,2024,125.666751399919,16.776398810058
$GPGGA,160006.00,3510.6644,N,12207.8484,W,1,11,0.8,9.8,M,-32.9,M,,*52
$PYRTM,2024,125.666762962986,16.776410373125
$GPGGA,160007.00,3510.6643,N,12207.8494,W,1,11,0.8,9.8,M,-32.9,M,,*55
$PYRTM,2024,125.666774549468,16.776421959618
$GPGGA,160008.00,3510.6642,N,12207.8504,W,1,11,0.8,9.6,M,-32.9,M,,*5D
$PYRTM,2024,125.666786109780,16.776433519919
$GPGGA,160009.00,3510.6645,N,12207.8509,W,1,11,0.8,9.7,M,-32.9,M,,*57
$PYRTM,2024,125.666797699653,16.776445109792
$GPGGA,160010.00,3510.6649,N,12207.8512,W,1,11,0.8,9.8,M,-32.9,M,,*56
$PYRTM,2024,125.666805092280,16.776452502419
$GPGGA,160011.00,3510.6651,N,12207.8517,W,1,11,0.8,10.2,M,-32.9,M,,*69
$PYRTM,2024,125.666820848229,16.776468258368
$GPGGA,160012.00,3510.6650,N,12207.8526,W,1,11,0.8,9.8,M,-32.9,M,,*5B
$PYRTM,2024,125.666832406516,16.776479816655
$GPGGA,160013.00,3510.6649,N,12207.8533,W,1,11,0.8,9.9,M,-32.9,M,,*57
$PYRTM,2024,125.666839711157,16.776487121296
$GPGGA,160014.00,3510.6649,N,12207.8539,W,1,11,0.8,9.9,M,-32.9,M,,*5A
$PYRTM,2024,125.666855555671,16.776502965810
$GPGGA,160015.00,3510.6650,N,12207.8545,W,1,11,0.8,10.0,M,-32.9,M,,*69
$PYRTM,2024,125.666867141597,16.776514551736
$GPGGA,160016.00,3510.6650,N,12207.8554,W,1,11,0.8,9.7,M,-32.9,M,,*55
$PYRTM,2024,125.666878703553,16.776526113692
$GPGGA,160017.00,3510.6650,N,12207.8562,W,1,11,0.8,9.4,M,-32.9,M,,*52
$PYRTM,2024,125.666886008889,16.776533419028
$GPGGA,160018.00,3510.6650,N,12207.8567,W,1,11,0.8,9.7,M,-32.9,M,,*5B
$PYRTM,2024,125.666904743762,16.776552153900
$GPGGA,160019.00,3510.6654,N,12207.8569,W,1,11,0.8,9.9,M,-32.9,M,,*5E
$PYRTM,2024,125.666913433264,16.776560843414
$GPGGA,160020.00,3510.6657,N,12207.8574,W,1,11,0.8,10.5,M,-32.9,M,,*6F
$PYRTM,2024,125.666924998854,16.776572408993
$GPGGA,160021.00,3510.6655,N,12207.8582,W,1,11,0.8,10.3,M,-32.9,M,,*63
$PYRTM,2024,125.666936586262,16.776583996400
$GPGGA,160022.00,3510.6653,N,12207.8593,W,1,11,0.8,10.0,M,-32.9,M,,*65
$PYRTM,2024,125.666948147894,16.776595558044
$GPGGA,160023.00,3510.6654,N,12207.8602,W,1,11,0.8,9.1,M,-32.9,M,,*51
$PYRTM,2024,125.666959737593,16.776607147731
$GPGGA,160024.00,3510.6658,N,12207.8605,W,1,11,0.8,8.5,M,-32.9,M,,*58
$PYRTM,2024,125.666971295938,16.776618706076
$GPGGA,160025.00,3510.6664,N,12207.8606,W,1,11,0.8,8.4,M,-32.9,M,,*54
$PYRTM,2024,125.666982886285,16.776630296424
$GPGGA,160026.00,3510.6665,N,12207.8612,W,1,11,0.8,8.4,M,-32.9,M,,*53
$PYRTM,2024,125.666994443900,16.776641854039
$GPGGA,160027.00,3510.6663,N,12207.8624,W,1,11,0.8,8.6,M,-32.9,M,,*53
$PYRTM,2024,125.667006026829,16.776653436968
$GPGGA,160028.00,3510.6660,N,12207.8634,W,1,11,0.8,8.5,M,-32.9,M,,*5D
$PYRTM,2024,125.667017593137,16.776665003275
$GPGGA,160029.00,3510.6663,N,12207.8638,W,1,11,0.8,8.7,M,-32.9,M,,*51
$PYRTM,2024,125.667029180428,16.776676590567
$GPGGA,160030.00,3510.6669,N,12207.8640,W,1,11,0.8,9.0,M,-32.9,M,,*5A
$PYRTM,2024,125.667040741030,16.776688151169
$GPGGA,160031.00,3510.6671,N,12207.8646,W,1,11,0.8,8.8,M,-32.9,M,,*5D
$PYRTM,2024,125.667052323403,16.776699733542
$GPGGA,160032.00,3510.6669,N,12207.8656,W,1,11,0.8,8.7,M,-32.9,M,,*59
$PYRTM,2024,125.667063889537,16.776711299676
$GPGGA,160033.00,3510.6668,N,12207.8663,W,1,11,0.8,8.1,M,-32.9,M,,*59
$PYRTM,2024,125.667075476933,16.776722887083
$GPGGA,160034.00,3510.6671,N,12207.8666,W,1,11,0.8,8.7,M,-32.9,M,,*55
$PYRTM,2024,125.667087038461,16.776734448600
$GPGGA,160035.00,3510.6675,N,12207.8667,W,1,11,0.8,8.6,M,-32.9,M,,*50
$PYRTM,2024,125.667098624907,16.776746035046
$GPGGA,160036.00,3510.6678,N,12207.8673,W,1,11,0.8,8.7,M,-32.9,M,,*5A
$PYRTM,2024,125.667110185856,16.776757595995
$GPGGA,160037.00,3510.6679,N,12207.8684,W,1,11,0.8,8.0,M,-32.9,M,,*55
$PYRTM,2024,125.667117490359,16.776764900498
$GPGGA,160038.00,3510.6678,N,12207.8696,W,1,11,0.8,7.4,M,-32.9,M,,*53
$PYRTM,2024,125.667133335012,16.776780745150
$GPGGA,160039.00,3510.6678,N,12207.8703,W,1,11,0.8,7.3,M,-32.9,M,,*58
$PYRTM,2024,125.667144936782,16.776792346933
$GPGGA,160040.00,3510.6681,N,12207.8705,W,1,11,0.8,7.3,M,-32.9,M,,*56
$PYRTM,2024,125.667152213148,16.776799623287
$GPGGA,160041.00,3510.6685,N,12207.8711,W,1,11,0.8,7.5,M,-32.9,M,,*50
$PYRTM,2024,125.667168083924,16.776815494063
$GPGGA,160042.00,3510.6686,N,12207.8719,W,1,11,0.8,7.5,M,-32.9,M,,*58
$PYRTM,2024,125.667179630544,16.776827040683
$GPGGA,160043.00,3510.6684,N,12207.8727,W,1,11,0.8,7.6,M,-32.9,M,,*55
$PYRTM,2024,125.667191218391,16.776838628530
$GPGGA,160044.00,3510.6684,N,12207.8732,W,1,11,0.8,7.8,M,-32.9,M,,*58
$PYRTM,2024,125.667202779606,16.776850189745
$GPGGA,160045.00,3510.6687,N,12207.8737,W,1,11,0.8,7.8,M,-32.9,M,,*5F
$PYRTM,2024,125.667210083148,16.776857493299
$GPGGA,160046.00,3510.6691,N,12207.8744,W,1,11,0.8,7.6,M,-32.9,M,,*51
$PYRTM,2024,125.667225927072,16.776873337222
$GPGGA,160047.00,3510.6690,N,12207.8750,W,1,11,0.8,7.6,M,-32.9,M,,*54
$PYRTM,2024,125.667233230799,16.776880640937
$GPGGA,160048.00,3510.6685,N,12207.8756,W,1,11,0.8,8.1,M,-32.9,M,,*51
$PYRTM,2024,125.667245022824,16.776892432963
$GPGGA,160049.00,3510.6684,N,12207.8763,W,1,11,0.8,8.6,M,-32.9,M,,*50
$PYRTM,2024,125.667263555174,16.776910965312
$GPGGA,160050.00,3510.6689,N,12207.8769,W,1,11,0.8,8.6,M,-32.9,M,,*5F
$PYRTM,2024,125.667275116794,16.776922526933
$GPGGA,160051.00,3510.6692,N,12207.8775,W,1,11,0.8,8.5,M,-32.9,M,,*5A
$PYRTM,2024,125.667286705451,16.776934115590
$GPGGA,160052.00,3510.6692,N,12207.8780,W,1,11,0.8,8.5,M,-32.9,M,,*53
$PYRTM,2024,125.667295372199,16.776942782338
$GPGGA,160053.00,3510.6689,N,12207.8788,W,1,11,0.8,8.5,M,-32.9,M,,*50
$PYRTM,2024,125.667306972940,16.776954383079
$GPGGA,160054.00,3510.6689,N,12207.8797,W,1,11,0.8,8.4,M,-32.9,M,,*58
$PYRTM,2024,125.667318518866,16.776965929005
$GPGGA,160055.00,3510.6692,N,12207.8804,W,1,11,0.8,8.0,M,-32.9,M,,*52
$PYRTM,2024,125.667330107419,16.776977517558
$GPGGA,160056.00,3510.6697,N,12207.8810,W,1,11,0.8,7.7,M,-32.9,M,,*59
$PYRTM,2024,125.667341667905,16.776989078044
$GPGGA,160057.00,3510.6699,N,12207.8812,W,1,11,0.8,7.8,M,-32.9,M,,*5B
$PYRTM,2024,125.667348972836,16.776996382986
$GPGGA,160058.00,3510.6698,N,12207.8817,W,1,11,0.8,7.8,M,-32.9,M,,*50
$PYRTM,2024,125.667364818102,16.777012228241
$GPGGA,160059.00,3510.6695,N,12207.8826,W,1,11,0.8,7.7,M,-32.9,M,,*51
$PYRTM,2024,125.667376404271,16.777023814410
$GPGGA,160100.00,3510.6697,N,12207.8835,W,1,11,0.8,7.0,M,-32.9,M,,*5B
$PYRTM,2024,125.667383690463,16.777031100602
$GPGGA,160101.00,3510.6701,N,12207.8841,W,1,11,0.8,6.3,M,-32.9,M,,*55
$PYRTM,2024,125.667399554861,16.777046965000
$GPGGA,160102.00,3510.6702,N,12207.8844,W,1,11,0.8,6.3,M,-32.9,M,,*50
$PYRTM,2024,125.667411114572,16.777058524711
$GPGGA,160103.00,3510.6700,N,12207.8851,W,1,11,0.8,6.3,M,-32.9,M,,*57
$PYRTM,2024,125.667422700613,16.777070110752
$GPGGA,160104.00,3510.6699,N,12207.8859,W,1,11,0.8,6.4,M,-32.9,M,,*5E
$PYRTM,2024,125.667434261273,16.777081671412
$GPGGA,160105.00,3510.6700,N,12207.8867,W,1,11,0.8,6.8,M,-32.9,M,,*5F
$PYRTM,2024,125.667445850069,16.777093260208
$GPGGA,160106.00,3510.6701,N,12207.8873,W,1,11,0.8,7.0,M,-32.9,M,,*51
$PYRTM,2024,125.667457410949,16.777104821100
$GPGGA,160107.00,3510.6703,N,12207.8880,W,1,11,0.8,7.0,M,-32.9,M,,*5E
$PYRTM,2024,125.667464714873,16.777112125012
$GPGGA,160108.00,3510.6702,N,12207.8888,W,1,11,0.8,6.9,M,-32.9,M,,*50
$PYRTM,2024,125.667480558750,16.777127968889
$GPGGA,160109.00,3510.6701,N,12207.8896,W,1,11,0.8,6.8,M,-32.9,M,,*5C
$PYRTM,2024,125.667492148796,16.777139558935
$GPGGA,160110.00,3510.6702,N,12207.8904,W,1,11,0.8,6.4,M,-32.9,M,,*51
$PYRTM,2024,125.667499438924,16.777146849063
$GPGGA,160111.00,3510.6706,N,12207.8911,W,1,11,0.8,6.2,M,-32.9,M,,*56
$PYRTM,2024,125.667515293461,16.777162703600
$GPGGA,160112.00,3510.6707,N,12207.8918,W,1,11,0.8,6.2,M,-32.9,M,,*5D
$PYRTM,2024,125.667526856354,16.777174266493
$GPGGA,160113.00,3510.6705,N,12207.8925,W,1,11,0.8,6.2,M,-32.9,M,,*50
$PYRTM,2024,125.667538442940,16.777185853090
$GPGGA,160114.00,3510.6704,N,12207.8934,W,1,11,0.8,6.2,M,-32.9,M,,*56
$PYRTM,2024,125.667550005162,16.777197415301
$GPGGA,160115.00,3510.6706,N,12207.8944,W,1,11,0.8,5.7,M,-32.9,M,,*54
$PYRTM,2024,125.667561590069,16.777209000208
$GPGGA,160116.00,3510.6709,N,12207.8948,W,1,11,0.8,5.5,M,-32.9,M,,*56
$PYRTM,2024,125.667573152373,16.777220562523
$GPGGA,160117.00,3510.6711,N,12207.8952,W,1,11,0.8,5.6,M,-32.9,M,,*56
$PYRTM,2024,125.667584738692,16.777232148831
$GPGGA,160118.00,3510.6709,N,12207.8960,W,1,11,0.8,5.6,M,-32.9,M,,*51
$PYRTM,2024,125.667596298681,16.777243708819
$GPGGA,160119.00,3510.6705,N,12207.8970,W,1,11,0.8,6.0,M,-32.9,M,,*58
$PYRTM,2024,125.667603603866,16.777251014005
$GPGGA,160120.00,3510.6705,N,12207.8976,W,1,11,0.8,5.9,M,-32.9,M,,*5E
$PYRTM,2024,125.667622341944,16.777269752095
$GPGGA,160121.00,3510.6710,N,12207.8980,W,1,11,0.8,6.2,M,-32.9,M,,*5A
$PYRTM,2024,125.667631037350,16.777278447488
$GPGGA,160122.00,3510.6715,N,12207.8985,W,1,11,0.8,6.5,M,-32.9,M,,*5E
$PYRTM,2024,125.667638322188,16.777285732326
$GPGGA,160123.00,3510.6714,N,12207.8995,W,1,11,0.8,6.8,M,-32.9,M,,*52
$PYRTM,2024,125.667654187211,16.777301597350
$GPGGA,160124.00,3510.6710,N,12207.9006,W,1,11,0.8,7.0,M,-32.9,M,,*5A
$PYRTM,2024,125.667665744687,16.777313154826
$GPGGA,160125.00,3510.6707,N,12207.9015,W,1,11,0.8,7.3,M,-32.9,M,,*5C
$PYRTM,2024,125.667673151331,16.777320561470
$GPGGA,160126.00,3510.6712,N,12207.9020,W,1,11,0.8,7.5,M,-32.9,M,,*5B
$PYRTM,2024,125.667688893322,16.777336303461
$GPGGA,160127.00,3510.6720,N,12207.9023,W,1,11,0.8,7.4,M,-32.9,M,,*59
$PYRTM,2024,125.667700481424,16.777347891574
$GPGGA,160128.00,3510.6721,N,12207.9028,W,1,11,0.8,7.4,M,-32.9,M,,*5C
$PYRTM,2024,125.667712041863,16.777359452002
$GPGGA,160129.00,3510.6717,N,12207.9036,W,1,11,0.8,7.6,M,-32.9,M,,*55
$PYRTM,2024,125.667723627905,16.777371038044
$GPGGA,160130.00,3510.6713,N,12207.9046,W,1,11,0.8,7.8,M,-32.9,M,,*50
$PYRTM,2024,125.667735190845,16.777382600984
$GPGGA,160131.00,3510.6712,N,12207.9054,W,1,11,0.8,7.8,M,-32.9,M,,*53
$PYRTM,2024,125.667746771505,16.777394181644
$GPGGA,160132.00,3510.6715,N,12207.9057,W,1,11,0.8,7.6,M,-32.9,M,,*5A
$PYRTM,2024,125.667758337604,16.777405747731
$GPGGA,160133.00,3510.6719,N,12207.9060,W,1,11,0.8,7.7,M,-32.9,M,,*52
$PYRTM,2024,125.667765745104,16.777413155243
$GPGGA,160134.00,3510.6721,N,12207.9067,W,1,11,0.8,7.5,M,-32.9,M,,*5B
$PYRTM,2024,125.667781487870,16.777428898009
$GPGGA,160135.00,3510.6719,N,12207.9077,W,1,11,0.8,7.4,M,-32.9,M,,*51
$PYRTM,2024,125.667788790694,16.777436200833
$GPGGA,160136.00,3510.6715,N,12207.9082,W,1,11,0.8,7.6,M,-32.9,M,,*56
$PYRTM,2024,125.667804634225,16.777452044363
$GPGGA,160137.00,3510.6714,N,12207.9084,W,1,11,0.8,7.9,M,-32.9,M,,*5F
$PYRTM,2024,125.667811934780,16.777459344919
$GPGGA,160138.00,3510.6720,N,12207.9089,W,1,11,0.8,8.0,M,-32.9,M,,*5C
$PYRTM,2024,125.667827782685,16.777475192824
$GPGGA,160139.00,3510.6724,N,12207.9098,W,1,11,0.8,7.7,M,-32.9,M,,*51
$PYRTM,2024,125.667839370694,16.777486780833
$GPGGA,160140.00,3510.6723,N,12207.9105,W,1,11,0.8,7.3,M,-32.9,M,,*59
$PYRTM,2024,125.667846675104,16.777494085243
$GPGGA,160141.00,3510.6719,N,12207.9110,W,1,11,0.8,7.4,M,-32.9,M,,*52
$PYRTM,2024,125.667862517350,16.777509927488
$GPGGA,160142.00,3510.6719,N,12207.9116,W,1,11,0.8,7.6,M,-32.9,M,,*55
$PYRTM,2024,125.667874079028,16.777521489167
$GPGGA,160143.00,3510.6721,N,12207.9124,W,1,11,0.8,7.9,M,-32.9,M,,*51
$PYRTM,2024,125.667885661424,16.777533071562
$GPGGA,160144.00,3510.6723,N,12207.9127,W,1,11,0.8,7.8,M,-32.9,M,,*56
$PYRTM,2024,125.667897228877,16.777544639016
$GPGGA,160145.00,3510.6723,N,12207.9129,W,1,11,0.8,8.0,M,-32.9,M,,*5E
$PYRTM,2024,125.667904531412,16.777551941551
$GPGGA,160146.00,3510.6720,N,12207.9137,W,1,11,0.8,8.0,M,-32.9,M,,*51
$PYRTM,2024,125.667920377269,16.777567787407
$GPGGA,160147.00,3510.6717,N,12207.9149,W,1,11,0.8,7.8,M,-32.9,M,,*5A
$PYRTM,2024,125.667931966562,16.777579376701
$GPGGA,160148.00,3510.6718,N,12207.9157,W,1,11,0.8,7.5,M,-32.9,M,,*58
$PYRTM,2024,125.667943524711,16.777590934850
$GPGGA,160149.00,3510.6722,N,12207.9157,W,1,11,0.8,7.4,M,-32.9,M,,*51
$PYRTM,2024,125.667955113785,16.777602523924
$GPGGA,160150.00,3510.6725,N,12207.9156,W,1,11,0.8,7.4,M,-32.9,M,,*5F
$PYRTM,2024,125.667962402905,16.777609813056
$GPGGA,160151.00,3510.6723,N,12207.9163,W,1,11,0.8,7.6,M,-32.9,M,,*5C
$PYRTM,2024,125.667981166759,16.777628576898
$GPGGA,160152.00,3510.6721,N,12207.9174,W,1,11,0.8,7.5,M,-32.9,M,,*58
$PYRTM,2024,125.667989821065,16.777637231204
$GPGGA,160153.00,3510.6723,N,12207.9184,W,1,11,0.8,7.1,M,-32.9,M,,*50
$PYRTM,2024,125.668001407477,16.777648817616
$GPGGA,160154.00,3510.6727,N,12207.9188,W,1,11,0.8,6.8,M,-32.9,M,,*57
$PYRTM,2024,125.668012969468,16.777660379618
$GPGGA,160155.00,3510.6728,N,12207.9188,W,1,11,0.8,7.0,M,-32.9,M,,*50
$PYRTM,2024,125.668024552280,16.777671962419
$GPGGA,160156.00,3510.6726,N,12207.9191,W,1,11,0.8,7.2,M,-32.9,M,,*57
$PYRTM,2024,125.668036119572,16.777683529711
$GPGGA,160157.00,3510.6724,N,12207.9200,W,1,11,0.8,7.5,M,-32.9,M,,*58
$PYRTM,2024,125.668047704664,16.777695114803
$GPGGA,160158.00,3510.6724,N,12207.9210,W,1,11,0.8,7.4,M,-32.9,M,,*57
$PYRTM,2024,125.668059267697,16.777706677836
$GPGGA,160159.00,3510.6724,N,12207.9214,W,1,11,0.8,7.5,M,-32.9,M,,*53
$PYRTM,2024,125.668070852685,16.777718262824
$GPGGA,160200.00,3510.6723,N,12207.9215,W,1,11,0.8,7.6,M,-32.9,M,,*59
$PYRTM,2024,125.668078132049,16.777725542188
$GPGGA,160201.00,3510.6722,N,12207.9220,W,1,11,0.8,7.6,M,-32.9,M,,*5F
$PYRTM,2024,125.668094001701,16.777741411840
$GPGGA,160202.00,3510.6723,N,12207.9228,W,1,11,0.8,7.6,M,-32.9,M,,*55
$PYRTM,2024,125.668101287940,16.777748698090
$GPGGA,160203.00,3510.6723,N,12207.9233,W,1,11,0.8,7.6,M,-32.9,M,,*5E
$PYRTM,2024,125.668113084896,16.777760495035
$GPGGA,160204.00,3510.6723,N,12207.9237,W,1,11,0.8,7.7,M,-32.9,M,,*5C
$PYRTM,2024,125.668128710880,16.777776121019
$GPGGA,160205.00,3510.6722,N,12207.9242,W,1,11,0.8,7.8,M,-32.9,M,,*51
$PYRTM,2024,125.668140297442,16.777787707581
$GPGGA,160206.00,3510.6723,N,12207.9249,W,1,11,0.8,7.6,M,-32.9,M,,*56
$PYRTM,2024,125.668151858299,16.777799268437
$GPGGA,160207.00,3510.6725,N,12207.9256,W,1,11,0.8,7.4,M,-32.9,M,,*5D
$PYRTM,2024,125.668163448704,16.777810858843
$GPGGA,160208.00,3510.6727,N,12207.9260,W,1,11,0.8,7.4,M,-32.9,M,,*55
$PYRTM,2024,125.668175008275,16.777822418414
$GPGGA,160209.00,3510.6726,N,12207.9265,W,1,11,0.8,7.6,M,-32.9,M,,*52
$PYRTM,2024,125.668186594063,16.777834004213
$GPGGA,160210.00,3510.6723,N,12207.9270,W,1,11,0.8,7.7,M,-32.9,M,,*5A
$PYRTM,2024,125.668198154884,16.777845565023
$GPGGA,160211.00,3510.6723,N,12207.9276,W,1,11,0.8,7.7,M,-32.9,M,,*5D
$PYRTM,2024,125.668209742407,16.777857152546
$GPGGA,160212.00,3510.6725,N,12207.9282,W,1,11,0.8,7.4,M,-32.9,M,,*50
$PYRTM,2024,125.668221305162,16.777868715301
$GPGGA,160213.00,3510.6727,N,12207.9289,W,1,11,0.8,7.0,M,-32.9,M,,*5C
$PYRTM,2024,125.668232885463,16.777880295613
$GPGGA,160214.00,3510.6726,N,12207.9294,W,1,11,0.8,7.0,M,-32.9,M,,*56
$PYRTM,2024,125.668244451435,16.777891861574
$GPGGA,160215.00,3510.6723,N,12207.9298,W,1,11,0.8,7.1,M,-32.9,M,,*5F
$PYRTM,2024,125.668256038762,16.777903448900
$GPGGA,160216.00,3510.6721,N,12207.9301,W,1,11,0.8,7.1,M,-32.9,M,,*5F
$PYRTM,2024,125.668267600127,16.777915010266
$GPGGA,160217.00,3510.6721,N,12207.9307,W,1,11,0.8,7.2,M,-32.9,M,,*5B
$PYRTM,2024,125.668279187396,16.777926597535
$GPGGA,160218.00,3510.6723,N,12207.9316,W,1,11,0.8,7.1,M,-32.9,M,,*55
$PYRTM,2024,125.668290755799,16.777938165937
$GPGGA,160219.00,3510.6724,N,12207.9324,W,1,11,0.8,7.0,M,-32.9,M,,*53
$PYRTM,2024,125.668302351030,16.777949761169
$GPGGA,160220.00,3510.6726,N,12207.9326,W,1,11,0.8,7.1,M,-32.9,M,,*58
$PYRTM,2024,125.668309626991,16.777957037130
$GPGGA,160221.00,3510.6726,N,12207.9328,W,1,11,0.8,7.1,M,-32.9,M,,*57
$PYRTM,2024,125.668321419803,16.777968829942
$GPGGA,160222.00,3510.6724,N,12207.9335,W,1,11,0.8,7.2,M,-32.9,M,,*59
$PYRTM,2024,125.668339937662,16.777987347801
$GPGGA,160223.00,3510.6722,N,12207.9346,W,1,11,0.8,6.9,M,-32.9,M,,*50
$PYRTM,2024,125.668351525104,16.777998935255
$GPGGA,160224.00,3510.6721,N,12207.9356,W,1,11,0.8,6.7,M,-32.9,M,,*5B
$PYRTM,2024,125.668363088380,16.778010498519
$GPGGA,160225.00,3510.6723,N,12207.9359,W,1,11,0.8,6.7,M,-32.9,M,,*57
$PYRTM,2024,125.668371781389,16.778019191528
$GPGGA,160226.00,3510.6727,N,12207.9361,W,1,11,0.8,6.8,M,-32.9,M,,*54
$PYRTM,2024,125.668383354641,16.778030764780
$GPGGA,160227.00,3510.6727,N,12207.9365,W,1,11,0.8,6.8,M,-32.9,M,,*51
$PYRTM,2024,125.668394929155,16.778042339294
$GPGGA,160228.00,3510.6722,N,12207.9373,W,1,11,0.8,7.0,M,-32.9,M,,*55
$PYRTM,2024,125.668406502581,16.778053912720
$GPGGA,160229.00,3510.6718,N,12207.9383,W,1,11,0.8,6.9,M,-32.9,M,,*5A
$PYRTM,2024,125.668418076898,16.778065487037
$GPGGA,160230.00,3510.6720,N,12207.9389,W,1,11,0.8,6.4,M,-32.9,M,,*5E
$PYRTM,2024,125.668429651458,16.778077061597
$GPGGA,160231.00,3510.6724,N,12207.9392,W,1,11,0.8,6.1,M,-32.9,M,,*54
$PYRTM,2024,125.668441228773,16.778088638912
$GPGGA,160232.00,3510.6725,N,12207.9394,W,1,11,0.8,6.2,M,-32.9,M,,*53
$PYRTM,2024,125.668452799028,16.778100209178
$GPGGA,160233.00,3510.6723,N,12207.9402,W,1,11,0.8,6.3,M,-32.9,M,,*5D
$PYRTM,2024,125.668460090972,16.778107501111
$GPGGA,160234.00,3510.6720,N,12207.9411,W,1,11,0.8,6.7,M,-32.9,M,,*5F
$PYRTM,2024,125.668475942257,16.778123352396
$GPGGA,160235.00,3510.6720,N,12207.9415,W,1,11,0.8,7.0,M,-32.9,M,,*5C
$PYRTM,2024,125.668483240324,16.778130650463
$GPGGA,160236.00,3510.6723,N,12207.9419,W,1,11,0.8,7.1,M,-32.9,M,,*51
$PYRTM,2024,125.668499096111,16.778146506250
$GPGGA,160237.00,3510.6724,N,12207.9427,W,1,11,0.8,6.6,M,-32.9,M,,*5C
$PYRTM,2024,125.668510670683,16.778158080822
$GPGGA,160238.00,3510.6722,N,12207.9437,W,1,11,0.8,5.9,M,-32.9,M,,*58
$PYRTM,2024,125.668517968958,16.778165379097
$GPGGA,160239.00,3510.6719,N,12207.9441,W,1,11,0.8,5.7,M,-32.9,M,,*5E
$PYRTM,2024,125.668533817789,16.778181227928
$GPGGA,160240.00,3510.6720,N,12207.9442,W,1,11,0.8,5.8,M,-32.9,M,,*56
$PYRTM,2024,125.668545390382,16.778192800521
$GPGGA,160241.00,3510.6722,N,12207.9447,W,1,11,0.8,5.9,M,-32.9,M,,*51
$PYRTM,2024,125.668556971944,16.778204382083
$GPGGA,160242.00,3510.6721,N,12207.9455,W,1,11,0.8,6.1,M,-32.9,M,,*59
$PYRTM,2024,125.668568540475,16.778215950613
$GPGGA,160243.00,3510.6718,N,12207.9460,W,1,11,0.8,6.3,M,-32.9,M,,*56
$PYRTM,2024,125.668580118866,16.778227529005
$GPGGA,160244.00,3510.6716,N,12207.9465,W,1,11,0.8,6.4,M,-32.9,M,,*5D
$PYRTM,2024,125.668591692720,16.778239102859
$GPGGA,160245.00,3510.6717,N,12207.9471,W,1,11,0.8,6.5,M,-32.9,M,,*59
$PYRTM,2024,125.668603279433,16.778250689572
$GPGGA,160246.00,3510.6719,N,12207.9476,W,1,11,0.8,6.5,M,-32.9,M,,*53
$PYRTM,2024,125.668614841354,16.778262251493
$GPGGA,160247.00,3510.6717,N,12207.9476,W,1,11,0.8,6.6,M,-32.9,M,,*5F
$PYRTM,2024,125.668626415347,16.778273825498
$GPGGA,160248.00,3510.6713,N,12207.9479,W,1,11,0.8,6.7,M,-32.9,M,,*5A
$PYRTM,2024,125.668637987350,16.778285397488
$GPGGA,160249.00,3510.6713,N,12207.9487,W,1,11,0.8,6.5,M,-32.9,M,,*58
$PYRTM,2024,125.668649554745,16.778296964884
$GPGGA,160250.00,3510.6716,N,12207.9498,W,1,11,0.8,5.8,M,-32.9,M,,*55
$PYRTM,2024,125.668661134329,16.778308544468
$GPGGA,160251.00,3510.6718,N,12207.9502,W,1,11,0.8,5.3,M,-32.9,M,,*53
$PYRTM,2024,125.668672709572,16.778320119711
$GPGGA,160252.00,3510.6715,N,12207.9501,W,1,11,0.8,5.4,M,-32.9,M,,*59
$PYRTM,2024,125.668680025023,16.778327435162
$GPGGA,160253.00,3510.6713,N,12207.9504,W,1,11,0.8,5.5,M,-32.9,M,,*5A
$PYRTM,2024,125.668698750845,16.778346160984
$GPGGA,160254.00,3510.6712,N,12207.9512,W,1,11,0.8,5.6,M,-32.9,M,,*58
$PYRTM,2024,125.668707425139,16.778354835278
$GPGGA,160255.00,3510.6710,N,12207.9521,W,1,11,0.8,5.7,M,-32.9,M,,*5A
$PYRTM,2024,125.668714716655,16.778362126794
$GPGGA,160256.00,3510.6709,N,12207.9525,W,1,11,0.8,5.7,M,-32.9,M,,*55
$PYRTM,2024,125.668730577731,16.778377987859
$GPGGA,160257.00,3510.6709,N,12207.9526,W,1,11,0.8,5.8,M,-32.9,M,,*58
$PYRTM,2024,125.668742153715,16.778389563854
$GPGGA,160258.00,3510.6711,N,12207.9528,W,1,11,0.8,5.9,M,-32.9,M,,*51
$PYRTM,2024,125.668753727662,16.778401137813
$GPGGA,160259.00,3510.6710,N,12207.9533,W,1,11,0.8,5.9,M,-32.9,M,,*5B
$PYRTM,2024,125.668765304433,16.778412714583
$GPGGA,160300.00,3510.6705,N,12207.9542,W,1,11,0.8,6.0,M,-32.9,M,,*5E
$PYRTM,2024,125.668776875405,16.778424285556
$GPGGA,160301.00,3510.6702,N,12207.9551,W,1,11,0.8,5.7,M,-32.9,M,,*5E
$PYRTM,2024,125.668788464178,16.778435874317
$GPGGA,160302.00,3510.6705,N,12207.9555,W,1,11,0.8,5.5,M,-32.9,M,,*5C
$PYRTM,2024,125.668800023866,16.778447434005
$GPGGA,160303.00,3510.6707,N,12207.9555,W,1,11,0.8,5.5,M,-32.9,M,,*5F
$PYRTM,2024,125.668811601377,16.778459011516
$GPGGA,160304.00,3510.6707,N,12207.9556,W,1,11,0.8,5.7,M,-32.9,M,,*59
$PYRTM,2024,125.668823168067,16.778470578206
$GPGGA,160305.00,3510.6705,N,12207.9562,W,1,11,0.8,5.8,M,-32.9,M,,*52
$PYRTM,2024,125.668834745440,16.778482155579
$GPGGA,160306.00,3510.6703,N,12207.9571,W,1,11,0.8,5.5,M,-32.9,M,,*58
$PYRTM,2024,125.668846320162,16.778493730301
$GPGGA,160307.00,3510.6702,N,12207.9579,W,1,11,0.8,4.8,M,-32.9,M,,*5C
$PYRTM,2024,125.668857895521,16.778505305660
$GPGGA,160308.00,3510.6701,N,12207.9583,W,1,11,0.8,4.5,M,-32.9,M,,*58
$PYRTM,2024,125.668865180278,16.778512590417
$GPGGA,160309.00,3510.6701,N,12207.9585,W,1,11,0.8,4.6,M,-32.9,M,,*5C
$PYRTM,2024,125.668881043275,16.778528453414
$GPGGA,160310.00,3510.6702,N,12207.9590,W,1,11,0.8,4.7,M,-32.9,M,,*52
$PYRTM,2024,125.668892616794,16.778540026944
$GPGGA,160311.00,3510.6700,N,12207.9598,W,1,11,0.8,5.0,M,-32.9,M,,*5F
$PYRTM,2024,125.668904191574,16.778551601725
$GPGGA,160312.00,3510.6698,N,12207.9603,W,1,11,0.8,5.3,M,-32.9,M,,*5E
$PYRTM,2024,125.668915764387,16.778563174525
$GPGGA,160313.00,3510.6695,N,12207.9605,W,1,11,0.8,5.4,M,-32.9,M,,*53
$PYRTM,2024,125.668927338542,16.778574748681
$GPGGA,160314.00,3510.6695,N,12207.9610,W,1,11,0.8,5.6,M,-32.9,M,,*52
$PYRTM,2024,125.668938913090,16.778586323229
$GPGGA,160315.00,3510.6696,N,12207.9617,W,1,11,0.8,5.8,M,-32.9,M,,*59
$PYRTM,2024,125.668950503264,16.778597913403
$GPGGA,160316.00,3510.6694,N,12207.9623,W,1,11,0.8,5.9,M,-32.9,M,,*5E
$PYRTM,2024,125.668962061701,16.778609471840
$GPGGA,160317.00,3510.6690,N,12207.9627,W,1,11,0.8,6.3,M,-32.9,M,,*56
$PYRTM,2024,125.668973662002,16.778621072153
$GPGGA,160318.00,3510.6687,N,12207.9629,W,1,11,0.8,6.7,M,-32.9,M,,*55
$PYRTM,2024,125.668985211319,16.778632621458
$GPGGA,160319.00,3510.6687,N,12207.9633,W,1,11,0.8,6.8,M,-32.9,M,,*50
$PYRTM,2024,125.668996783275,16.778644193426
$GPGGA,160320.00,3510.6691,N,12207.9639,W,1,11,0.8,6.7,M,-32.9,M,,*58
$PYRTM,2024,125.669008359954,16.778655770093
$GPGGA,160321.00,3510.6691,N,12207.9645,W,1,11,0.8,6.5,M,-32.9,M,,*50
$PYRTM,2024,125.669019931956,16.778667342095
$GPGGA,160322.00,3510.6687,N,12207.9650,W,1,11,0.8,6.5,M,-32.9,M,,*50
$PYRTM,2024,125.669031506354,16.778678916493
$GPGGA,160323.00,3510.6682,N,12207.9656,W,1,11,0.8,6.4,M,-32.9,M,,*53
$PYRTM,2024,125.669038793449,16.778686203588
$GPGGA,160324.00,3510.6683,N,12207.9662,W,1,11,0.8,6.2,M,-32.9,M,,*54
$PYRTM,2024,125.669057548472,16.778704958611
$GPGGA,160325.00,3510.6686,N,12207.9666,W,1,11,0.8,6.1,M,-32.9,M,,*57
$PYRTM,2024,125.669069122500,16.778716532650
$GPGGA,160326.00,3510.6686,N,12207.9670,W,1,11,0.8,6.2,M,-32.9,M,,*50
$PYRTM,2024,125.669080692141,16.778728102280
$GPGGA,160327.00,3510.6683,N,12207.9674,W,1,11,0.8,6.3,M,-32.9,M,,*51
$PYRTM,2024,125.669089385185,16.778736795324
$GPGGA,160328.00,3510.6680,N,12207.9681,W,1,11,0.8,6.1,M,-32.9,M,,*55
$PYRTM,2024,125.669096657396,16.778744067535
$GPGGA,160329.00,3510.6683,N,12207.9688,W,1,11,0.8,5.5,M,-32.9,M,,*59
$PYRTM,2024,125.669112533009,16.778759943148
$GPGGA,160330.00,3510.6687,N,12207.9693,W,1,11,0.8,5.2,M,-32.9,M,,*58
$PYRTM,2024,125.669124100405,16.778771510544
$GPGGA,160331.00,3510.6685,N,12207.9695,W,1,11,0.8,5.2,M,-32.9,M,,*5D
$PYRTM,2024,125.669135674294,16.778783084433
$GPGGA,160332.00,3510.6680,N,12207.9699,W,1,11,0.8,5.4,M,-32.9,M,,*51
$PYRTM,2024,125.669147247326,16.778794657465
$GPGGA,160333.00,3510.6676,N,12207.9706,W,1,11,0.8,5.5,M,-32.9,M,,*5F
$PYRTM,2024,125.669158821644,16.778806231794
$GPGGA,160334.00,3510.6676,N,12207.9712,W,1,11,0.8,5.5,M,-32.9,M,,*5D
$PYRTM,2024,125.669170396898,16.778817807037
$GPGGA,160335.00,3510.6677,N,12207.9717,W,1,11,0.8,5.6,M,-32.9,M,,*5B
$PYRTM,2024,125.669181970451,16.778829380590
$GPGGA,160336.00,3510.6676,N,12207.9723,W,1,11,0.8,5.7,M,-32.9,M,,*5F
$PYRTM,2024,125.669193539595,16.778840949734
$GPGGA,160337.00,3510.6673,N,12207.9730,W,1,11,0.8,5.7,M,-32.9,M,,*59
$PYRTM,2024,125.669205132373,16.778852542512
$GPGGA,160338.00,3510.6672,N,12207.9736,W,1,11,0.8,5.6,M,-32.9,M,,*50
$PYRTM,2024,125.669216694387,16.778864104525
$GPGGA,160339.00,3510.6673,N,12207.9740,W,1,11,0.8,5.7,M,-32.9,M,,*50
$PYRTM,2024,125.669228278437,16.778875688576
$GPGGA,160340.00,3510.6673,N,12207.9743,W,1,11,0.8,5.8,M,-32.9,M,,*52
$PYRTM,2024,125.669239842488,16.778887252627
$GPGGA,160341.00,3510.6672,N,12207.9749,W,1,11,0.8,5.9,M,-32.9,M,,*59
$PYRTM,2024,125.669251414479,16.778898824618
$GPGGA,160342.00,3510.6671,N,12207.9756,W,1,11,0.8,5.6,M,-32.9,M,,*58
$PYRTM,2024,125.669262988449,16.778910398588
$GPGGA,160343.00,3510.6673,N,12207.9762,W,1,11,0.8,5.3,M,-32.9,M,,*59
$PYRTM,2024,125.669270294213,16.778917704352
$GPGGA,160344.00,3510.6674,N,12207.9766,W,1,11,0.8,5.4,M,-32.9,M,,*5A
$PYRTM,2024,125.669286137546,16.778933547685
$GPGGA,160345.00,3510.6673,N,12207.9770,W,1,11,0.8,5.4,M,-32.9,M,,*5B
$PYRTM,2024,125.669297719155,16.778945129294
$GPGGA,160346.00,3510.6669,N,12207.9776,W,1,11,0.8,5.5,M,-32.9,M,,*54
$PYRTM,2024,125.669309285150,16.778956695289
$GPGGA,160347.00,3510.6667,N,12207.9784,W,1,11,0.8,5.4,M,-32.9,M,,*57
$PYRTM,2024,125.669320861840,16.778968271979
$GPGGA,160348.00,3510.6670,N,12207.9791,W,1,11,0.8,5.0,M,-32.9,M,,*5E
$PYRTM,2024,125.669332433715,16.778979843843
$GPGGA,160349.00,3510.6673,N,12207.9797,W,1,11,0.8,4.7,M,-32.9,M,,*5C
$PYRTM,2024,125.669344020289,16.778991430428
$GPGGA,160350.00,3510.6671,N,12207.9802,W,1,11,0.8,4.8,M,-32.9,M,,*5A
$PYRTM,2024,125.669351287708,16.778998697847
$GPGGA,160351.00,3510.6665,N,12207.9809,W,1,11,0.8,5.2,M,-32.9,M,,*5E
$PYRTM,2024,125.669367155625,16.779014565764
$GPGGA,160352.00,3510.6664,N,12207.9815,W,1,11,0.8,5.6,M,-32.9,M,,*55
$PYRTM,2024,125.669378730532,16.779026140671
$GPGGA,160353.00,3510.6668,N,12207.9821,W,1,11,0.8,5.7,M,-32.9,M,,*5E
$PYRTM,2024,125.669390308715,16.779037718854
$GPGGA,160354.00,3510.6673,N,12207.9827,W,1,11,0.8,5.6,M,-32.9,M,,*54
$PYRTM,2024,125.669397582951,16.779044993090
$GPGGA,160355.00,3510.6672,N,12207.9834,W,1,11,0.8,5.4,M,-32.9,M,,*54
$PYRTM,2024,125.669416354468,16.779063764606
$GPGGA,160356.00,3510.6667,N,12207.9840,W,1,11,0.8,5.7,M,-32.9,M,,*53
$PYRTM,2024,125.669425027373,16.779072437512
$GPGGA,160357.00,3510.6664,N,12207.9845,W,1,11,0.8,6.0,M,-32.9,M,,*50
$PYRTM,2024,125.669436610069,16.779084020208
$GPGGA,160358.00,3510.6666,N,12207.9849,W,1,11,0.8,6.1,M,-32.9,M,,*50
$PYRTM,2024,125.669448175139,16.779095585278
$GPGGA,160359.00,3510.6670,N,12207.9855,W,1,11,0.8,5.8,M,-32.9,M,,*51
$PYRTM,2024,125.669459769190,16.779107179329
$GPGGA,160400.00,3510.6671,N,12207.9863,W,1,11,0.8,5.0,M,-32.9,M,,*56
$PYRTM,2024,125.669467035718,16.779114445856
$GPGGA,160401.00,3510.6668,N,12207.9870,W,1,11,0.8,4.7,M,-32.9,M,,*5B
$PYRTM,2024,125.669482908113,16.779130318252
$GPGGA,160402.00,3510.6665,N,12207.9874,W,1,11,0.8,4.8,M,-32.9,M,,*5E
$PYRTM,2024,125.669490176400,16.779137586539
$GPGGA,160403.00,3510.6665,N,12207.9878,W,1,11,0.8,4.9,M,-32.9,M,,*52
$PYRTM,2024,125.669506045637,16.779153455775
$GPGGA,160404.00,3510.6668,N,12207.9885,W,1,11,0.8,5.3,M,-32.9,M,,*51
$PYRTM,2024,125.669517620000,16.779165030139
$GPGGA,160405.00,3510.6670,N,12207.9894,W,1,11,0.8,5.5,M,-32.9,M,,*5F
$PYRTM,2024,125.669529194236,16.779176604375
$GPGGA,160406.00,3510.6669,N,12207.9900,W,1,11,0.8,5.6,M,-32.9,M,,*5B
$PYRTM,2024,125.669540763403,16.779188173542
$GPGGA,160407.00,3510.6668,N,12207.9905,W,1,11,0.8,5.9,M,-32.9,M,,*51
$PYRTM,2024,125.669552353160,16.779199763299
$GPGGA,160408.00,3510.6669,N,12207.9910,W,1,11,0.8,6.3,M,-32.9,M,,*52
$PYRTM,2024,125.669563917199,16.779211327338
$GPGGA,160409.00,3510.6673,N,12207.9917,W,1,11,0.8,6.2,M,-32.9,M,,*5E
$PYRTM,2024,125.669575501678,16.779222911817
$GPGGA,160410.00,3510.6675,N,12207.9923,W,1,11,0.8,6.1,M,-32.9,M,,*54
$PYRTM,2024,125.669587065475,16.779234475625
$GPGGA,160411.00,3510.6675,N,12207.9930,W,1,11,0.8,6.2,M,-32.9,M,,*54
$PYRTM,2024,125.669598647037,16.779246057176
$GPGGA,160412.00,3510.6674,N,12207.9938,W,1,11,0.8,6.3,M,-32.9,M,,*5F
$PYRTM,2024,125.669610213414,16.779257623553
$GPGGA,160413.00,3510.6673,N,12207.9945,W,1,11,0.8,6.6,M,-32.9,M,,*56
$PYRTM,2024,125.669621797928,16.779269208067
$GPGGA,160414.00,3510.6674,N,12207.9951,W,1,11,0.8,6.8,M,-32.9,M,,*5D
$PYRTM,2024,125.669633361690,16.779280771829
$GPGGA,160415.00,3510.6676,N,12207.9957,W,1,11,0.8,7.0,M,-32.9,M,,*51
$PYRTM,2024,125.669640652384,16.779288062523
$GPGGA,160416.00,3510.6676,N,12207.9963,W,1,11,0.8,6.9,M,-32.9,M,,*5D
$PYRTM,2024,125.669656508924,16.779303919062
$GPGGA,160417.00,3510.6674,N,12207.9969,W,1,11,0.8,7.3,M,-32.9,M,,*5F
$PYRTM,2024,125.669668106574,16.779315516713
$GPGGA,160418.00,3510.6673,N,12207.9976,W,1,11,0.8,7.8,M,-32.9,M,,*52
$PYRTM,2024,125.669679657222,16.779327067361
$GPGGA,160419.00,3510.6671,N,12207.9983,W,1,11,0.8,8.1,M,-32.9,M,,*5D
$PYRTM,2024,125.669691243322,16.779338653461
$GPGGA,160420.00,3510.6672,N,12207.9989,W,1,11,0.8,8.3,M,-32.9,M,,*5C
$PYRTM,2024,125.669698511968,16.779345922106
$GPGGA,160421.00,3510.6675,N,12207.9994,W,1,11,0.8,8.3,M,-32.9,M,,*56
$PYRTM,2024,125.669714392083,16.779361802222
$GPGGA,160422.00,3510.6680,N,12208.0002,W,1,11,0.8,7.7,M,-32.9,M,,*54
$PYRTM,2024,125.669725954630,16.779373364769
$GPGGA,160423.00,3510.6680,N,12208.0011,W,1,11,0.8,7.0,M,-32.9,M,,*50
$PYRTM,2024,125.669733260382,16.779380670521
$GPGGA,160424.00,3510.6674,N,12208.0014,W,1,11,0.8,7.7,M,-32.9,M,,*5E
$PYRTM,2024,125.669749104005,16.779396514144
$GPGGA,160425.00,3510.6669,N,12208.0015,W,1,11,0.8,8.8,M,-32.9,M,,*52
$PYRTM,2024,125.669756399051,16.779403809201
$GPGGA,160426.00,3510.6672,N,12208.0022,W,1,11,0.8,9.1,M,-32.9,M,,*57
$PYRTM,2024,125.669775145220,16.779422555359
$GPGGA,160427.00,3510.6677,N,12208.0030,W,1,11,0.8,8.8,M,-32.9,M,,*58
$PYRTM,2024,125.669783833380,16.779431243519
$GPGGA,160428.00,3510.6675,N,12208.0036,W,1,11,0.8,8.6,M,-32.9,M,,*5D
$PYRTM,2024,125.669795400069,16.779442810208
$GPGGA,160429.00,3510.6669,N,12208.0040,W,1,11,0.8,9.0,M,-32.9,M,,*57
$PYRTM,2024,125.669806973773,16.779454383912
$GPGGA,160430.00,3510.6665,N,12208.0044,W,1,11,0.8,9.3,M,-32.9,M,,*54
$PYRTM,2024,125.669814254583,16.779461664722
$GPGGA,160431.00,3510.6665,N,12208.0049,W,1,11,0.8,9.5,M,-32.9,M,,*5E
$PYRTM,2024,125.669830121806,16.779477531944
$GPGGA,160432.00,3510.6668,N,12208.0056,W,1,11,0.8,9.4,M,-32.9,M,,*5F
$PYRTM,2024,125.669837399329,16.779484809468
$GPGGA,160433.00,3510.6669,N,12208.0063,W,1,11,0.8,9.2,M,-32.9,M,,*5F
$PYRTM,2024,125.669853281528,16.779500691667
$GPGGA,160434.00,3510.6668,N,12208.0068,W,1,11,0.8,9.2,M,-32.9,M,,*52
$PYRTM,2024,125.669864844410,16.779512254549
$GPGGA,160435.00,3510.6667,N,12208.0072,W,1,11,0.8,9.1,M,-32.9,M,,*54
$PYRTM,2024,125.669872123542,16.779519533681
$GPGGA,160436.00,3510.6668,N,12208.0078,W,1,11,0.8,9.1,M,-32.9,M,,*52
$PYRTM,2024,125.669887992627,16.779535402766
$GPGGA,160437.00,3510.6667,N,12208.0084,W,1,11,0.8,9.2,M,-32.9,M,,*5C
$PYRTM,2024,125.669899566875,16.779546977014
$GPGGA,160438.00,3510.6666,N,12208.0091,W,1,11,0.8,9.0,M,-32.9,M,,*54
$PYRTM,2024,125.669911140521,16.779558550660
$GPGGA,160439.00,3510.6666,N,12208.0098,W,1,11,0.8,8.6,M,-32.9,M,,*5B
$PYRTM,2024,125.669922722500,16.779570132639
$GPGGA,160440.00,3510.6666,N,12208.0103,W,1,11,0.8,8.3,M,-32.9,M,,*53
$PYRTM,2024,125.669934289236,16.779581699375
$GPGGA,160441.00,3510.6668,N,12208.0108,W,1,11,0.8,8.4,M,-32.9,M,,*50
$PYRTM,2024,125.669945886968,16.779593297106
$GPGGA,160442.00,3510.6669,N,12208.0113,W,1,11,0.8,8.5,M,-32.9,M,,*59
$PYRTM,2024,125.669957436875,16.779604847014
$GPGGA,160443.00,3510.6666,N,12208.0120,W,1,11,0.8,8.3,M,-32.9,M,,*51
$PYRTM,2024,125.669969021007,16.779616431157
$GPGGA,160444.00,3510.6662,N,12208.0129,W,1,11,0.8,8.2,M,-32.9,M,,*5A
$PYRTM,2024,125.669980585382,16.779627995521
$GPGGA,160445.00,3510.6662,N,12208.0134,W,1,11,0.8,8.2,M,-32.9,M,,*57
$PYRTM,2024,125.669987873345,16.779635283484
$GPGGA,160446.00,3510.6665,N,12208.0138,W,1,11,0.8,8.0,M,-32.9,M,,*5D
$PYRTM,2024,125.670003734687,16.779651144826
$GPGGA,160447.00,3510.6669,N,12208.0142,W,1,11,0.8,7.8,M,-32.9,M,,*5A
$PYRTM,2024,125.670015310278,16.779662720417
$GPGGA,160448.00,3510.6668,N,12208.0146,W,1,11,0.8,7.8,M,-32.9,M,,*50
$PYRTM,2024,125.670026885475,16.779674295613
$GPGGA,160449.00,3510.6665,N,12208.0153,W,1,11,0.8,8.2,M,-32.9,M,,*5D
$PYRTM,2024,125.670038456701,16.779685866840
$GPGGA,160450.00,3510.6662,N,12208.0163,W,1,11,0.8,8.3,M,-32.9,M,,*50
$PYRTM,2024,125.670050031331,16.779697441481
$GPGGA,160451.00,3510.6664,N,12208.0170,W,1,11,0.8,8.0,M,-32.9,M,,*56
$PYRTM,2024,125.670061605463,16.779709015602
$GPGGA,160452.00,3510.6668,N,12208.0173,W,1,11,0.8,8.3,M,-32.9,M,,*59
$PYRTM,2024,125.670073179109,16.779720589248
$GPGGA,160453.00,3510.6669,N,12208.0177,W,1,11,0.8,8.3,M,-32.9,M,,*5D
$PYRTM,2024,125.670084761215,16.779732171354
$GPGGA,160454.00,3510.6665,N,12208.0186,W,1,11,0.8,8.4,M,-32.9,M,,*5F
$PYRTM,2024,125.670096327014,16.779743737153
$GPGGA,160455.00,3510.6663,N,12208.0196,W,1,11,0.8,8.4,M,-32.9,M,,*59
$PYRTM,2024,125.670107927882,16.779755338021
$GPGGA,160456.00,3510.6664,N,12208.0202,W,1,11,0.8,8.8,M,-32.9,M,,*5F
$PYRTM,2024,125.670115182095,16.779762592234
$GPGGA,160457.00,3510.6666,N,12208.0206,W,1,11,0.8,8.5,M,-32.9,M,,*55
$PYRTM,2024,125.670133948623,16.779781358762
$GPGGA,160458.00,3510.6667,N,12208.0212,W,1,11,0.8,8.7,M,-32.9,M,,*5C
$PYRTM,2024,125.670142624005,16.779790034144
$GPGGA,160459.00,3510.6667,N,12208.0222,W,1,11,0.8,8.7,M,-32.9,M,,*5E
$PYRTM,2024,125.670154209363,16.779801619502
$GPGGA,160500.00,3510.6665,N,12208.0233,W,1,11,0.8,7.6,M,-32.9,M,,*5F
$PYRTM,2024,125.670165772674,16.779813182813
$GPGGA,160501.00,3510.6664,N,12208.0236,W,1,11,0.8,7.8,M,-32.9,M,,*54
$PYRTM,2024,125.670177346366,16.779824756505
$GPGGA,160502.00,3510.6667,N,12208.0235,W,1,11,0.8,8.0,M,-32.9,M,,*50
$PYRTM,2024,125.670188921910,16.779836332049
$GPGGA,160503.00,3510.6672,N,12208.0242,W,1,11,0.8,8.0,M,-32.9,M,,*55
$PYRTM,2024,125.670196214248,16.779843624387
$GPGGA,160504.00,3510.6672,N,12208.0253,W,1,11,0.8,7.7,M,-32.9,M,,*5A
$PYRTM,2024,125.670208004734,16.779855414873
$GPGGA,160505.00,3510.6668,N,12208.0261,W,1,11,0.8,7.5,M,-32.9,M,,*53
$PYRTM,2024,125.670223654410,16.779871064549
$GPGGA,160506.00,3510.6663,N,12208.0265,W,1,11,0.8,7.6,M,-32.9,M,,*5C
$PYRTM,2024,125.670235219213,16.779882629363
$GPGGA,160507.00,3510.6664,N,12208.0267,W,1,11,0.8,7.7,M,-32.9,M,,*59
$PYRTM,2024,125.670246799167,16.779894209306
$GPGGA,160508.00,3510.6669,N,12208.0272,W,1,11,0.8,7.5,M,-32.9,M,,*5D
$PYRTM,2024,125.670258367002,16.779905777141
$GPGGA,160509.00,3510.6671,N,12208.0280,W,1,11,0.8,7.1,M,-32.9,M,,*5C
$PYRTM,2024,125.670269947153,16.779917357292
$GPGGA,160510.00,3510.6668,N,12208.0287,W,1,11,0.8,7.0,M,-32.9,M,,*5A
$PYRTM,2024,125.670277221157,16.779924631296
$GPGGA,160511.00,3510.6664,N,12208.0292,W,1,11,0.8,7.2,M,-32.9,M,,*51
$PYRTM,2024,125.670293087755,16.779940497894
$GPGGA,160512.00,3510.6664,N,12208.0298,W,1,11,0.8,7.3,M,-32.9,M,,*59
$PYRTM,2024,125.670304661389,16.779952071528
$GPGGA,160513.00,3510.6667,N,12208.0304,W,1,11,0.8,7.3,M,-32.9,M,,*5F
$PYRTM,2024,125.670316247164,16.779963657303
$GPGGA,160514.00,3510.6670,N,12208.0310,W,1,11,0.8,7.3,M,-32.9,M,,*5B
$PYRTM,2024,125.670327806181,16.779975216319
$GPGGA,160515.00,3510.6669,N,12208.0316,W,1,11,0.8,7.5,M,-32.9,M,,*52
$PYRTM,2024,125.670335091100,16.779982501238
$GPGGA,160516.00,3510.6666,N,12208.0323,W,1,11,0.8,7.6,M,-32.9,M,,*5B
$PYRTM,2024,125.670350958576,16.779998368715
$GPGGA,160517.00,3510.6665,N,12208.0330,W,1,11,0.8,7.6,M,-32.9,M,,*5B
$PYRTM,2024,125.670362553819,16.780009963958
$GPGGA,160518.00,3510.6669,N,12208.0336,W,1,11,0.8,7.7,M,-32.9,M,,*5F
$PYRTM,2024,125.670374107674,16.780021517813
$GPGGA,160519.00,3510.6672,N,12208.0342,W,1,11,0.8,7.7,M,-32.9,M,,*57
$PYRTM,2024,125.670385681181,16.780033091319
$GPGGA,160520.00,3510.6672,N,12208.0349,W,1,11,0.8,7.7,M,-32.9,M,,*56
$PYRTM,2024,125.670397256319,16.780044666470
$GPGGA,160521.00,3510.6670,N,12208.0352,W,1,11,0.8,7.8,M,-32.9,M,,*50
$PYRTM,2024,125.670408837292,16.780056247431
$GPGGA,160522.00,3510.6668,N,12208.0354,W,1,11,0.8,7.9,M,-32.9,M,,*5D
$PYRTM,2024,125.670416110116,16.780063520255
$GPGGA,160523.00,3510.6668,N,12208.0363,W,1,11,0.8,8.1,M,-32.9,M,,*5F
$PYRTM,2024,125.670427913553,16.780075323692
$GPGGA,160524.00,3510.6671,N,12208.0374,W,1,11,0.8,7.7,M,-32.9,M,,*5F
$PYRTM,2024,125.670443547384,16.780090957523
$GPGGA,160525.00,3510.6673,N,12208.0379,W,1,11,0.8,7.3,M,-32.9,M,,*55
$PYRTM,2024,125.670455133738,16.780102543877
$GPGGA,160526.00,3510.6673,N,12208.0379,W,1,11,0.8,7.3,M,-32.9,M,,*56
$PYRTM,2024,125.670466700301,16.780114110451
$GPGGA,160527.00,3510.6674,N,12208.0381,W,1,11,0.8,7.3,M,-32.9,M,,*57
$PYRTM,2024,125.670473987164,16.780121397303
$GPGGA,160528.00,3510.6675,N,12208.0389,W,1,11,0.8,7.3,M,-32.9,M,,*51
$PYRTM,2024,125.670492742338,16.780140152477
$GPGGA,160529.00,3510.6675,N,12208.0399,W,1,11,0.8,7.4,M,-32.9,M,,*56
$PYRTM,2024,125.670501424039,16.780148834178
$GPGGA,160530.00,3510.6674,N,12208.0404,W,1,11,0.8,7.5,M,-32.9,M,,*5D
$PYRTM,2024,125.670512992280,16.780160402419
$GPGGA,160531.00,3510.6675,N,12208.0407,W,1,11,0.8,7.5,M,-32.9,M,,*5E
$PYRTM,2024,125.670524573345,16.780171983484
$GPGGA,160532.00,3510.6676,N,12208.0410,W,1,11,0.8,7.6,M,-32.9,M,,*5B
$PYRTM,2024,125.670536147245,16.780183557384
$GPGGA,160533.00,3510.6677,N,12208.0416,W,1,11,0.8,7.6,M,-32.9,M,,*5D
$PYRTM,2024,125.670547720000,16.780195130150
$GPGGA,160534.00,3510.6677,N,12208.0425,W,1,11,0.8,7.6,M,-32.9,M,,*5A
$PYRTM,2024,125.670559293576,16.780206703715
$GPGGA,160535.00,3510.6675,N,12208.0431,W,1,11,0.8,7.6,M,-32.9,M,,*5C
$PYRTM,2024,125.670566586157,16.780213996296
$GPGGA,160536.00,3510.6673,N,12208.0435,W,1,11,0.8,7.6,M,-32.9,M,,*5D
$PYRTM,2024,125.670578378333,16.780225788472
$GPGGA,160537.00,3510.6674,N,12208.0439,W,1,11,0.8,7.7,M,-32.9,M,,*56
$PYRTM,2024,125.670590427882,16.780237838021
$GPGGA,160538.00,3510.6677,N,12208.0444,W,1,11,0.8,7.8,M,-32.9,M,,*5F
$PYRTM,2024,125.670605590787,16.780253000926
$GPGGA,160539.00,3510.6679,N,12208.0451,W,1,11,0.8,7.9,M,-32.9,M,,*55
$PYRTM,2024,125.670617176528,16.780264586667
$GPGGA,160540.00,3510.6677,N,12208.0460,W,1,11,0.8,7.7,M,-32.9,M,,*59
$PYRTM,2024,125.670628738137,16.780276148275
$GPGGA,160541.00,3510.6675,N,12208.0466,W,1,11,0.8,7.5,M,-32.9,M,,*5E
$PYRTM,2024,125.670640323738,16.780287733877
$GPGGA,160542.00,3510.6676,N,12208.0469,W,1,11,0.8,7.5,M,-32.9,M,,*51
$PYRTM,2024,125.670651881840,16.780299291979
$GPGGA,160543.00,3510.6680,N,12208.0472,W,1,11,0.8,7.6,M,-32.9,M,,*50
$PYRTM,2024,125.670663461481,16.780310871620
$GPGGA,160544.00,3510.6681,N,12208.0478,W,1,11,0.8,7.8,M,-32.9,M,,*52
$PYRTM,2024,125.670675035961,16.780322446111
$GPGGA,160545.00,3510.6680,N,12208.0485,W,1,11,0.8,7.8,M,-32.9,M,,*50
$PYRTM,2024,125.670682321667,16.780329731806
$GPGGA,160546.00,3510.6681,N,12208.0492,W,1,11,0.8,7.7,M,-32.9,M,,*5B
$PYRTM,2024,125.670698183229,16.780345593368
$GPGGA,160547.00,3510.6682,N,12208.0499,W,1,11,0.8,7.8,M,-32.9,M,,*5D
$PYRTM,2024,125.670709757523,16.780357167674
$GPGGA,160548.00,3510.6683,N,12208.0504,W,1,11,0.8,7.8,M,-32.9,M,,*56
$PYRTM,2024,125.670721332824,16.780368742963
$GPGGA,160549.00,3510.6683,N,12208.0509,W,1,11,0.8,7.8,M,-32.9,M,,*5A
$PYRTM,2024,125.670732917442,16.780380327581
$GPGGA,160550.00,3510.6682,N,12208.0514,W,1,11,0.8,7.9,M,-32.9,M,,*5E
$PYRTM,2024,125.670740184248,16.780387594398
$GPGGA,160551.00,3510.6684,N,12208.0518,W,1,11,0.8,8.0,M,-32.9,M,,*53
$PYRTM,2024,125.670756063032,16.780403473171
$GPGGA,160552.00,3510.6685,N,12208.0526,W,1,11,0.8,8.1,M,-32.9,M,,*5D
$PYRTM,2024,125.670767630081,16.780415040220
$GPGGA,160553.00,3510.6686,N,12208.0534,W,1,11,0.8,8.0,M,-32.9,M,,*5D
$PYRTM,2024,125.670779210451,16.780426620590
$GPGGA,160554.00,3510.6687,N,12208.0539,W,1,11,0.8,7.7,M,-32.9,M,,*5E
$PYRTM,2024,125.670790771979,16.780438182130
$GPGGA,160555.00,3510.6686,N,12208.0543,W,1,11,0.8,7.8,M,-32.9,M,,*5C
$PYRTM,2024,125.670798063229,16.780445473368
$GPGGA,160556.00,3510.6686,N,12208.0549,W,1,11,0.8,8.0,M,-32.9,M,,*52
$PYRTM,2024,125.670813919803,16.780461329942
$GPGGA,160557.00,3510.6688,N,12208.0558,W,1,11,0.8,8.1,M,-32.9,M,,*5C
$PYRTM,2024,125.670825498600,16.780472908738
$GPGGA,160558.00,3510.6689,N,12208.0567,W,1,11,0.8,8.1,M,-32.9,M,,*5E
$PYRTM,2024,125.670832780822,16.780480190961
$GPGGA,160559.00,3510.6691,N,12208.0571,W,1,11,0.8,8.4,M,-32.9,M,,*54
$PYRTM,2024,125.670851544769,16.780498954907
$GPGGA,160600.00,3510.6692,N,12208.0574,W,1,11,0.8,8.6,M,-32.9,M,,*5F
$PYRTM,2024,125.670863110903,16.780510521042
$GPGGA,160601.00,3510.6691,N,12208.0581,W,1,11,0.8,8.8,M,-32.9,M,,*59
$PYRTM,2024,125.670874691157,16.780522101296
$GPGGA,160602.00,3510.6689,N,12208.0592,W,1,11,0.8,8.5,M,-32.9,M,,*5C
$PYRTM,2024,125.670883369329,16.780530779468
$GPGGA,160603.00,3510.6689,N,12208.0602,W,1,11,0.8,8.1,M,-32.9,M,,*53
$PYRTM,2024,125.670894969317,16.780542379456
$GPGGA,160604.00,3510.6691,N,12208.0605,W,1,11,0.8,8.0,M,-32.9,M,,*5B
$PYRTM,2024,125.670906512512,16.780553922662
$GPGGA,160605.00,3510.6694,N,12208.0606,W,1,11,0.8,8.0,M,-32.9,M,,*5C
$PYRTM,2024,125.670913797477,16.780561207616
$GPGGA,160606.00,3510.6696,N,12208.0611,W,1,11,0.8,8.1,M,-32.9,M,,*5A
$PYRTM,2024,125.670929661748,16.780577071887
$GPGGA,160607.00,3510.6695,N,12208.0622,W,1,11,0.8,8.2,M,-32.9,M,,*5B
$PYRTM,2024,125.670941248090,16.780588658229
$GPGGA,160608.00,3510.6693,N,12208.0632,W,1,11,0.8,8.3,M,-32.9,M,,*52
$PYRTM,2024,125.670952809051,16.780600219190
$GPGGA,160609.00,3510.6693,N,12208.0636,W,1,11,0.8,8.5,M,-32.9,M,,*51
$PYRTM,2024,125.670960094271,16.780607504410
$GPGGA,160610.00,3510.6696,N,12208.0638,W,1,11,0.8,8.7,M,-32.9,M,,*50
$PYRTM,2024,125.670975962535,16.780623372674
$GPGGA,160611.00,3510.6698,N,12208.0645,W,1,11,0.8,8.8,M,-32.9,M,,*5A
$PYRTM,2024,125.670987549363,16.780634959502
$GPGGA,160612.00,3510.6696,N,12208.0657,W,1,11,0.8,8.8,M,-32.9,M,,*54
$PYRTM,2024,125.670999113160,16.780646523299
$GPGGA,160613.00,3510.6692,N,12208.0666,W,1,11,0.8,9.1,M,-32.9,M,,*5B
$PYRTM,2024,125.671010684896,16.780658095035
$GPGGA,160614.00,3510.6691,N,12208.0668,W,1,11,0.8,9.4,M,-32.9,M,,*54
$PYRTM,2024,125.671022254317,16.780669664456
$GPGGA,160615.00,3510.6695,N,12208.0670,W,1,11,0.8,9.4,M,-32.9,M,,*58
$PYRTM,2024,125.671029552222,16.780676962361
$GPGGA,160616.00,3510.6701,N,12208.0676,W,1,11,0.8,9.3,M,-32.9,M,,*56
$PYRTM,2024,125.671045406678,16.780692816817
$GPGGA,160617.00,3510.6701,N,12208.0685,W,1,11,0.8,8.9,M,-32.9,M,,*50
$PYRTM,2024,125.671056980706,16.780704390845
$GPGGA,160618.00,3510.6696,N,12208.0693,W,1,11,0.8,8.5,M,-32.9,M,,*5B
$PYRTM,2024,125.671068555382,16.780715965521
$GPGGA,160619.00,3510.6691,N,12208.0700,W,1,11,0.8,8.4,M,-32.9,M,,*57
$PYRTM,2024,125.671080137708,16.780727547847
$GPGGA,160620.00,3510.6694,N,12208.0704,W,1,11,0.8,8.5,M,-32.9,M,,*5D
$PYRTM,2024,125.671091704838,16.780739114977
$GPGGA,160621.00,3510.6701,N,12208.0706,W,1,11,0.8,8.5,M,-32.9,M,,*53
$PYRTM,2024,125.671103277731,16.780750687870
$GPGGA,160622.00,3510.6704,N,12208.0709,W,1,11,0.8,8.6,M,-32.9,M,,*59
$PYRTM,2024,125.671110557419,16.780757967558
$GPGGA,160623.00,3510.6699,N,12208.0718,W,1,11,0.8,8.7,M,-32.9,M,,*5C
$PYRTM,2024,125.671122362604,16.780769772743
$GPGGA,160624.00,3510.6694,N,12208.0730,W,1,11,0.8,8.3,M,-32.9,M,,*58
$PYRTM,2024,125.671138000579,16.780785410729
$GPGGA,160625.00,3510.6696,N,12208.0740,W,1,11,0.8,7.7,M,-32.9,M,,*57
$PYRTM,2024,125.671145280324,16.780792690463
$GPGGA,160626.00,3510.6701,N,12208.0743,W,1,11,0.8,7.5,M,-32.9,M,,*5A
$PYRTM,2024,125.671161151389,16.780808561528
$GPGGA,160627.00,3510.6704,N,12208.0743,W,1,11,0.8,7.5,M,-32.9,M,,*5E
$PYRTM,2024,125.671172722581,16.780820132720
$GPGGA,160628.00,3510.6704,N,12208.0747,W,1,11,0.8,7.6,M,-32.9,M,,*56
$PYRTM,2024,125.671184293530,16.780831703669
$GPGGA,160629.00,3510.6702,N,12208.0755,W,1,11,0.8,7.7,M,-32.9,M,,*53
$PYRTM,2024,125.671191592616,16.780839002755
$GPGGA,160630.00,3510.6699,N,12208.0766,W,1,11,0.8,7.6,M,-32.9,M,,*59
$PYRTM,2024,125.671210339340,16.780857749479
$GPGGA,160631.00,3510.6699,N,12208.0776,W,1,11,0.8,7.1,M,-32.9,M,,*5E
$PYRTM,2024,125.671219019144,16.780866429282
$GPGGA,160632.00,3510.6702,N,12208.0779,W,1,11,0.8,6.9,M,-32.9,M,,*58
$PYRTM,2024,125.671230589086,16.780877999225
$GPGGA,160633.00,3510.6705,N,12208.0780,W,1,11,0.8,7.1,M,-32.9,M,,*51
$PYRTM,2024,125.671242193519,16.780889603657
$GPGGA,160634.00,3510.6704,N,12208.0784,W,1,11,0.8,7.2,M,-32.9,M,,*50
$PYRTM,2024,125.671253744051,16.780901154190
$GPGGA,160635.00,3510.6702,N,12208.0795,W,1,11,0.8,7.1,M,-32.9,M,,*54
$PYRTM,2024,125.671261034896,16.780908445035
$GPGGA,160636.00,3510.6700,N,12208.0805,W,1,11,0.8,7.0,M,-32.9,M,,*52
$PYRTM,2024,125.671276885104,16.780924295243
$GPGGA,160637.00,3510.6702,N,12208.0809,W,1,11,0.8,7.0,M,-32.9,M,,*5D
$PYRTM,2024,125.671288464826,16.780935874965
$GPGGA,160638.00,3510.6706,N,12208.0813,W,1,11,0.8,7.0,M,-32.9,M,,*5D
$PYRTM,2024,125.671295744329,16.780943154468
$GPGGA,160639.00,3510.6709,N,12208.0819,W,1,11,0.8,7.0,M,-32.9,M,,*59
$PYRTM,2024,125.671311612639,16.780959022778
$GPGGA,160640.00,3510.6707,N,12208.0828,W,1,11,0.8,7.0,M,-32.9,M,,*5B
$PYRTM,2024,125.671323186713,16.780970596852
$GPGGA,160641.00,3510.6703,N,12208.0836,W,1,11,0.8,7.4,M,-32.9,M,,*55
$PYRTM,2024,125.671330473924,16.780977884074
$GPGGA,160642.00,3510.6703,N,12208.0841,W,1,11,0.8,7.6,M,-32.9,M,,*54
$PYRTM,2024,125.671346330428,16.780993740579
$GPGGA,160643.00,3510.6708,N,12208.0846,W,1,11,0.8,7.7,M,-32.9,M,,*58
$PYRTM,2024,125.671357909306,16.781005319444
$GPGGA,160644.00,3510.6711,N,12208.0853,W,1,11,0.8,7.7,M,-32.9,M,,*53
$PYRTM,2024,125.671369484190,16.781016894329
$GPGGA,160645.00,3510.6709,N,12208.0859,W,1,11,0.8,7.8,M,-32.9,M,,*5E
$PYRTM,2024,125.671381057523,16.781028467662
$GPGGA,160646.00,3510.6704,N,12208.0865,W,1,11,0.8,8.3,M,-32.9,M,,*5B
$PYRTM,2024,125.671392631609,16.781040041748
$GPGGA,160647.00,3510.6702,N,12208.0871,W,1,11,0.8,8.5,M,-32.9,M,,*5F
$PYRTM,2024,125.671404230521,16.781051640660
$GPGGA,160648.00,3510.6706,N,12208.0878,W,1,11,0.8,8.2,M,-32.9,M,,*5A
$PYRTM,2024,125.671411484502,16.781058894641
$GPGGA,160649.00,3510.6710,N,12208.0881,W,1,11,0.8,8.0,M,-32.9,M,,*58
$PYRTM,2024,125.671427353113,16.781074763252
$GPGGA,160650.00,3510.6711,N,12208.0885,W,1,11,0.8,8.1,M,-32.9,M,,*54
$PYRTM,2024,125.671438922859,16.781086333009
$GPGGA,160651.00,3510.6707,N,12208.0892,W,1,11,0.8,8.2,M,-32.9,M,,*57
$PYRTM,2024,125.671450513414,16.781097923553
$GPGGA,160652.00,3510.6704,N,12208.0902,W,1,11,0.8,8.1,M,-32.9,M,,*5C
$PYRTM,2024,125.671462075590,16.781109485729
$GPGGA,160653.00,3510.6704,N,12208.0911,W,1,11,0.8,7.8,M,-32.9,M,,*59
$PYRTM,2024,125.671469355822,16.781116765961
$GPGGA,160654.00,3510.6708,N,12208.0917,W,1,11,0.8,7.4,M,-32.9,M,,*58
$PYRTM,2024,125.671485223646,16.781132633785
$GPGGA,160655.00,3510.6711,N,12208.0920,W,1,11,0.8,8.2,M,-32.9,M,,*5C
$PYRTM,2024,125.671496810694,16.781144220833
$GPGGA,160656.00,3510.6712,N,12208.0925,W,1,11,0.8,8.7,M,-32.9,M,,*5C
$PYRTM,2024,125.671508373843,16.781155783993
$GPGGA,160657.00,3510.6710,N,12208.0933,W,1,11,0.8,9.0,M,-32.9,M,,*5E
$PYRTM,2024,125.671515653623,16.781163063773
$GPGGA,160658.00,3510.6708,N,12208.0943,W,1,11,0.8,9.2,M,-32.9,M,,*5D
$PYRTM,2024,125.671531521238,16.781178931377
$GPGGA,160659.00,3510.6710,N,12208.0952,W,1,11,0.8,8.8,M,-32.9,M,,*5E
$PYRTM,2024,125.671543095150,16.781190505289
$GPGGA,160700.00,3510.6713,N,12208.0958,W,1,11,0.8,8.2,M,-32.9,M,,*50
$PYRTM,2024,125.671550374711,16.781197784861
$GPGGA,160701.00,3510.6715,N,12208.0962,W,1,11,0.8,8.3,M,-32.9,M,,*5F
$PYRTM,2024,125.671569132731,16.781216542870
$GPGGA,160702.00,3510.6713,N,12208.0967,W,1,11,0.8,8.5,M,-32.9,M,,*59
$PYRTM,2024,125.671577818981,16.781225229120
$GPGGA,160703.00,3510.6712,N,12208.0975,W,1,11,0.8,8.8,M,-32.9,M,,*57
$PYRTM,2024,125.671589415694,16.781236825833
$GPGGA,160704.00,3510.6712,N,12208.0983,W,1,11,0.8,8.9,M,-32.9,M,,*58
$PYRTM,2024,125.671600967870,16.781248378009
$GPGGA,160705.00,3510.6712,N,12208.0990,W,1,11,0.8,8.7,M,-32.9,M,,*55
$PYRTM,2024,125.671612540903,16.781259951053
$GPGGA,160706.00,3510.6714,N,12208.0997,W,1,11,0.8,8.4,M,-32.9,M,,*54
$PYRTM,2024,125.671624114942,16.781271525081
$GPGGA,160707.00,3510.6715,N,12208.1004,W,1,11,0.8,8.1,M,-32.9,M,,*53
$PYRTM,2024,125.671635688958,16.781283099097
$GPGGA,160708.00,3510.6714,N,12208.1011,W,1,11,0.8,8.0,M,-32.9,M,,*58
$PYRTM,2024,125.671647258183,16.781294668322
$GPGGA,160709.00,3510.6713,N,12208.1016,W,1,11,0.8,8.1,M,-32.9,M,,*58
$PYRTM,2024,125.671658836748,16.781306246887
$GPGGA,160710.00,3510.6713,N,12208.1023,W,1,11,0.8,8.2,M,-32.9,M,,*55
$PYRTM,2024,125.671666118009,16.781313528148
$GPGGA,160711.00,3510.6716,N,12208.1032,W,1,11,0.8,8.0,M,-32.9,M,,*53
$PYRTM,2024,125.671681996563,16.781329406701
$GPGGA,160712.00,3510.6717,N,12208.1041,W,1,11,0.8,7.6,M,-32.9,M,,*5C
$PYRTM,2024,125.671693559306,16.781340969444
$GPGGA,160713.00,3510.6717,N,12208.1049,W,1,11,0.8,7.5,M,-32.9,M,,*56
$PYRTM,2024,125.671700853796,16.781348263935
$GPGGA,160714.00,3510.6715,N,12208.1054,W,1,11,0.8,7.6,M,-32.9,M,,*5C
$PYRTM,2024,125.671716709248,16.781364119387
$GPGGA,160715.00,3510.6713,N,12208.1058,W,1,11,0.8,7.8,M,-32.9,M,,*59
$PYRTM,2024,125.671728289525,16.781375699664
$GPGGA,160716.00,3510.6714,N,12208.1066,W,1,11,0.8,7.9,M,-32.9,M,,*51
$PYRTM,2024,125.671739855741,16.781387265880
$GPGGA,160717.00,3510.6716,N,12208.1076,W,1,11,0.8,7.8,M,-32.9,M,,*52
$PYRTM,2024,125.671751456100,16.781398866238
$GPGGA,160718.00,3510.6715,N,12208.1083,W,1,11,0.8,7.5,M,-32.9,M,,*59
$PYRTM,2024,125.671763006400,16.781410416539
$GPGGA,160719.00,3510.6712,N,12208.1085,W,1,11,0.8,7.8,M,-32.9,M,,*54
$PYRTM,2024,125.671774577870,16.781421988009
$GPGGA,160720.00,3510.6712,N,12208.1089,W,1,11,0.8,8.0,M,-32.9,M,,*55
$PYRTM,2024,125.671781858368,16.781429268507
$GPGGA,160721.00,3510.6713,N,12208.1097,W,1,11,0.8,7.9,M,-32.9,M,,*5C
$PYRTM,2024,125.671797727419,16.781445137558
$GPGGA,160722.00,3510.6711,N,12208.1107,W,1,11,0.8,7.6,M,-32.9,M,,*5A
$PYRTM,2024,125.671809301100,16.781456711238
$GPGGA,160723.00,3510.6709,N,12208.1115,W,1,11,0.8,7.2,M,-32.9,M,,*55
$PYRTM,2024,125.671820874919,16.781468285069
$GPGGA,160724.00,3510.6710,N,12208.1121,W,1,11,0.8,7.0,M,-32.9,M,,*5F
$PYRTM,2024,125.671832444063,16.781479854201
$GPGGA,160725.00,3510.6711,N,12208.1126,W,1,11,0.8,7.1,M,-32.9,M,,*59
$PYRTM,2024,125.671844022998,16.781491433137
$GPGGA,160726.00,3510.6711,N,12208.1132,W,1,11,0.8,7.2,M,-32.9,M,,*5C
$PYRTM,2024,125.671855599549,16.781503009687
$GPGGA,160727.00,3510.6709,N,12208.1141,W,1,11,0.8,7.2,M,-32.9,M,,*50
$PYRTM,2024,125.671867171227,16.781514581377
$GPGGA,160728.00,3510.6707,N,12208.1151,W,1,11,0.8,7.2,M,-32.9,M,,*50
$PYRTM,2024,125.671878745764,16.781526155903
$GPGGA,160729.00,3510.6709,N,12208.1156,W,1,11,0.8,7.1,M,-32.9,M,,*5B
$PYRTM,2024,125.671890327998,16.781537738137
$GPGGA,160730.00,3510.6710,N,12208.1159,W,1,11,0.8,7.2,M,-32.9,M,,*57
$PYRTM,2024,125.671897598519,16.781545008657
$GPGGA,160731.00,3510.6709,N,12208.1164,W,1,11,0.8,7.3,M,-32.9,M,,*51
$PYRTM,2024,125.671909403495,16.781556813634
$GPGGA,160732.00,3510.6707,N,12208.1172,W,1,11,0.8,7.2,M,-32.9,M,,*5A
$PYRTM,2024,125.671927820289,16.781575230428
$GPGGA,160733.00,3510.6705,N,12208.1182,W,1,11,0.8,6.8,M,-32.9,M,,*5D
$PYRTM,2024,125.671936624954,16.781584035093
$GPGGA,160734.00,3510.6705,N,12208.1190,W,1,11,0.8,6.7,M,-32.9,M,,*56
$PYRTM,2024,125.671948190741,16.781595600880
$GPGGA,160735.00,3510.6707,N,12208.1192,W,1,11,0.8,6.9,M,-32.9,M,,*59
$PYRTM,2024,125.671959764271,16.781607174410
$GPGGA,160736.00,3510.6710,N,12208.1193,W,1,11,0.8,7.0,M,-32.9,M,,*55
$PYRTM,2024,125.671971339363,16.781618749502
$GPGGA,160737.00,3510.6709,N,12208.1201,W,1,11,0.8,7.2,M,-32.9,M,,*56
$PYRTM,2024,125.671982923854,16.781630334005
$GPGGA,160738.00,3510.6707,N,12208.1215,W,1,11,0.8,6.8,M,-32.9,M,,*59
$PYRTM,2024,125.671994485382,16.781641895521
$GPGGA,160739.00,3510.6703,N,12208.1226,W,1,11,0.8,6.3,M,-32.9,M,,*57
$PYRTM,2024,125.672006063287,16.781653473426
$GPGGA,160740.00,3510.6703,N,12208.1229,W,1,11,0.8,6.4,M,-32.9,M,,*51
$PYRTM,2024,125.672017635926,16.781665046065
$GPGGA,160741.00,3510.6707,N,12208.1228,W,1,11,0.8,6.6,M,-32.9,M,,*57
$PYRTM,2024,125.672029220231,16.781676630370
$GPGGA,160742.00,3510.6709,N,12208.1232,W,1,11,0.8,6.7,M,-32.9,M,,*50
$PYRTM,2024,125.672040784132,16.781688194271
$GPGGA,160743.00,3510.6708,N,12208.1244,W,1,11,0.8,6.5,M,-32.9,M,,*53
$PYRTM,2024,125.672052366238,16.781699776377
$GPGGA,160744.00,3510.6706,N,12208.1257,W,1,11,0.8,5.8,M,-32.9,M,,*56
$PYRTM,2024,125.672063932639,16.781711342778
$GPGGA,160745.00,3510.6705,N,12208.1261,W,1,11,0.8,5.5,M,-32.9,M,,*5C
$PYRTM,2024,125.672071219780,16.781718629919
$GPGGA,160746.00,3510.6708,N,12208.1261,W,1,11,0.8,5.6,M,-32.9,M,,*51
$PYRTM,2024,125.672087080590,16.781734490741
$GPGGA,160747.00,3510.6709,N,12208.1266,W,1,11,0.8,5.7,M,-32.9,M,,*57
$PYRTM,2024,125.672098654560,16.781746064699
$GPGGA,160748.00,3510.6709,N,12208.1274,W,1,11,0.8,5.7,M,-32.9,M,,*5B
$PYRTM,2024,125.672110223912,16.781757634051
$GPGGA,160749.00,3510.6708,N,12208.1280,W,1,11,0.8,5.7,M,-32.9,M,,*50
$PYRTM,2024,125.672121803681,16.781769213819
$GPGGA,160750.00,3510.6707,N,12208.1284,W,1,11,0.8,5.9,M,-32.9,M,,*5D
$PYRTM,2024,125.672133377674,16.781780787812
$GPGGA,160751.00,3510.6707,N,12208.1290,W,1,11,0.8,6.0,M,-32.9,M,,*53
$PYRTM,2024,125.672144952593,16.781792362731
$GPGGA,160752.00,3510.6707,N,12208.1298,W,1,11,0.8,5.9,M,-32.9,M,,*52
$PYRTM,2024,125.672156526910,16.781803937049
$GPGGA,160753.00,3510.6707,N,12208.1304,W,1,11,0.8,5.7,M,-32.9,M,,*59
$PYRTM,2024,125.672168111204,16.781815521343
$GPGGA,160754.00,3510.6708,N,12208.1307,W,1,11,0.8,5.8,M,-32.9,M,,*5D
$PYRTM,2024,125.672179674942,16.781827085081
$GPGGA,160755.00,3510.6708,N,12208.1313,W,1,11,0.8,5.8,M,-32.9,M,,*59
$PYRTM,2024,125.672191254988,16.781838665127
$GPGGA,160756.00,3510.6705,N,12208.1322,W,1,11,0.8,6.1,M,-32.9,M,,*5F
$PYRTM,2024,125.672202821713,16.781850231852
$GPGGA,160757.00,3510.6705,N,12208.1331,W,1,11,0.8,6.3,M,-32.9,M,,*5E
$PYRTM,2024,125.672214407326,16.781861817465
$GPGGA,160758.00,3510.6708,N,12208.1337,W,1,11,0.8,6.3,M,-32.9,M,,*5A
$PYRTM,2024,125.672225970532,16.781873380671
$GPGGA,160759.00,3510.6712,N,12208.1341,W,1,11,0.8,6.4,M,-32.9,M,,*56
$PYRTM,2024,125.672233264352,16.781880674491
$GPGGA,160800.00,3510.6710,N,12208.1347,W,1,11,0.8,6.5,M,-32.9,M,,*50
$PYRTM,2024,125.672249118993,16.781896529132
$GPGGA,160801.00,3510.6707,N,12208.1355,W,1,11,0.8,6.5,M,-32.9,M,,*54
$PYRTM,2024,125.672260704734,16.781908114884
$GPGGA,160802.00,3510.6705,N,12208.1364,W,1,11,0.8,6.5,M,-32.9,M,,*57
$PYRTM,2024,125.672267970775,16.781915380914
$GPGGA,160803.00,3510.6706,N,12208.1371,W,1,11,0.8,6.4,M,-32.9,M,,*50
$PYRTM,2024,125.672286618519,16.781934028669
$GPGGA,160804.00,3510.6709,N,12208.1374,W,1,11,0.8,6.5,M,-32.9,M,,*5C
$PYRTM,2024,125.672295415394,16.781942825532
$GPGGA,160805.00,3510.6711,N,12208.1377,W,1,11,0.8,6.7,M,-32.9,M,,*55
$PYRTM,2024,125.672307000347,16.781954410486
$GPGGA,160806.00,3510.6709,N,12208.1384,W,1,11,0.8,6.9,M,-32.9,M,,*5D
$PYRTM,2024,125.672318563368,16.781965973507
$GPGGA,160807.00,3510.6707,N,12208.1393,W,1,11,0.8,6.8,M,-32.9,M,,*55
$PYRTM,2024,125.672325842014,16.781973252153
$GPGGA,160808.00,3510.6707,N,12208.1402,W,1,11,0.8,6.4,M,-32.9,M,,*59
$PYRTM,2024,125.672341712697,16.781989122836
$GPGGA,160809.00,3510.6708,N,12208.1409,W,1,11,0.8,6.0,M,-32.9,M,,*58
$PYRTM,2024,125.672353286181,16.782000696319
$GPGGA,160810.00,3510.6709,N,12208.1413,W,1,11,0.8,6.3,M,-32.9,M,,*59
$PYRTM,2024,125.672364860278,16.782012270428
$GPGGA,160811.00,3510.6710,N,12208.1418,W,1,11,0.8,6.6,M,-32.9,M,,*5E
$PYRTM,2024,125.672376441528,16.782023851667
$GPGGA,160812.00,3510.6712,N,12208.1424,W,1,11,0.8,7.4,M,-32.9,M,,*53
$PYRTM,2024,125.672383712940,16.782031123079
$GPGGA,160813.00,3510.6712,N,12208.1436,W,1,11,0.8,6.9,M,-32.9,M,,*5D
$PYRTM,2024,125.672399608137,16.782047018275
$GPGGA,160814.00,3510.6711,N,12208.1445,W,1,11,0.8,7.0,M,-32.9,M,,*55
$PYRTM,2024,125.672411156840,16.782058566979
$GPGGA,160815.00,3510.6710,N,12208.1449,W,1,11,0.8,7.2,M,-32.9,M,,*5B
$PYRTM,2024,125.672422728275,16.782070138414
$GPGGA,160816.00,3510.6711,N,12208.1451,W,1,11,0.8,7.5,M,-32.9,M,,*57
$PYRTM,2024,125.672434305046,16.782081715185
$GPGGA,160817.00,3510.6713,N,12208.1459,W,1,11,0.8,7.7,M,-32.9,M,,*5E
$PYRTM,2024,125.672441584826,16.782088994965
$GPGGA,160818.00,3510.6713,N,12208.1470,W,1,11,0.8,7.7,M,-32.9,M,,*5A
$PYRTM,2024,125.672457452812,16.782104862951
$GPGGA,160819.00,3510.6709,N,12208.1476,W,1,11,0.8,8.0,M,-32.9,M,,*5E
$PYRTM,2024,125.672469028009,16.782116438148
$GPGGA,160820.00,3510.6705,N,12208.1478,W,1,11,0.8,8.5,M,-32.9,M,,*53
$PYRTM,2024,125.672480596273,16.782128006412
$GPGGA,160821.00,3510.6705,N,12208.1482,W,1,11,0.8,8.5,M,-32.9,M,,*57
$PYRTM,2024,125.672492175000,16.782139585139
$GPGGA,160822.00,3510.6709,N,12208.1489,W,1,11,0.8,8.3,M,-32.9,M,,*55
$PYRTM,2024,125.672503749514,16.782151159653
$GPGGA,160823.00,3510.6709,N,12208.1499,W,1,11,0.8,7.7,M,-32.9,M,,*5E
$PYRTM,2024,125.672515325637,16.782162735775
$GPGGA,160824.00,3510.6704,N,12208.1506,W,1,11,0.8,7.3,M,-32.9,M,,*57
$PYRTM,2024,125.672526897986,16.782174308125
$GPGGA,160825.00,3510.6702,N,12208.1511,W,1,11,0.8,7.2,M,-32.9,M,,*57
$PYRTM,2024,125.672538472650,16.782185882789
$GPGGA,160826.00,3510.6706,N,12208.1515,W,1,11,0.8,7.2,M,-32.9,M,,*54
$PYRTM,2024,125.672550047245,16.782197457384
$GPGGA,160827.00,3510.6712,N,12208.1520,W,1,11,0.8,7.4,M,-32.9,M,,*50
$PYRTM,2024,125.672557327361,16.782204737500
$GPGGA,160828.00,3510.6711,N,12208.1527,W,1,11,0.8,7.9,M,-32.9,M,,*56
$PYRTM,2024,125.672573194421,16.782220604560
$GPGGA,160829.00,3510.6706,N,12208.1535,W,1,11,0.8,8.4,M,-32.9,M,,*50
$PYRTM,2024,125.672584767963,16.782232178113
$GPGGA,160830.00,3510.6701,N,12208.1543,W,1,11,0.8,8.5,M,-32.9,M,,*5F
$PYRTM,2024,125.672592047315,16.782239457454
$GPGGA,160831.00,3510.6703,N,12208.1547,W,1,11,0.8,8.6,M,-32.9,M,,*5B
$PYRTM,2024,125.672607915810,16.782255325949
$GPGGA,160832.00,3510.6706,N,12208.1551,W,1,11,0.8,8.5,M,-32.9,M,,*59
$PYRTM,2024,125.672615197616,16.782262607755
$GPGGA,160833.00,3510.6708,N,12208.1557,W,1,11,0.8,8.5,M,-32.9,M,,*50
$PYRTM,2024,125.672627000220,16.782274410359
$GPGGA,160834.00,3510.6702,N,12208.1564,W,1,11,0.8,8.8,M,-32.9,M,,*50
$PYRTM,2024,125.672645412535,16.782292822685
$GPGGA,160835.00,3510.6696,N,12208.1567,W,1,11,0.8,9.8,M,-32.9,M,,*5F
$PYRTM,2024,125.672654213218,16.782301623356
$GPGGA,160836.00,3510.6695,N,12208.1571,W,1,11,0.8,10.6,M,-32.9,M,,*6E
$PYRTM,2024,125.672665787072,16.782313197211
$GPGGA,160837.00,3510.6700,N,12208.1579,W,1,11,0.8,10.5,M,-32.9,M,,*69
$PYRTM,2024,125.672677361250,16.782324771389
$GPGGA,160838.00,3510.6702,N,12208.1587,W,1,11,0.8,10.1,M,-32.9,M,,*61
$PYRTM,2024,125.672688938519,16.782336348657
$GPGGA,160839.00,3510.6699,N,12208.1592,W,1,11,0.8,9.8,M,-32.9,M,,*56
$PYRTM,2024,125.672700517002,16.782347927141
