$PYRTM,2024,126.750003737234,17.859651147373
$GPGGA,175959.00,3358.6974,N,11934.2937,W,1,10,0.8,9.7,M,-33.7,M,,*55
$PYRTM,2024,126.750015317049,17.859662727199
$GPGGA,180000.00,3358.6972,N,11934.2943,W,1,10,0.8,9.7,M,-33.7,M,,*5F
$PYRTM,2024,126.750026884907,17.859674295046
$GPGGA,180001.00,3358.6972,N,11934.2948,W,1,10,0.8,9.7,M,-33.7,M,,*55
$PYRTM,2024,126.750034286076,17.859681696227
$GPGGA,180002.00,3358.6971,N,11934.2954,W,1,10,0.8,9.7,M,-33.7,M,,*58
$PYRTM,2024,126.750050034109,17.859697444259
$GPGGA,180003.00,3358.6969,N,11934.2959,W,1,10,0.8,9.7,M,-33.7,M,,*5D
$PYRTM,2024,126.750061614884,17.859709025023
$GPGGA,180004.00,3358.6966,N,11934.2965,W,1,10,0.8,9.7,M,-33.7,M,,*5A
$PYRTM,2024,126.750073188171,17.859720598310
$GPGGA,180005.00,3358.6963,N,11934.2970,W,1,10,0.8,9.8,M,-33.7,M,,*55
$PYRTM,2024,126.750084776771,17.859732186910
$GPGGA,180006.00,3358.6962,N,11934.2975,W,1,10,0.8,9.8,M,-33.7,M,,*52
$PYRTM,2024,126.750096335104,17.859743745243
$GPGGA,180007.00,3358.6961,N,11934.2981,W,1,10,0.8,9.8,M,-33.7,M,,*5B
$PYRTM,2024,126.750107925706,17.859755335845
$GPGGA,180008.00,3358.6960,N,11934.2988,W,1,10,0.8,9.7,M,-33.7,M,,*53
$PYRTM,2024,126.750119483924,17.859766894062
$GPGGA,180009.00,3358.6957,N,11934.2994,W,1,10,0.8,9.6,M,-33.7,M,,*5A
$PYRTM,2024,126.750126879792,17.859774289931
$GPGGA,180010.00,3358.6954,N,11934.2998,W,1,10,0.8,9.6,M,-33.7,M,,*5D
$PYRTM,2024,126.750142631979,17.859790042118
$GPGGA,180011.00,3358.6953,N,11934.3002,W,1,10,0.8,9.7,M,-33.7,M,,*51
$PYRTM,2024,126.750154206782,17.859801616921
$GPGGA,180012.00,3358.6953,N,11934.3009,W,1,10,0.8,9.7,M,-33.7,M,,*59
$PYRTM,2024,126.750161615706,17.859809025845
$GPGGA,180013.00,3358.6951,N,11934.3016,W,1,10,0.8,9.7,M,-33.7,M,,*54
$PYRTM,2024,126.750177355174,17.859824765312
$GPGGA,180014.00,3358.6950,N,11934.3022,W,1,10,0.8,9.6,M,-33.7,M,,*54
$PYRTM,2024,126.750188928692,17.859836338831
$GPGGA,180015.00,3358.6947,N,11934.3026,W,1,10,0.8,9.6,M,-33.7,M,,*57
$PYRTM,2024,126.750200503113,17.859847913252
$GPGGA,180016.00,3358.6944,N,11934.3031,W,1,10,0.8,9.6,M,-33.7,M,,*51
$PYRTM,2024,126.750212077118,17.859859487257
$GPGGA,180017.00,3358.6943,N,11934.3037,W,1,10,0.8,9.6,M,-33.7,M,,*51
$PYRTM,2024,126.750223651053,17.859871061192
$GPGGA,180018.00,3358.6942,N,11934.3043,W,1,10,0.8,9.7,M,-33.7,M,,*5D
$PYRTM,2024,126.750231047442,17.859878457581
$GPGGA,180019.00,3358.6941,N,11934.3048,W,1,10,0.8,9.7,M,-33.7,M,,*54
$PYRTM,2024,126.750249693275,17.859897103414
$GPGGA,180020.00,3358.6939,N,11934.3054,W,1,10,0.8,9.7,M,-33.7,M,,*5C
$PYRTM,2024,126.750258373958,17.859905784097
$GPGGA,180021.00,3358.6935,N,11934.3060,W,1,10,0.8,9.7,M,-33.7,M,,*56
$PYRTM,2024,126.750269951204,17.859917361343
$GPGGA,180022.00,3358.6933,N,11934.3064,W,1,10,0.8,9.7,M,-33.7,M,,*57
$PYRTM,2024,126.750281521736,17.859928931875
$GPGGA,180023.00,3358.6932,N,11934.3070,W,1,10,0.8,9.7,M,-33.7,M,,*52
$PYRTM,2024,126.750293099595,17.859940509734
$GPGGA,180024.00,3358.6931,N,11934.3077,W,1,10,0.8,9.8,M,-33.7,M,,*5E
$PYRTM,2024,126.750300491470,17.859947901609
$GPGGA,180025.00,3358.6930,N,11934.3083,W,1,10,0.8,9.8,M,-33.7,M,,*55
$PYRTM,2024,126.750316245972,17.859963656111
$GPGGA,180026.00,3358.6928,N,11934.3089,W,1,10,0.8,9.8,M,-33.7,M,,*55
$PYRTM,2024,126.750327819005,17.859975229155
$GPGGA,180027.00,3358.6925,N,11934.3094,W,1,10,0.8,9.8,M,-33.7,M,,*55
$PYRTM,2024,126.750335212755,17.859982622894
$GPGGA,180028.00,3358.6923,N,11934.3099,W,1,10,0.8,9.8,M,-33.7,M,,*51
$PYRTM,2024,126.750350970081,17.859998380220
$GPGGA,180029.00,3358.6922,N,11934.3105,W,1,10,0.8,9.8,M,-33.7,M,,*55
$PYRTM,2024,126.750362544155,17.860009954294
$GPGGA,180030.00,3358.6921,N,11934.3111,W,1,10,0.8,9.8,M,-33.7,M,,*5B
$PYRTM,2024,126.750374114988,17.860021525127
$GPGGA,180031.00,3358.6919,N,11934.3117,W,1,10,0.8,9.8,M,-33.7,M,,*57
$PYRTM,2024,126.750381509502,17.860028919641
$GPGGA,180032.00,3358.6916,N,11934.3121,W,1,10,0.8,9.8,M,-33.7,M,,*5E
$PYRTM,2024,126.750397263160,17.860044673299
$GPGGA,180033.00,3358.6914,N,11934.3127,W,1,10,0.8,9.8,M,-33.7,M,,*5B
$PYRTM,2024,126.750404659074,17.860052069213
$GPGGA,180034.00,3358.6912,N,11934.3133,W,1,10,0.8,9.8,M,-33.7,M,,*5F
$PYRTM,2024,126.750420412743,17.860067822882
$GPGGA,180035.00,3358.6911,N,11934.3138,W,1,10,0.8,9.8,M,-33.7,M,,*56
$PYRTM,2024,126.750427805937,17.860075216076
$GPGGA,180036.00,3358.6909,N,11934.3143,W,1,10,0.8,9.8,M,-33.7,M,,*50
$PYRTM,2024,126.750443560475,17.860090970625
$GPGGA,180037.00,3358.6907,N,11934.3150,W,1,10,0.8,9.8,M,-33.7,M,,*5D
$PYRTM,2024,126.750455148495,17.860102558634
$GPGGA,180038.00,3358.6904,N,11934.3156,W,1,10,0.8,9.8,M,-33.7,M,,*57
$PYRTM,2024,126.750466703542,17.860114113681
$GPGGA,180039.00,3358.6903,N,11934.3162,W,1,10,0.8,9.8,M,-33.7,M,,*56
$PYRTM,2024,126.750478284965,17.860125695104
$GPGGA,180040.00,3358.6902,N,11934.3167,W,1,10,0.8,9.8,M,-33.7,M,,*5C
$PYRTM,2024,126.750489855972,17.860137266111
$GPGGA,180041.00,3358.6901,N,11934.3172,W,1,10,0.8,9.8,M,-33.7,M,,*5A
$PYRTM,2024,126.750501424931,17.860148835069
$GPGGA,180042.00,3358.6899,N,11934.3178,W,1,10,0.8,9.8,M,-33.7,M,,*53
$PYRTM,2024,126.750513004167,17.860160414306
$GPGGA,180043.00,3358.6897,N,11934.3184,W,1,10,0.8,9.7,M,-33.7,M,,*50
$PYRTM,2024,126.750524579896,17.860171990046
$GPGGA,180044.00,3358.6894,N,11934.3190,W,1,10,0.8,9.6,M,-33.7,M,,*50
$PYRTM,2024,126.750536153414,17.860183563553
$GPGGA,180045.00,3358.6893,N,11934.3195,W,1,10,0.8,9.6,M,-33.7,M,,*53
$PYRTM,2024,126.750547727604,17.860195137743
$GPGGA,180046.00,3358.6893,N,11934.3200,W,1,10,0.8,9.7,M,-33.7,M,,*5E
$PYRTM,2024,126.750559300845,17.860206710984
$GPGGA,180047.00,3358.6890,N,11934.3205,W,1,10,0.8,9.7,M,-33.7,M,,*59
$PYRTM,2024,126.750570875556,17.860218285694
$GPGGA,180048.00,3358.6888,N,11934.3212,W,1,10,0.8,9.6,M,-33.7,M,,*58
$PYRTM,2024,126.750582450116,17.860229860255
$GPGGA,180049.00,3358.6885,N,11934.3217,W,1,10,0.8,9.5,M,-33.7,M,,*52
$PYRTM,2024,126.750589844549,17.860237254699
$GPGGA,180050.00,3358.6883,N,11934.3222,W,1,10,0.8,9.5,M,-33.7,M,,*5A
$PYRTM,2024,126.750608477431,17.860255887569
$GPGGA,180051.00,3358.6883,N,11934.3227,W,1,10,0.8,9.5,M,-33.7,M,,*5E
$PYRTM,2024,126.750617174641,17.860264584780
$GPGGA,180052.00,3358.6882,N,11934.3233,W,1,10,0.8,9.5,M,-33.7,M,,*59
$PYRTM,2024,126.750628746620,17.860276156771
$GPGGA,180053.00,3358.6879,N,11934.3239,W,1,10,0.8,9.6,M,-33.7,M,,*55
$PYRTM,2024,126.750640323576,17.860287733715
$GPGGA,180054.00,3358.6875,N,11934.3244,W,1,10,0.8,9.5,M,-33.7,M,,*57
$PYRTM,2024,126.750651893750,17.860299303889
$GPGGA,180055.00,3358.6873,N,11934.3248,W,1,10,0.8,9.5,M,-33.7,M,,*5C
$PYRTM,2024,126.750663482546,17.860310892685
$GPGGA,180056.00,3358.6873,N,11934.3253,W,1,10,0.8,9.5,M,-33.7,M,,*55
$PYRTM,2024,126.750675041701,17.860322451840
$GPGGA,180057.00,3358.6873,N,11934.3259,W,1,10,0.8,9.6,M,-33.7,M,,*5D
$PYRTM,2024,126.750686617928,17.860334028067
$GPGGA,180058.00,3358.6871,N,11934.3265,W,1,10,0.8,9.6,M,-33.7,M,,*5F
$PYRTM,2024,126.750698191921,17.860345602060
$GPGGA,180059.00,3358.6868,N,11934.3270,W,1,10,0.8,9.6,M,-33.7,M,,*52
$PYRTM,2024,126.750709764861,17.860357175000
$GPGGA,180100.00,3358.6864,N,11934.3274,W,1,10,0.8,9.5,M,-33.7,M,,*54
$PYRTM,2024,126.750717174155,17.860364584294
$GPGGA,180101.00,3358.6864,N,11934.3279,W,1,10,0.8,9.5,M,-33.7,M,,*58
$PYRTM,2024,126.750732916840,17.860380326991
$GPGGA,180102.00,3358.6864,N,11934.3284,W,1,10,0.8,9.6,M,-33.7,M,,*5A
$PYRTM,2024,126.750740310428,17.860387720567
$GPGGA,180103.00,3358.6864,N,11934.3291,W,1,10,0.8,9.6,M,-33.7,M,,*5F
$PYRTM,2024,126.750756063356,17.860403473495
$GPGGA,180104.00,3358.6861,N,11934.3296,W,1,10,0.8,9.5,M,-33.7,M,,*59
$PYRTM,2024,126.750767635382,17.860415045521
$GPGGA,180105.00,3358.6857,N,11934.3300,W,1,10,0.8,9.5,M,-33.7,M,,*53
$PYRTM,2024,126.750775028079,17.860422438218
$GPGGA,180106.00,3358.6855,N,11934.3304,W,1,10,0.8,9.6,M,-33.7,M,,*55
$PYRTM,2024,126.750790785336,17.860438195475
$GPGGA,180107.00,3358.6854,N,11934.3310,W,1,10,0.8,9.6,M,-33.7,M,,*50
$PYRTM,2024,126.750802373738,17.860449783877
$GPGGA,180108.00,3358.6854,N,11934.3316,W,1,10,0.8,9.6,M,-33.7,M,,*59
$PYRTM,2024,126.750813931516,17.860461341655
$GPGGA,180109.00,3358.6852,N,11934.3321,W,1,10,0.8,9.6,M,-33.7,M,,*5A
$PYRTM,2024,126.750825509815,17.860472919954
$GPGGA,180110.00,3358.6848,N,11934.3325,W,1,10,0.8,9.6,M,-33.7,M,,*5D
$PYRTM,2024,126.750837080856,17.860484490995
$GPGGA,180111.00,3358.6845,N,11934.3330,W,1,10,0.8,9.6,M,-33.7,M,,*55
$PYRTM,2024,126.750848649595,17.860496059734
$GPGGA,180112.00,3358.6844,N,11934.3335,W,1,10,0.8,9.6,M,-33.7,M,,*52
$PYRTM,2024,126.750856065498,17.860503475637
$GPGGA,180113.00,3358.6844,N,11934.3341,W,1,10,0.8,9.6,M,-33.7,M,,*50
$PYRTM,2024,126.750871804109,17.860519214248
$GPGGA,180114.00,3358.6842,N,11934.3346,W,1,10,0.8,9.6,M,-33.7,M,,*56
$PYRTM,2024,126.750883372465,17.860530782604
$GPGGA,180115.00,3358.6840,N,11934.3351,W,1,10,0.8,9.6,M,-33.7,M,,*53
$PYRTM,2024,126.750894951956,17.860542362095
$GPGGA,180116.00,3358.6837,N,11934.3355,W,1,10,0.8,9.7,M,-33.7,M,,*55
$PYRTM,2024,126.750906525880,17.860553936019
$GPGGA,180117.00,3358.6835,N,11934.3360,W,1,10,0.8,9.7,M,-33.7,M,,*50
$PYRTM,2024,126.750918099502,17.860565509641
$GPGGA,180118.00,3358.6835,N,11934.3365,W,1,10,0.8,9.7,M,-33.7,M,,*5A
$PYRTM,2024,126.750929668623,17.860577078762
$GPGGA,180119.00,3358.6834,N,11934.3371,W,1,10,0.8,9.7,M,-33.7,M,,*5F
$PYRTM,2024,126.750941247419,17.860588657558
$GPGGA,180120.00,3358.6832,N,11934.3375,W,1,10,0.8,9.7,M,-33.7,M,,*57
$PYRTM,2024,126.750948644560,17.860596054711
$GPGGA,180121.00,3358.6829,N,11934.3379,W,1,10,0.8,9.8,M,-33.7,M,,*5F
$PYRTM,2024,126.750967284664,17.860614694803
$GPGGA,180122.00,3358.6827,N,11934.3384,W,1,10,0.8,9.8,M,-33.7,M,,*50
$PYRTM,2024,126.750978851146,17.860626261285
$GPGGA,180123.00,3358.6826,N,11934.3389,W,1,10,0.8,9.8,M,-33.7,M,,*5D
$PYRTM,2024,126.750990437604,17.860637847755
$GPGGA,180124.00,3358.6825,N,11934.3395,W,1,10,0.8,9.8,M,-33.7,M,,*54
$PYRTM,2024,126.750999118750,17.860646528889
$GPGGA,180125.00,3358.6824,N,11934.3399,W,1,10,0.8,9.8,M,-33.7,M,,*58
$PYRTM,2024,126.751010695313,17.860658105451
$GPGGA,180126.00,3358.6822,N,11934.3403,W,1,10,0.8,9.8,M,-33.7,M,,*59
$PYRTM,2024,126.751022265822,17.860669675961
$GPGGA,180127.00,3358.6819,N,11934.3408,W,1,10,0.8,9.8,M,-33.7,M,,*5B
$PYRTM,2024,126.751033842234,17.860681252373
$GPGGA,180128.00,3358.6818,N,11934.3414,W,1,10,0.8,9.8,M,-33.7,M,,*58
$PYRTM,2024,126.751045414780,17.860692824919
$GPGGA,180129.00,3358.6817,N,11934.3419,W,1,10,0.8,9.8,M,-33.7,M,,*5B
$PYRTM,2024,126.751057109896,17.860704520035
$GPGGA,180130.00,3358.6816,N,11934.3425,W,1,10,0.8,9.9,M,-33.7,M,,*5C
$PYRTM,2024,126.751068666840,17.860716076979
$GPGGA,180131.00,3358.6814,N,11934.3429,W,1,10,0.8,9.9,M,-33.7,M,,*53
$PYRTM,2024,126.751080253229,17.860727663368
$GPGGA,180132.00,3358.6812,N,11934.3433,W,1,10,0.8,9.9,M,-33.7,M,,*5D
$PYRTM,2024,126.751091710856,17.860739120995
$GPGGA,180133.00,3358.6810,N,11934.3438,W,1,10,0.8,9.9,M,-33.7,M,,*55
$PYRTM,2024,126.751103287211,17.860750697350
$GPGGA,180134.00,3358.6809,N,11934.3443,W,1,10,0.8,9.9,M,-33.7,M,,*56
$PYRTM,2024,126.751114859456,17.860762269595
$GPGGA,180135.00,3358.6808,N,11934.3449,W,1,10,0.8,9.9,M,-33.7,M,,*5C
$PYRTM,2024,126.751122255498,17.860769665637
$GPGGA,180136.00,3358.6806,N,11934.3454,W,1,10,0.8,9.9,M,-33.7,M,,*5D
$PYRTM,2024,126.751138007477,17.860785417616
$GPGGA,180137.00,3358.6804,N,11934.3458,W,1,10,0.8,9.9,M,-33.7,M,,*52
$PYRTM,2024,126.751149583657,17.860796993796
$GPGGA,180138.00,3358.6802,N,11934.3463,W,1,10,0.8,9.9,M,-33.7,M,,*53
$PYRTM,2024,126.751156977535,17.860804387674
$GPGGA,180139.00,3358.6800,N,11934.3468,W,1,10,0.8,9.9,M,-33.7,M,,*5B
$PYRTM,2024,126.751175624433,17.860823034572
$GPGGA,180140.00,3358.6800,N,11934.3473,W,1,10,0.8,9.9,M,-33.7,M,,*5F
$PYRTM,2024,126.751184305602,17.860831715741
$GPGGA,180141.00,3358.6799,N,11934.3478,W,1,10,0.8,9.9,M,-33.7,M,,*5A
$PYRTM,2024,126.751195894907,17.860843305046
$GPGGA,180142.00,3358.6797,N,11934.3483,W,1,10,0.8,9.9,M,-33.7,M,,*53
$PYRTM,2024,126.751207453368,17.860854863519
$GPGGA,180143.00,3358.6795,N,11934.3487,W,1,10,0.8,9.9,M,-33.7,M,,*54
$PYRTM,2024,126.751219027049,17.860866437188
$GPGGA,180144.00,3358.6793,N,11934.3492,W,1,10,0.8,9.9,M,-33.7,M,,*51
$PYRTM,2024,126.751230600058,17.860878010197
$GPGGA,180145.00,3358.6792,N,11934.3497,W,1,10,0.8,9.9,M,-33.7,M,,*54
$PYRTM,2024,126.751242175243,17.860889585382
$GPGGA,180146.00,3358.6792,N,11934.3502,W,1,10,0.8,9.9,M,-33.7,M,,*5A
$PYRTM,2024,126.751253749039,17.860901159178
$GPGGA,180147.00,3358.6790,N,11934.3507,W,1,10,0.8,9.9,M,-33.7,M,,*5C
$PYRTM,2024,126.751265325625,17.860912735764
$GPGGA,180148.00,3358.6788,N,11934.3512,W,1,10,0.8,9.9,M,-33.7,M,,*5E
$PYRTM,2024,126.751276897766,17.860924307905
$GPGGA,180149.00,3358.6787,N,11934.3516,W,1,10,0.8,9.9,M,-33.7,M,,*54
$PYRTM,2024,126.751288471956,17.860935882095
$GPGGA,180150.00,3358.6785,N,11934.3521,W,1,10,0.8,9.9,M,-33.7,M,,*5A
$PYRTM,2024,126.751295866100,17.860943276238
$GPGGA,180151.00,3358.6785,N,11934.3526,W,1,10,0.8,9.9,M,-33.7,M,,*5C
$PYRTM,2024,126.751307554745,17.860954964884
$GPGGA,180152.00,3358.6784,N,11934.3531,W,1,10,0.8,9.9,M,-33.7,M,,*58
$PYRTM,2024,126.751326074595,17.860973484734
$GPGGA,180153.00,3358.6782,N,11934.3536,W,1,10,0.8,9.9,M,-33.7,M,,*58
$PYRTM,2024,126.751334767396,17.860982177535
$GPGGA,180154.00,3358.6781,N,11934.3540,W,1,10,0.8,9.9,M,-33.7,M,,*5D
$PYRTM,2024,126.751346342616,17.860993752755
$GPGGA,180155.00,3358.6779,N,11934.3545,W,1,10,0.8,10.0,M,-33.7,M,,*6F
$PYRTM,2024,126.751357931088,17.861005341238
$GPGGA,180156.00,3358.6777,N,11934.3549,W,1,10,0.8,10.0,M,-33.7,M,,*6E
$PYRTM,2024,126.751369491076,17.861016901215
$GPGGA,180157.00,3358.6776,N,11934.3555,W,1,10,0.8,10.0,M,-33.7,M,,*63
$PYRTM,2024,126.751381079155,17.861028489294
$GPGGA,180158.00,3358.6774,N,11934.3560,W,1,10,0.8,9.9,M,-33.7,M,,*59
$PYRTM,2024,126.751392640243,17.861040050394
$GPGGA,180159.00,3358.6773,N,11934.3563,W,1,10,0.8,10.0,M,-33.7,M,,*6D
$PYRTM,2024,126.751404212720,17.861051622859
$GPGGA,180200.00,3358.6772,N,11934.3567,W,1,10,0.8,10.0,M,-33.7,M,,*67
$PYRTM,2024,126.751415789120,17.861063199259
$GPGGA,180201.00,3358.6771,N,11934.3573,W,1,10,0.8,10.0,M,-33.7,M,,*60
$PYRTM,2024,126.751427361204,17.861074771354
$GPGGA,180202.00,3358.6769,N,11934.3579,W,1,10,0.8,10.0,M,-33.7,M,,*60
$PYRTM,2024,126.751434770208,17.861082180347
$GPGGA,180203.00,3358.6767,N,11934.3583,W,1,10,0.8,10.0,M,-33.7,M,,*6A
$PYRTM,2024,126.751450509144,17.861097919282
$GPGGA,180204.00,3358.6767,N,11934.3586,W,1,10,0.8,10.0,M,-33.7,M,,*68
$PYRTM,2024,126.751462084803,17.861109494942
$GPGGA,180205.00,3358.6767,N,11934.3590,W,1,10,0.8,10.0,M,-33.7,M,,*6E
$PYRTM,2024,126.751473659306,17.861121069444
$GPGGA,180206.00,3358.6767,N,11934.3596,W,1,10,0.8,10.0,M,-33.7,M,,*6B
$PYRTM,2024,126.751485232384,17.861132642523
$GPGGA,180207.00,3358.6765,N,11934.3602,W,1,10,0.8,10.0,M,-33.7,M,,*66
$PYRTM,2024,126.751496806181,17.861144216331
$GPGGA,180208.00,3358.6763,N,11934.3605,W,1,10,0.8,10.0,M,-33.7,M,,*68
$PYRTM,2024,126.751508380440,17.861155790579
$GPGGA,180209.00,3358.6762,N,11934.3608,W,1,10,0.8,10.0,M,-33.7,M,,*65
$PYRTM,2024,126.751519955197,17.861167365336
$GPGGA,180210.00,3358.6761,N,11934.3613,W,1,10,0.8,10.0,M,-33.7,M,,*64
$PYRTM,2024,126.751527351215,17.861174761354
$GPGGA,180211.00,3358.6761,N,11934.3618,W,1,10,0.8,10.0,M,-33.7,M,,*6E
$PYRTM,2024,126.751543107199,17.861190517338
$GPGGA,180212.00,3358.6760,N,11934.3623,W,1,10,0.8,10.0,M,-33.7,M,,*64
$PYRTM,2024,126.751550499063,17.861197909201
$GPGGA,180213.00,3358.6759,N,11934.3627,W,1,10,0.8,10.0,M,-33.7,M,,*6B
$PYRTM,2024,126.751566254039,17.861213664178
$GPGGA,180214.00,3358.6756,N,11934.3631,W,1,10,0.8,10.0,M,-33.7,M,,*64
$PYRTM,2024,126.751577825509,17.861225235648
$GPGGA,180215.00,3358.6755,N,11934.3636,W,1,10,0.8,10.1,M,-33.7,M,,*60
$PYRTM,2024,126.751589399537,17.861236809676
$GPGGA,180216.00,3358.6754,N,11934.3641,W,1,10,0.8,10.1,M,-33.7,M,,*62
$PYRTM,2024,126.751600973565,17.861248383704
$GPGGA,180217.00,3358.6753,N,11934.3645,W,1,10,0.8,10.0,M,-33.7,M,,*61
$PYRTM,2024,126.751608367130,17.861255777269
$GPGGA,180218.00,3358.6751,N,11934.3650,W,1,10,0.8,10.0,M,-33.7,M,,*68
$PYRTM,2024,126.751624121632,17.861271531782
$GPGGA,180219.00,3358.6750,N,11934.3654,W,1,10,0.8,10.1,M,-33.7,M,,*6D
$PYRTM,2024,126.751635696331,17.861283106481
$GPGGA,180220.00,3358.6749,N,11934.3657,W,1,10,0.8,10.1,M,-33.7,M,,*6C
$PYRTM,2024,126.751647266030,17.861294676169
$GPGGA,180221.00,3358.6748,N,11934.3662,W,1,10,0.8,10.1,M,-33.7,M,,*6A
$PYRTM,2024,126.751658845347,17.861306255486
$GPGGA,180222.00,3358.6747,N,11934.3667,W,1,10,0.8,10.1,M,-33.7,M,,*63
$PYRTM,2024,126.751666238067,17.861313648206
$GPGGA,180223.00,3358.6745,N,11934.3671,W,1,10,0.8,10.1,M,-33.7,M,,*67
$PYRTM,2024,126.751684888322,17.861332298461
$GPGGA,180224.00,3358.6744,N,11934.3674,W,1,10,0.8,10.1,M,-33.7,M,,*64
$PYRTM,2024,126.751693567928,17.861340978067
$GPGGA,180225.00,3358.6744,N,11934.3679,W,1,10,0.8,10.1,M,-33.7,M,,*68
$PYRTM,2024,126.751705140486,17.861352550625
$GPGGA,180226.00,3358.6744,N,11934.3684,W,1,10,0.8,10.1,M,-33.7,M,,*69
$PYRTM,2024,126.751716716319,17.861364126458
$GPGGA,180227.00,3358.6742,N,11934.3689,W,1,10,0.8,10.1,M,-33.7,M,,*63
$PYRTM,2024,126.751724108229,17.861371518368
$GPGGA,180228.00,3358.6740,N,11934.3692,W,1,10,0.8,10.1,M,-33.7,M,,*64
$PYRTM,2024,126.751739863657,17.861387273796
$GPGGA,180229.00,3358.6738,N,11934.3696,W,1,10,0.8,10.1,M,-33.7,M,,*6E
$PYRTM,2024,126.751751439757,17.861398849896
$GPGGA,180230.00,3358.6737,N,11934.3700,W,1,10,0.8,10.1,M,-33.7,M,,*67
$PYRTM,2024,126.751763011042,17.861410421181
$GPGGA,180231.00,3358.6737,N,11934.3705,W,1,10,0.8,10.1,M,-33.7,M,,*63
$PYRTM,2024,126.751774585880,17.861421996019
$GPGGA,180232.00,3358.6736,N,11934.3710,W,1,10,0.8,10.1,M,-33.7,M,,*65
$PYRTM,2024,126.751781990104,17.861429400255
$GPGGA,180233.00,3358.6734,N,11934.3714,W,1,10,0.8,10.1,M,-33.7,M,,*62
$PYRTM,2024,126.751797734086,17.861445144225
$GPGGA,180234.00,3358.6731,N,11934.3718,W,1,10,0.8,10.1,M,-33.7,M,,*6C
$PYRTM,2024,126.751809307419,17.861456717558
$GPGGA,180235.00,3358.6730,N,11934.3722,W,1,10,0.8,10.1,M,-33.7,M,,*65
$PYRTM,2024,126.751820883241,17.861468293391
$GPGGA,180236.00,3358.6730,N,11934.3727,W,1,10,0.8,10.1,M,-33.7,M,,*63
$PYRTM,2024,126.751832455417,17.861479865556
$GPGGA,180237.00,3358.6730,N,11934.3731,W,1,10,0.8,10.1,M,-33.7,M,,*65
$PYRTM,2024,126.751839850972,17.861487261111
$GPGGA,180238.00,3358.6728,N,11934.3735,W,1,10,0.8,10.1,M,-33.7,M,,*67
$PYRTM,2024,126.751855604051,17.861503014190
$GPGGA,180239.00,3358.6726,N,11934.3739,W,1,10,0.8,10.1,M,-33.7,M,,*64
$PYRTM,2024,126.751867177975,17.861514588113
$GPGGA,180240.00,3358.6724,N,11934.3743,W,1,10,0.8,10.1,M,-33.7,M,,*65
$PYRTM,2024,126.751874573958,17.861521984097
$GPGGA,180241.00,3358.6723,N,11934.3748,W,1,10,0.8,10.1,M,-33.7,M,,*68
$PYRTM,2024,126.751890326748,17.861537736887
$GPGGA,180242.00,3358.6723,N,11934.3752,W,1,10,0.8,10.1,M,-33.7,M,,*60
$PYRTM,2024,126.751897721019,17.861545131157
$GPGGA,180243.00,3358.6721,N,11934.3756,W,1,10,0.8,10.1,M,-33.7,M,,*67
$PYRTM,2024,126.751913478090,17.861560888229
$GPGGA,180244.00,3358.6720,N,11934.3760,W,1,10,0.8,10.1,M,-33.7,M,,*64
$PYRTM,2024,126.751925049190,17.861572459329
$GPGGA,180245.00,3358.6717,N,11934.3764,W,1,10,0.8,10.1,M,-33.7,M,,*65
$PYRTM,2024,126.751936639282,17.861584049421
$GPGGA,180246.00,3358.6716,N,11934.3769,W,1,10,0.8,10.1,M,-33.7,M,,*6A
$PYRTM,2024,126.751948192002,17.861595602141
$GPGGA,180247.00,3358.6716,N,11934.3773,W,1,10,0.8,10.1,M,-33.7,M,,*60
$PYRTM,2024,126.751959767049,17.861607177199
$GPGGA,180248.00,3358.6716,N,11934.3777,W,1,10,0.8,10.1,M,-33.7,M,,*6B
$PYRTM,2024,126.751971345637,17.861618755775
$GPGGA,180249.00,3358.6714,N,11934.3782,W,1,10,0.8,10.1,M,-33.7,M,,*62
$PYRTM,2024,126.751982919861,17.861630330000
$GPGGA,180250.00,3358.6711,N,11934.3786,W,1,10,0.8,10.1,M,-33.7,M,,*6B
$PYRTM,2024,126.751994488449,17.861641898588
$GPGGA,180251.00,3358.6709,N,11934.3790,W,1,10,0.8,10.1,M,-33.7,M,,*64
$PYRTM,2024,126.752006067523,17.861653477662
$GPGGA,180252.00,3358.6709,N,11934.3794,W,1,10,0.8,10.1,M,-33.7,M,,*63
$PYRTM,2024,126.752017641007,17.861665051157
$GPGGA,180253.00,3358.6708,N,11934.3798,W,1,10,0.8,10.1,M,-33.7,M,,*6F
$PYRTM,2024,126.752025037002,17.861672447130
$GPGGA,180254.00,3358.6707,N,11934.3804,W,1,10,0.8,10.0,M,-33.7,M,,*6C
$PYRTM,2024,126.752043669954,17.861691080093
$GPGGA,180255.00,3358.6705,N,11934.3809,W,1,10,0.8,10.0,M,-33.7,M,,*62
$PYRTM,2024,126.752052366088,17.861699776227
$GPGGA,180256.00,3358.6702,N,11934.3812,W,1,10,0.8,10.0,M,-33.7,M,,*6C
$PYRTM,2024,126.752063939225,17.861711349363
$GPGGA,180257.00,3358.6700,N,11934.3815,W,1,10,0.8,10.0,M,-33.7,M,,*68
$PYRTM,2024,126.752071332998,17.861718743137
$GPGGA,180258.00,3358.6699,N,11934.3820,W,1,10,0.8,10.0,M,-33.7,M,,*60
$PYRTM,2024,126.752087086736,17.861734496875
$GPGGA,180259.00,3358.6699,N,11934.3826,W,1,10,0.8,10.0,M,-33.7,M,,*67
$PYRTM,2024,126.752098664167,17.861746074317
$GPGGA,180300.00,3358.6698,N,11934.3831,W,1,10,0.8,10.0,M,-33.7,M,,*6D
$PYRTM,2024,126.752110230521,17.861757640660
$GPGGA,180301.00,3358.6696,N,11934.3835,W,1,10,0.8,10.0,M,-33.7,M,,*66
$PYRTM,2024,126.752121811887,17.861769222025
$GPGGA,180302.00,3358.6694,N,11934.3838,W,1,10,0.8,10.0,M,-33.7,M,,*6A
$PYRTM,2024,126.752129206331,17.861776616470
$GPGGA,180303.00,3358.6692,N,11934.3842,W,1,10,0.8,10.0,M,-33.7,M,,*60
$PYRTM,2024,126.752140893715,17.861788303854
$GPGGA,180304.00,3358.6691,N,11934.3848,W,1,10,0.8,10.1,M,-33.7,M,,*6F
$PYRTM,2024,126.752156531273,17.861803941412
$GPGGA,180305.00,3358.6692,N,11934.3853,W,1,10,0.8,10.1,M,-33.7,M,,*67
$PYRTM,2024,126.752168104873,17.861815515012
$GPGGA,180306.00,3358.6690,N,11934.3858,W,1,10,0.8,10.1,M,-33.7,M,,*6D
$PYRTM,2024,126.752179679664,17.861827089803
$GPGGA,180307.00,3358.6687,N,11934.3861,W,1,10,0.8,10.1,M,-33.7,M,,*60
$PYRTM,2024,126.752191254502,17.861838664641
$GPGGA,180308.00,3358.6684,N,11934.3866,W,1,10,0.8,10.1,M,-33.7,M,,*6B
$PYRTM,2024,126.752202829074,17.861850239225
$GPGGA,180309.00,3358.6683,N,11934.3871,W,1,10,0.8,10.1,M,-33.7,M,,*6B
$PYRTM,2024,126.752214403229,17.861861813368
$GPGGA,180310.00,3358.6683,N,11934.3876,W,1,10,0.8,10.1,M,-33.7,M,,*64
$PYRTM,2024,126.752221798380,17.861869208519
$GPGGA,180311.00,3358.6682,N,11934.3881,W,1,10,0.8,10.1,M,-33.7,M,,*6C
$PYRTM,2024,126.752237551493,17.861884961644
$GPGGA,180312.00,3358.6680,N,11934.3885,W,1,10,0.8,10.1,M,-33.7,M,,*69
$PYRTM,2024,126.752249124190,17.861896534329
$GPGGA,180313.00,3358.6678,N,11934.3890,W,1,10,0.8,10.1,M,-33.7,M,,*6B
$PYRTM,2024,126.752256519549,17.861903929688
$GPGGA,180314.00,3358.6676,N,11934.3895,W,1,10,0.8,10.1,M,-33.7,M,,*67
$PYRTM,2024,126.752268217153,17.861915627292
$GPGGA,180315.00,3358.6675,N,11934.3901,W,1,10,0.8,10.1,M,-33.7,M,,*69
$PYRTM,2024,126.752283850185,17.861931260324
$GPGGA,180316.00,3358.6675,N,11934.3905,W,1,10,0.8,10.1,M,-33.7,M,,*6E
$PYRTM,2024,126.752295422454,17.861942832593
$GPGGA,180317.00,3358.6673,N,11934.3909,W,1,10,0.8,10.1,M,-33.7,M,,*65
$PYRTM,2024,126.752307009225,17.861954419363
$GPGGA,180318.00,3358.6671,N,11934.3913,W,1,10,0.8,10.1,M,-33.7,M,,*63
$PYRTM,2024,126.752318569468,17.861965979606
$GPGGA,180319.00,3358.6670,N,11934.3919,W,1,10,0.8,10.1,M,-33.7,M,,*69
$PYRTM,2024,126.752330143600,17.861977553738
$GPGGA,180320.00,3358.6668,N,11934.3924,W,1,10,0.8,10.1,M,-33.7,M,,*64
$PYRTM,2024,126.752341717662,17.861989127801
$GPGGA,180321.00,3358.6667,N,11934.3929,W,1,10,0.8,10.1,M,-33.7,M,,*67
$PYRTM,2024,126.752353292627,17.862000702766
$GPGGA,180322.00,3358.6665,N,11934.3934,W,1,10,0.8,10.1,M,-33.7,M,,*6A
$PYRTM,2024,126.752364866065,17.862012276204
$GPGGA,180323.00,3358.6663,N,11934.3938,W,1,10,0.8,10.1,M,-33.7,M,,*61
$PYRTM,2024,126.752376434896,17.862023845035
$GPGGA,180324.00,3358.6662,N,11934.3944,W,1,10,0.8,10.1,M,-33.7,M,,*6C
$PYRTM,2024,126.752383836910,17.862031247049
$GPGGA,180325.00,3358.6660,N,11934.3949,W,1,10,0.8,10.1,M,-33.7,M,,*62
$PYRTM,2024,126.752402483368,17.862049893507
$GPGGA,180326.00,3358.6659,N,11934.3954,W,1,10,0.8,10.1,M,-33.7,M,,*67
$PYRTM,2024,126.752411162257,17.862058572396
$GPGGA,180327.00,3358.6658,N,11934.3959,W,1,10,0.8,10.1,M,-33.7,M,,*6A
$PYRTM,2024,126.752422735984,17.862070146123
$GPGGA,180328.00,3358.6656,N,11934.3963,W,1,10,0.8,10.1,M,-33.7,M,,*62
$PYRTM,2024,126.752430132963,17.862077543102
$GPGGA,180329.00,3358.6655,N,11934.3968,W,1,10,0.8,10.1,M,-33.7,M,,*6B
$PYRTM,2024,126.752445899051,17.862093309190
$GPGGA,180330.00,3358.6654,N,11934.3974,W,1,10,0.8,10.1,M,-33.7,M,,*6F
$PYRTM,2024,126.752453280336,17.862100690475
$GPGGA,180331.00,3358.6652,N,11934.3979,W,1,10,0.8,10.1,M,-33.7,M,,*65
$PYRTM,2024,126.752465084178,17.862112494317
$GPGGA,180332.00,3358.6651,N,11934.3984,W,1,10,0.8,10.1,M,-33.7,M,,*67
$PYRTM,2024,126.752480711470,17.862128121609
$GPGGA,180333.00,3358.6649,N,11934.3988,W,1,10,0.8,10.2,M,-33.7,M,,*60
$PYRTM,2024,126.752492300046,17.862139710197
$GPGGA,180334.00,3358.6648,N,11934.3994,W,1,10,0.8,10.2,M,-33.7,M,,*6B
$PYRTM,2024,126.752503859201,17.862151269340
$GPGGA,180335.00,3358.6646,N,11934.3999,W,1,10,0.8,10.1,M,-33.7,M,,*6A
$PYRTM,2024,126.752515445498,17.862162855637
$GPGGA,180336.00,3358.6644,N,11934.4004,W,1,10,0.8,10.1,M,-33.7,M,,*61
$PYRTM,2024,126.752527006331,17.862174416470
$GPGGA,180337.00,3358.6643,N,11934.4009,W,1,10,0.8,10.2,M,-33.7,M,,*69
$PYRTM,2024,126.752538477847,17.862185887998
$GPGGA,180338.00,3358.6642,N,11934.4015,W,1,10,0.8,10.2,M,-33.7,M,,*6A
$PYRTM,2024,126.752545888843,17.862193298993
$GPGGA,180339.00,3358.6640,N,11934.4021,W,1,10,0.8,10.2,M,-33.7,M,,*6E
$PYRTM,2024,126.752561626424,17.862209036563
$GPGGA,180340.00,3358.6638,N,11934.4025,W,1,10,0.8,10.2,M,-33.7,M,,*6B
$PYRTM,2024,126.752569020822,17.862216430961
$GPGGA,180341.00,3358.6636,N,11934.4029,W,1,10,0.8,10.2,M,-33.7,M,,*68
$PYRTM,2024,126.752584774317,17.862232184456
$GPGGA,180342.00,3358.6636,N,11934.4035,W,1,10,0.8,10.2,M,-33.7,M,,*66
$PYRTM,2024,126.752596348634,17.862243758773
$GPGGA,180343.00,3358.6635,N,11934.4042,W,1,10,0.8,10.2,M,-33.7,M,,*64
$PYRTM,2024,126.752603743437,17.862251153576
$GPGGA,180344.00,3358.6634,N,11934.4047,W,1,10,0.8,10.2,M,-33.7,M,,*67
$PYRTM,2024,126.752619497222,17.862266907361
$GPGGA,180345.00,3358.6631,N,11934.4051,W,1,10,0.8,10.2,M,-33.7,M,,*64
$PYRTM,2024,126.752631082674,17.862278492813
$GPGGA,180346.00,3358.6629,N,11934.4056,W,1,10,0.8,10.2,M,-33.7,M,,*69
$PYRTM,2024,126.752638472338,17.862285882477
$GPGGA,180347.00,3358.6629,N,11934.4062,W,1,10,0.8,10.2,M,-33.7,M,,*6F
$PYRTM,2024,126.752657116169,17.862304526319
$GPGGA,180348.00,3358.6629,N,11934.4068,W,1,10,0.8,10.2,M,-33.7,M,,*6A
$PYRTM,2024,126.752665792488,17.862313202627
$GPGGA,180349.00,3358.6627,N,11934.4073,W,1,10,0.8,10.2,M,-33.7,M,,*6F
$PYRTM,2024,126.752677366829,17.862324776968
$GPGGA,180350.00,3358.6624,N,11934.4078,W,1,10,0.8,10.2,M,-33.7,M,,*6F
$PYRTM,2024,126.752684787106,17.862332197245
$GPGGA,180351.00,3358.6622,N,11934.4083,W,1,10,0.8,10.2,M,-33.7,M,,*6C
$PYRTM,2024,126.752700532500,17.862347942639
$GPGGA,180352.00,3358.6621,N,11934.4088,W,1,10,0.8,10.2,M,-33.7,M,,*67
$PYRTM,2024,126.752712090752,17.862359500891
$GPGGA,180353.00,3358.6621,N,11934.4093,W,1,10,0.8,10.2,M,-33.7,M,,*6C
$PYRTM,2024,126.752723663299,17.862371073438
$GPGGA,180354.00,3358.6620,N,11934.4099,W,1,10,0.8,10.2,M,-33.7,M,,*60
$PYRTM,2024,126.752735233218,17.862382643356
$GPGGA,180355.00,3358.6618,N,11934.4105,W,1,10,0.8,10.1,M,-33.7,M,,*6D
$PYRTM,2024,126.752742633264,17.862390043403
$GPGGA,180356.00,3358.6615,N,11934.4110,W,1,10,0.8,10.0,M,-33.7,M,,*66
$PYRTM,2024,126.752761279352,17.862408689491
$GPGGA,180357.00,3358.6612,N,11934.4115,W,1,10,0.8,10.0,M,-33.7,M,,*65
$PYRTM,2024,126.752769959954,17.862417370104
$GPGGA,180358.00,3358.6612,N,11934.4121,W,1,10,0.8,10.0,M,-33.7,M,,*6D
$PYRTM,2024,126.752777373993,17.862424784132
$GPGGA,180359.00,3358.6612,N,11934.4127,W,1,10,0.8,10.0,M,-33.7,M,,*6A
$PYRTM,2024,126.752793120058,17.862440530197
$GPGGA,180400.00,3358.6611,N,11934.4132,W,1,10,0.8,10.1,M,-33.7,M,,*67
$PYRTM,2024,126.752800510162,17.862447920301
$GPGGA,180401.00,3358.6608,N,11934.4137,W,1,10,0.8,10.1,M,-33.7,M,,*6B
$PYRTM,2024,126.752816264329,17.862463674468
$GPGGA,180402.00,3358.6605,N,11934.4144,W,1,10,0.8,10.0,M,-33.7,M,,*60
$PYRTM,2024,126.752827826308,17.862475236447
$GPGGA,180403.00,3358.6604,N,11934.4148,W,1,10,0.8,9.8,M,-33.7,M,,*5C
$PYRTM,2024,126.752839430775,17.862486840914
$GPGGA,180404.00,3358.6604,N,11934.4153,W,1,10,0.8,9.9,M,-33.7,M,,*50
$PYRTM,2024,126.752850980208,17.862498390347
$GPGGA,180405.00,3358.6603,N,11934.4158,W,1,10,0.8,9.9,M,-33.7,M,,*5D
$PYRTM,2024,126.752862564826,17.862509974965
$GPGGA,180406.00,3358.6602,N,11934.4164,W,1,10,0.8,9.9,M,-33.7,M,,*50
$PYRTM,2024,126.752874128738,17.862521538877
$GPGGA,180407.00,3358.6600,N,11934.4170,W,1,10,0.8,9.9,M,-33.7,M,,*56
$PYRTM,2024,126.752885713669,17.862533123819
$GPGGA,180408.00,3358.6597,N,11934.4175,W,1,10,0.8,9.9,M,-33.7,M,,*51
$PYRTM,2024,126.752897275949,17.862544686100
$GPGGA,180409.00,3358.6597,N,11934.4180,W,1,10,0.8,9.9,M,-33.7,M,,*5A
$PYRTM,2024,126.752908861667,17.862556271806
$GPGGA,180410.00,3358.6596,N,11934.4186,W,1,10,0.8,9.9,M,-33.7,M,,*55
$PYRTM,2024,126.752920418935,17.862567829086
$GPGGA,180411.00,3358.6595,N,11934.4192,W,1,10,0.8,10.0,M,-33.7,M,,*63
$PYRTM,2024,126.752932008623,17.862579418762
$GPGGA,180412.00,3358.6592,N,11934.4197,W,1,10,0.8,9.9,M,-33.7,M,,*53
$PYRTM,2024,126.752943567616,17.862590977755
$GPGGA,180413.00,3358.6590,N,11934.4202,W,1,10,0.8,9.9,M,-33.7,M,,*5F
$PYRTM,2024,126.752955146933,17.862602557072
$GPGGA,180414.00,3358.6588,N,11934.4208,W,1,10,0.8,9.9,M,-33.7,M,,*5B
$PYRTM,2024,126.752966715428,17.862614125567
$GPGGA,180415.00,3358.6587,N,11934.4214,W,1,10,0.8,9.9,M,-33.7,M,,*58
$PYRTM,2024,126.752978306366,17.862625716505
$GPGGA,180416.00,3358.6586,N,11934.4220,W,1,10,0.8,9.9,M,-33.7,M,,*5D
$PYRTM,2024,126.752989869954,17.862637280093
$GPGGA,180417.00,3358.6584,N,11934.4225,W,1,10,0.8,10.0,M,-33.7,M,,*6A
$PYRTM,2024,126.753001451319,17.862648861458
$GPGGA,180418.00,3358.6582,N,11934.4230,W,1,10,0.8,10.0,M,-33.7,M,,*67
$PYRTM,2024,126.753008844687,17.862656254838
$GPGGA,180419.00,3358.6581,N,11934.4237,W,1,10,0.8,10.0,M,-33.7,M,,*62
$PYRTM,2024,126.753024598924,17.862672009062
$GPGGA,180420.00,3358.6580,N,11934.4242,W,1,10,0.8,10.0,M,-33.7,M,,*6B
$PYRTM,2024,126.753036166516,17.862683576667
$GPGGA,180421.00,3358.6579,N,11934.4247,W,1,10,0.8,10.0,M,-33.7,M,,*69
$PYRTM,2024,126.753047738958,17.862695149097
$GPGGA,180422.00,3358.6577,N,11934.4252,W,1,10,0.8,10.0,M,-33.7,M,,*60
$PYRTM,2024,126.753059314664,17.862706724803
$GPGGA,180423.00,3358.6575,N,11934.4258,W,1,10,0.8,10.0,M,-33.7,M,,*69
$PYRTM,2024,126.753070887477,17.862718297616
$GPGGA,180424.00,3358.6574,N,11934.4264,W,1,10,0.8,10.0,M,-33.7,M,,*60
$PYRTM,2024,126.753082462523,17.862729872662
$GPGGA,180425.00,3358.6572,N,11934.4270,W,1,10,0.8,10.0,M,-33.7,M,,*62
$PYRTM,2024,126.753094048137,17.862741458275
$GPGGA,180426.00,3358.6571,N,11934.4275,W,1,10,0.8,10.1,M,-33.7,M,,*66
$PYRTM,2024,126.753101437442,17.862748847581
$GPGGA,180427.00,3358.6570,N,11934.4280,W,1,10,0.8,10.1,M,-33.7,M,,*6C
$PYRTM,2024,126.753120078241,17.862767488391
$GPGGA,180428.00,3358.6568,N,11934.4286,W,1,10,0.8,10.1,M,-33.7,M,,*6C
$PYRTM,2024,126.753128758808,17.862776168947
$GPGGA,180429.00,3358.6566,N,11934.4292,W,1,10,0.8,10.0,M,-33.7,M,,*67
$PYRTM,2024,126.753140450718,17.862787860856
$GPGGA,180430.00,3358.6564,N,11934.4299,W,1,10,0.8,9.8,M,-33.7,M,,*56
$PYRTM,2024,126.753151907257,17.862799317407
$GPGGA,180431.00,3358.6563,N,11934.4305,W,1,10,0.8,9.7,M,-33.7,M,,*5B
$PYRTM,2024,126.753163481701,17.862810891840
$GPGGA,180432.00,3358.6562,N,11934.4309,W,1,10,0.8,9.7,M,-33.7,M,,*55
$PYRTM,2024,126.753175054838,17.862822464977
$GPGGA,180433.00,3358.6561,N,11934.4314,W,1,10,0.8,9.7,M,-33.7,M,,*5B
$PYRTM,2024,126.753186654583,17.862834064722
$GPGGA,180434.00,3358.6559,N,11934.4320,W,1,10,0.8,9.8,M,-33.7,M,,*5F
$PYRTM,2024,126.753198203773,17.862845613912
$GPGGA,180435.00,3358.6557,N,11934.4327,W,1,10,0.8,9.7,M,-33.7,M,,*58
$PYRTM,2024,126.753205599525,17.862853009664
$GPGGA,180436.00,3358.6555,N,11934.4332,W,1,10,0.8,9.6,M,-33.7,M,,*5C
$PYRTM,2024,126.753221351574,17.862868761713
$GPGGA,180437.00,3358.6553,N,11934.4337,W,1,10,0.8,9.6,M,-33.7,M,,*5E
$PYRTM,2024,126.753232925671,17.862880335810
$GPGGA,180438.00,3358.6551,N,11934.4343,W,1,10,0.8,9.6,M,-33.7,M,,*50
$PYRTM,2024,126.753244499375,17.862891909514
$GPGGA,180439.00,3358.6550,N,11934.4349,W,1,10,0.8,9.7,M,-33.7,M,,*5B
$PYRTM,2024,126.753256074005,17.862903484144
$GPGGA,180440.00,3358.6550,N,11934.4355,W,1,10,0.8,9.7,M,-33.7,M,,*58
$PYRTM,2024,126.753263481840,17.862910891979
$GPGGA,180441.00,3358.6547,N,11934.4361,W,1,10,0.8,9.6,M,-33.7,M,,*59
$PYRTM,2024,126.753279223194,17.862926633333
$GPGGA,180442.00,3358.6544,N,11934.4367,W,1,10,0.8,9.5,M,-33.7,M,,*5C
$PYRTM,2024,126.753290797292,17.862938207431
$GPGGA,180443.00,3358.6542,N,11934.4372,W,1,10,0.8,9.6,M,-33.7,M,,*5C
$PYRTM,2024,126.753302370903,17.862949781053
$GPGGA,180444.00,3358.6541,N,11934.4377,W,1,10,0.8,9.6,M,-33.7,M,,*5D
$PYRTM,2024,126.753313946366,17.862961356505
$GPGGA,180445.00,3358.6541,N,11934.4384,W,1,10,0.8,9.7,M,-33.7,M,,*51
$PYRTM,2024,126.753321338831,17.862968748970
$GPGGA,180446.00,3358.6539,N,11934.4390,W,1,10,0.8,9.6,M,-33.7,M,,*59
$PYRTM,2024,126.753337093785,17.862984503924
$GPGGA,180447.00,3358.6536,N,11934.4396,W,1,10,0.8,9.5,M,-33.7,M,,*52
$PYRTM,2024,126.753348667465,17.862996077604
$GPGGA,180448.00,3358.6535,N,11934.4400,W,1,10,0.8,9.5,M,-33.7,M,,*56
$PYRTM,2024,126.753356069502,17.863003479641
$GPGGA,180449.00,3358.6534,N,11934.4405,W,1,10,0.8,9.6,M,-33.7,M,,*50
$PYRTM,2024,126.753371823461,17.863019233600
$GPGGA,180450.00,3358.6533,N,11934.4412,W,1,10,0.8,9.5,M,-33.7,M,,*5A
$PYRTM,2024,126.753379221400,17.863026631551
$GPGGA,180451.00,3358.6532,N,11934.4418,W,1,10,0.8,9.4,M,-33.7,M,,*51
$PYRTM,2024,126.753394972477,17.863042382616
$GPGGA,180452.00,3358.6528,N,11934.4422,W,1,10,0.8,9.5,M,-33.7,M,,*51
$PYRTM,2024,126.753406537940,17.863053948079
$GPGGA,180453.00,3358.6526,N,11934.4427,W,1,10,0.8,9.5,M,-33.7,M,,*5B
$PYRTM,2024,126.753413933299,17.863061343438
$GPGGA,180454.00,3358.6525,N,11934.4434,W,1,10,0.8,9.4,M,-33.7,M,,*5C
$PYRTM,2024,126.753429686042,17.863077096181
$GPGGA,180455.00,3358.6525,N,11934.4442,W,1,10,0.8,9.3,M,-33.7,M,,*5B
$PYRTM,2024,126.753441271690,17.863088681840
$GPGGA,180456.00,3358.6523,N,11934.4447,W,1,10,0.8,9.3,M,-33.7,M,,*5B
$PYRTM,2024,126.753452834792,17.863100244942
$GPGGA,180457.00,3358.6521,N,11934.4451,W,1,10,0.8,9.3,M,-33.7,M,,*5F
$PYRTM,2024,126.753460229444,17.863107639583
$GPGGA,180458.00,3358.6518,N,11934.4456,W,1,10,0.8,9.4,M,-33.7,M,,*5A
$PYRTM,2024,126.753478877014,17.863126287153
$GPGGA,180459.00,3358.6517,N,11934.4463,W,1,10,0.8,9.4,M,-33.7,M,,*52
$PYRTM,2024,126.753487556759,17.863134966898
$GPGGA,180500.00,3358.6517,N,11934.4470,W,1,10,0.8,9.3,M,-33.7,M,,*5A
$PYRTM,2024,126.753499130451,17.863146540590
$GPGGA,180501.00,3358.6517,N,11934.4476,W,1,10,0.8,9.3,M,-33.7,M,,*5D
$PYRTM,2024,126.753510705370,17.863158115509
$GPGGA,180502.00,3358.6514,N,11934.4480,W,1,10,0.8,9.3,M,-33.7,M,,*54
$PYRTM,2024,126.753522274757,17.863169684896
$GPGGA,180503.00,3358.6511,N,11934.4484,W,1,10,0.8,9.3,M,-33.7,M,,*54
$PYRTM,2024,126.753533864317,17.863181274456
$GPGGA,180504.00,3358.6508,N,11934.4490,W,1,10,0.8,9.3,M,-33.7,M,,*5E
$PYRTM,2024,126.753545427581,17.863192837720
$GPGGA,180505.00,3358.6508,N,11934.4497,W,1,10,0.8,9.2,M,-33.7,M,,*59
$PYRTM,2024,126.753557008715,17.863204419317
$GPGGA,180506.00,3358.6509,N,11934.4503,W,1,10,0.8,9.2,M,-33.7,M,,*57
$PYRTM,2024,126.753568576343,17.863215986481
$GPGGA,180507.00,3358.6507,N,11934.4508,W,1,10,0.8,9.2,M,-33.7,M,,*53
$PYRTM,2024,126.753580175683,17.863227585822
$GPGGA,180508.00,3358.6503,N,11934.4512,W,1,10,0.8,9.3,M,-33.7,M,,*52
$PYRTM,2024,126.753591720081,17.863239130220
$GPGGA,180509.00,3358.6500,N,11934.4518,W,1,10,0.8,9.3,M,-33.7,M,,*5A
$PYRTM,2024,126.753603298750,17.863250708889
$GPGGA,180510.00,3358.6498,N,11934.4524,W,1,10,0.8,9.1,M,-33.7,M,,*5F
$PYRTM,2024,126.753614873576,17.863262283715
$GPGGA,180511.00,3358.6498,N,11934.4531,W,1,10,0.8,9.0,M,-33.7,M,,*5B
$PYRTM,2024,126.753626458333,17.863273868472
$GPGGA,180512.00,3358.6498,N,11934.4536,W,1,10,0.8,9.0,M,-33.7,M,,*5F
$PYRTM,2024,126.753638021389,17.863285431539
$GPGGA,180513.00,3358.6496,N,11934.4541,W,1,10,0.8,9.1,M,-33.7,M,,*51
$PYRTM,2024,126.753649605880,17.863297016019
$GPGGA,180514.00,3358.6492,N,11934.4546,W,1,10,0.8,9.1,M,-33.7,M,,*55
$PYRTM,2024,126.753661163750,17.863308573889
$GPGGA,180515.00,3358.6490,N,11934.4552,W,1,10,0.8,9.0,M,-33.7,M,,*52
$PYRTM,2024,126.753668563773,17.863315973924
$GPGGA,180516.00,3358.6488,N,11934.4559,W,1,10,0.8,8.7,M,-33.7,M,,*55
$PYRTM,2024,126.753684318715,17.863331728854
$GPGGA,180517.00,3358.6488,N,11934.4565,W,1,10,0.8,8.6,M,-33.7,M,,*5A
$PYRTM,2024,126.753695891354,17.863343301493
$GPGGA,180518.00,3358.6486,N,11934.4570,W,1,10,0.8,8.6,M,-33.7,M,,*5F
$PYRTM,2024,126.753703296528,17.863350706667
$GPGGA,180519.00,3358.6483,N,11934.4575,W,1,10,0.8,8.6,M,-33.7,M,,*5E
$PYRTM,2024,126.753719040370,17.863366450509
$GPGGA,180520.00,3358.6481,N,11934.4581,W,1,10,0.8,8.7,M,-33.7,M,,*5C
$PYRTM,2024,126.753730613056,17.863378023194
$GPGGA,180521.00,3358.6480,N,11934.4587,W,1,10,0.8,8.7,M,-33.7,M,,*5A
$PYRTM,2024,126.753738009525,17.863385419664
$GPGGA,180522.00,3358.6479,N,11934.4592,W,1,10,0.8,8.7,M,-33.7,M,,*5B
$PYRTM,2024,126.753749699595,17.863397109734
$GPGGA,180523.00,3358.6477,N,11934.4598,W,1,10,0.8,8.8,M,-33.7,M,,*51
$PYRTM,2024,126.753765344688,17.863412754826
$GPGGA,180524.00,3358.6474,N,11934.4603,W,1,10,0.8,8.8,M,-33.7,M,,*54
$PYRTM,2024,126.753776912454,17.863424322593
$GPGGA,180525.00,3358.6472,N,11934.4609,W,1,10,0.8,8.8,M,-33.7,M,,*59
$PYRTM,2024,126.753788495405,17.863435905556
$GPGGA,180526.00,3358.6470,N,11934.4614,W,1,10,0.8,8.9,M,-33.7,M,,*55
$PYRTM,2024,126.753800058958,17.863447469109
$GPGGA,180527.00,3358.6470,N,11934.4620,W,1,10,0.8,8.9,M,-33.7,M,,*53
$PYRTM,2024,126.753811632616,17.863459042755
$GPGGA,180528.00,3358.6469,N,11934.4627,W,1,10,0.8,8.8,M,-33.7,M,,*52
$PYRTM,2024,126.753819040312,17.863466450463
$GPGGA,180529.00,3358.6467,N,11934.4632,W,1,10,0.8,8.8,M,-33.7,M,,*59
$PYRTM,2024,126.753837676030,17.863485086169
$GPGGA,180530.00,3358.6463,N,11934.4637,W,1,10,0.8,8.8,M,-33.7,M,,*50
$PYRTM,2024,126.753846355498,17.863493765637
$GPGGA,180531.00,3358.6461,N,11934.4642,W,1,10,0.8,8.8,M,-33.7,M,,*51
$PYRTM,2024,126.753857929259,17.863505339398
$GPGGA,180532.00,3358.6460,N,11934.4649,W,1,10,0.8,8.9,M,-33.7,M,,*59
$PYRTM,2024,126.753869503079,17.863516913218
$GPGGA,180533.00,3358.6460,N,11934.4656,W,1,10,0.8,8.8,M,-33.7,M,,*57
$PYRTM,2024,126.753881077234,17.863528487373
$GPGGA,180534.00,3358.6458,N,11934.4661,W,1,10,0.8,8.8,M,-33.7,M,,*5F
$PYRTM,2024,126.753892653981,17.863540064120
$GPGGA,180535.00,3358.6455,N,11934.4666,W,1,10,0.8,8.9,M,-33.7,M,,*55
$PYRTM,2024,126.753904233889,17.863551644039
$GPGGA,180536.00,3358.6452,N,11934.4671,W,1,10,0.8,8.9,M,-33.7,M,,*57
$PYRTM,2024,126.753915800093,17.863563210231
$GPGGA,180537.00,3358.6451,N,11934.4677,W,1,10,0.8,9.0,M,-33.7,M,,*5B
$PYRTM,2024,126.753927381493,17.863574791632
$GPGGA,180538.00,3358.6450,N,11934.4683,W,1,10,0.8,9.0,M,-33.7,M,,*5E
$PYRTM,2024,126.753938948866,17.863586359016
$GPGGA,180539.00,3358.6449,N,11934.4689,W,1,10,0.8,9.0,M,-33.7,M,,*5D
$PYRTM,2024,126.753950530046,17.863597940185
$GPGGA,180540.00,3358.6447,N,11934.4694,W,1,10,0.8,9.1,M,-33.7,M,,*50
$PYRTM,2024,126.753962096285,17.863609506435
$GPGGA,180541.00,3358.6444,N,11934.4700,W,1,10,0.8,9.1,M,-33.7,M,,*5E
$PYRTM,2024,126.753973671725,17.863621081863
$GPGGA,180542.00,3358.6442,N,11934.4705,W,1,10,0.8,9.1,M,-33.7,M,,*5E
$PYRTM,2024,126.753985239340,17.863632649479
$GPGGA,180543.00,3358.6441,N,11934.4711,W,1,10,0.8,9.2,M,-33.7,M,,*5A
$PYRTM,2024,126.753996818472,17.863644228611
$GPGGA,180544.00,3358.6440,N,11934.4717,W,1,10,0.8,9.2,M,-33.7,M,,*5A
$PYRTM,2024,126.754008393750,17.863655803889
$GPGGA,180545.00,3358.6438,N,11934.4724,W,1,10,0.8,9.2,M,-33.7,M,,*54
$PYRTM,2024,126.754019966979,17.863667377118
$GPGGA,180546.00,3358.6436,N,11934.4730,W,1,10,0.8,9.1,M,-33.7,M,,*5F
$PYRTM,2024,126.754031541840,17.863678951979
$GPGGA,180547.00,3358.6434,N,11934.4735,W,1,10,0.8,9.1,M,-33.7,M,,*59
$PYRTM,2024,126.754043110093,17.863690520231
$GPGGA,180548.00,3358.6433,N,11934.4740,W,1,10,0.8,9.1,M,-33.7,M,,*53
$PYRTM,2024,126.754050522350,17.863697932488
$GPGGA,180549.00,3358.6432,N,11934.4746,W,1,10,0.8,9.2,M,-33.7,M,,*56
$PYRTM,2024,126.754066273796,17.863713683935
$GPGGA,180550.00,3358.6431,N,11934.4753,W,1,10,0.8,9.0,M,-33.7,M,,*5B
$PYRTM,2024,126.754077836528,17.863725246667
$GPGGA,180551.00,3358.6428,N,11934.4760,W,1,10,0.8,8.7,M,-33.7,M,,*54
$PYRTM,2024,126.754089419479,17.863736829618
$GPGGA,180552.00,3358.6425,N,11934.4765,W,1,10,0.8,8.7,M,-33.7,M,,*5F
$PYRTM,2024,126.754100985972,17.863748396111
$GPGGA,180553.00,3358.6424,N,11934.4769,W,1,10,0.8,8.8,M,-33.7,M,,*5C
$PYRTM,2024,126.754112579456,17.863759989595
$GPGGA,180554.00,3358.6424,N,11934.4775,W,1,10,0.8,8.8,M,-33.7,M,,*56
$PYRTM,2024,126.754119966319,17.863767376458
$GPGGA,180555.00,3358.6422,N,11934.4782,W,1,10,0.8,8.7,M,-33.7,M,,*56
$PYRTM,2024,126.754138616389,17.863786026528
$GPGGA,180556.00,3358.6420,N,11934.4788,W,1,10,0.8,8.4,M,-33.7,M,,*5E
$PYRTM,2024,126.754147283495,17.863794693634
$GPGGA,180557.00,3358.6416,N,11934.4793,W,1,10,0.8,8.4,M,-33.7,M,,*50
$PYRTM,2024,126.754158867280,17.863806277419
$GPGGA,180558.00,3358.6414,N,11934.4798,W,1,10,0.8,8.4,M,-33.7,M,,*56
$PYRTM,2024,126.754170431528,17.863817841667
$GPGGA,180559.00,3358.6413,N,11934.4804,W,1,10,0.8,8.5,M,-33.7,M,,*5B
$PYRTM,2024,126.754177825764,17.863825235903
$GPGGA,180600.00,3358.6413,N,11934.4811,W,1,10,0.8,8.6,M,-33.7,M,,*53
$PYRTM,2024,126.754196472894,17.863843883032
$GPGGA,180601.00,3358.6412,N,11934.4818,W,1,10,0.8,8.7,M,-33.7,M,,*5B
$PYRTM,2024,126.754205152315,17.863852562454
$GPGGA,180602.00,3358.6408,N,11934.4823,W,1,10,0.8,8.7,M,-33.7,M,,*5B
$PYRTM,2024,126.754216728287,17.863864138426
$GPGGA,180603.00,3358.6405,N,11934.4827,W,1,10,0.8,8.8,M,-33.7,M,,*5C
$PYRTM,2024,126.754228312477,17.863875722616
$GPGGA,180604.00,3358.6403,N,11934.4833,W,1,10,0.8,8.8,M,-33.7,M,,*58
$PYRTM,2024,126.754239877014,17.863887287153
$GPGGA,180605.00,3358.6404,N,11934.4839,W,1,10,0.8,8.8,M,-33.7,M,,*54
$PYRTM,2024,126.754251449468,17.863898859606
$GPGGA,180606.00,3358.6404,N,11934.4845,W,1,10,0.8,8.9,M,-33.7,M,,*5D
$PYRTM,2024,126.754263020012,17.863910430150
$GPGGA,180607.00,3358.6402,N,11934.4851,W,1,10,0.8,8.9,M,-33.7,M,,*5F
$PYRTM,2024,126.754274606215,17.863922016354
$GPGGA,180608.00,3358.6398,N,11934.4857,W,1,10,0.8,8.8,M,-33.7,M,,*53
$PYRTM,2024,126.754286174016,17.863933584155
$GPGGA,180609.00,3358.6395,N,11934.4862,W,1,10,0.8,8.7,M,-33.7,M,,*56
$PYRTM,2024,126.754297771817,17.863945181956
$GPGGA,180610.00,3358.6394,N,11934.4867,W,1,10,0.8,8.8,M,-33.7,M,,*55
$PYRTM,2024,126.754309321690,17.863956731829
$GPGGA,180611.00,3358.6395,N,11934.4874,W,1,10,0.8,8.8,M,-33.7,M,,*57
$PYRTM,2024,126.754320902350,17.863968312488
$GPGGA,180612.00,3358.6394,N,11934.4881,W,1,10,0.8,8.7,M,-33.7,M,,*50
$PYRTM,2024,126.754332464387,17.863979874525
$GPGGA,180613.00,3358.6390,N,11934.4888,W,1,10,0.8,8.6,M,-33.7,M,,*5D
$PYRTM,2024,126.754339863148,17.863987273287
$GPGGA,180614.00,3358.6386,N,11934.4892,W,1,10,0.8,8.6,M,-33.7,M,,*56
$PYRTM,2024,126.754355612627,17.864003022766
$GPGGA,180615.00,3358.6384,N,11934.4896,W,1,10,0.8,8.6,M,-33.7,M,,*51
$PYRTM,2024,126.754367202303,17.864014612442
$GPGGA,180616.00,3358.6384,N,11934.4903,W,1,10,0.8,8.7,M,-33.7,M,,*5E
$PYRTM,2024,126.754378765856,17.864026176007
$GPGGA,180617.00,3358.6384,N,11934.4910,W,1,10,0.8,8.7,M,-33.7,M,,*5D
$PYRTM,2024,126.754390353553,17.864037763692
$GPGGA,180618.00,3358.6382,N,11934.4916,W,1,10,0.8,8.7,M,-33.7,M,,*52
$PYRTM,2024,126.754401915856,17.864049325995
$GPGGA,180619.00,3358.6378,N,11934.4920,W,1,10,0.8,8.7,M,-33.7,M,,*53
$PYRTM,2024,126.754413490127,17.864060900266
$GPGGA,180620.00,3358.6375,N,11934.4925,W,1,10,0.8,8.8,M,-33.7,M,,*5E
$PYRTM,2024,126.754425061852,17.864072471991
$GPGGA,180621.00,3358.6374,N,11934.4932,W,1,10,0.8,8.8,M,-33.7,M,,*58
$PYRTM,2024,126.754436635752,17.864084045891
$GPGGA,180622.00,3358.6374,N,11934.4938,W,1,10,0.8,8.8,M,-33.7,M,,*51
$PYRTM,2024,126.754448211042,17.864095621181
$GPGGA,180623.00,3358.6373,N,11934.4944,W,1,10,0.8,8.8,M,-33.7,M,,*5C
$PYRTM,2024,126.754455605637,17.864103015775
$GPGGA,180624.00,3358.6371,N,11934.4949,W,1,10,0.8,8.8,M,-33.7,M,,*54
$PYRTM,2024,126.754471359699,17.864118769850
$GPGGA,180625.00,3358.6368,N,11934.4955,W,1,10,0.8,8.9,M,-33.7,M,,*51
$PYRTM,2024,126.754482940613,17.864130350752
$GPGGA,180626.00,3358.6366,N,11934.4961,W,1,10,0.8,8.9,M,-33.7,M,,*5B
$PYRTM,2024,126.754490333576,17.864137743715
$GPGGA,180627.00,3358.6365,N,11934.4968,W,1,10,0.8,9.0,M,-33.7,M,,*58
$PYRTM,2024,126.754506081088,17.864153491238
$GPGGA,180628.00,3358.6364,N,11934.4974,W,1,10,0.8,9.0,M,-33.7,M,,*5B
$PYRTM,2024,126.754517655868,17.864165066019
$GPGGA,180629.00,3358.6362,N,11934.4980,W,1,10,0.8,9.0,M,-33.7,M,,*57
$PYRTM,2024,126.754529229248,17.864176639387
$GPGGA,180630.00,3358.6360,N,11934.4985,W,1,10,0.8,9.0,M,-33.7,M,,*58
$PYRTM,2024,126.754536636632,17.864184046771
$GPGGA,180631.00,3358.6358,N,11934.4991,W,1,10,0.8,9.0,M,-33.7,M,,*57
$PYRTM,2024,126.754555266331,17.864202676470
$GPGGA,180632.00,3358.6357,N,11934.4998,W,1,10,0.8,9.0,M,-33.7,M,,*52
$PYRTM,2024,126.754563947593,17.864211357731
$GPGGA,180633.00,3358.6356,N,11934.5003,W,1,10,0.8,9.1,M,-33.7,M,,*59
$PYRTM,2024,126.754575525417,17.864222935556
$GPGGA,180634.00,3358.6354,N,11934.5009,W,1,10,0.8,9.1,M,-33.7,M,,*56
$PYRTM,2024,126.754587095093,17.864234505243
$GPGGA,180635.00,3358.6351,N,11934.5015,W,1,10,0.8,9.1,M,-33.7,M,,*5F
$PYRTM,2024,126.754594498808,17.864241908947
$GPGGA,180636.00,3358.6349,N,11934.5021,W,1,10,0.8,9.1,M,-33.7,M,,*52
$PYRTM,2024,126.754606184826,17.864253594965
$GPGGA,180637.00,3358.6348,N,11934.5027,W,1,10,0.8,9.1,M,-33.7,M,,*54
$PYRTM,2024,126.754621833461,17.864269243600
$GPGGA,180638.00,3358.6346,N,11934.5032,W,1,10,0.8,9.1,M,-33.7,M,,*51
$PYRTM,2024,126.754633395810,17.864280805949
$GPGGA,180639.00,3358.6344,N,11934.5038,W,1,10,0.8,9.1,M,-33.7,M,,*58
$PYRTM,2024,126.754644977940,17.864292388079
$GPGGA,180640.00,3358.6341,N,11934.5045,W,1,10,0.8,9.0,M,-33.7,M,,*58
$PYRTM,2024,126.754656544572,17.864303954711
$GPGGA,180641.00,3358.6339,N,11934.5051,W,1,10,0.8,9.0,M,-33.7,M,,*53
$PYRTM,2024,126.754668106366,17.864315516505
$GPGGA,180642.00,3358.6338,N,11934.5055,W,1,09,0.8,8.9,M,-33.7,M,,*55
$PYRTM,2024,126.754679695613,17.864327105752
$GPGGA,180643.00,3358.6337,N,11934.5061,W,1,09,0.8,9.0,M,-33.7,M,,*54
$PYRTM,2024,126.754691254525,17.864338664664
$GPGGA,180644.00,3358.6335,N,11934.5067,W,1,09,0.8,8.9,M,-33.7,M,,*5F
$PYRTM,2024,126.754702845694,17.864350255833
$GPGGA,180645.00,3358.6333,N,11934.5072,W,1,09,0.8,8.9,M,-33.7,M,,*5C
$PYRTM,2024,126.754714402431,17.864361812569
$GPGGA,180646.00,3358.6331,N,11934.5077,W,1,09,0.8,8.9,M,-33.7,M,,*58
$PYRTM,2024,126.754725993056,17.864373403194
$GPGGA,180647.00,3358.6330,N,11934.5083,W,1,09,0.8,8.9,M,-33.7,M,,*53
$PYRTM,2024,126.754737551493,17.864384961644
$GPGGA,180648.00,3358.6329,N,11934.5089,W,1,09,0.8,8.8,M,-33.7,M,,*5F
$PYRTM,2024,126.754749140856,17.864396551007
$GPGGA,180649.00,3358.6328,N,11934.5095,W,1,09,0.8,8.8,M,-33.7,M,,*52
$PYRTM,2024,126.754760698102,17.864408108241
$GPGGA,180650.00,3358.6326,N,11934.5100,W,1,09,0.8,8.8,M,-33.7,M,,*59
$PYRTM,2024,126.754768107384,17.864415517523
$GPGGA,180651.00,3358.6323,N,11934.5105,W,1,09,0.8,8.8,M,-33.7,M,,*58
$PYRTM,2024,126.754783848137,17.864431258275
$GPGGA,180652.00,3358.6322,N,11934.5113,W,1,09,0.8,8.7,M,-33.7,M,,*52
$PYRTM,2024,126.754795436157,17.864442846296
$GPGGA,180653.00,3358.6321,N,11934.5119,W,1,09,0.8,8.5,M,-33.7,M,,*58
$PYRTM,2024,126.754806995428,17.864454405556
$GPGGA,180654.00,3358.6320,N,11934.5124,W,1,09,0.8,8.5,M,-33.7,M,,*50
$PYRTM,2024,126.754818583519,17.864465993657
$GPGGA,180655.00,3358.6318,N,11934.5129,W,1,09,0.8,8.5,M,-33.7,M,,*57
$PYRTM,2024,126.754830144722,17.864477554861
$GPGGA,180656.00,3358.6315,N,11934.5136,W,1,09,0.8,8.4,M,-33.7,M,,*56
$PYRTM,2024,126.754841731273,17.864489141400
$GPGGA,180657.00,3358.6312,N,11934.5143,W,1,09,0.8,8.3,M,-33.7,M,,*55
$PYRTM,2024,126.754853291562,17.864500701701
$GPGGA,180658.00,3358.6311,N,11934.5148,W,1,09,0.8,8.3,M,-33.7,M,,*52
$PYRTM,2024,126.754860702280,17.864508112419
$GPGGA,180659.00,3358.6310,N,11934.5153,W,1,09,0.8,8.3,M,-33.7,M,,*58
$PYRTM,2024,126.754876442211,17.864523852361
$GPGGA,180700.00,3358.6308,N,11934.5159,W,1,09,0.8,8.4,M,-33.7,M,,*51
$PYRTM,2024,126.754883849664,17.864531259803
$GPGGA,180701.00,3358.6305,N,11934.5165,W,1,09,0.8,8.3,M,-33.7,M,,*55
$PYRTM,2024,126.754895539502,17.864542949641
$GPGGA,180702.00,3358.6302,N,11934.5171,W,1,09,0.8,8.1,M,-33.7,M,,*56
$PYRTM,2024,126.754914068912,17.864561479051
$GPGGA,180703.00,3358.6300,N,11934.5176,W,1,09,0.8,8.1,M,-33.7,M,,*52
$PYRTM,2024,126.754922738530,17.864570148669
$GPGGA,180704.00,3358.6300,N,11934.5182,W,1,09,0.8,8.1,M,-33.7,M,,*5E
$PYRTM,2024,126.754934339745,17.864581749884
$GPGGA,180705.00,3358.6299,N,11934.5188,W,1,09,0.8,8.2,M,-33.7,M,,*57
$PYRTM,2024,126.754945885324,17.864593295463
$GPGGA,180706.00,3358.6297,N,11934.5194,W,1,09,0.8,8.2,M,-33.7,M,,*57
$PYRTM,2024,126.754953295486,17.864600705625
$GPGGA,180707.00,3358.6294,N,11934.5200,W,1,09,0.8,8.1,M,-33.7,M,,*58
$PYRTM,2024,126.754969033646,17.864616443796
$GPGGA,180708.00,3358.6292,N,11934.5206,W,1,09,0.8,8.0,M,-33.7,M,,*56
$PYRTM,2024,126.754980615556,17.864628025694
$GPGGA,180709.00,3358.6291,N,11934.5211,W,1,09,0.8,8.0,M,-33.7,M,,*52
$PYRTM,2024,126.754988032211,17.864635442350
$GPGGA,180710.00,3358.6291,N,11934.5217,W,1,09,0.8,8.0,M,-33.7,M,,*5C
$PYRTM,2024,126.755003768657,17.864651178808
$GPGGA,180711.00,3358.6289,N,11934.5223,W,1,09,0.8,8.0,M,-33.7,M,,*53
$PYRTM,2024,126.755015330266,17.864662740405
$GPGGA,180712.00,3358.6286,N,11934.5229,W,1,09,0.8,8.0,M,-33.7,M,,*55
$PYRTM,2024,126.755026917095,17.864674327234
$GPGGA,180713.00,3358.6283,N,11934.5235,W,1,09,0.8,7.9,M,-33.7,M,,*5A
$PYRTM,2024,126.755038478785,17.864685888924
$GPGGA,180714.00,3358.6282,N,11934.5240,W,1,09,0.8,7.9,M,-33.7,M,,*5E
$PYRTM,2024,126.755050065637,17.864697475775
$GPGGA,180715.00,3358.6281,N,11934.5246,W,1,09,0.8,7.9,M,-33.7,M,,*5A
$PYRTM,2024,126.755061626782,17.864709036921
$GPGGA,180716.00,3358.6279,N,11934.5252,W,1,09,0.8,7.9,M,-33.7,M,,*5B
$PYRTM,2024,126.755073213819,17.864720623958
$GPGGA,180717.00,3358.6277,N,11934.5257,W,1,09,0.8,7.9,M,-33.7,M,,*51
$PYRTM,2024,126.755084777708,17.864732187859
$GPGGA,180718.00,3358.6274,N,11934.5263,W,1,09,0.8,7.9,M,-33.7,M,,*5A
$PYRTM,2024,126.755096364248,17.864743774387
$GPGGA,180719.00,3358.6272,N,11934.5269,W,1,09,0.8,7.9,M,-33.7,M,,*57
$PYRTM,2024,126.755107925093,17.864755335243
$GPGGA,180720.00,3358.6271,N,11934.5275,W,1,09,0.8,7.9,M,-33.7,M,,*53
$PYRTM,2024,126.755119513403,17.864766923542
$GPGGA,180721.00,3358.6270,N,11934.5281,W,1,09,0.8,7.9,M,-33.7,M,,*58
$PYRTM,2024,126.755126905139,17.864774315278
$GPGGA,180722.00,3358.6268,N,11934.5285,W,1,09,0.8,7.9,M,-33.7,M,,*56
$PYRTM,2024,126.755142674213,17.864790084352
$GPGGA,180723.00,3358.6264,N,11934.5291,W,1,09,0.8,7.9,M,-33.7,M,,*5E
$PYRTM,2024,126.755154221030,17.864801631169
$GPGGA,180724.00,3358.6262,N,11934.5297,W,1,09,0.8,7.9,M,-33.7,M,,*59
$PYRTM,2024,126.755161626539,17.864809036678
$GPGGA,180725.00,3358.6261,N,11934.5303,W,1,09,0.8,8.0,M,-33.7,M,,*51
$PYRTM,2024,126.755177369074,17.864824779213
$GPGGA,180726.00,3358.6261,N,11934.5309,W,1,09,0.8,8.0,M,-33.7,M,,*58
$PYRTM,2024,126.755188955289,17.864836365428
$GPGGA,180727.00,3358.6260,N,11934.5315,W,1,09,0.8,8.0,M,-33.7,M,,*55
$PYRTM,2024,126.755200516215,17.864847926354
$GPGGA,180728.00,3358.6257,N,11934.5320,W,1,09,0.8,8.0,M,-33.7,M,,*58
$PYRTM,2024,126.755212105243,17.864859515382
$GPGGA,180729.00,3358.6254,N,11934.5325,W,1,09,0.8,8.0,M,-33.7,M,,*5F
$PYRTM,2024,126.755219498715,17.864866908854
$GPGGA,180730.00,3358.6253,N,11934.5331,W,1,09,0.8,8.1,M,-33.7,M,,*54
$PYRTM,2024,126.755231194190,17.864878604340
$GPGGA,180731.00,3358.6252,N,11934.5338,W,1,09,0.8,8.1,M,-33.7,M,,*5D
$PYRTM,2024,126.755246814560,17.864894224699
$GPGGA,180732.00,3358.6251,N,11934.5344,W,1,09,0.8,8.1,M,-33.7,M,,*56
$PYRTM,2024,126.755254219525,17.864901629664
$GPGGA,180733.00,3358.6249,N,11934.5349,W,1,10,0.8,8.1,M,-33.7,M,,*5B
$PYRTM,2024,126.755272866863,17.864920277002
$GPGGA,180734.00,3358.6245,N,11934.5354,W,1,10,0.8,8.0,M,-33.7,M,,*5D
$PYRTM,2024,126.755281550775,17.864928960914
$GPGGA,180735.00,3358.6243,N,11934.5361,W,1,10,0.8,8.0,M,-33.7,M,,*5C
$PYRTM,2024,126.755293109456,17.864940519606
$GPGGA,180736.00,3358.6242,N,11934.5367,W,1,10,0.8,8.1,M,-33.7,M,,*59
$PYRTM,2024,126.755304710845,17.864952120984
$GPGGA,180737.00,3358.6242,N,11934.5373,W,1,10,0.8,8.1,M,-33.7,M,,*5D
$PYRTM,2024,126.755316258449,17.864963668588
$GPGGA,180738.00,3358.6239,N,11934.5379,W,1,10,0.8,8.1,M,-33.7,M,,*54
$PYRTM,2024,126.755327845475,17.864975255613
$GPGGA,180739.00,3358.6236,N,11934.5386,W,1,10,0.8,8.0,M,-33.7,M,,*5B
$PYRTM,2024,126.755339406215,17.864986816354
$GPGGA,180740.00,3358.6233,N,11934.5391,W,1,10,0.8,8.0,M,-33.7,M,,*56
$PYRTM,2024,126.755350987708,17.864998397859
$GPGGA,180741.00,3358.6232,N,11934.5397,W,1,10,0.8,8.0,M,-33.7,M,,*50
$PYRTM,2024,126.755362554294,17.865009964433
$GPGGA,180742.00,3358.6232,N,11934.5402,W,1,10,0.8,8.1,M,-33.7,M,,*59
$PYRTM,2024,126.755369960926,17.865017371065
$GPGGA,180743.00,3358.6230,N,11934.5409,W,1,10,0.8,8.0,M,-33.7,M,,*50
$PYRTM,2024,126.755385701898,17.865033112037
$GPGGA,180744.00,3358.6227,N,11934.5415,W,1,10,0.8,7.8,M,-33.7,M,,*5B
$PYRTM,2024,126.755397289317,17.865044699456
$GPGGA,180745.00,3358.6224,N,11934.5420,W,1,10,0.8,7.7,M,-33.7,M,,*50
$PYRTM,2024,126.755408850370,17.865056260521
$GPGGA,180746.00,3358.6222,N,11934.5425,W,1,10,0.8,7.8,M,-33.7,M,,*5F
$PYRTM,2024,126.755420437870,17.865067848021
$GPGGA,180747.00,3358.6222,N,11934.5431,W,1,10,0.8,7.8,M,-33.7,M,,*5B
$PYRTM,2024,126.755432000336,17.865079410475
$GPGGA,180748.00,3358.6221,N,11934.5438,W,1,10,0.8,7.9,M,-33.7,M,,*5F
$PYRTM,2024,126.755443586215,17.865090996354
$GPGGA,180749.00,3358.6219,N,11934.5444,W,1,10,0.8,7.9,M,-33.7,M,,*5E
$PYRTM,2024,126.755455148009,17.865102558148
$GPGGA,180750.00,3358.6216,N,11934.5449,W,1,10,0.8,7.9,M,-33.7,M,,*54
$PYRTM,2024,126.755466736968,17.865114147118
$GPGGA,180751.00,3358.6213,N,11934.5454,W,1,10,0.8,7.9,M,-33.7,M,,*5C
$PYRTM,2024,126.755478297083,17.865125707222
$GPGGA,180752.00,3358.6212,N,11934.5460,W,1,10,0.8,8.0,M,-33.7,M,,*5F
$PYRTM,2024,126.755485703623,17.865133113762
$GPGGA,180753.00,3358.6212,N,11934.5467,W,1,10,0.8,8.0,M,-33.7,M,,*59
$PYRTM,2024,126.755497393194,17.865144803333
$GPGGA,180754.00,3358.6210,N,11934.5473,W,1,10,0.8,8.0,M,-33.7,M,,*59
$PYRTM,2024,126.755513030590,17.865160440729
$GPGGA,180755.00,3358.6207,N,11934.5479,W,1,10,0.8,8.0,M,-33.7,M,,*54
$PYRTM,2024,126.755524591725,17.865172001863
$GPGGA,180756.00,3358.6204,N,11934.5484,W,1,10,0.8,8.0,M,-33.7,M,,*56
$PYRTM,2024,126.755536180417,17.865183590556
$GPGGA,180757.00,3358.6202,N,11934.5490,W,1,10,0.8,8.1,M,-33.7,M,,*55
$PYRTM,2024,126.755543590845,17.865191000984
$GPGGA,180758.00,3358.6200,N,11934.5497,W,1,10,0.8,8.0,M,-33.7,M,,*5E
$PYRTM,2024,126.755555272130,17.865202682269
$GPGGA,180759.00,3358.6199,N,11934.5504,W,1,10,0.8,7.9,M,-33.7,M,,*51
$PYRTM,2024,126.755570889687,17.865218299838
$GPGGA,180800.00,3358.6196,N,11934.5509,W,1,10,0.8,7.9,M,-33.7,M,,*50
$PYRTM,2024,126.755582475162,17.865229885301
$GPGGA,180801.00,3358.6193,N,11934.5514,W,1,10,0.8,7.9,M,-33.7,M,,*58
$PYRTM,2024,126.755594037813,17.865241447951
$GPGGA,180802.00,3358.6192,N,11934.5520,W,1,10,0.8,8.0,M,-33.7,M,,*5B
$PYRTM,2024,126.755601449861,17.865248860000
$GPGGA,180803.00,3358.6190,N,11934.5527,W,1,10,0.8,7.9,M,-33.7,M,,*59
$PYRTM,2024,126.755620101562,17.865267511701
$GPGGA,180804.00,3358.6189,N,11934.5534,W,1,10,0.8,7.8,M,-33.7,M,,*55
$PYRTM,2024,126.755631665961,17.865279076100
$GPGGA,180805.00,3358.6188,N,11934.5539,W,1,10,0.8,7.8,M,-33.7,M,,*58
$PYRTM,2024,126.755645672859,17.865293082998
$GPGGA,180806.00,3358.6185,N,11934.5544,W,1,10,0.8,7.8,M,-33.7,M,,*5C
$PYRTM,2024,126.755651924062,17.865299334201
$GPGGA,180807.00,3358.6184,N,11934.5550,W,1,10,0.8,7.9,M,-33.7,M,,*58
$PYRTM,2024,126.755663484016,17.865310894167
$GPGGA,180808.00,3358.6182,N,11934.5556,W,1,10,0.8,7.9,M,-33.7,M,,*57
$PYRTM,2024,126.755675071354,17.865322481493
$GPGGA,180809.00,3358.6181,N,11934.5563,W,1,10,0.8,7.9,M,-33.7,M,,*53
$PYRTM,2024,126.755686630845,17.865334040984
$GPGGA,180810.00,3358.6179,N,11934.5569,W,1,10,0.8,7.9,M,-33.7,M,,*56
$PYRTM,2024,126.755693923021,17.865341333160
$GPGGA,180811.00,3358.6176,N,11934.5574,W,1,10,0.8,8.0,M,-33.7,M,,*52
$PYRTM,2024,126.755709778530,17.865357188669
$GPGGA,180812.00,3358.6174,N,11934.5579,W,1,10,0.8,8.0,M,-33.7,M,,*5E
$PYRTM,2024,126.755721366389,17.865368776528
$GPGGA,180813.00,3358.6173,N,11934.5586,W,1,10,0.8,8.0,M,-33.7,M,,*58
$PYRTM,2024,126.755728772419,17.865376182558
$GPGGA,180814.00,3358.6171,N,11934.5593,W,1,10,0.8,7.9,M,-33.7,M,,*5F
$PYRTM,2024,126.755744514618,17.865391924757
$GPGGA,180815.00,3358.6169,N,11934.5598,W,1,10,0.8,7.9,M,-33.7,M,,*5C
$PYRTM,2024,126.755756074340,17.865403484479
$GPGGA,180816.00,3358.6167,N,11934.5603,W,1,10,0.8,7.9,M,-33.7,M,,*50
$PYRTM,2024,126.755767664352,17.865415074491
$GPGGA,180817.00,3358.6165,N,11934.5609,W,1,10,0.8,8.0,M,-33.7,M,,*5F
$PYRTM,2024,126.755779225347,17.865426635498
$GPGGA,180818.00,3358.6163,N,11934.5616,W,1,10,0.8,7.9,M,-33.7,M,,*5E
$PYRTM,2024,126.755790810231,17.865438220382
$GPGGA,180819.00,3358.6162,N,11934.5622,W,1,10,0.8,7.8,M,-33.7,M,,*58
$PYRTM,2024,126.755802372963,17.865449783102
$GPGGA,180820.00,3358.6160,N,11934.5627,W,1,10,0.8,7.9,M,-33.7,M,,*54
$PYRTM,2024,126.755813959711,17.865461369850
$GPGGA,180821.00,3358.6157,N,11934.5633,W,1,10,0.8,7.9,M,-33.7,M,,*54
$PYRTM,2024,126.755825519988,17.865472930127
$GPGGA,180822.00,3358.6155,N,11934.5639,W,1,10,0.8,7.9,M,-33.7,M,,*5F
$PYRTM,2024,126.755837110694,17.865484520833
$GPGGA,180823.00,3358.6153,N,11934.5646,W,1,10,0.8,7.9,M,-33.7,M,,*50
$PYRTM,2024,126.755844501076,17.865491911215
$GPGGA,180824.00,3358.6152,N,11934.5652,W,1,10,0.8,7.9,M,-33.7,M,,*53
$PYRTM,2024,126.755860257824,17.865507667963
$GPGGA,180825.00,3358.6150,N,11934.5658,W,1,10,0.8,7.9,M,-33.7,M,,*5A
$PYRTM,2024,126.755871816782,17.865519226921
$GPGGA,180826.00,3358.6148,N,11934.5663,W,1,10,0.8,8.0,M,-33.7,M,,*5E
$PYRTM,2024,126.755879223507,17.865526633646
$GPGGA,180827.00,3358.6146,N,11934.5669,W,1,10,0.8,7.9,M,-33.7,M,,*5D
$PYRTM,2024,126.755894965451,17.865542375590
$GPGGA,180828.00,3358.6145,N,11934.5676,W,1,10,0.8,7.9,M,-33.7,M,,*5F
$PYRTM,2024,126.755906551782,17.865553961933
$GPGGA,180829.00,3358.6144,N,11934.5681,W,1,10,0.8,7.9,M,-33.7,M,,*57
$PYRTM,2024,126.755918112060,17.865565522211
$GPGGA,180830.00,3358.6143,N,11934.5687,W,1,10,0.8,8.0,M,-33.7,M,,*58
$PYRTM,2024,126.755929701250,17.865577111389
$GPGGA,180831.00,3358.6142,N,11934.5693,W,1,10,0.8,8.0,M,-33.7,M,,*5D
$PYRTM,2024,126.755941261007,17.865588671146
$GPGGA,180832.00,3358.6140,N,11934.5699,W,1,10,0.8,8.0,M,-33.7,M,,*56
$PYRTM,2024,126.755952848264,17.865600258403
$GPGGA,180833.00,3358.6138,N,11934.5704,W,1,10,0.8,8.1,M,-33.7,M,,*5C
$PYRTM,2024,126.755964410289,17.865611820428
$GPGGA,180834.00,3358.6136,N,11934.5711,W,1,10,0.8,8.1,M,-33.7,M,,*51
$PYRTM,2024,126.755971818900,17.865619229039
$GPGGA,180835.00,3358.6135,N,11934.5717,W,1,10,0.8,8.0,M,-33.7,M,,*54
$PYRTM,2024,126.755990463715,17.865637873854
$GPGGA,180836.00,3358.6133,N,11934.5723,W,1,10,0.8,7.9,M,-33.7,M,,*50
$PYRTM,2024,126.756002037199,17.865649447338
$GPGGA,180837.00,3358.6131,N,11934.5729,W,1,10,0.8,8.0,M,-33.7,M,,*5F
$PYRTM,2024,126.756013622755,17.865661032894
$GPGGA,180838.00,3358.6129,N,11934.5735,W,1,10,0.8,8.0,M,-33.7,M,,*54
$PYRTM,2024,126.756025180556,17.865672590706
