$PYRTM,2024,127.833339871782,18.942987281921
$GPGGA,195959.00,3330.2993,N,11848.7166,W,1,08,1.0,11.1,M,-34.2,M,,*66
$PYRTM,2024,127.833348556736,18.942995966875
$GPGGA,200000.00,3330.2978,N,11848.7146,W,1,08,1.0,11.3,M,-34.2,M,,*69
$PYRTM,2024,127.833360130093,18.943007540231
$GPGGA,200001.00,3330.2962,N,11848.7127,W,1,08,1.0,11.4,M,-34.2,M,,*63
$PYRTM,2024,127.833371705035,18.943019115174
$GPGGA,200002.00,3330.2947,N,11848.7109,W,1,08,1.0,11.5,M,-34.2,M,,*6A
$PYRTM,2024,127.833383273646,18.943030683785
$GPGGA,200003.00,3330.2932,N,11848.7090,W,1,08,1.0,11.5,M,-34.2,M,,*68
$PYRTM,2024,127.833394848600,18.943042258750
$GPGGA,200004.00,3330.2919,N,11848.7068,W,1,08,1.0,11.4,M,-34.2,M,,*60
$PYRTM,2024,127.833402248322,18.943049658461
$GPGGA,200005.00,3330.2906,N,11848.7047,W,1,08,1.0,11.3,M,-34.2,M,,*65
$PYRTM,2024,127.833418000058,18.943065410185
$GPGGA,200006.00,3330.2891,N,11848.7027,W,1,08,1.0,11.3,M,-34.2,M,,*6F
$PYRTM,2024,127.833429590150,18.943077000289
$GPGGA,200007.00,3330.2876,N,11848.7009,W,1,08,1.0,11.4,M,-34.2,M,,*6C
$PYRTM,2024,127.833436971366,18.943084381505
$GPGGA,200008.00,3330.2861,N,11848.6990,W,1,08,1.0,11.6,M,-34.2,M,,*6F
$PYRTM,2024,127.833448665787,18.943096075926
$GPGGA,200009.00,3330.2847,N,11848.6969,W,1,08,1.0,11.7,M,-34.2,M,,*6D
$PYRTM,2024,127.833464296898,18.943111707037
$GPGGA,200010.00,3330.2834,N,11848.6947,W,1,08,1.0,11.7,M,-34.2,M,,*6D
$PYRTM,2024,127.833475871713,18.943123281852
$GPGGA,200011.00,3330.2820,N,11848.6927,W,1,08,1.0,11.8,M,-34.2,M,,*60
$PYRTM,2024,127.833487448102,18.943134858241
$GPGGA,200012.00,3330.2804,N,11848.6907,W,1,08,1.0,11.7,M,-34.2,M,,*68
$PYRTM,2024,127.833499022801,18.943146432940
$GPGGA,200013.00,3330.2788,N,11848.6888,W,1,08,1.0,11.4,M,-34.2,M,,*67
$PYRTM,2024,127.833510593449,18.943158003588
$GPGGA,200014.00,3330.2774,N,11848.6867,W,1,08,1.0,11.2,M,-34.2,M,,*64
$PYRTM,2024,127.833517990208,18.943165400347
$GPGGA,200015.00,3330.2761,N,11848.6846,W,1,08,1.0,11.5,M,-34.2,M,,*65
$PYRTM,2024,127.833533738461,18.943181148600
$GPGGA,200016.00,3330.2747,N,11848.6824,W,1,08,1.0,11.6,M,-34.2,M,,*65
$PYRTM,2024,127.833541137708,18.943188547847
$GPGGA,200017.00,3330.2732,N,11848.6804,W,1,08,1.0,11.6,M,-34.2,M,,*64
$PYRTM,2024,127.833556891493,18.943204301632
$GPGGA,200018.00,3330.2716,N,11848.6785,W,1,08,1.0,11.6,M,-34.2,M,,*6B
$PYRTM,2024,127.833568466331,18.943215876481
$GPGGA,200019.00,3330.2701,N,11848.6766,W,1,08,1.0,11.6,M,-34.2,M,,*61
$PYRTM,2024,127.833580039028,18.943227449167
$GPGGA,200020.00,3330.2688,N,11848.6746,W,1,08,1.0,11.7,M,-34.2,M,,*68
$PYRTM,2024,127.833591613796,18.943239023935
$GPGGA,200021.00,3330.2674,N,11848.6725,W,1,08,1.0,11.9,M,-34.2,M,,*61
$PYRTM,2024,127.833603188495,18.943250598634
$GPGGA,200022.00,3330.2659,N,11848.6704,W,1,08,1.0,11.7,M,-34.2,M,,*60
$PYRTM,2024,127.833614776123,18.943262186262
$GPGGA,200023.00,3330.2644,N,11848.6685,W,1,08,1.0,11.5,M,-34.2,M,,*67
$PYRTM,2024,127.833622156806,18.943269566944
$GPGGA,200024.00,3330.2629,N,11848.6666,W,1,08,1.0,11.6,M,-34.2,M,,*65
$PYRTM,2024,127.833637906389,18.943285316528
$GPGGA,200025.00,3330.2615,N,11848.6645,W,1,08,1.0,11.8,M,-34.2,M,,*64
$PYRTM,2024,127.833649483495,18.943296893634
$GPGGA,200026.00,3330.2600,N,11848.6624,W,1,08,1.0,11.9,M,-34.2,M,,*65
$PYRTM,2024,127.833656881400,18.943304291539
$GPGGA,200027.00,3330.2585,N,11848.6603,W,1,08,1.0,12.0,M,-34.2,M,,*65
$PYRTM,2024,127.833675512569,18.943322922708
$GPGGA,200028.00,3330.2570,N,11848.6583,W,1,08,1.0,11.9,M,-34.2,M,,*61
$PYRTM,2024,127.833684202083,18.943331612222
$GPGGA,200029.00,3330.2553,N,11848.6564,W,1,08,1.0,11.7,M,-34.2,M,,*66
$PYRTM,2024,127.833695780174,18.943343190313
$GPGGA,200030.00,3330.2538,N,11848.6544,W,1,08,1.0,11.5,M,-34.2,M,,*63
$PYRTM,2024,127.833707354363,18.943354764514
$GPGGA,200031.00,3330.2524,N,11848.6523,W,1,08,1.0,11.4,M,-34.2,M,,*6F
$PYRTM,2024,127.833718927894,18.943366338032
$GPGGA,200032.00,3330.2511,N,11848.6501,W,1,08,1.3,11.5,M,-34.2,M,,*68
$PYRTM,2024,127.833730501933,18.943377912072
$GPGGA,200033.00,3330.2497,N,11848.6480,W,1,08,1.3,11.7,M,-34.2,M,,*6C
$PYRTM,2024,127.833742076794,18.943389486933
$GPGGA,200034.00,3330.2481,N,11848.6462,W,1,08,1.3,11.8,M,-34.2,M,,*6F
$PYRTM,2024,127.833753659039,18.943401069178
$GPGGA,200035.00,3330.2465,N,11848.6445,W,1,08,1.3,11.7,M,-34.2,M,,*6E
$PYRTM,2024,127.833761054016,18.943408464155
$GPGGA,200036.00,3330.2450,N,11848.6426,W,1,08,1.3,11.6,M,-34.2,M,,*6F
$PYRTM,2024,127.833776814687,18.943424224826
$GPGGA,200037.00,3330.2437,N,11848.6404,W,1,08,1.3,11.7,M,-34.2,M,,*6E
$PYRTM,2024,127.833788373819,18.943435783958
$GPGGA,200038.00,3330.2424,N,11848.6381,W,1,08,1.3,11.8,M,-34.2,M,,*66
$PYRTM,2024,127.833795767720,18.943443177859
$GPGGA,200039.00,3330.2409,N,11848.6360,W,1,08,1.3,12.0,M,-34.2,M,,*6C
$PYRTM,2024,127.833811516609,18.943458926748
$GPGGA,200040.00,3330.2393,N,11848.6341,W,1,08,1.3,12.3,M,-34.2,M,,*66
$PYRTM,2024,127.833818916435,18.943466326586
$GPGGA,200041.00,3330.2376,N,11848.6321,W,1,08,1.3,12.3,M,-34.2,M,,*6A
$PYRTM,2024,127.833837565671,18.943484975810
$GPGGA,200042.00,3330.2361,N,11848.6300,W,1,08,1.3,12.1,M,-34.2,M,,*6E
$PYRTM,2024,127.833849139317,18.943496549456
$GPGGA,200043.00,3330.2346,N,11848.6279,W,1,08,1.3,12.0,M,-34.2,M,,*64
$PYRTM,2024,127.833857817940,18.943505228079
$GPGGA,200044.00,3330.2333,N,11848.6258,W,1,08,1.3,11.8,M,-34.2,M,,*69
$PYRTM,2024,127.833869393472,18.943516803611
$GPGGA,200045.00,3330.2318,N,11848.6238,W,1,08,1.3,11.6,M,-34.2,M,,*69
$PYRTM,2024,127.833880966551,18.943528376690
$GPGGA,200046.00,3330.2304,N,11848.6218,W,1,08,1.3,11.2,M,-34.2,M,,*61
$PYRTM,2024,127.833892540231,18.943539950370
$GPGGA,200047.00,3330.2290,N,11848.6198,W,1,08,1.3,11.0,M,-34.2,M,,*65
$PYRTM,2024,127.833904115995,18.943551526134
$GPGGA,200048.00,3330.2277,N,11848.6179,W,1,08,1.3,11.1,M,-34.2,M,,*6D
$PYRTM,2024,127.833915689398,18.943563099537
$GPGGA,200049.00,3330.2262,N,11848.6159,W,1,08,1.3,11.6,M,-34.2,M,,*6D
$PYRTM,2024,127.833927258345,18.943574668484
$GPGGA,200050.00,3330.2247,N,11848.6139,W,1,08,1.3,11.7,M,-34.2,M,,*65
$PYRTM,2024,127.833934658368,18.943582068507
$GPGGA,200051.00,3330.2231,N,11848.6118,W,1,08,1.3,11.8,M,-34.2,M,,*69
$PYRTM,2024,127.833950411354,18.943597821493
$GPGGA,200052.00,3330.2218,N,11848.6095,W,1,08,1.3,12.2,M,-34.2,M,,*6C
$PYRTM,2024,127.833961985498,18.943609395637
$GPGGA,200053.00,3330.2205,N,11848.6071,W,1,08,1.3,12.4,M,-34.2,M,,*6D
$PYRTM,2024,127.833969393565,18.943616803704
$GPGGA,200054.00,3330.2191,N,11848.6049,W,1,08,1.3,12.1,M,-34.2,M,,*6A
$PYRTM,2024,127.833985134734,18.943632544873
$GPGGA,200055.00,3330.2176,N,11848.6029,W,1,08,1.3,12.0,M,-34.2,M,,*65
$PYRTM,2024,127.833996704745,18.943644114884
$GPGGA,200056.00,3330.2161,N,11848.6010,W,1,08,1.3,11.9,M,-34.2,M,,*60
$PYRTM,2024,127.834004104734,18.943651514873
$GPGGA,200057.00,3330.2148,N,11848.5990,W,1,08,1.3,11.7,M,-34.2,M,,*66
$PYRTM,2024,127.834015808692,18.943663218831
$GPGGA,200058.00,3330.2135,N,11848.5969,W,1,08,1.3,11.6,M,-34.2,M,,*64
$PYRTM,2024,127.834034323356,18.943681733495
$GPGGA,200059.00,3330.2121,N,11848.5950,W,1,08,1.3,11.6,M,-34.2,M,,*6A
$PYRTM,2024,127.834045899213,18.943693309352
$GPGGA,200100.00,3330.2105,N,11848.5932,W,1,08,1.3,11.6,M,-34.2,M,,*65
$PYRTM,2024,127.834057473056,18.943704883194
$GPGGA,200101.00,3330.2089,N,11848.5913,W,1,08,1.3,11.5,M,-34.2,M,,*61
$PYRTM,2024,127.834066147396,18.943713557546
$GPGGA,200102.00,3330.2074,N,11848.5892,W,1,08,1.3,11.9,M,-34.2,M,,*64
$PYRTM,2024,127.834077726586,18.943725136736
$GPGGA,200103.00,3330.2059,N,11848.5871,W,1,08,1.3,12.3,M,-34.2,M,,*6E
$PYRTM,2024,127.834089296343,18.943736706481
$GPGGA,200104.00,3330.2043,N,11848.5850,W,1,08,1.3,12.3,M,-34.2,M,,*61
$PYRTM,2024,127.834100881678,18.943748291817
$GPGGA,200105.00,3330.2028,N,11848.5830,W,1,08,1.3,12.0,M,-34.2,M,,*68
$PYRTM,2024,127.834112450451,18.943759860590
$GPGGA,200106.00,3330.2014,N,11848.5810,W,1,08,1.3,11.9,M,-34.2,M,,*6C
$PYRTM,2024,127.834124051030,18.943771461169
$GPGGA,200107.00,3330.2001,N,11848.5790,W,1,08,1.3,11.9,M,-34.2,M,,*6E
$PYRTM,2024,127.834135598750,18.943783008889
$GPGGA,200108.00,3330.1988,N,11848.5769,W,1,08,1.3,11.9,M,-34.2,M,,*6C
$PYRTM,2024,127.834147182106,18.943794592245
$GPGGA,200109.00,3330.1974,N,11848.5749,W,1,08,1.3,11.7,M,-34.2,M,,*62
$PYRTM,2024,127.834158745799,18.943806155937
$GPGGA,200110.00,3330.1960,N,11848.5729,W,1,08,1.3,11.7,M,-34.2,M,,*69
$PYRTM,2024,127.834170319850,18.943817730000
$GPGGA,200111.00,3330.1946,N,11848.5710,W,1,08,1.3,11.7,M,-34.2,M,,*66
$PYRTM,2024,127.834177727095,18.943825137234
$GPGGA,200112.00,3330.1931,N,11848.5690,W,1,08,1.3,11.9,M,-34.2,M,,*62
$PYRTM,2024,127.834193467801,18.943840877940
$GPGGA,200113.00,3330.1917,N,11848.5668,W,1,08,1.3,12.1,M,-34.2,M,,*6B
$PYRTM,2024,127.834205042731,18.943852452870
$GPGGA,200114.00,3330.1903,N,11848.5647,W,1,08,1.3,12.1,M,-34.2,M,,*64
$PYRTM,2024,127.834212438588,18.943859848727
$GPGGA,200115.00,3330.1888,N,11848.5626,W,1,08,1.3,12.2,M,-34.2,M,,*63
$PYRTM,2024,127.834228190336,18.943875600475
$GPGGA,200116.00,3330.1873,N,11848.5606,W,1,08,1.3,12.2,M,-34.2,M,,*66
$PYRTM,2024,127.834239772153,18.943887182292
$GPGGA,200117.00,3330.1859,N,11848.5586,W,1,08,1.3,12.1,M,-34.2,M,,*67
$PYRTM,2024,127.834251339190,18.943898749340
$GPGGA,200118.00,3330.1845,N,11848.5565,W,1,08,1.3,11.9,M,-34.2,M,,*63
$PYRTM,2024,127.834262933356,18.943910343507
$GPGGA,200119.00,3330.1831,N,11848.5546,W,1,08,1.3,11.6,M,-34.2,M,,*6F
$PYRTM,2024,127.834274482465,18.943921892604
$GPGGA,200120.00,3330.1816,N,11848.5528,W,1,08,1.3,11.4,M,-34.2,M,,*6A
$PYRTM,2024,127.834286068333,18.943933478484
$GPGGA,200121.00,3330.1802,N,11848.5510,W,1,08,1.3,11.4,M,-34.2,M,,*65
$PYRTM,2024,127.834297636007,18.943945046146
$GPGGA,200122.00,3330.1787,N,11848.5490,W,1,08,1.3,11.6,M,-34.2,M,,*6F
$PYRTM,2024,127.834309209919,18.943956620058
$GPGGA,200123.00,3330.1773,N,11848.5470,W,1,08,1.3,12.0,M,-34.2,M,,*6E
$PYRTM,2024,127.834320783773,18.943968193912
$GPGGA,200124.00,3330.1758,N,11848.5450,W,1,08,1.3,12.4,M,-34.2,M,,*66
$PYRTM,2024,127.834332357731,18.943979767870
$GPGGA,200125.00,3330.1743,N,11848.5430,W,1,08,1.3,12.5,M,-34.2,M,,*6A
$PYRTM,2024,127.834343932188,18.943991342326
$GPGGA,200126.00,3330.1727,N,11848.5411,W,1,08,1.3,12.4,M,-34.2,M,,*69
$PYRTM,2024,127.834355505961,18.944002916100
$GPGGA,200127.00,3330.1713,N,11848.5390,W,1,08,1.3,12.1,M,-34.2,M,,*64
$PYRTM,2024,127.834367081470,18.944014491609
$GPGGA,200128.00,3330.1700,N,11848.5367,W,1,08,1.3,12.0,M,-34.2,M,,*60
$PYRTM,2024,127.834374475012,18.944021885150
$GPGGA,200129.00,3330.1689,N,11848.5345,W,1,08,1.3,11.9,M,-34.2,M,,*6B
$PYRTM,2024,127.834393122755,18.944040532894
$GPGGA,200130.00,3330.1674,N,11848.5326,W,1,08,1.3,11.8,M,-34.2,M,,*65
$PYRTM,2024,127.834401788738,18.944049198877
$GPGGA,200131.00,3330.1657,N,11848.5308,W,1,08,1.3,11.7,M,-34.2,M,,*66
$PYRTM,2024,127.834413372801,18.944060782951
$GPGGA,200132.00,3330.1642,N,11848.5289,W,1,08,1.3,11.6,M,-34.2,M,,*68
$PYRTM,2024,127.834424939005,18.944072349144
$GPGGA,200133.00,3330.1628,N,11848.5269,W,1,08,1.3,11.7,M,-34.2,M,,*6A
$PYRTM,2024,127.834436524583,18.944083934722
$GPGGA,200134.00,3330.1615,N,11848.5249,W,1,08,1.3,11.8,M,-34.2,M,,*6E
$PYRTM,2024,127.834448087407,18.944095497546
$GPGGA,200135.00,3330.1601,N,11848.5229,W,1,08,1.3,11.7,M,-34.2,M,,*63
$PYRTM,2024,127.834459673866,18.944107084005
$GPGGA,200136.00,3330.1587,N,11848.5210,W,1,08,1.3,11.7,M,-34.2,M,,*67
$PYRTM,2024,127.834471236019,18.944118646157
$GPGGA,200137.00,3330.1573,N,11848.5190,W,1,08,1.3,12.0,M,-34.2,M,,*62
$PYRTM,2024,127.834482824734,18.944130234873
$GPGGA,200138.00,3330.1559,N,11848.5170,W,1,08,1.3,12.3,M,-34.2,M,,*68
$PYRTM,2024,127.834494384803,18.944141794954
$GPGGA,200139.00,3330.1545,N,11848.5149,W,1,08,1.3,12.4,M,-34.2,M,,*69
$PYRTM,2024,127.834505991273,18.944153401412
$GPGGA,200140.00,3330.1531,N,11848.5128,W,1,08,1.3,12.4,M,-34.2,M,,*63
$PYRTM,2024,127.834517531701,18.944164941840
$GPGGA,200141.00,3330.1516,N,11848.5108,W,1,08,1.3,12.5,M,-34.2,M,,*64
$PYRTM,2024,127.834529124734,18.944176534873
$GPGGA,200142.00,3330.1501,N,11848.5090,W,1,08,1.3,12.3,M,-34.2,M,,*67
$PYRTM,2024,127.834540680405,18.944188090544
$GPGGA,200143.00,3330.1485,N,11848.5070,W,1,08,1.0,12.1,M,-34.2,M,,*64
$PYRTM,2024,127.834552261528,18.944199671667
$GPGGA,200144.00,3330.1471,N,11848.5049,W,1,08,1.3,11.8,M,-34.2,M,,*6B
$PYRTM,2024,127.834563828148,18.944211238287
$GPGGA,200145.00,3330.1458,N,11848.5027,W,1,08,1.0,11.6,M,-34.2,M,,*64
$PYRTM,2024,127.834575416424,18.944222826562
$GPGGA,200146.00,3330.1445,N,11848.5007,W,1,08,1.0,11.6,M,-34.2,M,,*69
$PYRTM,2024,127.834582822488,18.944230232627
$GPGGA,200147.00,3330.1430,N,11848.4988,W,1,08,1.0,11.7,M,-34.2,M,,*64
$PYRTM,2024,127.834598563727,18.944245973866
$GPGGA,200148.00,3330.1415,N,11848.4969,W,1,08,1.0,11.7,M,-34.2,M,,*63
$PYRTM,2024,127.834610123831,18.944257533970
$GPGGA,200149.00,3330.1399,N,11848.4951,W,1,08,1.0,11.7,M,-34.2,M,,*6A
$PYRTM,2024,127.834621711123,18.944269121262
$GPGGA,200150.00,3330.1385,N,11848.4931,W,1,08,1.0,11.8,M,-34.2,M,,*66
$PYRTM,2024,127.834629106215,18.944276516354
$GPGGA,200151.00,3330.1373,N,11848.4909,W,1,08,1.0,11.9,M,-34.2,M,,*64
$PYRTM,2024,127.834644859688,18.944292269826
$GPGGA,200152.00,3330.1359,N,11848.4887,W,1,08,1.0,12.0,M,-34.2,M,,*62
$PYRTM,2024,127.834656420174,18.944303830312
$GPGGA,200153.00,3330.1344,N,11848.4867,W,1,08,1.0,12.0,M,-34.2,M,,*61
$PYRTM,2024,127.834668003530,18.944315413669
$GPGGA,200154.00,3330.1328,N,11848.4849,W,1,08,1.0,11.9,M,-34.2,M,,*6A
$PYRTM,2024,127.834679570671,18.944326980810
$GPGGA,200155.00,3330.1314,N,11848.4829,W,1,08,1.0,11.9,M,-34.2,M,,*62
$PYRTM,2024,127.834691159688,18.944338569826
$GPGGA,200156.00,3330.1301,N,11848.4808,W,1,08,1.0,12.0,M,-34.2,M,,*6C
$PYRTM,2024,127.834702716829,18.944350126968
$GPGGA,200157.00,3330.1287,N,11848.4786,W,1,08,1.0,12.0,M,-34.2,M,,*6B
$PYRTM,2024,127.834714307755,18.944361717894
$GPGGA,200158.00,3330.1273,N,11848.4765,W,1,08,1.0,12.0,M,-34.2,M,,*62
$PYRTM,2024,127.834725866678,18.944373276829
$GPGGA,200159.00,3330.1257,N,11848.4747,W,1,08,1.0,12.1,M,-34.2,M,,*64
$PYRTM,2024,127.834733272593,18.944380682731
$GPGGA,200200.00,3330.1241,N,11848.4728,W,1,08,1.0,12.2,M,-34.2,M,,*66
$PYRTM,2024,127.834751920394,18.944399330532
$GPGGA,200201.00,3330.1227,N,11848.4708,W,1,08,1.0,12.2,M,-34.2,M,,*65
$PYRTM,2024,127.834760597245,18.944408007384
$GPGGA,200202.00,3330.1213,N,11848.4687,W,1,08,1.0,12.0,M,-34.2,M,,*65
$PYRTM,2024,127.834768011146,18.944415421285
$GPGGA,200203.00,3330.1199,N,11848.4667,W,1,08,1.0,11.7,M,-34.2,M,,*6F
$PYRTM,2024,127.834783750532,18.944431160671
$GPGGA,200204.00,3330.1184,N,11848.4647,W,1,08,1.0,11.4,M,-34.2,M,,*65
$PYRTM,2024,127.834795310660,18.944442720799
$GPGGA,200205.00,3330.1169,N,11848.4629,W,1,08,1.0,11.4,M,-34.2,M,,*6F
$PYRTM,2024,127.834802721111,18.944450131250
$GPGGA,200206.00,3330.1155,N,11848.4609,W,1,08,1.0,11.5,M,-34.2,M,,*60
$PYRTM,2024,127.834818458160,18.944465868299
$GPGGA,200207.00,3330.1140,N,11848.4587,W,1,08,1.0,11.7,M,-34.2,M,,*62
$PYRTM,2024,127.834830049722,18.944477459861
$GPGGA,200208.00,3330.1126,N,11848.4567,W,1,08,1.0,11.7,M,-34.2,M,,*63
$PYRTM,2024,127.834837443785,18.944484853924
$GPGGA,200209.00,3330.1111,N,11848.4547,W,1,08,1.0,11.8,M,-34.2,M,,*6B
$PYRTM,2024,127.834853198461,18.944500608611
$GPGGA,200210.00,3330.1095,N,11848.4527,W,1,08,1.0,11.9,M,-34.2,M,,*69
$PYRTM,2024,127.834860588981,18.944507999120
$GPGGA,200211.00,3330.1081,N,11848.4506,W,1,08,1.0,12.1,M,-34.2,M,,*65
$PYRTM,2024,127.834876345741,18.944523755880
$GPGGA,200212.00,3330.1067,N,11848.4484,W,1,08,1.0,12.2,M,-34.2,M,,*66
$PYRTM,2024,127.834887903565,18.944535313704
$GPGGA,200213.00,3330.1053,N,11848.4464,W,1,08,1.0,12.2,M,-34.2,M,,*6E
$PYRTM,2024,127.834899491817,18.944546901956
$GPGGA,200214.00,3330.1039,N,11848.4445,W,1,08,1.0,11.9,M,-34.2,M,,*6E
$PYRTM,2024,127.834911054988,18.944558465127
$GPGGA,200215.00,3330.1025,N,11848.4425,W,1,08,1.0,11.7,M,-34.2,M,,*6A
$PYRTM,2024,127.834922634271,18.944570044410
$GPGGA,200216.00,3330.1011,N,11848.4404,W,1,08,1.0,11.6,M,-34.2,M,,*6C
$PYRTM,2024,127.834934202095,18.944581612245
$GPGGA,200217.00,3330.0997,N,11848.4383,W,1,08,1.0,11.5,M,-34.2,M,,*60
$PYRTM,2024,127.834945787986,18.944593198125
$GPGGA,200218.00,3330.0981,N,11848.4363,W,1,08,1.0,11.7,M,-34.2,M,,*64
$PYRTM,2024,127.834953183113,18.944600593252
$GPGGA,200219.00,3330.0965,N,11848.4344,W,1,08,1.0,11.9,M,-34.2,M,,*64
$PYRTM,2024,127.834968932072,18.944616342211
$GPGGA,200220.00,3330.0948,N,11848.4325,W,1,08,1.0,11.8,M,-34.2,M,,*67
$PYRTM,2024,127.834980497546,18.944627907685
$GPGGA,200221.00,3330.0933,N,11848.4304,W,1,08,1.0,11.8,M,-34.2,M,,*69
$PYRTM,2024,127.834992085544,18.944639495683
$GPGGA,200222.00,3330.0919,N,11848.4283,W,1,08,1.0,11.7,M,-34.2,M,,*63
$PYRTM,2024,127.835003645613,18.944651055764
$GPGGA,200223.00,3330.0906,N,11848.4261,W,1,08,1.0,11.6,M,-34.2,M,,*61
$PYRTM,2024,127.835015235961,18.944662646100
$GPGGA,200224.00,3330.0891,N,11848.4241,W,1,08,1.3,11.4,M,-34.2,M,,*6A
$PYRTM,2024,127.835026795312,18.944674205451
$GPGGA,200225.00,3330.0877,N,11848.4221,W,1,08,1.3,11.2,M,-34.2,M,,*63
$PYRTM,2024,127.835038385822,18.944685795961
$GPGGA,200226.00,3330.0863,N,11848.4202,W,1,08,1.3,11.3,M,-34.2,M,,*65
$PYRTM,2024,127.835045775961,18.944693186100
$GPGGA,200227.00,3330.0849,N,11848.4183,W,1,08,1.3,11.5,M,-34.2,M,,*60
$PYRTM,2024,127.835061529456,18.944708939595
$GPGGA,200228.00,3330.0834,N,11848.4163,W,1,08,1.3,11.7,M,-34.2,M,,*69
$PYRTM,2024,127.835073090567,18.944720500706
$GPGGA,200229.00,3330.0819,N,11848.4142,W,1,08,1.3,11.6,M,-34.2,M,,*65
$PYRTM,2024,127.835080499317,18.944727909456
$GPGGA,200230.00,3330.0805,N,11848.4120,W,1,08,1.3,11.8,M,-34.2,M,,*6A
$PYRTM,2024,127.835092198079,18.944739608229
$GPGGA,200231.00,3330.0791,N,11848.4097,W,1,08,1.3,11.8,M,-34.2,M,,*64
$PYRTM,2024,127.835110718773,18.944758128912
$GPGGA,200232.00,3330.0777,N,11848.4076,W,1,08,1.3,11.9,M,-34.2,M,,*61
$PYRTM,2024,127.835122301609,18.944769711748
$GPGGA,200233.00,3330.0760,N,11848.4057,W,1,08,1.3,11.8,M,-34.2,M,,*64
$PYRTM,2024,127.835133867685,18.944781277824
$GPGGA,200234.00,3330.0745,N,11848.4038,W,1,08,1.3,11.5,M,-34.2,M,,*60
$PYRTM,2024,127.835142535301,18.944789945440
$GPGGA,200235.00,3330.0732,N,11848.4018,W,1,08,1.3,11.5,M,-34.2,M,,*63
$PYRTM,2024,127.835149944178,18.944797354329
$GPGGA,200236.00,3330.0719,N,11848.3997,W,1,08,1.3,11.4,M,-34.2,M,,*61
$PYRTM,2024,127.835165684340,18.944813094491
$GPGGA,200237.00,3330.0704,N,11848.3977,W,1,08,1.3,11.3,M,-34.2,M,,*65
$PYRTM,2024,127.835177284514,18.944824694653
$GPGGA,200238.00,3330.0687,N,11848.3958,W,1,08,1.3,11.1,M,-34.2,M,,*6F
$PYRTM,2024,127.835184667037,18.944832077176
$GPGGA,200239.00,3330.0670,N,11848.3941,W,1,08,1.3,11.0,M,-34.2,M,,*6F
$PYRTM,2024,127.835200421794,18.944847831944
$GPGGA,200240.00,3330.0654,N,11848.3922,W,1,08,1.3,11.3,M,-34.2,M,,*61
$PYRTM,2024,127.835211981157,18.944859391296
$GPGGA,200241.00,3330.0640,N,11848.3899,W,1,08,1.3,11.4,M,-34.2,M,,*63
$PYRTM,2024,127.835219388808,18.944866798947
$GPGGA,200242.00,3330.0626,N,11848.3877,W,1,08,1.3,11.7,M,-34.2,M,,*63
$PYRTM,2024,127.835235129988,18.944882540127
$GPGGA,200243.00,3330.0611,N,11848.3856,W,1,08,1.3,11.9,M,-34.2,M,,*6B
$PYRTM,2024,127.835246710590,18.944894120729
$GPGGA,200244.00,3330.0594,N,11848.3836,W,1,08,1.3,11.7,M,-34.2,M,,*6A
$PYRTM,2024,127.835254126563,18.944901536701
$GPGGA,200245.00,3330.0580,N,11848.3816,W,1,08,1.3,11.5,M,-34.2,M,,*6E
$PYRTM,2024,127.835269863507,18.944917273646
$GPGGA,200246.00,3330.0568,N,11848.3794,W,1,08,1.3,11.3,M,-34.2,M,,*68
$PYRTM,2024,127.835281426493,18.944928836632
$GPGGA,200247.00,3330.0555,N,11848.3773,W,1,08,1.3,11.4,M,-34.2,M,,*69
$PYRTM,2024,127.835288833299,18.944936243437
$GPGGA,200248.00,3330.0541,N,11848.3753,W,1,08,1.3,11.4,M,-34.2,M,,*61
$PYRTM,2024,127.835304572454,18.944951982593
$GPGGA,200249.00,3330.0526,N,11848.3734,W,1,08,1.3,11.5,M,-34.2,M,,*61
$PYRTM,2024,127.835316158912,18.944963569051
$GPGGA,200250.00,3330.0511,N,11848.3715,W,1,08,1.3,11.7,M,-34.2,M,,*6C
$PYRTM,2024,127.835323554097,18.944970964236
$GPGGA,200251.00,3330.0497,N,11848.3694,W,1,08,1.3,11.8,M,-34.2,M,,*65
$PYRTM,2024,127.835335267905,18.944982678044
$GPGGA,200252.00,3330.0482,N,11848.3673,W,1,08,1.3,11.8,M,-34.2,M,,*6B
$PYRTM,2024,127.835350868472,18.944998278611
$GPGGA,200253.00,3330.0468,N,11848.3652,W,1,08,1.3,11.6,M,-34.2,M,,*63
$PYRTM,2024,127.835358275810,18.945005685949
$GPGGA,200254.00,3330.0453,N,11848.3632,W,1,08,1.3,11.3,M,-34.2,M,,*6F
$PYRTM,2024,127.835374016424,18.945021426563
$GPGGA,200255.00,3330.0438,N,11848.3611,W,1,08,1.3,11.2,M,-34.2,M,,*63
$PYRTM,2024,127.835385604317,18.945033014456
$GPGGA,200256.00,3330.0424,N,11848.3591,W,1,08,1.3,11.2,M,-34.2,M,,*66
$PYRTM,2024,127.835393014954,18.945040425093
$GPGGA,200257.00,3330.0410,N,11848.3571,W,1,08,1.3,11.7,M,-34.2,M,,*6B
$PYRTM,2024,127.835408752882,18.945056163021
$GPGGA,200258.00,3330.0395,N,11848.3551,W,1,08,1.3,11.8,M,-34.2,M,,*63
$PYRTM,2024,127.835420316065,18.945067726204
$GPGGA,200259.00,3330.0379,N,11848.3531,W,1,08,1.3,12.0,M,-34.2,M,,*6D
$PYRTM,2024,127.835427722870,18.945075133009
$GPGGA,200300.00,3330.0364,N,11848.3510,W,1,08,1.3,12.0,M,-34.2,M,,*6F
$PYRTM,2024,127.835443462940,18.945090873079
$GPGGA,200301.00,3330.0351,N,11848.3489,W,1,08,1.3,12.0,M,-34.2,M,,*69
$PYRTM,2024,127.835450870162,18.945098280301
$GPGGA,200302.00,3330.0337,N,11848.3468,W,1,08,1.3,12.0,M,-34.2,M,,*65
$PYRTM,2024,127.835469543113,18.945116953264
$GPGGA,200303.00,3330.0321,N,11848.3448,W,1,08,1.3,12.0,M,-34.2,M,,*61
$PYRTM,2024,127.835478193067,18.945125603206
$GPGGA,200304.00,3330.0306,N,11848.3428,W,1,08,1.3,11.9,M,-34.2,M,,*6F
$PYRTM,2024,127.835485593229,18.945133003380
$GPGGA,200305.00,3330.0293,N,11848.3408,W,1,08,1.3,11.9,M,-34.2,M,,*61
$PYRTM,2024,127.835497296458,18.945144706597
$GPGGA,200306.00,3330.0280,N,11848.3387,W,1,08,1.3,11.9,M,-34.2,M,,*60
$PYRTM,2024,127.835512908565,18.945160318704
$GPGGA,200307.00,3330.0266,N,11848.3366,W,1,08,1.3,11.7,M,-34.2,M,,*68
$PYRTM,2024,127.835524497998,18.945171908148
$GPGGA,200308.00,3330.0251,N,11848.3346,W,1,08,1.3,11.4,M,-34.2,M,,*62
$PYRTM,2024,127.835536056157,18.945183466296
$GPGGA,200309.00,3330.0236,N,11848.3326,W,1,08,1.3,11.5,M,-34.2,M,,*65
$PYRTM,2024,127.835547648565,18.945195058715
$GPGGA,200310.00,3330.0222,N,11848.3306,W,1,08,1.3,11.7,M,-34.2,M,,*68
$PYRTM,2024,127.835559204248,18.945206614387
$GPGGA,200311.00,3330.0207,N,11848.3284,W,1,08,1.3,12.0,M,-34.2,M,,*61
$PYRTM,2024,127.835570791620,18.945218201759
$GPGGA,200312.00,3330.0192,N,11848.3262,W,1,08,1.3,12.2,M,-34.2,M,,*67
$PYRTM,2024,127.835582354132,18.945229764271
$GPGGA,200313.00,3330.0177,N,11848.3242,W,1,08,1.3,12.2,M,-34.2,M,,*6F
$PYRTM,2024,127.835593934919,18.945241345058
$GPGGA,200314.00,3330.0161,N,11848.3221,W,1,08,1.3,12.0,M,-34.2,M,,*68
$PYRTM,2024,127.835605502141,18.945252912292
$GPGGA,200315.00,3330.0146,N,11848.3201,W,1,08,1.3,11.7,M,-34.2,M,,*6A
$PYRTM,2024,127.835617088009,18.945264498148
$GPGGA,200316.00,3330.0132,N,11848.3181,W,1,08,1.3,11.5,M,-34.2,M,,*63
$PYRTM,2024,127.835628648461,18.945276058600
$GPGGA,200317.00,3330.0117,N,11848.3162,W,1,08,1.3,11.6,M,-34.2,M,,*6B
$PYRTM,2024,127.835640236840,18.945287646979
$GPGGA,200318.00,3330.0103,N,11848.3142,W,1,08,1.3,11.5,M,-34.2,M,,*60
$PYRTM,2024,127.835651798021,18.945299208160
$GPGGA,200319.00,3330.0088,N,11848.3121,W,1,08,1.3,11.5,M,-34.2,M,,*66
$PYRTM,2024,127.835663385938,18.945310796076
$GPGGA,200320.00,3330.0074,N,11848.3101,W,1,08,1.3,11.6,M,-34.2,M,,*6E
$PYRTM,2024,127.835674945787,18.945322355937
$GPGGA,200321.00,3330.0059,N,11848.3080,W,1,08,1.3,11.8,M,-34.2,M,,*66
$PYRTM,2024,127.835686535799,18.945333945937
$GPGGA,200322.00,3330.0042,N,11848.3060,W,1,08,1.3,12.1,M,-34.2,M,,*6B
$PYRTM,2024,127.835698094896,18.945345505035
$GPGGA,200323.00,3330.0026,N,11848.3040,W,1,08,1.3,12.2,M,-34.2,M,,*69
$PYRTM,2024,127.835705501655,18.945352911794
$GPGGA,200324.00,3330.0011,N,11848.3020,W,1,08,1.3,12.4,M,-34.2,M,,*6A
$PYRTM,2024,127.835721242292,18.945368652431
$GPGGA,200325.00,3329.9998,N,11848.2997,W,1,08,1.3,12.3,M,-34.2,M,,*61
$PYRTM,2024,127.835732824514,18.945380234653
$GPGGA,200326.00,3329.9984,N,11848.2974,W,1,08,1.3,11.9,M,-34.2,M,,*6B
$PYRTM,2024,127.835740237801,18.945387647951
$GPGGA,200327.00,3329.9971,N,11848.2953,W,1,08,1.3,11.6,M,-34.2,M,,*6A
$PYRTM,2024,127.835755977986,18.945403388125
$GPGGA,200328.00,3329.9956,N,11848.2935,W,1,08,1.3,11.2,M,-34.2,M,,*64
$PYRTM,2024,127.835767538912,18.945414949051
$GPGGA,200329.00,3329.9940,N,11848.2917,W,1,08,1.3,11.2,M,-34.2,M,,*62
$PYRTM,2024,127.835774947894,18.945422358032
$GPGGA,200330.00,3329.9926,N,11848.2897,W,1,08,1.3,11.1,M,-34.2,M,,*60
$PYRTM,2024,127.835790686019,18.945438096157
$GPGGA,200331.00,3329.9911,N,11848.2876,W,1,08,1.3,11.2,M,-34.2,M,,*69
$PYRTM,2024,127.835802274213,18.945449684352
$GPGGA,200332.00,3329.9896,N,11848.2856,W,1,08,1.3,11.3,M,-34.2,M,,*67
$PYRTM,2024,127.835809669132,18.945457079271
$GPGGA,200333.00,3329.9880,N,11848.2837,W,1,08,1.3,11.6,M,-34.2,M,,*63
$PYRTM,2024,127.835828316852,18.945475726991
$GPGGA,200334.00,3329.9864,N,11848.2816,W,1,08,1.3,11.8,M,-34.2,M,,*63
$PYRTM,2024,127.835836983750,18.945484393889
$GPGGA,200335.00,3329.9850,N,11848.2793,W,1,08,1.3,11.9,M,-34.2,M,,*66
$PYRTM,2024,127.835848573877,18.945495984016
$GPGGA,200336.00,3329.9836,N,11848.2772,W,1,08,1.3,11.9,M,-34.2,M,,*6A
$PYRTM,2024,127.835860132130,18.945507542280
$GPGGA,200337.00,3329.9821,N,11848.2753,W,1,08,1.3,11.8,M,-34.2,M,,*6F
$PYRTM,2024,127.835871725243,18.945519135382
$GPGGA,200338.00,3329.9806,N,11848.2733,W,1,08,1.3,11.5,M,-34.2,M,,*6E
$PYRTM,2024,127.835883280428,18.945530690567
$GPGGA,200339.00,3329.9792,N,11848.2712,W,1,08,1.3,11.0,M,-34.2,M,,*6B
$PYRTM,2024,127.835894869931,18.945542280069
$GPGGA,200340.00,3329.9780,N,11848.2691,W,1,08,1.3,11.0,M,-34.2,M,,*6C
$PYRTM,2024,127.835906427755,18.945553837894
$GPGGA,200341.00,3329.9766,N,11848.2671,W,1,08,1.3,11.1,M,-34.2,M,,*6A
$PYRTM,2024,127.835918016146,18.945565426285
$GPGGA,200342.00,3329.9750,N,11848.2652,W,1,08,1.3,11.2,M,-34.2,M,,*6E
$PYRTM,2024,127.835929577153,18.945576987292
$GPGGA,200343.00,3329.9733,N,11848.2633,W,1,08,1.3,11.2,M,-34.2,M,,*6D
$PYRTM,2024,127.835941159282,18.945588569421
$GPGGA,200344.00,3329.9717,N,11848.2613,W,1,08,1.3,11.1,M,-34.2,M,,*6D
$PYRTM,2024,127.835952724525,18.945600134664
$GPGGA,200345.00,3329.9703,N,11848.2592,W,1,08,1.3,11.3,M,-34.2,M,,*61
$PYRTM,2024,127.835964313113,18.945611723252
$GPGGA,200346.00,3329.9689,N,11848.2570,W,1,08,1.3,11.4,M,-34.2,M,,*6A
$PYRTM,2024,127.835975873299,18.945623283437
$GPGGA,200347.00,3329.9676,N,11848.2548,W,1,08,1.3,11.2,M,-34.2,M,,*66
$PYRTM,2024,127.835987460833,18.945634870972
$GPGGA,200348.00,3329.9660,N,11848.2529,W,1,08,1.3,10.9,M,-34.2,M,,*63
$PYRTM,2024,127.835999022558,18.945646432697
$GPGGA,200349.00,3329.9645,N,11848.2510,W,1,08,1.3,10.7,M,-34.2,M,,*61
$PYRTM,2024,127.836010612060,18.945658022199
$GPGGA,200350.00,3329.9630,N,11848.2490,W,1,08,1.3,10.7,M,-34.2,M,,*62
$PYRTM,2024,127.836022169375,18.945669579514
$GPGGA,200351.00,3329.9617,N,11848.2468,W,1,08,1.3,10.8,M,-34.2,M,,*6E
$PYRTM,2024,127.836033760833,18.945681170972
$GPGGA,200352.00,3329.9603,N,11848.2447,W,1,08,1.3,11.1,M,-34.2,M,,*6D
$PYRTM,2024,127.836045318194,18.945692728345
$GPGGA,200353.00,3329.9587,N,11848.2428,W,1,08,1.3,11.4,M,-34.2,M,,*6F
$PYRTM,2024,127.836052726412,18.945700136551
$GPGGA,200354.00,3329.9572,N,11848.2409,W,1,08,1.3,11.5,M,-34.2,M,,*60
$PYRTM,2024,127.836068465498,18.945715875637
$GPGGA,200355.00,3329.9557,N,11848.2388,W,1,08,1.3,11.7,M,-34.2,M,,*6A
$PYRTM,2024,127.836075875046,18.945723285185
$GPGGA,200356.00,3329.9544,N,11848.2366,W,1,08,1.3,11.6,M,-34.2,M,,*6A
$PYRTM,2024,127.836094520868,18.945741931007
$GPGGA,200357.00,3329.9530,N,11848.2344,W,1,08,1.3,11.4,M,-34.2,M,,*6A
$PYRTM,2024,127.836106094803,18.945753504942
$GPGGA,200358.00,3329.9515,N,11848.2325,W,1,08,1.3,11.3,M,-34.2,M,,*62
$PYRTM,2024,127.836114762836,18.945762172986
$GPGGA,200359.00,3329.9499,N,11848.2307,W,1,08,1.3,11.3,M,-34.2,M,,*66
$PYRTM,2024,127.836126351690,18.945773761829
$GPGGA,200400.00,3329.9484,N,11848.2287,W,1,08,1.3,11.3,M,-34.2,M,,*68
$PYRTM,2024,127.836137911678,18.945785321817
$GPGGA,200401.00,3329.9470,N,11848.2266,W,1,08,1.3,11.2,M,-34.2,M,,*6C
$PYRTM,2024,127.836149498553,18.945796908692
$GPGGA,200402.00,3329.9457,N,11848.2244,W,1,08,1.3,11.4,M,-34.2,M,,*6C
$PYRTM,2024,127.836161060081,18.945808470220
$GPGGA,200403.00,3329.9443,N,11848.2224,W,1,08,1.3,11.5,M,-34.2,M,,*6F
$PYRTM,2024,127.836168467894,18.945815878044
$GPGGA,200404.00,3329.9427,N,11848.2205,W,1,08,1.3,11.3,M,-34.2,M,,*6F
$PYRTM,2024,127.836187124931,18.945834535069
$GPGGA,200405.00,3329.9411,N,11848.2187,W,1,08,1.3,10.9,M,-34.2,M,,*69
$PYRTM,2024,127.836195810289,18.945843220440
$GPGGA,200406.00,3329.9396,N,11848.2166,W,1,08,1.3,10.7,M,-34.2,M,,*63
$PYRTM,2024,127.836207356111,18.945854766250
$GPGGA,200407.00,3329.9383,N,11848.2144,W,1,08,1.3,10.7,M,-34.2,M,,*66
$PYRTM,2024,127.836218946794,18.945866356944
$GPGGA,200408.00,3329.9369,N,11848.2123,W,1,08,1.3,10.8,M,-34.2,M,,*63
$PYRTM,2024,127.836226337419,18.945873747558
$GPGGA,200409.00,3329.9353,N,11848.2103,W,1,08,1.3,10.9,M,-34.2,M,,*68
$PYRTM,2024,127.836242087697,18.945889497836
$GPGGA,200410.00,3329.9337,N,11848.2084,W,1,08,1.3,11.0,M,-34.2,M,,*64
$PYRTM,2024,127.836253653565,18.945901063704
$GPGGA,200411.00,3329.9321,N,11848.2065,W,1,08,1.3,11.1,M,-34.2,M,,*6C
$PYRTM,2024,127.836261061389,18.945908471528
$GPGGA,200412.00,3329.9307,N,11848.2043,W,1,08,1.3,11.0,M,-34.2,M,,*6E
$PYRTM,2024,127.836276801516,18.945924211655
$GPGGA,200413.00,3329.9294,N,11848.2022,W,1,08,1.3,11.1,M,-34.2,M,,*62
$PYRTM,2024,127.836288390012,18.945935800162
$GPGGA,200414.00,3329.9280,N,11848.2002,W,1,08,1.3,11.0,M,-34.2,M,,*63
$PYRTM,2024,127.836295783785,18.945943193924
$GPGGA,200415.00,3329.9265,N,11848.1982,W,1,08,1.3,10.6,M,-34.2,M,,*6C
$PYRTM,2024,127.836311537500,18.945958947650
$GPGGA,200416.00,3329.9250,N,11848.1962,W,1,08,1.3,10.2,M,-34.2,M,,*63
$PYRTM,2024,127.836318931597,18.945966341736
$GPGGA,200417.00,3329.9236,N,11848.1942,W,1,08,1.3,10.3,M,-34.2,M,,*61
$PYRTM,2024,127.836334687407,18.945982097546
$GPGGA,200418.00,3329.9221,N,11848.1921,W,1,08,1.3,10.6,M,-34.2,M,,*68
$PYRTM,2024,127.836346245347,18.945993655486
$GPGGA,200419.00,3329.9205,N,11848.1902,W,1,08,1.3,10.8,M,-34.2,M,,*60
$PYRTM,2024,127.836357835961,18.946005246111
$GPGGA,200420.00,3329.9188,N,11848.1882,W,1,08,1.3,10.6,M,-34.2,M,,*6B
$PYRTM,2024,127.836369394097,18.946016804236
$GPGGA,200421.00,3329.9173,N,11848.1861,W,1,08,1.3,10.4,M,-34.2,M,,*61
$PYRTM,2024,127.836380981505,18.946028391644
$GPGGA,200422.00,3329.9159,N,11848.1840,W,1,08,1.3,10.3,M,-34.2,M,,*6E
$PYRTM,2024,127.836392541563,18.946039951701
$GPGGA,200423.00,3329.9145,N,11848.1819,W,1,08,1.3,10.1,M,-34.2,M,,*6C
$PYRTM,2024,127.836404129306,18.946051539444
$GPGGA,200424.00,3329.9130,N,11848.1798,W,1,08,1.3,10.3,M,-34.2,M,,*6D
$PYRTM,2024,127.836415690081,18.946063100220
$GPGGA,200425.00,3329.9114,N,11848.1779,W,1,08,1.3,10.5,M,-34.2,M,,*63
$PYRTM,2024,127.836427279317,18.946074689456
$GPGGA,200426.00,3329.9100,N,11848.1759,W,1,08,1.3,10.8,M,-34.2,M,,*6A
$PYRTM,2024,127.836438838727,18.946086248877
$GPGGA,200427.00,3329.9086,N,11848.1738,W,1,08,1.3,11.0,M,-34.2,M,,*6A
$PYRTM,2024,127.836450426991,18.946097837130
$GPGGA,200428.00,3329.9072,N,11848.1717,W,1,08,1.3,11.1,M,-34.2,M,,*62
$PYRTM,2024,127.836457820984,18.946105231123
$GPGGA,200429.00,3329.9056,N,11848.1697,W,1,08,1.3,10.9,M,-34.2,M,,*65
$PYRTM,2024,127.836473573484,18.946120983623
$GPGGA,200430.00,3329.9041,N,11848.1677,W,1,08,1.3,10.7,M,-34.2,M,,*6B
$PYRTM,2024,127.836480967894,18.946128378032
$GPGGA,200431.00,3329.9027,N,11848.1656,W,1,08,1.3,10.6,M,-34.2,M,,*68
$PYRTM,2024,127.836496723623,18.946144133762
$GPGGA,200432.00,3329.9013,N,11848.1634,W,1,08,1.3,10.6,M,-34.2,M,,*68
$PYRTM,2024,127.836508285139,18.946155695278
$GPGGA,200433.00,3329.8997,N,11848.1614,W,1,08,1.3,10.5,M,-34.2,M,,*6C
$PYRTM,2024,127.836515691505,18.946163101644
$GPGGA,200434.00,3329.8981,N,11848.1596,W,1,08,1.3,10.3,M,-34.2,M,,*63
$PYRTM,2024,127.836527381898,18.946174792037
$GPGGA,200435.00,3329.8966,N,11848.1576,W,1,08,1.3,10.3,M,-34.2,M,,*65
$PYRTM,2024,127.836545907176,18.946193317315
$GPGGA,200436.00,3329.8952,N,11848.1555,W,1,08,1.3,10.1,M,-34.2,M,,*62
$PYRTM,2024,127.836557486505,18.946204896655
$GPGGA,200437.00,3329.8938,N,11848.1533,W,1,08,1.3,10.2,M,-34.2,M,,*6C
$PYRTM,2024,127.836569055255,18.946216465394
$GPGGA,200438.00,3329.8922,N,11848.1515,W,1,08,1.3,10.1,M,-34.2,M,,*6F
$PYRTM,2024,127.836577730127,18.946225140266
$GPGGA,200439.00,3329.8905,N,11848.1497,W,1,08,1.3,9.8,M,-34.2,M,,*51
$PYRTM,2024,127.836589315104,18.946236725243
$GPGGA,200440.00,3329.8890,N,11848.1476,W,1,08,1.3,9.8,M,-34.2,M,,*5D
$PYRTM,2024,127.836600877500,18.946248287650
$GPGGA,200441.00,3329.8877,N,11848.1452,W,1,08,1.3,9.8,M,-34.2,M,,*53
$PYRTM,2024,127.836612460602,18.946259870752
$GPGGA,200442.00,3329.8864,N,11848.1430,W,1,08,1.3,10.0,M,-34.2,M,,*66
$PYRTM,2024,127.836619858252,18.946267268391
$GPGGA,200443.00,3329.8848,N,11848.1411,W,1,08,1.3,10.1,M,-34.2,M,,*6B
$PYRTM,2024,127.836635612558,18.946283022697
$GPGGA,200444.00,3329.8831,N,11848.1392,W,1,08,1.3,9.8,M,-34.2,M,,*5F
$PYRTM,2024,127.836647173044,18.946294583183
$GPGGA,200445.00,3329.8815,N,11848.1372,W,1,08,1.3,9.5,M,-34.2,M,,*5B
$PYRTM,2024,127.836654465231,18.946301875370
$GPGGA,200446.00,3329.8802,N,11848.1350,W,1,08,1.3,9.7,M,-34.2,M,,*5C
$PYRTM,2024,127.836670322755,18.946317732894
$GPGGA,200447.00,3329.8789,N,11848.1329,W,1,08,1.3,9.9,M,-34.2,M,,*51
$PYRTM,2024,127.836681912141,18.946329322280
$GPGGA,200448.00,3329.8775,N,11848.1308,W,1,08,1.3,9.9,M,-34.2,M,,*5E
$PYRTM,2024,127.836689192060,18.946336602199
$GPGGA,200449.00,3329.8759,N,11848.1289,W,1,08,1.3,9.6,M,-34.2,M,,*56
$PYRTM,2024,127.836705059699,18.946352469850
$GPGGA,200450.00,3329.8744,N,11848.1270,W,1,08,1.3,9.4,M,-34.2,M,,*56
$PYRTM,2024,127.836716620185,18.946364030324
$GPGGA,200451.00,3329.8729,N,11848.1250,W,1,08,1.3,9.3,M,-34.2,M,,*59
$PYRTM,2024,127.836723909988,18.946371320127
$GPGGA,200452.00,3329.8714,N,11848.1230,W,1,08,1.3,9.4,M,-34.2,M,,*55
$PYRTM,2024,127.836739767269,18.946387177407
$GPGGA,200453.00,3329.8700,N,11848.1207,W,1,08,1.3,9.5,M,-34.2,M,,*54
$PYRTM,2024,127.836751348044,18.946398758183
$GPGGA,200454.00,3329.8685,N,11848.1186,W,1,08,1.3,9.6,M,-34.2,M,,*56
$PYRTM,2024,127.836758645440,18.946406055590
$GPGGA,200455.00,3329.8669,N,11848.1167,W,1,08,1.3,9.8,M,-34.2,M,,*54
$PYRTM,2024,127.836774501852,18.946421911991
$GPGGA,200456.00,3329.8653,N,11848.1148,W,1,08,1.3,10.0,M,-34.2,M,,*63
$PYRTM,2024,127.836786062396,18.946433472535
$GPGGA,200457.00,3329.8638,N,11848.1127,W,1,08,1.3,9.9,M,-34.2,M,,*57
$PYRTM,2024,127.836793355023,18.946440765162
$GPGGA,200458.00,3329.8624,N,11848.1105,W,1,08,1.3,9.8,M,-34.2,M,,*54
$PYRTM,2024,127.836809210694,18.946456620833
$GPGGA,200459.00,3329.8610,N,11848.1085,W,1,08,1.3,9.7,M,-34.2,M,,*54
$PYRTM,2024,127.836820798206,18.946468208345
$GPGGA,200500.00,3329.8594,N,11848.1065,W,1,08,1.3,9.5,M,-34.2,M,,*5A
$PYRTM,2024,127.836832359560,18.946479769699
$GPGGA,200501.00,3329.8579,N,11848.1046,W,1,08,1.3,9.5,M,-34.2,M,,*59
$PYRTM,2024,127.836839651181,18.946487061319
$GPGGA,200502.00,3329.8564,N,11848.1025,W,1,08,1.3,9.7,M,-34.2,M,,*51
$PYRTM,2024,127.836855509155,18.946502919294
$GPGGA,200503.00,3329.8549,N,11848.1005,W,1,08,1.3,10.0,M,-34.2,M,,*62
$PYRTM,2024,127.836862914965,18.946510325104
$GPGGA,200504.00,3329.8533,N,11848.0985,W,1,08,1.3,10.3,M,-34.2,M,,*6B
$PYRTM,2024,127.836878656262,18.946526066400
$GPGGA,200505.00,3329.8518,N,11848.0965,W,1,08,1.3,10.4,M,-34.2,M,,*6A
$PYRTM,2024,127.836886063530,18.946533473669
$GPGGA,200506.00,3329.8503,N,11848.0944,W,1,08,1.3,10.4,M,-34.2,M,,*60
$PYRTM,2024,127.836904722095,18.946552132234
$GPGGA,200507.00,3329.8488,N,11848.0924,W,1,08,1.3,10.3,M,-34.2,M,,*62
$PYRTM,2024,127.836913392569,18.946560802708
$GPGGA,200508.00,3329.8472,N,11848.0905,W,1,08,1.3,10.2,M,-34.2,M,,*6A
$PYRTM,2024,127.836924952465,18.946572362604
$GPGGA,200509.00,3329.8457,N,11848.0885,W,1,08,1.3,10.0,M,-34.2,M,,*67
$PYRTM,2024,127.836932359282,18.946579769421
$GPGGA,200510.00,3329.8443,N,11848.0864,W,1,08,1.3,9.9,M,-34.2,M,,*54
$PYRTM,2024,127.836948101366,18.946595511505
$GPGGA,200511.00,3329.8428,N,11848.0842,W,1,08,1.3,9.9,M,-34.2,M,,*5C
$PYRTM,2024,127.836959683796,18.946607093947
$GPGGA,200512.00,3329.8413,N,11848.0820,W,1,08,1.3,10.1,M,-34.2,M,,*63
$PYRTM,2024,127.836967083530,18.946614493669
$GPGGA,200513.00,3329.8398,N,11848.0801,W,1,08,1.3,10.3,M,-34.2,M,,*67
$PYRTM,2024,127.836982838403,18.946630248542
$GPGGA,200514.00,3329.8382,N,11848.0782,W,1,08,1.3,10.4,M,-34.2,M,,*68
$PYRTM,2024,127.836994397546,18.946641807685
$GPGGA,200515.00,3329.8367,N,11848.0762,W,1,08,1.3,10.6,M,-34.2,M,,*6E
$PYRTM,2024,127.837001804977,18.946649215116
$GPGGA,200516.00,3329.8353,N,11848.0740,W,1,08,1.3,10.5,M,-34.2,M,,*69
$PYRTM,2024,127.837017546863,18.946664957002
$GPGGA,200517.00,3329.8340,N,11848.0718,W,1,08,1.3,10.5,M,-34.2,M,,*67
$PYRTM,2024,127.837029146806,18.946676556944
$GPGGA,200518.00,3329.8326,N,11848.0697,W,1,08,1.3,10.4,M,-34.2,M,,*6F
$PYRTM,2024,127.837036527315,18.946683937454
$GPGGA,200519.00,3329.8310,N,11848.0679,W,1,08,1.3,10.6,M,-34.2,M,,*69
$PYRTM,2024,127.837052275799,18.946699685937
$GPGGA,200520.00,3329.8294,N,11848.0660,W,1,08,1.3,10.5,M,-34.2,M,,*65
$PYRTM,2024,127.837063844965,18.946711255104
$GPGGA,200521.00,3329.8279,N,11848.0640,W,1,08,1.3,10.4,M,-34.2,M,,*64
$PYRTM,2024,127.837075429271,18.946722839410
$GPGGA,200522.00,3329.8265,N,11848.0619,W,1,08,1.3,10.6,M,-34.2,M,,*64
$PYRTM,2024,127.837086990243,18.946734400382
$GPGGA,200523.00,3329.8251,N,11848.0597,W,1,08,1.3,10.6,M,-34.2,M,,*67
$PYRTM,2024,127.837098577361,18.946745987500
$GPGGA,200524.00,3329.8236,N,11848.0576,W,1,08,1.3,10.7,M,-34.2,M,,*6F
$PYRTM,2024,127.837105986655,18.946753396806
$GPGGA,200525.00,3329.8219,N,11848.0557,W,1,08,1.3,10.6,M,-34.2,M,,*61
$PYRTM,2024,127.837121725127,18.946769135266
$GPGGA,200526.00,3329.8204,N,11848.0538,W,1,08,1.3,10.6,M,-34.2,M,,*67
$PYRTM,2024,127.837133286644,18.946780696782
$GPGGA,200527.00,3329.8189,N,11848.0517,W,1,08,1.3,10.6,M,-34.2,M,,*6D
$PYRTM,2024,127.837140694282,18.946788104421
$GPGGA,200528.00,3329.8175,N,11848.0495,W,1,08,1.3,10.6,M,-34.2,M,,*6A
$PYRTM,2024,127.837156434942,18.946803845081
$GPGGA,200529.00,3329.8160,N,11848.0474,W,1,08,1.3,10.5,M,-34.2,M,,*63
$PYRTM,2024,127.837168025729,18.946815435868
$GPGGA,200530.00,3329.8144,N,11848.0454,W,1,08,1.3,10.5,M,-34.2,M,,*6F
$PYRTM,2024,127.837175418472,18.946822828611
$GPGGA,200531.00,3329.8129,N,11848.0435,W,1,08,1.3,10.7,M,-34.2,M,,*60
$PYRTM,2024,127.837191174259,18.946838584398
$GPGGA,200532.00,3329.8114,N,11848.0415,W,1,08,1.3,10.8,M,-34.2,M,,*60
$PYRTM,2024,127.837202731736,18.946850141875
$GPGGA,200533.00,3329.8099,N,11848.0394,W,1,08,1.3,10.7,M,-34.2,M,,*64
$PYRTM,2024,127.837210139641,18.946857549780
$GPGGA,200534.00,3329.8085,N,11848.0374,W,1,08,1.3,10.6,M,-34.2,M,,*61
$PYRTM,2024,127.837225879757,18.946873289896
$GPGGA,200535.00,3329.8071,N,11848.0353,W,1,08,1.3,10.7,M,-34.2,M,,*6F
$PYRTM,2024,127.837237466863,18.946884877002
$GPGGA,200536.00,3329.8056,N,11848.0333,W,1,08,1.3,10.7,M,-34.2,M,,*6F
$PYRTM,2024,127.837244876088,18.946892286227
$GPGGA,200537.00,3329.8041,N,11848.0313,W,1,08,1.3,11.0,M,-34.2,M,,*6C
$PYRTM,2024,127.837263508576,18.946910918715
$GPGGA,200538.00,3329.8025,N,11848.0294,W,1,08,1.3,11.2,M,-34.2,M,,*6D
$PYRTM,2024,127.837272177812,18.946919587951
$GPGGA,200539.00,3329.8010,N,11848.0273,W,1,08,1.3,11.3,M,-34.2,M,,*62
$PYRTM,2024,127.837279584016,18.946926994155
$GPGGA,200540.00,3329.7995,N,11848.0251,W,1,08,1.3,11.3,M,-34.2,M,,*67
$PYRTM,2024,127.837295325845,18.946942735984
$GPGGA,200541.00,3329.7980,N,11848.0230,W,1,08,1.3,11.3,M,-34.2,M,,*65
$PYRTM,2024,127.837306907373,18.946954317523
$GPGGA,200542.00,3329.7965,N,11848.0211,W,1,08,1.3,11.2,M,-34.2,M,,*6F
$PYRTM,2024,127.837314306505,18.946961716644
$GPGGA,200543.00,3329.7949,N,11848.0191,W,1,08,1.3,11.2,M,-34.2,M,,*6B
$PYRTM,2024,127.837330060995,18.946977471134
$GPGGA,200544.00,3329.7935,N,11848.0169,W,1,08,1.3,11.0,M,-34.2,M,,*62
$PYRTM,2024,127.837341623090,18.946989033229
$GPGGA,200545.00,3329.7923,N,11848.0147,W,1,08,1.3,11.0,M,-34.2,M,,*68
$PYRTM,2024,127.837353211458,18.947000621597
$GPGGA,200546.00,3329.7909,N,11848.0127,W,1,08,1.3,11.0,M,-34.2,M,,*65
$PYRTM,2024,127.837364769931,18.947012180069
$GPGGA,200547.00,3329.7893,N,11848.0109,W,1,08,1.3,11.1,M,-34.2,M,,*6B
$PYRTM,2024,127.837376359780,18.947023769919
$GPGGA,200548.00,3329.7877,N,11848.0090,W,1,08,1.3,11.0,M,-34.2,M,,*6E
$PYRTM,2024,127.837383752986,18.947031163125
$GPGGA,200549.00,3329.7863,N,11848.0068,W,1,08,1.3,11.3,M,-34.2,M,,*6E
$PYRTM,2024,127.837399506134,18.947046916285
$GPGGA,200550.00,3329.7850,N,11848.0045,W,1,08,1.3,11.4,M,-34.2,M,,*6E
$PYRTM,2024,127.837411066586,18.947058476725
$GPGGA,200551.00,3329.7836,N,11848.0024,W,1,08,1.3,11.4,M,-34.2,M,,*68
$PYRTM,2024,127.837422652674,18.947070062824
$GPGGA,200552.00,3329.7819,N,11848.0005,W,1,08,1.3,11.4,M,-34.2,M,,*65
$PYRTM,2024,127.837434214387,18.947081624525
$GPGGA,200553.00,3329.7802,N,11847.9986,W,1,08,1.3,11.3,M,-34.2,M,,*6D
$PYRTM,2024,127.837445801435,18.947093211574
$GPGGA,200554.00,3329.7788,N,11847.9965,W,1,08,1.3,11.2,M,-34.2,M,,*6B
$PYRTM,2024,127.837457362708,18.947104772847
$GPGGA,200555.00,3329.7776,N,11847.9942,W,1,08,1.3,11.2,M,-34.2,M,,*6E
$PYRTM,2024,127.837468948981,18.947116359120
$GPGGA,200556.00,3329.7762,N,11847.9921,W,1,08,1.3,11.2,M,-34.2,M,,*6D
$PYRTM,2024,127.837480509282,18.947127919421
$GPGGA,200557.00,3329.7746,N,11847.9902,W,1,08,1.3,11.2,M,-34.2,M,,*6B
$PYRTM,2024,127.837492212859,18.947139622998
$GPGGA,200558.00,3329.7728,N,11847.9885,W,1,08,1.3,11.0,M,-34.2,M,,*60
$PYRTM,2024,127.837499609410,18.947147019549
$GPGGA,200559.00,3329.7713,N,11847.9866,W,1,08,1.3,11.1,M,-34.2,M,,*65
$PYRTM,2024,127.837515261111,18.947162671250
$GPGGA,200600.00,3329.7700,N,11847.9845,W,1,08,1.3,11.0,M,-34.2,M,,*68
$PYRTM,2024,127.837526807824,18.947174217963
$GPGGA,200601.00,3329.7686,N,11847.9822,W,1,08,1.3,11.2,M,-34.2,M,,*65
$PYRTM,2024,127.837534214514,18.947181624653
$GPGGA,200602.00,3329.7671,N,11847.9801,W,1,08,1.3,11.1,M,-34.2,M,,*6C
$PYRTM,2024,127.837549956609,18.947197366748
$GPGGA,200603.00,3329.7655,N,11847.9782,W,1,08,1.3,11.1,M,-34.2,M,,*6F
$PYRTM,2024,127.837561545127,18.947208955266
$GPGGA,200604.00,3329.7638,N,11847.9763,W,1,08,1.3,10.8,M,-34.2,M,,*64
$PYRTM,2024,127.837573105451,18.947220515590
$GPGGA,200605.00,3329.7623,N,11847.9743,W,1,08,1.3,10.8,M,-34.2,M,,*6D
$PYRTM,2024,127.837580512523,18.947227922662
$GPGGA,200606.00,3329.7609,N,11847.9722,W,1,08,1.3,10.9,M,-34.2,M,,*60
$PYRTM,2024,127.837596252593,18.947243662731
$GPGGA,200607.00,3329.7596,N,11847.9700,W,1,08,1.3,11.3,M,-34.2,M,,*6F
$PYRTM,2024,127.837603660764,18.947251070903
$GPGGA,200608.00,3329.7581,N,11847.9678,W,1,08,1.3,11.4,M,-34.2,M,,*6F
$PYRTM,2024,127.837622327315,18.947269737465
$GPGGA,200609.00,3329.7567,N,11847.9658,W,1,08,1.3,11.5,M,-34.2,M,,*65
$PYRTM,2024,127.837630988634,18.947278398773
$GPGGA,200610.00,3329.7551,N,11847.9639,W,1,08,1.3,11.3,M,-34.2,M,,*69
$PYRTM,2024,127.837642549896,18.947289960046
$GPGGA,200611.00,3329.7537,N,11847.9619,W,1,08,1.3,11.2,M,-34.2,M,,*6B
$PYRTM,2024,127.837654138981,18.947301549120
$GPGGA,200612.00,3329.7523,N,11847.9599,W,1,08,1.3,10.8,M,-34.2,M,,*6D
$PYRTM,2024,127.837665697234,18.947313107373
$GPGGA,200613.00,3329.7508,N,11847.9577,W,1,08,1.3,10.6,M,-34.2,M,,*6B
$PYRTM,2024,127.837673106725,18.947320516863
$GPGGA,200614.00,3329.7493,N,11847.9557,W,1,08,1.3,10.4,M,-34.2,M,,*6F
$PYRTM,2024,127.837684795174,18.947332205312
$GPGGA,200615.00,3329.7478,N,11847.9538,W,1,08,1.3,10.5,M,-34.2,M,,*63
$PYRTM,2024,127.837700437384,18.947347847523
$GPGGA,200616.00,3329.7462,N,11847.9518,W,1,08,1.3,10.7,M,-34.2,M,,*6B
$PYRTM,2024,127.837711993785,18.947359403924
$GPGGA,200617.00,3329.7446,N,11847.9496,W,1,08,1.3,10.9,M,-34.2,M,,*65
$PYRTM,2024,127.837719402650,18.947366812789
$GPGGA,200618.00,3329.7431,N,11847.9475,W,1,08,1.3,11.1,M,-34.2,M,,*6E
$PYRTM,2024,127.837735143472,18.947382553611
$GPGGA,200619.00,3329.7416,N,11847.9454,W,1,08,1.3,11.3,M,-34.2,M,,*6B
$PYRTM,2024,127.837742549387,18.947389959525
$GPGGA,200620.00,3329.7400,N,11847.9435,W,1,08,1.3,11.3,M,-34.2,M,,*61
$PYRTM,2024,127.837758290475,18.947405700625
$GPGGA,200621.00,3329.7385,N,11847.9415,W,1,08,1.3,11.0,M,-34.2,M,,*6B
$PYRTM,2024,127.837769874039,18.947417284178
$GPGGA,200622.00,3329.7371,N,11847.9394,W,1,08,1.3,10.7,M,-34.2,M,,*6B
$PYRTM,2024,127.837777272396,18.947424682535
$GPGGA,200623.00,3329.7358,N,11847.9372,W,1,08,1.3,10.9,M,-34.2,M,,*67
$PYRTM,2024,127.837788974988,18.947436385127
$GPGGA,200624.00,3329.7345,N,11847.9351,W,1,08,1.3,11.1,M,-34.2,M,,*64
$PYRTM,2024,127.837804586956,18.947451997095
$GPGGA,200625.00,3329.7329,N,11847.9331,W,1,08,1.3,11.1,M,-34.2,M,,*69
$PYRTM,2024,127.837816173889,18.947463584028
$GPGGA,200626.00,3329.7312,N,11847.9312,W,1,08,1.3,11.2,M,-34.2,M,,*60
$PYRTM,2024,127.837823569479,18.947470979618
$GPGGA,200627.00,3329.7297,N,11847.9293,W,1,08,1.3,11.3,M,-34.2,M,,*64
$PYRTM,2024,127.837839326181,18.947486736319
$GPGGA,200628.00,3329.7283,N,11847.9271,W,1,08,1.3,11.3,M,-34.2,M,,*62
$PYRTM,2024,127.837850884687,18.947498294838
$GPGGA,200629.00,3329.7269,N,11847.9248,W,1,08,1.3,11.1,M,-34.2,M,,*6F
$PYRTM,2024,127.837858293056,18.947505703530
$GPGGA,200630.00,3329.7255,N,11847.9227,W,1,08,1.3,11.1,M,-34.2,M,,*61
$PYRTM,2024,127.837874032755,18.947521442894
$GPGGA,200631.00,3329.7239,N,11847.9207,W,1,08,1.3,10.9,M,-34.2,M,,*61
$PYRTM,2024,127.837881439688,18.947528849826
$GPGGA,200632.00,3329.7223,N,11847.9189,W,1,08,1.3,10.8,M,-34.2,M,,*6D
$PYRTM,2024,127.837893142292,18.947540552431
$GPGGA,200633.00,3329.7207,N,11847.9170,W,1,08,1.3,10.8,M,-34.2,M,,*6C
$PYRTM,2024,127.837908767593,18.947556177731
$GPGGA,200634.00,3329.7193,N,11847.9149,W,1,08,1.3,10.9,M,-34.2,M,,*6E
$PYRTM,2024,127.837920328819,18.947567738958
$GPGGA,200635.00,3329.7179,N,11847.9128,W,1,08,1.3,11.1,M,-34.2,M,,*65
$PYRTM,2024,127.837926360961,18.947573771100
$GPGGA,200636.00,3329.7164,N,11847.9107,W,1,08,1.3,11.2,M,-34.2,M,,*64
$PYRTM,2024,127.837943476794,18.947590886933
$GPGGA,200637.00,3329.7148,N,11847.9088,W,1,08,1.3,11.4,M,-34.2,M,,*6B
$PYRTM,2024,127.837950884502,18.947598294641
$GPGGA,200638.00,3329.7132,N,11847.9068,W,1,08,1.3,11.5,M,-34.2,M,,*66
$PYRTM,2024,127.837969519317,18.947616929456
$GPGGA,200639.00,3329.7117,N,11847.9047,W,1,08,1.3,11.6,M,-34.2,M,,*6E
$PYRTM,2024,127.837978212847,18.947625622986
$GPGGA,200640.00,3329.7103,N,11847.9025,W,1,08,1.3,11.5,M,-34.2,M,,*62
$PYRTM,2024,127.837989773912,18.947637184051
$GPGGA,200641.00,3329.7089,N,11847.9004,W,1,08,1.3,11.6,M,-34.2,M,,*60
$PYRTM,2024,127.838001361921,18.947648772060
$GPGGA,200642.00,3329.7074,N,11847.8983,W,1,08,1.3,11.6,M,-34.2,M,,*66
$PYRTM,2024,127.838012921817,18.947660331956
$GPGGA,200643.00,3329.7058,N,11847.8964,W,1,08,1.3,11.7,M,-34.2,M,,*61
$PYRTM,2024,127.838024511667,18.947671921806
$GPGGA,200644.00,3329.7042,N,11847.8944,W,1,08,1.3,11.4,M,-34.2,M,,*6C
$PYRTM,2024,127.838031904236,18.947679314375
$GPGGA,200645.00,3329.7027,N,11847.8925,W,1,08,1.3,11.2,M,-34.2,M,,*6F
$PYRTM,2024,127.838047659213,18.947695069352
$GPGGA,200646.00,3329.7013,N,11847.8904,W,1,08,1.3,10.9,M,-34.2,M,,*62
$PYRTM,2024,127.838059219225,18.947706629375
$GPGGA,200647.00,3329.6999,N,11847.8883,W,1,08,1.3,11.1,M,-34.2,M,,*6E
$PYRTM,2024,127.838066623970,18.947714034097
$GPGGA,200648.00,3329.6984,N,11847.8862,W,1,08,1.3,11.3,M,-34.2,M,,*60
$PYRTM,2024,127.838082367731,18.947729777870
$GPGGA,200649.00,3329.6969,N,11847.8843,W,1,08,1.3,11.5,M,-34.2,M,,*67
$PYRTM,2024,127.838093953623,18.947741363762
$GPGGA,200650.00,3329.6953,N,11847.8824,W,1,08,1.3,11.6,M,-34.2,M,,*64
$PYRTM,2024,127.838101348206,18.947748758333
$GPGGA,200651.00,3329.6936,N,11847.8803,W,1,08,1.3,11.5,M,-34.2,M,,*60
$PYRTM,2024,127.838117096725,18.947764506863
$GPGGA,200652.00,3329.6921,N,11847.8782,W,1,08,1.3,11.4,M,-34.2,M,,*62
$PYRTM,2024,127.838128662847,18.947776072986
$GPGGA,200653.00,3329.6907,N,11847.8760,W,1,08,1.3,11.8,M,-34.2,M,,*67
$PYRTM,2024,127.838136069965,18.947783480104
$GPGGA,200654.00,3329.6892,N,11847.8739,W,1,08,1.3,12.0,M,-34.2,M,,*6A
$PYRTM,2024,127.838151811273,18.947799221424
$GPGGA,200655.00,3329.6876,N,11847.8720,W,1,08,1.3,12.0,M,-34.2,M,,*69
$PYRTM,2024,127.838163401354,18.947810811505
$GPGGA,200656.00,3329.6861,N,11847.8700,W,1,08,1.3,11.7,M,-34.2,M,,*6A
$PYRTM,2024,127.838170793032,18.947818203171
$GPGGA,200657.00,3329.6847,N,11847.8679,W,1,08,1.3,11.4,M,-34.2,M,,*63
$PYRTM,2024,127.838186561007,18.947833971157
$GPGGA,200658.00,3329.6835,N,11847.8657,W,1,08,1.3,11.0,M,-34.2,M,,*61
$PYRTM,2024,127.838198108090,18.947845518229
$GPGGA,200659.00,3329.6822,N,11847.8635,W,1,08,1.3,11.1,M,-34.2,M,,*63
$PYRTM,2024,127.838205514965,18.947852925104
$GPGGA,200700.00,3329.6807,N,11847.8615,W,1,08,1.3,11.3,M,-34.2,M,,*69
$PYRTM,2024,127.838221258322,18.947868668461
$GPGGA,200701.00,3329.6790,N,11847.8597,W,1,08,1.3,11.8,M,-34.2,M,,*6B
$PYRTM,2024,127.838232845208,18.947880255347
$GPGGA,200702.00,3329.6772,N,11847.8579,W,1,08,1.3,11.8,M,-34.2,M,,*64
$PYRTM,2024,127.838240252118,18.947887662257
$GPGGA,200703.00,3329.6757,N,11847.8559,W,1,08,1.3,11.9,M,-34.2,M,,*61
$PYRTM,2024,127.838255987153,18.947903397292
$GPGGA,200704.00,3329.6743,N,11847.8536,W,1,08,1.3,11.8,M,-34.2,M,,*6B
$PYRTM,2024,127.838267554977,18.947914965116
$GPGGA,200705.00,3329.6731,N,11847.8512,W,1,08,1.3,11.9,M,-34.2,M,,*68
$PYRTM,2024,127.838274960833,18.947922370972
$GPGGA,200706.00,3329.6717,N,11847.8491,W,1,08,1.3,12.0,M,-34.2,M,,*6F
$PYRTM,2024,127.838290701817,18.947938111956
$GPGGA,200707.00,3329.6701,N,11847.8473,W,1,08,1.3,11.8,M,-34.2,M,,*6E
$PYRTM,2024,127.838302290856,18.947949700995
$GPGGA,200708.00,3329.6686,N,11847.8453,W,1,08,1.3,11.5,M,-34.2,M,,*60
$PYRTM,2024,127.838309684757,18.947957094907
$GPGGA,200709.00,3329.6672,N,11847.8433,W,1,08,1.3,11.4,M,-34.2,M,,*6D
$PYRTM,2024,127.838328330949,18.947975741088
$GPGGA,200710.00,3329.6657,N,11847.8413,W,1,08,1.3,11.3,M,-34.2,M,,*67
$PYRTM,2024,127.838336998947,18.947984409086
$GPGGA,200711.00,3329.6643,N,11847.8392,W,1,08,1.3,11.6,M,-34.2,M,,*68
$PYRTM,2024,127.838348588634,18.947995998773
$GPGGA,200712.00,3329.6628,N,11847.8371,W,1,08,1.3,12.0,M,-34.2,M,,*6E
$PYRTM,2024,127.838360145752,18.948007555891
$GPGGA,200713.00,3329.6612,N,11847.8351,W,1,08,1.3,12.2,M,-34.2,M,,*66
$PYRTM,2024,127.838371729444,18.948019139583
$GPGGA,200714.00,3329.6596,N,11847.8332,W,1,08,1.3,12.2,M,-34.2,M,,*6B
$PYRTM,2024,127.838383297824,18.948030707963
$GPGGA,200715.00,3329.6582,N,11847.8311,W,1,08,1.3,12.0,M,-34.2,M,,*6C
$PYRTM,2024,127.838394881528,18.948042291667
$GPGGA,200716.00,3329.6569,N,11847.8289,W,1,08,1.3,11.9,M,-34.2,M,,*60
$PYRTM,2024,127.838406443310,18.948053853449
$GPGGA,200717.00,3329.6555,N,11847.8268,W,1,08,1.3,11.8,M,-34.2,M,,*60
$PYRTM,2024,127.838413849884,18.948061260023
$GPGGA,200718.00,3329.6541,N,11847.8248,W,1,08,1.3,11.8,M,-34.2,M,,*68
$PYRTM,2024,127.838429594468,18.948077004606
$GPGGA,200719.00,3329.6525,N,11847.8230,W,1,08,1.3,11.4,M,-34.2,M,,*68
$PYRTM,2024,127.838441178102,18.948088588241
$GPGGA,200720.00,3329.6510,N,11847.8211,W,1,08,1.3,11.4,M,-34.2,M,,*67
$PYRTM,2024,127.838452740880,18.948100151030
$GPGGA,200721.00,3329.6496,N,11847.8190,W,1,08,1.3,11.4,M,-34.2,M,,*63
$PYRTM,2024,127.838464326829,18.948111736968
$GPGGA,200722.00,3329.6481,N,11847.8169,W,1,08,1.3,11.5,M,-34.2,M,,*61
$PYRTM,2024,127.838475887824,18.948123297963
$GPGGA,200723.00,3329.6464,N,11847.8150,W,1,08,1.3,11.6,M,-34.2,M,,*62
$PYRTM,2024,127.838487474525,18.948134884676
$GPGGA,200724.00,3329.6448,N,11847.8131,W,1,08,1.3,11.3,M,-34.2,M,,*69
$PYRTM,2024,127.838499035810,18.948146445949
$GPGGA,200725.00,3329.6434,N,11847.8111,W,1,08,1.3,11.1,M,-34.2,M,,*63
$PYRTM,2024,127.838510626076,18.948158036215
$GPGGA,200726.00,3329.6422,N,11847.8090,W,1,08,1.3,11.1,M,-34.2,M,,*6F
$PYRTM,2024,127.838518018495,18.948165428634
$GPGGA,200727.00,3329.6408,N,11847.8069,W,1,08,1.3,11.1,M,-34.2,M,,*60
$PYRTM,2024,127.838533774398,18.948181184549
$GPGGA,200728.00,3329.6393,N,11847.8049,W,1,08,1.3,11.1,M,-34.2,M,,*68
$PYRTM,2024,127.838545331875,18.948192742014
$GPGGA,200729.00,3329.6378,N,11847.8030,W,1,08,1.3,11.3,M,-34.2,M,,*60
$PYRTM,2024,127.838552739769,18.948200149919
$GPGGA,200730.00,3329.6362,N,11847.8010,W,1,08,1.3,11.5,M,-34.2,M,,*67
$PYRTM,2024,127.838568480231,18.948215890370
$GPGGA,200731.00,3329.6347,N,11847.7990,W,1,08,1.3,12.0,M,-34.2,M,,*69
$PYRTM,2024,127.838580067731,18.948227477870
$GPGGA,200732.00,3329.6333,N,11847.7968,W,1,08,1.3,12.4,M,-34.2,M,,*6A
$PYRTM,2024,127.838591630926,18.948239041065
$GPGGA,200733.00,3329.6320,N,11847.7946,W,1,08,1.3,12.4,M,-34.2,M,,*65
$PYRTM,2024,127.838603217106,18.948250627245
$GPGGA,200734.00,3329.6306,N,11847.7924,W,1,08,1.3,12.3,M,-34.2,M,,*65
$PYRTM,2024,127.838614777014,18.948262187153
$GPGGA,200735.00,3329.6292,N,11847.7904,W,1,08,1.3,12.0,M,-34.2,M,,*69
$PYRTM,2024,127.838626359086,18.948273769225
$GPGGA,200736.00,3329.6279,N,11847.7885,W,1,08,1.3,11.3,M,-34.2,M,,*67
$PYRTM,2024,127.838637924132,18.948285334271
$GPGGA,200737.00,3329.6265,N,11847.7864,W,1,08,1.3,11.0,M,-34.2,M,,*67
$PYRTM,2024,127.838649512188,18.948296922326
$GPGGA,200738.00,3329.6252,N,11847.7844,W,1,08,1.3,10.8,M,-34.2,M,,*67
$PYRTM,2024,127.838661074977,18.948308485116
$GPGGA,200739.00,3329.6237,N,11847.7825,W,1,08,1.3,10.9,M,-34.2,M,,*63
$PYRTM,2024,127.838668481331,18.948315891470
$GPGGA,200740.00,3329.6221,N,11847.7807,W,1,08,1.3,11.0,M,-34.2,M,,*62
$PYRTM,2024,127.838687115266,18.948334525405
$GPGGA,200741.00,3329.6205,N,11847.7788,W,1,08,1.3,11.1,M,-34.2,M,,*6C
$PYRTM,2024,127.838695812488,18.948343222627
$GPGGA,200742.00,3329.6191,N,11847.7766,W,1,08,1.3,11.2,M,-34.2,M,,*62
$PYRTM,2024,127.838707372604,18.948354782743
$GPGGA,200743.00,3329.6177,N,11847.7744,W,1,08,1.3,11.3,M,-34.2,M,,*6A
$PYRTM,2024,127.838718952639,18.948366362778
$GPGGA,200744.00,3329.6163,N,11847.7723,W,1,08,1.3,11.4,M,-34.2,M,,*6E
$PYRTM,2024,127.838730519329,18.948377929468
$GPGGA,200745.00,3329.6148,N,11847.7703,W,1,08,1.3,11.5,M,-34.2,M,,*65
$PYRTM,2024,127.838742105880,18.948389516019
$GPGGA,200746.00,3329.6133,N,11847.7684,W,1,08,1.3,11.3,M,-34.2,M,,*62
$PYRTM,2024,127.838753667269,18.948401077407
$GPGGA,200747.00,3329.6118,N,11847.7664,W,1,08,1.3,11.3,M,-34.2,M,,*64
$PYRTM,2024,127.838765250220,18.948412660359
$GPGGA,200748.00,3329.6105,N,11847.7643,W,1,08,1.3,11.4,M,-34.2,M,,*65
$PYRTM,2024,127.838776816273,18.948424226412
$GPGGA,200749.00,3329.6091,N,11847.7623,W,1,08,1.3,11.5,M,-34.2,M,,*6F
$PYRTM,2024,127.838788401979,18.948435812118
$GPGGA,200750.00,3329.6076,N,11847.7604,W,1,08,1.3,11.5,M,-34.2,M,,*6B
$PYRTM,2024,127.838799965231,18.948447375370
$GPGGA,200751.00,3329.6060,N,11847.7585,W,1,08,1.3,11.2,M,-34.2,M,,*60
$PYRTM,2024,127.838811552396,18.948458962546
$GPGGA,200752.00,3329.6046,N,11847.7565,W,1,08,1.3,11.0,M,-34.2,M,,*6B
$PYRTM,2024,127.838823113947,18.948470524097
$GPGGA,200753.00,3329.6033,N,11847.7543,W,1,08,1.3,11.1,M,-34.2,M,,*6D
$PYRTM,2024,127.838830521019,18.948477931157
$GPGGA,200754.00,3329.6020,N,11847.7521,W,1,08,1.3,11.2,M,-34.2,M,,*6F
$PYRTM,2024,127.838846261956,18.948493672095
$GPGGA,200755.00,3329.6005,N,11847.7501,W,1,08,1.3,11.2,M,-34.2,M,,*6B
$PYRTM,2024,127.838857851111,18.948505261250
$GPGGA,200756.00,3329.5989,N,11847.7482,W,1,08,1.3,11.1,M,-34.2,M,,*6F
$PYRTM,2024,127.838865241782,18.948512651921
$GPGGA,200757.00,3329.5973,N,11847.7463,W,1,08,1.3,11.4,M,-34.2,M,,*61
$PYRTM,2024,127.838880998831,18.948528408981
$GPGGA,200758.00,3329.5959,N,11847.7444,W,1,08,1.3,11.3,M,-34.2,M,,*64
$PYRTM,2024,127.838892558206,18.948539968345
$GPGGA,200759.00,3329.5944,N,11847.7423,W,1,08,1.3,11.2,M,-34.2,M,,*69
$PYRTM,2024,127.838904140231,18.948551550370
$GPGGA,200800.00,3329.5930,N,11847.7401,W,1,08,1.3,11.1,M,-34.2,M,,*6A
$PYRTM,2024,127.838915704294,18.948563114433
$GPGGA,200801.00,3329.5915,N,11847.7381,W,1,08,1.3,11.1,M,-34.2,M,,*63
$PYRTM,2024,127.838927291285,18.948574701424
$GPGGA,200802.00,3329.5901,N,11847.7361,W,1,08,1.3,11.3,M,-34.2,M,,*69
$PYRTM,2024,127.838934687546,18.948582097685
$GPGGA,200803.00,3329.5886,N,11847.7341,W,1,08,1.3,11.4,M,-34.2,M,,*63
$PYRTM,2024,127.838950441123,18.948597851273
$GPGGA,200804.00,3329.5872,N,11847.7321,W,1,08,1.3,11.4,M,-34.2,M,,*69
$PYRTM,2024,127.838962003113,18.948609413252
$GPGGA,200805.00,3329.5858,N,11847.7302,W,1,08,1.3,11.5,M,-34.2,M,,*60
$PYRTM,2024,127.838969409606,18.948616819745
$GPGGA,200806.00,3329.5844,N,11847.7282,W,1,08,1.3,11.5,M,-34.2,M,,*67
$PYRTM,2024,127.838985150486,18.948632560637
$GPGGA,200807.00,3329.5829,N,11847.7262,W,1,08,1.3,11.5,M,-34.2,M,,*63
$PYRTM,2024,127.838996740394,18.948644150532
$GPGGA,200808.00,3329.5814,N,11847.7242,W,1,08,1.3,11.4,M,-34.2,M,,*61
$PYRTM,2024,127.839008298113,18.948655708252
$GPGGA,200809.00,3329.5799,N,11847.7222,W,1,08,1.3,11.3,M,-34.2,M,,*6B
$PYRTM,2024,127.839019888310,18.948667298449
$GPGGA,200810.00,3329.5784,N,11847.7201,W,1,08,1.3,11.1,M,-34.2,M,,*6C
$PYRTM,2024,127.839027280046,18.948674690185
$GPGGA,200811.00,3329.5769,N,11847.7180,W,1,08,1.3,11.2,M,-34.2,M,,*67
$PYRTM,2024,127.839045930914,18.948693341053
$GPGGA,200812.00,3329.5754,N,11847.7159,W,1,08,1.3,11.3,M,-34.2,M,,*6F
$PYRTM,2024,127.839054596516,18.948702006655
$GPGGA,200813.00,3329.5738,N,11847.7140,W,1,08,1.3,11.5,M,-34.2,M,,*6A
$PYRTM,2024,127.839066183449,18.948713593588
$GPGGA,200814.00,3329.5722,N,11847.7119,W,1,08,1.3,11.4,M,-34.2,M,,*6B
$PYRTM,2024,127.839077743576,18.948725153715
$GPGGA,200815.00,3329.5708,N,11847.7098,W,1,08,1.3,11.3,M,-34.2,M,,*6D
$PYRTM,2024,127.839089327442,18.948736737581
$GPGGA,200816.00,3329.5694,N,11847.7076,W,1,08,1.3,11.3,M,-34.2,M,,*6A
$PYRTM,2024,127.839100892639,18.948748302778
$GPGGA,200817.00,3329.5679,N,11847.7056,W,1,08,1.3,11.4,M,-34.2,M,,*6D
$PYRTM,2024,127.839108297882,18.948755708021
$GPGGA,200818.00,3329.5664,N,11847.7037,W,1,08,1.3,11.4,M,-34.2,M,,*69
$PYRTM,2024,127.839124040058,18.948771450197
$GPGGA,200819.00,3329.5648,N,11847.7018,W,1,08,1.3,11.2,M,-34.2,M,,*6D
$PYRTM,2024,127.839135621620,18.948783031759
$GPGGA,200820.00,3329.5633,N,11847.6998,W,1,08,1.3,11.0,M,-34.2,M,,*69
$PYRTM,2024,127.839143021875,18.948790432014
$GPGGA,200821.00,3329.5619,N,11847.6977,W,1,08,1.3,10.9,M,-34.2,M,,*69
$PYRTM,2024,127.839158769954,18.948806180093
$GPGGA,200822.00,3329.5605,N,11847.6956,W,1,08,1.3,11.0,M,-34.2,M,,*6C
$PYRTM,2024,127.839170335648,18.948817745787
$GPGGA,200823.00,3329.5590,N,11847.6936,W,1,08,1.3,11.0,M,-34.2,M,,*64
$PYRTM,2024,127.839181927488,18.948829337627
$GPGGA,200824.00,3329.5575,N,11847.6916,W,1,08,1.3,11.0,M,-34.2,M,,*6A
$PYRTM,2024,127.839193484630,18.948840894769
$GPGGA,200825.00,3329.5559,N,11847.6896,W,1,08,1.3,10.9,M,-34.2,M,,*64
$PYRTM,2024,127.839205074688,18.948852484826
$GPGGA,200826.00,3329.5544,N,11847.6875,W,1,08,1.3,11.0,M,-34.2,M,,*6E
$PYRTM,2024,127.839212467477,18.948859877616
$GPGGA,200827.00,3329.5529,N,11847.6855,W,1,08,1.3,11.3,M,-34.2,M,,*65
$PYRTM,2024,127.839228216296,18.948875626435
$GPGGA,200828.00,3329.5514,N,11847.6834,W,1,08,1.3,11.5,M,-34.2,M,,*65
$PYRTM,2024,127.839239783021,18.948887193171
$GPGGA,200829.00,3329.5498,N,11847.6813,W,1,08,1.3,11.5,M,-34.2,M,,*64
$PYRTM,2024,127.839246506481,18.948893916620
$GPGGA,200830.00,3329.5483,N,11847.6792,W,1,08,1.3,11.2,M,-34.2,M,,*67
$PYRTM,2024,127.839262928588,18.948910338738
$GPGGA,200831.00,3329.5468,N,11847.6772,W,1,08,1.3,11.1,M,-34.2,M,,*6E
$PYRTM,2024,127.839274516933,18.948921927072
$GPGGA,200832.00,3329.5453,N,11847.6750,W,1,08,1.3,11.2,M,-34.2,M,,*66
$PYRTM,2024,127.839281222523,18.948928632662
$GPGGA,200833.00,3329.5439,N,11847.6729,W,1,08,1.3,11.3,M,-34.2,M,,*64
$PYRTM,2024,127.839297665139,18.948945075278
$GPGGA,200834.00,3329.5424,N,11847.6709,W,1,08,1.3,11.2,M,-34.2,M,,*6C
$PYRTM,2024,127.839309224757,18.948956634896
$GPGGA,200835.00,3329.5409,N,11847.6689,W,1,08,1.3,11.1,M,-34.2,M,,*68
$PYRTM,2024,127.839320845903,18.948968256042
