$PYRTM,2024,125.250003677523,16.359651087662
$GPGGA,055959.00,3514.1202,N,12152.0853,W,1,09,1.0,6.5,M,-32.5,M,,*50
$PYRTM,2024,125.250015250868,16.359662661007
$GPGGA,060000.00,3514.1208,N,12152.0857,W,1,09,1.0,7.0,M,-32.5,M,,*59
$PYRTM,2024,125.250026826053,16.359674236192
$GPGGA,060001.00,3514.1217,N,12152.0861,W,1,09,1.0,5.9,M,-32.5,M,,*58
$PYRTM,2024,125.250038412303,16.359685822442
$GPGGA,060002.00,3514.1221,N,12152.0869,W,1,09,1.0,6.0,M,-32.5,M,,*5C
$PYRTM,2024,125.250049968889,16.359697379028
$GPGGA,060003.00,3514.1222,N,12152.0879,W,1,09,1.0,5.1,M,-32.5,M,,*5D
$PYRTM,2024,125.250061547847,16.359708957986
$GPGGA,060004.00,3514.1223,N,12152.0885,W,1,09,1.0,5.3,M,-32.5,M,,*5A
$PYRTM,2024,125.250073122373,16.359720532523
$GPGGA,060005.00,3514.1231,N,12152.0888,W,1,09,1.0,5.8,M,-32.5,M,,*5E
$PYRTM,2024,125.250084697593,16.359732107731
$GPGGA,060006.00,3514.1239,N,12152.0892,W,1,09,1.0,6.1,M,-32.5,M,,*54
$PYRTM,2024,125.250096270174,16.359743680324
$GPGGA,060007.00,3514.1243,N,12152.0901,W,1,09,1.0,6.2,M,-32.5,M,,*50
$PYRTM,2024,125.250107852106,16.359755262257
$GPGGA,060008.00,3514.1242,N,12152.0911,W,1,09,1.0,6.0,M,-32.5,M,,*5D
$PYRTM,2024,125.250119419178,16.359766829329
$GPGGA,060009.00,3514.1241,N,12152.0918,W,1,09,1.0,6.3,M,-32.5,M,,*55
$PYRTM,2024,125.250131017766,16.359778427905
$GPGGA,060010.00,3514.1247,N,12152.0922,W,1,09,1.0,6.5,M,-32.5,M,,*54
$PYRTM,2024,125.250138393947,16.359785804086
$GPGGA,060011.00,3514.1256,N,12152.0925,W,1,09,1.0,6.3,M,-32.5,M,,*54
$PYRTM,2024,125.250154142199,16.359801552338
$GPGGA,060012.00,3514.1262,N,12152.0930,W,1,09,1.0,6.3,M,-32.5,M,,*54
$PYRTM,2024,125.250165715914,16.359813126053
$GPGGA,060013.00,3514.1262,N,12152.0938,W,1,09,1.0,6.5,M,-32.5,M,,*5B
$PYRTM,2024,125.250177288762,16.359824698900
$GPGGA,060014.00,3514.1263,N,12152.0947,W,1,09,1.0,6.8,M,-32.5,M,,*58
$PYRTM,2024,125.250188858449,16.359836268588
$GPGGA,060015.00,3514.1268,N,12152.0953,W,1,09,1.0,6.8,M,-32.5,M,,*57
$PYRTM,2024,125.250200437662,16.359847847801
$GPGGA,060016.00,3514.1276,N,12152.0957,W,1,09,1.0,7.0,M,-32.5,M,,*56
$PYRTM,2024,125.250212014167,16.359859424306
$GPGGA,060017.00,3514.1282,N,12152.0961,W,1,09,1.0,7.3,M,-32.5,M,,*5A
$PYRTM,2024,125.250223585706,16.359870995845
$GPGGA,060018.00,3514.1284,N,12152.0967,W,1,09,1.0,7.6,M,-32.5,M,,*50
$PYRTM,2024,125.250235159421,16.359882569560
$GPGGA,060019.00,3514.1286,N,12152.0974,W,1,09,1.0,7.8,M,-32.5,M,,*5F
$PYRTM,2024,125.250246735937,16.359894146076
$GPGGA,060020.00,3514.1291,N,12152.0981,W,1,09,1.0,7.6,M,-32.5,M,,*57
$PYRTM,2024,125.250258309664,16.359905719803
$GPGGA,060021.00,3514.1297,N,12152.0986,W,1,09,1.0,7.5,M,-32.5,M,,*54
$PYRTM,2024,125.250269889873,16.359917300012
$GPGGA,060022.00,3514.1303,N,12152.0991,W,1,09,1.0,7.5,M,-32.5,M,,*5D
$PYRTM,2024,125.250281459097,16.359928869236
$GPGGA,060023.00,3514.1306,N,12152.0997,W,1,09,1.0,7.7,M,-32.5,M,,*5D
$PYRTM,2024,125.250288851875,16.359936262025
$GPGGA,060024.00,3514.1308,N,12152.1005,W,1,09,1.0,8.4,M,-32.5,M,,*5B
$PYRTM,2024,125.250304599803,16.359952009942
$GPGGA,060025.00,3514.1312,N,12152.1012,W,1,09,1.0,9.0,M,-32.5,M,,*52
$PYRTM,2024,125.250316178438,16.359963588576
$GPGGA,060026.00,3514.1317,N,12152.1018,W,1,09,1.0,8.9,M,-32.5,M,,*56
$PYRTM,2024,125.250327753079,16.359975163218
$GPGGA,060027.00,3514.1322,N,12152.1025,W,1,09,1.0,8.4,M,-32.5,M,,*52
$PYRTM,2024,125.250335148588,16.359982558727
$GPGGA,060028.00,3514.1325,N,12152.1032,W,1,09,1.0,8.3,M,-32.5,M,,*5B
$PYRTM,2024,125.250353794965,16.360001205104
$GPGGA,060029.00,3514.1328,N,12152.1038,W,1,09,1.0,8.4,M,-32.5,M,,*5A
$PYRTM,2024,125.250362475845,16.360009885984
$GPGGA,060030.00,3514.1333,N,12152.1044,W,1,09,1.0,8.2,M,-32.5,M,,*55
$PYRTM,2024,125.250374049294,16.360021459433
$GPGGA,060031.00,3514.1338,N,12152.1051,W,1,09,1.0,7.9,M,-32.5,M,,*5F
$PYRTM,2024,125.250385634757,16.360033044896
$GPGGA,060032.00,3514.1342,N,12152.1058,W,1,09,1.0,7.7,M,-32.5,M,,*56
$PYRTM,2024,125.250397199225,16.360044609363
$GPGGA,060033.00,3514.1345,N,12152.1065,W,1,09,1.0,7.7,M,-32.5,M,,*5E
$PYRTM,2024,125.250408774965,16.360056185104
$GPGGA,060034.00,3514.1349,N,12152.1072,W,1,09,1.0,7.7,M,-32.5,M,,*53
$PYRTM,2024,125.250420347072,16.360067757211
$GPGGA,060035.00,3514.1356,N,12152.1078,W,1,09,1.0,7.4,M,-32.5,M,,*55
$PYRTM,2024,125.250431928403,16.360079338542
$GPGGA,060036.00,3514.1362,N,12152.1084,W,1,09,1.0,7.4,M,-32.5,M,,*52
$PYRTM,2024,125.250443490035,16.360090900174
$GPGGA,060037.00,3514.1363,N,12152.1092,W,1,09,1.0,7.7,M,-32.5,M,,*56
$PYRTM,2024,125.250455076204,16.360102486343
$GPGGA,060038.00,3514.1364,N,12152.1099,W,1,09,1.0,8.1,M,-32.5,M,,*5C
$PYRTM,2024,125.250466639398,16.360114049537
$GPGGA,060039.00,3514.1369,N,12152.1106,W,1,09,1.0,8.0,M,-32.5,M,,*56
$PYRTM,2024,125.250478216748,16.360125626887
$GPGGA,060040.00,3514.1378,N,12152.1112,W,1,09,1.0,7.6,M,-32.5,M,,*54
$PYRTM,2024,125.250489790903,16.360137201053
$GPGGA,060041.00,3514.1384,N,12152.1117,W,1,09,1.0,7.3,M,-32.5,M,,*56
$PYRTM,2024,125.250501364954,16.360148775104
$GPGGA,060042.00,3514.1386,N,12152.1124,W,1,09,1.0,7.4,M,-32.5,M,,*50
$PYRTM,2024,125.250508772523,16.360156182662
$GPGGA,060043.00,3514.1385,N,12152.1133,W,1,09,1.0,7.8,M,-32.5,M,,*58
$PYRTM,2024,125.250524631759,16.360172041898
$GPGGA,060044.00,3514.1389,N,12152.1140,W,1,09,1.0,8.0,M,-32.5,M,,*50
$PYRTM,2024,125.250536204514,16.360183614664
$GPGGA,060045.00,3514.1397,N,12152.1144,W,1,09,1.0,8.0,M,-32.5,M,,*5A
$PYRTM,2024,125.250547662049,16.360195072188
$GPGGA,060046.00,3514.1404,N,12152.1148,W,1,09,1.0,7.8,M,-32.5,M,,*5F
$PYRTM,2024,125.250559236470,16.360206646609
$GPGGA,060047.00,3514.1408,N,12152.1156,W,1,09,1.0,7.6,M,-32.5,M,,*53
$PYRTM,2024,125.250570810231,16.360218220382
$GPGGA,060048.00,3514.1408,N,12152.1165,W,1,09,1.0,7.3,M,-32.5,M,,*59
$PYRTM,2024,125.250582385625,16.360229795764
$GPGGA,060049.00,3514.1411,N,12152.1173,W,1,09,1.0,7.3,M,-32.5,M,,*57
$PYRTM,2024,125.250589779884,16.360237190023
$GPGGA,060050.00,3514.1416,N,12152.1178,W,1,09,1.0,7.5,M,-32.5,M,,*55
$PYRTM,2024,125.250605531806,16.360252941944
$GPGGA,060051.00,3514.1423,N,12152.1183,W,1,09,1.0,7.8,M,-32.5,M,,*5B
$PYRTM,2024,125.250617093148,16.360264503287
$GPGGA,060052.00,3514.1428,N,12152.1189,W,1,09,1.0,7.9,M,-32.5,M,,*58
$PYRTM,2024,125.250624500336,16.360271910475
$GPGGA,060053.00,3514.1431,N,12152.1198,W,1,09,1.0,7.9,M,-32.5,M,,*51
$PYRTM,2024,125.250640242211,16.360287652350
$GPGGA,060054.00,3514.1432,N,12152.1207,W,1,09,1.0,7.7,M,-32.5,M,,*5E
$PYRTM,2024,125.250651830243,16.360299240382
$GPGGA,060055.00,3514.1436,N,12152.1214,W,1,09,1.0,7.7,M,-32.5,M,,*59
$PYRTM,2024,125.250659223437,16.360306633576
$GPGGA,060056.00,3514.1442,N,12152.1217,W,1,09,1.0,7.8,M,-32.5,M,,*55
$PYRTM,2024,125.250674979062,16.360322389201
$GPGGA,060057.00,3514.1449,N,12152.1221,W,1,09,1.0,8.3,M,-32.5,M,,*5E
$PYRTM,2024,125.250686538831,16.360333948970
$GPGGA,060058.00,3514.1453,N,12152.1228,W,1,09,1.0,8.5,M,-32.5,M,,*55
$PYRTM,2024,125.250693945637,16.360341355775
$GPGGA,060059.00,3514.1455,N,12152.1238,W,1,09,1.0,8.3,M,-32.5,M,,*55
$PYRTM,2024,125.250712593021,16.360360003160
$GPGGA,060100.00,3514.1458,N,12152.1246,W,1,09,1.0,8.0,M,-32.5,M,,*5F
$PYRTM,2024,125.250721275023,16.360368685162
$GPGGA,060101.00,3514.1464,N,12152.1250,W,1,09,1.0,8.0,M,-32.5,M,,*56
$PYRTM,2024,125.250728682014,16.360376092153
$GPGGA,060102.00,3514.1471,N,12152.1253,W,1,09,1.0,8.1,M,-32.5,M,,*53
$PYRTM,2024,125.250744424433,16.360391834572
$GPGGA,060103.00,3514.1477,N,12152.1259,W,1,09,1.0,8.2,M,-32.5,M,,*5D
$PYRTM,2024,125.250755984630,16.360403394769
$GPGGA,060104.00,3514.1479,N,12152.1268,W,1,09,1.0,8.1,M,-32.5,M,,*55
$PYRTM,2024,125.250767571771,16.360414981910
$GPGGA,060105.00,3514.1480,N,12152.1279,W,1,09,1.0,8.1,M,-32.5,M,,*52
$PYRTM,2024,125.250779131944,16.360426542083
$GPGGA,060106.00,3514.1483,N,12152.1285,W,1,09,1.0,8.1,M,-32.5,M,,*51
$PYRTM,2024,125.250790719549,16.360438129699
$GPGGA,060107.00,3514.1490,N,12152.1288,W,1,09,1.0,8.0,M,-32.5,M,,*5E
$PYRTM,2024,125.250798117303,16.360445527454
$GPGGA,060108.00,3514.1499,N,12152.1293,W,1,09,1.0,7.7,M,-32.5,M,,*5A
$PYRTM,2024,125.250813868611,16.360461278750
$GPGGA,060109.00,3514.1502,N,12152.1302,W,1,09,1.0,7.6,M,-32.5,M,,*50
$PYRTM,2024,125.250825428611,16.360472838762
$GPGGA,060110.00,3514.1501,N,12152.1311,W,1,09,1.0,8.1,M,-32.5,M,,*51
$PYRTM,2024,125.250837018993,16.360484429132
$GPGGA,060111.00,3514.1503,N,12152.1318,W,1,09,1.0,8.5,M,-32.5,M,,*5F
$PYRTM,2024,125.250848577859,16.360495987998
$GPGGA,060112.00,3514.1511,N,12152.1323,W,1,09,1.0,8.5,M,-32.5,M,,*57
$PYRTM,2024,125.250860178750,16.360507588889
$GPGGA,060113.00,3514.1520,N,12152.1328,W,1,09,1.0,8.2,M,-32.5,M,,*58
$PYRTM,2024,125.250871725023,16.360519135162
$GPGGA,060114.00,3514.1525,N,12152.1333,W,1,09,1.0,8.0,M,-32.5,M,,*52
$PYRTM,2024,125.250883306817,16.360530716956
$GPGGA,060115.00,3514.1525,N,12152.1340,W,1,09,1.0,8.1,M,-32.5,M,,*56
$PYRTM,2024,125.250894873738,16.360542283889
$GPGGA,060116.00,3514.1527,N,12152.1350,W,1,09,1.0,8.0,M,-32.5,M,,*57
$PYRTM,2024,125.250906456852,16.360553866991
$GPGGA,060117.00,3514.1532,N,12152.1358,W,1,09,1.0,7.6,M,-32.5,M,,*53
$PYRTM,2024,125.250918022106,16.360565432257
$GPGGA,060118.00,3514.1540,N,12152.1362,W,1,09,1.0,7.4,M,-32.5,M,,*52
$PYRTM,2024,125.250929611991,16.360577022130
$GPGGA,060119.00,3514.1547,N,12152.1362,W,1,09,1.0,7.7,M,-32.5,M,,*57
$PYRTM,2024,125.250941170012,16.360588580150
$GPGGA,060120.00,3514.1551,N,12152.1367,W,1,09,1.0,8.0,M,-32.5,M,,*57
$PYRTM,2024,125.250952757083,16.360600167222
$GPGGA,060121.00,3514.1552,N,12152.1379,W,1,09,1.0,7.9,M,-32.5,M,,*5C
$PYRTM,2024,125.250964319225,16.360611729375
$GPGGA,060122.00,3514.1552,N,12152.1389,W,1,09,1.0,7.6,M,-32.5,M,,*5F
$PYRTM,2024,125.250971725961,16.360619136100
$GPGGA,060123.00,3514.1556,N,12152.1394,W,1,09,1.0,7.9,M,-32.5,M,,*59
$PYRTM,2024,125.250987466736,16.360634876875
$GPGGA,060124.00,3514.1565,N,12152.1395,W,1,09,1.0,8.0,M,-32.5,M,,*59
$PYRTM,2024,125.250999054005,16.360646464155
$GPGGA,060125.00,3514.1573,N,12152.1398,W,1,09,1.0,7.8,M,-32.5,M,,*55
$PYRTM,2024,125.251006449294,16.360653859433
$GPGGA,060126.00,3514.1574,N,12152.1406,W,1,09,1.0,7.9,M,-32.5,M,,*50
$PYRTM,2024,125.251022204687,16.360669614826
$GPGGA,060127.00,3514.1572,N,12152.1416,W,1,09,1.0,8.3,M,-32.5,M,,*53
$PYRTM,2024,125.251033764896,16.360681175035
$GPGGA,060128.00,3514.1576,N,12152.1425,W,1,09,1.0,8.3,M,-32.5,M,,*58
$PYRTM,2024,125.251045350521,16.360692760660
$GPGGA,060129.00,3514.1586,N,12152.1429,W,1,09,1.0,7.9,M,-32.5,M,,*5F
$PYRTM,2024,125.251052758113,16.360700168252
$GPGGA,060130.00,3514.1593,N,12152.1431,W,1,09,1.0,7.8,M,-32.5,M,,*5B
$PYRTM,2024,125.251071392049,16.360718802187
$GPGGA,060131.00,3514.1596,N,12152.1436,W,1,09,1.0,8.1,M,-32.5,M,,*5E
$PYRTM,2024,125.251080059838,16.360727469977
$GPGGA,060132.00,3514.1598,N,12152.1444,W,1,09,1.0,7.8,M,-32.5,M,,*50
$PYRTM,2024,125.251091646539,16.360739056678
$GPGGA,060133.00,3514.1601,N,12152.1454,W,1,09,1.0,7.6,M,-32.5,M,,*5D
$PYRTM,2024,125.251103207199,16.360750617338
$GPGGA,060134.00,3514.1606,N,12152.1461,W,1,09,1.0,7.5,M,-32.5,M,,*58
$PYRTM,2024,125.251114795382,16.360762205521
$GPGGA,060135.00,3514.1610,N,12152.1465,W,1,09,1.0,7.7,M,-32.5,M,,*58
$PYRTM,2024,125.251126357870,16.360773768009
$GPGGA,060136.00,3514.1613,N,12152.1470,W,1,09,1.0,7.8,M,-32.5,M,,*53
$PYRTM,2024,125.251137943889,16.360785354028
$GPGGA,060137.00,3514.1616,N,12152.1477,W,1,09,1.0,7.5,M,-32.5,M,,*5D
$PYRTM,2024,125.251149506366,16.360796916505
$GPGGA,060138.00,3514.1621,N,12152.1485,W,1,09,1.0,7.2,M,-32.5,M,,*5C
$PYRTM,2024,125.251161106019,16.360808516157
$GPGGA,060139.00,3514.1627,N,12152.1491,W,1,09,1.0,6.9,M,-32.5,M,,*54
$PYRTM,2024,125.251172652500,16.360820062650
$GPGGA,060140.00,3514.1631,N,12152.1497,W,1,09,1.0,7.1,M,-32.5,M,,*52
$PYRTM,2024,125.251184244931,16.360831655069
$GPGGA,060141.00,3514.1632,N,12152.1503,W,1,09,1.0,7.6,M,-32.5,M,,*5B
$PYRTM,2024,125.251195801644,16.360843211782
$GPGGA,060142.00,3514.1634,N,12152.1510,W,1,09,1.0,8.3,M,-32.5,M,,*56
$PYRTM,2024,125.251207391852,16.360854801991
$GPGGA,060143.00,3514.1641,N,12152.1516,W,1,09,1.0,8.4,M,-32.5,M,,*54
$PYRTM,2024,125.251218949826,16.360866359965
$GPGGA,060144.00,3514.1650,N,12152.1521,W,1,09,1.0,7.9,M,-32.5,M,,*55
$PYRTM,2024,125.251230532164,16.360877942303
$GPGGA,060145.00,3514.1655,N,12152.1527,W,1,09,1.0,7.6,M,-32.5,M,,*58
$PYRTM,2024,125.251242097234,16.360889507373
$GPGGA,060146.00,3514.1655,N,12152.1533,W,1,09,1.0,7.6,M,-32.5,M,,*5E
$PYRTM,2024,125.251253684630,16.360901094780
$GPGGA,060147.00,3514.1655,N,12152.1541,W,1,09,1.0,7.8,M,-32.5,M,,*54
$PYRTM,2024,125.251265245845,16.360912655984
$GPGGA,060148.00,3514.1659,N,12152.1547,W,1,09,1.0,7.8,M,-32.5,M,,*51
$PYRTM,2024,125.251276832859,16.360924242998
$GPGGA,060149.00,3514.1667,N,12152.1553,W,1,09,1.0,7.3,M,-32.5,M,,*53
$PYRTM,2024,125.251288395278,16.360935805417
$GPGGA,060150.00,3514.1673,N,12152.1557,W,1,09,1.0,6.8,M,-32.5,M,,*50
$PYRTM,2024,125.251299981111,16.360947391250
$GPGGA,060151.00,3514.1675,N,12152.1564,W,1,09,1.0,6.8,M,-32.5,M,,*57
$PYRTM,2024,125.251311543264,16.360958953414
$GPGGA,060152.00,3514.1675,N,12152.1572,W,1,09,1.0,6.9,M,-32.5,M,,*52
$PYRTM,2024,125.251323132361,16.360970542500
$GPGGA,060153.00,3514.1679,N,12152.1581,W,1,09,1.0,7.0,M,-32.5,M,,*5B
$PYRTM,2024,125.251334690926,16.360982101065
$GPGGA,060154.00,3514.1687,N,12152.1587,W,1,09,1.0,6.7,M,-32.5,M,,*5D
$PYRTM,2024,125.251342098414,16.360989508565
$GPGGA,060155.00,3514.1693,N,12152.1590,W,1,09,1.0,6.8,M,-32.5,M,,*50
$PYRTM,2024,125.251357838588,16.361005248727
$GPGGA,060156.00,3514.1696,N,12152.1594,W,1,09,1.0,7.2,M,-32.5,M,,*59
$PYRTM,2024,125.251369426296,16.361016836435
$GPGGA,060157.00,3514.1700,N,12152.1603,W,1,09,1.0,7.3,M,-32.5,M,,*5A
$PYRTM,2024,125.251376835810,16.361024245949
$GPGGA,060158.00,3514.1705,N,12152.1612,W,1,09,1.0,7.1,M,-32.5,M,,*52
$PYRTM,2024,125.251392575729,16.361039985868
$GPGGA,060159.00,3514.1709,N,12152.1619,W,1,09,1.0,7.1,M,-32.5,M,,*54
$PYRTM,2024,125.251404136262,16.361051546400
$GPGGA,060200.00,3514.1712,N,12152.1624,W,1,09,1.0,7.3,M,-32.5,M,,*5D
$PYRTM,2024,125.251411543206,16.361058953345
$GPGGA,060201.00,3514.1715,N,12152.1629,W,1,09,1.0,7.6,M,-32.5,M,,*53
$PYRTM,2024,125.251430197697,16.361077607836
$GPGGA,060202.00,3514.1720,N,12152.1635,W,1,09,1.0,7.6,M,-32.5,M,,*5B
$PYRTM,2024,125.251438873530,16.361086283669
$GPGGA,060203.00,3514.1726,N,12152.1641,W,1,09,1.0,7.5,M,-32.5,M,,*5C
$PYRTM,2024,125.251446265648,16.361093675787
$GPGGA,060204.00,3514.1730,N,12152.1648,W,1,09,1.0,7.6,M,-32.5,M,,*56
$PYRTM,2024,125.251462018507,16.361109428646
$GPGGA,060205.00,3514.1731,N,12152.1655,W,1,09,1.0,7.6,M,-32.5,M,,*5A
$PYRTM,2024,125.251473581516,16.361120991655
$GPGGA,060206.00,3514.1732,N,12152.1662,W,1,09,1.0,7.5,M,-32.5,M,,*5D
$PYRTM,2024,125.251480989225,16.361128399363
$GPGGA,060207.00,3514.1736,N,12152.1668,W,1,09,1.0,7.6,M,-32.5,M,,*51
$PYRTM,2024,125.251496729780,16.361144139919
$GPGGA,060208.00,3514.1743,N,12152.1672,W,1,09,1.0,7.7,M,-32.5,M,,*56
$PYRTM,2024,125.251508318681,16.361155728819
$GPGGA,060209.00,3514.1749,N,12152.1675,W,1,09,1.0,8.0,M,-32.5,M,,*52
$PYRTM,2024,125.251515710937,16.361163121076
$GPGGA,060210.00,3514.1751,N,12152.1680,W,1,09,1.0,8.3,M,-32.5,M,,*5A
$PYRTM,2024,125.251531467234,16.361178877384
$GPGGA,060211.00,3514.1753,N,12152.1690,W,1,09,1.0,7.8,M,-32.5,M,,*5C
$PYRTM,2024,125.251543025891,16.361190436030
$GPGGA,060212.00,3514.1756,N,12152.1698,W,1,09,1.0,7.4,M,-32.5,M,,*5E
$PYRTM,2024,125.251554607234,16.361202017373
$GPGGA,060213.00,3514.1761,N,12152.1703,W,1,09,1.0,7.4,M,-32.5,M,,*58
$PYRTM,2024,125.251566175301,16.361213585440
$GPGGA,060214.00,3514.1766,N,12152.1705,W,1,09,1.0,7.7,M,-32.5,M,,*5D
$PYRTM,2024,125.251577763657,16.361225173796
$GPGGA,060215.00,3514.1770,N,12152.1710,W,1,09,1.0,7.9,M,-32.5,M,,*51
$PYRTM,2024,125.251585169062,16.361232579201
$GPGGA,060216.00,3514.1775,N,12152.1718,W,1,09,1.0,7.9,M,-32.5,M,,*5F
$PYRTM,2024,125.251600910995,16.361248321146
$GPGGA,060217.00,3514.1779,N,12152.1726,W,1,09,1.0,7.8,M,-32.5,M,,*5E
$PYRTM,2024,125.251612471111,16.361259881250
$GPGGA,060218.00,3514.1783,N,12152.1731,W,1,09,1.0,7.7,M,-32.5,M,,*5D
$PYRTM,2024,125.251619876574,16.361267286713
$GPGGA,060219.00,3514.1786,N,12152.1738,W,1,09,1.0,7.8,M,-32.5,M,,*5F
$PYRTM,2024,125.251635619248,16.361283029387
$GPGGA,060220.00,3514.1790,N,12152.1744,W,1,09,1.0,7.6,M,-32.5,M,,*57
$PYRTM,2024,125.251647209861,16.361294620000
$GPGGA,060221.00,3514.1795,N,12152.1750,W,1,09,1.0,7.6,M,-32.5,M,,*56
$PYRTM,2024,125.251658768356,16.361306178495
$GPGGA,060222.00,3514.1800,N,12152.1754,W,1,09,1.0,7.9,M,-32.5,M,,*5D
$PYRTM,2024,125.251670368530,16.361317778669
$GPGGA,060223.00,3514.1805,N,12152.1758,W,1,09,1.0,8.5,M,-32.5,M,,*56
$PYRTM,2024,125.251681915903,16.361329326042
$GPGGA,060224.00,3514.1808,N,12152.1766,W,1,09,1.0,8.0,M,-32.5,M,,*54
$PYRTM,2024,125.251693504387,16.361340914525
$GPGGA,060225.00,3514.1810,N,12152.1777,W,1,09,1.0,7.2,M,-32.5,M,,*51
$PYRTM,2024,125.251705067928,16.361352478067
$GPGGA,060226.00,3514.1813,N,12152.1785,W,1,09,1.0,7.4,M,-32.5,M,,*5A
$PYRTM,2024,125.251712472211,16.361359882350
$GPGGA,060227.00,3514.1819,N,12152.1788,W,1,09,1.0,7.7,M,-32.5,M,,*5F
$PYRTM,2024,125.251728213079,16.361375623218
$GPGGA,060228.00,3514.1826,N,12152.1788,W,1,09,1.0,8.5,M,-32.5,M,,*51
$PYRTM,2024,125.251739803067,16.361387213206
$GPGGA,060229.00,3514.1832,N,12152.1794,W,1,09,1.0,9.0,M,-32.5,M,,*5C
$PYRTM,2024,125.251747202257,16.361394612407
$GPGGA,060230.00,3514.1832,N,12152.1806,W,1,09,1.0,8.6,M,-32.5,M,,*57
$PYRTM,2024,125.251762947373,16.361410357512
$GPGGA,060231.00,3514.1834,N,12152.1816,W,1,09,1.0,8.4,M,-32.5,M,,*53
$PYRTM,2024,125.251770341435,16.361417751574
$GPGGA,060232.00,3514.1840,N,12152.1819,W,1,09,1.0,8.1,M,-32.5,M,,*59
$PYRTM,2024,125.251788989109,16.361436399248
$GPGGA,060233.00,3514.1851,N,12152.1821,W,1,09,1.0,7.9,M,-32.5,M,,*54
$PYRTM,2024,125.251797657731,16.361445067870
$GPGGA,060234.00,3514.1857,N,12152.1826,W,1,09,1.0,7.9,M,-32.5,M,,*52
$PYRTM,2024,125.251809240058,16.361456650208
$GPGGA,060235.00,3514.1856,N,12152.1836,W,1,09,1.0,8.2,M,-32.5,M,,*57
$PYRTM,2024,125.251816638819,16.361464048958
$GPGGA,060236.00,3514.1855,N,12152.1846,W,1,09,1.0,8.5,M,-32.5,M,,*57
$PYRTM,2024,125.251832395498,16.361479805637
$GPGGA,060237.00,3514.1861,N,12152.1853,W,1,09,1.0,8.7,M,-32.5,M,,*57
$PYRTM,2024,125.251843953102,16.361491363241
$GPGGA,060238.00,3514.1871,N,12152.1855,W,1,09,1.0,8.5,M,-32.5,M,,*5D
$PYRTM,2024,125.251851362535,16.361498772674
$GPGGA,060239.00,3514.1879,N,12152.1859,W,1,09,1.0,7.9,M,-32.5,M,,*5B
$PYRTM,2024,125.251867101944,16.361514512083
$GPGGA,060240.00,3514.1879,N,12152.1869,W,1,09,1.0,7.9,M,-32.5,M,,*56
$PYRTM,2024,125.251878688623,16.361526098762
$GPGGA,060241.00,3514.1876,N,12152.1879,W,1,09,1.0,8.6,M,-32.5,M,,*59
$PYRTM,2024,125.251886096933,16.361533507072
$GPGGA,060242.00,3514.1879,N,12152.1884,W,1,09,1.0,9.2,M,-32.5,M,,*52
$PYRTM,2024,125.251901832778,16.361549242917
$GPGGA,060243.00,3514.1888,N,12152.1887,W,1,09,1.0,9.1,M,-32.5,M,,*5D
$PYRTM,2024,125.251913398935,16.361560809074
$GPGGA,060244.00,3514.1898,N,12152.1892,W,1,09,1.0,8.5,M,-32.5,M,,*5A
$PYRTM,2024,125.251924985336,16.361572395486
$GPGGA,060245.00,3514.1903,N,12152.1900,W,1,09,1.0,8.2,M,-32.5,M,,*55
$PYRTM,2024,125.251936546725,16.361583956863
$GPGGA,060246.00,3514.1900,N,12152.1909,W,1,09,1.0,8.4,M,-32.5,M,,*5A
$PYRTM,2024,125.251948136748,16.361595546887
$GPGGA,060247.00,3514.1900,N,12152.1914,W,1,09,1.0,9.2,M,-32.5,M,,*50
$PYRTM,2024,125.251955531343,16.361602941481
$GPGGA,060248.00,3514.1906,N,12152.1917,W,1,09,1.0,9.7,M,-32.5,M,,*5F
$PYRTM,2024,125.251967244676,16.361614654815
$GPGGA,060249.00,3514.1915,N,12152.1923,W,1,09,1.0,9.4,M,-32.5,M,,*58
$PYRTM,2024,125.251982982072,16.361630392211
$GPGGA,060250.00,3514.1921,N,12152.1931,W,1,09,1.0,8.6,M,-32.5,M,,*57
$PYRTM,2024,125.251994545637,16.361641955775
$GPGGA,060251.00,3514.1923,N,12152.1940,W,1,09,1.0,8.4,M,-32.5,M,,*50
$PYRTM,2024,125.252005992350,16.361653402488
$GPGGA,060252.00,3514.1923,N,12152.1946,W,1,09,1.0,8.4,M,-32.5,M,,*55
$PYRTM,2024,125.252017581493,16.361664991632
$GPGGA,060253.00,3514.1925,N,12152.1950,W,1,09,1.0,8.4,M,-32.5,M,,*55
$PYRTM,2024,125.252029141123,16.361676551262
$GPGGA,060254.00,3514.1931,N,12152.1957,W,1,09,1.0,8.2,M,-32.5,M,,*56
$PYRTM,2024,125.252036547870,16.361683958009
$GPGGA,060255.00,3514.1938,N,12152.1964,W,1,09,1.0,7.7,M,-32.5,M,,*54
$PYRTM,2024,125.252052287326,16.361699697465
$GPGGA,060256.00,3514.1943,N,12152.1971,W,1,09,1.0,7.2,M,-32.5,M,,*5A
$PYRTM,2024,125.252063875880,16.361711286030
$GPGGA,060257.00,3514.1946,N,12152.1977,W,1,09,1.0,7.0,M,-32.5,M,,*5A
$PYRTM,2024,125.252075436991,16.361722847130
$GPGGA,060258.00,3514.1948,N,12152.1981,W,1,09,1.0,7.0,M,-32.5,M,,*52
$PYRTM,2024,125.252087023924,16.361734434063
$GPGGA,060259.00,3514.1951,N,12152.1986,W,1,09,1.0,7.1,M,-32.5,M,,*5D
$PYRTM,2024,125.252098585544,16.361745995683
$GPGGA,060300.00,3514.1957,N,12152.1991,W,1,09,1.0,7.1,M,-32.5,M,,*50
$PYRTM,2024,125.252110172257,16.361757582396
$GPGGA,060301.00,3514.1962,N,12152.1999,W,1,09,1.0,6.6,M,-32.5,M,,*59
$PYRTM,2024,125.252121732882,16.361769143021
$GPGGA,060302.00,3514.1964,N,12152.2008,W,1,09,1.0,6.2,M,-32.5,M,,*5A
$PYRTM,2024,125.252129142072,16.361776552211
$GPGGA,060303.00,3514.1966,N,12152.2014,W,1,09,1.0,6.0,M,-32.5,M,,*56
$PYRTM,2024,125.252147797674,16.361795207813
$GPGGA,060304.00,3514.1972,N,12152.2018,W,1,09,1.0,6.2,M,-32.5,M,,*5A
$PYRTM,2024,125.252156471192,16.361803881331
$GPGGA,060305.00,3514.1979,N,12152.2022,W,1,09,1.0,6.3,M,-32.5,M,,*58
$PYRTM,2024,125.252168029456,16.361815439595
$GPGGA,060306.00,3514.1984,N,12152.2028,W,1,09,1.0,6.4,M,-32.5,M,,*54
$PYRTM,2024,125.252175437963,16.361822848102
$GPGGA,060307.00,3514.1987,N,12152.2035,W,1,09,1.0,6.6,M,-32.5,M,,*58
$PYRTM,2024,125.252191178681,16.361838588831
$GPGGA,060308.00,3514.1990,N,12152.2043,W,1,09,1.0,6.9,M,-32.5,M,,*5F
$PYRTM,2024,125.252202769861,16.361850180000
$GPGGA,060309.00,3514.1993,N,12152.2050,W,1,09,1.0,6.9,M,-32.5,M,,*5F
$PYRTM,2024,125.252214327373,16.361861737512
$GPGGA,060310.00,3514.2000,N,12152.2053,W,1,09,1.0,6.8,M,-32.5,M,,*55
$PYRTM,2024,125.252225908796,16.361873318935
$GPGGA,060311.00,3514.2007,N,12152.2055,W,1,09,1.0,6.4,M,-32.5,M,,*59
$PYRTM,2024,125.252237475405,16.361884885544
$GPGGA,060312.00,3514.2011,N,12152.2062,W,1,09,1.0,6.1,M,-32.5,M,,*5C
$PYRTM,2024,125.252249055845,16.361896465984
$GPGGA,060313.00,3514.2012,N,12152.2072,W,1,09,1.0,6.0,M,-32.5,M,,*5E
$PYRTM,2024,125.252260623380,16.361908033519
$GPGGA,060314.00,3514.2013,N,12152.2081,W,1,09,1.0,6.3,M,-32.5,M,,*57
$PYRTM,2024,125.252272204387,16.361919614525
$GPGGA,060315.00,3514.2017,N,12152.2086,W,1,09,1.0,6.2,M,-32.5,M,,*54
$PYRTM,2024,125.252279604097,16.361927014236
$GPGGA,060316.00,3514.2023,N,12152.2090,W,1,09,1.0,6.3,M,-32.5,M,,*56
$PYRTM,2024,125.252295352917,16.361942763056
$GPGGA,060317.00,3514.2029,N,12152.2096,W,1,09,1.0,6.0,M,-32.5,M,,*58
$PYRTM,2024,125.252306920023,16.361954330162
$GPGGA,060318.00,3514.2030,N,12152.2106,W,1,09,1.0,5.7,M,-32.5,M,,*53
$PYRTM,2024,125.252318508171,16.361965918310
$GPGGA,060319.00,3514.2030,N,12152.2116,W,1,09,1.0,5.9,M,-32.5,M,,*5D
$PYRTM,2024,125.252330067465,16.361977477604
$GPGGA,060320.00,3514.2034,N,12152.2122,W,1,09,1.0,6.5,M,-32.5,M,,*5B
$PYRTM,2024,125.252341669931,16.361989080069
$GPGGA,060321.00,3514.2042,N,12152.2124,W,1,09,1.0,7.2,M,-32.5,M,,*5B
$PYRTM,2024,125.252353215799,16.362000625938
$GPGGA,060322.00,3514.2051,N,12152.2128,W,1,09,1.0,7.1,M,-32.5,M,,*55
$PYRTM,2024,125.252364803877,16.362012214028
$GPGGA,060323.00,3514.2056,N,12152.2135,W,1,09,1.0,6.4,M,-32.5,M,,*5B
$PYRTM,2024,125.252376363438,16.362023773576
$GPGGA,060324.00,3514.2056,N,12152.2144,W,1,09,1.0,6.9,M,-32.5,M,,*57
$PYRTM,2024,125.252387951991,16.362035362130
$GPGGA,060325.00,3514.2059,N,12152.2152,W,1,09,1.0,6.8,M,-32.5,M,,*5F
$PYRTM,2024,125.252399511817,16.362046921956
$GPGGA,060326.00,3514.2067,N,12152.2158,W,1,09,1.0,6.7,M,-32.5,M,,*54
$PYRTM,2024,125.252406918889,16.362054329028
$GPGGA,060327.00,3514.2076,N,12152.2161,W,1,09,1.0,6.7,M,-32.5,M,,*5F
$PYRTM,2024,125.252422660984,16.362070071123
$GPGGA,060328.00,3514.2080,N,12152.2167,W,1,09,1.0,6.9,M,-32.5,M,,*51
$PYRTM,2024,125.252434247755,16.362081657894
$GPGGA,060329.00,3514.2081,N,12152.2176,W,1,09,1.0,7.2,M,-32.5,M,,*5B
$PYRTM,2024,125.252441642083,16.362089052222
$GPGGA,060330.00,3514.2082,N,12152.2187,W,1,09,1.0,6.9,M,-32.5,M,,*54
$PYRTM,2024,125.252457398970,16.362104809109
$GPGGA,060331.00,3514.2087,N,12152.2194,W,1,09,1.0,6.6,M,-32.5,M,,*5D
$PYRTM,2024,125.252468957778,16.362116367928
$GPGGA,060332.00,3514.2094,N,12152.2199,W,1,09,1.0,6.3,M,-32.5,M,,*54
$PYRTM,2024,125.252480544248,16.362127954387
$GPGGA,060333.00,3514.2099,N,12152.2203,W,1,09,1.0,6.6,M,-32.5,M,,*5D
$PYRTM,2024,125.252487940775,16.362135350914
$GPGGA,060334.00,3514.2102,N,12152.2210,W,1,09,1.0,7.0,M,-32.5,M,,*5C
$PYRTM,2024,125.252506587025,16.362153997164
$GPGGA,060335.00,3514.2103,N,12152.2220,W,1,09,1.0,7.3,M,-32.5,M,,*5C
$PYRTM,2024,125.252518172002,16.362165582141
$GPGGA,060336.00,3514.2107,N,12152.2229,W,1,09,1.0,7.2,M,-32.5,M,,*53
$PYRTM,2024,125.252529733796,16.362177143935
$GPGGA,060337.00,3514.2114,N,12152.2236,W,1,09,1.0,7.0,M,-32.5,M,,*5C
$PYRTM,2024,125.252538402095,16.362185812234
$GPGGA,060338.00,3514.2121,N,12152.2240,W,1,09,1.0,6.9,M,-32.5,M,,*5C
$PYRTM,2024,125.252545809201,16.362193219340
$GPGGA,060339.00,3514.2126,N,12152.2245,W,1,09,1.0,6.9,M,-32.5,M,,*5F
$PYRTM,2024,125.252561549687,16.362208959826
$GPGGA,060340.00,3514.2128,N,12152.2253,W,1,09,1.0,7.3,M,-32.5,M,,*53
$PYRTM,2024,125.252573137465,16.362220547604
$GPGGA,060341.00,3514.2129,N,12152.2262,W,1,09,1.0,7.5,M,-32.5,M,,*57
$PYRTM,2024,125.252580531343,16.362227941493
$GPGGA,060342.00,3514.2134,N,12152.2269,W,1,09,1.0,7.4,M,-32.5,M,,*52
$PYRTM,2024,125.252596285451,16.362243695590
$GPGGA,060343.00,3514.2141,N,12152.2274,W,1,09,1.0,6.6,M,-32.5,M,,*5E
$PYRTM,2024,125.252607847384,16.362255257523
$GPGGA,060344.00,3514.2146,N,12152.2280,W,1,09,1.0,6.4,M,-32.5,M,,*57
$PYRTM,2024,125.252615255162,16.362262665312
$GPGGA,060345.00,3514.2149,N,12152.2286,W,1,09,1.0,6.8,M,-32.5,M,,*53
$PYRTM,2024,125.252630993241,16.362278403380
$GPGGA,060346.00,3514.2151,N,12152.2294,W,1,09,1.0,7.2,M,-32.5,M,,*51
$PYRTM,2024,125.252642597465,16.362290007604
$GPGGA,060347.00,3514.2154,N,12152.2302,W,1,09,1.0,7.6,M,-32.5,M,,*5F
$PYRTM,2024,125.252654142164,16.362301552303
$GPGGA,060348.00,3514.2160,N,12152.2309,W,1,09,1.0,7.9,M,-32.5,M,,*53
$PYRTM,2024,125.252660508102,16.362307918241
$GPGGA,060349.00,3514.2167,N,12152.2315,W,1,09,1.0,7.5,M,-32.5,M,,*54
$PYRTM,2024,125.252677291539,16.362324701678
$GPGGA,060350.00,3514.2172,N,12152.2322,W,1,09,1.0,7.0,M,-32.5,M,,*59
$PYRTM,2024,125.252688875289,16.362336285428
$GPGGA,060351.00,3514.2174,N,12152.2330,W,1,09,1.0,6.8,M,-32.5,M,,*54
$PYRTM,2024,125.252700440174,16.362347850312
$GPGGA,060352.00,3514.2175,N,12152.2337,W,1,09,1.0,7.4,M,-32.5,M,,*5C
$PYRTM,2024,125.252712028947,16.362359439086
$GPGGA,060353.00,3514.2181,N,12152.2341,W,1,09,1.0,7.6,M,-32.5,M,,*55
$PYRTM,2024,125.252723587951,16.362370998102
$GPGGA,060354.00,3514.2191,N,12152.2346,W,1,09,1.0,7.2,M,-32.5,M,,*50
$PYRTM,2024,125.252735175984,16.362382586123
$GPGGA,060355.00,3514.2198,N,12152.2353,W,1,09,1.0,6.6,M,-32.5,M,,*59
$PYRTM,2024,125.252746735926,16.362394146065
$GPGGA,060356.00,3514.2199,N,12152.2362,W,1,09,1.0,6.3,M,-32.5,M,,*5C
$PYRTM,2024,125.252758323356,16.362405733495
$GPGGA,060357.00,3514.2197,N,12152.2370,W,1,09,1.0,6.6,M,-32.5,M,,*55
$PYRTM,2024,125.252769884618,16.362417294745
$GPGGA,060358.00,3514.2201,N,12152.2376,W,1,09,1.0,6.9,M,-32.5,M,,*5F
$PYRTM,2024,125.252781471597,16.362428881736
$GPGGA,060359.00,3514.2211,N,12152.2381,W,1,09,1.0,6.9,M,-32.5,M,,*57
$PYRTM,2024,125.252793032836,16.362440442975
$GPGGA,060400.00,3514.2219,N,12152.2387,W,1,09,1.0,6.5,M,-32.5,M,,*5E
$PYRTM,2024,125.252804635255,16.362452045394
$GPGGA,060401.00,3514.2222,N,12152.2394,W,1,09,1.0,6.4,M,-32.5,M,,*54
$PYRTM,2024,125.252816180914,16.362463591053
$GPGGA,060402.00,3514.2221,N,12152.2402,W,1,09,1.0,6.9,M,-32.5,M,,*51
$PYRTM,2024,125.252827783102,16.362475193241
$GPGGA,060403.00,3514.2222,N,12152.2409,W,1,09,1.0,7.4,M,-32.5,M,,*54
$PYRTM,2024,125.252839329780,16.362486739919
$GPGGA,060404.00,3514.2229,N,12152.2416,W,1,09,1.0,7.4,M,-32.5,M,,*56
$PYRTM,2024,125.252846736030,16.362494146169
$GPGGA,060405.00,3514.2237,N,12152.2421,W,1,09,1.0,7.0,M,-32.5,M,,*58
$PYRTM,2024,125.252865394931,16.362512805069
$GPGGA,060406.00,3514.2243,N,12152.2425,W,1,09,1.0,6.9,M,-32.5,M,,*54
$PYRTM,2024,125.252874064444,16.362521474583
$GPGGA,060407.00,3514.2246,N,12152.2431,W,1,09,1.0,7.1,M,-32.5,M,,*5C
$PYRTM,2024,125.252885625556,16.362533035694
$GPGGA,060408.00,3514.2247,N,12152.2441,W,1,09,1.0,7.2,M,-32.5,M,,*56
$PYRTM,2024,125.252893032361,16.362540442488
$GPGGA,060409.00,3514.2249,N,12152.2450,W,1,09,1.0,7.2,M,-32.5,M,,*59
$PYRTM,2024,125.252908773819,16.362556183958
$GPGGA,060410.00,3514.2254,N,12152.2456,W,1,09,1.0,7.4,M,-32.5,M,,*5D
$PYRTM,2024,125.252920361481,16.362567771620
$GPGGA,060411.00,3514.2262,N,12152.2459,W,1,09,1.0,7.5,M,-32.5,M,,*57
$PYRTM,2024,125.252931923773,16.362579333912
$GPGGA,060412.00,3514.2269,N,12152.2465,W,1,09,1.0,7.3,M,-32.5,M,,*56
$PYRTM,2024,125.252943509850,16.362590919988
$GPGGA,060413.00,3514.2273,N,12152.2472,W,1,09,1.0,7.1,M,-32.5,M,,*58
$PYRTM,2024,125.252955071204,16.362602481343
$GPGGA,060414.00,3514.2273,N,12152.2480,W,1,09,1.0,7.3,M,-32.5,M,,*50
$PYRTM,2024,125.252966674606,16.362614084745
$GPGGA,060415.00,3514.2276,N,12152.2487,W,1,09,1.0,7.3,M,-32.5,M,,*53
$PYRTM,2024,125.252978218206,16.362625628345
$GPGGA,060416.00,3514.2281,N,12152.2494,W,1,09,1.0,7.3,M,-32.5,M,,*5A
$PYRTM,2024,125.252989809028,16.362637219167
$GPGGA,060417.00,3514.2288,N,12152.2499,W,1,09,1.0,7.3,M,-32.5,M,,*5F
$PYRTM,2024,125.253001367535,16.362648777674
$GPGGA,060418.00,3514.2294,N,12152.2504,W,1,09,1.0,7.3,M,-32.5,M,,*58
$PYRTM,2024,125.253012957998,16.362660368137
$GPGGA,060419.00,3514.2297,N,12152.2511,W,1,09,1.0,7.4,M,-32.5,M,,*59
$PYRTM,2024,125.253024517523,16.362671927662
$GPGGA,060420.00,3514.2299,N,12152.2520,W,1,09,1.0,7.6,M,-32.5,M,,*5D
$PYRTM,2024,125.253031922431,16.362679332569
$GPGGA,060421.00,3514.2301,N,12152.2529,W,1,09,1.0,7.8,M,-32.5,M,,*5B
$PYRTM,2024,125.253047663762,16.362695073900
$GPGGA,060422.00,3514.2305,N,12152.2536,W,1,09,1.0,7.9,M,-32.5,M,,*53
$PYRTM,2024,125.253059251204,16.362706661343
$GPGGA,060423.00,3514.2313,N,12152.2539,W,1,09,1.0,7.9,M,-32.5,M,,*5A
$PYRTM,2024,125.253066658681,16.362714068819
$GPGGA,060424.00,3514.2320,N,12152.2541,W,1,09,1.0,8.0,M,-32.5,M,,*54
$PYRTM,2024,125.253082399097,16.362729809236
$GPGGA,060425.00,3514.2323,N,12152.2548,W,1,09,1.0,8.1,M,-32.5,M,,*5E
$PYRTM,2024,125.253093961424,16.362741371562
$GPGGA,060426.00,3514.2322,N,12152.2560,W,1,09,1.0,8.0,M,-32.5,M,,*57
$PYRTM,2024,125.253105548414,16.362752958553
$GPGGA,060427.00,3514.2324,N,12152.2572,W,1,09,1.0,7.1,M,-32.5,M,,*5D
$PYRTM,2024,125.253117108437,16.362764518576
$GPGGA,060428.00,3514.2330,N,12152.2577,W,1,09,1.0,6.5,M,-32.5,M,,*57
$PYRTM,2024,125.253124516377,16.362771926516
$GPGGA,060429.00,3514.2338,N,12152.2578,W,1,09,1.0,6.8,M,-32.5,M,,*5C
$PYRTM,2024,125.253140256644,16.362787666782
$GPGGA,060430.00,3514.2344,N,12152.2582,W,1,09,1.0,7.0,M,-32.5,M,,*53
$PYRTM,2024,125.253151860405,16.362799270544
$GPGGA,060431.00,3514.2345,N,12152.2593,W,1,09,1.0,7.2,M,-32.5,M,,*51
$PYRTM,2024,125.253163404549,16.362810814687
$GPGGA,060432.00,3514.2345,N,12152.2605,W,1,09,1.0,7.4,M,-32.5,M,,*58
$PYRTM,2024,125.253174991933,16.362822402060
$GPGGA,060433.00,3514.2348,N,12152.2611,W,1,09,1.0,7.5,M,-32.5,M,,*50
$PYRTM,2024,125.253186552859,16.362833962998
$GPGGA,060434.00,3514.2356,N,12152.2613,W,1,09,1.0,7.6,M,-32.5,M,,*59
$PYRTM,2024,125.253193962118,16.362841372257
$GPGGA,060435.00,3514.2365,N,12152.2617,W,1,09,1.0,7.3,M,-32.5,M,,*59
$PYRTM,2024,125.253205651481,16.362853061620
$GPGGA,060436.00,3514.2370,N,12152.2626,W,1,09,1.0,7.0,M,-32.5,M,,*5F
$PYRTM,2024,125.253224183796,16.362871593935
$GPGGA,060437.00,3514.2370,N,12152.2635,W,1,09,1.0,7.0,M,-32.5,M,,*5C
$PYRTM,2024,125.253232850741,16.362880260880
$GPGGA,060438.00,3514.2370,N,12152.2644,W,1,09,1.0,7.5,M,-32.5,M,,*50
$PYRTM,2024,125.253244437778,16.362891847917
$GPGGA,060439.00,3514.2376,N,12152.2651,W,1,09,1.0,7.5,M,-32.5,M,,*53
$PYRTM,2024,125.253255998634,16.362903408773
$GPGGA,060440.00,3514.2385,N,12152.2656,W,1,09,1.0,6.6,M,-32.5,M,,*54
$PYRTM,2024,125.253263407326,16.362910817465
$GPGGA,060441.00,3514.2390,N,12152.2662,W,1,09,1.0,6.7,M,-32.5,M,,*57
$PYRTM,2024,125.253279147153,16.362926557292
$GPGGA,060442.00,3514.2390,N,12152.2668,W,1,09,1.0,7.0,M,-32.5,M,,*58
$PYRTM,2024,125.253290733426,16.362938143565
$GPGGA,060443.00,3514.2391,N,12152.2677,W,1,09,1.0,7.1,M,-32.5,M,,*57
$PYRTM,2024,125.253302296586,16.362949706736
$GPGGA,060444.00,3514.2397,N,12152.2684,W,1,09,1.0,6.9,M,-32.5,M,,*53
$PYRTM,2024,125.253313885891,16.362961296030
$GPGGA,060445.00,3514.2403,N,12152.2690,W,1,09,1.0,7.0,M,-32.5,M,,*55
$PYRTM,2024,125.253325444444,16.362972854583
$GPGGA,060446.00,3514.2407,N,12152.2695,W,1,09,1.0,7.2,M,-32.5,M,,*55
$PYRTM,2024,125.253332850428,16.362980260567
$GPGGA,060447.00,3514.2410,N,12152.2700,W,1,09,1.0,7.5,M,-32.5,M,,*58
$PYRTM,2024,125.253348592766,16.362996002905
$GPGGA,060448.00,3514.2413,N,12152.2708,W,1,09,1.0,7.5,M,-32.5,M,,*5C
$PYRTM,2024,125.253360180868,16.363007591007
$GPGGA,060449.00,3514.2417,N,12152.2717,W,1,09,1.0,7.1,M,-32.5,M,,*53
$PYRTM,2024,125.253371739977,16.363019150116
$GPGGA,060450.00,3514.2422,N,12152.2723,W,1,09,1.0,6.8,M,-32.5,M,,*52
$PYRTM,2024,125.253383327049,16.363030737188
$GPGGA,060451.00,3514.2427,N,12152.2727,W,1,09,1.0,7.0,M,-32.5,M,,*5B
$PYRTM,2024,125.253394888704,16.363042298843
$GPGGA,060452.00,3514.2431,N,12152.2733,W,1,09,1.0,7.5,M,-32.5,M,,*5F
$PYRTM,2024,125.253406476574,16.363053886713
$GPGGA,060453.00,3514.2433,N,12152.2741,W,1,09,1.0,7.7,M,-32.5,M,,*5B
$PYRTM,2024,125.253418038299,16.363065448437
$GPGGA,060454.00,3514.2436,N,12152.2749,W,1,09,1.0,7.9,M,-32.5,M,,*5F
$PYRTM,2024,125.253429623600,16.363077033738
$GPGGA,060455.00,3514.2441,N,12152.2755,W,1,09,1.0,7.8,M,-32.5,M,,*52
$PYRTM,2024,125.253437019815,16.363084429954
$GPGGA,060456.00,3514.2447,N,12152.2761,W,1,09,1.0,7.5,M,-32.5,M,,*5D
$PYRTM,2024,125.253452786655,16.363100196794
$GPGGA,060457.00,3514.2452,N,12152.2767,W,1,09,1.0,7.0,M,-32.5,M,,*5B
$PYRTM,2024,125.253464334097,16.363111744236
$GPGGA,060458.00,3514.2454,N,12152.2775,W,1,09,1.0,6.6,M,-32.5,M,,*56
$PYRTM,2024,125.253475937060,16.363123347199
$GPGGA,060459.00,3514.2457,N,12152.2783,W,1,09,1.0,6.5,M,-32.5,M,,*5E
$PYRTM,2024,125.253487481968,16.363134892106
$GPGGA,060500.00,3514.2461,N,12152.2790,W,1,09,1.0,6.7,M,-32.5,M,,*56
$PYRTM,2024,125.253499074028,16.363146484167
$GPGGA,060501.00,3514.2468,N,12152.2796,W,1,09,1.0,6.8,M,-32.5,M,,*57
$PYRTM,2024,125.253506479167,16.363153889306
$GPGGA,060502.00,3514.2473,N,12152.2803,W,1,09,1.0,6.7,M,-32.5,M,,*52
$PYRTM,2024,125.253522216215,16.363169626354
$GPGGA,060503.00,3514.2478,N,12152.2810,W,1,09,1.0,6.6,M,-32.5,M,,*5B
$PYRTM,2024,125.253533778530,16.363181188669
$GPGGA,060504.00,3514.2481,N,12152.2818,W,1,09,1.0,6.6,M,-32.5,M,,*52
$PYRTM,2024,125.253545360451,16.363192770590
$GPGGA,060505.00,3514.2485,N,12152.2824,W,1,09,1.0,6.6,M,-32.5,M,,*58
$PYRTM,2024,125.253556925625,16.363204335764
$GPGGA,060506.00,3514.2490,N,12152.2831,W,1,09,1.0,6.5,M,-32.5,M,,*58
$PYRTM,2024,125.253564334039,16.363211744178
$GPGGA,060507.00,3514.2494,N,12152.2837,W,1,08,1.0,6.0,M,-32.5,M,,*5F
$PYRTM,2024,125.253582990775,16.363230400914
$GPGGA,060508.00,3514.2500,N,12152.2842,W,1,08,1.0,7.2,M,-32.5,M,,*5D
$PYRTM,2024,125.253591662245,16.363239072384
$GPGGA,060509.00,3514.2504,N,12152.2848,W,1,08,1.0,8.3,M,-32.5,M,,*5C
$PYRTM,2024,125.253599059213,16.363246469352
$GPGGA,060510.00,3514.2507,N,12152.2855,W,1,08,1.0,9.3,M,-32.5,M,,*5A
$PYRTM,2024,125.253614810868,16.363262221007
$GPGGA,060511.00,3514.2509,N,12152.2862,W,1,08,1.0,9.5,M,-32.5,M,,*57
$PYRTM,2024,125.253626370845,16.363273780995
$GPGGA,060512.00,3514.2512,N,12152.2868,W,1,08,1.0,9.6,M,-32.5,M,,*57
$PYRTM,2024,125.253637973935,16.363285384074
$GPGGA,060513.00,3514.2519,N,12152.2873,W,1,08,1.0,9.5,M,-32.5,M,,*54
$PYRTM,2024,125.253649520463,16.363296930602
$GPGGA,060514.00,3514.2525,N,12152.2879,W,1,08,1.0,9.3,M,-32.5,M,,*50
$PYRTM,2024,125.253661121690,16.363308531840
$GPGGA,060515.00,3514.2527,N,12152.2886,W,1,08,1.0,9.6,M,-32.5,M,,*56
$PYRTM,2024,125.253672667604,16.363320077743
$GPGGA,060516.00,3514.2529,N,12152.2892,W,1,08,1.0,10.0,M,-32.5,M,,*60
$PYRTM,2024,125.253684250255,16.363331660405
$GPGGA,060517.00,3514.2534,N,12152.2899,W,1,08,1.0,10.0,M,-32.5,M,,*66
$PYRTM,2024,125.253695816424,16.363343226562
$GPGGA,060518.00,3514.2541,N,12152.2907,W,1,08,1.0,9.2,M,-32.5,M,,*57
$PYRTM,2024,125.253707403565,16.363354813704
$GPGGA,060519.00,3514.2547,N,12152.2913,W,1,08,1.0,8.6,M,-32.5,M,,*50
$PYRTM,2024,125.253718964456,16.363366374595
$GPGGA,060520.00,3514.2550,N,12152.2919,W,1,08,1.0,8.5,M,-32.5,M,,*55
$PYRTM,2024,125.253730555000,16.363377965139
$GPGGA,060521.00,3514.2553,N,12152.2926,W,1,08,1.0,8.6,M,-32.5,M,,*58
$PYRTM,2024,125.253737946493,16.363385356632
$GPGGA,060522.00,3514.2560,N,12152.2934,W,1,08,1.0,8.5,M,-32.5,M,,*5B
$PYRTM,2024,125.253753699722,16.363401109861
$GPGGA,060523.00,3514.2567,N,12152.2941,W,1,08,1.0,8.3,M,-32.5,M,,*59
$PYRTM,2024,125.253765261493,16.363412671632
$GPGGA,060524.00,3514.2572,N,12152.2949,W,1,08,1.0,7.9,M,-32.5,M,,*57
$PYRTM,2024,125.253776851528,16.363424261667
$GPGGA,060525.00,3514.2574,N,12152.2957,W,1,08,1.0,7.9,M,-32.5,M,,*5F
$PYRTM,2024,125.253788409549,16.363435819687
$GPGGA,060526.00,3514.2578,N,12152.2962,W,1,08,1.0,8.4,M,-32.5,M,,*54
$PYRTM,2024,125.253799999282,16.363447409421
$GPGGA,060527.00,3514.2583,N,12152.2968,W,1,08,1.0,8.8,M,-32.5,M,,*57
$PYRTM,2024,125.253811559722,16.363458969861
$GPGGA,060528.00,3514.2588,N,12152.2973,W,1,08,1.0,8.9,M,-32.5,M,,*58
$PYRTM,2024,125.253823147928,16.363470558067
$GPGGA,060529.00,3514.2593,N,12152.2980,W,1,08,1.0,8.7,M,-32.5,M,,*51
$PYRTM,2024,125.253834706794,16.363482116933
$GPGGA,060530.00,3514.2597,N,12152.2988,W,1,08,1.0,8.5,M,-32.5,M,,*57
$PYRTM,2024,125.253842113333,16.363489523472
$GPGGA,060531.00,3514.2600,N,12152.2995,W,1,08,1.0,8.3,M,-32.5,M,,*51
$PYRTM,2024,125.253857854306,16.363505264444
$GPGGA,060532.00,3514.2604,N,12152.3001,W,1,08,1.0,8.1,M,-32.5,M,,*51
$PYRTM,2024,125.253869440903,16.363516851042
$GPGGA,060533.00,3514.2608,N,12152.3007,W,1,08,1.0,8.1,M,-32.5,M,,*5A
$PYRTM,2024,125.253881003079,16.363528413218
$GPGGA,060534.00,3514.2614,N,12152.3013,W,1,08,1.0,8.2,M,-32.5,M,,*56
$PYRTM,2024,125.253892585081,16.363539995231
$GPGGA,060535.00,3514.2619,N,12152.3020,W,1,08,1.0,8.5,M,-32.5,M,,*5D
$PYRTM,2024,125.253904153345,16.363551563484
$GPGGA,060536.00,3514.2622,N,12152.3026,W,1,08,1.0,9.0,M,-32.5,M,,*54
$PYRTM,2024,125.253915738206,16.363563148345
$GPGGA,060537.00,3514.2625,N,12152.3035,W,1,08,1.0,9.1,M,-32.5,M,,*51
$PYRTM,2024,125.253923132951,16.363570543090
$GPGGA,060538.00,3514.2630,N,12152.3044,W,1,08,1.0,8.7,M,-32.5,M,,*5B
$PYRTM,2024,125.253941781435,16.363589191574
$GPGGA,060539.00,3514.2636,N,12152.3050,W,1,08,1.0,8.3,M,-32.5,M,,*5D
$PYRTM,2024,125.253950446748,16.363597856898
$GPGGA,060540.00,3514.2641,N,12152.3053,W,1,08,1.0,8.5,M,-32.5,M,,*56
$PYRTM,2024,125.253962038785,16.363609448924
$GPGGA,060541.00,3514.2644,N,12152.3057,W,1,08,1.0,8.8,M,-32.5,M,,*5B
$PYRTM,2024,125.253973595660,16.363621005799
$GPGGA,060542.00,3514.2647,N,12152.3065,W,1,08,1.0,8.9,M,-32.5,M,,*5B
$PYRTM,2024,125.253985186968,16.363632597106
$GPGGA,060543.00,3514.2652,N,12152.3077,W,1,08,1.0,8.3,M,-32.5,M,,*57
$PYRTM,2024,125.253992576991,16.363639987130
$GPGGA,060544.00,3514.2656,N,12152.3087,W,1,08,1.0,7.4,M,-32.5,M,,*53
$PYRTM,2024,125.254008332546,16.363655742685
$GPGGA,060545.00,3514.2662,N,12152.3092,W,1,08,1.0,7.1,M,-32.5,M,,*54
$PYRTM,2024,125.254019894537,16.363667304676
$GPGGA,060546.00,3514.2667,N,12152.3093,W,1,08,1.0,6.8,M,-32.5,M,,*5B
$PYRTM,2024,125.254027299919,16.363674710058
$GPGGA,060547.00,3514.2672,N,12152.3098,W,1,08,1.0,6.9,M,-32.5,M,,*54
$PYRTM,2024,125.254043040475,16.363690450613
$GPGGA,060548.00,3514.2675,N,12152.3109,W,1,08,1.0,6.6,M,-32.5,M,,*5A
$PYRTM,2024,125.254054622801,16.363702032940
$GPGGA,060549.00,3514.2678,N,12152.3122,W,1,08,1.0,5.9,M,-32.5,M,,*53
$PYRTM,2024,125.254066188160,16.363713598299
$GPGGA,060550.00,3514.2683,N,12152.3129,W,1,08,1.0,5.8,M,-32.5,M,,*55
$PYRTM,2024,125.254077777465,16.363725187604
$GPGGA,060551.00,3514.2688,N,12152.3130,W,1,08,1.0,5.9,M,-32.5,M,,*56
$PYRTM,2024,125.254089338322,16.363736748461
$GPGGA,060552.00,3514.2694,N,12152.3131,W,1,08,1.0,6.2,M,-32.5,M,,*51
$PYRTM,2024,125.254100923681,16.363748333819
$GPGGA,060553.00,3514.2700,N,12152.3139,W,1,08,1.0,6.3,M,-32.5,M,,*55
$PYRTM,2024,125.254112485880,16.363759896019
$GPGGA,060554.00,3514.2703,N,12152.3149,W,1,08,1.0,6.2,M,-32.5,M,,*57
$PYRTM,2024,125.254124075289,16.363771485428
$GPGGA,060555.00,3514.2704,N,12152.3157,W,1,08,1.0,6.5,M,-32.5,M,,*59
$PYRTM,2024,125.254135633947,16.363783044086
$GPGGA,060556.00,3514.2707,N,12152.3162,W,1,08,1.0,6.7,M,-32.5,M,,*5D
$PYRTM,2024,125.254143040451,16.363790450590
$GPGGA,060557.00,3514.2713,N,12152.3166,W,1,08,1.0,6.7,M,-32.5,M,,*5D
$PYRTM,2024,125.254158782176,16.363806192315
$GPGGA,060558.00,3514.2721,N,12152.3171,W,1,08,1.0,6.4,M,-32.5,M,,*56
$PYRTM,2024,125.254170370347,16.363817780486
$GPGGA,060559.00,3514.2726,N,12152.3176,W,1,08,1.0,6.5,M,-32.5,M,,*56
$PYRTM,2024,125.254181931771,16.363829341921
$GPGGA,060600.00,3514.2728,N,12152.3183,W,1,08,1.0,7.3,M,-32.5,M,,*5A
$PYRTM,2024,125.254193517963,16.363840928102
$GPGGA,060601.00,3514.2727,N,12152.3190,W,1,08,1.0,7.9,M,-32.5,M,,*5C
$PYRTM,2024,125.254205079595,16.363852489734
$GPGGA,060602.00,3514.2730,N,12152.3197,W,1,08,1.0,8.2,M,-32.5,M,,*5A
$PYRTM,2024,125.254216667118,16.363864077257
$GPGGA,060603.00,3514.2737,N,12152.3203,W,1,08,1.0,8.0,M,-32.5,M,,*50
$PYRTM,2024,125.254228228137,16.363875638275
$GPGGA,060604.00,3514.2746,N,12152.3209,W,1,08,1.0,7.7,M,-32.5,M,,*53
$PYRTM,2024,125.254239818171,16.363887228310
$GPGGA,060605.00,3514.2749,N,12152.3216,W,1,08,1.0,7.7,M,-32.5,M,,*53
$PYRTM,2024,125.254247209120,16.363894619259
$GPGGA,060606.00,3514.2748,N,12152.3222,W,1,08,1.0,8.3,M,-32.5,M,,*5D
$PYRTM,2024,125.254262962963,16.363910373102
$GPGGA,060607.00,3514.2749,N,12152.3227,W,1,08,1.0,8.9,M,-32.5,M,,*52
$PYRTM,2024,125.254274523472,16.363921933623
$GPGGA,060608.00,3514.2756,N,12152.3233,W,1,08,1.0,9.3,M,-32.5,M,,*5D
$PYRTM,2024,125.254281930868,16.363929341007
$GPGGA,060609.00,3514.2763,N,12152.3243,W,1,08,1.0,8.8,M,-32.5,M,,*57
$PYRTM,2024,125.254300579676,16.363947989815
$GPGGA,060610.00,3514.2764,N,12152.3251,W,1,08,1.0,8.4,M,-32.5,M,,*57
$PYRTM,2024,125.254309260949,16.363956671100
$GPGGA,060611.00,3514.2764,N,12152.3257,W,1,08,1.0,7.6,M,-32.5,M,,*5D
$PYRTM,2024,125.254316666910,16.363964077049
$GPGGA,060612.00,3514.2767,N,12152.3262,W,1,08,1.0,8.3,M,-32.5,M,,*51
$PYRTM,2024,125.254332407303,16.363979817454
$GPGGA,060613.00,3514.2775,N,12152.3268,W,1,08,1.0,7.5,M,-32.5,M,,*50
$PYRTM,2024,125.254343968380,16.363991378519
$GPGGA,060614.00,3514.2781,N,12152.3275,W,1,08,1.0,7.2,M,-32.5,M,,*57
$PYRTM,2024,125.254355555949,16.364002966088
$GPGGA,060615.00,3514.2783,N,12152.3284,W,1,08,1.0,6.6,M,-32.5,M,,*5F
$PYRTM,2024,125.254367118727,16.364014528866
$GPGGA,060616.00,3514.2783,N,12152.3292,W,1,08,1.0,6.3,M,-32.5,M,,*5E
$PYRTM,2024,125.254378706146,16.364026116285
$GPGGA,060617.00,3514.2788,N,12152.3298,W,1,08,1.0,6.3,M,-32.5,M,,*5E
$PYRTM,2024,125.254390264491,16.364037674630
$GPGGA,060618.00,3514.2795,N,12152.3301,W,1,08,1.0,6.8,M,-32.5,M,,*57
$PYRTM,2024,125.254401854317,16.364049264456
$GPGGA,060619.00,3514.2800,N,12152.3305,W,1,08,1.0,7.3,M,-32.5,M,,*5B
$PYRTM,2024,125.254413413310,16.364060823461
$GPGGA,060620.00,3514.2803,N,12152.3314,W,1,08,1.0,7.1,M,-32.5,M,,*50
$PYRTM,2024,125.254420820382,16.364068230521
$GPGGA,060621.00,3514.2805,N,12152.3324,W,1,08,1.0,6.5,M,-32.5,M,,*51
$PYRTM,2024,125.254436561481,16.364083971620
$GPGGA,060622.00,3514.2807,N,12152.3331,W,1,08,1.0,6.5,M,-32.5,M,,*54
$PYRTM,2024,125.254448163044,16.364095573183
$GPGGA,060623.00,3514.2811,N,12152.3337,W,1,08,1.0,6.6,M,-32.5,M,,*57
$PYRTM,2024,125.254459709745,16.364107119884
$GPGGA,060624.00,3514.2815,N,12152.3342,W,1,08,1.0,6.9,M,-32.5,M,,*59
$PYRTM,2024,125.254471300208,16.364118710347
$GPGGA,060625.00,3514.2818,N,12152.3349,W,1,08,1.0,7.5,M,-32.5,M,,*53
$PYRTM,2024,125.254482857766,16.364130267905
$GPGGA,060626.00,3514.2821,N,12152.3356,W,1,08,1.0,8.4,M,-32.5,M,,*5A
$PYRTM,2024,125.254494447500,16.364141857639
$GPGGA,060627.00,3514.2826,N,12152.3361,W,1,08,1.0,8.9,M,-32.5,M,,*55
$PYRTM,2024,125.254506008391,16.364153418530
$GPGGA,060628.00,3514.2831,N,12152.3366,W,1,08,1.0,9.0,M,-32.5,M,,*53
$PYRTM,2024,125.254517593565,16.364165003704
$GPGGA,060629.00,3514.2834,N,12152.3374,W,1,08,1.0,8.7,M,-32.5,M,,*52
$PYRTM,2024,125.254529153947,16.364176564086
$GPGGA,060630.00,3514.2836,N,12152.3382,W,1,08,1.0,8.6,M,-32.5,M,,*50
$PYRTM,2024,125.254540742500,16.364188152639
$GPGGA,060631.00,3514.2841,N,12152.3384,W,1,08,1.0,8.7,M,-32.5,M,,*56
$PYRTM,2024,125.254552302685,16.364199712824
$GPGGA,060632.00,3514.2849,N,12152.3387,W,1,08,1.0,8.8,M,-32.5,M,,*51
$PYRTM,2024,125.254563892477,16.364211302616
$GPGGA,060633.00,3514.2853,N,12152.3393,W,1,08,1.0,8.3,M,-32.5,M,,*55
$PYRTM,2024,125.254575451424,16.364222861574
$GPGGA,060634.00,3514.2854,N,12152.3404,W,1,08,1.0,7.9,M,-32.5,M,,*59
$PYRTM,2024,125.254587040255,16.364234450394
$GPGGA,060635.00,3514.2856,N,12152.3413,W,1,08,1.0,7.3,M,-32.5,M,,*56
$PYRTM,2024,125.254594434248,16.364241844387
$GPGGA,060636.00,3514.2861,N,12152.3417,W,1,08,1.0,7.3,M,-32.5,M,,*55
$PYRTM,2024,125.254610189919,16.364257600058
$GPGGA,060637.00,3514.2869,N,12152.3417,W,1,08,1.0,7.6,M,-32.5,M,,*59
$PYRTM,2024,125.254621747894,16.364269158032
$GPGGA,060638.00,3514.2876,N,12152.3420,W,1,08,1.0,8.0,M,-32.5,M,,*55
$PYRTM,2024,125.254633338912,16.364280749051
$GPGGA,060639.00,3514.2879,N,12152.3428,W,1,08,1.0,8.1,M,-32.5,M,,*52
$PYRTM,2024,125.254640742407,16.364288152546
$GPGGA,060640.00,3514.2879,N,12152.3442,W,1,08,1.0,7.7,M,-32.5,M,,*59
$PYRTM,2024,125.254659378009,16.364306788148
$GPGGA,060641.00,3514.2882,N,12152.3451,W,1,08,1.0,7.2,M,-32.5,M,,*5B
$PYRTM,2024,125.254670950197,16.364318360336
$GPGGA,060642.00,3514.2889,N,12152.3454,W,1,08,1.0,7.0,M,-32.5,M,,*54
$PYRTM,2024,125.254682519919,16.364329930058
$GPGGA,060643.00,3514.2897,N,12152.3454,W,1,08,1.0,7.4,M,-32.5,M,,*5E
$PYRTM,2024,125.254691194109,16.364338604248
$GPGGA,060644.00,3514.2903,N,12152.3458,W,1,08,1.0,7.8,M,-32.5,M,,*55
$PYRTM,2024,125.254702776030,16.364350186169
$GPGGA,060645.00,3514.2903,N,12152.3468,W,1,08,1.0,8.0,M,-32.5,M,,*50
$PYRTM,2024,125.254714341620,16.364361751759
$GPGGA,060646.00,3514.2903,N,12152.3481,W,1,08,1.0,7.8,M,-32.5,M,,*53
$PYRTM,2024,125.254725923241,16.364373333391
$GPGGA,060647.00,3514.2907,N,12152.3488,W,1,08,1.0,7.3,M,-32.5,M,,*54
$PYRTM,2024,125.254737488866,16.364384899005
$GPGGA,060648.00,3514.2915,N,12152.3490,W,1,08,1.0,7.0,M,-32.5,M,,*52
$PYRTM,2024,125.254749078634,16.364396488773
$GPGGA,060649.00,3514.2922,N,12152.3490,W,1,08,1.0,7.3,M,-32.5,M,,*54
$PYRTM,2024,125.254760638148,16.364408048287
$GPGGA,060650.00,3514.2925,N,12152.3497,W,1,08,1.0,7.5,M,-32.5,M,,*5A
$PYRTM,2024,125.254772227951,16.364419638090
$GPGGA,060651.00,3514.2924,N,12152.3508,W,1,08,1.0,7.6,M,-32.5,M,,*5E
$PYRTM,2024,125.254779619213,16.364427029352
$GPGGA,060652.00,3514.2926,N,12152.3517,W,1,08,1.0,7.7,M,-32.5,M,,*50
$PYRTM,2024,125.254795375544,16.364442785683
$GPGGA,060653.00,3514.2932,N,12152.3522,W,1,08,1.0,7.8,M,-32.5,M,,*5D
$PYRTM,2024,125.254806933611,16.364454343750
$GPGGA,060654.00,3514.2940,N,12152.3527,W,1,08,1.0,7.6,M,-32.5,M,,*54
$PYRTM,2024,125.254818521863,16.364465932002
$GPGGA,060655.00,3514.2944,N,12152.3533,W,1,08,1.0,7.8,M,-32.5,M,,*5A
$PYRTM,2024,125.254830083067,16.364477493206
$GPGGA,060656.00,3514.2946,N,12152.3540,W,1,08,1.0,8.4,M,-32.5,M,,*5C
$PYRTM,2024,125.254841669838,16.364489079977
$GPGGA,060657.00,3514.2948,N,12152.3548,W,1,08,1.0,8.7,M,-32.5,M,,*58
$PYRTM,2024,125.254853229745,16.364500639884
$GPGGA,060658.00,3514.2954,N,12152.3556,W,1,08,1.0,8.5,M,-32.5,M,,*57
$PYRTM,2024,125.254864819375,16.364512229514
$GPGGA,060659.00,3514.2961,N,12152.3562,W,1,08,1.0,7.8,M,-32.5,M,,*55
$PYRTM,2024,125.254876379850,16.364523789988
$GPGGA,060700.00,3514.2966,N,12152.3567,W,1,08,1.0,7.8,M,-32.5,M,,*5A
$PYRTM,2024,125.254887969456,16.364535379595
$GPGGA,060701.00,3514.2967,N,12152.3575,W,1,08,1.0,8.1,M,-32.5,M,,*5F
$PYRTM,2024,125.254899528067,16.364546938206
$GPGGA,060702.00,3514.2970,N,12152.3583,W,1,08,1.0,8.0,M,-32.5,M,,*52
$PYRTM,2024,125.254911115405,16.364558525544
$GPGGA,060703.00,3514.2977,N,12152.3589,W,1,08,1.0,7.8,M,-32.5,M,,*59
$PYRTM,2024,125.254918510278,16.364565920417
$GPGGA,060704.00,3514.2983,N,12152.3594,W,1,08,1.0,7.6,M,-32.5,M,,*57
$PYRTM,2024,125.254934277002,16.364581687141
$GPGGA,060705.00,3514.2987,N,12152.3599,W,1,08,1.0,7.5,M,-32.5,M,,*5C
$PYRTM,2024,125.254945825208,16.364593235347
$GPGGA,060706.00,3514.2987,N,12152.3607,W,1,08,1.0,8.0,M,-32.5,M,,*51
$PYRTM,2024,125.254953229780,16.364600639919
$GPGGA,060707.00,3514.2988,N,12152.3616,W,1,08,1.0,7.8,M,-32.5,M,,*58
$PYRTM,2024,125.254968971412,16.364616381551
$GPGGA,060708.00,3514.2994,N,12152.3624,W,1,08,1.0,7.3,M,-32.5,M,,*50
$PYRTM,2024,125.254980559248,16.364627969387
$GPGGA,060709.00,3514.3002,N,12152.3628,W,1,08,1.0,7.2,M,-32.5,M,,*5B
$PYRTM,2024,125.254987966736,16.364635376875
$GPGGA,060710.00,3514.3008,N,12152.3631,W,1,08,1.0,7.4,M,-32.5,M,,*57
$PYRTM,2024,125.254999643935,16.364647054074
$GPGGA,060711.00,3514.3010,N,12152.3636,W,1,08,1.0,7.8,M,-32.5,M,,*54
$PYRTM,2024,125.255018163067,16.364665573206
$GPGGA,060712.00,3514.3013,N,12152.3646,W,1,08,1.0,7.9,M,-32.5,M,,*52
$PYRTM,2024,125.255026855972,16.364674266111
$GPGGA,060713.00,3514.3016,N,12152.3658,W,1,08,1.0,7.5,M,-32.5,M,,*55
$PYRTM,2024,125.255034250463,16.364681660602
$GPGGA,060714.00,3514.3021,N,12152.3664,W,1,08,1.0,7.2,M,-32.5,M,,*5E
$PYRTM,2024,125.255049998843,16.364697408981
$GPGGA,060715.00,3514.3028,N,12152.3666,W,1,08,1.0,7.4,M,-32.5,M,,*52
$PYRTM,2024,125.255061567002,16.364708977153
$GPGGA,060716.00,3514.3033,N,12152.3668,W,1,08,1.0,7.8,M,-32.5,M,,*59
$PYRTM,2024,125.255073152558,16.364720562697
$GPGGA,060717.00,3514.3037,N,12152.3674,W,1,08,1.0,7.9,M,-32.5,M,,*50
$PYRTM,2024,125.255084714792,16.364732124931
$GPGGA,060718.00,3514.3039,N,12152.3687,W,1,08,1.0,7.5,M,-32.5,M,,*51
$PYRTM,2024,125.255096304410,16.364743714549
$GPGGA,060719.00,3514.3041,N,12152.3699,W,1,08,1.0,6.8,M,-32.5,M,,*5C
$PYRTM,2024,125.255107861493,16.364755271632
$GPGGA,060720.00,3514.3044,N,12152.3703,W,1,08,1.0,6.4,M,-32.5,M,,*5D
$PYRTM,2024,125.255119463345,16.364766873484
$GPGGA,060721.00,3514.3050,N,12152.3704,W,1,08,1.0,6.3,M,-32.5,M,,*59
$PYRTM,2024,125.255131012523,16.364778422674
$GPGGA,060722.00,3514.3058,N,12152.3706,W,1,08,1.0,6.1,M,-32.5,M,,*52
$PYRTM,2024,125.255142600949,16.364790011100
$GPGGA,060723.00,3514.3063,N,12152.3715,W,1,08,1.0,5.8,M,-32.5,M,,*53
$PYRTM,2024,125.255154160058,16.364801570197
$GPGGA,060724.00,3514.3063,N,12152.3728,W,1,08,1.0,5.4,M,-32.5,M,,*56
$PYRTM,2024,125.255165745475,16.364813155625
$GPGGA,060725.00,3514.3064,N,12152.3736,W,1,08,1.0,5.3,M,-32.5,M,,*58
$PYRTM,2024,125.255177307176,16.364824717315
$GPGGA,060726.00,3514.3069,N,12152.3737,W,1,08,1.0,5.7,M,-32.5,M,,*53
$PYRTM,2024,125.255188894120,16.364836304259
$GPGGA,060727.00,3514.3078,N,12152.3738,W,1,08,1.0,6.0,M,-32.5,M,,*59
$PYRTM,2024,125.255200454687,16.364847864838
$GPGGA,060728.00,3514.3084,N,12152.3744,W,1,08,1.0,5.8,M,-32.5,M,,*55
$PYRTM,2024,125.255212041875,16.364859452025
$GPGGA,060729.00,3514.3085,N,12152.3756,W,1,08,1.0,5.6,M,-32.5,M,,*58
$PYRTM,2024,125.255223604225,16.364871014363
$GPGGA,060730.00,3514.3084,N,12152.3764,W,1,08,1.0,5.8,M,-32.5,M,,*5E
$PYRTM,2024,125.255235190278,16.364882600417
$GPGGA,060731.00,3514.3088,N,12152.3767,W,1,08,1.0,6.4,M,-32.5,M,,*5F
$PYRTM,2024,125.255242584838,16.364889994977
$GPGGA,060732.00,3514.3098,N,12152.3768,W,1,08,1.0,6.5,M,-32.5,M,,*53
$PYRTM,2024,125.255258341528,16.364905751667
$GPGGA,060733.00,3514.3107,N,12152.3774,W,1,08,1.0,6.1,M,-32.5,M,,*5C
$PYRTM,2024,125.255269901030,16.364917311169
$GPGGA,060734.00,3514.3108,N,12152.3784,W,1,08,1.0,5.6,M,-32.5,M,,*5F
$PYRTM,2024,125.255277331308,16.364924741447
$GPGGA,060735.00,3514.3107,N,12152.3793,W,1,08,1.0,5.7,M,-32.5,M,,*56
$PYRTM,2024,125.255293048206,16.364940458345
$GPGGA,060736.00,3514.3110,N,12152.3798,W,1,08,1.0,6.1,M,-32.5,M,,*5D
$PYRTM,2024,125.255304635370,16.364952045509
$GPGGA,060737.00,3514.3118,N,12152.3801,W,1,08,1.0,6.5,M,-32.5,M,,*5F
$PYRTM,2024,125.255316198113,16.364963608252
$GPGGA,060738.00,3514.3125,N,12152.3804,W,1,08,1.0,6.7,M,-32.5,M,,*59
$PYRTM,2024,125.255327783692,16.364975193843
$GPGGA,060739.00,3514.3127,N,12152.3810,W,1,08,1.0,6.9,M,-32.5,M,,*51
$PYRTM,2024,125.255339344225,16.364986754363
$GPGGA,060740.00,3514.3128,N,12152.3819,W,1,08,1.0,6.8,M,-32.5,M,,*58
$PYRTM,2024,125.255350931134,16.364998341273
$GPGGA,060741.00,3514.3130,N,12152.3829,W,1,08,1.0,6.3,M,-32.5,M,,*58
$PYRTM,2024,125.255358327975,16.365005738113
$GPGGA,060742.00,3514.3134,N,12152.3835,W,1,08,1.0,5.8,M,-32.5,M,,*5A
$PYRTM,2024,125.255376979271,16.365024389410
$GPGGA,060743.00,3514.3141,N,12152.3835,W,1,08,1.0,6.3,M,-32.5,M,,*51
$PYRTM,2024,125.255385642720,16.365033052859
$GPGGA,060744.00,3514.3146,N,12152.3837,W,1,08,1.0,6.9,M,-32.5,M,,*59
$PYRTM,2024,125.255397230440,16.365044640579
$GPGGA,060745.00,3514.3149,N,12152.3845,W,1,08,1.0,7.0,M,-32.5,M,,*5A
$PYRTM,2024,125.255404628519,16.365052038657
$GPGGA,060746.00,3514.3150,N,12152.3856,W,1,08,1.0,6.8,M,-32.5,M,,*5A
$PYRTM,2024,125.255420377407,16.365067787546
$GPGGA,060747.00,3514.3154,N,12152.3864,W,1,08,1.0,6.4,M,-32.5,M,,*52
$PYRTM,2024,125.255431938299,16.365079348438
$GPGGA,060748.00,3514.3159,N,12152.3868,W,1,08,1.0,6.2,M,-32.5,M,,*5A
$PYRTM,2024,125.255443527905,16.365090938044
$GPGGA,060749.00,3514.3165,N,12152.3870,W,1,08,1.0,6.5,M,-32.5,M,,*5A
$PYRTM,2024,125.255450920428,16.365098330567
$GPGGA,060750.00,3514.3169,N,12152.3873,W,1,08,1.0,7.3,M,-32.5,M,,*5A
$PYRTM,2024,125.255466673391,16.365114083530
$GPGGA,060751.00,3514.3170,N,12152.3882,W,1,08,1.0,8.0,M,-32.5,M,,*51
$PYRTM,2024,125.255478235417,16.365125645556
$GPGGA,060752.00,3514.3172,N,12152.3893,W,1,08,1.0,7.8,M,-32.5,M,,*57
$PYRTM,2024,125.255489816123,16.365137226273
$GPGGA,060753.00,3514.3178,N,12152.3901,W,1,08,1.0,7.3,M,-32.5,M,,*5D
$PYRTM,2024,125.255497255394,16.365144665532
$GPGGA,060754.00,3514.3184,N,12152.3905,W,1,08,1.0,7.0,M,-32.5,M,,*5E
$PYRTM,2024,125.255512969664,16.365160379803
$GPGGA,060755.00,3514.3188,N,12152.3906,W,1,08,1.0,7.2,M,-32.5,M,,*52
$PYRTM,2024,125.255524531944,16.365171942083
$GPGGA,060756.00,3514.3191,N,12152.3910,W,1,08,1.0,7.4,M,-32.5,M,,*58
$PYRTM,2024,125.255536119005,16.365183529144
$GPGGA,060757.00,3514.3195,N,12152.3919,W,1,08,1.0,7.3,M,-32.5,M,,*53
$PYRTM,2024,125.255547679780,16.365195089919
$GPGGA,060758.00,3514.3199,N,12152.3930,W,1,08,1.0,6.9,M,-32.5,M,,*50
$PYRTM,2024,125.255559267095,16.365206677234
$GPGGA,060759.00,3514.3202,N,12152.3936,W,1,08,1.0,6.8,M,-32.5,M,,*57
$PYRTM,2024,125.255566663391,16.365214073530
$GPGGA,060800.00,3514.3207,N,12152.3936,W,1,08,1.0,7.0,M,-32.5,M,,*58
$PYRTM,2024,125.255582417616,16.365229827755
$GPGGA,060801.00,3514.3215,N,12152.3938,W,1,08,1.0,7.0,M,-32.5,M,,*54
$PYRTM,2024,125.255593976910,16.365241387049
$GPGGA,060802.00,3514.3221,N,12152.3946,W,1,08,1.0,6.6,M,-32.5,M,,*5E
$PYRTM,2024,125.255605577188,16.365252987326
$GPGGA,060803.00,3514.3222,N,12152.3957,W,1,08,1.0,6.2,M,-32.5,M,,*58
$PYRTM,2024,125.255617124109,16.365264534259
$GPGGA,060804.00,3514.3222,N,12152.3965,W,1,08,1.0,6.2,M,-32.5,M,,*5E
$PYRTM,2024,125.255628712130,16.365276122280
$GPGGA,060805.00,3514.3227,N,12152.3967,W,1,08,1.0,6.6,M,-32.5,M,,*5C
$PYRTM,2024,125.255640273171,16.365287683310
$GPGGA,060806.00,3514.3236,N,12152.3969,W,1,08,1.0,6.6,M,-32.5,M,,*51
$PYRTM,2024,125.255651864745,16.365299274884
$GPGGA,060807.00,3514.3243,N,12152.3974,W,1,08,1.0,6.5,M,-32.5,M,,*5D
$PYRTM,2024,125.255663421481,16.365310831620
$GPGGA,060808.00,3514.3244,N,12152.3984,W,1,08,1.0,6.5,M,-32.5,M,,*5A
$PYRTM,2024,125.255675009850,16.365322419988
$GPGGA,060809.00,3514.3243,N,12152.3993,W,1,08,1.0,6.7,M,-32.5,M,,*58
$PYRTM,2024,125.255686571597,16.365333981736
$GPGGA,060810.00,3514.3247,N,12152.3998,W,1,08,1.0,6.9,M,-32.5,M,,*51
$PYRTM,2024,125.255698156100,16.365345566250
$GPGGA,060811.00,3514.3255,N,12152.4000,W,1,08,1.0,6.9,M,-32.5,M,,*5C
$PYRTM,2024,125.255705551285,16.365352961424
$GPGGA,060812.00,3514.3262,N,12152.4001,W,1,08,1.0,7.1,M,-32.5,M,,*53
$PYRTM,2024,125.255717240613,16.365364650752
$GPGGA,060813.00,3514.3266,N,12152.4008,W,1,08,1.0,7.3,M,-32.5,M,,*5D
$PYRTM,2024,125.255735759456,16.365383169595
$GPGGA,060814.00,3514.3265,N,12152.4019,W,1,08,1.0,7.3,M,-32.5,M,,*59
$PYRTM,2024,125.255747349942,16.365394760081
$GPGGA,060815.00,3514.3267,N,12152.4029,W,1,08,1.0,7.0,M,-32.5,M,,*5A
$PYRTM,2024,125.255758907581,16.365406317720
$GPGGA,060816.00,3514.3274,N,12152.4032,W,1,08,1.0,6.8,M,-32.5,M,,*58
$PYRTM,2024,125.255767605289,16.365415015428
$GPGGA,060817.00,3514.3282,N,12152.4032,W,1,08,1.0,6.9,M,-32.5,M,,*51
$PYRTM,2024,125.255779162917,16.365426573056
$GPGGA,060818.00,3514.3288,N,12152.4036,W,1,08,1.0,7.2,M,-32.5,M,,*5A
$PYRTM,2024,125.255786569213,16.365433979352
$GPGGA,060819.00,3514.3288,N,12152.4045,W,1,08,1.0,7.7,M,-32.5,M,,*5A
$PYRTM,2024,125.255802310579,16.365449720718
$GPGGA,060820.00,3514.3288,N,12152.4056,W,1,08,1.0,7.8,M,-32.5,M,,*5D
$PYRTM,2024,125.255813897766,16.365461307905
$GPGGA,060821.00,3514.3293,N,12152.4062,W,1,08,1.0,7.4,M,-32.5,M,,*5D
$PYRTM,2024,125.255825459641,16.365472869780
$GPGGA,060822.00,3514.3302,N,12152.4064,W,1,08,1.0,7.1,M,-32.5,M,,*54
$PYRTM,2024,125.255837046678,16.365484456817
$GPGGA,060823.00,3514.3309,N,12152.4067,W,1,08,1.0,7.3,M,-32.5,M,,*5F
$PYRTM,2024,125.255848608241,16.365496018380
$GPGGA,060824.00,3514.3312,N,12152.4073,W,1,08,1.0,7.6,M,-32.5,M,,*52
$PYRTM,2024,125.255856016065,16.365503426204
$GPGGA,060825.00,3514.3313,N,12152.4083,W,1,08,1.0,8.0,M,-32.5,M,,*54
$PYRTM,2024,125.255871754340,16.365519164479
$GPGGA,060826.00,3514.3316,N,12152.4092,W,1,08,1.0,7.8,M,-32.5,M,,*55
$PYRTM,2024,125.255883344074,16.365530754213
$GPGGA,060827.00,3514.3322,N,12152.4098,W,1,08,1.0,7.5,M,-32.5,M,,*54
$PYRTM,2024,125.255890737569,16.365538147708
$GPGGA,060828.00,3514.3328,N,12152.4103,W,1,08,1.0,7.2,M,-32.5,M,,*55
$PYRTM,2024,125.255906494294,16.365553904433
$GPGGA,060829.00,3514.3333,N,12152.4108,W,1,08,1.0,7.3,M,-32.5,M,,*54
$PYRTM,2024,125.255918051042,16.365565461181
$GPGGA,060830.00,3514.3336,N,12152.4115,W,1,08,1.0,7.6,M,-32.5,M,,*50
$PYRTM,2024,125.255925461088,16.365572871227
$GPGGA,060831.00,3514.3338,N,12152.4122,W,1,08,1.0,7.7,M,-32.5,M,,*5A
$PYRTM,2024,125.255937151597,16.365584561736
$GPGGA,060832.00,3514.3341,N,12152.4129,W,1,08,1.0,7.6,M,-32.5,M,,*5D
$PYRTM,2024,125.255952801296,16.365600211435
$GPGGA,060833.00,3514.3346,N,12152.4136,W,1,08,1.0,7.4,M,-32.5,M,,*57
$PYRTM,2024,125.255964349468,16.365611759606
$GPGGA,060834.00,3514.3352,N,12152.4143,W,1,08,1.0,7.1,M,-32.5,M,,*52
$PYRTM,2024,125.255975937153,16.365623347292
$GPGGA,060835.00,3514.3357,N,12152.4147,W,1,08,1.0,7.1,M,-32.5,M,,*52
$PYRTM,2024,125.255987497789,16.365634907928
$GPGGA,060836.00,3514.3360,N,12152.4150,W,1,08,1.0,7.0,M,-32.5,M,,*52
$PYRTM,2024,125.255999084977,16.365646495116
$GPGGA,060837.00,3514.3362,N,12152.4156,W,1,08,1.0,8.8,M,-32.5,M,,*50
$PYRTM,2024,125.256010646435,16.365658056574
$GPGGA,060838.00,3514.3365,N,12152.4166,W,1,08,1.0,7.7,M,-32.5,M,,*5B
$PYRTM,2024,125.256022233681,16.365669643819
$GPGGA,060839.00,3514.3370,N,12152.4176,W,1,08,1.0,7.0,M,-32.5,M,,*58
$PYRTM,2024,125.256029524815,16.365676934954
