$PYRTM,2024,122.721299913264,13.830947323403
$GPGGA,171839.00,3356.2812,N,11951.1444,W,1,08,1.0,8.3,M,-34.0,M,,*51
$PYRTM,2024,122.721311487292,13.830958897431
$GPGGA,171840.00,3356.2814,N,11951.1416,W,1,08,1.0,8.6,M,-34.0,M,,*5B
$PYRTM,2024,122.721323063634,13.830970473773
$GPGGA,171841.00,3356.2818,N,11951.1389,W,1,08,1.0,8.7,M,-34.0,M,,*56
$PYRTM,2024,122.721330456146,13.830977866285
$GPGGA,171842.00,3356.2823,N,11951.1362,W,1,08,1.0,8.8,M,-34.0,M,,*57
$PYRTM,2024,122.721342159595,13.830989569734
$GPGGA,171843.00,3356.2828,N,11951.1334,W,1,08,1.0,8.5,M,-34.0,M,,*53
$PYRTM,2024,122.721357787616,13.831005197755
$GPGGA,171844.00,3356.2832,N,11951.1307,W,1,08,1.0,8.4,M,-34.0,M,,*5E
$PYRTM,2024,122.721369357894,13.831016768032
$GPGGA,171845.00,3356.2836,N,11951.1281,W,1,08,1.0,8.3,M,-34.0,M,,*53
$PYRTM,2024,122.721376752870,13.831024163009
$GPGGA,171846.00,3356.2839,N,11951.1254,W,1,08,1.0,8.3,M,-34.0,M,,*57
$PYRTM,2024,122.721392505926,13.831039916065
$GPGGA,171847.00,3356.2842,N,11951.1228,W,1,08,1.0,8.2,M,-34.0,M,,*50
$PYRTM,2024,122.721404080671,13.831051490810
$GPGGA,171848.00,3356.2845,N,11951.1201,W,1,08,1.0,8.0,M,-34.0,M,,*51
$PYRTM,2024,122.721415654421,13.831063064560
$GPGGA,171849.00,3356.2847,N,11951.1174,W,1,08,1.0,8.0,M,-34.0,M,,*53
$PYRTM,2024,122.721427224780,13.831074634919
$GPGGA,171850.00,3356.2850,N,11951.1147,W,1,08,1.0,8.0,M,-34.0,M,,*5D
$PYRTM,2024,122.721438801968,13.831086212106
$GPGGA,171851.00,3356.2854,N,11951.1120,W,1,08,1.0,8.1,M,-34.0,M,,*58
$PYRTM,2024,122.721450379398,13.831097789537
$GPGGA,171852.00,3356.2859,N,11951.1093,W,1,08,1.0,8.0,M,-34.0,M,,*5E
$PYRTM,2024,122.721461950926,13.831109361065
$GPGGA,171853.00,3356.2862,N,11951.1066,W,1,08,1.0,8.0,M,-34.0,M,,*5D
$PYRTM,2024,122.721473540486,13.831120950625
$GPGGA,171854.00,3356.2865,N,11951.1038,W,1,08,1.0,8.0,M,-34.0,M,,*56
$PYRTM,2024,122.721485098843,13.831132508981
$GPGGA,171855.00,3356.2868,N,11951.1011,W,1,08,1.0,8.0,M,-34.0,M,,*51
$PYRTM,2024,122.721496678391,13.831144088542
$GPGGA,171856.00,3356.2872,N,11951.0984,W,1,08,1.0,8.3,M,-34.0,M,,*5E
$PYRTM,2024,122.721508247940,13.831155658090
$GPGGA,171857.00,3356.2876,N,11951.0957,W,1,08,1.0,8.6,M,-34.0,M,,*50
$PYRTM,2024,122.721515644236,13.831163054375
$GPGGA,171858.00,3356.2880,N,11951.0930,W,1,08,1.0,8.6,M,-34.0,M,,*57
$PYRTM,2024,122.721531390382,13.831178800532
$GPGGA,171859.00,3356.2883,N,11951.0902,W,1,08,1.0,8.5,M,-34.0,M,,*57
$PYRTM,2024,122.721542964745,13.831190374884
$GPGGA,171900.00,3356.2887,N,11951.0876,W,1,08,1.0,8.4,M,-34.0,M,,*5D
$PYRTM,2024,122.721554539016,13.831201949155
$GPGGA,171901.00,3356.2891,N,11951.0850,W,1,08,1.0,8.4,M,-34.0,M,,*5F
$PYRTM,2024,122.721566114005,13.831213524144
$GPGGA,171902.00,3356.2895,N,11951.0824,W,1,08,1.0,8.1,M,-34.0,M,,*5E
$PYRTM,2024,122.721573513507,13.831220923646
$GPGGA,171903.00,3356.2898,N,11951.0797,W,1,08,1.0,8.0,M,-34.0,M,,*54
$PYRTM,2024,122.721592160556,13.831239570694
$GPGGA,171904.00,3356.2900,N,11951.0769,W,1,08,1.0,7.9,M,-34.0,M,,*54
$PYRTM,2024,122.721603722685,13.831251132824
$GPGGA,171905.00,3356.2903,N,11951.0742,W,1,08,1.0,8.0,M,-34.0,M,,*59
$PYRTM,2024,122.721612418333,13.831259828472
$GPGGA,171906.00,3356.2907,N,11951.0715,W,1,08,1.0,8.3,M,-34.0,M,,*5F
$PYRTM,2024,122.721618884398,13.831266294537
$GPGGA,171907.00,3356.2911,N,11951.0688,W,1,08,1.0,8.5,M,-34.0,M,,*5A
$PYRTM,2024,122.721635566123,13.831282976262
$GPGGA,171908.00,3356.2915,N,11951.0660,W,1,08,1.0,8.7,M,-34.0,M,,*55
$PYRTM,2024,122.721647136678,13.831294546817
$GPGGA,171909.00,3356.2918,N,11951.0632,W,1,08,1.0,8.8,M,-34.0,M,,*51
$PYRTM,2024,122.721658716215,13.831306126354
$GPGGA,171910.00,3356.2921,N,11951.0605,W,1,08,1.0,8.8,M,-34.0,M,,*57
$PYRTM,2024,122.721670286597,13.831317696736
$GPGGA,171911.00,3356.2924,N,11951.0578,W,1,08,1.0,8.6,M,-34.0,M,,*54
$PYRTM,2024,122.721681855440,13.831329265579
$GPGGA,171912.00,3356.2927,N,11951.0551,W,1,08,1.0,8.3,M,-34.0,M,,*5A
$PYRTM,2024,122.721689268229,13.831336678380
$GPGGA,171913.00,3356.2930,N,11951.0525,W,1,08,1.0,8.2,M,-34.0,M,,*5F
$PYRTM,2024,122.721705007569,13.831352417708
$GPGGA,171914.00,3356.2933,N,11951.0499,W,1,08,1.0,8.3,M,-34.0,M,,*5C
$PYRTM,2024,122.721716585012,13.831363995150
$GPGGA,171915.00,3356.2937,N,11951.0472,W,1,08,1.0,8.3,M,-34.0,M,,*5C
$PYRTM,2024,122.721723976771,13.831371386910
$GPGGA,171916.00,3356.2940,N,11951.0445,W,1,08,1.0,8.0,M,-34.0,M,,*58
$PYRTM,2024,122.721739725845,13.831387135984
$GPGGA,171917.00,3356.2940,N,11951.0417,W,1,08,1.0,8.0,M,-34.0,M,,*5E
$PYRTM,2024,122.721754197373,13.831401607512
$GPGGA,171918.00,3356.2941,N,11951.0390,W,1,08,1.0,7.9,M,-34.0,M,,*5E
$PYRTM,2024,122.721765759491,13.831413169630
$GPGGA,171919.00,3356.2943,N,11951.0362,W,1,08,1.0,8.0,M,-34.0,M,,*56
$PYRTM,2024,122.721774452986,13.831421863125
$GPGGA,171920.00,3356.2947,N,11951.0334,W,1,08,1.0,8.3,M,-34.0,M,,*58
$PYRTM,2024,122.721786025255,13.831433435394
$GPGGA,171921.00,3356.2951,N,11951.0307,W,1,08,1.0,8.4,M,-34.0,M,,*59
$PYRTM,2024,122.721797604630,13.831445014780
$GPGGA,171922.00,3356.2955,N,11951.0280,W,1,08,1.0,8.4,M,-34.0,M,,*50
$PYRTM,2024,122.721809170498,13.831456580637
$GPGGA,171923.00,3356.2957,N,11951.0253,W,1,08,1.0,8.3,M,-34.0,M,,*5A
$PYRTM,2024,122.721820752674,13.831468162813
$GPGGA,171924.00,3356.2959,N,11951.0227,W,1,08,1.0,8.3,M,-34.0,M,,*50
$PYRTM,2024,122.721832322836,13.831479732975
$GPGGA,171925.00,3356.2961,N,11951.0200,W,1,08,1.0,8.3,M,-34.0,M,,*5F
$PYRTM,2024,122.721843902118,13.831491312257
$GPGGA,171926.00,3356.2964,N,11951.0173,W,1,08,1.0,8.1,M,-34.0,M,,*5C
$PYRTM,2024,122.721855471285,13.831502881424
$GPGGA,171927.00,3356.2966,N,11951.0145,W,1,08,1.0,8.0,M,-34.0,M,,*5B
$PYRTM,2024,122.721867048715,13.831514458854
$GPGGA,171928.00,3356.2968,N,11951.0118,W,1,08,1.0,7.8,M,-34.0,M,,*55
$PYRTM,2024,122.721878619236,13.831526029375
$GPGGA,171929.00,3356.2969,N,11951.0091,W,1,08,1.0,8.0,M,-34.0,M,,*52
$PYRTM,2024,122.721890193843,13.831537603981
$GPGGA,171930.00,3356.2973,N,11951.0064,W,1,08,1.0,8.2,M,-34.0,M,,*59
$PYRTM,2024,122.721901768530,13.831549178669
$GPGGA,171931.00,3356.2977,N,11951.0036,W,1,08,1.0,8.4,M,-34.0,M,,*5D
$PYRTM,2024,122.721913341979,13.831560752130
$GPGGA,171932.00,3356.2980,N,11951.0008,W,1,08,1.0,8.3,M,-34.0,M,,*5C
$PYRTM,2024,122.721920737234,13.831568147373
$GPGGA,171933.00,3356.2982,N,11950.9981,W,1,08,1.0,8.2,M,-34.0,M,,*5E
$PYRTM,2024,122.721932429942,13.831579840081
$GPGGA,171934.00,3356.2984,N,11950.9954,W,1,08,1.0,8.0,M,-34.0,M,,*55
$PYRTM,2024,122.721948168831,13.831595578970
$GPGGA,171935.00,3356.2985,N,11950.9928,W,1,08,1.0,7.8,M,-34.0,M,,*59
$PYRTM,2024,122.721959755243,13.831607165394
$GPGGA,171936.00,3356.2987,N,11950.9901,W,1,08,1.0,7.8,M,-34.0,M,,*53
$PYRTM,2024,122.721971318646,13.831618728785
$GPGGA,171937.00,3356.2989,N,11950.9874,W,1,08,1.0,7.7,M,-34.0,M,,*50
$PYRTM,2024,122.721982906782,13.831630316921
$GPGGA,171938.00,3356.2991,N,11950.9847,W,1,08,1.0,7.7,M,-34.0,M,,*56
$PYRTM,2024,122.721994465463,13.831641875602
$GPGGA,171939.00,3356.2993,N,11950.9820,W,1,08,1.0,7.8,M,-34.0,M,,*5B
$PYRTM,2024,122.722001185637,13.831648595775
$GPGGA,171940.00,3356.2995,N,11950.9792,W,1,08,1.0,7.8,M,-34.0,M,,*55
$PYRTM,2024,122.722017612616,13.831665022755
$GPGGA,171941.00,3356.2998,N,11950.9765,W,1,08,1.0,8.0,M,-34.0,M,,*56
$PYRTM,2024,122.722029086771,13.831676496910
$GPGGA,171942.00,3356.3001,N,11950.9737,W,1,08,1.0,8.1,M,-34.0,M,,*5B
$PYRTM,2024,122.722040657836,13.831688067975
$GPGGA,171943.00,3356.3003,N,11950.9710,W,1,08,1.0,8.3,M,-34.0,M,,*5F
$PYRTM,2024,122.722052232245,13.831699642396
$GPGGA,171944.00,3356.3006,N,11950.9683,W,1,08,1.0,8.4,M,-34.0,M,,*51
$PYRTM,2024,122.722063806250,13.831711216389
$GPGGA,171945.00,3356.3008,N,11950.9656,W,1,08,1.0,8.2,M,-34.0,M,,*50
$PYRTM,2024,122.722071200671,13.831718610810
$GPGGA,171946.00,3356.3010,N,11950.9628,W,1,08,1.0,8.0,M,-34.0,M,,*51
$PYRTM,2024,122.722086953738,13.831734363866
$GPGGA,171947.00,3356.3012,N,11950.9601,W,1,08,1.0,7.7,M,-34.0,M,,*51
$PYRTM,2024,122.722098524803,13.831745934942
$GPGGA,171948.00,3356.3014,N,11950.9574,W,1,08,1.0,7.7,M,-34.0,M,,*59
$PYRTM,2024,122.722105923137,13.831753333287
$GPGGA,171949.00,3356.3017,N,11950.9548,W,1,08,1.0,7.6,M,-34.0,M,,*55
$PYRTM,2024,122.722124565417,13.831771975567
$GPGGA,171950.00,3356.3020,N,11950.9521,W,1,08,1.0,7.6,M,-34.0,M,,*56
$PYRTM,2024,122.722133250729,13.831780660868
$GPGGA,171951.00,3356.3022,N,11950.9494,W,1,08,1.0,7.6,M,-34.0,M,,*5A
$PYRTM,2024,122.722140645799,13.831788055937
$GPGGA,171952.00,3356.3024,N,11950.9466,W,1,08,1.0,7.8,M,-34.0,M,,*5C
$PYRTM,2024,122.722156395058,13.831803805197
$GPGGA,171953.00,3356.3027,N,11950.9440,W,1,08,1.0,8.0,M,-34.0,M,,*5D
$PYRTM,2024,122.722167976262,13.831815386400
$GPGGA,171954.00,3356.3029,N,11950.9412,W,1,08,1.0,7.9,M,-34.0,M,,*55
$PYRTM,2024,122.722179547535,13.831826957674
$GPGGA,171955.00,3356.3031,N,11950.9385,W,1,08,1.0,7.8,M,-34.0,M,,*55
$PYRTM,2024,122.722191136007,13.831838546146
$GPGGA,171956.00,3356.3032,N,11950.9357,W,1,08,1.0,7.7,M,-34.0,M,,*55
$PYRTM,2024,122.722202695660,13.831850105799
$GPGGA,171957.00,3356.3033,N,11950.9330,W,1,08,1.0,7.4,M,-34.0,M,,*57
$PYRTM,2024,122.722214271343,13.831861681481
$GPGGA,171958.00,3356.3036,N,11950.9303,W,1,08,1.0,7.4,M,-34.0,M,,*5D
$PYRTM,2024,122.722225844815,13.831873254954
$GPGGA,171959.00,3356.3040,N,11950.9277,W,1,08,1.0,7.4,M,-34.0,M,,*5F
$PYRTM,2024,122.722233239294,13.831880649433
$GPGGA,172000.00,3356.3043,N,11950.9250,W,1,08,1.0,7.8,M,-34.0,M,,*53
$PYRTM,2024,122.722248992558,13.831896402697
$GPGGA,172001.00,3356.3046,N,11950.9223,W,1,08,1.0,8.1,M,-34.0,M,,*55
$PYRTM,2024,122.722260566273,13.831907976412
$GPGGA,172002.00,3356.3046,N,11950.9194,W,1,08,1.0,8.1,M,-34.0,M,,*59
$PYRTM,2024,122.722267981968,13.831915392106
$GPGGA,172003.00,3356.3048,N,11950.9167,W,1,08,1.0,7.9,M,-34.0,M,,*5D
$PYRTM,2024,122.722279651979,13.831927062118
$GPGGA,172004.00,3356.3050,N,11950.9140,W,1,08,1.0,7.9,M,-34.0,M,,*56
$PYRTM,2024,122.722291226586,13.831938636725
$GPGGA,172005.00,3356.3053,N,11950.9112,W,1,08,1.0,7.8,M,-34.0,M,,*52
$PYRTM,2024,122.722306865023,13.831954275162
$GPGGA,172006.00,3356.3055,N,11950.9085,W,1,08,1.0,7.6,M,-34.0,M,,*56
$PYRTM,2024,122.722314257350,13.831961667488
$GPGGA,172007.00,3356.3057,N,11950.9058,W,1,08,1.0,7.3,M,-34.0,M,,*50
$PYRTM,2024,122.722330012778,13.831977422917
$GPGGA,172008.00,3356.3060,N,11950.9031,W,1,08,1.0,7.3,M,-34.0,M,,*54
$PYRTM,2024,122.722341586285,13.831988996424
$GPGGA,172009.00,3356.3062,N,11950.9004,W,1,08,1.0,7.2,M,-34.0,M,,*50
$PYRTM,2024,122.722353173900,13.832000584039
$GPGGA,172010.00,3356.3064,N,11950.8977,W,1,08,1.0,7.2,M,-34.0,M,,*52
$PYRTM,2024,122.722364733634,13.832012143773
$GPGGA,172011.00,3356.3068,N,11950.8949,W,1,08,1.0,7.2,M,-34.0,M,,*52
$PYRTM,2024,122.722376311713,13.832023721863
$GPGGA,172012.00,3356.3070,N,11950.8921,W,1,08,1.0,7.4,M,-34.0,M,,*50
$PYRTM,2024,122.722383702222,13.832031112361
$GPGGA,172013.00,3356.3071,N,11950.8894,W,1,08,1.0,7.6,M,-34.0,M,,*5D
$PYRTM,2024,122.722399452269,13.832046862419
$GPGGA,172014.00,3356.3072,N,11950.8866,W,1,08,1.0,7.6,M,-34.0,M,,*54
$PYRTM,2024,122.722411029549,13.832058439699
$GPGGA,172015.00,3356.3074,N,11950.8838,W,1,08,1.0,7.5,M,-34.0,M,,*5B
$PYRTM,2024,122.722422599618,13.832070009757
$GPGGA,172016.00,3356.3076,N,11950.8811,W,1,08,1.0,7.4,M,-34.0,M,,*50
$PYRTM,2024,122.722434173866,13.832081584005
$GPGGA,172017.00,3356.3079,N,11950.8783,W,1,08,1.0,7.4,M,-34.0,M,,*5A
$PYRTM,2024,122.722445752569,13.832093162708
$GPGGA,172018.00,3356.3082,N,11950.8757,W,1,08,1.0,7.4,M,-34.0,M,,*58
$PYRTM,2024,122.722453146759,13.832100556898
$GPGGA,172019.00,3356.3085,N,11950.8730,W,1,08,1.0,7.6,M,-34.0,M,,*5D
$PYRTM,2024,122.722464836435,13.832112246574
$GPGGA,172020.00,3356.3087,N,11950.8703,W,1,08,1.0,7.5,M,-34.0,M,,*56
$PYRTM,2024,122.722480474468,13.832127884606
$GPGGA,172021.00,3356.3090,N,11950.8676,W,1,08,1.0,7.8,M,-34.0,M,,*5F
$PYRTM,2024,122.722487870637,13.832135280775
$GPGGA,172022.00,3356.3092,N,11950.8649,W,1,08,1.0,7.8,M,-34.0,M,,*52
$PYRTM,2024,122.722503623287,13.832151033426
$GPGGA,172023.00,3356.3094,N,11950.8620,W,1,08,1.0,7.7,M,-34.0,M,,*55
$PYRTM,2024,122.722515223056,13.832162633194
$GPGGA,172024.00,3356.3096,N,11950.8592,W,1,08,1.0,7.6,M,-34.0,M,,*5B
$PYRTM,2024,122.722526773692,13.832174183831
$GPGGA,172025.00,3356.3098,N,11950.8564,W,1,08,1.0,7.7,M,-34.0,M,,*5C
$PYRTM,2024,122.722538356377,13.832185766528
$GPGGA,172026.00,3356.3101,N,11950.8537,W,1,08,1.0,7.7,M,-34.0,M,,*58
$PYRTM,2024,122.722549920150,13.832197330289
$GPGGA,172027.00,3356.3104,N,11950.8509,W,1,08,1.0,7.8,M,-34.0,M,,*5E
$PYRTM,2024,122.722561493715,13.832208903854
$GPGGA,172028.00,3356.3106,N,11950.8481,W,1,08,1.0,7.7,M,-34.0,M,,*5D
$PYRTM,2024,122.722573068310,13.832220478449
$GPGGA,172029.00,3356.3108,N,11950.8454,W,1,08,1.0,7.5,M,-34.0,M,,*58
$PYRTM,2024,122.722584642014,13.832232052153
$GPGGA,172030.00,3356.3110,N,11950.8428,W,1,08,1.0,7.5,M,-34.0,M,,*52
$PYRTM,2024,122.722592043877,13.832239454016
$GPGGA,172031.00,3356.3113,N,11950.8401,W,1,08,1.0,7.5,M,-34.0,M,,*5B
$PYRTM,2024,122.722607800289,13.832255210428
$GPGGA,172032.00,3356.3116,N,11950.8374,W,1,08,1.0,7.5,M,-34.0,M,,*58
$PYRTM,2024,122.722619365995,13.832266776134
$GPGGA,172033.00,3356.3118,N,11950.8346,W,1,08,1.0,7.6,M,-34.0,M,,*55
$PYRTM,2024,122.722630964086,13.832278374236
$GPGGA,172034.00,3356.3120,N,11950.8319,W,1,08,1.0,7.7,M,-34.0,M,,*52
$PYRTM,2024,122.722642511458,13.832289921597
$GPGGA,172035.00,3356.3122,N,11950.8290,W,1,08,1.0,7.9,M,-34.0,M,,*5F
$PYRTM,2024,122.722649907419,13.832297317558
$GPGGA,172036.00,3356.3125,N,11950.8262,W,1,08,1.0,7.8,M,-34.0,M,,*57
$PYRTM,2024,122.722665660961,13.832313071100
$GPGGA,172037.00,3356.3128,N,11950.8234,W,1,08,1.0,7.8,M,-34.0,M,,*58
$PYRTM,2024,122.722677234884,13.832324645023
$GPGGA,172038.00,3356.3130,N,11950.8207,W,1,08,1.0,7.7,M,-34.0,M,,*51
$PYRTM,2024,122.722688804120,13.832336214259
$GPGGA,172039.00,3356.3130,N,11950.8179,W,1,08,1.0,7.6,M,-34.0,M,,*5B
$PYRTM,2024,122.722696204306,13.832343614444
$GPGGA,172040.00,3356.3131,N,11950.8152,W,1,08,1.0,7.5,M,-34.0,M,,*5E
$PYRTM,2024,122.722711957222,13.832359367361
$GPGGA,172041.00,3356.3134,N,11950.8125,W,1,08,1.0,7.4,M,-34.0,M,,*5B
$PYRTM,2024,122.722723540359,13.832370950498
$GPGGA,172042.00,3356.3138,N,11950.8097,W,1,08,1.0,7.5,M,-34.0,M,,*5D
$PYRTM,2024,122.722735105174,13.832382515313
$GPGGA,172043.00,3356.3141,N,11950.8070,W,1,08,1.0,7.7,M,-34.0,M,,*59
$PYRTM,2024,122.722746687049,13.832394097188
$GPGGA,172044.00,3356.3143,N,11950.8042,W,1,08,1.0,7.8,M,-34.0,M,,*52
$PYRTM,2024,122.722758255637,13.832405665775
$GPGGA,172045.00,3356.3144,N,11950.8015,W,1,08,1.0,7.8,M,-34.0,M,,*56
$PYRTM,2024,122.722765649051,13.832413059190
$GPGGA,172046.00,3356.3145,N,11950.7987,W,1,08,1.0,7.7,M,-34.0,M,,*56
$PYRTM,2024,122.722781397731,13.832428807870
$GPGGA,172047.00,3356.3147,N,11950.7960,W,1,08,1.0,7.6,M,-34.0,M,,*5D
$PYRTM,2024,122.722792989167,13.832440399306
$GPGGA,172048.00,3356.3150,N,11950.7932,W,1,08,1.0,7.5,M,-34.0,M,,*50
$PYRTM,2024,122.722800377882,13.832447788021
$GPGGA,172049.00,3356.3152,N,11950.7905,W,1,08,1.0,7.3,M,-34.0,M,,*51
$PYRTM,2024,122.722816123843,13.832463533981
$GPGGA,172050.00,3356.3154,N,11950.7877,W,1,08,1.0,7.3,M,-34.0,M,,*5B
$PYRTM,2024,122.722823531146,13.832470941285
$GPGGA,172051.00,3356.3156,N,11950.7850,W,1,08,1.0,7.7,M,-34.0,M,,*59
$PYRTM,2024,122.722835685023,13.832483095162
$GPGGA,172052.00,3356.3158,N,11950.7822,W,1,08,1.0,7.9,M,-34.0,M,,*5F
$PYRTM,2024,122.722850842708,13.832498252847
$GPGGA,172053.00,3356.3161,N,11950.7795,W,1,08,1.0,7.9,M,-34.0,M,,*57
$PYRTM,2024,122.722862421505,13.832509831644
$GPGGA,172054.00,3356.3163,N,11950.7767,W,1,08,1.0,7.8,M,-34.0,M,,*5E
$PYRTM,2024,122.722873994606,13.832521404745
$GPGGA,172055.00,3356.3165,N,11950.7740,W,1,08,1.0,7.5,M,-34.0,M,,*51
$PYRTM,2024,122.722885569120,13.832532979259
$GPGGA,172056.00,3356.3166,N,11950.7713,W,1,08,1.0,7.3,M,-34.0,M,,*51
$PYRTM,2024,122.722897143634,13.832544553773
$GPGGA,172057.00,3356.3168,N,11950.7686,W,1,08,1.0,7.2,M,-34.0,M,,*52
$PYRTM,2024,122.722904540544,13.832551950694
$GPGGA,172058.00,3356.3170,N,11950.7659,W,1,08,1.0,7.0,M,-34.0,M,,*54
$PYRTM,2024,122.722920287373,13.832567697512
$GPGGA,172059.00,3356.3173,N,11950.7632,W,1,08,1.0,6.9,M,-34.0,M,,*53
$PYRTM,2024,122.722931866111,13.832579276250
$GPGGA,172100.00,3356.3175,N,11950.7605,W,1,08,1.0,7.1,M,-34.0,M,,*55
$PYRTM,2024,122.722939273252,13.832586683391
$GPGGA,172101.00,3356.3177,N,11950.7577,W,1,08,1.0,7.6,M,-34.0,M,,*57
$PYRTM,2024,122.722955022280,13.832602432419
$GPGGA,172102.00,3356.3179,N,11950.7550,W,1,08,1.0,7.8,M,-34.0,M,,*51
$PYRTM,2024,122.722966588160,13.832613998310
$GPGGA,172103.00,3356.3181,N,11950.7522,W,1,08,1.0,7.7,M,-34.0,M,,*5D
$PYRTM,2024,122.722978162280,13.832625572431
$GPGGA,172104.00,3356.3183,N,11950.7494,W,1,08,1.0,7.7,M,-34.0,M,,*54
$PYRTM,2024,122.722989735787,13.832637145926
$GPGGA,172105.00,3356.3186,N,11950.7467,W,1,08,1.0,7.6,M,-34.0,M,,*5D
$PYRTM,2024,122.723001310150,13.832648720289
$GPGGA,172106.00,3356.3188,N,11950.7440,W,1,08,1.0,7.4,M,-34.0,M,,*57
$PYRTM,2024,122.723008711481,13.832656121620
$GPGGA,172107.00,3356.3191,N,11950.7413,W,1,08,1.0,7.3,M,-34.0,M,,*5F
$PYRTM,2024,122.723024472477,13.832671882616
$GPGGA,172108.00,3356.3194,N,11950.7386,W,1,08,1.0,7.2,M,-34.0,M,,*5F
$PYRTM,2024,122.723031865394,13.832679275532
$GPGGA,172109.00,3356.3197,N,11950.7359,W,1,08,1.0,7.3,M,-34.0,M,,*5E
$PYRTM,2024,122.723043545938,13.832690956076
$GPGGA,172110.00,3356.3201,N,11950.7332,W,1,08,1.0,7.3,M,-34.0,M,,*57
$PYRTM,2024,122.723059181678,13.832706591817
$GPGGA,172111.00,3356.3204,N,11950.7304,W,1,08,1.0,7.4,M,-34.0,M,,*51
$PYRTM,2024,122.723070762662,13.832718172801
$GPGGA,172112.00,3356.3205,N,11950.7276,W,1,08,1.0,7.6,M,-34.0,M,,*55
$PYRTM,2024,122.723082331146,13.832729741285
$GPGGA,172113.00,3356.3207,N,11950.7249,W,1,08,1.0,7.6,M,-34.0,M,,*5A
$PYRTM,2024,122.723093903600,13.832741313738
$GPGGA,172114.00,3356.3209,N,11950.7220,W,1,08,1.0,7.5,M,-34.0,M,,*5F
$PYRTM,2024,122.723105478484,13.832752888623
$GPGGA,172115.00,3356.3212,N,11950.7193,W,1,08,1.0,7.3,M,-34.0,M,,*59
$PYRTM,2024,122.723117052442,13.832764462581
$GPGGA,172116.00,3356.3215,N,11950.7166,W,1,08,1.0,7.2,M,-34.0,M,,*56
$PYRTM,2024,122.723128622176,13.832776032326
$GPGGA,172117.00,3356.3218,N,11950.7139,W,1,08,1.0,7.2,M,-34.0,M,,*50
$PYRTM,2024,122.723140201435,13.832787611574
$GPGGA,172118.00,3356.3220,N,11950.7112,W,1,08,1.0,7.2,M,-34.0,M,,*5D
$PYRTM,2024,122.723147602812,13.832795012951
$GPGGA,172119.00,3356.3222,N,11950.7085,W,1,08,1.0,7.3,M,-34.0,M,,*50
$PYRTM,2024,122.723163334780,13.832810744907
$GPGGA,172120.00,3356.3224,N,11950.7058,W,1,08,1.0,7.4,M,-34.0,M,,*5B
$PYRTM,2024,122.723174922917,13.832822333056
$GPGGA,172121.00,3356.3226,N,11950.7030,W,1,08,1.0,7.4,M,-34.0,M,,*56
$PYRTM,2024,122.723182319051,13.832829729190
$GPGGA,172122.00,3356.3228,N,11950.7003,W,1,08,1.0,7.4,M,-34.0,M,,*5B
$PYRTM,2024,122.723198066100,13.832845476238
$GPGGA,172123.00,3356.3230,N,11950.6975,W,1,08,1.0,7.4,M,-34.0,M,,*5A
$PYRTM,2024,122.723209633530,13.832857043669
$GPGGA,172124.00,3356.3233,N,11950.6947,W,1,08,1.0,7.7,M,-34.0,M,,*5C
$PYRTM,2024,122.723221223241,13.832868633380
$GPGGA,172125.00,3356.3235,N,11950.6918,W,1,08,1.0,7.8,M,-34.0,M,,*5E
$PYRTM,2024,122.723232781100,13.832880191238
$GPGGA,172126.00,3356.3238,N,11950.6890,W,1,08,1.0,7.8,M,-34.0,M,,*51
$PYRTM,2024,122.723244364236,13.832891774375
$GPGGA,172127.00,3356.3241,N,11950.6863,W,1,08,1.0,7.7,M,-34.0,M,,*5D
$PYRTM,2024,122.723255928565,13.832903338704
$GPGGA,172128.00,3356.3243,N,11950.6836,W,1,08,1.0,7.5,M,-34.0,M,,*52
$PYRTM,2024,122.723267516551,13.832914926701
$GPGGA,172129.00,3356.3244,N,11950.6809,W,1,08,1.0,7.2,M,-34.0,M,,*5F
$PYRTM,2024,122.723274923831,13.832922333970
$GPGGA,172130.00,3356.3246,N,11950.6782,W,1,08,1.0,6.9,M,-34.0,M,,*53
$PYRTM,2024,122.723286600139,13.832934010278
$GPGGA,172131.00,3356.3248,N,11950.6755,W,1,08,1.0,6.8,M,-34.0,M,,*57
$PYRTM,2024,122.723302226285,13.832949636435
$GPGGA,172132.00,3356.3251,N,11950.6729,W,1,08,1.0,7.1,M,-34.0,M,,*5F
$PYRTM,2024,122.723313807894,13.832961218032
$GPGGA,172133.00,3356.3253,N,11950.6702,W,1,08,1.0,7.4,M,-34.0,M,,*50
$PYRTM,2024,122.723321207882,13.832968618021
$GPGGA,172134.00,3356.3255,N,11950.6674,W,1,08,1.0,7.4,M,-34.0,M,,*51
$PYRTM,2024,122.723336964016,13.832984374155
$GPGGA,172135.00,3356.3257,N,11950.6646,W,1,08,1.0,7.5,M,-34.0,M,,*52
$PYRTM,2024,122.723348523981,13.832995934120
$GPGGA,172136.00,3356.3260,N,11950.6619,W,1,08,1.0,7.5,M,-34.0,M,,*5F
$PYRTM,2024,122.723355929653,13.833003339792
$GPGGA,172137.00,3356.3262,N,11950.6591,W,1,08,1.0,7.5,M,-34.0,M,,*5F
$PYRTM,2024,122.723367618588,13.833015028727
$GPGGA,172138.00,3356.3265,N,11950.6564,W,1,08,1.0,7.3,M,-34.0,M,,*5B
$PYRTM,2024,122.723383254965,13.833030665104
$GPGGA,172139.00,3356.3267,N,11950.6536,W,1,08,1.0,7.2,M,-34.0,M,,*5E
$PYRTM,2024,122.723394972650,13.833042382789
$GPGGA,172140.00,3356.3269,N,11950.6509,W,1,08,1.0,7.3,M,-34.0,M,,*53
$PYRTM,2024,122.723406520822,13.833053930961
$GPGGA,172141.00,3356.3272,N,11950.6481,W,1,08,1.0,7.5,M,-34.0,M,,*5F
$PYRTM,2024,122.723418094942,13.833065505081
$GPGGA,172142.00,3356.3274,N,11950.6454,W,1,08,1.0,7.4,M,-34.0,M,,*53
$PYRTM,2024,122.723429669479,13.833077079618
$GPGGA,172143.00,3356.3277,N,11950.6427,W,1,08,1.0,7.3,M,-34.0,M,,*52
$PYRTM,2024,122.723441255556,13.833088665694
$GPGGA,172144.00,3356.3279,N,11950.6400,W,1,08,1.0,7.3,M,-34.0,M,,*5E
$PYRTM,2024,122.723452818264,13.833100228403
$GPGGA,172145.00,3356.3281,N,11950.6373,W,1,08,1.0,7.6,M,-34.0,M,,*5E
$PYRTM,2024,122.723460095683,13.833107505822
$GPGGA,172146.00,3356.3284,N,11950.6345,W,1,08,1.0,7.7,M,-34.0,M,,*5C
$PYRTM,2024,122.723475851539,13.833123261667
$GPGGA,172147.00,3356.3286,N,11950.6317,W,1,08,1.0,7.6,M,-34.0,M,,*59
$PYRTM,2024,122.723487410845,13.833134820984
$GPGGA,172148.00,3356.3288,N,11950.6288,W,1,08,1.0,7.4,M,-34.0,M,,*5D
$PYRTM,2024,122.723498997882,13.833146408021
$GPGGA,172149.00,3356.3291,N,11950.6261,W,1,08,1.0,7.4,M,-34.0,M,,*53
$PYRTM,2024,122.723510560787,13.833157970926
$GPGGA,172150.00,3356.3294,N,11950.6234,W,1,08,1.0,7.3,M,-34.0,M,,*59
$PYRTM,2024,122.723522143576,13.833169553715
$GPGGA,172151.00,3356.3297,N,11950.6207,W,1,08,1.0,7.2,M,-34.0,M,,*5A
$PYRTM,2024,122.723533707222,13.833181117361
$GPGGA,172152.00,3356.3300,N,11950.6179,W,1,08,1.0,7.1,M,-34.0,M,,*5F
$PYRTM,2024,122.723541114491,13.833188524630
$GPGGA,172153.00,3356.3302,N,11950.6152,W,1,08,1.0,7.1,M,-34.0,M,,*55
$PYRTM,2024,122.723559763935,13.833207174074
$GPGGA,172154.00,3356.3304,N,11950.6125,W,1,08,1.0,7.3,M,-34.0,M,,*56
$PYRTM,2024,122.723568447350,13.833215857500
$GPGGA,172155.00,3356.3306,N,11950.6098,W,1,08,1.0,7.3,M,-34.0,M,,*52
$PYRTM,2024,122.723580006979,13.833227417118
$GPGGA,172156.00,3356.3309,N,11950.6069,W,1,08,1.0,7.3,M,-34.0,M,,*50
$PYRTM,2024,122.723591587743,13.833238997882
$GPGGA,172157.00,3356.3312,N,11950.6042,W,1,08,1.0,7.5,M,-34.0,M,,*54
$PYRTM,2024,122.723598999456,13.833246409977
$GPGGA,172158.00,3356.3314,N,11950.6014,W,1,08,1.0,7.8,M,-34.0,M,,*53
$PYRTM,2024,122.723614735521,13.833262145660
$GPGGA,172159.00,3356.3317,N,11950.5985,W,1,08,1.0,8.0,M,-34.0,M,,*54
$PYRTM,2024,122.723626300475,13.833273710613
$GPGGA,172200.00,3356.3320,N,11950.5957,W,1,08,1.0,8.1,M,-34.0,M,,*51
$PYRTM,2024,122.723633709444,13.833281119583
$GPGGA,172201.00,3356.3323,N,11950.5929,W,1,08,1.0,8.0,M,-34.0,M,,*5B
$PYRTM,2024,122.723649448576,13.833296858715
$GPGGA,172202.00,3356.3325,N,11950.5902,W,1,08,1.0,7.7,M,-34.0,M,,*5F
$PYRTM,2024,122.723661039583,13.833308449722
$GPGGA,172203.00,3356.3328,N,11950.5874,W,1,08,1.0,7.6,M,-34.0,M,,*52
$PYRTM,2024,122.723672600012,13.833320010150
$GPGGA,172204.00,3356.3331,N,11950.5848,W,1,08,1.0,7.3,M,-34.0,M,,*57
$PYRTM,2024,122.723684186956,13.833331597095
$GPGGA,172205.00,3356.3335,N,11950.5821,W,1,08,1.0,7.3,M,-34.0,M,,*5D
$PYRTM,2024,122.723695747257,13.833343157396
$GPGGA,172206.00,3356.3338,N,11950.5794,W,1,08,1.0,7.4,M,-34.0,M,,*55
$PYRTM,2024,122.723707335741,13.833354745880
$GPGGA,172207.00,3356.3340,N,11950.5766,W,1,08,1.0,7.5,M,-34.0,M,,*57
$PYRTM,2024,122.723718895845,13.833366305984
$GPGGA,172208.00,3356.3341,N,11950.5738,W,1,08,1.0,7.8,M,-34.0,M,,*5F
$PYRTM,2024,122.723726308530,13.833373718669
$GPGGA,172209.00,3356.3342,N,11950.5710,W,1,08,1.0,8.0,M,-34.0,M,,*50
$PYRTM,2024,122.723744956875,13.833392367014
$GPGGA,172210.00,3356.3344,N,11950.5682,W,1,08,1.0,7.9,M,-34.0,M,,*52
$PYRTM,2024,122.723756524294,13.833403934433
$GPGGA,172211.00,3356.3348,N,11950.5654,W,1,08,1.0,7.8,M,-34.0,M,,*55
$PYRTM,2024,122.723765191667,13.833412601806
$GPGGA,172212.00,3356.3353,N,11950.5627,W,1,08,1.0,7.8,M,-34.0,M,,*58
$PYRTM,2024,122.723776780764,13.833424190903
$GPGGA,172213.00,3356.3355,N,11950.5600,W,1,08,1.0,7.8,M,-34.0,M,,*5A
$PYRTM,2024,122.723784173426,13.833431583565
$GPGGA,172214.00,3356.3357,N,11950.5573,W,1,08,1.0,7.9,M,-34.0,M,,*59
$PYRTM,2024,122.723799929803,13.833447339942
$GPGGA,172215.00,3356.3359,N,11950.5545,W,1,08,1.0,7.8,M,-34.0,M,,*52
$PYRTM,2024,122.723811489965,13.833458900104
$GPGGA,172216.00,3356.3363,N,11950.5518,W,1,08,1.0,7.7,M,-34.0,M,,*5F
$PYRTM,2024,122.723823075475,13.833470485613
$GPGGA,172217.00,3356.3366,N,11950.5491,W,1,08,1.0,7.8,M,-34.0,M,,*54
$PYRTM,2024,122.723834636458,13.833482046597
$GPGGA,172218.00,3356.3368,N,11950.5463,W,1,08,1.0,7.8,M,-34.0,M,,*58
$PYRTM,2024,122.723846223484,13.833493633623
$GPGGA,172219.00,3356.3370,N,11950.5435,W,1,08,1.0,7.8,M,-34.0,M,,*53
$PYRTM,2024,122.723853618646,13.833501028785
$GPGGA,172220.00,3356.3372,N,11950.5407,W,1,08,1.0,7.7,M,-34.0,M,,*55
$PYRTM,2024,122.723869371412,13.833516781551
$GPGGA,172221.00,3356.3375,N,11950.5379,W,1,08,1.0,7.7,M,-34.0,M,,*5D
$PYRTM,2024,122.723880933090,13.833528343229
$GPGGA,172222.00,3356.3378,N,11950.5352,W,1,08,1.0,7.7,M,-34.0,M,,*5A
$PYRTM,2024,122.723892522187,13.833539932326
$GPGGA,172223.00,3356.3379,N,11950.5324,W,1,08,1.0,7.6,M,-34.0,M,,*5A
$PYRTM,2024,122.723904081181,13.833551491319
$GPGGA,172224.00,3356.3382,N,11950.5296,W,1,08,1.0,7.6,M,-34.0,M,,*51
$PYRTM,2024,122.723911488218,13.833558898356
$GPGGA,172225.00,3356.3385,N,11950.5269,W,1,08,1.0,7.6,M,-34.0,M,,*57
$PYRTM,2024,122.723927228542,13.833574638681
$GPGGA,172226.00,3356.3389,N,11950.5242,W,1,08,1.0,7.7,M,-34.0,M,,*50
$PYRTM,2024,122.723938816458,13.833586226597
$GPGGA,172227.00,3356.3391,N,11950.5214,W,1,08,1.0,7.8,M,-34.0,M,,*54
$PYRTM,2024,122.723950377315,13.833597787454
$GPGGA,172228.00,3356.3393,N,11950.5186,W,1,08,1.0,7.8,M,-34.0,M,,*51
$PYRTM,2024,122.723961959491,13.833609369630
$GPGGA,172229.00,3356.3394,N,11950.5159,W,1,08,1.0,7.6,M,-34.0,M,,*5B
$PYRTM,2024,122.723973526505,13.833620936644
$GPGGA,172230.00,3356.3396,N,11950.5131,W,1,08,1.0,7.5,M,-34.0,M,,*5C
$PYRTM,2024,122.723985115718,13.833632525856
$GPGGA,172231.00,3356.3398,N,11950.5103,W,1,08,1.0,7.6,M,-34.0,M,,*51
$PYRTM,2024,122.723992507280,13.833639917419
$GPGGA,172232.00,3356.3401,N,11950.5076,W,1,08,1.0,7.5,M,-34.0,M,,*55
$PYRTM,2024,122.724008263843,13.833655673981
$GPGGA,172233.00,3356.3404,N,11950.5049,W,1,08,1.0,7.5,M,-34.0,M,,*5D
$PYRTM,2024,122.724019822176,13.833667232315
$GPGGA,172234.00,3356.3406,N,11950.5022,W,1,08,1.0,7.5,M,-34.0,M,,*55
$PYRTM,2024,122.724027229039,13.833674639178
$GPGGA,172235.00,3356.3408,N,11950.4996,W,1,08,1.0,7.8,M,-34.0,M,,*50
$PYRTM,2024,122.724038918588,13.833686328727
$GPGGA,172236.00,3356.3411,N,11950.4968,W,1,08,1.0,7.8,M,-34.0,M,,*5A
$PYRTM,2024,122.724054560602,13.833701970741
$GPGGA,172237.00,3356.3414,N,11950.4940,W,1,08,1.0,7.6,M,-34.0,M,,*5A
$PYRTM,2024,122.724066120729,13.833713530868
$GPGGA,172238.00,3356.3416,N,11950.4912,W,1,08,1.0,7.7,M,-34.0,M,,*51
$PYRTM,2024,122.724073526898,13.833720937037
$GPGGA,172239.00,3356.3417,N,11950.4884,W,1,08,1.0,7.7,M,-34.0,M,,*5F
$PYRTM,2024,122.724085216944,13.833732627083
$GPGGA,172240.00,3356.3419,N,11950.4856,W,1,08,1.0,7.8,M,-34.0,M,,*5F
$PYRTM,2024,122.724100857720,13.833748267859
$GPGGA,172241.00,3356.3421,N,11950.4828,W,1,08,1.0,7.8,M,-34.0,M,,*5C
$PYRTM,2024,122.724112416667,13.833759826817
$GPGGA,172242.00,3356.3424,N,11950.4800,W,1,08,1.0,7.7,M,-34.0,M,,*5F
$PYRTM,2024,122.724124002593,13.833771412731
$GPGGA,172243.00,3356.3426,N,11950.4773,W,1,08,1.0,7.5,M,-34.0,M,,*55
$PYRTM,2024,122.724135563021,13.833782973160
$GPGGA,172244.00,3356.3428,N,11950.4746,W,1,08,1.0,7.3,M,-34.0,M,,*5C
$PYRTM,2024,122.724142970891,13.833790381030
$GPGGA,172245.00,3356.3431,N,11950.4719,W,1,08,1.0,7.2,M,-34.0,M,,*5E
$PYRTM,2024,122.724158712234,13.833806122373
$GPGGA,172246.00,3356.3433,N,11950.4693,W,1,08,1.0,7.1,M,-34.0,M,,*5F
$PYRTM,2024,122.724170294421,13.833817704560
$GPGGA,172247.00,3356.3436,N,11950.4666,W,1,08,1.0,7.1,M,-34.0,M,,*51
$PYRTM,2024,122.724181860799,13.833829270937
$GPGGA,172248.00,3356.3439,N,11950.4639,W,1,08,1.0,7.3,M,-34.0,M,,*59
$PYRTM,2024,122.724193448646,13.833840858785
$GPGGA,172249.00,3356.3442,N,11950.4611,W,1,08,1.0,7.4,M,-34.0,M,,*59
$PYRTM,2024,122.724205007778,13.833852417917
$GPGGA,172250.00,3356.3443,N,11950.4583,W,1,08,1.0,7.6,M,-34.0,M,,*5A
$PYRTM,2024,122.724216598900,13.833864009039
$GPGGA,172251.00,3356.3445,N,11950.4555,W,1,08,1.0,7.8,M,-34.0,M,,*58
$PYRTM,2024,122.724228158414,13.833875568553
$GPGGA,172252.00,3356.3448,N,11950.4527,W,1,08,1.0,7.9,M,-34.0,M,,*52
$PYRTM,2024,122.724239744560,13.833887154699
$GPGGA,172253.00,3356.3451,N,11950.4499,W,1,08,1.0,7.8,M,-34.0,M,,*5E
$PYRTM,2024,122.724251308495,13.833898718634
$GPGGA,172254.00,3356.3455,N,11950.4472,W,1,08,1.0,7.7,M,-34.0,M,,*57
$PYRTM,2024,122.724262892512,13.833910302650
$GPGGA,172255.00,3356.3458,N,11950.4445,W,1,08,1.0,7.6,M,-34.0,M,,*5E
$PYRTM,2024,122.724270288102,13.833917698241
$GPGGA,172256.00,3356.3460,N,11950.4418,W,1,08,1.0,7.7,M,-34.0,M,,*5F
$PYRTM,2024,122.724282439572,13.833929849711
$GPGGA,172257.00,3356.3461,N,11950.4390,W,1,08,1.0,7.5,M,-34.0,M,,*5A
$PYRTM,2024,122.724297603194,13.833945013333
$GPGGA,172258.00,3356.3463,N,11950.4363,W,1,08,1.0,7.3,M,-34.0,M,,*5D
$PYRTM,2024,122.724309192222,13.833956602361
$GPGGA,172259.00,3356.3466,N,11950.4335,W,1,08,1.0,7.3,M,-34.0,M,,*5A
$PYRTM,2024,122.724320750428,13.833968160567
$GPGGA,172300.00,3356.3469,N,11950.4308,W,1,09,1.0,7.1,M,-34.0,M,,*55
$PYRTM,2024,122.724332340949,13.833979751088
$GPGGA,172301.00,3356.3472,N,11950.4280,W,1,09,1.0,7.4,M,-34.0,M,,*5A
$PYRTM,2024,122.724343897593,13.833991307731
$GPGGA,172302.00,3356.3475,N,11950.4252,W,1,09,1.0,7.8,M,-34.0,M,,*5D
$PYRTM,2024,122.724351306458,13.833998716609
$GPGGA,172303.00,3356.3479,N,11950.4225,W,1,09,1.0,7.9,M,-34.0,M,,*51
$PYRTM,2024,122.724367047940,13.834014458079
$GPGGA,172304.00,3356.3483,N,11950.4198,W,1,09,1.0,7.8,M,-34.0,M,,*57
$PYRTM,2024,122.724378633981,13.834026044120
$GPGGA,172305.00,3356.3485,N,11950.4172,W,1,09,1.0,7.8,M,-34.0,M,,*54
$PYRTM,2024,122.724390193530,13.834037603669
$GPGGA,172306.00,3356.3487,N,11950.4145,W,1,09,1.0,7.6,M,-34.0,M,,*5F
$PYRTM,2024,122.724401777813,13.834049187951
$GPGGA,172307.00,3356.3488,N,11950.4118,W,1,09,1.0,7.5,M,-34.0,M,,*5A
$PYRTM,2024,122.724413343553,13.834060753692
$GPGGA,172308.00,3356.3490,N,11950.4090,W,1,09,1.0,7.6,M,-34.0,M,,*5E
$PYRTM,2024,122.724424933102,13.834072343241
$GPGGA,172309.00,3356.3493,N,11950.4063,W,1,09,1.0,7.9,M,-34.0,M,,*5F
$PYRTM,2024,122.724436490324,13.834083900463
$GPGGA,172310.00,3356.3496,N,11950.4035,W,1,09,1.0,8.1,M,-34.0,M,,*56
$PYRTM,2024,122.724443897870,13.834091308009
$GPGGA,172311.00,3356.3499,N,11950.4008,W,1,09,1.0,8.1,M,-34.0,M,,*56
$PYRTM,2024,122.724462556505,13.834109966644
$GPGGA,172312.00,3356.3501,N,11950.3981,W,1,09,1.0,8.0,M,-34.0,M,,*5B
$PYRTM,2024,122.724474120417,13.834121530556
$GPGGA,172313.00,3356.3504,N,11950.3954,W,1,09,1.0,8.0,M,-34.0,M,,*57
$PYRTM,2024,122.724482788368,13.834130198507
$GPGGA,172314.00,3356.3509,N,11950.3927,W,1,09,1.0,7.9,M,-34.0,M,,*5F
$PYRTM,2024,122.724494374468,13.834141784618
$GPGGA,172315.00,3356.3512,N,11950.3901,W,1,09,1.0,7.8,M,-34.0,M,,*51
$PYRTM,2024,122.724501769838,13.834149179977
$GPGGA,172316.00,3356.3514,N,11950.3875,W,1,09,1.0,8.0,M,-34.0,M,,*51
$PYRTM,2024,122.724517523704,13.834164933854
$GPGGA,172317.00,3356.3516,N,11950.3848,W,1,09,1.0,8.2,M,-34.0,M,,*5E
$PYRTM,2024,122.724529083657,13.834176493796
$GPGGA,172318.00,3356.3518,N,11950.3820,W,1,09,1.0,8.3,M,-34.0,M,,*50
$PYRTM,2024,122.724540674873,13.834188085012
$GPGGA,172319.00,3356.3521,N,11950.3793,W,1,09,1.0,8.5,M,-34.0,M,,*5A
$PYRTM,2024,122.724552233750,13.834199643889
$GPGGA,172320.00,3356.3523,N,11950.3766,W,1,09,1.0,8.6,M,-34.0,M,,*5B
$PYRTM,2024,122.724563821331,13.834211231470
$GPGGA,172321.00,3356.3525,N,11950.3739,W,1,09,1.0,8.6,M,-34.0,M,,*56
$PYRTM,2024,122.724571227396,13.834218637535
$GPGGA,172322.00,3356.3527,N,11950.3711,W,1,09,1.0,8.4,M,-34.0,M,,*5F
$PYRTM,2024,122.724586962373,13.834234372512
$GPGGA,172323.00,3356.3530,N,11950.3684,W,1,09,1.0,8.3,M,-34.0,M,,*52
$PYRTM,2024,122.724598529016,13.834245939155
$GPGGA,172324.00,3356.3534,N,11950.3658,W,1,09,1.0,8.3,M,-34.0,M,,*50
$PYRTM,2024,122.724605937755,13.834253347894
$GPGGA,172325.00,3356.3538,N,11950.3631,W,1,09,1.0,8.3,M,-34.0,M,,*52
$PYRTM,2024,122.724621676991,13.834269087141
$GPGGA,172326.00,3356.3540,N,11950.3604,W,1,09,1.0,8.3,M,-34.0,M,,*58
$PYRTM,2024,122.724629084815,13.834276494954
$GPGGA,172327.00,3356.3541,N,11950.3577,W,1,09,1.0,8.3,M,-34.0,M,,*5F
$PYRTM,2024,122.724640773704,13.834288183843
$GPGGA,172328.00,3356.3542,N,11950.3550,W,1,09,1.0,8.4,M,-34.0,M,,*51
$PYRTM,2024,122.724656415880,13.834303826019
$GPGGA,172329.00,3356.3544,N,11950.3522,W,1,09,1.0,8.6,M,-34.0,M,,*51
$PYRTM,2024,122.724667973854,13.834315383993
$GPGGA,172330.00,3356.3548,N,11950.3495,W,1,09,1.0,8.6,M,-34.0,M,,*58
$PYRTM,2024,122.724679561227,13.834326971366
$GPGGA,172331.00,3356.3553,N,11950.3467,W,1,09,1.0,8.6,M,-34.0,M,,*5E
$PYRTM,2024,122.724691122627,13.834338532778
$GPGGA,172332.00,3356.3555,N,11950.3440,W,1,09,1.0,8.5,M,-34.0,M,,*5D
$PYRTM,2024,122.724698531204,13.834345941343
$GPGGA,172333.00,3356.3557,N,11950.3413,W,1,09,1.0,8.5,M,-34.0,M,,*58
$PYRTM,2024,122.724714270370,13.834361680521
$GPGGA,172334.00,3356.3560,N,11950.3386,W,1,09,1.0,8.4,M,-34.0,M,,*51
$PYRTM,2024,122.724725860972,13.834373271111
$GPGGA,172335.00,3356.3563,N,11950.3360,W,1,09,1.0,8.4,M,-34.0,M,,*5B
$PYRTM,2024,122.724733253576,13.834380663727
$GPGGA,172336.00,3356.3566,N,11950.3333,W,1,09,1.0,8.4,M,-34.0,M,,*5B
$PYRTM,2024,122.724749005625,13.834396415764
$GPGGA,172337.00,3356.3567,N,11950.3306,W,1,09,1.0,8.3,M,-34.0,M,,*5A
$PYRTM,2024,122.724760565243,13.834407975382
$GPGGA,172338.00,3356.3569,N,11950.3278,W,1,09,1.0,8.3,M,-34.0,M,,*53
$PYRTM,2024,122.724772156609,13.834419566748
$GPGGA,172339.00,3356.3571,N,11950.3251,W,1,09,1.0,8.3,M,-34.0,M,,*50
$PYRTM,2024,122.724779549421,13.834426959560
$GPGGA,172340.00,3356.3575,N,11950.3223,W,1,09,1.0,8.5,M,-34.0,M,,*59
$PYRTM,2024,122.724795297720,13.834442707870
$GPGGA,172341.00,3356.3579,N,11950.3196,W,1,09,1.0,8.5,M,-34.0,M,,*59
$PYRTM,2024,122.724802709363,13.834450119502
$GPGGA,172342.00,3356.3582,N,11950.3169,W,1,09,1.0,8.5,M,-34.0,M,,*5E
$PYRTM,2024,122.724821343600,13.834468753738
$GPGGA,172343.00,3356.3584,N,11950.3142,W,1,09,1.0,8.5,M,-34.0,M,,*50
$PYRTM,2024,122.724832942176,13.834480352315
$GPGGA,172344.00,3356.3587,N,11950.3115,W,1,09,1.0,8.4,M,-34.0,M,,*57
$PYRTM,2024,122.724841594468,13.834489004606
$GPGGA,172345.00,3356.3591,N,11950.3088,W,1,09,1.0,8.2,M,-34.0,M,,*52
$PYRTM,2024,122.724853287755,13.834500697894
$GPGGA,172346.00,3356.3594,N,11950.3061,W,1,09,1.0,8.1,M,-34.0,M,,*50
$PYRTM,2024,122.724864863322,13.834512273461
$GPGGA,172347.00,3356.3596,N,11950.3035,W,1,09,1.0,8.2,M,-34.0,M,,*51
$PYRTM,2024,122.724876436366,13.834523846505
$GPGGA,172348.00,3356.3598,N,11950.3007,W,1,09,1.0,8.3,M,-34.0,M,,*50
$PYRTM,2024,122.724883716782,13.834531126921
$GPGGA,172349.00,3356.3600,N,11950.2980,W,1,09,1.0,8.3,M,-34.0,M,,*54
$PYRTM,2024,122.724899595394,13.834547005521
$GPGGA,172350.00,3356.3603,N,11950.2952,W,1,09,1.0,8.3,M,-34.0,M,,*50
$PYRTM,2024,122.724911042269,13.834558452407
$GPGGA,172351.00,3356.3607,N,11950.2925,W,1,09,1.0,8.4,M,-34.0,M,,*52
$PYRTM,2024,122.724922603947,13.834570014086
$GPGGA,172352.00,3356.3610,N,11950.2898,W,1,09,1.0,8.5,M,-34.0,M,,*51
$PYRTM,2024,122.724934191644,13.834581601782
$GPGGA,172353.00,3356.3613,N,11950.2870,W,1,09,1.0,8.5,M,-34.0,M,,*55
$PYRTM,2024,122.724945752824,13.834593162963
$GPGGA,172354.00,3356.3615,N,11950.2843,W,1,09,1.0,8.5,M,-34.0,M,,*54
$PYRTM,2024,122.724953161586,13.834600571736
$GPGGA,172355.00,3356.3618,N,11950.2816,W,1,09,1.0,8.5,M,-34.0,M,,*58
$PYRTM,2024,122.724968901782,13.834616311921
$GPGGA,172356.00,3356.3621,N,11950.2789,W,1,09,1.0,8.4,M,-34.0,M,,*59
$PYRTM,2024,122.724980491563,13.834627901701
$GPGGA,172357.00,3356.3624,N,11950.2762,W,1,09,1.0,8.1,M,-34.0,M,,*5D
$PYRTM,2024,122.724987884086,13.834635294225
$GPGGA,172358.00,3356.3625,N,11950.2734,W,1,09,1.0,7.9,M,-34.0,M,,*57
$PYRTM,2024,122.725003636817,13.834651046956
$GPGGA,172359.00,3356.3626,N,11950.2707,W,1,09,1.0,7.8,M,-34.0,M,,*54
$PYRTM,2024,122.725011044306,13.834658454456
$GPGGA,172400.00,3356.3628,N,11950.2681,W,1,09,1.0,8.0,M,-34.0,M,,*59
$PYRTM,2024,122.725029680220,13.834677090359
$GPGGA,172401.00,3356.3631,N,11950.2653,W,1,09,1.0,8.3,M,-34.0,M,,*5C
$PYRTM,2024,122.725038346319,13.834685756458
$GPGGA,172402.00,3356.3635,N,11950.2625,W,1,09,1.0,8.4,M,-34.0,M,,*5D
$PYRTM,2024,122.725049927917,13.834697338056
$GPGGA,172403.00,3356.3639,N,11950.2598,W,1,09,1.0,8.5,M,-34.0,M,,*54
$PYRTM,2024,122.725061494931,13.834708905069
$GPGGA,172404.00,3356.3642,N,11950.2570,W,1,09,1.0,8.8,M,-34.0,M,,*54
$PYRTM,2024,122.725073082535,13.834720492674
$GPGGA,172405.00,3356.3643,N,11950.2543,W,1,09,1.0,8.8,M,-34.0,M,,*54
$PYRTM,2024,122.725084642257,13.834732052396
$GPGGA,172406.00,3356.3645,N,11950.2515,W,1,09,1.0,8.6,M,-34.0,M,,*5C
$PYRTM,2024,122.725092050706,13.834739460845
$GPGGA,172407.00,3356.3647,N,11950.2488,W,1,09,1.0,8.3,M,-34.0,M,,*5F
$PYRTM,2024,122.725107793542,13.834755203692
$GPGGA,172408.00,3356.3650,N,11950.2460,W,1,09,1.0,8.0,M,-34.0,M,,*53
$PYRTM,2024,122.725119377234,13.834766787373
$GPGGA,172409.00,3356.3652,N,11950.2433,W,1,09,1.0,7.8,M,-34.0,M,,*51
$PYRTM,2024,122.725130938171,13.834778348310
$GPGGA,172410.00,3356.3656,N,11950.2406,W,1,09,1.0,7.8,M,-34.0,M,,*5B
$PYRTM,2024,122.725142519722,13.834789929861
$GPGGA,172411.00,3356.3660,N,11950.2379,W,1,09,1.0,8.0,M,-34.0,M,,*57
$PYRTM,2024,122.725154089074,13.834801499213
$GPGGA,172412.00,3356.3663,N,11950.2352,W,1,09,1.0,8.2,M,-34.0,M,,*5C
$PYRTM,2024,122.725161494491,13.834808904630
$GPGGA,172413.00,3356.3665,N,11950.2323,W,1,09,1.0,8.3,M,-34.0,M,,*5C
$PYRTM,2024,122.725177236400,13.834824646551
$GPGGA,172414.00,3356.3666,N,11950.2296,W,1,09,1.0,8.2,M,-34.0,M,,*56
$PYRTM,2024,122.725188822558,13.834836232697
$GPGGA,172415.00,3356.3667,N,11950.2268,W,1,09,1.0,8.1,M,-34.0,M,,*54
$PYRTM,2024,122.725196217488,13.834843627627
$GPGGA,172416.00,3356.3669,N,11950.2241,W,1,09,1.0,8.1,M,-34.0,M,,*52
$PYRTM,2024,122.725211974745,13.834859384884
$GPGGA,172417.00,3356.3671,N,11950.2214,W,1,09,1.0,8.2,M,-34.0,M,,*59
$PYRTM,2024,122.725223532708,13.834870942847
$GPGGA,172418.00,3356.3674,N,11950.2187,W,1,09,1.0,8.1,M,-34.0,M,,*59
$PYRTM,2024,122.725235114051,13.834882524190
$GPGGA,172419.00,3356.3677,N,11950.2160,W,1,09,1.0,8.0,M,-34.0,M,,*53
$PYRTM,2024,122.725246681979,13.834894092118
$GPGGA,172420.00,3356.3681,N,11950.2132,W,1,09,1.0,8.0,M,-34.0,M,,*57
$PYRTM,2024,122.725258269086,13.834905679225
$GPGGA,172421.00,3356.3684,N,11950.2105,W,1,09,1.0,8.1,M,-34.0,M,,*56
$PYRTM,2024,122.725265663449,13.834913073588
$GPGGA,172422.00,3356.3687,N,11950.2077,W,1,09,1.0,8.3,M,-34.0,M,,*50
$PYRTM,2024,122.725281411632,13.834928821771
$GPGGA,172423.00,3356.3689,N,11950.2049,W,1,09,1.0,8.3,M,-34.0,M,,*52
$PYRTM,2024,122.725292977917,13.834940388056
$GPGGA,172424.00,3356.3691,N,11950.2021,W,1,09,1.0,8.4,M,-34.0,M,,*55
$PYRTM,2024,122.725304567326,13.834951977465
$GPGGA,172425.00,3356.3693,N,11950.1994,W,1,09,1.0,8.3,M,-34.0,M,,*55
$PYRTM,2024,122.725316126539,13.834963536678
$GPGGA,172426.00,3356.3695,N,11950.1967,W,1,09,1.0,8.1,M,-34.0,M,,*5E
$PYRTM,2024,122.725327716412,13.834975126562
$GPGGA,172427.00,3356.3697,N,11950.1940,W,1,09,1.0,7.8,M,-34.0,M,,*5E
$PYRTM,2024,122.725339274248,13.834986684387
$GPGGA,172428.00,3356.3699,N,11950.1913,W,1,09,1.0,7.7,M,-34.0,M,,*56
$PYRTM,2024,122.725350860255,13.834998270394
$GPGGA,172429.00,3356.3703,N,11950.1886,W,1,09,1.0,7.7,M,-34.0,M,,*58
$PYRTM,2024,122.725362422789,13.835009832940
$GPGGA,172430.00,3356.3706,N,11950.1860,W,1,09,1.0,7.7,M,-34.0,M,,*5D
$PYRTM,2024,122.725369829850,13.835017239988
$GPGGA,172431.00,3356.3709,N,11950.1832,W,1,09,1.0,7.8,M,-34.0,M,,*5B
$PYRTM,2024,122.725385570775,13.835032980914
$GPGGA,172432.00,3356.3711,N,11950.1804,W,1,09,1.0,7.9,M,-34.0,M,,*55
$PYRTM,2024,122.725397152060,13.835044562199
$GPGGA,172433.00,3356.3713,N,11950.1776,W,1,09,1.0,8.1,M,-34.0,M,,*5B
$PYRTM,2024,122.725404552593,13.835051962743
$GPGGA,172434.00,3356.3715,N,11950.1748,W,1,09,1.0,8.3,M,-34.0,M,,*55
$PYRTM,2024,122.725420308137,13.835067718275
$GPGGA,172435.00,3356.3717,N,11950.1720,W,1,09,1.0,8.4,M,-34.0,M,,*5F
$PYRTM,2024,122.725431868056,13.835079278194
$GPGGA,172436.00,3356.3721,N,11950.1692,W,1,09,1.0,8.3,M,-34.0,M,,*56
$PYRTM,2024,122.725443449630,13.835090859769
$GPGGA,172437.00,3356.3725,N,11950.1665,W,1,09,1.0,8.2,M,-34.0,M,,*5A
$PYRTM,2024,122.725455040926,13.835102451076
$GPGGA,172438.00,3356.3728,N,11950.1638,W,1,09,1.0,8.1,M,-34.0,M,,*53
$PYRTM,2024,122.725466602593,13.835114012731
$GPGGA,172439.00,3356.3731,N,11950.1611,W,1,09,1.0,8.0,M,-34.0,M,,*50
$PYRTM,2024,122.725474009259,13.835121419398
$GPGGA,172440.00,3356.3732,N,11950.1585,W,1,09,1.0,7.7,M,-34.0,M,,*5B
$PYRTM,2024,122.725489745787,13.835137155926
$GPGGA,172441.00,3356.3734,N,11950.1558,W,1,09,1.0,7.5,M,-34.0,M,,*5E
$PYRTM,2024,122.725501314144,13.835148724282
$GPGGA,172442.00,3356.3736,N,11950.1531,W,1,09,1.0,7.6,M,-34.0,M,,*53
$PYRTM,2024,122.725512898623,13.835160308773
$GPGGA,172443.00,3356.3739,N,11950.1503,W,1,09,1.0,7.8,M,-34.0,M,,*52
$PYRTM,2024,122.725520294699,13.835167704838
$GPGGA,172444.00,3356.3743,N,11950.1475,W,1,09,1.0,8.1,M,-34.0,M,,*5E
$PYRTM,2024,122.725536049514,13.835183459653
$GPGGA,172445.00,3356.3746,N,11950.1448,W,1,09,1.0,8.5,M,-34.0,M,,*50
$PYRTM,2024,122.725543443264,13.835190853403
$GPGGA,172446.00,3356.3749,N,11950.1420,W,1,09,1.0,8.5,M,-34.0,M,,*52
$PYRTM,2024,122.725559190648,13.835206600787
$GPGGA,172447.00,3356.3752,N,11950.1392,W,1,09,1.0,8.4,M,-34.0,M,,*56
$PYRTM,2024,122.725570757604,13.835218167743
$GPGGA,172448.00,3356.3754,N,11950.1364,W,1,09,1.0,8.1,M,-34.0,M,,*53
$PYRTM,2024,122.725578165266,13.835225575405
$GPGGA,172449.00,3356.3755,N,11950.1337,W,1,09,1.0,7.9,M,-34.0,M,,*52
$PYRTM,2024,122.725593904803,13.835241314942
$GPGGA,172450.00,3356.3757,N,11950.1310,W,1,09,1.0,7.8,M,-34.0,M,,*5C
$PYRTM,2024,122.725605490428,13.835252900567
$GPGGA,172451.00,3356.3760,N,11950.1283,W,1,09,1.0,7.9,M,-34.0,M,,*53
$PYRTM,2024,122.725612886829,13.835260296968
$GPGGA,172452.00,3356.3764,N,11950.1255,W,1,09,1.0,8.0,M,-34.0,M,,*59
$PYRTM,2024,122.725624586863,13.835271997002
$GPGGA,172453.00,3356.3768,N,11950.1228,W,1,09,1.0,8.1,M,-34.0,M,,*5F
$PYRTM,2024,122.725640201678,13.835287611817
$GPGGA,172454.00,3356.3771,N,11950.1201,W,1,09,1.0,8.1,M,-34.0,M,,*5B
$PYRTM,2024,122.725651793796,13.835299203935
$GPGGA,172455.00,3356.3773,N,11950.1174,W,1,09,1.0,8.2,M,-34.0,M,,*5A
$PYRTM,2024,122.725663348646,13.835310758785
$GPGGA,172456.00,3356.3775,N,11950.1146,W,1,09,1.0,8.2,M,-34.0,M,,*5E
$PYRTM,2024,122.725674934213,13.835322344352
$GPGGA,172457.00,3356.3779,N,11950.1119,W,1,09,1.0,8.2,M,-34.0,M,,*59
$PYRTM,2024,122.725686497245,13.835333907384
$GPGGA,172458.00,3356.3783,N,11950.1092,W,1,09,1.0,8.2,M,-34.0,M,,*51
$PYRTM,2024,122.725698085081,13.835345495220
$GPGGA,172459.00,3356.3786,N,11950.1065,W,1,09,1.0,8.1,M,-34.0,M,,*5E
$PYRTM,2024,122.725709645764,13.835357055903
$GPGGA,172500.00,3356.3789,N,11950.1037,W,1,09,1.0,8.1,M,-34.0,M,,*5B
$PYRTM,2024,122.725721234132,13.835368644271
$GPGGA,172501.00,3356.3791,N,11950.1010,W,1,09,1.0,8.1,M,-34.0,M,,*56
$PYRTM,2024,122.725728627801,13.835376037940
$GPGGA,172502.00,3356.3793,N,11950.0982,W,1,09,1.0,8.1,M,-34.0,M,,*54
$PYRTM,2024,122.725744381620,13.835391791759
$GPGGA,172503.00,3356.3795,N,11950.0954,W,1,09,1.0,8.0,M,-34.0,M,,*59
$PYRTM,2024,122.725755942222,13.835403352361
$GPGGA,172504.00,3356.3798,N,11950.0927,W,1,09,1.0,8.0,M,-34.0,M,,*57
$PYRTM,2024,122.725767534167,13.835414944306
$GPGGA,172505.00,3356.3801,N,11950.0899,W,1,10,0.8,8.0,M,-34.0,M,,*5C
$PYRTM,2024,122.725779091296,13.835426501435
$GPGGA,172506.00,3356.3804,N,11950.0872,W,1,10,0.8,8.1,M,-34.0,M,,*5E
$PYRTM,2024,122.725786497477,13.835433907616
$GPGGA,172507.00,3356.3807,N,11950.0844,W,1,10,0.8,8.1,M,-34.0,M,,*59
$PYRTM,2024,122.725802238657,13.835449648796
$GPGGA,172508.00,3356.3810,N,11950.0817,W,1,10,0.8,8.2,M,-34.0,M,,*55
$PYRTM,2024,122.725813820972,13.835461231111
$GPGGA,172509.00,3356.3813,N,11950.0790,W,1,10,0.8,8.3,M,-34.0,M,,*56
$PYRTM,2024,122.725825386701,13.835472796840
$GPGGA,172510.00,3356.3817,N,11950.0763,W,1,10,0.8,8.4,M,-34.0,M,,*51
$PYRTM,2024,122.725836977361,13.835484387500
$GPGGA,172511.00,3356.3820,N,11950.0735,W,1,10,0.8,8.4,M,-34.0,M,,*57
$PYRTM,2024,122.725848537141,13.835495947280
$GPGGA,172512.00,3356.3822,N,11950.0708,W,1,10,0.8,8.3,M,-34.0,M,,*5F
$PYRTM,2024,122.725860125463,13.835507535613
$GPGGA,172513.00,3356.3824,N,11950.0680,W,1,10,0.8,8.1,M,-34.0,M,,*5B
$PYRTM,2024,122.725871683738,13.835519093877
$GPGGA,172514.00,3356.3826,N,11950.0652,W,1,10,0.8,8.0,M,-34.0,M,,*50
$PYRTM,2024,122.725879091389,13.835526501528
$GPGGA,172515.00,3356.3829,N,11950.0624,W,1,10,0.8,7.8,M,-34.0,M,,*58
$PYRTM,2024,122.725894832442,13.835542242581
$GPGGA,172516.00,3356.3833,N,11950.0596,W,1,10,0.8,7.8,M,-34.0,M,,*5A
$PYRTM,2024,122.725906418565,13.835553828704
$GPGGA,172517.00,3356.3835,N,11950.0568,W,1,10,0.8,7.8,M,-34.0,M,,*5C
$PYRTM,2024,122.725917981771,13.835565391910
$GPGGA,172518.00,3356.3836,N,11950.0541,W,1,10,0.8,7.9,M,-34.0,M,,*5A
$PYRTM,2024,122.725925385637,13.835572795775
$GPGGA,172519.00,3356.3838,N,11950.0514,W,1,10,0.8,8.0,M,-34.0,M,,*53
$PYRTM,2024,122.725941130069,13.835588540220
$GPGGA,172520.00,3356.3842,N,11950.0486,W,1,10,0.8,8.1,M,-34.0,M,,*5F
$PYRTM,2024,122.725952710451,13.835600120590
$GPGGA,172521.00,3356.3847,N,11950.0459,W,1,10,0.8,8.3,M,-34.0,M,,*5B
$PYRTM,2024,122.725960108657,13.835607518796
$GPGGA,172522.00,3356.3851,N,11950.0433,W,1,10,0.8,8.3,M,-34.0,M,,*53
$PYRTM,2024,122.725975866921,13.835623277060
$GPGGA,172523.00,3356.3854,N,11950.0405,W,1,10,0.8,8.4,M,-34.0,M,,*55
$PYRTM,2024,122.725987426007,13.835634836146
$GPGGA,172524.00,3356.3856,N,11950.0376,W,1,10,0.8,8.3,M,-34.0,M,,*54
$PYRTM,2024,122.725999025914,13.835646436053
$GPGGA,172525.00,3356.3858,N,11950.0348,W,1,10,0.8,8.2,M,-34.0,M,,*57
$PYRTM,2024,122.726010573437,13.835657983588
$GPGGA,172526.00,3356.3860,N,11950.0320,W,1,10,0.8,8.2,M,-34.0,M,,*51
$PYRTM,2024,122.726022160521,13.835669570660
$GPGGA,172527.00,3356.3864,N,11950.0292,W,1,10,0.8,8.1,M,-34.0,M,,*5F
$PYRTM,2024,122.726033722477,13.835681132616
$GPGGA,172528.00,3356.3867,N,11950.0265,W,1,10,0.8,8.0,M,-34.0,M,,*5A
$PYRTM,2024,122.726045307778,13.835692717917
$GPGGA,172529.00,3356.3870,N,11950.0237,W,1,10,0.8,7.8,M,-34.0,M,,*5D
$PYRTM,2024,122.726052704896,13.835700115035
$GPGGA,172530.00,3356.3873,N,11950.0211,W,1,10,0.8,7.6,M,-34.0,M,,*5C
$PYRTM,2024,122.726068456262,13.835715866400
$GPGGA,172531.00,3356.3876,N,11950.0184,W,1,10,0.8,7.6,M,-34.0,M,,*57
$PYRTM,2024,122.726080018495,13.835727428634
$GPGGA,172532.00,3356.3879,N,11950.0157,W,1,10,0.8,7.7,M,-34.0,M,,*54
$PYRTM,2024,122.726087426539,13.835734836678
$GPGGA,172533.00,3356.3881,N,11950.0129,W,1,10,0.8,7.8,M,-34.0,M,,*54
$PYRTM,2024,122.726103167315,13.835750577454
$GPGGA,172534.00,3356.3884,N,11950.0101,W,1,10,0.8,7.9,M,-34.0,M,,*5D
$PYRTM,2024,122.726110574514,13.835757984653
$GPGGA,172535.00,3356.3886,N,11950.0072,W,1,10,0.8,8.2,M,-34.0,M,,*5F
$PYRTM,2024,122.726126316111,13.835773726250
$GPGGA,172536.00,3356.3888,N,11950.0043,W,1,10,0.8,8.4,M,-34.0,M,,*56
$PYRTM,2024,122.726137896690,13.835785306829
$GPGGA,172537.00,3356.3892,N,11950.0014,W,1,10,0.8,8.5,M,-34.0,M,,*5F
$PYRTM,2024,122.726149465475,13.835796875613
$GPGGA,172538.00,3356.3895,N,11949.9986,W,1,10,0.8,8.5,M,-34.0,M,,*54
$PYRTM,2024,122.726161044896,13.835808455035
$GPGGA,172539.00,3356.3898,N,11949.9959,W,1,10,0.8,8.2,M,-34.0,M,,*5D
$PYRTM,2024,122.726172613241,13.835820023380
$GPGGA,172540.00,3356.3901,N,11949.9932,W,1,10,0.8,7.8,M,-34.0,M,,*5A
$PYRTM,2024,122.726184193623,13.835831603762
$GPGGA,172541.00,3356.3905,N,11949.9906,W,1,10,0.8,7.5,M,-34.0,M,,*55
$PYRTM,2024,122.726191592894,13.835839003044
$GPGGA,172542.00,3356.3908,N,11949.9879,W,1,10,0.8,7.4,M,-34.0,M,,*53
$PYRTM,2024,122.726207346366,13.835854756505
$GPGGA,172543.00,3356.3910,N,11949.9852,W,1,10,0.8,7.4,M,-34.0,M,,*52
$PYRTM,2024,122.726218909514,13.835866319653
$GPGGA,172544.00,3356.3912,N,11949.9825,W,1,10,0.8,7.6,M,-34.0,M,,*55
$PYRTM,2024,122.726230495139,13.835877905278
$GPGGA,172545.00,3356.3913,N,11949.9796,W,1,10,0.8,7.8,M,-34.0,M,,*5C
$PYRTM,2024,122.726237889468,13.835885299606
$GPGGA,172546.00,3356.3915,N,11949.9767,W,1,10,0.8,8.0,M,-34.0,M,,*50
$PYRTM,2024,122.726256535197,13.835903945336
$GPGGA,172547.00,3356.3918,N,11949.9738,W,1,10,0.8,8.2,M,-34.0,M,,*54
$PYRTM,2024,122.726268109919,13.835915520058
$GPGGA,172548.00,3356.3922,N,11949.9710,W,1,10,0.8,8.4,M,-34.0,M,,*5E
$PYRTM,2024,122.726276794479,13.835924204618
$GPGGA,172549.00,3356.3926,N,11949.9682,W,1,10,0.8,8.4,M,-34.0,M,,*51
$PYRTM,2024,122.726288353947,13.835935764086
$GPGGA,172550.00,3356.3928,N,11949.9655,W,1,10,0.8,8.2,M,-34.0,M,,*5B
$PYRTM,2024,122.726299939363,13.835947349514
$GPGGA,172551.00,3356.3931,N,11949.9628,W,1,10,0.8,8.0,M,-34.0,M,,*5A
$PYRTM,2024,122.726311501065,13.835958911204
$GPGGA,172552.00,3356.3934,N,11949.9601,W,1,10,0.8,7.8,M,-34.0,M,,*50
$PYRTM,2024,122.726323203657,13.835970613808
$GPGGA,172553.00,3356.3938,N,11949.9574,W,1,10,0.8,7.6,M,-34.0,M,,*52
$PYRTM,2024,122.726334803241,13.835982213380
$GPGGA,172554.00,3356.3942,N,11949.9547,W,1,10,0.8,7.5,M,-34.0,M,,*5B
$PYRTM,2024,122.726346351887,13.835993762025
$GPGGA,172555.00,3356.3944,N,11949.9520,W,1,10,0.8,7.5,M,-34.0,M,,*5D
$PYRTM,2024,122.726357797419,13.836005207569
$GPGGA,172556.00,3356.3944,N,11949.9491,W,1,10,0.8,7.7,M,-34.0,M,,*57
$PYRTM,2024,122.726369379838,13.836016789977
$GPGGA,172557.00,3356.3945,N,11949.9463,W,1,10,0.8,7.9,M,-34.0,M,,*54
$PYRTM,2024,122.726380946169,13.836028356308
$GPGGA,172558.00,3356.3948,N,11949.9435,W,1,10,0.8,8.0,M,-34.0,M,,*53
$PYRTM,2024,122.726392527454,13.836039937593
$GPGGA,172559.00,3356.3952,N,11949.9407,W,1,10,0.8,8.1,M,-34.0,M,,*59
$PYRTM,2024,122.726404094734,13.836051504873
$GPGGA,172600.00,3356.3956,N,11949.9379,W,1,10,0.8,8.1,M,-34.0,M,,*5C
$PYRTM,2024,122.726415683831,13.836063093970
$GPGGA,172601.00,3356.3959,N,11949.9353,W,1,10,0.8,8.1,M,-34.0,M,,*5A
$PYRTM,2024,122.726427242627,13.836074652766
$GPGGA,172602.00,3356.3962,N,11949.9326,W,1,10,0.8,7.9,M,-34.0,M,,*54
$PYRTM,2024,122.726438831933,13.836086242072
$GPGGA,172603.00,3356.3965,N,11949.9299,W,1,10,0.8,7.8,M,-34.0,M,,*56
$PYRTM,2024,122.726450390891,13.836097801030
$GPGGA,172604.00,3356.3968,N,11949.9272,W,1,10,0.8,7.7,M,-34.0,M,,*56
$PYRTM,2024,122.726457797917,13.836105208056
$GPGGA,172605.00,3356.3971,N,11949.9244,W,1,10,0.8,7.7,M,-34.0,M,,*5A
$PYRTM,2024,122.726476444792,13.836123854931
$GPGGA,172606.00,3356.3973,N,11949.9216,W,1,10,0.8,7.8,M,-34.0,M,,*53
$PYRTM,2024,122.726488018426,13.836135428565
$GPGGA,172607.00,3356.3975,N,11949.9188,W,1,10,0.8,8.0,M,-34.0,M,,*57
$PYRTM,2024,122.726499604433,13.836147014572
$GPGGA,172608.00,3356.3978,N,11949.9160,W,1,10,0.8,8.2,M,-34.0,M,,*51
$PYRTM,2024,122.726508268958,13.836155679097
$GPGGA,172609.00,3356.3981,N,11949.9132,W,1,10,0.8,8.1,M,-34.0,M,,*52
$PYRTM,2024,122.726515668924,13.836163079062
$GPGGA,172610.00,3356.3985,N,11949.9105,W,1,10,0.8,8.0,M,-34.0,M,,*5B
$PYRTM,2024,122.726531421470,13.836178831609
$GPGGA,172611.00,3356.3988,N,11949.9078,W,1,10,0.8,7.7,M,-34.0,M,,*54
$PYRTM,2024,122.726542982720,13.836190392859
$GPGGA,172612.00,3356.3990,N,11949.9051,W,1,10,0.8,7.6,M,-34.0,M,,*54
$PYRTM,2024,122.726554566331,13.836201976470
$GPGGA,172613.00,3356.3992,N,11949.9025,W,1,10,0.8,7.4,M,-34.0,M,,*56
$PYRTM,2024,122.726566135104,13.836213545243
$GPGGA,172614.00,3356.3995,N,11949.8997,W,1,10,0.8,7.4,M,-34.0,M,,*57
$PYRTM,2024,122.726577721644,13.836225131794
$GPGGA,172615.00,3356.3999,N,11949.8970,W,1,10,0.8,7.5,M,-34.0,M,,*52
$PYRTM,2024,122.726589280417,13.836236690567
$GPGGA,172616.00,3356.4003,N,11949.8943,W,1,10,0.8,7.7,M,-34.0,M,,*5E
$PYRTM,2024,122.726596687616,13.836244097755
$GPGGA,172617.00,3356.4005,N,11949.8914,W,1,10,0.8,8.0,M,-34.0,M,,*53
$PYRTM,2024,122.726612428542,13.836259838681
$GPGGA,172618.00,3356.4006,N,11949.8886,W,1,10,0.8,8.2,M,-34.0,M,,*57
$PYRTM,2024,122.726624017720,13.836271427859
$GPGGA,172619.00,3356.4008,N,11949.8858,W,1,10,0.8,8.3,M,-34.0,M,,*5A
$PYRTM,2024,122.726635613090,13.836283023229
$GPGGA,172620.00,3356.4012,N,11949.8830,W,1,10,0.8,8.3,M,-34.0,M,,*55
$PYRTM,2024,122.726647158854,13.836294568993
$GPGGA,172621.00,3356.4016,N,11949.8803,W,1,10,0.8,8.1,M,-34.0,M,,*52
$PYRTM,2024,122.726654571076,13.836301981215
$GPGGA,172622.00,3356.4020,N,11949.8776,W,1,10,0.8,7.8,M,-34.0,M,,*5F
$PYRTM,2024,122.726666250787,13.836313660926
$GPGGA,172623.00,3356.4022,N,11949.8749,W,1,10,0.8,7.5,M,-34.0,M,,*5D
$PYRTM,2024,122.726681873252,13.836329283391
$GPGGA,172624.00,3356.4024,N,11949.8722,W,1,10,0.8,7.3,M,-34.0,M,,*57
$PYRTM,2024,122.726693460000,13.836340870139
$GPGGA,172625.00,3356.4027,N,11949.8695,W,1,10,0.8,7.4,M,-34.0,M,,*5F
$PYRTM,2024,122.726705021655,13.836352431794
$GPGGA,172626.00,3356.4030,N,11949.8667,W,1,10,0.8,7.6,M,-34.0,M,,*55
$PYRTM,2024,122.726716610949,13.836364021088
$GPGGA,172627.00,3356.4033,N,11949.8640,W,1,10,0.8,7.8,M,-34.0,M,,*5C
$PYRTM,2024,122.726728171921,13.836375582060
$GPGGA,172628.00,3356.4034,N,11949.8611,W,1,10,0.8,8.0,M,-34.0,M,,*57
$PYRTM,2024,122.726739756574,13.836387166713
$GPGGA,172629.00,3356.4037,N,11949.8584,W,1,10,0.8,8.0,M,-34.0,M,,*5A
$PYRTM,2024,122.726747153657,13.836394563796
$GPGGA,172630.00,3356.4039,N,11949.8556,W,1,10,0.8,8.0,M,-34.0,M,,*53
$PYRTM,2024,122.726762907766,13.836410317905
$GPGGA,172631.00,3356.4043,N,11949.8528,W,1,10,0.8,7.9,M,-34.0,M,,*50
$PYRTM,2024,122.726774465197,13.836421875336
$GPGGA,172632.00,3356.4046,N,11949.8501,W,1,10,0.8,7.9,M,-34.0,M,,*5D
$PYRTM,2024,122.726786067257,13.836433477396
$GPGGA,172633.00,3356.4048,N,11949.8474,W,1,10,0.8,7.9,M,-34.0,M,,*51
$PYRTM,2024,122.726797614178,13.836445024317
$GPGGA,172634.00,3356.4050,N,11949.8447,W,1,10,0.8,7.9,M,-34.0,M,,*5F
$PYRTM,2024,122.726809216204,13.836456626354
$GPGGA,172635.00,3356.4052,N,11949.8419,W,1,10,0.8,7.9,M,-34.0,M,,*57
$PYRTM,2024,122.726820763565,13.836468173704
$GPGGA,172636.00,3356.4056,N,11949.8392,W,1,10,0.8,7.9,M,-34.0,M,,*54
$PYRTM,2024,122.726828169838,13.836475579977
$GPGGA,172637.00,3356.4059,N,11949.8365,W,1,10,0.8,7.9,M,-34.0,M,,*52
$PYRTM,2024,122.726843909664,13.836491319803
$GPGGA,172638.00,3356.4061,N,11949.8337,W,1,10,0.8,7.7,M,-34.0,M,,*5F
$PYRTM,2024,122.726855500880,13.836502911019
$GPGGA,172639.00,3356.4063,N,11949.8309,W,1,10,0.8,7.6,M,-34.0,M,,*50
$PYRTM,2024,122.726867059826,13.836514469965
$GPGGA,172640.00,3356.4065,N,11949.8282,W,1,10,0.8,7.6,M,-34.0,M,,*5A
$PYRTM,2024,122.726878645995,13.836526056134
$GPGGA,172641.00,3356.4068,N,11949.8255,W,1,10,0.8,7.8,M,-34.0,M,,*52
$PYRTM,2024,122.726890206644,13.836537616782
$GPGGA,172642.00,3356.4071,N,11949.8227,W,1,10,0.8,8.0,M,-34.0,M,,*5B
$PYRTM,2024,122.726897615799,13.836545025938
$GPGGA,172643.00,3356.4073,N,11949.8199,W,1,10,0.8,8.0,M,-34.0,M,,*5E
$PYRTM,2024,122.726913356319,13.836560766458
$GPGGA,172644.00,3356.4075,N,11949.8171,W,1,10,0.8,8.0,M,-34.0,M,,*59
$PYRTM,2024,122.726924937685,13.836572347824
$GPGGA,172645.00,3356.4076,N,11949.8143,W,1,10,0.8,8.0,M,-34.0,M,,*5A
$PYRTM,2024,122.726936504398,13.836583914537
$GPGGA,172646.00,3356.4078,N,11949.8115,W,1,10,0.8,8.0,M,-34.0,M,,*54
$PYRTM,2024,122.726948095220,13.836595505359
$GPGGA,172647.00,3356.4080,N,11949.8088,W,1,10,0.8,7.9,M,-34.0,M,,*51
$PYRTM,2024,122.726955485197,13.836602895336
$GPGGA,172648.00,3356.4083,N,11949.8060,W,1,10,0.8,7.8,M,-34.0,M,,*5A
$PYRTM,2024,122.726971253530,13.836618663669
$GPGGA,172649.00,3356.4086,N,11949.8032,W,1,10,0.8,7.7,M,-34.0,M,,*56
$PYRTM,2024,122.726982800370,13.836630210509
$GPGGA,172650.00,3356.4088,N,11949.8005,W,1,10,0.8,7.8,M,-34.0,M,,*5B
$PYRTM,2024,122.726994388206,13.836641798345
$GPGGA,172651.00,3356.4090,N,11949.7977,W,1,10,0.8,7.8,M,-34.0,M,,*50
$PYRTM,2024,122.727005949213,13.836653359352
$GPGGA,172652.00,3356.4092,N,11949.7949,W,1,10,0.8,7.8,M,-34.0,M,,*5C
$PYRTM,2024,122.727017532315,13.836664942454
$GPGGA,172653.00,3356.4094,N,11949.7921,W,1,10,0.8,7.8,M,-34.0,M,,*55
$PYRTM,2024,122.727029096898,13.836676507049
$GPGGA,172654.00,3356.4096,N,11949.7894,W,1,10,0.8,7.9,M,-34.0,M,,*5E
$PYRTM,2024,122.727040685069,13.836688095208
$GPGGA,172655.00,3356.4099,N,11949.7867,W,1,10,0.8,7.9,M,-34.0,M,,*5C
$PYRTM,2024,122.727052245972,13.836699656111
$GPGGA,172656.00,3356.4102,N,11949.7839,W,1,10,0.8,7.9,M,-34.0,M,,*57
$PYRTM,2024,122.727063832303,13.836711242454
$GPGGA,172657.00,3356.4104,N,11949.7811,W,1,10,0.8,7.8,M,-34.0,M,,*5B
$PYRTM,2024,122.727075395556,13.836722805694
$GPGGA,172658.00,3356.4106,N,11949.7784,W,1,10,0.8,7.7,M,-34.0,M,,*5A
$PYRTM,2024,122.727086976609,13.836734386748
$GPGGA,172659.00,3356.4109,N,11949.7756,W,1,10,0.8,7.7,M,-34.0,M,,*5B
$PYRTM,2024,122.727098543194,13.836745953333
$GPGGA,172700.00,3356.4111,N,11949.7728,W,1,10,0.8,7.8,M,-34.0,M,,*59
$PYRTM,2024,122.727110132025,13.836757542164
$GPGGA,172701.00,3356.4114,N,11949.7700,W,1,10,0.8,7.8,M,-34.0,M,,*57
$PYRTM,2024,122.727121691620,13.836769101759
$GPGGA,172702.00,3356.4115,N,11949.7671,W,1,10,0.8,7.8,M,-34.0,M,,*52
$PYRTM,2024,122.727128983623,13.836776393762
$GPGGA,172703.00,3356.4117,N,11949.7643,W,1,10,0.8,7.9,M,-34.0,M,,*51
$PYRTM,2024,122.727144839225,13.836792249363
$GPGGA,172704.00,3356.4120,N,11949.7616,W,1,10,0.8,7.9,M,-34.0,M,,*52
$PYRTM,2024,122.727156430637,13.836803840775
$GPGGA,172705.00,3356.4123,N,11949.7589,W,1,10,0.8,7.8,M,-34.0,M,,*54
$PYRTM,2024,122.727167987512,13.836815397650
$GPGGA,172706.00,3356.4127,N,11949.7561,W,1,10,0.8,7.6,M,-34.0,M,,*5B
$PYRTM,2024,122.727179569468,13.836826979606
$GPGGA,172707.00,3356.4129,N,11949.7534,W,1,10,0.8,7.4,M,-34.0,M,,*56
$PYRTM,2024,122.727186868333,13.836834278472
$GPGGA,172708.00,3356.4131,N,11949.7507,W,1,10,0.8,7.4,M,-34.0,M,,*50
$PYRTM,2024,122.727202722014,13.836850132164
$GPGGA,172709.00,3356.4132,N,11949.7479,W,1,10,0.8,7.5,M,-34.0,M,,*5B
$PYRTM,2024,122.727214282731,13.836861692870
$GPGGA,172710.00,3356.4133,N,11949.7451,W,1,10,0.8,7.6,M,-34.0,M,,*5B
$PYRTM,2024,122.727221576285,13.836868986424
$GPGGA,172711.00,3356.4135,N,11949.7422,W,1,10,0.8,7.7,M,-34.0,M,,*59
$PYRTM,2024,122.727237433762,13.836884843900
$GPGGA,172712.00,3356.4137,N,11949.7394,W,1,10,0.8,7.8,M,-34.0,M,,*5D
$PYRTM,2024,122.727249019236,13.836896429375
$GPGGA,172713.00,3356.4140,N,11949.7366,W,1,10,0.8,7.7,M,-34.0,M,,*5E
$PYRTM,2024,122.727260580208,13.836907990347
$GPGGA,172714.00,3356.4143,N,11949.7338,W,1,10,0.8,7.6,M,-34.0,M,,*50
$PYRTM,2024,122.727272168067,13.836919578206
$GPGGA,172715.00,3356.4145,N,11949.7311,W,1,10,0.8,7.5,M,-34.0,M,,*5F
$PYRTM,2024,122.727279462245,13.836926872384
$GPGGA,172716.00,3356.4148,N,11949.7283,W,1,10,0.8,7.4,M,-34.0,M,,*5A
$PYRTM,2024,122.727295315301,13.836942725440
$GPGGA,172717.00,3356.4151,N,11949.7256,W,1,10,0.8,7.5,M,-34.0,M,,*5A
$PYRTM,2024,122.727306876435,13.836954286574
$GPGGA,172718.00,3356.4154,N,11949.7229,W,1,10,0.8,7.6,M,-34.0,M,,*5B
$PYRTM,2024,122.727314167396,13.836961577535
$GPGGA,172719.00,3356.4156,N,11949.7201,W,1,10,0.8,7.8,M,-34.0,M,,*5C
$PYRTM,2024,122.727330025428,13.836977435579
