$PYRTM,2024,125.416670407199,16.526317817338
$GPGGA,095959.00,3512.5585,N,12150.2017,W,1,09,0.8,9.5,M,-32.6,M,,*5B
$PYRTM,2024,125.416681966991,16.526329377130
$GPGGA,100000.00,3512.5581,N,12150.2007,W,1,09,0.8,9.2,M,-32.6,M,,*51
$PYRTM,2024,125.416689258495,16.526336668623
$GPGGA,100001.00,3512.5579,N,12150.1997,W,1,09,0.8,9.4,M,-32.6,M,,*52
$PYRTM,2024,125.416708008391,16.526355418530
$GPGGA,100002.00,3512.5577,N,12150.1988,W,1,09,0.8,9.9,M,-32.6,M,,*5C
$PYRTM,2024,125.416716706042,16.526364116192
$GPGGA,100003.00,3512.5571,N,12150.1982,W,1,09,0.8,10.1,M,-32.6,M,,*61
$PYRTM,2024,125.416728264549,16.526375674699
$GPGGA,100004.00,3512.5563,N,12150.1977,W,1,09,0.8,10.0,M,-32.6,M,,*6E
$PYRTM,2024,125.416735672894,16.526383083032
$GPGGA,100005.00,3512.5557,N,12150.1970,W,1,09,0.8,9.6,M,-32.6,M,,*51
$PYRTM,2024,125.416751414757,16.526398824907
$GPGGA,100006.00,3512.5553,N,12150.1960,W,1,09,0.8,9.2,M,-32.6,M,,*53
$PYRTM,2024,125.416762994780,16.526410404919
$GPGGA,100007.00,3512.5549,N,12150.1950,W,1,09,0.8,9.1,M,-32.6,M,,*59
$PYRTM,2024,125.416774560937,16.526421971076
$GPGGA,100008.00,3512.5544,N,12150.1942,W,1,09,0.8,9.3,M,-32.6,M,,*5A
$PYRTM,2024,125.416786149352,16.526433559491
$GPGGA,100009.00,3512.5537,N,12150.1936,W,1,09,0.8,9.8,M,-32.6,M,,*57
$PYRTM,2024,125.416797709144,16.526445119282
$GPGGA,100010.00,3512.5531,N,12150.1930,W,1,09,0.8,10.2,M,-32.6,M,,*6D
$PYRTM,2024,125.416809291285,16.526456701424
$GPGGA,100011.00,3512.5527,N,12150.1922,W,1,09,0.8,10.3,M,-32.6,M,,*69
$PYRTM,2024,125.416820859097,16.526468269236
$GPGGA,100012.00,3512.5524,N,12150.1912,W,1,09,0.8,10.1,M,-32.6,M,,*68
$PYRTM,2024,125.416832445301,16.526479855440
$GPGGA,100013.00,3512.5520,N,12150.1901,W,1,09,0.8,9.7,M,-32.6,M,,*51
$PYRTM,2024,125.416844007477,16.526491417627
$GPGGA,100014.00,3512.5514,N,12150.1893,W,1,09,0.8,9.4,M,-32.6,M,,*58
$PYRTM,2024,125.416851306759,16.526498716898
$GPGGA,100015.00,3512.5507,N,12150.1886,W,1,09,0.8,9.6,M,-32.6,M,,*5D
$PYRTM,2024,125.416867154109,16.526514564248
$GPGGA,100016.00,3512.5501,N,12150.1881,W,1,09,0.8,10.1,M,-32.6,M,,*60
$PYRTM,2024,125.416878743762,16.526526153900
$GPGGA,100017.00,3512.5496,N,12150.1873,W,1,09,0.8,10.5,M,-32.6,M,,*67
$PYRTM,2024,125.416890302002,16.526537712153
$GPGGA,100018.00,3512.5492,N,12150.1864,W,1,09,0.8,10.4,M,-32.6,M,,*6B
$PYRTM,2024,125.416901893750,16.526549303889
$GPGGA,100019.00,3512.5488,N,12150.1854,W,1,09,0.8,9.9,M,-32.6,M,,*57
$PYRTM,2024,125.416913450475,16.526560860613
$GPGGA,100020.00,3512.5484,N,12150.1844,W,1,09,0.8,9.3,M,-32.6,M,,*5A
$PYRTM,2024,125.416925036956,16.526572447095
$GPGGA,100021.00,3512.5480,N,12150.1836,W,1,09,0.8,8.9,M,-32.6,M,,*51
$PYRTM,2024,125.416932334282,16.526579744421
$GPGGA,100022.00,3512.5473,N,12150.1830,W,1,09,0.8,8.9,M,-32.6,M,,*58
$PYRTM,2024,125.416948183380,16.526595593519
$GPGGA,100023.00,3512.5467,N,12150.1824,W,1,09,0.8,9.2,M,-32.6,M,,*53
$PYRTM,2024,125.416959749329,16.526607159468
$GPGGA,100024.00,3512.5462,N,12150.1818,W,1,09,0.8,9.7,M,-32.6,M,,*5B
$PYRTM,2024,125.416971329687,16.526618739826
$GPGGA,100025.00,3512.5457,N,12150.1810,W,1,09,0.8,10.1,M,-32.6,M,,*6A
$PYRTM,2024,125.416982896065,16.526630306204
$GPGGA,100026.00,3512.5454,N,12150.1799,W,1,09,0.8,10.4,M,-32.6,M,,*61
$PYRTM,2024,125.416994478924,16.526641889062
$GPGGA,100027.00,3512.5451,N,12150.1790,W,1,09,0.8,10.5,M,-32.6,M,,*6D
$PYRTM,2024,125.417006044282,16.526653454421
$GPGGA,100028.00,3512.5447,N,12150.1782,W,1,09,0.8,10.2,M,-32.6,M,,*61
$PYRTM,2024,125.417017630729,16.526665040868
$GPGGA,100029.00,3512.5441,N,12150.1775,W,1,09,0.8,9.6,M,-32.6,M,,*52
$PYRTM,2024,125.417029194734,16.526676604884
$GPGGA,100030.00,3512.5434,N,12150.1767,W,1,09,0.8,9.3,M,-32.6,M,,*5E
$PYRTM,2024,125.417040782998,16.526688193137
$GPGGA,100031.00,3512.5431,N,12150.1757,W,1,09,0.8,9.3,M,-32.6,M,,*59
$PYRTM,2024,125.417048070567,16.526695480706
$GPGGA,100032.00,3512.5427,N,12150.1748,W,1,09,0.8,9.4,M,-32.6,M,,*54
$PYRTM,2024,125.417066823356,16.526714233495
$GPGGA,100033.00,3512.5422,N,12150.1742,W,1,09,0.8,9.6,M,-32.6,M,,*58
$PYRTM,2024,125.417078382975,16.526725793113
$GPGGA,100034.00,3512.5417,N,12150.1735,W,1,09,0.8,9.8,M,-32.6,M,,*57
$PYRTM,2024,125.417089965532,16.526737375671
$GPGGA,100035.00,3512.5413,N,12150.1725,W,1,09,0.8,9.6,M,-32.6,M,,*5D
$PYRTM,2024,125.417098637095,16.526746047234
$GPGGA,100036.00,3512.5411,N,12150.1714,W,1,09,0.8,9.3,M,-32.6,M,,*5B
$PYRTM,2024,125.417105943067,16.526753353206
$GPGGA,100037.00,3512.5407,N,12150.1705,W,1,09,0.8,8.8,M,-32.6,M,,*57
$PYRTM,2024,125.417121784144,16.526769194282
$GPGGA,100038.00,3512.5400,N,12150.1699,W,1,09,0.8,8.7,M,-32.6,M,,*54
$PYRTM,2024,125.417133373125,16.526780783264
$GPGGA,100039.00,3512.5393,N,12150.1693,W,1,09,0.8,8.9,M,-32.6,M,,*5C
$PYRTM,2024,125.417144934780,16.526792344919
$GPGGA,100040.00,3512.5387,N,12150.1686,W,1,09,0.8,9.3,M,-32.6,M,,*58
$PYRTM,2024,125.417156522269,16.526803932407
$GPGGA,100041.00,3512.5385,N,12150.1676,W,1,09,0.8,9.8,M,-32.6,M,,*5F
$PYRTM,2024,125.417168081806,16.526815491944
$GPGGA,100042.00,3512.5383,N,12150.1665,W,1,09,0.8,10.0,M,-32.6,M,,*68
$PYRTM,2024,125.417175489734,16.526822899873
$GPGGA,100043.00,3512.5378,N,12150.1659,W,1,09,0.8,10.1,M,-32.6,M,,*63
$PYRTM,2024,125.417191231597,16.526838641736
$GPGGA,100044.00,3512.5371,N,12150.1653,W,1,09,0.8,9.8,M,-32.6,M,,*56
$PYRTM,2024,125.417202820741,16.526850230880
$GPGGA,100045.00,3512.5364,N,12150.1647,W,1,09,0.8,9.2,M,-32.6,M,,*5C
$PYRTM,2024,125.417214379352,16.526861789491
$GPGGA,100046.00,3512.5358,N,12150.1639,W,1,09,0.8,9.0,M,-32.6,M,,*5B
$PYRTM,2024,125.417225965845,16.526873375984
$GPGGA,100047.00,3512.5355,N,12150.1629,W,1,09,0.8,9.2,M,-32.6,M,,*54
$PYRTM,2024,125.417237524931,16.526884935069
$GPGGA,100048.00,3512.5353,N,12150.1620,W,1,09,0.8,9.6,M,-32.6,M,,*50
$PYRTM,2024,125.417249113056,16.526896523194
$GPGGA,100049.00,3512.5349,N,12150.1612,W,1,09,0.8,10.1,M,-32.6,M,,*64
$PYRTM,2024,125.417260674329,16.526908084468
$GPGGA,100050.00,3512.5341,N,12150.1607,W,1,09,0.8,10.3,M,-32.6,M,,*62
$PYRTM,2024,125.417272262164,16.526919672303
$GPGGA,100051.00,3512.5334,N,12150.1600,W,1,09,0.8,9.9,M,-32.6,M,,*54
$PYRTM,2024,125.417279670775,16.526927080914
$GPGGA,100052.00,3512.5330,N,12150.1590,W,1,09,0.8,9.5,M,-32.6,M,,*55
$PYRTM,2024,125.417295409687,16.526942819826
$GPGGA,100053.00,3512.5328,N,12150.1579,W,1,09,0.8,9.4,M,-32.6,M,,*5B
$PYRTM,2024,125.417306970810,16.526954380949
$GPGGA,100054.00,3512.5324,N,12150.1569,W,1,09,0.8,9.6,M,-32.6,M,,*53
$PYRTM,2024,125.417314378391,16.526961788530
$GPGGA,100055.00,3512.5318,N,12150.1564,W,1,09,0.8,10.0,M,-32.6,M,,*6E
$PYRTM,2024,125.417333012766,16.526980422905
$GPGGA,100056.00,3512.5311,N,12150.1559,W,1,09,0.8,10.1,M,-32.6,M,,*6B
$PYRTM,2024,125.417341707662,16.526989117801
$GPGGA,100057.00,3512.5306,N,12150.1552,W,1,09,0.8,10.0,M,-32.6,M,,*66
$PYRTM,2024,125.417349101632,16.526996511771
$GPGGA,100058.00,3512.5304,N,12150.1543,W,1,09,0.8,9.7,M,-32.6,M,,*54
$PYRTM,2024,125.417364859120,16.527012269259
$GPGGA,100059.00,3512.5302,N,12150.1532,W,1,09,0.8,9.2,M,-32.6,M,,*50
$PYRTM,2024,125.417376415752,16.527023825891
$GPGGA,100100.00,3512.5296,N,12150.1523,W,1,09,0.8,8.9,M,-32.6,M,,*5B
$PYRTM,2024,125.417383715868,16.527031126007
$GPGGA,100101.00,3512.5290,N,12150.1516,W,1,09,0.8,9.2,M,-32.6,M,,*50
$PYRTM,2024,125.417399565787,16.527046975937
$GPGGA,100102.00,3512.5284,N,12150.1510,W,1,09,0.8,10.5,M,-32.6,M,,*6F
$PYRTM,2024,125.417406971505,16.527054381644
$GPGGA,100103.00,3512.5281,N,12150.1503,W,1,09,0.8,11.0,M,-32.6,M,,*6D
$PYRTM,2024,125.417425608808,16.527073018947
$GPGGA,100104.00,3512.5277,N,12150.1495,W,1,09,0.8,11.0,M,-32.6,M,,*6D
$PYRTM,2024,125.417434299687,16.527081709838
$GPGGA,100105.00,3512.5272,N,12150.1487,W,1,09,0.8,10.4,M,-32.6,M,,*6F
$PYRTM,2024,125.417445861215,16.527093271354
$GPGGA,100106.00,3512.5267,N,12150.1477,W,1,09,0.8,9.7,M,-32.6,M,,*5C
$PYRTM,2024,125.417457447882,16.527104858021
$GPGGA,100107.00,3512.5264,N,12150.1467,W,1,09,0.8,9.3,M,-32.6,M,,*5B
$PYRTM,2024,125.417469009398,16.527116419537
$GPGGA,100108.00,3512.5261,N,12150.1459,W,1,09,0.8,9.7,M,-32.6,M,,*58
$PYRTM,2024,125.417480597338,16.527128007477
$GPGGA,100109.00,3512.5255,N,12150.1452,W,1,09,0.8,10.2,M,-32.6,M,,*68
$PYRTM,2024,125.417492158322,16.527139568461
$GPGGA,100110.00,3512.5248,N,12150.1445,W,1,09,0.8,10.5,M,-32.6,M,,*6D
$PYRTM,2024,125.417503748056,16.527151158194
$GPGGA,100111.00,3512.5244,N,12150.1438,W,1,09,0.8,10.9,M,-32.6,M,,*66
$PYRTM,2024,125.417515307813,16.527162717951
$GPGGA,100112.00,3512.5242,N,12150.1428,W,1,09,0.8,10.9,M,-32.6,M,,*62
$PYRTM,2024,125.417526906944,16.527174317083
$GPGGA,100113.00,3512.5239,N,12150.1416,W,1,09,0.8,10.5,M,-32.6,M,,*6E
$PYRTM,2024,125.417538453958,16.527185864097
$GPGGA,100114.00,3512.5235,N,12150.1406,W,1,09,0.8,9.8,M,-32.6,M,,*51
$PYRTM,2024,125.417550044653,16.527197454792
$GPGGA,100115.00,3512.5229,N,12150.1400,W,1,09,0.8,9.5,M,-32.6,M,,*56
$PYRTM,2024,125.417561604236,16.527209014375
$GPGGA,100116.00,3512.5222,N,12150.1396,W,1,09,0.8,9.3,M,-32.6,M,,*50
$PYRTM,2024,125.417573191308,16.527220601447
$GPGGA,100117.00,3512.5217,N,12150.1389,W,1,09,0.8,9.2,M,-32.6,M,,*58
$PYRTM,2024,125.417584751655,16.527232161794
$GPGGA,100118.00,3512.5214,N,12150.1379,W,1,09,0.8,9.4,M,-32.6,M,,*5D
$PYRTM,2024,125.417592042512,16.527239452650
$GPGGA,100119.00,3512.5212,N,12150.1368,W,1,09,0.8,9.8,M,-32.6,M,,*56
$PYRTM,2024,125.417607899005,16.527255309144
$GPGGA,100120.00,3512.5208,N,12150.1359,W,1,09,0.8,10.0,M,-32.6,M,,*65
$PYRTM,2024,125.417619481620,16.527266891759
$GPGGA,100121.00,3512.5202,N,12150.1353,W,1,09,0.8,10.0,M,-32.6,M,,*64
$PYRTM,2024,125.417631046933,16.527278457072
$GPGGA,100122.00,3512.5195,N,12150.1347,W,1,09,0.8,9.7,M,-32.6,M,,*50
$PYRTM,2024,125.417642629896,16.527290040035
$GPGGA,100123.00,3512.5189,N,12150.1340,W,1,09,0.8,9.3,M,-32.6,M,,*5F
$PYRTM,2024,125.417654196308,16.527301606447
$GPGGA,100124.00,3512.5186,N,12150.1330,W,1,09,0.8,8.9,M,-32.6,M,,*5B
$PYRTM,2024,125.417665785185,16.527313195324
$GPGGA,100125.00,3512.5183,N,12150.1322,W,1,09,0.8,8.7,M,-32.6,M,,*52
$PYRTM,2024,125.417677344363,16.527324754514
$GPGGA,100126.00,3512.5178,N,12150.1314,W,1,09,0.8,8.8,M,-32.6,M,,*5F
$PYRTM,2024,125.417684637743,16.527332047882
$GPGGA,100127.00,3512.5173,N,12150.1307,W,1,09,0.8,9.3,M,-32.6,M,,*5D
$PYRTM,2024,125.417700491493,16.527347901632
$GPGGA,100128.00,3512.5167,N,12150.1300,W,1,09,0.8,9.8,M,-32.6,M,,*5B
$PYRTM,2024,125.417712078692,16.527359488831
$GPGGA,100129.00,3512.5161,N,12150.1290,W,1,09,0.8,9.9,M,-32.6,M,,*55
$PYRTM,2024,125.417723640104,16.527371050255
$GPGGA,100130.00,3512.5156,N,12150.1280,W,1,09,0.8,9.8,M,-32.6,M,,*59
$PYRTM,2024,125.417735223183,16.527382633322
$GPGGA,100131.00,3512.5153,N,12150.1271,W,1,09,0.8,9.8,M,-32.6,M,,*53
$PYRTM,2024,125.417746787095,16.527394197234
$GPGGA,100132.00,3512.5149,N,12150.1263,W,1,09,0.8,9.9,M,-32.6,M,,*59
$PYRTM,2024,125.417758370127,16.527405780266
$GPGGA,100133.00,3512.5145,N,12150.1256,W,1,09,0.8,9.8,M,-32.6,M,,*53
$PYRTM,2024,125.417765666863,16.527413077002
$GPGGA,100134.00,3512.5139,N,12150.1250,W,1,09,0.8,9.3,M,-32.6,M,,*52
$PYRTM,2024,125.417784417569,16.527431827708
$GPGGA,100135.00,3512.5133,N,12150.1241,W,1,09,0.8,8.8,M,-32.6,M,,*53
$PYRTM,2024,125.417793097639,16.527440507789
$GPGGA,100136.00,3512.5131,N,12150.1231,W,1,09,0.8,8.7,M,-32.6,M,,*5A
$PYRTM,2024,125.417804674630,16.527452084769
$GPGGA,100137.00,3512.5130,N,12150.1221,W,1,09,0.8,9.2,M,-32.6,M,,*5F
$PYRTM,2024,125.417816246053,16.527463656192
$GPGGA,100138.00,3512.5126,N,12150.1213,W,1,09,0.8,9.8,M,-32.6,M,,*5C
$PYRTM,2024,125.417823640637,16.527471050775
$GPGGA,100139.00,3512.5118,N,12150.1207,W,1,09,0.8,10.0,M,-32.6,M,,*65
$PYRTM,2024,125.417839394977,16.527486805116
$GPGGA,100140.00,3512.5109,N,12150.1202,W,1,10,0.8,9.7,M,-32.6,M,,*59
$PYRTM,2024,125.417850972361,16.527498382500
$GPGGA,100141.00,3512.5103,N,12150.1194,W,1,10,0.8,9.3,M,-32.6,M,,*5A
$PYRTM,2024,125.417862544097,16.527509954236
$GPGGA,100142.00,3512.5101,N,12150.1183,W,1,10,0.8,9.0,M,-32.6,M,,*5E
$PYRTM,2024,125.417874119965,16.527521530104
$GPGGA,100143.00,3512.5101,N,12150.1171,W,1,10,0.8,8.9,M,-32.6,M,,*5A
$PYRTM,2024,125.417885692940,16.527533103079
$GPGGA,100144.00,3512.5098,N,12150.1162,W,1,10,0.8,9.2,M,-32.6,M,,*54
$PYRTM,2024,125.417897264583,16.527544674711
$GPGGA,100145.00,3512.5091,N,12150.1156,W,1,10,0.8,9.6,M,-32.6,M,,*5F
$PYRTM,2024,125.417908836400,16.527556246539
$GPGGA,100146.00,3512.5084,N,12150.1150,W,1,10,0.8,9.7,M,-32.6,M,,*5F
$PYRTM,2024,125.417920413229,16.527567823368
$GPGGA,100147.00,3512.5079,N,12150.1141,W,1,10,0.8,9.6,M,-32.6,M,,*5D
$PYRTM,2024,125.417931988843,16.527579398981
$GPGGA,100148.00,3512.5076,N,12150.1131,W,1,10,0.8,9.5,M,-32.6,M,,*59
$PYRTM,2024,125.417943561840,16.527590971979
$GPGGA,100149.00,3512.5073,N,12150.1122,W,1,10,0.8,9.6,M,-32.6,M,,*5C
$PYRTM,2024,125.417955137153,16.527602547292
$GPGGA,100150.00,3512.5068,N,12150.1114,W,1,10,0.8,9.5,M,-32.6,M,,*58
$PYRTM,2024,125.417966709942,16.527614120081
$GPGGA,100151.00,3512.5062,N,12150.1109,W,1,10,0.8,9.3,M,-32.6,M,,*59
$PYRTM,2024,125.417978283924,16.527625694063
$GPGGA,100152.00,3512.5056,N,12150.1102,W,1,10,0.8,8.8,M,-32.6,M,,*5C
$PYRTM,2024,125.417989872685,16.527637282824
$GPGGA,100153.00,3512.5052,N,12150.1095,W,1,10,0.8,8.5,M,-32.6,M,,*5B
$PYRTM,2024,125.417997143634,16.527644553773
$GPGGA,100154.00,3512.5049,N,12150.1084,W,1,10,0.8,8.5,M,-32.6,M,,*56
$PYRTM,2024,125.418013021053,16.527660431192
$GPGGA,100155.00,3512.5045,N,12150.1074,W,1,10,0.8,9.0,M,-32.6,M,,*50
$PYRTM,2024,125.418024576053,16.527671986192
$GPGGA,100156.00,3512.5040,N,12150.1067,W,1,10,0.8,9.5,M,-32.6,M,,*51
$PYRTM,2024,125.418036155382,16.527683565521
$GPGGA,100157.00,3512.5032,N,12150.1062,W,1,10,0.8,9.9,M,-32.6,M,,*5C
$PYRTM,2024,125.418047728681,16.527695138819
$GPGGA,100158.00,3512.5025,N,12150.1057,W,1,10,0.8,9.9,M,-32.6,M,,*53
$PYRTM,2024,125.418055020336,16.527702430475
$GPGGA,100159.00,3512.5021,N,12150.1047,W,1,10,0.8,9.6,M,-32.6,M,,*58
$PYRTM,2024,125.418070876667,16.527718286806
$GPGGA,100200.00,3512.5019,N,12150.1035,W,1,10,0.8,9.3,M,-32.6,M,,*5C
$PYRTM,2024,125.418082451227,16.527729861377
$GPGGA,100201.00,3512.5016,N,12150.1025,W,1,10,0.8,9.0,M,-32.6,M,,*50
$PYRTM,2024,125.418089750046,16.527737160185
$GPGGA,100202.00,3512.5010,N,12150.1020,W,1,10,0.8,9.0,M,-32.6,M,,*50
$PYRTM,2024,125.418105599444,16.527753009583
$GPGGA,100203.00,3512.5003,N,12150.1017,W,1,10,0.8,9.3,M,-32.6,M,,*54
$PYRTM,2024,125.418117169884,16.527764580023
$GPGGA,100204.00,3512.4996,N,12150.1013,W,1,10,0.8,9.5,M,-32.6,M,,*55
$PYRTM,2024,125.418124452789,16.527771862928
$GPGGA,100205.00,3512.4992,N,12150.1002,W,1,10,0.8,9.3,M,-32.6,M,,*56
$PYRTM,2024,125.418143202604,16.527790612743
$GPGGA,100206.00,3512.4990,N,12150.0989,W,1,10,0.8,9.2,M,-32.6,M,,*5D
$PYRTM,2024,125.418154791528,16.527802201667
$GPGGA,100207.00,3512.4986,N,12150.0980,W,1,10,0.8,9.2,M,-32.6,M,,*52
$PYRTM,2024,125.418166352072,16.527813762222
$GPGGA,100208.00,3512.4979,N,12150.0975,W,1,10,0.8,9.2,M,-32.6,M,,*57
$PYRTM,2024,125.418175046817,16.527822456956
$GPGGA,100209.00,3512.4972,N,12150.0971,W,1,10,0.8,9.0,M,-32.6,M,,*5B
$PYRTM,2024,125.418186618681,16.527834028819
$GPGGA,100210.00,3512.4967,N,12150.0963,W,1,10,0.8,8.8,M,-32.6,M,,*5D
$PYRTM,2024,125.418198206898,16.527845617037
$GPGGA,100211.00,3512.4966,N,12150.0951,W,1,10,0.8,8.6,M,-32.6,M,,*52
$PYRTM,2024,125.418205483935,16.527852894074
$GPGGA,100212.00,3512.4963,N,12150.0941,W,1,10,0.8,8.8,M,-32.6,M,,*5B
$PYRTM,2024,125.418221341528,16.527868751667
$GPGGA,100213.00,3512.4956,N,12150.0935,W,1,10,0.8,9.2,M,-32.6,M,,*54
$PYRTM,2024,125.418232914595,16.527880324734
$GPGGA,100214.00,3512.4948,N,12150.0931,W,1,10,0.8,9.3,M,-32.6,M,,*59
$PYRTM,2024,125.418244489051,16.527891899190
$GPGGA,100215.00,3512.4943,N,12150.0922,W,1,10,0.8,9.4,M,-32.6,M,,*56
$PYRTM,2024,125.418256064479,16.527903474618
$GPGGA,100216.00,3512.4942,N,12150.0910,W,1,10,0.8,9.5,M,-32.6,M,,*54
$PYRTM,2024,125.418267638032,16.527915048171
$GPGGA,100217.00,3512.4941,N,12150.0899,W,1,10,0.8,9.6,M,-32.6,M,,*55
$PYRTM,2024,125.418279211111,16.527926621250
$GPGGA,100218.00,3512.4935,N,12150.0893,W,1,10,0.8,9.6,M,-32.6,M,,*53
$PYRTM,2024,125.418290786956,16.527938197095
$GPGGA,100219.00,3512.4925,N,12150.0891,W,1,10,0.8,9.2,M,-32.6,M,,*55
$PYRTM,2024,125.418302359757,16.527949769896
$GPGGA,100220.00,3512.4919,N,12150.0883,W,1,10,0.8,8.8,M,-32.6,M,,*58
$PYRTM,2024,125.418313937454,16.527961347593
$GPGGA,100221.00,3512.4918,N,12150.0871,W,1,10,0.8,8.9,M,-32.6,M,,*54
$PYRTM,2024,125.418321225417,16.527968635556
$GPGGA,100222.00,3512.4917,N,12150.0859,W,1,10,0.8,9.3,M,-32.6,M,,*59
$PYRTM,2024,125.418337085463,16.527984495602
$GPGGA,100223.00,3512.4912,N,12150.0853,W,1,10,0.8,9.6,M,-32.6,M,,*52
$PYRTM,2024,125.418348655752,16.527996065891
$GPGGA,100224.00,3512.4904,N,12150.0849,W,1,10,0.8,9.6,M,-32.6,M,,*59
$PYRTM,2024,125.418360234618,16.528007644769
$GPGGA,100225.00,3512.4897,N,12150.0843,W,1,10,0.8,9.4,M,-32.6,M,,*5B
$PYRTM,2024,125.418371806227,16.528019216366
$GPGGA,100226.00,3512.4895,N,12150.0832,W,1,10,0.8,9.1,M,-32.6,M,,*59
$PYRTM,2024,125.418383373738,16.528030783877
$GPGGA,100227.00,3512.4894,N,12150.0820,W,1,10,0.8,8.8,M,-32.6,M,,*52
$PYRTM,2024,125.418394952905,16.528042363044
$GPGGA,100228.00,3512.4889,N,12150.0813,W,1,10,0.8,8.8,M,-32.6,M,,*51
$PYRTM,2024,125.418406529572,16.528053939711
$GPGGA,100229.00,3512.4881,N,12150.0809,W,1,10,0.8,9.0,M,-32.6,M,,*5A
$PYRTM,2024,125.418418096829,16.528065506968
$GPGGA,100230.00,3512.4873,N,12150.0805,W,1,10,0.8,9.1,M,-32.6,M,,*52
$PYRTM,2024,125.418429670347,16.528077080486
$GPGGA,100231.00,3512.4870,N,12150.0796,W,1,10,0.8,9.4,M,-32.6,M,,*50
$PYRTM,2024,125.418436966250,16.528084376389
$GPGGA,100232.00,3512.4870,N,12150.0783,W,1,10,0.8,9.7,M,-32.6,M,,*54
$PYRTM,2024,125.418452825498,16.528100235637
$GPGGA,100233.00,3512.4866,N,12150.0773,W,1,10,0.8,9.6,M,-32.6,M,,*5C
$PYRTM,2024,125.418464396782,16.528111806921
$GPGGA,100234.00,3512.4857,N,12150.0769,W,1,10,0.8,9.3,M,-32.6,M,,*57
$PYRTM,2024,125.418471691343,16.528119101481
$GPGGA,100235.00,3512.4848,N,12150.0766,W,1,10,0.8,9.0,M,-32.6,M,,*54
$PYRTM,2024,125.418483481562,16.528130891701
$GPGGA,100236.00,3512.4842,N,12150.0759,W,1,10,0.8,8.8,M,-32.6,M,,*58
$PYRTM,2024,125.418502009178,16.528149419317
$GPGGA,100237.00,3512.4840,N,12150.0748,W,1,10,0.8,8.9,M,-32.6,M,,*5A
$PYRTM,2024,125.418510695081,16.528158105231
$GPGGA,100238.00,3512.4839,N,12150.0738,W,1,10,0.8,9.0,M,-32.6,M,,*54
$PYRTM,2024,125.418522270718,16.528169680856
$GPGGA,100239.00,3512.4836,N,12150.0730,W,1,10,0.8,9.0,M,-32.6,M,,*52
$PYRTM,2024,125.418533842975,16.528181253113
$GPGGA,100240.00,3512.4829,N,12150.0725,W,1,10,0.8,8.8,M,-32.6,M,,*5F
$PYRTM,2024,125.418545417407,16.528192827546
$GPGGA,100241.00,3512.4821,N,12150.0719,W,1,10,0.8,8.8,M,-32.6,M,,*59
$PYRTM,2024,125.418552731169,16.528200141308
$GPGGA,100242.00,3512.4814,N,12150.0712,W,1,10,0.8,8.9,M,-32.6,M,,*56
$PYRTM,2024,125.418568567292,16.528215977431
$GPGGA,100243.00,3512.4810,N,12150.0703,W,1,10,0.8,9.3,M,-32.6,M,,*58
$PYRTM,2024,125.418580139398,16.528227549537
$GPGGA,100244.00,3512.4808,N,12150.0694,W,1,10,0.8,9.7,M,-32.6,M,,*5D
$PYRTM,2024,125.418587432431,16.528234842569
$GPGGA,100245.00,3512.4804,N,12150.0686,W,1,10,0.8,9.8,M,-32.6,M,,*5C
$PYRTM,2024,125.418603282292,16.528250692431
$GPGGA,100246.00,3512.4798,N,12150.0679,W,1,10,0.8,9.5,M,-32.6,M,,*58
$PYRTM,2024,125.418614861088,16.528262271227
$GPGGA,100247.00,3512.4792,N,12150.0672,W,1,10,0.8,9.1,M,-32.6,M,,*5C
$PYRTM,2024,125.418626435382,16.528273845521
$GPGGA,100248.00,3512.4788,N,12150.0662,W,1,10,0.8,8.7,M,-32.6,M,,*5E
$PYRTM,2024,125.418638010405,16.528285420544
$GPGGA,100249.00,3512.4785,N,12150.0651,W,1,10,0.8,8.6,M,-32.6,M,,*53
$PYRTM,2024,125.418649584271,16.528296994421
$GPGGA,100250.00,3512.4781,N,12150.0642,W,1,10,0.8,9.0,M,-32.6,M,,*5A
$PYRTM,2024,125.418661161319,16.528308571458
$GPGGA,100251.00,3512.4775,N,12150.0638,W,1,10,0.8,9.4,M,-32.6,M,,*59
$PYRTM,2024,125.418672730972,16.528320141111
$GPGGA,100252.00,3512.4767,N,12150.0634,W,1,10,0.8,9.4,M,-32.6,M,,*55
$PYRTM,2024,125.418684309248,16.528331719387
$GPGGA,100253.00,3512.4762,N,12150.0625,W,1,10,0.8,9.3,M,-32.6,M,,*56
$PYRTM,2024,125.418695880764,16.528343290903
$GPGGA,100254.00,3512.4760,N,12150.0612,W,1,10,0.8,9.3,M,-32.6,M,,*57
$PYRTM,2024,125.418707455116,16.528354865255
$GPGGA,100255.00,3512.4758,N,12150.0601,W,1,10,0.8,9.2,M,-32.6,M,,*5E
$PYRTM,2024,125.418719029722,16.528366439861
$GPGGA,100256.00,3512.4752,N,12150.0595,W,1,10,0.8,9.2,M,-32.6,M,,*59
$PYRTM,2024,125.418730602766,16.528378012905
$GPGGA,100257.00,3512.4744,N,12150.0593,W,1,10,0.8,9.2,M,-32.6,M,,*59
$PYRTM,2024,125.418737902836,16.528385312975
$GPGGA,100258.00,3512.4737,N,12150.0588,W,1,10,0.8,9.2,M,-32.6,M,,*58
$PYRTM,2024,125.418753753646,16.528401163785
$GPGGA,100259.00,3512.4734,N,12150.0579,W,1,10,0.8,9.3,M,-32.6,M,,*55
$PYRTM,2024,125.418765321528,16.528412731667
$GPGGA,100300.00,3512.4734,N,12150.0566,W,1,10,0.8,9.4,M,-32.6,M,,*51
$PYRTM,2024,125.418776893600,16.528424303738
$GPGGA,100301.00,3512.4732,N,12150.0556,W,1,10,0.8,9.5,M,-32.6,M,,*54
$PYRTM,2024,125.418788474005,16.528435884144
$GPGGA,100302.00,3512.4724,N,12150.0551,W,1,10,0.8,9.6,M,-32.6,M,,*54
$PYRTM,2024,125.418795753403,16.528443163542
$GPGGA,100303.00,3512.4714,N,12150.0547,W,1,10,0.8,9.5,M,-32.6,M,,*52
$PYRTM,2024,125.418807558252,16.528454968391
$GPGGA,100304.00,3512.4709,N,12150.0538,W,1,10,0.8,9.4,M,-32.6,M,,*50
$PYRTM,2024,125.418826089178,16.528473499329
$GPGGA,100305.00,3512.4709,N,12150.0526,W,1,10,0.8,9.3,M,-32.6,M,,*59
$PYRTM,2024,125.418834771065,16.528482181204
$GPGGA,100306.00,3512.4708,N,12150.0516,W,1,10,0.8,9.4,M,-32.6,M,,*5F
$PYRTM,2024,125.418842061146,16.528489471285
$GPGGA,100307.00,3512.4701,N,12150.0512,W,1,10,0.8,9.2,M,-32.6,M,,*55
$PYRTM,2024,125.418860798623,16.528508208762
$GPGGA,100308.00,3512.4691,N,12150.0509,W,1,10,0.8,8.8,M,-32.6,M,,*53
$PYRTM,2024,125.418869491794,16.528516901933
$GPGGA,100309.00,3512.4684,N,12150.0503,W,1,10,0.8,8.5,M,-32.6,M,,*51
$PYRTM,2024,125.418881067627,16.528528477766
$GPGGA,100310.00,3512.4682,N,12150.0493,W,1,10,0.8,8.6,M,-32.6,M,,*54
$PYRTM,2024,125.418892641829,16.528540051968
$GPGGA,100311.00,3512.4681,N,12150.0482,W,1,10,0.8,9.1,M,-32.6,M,,*50
$PYRTM,2024,125.418904215694,16.528551625833
$GPGGA,100312.00,3512.4678,N,12150.0474,W,1,10,0.8,9.5,M,-32.6,M,,*58
$PYRTM,2024,125.418915788854,16.528563198993
$GPGGA,100313.00,3512.4671,N,12150.0468,W,1,10,0.8,9.5,M,-32.6,M,,*5D
$PYRTM,2024,125.418927363229,16.528574773368
$GPGGA,100314.00,3512.4663,N,12150.0462,W,1,10,0.8,9.4,M,-32.6,M,,*52
$PYRTM,2024,125.418938934051,16.528586344190
$GPGGA,100315.00,3512.4657,N,12150.0455,W,1,10,0.8,9.2,M,-32.6,M,,*56
$PYRTM,2024,125.418946228299,16.528593638437
$GPGGA,100316.00,3512.4653,N,12150.0446,W,1,10,0.8,9.0,M,-32.6,M,,*51
$PYRTM,2024,125.418962086748,16.528609496887
$GPGGA,100317.00,3512.4650,N,12150.0437,W,1,10,0.8,8.8,M,-32.6,M,,*5C
$PYRTM,2024,125.418973663102,16.528621073241
$GPGGA,100318.00,3512.4646,N,12150.0430,W,1,10,0.8,8.7,M,-32.6,M,,*5C
$PYRTM,2024,125.418985237998,16.528632648137
$GPGGA,100319.00,3512.4640,N,12150.0423,W,1,10,0.8,8.8,M,-32.6,M,,*56
$PYRTM,2024,125.418996807963,16.528644218102
$GPGGA,100320.00,3512.4635,N,12150.0414,W,1,10,0.8,9.0,M,-32.6,M,,*53
$PYRTM,2024,125.419004098935,16.528651509074
$GPGGA,100321.00,3512.4632,N,12150.0405,W,1,10,0.8,9.4,M,-32.6,M,,*51
$PYRTM,2024,125.419019955648,16.528667365799
$GPGGA,100322.00,3512.4629,N,12150.0397,W,1,10,0.8,9.7,M,-32.6,M,,*57
$PYRTM,2024,125.419031530660,16.528678940799
$GPGGA,100323.00,3512.4623,N,12150.0389,W,1,10,0.8,9.7,M,-32.6,M,,*53
$PYRTM,2024,125.419043105197,16.528690515347
$GPGGA,100324.00,3512.4617,N,12150.0384,W,1,10,0.8,9.5,M,-32.6,M,,*5C
$PYRTM,2024,125.419054673727,16.528702083866
$GPGGA,100325.00,3512.4612,N,12150.0377,W,1,10,0.8,9.4,M,-32.6,M,,*55
$PYRTM,2024,125.419066252500,16.528713662639
$GPGGA,100326.00,3512.4608,N,12150.0369,W,1,10,0.8,9.3,M,-32.6,M,,*55
$PYRTM,2024,125.419077830336,16.528725240475
$GPGGA,100327.00,3512.4604,N,12150.0358,W,1,10,0.8,9.0,M,-32.6,M,,*59
$PYRTM,2024,125.419089405139,16.528736815278
$GPGGA,100328.00,3512.4600,N,12150.0348,W,1,10,0.8,9.0,M,-32.6,M,,*53
$PYRTM,2024,125.419100976088,16.528748386227
$GPGGA,100329.00,3512.4596,N,12150.0342,W,1,10,0.8,9.5,M,-32.6,M,,*51
$PYRTM,2024,125.419112549340,16.528759959479
$GPGGA,100330.00,3512.4591,N,12150.0336,W,1,10,0.8,9.9,M,-32.6,M,,*51
$PYRTM,2024,125.419119836354,16.528767246493
$GPGGA,100331.00,3512.4585,N,12150.0329,W,1,10,0.8,9.3,M,-32.6,M,,*51
$PYRTM,2024,125.419135698461,16.528783108600
$GPGGA,100332.00,3512.4579,N,12150.0320,W,1,10,0.8,9.1,M,-32.6,M,,*5A
$PYRTM,2024,125.419147279711,16.528794689850
$GPGGA,100333.00,3512.4575,N,12150.0311,W,1,10,0.8,9.0,M,-32.6,M,,*54
$PYRTM,2024,125.419158846053,16.528806256192
$GPGGA,100334.00,3512.4572,N,12150.0302,W,1,10,0.8,9.0,M,-32.6,M,,*56
$PYRTM,2024,125.419170444907,16.528817855046
$GPGGA,100335.00,3512.4567,N,12150.0293,W,1,10,0.8,9.4,M,-32.6,M,,*5E
$PYRTM,2024,125.419177700856,16.528825110995
$GPGGA,100336.00,3512.4562,N,12150.0286,W,1,10,0.8,9.6,M,-32.6,M,,*5E
$PYRTM,2024,125.419193567870,16.528840978009
$GPGGA,100337.00,3512.4556,N,12150.0280,W,1,10,0.8,10.3,M,-32.6,M,,*63
$PYRTM,2024,125.419200976308,16.528848386447
$GPGGA,100338.00,3512.4553,N,12150.0273,W,1,10,0.8,10.2,M,-32.6,M,,*64
$PYRTM,2024,125.419219611470,16.528867021609
$GPGGA,100339.00,3512.4549,N,12150.0262,W,1,10,0.8,9.8,M,-32.6,M,,*5C
$PYRTM,2024,125.419228292130,16.528875702280
$GPGGA,100340.00,3512.4545,N,12150.0251,W,1,10,0.8,9.2,M,-32.6,M,,*54
$PYRTM,2024,125.419239866285,16.528887276424
$GPGGA,100341.00,3512.4539,N,12150.0242,W,1,10,0.8,8.9,M,-32.6,M,,*56
$PYRTM,2024,125.419251439803,16.528898849942
$GPGGA,100342.00,3512.4533,N,12150.0235,W,1,10,0.8,9.2,M,-32.6,M,,*55
$PYRTM,2024,125.419263023785,16.528910433924
$GPGGA,100343.00,3512.4529,N,12150.0229,W,1,10,0.8,9.7,M,-32.6,M,,*57
$PYRTM,2024,125.419270291470,16.528917701609
$GPGGA,100344.00,3512.4525,N,12150.0222,W,1,10,0.8,9.3,M,-32.6,M,,*53
$PYRTM,2024,125.419286172431,16.528933582569
$GPGGA,100345.00,3512.4520,N,12150.0212,W,1,10,0.8,8.3,M,-32.6,M,,*55
$PYRTM,2024,125.419297734896,16.528945145035
$GPGGA,100346.00,3512.4516,N,12150.0201,W,1,10,0.8,7.9,M,-32.6,M,,*54
$PYRTM,2024,125.419309316007,16.528956726146
$GPGGA,100347.00,3512.4511,N,12150.0192,W,1,10,0.8,7.8,M,-32.6,M,,*5A
$PYRTM,2024,125.419320883137,16.528968293275
$GPGGA,100348.00,3512.4505,N,12150.0185,W,1,10,0.8,8.2,M,-32.6,M,,*53
$PYRTM,2024,125.419332465961,16.528979876100
$GPGGA,100349.00,3512.4501,N,12150.0179,W,1,10,0.8,8.8,M,-32.6,M,,*5F
$PYRTM,2024,125.419344031343,16.528991441481
$GPGGA,100350.00,3512.4498,N,12150.0170,W,1,10,0.8,9.3,M,-32.6,M,,*55
$PYRTM,2024,125.419351311377,16.528998721516
$GPGGA,100351.00,3512.4494,N,12150.0162,W,1,10,0.8,9.3,M,-32.6,M,,*5B
$PYRTM,2024,125.419367174722,16.529014584861
$GPGGA,100352.00,3512.4488,N,12150.0154,W,1,10,0.8,9.3,M,-32.6,M,,*50
$PYRTM,2024,125.419378765764,16.529026175903
$GPGGA,100353.00,3512.4483,N,12150.0144,W,1,10,0.8,9.1,M,-32.6,M,,*59
$PYRTM,2024,125.419390327442,16.529037737581
$GPGGA,100354.00,3512.4480,N,12150.0134,W,1,10,0.8,9.0,M,-32.6,M,,*5B
$PYRTM,2024,125.419401913762,16.529049323900
$GPGGA,100355.00,3512.4477,N,12150.0126,W,1,10,0.8,9.1,M,-32.6,M,,*50
$PYRTM,2024,125.419413475197,16.529060885336
$GPGGA,100356.00,3512.4472,N,12150.0120,W,1,10,0.8,9.3,M,-32.6,M,,*52
$PYRTM,2024,125.419425050370,16.529072460509
$GPGGA,100357.00,3512.4464,N,12150.0114,W,1,10,0.8,9.2,M,-32.6,M,,*52
$PYRTM,2024,125.419436624988,16.529084035127
$GPGGA,100358.00,3512.4459,N,12150.0105,W,1,10,0.8,9.3,M,-32.6,M,,*52
$PYRTM,2024,125.419448199965,16.529095610104
$GPGGA,100359.00,3512.4458,N,12150.0093,W,1,10,0.8,9.5,M,-32.6,M,,*5A
$PYRTM,2024,125.419459772558,16.529107182708
$GPGGA,100400.00,3512.4457,N,12150.0082,W,1,10,0.8,9.6,M,-32.6,M,,*5D
$PYRTM,2024,125.419467065150,16.529114475289
$GPGGA,100401.00,3512.4451,N,12150.0075,W,1,10,0.8,9.8,M,-32.6,M,,*5C
$PYRTM,2024,125.419482921412,16.529130331562
$GPGGA,100402.00,3512.4442,N,12150.0072,W,1,10,0.8,9.8,M,-32.6,M,,*5A
$PYRTM,2024,125.419494519051,16.529141929190
$GPGGA,100403.00,3512.4435,N,12150.0065,W,1,10,0.8,9.7,M,-32.6,M,,*52
$PYRTM,2024,125.419506068056,16.529153478194
$GPGGA,100404.00,3512.4433,N,12150.0054,W,1,10,0.8,9.6,M,-32.6,M,,*50
$PYRTM,2024,125.419517642905,16.529165053044
$GPGGA,100405.00,3512.4431,N,12150.0043,W,1,10,0.8,9.5,M,-32.6,M,,*56
$PYRTM,2024,125.419524923218,16.529172333356
$GPGGA,100406.00,3512.4426,N,12150.0035,W,1,10,0.8,9.7,M,-32.6,M,,*50
$PYRTM,2024,125.419540791644,16.529188201782
$GPGGA,100407.00,3512.4418,N,12150.0030,W,1,10,0.8,10.0,M,-32.6,M,,*66
$PYRTM,2024,125.419548199259,16.529195609398
$GPGGA,100408.00,3512.4411,N,12150.0025,W,1,10,0.8,10.3,M,-32.6,M,,*67
$PYRTM,2024,125.419566836319,16.529214246458
$GPGGA,100409.00,3512.4407,N,12150.0016,W,1,10,0.8,10.3,M,-32.6,M,,*61
$PYRTM,2024,125.419575513947,16.529222924086
$GPGGA,100410.00,3512.4406,N,12150.0004,W,1,10,0.8,10.1,M,-32.6,M,,*69
$PYRTM,2024,125.419582806192,16.529230216331
$GPGGA,100411.00,3512.4403,N,12149.9994,W,1,10,0.8,9.9,M,-32.6,M,,*5C
$PYRTM,2024,125.419598662037,16.529246072176
$GPGGA,100412.00,3512.4396,N,12149.9987,W,1,10,0.8,9.8,M,-32.6,M,,*57
$PYRTM,2024,125.419610248113,16.529257658252
$GPGGA,100413.00,3512.4389,N,12149.9982,W,1,10,0.8,9.8,M,-32.6,M,,*5D
$PYRTM,2024,125.419621810741,16.529269220880
$GPGGA,100414.00,3512.4384,N,12149.9974,W,1,10,0.8,10.1,M,-32.6,M,,*6F
$PYRTM,2024,125.419633395891,16.529280806030
$GPGGA,100415.00,3512.4382,N,12149.9963,W,1,10,0.8,10.2,M,-32.6,M,,*6D
$PYRTM,2024,125.419644958958,16.529292369097
$GPGGA,100416.00,3512.4378,N,12149.9952,W,1,10,0.8,10.3,M,-32.6,M,,*68
$PYRTM,2024,125.419656552905,16.529303963044
$GPGGA,100417.00,3512.4372,N,12149.9943,W,1,10,0.8,10.3,M,-32.6,M,,*63
$PYRTM,2024,125.419668107153,16.529315517292
$GPGGA,100418.00,3512.4366,N,12149.9937,W,1,10,0.8,10.4,M,-32.6,M,,*6D
$PYRTM,2024,125.419679689306,16.529327099444
$GPGGA,100419.00,3512.4361,N,12149.9929,W,1,10,0.8,10.2,M,-32.6,M,,*62
$PYRTM,2024,125.419691255347,16.529338665486
$GPGGA,100420.00,3512.4357,N,12149.9919,W,1,10,0.8,9.9,M,-32.6,M,,*5D
$PYRTM,2024,125.419702829502,16.529350239641
$GPGGA,100421.00,3512.4353,N,12149.9910,W,1,10,0.8,9.7,M,-32.6,M,,*5F
$PYRTM,2024,125.419714403866,16.529361814005
$GPGGA,100422.00,3512.4349,N,12149.9902,W,1,10,0.8,9.8,M,-32.6,M,,*5B
$PYRTM,2024,125.419725978426,16.529373388565
$GPGGA,100423.00,3512.4344,N,12149.9894,W,1,10,0.8,10.0,M,-32.6,M,,*69
$PYRTM,2024,125.419737552234,16.529384962373
$GPGGA,100424.00,3512.4340,N,12149.9886,W,1,10,0.8,10.2,M,-32.6,M,,*6B
$PYRTM,2024,125.419749136944,16.529396547083
$GPGGA,100425.00,3512.4335,N,12149.9877,W,1,10,0.8,10.1,M,-32.6,M,,*65
$PYRTM,2024,125.419760699850,16.529408109988
$GPGGA,100426.00,3512.4330,N,12149.9868,W,1,10,0.8,10.0,M,-32.6,M,,*6C
$PYRTM,2024,125.419772274178,16.529419684317
$GPGGA,100427.00,3512.4325,N,12149.9859,W,1,10,0.8,10.0,M,-32.6,M,,*6B
$PYRTM,2024,125.419783845521,16.529431255660
$GPGGA,100428.00,3512.4322,N,12149.9851,W,1,10,0.8,10.1,M,-32.6,M,,*6A
$PYRTM,2024,125.419795430521,16.529442840660
$GPGGA,100429.00,3512.4318,N,12149.9842,W,1,10,0.8,10.0,M,-32.6,M,,*61
$PYRTM,2024,125.419806997477,16.529454407616
$GPGGA,100430.00,3512.4314,N,12149.9832,W,1,10,0.8,9.7,M,-32.6,M,,*5D
$PYRTM,2024,125.419821356134,16.529468766273
$GPGGA,100431.00,3512.4308,N,12149.9823,W,1,10,0.8,9.5,M,-32.6,M,,*53
$PYRTM,2024,125.419832925498,16.529480335637
$GPGGA,100432.00,3512.4303,N,12149.9816,W,1,10,0.8,9.7,M,-32.6,M,,*5F
$PYRTM,2024,125.419841730197,16.529489140336
$GPGGA,100433.00,3512.4297,N,12149.9810,W,1,10,0.8,10.1,M,-32.6,M,,*6A
$PYRTM,2024,125.419853294722,16.529500704861
$GPGGA,100434.00,3512.4293,N,12149.9801,W,1,10,0.8,10.4,M,-32.6,M,,*6C
$PYRTM,2024,125.419864867454,16.529512277604
$GPGGA,100435.00,3512.4289,N,12149.9790,W,1,10,0.8,10.1,M,-32.6,M,,*64
$PYRTM,2024,125.419876435671,16.529523845799
$GPGGA,100436.00,3512.4286,N,12149.9779,W,1,10,0.8,9.8,M,-32.6,M,,*5E
$PYRTM,2024,125.419888026516,16.529535436655
$GPGGA,100437.00,3512.4281,N,12149.9771,W,1,10,0.8,9.7,M,-32.6,M,,*5F
$PYRTM,2024,125.419899592546,16.529547002697
$GPGGA,100438.00,3512.4276,N,12149.9765,W,1,10,0.8,9.8,M,-32.6,M,,*52
$PYRTM,2024,125.419906881019,16.529554291157
$GPGGA,100439.00,3512.4270,N,12149.9759,W,1,10,0.8,9.8,M,-32.6,M,,*5A
$PYRTM,2024,125.419925510683,16.529572920833
$GPGGA,100440.00,3512.4262,N,12149.9751,W,1,10,0.8,9.6,M,-32.6,M,,*51
$PYRTM,2024,125.419937100914,16.529584511053
$GPGGA,100441.00,3512.4256,N,12149.9742,W,1,10,0.8,9.5,M,-32.6,M,,*56
$PYRTM,2024,125.419948665336,16.529596075463
$GPGGA,100442.00,3512.4253,N,12149.9733,W,1,10,0.8,9.8,M,-32.6,M,,*5B
$PYRTM,2024,125.419957471354,16.529604881493
$GPGGA,100443.00,3512.4251,N,12149.9724,W,1,10,0.8,10.2,M,-32.6,M,,*6C
$PYRTM,2024,125.419969034780,16.529616444919
$GPGGA,100444.00,3512.4246,N,12149.9715,W,1,10,0.8,10.3,M,-32.6,M,,*6E
$PYRTM,2024,125.419980635139,16.529628045278
$GPGGA,100445.00,3512.4240,N,12149.9707,W,1,10,0.8,10.1,M,-32.6,M,,*68
$PYRTM,2024,125.419992184132,16.529639594271
$GPGGA,100446.00,3512.4233,N,12149.9699,W,1,10,0.8,10.0,M,-32.6,M,,*68
$PYRTM,2024,125.420003781042,16.529651191204
$GPGGA,100447.00,3512.4228,N,12149.9692,W,1,10,0.8,9.9,M,-32.6,M,,*59
$PYRTM,2024,125.420015331389,16.529662741528
$GPGGA,100448.00,3512.4223,N,12149.9684,W,1,10,0.8,9.8,M,-32.6,M,,*5B
$PYRTM,2024,125.420026906192,16.529674316331
$GPGGA,100449.00,3512.4219,N,12149.9675,W,1,10,0.8,9.7,M,-32.6,M,,*52
$PYRTM,2024,125.420038479838,16.529685889977
$GPGGA,100450.00,3512.4215,N,12149.9667,W,1,10,0.8,9.7,M,-32.6,M,,*55
$PYRTM,2024,125.420045759803,16.529693169954
$GPGGA,100451.00,3512.4211,N,12149.9658,W,1,10,0.8,9.8,M,-32.6,M,,*53
$PYRTM,2024,125.420061627639,16.529709037778
$GPGGA,100452.00,3512.4207,N,12149.9649,W,1,10,0.8,10.0,M,-32.6,M,,*67
$PYRTM,2024,125.420073201678,16.529720611817
$GPGGA,100453.00,3512.4202,N,12149.9641,W,1,10,0.8,10.2,M,-32.6,M,,*69
$PYRTM,2024,125.420084776215,16.529732186354
$GPGGA,100454.00,3512.4196,N,12149.9635,W,1,10,0.8,10.2,M,-32.6,M,,*63
$PYRTM,2024,125.420096360509,16.529743770648
$GPGGA,100455.00,3512.4190,N,12149.9628,W,1,10,0.8,10.0,M,-32.6,M,,*6A
$PYRTM,2024,125.420103756817,16.529751166956
$GPGGA,100456.00,3512.4184,N,12149.9620,W,1,10,0.8,9.7,M,-32.6,M,,*5B
$PYRTM,2024,125.420119524005,16.529766934155
$GPGGA,100457.00,3512.4180,N,12149.9608,W,1,10,0.8,9.5,M,-32.6,M,,*56
$PYRTM,2024,125.420131072419,16.529778482558
$GPGGA,100458.00,3512.4178,N,12149.9596,W,1,10,0.8,9.6,M,-32.6,M,,*59
$PYRTM,2024,125.420138467963,16.529785878102
$GPGGA,100459.00,3512.4175,N,12149.9586,W,1,10,0.8,10.1,M,-32.6,M,,*6B
$PYRTM,2024,125.420154222627,16.529801632778
$GPGGA,100500.00,3512.4168,N,12149.9581,W,1,10,0.8,10.4,M,-32.6,M,,*68
$PYRTM,2024,125.420165821065,16.529813231204
$GPGGA,100501.00,3512.4158,N,12149.9577,W,1,10,0.8,9.7,M,-32.6,M,,*58
$PYRTM,2024,125.420177369826,16.529824779965
$GPGGA,100502.00,3512.4150,N,12149.9570,W,1,10,0.8,8.5,M,-32.6,M,,*57
$PYRTM,2024,125.420188953935,16.529836364074
$GPGGA,100503.00,3512.4148,N,12149.9557,W,1,10,0.8,8.7,M,-32.6,M,,*58
$PYRTM,2024,125.420200518287,16.529847928437
$GPGGA,100504.00,3512.4149,N,12149.9544,W,1,10,0.8,8.9,M,-32.6,M,,*52
$PYRTM,2024,125.420212091435,16.529859501574
$GPGGA,100505.00,3512.4146,N,12149.9537,W,1,10,0.8,9.2,M,-32.6,M,,*52
$PYRTM,2024,125.420223665926,16.529871076065
$GPGGA,100506.00,3512.4137,N,12149.9533,W,1,10,0.8,9.2,M,-32.6,M,,*53
$PYRTM,2024,125.420235251470,16.529882661609
$GPGGA,100507.00,3512.4128,N,12149.9528,W,1,10,0.8,8.9,M,-32.6,M,,*5C
$PYRTM,2024,125.420246814838,16.529894224977
$GPGGA,100508.00,3512.4123,N,12149.9517,W,1,10,0.8,8.8,M,-32.6,M,,*55
$PYRTM,2024,125.420254094502,16.529901504653
$GPGGA,100509.00,3512.4122,N,12149.9504,W,1,10,0.8,8.8,M,-32.6,M,,*57
$PYRTM,2024,125.420265899387,16.529913309537
$GPGGA,100510.00,3512.4121,N,12149.9493,W,1,10,0.8,9.1,M,-32.6,M,,*5B
$PYRTM,2024,125.420284325741,16.529931735880
$GPGGA,100511.00,3512.4115,N,12149.9487,W,1,10,0.8,9.6,M,-32.6,M,,*5F
$PYRTM,2024,125.420293110868,16.529940521007
$GPGGA,100512.00,3512.4107,N,12149.9482,W,1,10,0.8,9.8,M,-32.6,M,,*54
$PYRTM,2024,125.420300403542,16.529947813681
$GPGGA,100513.00,3512.4100,N,12149.9474,W,1,10,0.8,9.7,M,-32.6,M,,*54
$PYRTM,2024,125.420316263229,16.529963673368
$GPGGA,100514.00,3512.4096,N,12149.9464,W,1,10,0.8,9.5,M,-32.6,M,,*5E
$PYRTM,2024,125.420327841655,16.529975251794
$GPGGA,100515.00,3512.4094,N,12149.9454,W,1,10,0.8,9.6,M,-32.6,M,,*5D
$PYRTM,2024,125.420339407222,16.529986817361
$GPGGA,100516.00,3512.4090,N,12149.9446,W,1,10,0.8,9.9,M,-32.6,M,,*56
$PYRTM,2024,125.420350993113,16.529998403252
$GPGGA,100517.00,3512.4084,N,12149.9439,W,1,10,0.8,10.2,M,-32.6,M,,*69
$PYRTM,2024,125.420362557176,16.530009967315
$GPGGA,100518.00,3512.4078,N,12149.9431,W,1,10,0.8,10.2,M,-32.6,M,,*6D
$PYRTM,2024,125.420369949618,16.530017359757
$GPGGA,100519.00,3512.4074,N,12149.9422,W,1,10,0.8,10.1,M,-32.6,M,,*61
$PYRTM,2024,125.420385699444,16.530033109583
$GPGGA,100520.00,3512.4072,N,12149.9411,W,1,10,0.8,9.9,M,-32.6,M,,*5D
$PYRTM,2024,125.420397277500,16.530044687639
$GPGGA,100521.00,3512.4068,N,12149.9403,W,1,10,0.8,9.7,M,-32.6,M,,*5A
$PYRTM,2024,125.420408854583,16.530056264722
$GPGGA,100522.00,3512.4061,N,12149.9396,W,1,10,0.8,9.7,M,-32.6,M,,*5B
$PYRTM,2024,125.420420427882,16.530067838021
$GPGGA,100523.00,3512.4054,N,12149.9388,W,1,10,0.8,9.7,M,-32.6,M,,*53
$PYRTM,2024,125.420432001493,16.530079411632
$GPGGA,100524.00,3512.4051,N,12149.9379,W,1,10,0.8,9.8,M,-32.6,M,,*50
$PYRTM,2024,125.420443573611,16.530090983750
$GPGGA,100525.00,3512.4049,N,12149.9368,W,1,10,0.8,10.3,M,-32.6,M,,*6B
$PYRTM,2024,125.420455149213,16.530102559352
$GPGGA,100526.00,3512.4046,N,12149.9360,W,1,10,0.8,10.6,M,-32.6,M,,*6A
$PYRTM,2024,125.420466730498,16.530114140637
$GPGGA,100527.00,3512.4039,N,12149.9353,W,1,10,0.8,10.5,M,-32.6,M,,*60
$PYRTM,2024,125.420478291840,16.530125701979
$GPGGA,100528.00,3512.4032,N,12149.9347,W,1,10,0.8,10.1,M,-32.6,M,,*65
$PYRTM,2024,125.420485575984,16.530132986123
$GPGGA,100529.00,3512.4028,N,12149.9338,W,1,10,0.8,9.5,M,-32.6,M,,*5B
$PYRTM,2024,125.420501445405,16.530148855544
$GPGGA,100530.00,3512.4026,N,12149.9326,W,1,10,0.8,9.3,M,-32.6,M,,*54
$PYRTM,2024,125.420513030648,16.530160440787
$GPGGA,100531.00,3512.4024,N,12149.9316,W,1,10,0.8,9.5,M,-32.6,M,,*52
$PYRTM,2024,125.420520298669,16.530167708808
$GPGGA,100532.00,3512.4017,N,12149.9310,W,1,10,0.8,9.9,M,-32.6,M,,*5B
$PYRTM,2024,125.420536167824,16.530183577963
$GPGGA,100533.00,3512.4007,N,12149.9305,W,1,10,0.8,10.1,M,-32.6,M,,*6F
$PYRTM,2024,125.420543586690,16.530190996829
$GPGGA,100534.00,3512.4001,N,12149.9297,W,1,10,0.8,10.0,M,-32.6,M,,*65
$PYRTM,2024,125.420559318264,16.530206728403
$GPGGA,100535.00,3512.3999,N,12149.9285,W,1,10,0.8,10.0,M,-32.6,M,,*68
$PYRTM,2024,125.420570890023,16.530218300162
$GPGGA,100536.00,3512.3997,N,12149.9274,W,1,10,0.8,10.1,M,-32.6,M,,*6A
$PYRTM,2024,125.420578284919,16.530225695058
$GPGGA,100537.00,3512.3992,N,12149.9265,W,1,10,0.8,10.3,M,-32.6,M,,*6C
$PYRTM,2024,125.420594040625,16.530241450775
$GPGGA,100538.00,3512.3984,N,12149.9260,W,1,10,0.8,10.3,M,-32.6,M,,*61
$PYRTM,2024,125.420605624491,16.530253034630
$GPGGA,100539.00,3512.3977,N,12149.9253,W,1,10,0.8,10.2,M,-32.6,M,,*6D
$PYRTM,2024,125.420617187650,16.530264597789
$GPGGA,100540.00,3512.3974,N,12149.9243,W,1,10,0.8,10.2,M,-32.6,M,,*61
$PYRTM,2024,125.420624580799,16.530271990937
$GPGGA,100541.00,3512.3972,N,12149.9231,W,1,10,0.8,10.1,M,-32.6,M,,*60
$PYRTM,2024,125.420643228067,16.530290638218
$GPGGA,100542.00,3512.3968,N,12149.9222,W,1,10,0.8,10.2,M,-32.6,M,,*69
$PYRTM,2024,125.420651916794,16.530299326933
$GPGGA,100543.00,3512.3961,N,12149.9216,W,1,10,0.8,10.2,M,-32.6,M,,*66
$PYRTM,2024,125.420663479213,16.530310889352
$GPGGA,100544.00,3512.3954,N,12149.9211,W,1,10,0.8,10.0,M,-32.6,M,,*62
$PYRTM,2024,125.420670763032,16.530318173171
$GPGGA,100545.00,3512.3949,N,12149.9204,W,1,10,0.8,9.5,M,-32.6,M,,*56
$PYRTM,2024,125.420686626088,16.530334036227
$GPGGA,100546.00,3512.3945,N,12149.9194,W,1,10,0.8,9.3,M,-32.6,M,,*55
$PYRTM,2024,125.420693911840,16.530341321991
$GPGGA,100547.00,3512.3942,N,12149.9185,W,1,10,0.8,9.5,M,-32.6,M,,*55
$PYRTM,2024,125.420709780081,16.530357190220
$GPGGA,100548.00,3512.3938,N,12149.9175,W,1,10,0.8,9.8,M,-32.6,M,,*55
$PYRTM,2024,125.420721354294,16.530368764433
$GPGGA,100549.00,3512.3931,N,12149.9167,W,1,10,0.8,10.0,M,-32.6,M,,*6E
$PYRTM,2024,125.420732927199,16.530380337338
$GPGGA,100550.00,3512.3925,N,12149.9159,W,1,10,0.8,10.3,M,-32.6,M,,*6D
$PYRTM,2024,125.420744513183,16.530391923322
$GPGGA,100551.00,3512.3920,N,12149.9151,W,1,10,0.8,10.5,M,-32.6,M,,*67
$PYRTM,2024,125.420756077083,16.530403487222
$GPGGA,100552.00,3512.3916,N,12149.9141,W,1,10,0.8,10.6,M,-32.6,M,,*63
$PYRTM,2024,125.420767649838,16.530415059977
$GPGGA,100553.00,3512.3914,N,12149.9131,W,1,10,0.8,10.4,M,-32.6,M,,*65
$PYRTM,2024,125.420774930278,16.530422340417
$GPGGA,100554.00,3512.3910,N,12149.9121,W,1,10,0.8,9.8,M,-32.6,M,,*53
$PYRTM,2024,125.420790808958,16.530438219097
$GPGGA,100555.00,3512.3904,N,12149.9114,W,1,10,0.8,9.4,M,-32.6,M,,*5D
$PYRTM,2024,125.420802373310,16.530449783461
$GPGGA,100556.00,3512.3898,N,12149.9108,W,1,10,0.8,9.2,M,-32.6,M,,*51
$PYRTM,2024,125.420813947037,16.530461357176
$GPGGA,100557.00,3512.3894,N,12149.9101,W,1,10,0.8,9.3,M,-32.6,M,,*54
$PYRTM,2024,125.420825521759,16.530472931898
$GPGGA,100558.00,3512.3890,N,12149.9091,W,1,10,0.8,9.4,M,-32.6,M,,*50
$PYRTM,2024,125.420837102500,16.530484512639
$GPGGA,100559.00,3512.3886,N,12149.9079,W,1,10,0.8,9.6,M,-32.6,M,,*52
$PYRTM,2024,125.420848668657,16.530496078796
$GPGGA,100600.00,3512.3880,N,12149.9071,W,1,10,0.8,9.8,M,-32.6,M,,*5D
$PYRTM,2024,125.420860266782,16.530507676921
$GPGGA,100601.00,3512.3874,N,12149.9064,W,1,10,0.8,9.9,M,-32.6,M,,*52
$PYRTM,2024,125.420867524167,16.530514934306
$GPGGA,100602.00,3512.3868,N,12149.9057,W,1,10,0.8,9.6,M,-32.6,M,,*53
$PYRTM,2024,125.420883392187,16.530530802326
$GPGGA,100603.00,3512.3863,N,12149.9048,W,1,10,0.8,9.4,M,-32.6,M,,*55
$PYRTM,2024,125.420890671042,16.530538081181
$GPGGA,100604.00,3512.3859,N,12149.9039,W,1,10,0.8,9.3,M,-32.6,M,,*5A
$PYRTM,2024,125.420906539259,16.530553949398
$GPGGA,100605.00,3512.3855,N,12149.9029,W,1,10,0.8,9.4,M,-32.6,M,,*51
$PYRTM,2024,125.420918110023,16.530565520162
$GPGGA,100606.00,3512.3850,N,12149.9022,W,1,10,0.8,9.4,M,-32.6,M,,*5C
$PYRTM,2024,125.420929688519,16.530577098657
$GPGGA,100607.00,3512.3844,N,12149.9016,W,1,10,0.8,9.5,M,-32.6,M,,*5E
$PYRTM,2024,125.420941262500,16.530588672639
$GPGGA,100608.00,3512.3840,N,12149.9007,W,1,10,0.8,9.8,M,-32.6,M,,*58
$PYRTM,2024,125.420948557257,16.530595967396
$GPGGA,100609.00,3512.3837,N,12149.8996,W,1,10,0.8,10.1,M,-32.6,M,,*68
$PYRTM,2024,125.420964410104,16.530611820243
$GPGGA,100610.00,3512.3833,N,12149.8987,W,1,10,0.8,10.2,M,-32.6,M,,*67
$PYRTM,2024,125.420975992882,16.530623403021
$GPGGA,100611.00,3512.3827,N,12149.8980,W,1,10,0.8,10.1,M,-32.6,M,,*67
$PYRTM,2024,125.420983266007,16.530630676146
$GPGGA,100612.00,3512.3820,N,12149.8974,W,1,10,0.8,9.8,M,-32.6,M,,*59
$PYRTM,2024,125.421001921030,16.530649331169
$GPGGA,100613.00,3512.3815,N,12149.8966,W,1,10,0.8,9.6,M,-32.6,M,,*53
$PYRTM,2024,125.421010707407,16.530658117546
$GPGGA,100614.00,3512.3810,N,12149.8956,W,1,10,0.8,9.3,M,-32.6,M,,*57
$PYRTM,2024,125.421022288970,16.530669699109
$GPGGA,100615.00,3512.3804,N,12149.8946,W,1,10,0.8,9.2,M,-32.6,M,,*53
$PYRTM,2024,125.421033850336,16.530681260486
$GPGGA,100616.00,3512.3799,N,12149.8938,W,1,10,0.8,9.5,M,-32.6,M,,*55
$PYRTM,2024,125.421041137569,16.530688547720
$GPGGA,100617.00,3512.3794,N,12149.8929,W,1,10,0.8,9.9,M,-32.6,M,,*55
$PYRTM,2024,125.421057003449,16.530704413600
$GPGGA,100618.00,3512.3790,N,12149.8919,W,1,10,0.8,10.2,M,-32.6,M,,*6E
$PYRTM,2024,125.421064398021,16.530711808160
$GPGGA,100619.00,3512.3786,N,12149.8910,W,1,10,0.8,10.3,M,-32.6,M,,*60
$PYRTM,2024,125.421080151574,16.530727561713
$GPGGA,100620.00,3512.3779,N,12149.8903,W,1,10,0.8,10.0,M,-32.6,M,,*6B
$PYRTM,2024,125.421091726887,16.530739137025
$GPGGA,100621.00,3512.3773,N,12149.8898,W,1,10,0.8,9.6,M,-32.6,M,,*5D
$PYRTM,2024,125.421103296273,16.530750706412
$GPGGA,100622.00,3512.3768,N,12149.8891,W,1,10,0.8,9.2,M,-32.6,M,,*59
$PYRTM,2024,125.421114882801,16.530762292940
$GPGGA,100623.00,3512.3766,N,12149.8880,W,1,10,0.8,9.0,M,-32.6,M,,*54
$PYRTM,2024,125.421126449502,16.530773859641
$GPGGA,100624.00,3512.3764,N,12149.8869,W,1,10,0.8,9.2,M,-32.6,M,,*54
$PYRTM,2024,125.421138022512,16.530785432662
$GPGGA,100625.00,3512.3760,N,12149.8861,W,1,10,0.8,9.6,M,-32.6,M,,*5D
$PYRTM,2024,125.421149603958,16.530797014097
$GPGGA,100626.00,3512.3752,N,12149.8856,W,1,10,0.8,9.9,M,-32.6,M,,*54
$PYRTM,2024,125.421161196065,16.530808606204
$GPGGA,100627.00,3512.3743,N,12149.8850,W,1,10,0.8,9.8,M,-32.6,M,,*52
$PYRTM,2024,125.421172744190,16.530820154329
$GPGGA,100628.00,3512.3738,N,12149.8840,W,1,10,0.8,9.6,M,-32.6,M,,*5E
$PYRTM,2024,125.421180025556,16.530827435694
$GPGGA,100629.00,3512.3735,N,12149.8829,W,1,10,0.8,9.5,M,-32.6,M,,*5E
$PYRTM,2024,125.421195888854,16.530843298993
$GPGGA,100630.00,3512.3732,N,12149.8819,W,1,10,0.8,9.6,M,-32.6,M,,*51
$PYRTM,2024,125.421207466991,16.530854877141
$GPGGA,100631.00,3512.3725,N,12149.8813,W,1,10,0.8,9.5,M,-32.6,M,,*5F
$PYRTM,2024,125.421214746296,16.530862156435
$GPGGA,100632.00,3512.3718,N,12149.8808,W,1,10,0.8,9.5,M,-32.6,M,,*58
$PYRTM,2024,125.421230602951,16.530878013090
$GPGGA,100633.00,3512.3713,N,12149.8799,W,1,10,0.8,9.5,M,-32.6,M,,*55
$PYRTM,2024,125.421242193611,16.530889603750
$GPGGA,100634.00,3512.3710,N,12149.8788,W,1,10,0.8,9.7,M,-32.6,M,,*53
$PYRTM,2024,125.421253751725,16.530901161863
$GPGGA,100635.00,3512.3707,N,12149.8776,W,1,10,0.8,10.0,M,-32.6,M,,*6A
$PYRTM,2024,125.421265343403,16.530912753542
$GPGGA,100636.00,3512.3703,N,12149.8768,W,1,10,0.8,10.4,M,-32.6,M,,*66
$PYRTM,2024,125.421272749144,16.530920159282
$GPGGA,100637.00,3512.3697,N,12149.8761,W,1,10,0.8,10.5,M,-32.6,M,,*63
$PYRTM,2024,125.421288487326,16.530935897465
$GPGGA,100638.00,3512.3689,N,12149.8757,W,1,10,0.8,10.1,M,-32.6,M,,*62
$PYRTM,2024,125.421300047720,16.530947457859
$GPGGA,100639.00,3512.3682,N,12149.8750,W,1,10,0.8,9.3,M,-32.6,M,,*55
$PYRTM,2024,125.421311635984,16.530959046123
$GPGGA,100640.00,3512.3678,N,12149.8741,W,1,10,0.8,8.6,M,-32.6,M,,*5A
$PYRTM,2024,125.421323195995,16.530970606134
$GPGGA,100641.00,3512.3676,N,12149.8730,W,1,10,0.8,8.5,M,-32.6,M,,*50
$PYRTM,2024,125.421334782859,16.530982192998
$GPGGA,100642.00,3512.3672,N,12149.8720,W,1,10,0.8,8.9,M,-32.6,M,,*5A
$PYRTM,2024,125.421342062315,16.530989472454
$GPGGA,100643.00,3512.3665,N,12149.8713,W,1,10,0.8,9.9,M,-32.6,M,,*5C
$PYRTM,2024,125.421360825116,16.531008235255
$GPGGA,100644.00,3512.3656,N,12149.8708,W,1,10,0.8,10.7,M,-32.6,M,,*67
$PYRTM,2024,125.421369494329,16.531016904468
$GPGGA,100645.00,3512.3650,N,12149.8700,W,1,10,0.8,10.8,M,-32.6,M,,*67
$PYRTM,2024,125.421381075278,16.531028485417
$GPGGA,100646.00,3512.3647,N,12149.8690,W,1,10,0.8,10.7,M,-32.6,M,,*65
$PYRTM,2024,125.421392641123,16.531040051262
$GPGGA,100647.00,3512.3645,N,12149.8678,W,1,10,0.8,10.3,M,-32.6,M,,*64
$PYRTM,2024,125.421404242303,16.531051652442
$GPGGA,100648.00,3512.3642,N,12149.8667,W,1,10,0.8,9.7,M,-32.6,M,,*5E
$PYRTM,2024,125.421411519225,16.531058929363
$GPGGA,100649.00,3512.3635,N,12149.8661,W,1,10,0.8,9.3,M,-32.6,M,,*5D
$PYRTM,2024,125.421427389213,16.531074799352
$GPGGA,100650.00,3512.3627,N,12149.8658,W,1,10,0.8,9.3,M,-32.6,M,,*5C
$PYRTM,2024,125.421438979329,16.531086389468
$GPGGA,100651.00,3512.3621,N,12149.8652,W,1,10,0.8,9.6,M,-32.6,M,,*54
$PYRTM,2024,125.421446228032,16.531093638171
$GPGGA,100652.00,3512.3619,N,12149.8641,W,1,10,0.8,9.8,M,-32.6,M,,*50
$PYRTM,2024,125.421462085278,16.531109495417
$GPGGA,100653.00,3512.3617,N,12149.8627,W,1,10,0.8,10.0,M,-32.6,M,,*6F
$PYRTM,2024,125.421473672604,16.531121082743
$GPGGA,100654.00,3512.3614,N,12149.8616,W,1,10,0.8,10.2,M,-32.6,M,,*6B
$PYRTM,2024,125.421485233495,16.531132643634
$GPGGA,100655.00,3512.3607,N,12149.8611,W,1,10,0.8,10.3,M,-32.6,M,,*6E
$PYRTM,2024,125.421496820486,16.531144230625
$GPGGA,100656.00,3512.3598,N,12149.8608,W,1,10,0.8,10.1,M,-32.6,M,,*62
$PYRTM,2024,125.421504109039,16.531151519178
$GPGGA,100657.00,3512.3590,N,12149.8602,W,1,10,0.8,9.5,M,-32.6,M,,*5D
$PYRTM,2024,125.421519971296,16.531167381435
$GPGGA,100658.00,3512.3586,N,12149.8592,W,1,10,0.8,8.9,M,-32.6,M,,*52
$PYRTM,2024,125.421531531840,16.531178941991
$GPGGA,100659.00,3512.3585,N,12149.8581,W,1,10,0.8,9.1,M,-32.6,M,,*5B
$PYRTM,2024,125.421543120799,16.531190530938
$GPGGA,100700.00,3512.3583,N,12149.8572,W,1,10,0.8,8.3,M,-32.6,M,,*5F
$PYRTM,2024,125.421554678785,16.531202088924
$GPGGA,100701.00,3512.3577,N,12149.8565,W,1,10,0.8,8.7,M,-32.6,M,,*57
$PYRTM,2024,125.421566270440,16.531213680579
$GPGGA,100702.00,3512.3569,N,12149.8559,W,1,10,0.8,9.5,M,-32.6,M,,*57
$PYRTM,2024,125.421577827639,16.531225237789
$GPGGA,100703.00,3512.3564,N,12149.8551,W,1,10,0.8,9.6,M,-32.6,M,,*50
$PYRTM,2024,125.421589417731,16.531236827870
$GPGGA,100704.00,3512.3559,N,12149.8543,W,1,10,0.8,9.4,M,-32.6,M,,*58
$PYRTM,2024,125.421600976458,16.531248386609
$GPGGA,100705.00,3512.3554,N,12149.8535,W,1,10,0.8,8.9,M,-32.6,M,,*59
$PYRTM,2024,125.421612558611,16.531259968750
$GPGGA,100706.00,3512.3550,N,12149.8525,W,1,10,0.8,8.5,M,-32.6,M,,*53
$PYRTM,2024,125.421619856655,16.531267266806
$GPGGA,100707.00,3512.3546,N,12149.8515,W,1,10,0.8,8.3,M,-32.6,M,,*50
$PYRTM,2024,125.421635713287,16.531283123426
$GPGGA,100708.00,3512.3541,N,12149.8505,W,1,10,0.8,8.3,M,-32.6,M,,*59
$PYRTM,2024,125.421647273333,16.531294683472
$GPGGA,100709.00,3512.3536,N,12149.8498,W,1,10,0.8,8.7,M,-32.6,M,,*59
$PYRTM,2024,125.421654565012,16.531301975150
$GPGGA,100710.00,3512.3529,N,12149.8491,W,1,10,0.8,9.2,M,-32.6,M,,*52
$PYRTM,2024,125.421670421343,16.531317831481
$GPGGA,100711.00,3512.3524,N,12149.8483,W,1,10,0.8,9.3,M,-32.6,M,,*5C
$PYRTM,2024,125.421682002269,16.531329412407
$GPGGA,100712.00,3512.3520,N,12149.8473,W,1,10,0.8,9.2,M,-32.6,M,,*55
$PYRTM,2024,125.421693568924,16.531340979062
$GPGGA,100713.00,3512.3516,N,12149.8463,W,1,10,0.8,9.2,M,-32.6,M,,*50
$PYRTM,2024,125.421700861065,16.531348271204
$GPGGA,100714.00,3512.3512,N,12149.8456,W,1,10,0.8,9.3,M,-32.6,M,,*54
$PYRTM,2024,125.421719494572,16.531366904711
$GPGGA,100715.00,3512.3506,N,12149.8450,W,1,10,0.8,9.3,M,-32.6,M,,*56
$PYRTM,2024,125.421728306910,16.531375717060
$GPGGA,100716.00,3512.3501,N,12149.8444,W,1,10,0.8,9.2,M,-32.6,M,,*56
$PYRTM,2024,125.421739865660,16.531387275799
$GPGGA,100717.00,3512.3495,N,12149.8436,W,1,10,0.8,9.2,M,-32.6,M,,*5E
$PYRTM,2024,125.421751454745,16.531398864884
$GPGGA,100718.00,3512.3491,N,12149.8427,W,1,10,0.8,9.5,M,-32.6,M,,*52
$PYRTM,2024,125.421763013947,16.531410424086
$GPGGA,100719.00,3512.3489,N,12149.8418,W,1,10,0.8,10.0,M,-32.6,M,,*6B
$PYRTM,2024,125.421770421354,16.531417831493
$GPGGA,100720.00,3512.3486,N,12149.8408,W,1,10,0.8,10.4,M,-32.6,M,,*6B
$PYRTM,2024,125.421782108287,16.531429518426
$GPGGA,100721.00,3512.3479,N,12149.8401,W,1,10,0.8,10.3,M,-32.6,M,,*64
$PYRTM,2024,125.421797745868,16.531445156007
$GPGGA,100722.00,3512.3472,N,12149.8395,W,1,10,0.8,10.0,M,-32.6,M,,*65
$PYRTM,2024,125.421809311736,16.531456721875
$GPGGA,100723.00,3512.3467,N,12149.8387,W,1,10,0.8,9.8,M,-32.6,M,,*53
$PYRTM,2024,125.421820892419,16.531468302558
$GPGGA,100724.00,3512.3465,N,12149.8375,W,1,10,0.8,9.9,M,-32.6,M,,*5A
$PYRTM,2024,125.421832459502,16.531479869641
$GPGGA,100725.00,3512.3462,N,12149.8364,W,1,10,0.8,10.0,M,-32.6,M,,*6D
$PYRTM,2024,125.421844045139,16.531491455278
$GPGGA,100726.00,3512.3456,N,12149.8357,W,1,10,0.8,10.2,M,-32.6,M,,*6B
$PYRTM,2024,125.421855607396,16.531503017535
$GPGGA,100727.00,3512.3449,N,12149.8352,W,1,10,0.8,10.2,M,-32.6,M,,*61
$PYRTM,2024,125.421867188113,16.531514598252
$GPGGA,100728.00,3512.3443,N,12149.8345,W,1,10,0.8,10.1,M,-32.6,M,,*61
$PYRTM,2024,125.421878756562,16.531526166701
$GPGGA,100729.00,3512.3441,N,12149.8334,W,1,10,0.8,9.6,M,-32.6,M,,*5B
$PYRTM,2024,125.421890357373,16.531537767512
$GPGGA,100730.00,3512.3439,N,12149.8321,W,1,10,0.8,9.2,M,-32.6,M,,*5C
$PYRTM,2024,125.421901901944,16.531549312083
$GPGGA,100731.00,3512.3434,N,12149.8312,W,1,10,0.8,9.2,M,-32.6,M,,*50
$PYRTM,2024,125.421913494630,16.531560904769
$GPGGA,100732.00,3512.3426,N,12149.8308,W,1,10,0.8,9.6,M,-32.6,M,,*5F
$PYRTM,2024,125.421925051609,16.531572461748
$GPGGA,100733.00,3512.3419,N,12149.8303,W,1,10,0.8,10.0,M,-32.6,M,,*67
$PYRTM,2024,125.421936637894,16.531584048032
$GPGGA,100734.00,3512.3414,N,12149.8296,W,1,10,0.8,10.0,M,-32.6,M,,*60
$PYRTM,2024,125.421943934213,16.531591344352
$GPGGA,100735.00,3512.3413,N,12149.8284,W,1,10,0.8,9.8,M,-32.6,M,,*55
$PYRTM,2024,125.421959788032,16.531607198171
$GPGGA,100736.00,3512.3410,N,12149.8273,W,1,10,0.8,9.7,M,-32.6,M,,*52
$PYRTM,2024,125.421971349699,16.531618759838
$GPGGA,100737.00,3512.3405,N,12149.8265,W,1,10,0.8,9.8,M,-32.6,M,,*5F
$PYRTM,2024,125.421978642361,16.531626052500
$GPGGA,100738.00,3512.3400,N,12149.8259,W,1,10,0.8,10.0,M,-32.6,M,,*6A
$PYRTM,2024,125.421994496366,16.531641906505
$GPGGA,100739.00,3512.3394,N,12149.8253,W,1,10,0.8,10.2,M,-32.6,M,,*69
$PYRTM,2024,125.422006083391,16.531653493530
$GPGGA,100740.00,3512.3389,N,12149.8244,W,1,10,0.8,10.0,M,-32.6,M,,*6F
$PYRTM,2024,125.422017645347,16.531665055486
$GPGGA,100741.00,3512.3385,N,12149.8234,W,1,10,0.8,9.8,M,-32.6,M,,*55
$PYRTM,2024,125.422029234757,16.531676644896
$GPGGA,100742.00,3512.3381,N,12149.8223,W,1,10,0.8,9.8,M,-32.6,M,,*54
$PYRTM,2024,125.422036511134,16.531683921273
$GPGGA,100743.00,3512.3376,N,12149.8216,W,1,10,0.8,10.0,M,-32.6,M,,*6B
$PYRTM,2024,125.422052376238,16.531699786377
$GPGGA,100744.00,3512.3370,N,12149.8209,W,1,10,0.8,10.0,M,-32.6,M,,*64
$PYRTM,2024,125.422059659213,16.531707069352
$GPGGA,100745.00,3512.3364,N,12149.8201,W,1,10,0.8,9.8,M,-32.6,M,,*58
$PYRTM,2024,125.422078307685,16.531725717836
$GPGGA,100746.00,3512.3361,N,12149.8191,W,1,10,0.8,9.7,M,-32.6,M,,*5B
$PYRTM,2024,125.422087088958,16.531734499097
$GPGGA,100747.00,3512.3358,N,12149.8181,W,1,10,0.8,9.6,M,-32.6,M,,*50
$PYRTM,2024,125.422098677025,16.531746087176
$GPGGA,100748.00,3512.3353,N,12149.8173,W,1,10,0.8,9.7,M,-32.6,M,,*58
$PYRTM,2024,125.422110239028,16.531757649167
$GPGGA,100749.00,3512.3346,N,12149.8167,W,1,10,0.8,10.0,M,-32.6,M,,*67
$PYRTM,2024,125.422121826933,16.531769237072
$GPGGA,100750.00,3512.3340,N,12149.8160,W,1,10,0.8,10.2,M,-32.6,M,,*6C
$PYRTM,2024,125.422133384178,16.531780794317
$GPGGA,100751.00,3512.3336,N,12149.8150,W,1,10,0.8,10.3,M,-32.6,M,,*6E
$PYRTM,2024,125.422144969549,16.531792379687
$GPGGA,100752.00,3512.3334,N,12149.8139,W,1,10,0.8,10.2,M,-32.6,M,,*61
$PYRTM,2024,125.422152367222,16.531799777361
$GPGGA,100753.00,3512.3330,N,12149.8130,W,1,10,0.8,10.0,M,-32.6,M,,*6F
$PYRTM,2024,125.422168122488,16.531815532627
$GPGGA,100754.00,3512.3324,N,12149.8123,W,1,10,0.8,9.8,M,-32.6,M,,*5F
$PYRTM,2024,125.422179686076,16.531827096215
$GPGGA,100755.00,3512.3318,N,12149.8117,W,1,10,0.8,9.7,M,-32.6,M,,*59
$PYRTM,2024,125.422191269248,16.531838679387
$GPGGA,100756.00,3512.3313,N,12149.8110,W,1,10,0.8,9.5,M,-32.6,M,,*54
$PYRTM,2024,125.422202832292,16.531850242431
$GPGGA,100757.00,3512.3310,N,12149.8100,W,1,10,0.8,9.5,M,-32.6,M,,*57
$PYRTM,2024,125.422214420521,16.531861830660
$GPGGA,100758.00,3512.3308,N,12149.8090,W,1,10,0.8,9.7,M,-32.6,M,,*5B
$PYRTM,2024,125.422225978762,16.531873388900
$GPGGA,100759.00,3512.3304,N,12149.8081,W,1,10,0.8,9.9,M,-32.6,M,,*58
$PYRTM,2024,125.422233271076,16.531880681215
$GPGGA,100800.00,3512.3297,N,12149.8073,W,1,10,0.8,10.0,M,-32.6,M,,*6C
$PYRTM,2024,125.422249126065,16.531896536204
$GPGGA,100801.00,3512.3289,N,12149.8066,W,1,10,0.8,10.3,M,-32.6,M,,*65
$PYRTM,2024,125.422260709201,16.531908119340
$GPGGA,100802.00,3512.3283,N,12149.8057,W,1,10,0.8,10.5,M,-32.6,M,,*68
$PYRTM,2024,125.422272275567,16.531919685706
$GPGGA,100803.00,3512.3278,N,12149.8047,W,1,10,0.8,10.5,M,-32.6,M,,*6C
$PYRTM,2024,125.422283865845,16.531931275984
$GPGGA,100804.00,3512.3276,N,12149.8037,W,1,10,0.8,10.3,M,-32.6,M,,*64
$PYRTM,2024,125.422295426655,16.531942836794
$GPGGA,100805.00,3512.3273,N,12149.8028,W,1,10,0.8,10.1,M,-32.6,M,,*6C
$PYRTM,2024,125.422307007037,16.531954417176
$GPGGA,100806.00,3512.3268,N,12149.8020,W,1,10,0.8,9.5,M,-32.6,M,,*51
$PYRTM,2024,125.422318572454,16.531965982593
$GPGGA,100807.00,3512.3261,N,12149.8013,W,1,10,0.8,9.1,M,-32.6,M,,*5D
$PYRTM,2024,125.422330159977,16.531977570116
$GPGGA,100808.00,3512.3255,N,12149.8006,W,1,10,0.8,9.0,M,-32.6,M,,*50
$PYRTM,2024,125.422341719375,16.531989129514
$GPGGA,100809.00,3512.3251,N,12149.7997,W,1,10,0.8,9.4,M,-32.6,M,,*5F
$PYRTM,2024,125.422353308935,16.532000719074
$GPGGA,100810.00,3512.3248,N,12149.7987,W,1,10,0.8,10.1,M,-32.6,M,,*63
$PYRTM,2024,125.422364868831,16.532012278970
$GPGGA,100811.00,3512.3245,N,12149.7978,W,1,10,0.8,10.6,M,-32.6,M,,*68
$PYRTM,2024,125.422376450648,16.532023860787
$GPGGA,100812.00,3512.3240,N,12149.7970,W,1,10,0.8,10.5,M,-32.6,M,,*65
$PYRTM,2024,125.422388016748,16.532035426887
$GPGGA,100813.00,3512.3233,N,12149.7962,W,1,10,0.8,9.7,M,-32.6,M,,*59
$PYRTM,2024,125.422399617326,16.532047027465
$GPGGA,100814.00,3512.3227,N,12149.7954,W,1,10,0.8,9.1,M,-32.6,M,,*58
$PYRTM,2024,125.422411165266,16.532058575405
$GPGGA,100815.00,3512.3223,N,12149.7944,W,1,10,0.8,9.1,M,-32.6,M,,*5C
$PYRTM,2024,125.422418456516,16.532065866655
$GPGGA,100816.00,3512.3222,N,12149.7936,W,1,10,0.8,9.7,M,-32.6,M,,*5D
$PYRTM,2024,125.422437219178,16.532084629317
$GPGGA,100817.00,3512.3218,N,12149.7928,W,1,10,0.8,10.0,M,-32.6,M,,*65
$PYRTM,2024,125.422445894826,16.532093304965
$GPGGA,100818.00,3512.3212,N,12149.7920,W,1,10,0.8,10.0,M,-32.6,M,,*68
$PYRTM,2024,125.422457466875,16.532104877014
$GPGGA,100819.00,3512.3206,N,12149.7911,W,1,10,0.8,9.9,M,-32.6,M,,*5F
$PYRTM,2024,125.422464754028,16.532112164178
$GPGGA,100820.00,3512.3202,N,12149.7900,W,1,10,0.8,10.0,M,-32.6,M,,*60
$PYRTM,2024,125.422480608773,16.532128018912
$GPGGA,100821.00,3512.3200,N,12149.7888,W,1,10,0.8,10.0,M,-32.6,M,,*62
$PYRTM,2024,125.422492193495,16.532139603634
$GPGGA,100822.00,3512.3195,N,12149.7879,W,1,10,0.8,9.9,M,-32.6,M,,*51
$PYRTM,2024,125.422503757025,16.532151167164
$GPGGA,100823.00,3512.3187,N,12149.7874,W,1,10,0.8,9.7,M,-32.6,M,,*50
$PYRTM,2024,125.422515347130,16.532162757269
$GPGGA,100824.00,3512.3179,N,12149.7869,W,1,10,0.8,9.6,M,-32.6,M,,*5B
$PYRTM,2024,125.422522623623,16.532170033762
$GPGGA,100825.00,3512.3173,N,12149.7861,W,1,10,0.8,9.5,M,-32.6,M,,*5B
$PYRTM,2024,125.422538498947,16.532185909086
$GPGGA,100826.00,3512.3171,N,12149.7851,W,1,10,0.8,9.5,M,-32.6,M,,*59
$PYRTM,2024,125.422550056377,16.532197466505
$GPGGA,100827.00,3512.3168,N,12149.7840,W,1,10,0.8,9.5,M,-32.6,M,,*50
$PYRTM,2024,125.422561644468,16.532209054606
$GPGGA,100828.00,3512.3164,N,12149.7832,W,1,10,0.8,9.7,M,-32.6,M,,*54
$PYRTM,2024,125.422573203299,16.532220613437
$GPGGA,100829.00,3512.3158,N,12149.7825,W,1,10,0.8,10.2,M,-32.6,M,,*61
$PYRTM,2024,125.422580494699,16.532227904838
$GPGGA,100830.00,3512.3151,N,12149.7819,W,1,10,0.8,10.5,M,-32.6,M,,*68
$PYRTM,2024,125.422596352350,16.532243762500
$GPGGA,100831.00,3512.3147,N,12149.7809,W,1,10,0.8,10.2,M,-32.6,M,,*68
$PYRTM,2024,125.422607935220,16.532255345359
$GPGGA,100832.00,3512.3145,N,12149.7797,W,1,10,0.8,9.8,M,-32.6,M,,*53
$PYRTM,2024,125.422615230613,16.532262640752
$GPGGA,100833.00,3512.3143,N,12149.7787,W,1,10,0.8,9.7,M,-32.6,M,,*5A
$PYRTM,2024,125.422631081134,16.532278491285
$GPGGA,100834.00,3512.3139,N,12149.7780,W,1,10,0.8,9.5,M,-32.6,M,,*55
$PYRTM,2024,125.422642647442,16.532290057581
$GPGGA,100835.00,3512.3132,N,12149.7775,W,1,10,0.8,9.2,M,-32.6,M,,*52
$PYRTM,2024,125.422654234005,16.532301644155
$GPGGA,100836.00,3512.3125,N,12149.7767,W,1,10,0.8,8.8,M,-32.6,M,,*5F
$PYRTM,2024,125.422665797164,16.532313207303
$GPGGA,100837.00,3512.3121,N,12149.7758,W,1,10,0.8,8.7,M,-32.6,M,,*59
$PYRTM,2024,125.422673087211,16.532320497361
$GPGGA,100838.00,3512.3119,N,12149.7746,W,1,10,0.8,9.4,M,-32.6,M,,*50
$PYRTM,2024,125.422688945313,16.532336355451
