$PYRTM,2024,125.916670299144,17.026317709282
$GPGGA,215959.00,3451.1774,N,12142.4050,W,1,10,0.8,10.1,M,-33.3,M,,*69
$PYRTM,2024,125.916681860451,17.026329270590
$GPGGA,220000.00,3451.1764,N,12142.4031,W,1,10,0.8,9.6,M,-33.3,M,,*53
$PYRTM,2024,125.916693449421,17.026340859560
$GPGGA,220001.00,3451.1753,N,12142.4011,W,1,10,0.8,9.3,M,-33.3,M,,*51
$PYRTM,2024,125.916705006042,17.026352416181
$GPGGA,220002.00,3451.1741,N,12142.3992,W,1,10,0.8,9.5,M,-33.3,M,,*52
$PYRTM,2024,125.916712412176,17.026359822315
$GPGGA,220003.00,3451.1728,N,12142.3970,W,1,10,0.8,10.0,M,-33.3,M,,*6D
$PYRTM,2024,125.916728153218,17.026375563356
$GPGGA,220004.00,3451.1717,N,12142.3947,W,1,10,0.8,10.7,M,-33.3,M,,*65
$PYRTM,2024,125.916739739919,17.026387150058
$GPGGA,220005.00,3451.1707,N,12142.3923,W,1,10,0.8,11.2,M,-33.3,M,,*63
$PYRTM,2024,125.916751301887,17.026398712037
$GPGGA,220006.00,3451.1694,N,12142.3900,W,1,10,0.8,11.8,M,-33.3,M,,*60
$PYRTM,2024,125.916762889039,17.026410299178
$GPGGA,220007.00,3451.1680,N,12142.3879,W,1,10,0.8,12.1,M,-33.3,M,,*61
$PYRTM,2024,125.916774450914,17.026421861053
$GPGGA,220008.00,3451.1666,N,12142.3859,W,1,10,0.8,11.6,M,-33.3,M,,*60
$PYRTM,2024,125.916786040382,17.026433450521
$GPGGA,220009.00,3451.1653,N,12142.3840,W,1,10,0.8,10.8,M,-33.3,M,,*60
$PYRTM,2024,125.916797599144,17.026445009294
$GPGGA,220010.00,3451.1642,N,12142.3820,W,1,10,0.8,9.9,M,-33.3,M,,*57
$PYRTM,2024,125.916809187199,17.026456597338
$GPGGA,220011.00,3451.1632,N,12142.3800,W,1,10,0.8,9.5,M,-33.3,M,,*5F
$PYRTM,2024,125.916820744618,17.026468154757
$GPGGA,220012.00,3451.1621,N,12142.3780,W,1,10,0.8,9.8,M,-33.3,M,,*54
$PYRTM,2024,125.916832333981,17.026479744120
$GPGGA,220013.00,3451.1610,N,12142.3760,W,1,10,0.8,10.4,M,-33.3,M,,*6D
$PYRTM,2024,125.916843895417,17.026491305556
$GPGGA,220014.00,3451.1597,N,12142.3739,W,1,10,0.8,10.9,M,-33.3,M,,*67
$PYRTM,2024,125.916855484120,17.026502894259
$GPGGA,220015.00,3451.1584,N,12142.3718,W,1,10,0.8,11.1,M,-33.3,M,,*6E
$PYRTM,2024,125.916862890069,17.026510300208
$GPGGA,220016.00,3451.1571,N,12142.3698,W,1,10,0.8,11.2,M,-33.3,M,,*6D
$PYRTM,2024,125.916878630035,17.026526040174
$GPGGA,220017.00,3451.1558,N,12142.3680,W,1,10,0.8,11.1,M,-33.3,M,,*6D
$PYRTM,2024,125.916890191539,17.026537601678
$GPGGA,220018.00,3451.1546,N,12142.3661,W,1,10,0.8,10.8,M,-33.3,M,,*6A
$PYRTM,2024,125.916897599525,17.026545009664
$GPGGA,220019.00,3451.1536,N,12142.3641,W,1,10,0.8,10.4,M,-33.3,M,,*62
$PYRTM,2024,125.916916231910,17.026563642049
$GPGGA,220020.00,3451.1529,N,12142.3621,W,1,10,0.8,10.2,M,-33.3,M,,*66
$PYRTM,2024,125.916924928704,17.026572338843
$GPGGA,220021.00,3451.1521,N,12142.3600,W,1,10,0.8,10.1,M,-33.3,M,,*6F
$PYRTM,2024,125.916936487431,17.026583897569
$GPGGA,220022.00,3451.1509,N,12142.3581,W,1,10,0.8,10.4,M,-33.3,M,,*69
$PYRTM,2024,125.916943895706,17.026591305845
$GPGGA,220023.00,3451.1495,N,12142.3562,W,1,10,0.8,10.9,M,-33.3,M,,*6C
$PYRTM,2024,125.916959636030,17.026607046169
$GPGGA,220024.00,3451.1482,N,12142.3541,W,1,10,0.8,11.4,M,-33.3,M,,*60
$PYRTM,2024,125.916971237569,17.026618647708
$GPGGA,220025.00,3451.1471,N,12142.3519,W,1,10,0.8,11.7,M,-33.3,M,,*63
$PYRTM,2024,125.916982785370,17.026630195509
$GPGGA,220026.00,3451.1461,N,12142.3497,W,1,10,0.8,11.7,M,-33.3,M,,*66
$PYRTM,2024,125.916994487396,17.026641897535
$GPGGA,220027.00,3451.1450,N,12142.3475,W,1,10,0.8,11.4,M,-33.3,M,,*6A
$PYRTM,2024,125.917006049340,17.026653459479
$GPGGA,220028.00,3451.1438,N,12142.3454,W,1,10,0.8,10.9,M,-33.3,M,,*64
$PYRTM,2024,125.917013457581,17.026660867720
$GPGGA,220029.00,3451.1426,N,12142.3435,W,1,10,0.8,10.5,M,-33.3,M,,*61
$PYRTM,2024,125.917029080833,17.026676490972
$GPGGA,220030.00,3451.1416,N,12142.3415,W,1,10,0.8,10.4,M,-33.3,M,,*69
$PYRTM,2024,125.917040668275,17.026688078414
$GPGGA,220031.00,3451.1407,N,12142.3396,W,1,10,0.8,10.4,M,-33.3,M,,*64
$PYRTM,2024,125.917052228727,17.026699638866
$GPGGA,220032.00,3451.1396,N,12142.3376,W,1,10,0.8,10.3,M,-33.3,M,,*61
$PYRTM,2024,125.917059637431,17.026707047569
$GPGGA,220033.00,3451.1385,N,12142.3356,W,1,10,0.8,10.3,M,-33.3,M,,*60
$PYRTM,2024,125.917075378287,17.026722788426
$GPGGA,220034.00,3451.1374,N,12142.3336,W,1,10,0.8,10.6,M,-33.3,M,,*6A
$PYRTM,2024,125.917086965694,17.026734375833
$GPGGA,220035.00,3451.1363,N,12142.3316,W,1,10,0.8,10.9,M,-33.3,M,,*60
$PYRTM,2024,125.917098526956,17.026745937095
$GPGGA,220036.00,3451.1351,N,12142.3295,W,1,10,0.8,11.0,M,-33.3,M,,*60
$PYRTM,2024,125.917110127315,17.026757537454
$GPGGA,220037.00,3451.1340,N,12142.3274,W,1,10,0.8,10.8,M,-33.3,M,,*67
$PYRTM,2024,125.917121673461,17.026769083600
$GPGGA,220038.00,3451.1329,N,12142.3252,W,1,10,0.8,10.7,M,-33.3,M,,*6C
$PYRTM,2024,125.917133265903,17.026780676042
$GPGGA,220039.00,3451.1317,N,12142.3232,W,1,10,0.8,10.7,M,-33.3,M,,*66
$PYRTM,2024,125.917144820903,17.026792231042
$GPGGA,220040.00,3451.1305,N,12142.3211,W,1,10,0.8,10.6,M,-33.3,M,,*6B
$PYRTM,2024,125.917156413889,17.026803824028
$GPGGA,220041.00,3451.1294,N,12142.3190,W,1,10,0.8,10.4,M,-33.3,M,,*6B
$PYRTM,2024,125.917167970347,17.026815380486
$GPGGA,220042.00,3451.1283,N,12142.3168,W,1,10,0.8,10.2,M,-33.3,M,,*6F
$PYRTM,2024,125.917179552442,17.026826962581
$GPGGA,220043.00,3451.1273,N,12142.3147,W,1,10,0.8,10.0,M,-33.3,M,,*6E
$PYRTM,2024,125.917186967072,17.026834377222
$GPGGA,220044.00,3451.1261,N,12142.3128,W,1,10,0.8,9.9,M,-33.3,M,,*52
$PYRTM,2024,125.917202706181,17.026850116331
$GPGGA,220045.00,3451.1249,N,12142.3109,W,1,10,0.8,10.0,M,-33.3,M,,*6B
$PYRTM,2024,125.917214267326,17.026861677465
$GPGGA,220046.00,3451.1236,N,12142.3090,W,1,10,0.8,10.2,M,-33.3,M,,*63
$PYRTM,2024,125.917225854444,17.026873264595
$GPGGA,220047.00,3451.1224,N,12142.3070,W,1,10,0.8,10.3,M,-33.3,M,,*6E
$PYRTM,2024,125.917237415208,17.026884825347
$GPGGA,220048.00,3451.1214,N,12142.3047,W,1,10,0.8,10.2,M,-33.3,M,,*67
$PYRTM,2024,125.917244821991,17.026892232130
$GPGGA,220049.00,3451.1205,N,12142.3024,W,1,10,0.8,10.3,M,-33.3,M,,*62
$PYRTM,2024,125.917256512292,17.026903922431
$GPGGA,220050.00,3451.1194,N,12142.3002,W,1,10,0.8,10.5,M,-33.3,M,,*63
$PYRTM,2024,125.917275043935,17.026922454074
$GPGGA,220051.00,3451.1181,N,12142.2981,W,1,10,0.8,10.6,M,-33.3,M,,*66
$PYRTM,2024,125.917283712106,17.026931122245
$GPGGA,220052.00,3451.1167,N,12142.2960,W,1,10,0.8,10.6,M,-33.3,M,,*62
$PYRTM,2024,125.917295313519,17.026942723657
$GPGGA,220053.00,3451.1155,N,12142.2939,W,1,10,0.8,10.4,M,-33.3,M,,*6C
$PYRTM,2024,125.917306859618,17.026954269757
$GPGGA,220054.00,3451.1143,N,12142.2918,W,1,10,0.8,10.2,M,-33.3,M,,*69
$PYRTM,2024,125.917318446250,17.026965856389
$GPGGA,220055.00,3451.1132,N,12142.2898,W,1,10,0.8,9.9,M,-33.3,M,,*54
$PYRTM,2024,125.917330007940,17.026977418079
$GPGGA,220056.00,3451.1121,N,12142.2878,W,1,10,0.8,9.7,M,-33.3,M,,*55
$PYRTM,2024,125.917341596655,17.026989006794
$GPGGA,220057.00,3451.1109,N,12142.2859,W,1,10,0.8,9.8,M,-33.3,M,,*52
$PYRTM,2024,125.917353157176,17.027000567315
$GPGGA,220058.00,3451.1097,N,12142.2838,W,1,10,0.8,9.8,M,-33.3,M,,*5C
$PYRTM,2024,125.917360565613,17.027007975752
$GPGGA,220059.00,3451.1084,N,12142.2817,W,1,10,0.8,9.9,M,-33.3,M,,*53
$PYRTM,2024,125.917376306157,17.027023716296
$GPGGA,220100.00,3451.1071,N,12142.2794,W,1,10,0.8,10.2,M,-33.3,M,,*63
$PYRTM,2024,125.917387893843,17.027035303981
$GPGGA,220101.00,3451.1058,N,12142.2771,W,1,10,0.8,10.5,M,-33.3,M,,*65
$PYRTM,2024,125.917399453935,17.027046864086
$GPGGA,220102.00,3451.1047,N,12142.2748,W,1,10,0.8,10.7,M,-33.3,M,,*60
$PYRTM,2024,125.917411040613,17.027058450752
$GPGGA,220103.00,3451.1036,N,12142.2725,W,1,10,0.8,10.6,M,-33.3,M,,*6D
$PYRTM,2024,125.917422602789,17.027070012928
$GPGGA,220104.00,3451.1023,N,12142.2704,W,1,10,0.8,10.2,M,-33.3,M,,*69
$PYRTM,2024,125.917434188495,17.027081598634
$GPGGA,220105.00,3451.1010,N,12142.2685,W,1,10,0.8,9.8,M,-33.3,M,,*52
$PYRTM,2024,125.917445751181,17.027093161319
$GPGGA,220106.00,3451.0999,N,12142.2665,W,1,10,0.8,9.6,M,-33.3,M,,*58
$PYRTM,2024,125.917457337859,17.027104747998
$GPGGA,220107.00,3451.0990,N,12142.2644,W,1,10,0.8,9.3,M,-33.3,M,,*56
$PYRTM,2024,125.917468900463,17.027116310613
$GPGGA,220108.00,3451.0980,N,12142.2621,W,1,10,0.8,9.2,M,-33.3,M,,*5A
$PYRTM,2024,125.917480488171,17.027127898310
$GPGGA,220109.00,3451.0968,N,12142.2599,W,1,10,0.8,9.6,M,-33.3,M,,*59
$PYRTM,2024,125.917492046875,17.027139457014
$GPGGA,220110.00,3451.0955,N,12142.2578,W,1,10,0.8,10.3,M,-33.3,M,,*6D
$PYRTM,2024,125.917503635926,17.027151046065
$GPGGA,220111.00,3451.0943,N,12142.2556,W,1,10,0.8,10.9,M,-33.3,M,,*6D
$PYRTM,2024,125.917515194549,17.027162604688
$GPGGA,220112.00,3451.0931,N,12142.2532,W,1,10,0.8,11.1,M,-33.3,M,,*60
$PYRTM,2024,125.917526782720,17.027174192859
$GPGGA,220113.00,3451.0918,N,12142.2509,W,1,10,0.8,10.7,M,-33.3,M,,*65
$PYRTM,2024,125.917534194005,17.027181604144
$GPGGA,220114.00,3451.0905,N,12142.2486,W,1,10,0.8,10.2,M,-33.3,M,,*6D
$PYRTM,2024,125.917549931007,17.027197341157
$GPGGA,220115.00,3451.0894,N,12142.2465,W,1,10,0.8,9.9,M,-33.3,M,,*5B
$PYRTM,2024,125.917561491377,17.027208901516
$GPGGA,220116.00,3451.0884,N,12142.2446,W,1,10,0.8,9.9,M,-33.3,M,,*58
$PYRTM,2024,125.917573078264,17.027220488403
$GPGGA,220117.00,3451.0872,N,12142.2425,W,1,10,0.8,9.7,M,-33.3,M,,*5B
$PYRTM,2024,125.917584639363,17.027232049502
$GPGGA,220118.00,3451.0859,N,12142.2404,W,1,10,0.8,9.4,M,-33.3,M,,*5D
$PYRTM,2024,125.917596229664,17.027243639815
$GPGGA,220119.00,3451.0848,N,12142.2383,W,1,10,0.8,9.3,M,-33.3,M,,*53
$PYRTM,2024,125.917607801169,17.027255211308
$GPGGA,220120.00,3451.0837,N,12142.2360,W,1,10,0.8,9.8,M,-33.3,M,,*57
$PYRTM,2024,125.917615195324,17.027262605463
$GPGGA,220121.00,3451.0826,N,12142.2337,W,1,10,0.8,10.3,M,-33.3,M,,*67
$PYRTM,2024,125.917633831181,17.027281241319
$GPGGA,220122.00,3451.0813,N,12142.2315,W,1,10,0.8,10.7,M,-33.3,M,,*66
$PYRTM,2024,125.917642537095,17.027289947234
$GPGGA,220123.00,3451.0798,N,12142.2294,W,1,10,0.8,10.8,M,-33.3,M,,*6C
$PYRTM,2024,125.917649919873,17.027297330012
$GPGGA,220124.00,3451.0786,N,12142.2273,W,1,10,0.8,10.7,M,-33.3,M,,*62
$PYRTM,2024,125.917665675255,17.027313085394
$GPGGA,220125.00,3451.0775,N,12142.2251,W,1,10,0.8,10.4,M,-33.3,M,,*6C
$PYRTM,2024,125.917677246238,17.027324656377
$GPGGA,220126.00,3451.0766,N,12142.2229,W,1,10,0.8,10.2,M,-33.3,M,,*64
$PYRTM,2024,125.917684640880,17.027332051019
$GPGGA,220127.00,3451.0755,N,12142.2207,W,1,10,0.8,10.2,M,-33.3,M,,*69
$PYRTM,2024,125.917700393773,17.027347803924
$GPGGA,220128.00,3451.0743,N,12142.2187,W,1,10,0.8,10.3,M,-33.3,M,,*6B
$PYRTM,2024,125.917711969144,17.027359379282
$GPGGA,220129.00,3451.0731,N,12142.2166,W,1,10,0.8,10.5,M,-33.3,M,,*66
$PYRTM,2024,125.917723542245,17.027370952384
$GPGGA,220130.00,3451.0719,N,12142.2143,W,1,10,0.8,10.6,M,-33.3,M,,*60
$PYRTM,2024,125.917735115868,17.027382526007
$GPGGA,220131.00,3451.0706,N,12142.2121,W,1,10,0.8,10.8,M,-33.3,M,,*65
$PYRTM,2024,125.917746693183,17.027394103333
$GPGGA,220132.00,3451.0694,N,12142.2097,W,1,10,0.8,10.8,M,-33.3,M,,*60
$PYRTM,2024,125.917758264850,17.027405674988
$GPGGA,220133.00,3451.0684,N,12142.2074,W,1,10,0.8,10.8,M,-33.3,M,,*6D
$PYRTM,2024,125.917769838495,17.027417248634
$GPGGA,220134.00,3451.0673,N,12142.2051,W,1,10,0.8,10.7,M,-33.3,M,,*6A
$PYRTM,2024,125.917781412998,17.027428823148
$GPGGA,220135.00,3451.0661,N,12142.2029,W,1,10,0.8,10.5,M,-33.3,M,,*65
$PYRTM,2024,125.917792987164,17.027440397303
$GPGGA,220136.00,3451.0647,N,12142.2009,W,1,10,0.8,10.2,M,-33.3,M,,*67
$PYRTM,2024,125.917804564977,17.027451975116
$GPGGA,220137.00,3451.0634,N,12142.1990,W,1,10,0.8,10.0,M,-33.3,M,,*6A
$PYRTM,2024,125.917816135671,17.027463545810
$GPGGA,220138.00,3451.0622,N,12142.1969,W,1,10,0.8,9.9,M,-33.3,M,,*55
$PYRTM,2024,125.917827710394,17.027475120532
$GPGGA,220139.00,3451.0611,N,12142.1946,W,1,10,0.8,10.0,M,-33.3,M,,*68
$PYRTM,2024,125.917839284572,17.027486694711
$GPGGA,220140.00,3451.0601,N,12142.1923,W,1,10,0.8,10.3,M,-33.3,M,,*67
$PYRTM,2024,125.917850858275,17.027498268414
$GPGGA,220141.00,3451.0592,N,12142.1899,W,1,10,0.8,10.7,M,-33.3,M,,*6B
$PYRTM,2024,125.917862428252,17.027509838391
$GPGGA,220142.00,3451.0580,N,12142.1877,W,1,10,0.8,11.0,M,-33.3,M,,*6D
$PYRTM,2024,125.917874006725,17.027521416875
$GPGGA,220143.00,3451.0566,N,12142.1855,W,1,10,0.8,11.0,M,-33.3,M,,*64
$PYRTM,2024,125.917885580058,17.027532990197
$GPGGA,220144.00,3451.0552,N,12142.1835,W,1,10,0.8,10.9,M,-33.3,M,,*6A
$PYRTM,2024,125.917897154977,17.027544565116
$GPGGA,220145.00,3451.0539,N,12142.1814,W,1,10,0.8,10.8,M,-33.3,M,,*64
$PYRTM,2024,125.917908722546,17.027556132685
$GPGGA,220146.00,3451.0529,N,12142.1792,W,1,10,0.8,10.5,M,-33.3,M,,*6A
$PYRTM,2024,125.917920303646,17.027567713785
$GPGGA,220147.00,3451.0518,N,12142.1770,W,1,10,0.8,10.0,M,-33.3,M,,*60
$PYRTM,2024,125.917931875926,17.027579286065
$GPGGA,220148.00,3451.0507,N,12142.1749,W,1,10,0.8,9.7,M,-33.3,M,,*54
$PYRTM,2024,125.917939270509,17.027586680648
$GPGGA,220149.00,3451.0494,N,12142.1728,W,1,10,0.8,9.8,M,-33.3,M,,*56
$PYRTM,2024,125.917955024734,17.027602434873
$GPGGA,220150.00,3451.0482,N,12142.1707,W,1,10,0.8,10.2,M,-33.3,M,,*66
$PYRTM,2024,125.917966602847,17.027614012986
$GPGGA,220151.00,3451.0471,N,12142.1684,W,1,10,0.8,10.3,M,-33.3,M,,*60
$PYRTM,2024,125.917973994803,17.027621404942
$GPGGA,220152.00,3451.0461,N,12142.1662,W,1,10,0.8,10.2,M,-33.3,M,,*6B
$PYRTM,2024,125.917992643947,17.027640054097
$GPGGA,220153.00,3451.0449,N,12142.1641,W,1,10,0.8,10.3,M,-33.3,M,,*60
$PYRTM,2024,125.918001321586,17.027648731736
$GPGGA,220154.00,3451.0437,N,12142.1619,W,1,10,0.8,10.4,M,-33.3,M,,*64
$PYRTM,2024,125.918012896123,17.027660306262
$GPGGA,220155.00,3451.0424,N,12142.1598,W,1,10,0.8,10.4,M,-33.3,M,,*6D
$PYRTM,2024,125.918020309051,17.027667719190
$GPGGA,220156.00,3451.0412,N,12142.1576,W,1,10,0.8,10.5,M,-33.3,M,,*6A
$PYRTM,2024,125.918036044190,17.027683454329
$GPGGA,220157.00,3451.0402,N,12142.1553,W,1,10,0.8,10.5,M,-33.3,M,,*6D
$PYRTM,2024,125.918047618021,17.027695028171
$GPGGA,220158.00,3451.0391,N,12142.1531,W,1,10,0.8,10.5,M,-33.3,M,,*6B
$PYRTM,2024,125.918059193657,17.027706603808
$GPGGA,220159.00,3451.0379,N,12142.1508,W,1,10,0.8,10.4,M,-33.3,M,,*67
$PYRTM,2024,125.918070768044,17.027718178183
$GPGGA,220200.00,3451.0365,N,12142.1487,W,1,10,0.8,10.2,M,-33.3,M,,*65
$PYRTM,2024,125.918082340903,17.027729751053
$GPGGA,220201.00,3451.0351,N,12142.1466,W,1,10,0.8,10.3,M,-33.3,M,,*6D
$PYRTM,2024,125.918093911019,17.027741321157
$GPGGA,220202.00,3451.0341,N,12142.1443,W,1,10,0.8,10.4,M,-33.3,M,,*6F
$PYRTM,2024,125.918105491678,17.027752901817
$GPGGA,220203.00,3451.0331,N,12142.1420,W,1,10,0.8,10.5,M,-33.3,M,,*6D
$PYRTM,2024,125.918112885150,17.027760295301
$GPGGA,220204.00,3451.0320,N,12142.1398,W,1,10,0.8,10.3,M,-33.3,M,,*68
$PYRTM,2024,125.918128640023,17.027776050162
$GPGGA,220205.00,3451.0307,N,12142.1376,W,1,10,0.8,10.2,M,-33.3,M,,*6D
$PYRTM,2024,125.918140211042,17.027787621181
$GPGGA,220206.00,3451.0295,N,12142.1355,W,1,10,0.8,10.0,M,-33.3,M,,*67
$PYRTM,2024,125.918151788889,17.027799199028
$GPGGA,220207.00,3451.0285,N,12142.1333,W,1,10,0.8,10.0,M,-33.3,M,,*67
$PYRTM,2024,125.918163360266,17.027810770417
$GPGGA,220208.00,3451.0274,N,12142.1311,W,1,10,0.8,10.0,M,-33.3,M,,*66
$PYRTM,2024,125.918170754109,17.027818164248
$GPGGA,220209.00,3451.0260,N,12142.1290,W,1,10,0.8,10.0,M,-33.3,M,,*6A
$PYRTM,2024,125.918186508102,17.027833918241
$GPGGA,220210.00,3451.0246,N,12142.1268,W,1,10,0.8,10.1,M,-33.3,M,,*60
$PYRTM,2024,125.918198084919,17.027845495058
$GPGGA,220211.00,3451.0235,N,12142.1246,W,1,10,0.8,10.2,M,-33.3,M,,*6A
$PYRTM,2024,125.918209655903,17.027857066042
$GPGGA,220212.00,3451.0225,N,12142.1221,W,1,10,0.8,10.4,M,-33.3,M,,*6F
$PYRTM,2024,125.918221230567,17.027868640706
$GPGGA,220213.00,3451.0213,N,12142.1198,W,1,10,0.8,10.5,M,-33.3,M,,*6B
$PYRTM,2024,125.918232804722,17.027880214861
$GPGGA,220214.00,3451.0199,N,12142.1176,W,1,10,0.8,10.3,M,-33.3,M,,*6B
$PYRTM,2024,125.918244378299,17.027891788438
$GPGGA,220215.00,3451.0187,N,12142.1156,W,1,10,0.8,10.2,M,-33.3,M,,*66
$PYRTM,2024,125.918255949294,17.027903359444
$GPGGA,220216.00,3451.0176,N,12142.1134,W,1,10,0.8,10.0,M,-33.3,M,,*6D
$PYRTM,2024,125.918267530729,17.027914940868
$GPGGA,220217.00,3451.0165,N,12142.1112,W,1,10,0.8,9.8,M,-33.3,M,,*5A
$PYRTM,2024,125.918279100961,17.027926511100
$GPGGA,220218.00,3451.0154,N,12142.1091,W,1,10,0.8,9.6,M,-33.3,M,,*53
$PYRTM,2024,125.918290678947,17.027938089086
$GPGGA,220219.00,3451.0142,N,12142.1069,W,1,10,0.8,9.6,M,-33.3,M,,*52
$PYRTM,2024,125.918302244745,17.027949654884
$GPGGA,220220.00,3451.0129,N,12142.1048,W,1,10,0.8,9.6,M,-33.3,M,,*56
$PYRTM,2024,125.918309645116,17.027957055255
$GPGGA,220221.00,3451.0117,N,12142.1024,W,1,10,0.8,9.7,M,-33.3,M,,*51
$PYRTM,2024,125.918325398137,17.027972808275
$GPGGA,220222.00,3451.0105,N,12142.1001,W,1,10,0.8,9.9,M,-33.3,M,,*58
$PYRTM,2024,125.918332793044,17.027980203183
$GPGGA,220223.00,3451.0094,N,12142.0977,W,1,10,0.8,10.3,M,-33.3,M,,*6B
$PYRTM,2024,125.918351428380,17.027998838519
$GPGGA,220224.00,3451.0081,N,12142.0954,W,1,10,0.8,10.5,M,-33.3,M,,*6F
$PYRTM,2024,125.918360121296,17.028007531435
$GPGGA,220225.00,3451.0069,N,12142.0932,W,1,10,0.8,10.3,M,-33.3,M,,*6E
$PYRTM,2024,125.918371689433,17.028019099572
$GPGGA,220226.00,3451.0057,N,12142.0910,W,1,10,0.8,10.0,M,-33.3,M,,*63
$PYRTM,2024,125.918383262778,17.028030672917
$GPGGA,220227.00,3451.0046,N,12142.0888,W,1,10,0.8,9.7,M,-33.3,M,,*5D
$PYRTM,2024,125.918394838044,17.028042248183
$GPGGA,220228.00,3451.0034,N,12142.0867,W,1,10,0.8,9.5,M,-33.3,M,,*54
$PYRTM,2024,125.918406416817,17.028053826968
$GPGGA,220229.00,3451.0023,N,12142.0846,W,1,10,0.8,9.2,M,-33.3,M,,*57
$PYRTM,2024,125.918417990637,17.028065400787
$GPGGA,220230.00,3451.0012,N,12142.0824,W,1,10,0.8,9.1,M,-33.3,M,,*5A
$PYRTM,2024,125.918429566817,17.028076976956
$GPGGA,220231.00,3451.0000,N,12142.0803,W,1,10,0.8,9.3,M,-33.3,M,,*5F
$PYRTM,2024,125.918441139549,17.028088549687
$GPGGA,220232.00,3450.9986,N,12142.0782,W,1,10,0.8,9.5,M,-33.3,M,,*53
$PYRTM,2024,125.918452728877,17.028100139016
$GPGGA,220233.00,3450.9973,N,12142.0759,W,1,10,0.8,9.8,M,-33.3,M,,*53
$PYRTM,2024,125.918460110220,17.028107520359
$GPGGA,220234.00,3450.9961,N,12142.0735,W,1,10,0.8,10.0,M,-33.3,M,,*6D
$PYRTM,2024,125.918475864664,17.028123274815
$GPGGA,220235.00,3450.9950,N,12142.0712,W,1,10,0.8,10.3,M,-33.3,M,,*68
$PYRTM,2024,125.918487435764,17.028134845903
$GPGGA,220236.00,3450.9939,N,12142.0690,W,1,10,0.8,10.3,M,-33.3,M,,*6F
$PYRTM,2024,125.918499010475,17.028146420613
$GPGGA,220237.00,3450.9925,N,12142.0669,W,1,10,0.8,10.1,M,-33.3,M,,*67
$PYRTM,2024,125.918510584699,17.028157994838
$GPGGA,220238.00,3450.9911,N,12142.0649,W,1,10,0.8,9.8,M,-33.3,M,,*5C
$PYRTM,2024,125.918522159225,17.028169569363
$GPGGA,220239.00,3450.9898,N,12142.0627,W,1,10,0.8,9.5,M,-33.3,M,,*58
$PYRTM,2024,125.918533728461,17.028181138611
$GPGGA,220240.00,3450.9888,N,12142.0603,W,1,10,0.8,9.4,M,-33.3,M,,*50
$PYRTM,2024,125.918541127199,17.028188537338
$GPGGA,220241.00,3450.9881,N,12142.0579,W,1,10,0.8,9.6,M,-33.3,M,,*54
$PYRTM,2024,125.918556880799,17.028204290949
$GPGGA,220242.00,3450.9870,N,12142.0556,W,1,10,0.8,9.9,M,-33.3,M,,*5B
$PYRTM,2024,125.918568457743,17.028215867882
$GPGGA,220243.00,3450.9855,N,12142.0534,W,1,10,0.8,10.0,M,-33.3,M,,*68
$PYRTM,2024,125.918575851863,17.028223262002
$GPGGA,220244.00,3450.9840,N,12142.0511,W,1,10,0.8,10.1,M,-33.3,M,,*6D
$PYRTM,2024,125.918591603009,17.028239013148
$GPGGA,220245.00,3450.9827,N,12142.0488,W,1,10,0.8,10.3,M,-33.3,M,,*6E
$PYRTM,2024,125.918603177222,17.028250587361
$GPGGA,220246.00,3450.9816,N,12142.0465,W,1,10,0.8,10.3,M,-33.3,M,,*6C
$PYRTM,2024,125.918614753692,17.028262163831
$GPGGA,220247.00,3450.9805,N,12142.0443,W,1,10,0.8,10.2,M,-33.3,M,,*6A
$PYRTM,2024,125.918626325313,17.028273735451
$GPGGA,220248.00,3450.9794,N,12142.0422,W,1,10,0.8,9.7,M,-33.3,M,,*58
$PYRTM,2024,125.918637903287,17.028285313426
$GPGGA,220249.00,3450.9781,N,12142.0404,W,1,10,0.8,9.2,M,-33.3,M,,*5C
$PYRTM,2024,125.918649474479,17.028296884630
$GPGGA,220250.00,3450.9769,N,12142.0385,W,1,10,0.8,8.9,M,-33.3,M,,*56
$PYRTM,2024,125.918661051470,17.028308461609
$GPGGA,220251.00,3450.9758,N,12142.0363,W,1,10,0.8,8.7,M,-33.3,M,,*53
$PYRTM,2024,125.918672618345,17.028320028484
$GPGGA,220252.00,3450.9748,N,12142.0340,W,1,10,0.8,8.8,M,-33.3,M,,*5F
$PYRTM,2024,125.918684197269,17.028331607407
$GPGGA,220253.00,3450.9735,N,12142.0317,W,1,10,0.8,9.2,M,-33.3,M,,*5D
$PYRTM,2024,125.918691605243,17.028339015382
$GPGGA,220254.00,3450.9720,N,12142.0294,W,1,10,0.8,9.8,M,-33.3,M,,*5E
$PYRTM,2024,125.918710239340,17.028357649479
$GPGGA,220255.00,3450.9706,N,12142.0270,W,1,10,0.8,10.6,M,-33.3,M,,*67
$PYRTM,2024,125.918718914236,17.028366324375
$GPGGA,220256.00,3450.9695,N,12142.0244,W,1,10,0.8,11.0,M,-33.3,M,,*6F
$PYRTM,2024,125.918730494988,17.028377905139
$GPGGA,220257.00,3450.9684,N,12142.0219,W,1,10,0.8,11.0,M,-33.3,M,,*66
$PYRTM,2024,125.918742068229,17.028389478380
$GPGGA,220258.00,3450.9672,N,12142.0195,W,1,10,0.8,10.8,M,-33.3,M,,*6E
$PYRTM,2024,125.918753636100,17.028401046238
$GPGGA,220259.00,3450.9659,N,12142.0175,W,1,10,0.8,10.1,M,-33.3,M,,*61
$PYRTM,2024,125.918765215336,17.028412625475
$GPGGA,220300.00,3450.9646,N,12142.0155,W,1,10,0.8,9.4,M,-33.3,M,,*5D
$PYRTM,2024,125.918776804942,17.028424215081
$GPGGA,220301.00,3450.9635,N,12142.0135,W,1,10,0.8,9.0,M,-33.3,M,,*5A
$PYRTM,2024,125.918788363368,17.028435773507
$GPGGA,220302.00,3450.9624,N,12142.0115,W,1,10,0.8,8.8,M,-33.3,M,,*52
$PYRTM,2024,125.918799940949,17.028447351088
$GPGGA,220303.00,3450.9615,N,12142.0093,W,1,10,0.8,9.0,M,-33.3,M,,*57
$PYRTM,2024,125.918811513241,17.028458923391
$GPGGA,220304.00,3450.9603,N,12142.0071,W,1,10,0.8,9.3,M,-33.3,M,,*58
$PYRTM,2024,125.918823090949,17.028470501088
$GPGGA,220305.00,3450.9590,N,12142.0047,W,1,10,0.8,9.6,M,-33.3,M,,*50
$PYRTM,2024,125.918834662002,17.028482072141
$GPGGA,220306.00,3450.9575,N,12142.0024,W,1,10,0.8,10.0,M,-33.3,M,,*63
$PYRTM,2024,125.918846234340,17.028493644491
$GPGGA,220307.00,3450.9562,N,12142.0001,W,1,10,0.8,10.3,M,-33.3,M,,*60
$PYRTM,2024,125.918857809074,17.028505219213
$GPGGA,220308.00,3450.9551,N,12141.9978,W,1,10,0.8,10.5,M,-33.3,M,,*64
$PYRTM,2024,125.918869383669,17.028516793808
$GPGGA,220309.00,3450.9540,N,12141.9956,W,1,10,0.8,10.2,M,-33.3,M,,*6E
$PYRTM,2024,125.918880951817,17.028528361956
$GPGGA,220310.00,3450.9527,N,12141.9935,W,1,10,0.8,9.4,M,-33.3,M,,*5C
$PYRTM,2024,125.918892531146,17.028539941285
$GPGGA,220311.00,3450.9512,N,12141.9916,W,1,10,0.8,8.7,M,-33.3,M,,*58
$PYRTM,2024,125.918904101887,17.028551512025
$GPGGA,220312.00,3450.9501,N,12141.9897,W,1,10,0.8,8.6,M,-33.3,M,,*50
$PYRTM,2024,125.918915679780,17.028563089919
$GPGGA,220313.00,3450.9492,N,12141.9875,W,1,10,0.8,8.9,M,-33.3,M,,*59
$PYRTM,2024,125.918927253692,17.028574663843
$GPGGA,220314.00,3450.9483,N,12141.9854,W,1,10,0.8,9.4,M,-33.3,M,,*51
$PYRTM,2024,125.918938828102,17.028586238241
$GPGGA,220315.00,3450.9471,N,12141.9832,W,1,10,0.8,9.8,M,-33.3,M,,*51
$PYRTM,2024,125.918950402222,17.028597812361
$GPGGA,220316.00,3450.9458,N,12141.9809,W,1,10,0.8,10.1,M,-33.3,M,,*60
$PYRTM,2024,125.918961980069,17.028609390220
$GPGGA,220317.00,3450.9446,N,12141.9787,W,1,10,0.8,10.3,M,-33.3,M,,*65
$PYRTM,2024,125.918973545347,17.028620955486
$GPGGA,220318.00,3450.9433,N,12141.9764,W,1,10,0.8,10.4,M,-33.3,M,,*62
$PYRTM,2024,125.918980946354,17.028628356493
$GPGGA,220319.00,3450.9420,N,12141.9742,W,1,10,0.8,10.5,M,-33.3,M,,*64
$PYRTM,2024,125.918996693102,17.028644103252
$GPGGA,220320.00,3450.9407,N,12141.9720,W,1,10,0.8,10.5,M,-33.3,M,,*6F
$PYRTM,2024,125.919004092604,17.028651502743
$GPGGA,220321.00,3450.9396,N,12141.9698,W,1,10,0.8,10.3,M,-33.3,M,,*65
$PYRTM,2024,125.919015799352,17.028663209491
$GPGGA,220322.00,3450.9386,N,12141.9675,W,1,10,0.8,10.1,M,-33.3,M,,*66
$PYRTM,2024,125.919031422234,17.028678832373
$GPGGA,220323.00,3450.9375,N,12141.9654,W,1,10,0.8,9.8,M,-33.3,M,,*59
$PYRTM,2024,125.919042990046,17.028690400185
$GPGGA,220324.00,3450.9363,N,12141.9634,W,1,10,0.8,9.5,M,-33.3,M,,*52
$PYRTM,2024,125.919050390231,17.028697800370
$GPGGA,220325.00,3450.9352,N,12141.9613,W,1,10,0.8,9.4,M,-33.3,M,,*55
$PYRTM,2024,125.919069024988,17.028716435127
$GPGGA,220326.00,3450.9340,N,12141.9592,W,1,10,0.8,9.4,M,-33.3,M,,*5F
$PYRTM,2024,125.919077716030,17.028725126169
$GPGGA,220327.00,3450.9329,N,12141.9571,W,1,10,0.8,9.4,M,-33.3,M,,*5C
$PYRTM,2024,125.919089301655,17.028736711806
$GPGGA,220328.00,3450.9317,N,12141.9550,W,1,10,0.8,9.4,M,-33.3,M,,*5D
$PYRTM,2024,125.919100863993,17.028748274132
$GPGGA,220329.00,3450.9305,N,12141.9527,W,1,10,0.8,9.6,M,-33.3,M,,*5D
$PYRTM,2024,125.919112439491,17.028759849641
$GPGGA,220330.00,3450.9294,N,12141.9505,W,1,10,0.8,9.8,M,-33.3,M,,*52
$PYRTM,2024,125.919119836042,17.028767246192
$GPGGA,220331.00,3450.9282,N,12141.9482,W,1,10,0.8,10.0,M,-33.3,M,,*6A
$PYRTM,2024,125.919131525150,17.028778935301
$GPGGA,220332.00,3450.9269,N,12141.9460,W,1,10,0.8,10.0,M,-33.3,M,,*60
$PYRTM,2024,125.919147166516,17.028794576655
$GPGGA,220333.00,3450.9257,N,12141.9437,W,1,10,0.8,10.0,M,-33.3,M,,*6E
$PYRTM,2024,125.919154558426,17.028801968565
$GPGGA,220334.00,3450.9246,N,12141.9415,W,1,10,0.8,10.0,M,-33.3,M,,*69
$PYRTM,2024,125.919170312037,17.028817722176
$GPGGA,220335.00,3450.9236,N,12141.9392,W,1,10,0.8,9.8,M,-33.3,M,,*57
$PYRTM,2024,125.919181965764,17.028829375903
$GPGGA,220336.00,3450.9226,N,12141.9370,W,1,10,0.8,9.6,M,-33.3,M,,*57
$PYRTM,2024,125.919193459433,17.028840869572
$GPGGA,220337.00,3450.9213,N,12141.9349,W,1,10,0.8,9.2,M,-33.3,M,,*5E
$PYRTM,2024,125.919205038218,17.028852448356
$GPGGA,220338.00,3450.9197,N,12141.9330,W,1,10,0.8,8.9,M,-33.3,M,,*5A
$PYRTM,2024,125.919216610637,17.028864020787
$GPGGA,220339.00,3450.9183,N,12141.9310,W,1,10,0.8,8.8,M,-33.3,M,,*5D
$PYRTM,2024,125.919228176238,17.028875586389
$GPGGA,220340.00,3450.9173,N,12141.9288,W,1,10,0.8,8.8,M,-33.3,M,,*5C
$PYRTM,2024,125.919235575822,17.028882985961
$GPGGA,220341.00,3450.9165,N,12141.9264,W,1,10,0.8,8.9,M,-33.3,M,,*59
$PYRTM,2024,125.919251329213,17.028898739352
$GPGGA,220342.00,3450.9153,N,12141.9242,W,1,10,0.8,9.1,M,-33.3,M,,*52
$PYRTM,2024,125.919262898981,17.028910309132
$GPGGA,220343.00,3450.9139,N,12141.9221,W,1,10,0.8,9.3,M,-33.3,M,,*58
$PYRTM,2024,125.919270297859,17.028917707998
$GPGGA,220344.00,3450.9124,N,12141.9200,W,1,10,0.8,9.5,M,-33.3,M,,*56
$PYRTM,2024,125.919286055174,17.028933465313
$GPGGA,220345.00,3450.9113,N,12141.9178,W,1,10,0.8,9.6,M,-33.3,M,,*5C
$PYRTM,2024,125.919293447014,17.028940857153
$GPGGA,220346.00,3450.9105,N,12141.9154,W,1,10,0.8,9.8,M,-33.3,M,,*58
$PYRTM,2024,125.919309203993,17.028956614132
$GPGGA,220347.00,3450.9097,N,12141.9130,W,1,10,0.8,9.7,M,-33.3,M,,*5E
$PYRTM,2024,125.919320773160,17.028968183299
$GPGGA,220348.00,3450.9086,N,12141.9108,W,1,10,0.8,9.5,M,-33.3,M,,*58
$PYRTM,2024,125.919328169167,17.028975579306
$GPGGA,220349.00,3450.9071,N,12141.9088,W,1,10,0.8,9.3,M,-33.3,M,,*5E
$PYRTM,2024,125.919343915833,17.028991325972
$GPGGA,220350.00,3450.9056,N,12141.9068,W,1,10,0.8,9.0,M,-33.3,M,,*5E
$PYRTM,2024,125.919355509433,17.029002919572
$GPGGA,220351.00,3450.9043,N,12141.9046,W,1,10,0.8,8.7,M,-33.3,M,,*51
$PYRTM,2024,125.919367065972,17.029014476111
$GPGGA,220352.00,3450.9033,N,12141.9023,W,1,10,0.8,8.7,M,-33.3,M,,*56
$PYRTM,2024,125.919378648229,17.029026058380
$GPGGA,220353.00,3450.9023,N,12141.9000,W,1,10,0.8,9.0,M,-33.3,M,,*51
$PYRTM,2024,125.919386039468,17.029033449606
$GPGGA,220354.00,3450.9012,N,12141.8977,W,1,10,0.8,9.2,M,-33.3,M,,*5E
$PYRTM,2024,125.919401792512,17.029049202650
$GPGGA,220355.00,3450.8999,N,12141.8955,W,1,10,0.8,9.4,M,-33.3,M,,*52
$PYRTM,2024,125.919409194387,17.029056604525
$GPGGA,220356.00,3450.8985,N,12141.8934,W,1,10,0.8,9.5,M,-33.3,M,,*5A
$PYRTM,2024,125.919427838669,17.029075248819
$GPGGA,220357.00,3450.8973,N,12141.8913,W,1,10,0.8,9.6,M,-33.3,M,,*54
$PYRTM,2024,125.919436510926,17.029083921076
$GPGGA,220358.00,3450.8963,N,12141.8891,W,1,10,0.8,9.5,M,-33.3,M,,*52
$PYRTM,2024,125.919443910382,17.029091320532
$GPGGA,220359.00,3450.8953,N,12141.8867,W,1,10,0.8,9.5,M,-33.3,M,,*59
$PYRTM,2024,125.919459664792,17.029107074931
$GPGGA,220400.00,3450.8944,N,12141.8845,W,1,10,0.8,9.5,M,-33.3,M,,*54
$PYRTM,2024,125.919471253194,17.029118663345
$GPGGA,220401.00,3450.8934,N,12141.8823,W,1,10,0.8,9.6,M,-33.3,M,,*51
$PYRTM,2024,125.919482809664,17.029130219803
$GPGGA,220402.00,3450.8922,N,12141.8801,W,1,10,0.8,9.6,M,-33.3,M,,*55
$PYRTM,2024,125.919494389884,17.029141800023
$GPGGA,220403.00,3450.8909,N,12141.8778,W,1,10,0.8,9.4,M,-33.3,M,,*5E
$PYRTM,2024,125.919505960764,17.029153370903
$GPGGA,220404.00,3450.8895,N,12141.8755,W,1,10,0.8,9.3,M,-33.3,M,,*55
$PYRTM,2024,125.919517536493,17.029164946632
$GPGGA,220405.00,3450.8885,N,12141.8732,W,1,10,0.8,9.4,M,-33.3,M,,*53
$PYRTM,2024,125.919529109525,17.029176519664
$GPGGA,220406.00,3450.8876,N,12141.8709,W,1,10,0.8,9.4,M,-33.3,M,,*54
$PYRTM,2024,125.919540683924,17.029188094062
$GPGGA,220407.00,3450.8868,N,12141.8686,W,1,10,0.8,9.4,M,-33.3,M,,*5C
$PYRTM,2024,125.919552259560,17.029199669699
$GPGGA,220408.00,3450.8855,N,12141.8665,W,1,10,0.8,9.4,M,-33.3,M,,*50
$PYRTM,2024,125.919559652222,17.029207062361
$GPGGA,220409.00,3450.8841,N,12141.8644,W,1,10,0.8,9.4,M,-33.3,M,,*57
$PYRTM,2024,125.919575405822,17.029222815961
$GPGGA,220410.00,3450.8829,N,12141.8623,W,1,10,0.8,9.6,M,-33.3,M,,*52
$PYRTM,2024,125.919582799838,17.029230209977
$GPGGA,220411.00,3450.8820,N,12141.8601,W,1,10,0.8,9.8,M,-33.3,M,,*54
$PYRTM,2024,125.919594489896,17.029241900035
$GPGGA,220412.00,3450.8813,N,12141.8577,W,1,10,0.8,9.8,M,-33.3,M,,*55
$PYRTM,2024,125.919610133981,17.029257544120
$GPGGA,220413.00,3450.8803,N,12141.8555,W,1,10,0.8,9.7,M,-33.3,M,,*5A
$PYRTM,2024,125.919621702697,17.029269112836
$GPGGA,220414.00,3450.8790,N,12141.8533,W,1,10,0.8,9.6,M,-33.3,M,,*59
$PYRTM,2024,125.919633292338,17.029280702477
$GPGGA,220415.00,3450.8778,N,12141.8511,W,1,10,0.8,9.6,M,-33.3,M,,*5E
$PYRTM,2024,125.919644850764,17.029292260903
$GPGGA,220416.00,3450.8768,N,12141.8489,W,1,10,0.8,9.7,M,-33.3,M,,*5D
$PYRTM,2024,125.919656427118,17.029303837257
$GPGGA,220417.00,3450.8761,N,12141.8465,W,1,10,0.8,9.7,M,-33.3,M,,*57
$PYRTM,2024,125.919667999387,17.029315409525
$GPGGA,220418.00,3450.8752,N,12141.8440,W,1,10,0.8,9.7,M,-33.3,M,,*5F
$PYRTM,2024,125.919675392743,17.029322802882
$GPGGA,220419.00,3450.8742,N,12141.8415,W,1,10,0.8,9.8,M,-33.3,M,,*50
$PYRTM,2024,125.919691147778,17.029338557928
$GPGGA,220420.00,3450.8734,N,12141.8391,W,1,10,0.8,10.1,M,-33.3,M,,*61
$PYRTM,2024,125.919702722894,17.029350133032
$GPGGA,220421.00,3450.8727,N,12141.8367,W,1,10,0.8,10.3,M,-33.3,M,,*69
$PYRTM,2024,125.919714294965,17.029361705104
$GPGGA,220422.00,3450.8720,N,12141.8345,W,1,10,0.8,10.4,M,-33.3,M,,*6A
$PYRTM,2024,125.919725869873,17.029373280012
$GPGGA,220423.00,3450.8712,N,12141.8323,W,1,10,0.8,10.1,M,-33.3,M,,*6F
$PYRTM,2024,125.919733263924,17.029380674062
$GPGGA,220424.00,3450.8703,N,12141.8302,W,1,10,0.8,9.6,M,-33.3,M,,*54
$PYRTM,2024,125.919749013426,17.029396423565
$GPGGA,220425.00,3450.8696,N,12141.8280,W,1,10,0.8,9.1,M,-33.3,M,,*54
$PYRTM,2024,125.919760591192,17.029408001331
$GPGGA,220426.00,3450.8688,N,12141.8258,W,1,10,0.8,9.0,M,-33.3,M,,*5C
$PYRTM,2024,125.919767985104,17.029415395243
$GPGGA,220427.00,3450.8679,N,12141.8235,W,1,10,0.8,9.3,M,-33.3,M,,*5B
$PYRTM,2024,125.919786620729,17.029434030868
$GPGGA,220428.00,3450.8671,N,12141.8211,W,1,10,0.8,9.9,M,-33.3,M,,*50
$PYRTM,2024,125.919795330220,17.029442740359
$GPGGA,220429.00,3450.8664,N,12141.8187,W,1,10,0.8,10.3,M,-33.3,M,,*6B
$PYRTM,2024,125.919806887187,17.029454297326
$GPGGA,220430.00,3450.8655,N,12141.8162,W,1,10,0.8,10.6,M,-33.3,M,,*6F
$PYRTM,2024,125.919818465150,17.029465875289
$GPGGA,220431.00,3450.8644,N,12141.8139,W,1,10,0.8,10.6,M,-33.3,M,,*60
$PYRTM,2024,125.919830036447,17.029477446586
$GPGGA,220432.00,3450.8633,N,12141.8116,W,1,10,0.8,10.4,M,-33.3,M,,*6C
$PYRTM,2024,125.919841609387,17.029489019525
$GPGGA,220433.00,3450.8624,N,12141.8093,W,1,10,0.8,10.2,M,-33.3,M,,*61
$PYRTM,2024,125.919853183414,17.029500593553
$GPGGA,220434.00,3450.8617,N,12141.8071,W,1,10,0.8,10.0,M,-33.3,M,,*68
$PYRTM,2024,125.919864759028,17.029512169167
$GPGGA,220435.00,3450.8611,N,12141.8049,W,1,10,0.8,9.7,M,-33.3,M,,*5B
$PYRTM,2024,125.919872153438,17.029519563576
$GPGGA,220436.00,3450.8604,N,12141.8028,W,1,10,0.8,9.6,M,-33.3,M,,*5A
$PYRTM,2024,125.919887906806,17.029535316944
$GPGGA,220437.00,3450.8596,N,12141.8006,W,1,10,0.8,9.5,M,-33.3,M,,*5C
$PYRTM,2024,125.919899481042,17.029546891181
$GPGGA,220438.00,3450.8587,N,12141.7984,W,1,10,0.8,9.7,M,-33.3,M,,*5D
$PYRTM,2024,125.919911055081,17.029558465220
$GPGGA,220439.00,3450.8577,N,12141.7961,W,1,10,0.8,10.1,M,-33.3,M,,*66
$PYRTM,2024,125.919922629109,17.029570039248
$GPGGA,220440.00,3450.8569,N,12141.7938,W,1,10,0.8,10.7,M,-33.3,M,,*6D
$PYRTM,2024,125.919934204630,17.029581614769
$GPGGA,220441.00,3450.8562,N,12141.7914,W,1,10,0.8,10.7,M,-33.3,M,,*69
$PYRTM,2024,125.919945777315,17.029593187454
$GPGGA,220442.00,3450.8555,N,12141.7890,W,1,10,0.8,10.3,M,-33.3,M,,*67
$PYRTM,2024,125.919957366238,17.029604776377
$GPGGA,220443.00,3450.8546,N,12141.7866,W,1,10,0.8,10.2,M,-33.3,M,,*6C
$PYRTM,2024,125.919964748692,17.029612158831
$GPGGA,220444.00,3450.8535,N,12141.7843,W,1,10,0.8,10.2,M,-33.3,M,,*68
$PYRTM,2024,125.919980514641,17.029627924792
$GPGGA,220445.00,3450.8527,N,12141.7820,W,1,10,0.8,10.3,M,-33.3,M,,*6E
$PYRTM,2024,125.919992074178,17.029639484329
$GPGGA,220446.00,3450.8521,N,12141.7795,W,1,10,0.8,10.3,M,-33.3,M,,*6A
$PYRTM,2024,125.919999468032,17.029646878171
$GPGGA,220447.00,3450.8515,N,12141.7771,W,1,10,0.8,10.3,M,-33.3,M,,*66
$PYRTM,2024,125.920015222442,17.029662632581
$GPGGA,220448.00,3450.8508,N,12141.7748,W,1,10,0.8,10.3,M,-33.3,M,,*6F
$PYRTM,2024,125.920026796343,17.029674206481
$GPGGA,220449.00,3450.8499,N,12141.7726,W,1,10,0.8,10.4,M,-33.3,M,,*68
$PYRTM,2024,125.920038369641,17.029685779780
$GPGGA,220450.00,3450.8489,N,12141.7703,W,1,10,0.8,10.3,M,-33.3,M,,*61
$PYRTM,2024,125.920049944734,17.029697354873
$GPGGA,220451.00,3450.8479,N,12141.7682,W,1,10,0.8,10.3,M,-33.3,M,,*67
$PYRTM,2024,125.920061518692,17.029708928831
$GPGGA,220452.00,3450.8472,N,12141.7660,W,1,10,0.8,10.0,M,-33.3,M,,*60
$PYRTM,2024,125.920073093634,17.029720503773
$GPGGA,220453.00,3450.8467,N,12141.7637,W,1,10,0.8,9.9,M,-33.3,M,,*56
$PYRTM,2024,125.920084667639,17.029732077778
$GPGGA,220454.00,3450.8460,N,12141.7614,W,1,10,0.8,9.5,M,-33.3,M,,*5B
$PYRTM,2024,125.920096241481,17.029743651620
$GPGGA,220455.00,3450.8450,N,12141.7590,W,1,10,0.8,9.6,M,-33.3,M,,*55
$PYRTM,2024,125.920103636366,17.029751046505
$GPGGA,220456.00,3450.8439,N,12141.7566,W,1,10,0.8,10.2,M,-33.3,M,,*6C
$PYRTM,2024,125.920119390787,17.029766800926
$GPGGA,220457.00,3450.8431,N,12141.7540,W,1,10,0.8,10.9,M,-33.3,M,,*6A
$PYRTM,2024,125.920126784468,17.029774194606
$GPGGA,220458.00,3450.8424,N,12141.7514,W,1,10,0.8,11.3,M,-33.3,M,,*6B
$PYRTM,2024,125.920145446366,17.029792856505
$GPGGA,220459.00,3450.8417,N,12141.7489,W,1,10,0.8,11.5,M,-33.3,M,,*69
$PYRTM,2024,125.920154110984,17.029801521123
$GPGGA,220500.00,3450.8408,N,12141.7464,W,1,10,0.8,11.4,M,-33.3,M,,*68
$PYRTM,2024,125.920165685521,17.029813095660
$GPGGA,220501.00,3450.8399,N,12141.7441,W,1,10,0.8,11.1,M,-33.3,M,,*64
$PYRTM,2024,125.920177255081,17.029824665220
$GPGGA,220502.00,3450.8389,N,12141.7419,W,1,10,0.8,10.8,M,-33.3,M,,*63
$PYRTM,2024,125.920188833993,17.029836244132
$GPGGA,220503.00,3450.8380,N,12141.7398,W,1,10,0.8,10.4,M,-33.3,M,,*69
$PYRTM,2024,125.920196243113,17.029843653252
$GPGGA,220504.00,3450.8372,N,12141.7377,W,1,10,0.8,10.5,M,-33.3,M,,*63
$PYRTM,2024,125.920211985185,17.029859395324
$GPGGA,220505.00,3450.8366,N,12141.7355,W,1,10,0.8,10.2,M,-33.3,M,,*60
$PYRTM,2024,125.920223557419,17.029870967558
$GPGGA,220506.00,3450.8359,N,12141.7332,W,1,10,0.8,10.0,M,-33.3,M,,*6C
$PYRTM,2024,125.920235131458,17.029882541597
$GPGGA,220507.00,3450.8350,N,12141.7309,W,1,10,0.8,10.0,M,-33.3,M,,*6C
$PYRTM,2024,125.920246701007,17.029894111146
$GPGGA,220508.00,3450.8340,N,12141.7285,W,1,10,0.8,10.4,M,-33.3,M,,*63
$PYRTM,2024,125.920254104120,17.029901514259
$GPGGA,220509.00,3450.8330,N,12141.7259,W,1,10,0.8,10.9,M,-33.3,M,,*69
$PYRTM,2024,125.920269854873,17.029917265012
$GPGGA,220510.00,3450.8321,N,12141.7233,W,1,10,0.8,11.4,M,-33.3,M,,*61
$PYRTM,2024,125.920277248738,17.029924658877
$GPGGA,220511.00,3450.8313,N,12141.7207,W,1,10,0.8,11.9,M,-33.3,M,,*6B
$PYRTM,2024,125.920288940035,17.029936350174
$GPGGA,220512.00,3450.8304,N,12141.7182,W,1,10,0.8,11.8,M,-33.3,M,,*61
$PYRTM,2024,125.920304590648,17.029952000787
$GPGGA,220513.00,3450.8295,N,12141.7159,W,1,10,0.8,11.0,M,-33.3,M,,*67
$PYRTM,2024,125.920316151042,17.029963561181
$GPGGA,220514.00,3450.8286,N,12141.7139,W,1,10,0.8,10.2,M,-33.3,M,,*67
$PYRTM,2024,125.920327738275,17.029975148414
$GPGGA,220515.00,3450.8279,N,12141.7118,W,1,10,0.8,9.6,M,-33.3,M,,*59
$PYRTM,2024,125.920339298565,17.029986708704
$GPGGA,220516.00,3450.8272,N,12141.7096,W,1,10,0.8,9.2,M,-33.3,M,,*52
$PYRTM,2024,125.920346693183,17.029994103322
$GPGGA,220517.00,3450.8264,N,12141.7074,W,1,10,0.8,9.0,M,-33.3,M,,*5A
$PYRTM,2024,125.920362443356,17.030009853495
$GPGGA,220518.00,3450.8255,N,12141.7051,W,1,10,0.8,9.2,M,-33.3,M,,*52
$PYRTM,2024,125.920374022442,17.030021432581
$GPGGA,220519.00,3450.8246,N,12141.7027,W,1,10,0.8,10.0,M,-33.3,M,,*6A
$PYRTM,2024,125.920385594873,17.030033005012
$GPGGA,220520.00,3450.8237,N,12141.7001,W,1,10,0.8,10.9,M,-33.3,M,,*6B
$PYRTM,2024,125.920397169514,17.030044579653
$GPGGA,220521.00,3450.8228,N,12141.6974,W,1,10,0.8,11.4,M,-33.3,M,,*62
$PYRTM,2024,125.920408743843,17.030056153981
$GPGGA,220522.00,3450.8219,N,12141.6947,W,1,10,0.8,11.5,M,-33.3,M,,*62
$PYRTM,2024,125.920420317928,17.030067728067
$GPGGA,220523.00,3450.8208,N,12141.6922,W,1,10,0.8,11.3,M,-33.3,M,,*66
$PYRTM,2024,125.920427713299,17.030075123437
$GPGGA,220524.00,3450.8197,N,12141.6900,W,1,10,0.8,11.1,M,-33.3,M,,*66
$PYRTM,2024,125.920443466053,17.030090876192
$GPGGA,220525.00,3450.8190,N,12141.6878,W,1,10,0.8,10.6,M,-33.3,M,,*68
$PYRTM,2024,125.920455039803,17.030102449942
$GPGGA,220526.00,3450.8185,N,12141.6855,W,1,10,0.8,9.9,M,-33.3,M,,*57
$PYRTM,2024,125.920466628785,17.030114038924
$GPGGA,220527.00,3450.8179,N,12141.6834,W,1,10,0.8,9.5,M,-33.3,M,,*5E
$PYRTM,2024,125.920478188380,17.030125598530
$GPGGA,220528.00,3450.8171,N,12141.6812,W,1,10,0.8,9.8,M,-33.3,M,,*50
$PYRTM,2024,125.920485583461,17.030132993600
$GPGGA,220529.00,3450.8163,N,12141.6788,W,1,10,0.8,10.0,M,-33.3,M,,*6E
$PYRTM,2024,125.920504217095,17.030151627245
$GPGGA,220530.00,3450.8155,N,12141.6764,W,1,10,0.8,10.3,M,-33.3,M,,*62
$PYRTM,2024,125.920512910868,17.030160321007
$GPGGA,220531.00,3450.8148,N,12141.6739,W,1,10,0.8,10.9,M,-33.3,M,,*6D
$PYRTM,2024,125.920524481817,17.030171891956
$GPGGA,220532.00,3450.8139,N,12141.6714,W,1,10,0.8,11.4,M,-33.3,M,,*6B
$PYRTM,2024,125.920536059016,17.030183469155
$GPGGA,220533.00,3450.8128,N,12141.6689,W,1,10,0.8,11.4,M,-33.3,M,,*6F
$PYRTM,2024,125.920547628264,17.030195038403
$GPGGA,220534.00,3450.8118,N,12141.6664,W,1,10,0.8,11.2,M,-33.3,M,,*6E
$PYRTM,2024,125.920559207708,17.030206617847
$GPGGA,220535.00,3450.8110,N,12141.6640,W,1,10,0.8,10.8,M,-33.3,M,,*6A
$PYRTM,2024,125.920570781782,17.030218191933
$GPGGA,220536.00,3450.8103,N,12141.6617,W,1,10,0.8,10.4,M,-33.3,M,,*65
$PYRTM,2024,125.920582355613,17.030229765752
$GPGGA,220537.00,3450.8095,N,12141.6595,W,1,10,0.8,10.1,M,-33.3,M,,*66
$PYRTM,2024,125.920593930081,17.030241340220
$GPGGA,220538.00,3450.8087,N,12141.6574,W,1,10,0.8,9.9,M,-33.3,M,,*55
$PYRTM,2024,125.920605504525,17.030252914664
$GPGGA,220539.00,3450.8079,N,12141.6553,W,1,10,0.8,10.1,M,-33.3,M,,*60
$PYRTM,2024,125.920617078113,17.030264488252
$GPGGA,220540.00,3450.8073,N,12141.6530,W,1,10,0.8,10.3,M,-33.3,M,,*63
$PYRTM,2024,125.920628655775,17.030276065914
$GPGGA,220541.00,3450.8068,N,12141.6507,W,1,10,0.8,10.9,M,-33.3,M,,*66
$PYRTM,2024,125.920640227326,17.030287637465
$GPGGA,220542.00,3450.8061,N,12141.6483,W,1,10,0.8,11.4,M,-33.3,M,,*6D
$PYRTM,2024,125.920651814896,17.030299225035
$GPGGA,220543.00,3450.8052,N,12141.6459,W,1,10,0.8,11.7,M,-33.3,M,,*68
$PYRTM,2024,125.920659195949,17.030306606088
$GPGGA,220544.00,3450.8041,N,12141.6435,W,1,10,0.8,11.8,M,-33.3,M,,*68
$PYRTM,2024,125.920674949144,17.030322359282
$GPGGA,220545.00,3450.8030,N,12141.6411,W,1,10,0.8,11.8,M,-33.3,M,,*69
$PYRTM,2024,125.920686516725,17.030333926863
$GPGGA,220546.00,3450.8021,N,12141.6386,W,1,10,0.8,11.7,M,-33.3,M,,*6C
$PYRTM,2024,125.920698096875,17.030345507014
$GPGGA,220547.00,3450.8013,N,12141.6362,W,1,10,0.8,11.4,M,-33.3,M,,*65
$PYRTM,2024,125.920709670799,17.030357080937
$GPGGA,220548.00,3450.8008,N,12141.6338,W,1,10,0.8,11.2,M,-33.3,M,,*69
$PYRTM,2024,125.920721246794,17.030368656933
$GPGGA,220549.00,3450.8001,N,12141.6315,W,1,10,0.8,11.2,M,-33.3,M,,*6E
$PYRTM,2024,125.920732820220,17.030380230359
$GPGGA,220550.00,3450.7992,N,12141.6294,W,1,10,0.8,11.1,M,-33.3,M,,*61
$PYRTM,2024,125.920744395556,17.030391805694
$GPGGA,220551.00,3450.7982,N,12141.6273,W,1,10,0.8,11.0,M,-33.3,M,,*69
$PYRTM,2024,125.920755968796,17.030403378935
$GPGGA,220552.00,3450.7973,N,12141.6250,W,1,10,0.8,10.8,M,-33.3,M,,*6C
$PYRTM,2024,125.920767555961,17.030414966100
$GPGGA,220553.00,3450.7966,N,12141.6227,W,1,10,0.8,11.0,M,-33.3,M,,*60
$PYRTM,2024,125.920774938009,17.030422348148
$GPGGA,220554.00,3450.7961,N,12141.6201,W,1,10,0.8,11.4,M,-33.3,M,,*60
$PYRTM,2024,125.920790692836,17.030438102975
$GPGGA,220555.00,3450.7953,N,12141.6176,W,1,10,0.8,11.9,M,-33.3,M,,*6E
$PYRTM,2024,125.920802259954,17.030449670104
$GPGGA,220556.00,3450.7943,N,12141.6151,W,1,10,0.8,12.2,M,-33.3,M,,*61
$PYRTM,2024,125.920813845150,17.030461255301
$GPGGA,220557.00,3450.7930,N,12141.6127,W,1,10,0.8,12.3,M,-33.3,M,,*64
$PYRTM,2024,125.920825412512,17.030472822650
$GPGGA,220558.00,3450.7918,N,12141.6103,W,1,10,0.8,12.1,M,-33.3,M,,*65
$PYRTM,2024,125.920836982269,17.030484392407
$GPGGA,220559.00,3450.7909,N,12141.6078,W,1,10,0.8,11.7,M,-33.3,M,,*6C
$PYRTM,2024,125.920844398854,17.030491809005
$GPGGA,220600.00,3450.7902,N,12141.6055,W,1,10,0.8,11.2,M,-33.3,M,,*62
$PYRTM,2024,125.920863024572,17.030510434711
$GPGGA,220601.00,3450.7896,N,12141.6033,W,1,10,0.8,10.9,M,-33.3,M,,*65
$PYRTM,2024,125.920874591019,17.030522001157
$GPGGA,220602.00,3450.7890,N,12141.6012,W,1,10,0.8,10.6,M,-33.3,M,,*6C
$PYRTM,2024,125.920886176968,17.030533587118
$GPGGA,220603.00,3450.7883,N,12141.5991,W,1,10,0.8,10.4,M,-33.3,M,,*6C
$PYRTM,2024,125.920894857975,17.030542268113
$GPGGA,220604.00,3450.7874,N,12141.5967,W,1,10,0.8,10.5,M,-33.3,M,,*6B
$PYRTM,2024,125.920906434063,17.030553844201
$GPGGA,220605.00,3450.7865,N,12141.5942,W,1,10,0.8,11.1,M,-33.3,M,,*68
$PYRTM,2024,125.920918005880,17.030565416019
$GPGGA,220606.00,3450.7859,N,12141.5917,W,1,10,0.8,11.8,M,-33.3,M,,*6D
$PYRTM,2024,125.920929580637,17.030576990775
$GPGGA,220607.00,3450.7854,N,12141.5892,W,1,10,0.8,12.2,M,-33.3,M,,*64
$PYRTM,2024,125.920941153727,17.030588563866
$GPGGA,220608.00,3450.7846,N,12141.5865,W,1,10,0.8,12.0,M,-33.3,M,,*62
$PYRTM,2024,125.920952731667,17.030600141806
$GPGGA,220609.00,3450.7834,N,12141.5839,W,1,10,0.8,11.5,M,-33.3,M,,*69
$PYRTM,2024,125.920964303009,17.030611713148
$GPGGA,220610.00,3450.7823,N,12141.5814,W,1,10,0.8,11.1,M,-33.3,M,,*6C
$PYRTM,2024,125.920975892130,17.030623302269
$GPGGA,220611.00,3450.7815,N,12141.5792,W,1,10,0.8,10.9,M,-33.3,M,,*60
$PYRTM,2024,125.920987450856,17.030634860995
$GPGGA,220612.00,3450.7813,N,12141.5769,W,1,10,0.8,10.5,M,-33.3,M,,*6D
$PYRTM,2024,125.920999039468,17.030646449606
$GPGGA,220613.00,3450.7808,N,12141.5746,W,1,10,0.8,10.4,M,-33.3,M,,*6A
$PYRTM,2024,125.921010594363,17.030658004502
$GPGGA,220614.00,3450.7799,N,12141.5723,W,1,10,0.8,10.1,M,-33.3,M,,*6C
$PYRTM,2024,125.921022172836,17.030669582975
$GPGGA,220615.00,3450.7788,N,12141.5702,W,1,10,0.8,10.5,M,-33.3,M,,*6A
$PYRTM,2024,125.921033748287,17.030681158426
$GPGGA,220616.00,3450.7781,N,12141.5678,W,1,10,0.8,11.2,M,-33.3,M,,*6A
$PYRTM,2024,125.921041142593,17.030688552731
$GPGGA,220617.00,3450.7778,N,12141.5651,W,1,10,0.8,11.6,M,-33.3,M,,*62
$PYRTM,2024,125.921056896146,17.030704306285
$GPGGA,220618.00,3450.7774,N,12141.5625,W,1,10,0.8,11.8,M,-33.3,M,,*6C
$PYRTM,2024,125.921068469954,17.030715880093
$GPGGA,220619.00,3450.7764,N,12141.5600,W,1,10,0.8,11.7,M,-33.3,M,,*64
$PYRTM,2024,125.921080038113,17.030727448264
$GPGGA,220620.00,3450.7749,N,12141.5576,W,1,10,0.8,11.6,M,-33.3,M,,*62
$PYRTM,2024,125.921091618507,17.030739028646
$GPGGA,220621.00,3450.7737,N,12141.5553,W,1,10,0.8,11.4,M,-33.3,M,,*6F
$PYRTM,2024,125.921103191389,17.030750601528
$GPGGA,220622.00,3450.7728,N,12141.5529,W,1,10,0.8,11.2,M,-33.3,M,,*69
$PYRTM,2024,125.921114769317,17.030762179456
$GPGGA,220623.00,3450.7724,N,12141.5506,W,1,10,0.8,10.9,M,-33.3,M,,*63
$PYRTM,2024,125.921126340278,17.030773750417
$GPGGA,220624.00,3450.7720,N,12141.5484,W,1,10,0.8,10.4,M,-33.3,M,,*66
$PYRTM,2024,125.921137917558,17.030785327697
$GPGGA,220625.00,3450.7711,N,12141.5463,W,1,10,0.8,10.0,M,-33.3,M,,*68
$PYRTM,2024,125.921149488715,17.030796898854
$GPGGA,220626.00,3450.7698,N,12141.5442,W,1,10,0.8,9.9,M,-33.3,M,,*59
$PYRTM,2024,125.921156884525,17.030804294664
$GPGGA,220627.00,3450.7686,N,12141.5420,W,1,10,0.8,10.1,M,-33.3,M,,*63
$PYRTM,2024,125.921172637650,17.030820047789
$GPGGA,220628.00,3450.7679,N,12141.5395,W,1,10,0.8,10.7,M,-33.3,M,,*63
$PYRTM,2024,125.921184213044,17.030831623183
$GPGGA,220629.00,3450.7674,N,12141.5368,W,1,10,0.8,11.6,M,-33.3,M,,*6D
$PYRTM,2024,125.921195787616,17.030843197755
$GPGGA,220630.00,3450.7667,N,12141.5343,W,1,10,0.8,12.2,M,-33.3,M,,*69
$PYRTM,2024,125.921203178414,17.030850588553
$GPGGA,220631.00,3450.7659,N,12141.5318,W,1,10,0.8,12.4,M,-33.3,M,,*6D
$PYRTM,2024,125.921221814722,17.030869224861
$GPGGA,220632.00,3450.7648,N,12141.5294,W,1,10,0.8,12.1,M,-33.3,M,,*6E
$PYRTM,2024,125.921230508588,17.030877918738
$GPGGA,220633.00,3450.7638,N,12141.5271,W,1,10,0.8,11.5,M,-33.3,M,,*64
$PYRTM,2024,125.921237902465,17.030885312604
$GPGGA,220634.00,3450.7630,N,12141.5249,W,1,10,0.8,10.9,M,-33.3,M,,*6D
$PYRTM,2024,125.921253656250,17.030901066389
$GPGGA,220635.00,3450.7623,N,12141.5227,W,1,10,0.8,10.5,M,-33.3,M,,*6A
$PYRTM,2024,125.921265230012,17.030912640150
$GPGGA,220636.00,3450.7617,N,12141.5204,W,1,10,0.8,10.2,M,-33.3,M,,*68
$PYRTM,2024,125.921272625486,17.030920035625
$GPGGA,220637.00,3450.7610,N,12141.5181,W,1,10,0.8,10.1,M,-33.3,M,,*63
$PYRTM,2024,125.921288378160,17.030935788299
$GPGGA,220638.00,3450.7601,N,12141.5157,W,1,10,0.8,10.5,M,-33.3,M,,*63
$PYRTM,2024,125.921299966574,17.030947376713
$GPGGA,220639.00,3450.7591,N,12141.5134,W,1,10,0.8,11.0,M,-33.3,M,,*69
$PYRTM,2024,125.921311522697,17.030958932836
$GPGGA,220640.00,3450.7583,N,12141.5109,W,1,10,0.8,11.6,M,-33.3,M,,*6C
$PYRTM,2024,125.921323103924,17.030970514063
$GPGGA,220641.00,3450.7576,N,12141.5085,W,1,10,0.8,11.5,M,-33.3,M,,*61
$PYRTM,2024,125.921330507917,17.030977918056
$GPGGA,220642.00,3450.7567,N,12141.5062,W,1,10,0.8,11.4,M,-33.3,M,,*6A
$PYRTM,2024,125.921346249016,17.030993659155
$GPGGA,220643.00,3450.7558,N,12141.5041,W,1,10,0.8,11.3,M,-33.3,M,,*61
$PYRTM,2024,125.921357822778,17.031005232917
$GPGGA,220644.00,3450.7551,N,12141.5018,W,1,10,0.8,11.0,M,-33.3,M,,*60
$PYRTM,2024,125.921369398947,17.031016809086
$GPGGA,220645.00,3450.7544,N,12141.4995,W,1,10,0.8,10.6,M,-33.3,M,,*6F
$PYRTM,2024,125.921380971354,17.031028381493
$GPGGA,220646.00,3450.7537,N,12141.4972,W,1,10,0.8,10.4,M,-33.3,M,,*63
$PYRTM,2024,125.921392541169,17.031039951308
$GPGGA,220647.00,3450.7530,N,12141.4950,W,1,10,0.8,10.8,M,-33.3,M,,*69
$PYRTM,2024,125.921404118889,17.031051529028
$GPGGA,220648.00,3450.7522,N,12141.4928,W,1,10,0.8,11.4,M,-33.3,M,,*67
$PYRTM,2024,125.921415694491,17.031063104630
$GPGGA,220649.00,3450.7514,N,12141.4905,W,1,10,0.8,11.7,M,-33.3,M,,*6F
$PYRTM,2024,125.921422521030,17.031069931169
$GPGGA,220650.00,3450.7505,N,12141.4880,W,1,10,0.8,11.0,M,-33.3,M,,*6C
$PYRTM,2024,125.921438855359,17.031086265498
$GPGGA,220651.00,3450.7495,N,12141.4855,W,1,10,0.8,10.9,M,-33.3,M,,*65
$PYRTM,2024,125.921450415382,17.031097825521
$GPGGA,220652.00,3450.7485,N,12141.4832,W,1,10,0.8,11.2,M,-33.3,M,,*6C
$PYRTM,2024,125.921462004086,17.031109414225
$GPGGA,220653.00,3450.7476,N,12141.4808,W,1,10,0.8,11.4,M,-33.3,M,,*6E
$PYRTM,2024,125.921473564560,17.031120974699
$GPGGA,220654.00,3450.7470,N,12141.4783,W,1,10,0.8,11.4,M,-33.3,M,,*63
$PYRTM,2024,125.921480958565,17.031128368704
$GPGGA,220655.00,3450.7463,N,12141.4761,W,1,10,0.8,11.4,M,-33.3,M,,*6C
$PYRTM,2024,125.921496712454,17.031144122593
$GPGGA,220656.00,3450.7453,N,12141.4739,W,1,10,0.8,11.7,M,-33.3,M,,*62
$PYRTM,2024,125.921508286829,17.031155696968
$GPGGA,220657.00,3450.7443,N,12141.4717,W,1,10,0.8,11.9,M,-33.3,M,,*60
$PYRTM,2024,125.921519860567,17.031167270706
$GPGGA,220658.00,3450.7435,N,12141.4693,W,1,10,0.8,11.9,M,-33.3,M,,*63
$PYRTM,2024,125.921531435637,17.031178845775
$GPGGA,220659.00,3450.7430,N,12141.4671,W,1,10,0.8,12.0,M,-33.3,M,,*61
$PYRTM,2024,125.921543009722,17.031190419861
$GPGGA,220700.00,3450.7424,N,12141.4647,W,1,10,0.8,12.0,M,-33.3,M,,*6C
$PYRTM,2024,125.921554582720,17.031201992859
$GPGGA,220701.00,3450.7416,N,12141.4624,W,1,10,0.8,11.9,M,-33.3,M,,*63
$PYRTM,2024,125.921561979190,17.031209389329
$GPGGA,220702.00,3450.7405,N,12141.4602,W,1,10,0.8,11.8,M,-33.3,M,,*67
$PYRTM,2024,125.921580625660,17.031228035799
$GPGGA,220703.00,3450.7395,N,12141.4580,W,1,10,0.8,11.9,M,-33.3,M,,*60
$PYRTM,2024,125.921589306215,17.031236716354
$GPGGA,220704.00,3450.7387,N,12141.4556,W,1,10,0.8,11.9,M,-33.3,M,,*6F
$PYRTM,2024,125.921600879688,17.031248289826
$GPGGA,220705.00,3450.7381,N,12141.4532,W,1,10,0.8,11.9,M,-33.3,M,,*6A
$PYRTM,2024,125.921608274954,17.031255685093
$GPGGA,220706.00,3450.7374,N,12141.4508,W,1,10,0.8,11.8,M,-33.3,M,,*6B
$PYRTM,2024,125.921624032836,17.031271442986
$GPGGA,220707.00,3450.7365,N,12141.4484,W,1,10,0.8,11.9,M,-33.3,M,,*6E
$PYRTM,2024,125.921635603171,17.031283013310
$GPGGA,220708.00,3450.7356,N,12141.4461,W,1,10,0.8,12.1,M,-33.3,M,,*61
$PYRTM,2024,125.921647176296,17.031294586435
$GPGGA,220709.00,3450.7348,N,12141.4436,W,1,10,0.8,12.3,M,-33.3,M,,*6F
$PYRTM,2024,125.921654586829,17.031301996979
$GPGGA,220710.00,3450.7339,N,12141.4411,W,1,10,0.8,12.4,M,-33.3,M,,*63
$PYRTM,2024,125.921670325382,17.031317735521
$GPGGA,220711.00,3450.7331,N,12141.4386,W,1,10,0.8,12.6,M,-33.3,M,,*61
$PYRTM,2024,125.921681898183,17.031329308322
$GPGGA,220712.00,3450.7323,N,12141.4362,W,1,10,0.8,12.6,M,-33.3,M,,*6B
$PYRTM,2024,125.921693473391,17.031340883530
$GPGGA,220713.00,3450.7315,N,12141.4339,W,1,10,0.8,12.2,M,-33.3,M,,*65
$PYRTM,2024,125.921705042257,17.031352452407
$GPGGA,220714.00,3450.7306,N,12141.4315,W,1,10,0.8,12.0,M,-33.3,M,,*6C
$PYRTM,2024,125.921712442350,17.031359852500
$GPGGA,220715.00,3450.7298,N,12141.4292,W,1,10,0.8,11.8,M,-33.3,M,,*6E
$PYRTM,2024,125.921728191204,17.031375601343
$GPGGA,220716.00,3450.7291,N,12141.4268,W,1,10,0.8,11.9,M,-33.3,M,,*60
$PYRTM,2024,125.921739769699,17.031387179850
$GPGGA,220717.00,3450.7283,N,12141.4245,W,1,10,0.8,12.0,M,-33.3,M,,*67
$PYRTM,2024,125.921751344051,17.031398754190
$GPGGA,220718.00,3450.7275,N,12141.4221,W,1,10,0.8,12.2,M,-33.3,M,,*61
$PYRTM,2024,125.921762917650,17.031410327789
$GPGGA,220719.00,3450.7266,N,12141.4197,W,1,10,0.8,12.3,M,-33.3,M,,*6D
$PYRTM,2024,125.921770313981,17.031417724120
$GPGGA,220720.00,3450.7257,N,12141.4173,W,1,10,0.8,12.3,M,-33.3,M,,*6F
$PYRTM,2024,125.921786069711,17.031433479850
$GPGGA,220721.00,3450.7249,N,12141.4148,W,1,10,0.8,12.3,M,-33.3,M,,*69
$PYRTM,2024,125.921797641470,17.031445051609
$GPGGA,220722.00,3450.7241,N,12141.4123,W,1,10,0.8,12.2,M,-33.3,M,,*6E
$PYRTM,2024,125.921809220451,17.031456630590
$GPGGA,220723.00,3450.7234,N,12141.4099,W,1,10,0.8,12.0,M,-33.3,M,,*6F
$PYRTM,2024,125.921820788600,17.031468198738
$GPGGA,220724.00,3450.7226,N,12141.4076,W,1,10,0.8,11.9,M,-33.3,M,,*60
$PYRTM,2024,125.921832363264,17.031479773403
$GPGGA,220725.00,3450.7216,N,12141.4053,W,1,10,0.8,11.8,M,-33.3,M,,*64
$PYRTM,2024,125.921843936597,17.031491346748
$GPGGA,220726.00,3450.7207,N,12141.4029,W,1,10,0.8,11.8,M,-33.3,M,,*6A
$PYRTM,2024,125.921855511389,17.031502921528
$GPGGA,220727.00,3450.7200,N,12141.4005,W,1,10,0.8,11.9,M,-33.3,M,,*63
$PYRTM,2024,125.921867085937,17.031514496076
$GPGGA,220728.00,3450.7194,N,12141.3981,W,1,10,0.8,12.2,M,-33.3,M,,*68
$PYRTM,2024,125.921878660671,17.031526070810
$GPGGA,220729.00,3450.7186,N,12141.3956,W,1,10,0.8,12.5,M,-33.3,M,,*67
$PYRTM,2024,125.921890233380,17.031537643519
$GPGGA,220730.00,3450.7178,N,12141.3932,W,1,10,0.8,12.5,M,-33.3,M,,*6C
$PYRTM,2024,125.921901807778,17.031549217928
$GPGGA,220731.00,3450.7168,N,12141.3906,W,1,10,0.8,12.3,M,-33.3,M,,*6D
$PYRTM,2024,125.921913381933,17.031560792072
$GPGGA,220732.00,3450.7159,N,12141.3880,W,1,10,0.8,12.2,M,-33.3,M,,*62
$PYRTM,2024,125.921920775995,17.031568186134
$GPGGA,220733.00,3450.7150,N,12141.3855,W,1,10,0.8,12.3,M,-33.3,M,,*63
$PYRTM,2024,125.921939412118,17.031586822257
$GPGGA,220734.00,3450.7142,N,12141.3830,W,1,10,0.8,12.4,M,-33.3,M,,*63
$PYRTM,2024,125.921948118333,17.031595528484
$GPGGA,220735.00,3450.7135,N,12141.3806,W,1,10,0.8,12.2,M,-33.3,M,,*61
$PYRTM,2024,125.921959678414,17.031607088553
$GPGGA,220736.00,3450.7129,N,12141.3783,W,1,10,0.8,11.7,M,-33.3,M,,*6B
$PYRTM,2024,125.921967073507,17.031614483657
$GPGGA,220737.00,3450.7121,N,12141.3761,W,1,10,0.8,11.3,M,-33.3,M,,*6A
$PYRTM,2024,125.921978764167,17.031626174306
$GPGGA,220738.00,3450.7110,N,12141.3740,W,1,10,0.8,11.3,M,-33.3,M,,*64
$PYRTM,2024,125.921994402060,17.031641812199
$GPGGA,220739.00,3450.7100,N,12141.3717,W,1,10,0.8,11.4,M,-33.3,M,,*61
$PYRTM,2024,125.922001811817,17.031649221956
$GPGGA,220740.00,3450.7092,N,12141.3693,W,1,10,0.8,11.4,M,-33.3,M,,*68
$PYRTM,2024,125.922017550347,17.031664960486
$GPGGA,220741.00,3450.7087,N,12141.3667,W,1,10,0.8,11.5,M,-33.3,M,,*67
$PYRTM,2024,125.922029118738,17.031676528877
$GPGGA,220742.00,3450.7081,N,12141.3642,W,1,10,0.8,11.8,M,-33.3,M,,*68
$PYRTM,2024,125.922036518958,17.031683929097
$GPGGA,220743.00,3450.7071,N,12141.3616,W,1,10,0.8,12.2,M,-33.3,M,,*6E
$PYRTM,2024,125.922052273032,17.031699683183
$GPGGA,220744.00,3450.7061,N,12141.3592,W,1,10,0.8,12.5,M,-33.3,M,,*60
$PYRTM,2024,125.922063845775,17.031711255914
$GPGGA,220745.00,3450.7052,N,12141.3567,W,1,10,0.8,12.5,M,-33.3,M,,*6B
$PYRTM,2024,125.922075419421,17.031722829572
$GPGGA,220746.00,3450.7046,N,12141.3542,W,1,10,0.8,12.3,M,-33.3,M,,*6C
$PYRTM,2024,125.922086994803,17.031734404942
$GPGGA,220747.00,3450.7039,N,12141.3518,W,1,10,0.8,11.9,M,-33.3,M,,*63
$PYRTM,2024,125.922098570428,17.031745980567
$GPGGA,220748.00,3450.7031,N,12141.3495,W,1,10,0.8,11.7,M,-33.3,M,,*6E
$PYRTM,2024,125.922110145521,17.031757555660
$GPGGA,220749.00,3450.7022,N,12141.3473,W,1,10,0.8,11.6,M,-33.3,M,,*64
$PYRTM,2024,125.922121717616,17.031769127755
$GPGGA,220750.00,3450.7015,N,12141.3451,W,1,10,0.8,11.5,M,-33.3,M,,*6B
$PYRTM,2024,125.922133305729,17.031780715868
$GPGGA,220751.00,3450.7008,N,12141.3427,W,1,10,0.8,11.3,M,-33.3,M,,*61
$PYRTM,2024,125.922144864711,17.031792274850
$GPGGA,220752.00,3450.7001,N,12141.3404,W,1,10,0.8,11.3,M,-33.3,M,,*6A
$PYRTM,2024,125.922156453819,17.031803863958
$GPGGA,220753.00,3450.6991,N,12141.3381,W,1,10,0.8,11.6,M,-33.3,M,,*65
$PYRTM,2024,125.922168013588,17.031815423727
$GPGGA,220754.00,3450.6981,N,12141.3356,W,1,10,0.8,11.8,M,-33.3,M,,*67
$PYRTM,2024,125.922175408877,17.031822819016
$GPGGA,220755.00,3450.6973,N,12141.3331,W,1,10,0.8,12.0,M,-33.3,M,,*61
$PYRTM,2024,125.922191161516,17.031838571655
$GPGGA,220756.00,3450.6966,N,12141.3305,W,1,10,0.8,12.0,M,-33.3,M,,*61
$PYRTM,2024,125.922202737176,17.031850147326
$GPGGA,220757.00,3450.6958,N,12141.3282,W,1,10,0.8,12.3,M,-33.3,M,,*60
$PYRTM,2024,125.922210132407,17.031857542546
$GPGGA,220758.00,3450.6949,N,12141.3260,W,1,10,0.8,12.5,M,-33.3,M,,*65
$PYRTM,2024,125.922225885058,17.031873295197
$GPGGA,220759.00,3450.6940,N,12141.3237,W,1,10,0.8,12.0,M,-33.3,M,,*6A
$PYRTM,2024,125.922237458067,17.031884868206
$GPGGA,220800.00,3450.6932,N,12141.3212,W,1,10,0.8,11.5,M,-33.3,M,,*6D
$PYRTM,2024,125.922249033495,17.031896443634
$GPGGA,220801.00,3450.6924,N,12141.3189,W,1,10,0.8,11.4,M,-33.3,M,,*6B
$PYRTM,2024,125.922260607326,17.031908017465
$GPGGA,220802.00,3450.6916,N,12141.3166,W,1,10,0.8,11.8,M,-33.3,M,,*64
$PYRTM,2024,125.922272197049,17.031919607188
$GPGGA,220803.00,3450.6909,N,12141.3142,W,1,10,0.8,12.0,M,-33.3,M,,*66
$PYRTM,2024,125.922279575243,17.031926985382
$GPGGA,220804.00,3450.6901,N,12141.3118,W,1,10,0.8,11.8,M,-33.3,M,,*6D
$PYRTM,2024,125.922298236933,17.031945647083
$GPGGA,220805.00,3450.6893,N,12141.3094,W,1,10,0.8,12.4,M,-33.3,M,,*6C
$PYRTM,2024,125.922306904514,17.031954314653
$GPGGA,220806.00,3450.6882,N,12141.3070,W,1,10,0.8,12.5,M,-33.3,M,,*64
$PYRTM,2024,125.922318475995,17.031965886134
$GPGGA,220807.00,3450.6872,N,12141.3046,W,1,10,0.8,12.6,M,-33.3,M,,*6C
$PYRTM,2024,125.922325883831,17.031973293970
$GPGGA,220808.00,3450.6865,N,12141.3022,W,1,10,0.8,12.1,M,-33.3,M,,*60
$PYRTM,2024,125.922341625336,17.031989035475
$GPGGA,220809.00,3450.6859,N,12141.2999,W,1,10,0.8,12.2,M,-33.3,M,,*65
$PYRTM,2024,125.922349032014,17.031996442153
$GPGGA,220810.00,3450.6852,N,12141.2975,W,1,10,0.8,12.0,M,-33.3,M,,*66
$PYRTM,2024,125.922364773299,17.032012183438
$GPGGA,220811.00,3450.6842,N,12141.2952,W,1,10,0.8,12.0,M,-33.3,M,,*63
$PYRTM,2024,125.922376349687,17.032023759826
$GPGGA,220812.00,3450.6832,N,12141.2930,W,1,10,0.8,12.0,M,-33.3,M,,*63
$PYRTM,2024,125.922387922859,17.032035332998
$GPGGA,220813.00,3450.6824,N,12141.2906,W,1,10,0.8,12.0,M,-33.3,M,,*60
$PYRTM,2024,125.922399490625,17.032046900764
$GPGGA,220814.00,3450.6817,N,12141.2882,W,1,10,0.8,12.4,M,-33.3,M,,*6E
$PYRTM,2024,125.922411072708,17.032058482847
$GPGGA,220815.00,3450.6809,N,12141.2858,W,1,10,0.8,12.0,M,-33.3,M,,*63
$PYRTM,2024,125.922422643414,17.032070053553
$GPGGA,220816.00,3450.6799,N,12141.2837,W,1,10,0.8,11.9,M,-33.3,M,,*65
$PYRTM,2024,125.922434218553,17.032081628692
$GPGGA,220817.00,3450.6792,N,12141.2815,W,1,10,0.8,11.6,M,-33.3,M,,*60
$PYRTM,2024,125.922445795660,17.032093205799
$GPGGA,220818.00,3450.6785,N,12141.2794,W,1,10,0.8,11.5,M,-33.3,M,,*6C
$PYRTM,2024,125.922457442072,17.032104852211
$GPGGA,220819.00,3450.6775,N,12141.2772,W,1,10,0.8,11.5,M,-33.3,M,,*6A
$PYRTM,2024,125.922468942396,17.032116352546
$GPGGA,220820.00,3450.6767,N,12141.2749,W,1,10,0.8,11.5,M,-33.3,M,,*6B
$PYRTM,2024,125.922480519595,17.032127929734
$GPGGA,220821.00,3450.6761,N,12141.2726,W,1,10,0.8,11.4,M,-33.3,M,,*64
$PYRTM,2024,125.922492088380,17.032139498519
$GPGGA,220822.00,3450.6756,N,12141.2701,W,1,10,0.8,11.9,M,-33.3,M,,*6B
$PYRTM,2024,125.922503664097,17.032151074248
$GPGGA,220823.00,3450.6748,N,12141.2677,W,1,10,0.8,12.2,M,-33.3,M,,*6D
$PYRTM,2024,125.922515238194,17.032162648333
$GPGGA,220824.00,3450.6735,N,12141.2654,W,1,10,0.8,12.4,M,-33.3,M,,*67
$PYRTM,2024,125.922526806794,17.032174216933
$GPGGA,220825.00,3450.6723,N,12141.2631,W,1,10,0.8,12.6,M,-33.3,M,,*60
$PYRTM,2024,125.922538380729,17.032185790880
$GPGGA,220826.00,3450.6716,N,12141.2608,W,1,10,0.8,12.3,M,-33.3,M,,*6A
$PYRTM,2024,125.922549959398,17.032197369537
$GPGGA,220827.00,3450.6710,N,12141.2585,W,1,10,0.8,11.9,M,-33.3,M,,*62
$PYRTM,2024,125.922561534155,17.032208944294
$GPGGA,220828.00,3450.6705,N,12141.2563,W,1,10,0.8,11.1,M,-33.3,M,,*69
$PYRTM,2024,125.922573107558,17.032220517697
$GPGGA,220829.00,3450.6695,N,12141.2543,W,1,10,0.8,11.3,M,-33.3,M,,*60
$PYRTM,2024,125.922584681887,17.032232092025
$GPGGA,220830.00,3450.6687,N,12141.2524,W,1,10,0.8,11.3,M,-33.3,M,,*6A
$PYRTM,2024,125.922596258009,17.032243668148
$GPGGA,220831.00,3450.6680,N,12141.2503,W,1,10,0.8,11.3,M,-33.3,M,,*69
$PYRTM,2024,125.922607830243,17.032255240382
$GPGGA,220832.00,3450.6673,N,12141.2479,W,1,10,0.8,11.8,M,-33.3,M,,*61
$PYRTM,2024,125.922619408484,17.032266818623
$GPGGA,220833.00,3450.6664,N,12141.2456,W,1,10,0.8,12.1,M,-33.3,M,,*61
$PYRTM,2024,125.922630979271,17.032278389410
$GPGGA,220834.00,3450.6655,N,12141.2432,W,1,10,0.8,12.4,M,-33.3,M,,*63
$PYRTM,2024,125.922638372894,17.032285783032
$GPGGA,220835.00,3450.6647,N,12141.2407,W,1,10,0.8,12.5,M,-33.3,M,,*66
$PYRTM,2024,125.922657009282,17.032304419421
$GPGGA,220836.00,3450.6640,N,12141.2382,W,1,10,0.8,12.6,M,-33.3,M,,*6B
$PYRTM,2024,125.922668608576,17.032316018715
