$PYRTM,2024,127.250006703762,18.359654113900
$GPGGA,055959.00,3359.6447,N,11931.1930,W,1,10,1.0,10.5,M,-33.6,M,,*69
$PYRTM,2024,127.250018269780,18.359665679919
$GPGGA,060000.00,3359.6438,N,11931.1924,W,1,10,1.0,10.5,M,-33.6,M,,*67
$PYRTM,2024,127.250027078137,18.359674488275
$GPGGA,060001.00,3359.6430,N,11931.1915,W,1,10,1.0,10.5,M,-33.6,M,,*6C
$PYRTM,2024,127.250034370498,18.359681780637
$GPGGA,060002.00,3359.6421,N,11931.1906,W,1,10,1.0,10.5,M,-33.6,M,,*6D
$PYRTM,2024,127.250050226620,18.359697636771
$GPGGA,060003.00,3359.6412,N,11931.1898,W,1,10,1.0,10.5,M,-33.6,M,,*6A
$PYRTM,2024,127.250061788021,18.359709198171
$GPGGA,060004.00,3359.6402,N,11931.1894,W,1,10,1.0,10.5,M,-33.6,M,,*60
$PYRTM,2024,127.250069079653,18.359716489792
$GPGGA,060005.00,3359.6392,N,11931.1889,W,1,10,0.8,10.4,M,-33.6,M,,*6B
$PYRTM,2024,127.250084938137,18.359732348287
$GPGGA,060006.00,3359.6383,N,11931.1882,W,1,10,0.8,10.6,M,-33.6,M,,*61
$PYRTM,2024,127.250096523345,18.359743933484
$GPGGA,060007.00,3359.6376,N,11931.1871,W,1,10,0.8,10.8,M,-33.6,M,,*68
$PYRTM,2024,127.250108085405,18.359755495544
$GPGGA,060008.00,3359.6368,N,11931.1862,W,1,10,0.8,11.1,M,-33.6,M,,*62
$PYRTM,2024,127.250119675625,18.359767085775
$GPGGA,060009.00,3359.6358,N,11931.1856,W,1,10,0.8,11.4,M,-33.6,M,,*62
$PYRTM,2024,127.250131233947,18.359778644097
$GPGGA,060010.00,3359.6348,N,11931.1853,W,1,10,0.8,10.8,M,-33.6,M,,*63
$PYRTM,2024,127.250138525752,18.359785935903
$GPGGA,060011.00,3359.6340,N,11931.1845,W,1,10,0.8,10.7,M,-33.6,M,,*62
$PYRTM,2024,127.250154380822,18.359801790961
$GPGGA,060012.00,3359.6333,N,11931.1835,W,1,10,0.8,10.6,M,-33.6,M,,*63
$PYRTM,2024,127.250165962454,18.359813372604
$GPGGA,060013.00,3359.6325,N,11931.1826,W,1,10,0.8,10.7,M,-33.6,M,,*66
$PYRTM,2024,127.250177528819,18.359824938958
$GPGGA,060014.00,3359.6316,N,11931.1820,W,1,10,0.8,10.4,M,-33.6,M,,*64
$PYRTM,2024,127.250184822604,18.359832232743
$GPGGA,060015.00,3359.6306,N,11931.1816,W,1,10,0.8,10.3,M,-33.6,M,,*66
$PYRTM,2024,127.250203455324,18.359850865475
$GPGGA,060016.00,3359.6298,N,11931.1809,W,1,10,0.8,10.3,M,-33.6,M,,*6D
$PYRTM,2024,127.250212266019,18.359859676157
$GPGGA,060017.00,3359.6290,N,11931.1799,W,1,10,0.8,10.5,M,-33.6,M,,*64
$PYRTM,2024,127.250223827801,18.359871237951
$GPGGA,060018.00,3359.6282,N,11931.1791,W,1,10,0.8,10.4,M,-33.6,M,,*61
$PYRTM,2024,127.250235413090,18.359882823241
$GPGGA,060019.00,3359.6272,N,11931.1785,W,1,10,0.8,10.2,M,-33.6,M,,*6C
$PYRTM,2024,127.250246975266,18.359894385405
$GPGGA,060020.00,3359.6263,N,11931.1779,W,1,10,0.8,10.3,M,-33.6,M,,*64
$PYRTM,2024,127.250258562292,18.359905972442
$GPGGA,060021.00,3359.6254,N,11931.1772,W,1,10,0.8,10.6,M,-33.6,M,,*6F
$PYRTM,2024,127.250270122407,18.359917532546
$GPGGA,060022.00,3359.6245,N,11931.1763,W,1,10,0.8,10.6,M,-33.6,M,,*6C
$PYRTM,2024,127.250281710648,18.359929120787
$GPGGA,060023.00,3359.6236,N,11931.1756,W,1,10,0.8,10.7,M,-33.6,M,,*6E
$PYRTM,2024,127.250293271910,18.359940682049
$GPGGA,060024.00,3359.6228,N,11931.1750,W,1,10,0.8,10.8,M,-33.6,M,,*6F
$PYRTM,2024,127.250304861655,18.359952271794
$GPGGA,060025.00,3359.6218,N,11931.1743,W,1,10,0.8,10.8,M,-33.6,M,,*6F
$PYRTM,2024,127.250316418981,18.359963829120
$GPGGA,060026.00,3359.6209,N,11931.1734,W,1,10,0.8,10.9,M,-33.6,M,,*6D
$PYRTM,2024,127.250328009005,18.359975419144
$GPGGA,060027.00,3359.6201,N,11931.1725,W,1,10,0.8,11.0,M,-33.6,M,,*6C
$PYRTM,2024,127.250339568333,18.359986978484
$GPGGA,060028.00,3359.6192,N,11931.1718,W,1,10,0.8,11.2,M,-33.6,M,,*66
$PYRTM,2024,127.250351154699,18.359998564838
$GPGGA,060029.00,3359.6183,N,11931.1713,W,1,10,0.8,11.2,M,-33.6,M,,*6C
$PYRTM,2024,127.250362717836,18.360010127975
$GPGGA,060030.00,3359.6173,N,11931.1707,W,1,10,0.8,11.1,M,-33.6,M,,*6D
$PYRTM,2024,127.250370008484,18.360017418623
$GPGGA,060031.00,3359.6166,N,11931.1698,W,1,10,0.8,11.1,M,-33.6,M,,*6F
$PYRTM,2024,127.250385866875,18.360033277014
$GPGGA,060032.00,3359.6158,N,11931.1688,W,1,10,0.8,11.2,M,-33.6,M,,*63
$PYRTM,2024,127.250393156667,18.360040566806
$GPGGA,060033.00,3359.6149,N,11931.1681,W,1,10,0.8,11.1,M,-33.6,M,,*68
$PYRTM,2024,127.250409012870,18.360056423009
$GPGGA,060034.00,3359.6140,N,11931.1676,W,1,10,0.8,10.9,M,-33.6,M,,*67
$PYRTM,2024,127.250420598669,18.360068008808
$GPGGA,060035.00,3359.6131,N,11931.1670,W,1,09,1.0,11.4,M,-33.6,M,,*6B
$PYRTM,2024,127.250432161088,18.360079571238
$GPGGA,060036.00,3359.6122,N,11931.1662,W,1,10,0.8,11.7,M,-33.6,M,,*6B
$PYRTM,2024,127.250443750995,18.360091161134
$GPGGA,060037.00,3359.6113,N,11931.1655,W,1,10,0.8,10.7,M,-33.6,M,,*6D
$PYRTM,2024,127.250455311493,18.360102721644
$GPGGA,060038.00,3359.6104,N,11931.1648,W,1,10,0.8,10.4,M,-33.6,M,,*6B
$PYRTM,2024,127.250466897072,18.360114307211
$GPGGA,060039.00,3359.6095,N,11931.1640,W,1,10,0.8,10.6,M,-33.6,M,,*69
$PYRTM,2024,127.250478458414,18.360125868553
$GPGGA,060040.00,3359.6086,N,11931.1635,W,1,10,0.8,10.9,M,-33.6,M,,*68
$PYRTM,2024,127.250490047419,18.360137457558
$GPGGA,060041.00,3359.6076,N,11931.1630,W,1,10,0.8,11.1,M,-33.6,M,,*6A
$PYRTM,2024,127.250501605035,18.360149015174
$GPGGA,060042.00,3359.6067,N,11931.1625,W,1,10,0.8,11.2,M,-33.6,M,,*6E
$PYRTM,2024,127.250513196146,18.360160606285
$GPGGA,060043.00,3359.6058,N,11931.1617,W,1,10,0.8,11.3,M,-33.6,M,,*63
$PYRTM,2024,127.250520473588,18.360167883738
$GPGGA,060044.00,3359.6050,N,11931.1608,W,1,10,0.8,11.3,M,-33.6,M,,*62
$PYRTM,2024,127.250532277326,18.360179687477
$GPGGA,060045.00,3359.6042,N,11931.1602,W,1,10,0.8,11.4,M,-33.6,M,,*6D
$PYRTM,2024,127.250543850185,18.360191260336
$GPGGA,060046.00,3359.6033,N,11931.1597,W,1,10,0.8,11.7,M,-33.6,M,,*64
$PYRTM,2024,127.250562261748,18.360209671887
$GPGGA,060047.00,3359.6024,N,11931.1593,W,1,10,0.8,11.6,M,-33.6,M,,*66
$PYRTM,2024,127.250571051123,18.360218461273
$GPGGA,060048.00,3359.6015,N,11931.1588,W,1,10,0.8,11.4,M,-33.6,M,,*63
$PYRTM,2024,127.250582638275,18.360230048414
$GPGGA,060049.00,3359.6007,N,11931.1581,W,1,10,0.8,11.3,M,-33.6,M,,*6F
$PYRTM,2024,127.250594198877,18.360241609016
$GPGGA,060050.00,3359.5999,N,11931.1575,W,1,10,0.8,11.4,M,-33.6,M,,*66
$PYRTM,2024,127.250605787650,18.360253197789
$GPGGA,060051.00,3359.5991,N,11931.1570,W,1,10,0.8,11.5,M,-33.6,M,,*6B
$PYRTM,2024,127.250617347593,18.360264757731
$GPGGA,060052.00,3359.5981,N,11931.1566,W,1,10,0.8,11.3,M,-33.6,M,,*68
$PYRTM,2024,127.250628934340,18.360276344479
$GPGGA,060053.00,3359.5971,N,11931.1562,W,1,10,0.8,11.0,M,-33.6,M,,*61
$PYRTM,2024,127.250640496678,18.360287906817
$GPGGA,060054.00,3359.5962,N,11931.1556,W,1,10,0.8,10.7,M,-33.6,M,,*65
$PYRTM,2024,127.250652082569,18.360299492708
$GPGGA,060055.00,3359.5953,N,11931.1549,W,1,10,0.8,10.7,M,-33.6,M,,*68
$PYRTM,2024,127.250663645035,18.360311055174
$GPGGA,060056.00,3359.5943,N,11931.1543,W,1,10,0.8,10.8,M,-33.6,M,,*6F
$PYRTM,2024,127.250670935289,18.360318345428
$GPGGA,060057.00,3359.5933,N,11931.1540,W,1,10,0.8,10.6,M,-33.6,M,,*64
$PYRTM,2024,127.250686791771,18.360334201910
$GPGGA,060058.00,3359.5922,N,11931.1537,W,1,10,0.8,10.3,M,-33.6,M,,*6E
$PYRTM,2024,127.250698378681,18.360345788819
$GPGGA,060059.00,3359.5913,N,11931.1531,W,1,10,0.8,10.5,M,-33.6,M,,*6D
$PYRTM,2024,127.250709940799,18.360357350937
$GPGGA,060100.00,3359.5903,N,11931.1525,W,1,10,0.8,10.4,M,-33.6,M,,*65
$PYRTM,2024,127.250721527477,18.360368937616
$GPGGA,060101.00,3359.5893,N,11931.1520,W,1,10,0.8,10.5,M,-33.6,M,,*68
$PYRTM,2024,127.250728806991,18.360376217130
$GPGGA,060102.00,3359.5883,N,11931.1517,W,1,10,0.8,10.6,M,-33.6,M,,*6D
$PYRTM,2024,127.250740625949,18.360388036100
$GPGGA,060103.00,3359.5873,N,11931.1516,W,1,09,1.0,10.9,M,-33.6,M,,*6C
$PYRTM,2024,127.250759015856,18.360406425995
$GPGGA,060104.00,3359.5864,N,11931.1512,W,1,10,0.8,10.7,M,-33.6,M,,*66
$PYRTM,2024,127.250767838704,18.360415248843
$GPGGA,060105.00,3359.5856,N,11931.1507,W,1,10,0.8,10.9,M,-33.6,M,,*6C
$PYRTM,2024,127.250779386597,18.360426796748
$GPGGA,060106.00,3359.5848,N,11931.1504,W,1,10,0.8,10.8,M,-33.6,M,,*62
$PYRTM,2024,127.250790971921,18.360438382072
$GPGGA,060107.00,3359.5840,N,11931.1502,W,1,09,1.0,10.5,M,-33.6,M,,*61
$PYRTM,2024,127.250798266412,18.360445676551
$GPGGA,060108.00,3359.5830,N,11931.1499,W,1,10,0.8,10.9,M,-33.6,M,,*67
$PYRTM,2024,127.250814121794,18.360461531933
$GPGGA,060109.00,3359.5821,N,11931.1496,W,1,10,1.0,11.0,M,-33.6,M,,*68
$PYRTM,2024,127.250825682025,18.360473092164
$GPGGA,060110.00,3359.5812,N,11931.1494,W,1,10,1.0,10.6,M,-33.6,M,,*65
$PYRTM,2024,127.250837270382,18.360484680532
$GPGGA,060111.00,3359.5803,N,11931.1493,W,1,10,1.0,10.3,M,-33.6,M,,*66
$PYRTM,2024,127.250848830637,18.360496240775
$GPGGA,060112.00,3359.5794,N,11931.1490,W,1,10,1.0,10.5,M,-33.6,M,,*61
$PYRTM,2024,127.250860418773,18.360507828912
$GPGGA,060113.00,3359.5784,N,11931.1486,W,1,10,1.0,10.8,M,-33.6,M,,*6B
$PYRTM,2024,127.250871978866,18.360519389005
$GPGGA,060114.00,3359.5773,N,11931.1485,W,1,10,1.0,10.7,M,-33.6,M,,*68
$PYRTM,2024,127.250883565498,18.360530975637
$GPGGA,060115.00,3359.5763,N,11931.1484,W,1,10,1.0,10.7,M,-33.6,M,,*69
$PYRTM,2024,127.250895127674,18.360542537812
$GPGGA,060116.00,3359.5752,N,11931.1481,W,1,10,1.0,10.9,M,-33.6,M,,*63
$PYRTM,2024,127.250902419907,18.360549830046
$GPGGA,060117.00,3359.5742,N,11931.1478,W,1,10,1.0,11.3,M,-33.6,M,,*6E
$PYRTM,2024,127.250921052350,18.360568462488
$GPGGA,060118.00,3359.5733,N,11931.1476,W,1,10,1.0,11.6,M,-33.6,M,,*6C
$PYRTM,2024,127.250929865752,18.360577275891
$GPGGA,060119.00,3359.5722,N,11931.1475,W,1,10,1.0,11.6,M,-33.6,M,,*6E
$PYRTM,2024,127.250937141319,18.360584551458
$GPGGA,060120.00,3359.5712,N,11931.1475,W,1,10,1.0,11.4,M,-33.6,M,,*65
$PYRTM,2024,127.250953014919,18.360600425058
$GPGGA,060121.00,3359.5703,N,11931.1474,W,1,10,1.0,11.3,M,-33.6,M,,*62
$PYRTM,2024,127.250964573704,18.360611983843
$GPGGA,060122.00,3359.5694,N,11931.1471,W,1,10,1.0,11.5,M,-33.6,M,,*6D
$PYRTM,2024,127.250971862801,18.360619272940
$GPGGA,060123.00,3359.5686,N,11931.1468,W,1,10,1.0,11.7,M,-33.6,M,,*65
$PYRTM,2024,127.250987721366,18.360635131505
$GPGGA,060124.00,3359.5676,N,11931.1466,W,1,10,1.0,11.6,M,-33.6,M,,*62
$PYRTM,2024,127.250999307072,18.360646717211
$GPGGA,060125.00,3359.5667,N,11931.1469,W,1,10,1.0,11.2,M,-33.6,M,,*68
$PYRTM,2024,127.251010869861,18.360658280000
$GPGGA,060126.00,3359.5658,N,11931.1470,W,1,10,1.0,10.8,M,-33.6,M,,*64
$PYRTM,2024,127.251022455775,18.360669865914
$GPGGA,060127.00,3359.5650,N,11931.1467,W,1,10,1.0,11.0,M,-33.6,M,,*62
$PYRTM,2024,127.251034016586,18.360681426725
$GPGGA,060128.00,3359.5641,N,11931.1462,W,1,10,1.0,11.1,M,-33.6,M,,*69
$PYRTM,2024,127.251045599792,18.360693009931
$GPGGA,060129.00,3359.5632,N,11931.1460,W,1,10,1.0,11.0,M,-33.6,M,,*6F
$PYRTM,2024,127.251052883970,18.360700294109
$GPGGA,060130.00,3359.5622,N,11931.1463,W,1,10,1.0,10.8,M,-33.6,M,,*6C
$PYRTM,2024,127.251068753299,18.360716163437
$GPGGA,060131.00,3359.5612,N,11931.1466,W,1,10,1.0,10.3,M,-33.6,M,,*60
$PYRTM,2024,127.251080312766,18.360727722905
$GPGGA,060132.00,3359.5603,N,11931.1466,W,1,10,1.0,10.3,M,-33.6,M,,*63
$PYRTM,2024,127.251087605660,18.360735015799
$GPGGA,060133.00,3359.5593,N,11931.1461,W,1,10,1.0,10.6,M,-33.6,M,,*6A
$PYRTM,2024,127.251103462303,18.360750872454
$GPGGA,060134.00,3359.5583,N,11931.1456,W,1,10,1.0,10.9,M,-33.6,M,,*67
$PYRTM,2024,127.251110753449,18.360758163588
$GPGGA,060135.00,3359.5572,N,11931.1456,W,1,10,1.0,10.8,M,-33.6,M,,*69
$PYRTM,2024,127.251126609769,18.360774019907
$GPGGA,060136.00,3359.5561,N,11931.1460,W,1,10,1.0,10.6,M,-33.6,M,,*63
$PYRTM,2024,127.251138200243,18.360785610394
$GPGGA,060137.00,3359.5553,N,11931.1460,W,1,10,1.0,10.9,M,-33.6,M,,*6C
$PYRTM,2024,127.251149759468,18.360797169618
$GPGGA,060138.00,3359.5545,N,11931.1457,W,1,10,1.0,11.2,M,-33.6,M,,*6A
$PYRTM,2024,127.251161349757,18.360808759896
$GPGGA,060139.00,3359.5535,N,11931.1453,W,1,10,1.0,11.5,M,-33.6,M,,*6F
$PYRTM,2024,127.251172907269,18.360820317407
$GPGGA,060140.00,3359.5525,N,11931.1452,W,1,10,1.0,11.4,M,-33.6,M,,*60
$PYRTM,2024,127.251184494363,18.360831904502
$GPGGA,060141.00,3359.5515,N,11931.1452,W,1,10,1.0,11.1,M,-33.6,M,,*67
$PYRTM,2024,127.251196055648,18.360843465787
$GPGGA,060142.00,3359.5506,N,11931.1454,W,1,10,1.0,11.3,M,-33.6,M,,*62
$PYRTM,2024,127.251207644074,18.360855054213
$GPGGA,060143.00,3359.5498,N,11931.1454,W,1,10,1.0,11.3,M,-33.6,M,,*65
$PYRTM,2024,127.251219202812,18.360866612951
$GPGGA,060144.00,3359.5488,N,11931.1452,W,1,10,1.0,11.1,M,-33.6,M,,*67
$PYRTM,2024,127.251226495243,18.360873905394
$GPGGA,060145.00,3359.5478,N,11931.1449,W,1,10,1.0,10.9,M,-33.6,M,,*6A
$PYRTM,2024,127.251242354769,18.360889764907
$GPGGA,060146.00,3359.5469,N,11931.1449,W,1,10,1.0,10.9,M,-33.6,M,,*69
$PYRTM,2024,127.251253933148,18.360901343287
$GPGGA,060147.00,3359.5460,N,11931.1451,W,1,10,1.0,10.9,M,-33.6,M,,*68
$PYRTM,2024,127.251261218403,18.360908628542
$GPGGA,060148.00,3359.5451,N,11931.1452,W,1,10,1.0,10.8,M,-33.6,M,,*67
$PYRTM,2024,127.251279864062,18.360927274201
$GPGGA,060149.00,3359.5441,N,11931.1450,W,1,10,1.0,10.8,M,-33.6,M,,*65
$PYRTM,2024,127.251288647187,18.360936057326
$GPGGA,060150.00,3359.5431,N,11931.1447,W,1,10,1.0,10.7,M,-33.6,M,,*63
$PYRTM,2024,127.251300239144,18.360947649282
$GPGGA,060151.00,3359.5421,N,11931.1446,W,1,10,1.0,10.7,M,-33.6,M,,*62
$PYRTM,2024,127.251311795880,18.360959206019
$GPGGA,060152.00,3359.5412,N,11931.1445,W,1,10,1.0,10.9,M,-33.6,M,,*6C
$PYRTM,2024,127.251323397894,18.360970808032
$GPGGA,060153.00,3359.5402,N,11931.1444,W,1,10,1.0,11.2,M,-33.6,M,,*67
$PYRTM,2024,127.251334945451,18.360982355602
$GPGGA,060154.00,3359.5392,N,11931.1444,W,1,10,1.0,11.2,M,-33.6,M,,*6E
$PYRTM,2024,127.251346526644,18.360993936782
$GPGGA,060155.00,3359.5383,N,11931.1444,W,1,10,1.0,11.1,M,-33.6,M,,*6C
$PYRTM,2024,127.251358092917,18.361005503056
$GPGGA,060156.00,3359.5373,N,11931.1442,W,1,10,1.0,11.3,M,-33.6,M,,*64
$PYRTM,2024,127.251369681493,18.361017091632
$GPGGA,060157.00,3359.5364,N,11931.1439,W,1,10,1.0,11.6,M,-33.6,M,,*6A
$PYRTM,2024,127.251381243542,18.361028653681
$GPGGA,060158.00,3359.5355,N,11931.1437,W,1,10,1.0,11.9,M,-33.6,M,,*66
$PYRTM,2024,127.251392825868,18.361040236007
$GPGGA,060159.00,3359.5346,N,11931.1438,W,1,10,1.0,11.8,M,-33.6,M,,*6B
$PYRTM,2024,127.251400109583,18.361047519734
$GPGGA,060200.00,3359.5337,N,11931.1440,W,1,10,1.0,11.6,M,-33.6,M,,*63
$PYRTM,2024,127.251415971644,18.361063381782
$GPGGA,060201.00,3359.5328,N,11931.1439,W,1,10,1.0,11.4,M,-33.6,M,,*60
$PYRTM,2024,127.251427537431,18.361074947569
$GPGGA,060202.00,3359.5319,N,11931.1435,W,1,10,1.0,11.3,M,-33.6,M,,*6A
$PYRTM,2024,127.251439125903,18.361086536042
$GPGGA,060203.00,3359.5309,N,11931.1431,W,1,10,1.0,11.0,M,-33.6,M,,*6D
$PYRTM,2024,127.251450687569,18.361098097708
$GPGGA,060204.00,3359.5300,N,11931.1432,W,1,10,1.0,10.7,M,-33.6,M,,*66
$PYRTM,2024,127.251462275949,18.361109686100
$GPGGA,060205.00,3359.5290,N,11931.1435,W,1,10,1.0,10.6,M,-33.6,M,,*69
$PYRTM,2024,127.251473834329,18.361121244468
$GPGGA,060206.00,3359.5280,N,11931.1434,W,1,10,1.0,10.6,M,-33.6,M,,*6A
$PYRTM,2024,127.251481126400,18.361128536539
$GPGGA,060207.00,3359.5270,N,11931.1429,W,1,10,1.0,10.5,M,-33.6,M,,*6B
$PYRTM,2024,127.251496983206,18.361144393345
$GPGGA,060208.00,3359.5260,N,11931.1425,W,1,10,1.0,10.6,M,-33.6,M,,*6A
$PYRTM,2024,127.251508570625,18.361155980775
$GPGGA,060209.00,3359.5249,N,11931.1424,W,1,10,1.0,10.6,M,-33.6,M,,*61
$PYRTM,2024,127.251515863391,18.361163273530
$GPGGA,060210.00,3359.5238,N,11931.1426,W,1,10,1.0,10.5,M,-33.6,M,,*6E
$PYRTM,2024,127.251531717812,18.361179127963
$GPGGA,060211.00,3359.5228,N,11931.1426,W,1,10,1.0,10.3,M,-33.6,M,,*68
$PYRTM,2024,127.251543280451,18.361190690590
$GPGGA,060212.00,3359.5218,N,11931.1423,W,1,10,1.0,10.5,M,-33.6,M,,*6B
$PYRTM,2024,127.251550570961,18.361197981100
$GPGGA,060213.00,3359.5209,N,11931.1417,W,1,10,1.0,10.8,M,-33.6,M,,*60
$PYRTM,2024,127.251566427894,18.361213838032
$GPGGA,060214.00,3359.5200,N,11931.1414,W,1,10,1.0,11.1,M,-33.6,M,,*65
$PYRTM,2024,127.251578011343,18.361225421481
$GPGGA,060215.00,3359.5190,N,11931.1414,W,1,10,1.0,11.1,M,-33.6,M,,*6E
$PYRTM,2024,127.251589575590,18.361236985729
$GPGGA,060216.00,3359.5181,N,11931.1416,W,1,10,1.0,11.0,M,-33.6,M,,*6E
$PYRTM,2024,127.251601158970,18.361248569109
$GPGGA,060217.00,3359.5172,N,11931.1415,W,1,10,1.0,11.0,M,-33.6,M,,*60
$PYRTM,2024,127.251612725000,18.361260135150
$GPGGA,060218.00,3359.5163,N,11931.1410,W,1,10,1.0,11.0,M,-33.6,M,,*6A
$PYRTM,2024,127.251620015567,18.361267425706
$GPGGA,060219.00,3359.5153,N,11931.1405,W,1,10,1.0,10.8,M,-33.6,M,,*65
$PYRTM,2024,127.251638652465,18.361286062604
$GPGGA,060220.00,3359.5144,N,11931.1405,W,1,10,1.0,10.7,M,-33.6,M,,*66
$PYRTM,2024,127.251647462801,18.361294872940
$GPGGA,060221.00,3359.5134,N,11931.1406,W,1,10,1.0,10.7,M,-33.6,M,,*63
$PYRTM,2024,127.251659022535,18.361306432674
$GPGGA,060222.00,3359.5124,N,11931.1404,W,1,10,1.0,10.5,M,-33.6,M,,*61
$PYRTM,2024,127.251666312639,18.361313722778
$GPGGA,060223.00,3359.5114,N,11931.1399,W,1,10,1.0,10.3,M,-33.6,M,,*66
$PYRTM,2024,127.251682169838,18.361329579977
$GPGGA,060224.00,3359.5104,N,11931.1395,W,1,10,1.0,10.3,M,-33.6,M,,*6C
$PYRTM,2024,127.251689461736,18.361336871875
$GPGGA,060225.00,3359.5093,N,11931.1394,W,1,10,1.0,10.2,M,-33.6,M,,*62
$PYRTM,2024,127.251705317778,18.361352727928
$GPGGA,060226.00,3359.5083,N,11931.1392,W,1,10,1.0,10.4,M,-33.6,M,,*60
$PYRTM,2024,127.251716902535,18.361364312674
$GPGGA,060227.00,3359.5073,N,11931.1390,W,1,10,1.0,10.5,M,-33.6,M,,*6D
$PYRTM,2024,127.251728349803,18.361375759942
$GPGGA,060228.00,3359.5063,N,11931.1387,W,1,10,1.0,10.7,M,-33.6,M,,*67
$PYRTM,2024,127.251740053194,18.361387463333
$GPGGA,060229.00,3359.5053,N,11931.1384,W,1,10,1.0,10.7,M,-33.6,M,,*66
$PYRTM,2024,127.251751614595,18.361399024734
$GPGGA,060230.00,3359.5043,N,11931.1381,W,1,10,1.0,10.8,M,-33.6,M,,*65
$PYRTM,2024,127.251763203356,18.361410613495
$GPGGA,060231.00,3359.5035,N,11931.1378,W,1,10,1.0,11.0,M,-33.6,M,,*6A
$PYRTM,2024,127.251774763553,18.361422173692
$GPGGA,060232.00,3359.5025,N,11931.1375,W,1,10,1.0,11.2,M,-33.6,M,,*67
$PYRTM,2024,127.251786349954,18.361433760093
$GPGGA,060233.00,3359.5015,N,11931.1374,W,1,10,1.0,11.0,M,-33.6,M,,*66
$PYRTM,2024,127.251797795162,18.361445205301
$GPGGA,060234.00,3359.5006,N,11931.1373,W,1,10,1.0,10.7,M,-33.6,M,,*62
$PYRTM,2024,127.251809382014,18.361456792164
$GPGGA,060235.00,3359.4998,N,11931.1369,W,1,10,1.0,11.0,M,-33.6,M,,*61
$PYRTM,2024,127.251821058819,18.361468468958
$GPGGA,060236.00,3359.4990,N,11931.1364,W,1,10,1.0,11.3,M,-33.6,M,,*64
$PYRTM,2024,127.251832650243,18.361480060382
$GPGGA,060237.00,3359.4979,N,11931.1360,W,1,10,1.0,11.3,M,-33.6,M,,*66
$PYRTM,2024,127.251844208715,18.361491618854
$GPGGA,060238.00,3359.4969,N,11931.1358,W,1,10,1.0,11.0,M,-33.6,M,,*60
$PYRTM,2024,127.251851498727,18.361498908866
$GPGGA,060239.00,3359.4961,N,11931.1356,W,1,10,1.0,11.1,M,-33.6,M,,*66
$PYRTM,2024,127.251867356343,18.361514766481
$GPGGA,060240.00,3359.4952,N,11931.1353,W,1,10,1.0,10.4,M,-33.6,M,,*69
$PYRTM,2024,127.251878943935,18.361526354074
$GPGGA,060241.00,3359.4942,N,11931.1349,W,1,10,1.0,10.2,M,-33.6,M,,*64
$PYRTM,2024,127.251890504421,18.361537914560
$GPGGA,060242.00,3359.4931,N,11931.1346,W,1,10,1.0,10.0,M,-33.6,M,,*6E
$PYRTM,2024,127.251901977141,18.361549387280
$GPGGA,060243.00,3359.4921,N,11931.1343,W,1,10,1.0,9.9,M,-33.6,M,,*5A
$PYRTM,2024,127.251913652755,18.361561062905
$GPGGA,060244.00,3359.4913,N,11931.1339,W,1,10,1.0,10.2,M,-33.6,M,,*62
$PYRTM,2024,127.251925239861,18.361572650000
$GPGGA,060245.00,3359.4902,N,11931.1333,W,1,10,1.0,10.5,M,-33.6,M,,*6E
$PYRTM,2024,127.251936800440,18.361584210579
$GPGGA,060246.00,3359.4891,N,11931.1329,W,1,10,1.0,10.3,M,-33.6,M,,*6B
$PYRTM,2024,127.251944092454,18.361591502593
$GPGGA,060247.00,3359.4881,N,11931.1326,W,1,10,1.0,10.1,M,-33.6,M,,*66
$PYRTM,2024,127.251959949433,18.361607359572
$GPGGA,060248.00,3359.4873,N,11931.1324,W,1,10,1.0,10.0,M,-33.6,M,,*67
$PYRTM,2024,127.251971535417,18.361618945567
$GPGGA,060249.00,3359.4865,N,11931.1319,W,1,10,1.0,10.8,M,-33.6,M,,*67
$PYRTM,2024,127.251978815313,18.361626225451
$GPGGA,060250.00,3359.4855,N,11931.1313,W,1,10,1.0,10.9,M,-33.6,M,,*67
$PYRTM,2024,127.251997461516,18.361644871667
$GPGGA,060251.00,3359.4846,N,11931.1309,W,1,10,1.0,10.9,M,-33.6,M,,*6F
$PYRTM,2024,127.252006247373,18.361653657512
$GPGGA,060252.00,3359.4838,N,11931.1306,W,1,10,1.0,10.8,M,-33.6,M,,*6B
$PYRTM,2024,127.252017834965,18.361665245104
$GPGGA,060253.00,3359.4829,N,11931.1304,W,1,10,1.0,10.7,M,-33.6,M,,*67
$PYRTM,2024,127.252025112384,18.361672522523
$GPGGA,060254.00,3359.4820,N,11931.1300,W,1,10,1.0,10.5,M,-33.6,M,,*6F
$PYRTM,2024,127.252040994398,18.361688404537
$GPGGA,060255.00,3359.4812,N,11931.1295,W,1,10,1.0,10.5,M,-33.6,M,,*62
$PYRTM,2024,127.252052542546,18.361699952685
$GPGGA,060256.00,3359.4803,N,11931.1288,W,1,10,1.0,10.6,M,-33.6,M,,*6E
$PYRTM,2024,127.252064129178,18.361711539329
$GPGGA,060257.00,3359.4793,N,11931.1283,W,1,10,1.0,10.6,M,-33.6,M,,*62
$PYRTM,2024,127.252075690347,18.361723100486
$GPGGA,060258.00,3359.4783,N,11931.1281,W,1,10,1.0,10.5,M,-33.6,M,,*6D
$PYRTM,2024,127.252087276412,18.361734686551
$GPGGA,060259.00,3359.4772,N,11931.1279,W,1,10,1.0,10.4,M,-33.6,M,,*64
$PYRTM,2024,127.252098839248,18.361746249387
$GPGGA,060300.00,3359.4762,N,11931.1275,W,1,10,1.0,10.5,M,-33.6,M,,*65
$PYRTM,2024,127.252110426030,18.361757836169
$GPGGA,060301.00,3359.4752,N,11931.1267,W,1,10,0.8,10.9,M,-33.6,M,,*61
$PYRTM,2024,127.252121987326,18.361769397465
$GPGGA,060302.00,3359.4743,N,11931.1259,W,1,10,0.8,11.3,M,-33.6,M,,*64
$PYRTM,2024,127.252133459086,18.361780869225
$GPGGA,060303.00,3359.4733,N,11931.1256,W,1,10,0.8,11.6,M,-33.6,M,,*68
$PYRTM,2024,127.252140854433,18.361788264572
$GPGGA,060304.00,3359.4723,N,11931.1256,W,1,10,1.0,11.5,M,-33.6,M,,*64
$PYRTM,2024,127.252156601447,18.361804011586
$GPGGA,060305.00,3359.4713,N,11931.1252,W,1,10,1.0,11.4,M,-33.6,M,,*63
$PYRTM,2024,127.252168167731,18.361815577870
$GPGGA,060306.00,3359.4704,N,11931.1243,W,1,10,1.0,11.5,M,-33.6,M,,*67
$PYRTM,2024,127.252179756366,18.361827166516
$GPGGA,060307.00,3359.4697,N,11931.1234,W,1,10,1.0,11.8,M,-33.6,M,,*60
$PYRTM,2024,127.252191316227,18.361838726366
$GPGGA,060308.00,3359.4687,N,11931.1231,W,1,10,1.0,11.9,M,-33.6,M,,*6A
$PYRTM,2024,127.252202906285,18.361850316424
$GPGGA,060309.00,3359.4677,N,11931.1232,W,1,10,1.0,11.7,M,-33.6,M,,*69
$PYRTM,2024,127.252214464815,18.361861874954
$GPGGA,060310.00,3359.4667,N,11931.1229,W,1,10,1.0,11.7,M,-33.6,M,,*6A
$PYRTM,2024,127.252221872477,18.361869282616
$GPGGA,060311.00,3359.4660,N,11931.1221,W,1,10,1.0,11.9,M,-33.6,M,,*6A
$PYRTM,2024,127.252240505081,18.361887915220
$GPGGA,060312.00,3359.4652,N,11931.1211,W,1,10,1.0,12.1,M,-33.6,M,,*60
$PYRTM,2024,127.252249194213,18.361896604352
$GPGGA,060313.00,3359.4643,N,11931.1206,W,1,10,1.0,12.1,M,-33.6,M,,*67
$PYRTM,2024,127.252256609132,18.361904019271
$GPGGA,060314.00,3359.4632,N,11931.1206,W,1,10,1.0,12.0,M,-33.6,M,,*67
$PYRTM,2024,127.252272348681,18.361919758819
$GPGGA,060315.00,3359.4624,N,11931.1205,W,1,10,1.0,11.8,M,-33.6,M,,*69
$PYRTM,2024,127.252283910787,18.361931320926
$GPGGA,060316.00,3359.4615,N,11931.1197,W,1,10,1.0,11.7,M,-33.6,M,,*6F
$PYRTM,2024,127.252295491574,18.361942901713
$GPGGA,060317.00,3359.4606,N,11931.1187,W,1,10,1.0,11.4,M,-33.6,M,,*6E
$PYRTM,2024,127.252307057002,18.361954467141
$GPGGA,060318.00,3359.4595,N,11931.1181,W,1,10,1.0,11.1,M,-33.6,M,,*6B
$PYRTM,2024,127.252314464954,18.361961875093
$GPGGA,060319.00,3359.4585,N,11931.1181,W,1,10,1.0,11.2,M,-33.6,M,,*68
$PYRTM,2024,127.252330207280,18.361977617431
$GPGGA,060320.00,3359.4576,N,11931.1179,W,1,10,1.0,11.4,M,-33.6,M,,*6F
$PYRTM,2024,127.252337613160,18.361985023299
$GPGGA,060321.00,3359.4567,N,11931.1172,W,1,10,1.0,11.5,M,-33.6,M,,*64
$PYRTM,2024,127.252356249213,18.362003659352
$GPGGA,060322.00,3359.4557,N,11931.1162,W,1,10,1.0,11.4,M,-33.6,M,,*64
$PYRTM,2024,127.252364940683,18.362012350833
$GPGGA,060323.00,3359.4547,N,11931.1156,W,1,10,1.0,11.2,M,-33.6,M,,*65
$PYRTM,2024,127.252376502940,18.362023913090
$GPGGA,060324.00,3359.4538,N,11931.1154,W,1,10,1.0,11.3,M,-33.6,M,,*69
$PYRTM,2024,127.252383910347,18.362031320486
$GPGGA,060325.00,3359.4529,N,11931.1152,W,1,10,1.0,11.5,M,-33.6,M,,*68
$PYRTM,2024,127.252399650590,18.362047060741
$GPGGA,060326.00,3359.4520,N,11931.1145,W,1,10,1.0,11.5,M,-33.6,M,,*64
$PYRTM,2024,127.252407058275,18.362054468414
$GPGGA,060327.00,3359.4512,N,11931.1134,W,1,10,1.0,11.6,M,-33.6,M,,*61
$PYRTM,2024,127.252422798611,18.362070208750
$GPGGA,060328.00,3359.4504,N,11931.1128,W,1,10,1.0,11.6,M,-33.6,M,,*64
$PYRTM,2024,127.252434386053,18.362081796192
$GPGGA,060329.00,3359.4495,N,11931.1127,W,1,10,1.0,11.4,M,-33.6,M,,*61
$PYRTM,2024,127.252445947986,18.362093358125
$GPGGA,060330.00,3359.4486,N,11931.1127,W,1,10,1.0,11.3,M,-33.6,M,,*6C
$PYRTM,2024,127.252457534734,18.362104944873
$GPGGA,060331.00,3359.4477,N,11931.1122,W,1,10,1.0,11.2,M,-33.6,M,,*67
$PYRTM,2024,127.252469095752,18.362116505903
$GPGGA,060332.00,3359.4469,N,11931.1113,W,1,10,1.0,11.1,M,-33.6,M,,*6A
$PYRTM,2024,127.252476511285,18.362123921424
$GPGGA,060333.00,3359.4461,N,11931.1105,W,1,10,1.0,11.0,M,-33.6,M,,*65
$PYRTM,2024,127.252492244583,18.362139654722
$GPGGA,060334.00,3359.4451,N,11931.1099,W,1,10,1.0,11.0,M,-33.6,M,,*65
$PYRTM,2024,127.252503831863,18.362151242002
$GPGGA,060335.00,3359.4440,N,11931.1098,W,1,10,1.0,10.9,M,-33.6,M,,*6D
$PYRTM,2024,127.252515392870,18.362162803009
$GPGGA,060336.00,3359.4431,N,11931.1096,W,1,10,1.0,10.6,M,-33.6,M,,*69
$PYRTM,2024,127.252526980613,18.362174390752
$GPGGA,060337.00,3359.4422,N,11931.1090,W,1,10,1.0,10.5,M,-33.6,M,,*6F
$PYRTM,2024,127.252538539965,18.362185950104
$GPGGA,060338.00,3359.4413,N,11931.1080,W,1,10,1.0,10.6,M,-33.6,M,,*60
$PYRTM,2024,127.252545948889,18.362193359028
$GPGGA,060339.00,3359.4404,N,11931.1072,W,1,10,1.0,10.7,M,-33.6,M,,*6B
$PYRTM,2024,127.252561691944,18.362209102083
$GPGGA,060340.00,3359.4394,N,11931.1068,W,1,10,1.0,10.7,M,-33.6,M,,*60
$PYRTM,2024,127.252573279201,18.362220689340
$GPGGA,060341.00,3359.4384,N,11931.1068,W,1,10,1.0,10.5,M,-33.6,M,,*62
$PYRTM,2024,127.252584836910,18.362232247049
$GPGGA,060342.00,3359.4375,N,11931.1064,W,1,10,1.0,10.5,M,-33.6,M,,*63
$PYRTM,2024,127.252592245035,18.362239655174
$GPGGA,060343.00,3359.4367,N,11931.1055,W,1,10,1.0,10.7,M,-33.6,M,,*61
$PYRTM,2024,127.252610880255,18.362258290394
$GPGGA,060344.00,3359.4358,N,11931.1044,W,1,10,1.0,10.8,M,-33.6,M,,*65
$PYRTM,2024,127.252622469838,18.362269879977
$GPGGA,060345.00,3359.4349,N,11931.1037,W,1,10,1.0,10.7,M,-33.6,M,,*6F
$PYRTM,2024,127.252631147222,18.362278557361
$GPGGA,060346.00,3359.4339,N,11931.1036,W,1,10,1.0,10.6,M,-33.6,M,,*6B
$PYRTM,2024,127.252642721134,18.362290131273
$GPGGA,060347.00,3359.4330,N,11931.1034,W,1,10,1.0,10.5,M,-33.6,M,,*62
$PYRTM,2024,127.252654295660,18.362301705810
$GPGGA,060348.00,3359.4321,N,11931.1027,W,1,10,1.0,10.5,M,-33.6,M,,*6F
$PYRTM,2024,127.252665870625,18.362313280764
$GPGGA,060349.00,3359.4313,N,11931.1017,W,1,10,1.0,10.5,M,-33.6,M,,*6C
$PYRTM,2024,127.252677442870,18.362324853009
$GPGGA,060350.00,3359.4304,N,11931.1010,W,1,10,1.0,10.4,M,-33.6,M,,*64
$PYRTM,2024,127.252684839317,18.362332249456
$GPGGA,060351.00,3359.4294,N,11931.1007,W,1,10,1.0,10.3,M,-33.6,M,,*6C
$PYRTM,2024,127.252696529514,18.362343939664
$GPGGA,060352.00,3359.4284,N,11931.1005,W,1,10,1.0,10.3,M,-33.6,M,,*6C
$PYRTM,2024,127.252715059838,18.362362469977
$GPGGA,060353.00,3359.4274,N,11931.0999,W,1,10,1.0,10.3,M,-33.6,M,,*6F
$PYRTM,2024,127.252723739954,18.362371150104
$GPGGA,060354.00,3359.4266,N,11931.0989,W,1,10,1.0,10.4,M,-33.6,M,,*6D
$PYRTM,2024,127.252735328877,18.362382739016
$GPGGA,060355.00,3359.4256,N,11931.0982,W,1,10,1.0,10.4,M,-33.6,M,,*64
$PYRTM,2024,127.252746887951,18.362394298102
$GPGGA,060356.00,3359.4246,N,11931.0979,W,1,09,1.0,10.3,M,-33.6,M,,*6D
$PYRTM,2024,127.252758477234,18.362405887384
$GPGGA,060357.00,3359.4236,N,11931.0975,W,1,09,1.0,10.3,M,-33.6,M,,*67
$PYRTM,2024,127.252770037836,18.362417447975
$GPGGA,060358.00,3359.4227,N,11931.0969,W,1,09,1.0,10.4,M,-33.6,M,,*62
$PYRTM,2024,127.252781613773,18.362429023912
$GPGGA,060359.00,3359.4219,N,11931.0960,W,1,09,1.0,10.3,M,-33.6,M,,*60
$PYRTM,2024,127.252793185185,18.362440595324
$GPGGA,060400.00,3359.4210,N,11931.0954,W,1,09,1.0,10.0,M,-33.6,M,,*66
$PYRTM,2024,127.252804759803,18.362452169942
$GPGGA,060401.00,3359.4200,N,11931.0950,W,1,09,1.0,9.7,M,-33.6,M,,*5D
$PYRTM,2024,127.252812170255,18.362459580394
$GPGGA,060402.00,3359.4191,N,11931.0947,W,1,09,1.0,9.5,M,-33.6,M,,*51
$PYRTM,2024,127.252827907778,18.362475317917
$GPGGA,060403.00,3359.4183,N,11931.0942,W,1,09,1.0,9.7,M,-33.6,M,,*54
$PYRTM,2024,127.252839481852,18.362486891991
$GPGGA,060404.00,3359.4175,N,11931.0934,W,1,09,1.0,9.8,M,-33.6,M,,*54
$PYRTM,2024,127.252846876447,18.362494286586
$GPGGA,060405.00,3359.4166,N,11931.0926,W,1,09,1.0,9.8,M,-33.6,M,,*54
$PYRTM,2024,127.252862629514,18.362510039653
$GPGGA,060406.00,3359.4157,N,11931.0921,W,1,09,1.0,9.8,M,-33.6,M,,*52
$PYRTM,2024,127.252874204005,18.362521614155
$GPGGA,060407.00,3359.4147,N,11931.0917,W,1,09,1.0,9.7,M,-33.6,M,,*58
$PYRTM,2024,127.252885778738,18.362533188889
$GPGGA,060408.00,3359.4137,N,11931.0914,W,1,09,1.0,9.3,M,-33.6,M,,*57
$PYRTM,2024,127.252897347650,18.362544757789
$GPGGA,060409.00,3359.4127,N,11931.0908,W,1,09,1.0,8.9,M,-33.6,M,,*51
$PYRTM,2024,127.252904747755,18.362552157905
$GPGGA,060410.00,3359.4118,N,11931.0899,W,1,09,1.0,8.9,M,-33.6,M,,*5C
$PYRTM,2024,127.252920514942,18.362567925093
$GPGGA,060411.00,3359.4109,N,11931.0890,W,1,09,1.0,9.9,M,-33.6,M,,*55
$PYRTM,2024,127.252932075984,18.362579486123
$GPGGA,060412.00,3359.4100,N,11931.0884,W,1,09,1.0,10.1,M,-33.6,M,,*6A
$PYRTM,2024,127.252943651852,18.362591061991
$GPGGA,060413.00,3359.4088,N,11931.0881,W,1,09,1.0,9.6,M,-33.6,M,,*50
$PYRTM,2024,127.252955223981,18.362602634120
$GPGGA,060414.00,3359.4077,N,11931.0881,W,1,09,1.0,8.9,M,-33.6,M,,*59
$PYRTM,2024,127.252966800694,18.362614210845
$GPGGA,060415.00,3359.4068,N,11931.0875,W,1,09,1.0,8.4,M,-33.6,M,,*50
$PYRTM,2024,127.252974193102,18.362621603241
$GPGGA,060416.00,3359.4062,N,11931.0863,W,1,09,1.0,8.7,M,-33.6,M,,*5D
$PYRTM,2024,127.252989945127,18.362637355266
$GPGGA,060417.00,3359.4055,N,11931.0852,W,1,09,1.0,9.0,M,-33.6,M,,*5C
$PYRTM,2024,127.253001518646,18.362648928785
$GPGGA,060418.00,3359.4045,N,11931.0848,W,1,09,1.0,9.2,M,-33.6,M,,*5B
$PYRTM,2024,127.253013093565,18.362660503704
$GPGGA,060419.00,3359.4034,N,11931.0849,W,1,09,1.0,9.0,M,-33.6,M,,*5F
$PYRTM,2024,127.253024664664,18.362672074803
$GPGGA,060420.00,3359.4024,N,11931.0846,W,1,09,1.0,8.7,M,-33.6,M,,*5D
$PYRTM,2024,127.253036242755,18.362683652894
$GPGGA,060421.00,3359.4017,N,11931.0835,W,1,09,1.0,8.8,M,-33.6,M,,*57
$PYRTM,2024,127.253047812373,18.362695222523
$GPGGA,060422.00,3359.4010,N,11931.0822,W,1,09,1.0,8.9,M,-33.6,M,,*54
$PYRTM,2024,127.253055211632,18.362702621782
$GPGGA,060423.00,3359.4001,N,11931.0816,W,1,09,1.0,8.9,M,-33.6,M,,*52
$PYRTM,2024,127.253073845833,18.362721255984
$GPGGA,060424.00,3359.3990,N,11931.0817,W,1,09,1.0,8.8,M,-33.6,M,,*53
$PYRTM,2024,127.253085433229,18.362732843380
$GPGGA,060425.00,3359.3980,N,11931.0817,W,1,09,1.0,8.8,M,-33.6,M,,*53
$PYRTM,2024,127.253096993021,18.362744403160
$GPGGA,060426.00,3359.3971,N,11931.0810,W,1,09,1.0,8.9,M,-33.6,M,,*58
$PYRTM,2024,127.253105690949,18.362753101088
$GPGGA,060427.00,3359.3962,N,11931.0798,W,1,09,1.0,9.1,M,-33.6,M,,*5D
$PYRTM,2024,127.253113083472,18.362760493611
$GPGGA,060428.00,3359.3952,N,11931.0790,W,1,09,1.0,9.3,M,-33.6,M,,*5B
$PYRTM,2024,127.253128838553,18.362776248692
$GPGGA,060429.00,3359.3941,N,11931.0787,W,1,09,1.0,9.7,M,-33.6,M,,*5A
$PYRTM,2024,127.253140404005,18.362787814155
$GPGGA,060430.00,3359.3931,N,11931.0786,W,1,09,1.0,10.0,M,-33.6,M,,*6B
$PYRTM,2024,127.253151986528,18.362799396667
$GPGGA,060431.00,3359.3921,N,11931.0783,W,1,09,1.0,9.9,M,-33.6,M,,*5F
$PYRTM,2024,127.253163556910,18.362810967049
$GPGGA,060432.00,3359.3913,N,11931.0778,W,1,09,1.0,9.9,M,-33.6,M,,*59
$PYRTM,2024,127.253175132083,18.362822542222
$GPGGA,060433.00,3359.3904,N,11931.0773,W,1,09,1.0,10.0,M,-33.6,M,,*64
$PYRTM,2024,127.253182541609,18.362829951748
$GPGGA,060434.00,3359.3895,N,11931.0769,W,1,09,1.0,10.2,M,-33.6,M,,*63
$PYRTM,2024,127.253198279826,18.362845689965
$GPGGA,060435.00,3359.3886,N,11931.0766,W,1,09,1.0,10.4,M,-33.6,M,,*69
$PYRTM,2024,127.253209854421,18.362857264560
$GPGGA,060436.00,3359.3876,N,11931.0764,W,1,09,1.0,10.5,M,-33.6,M,,*66
$PYRTM,2024,127.253221428773,18.362868838912
$GPGGA,060437.00,3359.3866,N,11931.0762,W,1,09,1.0,10.4,M,-33.6,M,,*61
$PYRTM,2024,127.253232999063,18.362880409213
$GPGGA,060438.00,3359.3858,N,11931.0758,W,1,09,1.0,10.3,M,-33.6,M,,*6D
$PYRTM,2024,127.253244577743,18.362891987870
$GPGGA,060439.00,3359.3849,N,11931.0754,W,1,09,1.0,10.4,M,-33.6,M,,*67
$PYRTM,2024,127.253251971354,18.362899381505
$GPGGA,060440.00,3359.3840,N,11931.0751,W,1,09,1.0,10.6,M,-33.6,M,,*67
$PYRTM,2024,127.253267728183,18.362915138322
$GPGGA,060441.00,3359.3832,N,11931.0751,W,1,09,1.0,11.0,M,-33.6,M,,*64
$PYRTM,2024,127.253279301609,18.362926711748
$GPGGA,060442.00,3359.3823,N,11931.0749,W,1,09,1.0,11.2,M,-33.6,M,,*6C
$PYRTM,2024,127.253286694375,18.362934104514
$GPGGA,060443.00,3359.3814,N,11931.0746,W,1,09,1.0,11.1,M,-33.6,M,,*65
$PYRTM,2024,127.253302450405,18.362949860556
$GPGGA,060444.00,3359.3804,N,11931.0744,W,1,09,1.0,10.9,M,-33.6,M,,*68
$PYRTM,2024,127.253314037269,18.362961447407
$GPGGA,060445.00,3359.3795,N,11931.0743,W,1,09,1.0,10.9,M,-33.6,M,,*69
$PYRTM,2024,127.253325598437,18.362973008576
$GPGGA,060446.00,3359.3786,N,11931.0741,W,1,09,1.0,11.1,M,-33.6,M,,*63
$PYRTM,2024,127.253337174190,18.362984584340
$GPGGA,060447.00,3359.3777,N,11931.0738,W,1,09,1.0,11.2,M,-33.6,M,,*61
$PYRTM,2024,127.253348746736,18.362996156875
$GPGGA,060448.00,3359.3766,N,11931.0737,W,1,09,1.0,11.1,M,-33.6,M,,*62
$PYRTM,2024,127.253356139109,18.363003549259
$GPGGA,060449.00,3359.3756,N,11931.0737,W,1,09,1.0,10.9,M,-33.6,M,,*69
$PYRTM,2024,127.253371893785,18.363019303924
$GPGGA,060450.00,3359.3747,N,11931.0739,W,1,09,1.0,10.9,M,-33.6,M,,*6F
$PYRTM,2024,127.253383467442,18.363030877581
$GPGGA,060451.00,3359.3739,N,11931.0737,W,1,09,1.0,11.5,M,-33.6,M,,*64
$PYRTM,2024,127.253395040127,18.363042450266
$GPGGA,060452.00,3359.3729,N,11931.0733,W,1,09,1.0,11.8,M,-33.6,M,,*6F
$PYRTM,2024,127.253406615590,18.363054025729
$GPGGA,060453.00,3359.3720,N,11931.0732,W,1,09,1.0,11.9,M,-33.6,M,,*67
$PYRTM,2024,127.253414010648,18.363061420787
$GPGGA,060454.00,3359.3711,N,11931.0732,W,1,09,1.0,11.9,M,-33.6,M,,*62
$PYRTM,2024,127.253432657384,18.363080067523
$GPGGA,060455.00,3359.3702,N,11931.0733,W,1,09,1.0,12.0,M,-33.6,M,,*6A
$PYRTM,2024,127.253441332037,18.363088742176
$GPGGA,060456.00,3359.3694,N,11931.0733,W,1,09,1.0,11.9,M,-33.6,M,,*6D
$PYRTM,2024,127.253453027558,18.363100437697
$GPGGA,060457.00,3359.3685,N,11931.0732,W,1,09,1.0,11.9,M,-33.6,M,,*6D
$PYRTM,2024,127.253464587951,18.363111998090
$GPGGA,060458.00,3359.3676,N,11931.0729,W,1,09,1.0,12.0,M,-33.6,M,,*6E
$PYRTM,2024,127.253476180856,18.363123590995
$GPGGA,060459.00,3359.3667,N,11931.0727,W,1,09,1.0,12.0,M,-33.6,M,,*61
$PYRTM,2024,127.253487737280,18.363135147431
$GPGGA,060500.00,3359.3657,N,11931.0729,W,1,09,1.0,11.7,M,-33.6,M,,*65
$PYRTM,2024,127.253499326597,18.363146736736
$GPGGA,060501.00,3359.3648,N,11931.0732,W,1,09,1.0,11.3,M,-33.6,M,,*64
$PYRTM,2024,127.253510885451,18.363158295590
$GPGGA,060502.00,3359.3639,N,11931.0734,W,1,09,1.0,11.2,M,-33.6,M,,*66
$PYRTM,2024,127.253522472454,18.363169882593
$GPGGA,060503.00,3359.3629,N,11931.0732,W,1,09,1.0,11.4,M,-33.6,M,,*66
$PYRTM,2024,127.253534033924,18.363181444062
$GPGGA,060504.00,3359.3620,N,11931.0728,W,1,09,1.0,11.7,M,-33.6,M,,*60
$PYRTM,2024,127.253541440035,18.363188850174
$GPGGA,060505.00,3359.3610,N,11931.0728,W,1,09,1.0,11.7,M,-33.6,M,,*62
$PYRTM,2024,127.253557073542,18.363204483681
$GPGGA,060506.00,3359.3600,N,11931.0732,W,1,09,1.0,11.6,M,-33.6,M,,*6A
$PYRTM,2024,127.253568652963,18.363216063102
$GPGGA,060507.00,3359.3592,N,11931.0735,W,1,09,1.0,11.5,M,-33.6,M,,*67
$PYRTM,2024,127.253580227025,18.363227637176
$GPGGA,060508.00,3359.3584,N,11931.0734,W,1,09,1.0,11.7,M,-33.6,M,,*6C
$PYRTM,2024,127.253591801933,18.363239212072
$GPGGA,060509.00,3359.3573,N,11931.0731,W,1,09,1.0,11.5,M,-33.6,M,,*62
$PYRTM,2024,127.253603375914,18.363250786053
$GPGGA,060510.00,3359.3563,N,11931.0730,W,1,09,1.0,11.2,M,-33.6,M,,*6D
$PYRTM,2024,127.253614950590,18.363262360729
$GPGGA,060511.00,3359.3553,N,11931.0732,W,1,09,1.0,11.0,M,-33.6,M,,*6F
$PYRTM,2024,127.253626523125,18.363273933264
$GPGGA,060512.00,3359.3545,N,11931.0735,W,1,09,1.0,11.2,M,-33.6,M,,*6E
$PYRTM,2024,127.253638097731,18.363285507870
$GPGGA,060513.00,3359.3535,N,11931.0734,W,1,09,1.0,11.3,M,-33.6,M,,*68
$PYRTM,2024,127.253649671910,18.363297082049
$GPGGA,060514.00,3359.3523,N,11931.0730,W,1,09,0.8,11.4,M,-33.6,M,,*62
$PYRTM,2024,127.253657068032,18.363304478171
$GPGGA,060515.00,3359.3513,N,11931.0728,W,1,09,0.8,11.3,M,-33.6,M,,*6E
$PYRTM,2024,127.253672821424,18.363320231563
$GPGGA,060516.00,3359.3504,N,11931.0730,W,1,09,0.8,11.4,M,-33.6,M,,*65
$PYRTM,2024,127.253684410301,18.363331820440
$GPGGA,060517.00,3359.3496,N,11931.0732,W,1,09,0.8,11.6,M,-33.6,M,,*6E
$PYRTM,2024,127.253691796262,18.363339206400
$GPGGA,060518.00,3359.3486,N,11931.0732,W,1,09,0.8,11.5,M,-33.6,M,,*63
$PYRTM,2024,127.253707543056,18.363354953194
$GPGGA,060519.00,3359.3477,N,11931.0731,W,1,09,0.8,11.3,M,-33.6,M,,*69
$PYRTM,2024,127.253714953437,18.363362363576
$GPGGA,060520.00,3359.3468,N,11931.0730,W,1,09,0.8,11.1,M,-33.6,M,,*6E
$PYRTM,2024,127.253726628924,18.363374039062
$GPGGA,060521.00,3359.3460,N,11931.0731,W,1,09,0.8,11.1,M,-33.6,M,,*66
$PYRTM,2024,127.253745146157,18.363392556296
$GPGGA,060522.00,3359.3451,N,11931.0733,W,1,09,0.8,11.2,M,-33.6,M,,*66
$PYRTM,2024,127.253756733137,18.363404143287
$GPGGA,060523.00,3359.3442,N,11931.0735,W,1,09,0.8,11.0,M,-33.6,M,,*61
$PYRTM,2024,127.253768296157,18.363415706296
$GPGGA,060524.00,3359.3432,N,11931.0736,W,1,09,0.8,10.8,M,-33.6,M,,*6B
$PYRTM,2024,127.253779882384,18.363427292535
$GPGGA,060525.00,3359.3423,N,11931.0736,W,1,09,0.8,10.8,M,-33.6,M,,*6A
$PYRTM,2024,127.253793900949,18.363441311088
$GPGGA,060526.00,3359.3415,N,11931.0736,W,1,09,0.8,11.1,M,-33.6,M,,*64
$PYRTM,2024,127.253800137199,18.363447547338
$GPGGA,060527.00,3359.3405,N,11931.0737,W,1,09,0.8,11.3,M,-33.6,M,,*67
$PYRTM,2024,127.253811711343,18.363459121481
$GPGGA,060528.00,3359.3396,N,11931.0738,W,1,09,0.8,11.4,M,-33.6,M,,*6D
$PYRTM,2024,127.253823279306,18.363470689444
$GPGGA,060529.00,3359.3387,N,11931.0739,W,1,09,0.8,11.3,M,-33.6,M,,*6A
$PYRTM,2024,127.253834859572,18.363482269711
$GPGGA,060530.00,3359.3378,N,11931.0740,W,1,09,0.8,11.1,M,-33.6,M,,*6E
$PYRTM,2024,127.253842253773,18.363489663912
$GPGGA,060531.00,3359.3367,N,11931.0741,W,1,09,0.8,10.7,M,-33.6,M,,*67
$PYRTM,2024,127.253858006701,18.363505416852
$GPGGA,060532.00,3359.3359,N,11931.0741,W,1,09,0.8,10.6,M,-33.6,M,,*68
$PYRTM,2024,127.253869595521,18.363517005660
$GPGGA,060533.00,3359.3350,N,11931.0741,W,1,09,0.8,10.7,M,-33.6,M,,*61
$PYRTM,2024,127.253881154734,18.363528564873
$GPGGA,060534.00,3359.3340,N,11931.0742,W,1,09,0.8,10.8,M,-33.6,M,,*6B
$PYRTM,2024,127.253892729954,18.363540140093
$GPGGA,060535.00,3359.3331,N,11931.0742,W,1,09,0.8,10.8,M,-33.6,M,,*6C
$PYRTM,2024,127.253900139201,18.363547549352
$GPGGA,060536.00,3359.3322,N,11931.0743,W,1,09,0.8,10.7,M,-33.6,M,,*63
$PYRTM,2024,127.253915877998,18.363563288148
$GPGGA,060537.00,3359.3312,N,11931.0744,W,1,09,0.8,10.5,M,-33.6,M,,*64
$PYRTM,2024,127.253927452500,18.363574862650
$GPGGA,060538.00,3359.3302,N,11931.0744,W,1,09,0.8,10.2,M,-33.6,M,,*6D
$PYRTM,2024,127.253934846181,18.363582256319
$GPGGA,060539.00,3359.3294,N,11931.0744,W,1,09,1.0,10.3,M,-33.6,M,,*6A
$PYRTM,2024,127.253950599734,18.363598009873
$GPGGA,060540.00,3359.3284,N,11931.0742,W,1,09,0.8,10.4,M,-33.6,M,,*6D
$PYRTM,2024,127.253962169178,18.363609579329
$GPGGA,060541.00,3359.3274,N,11931.0743,W,1,09,1.0,10.4,M,-33.6,M,,*6B
$PYRTM,2024,127.253973748993,18.363621159144
$GPGGA,060542.00,3359.3264,N,11931.0744,W,1,09,1.0,10.1,M,-33.6,M,,*6B
$PYRTM,2024,127.253985322743,18.363632732882
$GPGGA,060543.00,3359.3254,N,11931.0746,W,1,09,1.0,9.9,M,-33.6,M,,*5B
$PYRTM,2024,127.253996896157,18.363644306296
$GPGGA,060544.00,3359.3245,N,11931.0746,W,1,09,1.0,9.9,M,-33.6,M,,*5C
$PYRTM,2024,127.254008470278,18.363655880417
$GPGGA,060545.00,3359.3235,N,11931.0743,W,1,09,1.0,10.1,M,-33.6,M,,*6F
$PYRTM,2024,127.254020044618,18.363667454757
$GPGGA,060546.00,3359.3225,N,11931.0741,W,1,09,1.0,10.5,M,-33.6,M,,*6B
$PYRTM,2024,127.254031622025,18.363679032164
$GPGGA,060547.00,3359.3215,N,11931.0740,W,1,09,1.0,10.6,M,-33.6,M,,*6B
$PYRTM,2024,127.254043192813,18.363690602951
$GPGGA,060548.00,3359.3206,N,11931.0742,W,1,09,1.0,10.5,M,-33.6,M,,*67
$PYRTM,2024,127.254050586898,18.363697997037
$GPGGA,060549.00,3359.3197,N,11931.0744,W,1,09,1.0,10.4,M,-33.6,M,,*6A
$PYRTM,2024,127.254066340498,18.363713750637
$GPGGA,060550.00,3359.3187,N,11931.0744,W,1,09,1.0,10.2,M,-33.6,M,,*65
$PYRTM,2024,127.254073736042,18.363721146169
$GPGGA,060551.00,3359.3178,N,11931.0741,W,1,09,1.0,10.1,M,-33.6,M,,*62
$PYRTM,2024,127.254089487998,18.363736898137
$GPGGA,060552.00,3359.3168,N,11931.0738,W,1,09,1.0,10.2,M,-33.6,M,,*6D
$PYRTM,2024,127.254101059259,18.363748469398
$GPGGA,060553.00,3359.3159,N,11931.0738,W,1,09,1.0,10.3,M,-33.6,M,,*6F
$PYRTM,2024,127.254108472685,18.363755882824
$GPGGA,060554.00,3359.3150,N,11931.0740,W,1,09,1.0,10.4,M,-33.6,M,,*69
$PYRTM,2024,127.254124211782,18.363771621921
$GPGGA,060555.00,3359.3141,N,11931.0740,W,1,09,1.0,10.3,M,-33.6,M,,*6F
$PYRTM,2024,127.254131607419,18.363779017558
$GPGGA,060556.00,3359.3131,N,11931.0739,W,1,09,1.0,10.1,M,-33.6,M,,*67
$PYRTM,2024,127.254150253889,18.363797664028
$GPGGA,060557.00,3359.3120,N,11931.0736,W,1,09,1.0,9.8,M,-33.6,M,,*58
$PYRTM,2024,127.254158933831,18.363806343970
$GPGGA,060558.00,3359.3111,N,11931.0736,W,1,09,1.0,9.8,M,-33.6,M,,*55
$PYRTM,2024,127.254166330197,18.363813740347
$GPGGA,060559.00,3359.3102,N,11931.0737,W,1,09,1.0,10.0,M,-33.6,M,,*67
$PYRTM,2024,127.254182082662,18.363829492801
$GPGGA,060600.00,3359.3092,N,11931.0735,W,1,09,1.0,10.5,M,-33.6,M,,*67
$PYRTM,2024,127.254193772836,18.363841182975
$GPGGA,060601.00,3359.3081,N,11931.0731,W,1,09,1.0,10.8,M,-33.6,M,,*6D
$PYRTM,2024,127.254205230856,18.363852641007
$GPGGA,060602.00,3359.3070,N,11931.0731,W,1,09,1.0,10.8,M,-33.6,M,,*60
$PYRTM,2024,127.254216819942,18.363864230081
$GPGGA,060603.00,3359.3060,N,11931.0733,W,1,09,1.0,10.5,M,-33.6,M,,*6F
$PYRTM,2024,127.254228379618,18.363875789757
$GPGGA,060604.00,3359.3053,N,11931.0735,W,1,09,1.0,10.7,M,-33.6,M,,*6C
$PYRTM,2024,127.254239968588,18.363887378727
$GPGGA,060605.00,3359.3044,N,11931.0734,W,1,09,1.0,10.5,M,-33.6,M,,*68
$PYRTM,2024,127.254251527465,18.363898937604
$GPGGA,060606.00,3359.3033,N,11931.0730,W,1,09,1.0,10.2,M,-33.6,M,,*68
$PYRTM,2024,127.254263101829,18.363910511979
$GPGGA,060607.00,3359.3024,N,11931.0728,W,1,09,1.0,10.2,M,-33.6,M,,*66
$PYRTM,2024,127.254274676192,18.363922086331
$GPGGA,060608.00,3359.3016,N,11931.0731,W,1,09,1.0,10.4,M,-33.6,M,,*66
$PYRTM,2024,127.254286249549,18.363933659676
$GPGGA,060609.00,3359.3006,N,11931.0735,W,1,09,1.0,10.4,M,-33.6,M,,*62
$PYRTM,2024,127.254297824873,18.363945235012
$GPGGA,060610.00,3359.2997,N,11931.0734,W,1,09,1.0,10.4,M,-33.6,M,,*6B
$PYRTM,2024,127.254309401493,18.363956811632
$GPGGA,060611.00,3359.2987,N,11931.0731,W,1,09,1.0,10.4,M,-33.6,M,,*6E
$PYRTM,2024,127.254320972407,18.363968382546
$GPGGA,060612.00,3359.2978,N,11931.0729,W,1,09,1.0,10.5,M,-33.6,M,,*65
$PYRTM,2024,127.254332547384,18.363979957523
$GPGGA,060613.00,3359.2969,N,11931.0731,W,1,09,1.0,10.4,M,-33.6,M,,*6C
$PYRTM,2024,127.254344119988,18.363991530127
$GPGGA,060614.00,3359.2959,N,11931.0734,W,1,09,1.0,10.3,M,-33.6,M,,*6A
$PYRTM,2024,127.254355695891,18.364003106030
$GPGGA,060615.00,3359.2949,N,11931.0735,W,1,09,1.0,10.3,M,-33.6,M,,*6B
$PYRTM,2024,127.254367269618,18.364014679757
$GPGGA,060616.00,3359.2939,N,11931.0734,W,1,09,1.0,10.2,M,-33.6,M,,*6F
$PYRTM,2024,127.254374664005,18.364022074144
$GPGGA,060617.00,3359.2930,N,11931.0733,W,1,09,1.0,10.1,M,-33.6,M,,*63
$PYRTM,2024,127.254390418704,18.364037828843
$GPGGA,060618.00,3359.2920,N,11931.0733,W,1,09,1.0,10.2,M,-33.6,M,,*6E
$PYRTM,2024,127.254401994896,18.364049405046
$GPGGA,060619.00,3359.2911,N,11931.0736,W,1,09,1.0,10.3,M,-33.6,M,,*69
$PYRTM,2024,127.254413565775,18.364060975914
$GPGGA,060620.00,3359.2901,N,11931.0738,W,1,09,1.0,10.3,M,-33.6,M,,*6C
$PYRTM,2024,127.254425144155,18.364072554294
$GPGGA,060621.00,3359.2892,N,11931.0740,W,1,09,1.0,10.2,M,-33.6,M,,*68
$PYRTM,2024,127.254436714896,18.364084125035
$GPGGA,060622.00,3359.2882,N,11931.0740,W,1,09,1.0,10.2,M,-33.6,M,,*6A
$PYRTM,2024,127.254444109201,18.364091519340
$GPGGA,060623.00,3359.2873,N,11931.0741,W,1,09,1.0,10.3,M,-33.6,M,,*65
$PYRTM,2024,127.254459862153,18.364107272303
$GPGGA,060624.00,3359.2864,N,11931.0741,W,1,09,1.0,10.4,M,-33.6,M,,*63
$PYRTM,2024,127.254471432118,18.364118842269
$GPGGA,060625.00,3359.2854,N,11931.0743,W,1,09,1.0,10.3,M,-33.6,M,,*64
$PYRTM,2024,127.254478846887,18.364126257037
$GPGGA,060626.00,3359.2845,N,11931.0744,W,1,09,1.0,10.2,M,-33.6,M,,*61
$PYRTM,2024,127.254497478785,18.364144888924
$GPGGA,060627.00,3359.2836,N,11931.0748,W,1,09,1.0,10.0,M,-33.6,M,,*6A
$PYRTM,2024,127.254506155289,18.364153565428
$GPGGA,060628.00,3359.2827,N,11931.0751,W,1,09,1.0,9.8,M,-33.6,M,,*5D
$PYRTM,2024,127.254517734398,18.364165144537
$GPGGA,060629.00,3359.2818,N,11931.0751,W,1,09,1.0,10.0,M,-33.6,M,,*60
$PYRTM,2024,127.254529303403,18.364176713553
$GPGGA,060630.00,3359.2809,N,11931.0750,W,1,09,1.0,10.3,M,-33.6,M,,*6A
$PYRTM,2024,127.254540883125,18.364188293264
$GPGGA,060631.00,3359.2799,N,11931.0751,W,1,09,1.0,10.3,M,-33.6,M,,*6C
$PYRTM,2024,127.254552456100,18.364199866238
$GPGGA,060632.00,3359.2789,N,11931.0757,W,1,09,1.0,9.8,M,-33.6,M,,*5B
$PYRTM,2024,127.254559851528,18.364207261667
$GPGGA,060633.00,3359.2780,N,11931.0762,W,1,09,1.0,10.3,M,-33.6,M,,*66
$PYRTM,2024,127.254571541609,18.364218951759
$GPGGA,060634.00,3359.2772,N,11931.0762,W,1,09,1.0,10.9,M,-33.6,M,,*66
$PYRTM,2024,127.254587191875,18.364234602014
$GPGGA,060635.00,3359.2762,N,11931.0760,W,1,09,1.0,11.1,M,-33.6,M,,*6D
$PYRTM,2024,127.254598754178,18.364246164329
$GPGGA,060636.00,3359.2751,N,11931.0760,W,1,09,1.0,11.1,M,-33.6,M,,*6E
$PYRTM,2024,127.254610330845,18.364257740984
$GPGGA,060637.00,3359.2743,N,11931.0765,W,1,09,1.0,10.7,M,-33.6,M,,*6E
$PYRTM,2024,127.254621900579,18.364269310729
$GPGGA,060638.00,3359.2735,N,11931.0771,W,1,09,1.0,11.0,M,-33.6,M,,*63
$PYRTM,2024,127.254633470914,18.364280881053
$GPGGA,060639.00,3359.2726,N,11931.0775,W,1,09,1.0,11.3,M,-33.6,M,,*67
$PYRTM,2024,127.254645044479,18.364292454618
$GPGGA,060640.00,3359.2715,N,11931.0774,W,1,09,1.0,11.4,M,-33.6,M,,*6F
$PYRTM,2024,127.254656622940,18.364304033079
$GPGGA,060641.00,3359.2705,N,11931.0773,W,1,09,1.0,11.5,M,-33.6,M,,*69
$PYRTM,2024,127.254664032731,18.364311442870
$GPGGA,060642.00,3359.2697,N,11931.0777,W,1,09,1.0,11.6,M,-33.6,M,,*67
$PYRTM,2024,127.254679772095,18.364327182234
$GPGGA,060643.00,3359.2690,N,11931.0784,W,1,09,1.0,11.9,M,-33.6,M,,*62
$PYRTM,2024,127.254691346331,18.364338756481
$GPGGA,060644.00,3359.2681,N,11931.0788,W,1,09,1.0,12.2,M,-33.6,M,,*61
$PYRTM,2024,127.254702919745,18.364350329884
$GPGGA,060645.00,3359.2670,N,11931.0790,W,1,09,1.0,12.0,M,-33.6,M,,*65
$PYRTM,2024,127.254714494248,18.364361904387
$GPGGA,060646.00,3359.2661,N,11931.0791,W,1,09,1.0,11.5,M,-33.6,M,,*61
$PYRTM,2024,127.254721889120,18.364369299259
$GPGGA,060647.00,3359.2653,N,11931.0795,W,1,09,1.0,11.5,M,-33.6,M,,*65
$PYRTM,2024,127.254737642546,18.364385052685
$GPGGA,060648.00,3359.2645,N,11931.0800,W,1,09,1.0,11.6,M,-33.6,M,,*6D
$PYRTM,2024,127.254749230243,18.364396640382
$GPGGA,060649.00,3359.2637,N,11931.0805,W,1,09,1.0,11.6,M,-33.6,M,,*6C
$PYRTM,2024,127.254760790926,18.364408201065
$GPGGA,060650.00,3359.2626,N,11931.0808,W,1,09,1.0,11.3,M,-33.6,M,,*6C
$PYRTM,2024,127.254772367280,18.364419777419
$GPGGA,060651.00,3359.2618,N,11931.0811,W,1,09,1.0,11.1,M,-33.6,M,,*6A
$PYRTM,2024,127.254783938692,18.364431348831
$GPGGA,060652.00,3359.2609,N,11931.0814,W,1,09,1.0,11.1,M,-33.6,M,,*6C
$PYRTM,2024,127.254795526412,18.364442936551
$GPGGA,060653.00,3359.2601,N,11931.0818,W,1,09,1.0,11.0,M,-33.6,M,,*68
$PYRTM,2024,127.254807086331,18.364454496470
$GPGGA,060654.00,3359.2591,N,11931.0823,W,1,09,1.0,10.7,M,-33.6,M,,*6B
$PYRTM,2024,127.254818661678,18.364466071817
$GPGGA,060655.00,3359.2582,N,11931.0827,W,1,09,1.0,10.4,M,-33.6,M,,*6F
$PYRTM,2024,127.254830234699,18.364477644838
$GPGGA,060656.00,3359.2574,N,11931.0830,W,1,09,1.0,10.4,M,-33.6,M,,*63
$PYRTM,2024,127.254837630509,18.364485040648
$GPGGA,060657.00,3359.2566,N,11931.0833,W,1,09,1.0,10.5,M,-33.6,M,,*63
$PYRTM,2024,127.254856263981,18.364503674120
$GPGGA,060658.00,3359.2556,N,11931.0836,W,1,09,1.0,10.4,M,-33.6,M,,*6B
$PYRTM,2024,127.254864960127,18.364512370266
$GPGGA,060659.00,3359.2547,N,11931.0842,W,1,09,1.0,10.1,M,-33.6,M,,*6C
$PYRTM,2024,127.254876532743,18.364523942882
$GPGGA,060700.00,3359.2540,N,11931.0847,W,1,09,1.0,10.0,M,-33.6,M,,*62
$PYRTM,2024,127.254888106053,18.364535516192
$GPGGA,060701.00,3359.2533,N,11931.0849,W,1,09,1.0,10.2,M,-33.6,M,,*6B
$PYRTM,2024,127.254899680556,18.364547090694
$GPGGA,060702.00,3359.2523,N,11931.0853,W,1,09,1.0,9.6,M,-33.6,M,,*5E
$PYRTM,2024,127.254911254525,18.364558664664
$GPGGA,060703.00,3359.2514,N,11931.0857,W,1,09,1.0,9.6,M,-33.6,M,,*5F
$PYRTM,2024,127.254918651597,18.364566061736
$GPGGA,060704.00,3359.2506,N,11931.0863,W,1,09,1.0,9.8,M,-33.6,M,,*52
$PYRTM,2024,127.254930340093,18.364577750231
$GPGGA,060705.00,3359.2499,N,11931.0867,W,1,09,1.0,9.8,M,-33.6,M,,*50
$PYRTM,2024,127.254945977778,18.364593387917
$GPGGA,060706.00,3359.2490,N,11931.0870,W,1,09,1.0,9.7,M,-33.6,M,,*53
$PYRTM,2024,127.254957566528,18.364604976667
$GPGGA,060707.00,3359.2480,N,11931.0873,W,1,09,1.0,9.6,M,-33.6,M,,*51
$PYRTM,2024,127.254969126215,18.364616536354
$GPGGA,060708.00,3359.2470,N,11931.0878,W,1,09,1.0,9.3,M,-33.6,M,,*5F
$PYRTM,2024,127.254980704109,18.364628114248
$GPGGA,060709.00,3359.2462,N,11931.0885,W,1,09,1.0,9.3,M,-33.6,M,,*5F
$PYRTM,2024,127.254988111586,18.364635521725
$GPGGA,060710.00,3359.2455,N,11931.0890,W,1,09,1.0,9.6,M,-33.6,M,,*52
$PYRTM,2024,127.255003847801,18.364651257940
$GPGGA,060711.00,3359.2447,N,11931.0892,W,1,09,1.0,10.0,M,-33.6,M,,*6C
$PYRTM,2024,127.255015421782,18.364662831921
$GPGGA,060712.00,3359.2436,N,11931.0894,W,1,09,1.0,10.0,M,-33.6,M,,*6F
$PYRTM,2024,127.255022816597,18.364670226748
$GPGGA,060713.00,3359.2427,N,11931.0899,W,1,09,1.0,10.7,M,-33.6,M,,*64
$PYRTM,2024,127.255038566250,18.364685976389
$GPGGA,060714.00,3359.2420,N,11931.0905,W,1,09,1.0,10.5,M,-33.6,M,,*62
$PYRTM,2024,127.255050144236,18.364697554375
$GPGGA,060715.00,3359.2413,N,11931.0910,W,1,09,1.0,10.4,M,-33.6,M,,*66
$PYRTM,2024,127.255061713762,18.364709123900
$GPGGA,060716.00,3359.2404,N,11931.0913,W,1,09,1.0,10.5,M,-33.6,M,,*61
$PYRTM,2024,127.255073293935,18.364720704086
$GPGGA,060717.00,3359.2395,N,11931.0915,W,1,09,1.0,10.5,M,-33.6,M,,*69
$PYRTM,2024,127.255084866389,18.364732276539
$GPGGA,060718.00,3359.2385,N,11931.0920,W,1,09,1.0,10.4,M,-33.6,M,,*60
$PYRTM,2024,127.255096441632,18.364743851782
$GPGGA,060719.00,3359.2377,N,11931.0928,W,1,09,1.0,10.1,M,-33.6,M,,*61
$PYRTM,2024,127.255108009965,18.364755420104
$GPGGA,060720.00,3359.2370,N,11931.0935,W,1,09,1.0,10.4,M,-33.6,M,,*65
$PYRTM,2024,127.255119592500,18.364767002639
$GPGGA,060721.00,3359.2363,N,11931.0938,W,1,09,1.0,10.8,M,-33.6,M,,*67
$PYRTM,2024,127.255126984178,18.364774394317
$GPGGA,060722.00,3359.2353,N,11931.0940,W,1,09,1.0,10.5,M,-33.6,M,,*65
$PYRTM,2024,127.255138673484,18.364786083623
$GPGGA,060723.00,3359.2342,N,11931.0945,W,1,09,1.0,10.8,M,-33.6,M,,*6C
$PYRTM,2024,127.255154311725,18.364801721875
$GPGGA,060724.00,3359.2334,N,11931.0951,W,1,09,1.0,10.7,M,-33.6,M,,*60
$PYRTM,2024,127.255161706447,18.364809116586
$GPGGA,060725.00,3359.2327,N,11931.0959,W,1,09,1.0,10.7,M,-33.6,M,,*6B
$PYRTM,2024,127.255173410451,18.364820820590
$GPGGA,060726.00,3359.2318,N,11931.0965,W,1,09,1.0,10.4,M,-33.6,M,,*68
$PYRTM,2024,127.255189035845,18.364836445984
$GPGGA,060727.00,3359.2309,N,11931.0968,W,1,09,1.0,10.7,M,-33.6,M,,*67
$PYRTM,2024,127.255196443796,18.364843853935
$GPGGA,060728.00,3359.2301,N,11931.0970,W,1,09,1.0,10.2,M,-33.6,M,,*6C
$PYRTM,2024,127.255215077523,18.364862487662
$GPGGA,060729.00,3359.2294,N,11931.0974,W,1,09,1.0,10.3,M,-33.6,M,,*65
$PYRTM,2024,127.255223755833,18.364871165972
$GPGGA,060730.00,3359.2285,N,11931.0979,W,1,09,1.0,10.8,M,-33.6,M,,*6B
$PYRTM,2024,127.255235330694,18.364882740833
$GPGGA,060731.00,3359.2277,N,11931.0986,W,1,09,1.0,10.3,M,-33.6,M,,*6C
$PYRTM,2024,127.255246905394,18.364894315532
$GPGGA,060732.00,3359.2270,N,11931.0991,W,1,09,1.0,9.8,M,-33.6,M,,*5D
$PYRTM,2024,127.255258478866,18.364905889005
$GPGGA,060733.00,3359.2263,N,11931.0993,W,1,09,1.0,9.8,M,-33.6,M,,*5C
$PYRTM,2024,127.255270052407,18.364917462546
$GPGGA,060734.00,3359.2255,N,11931.0995,W,1,09,1.0,10.3,M,-33.6,M,,*6B
$PYRTM,2024,127.255281627164,18.364929037303
$GPGGA,060735.00,3359.2247,N,11931.1000,W,1,09,1.0,10.7,M,-33.6,M,,*69
$PYRTM,2024,127.255293201609,18.364940611748
$GPGGA,060736.00,3359.2238,N,11931.1006,W,1,09,1.0,10.7,M,-33.6,M,,*64
$PYRTM,2024,127.255304789676,18.364952199815
$GPGGA,060737.00,3359.2229,N,11931.1013,W,1,09,1.0,10.5,M,-33.6,M,,*63
$PYRTM,2024,127.255316351655,18.364963761794
$GPGGA,060738.00,3359.2221,N,11931.1019,W,1,09,1.0,9.8,M,-33.6,M,,*5B
$PYRTM,2024,127.255327927280,18.364975337419
$GPGGA,060739.00,3359.2214,N,11931.1025,W,1,09,1.0,9.9,M,-33.6,M,,*52
$PYRTM,2024,127.255339497975,18.364986908113
$GPGGA,060740.00,3359.2206,N,11931.1030,W,1,09,1.0,9.7,M,-33.6,M,,*55
$PYRTM,2024,127.255351072350,18.364998482488
$GPGGA,060741.00,3359.2198,N,11931.1036,W,1,09,1.0,10.1,M,-33.6,M,,*68
$PYRTM,2024,127.255362645995,18.365010056146
$GPGGA,060742.00,3359.2190,N,11931.1042,W,1,09,1.0,10.5,M,-33.6,M,,*64
$PYRTM,2024,127.255374221667,18.365021631806
$GPGGA,060743.00,3359.2182,N,11931.1049,W,1,09,1.0,10.1,M,-33.6,M,,*69
$PYRTM,2024,127.255385795000,18.365033205139
$GPGGA,060744.00,3359.2174,N,11931.1057,W,1,09,1.0,9.8,M,-33.6,M,,*59
$PYRTM,2024,127.255397368958,18.365044779097
$GPGGA,060745.00,3359.2168,N,11931.1063,W,1,09,1.0,9.9,M,-33.6,M,,*53
$PYRTM,2024,127.255408943924,18.365056354063
$GPGGA,060746.00,3359.2162,N,11931.1069,W,1,09,1.0,10.0,M,-33.6,M,,*61
$PYRTM,2024,127.255420517824,18.365067927963
$GPGGA,060747.00,3359.2155,N,11931.1075,W,1,09,1.0,10.3,M,-33.6,M,,*6A
$PYRTM,2024,127.255432091273,18.365079501412
$GPGGA,060748.00,3359.2148,N,11931.1081,W,1,09,1.0,10.8,M,-33.6,M,,*69
$PYRTM,2024,127.255443666227,18.365091076366
$GPGGA,060749.00,3359.2141,N,11931.1088,W,1,09,1.0,10.9,M,-33.6,M,,*69
$PYRTM,2024,127.255455239329,18.365102649468
$GPGGA,060750.00,3359.2134,N,11931.1097,W,1,09,1.0,11.1,M,-33.6,M,,*64
$PYRTM,2024,127.255466814259,18.365114224398
$GPGGA,060751.00,3359.2128,N,11931.1105,W,1,09,1.0,11.1,M,-33.6,M,,*62
$PYRTM,2024,127.255478387627,18.365125797766
$GPGGA,060752.00,3359.2121,N,11931.1111,W,1,09,1.0,11.0,M,-33.6,M,,*6C
$PYRTM,2024,127.255489975961,18.365137386100
$GPGGA,060753.00,3359.2114,N,11931.1116,W,1,09,1.0,11.2,M,-33.6,M,,*6E
$PYRTM,2024,127.255501532488,18.365148942627
$GPGGA,060754.00,3359.2107,N,11931.1125,W,1,09,1.0,11.1,M,-33.6,M,,*68
$PYRTM,2024,127.255513113264,18.365160523403
$GPGGA,060755.00,3359.2102,N,11931.1134,W,1,09,1.0,10.9,M,-33.6,M,,*65
$PYRTM,2024,127.255524683657,18.365172093796
$GPGGA,060756.00,3359.2096,N,11931.1140,W,1,09,1.0,10.9,M,-33.6,M,,*69
$PYRTM,2024,127.255536258924,18.365183669062
$GPGGA,060757.00,3359.2090,N,11931.1146,W,1,09,1.0,11.1,M,-33.6,M,,*61
$PYRTM,2024,127.255547829028,18.365195239167
$GPGGA,060758.00,3359.2082,N,11931.1153,W,1,09,1.0,10.9,M,-33.6,M,,*60
$PYRTM,2024,127.255555227083,18.365202637222
$GPGGA,060759.00,3359.2076,N,11931.1161,W,1,09,1.0,10.6,M,-33.6,M,,*64
$PYRTM,2024,127.255573862060,18.365221272199
$GPGGA,060800.00,3359.2071,N,11931.1169,W,1,09,1.0,10.6,M,-33.6,M,,*68
$PYRTM,2024,127.255582555660,18.365229965799
$GPGGA,060801.00,3359.2065,N,11931.1176,W,1,09,1.0,10.7,M,-33.6,M,,*63
$PYRTM,2024,127.255589950382,18.365237360521
$GPGGA,060802.00,3359.2057,N,11931.1183,W,1,09,1.0,10.5,M,-33.6,M,,*69
$PYRTM,2024,127.255605705324,18.365253115463
$GPGGA,060803.00,3359.2049,N,11931.1191,W,1,09,1.0,10.2,M,-33.6,M,,*63
$PYRTM,2024,127.255617277014,18.365264687153
$GPGGA,060804.00,3359.2043,N,11931.1199,W,1,09,1.0,10.0,M,-33.6,M,,*64
$PYRTM,2024,127.255628855116,18.365276265255
$GPGGA,060805.00,3359.2037,N,11931.1207,W,1,09,1.0,10.1,M,-33.6,M,,*63
$PYRTM,2024,127.255640425868,18.365287836019
$GPGGA,060806.00,3359.2031,N,11931.1214,W,1,09,1.0,10.4,M,-33.6,M,,*61
$PYRTM,2024,127.255652001343,18.365299411481
$GPGGA,060807.00,3359.2023,N,11931.1221,W,1,09,1.0,10.5,M,-33.6,M,,*64
$PYRTM,2024,127.255663574514,18.365310984653
$GPGGA,060808.00,3359.2016,N,11931.1230,W,1,09,1.0,10.1,M,-33.6,M,,*69
$PYRTM,2024,127.255675162650,18.365322572789
$GPGGA,060809.00,3359.2009,N,11931.1238,W,1,09,1.0,10.0,M,-33.6,M,,*6F
$PYRTM,2024,127.255686723275,18.365334133414
$GPGGA,060810.00,3359.2004,N,11931.1244,W,1,09,1.0,10.4,M,-33.6,M,,*65
$PYRTM,2024,127.255698311748,18.365345721887
$GPGGA,060811.00,3359.1998,N,11931.1251,W,1,09,1.0,11.1,M,-33.6,M,,*6B
$PYRTM,2024,127.255705692326,18.365353102465
$GPGGA,060812.00,3359.1991,N,11931.1261,W,1,09,1.0,10.0,M,-33.6,M,,*62
$PYRTM,2024,127.255721447755,18.365368857894
$GPGGA,060813.00,3359.1984,N,11931.1271,W,1,09,1.0,9.1,M,-33.6,M,,*5F
$PYRTM,2024,127.255733019363,18.365380429502
$GPGGA,060814.00,3359.1980,N,11931.1278,W,1,09,1.0,9.0,M,-33.6,M,,*54
$PYRTM,2024,127.255740413600,18.365387823738
$GPGGA,060815.00,3359.1975,N,11931.1283,W,1,09,1.0,9.1,M,-33.6,M,,*5A
$PYRTM,2024,127.255756168438,18.365403578576
$GPGGA,060816.00,3359.1969,N,11931.1291,W,1,09,1.0,9.5,M,-33.6,M,,*53
$PYRTM,2024,127.255767743021,18.365415153160
$GPGGA,060817.00,3359.1961,N,11931.1301,W,1,09,1.0,8.1,M,-33.6,M,,*57
$PYRTM,2024,127.255779313958,18.365426724097
$GPGGA,060818.00,3359.1956,N,11931.1310,W,1,09,1.0,9.2,M,-33.6,M,,*5E
$PYRTM,2024,127.255790890833,18.365438300972
$GPGGA,060819.00,3359.1951,N,11931.1317,W,1,09,1.0,9.5,M,-33.6,M,,*58
$PYRTM,2024,127.255802459271,18.365449869410
$GPGGA,060820.00,3359.1946,N,11931.1324,W,1,09,1.0,9.5,M,-33.6,M,,*54
$PYRTM,2024,127.255814033426,18.365461443565
$GPGGA,060821.00,3359.1940,N,11931.1333,W,1,09,1.0,9.8,M,-33.6,M,,*58
$PYRTM,2024,127.255825612986,18.365473023125
$GPGGA,060822.00,3359.1933,N,11931.1341,W,1,09,1.0,9.7,M,-33.6,M,,*55
$PYRTM,2024,127.255837186910,18.365484597049
$GPGGA,060823.00,3359.1927,N,11931.1350,W,1,09,1.0,9.3,M,-33.6,M,,*55
$PYRTM,2024,127.255848760313,18.365496170451
$GPGGA,060824.00,3359.1921,N,11931.1360,W,1,09,1.0,9.5,M,-33.6,M,,*51
$PYRTM,2024,127.255860337975,18.365507748113
$GPGGA,060825.00,3359.1917,N,11931.1368,W,1,09,1.0,9.8,M,-33.6,M,,*50
$PYRTM,2024,127.255871908912,18.365519319051
$GPGGA,060826.00,3359.1911,N,11931.1375,W,1,09,1.0,10.4,M,-33.6,M,,*6D
$PYRTM,2024,127.255883487072,18.365530897211
$GPGGA,060827.00,3359.1905,N,11931.1383,W,1,09,1.0,9.8,M,-33.6,M,,*54
$PYRTM,2024,127.255895057234,18.365542467373
$GPGGA,060828.00,3359.1897,N,11931.1393,W,1,09,1.0,9.7,M,-33.6,M,,*5F
$PYRTM,2024,127.255906631609,18.365554041748
$GPGGA,060829.00,3359.1891,N,11931.1403,W,1,09,1.0,9.9,M,-33.6,M,,*58
$PYRTM,2024,127.255914041921,18.365561452060
$GPGGA,060830.00,3359.1887,N,11931.1411,W,1,09,1.0,10.4,M,-33.6,M,,*61
$PYRTM,2024,127.255932674688,18.365580084838
$GPGGA,060831.00,3359.1882,N,11931.1418,W,1,09,1.0,11.0,M,-33.6,M,,*69
$PYRTM,2024,127.255941353380,18.365588763519
$GPGGA,060832.00,3359.1875,N,11931.1426,W,1,09,1.0,11.6,M,-33.6,M,,*69
$PYRTM,2024,127.255952928542,18.365600338681
$GPGGA,060833.00,3359.1868,N,11931.1435,W,1,09,1.0,11.4,M,-33.6,M,,*64
$PYRTM,2024,127.255960322118,18.365607732257
$GPGGA,060834.00,3359.1864,N,11931.1445,W,1,09,1.0,11.0,M,-33.6,M,,*6C
$PYRTM,2024,127.255972013171,18.365619423310
$GPGGA,060835.00,3359.1860,N,11931.1454,W,1,09,1.0,10.9,M,-33.6,M,,*61
$PYRTM,2024,127.255987649907,18.365635060046
