$PYRTM,2024,127.666670445139,18.776317855278
$GPGGA,155959.00,3338.9370,N,11858.2945,W,1,11,0.8,10.3,M,-34.0,M,,*63
$PYRTM,2024,127.666682021400,18.776329431539
$GPGGA,160000.00,3338.9369,N,11858.2951,W,1,11,0.8,10.4,M,-34.0,M,,*6A
$PYRTM,2024,127.666693593634,18.776341003773
$GPGGA,160001.00,3338.9367,N,11858.2959,W,1,11,0.8,10.4,M,-34.0,M,,*6D
$PYRTM,2024,127.666705168981,18.776352579132
$GPGGA,160002.00,3338.9367,N,11858.2968,W,1,11,0.8,10.3,M,-34.0,M,,*6B
$PYRTM,2024,127.666712576528,18.776359986678
$GPGGA,160003.00,3338.9368,N,11858.2973,W,1,11,0.8,10.3,M,-34.0,M,,*6F
$PYRTM,2024,127.666728318275,18.776375728414
$GPGGA,160004.00,3338.9370,N,11858.2978,W,1,11,0.8,10.4,M,-34.0,M,,*6D
$PYRTM,2024,127.666739891366,18.776387301505
$GPGGA,160005.00,3338.9370,N,11858.2985,W,1,11,0.8,10.5,M,-34.0,M,,*6F
$PYRTM,2024,127.666751460463,18.776398870613
$GPGGA,160006.00,3338.9369,N,11858.2993,W,1,11,0.8,10.5,M,-34.0,M,,*63
$PYRTM,2024,127.666763038831,18.776410448981
$GPGGA,160007.00,3338.9368,N,11858.3000,W,1,11,0.8,10.7,M,-34.0,M,,*63
$PYRTM,2024,127.666774616227,18.776422026377
$GPGGA,160008.00,3338.9369,N,11858.3007,W,1,11,0.8,10.9,M,-34.0,M,,*64
$PYRTM,2024,127.666786182350,18.776433592488
$GPGGA,160009.00,3338.9370,N,11858.3014,W,1,11,0.8,11.0,M,-34.0,M,,*67
$PYRTM,2024,127.666797764456,18.776445174595
$GPGGA,160010.00,3338.9370,N,11858.3020,W,1,11,0.8,11.2,M,-34.0,M,,*6A
$PYRTM,2024,127.666809334873,18.776456745023
$GPGGA,160011.00,3338.9369,N,11858.3026,W,1,11,0.8,11.5,M,-34.0,M,,*62
$PYRTM,2024,127.666820904398,18.776468314537
$GPGGA,160012.00,3338.9368,N,11858.3033,W,1,11,0.8,11.8,M,-34.0,M,,*69
$PYRTM,2024,127.666828320104,18.776475730243
$GPGGA,160013.00,3338.9367,N,11858.3042,W,1,11,0.8,11.7,M,-34.0,M,,*6E
$PYRTM,2024,127.666844057975,18.776491468125
$GPGGA,160014.00,3338.9367,N,11858.3050,W,1,11,0.8,11.5,M,-34.0,M,,*68
$PYRTM,2024,127.666855631262,18.776503041400
$GPGGA,160015.00,3338.9366,N,11858.3055,W,1,11,0.8,11.4,M,-34.0,M,,*6C
$PYRTM,2024,127.666867205810,18.776514615949
$GPGGA,160016.00,3338.9367,N,11858.3061,W,1,11,0.8,11.4,M,-34.0,M,,*69
$PYRTM,2024,127.666878774977,18.776526185116
$GPGGA,160017.00,3338.9367,N,11858.3069,W,1,11,0.8,11.5,M,-34.0,M,,*61
$PYRTM,2024,127.666890356458,18.776537766597
$GPGGA,160018.00,3338.9366,N,11858.3078,W,1,11,0.8,11.7,M,-34.0,M,,*6D
$PYRTM,2024,127.666901928113,18.776549338252
$GPGGA,160019.00,3338.9363,N,11858.3086,W,1,11,0.8,11.8,M,-34.0,M,,*67
$PYRTM,2024,127.666913504271,18.776560914410
$GPGGA,160020.00,3338.9362,N,11858.3093,W,1,11,0.8,11.9,M,-34.0,M,,*69
$PYRTM,2024,127.666925077211,18.776572487350
$GPGGA,160021.00,3338.9363,N,11858.3099,W,1,11,0.8,12.2,M,-34.0,M,,*6B
$PYRTM,2024,127.666932476296,18.776579886435
$GPGGA,160022.00,3338.9365,N,11858.3107,W,1,11,0.8,12.3,M,-34.0,M,,*69
$PYRTM,2024,127.666951107002,18.776598517153
$GPGGA,160023.00,3338.9366,N,11858.3115,W,1,11,0.8,12.2,M,-34.0,M,,*69
$PYRTM,2024,127.666959802662,18.776607212813
$GPGGA,160024.00,3338.9364,N,11858.3121,W,1,11,0.8,12.4,M,-34.0,M,,*6D
$PYRTM,2024,127.666971373484,18.776618783623
$GPGGA,160025.00,3338.9363,N,11858.3125,W,1,11,0.8,12.7,M,-34.0,M,,*6C
$PYRTM,2024,127.666982950440,18.776630360579
$GPGGA,160026.00,3338.9363,N,11858.3131,W,1,11,0.8,12.8,M,-34.0,M,,*65
$PYRTM,2024,127.666994520972,18.776641931111
$GPGGA,160027.00,3338.9366,N,11858.3140,W,1,11,0.8,12.5,M,-34.0,M,,*6A
$PYRTM,2024,127.667001917269,18.776649327407
$GPGGA,160028.00,3338.9367,N,11858.3148,W,1,11,0.8,12.1,M,-34.0,M,,*68
$PYRTM,2024,127.667017665208,18.776665075347
$GPGGA,160029.00,3338.9365,N,11858.3153,W,1,11,0.8,11.9,M,-34.0,M,,*6A
$PYRTM,2024,127.667029244190,18.776676654329
$GPGGA,160030.00,3338.9363,N,11858.3157,W,1,11,0.8,11.9,M,-34.0,M,,*60
$PYRTM,2024,127.667040818681,18.776688228819
$GPGGA,160031.00,3338.9362,N,11858.3163,W,1,11,0.8,12.1,M,-34.0,M,,*6C
$PYRTM,2024,127.667052395370,18.776699805509
$GPGGA,160032.00,3338.9363,N,11858.3171,W,1,11,0.8,12.2,M,-34.0,M,,*6E
$PYRTM,2024,127.667059786979,18.776707197118
$GPGGA,160033.00,3338.9365,N,11858.3180,W,1,11,0.8,12.0,M,-34.0,M,,*65
$PYRTM,2024,127.667075540220,18.776722950359
$GPGGA,160034.00,3338.9363,N,11858.3187,W,1,11,0.8,12.2,M,-34.0,M,,*61
$PYRTM,2024,127.667082936366,18.776730346516
$GPGGA,160035.00,3338.9360,N,11858.3193,W,1,11,0.8,12.6,M,-34.0,M,,*62
$PYRTM,2024,127.667098688669,18.776746098808
$GPGGA,160036.00,3338.9358,N,11858.3199,W,1,11,0.8,12.5,M,-34.0,M,,*63
$PYRTM,2024,127.667110262407,18.776757672546
$GPGGA,160037.00,3338.9360,N,11858.3207,W,1,11,0.8,12.5,M,-34.0,M,,*6D
$PYRTM,2024,127.667121839618,18.776769249757
$GPGGA,160038.00,3338.9363,N,11858.3215,W,1,11,0.8,12.5,M,-34.0,M,,*62
$PYRTM,2024,127.667133411157,18.776780821296
$GPGGA,160039.00,3338.9363,N,11858.3222,W,1,11,0.8,12.7,M,-34.0,M,,*65
$PYRTM,2024,127.667140806806,18.776788216944
$GPGGA,160040.00,3338.9361,N,11858.3229,W,1,11,0.8,13.0,M,-34.0,M,,*64
$PYRTM,2024,127.667156559583,18.776803969722
$GPGGA,160041.00,3338.9360,N,11858.3235,W,1,11,0.8,13.1,M,-34.0,M,,*68
$PYRTM,2024,127.667168134502,18.776815544641
$GPGGA,160042.00,3338.9362,N,11858.3242,W,1,11,0.8,13.2,M,-34.0,M,,*6A
$PYRTM,2024,127.667179707442,18.776827117581
$GPGGA,160043.00,3338.9364,N,11858.3250,W,1,11,0.8,13.0,M,-34.0,M,,*6C
$PYRTM,2024,127.667191285451,18.776838695590
$GPGGA,160044.00,3338.9364,N,11858.3257,W,1,11,0.8,12.9,M,-34.0,M,,*64
$PYRTM,2024,127.667202851644,18.776850261782
$GPGGA,160045.00,3338.9363,N,11858.3264,W,1,11,0.8,12.6,M,-34.0,M,,*6D
$PYRTM,2024,127.667214430625,18.776861840764
$GPGGA,160046.00,3338.9362,N,11858.3272,W,1,11,0.8,12.3,M,-34.0,M,,*6D
$PYRTM,2024,127.667221826007,18.776869236146
$GPGGA,160047.00,3338.9363,N,11858.3280,W,1,11,0.8,12.2,M,-34.0,M,,*61
$PYRTM,2024,127.667237579803,18.776884989954
$GPGGA,160048.00,3338.9364,N,11858.3287,W,1,11,0.8,12.3,M,-34.0,M,,*6F
$PYRTM,2024,127.667249151609,18.776896561748
$GPGGA,160049.00,3338.9364,N,11858.3294,W,1,11,0.8,12.5,M,-34.0,M,,*6A
$PYRTM,2024,127.667260721620,18.776908131759
$GPGGA,160050.00,3338.9364,N,11858.3301,W,1,11,0.8,12.6,M,-34.0,M,,*6C
$PYRTM,2024,127.667272300370,18.776919710509
$GPGGA,160051.00,3338.9363,N,11858.3310,W,1,11,0.8,12.6,M,-34.0,M,,*6A
$PYRTM,2024,127.667279696227,18.776927106366
$GPGGA,160052.00,3338.9362,N,11858.3317,W,1,11,0.8,12.5,M,-34.0,M,,*6C
$PYRTM,2024,127.667291386076,18.776938796215
$GPGGA,160053.00,3338.9364,N,11858.3324,W,1,11,0.8,12.5,M,-34.0,M,,*6B
$PYRTM,2024,127.667309920289,18.776957330440
$GPGGA,160054.00,3338.9364,N,11858.3331,W,1,11,0.8,12.6,M,-34.0,M,,*6B
$PYRTM,2024,127.667318597454,18.776966007604
$GPGGA,160055.00,3338.9363,N,11858.3338,W,1,11,0.8,12.9,M,-34.0,M,,*6B
$PYRTM,2024,127.667330172106,18.776977582245
$GPGGA,160056.00,3338.9362,N,11858.3345,W,1,11,0.8,13.2,M,-34.0,M,,*69
$PYRTM,2024,127.667337579340,18.776984989479
$GPGGA,160057.00,3338.9362,N,11858.3352,W,1,11,0.8,13.5,M,-34.0,M,,*69
$PYRTM,2024,127.667353319433,18.777000729572
$GPGGA,160058.00,3338.9362,N,11858.3361,W,1,11,0.8,13.6,M,-34.0,M,,*65
$PYRTM,2024,127.667364888947,18.777012299086
$GPGGA,160059.00,3338.9362,N,11858.3369,W,1,11,0.8,12.3,M,-34.0,M,,*68
$PYRTM,2024,127.667376483368,18.777023893507
$GPGGA,160100.00,3338.9360,N,11858.3376,W,1,11,0.8,12.0,M,-34.0,M,,*6A
$PYRTM,2024,127.667388042431,18.777035452569
$GPGGA,160101.00,3338.9358,N,11858.3382,W,1,11,0.8,12.2,M,-34.0,M,,*69
$PYRTM,2024,127.667399616262,18.777047026400
$GPGGA,160102.00,3338.9359,N,11858.3389,W,1,11,0.8,12.1,M,-34.0,M,,*63
$PYRTM,2024,127.667411187963,18.777058598102
$GPGGA,160103.00,3338.9360,N,11858.3398,W,1,11,0.8,12.1,M,-34.0,M,,*68
$PYRTM,2024,127.667422765243,18.777070175382
$GPGGA,160104.00,3338.9361,N,11858.3405,W,1,11,0.8,12.1,M,-34.0,M,,*6D
$PYRTM,2024,127.667434338160,18.777081748299
$GPGGA,160105.00,3338.9360,N,11858.3413,W,1,11,0.8,12.1,M,-34.0,M,,*6A
$PYRTM,2024,127.667445915868,18.777093326007
$GPGGA,160106.00,3338.9359,N,11858.3421,W,1,11,0.8,11.8,M,-34.0,M,,*68
$PYRTM,2024,127.667457481157,18.777104891296
$GPGGA,160107.00,3338.9358,N,11858.3429,W,1,11,0.8,12.0,M,-34.0,M,,*6B
$PYRTM,2024,127.667469075775,18.777116485914
$GPGGA,160108.00,3338.9359,N,11858.3435,W,1,11,0.8,12.7,M,-34.0,M,,*6F
$PYRTM,2024,127.667480637488,18.777128047627
$GPGGA,160109.00,3338.9361,N,11858.3441,W,1,11,0.8,12.9,M,-34.0,M,,*68
$PYRTM,2024,127.667488029745,18.777135439884
$GPGGA,160110.00,3338.9360,N,11858.3450,W,1,11,0.8,13.0,M,-34.0,M,,*69
$PYRTM,2024,127.667503782512,18.777151192650
$GPGGA,160111.00,3338.9357,N,11858.3460,W,1,11,0.8,12.8,M,-34.0,M,,*66
$PYRTM,2024,127.667515353102,18.777162763252
$GPGGA,160112.00,3338.9354,N,11858.3469,W,1,11,0.8,12.2,M,-34.0,M,,*65
$PYRTM,2024,127.667526928889,18.777174339028
$GPGGA,160113.00,3338.9355,N,11858.3476,W,1,11,0.8,12.5,M,-34.0,M,,*6C
$PYRTM,2024,127.667538505833,18.777185915972
$GPGGA,160114.00,3338.9356,N,11858.3482,W,1,11,0.8,12.3,M,-34.0,M,,*65
$PYRTM,2024,127.667545900220,18.777193310359
$GPGGA,160115.00,3338.9357,N,11858.3487,W,1,11,0.8,12.9,M,-34.0,M,,*6A
$PYRTM,2024,127.667561653866,18.777209064005
$GPGGA,160116.00,3338.9358,N,11858.3493,W,1,11,0.8,13.2,M,-34.0,M,,*69
$PYRTM,2024,127.667573223565,18.777220633704
$GPGGA,160117.00,3338.9356,N,11858.3504,W,1,11,0.8,12.6,M,-34.0,M,,*6C
$PYRTM,2024,127.667584803530,18.777232213669
$GPGGA,160118.00,3338.9355,N,11858.3512,W,1,11,0.8,13.2,M,-34.0,M,,*62
$PYRTM,2024,127.667596376620,18.777243786759
$GPGGA,160119.00,3338.9356,N,11858.3515,W,1,11,0.8,13.3,M,-34.0,M,,*66
$PYRTM,2024,127.667607951111,18.777255361262
$GPGGA,160120.00,3338.9359,N,11858.3518,W,1,11,0.8,13.3,M,-34.0,M,,*6E
$PYRTM,2024,127.667619525718,18.777266935856
$GPGGA,160121.00,3338.9360,N,11858.3527,W,1,11,0.8,13.4,M,-34.0,M,,*6E
$PYRTM,2024,127.667631101887,18.777278512025
$GPGGA,160122.00,3338.9359,N,11858.3540,W,1,11,0.8,13.1,M,-34.0,M,,*63
$PYRTM,2024,127.667642673484,18.777290083623
$GPGGA,160123.00,3338.9356,N,11858.3548,W,1,11,0.8,12.8,M,-34.0,M,,*6D
$PYRTM,2024,127.667650067558,18.777297477708
$GPGGA,160124.00,3338.9355,N,11858.3551,W,1,11,0.8,12.8,M,-34.0,M,,*61
$PYRTM,2024,127.667668702199,18.777316112338
$GPGGA,160125.00,3338.9358,N,11858.3555,W,1,11,0.8,12.9,M,-34.0,M,,*68
$PYRTM,2024,127.667677397523,18.777324807674
$GPGGA,160126.00,3338.9359,N,11858.3563,W,1,11,0.8,12.6,M,-34.0,M,,*60
$PYRTM,2024,127.667688964109,18.777336374248
$GPGGA,160127.00,3338.9358,N,11858.3573,W,1,11,0.8,11.9,M,-34.0,M,,*6D
$PYRTM,2024,127.667700543032,18.777347953171
$GPGGA,160128.00,3338.9355,N,11858.3581,W,1,11,0.8,11.2,M,-34.0,M,,*69
$PYRTM,2024,127.667712117639,18.777359527778
$GPGGA,160129.00,3338.9354,N,11858.3586,W,1,11,0.8,10.9,M,-34.0,M,,*64
$PYRTM,2024,127.667719512836,18.777366922986
$GPGGA,160130.00,3338.9355,N,11858.3590,W,1,11,0.8,11.1,M,-34.0,M,,*63
$PYRTM,2024,127.667735266308,18.777382676447
$GPGGA,160131.00,3338.9357,N,11858.3596,W,1,11,0.8,11.3,M,-34.0,M,,*64
$PYRTM,2024,127.667746841204,18.777394251343
$GPGGA,160132.00,3338.9358,N,11858.3603,W,1,11,0.8,11.4,M,-34.0,M,,*60
$PYRTM,2024,127.667758414630,18.777405824780
$GPGGA,160133.00,3338.9356,N,11858.3611,W,1,11,0.8,11.5,M,-34.0,M,,*6D
$PYRTM,2024,127.667769994421,18.777417404560
$GPGGA,160134.00,3338.9354,N,11858.3620,W,1,11,0.8,11.4,M,-34.0,M,,*6B
$PYRTM,2024,127.667781667188,18.777429077338
$GPGGA,160135.00,3338.9353,N,11858.3626,W,1,11,0.8,11.4,M,-34.0,M,,*6B
$PYRTM,2024,127.667793256146,18.777440666285
$GPGGA,160136.00,3338.9355,N,11858.3633,W,1,11,0.8,11.4,M,-34.0,M,,*6A
$PYRTM,2024,127.667800532882,18.777447943021
$GPGGA,160137.00,3338.9357,N,11858.3640,W,1,11,0.8,11.5,M,-34.0,M,,*6C
$PYRTM,2024,127.667816415266,18.777463825405
$GPGGA,160138.00,3338.9356,N,11858.3646,W,1,11,0.8,11.6,M,-34.0,M,,*67
$PYRTM,2024,127.667827962373,18.777475372523
$GPGGA,160139.00,3338.9353,N,11858.3653,W,1,11,0.8,11.6,M,-34.0,M,,*67
$PYRTM,2024,127.667839550995,18.777486961134
$GPGGA,160140.00,3338.9352,N,11858.3663,W,1,11,0.8,11.3,M,-34.0,M,,*6E
$PYRTM,2024,127.667851007998,18.777498418137
$GPGGA,160141.00,3338.9352,N,11858.3672,W,1,11,0.8,10.8,M,-34.0,M,,*65
$PYRTM,2024,127.667858402442,18.777505812593
$GPGGA,160142.00,3338.9353,N,11858.3678,W,1,11,0.8,10.6,M,-34.0,M,,*63
$PYRTM,2024,127.667874150336,18.777521560475
$GPGGA,160143.00,3338.9353,N,11858.3681,W,1,11,0.8,10.7,M,-34.0,M,,*65
$PYRTM,2024,127.667885731840,18.777533141979
$GPGGA,160144.00,3338.9352,N,11858.3687,W,1,11,0.8,10.8,M,-34.0,M,,*6A
$PYRTM,2024,127.667897303449,18.777544713588
$GPGGA,160145.00,3338.9351,N,11858.3696,W,1,11,0.8,10.6,M,-34.0,M,,*66
$PYRTM,2024,127.667908875961,18.777556286100
$GPGGA,160146.00,3338.9351,N,11858.3705,W,1,11,0.8,10.2,M,-34.0,M,,*6A
$PYRTM,2024,127.667920452303,18.777567862442
$GPGGA,160147.00,3338.9352,N,11858.3712,W,1,11,0.8,10.0,M,-34.0,M,,*6C
$PYRTM,2024,127.667932041759,18.777579451898
$GPGGA,160148.00,3338.9352,N,11858.3716,W,1,11,0.8,10.1,M,-34.0,M,,*66
$PYRTM,2024,127.667943599583,18.777591009722
$GPGGA,160149.00,3338.9352,N,11858.3723,W,1,11,0.8,10.2,M,-34.0,M,,*62
$PYRTM,2024,127.667950994444,18.777598404583
$GPGGA,160150.00,3338.9351,N,11858.3731,W,1,11,0.8,10.2,M,-34.0,M,,*6A
$PYRTM,2024,127.667966748634,18.777614158773
$GPGGA,160151.00,3338.9351,N,11858.3738,W,1,11,0.8,10.3,M,-34.0,M,,*63
$PYRTM,2024,127.667978323252,18.777625733391
$GPGGA,160152.00,3338.9352,N,11858.3741,W,1,11,0.8,10.4,M,-34.0,M,,*6A
$PYRTM,2024,127.667989896840,18.777637306979
$GPGGA,160153.00,3338.9352,N,11858.3747,W,1,11,0.8,10.5,M,-34.0,M,,*6C
$PYRTM,2024,127.668001467801,18.777648877940
$GPGGA,160154.00,3338.9350,N,11858.3757,W,1,11,0.8,10.2,M,-34.0,M,,*6F
$PYRTM,2024,127.668008882083,18.777656292234
$GPGGA,160155.00,3338.9348,N,11858.3765,W,1,11,0.8,9.7,M,-34.0,M,,*5B
$PYRTM,2024,127.668027514630,18.777674924769
$GPGGA,160156.00,3338.9349,N,11858.3770,W,1,11,0.8,9.8,M,-34.0,M,,*52
$PYRTM,2024,127.668036194236,18.777683604387
$GPGGA,160157.00,3338.9351,N,11858.3773,W,1,11,0.8,9.9,M,-34.0,M,,*58
$PYRTM,2024,127.668047768414,18.777695178553
$GPGGA,160158.00,3338.9352,N,11858.3779,W,1,11,0.8,10.0,M,-34.0,M,,*6F
$PYRTM,2024,127.668059344062,18.777706754213
$GPGGA,160159.00,3338.9351,N,11858.3788,W,1,11,0.8,10.0,M,-34.0,M,,*63
$PYRTM,2024,127.668070916030,18.777718326169
$GPGGA,160200.00,3338.9349,N,11858.3797,W,1,11,0.8,9.9,M,-34.0,M,,*5A
$PYRTM,2024,127.668082490648,18.777729900787
$GPGGA,160201.00,3338.9348,N,11858.3803,W,1,11,0.8,9.9,M,-34.0,M,,*58
$PYRTM,2024,127.668094064329,18.777741474468
$GPGGA,160202.00,3338.9350,N,11858.3810,W,1,11,0.8,10.0,M,-34.0,M,,*61
$PYRTM,2024,127.668105640046,18.777753050197
$GPGGA,160203.00,3338.9352,N,11858.3817,W,1,11,0.8,10.1,M,-34.0,M,,*64
$PYRTM,2024,127.668117227894,18.777764638032
$GPGGA,160204.00,3338.9351,N,11858.3823,W,1,11,0.8,10.3,M,-34.0,M,,*65
$PYRTM,2024,127.668124608565,18.777772018704
$GPGGA,160205.00,3338.9348,N,11858.3829,W,1,11,0.8,10.5,M,-34.0,M,,*60
$PYRTM,2024,127.668140375023,18.777787785162
$GPGGA,160206.00,3338.9346,N,11858.3836,W,1,11,0.8,10.4,M,-34.0,M,,*62
$PYRTM,2024,127.668151934444,18.777799344583
$GPGGA,160207.00,3338.9348,N,11858.3845,W,1,11,0.8,10.0,M,-34.0,M,,*6D
$PYRTM,2024,127.668163509745,18.777810919896
$GPGGA,160208.00,3338.9349,N,11858.3852,W,1,11,0.8,9.8,M,-34.0,M,,*55
$PYRTM,2024,127.668175085359,18.777822495498
$GPGGA,160209.00,3338.9350,N,11858.3857,W,1,11,0.8,9.9,M,-34.0,M,,*58
$PYRTM,2024,127.668182479062,18.777829889201
$GPGGA,160210.00,3338.9348,N,11858.3862,W,1,11,0.8,10.0,M,-34.0,M,,*6E
$PYRTM,2024,127.668198231944,18.777845642095
$GPGGA,160211.00,3338.9346,N,11858.3870,W,1,11,0.8,10.1,M,-34.0,M,,*63
$PYRTM,2024,127.668209805278,18.777857215417
$GPGGA,160212.00,3338.9345,N,11858.3878,W,1,11,0.8,10.0,M,-34.0,M,,*6A
$PYRTM,2024,127.668221375671,18.777868785810
$GPGGA,160213.00,3338.9346,N,11858.3885,W,1,11,0.8,9.9,M,-34.0,M,,*5B
$PYRTM,2024,127.668232954525,18.777880364664
$GPGGA,160214.00,3338.9347,N,11858.3892,W,1,11,0.8,9.9,M,-34.0,M,,*5B
$PYRTM,2024,127.668244528194,18.777891938333
$GPGGA,160215.00,3338.9347,N,11858.3899,W,1,11,0.8,10.1,M,-34.0,M,,*61
$PYRTM,2024,127.668256105613,18.777903515764
$GPGGA,160216.00,3338.9345,N,11858.3905,W,1,11,0.8,10.4,M,-34.0,M,,*61
$PYRTM,2024,127.668267676944,18.777915087083
$GPGGA,160217.00,3338.9344,N,11858.3912,W,1,11,0.8,10.7,M,-34.0,M,,*64
$PYRTM,2024,127.668279255069,18.777926665208
$GPGGA,160218.00,3338.9345,N,11858.3921,W,1,11,0.8,10.7,M,-34.0,M,,*6A
$PYRTM,2024,127.668290825243,18.777938235382
$GPGGA,160219.00,3338.9346,N,11858.3930,W,1,11,0.8,10.6,M,-34.0,M,,*69
$PYRTM,2024,127.668298219606,18.777945629745
$GPGGA,160220.00,3338.9347,N,11858.3937,W,1,11,0.8,10.5,M,-34.0,M,,*66
$PYRTM,2024,127.668313973032,18.777961383171
$GPGGA,160221.00,3338.9347,N,11858.3941,W,1,11,0.8,10.6,M,-34.0,M,,*65
$PYRTM,2024,127.668325548623,18.777972958762
$GPGGA,160222.00,3338.9346,N,11858.3946,W,1,11,0.8,10.8,M,-34.0,M,,*6E
$PYRTM,2024,127.668337120660,18.777984530799
$GPGGA,160223.00,3338.9346,N,11858.3955,W,1,11,0.8,10.7,M,-34.0,M,,*62
$PYRTM,2024,127.668348697743,18.777996107882
$GPGGA,160224.00,3338.9346,N,11858.3965,W,1,11,0.8,10.2,M,-34.0,M,,*63
$PYRTM,2024,127.668360270023,18.778007680162
$GPGGA,160225.00,3338.9347,N,11858.3971,W,1,11,0.8,9.9,M,-34.0,M,,*55
$PYRTM,2024,127.668367664572,18.778015074711
$GPGGA,160226.00,3338.9348,N,11858.3973,W,1,11,0.8,10.0,M,-34.0,M,,*6A
$PYRTM,2024,127.668386299630,18.778033709769
$GPGGA,160227.00,3338.9349,N,11858.3978,W,1,11,0.8,10.2,M,-34.0,M,,*63
$PYRTM,2024,127.668394992234,18.778042402373
$GPGGA,160228.00,3338.9348,N,11858.3988,W,1,11,0.8,10.0,M,-34.0,M,,*60
$PYRTM,2024,127.668406566169,18.778053976308
$GPGGA,160229.00,3338.9346,N,11858.3997,W,1,11,0.8,9.6,M,-34.0,M,,*5F
$PYRTM,2024,127.668413960220,18.778061370359
$GPGGA,160230.00,3338.9345,N,11858.4002,W,1,11,0.8,9.7,M,-34.0,M,,*57
$PYRTM,2024,127.668429715671,18.778077125810
$GPGGA,160231.00,3338.9346,N,11858.4006,W,1,11,0.8,10.0,M,-34.0,M,,*6E
$PYRTM,2024,127.668441302940,18.778088713079
$GPGGA,160232.00,3338.9348,N,11858.4012,W,1,11,0.8,10.2,M,-34.0,M,,*64
$PYRTM,2024,127.668452862315,18.778100272454
$GPGGA,160233.00,3338.9349,N,11858.4022,W,1,11,0.8,10.2,M,-34.0,M,,*67
$PYRTM,2024,127.668460256944,18.778107667083
$GPGGA,160234.00,3338.9347,N,11858.4030,W,1,11,0.8,9.7,M,-34.0,M,,*50
$PYRTM,2024,127.668471947512,18.778119357662
$GPGGA,160235.00,3338.9345,N,11858.4038,W,1,11,0.8,9.5,M,-34.0,M,,*59
$PYRTM,2024,127.668487586169,18.778134996319
$GPGGA,160236.00,3338.9345,N,11858.4043,W,1,11,0.8,9.6,M,-34.0,M,,*55
$PYRTM,2024,127.668499154213,18.778146564363
$GPGGA,160237.00,3338.9347,N,11858.4046,W,1,11,0.8,9.7,M,-34.0,M,,*52
$PYRTM,2024,127.668510728437,18.778158138576
$GPGGA,160238.00,3338.9349,N,11858.4052,W,1,11,0.8,9.9,M,-34.0,M,,*58
$PYRTM,2024,127.668522302373,18.778169712512
$GPGGA,160239.00,3338.9348,N,11858.4061,W,1,11,0.8,9.6,M,-34.0,M,,*57
$PYRTM,2024,127.668533881794,18.778181291933
$GPGGA,160240.00,3338.9346,N,11858.4071,W,1,11,0.8,8.8,M,-34.0,M,,*59
$PYRTM,2024,127.668545456215,18.778192866354
$GPGGA,160241.00,3338.9345,N,11858.4076,W,1,11,0.8,8.5,M,-34.0,M,,*51
$PYRTM,2024,127.668557029803,18.778204439942
$GPGGA,160242.00,3338.9347,N,11858.4078,W,1,11,0.8,8.7,M,-34.0,M,,*5C
$PYRTM,2024,127.668568603785,18.778216013924
$GPGGA,160243.00,3338.9349,N,11858.4084,W,1,11,0.8,8.9,M,-34.0,M,,*5E
$PYRTM,2024,127.668580192731,18.778227602870
$GPGGA,160244.00,3338.9351,N,11858.4093,W,1,11,0.8,8.9,M,-34.0,M,,*56
$PYRTM,2024,127.668587573206,18.778234983345
$GPGGA,160245.00,3338.9349,N,11858.4101,W,1,11,0.8,8.9,M,-34.0,M,,*54
$PYRTM,2024,127.668603329468,18.778250739618
$GPGGA,160246.00,3338.9346,N,11858.4106,W,1,11,0.8,9.0,M,-34.0,M,,*57
$PYRTM,2024,127.668614900880,18.778262311019
$GPGGA,160247.00,3338.9344,N,11858.4111,W,1,11,0.8,9.1,M,-34.0,M,,*53
$PYRTM,2024,127.668626478438,18.778273888576
$GPGGA,160248.00,3338.9345,N,11858.4119,W,1,11,0.8,9.2,M,-34.0,M,,*56
$PYRTM,2024,127.668638049502,18.778285459641
$GPGGA,160249.00,3338.9347,N,11858.4127,W,1,11,0.8,9.3,M,-34.0,M,,*59
$PYRTM,2024,127.668649622755,18.778297032894
$GPGGA,160250.00,3338.9346,N,11858.4133,W,1,11,0.8,9.3,M,-34.0,M,,*55
$PYRTM,2024,127.668661196817,18.778308606956
$GPGGA,160251.00,3338.9344,N,11858.4140,W,1,11,0.8,9.3,M,-34.0,M,,*52
$PYRTM,2024,127.668672771169,18.778320181308
$GPGGA,160252.00,3338.9343,N,11858.4147,W,1,11,0.8,9.5,M,-34.0,M,,*57
$PYRTM,2024,127.668684344815,18.778331754954
$GPGGA,160253.00,3338.9344,N,11858.4153,W,1,11,0.8,9.9,M,-34.0,M,,*58
$PYRTM,2024,127.668695918866,18.778343328993
$GPGGA,160254.00,3338.9346,N,11858.4160,W,1,11,0.8,10.3,M,-34.0,M,,*6F
$PYRTM,2024,127.668707493079,18.778354903218
$GPGGA,160255.00,3338.9347,N,11858.4167,W,1,11,0.8,10.3,M,-34.0,M,,*68
$PYRTM,2024,127.668719067187,18.778366477326
$GPGGA,160256.00,3338.9344,N,11858.4175,W,1,11,0.8,9.9,M,-34.0,M,,*59
$PYRTM,2024,127.668726462106,18.778373872245
$GPGGA,160257.00,3338.9342,N,11858.4181,W,1,11,0.8,9.8,M,-34.0,M,,*54
$PYRTM,2024,127.668745104560,18.778392514699
$GPGGA,160258.00,3338.9343,N,11858.4185,W,1,11,0.8,9.8,M,-34.0,M,,*5E
$PYRTM,2024,127.668753791551,18.778401201690
$GPGGA,160259.00,3338.9346,N,11858.4191,W,1,11,0.8,9.9,M,-34.0,M,,*5E
$PYRTM,2024,127.668765367373,18.778412777512
$GPGGA,160300.00,3338.9348,N,11858.4200,W,1,11,0.8,9.9,M,-34.0,M,,*56
$PYRTM,2024,127.668776939873,18.778424350012
$GPGGA,160301.00,3338.9346,N,11858.4207,W,1,11,0.8,9.9,M,-34.0,M,,*5E
$PYRTM,2024,127.668788536493,18.778435946632
$GPGGA,160302.00,3338.9343,N,11858.4211,W,1,11,0.8,10.2,M,-34.0,M,,*6C
$PYRTM,2024,127.668800081273,18.778447491412
$GPGGA,160303.00,3338.9341,N,11858.4215,W,1,11,0.8,10.6,M,-34.0,M,,*6F
$PYRTM,2024,127.668811660822,18.778459070961
$GPGGA,160304.00,3338.9343,N,11858.4223,W,1,11,0.8,10.8,M,-34.0,M,,*61
$PYRTM,2024,127.668819068553,18.778466478692
$GPGGA,160305.00,3338.9346,N,11858.4232,W,1,11,0.8,10.6,M,-34.0,M,,*6B
$PYRTM,2024,127.668834809271,18.778482219410
$GPGGA,160306.00,3338.9346,N,11858.4238,W,1,11,0.8,11.0,M,-34.0,M,,*65
$PYRTM,2024,127.668846382894,18.778493793032
$GPGGA,160307.00,3338.9343,N,11858.4243,W,1,11,0.8,11.3,M,-34.0,M,,*6E
$PYRTM,2024,127.668857967512,18.778505377650
$GPGGA,160308.00,3338.9340,N,11858.4249,W,1,11,0.8,11.5,M,-34.0,M,,*6E
$PYRTM,2024,127.668869531296,18.778516941435
$GPGGA,160309.00,3338.9341,N,11858.4258,W,1,11,0.8,11.4,M,-34.0,M,,*6F
$PYRTM,2024,127.668876925937,18.778524336076
$GPGGA,160310.00,3338.9343,N,11858.4266,W,1,11,0.8,11.3,M,-34.0,M,,*6F
$PYRTM,2024,127.668892679815,18.778540089954
$GPGGA,160311.00,3338.9344,N,11858.4271,W,1,11,0.8,11.5,M,-34.0,M,,*69
$PYRTM,2024,127.668904265486,18.778551675625
$GPGGA,160312.00,3338.9343,N,11858.4276,W,1,11,0.8,11.5,M,-34.0,M,,*6A
$PYRTM,2024,127.668915827176,18.778563237315
$GPGGA,160313.00,3338.9341,N,11858.4283,W,1,11,0.8,11.9,M,-34.0,M,,*6F
$PYRTM,2024,127.668927410000,18.778574820139
$GPGGA,160314.00,3338.9341,N,11858.4292,W,1,11,0.8,11.3,M,-34.0,M,,*62
$PYRTM,2024,127.668938975231,18.778586385370
$GPGGA,160315.00,3338.9342,N,11858.4298,W,1,11,0.8,11.1,M,-34.0,M,,*68
$PYRTM,2024,127.668950575278,18.778597985428
$GPGGA,160316.00,3338.9343,N,11858.4303,W,1,11,0.8,11.1,M,-34.0,M,,*69
$PYRTM,2024,127.668957952025,18.778605362164
$GPGGA,160317.00,3338.9343,N,11858.4308,W,1,11,0.8,11.1,M,-34.0,M,,*63
$PYRTM,2024,127.668973699213,18.778621109363
$GPGGA,160318.00,3338.9342,N,11858.4315,W,1,11,0.8,10.9,M,-34.0,M,,*68
$PYRTM,2024,127.668985273125,18.778632683264
$GPGGA,160319.00,3338.9343,N,11858.4323,W,1,11,0.8,10.9,M,-34.0,M,,*6D
$PYRTM,2024,127.668992667569,18.778640077720
$GPGGA,160320.00,3338.9344,N,11858.4330,W,1,11,0.8,11.0,M,-34.0,M,,*6A
$PYRTM,2024,127.669008421586,18.778655831725
$GPGGA,160321.00,3338.9344,N,11858.4337,W,1,11,0.8,10.9,M,-34.0,M,,*64
$PYRTM,2024,127.669020006157,18.778667416296
$GPGGA,160322.00,3338.9344,N,11858.4344,W,1,11,0.8,10.8,M,-34.0,M,,*62
$PYRTM,2024,127.669031564514,18.778678974653
$GPGGA,160323.00,3338.9342,N,11858.4352,W,1,11,0.8,10.5,M,-34.0,M,,*6F
$PYRTM,2024,127.669043143102,18.778690553252
$GPGGA,160324.00,3338.9342,N,11858.4358,W,1,11,0.8,10.5,M,-34.0,M,,*62
$PYRTM,2024,127.669054714977,18.778702125116
$GPGGA,160325.00,3338.9343,N,11858.4363,W,1,11,0.8,10.6,M,-34.0,M,,*69
$PYRTM,2024,127.669066302303,18.778713712454
$GPGGA,160326.00,3338.9343,N,11858.4370,W,1,11,0.8,10.7,M,-34.0,M,,*69
$PYRTM,2024,127.669073693657,18.778721103796
$GPGGA,160327.00,3338.9341,N,11858.4379,W,1,11,0.8,10.4,M,-34.0,M,,*60
$PYRTM,2024,127.669085377650,18.778732787789
$GPGGA,160328.00,3338.9339,N,11858.4388,W,1,11,0.8,10.4,M,-34.0,M,,*6E
$PYRTM,2024,127.669103907604,18.778751317755
$GPGGA,160329.00,3338.9339,N,11858.4394,W,1,11,0.8,10.9,M,-34.0,M,,*6F
$PYRTM,2024,127.669115496991,18.778762907130
$GPGGA,160330.00,3338.9340,N,11858.4398,W,1,11,0.8,11.1,M,-34.0,M,,*6C
$PYRTM,2024,127.669127052697,18.778774462847
$GPGGA,160331.00,3338.9340,N,11858.4406,W,1,11,0.8,11.2,M,-34.0,M,,*6E
$PYRTM,2024,127.669138631007,18.778786041146
$GPGGA,160332.00,3338.9339,N,11858.4416,W,1,11,0.8,11.3,M,-34.0,M,,*63
$PYRTM,2024,127.669150203947,18.778797614086
$GPGGA,160333.00,3338.9338,N,11858.4425,W,1,11,0.8,10.4,M,-34.0,M,,*65
$PYRTM,2024,127.669158884803,18.778806294942
$GPGGA,160334.00,3338.9337,N,11858.4430,W,1,11,0.8,11.0,M,-34.0,M,,*6C
$PYRTM,2024,127.669170459815,18.778817869954
$GPGGA,160335.00,3338.9337,N,11858.4434,W,1,11,0.8,11.4,M,-34.0,M,,*6D
$PYRTM,2024,127.669182033137,18.778829443287
$GPGGA,160336.00,3338.9340,N,11858.4439,W,1,11,0.8,11.9,M,-34.0,M,,*6E
$PYRTM,2024,127.669193610451,18.778841020602
$GPGGA,160337.00,3338.9342,N,11858.4448,W,1,11,0.8,12.0,M,-34.0,M,,*61
$PYRTM,2024,127.669205181146,18.778852591285
$GPGGA,160338.00,3338.9341,N,11858.4456,W,1,11,0.8,11.8,M,-34.0,M,,*69
$PYRTM,2024,127.669216757234,18.778864167373
$GPGGA,160339.00,3338.9339,N,11858.4462,W,1,11,0.8,11.9,M,-34.0,M,,*61
$PYRTM,2024,127.669228341331,18.778875751470
$GPGGA,160340.00,3338.9339,N,11858.4469,W,1,11,0.8,11.7,M,-34.0,M,,*6A
$PYRTM,2024,127.669239903206,18.778887313345
$GPGGA,160341.00,3338.9341,N,11858.4475,W,1,11,0.8,11.7,M,-34.0,M,,*69
$PYRTM,2024,127.669251597257,18.778899007396
$GPGGA,160342.00,3338.9342,N,11858.4482,W,1,11,0.8,11.7,M,-34.0,M,,*61
$PYRTM,2024,127.669263163866,18.778910574016
$GPGGA,160343.00,3338.9341,N,11858.4490,W,1,11,0.8,11.5,M,-34.0,M,,*62
$PYRTM,2024,127.669274745104,18.778922155243
$GPGGA,160344.00,3338.9339,N,11858.4499,W,1,11,0.8,11.2,M,-34.0,M,,*64
$PYRTM,2024,127.669282027373,18.778929437512
$GPGGA,160345.00,3338.9337,N,11858.4506,W,1,11,0.8,11.1,M,-34.0,M,,*6F
$PYRTM,2024,127.669297786192,18.778945196343
$GPGGA,160346.00,3338.9336,N,11858.4513,W,1,11,0.8,11.3,M,-34.0,M,,*6B
$PYRTM,2024,127.669309348484,18.778956758623
$GPGGA,160347.00,3338.9337,N,11858.4520,W,1,11,0.8,11.6,M,-34.0,M,,*6E
$PYRTM,2024,127.669320933275,18.778968343414
$GPGGA,160348.00,3338.9338,N,11858.4527,W,1,11,0.8,12.0,M,-34.0,M,,*6C
$PYRTM,2024,127.669332496019,18.778979906157
$GPGGA,160349.00,3338.9338,N,11858.4534,W,1,11,0.8,12.2,M,-34.0,M,,*6D
$PYRTM,2024,127.669344071586,18.778991481725
$GPGGA,160350.00,3338.9337,N,11858.4540,W,1,11,0.8,12.3,M,-34.0,M,,*68
$PYRTM,2024,127.669355645150,18.779003055289
$GPGGA,160351.00,3338.9336,N,11858.4547,W,1,11,0.8,12.2,M,-34.0,M,,*6E
$PYRTM,2024,127.669367230000,18.779014640139
$GPGGA,160352.00,3338.9337,N,11858.4555,W,1,11,0.8,11.9,M,-34.0,M,,*67
$PYRTM,2024,127.669378792870,18.779026203009
$GPGGA,160353.00,3338.9339,N,11858.4563,W,1,11,0.8,11.9,M,-34.0,M,,*6D
$PYRTM,2024,127.669390367859,18.779037777998
$GPGGA,160354.00,3338.9339,N,11858.4569,W,1,11,0.8,12.0,M,-34.0,M,,*6A
$PYRTM,2024,127.669401941169,18.779049351308
$GPGGA,160355.00,3338.9339,N,11858.4575,W,1,11,0.8,12.2,M,-34.0,M,,*64
$PYRTM,2024,127.669413537650,18.779060947789
$GPGGA,160356.00,3338.9338,N,11858.4582,W,1,11,0.8,12.3,M,-34.0,M,,*6F
$PYRTM,2024,127.669420922465,18.779068332616
$GPGGA,160357.00,3338.9338,N,11858.4592,W,1,11,0.8,12.0,M,-34.0,M,,*6C
$PYRTM,2024,127.669432600428,18.779080010567
$GPGGA,160358.00,3338.9338,N,11858.4600,W,1,11,0.8,11.6,M,-34.0,M,,*6E
$PYRTM,2024,127.669444175255,18.779091585394
$GPGGA,160359.00,3338.9338,N,11858.4605,W,1,11,0.8,11.5,M,-34.0,M,,*69
$PYRTM,2024,127.669462720694,18.779110130833
$GPGGA,160400.00,3338.9339,N,11858.4611,W,1,11,0.8,11.4,M,-34.0,M,,*67
$PYRTM,2024,127.669471387222,18.779118797361
$GPGGA,160401.00,3338.9339,N,11858.4619,W,1,11,0.8,11.4,M,-34.0,M,,*6E
$PYRTM,2024,127.669478782014,18.779126192153
$GPGGA,160402.00,3338.9338,N,11858.4628,W,1,11,0.8,11.5,M,-34.0,M,,*6F
$PYRTM,2024,127.669494538009,18.779141948148
$GPGGA,160403.00,3338.9337,N,11858.4634,W,1,11,0.8,11.6,M,-34.0,M,,*6F
$PYRTM,2024,127.669506096667,18.779153506806
$GPGGA,160404.00,3338.9337,N,11858.4640,W,1,11,0.8,11.8,M,-34.0,M,,*65
$PYRTM,2024,127.669517686204,18.779165096343
$GPGGA,160405.00,3338.9338,N,11858.4647,W,1,11,0.8,11.9,M,-34.0,M,,*6D
$PYRTM,2024,127.669529244919,18.779176655058
$GPGGA,160406.00,3338.9338,N,11858.4655,W,1,11,0.8,11.7,M,-34.0,M,,*63
$PYRTM,2024,127.669536650081,18.779184060220
$GPGGA,160407.00,3338.9337,N,11858.4664,W,1,11,0.8,11.4,M,-34.0,M,,*6C
$PYRTM,2024,127.669552391238,18.779199801377
$GPGGA,160408.00,3338.9337,N,11858.4669,W,1,11,0.8,10.2,M,-34.0,M,,*69
$PYRTM,2024,127.669563979942,18.779211390081
$GPGGA,160409.00,3338.9337,N,11858.4673,W,1,11,0.8,11.3,M,-34.0,M,,*63
$PYRTM,2024,127.669575541111,18.779222951250
$GPGGA,160410.00,3338.9337,N,11858.4682,W,1,11,0.8,11.8,M,-34.0,M,,*6E
$PYRTM,2024,127.669587127697,18.779234537836
$GPGGA,160411.00,3338.9337,N,11858.4693,W,1,11,0.8,11.6,M,-34.0,M,,*61
$PYRTM,2024,127.669598690197,18.779246100336
$GPGGA,160412.00,3338.9337,N,11858.4701,W,1,11,0.8,11.2,M,-34.0,M,,*6C
$PYRTM,2024,127.669610275984,18.779257686123
$GPGGA,160413.00,3338.9338,N,11858.4706,W,1,11,0.8,11.2,M,-34.0,M,,*65
$PYRTM,2024,127.669621837951,18.779269248102
$GPGGA,160414.00,3338.9339,N,11858.4711,W,1,11,0.8,11.4,M,-34.0,M,,*63
$PYRTM,2024,127.669633426921,18.779280837072
$GPGGA,160415.00,3338.9340,N,11858.4718,W,1,11,0.8,11.2,M,-34.0,M,,*63
$PYRTM,2024,127.669644984861,18.779292395012
$GPGGA,160416.00,3338.9340,N,11858.4727,W,1,11,0.8,11.0,M,-34.0,M,,*6E
$PYRTM,2024,127.669652393044,18.779299803183
$GPGGA,160417.00,3338.9337,N,11858.4736,W,1,11,0.8,10.8,M,-34.0,M,,*66
$PYRTM,2024,127.669668134711,18.779315544861
$GPGGA,160418.00,3338.9337,N,11858.4743,W,1,11,0.8,10.8,M,-34.0,M,,*6B
$PYRTM,2024,127.669679724236,18.779327134375
$GPGGA,160419.00,3338.9339,N,11858.4749,W,1,11,0.8,11.0,M,-34.0,M,,*67
$PYRTM,2024,127.669691282037,18.779338692176
$GPGGA,160420.00,3338.9341,N,11858.4756,W,1,11,0.8,11.2,M,-34.0,M,,*6E
$PYRTM,2024,127.669702872269,18.779350282407
$GPGGA,160421.00,3338.9340,N,11858.4764,W,1,11,0.8,11.2,M,-34.0,M,,*6F
$PYRTM,2024,127.669710277211,18.779357687350
$GPGGA,160422.00,3338.9337,N,11858.4774,W,1,11,0.8,10.9,M,-34.0,M,,*67
$PYRTM,2024,127.669726012141,18.779373422280
$GPGGA,160423.00,3338.9336,N,11858.4781,W,1,11,0.8,10.8,M,-34.0,M,,*6C
$PYRTM,2024,127.669737579225,18.779384989363
$GPGGA,160424.00,3338.9337,N,11858.4787,W,1,11,0.8,11.0,M,-34.0,M,,*65
$PYRTM,2024,127.669744985775,18.779392395926
$GPGGA,160425.00,3338.9341,N,11858.4793,W,1,11,0.8,11.2,M,-34.0,M,,*62
$PYRTM,2024,127.669760727894,18.779408138032
$GPGGA,160426.00,3338.9342,N,11858.4800,W,1,11,0.8,11.4,M,-34.0,M,,*61
$PYRTM,2024,127.669772313843,18.779419723981
$GPGGA,160427.00,3338.9340,N,11858.4808,W,1,11,0.8,11.3,M,-34.0,M,,*6D
$PYRTM,2024,127.669783874884,18.779431285023
$GPGGA,160428.00,3338.9338,N,11858.4817,W,1,11,0.8,11.1,M,-34.0,M,,*61
$PYRTM,2024,127.669795463125,18.779442873264
$GPGGA,160429.00,3338.9337,N,11858.4824,W,1,11,0.8,11.0,M,-34.0,M,,*6E
$PYRTM,2024,127.669802859074,18.779450269213
$GPGGA,160430.00,3338.9340,N,11858.4831,W,1,11,0.8,11.2,M,-34.0,M,,*60
$PYRTM,2024,127.669821503762,18.779468913900
$GPGGA,160431.00,3338.9343,N,11858.4837,W,1,11,0.8,11.5,M,-34.0,M,,*63
$PYRTM,2024,127.669830171644,18.779477581782
$GPGGA,160432.00,3338.9343,N,11858.4843,W,1,11,0.8,11.7,M,-34.0,M,,*61
$PYRTM,2024,127.669841773391,18.779489183542
$GPGGA,160433.00,3338.9340,N,11858.4853,W,1,11,0.8,11.6,M,-34.0,M,,*63
$PYRTM,2024,127.669849154965,18.779496565104
$GPGGA,160434.00,3338.9338,N,11858.4863,W,1,11,0.8,11.1,M,-34.0,M,,*6F
$PYRTM,2024,127.669864910231,18.779512320370
$GPGGA,160435.00,3338.9339,N,11858.4871,W,1,11,0.8,10.5,M,-34.0,M,,*69
$PYRTM,2024,127.669876468299,18.779523878437
$GPGGA,160436.00,3338.9343,N,11858.4874,W,1,11,0.8,11.0,M,-34.0,M,,*66
$PYRTM,2024,127.669888055880,18.779535466019
$GPGGA,160437.00,3338.9345,N,11858.4878,W,1,11,0.8,11.7,M,-34.0,M,,*6A
$PYRTM,2024,127.669899617176,18.779547027315
$GPGGA,160438.00,3338.9344,N,11858.4888,W,1,11,0.8,11.6,M,-34.0,M,,*6A
$PYRTM,2024,127.669911203831,18.779558613970
$GPGGA,160439.00,3338.9341,N,11858.4899,W,1,11,0.8,11.0,M,-34.0,M,,*68
$PYRTM,2024,127.669922765475,18.779570175613
$GPGGA,160440.00,3338.9339,N,11858.4905,W,1,11,0.8,10.9,M,-34.0,M,,*65
$PYRTM,2024,127.669934346505,18.779581756644
$GPGGA,160441.00,3338.9341,N,11858.4907,W,1,11,0.8,11.3,M,-34.0,M,,*62
$PYRTM,2024,127.669941747187,18.779589157326
$GPGGA,160442.00,3338.9343,N,11858.4911,W,1,11,0.8,11.4,M,-34.0,M,,*63
$PYRTM,2024,127.669957500278,18.779604910417
$GPGGA,160443.00,3338.9343,N,11858.4919,W,1,11,0.8,11.6,M,-34.0,M,,*68
$PYRTM,2024,127.669969061956,18.779616472095
$GPGGA,160444.00,3338.9340,N,11858.4932,W,1,11,0.8,11.4,M,-34.0,M,,*67
$PYRTM,2024,127.669980648438,18.779628058576
$GPGGA,160445.00,3338.9337,N,11858.4942,W,1,11,0.8,11.2,M,-34.0,M,,*67
$PYRTM,2024,127.669992211262,18.779639621400
$GPGGA,160446.00,3338.9337,N,11858.4948,W,1,11,0.8,11.4,M,-34.0,M,,*68
$PYRTM,2024,127.669999618287,18.779647028437
$GPGGA,160447.00,3338.9339,N,11858.4951,W,1,11,0.8,11.7,M,-34.0,M,,*6C
$PYRTM,2024,127.670011308171,18.779658718310
$GPGGA,160448.00,3338.9341,N,11858.4957,W,1,11,0.8,11.9,M,-34.0,M,,*64
$PYRTM,2024,127.670026944468,18.779674354606
$GPGGA,160449.00,3338.9341,N,11858.4966,W,1,11,0.8,12.0,M,-34.0,M,,*6D
$PYRTM,2024,127.670038506227,18.779685916366
$GPGGA,160450.00,3338.9340,N,11858.4974,W,1,11,0.8,11.9,M,-34.0,M,,*6D
$PYRTM,2024,127.670050093137,18.779697503275
$GPGGA,160451.00,3338.9339,N,11858.4982,W,1,11,0.8,11.6,M,-34.0,M,,*64
$PYRTM,2024,127.670061656389,18.779709066528
$GPGGA,160452.00,3338.9340,N,11858.4988,W,1,11,0.8,11.6,M,-34.0,M,,*63
$PYRTM,2024,127.670073241262,18.779720651400
$GPGGA,160453.00,3338.9341,N,11858.4994,W,1,11,0.8,11.7,M,-34.0,M,,*6F
$PYRTM,2024,127.670084802940,18.779732213079
$GPGGA,160454.00,3338.9343,N,11858.5001,W,1,11,0.8,11.9,M,-34.0,M,,*60
$PYRTM,2024,127.670096390324,18.779743800475
$GPGGA,160455.00,3338.9342,N,11858.5010,W,1,11,0.8,11.8,M,-34.0,M,,*61
$PYRTM,2024,127.670107950995,18.779755361134
$GPGGA,160456.00,3338.9341,N,11858.5019,W,1,11,0.8,11.4,M,-34.0,M,,*64
$PYRTM,2024,127.670115358356,18.779762768495
$GPGGA,160457.00,3338.9340,N,11858.5025,W,1,11,0.8,10.9,M,-34.0,M,,*67
$PYRTM,2024,127.670131099271,18.779778509421
$GPGGA,160458.00,3338.9342,N,11858.5028,W,1,11,0.8,12.1,M,-34.0,M,,*6D
$PYRTM,2024,127.670142681169,18.779790091308
$GPGGA,160459.00,3338.9345,N,11858.5033,W,1,11,0.8,11.8,M,-34.0,M,,*6B
$PYRTM,2024,127.670154246586,18.779801656725
$GPGGA,160500.00,3338.9346,N,11858.5044,W,1,11,0.8,11.5,M,-34.0,M,,*68
$PYRTM,2024,127.670161654016,18.779809064155
$GPGGA,160501.00,3338.9343,N,11858.5054,W,1,11,0.8,10.8,M,-34.0,M,,*61
$PYRTM,2024,127.670180301875,18.779827712025
$GPGGA,160502.00,3338.9341,N,11858.5061,W,1,11,0.8,11.1,M,-34.0,M,,*6E
$PYRTM,2024,127.670188996933,18.779836407072
$GPGGA,160503.00,3338.9342,N,11858.5063,W,1,11,0.8,11.3,M,-34.0,M,,*6C
$PYRTM,2024,127.670200544062,18.779847954201
$GPGGA,160504.00,3338.9346,N,11858.5067,W,1,11,0.8,11.5,M,-34.0,M,,*6D
$PYRTM,2024,127.670207951620,18.779855361759
$GPGGA,160505.00,3338.9348,N,11858.5077,W,1,11,0.8,11.5,M,-34.0,M,,*63
$PYRTM,2024,127.670219641644,18.779867051782
$GPGGA,160506.00,3338.9347,N,11858.5088,W,1,11,0.8,10.7,M,-34.0,M,,*6C
$PYRTM,2024,127.670235280475,18.779882690625
$GPGGA,160507.00,3338.9344,N,11858.5093,W,1,11,0.8,10.3,M,-34.0,M,,*60
$PYRTM,2024,127.670246841447,18.779894251597
$GPGGA,160508.00,3338.9344,N,11858.5095,W,1,11,0.8,10.3,M,-34.0,M,,*69
$PYRTM,2024,127.670258428669,18.779905838808
$GPGGA,160509.00,3338.9347,N,11858.5099,W,1,11,0.8,10.3,M,-34.0,M,,*67
$PYRTM,2024,127.670269991157,18.779917401296
$GPGGA,160510.00,3338.9350,N,11858.5109,W,1,11,0.8,10.2,M,-34.0,M,,*60
$PYRTM,2024,127.670281576701,18.779928986840
$GPGGA,160511.00,3338.9350,N,11858.5118,W,1,11,0.8,9.8,M,-34.0,M,,*53
$PYRTM,2024,127.670288973032,18.779936383171
$GPGGA,160512.00,3338.9347,N,11858.5124,W,1,11,0.8,9.8,M,-34.0,M,,*59
$PYRTM,2024,127.670300672824,18.779948082963
$GPGGA,160513.00,3338.9345,N,11858.5129,W,1,11,0.8,10.0,M,-34.0,M,,*67
$PYRTM,2024,127.670316286065,18.779963696204
$GPGGA,160514.00,3338.9347,N,11858.5136,W,1,11,0.8,10.2,M,-34.0,M,,*6E
$PYRTM,2024,127.670327875671,18.779975285810
$GPGGA,160515.00,3338.9349,N,11858.5144,W,1,11,0.8,10.3,M,-34.0,M,,*65
$PYRTM,2024,127.670339432975,18.779986843113
$GPGGA,160516.00,3338.9349,N,11858.5152,W,1,11,0.8,10.4,M,-34.0,M,,*66
$PYRTM,2024,127.670351015729,18.779998425868
$GPGGA,160517.00,3338.9346,N,11858.5159,W,1,11,0.8,10.6,M,-34.0,M,,*61
$PYRTM,2024,127.670362581979,18.780009992118
$GPGGA,160518.00,3338.9344,N,11858.5166,W,1,11,0.8,10.8,M,-34.0,M,,*6E
$PYRTM,2024,127.670374169329,18.780021579468
$GPGGA,160519.00,3338.9344,N,11858.5172,W,1,11,0.8,11.0,M,-34.0,M,,*63
$PYRTM,2024,127.670385729201,18.780033139340
$GPGGA,160520.00,3338.9347,N,11858.5178,W,1,11,0.8,11.1,M,-34.0,M,,*61
$PYRTM,2024,127.670397317523,18.780044727662
$GPGGA,160521.00,3338.9347,N,11858.5186,W,1,11,0.8,11.3,M,-34.0,M,,*63
$PYRTM,2024,127.670404728252,18.780052138391
$GPGGA,160522.00,3338.9345,N,11858.5195,W,1,11,0.8,11.1,M,-34.0,M,,*62
$PYRTM,2024,127.670420465891,18.780067876030
$GPGGA,160523.00,3338.9343,N,11858.5203,W,1,11,0.8,11.0,M,-34.0,M,,*68
$PYRTM,2024,127.670432026204,18.780079436354
$GPGGA,160524.00,3338.9341,N,11858.5207,W,1,11,0.8,11.1,M,-34.0,M,,*68
$PYRTM,2024,127.670443609630,18.780091019769
$GPGGA,160525.00,3338.9343,N,11858.5213,W,1,11,0.8,11.2,M,-34.0,M,,*6D
$PYRTM,2024,127.670455175440,18.780102585579
$GPGGA,160526.00,3338.9345,N,11858.5221,W,1,11,0.8,11.3,M,-34.0,M,,*68
$PYRTM,2024,127.670466761921,18.780114172060
$GPGGA,160527.00,3338.9346,N,11858.5229,W,1,11,0.8,11.3,M,-34.0,M,,*62
$PYRTM,2024,127.670478325486,18.780125735637
$GPGGA,160528.00,3338.9344,N,11858.5236,W,1,11,0.8,11.6,M,-34.0,M,,*64
$PYRTM,2024,127.670489914005,18.780137324144
$GPGGA,160529.00,3338.9340,N,11858.5241,W,1,11,0.8,11.9,M,-34.0,M,,*6E
$PYRTM,2024,127.670497306308,18.780144716447
$GPGGA,160530.00,3338.9340,N,11858.5250,W,1,11,0.8,12.0,M,-34.0,M,,*6C
$PYRTM,2024,127.670513072870,18.780160483009
$GPGGA,160531.00,3338.9342,N,11858.5258,W,1,11,0.8,11.4,M,-34.0,M,,*60
$PYRTM,2024,127.670520453345,18.780167863484
$GPGGA,160532.00,3338.9344,N,11858.5264,W,1,11,0.8,11.4,M,-34.0,M,,*6A
$PYRTM,2024,127.670539100243,18.780186510382
$GPGGA,160533.00,3338.9343,N,11858.5271,W,1,11,0.8,11.9,M,-34.0,M,,*65
$PYRTM,2024,127.670547769745,18.780195179884
$GPGGA,160534.00,3338.9340,N,11858.5280,W,1,11,0.8,12.0,M,-34.0,M,,*65
$PYRTM,2024,127.670559356701,18.780206766840
$GPGGA,160535.00,3338.9339,N,11858.5287,W,1,11,0.8,12.1,M,-34.0,M,,*6C
$PYRTM,2024,127.670570915856,18.780218326007
$GPGGA,160536.00,3338.9341,N,11858.5294,W,1,11,0.8,12.2,M,-34.0,M,,*61
$PYRTM,2024,127.670582498576,18.780229908727
$GPGGA,160537.00,3338.9344,N,11858.5299,W,1,11,0.8,12.5,M,-34.0,M,,*6F
$PYRTM,2024,127.670589898981,18.780237309120
$GPGGA,160538.00,3338.9344,N,11858.5305,W,1,11,0.8,12.3,M,-34.0,M,,*62
$PYRTM,2024,127.670605651921,18.780253062060
$GPGGA,160539.00,3338.9342,N,11858.5314,W,1,11,0.8,12.1,M,-34.0,M,,*67
$PYRTM,2024,127.670617213264,18.780264623414
$GPGGA,160540.00,3338.9340,N,11858.5322,W,1,11,0.8,11.7,M,-34.0,M,,*6B
$PYRTM,2024,127.670628803576,18.780276213715
$GPGGA,160541.00,3338.9340,N,11858.5327,W,1,11,0.8,12.0,M,-34.0,M,,*6B
$PYRTM,2024,127.670636196713,18.780283606852
$GPGGA,160542.00,3338.9342,N,11858.5332,W,1,11,0.8,12.3,M,-34.0,M,,*6D
$PYRTM,2024,127.670651952222,18.780299362361
$GPGGA,160543.00,3338.9344,N,11858.5339,W,1,11,0.8,12.6,M,-34.0,M,,*64
$PYRTM,2024,127.670663511782,18.780310921921
$GPGGA,160544.00,3338.9343,N,11858.5349,W,1,11,0.8,12.9,M,-34.0,M,,*6C
$PYRTM,2024,127.670675101215,18.780322511354
$GPGGA,160545.00,3338.9341,N,11858.5357,W,1,11,0.8,12.7,M,-34.0,M,,*6E
$PYRTM,2024,127.670686659421,18.780334069560
$GPGGA,160546.00,3338.9340,N,11858.5362,W,1,11,0.8,12.2,M,-34.0,M,,*6F
$PYRTM,2024,127.670698240347,18.780345650486
$GPGGA,160547.00,3338.9341,N,11858.5367,W,1,11,0.8,12.4,M,-34.0,M,,*6C
$PYRTM,2024,127.670709935035,18.780357345174
$GPGGA,160548.00,3338.9342,N,11858.5376,W,1,11,0.8,12.6,M,-34.0,M,,*62
$PYRTM,2024,127.670721510324,18.780368920463
$GPGGA,160549.00,3338.9341,N,11858.5387,W,1,11,0.8,13.0,M,-34.0,M,,*69
$PYRTM,2024,127.670728800579,18.780376210729
$GPGGA,160550.00,3338.9340,N,11858.5395,W,1,11,0.8,13.2,M,-34.0,M,,*61
$PYRTM,2024,127.670744541597,18.780391951736
$GPGGA,160551.00,3338.9338,N,11858.5401,W,1,11,0.8,13.5,M,-34.0,M,,*62
$PYRTM,2024,127.670751939456,18.780399349595
$GPGGA,160552.00,3338.9337,N,11858.5407,W,1,11,0.8,13.8,M,-34.0,M,,*65
$PYRTM,2024,127.670767689653,18.780415099792
$GPGGA,160553.00,3338.9339,N,11858.5415,W,1,11,0.8,13.4,M,-34.0,M,,*65
$PYRTM,2024,127.670779251273,18.780426661412
$GPGGA,160554.00,3338.9340,N,11858.5424,W,1,11,0.8,13.0,M,-34.0,M,,*6A
$PYRTM,2024,127.670790838437,18.780438248588
$GPGGA,160555.00,3338.9338,N,11858.5430,W,1,11,0.8,13.0,M,-34.0,M,,*61
$PYRTM,2024,127.670802399873,18.780449810012
$GPGGA,160556.00,3338.9337,N,11858.5435,W,1,11,0.8,13.1,M,-34.0,M,,*69
$PYRTM,2024,127.670814002789,18.780461412928
$GPGGA,160557.00,3338.9337,N,11858.5441,W,1,11,0.8,13.0,M,-34.0,M,,*6A
$PYRTM,2024,127.670825547940,18.780472958079
$GPGGA,160558.00,3338.9338,N,11858.5449,W,1,11,0.8,12.7,M,-34.0,M,,*64
$PYRTM,2024,127.670837148958,18.780484559097
$GPGGA,160559.00,3338.9339,N,11858.5456,W,1,11,0.8,12.4,M,-34.0,M,,*69
$PYRTM,2024,127.670848694699,18.780496104838
$GPGGA,160600.00,3338.9339,N,11858.5462,W,1,11,0.8,12.3,M,-34.0,M,,*66
$PYRTM,2024,127.670860286042,18.780507696181
$GPGGA,160601.00,3338.9337,N,11858.5469,W,1,11,0.8,12.3,M,-34.0,M,,*62
$PYRTM,2024,127.670871844525,18.780519254676
$GPGGA,160602.00,3338.9335,N,11858.5478,W,1,11,0.8,11.9,M,-34.0,M,,*6A
$PYRTM,2024,127.670879251354,18.780526661493
$GPGGA,160603.00,3338.9336,N,11858.5485,W,1,11,0.8,11.1,M,-34.0,M,,*62
$PYRTM,2024,127.670897909838,18.780545319988
$GPGGA,160604.00,3338.9339,N,11858.5489,W,1,11,0.8,12.2,M,-34.0,M,,*66
$PYRTM,2024,127.670909468206,18.780556878345
$GPGGA,160605.00,3338.9340,N,11858.5493,W,1,11,0.8,12.7,M,-34.0,M,,*67
$PYRTM,2024,127.670921069514,18.780568479653
$GPGGA,160606.00,3338.9338,N,11858.5500,W,1,11,0.8,13.2,M,-34.0,M,,*64
$PYRTM,2024,127.670929728854,18.780577138993
$GPGGA,160607.00,3338.9337,N,11858.5511,W,1,11,0.8,12.6,M,-34.0,M,,*6F
$PYRTM,2024,127.670941291123,18.780588701262
$GPGGA,160608.00,3338.9338,N,11858.5519,W,1,11,0.8,11.9,M,-34.0,M,,*6B
$PYRTM,2024,127.670952876400,18.780600286539
$GPGGA,160609.00,3338.9339,N,11858.5524,W,1,11,0.8,11.7,M,-34.0,M,,*6B
$PYRTM,2024,127.670964437789,18.780611847928
$GPGGA,160610.00,3338.9340,N,11858.5529,W,1,11,0.8,11.7,M,-34.0,M,,*60
$PYRTM,2024,127.670971846123,18.780619256273
$GPGGA,160611.00,3338.9341,N,11858.5537,W,1,11,0.8,11.8,M,-34.0,M,,*60
$PYRTM,2024,127.670990503704,18.780637913843
$GPGGA,160612.00,3338.9340,N,11858.5546,W,1,11,0.8,12.1,M,-34.0,M,,*6E
$PYRTM,2024,127.671002063576,18.780649473715
$GPGGA,160613.00,3338.9338,N,11858.5552,W,1,11,0.8,12.4,M,-34.0,M,,*60
$PYRTM,2024,127.671010734583,18.780658144722
$GPGGA,160614.00,3338.9338,N,11858.5560,W,1,11,0.8,12.3,M,-34.0,M,,*61
$PYRTM,2024,127.671018142292,18.780665552442
$GPGGA,160615.00,3338.9339,N,11858.5569,W,1,11,0.8,11.9,M,-34.0,M,,*61
$PYRTM,2024,127.671033883553,18.780681293692
$GPGGA,160616.00,3338.9341,N,11858.5574,W,1,11,0.8,12.0,M,-34.0,M,,*6B
$PYRTM,2024,127.671041289039,18.780688699178
$GPGGA,160617.00,3338.9340,N,11858.5577,W,1,11,0.8,12.2,M,-34.0,M,,*6A
$PYRTM,2024,127.671057032546,18.780704442697
$GPGGA,160618.00,3338.9338,N,11858.5583,W,1,11,0.8,12.4,M,-34.0,M,,*67
$PYRTM,2024,127.671068619132,18.780716029271
$GPGGA,160619.00,3338.9337,N,11858.5593,W,1,11,0.8,12.1,M,-34.0,M,,*6D
$PYRTM,2024,127.671080180162,18.780727590301
$GPGGA,160620.00,3338.9338,N,11858.5602,W,1,11,0.8,11.5,M,-34.0,M,,*64
$PYRTM,2024,127.671091760741,18.780739170880
$GPGGA,160621.00,3338.9339,N,11858.5608,W,1,11,0.8,11.4,M,-34.0,M,,*6F
$PYRTM,2024,127.671103328472,18.780750738611
$GPGGA,160622.00,3338.9340,N,11858.5611,W,1,11,0.8,11.5,M,-34.0,M,,*6B
$PYRTM,2024,127.671114909005,18.780762319144
$GPGGA,160623.00,3338.9339,N,11858.5615,W,1,11,0.8,11.7,M,-34.0,M,,*62
$PYRTM,2024,127.671126475116,18.780773885255
$GPGGA,160624.00,3338.9338,N,11858.5622,W,1,11,0.8,11.9,M,-34.0,M,,*6E
$PYRTM,2024,127.671138062512,18.780785472650
$GPGGA,160625.00,3338.9338,N,11858.5631,W,1,11,0.8,11.5,M,-34.0,M,,*61
$PYRTM,2024,127.671149624641,18.780797034780
$GPGGA,160626.00,3338.9339,N,11858.5641,W,1,11,0.8,10.3,M,-34.0,M,,*63
$PYRTM,2024,127.671157029873,18.780804440012
$GPGGA,160627.00,3338.9339,N,11858.5647,W,1,11,0.8,10.0,M,-34.0,M,,*67
$PYRTM,2024,127.671172773588,18.780820183727
$GPGGA,160628.00,3338.9340,N,11858.5648,W,1,11,0.8,10.0,M,-34.0,M,,*69
$PYRTM,2024,127.671184360127,18.780831770266
$GPGGA,160629.00,3338.9341,N,11858.5649,W,1,11,0.8,10.0,M,-34.0,M,,*68
$PYRTM,2024,127.671195921123,18.780843331262
$GPGGA,160630.00,3338.9340,N,11858.5656,W,1,11,0.8,10.2,M,-34.0,M,,*6D
$PYRTM,2024,127.671207507257,18.780854917396
$GPGGA,160631.00,3338.9339,N,11858.5669,W,1,11,0.8,9.6,M,-34.0,M,,*52
$PYRTM,2024,127.671219069919,18.780866480058
$GPGGA,160632.00,3338.9338,N,11858.5677,W,1,11,0.8,9.1,M,-34.0,M,,*58
$PYRTM,2024,127.671230657315,18.780878067465
$GPGGA,160633.00,3338.9338,N,11858.5679,W,1,11,0.8,9.2,M,-34.0,M,,*54
$PYRTM,2024,127.671237946516,18.780885356655
$GPGGA,160634.00,3338.9340,N,11858.5680,W,1,11,0.8,9.3,M,-34.0,M,,*5B
$PYRTM,2024,127.671256698519,18.780904108657
$GPGGA,160635.00,3338.9341,N,11858.5687,W,1,11,0.8,9.4,M,-34.0,M,,*5B
$PYRTM,2024,127.671265365532,18.780912775671
$GPGGA,160636.00,3338.9339,N,11858.5697,W,1,11,0.8,9.4,M,-34.0,M,,*56
$PYRTM,2024,127.671276951701,18.780924361840
$GPGGA,160637.00,3338.9338,N,11858.5706,W,1,11,0.8,9.3,M,-34.0,M,,*58
$PYRTM,2024,127.671288514456,18.780935924606
$GPGGA,160638.00,3338.9337,N,11858.5710,W,1,11,0.8,9.4,M,-34.0,M,,*58
$PYRTM,2024,127.671300103322,18.780947513461
$GPGGA,160639.00,3338.9338,N,11858.5714,W,1,11,0.8,9.5,M,-34.0,M,,*53
$PYRTM,2024,127.671307393021,18.780954803160
$GPGGA,160640.00,3338.9339,N,11858.5721,W,1,11,0.8,9.6,M,-34.0,M,,*59
$PYRTM,2024,127.671323251088,18.780970661227
$GPGGA,160641.00,3338.9338,N,11858.5731,W,1,11,0.8,9.3,M,-34.0,M,,*5D
$PYRTM,2024,127.671334809352,18.780982219491
$GPGGA,160642.00,3338.9337,N,11858.5738,W,1,11,0.8,9.1,M,-34.0,M,,*5A
$PYRTM,2024,127.671342099861,18.780989510000
$GPGGA,160643.00,3338.9337,N,11858.5742,W,1,11,0.8,9.3,M,-34.0,M,,*54
$PYRTM,2024,127.671353907569,18.781001317708
$GPGGA,160644.00,3338.9338,N,11858.5746,W,1,11,0.8,9.4,M,-34.0,M,,*5F
$PYRTM,2024,127.671365957488,18.781013367627
$GPGGA,160645.00,3338.9339,N,11858.5753,W,1,11,0.8,9.5,M,-34.0,M,,*5A
$PYRTM,2024,127.671381105197,18.781028515324
$GPGGA,160646.00,3338.9337,N,11858.5762,W,1,11,0.8,9.4,M,-34.0,M,,*54
$PYRTM,2024,127.671392693669,18.781040103808
$GPGGA,160647.00,3338.9335,N,11858.5769,W,1,11,0.8,9.3,M,-34.0,M,,*5B
$PYRTM,2024,127.671404254086,18.781051664225
$GPGGA,160648.00,3338.9334,N,11858.5775,W,1,11,0.8,9.4,M,-34.0,M,,*5F
$PYRTM,2024,127.671415842569,18.781063252708
$GPGGA,160649.00,3338.9335,N,11858.5781,W,1,11,0.8,9.4,M,-34.0,M,,*54
$PYRTM,2024,127.671427402025,18.781074812164
$GPGGA,160650.00,3338.9337,N,11858.5787,W,1,11,0.8,9.5,M,-34.0,M,,*59
$PYRTM,2024,127.671438989977,18.781086400127
$GPGGA,160651.00,3338.9336,N,11858.5793,W,1,11,0.8,9.6,M,-34.0,M,,*5F
$PYRTM,2024,127.671450551424,18.781097961563
$GPGGA,160652.00,3338.9333,N,11858.5800,W,1,11,0.8,9.7,M,-34.0,M,,*5D
$PYRTM,2024,127.671457842407,18.781105252546
$GPGGA,160653.00,3338.9331,N,11858.5807,W,1,11,0.8,9.8,M,-34.0,M,,*56
$PYRTM,2024,127.671473699583,18.781121109722
$GPGGA,160654.00,3338.9332,N,11858.5814,W,1,11,0.8,9.8,M,-34.0,M,,*50
$PYRTM,2024,127.671485289259,18.781132699398
$GPGGA,160655.00,3338.9334,N,11858.5821,W,1,11,0.8,9.7,M,-34.0,M,,*5E
$PYRTM,2024,127.671496847141,18.781144257280
$GPGGA,160656.00,3338.9335,N,11858.5829,W,1,11,0.8,9.5,M,-34.0,M,,*56
$PYRTM,2024,127.671508429502,18.781155839641
$GPGGA,160657.00,3338.9333,N,11858.5835,W,1,11,0.8,9.5,M,-34.0,M,,*5C
$PYRTM,2024,127.671519995405,18.781167405544
$GPGGA,160658.00,3338.9330,N,11858.5840,W,1,11,0.8,9.6,M,-34.0,M,,*51
$PYRTM,2024,127.671531582315,18.781178992454
$GPGGA,160659.00,3338.9331,N,11858.5845,W,1,11,0.8,9.7,M,-34.0,M,,*55
$PYRTM,2024,127.671543143391,18.781190553530
$GPGGA,160700.00,3338.9332,N,11858.5853,W,1,11,0.8,9.5,M,-34.0,M,,*5E
$PYRTM,2024,127.671554726516,18.781202136655
$GPGGA,160701.00,3338.9333,N,11858.5861,W,1,11,0.8,9.1,M,-34.0,M,,*5B
$PYRTM,2024,127.671566293194,18.781213703345
$GPGGA,160702.00,3338.9332,N,11858.5868,W,1,11,0.8,8.9,M,-34.0,M,,*59
$PYRTM,2024,127.671573584942,18.781220995081
$GPGGA,160703.00,3338.9330,N,11858.5874,W,1,11,0.8,9.1,M,-34.0,M,,*5E
$PYRTM,2024,127.671589439873,18.781236850012
$GPGGA,160704.00,3338.9329,N,11858.5880,W,1,11,0.8,9.3,M,-34.0,M,,*58
$PYRTM,2024,127.671596732928,18.781244143067
$GPGGA,160705.00,3338.9330,N,11858.5886,W,1,11,0.8,9.7,M,-34.0,M,,*53
$PYRTM,2024,127.671615496157,18.781262906308
$GPGGA,160706.00,3338.9330,N,11858.5892,W,1,11,0.8,10.1,M,-34.0,M,,*6B
$PYRTM,2024,127.671624176354,18.781271586493
$GPGGA,160707.00,3338.9328,N,11858.5901,W,1,11,0.8,10.1,M,-34.0,M,,*68
$PYRTM,2024,127.671631570752,18.781278980891
$GPGGA,160708.00,3338.9326,N,11858.5910,W,1,11,0.8,10.4,M,-34.0,M,,*6C
$PYRTM,2024,127.671647327500,18.781294737650
$GPGGA,160709.00,3338.9325,N,11858.5916,W,1,11,0.8,10.3,M,-34.0,M,,*6F
$PYRTM,2024,127.671654719954,18.781302130093
$GPGGA,160710.00,3338.9326,N,11858.5920,W,1,11,0.8,10.6,M,-34.0,M,,*64
$PYRTM,2024,127.671670475579,18.781317885718
$GPGGA,160711.00,3338.9328,N,11858.5925,W,1,11,0.8,10.8,M,-34.0,M,,*60
$PYRTM,2024,127.671682036829,18.781329446968
$GPGGA,160712.00,3338.9327,N,11858.5933,W,1,11,0.8,10.8,M,-34.0,M,,*6B
$PYRTM,2024,127.671693624491,18.781341034630
$GPGGA,160713.00,3338.9323,N,11858.5943,W,1,11,0.8,10.8,M,-34.0,M,,*69
$PYRTM,2024,127.671705183032,18.781352593171
$GPGGA,160714.00,3338.9323,N,11858.5950,W,1,11,0.8,11.1,M,-34.0,M,,*64
$PYRTM,2024,127.671716763484,18.781364173623
$GPGGA,160715.00,3338.9324,N,11858.5955,W,1,11,0.8,11.4,M,-34.0,M,,*62
$PYRTM,2024,127.671724181470,18.781371591609
$GPGGA,160716.00,3338.9327,N,11858.5962,W,1,11,0.8,11.7,M,-34.0,M,,*65
$PYRTM,2024,127.671739913715,18.781387323854
$GPGGA,160717.00,3338.9327,N,11858.5970,W,1,11,0.8,11.6,M,-34.0,M,,*66
$PYRTM,2024,127.671751481053,18.781398891192
$GPGGA,160718.00,3338.9326,N,11858.5976,W,1,11,0.8,11.9,M,-34.0,M,,*61
$PYRTM,2024,127.671763061852,18.781410472002
$GPGGA,160719.00,3338.9325,N,11858.5979,W,1,11,0.8,12.3,M,-34.0,M,,*65
$PYRTM,2024,127.671774628206,18.781422038345
$GPGGA,160720.00,3338.9326,N,11858.5985,W,1,11,0.8,12.4,M,-34.0,M,,*68
$PYRTM,2024,127.671786214826,18.781433624965
$GPGGA,160721.00,3338.9328,N,11858.5993,W,1,11,0.8,12.1,M,-34.0,M,,*65
$PYRTM,2024,127.671797774583,18.781445184734
$GPGGA,160722.00,3338.9330,N,11858.6001,W,1,11,0.8,11.6,M,-34.0,M,,*6A
$PYRTM,2024,127.671809366840,18.781456776991
$GPGGA,160723.00,3338.9328,N,11858.6006,W,1,11,0.8,11.5,M,-34.0,M,,*66
$PYRTM,2024,127.671820923634,18.781468333785
$GPGGA,160724.00,3338.9326,N,11858.6010,W,1,11,0.8,11.7,M,-34.0,M,,*6A
$PYRTM,2024,127.671832511250,18.781479921389
$GPGGA,160725.00,3338.9326,N,11858.6017,W,1,11,0.8,11.8,M,-34.0,M,,*63
$PYRTM,2024,127.671844071458,18.781491481597
$GPGGA,160726.00,3338.9326,N,11858.6025,W,1,11,0.8,11.9,M,-34.0,M,,*60
$PYRTM,2024,127.671855654850,18.781503064988
$GPGGA,160727.00,3338.9328,N,11858.6031,W,1,11,0.8,12.0,M,-34.0,M,,*60
$PYRTM,2024,127.671867220463,18.781514630602
$GPGGA,160728.00,3338.9328,N,11858.6037,W,1,11,0.8,12.0,M,-34.0,M,,*69
$PYRTM,2024,127.671878805961,18.781526216100
$GPGGA,160729.00,3338.9327,N,11858.6044,W,1,11,0.8,11.8,M,-34.0,M,,*68
$PYRTM,2024,127.671886201111,18.781533611250
$GPGGA,160730.00,3338.9326,N,11858.6052,W,1,11,0.8,11.5,M,-34.0,M,,*6B
$PYRTM,2024,127.671901955868,18.781549366007
$GPGGA,160731.00,3338.9327,N,11858.6058,W,1,11,0.8,11.4,M,-34.0,M,,*60
$PYRTM,2024,127.671913516597,18.781560926736
$GPGGA,160732.00,3338.9328,N,11858.6064,W,1,11,0.8,11.5,M,-34.0,M,,*62
$PYRTM,2024,127.671925098333,18.781572508472
$GPGGA,160733.00,3338.9330,N,11858.6069,W,1,11,0.8,11.7,M,-34.0,M,,*65
$PYRTM,2024,127.671936664120,18.781584074259
$GPGGA,160734.00,3338.9329,N,11858.6076,W,1,11,0.8,11.9,M,-34.0,M,,*6A
$PYRTM,2024,127.671948254653,18.781595664792
$GPGGA,160735.00,3338.9327,N,11858.6085,W,1,11,0.8,11.6,M,-34.0,M,,*66
$PYRTM,2024,127.671955647106,18.781603057245
$GPGGA,160736.00,3338.9325,N,11858.6093,W,1,11,0.8,11.4,M,-34.0,M,,*62
$PYRTM,2024,127.671974288738,18.781621698877
$GPGGA,160737.00,3338.9326,N,11858.6099,W,1,11,0.8,11.5,M,-34.0,M,,*6B
$PYRTM,2024,127.671982961597,18.781630371736
$GPGGA,160738.00,3338.9327,N,11858.6105,W,1,11,0.8,11.6,M,-34.0,M,,*62
$PYRTM,2024,127.671994551435,18.781641961574
$GPGGA,160739.00,3338.9327,N,11858.6113,W,1,11,0.8,11.6,M,-34.0,M,,*64
$PYRTM,2024,127.672006110729,18.781653520868
$GPGGA,160740.00,3338.9324,N,11858.6121,W,1,11,0.8,11.5,M,-34.0,M,,*6B
$PYRTM,2024,127.672017692257,18.781665102396
$GPGGA,160741.00,3338.9323,N,11858.6128,W,1,11,0.8,11.7,M,-34.0,M,,*66
$PYRTM,2024,127.672029258819,18.781676668970
$GPGGA,160742.00,3338.9323,N,11858.6134,W,1,11,0.8,11.8,M,-34.0,M,,*67
$PYRTM,2024,127.672040845602,18.781688255741
$GPGGA,160743.00,3338.9326,N,11858.6141,W,1,11,0.8,11.7,M,-34.0,M,,*6E
$PYRTM,2024,127.672052406192,18.781699816343
$GPGGA,160744.00,3338.9326,N,11858.6149,W,1,11,0.8,11.6,M,-34.0,M,,*60
$PYRTM,2024,127.672059815579,18.781707225718
$GPGGA,160745.00,3338.9325,N,11858.6155,W,1,11,0.8,11.8,M,-34.0,M,,*61
$PYRTM,2024,127.672075554097,18.781722964236
$GPGGA,160746.00,3338.9323,N,11858.6161,W,1,11,0.8,11.5,M,-34.0,M,,*6E
$PYRTM,2024,127.672087141308,18.781734551447
$GPGGA,160747.00,3338.9324,N,11858.6168,W,1,11,0.8,11.7,M,-34.0,M,,*63
$PYRTM,2024,127.672094536725,18.781741946875
$GPGGA,160748.00,3338.9326,N,11858.6176,W,1,11,0.8,11.4,M,-34.0,M,,*62
$PYRTM,2024,127.672110292315,18.781757702454
$GPGGA,160749.00,3338.9328,N,11858.6184,W,1,11,0.8,11.1,M,-34.0,M,,*65
$PYRTM,2024,127.672121851238,18.781769261377
$GPGGA,160750.00,3338.9327,N,11858.6192,W,1,11,0.8,11.2,M,-34.0,M,,*66
$PYRTM,2024,127.672133442257,18.781780852396
$GPGGA,160751.00,3338.9325,N,11858.6197,W,1,11,0.8,11.5,M,-34.0,M,,*67
$PYRTM,2024,127.672144997963,18.781792408102
$GPGGA,160752.00,3338.9324,N,11858.6203,W,1,11,0.8,11.8,M,-34.0,M,,*66
$PYRTM,2024,127.672156588484,18.781803998623
$GPGGA,160753.00,3338.9326,N,11858.6212,W,1,11,0.8,11.8,M,-34.0,M,,*65
$PYRTM,2024,127.672168149398,18.781815559537
$GPGGA,160754.00,3338.9328,N,11858.6220,W,1,11,0.8,11.6,M,-34.0,M,,*63
$PYRTM,2024,127.672175553831,18.781822963970
$GPGGA,160755.00,3338.9327,N,11858.6227,W,1,11,0.8,11.5,M,-34.0,M,,*69
$PYRTM,2024,127.672191296389,18.781838706528
$GPGGA,160756.00,3338.9324,N,11858.6230,W,1,11,0.8,11.8,M,-34.0,M,,*62
$PYRTM,2024,127.672202882396,18.781850292535
$GPGGA,160757.00,3338.9323,N,11858.6237,W,1,11,0.8,11.6,M,-34.0,M,,*6D
$PYRTM,2024,127.672214443796,18.781861853935
$GPGGA,160758.00,3338.9326,N,11858.6247,W,1,11,0.8,11.1,M,-34.0,M,,*67
$PYRTM,2024,127.672226026424,18.781873436562
$GPGGA,160759.00,3338.9328,N,11858.6255,W,1,11,0.8,10.5,M,-34.0,M,,*6E
$PYRTM,2024,127.672237591319,18.781885001458
$GPGGA,160800.00,3338.9329,N,11858.6260,W,1,11,0.8,10.6,M,-34.0,M,,*69
$PYRTM,2024,127.672249178519,18.781896588657
$GPGGA,160801.00,3338.9328,N,11858.6264,W,1,11,0.8,11.0,M,-34.0,M,,*6A
$PYRTM,2024,127.672260739850,18.781908149988
$GPGGA,160802.00,3338.9326,N,11858.6270,W,1,11,0.8,11.2,M,-34.0,M,,*60
$PYRTM,2024,127.672272322523,18.781919732674
$GPGGA,160803.00,3338.9326,N,11858.6280,W,1,11,0.8,10.8,M,-34.0,M,,*65
$PYRTM,2024,127.672283888576,18.781931298715
$GPGGA,160804.00,3338.9328,N,11858.6289,W,1,11,0.8,10.2,M,-34.0,M,,*6F
$PYRTM,2024,127.672295490359,18.781942900498
$GPGGA,160805.00,3338.9328,N,11858.6294,W,1,11,0.8,10.3,M,-34.0,M,,*63
$PYRTM,2024,127.672307037014,18.781954447153
$GPGGA,160806.00,3338.9327,N,11858.6299,W,1,11,0.8,10.6,M,-34.0,M,,*67
$PYRTM,2024,127.672321517014,18.781968927153
$GPGGA,160807.00,3338.9326,N,11858.6305,W,1,11,0.8,11.0,M,-34.0,M,,*64
$PYRTM,2024,127.672335521875,18.781982932014
$GPGGA,160808.00,3338.9326,N,11858.6314,W,1,11,0.8,11.1,M,-34.0,M,,*6A
$PYRTM,2024,127.672341775926,18.781989186065
$GPGGA,160809.00,3338.9326,N,11858.6322,W,1,11,0.8,11.0,M,-34.0,M,,*6F
$PYRTM,2024,127.672353334583,18.782000744722
$GPGGA,160810.00,3338.9326,N,11858.6331,W,1,11,0.8,10.7,M,-34.0,M,,*63
$PYRTM,2024,127.672364916644,18.782012326782
$GPGGA,160811.00,3338.9325,N,11858.6338,W,1,11,0.8,10.7,M,-34.0,M,,*68
$PYRTM,2024,127.672372331157,18.782019741296
$GPGGA,160812.00,3338.9324,N,11858.6343,W,1,11,0.8,10.8,M,-34.0,M,,*69
$PYRTM,2024,127.672388063067,18.782035473206
$GPGGA,160813.00,3338.9324,N,11858.6351,W,1,11,0.8,11.0,M,-34.0,M,,*62
$PYRTM,2024,127.672399629167,18.782047039306
$GPGGA,160814.00,3338.9324,N,11858.6360,W,1,11,0.8,11.1,M,-34.0,M,,*66
$PYRTM,2024,127.672411217500,18.782058627650
$GPGGA,160815.00,3338.9324,N,11858.6367,W,1,11,0.8,11.3,M,-34.0,M,,*62
$PYRTM,2024,127.672422778738,18.782070188877
$GPGGA,160816.00,3338.9324,N,11858.6374,W,1,11,0.8,11.5,M,-34.0,M,,*65
$PYRTM,2024,127.672430186354,18.782077596493
$GPGGA,160817.00,3338.9324,N,11858.6380,W,1,11,0.8,11.7,M,-34.0,M,,*6D
$PYRTM,2024,127.672445926088,18.782093336238
$GPGGA,160818.00,3338.9324,N,11858.6388,W,1,11,0.8,11.8,M,-34.0,M,,*65
$PYRTM,2024,127.672457527766,18.782104937905
$GPGGA,160819.00,3338.9323,N,11858.6394,W,1,11,0.8,12.0,M,-34.0,M,,*65
$PYRTM,2024,127.672464909363,18.782112319502
$GPGGA,160820.00,3338.9323,N,11858.6401,W,1,11,0.8,12.2,M,-34.0,M,,*66
$PYRTM,2024,127.672480664850,18.782128075000
$GPGGA,160821.00,3338.9323,N,11858.6409,W,1,11,0.8,12.2,M,-34.0,M,,*6F
$PYRTM,2024,127.672492222697,18.782139632836
$GPGGA,160822.00,3338.9323,N,11858.6417,W,1,11,0.8,12.1,M,-34.0,M,,*60
$PYRTM,2024,127.672503806262,18.782151216412
$GPGGA,160823.00,3338.9324,N,11858.6424,W,1,11,0.8,12.2,M,-34.0,M,,*65
$PYRTM,2024,127.672515372049,18.782162782199
$GPGGA,160824.00,3338.9324,N,11858.6429,W,1,11,0.8,12.4,M,-34.0,M,,*69
$PYRTM,2024,127.672526958380,18.782174368519
$GPGGA,160825.00,3338.9323,N,11858.6435,W,1,11,0.8,12.4,M,-34.0,M,,*62
$PYRTM,2024,127.672538520625,18.782185930764
$GPGGA,160826.00,3338.9323,N,11858.6443,W,1,11,0.8,12.3,M,-34.0,M,,*67
$PYRTM,2024,127.672550108530,18.782197518681
$GPGGA,160827.00,3338.9323,N,11858.6451,W,1,11,0.8,11.9,M,-34.0,M,,*6C
$PYRTM,2024,127.672561667269,18.782209077407
$GPGGA,160828.00,3338.9323,N,11858.6458,W,1,11,0.8,11.7,M,-34.0,M,,*64
$PYRTM,2024,127.672573250613,18.782220660752
$GPGGA,160829.00,3338.9323,N,11858.6465,W,1,11,0.8,11.6,M,-34.0,M,,*6A
$PYRTM,2024,127.672584818194,18.782232228333
$GPGGA,160830.00,3338.9322,N,11858.6472,W,1,11,0.8,11.8,M,-34.0,M,,*6B
$PYRTM,2024,127.672596404560,18.782243814711
$GPGGA,160831.00,3338.9323,N,11858.6479,W,1,11,0.8,12.0,M,-34.0,M,,*6B
$PYRTM,2024,127.672603800278,18.782251210417
$GPGGA,160832.00,3338.9323,N,11858.6485,W,1,11,0.8,12.3,M,-34.0,M,,*68
$PYRTM,2024,127.672619550370,18.782266960509
$GPGGA,160833.00,3338.9322,N,11858.6492,W,1,11,0.8,12.6,M,-34.0,M,,*6B
$PYRTM,2024,127.672631112500,18.782278522639
$GPGGA,160834.00,3338.9321,N,11858.6501,W,1,11,0.8,12.2,M,-34.0,M,,*60
$PYRTM,2024,127.672642715336,18.782290125475
$GPGGA,160835.00,3338.9320,N,11858.6510,W,1,11,0.8,11.4,M,-34.0,M,,*65
$PYRTM,2024,127.672654260208,18.782301670347
