$PYRTM,2024,122.000003538762,13.109650948900
$GPGGA,235959.00,3307.4080,N,11821.1006,W,1,10,1.0,9.4,M,-34.6,M,,*59
$PYRTM,2024,122.000015102269,13.109662512407
$GPGGA,000000.00,3307.4090,N,11821.1029,W,1,10,1.0,9.5,M,-34.6,M,,*55
$PYRTM,2024,122.000026683032,13.109674093171
$GPGGA,000001.00,3307.4099,N,11821.1052,W,1,10,1.0,9.6,M,-34.6,M,,*52
$PYRTM,2024,122.000038250255,13.109685660394
$GPGGA,000002.00,3307.4108,N,11821.1075,W,1,10,1.0,9.6,M,-34.6,M,,*5D
$PYRTM,2024,122.000049831678,13.109697241817
$GPGGA,000003.00,3307.4119,N,11821.1098,W,1,10,1.0,9.5,M,-34.6,M,,*5C
$PYRTM,2024,122.000061397870,13.109708808009
$GPGGA,000004.00,3307.4129,N,11821.1121,W,1,10,1.0,9.3,M,-34.6,M,,*5D
$PYRTM,2024,122.000072984468,13.109720394606
$GPGGA,000005.00,3307.4137,N,11821.1144,W,1,10,1.0,9.4,M,-34.6,M,,*57
$PYRTM,2024,122.000084546111,13.109731956250
$GPGGA,000006.00,3307.4146,N,11821.1168,W,1,10,1.0,9.9,M,-34.6,M,,*51
$PYRTM,2024,122.000096134873,13.109743545012
$GPGGA,000007.00,3307.4157,N,11821.1192,W,1,10,1.0,9.8,M,-34.6,M,,*54
$PYRTM,2024,122.000107692951,13.109755103090
$GPGGA,000008.00,3307.4167,N,11821.1213,W,1,10,1.0,9.7,M,-34.6,M,,*5D
$PYRTM,2024,122.000115101713,13.109762511852
$GPGGA,000009.00,3307.4177,N,11821.1234,W,1,10,1.0,10.0,M,-34.6,M,,*67
$PYRTM,2024,122.000130842766,13.109778252905
$GPGGA,000010.00,3307.4186,N,11821.1258,W,1,10,1.0,10.1,M,-34.6,M,,*6A
$PYRTM,2024,122.000142424699,13.109789834838
$GPGGA,000011.00,3307.4196,N,11821.1282,W,1,10,1.0,9.7,M,-34.6,M,,*53
$PYRTM,2024,122.000153990162,13.109801400301
$GPGGA,000012.00,3307.4205,N,11821.1306,W,1,10,1.0,9.1,M,-34.6,M,,*52
$PYRTM,2024,122.000165580556,13.109812990694
$GPGGA,000013.00,3307.4214,N,11821.1327,W,1,10,1.0,9.1,M,-34.6,M,,*50
$PYRTM,2024,122.000177140810,13.109824550949
$GPGGA,000014.00,3307.4225,N,11821.1348,W,1,10,1.0,9.4,M,-34.6,M,,*59
$PYRTM,2024,122.000188725613,13.109836135752
$GPGGA,000015.00,3307.4235,N,11821.1370,W,1,10,1.0,9.9,M,-34.6,M,,*5F
$PYRTM,2024,122.000200287697,13.109847697836
$GPGGA,000016.00,3307.4243,N,11821.1393,W,1,10,1.0,10.3,M,-34.6,M,,*62
$PYRTM,2024,122.000211869062,13.109859279201
$GPGGA,000017.00,3307.4253,N,11821.1419,W,1,10,1.0,9.9,M,-34.6,M,,*55
$PYRTM,2024,122.000219269931,13.109866680069
$GPGGA,000018.00,3307.4262,N,11821.1443,W,1,10,1.0,9.4,M,-34.6,M,,*5A
$PYRTM,2024,122.000237915625,13.109885325764
$GPGGA,000019.00,3307.4272,N,11821.1462,W,1,10,1.0,9.5,M,-34.6,M,,*58
$PYRTM,2024,122.000246584016,13.109893994155
$GPGGA,000020.00,3307.4283,N,11821.1483,W,1,10,1.0,9.8,M,-34.6,M,,*5E
$PYRTM,2024,122.000258184306,13.109905594444
$GPGGA,000021.00,3307.4294,N,11821.1508,W,1,10,1.0,9.2,M,-34.6,M,,*51
$PYRTM,2024,122.000265566921,13.109912977072
$GPGGA,000022.00,3307.4303,N,11821.1532,W,1,10,1.0,9.2,M,-34.6,M,,*54
$PYRTM,2024,122.000281320868,13.109928731007
$GPGGA,000023.00,3307.4312,N,11821.1554,W,1,10,1.0,9.5,M,-34.6,M,,*52
$PYRTM,2024,122.000292879549,13.109940289688
$GPGGA,000024.00,3307.4322,N,11821.1576,W,1,10,1.0,10.0,M,-34.6,M,,*6B
$PYRTM,2024,122.000304463183,13.109951873322
$GPGGA,000025.00,3307.4333,N,11821.1596,W,1,10,1.0,10.0,M,-34.6,M,,*64
$PYRTM,2024,122.000316027975,13.109963438113
$GPGGA,000026.00,3307.4342,N,11821.1620,W,1,10,1.0,9.4,M,-34.6,M,,*53
$PYRTM,2024,122.000327611794,13.109975021933
$GPGGA,000027.00,3307.4351,N,11821.1644,W,1,10,1.0,8.5,M,-34.6,M,,*52
$PYRTM,2024,122.000339177361,13.109986587500
$GPGGA,000028.00,3307.4360,N,11821.1666,W,1,10,1.0,8.2,M,-34.6,M,,*58
$PYRTM,2024,122.000350760926,13.109998171065
$GPGGA,000029.00,3307.4369,N,11821.1684,W,1,10,1.0,8.8,M,-34.6,M,,*56
$PYRTM,2024,122.000362325394,13.110009735532
$GPGGA,000030.00,3307.4380,N,11821.1703,W,1,10,1.0,9.3,M,-34.6,M,,*5D
$PYRTM,2024,122.000373912141,13.110021322280
$GPGGA,000031.00,3307.4391,N,11821.1728,W,1,10,1.0,9.1,M,-34.6,M,,*57
$PYRTM,2024,122.000385474282,13.110032884421
$GPGGA,000032.00,3307.4400,N,11821.1753,W,1,10,1.0,8.6,M,-34.6,M,,*51
$PYRTM,2024,122.000392881400,13.110040291539
$GPGGA,000033.00,3307.4409,N,11821.1774,W,1,10,1.0,8.5,M,-34.6,M,,*5F
$PYRTM,2024,122.000408621817,13.110056031956
$GPGGA,000034.00,3307.4418,N,11821.1793,W,1,10,1.0,8.6,M,-34.6,M,,*52
$PYRTM,2024,122.000416030139,13.110063440278
$GPGGA,000035.00,3307.4428,N,11821.1815,W,1,10,1.0,8.7,M,-34.6,M,,*50
$PYRTM,2024,122.000431771273,13.110079181424
$GPGGA,000036.00,3307.4439,N,11821.1836,W,1,10,1.0,8.8,M,-34.6,M,,*5D
$PYRTM,2024,122.000443359676,13.110090769815
$GPGGA,000037.00,3307.4449,N,11821.1859,W,1,10,1.0,8.9,M,-34.6,M,,*53
$PYRTM,2024,122.000454918785,13.110102328924
$GPGGA,000038.00,3307.4458,N,11821.1884,W,1,10,1.0,8.5,M,-34.6,M,,*50
$PYRTM,2024,122.000466519514,13.110113929653
$GPGGA,000039.00,3307.4466,N,11821.1909,W,1,10,1.0,8.1,M,-34.6,M,,*5C
$PYRTM,2024,122.000478066632,13.110125476771
$GPGGA,000040.00,3307.4476,N,11821.1931,W,1,10,1.0,8.1,M,-34.6,M,,*58
$PYRTM,2024,122.000485474514,13.110132884653
$GPGGA,000041.00,3307.4487,N,11821.1954,W,1,10,1.0,8.2,M,-34.6,M,,*57
$PYRTM,2024,122.000504107824,13.110151517963
$GPGGA,000042.00,3307.4498,N,11821.1977,W,1,10,1.0,8.4,M,-34.6,M,,*5D
$PYRTM,2024,122.000512801620,13.110160211759
$GPGGA,000043.00,3307.4506,N,11821.1999,W,1,10,1.0,8.8,M,-34.6,M,,*56
$PYRTM,2024,122.000524364294,13.110171774433
$GPGGA,000044.00,3307.4516,N,11821.2023,W,1,10,1.0,8.7,M,-34.6,M,,*54
$PYRTM,2024,122.000531770799,13.110179180938
$GPGGA,000045.00,3307.4526,N,11821.2046,W,1,10,1.0,8.4,M,-34.6,M,,*56
$PYRTM,2024,122.000547513588,13.110194923727
$GPGGA,000046.00,3307.4536,N,11821.2067,W,1,10,1.0,8.4,M,-34.6,M,,*57
$PYRTM,2024,122.000559099109,13.110206509248
$GPGGA,000047.00,3307.4546,N,11821.2087,W,1,10,1.0,8.3,M,-34.6,M,,*58
$PYRTM,2024,122.000566494653,13.110213904792
$GPGGA,000048.00,3307.4556,N,11821.2111,W,1,10,1.0,8.2,M,-34.6,M,,*59
$PYRTM,2024,122.000578181586,13.110225591725
$GPGGA,000049.00,3307.4565,N,11821.2134,W,1,10,1.0,8.3,M,-34.6,M,,*5E
$PYRTM,2024,122.000596701366,13.110244111505
$GPGGA,000050.00,3307.4575,N,11821.2157,W,1,10,1.0,8.7,M,-34.6,M,,*56
$PYRTM,2024,122.000605400324,13.110252810463
$GPGGA,000051.00,3307.4585,N,11821.2180,W,1,10,1.0,8.9,M,-34.6,M,,*5C
$PYRTM,2024,122.000616956181,13.110264366331
$GPGGA,000052.00,3307.4594,N,11821.2205,W,1,10,1.0,9.0,M,-34.6,M,,*59
$PYRTM,2024,122.000628547014,13.110275957153
$GPGGA,000053.00,3307.4603,N,11821.2227,W,1,10,1.0,9.4,M,-34.6,M,,*51
$PYRTM,2024,122.000640106655,13.110287516794
$GPGGA,000054.00,3307.4613,N,11821.2249,W,1,10,1.0,9.8,M,-34.6,M,,*53
$PYRTM,2024,122.000651691377,13.110299101516
$GPGGA,000055.00,3307.4624,N,11821.2272,W,1,10,1.0,10.0,M,-34.6,M,,*6E
$PYRTM,2024,122.000663253206,13.110310663345
$GPGGA,000056.00,3307.4633,N,11821.2296,W,1,10,1.0,9.1,M,-34.6,M,,*58
$PYRTM,2024,122.000674840660,13.110322250799
$GPGGA,000057.00,3307.4640,N,11821.2319,W,1,10,1.0,8.6,M,-34.6,M,,*5D
$PYRTM,2024,122.000686401157,13.110333811296
$GPGGA,000058.00,3307.4648,N,11821.2341,W,1,10,1.0,9.1,M,-34.6,M,,*51
$PYRTM,2024,122.000697983345,13.110345393495
$GPGGA,000059.00,3307.4659,N,11821.2364,W,1,10,1.0,9.1,M,-34.6,M,,*57
$PYRTM,2024,122.000709549097,13.110356959236
$GPGGA,000100.00,3307.4671,N,11821.2387,W,1,10,1.0,8.8,M,-34.6,M,,*55
$PYRTM,2024,122.000721132199,13.110368542338
$GPGGA,000101.00,3307.4681,N,11821.2409,W,1,10,1.0,9.0,M,-34.6,M,,*53
$PYRTM,2024,122.000732696123,13.110380106262
$GPGGA,000102.00,3307.4689,N,11821.2431,W,1,10,1.0,9.2,M,-34.6,M,,*51
$PYRTM,2024,122.000740104525,13.110387514664
$GPGGA,000103.00,3307.4697,N,11821.2453,W,1,10,1.0,9.4,M,-34.6,M,,*5D
$PYRTM,2024,122.000755843634,13.110403253773
$GPGGA,000104.00,3307.4708,N,11821.2476,W,1,10,1.0,9.2,M,-34.6,M,,*5C
$PYRTM,2024,122.000767435035,13.110414845174
$GPGGA,000105.00,3307.4720,N,11821.2501,W,1,10,1.0,7.8,M,-34.6,M,,*52
$PYRTM,2024,122.000774827894,13.110422238032
$GPGGA,000106.00,3307.4731,N,11821.2524,W,1,10,1.0,7.2,M,-34.6,M,,*5C
$PYRTM,2024,122.000790582986,13.110437993125
$GPGGA,000107.00,3307.4738,N,11821.2543,W,1,10,1.0,7.7,M,-34.6,M,,*50
$PYRTM,2024,122.000802143414,13.110449553553
$GPGGA,000108.00,3307.4747,N,11821.2565,W,1,10,1.0,8.3,M,-34.6,M,,*58
$PYRTM,2024,122.000813728380,13.110461138519
$GPGGA,000109.00,3307.4757,N,11821.2590,W,1,10,1.0,8.3,M,-34.6,M,,*52
$PYRTM,2024,122.000825289109,13.110472699248
$GPGGA,000110.00,3307.4768,N,11821.2614,W,1,10,1.0,7.4,M,-34.6,M,,*51
$PYRTM,2024,122.000836876644,13.110484286782
$GPGGA,000111.00,3307.4777,N,11821.2635,W,1,10,1.0,7.3,M,-34.6,M,,*5A
$PYRTM,2024,122.000844287361,13.110491697500
$GPGGA,000112.00,3307.4785,N,11821.2654,W,1,10,1.0,8.2,M,-34.6,M,,*5D
$PYRTM,2024,122.000855960463,13.110503370602
$GPGGA,000113.00,3307.4796,N,11821.2675,W,1,10,1.0,7.9,M,-34.6,M,,*59
$PYRTM,2024,122.000871586817,13.110518996968
$GPGGA,000114.00,3307.4807,N,11821.2699,W,1,10,1.0,7.6,M,-34.6,M,,*54
$PYRTM,2024,122.000878993947,13.110526404086
$GPGGA,000115.00,3307.4816,N,11821.2721,W,1,10,1.0,7.1,M,-34.6,M,,*50
$PYRTM,2024,122.000894735104,13.110542145243
$GPGGA,000116.00,3307.4825,N,11821.2742,W,1,10,1.0,7.2,M,-34.6,M,,*55
$PYRTM,2024,122.000906321852,13.110553731991
$GPGGA,000117.00,3307.4835,N,11821.2763,W,1,10,1.0,7.8,M,-34.6,M,,*5C
$PYRTM,2024,122.000917883044,13.110565293183
$GPGGA,000118.00,3307.4845,N,11821.2785,W,1,10,1.0,8.2,M,-34.6,M,,*59
$PYRTM,2024,122.000929473924,13.110576884063
$GPGGA,000119.00,3307.4855,N,11821.2809,W,1,10,1.0,8.3,M,-34.6,M,,*53
$PYRTM,2024,122.000936866759,13.110584276898
$GPGGA,000120.00,3307.4865,N,11821.2833,W,1,10,1.0,8.5,M,-34.6,M,,*55
$PYRTM,2024,122.000955525509,13.110602935648
$GPGGA,000121.00,3307.4873,N,11821.2857,W,1,10,1.0,8.2,M,-34.6,M,,*56
$PYRTM,2024,122.000964181597,13.110611591736
$GPGGA,000122.00,3307.4883,N,11821.2881,W,1,10,1.0,8.1,M,-34.6,M,,*52
$PYRTM,2024,122.000971588727,13.110618998866
$GPGGA,000123.00,3307.4892,N,11821.2902,W,1,10,1.0,8.3,M,-34.6,M,,*5B
$PYRTM,2024,122.000983290521,13.110630700660
$GPGGA,000124.00,3307.4903,N,11821.2922,W,1,10,1.0,8.8,M,-34.6,M,,*5C
$PYRTM,2024,122.000998916412,13.110646326551
$GPGGA,000125.00,3307.4914,N,11821.2946,W,1,10,1.0,8.8,M,-34.6,M,,*59
$PYRTM,2024,122.001010476701,13.110657886852
$GPGGA,000126.00,3307.4924,N,11821.2972,W,1,10,1.0,8.2,M,-34.6,M,,*54
$PYRTM,2024,122.001022063275,13.110669473414
$GPGGA,000127.00,3307.4932,N,11821.2998,W,1,10,1.0,8.1,M,-34.6,M,,*55
$PYRTM,2024,122.001033624039,13.110681034190
$GPGGA,000128.00,3307.4940,N,11821.3021,W,1,10,1.0,8.2,M,-34.6,M,,*56
$PYRTM,2024,122.001045206157,13.110692616296
$GPGGA,000129.00,3307.4951,N,11821.3044,W,1,10,1.0,8.3,M,-34.6,M,,*55
$PYRTM,2024,122.001056773970,13.110704184109
$GPGGA,000130.00,3307.4963,N,11821.3066,W,1,10,1.0,8.2,M,-34.6,M,,*5D
$PYRTM,2024,122.001068361007,13.110715771146
$GPGGA,000131.00,3307.4973,N,11821.3090,W,1,10,1.0,8.4,M,-34.6,M,,*52
$PYRTM,2024,122.001075755463,13.110723165602
$GPGGA,000132.00,3307.4982,N,11821.3111,W,1,10,1.0,8.9,M,-34.6,M,,*5A
$PYRTM,2024,122.001091504745,13.110738914896
$GPGGA,000133.00,3307.4992,N,11821.3133,W,1,10,1.0,9.3,M,-34.6,M,,*51
$PYRTM,2024,122.001103069711,13.110750479850
$GPGGA,000134.00,3307.5003,N,11821.3156,W,1,10,1.0,9.0,M,-34.6,M,,*56
$PYRTM,2024,122.001114664965,13.110762075104
$GPGGA,000135.00,3307.5013,N,11821.3180,W,1,10,1.0,8.4,M,-34.6,M,,*58
$PYRTM,2024,122.001126332593,13.110773742731
$GPGGA,000136.00,3307.5021,N,11821.3202,W,1,10,1.0,8.0,M,-34.6,M,,*57
$PYRTM,2024,122.001137799595,13.110785209734
$GPGGA,000137.00,3307.5031,N,11821.3222,W,1,10,1.0,9.0,M,-34.6,M,,*54
$PYRTM,2024,122.001145212269,13.110792622407
$GPGGA,000138.00,3307.5043,N,11821.3245,W,1,10,1.0,9.4,M,-34.6,M,,*5B
$PYRTM,2024,122.001160951609,13.110808361748
$GPGGA,000139.00,3307.5053,N,11821.3270,W,1,10,1.0,9.1,M,-34.6,M,,*58
$PYRTM,2024,122.001172515220,13.110819925370
$GPGGA,000140.00,3307.5061,N,11821.3292,W,1,10,1.0,9.3,M,-34.6,M,,*59
$PYRTM,2024,122.001184105116,13.110831515255
$GPGGA,000141.00,3307.5070,N,11821.3313,W,1,10,1.0,9.5,M,-34.6,M,,*56
$PYRTM,2024,122.001195662280,13.110843072419
$GPGGA,000142.00,3307.5081,N,11821.3336,W,1,10,1.0,9.1,M,-34.6,M,,*58
$PYRTM,2024,122.001207248588,13.110854658727
$GPGGA,000143.00,3307.5092,N,11821.3359,W,1,10,1.0,8.3,M,-34.6,M,,*51
$PYRTM,2024,122.001218810637,13.110866220775
$GPGGA,000144.00,3307.5102,N,11821.3382,W,1,10,1.0,7.8,M,-34.6,M,,*5C
$PYRTM,2024,122.001226217627,13.110873627766
$GPGGA,000145.00,3307.5109,N,11821.3402,W,1,10,1.0,8.5,M,-34.6,M,,*5B
$PYRTM,2024,122.001241960127,13.110889370278
$GPGGA,000146.00,3307.5117,N,11821.3421,W,1,10,1.0,9.3,M,-34.6,M,,*51
$PYRTM,2024,122.001253546840,13.110900956979
$GPGGA,000147.00,3307.5128,N,11821.3443,W,1,10,1.0,9.5,M,-34.6,M,,*5E
$PYRTM,2024,122.001265107581,13.110912517720
$GPGGA,000148.00,3307.5139,N,11821.3469,W,1,10,1.0,8.8,M,-34.6,M,,*55
$PYRTM,2024,122.001276696806,13.110924106944
$GPGGA,000149.00,3307.5148,N,11821.3492,W,1,10,1.0,7.9,M,-34.6,M,,*58
$PYRTM,2024,122.001284089549,13.110931499688
$GPGGA,000150.00,3307.5156,N,11821.3512,W,1,10,1.0,8.4,M,-34.6,M,,*54
$PYRTM,2024,122.001295778947,13.110943189086
$GPGGA,000151.00,3307.5165,N,11821.3534,W,1,10,1.0,8.7,M,-34.6,M,,*52
$PYRTM,2024,122.001314300833,13.110961710984
$GPGGA,000152.00,3307.5175,N,11821.3556,W,1,10,1.0,9.0,M,-34.6,M,,*52
$PYRTM,2024,122.001325888380,13.110973298519
$GPGGA,000153.00,3307.5184,N,11821.3578,W,1,10,1.0,9.0,M,-34.6,M,,*51
$PYRTM,2024,122.001337445417,13.110984855556
$GPGGA,000154.00,3307.5194,N,11821.3601,W,1,10,1.0,8.8,M,-34.6,M,,*53
$PYRTM,2024,122.001346139074,13.110993549225
$GPGGA,000155.00,3307.5203,N,11821.3626,W,1,10,1.0,8.3,M,-34.6,M,,*51
$PYRTM,2024,122.001357699942,13.111005110081
$GPGGA,000156.00,3307.5212,N,11821.3650,W,1,10,1.0,7.9,M,-34.6,M,,*56
$PYRTM,2024,122.001369286655,13.111016696794
$GPGGA,000157.00,3307.5221,N,11821.3672,W,1,10,1.0,8.7,M,-34.6,M,,*56
$PYRTM,2024,122.001380848472,13.111028258611
$GPGGA,000158.00,3307.5231,N,11821.3694,W,1,10,1.0,9.4,M,-34.6,M,,*52
$PYRTM,2024,122.001392434711,13.111039844850
$GPGGA,000159.00,3307.5242,N,11821.3718,W,1,10,1.0,9.8,M,-34.6,M,,*5E
$PYRTM,2024,122.001403997650,13.111051407789
$GPGGA,000200.00,3307.5253,N,11821.3741,W,1,10,1.0,9.5,M,-34.6,M,,*50
$PYRTM,2024,122.001415590139,13.111063000278
$GPGGA,000201.00,3307.5262,N,11821.3765,W,1,10,1.0,8.9,M,-34.6,M,,*58
$PYRTM,2024,122.001427144201,13.111074554340
$GPGGA,000202.00,3307.5269,N,11821.3788,W,1,10,1.0,8.4,M,-34.6,M,,*5E
$PYRTM,2024,122.001438736412,13.111086146551
$GPGGA,000203.00,3307.5278,N,11821.3811,W,1,10,1.0,8.6,M,-34.6,M,,*52
$PYRTM,2024,122.001450295058,13.111097705197
$GPGGA,000204.00,3307.5290,N,11821.3833,W,1,10,1.0,8.6,M,-34.6,M,,*53
$PYRTM,2024,122.001457700521,13.111105110660
$GPGGA,000205.00,3307.5302,N,11821.3857,W,1,10,1.0,8.5,M,-34.6,M,,*59
$PYRTM,2024,122.001473442847,13.111120852986
$GPGGA,000206.00,3307.5311,N,11821.3880,W,1,10,1.0,8.7,M,-34.6,M,,*50
$PYRTM,2024,122.001485023553,13.111132433692
$GPGGA,000207.00,3307.5317,N,11821.3902,W,1,10,1.0,9.5,M,-34.6,M,,*5F
$PYRTM,2024,122.001496589282,13.111143999433
$GPGGA,000208.00,3307.5325,N,11821.3925,W,1,10,1.0,10.1,M,-34.6,M,,*68
$PYRTM,2024,122.001508176424,13.111155586563
$GPGGA,000209.00,3307.5336,N,11821.3950,W,1,10,1.0,9.5,M,-34.6,M,,*55
$PYRTM,2024,122.001515584120,13.111162994259
$GPGGA,000210.00,3307.5347,N,11821.3973,W,1,10,1.0,8.6,M,-34.6,M,,*58
$PYRTM,2024,122.001531324676,13.111178734815
$GPGGA,000211.00,3307.5356,N,11821.3993,W,1,10,1.0,8.8,M,-34.6,M,,*59
$PYRTM,2024,122.001542886146,13.111190296296
$GPGGA,000212.00,3307.5364,N,11821.4014,W,1,10,1.0,9.3,M,-34.6,M,,*50
$PYRTM,2024,122.001550292187,13.111197702315
$GPGGA,000213.00,3307.5374,N,11821.4038,W,1,10,1.0,9.2,M,-34.6,M,,*5F
$PYRTM,2024,122.001566034502,13.111213444641
$GPGGA,000214.00,3307.5385,N,11821.4063,W,1,10,1.0,8.7,M,-34.6,M,,*5C
$PYRTM,2024,122.001577620694,13.111225030833
$GPGGA,000215.00,3307.5396,N,11821.4087,W,1,10,1.0,8.4,M,-34.6,M,,*56
$PYRTM,2024,122.001585016192,13.111232426331
$GPGGA,000216.00,3307.5406,N,11821.4109,W,1,10,1.0,8.6,M,-34.6,M,,*5E
$PYRTM,2024,122.001600770289,13.111248180428
$GPGGA,000217.00,3307.5415,N,11821.4132,W,1,10,1.0,9.0,M,-34.6,M,,*52
$PYRTM,2024,122.001608164803,13.111255574942
$GPGGA,000218.00,3307.5424,N,11821.4155,W,1,10,1.0,9.4,M,-34.6,M,,*5A
$PYRTM,2024,122.001626810556,13.111274220694
$GPGGA,000219.00,3307.5434,N,11821.4178,W,1,10,1.0,9.3,M,-34.6,M,,*52
$PYRTM,2024,122.001638373738,13.111285783889
$GPGGA,000220.00,3307.5443,N,11821.4201,W,1,10,1.0,8.9,M,-34.6,M,,*5E
$PYRTM,2024,122.001647068773,13.111294478912
$GPGGA,000221.00,3307.5452,N,11821.4224,W,1,10,1.0,9.0,M,-34.6,M,,*50
$PYRTM,2024,122.001654460544,13.111301870683
$GPGGA,000222.00,3307.5461,N,11821.4247,W,1,10,1.0,8.5,M,-34.6,M,,*52
$PYRTM,2024,122.001673108391,13.111320518530
$GPGGA,000223.00,3307.5470,N,11821.4272,W,1,10,1.0,8.0,M,-34.6,M,,*50
$PYRTM,2024,122.001681775289,13.111329185428
$GPGGA,000224.00,3307.5479,N,11821.4295,W,1,10,1.0,8.5,M,-34.6,M,,*52
$PYRTM,2024,122.001693365127,13.111340775278
$GPGGA,000225.00,3307.5488,N,11821.4315,W,1,10,1.0,9.9,M,-34.6,M,,*59
$PYRTM,2024,122.001704924236,13.111352334387
$GPGGA,000226.00,3307.5499,N,11821.4338,W,1,10,1.0,9.8,M,-34.6,M,,*54
$PYRTM,2024,122.001712333611,13.111359743750
$GPGGA,000227.00,3307.5511,N,11821.4363,W,1,10,1.0,9.2,M,-34.6,M,,*50
$PYRTM,2024,122.001728076296,13.111375486435
$GPGGA,000228.00,3307.5519,N,11821.4384,W,1,10,1.0,9.2,M,-34.6,M,,*5E
$PYRTM,2024,122.001739659016,13.111387069155
$GPGGA,000229.00,3307.5527,N,11821.4405,W,1,10,1.0,9.4,M,-34.6,M,,*5A
$PYRTM,2024,122.001747053299,13.111394463449
$GPGGA,000230.00,3307.5536,N,11821.4429,W,1,10,1.0,9.3,M,-34.6,M,,*5B
$PYRTM,2024,122.001762827060,13.111410237199
$GPGGA,000231.00,3307.5547,N,11821.4455,W,1,10,1.0,8.0,M,-34.6,M,,*55
$PYRTM,2024,122.001774369317,13.111421779456
$GPGGA,000232.00,3307.5557,N,11821.4475,W,1,10,1.0,7.7,M,-34.6,M,,*5D
$PYRTM,2024,122.001785958229,13.111433368368
$GPGGA,000233.00,3307.5565,N,11821.4492,W,1,10,1.0,8.8,M,-34.6,M,,*54
$PYRTM,2024,122.001797518310,13.111444928461
$GPGGA,000234.00,3307.5576,N,11821.4515,W,1,10,1.0,8.8,M,-34.6,M,,*5F
$PYRTM,2024,122.001809117975,13.111456528113
$GPGGA,000235.00,3307.5586,N,11821.4541,W,1,10,1.0,8.3,M,-34.6,M,,*5B
$PYRTM,2024,122.001820664965,13.111468075104
$GPGGA,000236.00,3307.5593,N,11821.4564,W,1,10,1.0,8.6,M,-34.6,M,,*5E
$PYRTM,2024,122.001832252118,13.111479662257
$GPGGA,000237.00,3307.5600,N,11821.4583,W,1,10,1.0,9.4,M,-34.6,M,,*5C
$PYRTM,2024,122.001843813102,13.111491223241
$GPGGA,000238.00,3307.5610,N,11821.4604,W,1,10,1.0,9.4,M,-34.6,M,,*5E
$PYRTM,2024,122.001855400544,13.111502810683
$GPGGA,000239.00,3307.5621,N,11821.4630,W,1,10,1.0,8.6,M,-34.6,M,,*59
$PYRTM,2024,122.001866961204,13.111514371354
$GPGGA,000240.00,3307.5629,N,11821.4651,W,1,10,1.0,8.3,M,-34.6,M,,*5D
$PYRTM,2024,122.001878548171,13.111525958310
$GPGGA,000241.00,3307.5637,N,11821.4670,W,1,10,1.0,9.1,M,-34.6,M,,*53
$PYRTM,2024,122.001890110324,13.111537520463
$GPGGA,000242.00,3307.5647,N,11821.4690,W,1,10,1.0,10.3,M,-34.6,M,,*63
$PYRTM,2024,122.001901691852,13.111549101991
$GPGGA,000243.00,3307.5660,N,11821.4715,W,1,10,1.0,10.0,M,-34.6,M,,*68
$PYRTM,2024,122.001913257720,13.111560667859
$GPGGA,000244.00,3307.5670,N,11821.4740,W,1,10,1.0,8.3,M,-34.6,M,,*54
$PYRTM,2024,122.001924840891,13.111572251030
$GPGGA,000245.00,3307.5677,N,11821.4761,W,1,10,1.0,8.4,M,-34.6,M,,*56
$PYRTM,2024,122.001936405949,13.111583816088
$GPGGA,000246.00,3307.5684,N,11821.4777,W,1,10,1.0,9.0,M,-34.6,M,,*5B
$PYRTM,2024,122.001947996887,13.111595407025
$GPGGA,000247.00,3307.5695,N,11821.4795,W,1,10,1.0,10.0,M,-34.6,M,,*6E
$PYRTM,2024,122.001959555012,13.111606965648
$GPGGA,000248.00,3307.5708,N,11821.4817,W,1,10,1.0,10.2,M,-34.6,M,,*63
$PYRTM,2024,122.001971144653,13.111618554792
$GPGGA,000249.00,3307.5717,N,11821.4844,W,1,10,1.0,8.7,M,-34.6,M,,*56
$PYRTM,2024,122.001982715081,13.111630125231
$GPGGA,000250.00,3307.5723,N,11821.4870,W,1,10,1.0,6.8,M,-34.6,M,,*5F
$PYRTM,2024,122.001990111065,13.111637521204
$GPGGA,000251.00,3307.5729,N,11821.4890,W,1,10,1.0,6.8,M,-34.6,M,,*5A
$PYRTM,2024,122.002008745706,13.111656155845
$GPGGA,000252.00,3307.5739,N,11821.4906,W,1,10,1.0,7.7,M,-34.6,M,,*58
$PYRTM,2024,122.002020326748,13.111667736887
$GPGGA,000253.00,3307.5752,N,11821.4927,W,1,10,1.0,8.2,M,-34.6,M,,*5D
$PYRTM,2024,122.002034330972,13.111681741111
$GPGGA,000254.00,3307.5764,N,11821.4955,W,1,10,1.0,8.0,M,-34.6,M,,*58
$PYRTM,2024,122.002043480301,13.111690890440
$GPGGA,000255.00,3307.5770,N,11821.4980,W,1,10,1.0,7.0,M,-34.6,M,,*5B
$PYRTM,2024,122.002055041042,13.111702451181
$GPGGA,000256.00,3307.5774,N,11821.4998,W,1,10,1.0,7.5,M,-34.6,M,,*50
$PYRTM,2024,122.002063730324,13.111711140463
$GPGGA,000257.00,3307.5784,N,11821.5015,W,1,10,1.0,8.5,M,-34.6,M,,*5C
$PYRTM,2024,122.002071131134,13.111718541273
$GPGGA,000258.00,3307.5799,N,11821.5037,W,1,10,1.0,7.7,M,-34.6,M,,*52
$PYRTM,2024,122.002086886400,13.111734296539
$GPGGA,000259.00,3307.5810,N,11821.5060,W,1,10,1.0,7.5,M,-34.6,M,,*5D
$PYRTM,2024,122.002098456528,13.111745866667
$GPGGA,000300.00,3307.5816,N,11821.5080,W,1,10,1.0,7.3,M,-34.6,M,,*5E
$PYRTM,2024,122.002110044699,13.111757454838
$GPGGA,000301.00,3307.5821,N,11821.5099,W,1,10,1.0,8.4,M,-34.6,M,,*5B
$PYRTM,2024,122.002121601725,13.111769011863
$GPGGA,000302.00,3307.5832,N,11821.5121,W,1,10,1.0,8.6,M,-34.6,M,,*5A
$PYRTM,2024,122.002133183032,13.111780593171
$GPGGA,000303.00,3307.5845,N,11821.5145,W,1,10,1.0,7.8,M,-34.6,M,,*58
$PYRTM,2024,122.002144752569,13.111792162708
$GPGGA,000304.00,3307.5854,N,11821.5167,W,1,10,1.0,7.9,M,-34.6,M,,*5E
$PYRTM,2024,122.002156330637,13.111803740775
$GPGGA,000305.00,3307.5860,N,11821.5186,W,1,10,1.0,8.2,M,-34.6,M,,*53
$PYRTM,2024,122.002167900324,13.111815310463
$GPGGA,000306.00,3307.5868,N,11821.5209,W,1,10,1.0,8.3,M,-34.6,M,,*5D
$PYRTM,2024,122.002179475637,13.111826885775
$GPGGA,000307.00,3307.5879,N,11821.5233,W,1,10,1.0,8.2,M,-34.6,M,,*54
$PYRTM,2024,122.002191049097,13.111838459236
$GPGGA,000308.00,3307.5887,N,11821.5255,W,1,10,1.0,8.3,M,-34.6,M,,*5B
$PYRTM,2024,122.002202622963,13.111850033102
$GPGGA,000309.00,3307.5895,N,11821.5275,W,1,10,1.0,8.4,M,-34.6,M,,*5C
$PYRTM,2024,122.002214198507,13.111861608646
$GPGGA,000310.00,3307.5904,N,11821.5296,W,1,10,1.0,8.5,M,-34.6,M,,*51
$PYRTM,2024,122.002225774734,13.111873184873
$GPGGA,000311.00,3307.5913,N,11821.5317,W,1,10,1.0,8.4,M,-34.6,M,,*5F
$PYRTM,2024,122.002237346852,13.111884756991
$GPGGA,000312.00,3307.5923,N,11821.5339,W,1,10,1.0,7.8,M,-34.6,M,,*50
$PYRTM,2024,122.002248921146,13.111896331285
$GPGGA,000313.00,3307.5931,N,11821.5362,W,1,10,1.0,7.6,M,-34.6,M,,*52
$PYRTM,2024,122.002260496007,13.111907906146
$GPGGA,000314.00,3307.5939,N,11821.5382,W,1,10,1.0,8.2,M,-34.6,M,,*58
$PYRTM,2024,122.002272068889,13.111919479039
$GPGGA,000315.00,3307.5948,N,11821.5402,W,1,10,1.0,9.2,M,-34.6,M,,*51
$PYRTM,2024,122.002283642870,13.111931053009
$GPGGA,000316.00,3307.5958,N,11821.5425,W,1,10,1.0,9.1,M,-34.6,M,,*55
$PYRTM,2024,122.002295220451,13.111942630590
$GPGGA,000317.00,3307.5969,N,11821.5448,W,1,10,1.0,9.5,M,-34.6,M,,*59
$PYRTM,2024,122.002306785810,13.111954195949
$GPGGA,000318.00,3307.5978,N,11821.5470,W,1,10,1.0,9.3,M,-34.6,M,,*5B
$PYRTM,2024,122.002318365775,13.111965775926
$GPGGA,000319.00,3307.5987,N,11821.5491,W,1,10,1.0,9.2,M,-34.6,M,,*54
$PYRTM,2024,122.002329940359,13.111977350498
$GPGGA,000320.00,3307.5997,N,11821.5512,W,1,10,1.0,9.1,M,-34.6,M,,*56
$PYRTM,2024,122.002341516852,13.111988926991
$GPGGA,000321.00,3307.6007,N,11821.5535,W,1,10,1.0,8.9,M,-34.6,M,,*58
$PYRTM,2024,122.002348923287,13.111996333426
$GPGGA,000322.00,3307.6018,N,11821.5557,W,1,10,1.0,8.9,M,-34.6,M,,*51
$PYRTM,2024,122.002364656725,13.112012066875
$GPGGA,000323.00,3307.6027,N,11821.5579,W,1,10,1.0,9.3,M,-34.6,M,,*5B
$PYRTM,2024,122.002372073368,13.112019483507
$GPGGA,000324.00,3307.6034,N,11821.5602,W,1,10,1.0,10.1,M,-34.6,M,,*6B
$PYRTM,2024,122.002390703634,13.112038113773
$GPGGA,000325.00,3307.6044,N,11821.5626,W,1,10,1.0,10.5,M,-34.6,M,,*6F
$PYRTM,2024,122.002399383727,13.112046793866
$GPGGA,000326.00,3307.6054,N,11821.5652,W,1,10,1.0,9.8,M,-34.6,M,,*5B
$PYRTM,2024,122.002410959282,13.112058369421
$GPGGA,000327.00,3307.6064,N,11821.5675,W,1,10,1.0,9.0,M,-34.6,M,,*54
$PYRTM,2024,122.002418356782,13.112065766921
$GPGGA,000328.00,3307.6073,N,11821.5695,W,1,10,1.0,9.5,M,-34.6,M,,*56
$PYRTM,2024,122.002434106192,13.112081516331
$GPGGA,000329.00,3307.6082,N,11821.5714,W,1,10,1.0,10.5,M,-34.6,M,,*69
$PYRTM,2024,122.002445680440,13.112093090590
$GPGGA,000330.00,3307.6093,N,11821.5736,W,1,10,1.0,10.9,M,-34.6,M,,*6D
$PYRTM,2024,122.002453080127,13.112100490278
$GPGGA,000331.00,3307.6103,N,11821.5761,W,1,10,1.0,10.8,M,-34.6,M,,*67
$PYRTM,2024,122.002468828634,13.112116238773
$GPGGA,000332.00,3307.6112,N,11821.5787,W,1,10,1.0,10.0,M,-34.6,M,,*64
$PYRTM,2024,122.002480407014,13.112127817153
$GPGGA,000333.00,3307.6120,N,11821.5809,W,1,10,1.0,9.5,M,-34.6,M,,*50
$PYRTM,2024,122.002487796991,13.112135207130
$GPGGA,000334.00,3307.6129,N,11821.5827,W,1,10,1.0,9.8,M,-34.6,M,,*5F
$PYRTM,2024,122.002503552674,13.112150962824
$GPGGA,000335.00,3307.6139,N,11821.5844,W,1,10,1.0,10.7,M,-34.6,M,,*6D
$PYRTM,2024,122.002515126690,13.112162536829
$GPGGA,000336.00,3307.6152,N,11821.5867,W,1,10,1.0,10.6,M,-34.6,M,,*63
$PYRTM,2024,122.002522521470,13.112169931609
$GPGGA,000337.00,3307.6162,N,11821.5894,W,1,10,1.0,9.6,M,-34.6,M,,*55
$PYRTM,2024,122.002538273993,13.112185684132
$GPGGA,000338.00,3307.6169,N,11821.5918,W,1,10,1.0,9.0,M,-34.6,M,,*52
$PYRTM,2024,122.002549850856,13.112197260995
$GPGGA,000339.00,3307.6174,N,11821.5938,W,1,10,1.0,9.3,M,-34.6,M,,*5E
$PYRTM,2024,122.002561417512,13.112208827650
$GPGGA,000340.00,3307.6184,N,11821.5959,W,1,10,1.0,10.3,M,-34.6,M,,*60
$PYRTM,2024,122.002572996088,13.112220406227
$GPGGA,000341.00,3307.6198,N,11821.5983,W,1,10,1.0,9.9,M,-34.6,M,,*59
$PYRTM,2024,122.002584570000,13.112231980139
$GPGGA,000342.00,3307.6208,N,11821.6007,W,1,10,1.0,9.6,M,-34.6,M,,*59
$PYRTM,2024,122.002596147604,13.112243557743
$GPGGA,000343.00,3307.6215,N,11821.6031,W,1,10,1.0,9.3,M,-34.6,M,,*54
$PYRTM,2024,122.002607713137,13.112255123275
$GPGGA,000344.00,3307.6221,N,11821.6052,W,1,10,1.0,9.1,M,-34.6,M,,*53
$PYRTM,2024,122.002619295451,13.112266705590
$GPGGA,000345.00,3307.6230,N,11821.6070,W,1,10,1.0,9.9,M,-34.6,M,,*5A
$PYRTM,2024,122.002630866343,13.112278276481
$GPGGA,000346.00,3307.6241,N,11821.6091,W,1,10,1.0,10.1,M,-34.6,M,,*60
$PYRTM,2024,122.002642444664,13.112289854803
$GPGGA,000347.00,3307.6253,N,11821.6115,W,1,10,1.0,9.4,M,-34.6,M,,*52
$PYRTM,2024,122.002654014803,13.112301424942
$GPGGA,000348.00,3307.6263,N,11821.6140,W,1,10,1.0,8.7,M,-34.6,M,,*5C
$PYRTM,2024,122.002665590822,13.112313000961
$GPGGA,000349.00,3307.6269,N,11821.6162,W,1,10,1.0,8.5,M,-34.6,M,,*55
$PYRTM,2024,122.002677164120,13.112324574259
$GPGGA,000350.00,3307.6277,N,11821.6180,W,1,10,1.0,9.3,M,-34.6,M,,*59
$PYRTM,2024,122.002688738356,13.112336148495
$GPGGA,000351.00,3307.6288,N,11821.6200,W,1,10,1.0,10.3,M,-34.6,M,,*6B
$PYRTM,2024,122.002700311157,13.112347721296
$GPGGA,000352.00,3307.6300,N,11821.6223,W,1,10,1.0,9.8,M,-34.6,M,,*5B
$PYRTM,2024,122.002711886991,13.112359297130
$GPGGA,000353.00,3307.6310,N,11821.6247,W,1,10,1.0,9.0,M,-34.6,M,,*51
$PYRTM,2024,122.002719282072,13.112366692211
$GPGGA,000354.00,3307.6317,N,11821.6269,W,1,10,1.0,8.5,M,-34.6,M,,*59
$PYRTM,2024,122.002730971516,13.112378381655
$GPGGA,000355.00,3307.6325,N,11821.6290,W,1,10,1.0,8.5,M,-34.6,M,,*5F
$PYRTM,2024,122.002749488947,13.112396899086
$GPGGA,000356.00,3307.6336,N,11821.6311,W,1,10,1.0,8.6,M,-34.6,M,,*55
$PYRTM,2024,122.002761078981,13.112408489120
$GPGGA,000357.00,3307.6347,N,11821.6331,W,1,10,1.0,8.8,M,-34.6,M,,*5E
$PYRTM,2024,122.002772636898,13.112420047037
$GPGGA,000358.00,3307.6357,N,11821.6354,W,1,10,1.0,8.9,M,-34.6,M,,*52
$PYRTM,2024,122.002781331493,13.112428741644
$GPGGA,000359.00,3307.6365,N,11821.6381,W,1,10,1.0,8.5,M,-34.6,M,,*56
$PYRTM,2024,122.002788725556,13.112436135694
$GPGGA,000400.00,3307.6374,N,11821.6405,W,1,10,1.0,8.2,M,-34.6,M,,*51
$PYRTM,2024,122.002804482002,13.112451892141
$GPGGA,000401.00,3307.6383,N,11821.6425,W,1,10,1.0,8.3,M,-34.6,M,,*5B
$PYRTM,2024,122.002816053218,13.112463463356
$GPGGA,000402.00,3307.6394,N,11821.6444,W,1,10,1.0,9.2,M,-34.6,M,,*59
$PYRTM,2024,122.002827629722,13.112475039861
$GPGGA,000403.00,3307.6404,N,11821.6467,W,1,10,1.0,9.2,M,-34.6,M,,*57
$PYRTM,2024,122.002839195938,13.112486606088
$GPGGA,000404.00,3307.6413,N,11821.6493,W,1,10,1.0,8.4,M,-34.6,M,,*5A
$PYRTM,2024,122.002850778194,13.112498188333
$GPGGA,000405.00,3307.6420,N,11821.6517,W,1,10,1.0,8.1,M,-34.6,M,,*53
$PYRTM,2024,122.002862344016,13.112509754167
$GPGGA,000406.00,3307.6429,N,11821.6538,W,1,10,1.0,8.4,M,-34.6,M,,*51
$PYRTM,2024,122.002873918877,13.112521329016
$GPGGA,000407.00,3307.6440,N,11821.6559,W,1,10,1.0,8.8,M,-34.6,M,,*54
$PYRTM,2024,122.002885497060,13.112532907199
$GPGGA,000408.00,3307.6451,N,11821.6582,W,1,10,1.0,8.9,M,-34.6,M,,*5C
$PYRTM,2024,122.002897073657,13.112544483796
$GPGGA,000409.00,3307.6460,N,11821.6607,W,1,10,1.0,8.7,M,-34.6,M,,*5F
$PYRTM,2024,122.002908640718,13.112556050856
$GPGGA,000410.00,3307.6468,N,11821.6633,W,1,10,1.0,8.4,M,-34.6,M,,*5B
$PYRTM,2024,122.002920220845,13.112567630984
$GPGGA,000411.00,3307.6476,N,11821.6655,W,1,10,1.0,9.0,M,-34.6,M,,*50
$PYRTM,2024,122.002931788576,13.112579198715
$GPGGA,000412.00,3307.6487,N,11821.6677,W,1,10,1.0,9.6,M,-34.6,M,,*5B
$PYRTM,2024,122.002943367801,13.112590777940
$GPGGA,000413.00,3307.6498,N,11821.6700,W,1,10,1.0,9.7,M,-34.6,M,,*54
$PYRTM,2024,122.002954948299,13.112602358437
$GPGGA,000414.00,3307.6508,N,11821.6724,W,1,10,1.0,9.5,M,-34.6,M,,*5F
$PYRTM,2024,122.002966524942,13.112613935081
$GPGGA,000415.00,3307.6515,N,11821.6747,W,1,10,1.0,9.8,M,-34.6,M,,*5A
$PYRTM,2024,122.002978091852,13.112625501991
$GPGGA,000416.00,3307.6523,N,11821.6768,W,1,10,1.0,10.0,M,-34.6,M,,*61
$PYRTM,2024,122.002989679688,13.112637089826
$GPGGA,000417.00,3307.6534,N,11821.6790,W,1,10,1.0,10.0,M,-34.6,M,,*61
$PYRTM,2024,122.003001239074,13.112648649213
$GPGGA,000418.00,3307.6544,N,11821.6812,W,1,10,1.0,10.0,M,-34.6,M,,*6C
$PYRTM,2024,122.003012813935,13.112660224074
$GPGGA,000419.00,3307.6553,N,11821.6835,W,1,10,1.0,9.6,M,-34.6,M,,*50
$PYRTM,2024,122.003024387014,13.112671797164
$GPGGA,000420.00,3307.6563,N,11821.6859,W,1,10,1.0,9.2,M,-34.6,M,,*57
$PYRTM,2024,122.003035960868,13.112683371007
$GPGGA,000421.00,3307.6573,N,11821.6883,W,1,10,1.0,9.1,M,-34.6,M,,*53
$PYRTM,2024,122.003047537176,13.112694947315
$GPGGA,000422.00,3307.6584,N,11821.6906,W,1,10,1.0,9.3,M,-34.6,M,,*56
$PYRTM,2024,122.003059110752,13.112706520891
$GPGGA,000423.00,3307.6594,N,11821.6929,W,1,10,1.0,9.7,M,-34.6,M,,*5F
$PYRTM,2024,122.003066505220,13.112713915370
$GPGGA,000424.00,3307.6603,N,11821.6952,W,1,10,1.0,10.4,M,-34.6,M,,*62
$PYRTM,2024,122.003082253206,13.112729663356
$GPGGA,000425.00,3307.6613,N,11821.6976,W,1,10,1.0,10.6,M,-34.6,M,,*66
$PYRTM,2024,122.003089652222,13.112737062361
$GPGGA,000426.00,3307.6624,N,11821.7002,W,1,10,1.0,9.6,M,-34.6,M,,*52
$PYRTM,2024,122.003108294630,13.112755704769
$GPGGA,000427.00,3307.6634,N,11821.7025,W,1,10,1.0,9.0,M,-34.6,M,,*51
$PYRTM,2024,122.003116980521,13.112764390660
$GPGGA,000428.00,3307.6641,N,11821.7045,W,1,10,1.0,9.2,M,-34.6,M,,*58
$PYRTM,2024,122.003128555336,13.112775965475
$GPGGA,000429.00,3307.6649,N,11821.7068,W,1,10,1.0,9.6,M,-34.6,M,,*5A
$PYRTM,2024,122.003140129155,13.112787539294
$GPGGA,000430.00,3307.6660,N,11821.7094,W,1,10,1.0,8.8,M,-34.6,M,,*55
$PYRTM,2024,122.003151705324,13.112799115463
$GPGGA,000431.00,3307.6669,N,11821.7116,W,1,10,1.0,8.7,M,-34.6,M,,*59
$PYRTM,2024,122.003163278530,13.112810688669
$GPGGA,000432.00,3307.6678,N,11821.7136,W,1,10,1.0,9.6,M,-34.6,M,,*58
$PYRTM,2024,122.003174851470,13.112822261609
$GPGGA,000433.00,3307.6688,N,11821.7158,W,1,10,1.0,9.9,M,-34.6,M,,*51
$PYRTM,2024,122.003182258507,13.112829668646
$GPGGA,000434.00,3307.6699,N,11821.7181,W,1,10,1.0,9.6,M,-34.6,M,,*5D
$PYRTM,2024,122.003197999757,13.112845409896
$GPGGA,000435.00,3307.6710,N,11821.7205,W,1,10,1.0,8.9,M,-34.6,M,,*5D
$PYRTM,2024,122.003209572928,13.112856983067
$GPGGA,000436.00,3307.6718,N,11821.7227,W,1,10,1.0,8.4,M,-34.6,M,,*5B
$PYRTM,2024,122.003216969167,13.112864379306
$GPGGA,000437.00,3307.6726,N,11821.7247,W,1,10,1.0,8.5,M,-34.6,M,,*50
$PYRTM,2024,122.003232723171,13.112880133310
$GPGGA,000438.00,3307.6735,N,11821.7270,W,1,10,1.0,8.9,M,-34.6,M,,*55
$PYRTM,2024,122.003244294873,13.112891705012
$GPGGA,000439.00,3307.6746,N,11821.7296,W,1,10,1.0,9.0,M,-34.6,M,,*50
$PYRTM,2024,122.003251691493,13.112899101632
$GPGGA,000440.00,3307.6755,N,11821.7321,W,1,10,1.0,9.0,M,-34.6,M,,*51
$PYRTM,2024,122.003267443356,13.112914853495
$GPGGA,000441.00,3307.6763,N,11821.7345,W,1,10,1.0,10.0,M,-34.6,M,,*6F
$PYRTM,2024,122.003274841227,13.112922251366
$GPGGA,000442.00,3307.6771,N,11821.7369,W,1,10,1.0,10.8,M,-34.6,M,,*69
$PYRTM,2024,122.003286528333,13.112933938461
$GPGGA,000443.00,3307.6782,N,11821.7394,W,1,10,1.0,9.8,M,-34.6,M,,*5E
$PYRTM,2024,122.003302166887,13.112949577025
$GPGGA,000444.00,3307.6792,N,11821.7418,W,1,10,1.0,8.9,M,-34.6,M,,*5B
$PYRTM,2024,122.003313743368,13.112961153507
$GPGGA,000445.00,3307.6801,N,11821.7439,W,1,10,1.0,9.1,M,-34.6,M,,*55
$PYRTM,2024,122.003321134792,13.112968544931
$GPGGA,000446.00,3307.6813,N,11821.7460,W,1,10,1.0,9.1,M,-34.6,M,,*59
$PYRTM,2024,122.003336891678,13.112984301829
$GPGGA,000447.00,3307.6824,N,11821.7484,W,1,10,1.0,9.4,M,-34.6,M,,*53
$PYRTM,2024,122.003348461713,13.112995871852
$GPGGA,000448.00,3307.6832,N,11821.7507,W,1,10,1.0,9.8,M,-34.6,M,,*5D
$PYRTM,2024,122.003360040324,13.113007450475
$GPGGA,000449.00,3307.6841,N,11821.7527,W,1,10,1.0,10.3,M,-34.6,M,,*69
$PYRTM,2024,122.003371611516,13.113019021655
$GPGGA,000450.00,3307.6851,N,11821.7548,W,1,10,1.0,10.9,M,-34.6,M,,*63
$PYRTM,2024,122.003383185602,13.113030595741
$GPGGA,000451.00,3307.6862,N,11821.7571,W,1,10,1.0,9.8,M,-34.6,M,,*51
$PYRTM,2024,122.003390595544,13.113038005694
$GPGGA,000452.00,3307.6870,N,11821.7594,W,1,10,1.0,9.3,M,-34.6,M,,*51
$PYRTM,2024,122.003406334525,13.113053744664
$GPGGA,000453.00,3307.6878,N,11821.7616,W,1,10,1.0,9.5,M,-34.6,M,,*57
$PYRTM,2024,122.003417907940,13.113065318079
$GPGGA,000454.00,3307.6888,N,11821.7637,W,1,10,1.0,10.1,M,-34.6,M,,*60
$PYRTM,2024,122.003429482037,13.113076892176
$GPGGA,000455.00,3307.6899,N,11821.7660,W,1,10,1.0,10.3,M,-34.6,M,,*61
$PYRTM,2024,122.003441056100,13.113088466238
$GPGGA,000456.00,3307.6910,N,11821.7684,W,1,10,1.0,9.9,M,-34.6,M,,*5A
$PYRTM,2024,122.003448449549,13.113095859688
$GPGGA,000457.00,3307.6919,N,11821.7709,W,1,10,1.0,9.2,M,-34.6,M,,*5D
$PYRTM,2024,122.003467085440,13.113114495579
$GPGGA,000458.00,3307.6927,N,11821.7731,W,1,10,1.0,9.2,M,-34.6,M,,*54
$PYRTM,2024,122.003475792326,13.113123202465
$GPGGA,000459.00,3307.6935,N,11821.7752,W,1,10,1.0,9.7,M,-34.6,M,,*56
$PYRTM,2024,122.003487353218,13.113134763356
$GPGGA,000500.00,3307.6945,N,11821.7774,W,1,10,1.0,10.4,M,-34.6,M,,*63
$PYRTM,2024,122.003494747002,13.113142157141
$GPGGA,000501.00,3307.6957,N,11821.7798,W,1,10,1.0,10.3,M,-34.6,M,,*64
$PYRTM,2024,122.003510499757,13.113157909896
$GPGGA,000502.00,3307.6967,N,11821.7823,W,1,10,1.0,9.4,M,-34.6,M,,*54
$PYRTM,2024,122.003522074664,13.113169484815
$GPGGA,000503.00,3307.6974,N,11821.7846,W,1,10,1.0,8.8,M,-34.6,M,,*59
$PYRTM,2024,122.003533648530,13.113181058669
$GPGGA,000504.00,3307.6981,N,11821.7867,W,1,10,1.0,9.5,M,-34.6,M,,*5B
$PYRTM,2024,122.003545218935,13.113192629074
$GPGGA,000505.00,3307.6992,N,11821.7887,W,1,10,1.0,10.2,M,-34.6,M,,*69
$PYRTM,2024,122.003556797720,13.113204207859
$GPGGA,000506.00,3307.7004,N,11821.7911,W,1,10,1.0,10.2,M,-34.6,M,,*63
$PYRTM,2024,122.003568372234,13.113215782373
$GPGGA,000507.00,3307.7015,N,11821.7938,W,1,10,1.0,9.3,M,-34.6,M,,*50
$PYRTM,2024,122.003579940926,13.113227351076
$GPGGA,000508.00,3307.7021,N,11821.7963,W,1,10,1.0,8.6,M,-34.6,M,,*52
$PYRTM,2024,122.003591519757,13.113238929907
$GPGGA,000509.00,3307.7028,N,11821.7984,W,1,10,1.0,8.9,M,-34.6,M,,*5C
$PYRTM,2024,122.003603093819,13.113250503970
$GPGGA,000510.00,3307.7037,N,11821.8003,W,1,10,1.0,10.1,M,-34.6,M,,*62
$PYRTM,2024,122.003614669734,13.113262079873
$GPGGA,000511.00,3307.7050,N,11821.8023,W,1,10,1.0,11.5,M,-34.6,M,,*65
$PYRTM,2024,122.003626241412,13.113273651551
$GPGGA,000512.00,3307.7061,N,11821.8048,W,1,10,1.0,10.9,M,-34.6,M,,*64
$PYRTM,2024,122.003637818565,13.113285228704
$GPGGA,000513.00,3307.7069,N,11821.8075,W,1,10,1.0,9.5,M,-34.6,M,,*57
$PYRTM,2024,122.003649391562,13.113296801701
$GPGGA,000514.00,3307.7076,N,11821.8100,W,1,10,1.0,7.9,M,-34.6,M,,*5F
$PYRTM,2024,122.003660978148,13.113308388287
$GPGGA,000515.00,3307.7085,N,11821.8121,W,1,10,1.0,7.6,M,-34.6,M,,*5E
$PYRTM,2024,122.003672538275,13.113319948426
$GPGGA,000516.00,3307.7097,N,11821.8141,W,1,10,1.0,8.3,M,-34.6,M,,*52
$PYRTM,2024,122.003684116331,13.113331526470
$GPGGA,000517.00,3307.7110,N,11821.8162,W,1,10,1.0,9.7,M,-34.6,M,,*59
$PYRTM,2024,122.003695688368,13.113343098519
$GPGGA,000518.00,3307.7121,N,11821.8187,W,1,10,1.0,10.3,M,-34.6,M,,*63
$PYRTM,2024,122.003703080961,13.113350491111
$GPGGA,000519.00,3307.7129,N,11821.8213,W,1,10,1.0,10.1,M,-34.6,M,,*66
$PYRTM,2024,122.003718834444,13.113366244583
$GPGGA,000520.00,3307.7137,N,11821.8236,W,1,10,1.0,9.0,M,-34.6,M,,*5D
$PYRTM,2024,122.003726231366,13.113373641505
$GPGGA,000521.00,3307.7148,N,11821.8257,W,1,10,1.0,8.4,M,-34.6,M,,*56
$PYRTM,2024,122.003741986296,13.113389396435
$GPGGA,000522.00,3307.7159,N,11821.8277,W,1,10,1.0,8.2,M,-34.6,M,,*51
$PYRTM,2024,122.003753557350,13.113400967488
$GPGGA,000523.00,3307.7169,N,11821.8297,W,1,10,1.0,8.5,M,-34.6,M,,*5A
$PYRTM,2024,122.003765131123,13.113412541262
$GPGGA,000524.00,3307.7177,N,11821.8318,W,1,10,1.0,9.1,M,-34.6,M,,*51
$PYRTM,2024,122.003776704884,13.113424115023
$GPGGA,000525.00,3307.7186,N,11821.8343,W,1,10,1.0,9.1,M,-34.6,M,,*50
$PYRTM,2024,122.003788278715,13.113435688854
$GPGGA,000526.00,3307.7196,N,11821.8366,W,1,10,1.0,8.8,M,-34.6,M,,*5D
$PYRTM,2024,122.003799857257,13.113447267396
$GPGGA,000527.00,3307.7209,N,11821.8389,W,1,10,1.0,8.4,M,-34.6,M,,*54
$PYRTM,2024,122.003807248611,13.113454658762
$GPGGA,000528.00,3307.7219,N,11821.8409,W,1,10,1.0,8.7,M,-34.6,M,,*56
$PYRTM,2024,122.003825898056,13.113473308194
$GPGGA,000529.00,3307.7227,N,11821.8429,W,1,10,1.0,9.4,M,-34.6,M,,*5A
$PYRTM,2024,122.003834575810,13.113481985949
$GPGGA,000530.00,3307.7237,N,11821.8451,W,1,10,1.0,9.6,M,-34.6,M,,*5E
$PYRTM,2024,122.003846150648,13.113493560787
$GPGGA,000531.00,3307.7248,N,11821.8476,W,1,10,1.0,8.9,M,-34.6,M,,*5C
$PYRTM,2024,122.003857724954,13.113505135093
$GPGGA,000532.00,3307.7258,N,11821.8500,W,1,10,1.0,8.4,M,-34.6,M,,*53
$PYRTM,2024,122.003869300799,13.113516710938
$GPGGA,000533.00,3307.7267,N,11821.8520,W,1,10,1.0,8.5,M,-34.6,M,,*5D
$PYRTM,2024,122.003880872361,13.113528282500
$GPGGA,000534.00,3307.7278,N,11821.8540,W,1,10,1.0,9.0,M,-34.6,M,,*56
$PYRTM,2024,122.003892446563,13.113539856701
$GPGGA,000535.00,3307.7289,N,11821.8564,W,1,10,1.0,9.6,M,-34.6,M,,*59
$PYRTM,2024,122.003904020231,13.113551430370
$GPGGA,000536.00,3307.7298,N,11821.8590,W,1,10,1.0,8.8,M,-34.6,M,,*5E
$PYRTM,2024,122.003915599433,13.113563009572
$GPGGA,000537.00,3307.7306,N,11821.8613,W,1,10,1.0,8.9,M,-34.6,M,,*50
$PYRTM,2024,122.003927169988,13.113574580127
$GPGGA,000538.00,3307.7314,N,11821.8635,W,1,10,1.0,9.0,M,-34.6,M,,*50
$PYRTM,2024,122.003938743345,13.113586153495
$GPGGA,000539.00,3307.7324,N,11821.8658,W,1,10,1.0,9.1,M,-34.6,M,,*58
$PYRTM,2024,122.003950317141,13.113597727292
$GPGGA,000540.00,3307.7336,N,11821.8682,W,1,10,1.0,8.4,M,-34.6,M,,*56
$PYRTM,2024,122.003961887176,13.113609297315
$GPGGA,000541.00,3307.7344,N,11821.8703,W,1,10,1.0,8.4,M,-34.6,M,,*5A
$PYRTM,2024,122.003973464815,13.113620874954
$GPGGA,000542.00,3307.7352,N,11821.8724,W,1,10,1.0,8.7,M,-34.6,M,,*58
$PYRTM,2024,122.003985035081,13.113632445220
$GPGGA,000543.00,3307.7361,N,11821.8747,W,1,10,1.0,9.1,M,-34.6,M,,*5B
$PYRTM,2024,122.003996614583,13.113644024722
$GPGGA,000544.00,3307.7372,N,11821.8771,W,1,10,1.0,9.0,M,-34.6,M,,*5A
$PYRTM,2024,122.004008188368,13.113655598507
$GPGGA,000545.00,3307.7383,N,11821.8795,W,1,10,1.0,8.3,M,-34.6,M,,*5D
$PYRTM,2024,122.004015582500,13.113662992639
$GPGGA,000546.00,3307.7393,N,11821.8818,W,1,10,1.0,8.1,M,-34.6,M,,*57
$PYRTM,2024,122.004031337338,13.113678747477
$GPGGA,000547.00,3307.7402,N,11821.8840,W,1,10,1.0,8.3,M,-34.6,M,,*56
$PYRTM,2024,122.004042909583,13.113690319734
$GPGGA,000548.00,3307.7411,N,11821.8861,W,1,10,1.0,8.8,M,-34.6,M,,*53
$PYRTM,2024,122.004050305150,13.113697715289
$GPGGA,000549.00,3307.7420,N,11821.8882,W,1,10,1.0,9.2,M,-34.6,M,,*56
$PYRTM,2024,122.004066058646,13.113713468785
$GPGGA,000550.00,3307.7430,N,11821.8905,W,1,10,1.0,9.4,M,-34.6,M,,*57
$PYRTM,2024,122.004077647535,13.113725057674
$GPGGA,000551.00,3307.7441,N,11821.8932,W,1,10,1.0,8.1,M,-34.6,M,,*50
$PYRTM,2024,122.004085027488,13.113732437627
$GPGGA,000552.00,3307.7449,N,11821.8954,W,1,10,1.0,7.8,M,-34.6,M,,*5D
$PYRTM,2024,122.004100797755,13.113748207894
$GPGGA,000553.00,3307.7457,N,11821.8974,W,1,10,1.0,9.0,M,-34.6,M,,*57
$PYRTM,2024,122.004112355440,13.113759765590
$GPGGA,000554.00,3307.7468,N,11821.8995,W,1,10,1.0,9.3,M,-34.6,M,,*50
$PYRTM,2024,122.004119749757,13.113767159896
$GPGGA,000555.00,3307.7479,N,11821.9021,W,1,10,1.0,8.8,M,-34.6,M,,*5C
$PYRTM,2024,122.004135502326,13.113782912465
$GPGGA,000556.00,3307.7488,N,11821.9046,W,1,10,1.0,8.5,M,-34.6,M,,*5D
$PYRTM,2024,122.004147077326,13.113794487465
$GPGGA,000557.00,3307.7495,N,11821.9069,W,1,10,1.0,8.3,M,-34.6,M,,*5B
$PYRTM,2024,122.004154489063,13.113801899201
$GPGGA,000558.00,3307.7504,N,11821.9091,W,1,10,1.0,8.5,M,-34.6,M,,*5C
$PYRTM,2024,122.004166161100,13.113813571238
$GPGGA,000559.00,3307.7516,N,11821.9114,W,1,10,1.0,8.5,M,-34.6,M,,*52
$PYRTM,2024,122.004184680093,13.113832090231
$GPGGA,000600.00,3307.7526,N,11821.9138,W,1,10,1.0,8.3,M,-34.6,M,,*56
$PYRTM,2024,122.004196266609,13.113843676748
$GPGGA,000601.00,3307.7534,N,11821.9160,W,1,10,1.0,8.6,M,-34.6,M,,*5C
$PYRTM,2024,122.004207828495,13.113855238634
$GPGGA,000602.00,3307.7543,N,11821.9182,W,1,10,1.0,9.1,M,-34.6,M,,*55
$PYRTM,2024,122.004216520810,13.113863930949
$GPGGA,000603.00,3307.7553,N,11821.9205,W,1,10,1.0,9.0,M,-34.6,M,,*58
$PYRTM,2024,122.004228098565,13.113875508704
$GPGGA,000604.00,3307.7562,N,11821.9229,W,1,10,1.0,8.8,M,-34.6,M,,*5A
$PYRTM,2024,122.004239684803,13.113887094942
$GPGGA,000605.00,3307.7571,N,11821.9251,W,1,09,1.0,8.3,M,-34.6,M,,*55
$PYRTM,2024,122.004251244734,13.113898654873
$GPGGA,000606.00,3307.7582,N,11821.9273,W,1,09,1.0,8.8,M,-34.6,M,,*51
$PYRTM,2024,122.004262822373,13.113910232512
$GPGGA,000607.00,3307.7593,N,11821.9295,W,1,09,1.0,8.6,M,-34.6,M,,*56
$PYRTM,2024,122.004274392708,13.113921802847
$GPGGA,000608.00,3307.7604,N,11821.9317,W,1,09,1.0,8.9,M,-34.6,M,,*50
$PYRTM,2024,122.004285967025,13.113933377164
$GPGGA,000609.00,3307.7614,N,11821.9338,W,1,09,1.0,9.5,M,-34.6,M,,*50
$PYRTM,2024,122.004297542037,13.113944952176
$GPGGA,000610.00,3307.7623,N,11821.9361,W,1,09,1.0,9.7,M,-34.6,M,,*52
$PYRTM,2024,122.004309114954,13.113956525093
$GPGGA,000611.00,3307.7633,N,11821.9386,W,1,09,1.0,9.4,M,-34.6,M,,*58
$PYRTM,2024,122.004320689074,13.113968099213
$GPGGA,000612.00,3307.7643,N,11821.9410,W,1,09,1.0,8.8,M,-34.6,M,,*59
$PYRTM,2024,122.004332257836,13.113979667975
$GPGGA,000613.00,3307.7652,N,11821.9432,W,1,09,1.0,8.7,M,-34.6,M,,*57
$PYRTM,2024,122.004343838102,13.113991248241
$GPGGA,000614.00,3307.7660,N,11821.9455,W,1,09,1.0,9.0,M,-34.6,M,,*56
$PYRTM,2024,122.004351231562,13.113998641701
$GPGGA,000615.00,3307.7669,N,11821.9478,W,1,09,1.0,9.4,M,-34.6,M,,*55
$PYRTM,2024,122.004366984919,13.114014395058
$GPGGA,000616.00,3307.7679,N,11821.9501,W,1,09,1.0,9.6,M,-34.6,M,,*5A
$PYRTM,2024,122.004378562014,13.114025972153
$GPGGA,000617.00,3307.7688,N,11821.9524,W,1,09,1.0,9.5,M,-34.6,M,,*51
$PYRTM,2024,122.004390133819,13.114037543958
$GPGGA,000618.00,3307.7698,N,11821.9549,W,1,09,1.0,9.2,M,-34.6,M,,*53
$PYRTM,2024,122.004401708877,13.114049119016
$GPGGA,000619.00,3307.7707,N,11821.9571,W,1,09,1.0,9.2,M,-34.6,M,,*5E
$PYRTM,2024,122.004413281597,13.114060691736
$GPGGA,000620.00,3307.7715,N,11821.9591,W,1,09,1.0,9.5,M,-34.6,M,,*5E
$PYRTM,2024,122.004420675961,13.114068086100
$GPGGA,000621.00,3307.7726,N,11821.9613,W,1,09,1.0,9.7,M,-34.6,M,,*54
$PYRTM,2024,122.004436430845,13.114083840984
$GPGGA,000622.00,3307.7737,N,11821.9639,W,1,09,1.0,9.0,M,-34.6,M,,*58
$PYRTM,2024,122.004448019502,13.114095429641
$GPGGA,000623.00,3307.7746,N,11821.9663,W,1,09,1.0,8.1,M,-34.6,M,,*50
$PYRTM,2024,122.004455398125,13.114102808264
$GPGGA,000624.00,3307.7753,N,11821.9683,W,1,09,1.0,8.8,M,-34.6,M,,*54
$PYRTM,2024,122.004471153090,13.114118563229
$GPGGA,000625.00,3307.7762,N,11821.9702,W,1,09,1.0,9.3,M,-34.6,M,,*55
$PYRTM,2024,122.004482726701,13.114130136840
$GPGGA,000626.00,3307.7773,N,11821.9727,W,1,09,1.0,10.3,M,-34.6,M,,*69
$PYRTM,2024,122.004494300718,13.114141710856
$GPGGA,000627.00,3307.7785,N,11821.9756,W,1,09,1.0,9.3,M,-34.6,M,,*5F
$PYRTM,2024,122.004505871181,13.114153281319
$GPGGA,000628.00,3307.7792,N,11821.9781,W,1,09,1.0,8.2,M,-34.6,M,,*5C
$PYRTM,2024,122.004517450093,13.114164860231
$GPGGA,000629.00,3307.7799,N,11821.9800,W,1,09,1.0,8.7,M,-34.6,M,,*55
$PYRTM,2024,122.004524843808,13.114172253947
$GPGGA,000630.00,3307.7809,N,11821.9819,W,1,09,1.0,9.5,M,-34.6,M,,*50
$PYRTM,2024,122.004543491840,13.114190901991
$GPGGA,000631.00,3307.7821,N,11821.9844,W,1,09,1.0,9.4,M,-34.6,M,,*52
$PYRTM,2024,122.004552172627,13.114199582766
$GPGGA,000632.00,3307.7831,N,11821.9871,W,1,09,1.0,8.9,M,-34.6,M,,*5A
$PYRTM,2024,122.004559567396,13.114206977535
$GPGGA,000633.00,3307.7839,N,11821.9893,W,1,09,1.0,8.8,M,-34.6,M,,*5E
$PYRTM,2024,122.004575319769,13.114222729907
$GPGGA,000634.00,3307.7848,N,11821.9915,W,1,09,1.0,8.9,M,-34.6,M,,*51
$PYRTM,2024,122.004586908519,13.114234318657
$GPGGA,000635.00,3307.7859,N,11821.9937,W,1,09,1.0,8.7,M,-34.6,M,,*5E
$PYRTM,2024,122.004594289248,13.114241699387
$GPGGA,000636.00,3307.7868,N,11821.9956,W,1,09,1.0,9.1,M,-34.6,M,,*5F
$PYRTM,2024,122.004610056227,13.114257466366
$GPGGA,000637.00,3307.7878,N,11821.9974,W,1,09,1.0,9.8,M,-34.6,M,,*56
$PYRTM,2024,122.004621615625,13.114269025764
$GPGGA,000638.00,3307.7888,N,11821.9996,W,1,09,1.0,8.5,M,-34.6,M,,*56
$PYRTM,2024,122.004629011238,13.114276421377
$GPGGA,000639.00,3307.7897,N,11822.0019,W,1,09,1.0,8.2,M,-34.6,M,,*5A
$PYRTM,2024,122.004644759398,13.114292169537
$GPGGA,000640.00,3307.7904,N,11822.0041,W,1,09,1.0,8.0,M,-34.6,M,,*50
$PYRTM,2024,122.004656338553,13.114303748692
$GPGGA,000641.00,3307.7914,N,11822.0060,W,1,09,1.0,8.5,M,-34.6,M,,*56
$PYRTM,2024,122.004667912083,13.114315322222
$GPGGA,000642.00,3307.7925,N,11822.0080,W,1,09,1.0,8.4,M,-34.6,M,,*58
$PYRTM,2024,122.004679490093,13.114326900231
$GPGGA,000643.00,3307.7936,N,11822.0102,W,1,09,1.0,8.3,M,-34.6,M,,*57
$PYRTM,2024,122.004691060532,13.114338470671
$GPGGA,000644.00,3307.7944,N,11822.0125,W,1,09,1.0,8.6,M,-34.6,M,,*55
$PYRTM,2024,122.004702636609,13.114350046748
$GPGGA,000645.00,3307.7952,N,11822.0148,W,1,09,1.0,8.6,M,-34.6,M,,*58
$PYRTM,2024,122.004714209595,13.114361619734
$GPGGA,000646.00,3307.7962,N,11822.0173,W,1,09,1.0,7.9,M,-34.6,M,,*50
$PYRTM,2024,122.004725784491,13.114373194641
$GPGGA,000647.00,3307.7972,N,11822.0196,W,1,09,1.0,7.7,M,-34.6,M,,*55
$PYRTM,2024,122.004737357500,13.114384767639
$GPGGA,000648.00,3307.7981,N,11822.0217,W,1,09,1.0,8.2,M,-34.6,M,,*56
$PYRTM,2024,122.004744753993,13.114392164132
$GPGGA,000649.00,3307.7990,N,11822.0238,W,1,09,1.0,8.7,M,-34.6,M,,*5F
$PYRTM,2024,122.004760508692,13.114407918843
$GPGGA,000650.00,3307.7999,N,11822.0263,W,1,09,1.0,8.6,M,-34.6,M,,*51
$PYRTM,2024,122.004772082813,13.114419492951
$GPGGA,000651.00,3307.8006,N,11822.0287,W,1,09,1.0,8.3,M,-34.6,M,,*5F
$PYRTM,2024,122.004783653854,13.114431063993
$GPGGA,000652.00,3307.8015,N,11822.0309,W,1,09,1.0,8.1,M,-34.6,M,,*5B
$PYRTM,2024,122.004795229965,13.114442640104
$GPGGA,000653.00,3307.8026,N,11822.0330,W,1,09,1.0,8.0,M,-34.6,M,,*51
$PYRTM,2024,122.004806802870,13.114454213009
$GPGGA,000654.00,3307.8036,N,11822.0353,W,1,09,1.0,8.0,M,-34.6,M,,*52
$PYRTM,2024,122.004814197627,13.114461607766
$GPGGA,000655.00,3307.8045,N,11822.0375,W,1,09,1.0,8.3,M,-34.6,M,,*50
$PYRTM,2024,122.004829953067,13.114477363206
$GPGGA,000656.00,3307.8054,N,11822.0397,W,1,09,1.0,8.7,M,-34.6,M,,*5B
$PYRTM,2024,122.004841526921,13.114488937060
$GPGGA,000657.00,3307.8065,N,11822.0421,W,1,09,1.0,8.6,M,-34.6,M,,*53
$PYRTM,2024,122.004848919201,13.114496329340
$GPGGA,000658.00,3307.8076,N,11822.0445,W,1,09,1.0,8.4,M,-34.6,M,,*5E
$PYRTM,2024,122.004864673472,13.114512083611
$GPGGA,000659.00,3307.8086,N,11822.0467,W,1,09,1.0,8.0,M,-34.6,M,,*54
$PYRTM,2024,122.004876247153,13.114523657292
$GPGGA,000700.00,3307.8094,N,11822.0489,W,1,09,1.0,8.0,M,-34.6,M,,*5A
$PYRTM,2024,122.004883641713,13.114531051852
$GPGGA,000701.00,3307.8103,N,11822.0511,W,1,09,1.0,8.2,M,-34.6,M,,*56
$PYRTM,2024,122.004902276400,13.114549686539
$GPGGA,000702.00,3307.8113,N,11822.0534,W,1,09,1.0,8.1,M,-34.6,M,,*50
$PYRTM,2024,122.004910973079,13.114558383218
$GPGGA,000703.00,3307.8124,N,11822.0556,W,1,09,1.0,8.0,M,-34.6,M,,*50
$PYRTM,2024,122.004918366273,13.114565776424
$GPGGA,000704.00,3307.8134,N,11822.0578,W,1,09,1.0,7.7,M,-34.6,M,,*52
$PYRTM,2024,122.004930053299,13.114577463438
$GPGGA,000705.00,3307.8142,N,11822.0603,W,1,09,1.0,7.3,M,-34.6,M,,*59
$PYRTM,2024,122.004945692269,13.114593102407
$GPGGA,000706.00,3307.8150,N,11822.0626,W,1,09,1.0,7.3,M,-34.6,M,,*5E
$PYRTM,2024,122.004953086238,13.114600496377
$GPGGA,000707.00,3307.8159,N,11822.0647,W,1,09,1.0,7.7,M,-34.6,M,,*55
$PYRTM,2024,122.004968840370,13.114616250509
$GPGGA,000708.00,3307.8170,N,11822.0668,W,1,09,1.0,8.2,M,-34.6,M,,*56
$PYRTM,2024,122.004980414826,13.114627824965
$GPGGA,000709.00,3307.8181,N,11822.0690,W,1,09,1.0,8.7,M,-34.6,M,,*5B
$PYRTM,2024,122.004991990035,13.114639400174
$GPGGA,000710.00,3307.8190,N,11822.0714,W,1,09,1.0,8.7,M,-34.6,M,,*5E
$PYRTM,2024,122.005003562998,13.114650973148
$GPGGA,000711.00,3307.8198,N,11822.0738,W,1,09,1.0,8.4,M,-34.6,M,,*5A
$PYRTM,2024,122.005015137488,13.114662547627
$GPGGA,000712.00,3307.8206,N,11822.0760,W,1,09,1.0,8.2,M,-34.6,M,,*56
$PYRTM,2024,122.005022532153,13.114669942292
$GPGGA,000713.00,3307.8217,N,11822.0784,W,1,09,1.0,7.8,M,-34.6,M,,*58
$PYRTM,2024,122.005038281528,13.114685691667
$GPGGA,000714.00,3307.8227,N,11822.0807,W,1,09,1.0,7.6,M,-34.6,M,,*56
$PYRTM,2024,122.005049859317,13.114697269456
$GPGGA,000715.00,3307.8235,N,11822.0830,W,1,09,1.0,7.8,M,-34.6,M,,*5E
$PYRTM,2024,122.005057257882,13.114704668032
$GPGGA,000716.00,3307.8243,N,11822.0854,W,1,09,1.0,7.9,M,-34.6,M,,*5F
$PYRTM,2024,122.005073002766,13.114720412905
$GPGGA,000717.00,3307.8252,N,11822.0878,W,1,09,1.0,8.0,M,-34.6,M,,*56
$PYRTM,2024,122.005084581227,13.114731991366
$GPGGA,000718.00,3307.8261,N,11822.0899,W,1,09,1.0,7.9,M,-34.6,M,,*50
$PYRTM,2024,122.005096159259,13.114743569398
$GPGGA,000719.00,3307.8271,N,11822.0920,W,1,09,1.0,7.9,M,-34.6,M,,*53
$PYRTM,2024,122.005107729155,13.114755139294
$GPGGA,000720.00,3307.8282,N,11822.0944,W,1,09,1.0,7.7,M,-34.6,M,,*59
$PYRTM,2024,122.005119304560,13.114766714699
$GPGGA,000721.00,3307.8291,N,11822.0969,W,1,09,1.0,7.0,M,-34.6,M,,*52
$PYRTM,2024,122.005130879977,13.114778290116
$GPGGA,000722.00,3307.8298,N,11822.0991,W,1,09,1.0,6.9,M,-34.6,M,,*57
$PYRTM,2024,122.005142455926,13.114789866065
$GPGGA,000723.00,3307.8306,N,11822.1010,W,1,09,1.0,7.9,M,-34.6,M,,*50
$PYRTM,2024,122.005154025671,13.114801435810
$GPGGA,000724.00,3307.8317,N,11822.1034,W,1,09,1.0,8.0,M,-34.6,M,,*57
$PYRTM,2024,122.005165601042,13.114813011181
$GPGGA,000725.00,3307.8329,N,11822.1060,W,1,09,1.0,7.3,M,-34.6,M,,*56
$PYRTM,2024,122.005177175382,13.114824585521
$GPGGA,000726.00,3307.8337,N,11822.1084,W,1,09,1.0,6.8,M,-34.6,M,,*5A
$PYRTM,2024,122.005188748681,13.114836158819
$GPGGA,000727.00,3307.8344,N,11822.1104,W,1,09,1.0,7.8,M,-34.6,M,,*57
$PYRTM,2024,122.005200325370,13.114847735521
$GPGGA,000728.00,3307.8353,N,11822.1125,W,1,09,1.0,8.1,M,-34.6,M,,*5B
$PYRTM,2024,122.005211897488,13.114859307627
$GPGGA,000729.00,3307.8364,N,11822.1150,W,1,09,1.0,8.3,M,-34.6,M,,*5E
$PYRTM,2024,122.005223465718,13.114870875856
$GPGGA,000730.00,3307.8374,N,11822.1173,W,1,09,1.0,8.1,M,-34.6,M,,*54
$PYRTM,2024,122.005235050787,13.114882460926
$GPGGA,000731.00,3307.8381,N,11822.1195,W,1,09,1.0,8.5,M,-34.6,M,,*53
$PYRTM,2024,122.005242441157,13.114889851296
$GPGGA,000732.00,3307.8390,N,11822.1217,W,1,09,1.0,8.4,M,-34.6,M,,*58
$PYRTM,2024,122.005261089132,13.114908499271
$GPGGA,000733.00,3307.8400,N,11822.1241,W,1,09,1.0,8.1,M,-34.6,M,,*51
$PYRTM,2024,122.005269769306,13.114917179444
$GPGGA,000734.00,3307.8410,N,11822.1264,W,1,09,1.0,7.2,M,-34.6,M,,*5C
$PYRTM,2024,122.005281345417,13.114928755556
$GPGGA,000735.00,3307.8420,N,11822.1288,W,1,09,1.0,7.0,M,-34.6,M,,*5E
$PYRTM,2024,122.005292916829,13.114940326979
$GPGGA,000736.00,3307.8428,N,11822.1308,W,1,09,1.0,7.6,M,-34.6,M,,*5A
$PYRTM,2024,122.005300311667,13.114947721806
$GPGGA,000737.00,3307.8439,N,11822.1329,W,1,09,1.0,8.7,M,-34.6,M,,*56
$PYRTM,2024,122.005316065475,13.114963475625
$GPGGA,000738.00,3307.8450,N,11822.1352,W,1,09,1.0,9.2,M,-34.6,M,,*5E
$PYRTM,2024,122.005323458345,13.114970868484
$GPGGA,000739.00,3307.8461,N,11822.1377,W,1,09,1.0,8.9,M,-34.6,M,,*50
$PYRTM,2024,122.005339213160,13.114986623299
$GPGGA,000740.00,3307.8469,N,11822.1402,W,1,09,1.0,8.2,M,-34.6,M,,*58
$PYRTM,2024,122.005350786713,13.114998196852
$GPGGA,000741.00,3307.8477,N,11822.1425,W,1,09,1.0,7.8,M,-34.6,M,,*56
$PYRTM,2024,122.005362355313,13.115009765451
$GPGGA,000742.00,3307.8487,N,11822.1445,W,1,09,1.0,8.3,M,-34.6,M,,*58
$PYRTM,2024,122.005373935556,13.115021345694
$GPGGA,000743.00,3307.8498,N,11822.1465,W,1,09,1.0,9.0,M,-34.6,M,,*57
$PYRTM,2024,122.005385509572,13.115032919711
$GPGGA,000744.00,3307.8510,N,11822.1487,W,1,09,1.0,9.3,M,-34.6,M,,*5E
$PYRTM,2024,122.005392904063,13.115040314213
$GPGGA,000745.00,3307.8519,N,11822.1513,W,1,09,1.0,9.1,M,-34.6,M,,*58
$PYRTM,2024,122.005408659745,13.115056069884
$GPGGA,000746.00,3307.8527,N,11822.1538,W,1,09,1.0,8.3,M,-34.6,M,,*5C
$PYRTM,2024,122.005420234236,13.115067644375
$GPGGA,000747.00,3307.8537,N,11822.1560,W,1,09,1.0,7.8,M,-34.6,M,,*55
$PYRTM,2024,122.005431806296,13.115079216435
$GPGGA,000748.00,3307.8547,N,11822.1580,W,1,09,1.0,7.5,M,-34.6,M,,*5E
$PYRTM,2024,122.005443386887,13.115090797037
$GPGGA,000749.00,3307.8557,N,11822.1601,W,1,09,1.0,8.3,M,-34.6,M,,*5D
$PYRTM,2024,122.005454954039,13.115102364178
$GPGGA,000750.00,3307.8567,N,11822.1623,W,1,09,1.0,9.2,M,-34.6,M,,*56
$PYRTM,2024,122.005466530058,13.115113940197
$GPGGA,000751.00,3307.8576,N,11822.1649,W,1,09,1.0,9.1,M,-34.6,M,,*58
$PYRTM,2024,122.005473946354,13.115121356493
$GPGGA,000752.00,3307.8585,N,11822.1675,W,1,09,1.0,8.2,M,-34.6,M,,*5A
$PYRTM,2024,122.005489687789,13.115137097928
$GPGGA,000753.00,3307.8593,N,11822.1695,W,1,09,1.0,8.2,M,-34.6,M,,*52
$PYRTM,2024,122.005501250729,13.115148660868
$GPGGA,000754.00,3307.8604,N,11822.1713,W,1,09,1.0,8.5,M,-34.6,M,,*50
$PYRTM,2024,122.005508645880,13.115156056019
$GPGGA,000755.00,3307.8616,N,11822.1733,W,1,09,1.0,8.7,M,-34.6,M,,*52
$PYRTM,2024,122.005524399120,13.115171809271
$GPGGA,000756.00,3307.8627,N,11822.1757,W,1,09,1.0,8.8,M,-34.6,M,,*5E
$PYRTM,2024,122.005535972928,13.115183383067
$GPGGA,000757.00,3307.8634,N,11822.1782,W,1,09,1.0,8.7,M,-34.6,M,,*5A
$PYRTM,2024,122.005543379352,13.115190789491
$GPGGA,000758.00,3307.8642,N,11822.1806,W,1,09,1.0,8.7,M,-34.6,M,,*57
$PYRTM,2024,122.005559120440,13.115206530579
$GPGGA,000759.00,3307.8653,N,11822.1830,W,1,09,1.0,8.4,M,-34.6,M,,*50
$PYRTM,2024,122.005570694931,13.115218105069
$GPGGA,000800.00,3307.8664,N,11822.1852,W,1,09,1.0,8.3,M,-34.6,M,,*54
$PYRTM,2024,122.005582268889,13.115229679028
$GPGGA,000801.00,3307.8674,N,11822.1872,W,1,09,1.0,8.8,M,-34.6,M,,*5D
$PYRTM,2024,122.005593842778,13.115241252917
$GPGGA,000802.00,3307.8683,N,11822.1895,W,1,09,1.0,9.0,M,-34.6,M,,*56
$PYRTM,2024,122.005601239664,13.115248649803
$GPGGA,000803.00,3307.8691,N,11822.1919,W,1,09,1.0,9.0,M,-34.6,M,,*51
$PYRTM,2024,122.005619886076,13.115267296227
$GPGGA,000804.00,3307.8701,N,11822.1942,W,1,09,1.0,8.9,M,-34.6,M,,*58
$PYRTM,2024,122.005631462894,13.115278873032
$GPGGA,000805.00,3307.8712,N,11822.1966,W,1,09,1.0,8.7,M,-34.6,M,,*53
$PYRTM,2024,122.005643032766,13.115290442905
$GPGGA,000806.00,3307.8722,N,11822.1989,W,1,09,1.0,8.2,M,-34.6,M,,*57
$PYRTM,2024,122.005651713414,13.115299123553
$GPGGA,000807.00,3307.8730,N,11822.2012,W,1,09,1.0,8.0,M,-34.6,M,,*5F
$PYRTM,2024,122.005663288403,13.115310698553
$GPGGA,000808.00,3307.8739,N,11822.2032,W,1,09,1.0,8.3,M,-34.6,M,,*58
$PYRTM,2024,122.005674873414,13.115322283553
$GPGGA,000809.00,3307.8748,N,11822.2055,W,1,09,1.0,8.5,M,-34.6,M,,*58
$PYRTM,2024,122.005682262639,13.115329672778
$GPGGA,000810.00,3307.8759,N,11822.2078,W,1,09,1.0,8.9,M,-34.6,M,,*53
$PYRTM,2024,122.005700904317,13.115348314456
$GPGGA,000811.00,3307.8769,N,11822.2103,W,1,09,1.0,7.6,M,-34.6,M,,*5C
$PYRTM,2024,122.005712479144,13.115359889282
$GPGGA,000812.00,3307.8776,N,11822.2125,W,1,09,1.0,7.7,M,-34.6,M,,*54
$PYRTM,2024,122.005721158727,13.115368568877
$GPGGA,000813.00,3307.8784,N,11822.2146,W,1,09,1.0,8.3,M,-34.6,M,,*56
$PYRTM,2024,122.005728559965,13.115375970104
$GPGGA,000814.00,3307.8795,N,11822.2170,W,1,09,1.0,8.9,M,-34.6,M,,*5E
$PYRTM,2024,122.005740243287,13.115387653426
$GPGGA,000815.00,3307.8806,N,11822.2197,W,1,09,1.0,8.3,M,-34.6,M,,*59
$PYRTM,2024,122.005755881343,13.115403291481
$GPGGA,000816.00,3307.8813,N,11822.2221,W,1,09,1.0,7.7,M,-34.6,M,,*5B
$PYRTM,2024,122.005767466759,13.115414876898
$GPGGA,000817.00,3307.8820,N,11822.2241,W,1,09,1.0,8.4,M,-34.6,M,,*50
$PYRTM,2024,122.005779029433,13.115426439572
$GPGGA,000818.00,3307.8830,N,11822.2261,W,1,09,1.0,9.1,M,-34.6,M,,*58
$PYRTM,2024,122.005790603565,13.115438013704
$GPGGA,000819.00,3307.8842,N,11822.2286,W,1,09,1.0,8.4,M,-34.6,M,,*51
$PYRTM,2024,122.005802173137,13.115449583275
$GPGGA,000820.00,3307.8852,N,11822.2311,W,1,09,1.0,8.3,M,-34.6,M,,*52
$PYRTM,2024,122.005813752060,13.115461162199
$GPGGA,000821.00,3307.8859,N,11822.2332,W,1,09,1.0,8.6,M,-34.6,M,,*5C
$PYRTM,2024,122.005825326123,13.115472736262
$GPGGA,000822.00,3307.8867,N,11822.2354,W,1,09,1.0,9.2,M,-34.6,M,,*57
$PYRTM,2024,122.005836911285,13.115484321412
$GPGGA,000823.00,3307.8879,N,11822.2377,W,1,09,1.0,8.8,M,-34.6,M,,*53
$PYRTM,2024,122.005844305822,13.115491715961
$GPGGA,000824.00,3307.8889,N,11822.2398,W,1,09,1.0,8.7,M,-34.6,M,,*55
$PYRTM,2024,122.005860055961,13.115507466100
$GPGGA,000825.00,3307.8896,N,11822.2417,W,1,09,1.0,9.0,M,-34.6,M,,*5C
$PYRTM,2024,122.005871625799,13.115519035938
$GPGGA,000826.00,3307.8905,N,11822.2440,W,1,09,1.0,8.7,M,-34.6,M,,*50
$PYRTM,2024,122.005879017766,13.115526427905
$GPGGA,000827.00,3307.8915,N,11822.2468,W,1,09,1.0,8.0,M,-34.6,M,,*5D
$PYRTM,2024,122.005894770231,13.115542180370
$GPGGA,000828.00,3307.8923,N,11822.2491,W,1,09,1.0,7.8,M,-34.6,M,,*56
$PYRTM,2024,122.005906352778,13.115553762917
$GPGGA,000829.00,3307.8931,N,11822.2507,W,1,09,1.0,8.5,M,-34.6,M,,*58
$PYRTM,2024,122.005917919271,13.115565329410
$GPGGA,000830.00,3307.8941,N,11822.2526,W,1,09,1.0,9.0,M,-34.6,M,,*50
$PYRTM,2024,122.005925313715,13.115572723866
$GPGGA,000831.00,3307.8952,N,11822.2550,W,1,09,1.0,8.6,M,-34.6,M,,*55
$PYRTM,2024,122.005941066562,13.115588476701
$GPGGA,000832.00,3307.8961,N,11822.2573,W,1,09,1.0,8.0,M,-34.6,M,,*51
$PYRTM,2024,122.005952640937,13.115600051076
$GPGGA,000833.00,3307.8969,N,11822.2595,W,1,09,1.0,7.9,M,-34.6,M,,*56
$PYRTM,2024,122.005960059954,13.115607470093
$GPGGA,000834.00,3307.8978,N,11822.2618,W,1,09,1.0,7.7,M,-34.6,M,,*59
$PYRTM,2024,122.005978683519,13.115626093657
$GPGGA,000835.00,3307.8987,N,11822.2640,W,1,09,1.0,7.6,M,-34.6,M,,*54
$PYRTM,2024,122.005987364317,13.115634774468
$GPGGA,000836.00,3307.8996,N,11822.2661,W,1,09,1.0,7.9,M,-34.6,M,,*5B
$PYRTM,2024,122.005994758472,13.115642168611
$GPGGA,000837.00,3307.9006,N,11822.2683,W,1,09,1.0,8.4,M,-34.6,M,,*55
$PYRTM,2024,122.006006449097,13.115653859248
$GPGGA,000838.00,3307.9017,N,11822.2708,W,1,09,1.0,8.3,M,-34.6,M,,*5F
$PYRTM,2024,122.006022085822,13.115669495961
$GPGGA,000839.00,3307.9027,N,11822.2732,W,1,09,1.0,7.8,M,-34.6,M,,*50
