$PYRTM,2024,121.639532020775,12.749179430914
$GPGGA,152054.00,3240.8353,N,11713.8656,W,1,11,0.8,13.4,M,-34.4,M,,*69
$PYRTM,2024,121.639540805567,12.749188215706
$GPGGA,152055.00,3240.8326,N,11713.8655,W,1,11,0.8,13.4,M,-34.4,M,,*69
$PYRTM,2024,121.639552394410,12.749199804549
$GPGGA,152056.00,3240.8299,N,11713.8654,W,1,11,0.8,13.3,M,-34.4,M,,*69
$PYRTM,2024,121.639563953056,12.749211363206
$GPGGA,152057.00,3240.8273,N,11713.8652,W,1,11,0.8,13.2,M,-34.4,M,,*6B
$PYRTM,2024,121.639575542303,12.749222952442
$GPGGA,152058.00,3240.8246,N,11713.8650,W,1,11,0.8,13.2,M,-34.4,M,,*60
$PYRTM,2024,121.639587101725,12.749234511863
$GPGGA,152059.00,3240.8219,N,11713.8649,W,1,11,0.8,13.2,M,-34.4,M,,*63
$PYRTM,2024,121.639598690891,12.749246101030
$GPGGA,152100.00,3240.8192,N,11713.8648,W,1,11,0.8,13.2,M,-34.4,M,,*6F
$PYRTM,2024,121.639610248773,12.749257658912
$GPGGA,152101.00,3240.8166,N,11713.8646,W,1,11,0.8,13.2,M,-34.4,M,,*6B
$PYRTM,2024,121.639621832407,12.749269242558
$GPGGA,152102.00,3240.8139,N,11713.8644,W,1,11,0.8,13.3,M,-34.4,M,,*61
$PYRTM,2024,121.639629245150,12.749276655289
$GPGGA,152103.00,3240.8113,N,11713.8642,W,1,11,0.8,13.3,M,-34.4,M,,*6E
$PYRTM,2024,121.639644987280,12.749292397419
$GPGGA,152104.00,3240.8086,N,11713.8640,W,1,11,0.8,13.3,M,-34.4,M,,*66
$PYRTM,2024,121.639656547685,12.749303957836
$GPGGA,152105.00,3240.8059,N,11713.8639,W,1,11,0.8,13.2,M,-34.4,M,,*6A
$PYRTM,2024,121.639668132604,12.749315542743
$GPGGA,152106.00,3240.8033,N,11713.8637,W,1,11,0.8,13.1,M,-34.4,M,,*68
$PYRTM,2024,121.639679695347,12.749327105486
$GPGGA,152107.00,3240.8006,N,11713.8635,W,1,11,0.8,13.1,M,-34.4,M,,*6D
$PYRTM,2024,121.639691282847,12.749338692986
$GPGGA,152108.00,3240.7979,N,11713.8633,W,1,11,0.8,13.2,M,-34.4,M,,*69
$PYRTM,2024,121.639702842755,12.749350252894
$GPGGA,152109.00,3240.7953,N,11713.8631,W,1,11,0.8,13.2,M,-34.4,M,,*62
$PYRTM,2024,121.639714429468,12.749361839618
$GPGGA,152110.00,3240.7926,N,11713.8629,W,1,11,0.8,13.2,M,-34.4,M,,*61
$PYRTM,2024,121.639725991030,12.749373401169
$GPGGA,152111.00,3240.7899,N,11713.8627,W,1,11,0.8,13.2,M,-34.4,M,,*6B
$PYRTM,2024,121.639737580937,12.749384991088
$GPGGA,152112.00,3240.7872,N,11713.8625,W,1,11,0.8,13.2,M,-34.4,M,,*6F
$PYRTM,2024,121.639744972708,12.749392382847
$GPGGA,152113.00,3240.7846,N,11713.8623,W,1,11,0.8,13.2,M,-34.4,M,,*6F
$PYRTM,2024,121.639760729225,12.749408139363
$GPGGA,152114.00,3240.7819,N,11713.8621,W,1,11,0.8,13.2,M,-34.4,M,,*60
$PYRTM,2024,121.639772288021,12.749419698160
$GPGGA,152115.00,3240.7792,N,11713.8618,W,1,11,0.8,13.2,M,-34.4,M,,*67
$PYRTM,2024,121.639779694965,12.749427105104
$GPGGA,152116.00,3240.7766,N,11713.8616,W,1,11,0.8,13.2,M,-34.4,M,,*61
$PYRTM,2024,121.639795436458,12.749442846597
$GPGGA,152117.00,3240.7739,N,11713.8615,W,1,11,0.8,13.2,M,-34.4,M,,*69
$PYRTM,2024,121.639807017488,12.749454427627
$GPGGA,152118.00,3240.7712,N,11713.8613,W,1,11,0.8,13.2,M,-34.4,M,,*69
$PYRTM,2024,121.639814434745,12.749461844884
$GPGGA,152119.00,3240.7685,N,11713.8611,W,1,11,0.8,13.2,M,-34.4,M,,*65
$PYRTM,2024,121.639830170498,12.749477580637
$GPGGA,152120.00,3240.7659,N,11713.8609,W,1,11,0.8,13.1,M,-34.4,M,,*64
$PYRTM,2024,121.639837566701,12.749484976840
$GPGGA,152121.00,3240.7632,N,11713.8607,W,1,11,0.8,13.1,M,-34.4,M,,*66
$PYRTM,2024,121.639853314919,12.749500725058
$GPGGA,152122.00,3240.7605,N,11713.8605,W,1,11,0.8,13.1,M,-34.4,M,,*63
$PYRTM,2024,121.639864881007,12.749512291146
$GPGGA,152123.00,3240.7578,N,11713.8604,W,1,11,0.8,13.0,M,-34.4,M,,*6B
$PYRTM,2024,121.639872287361,12.749519697500
$GPGGA,152124.00,3240.7552,N,11713.8602,W,1,11,0.8,13.0,M,-34.4,M,,*62
$PYRTM,2024,121.639890807245,12.749538217384
$GPGGA,152125.00,3240.7525,N,11713.8600,W,1,11,0.8,13.1,M,-34.4,M,,*60
$PYRTM,2024,121.639902393275,12.749549803414
$GPGGA,152126.00,3240.7498,N,11713.8599,W,1,11,0.8,13.1,M,-34.4,M,,*67
$PYRTM,2024,121.639913956308,12.749561366447
$GPGGA,152127.00,3240.7472,N,11713.8597,W,1,11,0.8,13.0,M,-34.4,M,,*6D
$PYRTM,2024,121.639922770093,12.749570180231
$GPGGA,152128.00,3240.7445,N,11713.8596,W,1,11,0.8,13.0,M,-34.4,M,,*67
$PYRTM,2024,121.639934326562,12.749581736701
$GPGGA,152129.00,3240.7419,N,11713.8595,W,1,11,0.8,13.0,M,-34.4,M,,*6C
$PYRTM,2024,121.639945915289,12.749593325428
$GPGGA,152130.00,3240.7392,N,11713.8594,W,1,11,0.8,13.0,M,-34.4,M,,*61
$PYRTM,2024,121.639953307569,12.749600717720
$GPGGA,152131.00,3240.7365,N,11713.8593,W,1,11,0.8,13.0,M,-34.4,M,,*6F
$PYRTM,2024,121.639969061898,12.749616472037
$GPGGA,152132.00,3240.7339,N,11713.8592,W,1,11,0.8,12.9,M,-34.4,M,,*6C
$PYRTM,2024,121.639980623252,12.749628033391
$GPGGA,152133.00,3240.7312,N,11713.8590,W,1,11,0.8,13.0,M,-34.4,M,,*6E
$PYRTM,2024,121.639992203912,12.749639614051
$GPGGA,152134.00,3240.7285,N,11713.8589,W,1,11,0.8,13.0,M,-34.4,M,,*6E
$PYRTM,2024,121.640003771053,12.749651181192
$GPGGA,152135.00,3240.7258,N,11713.8589,W,1,11,0.8,13.0,M,-34.4,M,,*6F
$PYRTM,2024,121.640015353634,12.749662763773
$GPGGA,152136.00,3240.7232,N,11713.8588,W,1,11,0.8,13.0,M,-34.4,M,,*61
$PYRTM,2024,121.640026920799,12.749674330938
$GPGGA,152137.00,3240.7205,N,11713.8587,W,1,11,0.8,13.0,M,-34.4,M,,*6B
$PYRTM,2024,121.640038508507,12.749685918646
$GPGGA,152138.00,3240.7178,N,11713.8586,W,1,11,0.8,13.0,M,-34.4,M,,*6C
$PYRTM,2024,121.640050068935,12.749697479074
$GPGGA,152139.00,3240.7152,N,11713.8585,W,1,11,0.8,12.9,M,-34.4,M,,*6E
$PYRTM,2024,121.640061654514,12.749709064653
$GPGGA,152140.00,3240.7125,N,11713.8584,W,1,11,0.8,12.9,M,-34.4,M,,*61
$PYRTM,2024,121.640069052164,12.749716462315
$GPGGA,152141.00,3240.7098,N,11713.8583,W,1,11,0.8,12.9,M,-34.4,M,,*60
$PYRTM,2024,121.640084802396,12.749732212535
$GPGGA,152142.00,3240.7072,N,11713.8581,W,1,11,0.8,12.9,M,-34.4,M,,*65
$PYRTM,2024,121.640096365972,12.749743776111
$GPGGA,152143.00,3240.7046,N,11713.8580,W,1,11,0.8,13.0,M,-34.4,M,,*6A
$PYRTM,2024,121.640103771701,12.749751181840
$GPGGA,152144.00,3240.7019,N,11713.8579,W,1,11,0.8,13.0,M,-34.4,M,,*61
$PYRTM,2024,121.640119512373,12.749766922523
$GPGGA,152145.00,3240.6992,N,11713.8579,W,1,11,0.8,13.0,M,-34.4,M,,*6B
$PYRTM,2024,121.640131101979,12.749778512118
$GPGGA,152146.00,3240.6966,N,11713.8577,W,1,11,0.8,13.0,M,-34.4,M,,*6D
$PYRTM,2024,121.640142659931,12.749790070069
$GPGGA,152147.00,3240.6939,N,11713.8575,W,1,11,0.8,12.9,M,-34.4,M,,*6C
$PYRTM,2024,121.640154243137,12.749801653275
$GPGGA,152148.00,3240.6913,N,11713.8573,W,1,11,0.8,12.8,M,-34.4,M,,*6C
$PYRTM,2024,121.640165808866,12.749813219005
$GPGGA,152149.00,3240.6886,N,11713.8572,W,1,11,0.8,12.9,M,-34.4,M,,*60
$PYRTM,2024,121.640177392118,12.749824802257
$GPGGA,152150.00,3240.6859,N,11713.8570,W,1,11,0.8,13.0,M,-34.4,M,,*60
$PYRTM,2024,121.640188959699,12.749836369838
$GPGGA,152151.00,3240.6833,N,11713.8569,W,1,11,0.8,13.1,M,-34.4,M,,*64
$PYRTM,2024,121.640196364919,12.749843775069
$GPGGA,152152.00,3240.6806,N,11713.8567,W,1,11,0.8,13.1,M,-34.4,M,,*6F
$PYRTM,2024,121.640212105440,12.749859515590
$GPGGA,152153.00,3240.6779,N,11713.8564,W,1,11,0.8,13.1,M,-34.4,M,,*6A
$PYRTM,2024,121.640223693137,12.749871103275
$GPGGA,152154.00,3240.6753,N,11713.8562,W,1,11,0.8,13.0,M,-34.4,M,,*62
$PYRTM,2024,121.640231087523,12.749878497662
$GPGGA,152155.00,3240.6726,N,11713.8560,W,1,11,0.8,12.9,M,-34.4,M,,*6B
$PYRTM,2024,121.640249612975,12.749897023113
$GPGGA,152156.00,3240.6699,N,11713.8559,W,1,11,0.8,12.9,M,-34.4,M,,*67
$PYRTM,2024,121.640258403426,12.749905813565
$GPGGA,152157.00,3240.6673,N,11713.8557,W,1,11,0.8,13.0,M,-34.4,M,,*64
$PYRTM,2024,121.640269985775,12.749917395914
$GPGGA,152158.00,3240.6646,N,11713.8555,W,1,11,0.8,13.0,M,-34.4,M,,*6F
$PYRTM,2024,121.640281550845,12.749928960984
$GPGGA,152159.00,3240.6619,N,11713.8553,W,1,11,0.8,13.0,M,-34.4,M,,*62
$PYRTM,2024,121.640293140602,12.749940550741
$GPGGA,152200.00,3240.6593,N,11713.8550,W,1,11,0.8,13.0,M,-34.4,M,,*6F
$PYRTM,2024,121.640304697477,12.749952107616
$GPGGA,152201.00,3240.6566,N,11713.8549,W,1,11,0.8,13.0,M,-34.4,M,,*6C
$PYRTM,2024,121.640316403275,12.749963813414
$GPGGA,152202.00,3240.6539,N,11713.8547,W,1,11,0.8,12.9,M,-34.4,M,,*63
$PYRTM,2024,121.640327847512,12.749975257650
$GPGGA,152203.00,3240.6512,N,11713.8544,W,1,11,0.8,12.8,M,-34.4,M,,*69
$PYRTM,2024,121.640339428646,12.749986838785
$GPGGA,152204.00,3240.6486,N,11713.8541,W,1,11,0.8,12.8,M,-34.4,M,,*67
$PYRTM,2024,121.640350994572,12.749998404711
$GPGGA,152205.00,3240.6460,N,11713.8539,W,1,11,0.8,12.9,M,-34.4,M,,*60
$PYRTM,2024,121.640358401817,12.750005811956
$GPGGA,152206.00,3240.6433,N,11713.8536,W,1,11,0.8,13.0,M,-34.4,M,,*62
$PYRTM,2024,121.640374142315,12.750021552454
$GPGGA,152207.00,3240.6406,N,11713.8534,W,1,11,0.8,12.9,M,-34.4,M,,*6F
$PYRTM,2024,121.640385730544,12.750033140683
$GPGGA,152208.00,3240.6380,N,11713.8531,W,1,11,0.8,13.0,M,-34.4,M,,*64
$PYRTM,2024,121.640393141296,12.750040551435
$GPGGA,152209.00,3240.6353,N,11713.8528,W,1,11,0.8,13.1,M,-34.4,M,,*62
$PYRTM,2024,121.640408878819,12.750056288958
$GPGGA,152210.00,3240.6327,N,11713.8525,W,1,11,0.8,13.1,M,-34.4,M,,*64
$PYRTM,2024,121.640420440127,12.750067850266
$GPGGA,152211.00,3240.6300,N,11713.8522,W,1,11,0.8,13.1,M,-34.4,M,,*67
$PYRTM,2024,121.640432028588,12.750079438727
$GPGGA,152212.00,3240.6274,N,11713.8520,W,1,11,0.8,13.1,M,-34.4,M,,*64
$PYRTM,2024,121.640443587951,12.750090998090
$GPGGA,152213.00,3240.6248,N,11713.8517,W,1,11,0.8,13.1,M,-34.4,M,,*6E
$PYRTM,2024,121.640455176690,12.750102586829
$GPGGA,152214.00,3240.6221,N,11713.8514,W,1,11,0.8,13.2,M,-34.4,M,,*66
$PYRTM,2024,121.640466736389,12.750114146528
$GPGGA,152215.00,3240.6194,N,11713.8511,W,1,11,0.8,13.2,M,-34.4,M,,*6F
$PYRTM,2024,121.640478325590,12.750125735729
$GPGGA,152216.00,3240.6168,N,11713.8507,W,1,11,0.8,13.3,M,-34.4,M,,*69
$PYRTM,2024,121.640489885313,12.750137295451
$GPGGA,152217.00,3240.6142,N,11713.8505,W,1,11,0.8,13.3,M,-34.4,M,,*62
$PYRTM,2024,121.640501474572,12.750148884711
$GPGGA,152218.00,3240.6115,N,11713.8502,W,1,11,0.8,13.3,M,-34.4,M,,*68
$PYRTM,2024,121.640513032894,12.750160443032
$GPGGA,152219.00,3240.6089,N,11713.8498,W,1,11,0.8,13.2,M,-34.4,M,,*6E
$PYRTM,2024,121.640524622315,12.750172032465
$GPGGA,152220.00,3240.6062,N,11713.8495,W,1,11,0.8,13.3,M,-34.4,M,,*6D
$PYRTM,2024,121.640532028229,12.750179438380
$GPGGA,152221.00,3240.6035,N,11713.8492,W,1,11,0.8,13.3,M,-34.4,M,,*69
$PYRTM,2024,121.640547771377,12.750195181516
$GPGGA,152222.00,3240.6009,N,11713.8490,W,1,11,0.8,13.4,M,-34.4,M,,*60
$PYRTM,2024,121.640559328611,12.750206738762
$GPGGA,152223.00,3240.5981,N,11713.8487,W,1,11,0.8,13.4,M,-34.4,M,,*6D
$PYRTM,2024,121.640566737211,12.750214147350
$GPGGA,152224.00,3240.5955,N,11713.8484,W,1,11,0.8,13.4,M,-34.4,M,,*60
$PYRTM,2024,121.640582477766,12.750229887905
$GPGGA,152225.00,3240.5928,N,11713.8482,W,1,11,0.8,13.4,M,-34.4,M,,*6D
$PYRTM,2024,121.640589885995,12.750237296134
$GPGGA,152226.00,3240.5901,N,11713.8479,W,1,11,0.8,13.4,M,-34.4,M,,*61
$PYRTM,2024,121.640608403576,12.750255813715
$GPGGA,152227.00,3240.5875,N,11713.8477,W,1,11,0.8,13.4,M,-34.4,M,,*6C
$PYRTM,2024,121.640617214306,12.750264624444
$GPGGA,152228.00,3240.5848,N,11713.8474,W,1,11,0.8,13.4,M,-34.4,M,,*6E
$PYRTM,2024,121.640628774850,12.750276184988
$GPGGA,152229.00,3240.5822,N,11713.8471,W,1,11,0.8,13.4,M,-34.4,M,,*66
$PYRTM,2024,121.640640360312,12.750287770440
$GPGGA,152230.00,3240.5795,N,11713.8468,W,1,11,0.8,13.5,M,-34.4,M,,*64
$PYRTM,2024,121.640647758113,12.750295168252
$GPGGA,152231.00,3240.5768,N,11713.8465,W,1,11,0.8,13.4,M,-34.4,M,,*6B
$PYRTM,2024,121.640663523495,12.750310933634
$GPGGA,152232.00,3240.5742,N,11713.8462,W,1,11,0.8,13.5,M,-34.4,M,,*66
$PYRTM,2024,121.640675077801,12.750322487940
$GPGGA,152233.00,3240.5715,N,11713.8459,W,1,11,0.8,13.5,M,-34.4,M,,*6D
$PYRTM,2024,121.640686662280,12.750334072431
$GPGGA,152234.00,3240.5688,N,11713.8456,W,1,11,0.8,13.5,M,-34.4,M,,*60
$PYRTM,2024,121.640698219132,12.750345629271
$GPGGA,152235.00,3240.5662,N,11713.8454,W,1,11,0.8,13.5,M,-34.4,M,,*67
$PYRTM,2024,121.640705628148,12.750353038287
$GPGGA,152236.00,3240.5635,N,11713.8451,W,1,11,0.8,13.3,M,-34.4,M,,*65
$PYRTM,2024,121.640721367546,12.750368777685
$GPGGA,152237.00,3240.5609,N,11713.8449,W,1,11,0.8,13.3,M,-34.4,M,,*62
$PYRTM,2024,121.640732960359,12.750380370509
$GPGGA,152238.00,3240.5582,N,11713.8447,W,1,11,0.8,13.5,M,-34.4,M,,*65
$PYRTM,2024,121.640744517014,12.750391927153
$GPGGA,152239.00,3240.5556,N,11713.8445,W,1,11,0.8,13.5,M,-34.4,M,,*6F
$PYRTM,2024,121.640756097836,12.750403507975
$GPGGA,152240.00,3240.5529,N,11713.8442,W,1,11,0.8,13.5,M,-34.4,M,,*6E
$PYRTM,2024,121.640763398762,12.750410808900
$GPGGA,152241.00,3240.5502,N,11713.8439,W,1,11,0.8,13.5,M,-34.4,M,,*6A
$PYRTM,2024,121.640779246192,12.750426656331
$GPGGA,152242.00,3240.5476,N,11713.8437,W,1,11,0.8,13.5,M,-34.4,M,,*65
$PYRTM,2024,121.640790813056,12.750438223206
$GPGGA,152243.00,3240.5449,N,11713.8434,W,1,11,0.8,13.5,M,-34.4,M,,*6B
$PYRTM,2024,121.640798106782,12.750445516921
$GPGGA,152244.00,3240.5422,N,11713.8432,W,1,11,0.8,13.5,M,-34.4,M,,*67
$PYRTM,2024,121.640813962049,12.750461372187
$GPGGA,152245.00,3240.5396,N,11713.8430,W,1,11,0.8,13.5,M,-34.4,M,,*6C
$PYRTM,2024,121.640825548148,12.750472958287
$GPGGA,152246.00,3240.5369,N,11713.8428,W,1,11,0.8,13.7,M,-34.4,M,,*64
$PYRTM,2024,121.640837109549,12.750484519688
$GPGGA,152247.00,3240.5343,N,11713.8426,W,1,11,0.8,13.8,M,-34.4,M,,*6C
$PYRTM,2024,121.640848699537,12.750496109676
$GPGGA,152248.00,3240.5316,N,11713.8424,W,1,11,0.8,13.7,M,-34.4,M,,*6E
$PYRTM,2024,121.640860257685,12.750507667824
$GPGGA,152249.00,3240.5289,N,11713.8421,W,1,11,0.8,13.5,M,-34.4,M,,*6F
$PYRTM,2024,121.640871847025,12.750519257164
$GPGGA,152250.00,3240.5263,N,11713.8419,W,1,11,0.8,13.5,M,-34.4,M,,*68
$PYRTM,2024,121.640883406343,12.750530816481
$GPGGA,152251.00,3240.5237,N,11713.8417,W,1,11,0.8,13.6,M,-34.4,M,,*65
$PYRTM,2024,121.640895007153,12.750542417292
$GPGGA,152252.00,3240.5211,N,11713.8415,W,1,11,0.8,13.7,M,-34.4,M,,*61
$PYRTM,2024,121.640906555162,12.750553965301
$GPGGA,152253.00,3240.5184,N,11713.8413,W,1,11,0.8,13.6,M,-34.4,M,,*68
$PYRTM,2024,121.640918141748,12.750565551887
$GPGGA,152254.00,3240.5157,N,11713.8411,W,1,11,0.8,13.6,M,-34.4,M,,*63
$PYRTM,2024,121.640929702917,12.750577113056
$GPGGA,152255.00,3240.5131,N,11713.8409,W,1,11,0.8,13.7,M,-34.4,M,,*6A
$PYRTM,2024,121.640937110521,12.750584520671
$GPGGA,152256.00,3240.5105,N,11713.8407,W,1,11,0.8,13.8,M,-34.4,M,,*6F
$PYRTM,2024,121.640955632060,12.750603042199
$GPGGA,152257.00,3240.5078,N,11713.8405,W,1,11,0.8,13.7,M,-34.4,M,,*68
$PYRTM,2024,121.640964437535,12.750611847674
$GPGGA,152258.00,3240.5051,N,11713.8403,W,1,11,0.8,13.5,M,-34.4,M,,*68
$PYRTM,2024,121.640975998958,12.750623409097
$GPGGA,152259.00,3240.5025,N,11713.8401,W,1,11,0.8,13.5,M,-34.4,M,,*68
$PYRTM,2024,121.640987580903,12.750634991053
$GPGGA,152300.00,3240.4999,N,11713.8400,W,1,11,0.8,13.8,M,-34.4,M,,*66
$PYRTM,2024,121.640999147882,12.750646558021
$GPGGA,152301.00,3240.4973,N,11713.8398,W,1,11,0.8,13.9,M,-34.4,M,,*64
$PYRTM,2024,121.641010734005,12.750658144155
$GPGGA,152302.00,3240.4946,N,11713.8396,W,1,11,0.8,13.8,M,-34.4,M,,*6E
$PYRTM,2024,121.641022296574,12.750669706725
$GPGGA,152303.00,3240.4919,N,11713.8394,W,1,11,0.8,13.7,M,-34.4,M,,*68
$PYRTM,2024,121.641033883310,12.750681293449
$GPGGA,152304.00,3240.4893,N,11713.8391,W,1,11,0.8,13.6,M,-34.4,M,,*68
$PYRTM,2024,121.641045444560,12.750692854699
$GPGGA,152305.00,3240.4867,N,11713.8390,W,1,11,0.8,13.5,M,-34.4,M,,*60
$PYRTM,2024,121.641052736400,12.750700146539
$GPGGA,152306.00,3240.4841,N,11713.8389,W,1,11,0.8,13.6,M,-34.4,M,,*6C
$PYRTM,2024,121.641068592940,12.750716003079
$GPGGA,152307.00,3240.4815,N,11713.8387,W,1,11,0.8,13.7,M,-34.4,M,,*63
$PYRTM,2024,121.641080181759,12.750727591898
$GPGGA,152308.00,3240.4789,N,11713.8385,W,1,11,0.8,13.8,M,-34.4,M,,*6B
$PYRTM,2024,121.641087458252,12.750734868391
$GPGGA,152309.00,3240.4762,N,11713.8383,W,1,11,0.8,13.7,M,-34.4,M,,*66
$PYRTM,2024,121.641103322002,12.750750732141
$GPGGA,152310.00,3240.4735,N,11713.8381,W,1,11,0.8,13.6,M,-34.4,M,,*6F
$PYRTM,2024,121.641114890706,12.750762300856
$GPGGA,152311.00,3240.4709,N,11713.8379,W,1,11,0.8,13.5,M,-34.4,M,,*65
$PYRTM,2024,121.641126476076,12.750773886215
$GPGGA,152312.00,3240.4683,N,11713.8378,W,1,11,0.8,13.6,M,-34.4,M,,*67
$PYRTM,2024,121.641138039028,12.750785449167
$GPGGA,152313.00,3240.4656,N,11713.8377,W,1,11,0.8,13.6,M,-34.4,M,,*61
$PYRTM,2024,121.641149623762,12.750797033900
$GPGGA,152314.00,3240.4630,N,11713.8375,W,1,11,0.8,13.7,M,-34.4,M,,*65
$PYRTM,2024,121.641161185926,12.750808596076
$GPGGA,152315.00,3240.4604,N,11713.8372,W,1,11,0.8,13.8,M,-34.4,M,,*6B
$PYRTM,2024,121.641172771979,12.750820182118
$GPGGA,152316.00,3240.4577,N,11713.8370,W,1,11,0.8,13.9,M,-34.4,M,,*6C
$PYRTM,2024,121.641184334583,12.750831744722
$GPGGA,152317.00,3240.4551,N,11713.8368,W,1,11,0.8,13.6,M,-34.4,M,,*6F
$PYRTM,2024,121.641195921840,12.750843331979
$GPGGA,152318.00,3240.4524,N,11713.8366,W,1,11,0.8,13.4,M,-34.4,M,,*6E
$PYRTM,2024,121.641203200764,12.750850610903
$GPGGA,152319.00,3240.4498,N,11713.8364,W,1,11,0.8,13.4,M,-34.4,M,,*6B
$PYRTM,2024,121.641219068947,12.750866479086
$GPGGA,152320.00,3240.4473,N,11713.8362,W,1,11,0.8,13.5,M,-34.4,M,,*63
$PYRTM,2024,121.641230629352,12.750878039491
$GPGGA,152321.00,3240.4447,N,11713.8360,W,1,11,0.8,13.5,M,-34.4,M,,*67
$PYRTM,2024,121.641242219664,12.750889629815
$GPGGA,152322.00,3240.4421,N,11713.8357,W,1,11,0.8,13.7,M,-34.4,M,,*62
$PYRTM,2024,121.641253779039,12.750901189178
$GPGGA,152323.00,3240.4395,N,11713.8355,W,1,11,0.8,13.8,M,-34.4,M,,*66
$PYRTM,2024,121.641261186910,12.750908597049
$GPGGA,152324.00,3240.4369,N,11713.8352,W,1,11,0.8,13.7,M,-34.4,M,,*6A
$PYRTM,2024,121.641276927153,12.750924337292
$GPGGA,152325.00,3240.4342,N,11713.8349,W,1,11,0.8,13.4,M,-34.4,M,,*6B
$PYRTM,2024,121.641288515255,12.750935925394
$GPGGA,152326.00,3240.4317,N,11713.8348,W,1,11,0.8,13.3,M,-34.4,M,,*6E
$PYRTM,2024,121.641295807639,12.750943217778
$GPGGA,152327.00,3240.4292,N,11713.8346,W,1,11,0.8,13.7,M,-34.4,M,,*69
$PYRTM,2024,121.641314440058,12.750961850197
$GPGGA,152328.00,3240.4266,N,11713.8345,W,1,11,0.8,13.8,M,-34.4,M,,*61
$PYRTM,2024,121.641323223750,12.750970633889
$GPGGA,152329.00,3240.4239,N,11713.8344,W,1,11,0.8,13.7,M,-34.4,M,,*64
$PYRTM,2024,121.641334807292,12.750982217431
$GPGGA,152330.00,3240.4212,N,11713.8341,W,1,11,0.8,13.3,M,-34.4,M,,*64
$PYRTM,2024,121.641346372882,12.750993783021
$GPGGA,152331.00,3240.4186,N,11713.8339,W,1,11,0.8,13.7,M,-34.4,M,,*60
$PYRTM,2024,121.641357954954,12.751005365093
$GPGGA,152332.00,3240.4160,N,11713.8337,W,1,11,0.8,14.0,M,-34.4,M,,*65
$PYRTM,2024,121.641369521412,12.751016931551
$GPGGA,152333.00,3240.4132,N,11713.8336,W,1,11,0.8,13.8,M,-34.4,M,,*6D
$PYRTM,2024,121.641376813681,12.751024223831
$GPGGA,152334.00,3240.4106,N,11713.8333,W,1,11,0.8,13.7,M,-34.4,M,,*67
$PYRTM,2024,121.641392669317,12.751040079468
$GPGGA,152335.00,3240.4079,N,11713.8330,W,1,11,0.8,13.7,M,-34.4,M,,*6C
$PYRTM,2024,121.641404251100,12.751051661238
$GPGGA,152336.00,3240.4054,N,11713.8327,W,1,11,0.8,13.9,M,-34.4,M,,*68
$PYRTM,2024,121.641415816331,12.751063226470
$GPGGA,152337.00,3240.4028,N,11713.8324,W,1,11,0.8,14.0,M,-34.4,M,,*6F
$PYRTM,2024,121.641427406435,12.751074816574
$GPGGA,152338.00,3240.4003,N,11713.8323,W,1,11,0.8,14.1,M,-34.4,M,,*6F
$PYRTM,2024,121.641434683981,12.751082094120
$GPGGA,152339.00,3240.3979,N,11713.8321,W,1,11,0.8,14.2,M,-34.4,M,,*6C
$PYRTM,2024,121.641450555810,12.751097965949
$GPGGA,152340.00,3240.3953,N,11713.8318,W,1,11,0.8,14.2,M,-34.4,M,,*60
$PYRTM,2024,121.641462113785,12.751109523924
$GPGGA,152341.00,3240.3927,N,11713.8314,W,1,11,0.8,13.8,M,-34.4,M,,*63
$PYRTM,2024,121.641473696470,12.751121106609
$GPGGA,152342.00,3240.3901,N,11713.8311,W,1,11,0.8,13.5,M,-34.4,M,,*6C
$PYRTM,2024,121.641485262558,12.751132672697
$GPGGA,152343.00,3240.3876,N,11713.8309,W,1,11,0.8,13.5,M,-34.4,M,,*65
$PYRTM,2024,121.641492554977,12.751139965116
$GPGGA,152344.00,3240.3851,N,11713.8307,W,1,11,0.8,13.6,M,-34.4,M,,*6A
$PYRTM,2024,121.641508409572,12.751155819711
$GPGGA,152345.00,3240.3824,N,11713.8305,W,1,11,0.8,13.7,M,-34.4,M,,*6A
$PYRTM,2024,121.641519995729,12.751167405868
$GPGGA,152346.00,3240.3798,N,11713.8302,W,1,11,0.8,13.7,M,-34.4,M,,*66
$PYRTM,2024,121.641531558472,12.751178968611
$GPGGA,152347.00,3240.3771,N,11713.8300,W,1,11,0.8,13.5,M,-34.4,M,,*60
$PYRTM,2024,121.641543140833,12.751190550972
$GPGGA,152348.00,3240.3745,N,11713.8297,W,1,11,0.8,13.4,M,-34.4,M,,*66
$PYRTM,2024,121.641554708079,12.751202118218
$GPGGA,152349.00,3240.3719,N,11713.8295,W,1,11,0.8,13.5,M,-34.4,M,,*6D
$PYRTM,2024,121.641566295313,12.751213705451
$GPGGA,152350.00,3240.3693,N,11713.8294,W,1,11,0.8,13.6,M,-34.4,M,,*64
$PYRTM,2024,121.641577753472,12.751225163611
$GPGGA,152351.00,3240.3667,N,11713.8291,W,1,11,0.8,13.6,M,-34.4,M,,*6B
$PYRTM,2024,121.641589327269,12.751236737419
$GPGGA,152352.00,3240.3640,N,11713.8288,W,1,11,0.8,13.6,M,-34.4,M,,*65
$PYRTM,2024,121.641600899687,12.751248309826
$GPGGA,152353.00,3240.3614,N,11713.8285,W,1,11,0.8,13.5,M,-34.4,M,,*6B
$PYRTM,2024,121.641612479178,12.751259889317
$GPGGA,152354.00,3240.3588,N,11713.8282,W,1,11,0.8,13.5,M,-34.4,M,,*6D
$PYRTM,2024,121.641624049803,12.751271459942
$GPGGA,152355.00,3240.3562,N,11713.8281,W,1,11,0.8,13.6,M,-34.4,M,,*68
$PYRTM,2024,121.641635625613,12.751283035752
$GPGGA,152356.00,3240.3536,N,11713.8278,W,1,11,0.8,13.6,M,-34.4,M,,*6C
$PYRTM,2024,121.641647299294,12.751294709444
$GPGGA,152357.00,3240.3510,N,11713.8275,W,1,11,0.8,13.5,M,-34.4,M,,*67
$PYRTM,2024,121.641654591181,12.751302001319
$GPGGA,152358.00,3240.3484,N,11713.8271,W,1,11,0.8,13.4,M,-34.4,M,,*61
$PYRTM,2024,121.641673225764,12.751320635903
$GPGGA,152359.00,3240.3459,N,11713.8269,W,1,11,0.8,13.4,M,-34.4,M,,*69
$PYRTM,2024,121.641682036412,12.751329446551
$GPGGA,152400.00,3240.3433,N,11713.8266,W,1,11,0.8,13.3,M,-34.4,M,,*66
$PYRTM,2024,121.641693596690,12.751341006829
$GPGGA,152401.00,3240.3406,N,11713.8264,W,1,11,0.8,13.3,M,-34.4,M,,*63
$PYRTM,2024,121.641705183356,12.751352593495
$GPGGA,152402.00,3240.3380,N,11713.8261,W,1,11,0.8,13.2,M,-34.4,M,,*6D
$PYRTM,2024,121.641716744120,12.751364154259
$GPGGA,152403.00,3240.3355,N,11713.8258,W,1,11,0.8,13.2,M,-34.4,M,,*6E
$PYRTM,2024,121.641728330556,12.751375740694
$GPGGA,152404.00,3240.3329,N,11713.8254,W,1,11,0.8,13.3,M,-34.4,M,,*6F
$PYRTM,2024,121.641739788935,12.751387199074
$GPGGA,152405.00,3240.3303,N,11713.8251,W,1,11,0.8,13.3,M,-34.4,M,,*63
$PYRTM,2024,121.641751477338,12.751398887477
$GPGGA,152406.00,3240.3277,N,11713.8248,W,1,11,0.8,13.3,M,-34.4,M,,*6A
$PYRTM,2024,121.641763041204,12.751410451343
$GPGGA,152407.00,3240.3250,N,11713.8245,W,1,11,0.8,13.1,M,-34.4,M,,*61
$PYRTM,2024,121.641774622778,12.751422032928
$GPGGA,152408.00,3240.3224,N,11713.8241,W,1,11,0.8,13.0,M,-34.4,M,,*68
$PYRTM,2024,121.641781907708,12.751429317859
$GPGGA,152409.00,3240.3198,N,11713.8238,W,1,11,0.8,12.9,M,-34.4,M,,*6B
$PYRTM,2024,121.641797664468,12.751445074606
$GPGGA,152410.00,3240.3173,N,11713.8235,W,1,11,0.8,13.0,M,-34.4,M,,*63
$PYRTM,2024,121.641809235556,12.751456645694
$GPGGA,152411.00,3240.3146,N,11713.8232,W,1,11,0.8,13.0,M,-34.4,M,,*63
$PYRTM,2024,121.641820812211,12.751468222350
$GPGGA,152412.00,3240.3119,N,11713.8230,W,1,11,0.8,12.8,M,-34.4,M,,*61
$PYRTM,2024,121.641832487083,12.751479897222
$GPGGA,152413.00,3240.3093,N,11713.8227,W,1,11,0.8,12.9,M,-34.4,M,,*64
$PYRTM,2024,121.641843960116,12.751491370266
$GPGGA,152414.00,3240.3068,N,11713.8224,W,1,11,0.8,13.1,M,-34.4,M,,*6D
$PYRTM,2024,121.641855526111,12.751502936250
$GPGGA,152415.00,3240.3041,N,11713.8222,W,1,11,0.8,13.1,M,-34.4,M,,*61
$PYRTM,2024,121.641867105104,12.751514515243
$GPGGA,152416.00,3240.3014,N,11713.8219,W,1,11,0.8,13.0,M,-34.4,M,,*6B
$PYRTM,2024,121.641878678762,12.751526088900
$GPGGA,152417.00,3240.2988,N,11713.8216,W,1,11,0.8,12.8,M,-34.4,M,,*61
$PYRTM,2024,121.641890253924,12.751537664062
$GPGGA,152418.00,3240.2962,N,11713.8213,W,1,11,0.8,12.7,M,-34.4,M,,*60
$PYRTM,2024,121.641897670243,12.751545080382
$GPGGA,152419.00,3240.2936,N,11713.8210,W,1,11,0.8,12.9,M,-34.4,M,,*6D
$PYRTM,2024,121.641913398484,12.751560808634
$GPGGA,152420.00,3240.2910,N,11713.8208,W,1,11,0.8,13.0,M,-34.4,M,,*62
$PYRTM,2024,121.641924976539,12.751572386678
$GPGGA,152421.00,3240.2883,N,11713.8206,W,1,11,0.8,13.2,M,-34.4,M,,*64
$PYRTM,2024,121.641936555104,12.751583965243
$GPGGA,152422.00,3240.2857,N,11713.8204,W,1,11,0.8,13.2,M,-34.4,M,,*6C
$PYRTM,2024,121.641948124352,12.751595534491
$GPGGA,152423.00,3240.2831,N,11713.8202,W,1,11,0.8,13.2,M,-34.4,M,,*6B
$PYRTM,2024,121.641959701887,12.751607112037
$GPGGA,152424.00,3240.2804,N,11713.8199,W,1,11,0.8,13.0,M,-34.4,M,,*69
$PYRTM,2024,121.641971272280,12.751618682419
$GPGGA,152425.00,3240.2777,N,11713.8196,W,1,11,0.8,12.8,M,-34.4,M,,*65
$PYRTM,2024,121.641982851019,12.751630261157
$GPGGA,152426.00,3240.2752,N,11713.8194,W,1,11,0.8,13.0,M,-34.4,M,,*6A
$PYRTM,2024,121.641994418773,12.751641828924
$GPGGA,152427.00,3240.2726,N,11713.8192,W,1,11,0.8,13.1,M,-34.4,M,,*6F
$PYRTM,2024,121.642005998588,12.751653408727
$GPGGA,152428.00,3240.2699,N,11713.8189,W,1,11,0.8,13.0,M,-34.4,M,,*6E
$PYRTM,2024,121.642013390984,12.751660801123
$GPGGA,152429.00,3240.2673,N,11713.8187,W,1,11,0.8,13.0,M,-34.4,M,,*65
$PYRTM,2024,121.642032040544,12.751679450683
$GPGGA,152430.00,3240.2648,N,11713.8185,W,1,11,0.8,13.2,M,-34.4,M,,*65
$PYRTM,2024,121.642040717130,12.751688127280
$GPGGA,152431.00,3240.2622,N,11713.8182,W,1,11,0.8,13.3,M,-34.4,M,,*6E
$PYRTM,2024,121.642052291331,12.751699701470
$GPGGA,152432.00,3240.2595,N,11713.8179,W,1,11,0.8,13.1,M,-34.4,M,,*64
$PYRTM,2024,121.642063867315,12.751711277454
$GPGGA,152433.00,3240.2568,N,11713.8177,W,1,11,0.8,12.9,M,-34.4,M,,*60
$PYRTM,2024,121.642075439433,12.751722849572
$GPGGA,152434.00,3240.2543,N,11713.8174,W,1,11,0.8,13.0,M,-34.4,M,,*65
$PYRTM,2024,121.642087009838,12.751734419988
$GPGGA,152435.00,3240.2518,N,11713.8171,W,1,11,0.8,13.2,M,-34.4,M,,*6D
$PYRTM,2024,121.642098600278,12.751746010417
$GPGGA,152436.00,3240.2491,N,11713.8167,W,1,11,0.8,13.2,M,-34.4,M,,*69
$PYRTM,2024,121.642110162627,12.751757572766
$GPGGA,152437.00,3240.2465,N,11713.8164,W,1,11,0.8,13.1,M,-34.4,M,,*63
$PYRTM,2024,121.642121747350,12.751769157488
$GPGGA,152438.00,3240.2439,N,11713.8161,W,1,11,0.8,13.1,M,-34.4,M,,*60
$PYRTM,2024,121.642129148241,12.751776558380
$GPGGA,152439.00,3240.2414,N,11713.8158,W,1,11,0.8,13.2,M,-34.4,M,,*67
$PYRTM,2024,121.642144895775,12.751792305914
$GPGGA,152440.00,3240.2388,N,11713.8155,W,1,11,0.8,13.3,M,-34.4,M,,*67
$PYRTM,2024,121.642156462164,12.751803872303
$GPGGA,152441.00,3240.2361,N,11713.8152,W,1,11,0.8,13.2,M,-34.4,M,,*67
$PYRTM,2024,121.642168040775,12.751815450914
$GPGGA,152442.00,3240.2335,N,11713.8150,W,1,11,0.8,13.0,M,-34.4,M,,*65
$PYRTM,2024,121.642179608345,12.751827018484
$GPGGA,152443.00,3240.2310,N,11713.8148,W,1,11,0.8,12.9,M,-34.4,M,,*62
$PYRTM,2024,121.642187005475,12.751834415613
$GPGGA,152444.00,3240.2283,N,11713.8145,W,1,11,0.8,12.8,M,-34.4,M,,*62
$PYRTM,2024,121.642202755752,12.751850165891
$GPGGA,152445.00,3240.2257,N,11713.8142,W,1,11,0.8,12.7,M,-34.4,M,,*62
$PYRTM,2024,121.642214337789,12.751861747928
$GPGGA,152446.00,3240.2232,N,11713.8139,W,1,11,0.8,12.8,M,-34.4,M,,*61
$PYRTM,2024,121.642225904815,12.751873314954
$GPGGA,152447.00,3240.2206,N,11713.8136,W,1,11,0.8,13.0,M,-34.4,M,,*61
$PYRTM,2024,121.642237478183,12.751884888322
$GPGGA,152448.00,3240.2180,N,11713.8132,W,1,11,0.8,13.0,M,-34.4,M,,*67
$PYRTM,2024,121.642244896308,12.751892306447
$GPGGA,152449.00,3240.2153,N,11713.8129,W,1,11,0.8,12.9,M,-34.4,M,,*6A
$PYRTM,2024,121.642260626076,12.751908036215
$GPGGA,152450.00,3240.2127,N,11713.8127,W,1,11,0.8,12.8,M,-34.4,M,,*6E
$PYRTM,2024,121.642272201377,12.751919611516
$GPGGA,152451.00,3240.2101,N,11713.8123,W,1,11,0.8,12.8,M,-34.4,M,,*6F
$PYRTM,2024,121.642283774618,12.751931184757
$GPGGA,152452.00,3240.2076,N,11713.8119,W,1,11,0.8,13.0,M,-34.4,M,,*6D
$PYRTM,2024,121.642295465069,12.751942875208
$GPGGA,152453.00,3240.2050,N,11713.8114,W,1,11,0.8,13.2,M,-34.4,M,,*67
$PYRTM,2024,121.642307035174,12.751954445312
$GPGGA,152454.00,3240.2024,N,11713.8111,W,1,11,0.8,13.2,M,-34.4,M,,*66
$PYRTM,2024,121.642318612488,12.751966022627
$GPGGA,152455.00,3240.1997,N,11713.8109,W,1,11,0.8,12.9,M,-34.4,M,,*66
$PYRTM,2024,121.642330188090,12.751977598229
$GPGGA,152456.00,3240.1971,N,11713.8106,W,1,11,0.8,12.7,M,-34.4,M,,*6C
$PYRTM,2024,121.642341761817,12.751989171956
$GPGGA,152457.00,3240.1946,N,11713.8102,W,1,11,0.8,12.7,M,-34.4,M,,*6D
$PYRTM,2024,121.642353335845,12.752000745984
$GPGGA,152458.00,3240.1921,N,11713.8098,W,1,11,0.8,12.9,M,-34.4,M,,*6F
$PYRTM,2024,121.642360730208,12.752008140347
$GPGGA,152459.00,3240.1895,N,11713.8094,W,1,11,0.8,12.9,M,-34.4,M,,*6C
$PYRTM,2024,121.642372418391,12.752019828530
$GPGGA,152500.00,3240.1868,N,11713.8091,W,1,11,0.8,12.7,M,-34.4,M,,*68
$PYRTM,2024,121.642390939711,12.752038349861
$GPGGA,152501.00,3240.1842,N,11713.8089,W,1,11,0.8,12.7,M,-34.4,M,,*68
$PYRTM,2024,121.642399525972,12.752046936111
$GPGGA,152502.00,3240.1816,N,11713.8085,W,1,11,0.8,12.8,M,-34.4,M,,*69
$PYRTM,2024,121.642411090799,12.752058500937
$GPGGA,152503.00,3240.1790,N,11713.8081,W,1,11,0.8,12.9,M,-34.4,M,,*6C
$PYRTM,2024,121.642422676019,12.752070086157
$GPGGA,152504.00,3240.1764,N,11713.8077,W,1,11,0.8,12.9,M,-34.4,M,,*69
$PYRTM,2024,121.642434239236,12.752081649375
$GPGGA,152505.00,3240.1737,N,11713.8074,W,1,11,0.8,13.0,M,-34.4,M,,*65
$PYRTM,2024,121.642445812708,12.752093222847
$GPGGA,152506.00,3240.1712,N,11713.8073,W,1,11,0.8,13.2,M,-34.4,M,,*64
$PYRTM,2024,121.642457386458,12.752104796597
$GPGGA,152507.00,3240.1686,N,11713.8071,W,1,11,0.8,13.4,M,-34.4,M,,*6D
$PYRTM,2024,121.642468960579,12.752116370718
$GPGGA,152508.00,3240.1659,N,11713.8068,W,1,11,0.8,13.3,M,-34.4,M,,*6F
$PYRTM,2024,121.642480538484,12.752127948623
$GPGGA,152509.00,3240.1632,N,11713.8065,W,1,11,0.8,13.2,M,-34.4,M,,*6F
$PYRTM,2024,121.642492108877,12.752139519016
$GPGGA,152510.00,3240.1607,N,11713.8062,W,1,11,0.8,13.3,M,-34.4,M,,*67
$PYRTM,2024,121.642503684468,12.752151094606
$GPGGA,152511.00,3240.1581,N,11713.8061,W,1,11,0.8,13.4,M,-34.4,M,,*6F
$PYRTM,2024,121.642515257616,12.752162667755
$GPGGA,152512.00,3240.1555,N,11713.8059,W,1,11,0.8,13.4,M,-34.4,M,,*6E
$PYRTM,2024,121.642526832153,12.752174242292
$GPGGA,152513.00,3240.1529,N,11713.8057,W,1,11,0.8,13.4,M,-34.4,M,,*6A
$PYRTM,2024,121.642534226701,12.752181636829
$GPGGA,152514.00,3240.1503,N,11713.8054,W,1,11,0.8,13.3,M,-34.4,M,,*61
$PYRTM,2024,121.642549976192,12.752197386331
$GPGGA,152515.00,3240.1477,N,11713.8050,W,1,11,0.8,13.2,M,-34.4,M,,*67
$PYRTM,2024,121.642561579873,12.752208990023
$GPGGA,152516.00,3240.1451,N,11713.8048,W,1,11,0.8,13.1,M,-34.4,M,,*6A
$PYRTM,2024,121.642568960764,12.752216370903
$GPGGA,152517.00,3240.1425,N,11713.8045,W,1,11,0.8,13.2,M,-34.4,M,,*66
$PYRTM,2024,121.642584710035,12.752232120174
$GPGGA,152518.00,3240.1398,N,11713.8043,W,1,11,0.8,13.2,M,-34.4,M,,*6E
$PYRTM,2024,121.642596278530,12.752243688669
$GPGGA,152519.00,3240.1372,N,11713.8040,W,1,11,0.8,13.3,M,-34.4,M,,*69
$PYRTM,2024,121.642607853102,12.752255263252
$GPGGA,152520.00,3240.1347,N,11713.8036,W,1,11,0.8,13.5,M,-34.4,M,,*62
$PYRTM,2024,121.642619426296,12.752266836447
$GPGGA,152521.00,3240.1321,N,11713.8033,W,1,11,0.8,13.5,M,-34.4,M,,*66
$PYRTM,2024,121.642626820995,12.752274231134
$GPGGA,152522.00,3240.1295,N,11713.8030,W,1,11,0.8,13.4,M,-34.4,M,,*69
$PYRTM,2024,121.642642574317,12.752289984456
$GPGGA,152523.00,3240.1269,N,11713.8027,W,1,11,0.8,13.3,M,-34.4,M,,*6A
$PYRTM,2024,121.642654158449,12.752301568588
$GPGGA,152524.00,3240.1244,N,11713.8023,W,1,11,0.8,13.3,M,-34.4,M,,*66
$PYRTM,2024,121.642665723414,12.752313133553
$GPGGA,152525.00,3240.1218,N,11713.8020,W,1,11,0.8,13.2,M,-34.4,M,,*6C
$PYRTM,2024,121.642677295509,12.752324705660
$GPGGA,152526.00,3240.1191,N,11713.8017,W,1,11,0.8,13.1,M,-34.4,M,,*6A
$PYRTM,2024,121.642684697731,12.752332107870
$GPGGA,152527.00,3240.1165,N,11713.8014,W,1,11,0.8,13.1,M,-34.4,M,,*63
$PYRTM,2024,121.642700455012,12.752347865150
$GPGGA,152528.00,3240.1140,N,11713.8011,W,1,11,0.8,13.3,M,-34.4,M,,*6C
$PYRTM,2024,121.642712018137,12.752359428275
$GPGGA,152529.00,3240.1114,N,11713.8007,W,1,11,0.8,13.4,M,-34.4,M,,*6C
$PYRTM,2024,121.642723591852,12.752371001991
$GPGGA,152530.00,3240.1088,N,11713.8004,W,1,11,0.8,13.5,M,-34.4,M,,*62
$PYRTM,2024,121.642730993252,12.752378403391
$GPGGA,152531.00,3240.1061,N,11713.8001,W,1,11,0.8,13.4,M,-34.4,M,,*60
$PYRTM,2024,121.642749635544,12.752397045683
$GPGGA,152532.00,3240.1035,N,11713.7997,W,1,11,0.8,13.3,M,-34.4,M,,*6C
$PYRTM,2024,121.642758316123,12.752405726262
$GPGGA,152533.00,3240.1010,N,11713.7994,W,1,11,0.8,13.2,M,-34.4,M,,*68
$PYRTM,2024,121.642769897118,12.752417307257
$GPGGA,152534.00,3240.0984,N,11713.7991,W,1,11,0.8,13.2,M,-34.4,M,,*6F
$PYRTM,2024,121.642781464618,12.752428874757
$GPGGA,152535.00,3240.0957,N,11713.7989,W,1,11,0.8,13.1,M,-34.4,M,,*6A
$PYRTM,2024,121.642793048646,12.752440458785
$GPGGA,152536.00,3240.0931,N,11713.7985,W,1,11,0.8,13.1,M,-34.4,M,,*65
$PYRTM,2024,121.642804613947,12.752452024086
$GPGGA,152537.00,3240.0905,N,11713.7981,W,1,11,0.8,13.3,M,-34.4,M,,*65
$PYRTM,2024,121.642816196250,12.752463606389
$GPGGA,152538.00,3240.0879,N,11713.7977,W,1,11,0.8,13.4,M,-34.4,M,,*6E
$PYRTM,2024,121.642827759988,12.752475170127
$GPGGA,152539.00,3240.0853,N,11713.7974,W,1,11,0.8,13.4,M,-34.4,M,,*64
$PYRTM,2024,121.642839332824,12.752486742963
$GPGGA,152540.00,3240.0826,N,11713.7970,W,1,11,0.8,13.4,M,-34.4,M,,*6C
$PYRTM,2024,121.642850907326,12.752498317465
$GPGGA,152541.00,3240.0800,N,11713.7966,W,1,11,0.8,13.3,M,-34.4,M,,*69
$PYRTM,2024,121.642858304433,12.752505714583
$GPGGA,152542.00,3240.0774,N,11713.7962,W,1,11,0.8,13.3,M,-34.4,M,,*62
$PYRTM,2024,121.642874056516,12.752521466655
$GPGGA,152543.00,3240.0747,N,11713.7958,W,1,11,0.8,13.1,M,-34.4,M,,*68
$PYRTM,2024,121.642885630903,12.752533041042
$GPGGA,152544.00,3240.0721,N,11713.7954,W,1,11,0.8,13.1,M,-34.4,M,,*63
$PYRTM,2024,121.642897206644,12.752544616782
$GPGGA,152545.00,3240.0695,N,11713.7950,W,1,11,0.8,13.2,M,-34.4,M,,*6B
$PYRTM,2024,121.642908790139,12.752556200289
$GPGGA,152546.00,3240.0669,N,11713.7947,W,1,11,0.8,13.2,M,-34.4,M,,*6D
$PYRTM,2024,121.642916181076,12.752563591227
$GPGGA,152547.00,3240.0642,N,11713.7943,W,1,11,0.8,13.2,M,-34.4,M,,*61
$PYRTM,2024,121.642931934942,12.752579345081
$GPGGA,152548.00,3240.0616,N,11713.7939,W,1,11,0.8,13.4,M,-34.4,M,,*64
$PYRTM,2024,121.642943501296,12.752590911435
$GPGGA,152549.00,3240.0591,N,11713.7935,W,1,11,0.8,13.6,M,-34.4,M,,*67
$PYRTM,2024,121.642955082824,12.752602492963
$GPGGA,152550.00,3240.0565,N,11713.7930,W,1,11,0.8,13.6,M,-34.4,M,,*61
$PYRTM,2024,121.642966649086,12.752614059225
$GPGGA,152551.00,3240.0539,N,11713.7927,W,1,11,0.8,13.3,M,-34.4,M,,*6A
$PYRTM,2024,121.642974047581,12.752621457720
$GPGGA,152552.00,3240.0512,N,11713.7924,W,1,11,0.8,13.0,M,-34.4,M,,*60
$PYRTM,2024,121.642989799803,12.752637209942
$GPGGA,152553.00,3240.0487,N,11713.7919,W,1,11,0.8,13.0,M,-34.4,M,,*62
$PYRTM,2024,121.643001372014,12.752648782153
$GPGGA,152554.00,3240.0461,N,11713.7914,W,1,11,0.8,13.1,M,-34.4,M,,*61
$PYRTM,2024,121.643012945972,12.752660356111
$GPGGA,152555.00,3240.0434,N,11713.7910,W,1,11,0.8,13.1,M,-34.4,M,,*64
$PYRTM,2024,121.643024531644,12.752671941782
$GPGGA,152556.00,3240.0409,N,11713.7905,W,1,11,0.8,13.4,M,-34.4,M,,*68
$PYRTM,2024,121.643036094259,12.752683504398
$GPGGA,152557.00,3240.0383,N,11713.7901,W,1,11,0.8,13.6,M,-34.4,M,,*6A
$PYRTM,2024,121.643047680081,12.752695090220
$GPGGA,152558.00,3240.0356,N,11713.7896,W,1,11,0.8,13.5,M,-34.4,M,,*61
$PYRTM,2024,121.643059244583,12.752706654722
$GPGGA,152559.00,3240.0330,N,11713.7893,W,1,11,0.8,13.2,M,-34.4,M,,*62
$PYRTM,2024,121.643070816447,12.752718226586
$GPGGA,152600.00,3240.0305,N,11713.7888,W,1,11,0.8,13.3,M,-34.4,M,,*60
$PYRTM,2024,121.643082390787,12.752729800926
$GPGGA,152601.00,3240.0280,N,11713.7883,W,1,11,0.8,13.5,M,-34.4,M,,*60
$PYRTM,2024,121.643089785463,12.752737195602
$GPGGA,152602.00,3240.0254,N,11713.7878,W,1,11,0.8,13.3,M,-34.4,M,,*68
$PYRTM,2024,121.643108433958,12.752755844097
$GPGGA,152603.00,3240.0228,N,11713.7874,W,1,11,0.8,13.2,M,-34.4,M,,*6F
$PYRTM,2024,121.643117140544,12.752764550683
$GPGGA,152604.00,3240.0202,N,11713.7871,W,1,11,0.8,13.1,M,-34.4,M,,*66
$PYRTM,2024,121.643128687859,12.752776097998
$GPGGA,152605.00,3240.0176,N,11713.7867,W,1,11,0.8,13.2,M,-34.4,M,,*63
$PYRTM,2024,121.643140261968,12.752787672106
$GPGGA,152606.00,3240.0150,N,11713.7864,W,1,11,0.8,13.1,M,-34.4,M,,*64
$PYRTM,2024,121.643151836759,12.752799246898
$GPGGA,152607.00,3240.0124,N,11713.7859,W,1,11,0.8,13.3,M,-34.4,M,,*6A
$PYRTM,2024,121.643163418218,12.752810828356
$GPGGA,152608.00,3240.0098,N,11713.7854,W,1,11,0.8,13.5,M,-34.4,M,,*68
$PYRTM,2024,121.643174978819,12.752822388958
$GPGGA,152609.00,3240.0072,N,11713.7850,W,1,11,0.8,13.5,M,-34.4,M,,*69
$PYRTM,2024,121.643186560579,12.752833970718
$GPGGA,152610.00,3240.0045,N,11713.7848,W,1,11,0.8,13.4,M,-34.4,M,,*6D
$PYRTM,2024,121.643198133426,12.752845543576
$GPGGA,152611.00,3240.0018,N,11713.7845,W,1,11,0.8,13.2,M,-34.4,M,,*6F
$PYRTM,2024,121.643205529676,12.752852939815
$GPGGA,152612.00,3239.9992,N,11713.7842,W,1,11,0.8,13.1,M,-34.4,M,,*64
$PYRTM,2024,121.643221280995,12.752868691134
$GPGGA,152613.00,3239.9967,N,11713.7837,W,1,11,0.8,13.2,M,-34.4,M,,*6E
$PYRTM,2024,121.643232856563,12.752880266701
$GPGGA,152614.00,3239.9940,N,11713.7832,W,1,11,0.8,13.2,M,-34.4,M,,*69
$PYRTM,2024,121.643240262604,12.752887672743
$GPGGA,152615.00,3239.9914,N,11713.7829,W,1,11,0.8,13.3,M,-34.4,M,,*62
$PYRTM,2024,121.643256004387,12.752903414525
$GPGGA,152616.00,3239.9888,N,11713.7828,W,1,11,0.8,13.4,M,-34.4,M,,*63
$PYRTM,2024,121.643267577535,12.752914987674
$GPGGA,152617.00,3239.9862,N,11713.7826,W,1,11,0.8,13.5,M,-34.4,M,,*69
$PYRTM,2024,121.643279151030,12.752926561181
$GPGGA,152618.00,3239.9836,N,11713.7821,W,1,11,0.8,13.4,M,-34.4,M,,*61
$PYRTM,2024,121.643290726956,12.752938137095
$GPGGA,152619.00,3239.9810,N,11713.7816,W,1,11,0.8,13.3,M,-34.4,M,,*67
$PYRTM,2024,121.643302308275,12.752949718414
$GPGGA,152620.00,3239.9784,N,11713.7812,W,1,11,0.8,13.2,M,-34.4,M,,*6A
$PYRTM,2024,121.643313875984,12.752961286134
$GPGGA,152621.00,3239.9758,N,11713.7810,W,1,11,0.8,13.1,M,-34.4,M,,*6B
$PYRTM,2024,121.643325455972,12.752972866111
$GPGGA,152622.00,3239.9732,N,11713.7808,W,1,11,0.8,13.0,M,-34.4,M,,*6C
$PYRTM,2024,121.643337023333,12.752984433472
$GPGGA,152623.00,3239.9705,N,11713.7805,W,1,11,0.8,13.0,M,-34.4,M,,*64
$PYRTM,2024,121.643348604630,12.752996014769
$GPGGA,152624.00,3239.9679,N,11713.7800,W,1,11,0.8,13.0,M,-34.4,M,,*6C
$PYRTM,2024,121.643360171493,12.753007581632
$GPGGA,152625.00,3239.9652,N,11713.7796,W,1,11,0.8,13.2,M,-34.4,M,,*66
$PYRTM,2024,121.643371756076,12.753019166215
$GPGGA,152626.00,3239.9627,N,11713.7792,W,1,11,0.8,13.4,M,-34.4,M,,*65
$PYRTM,2024,121.643379152674,12.753026562813
$GPGGA,152627.00,3239.9601,N,11713.7788,W,1,11,0.8,13.5,M,-34.4,M,,*6A
$PYRTM,2024,121.643394903808,12.753042313947
$GPGGA,152628.00,3239.9575,N,11713.7785,W,1,11,0.8,13.4,M,-34.4,M,,*69
$PYRTM,2024,121.643406462454,12.753053872593
$GPGGA,152629.00,3239.9548,N,11713.7782,W,1,11,0.8,13.1,M,-34.4,M,,*64
$PYRTM,2024,121.643418042928,12.753065453079
$GPGGA,152630.00,3239.9523,N,11713.7779,W,1,11,0.8,13.0,M,-34.4,M,,*64
$PYRTM,2024,121.643429616458,12.753077026597
$GPGGA,152631.00,3239.9497,N,11713.7775,W,1,11,0.8,13.0,M,-34.4,M,,*67
$PYRTM,2024,121.643441189618,12.753088599757
$GPGGA,152632.00,3239.9471,N,11713.7770,W,1,11,0.8,13.1,M,-34.4,M,,*68
$PYRTM,2024,121.643448591019,12.753096001157
$GPGGA,152633.00,3239.9444,N,11713.7768,W,1,11,0.8,13.1,M,-34.4,M,,*66
$PYRTM,2024,121.643467234120,12.753114644271
$GPGGA,152634.00,3239.9418,N,11713.7766,W,1,11,0.8,13.2,M,-34.4,M,,*65
$PYRTM,2024,121.643475913854,12.753123323993
$GPGGA,152635.00,3239.9392,N,11713.7764,W,1,11,0.8,13.2,M,-34.4,M,,*63
$PYRTM,2024,121.643487494282,12.753134904421
$GPGGA,152636.00,3239.9365,N,11713.7762,W,1,11,0.8,13.1,M,-34.4,M,,*6D
$PYRTM,2024,121.643494888576,12.753142298715
$GPGGA,152637.00,3239.9339,N,11713.7760,W,1,11,0.8,13.1,M,-34.4,M,,*67
$PYRTM,2024,121.643510659687,12.753158069838
$GPGGA,152638.00,3239.9313,N,11713.7757,W,1,11,0.8,13.2,M,-34.4,M,,*67
$PYRTM,2024,121.643522209340,12.753169619491
$GPGGA,152639.00,3239.9287,N,11713.7755,W,1,11,0.8,13.1,M,-34.4,M,,*6B
$PYRTM,2024,121.643533790810,12.753181200961
$GPGGA,152640.00,3239.9261,N,11713.7753,W,1,11,0.8,13.1,M,-34.4,M,,*6B
$PYRTM,2024,121.643545357199,12.753192767338
$GPGGA,152641.00,3239.9235,N,11713.7751,W,1,11,0.8,13.3,M,-34.4,M,,*6B
$PYRTM,2024,121.643552753009,12.753200163160
$GPGGA,152642.00,3239.9209,N,11713.7748,W,1,11,0.8,13.4,M,-34.4,M,,*68
$PYRTM,2024,121.643568506412,12.753215916551
$GPGGA,152643.00,3239.9182,N,11713.7746,W,1,11,0.8,13.1,M,-34.4,M,,*62
$PYRTM,2024,121.643580079780,12.753227489931
$GPGGA,152644.00,3239.9155,N,11713.7746,W,1,11,0.8,12.9,M,-34.4,M,,*66
$PYRTM,2024,121.643591653461,12.753239063600
$GPGGA,152645.00,3239.9130,N,11713.7745,W,1,11,0.8,13.2,M,-34.4,M,,*6D
$PYRTM,2024,121.643603227280,12.753250637431
$GPGGA,152646.00,3239.9105,N,11713.7742,W,1,11,0.8,13.4,M,-34.4,M,,*69
$PYRTM,2024,121.643610628958,12.753258039097
$GPGGA,152647.00,3239.9078,N,11713.7738,W,1,11,0.8,13.5,M,-34.4,M,,*6F
$PYRTM,2024,121.643626379086,12.753273789225
$GPGGA,152648.00,3239.9053,N,11713.7736,W,1,11,0.8,13.5,M,-34.4,M,,*67
$PYRTM,2024,121.643637951019,12.753285361157
$GPGGA,152649.00,3239.9027,N,11713.7735,W,1,11,0.8,13.4,M,-34.4,M,,*67
$PYRTM,2024,121.643649524120,12.753296934259
$GPGGA,152650.00,3239.9000,N,11713.7734,W,1,11,0.8,13.1,M,-34.4,M,,*6E
$PYRTM,2024,121.643661097894,12.753308508044
$GPGGA,152651.00,3239.8974,N,11713.7732,W,1,11,0.8,12.9,M,-34.4,M,,*6B
$PYRTM,2024,121.643668494919,12.753315905058
$GPGGA,152652.00,3239.8948,N,11713.7729,W,1,11,0.8,13.0,M,-34.4,M,,*65
$PYRTM,2024,121.643684242153,12.753331652303
$GPGGA,152653.00,3239.8922,N,11713.7726,W,1,11,0.8,13.1,M,-34.4,M,,*66
$PYRTM,2024,121.643695846134,12.753343256273
$GPGGA,152654.00,3239.8896,N,11713.7725,W,1,11,0.8,13.3,M,-34.4,M,,*6E
$PYRTM,2024,121.643707390324,12.753354800463
$GPGGA,152655.00,3239.8870,N,11713.7723,W,1,11,0.8,13.5,M,-34.4,M,,*67
$PYRTM,2024,121.643718977928,12.753366388067
$GPGGA,152656.00,3239.8844,N,11713.7721,W,1,11,0.8,13.6,M,-34.4,M,,*62
$PYRTM,2024,121.643730544352,12.753377954502
$GPGGA,152657.00,3239.8817,N,11713.7718,W,1,11,0.8,13.3,M,-34.4,M,,*6A
$PYRTM,2024,121.643742117419,12.753389527558
$GPGGA,152658.00,3239.8791,N,11713.7716,W,1,11,0.8,13.0,M,-34.4,M,,*69
$PYRTM,2024,121.643753807199,12.753401217338
$GPGGA,152659.00,3239.8766,N,11713.7714,W,1,11,0.8,13.1,M,-34.4,M,,*63
$PYRTM,2024,121.643765377488,12.753412787627
$GPGGA,152700.00,3239.8740,N,11713.7711,W,1,11,0.8,13.2,M,-34.4,M,,*6C
$PYRTM,2024,121.643776955556,12.753424365694
$GPGGA,152701.00,3239.8713,N,11713.7709,W,1,11,0.8,13.2,M,-34.4,M,,*62
$PYRTM,2024,121.643784350937,12.753431761076
$GPGGA,152702.00,3239.8687,N,11713.7707,W,1,11,0.8,13.1,M,-34.4,M,,*60
$PYRTM,2024,121.643800104444,12.753447514583
$GPGGA,152703.00,3239.8661,N,11713.7707,W,1,11,0.8,13.1,M,-34.4,M,,*69
$PYRTM,2024,121.643807498322,12.753454908461
$GPGGA,152704.00,3239.8635,N,11713.7706,W,1,11,0.8,13.2,M,-34.4,M,,*6D
$PYRTM,2024,121.643826133681,12.753473543819
$GPGGA,152705.00,3239.8609,N,11713.7703,W,1,11,0.8,13.4,M,-34.4,M,,*60
$PYRTM,2024,121.643834821204,12.753482231343
$GPGGA,152706.00,3239.8583,N,11713.7699,W,1,11,0.8,13.5,M,-34.4,M,,*61
$PYRTM,2024,121.643842222211,12.753489632350
$GPGGA,152707.00,3239.8557,N,11713.7697,W,1,11,0.8,13.4,M,-34.4,M,,*66
$PYRTM,2024,121.643857858981,12.753505269120
$GPGGA,152708.00,3239.8530,N,11713.7697,W,1,11,0.8,13.0,M,-34.4,M,,*6C
$PYRTM,2024,121.643869429363,12.753516839502
$GPGGA,152709.00,3239.8505,N,11713.7697,W,1,11,0.8,12.9,M,-34.4,M,,*63
$PYRTM,2024,121.643881015463,12.753528425602
$GPGGA,152710.00,3239.8480,N,11713.7695,W,1,11,0.8,13.2,M,-34.4,M,,*6F
$PYRTM,2024,121.643892583079,12.753539993218
$GPGGA,152711.00,3239.8453,N,11713.7691,W,1,11,0.8,13.5,M,-34.4,M,,*63
$PYRTM,2024,121.643899978241,12.753547388380
$GPGGA,152712.00,3239.8427,N,11713.7689,W,1,11,0.8,13.6,M,-34.4,M,,*69
$PYRTM,2024,121.643915730139,12.753563140278
$GPGGA,152713.00,3239.8401,N,11713.7687,W,1,11,0.8,13.6,M,-34.4,M,,*62
$PYRTM,2024,121.643927314572,12.753574724711
$GPGGA,152714.00,3239.8375,N,11713.7686,W,1,11,0.8,13.6,M,-34.4,M,,*60
$PYRTM,2024,121.643938877986,12.753586288125
$GPGGA,152715.00,3239.8349,N,11713.7684,W,1,11,0.8,13.6,M,-34.4,M,,*6C
$PYRTM,2024,121.643950463565,12.753597873704
$GPGGA,152716.00,3239.8323,N,11713.7681,W,1,11,0.8,13.8,M,-34.4,M,,*68
$PYRTM,2024,121.643962026296,12.753609436447
$GPGGA,152717.00,3239.8298,N,11713.7678,W,1,11,0.8,13.9,M,-34.4,M,,*6F
$PYRTM,2024,121.643973601366,12.753621011505
$GPGGA,152718.00,3239.8271,N,11713.7675,W,1,11,0.8,13.8,M,-34.4,M,,*6B
$PYRTM,2024,121.643985171933,12.753632582072
$GPGGA,152719.00,3239.8245,N,11713.7673,W,1,11,0.8,13.8,M,-34.4,M,,*6B
$PYRTM,2024,121.643996760856,12.753644170995
$GPGGA,152720.00,3239.8219,N,11713.7671,W,1,11,0.8,13.8,M,-34.4,M,,*6A
$PYRTM,2024,121.644008326586,12.753655736725
$GPGGA,152721.00,3239.8193,N,11713.7668,W,1,11,0.8,13.7,M,-34.4,M,,*6D
$PYRTM,2024,121.644015718565,12.753663128704
$GPGGA,152722.00,3239.8167,N,11713.7667,W,1,11,0.8,13.6,M,-34.4,M,,*6B
$PYRTM,2024,121.644031473241,12.753678883380
$GPGGA,152723.00,3239.8140,N,11713.7665,W,1,11,0.8,13.5,M,-34.4,M,,*6E
$PYRTM,2024,121.644043045336,12.753690455475
$GPGGA,152724.00,3239.8113,N,11713.7664,W,1,11,0.8,13.5,M,-34.4,M,,*6E
$PYRTM,2024,121.644050452731,12.753697862870
$GPGGA,152725.00,3239.8087,N,11713.7661,W,1,11,0.8,13.6,M,-34.4,M,,*65
$PYRTM,2024,121.644066202338,12.753713612477
$GPGGA,152726.00,3239.8062,N,11713.7658,W,1,11,0.8,13.7,M,-34.4,M,,*66
$PYRTM,2024,121.644077768958,12.753725179097
$GPGGA,152727.00,3239.8035,N,11713.7657,W,1,11,0.8,13.7,M,-34.4,M,,*6A
$PYRTM,2024,121.644089365347,12.753736775486
$GPGGA,152728.00,3239.8007,N,11713.7658,W,1,11,0.8,13.2,M,-34.4,M,,*6E
$PYRTM,2024,121.644100911192,12.753748321331
$GPGGA,152729.00,3239.7981,N,11713.7658,W,1,11,0.8,12.6,M,-34.4,M,,*62
$PYRTM,2024,121.644108312407,12.753755722546
$GPGGA,152730.00,3239.7955,N,11713.7655,W,1,11,0.8,13.4,M,-34.4,M,,*6D
$PYRTM,2024,121.644124059456,12.753771469595
$GPGGA,152731.00,3239.7929,N,11713.7650,W,1,11,0.8,13.5,M,-34.4,M,,*63
$PYRTM,2024,121.644135626979,12.753783037118
$GPGGA,152732.00,3239.7903,N,11713.7646,W,1,11,0.8,13.6,M,-34.4,M,,*6C
$PYRTM,2024,121.644147228507,12.753794638646
$GPGGA,152733.00,3239.7877,N,11713.7646,W,1,11,0.8,13.7,M,-34.4,M,,*6E
$PYRTM,2024,121.644158775729,12.753806185868
$GPGGA,152734.00,3239.7851,N,11713.7647,W,1,11,0.8,13.8,M,-34.4,M,,*63
$PYRTM,2024,121.644166181400,12.753813591539
$GPGGA,152735.00,3239.7825,N,11713.7646,W,1,11,0.8,13.7,M,-34.4,M,,*6F
$PYRTM,2024,121.644184828634,12.753832238773
$GPGGA,152736.00,3239.7799,N,11713.7644,W,1,11,0.8,13.5,M,-34.4,M,,*64
$PYRTM,2024,121.644193512292,12.753840922431
$GPGGA,152737.00,3239.7774,N,11713.7640,W,1,11,0.8,13.6,M,-34.4,M,,*61
$PYRTM,2024,121.644205071123,12.753852481262
$GPGGA,152738.00,3239.7748,N,11713.7636,W,1,11,0.8,13.8,M,-34.4,M,,*6E
$PYRTM,2024,121.644216658264,12.753864068403
$GPGGA,152739.00,3239.7722,N,11713.7634,W,1,11,0.8,13.9,M,-34.4,M,,*60
$PYRTM,2024,121.644224067616,12.753871477755
$GPGGA,152740.00,3239.7696,N,11713.7635,W,1,11,0.8,13.7,M,-34.4,M,,*6F
$PYRTM,2024,121.644239808310,12.753887218449
$GPGGA,152741.00,3239.7669,N,11713.7637,W,1,11,0.8,13.3,M,-34.4,M,,*68
$PYRTM,2024,121.644251367951,12.753898778090
$GPGGA,152742.00,3239.7643,N,11713.7636,W,1,11,0.8,12.7,M,-34.4,M,,*67
$PYRTM,2024,121.644262951146,12.753910361285
$GPGGA,152743.00,3239.7618,N,11713.7630,W,1,11,0.8,13.5,M,-34.4,M,,*6D
$PYRTM,2024,121.644274515336,12.753921925475
$GPGGA,152744.00,3239.7592,N,11713.7623,W,1,11,0.8,14.0,M,-34.4,M,,*6B
$PYRTM,2024,121.644281923194,12.753929333333
$GPGGA,152745.00,3239.7566,N,11713.7621,W,1,11,0.8,13.8,M,-34.4,M,,*6C
$PYRTM,2024,121.644297664711,12.753945074850
$GPGGA,152746.00,3239.7539,N,11713.7624,W,1,11,0.8,13.3,M,-34.4,M,,*6B
$PYRTM,2024,121.644309245764,12.753956655914
$GPGGA,152747.00,3239.7513,N,11713.7626,W,1,11,0.8,13.1,M,-34.4,M,,*62
$PYRTM,2024,121.644320812419,12.753968222558
$GPGGA,152748.00,3239.7487,N,11713.7622,W,1,11,0.8,13.0,M,-34.4,M,,*64
$PYRTM,2024,121.644332398889,12.753979809028
$GPGGA,152749.00,3239.7462,N,11713.7618,W,1,11,0.8,13.2,M,-34.4,M,,*65
$PYRTM,2024,121.644343961447,12.753991371586
$GPGGA,152750.00,3239.7436,N,11713.7615,W,1,11,0.8,13.5,M,-34.4,M,,*66
$PYRTM,2024,121.644355549780,12.754002959919
$GPGGA,152751.00,3239.7410,N,11713.7615,W,1,11,0.8,13.6,M,-34.4,M,,*60
$PYRTM,2024,121.644367111562,12.754014521701
$GPGGA,152752.00,3239.7383,N,11713.7616,W,1,11,0.8,13.9,M,-34.4,M,,*62
$PYRTM,2024,121.644378709398,12.754026119537
$GPGGA,152753.00,3239.7357,N,11713.7614,W,1,11,0.8,13.9,M,-34.4,M,,*68
$PYRTM,2024,121.644390257280,12.754037667419
$GPGGA,152754.00,3239.7332,N,11713.7610,W,1,11,0.8,14.1,M,-34.4,M,,*67
$PYRTM,2024,121.644397664074,12.754045074213
$GPGGA,152755.00,3239.7306,N,11713.7608,W,1,11,0.8,14.0,M,-34.4,M,,*69
$PYRTM,2024,121.644413405428,12.754060815567
$GPGGA,152756.00,3239.7279,N,11713.7609,W,1,11,0.8,13.7,M,-34.4,M,,*62
$PYRTM,2024,121.644424993542,12.754072403681
$GPGGA,152757.00,3239.7253,N,11713.7612,W,1,11,0.8,13.3,M,-34.4,M,,*65
$PYRTM,2024,121.644436554340,12.754083964479
$GPGGA,152758.00,3239.7227,N,11713.7611,W,1,11,0.8,13.4,M,-34.4,M,,*6D
$PYRTM,2024,121.644448135602,12.754095545752
$GPGGA,152759.00,3239.7202,N,11713.7608,W,1,11,0.8,13.8,M,-34.4,M,,*6F
$PYRTM,2024,121.644459701551,12.754107111690
$GPGGA,152800.00,3239.7175,N,11713.7606,W,1,11,0.8,14.0,M,-34.4,M,,*6E
$PYRTM,2024,121.644471289086,12.754118699225
$GPGGA,152801.00,3239.7148,N,11713.7608,W,1,11,0.8,14.0,M,-34.4,M,,*6F
$PYRTM,2024,121.644482851076,12.754130261215
$GPGGA,152802.00,3239.7122,N,11713.7610,W,1,11,0.8,14.1,M,-34.4,M,,*68
$PYRTM,2024,121.644494437407,12.754141847546
$GPGGA,152803.00,3239.7097,N,11713.7610,W,1,11,0.8,14.1,M,-34.4,M,,*66
$PYRTM,2024,121.644506000185,12.754153410324
$GPGGA,152804.00,3239.7071,N,11713.7608,W,1,11,0.8,13.8,M,-34.4,M,,*6E
$PYRTM,2024,121.644513404757,12.754160814896
$GPGGA,152805.00,3239.7045,N,11713.7607,W,1,11,0.8,13.5,M,-34.4,M,,*6A
$PYRTM,2024,121.644525210775,12.754172620914
$GPGGA,152806.00,3239.7019,N,11713.7608,W,1,11,0.8,13.5,M,-34.4,M,,*6F
$PYRTM,2024,121.644543626481,12.754191036632
$GPGGA,152807.00,3239.6993,N,11713.7608,W,1,11,0.8,13.8,M,-34.4,M,,*69
$PYRTM,2024,121.644552294641,12.754199704780
$GPGGA,152808.00,3239.6968,N,11713.7607,W,1,11,0.8,14.0,M,-34.4,M,,*62
$PYRTM,2024,121.644563885081,12.754211295220
$GPGGA,152809.00,3239.6942,N,11713.7607,W,1,11,0.8,13.8,M,-34.4,M,,*64
$PYRTM,2024,121.644571276030,12.754218686169
$GPGGA,152810.00,3239.6915,N,11713.7607,W,1,11,0.8,13.6,M,-34.4,M,,*60
$PYRTM,2024,121.644587030289,12.754234440440
$GPGGA,152811.00,3239.6890,N,11713.7607,W,1,11,0.8,13.6,M,-34.4,M,,*6D
$PYRTM,2024,121.644598591609,12.754246001748
$GPGGA,152812.00,3239.6865,N,11713.7606,W,1,11,0.8,13.6,M,-34.4,M,,*65
$PYRTM,2024,121.644605999583,12.754253409722
$GPGGA,152813.00,3239.6839,N,11713.7604,W,1,11,0.8,13.8,M,-34.4,M,,*61
$PYRTM,2024,121.644621739780,12.754269149919
$GPGGA,152814.00,3239.6814,N,11713.7602,W,1,11,0.8,13.9,M,-34.4,M,,*6E
$PYRTM,2024,121.644633326644,12.754280736782
$GPGGA,152815.00,3239.6787,N,11713.7601,W,1,11,0.8,13.7,M,-34.4,M,,*67
$PYRTM,2024,121.644644888183,12.754292298322
$GPGGA,152816.00,3239.6761,N,11713.7603,W,1,11,0.8,13.4,M,-34.4,M,,*6D
$PYRTM,2024,121.644656479271,12.754303889410
$GPGGA,152817.00,3239.6735,N,11713.7603,W,1,11,0.8,13.3,M,-34.4,M,,*6A
$PYRTM,2024,121.644668036667,12.754315446806
$GPGGA,152818.00,3239.6709,N,11713.7602,W,1,11,0.8,13.3,M,-34.4,M,,*6B
$PYRTM,2024,121.644679623310,12.754327033449
$GPGGA,152819.00,3239.6683,N,11713.7599,W,1,11,0.8,13.2,M,-34.4,M,,*69
$PYRTM,2024,121.644691185544,12.754338595683
$GPGGA,152820.00,3239.6657,N,11713.7595,W,1,11,0.8,13.6,M,-34.4,M,,*62
$PYRTM,2024,121.644702771377,12.754350181516
$GPGGA,152821.00,3239.6631,N,11713.7592,W,1,11,0.8,13.8,M,-34.4,M,,*6A
$PYRTM,2024,121.644714334502,12.754361744641
$GPGGA,152822.00,3239.6606,N,11713.7593,W,1,11,0.8,13.8,M,-34.4,M,,*6C
$PYRTM,2024,121.644721739988,12.754369150127
$GPGGA,152823.00,3239.6580,N,11713.7594,W,1,11,0.8,13.5,M,-34.4,M,,*6A
$PYRTM,2024,121.644737481516,12.754384891655
$GPGGA,152824.00,3239.6554,N,11713.7593,W,1,11,0.8,13.2,M,-34.4,M,,*64
$PYRTM,2024,121.644749071169,12.754396481308
$GPGGA,152825.00,3239.6527,N,11713.7590,W,1,11,0.8,13.1,M,-34.4,M,,*61
$PYRTM,2024,121.644760628785,12.754408038924
$GPGGA,152826.00,3239.6502,N,11713.7587,W,1,11,0.8,12.8,M,-34.4,M,,*6B
$PYRTM,2024,121.644772216042,12.754419626181
$GPGGA,152827.00,3239.6476,N,11713.7584,W,1,11,0.8,13.1,M,-34.4,M,,*63
$PYRTM,2024,121.644779626563,12.754427036701
$GPGGA,152828.00,3239.6452,N,11713.7582,W,1,11,0.8,13.5,M,-34.4,M,,*68
$PYRTM,2024,121.644795367037,12.754442777187
$GPGGA,152829.00,3239.6426,N,11713.7581,W,1,11,0.8,13.9,M,-34.4,M,,*65
$PYRTM,2024,121.644806926319,12.754454336458
$GPGGA,152830.00,3239.6400,N,11713.7580,W,1,11,0.8,13.6,M,-34.4,M,,*67
$PYRTM,2024,121.644814334757,12.754461744896
$GPGGA,152831.00,3239.6374,N,11713.7578,W,1,11,0.8,13.0,M,-34.4,M,,*63
$PYRTM,2024,121.644830074630,12.754477484780
$GPGGA,152832.00,3239.6349,N,11713.7575,W,1,11,0.8,12.8,M,-34.4,M,,*6A
$PYRTM,2024,121.644841661968,12.754489072118
$GPGGA,152833.00,3239.6323,N,11713.7572,W,1,11,0.8,12.8,M,-34.4,M,,*60
$PYRTM,2024,121.644853224456,12.754500634595
$GPGGA,152834.00,3239.6297,N,11713.7570,W,1,11,0.8,13.0,M,-34.4,M,,*62
$PYRTM,2024,121.644864806088,12.754512216238
$GPGGA,152835.00,3239.6271,N,11713.7566,W,1,11,0.8,13.5,M,-34.4,M,,*69
$PYRTM,2024,121.644876371308,12.754523781447
$GPGGA,152836.00,3239.6245,N,11713.7562,W,1,11,0.8,13.8,M,-34.4,M,,*64
$PYRTM,2024,121.644883778843,12.754531188981
$GPGGA,152837.00,3239.6219,N,11713.7559,W,1,11,0.8,13.6,M,-34.4,M,,*6A
$PYRTM,2024,121.644902425046,12.754549835185
$GPGGA,152838.00,3239.6192,N,11713.7560,W,1,11,0.8,13.3,M,-34.4,M,,*6A
$PYRTM,2024,121.644911109861,12.754558520000
$GPGGA,152839.00,3239.6166,N,11713.7558,W,1,11,0.8,13.1,M,-34.4,M,,*69
$PYRTM,2024,121.644922667951,12.754570078090
$GPGGA,152840.00,3239.6141,N,11713.7554,W,1,11,0.8,13.2,M,-34.4,M,,*6D
$PYRTM,2024,121.644934257442,12.754581667581
$GPGGA,152841.00,3239.6115,N,11713.7549,W,1,11,0.8,13.4,M,-34.4,M,,*67
$PYRTM,2024,121.644945816412,12.754593226551
$GPGGA,152842.00,3239.6089,N,11713.7547,W,1,11,0.8,13.2,M,-34.4,M,,*68
$PYRTM,2024,121.644953224236,12.754600634375
$GPGGA,152843.00,3239.6063,N,11713.7548,W,1,11,0.8,13.2,M,-34.4,M,,*62
$PYRTM,2024,121.644968964167,12.754616374306
$GPGGA,152844.00,3239.6037,N,11713.7548,W,1,11,0.8,13.2,M,-34.4,M,,*64
$PYRTM,2024,121.644980551215,12.754627961354
$GPGGA,152845.00,3239.6011,N,11713.7547,W,1,11,0.8,13.2,M,-34.4,M,,*6E
$PYRTM,2024,121.644992111412,12.754639521551
$GPGGA,152846.00,3239.5984,N,11713.7546,W,1,11,0.8,13.0,M,-34.4,M,,*68
$PYRTM,2024,121.645003695162,12.754651105313
$GPGGA,152847.00,3239.5959,N,11713.7544,W,1,11,0.8,13.0,M,-34.4,M,,*6B
$PYRTM,2024,121.645011110208,12.754658520347
$GPGGA,152848.00,3239.5934,N,11713.7538,W,1,11,0.8,13.4,M,-34.4,M,,*60
$PYRTM,2024,121.645026842465,12.754674252604
$GPGGA,152849.00,3239.5909,N,11713.7532,W,1,11,0.8,13.7,M,-34.4,M,,*66
$PYRTM,2024,121.645038411910,12.754685822060
$GPGGA,152850.00,3239.5882,N,11713.7532,W,1,11,0.8,13.7,M,-34.4,M,,*6C
$PYRTM,2024,121.645049997118,12.754697407257
$GPGGA,152851.00,3239.5856,N,11713.7536,W,1,11,0.8,13.2,M,-34.4,M,,*65
$PYRTM,2024,121.645061557002,12.754708967141
$GPGGA,152852.00,3239.5830,N,11713.7535,W,1,11,0.8,12.8,M,-34.4,M,,*6E
$PYRTM,2024,121.645068966134,12.754716376273
$GPGGA,152853.00,3239.5805,N,11713.7528,W,1,11,0.8,12.8,M,-34.4,M,,*65
$PYRTM,2024,121.645084705764,12.754732115903
$GPGGA,152854.00,3239.5779,N,11713.7521,W,1,11,0.8,12.9,M,-34.4,M,,*6E
$PYRTM,2024,121.645096306412,12.754743716551
$GPGGA,152855.00,3239.5754,N,11713.7520,W,1,11,0.8,13.1,M,-34.4,M,,*68
$PYRTM,2024,121.645107854352,12.754755264491
$GPGGA,152856.00,3239.5728,N,11713.7523,W,1,11,0.8,13.2,M,-34.4,M,,*60
$PYRTM,2024,121.645119443600,12.754766853738
$GPGGA,152857.00,3239.5702,N,11713.7524,W,1,11,0.8,13.2,M,-34.4,M,,*6E
$PYRTM,2024,121.645126835359,12.754774245498
$GPGGA,152858.00,3239.5676,N,11713.7519,W,1,11,0.8,13.3,M,-34.4,M,,*6C
$PYRTM,2024,121.645142602627,12.754790012766
$GPGGA,152859.00,3239.5651,N,11713.7513,W,1,11,0.8,13.3,M,-34.4,M,,*62
$PYRTM,2024,121.645154151377,12.754801561516
$GPGGA,152900.00,3239.5625,N,11713.7510,W,1,11,0.8,13.2,M,-34.4,M,,*6E
$PYRTM,2024,121.645165740961,12.754813151100
$GPGGA,152901.00,3239.5599,N,11713.7511,W,1,11,0.8,13.0,M,-34.4,M,,*68
$PYRTM,2024,121.645177298299,12.754824708437
$GPGGA,152902.00,3239.5573,N,11713.7510,W,1,11,0.8,12.9,M,-34.4,M,,*66
$PYRTM,2024,121.645184708218,12.754832118356
$GPGGA,152903.00,3239.5548,N,11713.7507,W,1,11,0.8,13.0,M,-34.4,M,,*61
$PYRTM,2024,121.645200447396,12.754847857535
$GPGGA,152904.00,3239.5522,N,11713.7504,W,1,11,0.8,13.3,M,-34.4,M,,*6A
$PYRTM,2024,121.645212029144,12.754859439282
$GPGGA,152905.00,3239.5496,N,11713.7501,W,1,11,0.8,13.7,M,-34.4,M,,*64
$PYRTM,2024,121.645223731782,12.754871141921
$GPGGA,152906.00,3239.5470,N,11713.7498,W,1,11,0.8,13.7,M,-34.4,M,,*6E
$PYRTM,2024,121.645235296250,12.754882706389
$GPGGA,152907.00,3239.5444,N,11713.7496,W,1,11,0.8,13.5,M,-34.4,M,,*64
$PYRTM,2024,121.645242693287,12.754890103426
$GPGGA,152908.00,3239.5418,N,11713.7496,W,1,11,0.8,13.3,M,-34.4,M,,*64
$PYRTM,2024,121.645261224560,12.754908634699
$GPGGA,152909.00,3239.5392,N,11713.7496,W,1,11,0.8,13.2,M,-34.4,M,,*61
$PYRTM,2024,121.645270020174,12.754917430324
$GPGGA,152910.00,3239.5366,N,11713.7492,W,1,11,0.8,13.2,M,-34.4,M,,*66
$PYRTM,2024,121.645281482431,12.754928892569
$GPGGA,152911.00,3239.5341,N,11713.7486,W,1,11,0.8,13.3,M,-34.4,M,,*66
$PYRTM,2024,121.645293041157,12.754940451296
$GPGGA,152912.00,3239.5315,N,11713.7482,W,1,11,0.8,13.5,M,-34.4,M,,*66
$PYRTM,2024,121.645300446678,12.754947856829
$GPGGA,152913.00,3239.5290,N,11713.7480,W,1,11,0.8,13.7,M,-34.4,M,,*6B
$PYRTM,2024,121.645316189306,12.754963599444
$GPGGA,152914.00,3239.5264,N,11713.7479,W,1,11,0.8,13.6,M,-34.4,M,,*60
$PYRTM,2024,121.645327778368,12.754975188507
$GPGGA,152915.00,3239.5238,N,11713.7477,W,1,11,0.8,13.2,M,-34.4,M,,*62
$PYRTM,2024,121.645339336632,12.754986746771
$GPGGA,152916.00,3239.5212,N,11713.7474,W,1,11,0.8,12.8,M,-34.4,M,,*61
$PYRTM,2024,121.645350924051,12.754998334190
$GPGGA,152917.00,3239.5186,N,11713.7470,W,1,11,0.8,12.8,M,-34.4,M,,*6A
$PYRTM,2024,121.645362486354,12.755009896493
$GPGGA,152918.00,3239.5161,N,11713.7465,W,1,11,0.8,13.1,M,-34.4,M,,*60
$PYRTM,2024,121.645374072222,12.755021482373
$GPGGA,152919.00,3239.5135,N,11713.7459,W,1,11,0.8,13.5,M,-34.4,M,,*6B
$PYRTM,2024,121.645385633079,12.755033043218
$GPGGA,152920.00,3239.5110,N,11713.7455,W,1,11,0.8,13.6,M,-34.4,M,,*69
$PYRTM,2024,121.645397215683,12.755044625822
$GPGGA,152921.00,3239.5084,N,11713.7455,W,1,11,0.8,13.6,M,-34.4,M,,*64
$PYRTM,2024,121.645408782407,12.755056192546
$GPGGA,152922.00,3239.5058,N,11713.7453,W,1,11,0.8,13.5,M,-34.4,M,,*63
$PYRTM,2024,121.645416187488,12.755063597627
$GPGGA,152923.00,3239.5032,N,11713.7449,W,1,11,0.8,13.3,M,-34.4,M,,*63
$PYRTM,2024,121.645431930000,12.755079340150
$GPGGA,152924.00,3239.5007,N,11713.7442,W,1,11,0.8,13.3,M,-34.4,M,,*69
$PYRTM,2024,121.645443512083,12.755090922222
$GPGGA,152925.00,3239.4982,N,11713.7436,W,1,11,0.8,13.5,M,-34.4,M,,*68
$PYRTM,2024,121.645455078044,12.755102488183
$GPGGA,152926.00,3239.4956,N,11713.7434,W,1,11,0.8,13.5,M,-34.4,M,,*60
$PYRTM,2024,121.645466678970,12.755114089109
$GPGGA,152927.00,3239.4929,N,11713.7435,W,1,11,0.8,13.4,M,-34.4,M,,*69
$PYRTM,2024,121.645478226933,12.755125637072
$GPGGA,152928.00,3239.4903,N,11713.7432,W,1,11,0.8,13.4,M,-34.4,M,,*69
$PYRTM,2024,121.645489816586,12.755137226725
$GPGGA,152929.00,3239.4879,N,11713.7426,W,1,11,0.8,13.6,M,-34.4,M,,*63
$PYRTM,2024,121.645501375741,12.755148785891
$GPGGA,152930.00,3239.4854,N,11713.7419,W,1,11,0.8,13.9,M,-34.4,M,,*67
