$PYRTM,2024,123.250015314178,14.359662724317
$GPGGA,060000.00,3411.9132,N,12007.3301,W,1,09,1.0,8.5,M,-33.6,M,,*5D
$PYRTM,2024,123.250022708877,14.359670119016
$GPGGA,060001.00,3411.9137,N,12007.3316,W,1,09,1.0,9.1,M,-33.6,M,,*5A
$PYRTM,2024,123.250038469005,14.359685879144
$GPGGA,060002.00,3411.9138,N,12007.3334,W,1,09,1.0,9.6,M,-33.6,M,,*51
$PYRTM,2024,123.250050024167,14.359697434317
$GPGGA,060003.00,3411.9137,N,12007.3350,W,1,09,1.0,10.0,M,-33.6,M,,*63
$PYRTM,2024,123.250061614120,14.359709024259
$GPGGA,060004.00,3411.9138,N,12007.3367,W,1,09,1.0,10.0,M,-33.6,M,,*6F
$PYRTM,2024,123.250073172870,14.359720583021
$GPGGA,060005.00,3411.9143,N,12007.3386,W,1,09,1.0,9.2,M,-33.6,M,,*57
$PYRTM,2024,123.250080464653,14.359727874792
$GPGGA,060006.00,3411.9149,N,12007.3408,W,1,09,1.0,7.6,M,-33.6,M,,*55
$PYRTM,2024,123.250096320417,14.359743730544
$GPGGA,060007.00,3411.9151,N,12007.3426,W,1,09,1.0,6.8,M,-33.6,M,,*5E
$PYRTM,2024,123.250107902025,14.359755312164
$GPGGA,060008.00,3411.9149,N,12007.3441,W,1,09,1.0,7.4,M,-33.6,M,,*54
$PYRTM,2024,123.250115302743,14.359762712882
$GPGGA,060009.00,3411.9148,N,12007.3457,W,1,09,1.0,8.7,M,-33.6,M,,*5F
$PYRTM,2024,123.250131050914,14.359778461053
$GPGGA,060010.00,3411.9149,N,12007.3475,W,1,09,1.0,9.8,M,-33.6,M,,*58
$PYRTM,2024,123.250142616007,14.359790026146
$GPGGA,060011.00,3411.9153,N,12007.3493,W,1,09,1.0,9.9,M,-33.6,M,,*5B
$PYRTM,2024,123.250150022384,14.359797432523
$GPGGA,060012.00,3411.9157,N,12007.3512,W,1,09,1.0,8.9,M,-33.6,M,,*55
$PYRTM,2024,123.250168659213,14.359816069352
$GPGGA,060013.00,3411.9160,N,12007.3531,W,1,09,1.0,7.1,M,-33.6,M,,*56
$PYRTM,2024,123.250177354306,14.359824764444
$GPGGA,060014.00,3411.9160,N,12007.3548,W,1,09,1.0,6.0,M,-33.6,M,,*5F
$PYRTM,2024,123.250188912801,14.359836322940
$GPGGA,060015.00,3411.9158,N,12007.3562,W,1,09,1.0,6.4,M,-33.6,M,,*59
$PYRTM,2024,123.250200503368,14.359847913507
$GPGGA,060016.00,3411.9158,N,12007.3579,W,1,09,1.0,7.3,M,-33.6,M,,*56
$PYRTM,2024,123.250212061366,14.359859471505
$GPGGA,060017.00,3411.9161,N,12007.3602,W,1,09,1.0,7.5,M,-33.6,M,,*54
$PYRTM,2024,123.250219468519,14.359866878657
$GPGGA,060018.00,3411.9165,N,12007.3621,W,1,09,1.0,7.2,M,-33.6,M,,*59
$PYRTM,2024,123.250235209606,14.359882619745
$GPGGA,060019.00,3411.9166,N,12007.3634,W,1,09,1.0,7.5,M,-33.6,M,,*58
$PYRTM,2024,123.250246796458,14.359894206597
$GPGGA,060020.00,3411.9167,N,12007.3649,W,1,09,1.0,7.8,M,-33.6,M,,*54
$PYRTM,2024,123.250254090752,14.359901500891
$GPGGA,060021.00,3411.9169,N,12007.3668,W,1,09,1.0,7.4,M,-33.6,M,,*54
$PYRTM,2024,123.250269944896,14.359917355035
$GPGGA,060022.00,3411.9170,N,12007.3688,W,1,09,1.0,6.8,M,-33.6,M,,*5C
$PYRTM,2024,123.250281506366,14.359928916505
$GPGGA,060023.00,3411.9171,N,12007.3703,W,1,09,1.0,6.7,M,-33.6,M,,*51
$PYRTM,2024,123.250288810185,14.359936220324
$GPGGA,060024.00,3411.9172,N,12007.3718,W,1,09,1.0,7.5,M,-33.6,M,,*5C
$PYRTM,2024,123.250304653935,14.359952064074
$GPGGA,060025.00,3411.9174,N,12007.3736,W,1,09,1.0,8.3,M,-33.6,M,,*5E
$PYRTM,2024,123.250316242951,14.359963653090
$GPGGA,060026.00,3411.9178,N,12007.3757,W,1,09,1.0,8.3,M,-33.6,M,,*56
$PYRTM,2024,123.250323641921,14.359971052060
$GPGGA,060027.00,3411.9181,N,12007.3775,W,1,09,1.0,8.2,M,-33.6,M,,*50
$PYRTM,2024,123.250339389572,14.359986799711
$GPGGA,060028.00,3411.9181,N,12007.3789,W,1,09,1.0,8.7,M,-33.6,M,,*59
$PYRTM,2024,123.250350951019,14.359998361157
$GPGGA,060029.00,3411.9181,N,12007.3805,W,1,09,1.0,9.0,M,-33.6,M,,*55
$PYRTM,2024,123.250362539850,14.360009949988
$GPGGA,060030.00,3411.9184,N,12007.3826,W,1,09,1.0,8.6,M,-33.6,M,,*5E
$PYRTM,2024,123.250369823900,14.360017234039
$GPGGA,060031.00,3411.9189,N,12007.3846,W,1,09,1.0,7.6,M,-33.6,M,,*5B
$PYRTM,2024,123.250388581910,14.360035992049
$GPGGA,060032.00,3411.9191,N,12007.3862,W,1,09,1.0,7.5,M,-33.6,M,,*54
$PYRTM,2024,123.250400138912,14.360047549051
$GPGGA,060033.00,3411.9192,N,12007.3874,W,1,09,1.0,8.8,M,-33.6,M,,*53
$PYRTM,2024,123.250411728808,14.360059138958
$GPGGA,060034.00,3411.9193,N,12007.3889,W,1,09,1.0,9.9,M,-33.6,M,,*57
$PYRTM,2024,123.250420395266,14.360067805405
$GPGGA,060035.00,3411.9196,N,12007.3911,W,1,09,1.0,10.0,M,-33.6,M,,*62
$PYRTM,2024,123.250431982512,14.360079392662
$GPGGA,060036.00,3411.9198,N,12007.3933,W,1,09,1.0,9.0,M,-33.6,M,,*57
$PYRTM,2024,123.250443542535,14.360090952685
$GPGGA,060037.00,3411.9200,N,12007.3950,W,1,09,1.0,8.3,M,-33.6,M,,*53
$PYRTM,2024,123.250455130752,14.360102540891
$GPGGA,060038.00,3411.9202,N,12007.3962,W,1,09,1.0,8.8,M,-33.6,M,,*54
$PYRTM,2024,123.250466691481,14.360114101620
$GPGGA,060039.00,3411.9206,N,12007.3977,W,1,09,1.0,9.7,M,-33.6,M,,*5B
$PYRTM,2024,123.250478272731,14.360125682870
$GPGGA,060040.00,3411.9209,N,12007.3996,W,1,09,1.0,10.4,M,-33.6,M,,*6E
$PYRTM,2024,123.250485672801,14.360133082951
$GPGGA,060041.00,3411.9210,N,12007.4017,W,1,09,1.0,9.9,M,-33.6,M,,*55
$PYRTM,2024,123.250501427801,14.360148837940
$GPGGA,060042.00,3411.9211,N,12007.4036,W,1,09,1.0,9.0,M,-33.6,M,,*5D
$PYRTM,2024,123.250515880787,14.360163290926
$GPGGA,060043.00,3411.9214,N,12007.4052,W,1,09,1.0,8.4,M,-33.6,M,,*5E
$PYRTM,2024,123.250529898032,14.360177308171
$GPGGA,060044.00,3411.9218,N,12007.4065,W,1,09,1.0,9.3,M,-33.6,M,,*57
$PYRTM,2024,123.250536136019,14.360183546169
$GPGGA,060045.00,3411.9222,N,12007.4081,W,1,09,1.0,10.5,M,-33.6,M,,*6B
$PYRTM,2024,123.250547724468,14.360195134606
$GPGGA,060046.00,3411.9223,N,12007.4102,W,1,09,1.0,10.2,M,-33.6,M,,*64
$PYRTM,2024,123.250555117211,14.360202527350
$GPGGA,060047.00,3411.9224,N,12007.4122,W,1,09,1.0,10.0,M,-33.6,M,,*62
$PYRTM,2024,123.250570872523,14.360218282662
$GPGGA,060048.00,3411.9227,N,12007.4137,W,1,09,1.0,10.1,M,-33.6,M,,*6B
$PYRTM,2024,123.250582431285,14.360229841424
$GPGGA,060049.00,3411.9232,N,12007.4153,W,1,09,1.0,10.3,M,-33.6,M,,*6E
$PYRTM,2024,123.250589837407,14.360237247546
$GPGGA,060050.00,3411.9237,N,12007.4171,W,1,09,1.0,10.5,M,-33.6,M,,*65
$PYRTM,2024,123.250605580012,14.360252990150
$GPGGA,060051.00,3411.9239,N,12007.4190,W,1,09,1.0,10.7,M,-33.6,M,,*67
$PYRTM,2024,123.250617166377,14.360264576516
$GPGGA,060052.00,3411.9240,N,12007.4209,W,1,09,1.0,10.7,M,-33.6,M,,*69
$PYRTM,2024,123.250624574595,14.360271984734
$GPGGA,060053.00,3411.9244,N,12007.4227,W,1,09,1.0,10.6,M,-33.6,M,,*61
$PYRTM,2024,123.250640314236,14.360287724375
$GPGGA,060054.00,3411.9248,N,12007.4245,W,1,09,1.0,10.8,M,-33.6,M,,*60
$PYRTM,2024,123.250651877674,14.360299287813
$GPGGA,060055.00,3411.9252,N,12007.4259,W,1,09,1.0,11.5,M,-33.6,M,,*6B
$PYRTM,2024,123.250663463206,14.360310873345
$GPGGA,060056.00,3411.9254,N,12007.4272,W,1,09,1.0,12.5,M,-33.6,M,,*64
$PYRTM,2024,123.250675024225,14.360322434363
$GPGGA,060057.00,3411.9255,N,12007.4292,W,1,09,1.0,12.8,M,-33.6,M,,*67
$PYRTM,2024,123.250682431227,14.360329841366
$GPGGA,060058.00,3411.9259,N,12007.4316,W,1,09,1.0,11.2,M,-33.6,M,,*60
$PYRTM,2024,123.250698173900,14.360345584039
$GPGGA,060059.00,3411.9263,N,12007.4335,W,1,09,1.0,9.7,M,-33.6,M,,*55
$PYRTM,2024,123.250709762778,14.360357172917
$GPGGA,060100.00,3411.9267,N,12007.4349,W,1,09,1.0,10.1,M,-33.6,M,,*69
$PYRTM,2024,123.250721320347,14.360368730486
$GPGGA,060101.00,3411.9270,N,12007.4363,W,1,09,1.0,10.9,M,-33.6,M,,*6E
$PYRTM,2024,123.250732907963,14.360380318113
$GPGGA,060102.00,3411.9273,N,12007.4384,W,1,09,1.0,10.9,M,-33.6,M,,*67
$PYRTM,2024,123.250744469745,14.360391879884
$GPGGA,060103.00,3411.9275,N,12007.4407,W,1,09,1.0,10.1,M,-33.6,M,,*64
$PYRTM,2024,123.250751875185,14.360399285324
$GPGGA,060104.00,3411.9278,N,12007.4423,W,1,09,1.0,9.6,M,-33.6,M,,*57
$PYRTM,2024,123.250767617512,14.360415027650
$GPGGA,060105.00,3411.9283,N,12007.4437,W,1,09,1.0,9.8,M,-33.6,M,,*59
$PYRTM,2024,123.250779204317,14.360426614456
$GPGGA,060106.00,3411.9286,N,12007.4451,W,1,09,1.0,10.2,M,-33.6,M,,*6D
$PYRTM,2024,123.250786599074,14.360434009213
$GPGGA,060107.00,3411.9288,N,12007.4469,W,1,09,1.0,10.1,M,-33.6,M,,*6A
$PYRTM,2024,123.250802353044,14.360449763183
$GPGGA,060108.00,3411.9290,N,12007.4490,W,1,09,1.0,9.4,M,-33.6,M,,*57
$PYRTM,2024,123.250813911806,14.360461321956
$GPGGA,060109.00,3411.9293,N,12007.4508,W,1,09,1.0,8.9,M,-33.6,M,,*59
$PYRTM,2024,123.250825503380,14.360472913519
$GPGGA,060110.00,3411.9297,N,12007.4522,W,1,09,1.0,9.4,M,-33.6,M,,*51
$PYRTM,2024,123.250837062384,14.360484472523
$GPGGA,060111.00,3411.9303,N,12007.4536,W,1,09,1.0,10.3,M,-33.6,M,,*66
$PYRTM,2024,123.250848644317,14.360496054456
$GPGGA,060112.00,3411.9306,N,12007.4556,W,1,09,1.0,10.5,M,-33.6,M,,*60
$PYRTM,2024,123.250856044468,14.360503454606
$GPGGA,060113.00,3411.9307,N,12007.4578,W,1,09,1.0,10.3,M,-33.6,M,,*6A
$PYRTM,2024,123.250867731933,14.360515142072
$GPGGA,060114.00,3411.9309,N,12007.4595,W,1,09,1.0,9.9,M,-33.6,M,,*52
$PYRTM,2024,123.250886251262,14.360533661400
$GPGGA,060115.00,3411.9311,N,12007.4607,W,1,09,1.0,10.3,M,-33.6,M,,*60
$PYRTM,2024,123.250894947095,14.360542357234
$GPGGA,060116.00,3411.9316,N,12007.4624,W,1,09,1.0,10.4,M,-33.6,M,,*62
$PYRTM,2024,123.250906506597,14.360553916736
$GPGGA,060117.00,3411.9320,N,12007.4646,W,1,09,1.0,9.6,M,-33.6,M,,*58
$PYRTM,2024,123.250913912512,14.360561322650
$GPGGA,060118.00,3411.9321,N,12007.4664,W,1,09,1.0,9.1,M,-33.6,M,,*51
$PYRTM,2024,123.250929655231,14.360577065370
$GPGGA,060119.00,3411.9323,N,12007.4677,W,1,09,1.0,10.1,M,-33.6,M,,*68
$PYRTM,2024,123.250941240683,14.360588650822
$GPGGA,060120.00,3411.9328,N,12007.4691,W,1,09,1.0,11.0,M,-33.6,M,,*61
$PYRTM,2024,123.250948650579,14.360596060718
$GPGGA,060121.00,3411.9332,N,12007.4711,W,1,09,1.0,10.8,M,-33.6,M,,*6B
$PYRTM,2024,123.250964389745,14.360611799884
$GPGGA,060122.00,3411.9333,N,12007.4730,W,1,09,1.0,10.5,M,-33.6,M,,*67
$PYRTM,2024,123.250975950440,14.360623360579
$GPGGA,060123.00,3411.9334,N,12007.4747,W,1,09,1.0,10.7,M,-33.6,M,,*63
$PYRTM,2024,123.250987537951,14.360634948090
$GPGGA,060124.00,3411.9338,N,12007.4761,W,1,09,1.0,11.3,M,-33.6,M,,*69
$PYRTM,2024,123.250999098727,14.360646508866
$GPGGA,060125.00,3411.9344,N,12007.4776,W,1,09,1.0,11.8,M,-33.6,M,,*6E
$PYRTM,2024,123.251010689583,14.360658099722
$GPGGA,060126.00,3411.9348,N,12007.4796,W,1,09,1.0,11.4,M,-33.6,M,,*63
$PYRTM,2024,123.251022245081,14.360669655220
$GPGGA,060127.00,3411.9348,N,12007.4818,W,1,09,1.0,10.6,M,-33.6,M,,*68
$PYRTM,2024,123.251033847859,14.360681258009
$GPGGA,060128.00,3411.9347,N,12007.4837,W,1,09,1.0,9.9,M,-33.6,M,,*52
$PYRTM,2024,123.251045394826,14.360692804965
$GPGGA,060129.00,3411.9351,N,12007.4854,W,1,09,1.0,10.1,M,-33.6,M,,*61
$PYRTM,2024,123.251052802616,14.360700212755
$GPGGA,060130.00,3411.9358,N,12007.4869,W,1,09,1.0,10.7,M,-33.6,M,,*68
$PYRTM,2024,123.251068542778,14.360715952917
$GPGGA,060131.00,3411.9363,N,12007.4887,W,1,09,1.0,11.1,M,-33.6,M,,*66
$PYRTM,2024,123.251080132118,14.360727542257
$GPGGA,060132.00,3411.9364,N,12007.4909,W,1,09,1.0,10.5,M,-33.6,M,,*60
$PYRTM,2024,123.251091691123,14.360739101262
$GPGGA,060133.00,3411.9363,N,12007.4931,W,1,09,1.0,9.8,M,-33.6,M,,*58
$PYRTM,2024,123.251103272546,14.360750682697
$GPGGA,060134.00,3411.9365,N,12007.4949,W,1,09,1.0,9.2,M,-33.6,M,,*5C
$PYRTM,2024,123.251114840405,14.360762250544
$GPGGA,060135.00,3411.9370,N,12007.4962,W,1,09,1.0,9.9,M,-33.6,M,,*5B
$PYRTM,2024,123.251122247616,14.360769657755
$GPGGA,060136.00,3411.9375,N,12007.4977,W,1,09,1.0,10.7,M,-33.6,M,,*6F
$PYRTM,2024,123.251137987361,14.360785397500
$GPGGA,060137.00,3411.9379,N,12007.4999,W,1,09,1.0,10.0,M,-33.6,M,,*65
$PYRTM,2024,123.251149574144,14.360796984294
$GPGGA,060138.00,3411.9381,N,12007.5022,W,1,09,1.0,9.2,M,-33.6,M,,*5F
$PYRTM,2024,123.251156970081,14.360804380231
$GPGGA,060139.00,3411.9381,N,12007.5038,W,1,09,1.0,9.2,M,-33.6,M,,*55
$PYRTM,2024,123.251172722743,14.360820132882
$GPGGA,060140.00,3411.9382,N,12007.5050,W,1,09,1.0,10.3,M,-33.6,M,,*6F
$PYRTM,2024,123.251184282755,14.360831692894
$GPGGA,060141.00,3411.9383,N,12007.5067,W,1,09,1.0,11.1,M,-33.6,M,,*68
$PYRTM,2024,123.251195873958,14.360843284097
$GPGGA,060142.00,3411.9386,N,12007.5088,W,1,09,1.0,11.0,M,-33.6,M,,*6E
$PYRTM,2024,123.251207431366,14.360854841516
$GPGGA,060143.00,3411.9389,N,12007.5110,W,1,09,1.0,10.2,M,-33.6,M,,*63
$PYRTM,2024,123.251219022593,14.360866432731
$GPGGA,060144.00,3411.9392,N,12007.5128,W,1,09,1.0,9.5,M,-33.6,M,,*5A
$PYRTM,2024,123.251226412558,14.360873822697
$GPGGA,060145.00,3411.9393,N,12007.5142,W,1,09,1.0,9.7,M,-33.6,M,,*54
$PYRTM,2024,123.251245063322,14.360892473461
$GPGGA,060146.00,3411.9394,N,12007.5156,W,1,09,1.0,10.6,M,-33.6,M,,*6C
$PYRTM,2024,123.251253728993,14.360901139132
$GPGGA,060147.00,3411.9395,N,12007.5175,W,1,09,1.0,11.1,M,-33.6,M,,*6B
$PYRTM,2024,123.251265315579,14.360912725718
$GPGGA,060148.00,3411.9397,N,12007.5197,W,1,09,1.0,10.5,M,-33.6,M,,*6F
$PYRTM,2024,123.251276876204,14.360924286343
$GPGGA,060149.00,3411.9399,N,12007.5218,W,1,09,1.0,9.3,M,-33.6,M,,*5A
$PYRTM,2024,123.251288464074,14.360935874225
$GPGGA,060150.00,3411.9402,N,12007.5234,W,1,09,1.0,8.8,M,-33.6,M,,*53
$PYRTM,2024,123.251295859468,14.360943269618
$GPGGA,060151.00,3411.9405,N,12007.5246,W,1,09,1.0,9.5,M,-33.6,M,,*5C
$PYRTM,2024,123.251311611424,14.360959021563
$GPGGA,060152.00,3411.9410,N,12007.5263,W,1,09,1.0,10.2,M,-33.6,M,,*63
$PYRTM,2024,123.251323172442,14.360970582581
$GPGGA,060153.00,3411.9411,N,12007.5285,W,1,09,1.0,10.0,M,-33.6,M,,*69
$PYRTM,2024,123.251330579676,14.360977989815
$GPGGA,060154.00,3411.9412,N,12007.5306,W,1,09,1.0,9.5,M,-33.6,M,,*5A
$PYRTM,2024,123.251346323299,14.360993733437
$GPGGA,060155.00,3411.9414,N,12007.5321,W,1,09,1.0,9.7,M,-33.6,M,,*5A
$PYRTM,2024,123.251357910347,14.361005320486
$GPGGA,060156.00,3411.9419,N,12007.5336,W,1,09,1.0,10.0,M,-33.6,M,,*6D
$PYRTM,2024,123.251365305139,14.361012715278
$GPGGA,060157.00,3411.9425,N,12007.5355,W,1,09,1.0,9.5,M,-33.6,M,,*5B
$PYRTM,2024,123.251381058461,14.361028468611
$GPGGA,060158.00,3411.9427,N,12007.5375,W,1,09,1.0,8.9,M,-33.6,M,,*59
$PYRTM,2024,123.251392618206,14.361040028345
$GPGGA,060159.00,3411.9426,N,12007.5391,W,1,09,1.0,9.2,M,-33.6,M,,*59
$PYRTM,2024,123.251404203900,14.361051614039
$GPGGA,060200.00,3411.9426,N,12007.5406,W,1,09,1.0,9.8,M,-33.6,M,,*55
$PYRTM,2024,123.251415764653,14.361063174792
$GPGGA,060201.00,3411.9430,N,12007.5424,W,1,09,1.0,10.0,M,-33.6,M,,*63
$PYRTM,2024,123.251427347488,14.361074757627
$GPGGA,060202.00,3411.9435,N,12007.5445,W,1,09,1.0,9.5,M,-33.6,M,,*5F
$PYRTM,2024,123.251434760394,14.361082170544
$GPGGA,060203.00,3411.9438,N,12007.5465,W,1,09,1.0,8.6,M,-33.6,M,,*53
$PYRTM,2024,123.251450500150,14.361097910301
$GPGGA,060204.00,3411.9438,N,12007.5482,W,1,09,1.0,8.6,M,-33.6,M,,*5D
$PYRTM,2024,123.251462060856,14.361109471007
$GPGGA,060205.00,3411.9438,N,12007.5494,W,1,09,1.0,9.6,M,-33.6,M,,*5A
$PYRTM,2024,123.251473648194,14.361121058333
$GPGGA,060206.00,3411.9441,N,12007.5509,W,1,09,1.0,10.5,M,-33.6,M,,*69
$PYRTM,2024,123.251485210486,14.361132620625
$GPGGA,060207.00,3411.9445,N,12007.5532,W,1,09,1.0,10.3,M,-33.6,M,,*62
$PYRTM,2024,123.251492619097,14.361140029248
$GPGGA,060208.00,3411.9448,N,12007.5554,W,1,09,1.0,9.3,M,-33.6,M,,*58
$PYRTM,2024,123.251508356088,14.361155766227
$GPGGA,060209.00,3411.9448,N,12007.5568,W,1,09,1.0,8.8,M,-33.6,M,,*5C
$PYRTM,2024,123.251519944595,14.361167354734
$GPGGA,060210.00,3411.9447,N,12007.5580,W,1,09,1.0,9.4,M,-33.6,M,,*50
$PYRTM,2024,123.251531505914,14.361178916053
$GPGGA,060211.00,3411.9449,N,12007.5597,W,1,09,1.0,10.2,M,-33.6,M,,*67
$PYRTM,2024,123.251543106632,14.361190516771
$GPGGA,060212.00,3411.9452,N,12007.5619,W,1,09,1.0,10.2,M,-33.6,M,,*6B
$PYRTM,2024,123.251554653912,14.361202064051
$GPGGA,060213.00,3411.9456,N,12007.5639,W,1,09,1.0,9.6,M,-33.6,M,,*50
$PYRTM,2024,123.251562062153,14.361209472303
$GPGGA,060214.00,3411.9457,N,12007.5653,W,1,09,1.0,9.9,M,-33.6,M,,*55
$PYRTM,2024,123.251577800301,14.361225210440
$GPGGA,060215.00,3411.9456,N,12007.5664,W,1,09,1.0,10.8,M,-33.6,M,,*68
$PYRTM,2024,123.251585209595,14.361232619734
$GPGGA,060216.00,3411.9457,N,12007.5681,W,1,09,1.0,11.3,M,-33.6,M,,*6B
$PYRTM,2024,123.251603843171,14.361251253310
$GPGGA,060217.00,3411.9461,N,12007.5703,W,1,09,1.0,10.5,M,-33.6,M,,*63
$PYRTM,2024,123.251612538229,14.361259948368
$GPGGA,060218.00,3411.9464,N,12007.5723,W,1,09,1.0,9.4,M,-33.6,M,,*52
$PYRTM,2024,123.251619934097,14.361267344236
$GPGGA,060219.00,3411.9465,N,12007.5735,W,1,09,1.0,9.5,M,-33.6,M,,*54
$PYRTM,2024,123.251631621204,14.361279031343
$GPGGA,060220.00,3411.9465,N,12007.5747,W,1,09,1.0,10.4,M,-33.6,M,,*62
$PYRTM,2024,123.251647245752,14.361294655891
$GPGGA,060221.00,3411.9466,N,12007.5767,W,1,09,1.0,10.8,M,-33.6,M,,*6E
$PYRTM,2024,123.251658828241,14.361306238380
$GPGGA,060222.00,3411.9468,N,12007.5788,W,1,09,1.0,10.4,M,-33.6,M,,*6E
$PYRTM,2024,123.251670395567,14.361317805706
$GPGGA,060223.00,3411.9470,N,12007.5804,W,1,09,1.0,10.2,M,-33.6,M,,*6B
$PYRTM,2024,123.251681982662,14.361329392801
$GPGGA,060224.00,3411.9473,N,12007.5816,W,1,09,1.0,10.5,M,-33.6,M,,*6B
$PYRTM,2024,123.251693543102,14.361340953241
$GPGGA,060225.00,3411.9475,N,12007.5832,W,1,09,1.0,10.5,M,-33.6,M,,*6A
$PYRTM,2024,123.251705132500,14.361352542639
$GPGGA,060226.00,3411.9477,N,12007.5851,W,1,09,1.0,10.0,M,-33.6,M,,*6B
$PYRTM,2024,123.251716690891,14.361364101030
$GPGGA,060227.00,3411.9477,N,12007.5866,W,1,09,1.0,9.9,M,-33.6,M,,*5F
$PYRTM,2024,123.251728280706,14.361375690845
$GPGGA,060228.00,3411.9477,N,12007.5879,W,1,09,1.0,10.3,M,-33.6,M,,*6C
$PYRTM,2024,123.251739838009,14.361387248148
$GPGGA,060229.00,3411.9480,N,12007.5898,W,1,09,1.0,10.0,M,-33.6,M,,*69
$PYRTM,2024,123.251751425671,14.361398835810
$GPGGA,060230.00,3411.9484,N,12007.5918,W,1,09,1.0,9.5,M,-33.6,M,,*51
$PYRTM,2024,123.251758722257,14.361406132396
$GPGGA,060231.00,3411.9486,N,12007.5930,W,1,09,1.0,9.9,M,-33.6,M,,*54
$PYRTM,2024,123.251774574410,14.361421984549
$GPGGA,060232.00,3411.9486,N,12007.5940,W,1,09,1.0,10.9,M,-33.6,M,,*68
$PYRTM,2024,123.251781981759,14.361429391898
$GPGGA,060233.00,3411.9486,N,12007.5955,W,1,09,1.0,11.5,M,-33.6,M,,*60
$PYRTM,2024,123.251797717338,14.361445127477
$GPGGA,060234.00,3411.9489,N,12007.5976,W,1,09,1.0,10.5,M,-33.6,M,,*68
$PYRTM,2024,123.251809283484,14.361456693623
$GPGGA,060235.00,3411.9493,N,12007.5997,W,1,09,1.0,8.9,M,-33.6,M,,*58
$PYRTM,2024,123.251820870775,14.361468280914
$GPGGA,060236.00,3411.9496,N,12007.6008,W,1,09,1.0,8.5,M,-33.6,M,,*5E
$PYRTM,2024,123.251828149595,14.361475559734
$GPGGA,060237.00,3411.9496,N,12007.6015,W,1,09,1.0,9.5,M,-33.6,M,,*52
$PYRTM,2024,123.251844020718,14.361491430856
$GPGGA,060238.00,3411.9497,N,12007.6030,W,1,09,1.0,10.5,M,-33.6,M,,*63
$PYRTM,2024,123.251855581204,14.361502991343
$GPGGA,060239.00,3411.9498,N,12007.6051,W,1,09,1.0,10.3,M,-33.6,M,,*6C
$PYRTM,2024,123.251862987431,14.361510397569
$GPGGA,060240.00,3411.9499,N,12007.6067,W,1,09,1.0,9.8,M,-33.6,M,,*55
$PYRTM,2024,123.251881621690,14.361529031829
$GPGGA,060241.00,3411.9501,N,12007.6076,W,1,09,1.0,9.9,M,-33.6,M,,*55
$PYRTM,2024,123.251890319086,14.361537729225
$GPGGA,060242.00,3411.9505,N,12007.6086,W,1,09,1.0,10.1,M,-33.6,M,,*6D
$PYRTM,2024,123.251901878310,14.361549288449
$GPGGA,060243.00,3411.9508,N,12007.6103,W,1,09,1.0,9.6,M,-33.6,M,,*52
$PYRTM,2024,123.251913458877,14.361560869016
$GPGGA,060244.00,3411.9509,N,12007.6122,W,1,09,1.0,9.0,M,-33.6,M,,*51
$PYRTM,2024,123.251925023889,14.361572434028
$GPGGA,060245.00,3411.9509,N,12007.6134,W,1,09,1.0,9.2,M,-33.6,M,,*55
$PYRTM,2024,123.251936606400,14.361584016551
$GPGGA,060246.00,3411.9509,N,12007.6145,W,1,09,1.0,10.0,M,-33.6,M,,*6A
$PYRTM,2024,123.251944018067,14.361591428206
$GPGGA,060247.00,3411.9513,N,12007.6159,W,1,09,1.0,10.6,M,-33.6,M,,*6B
$PYRTM,2024,123.251962648264,14.361610058403
$GPGGA,060248.00,3411.9516,N,12007.6177,W,1,09,1.0,10.3,M,-33.6,M,,*68
$PYRTM,2024,123.251971319711,14.361618729850
$GPGGA,060249.00,3411.9519,N,12007.6192,W,1,09,1.0,9.7,M,-33.6,M,,*51
$PYRTM,2024,123.251982907662,14.361630317801
$GPGGA,060250.00,3411.9520,N,12007.6203,W,1,09,1.0,9.8,M,-33.6,M,,*57
$PYRTM,2024,123.251990198553,14.361637608692
$GPGGA,060251.00,3411.9521,N,12007.6218,W,1,09,1.0,9.8,M,-33.6,M,,*5D
$PYRTM,2024,123.252006059363,14.361653469502
$GPGGA,060252.00,3411.9524,N,12007.6235,W,1,09,1.0,9.6,M,-33.6,M,,*5A
$PYRTM,2024,123.252017618229,14.361665028368
$GPGGA,060253.00,3411.9525,N,12007.6252,W,1,09,1.0,9.7,M,-33.6,M,,*5A
$PYRTM,2024,123.252025023877,14.361672434016
$GPGGA,060254.00,3411.9526,N,12007.6265,W,1,09,1.0,10.3,M,-33.6,M,,*66
$PYRTM,2024,123.252040766806,14.361688176944
$GPGGA,060255.00,3411.9527,N,12007.6280,W,1,09,1.0,10.8,M,-33.6,M,,*66
$PYRTM,2024,123.252052354792,14.361699764931
$GPGGA,060256.00,3411.9531,N,12007.6298,W,1,09,1.0,10.6,M,-33.6,M,,*65
$PYRTM,2024,123.252059748565,14.361707158704
$GPGGA,060257.00,3411.9535,N,12007.6316,W,1,09,1.0,10.1,M,-33.6,M,,*60
$PYRTM,2024,123.252075501887,14.361722912025
$GPGGA,060258.00,3411.9537,N,12007.6331,W,1,09,1.0,10.0,M,-33.6,M,,*69
$PYRTM,2024,123.252087062037,14.361734472176
$GPGGA,060259.00,3411.9536,N,12007.6344,W,1,09,1.0,10.4,M,-33.6,M,,*6F
$PYRTM,2024,123.252098647303,14.361746057442
$GPGGA,060300.00,3411.9537,N,12007.6360,W,1,09,1.0,10.7,M,-33.6,M,,*66
$PYRTM,2024,123.252110223831,14.361757633981
$GPGGA,060301.00,3411.9540,N,12007.6381,W,1,09,1.0,10.0,M,-33.6,M,,*6F
$PYRTM,2024,123.252121796481,14.361769206620
$GPGGA,060302.00,3411.9544,N,12007.6399,W,1,09,1.0,9.2,M,-33.6,M,,*5B
$PYRTM,2024,123.252129088137,14.361776498275
$GPGGA,060303.00,3411.9547,N,12007.6413,W,1,09,1.0,9.4,M,-33.6,M,,*5A
$PYRTM,2024,123.252144943160,14.361792353299
$GPGGA,060304.00,3411.9547,N,12007.6428,W,1,09,1.0,10.0,M,-33.6,M,,*69
$PYRTM,2024,123.252152339525,14.361799749664
$GPGGA,060305.00,3411.9547,N,12007.6447,W,1,09,1.0,10.2,M,-33.6,M,,*63
$PYRTM,2024,123.252168092326,14.361815502465
$GPGGA,060306.00,3411.9549,N,12007.6465,W,1,09,1.0,10.2,M,-33.6,M,,*6E
$PYRTM,2024,123.252179660764,14.361827070903
$GPGGA,060307.00,3411.9553,N,12007.6480,W,1,09,1.0,10.2,M,-33.6,M,,*6F
$PYRTM,2024,123.252191254525,14.361838664664
$GPGGA,060308.00,3411.9556,N,12007.6497,W,1,09,1.0,9.8,M,-33.6,M,,*51
$PYRTM,2024,123.252202817627,14.361850227766
$GPGGA,060309.00,3411.9558,N,12007.6516,W,1,09,1.0,9.3,M,-33.6,M,,*5D
$PYRTM,2024,123.252214392685,14.361861802824
$GPGGA,060310.00,3411.9558,N,12007.6532,W,1,09,1.0,9.2,M,-33.6,M,,*52
$PYRTM,2024,123.252225962581,14.361873372720
$GPGGA,060311.00,3411.9559,N,12007.6548,W,1,09,1.0,9.4,M,-33.6,M,,*59
$PYRTM,2024,123.252233253322,14.361880663461
$GPGGA,060312.00,3411.9564,N,12007.6567,W,1,09,1.0,9.3,M,-33.6,M,,*5E
$PYRTM,2024,123.252245510150,14.361892920289
$GPGGA,060313.00,3411.9567,N,12007.6587,W,1,09,1.0,9.0,M,-33.6,M,,*51
$PYRTM,2024,123.252260684641,14.361908094780
$GPGGA,060314.00,3411.9566,N,12007.6601,W,1,09,1.0,9.5,M,-33.6,M,,*5F
$PYRTM,2024,123.252272258854,14.361919668993
$GPGGA,060315.00,3411.9565,N,12007.6614,W,1,09,1.0,10.4,M,-33.6,M,,*60
$PYRTM,2024,123.252279654086,14.361927064225
$GPGGA,060316.00,3411.9568,N,12007.6633,W,1,09,1.0,10.5,M,-33.6,M,,*6A
$PYRTM,2024,123.252295406701,14.361942816840
$GPGGA,060317.00,3411.9572,N,12007.6654,W,1,09,1.0,9.4,M,-33.6,M,,*58
$PYRTM,2024,123.252302686400,14.361950096551
$GPGGA,060318.00,3411.9575,N,12007.6673,W,1,09,1.0,8.4,M,-33.6,M,,*54
$PYRTM,2024,123.252321436620,14.361968846759
$GPGGA,060319.00,3411.9574,N,12007.6686,W,1,09,1.0,8.5,M,-33.6,M,,*5F
$PYRTM,2024,123.252330129294,14.361977539444
$GPGGA,060320.00,3411.9575,N,12007.6701,W,1,09,1.0,9.2,M,-33.6,M,,*5C
$PYRTM,2024,123.252337434514,14.361984844653
$GPGGA,060321.00,3411.9579,N,12007.6720,W,1,09,1.0,9.6,M,-33.6,M,,*56
$PYRTM,2024,123.252353278322,14.362000688472
$GPGGA,060322.00,3411.9583,N,12007.6741,W,1,09,1.0,9.5,M,-33.6,M,,*54
$PYRTM,2024,123.252364851435,14.362012261574
$GPGGA,060323.00,3411.9584,N,12007.6760,W,1,09,1.0,8.8,M,-33.6,M,,*5D
$PYRTM,2024,123.252376428310,14.362023838449
$GPGGA,060324.00,3411.9582,N,12007.6774,W,1,09,1.0,9.0,M,-33.6,M,,*50
$PYRTM,2024,123.252387999363,14.362035409502
$GPGGA,060325.00,3411.9583,N,12007.6787,W,1,09,1.0,9.6,M,-33.6,M,,*5A
$PYRTM,2024,123.252399587998,14.362046998137
$GPGGA,060326.00,3411.9589,N,12007.6805,W,1,09,1.0,9.9,M,-33.6,M,,*59
$PYRTM,2024,123.252406877049,14.362054287188
$GPGGA,060327.00,3411.9594,N,12007.6825,W,1,09,1.0,9.5,M,-33.6,M,,*5A
$PYRTM,2024,123.252422721933,14.362070132072
$GPGGA,060328.00,3411.9594,N,12007.6844,W,1,09,1.0,9.0,M,-33.6,M,,*57
$PYRTM,2024,123.252434290660,14.362081700799
$GPGGA,060329.00,3411.9592,N,12007.6858,W,1,09,1.0,9.4,M,-33.6,M,,*59
$PYRTM,2024,123.252445870243,14.362093280382
$GPGGA,060330.00,3411.9593,N,12007.6874,W,1,09,1.0,10.1,M,-33.6,M,,*63
$PYRTM,2024,123.252457444213,14.362104854352
$GPGGA,060331.00,3411.9598,N,12007.6893,W,1,09,1.0,10.0,M,-33.6,M,,*61
$PYRTM,2024,123.252469014456,14.362116424606
$GPGGA,060332.00,3411.9604,N,12007.6914,W,1,09,1.0,9.7,M,-33.6,M,,*55
$PYRTM,2024,123.252480592211,14.362128002350
$GPGGA,060333.00,3411.9605,N,12007.6929,W,1,09,1.0,10.0,M,-33.6,M,,*64
$PYRTM,2024,123.252492166678,14.362139576817
$GPGGA,060334.00,3411.9605,N,12007.6943,W,1,09,1.0,10.5,M,-33.6,M,,*6A
$PYRTM,2024,123.252503740359,14.362151150498
$GPGGA,060335.00,3411.9606,N,12007.6963,W,1,09,1.0,10.1,M,-33.6,M,,*6E
$PYRTM,2024,123.252515309722,14.362162719861
$GPGGA,060336.00,3411.9609,N,12007.6985,W,1,09,1.0,9.2,M,-33.6,M,,*51
$PYRTM,2024,123.252526887581,14.362174297720
$GPGGA,060337.00,3411.9613,N,12007.7004,W,1,09,1.0,8.8,M,-33.6,M,,*51
$PYRTM,2024,123.252538465683,14.362185875822
$GPGGA,060338.00,3411.9617,N,12007.7019,W,1,09,1.0,9.4,M,-33.6,M,,*5B
$PYRTM,2024,123.252550036794,14.362197446933
$GPGGA,060339.00,3411.9619,N,12007.7034,W,1,09,1.0,10.4,M,-33.6,M,,*63
$PYRTM,2024,123.252561616551,14.362209026690
$GPGGA,060340.00,3411.9621,N,12007.7054,W,1,09,1.0,11.0,M,-33.6,M,,*65
$PYRTM,2024,123.252573184907,14.362220595058
$GPGGA,060341.00,3411.9622,N,12007.7074,W,1,09,1.0,10.8,M,-33.6,M,,*6C
$PYRTM,2024,123.252584759028,14.362232169167
$GPGGA,060342.00,3411.9623,N,12007.7093,W,1,09,1.0,10.3,M,-33.6,M,,*6C
$PYRTM,2024,123.252596327755,14.362243737894
$GPGGA,060343.00,3411.9626,N,12007.7110,W,1,09,1.0,10.1,M,-33.6,M,,*60
$PYRTM,2024,123.252603729352,14.362251139502
$GPGGA,060344.00,3411.9630,N,12007.7126,W,1,09,1.0,10.1,M,-33.6,M,,*65
$PYRTM,2024,123.252619480590,14.362266890729
$GPGGA,060345.00,3411.9633,N,12007.7145,W,1,09,1.0,10.1,M,-33.6,M,,*62
$PYRTM,2024,123.252631054352,14.362278464491
$GPGGA,060346.00,3411.9635,N,12007.7164,W,1,09,1.0,10.3,M,-33.6,M,,*66
$PYRTM,2024,123.252642629155,14.362290039294
$GPGGA,060347.00,3411.9637,N,12007.7182,W,1,09,1.0,10.7,M,-33.6,M,,*69
$PYRTM,2024,123.252650024086,14.362297434225
$GPGGA,060348.00,3411.9640,N,12007.7200,W,1,09,1.0,10.9,M,-33.6,M,,*61
$PYRTM,2024,123.252661714005,14.362309124144
$GPGGA,060349.00,3411.9643,N,12007.7222,W,1,09,1.0,10.6,M,-33.6,M,,*6C
$PYRTM,2024,123.252680244433,14.362327654572
$GPGGA,060350.00,3411.9645,N,12007.7240,W,1,09,1.0,10.3,M,-33.6,M,,*63
$PYRTM,2024,123.252688924757,14.362336334896
$GPGGA,060351.00,3411.9647,N,12007.7254,W,1,09,1.0,10.8,M,-33.6,M,,*6E
$PYRTM,2024,123.252700499560,14.362347909699
$GPGGA,060352.00,3411.9651,N,12007.7271,W,1,09,1.0,11.1,M,-33.6,M,,*65
$PYRTM,2024,123.252712073333,14.362359483472
$GPGGA,060353.00,3411.9655,N,12007.7293,W,1,09,1.0,10.4,M,-33.6,M,,*68
$PYRTM,2024,123.252719467396,14.362366877535
$GPGGA,060354.00,3411.9656,N,12007.7313,W,1,09,1.0,9.4,M,-33.6,M,,*5D
$PYRTM,2024,123.252735220845,14.362382630984
$GPGGA,060355.00,3411.9656,N,12007.7328,W,1,09,1.0,9.8,M,-33.6,M,,*58
$PYRTM,2024,123.252746799583,14.362394209722
$GPGGA,060356.00,3411.9660,N,12007.7345,W,1,09,1.0,9.4,M,-33.6,M,,*59
$PYRTM,2024,123.252754094583,14.362401504711
$GPGGA,060357.00,3411.9667,N,12007.7367,W,1,09,1.0,9.1,M,-33.6,M,,*5A
$PYRTM,2024,123.252769943715,14.362417353854
$GPGGA,060358.00,3411.9671,N,12007.7385,W,1,09,1.0,8.9,M,-33.6,M,,*57
$PYRTM,2024,123.252781514572,14.362428924722
$GPGGA,060359.00,3411.9670,N,12007.7399,W,1,09,1.0,9.5,M,-33.6,M,,*57
$PYRTM,2024,123.252793091979,14.362440502118
$GPGGA,060400.00,3411.9671,N,12007.7414,W,1,09,1.0,10.1,M,-33.6,M,,*63
$PYRTM,2024,123.252804666620,14.362452076759
$GPGGA,060401.00,3411.9675,N,12007.7435,W,1,09,1.0,9.6,M,-33.6,M,,*5A
$PYRTM,2024,123.252816251539,14.362463661678
$GPGGA,060402.00,3411.9680,N,12007.7456,W,1,09,1.0,8.3,M,-33.6,M,,*52
$PYRTM,2024,123.252827814583,14.362475224722
$GPGGA,060403.00,3411.9685,N,12007.7472,W,1,09,1.0,7.5,M,-33.6,M,,*59
$PYRTM,2024,123.252839398866,14.362486809005
$GPGGA,060404.00,3411.9688,N,12007.7487,W,1,09,1.0,7.8,M,-33.6,M,,*54
$PYRTM,2024,123.252850961100,14.362498371238
$GPGGA,060405.00,3411.9688,N,12007.7505,W,1,09,1.0,8.4,M,-33.6,M,,*5D
$PYRTM,2024,123.252858256435,14.362505666574
$GPGGA,060406.00,3411.9689,N,12007.7522,W,1,09,1.0,9.1,M,-33.6,M,,*5E
$PYRTM,2024,123.252874110590,14.362521520729
$GPGGA,060407.00,3411.9693,N,12007.7537,W,1,09,1.0,9.8,M,-33.6,M,,*59
$PYRTM,2024,123.252885704387,14.362533114525
$GPGGA,060408.00,3411.9699,N,12007.7554,W,1,09,1.0,9.8,M,-33.6,M,,*59
$PYRTM,2024,123.252897258715,14.362544668854
$GPGGA,060409.00,3411.9705,N,12007.7573,W,1,09,1.0,8.9,M,-33.6,M,,*59
$PYRTM,2024,123.252908857720,14.362556267859
$GPGGA,060410.00,3411.9706,N,12007.7591,W,1,09,1.0,7.8,M,-33.6,M,,*50
$PYRTM,2024,123.252920406354,14.362567816493
$GPGGA,060411.00,3411.9704,N,12007.7602,W,1,09,1.0,8.3,M,-33.6,M,,*5E
$PYRTM,2024,123.252931990706,14.362579400845
$GPGGA,060412.00,3411.9706,N,12007.7615,W,1,09,1.0,9.4,M,-33.6,M,,*5F
$PYRTM,2024,123.252943554514,14.362590964653
$GPGGA,060413.00,3411.9713,N,12007.7636,W,1,09,1.0,9.6,M,-33.6,M,,*59
$PYRTM,2024,123.252950834086,14.362598244225
$GPGGA,060414.00,3411.9719,N,12007.7657,W,1,09,1.0,8.8,M,-33.6,M,,*5C
$PYRTM,2024,123.252966702616,14.362614112755
$GPGGA,060415.00,3411.9720,N,12007.7671,W,1,09,1.0,8.6,M,-33.6,M,,*5D
$PYRTM,2024,123.252973994375,14.362621404514
$GPGGA,060416.00,3411.9719,N,12007.7681,W,1,09,1.0,9.3,M,-33.6,M,,*5F
$PYRTM,2024,123.252986133183,14.362633543322
$GPGGA,060417.00,3411.9721,N,12007.7696,W,1,09,1.0,9.8,M,-33.6,M,,*58
$PYRTM,2024,123.253001436065,14.362648846204
$GPGGA,060418.00,3411.9725,N,12007.7716,W,1,09,1.0,8.9,M,-33.6,M,,*5A
$PYRTM,2024,123.253012999109,14.362660409248
$GPGGA,060419.00,3411.9729,N,12007.7733,W,1,09,1.0,8.2,M,-33.6,M,,*5B
$PYRTM,2024,123.253020293877,14.362667704016
$GPGGA,060420.00,3411.9731,N,12007.7746,W,1,09,1.0,8.3,M,-33.6,M,,*5B
$PYRTM,2024,123.253039041157,14.362686451308
$GPGGA,060421.00,3411.9731,N,12007.7759,W,1,09,1.0,9.3,M,-33.6,M,,*55
$PYRTM,2024,123.253047729711,14.362695139850
$GPGGA,060422.00,3411.9732,N,12007.7774,W,1,09,1.0,10.3,M,-33.6,M,,*62
$PYRTM,2024,123.253059295995,14.362706706134
$GPGGA,060423.00,3411.9736,N,12007.7794,W,1,09,1.0,10.1,M,-33.6,M,,*6B
$PYRTM,2024,123.253070881157,14.362718291296
$GPGGA,060424.00,3411.9740,N,12007.7812,W,1,09,1.0,9.3,M,-33.6,M,,*56
$PYRTM,2024,123.253082443090,14.362729853229
$GPGGA,060425.00,3411.9741,N,12007.7823,W,1,09,1.0,9.5,M,-33.6,M,,*52
$PYRTM,2024,123.253089840162,14.362737250301
$GPGGA,060426.00,3411.9742,N,12007.7832,W,1,09,1.0,10.3,M,-33.6,M,,*6C
$PYRTM,2024,123.253105587130,14.362752997269
$GPGGA,060427.00,3411.9743,N,12007.7850,W,1,09,1.0,10.7,M,-33.6,M,,*6C
$PYRTM,2024,123.253117176933,14.362764587083
$GPGGA,060428.00,3411.9745,N,12007.7871,W,1,09,1.0,9.9,M,-33.6,M,,*50
$PYRTM,2024,123.253128735312,14.362776145451
$GPGGA,060429.00,3411.9747,N,12007.7888,W,1,09,1.0,9.1,M,-33.6,M,,*5D
$PYRTM,2024,123.253140325440,14.362787735579
$GPGGA,060430.00,3411.9748,N,12007.7902,W,1,09,1.0,9.0,M,-33.6,M,,*58
$PYRTM,2024,123.253151888183,14.362799298322
$GPGGA,060431.00,3411.9752,N,12007.7916,W,1,09,1.0,9.4,M,-33.6,M,,*53
$PYRTM,2024,123.253163473160,14.362810883299
$GPGGA,060432.00,3411.9756,N,12007.7930,W,1,09,1.0,10.1,M,-33.6,M,,*6D
$PYRTM,2024,123.253175035208,14.362822445347
$GPGGA,060433.00,3411.9757,N,12007.7947,W,1,09,1.0,10.7,M,-33.6,M,,*6B
$PYRTM,2024,123.253186610197,14.362834020336
$GPGGA,060434.00,3411.9757,N,12007.7965,W,1,09,1.0,10.5,M,-33.6,M,,*6E
$PYRTM,2024,123.253198183727,14.362845593866
$GPGGA,060435.00,3411.9759,N,12007.7983,W,1,09,1.0,9.8,M,-33.6,M,,*5C
$PYRTM,2024,123.253209783692,14.362857193831
$GPGGA,060436.00,3411.9765,N,12007.7998,W,1,09,1.0,9.2,M,-33.6,M,,*50
$PYRTM,2024,123.253221332604,14.362868742743
$GPGGA,060437.00,3411.9770,N,12007.8014,W,1,09,1.0,9.0,M,-33.6,M,,*55
$PYRTM,2024,123.253228611678,14.362876021817
$GPGGA,060438.00,3411.9771,N,12007.8030,W,1,09,1.0,9.2,M,-33.6,M,,*5F
$PYRTM,2024,123.253244480150,14.362891890289
$GPGGA,060439.00,3411.9770,N,12007.8047,W,1,09,1.0,10.1,M,-33.6,M,,*64
$PYRTM,2024,123.253256077326,14.362903487454
$GPGGA,060440.00,3411.9771,N,12007.8063,W,1,09,1.0,11.0,M,-33.6,M,,*6D
$PYRTM,2024,123.253267630081,14.362915040220
$GPGGA,060441.00,3411.9777,N,12007.8079,W,1,09,1.0,11.3,M,-33.6,M,,*62
$PYRTM,2024,123.253279213530,14.362926623669
$GPGGA,060442.00,3411.9784,N,12007.8098,W,1,09,1.0,10.8,M,-33.6,M,,*68
$PYRTM,2024,123.253290777442,14.362938187593
$GPGGA,060443.00,3411.9788,N,12007.8117,W,1,09,1.0,9.9,M,-33.6,M,,*5A
$PYRTM,2024,123.253302350671,14.362949760810
$GPGGA,060444.00,3411.9788,N,12007.8134,W,1,09,1.0,9.6,M,-33.6,M,,*53
$PYRTM,2024,123.253313925185,14.362961335324
$GPGGA,060445.00,3411.9788,N,12007.8151,W,1,09,1.0,9.9,M,-33.6,M,,*5E
$PYRTM,2024,123.253325499444,14.362972909583
$GPGGA,060446.00,3411.9792,N,12007.8168,W,1,09,1.0,10.3,M,-33.6,M,,*6E
$PYRTM,2024,123.253332906481,14.362980316620
$GPGGA,060447.00,3411.9799,N,12007.8189,W,1,09,1.0,10.0,M,-33.6,M,,*68
$PYRTM,2024,123.253344585359,14.362991995498
$GPGGA,060448.00,3411.9804,N,12007.8207,W,1,09,1.0,9.8,M,-33.6,M,,*59
$PYRTM,2024,123.253363114514,14.363010524653
$GPGGA,060449.00,3411.9804,N,12007.8223,W,1,09,1.0,10.3,M,-33.6,M,,*6D
$PYRTM,2024,123.253371803530,14.363019213669
$GPGGA,060450.00,3411.9803,N,12007.8240,W,1,09,1.0,10.5,M,-33.6,M,,*61
$PYRTM,2024,123.253379202176,14.363026612315
$GPGGA,060451.00,3411.9806,N,12007.8262,W,1,09,1.0,10.0,M,-33.6,M,,*60
$PYRTM,2024,123.253397730023,14.363045140174
$GPGGA,060452.00,3411.9811,N,12007.8278,W,1,09,1.0,9.5,M,-33.6,M,,*53
$PYRTM,2024,123.253406518079,14.363053928218
$GPGGA,060453.00,3411.9813,N,12007.8290,W,1,09,1.0,10.0,M,-33.6,M,,*6B
$PYRTM,2024,123.253418091528,14.363065501667
$GPGGA,060454.00,3411.9814,N,12007.8305,W,1,09,1.0,10.8,M,-33.6,M,,*6E
$PYRTM,2024,123.253429661181,14.363077071331
$GPGGA,060455.00,3411.9816,N,12007.8326,W,1,09,1.0,10.5,M,-33.6,M,,*61
$PYRTM,2024,123.253436957743,14.363084367882
$GPGGA,060456.00,3411.9819,N,12007.8347,W,1,09,1.0,9.5,M,-33.6,M,,*52
$PYRTM,2024,123.253452814190,14.363100224329
$GPGGA,060457.00,3411.9822,N,12007.8362,W,1,09,1.0,9.2,M,-33.6,M,,*5B
$PYRTM,2024,123.253464387731,14.363111797870
$GPGGA,060458.00,3411.9824,N,12007.8374,W,1,09,1.0,10.3,M,-33.6,M,,*6C
$PYRTM,2024,123.253471794282,14.363119204421
$GPGGA,060459.00,3411.9826,N,12007.8389,W,1,09,1.0,11.5,M,-33.6,M,,*6A
$PYRTM,2024,123.253487536678,14.363134946829
$GPGGA,060500.00,3411.9828,N,12007.8409,W,1,09,1.0,11.8,M,-33.6,M,,*6B
$PYRTM,2024,123.253499110764,14.363146520903
$GPGGA,060501.00,3411.9831,N,12007.8428,W,1,09,1.0,11.2,M,-33.6,M,,*6B
$PYRTM,2024,123.253510695069,14.363158105208
$GPGGA,060502.00,3411.9835,N,12007.8445,W,1,09,1.0,10.5,M,-33.6,M,,*61
$PYRTM,2024,123.253522258287,14.363169668426
$GPGGA,060503.00,3411.9838,N,12007.8460,W,1,09,1.0,10.3,M,-33.6,M,,*6C
$PYRTM,2024,123.253529653333,14.363177063472
$GPGGA,060504.00,3411.9841,N,12007.8476,W,1,09,1.0,10.4,M,-33.6,M,,*65
$PYRTM,2024,123.253545406447,14.363192816597
$GPGGA,060505.00,3411.9845,N,12007.8496,W,1,09,1.0,10.3,M,-33.6,M,,*69
$PYRTM,2024,123.253557005324,14.363204415463
$GPGGA,060506.00,3411.9848,N,12007.8517,W,1,09,1.0,10.2,M,-33.6,M,,*6E
$PYRTM,2024,123.253564386956,14.363211797095
$GPGGA,060507.00,3411.9850,N,12007.8532,W,1,09,1.0,10.8,M,-33.6,M,,*6B
$PYRTM,2024,123.253580153727,14.363227563866
$GPGGA,060508.00,3411.9852,N,12007.8545,W,1,09,1.0,11.9,M,-33.6,M,,*66
$PYRTM,2024,123.253591702755,14.363239112894
$GPGGA,060509.00,3411.9857,N,12007.8563,W,1,09,1.0,12.1,M,-33.6,M,,*6D
$PYRTM,2024,123.253603276458,14.363250686597
$GPGGA,060510.00,3411.9862,N,12007.8586,W,1,09,1.0,10.7,M,-33.6,M,,*6C
$PYRTM,2024,123.253614851840,14.363262261979
$GPGGA,060511.00,3411.9864,N,12007.8606,W,1,09,1.0,8.8,M,-33.6,M,,*56
$PYRTM,2024,123.253622130567,14.363269540718
$GPGGA,060512.00,3411.9865,N,12007.8621,W,1,09,1.0,8.5,M,-33.6,M,,*5C
$PYRTM,2024,123.253637998669,14.363285408808
$GPGGA,060513.00,3411.9866,N,12007.8633,W,1,09,1.0,9.5,M,-33.6,M,,*5C
$PYRTM,2024,123.253649585046,14.363296995185
$GPGGA,060514.00,3411.9871,N,12007.8650,W,1,09,1.0,10.5,M,-33.6,M,,*60
$PYRTM,2024,123.253661147535,14.363308557674
$GPGGA,060515.00,3411.9876,N,12007.8673,W,1,09,1.0,10.1,M,-33.6,M,,*63
$PYRTM,2024,123.253672732350,14.363320142488
$GPGGA,060516.00,3411.9879,N,12007.8694,W,1,09,1.0,8.9,M,-33.6,M,,*57
$PYRTM,2024,123.253684295775,14.363331705914
$GPGGA,060517.00,3411.9880,N,12007.8709,W,1,09,1.0,8.4,M,-33.6,M,,*58
$PYRTM,2024,123.253695876725,14.363343286863
$GPGGA,060518.00,3411.9882,N,12007.8721,W,1,09,1.0,8.8,M,-33.6,M,,*53
$PYRTM,2024,123.253707443611,14.363354853750
$GPGGA,060519.00,3411.9887,N,12007.8736,W,1,09,1.0,9.6,M,-33.6,M,,*5E
$PYRTM,2024,123.253714722350,14.363362132488
$GPGGA,060520.00,3411.9891,N,12007.8756,W,1,09,1.0,9.7,M,-33.6,M,,*54
$PYRTM,2024,123.253730591377,14.363378001528
$GPGGA,060521.00,3411.9893,N,12007.8778,W,1,09,1.0,9.0,M,-33.6,M,,*5C
$PYRTM,2024,123.253744950903,14.363392361042
$GPGGA,060522.00,3411.9894,N,12007.8794,W,1,09,1.0,8.9,M,-33.6,M,,*52
$PYRTM,2024,123.253759066968,14.363406477106
$GPGGA,060523.00,3411.9896,N,12007.8806,W,1,09,1.0,9.6,M,-33.6,M,,*5B
$PYRTM,2024,123.253765313356,14.363412723507
$GPGGA,060524.00,3411.9901,N,12007.8820,W,1,09,1.0,10.3,M,-33.6,M,,*6A
$PYRTM,2024,123.253772720706,14.363420130845
$GPGGA,060525.00,3411.9905,N,12007.8838,W,1,09,1.0,10.6,M,-33.6,M,,*63
$PYRTM,2024,123.253788462303,14.363435872442
$GPGGA,060526.00,3411.9907,N,12007.8860,W,1,09,1.0,9.8,M,-33.6,M,,*59
$PYRTM,2024,123.253800030822,14.363447440961
$GPGGA,060527.00,3411.9908,N,12007.8880,W,1,09,1.0,8.8,M,-33.6,M,,*58
$PYRTM,2024,123.253807327812,14.363454737951
$GPGGA,060528.00,3411.9910,N,12007.8895,W,1,09,1.0,8.7,M,-33.6,M,,*55
$PYRTM,2024,123.253823179317,14.363470589456
$GPGGA,060529.00,3411.9915,N,12007.8906,W,1,09,1.0,9.7,M,-33.6,M,,*5B
$PYRTM,2024,123.253834769271,14.363482179410
$GPGGA,060530.00,3411.9920,N,12007.8922,W,1,09,1.0,10.4,M,-33.6,M,,*68
$PYRTM,2024,123.253842038148,14.363489448287
$GPGGA,060531.00,3411.9922,N,12007.8945,W,1,09,1.0,9.8,M,-33.6,M,,*5E
$PYRTM,2024,123.253857920046,14.363505330197
$GPGGA,060532.00,3411.9922,N,12007.8966,W,1,09,1.0,9.0,M,-33.6,M,,*54
$PYRTM,2024,123.253869479225,14.363516889363
$GPGGA,060533.00,3411.9925,N,12007.8981,W,1,09,1.0,8.6,M,-33.6,M,,*5C
$PYRTM,2024,123.253881065463,14.363528475602
$GPGGA,060534.00,3411.9931,N,12007.8996,W,1,09,1.0,8.7,M,-33.6,M,,*59
$PYRTM,2024,123.253892628970,14.363540039120
$GPGGA,060535.00,3411.9936,N,12007.9011,W,1,09,1.0,9.4,M,-33.6,M,,*5A
$PYRTM,2024,123.253904224850,14.363551634988
$GPGGA,060536.00,3411.9938,N,12007.9027,W,1,09,1.0,10.3,M,-33.6,M,,*6D
$PYRTM,2024,123.253911605104,14.363559015243
$GPGGA,060537.00,3411.9939,N,12007.9046,W,1,09,1.0,10.5,M,-33.6,M,,*6C
$PYRTM,2024,123.253927350150,14.363574760289
$GPGGA,060538.00,3411.9942,N,12007.9067,W,1,09,1.0,9.6,M,-33.6,M,,*57
$PYRTM,2024,123.253938924549,14.363586334688
$GPGGA,060539.00,3411.9947,N,12007.9083,W,1,09,1.0,9.0,M,-33.6,M,,*5F
$PYRTM,2024,123.253950498241,14.363597908380
$GPGGA,060540.00,3411.9952,N,12007.9094,W,1,09,1.0,9.8,M,-33.6,M,,*5B
$PYRTM,2024,123.253962074051,14.363609484190
$GPGGA,060541.00,3411.9958,N,12007.9107,W,1,09,1.0,10.9,M,-33.6,M,,*62
$PYRTM,2024,123.253973658495,14.363621068634
$GPGGA,060542.00,3411.9962,N,12007.9127,W,1,09,1.0,10.9,M,-33.6,M,,*6A
$PYRTM,2024,123.253981054560,14.363628464699
$GPGGA,060543.00,3411.9963,N,12007.9148,W,1,09,1.0,10.3,M,-33.6,M,,*69
$PYRTM,2024,123.253996806273,14.363644216412
$GPGGA,060544.00,3411.9964,N,12007.9165,W,1,09,1.0,10.2,M,-33.6,M,,*67
$PYRTM,2024,123.254008370093,14.363655780231
$GPGGA,060545.00,3411.9967,N,12007.9177,W,1,09,1.0,10.8,M,-33.6,M,,*6C
$PYRTM,2024,123.254019943333,14.363667353472
$GPGGA,060546.00,3411.9974,N,12007.9191,W,1,09,1.0,11.6,M,-33.6,M,,*6A
$PYRTM,2024,123.254031518519,14.363678928657
$GPGGA,060547.00,3411.9980,N,12007.9209,W,1,09,1.0,10.9,M,-33.6,M,,*6C
$PYRTM,2024,123.254043100544,14.363690510683
$GPGGA,060548.00,3411.9982,N,12007.9230,W,1,09,1.0,10.4,M,-33.6,M,,*66
$PYRTM,2024,123.254054665521,14.363702075671
$GPGGA,060549.00,3411.9981,N,12007.9248,W,1,09,1.0,9.9,M,-33.6,M,,*5E
$PYRTM,2024,123.254066265938,14.363713676076
$GPGGA,060550.00,3411.9983,N,12007.9266,W,1,09,1.0,9.5,M,-33.6,M,,*54
$PYRTM,2024,123.254077813553,14.363725223692
$GPGGA,060551.00,3411.9989,N,12007.9285,W,1,09,1.0,9.2,M,-33.6,M,,*55
$PYRTM,2024,123.254085095012,14.363732505162
$GPGGA,060552.00,3411.9996,N,12007.9302,W,1,09,1.0,9.6,M,-33.6,M,,*52
$PYRTM,2024,123.254103854722,14.363751264861
$GPGGA,060553.00,3411.9998,N,12007.9315,W,1,09,1.0,10.8,M,-33.6,M,,*6D
$PYRTM,2024,123.254112546366,14.363759956505
$GPGGA,060554.00,3411.9999,N,12007.9332,W,1,09,1.0,11.7,M,-33.6,M,,*60
$PYRTM,2024,123.254124110799,14.363771520938
$GPGGA,060555.00,3412.0001,N,12007.9354,W,1,09,1.0,11.0,M,-33.6,M,,*64
$PYRTM,2024,123.254135691262,14.363783101389
$GPGGA,060556.00,3412.0005,N,12007.9374,W,1,09,1.0,9.8,M,-33.6,M,,*50
$PYRTM,2024,123.254147258333,14.363794668472
$GPGGA,060557.00,3412.0008,N,12007.9387,W,1,09,1.0,9.3,M,-33.6,M,,*5B
$PYRTM,2024,123.254158843924,14.363806254062
$GPGGA,060558.00,3412.0012,N,12007.9397,W,1,09,1.0,10.0,M,-33.6,M,,*65
$PYRTM,2024,123.254170406759,14.363817816898
$GPGGA,060559.00,3412.0017,N,12007.9414,W,1,09,1.0,10.5,M,-33.6,M,,*68
$PYRTM,2024,123.254181980220,14.363829390359
$GPGGA,060600.00,3412.0021,N,12007.9436,W,1,09,1.0,9.5,M,-33.6,M,,*5A
$PYRTM,2024,123.254193562326,14.363840972465
$GPGGA,060601.00,3412.0022,N,12007.9456,W,1,09,1.0,9.3,M,-33.6,M,,*58
$PYRTM,2024,123.254205128206,14.363852538345
$GPGGA,060602.00,3412.0023,N,12007.9470,W,1,09,1.0,9.6,M,-33.6,M,,*5B
$PYRTM,2024,123.254212408299,14.363859818449
$GPGGA,060603.00,3412.0027,N,12007.9484,W,1,09,1.0,10.0,M,-33.6,M,,*6B
$PYRTM,2024,123.254228283426,14.363875693565
$GPGGA,060604.00,3412.0033,N,12007.9501,W,1,09,1.0,10.2,M,-33.6,M,,*67
$PYRTM,2024,123.254239851794,14.363887261933
$GPGGA,060605.00,3412.0037,N,12007.9518,W,1,09,1.0,10.3,M,-33.6,M,,*6B
$PYRTM,2024,123.254251424884,14.363898835023
$GPGGA,060606.00,3412.0037,N,12007.9534,W,1,09,1.0,10.7,M,-33.6,M,,*62
$PYRTM,2024,123.254262998692,14.363910408831
$GPGGA,060607.00,3412.0037,N,12007.9550,W,1,09,1.0,10.8,M,-33.6,M,,*6E
$PYRTM,2024,123.254274572616,14.363921982755
$GPGGA,060608.00,3412.0042,N,12007.9570,W,1,09,1.0,9.8,M,-33.6,M,,*59
$PYRTM,2024,123.254286147813,14.363933557951
$GPGGA,060609.00,3412.0048,N,12007.9588,W,1,09,1.0,8.6,M,-33.6,M,,*5A
$PYRTM,2024,123.254297722211,14.363945132361
$GPGGA,060610.00,3412.0051,N,12007.9602,W,1,09,1.0,8.5,M,-33.6,M,,*58
$PYRTM,2024,123.254309291262,14.363956701400
$GPGGA,060611.00,3412.0050,N,12007.9615,W,1,09,1.0,9.3,M,-33.6,M,,*59
$PYRTM,2024,123.254320879537,14.363968289676
$GPGGA,060612.00,3412.0052,N,12007.9634,W,1,09,1.0,10.0,M,-33.6,M,,*60
$PYRTM,2024,123.254332442650,14.363979852789
$GPGGA,060613.00,3412.0056,N,12007.9655,W,1,09,1.0,9.8,M,-33.6,M,,*52
$PYRTM,2024,123.254344031644,14.363991441782
$GPGGA,060614.00,3412.0061,N,12007.9671,W,1,09,1.0,9.5,M,-33.6,M,,*5A
$PYRTM,2024,123.254355592350,14.364003002488
$GPGGA,060615.00,3412.0064,N,12007.9684,W,1,09,1.0,9.8,M,-33.6,M,,*59
$PYRTM,2024,123.254367176204,14.364014586343
$GPGGA,060616.00,3412.0066,N,12007.9700,W,1,09,1.0,10.0,M,-33.6,M,,*65
$PYRTM,2024,123.254378739363,14.364026149502
$GPGGA,060617.00,3412.0069,N,12007.9720,W,1,09,1.0,9.7,M,-33.6,M,,*56
$PYRTM,2024,123.254390338704,14.364037748843
$GPGGA,060618.00,3412.0071,N,12007.9740,W,1,09,1.0,9.2,M,-33.6,M,,*53
$PYRTM,2024,123.254401887639,14.364049297778
$GPGGA,060619.00,3412.0075,N,12007.9757,W,1,09,1.0,9.4,M,-33.6,M,,*56
$PYRTM,2024,123.254413487836,14.364060897975
$GPGGA,060620.00,3412.0080,N,12007.9772,W,1,09,1.0,10.1,M,-33.6,M,,*6C
$PYRTM,2024,123.254420867824,14.364068277963
$GPGGA,060621.00,3412.0084,N,12007.9787,W,1,09,1.0,10.9,M,-33.6,M,,*6B
$PYRTM,2024,123.254436611435,14.364084021574
$GPGGA,060622.00,3412.0085,N,12007.9806,W,1,09,1.0,10.9,M,-33.6,M,,*6F
$PYRTM,2024,123.254444031030,14.364091441169
$GPGGA,060623.00,3412.0087,N,12007.9826,W,1,09,1.0,10.4,M,-33.6,M,,*63
$PYRTM,2024,123.254462535567,14.364109945706
$GPGGA,060624.00,3412.0089,N,12007.9847,W,1,09,1.0,9.1,M,-33.6,M,,*50
$PYRTM,2024,123.254471333380,14.364118743519
$GPGGA,060625.00,3412.0094,N,12007.9866,W,1,09,1.0,8.3,M,-33.6,M,,*5D
$PYRTM,2024,123.254482916204,14.364130326343
$GPGGA,060626.00,3412.0098,N,12007.9882,W,1,09,1.0,8.6,M,-33.6,M,,*5D
$PYRTM,2024,123.254494476620,14.364141886771
$GPGGA,060627.00,3412.0100,N,12007.9897,W,1,09,1.0,10.0,M,-33.6,M,,*67
$PYRTM,2024,123.254506054259,14.364153464398
$GPGGA,060628.00,3412.0102,N,12007.9915,W,1,09,1.0,11.1,M,-33.6,M,,*61
$PYRTM,2024,123.254517628021,14.364165038160
$GPGGA,060629.00,3412.0107,N,12007.9938,W,1,09,1.0,10.9,M,-33.6,M,,*63
$PYRTM,2024,123.254529202442,14.364176612581
$GPGGA,060630.00,3412.0111,N,12007.9959,W,1,09,1.0,10.0,M,-33.6,M,,*62
$PYRTM,2024,123.254540776782,14.364188186921
$GPGGA,060631.00,3412.0114,N,12007.9974,W,1,09,1.0,9.7,M,-33.6,M,,*56
$PYRTM,2024,123.254552376308,14.364199786458
$GPGGA,060632.00,3412.0116,N,12007.9989,W,1,09,1.0,10.0,M,-33.6,M,,*6A
$PYRTM,2024,123.254563920926,14.364211331065
$GPGGA,060633.00,3412.0119,N,12008.0007,W,1,09,1.0,10.2,M,-33.6,M,,*6F
$PYRTM,2024,123.254575506829,14.364222916968
$GPGGA,060634.00,3412.0123,N,12008.0027,W,1,09,1.0,10.3,M,-33.6,M,,*62
$PYRTM,2024,123.254587072685,14.364234482824
$GPGGA,060635.00,3412.0127,N,12008.0047,W,1,09,1.0,9.8,M,-33.6,M,,*52
$PYRTM,2024,123.254598658241,14.364246068380
$GPGGA,060636.00,3412.0130,N,12008.0067,W,1,09,1.0,9.5,M,-33.6,M,,*58
$PYRTM,2024,123.254610221898,14.364257632037
$GPGGA,060637.00,3412.0132,N,12008.0084,W,1,09,1.0,9.5,M,-33.6,M,,*56
$PYRTM,2024,123.254621806725,14.364269216863
$GPGGA,060638.00,3412.0135,N,12008.0102,W,1,09,1.0,9.7,M,-33.6,M,,*53
$PYRTM,2024,123.254633369178,14.364280779317
$GPGGA,060639.00,3412.0139,N,12008.0121,W,1,09,1.0,9.8,M,-33.6,M,,*50
$PYRTM,2024,123.254644942836,14.364292352986
$GPGGA,060640.00,3412.0143,N,12008.0141,W,1,09,1.0,9.9,M,-33.6,M,,*54
$PYRTM,2024,123.254656513715,14.364303923854
$GPGGA,060641.00,3412.0146,N,12008.0161,W,1,09,1.0,9.8,M,-33.6,M,,*53
$PYRTM,2024,123.254663911273,14.364311321412
$GPGGA,060642.00,3412.0148,N,12008.0179,W,1,09,1.0,10.0,M,-33.6,M,,*67
$PYRTM,2024,123.254679665463,14.364327075602
$GPGGA,060643.00,3412.0149,N,12008.0196,W,1,09,1.0,10.4,M,-33.6,M,,*62
$PYRTM,2024,123.254691249687,14.364338659826
$GPGGA,060644.00,3412.0152,N,12008.0217,W,1,09,1.0,10.2,M,-33.6,M,,*63
$PYRTM,2024,123.254702812847,14.364350222986
$GPGGA,060645.00,3412.0157,N,12008.0236,W,1,09,1.0,9.6,M,-33.6,M,,*58
$PYRTM,2024,123.254714396991,14.364361807130
$GPGGA,060646.00,3412.0161,N,12008.0254,W,1,09,1.0,9.4,M,-33.6,M,,*58
$PYRTM,2024,123.254721667176,14.364369077315
$GPGGA,060647.00,3412.0163,N,12008.0274,W,1,09,1.0,9.3,M,-33.6,M,,*5E
$PYRTM,2024,123.254737543090,14.364384953229
$GPGGA,060648.00,3412.0163,N,12008.0294,W,1,09,1.0,9.3,M,-33.6,M,,*5F
$PYRTM,2024,123.254749111400,14.364396521539
$GPGGA,060649.00,3412.0165,N,12008.0313,W,1,09,1.0,9.8,M,-33.6,M,,*5D
$PYRTM,2024,123.254756504317,14.364403914456
$GPGGA,060650.00,3412.0170,N,12008.0330,W,1,09,1.0,10.3,M,-33.6,M,,*63
$PYRTM,2024,123.254772257141,14.364419667292
$GPGGA,060651.00,3412.0175,N,12008.0350,W,1,09,1.0,10.4,M,-33.6,M,,*66
$PYRTM,2024,123.254783841863,14.364431252002
$GPGGA,060652.00,3412.0179,N,12008.0370,W,1,09,1.0,10.0,M,-33.6,M,,*6F
$PYRTM,2024,123.254795406806,14.364442816944
$GPGGA,060653.00,3412.0181,N,12008.0390,W,1,09,1.0,9.4,M,-33.6,M,,*5B
$PYRTM,2024,123.254802696852,14.364450106991
$GPGGA,060654.00,3412.0183,N,12008.0411,W,1,09,1.0,8.9,M,-33.6,M,,*5C
$PYRTM,2024,123.254821332014,14.364468742153
$GPGGA,060655.00,3412.0186,N,12008.0431,W,1,09,1.0,8.9,M,-33.6,M,,*5A
$PYRTM,2024,123.254830138912,14.364477549051
$GPGGA,060656.00,3412.0192,N,12008.0450,W,1,09,1.0,9.3,M,-33.6,M,,*50
$PYRTM,2024,123.254841701308,14.364489111447
$GPGGA,060657.00,3412.0196,N,12008.0466,W,1,09,1.0,10.4,M,-33.6,M,,*6F
$PYRTM,2024,123.254849097141,14.364496507280
$GPGGA,060658.00,3412.0198,N,12008.0483,W,1,09,1.0,12.2,M,-33.6,M,,*61
$PYRTM,2024,123.254864851238,14.364512261377
$GPGGA,060659.00,3412.0199,N,12008.0507,W,1,09,1.0,11.3,M,-33.6,M,,*6E
$PYRTM,2024,123.254872244676,14.364519654815
$GPGGA,060700.00,3412.0202,N,12008.0531,W,1,09,1.0,10.1,M,-33.6,M,,*64
$PYRTM,2024,123.254887993600,14.364535403738
$GPGGA,060701.00,3412.0207,N,12008.0548,W,1,09,1.0,9.6,M,-33.6,M,,*51
$PYRTM,2024,123.254899580208,14.364546990347
$GPGGA,060702.00,3412.0212,N,12008.0561,W,1,09,1.0,10.3,M,-33.6,M,,*60
$PYRTM,2024,123.254911146088,14.364558556227
$GPGGA,060703.00,3412.0217,N,12008.0580,W,1,09,1.0,11.0,M,-33.6,M,,*69
$PYRTM,2024,123.254922733530,14.364570143669
$GPGGA,060704.00,3412.0220,N,12008.0602,W,1,09,1.0,11.1,M,-33.6,M,,*62
$PYRTM,2024,123.254934296319,14.364581706458
$GPGGA,060705.00,3412.0220,N,12008.0622,W,1,09,1.0,10.8,M,-33.6,M,,*69
$PYRTM,2024,123.254941689815,14.364589099954
$GPGGA,060706.00,3412.0222,N,12008.0640,W,1,09,1.0,10.4,M,-33.6,M,,*60
$PYRTM,2024,123.254957444039,14.364604854178
$GPGGA,060707.00,3412.0227,N,12008.0659,W,1,09,1.0,9.7,M,-33.6,M,,*57
$PYRTM,2024,123.254969026840,14.364616436979
$GPGGA,060708.00,3412.0233,N,12008.0676,W,1,09,1.0,9.4,M,-33.6,M,,*53
$PYRTM,2024,123.254980590880,14.364628001019
$GPGGA,060709.00,3412.0236,N,12008.0692,W,1,09,1.0,10.0,M,-33.6,M,,*61
$PYRTM,2024,123.254992165660,14.364639575799
$GPGGA,060710.00,3412.0237,N,12008.0710,W,1,09,1.0,10.8,M,-33.6,M,,*6B
$PYRTM,2024,123.255003740035,14.364651150174
$GPGGA,060711.00,3412.0239,N,12008.0732,W,1,09,1.0,10.8,M,-33.6,M,,*64
$PYRTM,2024,123.255015312720,14.364662722859
$GPGGA,060712.00,3412.0243,N,12008.0752,W,1,09,1.0,10.6,M,-33.6,M,,*62
$PYRTM,2024,123.255026886192,14.364674296331
$GPGGA,060713.00,3412.0247,N,12008.0768,W,1,09,1.0,10.5,M,-33.6,M,,*6D
$PYRTM,2024,123.255038461192,14.364685871331
$GPGGA,060714.00,3412.0250,N,12008.0786,W,1,09,1.0,10.5,M,-33.6,M,,*6C
$PYRTM,2024,123.255050036481,14.364697446620
$GPGGA,060715.00,3412.0254,N,12008.0807,W,1,09,1.0,10.1,M,-33.6,M,,*6B
$PYRTM,2024,123.255061617106,14.364709027245
$GPGGA,060716.00,3412.0257,N,12008.0825,W,1,09,1.0,10.0,M,-33.6,M,,*6A
$PYRTM,2024,123.255073182581,14.364720592720
$GPGGA,060717.00,3412.0259,N,12008.0840,W,1,09,1.0,10.6,M,-33.6,M,,*60
$PYRTM,2024,123.255084782697,14.364732192836
$GPGGA,060718.00,3412.0263,N,12008.0860,W,1,09,1.0,10.6,M,-33.6,M,,*64
$PYRTM,2024,123.255096332141,14.364743742280
$GPGGA,060719.00,3412.0267,N,12008.0881,W,1,09,1.0,10.2,M,-33.6,M,,*6A
$PYRTM,2024,123.255107907106,14.364755317245
$GPGGA,060720.00,3412.0268,N,12008.0900,W,1,09,1.0,9.9,M,-33.6,M,,*54
$PYRTM,2024,123.255119480752,14.364766890891
$GPGGA,060721.00,3412.0270,N,12008.0916,W,1,09,1.0,10.0,M,-33.6,M,,*6A
$PYRTM,2024,123.255131055081,14.364778465220
$GPGGA,060722.00,3412.0275,N,12008.0936,W,1,09,1.0,9.6,M,-33.6,M,,*50
$PYRTM,2024,123.255142623877,14.364790034028
$GPGGA,060723.00,3412.0281,N,12008.0956,W,1,09,1.0,9.1,M,-33.6,M,,*5B
$PYRTM,2024,123.255149906921,14.364797317060
$GPGGA,060724.00,3412.0284,N,12008.0974,W,1,09,1.0,9.3,M,-33.6,M,,*5B
$PYRTM,2024,123.255161711910,14.364809122049
$GPGGA,060725.00,3412.0284,N,12008.0993,W,1,09,1.0,9.5,M,-33.6,M,,*55
$PYRTM,2024,123.255180138866,14.364827549016
$GPGGA,060726.00,3412.0287,N,12008.1015,W,1,09,1.0,9.3,M,-33.6,M,,*55
$PYRTM,2024,123.255188924919,14.364836335069
$GPGGA,060727.00,3412.0291,N,12008.1033,W,1,09,1.0,9.0,M,-33.6,M,,*54
$PYRTM,2024,123.255200498032,14.364847908171
$GPGGA,060728.00,3412.0296,N,12008.1049,W,1,09,1.0,9.1,M,-33.6,M,,*50
$PYRTM,2024,123.255212068218,14.364859478356
$GPGGA,060729.00,3412.0300,N,12008.1066,W,1,09,1.0,9.2,M,-33.6,M,,*51
$PYRTM,2024,123.255219367106,14.364866777245
$GPGGA,060730.00,3412.0302,N,12008.1087,W,1,09,1.0,9.0,M,-33.6,M,,*56
$PYRTM,2024,123.255235220810,14.364882630949
$GPGGA,060731.00,3412.0303,N,12008.1106,W,1,09,1.0,9.0,M,-33.6,M,,*5E
$PYRTM,2024,123.255246802604,14.364894212743
$GPGGA,060732.00,3412.0304,N,12008.1124,W,1,09,1.0,9.1,M,-33.6,M,,*5B
$PYRTM,2024,123.255258370000,14.364905780139
$GPGGA,060733.00,3412.0310,N,12008.1145,W,1,09,1.0,8.7,M,-33.6,M,,*5F
$PYRTM,2024,123.255269953414,14.364917363553
$GPGGA,060734.00,3412.0317,N,12008.1166,W,1,09,1.0,8.3,M,-33.6,M,,*5A
$PYRTM,2024,123.255281517326,14.364928927465
$GPGGA,060735.00,3412.0319,N,12008.1180,W,1,09,1.0,8.9,M,-33.6,M,,*57
$PYRTM,2024,123.255293091435,14.364940501586
$GPGGA,060736.00,3412.0318,N,12008.1195,W,1,09,1.0,10.1,M,-33.6,M,,*60
$PYRTM,2024,123.255304665648,14.364952075787
$GPGGA,060737.00,3412.0319,N,12008.1216,W,1,09,1.0,10.4,M,-33.6,M,,*6D
$PYRTM,2024,123.255312060058,14.364959470197
$GPGGA,060738.00,3412.0323,N,12008.1238,W,1,09,1.0,9.5,M,-33.6,M,,*5E
$PYRTM,2024,123.255327814039,14.364975224190
$GPGGA,060739.00,3412.0328,N,12008.1254,W,1,09,1.0,8.8,M,-33.6,M,,*52
$PYRTM,2024,123.255339386759,14.364986796898
$GPGGA,060740.00,3412.0332,N,12008.1268,W,1,09,1.0,8.7,M,-33.6,M,,*57
$PYRTM,2024,123.255350961806,14.364998371944
$GPGGA,060741.00,3412.0334,N,12008.1286,W,1,09,1.0,9.1,M,-33.6,M,,*57
$PYRTM,2024,123.255362535729,14.365009945868
$GPGGA,060742.00,3412.0334,N,12008.1306,W,1,09,1.0,9.6,M,-33.6,M,,*5A
$PYRTM,2024,123.255374110012,14.365021520150
$GPGGA,060743.00,3412.0336,N,12008.1326,W,1,09,1.0,9.9,M,-33.6,M,,*54
$PYRTM,2024,123.255385683299,14.365033093449
$GPGGA,060744.00,3412.0340,N,12008.1345,W,1,09,1.0,9.9,M,-33.6,M,,*57
$PYRTM,2024,123.255397252662,14.365044662801
$GPGGA,060745.00,3412.0343,N,12008.1363,W,1,09,1.0,9.8,M,-33.6,M,,*50
$PYRTM,2024,123.255408842697,14.365056252836
$GPGGA,060746.00,3412.0346,N,12008.1382,W,1,09,1.0,9.5,M,-33.6,M,,*54
$PYRTM,2024,123.255420405255,14.365067815394
$GPGGA,060747.00,3412.0347,N,12008.1400,W,1,09,1.0,9.2,M,-33.6,M,,*5E
$PYRTM,2024,123.255431992106,14.365079402245
$GPGGA,060748.00,3412.0347,N,12008.1417,W,1,09,1.0,9.3,M,-33.6,M,,*56
$PYRTM,2024,123.255443554722,14.365090964861
$GPGGA,060749.00,3412.0350,N,12008.1438,W,1,09,1.0,9.2,M,-33.6,M,,*5D
$PYRTM,2024,123.255455128310,14.365102538449
$GPGGA,060750.00,3412.0356,N,12008.1458,W,1,09,1.0,8.9,M,-33.6,M,,*5F
$PYRTM,2024,123.255462408067,14.365109818206
$GPGGA,060751.00,3412.0359,N,12008.1474,W,1,09,1.0,9.1,M,-33.6,M,,*56
$PYRTM,2024,123.255478275880,14.365125686019
$GPGGA,060752.00,3412.0359,N,12008.1491,W,1,09,1.0,9.8,M,-33.6,M,,*57
$PYRTM,2024,123.255489850498,14.365137260637
$GPGGA,060753.00,3412.0360,N,12008.1510,W,1,09,1.0,10.1,M,-33.6,M,,*65
$PYRTM,2024,123.255497246204,14.365144656343
$GPGGA,060754.00,3412.0363,N,12008.1532,W,1,09,1.0,9.0,M,-33.6,M,,*58
$PYRTM,2024,123.255512998333,14.365160408472
$GPGGA,060755.00,3412.0368,N,12008.1552,W,1,09,1.0,8.4,M,-33.6,M,,*51
$PYRTM,2024,123.255520290972,14.365167701111
$GPGGA,060756.00,3412.0370,N,12008.1567,W,1,09,1.0,8.8,M,-33.6,M,,*51
$PYRTM,2024,123.255538924664,14.365186334815
$GPGGA,060757.00,3412.0372,N,12008.1582,W,1,09,1.0,9.4,M,-33.6,M,,*54
$PYRTM,2024,123.255547728576,14.365195138715
$GPGGA,060758.00,3412.0376,N,12008.1603,W,1,09,1.0,9.1,M,-33.6,M,,*50
$PYRTM,2024,123.255559295556,14.365206705694
$GPGGA,060759.00,3412.0380,N,12008.1627,W,1,09,1.0,8.0,M,-33.6,M,,*5E
$PYRTM,2024,123.255570875984,14.365218286123
$GPGGA,060800.00,3412.0384,N,12008.1647,W,1,09,1.0,7.3,M,-33.6,M,,*53
$PYRTM,2024,123.255582443843,14.365229853981
$GPGGA,060801.00,3412.0385,N,12008.1660,W,1,09,1.0,8.0,M,-33.6,M,,*5A
$PYRTM,2024,123.255594024387,14.365241434525
$GPGGA,060802.00,3412.0387,N,12008.1674,W,1,09,1.0,8.7,M,-33.6,M,,*59
$PYRTM,2024,123.255605586389,14.365252996528
$GPGGA,060803.00,3412.0391,N,12008.1694,W,1,09,1.0,8.9,M,-33.6,M,,*5F
$PYRTM,2024,123.255617176782,14.365264586921
$GPGGA,060804.00,3412.0394,N,12008.1715,W,1,09,1.0,8.2,M,-33.6,M,,*5E
$PYRTM,2024,123.255624443727,14.365271853866
$GPGGA,060805.00,3412.0395,N,12008.1731,W,1,09,1.0,7.8,M,-33.6,M,,*5D
$PYRTM,2024,123.255640313252,14.365287723391
$GPGGA,060806.00,3412.0399,N,12008.1747,W,1,09,1.0,7.5,M,-33.6,M,,*5E
$PYRTM,2024,123.255651883322,14.365299293461
$GPGGA,060807.00,3412.0404,N,12008.1764,W,1,09,1.0,7.4,M,-33.6,M,,*5C
$PYRTM,2024,123.255663473137,14.365310883275
$GPGGA,060808.00,3412.0407,N,12008.1782,W,1,09,1.0,7.7,M,-33.6,M,,*5B
$PYRTM,2024,123.255675030729,14.365322440868
$GPGGA,060809.00,3412.0408,N,12008.1798,W,1,09,1.0,8.6,M,-33.6,M,,*50
$PYRTM,2024,123.255686620475,14.365334030613
$GPGGA,060810.00,3412.0409,N,12008.1817,W,1,09,1.0,9.2,M,-33.6,M,,*54
$PYRTM,2024,123.255698183947,14.365345594086
$GPGGA,060811.00,3412.0412,N,12008.1837,W,1,09,1.0,9.1,M,-33.6,M,,*5E
$PYRTM,2024,123.255709768079,14.365357178218
$GPGGA,060812.00,3412.0417,N,12008.1853,W,1,09,1.0,8.8,M,-33.6,M,,*52
$PYRTM,2024,123.255721330394,14.365368740532
$GPGGA,060813.00,3412.0423,N,12008.1869,W,1,09,1.0,8.4,M,-33.6,M,,*51
$PYRTM,2024,123.255728612176,14.365376022315
$GPGGA,060814.00,3412.0426,N,12008.1888,W,1,09,1.0,7.8,M,-33.6,M,,*5F
$PYRTM,2024,123.255744482396,14.365391892535
$GPGGA,060815.00,3412.0427,N,12008.1907,W,1,09,1.0,7.5,M,-33.6,M,,*54
$PYRTM,2024,123.255756053194,14.365403463333
$GPGGA,060816.00,3412.0430,N,12008.1926,W,1,09,1.0,7.4,M,-33.6,M,,*53
$PYRTM,2024,123.255763331910,14.365410742060
$GPGGA,060817.00,3412.0435,N,12008.1947,W,1,09,1.0,7.3,M,-33.6,M,,*57
$PYRTM,2024,123.255779202315,14.365426612454
$GPGGA,060818.00,3412.0439,N,12008.1965,W,1,09,1.0,8.0,M,-33.6,M,,*58
$PYRTM,2024,123.255790771528,14.365438181667
$GPGGA,060819.00,3412.0441,N,12008.1978,W,1,09,1.0,9.4,M,-33.6,M,,*5F
$PYRTM,2024,123.255798056655,14.365445466794
$GPGGA,060820.00,3412.0442,N,12008.1993,W,1,09,1.0,10.5,M,-33.6,M,,*6A
$PYRTM,2024,123.255813924549,14.365461334688
$GPGGA,060821.00,3412.0446,N,12008.2015,W,1,09,1.0,10.1,M,-33.6,M,,*6F
$PYRTM,2024,123.255825509803,14.365472919942
$GPGGA,060822.00,3412.0451,N,12008.2036,W,1,09,1.0,8.5,M,-33.6,M,,*56
$PYRTM,2024,123.255832777894,14.365480188032
$GPGGA,060823.00,3412.0452,N,12008.2049,W,1,09,1.0,8.1,M,-33.6,M,,*58
$PYRTM,2024,123.255848657164,14.365496067315
$GPGGA,060824.00,3412.0452,N,12008.2057,W,1,09,1.0,9.0,M,-33.6,M,,*50
$PYRTM,2024,123.255860222002,14.365507632153
$GPGGA,060825.00,3412.0455,N,12008.2073,W,1,09,1.0,10.1,M,-33.6,M,,*69
$PYRTM,2024,123.255867616655,14.365515026794
$GPGGA,060826.00,3412.0459,N,12008.2096,W,1,09,1.0,10.0,M,-33.6,M,,*6C
$PYRTM,2024,123.255879304826,14.365526714965
$GPGGA,060827.00,3412.0462,N,12008.2114,W,1,09,1.0,9.3,M,-33.6,M,,*55
$PYRTM,2024,123.255897720220,14.365545130359
$GPGGA,060828.00,3412.0463,N,12008.2126,W,1,09,1.0,9.4,M,-33.6,M,,*5D
$PYRTM,2024,123.255906518519,14.365553928657
$GPGGA,060829.00,3412.0465,N,12008.2136,W,1,09,1.0,9.9,M,-33.6,M,,*56
$PYRTM,2024,123.255918114178,14.365565524317
$GPGGA,060830.00,3412.0469,N,12008.2152,W,1,09,1.0,10.0,M,-33.6,M,,*61
$PYRTM,2024,123.255929665069,14.365577075208
$GPGGA,060831.00,3412.0473,N,12008.2171,W,1,09,1.0,9.4,M,-33.6,M,,*56
$PYRTM,2024,123.255936365637,14.365583775775
$GPGGA,060832.00,3412.0475,N,12008.2188,W,1,09,1.0,8.9,M,-33.6,M,,*59
$PYRTM,2024,123.255952814201,14.365600224340
$GPGGA,060833.00,3412.0477,N,12008.2202,W,1,09,1.0,9.1,M,-33.6,M,,*52
$PYRTM,2024,123.255964386181,14.365611796319
$GPGGA,060834.00,3412.0480,N,12008.2216,W,1,09,1.0,9.5,M,-33.6,M,,*5C
$PYRTM,2024,123.255971665903,14.365619076042
$GPGGA,060835.00,3412.0484,N,12008.2233,W,1,09,1.0,9.5,M,-33.6,M,,*5E
$PYRTM,2024,123.255987545706,14.365634955845
$GPGGA,060836.00,3412.0489,N,12008.2253,W,1,09,1.0,8.9,M,-33.6,M,,*5B
$PYRTM,2024,123.255999110579,14.365646520718
$GPGGA,060837.00,3412.0491,N,12008.2269,W,1,09,1.0,8.6,M,-33.6,M,,*55
$PYRTM,2024,123.256010684005,14.365658094144
$GPGGA,060838.00,3412.0491,N,12008.2282,W,1,09,1.0,9.0,M,-33.6,M,,*58
$PYRTM,2024,123.256022257569,14.365669667708
