$PYRTM,2024,122.166670322731,13.276317732870
$GPGGA,035959.00,3318.5246,N,11856.6431,W,1,09,0.8,9.0,M,-34.8,M,,*50
$PYRTM,2024,122.166681895000,13.276329305139
$GPGGA,040000.00,3318.5249,N,11856.6456,W,1,09,0.8,8.6,M,-34.8,M,,*5E
$PYRTM,2024,122.166693469005,13.276340879144
$GPGGA,040001.00,3318.5254,N,11856.6481,W,1,09,0.8,8.9,M,-34.8,M,,*56
$PYRTM,2024,122.166705043241,13.276352453380
$GPGGA,040002.00,3318.5261,N,11856.6512,W,1,09,0.8,9.2,M,-34.8,M,,*52
$PYRTM,2024,122.166716617604,13.276364027743
$GPGGA,040003.00,3318.5268,N,11856.6543,W,1,09,0.8,8.7,M,-34.8,M,,*5A
$PYRTM,2024,122.166728216725,13.276375626863
$GPGGA,040004.00,3318.5272,N,11856.6569,W,1,09,0.8,9.0,M,-34.8,M,,*58
$PYRTM,2024,122.166739765556,13.276387175694
$GPGGA,040005.00,3318.5275,N,11856.6592,W,1,09,0.8,9.7,M,-34.8,M,,*5D
$PYRTM,2024,122.166751347998,13.276398758137
$GPGGA,040006.00,3318.5280,N,11856.6619,W,1,09,0.8,10.2,M,-34.8,M,,*69
$PYRTM,2024,122.166758746840,13.276406156979
$GPGGA,040007.00,3318.5287,N,11856.6647,W,1,09,0.8,10.5,M,-34.8,M,,*63
$PYRTM,2024,122.166774496562,13.276421906701
$GPGGA,040008.00,3318.5293,N,11856.6676,W,1,09,0.8,9.9,M,-34.8,M,,*5F
$PYRTM,2024,122.166786062593,13.276433472731
$GPGGA,040009.00,3318.5298,N,11856.6703,W,1,09,0.8,9.3,M,-34.8,M,,*5C
$PYRTM,2024,122.166797636007,13.276445046146
$GPGGA,040010.00,3318.5303,N,11856.6729,W,1,09,0.8,9.1,M,-34.8,M,,*5D
$PYRTM,2024,122.166809205694,13.276456615833
$GPGGA,040011.00,3318.5309,N,11856.6754,W,1,09,0.8,9.1,M,-34.8,M,,*5C
$PYRTM,2024,122.166820796748,13.276468206887
$GPGGA,040012.00,3318.5315,N,11856.6782,W,1,09,0.8,9.2,M,-34.8,M,,*5A
$PYRTM,2024,122.166832359572,13.276479769711
$GPGGA,040013.00,3318.5320,N,11856.6810,W,1,09,0.8,9.4,M,-34.8,M,,*5F
$PYRTM,2024,122.166839639769,13.276487049919
$GPGGA,040014.00,3318.5325,N,11856.6839,W,1,09,0.8,9.3,M,-34.8,M,,*51
$PYRTM,2024,122.166855508171,13.276502918322
$GPGGA,040015.00,3318.5330,N,11856.6866,W,1,09,0.8,9.2,M,-34.8,M,,*5F
$PYRTM,2024,122.166867081979,13.276514492118
$GPGGA,040016.00,3318.5335,N,11856.6894,W,1,09,0.8,9.7,M,-34.8,M,,*51
$PYRTM,2024,122.166878656111,13.276526066250
$GPGGA,040017.00,3318.5340,N,11856.6923,W,1,09,0.8,9.8,M,-34.8,M,,*50
$PYRTM,2024,122.166890238785,13.276537648924
$GPGGA,040018.00,3318.5346,N,11856.6950,W,1,09,0.8,9.7,M,-34.8,M,,*52
$PYRTM,2024,122.166897509664,13.276544919803
$GPGGA,040019.00,3318.5351,N,11856.6974,W,1,09,0.8,8.7,M,-34.8,M,,*52
$PYRTM,2024,122.166916279850,13.276563689988
$GPGGA,040020.00,3318.5359,N,11856.6999,W,1,09,0.8,10.0,M,-34.8,M,,*6D
$PYRTM,2024,122.166927727674,13.276575137812
$GPGGA,040021.00,3318.5367,N,11856.7026,W,1,09,0.8,9.8,M,-34.8,M,,*5D
$PYRTM,2024,122.166939292130,13.276586702269
$GPGGA,040022.00,3318.5371,N,11856.7057,W,1,09,0.8,9.0,M,-34.8,M,,*57
$PYRTM,2024,122.166948102280,13.276595512419
$GPGGA,040023.00,3318.5375,N,11856.7086,W,1,09,0.8,8.9,M,-34.8,M,,*56
$PYRTM,2024,122.166959662824,13.276607072963
$GPGGA,040024.00,3318.5381,N,11856.7111,W,1,09,0.8,9.2,M,-34.8,M,,*5F
$PYRTM,2024,122.166971267627,13.276618677766
$GPGGA,040025.00,3318.5389,N,11856.7136,W,1,09,0.8,10.1,M,-34.8,M,,*68
$PYRTM,2024,122.166982811019,13.276630221157
$GPGGA,040026.00,3318.5397,N,11856.7165,W,1,09,0.8,10.3,M,-34.8,M,,*60
$PYRTM,2024,122.166994412419,13.276641822569
$GPGGA,040027.00,3318.5400,N,11856.7195,W,1,09,0.8,8.7,M,-34.8,M,,*5A
$PYRTM,2024,122.167001677095,13.276649087234
$GPGGA,040028.00,3318.5405,N,11856.7220,W,1,09,0.8,9.9,M,-34.8,M,,*52
$PYRTM,2024,122.167017550509,13.276664960648
$GPGGA,040029.00,3318.5410,N,11856.7244,W,1,09,0.8,9.0,M,-34.8,M,,*5C
$PYRTM,2024,122.167029108310,13.276676518449
$GPGGA,040030.00,3318.5418,N,11856.7272,W,1,09,0.8,8.8,M,-34.8,M,,*50
$PYRTM,2024,122.167040697465,13.276688107604
$GPGGA,040031.00,3318.5424,N,11856.7301,W,1,09,0.8,8.6,M,-34.8,M,,*55
$PYRTM,2024,122.167052255093,13.276699665231
$GPGGA,040032.00,3318.5428,N,11856.7328,W,1,09,0.8,8.4,M,-34.8,M,,*53
$PYRTM,2024,122.167063843762,13.276711253900
$GPGGA,040033.00,3318.5432,N,11856.7355,W,1,09,0.8,8.6,M,-34.8,M,,*51
$PYRTM,2024,122.167075404028,13.276722814167
$GPGGA,040034.00,3318.5438,N,11856.7381,W,1,09,0.8,8.9,M,-34.8,M,,*5A
$PYRTM,2024,122.167086991308,13.276734401447
$GPGGA,040035.00,3318.5445,N,11856.7408,W,1,09,0.8,8.8,M,-34.8,M,,*56
$PYRTM,2024,122.167098552338,13.276745962488
$GPGGA,040036.00,3318.5451,N,11856.7437,W,1,09,0.8,8.5,M,-34.8,M,,*51
$PYRTM,2024,122.167110139861,13.276757550000
$GPGGA,040037.00,3318.5456,N,11856.7465,W,1,09,0.8,8.1,M,-34.8,M,,*54
$PYRTM,2024,122.167121699213,13.276769109352
$GPGGA,040038.00,3318.5460,N,11856.7491,W,1,09,0.8,8.4,M,-34.8,M,,*50
$PYRTM,2024,122.167133288102,13.276780698252
$GPGGA,040039.00,3318.5465,N,11856.7517,W,1,09,0.8,9.1,M,-34.8,M,,*5F
$PYRTM,2024,122.167144848588,13.276792258727
$GPGGA,040040.00,3318.5471,N,11856.7544,W,1,09,0.8,9.6,M,-34.8,M,,*55
$PYRTM,2024,122.167152256516,13.276799666655
$GPGGA,040041.00,3318.5478,N,11856.7571,W,1,09,0.8,10.5,M,-34.8,M,,*60
$PYRTM,2024,122.167167998403,13.276815408542
$GPGGA,040042.00,3318.5483,N,11856.7599,W,1,09,0.8,8.8,M,-34.8,M,,*55
$PYRTM,2024,122.167179587187,13.276826997326
$GPGGA,040043.00,3318.5489,N,11856.7627,W,1,09,0.8,8.1,M,-34.8,M,,*51
$PYRTM,2024,122.167186876400,13.276834286539
$GPGGA,040044.00,3318.5496,N,11856.7656,W,1,09,0.8,7.5,M,-34.8,M,,*55
$PYRTM,2024,122.167202728056,13.276850138194
$GPGGA,040045.00,3318.5500,N,11856.7683,W,1,09,0.8,7.4,M,-34.8,M,,*53
$PYRTM,2024,122.167214294352,13.276861704491
$GPGGA,040046.00,3318.5504,N,11856.7708,W,1,09,0.8,8.4,M,-34.8,M,,*59
$PYRTM,2024,122.167225876632,13.276873286771
$GPGGA,040047.00,3318.5508,N,11856.7737,W,1,09,0.8,9.1,M,-34.8,M,,*5C
$PYRTM,2024,122.167237443218,13.276884853356
$GPGGA,040048.00,3318.5515,N,11856.7768,W,1,09,0.8,8.9,M,-34.8,M,,*5C
$PYRTM,2024,122.167249030706,13.276896440845
$GPGGA,040049.00,3318.5521,N,11856.7797,W,1,09,0.8,8.3,M,-34.8,M,,*50
$PYRTM,2024,122.167256310081,13.276903720231
$GPGGA,040050.00,3318.5526,N,11856.7821,W,1,09,0.8,8.0,M,-34.8,M,,*5E
$PYRTM,2024,122.167274960856,13.276922370995
$GPGGA,040051.00,3318.5529,N,11856.7844,W,1,09,0.8,8.6,M,-34.8,M,,*55
$PYRTM,2024,122.167283739850,13.276931149988
$GPGGA,040052.00,3318.5534,N,11856.7872,W,1,09,0.8,8.8,M,-34.8,M,,*51
$PYRTM,2024,122.167295329132,13.276942739271
$GPGGA,040053.00,3318.5541,N,11856.7902,W,1,09,0.8,8.3,M,-34.8,M,,*5F
$PYRTM,2024,122.167306887164,13.276954297303
$GPGGA,040054.00,3318.5548,N,11856.7928,W,1,09,0.8,8.0,M,-34.8,M,,*5A
$PYRTM,2024,122.167314180405,13.276961590556
$GPGGA,040055.00,3318.5554,N,11856.7952,W,1,09,0.8,8.2,M,-34.8,M,,*59
$PYRTM,2024,122.167330035440,13.276977445579
$GPGGA,040056.00,3318.5558,N,11856.7978,W,1,09,0.8,8.7,M,-34.8,M,,*5B
$PYRTM,2024,122.167341625150,13.276989035289
$GPGGA,040057.00,3318.5562,N,11856.8006,W,1,09,0.8,8.7,M,-34.8,M,,*5C
$PYRTM,2024,122.167353183831,13.277000593970
$GPGGA,040058.00,3318.5568,N,11856.8034,W,1,09,0.8,8.4,M,-34.8,M,,*5B
$PYRTM,2024,122.167364787060,13.277012197199
$GPGGA,040059.00,3318.5575,N,11856.8063,W,1,09,0.8,7.9,M,-34.8,M,,*56
$PYRTM,2024,122.167376333299,13.277023743438
$GPGGA,040100.00,3318.5580,N,11856.8089,W,1,09,0.8,8.1,M,-34.8,M,,*52
$PYRTM,2024,122.167387933831,13.277035343970
$GPGGA,040101.00,3318.5584,N,11856.8115,W,1,09,0.8,9.0,M,-34.8,M,,*53
$PYRTM,2024,122.167399480417,13.277046890556
$GPGGA,040102.00,3318.5588,N,11856.8144,W,1,09,0.8,9.0,M,-34.8,M,,*58
$PYRTM,2024,122.167411069815,13.277058479965
$GPGGA,040103.00,3318.5594,N,11856.8174,W,1,09,0.8,8.6,M,-34.8,M,,*50
$PYRTM,2024,122.167422630116,13.277070040255
$GPGGA,040104.00,3318.5601,N,11856.8199,W,1,09,0.8,9.4,M,-34.8,M,,*58
$PYRTM,2024,122.167434211551,13.277081621690
$GPGGA,040105.00,3318.5606,N,11856.8226,W,1,09,0.8,8.8,M,-34.8,M,,*54
$PYRTM,2024,122.167445777014,13.277093187153
$GPGGA,040106.00,3318.5612,N,11856.8253,W,1,09,0.8,9.2,M,-34.8,M,,*5B
$PYRTM,2024,122.167457363715,13.277104773854
$GPGGA,040107.00,3318.5616,N,11856.8282,W,1,09,0.8,9.0,M,-34.8,M,,*50
$PYRTM,2024,122.167468926227,13.277116336366
$GPGGA,040108.00,3318.5621,N,11856.8310,W,1,09,0.8,8.9,M,-34.8,M,,*59
$PYRTM,2024,122.167480512072,13.277127922211
$GPGGA,040109.00,3318.5626,N,11856.8337,W,1,09,0.8,9.1,M,-34.8,M,,*53
$PYRTM,2024,122.167492075255,13.277139485394
$GPGGA,040110.00,3318.5632,N,11856.8362,W,1,09,0.8,9.5,M,-34.8,M,,*5A
$PYRTM,2024,122.167503660428,13.277151070567
$GPGGA,040111.00,3318.5638,N,11856.8387,W,1,09,0.8,10.0,M,-34.8,M,,*67
$PYRTM,2024,122.167515222234,13.277162632373
$GPGGA,040112.00,3318.5643,N,11856.8416,W,1,09,0.8,9.6,M,-34.8,M,,*59
$PYRTM,2024,122.167526822975,13.277174233113
$GPGGA,040113.00,3318.5648,N,11856.8448,W,1,09,0.8,8.4,M,-34.8,M,,*5B
$PYRTM,2024,122.167538371435,13.277185781574
$GPGGA,040114.00,3318.5652,N,11856.8473,W,1,09,0.8,8.9,M,-34.8,M,,*52
$PYRTM,2024,122.167549973009,13.277197383160
$GPGGA,040115.00,3318.5658,N,11856.8495,W,1,09,0.8,8.8,M,-34.8,M,,*50
$PYRTM,2024,122.167561518681,13.277208928819
$GPGGA,040116.00,3318.5664,N,11856.8522,W,1,09,0.8,9.6,M,-34.8,M,,*5E
$PYRTM,2024,122.167573101296,13.277220511435
$GPGGA,040117.00,3318.5669,N,11856.8553,W,1,09,0.8,8.9,M,-34.8,M,,*5A
$PYRTM,2024,122.167580400289,13.277227810428
$GPGGA,040118.00,3318.5674,N,11856.8581,W,1,09,0.8,8.7,M,-34.8,M,,*58
$PYRTM,2024,122.167596255162,13.277243665301
$GPGGA,040119.00,3318.5680,N,11856.8606,W,1,09,0.8,9.1,M,-34.8,M,,*59
$PYRTM,2024,122.167607813981,13.277255224120
$GPGGA,040120.00,3318.5686,N,11856.8633,W,1,09,0.8,9.0,M,-34.8,M,,*52
$PYRTM,2024,122.167615222720,13.277262632859
$GPGGA,040121.00,3318.5691,N,11856.8659,W,1,09,0.8,8.9,M,-34.8,M,,*51
$PYRTM,2024,122.167633877870,13.277281288009
$GPGGA,040122.00,3318.5697,N,11856.8685,W,1,09,0.8,8.9,M,-34.8,M,,*55
$PYRTM,2024,122.167642551898,13.277289962049
$GPGGA,040123.00,3318.5704,N,11856.8710,W,1,09,0.8,9.0,M,-34.8,M,,*5A
$PYRTM,2024,122.167654112488,13.277301522627
$GPGGA,040124.00,3318.5711,N,11856.8735,W,1,09,0.8,9.0,M,-34.8,M,,*5E
$PYRTM,2024,122.167665699977,13.277313110116
$GPGGA,040125.00,3318.5715,N,11856.8763,W,1,09,0.8,8.7,M,-34.8,M,,*5E
$PYRTM,2024,122.167677261736,13.277324671875
$GPGGA,040126.00,3318.5718,N,11856.8791,W,1,09,0.8,8.4,M,-34.8,M,,*5E
$PYRTM,2024,122.167688847766,13.277336257905
$GPGGA,040127.00,3318.5724,N,11856.8818,W,1,09,0.8,7.7,M,-34.8,M,,*52
$PYRTM,2024,122.167700410289,13.277347820428
$GPGGA,040128.00,3318.5731,N,11856.8843,W,1,09,0.8,8.3,M,-34.8,M,,*5C
$PYRTM,2024,122.167707700243,13.277355110382
$GPGGA,040129.00,3318.5739,N,11856.8870,W,1,09,0.8,8.9,M,-34.8,M,,*5F
$PYRTM,2024,122.167723557211,13.277370967350
$GPGGA,040130.00,3318.5744,N,11856.8898,W,1,09,0.8,9.2,M,-34.8,M,,*51
$PYRTM,2024,122.167735144977,13.277382555116
$GPGGA,040131.00,3318.5748,N,11856.8925,W,1,09,0.8,9.5,M,-34.8,M,,*5C
$PYRTM,2024,122.167746705972,13.277394116111
$GPGGA,040132.00,3318.5753,N,11856.8954,W,1,09,0.8,9.1,M,-34.8,M,,*57
$PYRTM,2024,122.167758292593,13.277405702731
$GPGGA,040133.00,3318.5759,N,11856.8980,W,1,09,0.8,9.6,M,-34.8,M,,*52
$PYRTM,2024,122.167769854595,13.277417264734
$GPGGA,040134.00,3318.5766,N,11856.9005,W,1,09,0.8,9.0,M,-34.8,M,,*5A
$PYRTM,2024,122.167781440880,13.277428851019
$GPGGA,040135.00,3318.5772,N,11856.9033,W,1,09,0.8,8.7,M,-34.8,M,,*5D
$PYRTM,2024,122.167793001829,13.277440411968
$GPGGA,040136.00,3318.5777,N,11856.9063,W,1,09,0.8,9.0,M,-34.8,M,,*58
$PYRTM,2024,122.167804591204,13.277452001343
$GPGGA,040137.00,3318.5781,N,11856.9092,W,1,09,0.8,8.1,M,-34.8,M,,*5E
$PYRTM,2024,122.167816151076,13.277463561215
$GPGGA,040138.00,3318.5786,N,11856.9118,W,1,09,0.8,8.6,M,-34.8,M,,*52
$PYRTM,2024,122.167827737326,13.277475147465
$GPGGA,040139.00,3318.5793,N,11856.9144,W,1,09,0.8,7.6,M,-34.8,M,,*51
$PYRTM,2024,122.167839298611,13.277486708750
$GPGGA,040140.00,3318.5799,N,11856.9172,W,1,09,0.8,7.8,M,-34.8,M,,*5E
$PYRTM,2024,122.167850885914,13.277498296053
$GPGGA,040141.00,3318.5804,N,11856.9200,W,1,09,0.8,8.1,M,-34.8,M,,*54
$PYRTM,2024,122.167862447558,13.277509857697
$GPGGA,040142.00,3318.5808,N,11856.9225,W,1,09,0.8,8.4,M,-34.8,M,,*59
$PYRTM,2024,122.167869738854,13.277517148993
$GPGGA,040143.00,3318.5814,N,11856.9252,W,1,09,0.8,8.5,M,-34.8,M,,*54
$PYRTM,2024,122.167885595486,13.277533005625
$GPGGA,040144.00,3318.5821,N,11856.9282,W,1,09,0.8,8.2,M,-34.8,M,,*5F
$PYRTM,2024,122.167897185775,13.277544595914
$GPGGA,040145.00,3318.5828,N,11856.9308,W,1,09,0.8,8.9,M,-34.8,M,,*5F
$PYRTM,2024,122.167904462963,13.277551873102
$GPGGA,040146.00,3318.5834,N,11856.9331,W,1,09,0.8,8.5,M,-34.8,M,,*57
$PYRTM,2024,122.167920330544,13.277567740683
$GPGGA,040147.00,3318.5841,N,11856.9358,W,1,09,0.8,8.5,M,-34.8,M,,*5B
$PYRTM,2024,122.167931892836,13.277579302975
$GPGGA,040148.00,3318.5847,N,11856.9388,W,1,09,0.8,8.2,M,-34.8,M,,*58
$PYRTM,2024,122.167939185069,13.277586595208
$GPGGA,040149.00,3318.5851,N,11856.9416,W,1,09,0.8,8.4,M,-34.8,M,,*58
$PYRTM,2024,122.167955040440,13.277602450579
$GPGGA,040150.00,3318.5854,N,11856.9442,W,1,09,0.8,9.3,M,-34.8,M,,*52
$PYRTM,2024,122.167966628056,13.277614038194
$GPGGA,040151.00,3318.5860,N,11856.9470,W,1,09,0.8,9.4,M,-34.8,M,,*52
$PYRTM,2024,122.167973909109,13.277621319248
$GPGGA,040152.00,3318.5866,N,11856.9500,W,1,09,0.8,9.0,M,-34.8,M,,*55
$PYRTM,2024,122.167992549120,13.277639959259
$GPGGA,040153.00,3318.5872,N,11856.9528,W,1,09,0.8,8.5,M,-34.8,M,,*5F
$PYRTM,2024,122.168001337407,13.277648747558
$GPGGA,040154.00,3318.5878,N,11856.9554,W,1,09,0.8,7.9,M,-34.8,M,,*5A
$PYRTM,2024,122.168008631146,13.277656041285
$GPGGA,040155.00,3318.5883,N,11856.9579,W,1,09,0.8,8.7,M,-34.8,M,,*51
$PYRTM,2024,122.168024486690,13.277671896829
$GPGGA,040156.00,3318.5887,N,11856.9606,W,1,09,0.8,8.8,M,-34.8,M,,*52
$PYRTM,2024,122.168036075324,13.277683485463
$GPGGA,040157.00,3318.5894,N,11856.9634,W,1,09,0.8,8.3,M,-34.8,M,,*5B
$PYRTM,2024,122.168047633854,13.277695043993
$GPGGA,040158.00,3318.5901,N,11856.9661,W,1,09,0.8,7.6,M,-34.8,M,,*53
$PYRTM,2024,122.168059224456,13.277706634595
$GPGGA,040159.00,3318.5908,N,11856.9689,W,1,09,0.8,8.3,M,-34.8,M,,*57
$PYRTM,2024,122.168066501597,13.277713911748
$GPGGA,040200.00,3318.5912,N,11856.9718,W,1,09,0.8,8.6,M,-34.8,M,,*5F
$PYRTM,2024,122.168082368681,13.277729778819
$GPGGA,040201.00,3318.5915,N,11856.9746,W,1,09,0.8,8.7,M,-34.8,M,,*53
$PYRTM,2024,122.168093931192,13.277741341331
$GPGGA,040202.00,3318.5920,N,11856.9775,W,1,09,0.8,8.4,M,-34.8,M,,*55
$PYRTM,2024,122.168105517998,13.277752928137
$GPGGA,040203.00,3318.5927,N,11856.9803,W,1,09,0.8,8.5,M,-34.8,M,,*5C
$PYRTM,2024,122.168117079236,13.277764489375
$GPGGA,040204.00,3318.5933,N,11856.9830,W,1,09,0.8,8.6,M,-34.8,M,,*5D
$PYRTM,2024,122.168128667824,13.277776077963
$GPGGA,040205.00,3318.5939,N,11856.9857,W,1,09,0.8,8.5,M,-34.8,M,,*54
$PYRTM,2024,122.168140225637,13.277787635775
$GPGGA,040206.00,3318.5945,N,11856.9883,W,1,09,0.8,8.8,M,-34.8,M,,*58
$PYRTM,2024,122.168151809375,13.277799219514
$GPGGA,040207.00,3318.5949,N,11856.9909,W,1,09,0.8,9.0,M,-34.8,M,,*5F
$PYRTM,2024,122.168159093183,13.277806503322
$GPGGA,040208.00,3318.5954,N,11856.9937,W,1,09,0.8,8.8,M,-34.8,M,,*58
$PYRTM,2024,122.168174958310,13.277822368461
$GPGGA,040209.00,3318.5960,N,11856.9966,W,1,09,0.8,8.4,M,-34.8,M,,*56
$PYRTM,2024,122.168186523067,13.277833933206
$GPGGA,040210.00,3318.5967,N,11856.9995,W,1,09,0.8,7.8,M,-34.8,M,,*56
$PYRTM,2024,122.168198110498,13.277845520637
$GPGGA,040211.00,3318.5974,N,11857.0021,W,1,09,0.8,7.5,M,-34.8,M,,*56
$PYRTM,2024,122.168209671424,13.277857081562
$GPGGA,040212.00,3318.5979,N,11857.0046,W,1,09,0.8,8.1,M,-34.8,M,,*52
$PYRTM,2024,122.168221274769,13.277868684919
$GPGGA,040213.00,3318.5982,N,11857.0072,W,1,09,0.8,9.3,M,-34.8,M,,*53
$PYRTM,2024,122.168232819965,13.277880230104
$GPGGA,040214.00,3318.5987,N,11857.0103,W,1,09,0.8,9.4,M,-34.8,M,,*51
$PYRTM,2024,122.168244421424,13.277891831563
$GPGGA,040215.00,3318.5993,N,11857.0133,W,1,09,0.8,8.7,M,-34.8,M,,*54
$PYRTM,2024,122.168255971505,13.277903381644
$GPGGA,040216.00,3318.5998,N,11857.0159,W,1,09,0.8,8.3,M,-34.8,M,,*54
$PYRTM,2024,122.168267552419,13.277914962569
$GPGGA,040217.00,3318.6003,N,11857.0184,W,1,09,0.8,8.3,M,-34.8,M,,*5D
$PYRTM,2024,122.168274842963,13.277922253113
$GPGGA,040218.00,3318.6009,N,11857.0211,W,1,09,0.8,8.7,M,-34.8,M,,*53
$PYRTM,2024,122.168290703796,13.277938113935
$GPGGA,040219.00,3318.6015,N,11857.0240,W,1,09,0.8,8.7,M,-34.8,M,,*5B
$PYRTM,2024,122.168302265602,13.277949675741
$GPGGA,040220.00,3318.6020,N,11857.0269,W,1,09,0.8,8.6,M,-34.8,M,,*5D
$PYRTM,2024,122.168309558947,13.277956969097
$GPGGA,040221.00,3318.6023,N,11857.0296,W,1,09,0.8,8.6,M,-34.8,M,,*5F
$PYRTM,2024,122.168325412882,13.277972823021
$GPGGA,040222.00,3318.6029,N,11857.0323,W,1,09,0.8,8.6,M,-34.8,M,,*59
$PYRTM,2024,122.168332706146,13.277980116285
$GPGGA,040223.00,3318.6037,N,11857.0350,W,1,09,0.8,8.7,M,-34.8,M,,*52
$PYRTM,2024,122.168351339120,13.277998749271
$GPGGA,040224.00,3318.6042,N,11857.0378,W,1,09,0.8,8.5,M,-34.8,M,,*5F
$PYRTM,2024,122.168360162326,13.278007572465
$GPGGA,040225.00,3318.6046,N,11857.0408,W,1,09,0.8,8.3,M,-34.8,M,,*5C
$PYRTM,2024,122.168367429271,13.278014839410
$GPGGA,040226.00,3318.6050,N,11857.0435,W,1,09,0.8,8.3,M,-34.8,M,,*56
$PYRTM,2024,122.168383300486,13.278030710625
$GPGGA,040227.00,3318.6055,N,11857.0461,W,1,09,0.8,9.0,M,-34.8,M,,*51
$PYRTM,2024,122.168390578935,13.278037989074
$GPGGA,040228.00,3318.6060,N,11857.0489,W,1,09,0.8,9.6,M,-34.8,M,,*58
$PYRTM,2024,122.168402393426,13.278049803565
$GPGGA,040229.00,3318.6067,N,11857.0521,W,1,09,0.8,9.3,M,-34.8,M,,*58
$PYRTM,2024,122.168418007164,13.278065417303
$GPGGA,040230.00,3318.6072,N,11857.0550,W,1,09,0.8,9.3,M,-34.8,M,,*52
$PYRTM,2024,122.168429589086,13.278076999225
$GPGGA,040231.00,3318.6076,N,11857.0572,W,1,09,0.8,9.6,M,-34.8,M,,*52
$PYRTM,2024,122.168437000984,13.278084411123
$GPGGA,040232.00,3318.6082,N,11857.0594,W,1,09,0.8,10.2,M,-34.8,M,,*6E
$PYRTM,2024,122.168452742407,13.278100152546
$GPGGA,040233.00,3318.6089,N,11857.0624,W,1,09,0.8,9.2,M,-34.8,M,,*54
$PYRTM,2024,122.168464303866,13.278111714005
$GPGGA,040234.00,3318.6096,N,11857.0657,W,1,09,0.8,8.2,M,-34.8,M,,*58
$PYRTM,2024,122.168471596273,13.278119006412
$GPGGA,040235.00,3318.6099,N,11857.0684,W,1,09,0.8,7.4,M,-34.8,M,,*51
$PYRTM,2024,122.168487451933,13.278134862072
$GPGGA,040236.00,3318.6102,N,11857.0706,W,1,09,0.8,9.1,M,-34.8,M,,*51
$PYRTM,2024,122.168499036088,13.278146446227
$GPGGA,040237.00,3318.6106,N,11857.0730,W,1,09,0.8,10.0,M,-34.8,M,,*68
$PYRTM,2024,122.168510600162,13.278158010312
$GPGGA,040238.00,3318.6112,N,11857.0763,W,1,09,0.8,10.1,M,-34.8,M,,*65
$PYRTM,2024,122.168522182361,13.278169592500
$GPGGA,040239.00,3318.6117,N,11857.0796,W,1,09,0.8,8.2,M,-34.8,M,,*51
$PYRTM,2024,122.168533748299,13.278181158437
$GPGGA,040240.00,3318.6120,N,11857.0820,W,1,09,0.8,7.4,M,-34.8,M,,*50
$PYRTM,2024,122.168545338391,13.278192748530
$GPGGA,040241.00,3318.6124,N,11857.0837,W,1,09,0.8,7.9,M,-34.8,M,,*5E
$PYRTM,2024,122.168556896690,13.278204306829
$GPGGA,040242.00,3318.6131,N,11857.0861,W,1,09,0.8,8.8,M,-34.8,M,,*54
$PYRTM,2024,122.168568487535,13.278215897674
$GPGGA,040243.00,3318.6139,N,11857.0891,W,1,09,0.8,8.4,M,-34.8,M,,*5E
$PYRTM,2024,122.168580045556,13.278227455694
$GPGGA,040244.00,3318.6143,N,11857.0920,W,1,09,0.8,7.7,M,-34.8,M,,*53
$PYRTM,2024,122.168591632187,13.278239042326
$GPGGA,040245.00,3318.6148,N,11857.0941,W,1,09,0.8,7.7,M,-34.8,M,,*5E
$PYRTM,2024,122.168603193704,13.278250603843
$GPGGA,040246.00,3318.6154,N,11857.0963,W,1,09,0.8,8.0,M,-34.8,M,,*58
$PYRTM,2024,122.168614781377,13.278262191516
$GPGGA,040247.00,3318.6160,N,11857.0989,W,1,09,0.8,8.2,M,-34.8,M,,*58
$PYRTM,2024,122.168626340810,13.278273750961
$GPGGA,040248.00,3318.6165,N,11857.1018,W,1,09,0.8,8.4,M,-34.8,M,,*54
$PYRTM,2024,122.168637928819,13.278285338958
$GPGGA,040249.00,3318.6169,N,11857.1045,W,1,09,0.8,8.7,M,-34.8,M,,*52
$PYRTM,2024,122.168649490671,13.278296900810
$GPGGA,040250.00,3318.6175,N,11857.1069,W,1,09,0.8,8.9,M,-34.8,M,,*57
$PYRTM,2024,122.168661072141,13.278308482280
$GPGGA,040251.00,3318.6182,N,11857.1094,W,1,09,0.8,7.9,M,-34.8,M,,*53
$PYRTM,2024,122.168672639109,13.278320049248
$GPGGA,040252.00,3318.6188,N,11857.1119,W,1,09,0.8,8.8,M,-34.8,M,,*50
$PYRTM,2024,122.168684220278,13.278331630417
$GPGGA,040253.00,3318.6194,N,11857.1142,W,1,09,0.8,8.5,M,-34.8,M,,*5F
$PYRTM,2024,122.168691504780,13.278338914919
$GPGGA,040254.00,3318.6199,N,11857.1166,W,1,09,0.8,8.7,M,-34.8,M,,*51
$PYRTM,2024,122.168710146690,13.278357556829
$GPGGA,040255.00,3318.6205,N,11857.1192,W,1,09,0.8,8.8,M,-34.8,M,,*52
$PYRTM,2024,122.168718936181,13.278366346319
$GPGGA,040256.00,3318.6212,N,11857.1219,W,1,09,0.8,8.6,M,-34.8,M,,*59
$PYRTM,2024,122.168726226794,13.278373636933
$GPGGA,040257.00,3318.6217,N,11857.1247,W,1,09,0.8,8.0,M,-34.8,M,,*50
$PYRTM,2024,122.168742083854,13.278389493993
$GPGGA,040258.00,3318.6222,N,11857.1274,W,1,09,0.8,8.2,M,-34.8,M,,*5B
$PYRTM,2024,122.168753670579,13.278401080718
$GPGGA,040259.00,3318.6227,N,11857.1302,W,1,09,0.8,8.0,M,-34.8,M,,*5D
$PYRTM,2024,122.168765232859,13.278412642998
$GPGGA,040300.00,3318.6234,N,11857.1331,W,1,09,0.8,7.9,M,-34.8,M,,*54
$PYRTM,2024,122.168776814653,13.278424224792
$GPGGA,040301.00,3318.6239,N,11857.1357,W,1,09,0.8,7.7,M,-34.8,M,,*56
$PYRTM,2024,122.168788379873,13.278435790012
$GPGGA,040302.00,3318.6244,N,11857.1380,W,1,09,0.8,8.3,M,-34.8,M,,*5E
$PYRTM,2024,122.168799966701,13.278447376840
$GPGGA,040303.00,3318.6251,N,11857.1407,W,1,09,0.8,8.1,M,-34.8,M,,*51
$PYRTM,2024,122.168811529248,13.278458939387
$GPGGA,040304.00,3318.6258,N,11857.1438,W,1,09,0.8,7.4,M,-34.8,M,,*59
$PYRTM,2024,122.168823117454,13.278470527593
$GPGGA,040305.00,3318.6263,N,11857.1465,W,1,09,0.8,7.0,M,-34.8,M,,*5C
$PYRTM,2024,122.168834675567,13.278482085706
$GPGGA,040306.00,3318.6266,N,11857.1486,W,1,09,0.8,7.0,M,-34.8,M,,*57
$PYRTM,2024,122.168846263414,13.278493673553
$GPGGA,040307.00,3318.6273,N,11857.1509,W,1,09,0.8,7.7,M,-34.8,M,,*53
$PYRTM,2024,122.168857823171,13.278505233299
$GPGGA,040308.00,3318.6280,N,11857.1541,W,1,09,0.8,7.5,M,-34.8,M,,*5E
$PYRTM,2024,122.168869411667,13.278516821817
$GPGGA,040309.00,3318.6284,N,11857.1571,W,1,09,0.8,7.5,M,-34.8,M,,*58
$PYRTM,2024,122.168880972500,13.278528382639
$GPGGA,040310.00,3318.6286,N,11857.1596,W,1,09,0.8,8.3,M,-34.8,M,,*52
$PYRTM,2024,122.168892565394,13.278539975532
$GPGGA,040311.00,3318.6291,N,11857.1620,W,1,09,0.8,9.0,M,-34.8,M,,*59
$PYRTM,2024,122.168904120822,13.278551530961
$GPGGA,040312.00,3318.6298,N,11857.1646,W,1,09,0.8,9.2,M,-34.8,M,,*51
$PYRTM,2024,122.168915702431,13.278563112569
$GPGGA,040313.00,3318.6306,N,11857.1674,W,1,09,0.8,8.6,M,-34.8,M,,*52
$PYRTM,2024,122.168927269086,13.278574679225
$GPGGA,040314.00,3318.6312,N,11857.1701,W,1,09,0.8,7.8,M,-34.8,M,,*52
$PYRTM,2024,122.168938852037,13.278586262176
$GPGGA,040315.00,3318.6317,N,11857.1727,W,1,09,0.8,7.2,M,-34.8,M,,*58
$PYRTM,2024,122.168950420127,13.278597830266
$GPGGA,040316.00,3318.6321,N,11857.1750,W,1,09,0.8,7.6,M,-34.8,M,,*5A
$PYRTM,2024,122.168962005440,13.278609415590
$GPGGA,040317.00,3318.6326,N,11857.1775,W,1,09,0.8,8.1,M,-34.8,M,,*53
$PYRTM,2024,122.168973569537,13.278620979676
$GPGGA,040318.00,3318.6333,N,11857.1804,W,1,09,0.8,8.1,M,-34.8,M,,*51
$PYRTM,2024,122.168980858750,13.278628268900
$GPGGA,040319.00,3318.6341,N,11857.1833,W,1,09,0.8,7.4,M,-34.8,M,,*5B
$PYRTM,2024,122.168996716065,13.278644126204
$GPGGA,040320.00,3318.6346,N,11857.1859,W,1,09,0.8,7.3,M,-34.8,M,,*5D
$PYRTM,2024,122.169008303160,13.278655713299
$GPGGA,040321.00,3318.6348,N,11857.1884,W,1,09,0.8,7.5,M,-34.8,M,,*54
$PYRTM,2024,122.169015582083,13.278662992222
$GPGGA,040322.00,3318.6351,N,11857.1911,W,1,09,0.8,8.1,M,-34.8,M,,*59
$PYRTM,2024,122.169031450845,13.278678860984
$GPGGA,040323.00,3318.6358,N,11857.1938,W,1,09,0.8,7.6,M,-34.8,M,,*52
$PYRTM,2024,122.169043012222,13.278690422361
$GPGGA,040324.00,3318.6367,N,11857.1964,W,1,09,0.8,7.4,M,-34.8,M,,*52
$PYRTM,2024,122.169050303461,13.278697713600
$GPGGA,040325.00,3318.6373,N,11857.1989,W,1,09,0.8,7.4,M,-34.8,M,,*55
$PYRTM,2024,122.169069066111,13.278716476250
$GPGGA,040326.00,3318.6377,N,11857.2014,W,1,09,0.8,7.3,M,-34.8,M,,*5B
$PYRTM,2024,122.169077752720,13.278725162859
$GPGGA,040327.00,3318.6381,N,11857.2041,W,1,09,0.8,7.1,M,-34.8,M,,*51
$PYRTM,2024,122.169085142512,13.278732552662
$GPGGA,040328.00,3318.6387,N,11857.2067,W,1,09,0.8,7.2,M,-34.8,M,,*5F
$PYRTM,2024,122.169100890278,13.278748300417
$GPGGA,040329.00,3318.6395,N,11857.2092,W,1,09,0.8,7.3,M,-34.8,M,,*56
$PYRTM,2024,122.169112456586,13.278759866736
$GPGGA,040330.00,3318.6401,N,11857.2121,W,1,09,0.8,7.1,M,-34.8,M,,*5F
$PYRTM,2024,122.169119864630,13.278767274769
$GPGGA,040331.00,3318.6406,N,11857.2150,W,1,09,0.8,7.0,M,-34.8,M,,*5E
$PYRTM,2024,122.169135606921,13.278783017060
$GPGGA,040332.00,3318.6411,N,11857.2178,W,1,09,0.8,7.2,M,-34.8,M,,*53
$PYRTM,2024,122.169147192558,13.278794602697
$GPGGA,040333.00,3318.6416,N,11857.2204,W,1,09,0.8,7.8,M,-34.8,M,,*57
$PYRTM,2024,122.169158753553,13.278806163692
$GPGGA,040334.00,3318.6422,N,11857.2230,W,1,09,0.8,8.2,M,-34.8,M,,*55
$PYRTM,2024,122.169170343067,13.278817753206
$GPGGA,040335.00,3318.6429,N,11857.2258,W,1,09,0.8,8.0,M,-34.8,M,,*53
$PYRTM,2024,122.169177620810,13.278825030949
$GPGGA,040336.00,3318.6434,N,11857.2285,W,1,09,0.8,7.8,M,-34.8,M,,*5B
$PYRTM,2024,122.169193484931,13.278840895069
$GPGGA,040337.00,3318.6440,N,11857.2309,W,1,09,0.8,7.7,M,-34.8,M,,*53
$PYRTM,2024,122.169205051215,13.278852461354
$GPGGA,040338.00,3318.6448,N,11857.2335,W,1,09,0.8,7.5,M,-34.8,M,,*59
$PYRTM,2024,122.169212342940,13.278859753079
$GPGGA,040339.00,3318.6455,N,11857.2363,W,1,09,0.8,7.2,M,-34.8,M,,*50
$PYRTM,2024,122.169228198252,13.278875608391
$GPGGA,040340.00,3318.6459,N,11857.2391,W,1,09,0.8,6.9,M,-34.8,M,,*55
$PYRTM,2024,122.169239787963,13.278887198102
$GPGGA,040341.00,3318.6463,N,11857.2419,W,1,09,0.8,7.0,M,-34.8,M,,*52
$PYRTM,2024,122.169251346921,13.278898757060
$GPGGA,040342.00,3318.6469,N,11857.2446,W,1,09,0.8,7.4,M,-34.8,M,,*55
$PYRTM,2024,122.169262933900,13.278910344039
$GPGGA,040343.00,3318.6477,N,11857.2473,W,1,09,0.8,7.9,M,-34.8,M,,*50
$PYRTM,2024,122.169274496019,13.278921906157
$GPGGA,040344.00,3318.6484,N,11857.2502,W,1,09,0.8,8.2,M,-34.8,M,,*58
$PYRTM,2024,122.169286081123,13.278933491262
$GPGGA,040345.00,3318.6488,N,11857.2532,W,1,09,0.8,7.5,M,-34.8,M,,*5E
$PYRTM,2024,122.169297643935,13.278945054074
$GPGGA,040346.00,3318.6490,N,11857.2559,W,1,09,0.8,7.3,M,-34.8,M,,*5F
$PYRTM,2024,122.169309229873,13.278956640012
$GPGGA,040347.00,3318.6495,N,11857.2584,W,1,09,0.8,7.4,M,-34.8,M,,*5C
$PYRTM,2024,122.169316509236,13.278963919375
$GPGGA,040348.00,3318.6504,N,11857.2611,W,1,09,0.8,7.4,M,-34.8,M,,*55
$PYRTM,2024,122.169328321204,13.278975731343
$GPGGA,040349.00,3318.6512,N,11857.2641,W,1,09,0.8,7.0,M,-34.8,M,,*52
$PYRTM,2024,122.169343939803,13.278991349942
$GPGGA,040350.00,3318.6517,N,11857.2667,W,1,09,0.8,7.1,M,-34.8,M,,*5A
$PYRTM,2024,122.169355526366,13.279002936505
$GPGGA,040351.00,3318.6519,N,11857.2691,W,1,09,0.8,7.7,M,-34.8,M,,*5A
$PYRTM,2024,122.169362806563,13.279010216701
$GPGGA,040352.00,3318.6525,N,11857.2719,W,1,09,0.8,8.0,M,-34.8,M,,*5F
$PYRTM,2024,122.169378678449,13.279026088588
$GPGGA,040353.00,3318.6533,N,11857.2748,W,1,09,0.8,7.7,M,-34.8,M,,*55
$PYRTM,2024,122.169390236991,13.279037647130
$GPGGA,040354.00,3318.6538,N,11857.2776,W,1,09,0.8,7.3,M,-34.8,M,,*50
$PYRTM,2024,122.169397528021,13.279044938160
$GPGGA,040355.00,3318.6541,N,11857.2802,W,1,09,0.8,7.8,M,-34.8,M,,*58
$PYRTM,2024,122.169409335440,13.279056745579
$GPGGA,040356.00,3318.6545,N,11857.2829,W,1,09,0.8,8.0,M,-34.8,M,,*51
$PYRTM,2024,122.169427752315,13.279075162454
$GPGGA,040357.00,3318.6552,N,11857.2858,W,1,09,0.8,8.1,M,-34.8,M,,*51
$PYRTM,2024,122.169439311447,13.279086721586
$GPGGA,040358.00,3318.6561,N,11857.2884,W,1,09,0.8,8.1,M,-34.8,M,,*5F
$PYRTM,2024,122.169450901944,13.279098312083
$GPGGA,040359.00,3318.6567,N,11857.2909,W,1,09,0.8,8.4,M,-34.8,M,,*59
$PYRTM,2024,122.169459683808,13.279107093947
$GPGGA,040400.00,3318.6571,N,11857.2935,W,1,09,0.8,8.4,M,-34.8,M,,*5A
$PYRTM,2024,122.169471269259,13.279118679398
$GPGGA,040401.00,3318.6576,N,11857.2964,W,1,09,0.8,8.4,M,-34.8,M,,*58
$PYRTM,2024,122.169482831146,13.279130241296
$GPGGA,040402.00,3318.6584,N,11857.2991,W,1,09,0.8,8.3,M,-34.8,M,,*5B
$PYRTM,2024,122.169494411748,13.279141821887
$GPGGA,040403.00,3318.6591,N,11857.3018,W,1,09,0.8,8.0,M,-34.8,M,,*54
$PYRTM,2024,122.169505977523,13.279153387650
$GPGGA,040404.00,3318.6596,N,11857.3047,W,1,09,0.8,7.7,M,-34.8,M,,*56
$PYRTM,2024,122.169517565637,13.279164975775
$GPGGA,040405.00,3318.6599,N,11857.3075,W,1,09,0.8,7.4,M,-34.8,M,,*5A
$PYRTM,2024,122.169529126574,13.279176536713
$GPGGA,040406.00,3318.6603,N,11857.3103,W,1,09,0.8,7.3,M,-34.8,M,,*5E
$PYRTM,2024,122.169536417685,13.279183827824
$GPGGA,040407.00,3318.6610,N,11857.3130,W,1,09,0.8,8.7,M,-34.8,M,,*56
$PYRTM,2024,122.169552275590,13.279199685729
$GPGGA,040408.00,3318.6616,N,11857.3159,W,1,09,0.8,8.6,M,-34.8,M,,*51
$PYRTM,2024,122.169563865243,13.279211275394
$GPGGA,040409.00,3318.6620,N,11857.3188,W,1,09,0.8,8.6,M,-34.8,M,,*59
$PYRTM,2024,122.169575424086,13.279222834225
$GPGGA,040410.00,3318.6624,N,11857.3216,W,1,09,0.8,8.4,M,-34.8,M,,*53
$PYRTM,2024,122.169587012488,13.279234422627
$GPGGA,040411.00,3318.6629,N,11857.3244,W,1,09,0.8,8.3,M,-34.8,M,,*5F
$PYRTM,2024,122.169598571644,13.279245981782
$GPGGA,040412.00,3318.6635,N,11857.3269,W,1,09,0.8,8.2,M,-34.8,M,,*5F
$PYRTM,2024,122.169610158831,13.279257568970
$GPGGA,040413.00,3318.6642,N,11857.3294,W,1,09,0.8,8.5,M,-34.8,M,,*5B
$PYRTM,2024,122.169621720046,13.279269130185
$GPGGA,040414.00,3318.6649,N,11857.3322,W,1,09,0.8,8.3,M,-34.8,M,,*5D
$PYRTM,2024,122.169633306921,13.279280717060
$GPGGA,040415.00,3318.6655,N,11857.3351,W,1,09,0.8,8.0,M,-34.8,M,,*56
$PYRTM,2024,122.169644867581,13.279292277720
$GPGGA,040416.00,3318.6659,N,11857.3377,W,1,09,0.8,8.0,M,-34.8,M,,*5D
$PYRTM,2024,122.169656457500,13.279303867639
$GPGGA,040417.00,3318.6666,N,11857.3403,W,1,09,0.8,7.9,M,-34.8,M,,*52
$PYRTM,2024,122.169668017697,13.279315427836
$GPGGA,040418.00,3318.6674,N,11857.3431,W,1,09,0.8,7.8,M,-34.8,M,,*5E
$PYRTM,2024,122.169679598692,13.279327008831
$GPGGA,040419.00,3318.6680,N,11857.3457,W,1,09,0.8,7.8,M,-34.8,M,,*54
$PYRTM,2024,122.169691164826,13.279338574965
$GPGGA,040420.00,3318.6685,N,11857.3482,W,1,09,0.8,8.1,M,-34.8,M,,*55
$PYRTM,2024,122.169702751644,13.279350161782
$GPGGA,040421.00,3318.6689,N,11857.3511,W,1,09,0.8,7.9,M,-34.8,M,,*54
$PYRTM,2024,122.169714314086,13.279361724225
$GPGGA,040422.00,3318.6695,N,11857.3542,W,1,09,0.8,7.0,M,-34.8,M,,*55
$PYRTM,2024,122.169725903495,13.279373313646
$GPGGA,040423.00,3318.6701,N,11857.3568,W,1,09,0.8,6.4,M,-34.8,M,,*55
$PYRTM,2024,122.169737460556,13.279384870694
$GPGGA,040424.00,3318.6708,N,11857.3591,W,1,09,0.8,6.6,M,-34.8,M,,*5F
$PYRTM,2024,122.169744752882,13.279392163021
$GPGGA,040425.00,3318.6714,N,11857.3620,W,1,09,0.8,6.8,M,-34.8,M,,*54
$PYRTM,2024,122.169760610382,13.279408020521
$GPGGA,040426.00,3318.6718,N,11857.3650,W,1,09,0.8,6.8,M,-34.8,M,,*5C
$PYRTM,2024,122.169767899942,13.279415310081
$GPGGA,040427.00,3318.6722,N,11857.3676,W,1,09,0.8,7.1,M,-34.8,M,,*58
$PYRTM,2024,122.169786536204,13.279433946343
$GPGGA,040428.00,3318.6728,N,11857.3701,W,1,09,0.8,7.6,M,-34.8,M,,*5B
$PYRTM,2024,122.169795339491,13.279442749630
$GPGGA,040429.00,3318.6736,N,11857.3728,W,1,09,0.8,7.6,M,-34.8,M,,*5E
$PYRTM,2024,122.169802624375,13.279450034514
$GPGGA,040430.00,3318.6744,N,11857.3757,W,1,09,0.8,7.0,M,-34.8,M,,*5D
$PYRTM,2024,122.169818487627,13.279465897766
$GPGGA,040431.00,3318.6748,N,11857.3785,W,1,09,0.8,6.5,M,-34.8,M,,*5B
$PYRTM,2024,122.169830055231,13.279477465370
$GPGGA,040432.00,3318.6751,N,11857.3809,W,1,09,0.8,6.6,M,-34.8,M,,*58
$PYRTM,2024,122.169841644282,13.279489054421
$GPGGA,040433.00,3318.6756,N,11857.3836,W,1,09,0.8,7.1,M,-34.8,M,,*54
$PYRTM,2024,122.169853202002,13.279500612141
$GPGGA,040434.00,3318.6764,N,11857.3864,W,1,09,0.8,7.4,M,-34.8,M,,*50
$PYRTM,2024,122.169864785312,13.279512195451
$GPGGA,040435.00,3318.6772,N,11857.3894,W,1,09,0.8,7.5,M,-34.8,M,,*58
$PYRTM,2024,122.169876350903,13.279523761042
$GPGGA,040436.00,3318.6776,N,11857.3922,W,1,09,0.8,7.6,M,-34.8,M,,*50
$PYRTM,2024,122.169887952778,13.279535362917
$GPGGA,040437.00,3318.6778,N,11857.3949,W,1,09,0.8,8.1,M,-34.8,M,,*5A
$PYRTM,2024,122.169899499826,13.279546909965
$GPGGA,040438.00,3318.6782,N,11857.3977,W,1,09,0.8,8.5,M,-34.8,M,,*59
$PYRTM,2024,122.169911090081,13.279558500220
$GPGGA,040439.00,3318.6790,N,11857.4005,W,1,09,0.8,8.2,M,-34.8,M,,*57
$PYRTM,2024,122.169922647998,13.279570058137
$GPGGA,040440.00,3318.6797,N,11857.4031,W,1,09,0.8,8.3,M,-34.8,M,,*58
$PYRTM,2024,122.169934229549,13.279581639688
$GPGGA,040441.00,3318.6804,N,11857.4058,W,1,09,0.8,7.9,M,-34.8,M,,*56
$PYRTM,2024,122.169945796238,13.279593206377
$GPGGA,040442.00,3318.6808,N,11857.4086,W,1,09,0.8,7.8,M,-34.8,M,,*5B
$PYRTM,2024,122.169957383021,13.279604793160
$GPGGA,040443.00,3318.6814,N,11857.4112,W,1,09,0.8,7.8,M,-34.8,M,,*5B
$PYRTM,2024,122.169968943241,13.279616353380
$GPGGA,040444.00,3318.6820,N,11857.4138,W,1,09,0.8,8.0,M,-34.8,M,,*54
$PYRTM,2024,122.169980531181,13.279627941319
$GPGGA,040445.00,3318.6827,N,11857.4164,W,1,09,0.8,8.0,M,-34.8,M,,*5B
$PYRTM,2024,122.169992093912,13.279639504063
$GPGGA,040446.00,3318.6833,N,11857.4192,W,1,09,0.8,7.9,M,-34.8,M,,*52
$PYRTM,2024,122.170003675856,13.279651085995
$GPGGA,040447.00,3318.6838,N,11857.4219,W,1,09,0.8,7.7,M,-34.8,M,,*56
$PYRTM,2024,122.170015241435,13.279662651586
$GPGGA,040448.00,3318.6843,N,11857.4246,W,1,09,0.8,7.9,M,-34.8,M,,*51
$PYRTM,2024,122.170026822593,13.279674232731
$GPGGA,040449.00,3318.6848,N,11857.4274,W,1,09,0.8,8.0,M,-34.8,M,,*5C
$PYRTM,2024,122.170034107685,13.279681517824
$GPGGA,040450.00,3318.6854,N,11857.4304,W,1,09,0.8,7.7,M,-34.8,M,,*57
$PYRTM,2024,122.170049979144,13.279697389294
$GPGGA,040451.00,3318.6861,N,11857.4333,W,1,09,0.8,7.5,M,-34.8,M,,*56
$PYRTM,2024,122.170061539803,13.279708949942
$GPGGA,040452.00,3318.6868,N,11857.4360,W,1,09,0.8,7.7,M,-34.8,M,,*58
$PYRTM,2024,122.170073127998,13.279720538148
$GPGGA,040453.00,3318.6874,N,11857.4385,W,1,09,0.8,8.5,M,-34.8,M,,*52
$PYRTM,2024,122.170084685810,13.279732095949
$GPGGA,040454.00,3318.6879,N,11857.4412,W,1,09,0.8,9.5,M,-34.8,M,,*50
$PYRTM,2024,122.170096275764,13.279743685903
$GPGGA,040455.00,3318.6886,N,11857.4440,W,1,09,0.8,9.8,M,-34.8,M,,*5B
$PYRTM,2024,122.170107834769,13.279755244907
$GPGGA,040456.00,3318.6892,N,11857.4467,W,1,09,0.8,8.8,M,-34.8,M,,*59
$PYRTM,2024,122.170119420880,13.279766831019
$GPGGA,040457.00,3318.6898,N,11857.4493,W,1,09,0.8,8.1,M,-34.8,M,,*50
$PYRTM,2024,122.170126716840,13.279774126979
$GPGGA,040458.00,3318.6904,N,11857.4520,W,1,09,0.8,6.9,M,-34.8,M,,*54
$PYRTM,2024,122.170145346921,13.279792757072
$GPGGA,040459.00,3318.6910,N,11857.4545,W,1,09,0.8,6.8,M,-34.8,M,,*52
$PYRTM,2024,122.170154129931,13.279801540069
$GPGGA,040500.00,3318.6916,N,11857.4571,W,1,09,0.8,7.2,M,-34.8,M,,*55
$PYRTM,2024,122.170165717998,13.279813128137
$GPGGA,040501.00,3318.6922,N,11857.4598,W,1,09,0.8,7.6,M,-34.8,M,,*50
$PYRTM,2024,122.170172996794,13.279820406933
$GPGGA,040502.00,3318.6930,N,11857.4628,W,1,09,0.8,7.0,M,-34.8,M,,*5E
$PYRTM,2024,122.170188866597,13.279836276736
$GPGGA,040503.00,3318.6937,N,11857.4656,W,1,09,0.8,6.8,M,-34.8,M,,*58
$PYRTM,2024,122.170200427095,13.279847837234
$GPGGA,040504.00,3318.6942,N,11857.4682,W,1,09,0.8,7.0,M,-34.8,M,,*5D
$PYRTM,2024,122.170207718669,13.279855128808
$GPGGA,040505.00,3318.6948,N,11857.4708,W,1,09,0.8,8.8,M,-34.8,M,,*52
$PYRTM,2024,122.170223460625,13.279870870764
$GPGGA,040506.00,3318.6955,N,11857.4739,W,1,09,0.8,8.8,M,-34.8,M,,*5F
$PYRTM,2024,122.170235177928,13.279882588067
$GPGGA,040507.00,3318.6961,N,11857.4769,W,1,09,0.8,8.3,M,-34.8,M,,*57
$PYRTM,2024,122.170246723472,13.279894133611
$GPGGA,040508.00,3318.6965,N,11857.4799,W,1,09,0.8,7.4,M,-34.8,M,,*5B
$PYRTM,2024,122.170254016019,13.279901426157
$GPGGA,040509.00,3318.6971,N,11857.4826,W,1,09,0.8,7.8,M,-34.8,M,,*58
$PYRTM,2024,122.170269873924,13.279917284062
$GPGGA,040510.00,3318.6978,N,11857.4850,W,1,09,0.8,7.5,M,-34.8,M,,*55
$PYRTM,2024,122.170281458912,13.279928869051
$GPGGA,040511.00,3318.6985,N,11857.4876,W,1,09,0.8,8.1,M,-34.8,M,,*59
$PYRTM,2024,122.170293021123,13.279940431262
$GPGGA,040512.00,3318.6990,N,11857.4907,W,1,09,0.8,7.5,M,-34.8,M,,*52
$PYRTM,2024,122.170304603449,13.279952013588
$GPGGA,040513.00,3318.6994,N,11857.4937,W,1,09,0.8,7.3,M,-34.8,M,,*52
$PYRTM,2024,122.170316168819,13.279963578958
$GPGGA,040514.00,3318.6999,N,11857.4961,W,1,09,0.8,6.9,M,-34.8,M,,*50
$PYRTM,2024,122.170327756493,13.279975166644
$GPGGA,040515.00,3318.7006,N,11857.4983,W,1,09,0.8,8.5,M,-34.8,M,,*51
$PYRTM,2024,122.170335035046,13.279982445185
$GPGGA,040516.00,3318.7013,N,11857.5010,W,1,09,0.8,8.7,M,-34.8,M,,*56
$PYRTM,2024,122.170350907766,13.279998317905
$GPGGA,040517.00,3318.7020,N,11857.5040,W,1,09,0.8,8.6,M,-34.8,M,,*53
$PYRTM,2024,122.170362466771,13.280009876910
$GPGGA,040518.00,3318.7025,N,11857.5069,W,1,09,0.8,7.3,M,-34.8,M,,*58
$PYRTM,2024,122.170374052523,13.280021462662
$GPGGA,040519.00,3318.7030,N,11857.5094,W,1,09,0.8,7.3,M,-34.8,M,,*5F
$PYRTM,2024,122.170385614606,13.280033024745
$GPGGA,040520.00,3318.7037,N,11857.5119,W,1,09,0.8,7.3,M,-34.8,M,,*56
$PYRTM,2024,122.170397204595,13.280044614734
$GPGGA,040521.00,3318.7044,N,11857.5146,W,1,09,0.8,7.6,M,-34.8,M,,*5C
$PYRTM,2024,122.170408766505,13.280056176644
$GPGGA,040522.00,3318.7051,N,11857.5175,W,1,09,0.8,7.3,M,-34.8,M,,*5E
$PYRTM,2024,122.170420353634,13.280067763773
$GPGGA,040523.00,3318.7057,N,11857.5202,W,1,09,0.8,7.1,M,-34.8,M,,*58
$PYRTM,2024,122.170431917627,13.280079327766
$GPGGA,040524.00,3318.7062,N,11857.5229,W,1,09,0.8,7.1,M,-34.8,M,,*50
$PYRTM,2024,122.170443497523,13.280090907662
$GPGGA,040525.00,3318.7068,N,11857.5256,W,1,09,0.8,7.3,M,-34.8,M,,*51
$PYRTM,2024,122.170455060347,13.280102470486
$GPGGA,040526.00,3318.7074,N,11857.5284,W,1,09,0.8,7.4,M,-34.8,M,,*57
$PYRTM,2024,122.170466645810,13.280114055949
$GPGGA,040527.00,3318.7079,N,11857.5312,W,1,09,0.8,7.5,M,-34.8,M,,*54
$PYRTM,2024,122.170478207465,13.280125617616
$GPGGA,040528.00,3318.7084,N,11857.5341,W,1,09,0.8,7.6,M,-34.8,M,,*5C
$PYRTM,2024,122.170485498831,13.280132908970
$GPGGA,040529.00,3318.7090,N,11857.5369,W,1,09,0.8,7.6,M,-34.8,M,,*52
$PYRTM,2024,122.170504133264,13.280151543403
$GPGGA,040530.00,3318.7096,N,11857.5397,W,1,09,0.8,7.5,M,-34.8,M,,*5E
$PYRTM,2024,122.170512942153,13.280160352292
$GPGGA,040531.00,3318.7103,N,11857.5424,W,1,09,0.8,7.9,M,-34.8,M,,*51
$PYRTM,2024,122.170520222118,13.280167632257
$GPGGA,040532.00,3318.7108,N,11857.5450,W,1,09,0.8,8.2,M,-34.8,M,,*5E
$PYRTM,2024,122.170536090498,13.280183500637
$GPGGA,040533.00,3318.7113,N,11857.5477,W,1,09,0.8,8.3,M,-34.8,M,,*51
$PYRTM,2024,122.170543485706,13.280190895845
$GPGGA,040534.00,3318.7119,N,11857.5506,W,1,09,0.8,8.0,M,-34.8,M,,*58
$PYRTM,2024,122.170562131956,13.280209542095
$GPGGA,040535.00,3318.7126,N,11857.5535,W,1,09,0.8,7.3,M,-34.8,M,,*59
$PYRTM,2024,122.170573579213,13.280220989352
$GPGGA,040536.00,3318.7133,N,11857.5563,W,1,09,0.8,7.1,M,-34.8,M,,*5F
$PYRTM,2024,122.170582390556,13.280229800694
$GPGGA,040537.00,3318.7138,N,11857.5587,W,1,09,0.8,7.4,M,-34.8,M,,*5A
$PYRTM,2024,122.170589668819,13.280237078958
$GPGGA,040538.00,3318.7144,N,11857.5612,W,1,09,0.8,8.4,M,-34.8,M,,*5E
$PYRTM,2024,122.170605434525,13.280252844676
$GPGGA,040539.00,3318.7149,N,11857.5642,W,1,09,0.8,7.8,M,-34.8,M,,*54
$PYRTM,2024,122.170612813530,13.280260223669
$GPGGA,040540.00,3318.7155,N,11857.5673,W,1,09,0.8,8.2,M,-34.8,M,,*50
$PYRTM,2024,122.170624618981,13.280272029120
$GPGGA,040541.00,3318.7160,N,11857.5702,W,1,09,0.8,7.3,M,-34.8,M,,*5E
$PYRTM,2024,122.170640130255,13.280287540405
$GPGGA,040542.00,3318.7167,N,11857.5728,W,1,09,0.8,7.3,M,-34.8,M,,*52
$PYRTM,2024,122.170651716574,13.280299126713
$GPGGA,040543.00,3318.7174,N,11857.5755,W,1,09,0.8,7.5,M,-34.8,M,,*5D
$PYRTM,2024,122.170659113391,13.280306523530
$GPGGA,040544.00,3318.7179,N,11857.5784,W,1,09,0.8,8.3,M,-34.8,M,,*52
$PYRTM,2024,122.170674864317,13.280322274456
$GPGGA,040545.00,3318.7184,N,11857.5814,W,1,09,0.8,8.7,M,-34.8,M,,*53
$PYRTM,2024,122.170686426111,13.280333836250
$GPGGA,040546.00,3318.7188,N,11857.5845,W,1,09,0.8,8.7,M,-34.8,M,,*58
$PYRTM,2024,122.170693833715,13.280341243854
$GPGGA,040547.00,3318.7195,N,11857.5872,W,1,09,0.8,8.5,M,-34.8,M,,*53
$PYRTM,2024,122.170709574387,13.280356984525
$GPGGA,040548.00,3318.7202,N,11857.5897,W,1,09,0.8,9.1,M,-34.8,M,,*5F
$PYRTM,2024,122.170721164583,13.280368574722
$GPGGA,040549.00,3318.7208,N,11857.5922,W,1,09,0.8,9.6,M,-34.8,M,,*5C
$PYRTM,2024,122.170728556620,13.280375966759
$GPGGA,040550.00,3318.7213,N,11857.5950,W,1,09,0.8,9.4,M,-34.8,M,,*59
$PYRTM,2024,122.170744314074,13.280391724225
$GPGGA,040551.00,3318.7219,N,11857.5979,W,1,09,0.8,9.0,M,-34.8,M,,*5D
$PYRTM,2024,122.170755872257,13.280403282396
$GPGGA,040552.00,3318.7227,N,11857.6005,W,1,09,0.8,8.1,M,-34.8,M,,*52
$PYRTM,2024,122.170767458403,13.280414868553
$GPGGA,040553.00,3318.7234,N,11857.6030,W,1,09,0.8,8.1,M,-34.8,M,,*57
$PYRTM,2024,122.170779019757,13.280426429896
$GPGGA,040554.00,3318.7238,N,11857.6057,W,1,09,0.8,8.1,M,-34.8,M,,*5D
$PYRTM,2024,122.170790607153,13.280438017292
$GPGGA,040555.00,3318.7244,N,11857.6086,W,1,09,0.8,8.3,M,-34.8,M,,*59
$PYRTM,2024,122.170802166481,13.280449576620
$GPGGA,040556.00,3318.7252,N,11857.6113,W,1,09,0.8,8.2,M,-34.8,M,,*51
$PYRTM,2024,122.170813754919,13.280461165058
$GPGGA,040557.00,3318.7260,N,11857.6141,W,1,09,0.8,8.7,M,-34.8,M,,*53
$PYRTM,2024,122.170825316563,13.280472726701
$GPGGA,040558.00,3318.7264,N,11857.6170,W,1,09,0.8,6.7,M,-34.8,M,,*54
$PYRTM,2024,122.170832722211,13.280480132350
$GPGGA,040559.00,3318.7267,N,11857.6197,W,1,09,0.8,7.2,M,-34.8,M,,*5B
$PYRTM,2024,122.170844528484,13.280491938611
$GPGGA,040600.00,3318.7272,N,11857.6223,W,1,09,0.8,7.2,M,-34.8,M,,*5C
$PYRTM,2024,122.170862945613,13.280510355752
$GPGGA,040601.00,3318.7279,N,11857.6251,W,1,09,0.8,7.7,M,-34.8,M,,*56
$PYRTM,2024,122.170874505625,13.280521915752
$GPGGA,040602.00,3318.7287,N,11857.6280,W,1,09,0.8,7.3,M,-34.8,M,,*5C
$PYRTM,2024,122.170886088345,13.280533498484
$GPGGA,040603.00,3318.7292,N,11857.6310,W,1,09,0.8,7.0,M,-34.8,M,,*52
$PYRTM,2024,122.170894759630,13.280542169769
$GPGGA,040604.00,3318.7295,N,11857.6337,W,1,09,0.8,7.0,M,-34.8,M,,*57
$PYRTM,2024,122.170906362581,13.280553772720
$GPGGA,040605.00,3318.7298,N,11857.6364,W,1,09,0.8,7.7,M,-34.8,M,,*5A
$PYRTM,2024,122.170917909745,13.280565319884
$GPGGA,040606.00,3318.7306,N,11857.6393,W,1,09,0.8,8.3,M,-34.8,M,,*5C
$PYRTM,2024,122.170925317187,13.280572727326
$GPGGA,040607.00,3318.7315,N,11857.6422,W,1,09,0.8,8.3,M,-34.8,M,,*52
$PYRTM,2024,122.170937122488,13.280584532627
$GPGGA,040608.00,3318.7321,N,11857.6449,W,1,09,0.8,8.6,M,-34.8,M,,*52
$PYRTM,2024,122.170952644514,13.280600054653
$GPGGA,040609.00,3318.7324,N,11857.6479,W,1,09,0.8,8.4,M,-34.8,M,,*57
$PYRTM,2024,122.170960052002,13.280607462141
$GPGGA,040610.00,3318.7327,N,11857.6509,W,1,09,0.8,8.3,M,-34.8,M,,*5D
$PYRTM,2024,122.170975792546,13.280623202685
$GPGGA,040611.00,3318.7333,N,11857.6532,W,1,09,0.8,8.1,M,-34.8,M,,*53
$PYRTM,2024,122.170983188032,13.280630598171
$GPGGA,040612.00,3318.7341,N,11857.6555,W,1,09,0.8,9.0,M,-34.8,M,,*54
$PYRTM,2024,122.170994999375,13.280642409514
$GPGGA,040613.00,3318.7348,N,11857.6583,W,1,09,0.8,8.5,M,-34.8,M,,*53
$PYRTM,2024,122.171010502581,13.280657912720
$GPGGA,040614.00,3318.7354,N,11857.6614,W,1,09,0.8,7.7,M,-34.8,M,,*59
$PYRTM,2024,122.171022088912,13.280669499051
$GPGGA,040615.00,3318.7358,N,11857.6642,W,1,09,0.8,7.0,M,-34.8,M,,*50
$PYRTM,2024,122.171033650521,13.280681060660
$GPGGA,040616.00,3318.7363,N,11857.6663,W,1,09,0.8,7.4,M,-34.8,M,,*5C
$PYRTM,2024,122.171045352905,13.280692763044
$GPGGA,040617.00,3318.7371,N,11857.6685,W,1,09,0.8,7.7,M,-34.8,M,,*55
$PYRTM,2024,122.171056800382,13.280704210521
$GPGGA,040618.00,3318.7379,N,11857.6715,W,1,09,0.8,7.4,M,-34.8,M,,*59
$PYRTM,2024,122.171064206458,13.280711616597
$GPGGA,040619.00,3318.7385,N,11857.6747,W,1,09,0.8,6.8,M,-34.8,M,,*51
$PYRTM,2024,122.171079959062,13.280727369201
$GPGGA,040620.00,3318.7388,N,11857.6772,W,1,09,0.8,7.2,M,-34.8,M,,*5B
$PYRTM,2024,122.171091548727,13.280738958866
$GPGGA,040621.00,3318.7392,N,11857.6796,W,1,09,0.8,8.1,M,-34.8,M,,*57
$PYRTM,2024,122.171103109537,13.280750519687
$GPGGA,040622.00,3318.7398,N,11857.6823,W,1,09,0.8,8.2,M,-34.8,M,,*5C
$PYRTM,2024,122.171114683704,13.280762093843
$GPGGA,040623.00,3318.7406,N,11857.6852,W,1,09,0.8,7.8,M,-34.8,M,,*5E
$PYRTM,2024,122.171126255856,13.280773665995
$GPGGA,040624.00,3318.7410,N,11857.6879,W,1,09,0.8,7.8,M,-34.8,M,,*57
$PYRTM,2024,122.171137833102,13.280785243241
$GPGGA,040625.00,3318.7415,N,11857.6905,W,1,09,0.8,8.0,M,-34.8,M,,*5E
$PYRTM,2024,122.171149404769,13.280796814907
$GPGGA,040626.00,3318.7421,N,11857.6934,W,1,09,0.8,8.0,M,-34.8,M,,*58
$PYRTM,2024,122.171160979109,13.280808389248
$GPGGA,040627.00,3318.7428,N,11857.6965,W,1,09,0.8,7.7,M,-34.8,M,,*5C
$PYRTM,2024,122.171172554259,13.280819964398
$GPGGA,040628.00,3318.7433,N,11857.6993,W,1,09,0.8,8.1,M,-34.8,M,,*59
$PYRTM,2024,122.171184126771,13.280831536910
$GPGGA,040629.00,3318.7437,N,11857.7015,W,1,09,0.8,9.1,M,-34.8,M,,*5B
$PYRTM,2024,122.171195700451,13.280843110590
$GPGGA,040630.00,3318.7442,N,11857.7041,W,1,09,0.8,9.9,M,-34.8,M,,*58
$PYRTM,2024,122.171203097465,13.280850507604
$GPGGA,040631.00,3318.7448,N,11857.7073,W,1,09,0.8,9.3,M,-34.8,M,,*58
$PYRTM,2024,122.171221733461,13.280869143600
$GPGGA,040632.00,3318.7454,N,11857.7104,W,1,09,0.8,8.9,M,-34.8,M,,*5C
$PYRTM,2024,122.171230420012,13.280877830150
$GPGGA,040633.00,3318.7459,N,11857.7126,W,1,09,0.8,9.1,M,-34.8,M,,*59
$PYRTM,2024,122.171237820914,13.280885231053
$GPGGA,040634.00,3318.7464,N,11857.7148,W,1,09,0.8,9.9,M,-34.8,M,,*50
$PYRTM,2024,122.171253586875,13.280900997014
$GPGGA,040635.00,3318.7470,N,11857.7176,W,1,09,0.8,9.7,M,-34.8,M,,*57
$PYRTM,2024,122.171265146262,13.280912556400
$GPGGA,040636.00,3318.7477,N,11857.7203,W,1,09,0.8,9.6,M,-34.8,M,,*53
$PYRTM,2024,122.171272541528,13.280919951667
$GPGGA,040637.00,3318.7484,N,11857.7226,W,1,09,0.8,9.5,M,-34.8,M,,*5A
$PYRTM,2024,122.171288294421,13.280935704560
$GPGGA,040638.00,3318.7491,N,11857.7250,W,1,09,0.8,9.6,M,-34.8,M,,*53
$PYRTM,2024,122.171299868588,13.280947278727
$GPGGA,040639.00,3318.7497,N,11857.7276,W,1,09,0.8,8.4,M,-34.8,M,,*53
$PYRTM,2024,122.171307278947,13.280954689086
$GPGGA,040640.00,3318.7502,N,11857.7302,W,1,09,0.8,7.7,M,-34.8,M,,*5E
$PYRTM,2024,122.171323012014,13.280970422153
$GPGGA,040641.00,3318.7507,N,11857.7325,W,1,09,0.8,8.0,M,-34.8,M,,*57
$PYRTM,2024,122.171334591088,13.280982001227
$GPGGA,040642.00,3318.7514,N,11857.7350,W,1,09,0.8,8.6,M,-34.8,M,,*52
$PYRTM,2024,122.171346165729,13.280993575868
$GPGGA,040643.00,3318.7523,N,11857.7376,W,1,09,0.8,8.5,M,-34.8,M,,*50
$PYRTM,2024,122.171353561181,13.281000971319
$GPGGA,040644.00,3318.7529,N,11857.7404,W,1,09,0.8,7.3,M,-34.8,M,,*56
$PYRTM,2024,122.171365364618,13.281012774757
$GPGGA,040645.00,3318.7534,N,11857.7430,W,1,09,0.8,7.5,M,-34.8,M,,*5A
$PYRTM,2024,122.171380889051,13.281028299190
$GPGGA,040646.00,3318.7538,N,11857.7456,W,1,09,0.8,7.6,M,-34.8,M,,*56
$PYRTM,2024,122.171392464444,13.281039874583
$GPGGA,040647.00,3318.7544,N,11857.7483,W,1,09,0.8,7.5,M,-34.8,M,,*57
$PYRTM,2024,122.171404038519,13.281051448657
$GPGGA,040648.00,3318.7553,N,11857.7510,W,1,09,0.8,7.5,M,-34.8,M,,*55
$PYRTM,2024,122.171415614028,13.281063024167
$GPGGA,040649.00,3318.7561,N,11857.7537,W,1,09,0.8,7.4,M,-34.8,M,,*51
$PYRTM,2024,122.171427180127,13.281074590266
$GPGGA,040650.00,3318.7567,N,11857.7562,W,1,09,0.8,7.6,M,-34.8,M,,*5D
$PYRTM,2024,122.171438762870,13.281086173009
$GPGGA,040651.00,3318.7569,N,11857.7589,W,1,09,0.8,7.9,M,-34.8,M,,*58
$PYRTM,2024,122.171450333113,13.281097743252
$GPGGA,040652.00,3318.7574,N,11857.7615,W,1,09,0.8,8.4,M,-34.8,M,,*53
$PYRTM,2024,122.171457728484,13.281105138623
$GPGGA,040653.00,3318.7581,N,11857.7642,W,1,09,0.8,8.6,M,-34.8,M,,*58
$PYRTM,2024,122.171473483576,13.281120893715
$GPGGA,040654.00,3318.7591,N,11857.7670,W,1,09,0.8,8.4,M,-34.8,M,,*5D
$PYRTM,2024,122.171485058102,13.281132468241
$GPGGA,040655.00,3318.7597,N,11857.7698,W,1,09,0.8,7.1,M,-34.8,M,,*56
$PYRTM,2024,122.171496624873,13.281144035012
$GPGGA,040656.00,3318.7601,N,11857.7725,W,1,09,0.8,7.2,M,-34.8,M,,*5D
$PYRTM,2024,122.171508205301,13.281155615440
$GPGGA,040657.00,3318.7605,N,11857.7752,W,1,09,0.8,7.5,M,-34.8,M,,*5F
$PYRTM,2024,122.171515600336,13.281163010486
$GPGGA,040658.00,3318.7611,N,11857.7781,W,1,09,0.8,7.8,M,-34.8,M,,*56
$PYRTM,2024,122.171531352581,13.281178762731
$GPGGA,040659.00,3318.7618,N,11857.7810,W,1,09,0.8,7.8,M,-34.8,M,,*59
$PYRTM,2024,122.171538748900,13.281186159039
$GPGGA,040700.00,3318.7623,N,11857.7838,W,1,09,0.8,7.5,M,-34.8,M,,*5B
$PYRTM,2024,122.171550553044,13.281197963183
$GPGGA,040701.00,3318.7628,N,11857.7864,W,1,09,0.8,8.1,M,-34.8,M,,*53
$PYRTM,2024,122.171562126817,13.281209536956
$GPGGA,040702.00,3318.7634,N,11857.7889,W,1,09,0.8,8.6,M,-34.8,M,,*59
$PYRTM,2024,122.171580546262,13.281227956400
$GPGGA,040703.00,3318.7640,N,11857.7918,W,1,09,0.8,8.8,M,-34.8,M,,*5C
$PYRTM,2024,122.171589223368,13.281236633507
$GPGGA,040704.00,3318.7645,N,11857.7949,W,1,09,0.8,8.2,M,-34.8,M,,*50
$PYRTM,2024,122.171600801238,13.281248211377
$GPGGA,040705.00,3318.7651,N,11857.7976,W,1,09,0.8,7.8,M,-34.8,M,,*5D
$PYRTM,2024,122.171608191956,13.281255602095
$GPGGA,040706.00,3318.7657,N,11857.7999,W,1,09,0.8,8.2,M,-34.8,M,,*5C
$PYRTM,2024,122.171623945266,13.281271355405
$GPGGA,040707.00,3318.7663,N,11857.8024,W,1,09,0.8,9.3,M,-34.8,M,,*5A
$PYRTM,2024,122.171635520266,13.281282930405
$GPGGA,040708.00,3318.7669,N,11857.8054,W,1,09,0.8,9.0,M,-34.8,M,,*5B
$PYRTM,2024,122.171642915069,13.281290325208
$GPGGA,040709.00,3318.7675,N,11857.8082,W,1,09,0.8,7.8,M,-34.8,M,,*5A
$PYRTM,2024,122.171658664248,13.281306074387
$GPGGA,040710.00,3318.7679,N,11857.8104,W,1,09,0.8,7.9,M,-34.8,M,,*50
$PYRTM,2024,122.171670237083,13.281317647222
$GPGGA,040711.00,3318.7686,N,11857.8127,W,1,09,0.8,8.0,M,-34.8,M,,*56
$PYRTM,2024,122.171677638032,13.281325048171
$GPGGA,040712.00,3318.7693,N,11857.8156,W,1,09,0.8,7.5,M,-34.8,M,,*5D
$PYRTM,2024,122.171693386111,13.281340796262
$GPGGA,040713.00,3318.7698,N,11857.8182,W,1,09,0.8,7.2,M,-34.8,M,,*59
$PYRTM,2024,122.171704963738,13.281352373877
$GPGGA,040714.00,3318.7704,N,11857.8206,W,1,09,0.8,7.3,M,-34.8,M,,*54
$PYRTM,2024,122.171712359676,13.281359769815
$GPGGA,040715.00,3318.7710,N,11857.8231,W,1,09,0.8,7.7,M,-34.8,M,,*50
$PYRTM,2024,122.171728113507,13.281375523646
$GPGGA,040716.00,3318.7716,N,11857.8260,W,1,09,0.8,7.0,M,-34.8,M,,*56
$PYRTM,2024,122.171739690394,13.281387100532
$GPGGA,040717.00,3318.7722,N,11857.8287,W,1,09,0.8,7.3,M,-34.8,M,,*5A
$PYRTM,2024,122.171751256667,13.281398666806
$GPGGA,040718.00,3318.7728,N,11857.8311,W,1,09,0.8,7.4,M,-34.8,M,,*56
$PYRTM,2024,122.171762838681,13.281410248819
$GPGGA,040719.00,3318.7733,N,11857.8335,W,1,09,0.8,7.5,M,-34.8,M,,*5A
$PYRTM,2024,122.171774410220,13.281421820370
$GPGGA,040720.00,3318.7739,N,11857.8363,W,1,09,0.8,6.7,M,-34.8,M,,*5A
$PYRTM,2024,122.171781804549,13.281429214687
$GPGGA,040721.00,3318.7745,N,11857.8393,W,1,09,0.8,6.8,M,-34.8,M,,*50
$PYRTM,2024,122.171797557512,13.281444967650
$GPGGA,040722.00,3318.7751,N,11857.8417,W,1,09,0.8,6.9,M,-34.8,M,,*5C
$PYRTM,2024,122.171809132118,13.281456542257
$GPGGA,040723.00,3318.7756,N,11857.8439,W,1,09,0.8,7.4,M,-34.8,M,,*5A
$PYRTM,2024,122.171816542477,13.281463952616
$GPGGA,040724.00,3318.7762,N,11857.8466,W,1,09,0.8,7.6,M,-34.8,M,,*52
$PYRTM,2024,122.171832281019,13.281479691157
$GPGGA,040725.00,3318.7769,N,11857.8496,W,1,09,0.8,7.0,M,-34.8,M,,*51
$PYRTM,2024,122.171843849711,13.281491259850
$GPGGA,040726.00,3318.7774,N,11857.8521,W,1,09,0.8,7.0,M,-34.8,M,,*53
$PYRTM,2024,122.171851249734,13.281498659873
$GPGGA,040727.00,3318.7780,N,11857.8544,W,1,09,0.8,7.1,M,-34.8,M,,*5B
$PYRTM,2024,122.171867001875,13.281514412014
$GPGGA,040728.00,3318.7785,N,11857.8569,W,1,09,0.8,7.6,M,-34.8,M,,*59
$PYRTM,2024,122.171878577488,13.281525987639
$GPGGA,040729.00,3318.7791,N,11857.8597,W,1,09,0.8,7.3,M,-34.8,M,,*59
$PYRTM,2024,122.171885978981,13.281533389132
$GPGGA,040730.00,3318.7796,N,11857.8625,W,1,09,0.8,6.8,M,-34.8,M,,*56
$PYRTM,2024,122.171901733009,13.281549143148
$GPGGA,040731.00,3318.7801,N,11857.8652,W,1,09,0.8,6.5,M,-34.8,M,,*5B
$PYRTM,2024,122.171913302662,13.281560712801
$GPGGA,040732.00,3318.7806,N,11857.8677,W,1,09,0.8,6.5,M,-34.8,M,,*58
$PYRTM,2024,122.171920694491,13.281568104630
$GPGGA,040733.00,3318.7813,N,11857.8705,W,1,09,0.8,6.7,M,-34.8,M,,*5B
$PYRTM,2024,122.171939335937,13.281586746076
$GPGGA,040734.00,3318.7820,N,11857.8735,W,1,09,0.8,6.4,M,-34.8,M,,*5C
$PYRTM,2024,122.171948141030,13.281595551169
$GPGGA,040735.00,3318.7825,N,11857.8760,W,1,09,0.8,6.7,M,-34.8,M,,*5B
$PYRTM,2024,122.171955431944,13.281602842095
$GPGGA,040736.00,3318.7830,N,11857.8783,W,1,09,0.8,7.3,M,-34.8,M,,*54
$PYRTM,2024,122.171971286539,13.281618696678
$GPGGA,040737.00,3318.7836,N,11857.8812,W,1,09,0.8,7.6,M,-34.8,M,,*51
$PYRTM,2024,122.171982859977,13.281630270116
$GPGGA,040738.00,3318.7841,N,11857.8842,W,1,09,0.8,7.0,M,-34.8,M,,*5D
$PYRTM,2024,122.171994435185,13.281641845324
$GPGGA,040739.00,3318.7846,N,11857.8869,W,1,09,0.8,6.8,M,-34.8,M,,*5B
$PYRTM,2024,122.172006006030,13.281653416169
$GPGGA,040740.00,3318.7851,N,11857.8892,W,1,09,0.8,8.5,M,-34.8,M,,*54
$PYRTM,2024,122.172017466424,13.281664876563
$GPGGA,040741.00,3318.7856,N,11857.8917,W,1,09,0.8,8.2,M,-34.8,M,,*59
$PYRTM,2024,122.172029039306,13.281676449444
$GPGGA,040742.00,3318.7861,N,11857.8945,W,1,09,0.8,8.3,M,-34.8,M,,*58
$PYRTM,2024,122.172040616574,13.281688026713
$GPGGA,040743.00,3318.7867,N,11857.8974,W,1,09,0.8,8.0,M,-34.8,M,,*5E
$PYRTM,2024,122.172048016470,13.281695426620
$GPGGA,040744.00,3318.7871,N,11857.9002,W,1,09,0.8,7.7,M,-34.8,M,,*5F
$PYRTM,2024,122.172066654884,13.281714065023
$GPGGA,040745.00,3318.7877,N,11857.9028,W,1,09,0.8,8.8,M,-34.8,M,,*50
$PYRTM,2024,122.172075338137,13.281722748275
$GPGGA,040746.00,3318.7884,N,11857.9054,W,1,09,0.8,8.9,M,-34.8,M,,*55
$PYRTM,2024,122.172086919734,13.281734329873
$GPGGA,040747.00,3318.7891,N,11857.9081,W,1,09,0.8,9.5,M,-34.8,M,,*55
$PYRTM,2024,122.172098486019,13.281745896157
$GPGGA,040748.00,3318.7896,N,11857.9109,W,1,09,0.8,9.8,M,-34.8,M,,*51
$PYRTM,2024,122.172110086285,13.281757496435
$GPGGA,040749.00,3318.7899,N,11857.9137,W,1,09,0.8,9.6,M,-34.8,M,,*5C
$PYRTM,2024,122.172117460567,13.281764870706
$GPGGA,040750.00,3318.7904,N,11857.9163,W,1,09,0.8,9.2,M,-34.8,M,,*54
$PYRTM,2024,122.172133209155,13.281780619294
$GPGGA,040751.00,3318.7911,N,11857.9189,W,1,09,0.8,8.8,M,-34.8,M,,*5E
$PYRTM,2024,122.172144783218,13.281792193368
$GPGGA,040752.00,3318.7919,N,11857.9216,W,1,09,0.8,8.5,M,-34.8,M,,*5D
$PYRTM,2024,122.172156358345,13.281803768484
$GPGGA,040753.00,3318.7924,N,11857.9242,W,1,09,0.8,8.5,M,-34.8,M,,*53
$PYRTM,2024,122.172167932049,13.281815342188
$GPGGA,040754.00,3318.7929,N,11857.9268,W,1,09,0.8,9.0,M,-34.8,M,,*55
$PYRTM,2024,122.172179505486,13.281826915625
$GPGGA,040755.00,3318.7935,N,11857.9295,W,1,09,0.8,9.7,M,-34.8,M,,*5C
$PYRTM,2024,122.172191080903,13.281838491042
$GPGGA,040756.00,3318.7941,N,11857.9323,W,1,09,0.8,9.9,M,-34.8,M,,*5E
$PYRTM,2024,122.172202653009,13.281850063148
$GPGGA,040757.00,3318.7948,N,11857.9352,W,1,09,0.8,9.3,M,-34.8,M,,*5A
$PYRTM,2024,122.172210055532,13.281857465671
$GPGGA,040758.00,3318.7953,N,11857.9380,W,1,09,0.8,7.6,M,-34.8,M,,*5B
$PYRTM,2024,122.172225801771,13.281873211910
$GPGGA,040759.00,3318.7960,N,11857.9403,W,1,09,0.8,8.8,M,-34.8,M,,*57
$PYRTM,2024,122.172237376331,13.281884786470
$GPGGA,040800.00,3318.7965,N,11857.9427,W,1,09,0.8,9.2,M,-34.8,M,,*5C
$PYRTM,2024,122.172244770428,13.281892180567
$GPGGA,040801.00,3318.7972,N,11857.9455,W,1,09,0.8,9.5,M,-34.8,M,,*59
$PYRTM,2024,122.172260520544,13.281907930694
$GPGGA,040802.00,3318.7978,N,11857.9487,W,1,09,0.8,9.3,M,-34.8,M,,*59
$PYRTM,2024,122.172272106771,13.281919516910
$GPGGA,040803.00,3318.7983,N,11857.9515,W,1,09,0.8,9.0,M,-34.8,M,,*55
$PYRTM,2024,122.172279499861,13.281926910000
$GPGGA,040804.00,3318.7988,N,11857.9538,W,1,09,0.8,9.6,M,-34.8,M,,*50
$PYRTM,2024,122.172298143218,13.281945553356
$GPGGA,040805.00,3318.7994,N,11857.9563,W,1,09,0.8,10.3,M,-34.8,M,,*6F
$PYRTM,2024,122.172306937222,13.281954347361
$GPGGA,040806.00,3318.8003,N,11857.9591,W,1,09,0.8,10.1,M,-34.8,M,,*6B
$PYRTM,2024,122.172318394525,13.281965804664
$GPGGA,040807.00,3318.8009,N,11857.9620,W,1,09,0.8,9.4,M,-34.8,M,,*54
$PYRTM,2024,122.172329969421,13.281977379560
$GPGGA,040808.00,3318.8014,N,11857.9646,W,1,09,0.8,8.7,M,-34.8,M,,*55
$PYRTM,2024,122.172341543102,13.281988953241
$GPGGA,040809.00,3318.8020,N,11857.9668,W,1,09,0.8,9.7,M,-34.8,M,,*5E
$PYRTM,2024,122.172353112211,13.282000522350
$GPGGA,040810.00,3318.8029,N,11857.9694,W,1,09,0.8,9.0,M,-34.8,M,,*5B
$PYRTM,2024,122.172364691944,13.282012102083
$GPGGA,040811.00,3318.8036,N,11857.9722,W,1,09,0.8,8.7,M,-34.8,M,,*5E
$PYRTM,2024,122.172376260741,13.282023670880
$GPGGA,040812.00,3318.8042,N,11857.9748,W,1,09,0.8,8.2,M,-34.8,M,,*57
$PYRTM,2024,122.172387850903,13.282035261053
$GPGGA,040813.00,3318.8047,N,11857.9772,W,1,09,0.8,8.3,M,-34.8,M,,*5B
$PYRTM,2024,122.172399414375,13.282046824514
$GPGGA,040814.00,3318.8054,N,11857.9796,W,1,09,0.8,8.5,M,-34.8,M,,*52
$PYRTM,2024,122.172410987604,13.282058397755
$GPGGA,040815.00,3318.8062,N,11857.9823,W,1,09,0.8,8.3,M,-34.8,M,,*51
$PYRTM,2024,122.172418389942,13.282065800081
$GPGGA,040816.00,3318.8068,N,11857.9850,W,1,09,0.8,8.3,M,-34.8,M,,*5C
$PYRTM,2024,122.172434145058,13.282081555197
$GPGGA,040817.00,3318.8074,N,11857.9878,W,1,09,0.8,8.0,M,-34.8,M,,*59
$PYRTM,2024,122.172445709838,13.282093119977
$GPGGA,040818.00,3318.8081,N,11857.9906,W,1,09,0.8,7.8,M,-34.8,M,,*53
$PYRTM,2024,122.172457284363,13.282104694502
$GPGGA,040819.00,3318.8086,N,11857.9933,W,1,09,0.8,7.7,M,-34.8,M,,*5C
$PYRTM,2024,122.172468859074,13.282116269213
$GPGGA,040820.00,3318.8091,N,11857.9959,W,1,09,0.8,8.0,M,-34.8,M,,*54
$PYRTM,2024,122.172480432697,13.282127842847
$GPGGA,040821.00,3318.8098,N,11857.9987,W,1,09,0.8,8.1,M,-34.8,M,,*5E
$PYRTM,2024,122.172492007593,13.282139417731
$GPGGA,040822.00,3318.8105,N,11858.0015,W,1,09,0.8,7.9,M,-34.8,M,,*5B
$PYRTM,2024,122.172503581238,13.282150991377
$GPGGA,040823.00,3318.8112,N,11858.0042,W,1,09,0.8,7.6,M,-34.8,M,,*51
$PYRTM,2024,122.172510983924,13.282158394062
$GPGGA,040824.00,3318.8118,N,11858.0066,W,1,09,0.8,7.8,M,-34.8,M,,*54
$PYRTM,2024,122.172526729572,13.282174139711
$GPGGA,040825.00,3318.8123,N,11858.0092,W,1,09,0.8,8.0,M,-34.8,M,,*51
$PYRTM,2024,122.172538298738,13.282185708877
$GPGGA,040826.00,3318.8129,N,11858.0120,W,1,09,0.8,8.1,M,-34.8,M,,*51
$PYRTM,2024,122.172549880637,13.282197290775
$GPGGA,040827.00,3318.8135,N,11858.0149,W,1,09,0.8,7.5,M,-34.8,M,,*59
$PYRTM,2024,122.172561452870,13.282208863009
$GPGGA,040828.00,3318.8143,N,11858.0176,W,1,09,0.8,6.9,M,-34.8,M,,*56
$PYRTM,2024,122.172568847581,13.282216257720
$GPGGA,040829.00,3318.8150,N,11858.0203,W,1,09,0.8,6.7,M,-34.8,M,,*5A
$PYRTM,2024,122.172584595752,13.282232005903
$GPGGA,040830.00,3318.8155,N,11858.0229,W,1,09,0.8,7.0,M,-34.8,M,,*59
$PYRTM,2024,122.172596182350,13.282243592488
$GPGGA,040831.00,3318.8160,N,11858.0256,W,1,09,0.8,7.6,M,-34.8,M,,*50
$PYRTM,2024,122.172603576458,13.282250986597
$GPGGA,040832.00,3318.8167,N,11858.0285,W,1,09,0.8,7.8,M,-34.8,M,,*54
$PYRTM,2024,122.172619349826,13.282266759965
$GPGGA,040833.00,3318.8174,N,11858.0315,W,1,09,0.8,7.6,M,-34.8,M,,*51
$PYRTM,2024,122.172630897083,13.282278307222
$GPGGA,040834.00,3318.8180,N,11858.0343,W,1,09,0.8,7.3,M,-34.8,M,,*5B
$PYRTM,2024,122.172638293576,13.282285703715
$GPGGA,040835.00,3318.8184,N,11858.0369,W,1,09,0.8,6.7,M,-34.8,M,,*53
$PYRTM,2024,122.172656938634,13.282304348785
$GPGGA,040836.00,3318.8190,N,11858.0395,W,1,09,0.8,8.5,M,-34.8,M,,*5A
$PYRTM,2024,122.172665621204,13.282313031343
$GPGGA,040837.00,3318.8196,N,11858.0423,W,1,09,0.8,8.4,M,-34.8,M,,*56
$PYRTM,2024,122.172677197535,13.282324607674
$GPGGA,040838.00,3318.8202,N,11858.0452,W,1,09,0.8,7.9,M,-34.8,M,,*53
$PYRTM,2024,122.172688779317,13.282336189468
$GPGGA,040839.00,3318.8207,N,11858.0478,W,1,09,0.8,7.8,M,-34.8,M,,*5E
$PYRTM,2024,122.172696173090,13.282343583229
