$PYRTM,2024,123.000003237975,14.109650648113
$GPGGA,235959.00,3352.2522,N,11931.9910,W,1,10,1.0,6.6,M,-33.9,M,,*51
$PYRTM,2024,123.000010534387,14.109657944525
$GPGGA,000000.00,3352.2529,N,11931.9907,W,1,10,1.0,6.6,M,-33.9,M,,*5D
$PYRTM,2024,123.000026390475,14.109673800613
$GPGGA,000001.00,3352.2535,N,11931.9903,W,1,10,1.0,6.5,M,-33.9,M,,*56
$PYRTM,2024,123.000040844456,14.109688254595
$GPGGA,000002.00,3352.2540,N,11931.9898,W,1,10,1.0,6.3,M,-33.9,M,,*52
$PYRTM,2024,123.000052427269,14.109699837419
$GPGGA,000003.00,3352.2546,N,11931.9893,W,1,10,1.0,6.3,M,-33.9,M,,*5E
$PYRTM,2024,123.000061099271,14.109708509410
$GPGGA,000004.00,3352.2551,N,11931.9890,W,1,10,1.0,6.2,M,-33.9,M,,*5D
$PYRTM,2024,123.000068399502,14.109715809641
$GPGGA,000005.00,3352.2558,N,11931.9887,W,1,10,1.0,6.2,M,-33.9,M,,*53
$PYRTM,2024,123.000084248310,14.109731658449
$GPGGA,000006.00,3352.2564,N,11931.9884,W,1,10,1.0,6.1,M,-33.9,M,,*5F
$PYRTM,2024,123.000095835891,14.109743246030
$GPGGA,000007.00,3352.2570,N,11931.9878,W,1,10,1.0,6.2,M,-33.9,M,,*5B
$PYRTM,2024,123.000107512512,14.109754922650
$GPGGA,000008.00,3352.2574,N,11931.9874,W,1,10,1.0,6.3,M,-33.9,M,,*5D
$PYRTM,2024,123.000119099537,14.109766509676
$GPGGA,000009.00,3352.2580,N,11931.9870,W,1,10,1.0,6.2,M,-33.9,M,,*52
$PYRTM,2024,123.000130660567,14.109778070706
$GPGGA,000010.00,3352.2586,N,11931.9866,W,1,10,1.0,5.9,M,-33.9,M,,*53
$PYRTM,2024,123.000142246910,14.109789657049
$GPGGA,000011.00,3352.2593,N,11931.9860,W,1,10,1.0,5.8,M,-33.9,M,,*51
$PYRTM,2024,123.000153694306,14.109801104444
$GPGGA,000012.00,3352.2598,N,11931.9854,W,1,10,1.0,5.9,M,-33.9,M,,*5F
$PYRTM,2024,123.000165284375,14.109812694525
$GPGGA,000013.00,3352.2602,N,11931.9849,W,1,10,1.0,6.2,M,-33.9,M,,*5A
$PYRTM,2024,123.000176843160,14.109824253299
$GPGGA,000014.00,3352.2608,N,11931.9847,W,1,10,1.0,6.3,M,-33.9,M,,*58
$PYRTM,2024,123.000184140729,14.109831550868
$GPGGA,000015.00,3352.2615,N,11931.9844,W,1,10,1.0,6.1,M,-33.9,M,,*54
$PYRTM,2024,123.000200002130,14.109847412269
$GPGGA,000016.00,3352.2622,N,11931.9838,W,1,10,1.0,5.9,M,-33.9,M,,*53
$PYRTM,2024,123.000211576042,14.109858986181
$GPGGA,000017.00,3352.2627,N,11931.9831,W,1,10,1.0,5.8,M,-33.9,M,,*5F
$PYRTM,2024,123.000218867442,14.109866277581
$GPGGA,000018.00,3352.2632,N,11931.9826,W,1,10,1.0,6.0,M,-33.9,M,,*59
$PYRTM,2024,123.000237613113,14.109885023252
$GPGGA,000019.00,3352.2638,N,11931.9825,W,1,10,1.0,6.2,M,-33.9,M,,*53
$PYRTM,2024,123.000246300243,14.109893710382
$GPGGA,000020.00,3352.2645,N,11931.9823,W,1,10,1.0,6.1,M,-33.9,M,,*56
$PYRTM,2024,123.000257876377,14.109905286516
$GPGGA,000021.00,3352.2652,N,11931.9817,W,1,10,1.0,5.9,M,-33.9,M,,*5D
$PYRTM,2024,123.000269447095,14.109916857245
$GPGGA,000022.00,3352.2657,N,11931.9810,W,1,10,1.0,5.7,M,-33.9,M,,*52
$PYRTM,2024,123.000281021331,14.109928431470
$GPGGA,000023.00,3352.2663,N,11931.9804,W,1,10,1.0,5.8,M,-33.9,M,,*5E
$PYRTM,2024,123.000292589988,14.109940000127
$GPGGA,000024.00,3352.2669,N,11931.9803,W,1,10,1.0,6.0,M,-33.9,M,,*5F
$PYRTM,2024,123.000299886493,14.109947296632
$GPGGA,000025.00,3352.2677,N,11931.9802,W,1,10,1.0,5.9,M,-33.9,M,,*5A
$PYRTM,2024,123.000315744653,14.109963154792
$GPGGA,000026.00,3352.2684,N,11931.9797,W,1,10,1.0,5.8,M,-33.9,M,,*57
$PYRTM,2024,123.000327317558,14.109974727697
$GPGGA,000027.00,3352.2690,N,11931.9789,W,1,10,1.0,5.8,M,-33.9,M,,*5C
$PYRTM,2024,123.000338892176,14.109986302326
$GPGGA,000028.00,3352.2695,N,11931.9783,W,1,10,1.0,5.9,M,-33.9,M,,*5D
$PYRTM,2024,123.000350466215,14.109997876354
$GPGGA,000029.00,3352.2702,N,11931.9781,W,1,10,1.0,6.0,M,-33.9,M,,*5B
$PYRTM,2024,123.000362040093,14.110009450243
$GPGGA,000030.00,3352.2709,N,11931.9779,W,1,10,1.0,5.9,M,-33.9,M,,*55
$PYRTM,2024,123.000373617396,14.110021027535
$GPGGA,000031.00,3352.2716,N,11931.9775,W,1,10,1.0,5.6,M,-33.9,M,,*59
$PYRTM,2024,123.000385188507,14.110032598646
$GPGGA,000032.00,3352.2721,N,11931.9767,W,1,10,1.0,5.5,M,-33.9,M,,*5E
$PYRTM,2024,123.000392480822,14.110039890961
$GPGGA,000033.00,3352.2726,N,11931.9760,W,1,10,1.0,5.5,M,-33.9,M,,*5F
$PYRTM,2024,123.000404271435,14.110051681574
$GPGGA,000034.00,3352.2732,N,11931.9756,W,1,10,1.0,5.5,M,-33.9,M,,*58
$PYRTM,2024,123.000419913021,14.110067323160
$GPGGA,000035.00,3352.2739,N,11931.9755,W,1,10,1.0,5.5,M,-33.9,M,,*51
$PYRTM,2024,123.000431484178,14.110078894317
$GPGGA,000036.00,3352.2746,N,11931.9754,W,1,10,1.0,5.5,M,-33.9,M,,*5B
$PYRTM,2024,123.000438775775,14.110086185914
$GPGGA,000037.00,3352.2751,N,11931.9748,W,1,10,1.0,5.3,M,-33.9,M,,*57
$PYRTM,2024,123.000454634086,14.110102044236
$GPGGA,000038.00,3352.2756,N,11931.9740,W,1,10,1.0,5.3,M,-33.9,M,,*57
$PYRTM,2024,123.000466206921,14.110113617060
$GPGGA,000039.00,3352.2761,N,11931.9735,W,1,10,1.0,5.3,M,-33.9,M,,*50
$PYRTM,2024,123.000477781007,14.110125191146
$GPGGA,000040.00,3352.2768,N,11931.9733,W,1,10,1.0,5.3,M,-33.9,M,,*51
$PYRTM,2024,123.000489357164,14.110136767303
$GPGGA,000041.00,3352.2775,N,11931.9731,W,1,10,1.0,5.4,M,-33.9,M,,*59
$PYRTM,2024,123.000500928785,14.110148338924
$GPGGA,000042.00,3352.2782,N,11931.9726,W,1,10,1.0,5.6,M,-33.9,M,,*56
$PYRTM,2024,123.000512504572,14.110159914711
$GPGGA,000043.00,3352.2787,N,11931.9719,W,1,10,1.0,5.9,M,-33.9,M,,*51
$PYRTM,2024,123.000524076991,14.110171487130
$GPGGA,000044.00,3352.2793,N,11931.9712,W,1,10,1.0,6.1,M,-33.9,M,,*53
$PYRTM,2024,123.000535650984,14.110183061123
$GPGGA,000045.00,3352.2800,N,11931.9707,W,1,10,1.0,6.1,M,-33.9,M,,*53
$PYRTM,2024,123.000547224780,14.110194634919
$GPGGA,000046.00,3352.2807,N,11931.9702,W,1,10,1.0,5.9,M,-33.9,M,,*59
$PYRTM,2024,123.000558814664,14.110206224803
$GPGGA,000047.00,3352.2814,N,11931.9698,W,1,10,1.0,5.7,M,-33.9,M,,*56
$PYRTM,2024,123.000570373322,14.110217783461
$GPGGA,000048.00,3352.2820,N,11931.9693,W,1,10,1.0,5.6,M,-33.9,M,,*54
$PYRTM,2024,123.000577665625,14.110225075764
$GPGGA,000049.00,3352.2825,N,11931.9685,W,1,10,1.0,5.4,M,-33.9,M,,*55
$PYRTM,2024,123.000593521042,14.110240931181
$GPGGA,000050.00,3352.2830,N,11931.9678,W,1,10,1.0,5.2,M,-33.9,M,,*5D
$PYRTM,2024,123.000605096331,14.110252506470
$GPGGA,000051.00,3352.2837,N,11931.9675,W,1,10,1.0,5.0,M,-33.9,M,,*54
$PYRTM,2024,123.000612413912,14.110259824051
$GPGGA,000052.00,3352.2844,N,11931.9673,W,1,10,1.0,5.2,M,-33.9,M,,*57
$PYRTM,2024,123.000628243727,14.110275653866
$GPGGA,000053.00,3352.2850,N,11931.9669,W,1,10,1.0,5.6,M,-33.9,M,,*5C
$PYRTM,2024,123.000639813137,14.110287223275
$GPGGA,000054.00,3352.2854,N,11931.9661,W,1,10,1.0,5.7,M,-33.9,M,,*56
$PYRTM,2024,123.000651392211,14.110298802350
$GPGGA,000055.00,3352.2857,N,11931.9653,W,1,10,1.0,5.8,M,-33.9,M,,*5A
$PYRTM,2024,123.000662966620,14.110310376759
$GPGGA,000056.00,3352.2863,N,11931.9647,W,1,10,1.0,5.9,M,-33.9,M,,*5A
$PYRTM,2024,123.000670251898,14.110317662037
$GPGGA,000057.00,3352.2870,N,11931.9645,W,1,10,1.0,5.8,M,-33.9,M,,*5A
$PYRTM,2024,123.000686114410,14.110333524549
$GPGGA,000058.00,3352.2877,N,11931.9641,W,1,10,1.0,5.9,M,-33.9,M,,*57
$PYRTM,2024,123.000697688519,14.110345098657
$GPGGA,000059.00,3352.2882,N,11931.9633,W,1,10,1.0,5.9,M,-33.9,M,,*59
$PYRTM,2024,123.000704991516,14.110352401655
$GPGGA,000100.00,3352.2886,N,11931.9625,W,1,10,1.0,6.0,M,-33.9,M,,*5D
$PYRTM,2024,123.000720852060,14.110368262199
$GPGGA,000101.00,3352.2890,N,11931.9619,W,1,10,1.0,6.0,M,-33.9,M,,*54
$PYRTM,2024,123.000732410949,14.110379821088
$GPGGA,000102.00,3352.2897,N,11931.9617,W,1,09,1.0,5.4,M,-33.9,M,,*51
$PYRTM,2024,123.000743999919,14.110391410058
$GPGGA,000103.00,3352.2902,N,11931.9614,W,1,09,1.0,5.0,M,-33.9,M,,*5A
$PYRTM,2024,123.000755560521,14.110402970660
$GPGGA,000104.00,3352.2906,N,11931.9606,W,1,09,1.0,4.7,M,-33.9,M,,*5C
$PYRTM,2024,123.000762852859,14.110410262998
$GPGGA,000105.00,3352.2908,N,11931.9597,W,1,09,1.0,4.4,M,-33.9,M,,*5B
$PYRTM,2024,123.000778708310,14.110426118461
$GPGGA,000106.00,3352.2910,N,11931.9591,W,1,09,1.0,4.3,M,-33.9,M,,*50
$PYRTM,2024,123.000790282766,14.110437692917
$GPGGA,000107.00,3352.2915,N,11931.9587,W,1,09,1.0,4.3,M,-33.9,M,,*53
$PYRTM,2024,123.000801856100,14.110449266250
$GPGGA,000108.00,3352.2921,N,11931.9584,W,1,09,1.0,4.1,M,-33.9,M,,*5A
$PYRTM,2024,123.000813433657,14.110460843808
$GPGGA,000109.00,3352.2926,N,11931.9577,W,1,09,1.0,3.9,M,-33.9,M,,*5F
$PYRTM,2024,123.000820721134,14.110468131273
$GPGGA,000110.00,3352.2929,N,11931.9569,W,1,09,1.0,3.7,M,-33.9,M,,*59
$PYRTM,2024,123.000836574051,14.110483984190
$GPGGA,000111.00,3352.2932,N,11931.9563,W,1,09,1.0,3.7,M,-33.9,M,,*58
$PYRTM,2024,123.000848152512,14.110495562650
$GPGGA,000112.00,3352.2937,N,11931.9559,W,1,09,1.0,3.8,M,-33.9,M,,*58
$PYRTM,2024,123.000859726840,14.110507136979
$GPGGA,000113.00,3352.2942,N,11931.9556,W,1,09,1.0,4.0,M,-33.9,M,,*5B
$PYRTM,2024,123.000871300752,14.110518710891
$GPGGA,000114.00,3352.2948,N,11931.9552,W,1,09,1.0,4.2,M,-33.9,M,,*50
$PYRTM,2024,123.000878607940,14.110526018079
$GPGGA,000115.00,3352.2952,N,11931.9545,W,1,09,1.0,4.4,M,-33.9,M,,*5A
$PYRTM,2024,123.000894448947,14.110541859086
$GPGGA,000116.00,3352.2954,N,11931.9538,W,1,09,1.0,4.7,M,-33.9,M,,*56
$PYRTM,2024,123.000906030475,14.110553440613
$GPGGA,000117.00,3352.2958,N,11931.9531,W,1,09,1.0,4.9,M,-33.9,M,,*5C
$PYRTM,2024,123.000913302986,14.110560713137
$GPGGA,000118.00,3352.2962,N,11931.9527,W,1,09,1.0,5.0,M,-33.9,M,,*55
$PYRTM,2024,123.000929171238,14.110576581377
$GPGGA,000119.00,3352.2967,N,11931.9523,W,1,09,1.0,5.1,M,-33.9,M,,*54
$PYRTM,2024,123.000936450347,14.110583860486
$GPGGA,000120.00,3352.2971,N,11931.9518,W,1,09,1.0,5.1,M,-33.9,M,,*51
$PYRTM,2024,123.000952330868,14.110599741007
$GPGGA,000121.00,3352.2974,N,11931.9511,W,1,09,1.0,5.1,M,-33.9,M,,*5C
$PYRTM,2024,123.000963893426,14.110611303565
$GPGGA,000122.00,3352.2976,N,11931.9503,W,1,09,1.0,5.0,M,-33.9,M,,*5F
$PYRTM,2024,123.000971180174,14.110618590312
$GPGGA,000123.00,3352.2980,N,11931.9498,W,1,09,1.0,5.1,M,-33.9,M,,*55
$PYRTM,2024,123.000987043183,14.110634453322
$GPGGA,000124.00,3352.2984,N,11931.9494,W,1,09,1.0,5.2,M,-33.9,M,,*59
$PYRTM,2024,123.000998615313,14.110646025451
$GPGGA,000125.00,3352.2988,N,11931.9489,W,1,09,1.0,5.1,M,-33.9,M,,*5B
$PYRTM,2024,123.001005894410,14.110653304560
$GPGGA,000126.00,3352.2991,N,11931.9482,W,1,09,1.0,5.2,M,-33.9,M,,*58
$PYRTM,2024,123.001021774560,14.110669184699
$GPGGA,000127.00,3352.2994,N,11931.9474,W,1,09,1.0,5.2,M,-33.9,M,,*55
$PYRTM,2024,123.001033337488,14.110680747627
$GPGGA,000128.00,3352.2996,N,11931.9468,W,1,09,1.0,5.2,M,-33.9,M,,*55
$PYRTM,2024,123.001044919583,14.110692329722
$GPGGA,000129.00,3352.3001,N,11931.9464,W,1,09,1.0,5.4,M,-33.9,M,,*58
$PYRTM,2024,123.001056481667,14.110703891806
$GPGGA,000130.00,3352.3005,N,11931.9461,W,1,09,1.0,5.6,M,-33.9,M,,*53
$PYRTM,2024,123.001063774016,14.110711184155
$GPGGA,000131.00,3352.3008,N,11931.9454,W,1,09,1.0,5.7,M,-33.9,M,,*58
$PYRTM,2024,123.001079634919,14.110727045058
$GPGGA,000132.00,3352.3010,N,11931.9447,W,1,09,1.0,5.7,M,-33.9,M,,*50
$PYRTM,2024,123.001086921424,14.110734331563
$GPGGA,000133.00,3352.3011,N,11931.9440,W,1,09,1.0,5.5,M,-33.9,M,,*55
$PYRTM,2024,123.001098734907,14.110746145046
$GPGGA,000134.00,3352.3015,N,11931.9436,W,1,09,1.0,5.6,M,-33.9,M,,*54
$PYRTM,2024,123.001114357407,14.110761767546
$GPGGA,000135.00,3352.3019,N,11931.9433,W,1,09,1.0,5.7,M,-33.9,M,,*5D
$PYRTM,2024,123.001121636968,14.110769047106
$GPGGA,000136.00,3352.3022,N,11931.9427,W,1,09,1.0,5.7,M,-33.9,M,,*53
$PYRTM,2024,123.001137517211,14.110784927350
$GPGGA,000137.00,3352.3024,N,11931.9420,W,1,09,1.0,5.6,M,-33.9,M,,*52
$PYRTM,2024,123.001149079051,14.110796489190
$GPGGA,000138.00,3352.3025,N,11931.9413,W,1,09,1.0,5.6,M,-33.9,M,,*5C
$PYRTM,2024,123.001156370637,14.110803780787
$GPGGA,000139.00,3352.3027,N,11931.9407,W,1,09,1.0,5.5,M,-33.9,M,,*59
$PYRTM,2024,123.001172228646,14.110819638785
$GPGGA,000140.00,3352.3031,N,11931.9403,W,1,09,1.0,5.6,M,-33.9,M,,*57
$PYRTM,2024,123.001183801852,14.110831211991
$GPGGA,000141.00,3352.3035,N,11931.9398,W,1,09,1.0,5.6,M,-33.9,M,,*57
$PYRTM,2024,123.001195370694,14.110842780833
$GPGGA,000142.00,3352.3037,N,11931.9392,W,1,09,1.0,5.7,M,-33.9,M,,*5D
$PYRTM,2024,123.001206961655,14.110854371794
$GPGGA,000143.00,3352.3038,N,11931.9385,W,1,09,1.0,5.5,M,-33.9,M,,*57
$PYRTM,2024,123.001214228137,14.110861638275
$GPGGA,000144.00,3352.3039,N,11931.9378,W,1,09,1.0,5.4,M,-33.9,M,,*52
$PYRTM,2024,123.001230123785,14.110877533924
$GPGGA,000145.00,3352.3042,N,11931.9373,W,1,09,1.0,5.3,M,-33.9,M,,*53
$PYRTM,2024,123.001241673843,14.110889083981
$GPGGA,000146.00,3352.3046,N,11931.9368,W,1,09,1.0,5.3,M,-33.9,M,,*5E
$PYRTM,2024,123.001253257187,14.110900667326
$GPGGA,000147.00,3352.3049,N,11931.9363,W,1,09,1.0,5.5,M,-33.9,M,,*5D
$PYRTM,2024,123.001264822685,14.110912232824
$GPGGA,000148.00,3352.3050,N,11931.9357,W,1,09,1.0,5.5,M,-33.9,M,,*5D
$PYRTM,2024,123.001276394167,14.110923804306
$GPGGA,000149.00,3352.3050,N,11931.9350,W,1,09,1.0,5.5,M,-33.9,M,,*5B
$PYRTM,2024,123.001287964167,14.110935374306
$GPGGA,000150.00,3352.3052,N,11931.9344,W,1,09,1.0,5.6,M,-33.9,M,,*57
$PYRTM,2024,123.001295255648,14.110942665787
$GPGGA,000151.00,3352.3056,N,11931.9339,W,1,09,1.0,5.5,M,-33.9,M,,*5B
$PYRTM,2024,123.001311117801,14.110958527940
$GPGGA,000152.00,3352.3060,N,11931.9333,W,1,09,1.0,5.5,M,-33.9,M,,*57
$PYRTM,2024,123.001322690752,14.110970100891
$GPGGA,000153.00,3352.3062,N,11931.9328,W,1,09,1.0,5.5,M,-33.9,M,,*5E
$PYRTM,2024,123.001334266331,14.110981676470
$GPGGA,000154.00,3352.3063,N,11931.9321,W,1,09,1.0,5.5,M,-33.9,M,,*51
$PYRTM,2024,123.001345840220,14.110993250359
$GPGGA,000155.00,3352.3064,N,11931.9314,W,1,09,1.0,5.4,M,-33.9,M,,*50
$PYRTM,2024,123.001357413738,14.111004823877
$GPGGA,000156.00,3352.3066,N,11931.9308,W,1,09,1.0,5.3,M,-33.9,M,,*5B
$PYRTM,2024,123.001364704861,14.111012115000
$GPGGA,000157.00,3352.3069,N,11931.9302,W,1,09,1.0,5.2,M,-33.9,M,,*5E
$PYRTM,2024,123.001380561713,14.111027971852
$GPGGA,000158.00,3352.3071,N,11931.9296,W,1,09,1.0,5.1,M,-33.9,M,,*57
$PYRTM,2024,123.001392144572,14.111039554711
$GPGGA,000159.00,3352.3073,N,11931.9291,W,1,09,1.0,5.0,M,-33.9,M,,*52
$PYRTM,2024,123.001403710949,14.111051121088
$GPGGA,000200.00,3352.3074,N,11931.9285,W,1,09,1.0,5.0,M,-33.9,M,,*5F
$PYRTM,2024,123.001415291817,14.111062701956
$GPGGA,000201.00,3352.3076,N,11931.9280,W,1,09,1.0,5.0,M,-33.9,M,,*59
$PYRTM,2024,123.001422563507,14.111069973646
$GPGGA,000202.00,3352.3078,N,11931.9273,W,1,09,1.0,4.9,M,-33.9,M,,*50
$PYRTM,2024,123.001438432350,14.111085842488
$GPGGA,000203.00,3352.3080,N,11931.9267,W,1,09,1.0,4.9,M,-33.9,M,,*53
$PYRTM,2024,123.001450005729,14.111097415868
$GPGGA,000204.00,3352.3082,N,11931.9262,W,1,09,1.0,4.9,M,-33.9,M,,*53
$PYRTM,2024,123.001461592650,14.111109002789
$GPGGA,000205.00,3352.3085,N,11931.9257,W,1,09,1.0,4.9,M,-33.9,M,,*53
$PYRTM,2024,123.001473155579,14.111120565718
$GPGGA,000206.00,3352.3086,N,11931.9251,W,1,09,1.0,4.9,M,-33.9,M,,*55
$PYRTM,2024,123.001480448403,14.111127858542
$GPGGA,000207.00,3352.3088,N,11931.9244,W,1,09,1.0,4.9,M,-33.9,M,,*5E
$PYRTM,2024,123.001496302905,14.111143713044
$GPGGA,000208.00,3352.3089,N,11931.9238,W,1,09,1.0,4.8,M,-33.9,M,,*5A
$PYRTM,2024,123.001507876319,14.111155286458
$GPGGA,000209.00,3352.3091,N,11931.9232,W,1,09,1.0,4.9,M,-33.9,M,,*59
$PYRTM,2024,123.001519452581,14.111166862720
$GPGGA,000210.00,3352.3093,N,11931.9228,W,1,09,1.0,4.9,M,-33.9,M,,*58
$PYRTM,2024,123.001531036042,14.111178446181
$GPGGA,000211.00,3352.3095,N,11931.9222,W,1,09,1.0,4.9,M,-33.9,M,,*55
$PYRTM,2024,123.001542599097,14.111190009248
$GPGGA,000212.00,3352.3097,N,11931.9216,W,1,09,1.0,4.8,M,-33.9,M,,*52
$PYRTM,2024,123.001554183843,14.111201593981
$GPGGA,000213.00,3352.3098,N,11931.9209,W,1,09,1.0,4.7,M,-33.9,M,,*5D
$PYRTM,2024,123.001565865093,14.111213275243
$GPGGA,000214.00,3352.3100,N,11931.9202,W,1,09,1.0,4.7,M,-33.9,M,,*51
$PYRTM,2024,123.001577439803,14.111224849942
$GPGGA,000215.00,3352.3102,N,11931.9197,W,1,09,1.0,4.7,M,-33.9,M,,*5D
$PYRTM,2024,123.001589011620,14.111236421759
$GPGGA,000216.00,3352.3104,N,11931.9192,W,1,09,1.0,4.7,M,-33.9,M,,*5D
$PYRTM,2024,123.001596290914,14.111243701053
$GPGGA,000217.00,3352.3106,N,11931.9187,W,1,09,1.0,4.7,M,-33.9,M,,*5A
$PYRTM,2024,123.001612038912,14.111259449051
$GPGGA,000218.00,3352.3107,N,11931.9180,W,1,09,1.0,4.7,M,-33.9,M,,*53
$PYRTM,2024,123.001623618646,14.111271028785
$GPGGA,000219.00,3352.3107,N,11931.9174,W,1,09,1.0,4.6,M,-33.9,M,,*58
$PYRTM,2024,123.001630897535,14.111278307674
$GPGGA,000220.00,3352.3109,N,11931.9168,W,1,09,1.0,4.6,M,-33.9,M,,*51
$PYRTM,2024,123.001646779456,14.111294189595
$GPGGA,000221.00,3352.3112,N,11931.9164,W,1,09,1.0,4.6,M,-33.9,M,,*56
$PYRTM,2024,123.001654046262,14.111301456412
$GPGGA,000222.00,3352.3114,N,11931.9159,W,1,09,1.0,4.6,M,-33.9,M,,*5D
$PYRTM,2024,123.001672808588,14.111320218738
$GPGGA,000223.00,3352.3114,N,11931.9153,W,1,09,1.0,4.7,M,-33.9,M,,*57
$PYRTM,2024,123.001681488796,14.111328898935
$GPGGA,000224.00,3352.3115,N,11931.9146,W,1,09,1.0,4.6,M,-33.9,M,,*54
$PYRTM,2024,123.001688795567,14.111336205706
$GPGGA,000225.00,3352.3117,N,11931.9140,W,1,09,1.0,4.6,M,-33.9,M,,*51
$PYRTM,2024,123.001704636250,14.111352046389
$GPGGA,000226.00,3352.3119,N,11931.9135,W,1,09,1.0,4.6,M,-33.9,M,,*5E
$PYRTM,2024,123.001716237199,14.111363647338
$GPGGA,000227.00,3352.3122,N,11931.9130,W,1,09,1.0,4.6,M,-33.9,M,,*52
$PYRTM,2024,123.001727785197,14.111375195336
$GPGGA,000228.00,3352.3123,N,11931.9123,W,1,09,1.0,4.6,M,-33.9,M,,*5E
$PYRTM,2024,123.001739382813,14.111386792951
$GPGGA,000229.00,3352.3124,N,11931.9117,W,1,09,1.0,4.7,M,-33.9,M,,*5E
$PYRTM,2024,123.001746637859,14.111394047998
$GPGGA,000230.00,3352.3125,N,11931.9111,W,1,09,1.0,4.7,M,-33.9,M,,*51
$PYRTM,2024,123.001762507002,14.111409917141
$GPGGA,000231.00,3352.3128,N,11931.9106,W,1,09,1.0,4.7,M,-33.9,M,,*5B
$PYRTM,2024,123.001774083079,14.111421493218
$GPGGA,000232.00,3352.3130,N,11931.9101,W,1,09,1.0,4.7,M,-33.9,M,,*56
$PYRTM,2024,123.001785667431,14.111433077569
$GPGGA,000233.00,3352.3132,N,11931.9096,W,1,09,1.0,4.7,M,-33.9,M,,*5A
$PYRTM,2024,123.001797225000,14.111444635139
$GPGGA,000234.00,3352.3134,N,11931.9091,W,1,09,1.0,4.7,M,-33.9,M,,*5C
$PYRTM,2024,123.001808803588,14.111456213727
$GPGGA,000235.00,3352.3135,N,11931.9085,W,1,09,1.0,4.7,M,-33.9,M,,*59
$PYRTM,2024,123.001820373484,14.111467783623
$GPGGA,000236.00,3352.3136,N,11931.9079,W,1,09,1.0,4.7,M,-33.9,M,,*5A
$PYRTM,2024,123.001827670243,14.111475080382
$GPGGA,000237.00,3352.3137,N,11931.9074,W,1,09,1.0,4.8,M,-33.9,M,,*58
$PYRTM,2024,123.001839463171,14.111486873310
$GPGGA,000238.00,3352.3140,N,11931.9068,W,1,09,1.0,4.8,M,-33.9,M,,*5A
$PYRTM,2024,123.001851037315,14.111498447454
$GPGGA,000239.00,3352.3143,N,11931.9063,W,1,09,1.0,4.9,M,-33.9,M,,*52
$PYRTM,2024,123.001866674294,14.111514084433
$GPGGA,000240.00,3352.3144,N,11931.9057,W,1,09,1.0,4.9,M,-33.9,M,,*5C
$PYRTM,2024,123.001878256539,14.111525666678
$GPGGA,000241.00,3352.3146,N,11931.9051,W,1,09,1.0,4.9,M,-33.9,M,,*59
$PYRTM,2024,123.001889817384,14.111537227523
$GPGGA,000242.00,3352.3147,N,11931.9046,W,1,09,1.0,4.9,M,-33.9,M,,*5D
$PYRTM,2024,123.001901407431,14.111548817569
$GPGGA,000243.00,3352.3150,N,11931.9040,W,1,09,1.0,4.9,M,-33.9,M,,*5C
$PYRTM,2024,123.001912966470,14.111560376609
$GPGGA,000244.00,3352.3151,N,11931.9035,W,1,09,1.0,4.8,M,-33.9,M,,*59
$PYRTM,2024,123.001924581817,14.111571991956
$GPGGA,000245.00,3352.3153,N,11931.9028,W,1,09,1.0,4.8,M,-33.9,M,,*56
$PYRTM,2024,123.001936113403,14.111583523542
$GPGGA,000246.00,3352.3155,N,11931.9023,W,1,09,1.0,4.8,M,-33.9,M,,*58
$PYRTM,2024,123.001947693171,14.111595103310
$GPGGA,000247.00,3352.3157,N,11931.9018,W,1,09,1.0,4.9,M,-33.9,M,,*52
$PYRTM,2024,123.001959262199,14.111606672338
$GPGGA,000248.00,3352.3160,N,11931.9014,W,1,09,1.0,4.8,M,-33.9,M,,*54
$PYRTM,2024,123.001970854028,14.111618264167
$GPGGA,000249.00,3352.3161,N,11931.9008,W,1,09,1.0,4.8,M,-33.9,M,,*59
$PYRTM,2024,123.001978121887,14.111625532025
$GPGGA,000250.00,3352.3161,N,11931.9001,W,1,09,1.0,4.7,M,-33.9,M,,*57
$PYRTM,2024,123.001993989653,14.111641399792
$GPGGA,000251.00,3352.3162,N,11931.8994,W,1,09,1.0,4.7,M,-33.9,M,,*51
$PYRTM,2024,123.002005559074,14.111652969213
$GPGGA,000252.00,3352.3166,N,11931.8989,W,1,09,1.0,4.9,M,-33.9,M,,*54
$PYRTM,2024,123.002012859687,14.111660269838
$GPGGA,000253.00,3352.3170,N,11931.8985,W,1,09,1.0,5.2,M,-33.9,M,,*54
$PYRTM,2024,123.002028713600,14.111676123750
$GPGGA,000254.00,3352.3172,N,11931.8981,W,1,09,1.0,5.4,M,-33.9,M,,*53
$PYRTM,2024,123.002036007083,14.111683417222
$GPGGA,000255.00,3352.3173,N,11931.8974,W,1,09,1.0,5.5,M,-33.9,M,,*58
$PYRTM,2024,123.002051860579,14.111699270718
$GPGGA,000256.00,3352.3174,N,11931.8967,W,1,09,1.0,5.3,M,-33.9,M,,*58
$PYRTM,2024,123.002063442188,14.111710852326
$GPGGA,000257.00,3352.3176,N,11931.8961,W,1,09,1.0,4.8,M,-33.9,M,,*57
$PYRTM,2024,123.002070713333,14.111718123484
$GPGGA,000258.00,3352.3179,N,11931.8956,W,1,09,1.0,4.4,M,-33.9,M,,*5F
$PYRTM,2024,123.002086582396,14.111733992535
$GPGGA,000259.00,3352.3181,N,11931.8952,W,1,09,1.0,4.4,M,-33.9,M,,*5D
$PYRTM,2024,123.002098156748,14.111745566887
$GPGGA,000300.00,3352.3183,N,11931.8948,W,1,09,1.0,4.3,M,-33.9,M,,*5E
$PYRTM,2024,123.002109730995,14.111757141134
$GPGGA,000301.00,3352.3183,N,11931.8941,W,1,09,1.0,4.4,M,-33.9,M,,*51
$PYRTM,2024,123.002121301759,14.111768711898
$GPGGA,000302.00,3352.3184,N,11931.8934,W,1,09,1.0,4.5,M,-33.9,M,,*56
$PYRTM,2024,123.002132890336,14.111780300475
$GPGGA,000303.00,3352.3187,N,11931.8929,W,1,09,1.0,4.6,M,-33.9,M,,*5B
$PYRTM,2024,123.002144448958,14.111791859097
$GPGGA,000304.00,3352.3190,N,11931.8925,W,1,09,1.0,4.7,M,-33.9,M,,*57
$PYRTM,2024,123.002156040208,14.111803450567
$GPGGA,000305.00,3352.3193,N,11931.8920,W,1,09,1.0,4.8,M,-33.9,M,,*5F
$PYRTM,2024,123.002163306678,14.111810716817
$GPGGA,000306.00,3352.3194,N,11931.8913,W,1,09,1.0,4.8,M,-33.9,M,,*5B
$PYRTM,2024,123.002179183634,14.111826593773
$GPGGA,000307.00,3352.3195,N,11931.8907,W,1,09,1.0,4.8,M,-33.9,M,,*5E
$PYRTM,2024,123.002190749236,14.111838159375
$GPGGA,000308.00,3352.3197,N,11931.8903,W,1,09,1.0,4.8,M,-33.9,M,,*57
$PYRTM,2024,123.002202331620,14.111849741759
$GPGGA,000309.00,3352.3201,N,11931.8900,W,1,09,1.0,4.8,M,-33.9,M,,*59
$PYRTM,2024,123.002209602558,14.111857012697
$GPGGA,000310.00,3352.3204,N,11931.8895,W,1,09,1.0,4.8,M,-33.9,M,,*59
$PYRTM,2024,123.002225498102,14.111872908241
$GPGGA,000311.00,3352.3206,N,11931.8888,W,1,09,1.0,4.9,M,-33.9,M,,*57
$PYRTM,2024,123.002237047778,14.111884457917
$GPGGA,000312.00,3352.3207,N,11931.8882,W,1,09,1.0,4.9,M,-33.9,M,,*5F
$PYRTM,2024,123.002248632049,14.111896042188
$GPGGA,000313.00,3352.3208,N,11931.8877,W,1,09,1.0,5.0,M,-33.9,M,,*53
$PYRTM,2024,123.002260196667,14.111907606806
$GPGGA,000314.00,3352.3212,N,11931.8872,W,1,09,1.0,5.1,M,-33.9,M,,*5B
$PYRTM,2024,123.002271756331,14.111919166470
$GPGGA,000315.00,3352.3214,N,11931.8867,W,1,09,1.0,5.1,M,-33.9,M,,*58
$PYRTM,2024,123.002279048113,14.111926458252
$GPGGA,000316.00,3352.3215,N,11931.8860,W,1,09,1.0,5.0,M,-33.9,M,,*5C
$PYRTM,2024,123.002294904572,14.111942314711
$GPGGA,000317.00,3352.3216,N,11931.8854,W,1,09,1.0,4.8,M,-33.9,M,,*50
$PYRTM,2024,123.002306493981,14.111953904120
$GPGGA,000318.00,3352.3218,N,11931.8848,W,1,09,1.0,4.8,M,-33.9,M,,*5C
$PYRTM,2024,123.002318053148,14.111965463299
$GPGGA,000319.00,3352.3221,N,11931.8845,W,1,09,1.0,4.8,M,-33.9,M,,*5A
$PYRTM,2024,123.002329634155,14.111977044294
$GPGGA,000320.00,3352.3224,N,11931.8841,W,1,09,1.0,4.9,M,-33.9,M,,*50
$PYRTM,2024,123.002336940046,14.111984350185
$GPGGA,000321.00,3352.3227,N,11931.8836,W,1,09,1.0,4.9,M,-33.9,M,,*52
$PYRTM,2024,123.002352781458,14.112000191597
$GPGGA,000322.00,3352.3228,N,11931.8829,W,1,09,1.0,4.8,M,-33.9,M,,*51
$PYRTM,2024,123.002364348727,14.112011758866
$GPGGA,000323.00,3352.3228,N,11931.8823,W,1,09,1.0,4.7,M,-33.9,M,,*55
$PYRTM,2024,123.002371641238,14.112019051377
$GPGGA,000324.00,3352.3231,N,11931.8818,W,1,09,1.0,4.7,M,-33.9,M,,*52
$PYRTM,2024,123.002387497708,14.112034907847
$GPGGA,000325.00,3352.3234,N,11931.8815,W,1,09,1.0,4.7,M,-33.9,M,,*5B
$PYRTM,2024,123.002399083773,14.112046493912
$GPGGA,000326.00,3352.3238,N,11931.8810,W,1,09,1.0,4.7,M,-33.9,M,,*51
$PYRTM,2024,123.002410645428,14.112058055567
$GPGGA,000327.00,3352.3239,N,11931.8804,W,1,09,1.0,4.7,M,-33.9,M,,*54
$PYRTM,2024,123.002422235139,14.112069645278
$GPGGA,000328.00,3352.3240,N,11931.8798,W,1,09,1.0,4.7,M,-33.9,M,,*5F
$PYRTM,2024,123.002433794363,14.112081204502
$GPGGA,000329.00,3352.3242,N,11931.8793,W,1,09,1.0,4.7,M,-33.9,M,,*57
$PYRTM,2024,123.002445394769,14.112092804907
$GPGGA,000330.00,3352.3244,N,11931.8787,W,1,09,1.0,4.8,M,-33.9,M,,*53
$PYRTM,2024,123.002456943391,14.112104353530
$GPGGA,000331.00,3352.3248,N,11931.8782,W,1,09,1.0,4.8,M,-33.9,M,,*5B
$PYRTM,2024,123.002468532130,14.112115942269
$GPGGA,000332.00,3352.3250,N,11931.8776,W,1,09,1.0,4.8,M,-33.9,M,,*5A
$PYRTM,2024,123.002480090683,14.112127500822
$GPGGA,000333.00,3352.3251,N,11931.8771,W,1,09,1.0,4.8,M,-33.9,M,,*5D
$PYRTM,2024,123.002487383715,14.112134793854
$GPGGA,000334.00,3352.3253,N,11931.8767,W,1,09,1.0,4.8,M,-33.9,M,,*5F
$PYRTM,2024,123.002503238796,14.112150648935
$GPGGA,000335.00,3352.3256,N,11931.8762,W,1,09,1.0,4.9,M,-33.9,M,,*5F
$PYRTM,2024,123.002514825556,14.112162235694
$GPGGA,000336.00,3352.3259,N,11931.8757,W,1,09,1.0,4.9,M,-33.9,M,,*55
$PYRTM,2024,123.002526387164,14.112173797303
$GPGGA,000337.00,3352.3261,N,11931.8751,W,1,09,1.0,4.9,M,-33.9,M,,*59
$PYRTM,2024,123.002537968125,14.112185378264
$GPGGA,000338.00,3352.3262,N,11931.8746,W,1,09,1.0,4.8,M,-33.9,M,,*52
$PYRTM,2024,123.002549534907,14.112196945046
$GPGGA,000339.00,3352.3264,N,11931.8741,W,1,09,1.0,4.7,M,-33.9,M,,*5D
$PYRTM,2024,123.002561121505,14.112208531644
$GPGGA,000340.00,3352.3266,N,11931.8736,W,1,09,1.0,4.8,M,-33.9,M,,*5E
$PYRTM,2024,123.002568409630,14.112215819769
$GPGGA,000341.00,3352.3270,N,11931.8732,W,1,09,1.0,4.7,M,-33.9,M,,*53
$PYRTM,2024,123.002584270243,14.112231680382
$GPGGA,000342.00,3352.3273,N,11931.8727,W,1,09,1.0,4.7,M,-33.9,M,,*57
$PYRTM,2024,123.002595833137,14.112243243275
$GPGGA,000343.00,3352.3274,N,11931.8721,W,1,09,1.0,4.8,M,-33.9,M,,*58
$PYRTM,2024,123.002607420752,14.112254830891
$GPGGA,000344.00,3352.3275,N,11931.8716,W,1,09,1.0,4.8,M,-33.9,M,,*5A
$PYRTM,2024,123.002618979097,14.112266389236
$GPGGA,000345.00,3352.3277,N,11931.8710,W,1,09,1.0,4.8,M,-33.9,M,,*5F
$PYRTM,2024,123.002626270590,14.112273680729
$GPGGA,000346.00,3352.3280,N,11931.8705,W,1,09,1.0,4.8,M,-33.9,M,,*50
$PYRTM,2024,123.002642126215,14.112289536354
$GPGGA,000347.00,3352.3284,N,11931.8700,W,1,09,1.0,4.7,M,-33.9,M,,*5F
$PYRTM,2024,123.002653728252,14.112301138391
$GPGGA,000348.00,3352.3286,N,11931.8695,W,1,09,1.0,4.6,M,-33.9,M,,*5E
$PYRTM,2024,123.002665276308,14.112312686447
$GPGGA,000349.00,3352.3288,N,11931.8690,W,1,09,1.0,4.6,M,-33.9,M,,*54
$PYRTM,2024,123.002676863646,14.112324273785
$GPGGA,000350.00,3352.3291,N,11931.8685,W,1,09,1.0,4.6,M,-33.9,M,,*50
$PYRTM,2024,123.002688423403,14.112335833542
$GPGGA,000351.00,3352.3292,N,11931.8679,W,1,09,1.0,4.5,M,-33.9,M,,*52
$PYRTM,2024,123.002700010671,14.112347420810
$GPGGA,000352.00,3352.3294,N,11931.8673,W,1,09,1.0,4.5,M,-33.9,M,,*5D
$PYRTM,2024,123.002711571921,14.112358982060
$GPGGA,000353.00,3352.3297,N,11931.8668,W,1,09,1.0,4.4,M,-33.9,M,,*54
$PYRTM,2024,123.002723159340,14.112370569491
$GPGGA,000354.00,3352.3299,N,11931.8663,W,1,09,1.0,4.3,M,-33.9,M,,*51
$PYRTM,2024,123.002730445567,14.112377855706
$GPGGA,000355.00,3352.3301,N,11931.8658,W,1,09,1.0,4.3,M,-33.9,M,,*58
$PYRTM,2024,123.002746309190,14.112393719329
$GPGGA,000356.00,3352.3302,N,11931.8653,W,1,09,1.0,4.2,M,-33.9,M,,*52
$PYRTM,2024,123.002757869537,14.112405279676
$GPGGA,000357.00,3352.3304,N,11931.8647,W,1,09,1.0,4.2,M,-33.9,M,,*50
$PYRTM,2024,123.002769454873,14.112416865012
$GPGGA,000358.00,3352.3307,N,11931.8642,W,1,09,1.0,4.2,M,-33.9,M,,*59
$PYRTM,2024,123.002781017720,14.112428427859
$GPGGA,000359.00,3352.3309,N,11931.8638,W,1,09,1.0,4.2,M,-33.9,M,,*5B
$PYRTM,2024,123.002792606354,14.112440016493
$GPGGA,000400.00,3352.3312,N,11931.8634,W,1,09,1.0,4.3,M,-33.9,M,,*57
$PYRTM,2024,123.002799895486,14.112447305625
$GPGGA,000401.00,3352.3315,N,11931.8628,W,1,09,1.0,4.3,M,-33.9,M,,*5C
$PYRTM,2024,123.002815765937,14.112463176076
$GPGGA,000402.00,3352.3317,N,11931.8621,W,1,09,1.0,4.3,M,-33.9,M,,*54
$PYRTM,2024,123.002827313681,14.112474723831
$GPGGA,000403.00,3352.3320,N,11931.8616,W,1,09,1.0,4.2,M,-33.9,M,,*54
$PYRTM,2024,123.002838901192,14.112486311331
$GPGGA,000404.00,3352.3323,N,11931.8612,W,1,09,1.0,4.1,M,-33.9,M,,*57
$PYRTM,2024,123.002850461458,14.112497871586
$GPGGA,000405.00,3352.3325,N,11931.8607,W,1,09,1.0,4.1,M,-33.9,M,,*54
$PYRTM,2024,123.002862048669,14.112509458808
$GPGGA,000406.00,3352.3327,N,11931.8601,W,1,09,1.0,4.1,M,-33.9,M,,*53
$PYRTM,2024,123.002873609201,14.112521019340
$GPGGA,000407.00,3352.3329,N,11931.8596,W,1,09,1.0,4.1,M,-33.9,M,,*51
$PYRTM,2024,123.002885198333,14.112532608472
$GPGGA,000408.00,3352.3331,N,11931.8591,W,1,09,1.0,4.0,M,-33.9,M,,*51
$PYRTM,2024,123.002896757743,14.112544167882
$GPGGA,000409.00,3352.3334,N,11931.8588,W,1,09,1.0,4.0,M,-33.9,M,,*5D
$PYRTM,2024,123.002908344873,14.112555755012
$GPGGA,000410.00,3352.3336,N,11931.8584,W,1,09,1.0,4.0,M,-33.9,M,,*5B
$PYRTM,2024,123.002915640868,14.112563051007
$GPGGA,000411.00,3352.3338,N,11931.8578,W,1,09,1.0,4.1,M,-33.9,M,,*56
$PYRTM,2024,123.002927440706,14.112574850833
$GPGGA,000412.00,3352.3339,N,11931.8572,W,1,09,1.0,4.2,M,-33.9,M,,*5D
$PYRTM,2024,123.002939356644,14.112586766782
$GPGGA,000413.00,3352.3341,N,11931.8566,W,1,09,1.0,4.2,M,-33.9,M,,*56
$PYRTM,2024,123.002950590752,14.112598000891
$GPGGA,000414.00,3352.3345,N,11931.8562,W,1,09,1.0,4.2,M,-33.9,M,,*51
$PYRTM,2024,123.002966202176,14.112613612315
$GPGGA,000415.00,3352.3349,N,11931.8558,W,1,09,1.0,4.2,M,-33.9,M,,*55
$PYRTM,2024,123.002977804792,14.112625214931
$GPGGA,000416.00,3352.3351,N,11931.8553,W,1,09,1.0,4.2,M,-33.9,M,,*54
$PYRTM,2024,123.002989353044,14.112636763183
$GPGGA,000417.00,3352.3353,N,11931.8547,W,1,09,1.0,4.2,M,-33.9,M,,*52
$PYRTM,2024,123.003000941597,14.112648351736
$GPGGA,000418.00,3352.3354,N,11931.8541,W,1,09,1.0,4.1,M,-33.9,M,,*5F
$PYRTM,2024,123.003012499306,14.112659909444
$GPGGA,000419.00,3352.3357,N,11931.8536,W,1,09,1.0,4.2,M,-33.9,M,,*5E
$PYRTM,2024,123.003024201042,14.112671611181
$GPGGA,000420.00,3352.3360,N,11931.8532,W,1,09,1.0,4.2,M,-33.9,M,,*54
$PYRTM,2024,123.003035646146,14.112683056285
$GPGGA,000421.00,3352.3363,N,11931.8529,W,1,09,1.0,4.1,M,-33.9,M,,*5F
$PYRTM,2024,123.003042939340,14.112690349479
$GPGGA,000422.00,3352.3365,N,11931.8524,W,1,09,1.0,4.1,M,-33.9,M,,*57
$PYRTM,2024,123.003058795231,14.112706205370
$GPGGA,000423.00,3352.3366,N,11931.8518,W,1,09,1.0,4.0,M,-33.9,M,,*5B
$PYRTM,2024,123.003070382963,14.112717793102
$GPGGA,000424.00,3352.3367,N,11931.8512,W,1,09,1.0,4.0,M,-33.9,M,,*57
$PYRTM,2024,123.003081942813,14.112729352951
$GPGGA,000425.00,3352.3370,N,11931.8507,W,1,09,1.0,4.0,M,-33.9,M,,*54
$PYRTM,2024,123.003089236273,14.112736646412
$GPGGA,000426.00,3352.3374,N,11931.8504,W,1,09,1.0,4.0,M,-33.9,M,,*50
$PYRTM,2024,123.003108009051,14.112755419190
$GPGGA,000427.00,3352.3376,N,11931.8499,W,1,09,1.0,4.0,M,-33.9,M,,*56
$PYRTM,2024,123.003116682373,14.112764092512
$GPGGA,000428.00,3352.3378,N,11931.8494,W,1,09,1.0,4.0,M,-33.9,M,,*5A
$PYRTM,2024,123.003123966007,14.112771376146
$GPGGA,000429.00,3352.3380,N,11931.8488,W,1,09,1.0,4.0,M,-33.9,M,,*51
$PYRTM,2024,123.003135765417,14.112783175556
$GPGGA,000430.00,3352.3383,N,11931.8483,W,1,09,1.0,4.0,M,-33.9,M,,*51
$PYRTM,2024,123.003151387639,14.112798797778
$GPGGA,000431.00,3352.3386,N,11931.8478,W,1,09,1.0,3.9,M,-33.9,M,,*5F
$PYRTM,2024,123.003162975231,14.112810385370
$GPGGA,000432.00,3352.3388,N,11931.8473,W,1,09,1.0,3.9,M,-33.9,M,,*59
$PYRTM,2024,123.003174535868,14.112821946007
$GPGGA,000433.00,3352.3390,N,11931.8468,W,1,09,1.0,3.9,M,-33.9,M,,*5B
$PYRTM,2024,123.003186123819,14.112833533958
$GPGGA,000434.00,3352.3392,N,11931.8463,W,1,09,1.0,3.9,M,-33.9,M,,*55
$PYRTM,2024,123.003193431065,14.112840841204
$GPGGA,000435.00,3352.3395,N,11931.8458,W,1,09,1.0,3.9,M,-33.9,M,,*5B
$PYRTM,2024,123.003209271910,14.112856682049
$GPGGA,000436.00,3352.3397,N,11931.8453,W,1,09,1.0,3.9,M,-33.9,M,,*51
$PYRTM,2024,123.003220832951,14.112868243090
$GPGGA,000437.00,3352.3400,N,11931.8448,W,1,09,1.0,3.9,M,-33.9,M,,*53
$PYRTM,2024,123.003232419363,14.112879829502
$GPGGA,000438.00,3352.3402,N,11931.8443,W,1,09,1.0,3.9,M,-33.9,M,,*55
$PYRTM,2024,123.003243981134,14.112891391262
$GPGGA,000439.00,3352.3404,N,11931.8437,W,1,09,1.0,4.0,M,-33.9,M,,*5F
$PYRTM,2024,123.003255570845,14.112902980984
$GPGGA,000440.00,3352.3406,N,11931.8433,W,1,09,1.0,4.1,M,-33.9,M,,*56
$PYRTM,2024,123.003267129456,14.112914539595
$GPGGA,000441.00,3352.3409,N,11931.8429,W,1,09,1.0,4.1,M,-33.9,M,,*53
$PYRTM,2024,123.003278717720,14.112926127859
$GPGGA,000442.00,3352.3412,N,11931.8424,W,1,09,1.0,4.1,M,-33.9,M,,*57
$PYRTM,2024,123.003290277674,14.112937687812
$GPGGA,000443.00,3352.3414,N,11931.8418,W,1,09,1.0,4.0,M,-33.9,M,,*5E
$PYRTM,2024,123.003297568727,14.112944978866
$GPGGA,000444.00,3352.3414,N,11931.8412,W,1,09,1.0,4.0,M,-33.9,M,,*53
$PYRTM,2024,123.003313425833,14.112960835972
$GPGGA,000445.00,3352.3417,N,11931.8408,W,1,09,1.0,4.1,M,-33.9,M,,*5B
$PYRTM,2024,123.003325016481,14.112972426620
$GPGGA,000446.00,3352.3420,N,11931.8405,W,1,09,1.0,4.0,M,-33.9,M,,*50
$PYRTM,2024,123.003336575255,14.112983985394
$GPGGA,000447.00,3352.3423,N,11931.8400,W,1,09,1.0,4.1,M,-33.9,M,,*56
$PYRTM,2024,123.003348161227,14.112995571366
$GPGGA,000448.00,3352.3425,N,11931.8395,W,1,09,1.0,4.2,M,-33.9,M,,*57
$PYRTM,2024,123.003359722731,14.113007132870
$GPGGA,000449.00,3352.3426,N,11931.8389,W,1,09,1.0,4.2,M,-33.9,M,,*58
$PYRTM,2024,123.003367014769,14.113014424907
$GPGGA,000450.00,3352.3427,N,11931.8384,W,1,09,1.0,4.2,M,-33.9,M,,*5C
$PYRTM,2024,123.003382870938,14.113030281076
$GPGGA,000451.00,3352.3429,N,11931.8379,W,1,09,1.0,4.2,M,-33.9,M,,*51
$PYRTM,2024,123.003394459907,14.113041870046
$GPGGA,000452.00,3352.3432,N,11931.8375,W,1,09,1.0,4.2,M,-33.9,M,,*54
$PYRTM,2024,123.003406018403,14.113053428553
$GPGGA,000453.00,3352.3435,N,11931.8370,W,1,09,1.0,4.2,M,-33.9,M,,*57
$PYRTM,2024,123.003417601609,14.113065011748
$GPGGA,000454.00,3352.3437,N,11931.8366,W,1,09,1.0,4.3,M,-33.9,M,,*54
$PYRTM,2024,123.003429168785,14.113076578935
$GPGGA,000455.00,3352.3439,N,11931.8362,W,1,09,1.0,4.2,M,-33.9,M,,*5E
$PYRTM,2024,123.003440768935,14.113088179074
$GPGGA,000456.00,3352.3441,N,11931.8358,W,1,09,1.0,4.2,M,-33.9,M,,*5B
$PYRTM,2024,123.003448040359,14.113095450498
$GPGGA,000457.00,3352.3442,N,11931.8353,W,1,09,1.0,4.1,M,-33.9,M,,*51
$PYRTM,2024,123.003466795347,14.113114205486
$GPGGA,000458.00,3352.3444,N,11931.8347,W,1,09,1.0,4.2,M,-33.9,M,,*5E
$PYRTM,2024,123.003478384757,14.113125794896
$GPGGA,000459.00,3352.3446,N,11931.8341,W,1,09,1.0,4.2,M,-33.9,M,,*5B
$PYRTM,2024,123.003487051586,14.113134461736
$GPGGA,000500.00,3352.3449,N,11931.8338,W,1,09,1.0,4.2,M,-33.9,M,,*57
$PYRTM,2024,123.003498611435,14.113146021574
$GPGGA,000501.00,3352.3452,N,11931.8335,W,1,09,1.0,4.1,M,-33.9,M,,*52
$PYRTM,2024,123.003510201331,14.113157611470
$GPGGA,000502.00,3352.3453,N,11931.8330,W,1,09,1.0,4.1,M,-33.9,M,,*55
$PYRTM,2024,123.003521760683,14.113169170822
$GPGGA,000503.00,3352.3454,N,11931.8324,W,1,09,1.0,4.1,M,-33.9,M,,*56
$PYRTM,2024,123.003533343391,14.113180753530
$GPGGA,000504.00,3352.3455,N,11931.8318,W,1,09,1.0,4.1,M,-33.9,M,,*5F
$PYRTM,2024,123.003544910093,14.113192320243
$GPGGA,000505.00,3352.3458,N,11931.8315,W,1,09,1.0,4.1,M,-33.9,M,,*5E
$PYRTM,2024,123.003556492245,14.113203902384
$GPGGA,000506.00,3352.3461,N,11931.8312,W,1,09,1.0,4.1,M,-33.9,M,,*50
$PYRTM,2024,123.003568057731,14.113215467870
$GPGGA,000507.00,3352.3463,N,11931.8308,W,1,09,1.0,4.2,M,-33.9,M,,*5B
$PYRTM,2024,123.003575348785,14.113222758924
$GPGGA,000508.00,3352.3463,N,11931.8302,W,1,09,1.0,4.1,M,-33.9,M,,*5D
$PYRTM,2024,123.003591204687,14.113238614826
$GPGGA,000509.00,3352.3464,N,11931.8296,W,1,09,1.0,4.2,M,-33.9,M,,*54
$PYRTM,2024,123.003602791921,14.113250202060
$GPGGA,000510.00,3352.3467,N,11931.8292,W,1,09,1.0,4.3,M,-33.9,M,,*5A
$PYRTM,2024,123.003614352616,14.113261762766
$GPGGA,000511.00,3352.3470,N,11931.8289,W,1,09,1.0,4.2,M,-33.9,M,,*56
$PYRTM,2024,123.003625943125,14.113273353264
$GPGGA,000512.00,3352.3472,N,11931.8286,W,1,09,1.0,4.2,M,-33.9,M,,*58
$PYRTM,2024,123.003633233102,14.113280643241
$GPGGA,000513.00,3352.3473,N,11931.8281,W,1,09,1.0,4.2,M,-33.9,M,,*5F
$PYRTM,2024,123.003649092396,14.113296502535
$GPGGA,000514.00,3352.3473,N,11931.8276,W,1,09,1.0,4.2,M,-33.9,M,,*50
$PYRTM,2024,123.003660650625,14.113308060764
$GPGGA,000515.00,3352.3474,N,11931.8271,W,1,09,1.0,4.2,M,-33.9,M,,*51
$PYRTM,2024,123.003667940544,14.113315350683
$GPGGA,000516.00,3352.3476,N,11931.8267,W,1,09,1.0,4.2,M,-33.9,M,,*57
$PYRTM,2024,123.003683800486,14.113331210625
$GPGGA,000517.00,3352.3479,N,11931.8264,W,1,09,1.0,4.3,M,-33.9,M,,*5B
$PYRTM,2024,123.003695385058,14.113342795197
$GPGGA,000518.00,3352.3482,N,11931.8262,W,1,09,1.0,4.3,M,-33.9,M,,*56
$PYRTM,2024,123.003706947060,14.113354357199
$GPGGA,000519.00,3352.3483,N,11931.8257,W,1,09,1.0,4.3,M,-33.9,M,,*50
$PYRTM,2024,123.003718533634,14.113365943773
$GPGGA,000520.00,3352.3483,N,11931.8251,W,1,09,1.0,4.3,M,-33.9,M,,*5C
$PYRTM,2024,123.003730094178,14.113377504317
$GPGGA,000521.00,3352.3485,N,11931.8245,W,1,09,1.0,4.4,M,-33.9,M,,*59
$PYRTM,2024,123.003741678218,14.113389088356
$GPGGA,000522.00,3352.3487,N,11931.8241,W,1,09,1.0,4.4,M,-33.9,M,,*5C
$PYRTM,2024,123.003748972500,14.113396382639
$GPGGA,000523.00,3352.3490,N,11931.8239,W,1,09,1.0,4.3,M,-33.9,M,,*53
$PYRTM,2024,123.003764834063,14.113412244201
$GPGGA,000524.00,3352.3492,N,11931.8236,W,1,09,1.0,4.3,M,-33.9,M,,*59
$PYRTM,2024,123.003776391528,14.113423801667
$GPGGA,000525.00,3352.3493,N,11931.8230,W,1,09,1.0,4.3,M,-33.9,M,,*5F
$PYRTM,2024,123.003787980868,14.113435391007
$GPGGA,000526.00,3352.3493,N,11931.8225,W,1,09,1.0,4.3,M,-33.9,M,,*58
$PYRTM,2024,123.003799539062,14.113446949201
$GPGGA,000527.00,3352.3495,N,11931.8221,W,1,09,1.0,4.3,M,-33.9,M,,*5B
$PYRTM,2024,123.003806830590,14.113454240729
$GPGGA,000528.00,3352.3497,N,11931.8219,W,1,09,1.0,4.3,M,-33.9,M,,*5D
$PYRTM,2024,123.003822688275,14.113470098414
$GPGGA,000529.00,3352.3499,N,11931.8217,W,1,09,1.0,4.3,M,-33.9,M,,*5C
$PYRTM,2024,123.003834274109,14.113481684248
$GPGGA,000530.00,3352.3500,N,11931.8212,W,1,09,1.0,4.3,M,-33.9,M,,*50
$PYRTM,2024,123.003845834907,14.113493245046
$GPGGA,000531.00,3352.3499,N,11931.8206,W,1,09,1.0,4.3,M,-33.9,M,,*55
$PYRTM,2024,123.003857417685,14.113504827824
$GPGGA,000532.00,3352.3501,N,11931.8202,W,1,09,1.0,4.2,M,-33.9,M,,*53
$PYRTM,2024,123.003868984340,14.113516394491
$GPGGA,000533.00,3352.3504,N,11931.8200,W,1,09,1.0,4.2,M,-33.9,M,,*55
$PYRTM,2024,123.003880572396,14.113527982546
$GPGGA,000534.00,3352.3507,N,11931.8197,W,1,09,1.0,4.2,M,-33.9,M,,*5C
$PYRTM,2024,123.003892132940,14.113539543079
$GPGGA,000535.00,3352.3508,N,11931.8193,W,1,09,1.0,4.1,M,-33.9,M,,*55
$PYRTM,2024,123.003903720463,14.113551130602
$GPGGA,000536.00,3352.3508,N,11931.8187,W,1,09,1.0,4.1,M,-33.9,M,,*53
$PYRTM,2024,123.003915279861,14.113562690000
$GPGGA,000537.00,3352.3509,N,11931.8182,W,1,09,1.0,4.1,M,-33.9,M,,*56
$PYRTM,2024,123.003922572315,14.113569982454
$GPGGA,000538.00,3352.3511,N,11931.8180,W,1,09,1.0,4.1,M,-33.9,M,,*52
$PYRTM,2024,123.003938428947,14.113585839086
$GPGGA,000539.00,3352.3514,N,11931.8178,W,1,09,1.0,4.1,M,-33.9,M,,*51
$PYRTM,2024,123.003950018924,14.113597429074
$GPGGA,000540.00,3352.3515,N,11931.8175,W,1,09,1.0,4.1,M,-33.9,M,,*53
$PYRTM,2024,123.003961578264,14.113608988403
$GPGGA,000541.00,3352.3515,N,11931.8169,W,1,09,1.0,4.0,M,-33.9,M,,*5E
$PYRTM,2024,123.003973168067,14.113620578206
$GPGGA,000542.00,3352.3515,N,11931.8163,W,1,09,1.0,4.0,M,-33.9,M,,*57
$PYRTM,2024,123.003984726157,14.113632136296
$GPGGA,000543.00,3352.3516,N,11931.8160,W,1,09,1.0,4.0,M,-33.9,M,,*56
$PYRTM,2024,123.003996312708,14.113643722847
$GPGGA,000544.00,3352.3519,N,11931.8159,W,1,09,1.0,4.0,M,-33.9,M,,*54
$PYRTM,2024,123.004007873611,14.113655283750
$GPGGA,000545.00,3352.3522,N,11931.8158,W,1,09,1.0,4.1,M,-33.9,M,,*5D
$PYRTM,2024,123.004019462130,14.113666872269
$GPGGA,000546.00,3352.3522,N,11931.8154,W,1,09,1.0,4.1,M,-33.9,M,,*52
$PYRTM,2024,123.004026751204,14.113674161343
$GPGGA,000547.00,3352.3522,N,11931.8147,W,1,09,1.0,4.1,M,-33.9,M,,*51
$PYRTM,2024,123.004038890567,14.113686300706
$GPGGA,000548.00,3352.3523,N,11931.8142,W,1,09,1.0,4.1,M,-33.9,M,,*5A
$PYRTM,2024,123.004054170972,14.113701581111
$GPGGA,000549.00,3352.3525,N,11931.8140,W,1,09,1.0,4.1,M,-33.9,M,,*5F
$PYRTM,2024,123.004065751690,14.113713161840
$GPGGA,000550.00,3352.3527,N,11931.8138,W,1,09,1.0,4.1,M,-33.9,M,,*5A
$PYRTM,2024,123.004077318206,14.113724728345
$GPGGA,000551.00,3352.3528,N,11931.8135,W,1,09,1.0,4.0,M,-33.9,M,,*58
$PYRTM,2024,123.004088904456,14.113736314595
$GPGGA,000552.00,3352.3529,N,11931.8131,W,1,09,1.0,4.0,M,-33.9,M,,*5E
$PYRTM,2024,123.004100466007,14.113747876146
$GPGGA,000553.00,3352.3529,N,11931.8125,W,1,09,1.0,4.0,M,-33.9,M,,*5A
$PYRTM,2024,123.004112057049,14.113759467187
$GPGGA,000554.00,3352.3530,N,11931.8121,W,1,09,1.0,4.0,M,-33.9,M,,*51
$PYRTM,2024,123.004123617292,14.113771027431
$GPGGA,000555.00,3352.3532,N,11931.8119,W,1,09,1.0,4.0,M,-33.9,M,,*59
$PYRTM,2024,123.004135205058,14.113782615197
$GPGGA,000556.00,3352.3535,N,11931.8118,W,1,09,1.0,4.0,M,-33.9,M,,*5C
$PYRTM,2024,123.004146761725,14.113794171863
$GPGGA,000557.00,3352.3536,N,11931.8115,W,1,09,1.0,4.0,M,-33.9,M,,*53
$PYRTM,2024,123.004154054699,14.113801464838
$GPGGA,000558.00,3352.3536,N,11931.8110,W,1,09,1.0,4.0,M,-33.9,M,,*59
$PYRTM,2024,123.004165757569,14.113813167720
$GPGGA,000559.00,3352.3537,N,11931.8105,W,1,09,1.0,4.0,M,-33.9,M,,*5D
$PYRTM,2024,123.004181497384,14.113828907523
$GPGGA,000600.00,3352.3538,N,11931.8100,W,1,09,1.0,4.0,M,-33.9,M,,*58
$PYRTM,2024,123.004188793310,14.113836203449
$GPGGA,000601.00,3352.3540,N,11931.8098,W,1,09,1.0,4.1,M,-33.9,M,,*57
$PYRTM,2024,123.004204648426,14.113852058565
$GPGGA,000602.00,3352.3541,N,11931.8096,W,1,09,1.0,4.0,M,-33.9,M,,*5A
$PYRTM,2024,123.004216208113,14.113863618264
$GPGGA,000603.00,3352.3542,N,11931.8093,W,1,09,1.0,4.0,M,-33.9,M,,*5D
$PYRTM,2024,123.004227795498,14.113875205637
$GPGGA,000604.00,3352.3541,N,11931.8089,W,1,09,1.0,4.0,M,-33.9,M,,*52
$PYRTM,2024,123.004239355266,14.113886765405
$GPGGA,000605.00,3352.3542,N,11931.8085,W,1,09,1.0,4.0,M,-33.9,M,,*5C
$PYRTM,2024,123.004246647350,14.113894057488
$GPGGA,000606.00,3352.3544,N,11931.8082,W,1,09,1.0,4.0,M,-33.9,M,,*5E
$PYRTM,2024,123.004262503553,14.113909913692
$GPGGA,000607.00,3352.3545,N,11931.8080,W,1,09,1.0,4.0,M,-33.9,M,,*5C
$PYRTM,2024,123.004274094468,14.113921504606
$GPGGA,000608.00,3352.3546,N,11931.8076,W,1,09,1.0,4.0,M,-33.9,M,,*59
$PYRTM,2024,123.004285652465,14.113933062604
$GPGGA,000609.00,3352.3546,N,11931.8073,W,1,09,1.0,4.0,M,-33.9,M,,*5D
$PYRTM,2024,123.004297242396,14.113944652535
$GPGGA,000610.00,3352.3547,N,11931.8069,W,1,09,1.0,4.1,M,-33.9,M,,*5E
$PYRTM,2024,123.004304533900,14.113951944039
$GPGGA,000611.00,3352.3548,N,11931.8066,W,1,09,1.0,4.1,M,-33.9,M,,*5F
$PYRTM,2024,123.004320382639,14.113967792778
$GPGGA,000612.00,3352.3550,N,11931.8062,W,1,09,1.0,4.1,M,-33.9,M,,*51
$PYRTM,2024,123.004331948854,14.113979358993
$GPGGA,000613.00,3352.3551,N,11931.8060,W,1,09,1.0,4.1,M,-33.9,M,,*53
$PYRTM,2024,123.004339240567,14.113986650706
$GPGGA,000614.00,3352.3551,N,11931.8056,W,1,09,1.0,4.1,M,-33.9,M,,*51
$PYRTM,2024,123.004355097419,14.114002507558
$GPGGA,000615.00,3352.3551,N,11931.8052,W,1,09,1.0,4.1,M,-33.9,M,,*54
$PYRTM,2024,123.004366683507,14.114014093646
$GPGGA,000616.00,3352.3553,N,11931.8048,W,1,09,1.0,4.1,M,-33.9,M,,*5E
$PYRTM,2024,123.004378244977,14.114025655116
$GPGGA,000617.00,3352.3555,N,11931.8044,W,1,09,1.0,4.1,M,-33.9,M,,*55
$PYRTM,2024,123.004385536308,14.114032946447
$GPGGA,000618.00,3352.3556,N,11931.8042,W,1,09,1.0,4.1,M,-33.9,M,,*5F
$PYRTM,2024,123.004397689549,14.114045099687
$GPGGA,000619.00,3352.3557,N,11931.8041,W,1,09,1.0,4.1,M,-33.9,M,,*5C
$PYRTM,2024,123.004412982627,14.114060392766
$GPGGA,000620.00,3352.3557,N,11931.8038,W,1,09,1.0,4.1,M,-33.9,M,,*58
$PYRTM,2024,123.004420271308,14.114067681447
$GPGGA,000621.00,3352.3557,N,11931.8033,W,1,09,1.0,4.1,M,-33.9,M,,*52
$PYRTM,2024,123.004432077130,14.114079487269
$GPGGA,000622.00,3352.3558,N,11931.8028,W,1,09,1.0,4.1,M,-33.9,M,,*54
$PYRTM,2024,123.004447688553,14.114095098692
$GPGGA,000623.00,3352.3559,N,11931.8026,W,1,09,1.0,4.1,M,-33.9,M,,*5A
$PYRTM,2024,123.004459290463,14.114106700602
$GPGGA,000624.00,3352.3560,N,11931.8024,W,1,09,1.0,4.1,M,-33.9,M,,*55
$PYRTM,2024,123.004470838113,14.114118248252
$GPGGA,000625.00,3352.3561,N,11931.8023,W,1,09,1.0,4.1,M,-33.9,M,,*52
$PYRTM,2024,123.004482419225,14.114129829363
$GPGGA,000626.00,3352.3562,N,11931.8019,W,1,09,1.0,4.1,M,-33.9,M,,*5B
$PYRTM,2024,123.004489716169,14.114137126308
$GPGGA,000627.00,3352.3562,N,11931.8013,W,1,09,1.0,4.1,M,-33.9,M,,*50
$PYRTM,2024,123.004505572928,14.114152983079
$GPGGA,000628.00,3352.3563,N,11931.8010,W,1,09,1.0,4.1,M,-33.9,M,,*5D
$PYRTM,2024,123.004517134097,14.114164544236
$GPGGA,000629.00,3352.3565,N,11931.8009,W,1,09,1.0,4.1,M,-33.9,M,,*52
$PYRTM,2024,123.004524426215,14.114171836354
$GPGGA,000630.00,3352.3566,N,11931.8007,W,1,09,1.0,4.1,M,-33.9,M,,*57
$PYRTM,2024,123.004543211458,14.114190621597
$GPGGA,000631.00,3352.3567,N,11931.8003,W,1,09,1.0,4.1,M,-33.9,M,,*53
$PYRTM,2024,123.004551870822,14.114199280972
$GPGGA,000632.00,3352.3567,N,11931.7998,W,1,09,1.0,4.1,M,-33.9,M,,*54
$PYRTM,2024,123.004563429699,14.114210839838
$GPGGA,000633.00,3352.3568,N,11931.7993,W,1,09,1.0,4.1,M,-33.9,M,,*51
$PYRTM,2024,123.004575012789,14.114222422928
$GPGGA,000634.00,3352.3569,N,11931.7991,W,1,09,1.0,4.1,M,-33.9,M,,*55
$PYRTM,2024,123.004586578715,14.114233988854
$GPGGA,000635.00,3352.3571,N,11931.7991,W,1,09,1.0,4.1,M,-33.9,M,,*5D
$PYRTM,2024,123.004598169410,14.114245579549
$GPGGA,000636.00,3352.3573,N,11931.7989,W,1,09,1.0,4.1,M,-33.9,M,,*55
$PYRTM,2024,123.004609726609,14.114257136748
$GPGGA,000637.00,3352.3572,N,11931.7984,W,1,09,1.0,4.1,M,-33.9,M,,*58
$PYRTM,2024,123.004621317442,14.114268727581
$GPGGA,000638.00,3352.3572,N,11931.7979,W,1,09,1.0,4.1,M,-33.9,M,,*55
$PYRTM,2024,123.004632876968,14.114280287106
$GPGGA,000639.00,3352.3573,N,11931.7975,W,1,09,1.0,4.1,M,-33.9,M,,*59
$PYRTM,2024,123.004639717836,14.114287127975
$GPGGA,000640.00,3352.3575,N,11931.7973,W,1,09,1.0,4.1,M,-33.9,M,,*57
$PYRTM,2024,123.004656022674,14.114303432813
$GPGGA,000641.00,3352.3577,N,11931.7972,W,1,09,1.0,4.0,M,-33.9,M,,*54
$PYRTM,2024,123.004667611238,14.114315021377
$GPGGA,000642.00,3352.3578,N,11931.7969,W,1,09,1.0,4.0,M,-33.9,M,,*52
$PYRTM,2024,123.004679173079,14.114326583218
$GPGGA,000643.00,3352.3577,N,11931.7963,W,1,09,1.0,4.0,M,-33.9,M,,*56
$PYRTM,2024,123.004690754525,14.114338164664
$GPGGA,000644.00,3352.3576,N,11931.7958,W,1,09,1.0,4.0,M,-33.9,M,,*58
$PYRTM,2024,123.004702321053,14.114349731192
$GPGGA,000645.00,3352.3579,N,11931.7956,W,1,09,1.0,4.0,M,-33.9,M,,*58
$PYRTM,2024,123.004713907894,14.114361318032
$GPGGA,000646.00,3352.3581,N,11931.7955,W,1,09,1.0,4.0,M,-33.9,M,,*5F
$PYRTM,2024,123.004725469850,14.114372879988
$GPGGA,000647.00,3352.3583,N,11931.7953,W,1,09,1.0,4.1,M,-33.9,M,,*5B
$PYRTM,2024,123.004737051123,14.114384461262
$GPGGA,000648.00,3352.3582,N,11931.7947,W,1,09,1.0,4.1,M,-33.9,M,,*50
$PYRTM,2024,123.004748615278,14.114396025417
$GPGGA,000649.00,3352.3581,N,11931.7941,W,1,09,1.0,4.1,M,-33.9,M,,*54
$PYRTM,2024,123.004755907616,14.114403317755
$GPGGA,000650.00,3352.3583,N,11931.7938,W,1,09,1.0,4.1,M,-33.9,M,,*50
$PYRTM,2024,123.004771763796,14.114419173935
$GPGGA,000651.00,3352.3586,N,11931.7937,W,1,09,1.0,4.1,M,-33.9,M,,*5B
$PYRTM,2024,123.004783366111,14.114430776238
$GPGGA,000652.00,3352.3587,N,11931.7936,W,1,09,1.0,4.1,M,-33.9,M,,*58
$PYRTM,2024,123.004794913669,14.114442323808
$GPGGA,000653.00,3352.3587,N,11931.7931,W,1,09,1.0,4.1,M,-33.9,M,,*5E
$PYRTM,2024,123.004806502905,14.114453913056
$GPGGA,000654.00,3352.3587,N,11931.7925,W,1,09,1.0,4.1,M,-33.9,M,,*5C
$PYRTM,2024,123.004818061447,14.114465471574
$GPGGA,000655.00,3352.3588,N,11931.7920,W,1,09,1.0,4.1,M,-33.9,M,,*57
$PYRTM,2024,123.004829647986,14.114477058125
$GPGGA,000656.00,3352.3591,N,11931.7919,W,1,09,1.0,4.1,M,-33.9,M,,*56
$PYRTM,2024,123.004841208935,14.114488619074
$GPGGA,000657.00,3352.3593,N,11931.7917,W,1,09,1.0,4.1,M,-33.9,M,,*5B
$PYRTM,2024,123.004852796343,14.114500206481
$GPGGA,000658.00,3352.3593,N,11931.7915,W,1,09,1.0,4.2,M,-33.9,M,,*55
$PYRTM,2024,123.004864357419,14.114511767558
$GPGGA,000659.00,3352.3593,N,11931.7910,W,1,09,1.0,4.2,M,-33.9,M,,*51
$PYRTM,2024,123.004871650023,14.114519060162
$GPGGA,000700.00,3352.3593,N,11931.7904,W,1,09,1.0,4.2,M,-33.9,M,,*59
$PYRTM,2024,123.004883339317,14.114530749456
$GPGGA,000701.00,3352.3595,N,11931.7900,W,1,09,1.0,4.2,M,-33.9,M,,*5A
$PYRTM,2024,123.004899092824,14.114546502963
$GPGGA,000702.00,3352.3597,N,11931.7897,W,1,09,1.0,4.2,M,-33.9,M,,*54
$PYRTM,2024,123.004910654259,14.114558064398
$GPGGA,000703.00,3352.3598,N,11931.7894,W,1,09,1.0,4.2,M,-33.9,M,,*59
$PYRTM,2024,123.004922244745,14.114569654884
$GPGGA,000704.00,3352.3599,N,11931.7890,W,1,09,1.0,4.2,M,-33.9,M,,*5B
$PYRTM,2024,123.004933802662,14.114581212801
$GPGGA,000705.00,3352.3600,N,11931.7886,W,1,09,1.0,4.2,M,-33.9,M,,*5E
$PYRTM,2024,123.004945392627,14.114592802766
$GPGGA,000706.00,3352.3602,N,11931.7882,W,1,09,1.0,4.2,M,-33.9,M,,*5B
$PYRTM,2024,123.004956950637,14.114604360787
$GPGGA,000707.00,3352.3603,N,11931.7878,W,1,09,1.0,4.2,M,-33.9,M,,*5E
$PYRTM,2024,123.004968538854,14.114615949005
$GPGGA,000708.00,3352.3605,N,11931.7875,W,1,09,1.0,4.2,M,-33.9,M,,*5A
$PYRTM,2024,123.004980099653,14.114627509792
$GPGGA,000709.00,3352.3606,N,11931.7872,W,1,09,1.0,4.2,M,-33.9,M,,*5F
$PYRTM,2024,123.004991681123,14.114639091262
$GPGGA,000710.00,3352.3607,N,11931.7868,W,1,09,1.0,4.2,M,-33.9,M,,*5D
$PYRTM,2024,123.005003247998,14.114650658137
$GPGGA,000711.00,3352.3609,N,11931.7865,W,1,09,1.0,4.2,M,-33.9,M,,*5F
$PYRTM,2024,123.005010539236,14.114657949375
$GPGGA,000712.00,3352.3609,N,11931.7862,W,1,09,1.0,4.2,M,-33.9,M,,*5B
$PYRTM,2024,123.005026397512,14.114673807650
$GPGGA,000713.00,3352.3610,N,11931.7858,W,1,09,1.0,4.2,M,-33.9,M,,*5B
$PYRTM,2024,123.005037984606,14.114685394757
$GPGGA,000714.00,3352.3610,N,11931.7853,W,1,09,1.0,4.2,M,-33.9,M,,*57
$PYRTM,2024,123.005045274167,14.114692684306
$GPGGA,000715.00,3352.3612,N,11931.7849,W,1,09,1.0,4.2,M,-33.9,M,,*5F
$PYRTM,2024,123.005061129907,14.114708540046
$GPGGA,000716.00,3352.3613,N,11931.7847,W,1,09,1.0,4.2,M,-33.9,M,,*53
$PYRTM,2024,123.005072691192,14.114720101331
$GPGGA,000717.00,3352.3614,N,11931.7844,W,1,09,1.0,4.2,M,-33.9,M,,*56
$PYRTM,2024,123.005079985093,14.114727395231
$GPGGA,000718.00,3352.3616,N,11931.7840,W,1,09,1.0,4.2,M,-33.9,M,,*5F
$PYRTM,2024,123.005095839201,14.114743249340
$GPGGA,000719.00,3352.3616,N,11931.7834,W,1,09,1.0,4.2,M,-33.9,M,,*5D
$PYRTM,2024,123.005107430255,14.114754840394
$GPGGA,000720.00,3352.3618,N,11931.7829,W,1,09,1.0,4.2,M,-33.9,M,,*55
$PYRTM,2024,123.005114718310,14.114762128449
$GPGGA,000721.00,3352.3621,N,11931.7825,W,1,10,0.8,4.2,M,-33.9,M,,*53
$PYRTM,2024,123.005130589051,14.114777999190
$GPGGA,000722.00,3352.3624,N,11931.7824,W,1,10,0.8,4.2,M,-33.9,M,,*54
$PYRTM,2024,123.005142137037,14.114789547176
$GPGGA,000723.00,3352.3626,N,11931.7820,W,1,10,0.8,4.2,M,-33.9,M,,*53
$PYRTM,2024,123.005153723067,14.114801133206
$GPGGA,000724.00,3352.3625,N,11931.7813,W,1,10,0.8,4.2,M,-33.9,M,,*57
$PYRTM,2024,123.005165284329,14.114812694468
$GPGGA,000725.00,3352.3626,N,11931.7807,W,1,10,0.8,4.2,M,-33.9,M,,*50
$PYRTM,2024,123.005176866748,14.114824276887
$GPGGA,000726.00,3352.3628,N,11931.7803,W,1,10,0.8,4.2,M,-33.9,M,,*59
$PYRTM,2024,123.005188433113,14.114835843264
$GPGGA,000727.00,3352.3631,N,11931.7802,W,1,10,0.8,4.2,M,-33.9,M,,*51
$PYRTM,2024,123.005200014850,14.114847424988
$GPGGA,000728.00,3352.3634,N,11931.7799,W,1,10,0.8,4.2,M,-33.9,M,,*56
$PYRTM,2024,123.005211581632,14.114858991771
$GPGGA,000729.00,3352.3634,N,11931.7793,W,1,10,0.8,4.2,M,-33.9,M,,*5D
$PYRTM,2024,123.005223165046,14.114870575185
$GPGGA,000730.00,3352.3634,N,11931.7786,W,1,10,0.8,4.2,M,-33.9,M,,*51
$PYRTM,2024,123.005230459861,14.114877870000
$GPGGA,000731.00,3352.3636,N,11931.7782,W,1,10,0.8,4.2,M,-33.9,M,,*56
$PYRTM,2024,123.005242136910,14.114889547049
$GPGGA,000732.00,3352.3639,N,11931.7779,W,1,10,0.8,4.2,M,-33.9,M,,*5E
$PYRTM,2024,123.005257877303,14.114905287442
$GPGGA,000733.00,3352.3641,N,11931.7776,W,1,10,0.8,4.2,M,-33.9,M,,*5F
$PYRTM,2024,123.005265168843,14.114912578981
$GPGGA,000734.00,3352.3642,N,11931.7770,W,1,10,0.8,4.2,M,-33.9,M,,*5D
$PYRTM,2024,123.005281026551,14.114928436690
$GPGGA,000735.00,3352.3641,N,11931.7764,W,1,10,0.8,4.2,M,-33.9,M,,*5A
$PYRTM,2024,123.005292616238,14.114940026377
$GPGGA,000736.00,3352.3642,N,11931.7760,W,1,10,0.8,4.2,M,-33.9,M,,*5E
$PYRTM,2024,123.005304175255,14.114951585394
$GPGGA,000737.00,3352.3646,N,11931.7758,W,1,10,0.8,4.2,M,-33.9,M,,*50
$PYRTM,2024,123.005315760486,14.114963170625
$GPGGA,000738.00,3352.3649,N,11931.7757,W,1,10,0.8,4.2,M,-33.9,M,,*5F
$PYRTM,2024,123.005327323472,14.114974733623
$GPGGA,000739.00,3352.3652,N,11931.7752,W,1,10,0.8,4.2,M,-33.9,M,,*51
$PYRTM,2024,123.005338909074,14.114986319213
$GPGGA,000740.00,3352.3652,N,11931.7746,W,1,10,0.8,4.2,M,-33.9,M,,*5A
$PYRTM,2024,123.005350471655,14.114997881794
$GPGGA,000741.00,3352.3653,N,11931.7740,W,1,10,0.8,4.2,M,-33.9,M,,*5C
$PYRTM,2024,123.005362058391,14.115009468530
$GPGGA,000742.00,3352.3655,N,11931.7737,W,1,10,0.8,4.2,M,-33.9,M,,*59
$PYRTM,2024,123.005369348819,14.115016758958
$GPGGA,000743.00,3352.3658,N,11931.7734,W,1,10,0.8,4.2,M,-33.9,M,,*56
$PYRTM,2024,123.005385207025,14.115032617176
$GPGGA,000744.00,3352.3660,N,11931.7730,W,1,10,0.8,4.2,M,-33.9,M,,*5E
$PYRTM,2024,123.005396767500,14.115044177639
$GPGGA,000745.00,3352.3660,N,11931.7723,W,1,10,0.8,4.1,M,-33.9,M,,*5E
$PYRTM,2024,123.005404058704,14.115051468843
$GPGGA,000746.00,3352.3659,N,11931.7717,W,1,10,0.8,4.1,M,-33.9,M,,*50
$PYRTM,2024,123.005419916898,14.115067327037
$GPGGA,000747.00,3352.3661,N,11931.7714,W,1,10,0.8,4.1,M,-33.9,M,,*59
$PYRTM,2024,123.005431518252,14.115078928391
$GPGGA,000748.00,3352.3664,N,11931.7712,W,1,10,0.8,4.1,M,-33.9,M,,*55
$PYRTM,2024,123.005443064306,14.115090474444
$GPGGA,000749.00,3352.3667,N,11931.7709,W,1,10,0.8,4.1,M,-33.9,M,,*5D
$PYRTM,2024,123.005454653843,14.115102063981
$GPGGA,000750.00,3352.3669,N,11931.7705,W,1,10,0.8,4.1,M,-33.9,M,,*57
$PYRTM,2024,123.005466212512,14.115113622650
$GPGGA,000751.00,3352.3669,N,11931.7699,W,1,10,0.8,4.1,M,-33.9,M,,*52
$PYRTM,2024,123.005473504213,14.115120914352
$GPGGA,000752.00,3352.3670,N,11931.7693,W,1,10,0.8,4.1,M,-33.9,M,,*53
$PYRTM,2024,123.005489359688,14.115136769826
$GPGGA,000753.00,3352.3672,N,11931.7690,W,1,10,0.8,4.1,M,-33.9,M,,*53
$PYRTM,2024,123.005500942523,14.115148352674
$GPGGA,000754.00,3352.3675,N,11931.7687,W,1,10,0.8,4.1,M,-33.9,M,,*55
$PYRTM,2024,123.005512508009,14.115159918148
$GPGGA,000755.00,3352.3678,N,11931.7683,W,1,10,0.8,4.1,M,-33.9,M,,*5D
$PYRTM,2024,123.005519798600,14.115167208738
$GPGGA,000756.00,3352.3679,N,11931.7678,W,1,10,0.8,4.1,M,-33.9,M,,*5B
$PYRTM,2024,123.005535656493,14.115183066632
$GPGGA,000757.00,3352.3679,N,11931.7672,W,1,10,0.8,4.0,M,-33.9,M,,*51
$PYRTM,2024,123.005547247025,14.115194657164
$GPGGA,000758.00,3352.3681,N,11931.7668,W,1,10,0.8,4.0,M,-33.9,M,,*52
$PYRTM,2024,123.005558805428,14.115206215567
$GPGGA,000759.00,3352.3684,N,11931.7666,W,1,10,0.8,4.0,M,-33.9,M,,*58
$PYRTM,2024,123.005570392384,14.115217802523
$GPGGA,000800.00,3352.3686,N,11931.7661,W,1,10,0.8,4.0,M,-33.9,M,,*5E
$PYRTM,2024,123.005581952025,14.115229362164
$GPGGA,000801.00,3352.3687,N,11931.7655,W,1,10,0.8,4.0,M,-33.9,M,,*59
$PYRTM,2024,123.005593542535,14.115240952674
$GPGGA,000802.00,3352.3688,N,11931.7650,W,1,10,0.8,4.0,M,-33.9,M,,*50
$PYRTM,2024,123.005600831852,14.115248241991
$GPGGA,000803.00,3352.3690,N,11931.7647,W,1,10,0.8,4.0,M,-33.9,M,,*5E
$PYRTM,2024,123.005616691296,14.115264101435
$GPGGA,000804.00,3352.3693,N,11931.7644,W,1,10,0.8,4.0,M,-33.9,M,,*59
$PYRTM,2024,123.005628247431,14.115275657581
$GPGGA,000805.00,3352.3695,N,11931.7640,W,1,10,0.8,4.1,M,-33.9,M,,*5B
$PYRTM,2024,123.005635539514,14.115282949641
$GPGGA,000806.00,3352.3697,N,11931.7634,W,1,10,0.8,4.1,M,-33.9,M,,*59
$PYRTM,2024,123.005651397766,14.115298807905
$GPGGA,000807.00,3352.3698,N,11931.7629,W,1,10,0.8,4.1,M,-33.9,M,,*5B
$PYRTM,2024,123.005662984271,14.115310394421
$GPGGA,000808.00,3352.3700,N,11931.7626,W,1,10,0.8,4.1,M,-33.9,M,,*5B
$PYRTM,2024,123.005674548183,14.115321958333
$GPGGA,000809.00,3352.3702,N,11931.7623,W,1,10,0.8,4.1,M,-33.9,M,,*5D
$PYRTM,2024,123.005686132697,14.115333542836
$GPGGA,000810.00,3352.3704,N,11931.7618,W,1,10,0.8,4.1,M,-33.9,M,,*5B
$PYRTM,2024,123.005693425231,14.115340835370
$GPGGA,000811.00,3352.3706,N,11931.7613,W,1,10,0.8,4.1,M,-33.9,M,,*53
$PYRTM,2024,123.005709276262,14.115356686400
$GPGGA,000812.00,3352.3708,N,11931.7609,W,1,10,0.8,4.1,M,-33.9,M,,*55
$PYRTM,2024,123.005720841250,14.115368251389
$GPGGA,000813.00,3352.3710,N,11931.7605,W,1,10,0.8,4.2,M,-33.9,M,,*52
$PYRTM,2024,123.005732424074,14.115379834213
$GPGGA,000814.00,3352.3712,N,11931.7602,W,1,10,0.8,4.2,M,-33.9,M,,*50
$PYRTM,2024,123.005743990613,14.115391400752
$GPGGA,000815.00,3352.3714,N,11931.7597,W,1,10,0.8,4.2,M,-33.9,M,,*58
$PYRTM,2024,123.005751289375,14.115398699514
$GPGGA,000816.00,3352.3716,N,11931.7592,W,1,10,0.8,4.2,M,-33.9,M,,*5C
$PYRTM,2024,123.005767139479,14.115414549630
$GPGGA,000817.00,3352.3717,N,11931.7586,W,1,10,0.8,4.2,M,-33.9,M,,*59
$PYRTM,2024,123.005778725324,14.115426135463
$GPGGA,000818.00,3352.3719,N,11931.7582,W,1,10,0.8,4.2,M,-33.9,M,,*5C
$PYRTM,2024,123.005790287488,14.115437697627
$GPGGA,000819.00,3352.3721,N,11931.7579,W,1,10,0.8,4.2,M,-33.9,M,,*52
$PYRTM,2024,123.005801878495,14.115449288646
$GPGGA,000820.00,3352.3724,N,11931.7575,W,1,10,0.8,4.2,M,-33.9,M,,*51
$PYRTM,2024,123.005809169063,14.115456579201
$GPGGA,000821.00,3352.3725,N,11931.7570,W,1,10,0.8,4.2,M,-33.9,M,,*54
$PYRTM,2024,123.005825022303,14.115472432442
$GPGGA,000822.00,3352.3726,N,11931.7563,W,1,10,0.8,4.1,M,-33.9,M,,*55
$PYRTM,2024,123.005832316771,14.115479726921
$GPGGA,000823.00,3352.3728,N,11931.7558,W,1,10,0.8,4.1,M,-33.9,M,,*52
$PYRTM,2024,123.005848164815,14.115495574954
$GPGGA,000824.00,3352.3730,N,11931.7555,W,1,10,0.8,4.1,M,-33.9,M,,*51
$PYRTM,2024,123.005859732674,14.115507142812
$GPGGA,000825.00,3352.3734,N,11931.7553,W,1,10,0.8,4.1,M,-33.9,M,,*52
$PYRTM,2024,123.005867023461,14.115514433600
$GPGGA,000826.00,3352.3736,N,11931.7548,W,1,10,0.8,4.1,M,-33.9,M,,*59
$PYRTM,2024,123.005882880509,14.115530290660
$GPGGA,000827.00,3352.3737,N,11931.7541,W,1,10,0.8,4.0,M,-33.9,M,,*51
$PYRTM,2024,123.005894466551,14.115541876690
$GPGGA,000828.00,3352.3738,N,11931.7535,W,1,10,0.8,3.9,M,-33.9,M,,*5C
$PYRTM,2024,123.005906028380,14.115553438530
$GPGGA,000829.00,3352.3740,N,11931.7531,W,1,10,0.8,4.0,M,-33.9,M,,*58
$PYRTM,2024,123.005917617292,14.115565027731
$GPGGA,000830.00,3352.3743,N,11931.7529,W,1,10,0.8,4.0,M,-33.9,M,,*5A
$PYRTM,2024,123.005929176644,14.115576586782
$GPGGA,000831.00,3352.3746,N,11931.7525,W,1,10,0.8,4.0,M,-33.9,M,,*52
$PYRTM,2024,123.005940766377,14.115588176528
$GPGGA,000832.00,3352.3747,N,11931.7519,W,1,10,0.8,4.0,M,-33.9,M,,*5F
$PYRTM,2024,123.005952324086,14.115599734225
$GPGGA,000833.00,3352.3748,N,11931.7513,W,1,10,0.8,4.0,M,-33.9,M,,*5B
$PYRTM,2024,123.005959615961,14.115607026100
$GPGGA,000834.00,3352.3750,N,11931.7509,W,1,10,0.8,4.1,M,-33.9,M,,*5F
$PYRTM,2024,123.005978389988,14.115625800127
$GPGGA,000835.00,3352.3754,N,11931.7506,W,1,10,0.8,4.1,M,-33.9,M,,*55
$PYRTM,2024,123.005989952789,14.115637362928
$GPGGA,000836.00,3352.3757,N,11931.7502,W,1,10,0.8,4.1,M,-33.9,M,,*51
$PYRTM,2024,123.006001539502,14.115648949641
$GPGGA,000837.00,3352.3758,N,11931.7496,W,1,10,0.8,4.2,M,-33.9,M,,*50
$PYRTM,2024,123.006010206979,14.115657617118
$GPGGA,000838.00,3352.3758,N,11931.7490,W,1,10,0.8,4.2,M,-33.9,M,,*59
$PYRTM,2024,123.006021769225,14.115669179363
$GPGGA,000839.00,3352.3759,N,11931.7484,W,1,10,0.8,4.2,M,-33.9,M,,*5C
$PYRTM,2024,123.006033355428,14.115680765567
