$PYRTM,2024,126.666670467720,17.776317877859
$GPGGA,155959.00,3400.9569,N,11931.7706,W,1,11,0.8,12.0,M,-33.6,M,,*63
$PYRTM,2024,126.666682068935,17.776329479074
$GPGGA,160000.00,3400.9572,N,11931.7706,W,1,11,0.8,12.0,M,-33.6,M,,*6A
$PYRTM,2024,126.666693616620,17.776341026759
$GPGGA,160001.00,3400.9575,N,11931.7704,W,1,11,0.8,12.0,M,-33.6,M,,*6E
$PYRTM,2024,126.666705207859,17.776352617998
$GPGGA,160002.00,3400.9577,N,11931.7703,W,1,11,0.8,12.0,M,-33.6,M,,*68
$PYRTM,2024,126.666712483796,17.776359893935
$GPGGA,160003.00,3400.9578,N,11931.7703,W,1,11,0.8,12.0,M,-33.6,M,,*66
$PYRTM,2024,126.666731133275,17.776378543414
$GPGGA,160004.00,3400.9578,N,11931.7703,W,1,11,0.8,12.0,M,-33.6,M,,*61
$PYRTM,2024,126.666742692303,17.776390102442
$GPGGA,160005.00,3400.9579,N,11931.7702,W,1,11,0.8,12.0,M,-33.6,M,,*60
$PYRTM,2024,126.666751501296,17.776398911447
$GPGGA,160006.00,3400.9581,N,11931.7700,W,1,11,0.8,12.0,M,-33.6,M,,*66
$PYRTM,2024,126.666763060856,17.776410470995
$GPGGA,160007.00,3400.9583,N,11931.7699,W,1,11,0.8,12.0,M,-33.6,M,,*64
$PYRTM,2024,126.666774649525,17.776422059664
$GPGGA,160008.00,3400.9585,N,11931.7697,W,1,11,0.8,12.0,M,-33.6,M,,*63
$PYRTM,2024,126.666786209954,17.776433620093
$GPGGA,160009.00,3400.9586,N,11931.7696,W,1,11,0.8,12.0,M,-33.6,M,,*60
$PYRTM,2024,126.666797797569,17.776445207708
$GPGGA,160010.00,3400.9587,N,11931.7695,W,1,11,0.8,12.0,M,-33.6,M,,*6A
$PYRTM,2024,126.666809357708,17.776456767847
$GPGGA,160011.00,3400.9588,N,11931.7694,W,1,11,0.8,12.0,M,-33.6,M,,*65
$PYRTM,2024,126.666816656725,17.776464066875
$GPGGA,160012.00,3400.9591,N,11931.7692,W,1,11,0.8,12.0,M,-33.6,M,,*68
$PYRTM,2024,126.666832506609,17.776479916748
$GPGGA,160013.00,3400.9593,N,11931.7692,W,1,11,0.8,12.0,M,-33.6,M,,*6B
$PYRTM,2024,126.666844093854,17.776491503993
$GPGGA,160014.00,3400.9595,N,11931.7691,W,1,11,0.8,12.0,M,-33.6,M,,*69
$PYRTM,2024,126.666851372396,17.776498782535
$GPGGA,160015.00,3400.9597,N,11931.7690,W,1,11,0.8,12.0,M,-33.6,M,,*6B
$PYRTM,2024,126.666867244549,17.776514654699
$GPGGA,160016.00,3400.9598,N,11931.7689,W,1,11,0.8,12.0,M,-33.6,M,,*6F
$PYRTM,2024,126.666878803275,17.776526213414
$GPGGA,160017.00,3400.9599,N,11931.7688,W,1,11,0.8,12.0,M,-33.6,M,,*6E
$PYRTM,2024,126.666890393727,17.776537803877
$GPGGA,160018.00,3400.9602,N,11931.7688,W,1,11,0.8,12.0,M,-33.6,M,,*60
$PYRTM,2024,126.666897669583,17.776545079734
$GPGGA,160019.00,3400.9604,N,11931.7687,W,1,11,0.8,12.0,M,-33.6,M,,*68
$PYRTM,2024,126.666913542292,17.776560952431
$GPGGA,160020.00,3400.9606,N,11931.7686,W,1,11,0.8,12.0,M,-33.6,M,,*61
$PYRTM,2024,126.666925100266,17.776572510405
$GPGGA,160021.00,3400.9606,N,11931.7685,W,1,11,0.8,12.0,M,-33.6,M,,*63
$PYRTM,2024,126.666936681262,17.776584091400
$GPGGA,160022.00,3400.9606,N,11931.7684,W,1,11,0.8,12.0,M,-33.6,M,,*61
$PYRTM,2024,126.666948248218,17.776595658368
$GPGGA,160023.00,3400.9608,N,11931.7683,W,1,11,0.8,12.0,M,-33.6,M,,*69
$PYRTM,2024,126.666955540718,17.776602950856
$GPGGA,160024.00,3400.9611,N,11931.7682,W,1,11,0.8,12.0,M,-33.6,M,,*67
$PYRTM,2024,126.666971395799,17.776618805938
$GPGGA,160025.00,3400.9613,N,11931.7681,W,1,11,0.8,12.0,M,-33.6,M,,*67
$PYRTM,2024,126.666982984132,17.776630394271
$GPGGA,160026.00,3400.9614,N,11931.7680,W,1,11,0.8,12.0,M,-33.6,M,,*62
$PYRTM,2024,126.666994556863,17.776641967002
$GPGGA,160027.00,3400.9616,N,11931.7679,W,1,11,0.8,12.0,M,-33.6,M,,*67
$PYRTM,2024,126.667006132442,17.776653542581
$GPGGA,160028.00,3400.9618,N,11931.7678,W,1,11,0.8,12.1,M,-33.6,M,,*66
$PYRTM,2024,126.667013421493,17.776660831632
$GPGGA,160029.00,3400.9621,N,11931.7677,W,1,11,0.8,12.1,M,-33.6,M,,*62
$PYRTM,2024,126.667029279074,17.776676689213
$GPGGA,160030.00,3400.9622,N,11931.7676,W,1,11,0.8,12.0,M,-33.6,M,,*69
$PYRTM,2024,126.667040853102,17.776688263241
$GPGGA,160031.00,3400.9623,N,11931.7675,W,1,11,0.8,12.0,M,-33.6,M,,*6A
$PYRTM,2024,126.667052431169,17.776699841308
$GPGGA,160032.00,3400.9624,N,11931.7673,W,1,11,0.8,12.0,M,-33.6,M,,*68
$PYRTM,2024,126.667059707373,17.776707117512
$GPGGA,160033.00,3400.9626,N,11931.7672,W,1,11,0.8,12.0,M,-33.6,M,,*6A
$PYRTM,2024,126.667071396088,17.776718806227
$GPGGA,160034.00,3400.9629,N,11931.7670,W,1,11,0.8,12.0,M,-33.6,M,,*60
$PYRTM,2024,126.667087150729,17.776734560868
$GPGGA,160035.00,3400.9630,N,11931.7670,W,1,11,0.8,12.0,M,-33.6,M,,*69
$PYRTM,2024,126.667098728044,17.776746138183
$GPGGA,160036.00,3400.9629,N,11931.7668,W,1,11,0.8,12.0,M,-33.6,M,,*6B
$PYRTM,2024,126.667110299456,17.776757709595
$GPGGA,160037.00,3400.9629,N,11931.7667,W,1,11,0.8,12.0,M,-33.6,M,,*65
$PYRTM,2024,126.667121873264,17.776769283403
$GPGGA,160038.00,3400.9633,N,11931.7665,W,1,11,0.8,12.0,M,-33.6,M,,*63
$PYRTM,2024,126.667133442095,17.776780852234
$GPGGA,160039.00,3400.9636,N,11931.7664,W,1,11,0.8,12.0,M,-33.6,M,,*66
$PYRTM,2024,126.667145021481,17.776792431620
$GPGGA,160040.00,3400.9637,N,11931.7663,W,1,11,0.8,12.0,M,-33.6,M,,*6E
$PYRTM,2024,126.667152312998,17.776799723137
$GPGGA,160041.00,3400.9637,N,11931.7662,W,1,11,0.8,12.0,M,-33.6,M,,*6E
$PYRTM,2024,126.667168169769,17.776815579907
$GPGGA,160042.00,3400.9639,N,11931.7661,W,1,11,0.8,12.1,M,-33.6,M,,*61
$PYRTM,2024,126.667179741343,17.776827151481
$GPGGA,160043.00,3400.9642,N,11931.7661,W,1,11,0.8,12.1,M,-33.6,M,,*6C
$PYRTM,2024,126.667191317569,17.776838727708
$GPGGA,160044.00,3400.9645,N,11931.7661,W,1,11,0.8,12.1,M,-33.6,M,,*6C
$PYRTM,2024,126.667202891782,17.776850301921
$GPGGA,160045.00,3400.9646,N,11931.7659,W,1,11,0.8,12.1,M,-33.6,M,,*65
$PYRTM,2024,126.667210170382,17.776857580521
$GPGGA,160046.00,3400.9647,N,11931.7658,W,1,11,0.8,12.1,M,-33.6,M,,*66
$PYRTM,2024,126.667226040150,17.776873450289
$GPGGA,160047.00,3400.9648,N,11931.7656,W,1,11,0.8,12.1,M,-33.6,M,,*66
$PYRTM,2024,126.667237617442,17.776885027581
$GPGGA,160048.00,3400.9650,N,11931.7655,W,1,11,0.8,12.1,M,-33.6,M,,*63
$PYRTM,2024,126.667249188866,17.776896599016
$GPGGA,160049.00,3400.9652,N,11931.7654,W,1,11,0.8,12.1,M,-33.6,M,,*61
$PYRTM,2024,126.667260766632,17.776908176771
$GPGGA,160050.00,3400.9653,N,11931.7652,W,1,11,0.8,12.1,M,-33.6,M,,*6E
$PYRTM,2024,126.667268054803,17.776915464942
$GPGGA,160051.00,3400.9653,N,11931.7650,W,1,11,0.8,12.1,M,-33.6,M,,*6D
$PYRTM,2024,126.667283926551,17.776931336690
$GPGGA,160052.00,3400.9654,N,11931.7650,W,1,11,0.8,12.1,M,-33.6,M,,*69
$PYRTM,2024,126.667295485197,17.776942895347
$GPGGA,160053.00,3400.9656,N,11931.7648,W,1,11,0.8,12.1,M,-33.6,M,,*63
$PYRTM,2024,126.667302764861,17.776950175000
$GPGGA,160054.00,3400.9658,N,11931.7647,W,1,11,0.8,12.1,M,-33.6,M,,*65
$PYRTM,2024,126.667318634097,17.776966044236
$GPGGA,160055.00,3400.9660,N,11931.7646,W,1,11,0.8,12.1,M,-33.6,M,,*6E
$PYRTM,2024,126.667330207986,17.776977618125
$GPGGA,160056.00,3400.9661,N,11931.7645,W,1,11,0.8,12.1,M,-33.6,M,,*6F
$PYRTM,2024,126.667341782743,17.776989192882
$GPGGA,160057.00,3400.9663,N,11931.7645,W,1,11,0.8,12.1,M,-33.6,M,,*6C
$PYRTM,2024,126.667353356759,17.777000766910
$GPGGA,160058.00,3400.9665,N,11931.7644,W,1,11,0.8,12.1,M,-33.6,M,,*64
$PYRTM,2024,126.667360641215,17.777008051354
$GPGGA,160059.00,3400.9667,N,11931.7643,W,1,11,0.8,12.1,M,-33.6,M,,*60
$PYRTM,2024,126.667376504329,17.777023914468
$GPGGA,160100.00,3400.9670,N,11931.7641,W,1,11,0.8,12.1,M,-33.6,M,,*69
$PYRTM,2024,126.667388078796,17.777035488947
$GPGGA,160101.00,3400.9671,N,11931.7641,W,1,11,0.8,12.1,M,-33.6,M,,*69
$PYRTM,2024,126.667399653229,17.777047063368
$GPGGA,160102.00,3400.9672,N,11931.7640,W,1,11,0.8,12.1,M,-33.6,M,,*68
$PYRTM,2024,126.667411226424,17.777058636563
$GPGGA,160103.00,3400.9673,N,11931.7640,W,1,11,0.8,12.1,M,-33.6,M,,*68
$PYRTM,2024,126.667422803796,17.777070213935
$GPGGA,160104.00,3400.9675,N,11931.7638,W,1,11,0.8,12.1,M,-33.6,M,,*66
$PYRTM,2024,126.667430091377,17.777077501516
$GPGGA,160105.00,3400.9677,N,11931.7637,W,1,11,0.8,12.1,M,-33.6,M,,*6A
$PYRTM,2024,126.667448730301,17.777096140440
$GPGGA,160106.00,3400.9679,N,11931.7635,W,1,11,0.8,12.1,M,-33.6,M,,*65
$PYRTM,2024,126.667457524132,17.777104934271
$GPGGA,160107.00,3400.9681,N,11931.7634,W,1,11,0.8,12.1,M,-33.6,M,,*62
$PYRTM,2024,126.667469111829,17.777116521968
$GPGGA,160108.00,3400.9681,N,11931.7633,W,1,11,0.8,12.1,M,-33.6,M,,*6A
$PYRTM,2024,126.667476402257,17.777123812396
$GPGGA,160109.00,3400.9682,N,11931.7632,W,1,11,0.8,12.1,M,-33.6,M,,*69
$PYRTM,2024,126.667492245868,17.777139656007
$GPGGA,160110.00,3400.9683,N,11931.7631,W,1,11,0.8,12.1,M,-33.6,M,,*63
$PYRTM,2024,126.667499536933,17.777146947072
$GPGGA,160111.00,3400.9686,N,11931.7629,W,1,11,0.8,12.1,M,-33.6,M,,*6E
$PYRTM,2024,126.667515394271,17.777162804410
$GPGGA,160112.00,3400.9688,N,11931.7628,W,1,11,0.8,12.1,M,-33.6,M,,*62
$PYRTM,2024,126.667526963866,17.777174374005
$GPGGA,160113.00,3400.9689,N,11931.7627,W,1,11,0.8,12.1,M,-33.6,M,,*6D
$PYRTM,2024,126.667534248241,17.777181658380
$GPGGA,160114.00,3400.9690,N,11931.7626,W,1,11,0.8,12.1,M,-33.6,M,,*63
$PYRTM,2024,126.667550112963,17.777197523113
$GPGGA,160115.00,3400.9691,N,11931.7626,W,1,11,0.8,12.1,M,-33.6,M,,*63
$PYRTM,2024,126.667561693102,17.777209103241
$GPGGA,160116.00,3400.9693,N,11931.7625,W,1,11,0.8,12.1,M,-33.6,M,,*61
$PYRTM,2024,126.667573260833,17.777220670984
$GPGGA,160117.00,3400.9696,N,11931.7624,W,1,11,0.8,12.1,M,-33.6,M,,*64
$PYRTM,2024,126.667580544236,17.777227954375
$GPGGA,160118.00,3400.9698,N,11931.7623,W,1,11,0.8,12.1,M,-33.6,M,,*62
$PYRTM,2024,126.667596413056,17.777243823194
$GPGGA,160119.00,3400.9700,N,11931.7621,W,1,11,0.8,12.1,M,-33.6,M,,*61
$PYRTM,2024,126.667607990764,17.777255400914
$GPGGA,160120.00,3400.9700,N,11931.7621,W,1,11,0.8,12.1,M,-33.6,M,,*6B
$PYRTM,2024,126.667615272419,17.777262682558
$GPGGA,160121.00,3400.9702,N,11931.7621,W,1,11,0.8,12.1,M,-33.6,M,,*68
$PYRTM,2024,126.667631139155,17.777278549294
$GPGGA,160122.00,3400.9703,N,11931.7619,W,1,11,0.8,12.1,M,-33.6,M,,*61
$PYRTM,2024,126.667642709525,17.777290119664
$GPGGA,160123.00,3400.9706,N,11931.7618,W,1,11,0.8,12.1,M,-33.6,M,,*64
$PYRTM,2024,126.667654287315,17.777301697454
$GPGGA,160124.00,3400.9708,N,11931.7616,W,1,11,0.8,12.1,M,-33.6,M,,*63
$PYRTM,2024,126.667665858889,17.777313269028
$GPGGA,160125.00,3400.9710,N,11931.7616,W,1,11,0.8,12.1,M,-33.6,M,,*6B
$PYRTM,2024,126.667677427778,17.777324837928
$GPGGA,160126.00,3400.9710,N,11931.7615,W,1,11,0.8,12.1,M,-33.6,M,,*6B
$PYRTM,2024,126.667689006181,17.777336416331
$GPGGA,160127.00,3400.9711,N,11931.7615,W,1,11,0.8,12.1,M,-33.6,M,,*6B
$PYRTM,2024,126.667700580822,17.777347990961
$GPGGA,160128.00,3400.9713,N,11931.7614,W,1,11,0.8,12.1,M,-33.6,M,,*67
$PYRTM,2024,126.667712156331,17.777359566470
$GPGGA,160129.00,3400.9716,N,11931.7612,W,1,11,0.8,12.1,M,-33.6,M,,*65
$PYRTM,2024,126.667723730567,17.777371140706
$GPGGA,160130.00,3400.9718,N,11931.7611,W,1,11,0.8,12.1,M,-33.6,M,,*60
$PYRTM,2024,126.667735302708,17.777382712859
$GPGGA,160131.00,3400.9719,N,11931.7610,W,1,11,0.8,12.1,M,-33.6,M,,*61
$PYRTM,2024,126.667746877500,17.777394287650
$GPGGA,160132.00,3400.9719,N,11931.7609,W,1,11,0.8,12.1,M,-33.6,M,,*6A
$PYRTM,2024,126.667758451620,17.777405861759
$GPGGA,160133.00,3400.9721,N,11931.7608,W,1,11,0.8,12.1,M,-33.6,M,,*61
$PYRTM,2024,126.667765730417,17.777413140567
$GPGGA,160134.00,3400.9724,N,11931.7607,W,1,11,0.8,12.1,M,-33.6,M,,*6C
$PYRTM,2024,126.667781599387,17.777429009525
$GPGGA,160135.00,3400.9726,N,11931.7605,W,1,11,0.8,12.1,M,-33.6,M,,*6D
$PYRTM,2024,126.667788878067,17.777436288206
$GPGGA,160136.00,3400.9727,N,11931.7604,W,1,11,0.8,12.1,M,-33.6,M,,*6E
$PYRTM,2024,126.667804747882,17.777452158021
$GPGGA,160137.00,3400.9729,N,11931.7603,W,1,11,0.8,12.1,M,-33.6,M,,*66
$PYRTM,2024,126.667816325324,17.777463735475
$GPGGA,160138.00,3400.9730,N,11931.7602,W,1,11,0.8,12.1,M,-33.6,M,,*60
$PYRTM,2024,126.667827895926,17.777475306065
$GPGGA,160139.00,3400.9732,N,11931.7601,W,1,11,0.8,12.1,M,-33.6,M,,*60
$PYRTM,2024,126.667839471088,17.777486881227
$GPGGA,160140.00,3400.9734,N,11931.7600,W,1,11,0.8,12.1,M,-33.6,M,,*69
$PYRTM,2024,126.667851044572,17.777498454711
$GPGGA,160141.00,3400.9736,N,11931.7600,W,1,11,0.8,12.1,M,-33.6,M,,*6A
$PYRTM,2024,126.667862620544,17.777510030683
$GPGGA,160142.00,3400.9737,N,11931.7598,W,1,11,0.8,12.1,M,-33.6,M,,*6A
$PYRTM,2024,126.667874192315,17.777521602454
$GPGGA,160143.00,3400.9739,N,11931.7597,W,1,11,0.8,12.1,M,-33.6,M,,*6A
$PYRTM,2024,126.667881471817,17.777528881956
$GPGGA,160144.00,3400.9742,N,11931.7597,W,1,11,0.8,12.1,M,-33.6,M,,*61
$PYRTM,2024,126.667897341146,17.777544751285
$GPGGA,160145.00,3400.9743,N,11931.7596,W,1,11,0.8,12.0,M,-33.6,M,,*61
$PYRTM,2024,126.667904622384,17.777552032523
$GPGGA,160146.00,3400.9744,N,11931.7595,W,1,11,0.8,12.0,M,-33.6,M,,*66
$PYRTM,2024,126.667920488935,17.777567899074
$GPGGA,160147.00,3400.9744,N,11931.7594,W,1,11,0.8,12.0,M,-33.6,M,,*66
$PYRTM,2024,126.667932063565,17.777579473704
$GPGGA,160148.00,3400.9747,N,11931.7593,W,1,11,0.8,12.0,M,-33.6,M,,*6D
$PYRTM,2024,126.667939354201,17.777586764340
$GPGGA,160149.00,3400.9749,N,11931.7591,W,1,11,0.8,12.0,M,-33.6,M,,*60
$PYRTM,2024,126.667955211296,17.777602621644
$GPGGA,160150.00,3400.9751,N,11931.7591,W,1,11,0.8,12.0,M,-33.6,M,,*61
$PYRTM,2024,126.667966785255,17.777614195394
$GPGGA,160151.00,3400.9751,N,11931.7590,W,1,11,0.8,12.0,M,-33.6,M,,*61
$PYRTM,2024,126.667978374444,17.777625784583
$GPGGA,160152.00,3400.9752,N,11931.7589,W,1,11,0.8,12.0,M,-33.6,M,,*69
$PYRTM,2024,126.667989934954,17.777637345093
$GPGGA,160153.00,3400.9753,N,11931.7588,W,1,11,0.8,12.0,M,-33.6,M,,*68
$PYRTM,2024,126.667997213380,17.777644623519
$GPGGA,160154.00,3400.9756,N,11931.7587,W,1,11,0.8,12.0,M,-33.6,M,,*65
$PYRTM,2024,126.668013083137,17.777660493275
$GPGGA,160155.00,3400.9759,N,11931.7585,W,1,11,0.8,12.0,M,-33.6,M,,*69
$PYRTM,2024,126.668020362998,17.777667773137
$GPGGA,160156.00,3400.9761,N,11931.7585,W,1,11,0.8,12.0,M,-33.6,M,,*61
$PYRTM,2024,126.668036231771,17.777683641910
$GPGGA,160157.00,3400.9761,N,11931.7584,W,1,11,0.8,12.0,M,-33.6,M,,*61
$PYRTM,2024,126.668047804826,17.777695214965
$GPGGA,160158.00,3400.9762,N,11931.7584,W,1,11,0.8,12.0,M,-33.6,M,,*6D
$PYRTM,2024,126.668059378704,17.777706788843
$GPGGA,160159.00,3400.9764,N,11931.7582,W,1,11,0.8,12.0,M,-33.6,M,,*6C
$PYRTM,2024,126.668070953160,17.777718363299
$GPGGA,160200.00,3400.9768,N,11931.7581,W,1,11,0.8,12.0,M,-33.6,M,,*6C
$PYRTM,2024,126.668078256377,17.777725666505
$GPGGA,160201.00,3400.9770,N,11931.7580,W,1,11,0.8,12.0,M,-33.6,M,,*65
$PYRTM,2024,126.668094101887,17.777741512025
$GPGGA,160202.00,3400.9769,N,11931.7579,W,1,11,0.8,12.0,M,-33.6,M,,*68
$PYRTM,2024,126.668105676169,17.777753086308
$GPGGA,160203.00,3400.9769,N,11931.7578,W,1,11,0.8,12.0,M,-33.6,M,,*68
$PYRTM,2024,126.668112956227,17.777760366366
$GPGGA,160204.00,3400.9770,N,11931.7577,W,1,11,0.8,12.0,M,-33.6,M,,*68
$PYRTM,2024,126.668128824468,17.777776234618
$GPGGA,160205.00,3400.9774,N,11931.7576,W,1,11,0.8,12.0,M,-33.6,M,,*6C
$PYRTM,2024,126.668140398993,17.777787809132
$GPGGA,160206.00,3400.9776,N,11931.7575,W,1,11,0.8,12.0,M,-33.6,M,,*6E
$PYRTM,2024,126.668147690093,17.777795100231
$GPGGA,160207.00,3400.9777,N,11931.7574,W,1,11,0.8,12.0,M,-33.6,M,,*6F
$PYRTM,2024,126.668163562581,17.777810972731
$GPGGA,160208.00,3400.9777,N,11931.7574,W,1,11,0.8,12.1,M,-33.6,M,,*61
$PYRTM,2024,126.668175116192,17.777822526343
$GPGGA,160209.00,3400.9779,N,11931.7573,W,1,11,0.8,12.1,M,-33.6,M,,*69
$PYRTM,2024,126.668186698900,17.777834109039
$GPGGA,160210.00,3400.9782,N,11931.7572,W,1,11,0.8,12.1,M,-33.6,M,,*64
$PYRTM,2024,126.668193985463,17.777841395602
$GPGGA,160211.00,3400.9784,N,11931.7571,W,1,11,0.8,12.1,M,-33.6,M,,*60
$PYRTM,2024,126.668209843449,17.777857253588
$GPGGA,160212.00,3400.9786,N,11931.7569,W,1,11,0.8,12.0,M,-33.6,M,,*69
$PYRTM,2024,126.668221417350,17.777868827500
$GPGGA,160213.00,3400.9787,N,11931.7568,W,1,11,0.8,12.0,M,-33.6,M,,*68
$PYRTM,2024,126.668232992882,17.777880403021
$GPGGA,160214.00,3400.9788,N,11931.7568,W,1,11,0.8,12.0,M,-33.6,M,,*60
$PYRTM,2024,126.668244565035,17.777891975174
$GPGGA,160215.00,3400.9790,N,11931.7566,W,1,11,0.8,12.0,M,-33.6,M,,*66
$PYRTM,2024,126.668256139201,17.777903549340
$GPGGA,160216.00,3400.9792,N,11931.7565,W,1,11,0.8,12.0,M,-33.6,M,,*64
$PYRTM,2024,126.668267713993,17.777915124132
$GPGGA,160217.00,3400.9794,N,11931.7564,W,1,11,0.8,12.0,M,-33.6,M,,*62
$PYRTM,2024,126.668279288345,17.777926698484
$GPGGA,160218.00,3400.9795,N,11931.7563,W,1,11,0.8,12.0,M,-33.6,M,,*6B
$PYRTM,2024,126.668290858229,17.777938268368
$GPGGA,160219.00,3400.9797,N,11931.7562,W,1,11,0.8,12.0,M,-33.6,M,,*69
$PYRTM,2024,126.668298140428,17.777945550579
$GPGGA,160220.00,3400.9798,N,11931.7561,W,1,11,0.8,12.1,M,-33.6,M,,*6E
$PYRTM,2024,126.668310293808,17.777957703947
$GPGGA,160221.00,3400.9799,N,11931.7560,W,1,11,0.8,12.1,M,-33.6,M,,*6F
$PYRTM,2024,126.668325585405,17.777972995544
$GPGGA,160222.00,3400.9801,N,11931.7559,W,1,11,0.8,12.1,M,-33.6,M,,*68
$PYRTM,2024,126.668337160486,17.777984570625
$GPGGA,160223.00,3400.9803,N,11931.7559,W,1,11,0.8,12.1,M,-33.6,M,,*6B
$PYRTM,2024,126.668348736227,17.777996146366
$GPGGA,160224.00,3400.9805,N,11931.7558,W,1,11,0.8,12.1,M,-33.6,M,,*6B
$PYRTM,2024,126.668360308056,17.778007718206
$GPGGA,160225.00,3400.9806,N,11931.7557,W,1,11,0.8,12.1,M,-33.6,M,,*66
$PYRTM,2024,126.668367587303,17.778014997442
$GPGGA,160226.00,3400.9806,N,11931.7556,W,1,11,0.8,12.1,M,-33.6,M,,*64
$PYRTM,2024,126.668383459931,17.778030870069
$GPGGA,160227.00,3400.9808,N,11931.7554,W,1,11,0.8,12.0,M,-33.6,M,,*68
$PYRTM,2024,126.668395039387,17.778042449525
$GPGGA,160228.00,3400.9811,N,11931.7553,W,1,11,0.8,12.0,M,-33.6,M,,*68
$PYRTM,2024,126.668406607674,17.778054017801
$GPGGA,160229.00,3400.9814,N,11931.7552,W,1,11,0.8,12.0,M,-33.6,M,,*6D
$PYRTM,2024,126.668418194167,17.778065604306
$GPGGA,160230.00,3400.9814,N,11931.7552,W,1,11,0.8,12.1,M,-33.6,M,,*64
$PYRTM,2024,126.668425457488,17.778072867627
$GPGGA,160231.00,3400.9814,N,11931.7552,W,1,11,0.8,12.1,M,-33.6,M,,*65
$PYRTM,2024,126.668441335243,17.778088745382
$GPGGA,160232.00,3400.9816,N,11931.7551,W,1,11,0.8,12.1,M,-33.6,M,,*67
$PYRTM,2024,126.668452904525,17.778100314664
$GPGGA,160233.00,3400.9819,N,11931.7549,W,1,11,0.8,12.1,M,-33.6,M,,*60
$PYRTM,2024,126.668464483333,17.778111893472
$GPGGA,160234.00,3400.9823,N,11931.7548,W,1,11,0.8,12.1,M,-33.6,M,,*6F
$PYRTM,2024,126.668476052338,17.778123462477
$GPGGA,160235.00,3400.9823,N,11931.7548,W,1,11,0.8,12.1,M,-33.6,M,,*6E
$PYRTM,2024,126.668483328264,17.778130738403
$GPGGA,160236.00,3400.9823,N,11931.7547,W,1,11,0.8,12.1,M,-33.6,M,,*62
$PYRTM,2024,126.668499192187,17.778146602338
$GPGGA,160237.00,3400.9824,N,11931.7547,W,1,11,0.8,12.2,M,-33.6,M,,*67
$PYRTM,2024,126.668506492593,17.778153902731
$GPGGA,160238.00,3400.9827,N,11931.7545,W,1,11,0.8,12.2,M,-33.6,M,,*69
$PYRTM,2024,126.668522346296,17.778169756435
$GPGGA,160239.00,3400.9830,N,11931.7543,W,1,11,0.8,12.2,M,-33.6,M,,*68
$PYRTM,2024,126.668533939375,17.778181349514
$GPGGA,160240.00,3400.9832,N,11931.7542,W,1,11,0.8,12.2,M,-33.6,M,,*65
$PYRTM,2024,126.668545493160,17.778192903299
$GPGGA,160241.00,3400.9832,N,11931.7541,W,1,11,0.8,12.2,M,-33.6,M,,*67
$PYRTM,2024,126.668557075822,17.778204485961
$GPGGA,160242.00,3400.9832,N,11931.7540,W,1,11,0.8,12.2,M,-33.6,M,,*65
$PYRTM,2024,126.668568642037,17.778216052176
$GPGGA,160243.00,3400.9834,N,11931.7540,W,1,11,0.8,12.2,M,-33.6,M,,*62
$PYRTM,2024,126.668580216331,17.778227626470
$GPGGA,160244.00,3400.9837,N,11931.7538,W,1,11,0.8,12.2,M,-33.6,M,,*69
$PYRTM,2024,126.668591791493,17.778239201632
$GPGGA,160245.00,3400.9840,N,11931.7537,W,1,11,0.8,12.2,M,-33.6,M,,*67
$PYRTM,2024,126.668603365984,17.778250776134
$GPGGA,160246.00,3400.9841,N,11931.7536,W,1,11,0.8,12.2,M,-33.6,M,,*64
$PYRTM,2024,126.668614933681,17.778262343819
$GPGGA,160247.00,3400.9841,N,11931.7536,W,1,11,0.8,12.2,M,-33.6,M,,*65
$PYRTM,2024,126.668626524016,17.778273934155
$GPGGA,160248.00,3400.9842,N,11931.7535,W,1,11,0.8,12.2,M,-33.6,M,,*6A
$PYRTM,2024,126.668633791400,17.778281201539
$GPGGA,160249.00,3400.9845,N,11931.7534,W,1,11,0.8,12.2,M,-33.6,M,,*6D
$PYRTM,2024,126.668649660058,17.778297070197
$GPGGA,160250.00,3400.9848,N,11931.7533,W,1,11,0.8,12.2,M,-33.6,M,,*6F
$PYRTM,2024,126.668656938588,17.778304348727
$GPGGA,160251.00,3400.9849,N,11931.7532,W,1,11,0.8,12.2,M,-33.6,M,,*6E
$PYRTM,2024,126.668672809329,17.778320219468
$GPGGA,160252.00,3400.9849,N,11931.7531,W,1,11,0.8,12.2,M,-33.6,M,,*6E
$PYRTM,2024,126.668684384375,17.778331794525
$GPGGA,160253.00,3400.9849,N,11931.7530,W,1,11,0.8,12.2,M,-33.6,M,,*6E
$PYRTM,2024,126.668695969086,17.778343379225
$GPGGA,160254.00,3400.9851,N,11931.7529,W,1,11,0.8,12.2,M,-33.6,M,,*68
$PYRTM,2024,126.668707530498,17.778354940637
$GPGGA,160255.00,3400.9854,N,11931.7527,W,1,11,0.8,12.1,M,-33.6,M,,*61
$PYRTM,2024,126.668714826134,17.778362236273
$GPGGA,160256.00,3400.9857,N,11931.7525,W,1,11,0.8,12.1,M,-33.6,M,,*63
$PYRTM,2024,126.668730680174,17.778378090324
$GPGGA,160257.00,3400.9858,N,11931.7525,W,1,11,0.8,12.1,M,-33.6,M,,*6D
$PYRTM,2024,126.668742262940,17.778389673079
$GPGGA,160258.00,3400.9857,N,11931.7524,W,1,11,0.8,12.1,M,-33.6,M,,*6C
$PYRTM,2024,126.668753829063,17.778401239201
$GPGGA,160259.00,3400.9859,N,11931.7523,W,1,11,0.8,12.1,M,-33.6,M,,*64
$PYRTM,2024,126.668765414109,17.778412824248
$GPGGA,160300.00,3400.9862,N,11931.7521,W,1,11,0.8,12.1,M,-33.6,M,,*63
$PYRTM,2024,126.668772680903,17.778420091042
$GPGGA,160301.00,3400.9866,N,11931.7519,W,1,11,0.8,12.1,M,-33.6,M,,*6D
$PYRTM,2024,126.668788552222,17.778435962361
$GPGGA,160302.00,3400.9869,N,11931.7519,W,1,11,0.8,12.1,M,-33.6,M,,*61
$PYRTM,2024,126.668800125336,17.778447535475
$GPGGA,160303.00,3400.9868,N,11931.7519,W,1,11,0.8,12.1,M,-33.6,M,,*61
$PYRTM,2024,126.668811700000,17.778459110150
$GPGGA,160304.00,3400.9867,N,11931.7518,W,1,11,0.8,12.1,M,-33.6,M,,*68
$PYRTM,2024,126.668823274444,17.778470684583
$GPGGA,160305.00,3400.9869,N,11931.7517,W,1,11,0.8,12.1,M,-33.6,M,,*68
$PYRTM,2024,126.668834858715,17.778482268854
$GPGGA,160306.00,3400.9874,N,11931.7516,W,1,11,0.8,12.1,M,-33.6,M,,*66
$PYRTM,2024,126.668846418333,17.778493828472
$GPGGA,160307.00,3400.9877,N,11931.7515,W,1,11,0.8,12.1,M,-33.6,M,,*67
$PYRTM,2024,126.668857995660,17.778505405799
$GPGGA,160308.00,3400.9877,N,11931.7514,W,1,11,0.8,12.1,M,-33.6,M,,*69
$PYRTM,2024,126.668865275637,17.778512685775
$GPGGA,160309.00,3400.9876,N,11931.7514,W,1,11,0.8,12.1,M,-33.6,M,,*69
$PYRTM,2024,126.668883921412,17.778531331551
$GPGGA,160310.00,3400.9876,N,11931.7513,W,1,11,0.8,12.1,M,-33.6,M,,*66
$PYRTM,2024,126.668895496331,17.778542906470
$GPGGA,160311.00,3400.9879,N,11931.7512,W,1,11,0.8,12.1,M,-33.6,M,,*69
$PYRTM,2024,126.668907070162,17.778554480301
$GPGGA,160312.00,3400.9883,N,11931.7511,W,1,11,0.8,12.1,M,-33.6,M,,*6C
$PYRTM,2024,126.668915867546,17.778563277685
$GPGGA,160313.00,3400.9885,N,11931.7509,W,1,11,0.8,12.1,M,-33.6,M,,*62
$PYRTM,2024,126.668927449745,17.778574859884
$GPGGA,160314.00,3400.9885,N,11931.7509,W,1,11,0.8,12.1,M,-33.6,M,,*65
$PYRTM,2024,126.668939015521,17.778586425660
$GPGGA,160315.00,3400.9885,N,11931.7508,W,1,11,0.8,12.1,M,-33.6,M,,*65
$PYRTM,2024,126.668946293808,17.778593703947
$GPGGA,160316.00,3400.9887,N,11931.7506,W,1,11,0.8,12.1,M,-33.6,M,,*6A
$PYRTM,2024,126.668962162477,17.778609572616
$GPGGA,160317.00,3400.9891,N,11931.7505,W,1,11,0.8,12.1,M,-33.6,M,,*6F
$PYRTM,2024,126.668973737326,17.778621147465
$GPGGA,160318.00,3400.9894,N,11931.7503,W,1,11,0.8,12.1,M,-33.6,M,,*63
$PYRTM,2024,126.668985306574,17.778632716713
$GPGGA,160319.00,3400.9894,N,11931.7502,W,1,11,0.8,12.1,M,-33.6,M,,*63
$PYRTM,2024,126.668996884965,17.778644295116
$GPGGA,160320.00,3400.9894,N,11931.7501,W,1,11,0.8,12.1,M,-33.6,M,,*6A
$PYRTM,2024,126.669004165046,17.778651575185
$GPGGA,160321.00,3400.9895,N,11931.7500,W,1,11,0.8,12.1,M,-33.6,M,,*6B
$PYRTM,2024,126.669020034062,17.778667444201
$GPGGA,160322.00,3400.9898,N,11931.7499,W,1,11,0.8,12.1,M,-33.6,M,,*64
$PYRTM,2024,126.669031606759,17.778679016898
$GPGGA,160323.00,3400.9901,N,11931.7498,W,1,11,0.8,12.1,M,-33.6,M,,*65
$PYRTM,2024,126.669038887350,17.778686297488
$GPGGA,160324.00,3400.9902,N,11931.7497,W,1,11,0.8,12.1,M,-33.6,M,,*6E
$PYRTM,2024,126.669054756238,17.778702166389
$GPGGA,160325.00,3400.9903,N,11931.7496,W,1,11,0.8,12.1,M,-33.6,M,,*6F
$PYRTM,2024,126.669062052002,17.778709462141
$GPGGA,160326.00,3400.9904,N,11931.7495,W,1,11,0.8,12.1,M,-33.6,M,,*68
$PYRTM,2024,126.669077899919,17.778725310058
$GPGGA,160327.00,3400.9907,N,11931.7494,W,1,11,0.8,12.1,M,-33.6,M,,*6B
$PYRTM,2024,126.669089505336,17.778736915475
$GPGGA,160328.00,3400.9909,N,11931.7493,W,1,11,0.8,12.1,M,-33.6,M,,*6D
$PYRTM,2024,126.669101052616,17.778748462755
$GPGGA,160329.00,3400.9910,N,11931.7491,W,1,11,0.8,12.1,M,-33.6,M,,*66
$PYRTM,2024,126.669112642257,17.778760052396
$GPGGA,160330.00,3400.9911,N,11931.7490,W,1,11,0.8,12.1,M,-33.6,M,,*6E
$PYRTM,2024,126.669124200775,17.778771610914
$GPGGA,160331.00,3400.9912,N,11931.7489,W,1,11,0.8,12.2,M,-33.6,M,,*67
$PYRTM,2024,126.669135775671,17.778783185810
$GPGGA,160332.00,3400.9914,N,11931.7489,W,1,11,0.8,12.2,M,-33.6,M,,*62
$PYRTM,2024,126.669147349549,17.778794759688
$GPGGA,160333.00,3400.9917,N,11931.7486,W,1,11,0.8,12.2,M,-33.6,M,,*6F
$PYRTM,2024,126.669158923461,17.778806333600
$GPGGA,160334.00,3400.9918,N,11931.7485,W,1,11,0.8,12.2,M,-33.6,M,,*64
$PYRTM,2024,126.669170499109,17.778817909248
$GPGGA,160335.00,3400.9919,N,11931.7484,W,1,11,0.8,12.2,M,-33.6,M,,*65
$PYRTM,2024,126.669177777662,17.778825187801
$GPGGA,160336.00,3400.9919,N,11931.7484,W,1,11,0.8,12.2,M,-33.6,M,,*66
$PYRTM,2024,126.669193646690,17.778841056829
$GPGGA,160337.00,3400.9921,N,11931.7482,W,1,11,0.8,12.2,M,-33.6,M,,*6A
$PYRTM,2024,126.669205221389,17.778852631528
$GPGGA,160338.00,3400.9923,N,11931.7480,W,1,11,0.8,12.2,M,-33.6,M,,*65
$PYRTM,2024,126.669216794294,17.778864204444
$GPGGA,160339.00,3400.9926,N,11931.7479,W,1,11,0.8,12.2,M,-33.6,M,,*67
$PYRTM,2024,126.669224074248,17.778871484387
$GPGGA,160340.00,3400.9927,N,11931.7478,W,1,11,0.8,12.3,M,-33.6,M,,*68
$PYRTM,2024,126.669242721979,17.778890132118
$GPGGA,160341.00,3400.9927,N,11931.7478,W,1,11,0.8,12.3,M,-33.6,M,,*69
$PYRTM,2024,126.669254306111,17.778901716250
$GPGGA,160342.00,3400.9929,N,11931.7476,W,1,11,0.8,12.3,M,-33.6,M,,*6A
$PYRTM,2024,126.669263092153,17.778910502292
$GPGGA,160343.00,3400.9932,N,11931.7475,W,1,11,0.8,12.3,M,-33.6,M,,*62
$PYRTM,2024,126.669274673750,17.778922083889
$GPGGA,160344.00,3400.9935,N,11931.7475,W,1,11,0.8,12.3,M,-33.6,M,,*62
$PYRTM,2024,126.669286240093,17.778933650231
$GPGGA,160345.00,3400.9936,N,11931.7474,W,1,11,0.8,12.3,M,-33.6,M,,*61
$PYRTM,2024,126.669297838646,17.778945248785
$GPGGA,160346.00,3400.9936,N,11931.7473,W,1,11,0.8,12.3,M,-33.6,M,,*65
$PYRTM,2024,126.669309387431,17.778956797569
$GPGGA,160347.00,3400.9939,N,11931.7473,W,1,11,0.8,12.3,M,-33.6,M,,*6B
$PYRTM,2024,126.669320972847,17.778968382986
$GPGGA,160348.00,3400.9941,N,11931.7472,W,1,11,0.8,12.3,M,-33.6,M,,*6A
$PYRTM,2024,126.669332535868,17.778979946007
$GPGGA,160349.00,3400.9944,N,11931.7471,W,1,11,0.8,12.3,M,-33.6,M,,*6D
$PYRTM,2024,126.669344109225,17.778991519363
$GPGGA,160350.00,3400.9945,N,11931.7471,W,1,11,0.8,12.3,M,-33.6,M,,*64
$PYRTM,2024,126.669351388993,17.778998799132
$GPGGA,160351.00,3400.9946,N,11931.7470,W,1,11,0.8,12.3,M,-33.6,M,,*67
$PYRTM,2024,126.669367259641,17.779014669780
$GPGGA,160352.00,3400.9947,N,11931.7469,W,1,11,0.8,12.3,M,-33.6,M,,*6D
$PYRTM,2024,126.669378833600,17.779026243738
$GPGGA,160353.00,3400.9948,N,11931.7468,W,1,11,0.8,12.3,M,-33.6,M,,*62
$PYRTM,2024,126.669390406968,17.779037817106
$GPGGA,160354.00,3400.9950,N,11931.7467,W,1,11,0.8,12.3,M,-33.6,M,,*63
$PYRTM,2024,126.669401976933,17.779049387072
$GPGGA,160355.00,3400.9953,N,11931.7465,W,1,11,0.8,12.3,M,-33.6,M,,*63
$PYRTM,2024,126.669409260116,17.779056670255
$GPGGA,160356.00,3400.9954,N,11931.7464,W,1,11,0.8,12.3,M,-33.6,M,,*66
$PYRTM,2024,126.669425124329,17.779072534479
$GPGGA,160357.00,3400.9953,N,11931.7464,W,1,11,0.8,12.3,M,-33.6,M,,*60
$PYRTM,2024,126.669436703252,17.779084113403
$GPGGA,160358.00,3400.9954,N,11931.7463,W,1,11,0.8,12.3,M,-33.6,M,,*6F
$PYRTM,2024,126.669448283588,17.779095693738
$GPGGA,160359.00,3400.9957,N,11931.7462,W,1,11,0.8,12.3,M,-33.6,M,,*6C
$PYRTM,2024,126.669459858912,17.779107269063
$GPGGA,160400.00,3400.9960,N,11931.7461,W,1,11,0.8,12.3,M,-33.6,M,,*60
$PYRTM,2024,126.669467130810,17.779114540961
$GPGGA,160401.00,3400.9961,N,11931.7460,W,1,11,0.8,12.3,M,-33.6,M,,*61
$PYRTM,2024,126.669483007662,17.779130417801
$GPGGA,160402.00,3400.9962,N,11931.7459,W,1,11,0.8,12.3,M,-33.6,M,,*6B
$PYRTM,2024,126.669494574329,17.779141984468
$GPGGA,160403.00,3400.9963,N,11931.7458,W,1,11,0.8,12.3,M,-33.6,M,,*6A
$PYRTM,2024,126.669506148750,17.779153558889
$GPGGA,160404.00,3400.9966,N,11931.7457,W,1,11,0.8,12.3,M,-33.6,M,,*67
$PYRTM,2024,126.669517723183,17.779165133322
$GPGGA,160405.00,3400.9968,N,11931.7457,W,1,11,0.8,12.3,M,-33.6,M,,*68
$PYRTM,2024,126.669529299340,17.779176709479
$GPGGA,160406.00,3400.9970,N,11931.7456,W,1,11,0.8,12.3,M,-33.6,M,,*63
$PYRTM,2024,126.669540870949,17.779188281100
$GPGGA,160407.00,3400.9971,N,11931.7455,W,1,11,0.8,12.3,M,-33.6,M,,*60
$PYRTM,2024,126.669552455266,17.779199865405
$GPGGA,160408.00,3400.9973,N,11931.7454,W,1,11,0.8,12.4,M,-33.6,M,,*6B
$PYRTM,2024,126.669564018727,17.779211428866
$GPGGA,160409.00,3400.9975,N,11931.7453,W,1,11,0.8,12.4,M,-33.6,M,,*6B
$PYRTM,2024,126.669575604097,17.779223014236
$GPGGA,160410.00,3400.9976,N,11931.7452,W,1,11,0.8,12.4,M,-33.6,M,,*61
$PYRTM,2024,126.669582873495,17.779230283634
$GPGGA,160411.00,3400.9978,N,11931.7451,W,1,11,0.8,12.4,M,-33.6,M,,*6D
$PYRTM,2024,126.669598752373,17.779246162523
$GPGGA,160412.00,3400.9980,N,11931.7450,W,1,11,0.8,12.4,M,-33.6,M,,*68
$PYRTM,2024,126.669610310428,17.779257720567
$GPGGA,160413.00,3400.9981,N,11931.7449,W,1,11,0.8,12.4,M,-33.6,M,,*60
$PYRTM,2024,126.669621900532,17.779269310671
$GPGGA,160414.00,3400.9982,N,11931.7448,W,1,11,0.8,12.4,M,-33.6,M,,*65
$PYRTM,2024,126.669633463102,17.779280873241
$GPGGA,160415.00,3400.9985,N,11931.7446,W,1,11,0.8,12.4,M,-33.6,M,,*6D
$PYRTM,2024,126.669640755324,17.779288165463
$GPGGA,160416.00,3400.9987,N,11931.7445,W,1,11,0.8,12.4,M,-33.6,M,,*6F
$PYRTM,2024,126.669656612095,17.779304022234
$GPGGA,160417.00,3400.9987,N,11931.7445,W,1,11,0.8,12.4,M,-33.6,M,,*6E
$PYRTM,2024,126.669668209201,17.779315619340
$GPGGA,160418.00,3400.9987,N,11931.7444,W,1,11,0.8,12.4,M,-33.6,M,,*60
$PYRTM,2024,126.669679760775,17.779327170914
$GPGGA,160419.00,3400.9988,N,11931.7443,W,1,11,0.8,12.4,M,-33.6,M,,*69
$PYRTM,2024,126.669691335463,17.779338745602
$GPGGA,160420.00,3400.9990,N,11931.7441,W,1,11,0.8,12.4,M,-33.6,M,,*68
$PYRTM,2024,126.669702908854,17.779350318993
$GPGGA,160421.00,3400.9994,N,11931.7439,W,1,11,0.8,12.4,M,-33.6,M,,*62
$PYRTM,2024,126.669714482593,17.779361892731
$GPGGA,160422.00,3400.9995,N,11931.7438,W,1,11,0.8,12.4,M,-33.6,M,,*61
$PYRTM,2024,126.669726057153,17.779373467292
$GPGGA,160423.00,3400.9995,N,11931.7438,W,1,11,0.8,12.4,M,-33.6,M,,*60
$PYRTM,2024,126.669737630810,17.779385040949
$GPGGA,160424.00,3400.9996,N,11931.7437,W,1,11,0.8,12.4,M,-33.6,M,,*6B
$PYRTM,2024,126.669749199919,17.779396610058
$GPGGA,160425.00,3400.9999,N,11931.7435,W,1,11,0.8,12.4,M,-33.6,M,,*67
$PYRTM,2024,126.669756485637,17.779403895775
$GPGGA,160426.00,3401.0002,N,11931.7434,W,1,11,0.8,12.4,M,-33.6,M,,*66
$PYRTM,2024,126.669768173530,17.779415583669
$GPGGA,160427.00,3401.0005,N,11931.7433,W,1,11,0.8,12.4,M,-33.6,M,,*67
$PYRTM,2024,126.669783927512,17.779431337650
$GPGGA,160428.00,3401.0006,N,11931.7432,W,1,11,0.8,12.4,M,-33.6,M,,*6A
$PYRTM,2024,126.669795503993,17.779442914132
$GPGGA,160429.00,3401.0007,N,11931.7432,W,1,11,0.8,12.4,M,-33.6,M,,*6A
$PYRTM,2024,126.669807086863,17.779454497002
$GPGGA,160430.00,3401.0008,N,11931.7431,W,1,11,0.8,12.4,M,-33.6,M,,*6E
$PYRTM,2024,126.669814355289,17.779461765428
$GPGGA,160431.00,3401.0011,N,11931.7430,W,1,11,0.8,12.4,M,-33.6,M,,*66
$PYRTM,2024,126.669830244294,17.779477654433
$GPGGA,160432.00,3401.0014,N,11931.7429,W,1,11,0.8,12.4,M,-33.6,M,,*68
$PYRTM,2024,126.669841798125,17.779489208264
$GPGGA,160433.00,3401.0015,N,11931.7428,W,1,11,0.8,12.4,M,-33.6,M,,*69
$PYRTM,2024,126.669853398333,17.779500808484
$GPGGA,160434.00,3401.0016,N,11931.7427,W,1,11,0.8,12.3,M,-33.6,M,,*65
$PYRTM,2024,126.669864942269,17.779512352407
$GPGGA,160435.00,3401.0017,N,11931.7426,W,1,11,0.8,12.4,M,-33.6,M,,*63
$PYRTM,2024,126.669872227072,17.779519637211
$GPGGA,160436.00,3401.0019,N,11931.7424,W,1,11,0.8,12.3,M,-33.6,M,,*6B
$PYRTM,2024,126.669888095544,17.779535505683
$GPGGA,160437.00,3401.0022,N,11931.7423,W,1,11,0.8,12.3,M,-33.6,M,,*65
$PYRTM,2024,126.669899669410,17.779547079549
$GPGGA,160438.00,3401.0024,N,11931.7422,W,1,11,0.8,12.3,M,-33.6,M,,*6D
$PYRTM,2024,126.669911244456,17.779558654595
$GPGGA,160439.00,3401.0025,N,11931.7421,W,1,11,0.8,12.4,M,-33.6,M,,*69
$PYRTM,2024,126.669922816968,17.779570227106
$GPGGA,160440.00,3401.0025,N,11931.7420,W,1,11,0.8,12.4,M,-33.6,M,,*66
$PYRTM,2024,126.669930096678,17.779577506817
$GPGGA,160441.00,3401.0027,N,11931.7418,W,1,11,0.8,12.4,M,-33.6,M,,*6E
$PYRTM,2024,126.669941786366,17.779589196516
$GPGGA,160442.00,3401.0029,N,11931.7417,W,1,11,0.8,12.4,M,-33.6,M,,*6C
$PYRTM,2024,126.669957535995,17.779604946134
$GPGGA,160443.00,3401.0031,N,11931.7417,W,1,11,0.8,12.4,M,-33.6,M,,*64
$PYRTM,2024,126.669969114884,17.779616525035
$GPGGA,160444.00,3401.0033,N,11931.7416,W,1,11,0.8,12.4,M,-33.6,M,,*60
$PYRTM,2024,126.669980688403,17.779628098553
$GPGGA,160445.00,3401.0034,N,11931.7414,W,1,11,0.8,12.4,M,-33.6,M,,*64
$PYRTM,2024,126.669992273681,17.779639683819
$GPGGA,160446.00,3401.0036,N,11931.7413,W,1,11,0.8,12.4,M,-33.6,M,,*62
$PYRTM,2024,126.670003832338,17.779651242477
$GPGGA,160447.00,3401.0038,N,11931.7413,W,1,11,0.8,12.4,M,-33.6,M,,*6D
$PYRTM,2024,126.670015418438,17.779662828576
$GPGGA,160448.00,3401.0039,N,11931.7411,W,1,11,0.8,12.4,M,-33.6,M,,*61
$PYRTM,2024,126.670026986829,17.779674396968
$GPGGA,160449.00,3401.0040,N,11931.7410,W,1,11,0.8,12.4,M,-33.6,M,,*6F
$PYRTM,2024,126.670038567315,17.779685977454
$GPGGA,160450.00,3401.0042,N,11931.7409,W,1,11,0.8,12.4,M,-33.6,M,,*6D
$PYRTM,2024,126.670045837766,17.779693247905
$GPGGA,160451.00,3401.0045,N,11931.7408,W,1,11,0.8,12.4,M,-33.6,M,,*6A
$PYRTM,2024,126.670061707188,17.779709117326
$GPGGA,160452.00,3401.0047,N,11931.7407,W,1,11,0.8,12.4,M,-33.6,M,,*64
$PYRTM,2024,126.670073282905,17.779720693044
$GPGGA,160453.00,3401.0048,N,11931.7406,W,1,11,0.8,12.4,M,-33.6,M,,*6B
$PYRTM,2024,126.670084868264,17.779732278403
$GPGGA,160454.00,3401.0050,N,11931.7405,W,1,11,0.8,12.4,M,-33.6,M,,*66
$PYRTM,2024,126.670096429421,17.779743839560
$GPGGA,160455.00,3401.0052,N,11931.7404,W,1,11,0.8,12.4,M,-33.6,M,,*64
$PYRTM,2024,126.670103709502,17.779751119641
$GPGGA,160456.00,3401.0054,N,11931.7403,W,1,11,0.8,12.4,M,-33.6,M,,*66
$PYRTM,2024,126.670119573299,17.779766983449
$GPGGA,160457.00,3401.0055,N,11931.7403,W,1,11,0.8,12.4,M,-33.6,M,,*66
$PYRTM,2024,126.670126857813,17.779774267951
$GPGGA,160458.00,3401.0057,N,11931.7402,W,1,11,0.8,12.4,M,-33.6,M,,*6A
$PYRTM,2024,126.670145504005,17.779792914144
$GPGGA,160459.00,3401.0058,N,11931.7400,W,1,11,0.8,12.4,M,-33.6,M,,*66
$PYRTM,2024,126.670154311898,17.779801722037
$GPGGA,160500.00,3401.0060,N,11931.7399,W,1,11,0.8,12.4,M,-33.6,M,,*67
$PYRTM,2024,126.670161578148,17.779808988287
$GPGGA,160501.00,3401.0061,N,11931.7398,W,1,11,0.8,12.4,M,-33.6,M,,*66
$PYRTM,2024,126.670177450046,17.779824860185
$GPGGA,160502.00,3401.0063,N,11931.7397,W,1,11,0.8,12.4,M,-33.6,M,,*68
$PYRTM,2024,126.670189022731,17.779836432870
$GPGGA,160503.00,3401.0064,N,11931.7395,W,1,11,0.8,12.4,M,-33.6,M,,*6C
$PYRTM,2024,126.670200596968,17.779848007106
$GPGGA,160504.00,3401.0065,N,11931.7395,W,1,11,0.8,12.4,M,-33.6,M,,*6A
$PYRTM,2024,126.670212171863,17.779859582002
$GPGGA,160505.00,3401.0067,N,11931.7393,W,1,11,0.8,12.4,M,-33.6,M,,*6F
$PYRTM,2024,126.670219450231,17.779866860370
$GPGGA,160506.00,3401.0069,N,11931.7392,W,1,11,0.8,12.4,M,-33.6,M,,*63
$PYRTM,2024,126.670235320000,17.779882730139
$GPGGA,160507.00,3401.0071,N,11931.7390,W,1,11,0.8,12.4,M,-33.6,M,,*69
$PYRTM,2024,126.670246903785,17.779894313924
$GPGGA,160508.00,3401.0072,N,11931.7389,W,1,11,0.8,12.4,M,-33.6,M,,*6D
$PYRTM,2024,126.670258467118,17.779905877257
$GPGGA,160509.00,3401.0073,N,11931.7388,W,1,11,0.8,12.4,M,-33.6,M,,*6C
$PYRTM,2024,126.670270049688,17.779917459826
$GPGGA,160510.00,3401.0076,N,11931.7387,W,1,11,0.8,12.4,M,-33.6,M,,*6E
$PYRTM,2024,126.670281617581,17.779929027720
$GPGGA,160511.00,3401.0079,N,11931.7386,W,1,11,0.8,12.3,M,-33.6,M,,*66
$PYRTM,2024,126.670293210347,17.779940620486
$GPGGA,160512.00,3401.0081,N,11931.7384,W,1,11,0.8,12.4,M,-33.6,M,,*67
$PYRTM,2024,126.670300470359,17.779947880498
$GPGGA,160513.00,3401.0082,N,11931.7383,W,1,11,0.8,12.4,M,-33.6,M,,*62
$PYRTM,2024,126.670316349769,17.779963759907
$GPGGA,160514.00,3401.0083,N,11931.7383,W,1,11,0.8,12.4,M,-33.6,M,,*64
$PYRTM,2024,126.670327914028,17.779975324167
$GPGGA,160515.00,3401.0085,N,11931.7382,W,1,11,0.8,12.4,M,-33.6,M,,*62
$PYRTM,2024,126.670339498831,17.779986908981
$GPGGA,160516.00,3401.0087,N,11931.7381,W,1,11,0.8,12.3,M,-33.6,M,,*67
$PYRTM,2024,126.670351061366,17.779998471505
$GPGGA,160517.00,3401.0090,N,11931.7379,W,1,11,0.8,12.3,M,-33.6,M,,*67
$PYRTM,2024,126.670362646076,17.780010056215
$GPGGA,160518.00,3401.0091,N,11931.7378,W,1,11,0.8,12.4,M,-33.6,M,,*6F
$PYRTM,2024,126.670374205174,17.780021615312
$GPGGA,160519.00,3401.0091,N,11931.7378,W,1,11,0.8,12.4,M,-33.6,M,,*6E
$PYRTM,2024,126.670385795150,17.780033205289
$GPGGA,160520.00,3401.0091,N,11931.7377,W,1,11,0.8,12.4,M,-33.6,M,,*6B
$PYRTM,2024,126.670393062836,17.780040472975
$GPGGA,160521.00,3401.0094,N,11931.7376,W,1,11,0.8,12.4,M,-33.6,M,,*6E
$PYRTM,2024,126.670408932581,17.780056342720
$GPGGA,160522.00,3401.0097,N,11931.7374,W,1,11,0.8,12.4,M,-33.6,M,,*6C
$PYRTM,2024,126.670420505405,17.780067915556
$GPGGA,160523.00,3401.0100,N,11931.7373,W,1,11,0.8,12.4,M,-33.6,M,,*65
$PYRTM,2024,126.670432080382,17.780079490521
$GPGGA,160524.00,3401.0100,N,11931.7372,W,1,11,0.8,12.4,M,-33.6,M,,*63
$PYRTM,2024,126.670443654213,17.780091064352
$GPGGA,160525.00,3401.0100,N,11931.7372,W,1,11,0.8,12.4,M,-33.6,M,,*62
$PYRTM,2024,126.670455267720,17.780102677859
$GPGGA,160526.00,3401.0101,N,11931.7371,W,1,11,0.8,12.4,M,-33.6,M,,*63
$PYRTM,2024,126.670466803449,17.780114213588
$GPGGA,160527.00,3401.0104,N,11931.7369,W,1,11,0.8,12.4,M,-33.6,M,,*6E
$PYRTM,2024,126.670478401458,17.780125811597
$GPGGA,160528.00,3401.0108,N,11931.7367,W,1,11,0.8,12.4,M,-33.6,M,,*63
$PYRTM,2024,126.670485655671,17.780133065810
$GPGGA,160529.00,3401.0110,N,11931.7367,W,1,11,0.8,12.4,M,-33.6,M,,*6B
$PYRTM,2024,126.670501524722,17.780148934873
$GPGGA,160530.00,3401.0109,N,11931.7366,W,1,11,0.8,12.4,M,-33.6,M,,*6A
$PYRTM,2024,126.670508805035,17.780156215174
$GPGGA,160531.00,3401.0110,N,11931.7366,W,1,11,0.8,12.4,M,-33.6,M,,*63
$PYRTM,2024,126.670524684294,17.780172094433
$GPGGA,160532.00,3401.0112,N,11931.7365,W,1,11,0.8,12.4,M,-33.6,M,,*61
$PYRTM,2024,126.670536249421,17.780183659560
$GPGGA,160533.00,3401.0117,N,11931.7363,W,1,11,0.8,12.4,M,-33.6,M,,*63
$PYRTM,2024,126.670547821806,17.780195231956
$GPGGA,160534.00,3401.0120,N,11931.7362,W,1,11,0.8,12.4,M,-33.6,M,,*61
$PYRTM,2024,126.670559396551,17.780206806690
$GPGGA,160535.00,3401.0120,N,11931.7362,W,1,11,0.8,12.4,M,-33.6,M,,*60
$PYRTM,2024,126.670566673877,17.780214084016
$GPGGA,160536.00,3401.0120,N,11931.7361,W,1,11,0.8,12.4,M,-33.6,M,,*60
$PYRTM,2024,126.670582544641,17.780229954780
$GPGGA,160537.00,3401.0122,N,11931.7360,W,1,11,0.8,12.4,M,-33.6,M,,*62
$PYRTM,2024,126.670594130231,17.780241540370
$GPGGA,160538.00,3401.0125,N,11931.7359,W,1,11,0.8,12.3,M,-33.6,M,,*67
$PYRTM,2024,126.670605692731,17.780253102882
$GPGGA,160539.00,3401.0129,N,11931.7357,W,1,11,0.8,12.3,M,-33.6,M,,*64
$PYRTM,2024,126.670617268368,17.780264678507
$GPGGA,160540.00,3401.0130,N,11931.7356,W,1,11,0.8,12.3,M,-33.6,M,,*63
$PYRTM,2024,126.670624546632,17.780271956771
$GPGGA,160541.00,3401.0130,N,11931.7355,W,1,11,0.8,12.3,M,-33.6,M,,*61
$PYRTM,2024,126.670640423947,17.780287834086
$GPGGA,160542.00,3401.0130,N,11931.7355,W,1,11,0.8,12.3,M,-33.6,M,,*62
$PYRTM,2024,126.670651990278,17.780299400417
$GPGGA,160543.00,3401.0132,N,11931.7354,W,1,11,0.8,12.3,M,-33.6,M,,*60
$PYRTM,2024,126.670659268588,17.780306678738
$GPGGA,160544.00,3401.0136,N,11931.7352,W,1,11,0.8,12.3,M,-33.6,M,,*65
$PYRTM,2024,126.670675132593,17.780322542743
$GPGGA,160545.00,3401.0138,N,11931.7350,W,1,11,0.8,12.3,M,-33.6,M,,*68
$PYRTM,2024,126.670682416632,17.780329826771
$GPGGA,160546.00,3401.0139,N,11931.7349,W,1,11,0.8,12.3,M,-33.6,M,,*62
$PYRTM,2024,126.670698287431,17.780345697569
$GPGGA,160547.00,3401.0139,N,11931.7349,W,1,11,0.8,12.3,M,-33.6,M,,*63
$PYRTM,2024,126.670709859792,17.780357269931
$GPGGA,160548.00,3401.0140,N,11931.7349,W,1,11,0.8,12.3,M,-33.6,M,,*62
$PYRTM,2024,126.670721433657,17.780368843796
$GPGGA,160549.00,3401.0143,N,11931.7348,W,1,11,0.8,12.3,M,-33.6,M,,*61
$PYRTM,2024,126.670733018646,17.780380428785
$GPGGA,160550.00,3401.0146,N,11931.7346,W,1,11,0.8,12.3,M,-33.6,M,,*62
$PYRTM,2024,126.670740285718,17.780387695845
$GPGGA,160551.00,3401.0148,N,11931.7345,W,1,11,0.8,12.3,M,-33.6,M,,*6E
$PYRTM,2024,126.670756168356,17.780403578495
$GPGGA,160552.00,3401.0149,N,11931.7345,W,1,11,0.8,12.3,M,-33.6,M,,*6C
$PYRTM,2024,126.670767730278,17.780415140417
$GPGGA,160553.00,3401.0150,N,11931.7344,W,1,11,0.8,12.3,M,-33.6,M,,*64
$PYRTM,2024,126.670779303889,17.780426714028
$GPGGA,160554.00,3401.0151,N,11931.7343,W,1,11,0.8,12.3,M,-33.6,M,,*65
$PYRTM,2024,126.670790878113,17.780438288252
$GPGGA,160555.00,3401.0154,N,11931.7342,W,1,11,0.8,12.3,M,-33.6,M,,*60
$PYRTM,2024,126.670798172303,17.780445582442
$GPGGA,160556.00,3401.0158,N,11931.7341,W,1,11,0.8,12.3,M,-33.6,M,,*6C
$PYRTM,2024,126.670814028009,17.780461438148
$GPGGA,160557.00,3401.0159,N,11931.7340,W,1,11,0.8,12.3,M,-33.6,M,,*6D
$PYRTM,2024,126.670825609282,17.780473019421
$GPGGA,160558.00,3401.0160,N,11931.7339,W,1,11,0.8,12.3,M,-33.6,M,,*66
$PYRTM,2024,126.670837176238,17.780484586377
$GPGGA,160559.00,3401.0160,N,11931.7339,W,1,11,0.8,12.3,M,-33.6,M,,*67
$PYRTM,2024,126.670844456169,17.780491866308
$GPGGA,160600.00,3401.0162,N,11931.7337,W,1,11,0.8,12.3,M,-33.6,M,,*64
$PYRTM,2024,126.670856607616,17.780504017755
$GPGGA,160601.00,3401.0166,N,11931.7336,W,1,11,0.8,12.3,M,-33.6,M,,*60
$PYRTM,2024,126.670871898299,17.780519308449
$GPGGA,160602.00,3401.0169,N,11931.7335,W,1,11,0.8,12.3,M,-33.6,M,,*6F
$PYRTM,2024,126.670883473600,17.780530883750
$GPGGA,160603.00,3401.0168,N,11931.7335,W,1,11,0.8,12.3,M,-33.6,M,,*6F
$PYRTM,2024,126.670895045694,17.780542455833
$GPGGA,160604.00,3401.0168,N,11931.7334,W,1,11,0.8,12.3,M,-33.6,M,,*69
$PYRTM,2024,126.670906615845,17.780554025984
$GPGGA,160605.00,3401.0170,N,11931.7333,W,1,11,0.8,12.3,M,-33.6,M,,*66
$PYRTM,2024,126.670913903796,17.780561313935
$GPGGA,160606.00,3401.0173,N,11931.7331,W,1,11,0.8,12.3,M,-33.6,M,,*64
$PYRTM,2024,126.670929768993,17.780577179132
$GPGGA,160607.00,3401.0177,N,11931.7330,W,1,11,0.8,12.3,M,-33.6,M,,*60
$PYRTM,2024,126.670941342731,17.780588752870
$GPGGA,160608.00,3401.0177,N,11931.7329,W,1,11,0.8,12.3,M,-33.6,M,,*67
$PYRTM,2024,126.670952917836,17.780600327975
$GPGGA,160609.00,3401.0177,N,11931.7329,W,1,11,0.8,12.3,M,-33.6,M,,*66
$PYRTM,2024,126.670964491458,17.780611901609
$GPGGA,160610.00,3401.0178,N,11931.7327,W,1,11,0.8,12.3,M,-33.6,M,,*6F
$PYRTM,2024,126.670976061042,17.780623471181
$GPGGA,160611.00,3401.0182,N,11931.7326,W,1,11,0.8,12.3,M,-33.6,M,,*6A
$PYRTM,2024,126.670987639583,17.780635049722
$GPGGA,160612.00,3401.0184,N,11931.7325,W,1,11,0.8,12.3,M,-33.6,M,,*6C
$PYRTM,2024,126.670999213819,17.780646623970
$GPGGA,160613.00,3401.0185,N,11931.7324,W,1,11,0.8,12.3,M,-33.6,M,,*6D
$PYRTM,2024,126.671010795799,17.780658205937
$GPGGA,160614.00,3401.0185,N,11931.7324,W,1,11,0.8,12.3,M,-33.6,M,,*6A
$PYRTM,2024,126.671018068900,17.780665479039
$GPGGA,160615.00,3401.0188,N,11931.7322,W,1,11,0.8,12.3,M,-33.6,M,,*60
$PYRTM,2024,126.671033961725,17.780681371863
$GPGGA,160616.00,3401.0191,N,11931.7321,W,1,11,0.8,12.3,M,-33.6,M,,*68
$PYRTM,2024,126.671045510938,17.780692921076
$GPGGA,160617.00,3401.0194,N,11931.7320,W,1,11,0.8,12.3,M,-33.6,M,,*6D
$PYRTM,2024,126.671052789583,17.780700199722
$GPGGA,160618.00,3401.0194,N,11931.7320,W,1,11,0.8,12.3,M,-33.6,M,,*62
$PYRTM,2024,126.671068543553,17.780715953692
$GPGGA,160619.00,3401.0195,N,11931.7319,W,1,11,0.8,12.3,M,-33.6,M,,*68
$PYRTM,2024,126.671080232477,17.780727642616
$GPGGA,160620.00,3401.0196,N,11931.7318,W,1,11,0.8,12.3,M,-33.6,M,,*60
$PYRTM,2024,126.671091807894,17.780739218044
$GPGGA,160621.00,3401.0200,N,11931.7316,W,1,11,0.8,12.3,M,-33.6,M,,*63
$PYRTM,2024,126.671103253287,17.780750663426
$GPGGA,160622.00,3401.0203,N,11931.7315,W,1,11,0.8,12.3,M,-33.6,M,,*60
$PYRTM,2024,126.671110660440,17.780758070579
$GPGGA,160623.00,3401.0204,N,11931.7314,W,1,11,0.8,12.3,M,-33.6,M,,*67
$PYRTM,2024,126.671126402928,17.780773813067
$GPGGA,160624.00,3401.0205,N,11931.7315,W,1,11,0.8,12.3,M,-33.6,M,,*60
$PYRTM,2024,126.671138103056,17.780785513194
$GPGGA,160625.00,3401.0206,N,11931.7314,W,1,11,0.8,12.3,M,-33.6,M,,*63
$PYRTM,2024,126.671149548414,17.780796958553
$GPGGA,160626.00,3401.0209,N,11931.7312,W,1,11,0.8,12.3,M,-33.6,M,,*69
$PYRTM,2024,126.671161252384,17.780808662523
$GPGGA,160627.00,3401.0211,N,11931.7311,W,1,11,0.8,12.3,M,-33.6,M,,*62
$PYRTM,2024,126.671168544711,17.780815954850
$GPGGA,160628.00,3401.0212,N,11931.7310,W,1,11,0.8,12.3,M,-33.6,M,,*6F
$PYRTM,2024,126.671184395382,17.780831805521
$GPGGA,160629.00,3401.0212,N,11931.7309,W,1,11,0.8,12.3,M,-33.6,M,,*66
$PYRTM,2024,126.671195982083,17.780843392222
$GPGGA,160630.00,3401.0212,N,11931.7308,W,1,11,0.8,12.3,M,-33.6,M,,*6F
$PYRTM,2024,126.671203255336,17.780850665475
$GPGGA,160631.00,3401.0214,N,11931.7307,W,1,11,0.8,12.3,M,-33.6,M,,*67
$PYRTM,2024,126.671219130498,17.780866540637
$GPGGA,160632.00,3401.0218,N,11931.7305,W,1,11,0.8,12.3,M,-33.6,M,,*6A
$PYRTM,2024,126.671226403495,17.780873813634
$GPGGA,160633.00,3401.0220,N,11931.7304,W,1,11,0.8,12.3,M,-33.6,M,,*61
$PYRTM,2024,126.671242273484,17.780889683623
$GPGGA,160634.00,3401.0220,N,11931.7304,W,1,11,0.8,12.3,M,-33.6,M,,*66
$PYRTM,2024,126.671253846644,17.780901256782
$GPGGA,160635.00,3401.0221,N,11931.7303,W,1,11,0.8,12.3,M,-33.6,M,,*61
$PYRTM,2024,126.671265418461,17.780912828600
$GPGGA,160636.00,3401.0223,N,11931.7302,W,1,11,0.8,12.3,M,-33.6,M,,*61
$PYRTM,2024,126.671276993785,17.780924403924
$GPGGA,160637.00,3401.0227,N,11931.7301,W,1,11,0.8,12.3,M,-33.6,M,,*67
$PYRTM,2024,126.671284272523,17.780931682674
$GPGGA,160638.00,3401.0230,N,11931.7300,W,1,11,0.8,12.3,M,-33.6,M,,*6F
$PYRTM,2024,126.671300148148,17.780947558287
$GPGGA,160639.00,3401.0231,N,11931.7299,W,1,11,0.8,12.3,M,-33.6,M,,*6E
$PYRTM,2024,126.671311588495,17.780958998646
$GPGGA,160640.00,3401.0232,N,11931.7298,W,1,11,0.8,12.3,M,-33.6,M,,*62
$PYRTM,2024,126.671323291007,17.780970701146
$GPGGA,160641.00,3401.0233,N,11931.7297,W,1,11,0.8,12.3,M,-33.6,M,,*6D
$PYRTM,2024,126.671334734606,17.780982144745
$GPGGA,160642.00,3401.0235,N,11931.7296,W,1,11,0.8,12.3,M,-33.6,M,,*69
$PYRTM,2024,126.671342144653,17.780989554792
$GPGGA,160643.00,3401.0238,N,11931.7295,W,1,11,0.8,12.3,M,-33.6,M,,*66
$PYRTM,2024,126.671357884988,17.781005295139
$GPGGA,160644.00,3401.0240,N,11931.7294,W,1,11,0.8,12.3,M,-33.6,M,,*6F
$PYRTM,2024,126.671369471516,17.781016881655
$GPGGA,160645.00,3401.0240,N,11931.7293,W,1,11,0.8,12.3,M,-33.6,M,,*69
$PYRTM,2024,126.671376878634,17.781024288773
$GPGGA,160646.00,3401.0241,N,11931.7292,W,1,11,0.8,12.3,M,-33.6,M,,*6A
$PYRTM,2024,126.671392619653,17.781040029792
$GPGGA,160647.00,3401.0242,N,11931.7291,W,1,11,0.8,12.3,M,-33.6,M,,*6B
$PYRTM,2024,126.671400016181,17.781047426319
$GPGGA,160648.00,3401.0245,N,11931.7290,W,1,11,0.8,12.3,M,-33.6,M,,*62
$PYRTM,2024,126.671415766771,17.781063176910
$GPGGA,160649.00,3401.0247,N,11931.7288,W,1,11,0.8,12.3,M,-33.6,M,,*68
$PYRTM,2024,126.671427468264,17.781074878403
$GPGGA,160650.00,3401.0248,N,11931.7287,W,1,11,0.8,12.3,M,-33.6,M,,*60
$PYRTM,2024,126.671439031273,17.781086441412
$GPGGA,160651.00,3401.0249,N,11931.7286,W,1,11,0.8,12.3,M,-33.6,M,,*61
$PYRTM,2024,126.671450615475,17.781098025613
$GPGGA,160652.00,3401.0250,N,11931.7285,W,1,11,0.8,12.3,M,-33.6,M,,*69
$PYRTM,2024,126.671457884294,17.781105294433
$GPGGA,160653.00,3401.0252,N,11931.7284,W,1,11,0.8,12.2,M,-33.6,M,,*6A
$PYRTM,2024,126.671473752998,17.781121163137
$GPGGA,160654.00,3401.0254,N,11931.7283,W,1,11,0.8,12.2,M,-33.6,M,,*6C
$PYRTM,2024,126.671485327384,17.781132737523
$GPGGA,160655.00,3401.0257,N,11931.7282,W,1,11,0.8,12.2,M,-33.6,M,,*6F
$PYRTM,2024,126.671496913310,17.781144323461
$GPGGA,160656.00,3401.0258,N,11931.7281,W,1,11,0.8,12.2,M,-33.6,M,,*60
$PYRTM,2024,126.671508470706,17.781155880845
$GPGGA,160657.00,3401.0260,N,11931.7280,W,1,11,0.8,12.2,M,-33.6,M,,*6B
$PYRTM,2024,126.671515769769,17.781163179907
$GPGGA,160658.00,3401.0261,N,11931.7280,W,1,11,0.8,12.2,M,-33.6,M,,*65
$PYRTM,2024,126.671531624780,17.781179034919
$GPGGA,160659.00,3401.0263,N,11931.7280,W,1,11,0.8,12.2,M,-33.6,M,,*66
$PYRTM,2024,126.671543210984,17.781190621123
$GPGGA,160700.00,3401.0266,N,11931.7278,W,1,11,0.8,12.2,M,-33.6,M,,*69
$PYRTM,2024,126.671554773322,17.781202183461
$GPGGA,160701.00,3401.0268,N,11931.7276,W,1,11,0.8,12.2,M,-33.6,M,,*68
$PYRTM,2024,126.671562066030,17.781209476169
$GPGGA,160702.00,3401.0270,N,11931.7276,W,1,11,0.8,12.3,M,-33.6,M,,*63
$PYRTM,2024,126.671577921123,17.781225331262
$GPGGA,160703.00,3401.0271,N,11931.7276,W,1,11,0.8,12.3,M,-33.6,M,,*63
$PYRTM,2024,126.671589502998,17.781236913137
$GPGGA,160704.00,3401.0272,N,11931.7275,W,1,11,0.8,12.3,M,-33.6,M,,*64
$PYRTM,2024,126.671600950012,17.781248360162
$GPGGA,160705.00,3401.0274,N,11931.7273,W,1,11,0.8,12.2,M,-33.6,M,,*64
$PYRTM,2024,126.671612514815,17.781259924954
$GPGGA,160706.00,3401.0277,N,11931.7271,W,1,11,0.8,12.2,M,-33.6,M,,*66
$PYRTM,2024,126.671624102824,17.781271512963
$GPGGA,160707.00,3401.0279,N,11931.7270,W,1,11,0.8,12.2,M,-33.6,M,,*68
$PYRTM,2024,126.671631496632,17.781278906771
$GPGGA,160708.00,3401.0280,N,11931.7270,W,1,11,0.8,12.2,M,-33.6,M,,*61
$PYRTM,2024,126.671647254271,17.781294664410
$GPGGA,160709.00,3401.0279,N,11931.7269,W,1,11,0.8,12.2,M,-33.6,M,,*6E
$PYRTM,2024,126.671658812558,17.781306222697
$GPGGA,160710.00,3401.0281,N,11931.7268,W,1,11,0.8,12.2,M,-33.6,M,,*60
$PYRTM,2024,126.671670401817,17.781317811956
$GPGGA,160711.00,3401.0283,N,11931.7266,W,1,11,0.8,12.2,M,-33.6,M,,*6D
$PYRTM,2024,126.671681960289,17.781329370440
$GPGGA,160712.00,3401.0286,N,11931.7265,W,1,11,0.8,12.2,M,-33.6,M,,*68
$PYRTM,2024,126.671689368912,17.781336779051
$GPGGA,160713.00,3401.0287,N,11931.7264,W,1,11,0.8,12.2,M,-33.6,M,,*69
$PYRTM,2024,126.671705109410,17.781352519560
$GPGGA,160714.00,3401.0288,N,11931.7264,W,1,11,0.8,12.2,M,-33.6,M,,*61
$PYRTM,2024,126.671716695197,17.781364105347
$GPGGA,160715.00,3401.0290,N,11931.7263,W,1,11,0.8,12.2,M,-33.6,M,,*6E
$PYRTM,2024,126.671728256389,17.781375666528
$GPGGA,160716.00,3401.0293,N,11931.7262,W,1,11,0.8,12.1,M,-33.6,M,,*6C
$PYRTM,2024,126.671735664144,17.781383074282
$GPGGA,160717.00,3401.0295,N,11931.7261,W,1,11,0.8,12.1,M,-33.6,M,,*68
$PYRTM,2024,126.671754318403,17.781401728542
$GPGGA,160718.00,3401.0297,N,11931.7260,W,1,11,0.8,12.1,M,-33.6,M,,*64
$PYRTM,2024,126.671762993067,17.781410403206
$GPGGA,160719.00,3401.0299,N,11931.7259,W,1,11,0.8,12.1,M,-33.6,M,,*61
$PYRTM,2024,126.671774554259,17.781421964398
$GPGGA,160720.00,3401.0301,N,11931.7258,W,1,11,0.8,12.1,M,-33.6,M,,*6A
$PYRTM,2024,126.671786140231,17.781433550370
$GPGGA,160721.00,3401.0303,N,11931.7257,W,1,11,0.8,12.1,M,-33.6,M,,*66
$PYRTM,2024,126.671797703021,17.781445113160
$GPGGA,160722.00,3401.0303,N,11931.7257,W,1,11,0.8,12.1,M,-33.6,M,,*65
$PYRTM,2024,126.671805110058,17.781452520197
$GPGGA,160723.00,3401.0305,N,11931.7255,W,1,11,0.8,12.1,M,-33.6,M,,*60
$PYRTM,2024,126.671820852940,17.781468263079
$GPGGA,160724.00,3401.0307,N,11931.7255,W,1,11,0.8,12.1,M,-33.6,M,,*65
$PYRTM,2024,126.671832440799,17.781479850938
$GPGGA,160725.00,3401.0309,N,11931.7254,W,1,11,0.8,12.1,M,-33.6,M,,*6B
$PYRTM,2024,126.671844000856,17.781491410995
$GPGGA,160726.00,3401.0311,N,11931.7253,W,1,11,0.8,12.1,M,-33.6,M,,*66
$PYRTM,2024,126.671855585266,17.781502995405
$GPGGA,160727.00,3401.0312,N,11931.7252,W,1,11,0.8,12.1,M,-33.6,M,,*65
$PYRTM,2024,126.671867147164,17.781514557303
$GPGGA,160728.00,3401.0312,N,11931.7251,W,1,11,0.8,12.1,M,-33.6,M,,*69
$PYRTM,2024,126.671878734931,17.781526145069
$GPGGA,160729.00,3401.0314,N,11931.7250,W,1,11,0.8,12.1,M,-33.6,M,,*6F
$PYRTM,2024,126.671890294977,17.781537705116
$GPGGA,160730.00,3401.0317,N,11931.7249,W,1,11,0.8,12.1,M,-33.6,M,,*6C
$PYRTM,2024,126.671901881412,17.781549291562
$GPGGA,160731.00,3401.0320,N,11931.7247,W,1,11,0.8,12.2,M,-33.6,M,,*64
$PYRTM,2024,126.671913442928,17.781560853067
$GPGGA,160732.00,3401.0321,N,11931.7247,W,1,11,0.8,12.1,M,-33.6,M,,*65
$PYRTM,2024,126.671920853368,17.781568263519
$GPGGA,160733.00,3401.0322,N,11931.7246,W,1,11,0.8,12.1,M,-33.6,M,,*66
$PYRTM,2024,126.671932541065,17.781579951204
$GPGGA,160734.00,3401.0323,N,11931.7246,W,1,11,0.8,12.1,M,-33.6,M,,*60
$PYRTM,2024,126.671948178519,17.781595588657
$GPGGA,160735.00,3401.0326,N,11931.7244,W,1,11,0.8,12.1,M,-33.6,M,,*66
$PYRTM,2024,126.671959739722,17.781607149861
$GPGGA,160736.00,3401.0329,N,11931.7243,W,1,11,0.8,12.1,M,-33.6,M,,*6D
$PYRTM,2024,126.671971327153,17.781618737292
$GPGGA,160737.00,3401.0331,N,11931.7243,W,1,11,0.8,12.1,M,-33.6,M,,*65
$PYRTM,2024,126.671982891227,17.781630301366
$GPGGA,160738.00,3401.0330,N,11931.7243,W,1,11,0.8,12.1,M,-33.6,M,,*6B
$PYRTM,2024,126.671994475590,17.781641885729
$GPGGA,160739.00,3401.0331,N,11931.7242,W,1,11,0.8,12.1,M,-33.6,M,,*6A
$PYRTM,2024,126.672006038877,17.781653449016
$GPGGA,160740.00,3401.0333,N,11931.7241,W,1,11,0.8,12.1,M,-33.6,M,,*65
$PYRTM,2024,126.672017625961,17.781665036100
$GPGGA,160741.00,3401.0337,N,11931.7240,W,1,11,0.8,12.1,M,-33.6,M,,*61
$PYRTM,2024,126.672029186516,17.781676596655
$GPGGA,160742.00,3401.0340,N,11931.7239,W,1,11,0.8,12.1,M,-33.6,M,,*6C
$PYRTM,2024,126.672036592604,17.781684002743
$GPGGA,160743.00,3401.0340,N,11931.7238,W,1,11,0.8,12.0,M,-33.6,M,,*6D
$PYRTM,2024,126.672052333854,17.781699743993
$GPGGA,160744.00,3401.0340,N,11931.7238,W,1,11,0.8,12.0,M,-33.6,M,,*6A
$PYRTM,2024,126.672063920428,17.781711330567
$GPGGA,160745.00,3401.0341,N,11931.7238,W,1,11,0.8,12.0,M,-33.6,M,,*6A
$PYRTM,2024,126.672075481424,17.781722891574
$GPGGA,160746.00,3401.0345,N,11931.7237,W,1,11,0.8,12.0,M,-33.6,M,,*62
$PYRTM,2024,126.672087069144,17.781734479294
$GPGGA,160747.00,3401.0349,N,11931.7235,W,1,11,0.8,12.0,M,-33.6,M,,*6D
$PYRTM,2024,126.672094471667,17.781741881806
$GPGGA,160748.00,3401.0351,N,11931.7233,W,1,11,0.8,12.0,M,-33.6,M,,*6D
$PYRTM,2024,126.672110217431,17.781757627581
$GPGGA,160749.00,3401.0350,N,11931.7234,W,1,11,0.8,12.0,M,-33.6,M,,*6A
$PYRTM,2024,126.672121777928,17.781769188067
$GPGGA,160750.00,3401.0350,N,11931.7234,W,1,11,0.8,12.0,M,-33.6,M,,*62
$PYRTM,2024,126.672133366354,17.781780776493
$GPGGA,160751.00,3401.0352,N,11931.7232,W,1,11,0.8,12.0,M,-33.6,M,,*67
$PYRTM,2024,126.672144927465,17.781792337604
$GPGGA,160752.00,3401.0356,N,11931.7230,W,1,11,0.8,12.0,M,-33.6,M,,*62
$PYRTM,2024,126.672156512604,17.781803922743
$GPGGA,160753.00,3401.0359,N,11931.7228,W,1,11,0.8,12.0,M,-33.6,M,,*65
$PYRTM,2024,126.672168074329,17.781815484468
$GPGGA,160754.00,3401.0358,N,11931.7229,W,1,11,0.8,11.9,M,-33.6,M,,*68
$PYRTM,2024,126.672179661574,17.781827071713
$GPGGA,160755.00,3401.0357,N,11931.7229,W,1,11,0.8,12.0,M,-33.6,M,,*6C
$PYRTM,2024,126.672191223472,17.781838633611
$GPGGA,160756.00,3401.0358,N,11931.7228,W,1,11,0.8,11.9,M,-33.6,M,,*6B
$PYRTM,2024,126.672202825324,17.781850235463
$GPGGA,160757.00,3401.0361,N,11931.7226,W,1,11,0.8,11.9,M,-33.6,M,,*6E
$PYRTM,2024,126.672210207083,17.781857617234
$GPGGA,160758.00,3401.0366,N,11931.7225,W,1,11,0.8,11.9,M,-33.6,M,,*65
$PYRTM,2024,126.672225972373,17.781873382512
$GPGGA,160759.00,3401.0368,N,11931.7225,W,1,11,0.8,11.9,M,-33.6,M,,*6A
$PYRTM,2024,126.672237518877,17.781884929016
$GPGGA,160800.00,3401.0367,N,11931.7225,W,1,11,0.8,11.8,M,-33.6,M,,*67
$PYRTM,2024,126.672249107431,17.781896517569
$GPGGA,160801.00,3401.0367,N,11931.7225,W,1,11,0.8,11.8,M,-33.6,M,,*66
$PYRTM,2024,126.672260667164,17.781908077303
$GPGGA,160802.00,3401.0370,N,11931.7224,W,1,11,0.8,11.8,M,-33.6,M,,*62
$PYRTM,2024,126.672268074120,17.781915484271
$GPGGA,160803.00,3401.0374,N,11931.7222,W,1,11,0.8,11.8,M,-33.6,M,,*61
$PYRTM,2024,126.672283817593,17.781931227731
$GPGGA,160804.00,3401.0377,N,11931.7221,W,1,11,0.8,11.8,M,-33.6,M,,*66
$PYRTM,2024,126.672291223090,17.781938633229
$GPGGA,160805.00,3401.0376,N,11931.7221,W,1,11,0.8,11.8,M,-33.6,M,,*66
$PYRTM,2024,126.672306963970,17.781954374109
$GPGGA,160806.00,3401.0375,N,11931.7222,W,1,11,0.8,11.8,M,-33.6,M,,*65
$PYRTM,2024,126.672318552662,17.781965962801
$GPGGA,160807.00,3401.0377,N,11931.7220,W,1,11,0.8,11.8,M,-33.6,M,,*64
$PYRTM,2024,126.672325947234,17.781973357373
$GPGGA,160808.00,3401.0381,N,11931.7218,W,1,11,0.8,11.8,M,-33.6,M,,*69
$PYRTM,2024,126.672341699583,17.781989109722
$GPGGA,160809.00,3401.0385,N,11931.7216,W,1,11,0.8,11.8,M,-33.6,M,,*62
$PYRTM,2024,126.672353260694,17.782000670833
$GPGGA,160810.00,3401.0385,N,11931.7216,W,1,11,0.8,11.8,M,-33.6,M,,*6A
$PYRTM,2024,126.672364847847,17.782012257986
$GPGGA,160811.00,3401.0384,N,11931.7216,W,1,11,0.8,11.7,M,-33.6,M,,*65
$PYRTM,2024,126.672376411840,17.782023821991
$GPGGA,160812.00,3401.0385,N,11931.7216,W,1,11,0.8,11.7,M,-33.6,M,,*67
$PYRTM,2024,126.672383816574,17.782031226713
$GPGGA,160813.00,3401.0388,N,11931.7214,W,1,11,0.8,11.7,M,-33.6,M,,*69
$PYRTM,2024,126.672399556505,17.782046966644
$GPGGA,160814.00,3401.0393,N,11931.7211,W,1,11,0.8,11.7,M,-33.6,M,,*61
$PYRTM,2024,126.672411148333,17.782058558472
$GPGGA,160815.00,3401.0394,N,11931.7211,W,1,11,0.8,11.7,M,-33.6,M,,*67
$PYRTM,2024,126.672422705370,17.782070115509
$GPGGA,160816.00,3401.0394,N,11931.7211,W,1,11,0.8,11.7,M,-33.6,M,,*64
$PYRTM,2024,126.672434287650,17.782081697801
$GPGGA,160817.00,3401.0394,N,11931.7211,W,1,11,0.8,11.7,M,-33.6,M,,*65
$PYRTM,2024,126.672445853935,17.782093264074
$GPGGA,160818.00,3401.0396,N,11931.7210,W,1,11,0.8,11.7,M,-33.6,M,,*69
$PYRTM,2024,126.672453261782,17.782100671921
$GPGGA,160819.00,3401.0400,N,11931.7208,W,1,11,0.8,11.7,M,-33.6,M,,*69
$PYRTM,2024,126.672469001910,17.782116412060
$GPGGA,160820.00,3401.0404,N,11931.7206,W,1,11,0.8,11.7,M,-33.6,M,,*69
$PYRTM,2024,126.672480589676,17.782127999826
$GPGGA,160821.00,3401.0405,N,11931.7206,W,1,11,0.8,11.7,M,-33.6,M,,*69
$PYRTM,2024,126.672492150289,17.782139560428
$GPGGA,160822.00,3401.0404,N,11931.7207,W,1,11,0.8,11.7,M,-33.6,M,,*6A
$PYRTM,2024,126.672499558137,17.782146968275
$GPGGA,160823.00,3401.0405,N,11931.7205,W,1,11,0.8,11.7,M,-33.6,M,,*68
$PYRTM,2024,126.672515300208,17.782162710347
$GPGGA,160824.00,3401.0408,N,11931.7204,W,1,11,0.8,11.7,M,-33.6,M,,*63
$PYRTM,2024,126.672526890336,17.782174300475
$GPGGA,160825.00,3401.0411,N,11931.7203,W,1,11,0.8,11.7,M,-33.6,M,,*6D
$PYRTM,2024,126.672538446447,17.782185856586
$GPGGA,160826.00,3401.0412,N,11931.7202,W,1,11,0.8,11.6,M,-33.6,M,,*6D
$PYRTM,2024,126.672550034051,17.782197444190
$GPGGA,160827.00,3401.0412,N,11931.7202,W,1,11,0.8,11.6,M,-33.6,M,,*6C
$PYRTM,2024,126.672557429745,17.782204839884
$GPGGA,160828.00,3401.0413,N,11931.7201,W,1,11,0.8,11.6,M,-33.6,M,,*61
$PYRTM,2024,126.672573185567,17.782220595706
$GPGGA,160829.00,3401.0416,N,11931.7200,W,1,11,0.8,11.6,M,-33.6,M,,*64
$PYRTM,2024,126.672584744931,17.782232155069
$GPGGA,160830.00,3401.0419,N,11931.7199,W,1,11,0.8,11.6,M,-33.6,M,,*60
$PYRTM,2024,126.672596334306,17.782243744456
$GPGGA,160831.00,3401.0421,N,11931.7199,W,1,11,0.8,11.6,M,-33.6,M,,*6A
$PYRTM,2024,126.672607891551,17.782255301690
$GPGGA,160832.00,3401.0422,N,11931.7198,W,1,11,0.8,11.6,M,-33.6,M,,*6B
$PYRTM,2024,126.672615305822,17.782262715961
$GPGGA,160833.00,3401.0422,N,11931.7198,W,1,11,0.8,11.6,M,-33.6,M,,*6A
$PYRTM,2024,126.672631042234,17.782278452373
$GPGGA,160834.00,3401.0425,N,11931.7197,W,1,11,0.8,11.6,M,-33.6,M,,*65
$PYRTM,2024,126.672642628438,17.782290038588
$GPGGA,160835.00,3401.0428,N,11931.7195,W,1,11,0.8,11.6,M,-33.6,M,,*6B
