$PYRTM,2024,127.916681971991,19.026329382130
$GPGGA,220000.00,3319.6826,N,11833.9076,W,1,10,0.8,10.6,M,-34.4,M,,*6C
$PYRTM,2024,127.916693572778,19.026340982917
$GPGGA,220001.00,3319.6811,N,11833.9057,W,1,10,0.8,10.4,M,-34.4,M,,*68
$PYRTM,2024,127.916705119884,19.026352530023
$GPGGA,220002.00,3319.6794,N,11833.9039,W,1,10,0.8,10.3,M,-34.4,M,,*66
$PYRTM,2024,127.916716709514,19.026364119653
$GPGGA,220003.00,3319.6779,N,11833.9019,W,1,10,0.8,10.4,M,-34.4,M,,*61
$PYRTM,2024,127.916728267870,19.026375678009
$GPGGA,220004.00,3319.6764,N,11833.8997,W,1,10,0.8,10.5,M,-34.4,M,,*65
$PYRTM,2024,127.916739850012,19.026387260150
$GPGGA,220005.00,3319.6750,N,11833.8975,W,1,10,0.8,10.9,M,-34.4,M,,*63
$PYRTM,2024,127.916751415694,19.026398825833
$GPGGA,220006.00,3319.6735,N,11833.8953,W,1,10,0.8,11.2,M,-34.4,M,,*6D
$PYRTM,2024,127.916763004525,19.026410414664
$GPGGA,220007.00,3319.6719,N,11833.8932,W,1,10,0.8,11.2,M,-34.4,M,,*65
$PYRTM,2024,127.916774564560,19.026421974699
$GPGGA,220008.00,3319.6704,N,11833.8911,W,1,10,0.8,10.9,M,-34.4,M,,*6D
$PYRTM,2024,127.916786152928,19.026433563067
$GPGGA,220009.00,3319.6691,N,11833.8889,W,1,10,0.8,10.5,M,-34.4,M,,*6D
$PYRTM,2024,127.916797712488,19.026445122627
$GPGGA,220010.00,3319.6678,N,11833.8868,W,1,10,0.8,10.2,M,-34.4,M,,*6A
$PYRTM,2024,127.916809300394,19.026456710532
$GPGGA,220011.00,3319.6664,N,11833.8848,W,1,10,0.8,10.3,M,-34.4,M,,*65
$PYRTM,2024,127.916816696308,19.026464106447
$GPGGA,220012.00,3319.6649,N,11833.8829,W,1,10,0.8,10.5,M,-34.4,M,,*68
$PYRTM,2024,127.916832448565,19.026479858704
$GPGGA,220013.00,3319.6633,N,11833.8809,W,1,10,0.8,10.6,M,-34.4,M,,*65
$PYRTM,2024,127.916844009375,19.026491419514
$GPGGA,220014.00,3319.6618,N,11833.8788,W,1,10,0.8,10.8,M,-34.4,M,,*63
$PYRTM,2024,127.916855596308,19.026503006447
$GPGGA,220015.00,3319.6605,N,11833.8766,W,1,10,0.8,11.1,M,-34.4,M,,*66
$PYRTM,2024,127.916867156053,19.026514566192
$GPGGA,220016.00,3319.6591,N,11833.8743,W,1,10,0.8,11.2,M,-34.4,M,,*6F
$PYRTM,2024,127.916878759792,19.026526169931
$GPGGA,220017.00,3319.6576,N,11833.8722,W,1,10,0.8,11.2,M,-34.4,M,,*60
$PYRTM,2024,127.916886140428,19.026533550567
$GPGGA,220018.00,3319.6560,N,11833.8703,W,1,10,0.8,11.2,M,-34.4,M,,*6B
$PYRTM,2024,127.916904789259,19.026552199398
$GPGGA,220019.00,3319.6545,N,11833.8683,W,1,10,0.8,11.2,M,-34.4,M,,*64
$PYRTM,2024,127.916913454769,19.026560864907
$GPGGA,220020.00,3319.6531,N,11833.8662,W,1,10,0.8,11.1,M,-34.4,M,,*61
$PYRTM,2024,127.916925042442,19.026572452581
$GPGGA,220021.00,3319.6517,N,11833.8641,W,1,10,0.8,10.9,M,-34.4,M,,*6C
$PYRTM,2024,127.916932452211,19.026579862350
$GPGGA,220022.00,3319.6503,N,11833.8621,W,1,10,0.8,10.7,M,-34.4,M,,*62
$PYRTM,2024,127.916948192697,19.026595602836
$GPGGA,220023.00,3319.6487,N,11833.8601,W,1,10,0.8,10.7,M,-34.4,M,,*6C
$PYRTM,2024,127.916959750417,19.026607160556
$GPGGA,220024.00,3319.6472,N,11833.8582,W,1,10,0.8,10.9,M,-34.4,M,,*67
$PYRTM,2024,127.916971341481,19.026618751620
$GPGGA,220025.00,3319.6457,N,11833.8561,W,1,10,0.8,10.9,M,-34.4,M,,*6C
$PYRTM,2024,127.916982898715,19.026630308854
$GPGGA,220026.00,3319.6442,N,11833.8541,W,1,10,0.8,10.9,M,-34.4,M,,*69
$PYRTM,2024,127.916994486748,19.026641896898
$GPGGA,220027.00,3319.6427,N,11833.8521,W,1,10,0.8,11.0,M,-34.4,M,,*65
$PYRTM,2024,127.917006047812,19.026653457951
$GPGGA,220028.00,3319.6412,N,11833.8499,W,1,10,0.8,11.0,M,-34.4,M,,*6E
$PYRTM,2024,127.917017638993,19.026665049144
$GPGGA,220029.00,3319.6397,N,11833.8478,W,1,10,0.8,11.0,M,-34.4,M,,*6A
$PYRTM,2024,127.917029196192,19.026676606331
$GPGGA,220030.00,3319.6382,N,11833.8457,W,1,10,0.8,11.1,M,-34.4,M,,*6A
$PYRTM,2024,127.917040785579,19.026688195729
$GPGGA,220031.00,3319.6366,N,11833.8437,W,1,10,0.8,11.2,M,-34.4,M,,*64
$PYRTM,2024,127.917052344340,19.026699754479
$GPGGA,220032.00,3319.6351,N,11833.8415,W,1,10,0.8,11.3,M,-34.4,M,,*62
$PYRTM,2024,127.917063932975,19.026711343113
$GPGGA,220033.00,3319.6337,N,11833.8394,W,1,10,0.8,11.3,M,-34.4,M,,*6D
$PYRTM,2024,127.917075493067,19.026722903206
$GPGGA,220034.00,3319.6321,N,11833.8372,W,1,10,0.8,11.2,M,-34.4,M,,*64
$PYRTM,2024,127.917087074282,19.026734484421
$GPGGA,220035.00,3319.6307,N,11833.8352,W,1,10,0.8,11.1,M,-34.4,M,,*60
$PYRTM,2024,127.917098639931,19.026746050069
$GPGGA,220036.00,3319.6292,N,11833.8332,W,1,10,0.8,11.1,M,-34.4,M,,*68
$PYRTM,2024,127.917110229282,19.026757639421
$GPGGA,220037.00,3319.6277,N,11833.8312,W,1,10,0.8,10.9,M,-34.4,M,,*69
$PYRTM,2024,127.917121789456,19.026769199595
$GPGGA,220038.00,3319.6262,N,11833.8292,W,1,10,0.8,10.8,M,-34.4,M,,*6A
$PYRTM,2024,127.917133371238,19.026780781377
$GPGGA,220039.00,3319.6247,N,11833.8272,W,1,10,0.8,10.8,M,-34.4,M,,*62
$PYRTM,2024,127.917144937546,19.026792347685
$GPGGA,220040.00,3319.6232,N,11833.8251,W,1,10,0.8,10.7,M,-34.4,M,,*60
$PYRTM,2024,127.917152345312,19.026799755463
$GPGGA,220041.00,3319.6217,N,11833.8231,W,1,10,0.8,10.8,M,-34.4,M,,*6F
$PYRTM,2024,127.917168085289,19.026815495428
$GPGGA,220042.00,3319.6202,N,11833.8210,W,1,10,0.8,11.0,M,-34.4,M,,*62
$PYRTM,2024,127.917179668507,19.026827078646
$GPGGA,220043.00,3319.6186,N,11833.8189,W,1,10,0.8,11.2,M,-34.4,M,,*6D
$PYRTM,2024,127.917191234306,19.026838644444
$GPGGA,220044.00,3319.6170,N,11833.8168,W,1,10,0.8,11.3,M,-34.4,M,,*6D
$PYRTM,2024,127.917202824745,19.026850234884
$GPGGA,220045.00,3319.6155,N,11833.8146,W,1,10,0.8,11.4,M,-34.4,M,,*60
$PYRTM,2024,127.917214382350,19.026861792488
$GPGGA,220046.00,3319.6140,N,11833.8124,W,1,10,0.8,11.5,M,-34.4,M,,*62
$PYRTM,2024,127.917225970938,19.026873381076
$GPGGA,220047.00,3319.6125,N,11833.8103,W,1,10,0.8,11.5,M,-34.4,M,,*65
$PYRTM,2024,127.917237531366,19.026884941516
$GPGGA,220048.00,3319.6110,N,11833.8081,W,1,10,0.8,11.2,M,-34.4,M,,*60
$PYRTM,2024,127.917244937662,19.026892347801
$GPGGA,220049.00,3319.6095,N,11833.8060,W,1,10,0.8,10.9,M,-34.4,M,,*68
$PYRTM,2024,127.917263572326,19.026910982465
$GPGGA,220050.00,3319.6080,N,11833.8040,W,1,10,0.8,10.9,M,-34.4,M,,*66
$PYRTM,2024,127.917272266123,19.026919676273
$GPGGA,220051.00,3319.6064,N,11833.8021,W,1,10,0.8,11.0,M,-34.4,M,,*62
$PYRTM,2024,127.917283828287,19.026931238426
$GPGGA,220052.00,3319.6049,N,11833.8001,W,1,10,0.8,10.9,M,-34.4,M,,*64
$PYRTM,2024,127.917295415231,19.026942825370
$GPGGA,220053.00,3319.6035,N,11833.7979,W,1,10,0.8,10.7,M,-34.4,M,,*69
$PYRTM,2024,127.917306976030,19.026954386169
$GPGGA,220054.00,3319.6020,N,11833.7958,W,1,10,0.8,10.7,M,-34.4,M,,*69
$PYRTM,2024,127.917318565359,19.026965975509
$GPGGA,220055.00,3319.6006,N,11833.7937,W,1,10,0.8,10.8,M,-34.4,M,,*6A
$PYRTM,2024,127.917330124815,19.026977534954
$GPGGA,220056.00,3319.5990,N,11833.7917,W,1,10,0.8,11.1,M,-34.4,M,,*66
$PYRTM,2024,127.917341710833,19.026989120972
$GPGGA,220057.00,3319.5973,N,11833.7897,W,1,10,0.8,11.3,M,-34.4,M,,*61
$PYRTM,2024,127.917353271563,19.027000681701
$GPGGA,220058.00,3319.5957,N,11833.7877,W,1,10,0.8,11.3,M,-34.4,M,,*66
$PYRTM,2024,127.917364859433,19.027012269572
$GPGGA,220059.00,3319.5942,N,11833.7855,W,1,10,0.8,11.2,M,-34.4,M,,*62
$PYRTM,2024,127.917376421030,19.027023831169
$GPGGA,220100.00,3319.5928,N,11833.7832,W,1,10,0.8,11.1,M,-34.4,M,,*61
$PYRTM,2024,127.917383828576,19.027031238715
$GPGGA,220101.00,3319.5914,N,11833.7810,W,1,10,0.8,11.0,M,-34.4,M,,*6E
$PYRTM,2024,127.917399570278,19.027046980417
$GPGGA,220102.00,3319.5898,N,11833.7790,W,1,10,0.8,11.0,M,-34.4,M,,*6F
$PYRTM,2024,127.917411157072,19.027058567222
$GPGGA,220103.00,3319.5882,N,11833.7771,W,1,10,0.8,11.1,M,-34.4,M,,*6B
$PYRTM,2024,127.917418551181,19.027065961319
$GPGGA,220104.00,3319.5865,N,11833.7751,W,1,10,0.8,11.1,M,-34.4,M,,*67
$PYRTM,2024,127.917434318368,19.027081728507
$GPGGA,220105.00,3319.5850,N,11833.7730,W,1,10,0.8,11.1,M,-34.4,M,,*67
$PYRTM,2024,127.917445865463,19.027093275602
$GPGGA,220106.00,3319.5836,N,11833.7708,W,1,10,0.8,11.1,M,-34.4,M,,*6F
$PYRTM,2024,127.917457456227,19.027104866366
$GPGGA,220107.00,3319.5822,N,11833.7686,W,1,10,0.8,11.1,M,-34.4,M,,*6C
$PYRTM,2024,127.917469014329,19.027116424468
$GPGGA,220108.00,3319.5806,N,11833.7665,W,1,10,0.8,11.1,M,-34.4,M,,*68
$PYRTM,2024,127.917476422106,19.027123832257
$GPGGA,220109.00,3319.5790,N,11833.7645,W,1,10,0.8,10.9,M,-34.4,M,,*62
$PYRTM,2024,127.917492164097,19.027139574236
$GPGGA,220110.00,3319.5776,N,11833.7625,W,1,10,0.8,10.9,M,-34.4,M,,*64
$PYRTM,2024,127.917503749155,19.027151159294
$GPGGA,220111.00,3319.5762,N,11833.7604,W,1,10,0.8,10.9,M,-34.4,M,,*63
$PYRTM,2024,127.917515310000,19.027162720139
$GPGGA,220112.00,3319.5747,N,11833.7582,W,1,10,0.8,10.7,M,-34.4,M,,*64
$PYRTM,2024,127.917526899687,19.027174309826
$GPGGA,220113.00,3319.5731,N,11833.7561,W,1,10,0.8,10.5,M,-34.4,M,,*6B
$PYRTM,2024,127.917534292049,19.027181702187
$GPGGA,220114.00,3319.5715,N,11833.7541,W,1,10,0.8,10.6,M,-34.4,M,,*6B
$PYRTM,2024,127.917550040694,19.027197450833
$GPGGA,220115.00,3319.5701,N,11833.7520,W,1,10,0.8,11.0,M,-34.4,M,,*6F
$PYRTM,2024,127.917561606285,19.027209016424
$GPGGA,220116.00,3319.5685,N,11833.7499,W,1,10,0.8,11.3,M,-34.4,M,,*61
$PYRTM,2024,127.917573197986,19.027220608125
$GPGGA,220117.00,3319.5670,N,11833.7477,W,1,10,0.8,11.3,M,-34.4,M,,*6A
$PYRTM,2024,127.917584755903,19.027232166042
$GPGGA,220118.00,3319.5655,N,11833.7455,W,1,10,0.8,11.2,M,-34.4,M,,*63
$PYRTM,2024,127.917592162685,19.027239572824
$GPGGA,220119.00,3319.5640,N,11833.7433,W,1,10,0.8,11.1,M,-34.4,M,,*65
$PYRTM,2024,127.917603854954,19.027251265093
$GPGGA,220120.00,3319.5626,N,11833.7412,W,1,10,0.8,11.0,M,-34.4,M,,*6D
$PYRTM,2024,127.917622388079,19.027269798218
$GPGGA,220121.00,3319.5611,N,11833.7390,W,1,10,0.8,10.9,M,-34.4,M,,*6D
$PYRTM,2024,127.917631053056,19.027278463206
$GPGGA,220122.00,3319.5595,N,11833.7370,W,1,10,0.8,10.7,M,-34.4,M,,*61
$PYRTM,2024,127.917642640475,19.027290050613
$GPGGA,220123.00,3319.5580,N,11833.7350,W,1,10,0.8,10.7,M,-34.4,M,,*66
$PYRTM,2024,127.917650048796,19.027297458947
$GPGGA,220124.00,3319.5564,N,11833.7330,W,1,10,0.8,10.9,M,-34.4,M,,*63
$PYRTM,2024,127.917665787106,19.027313197245
$GPGGA,220125.00,3319.5549,N,11833.7309,W,1,10,0.8,10.9,M,-34.4,M,,*67
$PYRTM,2024,127.917677349132,19.027324759271
$GPGGA,220126.00,3319.5534,N,11833.7288,W,1,10,0.8,10.8,M,-34.4,M,,*67
$PYRTM,2024,127.917684756134,19.027332166273
$GPGGA,220127.00,3319.5520,N,11833.7267,W,1,10,0.8,10.8,M,-34.4,M,,*62
$PYRTM,2024,127.917700497419,19.027347907558
$GPGGA,220128.00,3319.5506,N,11833.7245,W,1,10,0.8,10.6,M,-34.4,M,,*67
$PYRTM,2024,127.917712084016,19.027359494155
$GPGGA,220129.00,3319.5491,N,11833.7224,W,1,10,0.8,10.5,M,-34.4,M,,*6D
$PYRTM,2024,127.917723646470,19.027371056609
$GPGGA,220130.00,3319.5476,N,11833.7203,W,1,10,0.8,10.6,M,-34.4,M,,*6A
$PYRTM,2024,127.917735227928,19.027382638067
$GPGGA,220131.00,3319.5461,N,11833.7182,W,1,10,0.8,10.9,M,-34.4,M,,*68
$PYRTM,2024,127.917746794769,19.027394204907
$GPGGA,220132.00,3319.5445,N,11833.7160,W,1,10,0.8,11.2,M,-34.4,M,,*6B
$PYRTM,2024,127.917758383773,19.027405793912
$GPGGA,220133.00,3319.5428,N,11833.7138,W,1,10,0.8,11.4,M,-34.4,M,,*6A
$PYRTM,2024,127.917769942558,19.027417352697
$GPGGA,220134.00,3319.5413,N,11833.7116,W,1,10,0.8,11.6,M,-34.4,M,,*6B
$PYRTM,2024,127.917781534062,19.027428944201
$GPGGA,220135.00,3319.5399,N,11833.7094,W,1,10,0.8,11.5,M,-34.4,M,,*67
$PYRTM,2024,127.917793089769,19.027440499919
$GPGGA,220136.00,3319.5385,N,11833.7071,W,1,10,0.8,11.3,M,-34.4,M,,*64
$PYRTM,2024,127.917800497002,19.027447907141
$GPGGA,220137.00,3319.5370,N,11833.7050,W,1,10,0.8,10.8,M,-34.4,M,,*66
$PYRTM,2024,127.917816239815,19.027463649954
$GPGGA,220138.00,3319.5355,N,11833.7030,W,1,10,0.8,10.5,M,-34.4,M,,*65
$PYRTM,2024,127.917827825671,19.027475235810
$GPGGA,220139.00,3319.5340,N,11833.7011,W,1,10,0.8,10.3,M,-34.4,M,,*65
$PYRTM,2024,127.917839386435,19.027486796574
$GPGGA,220140.00,3319.5325,N,11833.6991,W,1,10,0.8,10.4,M,-34.4,M,,*6F
$PYRTM,2024,127.917850973345,19.027498383484
$GPGGA,220141.00,3319.5311,N,11833.6970,W,1,10,0.8,10.6,M,-34.4,M,,*64
$PYRTM,2024,127.917858369792,19.027505779942
$GPGGA,220142.00,3319.5295,N,11833.6949,W,1,10,0.8,10.8,M,-34.4,M,,*6E
$PYRTM,2024,127.917874124097,19.027521534236
$GPGGA,220143.00,3319.5279,N,11833.6928,W,1,10,0.8,11.1,M,-34.4,M,,*62
$PYRTM,2024,127.917885684144,19.027533094282
$GPGGA,220144.00,3319.5264,N,11833.6906,W,1,10,0.8,11.3,M,-34.4,M,,*67
$PYRTM,2024,127.917897271366,19.027544681505
$GPGGA,220145.00,3319.5249,N,11833.6884,W,1,10,0.8,11.4,M,-34.4,M,,*65
$PYRTM,2024,127.917908844086,19.027556254225
$GPGGA,220146.00,3319.5234,N,11833.6862,W,1,10,0.8,11.4,M,-34.4,M,,*64
$PYRTM,2024,127.917916239861,19.027563650012
$GPGGA,220147.00,3319.5220,N,11833.6840,W,1,10,0.8,11.2,M,-34.4,M,,*66
$PYRTM,2024,127.917931993877,19.027579404028
$GPGGA,220148.00,3319.5206,N,11833.6819,W,1,10,0.8,10.9,M,-34.4,M,,*6B
$PYRTM,2024,127.917943570336,19.027590980475
$GPGGA,220149.00,3319.5191,N,11833.6798,W,1,10,0.8,10.7,M,-34.4,M,,*6F
$PYRTM,2024,127.917955140718,19.027602550856
$GPGGA,220150.00,3319.5175,N,11833.6778,W,1,10,0.8,10.6,M,-34.4,M,,*62
$PYRTM,2024,127.917962536539,19.027609946678
$GPGGA,220151.00,3319.5161,N,11833.6757,W,1,10,0.8,10.6,M,-34.4,M,,*6B
$PYRTM,2024,127.917981169583,19.027628579722
$GPGGA,220152.00,3319.5146,N,11833.6736,W,1,10,0.8,10.7,M,-34.4,M,,*6B
$PYRTM,2024,127.917989863854,19.027637273993
$GPGGA,220153.00,3319.5131,N,11833.6715,W,1,10,0.8,11.0,M,-34.4,M,,*6D
$PYRTM,2024,127.918001437558,19.027648847697
$GPGGA,220154.00,3319.5115,N,11833.6694,W,1,10,0.8,11.1,M,-34.4,M,,*65
$PYRTM,2024,127.918013011065,19.027660421204
$GPGGA,220155.00,3319.5099,N,11833.6674,W,1,10,0.8,11.2,M,-34.4,M,,*6C
$PYRTM,2024,127.918024585556,19.027671995694
$GPGGA,220156.00,3319.5085,N,11833.6653,W,1,10,0.8,11.2,M,-34.4,M,,*67
$PYRTM,2024,127.918036160081,19.027683570220
$GPGGA,220157.00,3319.5070,N,11833.6632,W,1,10,0.8,11.2,M,-34.4,M,,*6B
$PYRTM,2024,127.918047736366,19.027695146505
$GPGGA,220158.00,3319.5056,N,11833.6610,W,1,10,0.8,11.0,M,-34.4,M,,*62
$PYRTM,2024,127.918055129583,19.027702539722
$GPGGA,220159.00,3319.5041,N,11833.6590,W,1,10,0.8,10.9,M,-34.4,M,,*66
$PYRTM,2024,127.918070882535,19.027718292674
$GPGGA,220200.00,3319.5026,N,11833.6570,W,1,10,0.8,10.8,M,-34.4,M,,*67
$PYRTM,2024,127.918082459803,19.027729869942
$GPGGA,220201.00,3319.5011,N,11833.6549,W,1,10,0.8,10.9,M,-34.4,M,,*69
$PYRTM,2024,127.918094031840,19.027741441991
$GPGGA,220202.00,3319.4995,N,11833.6528,W,1,10,0.8,11.0,M,-34.4,M,,*61
$PYRTM,2024,127.918105621551,19.027753031690
$GPGGA,220203.00,3319.4980,N,11833.6506,W,1,10,0.8,10.9,M,-34.4,M,,*60
$PYRTM,2024,127.918117181100,19.027764591250
$GPGGA,220204.00,3319.4966,N,11833.6485,W,1,10,0.8,10.8,M,-34.4,M,,*64
$PYRTM,2024,127.918128754201,19.027776164340
$GPGGA,220205.00,3319.4951,N,11833.6464,W,1,10,0.8,10.7,M,-34.4,M,,*61
$PYRTM,2024,127.918140328090,19.027787738229
$GPGGA,220206.00,3319.4935,N,11833.6444,W,1,10,0.8,10.6,M,-34.4,M,,*63
$PYRTM,2024,127.918151903542,19.027799313681
$GPGGA,220207.00,3319.4920,N,11833.6424,W,1,10,0.8,10.4,M,-34.4,M,,*62
$PYRTM,2024,127.918163477431,19.027810887581
$GPGGA,220208.00,3319.4907,N,11833.6402,W,1,10,0.8,10.2,M,-34.4,M,,*6A
$PYRTM,2024,127.918175051088,19.027822461227
$GPGGA,220209.00,3319.4892,N,11833.6381,W,1,10,0.8,10.2,M,-34.4,M,,*6A
$PYRTM,2024,127.918186620625,19.027834030764
$GPGGA,220210.00,3319.4876,N,11833.6361,W,1,10,0.8,10.3,M,-34.4,M,,*67
$PYRTM,2024,127.918198199421,19.027845609560
$GPGGA,220211.00,3319.4860,N,11833.6342,W,1,10,0.8,10.3,M,-34.4,M,,*60
$PYRTM,2024,127.918209772847,19.027857182986
$GPGGA,220212.00,3319.4844,N,11833.6323,W,1,10,0.8,10.4,M,-34.4,M,,*65
$PYRTM,2024,127.918221348171,19.027868758310
$GPGGA,220213.00,3319.4829,N,11833.6301,W,1,10,0.8,10.4,M,-34.4,M,,*6F
$PYRTM,2024,127.918228742257,19.027876152396
$GPGGA,220214.00,3319.4816,N,11833.6278,W,1,10,0.8,10.4,M,-34.4,M,,*6B
$PYRTM,2024,127.918244498727,19.027891908877
$GPGGA,220215.00,3319.4802,N,11833.6256,W,1,10,0.8,10.4,M,-34.4,M,,*63
$PYRTM,2024,127.918256067928,19.027903478067
$GPGGA,220216.00,3319.4787,N,11833.6235,W,1,10,0.8,10.5,M,-34.4,M,,*66
$PYRTM,2024,127.918263465532,19.027910875671
$GPGGA,220217.00,3319.4770,N,11833.6216,W,1,10,0.8,10.7,M,-34.4,M,,*6C
$PYRTM,2024,127.918279212627,19.027926622778
$GPGGA,220218.00,3319.4755,N,11833.6196,W,1,10,0.8,10.6,M,-34.4,M,,*6E
$PYRTM,2024,127.918290806204,19.027938216343
$GPGGA,220219.00,3319.4740,N,11833.6174,W,1,10,0.8,10.4,M,-34.4,M,,*65
$PYRTM,2024,127.918302366019,19.027949776157
$GPGGA,220220.00,3319.4726,N,11833.6151,W,1,10,0.8,10.2,M,-34.4,M,,*6E
$PYRTM,2024,127.918313940255,19.027961350394
$GPGGA,220221.00,3319.4712,N,11833.6129,W,1,10,0.8,10.0,M,-34.4,M,,*65
$PYRTM,2024,127.918321347373,19.027968757512
$GPGGA,220222.00,3319.4697,N,11833.6108,W,1,10,0.8,10.0,M,-34.4,M,,*69
$PYRTM,2024,127.918339982014,19.027987392153
$GPGGA,220223.00,3319.4680,N,11833.6089,W,1,10,0.8,10.0,M,-34.4,M,,*66
$PYRTM,2024,127.918348662639,19.027996072778
$GPGGA,220224.00,3319.4664,N,11833.6068,W,1,10,0.8,10.0,M,-34.4,M,,*64
$PYRTM,2024,127.918356056771,19.028003466910
$GPGGA,220225.00,3319.4650,N,11833.6048,W,1,10,0.8,10.1,M,-34.4,M,,*61
$PYRTM,2024,127.918371811424,19.028019221562
$GPGGA,220226.00,3319.4636,N,11833.6027,W,1,10,0.8,10.2,M,-34.4,M,,*68
$PYRTM,2024,127.918383385069,19.028030795208
$GPGGA,220227.00,3319.4622,N,11833.6006,W,1,10,0.8,10.2,M,-34.4,M,,*6F
$PYRTM,2024,127.918394959676,19.028042369815
$GPGGA,220228.00,3319.4606,N,11833.5986,W,1,10,0.8,10.1,M,-34.4,M,,*67
$PYRTM,2024,127.918406536470,19.028053946609
$GPGGA,220229.00,3319.4591,N,11833.5965,W,1,10,0.8,10.1,M,-34.4,M,,*66
$PYRTM,2024,127.918413928831,19.028061338970
$GPGGA,220230.00,3319.4576,N,11833.5944,W,1,10,0.8,10.3,M,-34.4,M,,*66
$PYRTM,2024,127.918429685347,19.028077095486
$GPGGA,220231.00,3319.4561,N,11833.5922,W,1,10,0.8,10.6,M,-34.4,M,,*64
$PYRTM,2024,127.918441251181,19.028088661331
$GPGGA,220232.00,3319.4545,N,11833.5900,W,1,10,0.8,10.8,M,-34.4,M,,*6F
$PYRTM,2024,127.918452831435,19.028100241586
$GPGGA,220233.00,3319.4529,N,11833.5878,W,1,10,0.8,10.8,M,-34.4,M,,*6A
$PYRTM,2024,127.918464403681,19.028111813819
$GPGGA,220234.00,3319.4513,N,11833.5856,W,1,10,0.8,10.7,M,-34.4,M,,*67
$PYRTM,2024,127.918471799792,19.028119209931
$GPGGA,220235.00,3319.4498,N,11833.5835,W,1,10,0.8,10.4,M,-34.4,M,,*62
$PYRTM,2024,127.918487554005,19.028134964144
$GPGGA,220236.00,3319.4483,N,11833.5814,W,1,10,0.8,10.2,M,-34.4,M,,*6E
$PYRTM,2024,127.918499126956,19.028146537095
$GPGGA,220237.00,3319.4468,N,11833.5794,W,1,10,0.8,10.0,M,-34.4,M,,*6F
$PYRTM,2024,127.918506535440,19.028153945579
$GPGGA,220238.00,3319.4453,N,11833.5774,W,1,10,0.8,9.9,M,-34.4,M,,*57
$PYRTM,2024,127.918522275613,19.028169685752
$GPGGA,220239.00,3319.4439,N,11833.5754,W,1,10,0.8,9.9,M,-34.4,M,,*58
$PYRTM,2024,127.918533844282,19.028181254421
$GPGGA,220240.00,3319.4425,N,11833.5733,W,1,10,0.8,10.1,M,-34.4,M,,*6A
$PYRTM,2024,127.918541244340,19.028188654479
$GPGGA,220241.00,3319.4410,N,11833.5713,W,1,10,0.8,10.3,M,-34.4,M,,*6D
$PYRTM,2024,127.918556997778,19.028204407917
$GPGGA,220242.00,3319.4394,N,11833.5693,W,1,10,0.8,10.5,M,-34.4,M,,*6A
$PYRTM,2024,127.918564392164,19.028211802303
$GPGGA,220243.00,3319.4378,N,11833.5671,W,1,10,0.8,10.6,M,-34.4,M,,*66
$PYRTM,2024,127.918580146678,19.028227556817
$GPGGA,220244.00,3319.4363,N,11833.5648,W,1,10,0.8,10.7,M,-34.4,M,,*60
$PYRTM,2024,127.918591724213,19.028239134352
$GPGGA,220245.00,3319.4349,N,11833.5624,W,1,10,0.8,10.8,M,-34.4,M,,*6C
$PYRTM,2024,127.918599114502,19.028246524641
$GPGGA,220246.00,3319.4333,N,11833.5602,W,1,10,0.8,10.8,M,-34.4,M,,*66
$PYRTM,2024,127.918614882338,19.028262292477
$GPGGA,220247.00,3319.4318,N,11833.5581,W,1,10,0.8,10.8,M,-34.4,M,,*66
$PYRTM,2024,127.918622263218,19.028269673356
$GPGGA,220248.00,3319.4302,N,11833.5560,W,1,10,0.8,10.7,M,-34.4,M,,*62
$PYRTM,2024,127.918638015579,19.028285425718
$GPGGA,220249.00,3319.4287,N,11833.5539,W,1,10,0.8,10.6,M,-34.4,M,,*62
$PYRTM,2024,127.918649589618,19.028296999757
$GPGGA,220250.00,3319.4273,N,11833.5518,W,1,10,0.8,10.6,M,-34.4,M,,*62
$PYRTM,2024,127.918661164676,19.028308574815
$GPGGA,220251.00,3319.4258,N,11833.5498,W,1,10,0.8,10.5,M,-34.4,M,,*60
$PYRTM,2024,127.918672737326,19.028320147465
$GPGGA,220252.00,3319.4243,N,11833.5479,W,1,10,0.8,10.4,M,-34.4,M,,*67
$PYRTM,2024,127.918680134294,19.028327544433
$GPGGA,220253.00,3319.4228,N,11833.5459,W,1,10,0.8,10.3,M,-34.4,M,,*6E
$PYRTM,2024,127.918698770197,19.028346180336
$GPGGA,220254.00,3319.4214,N,11833.5437,W,1,10,0.8,10.4,M,-34.4,M,,*69
$PYRTM,2024,127.918707461053,19.028354871192
$GPGGA,220255.00,3319.4199,N,11833.5416,W,1,10,0.8,10.7,M,-34.4,M,,*6E
$PYRTM,2024,127.918719035972,19.028366446111
$GPGGA,220256.00,3319.4182,N,11833.5396,W,1,10,0.8,10.8,M,-34.4,M,,*67
$PYRTM,2024,127.918730611562,19.028378021701
$GPGGA,220257.00,3319.4166,N,11833.5375,W,1,10,0.8,11.0,M,-34.4,M,,*68
$PYRTM,2024,127.918738004954,19.028385415104
$GPGGA,220258.00,3319.4151,N,11833.5354,W,1,10,0.8,11.2,M,-34.4,M,,*62
$PYRTM,2024,127.918753758843,19.028401168981
$GPGGA,220259.00,3319.4136,N,11833.5331,W,1,10,0.8,11.2,M,-34.4,M,,*61
$PYRTM,2024,127.918765327697,19.028412737836
$GPGGA,220300.00,3319.4122,N,11833.5308,W,1,10,0.8,11.1,M,-34.4,M,,*60
$PYRTM,2024,127.918776905602,19.028424315741
$GPGGA,220301.00,3319.4107,N,11833.5287,W,1,10,0.8,10.9,M,-34.4,M,,*69
$PYRTM,2024,127.918788480324,19.028435890463
$GPGGA,220302.00,3319.4091,N,11833.5267,W,1,10,0.8,10.7,M,-34.4,M,,*64
$PYRTM,2024,127.918795874329,19.028443284468
$GPGGA,220303.00,3319.4075,N,11833.5247,W,1,10,0.8,10.6,M,-34.4,M,,*6C
$PYRTM,2024,127.918811629213,19.028459039352
$GPGGA,220304.00,3319.4060,N,11833.5226,W,1,10,0.8,10.6,M,-34.4,M,,*68
$PYRTM,2024,127.918823218854,19.028470628993
$GPGGA,220305.00,3319.4046,N,11833.5206,W,1,10,0.8,10.7,M,-34.4,M,,*6E
$PYRTM,2024,127.918830596667,19.028478006806
$GPGGA,220306.00,3319.4031,N,11833.5186,W,1,10,0.8,10.9,M,-34.4,M,,*68
$PYRTM,2024,127.918846354745,19.028493764896
$GPGGA,220307.00,3319.4016,N,11833.5165,W,1,10,0.8,11.0,M,-34.4,M,,*69
$PYRTM,2024,127.918857927639,19.028505337778
$GPGGA,220308.00,3319.4001,N,11833.5144,W,1,10,0.8,11.1,M,-34.4,M,,*62
$PYRTM,2024,127.918869501134,19.028516911273
$GPGGA,220309.00,3319.3986,N,11833.5123,W,1,10,0.8,11.1,M,-34.4,M,,*63
$PYRTM,2024,127.918881073287,19.028528483438
$GPGGA,220310.00,3319.3971,N,11833.5102,W,1,10,0.8,11.2,M,-34.4,M,,*63
$PYRTM,2024,127.918892647986,19.028540058137
$GPGGA,220311.00,3319.3955,N,11833.5081,W,1,10,0.8,11.3,M,-34.4,M,,*6F
$PYRTM,2024,127.918904217303,19.028551627442
$GPGGA,220312.00,3319.3940,N,11833.5060,W,1,10,0.8,11.1,M,-34.4,M,,*65
$PYRTM,2024,127.918915796539,19.028563206678
$GPGGA,220313.00,3319.3924,N,11833.5038,W,1,10,0.8,10.9,M,-34.4,M,,*62
$PYRTM,2024,127.918927365567,19.028574775706
$GPGGA,220314.00,3319.3909,N,11833.5017,W,1,10,0.8,10.7,M,-34.4,M,,*69
$PYRTM,2024,127.918938946238,19.028586356377
$GPGGA,220315.00,3319.3894,N,11833.4998,W,1,10,0.8,10.7,M,-34.4,M,,*62
$PYRTM,2024,127.918950520139,19.028597930278
$GPGGA,220316.00,3319.3879,N,11833.4977,W,1,10,0.8,10.8,M,-34.4,M,,*6C
$PYRTM,2024,127.918962093044,19.028609503183
$GPGGA,220317.00,3319.3864,N,11833.4956,W,1,10,0.8,10.7,M,-34.4,M,,*6D
$PYRTM,2024,127.918973667801,19.028621077951
$GPGGA,220318.00,3319.3849,N,11833.4936,W,1,10,0.8,10.7,M,-34.4,M,,*6B
$PYRTM,2024,127.918981060833,19.028628470972
$GPGGA,220319.00,3319.3833,N,11833.4915,W,1,10,0.8,10.9,M,-34.4,M,,*68
$PYRTM,2024,127.918996814884,19.028644225023
$GPGGA,220320.00,3319.3818,N,11833.4893,W,1,10,0.8,11.0,M,-34.4,M,,*6C
$PYRTM,2024,127.919008404271,19.028655814421
$GPGGA,220321.00,3319.3802,N,11833.4872,W,1,10,0.8,11.1,M,-34.4,M,,*68
$PYRTM,2024,127.919019958125,19.028667368264
$GPGGA,220322.00,3319.3787,N,11833.4851,W,1,10,0.8,11.2,M,-34.4,M,,*6B
$PYRTM,2024,127.919027358634,19.028674768773
$GPGGA,220323.00,3319.3772,N,11833.4830,W,1,10,0.8,11.1,M,-34.4,M,,*64
$PYRTM,2024,127.919039060104,19.028686470243
$GPGGA,220324.00,3319.3758,N,11833.4808,W,1,10,0.8,11.0,M,-34.4,M,,*61
$PYRTM,2024,127.919057582106,19.028704992257
$GPGGA,220325.00,3319.3744,N,11833.4786,W,1,10,0.8,10.8,M,-34.4,M,,*6D
$PYRTM,2024,127.919066260162,19.028713670312
$GPGGA,220326.00,3319.3730,N,11833.4765,W,1,10,0.8,10.6,M,-34.4,M,,*6E
$PYRTM,2024,127.919077834456,19.028725244595
$GPGGA,220327.00,3319.3715,N,11833.4745,W,1,10,0.8,10.4,M,-34.4,M,,*68
$PYRTM,2024,127.919089409178,19.028736819317
$GPGGA,220328.00,3319.3699,N,11833.4726,W,1,10,0.8,10.2,M,-34.4,M,,*61
$PYRTM,2024,127.919100978866,19.028748389005
$GPGGA,220329.00,3319.3684,N,11833.4705,W,1,10,0.8,10.4,M,-34.4,M,,*6B
$PYRTM,2024,127.919112557650,19.028759967789
$GPGGA,220330.00,3319.3670,N,11833.4684,W,1,10,0.8,10.8,M,-34.4,M,,*6C
$PYRTM,2024,127.919124132199,19.028771542338
$GPGGA,220331.00,3319.3654,N,11833.4662,W,1,10,0.8,11.0,M,-34.4,M,,*6A
$PYRTM,2024,127.919135705104,19.028783115243
$GPGGA,220332.00,3319.3637,N,11833.4640,W,1,10,0.8,11.2,M,-34.4,M,,*6E
$PYRTM,2024,127.919147280498,19.028794690637
$GPGGA,220333.00,3319.3621,N,11833.4619,W,1,10,0.8,11.2,M,-34.4,M,,*64
$PYRTM,2024,127.919158853229,19.028806263368
$GPGGA,220334.00,3319.3606,N,11833.4598,W,1,10,0.8,11.2,M,-34.4,M,,*6C
$PYRTM,2024,127.919170430903,19.028817841042
$GPGGA,220335.00,3319.3591,N,11833.4577,W,1,10,0.8,11.2,M,-34.4,M,,*61
$PYRTM,2024,127.919182001343,19.028829411481
$GPGGA,220336.00,3319.3576,N,11833.4557,W,1,10,0.8,11.0,M,-34.4,M,,*6B
$PYRTM,2024,127.919193579363,19.028840989502
$GPGGA,220337.00,3319.3561,N,11833.4536,W,1,10,0.8,10.8,M,-34.4,M,,*62
$PYRTM,2024,127.919205144641,19.028852554780
$GPGGA,220338.00,3319.3548,N,11833.4515,W,1,10,0.8,10.6,M,-34.4,M,,*69
$PYRTM,2024,127.919216723322,19.028864133461
$GPGGA,220339.00,3319.3534,N,11833.4494,W,1,10,0.8,10.4,M,-34.4,M,,*69
$PYRTM,2024,127.919228297870,19.028875708009
$GPGGA,220340.00,3319.3518,N,11833.4475,W,1,10,0.8,10.5,M,-34.4,M,,*67
$PYRTM,2024,127.919239874456,19.028887284595
$GPGGA,220341.00,3319.3502,N,11833.4456,W,1,10,0.8,10.8,M,-34.4,M,,*61
$PYRTM,2024,127.919251448079,19.028898858218
$GPGGA,220342.00,3319.3486,N,11833.4435,W,1,10,0.8,11.1,M,-34.4,M,,*62
$PYRTM,2024,127.919263021481,19.028910431620
$GPGGA,220343.00,3319.3471,N,11833.4413,W,1,10,0.8,11.2,M,-34.4,M,,*6C
$PYRTM,2024,127.919274594988,19.028922005127
$GPGGA,220344.00,3319.3456,N,11833.4390,W,1,10,0.8,11.2,M,-34.4,M,,*62
$PYRTM,2024,127.919286170127,19.028933580266
$GPGGA,220345.00,3319.3442,N,11833.4367,W,1,10,0.8,11.2,M,-34.4,M,,*6E
$PYRTM,2024,127.919297743889,19.028945154028
$GPGGA,220346.00,3319.3427,N,11833.4345,W,1,10,0.8,11.2,M,-34.4,M,,*6E
$PYRTM,2024,127.919309321192,19.028956731331
$GPGGA,220347.00,3319.3411,N,11833.4324,W,1,10,0.8,11.2,M,-34.4,M,,*6D
$PYRTM,2024,127.919316714005,19.028964124144
$GPGGA,220348.00,3319.3395,N,11833.4305,W,1,10,0.8,11.0,M,-34.4,M,,*68
$PYRTM,2024,127.919332480417,19.028979890567
$GPGGA,220349.00,3319.3380,N,11833.4285,W,1,10,0.8,10.8,M,-34.4,M,,*6D
$PYRTM,2024,127.919339860451,19.028987270590
$GPGGA,220350.00,3319.3366,N,11833.4264,W,1,10,0.8,10.6,M,-34.4,M,,*6C
$PYRTM,2024,127.919355609167,19.029003019306
$GPGGA,220351.00,3319.3352,N,11833.4243,W,1,10,0.8,10.6,M,-34.4,M,,*6F
$PYRTM,2024,127.919367189444,19.029014599583
$GPGGA,220352.00,3319.3338,N,11833.4222,W,1,10,0.8,10.6,M,-34.4,M,,*67
$PYRTM,2024,127.919378762442,19.029026172581
$GPGGA,220353.00,3319.3322,N,11833.4203,W,1,10,0.8,10.5,M,-34.4,M,,*6D
$PYRTM,2024,127.919390336516,19.029037746655
$GPGGA,220354.00,3319.3306,N,11833.4183,W,1,10,0.8,10.7,M,-34.4,M,,*65
$PYRTM,2024,127.919397732512,19.029045142650
$GPGGA,220355.00,3319.3290,N,11833.4163,W,1,10,0.8,10.9,M,-34.4,M,,*6A
$PYRTM,2024,127.919416366690,19.029063776829
$GPGGA,220356.00,3319.3276,N,11833.4140,W,1,10,0.8,11.2,M,-34.4,M,,*6A
$PYRTM,2024,127.919425058519,19.029072468657
$GPGGA,220357.00,3319.3262,N,11833.4117,W,1,10,0.8,11.2,M,-34.4,M,,*6C
$PYRTM,2024,127.919436629167,19.029084039306
$GPGGA,220358.00,3319.3247,N,11833.4096,W,1,10,0.8,11.2,M,-34.4,M,,*6C
$PYRTM,2024,127.919448208935,19.029095619086
$GPGGA,220359.00,3319.3230,N,11833.4077,W,1,10,0.8,11.2,M,-34.4,M,,*62
$PYRTM,2024,127.919459782130,19.029107192280
$GPGGA,220400.00,3319.3215,N,11833.4057,W,1,10,0.8,11.0,M,-34.4,M,,*6E
$PYRTM,2024,127.919471351019,19.029118761157
$GPGGA,220401.00,3319.3201,N,11833.4035,W,1,10,0.8,10.8,M,-34.4,M,,*67
$PYRTM,2024,127.919482929792,19.029130339931
$GPGGA,220402.00,3319.3188,N,11833.4013,W,1,10,0.8,10.5,M,-34.4,M,,*6F
$PYRTM,2024,127.919494509039,19.029141919178
$GPGGA,220403.00,3319.3173,N,11833.3992,W,1,10,0.8,10.5,M,-34.4,M,,*6D
$PYRTM,2024,127.919506079977,19.029153490116
$GPGGA,220404.00,3319.3157,N,11833.3972,W,1,10,0.8,10.6,M,-34.4,M,,*61
$PYRTM,2024,127.919517667361,19.029165077500
$GPGGA,220405.00,3319.3139,N,11833.3953,W,1,10,0.8,10.9,M,-34.4,M,,*64
$PYRTM,2024,127.919529227326,19.029176637477
$GPGGA,220406.00,3319.3123,N,11833.3932,W,1,10,0.8,11.0,M,-34.4,M,,*63
$PYRTM,2024,127.919536623426,19.029184033565
$GPGGA,220407.00,3319.3109,N,11833.3910,W,1,10,0.8,11.1,M,-34.4,M,,*6B
$PYRTM,2024,127.919552374363,19.029199784502
$GPGGA,220408.00,3319.3096,N,11833.3887,W,1,10,0.8,11.1,M,-34.4,M,,*6C
$PYRTM,2024,127.919563949896,19.029211360035
$GPGGA,220409.00,3319.3081,N,11833.3865,W,1,10,0.8,11.0,M,-34.4,M,,*66
$PYRTM,2024,127.919571344560,19.029218754699
$GPGGA,220410.00,3319.3066,N,11833.3846,W,1,10,0.8,11.0,M,-34.4,M,,*66
$PYRTM,2024,127.919587098958,19.029234509109
$GPGGA,220411.00,3319.3050,N,11833.3827,W,1,10,0.8,11.0,M,-34.4,M,,*65
$PYRTM,2024,127.919598672361,19.029246082500
$GPGGA,220412.00,3319.3036,N,11833.3805,W,1,10,0.8,11.0,M,-34.4,M,,*66
$PYRTM,2024,127.919610240822,19.029257650961
$GPGGA,220413.00,3319.3023,N,11833.3783,W,1,10,0.8,11.0,M,-34.4,M,,*62
$PYRTM,2024,127.919621815509,19.029269225648
$GPGGA,220414.00,3319.3008,N,11833.3762,W,1,10,0.8,11.0,M,-34.4,M,,*63
$PYRTM,2024,127.919636288333,19.029283698472
$GPGGA,220415.00,3319.2991,N,11833.3743,W,1,10,0.8,11.1,M,-34.4,M,,*68
$PYRTM,2024,127.919647850093,19.029295260231
$GPGGA,220416.00,3319.2975,N,11833.3723,W,1,10,0.8,11.1,M,-34.4,M,,*67
$PYRTM,2024,127.919656545671,19.029303955810
$GPGGA,220417.00,3319.2960,N,11833.3701,W,1,10,0.8,11.1,M,-34.4,M,,*62
$PYRTM,2024,127.919668116863,19.029315527002
$GPGGA,220418.00,3319.2946,N,11833.3679,W,1,10,0.8,11.1,M,-34.4,M,,*67
$PYRTM,2024,127.919679694433,19.029327104583
$GPGGA,220419.00,3319.2931,N,11833.3658,W,1,10,0.8,10.9,M,-34.4,M,,*6C
$PYRTM,2024,127.919687086771,19.029334496910
$GPGGA,220420.00,3319.2915,N,11833.3637,W,1,10,0.8,10.8,M,-34.4,M,,*68
$PYRTM,2024,127.919702839132,19.029350249271
$GPGGA,220421.00,3319.2900,N,11833.3618,W,1,10,0.8,10.8,M,-34.4,M,,*60
$PYRTM,2024,127.919714413924,19.029361824074
$GPGGA,220422.00,3319.2885,N,11833.3597,W,1,10,0.8,10.9,M,-34.4,M,,*6A
$PYRTM,2024,127.919721806898,19.029369217037
$GPGGA,220423.00,3319.2870,N,11833.3577,W,1,10,0.8,11.0,M,-34.4,M,,*67
$PYRTM,2024,127.919737561319,19.029384971470
$GPGGA,220424.00,3319.2855,N,11833.3556,W,1,10,0.8,11.0,M,-34.4,M,,*64
$PYRTM,2024,127.919749136887,19.029396547037
$GPGGA,220425.00,3319.2840,N,11833.3534,W,1,10,0.8,11.0,M,-34.4,M,,*65
$PYRTM,2024,127.919756530278,19.029403940417
$GPGGA,220426.00,3319.2825,N,11833.3512,W,1,10,0.8,11.1,M,-34.4,M,,*60
$PYRTM,2024,127.919775062535,19.029422472674
$GPGGA,220427.00,3319.2810,N,11833.3491,W,1,10,0.8,11.3,M,-34.4,M,,*6F
$PYRTM,2024,127.919786635590,19.029434045729
$GPGGA,220428.00,3319.2795,N,11833.3471,W,1,10,0.8,11.2,M,-34.4,M,,*6D
$PYRTM,2024,127.919798209479,19.029445619618
$GPGGA,220429.00,3319.2780,N,11833.3450,W,1,10,0.8,11.0,M,-34.4,M,,*69
$PYRTM,2024,127.919807006100,19.029454416238
$GPGGA,220430.00,3319.2765,N,11833.3429,W,1,10,0.8,10.7,M,-34.4,M,,*62
$PYRTM,2024,127.919814401551,19.029461811690
$GPGGA,220431.00,3319.2751,N,11833.3409,W,1,10,0.8,10.6,M,-34.4,M,,*67
$PYRTM,2024,127.919830155880,19.029477566030
$GPGGA,220432.00,3319.2737,N,11833.3388,W,1,10,0.8,10.6,M,-34.4,M,,*6A
$PYRTM,2024,127.919841732894,19.029489143044
$GPGGA,220433.00,3319.2722,N,11833.3367,W,1,10,0.8,10.6,M,-34.4,M,,*6E
$PYRTM,2024,127.919853303530,19.029500713669
$GPGGA,220434.00,3319.2706,N,11833.3348,W,1,10,0.8,10.7,M,-34.4,M,,*63
$PYRTM,2024,127.919864880301,19.029512290440
$GPGGA,220435.00,3319.2690,N,11833.3328,W,1,10,0.8,11.0,M,-34.4,M,,*6C
$PYRTM,2024,127.919876451458,19.029523861609
$GPGGA,220436.00,3319.2675,N,11833.3306,W,1,10,0.8,11.2,M,-34.4,M,,*6A
$PYRTM,2024,127.919888026308,19.029535436447
$GPGGA,220437.00,3319.2661,N,11833.3283,W,1,10,0.8,11.3,M,-34.4,M,,*63
$PYRTM,2024,127.919899599711,19.029547009850
$GPGGA,220438.00,3319.2646,N,11833.3261,W,1,10,0.8,11.2,M,-34.4,M,,*64
$PYRTM,2024,127.919911174699,19.029558584838
$GPGGA,220439.00,3319.2630,N,11833.3242,W,1,10,0.8,11.1,M,-34.4,M,,*66
$PYRTM,2024,127.919922747951,19.029570158090
$GPGGA,220440.00,3319.2614,N,11833.3223,W,1,10,0.8,10.7,M,-34.4,M,,*6E
$PYRTM,2024,127.919934325197,19.029581735336
$GPGGA,220441.00,3319.2598,N,11833.3203,W,1,10,0.8,10.4,M,-34.4,M,,*69
$PYRTM,2024,127.919945895706,19.029593305856
$GPGGA,220442.00,3319.2585,N,11833.3182,W,1,10,0.8,10.3,M,-34.4,M,,*6B
$PYRTM,2024,127.919957471620,19.029604881759
$GPGGA,220443.00,3319.2572,N,11833.3162,W,1,10,0.8,10.4,M,-34.4,M,,*6B
$PYRTM,2024,127.919969044213,19.029616454352
$GPGGA,220444.00,3319.2557,N,11833.3142,W,1,10,0.8,10.6,M,-34.4,M,,*6B
$PYRTM,2024,127.919980621759,19.029628031898
$GPGGA,220445.00,3319.2541,N,11833.3123,W,1,10,0.8,10.8,M,-34.4,M,,*64
$PYRTM,2024,127.919992192488,19.029639602627
$GPGGA,220446.00,3319.2525,N,11833.3102,W,1,10,0.8,11.1,M,-34.4,M,,*6E
$PYRTM,2024,127.920003770926,19.029651181065
$GPGGA,220447.00,3319.2510,N,11833.3081,W,1,10,0.8,11.4,M,-34.4,M,,*66
$PYRTM,2024,127.920015341771,19.029662751910
$GPGGA,220448.00,3319.2496,N,11833.3059,W,1,10,0.8,11.5,M,-34.4,M,,*62
$PYRTM,2024,127.920026920486,19.029674330625
$GPGGA,220449.00,3319.2482,N,11833.3036,W,1,10,0.8,11.6,M,-34.4,M,,*6C
$PYRTM,2024,127.920038489954,19.029685900093
$GPGGA,220450.00,3319.2467,N,11833.3014,W,1,10,0.8,11.4,M,-34.4,M,,*6D
$PYRTM,2024,127.920045884468,19.029693294606
$GPGGA,220451.00,3319.2451,N,11833.2994,W,1,10,0.8,11.2,M,-34.4,M,,*6F
$PYRTM,2024,127.920061637685,19.029709047824
$GPGGA,220452.00,3319.2435,N,11833.2975,W,1,10,0.8,10.9,M,-34.4,M,,*6B
$PYRTM,2024,127.920069032650,19.029716442789
$GPGGA,220453.00,3319.2420,N,11833.2955,W,1,10,0.8,10.8,M,-34.4,M,,*6D
$PYRTM,2024,127.920084785706,19.029732195845
$GPGGA,220454.00,3319.2406,N,11833.2935,W,1,10,0.8,10.8,M,-34.4,M,,*68
$PYRTM,2024,127.920096361493,19.029743771644
$GPGGA,220455.00,3319.2392,N,11833.2915,W,1,10,0.8,10.6,M,-34.4,M,,*6F
$PYRTM,2024,127.920107934630,19.029755344769
$GPGGA,220456.00,3319.2377,N,11833.2895,W,1,10,0.8,10.5,M,-34.4,M,,*6D
$PYRTM,2024,127.920115331030,19.029762741169
$GPGGA,220457.00,3319.2362,N,11833.2875,W,1,10,0.8,10.7,M,-34.4,M,,*64
$PYRTM,2024,127.920133963866,19.029781374005
$GPGGA,220458.00,3319.2346,N,11833.2855,W,1,10,0.8,11.0,M,-34.4,M,,*69
$PYRTM,2024,127.920142658472,19.029790068611
$GPGGA,220459.00,3319.2331,N,11833.2834,W,1,10,0.8,11.2,M,-34.4,M,,*6D
$PYRTM,2024,127.920150056250,19.029797466389
$GPGGA,220500.00,3319.2316,N,11833.2813,W,1,10,0.8,11.3,M,-34.4,M,,*61
$PYRTM,2024,127.920168596308,19.029816006447
$GPGGA,220501.00,3319.2301,N,11833.2792,W,1,10,0.8,11.3,M,-34.4,M,,*60
$PYRTM,2024,127.920177374375,19.029824784514
$GPGGA,220502.00,3319.2286,N,11833.2771,W,1,10,0.8,11.2,M,-34.4,M,,*61
$PYRTM,2024,127.920184774294,19.029832184433
$GPGGA,220503.00,3319.2271,N,11833.2750,W,1,10,0.8,11.1,M,-34.4,M,,*68
$PYRTM,2024,127.920200527037,19.029847937176
$GPGGA,220504.00,3319.2257,N,11833.2730,W,1,10,0.8,11.1,M,-34.4,M,,*6D
$PYRTM,2024,127.920212102766,19.029859512905
$GPGGA,220505.00,3319.2243,N,11833.2709,W,1,10,0.8,11.0,M,-34.4,M,,*62
$PYRTM,2024,127.920223675671,19.029871085810
$GPGGA,220506.00,3319.2229,N,11833.2689,W,1,10,0.8,10.9,M,-34.4,M,,*6C
$PYRTM,2024,127.920235251875,19.029882662025
$GPGGA,220507.00,3319.2214,N,11833.2670,W,1,10,0.8,10.9,M,-34.4,M,,*65
$PYRTM,2024,127.920242646447,19.029890056586
$GPGGA,220508.00,3319.2198,N,11833.2650,W,1,10,0.8,11.1,M,-34.4,M,,*66
$PYRTM,2024,127.920258401343,19.029905811481
$GPGGA,220509.00,3319.2183,N,11833.2629,W,1,10,0.8,11.2,M,-34.4,M,,*60
$PYRTM,2024,127.920269972963,19.029917383113
$GPGGA,220510.00,3319.2168,N,11833.2608,W,1,10,0.8,11.2,M,-34.4,M,,*6E
$PYRTM,2024,127.920281549340,19.029928959479
$GPGGA,220511.00,3319.2153,N,11833.2587,W,1,10,0.8,11.2,M,-34.4,M,,*63
$PYRTM,2024,127.920293122778,19.029940532928
$GPGGA,220512.00,3319.2137,N,11833.2566,W,1,10,0.8,11.3,M,-34.4,M,,*6C
$PYRTM,2024,127.920304696620,19.029952106759
$GPGGA,220513.00,3319.2122,N,11833.2545,W,1,10,0.8,11.1,M,-34.4,M,,*6A
$PYRTM,2024,127.920316264306,19.029963674444
$GPGGA,220514.00,3319.2106,N,11833.2525,W,1,10,0.8,10.9,M,-34.4,M,,*64
$PYRTM,2024,127.920327847234,19.029975257373
$GPGGA,220515.00,3319.2091,N,11833.2506,W,1,10,0.8,10.7,M,-34.4,M,,*65
$PYRTM,2024,127.920339417697,19.029986827836
$GPGGA,220516.00,3319.2077,N,11833.2486,W,1,10,0.8,10.6,M,-34.4,M,,*66
$PYRTM,2024,127.920351007708,19.029998417847
$GPGGA,220517.00,3319.2063,N,11833.2465,W,1,10,0.8,10.7,M,-34.4,M,,*6E
$PYRTM,2024,127.920362565741,19.030009975880
$GPGGA,220518.00,3319.2048,N,11833.2443,W,1,10,0.8,10.8,M,-34.4,M,,*63
$PYRTM,2024,127.920374143600,19.030021553738
$GPGGA,220519.00,3319.2033,N,11833.2423,W,1,10,0.8,11.0,M,-34.4,M,,*61
$PYRTM,2024,127.920381551435,19.030028961574
$GPGGA,220520.00,3319.2017,N,11833.2404,W,1,10,0.8,11.4,M,-34.4,M,,*6C
$PYRTM,2024,127.920397289734,19.030044699873
$GPGGA,220521.00,3319.2002,N,11833.2384,W,1,10,0.8,11.6,M,-34.4,M,,*64
$PYRTM,2024,127.920408857674,19.030056267813
$GPGGA,220522.00,3319.1987,N,11833.2363,W,1,10,0.8,11.6,M,-34.4,M,,*69
$PYRTM,2024,127.920416256470,19.030063666609
$GPGGA,220523.00,3319.1973,N,11833.2340,W,1,10,0.8,11.5,M,-34.4,M,,*61
$PYRTM,2024,127.920432010984,19.030079421123
$GPGGA,220524.00,3319.1960,N,11833.2318,W,1,10,0.8,11.3,M,-34.4,M,,*6F
$PYRTM,2024,127.920443586528,19.030090996667
$GPGGA,220525.00,3319.1945,N,11833.2298,W,1,10,0.8,10.9,M,-34.4,M,,*6B
$PYRTM,2024,127.920455158831,19.030102568970
$GPGGA,220526.00,3319.1929,N,11833.2279,W,1,10,0.8,10.8,M,-34.4,M,,*6C
$PYRTM,2024,127.920466736991,19.030114147130
$GPGGA,220527.00,3319.1913,N,11833.2261,W,1,10,0.8,10.8,M,-34.4,M,,*6D
$PYRTM,2024,127.920474127500,19.030121537639
$GPGGA,220528.00,3319.1897,N,11833.2242,W,1,10,0.8,10.8,M,-34.4,M,,*6E
$PYRTM,2024,127.920492672928,19.030140083067
$GPGGA,220529.00,3319.1882,N,11833.2220,W,1,10,0.8,10.9,M,-34.4,M,,*6E
$PYRTM,2024,127.920501456447,19.030148866597
$GPGGA,220530.00,3319.1868,N,11833.2198,W,1,10,0.8,11.0,M,-34.4,M,,*6A
$PYRTM,2024,127.920513033137,19.030160443275
$GPGGA,220531.00,3319.1853,N,11833.2178,W,1,10,0.8,11.1,M,-34.4,M,,*6C
$PYRTM,2024,127.920520424282,19.030167834421
$GPGGA,220532.00,3319.1836,N,11833.2158,W,1,10,0.8,11.3,M,-34.4,M,,*6C
$PYRTM,2024,127.920538958738,19.030186368889
$GPGGA,220533.00,3319.1821,N,11833.2138,W,1,10,0.8,11.4,M,-34.4,M,,*6A
$PYRTM,2024,127.920550529086,19.030197939225
$GPGGA,220534.00,3319.1807,N,11833.2118,W,1,10,0.8,11.4,M,-34.4,M,,*6B
$PYRTM,2024,127.920559326053,19.030206736192
$GPGGA,220535.00,3319.1793,N,11833.2097,W,1,10,0.8,11.4,M,-34.4,M,,*6E
$PYRTM,2024,127.920566735532,19.030214145671
$GPGGA,220536.00,3319.1779,N,11833.2076,W,1,10,0.8,11.0,M,-34.4,M,,*62
$PYRTM,2024,127.920582474479,19.030229884618
$GPGGA,220537.00,3319.1765,N,11833.2055,W,1,10,0.8,10.9,M,-34.4,M,,*67
$PYRTM,2024,127.920594049109,19.030241459248
$GPGGA,220538.00,3319.1750,N,11833.2034,W,1,10,0.8,11.0,M,-34.4,M,,*61
$PYRTM,2024,127.920605623252,19.030253033391
$GPGGA,220539.00,3319.1735,N,11833.2014,W,1,10,0.8,11.1,M,-34.4,M,,*60
$PYRTM,2024,127.920617197315,19.030264607454
$GPGGA,220540.00,3319.1719,N,11833.1994,W,1,10,0.8,11.1,M,-34.4,M,,*62
$PYRTM,2024,127.920628771875,19.030276182025
$GPGGA,220541.00,3319.1703,N,11833.1973,W,1,10,0.8,11.1,M,-34.4,M,,*61
$PYRTM,2024,127.920640346111,19.030287756250
$GPGGA,220542.00,3319.1689,N,11833.1952,W,1,10,0.8,11.2,M,-34.4,M,,*61
$PYRTM,2024,127.920647740382,19.030295150521
$GPGGA,220543.00,3319.1675,N,11833.1931,W,1,10,0.8,11.2,M,-34.4,M,,*66
$PYRTM,2024,127.920663493970,19.030310904109
$GPGGA,220544.00,3319.1660,N,11833.1911,W,1,10,0.8,11.1,M,-34.4,M,,*64
$PYRTM,2024,127.920675071713,19.030322481852
$GPGGA,220545.00,3319.1645,N,11833.1892,W,1,10,0.8,10.9,M,-34.4,M,,*61
$PYRTM,2024,127.920686640822,19.030334050949
$GPGGA,220546.00,3319.1631,N,11833.1872,W,1,10,0.8,10.7,M,-34.4,M,,*61
$PYRTM,2024,127.920698221840,19.030345631991
$GPGGA,220547.00,3319.1617,N,11833.1852,W,1,10,0.8,10.8,M,-34.4,M,,*69
$PYRTM,2024,127.920705611794,19.030353021933
$GPGGA,220548.00,3319.1602,N,11833.1832,W,1,10,0.8,11.0,M,-34.4,M,,*6D
$PYRTM,2024,127.920721364340,19.030368774479
$GPGGA,220549.00,3319.1586,N,11833.1813,W,1,10,0.8,11.2,M,-34.4,M,,*62
$PYRTM,2024,127.920732937928,19.030380348067
$GPGGA,220550.00,3319.1570,N,11833.1793,W,1,10,0.8,11.4,M,-34.4,M,,*62
$PYRTM,2024,127.920744512824,19.030391922963
$GPGGA,220551.00,3319.1556,N,11833.1771,W,1,10,0.8,11.6,M,-34.4,M,,*69
$PYRTM,2024,127.920756086377,19.030403496516
$GPGGA,220552.00,3319.1541,N,11833.1749,W,1,10,0.8,11.5,M,-34.4,M,,*64
$PYRTM,2024,127.920767661389,19.030415071528
$GPGGA,220553.00,3319.1526,N,11833.1729,W,1,10,0.8,11.4,M,-34.4,M,,*63
$PYRTM,2024,127.920779235058,19.030426645197
$GPGGA,220554.00,3319.1511,N,11833.1709,W,1,10,0.8,11.1,M,-34.4,M,,*67
$PYRTM,2024,127.920790809514,19.030438219653
$GPGGA,220555.00,3319.1496,N,11833.1690,W,1,10,0.8,11.1,M,-34.4,M,,*69
$PYRTM,2024,127.920802383299,19.030449793449
$GPGGA,220556.00,3319.1483,N,11833.1670,W,1,10,0.8,11.2,M,-34.4,M,,*63
$PYRTM,2024,127.920813972627,19.030461382766
$GPGGA,220557.00,3319.1469,N,11833.1649,W,1,10,0.8,11.2,M,-34.4,M,,*6C
$PYRTM,2024,127.920825531562,19.030472941701
$GPGGA,220558.00,3319.1454,N,11833.1629,W,1,10,0.8,11.2,M,-34.4,M,,*6B
$PYRTM,2024,127.920832928044,19.030480338194
$GPGGA,220559.00,3319.1439,N,11833.1610,W,1,10,0.8,11.2,M,-34.4,M,,*6B
$PYRTM,2024,127.920851458993,19.030498869132
$GPGGA,220600.00,3319.1423,N,11833.1590,W,1,10,0.8,11.2,M,-34.4,M,,*64
$PYRTM,2024,127.920860255648,19.030507665787
$GPGGA,220601.00,3319.1409,N,11833.1569,W,1,10,0.8,11.3,M,-34.4,M,,*6A
$PYRTM,2024,127.920871829711,19.030519239850
$GPGGA,220602.00,3319.1395,N,11833.1548,W,1,10,0.8,11.1,M,-34.4,M,,*6A
$PYRTM,2024,127.920879225579,19.030526635718
$GPGGA,220603.00,3319.1381,N,11833.1527,W,1,10,0.8,10.9,M,-34.4,M,,*6E
$PYRTM,2024,127.920894976956,19.030542387095
$GPGGA,220604.00,3319.1365,N,11833.1508,W,1,10,0.8,10.8,M,-34.4,M,,*6F
$PYRTM,2024,127.920902372535,19.030549782674
$GPGGA,220605.00,3319.1350,N,11833.1487,W,1,10,0.8,10.8,M,-34.4,M,,*6E
$PYRTM,2024,127.920918126574,19.030565536713
$GPGGA,220606.00,3319.1335,N,11833.1468,W,1,10,0.8,10.8,M,-34.4,M,,*6F
$PYRTM,2024,127.920929700231,19.030577110370
$GPGGA,220607.00,3319.1320,N,11833.1448,W,1,10,0.8,10.8,M,-34.4,M,,*68
$PYRTM,2024,127.920937094525,19.030584504664
$GPGGA,220608.00,3319.1305,N,11833.1428,W,1,10,0.8,10.8,M,-34.4,M,,*66
$PYRTM,2024,127.920952849248,19.030600259387
$GPGGA,220609.00,3319.1290,N,11833.1407,W,1,10,0.8,10.8,M,-34.4,M,,*67
$PYRTM,2024,127.920964422917,19.030611833056
$GPGGA,220610.00,3319.1276,N,11833.1386,W,1,10,0.8,10.8,M,-34.4,M,,*69
$PYRTM,2024,127.920975999294,19.030623409433
$GPGGA,220611.00,3319.1262,N,11833.1364,W,1,10,0.8,10.8,M,-34.4,M,,*61
$PYRTM,2024,127.920987570255,19.030634980394
$GPGGA,220612.00,3319.1246,N,11833.1344,W,1,10,0.8,10.8,M,-34.4,M,,*66
$PYRTM,2024,127.920994966632,19.030642376771
$GPGGA,220613.00,3319.1230,N,11833.1324,W,1,10,0.8,11.1,M,-34.4,M,,*68
$PYRTM,2024,127.921010714769,19.030658124907
$GPGGA,220614.00,3319.1215,N,11833.1304,W,1,10,0.8,11.3,M,-34.4,M,,*68
$PYRTM,2024,127.921022297720,19.030669707870
$GPGGA,220615.00,3319.1201,N,11833.1283,W,1,10,0.8,11.4,M,-34.4,M,,*65
$PYRTM,2024,127.921033868750,19.030681278889
$GPGGA,220616.00,3319.1187,N,11833.1262,W,1,10,0.8,11.3,M,-34.4,M,,*63
$PYRTM,2024,127.921045442083,19.030692852222
$GPGGA,220617.00,3319.1173,N,11833.1242,W,1,10,0.8,11.0,M,-34.4,M,,*68
$PYRTM,2024,127.921057015428,19.030704425567
$GPGGA,220618.00,3319.1158,N,11833.1223,W,1,10,0.8,10.6,M,-34.4,M,,*6E
$PYRTM,2024,127.921068590127,19.030716000266
$GPGGA,220619.00,3319.1143,N,11833.1203,W,1,10,0.8,10.3,M,-34.4,M,,*62
$PYRTM,2024,127.921080163542,19.030727573681
$GPGGA,220620.00,3319.1129,N,11833.1183,W,1,10,0.8,10.2,M,-34.4,M,,*6E
$PYRTM,2024,127.921091736713,19.030739146852
$GPGGA,220621.00,3319.1115,N,11833.1161,W,1,10,0.8,10.4,M,-34.4,M,,*6A
$PYRTM,2024,127.921103313750,19.030750723889
$GPGGA,220622.00,3319.1099,N,11833.1143,W,1,10,0.8,10.7,M,-34.4,M,,*6F
$PYRTM,2024,127.921110707095,19.030758117234
$GPGGA,220623.00,3319.1082,N,11833.1125,W,1,10,0.8,11.0,M,-34.4,M,,*62
$PYRTM,2024,127.921126460775,19.030773870926
$GPGGA,220624.00,3319.1066,N,11833.1105,W,1,10,0.8,11.1,M,-34.4,M,,*6C
$PYRTM,2024,127.921138034271,19.030785444421
$GPGGA,220625.00,3319.1053,N,11833.1082,W,1,10,0.8,11.2,M,-34.4,M,,*66
$PYRTM,2024,127.921149608356,19.030797018495
$GPGGA,220626.00,3319.1039,N,11833.1060,W,1,10,0.8,11.3,M,-34.4,M,,*64
$PYRTM,2024,127.921161198692,19.030808608831
$GPGGA,220627.00,3319.1024,N,11833.1040,W,1,10,0.8,11.3,M,-34.4,M,,*6B
$PYRTM,2024,127.921168577118,19.030815987257
$GPGGA,220628.00,3319.1009,N,11833.1021,W,1,10,0.8,11.4,M,-34.4,M,,*6B
$PYRTM,2024,127.921184334074,19.030831744225
$GPGGA,220629.00,3319.0993,N,11833.1002,W,1,10,0.8,11.4,M,-34.4,M,,*60
$PYRTM,2024,127.921191725822,19.030839136100
$GPGGA,220630.00,3319.0979,N,11833.0982,W,1,10,0.8,11.3,M,-34.4,M,,*6B
$PYRTM,2024,127.921210271076,19.030857681215
$GPGGA,220631.00,3319.0966,N,11833.0961,W,1,10,0.8,11.1,M,-34.4,M,,*6B
$PYRTM,2024,127.921219054988,19.030866465127
$GPGGA,220632.00,3319.0951,N,11833.0941,W,1,10,0.8,11.1,M,-34.4,M,,*6E
$PYRTM,2024,127.921230628576,19.030878038715
$GPGGA,220633.00,3319.0936,N,11833.0923,W,1,10,0.8,11.1,M,-34.4,M,,*6A
$PYRTM,2024,127.921242201667,19.030889611806
$GPGGA,220634.00,3319.0921,N,11833.0903,W,1,10,0.8,10.9,M,-34.4,M,,*60
$PYRTM,2024,127.921253771100,19.030901181238
$GPGGA,220635.00,3319.0906,N,11833.0882,W,1,10,0.8,10.8,M,-34.4,M,,*6D
$PYRTM,2024,127.921261171343,19.030908581481
$GPGGA,220636.00,3319.0892,N,11833.0861,W,1,10,0.8,10.8,M,-34.4,M,,*6F
$PYRTM,2024,127.921272860880,19.030920271019
$GPGGA,220637.00,3319.0877,N,11833.0841,W,1,10,0.8,11.2,M,-34.4,M,,*6C
$PYRTM,2024,127.921288498785,19.030935908935
$GPGGA,220638.00,3319.0862,N,11833.0821,W,1,10,0.8,11.5,M,-34.4,M,,*66
$PYRTM,2024,127.921300073958,19.030947484097
$GPGGA,220639.00,3319.0846,N,11833.0802,W,1,10,0.8,11.6,M,-34.4,M,,*63
$PYRTM,2024,127.921311646956,19.030959057095
$GPGGA,220640.00,3319.0831,N,11833.0782,W,1,10,0.8,11.7,M,-34.4,M,,*6B
$PYRTM,2024,127.921323226065,19.030970636204
$GPGGA,220641.00,3319.0817,N,11833.0761,W,1,10,0.8,11.7,M,-34.4,M,,*63
$PYRTM,2024,127.921334795405,19.030982205544
$GPGGA,220642.00,3319.0803,N,11833.0739,W,1,10,0.8,11.5,M,-34.4,M,,*6A
$PYRTM,2024,127.921346371910,19.030993782060
$GPGGA,220643.00,3319.0789,N,11833.0718,W,1,10,0.8,11.3,M,-34.4,M,,*63
$PYRTM,2024,127.921357944988,19.031005355127
$GPGGA,220644.00,3319.0774,N,11833.0699,W,1,10,0.8,11.0,M,-34.4,M,,*6D
$PYRTM,2024,127.921369521829,19.031016931968
$GPGGA,220645.00,3319.0757,N,11833.0680,W,1,10,0.8,11.0,M,-34.4,M,,*65
$PYRTM,2024,127.921381091053,19.031028501192
$GPGGA,220646.00,3319.0742,N,11833.0661,W,1,10,0.8,11.0,M,-34.4,M,,*6D
$PYRTM,2024,127.921392666979,19.031040077118
$GPGGA,220647.00,3319.0727,N,11833.0640,W,1,10,0.8,11.0,M,-34.4,M,,*6C
$PYRTM,2024,127.921404241308,19.031051651458
$GPGGA,220648.00,3319.0713,N,11833.0620,W,1,10,0.8,11.1,M,-34.4,M,,*63
$PYRTM,2024,127.921415813785,19.031063223924
$GPGGA,220649.00,3319.0698,N,11833.0599,W,1,10,0.8,11.2,M,-34.4,M,,*62
$PYRTM,2024,127.921427387535,19.031074797674
$GPGGA,220650.00,3319.0683,N,11833.0580,W,1,10,0.8,11.3,M,-34.4,M,,*69
$PYRTM,2024,127.921438962234,19.031086372373
$GPGGA,220651.00,3319.0667,N,11833.0561,W,1,10,0.8,11.2,M,-34.4,M,,*6C
$PYRTM,2024,127.921450537164,19.031097947303
$GPGGA,220652.00,3319.0653,N,11833.0540,W,1,10,0.8,11.0,M,-34.4,M,,*69
$PYRTM,2024,127.921457930324,19.031105340579
$GPGGA,220653.00,3319.0639,N,11833.0520,W,1,10,0.8,11.0,M,-34.4,M,,*62
$PYRTM,2024,127.921473684340,19.031121094479
$GPGGA,220654.00,3319.0624,N,11833.0499,W,1,10,0.8,11.2,M,-34.4,M,,*68
$PYRTM,2024,127.921485262072,19.031132672211
$GPGGA,220655.00,3319.0609,N,11833.0478,W,1,10,0.8,11.5,M,-34.4,M,,*6E
$PYRTM,2024,127.921496832951,19.031144243102
$GPGGA,220656.00,3319.0594,N,11833.0458,W,1,10,0.8,11.8,M,-34.4,M,,*65
$PYRTM,2024,127.921508422072,19.031155832211
$GPGGA,220657.00,3319.0578,N,11833.0438,W,1,10,0.8,12.0,M,-34.4,M,,*6B
$PYRTM,2024,127.921515802766,19.031163212905
$GPGGA,220658.00,3319.0562,N,11833.0417,W,1,10,0.8,12.0,M,-34.4,M,,*62
$PYRTM,2024,127.921531555312,19.031178965451
$GPGGA,220659.00,3319.0547,N,11833.0396,W,1,10,0.8,11.7,M,-34.4,M,,*6E
$PYRTM,2024,127.921543130093,19.031190540243
$GPGGA,220700.00,3319.0533,N,11833.0374,W,1,10,0.8,11.2,M,-34.4,M,,*69
$PYRTM,2024,127.921550523681,19.031197933819
$GPGGA,220701.00,3319.0519,N,11833.0353,W,1,10,0.8,10.9,M,-34.4,M,,*6F
$PYRTM,2024,127.921569159711,19.031216569850
$GPGGA,220702.00,3319.0504,N,11833.0335,W,1,10,0.8,10.7,M,-34.4,M,,*6E
$PYRTM,2024,127.921577852905,19.031225263044
$GPGGA,220703.00,3319.0489,N,11833.0318,W,1,10,0.8,10.7,M,-34.4,M,,*64
$PYRTM,2024,127.921585260104,19.031232670255
$GPGGA,220704.00,3319.0473,N,11833.0299,W,1,10,0.8,10.8,M,-34.4,M,,*61
$PYRTM,2024,127.921600996574,19.031248406725
$GPGGA,220705.00,3319.0460,N,11833.0278,W,1,10,0.8,10.9,M,-34.4,M,,*6C
$PYRTM,2024,127.921608395556,19.031255805694
$GPGGA,220706.00,3319.0446,N,11833.0256,W,1,10,0.8,11.1,M,-34.4,M,,*6E
$PYRTM,2024,127.921624149086,19.031271559225
$GPGGA,220707.00,3319.0431,N,11833.0236,W,1,10,0.8,11.4,M,-34.4,M,,*6C
$PYRTM,2024,127.921635722836,19.031283132975
$GPGGA,220708.00,3319.0413,N,11833.0218,W,1,10,0.8,11.6,M,-34.4,M,,*6D
$PYRTM,2024,127.921643118426,19.031290528565
$GPGGA,220709.00,3319.0396,N,11833.0198,W,1,10,0.8,11.6,M,-34.4,M,,*6D
$PYRTM,2024,127.921661649282,19.031309059421
$GPGGA,220710.00,3319.0382,N,11833.0176,W,1,10,0.8,11.7,M,-34.4,M,,*61
$PYRTM,2024,127.921670461898,19.031317872037
$GPGGA,220711.00,3319.0370,N,11833.0153,W,1,10,0.8,11.8,M,-34.4,M,,*65
$PYRTM,2024,127.921682020174,19.031329430312
$GPGGA,220712.00,3319.0356,N,11833.0132,W,1,10,0.8,11.7,M,-34.4,M,,*6A
$PYRTM,2024,127.921693594502,19.031341004641
$GPGGA,220713.00,3319.0340,N,11833.0112,W,1,10,0.8,11.5,M,-34.4,M,,*6C
$PYRTM,2024,127.921705163356,19.031352573495
$GPGGA,220714.00,3319.0324,N,11833.0093,W,1,10,0.8,11.2,M,-34.4,M,,*66
$PYRTM,2024,127.921716743056,19.031364153194
$GPGGA,220715.00,3319.0310,N,11833.0073,W,1,10,0.8,11.1,M,-34.4,M,,*6D
$PYRTM,2024,127.921724149525,19.031371559664
$GPGGA,220716.00,3319.0296,N,11833.0053,W,1,10,0.8,11.2,M,-34.4,M,,*60
$PYRTM,2024,127.921739892894,19.031387303032
$GPGGA,220717.00,3319.0281,N,11833.0034,W,1,10,0.8,11.4,M,-34.4,M,,*60
$PYRTM,2024,127.921751464884,19.031398875035
$GPGGA,220718.00,3319.0266,N,11833.0014,W,1,10,0.8,11.6,M,-34.4,M,,*66
$PYRTM,2024,127.921758859120,19.031406269259
$GPGGA,220719.00,3319.0251,N,11832.9994,W,1,10,0.8,11.5,M,-34.4,M,,*69
$PYRTM,2024,127.921774608437,19.031422018576
$GPGGA,220720.00,3319.0237,N,11832.9972,W,1,10,0.8,11.5,M,-34.4,M,,*6B
$PYRTM,2024,127.921786188715,19.031433598854
$GPGGA,220721.00,3319.0223,N,11832.9950,W,1,10,0.8,11.5,M,-34.4,M,,*6F
$PYRTM,2024,127.921797763252,19.031445174097
$GPGGA,220722.00,3319.0207,N,11832.9931,W,1,10,0.8,11.6,M,-34.4,M,,*6E
$PYRTM,2024,127.921809336273,19.031456746412
$GPGGA,220723.00,3319.0190,N,11832.9912,W,1,10,0.8,11.6,M,-34.4,M,,*63
$PYRTM,2024,127.921820904919,19.031468315058
$GPGGA,220724.00,3319.0174,N,11832.9893,W,1,10,0.8,11.6,M,-34.4,M,,*66
$PYRTM,2024,127.921832487731,19.031479897870
$GPGGA,220725.00,3319.0160,N,11832.9873,W,1,10,0.8,11.5,M,-34.4,M,,*6F
$PYRTM,2024,127.921839878900,19.031487289039
$GPGGA,220726.00,3319.0147,N,11832.9851,W,1,10,0.8,11.3,M,-34.4,M,,*6F
$PYRTM,2024,127.921855636354,19.031503046493
$GPGGA,220727.00,3319.0134,N,11832.9831,W,1,10,0.8,11.3,M,-34.4,M,,*6C
$PYRTM,2024,127.921867207998,19.031514618148
$GPGGA,220728.00,3319.0118,N,11832.9812,W,1,10,0.8,11.3,M,-34.4,M,,*6C
$PYRTM,2024,127.921878783113,19.031526193252
$GPGGA,220729.00,3319.0102,N,11832.9794,W,1,10,0.8,11.5,M,-34.4,M,,*61
$PYRTM,2024,127.921890355347,19.031537765486
$GPGGA,220730.00,3319.0087,N,11832.9774,W,1,10,0.8,11.7,M,-34.4,M,,*69
$PYRTM,2024,127.921901929005,19.031549339155
$GPGGA,220731.00,3319.0074,N,11832.9752,W,1,10,0.8,11.8,M,-34.4,M,,*6F
$PYRTM,2024,127.921909339630,19.031556749769
$GPGGA,220732.00,3319.0059,N,11832.9730,W,1,10,0.8,12.0,M,-34.4,M,,*6C
$PYRTM,2024,127.921927855625,19.031575265764
$GPGGA,220733.00,3319.0042,N,11832.9710,W,1,10,0.8,12.2,M,-34.4,M,,*67
$PYRTM,2024,127.921936646262,19.031584056400
$GPGGA,220734.00,3319.0025,N,11832.9692,W,1,10,0.8,12.2,M,-34.4,M,,*6A
$PYRTM,2024,127.921948225521,19.031595635660
$GPGGA,220735.00,3319.0009,N,11832.9672,W,1,10,0.8,12.2,M,-34.4,M,,*6B
$PYRTM,2024,127.921959800069,19.031607210208
$GPGGA,220736.00,3318.9996,N,11832.9651,W,1,10,0.8,12.0,M,-34.4,M,,*6C
$PYRTM,2024,127.921971377500,19.031618787639
$GPGGA,220737.00,3318.9984,N,11832.9629,W,1,10,0.8,11.7,M,-34.4,M,,*65
$PYRTM,2024,127.921982948657,19.031630358796
$GPGGA,220738.00,3318.9970,N,11832.9610,W,1,10,0.8,11.4,M,-34.4,M,,*68
$PYRTM,2024,127.921990343021,19.031637753160
$GPGGA,220739.00,3318.9955,N,11832.9592,W,1,10,0.8,11.2,M,-34.4,M,,*61
$PYRTM,2024,127.922006096655,19.031653506794
$GPGGA,220740.00,3318.9940,N,11832.9573,W,1,10,0.8,11.2,M,-34.4,M,,*64
$PYRTM,2024,127.922013491285,19.031660901435
$GPGGA,220741.00,3318.9925,N,11832.9553,W,1,10,0.8,11.5,M,-34.4,M,,*63
$PYRTM,2024,127.922029244259,19.031676654398
$GPGGA,220742.00,3318.9910,N,11832.9532,W,1,10,0.8,11.9,M,-34.4,M,,*6D
$PYRTM,2024,127.922040819190,19.031688229329
$GPGGA,220743.00,3318.9894,N,11832.9511,W,1,10,0.8,12.5,M,-34.4,M,,*6F
$PYRTM,2024,127.922052393484,19.031699803634
$GPGGA,220744.00,3318.9879,N,11832.9490,W,1,10,0.8,12.7,M,-34.4,M,,*61
$PYRTM,2024,127.922063969363,19.031711379514
$GPGGA,220745.00,3318.9864,N,11832.9469,W,1,10,0.8,12.8,M,-34.4,M,,*65
$PYRTM,2024,127.922075537870,19.031722948009
$GPGGA,220746.00,3318.9850,N,11832.9448,W,1,10,0.8,12.6,M,-34.4,M,,*6C
$PYRTM,2024,127.922087116563,19.031734526701
$GPGGA,220747.00,3318.9837,N,11832.9428,W,1,10,0.8,12.3,M,-34.4,M,,*6F
$PYRTM,2024,127.922098689537,19.031746099676
$GPGGA,220748.00,3318.9824,N,11832.9408,W,1,10,0.8,11.9,M,-34.4,M,,*69
$PYRTM,2024,127.922110264155,19.031757674294
$GPGGA,220749.00,3318.9811,N,11832.9389,W,1,10,0.8,11.5,M,-34.4,M,,*6C
$PYRTM,2024,127.922121838044,19.031769248183
$GPGGA,220750.00,3318.9796,N,11832.9371,W,1,10,0.8,11.4,M,-34.4,M,,*62
$PYRTM,2024,127.922133413171,19.031780823310
$GPGGA,220751.00,3318.9782,N,11832.9352,W,1,10,0.8,11.7,M,-34.4,M,,*64
$PYRTM,2024,127.922144986991,19.031792397130
$GPGGA,220752.00,3318.9768,N,11832.9332,W,1,10,0.8,12.3,M,-34.4,M,,*62
$PYRTM,2024,127.922156575602,19.031803985741
$GPGGA,220753.00,3318.9753,N,11832.9312,W,1,10,0.8,12.8,M,-34.4,M,,*62
$PYRTM,2024,127.922168133912,19.031815544051
$GPGGA,220754.00,3318.9737,N,11832.9291,W,1,10,0.8,13.0,M,-34.4,M,,*64
$PYRTM,2024,127.922179712604,19.031827122743
$GPGGA,220755.00,3318.9722,N,11832.9269,W,1,10,0.8,12.9,M,-34.4,M,,*6E
$PYRTM,2024,127.922187103588,19.031834513738
$GPGGA,220756.00,3318.9709,N,11832.9246,W,1,10,0.8,12.7,M,-34.4,M,,*67
$PYRTM,2024,127.922202857280,19.031850267419
$GPGGA,220757.00,3318.9696,N,11832.9225,W,1,10,0.8,12.5,M,-34.4,M,,*66
$PYRTM,2024,127.922214431493,19.031861841632
$GPGGA,220758.00,3318.9681,N,11832.9207,W,1,10,0.8,12.2,M,-34.4,M,,*68
$PYRTM,2024,127.922226005301,19.031873415440
$GPGGA,220759.00,3318.9666,N,11832.9189,W,1,10,0.8,12.0,M,-34.4,M,,*67
$PYRTM,2024,127.922237574549,19.031884984688
$GPGGA,220800.00,3318.9652,N,11832.9171,W,1,10,0.8,11.8,M,-34.4,M,,*6F
$PYRTM,2024,127.922249153993,19.031896564144
$GPGGA,220801.00,3318.9640,N,11832.9151,W,1,10,0.8,11.7,M,-34.4,M,,*60
$PYRTM,2024,127.922260727373,19.031908137512
$GPGGA,220802.00,3318.9626,N,11832.9131,W,1,10,0.8,11.8,M,-34.4,M,,*6A
$PYRTM,2024,127.922268121771,19.031915531910
$GPGGA,220803.00,3318.9611,N,11832.9112,W,1,10,0.8,12.1,M,-34.4,M,,*64
$PYRTM,2024,127.922286654595,19.031934064745
$GPGGA,220804.00,3318.9595,N,11832.9094,W,1,10,0.8,12.6,M,-34.4,M,,*64
$PYRTM,2024,127.922295450035,19.031942860174
$GPGGA,220805.00,3318.9578,N,11832.9076,W,1,10,0.8,13.0,M,-34.4,M,,*6D
$PYRTM,2024,127.922302845995,19.031950256134
$GPGGA,220806.00,3318.9563,N,11832.9056,W,1,10,0.8,13.0,M,-34.4,M,,*66
$PYRTM,2024,127.922318607743,19.031966017882
$GPGGA,220807.00,3318.9550,N,11832.9034,W,1,10,0.8,13.0,M,-34.4,M,,*63
$PYRTM,2024,127.922330172859,19.031977582998
$GPGGA,220808.00,3318.9538,N,11832.9012,W,1,10,0.8,12.8,M,-34.4,M,,*6F
$PYRTM,2024,127.922341750162,19.031989160301
$GPGGA,220809.00,3318.9524,N,11832.8993,W,1,10,0.8,12.5,M,-34.4,M,,*6F
$PYRTM,2024,127.922353320417,19.032000730556
$GPGGA,220810.00,3318.9508,N,11832.8975,W,1,10,0.8,12.3,M,-34.4,M,,*67
$PYRTM,2024,127.922360715521,19.032008125648
$GPGGA,220811.00,3318.9492,N,11832.8958,W,1,10,0.8,12.3,M,-34.4,M,,*6B
$PYRTM,2024,127.922376464236,19.032023874375
$GPGGA,220812.00,3318.9478,N,11832.8939,W,1,10,0.8,12.4,M,-34.4,M,,*6C
$PYRTM,2024,127.922383865301,19.032031275451
$GPGGA,220813.00,3318.9464,N,11832.8919,W,1,10,0.8,12.5,M,-34.4,M,,*63
$PYRTM,2024,127.922402395394,19.032049805532
$GPGGA,220814.00,3318.9451,N,11832.8898,W,1,10,0.8,12.6,M,-34.4,M,,*69
$PYRTM,2024,127.922413969444,19.032061379583
$GPGGA,220815.00,3318.9435,N,11832.8879,W,1,10,0.8,12.7,M,-34.4,M,,*64
$PYRTM,2024,127.922422766192,19.032070176331
$GPGGA,220816.00,3318.9420,N,11832.8860,W,1,10,0.8,12.7,M,-34.4,M,,*6B
$PYRTM,2024,127.922430161597,19.032077571736
$GPGGA,220817.00,3318.9405,N,11832.8840,W,1,10,0.8,12.7,M,-34.4,M,,*6F
$PYRTM,2024,127.922445909213,19.032093319352
$GPGGA,220818.00,3318.9392,N,11832.8819,W,1,10,0.8,12.7,M,-34.4,M,,*65
$PYRTM,2024,127.922457489803,19.032104899942
$GPGGA,220819.00,3318.9379,N,11832.8799,W,1,10,0.8,12.6,M,-34.4,M,,*67
$PYRTM,2024,127.922469063137,19.032116473275
$GPGGA,220820.00,3318.9364,N,11832.8779,W,1,10,0.8,12.6,M,-34.4,M,,*6F
$PYRTM,2024,127.922480638125,19.032128048264
$GPGGA,220821.00,3318.9348,N,11832.8760,W,1,10,0.8,12.6,M,-34.4,M,,*68
$PYRTM,2024,127.922492210822,19.032139620961
$GPGGA,220822.00,3318.9333,N,11832.8741,W,1,10,0.8,12.6,M,-34.4,M,,*64
$PYRTM,2024,127.922503788634,19.032151198785
$GPGGA,220823.00,3318.9319,N,11832.8721,W,1,10,0.8,12.6,M,-34.4,M,,*6B
$PYRTM,2024,127.922511180868,19.032158591007
$GPGGA,220824.00,3318.9305,N,11832.8701,W,1,10,0.8,12.5,M,-34.4,M,,*60
$PYRTM,2024,127.922526932917,19.032174343056
$GPGGA,220825.00,3318.9291,N,11832.8680,W,1,10,0.8,12.5,M,-34.4,M,,*65
$PYRTM,2024,127.922538508380,19.032185918519
$GPGGA,220826.00,3318.9276,N,11832.8661,W,1,10,0.8,12.5,M,-34.4,M,,*60
$PYRTM,2024,127.922550082222,19.032197492361
$GPGGA,220827.00,3318.9261,N,11832.8642,W,1,10,0.8,12.5,M,-34.4,M,,*66
$PYRTM,2024,127.922561656238,19.032209066377
$GPGGA,220828.00,3318.9246,N,11832.8623,W,1,10,0.8,12.5,M,-34.4,M,,*6B
$PYRTM,2024,127.922569050972,19.032216461111
$GPGGA,220829.00,3318.9231,N,11832.8602,W,1,10,0.8,12.4,M,-34.4,M,,*68
$PYRTM,2024,127.922584804757,19.032232214896
$GPGGA,220830.00,3318.9217,N,11832.8582,W,1,10,0.8,12.5,M,-34.4,M,,*6E
$PYRTM,2024,127.922596380359,19.032243790498
$GPGGA,220831.00,3318.9202,N,11832.8562,W,1,10,0.8,12.7,M,-34.4,M,,*67
$PYRTM,2024,127.922607952060,19.032255362199
$GPGGA,220832.00,3318.9187,N,11832.8542,W,1,10,0.8,12.9,M,-34.4,M,,*66
$PYRTM,2024,127.922619528148,19.032266938287
$GPGGA,220833.00,3318.9171,N,11832.8521,W,1,10,0.8,12.8,M,-34.4,M,,*6A
$PYRTM,2024,127.922626921470,19.032274331609
$GPGGA,220834.00,3318.9156,N,11832.8501,W,1,10,0.8,12.7,M,-34.4,M,,*65
$PYRTM,2024,127.922645453507,19.032292863646
$GPGGA,220835.00,3318.9141,N,11832.8480,W,1,10,0.8,12.7,M,-34.4,M,,*6A
$PYRTM,2024,127.922654249954,19.032301660093
$GPGGA,220836.00,3318.9127,N,11832.8460,W,1,10,0.8,12.8,M,-34.4,M,,*68
