$PYRTM,2024,126.083336994502,17.192984404653
$GPGGA,015959.00,3437.1749,N,12124.3274,W,1,08,1.3,11.4,M,-33.6,M,,*64
$PYRTM,2024,126.083348580556,17.192995990694
$GPGGA,020000.00,3437.1740,N,12124.3251,W,1,08,1.3,11.7,M,-33.6,M,,*6A
$PYRTM,2024,126.083355974826,17.193003384954
$GPGGA,020001.00,3437.1731,N,12124.3227,W,1,08,1.3,11.8,M,-33.6,M,,*63
$PYRTM,2024,126.083371728877,17.193019139016
$GPGGA,020002.00,3437.1720,N,12124.3204,W,1,08,1.3,11.7,M,-33.6,M,,*6E
$PYRTM,2024,126.083383291516,17.193030701655
$GPGGA,020003.00,3437.1705,N,12124.3181,W,1,08,1.3,11.5,M,-33.6,M,,*64
$PYRTM,2024,126.083394877870,17.193042288634
$GPGGA,020004.00,3437.1691,N,12124.3159,W,1,08,1.3,11.4,M,-33.6,M,,*6B
$PYRTM,2024,126.083402272002,17.193049682141
$GPGGA,020005.00,3437.1679,N,12124.3133,W,1,08,1.3,11.5,M,-33.6,M,,*61
$PYRTM,2024,126.083418040810,17.193065450949
$GPGGA,020006.00,3437.1671,N,12124.3106,W,1,08,1.3,11.9,M,-33.6,M,,*60
$PYRTM,2024,126.083429586933,17.193076997083
$GPGGA,020007.00,3437.1661,N,12124.3079,W,1,08,1.0,12.2,M,-33.6,M,,*62
$PYRTM,2024,126.083441292535,17.193088702674
$GPGGA,020008.00,3437.1647,N,12124.3056,W,1,08,1.3,12.3,M,-33.6,M,,*66
$PYRTM,2024,126.083452734329,17.193100144468
$GPGGA,020009.00,3437.1630,N,12124.3034,W,1,08,1.3,12.2,M,-33.6,M,,*62
$PYRTM,2024,126.083464321933,17.193111732072
$GPGGA,020010.00,3437.1615,N,12124.3012,W,1,08,1.0,12.0,M,-33.6,M,,*68
$PYRTM,2024,126.083475883391,17.193123293530
$GPGGA,020011.00,3437.1604,N,12124.2988,W,1,08,1.0,11.8,M,-33.6,M,,*69
$PYRTM,2024,126.083487469352,17.193134879491
$GPGGA,020012.00,3437.1596,N,12124.2962,W,1,08,1.0,11.8,M,-33.6,M,,*66
$PYRTM,2024,126.083499032361,17.193146442512
$GPGGA,020013.00,3437.1586,N,12124.2939,W,1,08,1.0,11.8,M,-33.6,M,,*68
$PYRTM,2024,126.083506441308,17.193153851458
$GPGGA,020014.00,3437.1573,N,12124.2917,W,1,08,1.0,11.9,M,-33.6,M,,*68
$PYRTM,2024,126.083518128113,17.193165538252
$GPGGA,020015.00,3437.1560,N,12124.2895,W,1,08,1.0,12.0,M,-33.6,M,,*6A
$PYRTM,2024,126.083533768576,17.193181178715
$GPGGA,020016.00,3437.1548,N,12124.2871,W,1,08,1.0,11.9,M,-33.6,M,,*63
$PYRTM,2024,126.083545330150,17.193192740289
$GPGGA,020017.00,3437.1535,N,12124.2847,W,1,08,1.0,11.7,M,-33.6,M,,*63
$PYRTM,2024,126.083556919236,17.193204329375
$GPGGA,020018.00,3437.1523,N,12124.2822,W,1,08,1.0,11.8,M,-33.6,M,,*67
$PYRTM,2024,126.083568477303,17.193215887442
$GPGGA,020019.00,3437.1511,N,12124.2797,W,1,08,1.0,12.0,M,-33.6,M,,*6D
$PYRTM,2024,126.083580066574,17.193227476713
$GPGGA,020020.00,3437.1498,N,12124.2773,W,1,08,1.0,12.0,M,-33.6,M,,*6D
$PYRTM,2024,126.083591624491,17.193239034641
$GPGGA,020021.00,3437.1485,N,12124.2750,W,1,08,1.0,11.8,M,-33.6,M,,*6A
$PYRTM,2024,126.083599032292,17.193246442431
$GPGGA,020022.00,3437.1470,N,12124.2727,W,1,08,1.0,11.6,M,-33.6,M,,*6D
$PYRTM,2024,126.083614773866,17.193262184005
$GPGGA,020023.00,3437.1457,N,12124.2703,W,1,08,1.0,11.4,M,-33.6,M,,*6D
$PYRTM,2024,126.083626359873,17.193273770012
$GPGGA,020024.00,3437.1446,N,12124.2678,W,1,08,1.0,11.5,M,-33.6,M,,*66
$PYRTM,2024,126.083633768576,17.193281178715
$GPGGA,020025.00,3437.1437,N,12124.2654,W,1,08,1.0,11.8,M,-33.6,M,,*62
$PYRTM,2024,126.083649509213,17.193296919352
$GPGGA,020026.00,3437.1427,N,12124.2630,W,1,08,1.0,11.8,M,-33.6,M,,*62
$PYRTM,2024,126.083656915845,17.193304325984
$GPGGA,020027.00,3437.1414,N,12124.2607,W,1,08,1.0,11.5,M,-33.6,M,,*6A
$PYRTM,2024,126.083675435833,17.193322845972
$GPGGA,020028.00,3437.1399,N,12124.2585,W,1,08,1.0,11.2,M,-33.6,M,,*69
$PYRTM,2024,126.083684217674,17.193331627813
$GPGGA,020029.00,3437.1384,N,12124.2562,W,1,08,1.0,11.2,M,-33.6,M,,*6D
$PYRTM,2024,126.083695804664,17.193343214803
$GPGGA,020030.00,3437.1372,N,12124.2538,W,1,08,1.0,11.6,M,-33.6,M,,*67
$PYRTM,2024,126.083707365752,17.193354775903
$GPGGA,020031.00,3437.1363,N,12124.2513,W,1,08,1.0,12.0,M,-33.6,M,,*6A
$PYRTM,2024,126.083718954120,17.193366364259
$GPGGA,020032.00,3437.1351,N,12124.2488,W,1,08,1.0,11.9,M,-33.6,M,,*61
$PYRTM,2024,126.083726348426,17.193373758565
$GPGGA,020033.00,3437.1337,N,12124.2465,W,1,08,1.0,11.6,M,-33.6,M,,*6C
$PYRTM,2024,126.083744878796,17.193392288935
$GPGGA,020034.00,3437.1322,N,12124.2442,W,1,08,1.0,11.3,M,-33.6,M,,*6F
$PYRTM,2024,126.083756440856,17.193403850995
$GPGGA,020035.00,3437.1311,N,12124.2418,W,1,08,1.0,11.2,M,-33.6,M,,*60
$PYRTM,2024,126.083765252593,17.193412662731
$GPGGA,020036.00,3437.1301,N,12124.2392,W,1,08,1.3,11.4,M,-33.6,M,,*62
$PYRTM,2024,126.083772644306,17.193420054456
$GPGGA,020037.00,3437.1291,N,12124.2368,W,1,08,1.3,11.4,M,-33.6,M,,*6E
$PYRTM,2024,126.083788398634,17.193435808773
$GPGGA,020038.00,3437.1279,N,12124.2344,W,1,08,1.0,11.4,M,-33.6,M,,*6A
$PYRTM,2024,126.083799960613,17.193447370752
$GPGGA,020039.00,3437.1264,N,12124.2322,W,1,08,1.3,11.5,M,-33.6,M,,*65
$PYRTM,2024,126.083807367025,17.193454777176
$GPGGA,020040.00,3437.1252,N,12124.2299,W,1,08,1.3,11.6,M,-33.6,M,,*6C
$PYRTM,2024,126.083823107593,17.193470517731
$GPGGA,020041.00,3437.1241,N,12124.2276,W,1,08,1.3,11.5,M,-33.6,M,,*6D
$PYRTM,2024,126.083834690498,17.193482100648
$GPGGA,020042.00,3437.1229,N,12124.2252,W,1,08,1.3,11.3,M,-33.6,M,,*60
$PYRTM,2024,126.083842089514,17.193489499653
$GPGGA,020043.00,3437.1217,N,12124.2229,W,1,08,1.3,11.0,M,-33.6,M,,*63
$PYRTM,2024,126.083857842963,17.193505253102
$GPGGA,020044.00,3437.1203,N,12124.2207,W,1,08,1.3,10.8,M,-33.6,M,,*64
$PYRTM,2024,126.083869404433,17.193516814572
$GPGGA,020045.00,3437.1191,N,12124.2183,W,1,08,1.3,10.8,M,-33.6,M,,*62
$PYRTM,2024,126.083880991042,17.193528401181
$GPGGA,020046.00,3437.1181,N,12124.2157,W,1,08,1.3,10.9,M,-33.6,M,,*68
$PYRTM,2024,126.083892552326,17.193539962465
$GPGGA,020047.00,3437.1169,N,12124.2131,W,1,08,1.3,11.0,M,-33.6,M,,*67
$PYRTM,2024,126.083904152951,17.193551563090
$GPGGA,020048.00,3437.1156,N,12124.2107,W,1,08,1.3,11.3,M,-33.6,M,,*62
$PYRTM,2024,126.083911533808,17.193558943947
$GPGGA,020049.00,3437.1141,N,12124.2084,W,1,08,1.3,11.6,M,-33.6,M,,*6A
$PYRTM,2024,126.083927290799,17.193574700937
$GPGGA,020050.00,3437.1127,N,12124.2060,W,1,08,1.3,11.8,M,-33.6,M,,*66
$PYRTM,2024,126.083938847662,17.193586257801
$GPGGA,020051.00,3437.1115,N,12124.2036,W,1,08,1.3,11.7,M,-33.6,M,,*6A
$PYRTM,2024,126.083946256308,17.193593666447
$GPGGA,020052.00,3437.1104,N,12124.2012,W,1,08,1.3,11.4,M,-33.6,M,,*6C
$PYRTM,2024,126.083961997049,17.193609407188
$GPGGA,020053.00,3437.1092,N,12124.1990,W,1,08,1.3,11.1,M,-33.6,M,,*66
$PYRTM,2024,126.083973584954,17.193620995093
$GPGGA,020054.00,3437.1080,N,12124.1968,W,1,08,1.3,10.9,M,-33.6,M,,*6C
$PYRTM,2024,126.083985146019,17.193632556157
$GPGGA,020055.00,3437.1068,N,12124.1945,W,1,08,1.3,10.7,M,-33.6,M,,*6A
$PYRTM,2024,126.083996727616,17.193644137755
$GPGGA,020056.00,3437.1055,N,12124.1922,W,1,08,1.3,10.6,M,-33.6,M,,*67
$PYRTM,2024,126.084008294225,17.193655704363
$GPGGA,020057.00,3437.1043,N,12124.1898,W,1,08,1.3,10.8,M,-33.6,M,,*6F
$PYRTM,2024,126.084015700220,17.193663110359
$GPGGA,020058.00,3437.1029,N,12124.1873,W,1,08,1.3,11.0,M,-33.6,M,,*60
$PYRTM,2024,126.084034221192,17.193681631331
$GPGGA,020059.00,3437.1017,N,12124.1848,W,1,08,1.3,11.3,M,-33.6,M,,*67
$PYRTM,2024,126.084043029769,17.193690439907
$GPGGA,020100.00,3437.1005,N,12124.1822,W,1,08,1.3,11.5,M,-33.6,M,,*63
$PYRTM,2024,126.084050423900,17.193697834039
$GPGGA,020101.00,3437.0992,N,12124.1797,W,1,08,1.3,11.7,M,-33.6,M,,*67
$PYRTM,2024,126.084066192500,17.193713602639
$GPGGA,020102.00,3437.0977,N,12124.1773,W,1,08,1.3,11.7,M,-33.6,M,,*65
$PYRTM,2024,126.084077738738,17.193725148877
$GPGGA,020103.00,3437.0964,N,12124.1749,W,1,08,1.3,11.8,M,-33.6,M,,*60
$PYRTM,2024,126.084089329815,17.193736739954
$GPGGA,020104.00,3437.0953,N,12124.1726,W,1,08,1.3,11.7,M,-33.6,M,,*65
$PYRTM,2024,126.084100886991,17.193748297130
$GPGGA,020105.00,3437.0945,N,12124.1702,W,1,08,1.3,11.3,M,-33.6,M,,*61
$PYRTM,2024,126.084108295440,17.193755705579
$GPGGA,020106.00,3437.0934,N,12124.1679,W,1,08,1.3,10.8,M,-33.6,M,,*63
$PYRTM,2024,126.084124034907,17.193771445046
$GPGGA,020107.00,3437.0920,N,12124.1658,W,1,08,1.3,10.4,M,-33.6,M,,*68
$PYRTM,2024,126.084135622882,17.193783033021
$GPGGA,020108.00,3437.0906,N,12124.1637,W,1,08,1.3,10.1,M,-33.6,M,,*6F
$PYRTM,2024,126.084147184097,17.193794594248
$GPGGA,020109.00,3437.0895,N,12124.1613,W,1,08,1.3,10.5,M,-33.6,M,,*67
$PYRTM,2024,126.084154591181,17.193802001319
$GPGGA,020110.00,3437.0885,N,12124.1587,W,1,08,1.3,10.3,M,-33.6,M,,*66
$PYRTM,2024,126.084170332685,17.193817742824
$GPGGA,020111.00,3437.0872,N,12124.1562,W,1,08,1.3,10.9,M,-33.6,M,,*6E
$PYRTM,2024,126.084181920336,17.193829330475
$GPGGA,020112.00,3437.0857,N,12124.1538,W,1,08,1.3,11.4,M,-33.6,M,,*69
$PYRTM,2024,126.084189312963,17.193836723102
$GPGGA,020113.00,3437.0842,N,12124.1513,W,1,08,1.3,11.8,M,-33.6,M,,*69
$PYRTM,2024,126.084205066505,17.193852476644
$GPGGA,020114.00,3437.0829,N,12124.1488,W,1,08,1.3,11.9,M,-33.6,M,,*61
$PYRTM,2024,126.084216627477,17.193864037616
$GPGGA,020115.00,3437.0817,N,12124.1463,W,1,08,1.3,11.8,M,-33.6,M,,*69
$PYRTM,2024,126.084224036493,17.193871446632
$GPGGA,020116.00,3437.0805,N,12124.1438,W,1,08,1.3,11.4,M,-33.6,M,,*6B
$PYRTM,2024,126.084239776829,17.193887186968
$GPGGA,020117.00,3437.0791,N,12124.1416,W,1,08,1.3,11.1,M,-33.6,M,,*61
$PYRTM,2024,126.084251366725,17.193898776863
$GPGGA,020118.00,3437.0778,N,12124.1395,W,1,08,1.3,11.0,M,-33.6,M,,*64
$PYRTM,2024,126.084262924850,17.193910334988
$GPGGA,020119.00,3437.0768,N,12124.1373,W,1,08,1.3,10.9,M,-33.6,M,,*64
$PYRTM,2024,126.084274526065,17.193921936204
$GPGGA,020120.00,3437.0759,N,12124.1349,W,1,08,1.3,10.7,M,-33.6,M,,*6B
$PYRTM,2024,126.084286072986,17.193933483125
$GPGGA,020121.00,3437.0749,N,12124.1325,W,1,08,1.3,10.4,M,-33.6,M,,*62
$PYRTM,2024,126.084297661319,17.193945071458
$GPGGA,020122.00,3437.0736,N,12124.1301,W,1,08,1.3,10.6,M,-33.6,M,,*6D
$PYRTM,2024,126.084309223009,17.193956633148
$GPGGA,020123.00,3437.0719,N,12124.1279,W,1,08,1.3,11.5,M,-33.6,M,,*6D
$PYRTM,2024,126.084320808646,17.193968218785
$GPGGA,020124.00,3437.0703,N,12124.1254,W,1,08,1.3,12.0,M,-33.6,M,,*68
$PYRTM,2024,126.084328218287,17.193975628438
$GPGGA,020125.00,3437.0689,N,12124.1227,W,1,08,1.3,12.6,M,-33.6,M,,*68
$PYRTM,2024,126.084343958449,17.193991368588
$GPGGA,020126.00,3437.0677,N,12124.1199,W,1,08,1.3,13.0,M,-33.6,M,,*6B
$PYRTM,2024,126.084355519028,17.194002929167
$GPGGA,020127.00,3437.0664,N,12124.1174,W,1,08,1.3,12.9,M,-33.6,M,,*63
$PYRTM,2024,126.084362925706,17.194010335845
$GPGGA,020128.00,3437.0650,N,12124.1151,W,1,08,1.3,12.4,M,-33.6,M,,*61
$PYRTM,2024,126.084374616887,17.194022027025
$GPGGA,020129.00,3437.0636,N,12124.1129,W,1,08,1.3,11.4,M,-33.6,M,,*6C
$PYRTM,2024,126.084393030810,17.194040440949
$GPGGA,020130.00,3437.0623,N,12124.1105,W,1,08,1.3,10.7,M,-33.6,M,,*6C
$PYRTM,2024,126.084401815301,17.194049225440
$GPGGA,020131.00,3437.0613,N,12124.1081,W,1,08,1.3,10.5,M,-33.6,M,,*61
$PYRTM,2024,126.084413404688,17.194060814826
$GPGGA,020132.00,3437.0603,N,12124.1059,W,1,08,1.3,10.6,M,-33.6,M,,*65
$PYRTM,2024,126.084424963438,17.194072373588
$GPGGA,020133.00,3437.0592,N,12124.1037,W,1,08,1.3,10.8,M,-33.6,M,,*69
$PYRTM,2024,126.084436550208,17.194083960359
$GPGGA,020134.00,3437.0580,N,12124.1013,W,1,08,1.3,10.8,M,-33.6,M,,*6B
$PYRTM,2024,126.084448111157,17.194095521516
$GPGGA,020135.00,3437.0567,N,12124.0989,W,1,08,1.3,10.9,M,-33.6,M,,*69
$PYRTM,2024,126.084459697986,17.194107108125
$GPGGA,020136.00,3437.0553,N,12124.0965,W,1,08,1.3,11.2,M,-33.6,M,,*65
$PYRTM,2024,126.084471259942,17.194118670081
$GPGGA,020137.00,3437.0539,N,12124.0939,W,1,08,1.3,11.5,M,-33.6,M,,*66
$PYRTM,2024,126.084478669317,17.194126079456
$GPGGA,020138.00,3437.0527,N,12124.0913,W,1,08,1.3,11.6,M,-33.6,M,,*6D
$PYRTM,2024,126.084494409317,17.194141819468
$GPGGA,020139.00,3437.0513,N,12124.0886,W,1,08,1.3,11.5,M,-33.6,M,,*65
$PYRTM,2024,126.084505995174,17.194153405313
$GPGGA,020140.00,3437.0499,N,12124.0863,W,1,08,1.3,11.3,M,-33.6,M,,*65
$PYRTM,2024,126.084517555741,17.194164965880
$GPGGA,020141.00,3437.0486,N,12124.0839,W,1,08,1.3,11.0,M,-33.6,M,,*66
$PYRTM,2024,126.084529143183,17.194176553322
$GPGGA,020142.00,3437.0476,N,12124.0815,W,1,08,1.3,10.5,M,-33.6,M,,*60
$PYRTM,2024,126.084540707674,17.194188117812
$GPGGA,020143.00,3437.0465,N,12124.0792,W,1,08,1.3,10.0,M,-33.6,M,,*66
$PYRTM,2024,126.084552175938,17.194199586076
$GPGGA,020144.00,3437.0452,N,12124.0770,W,1,08,1.3,9.7,M,-33.6,M,,*56
$PYRTM,2024,126.084563745069,17.194211155208
$GPGGA,020145.00,3437.0439,N,12124.0748,W,1,08,1.3,9.7,M,-33.6,M,,*51
$PYRTM,2024,126.084575454884,17.194222865023
$GPGGA,020146.00,3437.0426,N,12124.0725,W,1,08,1.3,10.0,M,-33.6,M,,*68
$PYRTM,2024,126.084587001725,17.194234411863
$GPGGA,020147.00,3437.0415,N,12124.0700,W,1,08,1.3,10.4,M,-33.6,M,,*6A
$PYRTM,2024,126.084598591123,17.194246001262
$GPGGA,020148.00,3437.0405,N,12124.0673,W,1,08,1.3,10.8,M,-33.6,M,,*6D
$PYRTM,2024,126.084610149329,17.194257559468
$GPGGA,020149.00,3437.0394,N,12124.0647,W,1,08,1.3,11.0,M,-33.6,M,,*6D
$PYRTM,2024,126.084621735891,17.194269146030
$GPGGA,020150.00,3437.0378,N,12124.0624,W,1,08,1.3,11.2,M,-33.6,M,,*60
$PYRTM,2024,126.084633297639,17.194280707778
$GPGGA,020151.00,3437.0361,N,12124.0602,W,1,08,1.3,11.2,M,-33.6,M,,*6D
$PYRTM,2024,126.084644885579,17.194292295718
$GPGGA,020152.00,3437.0346,N,12124.0579,W,1,08,1.3,11.0,M,-33.6,M,,*66
$PYRTM,2024,126.084656445613,17.194303855752
$GPGGA,020153.00,3437.0333,N,12124.0556,W,1,08,1.3,10.8,M,-33.6,M,,*61
$PYRTM,2024,126.084668033935,17.194315444074
$GPGGA,020154.00,3437.0321,N,12124.0531,W,1,08,1.3,10.7,M,-33.6,M,,*6B
$PYRTM,2024,126.084679595382,17.194327005521
$GPGGA,020155.00,3437.0309,N,12124.0506,W,1,08,1.3,10.7,M,-33.6,M,,*64
$PYRTM,2024,126.084691183252,17.194338593391
$GPGGA,020156.00,3437.0298,N,12124.0482,W,1,08,1.3,10.9,M,-33.6,M,,*6D
$PYRTM,2024,126.084702742153,17.194350152292
$GPGGA,020157.00,3437.0287,N,12124.0457,W,1,08,1.3,11.1,M,-33.6,M,,*63
$PYRTM,2024,126.084714343403,17.194361753542
$GPGGA,020158.00,3437.0277,N,12124.0432,W,1,08,1.3,11.2,M,-33.6,M,,*63
$PYRTM,2024,126.084721726157,17.194369136296
$GPGGA,020159.00,3437.0264,N,12124.0408,W,1,08,1.3,11.0,M,-33.6,M,,*6B
$PYRTM,2024,126.084733414583,17.194380824722
$GPGGA,020200.00,3437.0249,N,12124.0386,W,1,08,1.3,10.8,M,-33.6,M,,*63
$PYRTM,2024,126.084751816516,17.194399226655
$GPGGA,020201.00,3437.0234,N,12124.0365,W,1,08,1.3,10.5,M,-33.6,M,,*68
$PYRTM,2024,126.084763400266,17.194410810405
$GPGGA,020202.00,3437.0221,N,12124.0343,W,1,08,1.3,10.2,M,-33.6,M,,*6C
$PYRTM,2024,126.084774966470,17.194422376609
$GPGGA,020203.00,3437.0209,N,12124.0321,W,1,08,1.3,10.1,M,-33.6,M,,*60
$PYRTM,2024,126.084783774676,17.194431184826
$GPGGA,020204.00,3437.0198,N,12124.0297,W,1,08,1.3,10.3,M,-33.6,M,,*62
$PYRTM,2024,126.084795336250,17.194442746389
$GPGGA,020205.00,3437.0185,N,12124.0273,W,1,08,1.3,10.6,M,-33.6,M,,*60
$PYRTM,2024,126.084806925764,17.194454335903
$GPGGA,020206.00,3437.0173,N,12124.0248,W,1,08,1.3,10.9,M,-33.6,M,,*6D
$PYRTM,2024,126.084818483588,17.194465893727
$GPGGA,020207.00,3437.0161,N,12124.0222,W,1,08,1.3,11.2,M,-33.6,M,,*69
$PYRTM,2024,126.084830074641,17.194477484780
$GPGGA,020208.00,3437.0150,N,12124.0198,W,1,08,1.3,11.4,M,-33.6,M,,*60
$PYRTM,2024,126.084841644618,17.194489054757
$GPGGA,020209.00,3437.0139,N,12124.0174,W,1,08,1.3,11.3,M,-33.6,M,,*6B
$PYRTM,2024,126.084853218715,17.194500628854
$GPGGA,020210.00,3437.0127,N,12124.0152,W,1,08,1.3,10.9,M,-33.6,M,,*63
$PYRTM,2024,126.084860629884,17.194508040023
$GPGGA,020211.00,3437.0116,N,12124.0128,W,1,08,1.3,10.4,M,-33.6,M,,*60
$PYRTM,2024,126.084876368935,17.194523779074
$GPGGA,020212.00,3437.0104,N,12124.0105,W,1,08,1.3,10.1,M,-33.6,M,,*6A
$PYRTM,2024,126.084887941030,17.194535351181
$GPGGA,020213.00,3437.0092,N,12124.0081,W,1,08,1.3,10.2,M,-33.6,M,,*6B
$PYRTM,2024,126.084899516296,17.194546926435
$GPGGA,020214.00,3437.0078,N,12124.0058,W,1,08,1.3,10.3,M,-33.6,M,,*6D
$PYRTM,2024,126.084911089225,17.194558499363
$GPGGA,020215.00,3437.0063,N,12124.0035,W,1,08,1.3,10.5,M,-33.6,M,,*6B
$PYRTM,2024,126.084922663623,17.194570073773
$GPGGA,020216.00,3437.0051,N,12124.0012,W,1,08,1.3,10.7,M,-33.6,M,,*6E
$PYRTM,2024,126.084934239120,17.194581649259
$GPGGA,020217.00,3437.0040,N,12123.9988,W,1,08,1.3,10.7,M,-33.6,M,,*6B
$PYRTM,2024,126.084945812581,17.194593222720
$GPGGA,020218.00,3437.0031,N,12123.9964,W,1,08,1.3,10.4,M,-33.6,M,,*63
$PYRTM,2024,126.084957386667,17.194604796817
$GPGGA,020219.00,3437.0018,N,12123.9941,W,1,08,1.3,10.0,M,-33.6,M,,*6A
$PYRTM,2024,126.084968852859,17.194616263009
$GPGGA,020220.00,3437.0004,N,12123.9920,W,1,08,1.3,9.7,M,-33.6,M,,*55
$PYRTM,2024,126.084980418738,17.194627828877
$GPGGA,020221.00,3436.9991,N,12123.9898,W,1,08,1.3,9.9,M,-33.6,M,,*55
$PYRTM,2024,126.084992113299,17.194639523438
$GPGGA,020222.00,3436.9980,N,12123.9875,W,1,08,1.3,10.4,M,-33.6,M,,*60
$PYRTM,2024,126.085003683426,17.194651093565
$GPGGA,020223.00,3436.9970,N,12123.9850,W,1,08,1.3,10.8,M,-33.6,M,,*65
$PYRTM,2024,126.085015257315,17.194662667454
$GPGGA,020224.00,3436.9958,N,12123.9826,W,1,08,1.3,10.9,M,-33.6,M,,*68
$PYRTM,2024,126.085026830972,17.194674241111
$GPGGA,020225.00,3436.9946,N,12123.9802,W,1,08,1.3,10.9,M,-33.6,M,,*60
$PYRTM,2024,126.085038406007,17.194685816146
$GPGGA,020226.00,3436.9933,N,12123.9779,W,1,08,1.3,10.5,M,-33.6,M,,*6E
$PYRTM,2024,126.085049974317,17.194697384456
$GPGGA,020227.00,3436.9920,N,12123.9756,W,1,08,1.3,10.0,M,-33.6,M,,*65
$PYRTM,2024,126.085061437338,17.194708847477
$GPGGA,020228.00,3436.9907,N,12123.9733,W,1,08,1.3,9.7,M,-33.6,M,,*53
$PYRTM,2024,126.085073008495,17.194720418646
$GPGGA,020229.00,3436.9897,N,12123.9710,W,1,08,1.3,9.8,M,-33.6,M,,*54
$PYRTM,2024,126.085084703843,17.194732113981
$GPGGA,020230.00,3436.9887,N,12123.9687,W,1,08,1.3,10.1,M,-33.6,M,,*63
$PYRTM,2024,126.085092096933,17.194739507072
$GPGGA,020231.00,3436.9876,N,12123.9663,W,1,08,1.3,10.2,M,-33.6,M,,*65
$PYRTM,2024,126.085110628681,17.194758038819
$GPGGA,020232.00,3436.9862,N,12123.9640,W,1,08,1.3,10.3,M,-33.6,M,,*63
$PYRTM,2024,126.085119419120,17.194766829259
$GPGGA,020233.00,3436.9847,N,12123.9617,W,1,08,1.3,10.4,M,-33.6,M,,*60
$PYRTM,2024,126.085131001493,17.194778411632
$GPGGA,020234.00,3436.9835,N,12123.9592,W,1,08,1.3,10.6,M,-33.6,M,,*6E
$PYRTM,2024,126.085142567685,17.194789977824
$GPGGA,020235.00,3436.9823,N,12123.9566,W,1,08,1.3,10.7,M,-33.6,M,,*62
$PYRTM,2024,126.085154149606,17.194801559757
$GPGGA,020236.00,3436.9812,N,12123.9542,W,1,08,1.3,10.8,M,-33.6,M,,*6A
$PYRTM,2024,126.085165721493,17.194813131644
$GPGGA,020237.00,3436.9799,N,12123.9518,W,1,08,1.3,10.8,M,-33.6,M,,*68
$PYRTM,2024,126.085177295023,17.194824705162
$GPGGA,020238.00,3436.9787,N,12123.9494,W,1,08,1.3,10.5,M,-33.6,M,,*60
$PYRTM,2024,126.085188866493,17.194836276632
$GPGGA,020239.00,3436.9775,N,12123.9470,W,1,08,1.3,10.2,M,-33.6,M,,*61
$PYRTM,2024,126.085200327870,17.194847738009
$GPGGA,020240.00,3436.9764,N,12123.9447,W,1,08,1.3,9.9,M,-33.6,M,,*58
$PYRTM,2024,126.085207740532,17.194855150671
$GPGGA,020241.00,3436.9752,N,12123.9424,W,1,08,1.3,10.0,M,-33.6,M,,*68
$PYRTM,2024,126.085223592801,17.194871002940
$GPGGA,020242.00,3436.9740,N,12123.9401,W,1,08,1.3,10.3,M,-33.6,M,,*6C
$PYRTM,2024,126.085230985949,17.194878396088
$GPGGA,020243.00,3436.9729,N,12123.9378,W,1,08,1.3,10.6,M,-33.6,M,,*6E
$PYRTM,2024,126.085246739178,17.194894149317
$GPGGA,020244.00,3436.9718,N,12123.9353,W,1,08,1.3,10.7,M,-33.6,M,,*63
$PYRTM,2024,126.085258314167,17.194905724306
$GPGGA,020245.00,3436.9704,N,12123.9329,W,1,08,1.3,10.8,M,-33.6,M,,*6D
$PYRTM,2024,126.085269887975,17.194917298113
$GPGGA,020246.00,3436.9691,N,12123.9305,W,1,08,1.3,10.8,M,-33.6,M,,*6D
$PYRTM,2024,126.085281462234,17.194928872373
$GPGGA,020247.00,3436.9679,N,12123.9279,W,1,08,1.3,10.8,M,-33.6,M,,*60
$PYRTM,2024,126.085293039236,17.194940449375
$GPGGA,020248.00,3436.9667,N,12123.9253,W,1,08,1.3,10.9,M,-33.6,M,,*69
$PYRTM,2024,126.085304606516,17.194952016655
$GPGGA,020249.00,3436.9654,N,12123.9227,W,1,08,1.3,11.0,M,-33.6,M,,*63
$PYRTM,2024,126.085312006319,17.194959416458
$GPGGA,020250.00,3436.9641,N,12123.9203,W,1,08,1.3,10.9,M,-33.6,M,,*61
$PYRTM,2024,126.085327759433,17.194975169572
$GPGGA,020251.00,3436.9628,N,12123.9179,W,1,08,1.3,10.6,M,-33.6,M,,*6E
$PYRTM,2024,126.085339333924,17.194986744063
$GPGGA,020252.00,3436.9615,N,12123.9155,W,1,08,1.3,10.4,M,-33.6,M,,*6F
$PYRTM,2024,126.085346741840,17.194994151979
$GPGGA,020253.00,3436.9603,N,12123.9132,W,1,08,1.0,10.2,M,-33.6,M,,*6D
$PYRTM,2024,126.085362481887,17.195009892037
$GPGGA,020254.00,3436.9590,N,12123.9109,W,1,08,1.3,10.0,M,-33.6,M,,*6A
$PYRTM,2024,126.085373935139,17.195021345278
$GPGGA,020255.00,3436.9578,N,12123.9086,W,1,08,1.3,9.9,M,-33.6,M,,*5A
$PYRTM,2024,126.085381334780,17.195028744919
$GPGGA,020256.00,3436.9566,N,12123.9063,W,1,08,1.0,10.0,M,-33.6,M,,*6F
$PYRTM,2024,126.085397199977,17.195044610116
$GPGGA,020257.00,3436.9554,N,12123.9039,W,1,08,1.0,10.1,M,-33.6,M,,*61
$PYRTM,2024,126.085408777650,17.195056187789
$GPGGA,020258.00,3436.9541,N,12123.9014,W,1,08,1.0,10.3,M,-33.6,M,,*67
$PYRTM,2024,126.085420351493,17.195067761632
$GPGGA,020259.00,3436.9528,N,12123.8989,W,1,08,1.3,10.5,M,-33.6,M,,*60
$PYRTM,2024,126.085431925984,17.195079336123
$GPGGA,020300.00,3436.9515,N,12123.8964,W,1,08,1.0,10.6,M,-33.6,M,,*60
$PYRTM,2024,126.085443495278,17.195090905417
$GPGGA,020301.00,3436.9501,N,12123.8938,W,1,08,1.0,10.5,M,-33.6,M,,*6E
$PYRTM,2024,126.085450895498,17.195098305637
$GPGGA,020302.00,3436.9488,N,12123.8913,W,1,08,1.0,10.5,M,-33.6,M,,*64
$PYRTM,2024,126.085469426331,17.195116836470
$GPGGA,020303.00,3436.9474,N,12123.8889,W,1,08,1.0,10.5,M,-33.6,M,,*64
$PYRTM,2024,126.085478237396,17.195125647535
$GPGGA,020304.00,3436.9462,N,12123.8866,W,1,08,1.0,10.5,M,-33.6,M,,*65
$PYRTM,2024,126.085485617188,17.195133027326
$GPGGA,020305.00,3436.9450,N,12123.8841,W,1,08,1.0,10.4,M,-33.6,M,,*61
$PYRTM,2024,126.085501373981,17.195148784132
$GPGGA,020306.00,3436.9437,N,12123.8817,W,1,08,1.0,10.1,M,-33.6,M,,*65
$PYRTM,2024,126.085512824734,17.195160234873
$GPGGA,020307.00,3436.9424,N,12123.8792,W,1,08,1.0,9.7,M,-33.6,M,,*5A
$PYRTM,2024,126.085524415116,17.195171825255
$GPGGA,020308.00,3436.9410,N,12123.8768,W,1,08,1.0,9.8,M,-33.6,M,,*58
$PYRTM,2024,126.085536093912,17.195183504062
$GPGGA,020309.00,3436.9399,N,12123.8744,W,1,08,1.0,10.2,M,-33.6,M,,*63
$PYRTM,2024,126.085547667234,17.195195077373
$GPGGA,020310.00,3436.9389,N,12123.8720,W,1,08,1.0,10.7,M,-33.6,M,,*6D
$PYRTM,2024,126.085559242801,17.195206652940
$GPGGA,020311.00,3436.9377,N,12123.8695,W,1,08,1.0,10.8,M,-33.6,M,,*6D
$PYRTM,2024,126.085570811019,17.195218221157
$GPGGA,020312.00,3436.9362,N,12123.8671,W,1,08,1.0,10.5,M,-33.6,M,,*6D
$PYRTM,2024,126.085582390162,17.195229800301
$GPGGA,020313.00,3436.9347,N,12123.8648,W,1,08,1.0,10.0,M,-33.6,M,,*64
$PYRTM,2024,126.085593859630,17.195241269769
$GPGGA,020314.00,3436.9334,N,12123.8624,W,1,08,1.0,9.9,M,-33.6,M,,*5C
$PYRTM,2024,126.085605537650,17.195252947789
$GPGGA,020315.00,3436.9323,N,12123.8600,W,1,08,1.0,10.3,M,-33.6,M,,*6F
$PYRTM,2024,126.085617115104,17.195264525255
$GPGGA,020316.00,3436.9312,N,12123.8576,W,1,08,1.0,10.6,M,-33.6,M,,*69
$PYRTM,2024,126.085628687824,17.195276097975
$GPGGA,020317.00,3436.9300,N,12123.8551,W,1,08,1.0,10.4,M,-33.6,M,,*6C
$PYRTM,2024,126.085640264873,17.195287675012
$GPGGA,020318.00,3436.9286,N,12123.8527,W,1,08,1.0,10.0,M,-33.6,M,,*69
$PYRTM,2024,126.085651715532,17.195299125671
$GPGGA,020319.00,3436.9272,N,12123.8505,W,1,08,1.0,9.8,M,-33.6,M,,*53
$PYRTM,2024,126.085663304398,17.195310714549
$GPGGA,020320.00,3436.9259,N,12123.8484,W,1,08,1.0,9.9,M,-33.6,M,,*59
$PYRTM,2024,126.085674983796,17.195322393947
$GPGGA,020321.00,3436.9248,N,12123.8461,W,1,08,1.0,10.0,M,-33.6,M,,*62
$PYRTM,2024,126.085686453889,17.195333864028
$GPGGA,020322.00,3436.9237,N,12123.8436,W,1,08,1.0,9.8,M,-33.6,M,,*5B
$PYRTM,2024,126.085698015625,17.195345425764
$GPGGA,020323.00,3436.9223,N,12123.8412,W,1,08,1.0,9.8,M,-33.6,M,,*59
$PYRTM,2024,126.085709706678,17.195357116817
$GPGGA,020324.00,3436.9208,N,12123.8389,W,1,08,1.0,10.0,M,-33.6,M,,*62
$PYRTM,2024,126.085721280440,17.195368690579
$GPGGA,020325.00,3436.9195,N,12123.8366,W,1,08,1.0,10.5,M,-33.6,M,,*60
$PYRTM,2024,126.085732856516,17.195380266667
$GPGGA,020326.00,3436.9183,N,12123.8340,W,1,08,1.0,10.5,M,-33.6,M,,*60
$PYRTM,2024,126.085744429051,17.195391839201
$GPGGA,020327.00,3436.9171,N,12123.8313,W,1,08,1.0,10.5,M,-33.6,M,,*6A
$PYRTM,2024,126.085756002986,17.195403413125
$GPGGA,020328.00,3436.9158,N,12123.8289,W,1,08,1.0,10.4,M,-33.6,M,,*6D
$PYRTM,2024,126.085763398391,17.195410808530
$GPGGA,020329.00,3436.9144,N,12123.8265,W,1,08,1.0,10.3,M,-33.6,M,,*64
$PYRTM,2024,126.085779146748,17.195426556887
$GPGGA,020330.00,3436.9130,N,12123.8242,W,1,08,1.0,10.3,M,-33.6,M,,*6A
$PYRTM,2024,126.085790724769,17.195438134907
$GPGGA,020331.00,3436.9118,N,12123.8219,W,1,08,1.0,10.3,M,-33.6,M,,*6F
$PYRTM,2024,126.085802313495,17.195449723634
$GPGGA,020332.00,3436.9107,N,12123.8195,W,1,08,1.0,10.2,M,-33.6,M,,*64
$PYRTM,2024,126.085809585775,17.195456995914
$GPGGA,020333.00,3436.9097,N,12123.8172,W,1,08,1.0,10.0,M,-33.6,M,,*66
$PYRTM,2024,126.085828229363,17.195475639502
$GPGGA,020334.00,3436.9086,N,12123.8149,W,1,08,1.0,9.9,M,-33.6,M,,*58
$PYRTM,2024,126.085836906343,17.195484316481
$GPGGA,020335.00,3436.9074,N,12123.8127,W,1,08,1.0,9.8,M,-33.6,M,,*5D
$PYRTM,2024,126.085848492037,17.195495902176
$GPGGA,020336.00,3436.9061,N,12123.8103,W,1,08,1.0,9.5,M,-33.6,M,,*51
$PYRTM,2024,126.085860054062,17.195507464213
$GPGGA,020337.00,3436.9046,N,12123.8078,W,1,08,1.0,9.5,M,-33.6,M,,*58
$PYRTM,2024,126.085871639896,17.195519050035
$GPGGA,020338.00,3436.9031,N,12123.8054,W,1,08,1.0,9.9,M,-33.6,M,,*55
$PYRTM,2024,126.085883317627,17.195530727766
$GPGGA,020339.00,3436.9018,N,12123.8028,W,1,08,1.0,10.4,M,-33.6,M,,*61
$PYRTM,2024,126.085894893090,17.195542303241
$GPGGA,020340.00,3436.9007,N,12123.8000,W,1,08,1.0,10.6,M,-33.6,M,,*69
$PYRTM,2024,126.085906466875,17.195553877014
$GPGGA,020341.00,3436.8996,N,12123.7973,W,1,08,1.0,10.5,M,-33.6,M,,*69
$PYRTM,2024,126.085918041331,17.195565451470
$GPGGA,020342.00,3436.8980,N,12123.7950,W,1,08,1.0,10.3,M,-33.6,M,,*6A
$PYRTM,2024,126.085929614236,17.195577024375
$GPGGA,020343.00,3436.8962,N,12123.7929,W,1,08,1.0,10.2,M,-33.6,M,,*68
$PYRTM,2024,126.085936893831,17.195584303970
$GPGGA,020344.00,3436.8949,N,12123.7906,W,1,08,1.0,10.2,M,-33.6,M,,*6B
$PYRTM,2024,126.085952757292,17.195600167431
$GPGGA,020345.00,3436.8941,N,12123.7880,W,1,08,1.0,10.2,M,-33.6,M,,*6D
$PYRTM,2024,126.085960041238,17.195607451377
$GPGGA,020346.00,3436.8935,N,12123.7854,W,1,08,1.0,10.1,M,-33.6,M,,*67
$PYRTM,2024,126.085975910521,17.195623320660
$GPGGA,020347.00,3436.8922,N,12123.7831,W,1,08,1.0,10.1,M,-33.6,M,,*63
$PYRTM,2024,126.085987488380,17.195634898519
$GPGGA,020348.00,3436.8905,N,12123.7811,W,1,08,1.0,10.0,M,-33.6,M,,*6A
$PYRTM,2024,126.085998942824,17.195646352975
$GPGGA,020349.00,3436.8889,N,12123.7790,W,1,08,1.0,9.9,M,-33.6,M,,*59
$PYRTM,2024,126.086010527836,17.195657937975
$GPGGA,020350.00,3436.8878,N,12123.7764,W,1,08,1.0,9.8,M,-33.6,M,,*55
$PYRTM,2024,126.086022091921,17.195669502060
$GPGGA,020351.00,3436.8867,N,12123.7736,W,1,08,1.0,9.8,M,-33.6,M,,*5D
$PYRTM,2024,126.086033665741,17.195681075880
$GPGGA,020352.00,3436.8854,N,12123.7710,W,1,08,1.0,9.9,M,-33.6,M,,*5B
$PYRTM,2024,126.086045355683,17.195692765822
$GPGGA,020353.00,3436.8838,N,12123.7686,W,1,08,1.0,10.3,M,-33.6,M,,*6C
$PYRTM,2024,126.086056929907,17.195704340046
$GPGGA,020354.00,3436.8824,N,12123.7663,W,1,08,1.0,10.5,M,-33.6,M,,*6B
$PYRTM,2024,126.086068504178,17.195715914317
$GPGGA,020355.00,3436.8811,N,12123.7638,W,1,08,1.0,10.8,M,-33.6,M,,*6F
$PYRTM,2024,126.086080077639,17.195727487778
$GPGGA,020356.00,3436.8801,N,12123.7613,W,1,08,1.0,10.3,M,-33.6,M,,*6F
$PYRTM,2024,126.086091532894,17.195738943044
$GPGGA,020357.00,3436.8791,N,12123.7589,W,1,08,1.0,9.7,M,-33.6,M,,*54
$PYRTM,2024,126.086103110671,17.195750520822
$GPGGA,020358.00,3436.8778,N,12123.7567,W,1,08,1.0,9.4,M,-33.6,M,,*5F
$PYRTM,2024,126.086114684468,17.195762094606
$GPGGA,020359.00,3436.8764,N,12123.7545,W,1,08,1.0,9.4,M,-33.6,M,,*53
$PYRTM,2024,126.086126389097,17.195773799248
$GPGGA,020400.00,3436.8751,N,12123.7522,W,1,08,1.0,9.7,M,-33.6,M,,*5C
$PYRTM,2024,126.086137948623,17.195785358762
$GPGGA,020401.00,3436.8739,N,12123.7497,W,1,08,1.0,10.0,M,-33.6,M,,*63
$PYRTM,2024,126.086149526204,17.195796936343
$GPGGA,020402.00,3436.8728,N,12123.7470,W,1,08,1.0,10.4,M,-33.6,M,,*6D
$PYRTM,2024,126.086161096794,17.195808506933
$GPGGA,020403.00,3436.8715,N,12123.7442,W,1,08,1.0,10.7,M,-33.6,M,,*60
$PYRTM,2024,126.086168492350,17.195815902488
$GPGGA,020404.00,3436.8702,N,12123.7415,W,1,08,1.0,10.8,M,-33.6,M,,*6C
$PYRTM,2024,126.086187127581,17.195834537720
$GPGGA,020405.00,3436.8688,N,12123.7388,W,1,08,1.0,10.8,M,-33.6,M,,*6D
$PYRTM,2024,126.086195819711,17.195843229850
$GPGGA,020406.00,3436.8672,N,12123.7364,W,1,08,1.0,10.5,M,-33.6,M,,*64
$PYRTM,2024,126.086207392778,17.195854802917
$GPGGA,020407.00,3436.8657,N,12123.7341,W,1,08,1.0,10.3,M,-33.6,M,,*63
$PYRTM,2024,126.086214672431,17.195862082581
$GPGGA,020408.00,3436.8645,N,12123.7319,W,1,08,1.0,10.0,M,-33.6,M,,*61
$PYRTM,2024,126.086230427072,17.195877837211
$GPGGA,020409.00,3436.8634,N,12123.7297,W,1,08,1.0,9.6,M,-33.6,M,,*5F
$PYRTM,2024,126.086242000162,17.195889410312
$GPGGA,020410.00,3436.8623,N,12123.7274,W,1,08,1.0,9.2,M,-33.6,M,,*58
$PYRTM,2024,126.086249401748,17.195896811887
$GPGGA,020411.00,3436.8611,N,12123.7252,W,1,08,1.0,9.0,M,-33.6,M,,*5E
$PYRTM,2024,126.086265158958,17.195912569097
$GPGGA,020412.00,3436.8598,N,12123.7229,W,1,08,1.0,9.3,M,-33.6,M,,*50
$PYRTM,2024,126.086276723889,17.195924134028
$GPGGA,020413.00,3436.8586,N,12123.7206,W,1,08,1.0,9.8,M,-33.6,M,,*58
$PYRTM,2024,126.086288415995,17.195935826146
$GPGGA,020414.00,3436.8573,N,12123.7180,W,1,08,1.0,10.2,M,-33.6,M,,*6A
$PYRTM,2024,126.086299988218,17.195947398356
$GPGGA,020415.00,3436.8559,N,12123.7153,W,1,08,1.0,10.6,M,-33.6,M,,*69
$PYRTM,2024,126.086311575243,17.195958985382
$GPGGA,020416.00,3436.8543,N,12123.7129,W,1,08,1.0,11.0,M,-33.6,M,,*6B
$PYRTM,2024,126.086323019907,17.195970430046
$GPGGA,020417.00,3436.8527,N,12123.7106,W,1,08,1.0,11.3,M,-33.6,M,,*66
$PYRTM,2024,126.086330421134,17.195977831273
$GPGGA,020418.00,3436.8512,N,12123.7084,W,1,08,1.0,11.3,M,-33.6,M,,*64
$PYRTM,2024,126.086349060914,17.195996471053
$GPGGA,020419.00,3436.8497,N,12123.7059,W,1,08,1.0,11.1,M,-33.6,M,,*6B
$PYRTM,2024,126.086360635486,17.196008045637
$GPGGA,020420.00,3436.8484,N,12123.7035,W,1,08,1.0,10.5,M,-33.6,M,,*6C
$PYRTM,2024,126.086372209282,17.196019619421
$GPGGA,020421.00,3436.8472,N,12123.7012,W,1,08,1.0,10.1,M,-33.6,M,,*65
$PYRTM,2024,126.086381002442,17.196028412581
$GPGGA,020422.00,3436.8460,N,12123.6991,W,1,08,1.0,10.0,M,-33.6,M,,*67
$PYRTM,2024,126.086388301389,17.196035711528
$GPGGA,020423.00,3436.8448,N,12123.6969,W,1,08,1.0,10.1,M,-33.6,M,,*6A
$PYRTM,2024,126.086404037512,17.196051447650
$GPGGA,020424.00,3436.8435,N,12123.6947,W,1,08,1.0,10.0,M,-33.6,M,,*6A
$PYRTM,2024,126.086415612593,17.196063022731
$GPGGA,020425.00,3436.8422,N,12123.6923,W,1,08,1.0,10.0,M,-33.6,M,,*6F
$PYRTM,2024,126.086427185718,17.196074595856
$GPGGA,020426.00,3436.8408,N,12123.6901,W,1,08,1.0,10.0,M,-33.6,M,,*64
$PYRTM,2024,126.086438760463,17.196086170602
$GPGGA,020427.00,3436.8392,N,12123.6878,W,1,08,1.0,10.2,M,-33.6,M,,*6C
$PYRTM,2024,126.086450343275,17.196097753414
$GPGGA,020428.00,3436.8379,N,12123.6854,W,1,08,1.0,10.4,M,-33.6,M,,*6E
$PYRTM,2024,126.086461908414,17.196109318553
$GPGGA,020429.00,3436.8368,N,12123.6828,W,1,08,1.0,10.7,M,-33.6,M,,*67
$PYRTM,2024,126.086473490648,17.196120900787
$GPGGA,020430.00,3436.8358,N,12123.6801,W,1,08,1.0,10.8,M,-33.6,M,,*68
$PYRTM,2024,126.086485057512,17.196132467650
$GPGGA,020431.00,3436.8347,N,12123.6777,W,1,08,1.0,10.6,M,-33.6,M,,*67
$PYRTM,2024,126.086492452500,17.196139862639
$GPGGA,020432.00,3436.8331,N,12123.6755,W,1,08,1.0,10.3,M,-33.6,M,,*60
$PYRTM,2024,126.086504264907,17.196151675046
$GPGGA,020433.00,3436.8315,N,12123.6734,W,1,08,1.0,10.0,M,-33.6,M,,*63
$PYRTM,2024,126.086519895266,17.196167305417
$GPGGA,020434.00,3436.8302,N,12123.6711,W,1,08,1.0,10.1,M,-33.6,M,,*64
$PYRTM,2024,126.086527189491,17.196174599630
$GPGGA,020435.00,3436.8293,N,12123.6686,W,1,08,1.0,10.1,M,-33.6,M,,*63
$PYRTM,2024,126.086545821956,17.196193232106
$GPGGA,020436.00,3436.8283,N,12123.6660,W,1,08,1.0,10.1,M,-33.6,M,,*69
$PYRTM,2024,126.086554502118,17.196201912269
$GPGGA,020437.00,3436.8271,N,12123.6636,W,1,08,1.0,10.1,M,-33.6,M,,*66
$PYRTM,2024,126.086566087083,17.196213497222
$GPGGA,020438.00,3436.8258,N,12123.6613,W,1,08,1.0,10.4,M,-33.6,M,,*60
$PYRTM,2024,126.086577650498,17.196225060637
$GPGGA,020439.00,3436.8244,N,12123.6589,W,1,08,1.0,10.5,M,-33.6,M,,*6D
$PYRTM,2024,126.086589223345,17.196236633484
$GPGGA,020440.00,3436.8233,N,12123.6563,W,1,08,1.0,10.5,M,-33.6,M,,*67
$PYRTM,2024,126.086600800463,17.196248210613
$GPGGA,020441.00,3436.8221,N,12123.6537,W,1,08,1.0,10.3,M,-33.6,M,,*62
$PYRTM,2024,126.086612491169,17.196259901308
$GPGGA,020442.00,3436.8207,N,12123.6513,W,1,08,1.0,10.1,M,-33.6,M,,*61
$PYRTM,2024,126.086624063588,17.196271473727
$GPGGA,020443.00,3436.8192,N,12123.6490,W,1,08,1.0,10.1,M,-33.6,M,,*65
$PYRTM,2024,126.086635639884,17.196283050023
$GPGGA,020444.00,3436.8177,N,12123.6469,W,1,08,1.0,10.2,M,-33.6,M,,*6C
$PYRTM,2024,126.086647095509,17.196294505648
$GPGGA,020445.00,3436.8165,N,12123.6445,W,1,08,1.0,10.3,M,-33.6,M,,*61
$PYRTM,2024,126.086658677188,17.196306087326
$GPGGA,020446.00,3436.8155,N,12123.6420,W,1,08,1.0,10.1,M,-33.6,M,,*60
$PYRTM,2024,126.086670243438,17.196317653576
$GPGGA,020447.00,3436.8143,N,12123.6396,W,1,08,1.0,9.9,M,-33.6,M,,*5C
$PYRTM,2024,126.086681828854,17.196329238993
$GPGGA,020448.00,3436.8129,N,12123.6374,W,1,08,1.0,9.8,M,-33.6,M,,*52
$PYRTM,2024,126.086693395185,17.196340805336
$GPGGA,020449.00,3436.8115,N,12123.6352,W,1,08,1.0,9.9,M,-33.6,M,,*59
$PYRTM,2024,126.086704976794,17.196352386933
$GPGGA,020450.00,3436.8102,N,12123.6328,W,1,08,1.0,9.9,M,-33.6,M,,*5A
$PYRTM,2024,126.086712373947,17.196359784086
$GPGGA,020451.00,3436.8090,N,12123.6302,W,1,08,1.0,10.0,M,-33.6,M,,*68
$PYRTM,2024,126.086731007627,17.196378417766
$GPGGA,020452.00,3436.8079,N,12123.6277,W,1,08,1.0,10.3,M,-33.6,M,,*6C
$PYRTM,2024,126.086742583356,17.196389993507
$GPGGA,020453.00,3436.8065,N,12123.6253,W,1,08,1.0,10.5,M,-33.6,M,,*60
$PYRTM,2024,126.086751274248,17.196398684398
$GPGGA,020454.00,3436.8050,N,12123.6231,W,1,08,1.0,10.5,M,-33.6,M,,*65
$PYRTM,2024,126.086762836285,17.196410246435
$GPGGA,020455.00,3436.8034,N,12123.6208,W,1,08,1.0,10.3,M,-33.6,M,,*6A
$PYRTM,2024,126.086774418414,17.196421828565
$GPGGA,020456.00,3436.8019,N,12123.6186,W,1,08,1.0,10.0,M,-33.6,M,,*60
$PYRTM,2024,126.086785984803,17.196433394942
$GPGGA,020457.00,3436.8006,N,12123.6163,W,1,08,1.0,10.0,M,-33.6,M,,*64
$PYRTM,2024,126.086797578229,17.196444988368
$GPGGA,020458.00,3436.7993,N,12123.6138,W,1,08,1.0,10.0,M,-33.6,M,,*6F
$PYRTM,2024,126.086809132442,17.196456542581
$GPGGA,020459.00,3436.7982,N,12123.6111,W,1,08,1.0,10.0,M,-33.6,M,,*65
$PYRTM,2024,126.086820707384,17.196468117523
$GPGGA,020500.00,3436.7970,N,12123.6085,W,1,08,1.0,10.0,M,-33.6,M,,*69
$PYRTM,2024,126.086832281204,17.196479691343
$GPGGA,020501.00,3436.7956,N,12123.6060,W,1,08,1.0,10.4,M,-33.6,M,,*63
$PYRTM,2024,126.086843866979,17.196491277118
$GPGGA,020502.00,3436.7941,N,12123.6037,W,1,08,1.0,10.8,M,-33.6,M,,*68
$PYRTM,2024,126.086855429479,17.196502839618
$GPGGA,020503.00,3436.7926,N,12123.6015,W,1,08,1.0,10.9,M,-33.6,M,,*69
$PYRTM,2024,126.086867015116,17.196514425255
$GPGGA,020504.00,3436.7913,N,12123.5993,W,1,08,1.0,10.5,M,-33.6,M,,*60
$PYRTM,2024,126.086878577755,17.196525987894
$GPGGA,020505.00,3436.7901,N,12123.5970,W,1,08,1.0,10.2,M,-33.6,M,,*68
$PYRTM,2024,126.086885973275,17.196533383414
$GPGGA,020506.00,3436.7887,N,12123.5947,W,1,08,1.0,9.6,M,-33.6,M,,*5C
$PYRTM,2024,126.086904619826,17.196552029977
$GPGGA,020507.00,3436.7873,N,12123.5924,W,1,08,1.0,9.4,M,-33.6,M,,*51
$PYRTM,2024,126.086913299757,17.196560709896
$GPGGA,020508.00,3436.7859,N,12123.5901,W,1,08,1.0,9.7,M,-33.6,M,,*52
$PYRTM,2024,126.086924870822,17.196572280961
$GPGGA,020509.00,3436.7845,N,12123.5878,W,1,08,1.0,10.5,M,-33.6,M,,*6B
$PYRTM,2024,126.086936449306,17.196583859444
$GPGGA,020510.00,3436.7832,N,12123.5853,W,1,08,1.0,11.0,M,-33.6,M,,*6E
$PYRTM,2024,126.086948023623,17.196595433762
$GPGGA,020511.00,3436.7818,N,12123.5828,W,1,08,1.0,11.1,M,-33.6,M,,*6A
$PYRTM,2024,126.086959607234,17.196607017384
$GPGGA,020512.00,3436.7804,N,12123.5803,W,1,08,1.0,11.0,M,-33.6,M,,*6C
$PYRTM,2024,126.086971171250,17.196618581389
$GPGGA,020513.00,3436.7789,N,12123.5781,W,1,08,1.0,10.6,M,-33.6,M,,*65
$PYRTM,2024,126.086982752778,17.196630162917
$GPGGA,020514.00,3436.7773,N,12123.5759,W,1,08,1.0,10.2,M,-33.6,M,,*66
$PYRTM,2024,126.086994320833,17.196641730972
$GPGGA,020515.00,3436.7759,N,12123.5737,W,1,08,1.0,10.1,M,-33.6,M,,*64
$PYRTM,2024,126.087005905359,17.196653315498
$GPGGA,020516.00,3436.7748,N,12123.5713,W,1,08,1.0,10.2,M,-33.6,M,,*62
$PYRTM,2024,126.087017466968,17.196664877106
$GPGGA,020517.00,3436.7738,N,12123.5688,W,1,08,1.0,10.4,M,-33.6,M,,*61
$PYRTM,2024,126.087029052176,17.196676462315
$GPGGA,020518.00,3436.7728,N,12123.5664,W,1,08,1.0,10.5,M,-33.6,M,,*6C
$PYRTM,2024,126.087040611296,17.196688021435
$GPGGA,020519.00,3436.7714,N,12123.5640,W,1,08,1.0,10.4,M,-33.6,M,,*65
$PYRTM,2024,126.087052201771,17.196699611910
$GPGGA,020520.00,3436.7698,N,12123.5618,W,1,08,1.0,10.3,M,-33.6,M,,*60
$PYRTM,2024,126.087063763681,17.196711173819
$GPGGA,020521.00,3436.7683,N,12123.5595,W,1,08,1.0,10.3,M,-33.6,M,,*6D
$PYRTM,2024,126.087075349977,17.196722760116
$GPGGA,020522.00,3436.7670,N,12123.5570,W,1,08,1.0,10.4,M,-33.6,M,,*6E
$PYRTM,2024,126.087086913137,17.196734323275
$GPGGA,020523.00,3436.7660,N,12123.5545,W,1,08,1.0,10.7,M,-33.6,M,,*6B
$PYRTM,2024,126.087094306620,17.196741716759
$GPGGA,020524.00,3436.7650,N,12123.5520,W,1,08,1.0,10.7,M,-33.6,M,,*6C
$PYRTM,2024,126.087110062095,17.196757472234
$GPGGA,020525.00,3436.7636,N,12123.5499,W,1,08,1.0,10.4,M,-33.6,M,,*6D
$PYRTM,2024,126.087121654942,17.196769065081
$GPGGA,020526.00,3436.7621,N,12123.5477,W,1,08,1.0,10.0,M,-33.6,M,,*6C
$PYRTM,2024,126.087133211667,17.196780621806
$GPGGA,020527.00,3436.7607,N,12123.5455,W,1,08,1.0,9.8,M,-33.6,M,,*59
$PYRTM,2024,126.087144812326,17.196792222465
$GPGGA,020528.00,3436.7594,N,12123.5432,W,1,08,1.0,10.1,M,-33.6,M,,*6F
$PYRTM,2024,126.087156357396,17.196803767535
$GPGGA,020529.00,3436.7582,N,12123.5407,W,1,08,1.0,10.3,M,-33.6,M,,*6D
$PYRTM,2024,126.087167931979,17.196815342118
$GPGGA,020530.00,3436.7571,N,12123.5380,W,1,08,1.0,10.5,M,-33.6,M,,*67
$PYRTM,2024,126.087179507708,17.196826917859
$GPGGA,020531.00,3436.7559,N,12123.5356,W,1,08,1.0,10.7,M,-33.6,M,,*65
$PYRTM,2024,126.087191091400,17.196838501539
$GPGGA,020532.00,3436.7545,N,12123.5333,W,1,08,1.0,10.8,M,-33.6,M,,*67
$PYRTM,2024,126.087202655498,17.196850065637
$GPGGA,020533.00,3436.7531,N,12123.5311,W,1,08,1.0,10.9,M,-33.6,M,,*64
$PYRTM,2024,126.087214239456,17.196861649595
$GPGGA,020534.00,3436.7517,N,12123.5288,W,1,08,1.0,10.7,M,-33.6,M,,*68
$PYRTM,2024,126.087225802963,17.196873213102
$GPGGA,020535.00,3436.7504,N,12123.5264,W,1,08,1.0,10.6,M,-33.6,M,,*68
$PYRTM,2024,126.087237377708,17.196884787847
$GPGGA,020536.00,3436.7492,N,12123.5239,W,1,08,1.0,10.5,M,-33.6,M,,*6E
$PYRTM,2024,126.087244782801,17.196892192940
$GPGGA,020537.00,3436.7479,N,12123.5215,W,1,08,1.0,10.6,M,-33.6,M,,*67
$PYRTM,2024,126.087263418507,17.196910828657
$GPGGA,020538.00,3436.7466,N,12123.5191,W,1,08,1.0,10.6,M,-33.6,M,,*69
$PYRTM,2024,126.087272099248,17.196919509387
$GPGGA,020539.00,3436.7454,N,12123.5166,W,1,08,1.0,10.6,M,-33.6,M,,*61
$PYRTM,2024,126.087283673171,17.196931083322
$GPGGA,020540.00,3436.7442,N,12123.5140,W,1,08,1.0,10.5,M,-33.6,M,,*6F
$PYRTM,2024,126.087295248611,17.196942658750
$GPGGA,020541.00,3436.7429,N,12123.5116,W,1,08,1.0,10.4,M,-33.6,M,,*61
$PYRTM,2024,126.087306829954,17.196954240104
$GPGGA,020542.00,3436.7414,N,12123.5094,W,1,08,1.0,10.3,M,-33.6,M,,*60
$PYRTM,2024,126.087318391262,17.196965801400
$GPGGA,020543.00,3436.7400,N,12123.5072,W,1,08,1.0,10.2,M,-33.6,M,,*6D
$PYRTM,2024,126.087329969931,17.196977380069
$GPGGA,020544.00,3436.7388,N,12123.5049,W,1,08,1.0,10.1,M,-33.6,M,,*66
$PYRTM,2024,126.087341544016,17.196988954167
$GPGGA,020545.00,3436.7377,N,12123.5024,W,1,08,1.0,10.2,M,-33.6,M,,*6F
$PYRTM,2024,126.087348938970,17.196996349109
$GPGGA,020546.00,3436.7367,N,12123.4999,W,1,08,1.0,10.3,M,-33.6,M,,*62
$PYRTM,2024,126.087364687697,17.197012097836
$GPGGA,020547.00,3436.7355,N,12123.4975,W,1,08,1.0,10.7,M,-33.6,M,,*64
$PYRTM,2024,126.087376266574,17.197023676713
$GPGGA,020548.00,3436.7342,N,12123.4950,W,1,08,1.0,10.8,M,-33.6,M,,*65
$PYRTM,2024,126.087383673125,17.197031083264
$GPGGA,020549.00,3436.7326,N,12123.4925,W,1,08,1.0,10.9,M,-33.6,M,,*65
$PYRTM,2024,126.087399417176,17.197046827315
$GPGGA,020550.00,3436.7311,N,12123.4900,W,1,08,1.0,11.1,M,-33.6,M,,*67
$PYRTM,2024,126.087410985336,17.197058395475
$GPGGA,020551.00,3436.7298,N,12123.4874,W,1,08,1.0,11.3,M,-33.6,M,,*66
$PYRTM,2024,126.087418383831,17.197065793970
$GPGGA,020552.00,3436.7286,N,12123.4848,W,1,08,1.0,11.4,M,-33.6,M,,*62
$PYRTM,2024,126.087434138032,17.197081548171
$GPGGA,020553.00,3436.7273,N,12123.4823,W,1,08,1.0,11.1,M,-33.6,M,,*61
$PYRTM,2024,126.087445720278,17.197093130417
$GPGGA,020554.00,3436.7260,N,12123.4799,W,1,08,1.0,10.5,M,-33.6,M,,*6F
$PYRTM,2024,126.087457286331,17.197104696470
$GPGGA,020555.00,3436.7245,N,12123.4777,W,1,08,1.0,10.0,M,-33.6,M,,*6C
$PYRTM,2024,126.087464681887,17.197112092025
$GPGGA,020556.00,3436.7233,N,12123.4756,W,1,08,1.0,9.8,M,-33.6,M,,*5D
$PYRTM,2024,126.087480436042,17.197127846181
$GPGGA,020557.00,3436.7222,N,12123.4733,W,1,08,1.0,9.8,M,-33.6,M,,*5F
$PYRTM,2024,126.087487828160,17.197135238310
$GPGGA,020558.00,3436.7211,N,12123.4708,W,1,08,1.0,9.8,M,-33.6,M,,*58
$PYRTM,2024,126.087503583600,17.197150993750
$GPGGA,020559.00,3436.7197,N,12123.4684,W,1,08,1.0,10.0,M,-33.6,M,,*61
$PYRTM,2024,126.087515157384,17.197162567523
$GPGGA,020600.00,3436.7182,N,12123.4660,W,1,08,1.0,10.5,M,-33.6,M,,*65
$PYRTM,2024,126.087522575625,17.197169985764
$GPGGA,020601.00,3436.7168,N,12123.4635,W,1,08,1.0,11.0,M,-33.6,M,,*64
$PYRTM,2024,126.087538422234,17.197185832373
$GPGGA,020602.00,3436.7154,N,12123.4608,W,1,08,1.0,11.3,M,-33.6,M,,*65
$PYRTM,2024,126.087549994433,17.197197404583
$GPGGA,020603.00,3436.7140,N,12123.4580,W,1,08,1.0,11.4,M,-33.6,M,,*65
$PYRTM,2024,126.087561568576,17.197208978715
$GPGGA,020604.00,3436.7125,N,12123.4553,W,1,08,1.0,11.2,M,-33.6,M,,*69
$PYRTM,2024,126.087573142350,17.197220552500
$GPGGA,020605.00,3436.7113,N,12123.4528,W,1,08,1.0,11.1,M,-33.6,M,,*62
$PYRTM,2024,126.087584718229,17.197232128368
$GPGGA,020606.00,3436.7102,N,12123.4503,W,1,08,1.0,10.9,M,-33.6,M,,*61
$PYRTM,2024,126.087596291424,17.197243701562
$GPGGA,020607.00,3436.7093,N,12123.4479,W,1,08,1.0,10.4,M,-33.6,M,,*68
$PYRTM,2024,126.087603571343,17.197250981481
$GPGGA,020608.00,3436.7082,N,12123.4456,W,1,08,1.0,9.8,M,-33.6,M,,*5E
$PYRTM,2024,126.087622211829,17.197269621968
$GPGGA,020609.00,3436.7068,N,12123.4434,W,1,08,1.0,9.4,M,-33.6,M,,*53
$PYRTM,2024,126.087630923750,17.197278333889
$GPGGA,020610.00,3436.7054,N,12123.4413,W,1,08,1.0,9.5,M,-33.6,M,,*50
$PYRTM,2024,126.087642472269,17.197289882407
$GPGGA,020611.00,3436.7041,N,12123.4389,W,1,08,1.0,10.0,M,-33.6,M,,*6C
$PYRTM,2024,126.087654046366,17.197301456505
$GPGGA,020612.00,3436.7029,N,12123.4364,W,1,08,1.0,10.6,M,-33.6,M,,*64
$PYRTM,2024,126.087665619815,17.197313029954
$GPGGA,020613.00,3436.7016,N,12123.4336,W,1,08,1.0,11.1,M,-33.6,M,,*68
$PYRTM,2024,126.087677205637,17.197324615775
$GPGGA,020614.00,3436.7003,N,12123.4309,W,1,08,1.0,11.2,M,-33.6,M,,*64
$PYRTM,2024,126.087688769572,17.197336179711
$GPGGA,020615.00,3436.6988,N,12123.4283,W,1,08,1.0,11.1,M,-33.6,M,,*6E
$PYRTM,2024,126.087700344815,17.197347754965
$GPGGA,020616.00,3436.6974,N,12123.4256,W,1,08,1.0,10.9,M,-33.6,M,,*6F
$PYRTM,2024,126.087711912164,17.197359322303
$GPGGA,020617.00,3436.6961,N,12123.4230,W,1,08,1.0,10.6,M,-33.6,M,,*65
$PYRTM,2024,126.087723491250,17.197370901389
$GPGGA,020618.00,3436.6949,N,12123.4205,W,1,08,1.0,10.4,M,-33.6,M,,*64
$PYRTM,2024,126.087735060255,17.197382470394
$GPGGA,020619.00,3436.6938,N,12123.4182,W,1,08,1.0,10.3,M,-33.6,M,,*68
$PYRTM,2024,126.087746639097,17.197394049236
$GPGGA,020620.00,3436.6926,N,12123.4161,W,1,08,1.0,10.2,M,-33.6,M,,*61
$PYRTM,2024,126.087758214155,17.197405624306
$GPGGA,020621.00,3436.6914,N,12123.4139,W,1,08,1.0,10.0,M,-33.6,M,,*6E
$PYRTM,2024,126.087769787951,17.197417198090
$GPGGA,020622.00,3436.6901,N,12123.4117,W,1,08,1.0,9.8,M,-33.6,M,,*55
$PYRTM,2024,126.087781360949,17.197428771088
$GPGGA,020623.00,3436.6889,N,12123.4093,W,1,08,1.0,10.0,M,-33.6,M,,*68
$PYRTM,2024,126.087792943958,17.197440354097
$GPGGA,020624.00,3436.6878,N,12123.4068,W,1,08,1.0,10.5,M,-33.6,M,,*60
$PYRTM,2024,126.087800343113,17.197447753252
$GPGGA,020625.00,3436.6864,N,12123.4041,W,1,08,1.0,10.8,M,-33.6,M,,*6A
$PYRTM,2024,126.087816110799,17.197463520938
$GPGGA,020626.00,3436.6849,N,12123.4014,W,1,08,1.0,11.2,M,-33.6,M,,*6D
$PYRTM,2024,126.087827660255,17.197475070394
$GPGGA,020627.00,3436.6834,N,12123.3988,W,1,08,1.0,11.5,M,-33.6,M,,*6A
$PYRTM,2024,126.087835055312,17.197482465451
$GPGGA,020628.00,3436.6817,N,12123.3961,W,1,08,1.0,11.4,M,-33.6,M,,*62
$PYRTM,2024,126.087853700579,17.197501110718
$GPGGA,020629.00,3436.6802,N,12123.3935,W,1,08,1.0,11.0,M,-33.6,M,,*62
$PYRTM,2024,126.087862380347,17.197509790486
$GPGGA,020630.00,3436.6789,N,12123.3909,W,1,08,1.0,10.5,M,-33.6,M,,*6D
$PYRTM,2024,126.087873956574,17.197521366713
$GPGGA,020631.00,3436.6777,N,12123.3885,W,1,08,1.0,10.2,M,-33.6,M,,*6F
$PYRTM,2024,126.087885540556,17.197532950694
$GPGGA,020632.00,3436.6765,N,12123.3863,W,1,08,1.0,10.0,M,-33.6,M,,*65
$PYRTM,2024,126.087897103484,17.197544513623
$GPGGA,020633.00,3436.6754,N,12123.3841,W,1,08,1.0,10.0,M,-33.6,M,,*66
$PYRTM,2024,126.087904499606,17.197551909745
$GPGGA,020634.00,3436.6744,N,12123.3819,W,1,08,1.0,10.1,M,-33.6,M,,*6C
$PYRTM,2024,126.087920253229,17.197567663368
$GPGGA,020635.00,3436.6733,N,12123.3797,W,1,08,1.0,10.2,M,-33.6,M,,*67
$PYRTM,2024,126.087931833194,17.197579243345
$GPGGA,020636.00,3436.6720,N,12123.3773,W,1,08,1.0,10.4,M,-33.6,M,,*6A
$PYRTM,2024,126.087943401088,17.197590811227
$GPGGA,020637.00,3436.6705,N,12123.3748,W,1,08,1.0,10.8,M,-33.6,M,,*68
$PYRTM,2024,126.087954998252,17.197602408391
$GPGGA,020638.00,3436.6689,N,12123.3722,W,1,08,1.0,11.2,M,-33.6,M,,*65
$PYRTM,2024,126.087962381065,17.197609791204
$GPGGA,020639.00,3436.6676,N,12123.3694,W,1,08,1.0,11.7,M,-33.6,M,,*6D
$PYRTM,2024,126.087981019167,17.197628429306
$GPGGA,020640.00,3436.6663,N,12123.3664,W,1,08,1.0,11.9,M,-33.6,M,,*66
$PYRTM,2024,126.087989695926,17.197637106076
$GPGGA,020641.00,3436.6650,N,12123.3635,W,1,08,1.0,11.8,M,-33.6,M,,*62
$PYRTM,2024,126.088001269884,17.197648680023
$GPGGA,020642.00,3436.6636,N,12123.3608,W,1,08,1.0,11.4,M,-33.6,M,,*63
$PYRTM,2024,126.088012844086,17.197660254225
$GPGGA,020643.00,3436.6623,N,12123.3583,W,1,08,1.0,10.9,M,-33.6,M,,*6A
$PYRTM,2024,126.088024419421,17.197671829560
$GPGGA,020644.00,3436.6611,N,12123.3560,W,1,08,1.0,10.6,M,-33.6,M,,*6E
$PYRTM,2024,126.088035987604,17.197683397755
$GPGGA,020645.00,3436.6601,N,12123.3538,W,1,08,1.0,10.3,M,-33.6,M,,*66
$PYRTM,2024,126.088047578310,17.197694988449
$GPGGA,020646.00,3436.6590,N,12123.3516,W,1,08,1.0,10.0,M,-33.6,M,,*61
$PYRTM,2024,126.088059142685,17.197706552824
$GPGGA,020647.00,3436.6579,N,12123.3493,W,1,08,1.0,9.8,M,-33.6,M,,*5B
$PYRTM,2024,126.088070726285,17.197718136424
$GPGGA,020648.00,3436.6566,N,12123.3470,W,1,08,1.0,10.1,M,-33.6,M,,*66
$PYRTM,2024,126.088082288738,17.197729698877
$GPGGA,020649.00,3436.6552,N,12123.3446,W,1,08,1.0,10.3,M,-33.6,M,,*67
$PYRTM,2024,126.088093862963,17.197741273102
$GPGGA,020650.00,3436.6539,N,12123.3421,W,1,08,1.0,11.0,M,-33.6,M,,*61
$PYRTM,2024,126.088105437164,17.197752847303
$GPGGA,020651.00,3436.6528,N,12123.3392,W,1,08,1.0,11.6,M,-33.6,M,,*69
$PYRTM,2024,126.088117018206,17.197764428345
$GPGGA,020652.00,3436.6518,N,12123.3361,W,1,08,1.0,11.7,M,-33.6,M,,*64
$PYRTM,2024,126.088128585243,17.197775995382
$GPGGA,020653.00,3436.6506,N,12123.3333,W,1,08,1.0,11.6,M,-33.6,M,,*6C
$PYRTM,2024,126.088140167812,17.197787577951
$GPGGA,020654.00,3436.6490,N,12123.3309,W,1,08,1.0,11.3,M,-33.6,M,,*69
$PYRTM,2024,126.088151734155,17.197799144294
$GPGGA,020655.00,3436.6476,N,12123.3286,W,1,08,1.0,10.6,M,-33.6,M,,*62
$PYRTM,2024,126.088163327558,17.197810737697
$GPGGA,020656.00,3436.6465,N,12123.3263,W,1,08,1.0,10.0,M,-33.6,M,,*6E
$PYRTM,2024,126.088174882106,17.197822292245
$GPGGA,020657.00,3436.6453,N,12123.3241,W,1,08,1.0,9.9,M,-33.6,M,,*5B
$PYRTM,2024,126.088186466563,17.197833876701
$GPGGA,020658.00,3436.6441,N,12123.3219,W,1,08,1.0,10.0,M,-33.6,M,,*6B
$PYRTM,2024,126.088198030845,17.197845440984
$GPGGA,020659.00,3436.6428,N,12123.3195,W,1,08,1.0,10.5,M,-33.6,M,,*67
$PYRTM,2024,126.088205429433,17.197852839572
$GPGGA,020700.00,3436.6417,N,12123.3171,W,1,08,1.0,11.0,M,-33.6,M,,*68
$PYRTM,2024,126.088221179525,17.197868589664
$GPGGA,020701.00,3436.6405,N,12123.3146,W,1,08,1.0,11.4,M,-33.6,M,,*6A
$PYRTM,2024,126.088232754479,17.197880164618
$GPGGA,020702.00,3436.6391,N,12123.3121,W,1,08,1.0,11.5,M,-33.6,M,,*63
$PYRTM,2024,126.088244328495,17.197891738634
$GPGGA,020703.00,3436.6375,N,12123.3098,W,1,08,1.0,11.6,M,-33.6,M,,*68
$PYRTM,2024,126.088255912512,17.197903322650
$GPGGA,020704.00,3436.6359,N,12123.3075,W,1,08,1.0,11.4,M,-33.6,M,,*60
$PYRTM,2024,126.088267472998,17.197914883137
$GPGGA,020705.00,3436.6345,N,12123.3050,W,1,08,1.0,11.2,M,-33.6,M,,*6D
$PYRTM,2024,126.088279058565,17.197926468704
$GPGGA,020706.00,3436.6333,N,12123.3024,W,1,08,1.0,11.1,M,-33.6,M,,*6F
$PYRTM,2024,126.088290625451,17.197938035602
$GPGGA,020707.00,3436.6322,N,12123.3000,W,1,08,1.0,11.2,M,-33.6,M,,*6B
$PYRTM,2024,126.088302206007,17.197949616146
$GPGGA,020708.00,3436.6310,N,12123.2976,W,1,08,1.0,11.3,M,-33.6,M,,*6D
$PYRTM,2024,126.088313767199,17.197961177338
$GPGGA,020709.00,3436.6298,N,12123.2953,W,1,08,1.0,11.2,M,-33.6,M,,*6B
$PYRTM,2024,126.088321170081,17.197968580220
$GPGGA,020710.00,3436.6285,N,12123.2930,W,1,08,1.0,10.9,M,-33.6,M,,*60
$PYRTM,2024,126.088339813403,17.197987223542
$GPGGA,020711.00,3436.6270,N,12123.2908,W,1,08,1.0,10.6,M,-33.6,M,,*6F
$PYRTM,2024,126.088348494803,17.197995904954
$GPGGA,020712.00,3436.6255,N,12123.2886,W,1,08,1.0,10.5,M,-33.6,M,,*6F
$PYRTM,2024,126.088355902616,17.198003312755
$GPGGA,020713.00,3436.6242,N,12123.2862,W,1,08,1.0,10.6,M,-33.6,M,,*61
$PYRTM,2024,126.088371654178,17.198019064329
$GPGGA,020714.00,3436.6230,N,12123.2838,W,1,08,1.0,10.9,M,-33.6,M,,*63
$PYRTM,2024,126.088383213623,17.198030623773
$GPGGA,020715.00,3436.6217,N,12123.2813,W,1,08,1.0,11.2,M,-33.6,M,,*64
$PYRTM,2024,126.088390613796,17.198038023935
$GPGGA,020716.00,3436.6204,N,12123.2788,W,1,08,1.0,11.3,M,-33.6,M,,*69
$PYRTM,2024,126.088406366343,17.198053776481
$GPGGA,020717.00,3436.6189,N,12123.2763,W,1,08,1.0,11.3,M,-33.6,M,,*6B
$PYRTM,2024,126.088417940208,17.198065350347
$GPGGA,020718.00,3436.6175,N,12123.2738,W,1,08,1.0,11.4,M,-33.6,M,,*6E
$PYRTM,2024,126.088425343241,17.198072753380
$GPGGA,020719.00,3436.6162,N,12123.2713,W,1,08,1.0,11.4,M,-33.6,M,,*60
$PYRTM,2024,126.088441087512,17.198088497650
$GPGGA,020720.00,3436.6149,N,12123.2689,W,1,08,1.0,11.2,M,-33.6,M,,*67
$PYRTM,2024,126.088452659375,17.198100069525
$GPGGA,020721.00,3436.6135,N,12123.2665,W,1,08,1.0,10.9,M,-33.6,M,,*65
$PYRTM,2024,126.088460056632,17.198107466782
$GPGGA,020722.00,3436.6121,N,12123.2643,W,1,08,1.0,10.6,M,-33.6,M,,*68
$PYRTM,2024,126.088475810799,17.198123220938
$GPGGA,020723.00,3436.6109,N,12123.2620,W,1,08,1.0,10.4,M,-33.6,M,,*64
$PYRTM,2024,126.088487383762,17.198134793900
$GPGGA,020724.00,3436.6097,N,12123.2597,W,1,08,1.0,10.4,M,-33.6,M,,*6A
$PYRTM,2024,126.088494791319,17.198142201458
$GPGGA,020725.00,3436.6085,N,12123.2573,W,1,08,1.0,10.5,M,-33.6,M,,*63
$PYRTM,2024,126.088510532882,17.198157943032
$GPGGA,020726.00,3436.6073,N,12123.2549,W,1,08,1.0,10.6,M,-33.6,M,,*63
$PYRTM,2024,126.088522107002,17.198169517141
$GPGGA,020727.00,3436.6059,N,12123.2526,W,1,08,1.0,10.9,M,-33.6,M,,*6C
$PYRTM,2024,126.088529502535,17.198176912674
$GPGGA,020728.00,3436.6046,N,12123.2502,W,1,08,1.0,11.1,M,-33.6,M,,*62
$PYRTM,2024,126.088545255637,17.198192665775
$GPGGA,020729.00,3436.6033,N,12123.2477,W,1,08,1.0,11.2,M,-33.6,M,,*61
$PYRTM,2024,126.088556829063,17.198204239213
$GPGGA,020730.00,3436.6020,N,12123.2451,W,1,08,1.0,11.0,M,-33.6,M,,*6D
$PYRTM,2024,126.088568398461,17.198215808600
$GPGGA,020731.00,3436.6006,N,12123.2427,W,1,08,1.0,11.1,M,-33.6,M,,*68
$PYRTM,2024,126.088575798843,17.198223208981
$GPGGA,020732.00,3436.5993,N,12123.2403,W,1,08,1.0,11.2,M,-33.6,M,,*68
$PYRTM,2024,126.088591552211,17.198238962350
$GPGGA,020733.00,3436.5980,N,12123.2378,W,1,08,1.0,11.2,M,-33.6,M,,*60
$PYRTM,2024,126.088603133565,17.198250543715
$GPGGA,020734.00,3436.5968,N,12123.2352,W,1,08,1.0,11.1,M,-33.6,M,,*6A
$PYRTM,2024,126.088610527836,17.198257937975
$GPGGA,020735.00,3436.5956,N,12123.2328,W,1,08,1.0,11.0,M,-33.6,M,,*6A
$PYRTM,2024,126.088626283785,17.198273693924
$GPGGA,020736.00,3436.5942,N,12123.2304,W,1,08,1.0,11.1,M,-33.6,M,,*63
$PYRTM,2024,126.088637850035,17.198285260174
$GPGGA,020737.00,3436.5929,N,12123.2280,W,1,08,1.0,11.2,M,-33.6,M,,*61
$PYRTM,2024,126.088645243738,17.198292653877
$GPGGA,020738.00,3436.5918,N,12123.2255,W,1,08,1.0,11.2,M,-33.6,M,,*64
$PYRTM,2024,126.088660992303,17.198308402454
$GPGGA,020739.00,3436.5906,N,12123.2229,W,1,08,1.0,11.1,M,-33.6,M,,*62
$PYRTM,2024,126.088672578576,17.198319988727
$GPGGA,020740.00,3436.5894,N,12123.2204,W,1,08,1.0,11.1,M,-33.6,M,,*69
$PYRTM,2024,126.088679988750,17.198327398889
$GPGGA,020741.00,3436.5882,N,12123.2180,W,1,08,1.0,11.2,M,-33.6,M,,*63
$PYRTM,2024,126.088698614155,17.198346024294
$GPGGA,020742.00,3436.5868,N,12123.2157,W,1,08,1.0,11.2,M,-33.6,M,,*6E
$PYRTM,2024,126.088710186319,17.198357596458
$GPGGA,020743.00,3436.5855,N,12123.2135,W,1,08,1.0,11.0,M,-33.6,M,,*67
$PYRTM,2024,126.088721762130,17.198369172269
$GPGGA,020744.00,3436.5841,N,12123.2112,W,1,08,1.0,10.7,M,-33.6,M,,*66
$PYRTM,2024,126.088730443310,17.198377853449
$GPGGA,020745.00,3436.5827,N,12123.2088,W,1,08,1.0,10.3,M,-33.6,M,,*61
$PYRTM,2024,126.088742015613,17.198389425764
$GPGGA,020746.00,3436.5815,N,12123.2063,W,1,08,1.0,10.5,M,-33.6,M,,*60
$PYRTM,2024,126.088753589491,17.198400999630
$GPGGA,020747.00,3436.5804,N,12123.2037,W,1,08,1.0,11.0,M,-33.6,M,,*64
$PYRTM,2024,126.088765163426,17.198412573565
$GPGGA,020748.00,3436.5792,N,12123.2012,W,1,08,1.0,11.5,M,-33.6,M,,*69
$PYRTM,2024,126.088776738275,17.198424148426
$GPGGA,020749.00,3436.5778,N,12123.1987,W,1,08,1.0,11.7,M,-33.6,M,,*68
$PYRTM,2024,126.088788320231,17.198435730370
$GPGGA,020750.00,3436.5762,N,12123.1962,W,1,08,1.0,11.6,M,-33.6,M,,*61
$PYRTM,2024,126.088799886736,17.198447296875
$GPGGA,020751.00,3436.5748,N,12123.1937,W,1,08,1.0,11.5,M,-33.6,M,,*6B
$PYRTM,2024,126.088811470949,17.198458881088
$GPGGA,020752.00,3436.5735,N,12123.1912,W,1,08,1.0,11.5,M,-33.6,M,,*65
$PYRTM,2024,126.088818880579,17.198466290718
$GPGGA,020753.00,3436.5723,N,12123.1887,W,1,08,1.0,11.5,M,-33.6,M,,*6E
$PYRTM,2024,126.088834608576,17.198482018715
$GPGGA,020754.00,3436.5710,N,12123.1863,W,1,08,1.0,11.4,M,-33.6,M,,*62
$PYRTM,2024,126.088846182963,17.198493593102
$GPGGA,020755.00,3436.5698,N,12123.1839,W,1,08,1.0,11.1,M,-33.6,M,,*68
$PYRTM,2024,126.088853579861,17.198500990000
$GPGGA,020756.00,3436.5686,N,12123.1815,W,1,08,1.0,11.0,M,-33.6,M,,*6B
$PYRTM,2024,126.088869331007,17.198516741146
$GPGGA,020757.00,3436.5675,N,12123.1791,W,1,08,1.0,10.9,M,-33.6,M,,*6D
$PYRTM,2024,126.088880905104,17.198528315255
$GPGGA,020758.00,3436.5662,N,12123.1767,W,1,08,1.0,10.8,M,-33.6,M,,*6C
$PYRTM,2024,126.088892475081,17.198539885220
$GPGGA,020759.00,3436.5648,N,12123.1742,W,1,08,1.0,10.8,M,-33.6,M,,*62
$PYRTM,2024,126.088904053438,17.198551463576
$GPGGA,020800.00,3436.5636,N,12123.1716,W,1,08,1.0,11.0,M,-33.6,M,,*60
$PYRTM,2024,126.088915628079,17.198563038218
$GPGGA,020801.00,3436.5622,N,12123.1693,W,1,08,1.0,11.4,M,-33.6,M,,*6C
$PYRTM,2024,126.088927201586,17.198574611725
$GPGGA,020802.00,3436.5609,N,12123.1670,W,1,08,1.0,11.7,M,-33.6,M,,*68
$PYRTM,2024,126.088938775972,17.198586186111
$GPGGA,020803.00,3436.5596,N,12123.1646,W,1,08,1.0,11.6,M,-33.6,M,,*68
$PYRTM,2024,126.088950357650,17.198597767789
$GPGGA,020804.00,3436.5582,N,12123.1622,W,1,08,1.0,11.2,M,-33.6,M,,*6C
$PYRTM,2024,126.088957757523,17.198605167662
$GPGGA,020805.00,3436.5569,N,12123.1599,W,1,08,1.0,10.9,M,-33.6,M,,*61
$PYRTM,2024,126.088973506458,17.198620916597
$GPGGA,020806.00,3436.5556,N,12123.1575,W,1,08,1.0,10.9,M,-33.6,M,,*6C
$PYRTM,2024,126.088985067639,17.198632477778
$GPGGA,020807.00,3436.5542,N,12123.1551,W,1,08,1.0,11.1,M,-33.6,M,,*67
$PYRTM,2024,126.088996764178,17.198644174329
$GPGGA,020808.00,3436.5529,N,12123.1525,W,1,08,1.0,11.5,M,-33.6,M,,*62
$PYRTM,2024,126.089008336319,17.198655746458
$GPGGA,020809.00,3436.5516,N,12123.1498,W,1,08,1.0,11.9,M,-33.6,M,,*64
$PYRTM,2024,126.089019912002,17.198667322141
$GPGGA,020810.00,3436.5503,N,12123.1473,W,1,08,1.0,12.3,M,-33.6,M,,*64
$PYRTM,2024,126.089031485127,17.198678895266
$GPGGA,020811.00,3436.5487,N,12123.1449,W,1,08,1.0,12.4,M,-33.6,M,,*66
$PYRTM,2024,126.089038880648,17.198686290787
$GPGGA,020812.00,3436.5471,N,12123.1427,W,1,08,1.0,12.3,M,-33.6,M,,*63
$PYRTM,2024,126.089057411458,17.198704821597
$GPGGA,020813.00,3436.5455,N,12123.1405,W,1,08,1.0,12.0,M,-33.6,M,,*67
$PYRTM,2024,126.089066207870,17.198713618009
$GPGGA,020814.00,3436.5442,N,12123.1381,W,1,08,1.0,11.4,M,-33.6,M,,*6A
$PYRTM,2024,126.089077666424,17.198725076562
$GPGGA,020815.00,3436.5432,N,12123.1356,W,1,08,1.0,11.2,M,-33.6,M,,*60
$PYRTM,2024,126.089089251412,17.198736661551
$GPGGA,020816.00,3436.5421,N,12123.1333,W,1,08,1.0,11.5,M,-33.6,M,,*65
$PYRTM,2024,126.089100814051,17.198748224190
$GPGGA,020817.00,3436.5409,N,12123.1311,W,1,08,1.0,11.7,M,-33.6,M,,*6C
$PYRTM,2024,126.089112395579,17.198759805718
$GPGGA,020818.00,3436.5394,N,12123.1290,W,1,08,1.0,11.8,M,-33.6,M,,*67
$PYRTM,2024,126.089123962037,17.198771372188
$GPGGA,020819.00,3436.5379,N,12123.1267,W,1,08,1.0,11.8,M,-33.6,M,,*6D
$PYRTM,2024,126.089131356597,17.198778766736
$GPGGA,020820.00,3436.5366,N,12123.1243,W,1,08,1.0,11.6,M,-33.6,M,,*61
$PYRTM,2024,126.089147110891,17.198794521030
$GPGGA,020821.00,3436.5354,N,12123.1218,W,1,08,1.0,11.5,M,-33.6,M,,*6C
$PYRTM,2024,126.089158685637,17.198806095775
$GPGGA,020822.00,3436.5341,N,12123.1194,W,1,08,1.0,11.4,M,-33.6,M,,*6D
$PYRTM,2024,126.089170259502,17.198817669641
$GPGGA,020823.00,3436.5327,N,12123.1170,W,1,08,1.0,11.3,M,-33.6,M,,*61
$PYRTM,2024,126.089181840637,17.198829250775
$GPGGA,020824.00,3436.5312,N,12123.1145,W,1,08,1.0,11.5,M,-33.6,M,,*60
$PYRTM,2024,126.089193407373,17.198840817512
$GPGGA,020825.00,3436.5300,N,12123.1120,W,1,08,1.0,11.6,M,-33.6,M,,*62
$PYRTM,2024,126.089204980995,17.198852391134
$GPGGA,020826.00,3436.5290,N,12123.1093,W,1,08,1.0,11.8,M,-33.6,M,,*6E
$PYRTM,2024,126.089216555104,17.198863965243
$GPGGA,020827.00,3436.5278,N,12123.1067,W,1,08,1.0,11.7,M,-33.6,M,,*6D
$PYRTM,2024,126.089228129965,17.198875540104
$GPGGA,020828.00,3436.5264,N,12123.1044,W,1,08,1.0,11.5,M,-33.6,M,,*6C
$PYRTM,2024,126.089235531412,17.198882941551
$GPGGA,020829.00,3436.5249,N,12123.1023,W,1,08,1.0,11.3,M,-33.6,M,,*65
$PYRTM,2024,126.089251289676,17.198898699815
$GPGGA,020830.00,3436.5236,N,12123.1001,W,1,08,1.0,11.1,M,-33.6,M,,*67
$PYRTM,2024,126.089262852419,17.198910262558
$GPGGA,020831.00,3436.5226,N,12123.0976,W,1,08,1.0,10.9,M,-33.6,M,,*66
$PYRTM,2024,126.089270247708,17.198917657847
$GPGGA,020832.00,3436.5215,N,12123.0952,W,1,08,1.0,10.8,M,-33.6,M,,*62
$PYRTM,2024,126.089286000313,17.198933410451
$GPGGA,020833.00,3436.5202,N,12123.0928,W,1,08,1.0,10.8,M,-33.6,M,,*68
$PYRTM,2024,126.089297583090,17.198944993229
$GPGGA,020834.00,3436.5186,N,12123.0905,W,1,08,1.0,10.9,M,-33.6,M,,*6E
$PYRTM,2024,126.089309148530,17.198956558669
$GPGGA,020835.00,3436.5171,N,12123.0881,W,1,08,1.0,11.2,M,-33.6,M,,*60
$PYRTM,2024,126.089320731667,17.198968141806
