$PYRTM,2024,125.583348577245,16.692995987384
$GPGGA,140000.00,3510.6017,N,12151.3589,W,1,10,1.0,9.6,M,-32.7,M,,*59
$PYRTM,2024,125.583355983461,16.693003393600
$GPGGA,140001.00,3510.6019,N,12151.3618,W,1,10,1.0,9.1,M,-32.7,M,,*5A
$PYRTM,2024,125.583374651007,16.693022061146
$GPGGA,140002.00,3510.6022,N,12151.3646,W,1,10,1.0,8.3,M,-32.7,M,,*59
$PYRTM,2024,125.583383292801,16.693030702940
$GPGGA,140003.00,3510.6025,N,12151.3671,W,1,10,1.0,8.2,M,-32.7,M,,*5A
$PYRTM,2024,125.583394871875,16.693042282014
$GPGGA,140004.00,3510.6023,N,12151.3693,W,1,10,1.0,8.9,M,-32.7,M,,*5C
$PYRTM,2024,125.583406442164,16.693053852303
$GPGGA,140005.00,3510.6019,N,12151.3718,W,1,10,1.0,9.7,M,-32.7,M,,*59
$PYRTM,2024,125.583418028345,16.693065438495
$GPGGA,140006.00,3510.6019,N,12151.3747,W,1,10,1.0,9.4,M,-32.7,M,,*53
$PYRTM,2024,125.583429595590,16.693077005729
$GPGGA,140007.00,3510.6026,N,12151.3777,W,1,10,1.0,8.4,M,-32.7,M,,*5C
$PYRTM,2024,125.583441182014,16.693088592153
$GPGGA,140008.00,3510.6033,N,12151.3801,W,1,10,1.0,8.4,M,-32.7,M,,*59
$PYRTM,2024,125.583452738843,16.693100148981
$GPGGA,140009.00,3510.6029,N,12151.3820,W,1,10,1.0,9.1,M,-32.7,M,,*54
$PYRTM,2024,125.583464316968,16.693111727106
$GPGGA,140010.00,3510.6020,N,12151.3844,W,1,10,1.0,10.0,M,-32.7,M,,*6E
$PYRTM,2024,125.583475895000,16.693123305139
$GPGGA,140011.00,3510.6016,N,12151.3874,W,1,10,1.0,9.0,M,-32.7,M,,*51
$PYRTM,2024,125.583487465174,16.693134875312
$GPGGA,140012.00,3510.6024,N,12151.3904,W,1,10,1.0,7.3,M,-32.7,M,,*58
$PYRTM,2024,125.583499040162,16.693146450301
$GPGGA,140013.00,3510.6033,N,12151.3924,W,1,10,1.0,7.2,M,-32.7,M,,*5C
$PYRTM,2024,125.583510613762,16.693158023900
$GPGGA,140014.00,3510.6031,N,12151.3943,W,1,10,1.0,8.5,M,-32.7,M,,*50
$PYRTM,2024,125.583522182951,16.693169593090
$GPGGA,140015.00,3510.6022,N,12151.3969,W,1,10,1.0,9.0,M,-32.7,M,,*5F
$PYRTM,2024,125.583529583148,16.693176993287
$GPGGA,140016.00,3510.6020,N,12151.3997,W,1,10,1.0,8.5,M,-32.7,M,,*5B
$PYRTM,2024,125.583545338056,16.693192748194
$GPGGA,140017.00,3510.6027,N,12151.4018,W,1,10,1.0,8.3,M,-32.7,M,,*52
$PYRTM,2024,125.583552732338,16.693200142477
$GPGGA,140018.00,3510.6036,N,12151.4036,W,1,10,1.0,8.9,M,-32.7,M,,*5B
$PYRTM,2024,125.583564421667,16.693211831806
$GPGGA,140019.00,3510.6040,N,12151.4061,W,1,10,1.0,8.9,M,-32.7,M,,*59
$PYRTM,2024,125.583580066528,16.693227476667
$GPGGA,140020.00,3510.6039,N,12151.4089,W,1,10,1.0,8.8,M,-32.7,M,,*5A
$PYRTM,2024,125.583591633067,16.693239043206
$GPGGA,140021.00,3510.6036,N,12151.4110,W,1,10,1.0,8.9,M,-32.7,M,,*54
$PYRTM,2024,125.583603232303,16.693250642442
$GPGGA,140022.00,3510.6035,N,12151.4127,W,1,10,1.0,9.7,M,-32.7,M,,*5F
$PYRTM,2024,125.583614781736,16.693262191875
$GPGGA,140023.00,3510.6040,N,12151.4149,W,1,10,1.0,10.2,M,-32.7,M,,*69
$PYRTM,2024,125.583622177951,16.693269588090
$GPGGA,140024.00,3510.6045,N,12151.4176,W,1,10,1.0,8.5,M,-32.7,M,,*59
$PYRTM,2024,125.583637930440,16.693285340579
$GPGGA,140025.00,3510.6047,N,12151.4200,W,1,10,1.0,7.8,M,-32.7,M,,*5A
$PYRTM,2024,125.583649502940,16.693296913079
$GPGGA,140026.00,3510.6042,N,12151.4219,W,1,10,1.0,7.9,M,-32.7,M,,*55
$PYRTM,2024,125.583661077292,16.693308487431
$GPGGA,140027.00,3510.6039,N,12151.4237,W,1,10,1.0,8.7,M,-32.7,M,,*55
$PYRTM,2024,125.583672653727,16.693320063866
$GPGGA,140028.00,3510.6042,N,12151.4261,W,1,10,1.0,9.1,M,-32.7,M,,*52
$PYRTM,2024,125.583684220729,16.693331630868
$GPGGA,140029.00,3510.6044,N,12151.4287,W,1,10,1.0,9.0,M,-32.7,M,,*5C
$PYRTM,2024,125.583695807894,16.693343218032
$GPGGA,140030.00,3510.6041,N,12151.4312,W,1,10,1.0,8.7,M,-32.7,M,,*5A
$PYRTM,2024,125.583707375741,16.693354785880
$GPGGA,140031.00,3510.6039,N,12151.4334,W,1,10,1.0,8.6,M,-32.7,M,,*51
$PYRTM,2024,125.583714770093,16.693362180231
$GPGGA,140032.00,3510.6043,N,12151.4357,W,1,10,1.0,8.4,M,-32.7,M,,*58
$PYRTM,2024,125.583733416678,16.693380826817
$GPGGA,140033.00,3510.6047,N,12151.4377,W,1,10,1.0,9.2,M,-32.7,M,,*58
$PYRTM,2024,125.583742104630,16.693389514769
$GPGGA,140034.00,3510.6044,N,12151.4398,W,1,10,1.0,10.2,M,-32.7,M,,*65
$PYRTM,2024,125.583749502477,16.693396912616
$GPGGA,140035.00,3510.6040,N,12151.4422,W,1,10,1.0,10.3,M,-32.7,M,,*67
$PYRTM,2024,125.583765252894,16.693412663032
$GPGGA,140036.00,3510.6044,N,12151.4447,W,1,10,1.0,9.3,M,-32.7,M,,*5B
$PYRTM,2024,125.583776818681,16.693424228831
$GPGGA,140037.00,3510.6050,N,12151.4468,W,1,10,1.0,8.8,M,-32.7,M,,*58
$PYRTM,2024,125.583784214711,16.693431624850
$GPGGA,140038.00,3510.6049,N,12151.4486,W,1,10,1.0,9.2,M,-32.7,M,,*54
$PYRTM,2024,125.583799962789,16.693447372928
$GPGGA,140039.00,3510.6044,N,12151.4508,W,1,10,1.0,9.4,M,-32.7,M,,*59
$PYRTM,2024,125.583811553137,16.693458963275
$GPGGA,140040.00,3510.6042,N,12151.4535,W,1,10,1.0,8.6,M,-32.7,M,,*5C
$PYRTM,2024,125.583823233773,16.693470643924
$GPGGA,140041.00,3510.6045,N,12151.4556,W,1,10,1.0,8.1,M,-32.7,M,,*58
$PYRTM,2024,125.583834805417,16.693482215556
$GPGGA,140042.00,3510.6047,N,12151.4573,W,1,10,1.0,8.6,M,-32.7,M,,*59
$PYRTM,2024,125.583846375382,16.693493785532
$GPGGA,140043.00,3510.6046,N,12151.4596,W,1,10,1.0,9.0,M,-32.7,M,,*55
$PYRTM,2024,125.583857954456,16.693505364595
$GPGGA,140044.00,3510.6047,N,12151.4623,W,1,10,1.0,8.7,M,-32.7,M,,*58
$PYRTM,2024,125.583869528391,16.693516938530
$GPGGA,140045.00,3510.6045,N,12151.4644,W,1,10,1.0,8.6,M,-32.7,M,,*5B
$PYRTM,2024,125.583881103426,16.693528513565
$GPGGA,140046.00,3510.6042,N,12151.4663,W,1,10,1.0,9.2,M,-32.7,M,,*5F
$PYRTM,2024,125.583892677535,16.693540087674
$GPGGA,140047.00,3510.6042,N,12151.4686,W,1,10,1.0,9.3,M,-32.7,M,,*54
$PYRTM,2024,125.583899961250,16.693547371389
$GPGGA,140048.00,3510.6046,N,12151.4711,W,1,10,1.0,9.0,M,-32.7,M,,*53
$PYRTM,2024,125.583915708148,16.693563118287
$GPGGA,140049.00,3510.6049,N,12151.4733,W,1,10,1.0,9.0,M,-32.7,M,,*5D
$PYRTM,2024,125.583923104248,16.693570514387
$GPGGA,140050.00,3510.6046,N,12151.4755,W,1,10,1.0,9.3,M,-32.7,M,,*59
$PYRTM,2024,125.583938856701,16.693586266840
$GPGGA,140051.00,3510.6041,N,12151.4779,W,1,10,1.0,9.3,M,-32.7,M,,*51
$PYRTM,2024,125.583950438762,16.693597848900
$GPGGA,140052.00,3510.6040,N,12151.4803,W,1,10,1.0,9.0,M,-32.7,M,,*52
$PYRTM,2024,125.583962005359,16.693609415498
$GPGGA,140053.00,3510.6045,N,12151.4824,W,1,10,1.0,8.9,M,-32.7,M,,*5B
$PYRTM,2024,125.583973578831,16.693620988970
$GPGGA,140054.00,3510.6051,N,12151.4847,W,1,10,1.0,8.9,M,-32.7,M,,*5C
$PYRTM,2024,125.583985153843,16.693632563981
$GPGGA,140055.00,3510.6051,N,12151.4872,W,1,10,1.0,8.7,M,-32.7,M,,*55
$PYRTM,2024,125.583992549664,16.693639959792
$GPGGA,140056.00,3510.6044,N,12151.4895,W,1,10,1.0,8.8,M,-32.7,M,,*54
$PYRTM,2024,125.584008302569,16.693655712708
$GPGGA,140057.00,3510.6041,N,12151.4917,W,1,10,1.0,9.1,M,-32.7,M,,*53
$PYRTM,2024,125.584019875532,16.693667285671
$GPGGA,140058.00,3510.6047,N,12151.4940,W,1,10,1.0,9.5,M,-32.7,M,,*5C
$PYRTM,2024,125.584031450868,16.693678861007
$GPGGA,140059.00,3510.6056,N,12151.4967,W,1,10,1.0,8.7,M,-32.7,M,,*5B
$PYRTM,2024,125.584043024537,16.693690434676
$GPGGA,140100.00,3510.6057,N,12151.4993,W,1,10,1.0,8.1,M,-32.7,M,,*5A
$PYRTM,2024,125.584054593472,16.693702003611
$GPGGA,140101.00,3510.6051,N,12151.5014,W,1,10,1.0,8.6,M,-32.7,M,,*5D
$PYRTM,2024,125.584066180127,16.693713590266
$GPGGA,140102.00,3510.6049,N,12151.5035,W,1,10,1.0,9.5,M,-32.7,M,,*56
$PYRTM,2024,125.584073583750,16.693720993889
$GPGGA,140103.00,3510.6055,N,12151.5062,W,1,10,1.0,9.3,M,-32.7,M,,*5E
$PYRTM,2024,125.584092217407,16.693739627546
$GPGGA,140104.00,3510.6061,N,12151.5088,W,1,10,1.0,9.2,M,-32.7,M,,*5B
$PYRTM,2024,125.584100895150,16.693748305289
$GPGGA,140105.00,3510.6060,N,12151.5110,W,1,10,1.0,9.0,M,-32.7,M,,*59
$PYRTM,2024,125.584108290880,16.693755701019
$GPGGA,140106.00,3510.6057,N,12151.5131,W,1,10,1.0,9.0,M,-32.7,M,,*5D
$PYRTM,2024,125.584124043495,16.693771453634
$GPGGA,140107.00,3510.6056,N,12151.5155,W,1,10,1.0,8.9,M,-32.7,M,,*57
$PYRTM,2024,125.584135629641,16.693783039780
$GPGGA,140108.00,3510.6060,N,12151.5179,W,1,10,1.0,8.5,M,-32.7,M,,*5F
$PYRTM,2024,125.584147191285,16.693794601424
$GPGGA,140109.00,3510.6062,N,12151.5203,W,1,10,1.0,8.4,M,-32.7,M,,*53
$PYRTM,2024,125.584158765162,16.693806175301
$GPGGA,140110.00,3510.6061,N,12151.5228,W,1,10,1.0,8.5,M,-32.7,M,,*50
$PYRTM,2024,125.584166175995,16.693813586134
$GPGGA,140111.00,3510.6059,N,12151.5253,W,1,10,1.0,8.7,M,-32.7,M,,*54
$PYRTM,2024,125.584181914306,16.693829324444
$GPGGA,140112.00,3510.6059,N,12151.5274,W,1,10,1.0,9.3,M,-32.7,M,,*57
$PYRTM,2024,125.584193489294,16.693840899433
$GPGGA,140113.00,3510.6061,N,12151.5296,W,1,10,1.0,10.0,M,-32.7,M,,*6A
$PYRTM,2024,125.584205073866,16.693852484005
$GPGGA,140114.00,3510.6062,N,12151.5322,W,1,10,1.0,9.7,M,-32.7,M,,*5F
$PYRTM,2024,125.584216638345,16.693864048484
$GPGGA,140115.00,3510.6063,N,12151.5350,W,1,10,1.0,8.4,M,-32.7,M,,*58
$PYRTM,2024,125.584228210486,16.693875620625
$GPGGA,140116.00,3510.6066,N,12151.5374,W,1,10,1.0,7.5,M,-32.7,M,,*56
$PYRTM,2024,125.584239779375,16.693887189514
$GPGGA,140117.00,3510.6069,N,12151.5393,W,1,10,1.0,8.2,M,-32.7,M,,*59
$PYRTM,2024,125.584251384271,16.693898794410
$GPGGA,140118.00,3510.6070,N,12151.5412,W,1,10,1.0,9.5,M,-32.7,M,,*56
$PYRTM,2024,125.584262935405,16.693910345544
$GPGGA,140119.00,3510.6068,N,12151.5439,W,1,10,1.0,10.0,M,-32.7,M,,*6A
$PYRTM,2024,125.584274509583,16.693921919722
$GPGGA,140120.00,3510.6068,N,12151.5470,W,1,10,1.0,9.0,M,-32.7,M,,*55
$PYRTM,2024,125.584281913854,16.693929323993
$GPGGA,140121.00,3510.6073,N,12151.5491,W,1,10,1.0,8.3,M,-32.7,M,,*53
$PYRTM,2024,125.584297655475,16.693945065613
$GPGGA,140122.00,3510.6077,N,12151.5507,W,1,10,1.0,8.8,M,-32.7,M,,*51
$PYRTM,2024,125.584309230301,16.693956640440
$GPGGA,140123.00,3510.6078,N,12151.5528,W,1,10,1.0,9.4,M,-32.7,M,,*5F
$PYRTM,2024,125.584320803229,16.693968213368
$GPGGA,140124.00,3510.6077,N,12151.5555,W,1,10,1.0,9.3,M,-32.7,M,,*5A
$PYRTM,2024,125.584332378981,16.693979789120
$GPGGA,140125.00,3510.6078,N,12151.5582,W,1,10,1.0,8.9,M,-32.7,M,,*55
$PYRTM,2024,125.584339773669,16.693987183819
$GPGGA,140126.00,3510.6082,N,12151.5604,W,1,10,1.0,8.8,M,-32.7,M,,*5F
$PYRTM,2024,125.584355526100,16.694002936238
$GPGGA,140127.00,3510.6085,N,12151.5624,W,1,10,1.0,9.4,M,-32.7,M,,*56
$PYRTM,2024,125.584367099826,16.694014509965
$GPGGA,140128.00,3510.6084,N,12151.5646,W,1,10,1.0,10.1,M,-32.7,M,,*61
$PYRTM,2024,125.584378675301,16.694026085451
$GPGGA,140129.00,3510.6084,N,12151.5672,W,1,10,1.0,9.9,M,-32.7,M,,*57
$PYRTM,2024,125.584390248981,16.694037659120
$GPGGA,140130.00,3510.6087,N,12151.5697,W,1,10,1.0,8.9,M,-32.7,M,,*56
$PYRTM,2024,125.584397654988,16.694045065127
$GPGGA,140131.00,3510.6091,N,12151.5721,W,1,10,1.0,8.6,M,-32.7,M,,*53
$PYRTM,2024,125.584413404456,16.694060814606
$GPGGA,140132.00,3510.6094,N,12151.5744,W,1,10,1.0,8.7,M,-32.7,M,,*57
$PYRTM,2024,125.584424972477,16.694072382616
$GPGGA,140133.00,3510.6094,N,12151.5768,W,1,10,1.0,9.1,M,-32.7,M,,*5F
$PYRTM,2024,125.584432367199,16.694079777338
$GPGGA,140134.00,3510.6092,N,12151.5794,W,1,10,1.0,9.1,M,-32.7,M,,*5D
$PYRTM,2024,125.584451013981,16.694098424120
$GPGGA,140135.00,3510.6092,N,12151.5820,W,1,10,1.0,8.9,M,-32.7,M,,*55
$PYRTM,2024,125.584463972662,16.694111382801
$GPGGA,140136.00,3510.6097,N,12151.5844,W,1,10,1.0,8.8,M,-32.7,M,,*50
$PYRTM,2024,125.584474161875,16.694121572025
$GPGGA,140137.00,3510.6101,N,12151.5865,W,1,10,1.0,9.3,M,-32.7,M,,*56
$PYRTM,2024,125.584485736100,16.694133146250
$GPGGA,140138.00,3510.6102,N,12151.5889,W,1,10,1.0,9.5,M,-32.7,M,,*5E
$PYRTM,2024,125.584497310000,16.694144720150
$GPGGA,140139.00,3510.6100,N,12151.5918,W,1,10,1.0,8.5,M,-32.7,M,,*55
$PYRTM,2024,125.584506001586,16.694153411725
$GPGGA,140140.00,3510.6100,N,12151.5943,W,1,10,1.0,7.6,M,-32.7,M,,*59
$PYRTM,2024,125.584517565891,16.694164976030
$GPGGA,140141.00,3510.6105,N,12151.5964,W,1,10,1.0,8.3,M,-32.7,M,,*52
$PYRTM,2024,125.584529138206,16.694176548345
$GPGGA,140142.00,3510.6109,N,12151.5987,W,1,10,1.0,9.0,M,-32.7,M,,*52
$PYRTM,2024,125.584540714491,16.694188124641
$GPGGA,140143.00,3510.6109,N,12151.6013,W,1,10,1.0,9.5,M,-32.7,M,,*51
$PYRTM,2024,125.584548107963,16.694195518102
$GPGGA,140144.00,3510.6108,N,12151.6038,W,1,10,1.0,9.8,M,-32.7,M,,*53
$PYRTM,2024,125.584563861759,16.694211271910
$GPGGA,140145.00,3510.6110,N,12151.6062,W,1,10,1.0,9.8,M,-32.7,M,,*54
$PYRTM,2024,125.584571256030,16.694218666181
$GPGGA,140146.00,3510.6115,N,12151.6087,W,1,10,1.0,9.0,M,-32.7,M,,*51
$PYRTM,2024,125.584587009745,16.694234419884
$GPGGA,140147.00,3510.6117,N,12151.6111,W,1,10,1.0,9.1,M,-32.7,M,,*5D
$PYRTM,2024,125.584598609271,16.694246019410
$GPGGA,140148.00,3510.6115,N,12151.6135,W,1,10,1.0,9.4,M,-32.7,M,,*53
$PYRTM,2024,125.584610157593,16.694257567731
$GPGGA,140149.00,3510.6114,N,12151.6161,W,1,10,1.0,9.6,M,-32.7,M,,*50
$PYRTM,2024,125.584621731840,16.694269141979
$GPGGA,140150.00,3510.6116,N,12151.6188,W,1,10,1.0,9.5,M,-32.7,M,,*5E
$PYRTM,2024,125.584633306713,16.694280716852
$GPGGA,140151.00,3510.6121,N,12151.6213,W,1,10,1.0,9.6,M,-32.7,M,,*59
$PYRTM,2024,125.584644879838,16.694292289977
$GPGGA,140152.00,3510.6123,N,12151.6239,W,1,10,1.0,9.6,M,-32.7,M,,*50
$PYRTM,2024,125.584656448403,16.694303858542
$GPGGA,140153.00,3510.6121,N,12151.6265,W,1,10,1.0,9.5,M,-32.7,M,,*59
$PYRTM,2024,125.584668028102,16.694315438252
$GPGGA,140154.00,3510.6120,N,12151.6290,W,1,10,1.0,9.6,M,-32.7,M,,*56
$PYRTM,2024,125.584679598241,16.694327008380
$GPGGA,140155.00,3510.6121,N,12151.6315,W,1,10,1.0,9.7,M,-32.7,M,,*5B
$PYRTM,2024,125.584691177627,16.694338587766
$GPGGA,140156.00,3510.6125,N,12151.6342,W,1,10,1.0,9.8,M,-32.7,M,,*51
$PYRTM,2024,125.584702751944,16.694350162083
$GPGGA,140157.00,3510.6128,N,12151.6368,W,1,10,1.0,10.0,M,-32.7,M,,*65
$PYRTM,2024,125.584714337164,16.694361747303
$GPGGA,140158.00,3510.6128,N,12151.6392,W,1,10,1.0,10.3,M,-32.7,M,,*6C
$PYRTM,2024,125.584721731782,16.694369141921
$GPGGA,140159.00,3510.6124,N,12151.6418,W,1,10,1.0,10.4,M,-32.7,M,,*63
$PYRTM,2024,125.584737473009,16.694384883148
$GPGGA,140200.00,3510.6122,N,12151.6446,W,1,10,1.0,10.0,M,-32.7,M,,*65
$PYRTM,2024,125.584749049236,16.694396459375
$GPGGA,140201.00,3510.6128,N,12151.6473,W,1,10,1.0,9.3,M,-32.7,M,,*53
$PYRTM,2024,125.584760631192,16.694408041343
$GPGGA,140202.00,3510.6135,N,12151.6498,W,1,10,1.0,9.1,M,-32.7,M,,*5B
$PYRTM,2024,125.584772196458,16.694419606597
$GPGGA,140203.00,3510.6135,N,12151.6523,W,1,10,1.0,9.7,M,-32.7,M,,*5D
$PYRTM,2024,125.584779590787,16.694427000926
$GPGGA,140204.00,3510.6131,N,12151.6546,W,1,10,1.0,10.7,M,-32.7,M,,*65
$PYRTM,2024,125.584791395463,16.694438805602
$GPGGA,140205.00,3510.6130,N,12151.6574,W,1,10,1.0,10.9,M,-32.7,M,,*6A
$PYRTM,2024,125.584809819051,16.694457229201
$GPGGA,140206.00,3510.6134,N,12151.6604,W,1,10,1.0,10.0,M,-32.7,M,,*60
$PYRTM,2024,125.584818491331,16.694465901481
$GPGGA,140207.00,3510.6139,N,12151.6628,W,1,10,1.0,9.6,M,-32.7,M,,*5C
$PYRTM,2024,125.584825885787,16.694473295926
$GPGGA,140208.00,3510.6140,N,12151.6646,W,1,10,1.0,10.1,M,-32.7,M,,*6A
$PYRTM,2024,125.584841641701,16.694489051840
$GPGGA,140209.00,3510.6138,N,12151.6671,W,1,10,1.0,10.5,M,-32.7,M,,*64
$PYRTM,2024,125.584853216528,16.694500626678
$GPGGA,140210.00,3510.6138,N,12151.6700,W,1,10,1.0,9.8,M,-32.7,M,,*5E
$PYRTM,2024,125.584864783843,16.694512193981
$GPGGA,140211.00,3510.6140,N,12151.6725,W,1,10,1.0,9.0,M,-32.7,M,,*5F
$PYRTM,2024,125.584876362569,16.694523772708
$GPGGA,140212.00,3510.6142,N,12151.6746,W,1,10,1.0,9.1,M,-32.7,M,,*5A
$PYRTM,2024,125.584887936458,16.694535346597
$GPGGA,140213.00,3510.6146,N,12151.6769,W,1,10,1.0,9.6,M,-32.7,M,,*55
$PYRTM,2024,125.584895331088,16.694542741227
$GPGGA,140214.00,3510.6147,N,12151.6794,W,1,10,1.0,9.8,M,-32.7,M,,*5F
$PYRTM,2024,125.584911086146,16.694558496296
$GPGGA,140215.00,3510.6144,N,12151.6819,W,1,10,1.0,9.8,M,-32.7,M,,*57
$PYRTM,2024,125.584918480509,16.694565890660
$GPGGA,140216.00,3510.6142,N,12151.6845,W,1,10,1.0,9.5,M,-32.7,M,,*56
$PYRTM,2024,125.584930170150,16.694577580289
$GPGGA,140217.00,3510.6145,N,12151.6870,W,1,10,1.0,9.1,M,-32.7,M,,*52
$PYRTM,2024,125.584945815451,16.694593225602
$GPGGA,140218.00,3510.6152,N,12151.6892,W,1,10,1.0,9.3,M,-32.7,M,,*55
$PYRTM,2024,125.584957381169,16.694604791308
$GPGGA,140219.00,3510.6157,N,12151.6916,W,1,10,1.0,9.5,M,-32.7,M,,*5A
$PYRTM,2024,125.584968968495,16.694616378646
$GPGGA,140220.00,3510.6154,N,12151.6944,W,1,10,1.0,9.3,M,-32.7,M,,*52
$PYRTM,2024,125.584980530590,16.694627940729
$GPGGA,140221.00,3510.6149,N,12151.6969,W,1,10,1.0,9.1,M,-32.7,M,,*52
$PYRTM,2024,125.584987924942,16.694635335081
$GPGGA,140222.00,3510.6150,N,12151.6990,W,1,10,1.0,9.7,M,-32.7,M,,*59
$PYRTM,2024,125.585003673426,16.694651083565
$GPGGA,140223.00,3510.6157,N,12151.7013,W,1,10,1.0,10.3,M,-32.7,M,,*60
$PYRTM,2024,125.585015251829,16.694662661968
$GPGGA,140224.00,3510.6164,N,12151.7040,W,1,10,1.0,10.0,M,-32.7,M,,*62
$PYRTM,2024,125.585026827685,16.694674237824
$GPGGA,140225.00,3510.6165,N,12151.7067,W,1,10,1.0,9.3,M,-32.7,M,,*5C
$PYRTM,2024,125.585038402859,16.694685812998
$GPGGA,140226.00,3510.6161,N,12151.7090,W,1,10,1.0,9.1,M,-32.7,M,,*51
$PYRTM,2024,125.585045808495,16.694693218634
$GPGGA,140227.00,3510.6161,N,12151.7111,W,1,10,1.0,9.6,M,-32.7,M,,*5F
$PYRTM,2024,125.585061549444,16.694708959595
$GPGGA,140228.00,3510.6164,N,12151.7135,W,1,10,1.0,10.0,M,-32.7,M,,*6D
$PYRTM,2024,125.585073122882,16.694720533021
$GPGGA,140229.00,3510.6168,N,12151.7164,W,1,10,1.0,9.7,M,-32.7,M,,*5B
$PYRTM,2024,125.585084722558,16.694732132697
$GPGGA,140230.00,3510.6170,N,12151.7189,W,1,10,1.0,9.3,M,-32.7,M,,*5D
$PYRTM,2024,125.585096271644,16.694743681782
$GPGGA,140231.00,3510.6169,N,12151.7210,W,1,10,1.0,9.5,M,-32.7,M,,*51
$PYRTM,2024,125.585103667072,16.694751077211
$GPGGA,140232.00,3510.6168,N,12151.7233,W,1,10,1.0,9.8,M,-32.7,M,,*5F
$PYRTM,2024,125.585119415451,16.694766825590
$GPGGA,140233.00,3510.6169,N,12151.7261,W,1,10,1.0,9.3,M,-32.7,M,,*53
$PYRTM,2024,125.585131001933,16.694778412083
$GPGGA,140234.00,3510.6171,N,12151.7286,W,1,10,1.0,8.9,M,-32.7,M,,*5F
$PYRTM,2024,125.585142568113,16.694789978252
$GPGGA,140235.00,3510.6173,N,12151.7305,W,1,10,1.0,9.4,M,-32.7,M,,*5A
$PYRTM,2024,125.585149964641,16.694797374780
$GPGGA,140236.00,3510.6173,N,12151.7327,W,1,10,1.0,9.9,M,-32.7,M,,*54
$PYRTM,2024,125.585168604954,16.694816015093
$GPGGA,140237.00,3510.6173,N,12151.7353,W,1,10,1.0,9.7,M,-32.7,M,,*58
$PYRTM,2024,125.585177289572,16.694824699711
$GPGGA,140238.00,3510.6174,N,12151.7380,W,1,10,1.0,8.8,M,-32.7,M,,*50
$PYRTM,2024,125.585188864572,16.694836274711
$GPGGA,140239.00,3510.6178,N,12151.7404,W,1,10,1.0,8.1,M,-32.7,M,,*5F
$PYRTM,2024,125.585196259641,16.694843669792
$GPGGA,140240.00,3510.6180,N,12151.7427,W,1,10,1.0,8.3,M,-32.7,M,,*55
$PYRTM,2024,125.585212008715,16.694859419225
$GPGGA,140241.00,3510.6181,N,12151.7449,W,1,10,1.0,8.9,M,-32.7,M,,*57
$PYRTM,2024,125.585223599271,16.694871009410
$GPGGA,140242.00,3510.6183,N,12151.7475,W,1,10,1.0,9.3,M,-32.7,M,,*52
$PYRTM,2024,125.585235161921,16.694882572060
$GPGGA,140243.00,3510.6183,N,12151.7503,W,1,10,1.0,9.1,M,-32.7,M,,*51
$PYRTM,2024,125.585242556968,16.694889967106
$GPGGA,140244.00,3510.6185,N,12151.7528,W,1,10,1.0,8.8,M,-32.7,M,,*51
$PYRTM,2024,125.585254247639,16.694901657778
$GPGGA,140245.00,3510.6188,N,12151.7551,W,1,10,1.0,8.9,M,-32.7,M,,*52
$PYRTM,2024,125.585269891204,16.694917301354
$GPGGA,140246.00,3510.6191,N,12151.7575,W,1,10,1.0,9.0,M,-32.7,M,,*57
$PYRTM,2024,125.585281458773,16.694928868912
$GPGGA,140247.00,3510.6193,N,12151.7601,W,1,10,1.0,8.7,M,-32.7,M,,*52
$PYRTM,2024,125.585293032488,16.694940442627
$GPGGA,140248.00,3510.6194,N,12151.7628,W,1,10,1.0,8.3,M,-32.7,M,,*55
$PYRTM,2024,125.585304606493,16.694952016632
$GPGGA,140249.00,3510.6193,N,12151.7651,W,1,10,1.0,8.7,M,-32.7,M,,*59
$PYRTM,2024,125.585312001690,16.694959411840
$GPGGA,140250.00,3510.6193,N,12151.7673,W,1,10,1.0,9.3,M,-32.7,M,,*54
$PYRTM,2024,125.585327755150,16.694975165289
$GPGGA,140251.00,3510.6195,N,12151.7700,W,1,10,1.0,9.4,M,-32.7,M,,*51
$PYRTM,2024,125.585339448160,16.694986858299
$GPGGA,140252.00,3510.6198,N,12151.7727,W,1,10,1.0,9.1,M,-32.7,M,,*5F
$PYRTM,2024,125.585351018970,16.694998429109
$GPGGA,140253.00,3510.6199,N,12151.7752,W,1,10,1.0,8.9,M,-32.7,M,,*54
$PYRTM,2024,125.585362488738,16.695009898877
$GPGGA,140254.00,3510.6199,N,12151.7777,W,1,10,1.0,8.6,M,-32.7,M,,*5B
$PYRTM,2024,125.585369883831,16.695017293970
$GPGGA,140255.00,3510.6199,N,12151.7804,W,1,10,1.0,8.3,M,-32.7,M,,*54
$PYRTM,2024,125.585385624653,16.695033034792
$GPGGA,140256.00,3510.6200,N,12151.7829,W,1,10,1.0,8.5,M,-32.7,M,,*5D
$PYRTM,2024,125.585397195243,16.695044605382
$GPGGA,140257.00,3510.6199,N,12151.7850,W,1,10,1.0,9.5,M,-32.7,M,,*50
$PYRTM,2024,125.585408784965,16.695056195104
$GPGGA,140258.00,3510.6199,N,12151.7874,W,1,10,1.0,10.1,M,-32.7,M,,*65
$PYRTM,2024,125.585420342894,16.695067753032
$GPGGA,140259.00,3510.6203,N,12151.7904,W,1,10,1.0,9.4,M,-32.7,M,,*5F
$PYRTM,2024,125.585427742350,16.695075152488
$GPGGA,140300.00,3510.6205,N,12151.7931,W,1,10,1.0,8.4,M,-32.7,M,,*53
$PYRTM,2024,125.585443495995,16.695090906134
$GPGGA,140301.00,3510.6206,N,12151.7954,W,1,10,1.0,8.2,M,-32.7,M,,*54
$PYRTM,2024,125.585455077454,16.695102487593
$GPGGA,140302.00,3510.6204,N,12151.7976,W,1,10,1.0,9.0,M,-32.7,M,,*56
$PYRTM,2024,125.585462475428,16.695109885567
$GPGGA,140303.00,3510.6202,N,12151.8000,W,1,10,1.0,10.0,M,-32.7,M,,*6E
$PYRTM,2024,125.585478206863,16.695125617002
$GPGGA,140304.00,3510.6201,N,12151.8027,W,1,10,1.0,10.4,M,-32.7,M,,*6B
$PYRTM,2024,125.585489796134,16.695137206285
$GPGGA,140305.00,3510.6203,N,12151.8054,W,1,10,1.0,9.8,M,-32.7,M,,*58
$PYRTM,2024,125.585501354792,16.695148764931
$GPGGA,140306.00,3510.6210,N,12151.8080,W,1,10,1.0,8.7,M,-32.7,M,,*5E
$PYRTM,2024,125.585508762176,16.695156172315
$GPGGA,140307.00,3510.6214,N,12151.8105,W,1,10,1.0,8.0,M,-32.7,M,,*50
$PYRTM,2024,125.585527408056,16.695174818206
$GPGGA,140308.00,3510.6212,N,12151.8127,W,1,10,1.0,8.6,M,-32.7,M,,*5F
$PYRTM,2024,125.585536084375,16.695183494514
$GPGGA,140309.00,3510.6207,N,12151.8149,W,1,10,1.0,9.9,M,-32.7,M,,*5C
$PYRTM,2024,125.585547650868,16.695195061007
$GPGGA,140310.00,3510.6204,N,12151.8176,W,1,10,1.0,10.3,M,-32.7,M,,*69
$PYRTM,2024,125.585559233090,16.695206643229
$GPGGA,140311.00,3510.6209,N,12151.8206,W,1,10,1.0,9.8,M,-32.7,M,,*52
$PYRTM,2024,125.585566646134,16.695214056273
$GPGGA,140312.00,3510.6216,N,12151.8228,W,1,10,1.0,9.8,M,-32.7,M,,*53
$PYRTM,2024,125.585582388009,16.695229798148
$GPGGA,140313.00,3510.6219,N,12151.8248,W,1,10,1.0,10.0,M,-32.7,M,,*6B
$PYRTM,2024,125.585593947222,16.695241357361
$GPGGA,140314.00,3510.6218,N,12151.8272,W,1,10,1.0,10.0,M,-32.7,M,,*64
$PYRTM,2024,125.585601354722,16.695248764861
$GPGGA,140315.00,3510.6217,N,12151.8298,W,1,10,1.0,9.9,M,-32.7,M,,*5F
$PYRTM,2024,125.585617096759,16.695264506898
$GPGGA,140316.00,3510.6216,N,12151.8320,W,1,10,1.0,10.3,M,-32.7,M,,*6D
$PYRTM,2024,125.585628683345,16.695276093484
$GPGGA,140317.00,3510.6218,N,12151.8344,W,1,10,1.0,10.6,M,-32.7,M,,*65
$PYRTM,2024,125.585640244213,16.695287654352
$GPGGA,140318.00,3510.6221,N,12151.8370,W,1,10,1.0,10.4,M,-32.7,M,,*65
$PYRTM,2024,125.585651826273,16.695299236412
$GPGGA,140319.00,3510.6224,N,12151.8395,W,1,10,1.0,10.0,M,-32.7,M,,*6E
$PYRTM,2024,125.585659227766,16.695306637917
$GPGGA,140320.00,3510.6223,N,12151.8417,W,1,10,1.0,10.0,M,-32.7,M,,*6E
$PYRTM,2024,125.585674982431,16.695322392569
$GPGGA,140321.00,3510.6222,N,12151.8442,W,1,10,1.0,9.8,M,-32.7,M,,*5E
$PYRTM,2024,125.585686542060,16.695333952211
$GPGGA,140322.00,3510.6223,N,12151.8469,W,1,10,1.0,9.5,M,-32.7,M,,*58
$PYRTM,2024,125.585693950069,16.695341360208
$GPGGA,140323.00,3510.6224,N,12151.8493,W,1,10,1.0,9.7,M,-32.7,M,,*59
$PYRTM,2024,125.585709689398,16.695357099537
$GPGGA,140324.00,3510.6223,N,12151.8515,W,1,10,1.0,10.2,M,-32.7,M,,*6B
$PYRTM,2024,125.585721275845,16.695368685984
$GPGGA,140325.00,3510.6221,N,12151.8539,W,1,10,1.0,10.2,M,-32.7,M,,*66
$PYRTM,2024,125.585732838634,16.695380248773
$GPGGA,140326.00,3510.6223,N,12151.8568,W,1,10,1.0,9.2,M,-32.7,M,,*5B
$PYRTM,2024,125.585744427292,16.695391837431
$GPGGA,140327.00,3510.6229,N,12151.8591,W,1,10,1.0,8.3,M,-32.7,M,,*56
$PYRTM,2024,125.585751832801,16.695399242940
$GPGGA,140328.00,3510.6230,N,12151.8608,W,1,10,1.0,8.9,M,-32.7,M,,*58
$PYRTM,2024,125.585767567569,16.695414977708
$GPGGA,140329.00,3510.6225,N,12151.8631,W,1,10,1.0,9.7,M,-32.7,M,,*58
$PYRTM,2024,125.585774967801,16.695422377940
$GPGGA,140330.00,3510.6222,N,12151.8659,W,1,10,1.0,9.4,M,-32.7,M,,*5A
$PYRTM,2024,125.585786668090,16.695434078229
$GPGGA,140331.00,3510.6225,N,12151.8684,W,1,10,1.0,8.8,M,-32.7,M,,*51
$PYRTM,2024,125.585802281065,16.695449691204
$GPGGA,140332.00,3510.6231,N,12151.8704,W,1,10,1.0,8.6,M,-32.7,M,,*50
$PYRTM,2024,125.585813868900,16.695461279039
$GPGGA,140333.00,3510.6233,N,12151.8726,W,1,10,1.0,8.7,M,-32.7,M,,*52
$PYRTM,2024,125.585825430498,16.695472840648
$GPGGA,140334.00,3510.6233,N,12151.8751,W,1,10,1.0,8.5,M,-32.7,M,,*57
$PYRTM,2024,125.585837020266,16.695484430417
$GPGGA,140335.00,3510.6234,N,12151.8775,W,1,10,1.0,8.3,M,-32.7,M,,*51
$PYRTM,2024,125.585844412106,16.695491822245
$GPGGA,140336.00,3510.6235,N,12151.8795,W,1,10,1.0,8.8,M,-32.7,M,,*56
$PYRTM,2024,125.585860168646,16.695507578785
$GPGGA,140337.00,3510.6233,N,12151.8819,W,1,10,1.0,9.5,M,-32.7,M,,*56
$PYRTM,2024,125.585867562778,16.695514972917
$GPGGA,140338.00,3510.6232,N,12151.8845,W,1,10,1.0,9.5,M,-32.7,M,,*51
$PYRTM,2024,125.585886206852,16.695533617002
$GPGGA,140339.00,3510.6236,N,12151.8868,W,1,10,1.0,9.2,M,-32.7,M,,*5C
$PYRTM,2024,125.585894875625,16.695542285764
$GPGGA,140340.00,3510.6242,N,12151.8887,W,1,10,1.0,9.4,M,-32.7,M,,*56
$PYRTM,2024,125.585906456863,16.695553867002
$GPGGA,140341.00,3510.6244,N,12151.8910,W,1,10,1.0,9.5,M,-32.7,M,,*5F
$PYRTM,2024,125.585918024491,16.695565434641
$GPGGA,140342.00,3510.6244,N,12151.8938,W,1,10,1.0,8.9,M,-32.7,M,,*5B
$PYRTM,2024,125.585929610845,16.695577020984
$GPGGA,140343.00,3510.6243,N,12151.8963,W,1,10,1.0,8.6,M,-32.7,M,,*5C
$PYRTM,2024,125.585937018472,16.695584428611
$GPGGA,140344.00,3510.6242,N,12151.8981,W,1,10,1.0,9.5,M,-32.7,M,,*54
$PYRTM,2024,125.585952759201,16.695600169340
$GPGGA,140345.00,3510.6243,N,12151.9001,W,1,10,1.0,10.7,M,-32.7,M,,*6E
$PYRTM,2024,125.585964321111,16.695611731250
$GPGGA,140346.00,3510.6246,N,12151.9028,W,1,10,1.0,10.6,M,-32.7,M,,*62
$PYRTM,2024,125.585975901539,16.695623311678
$GPGGA,140347.00,3510.6246,N,12151.9053,W,1,10,1.0,9.5,M,-32.7,M,,*54
$PYRTM,2024,125.585987467257,16.695634877396
$GPGGA,140348.00,3510.6246,N,12151.9075,W,1,10,1.0,8.8,M,-32.7,M,,*53
$PYRTM,2024,125.585999058194,16.695646468322
$GPGGA,140349.00,3510.6246,N,12151.9095,W,1,10,1.0,8.9,M,-32.7,M,,*5D
$PYRTM,2024,125.586010615984,16.695658026123
$GPGGA,140350.00,3510.6247,N,12151.9117,W,1,10,1.0,9.2,M,-32.7,M,,*55
$PYRTM,2024,125.586022218194,16.695669628333
$GPGGA,140351.00,3510.6244,N,12151.9141,W,1,10,1.0,9.6,M,-32.7,M,,*50
$PYRTM,2024,125.586033764363,16.695681174502
$GPGGA,140352.00,3510.6242,N,12151.9167,W,1,10,1.0,9.7,M,-32.7,M,,*50
$PYRTM,2024,125.586045354456,16.695692764595
$GPGGA,140353.00,3510.6244,N,12151.9192,W,1,10,1.0,9.5,M,-32.7,M,,*5F
$PYRTM,2024,125.586056912708,16.695704322847
$GPGGA,140354.00,3510.6250,N,12151.9214,W,1,10,1.0,9.4,M,-32.7,M,,*51
$PYRTM,2024,125.586068499687,16.695715909826
$GPGGA,140355.00,3510.6254,N,12151.9236,W,1,10,1.0,9.3,M,-32.7,M,,*53
$PYRTM,2024,125.586080061759,16.695727471910
$GPGGA,140356.00,3510.6256,N,12151.9262,W,1,10,1.0,8.9,M,-32.7,M,,*58
$PYRTM,2024,125.586091648333,16.695739058472
$GPGGA,140357.00,3510.6256,N,12151.9288,W,1,10,1.0,8.6,M,-32.7,M,,*52
$PYRTM,2024,125.586103209178,16.695750619306
$GPGGA,140358.00,3510.6256,N,12151.9309,W,1,10,1.0,9.2,M,-32.7,M,,*50
$PYRTM,2024,125.586114795417,16.695762205556
$GPGGA,140359.00,3510.6255,N,12151.9331,W,1,10,1.0,10.2,M,-32.7,M,,*61
$PYRTM,2024,125.586126357431,16.695773767558
$GPGGA,140400.00,3510.6257,N,12151.9355,W,1,10,1.0,10.6,M,-32.7,M,,*6E
$PYRTM,2024,125.586133764896,16.695781175035
$GPGGA,140401.00,3510.6261,N,12151.9382,W,1,10,1.0,9.6,M,-32.7,M,,*58
$PYRTM,2024,125.586149506181,16.695796916319
$GPGGA,140402.00,3510.6267,N,12151.9408,W,1,10,1.0,8.0,M,-32.7,M,,*5F
$PYRTM,2024,125.586161092639,16.695808502778
$GPGGA,140403.00,3510.6267,N,12151.9432,W,1,10,1.0,7.4,M,-32.7,M,,*5C
$PYRTM,2024,125.586172653206,16.695820063345
$GPGGA,140404.00,3510.6260,N,12151.9453,W,1,10,1.0,8.2,M,-32.7,M,,*52
$PYRTM,2024,125.586184243843,16.695831653981
$GPGGA,140405.00,3510.6256,N,12151.9475,W,1,10,1.0,9.6,M,-32.7,M,,*57
$PYRTM,2024,125.586195801644,16.695843211782
$GPGGA,140406.00,3510.6257,N,12151.9501,W,1,10,1.0,10.1,M,-32.7,M,,*68
$PYRTM,2024,125.586207392234,16.695854802373
$GPGGA,140407.00,3510.6263,N,12151.9529,W,1,10,1.0,9.1,M,-32.7,M,,*5C
$PYRTM,2024,125.586218950486,16.695866360625
$GPGGA,140408.00,3510.6267,N,12151.9554,W,1,10,1.0,8.3,M,-32.7,M,,*5E
$PYRTM,2024,125.586226356840,16.695873766979
$GPGGA,140409.00,3510.6268,N,12151.9575,W,1,10,1.0,8.2,M,-32.7,M,,*52
$PYRTM,2024,125.586244993183,16.695892403310
$GPGGA,140410.00,3510.6264,N,12151.9596,W,1,10,1.0,8.9,M,-32.7,M,,*50
$PYRTM,2024,125.586256580127,16.695903990278
$GPGGA,140411.00,3510.6262,N,12151.9623,W,1,10,1.0,9.4,M,-32.7,M,,*56
$PYRTM,2024,125.586268140023,16.695915550162
$GPGGA,140412.00,3510.6265,N,12151.9650,W,1,10,1.0,9.7,M,-32.7,M,,*55
$PYRTM,2024,125.586276834225,16.695924244375
$GPGGA,140413.00,3510.6272,N,12151.9674,W,1,10,1.0,10.1,M,-32.7,M,,*6A
$PYRTM,2024,125.586284229838,16.695931639977
$GPGGA,140414.00,3510.6277,N,12151.9698,W,1,10,1.0,10.2,M,-32.7,M,,*69
$PYRTM,2024,125.586299977396,16.695947387535
$GPGGA,140415.00,3510.6278,N,12151.9725,W,1,10,1.0,9.6,M,-32.7,M,,*5C
$PYRTM,2024,125.586307377836,16.695954787975
$GPGGA,140416.00,3510.6277,N,12151.9749,W,1,10,1.0,9.1,M,-32.7,M,,*5D
$PYRTM,2024,125.586319066586,16.695966476725
$GPGGA,140417.00,3510.6276,N,12151.9770,W,1,10,1.0,9.3,M,-32.7,M,,*55
$PYRTM,2024,125.586334691863,16.695982102002
$GPGGA,140418.00,3510.6277,N,12151.9795,W,1,10,1.0,9.8,M,-32.7,M,,*5B
$PYRTM,2024,125.586346282350,16.695993692488
$GPGGA,140419.00,3510.6283,N,12151.9822,W,1,10,1.0,9.5,M,-32.7,M,,*5F
$PYRTM,2024,125.586357840104,16.696005250243
$GPGGA,140420.00,3510.6287,N,12151.9848,W,1,10,1.0,8.5,M,-32.7,M,,*5C
$PYRTM,2024,125.586369441817,16.696016851956
$GPGGA,140421.00,3510.6287,N,12151.9871,W,1,10,1.0,8.2,M,-32.7,M,,*50
$PYRTM,2024,125.586380990822,16.696028400972
$GPGGA,140422.00,3510.6283,N,12151.9893,W,1,10,1.0,8.6,M,-32.7,M,,*5F
$PYRTM,2024,125.586392578206,16.696039988345
$GPGGA,140423.00,3510.6282,N,12151.9918,W,1,10,1.0,9.2,M,-32.7,M,,*58
$PYRTM,2024,125.586404137546,16.696051547685
$GPGGA,140424.00,3510.6284,N,12151.9945,W,1,10,1.0,9.3,M,-32.7,M,,*50
$PYRTM,2024,125.586415723542,16.696063133681
$GPGGA,140425.00,3510.6289,N,12151.9971,W,1,10,1.0,8.7,M,-32.7,M,,*5E
$PYRTM,2024,125.586427285058,16.696074695197
$GPGGA,140426.00,3510.6293,N,12151.9996,W,1,10,1.0,8.3,M,-32.7,M,,*5B
$PYRTM,2024,125.586438872002,16.696086282141
$GPGGA,140427.00,3510.6293,N,12152.0018,W,1,10,1.0,8.5,M,-32.7,M,,*59
$PYRTM,2024,125.586450433669,16.696097843808
$GPGGA,140428.00,3510.6291,N,12152.0044,W,1,10,1.0,8.8,M,-32.7,M,,*50
$PYRTM,2024,125.586457840833,16.696105250972
$GPGGA,140429.00,3510.6290,N,12152.0074,W,1,10,1.0,8.2,M,-32.7,M,,*59
$PYRTM,2024,125.586473582431,16.696120992569
$GPGGA,140430.00,3510.6293,N,12152.0099,W,1,10,1.0,8.0,M,-32.7,M,,*53
$PYRTM,2024,125.586485170289,16.696132580428
$GPGGA,140431.00,3510.6299,N,12152.0116,W,1,10,1.0,8.9,M,-32.7,M,,*57
$PYRTM,2024,125.586496730451,16.696144140590
$GPGGA,140432.00,3510.6303,N,12152.0135,W,1,10,1.0,9.9,M,-32.7,M,,*56
$PYRTM,2024,125.586508320613,16.696155730752
$GPGGA,140433.00,3510.6300,N,12152.0164,W,1,10,1.0,9.5,M,-32.7,M,,*5C
$PYRTM,2024,125.586519878796,16.696167288935
$GPGGA,140434.00,3510.6296,N,12152.0192,W,1,10,1.0,8.2,M,-32.7,M,,*5A
$PYRTM,2024,125.586531489398,16.696178899537
$GPGGA,140435.00,3510.6299,N,12152.0207,W,1,10,1.0,7.8,M,-32.7,M,,*5E
$PYRTM,2024,125.586543025822,16.696190435961
$GPGGA,140436.00,3510.6306,N,12152.0220,W,1,10,1.0,8.6,M,-32.7,M,,*5E
$PYRTM,2024,125.586554627928,16.696202038067
$GPGGA,140437.00,3510.6312,N,12152.0243,W,1,10,1.0,9.2,M,-32.7,M,,*5A
$PYRTM,2024,125.586566175081,16.696213585220
$GPGGA,140438.00,3510.6311,N,12152.0269,W,1,10,1.0,9.5,M,-32.7,M,,*59
$PYRTM,2024,125.586573582257,16.696220992396
$GPGGA,140439.00,3510.6306,N,12152.0289,W,1,10,1.0,10.0,M,-32.7,M,,*6D
$PYRTM,2024,125.586585388194,16.696232798345
$GPGGA,140440.00,3510.6307,N,12152.0306,W,1,10,1.0,10.3,M,-32.7,M,,*67
$PYRTM,2024,125.586603805185,16.696251215336
$GPGGA,140441.00,3510.6316,N,12152.0326,W,1,10,1.0,10.0,M,-32.7,M,,*67
$PYRTM,2024,125.586615365833,16.696262775972
$GPGGA,140442.00,3510.6325,N,12152.0348,W,1,10,1.0,9.3,M,-32.7,M,,*57
$PYRTM,2024,125.586626952616,16.696274362755
$GPGGA,140443.00,3510.6324,N,12152.0371,W,1,10,1.0,8.8,M,-32.7,M,,*57
$PYRTM,2024,125.586638513206,16.696285923345
$GPGGA,140444.00,3510.6319,N,12152.0392,W,1,10,1.0,9.0,M,-32.7,M,,*5A
$PYRTM,2024,125.586650101227,16.696297511366
$GPGGA,140445.00,3510.6318,N,12152.0412,W,1,10,1.0,9.9,M,-32.7,M,,*5C
$PYRTM,2024,125.586658769699,16.696306179838
$GPGGA,140446.00,3510.6322,N,12152.0433,W,1,10,1.0,10.6,M,-32.7,M,,*62
$PYRTM,2024,125.586666175683,16.696313585822
$GPGGA,140447.00,3510.6326,N,12152.0456,W,1,10,1.0,10.5,M,-32.7,M,,*67
$PYRTM,2024,125.586681918310,16.696329328449
$GPGGA,140448.00,3510.6328,N,12152.0483,W,1,10,1.0,8.6,M,-32.7,M,,*54
$PYRTM,2024,125.586693507650,16.696340917789
$GPGGA,140449.00,3510.6327,N,12152.0507,W,1,10,1.0,7.8,M,-32.7,M,,*56
$PYRTM,2024,125.586705066007,16.696352476146
$GPGGA,140450.00,3510.6325,N,12152.0527,W,1,10,1.0,7.4,M,-32.7,M,,*52
$PYRTM,2024,125.586712473414,16.696359883553
$GPGGA,140451.00,3510.6323,N,12152.0545,W,1,10,1.0,8.6,M,-32.7,M,,*5C
$PYRTM,2024,125.586731107963,16.696378518102
$GPGGA,140452.00,3510.6324,N,12152.0567,W,1,10,1.0,9.9,M,-32.7,M,,*56
$PYRTM,2024,125.586742696933,16.696390107072
$GPGGA,140453.00,3510.6327,N,12152.0593,W,1,10,1.0,10.1,M,-32.7,M,,*6F
$PYRTM,2024,125.586751362083,16.696398772222
$GPGGA,140454.00,3510.6330,N,12152.0619,W,1,10,1.0,9.0,M,-32.7,M,,*56
$PYRTM,2024,125.586762942975,16.696410353102
$GPGGA,140455.00,3510.6333,N,12152.0641,W,1,10,1.0,8.1,M,-32.7,M,,*59
$PYRTM,2024,125.586774510486,16.696421920625
$GPGGA,140456.00,3510.6335,N,12152.0662,W,1,10,1.0,7.8,M,-32.7,M,,*5B
$PYRTM,2024,125.586781918171,16.696429328310
$GPGGA,140457.00,3510.6335,N,12152.0683,W,1,10,1.0,8.4,M,-32.7,M,,*56
$PYRTM,2024,125.586797658773,16.696445068924
$GPGGA,140458.00,3510.6334,N,12152.0706,W,1,10,1.0,9.3,M,-32.7,M,,*52
$PYRTM,2024,125.586809246447,16.696456656597
$GPGGA,140459.00,3510.6335,N,12152.0733,W,1,10,1.0,9.3,M,-32.7,M,,*54
$PYRTM,2024,125.586823701829,16.696471111968
$GPGGA,140500.00,3510.6339,N,12152.0759,W,1,10,1.0,9.1,M,-32.7,M,,*5B
$PYRTM,2024,125.586835294479,16.696482704618
$GPGGA,140501.00,3510.6343,N,12152.0781,W,1,10,1.0,8.9,M,-32.7,M,,*5B
$PYRTM,2024,125.586843955775,16.696491365914
$GPGGA,140502.00,3510.6344,N,12152.0803,W,1,10,1.0,8.8,M,-32.7,M,,*5B
$PYRTM,2024,125.586855545544,16.696502955683
$GPGGA,140503.00,3510.6347,N,12152.0829,W,1,10,1.0,8.2,M,-32.7,M,,*5B
$PYRTM,2024,125.586867115995,16.696514526134
$GPGGA,140504.00,3510.6349,N,12152.0852,W,1,10,1.0,8.2,M,-32.7,M,,*5E
$PYRTM,2024,125.586874510741,16.696521920880
$GPGGA,140505.00,3510.6344,N,12152.0869,W,1,10,1.0,9.3,M,-32.7,M,,*5A
$PYRTM,2024,125.586890264838,16.696537674977
$GPGGA,140506.00,3510.6338,N,12152.0892,W,1,10,1.0,10.0,M,-32.7,M,,*6D
$PYRTM,2024,125.586901838889,16.696549249028
$GPGGA,140507.00,3510.6338,N,12152.0919,W,1,10,1.0,9.4,M,-32.7,M,,*52
$PYRTM,2024,125.586913413171,16.696560823310
$GPGGA,140508.00,3510.6344,N,12152.0941,W,1,10,1.0,8.7,M,-32.7,M,,*59
$PYRTM,2024,125.586924987188,16.696572397326
$GPGGA,140509.00,3510.6346,N,12152.0958,W,1,10,1.0,8.8,M,-32.7,M,,*5D
$PYRTM,2024,125.586936560243,16.696583970382
$GPGGA,140510.00,3510.6342,N,12152.0979,W,1,10,1.0,9.1,M,-32.7,M,,*5A
$PYRTM,2024,125.586943956968,16.696591367118
$GPGGA,140511.00,3510.6339,N,12152.1005,W,1,10,1.0,8.8,M,-32.7,M,,*5C
$PYRTM,2024,125.586962591551,16.696610001690
$GPGGA,140512.00,3510.6340,N,12152.1028,W,1,10,1.0,8.6,M,-32.7,M,,*50
$PYRTM,2024,125.586971284039,16.696618694178
$GPGGA,140513.00,3510.6344,N,12152.1048,W,1,10,1.0,9.2,M,-32.7,M,,*56
$PYRTM,2024,125.586982858252,16.696630268403
$GPGGA,140514.00,3510.6346,N,12152.1070,W,1,10,1.0,9.9,M,-32.7,M,,*53
$PYRTM,2024,125.586990253414,16.696637663553
$GPGGA,140515.00,3510.6347,N,12152.1094,W,1,10,1.0,9.8,M,-32.7,M,,*58
$PYRTM,2024,125.587006006782,16.696653416921
$GPGGA,140516.00,3510.6349,N,12152.1117,W,1,10,1.0,9.5,M,-32.7,M,,*52
$PYRTM,2024,125.587017583819,16.696664993958
$GPGGA,140517.00,3510.6351,N,12152.1140,W,1,10,1.0,9.3,M,-32.7,M,,*5E
$PYRTM,2024,125.587029154387,16.696676564525
$GPGGA,140518.00,3510.6353,N,12152.1162,W,1,10,1.0,9.4,M,-32.7,M,,*54
$PYRTM,2024,125.587040732187,16.696688142326
$GPGGA,140519.00,3510.6354,N,12152.1186,W,1,10,1.0,9.3,M,-32.7,M,,*5F
$PYRTM,2024,125.587052302373,16.696699712523
$GPGGA,140520.00,3510.6357,N,12152.1210,W,1,10,1.0,9.1,M,-32.7,M,,*58
$PYRTM,2024,125.587063877257,16.696711287396
$GPGGA,140521.00,3510.6358,N,12152.1231,W,1,10,1.0,9.5,M,-32.7,M,,*51
$PYRTM,2024,125.587071287569,16.696718697708
$GPGGA,140522.00,3510.6358,N,12152.1253,W,1,10,1.0,10.2,M,-32.7,M,,*69
$PYRTM,2024,125.587083076030,16.696730486169
$GPGGA,140523.00,3510.6359,N,12152.1278,W,1,10,1.0,10.0,M,-32.7,M,,*62
$PYRTM,2024,125.587098599826,16.696746009977
$GPGGA,140524.00,3510.6361,N,12152.1304,W,1,10,1.0,9.2,M,-32.7,M,,*5E
$PYRTM,2024,125.587105993206,16.696753403345
$GPGGA,140525.00,3510.6363,N,12152.1327,W,1,10,1.0,8.8,M,-32.7,M,,*57
$PYRTM,2024,125.587121743160,16.696769153299
$GPGGA,140526.00,3510.6363,N,12152.1349,W,1,10,1.0,9.2,M,-32.7,M,,*57
$PYRTM,2024,125.587133322581,16.696780732720
$GPGGA,140527.00,3510.6361,N,12152.1372,W,1,10,1.0,9.9,M,-32.7,M,,*57
$PYRTM,2024,125.587140715532,16.696788125671
$GPGGA,140528.00,3510.6363,N,12152.1398,W,1,10,1.0,9.9,M,-32.7,M,,*5E
$PYRTM,2024,125.587156463345,16.696803873484
$GPGGA,140529.00,3510.6369,N,12152.1424,W,1,10,1.0,9.5,M,-32.7,M,,*59
$PYRTM,2024,125.587168044884,16.696815455023
$GPGGA,140530.00,3510.6371,N,12152.1448,W,1,10,1.0,9.5,M,-32.7,M,,*52
$PYRTM,2024,125.587179619479,16.696827029618
$GPGGA,140531.00,3510.6365,N,12152.1469,W,1,10,1.0,10.1,M,-32.7,M,,*69
$PYRTM,2024,125.587191192523,16.696838602662
$GPGGA,140532.00,3510.6360,N,12152.1492,W,1,10,1.0,10.4,M,-32.7,M,,*6E
$PYRTM,2024,125.587198588090,16.696845998229
$GPGGA,140533.00,3510.6366,N,12152.1519,W,1,10,1.0,9.4,M,-32.7,M,,*53
$PYRTM,2024,125.587214340162,16.696861750301
$GPGGA,140534.00,3510.6375,N,12152.1546,W,1,10,1.0,8.4,M,-32.7,M,,*5D
$PYRTM,2024,125.587225914803,16.696873324942
$GPGGA,140535.00,3510.6377,N,12152.1571,W,1,10,1.0,8.2,M,-32.7,M,,*5C
$PYRTM,2024,125.587233323299,16.696880733437
$GPGGA,140536.00,3510.6370,N,12152.1593,W,1,10,1.0,8.8,M,-32.7,M,,*5E
$PYRTM,2024,125.587249063796,16.696896473935
$GPGGA,140537.00,3510.6367,N,12152.1618,W,1,10,1.0,9.2,M,-32.7,M,,*52
$PYRTM,2024,125.587260637326,16.696908047465
$GPGGA,140538.00,3510.6371,N,12152.1645,W,1,10,1.0,9.5,M,-32.7,M,,*55
$PYRTM,2024,125.587272215498,16.696919625637
$GPGGA,140539.00,3510.6376,N,12152.1671,W,1,10,1.0,9.5,M,-32.7,M,,*54
$PYRTM,2024,125.587283780451,16.696931190590
$GPGGA,140540.00,3510.6378,N,12152.1696,W,1,10,1.0,9.4,M,-32.7,M,,*5C
$PYRTM,2024,125.587295362697,16.696942772836
$GPGGA,140541.00,3510.6378,N,12152.1721,W,1,10,1.0,9.0,M,-32.7,M,,*54
$PYRTM,2024,125.587302756123,16.696950166262
$GPGGA,140542.00,3510.6379,N,12152.1744,W,1,10,1.0,9.2,M,-32.7,M,,*57
$PYRTM,2024,125.587321403727,16.696968813866
$GPGGA,140543.00,3510.6381,N,12152.1766,W,1,10,1.0,9.7,M,-32.7,M,,*54
$PYRTM,2024,125.587330082812,16.696977492951
$GPGGA,140544.00,3510.6381,N,12152.1792,W,1,10,1.0,10.0,M,-32.7,M,,*67
$PYRTM,2024,125.587341659259,16.696989069410
$GPGGA,140545.00,3510.6382,N,12152.1820,W,1,10,1.0,9.7,M,-32.7,M,,*5C
$PYRTM,2024,125.587353230208,16.697000640347
$GPGGA,140546.00,3510.6384,N,12152.1843,W,1,10,1.0,9.6,M,-32.7,M,,*5D
$PYRTM,2024,125.587364808021,16.697012218160
$GPGGA,140547.00,3510.6388,N,12152.1867,W,1,10,1.0,9.6,M,-32.7,M,,*56
$PYRTM,2024,125.587376378507,16.697023788646
$GPGGA,140548.00,3510.6393,N,12152.1892,W,1,10,1.0,9.6,M,-32.7,M,,*59
$PYRTM,2024,125.587387955949,16.697035366088
$GPGGA,140549.00,3510.6394,N,12152.1917,W,1,10,1.0,9.6,M,-32.7,M,,*53
$PYRTM,2024,125.587399525972,16.697046936111
$GPGGA,140550.00,3510.6392,N,12152.1942,W,1,10,1.0,9.9,M,-32.7,M,,*52
$PYRTM,2024,125.587411101157,16.697058511296
$GPGGA,140551.00,3510.6394,N,12152.1970,W,1,10,1.0,9.3,M,-32.7,M,,*5E
$PYRTM,2024,125.587422676759,16.697070086898
$GPGGA,140552.00,3510.6397,N,12152.1999,W,1,10,1.0,8.4,M,-32.7,M,,*5F
$PYRTM,2024,125.587430069630,16.697077479769
$GPGGA,140553.00,3510.6396,N,12152.2021,W,1,10,1.0,8.9,M,-32.7,M,,*5B
$PYRTM,2024,125.587445823461,16.697093233600
$GPGGA,140554.00,3510.6393,N,12152.2042,W,1,10,1.0,10.0,M,-32.7,M,,*6C
$PYRTM,2024,125.587457398275,16.697104808414
$GPGGA,140555.00,3510.6393,N,12152.2068,W,1,10,1.0,10.2,M,-32.7,M,,*67
$PYRTM,2024,125.587468971331,16.697116381481
$GPGGA,140556.00,3510.6399,N,12152.2096,W,1,10,1.0,9.1,M,-32.7,M,,*54
$PYRTM,2024,125.587476366644,16.697123776782
$GPGGA,140557.00,3510.6403,N,12152.2120,W,1,10,1.0,8.8,M,-32.7,M,,*55
$PYRTM,2024,125.587492119248,16.697139529387
$GPGGA,140558.00,3510.6397,N,12152.2139,W,1,10,1.0,9.5,M,-32.7,M,,*54
$PYRTM,2024,125.587503809850,16.697151220000
$GPGGA,140559.00,3510.6388,N,12152.2159,W,1,10,1.0,10.8,M,-32.7,M,,*68
$PYRTM,2024,125.587515261852,16.697162671991
$GPGGA,140600.00,3510.6388,N,12152.2186,W,1,10,1.0,11.2,M,-32.7,M,,*6E
$PYRTM,2024,125.587522660961,16.697170071100
$GPGGA,140601.00,3510.6396,N,12152.2214,W,1,10,1.0,10.1,M,-32.7,M,,*6A
$PYRTM,2024,125.587538418102,16.697185828241
$GPGGA,140602.00,3510.6402,N,12152.2238,W,1,10,1.0,9.1,M,-32.7,M,,*55
$PYRTM,2024,125.587549996806,16.697197406944
$GPGGA,140603.00,3510.6403,N,12152.2260,W,1,10,1.0,8.9,M,-32.7,M,,*51
$PYRTM,2024,125.587561564259,16.697208974398
$GPGGA,140604.00,3510.6401,N,12152.2283,W,1,10,1.0,9.2,M,-32.7,M,,*53
$PYRTM,2024,125.587573140613,16.697220550764
$GPGGA,140605.00,3510.6402,N,12152.2307,W,1,10,1.0,9.8,M,-32.7,M,,*56
$PYRTM,2024,125.587580550289,16.697227960428
$GPGGA,140606.00,3510.6403,N,12152.2331,W,1,10,1.0,10.7,M,-32.7,M,,*66
$PYRTM,2024,125.587596289410,16.697243699560
$GPGGA,140607.00,3510.6404,N,12152.2357,W,1,10,1.0,10.8,M,-32.7,M,,*6F
$PYRTM,2024,125.587607861354,16.697255271493
$GPGGA,140608.00,3510.6409,N,12152.2383,W,1,10,1.0,9.7,M,-32.7,M,,*53
$PYRTM,2024,125.587619436053,16.697266846192
$GPGGA,140609.00,3510.6416,N,12152.2409,W,1,10,1.0,8.1,M,-32.7,M,,*5E
$PYRTM,2024,125.587626831366,16.697274241505
$GPGGA,140610.00,3510.6417,N,12152.2434,W,1,10,1.0,7.5,M,-32.7,M,,*52
$PYRTM,2024,125.587642585220,16.697289995359
$GPGGA,140611.00,3510.6413,N,12152.2454,W,1,10,1.0,8.2,M,-32.7,M,,*59
$PYRTM,2024,125.587654158900,16.697301569039
$GPGGA,140612.00,3510.6408,N,12152.2475,W,1,10,1.0,9.8,M,-32.7,M,,*58
$PYRTM,2024,125.587661553241,16.697308963380
$GPGGA,140613.00,3510.6408,N,12152.2500,W,1,10,1.0,10.6,M,-32.7,M,,*6C
$PYRTM,2024,125.587680186644,16.697327596782
$GPGGA,140614.00,3510.6413,N,12152.2529,W,1,10,1.0,9.8,M,-32.7,M,,*5C
$PYRTM,2024,125.587688884491,16.697336294630
$GPGGA,140615.00,3510.6419,N,12152.2555,W,1,10,1.0,8.4,M,-32.7,M,,*51
$PYRTM,2024,125.587700454850,16.697347864988
$GPGGA,140616.00,3510.6420,N,12152.2575,W,1,10,1.0,8.1,M,-32.7,M,,*5F
$PYRTM,2024,125.587712033704,16.697359443843
$GPGGA,140617.00,3510.6415,N,12152.2593,W,1,10,1.0,9.2,M,-32.7,M,,*52
$PYRTM,2024,125.587723603634,16.697371013773
$GPGGA,140618.00,3510.6412,N,12152.2616,W,1,10,1.0,10.4,M,-32.7,M,,*6A
$PYRTM,2024,125.587735177859,16.697382587998
$GPGGA,140619.00,3510.6416,N,12152.2644,W,1,10,1.0,10.4,M,-32.7,M,,*68
$PYRTM,2024,125.587746752199,16.697394162338
$GPGGA,140620.00,3510.6423,N,12152.2671,W,1,10,1.0,9.1,M,-32.7,M,,*5F
$PYRTM,2024,125.587754148553,16.697401558692
$GPGGA,140621.00,3510.6427,N,12152.2692,W,1,10,1.0,9.1,M,-32.7,M,,*57
$PYRTM,2024,125.587769901053,16.697417311192
$GPGGA,140622.00,3510.6425,N,12152.2710,W,1,10,1.0,9.9,M,-32.7,M,,*55
$PYRTM,2024,125.587781473970,16.697428884109
$GPGGA,140623.00,3510.6423,N,12152.2733,W,1,10,1.0,10.0,M,-32.7,M,,*62
$PYRTM,2024,125.587793047674,16.697440457813
$GPGGA,140624.00,3510.6427,N,12152.2758,W,1,10,1.0,10.0,M,-32.7,M,,*6C
$PYRTM,2024,125.587804625729,16.697452035868
$GPGGA,140625.00,3510.6431,N,12152.2783,W,1,10,1.0,9.9,M,-32.7,M,,*5D
$PYRTM,2024,125.587816192604,16.697463602743
$GPGGA,140626.00,3510.6433,N,12152.2808,W,1,10,1.0,9.7,M,-32.7,M,,*5E
$PYRTM,2024,125.587827769815,16.697475179954
$GPGGA,140627.00,3510.6432,N,12152.2832,W,1,10,1.0,9.7,M,-32.7,M,,*57
$PYRTM,2024,125.587839343808,16.697486753947
$GPGGA,140628.00,3510.6431,N,12152.2855,W,1,10,1.0,9.9,M,-32.7,M,,*54
$PYRTM,2024,125.587846738773,16.697494148924
$GPGGA,140629.00,3510.6431,N,12152.2879,W,1,10,1.0,10.3,M,-32.7,M,,*69
$PYRTM,2024,125.587862487940,16.697509898079
$GPGGA,140630.00,3510.6431,N,12152.2905,W,1,10,1.0,10.3,M,-32.7,M,,*6B
$PYRTM,2024,125.587869887824,16.697517297963
$GPGGA,140631.00,3510.6434,N,12152.2930,W,1,10,1.0,10.1,M,-32.7,M,,*6B
$PYRTM,2024,125.587885641354,16.697533051493
$GPGGA,140632.00,3510.6440,N,12152.2952,W,1,10,1.0,9.8,M,-32.7,M,,*5E
$PYRTM,2024,125.587897216250,16.697544626389
$GPGGA,140633.00,3510.6445,N,12152.2977,W,1,10,1.0,9.5,M,-32.7,M,,*50
$PYRTM,2024,125.587908789514,16.697556199653
$GPGGA,140634.00,3510.6444,N,12152.3002,W,1,10,1.0,9.3,M,-32.7,M,,*5A
$PYRTM,2024,125.587920363576,16.697567773715
$GPGGA,140635.00,3510.6440,N,12152.3028,W,1,10,1.0,9.3,M,-32.7,M,,*57
$PYRTM,2024,125.587931938576,16.697579348727
$GPGGA,140636.00,3510.6443,N,12152.3053,W,1,10,1.0,9.3,M,-32.7,M,,*5B
$PYRTM,2024,125.587943511528,16.697590921667
$GPGGA,140637.00,3510.6450,N,12152.3077,W,1,10,1.0,9.6,M,-32.7,M,,*5B
$PYRTM,2024,125.587955086458,16.697602496597
$GPGGA,140638.00,3510.6453,N,12152.3100,W,1,10,1.0,10.2,M,-32.7,M,,*6A
$PYRTM,2024,125.587966664676,16.697614074815
$GPGGA,140639.00,3510.6454,N,12152.3125,W,1,10,1.0,10.3,M,-32.7,M,,*6A
$PYRTM,2024,125.587978235104,16.697625645243
$GPGGA,140640.00,3510.6455,N,12152.3152,W,1,10,1.0,9.6,M,-32.7,M,,*58
$PYRTM,2024,125.587985628380,16.697633038519
$GPGGA,140641.00,3510.6454,N,12152.3177,W,1,10,1.0,9.3,M,-32.7,M,,*5A
$PYRTM,2024,125.588001383472,16.697648793623
$GPGGA,140642.00,3510.6451,N,12152.3200,W,1,10,1.0,9.6,M,-32.7,M,,*5A
$PYRTM,2024,125.588012951667,16.697660361806
$GPGGA,140643.00,3510.6452,N,12152.3226,W,1,10,1.0,9.8,M,-32.7,M,,*52
$PYRTM,2024,125.588020353009,16.697667763148
$GPGGA,140644.00,3510.6456,N,12152.3249,W,1,10,1.0,10.3,M,-32.7,M,,*6B
$PYRTM,2024,125.588038999965,16.697686410104
$GPGGA,140645.00,3510.6458,N,12152.3272,W,1,10,1.0,10.9,M,-32.7,M,,*66
$PYRTM,2024,125.588047678113,16.697695088252
$GPGGA,140646.00,3510.6456,N,12152.3297,W,1,10,1.0,11.0,M,-32.7,M,,*68
$PYRTM,2024,125.588059268044,16.697706678183
$GPGGA,140647.00,3510.6455,N,12152.3325,W,1,10,1.0,10.1,M,-32.7,M,,*62
$PYRTM,2024,125.588070828275,16.697718238414
$GPGGA,140648.00,3510.6456,N,12152.3350,W,1,10,1.0,9.2,M,-32.7,M,,*57
$PYRTM,2024,125.588082401354,16.697729811493
$GPGGA,140649.00,3510.6461,N,12152.3374,W,1,10,1.0,9.0,M,-32.7,M,,*56
$PYRTM,2024,125.588093969769,16.697741379907
$GPGGA,140650.00,3510.6464,N,12152.3397,W,1,10,1.0,9.6,M,-32.7,M,,*50
$PYRTM,2024,125.588101369769,16.697748779907
$GPGGA,140651.00,3510.6465,N,12152.3420,W,1,10,1.0,10.0,M,-32.7,M,,*65
$PYRTM,2024,125.588117124398,16.697764534537
$GPGGA,140652.00,3510.6463,N,12152.3446,W,1,10,1.0,10.4,M,-32.7,M,,*64
$PYRTM,2024,125.588128697662,16.697776107789
$GPGGA,140653.00,3510.6464,N,12152.3474,W,1,10,1.0,9.6,M,-32.7,M,,*59
$PYRTM,2024,125.588136092604,16.697783502743
$GPGGA,140654.00,3510.6469,N,12152.3500,W,1,10,1.0,8.7,M,-32.7,M,,*51
$PYRTM,2024,125.588151846354,16.697799256493
$GPGGA,140655.00,3510.6476,N,12152.3522,W,1,10,1.0,8.6,M,-32.7,M,,*5F
$PYRTM,2024,125.588163415312,16.697810825451
$GPGGA,140656.00,3510.6478,N,12152.3545,W,1,10,1.0,9.0,M,-32.7,M,,*54
$PYRTM,2024,125.588175008900,16.697822419051
$GPGGA,140657.00,3510.6475,N,12152.3571,W,1,10,1.0,9.6,M,-32.7,M,,*59
$PYRTM,2024,125.588182389769,16.697829799919
$GPGGA,140658.00,3510.6472,N,12152.3597,W,1,10,1.0,10.0,M,-32.7,M,,*67
$PYRTM,2024,125.588194079549,16.697841489688
$GPGGA,140659.00,3510.6476,N,12152.3623,W,1,10,1.0,9.8,M,-32.7,M,,*5E
$PYRTM,2024,125.588209716366,16.697857126505
$GPGGA,140700.00,3510.6483,N,12152.3649,W,1,10,1.0,9.3,M,-32.7,M,,*5E
$PYRTM,2024,125.588217113449,16.697864523588
$GPGGA,140701.00,3510.6489,N,12152.3675,W,1,10,1.0,8.6,M,-32.7,M,,*5E
$PYRTM,2024,125.588232859722,16.697880269861
$GPGGA,140702.00,3510.6488,N,12152.3698,W,1,10,1.0,8.7,M,-32.7,M,,*5E
$PYRTM,2024,125.588244438970,16.697891849109
$GPGGA,140703.00,3510.6484,N,12152.3721,W,1,10,1.0,9.4,M,-32.7,M,,*52
$PYRTM,2024,125.588256013275,16.697903423414
$GPGGA,140704.00,3510.6481,N,12152.3745,W,1,10,1.0,9.9,M,-32.7,M,,*5F
$PYRTM,2024,125.588267659734,16.697915069873
$GPGGA,140705.00,3510.6488,N,12152.3773,W,1,10,1.0,9.4,M,-32.7,M,,*5F
$PYRTM,2024,125.588279163137,16.697926573275
$GPGGA,140706.00,3510.6497,N,12152.3801,W,1,10,1.0,8.2,M,-32.7,M,,*5F
$PYRTM,2024,125.588290736354,16.697938146505
$GPGGA,140707.00,3510.6501,N,12152.3826,W,1,10,1.0,8.1,M,-32.7,M,,*56
$PYRTM,2024,125.588302310104,16.697949720243
$GPGGA,140708.00,3510.6493,N,12152.3846,W,1,10,1.0,9.2,M,-32.7,M,,*57
$PYRTM,2024,125.588309705023,16.697957115162
$GPGGA,140709.00,3510.6485,N,12152.3870,W,1,10,1.0,10.0,M,-32.7,M,,*6E
$PYRTM,2024,125.588325458530,16.697972868669
$GPGGA,140710.00,3510.6490,N,12152.3898,W,1,10,1.0,9.6,M,-32.7,M,,*5A
$PYRTM,2024,125.588337032720,16.697984442859
$GPGGA,140711.00,3510.6499,N,12152.3926,W,1,10,1.0,8.4,M,-32.7,M,,*55
$PYRTM,2024,125.588348607847,16.697996017986
$GPGGA,140712.00,3510.6502,N,12152.3949,W,1,10,1.0,8.4,M,-32.7,M,,*5C
$PYRTM,2024,125.588360197766,16.698007607905
$GPGGA,140713.00,3510.6494,N,12152.3970,W,1,10,1.0,9.5,M,-32.7,M,,*59
$PYRTM,2024,125.588371755012,16.698019165150
$GPGGA,140714.00,3510.6487,N,12152.3994,W,1,10,1.0,10.3,M,-32.7,M,,*68
$PYRTM,2024,125.588379150208,16.698026560347
$GPGGA,140715.00,3510.6491,N,12152.4021,W,1,10,1.0,10.2,M,-32.7,M,,*6F
$PYRTM,2024,125.588397784039,16.698045194178
$GPGGA,140716.00,3510.6502,N,12152.4049,W,1,10,1.0,9.1,M,-32.7,M,,*52
$PYRTM,2024,125.588406477222,16.698053887361
$GPGGA,140717.00,3510.6508,N,12152.4074,W,1,10,1.0,8.3,M,-32.7,M,,*54
$PYRTM,2024,125.588418051331,16.698065461470
$GPGGA,140718.00,3510.6503,N,12152.4095,W,1,10,1.0,8.6,M,-32.7,M,,*5A
$PYRTM,2024,125.588425448171,16.698072858310
$GPGGA,140719.00,3510.6496,N,12152.4118,W,1,10,1.0,9.4,M,-32.7,M,,*51
$PYRTM,2024,125.588441200729,16.698088610868
$GPGGA,140720.00,3510.6498,N,12152.4145,W,1,10,1.0,9.3,M,-32.7,M,,*5A
$PYRTM,2024,125.588452774537,16.698100184676
$GPGGA,140721.00,3510.6508,N,12152.4175,W,1,10,1.0,8.4,M,-32.7,M,,*56
$PYRTM,2024,125.588464343785,16.698111753924
$GPGGA,140722.00,3510.6515,N,12152.4200,W,1,10,1.0,7.8,M,-32.7,M,,*5B
$PYRTM,2024,125.588475922581,16.698123332731
$GPGGA,140723.00,3510.6512,N,12152.4221,W,1,10,1.0,8.3,M,-32.7,M,,*5A
$PYRTM,2024,125.588483317535,16.698130727674
$GPGGA,140724.00,3510.6506,N,12152.4245,W,1,10,1.0,9.1,M,-32.7,M,,*59
$PYRTM,2024,125.588499074167,16.698146484306
$GPGGA,140725.00,3510.6508,N,12152.4273,W,1,10,1.0,9.1,M,-32.7,M,,*53
$PYRTM,2024,125.588510645220,16.698158055370
$GPGGA,140726.00,3510.6517,N,12152.4299,W,1,10,1.0,8.7,M,-32.7,M,,*5D
$PYRTM,2024,125.588518038947,16.698165449086
$GPGGA,140727.00,3510.6523,N,12152.4321,W,1,10,1.0,9.0,M,-32.7,M,,*5F
$PYRTM,2024,125.588533794352,16.698181204491
$GPGGA,140728.00,3510.6522,N,12152.4340,W,1,10,1.0,9.9,M,-32.7,M,,*5F
$PYRTM,2024,125.588545381620,16.698192791759
$GPGGA,140729.00,3510.6520,N,12152.4365,W,1,10,1.0,9.9,M,-32.7,M,,*5B
$PYRTM,2024,125.588556941644,16.698204351794
$GPGGA,140730.00,3510.6521,N,12152.4393,W,1,10,1.0,8.9,M,-32.7,M,,*5A
$PYRTM,2024,125.588568529734,16.698215939873
$GPGGA,140731.00,3510.6525,N,12152.4415,W,1,10,1.0,8.4,M,-32.7,M,,*5B
$PYRTM,2024,125.588575927500,16.698223337639
$GPGGA,140732.00,3510.6529,N,12152.4432,W,1,10,1.0,8.9,M,-32.7,M,,*5C
$PYRTM,2024,125.588587600995,16.698235011146
$GPGGA,140733.00,3510.6533,N,12152.4454,W,1,10,1.0,9.6,M,-32.7,M,,*58
$PYRTM,2024,125.588603239433,16.698250649572
$GPGGA,140734.00,3510.6535,N,12152.4483,W,1,10,1.0,9.1,M,-32.7,M,,*54
$PYRTM,2024,125.588614812674,16.698262222813
$GPGGA,140735.00,3510.6532,N,12152.4509,W,1,10,1.0,8.3,M,-32.7,M,,*52
$PYRTM,2024,125.588626386759,16.698273796898
$GPGGA,140736.00,3510.6530,N,12152.4529,W,1,10,1.0,8.4,M,-32.7,M,,*56
$PYRTM,2024,125.588637960243,16.698285370382
$GPGGA,140737.00,3510.6533,N,12152.4551,W,1,10,1.0,8.8,M,-32.7,M,,*57
$PYRTM,2024,125.588649530324,16.698296940463
$GPGGA,140738.00,3510.6541,N,12152.4575,W,1,10,1.0,8.9,M,-32.7,M,,*5A
$PYRTM,2024,125.588656930116,16.698304340255
$GPGGA,140739.00,3510.6544,N,12152.4599,W,1,10,1.0,9.0,M,-32.7,M,,*54
$PYRTM,2024,125.588672683553,16.698320093704
$GPGGA,140740.00,3510.6540,N,12152.4623,W,1,10,1.0,9.1,M,-32.7,M,,*5D
$PYRTM,2024,125.588684257743,16.698331667882
$GPGGA,140741.00,3510.6538,N,12152.4650,W,1,10,1.0,8.9,M,-32.7,M,,*5E
$PYRTM,2024,125.588691652836,16.698339062975
$GPGGA,140742.00,3510.6541,N,12152.4674,W,1,10,1.0,8.7,M,-32.7,M,,*5B
$PYRTM,2024,125.588707408773,16.698354818912
$GPGGA,140743.00,3510.6546,N,12152.4695,W,1,10,1.0,9.0,M,-32.7,M,,*54
$PYRTM,2024,125.588718978773,16.698366388912
$GPGGA,140744.00,3510.6546,N,12152.4718,W,1,10,1.0,9.9,M,-32.7,M,,*5E
$PYRTM,2024,125.588730553808,16.698377963947
$GPGGA,140745.00,3510.6546,N,12152.4745,W,1,10,1.0,10.0,M,-32.7,M,,*66
$PYRTM,2024,125.588737963981,16.698385374120
$GPGGA,140746.00,3510.6547,N,12152.4769,W,1,10,1.0,9.8,M,-32.7,M,,*5A
$PYRTM,2024,125.588756596100,16.698404006250
$GPGGA,140747.00,3510.6548,N,12152.4792,W,1,10,1.0,9.8,M,-32.7,M,,*50
$PYRTM,2024,125.588765274803,16.698412684942
$GPGGA,140748.00,3510.6549,N,12152.4818,W,1,10,1.0,9.4,M,-32.7,M,,*5F
$PYRTM,2024,125.588776853646,16.698424263785
$GPGGA,140749.00,3510.6551,N,12152.4843,W,1,10,1.0,8.9,M,-32.7,M,,*55
$PYRTM,2024,125.588788423542,16.698435833681
$GPGGA,140750.00,3510.6553,N,12152.4864,W,1,10,1.0,9.2,M,-32.7,M,,*50
$PYRTM,2024,125.588800001968,16.698447412106
$GPGGA,140751.00,3510.6555,N,12152.4886,W,1,10,1.0,9.7,M,-32.7,M,,*5E
$PYRTM,2024,125.588807408981,16.698454819120
$GPGGA,140752.00,3510.6557,N,12152.4914,W,1,10,1.0,9.3,M,-32.7,M,,*51
$PYRTM,2024,125.588823150532,16.698470560671
$GPGGA,140753.00,3510.6560,N,12152.4941,W,1,10,1.0,8.5,M,-32.7,M,,*53
$PYRTM,2024,125.588834720799,16.698482130937
$GPGGA,140754.00,3510.6561,N,12152.4959,W,1,10,1.0,8.8,M,-32.7,M,,*51
$PYRTM,2024,125.588846291539,16.698493701678
$GPGGA,140755.00,3510.6559,N,12152.4977,W,1,10,1.0,9.8,M,-32.7,M,,*56
$PYRTM,2024,125.588857870023,16.698505280162
$GPGGA,140756.00,3510.6559,N,12152.5003,W,1,10,1.0,9.8,M,-32.7,M,,*5E
$PYRTM,2024,125.588869443310,16.698516853449
$GPGGA,140757.00,3510.6561,N,12152.5031,W,1,10,1.0,9.0,M,-32.7,M,,*5D
$PYRTM,2024,125.588881122488,16.698528532627
$GPGGA,140758.00,3510.6566,N,12152.5052,W,1,10,1.0,8.5,M,-32.7,M,,*54
$PYRTM,2024,125.588892591539,16.698540001678
$GPGGA,140759.00,3510.6570,N,12152.5068,W,1,10,1.0,9.1,M,-32.7,M,,*5E
$PYRTM,2024,125.588904166493,16.698551576632
$GPGGA,140800.00,3510.6572,N,12152.5088,W,1,10,1.0,9.8,M,-32.7,M,,*58
$PYRTM,2024,125.588915739537,16.698563149676
$GPGGA,140801.00,3510.6572,N,12152.5116,W,1,10,1.0,9.6,M,-32.7,M,,*51
$PYRTM,2024,125.588927314016,16.698574724155
$GPGGA,140802.00,3510.6573,N,12152.5140,W,1,10,1.0,9.1,M,-32.7,M,,*57
$PYRTM,2024,125.588938903241,16.698586313380
$GPGGA,140803.00,3510.6573,N,12152.5157,W,1,10,1.0,9.3,M,-32.7,M,,*52
$PYRTM,2024,125.588946283958,16.698593694097
$GPGGA,140804.00,3510.6576,N,12152.5178,W,1,10,1.0,9.5,M,-32.7,M,,*5B
$PYRTM,2024,125.588957971539,16.698605381678
$GPGGA,140805.00,3510.6582,N,12152.5203,W,1,10,1.0,9.0,M,-32.7,M,,*5B
$PYRTM,2024,125.588973610521,16.698621020660
$GPGGA,140806.00,3510.6585,N,12152.5224,W,1,10,1.0,8.9,M,-32.7,M,,*52
$PYRTM,2024,125.588981006435,16.698628416574
$GPGGA,140807.00,3510.6580,N,12152.5241,W,1,10,1.0,9.7,M,-32.7,M,,*5A
$PYRTM,2024,125.588996758044,16.698644168183
$GPGGA,140808.00,3510.6575,N,12152.5262,W,1,10,1.0,9.9,M,-32.7,M,,*50
$PYRTM,2024,125.589008336944,16.698655747083
$GPGGA,140809.00,3510.6577,N,12152.5289,W,1,10,1.0,9.2,M,-32.7,M,,*5D
$PYRTM,2024,125.589019902106,16.698667312245
$GPGGA,140810.00,3510.6584,N,12152.5313,W,1,10,1.0,8.0,M,-32.7,M,,*58
$PYRTM,2024,125.589031481296,16.698678891447
$GPGGA,140811.00,3510.6590,N,12152.5332,W,1,10,1.0,8.0,M,-32.7,M,,*5F
$PYRTM,2024,125.589043052465,16.698690462604
$GPGGA,140812.00,3510.6592,N,12152.5350,W,1,10,1.0,9.0,M,-32.7,M,,*5B
$PYRTM,2024,125.589054630301,16.698702040440
$GPGGA,140813.00,3510.6588,N,12152.5369,W,1,10,1.0,10.3,M,-32.7,M,,*60
$PYRTM,2024,125.589066205579,16.698713615718
$GPGGA,140814.00,3510.6584,N,12152.5394,W,1,10,1.0,10.7,M,-32.7,M,,*6D
$PYRTM,2024,125.589077782685,16.698725192824
$GPGGA,140815.00,3510.6587,N,12152.5421,W,1,10,1.0,9.8,M,-32.7,M,,*51
$PYRTM,2024,125.589089354306,16.698736764444
$GPGGA,140816.00,3510.6596,N,12152.5444,W,1,10,1.0,8.5,M,-32.7,M,,*5D
$PYRTM,2024,125.589096746829,16.698744156968
$GPGGA,140817.00,3510.6602,N,12152.5461,W,1,10,1.0,8.4,M,-32.7,M,,*54
$PYRTM,2024,125.589115381725,16.698762791863
$GPGGA,140818.00,3510.6603,N,12152.5480,W,1,10,1.0,9.1,M,-32.7,M,,*51
$PYRTM,2024,125.589124077569,16.698771487720
$GPGGA,140819.00,3510.6600,N,12152.5503,W,1,10,1.0,9.6,M,-32.7,M,,*5E
$PYRTM,2024,125.589135649028,16.698783059167
$GPGGA,140820.00,3510.6600,N,12152.5529,W,1,10,1.0,9.7,M,-32.7,M,,*5D
$PYRTM,2024,125.589147222998,16.698794633137
$GPGGA,140821.00,3510.6605,N,12152.5553,W,1,10,1.0,9.5,M,-32.7,M,,*56
$PYRTM,2024,125.589154630058,16.698802040197
$GPGGA,140822.00,3510.6614,N,12152.5575,W,1,10,1.0,9.3,M,-32.7,M,,*57
$PYRTM,2024,125.589170370498,16.698817780637
$GPGGA,140823.00,3510.6617,N,12152.5597,W,1,10,1.0,9.1,M,-32.7,M,,*5B
$PYRTM,2024,125.589181945833,16.698829355972
$GPGGA,140824.00,3510.6616,N,12152.5619,W,1,10,1.0,9.1,M,-32.7,M,,*58
$PYRTM,2024,125.589193519468,16.698840929606
$GPGGA,140825.00,3510.6616,N,12152.5643,W,1,10,1.0,9.1,M,-32.7,M,,*56
$PYRTM,2024,125.589205093843,16.698852503981
$GPGGA,140826.00,3510.6620,N,12152.5666,W,1,10,1.0,9.3,M,-32.7,M,,*55
$PYRTM,2024,125.589216667951,16.698864078090
$GPGGA,140827.00,3510.6622,N,12152.5688,W,1,10,1.0,9.9,M,-32.7,M,,*5C
$PYRTM,2024,125.589228238032,16.698875648171
$GPGGA,140828.00,3510.6623,N,12152.5710,W,1,10,1.0,10.3,M,-32.7,M,,*60
$PYRTM,2024,125.589239816273,16.698887226412
$GPGGA,140829.00,3510.6625,N,12152.5736,W,1,10,1.0,9.8,M,-32.7,M,,*50
$PYRTM,2024,125.589251390671,16.698898800810
$GPGGA,140830.00,3510.6626,N,12152.5761,W,1,10,1.0,8.9,M,-32.7,M,,*59
$PYRTM,2024,125.589262965104,16.698910375243
$GPGGA,140831.00,3510.6626,N,12152.5785,W,1,10,1.0,8.6,M,-32.7,M,,*5D
$PYRTM,2024,125.589270359039,16.698917769178
$GPGGA,140832.00,3510.6626,N,12152.5806,W,1,10,1.0,9.0,M,-32.7,M,,*5D
$PYRTM,2024,125.589286115602,16.698933525741
$GPGGA,140833.00,3510.6628,N,12152.5827,W,1,10,1.0,9.9,M,-32.7,M,,*58
$PYRTM,2024,125.589297681794,16.698945091933
$GPGGA,140834.00,3510.6630,N,12152.5852,W,1,10,1.0,10.2,M,-32.7,M,,*67
$PYRTM,2024,125.589309260995,16.698956671134
$GPGGA,140835.00,3510.6632,N,12152.5880,W,1,10,1.0,9.5,M,-32.7,M,,*54
$PYRTM,2024,125.589320835845,16.698968245984
$GPGGA,140836.00,3510.6634,N,12152.5906,W,1,10,1.0,8.7,M,-32.7,M,,*5D
$PYRTM,2024,125.589328230671,16.698975640810
$GPGGA,140837.00,3510.6636,N,12152.5926,W,1,10,1.0,8.7,M,-32.7,M,,*5C
$PYRTM,2024,125.589343979340,16.698991389479
$GPGGA,140838.00,3510.6640,N,12152.5948,W,1,10,1.0,9.2,M,-32.7,M,,*5E
$PYRTM,2024,125.589355554884,16.699002965023
$GPGGA,140839.00,3510.6643,N,12152.5975,W,1,10,1.0,9.0,M,-32.7,M,,*50
$PYRTM,2024,125.589367127141,16.699014537280
$GPGGA,140840.00,3510.6645,N,12152.6001,W,1,10,1.0,8.8,M,-32.7,M,,*58
