$PYRTM,2024,125.083348527870,16.192995938009
$GPGGA,020000.00,3510.4649,N,12138.3937,W,1,08,1.3,7.7,M,-32.5,M,,*50
$PYRTM,2024,125.083360089583,16.193007499722
$GPGGA,020001.00,3510.4643,N,12138.3963,W,1,08,1.3,7.7,M,-32.5,M,,*5A
$PYRTM,2024,125.083371675185,16.193019085324
$GPGGA,020002.00,3510.4644,N,12138.3988,W,1,08,1.3,7.5,M,-32.5,M,,*59
$PYRTM,2024,125.083383236991,16.193030647130
$GPGGA,020003.00,3510.4647,N,12138.4011,W,1,08,1.3,7.5,M,-32.5,M,,*55
$PYRTM,2024,125.083394822130,16.193042232269
$GPGGA,020004.00,3510.4647,N,12138.4033,W,1,08,1.3,7.5,M,-32.5,M,,*52
$PYRTM,2024,125.083406383993,16.193053794144
$GPGGA,020005.00,3510.4642,N,12138.4059,W,1,08,1.3,7.2,M,-32.5,M,,*5D
$PYRTM,2024,125.083417970972,16.193065381111
$GPGGA,020006.00,3510.4636,N,12138.4083,W,1,08,1.3,6.8,M,-32.5,M,,*51
$PYRTM,2024,125.083429531910,16.193076942049
$GPGGA,020007.00,3510.4635,N,12138.4106,W,1,08,1.3,6.7,M,-32.5,M,,*50
$PYRTM,2024,125.083441124086,16.193088534225
$GPGGA,020008.00,3510.4638,N,12138.4129,W,1,08,1.3,7.0,M,-32.5,M,,*59
$PYRTM,2024,125.083452681516,16.193100091655
$GPGGA,020009.00,3510.4639,N,12138.4156,W,1,08,1.3,6.9,M,-32.5,M,,*59
$PYRTM,2024,125.083464268137,16.193111678275
$GPGGA,020010.00,3510.4635,N,12138.4181,W,1,08,1.3,6.8,M,-32.5,M,,*56
$PYRTM,2024,125.083475829005,16.193123239144
$GPGGA,020011.00,3510.4630,N,12138.4204,W,1,08,1.3,7.0,M,-32.5,M,,*55
$PYRTM,2024,125.083483235671,16.193130645822
$GPGGA,020012.00,3510.4628,N,12138.4228,W,1,08,1.3,7.3,M,-32.5,M,,*52
$PYRTM,2024,125.083498976343,16.193146386481
$GPGGA,020013.00,3510.4630,N,12138.4253,W,1,08,1.3,7.3,M,-32.5,M,,*56
$PYRTM,2024,125.083510563576,16.193157973727
$GPGGA,020014.00,3510.4630,N,12138.4277,W,1,08,1.3,7.4,M,-32.5,M,,*50
$PYRTM,2024,125.083517974421,16.193165384560
$GPGGA,020015.00,3510.4628,N,12138.4300,W,1,08,1.3,7.6,M,-32.5,M,,*5B
$PYRTM,2024,125.083533714062,16.193181124201
$GPGGA,020016.00,3510.4625,N,12138.4324,W,1,08,1.3,7.6,M,-32.5,M,,*53
$PYRTM,2024,125.083545276331,16.193192686470
$GPGGA,020017.00,3510.4624,N,12138.4350,W,1,08,1.3,7.4,M,-32.5,M,,*52
$PYRTM,2024,125.083556861979,16.193204272118
$GPGGA,020018.00,3510.4622,N,12138.4374,W,1,08,1.3,7.3,M,-32.5,M,,*5A
$PYRTM,2024,125.083568434190,16.193215844329
$GPGGA,020019.00,3510.4621,N,12138.4397,W,1,08,1.3,7.5,M,-32.5,M,,*53
$PYRTM,2024,125.083580008750,16.193227418889
$GPGGA,020020.00,3510.4620,N,12138.4422,W,1,08,1.3,7.5,M,-32.5,M,,*51
$PYRTM,2024,125.083591583194,16.193238993333
$GPGGA,020021.00,3510.4620,N,12138.4447,W,1,08,1.3,7.2,M,-32.5,M,,*54
$PYRTM,2024,125.083603172708,16.193250582847
$GPGGA,020022.00,3510.4617,N,12138.4473,W,1,08,1.3,6.9,M,-32.5,M,,*5E
$PYRTM,2024,125.083614732778,16.193262142917
$GPGGA,020023.00,3510.4613,N,12138.4497,W,1,08,1.3,7.1,M,-32.5,M,,*58
$PYRTM,2024,125.083622125868,16.193269536007
$GPGGA,020024.00,3510.4611,N,12138.4520,W,1,08,1.3,7.5,M,-32.5,M,,*54
$PYRTM,2024,125.083633931389,16.193281341528
$GPGGA,020025.00,3510.4611,N,12138.4546,W,1,08,1.3,7.5,M,-32.5,M,,*55
$PYRTM,2024,125.083649453333,16.193296863472
$GPGGA,020026.00,3510.4611,N,12138.4575,W,1,08,1.3,7.0,M,-32.5,M,,*53
$PYRTM,2024,125.083656864826,16.193304274965
$GPGGA,020027.00,3510.4609,N,12138.4599,W,1,08,1.3,6.8,M,-32.5,M,,*50
$PYRTM,2024,125.083675494861,16.193322905000
$GPGGA,020028.00,3510.4604,N,12138.4619,W,1,08,1.3,7.7,M,-32.5,M,,*57
$PYRTM,2024,125.083684176794,16.193331586944
$GPGGA,020029.00,3510.4600,N,12138.4644,W,1,08,1.3,8.3,M,-32.5,M,,*51
$PYRTM,2024,125.083695750984,16.193343161123
$GPGGA,020030.00,3510.4600,N,12138.4673,W,1,08,1.3,7.7,M,-32.5,M,,*56
$PYRTM,2024,125.083707319294,16.193354729433
$GPGGA,020031.00,3510.4603,N,12138.4699,W,1,08,1.3,7.2,M,-32.5,M,,*55
$PYRTM,2024,125.083714719317,16.193362129456
$GPGGA,020032.00,3510.4604,N,12138.4722,W,1,08,1.3,6.9,M,-32.5,M,,*5A
$PYRTM,2024,125.083730471852,16.193377881991
$GPGGA,020033.00,3510.4599,N,12138.4744,W,1,08,1.3,7.2,M,-32.5,M,,*56
$PYRTM,2024,125.083744940868,16.193392351007
$GPGGA,020034.00,3510.4592,N,12138.4768,W,1,08,1.3,7.8,M,-32.5,M,,*5E
$PYRTM,2024,125.083756503623,16.193403913762
$GPGGA,020035.00,3510.4589,N,12138.4794,W,1,08,1.3,7.7,M,-32.5,M,,*59
$PYRTM,2024,125.083765198773,16.193412608912
$GPGGA,020036.00,3510.4593,N,12138.4821,W,1,08,1.3,6.5,M,-32.5,M,,*53
$PYRTM,2024,125.083776769282,16.193424179421
$GPGGA,020037.00,3510.4599,N,12138.4845,W,1,08,1.3,6.0,M,-32.5,M,,*5F
$PYRTM,2024,125.083788358704,16.193435768843
$GPGGA,020038.00,3510.4597,N,12138.4865,W,1,08,1.3,6.6,M,-32.5,M,,*5A
$PYRTM,2024,125.083799916991,16.193447327130
$GPGGA,020039.00,3510.4589,N,12138.4889,W,1,08,1.3,7.3,M,-32.5,M,,*52
$PYRTM,2024,125.083811492824,16.193458902963
$GPGGA,020040.00,3510.4585,N,12138.4918,W,1,08,1.3,6.8,M,-32.5,M,,*53
$PYRTM,2024,125.083823065544,16.193470475683
$GPGGA,020041.00,3510.4588,N,12138.4944,W,1,08,1.3,6.2,M,-32.5,M,,*5C
$PYRTM,2024,125.083834639896,16.193482050046
$GPGGA,020042.00,3510.4592,N,12138.4965,W,1,08,1.3,6.4,M,-32.5,M,,*51
$PYRTM,2024,125.083842048866,16.193489459005
$GPGGA,020043.00,3510.4591,N,12138.4985,W,1,08,1.3,7.3,M,-32.5,M,,*5B
$PYRTM,2024,125.083853840139,16.193501250278
$GPGGA,020044.00,3510.4587,N,12138.5011,W,1,08,1.3,7.6,M,-32.5,M,,*5B
$PYRTM,2024,125.083869465521,16.193516875660
$GPGGA,020045.00,3510.4583,N,12138.5038,W,1,08,1.3,7.1,M,-32.5,M,,*52
$PYRTM,2024,125.083881051806,16.193528461956
$GPGGA,020046.00,3510.4583,N,12138.5061,W,1,08,1.3,6.9,M,-32.5,M,,*54
$PYRTM,2024,125.083888330451,16.193535740590
$GPGGA,020047.00,3510.4585,N,12138.5083,W,1,08,1.3,7.2,M,-32.5,M,,*55
$PYRTM,2024,125.083904083981,16.193551494120
$GPGGA,020048.00,3510.4587,N,12138.5106,W,1,08,1.3,7.3,M,-32.5,M,,*55
$PYRTM,2024,125.083915657975,16.193563068113
$GPGGA,020049.00,3510.4584,N,12138.5132,W,1,08,1.3,7.2,M,-32.5,M,,*51
$PYRTM,2024,125.083923054456,16.193570464595
$GPGGA,020050.00,3510.4580,N,12138.5158,W,1,08,1.3,6.8,M,-32.5,M,,*5A
$PYRTM,2024,125.083938805440,16.193586215579
$GPGGA,020051.00,3510.4579,N,12138.5182,W,1,08,1.3,6.4,M,-32.5,M,,*56
$PYRTM,2024,125.083950383426,16.193597793565
$GPGGA,020052.00,3510.4579,N,12138.5205,W,1,08,1.3,6.7,M,-32.5,M,,*5A
$PYRTM,2024,125.083961954074,16.193609364225
$GPGGA,020053.00,3510.4577,N,12138.5230,W,1,08,1.3,6.9,M,-32.5,M,,*5D
$PYRTM,2024,125.083973543299,16.193620953437
$GPGGA,020054.00,3510.4574,N,12138.5256,W,1,08,1.3,6.6,M,-32.5,M,,*56
$PYRTM,2024,125.083985102581,16.193632512720
$GPGGA,020055.00,3510.4574,N,12138.5281,W,1,08,1.3,6.5,M,-32.5,M,,*5E
$PYRTM,2024,125.083992497975,16.193639908102
$GPGGA,020056.00,3510.4573,N,12138.5303,W,1,08,1.3,6.8,M,-32.5,M,,*5C
$PYRTM,2024,125.084008247396,16.193655657535
$GPGGA,020057.00,3510.4570,N,12138.5327,W,1,08,1.3,7.2,M,-32.5,M,,*53
$PYRTM,2024,125.084015645833,16.193663055972
$GPGGA,020058.00,3510.4568,N,12138.5353,W,1,08,1.3,7.2,M,-32.5,M,,*56
$PYRTM,2024,125.084034281447,16.193681691586
$GPGGA,020059.00,3510.4569,N,12138.5379,W,1,08,1.3,6.8,M,-32.5,M,,*55
$PYRTM,2024,125.084042974178,16.193690384317
$GPGGA,020100.00,3510.4570,N,12138.5402,W,1,08,1.3,6.9,M,-32.5,M,,*5A
$PYRTM,2024,125.084050369028,16.193697779178
$GPGGA,020101.00,3510.4567,N,12138.5425,W,1,08,1.3,7.3,M,-32.5,M,,*53
$PYRTM,2024,125.084066122083,16.193713532234
$GPGGA,020102.00,3510.4564,N,12138.5450,W,1,08,1.3,7.5,M,-32.5,M,,*57
$PYRTM,2024,125.084077696968,16.193725107118
$GPGGA,020103.00,3510.4563,N,12138.5477,W,1,08,1.3,7.2,M,-32.5,M,,*53
$PYRTM,2024,125.084089274329,16.193736684479
$GPGGA,020104.00,3510.4564,N,12138.5501,W,1,08,1.3,7.0,M,-32.5,M,,*51
$PYRTM,2024,125.084100845880,16.193748256019
$GPGGA,020105.00,3510.4564,N,12138.5525,W,1,08,1.3,6.8,M,-32.5,M,,*5F
$PYRTM,2024,125.084112432859,16.193759842998
$GPGGA,020106.00,3510.4562,N,12138.5549,W,1,08,1.3,7.0,M,-32.5,M,,*59
$PYRTM,2024,125.084123993958,16.193771404097
$GPGGA,020107.00,3510.4559,N,12138.5574,W,1,08,1.3,7.1,M,-32.5,M,,*5F
$PYRTM,2024,125.084135569769,16.193782979907
$GPGGA,020108.00,3510.4557,N,12138.5601,W,1,08,1.3,6.5,M,-32.5,M,,*5A
$PYRTM,2024,125.084147141100,16.193794551238
$GPGGA,020109.00,3510.4559,N,12138.5627,W,1,08,1.3,6.2,M,-32.5,M,,*56
$PYRTM,2024,125.084158717037,16.193806127176
$GPGGA,020110.00,3510.4560,N,12138.5650,W,1,08,1.3,6.4,M,-32.5,M,,*52
$PYRTM,2024,125.084166125509,16.193813535648
$GPGGA,020111.00,3510.4557,N,12138.5674,W,1,08,1.3,7.0,M,-32.5,M,,*54
$PYRTM,2024,125.084181863634,16.193829273773
$GPGGA,020112.00,3510.4554,N,12138.5700,W,1,08,1.3,7.1,M,-32.5,M,,*57
$PYRTM,2024,125.084193437824,16.193840847963
$GPGGA,020113.00,3510.4552,N,12138.5728,W,1,08,1.3,6.8,M,-32.5,M,,*52
$PYRTM,2024,125.084205012465,16.193852422604
$GPGGA,020114.00,3510.4552,N,12138.5753,W,1,08,1.3,6.5,M,-32.5,M,,*54
$PYRTM,2024,125.084216585486,16.193863995625
$GPGGA,020115.00,3510.4551,N,12138.5777,W,1,08,1.3,6.6,M,-32.5,M,,*53
$PYRTM,2024,125.084228159144,16.193875569282
$GPGGA,020116.00,3510.4549,N,12138.5801,W,1,08,1.3,6.9,M,-32.5,M,,*58
$PYRTM,2024,125.084239734711,16.193887144850
$GPGGA,020117.00,3510.4547,N,12138.5829,W,1,08,1.3,6.8,M,-32.5,M,,*5C
$PYRTM,2024,125.084251319144,16.193898729294
$GPGGA,020118.00,3510.4544,N,12138.5856,W,1,08,1.3,6.6,M,-32.5,M,,*56
$PYRTM,2024,125.084262882639,16.193910292778
$GPGGA,020119.00,3510.4541,N,12138.5878,W,1,08,1.3,6.9,M,-32.5,M,,*51
$PYRTM,2024,125.084270279398,16.193917689537
$GPGGA,020120.00,3510.4538,N,12138.5902,W,1,08,1.3,7.3,M,-32.5,M,,*52
$PYRTM,2024,125.084286032477,16.193933442616
$GPGGA,020121.00,3510.4537,N,12138.5931,W,1,08,1.3,7.0,M,-32.5,M,,*5F
$PYRTM,2024,125.084297629977,16.193945040116
$GPGGA,020122.00,3510.4538,N,12138.5958,W,1,08,1.3,6.3,M,-32.5,M,,*5E
$PYRTM,2024,125.084309180162,16.193956590301
$GPGGA,020123.00,3510.4535,N,12138.5979,W,1,08,1.3,6.5,M,-32.5,M,,*57
$PYRTM,2024,125.084320753565,16.193968163704
$GPGGA,020124.00,3510.4530,N,12138.6000,W,1,08,1.3,7.3,M,-32.5,M,,*56
$PYRTM,2024,125.084332322917,16.193979733067
$GPGGA,020125.00,3510.4524,N,12138.6028,W,1,08,1.3,7.3,M,-32.5,M,,*58
$PYRTM,2024,125.084339722350,16.193987132500
$GPGGA,020126.00,3510.4523,N,12138.6056,W,1,08,1.3,6.8,M,-32.5,M,,*5F
$PYRTM,2024,125.084351539977,16.193998950116
$GPGGA,020127.00,3510.4525,N,12138.6079,W,1,08,1.3,6.6,M,-32.5,M,,*5B
$PYRTM,2024,125.084367049028,16.194014459167
$GPGGA,020128.00,3510.4525,N,12138.6098,W,1,08,1.3,7.2,M,-32.5,M,,*5E
$PYRTM,2024,125.084374451435,16.194021861574
$GPGGA,020129.00,3510.4523,N,12138.6121,W,1,08,1.3,7.4,M,-32.5,M,,*5C
$PYRTM,2024,125.084393093113,16.194040503252
$GPGGA,020130.00,3510.4519,N,12138.6149,W,1,08,1.3,7.2,M,-32.5,M,,*55
$PYRTM,2024,125.084401773947,16.194049184086
$GPGGA,020131.00,3510.4515,N,12138.6174,W,1,08,1.3,7.0,M,-32.5,M,,*54
$PYRTM,2024,125.084413345255,16.194060755394
$GPGGA,020132.00,3510.4514,N,12138.6194,W,1,08,1.3,7.2,M,-32.5,M,,*5A
$PYRTM,2024,125.084420749687,16.194068159826
$GPGGA,020133.00,3510.4516,N,12138.6217,W,1,08,1.3,7.2,M,-32.5,M,,*51
$PYRTM,2024,125.084436502014,16.194083912164
$GPGGA,020134.00,3510.4517,N,12138.6244,W,1,08,1.3,6.9,M,-32.5,M,,*5B
$PYRTM,2024,125.084448069514,16.194095479653
$GPGGA,020135.00,3510.4513,N,12138.6265,W,1,08,1.3,7.1,M,-32.5,M,,*54
$PYRTM,2024,125.084459649630,16.194107059769
$GPGGA,020136.00,3510.4507,N,12138.6285,W,1,08,1.3,7.5,M,-32.5,M,,*58
$PYRTM,2024,125.084471216713,16.194118626852
$GPGGA,020137.00,3510.4504,N,12138.6310,W,1,08,1.3,7.4,M,-32.5,M,,*56
$PYRTM,2024,125.084482790382,16.194130200521
$GPGGA,020138.00,3510.4505,N,12138.6337,W,1,08,1.3,7.0,M,-32.5,M,,*59
$PYRTM,2024,125.084494360220,16.194141770359
$GPGGA,020139.00,3510.4505,N,12138.6358,W,1,08,1.3,7.0,M,-32.5,M,,*51
$PYRTM,2024,125.084501758553,16.194149168692
$GPGGA,020140.00,3510.4501,N,12138.6379,W,1,08,1.3,7.4,M,-32.5,M,,*5C
$PYRTM,2024,125.084517515613,16.194164925752
$GPGGA,020141.00,3510.4496,N,12138.6402,W,1,08,1.3,7.8,M,-32.5,M,,*55
$PYRTM,2024,125.084529091424,16.194176501562
$GPGGA,020142.00,3510.4494,N,12138.6427,W,1,08,1.3,7.5,M,-32.5,M,,*5E
$PYRTM,2024,125.084536497569,16.194183907708
$GPGGA,020143.00,3510.4493,N,12138.6452,W,1,08,1.3,7.2,M,-32.5,M,,*5D
$PYRTM,2024,125.084552237083,16.194199647222
$GPGGA,020144.00,3510.4491,N,12138.6474,W,1,08,1.3,7.3,M,-32.5,M,,*5D
$PYRTM,2024,125.084563811354,16.194211221493
$GPGGA,020145.00,3510.4489,N,12138.6498,W,1,08,1.3,7.1,M,-32.5,M,,*55
$PYRTM,2024,125.084575394896,16.194222805035
$GPGGA,020146.00,3510.4487,N,12138.6522,W,1,08,1.3,7.2,M,-32.5,M,,*5B
$PYRTM,2024,125.084586958669,16.194234368808
$GPGGA,020147.00,3510.4484,N,12138.6546,W,1,08,1.3,7.3,M,-32.5,M,,*5A
$PYRTM,2024,125.084598540359,16.194245950498
$GPGGA,020148.00,3510.4480,N,12138.6570,W,1,08,1.3,7.6,M,-32.5,M,,*51
$PYRTM,2024,125.084610105648,16.194257515787
$GPGGA,020149.00,3510.4478,N,12138.6596,W,1,08,1.3,7.6,M,-32.5,M,,*5F
$PYRTM,2024,125.084621688831,16.194269098970
$GPGGA,020150.00,3510.4479,N,12138.6622,W,1,08,1.3,6.8,M,-32.5,M,,*55
$PYRTM,2024,125.084633371586,16.194280781725
$GPGGA,020151.00,3510.4479,N,12138.6645,W,1,08,1.3,6.9,M,-32.5,M,,*54
$PYRTM,2024,125.084644841319,16.194292251458
$GPGGA,020152.00,3510.4476,N,12138.6669,W,1,08,1.3,7.3,M,-32.5,M,,*5D
$PYRTM,2024,125.084656398137,16.194303808275
$GPGGA,020153.00,3510.4471,N,12138.6694,W,1,08,1.3,7.6,M,-32.5,M,,*5C
$PYRTM,2024,125.084667977743,16.194315387894
$GPGGA,020154.00,3510.4467,N,12138.6721,W,1,08,1.3,7.3,M,-32.5,M,,*56
$PYRTM,2024,125.084675386863,16.194322797002
$GPGGA,020155.00,3510.4469,N,12138.6746,W,1,08,1.3,7.1,M,-32.5,M,,*5A
$PYRTM,2024,125.084691124792,16.194338534931
$GPGGA,020156.00,3510.4472,N,12138.6769,W,1,08,1.3,7.1,M,-32.5,M,,*5E
$PYRTM,2024,125.084702700046,16.194350110185
$GPGGA,020157.00,3510.4471,N,12138.6791,W,1,08,1.3,7.5,M,-32.5,M,,*5F
$PYRTM,2024,125.084714273611,16.194361683750
$GPGGA,020158.00,3510.4468,N,12138.6816,W,1,08,1.3,7.5,M,-32.5,M,,*58
$PYRTM,2024,125.084725846817,16.194373256956
$GPGGA,020159.00,3510.4465,N,12138.6844,W,1,08,1.3,7.0,M,-32.5,M,,*56
$PYRTM,2024,125.084733243600,16.194380653738
$GPGGA,020200.00,3510.4465,N,12138.6868,W,1,08,1.3,6.9,M,-32.5,M,,*5F
$PYRTM,2024,125.084751889826,16.194399299977
$GPGGA,020201.00,3510.4466,N,12138.6890,W,1,08,1.3,7.1,M,-32.5,M,,*53
$PYRTM,2024,125.084760580775,16.194407990914
$GPGGA,020202.00,3510.4465,N,12138.6915,W,1,08,1.3,7.3,M,-32.5,M,,*5D
$PYRTM,2024,125.084772143727,16.194419554074
$GPGGA,020203.00,3510.4463,N,12138.6942,W,1,08,1.3,7.2,M,-32.5,M,,*59
$PYRTM,2024,125.084783726736,16.194431136887
$GPGGA,020204.00,3510.4462,N,12138.6967,W,1,08,1.0,7.0,M,-32.5,M,,*59
$PYRTM,2024,125.084791123947,16.194438534086
$GPGGA,020205.00,3510.4461,N,12138.6991,W,1,08,1.3,7.1,M,-32.5,M,,*50
$PYRTM,2024,125.084806874815,16.194454284954
$GPGGA,020206.00,3510.4461,N,12138.7016,W,1,08,1.3,7.1,M,-32.5,M,,*54
$PYRTM,2024,125.084818440937,16.194465851076
$GPGGA,020207.00,3510.4462,N,12138.7041,W,1,08,1.0,7.2,M,-32.5,M,,*54
$PYRTM,2024,125.084830026586,16.194477436725
$GPGGA,020208.00,3510.4461,N,12138.7066,W,1,08,1.0,7.1,M,-32.5,M,,*5E
$PYRTM,2024,125.084841588333,16.194488998472
$GPGGA,020209.00,3510.4460,N,12138.7091,W,1,08,1.0,7.0,M,-32.5,M,,*57
$PYRTM,2024,125.084853161898,16.194500572037
$GPGGA,020210.00,3510.4459,N,12138.7116,W,1,08,1.0,7.0,M,-32.5,M,,*5B
$PYRTM,2024,125.084860573507,16.194507983646
$GPGGA,020211.00,3510.4458,N,12138.7140,W,1,08,1.0,7.4,M,-32.5,M,,*5C
$PYRTM,2024,125.084876311169,16.194523721308
$GPGGA,020212.00,3510.4458,N,12138.7164,W,1,08,1.0,7.6,M,-32.5,M,,*5B
$PYRTM,2024,125.084887886412,16.194535296562
$GPGGA,020213.00,3510.4457,N,12138.7192,W,1,08,1.0,7.3,M,-32.5,M,,*59
$PYRTM,2024,125.084895279606,16.194542689745
$GPGGA,020214.00,3510.4456,N,12138.7219,W,1,08,1.0,6.7,M,-32.5,M,,*5A
$PYRTM,2024,125.084911029167,16.194558439306
$GPGGA,020215.00,3510.4455,N,12138.7243,W,1,08,1.0,6.7,M,-32.5,M,,*57
$PYRTM,2024,125.084922633090,16.194570043229
$GPGGA,020216.00,3510.4454,N,12138.7265,W,1,08,1.0,7.4,M,-32.5,M,,*53
$PYRTM,2024,125.084934183495,16.194581593634
$GPGGA,020217.00,3510.4452,N,12138.7291,W,1,08,1.0,7.8,M,-32.5,M,,*53
$PYRTM,2024,125.084945763218,16.194593173356
$GPGGA,020218.00,3510.4451,N,12138.7320,W,1,08,1.0,7.3,M,-32.5,M,,*5F
$PYRTM,2024,125.084957330509,16.194604740648
$GPGGA,020219.00,3510.4451,N,12138.7345,W,1,08,1.0,6.8,M,-32.5,M,,*57
$PYRTM,2024,125.084968911285,16.194616321424
$GPGGA,020220.00,3510.4451,N,12138.7366,W,1,08,1.0,7.1,M,-32.5,M,,*54
$PYRTM,2024,125.084980477477,16.194627887616
$GPGGA,020221.00,3510.4449,N,12138.7390,W,1,08,1.0,7.5,M,-32.5,M,,*51
$PYRTM,2024,125.084992052037,16.194639462176
$GPGGA,020222.00,3510.4447,N,12138.7418,W,1,08,1.0,7.4,M,-32.5,M,,*5A
$PYRTM,2024,125.085003625984,16.194651036123
$GPGGA,020223.00,3510.4444,N,12138.7445,W,1,08,1.0,6.7,M,-32.5,M,,*52
$PYRTM,2024,125.085015210405,16.194662620544
$GPGGA,020224.00,3510.4443,N,12138.7469,W,1,08,1.0,6.8,M,-32.5,M,,*53
$PYRTM,2024,125.085026776042,16.194674186181
$GPGGA,020225.00,3510.4442,N,12138.7493,W,1,08,1.0,7.2,M,-32.5,M,,*5D
$PYRTM,2024,125.085038360046,16.194685770185
$GPGGA,020226.00,3510.4441,N,12138.7518,W,1,08,1.0,7.3,M,-32.5,M,,*5E
$PYRTM,2024,125.085049920012,16.194697330150
$GPGGA,020227.00,3510.4439,N,12138.7545,W,1,08,1.0,6.9,M,-32.5,M,,*53
$PYRTM,2024,125.085061496620,16.194708906759
$GPGGA,020228.00,3510.4437,N,12138.7571,W,1,08,1.0,6.7,M,-32.5,M,,*5B
$PYRTM,2024,125.085073071528,16.194720481667
$GPGGA,020229.00,3510.4436,N,12138.7595,W,1,08,1.0,6.8,M,-32.5,M,,*5E
$PYRTM,2024,125.085084646123,16.194732056262
$GPGGA,020230.00,3510.4436,N,12138.7618,W,1,08,1.0,7.3,M,-32.5,M,,*5A
$PYRTM,2024,125.085092046956,16.194739457095
$GPGGA,020231.00,3510.4434,N,12138.7644,W,1,08,1.0,7.7,M,-32.5,M,,*54
$PYRTM,2024,125.085110689572,16.194758099711
$GPGGA,020232.00,3510.4431,N,12138.7672,W,1,08,1.0,7.3,M,-32.5,M,,*53
$PYRTM,2024,125.085119368067,16.194766778206
$GPGGA,020233.00,3510.4432,N,12138.7697,W,1,08,1.0,7.1,M,-32.5,M,,*58
$PYRTM,2024,125.085130949630,16.194778359769
$GPGGA,020234.00,3510.4433,N,12138.7719,W,1,08,1.0,7.3,M,-32.5,M,,*5B
$PYRTM,2024,125.085142517002,16.194789927141
$GPGGA,020235.00,3510.4432,N,12138.7742,W,1,08,1.0,7.9,M,-32.5,M,,*5F
$PYRTM,2024,125.085154110984,16.194801521123
$GPGGA,020236.00,3510.4428,N,12138.7770,W,1,08,1.0,7.6,M,-32.5,M,,*59
$PYRTM,2024,125.085161497373,16.194808907512
$GPGGA,020237.00,3510.4426,N,12138.7798,W,1,08,1.0,6.9,M,-32.5,M,,*5E
$PYRTM,2024,125.085177237870,16.194824648009
$GPGGA,020238.00,3510.4429,N,12138.7822,W,1,08,1.0,6.8,M,-32.5,M,,*51
$PYRTM,2024,125.085188808206,16.194836218345
$GPGGA,020239.00,3510.4428,N,12138.7844,W,1,08,1.0,7.5,M,-32.5,M,,*5D
$PYRTM,2024,125.085200386354,16.194847796493
$GPGGA,020240.00,3510.4423,N,12138.7871,W,1,08,1.0,8.0,M,-32.5,M,,*54
$PYRTM,2024,125.085207787836,16.194855197986
$GPGGA,020241.00,3510.4420,N,12138.7900,W,1,08,1.0,7.5,M,-32.5,M,,*5B
$PYRTM,2024,125.085223534549,16.194870944688
$GPGGA,020242.00,3510.4420,N,12138.7926,W,1,08,1.0,7.1,M,-32.5,M,,*58
$PYRTM,2024,125.085235109248,16.194882519387
$GPGGA,020243.00,3510.4422,N,12138.7950,W,1,08,1.0,7.3,M,-32.5,M,,*58
$PYRTM,2024,125.085246694491,16.194894104630
$GPGGA,020244.00,3510.4420,N,12138.7973,W,1,08,1.0,7.6,M,-32.5,M,,*59
$PYRTM,2024,125.085258256991,16.194905667130
$GPGGA,020245.00,3510.4415,N,12138.7999,W,1,08,1.0,7.5,M,-32.5,M,,*59
$PYRTM,2024,125.085269839317,16.194917249456
$GPGGA,020246.00,3510.4413,N,12138.8027,W,1,08,1.0,7.0,M,-32.5,M,,*5A
$PYRTM,2024,125.085281403218,16.194928813368
$GPGGA,020247.00,3510.4414,N,12138.8053,W,1,08,1.0,6.4,M,-32.5,M,,*5A
$PYRTM,2024,125.085293006551,16.194940416690
$GPGGA,020248.00,3510.4414,N,12138.8075,W,1,08,1.0,6.8,M,-32.5,M,,*5D
$PYRTM,2024,125.085304554178,16.194951964317
$GPGGA,020249.00,3510.4410,N,12138.8098,W,1,08,1.0,7.0,M,-32.5,M,,*52
$PYRTM,2024,125.085316239306,16.194963649444
$GPGGA,020250.00,3510.4407,N,12138.8125,W,1,08,1.0,7.2,M,-32.5,M,,*59
$PYRTM,2024,125.085323537870,16.194970948021
$GPGGA,020251.00,3510.4406,N,12138.8152,W,1,08,1.0,6.9,M,-32.5,M,,*53
$PYRTM,2024,125.085339392685,16.194986802824
$GPGGA,020252.00,3510.4407,N,12138.8177,W,1,08,1.0,6.7,M,-32.5,M,,*58
$PYRTM,2024,125.085350846806,16.194998256944
$GPGGA,020253.00,3510.4406,N,12138.8201,W,1,08,1.0,6.7,M,-32.5,M,,*5A
$PYRTM,2024,125.085358245822,16.195005655961
$GPGGA,020254.00,3510.4402,N,12138.8226,W,1,08,1.0,6.9,M,-32.5,M,,*52
$PYRTM,2024,125.085373995150,16.195021405289
$GPGGA,020255.00,3510.4399,N,12138.8251,W,1,08,1.0,7.0,M,-32.5,M,,*5E
$PYRTM,2024,125.085385572755,16.195032982894
$GPGGA,020256.00,3510.4400,N,12138.8277,W,1,08,1.0,7.1,M,-32.5,M,,*5F
$PYRTM,2024,125.085392979826,16.195040389965
$GPGGA,020257.00,3510.4401,N,12138.8303,W,1,08,1.0,6.9,M,-32.5,M,,*54
$PYRTM,2024,125.085408732569,16.195056142708
$GPGGA,020258.00,3510.4398,N,12138.8327,W,1,08,1.0,6.8,M,-32.5,M,,*5B
$PYRTM,2024,125.085420297083,16.195067707222
$GPGGA,020259.00,3510.4393,N,12138.8352,W,1,08,1.0,6.9,M,-32.5,M,,*52
$PYRTM,2024,125.085431868900,16.195079279039
$GPGGA,020300.00,3510.4392,N,12138.8377,W,1,08,1.0,6.9,M,-32.5,M,,*59
$PYRTM,2024,125.085443438507,16.195090848646
$GPGGA,020301.00,3510.4395,N,12138.8403,W,1,08,1.0,6.9,M,-32.5,M,,*5B
$PYRTM,2024,125.085450837384,16.195098247523
$GPGGA,020302.00,3510.4396,N,12138.8429,W,1,08,1.0,6.9,M,-32.5,M,,*53
$PYRTM,2024,125.085469484815,16.195116894954
$GPGGA,020303.00,3510.4392,N,12138.8456,W,1,08,1.0,6.9,M,-32.5,M,,*5E
$PYRTM,2024,125.085478189051,16.195125599190
$GPGGA,020304.00,3510.4387,N,12138.8483,W,1,08,1.0,6.8,M,-32.5,M,,*54
$PYRTM,2024,125.085489740787,16.195137150926
$GPGGA,020305.00,3510.4386,N,12138.8508,W,1,08,1.0,7.0,M,-32.5,M,,*5F
$PYRTM,2024,125.085501324201,16.195148734340
$GPGGA,020306.00,3510.4387,N,12138.8535,W,1,08,1.0,7.1,M,-32.5,M,,*52
$PYRTM,2024,125.085512890266,16.195160300405
$GPGGA,020307.00,3510.4389,N,12138.8562,W,1,08,1.0,7.1,M,-32.5,M,,*5F
$PYRTM,2024,125.085524462037,16.195171872176
$GPGGA,020308.00,3510.4388,N,12138.8589,W,1,08,1.0,6.9,M,-32.5,M,,*5D
$PYRTM,2024,125.085531863600,16.195179273738
$GPGGA,020309.00,3510.4384,N,12138.8614,W,1,08,1.0,7.0,M,-32.5,M,,*5F
$PYRTM,2024,125.085550505984,16.195197916134
$GPGGA,020310.00,3510.4379,N,12138.8639,W,1,08,1.0,7.4,M,-32.5,M,,*5E
$PYRTM,2024,125.085562078322,16.195209488472
$GPGGA,020311.00,3510.4378,N,12138.8666,W,1,08,1.0,7.4,M,-32.5,M,,*54
$PYRTM,2024,125.085570759491,16.195218169630
$GPGGA,020312.00,3510.4380,N,12138.8693,W,1,08,1.0,6.8,M,-32.5,M,,*57
$PYRTM,2024,125.085582332604,16.195229742743
$GPGGA,020313.00,3510.4382,N,12138.8718,W,1,08,1.0,6.7,M,-32.5,M,,*59
$PYRTM,2024,125.085593915116,16.195241325255
$GPGGA,020314.00,3510.4378,N,12138.8742,W,1,08,1.0,7.4,M,-32.5,M,,*56
$PYRTM,2024,125.085605477002,16.195252887141
$GPGGA,020315.00,3510.4371,N,12138.8768,W,1,08,1.0,7.8,M,-32.5,M,,*5A
$PYRTM,2024,125.085617063437,16.195264473576
$GPGGA,020316.00,3510.4368,N,12138.8795,W,1,08,1.0,7.4,M,-32.5,M,,*5F
$PYRTM,2024,125.085628630324,16.195276040463
$GPGGA,020317.00,3510.4370,N,12138.8821,W,1,08,1.0,7.1,M,-32.5,M,,*52
$PYRTM,2024,125.085640230787,16.195287640926
$GPGGA,020318.00,3510.4371,N,12138.8845,W,1,08,1.0,7.3,M,-32.5,M,,*5C
$PYRTM,2024,125.085651782685,16.195299192824
$GPGGA,020319.00,3510.4367,N,12138.8870,W,1,08,1.0,7.9,M,-32.5,M,,*56
$PYRTM,2024,125.085659172037,16.195306582176
$GPGGA,020320.00,3510.4364,N,12138.8899,W,1,08,1.0,7.4,M,-32.5,M,,*55
$PYRTM,2024,125.085674926678,16.195322336817
$GPGGA,020321.00,3510.4362,N,12138.8925,W,1,08,1.0,6.9,M,-32.5,M,,*58
$PYRTM,2024,125.085686500266,16.195333910405
$GPGGA,020322.00,3510.4360,N,12138.8946,W,1,08,1.0,7.4,M,-32.5,M,,*50
$PYRTM,2024,125.085698069873,16.195345480012
$GPGGA,020323.00,3510.4359,N,12138.8972,W,1,08,1.0,7.7,M,-32.5,M,,*5F
$PYRTM,2024,125.085709648831,16.195357058970
$GPGGA,020324.00,3510.4359,N,12138.9002,W,1,08,1.0,7.0,M,-32.5,M,,*50
$PYRTM,2024,125.085721223634,16.195368633785
$GPGGA,020325.00,3510.4357,N,12138.9027,W,1,08,1.0,6.5,M,-32.5,M,,*5C
$PYRTM,2024,125.085732808125,16.195380218264
$GPGGA,020326.00,3510.4353,N,12138.9046,W,1,08,1.0,7.0,M,-32.5,M,,*58
$PYRTM,2024,125.085744371597,16.195391781736
$GPGGA,020327.00,3510.4351,N,12138.9069,W,1,08,1.0,7.7,M,-32.5,M,,*51
$PYRTM,2024,125.085755945382,16.195403355521
$GPGGA,020328.00,3510.4352,N,12138.9097,W,1,08,1.0,7.4,M,-32.5,M,,*5F
$PYRTM,2024,125.085767519537,16.195414929688
$GPGGA,020329.00,3510.4352,N,12138.9125,W,1,08,1.0,6.7,M,-32.5,M,,*54
$PYRTM,2024,125.085779118669,16.195426528808
$GPGGA,020330.00,3510.4350,N,12138.9147,W,1,08,1.0,6.5,M,-32.5,M,,*58
$PYRTM,2024,125.085790664306,16.195438074444
$GPGGA,020331.00,3510.4348,N,12138.9166,W,1,08,1.0,7.1,M,-32.5,M,,*56
$PYRTM,2024,125.085802241979,16.195449652118
$GPGGA,020332.00,3510.4347,N,12138.9190,W,1,08,1.0,7.5,M,-32.5,M,,*57
$PYRTM,2024,125.085809649595,16.195457059734
$GPGGA,020333.00,3510.4346,N,12138.9217,W,1,08,1.0,7.2,M,-32.5,M,,*5C
$PYRTM,2024,125.085828284005,16.195475694155
$GPGGA,020334.00,3510.4345,N,12138.9243,W,1,08,1.0,6.8,M,-32.5,M,,*52
$PYRTM,2024,125.085839863414,16.195487273553
$GPGGA,020335.00,3510.4343,N,12138.9265,W,1,08,1.0,6.9,M,-32.5,M,,*50
$PYRTM,2024,125.085851432778,16.195498842928
$GPGGA,020336.00,3510.4342,N,12138.9288,W,1,08,1.0,7.1,M,-32.5,M,,*58
$PYRTM,2024,125.085860107164,16.195507517303
$GPGGA,020337.00,3510.4344,N,12138.9315,W,1,08,1.0,7.1,M,-32.5,M,,*5A
$PYRTM,2024,125.085871698032,16.195519108171
$GPGGA,020338.00,3510.4343,N,12138.9341,W,1,08,1.0,7.2,M,-32.5,M,,*50
$PYRTM,2024,125.085883260417,16.195530670556
$GPGGA,020339.00,3510.4339,N,12138.9365,W,1,08,1.0,7.4,M,-32.5,M,,*5C
$PYRTM,2024,125.085894834954,16.195542245093
$GPGGA,020340.00,3510.4336,N,12138.9388,W,1,08,1.0,7.5,M,-32.5,M,,*5F
$PYRTM,2024,125.085906409699,16.195553819838
$GPGGA,020341.00,3510.4336,N,12138.9414,W,1,08,1.0,7.1,M,-32.5,M,,*58
$PYRTM,2024,125.085917985069,16.195565395208
$GPGGA,020342.00,3510.4338,N,12138.9439,W,1,08,1.0,6.7,M,-32.5,M,,*5D
$PYRTM,2024,125.085925389016,16.195572799155
$GPGGA,020343.00,3510.4337,N,12138.9462,W,1,08,1.0,7.0,M,-32.5,M,,*5B
$PYRTM,2024,125.085941155833,16.195588565972
$GPGGA,020344.00,3510.4333,N,12138.9485,W,1,08,1.0,7.5,M,-32.5,M,,*54
$PYRTM,2024,125.085952704456,16.195600114595
$GPGGA,020345.00,3510.4329,N,12138.9513,W,1,08,1.0,7.3,M,-32.5,M,,*56
$PYRTM,2024,125.085964304398,16.195611714537
$GPGGA,020346.00,3510.4328,N,12138.9539,W,1,08,1.0,6.8,M,-32.5,M,,*56
$PYRTM,2024,125.085975854039,16.195623264178
$GPGGA,020347.00,3510.4329,N,12138.9560,W,1,08,1.0,7.0,M,-32.5,M,,*53
$PYRTM,2024,125.085987438565,16.195634848704
$GPGGA,020348.00,3510.4327,N,12138.9582,W,1,08,1.0,7.5,M,-32.5,M,,*5B
$PYRTM,2024,125.085999001088,16.195646411227
$GPGGA,020349.00,3510.4324,N,12138.9609,W,1,08,1.0,7.5,M,-32.5,M,,*59
$PYRTM,2024,125.086010575312,16.195657985451
$GPGGA,020350.00,3510.4321,N,12138.9635,W,1,08,1.0,6.9,M,-32.5,M,,*56
$PYRTM,2024,125.086022148877,16.195669559005
$GPGGA,020351.00,3510.4322,N,12138.9659,W,1,08,1.0,6.8,M,-32.5,M,,*5F
$PYRTM,2024,125.086033734306,16.195681144444
$GPGGA,020352.00,3510.4323,N,12138.9681,W,1,08,1.0,7.3,M,-32.5,M,,*52
$PYRTM,2024,125.086045298738,16.195692708877
$GPGGA,020353.00,3510.4320,N,12138.9705,W,1,08,1.0,7.8,M,-32.5,M,,*56
$PYRTM,2024,125.086056871852,16.195704281991
$GPGGA,020354.00,3510.4316,N,12138.9731,W,1,08,1.0,8.0,M,-32.5,M,,*54
$PYRTM,2024,125.086068446366,16.195715856505
$GPGGA,020355.00,3510.4315,N,12138.9758,W,1,08,1.0,7.7,M,-32.5,M,,*51
$PYRTM,2024,125.086075842234,16.195723252373
$GPGGA,020356.00,3510.4319,N,12138.9781,W,1,08,1.0,7.4,M,-32.5,M,,*59
$PYRTM,2024,125.086091590104,16.195739000243
$GPGGA,020357.00,3510.4319,N,12138.9801,W,1,08,1.0,8.0,M,-32.5,M,,*54
$PYRTM,2024,125.086103194005,16.195750604144
$GPGGA,020358.00,3510.4314,N,12138.9825,W,1,08,1.0,8.8,M,-32.5,M,,*58
$PYRTM,2024,125.086114742083,16.195762152222
$GPGGA,020359.00,3510.4310,N,12138.9853,W,1,08,1.0,8.2,M,-32.5,M,,*56
$PYRTM,2024,125.086126324514,16.195773734653
$GPGGA,020400.00,3510.4312,N,12138.9879,W,1,08,1.0,7.5,M,-32.5,M,,*5F
$PYRTM,2024,125.086137887014,16.195785297153
$GPGGA,020401.00,3510.4311,N,12138.9898,W,1,08,1.0,7.7,M,-32.5,M,,*50
$PYRTM,2024,125.086149465000,16.195796875139
$GPGGA,020402.00,3510.4306,N,12138.9919,W,1,08,1.0,8.3,M,-32.5,M,,*56
$PYRTM,2024,125.086161039549,16.195808449688
$GPGGA,020403.00,3510.4304,N,12138.9946,W,1,08,1.0,8.0,M,-32.5,M,,*5C
$PYRTM,2024,125.086168433924,16.195815844063
$GPGGA,020404.00,3510.4304,N,12138.9974,W,1,08,1.0,7.2,M,-32.5,M,,*57
$PYRTM,2024,125.086187081597,16.195834491748
$GPGGA,020405.00,3510.4303,N,12138.9996,W,1,08,1.0,7.2,M,-32.5,M,,*5D
$PYRTM,2024,125.086195762639,16.195843172778
$GPGGA,020406.00,3510.4299,N,12139.0017,W,1,08,1.0,7.9,M,-32.5,M,,*5F
$PYRTM,2024,125.086207335729,16.195854745868
$GPGGA,020407.00,3510.4296,N,12139.0041,W,1,08,1.0,8.3,M,-32.5,M,,*57
$PYRTM,2024,125.086214731053,16.195862141192
$GPGGA,020408.00,3510.4296,N,12139.0067,W,1,08,1.0,8.2,M,-32.5,M,,*5D
$PYRTM,2024,125.086230486088,16.195877896227
$GPGGA,020409.00,3510.4296,N,12139.0092,W,1,08,1.0,7.9,M,-32.5,M,,*52
$PYRTM,2024,125.086242070937,16.195889481076
$GPGGA,020410.00,3510.4296,N,12139.0116,W,1,08,1.0,7.9,M,-32.5,M,,*57
$PYRTM,2024,125.086253632164,16.195901042303
$GPGGA,020411.00,3510.4296,N,12139.0138,W,1,08,1.0,8.2,M,-32.5,M,,*5E
$PYRTM,2024,125.086265205822,16.195912615961
$GPGGA,020412.00,3510.4294,N,12139.0162,W,1,08,1.0,8.2,M,-32.5,M,,*50
$PYRTM,2024,125.086276780648,16.195924190787
$GPGGA,020413.00,3510.4291,N,12139.0188,W,1,08,1.0,7.9,M,-32.5,M,,*54
$PYRTM,2024,125.086288362789,16.195935772928
$GPGGA,020414.00,3510.4288,N,12139.0215,W,1,08,1.0,7.3,M,-32.5,M,,*56
$PYRTM,2024,125.086295760787,16.195943170926
$GPGGA,020415.00,3510.4289,N,12139.0238,W,1,08,1.0,7.2,M,-32.5,M,,*58
$PYRTM,2024,125.086311528981,16.195958939120
$GPGGA,020416.00,3510.4290,N,12139.0261,W,1,08,1.0,7.6,M,-32.5,M,,*5B
$PYRTM,2024,125.086318905255,16.195966315394
$GPGGA,020417.00,3510.4290,N,12139.0286,W,1,08,1.0,7.7,M,-32.5,M,,*52
$PYRTM,2024,125.086334650868,16.195982061007
$GPGGA,020418.00,3510.4287,N,12139.0313,W,1,08,1.0,7.5,M,-32.5,M,,*54
$PYRTM,2024,125.086346225718,16.195993635856
$GPGGA,020419.00,3510.4285,N,12139.0336,W,1,08,1.0,7.5,M,-32.5,M,,*50
$PYRTM,2024,125.086357799583,16.196005209722
$GPGGA,020420.00,3510.4285,N,12139.0359,W,1,08,1.0,8.0,M,-32.5,M,,*59
$PYRTM,2024,125.086369373785,16.196016783924
$GPGGA,020421.00,3510.4288,N,12139.0384,W,1,08,1.0,8.1,M,-32.5,M,,*54
$PYRTM,2024,125.086380947523,16.196028357662
$GPGGA,020422.00,3510.4290,N,12139.0410,W,1,08,1.0,7.8,M,-32.5,M,,*52
$PYRTM,2024,125.086392523264,16.196039933403
$GPGGA,020423.00,3510.4288,N,12139.0434,W,1,08,1.0,7.8,M,-32.5,M,,*5C
$PYRTM,2024,125.086404107419,16.196051517558
$GPGGA,020424.00,3510.4285,N,12139.0456,W,1,08,1.0,8.2,M,-32.5,M,,*57
$PYRTM,2024,125.086415671400,16.196063081539
$GPGGA,020425.00,3510.4285,N,12139.0481,W,1,08,1.0,8.5,M,-32.5,M,,*5B
$PYRTM,2024,125.086427264861,16.196074675000
$GPGGA,020426.00,3510.4287,N,12139.0507,W,1,08,1.0,8.2,M,-32.5,M,,*52
$PYRTM,2024,125.086434650035,16.196082060174
$GPGGA,020427.00,3510.4289,N,12139.0532,W,1,08,1.0,7.6,M,-32.5,M,,*50
$PYRTM,2024,125.086450400289,16.196097810428
$GPGGA,020428.00,3510.4288,N,12139.0557,W,1,08,1.0,7.3,M,-32.5,M,,*58
$PYRTM,2024,125.086461966910,16.196109377049
$GPGGA,020429.00,3510.4284,N,12139.0579,W,1,08,1.0,7.7,M,-32.5,M,,*5D
$PYRTM,2024,125.086469362338,16.196116772477
$GPGGA,020430.00,3510.4279,N,12139.0603,W,1,08,1.0,8.1,M,-32.5,M,,*50
$PYRTM,2024,125.086485115972,16.196132526111
$GPGGA,020431.00,3510.4278,N,12139.0632,W,1,08,1.0,7.8,M,-32.5,M,,*54
$PYRTM,2024,125.086496689225,16.196144099363
$GPGGA,020432.00,3510.4281,N,12139.0658,W,1,08,1.0,6.8,M,-32.5,M,,*5C
$PYRTM,2024,125.086508262396,16.196155672535
$GPGGA,020433.00,3510.4281,N,12139.0678,W,1,08,1.0,7.1,M,-32.5,M,,*57
$PYRTM,2024,125.086519848252,16.196167258391
$GPGGA,020434.00,3510.4273,N,12139.0700,W,1,08,1.0,8.0,M,-32.5,M,,*5D
$PYRTM,2024,125.086527255995,16.196174666134
$GPGGA,020435.00,3510.4266,N,12139.0727,W,1,08,1.0,7.7,M,-32.5,M,,*55
$PYRTM,2024,125.086545879306,16.196193289444
$GPGGA,020436.00,3510.4267,N,12139.0754,W,1,08,1.0,6.7,M,-32.5,M,,*52
$PYRTM,2024,125.086554560949,16.196201971088
$GPGGA,020437.00,3510.4275,N,12139.0775,W,1,08,1.0,6.3,M,-32.5,M,,*57
$PYRTM,2024,125.086566144769,16.196213554896
$GPGGA,020438.00,3510.4277,N,12139.0795,W,1,08,1.0,6.8,M,-32.5,M,,*5F
$PYRTM,2024,125.086577707361,16.196225117500
$GPGGA,020439.00,3510.4269,N,12139.0818,W,1,08,1.0,7.2,M,-32.5,M,,*50
$PYRTM,2024,125.086589282535,16.196236692674
$GPGGA,020440.00,3510.4263,N,12139.0845,W,1,08,1.0,7.1,M,-32.5,M,,*5F
$PYRTM,2024,125.086600856481,16.196248266620
$GPGGA,020441.00,3510.4267,N,12139.0870,W,1,08,1.0,6.2,M,-32.5,M,,*5E
$PYRTM,2024,125.086612438900,16.196259849028
$GPGGA,020442.00,3510.4276,N,12139.0891,W,1,08,1.0,6.1,M,-32.5,M,,*51
$PYRTM,2024,125.086619837350,16.196267247500
$GPGGA,020443.00,3510.4278,N,12139.0913,W,1,08,1.0,6.7,M,-32.5,M,,*53
$PYRTM,2024,125.086635586111,16.196282996238
$GPGGA,020444.00,3510.4270,N,12139.0937,W,1,08,1.0,7.3,M,-32.5,M,,*5F
$PYRTM,2024,125.086642985799,16.196290395926
$GPGGA,020445.00,3510.4265,N,12139.0964,W,1,08,1.0,7.1,M,-32.5,M,,*5E
$PYRTM,2024,125.086654664248,16.196302074387
$GPGGA,020446.00,3510.4268,N,12139.0989,W,1,08,1.0,6.6,M,-32.5,M,,*55
$PYRTM,2024,125.086666259745,16.196313669884
$GPGGA,020447.00,3510.4274,N,12139.1012,W,1,08,1.0,6.6,M,-32.5,M,,*53
$PYRTM,2024,125.086681887812,16.196329297951
$GPGGA,020448.00,3510.4274,N,12139.1033,W,1,08,1.0,7.1,M,-32.5,M,,*59
$PYRTM,2024,125.086689282639,16.196336692778
$GPGGA,020449.00,3510.4268,N,12139.1057,W,1,08,1.0,7.4,M,-32.5,M,,*52
$PYRTM,2024,125.086705036354,16.196352446493
$GPGGA,020450.00,3510.4265,N,12139.1082,W,1,08,1.0,7.1,M,-32.5,M,,*5A
$PYRTM,2024,125.086716592847,16.196364002986
$GPGGA,020451.00,3510.4266,N,12139.1107,W,1,08,1.0,6.8,M,-32.5,M,,*5C
$PYRTM,2024,125.086728173194,16.196375583333
$GPGGA,020452.00,3510.4267,N,12139.1131,W,1,08,1.0,6.6,M,-32.5,M,,*55
$PYRTM,2024,125.086739746088,16.196387156227
$GPGGA,020453.00,3510.4266,N,12139.1154,W,1,08,1.0,6.8,M,-32.5,M,,*58
$PYRTM,2024,125.086751331308,16.196398741447
$GPGGA,020454.00,3510.4264,N,12139.1177,W,1,08,1.0,7.3,M,-32.5,M,,*56
$PYRTM,2024,125.086758721296,16.196406131447
$GPGGA,020455.00,3510.4261,N,12139.1203,W,1,08,1.0,7.3,M,-32.5,M,,*52
$PYRTM,2024,125.086774586516,16.196421996655
$GPGGA,020456.00,3510.4259,N,12139.1228,W,1,08,1.0,6.9,M,-32.5,M,,*58
$PYRTM,2024,125.086786158032,16.196433568171
$GPGGA,020457.00,3510.4259,N,12139.1252,W,1,08,1.0,7.0,M,-32.5,M,,*5C
$PYRTM,2024,125.086797625706,16.196445035845
$GPGGA,020458.00,3510.4259,N,12139.1277,W,1,08,1.0,7.2,M,-32.5,M,,*56
$PYRTM,2024,125.086809186910,16.196456597049
$GPGGA,020459.00,3510.4258,N,12139.1302,W,1,08,1.0,7.2,M,-32.5,M,,*55
$PYRTM,2024,125.086820773090,16.196468183229
$GPGGA,020500.00,3510.4257,N,12139.1326,W,1,08,1.0,7.1,M,-32.5,M,,*52
$PYRTM,2024,125.086832339039,16.196479749178
$GPGGA,020501.00,3510.4256,N,12139.1351,W,1,08,1.0,7.1,M,-32.5,M,,*52
$PYRTM,2024,125.086839734167,16.196487144306
$GPGGA,020502.00,3510.4256,N,12139.1376,W,1,08,1.0,7.4,M,-32.5,M,,*51
$PYRTM,2024,125.086855482500,16.196502892639
$GPGGA,020503.00,3510.4253,N,12139.1400,W,1,08,1.0,7.6,M,-32.5,M,,*51
$PYRTM,2024,125.086867072847,16.196514482986
$GPGGA,020504.00,3510.4252,N,12139.1426,W,1,08,1.0,7.5,M,-32.5,M,,*50
$PYRTM,2024,125.086874468900,16.196521879039
$GPGGA,020505.00,3510.4253,N,12139.1452,W,1,08,1.0,6.9,M,-32.5,M,,*5E
$PYRTM,2024,125.086886149051,16.196533559190
$GPGGA,020506.00,3510.4256,N,12139.1477,W,1,08,1.0,6.0,M,-32.5,M,,*56
$PYRTM,2024,125.086904678218,16.196552088356
$GPGGA,020507.00,3510.4254,N,12139.1500,W,1,08,1.0,6.7,M,-32.5,M,,*53
$PYRTM,2024,125.086916251678,16.196563661817
$GPGGA,020508.00,3510.4250,N,12139.1524,W,1,08,1.0,7.5,M,-32.5,M,,*5D
$PYRTM,2024,125.086927820463,16.196575230613
$GPGGA,020509.00,3510.4248,N,12139.1551,W,1,08,1.0,7.4,M,-32.5,M,,*56
$PYRTM,2024,125.086936518993,16.196583929132
$GPGGA,020510.00,3510.4249,N,12139.1579,W,1,08,1.0,6.8,M,-32.5,M,,*58
$PYRTM,2024,125.086948081157,16.196595491296
$GPGGA,020511.00,3510.4250,N,12139.1601,W,1,08,1.0,6.8,M,-32.5,M,,*5D
$PYRTM,2024,125.086959664769,16.196607074907
$GPGGA,020512.00,3510.4250,N,12139.1624,W,1,08,1.3,7.2,M,-32.5,M,,*51
$PYRTM,2024,125.086971228704,16.196618638854
$GPGGA,020513.00,3510.4248,N,12139.1651,W,1,08,1.0,7.3,M,-32.5,M,,*59
$PYRTM,2024,125.086982825729,16.196630235868
$GPGGA,020514.00,3510.4246,N,12139.1679,W,1,08,1.0,7.0,M,-32.5,M,,*59
$PYRTM,2024,125.086994376505,16.196641786644
$GPGGA,020515.00,3510.4245,N,12139.1702,W,1,08,1.0,7.0,M,-32.5,M,,*56
$PYRTM,2024,125.087005962303,16.196653372442
$GPGGA,020516.00,3510.4246,N,12139.1724,W,1,08,1.3,7.3,M,-32.5,M,,*52
$PYRTM,2024,125.087017524792,16.196664934931
$GPGGA,020517.00,3510.4247,N,12139.1749,W,1,08,1.0,7.2,M,-32.5,M,,*5B
$PYRTM,2024,125.087029111991,16.196676522130
$GPGGA,020518.00,3510.4246,N,12139.1776,W,1,08,1.0,6.7,M,-32.5,M,,*5D
$PYRTM,2024,125.087040675012,16.196688085162
$GPGGA,020519.00,3510.4243,N,12139.1799,W,1,08,1.3,6.8,M,-32.5,M,,*54
$PYRTM,2024,125.087055141331,16.196702551470
$GPGGA,020520.00,3510.4241,N,12139.1820,W,1,08,1.3,7.1,M,-32.5,M,,*59
$PYRTM,2024,125.087066714977,16.196714125116
$GPGGA,020521.00,3510.4241,N,12139.1846,W,1,08,1.0,6.7,M,-32.5,M,,*5C
$PYRTM,2024,125.087075406956,16.196722817095
$GPGGA,020522.00,3510.4242,N,12139.1875,W,1,08,1.3,6.2,M,-32.5,M,,*5A
$PYRTM,2024,125.087082797859,16.196730207998
$GPGGA,020523.00,3510.4241,N,12139.1897,W,1,08,1.3,6.3,M,-32.5,M,,*55
$PYRTM,2024,125.087098544491,16.196745954630
$GPGGA,020524.00,3510.4240,N,12139.1919,W,1,08,1.3,7.1,M,-32.5,M,,*57
$PYRTM,2024,125.087110118356,16.196757528495
$GPGGA,020525.00,3510.4238,N,12139.1945,W,1,08,1.3,7.5,M,-32.5,M,,*54
$PYRTM,2024,125.087121702303,16.196769112442
$GPGGA,020526.00,3510.4238,N,12139.1973,W,1,08,1.3,7.2,M,-32.5,M,,*55
$PYRTM,2024,125.087133267616,16.196780677755
$GPGGA,020527.00,3510.4239,N,12139.1997,W,1,08,1.3,7.0,M,-32.5,M,,*5D
$PYRTM,2024,125.087144849016,16.196792259155
$GPGGA,020528.00,3510.4239,N,12139.2019,W,1,08,1.3,7.1,M,-32.5,M,,*5F
$PYRTM,2024,125.087156415174,16.196803825313
$GPGGA,020529.00,3510.4237,N,12139.2043,W,1,08,1.3,7.3,M,-32.5,M,,*5D
$PYRTM,2024,125.087167997546,16.196815407674
$GPGGA,020530.00,3510.4237,N,12139.2070,W,1,08,1.3,7.0,M,-32.5,M,,*56
$PYRTM,2024,125.087179563426,16.196826973565
$GPGGA,020531.00,3510.4236,N,12139.2096,W,1,08,1.3,6.5,M,-32.5,M,,*5A
$PYRTM,2024,125.087191148727,16.196838558877
$GPGGA,020532.00,3510.4233,N,12139.2118,W,1,08,1.3,6.9,M,-32.5,M,,*57
$PYRTM,2024,125.087202713113,16.196850123252
$GPGGA,020533.00,3510.4229,N,12139.2141,W,1,08,1.3,7.6,M,-32.5,M,,*5F
$PYRTM,2024,125.087214285787,16.196861695926
$GPGGA,020534.00,3510.4228,N,12139.2168,W,1,08,1.3,7.5,M,-32.5,M,,*51
$PYRTM,2024,125.087221695787,16.196869105926
$GPGGA,020535.00,3510.4229,N,12139.2196,W,1,08,1.3,6.8,M,-32.5,M,,*5C
$PYRTM,2024,125.087237433507,16.196884843646
$GPGGA,020536.00,3510.4227,N,12139.2218,W,1,08,1.3,6.7,M,-32.5,M,,*5B
$PYRTM,2024,125.087244835509,16.196892245648
$GPGGA,020537.00,3510.4221,N,12139.2239,W,1,08,1.3,7.6,M,-32.5,M,,*5F
$PYRTM,2024,125.087263477859,16.196910887998
$GPGGA,020538.00,3510.4216,N,12139.2264,W,1,08,1.3,7.9,M,-32.5,M,,*53
$PYRTM,2024,125.087272157535,16.196919567674
$GPGGA,020539.00,3510.4217,N,12139.2292,W,1,08,1.3,7.5,M,-32.5,M,,*56
$PYRTM,2024,125.087283738715,16.196931148854
$GPGGA,020540.00,3510.4220,N,12139.2316,W,1,08,1.3,7.3,M,-32.5,M,,*57
$PYRTM,2024,125.087291131968,16.196938542106
$GPGGA,020541.00,3510.4218,N,12139.2337,W,1,08,1.3,7.7,M,-32.5,M,,*5A
$PYRTM,2024,125.087306886690,16.196954296829
$GPGGA,020542.00,3510.4214,N,12139.2360,W,1,08,1.3,8.1,M,-32.5,M,,*5E
$PYRTM,2024,125.087318447975,16.196965858125
$GPGGA,020543.00,3510.4211,N,12139.2388,W,1,08,1.3,7.4,M,-32.5,M,,*56
$PYRTM,2024,125.087325847141,16.196973257280
$GPGGA,020544.00,3510.4211,N,12139.2413,W,1,08,1.3,6.7,M,-32.5,M,,*56
$PYRTM,2024,125.087337553206,16.196984963345
$GPGGA,020545.00,3510.4209,N,12139.2431,W,1,08,1.3,7.1,M,-32.5,M,,*59
$PYRTM,2024,125.087353175139,16.197000585278
$GPGGA,020546.00,3510.4207,N,12139.2453,W,1,08,1.3,7.8,M,-32.5,M,,*59
$PYRTM,2024,125.087364744340,16.197012154479
$GPGGA,020547.00,3510.4205,N,12139.2482,W,1,08,1.3,7.6,M,-32.5,M,,*58
$PYRTM,2024,125.087372144421,16.197019554560
$GPGGA,020548.00,3510.4204,N,12139.2507,W,1,08,1.3,7.0,M,-32.5,M,,*5C
$PYRTM,2024,125.087387897766,16.197035307905
$GPGGA,020549.00,3510.4203,N,12139.2526,W,1,08,1.3,7.3,M,-32.5,M,,*5A
$PYRTM,2024,125.087399472801,16.197046882940
$GPGGA,020550.00,3510.4200,N,12139.2547,W,1,08,1.3,8.2,M,-32.5,M,,*58
$PYRTM,2024,125.087411042164,16.197058452315
$GPGGA,020551.00,3510.4196,N,12139.2573,W,1,08,1.3,8.3,M,-32.5,M,,*53
$PYRTM,2024,125.087418441157,16.197065851296
$GPGGA,020552.00,3510.4196,N,12139.2600,W,1,08,1.3,7.6,M,-32.5,M,,*5D
$PYRTM,2024,125.087434189919,16.197081600058
$GPGGA,020553.00,3510.4198,N,12139.2621,W,1,08,1.3,7.5,M,-32.5,M,,*52
$PYRTM,2024,125.087445780174,16.197093190313
$GPGGA,020554.00,3510.4197,N,12139.2640,W,1,08,1.3,8.0,M,-32.5,M,,*57
$PYRTM,2024,125.087457342917,16.197104753056
$GPGGA,020555.00,3510.4195,N,12139.2663,W,1,08,1.3,8.3,M,-32.5,M,,*56
$PYRTM,2024,125.087468916551,16.197116326690
$GPGGA,020556.00,3510.4194,N,12139.2689,W,1,08,1.3,7.9,M,-32.5,M,,*55
$PYRTM,2024,125.087480490995,16.197127901134
$GPGGA,020557.00,3510.4193,N,12139.2714,W,1,08,1.3,7.4,M,-32.5,M,,*5B
$PYRTM,2024,125.087492071690,16.197139481829
$GPGGA,020558.00,3510.4192,N,12139.2735,W,1,08,1.3,7.6,M,-32.5,M,,*54
$PYRTM,2024,125.087503638576,16.197151048715
$GPGGA,020559.00,3510.4191,N,12139.2756,W,1,08,1.3,8.1,M,-32.5,M,,*5B
$PYRTM,2024,125.087515220694,16.197162630833
$GPGGA,020600.00,3510.4190,N,12139.2780,W,1,08,1.3,8.2,M,-32.5,M,,*5D
$PYRTM,2024,125.087526786840,16.197174196979
$GPGGA,020601.00,3510.4189,N,12139.2807,W,1,08,1.3,7.7,M,-32.5,M,,*5E
$PYRTM,2024,125.087538360926,16.197185771065
$GPGGA,020602.00,3510.4188,N,12139.2832,W,1,08,1.3,7.1,M,-32.5,M,,*5C
$PYRTM,2024,125.087549936331,16.197197346470
$GPGGA,020603.00,3510.4185,N,12139.2851,W,1,08,1.3,7.6,M,-32.5,M,,*52
$PYRTM,2024,125.087561509340,16.197208919479
$GPGGA,020604.00,3510.4182,N,12139.2873,W,1,08,1.3,8.3,M,-32.5,M,,*58
$PYRTM,2024,125.087573084792,16.197220494931
$GPGGA,020605.00,3510.4181,N,12139.2900,W,1,08,1.3,8.1,M,-32.5,M,,*5D
$PYRTM,2024,125.087584669248,16.197232079387
$GPGGA,020606.00,3510.4182,N,12139.2926,W,1,08,1.3,7.5,M,-32.5,M,,*52
$PYRTM,2024,125.087592064583,16.197239474722
$GPGGA,020607.00,3510.4181,N,12139.2948,W,1,08,1.3,7.5,M,-32.5,M,,*58
$PYRTM,2024,125.087603743090,16.197251153229
$GPGGA,020608.00,3510.4178,N,12139.2967,W,1,08,1.3,8.2,M,-32.5,M,,*54
$PYRTM,2024,125.087622274190,16.197269684329
$GPGGA,020609.00,3510.4175,N,12139.2991,W,1,08,1.3,8.5,M,-32.5,M,,*56
$PYRTM,2024,125.087633848681,16.197281258819
$GPGGA,020610.00,3510.4175,N,12139.3019,W,1,08,1.3,7.5,M,-32.5,M,,*59
$PYRTM,2024,125.087645422558,16.197292832708
$GPGGA,020611.00,3510.4176,N,12139.3042,W,1,08,1.3,7.0,M,-32.5,M,,*50
$PYRTM,2024,125.087654111019,16.197301521157
$GPGGA,020612.00,3510.4174,N,12139.3063,W,1,08,1.3,7.2,M,-32.5,M,,*50
$PYRTM,2024,125.087665676887,16.197313087025
$GPGGA,020613.00,3510.4171,N,12139.3085,W,1,08,1.3,7.5,M,-32.5,M,,*5B
$PYRTM,2024,125.087677259514,16.197324669653
$GPGGA,020614.00,3510.4169,N,12139.3110,W,1,08,1.3,7.2,M,-32.5,M,,*5F
$PYRTM,2024,125.087688824502,16.197336234641
$GPGGA,020615.00,3510.4169,N,12139.3135,W,1,08,1.3,6.7,M,-32.5,M,,*5D
$PYRTM,2024,125.087700411458,16.197347821597
$GPGGA,020616.00,3510.4168,N,12139.3159,W,1,08,1.3,6.7,M,-32.5,M,,*55
$PYRTM,2024,125.087711974433,16.197359384572
$GPGGA,020617.00,3510.4165,N,12139.3183,W,1,08,1.3,6.9,M,-32.5,M,,*50
$PYRTM,2024,125.087723547778,16.197370957917
$GPGGA,020618.00,3510.4163,N,12139.3207,W,1,08,1.3,6.9,M,-32.5,M,,*56
$PYRTM,2024,125.087735123206,16.197382533345
$GPGGA,020619.00,3510.4163,N,12139.3232,W,1,08,1.3,7.0,M,-32.5,M,,*59
$PYRTM,2024,125.087746695058,16.197394105197
$GPGGA,020620.00,3510.4165,N,12139.3256,W,1,08,1.3,7.1,M,-32.5,M,,*56
$PYRTM,2024,125.087758269838,16.197405679977
$GPGGA,020621.00,3510.4165,N,12139.3281,W,1,08,1.3,7.9,M,-32.5,M,,*55
$PYRTM,2024,125.087769855174,16.197417265312
$GPGGA,020622.00,3510.4162,N,12139.3307,W,1,08,1.3,7.7,M,-32.5,M,,*50
$PYRTM,2024,125.087781413681,16.197428823819
$GPGGA,020623.00,3510.4159,N,12139.3331,W,1,08,1.3,7.5,M,-32.5,M,,*5E
$PYRTM,2024,125.087793002905,16.197440413044
$GPGGA,020624.00,3510.4161,N,12139.3356,W,1,08,1.3,7.5,M,-32.5,M,,*53
$PYRTM,2024,125.087800395093,16.197447805231
$GPGGA,020625.00,3510.4165,N,12139.3380,W,1,08,1.3,7.8,M,-32.5,M,,*50
$PYRTM,2024,125.087816149734,16.197463559873
$GPGGA,020626.00,3510.4164,N,12139.3402,W,1,08,1.3,8.3,M,-32.5,M,,*5B
$PYRTM,2024,125.087827709630,16.197475119769
$GPGGA,020627.00,3510.4158,N,12139.3428,W,1,08,1.3,8.0,M,-32.5,M,,*5E
$PYRTM,2024,125.087839314699,16.197486724850
$GPGGA,020628.00,3510.4155,N,12139.3455,W,1,08,1.3,7.4,M,-32.5,M,,*5D
$PYRTM,2024,125.087850863681,16.197498273819
$GPGGA,020629.00,3510.4158,N,12139.3478,W,1,08,1.3,7.3,M,-32.5,M,,*59
$PYRTM,2024,125.087862448160,16.197509858299
$GPGGA,020630.00,3510.4161,N,12139.3498,W,1,08,1.3,8.0,M,-32.5,M,,*59
$PYRTM,2024,125.087874012801,16.197521422940
$GPGGA,020631.00,3510.4158,N,12139.3524,W,1,08,1.3,8.2,M,-32.5,M,,*56
$PYRTM,2024,125.087885586481,16.197532996620
$GPGGA,020632.00,3510.4155,N,12139.3552,W,1,08,1.3,8.0,M,-32.5,M,,*5B
$PYRTM,2024,125.087897159236,16.197544569375
$GPGGA,020633.00,3510.4153,N,12139.3576,W,1,08,1.3,8.1,M,-32.5,M,,*5B
$PYRTM,2024,125.087908733137,16.197556143275
$GPGGA,020634.00,3510.4155,N,12139.3598,W,1,08,1.3,8.3,M,-32.5,M,,*58
$PYRTM,2024,125.087916143183,16.197563553333
$GPGGA,020635.00,3510.4158,N,12139.3622,W,1,08,1.3,8.3,M,-32.5,M,,*56
$PYRTM,2024,125.087931881424,16.197579291563
$GPGGA,020636.00,3510.4159,N,12139.3645,W,1,08,1.3,8.9,M,-32.5,M,,*5F
$PYRTM,2024,125.087943453588,16.197590863727
$GPGGA,020637.00,3510.4155,N,12139.3668,W,1,08,1.3,9.4,M,-32.5,M,,*51
$PYRTM,2024,125.087950850903,16.197598261042
$GPGGA,020638.00,3510.4151,N,12139.3696,W,1,08,1.3,8.9,M,-32.5,M,,*57
$PYRTM,2024,125.087962541424,16.197609951563
$GPGGA,020639.00,3510.4151,N,12139.3722,W,1,08,1.3,8.2,M,-32.5,M,,*53
$PYRTM,2024,125.087981072072,16.197628482211
$GPGGA,020640.00,3510.4154,N,12139.3743,W,1,08,1.3,8.4,M,-32.5,M,,*59
$PYRTM,2024,125.087992646956,16.197640057095
$GPGGA,020641.00,3510.4155,N,12139.3764,W,1,08,1.3,9.0,M,-32.5,M,,*59
$PYRTM,2024,125.088004234861,16.197651645000
$GPGGA,020642.00,3510.4152,N,12139.3790,W,1,08,1.3,8.9,M,-32.5,M,,*5E
$PYRTM,2024,125.088012901192,16.197660311331
$GPGGA,020643.00,3510.4148,N,12139.3817,W,1,08,1.3,8.3,M,-32.5,M,,*5E
$PYRTM,2024,125.088020297014,16.197667707164
$GPGGA,020644.00,3510.4148,N,12139.3840,W,1,08,1.3,7.8,M,-32.5,M,,*5F
$PYRTM,2024,125.088036049583,16.197683459722
$GPGGA,020645.00,3510.4151,N,12139.3861,W,1,08,1.3,8.3,M,-32.5,M,,*51
$PYRTM,2024,125.088047634641,16.197695044792
$GPGGA,020646.00,3510.4152,N,12139.3886,W,1,08,1.3,7.9,M,-32.5,M,,*5D
$PYRTM,2024,125.088059196458,16.197706606597
$GPGGA,020647.00,3510.4149,N,12139.3913,W,1,08,1.3,7.7,M,-32.5,M,,*55
$PYRTM,2024,125.088070781134,16.197718191273
$GPGGA,020648.00,3510.4144,N,12139.3934,W,1,08,1.3,7.8,M,-32.5,M,,*5D
$PYRTM,2024,125.088082344884,16.197729755023
$GPGGA,020649.00,3510.4140,N,12139.3954,W,1,08,1.3,8.5,M,-32.5,M,,*5C
$PYRTM,2024,125.088093919444,16.197741329583
$GPGGA,020650.00,3510.4142,N,12139.3980,W,1,08,1.3,8.7,M,-32.5,M,,*5D
$PYRTM,2024,125.088101325521,16.197748735660
$GPGGA,020651.00,3510.4145,N,12139.4007,W,1,08,1.3,8.0,M,-32.5,M,,*5D
$PYRTM,2024,125.088117078854,16.197764488993
$GPGGA,020652.00,3510.4144,N,12139.4027,W,1,08,1.3,7.9,M,-32.5,M,,*5B
$PYRTM,2024,125.088128641285,16.197776051424
$GPGGA,020653.00,3510.4139,N,12139.4046,W,1,08,1.3,8.5,M,-32.5,M,,*54
$PYRTM,2024,125.088140227778,16.197787637917
$GPGGA,020654.00,3510.4135,N,12139.4068,W,1,08,1.3,9.0,M,-32.5,M,,*57
$PYRTM,2024,125.088151790336,16.197799200475
$GPGGA,020655.00,3510.4135,N,12139.4095,W,1,08,1.3,8.4,M,-32.5,M,,*51
$PYRTM,2024,125.088163371458,16.197810781597
$GPGGA,020656.00,3510.4137,N,12139.4120,W,1,08,1.3,8.3,M,-32.5,M,,*58
$PYRTM,2024,125.088174940451,16.197822350590
$GPGGA,020657.00,3510.4137,N,12139.4142,W,1,08,1.3,8.4,M,-32.5,M,,*5A
$PYRTM,2024,125.088182333889,16.197829744028
$GPGGA,020658.00,3510.4134,N,12139.4163,W,1,08,1.3,8.9,M,-32.5,M,,*58
$PYRTM,2024,125.088198088588,16.197845498727
$GPGGA,020659.00,3510.4130,N,12139.4187,W,1,08,1.3,9.0,M,-32.5,M,,*5F
$PYRTM,2024,125.088205483808,16.197852893947
$GPGGA,020700.00,3510.4128,N,12139.4212,W,1,08,1.3,8.6,M,-32.5,M,,*53
$PYRTM,2024,125.088221236944,16.197868647083
$GPGGA,020701.00,3510.4129,N,12139.4235,W,1,08,1.3,8.4,M,-32.5,M,,*54
$PYRTM,2024,125.088232808796,16.197880218935
$GPGGA,020702.00,3510.4129,N,12139.4256,W,1,08,1.3,8.6,M,-32.5,M,,*50
$PYRTM,2024,125.088240213715,16.197887623854
$GPGGA,020703.00,3510.4129,N,12139.4281,W,1,08,1.3,8.4,M,-32.5,M,,*59
$PYRTM,2024,125.088255968113,16.197903378252
$GPGGA,020704.00,3510.4128,N,12139.4306,W,1,08,1.3,8.0,M,-32.5,M,,*55
$PYRTM,2024,125.088267531991,16.197914942130
$GPGGA,020705.00,3510.4126,N,12139.4329,W,1,08,1.3,7.9,M,-32.5,M,,*51
$PYRTM,2024,125.088279105382,16.197926515532
$GPGGA,020706.00,3510.4125,N,12139.4351,W,1,08,1.3,8.1,M,-32.5,M,,*59
$PYRTM,2024,125.088290680162,16.197938090301
$GPGGA,020707.00,3510.4125,N,12139.4377,W,1,08,1.3,7.9,M,-32.5,M,,*5B
$PYRTM,2024,125.088302253808,16.197949663947
$GPGGA,020708.00,3510.4124,N,12139.4401,W,1,08,1.3,7.7,M,-32.5,M,,*5D
$PYRTM,2024,125.088313828993,16.197961239132
$GPGGA,020709.00,3510.4123,N,12139.4424,W,1,08,1.3,7.8,M,-32.5,M,,*53
$PYRTM,2024,125.088321223484,16.197968633634
$GPGGA,020710.00,3510.4123,N,12139.4448,W,1,08,1.3,8.1,M,-32.5,M,,*57
$PYRTM,2024,125.088339870394,16.197987280532
$GPGGA,020711.00,3510.4122,N,12139.4473,W,1,08,1.3,8.1,M,-32.5,M,,*5F
$PYRTM,2024,125.088348559213,16.197995969352
$GPGGA,020712.00,3510.4120,N,12139.4499,W,1,08,1.3,7.9,M,-32.5,M,,*5D
$PYRTM,2024,125.088360124792,16.198007534931
$GPGGA,020713.00,3510.4119,N,12139.4523,W,1,08,1.3,7.8,M,-32.5,M,,*57
$PYRTM,2024,125.088371700498,16.198019110637
$GPGGA,020714.00,3510.4121,N,12139.4546,W,1,08,1.3,8.1,M,-32.5,M,,*5E
$PYRTM,2024,125.088383272477,16.198030682616
$GPGGA,020715.00,3510.4119,N,12139.4569,W,1,08,1.3,8.5,M,-32.5,M,,*5D
$PYRTM,2024,125.088394860231,16.198042270370
$GPGGA,020716.00,3510.4116,N,12139.4595,W,1,08,1.3,8.5,M,-32.5,M,,*52
$PYRTM,2024,125.088406421470,16.198053831609
$GPGGA,020717.00,3510.4115,N,12139.4623,W,1,08,1.3,7.8,M,-32.5,M,,*5C
$PYRTM,2024,125.088417994954,16.198065405104
$GPGGA,020718.00,3510.4117,N,12139.4646,W,1,08,1.3,7.5,M,-32.5,M,,*5F
$PYRTM,2024,125.088429569155,16.198076979294
$GPGGA,020719.00,3510.4114,N,12139.4668,W,1,08,1.3,8.3,M,-32.5,M,,*58
$PYRTM,2024,125.088441143553,16.198088553692
$GPGGA,020720.00,3510.4110,N,12139.4693,W,1,08,1.3,8.4,M,-32.5,M,,*55
$PYRTM,2024,125.088452717720,16.198100127859
$GPGGA,020721.00,3510.4108,N,12139.4721,W,1,08,1.3,7.8,M,-32.5,M,,*56
$PYRTM,2024,125.088460113866,16.198107524005
$GPGGA,020722.00,3510.4108,N,12139.4746,W,1,08,1.3,7.3,M,-32.5,M,,*5F
$PYRTM,2024,125.088475866979,16.198123277130
$GPGGA,020723.00,3510.4106,N,12139.4768,W,1,08,1.3,7.7,M,-32.5,M,,*58
$PYRTM,2024,125.088487462940,16.198134873079
$GPGGA,020724.00,3510.4104,N,12139.4791,W,1,08,1.3,8.3,M,-32.5,M,,*50
$PYRTM,2024,125.088499014294,16.198146424433
$GPGGA,020725.00,3510.4101,N,12139.4816,W,1,08,1.3,8.5,M,-32.5,M,,*52
$PYRTM,2024,125.088510596609,16.198158006748
$GPGGA,020726.00,3510.4099,N,12139.4843,W,1,08,1.3,8.1,M,-32.5,M,,*55
$PYRTM,2024,125.088522163935,16.198169574086
$GPGGA,020727.00,3510.4099,N,12139.4869,W,1,08,1.3,7.5,M,-32.5,M,,*57
$PYRTM,2024,125.088533736308,16.198181146447
$GPGGA,020728.00,3510.4099,N,12139.4892,W,1,08,1.3,7.8,M,-32.5,M,,*51
$PYRTM,2024,125.088545310775,16.198192720914
$GPGGA,020729.00,3510.4100,N,12139.4915,W,1,08,1.3,8.5,M,-32.5,M,,*5D
$PYRTM,2024,125.088552706123,16.198200116262
$GPGGA,020730.00,3510.4098,N,12139.4941,W,1,08,1.3,8.6,M,-32.5,M,,*57
$PYRTM,2024,125.088571352535,16.198218762674
$GPGGA,020731.00,3510.4097,N,12139.4969,W,1,08,1.3,8.1,M,-32.5,M,,*54
$PYRTM,2024,125.088582928322,16.198230338461
$GPGGA,020732.00,3510.4098,N,12139.4993,W,1,08,1.3,7.7,M,-32.5,M,,*54
$PYRTM,2024,125.088591608935,16.198239019074
$GPGGA,020733.00,3510.4099,N,12139.5018,W,1,08,1.3,7.8,M,-32.5,M,,*50
$PYRTM,2024,125.088603181910,16.198250592049
$GPGGA,020734.00,3510.4098,N,12139.5042,W,1,08,1.3,8.1,M,-32.5,M,,*5F
$PYRTM,2024,125.088614757199,16.198262167338
$GPGGA,020735.00,3510.4097,N,12139.5068,W,1,08,1.3,8.1,M,-32.5,M,,*59
$PYRTM,2024,125.088626331076,16.198273741215
$GPGGA,020736.00,3510.4096,N,12139.5095,W,1,08,1.3,7.7,M,-32.5,M,,*50
$PYRTM,2024,125.088633731898,16.198281142037
$GPGGA,020737.00,3510.4096,N,12139.5122,W,1,08,1.3,7.3,M,-32.5,M,,*58
$PYRTM,2024,125.088649485914,16.198296896053
$GPGGA,020738.00,3510.4095,N,12139.5147,W,1,08,1.3,7.3,M,-32.5,M,,*57
$PYRTM,2024,125.088661052928,16.198308463067
$GPGGA,020739.00,3510.4094,N,12139.5171,W,1,08,1.3,7.7,M,-32.5,M,,*56
$PYRTM,2024,125.088668446829,16.198315856968
$GPGGA,020740.00,3510.4093,N,12139.5198,W,1,08,1.3,8.1,M,-32.5,M,,*51
$PYRTM,2024,125.088680137581,16.198327547720
$GPGGA,020741.00,3510.4091,N,12139.5226,W,1,08,1.3,7.9,M,-32.5,M,,*53
$PYRTM,2024,125.088698671528,16.198346081667
$GPGGA,020742.00,3510.4090,N,12139.5252,W,1,08,1.3,7.8,M,-32.5,M,,*53
$PYRTM,2024,125.088707349074,16.198354759213
$GPGGA,020743.00,3510.4091,N,12139.5275,W,1,08,1.3,8.1,M,-32.5,M,,*50
$PYRTM,2024,125.088714745012,16.198362155150
$GPGGA,020744.00,3510.4090,N,12139.5300,W,1,08,1.3,8.4,M,-32.5,M,,*50
$PYRTM,2024,125.088730498333,16.198377908472
$GPGGA,020745.00,3510.4087,N,12139.5328,W,1,08,1.3,8.1,M,-32.5,M,,*58
$PYRTM,2024,125.088742070984,16.198389481123
$GPGGA,020746.00,3510.4087,N,12139.5354,W,1,08,1.3,7.8,M,-32.5,M,,*56
$PYRTM,2024,125.088753645058,16.198401055197
$GPGGA,020747.00,3510.4090,N,12139.5377,W,1,08,1.3,7.9,M,-32.5,M,,*51
$PYRTM,2024,125.088765230532,16.198412640671
$GPGGA,020748.00,3510.4090,N,12139.5401,W,1,08,1.3,8.1,M,-32.5,M,,*5F
$PYRTM,2024,125.088776793657,16.198424203796
$GPGGA,020749.00,3510.4088,N,12139.5429,W,1,08,1.0,8.1,M,-32.5,M,,*5E
$PYRTM,2024,125.088784189294,16.198431599433
$GPGGA,020750.00,3510.4086,N,12139.5456,W,1,08,1.0,7.8,M,-32.5,M,,*56
$PYRTM,2024,125.088799946701,16.198447356840
$GPGGA,020751.00,3510.4086,N,12139.5480,W,1,08,1.0,7.9,M,-32.5,M,,*5D
$PYRTM,2024,125.088811527697,16.198458937836
$GPGGA,020752.00,3510.4088,N,12139.5506,W,1,08,1.0,7.7,M,-32.5,M,,*51
$PYRTM,2024,125.088818923299,16.198466333438
$GPGGA,020753.00,3510.4088,N,12139.5533,W,1,08,1.0,7.6,M,-32.5,M,,*57
$PYRTM,2024,125.088834681586,16.198482091725
$GPGGA,020754.00,3510.4084,N,12139.5557,W,1,08,1.0,7.7,M,-32.5,M,,*5F
$PYRTM,2024,125.088846249942,16.198493660081
$GPGGA,020755.00,3510.4080,N,12139.5584,W,1,08,1.0,7.9,M,-32.5,M,,*5A
$PYRTM,2024,125.088857814884,16.198505225023
$GPGGA,020756.00,3510.4083,N,12139.5611,W,1,08,1.0,7.3,M,-32.5,M,,*5F
$PYRTM,2024,125.088869382269,16.198516792407
$GPGGA,020757.00,3510.4085,N,12139.5637,W,1,08,1.0,7.4,M,-32.5,M,,*5B
$PYRTM,2024,125.088880963600,16.198528373738
$GPGGA,020758.00,3510.4082,N,12139.5661,W,1,08,1.0,7.8,M,-32.5,M,,*5C
$PYRTM,2024,125.088892543356,16.198539953495
$GPGGA,020759.00,3510.4076,N,12139.5685,W,1,08,1.0,8.6,M,-32.5,M,,*5D
$PYRTM,2024,125.088904126817,16.198551536956
$GPGGA,020800.00,3510.4074,N,12139.5714,W,1,08,1.0,8.1,M,-32.5,M,,*52
$PYRTM,2024,125.088915678912,16.198563089051
$GPGGA,020801.00,3510.4077,N,12139.5742,W,1,08,1.0,7.3,M,-32.5,M,,*5E
$PYRTM,2024,125.088927257373,16.198574667512
$GPGGA,020802.00,3510.4079,N,12139.5766,W,1,08,1.0,7.8,M,-32.5,M,,*5E
$PYRTM,2024,125.088934659433,16.198582069583
$GPGGA,020803.00,3510.4076,N,12139.5789,W,1,08,1.0,8.5,M,-32.5,M,,*53
$PYRTM,2024,125.088950405451,16.198597815590
$GPGGA,020804.00,3510.4074,N,12139.5815,W,1,08,1.0,8.8,M,-32.5,M,,*51
$PYRTM,2024,125.088961979815,16.198609389954
$GPGGA,020805.00,3510.4073,N,12139.5843,W,1,08,1.0,8.5,M,-32.5,M,,*59
$PYRTM,2024,125.088973556632,16.198620966771
$GPGGA,020806.00,3510.4074,N,12139.5870,W,1,08,1.0,7.6,M,-32.5,M,,*51
$PYRTM,2024,125.088985125231,16.198632535370
$GPGGA,020807.00,3510.4071,N,12139.5892,W,1,08,1.0,7.6,M,-32.5,M,,*59
$PYRTM,2024,125.088996709826,16.198644119965
$GPGGA,020808.00,3510.4069,N,12139.5915,W,1,08,1.0,8.1,M,-32.5,M,,*59
$PYRTM,2024,125.089008276493,16.198655686632
$GPGGA,020809.00,3510.4070,N,12139.5940,W,1,08,1.0,8.2,M,-32.5,M,,*53
$PYRTM,2024,125.089019858194,16.198667268333
$GPGGA,020810.00,3510.4071,N,12139.5968,W,1,08,1.0,7.5,M,-32.5,M,,*58
$PYRTM,2024,125.089027252685,16.198674662824
$GPGGA,020811.00,3510.4069,N,12139.5993,W,1,08,1.0,7.0,M,-32.5,M,,*51
$PYRTM,2024,125.089038935579,16.198686345718
$GPGGA,020812.00,3510.4065,N,12139.6017,W,1,08,1.0,7.2,M,-32.5,M,,*5A
$PYRTM,2024,125.089057467049,16.198704877187
$GPGGA,020813.00,3510.4062,N,12139.6040,W,1,08,1.0,7.8,M,-32.5,M,,*54
$PYRTM,2024,125.089069042685,16.198716452824
$GPGGA,020814.00,3510.4063,N,12139.6064,W,1,08,1.0,8.1,M,-32.5,M,,*52
$PYRTM,2024,125.089080616065,16.198728026204
$GPGGA,020815.00,3510.4064,N,12139.6092,W,1,08,1.0,7.7,M,-32.5,M,,*54
$PYRTM,2024,125.089089294664,16.198736704803
$GPGGA,020816.00,3510.4064,N,12139.6121,W,1,08,1.0,6.9,M,-32.5,M,,*51
$PYRTM,2024,125.089096701713,16.198744111863
$GPGGA,020817.00,3510.4061,N,12139.6144,W,1,08,1.0,6.8,M,-32.5,M,,*57
$PYRTM,2024,125.089112443310,16.198759853449
$GPGGA,020818.00,3510.4056,N,12139.6163,W,1,08,1.0,7.7,M,-32.5,M,,*57
$PYRTM,2024,125.089124014144,16.198771424282
$GPGGA,020819.00,3510.4051,N,12139.6189,W,1,08,1.0,8.3,M,-32.5,M,,*5E
$PYRTM,2024,125.089135578750,16.198782988889
$GPGGA,020820.00,3510.4052,N,12139.6219,W,1,08,1.0,7.5,M,-32.5,M,,*54
$PYRTM,2024,125.089147168692,16.198794578831
$GPGGA,020821.00,3510.4054,N,12139.6243,W,1,08,1.0,7.1,M,-32.5,M,,*58
$PYRTM,2024,125.089158728287,16.198806138426
$GPGGA,020822.00,3510.4050,N,12139.6262,W,1,08,1.0,7.5,M,-32.5,M,,*58
$PYRTM,2024,125.089170315093,16.198817725231
$GPGGA,020823.00,3510.4044,N,12139.6286,W,1,08,1.0,7.6,M,-32.5,M,,*55
$PYRTM,2024,125.089177711829,16.198825121968
$GPGGA,020824.00,3510.4041,N,12139.6313,W,1,08,1.0,7.3,M,-32.5,M,,*5F
$PYRTM,2024,125.089193457477,16.198840867616
$GPGGA,020825.00,3510.4044,N,12139.6336,W,1,08,1.0,6.8,M,-32.5,M,,*56
$PYRTM,2024,125.089205024664,16.198852434803
$GPGGA,020826.00,3510.4046,N,12139.6358,W,1,08,1.0,7.1,M,-32.5,M,,*57
$PYRTM,2024,125.089212431042,16.198859841181
$GPGGA,020827.00,3510.4043,N,12139.6382,W,1,08,1.0,7.2,M,-32.5,M,,*57
$PYRTM,2024,125.089228172037,16.198875582176
$GPGGA,020828.00,3510.4040,N,12139.6409,W,1,08,1.0,6.7,M,-32.5,M,,*5B
$PYRTM,2024,125.089239764838,16.198887174977
$GPGGA,020829.00,3510.4039,N,12139.6432,W,1,08,1.0,6.3,M,-32.5,M,,*58
$PYRTM,2024,125.089247153576,16.198894563715
$GPGGA,020830.00,3510.4039,N,12139.6451,W,1,08,1.0,6.8,M,-32.5,M,,*5E
$PYRTM,2024,125.089262909861,16.198910320000
$GPGGA,020831.00,3510.4038,N,12139.6474,W,1,08,1.0,7.6,M,-32.5,M,,*56
$PYRTM,2024,125.089274468137,16.198921878275
$GPGGA,020832.00,3510.4038,N,12139.6502,W,1,08,1.0,7.4,M,-32.5,M,,*57
$PYRTM,2024,125.089286069757,16.198933479896
$GPGGA,020833.00,3510.4036,N,12139.6527,W,1,08,1.0,7.0,M,-32.5,M,,*5B
$PYRTM,2024,125.089297617014,16.198945027153
$GPGGA,020834.00,3510.4035,N,12139.6548,W,1,08,1.0,7.2,M,-32.5,M,,*54
$PYRTM,2024,125.089309198530,16.198956608669
$GPGGA,020835.00,3510.4034,N,12139.6569,W,1,08,1.0,7.7,M,-32.5,M,,*52
$PYRTM,2024,125.089316611354,16.198964021493
$GPGGA,020836.00,3510.4035,N,12139.6595,W,1,08,1.0,7.4,M,-32.5,M,,*50
$PYRTM,2024,125.089332352836,16.198979762986
$GPGGA,020837.00,3510.4035,N,12139.6620,W,1,08,1.0,7.2,M,-32.5,M,,*5A
$PYRTM,2024,125.089343912824,16.198991322975
$GPGGA,020838.00,3510.4032,N,12139.6641,W,1,08,1.0,7.4,M,-32.5,M,,*53
$PYRTM,2024,125.089355500799,16.199002910937
$GPGGA,020839.00,3510.4027,N,12139.6663,W,1,08,1.0,7.8,M,-32.5,M,,*5A
$PYRTM,2024,125.089367061956,16.199014472095
$GPGGA,020840.00,3510.4026,N,12139.6689,W,1,08,1.0,7.8,M,-32.5,M,,*51
$PYRTM,2024,125.089378649329,16.199026059468
