$PYRTM,2024,127.083336880579,18.192984290718
$GPGGA,015959.00,3359.9125,N,11921.4743,W,1,08,1.3,4.2,M,-33.5,M,,*56
$PYRTM,2024,127.083348464363,18.192995874502
$GPGGA,020000.00,3359.9127,N,11921.4740,W,1,08,1.3,4.2,M,-33.5,M,,*54
$PYRTM,2024,127.083360027986,18.193007438125
$GPGGA,020001.00,3359.9129,N,11921.4736,W,1,08,1.3,4.2,M,-33.5,M,,*5A
$PYRTM,2024,127.083371613333,18.193019023472
$GPGGA,020002.00,3359.9131,N,11921.4731,W,1,08,1.3,4.1,M,-33.5,M,,*54
$PYRTM,2024,127.083383170787,18.193030580926
$GPGGA,020003.00,3359.9132,N,11921.4726,W,1,08,1.3,4.1,M,-33.5,M,,*50
$PYRTM,2024,127.083394762338,18.193042172477
$GPGGA,020004.00,3359.9133,N,11921.4722,W,1,08,1.3,4.1,M,-33.5,M,,*52
$PYRTM,2024,127.083406325220,18.193053735359
$GPGGA,020005.00,3359.9134,N,11921.4719,W,1,08,1.3,4.1,M,-33.5,M,,*5C
$PYRTM,2024,127.083417897928,18.193065308067
$GPGGA,020006.00,3359.9137,N,11921.4715,W,1,08,1.3,4.1,M,-33.5,M,,*50
$PYRTM,2024,127.083425177396,18.193072587535
$GPGGA,020007.00,3359.9140,N,11921.4710,W,1,08,1.3,4.1,M,-33.5,M,,*54
$PYRTM,2024,127.083441054514,18.193088464653
$GPGGA,020008.00,3359.9141,N,11921.4704,W,1,08,1.3,4.1,M,-33.5,M,,*5F
$PYRTM,2024,127.083452622454,18.193100032593
$GPGGA,020009.00,3359.9141,N,11921.4699,W,1,08,1.3,4.1,M,-33.5,M,,*5B
$PYRTM,2024,127.083464220289,18.193111630428
$GPGGA,020010.00,3359.9142,N,11921.4696,W,1,08,1.3,4.1,M,-33.5,M,,*5F
$PYRTM,2024,127.083475772847,18.193123182986
$GPGGA,020011.00,3359.9143,N,11921.4693,W,1,08,1.3,4.1,M,-33.5,M,,*5A
$PYRTM,2024,127.083487351030,18.193134761181
$GPGGA,020012.00,3359.9145,N,11921.4689,W,1,08,1.3,4.1,M,-33.5,M,,*54
$PYRTM,2024,127.083498917106,18.193146327245
$GPGGA,020013.00,3359.9147,N,11921.4683,W,1,08,1.3,4.1,M,-33.5,M,,*5D
$PYRTM,2024,127.083510490625,18.193157900775
$GPGGA,020014.00,3359.9147,N,11921.4678,W,1,08,1.3,4.0,M,-33.5,M,,*5F
$PYRTM,2024,127.083522061840,18.193169471979
$GPGGA,020015.00,3359.9148,N,11921.4674,W,1,08,1.3,4.0,M,-33.5,M,,*5D
$PYRTM,2024,127.083533640150,18.193181050289
$GPGGA,020016.00,3359.9148,N,11921.4671,W,1,08,1.3,4.1,M,-33.5,M,,*5A
$PYRTM,2024,127.083545209259,18.193192619398
$GPGGA,020017.00,3359.9149,N,11921.4667,W,1,08,1.3,4.1,M,-33.5,M,,*5D
$PYRTM,2024,127.083556787176,18.193204197315
$GPGGA,020018.00,3359.9151,N,11921.4663,W,1,08,1.3,4.1,M,-33.5,M,,*5F
$PYRTM,2024,127.083568363472,18.193215773611
$GPGGA,020019.00,3359.9152,N,11921.4658,W,1,08,1.3,4.1,M,-33.5,M,,*55
$PYRTM,2024,127.083579936308,18.193227346447
$GPGGA,020020.00,3359.9153,N,11921.4653,W,1,08,1.3,4.1,M,-33.5,M,,*55
$PYRTM,2024,127.083591510590,18.193238920729
$GPGGA,020021.00,3359.9154,N,11921.4649,W,1,08,1.3,4.1,M,-33.5,M,,*58
$PYRTM,2024,127.083598816505,18.193246226644
$GPGGA,020022.00,3359.9156,N,11921.4644,W,1,08,1.3,4.1,M,-33.5,M,,*54
$PYRTM,2024,127.083614658912,18.193262069051
$GPGGA,020023.00,3359.9157,N,11921.4640,W,1,08,1.3,4.1,M,-33.5,M,,*50
$PYRTM,2024,127.083626240532,18.193273650671
$GPGGA,020024.00,3359.9157,N,11921.4636,W,1,08,1.3,4.2,M,-33.5,M,,*55
$PYRTM,2024,127.083637807870,18.193285218009
$GPGGA,020025.00,3359.9158,N,11921.4631,W,1,08,1.3,4.2,M,-33.5,M,,*5C
$PYRTM,2024,127.083649388981,18.193296799120
$GPGGA,020026.00,3359.9160,N,11921.4625,W,1,08,1.3,4.2,M,-33.5,M,,*51
$PYRTM,2024,127.083656661620,18.193304071759
$GPGGA,020027.00,3359.9163,N,11921.4621,W,1,08,1.3,4.2,M,-33.5,M,,*57
$PYRTM,2024,127.083672529248,18.193319939398
$GPGGA,020028.00,3359.9165,N,11921.4617,W,1,08,1.3,4.2,M,-33.5,M,,*5B
$PYRTM,2024,127.083684103472,18.193331513611
$GPGGA,020029.00,3359.9166,N,11921.4612,W,1,08,1.3,4.2,M,-33.5,M,,*5C
$PYRTM,2024,127.083691383056,18.193338793206
$GPGGA,020030.00,3359.9165,N,11921.4607,W,1,08,1.3,4.1,M,-33.5,M,,*50
$PYRTM,2024,127.083707247118,18.193354657269
$GPGGA,020031.00,3359.9165,N,11921.4603,W,1,08,1.3,4.1,M,-33.5,M,,*55
$PYRTM,2024,127.083718825833,18.193366235972
$GPGGA,020032.00,3359.9167,N,11921.4599,W,1,08,1.3,4.2,M,-33.5,M,,*57
$PYRTM,2024,127.083730401088,18.193377811227
$GPGGA,020033.00,3359.9169,N,11921.4594,W,1,08,1.3,4.1,M,-33.5,M,,*56
$PYRTM,2024,127.083741974514,18.193389384653
$GPGGA,020034.00,3359.9170,N,11921.4590,W,1,08,1.3,4.1,M,-33.5,M,,*5D
$PYRTM,2024,127.083753555000,18.193400965139
$GPGGA,020035.00,3359.9170,N,11921.4586,W,1,08,1.3,4.1,M,-33.5,M,,*5B
$PYRTM,2024,127.083760828542,18.193408238681
$GPGGA,020036.00,3359.9171,N,11921.4582,W,1,08,1.3,4.1,M,-33.5,M,,*5D
$PYRTM,2024,127.083776698924,18.193424109063
$GPGGA,020037.00,3359.9172,N,11921.4578,W,1,08,1.3,4.1,M,-33.5,M,,*5A
$PYRTM,2024,127.083783990972,18.193431401111
$GPGGA,020038.00,3359.9173,N,11921.4574,W,1,08,1.3,4.1,M,-33.5,M,,*58
$PYRTM,2024,127.083802624225,18.193450034363
$GPGGA,020039.00,3359.9173,N,11921.4569,W,1,08,1.3,4.0,M,-33.5,M,,*54
$PYRTM,2024,127.083814199815,18.193461609954
$GPGGA,020040.00,3359.9173,N,11921.4564,W,1,08,1.3,4.1,M,-33.5,M,,*56
$PYRTM,2024,127.083822988796,18.193470398935
$GPGGA,020041.00,3359.9173,N,11921.4559,W,1,08,1.3,4.1,M,-33.5,M,,*59
$PYRTM,2024,127.083830272361,18.193477682500
$GPGGA,020042.00,3359.9175,N,11921.4555,W,1,08,1.3,4.1,M,-33.5,M,,*50
$PYRTM,2024,127.083846141343,18.193493551481
$GPGGA,020043.00,3359.9177,N,11921.4550,W,1,08,1.3,4.1,M,-33.5,M,,*56
$PYRTM,2024,127.083857716644,18.193505126782
$GPGGA,020044.00,3359.9177,N,11921.4545,W,1,08,1.3,4.1,M,-33.5,M,,*55
$PYRTM,2024,127.083869289549,18.193516699687
$GPGGA,020045.00,3359.9178,N,11921.4540,W,1,08,1.3,4.2,M,-33.5,M,,*5D
$PYRTM,2024,127.083880876273,18.193528286412
$GPGGA,020046.00,3359.9180,N,11921.4535,W,1,08,1.3,4.2,M,-33.5,M,,*5B
$PYRTM,2024,127.083892438877,18.193539849028
$GPGGA,020047.00,3359.9181,N,11921.4530,W,1,08,1.3,4.2,M,-33.5,M,,*5E
$PYRTM,2024,127.083904012465,18.193551422604
$GPGGA,020048.00,3359.9182,N,11921.4526,W,1,08,1.3,4.3,M,-33.5,M,,*54
$PYRTM,2024,127.083915587477,18.193562997616
$GPGGA,020049.00,3359.9183,N,11921.4521,W,1,08,1.3,4.3,M,-33.5,M,,*53
$PYRTM,2024,127.083927160336,18.193574570475
$GPGGA,020050.00,3359.9183,N,11921.4517,W,1,08,1.3,4.3,M,-33.5,M,,*5E
$PYRTM,2024,127.083934438970,18.193581849109
$GPGGA,020051.00,3359.9184,N,11921.4512,W,1,08,1.3,4.3,M,-33.5,M,,*5D
$PYRTM,2024,127.083950308958,18.193597719097
$GPGGA,020052.00,3359.9184,N,11921.4508,W,1,08,1.3,4.3,M,-33.5,M,,*55
$PYRTM,2024,127.083961882882,18.193609293021
$GPGGA,020053.00,3359.9185,N,11921.4504,W,1,08,1.3,4.4,M,-33.5,M,,*5E
$PYRTM,2024,127.083969176782,18.193616586921
$GPGGA,020054.00,3359.9186,N,11921.4498,W,1,08,1.3,4.3,M,-33.5,M,,*59
$PYRTM,2024,127.083985025972,18.193632436111
$GPGGA,020055.00,3359.9186,N,11921.4493,W,1,08,1.3,4.3,M,-33.5,M,,*53
$PYRTM,2024,127.083996632002,18.193644042141
$GPGGA,020056.00,3359.9186,N,11921.4490,W,1,08,1.3,4.3,M,-33.5,M,,*53
$PYRTM,2024,127.084008180093,18.193655590243
$GPGGA,020057.00,3359.9185,N,11921.4487,W,1,08,1.3,4.3,M,-33.5,M,,*57
$PYRTM,2024,127.084019762049,18.193667172199
$GPGGA,020058.00,3359.9185,N,11921.4482,W,1,08,1.3,4.4,M,-33.5,M,,*5A
$PYRTM,2024,127.084031327535,18.193678737674
$GPGGA,020059.00,3359.9186,N,11921.4476,W,1,08,1.3,4.4,M,-33.5,M,,*53
$PYRTM,2024,127.084042901551,18.193690311690
$GPGGA,020100.00,3359.9187,N,11921.4470,W,1,08,1.3,4.4,M,-33.5,M,,*59
$PYRTM,2024,127.084054476319,18.193701886458
$GPGGA,020101.00,3359.9187,N,11921.4466,W,1,08,1.3,4.4,M,-33.5,M,,*5F
$PYRTM,2024,127.084066050370,18.193713460509
$GPGGA,020102.00,3359.9187,N,11921.4462,W,1,08,1.3,4.5,M,-33.5,M,,*59
$PYRTM,2024,127.084073330231,18.193720740370
$GPGGA,020103.00,3359.9186,N,11921.4459,W,1,08,1.3,4.5,M,-33.5,M,,*51
$PYRTM,2024,127.084089210567,18.193736620718
$GPGGA,020104.00,3359.9188,N,11921.4454,W,1,08,1.3,4.6,M,-33.5,M,,*56
$PYRTM,2024,127.084100773507,18.193748183646
$GPGGA,020105.00,3359.9190,N,11921.4448,W,1,08,1.3,4.6,M,-33.5,M,,*53
$PYRTM,2024,127.084108054005,18.193755464155
$GPGGA,020106.00,3359.9192,N,11921.4443,W,1,08,1.3,4.5,M,-33.5,M,,*5A
$PYRTM,2024,127.084123923796,18.193771333935
$GPGGA,020107.00,3359.9192,N,11921.4438,W,1,08,1.3,4.5,M,-33.5,M,,*57
$PYRTM,2024,127.084135507396,18.193782917535
$GPGGA,020108.00,3359.9192,N,11921.4435,W,1,08,1.3,4.6,M,-33.5,M,,*56
$PYRTM,2024,127.084142775093,18.193790185231
$GPGGA,020109.00,3359.9191,N,11921.4431,W,1,08,1.3,4.6,M,-33.5,M,,*50
$PYRTM,2024,127.084158643264,18.193806053403
$GPGGA,020110.00,3359.9192,N,11921.4426,W,1,08,1.3,4.6,M,-33.5,M,,*5D
$PYRTM,2024,127.084170217350,18.193817627488
$GPGGA,020111.00,3359.9194,N,11921.4421,W,1,08,1.3,4.6,M,-33.5,M,,*5D
$PYRTM,2024,127.084181800023,18.193829210162
$GPGGA,020112.00,3359.9195,N,11921.4416,W,1,08,1.3,4.6,M,-33.5,M,,*5B
$PYRTM,2024,127.084193375903,18.193840786042
$GPGGA,020113.00,3359.9194,N,11921.4412,W,1,08,1.3,4.5,M,-33.5,M,,*5C
$PYRTM,2024,127.084204949410,18.193852359560
$GPGGA,020114.00,3359.9193,N,11921.4407,W,1,08,1.3,4.5,M,-33.5,M,,*58
$PYRTM,2024,127.084216515336,18.193863925475
$GPGGA,020115.00,3359.9192,N,11921.4402,W,1,08,1.3,4.5,M,-33.5,M,,*5D
$PYRTM,2024,127.084228087951,18.193875498090
$GPGGA,020116.00,3359.9193,N,11921.4399,W,1,08,1.3,4.5,M,-33.5,M,,*5A
$PYRTM,2024,127.084239663507,18.193887073646
$GPGGA,020117.00,3359.9192,N,11921.4395,W,1,08,1.3,4.5,M,-33.5,M,,*56
$PYRTM,2024,127.084246943588,18.193894353727
$GPGGA,020118.00,3359.9191,N,11921.4390,W,1,08,1.3,4.5,M,-33.5,M,,*5F
$PYRTM,2024,127.084262811493,18.193910221632
$GPGGA,020119.00,3359.9191,N,11921.4385,W,1,08,1.3,4.5,M,-33.5,M,,*5A
$PYRTM,2024,127.084274384861,18.193921795000
$GPGGA,020120.00,3359.9191,N,11921.4380,W,1,08,1.3,4.5,M,-33.5,M,,*55
$PYRTM,2024,127.084285955012,18.193933365162
$GPGGA,020121.00,3359.9193,N,11921.4376,W,1,08,1.3,4.5,M,-33.5,M,,*5F
$PYRTM,2024,127.084297533021,18.193944943160
$GPGGA,020122.00,3359.9194,N,11921.4372,W,1,08,1.3,4.5,M,-33.5,M,,*5F
$PYRTM,2024,127.084309106991,18.193956517130
$GPGGA,020123.00,3359.9194,N,11921.4367,W,1,08,1.3,4.5,M,-33.5,M,,*5A
$PYRTM,2024,127.084320681539,18.193968091678
$GPGGA,020124.00,3359.9193,N,11921.4363,W,1,08,1.3,4.5,M,-33.5,M,,*5E
$PYRTM,2024,127.084327961181,18.193975371319
$GPGGA,020125.00,3359.9194,N,11921.4359,W,1,08,1.3,4.5,M,-33.5,M,,*51
$PYRTM,2024,127.084346607442,18.193994017581
$GPGGA,020126.00,3359.9196,N,11921.4354,W,1,08,1.3,4.5,M,-33.5,M,,*5D
$PYRTM,2024,127.084358182269,18.194005592407
$GPGGA,020127.00,3359.9197,N,11921.4347,W,1,08,1.3,4.5,M,-33.5,M,,*5F
$PYRTM,2024,127.084369767280,18.194017177419
$GPGGA,020128.00,3359.9197,N,11921.4342,W,1,08,1.3,4.6,M,-33.5,M,,*56
$PYRTM,2024,127.084378553194,18.194025963333
$GPGGA,020129.00,3359.9196,N,11921.4339,W,1,08,1.3,4.6,M,-33.5,M,,*5A
$PYRTM,2024,127.084385833194,18.194033243333
$GPGGA,020130.00,3359.9195,N,11921.4335,W,1,08,1.3,4.6,M,-33.5,M,,*5D
$PYRTM,2024,127.084401701678,18.194049111817
$GPGGA,020131.00,3359.9196,N,11921.4330,W,1,08,1.3,4.6,M,-33.5,M,,*5A
$PYRTM,2024,127.084413274745,18.194060684896
$GPGGA,020132.00,3359.9197,N,11921.4324,W,1,08,1.3,4.6,M,-33.5,M,,*5D
$PYRTM,2024,127.084420554826,18.194067964965
$GPGGA,020133.00,3359.9197,N,11921.4320,W,1,08,1.3,4.6,M,-33.5,M,,*58
$PYRTM,2024,127.084436422778,18.194083832928
$GPGGA,020134.00,3359.9196,N,11921.4315,W,1,08,1.3,4.6,M,-33.5,M,,*58
$PYRTM,2024,127.084447998194,18.194095408333
$GPGGA,020135.00,3359.9195,N,11921.4309,W,1,08,1.3,4.6,M,-33.5,M,,*57
$PYRTM,2024,127.084459571725,18.194106981863
$GPGGA,020136.00,3359.9195,N,11921.4306,W,1,08,1.3,4.7,M,-33.5,M,,*5A
$PYRTM,2024,127.084471147674,18.194118557813
$GPGGA,020137.00,3359.9193,N,11921.4303,W,1,08,1.3,4.7,M,-33.5,M,,*58
$PYRTM,2024,127.084482720984,18.194130131123
$GPGGA,020138.00,3359.9192,N,11921.4300,W,1,08,1.3,4.7,M,-33.5,M,,*55
$PYRTM,2024,127.084494289977,18.194141700116
$GPGGA,020139.00,3359.9192,N,11921.4293,W,1,08,1.3,4.7,M,-33.5,M,,*5F
$PYRTM,2024,127.084501591794,18.194149001933
$GPGGA,020140.00,3359.9194,N,11921.4285,W,1,08,1.3,4.8,M,-33.5,M,,*5F
$PYRTM,2024,127.084517438102,18.194164848241
$GPGGA,020141.00,3359.9195,N,11921.4280,W,1,08,1.3,4.9,M,-33.5,M,,*5B
$PYRTM,2024,127.084524736655,18.194172146806
$GPGGA,020142.00,3359.9193,N,11921.4279,W,1,08,1.3,4.9,M,-33.5,M,,*58
$PYRTM,2024,127.084540590694,18.194188000833
$GPGGA,020143.00,3359.9190,N,11921.4278,W,1,08,1.3,4.8,M,-33.5,M,,*5A
$PYRTM,2024,127.084552172083,18.194199582222
$GPGGA,020144.00,3359.9190,N,11921.4273,W,1,08,1.3,4.8,M,-33.5,M,,*56
$PYRTM,2024,127.084563739236,18.194211149375
$GPGGA,020145.00,3359.9192,N,11921.4265,W,1,08,1.3,4.9,M,-33.5,M,,*53
$PYRTM,2024,127.084575320822,18.194222730961
$GPGGA,020146.00,3359.9194,N,11921.4257,W,1,08,1.3,5.0,M,-33.5,M,,*5F
$PYRTM,2024,127.084586887419,18.194234297569
$GPGGA,020147.00,3359.9194,N,11921.4254,W,1,08,1.3,5.0,M,-33.5,M,,*5D
$PYRTM,2024,127.084594167280,18.194241577419
$GPGGA,020148.00,3359.9192,N,11921.4253,W,1,08,1.3,5.0,M,-33.5,M,,*53
$PYRTM,2024,127.084610030012,18.194257440150
$GPGGA,020149.00,3359.9190,N,11921.4252,W,1,08,1.0,5.0,M,-33.5,M,,*52
$PYRTM,2024,127.084621619907,18.194269030046
$GPGGA,020150.00,3359.9191,N,11921.4246,W,1,08,1.0,4.9,M,-33.5,M,,*56
$PYRTM,2024,127.084628888229,18.194276298368
$GPGGA,020151.00,3359.9192,N,11921.4237,W,1,08,1.0,5.0,M,-33.5,M,,*5A
$PYRTM,2024,127.084644768843,18.194292178981
$GPGGA,020152.00,3359.9193,N,11921.4230,W,1,08,1.0,5.0,M,-33.5,M,,*5F
$PYRTM,2024,127.084656331991,18.194303742130
$GPGGA,020153.00,3359.9190,N,11921.4228,W,1,08,1.0,5.0,M,-33.5,M,,*54
$PYRTM,2024,127.084663610926,18.194311021065
$GPGGA,020154.00,3359.9187,N,11921.4227,W,1,08,1.0,5.0,M,-33.5,M,,*5A
$PYRTM,2024,127.084679476644,18.194326886782
$GPGGA,020155.00,3359.9184,N,11921.4224,W,1,08,1.0,4.9,M,-33.5,M,,*53
$PYRTM,2024,127.084691054294,18.194338464433
$GPGGA,020156.00,3359.9185,N,11921.4217,W,1,08,1.0,4.9,M,-33.5,M,,*51
$PYRTM,2024,127.084698334456,18.194345744595
$GPGGA,020157.00,3359.9186,N,11921.4208,W,1,08,1.0,4.9,M,-33.5,M,,*5D
$PYRTM,2024,127.084714214502,18.194361624641
$GPGGA,020158.00,3359.9186,N,11921.4202,W,1,08,1.0,5.0,M,-33.5,M,,*50
$PYRTM,2024,127.084725776875,18.194373187025
$GPGGA,020159.00,3359.9184,N,11921.4201,W,1,08,1.0,5.0,M,-33.5,M,,*50
$PYRTM,2024,127.084737358218,18.194384768356
$GPGGA,020200.00,3359.9181,N,11921.4200,W,1,08,1.0,5.0,M,-33.5,M,,*5B
$PYRTM,2024,127.084748926285,18.194396336424
$GPGGA,020201.00,3359.9179,N,11921.4198,W,1,08,1.0,5.0,M,-33.5,M,,*5F
$PYRTM,2024,127.084760507650,18.194407917789
$GPGGA,020202.00,3359.9180,N,11921.4191,W,1,08,1.0,5.0,M,-33.5,M,,*53
$PYRTM,2024,127.084772074711,18.194419484850
$GPGGA,020203.00,3359.9182,N,11921.4183,W,1,08,1.0,5.1,M,-33.5,M,,*52
$PYRTM,2024,127.084783658310,18.194431068449
$GPGGA,020204.00,3359.9181,N,11921.4177,W,1,09,0.8,5.2,M,-33.5,M,,*56
$PYRTM,2024,127.084795216887,18.194442627025
$GPGGA,020205.00,3359.9178,N,11921.4176,W,1,09,0.8,5.1,M,-33.5,M,,*53
$PYRTM,2024,127.084806807049,18.194454217187
$GPGGA,020206.00,3359.9175,N,11921.4176,W,1,09,0.8,5.1,M,-33.5,M,,*5D
$PYRTM,2024,127.084818365787,18.194465775926
$GPGGA,020207.00,3359.9174,N,11921.4171,W,1,09,0.8,5.1,M,-33.5,M,,*5A
$PYRTM,2024,127.084829944514,18.194477354653
$GPGGA,020208.00,3359.9175,N,11921.4163,W,1,09,0.8,5.2,M,-33.5,M,,*54
$PYRTM,2024,127.084841518958,18.194488929097
$GPGGA,020209.00,3359.9175,N,11921.4156,W,1,09,0.8,5.2,M,-33.5,M,,*53
$PYRTM,2024,127.084853093206,18.194500503345
$GPGGA,020210.00,3359.9173,N,11921.4154,W,1,09,0.8,5.2,M,-33.5,M,,*5F
$PYRTM,2024,127.084860372720,18.194507782859
$GPGGA,020211.00,3359.9170,N,11921.4151,W,1,09,0.8,5.2,M,-33.5,M,,*58
$PYRTM,2024,127.084876241204,18.194523651343
$GPGGA,020212.00,3359.9169,N,11921.4147,W,1,09,0.8,5.1,M,-33.5,M,,*57
$PYRTM,2024,127.084887817581,18.194535227720
$GPGGA,020213.00,3359.9168,N,11921.4140,W,1,09,0.8,5.1,M,-33.5,M,,*50
$PYRTM,2024,127.084899397269,18.194546807407
$GPGGA,020214.00,3359.9167,N,11921.4135,W,1,09,0.8,5.0,M,-33.5,M,,*5B
$PYRTM,2024,127.084910959132,18.194558369271
$GPGGA,020215.00,3359.9164,N,11921.4134,W,1,09,0.8,5.0,M,-33.5,M,,*58
$PYRTM,2024,127.084922545984,18.194569956123
$GPGGA,020216.00,3359.9162,N,11921.4132,W,1,09,0.8,5.1,M,-33.5,M,,*5A
$PYRTM,2024,127.084934113669,18.194581523808
$GPGGA,020217.00,3359.9161,N,11921.4126,W,1,09,0.8,5.1,M,-33.5,M,,*5D
$PYRTM,2024,127.084945694850,18.194593104988
$GPGGA,020218.00,3359.9161,N,11921.4118,W,1,09,0.8,5.2,M,-33.5,M,,*5C
$PYRTM,2024,127.084957259699,18.194604669838
$GPGGA,020219.00,3359.9160,N,11921.4114,W,1,09,0.8,5.4,M,-33.5,M,,*56
$PYRTM,2024,127.084968834167,18.194616244306
$GPGGA,020220.00,3359.9157,N,11921.4114,W,1,09,0.8,5.3,M,-33.5,M,,*5F
$PYRTM,2024,127.084976115035,18.194623525174
$GPGGA,020221.00,3359.9155,N,11921.4112,W,1,09,0.8,5.4,M,-33.5,M,,*5D
$PYRTM,2024,127.084991982373,18.194639392523
$GPGGA,020222.00,3359.9154,N,11921.4107,W,1,09,0.8,5.4,M,-33.5,M,,*5B
$PYRTM,2024,127.085003554155,18.194650964294
$GPGGA,020223.00,3359.9154,N,11921.4100,W,1,09,0.8,5.4,M,-33.5,M,,*5D
$PYRTM,2024,127.085010837593,18.194658247731
$GPGGA,020224.00,3359.9153,N,11921.4095,W,1,09,0.8,5.4,M,-33.5,M,,*50
$PYRTM,2024,127.085026705995,18.194674116134
$GPGGA,020225.00,3359.9152,N,11921.4092,W,1,09,0.8,5.4,M,-33.5,M,,*57
$PYRTM,2024,127.085038280336,18.194685690475
$GPGGA,020226.00,3359.9151,N,11921.4090,W,1,09,0.8,5.4,M,-33.5,M,,*55
$PYRTM,2024,127.085049853449,18.194697263588
$GPGGA,020227.00,3359.9149,N,11921.4087,W,1,09,0.8,5.3,M,-33.5,M,,*5C
$PYRTM,2024,127.085057148275,18.194704558426
$GPGGA,020228.00,3359.9148,N,11921.4083,W,1,09,0.8,5.3,M,-33.5,M,,*56
$PYRTM,2024,127.085073003924,18.194720414062
$GPGGA,020229.00,3359.9148,N,11921.4077,W,1,09,0.8,5.3,M,-33.5,M,,*5C
$PYRTM,2024,127.085084584572,18.194731994711
$GPGGA,020230.00,3359.9147,N,11921.4071,W,1,09,0.8,5.4,M,-33.5,M,,*5A
$PYRTM,2024,127.085096150532,18.194743560671
$GPGGA,020231.00,3359.9145,N,11921.4068,W,1,09,0.8,5.4,M,-33.5,M,,*51
$PYRTM,2024,127.085103430752,18.194750840891
$GPGGA,020232.00,3359.9143,N,11921.4067,W,1,09,0.8,5.4,M,-33.5,M,,*5B
$PYRTM,2024,127.085119299329,18.194766709468
$GPGGA,020233.00,3359.9142,N,11921.4065,W,1,09,0.8,5.4,M,-33.5,M,,*59
$PYRTM,2024,127.085130880266,18.194778290405
$GPGGA,020234.00,3359.9141,N,11921.4058,W,1,09,0.8,5.4,M,-33.5,M,,*53
$PYRTM,2024,127.085142447199,18.194789857338
$GPGGA,020235.00,3359.9141,N,11921.4050,W,1,09,0.8,5.5,M,-33.5,M,,*5B
$PYRTM,2024,127.085154031296,18.194801441435
$GPGGA,020236.00,3359.9139,N,11921.4047,W,1,09,0.8,5.5,M,-33.5,M,,*51
$PYRTM,2024,127.085165595093,18.194813005231
$GPGGA,020237.00,3359.9136,N,11921.4048,W,1,09,0.8,5.5,M,-33.5,M,,*50
$PYRTM,2024,127.085177181493,18.194824591632
$GPGGA,020238.00,3359.9136,N,11921.4047,W,1,09,0.8,5.5,M,-33.5,M,,*50
$PYRTM,2024,127.085188743148,18.194836153299
$GPGGA,020239.00,3359.9136,N,11921.4041,W,1,09,0.8,5.5,M,-33.5,M,,*57
$PYRTM,2024,127.085200317512,18.194847727650
$GPGGA,020240.00,3359.9135,N,11921.4033,W,1,09,0.8,5.5,M,-33.5,M,,*5F
$PYRTM,2024,127.085211887396,18.194859297535
$GPGGA,020241.00,3359.9133,N,11921.4029,W,1,09,0.8,5.6,M,-33.5,M,,*50
$PYRTM,2024,127.085219171377,18.194866581516
$GPGGA,020242.00,3359.9132,N,11921.4029,W,1,09,0.8,5.6,M,-33.5,M,,*52
$PYRTM,2024,127.085237818241,18.194885228391
$GPGGA,020243.00,3359.9131,N,11921.4030,W,1,09,0.8,5.6,M,-33.5,M,,*58
$PYRTM,2024,127.085246614711,18.194894024850
$GPGGA,020244.00,3359.9132,N,11921.4026,W,1,09,0.8,5.6,M,-33.5,M,,*5B
$PYRTM,2024,127.085258188958,18.194905599097
$GPGGA,020245.00,3359.9131,N,11921.4019,W,1,09,0.8,5.6,M,-33.5,M,,*55
$PYRTM,2024,127.085269771377,18.194917181516
$GPGGA,020246.00,3359.9131,N,11921.4015,W,1,09,0.8,5.6,M,-33.5,M,,*5A
$PYRTM,2024,127.085277042720,18.194924452859
$GPGGA,020247.00,3359.9131,N,11921.4013,W,1,09,0.8,5.6,M,-33.5,M,,*5D
$PYRTM,2024,127.085292918924,18.194940329063
$GPGGA,020248.00,3359.9131,N,11921.4011,W,1,09,0.8,5.6,M,-33.5,M,,*50
$PYRTM,2024,127.085304484514,18.194951894653
$GPGGA,020249.00,3359.9130,N,11921.4008,W,1,09,0.8,5.6,M,-33.5,M,,*58
$PYRTM,2024,127.085316084132,18.194963494271
$GPGGA,020250.00,3359.9129,N,11921.4006,W,1,09,0.8,5.7,M,-33.5,M,,*57
$PYRTM,2024,127.085327627697,18.194975037836
$GPGGA,020251.00,3359.9129,N,11921.4002,W,1,09,0.8,5.6,M,-33.5,M,,*53
$PYRTM,2024,127.085339218287,18.194986628426
$GPGGA,020252.00,3359.9129,N,11921.3998,W,1,09,0.8,5.7,M,-33.5,M,,*5C
$PYRTM,2024,127.085350780903,18.194998191042
$GPGGA,020253.00,3359.9128,N,11921.3993,W,1,09,0.8,5.6,M,-33.5,M,,*56
$PYRTM,2024,127.085362367037,18.195009777176
$GPGGA,020254.00,3359.9126,N,11921.3990,W,1,09,0.8,5.7,M,-33.5,M,,*5D
$PYRTM,2024,127.085373929572,18.195021339711
$GPGGA,020255.00,3359.9125,N,11921.3988,W,1,09,0.8,5.7,M,-33.5,M,,*56
$PYRTM,2024,127.085385515035,18.195032925174
$GPGGA,020256.00,3359.9125,N,11921.3986,W,1,09,0.8,5.6,M,-33.5,M,,*5A
$PYRTM,2024,127.085392782535,18.195040192674
$GPGGA,020257.00,3359.9124,N,11921.3982,W,1,09,0.8,5.6,M,-33.5,M,,*5E
$PYRTM,2024,127.085408664329,18.195056074468
$GPGGA,020258.00,3359.9123,N,11921.3978,W,1,09,0.8,5.6,M,-33.5,M,,*53
$PYRTM,2024,127.085420229236,18.195067639375
$GPGGA,020259.00,3359.9123,N,11921.3975,W,1,09,0.8,5.6,M,-33.5,M,,*5F
$PYRTM,2024,127.085427520023,18.195074930162
$GPGGA,020300.00,3359.9123,N,11921.3972,W,1,09,0.8,5.6,M,-33.5,M,,*55
$PYRTM,2024,127.085443375012,18.195090785150
$GPGGA,020301.00,3359.9123,N,11921.3969,W,1,09,0.8,5.6,M,-33.5,M,,*5E
$PYRTM,2024,127.085454964780,18.195102374919
$GPGGA,020302.00,3359.9122,N,11921.3966,W,1,09,0.8,5.6,M,-33.5,M,,*53
$PYRTM,2024,127.085466517639,18.195113927778
$GPGGA,020303.00,3359.9121,N,11921.3963,W,1,09,0.8,5.6,M,-33.5,M,,*54
$PYRTM,2024,127.085478124016,18.195125534155
$GPGGA,020304.00,3359.9122,N,11921.3960,W,1,09,0.8,5.6,M,-33.5,M,,*53
$PYRTM,2024,127.085489671238,18.195137081377
$GPGGA,020305.00,3359.9122,N,11921.3958,W,1,09,0.8,5.7,M,-33.5,M,,*58
$PYRTM,2024,127.085501245903,18.195148656042
$GPGGA,020306.00,3359.9121,N,11921.3955,W,1,09,0.8,5.7,M,-33.5,M,,*55
$PYRTM,2024,127.085512820752,18.195160230891
$GPGGA,020307.00,3359.9121,N,11921.3952,W,1,09,0.8,5.7,M,-33.5,M,,*53
$PYRTM,2024,127.085524394340,18.195171804479
$GPGGA,020308.00,3359.9121,N,11921.3949,W,1,09,0.8,5.7,M,-33.5,M,,*56
$PYRTM,2024,127.085535968310,18.195183378449
$GPGGA,020309.00,3359.9121,N,11921.3946,W,1,09,0.8,5.7,M,-33.5,M,,*58
$PYRTM,2024,127.085543247928,18.195190658067
$GPGGA,020310.00,3359.9120,N,11921.3945,W,1,09,0.8,5.7,M,-33.5,M,,*52
$PYRTM,2024,127.085559116979,18.195206527130
$GPGGA,020311.00,3359.9120,N,11921.3942,W,1,09,0.8,5.7,M,-33.5,M,,*54
$PYRTM,2024,127.085570697512,18.195218107650
$GPGGA,020312.00,3359.9120,N,11921.3939,W,1,09,0.8,5.7,M,-33.5,M,,*5B
$PYRTM,2024,127.085577970845,18.195225380984
$GPGGA,020313.00,3359.9119,N,11921.3935,W,1,09,0.8,5.7,M,-33.5,M,,*5C
$PYRTM,2024,127.085593850069,18.195241260208
$GPGGA,020314.00,3359.9118,N,11921.3932,W,1,09,0.8,5.7,M,-33.5,M,,*5D
$PYRTM,2024,127.085605412986,18.195252823125
$GPGGA,020315.00,3359.9118,N,11921.3930,W,1,09,0.8,5.7,M,-33.5,M,,*5E
$PYRTM,2024,127.085612706019,18.195260116157
$GPGGA,020316.00,3359.9117,N,11921.3930,W,1,09,0.8,5.7,M,-33.5,M,,*52
$PYRTM,2024,127.085628562500,18.195275972639
$GPGGA,020317.00,3359.9118,N,11921.3928,W,1,09,0.8,5.7,M,-33.5,M,,*55
$PYRTM,2024,127.085640142859,18.195287552998
$GPGGA,020318.00,3359.9117,N,11921.3923,W,1,09,0.8,5.8,M,-33.5,M,,*51
$PYRTM,2024,127.085651706007,18.195299116146
$GPGGA,020319.00,3359.9115,N,11921.3919,W,1,09,0.8,5.8,M,-33.5,M,,*5B
$PYRTM,2024,127.085663291574,18.195310701713
$GPGGA,020320.00,3359.9114,N,11921.3915,W,1,09,0.8,5.8,M,-33.5,M,,*5C
$PYRTM,2024,127.085674858218,18.195322268356
$GPGGA,020321.00,3359.9114,N,11921.3915,W,1,09,0.8,5.8,M,-33.5,M,,*5D
$PYRTM,2024,127.085682137685,18.195329547824
$GPGGA,020322.00,3359.9115,N,11921.3914,W,1,09,0.8,5.9,M,-33.5,M,,*5F
$PYRTM,2024,127.085698007708,18.195345417847
$GPGGA,020323.00,3359.9115,N,11921.3912,W,1,09,0.8,5.9,M,-33.5,M,,*58
$PYRTM,2024,127.085709580139,18.195356990278
$GPGGA,020324.00,3359.9114,N,11921.3906,W,1,09,0.8,6.0,M,-33.5,M,,*51
$PYRTM,2024,127.085716859225,18.195364269363
$GPGGA,020325.00,3359.9112,N,11921.3902,W,1,09,0.8,6.0,M,-33.5,M,,*52
$PYRTM,2024,127.085732728588,18.195380138727
$GPGGA,020326.00,3359.9112,N,11921.3901,W,1,09,0.8,6.0,M,-33.5,M,,*52
$PYRTM,2024,127.085744299491,18.195391709630
$GPGGA,020327.00,3359.9113,N,11921.3901,W,1,09,0.8,6.1,M,-33.5,M,,*53
$PYRTM,2024,127.085755888194,18.195403298333
$GPGGA,020328.00,3359.9114,N,11921.3899,W,1,09,0.8,6.1,M,-33.5,M,,*5B
$PYRTM,2024,127.085767450718,18.195414860856
$GPGGA,020329.00,3359.9113,N,11921.3894,W,1,09,0.8,6.1,M,-33.5,M,,*50
$PYRTM,2024,127.085779025706,18.195426435845
$GPGGA,020330.00,3359.9111,N,11921.3889,W,1,09,0.8,6.2,M,-33.5,M,,*55
$PYRTM,2024,127.085786304572,18.195433714722
$GPGGA,020331.00,3359.9110,N,11921.3888,W,1,09,0.8,6.2,M,-33.5,M,,*54
$PYRTM,2024,127.085804962535,18.195452372674
$GPGGA,020332.00,3359.9111,N,11921.3890,W,1,09,0.8,6.2,M,-33.5,M,,*5F
$PYRTM,2024,127.085813748160,18.195461158299
$GPGGA,020333.00,3359.9111,N,11921.3888,W,1,09,0.8,6.2,M,-33.5,M,,*57
$PYRTM,2024,127.085825329988,18.195472740127
$GPGGA,020334.00,3359.9110,N,11921.3883,W,1,09,0.8,6.2,M,-33.5,M,,*5A
$PYRTM,2024,127.085836893530,18.195484303669
$GPGGA,020335.00,3359.9109,N,11921.3877,W,1,09,0.8,6.3,M,-33.5,M,,*59
$PYRTM,2024,127.085848477801,18.195495887940
$GPGGA,020336.00,3359.9108,N,11921.3876,W,1,09,0.8,6.3,M,-33.5,M,,*5A
$PYRTM,2024,127.085860044271,18.195507454410
$GPGGA,020337.00,3359.9109,N,11921.3878,W,1,09,0.8,6.4,M,-33.5,M,,*53
$PYRTM,2024,127.085867324572,18.195514734722
$GPGGA,020338.00,3359.9109,N,11921.3877,W,1,09,0.8,6.4,M,-33.5,M,,*53
$PYRTM,2024,127.085883193681,18.195530603819
$GPGGA,020339.00,3359.9109,N,11921.3873,W,1,09,0.8,6.4,M,-33.5,M,,*56
$PYRTM,2024,127.085894766400,18.195542176539
$GPGGA,020340.00,3359.9108,N,11921.3867,W,1,09,0.8,6.4,M,-33.5,M,,*5C
$PYRTM,2024,127.085902045752,18.195549455891
$GPGGA,020341.00,3359.9108,N,11921.3865,W,1,09,0.8,6.5,M,-33.5,M,,*5E
$PYRTM,2024,127.085917926470,18.195565336609
$GPGGA,020342.00,3359.9109,N,11921.3866,W,1,09,0.8,6.5,M,-33.5,M,,*5F
$PYRTM,2024,127.085929489514,18.195576899653
$GPGGA,020343.00,3359.9110,N,11921.3866,W,1,09,0.8,6.5,M,-33.5,M,,*56
$PYRTM,2024,127.085936768044,18.195584178183
$GPGGA,020344.00,3359.9109,N,11921.3862,W,1,09,0.8,6.5,M,-33.5,M,,*5D
$PYRTM,2024,127.085952637361,18.195600047500
$GPGGA,020345.00,3359.9109,N,11921.3858,W,1,09,0.8,6.5,M,-33.5,M,,*55
$PYRTM,2024,127.085964212882,18.195611623021
$GPGGA,020346.00,3359.9108,N,11921.3856,W,1,09,0.8,6.5,M,-33.5,M,,*59
$PYRTM,2024,127.085975786655,18.195623196794
$GPGGA,020347.00,3359.9110,N,11921.3855,W,1,09,0.8,6.5,M,-33.5,M,,*52
$PYRTM,2024,127.085987360150,18.195634770289
$GPGGA,020348.00,3359.9110,N,11921.3854,W,1,09,0.8,6.5,M,-33.5,M,,*5C
$PYRTM,2024,127.085998934028,18.195646344167
$GPGGA,020349.00,3359.9109,N,11921.3851,W,1,09,0.8,6.5,M,-33.5,M,,*50
$PYRTM,2024,127.086010533750,18.195657943889
$GPGGA,020350.00,3359.9108,N,11921.3847,W,1,09,0.8,6.5,M,-33.5,M,,*5E
$PYRTM,2024,127.086022082535,18.195669492674
$GPGGA,020351.00,3359.9108,N,11921.3844,W,1,09,0.8,6.5,M,-33.5,M,,*5C
$PYRTM,2024,127.086033665035,18.195681075174
$GPGGA,020352.00,3359.9109,N,11921.3844,W,1,09,0.8,6.5,M,-33.5,M,,*5E
$PYRTM,2024,127.086045226273,18.195692636424
$GPGGA,020353.00,3359.9111,N,11921.3844,W,1,09,0.8,6.5,M,-33.5,M,,*56
$PYRTM,2024,127.086056816424,18.195704226574
$GPGGA,020354.00,3359.9111,N,11921.3841,W,1,09,0.8,6.5,M,-33.5,M,,*54
$PYRTM,2024,127.086068374433,18.195715784572
$GPGGA,020355.00,3359.9110,N,11921.3836,W,1,09,0.8,6.5,M,-33.5,M,,*54
$PYRTM,2024,127.086079953241,18.195727363380
$GPGGA,020356.00,3359.9108,N,11921.3833,W,1,09,0.8,6.5,M,-33.5,M,,*5B
$PYRTM,2024,127.086091529688,18.195738939826
$GPGGA,020357.00,3359.9108,N,11921.3832,W,1,09,0.8,6.5,M,-33.5,M,,*5B
$PYRTM,2024,127.086098806644,18.195746216782
$GPGGA,020358.00,3359.9110,N,11921.3833,W,1,09,0.8,6.5,M,-33.5,M,,*5C
$PYRTM,2024,127.086114677720,18.195762087859
$GPGGA,020359.00,3359.9112,N,11921.3832,W,1,09,0.8,6.5,M,-33.5,M,,*5E
$PYRTM,2024,127.086126250382,18.195773660521
$GPGGA,020400.00,3359.9112,N,11921.3828,W,1,09,0.8,6.5,M,-33.5,M,,*5E
$PYRTM,2024,127.086133528530,18.195780938669
$GPGGA,020401.00,3359.9110,N,11921.3824,W,1,09,0.8,6.5,M,-33.5,M,,*51
$PYRTM,2024,127.086145218993,18.195792629132
$GPGGA,020402.00,3359.9109,N,11921.3823,W,1,09,0.8,6.5,M,-33.5,M,,*5D
$PYRTM,2024,127.086160968947,18.195808379086
$GPGGA,020403.00,3359.9110,N,11921.3823,W,1,09,0.8,6.5,M,-33.5,M,,*54
$PYRTM,2024,127.086172559016,18.195819969155
$GPGGA,020404.00,3359.9113,N,11921.3824,W,1,09,0.8,6.5,M,-33.5,M,,*57
$PYRTM,2024,127.086184122083,18.195831532222
$GPGGA,020405.00,3359.9114,N,11921.3823,W,1,09,0.8,6.5,M,-33.5,M,,*56
$PYRTM,2024,127.086195720324,18.195843130463
$GPGGA,020406.00,3359.9113,N,11921.3820,W,1,09,0.8,6.5,M,-33.5,M,,*51
$PYRTM,2024,127.086202974838,18.195850384977
$GPGGA,020407.00,3359.9112,N,11921.3817,W,1,09,0.8,6.5,M,-33.5,M,,*55
$PYRTM,2024,127.086218851308,18.195866261458
$GPGGA,020408.00,3359.9113,N,11921.3816,W,1,09,0.8,6.5,M,-33.5,M,,*5A
$PYRTM,2024,127.086230418727,18.195877828866
$GPGGA,020409.00,3359.9114,N,11921.3816,W,1,09,0.8,6.5,M,-33.5,M,,*5C
$PYRTM,2024,127.086237696076,18.195885106215
$GPGGA,020410.00,3359.9116,N,11921.3816,W,1,09,0.8,6.5,M,-33.5,M,,*56
$PYRTM,2024,127.086253566400,18.195900976551
$GPGGA,020411.00,3359.9115,N,11921.3815,W,1,09,0.8,6.5,M,-33.5,M,,*57
$PYRTM,2024,127.086265139745,18.195912549884
$GPGGA,020412.00,3359.9115,N,11921.3812,W,1,09,0.8,6.5,M,-33.5,M,,*53
$PYRTM,2024,127.086272418044,18.195919828183
$GPGGA,020413.00,3359.9114,N,11921.3811,W,1,09,0.8,6.5,M,-33.5,M,,*50
$PYRTM,2024,127.086288288843,18.195935698981
$GPGGA,020414.00,3359.9115,N,11921.3810,W,1,09,0.8,6.5,M,-33.5,M,,*57
$PYRTM,2024,127.086295567627,18.195942977766
$GPGGA,020415.00,3359.9115,N,11921.3810,W,1,09,0.8,6.5,M,-33.5,M,,*56
$PYRTM,2024,127.086314214051,18.195961624190
$GPGGA,020416.00,3359.9115,N,11921.3810,W,1,09,0.8,6.5,M,-33.5,M,,*55
$PYRTM,2024,127.086325788484,18.195973198623
$GPGGA,020417.00,3359.9115,N,11921.3809,W,1,09,0.8,6.5,M,-33.5,M,,*5C
$PYRTM,2024,127.086334584514,18.195981994653
$GPGGA,020418.00,3359.9114,N,11921.3808,W,1,09,0.8,6.5,M,-33.5,M,,*53
$PYRTM,2024,127.086341865324,18.195989275475
$GPGGA,020419.00,3359.9115,N,11921.3806,W,1,09,0.8,6.5,M,-33.5,M,,*5D
$PYRTM,2024,127.086357732836,18.196005142975
$GPGGA,020420.00,3359.9116,N,11921.3806,W,1,09,0.8,6.5,M,-33.5,M,,*54
$PYRTM,2024,127.086369301759,18.196016711898
$GPGGA,020421.00,3359.9116,N,11921.3806,W,1,09,0.8,6.5,M,-33.5,M,,*55
$PYRTM,2024,127.086380890289,18.196028300428
$GPGGA,020422.00,3359.9116,N,11921.3805,W,1,09,0.8,6.5,M,-33.5,M,,*55
$PYRTM,2024,127.086392457222,18.196039867361
$GPGGA,020423.00,3359.9115,N,11921.3804,W,1,09,0.8,6.5,M,-33.5,M,,*56
$PYRTM,2024,127.086404037905,18.196051448044
$GPGGA,020424.00,3359.9115,N,11921.3803,W,1,09,0.8,6.5,M,-33.5,M,,*56
$PYRTM,2024,127.086411309745,18.196058719884
$GPGGA,020425.00,3359.9116,N,11921.3803,W,1,09,0.8,6.5,M,-33.5,M,,*54
$PYRTM,2024,127.086427178715,18.196074588854
$GPGGA,020426.00,3359.9116,N,11921.3803,W,1,09,0.8,6.5,M,-33.5,M,,*57
$PYRTM,2024,127.086438752905,18.196086163044
$GPGGA,020427.00,3359.9115,N,11921.3803,W,1,09,0.8,6.5,M,-33.5,M,,*55
$PYRTM,2024,127.086450327546,18.196097737685
$GPGGA,020428.00,3359.9114,N,11921.3802,W,1,09,0.8,6.5,M,-33.5,M,,*5A
$PYRTM,2024,127.086461901493,18.196109311632
$GPGGA,020429.00,3359.9113,N,11921.3801,W,1,09,0.8,6.5,M,-33.5,M,,*5F
$PYRTM,2024,127.086473474942,18.196120885093
$GPGGA,020430.00,3359.9114,N,11921.3801,W,1,09,0.8,6.5,M,-33.5,M,,*50
$PYRTM,2024,127.086485049838,18.196132459977
$GPGGA,020431.00,3359.9115,N,11921.3803,W,1,09,0.8,6.5,M,-33.5,M,,*52
$PYRTM,2024,127.086496623160,18.196144033299
$GPGGA,020432.00,3359.9115,N,11921.3803,W,1,09,0.8,6.5,M,-33.5,M,,*51
$PYRTM,2024,127.086508196655,18.196155606794
$GPGGA,020433.00,3359.9114,N,11921.3801,W,1,09,0.8,6.5,M,-33.5,M,,*53
$PYRTM,2024,127.086515489560,18.196162899699
$GPGGA,020434.00,3359.9112,N,11921.3800,W,1,09,0.8,6.5,M,-33.5,M,,*53
$PYRTM,2024,127.086531347326,18.196178757465
$GPGGA,020435.00,3359.9112,N,11921.3801,W,1,09,0.8,6.5,M,-33.5,M,,*53
$PYRTM,2024,127.086538640440,18.196186050579
$GPGGA,020436.00,3359.9112,N,11921.3801,W,1,09,0.8,6.5,M,-33.5,M,,*50
$PYRTM,2024,127.086554495428,18.196201905567
$GPGGA,020437.00,3359.9113,N,11921.3801,W,1,09,0.8,6.5,M,-33.5,M,,*50
$PYRTM,2024,127.086566075810,18.196213485949
$GPGGA,020438.00,3359.9112,N,11921.3800,W,1,09,0.8,6.5,M,-33.5,M,,*5F
$PYRTM,2024,127.086573347199,18.196220757338
$GPGGA,020439.00,3359.9110,N,11921.3800,W,1,09,0.8,6.5,M,-33.5,M,,*5C
$PYRTM,2024,127.086589222928,18.196236633067
$GPGGA,020440.00,3359.9109,N,11921.3801,W,1,09,0.8,6.5,M,-33.5,M,,*5B
$PYRTM,2024,127.086600792674,18.196248202812
$GPGGA,020441.00,3359.9110,N,11921.3802,W,1,09,0.8,6.4,M,-33.5,M,,*50
$PYRTM,2024,127.086612364282,18.196259774421
$GPGGA,020442.00,3359.9110,N,11921.3802,W,1,09,0.8,6.5,M,-33.5,M,,*52
$PYRTM,2024,127.086623939063,18.196271349201
$GPGGA,020443.00,3359.9110,N,11921.3801,W,1,09,0.8,6.5,M,-33.5,M,,*50
$PYRTM,2024,127.086635513843,18.196282923981
$GPGGA,020444.00,3359.9110,N,11921.3802,W,1,09,0.8,6.5,M,-33.5,M,,*54
$PYRTM,2024,127.086647082674,18.196294492812
$GPGGA,020445.00,3359.9110,N,11921.3803,W,1,09,0.8,6.5,M,-33.5,M,,*54
$PYRTM,2024,127.086654368333,18.196301778472
$GPGGA,020446.00,3359.9110,N,11921.3803,W,1,09,0.8,6.5,M,-33.5,M,,*57
$PYRTM,2024,127.086673008530,18.196320418669
$GPGGA,020447.00,3359.9110,N,11921.3803,W,1,09,0.8,6.5,M,-33.5,M,,*56
$PYRTM,2024,127.086681809896,18.196329220035
$GPGGA,020448.00,3359.9110,N,11921.3804,W,1,09,0.8,6.5,M,-33.5,M,,*5E
$PYRTM,2024,127.086689088623,18.196336498762
$GPGGA,020449.00,3359.9110,N,11921.3804,W,1,09,0.8,6.5,M,-33.5,M,,*5F
$PYRTM,2024,127.086704957465,18.196352367604
$GPGGA,020450.00,3359.9110,N,11921.3804,W,1,09,0.8,6.5,M,-33.5,M,,*57
$PYRTM,2024,127.086716532245,18.196363942384
$GPGGA,020451.00,3359.9110,N,11921.3804,W,1,09,0.8,6.5,M,-33.5,M,,*56
$PYRTM,2024,127.086728114016,18.196375524155
$GPGGA,020452.00,3359.9109,N,11921.3806,W,1,09,0.8,6.3,M,-33.5,M,,*59
$PYRTM,2024,127.086739680093,18.196387090231
$GPGGA,020453.00,3359.9108,N,11921.3806,W,1,09,0.8,6.3,M,-33.5,M,,*59
$PYRTM,2024,127.086751263576,18.196398673715
$GPGGA,020454.00,3359.9107,N,11921.3807,W,1,09,0.8,6.3,M,-33.5,M,,*50
$PYRTM,2024,127.086762823391,18.196410233530
$GPGGA,020455.00,3359.9107,N,11921.3807,W,1,09,0.8,6.3,M,-33.5,M,,*51
$PYRTM,2024,127.086774410231,18.196421820370
$GPGGA,020456.00,3359.9107,N,11921.3809,W,1,09,0.8,6.3,M,-33.5,M,,*5C
$PYRTM,2024,127.086785976690,18.196433386829
$GPGGA,020457.00,3359.9107,N,11921.3811,W,1,09,0.8,6.3,M,-33.5,M,,*54
$PYRTM,2024,127.086797562326,18.196444972465
$GPGGA,020458.00,3359.9106,N,11921.3812,W,1,09,0.8,6.3,M,-33.5,M,,*59
$PYRTM,2024,127.086809118692,18.196456528831
$GPGGA,020459.00,3359.9104,N,11921.3813,W,1,09,0.8,6.3,M,-33.5,M,,*5B
$PYRTM,2024,127.086820710347,18.196468120486
$GPGGA,020500.00,3359.9103,N,11921.3814,W,1,09,0.8,6.3,M,-33.5,M,,*56
$PYRTM,2024,127.086827978611,18.196475388750
$GPGGA,020501.00,3359.9103,N,11921.3815,W,1,09,0.8,6.3,M,-33.5,M,,*56
$PYRTM,2024,127.086843859595,18.196491269745
$GPGGA,020502.00,3359.9103,N,11921.3817,W,1,09,0.8,6.3,M,-33.5,M,,*57
$PYRTM,2024,127.086855417662,18.196502827801
$GPGGA,020503.00,3359.9103,N,11921.3819,W,1,09,0.8,6.3,M,-33.5,M,,*58
$PYRTM,2024,127.086867007303,18.196514417442
$GPGGA,020504.00,3359.9101,N,11921.3821,W,1,09,0.8,6.3,M,-33.5,M,,*56
$PYRTM,2024,127.086878568241,18.196525978380
$GPGGA,020505.00,3359.9100,N,11921.3822,W,1,09,0.8,6.3,M,-33.5,M,,*55
$PYRTM,2024,127.086885862454,18.196533272604
$GPGGA,020506.00,3359.9099,N,11921.3822,W,1,09,0.8,6.3,M,-33.5,M,,*57
$PYRTM,2024,127.086901719259,18.196549129398
$GPGGA,020507.00,3359.9100,N,11921.3824,W,1,09,0.8,6.3,M,-33.5,M,,*51
$PYRTM,2024,127.086913300532,18.196560710671
$GPGGA,020508.00,3359.9100,N,11921.3827,W,1,09,0.8,6.3,M,-33.5,M,,*5D
$PYRTM,2024,127.086924751447,18.196572161586
$GPGGA,020509.00,3359.9099,N,11921.3829,W,1,09,0.8,6.3,M,-33.5,M,,*53
$PYRTM,2024,127.086936461007,18.196583871146
$GPGGA,020510.00,3359.9097,N,11921.3831,W,1,09,0.8,6.3,M,-33.5,M,,*5C
$PYRTM,2024,127.086948016204,18.196595426343
$GPGGA,020511.00,3359.9097,N,11921.3832,W,1,09,0.8,6.3,M,-33.5,M,,*5E
$PYRTM,2024,127.086959597211,18.196607007350
$GPGGA,020512.00,3359.9097,N,11921.3833,W,1,09,0.8,6.3,M,-33.5,M,,*5C
$PYRTM,2024,127.086971158194,18.196618568333
$GPGGA,020513.00,3359.9097,N,11921.3836,W,1,09,0.8,6.3,M,-33.5,M,,*58
$PYRTM,2024,127.086978443646,18.196625853785
$GPGGA,020514.00,3359.9096,N,11921.3838,W,1,09,0.8,6.3,M,-33.5,M,,*50
$PYRTM,2024,127.086994311979,18.196641722118
$GPGGA,020515.00,3359.9094,N,11921.3839,W,1,09,0.8,6.3,M,-33.5,M,,*52
$PYRTM,2024,127.087005898403,18.196653308542
$GPGGA,020516.00,3359.9093,N,11921.3840,W,1,09,0.8,6.3,M,-33.5,M,,*58
$PYRTM,2024,127.087013165764,18.196660575903
$GPGGA,020517.00,3359.9094,N,11921.3841,W,1,09,0.8,6.4,M,-33.5,M,,*58
$PYRTM,2024,127.087031812407,18.196679222546
$GPGGA,020518.00,3359.9094,N,11921.3845,W,1,09,0.8,6.4,M,-33.5,M,,*53
$PYRTM,2024,127.087043386493,18.196690796632
$GPGGA,020519.00,3359.9093,N,11921.3848,W,1,09,0.8,6.4,M,-33.5,M,,*58
$PYRTM,2024,127.087054960127,18.196702370266
$GPGGA,020520.00,3359.9091,N,11921.3849,W,1,09,0.8,6.4,M,-33.5,M,,*51
$PYRTM,2024,127.087063758854,18.196711168993
$GPGGA,020521.00,3359.9090,N,11921.3850,W,1,09,0.8,6.4,M,-33.5,M,,*59
$PYRTM,2024,127.087075342731,18.196722752870
$GPGGA,020522.00,3359.9091,N,11921.3852,W,1,09,0.8,6.5,M,-33.5,M,,*58
$PYRTM,2024,127.087086905949,18.196734316088
$GPGGA,020523.00,3359.9093,N,11921.3856,W,1,09,0.8,6.5,M,-33.5,M,,*5F
$PYRTM,2024,127.087094203461,18.196741613600
$GPGGA,020524.00,3359.9093,N,11921.3859,W,1,09,0.8,6.5,M,-33.5,M,,*57
$PYRTM,2024,127.087110053125,18.196757463264
$GPGGA,020525.00,3359.9091,N,11921.3860,W,1,09,0.8,6.6,M,-33.5,M,,*5D
$PYRTM,2024,127.087121635683,18.196769045822
$GPGGA,020526.00,3359.9088,N,11921.3862,W,1,09,0.8,6.6,M,-33.5,M,,*54
$PYRTM,2024,127.087128907558,18.196776317697
$GPGGA,020527.00,3359.9088,N,11921.3864,W,1,09,0.8,6.6,M,-33.5,M,,*53
$PYRTM,2024,127.087144784109,18.196792194248
$GPGGA,020528.00,3359.9090,N,11921.3867,W,1,09,0.8,6.6,M,-33.5,M,,*56
$PYRTM,2024,127.087152055567,18.196799465706
$GPGGA,020529.00,3359.9091,N,11921.3870,W,1,09,0.8,6.6,M,-33.5,M,,*50
$PYRTM,2024,127.087167935266,18.196815345405
$GPGGA,020530.00,3359.9090,N,11921.3872,W,1,09,0.8,6.6,M,-33.5,M,,*5B
$PYRTM,2024,127.087179384167,18.196826794306
$GPGGA,020531.00,3359.9087,N,11921.3873,W,1,09,0.8,6.7,M,-33.5,M,,*5C
$PYRTM,2024,127.087190946748,18.196838356887
$GPGGA,020532.00,3359.9085,N,11921.3874,W,1,09,0.8,6.7,M,-33.5,M,,*5A
$PYRTM,2024,127.087202533900,18.196849944039
$GPGGA,020533.00,3359.9086,N,11921.3877,W,1,09,0.8,6.7,M,-33.5,M,,*5B
$PYRTM,2024,127.087214091898,18.196861502037
$GPGGA,020534.00,3359.9087,N,11921.3880,W,1,09,0.8,6.7,M,-33.5,M,,*55
$PYRTM,2024,127.087225682222,18.196873092361
$GPGGA,020535.00,3359.9086,N,11921.3883,W,1,09,0.8,6.7,M,-33.5,M,,*56
$PYRTM,2024,127.087237242083,18.196884652222
$GPGGA,020536.00,3359.9084,N,11921.3884,W,1,09,0.8,6.7,M,-33.5,M,,*50
$PYRTM,2024,127.087248828796,18.196896238947
$GPGGA,020537.00,3359.9082,N,11921.3886,W,1,09,0.8,6.7,M,-33.5,M,,*55
$PYRTM,2024,127.087260388912,18.196907799051
$GPGGA,020538.00,3359.9082,N,11921.3889,W,1,09,0.8,6.7,M,-33.5,M,,*55
$PYRTM,2024,127.087267797141,18.196915207280
$GPGGA,020539.00,3359.9082,N,11921.3892,W,1,09,0.8,6.7,M,-33.5,M,,*5E
$PYRTM,2024,127.087286443542,18.196933853669
$GPGGA,020540.00,3359.9082,N,11921.3895,W,1,09,0.8,6.7,M,-33.5,M,,*57
$PYRTM,2024,127.087295241505,18.196942651644
$GPGGA,020541.00,3359.9081,N,11921.3897,W,1,09,0.8,6.7,M,-33.5,M,,*57
$PYRTM,2024,127.087302520428,18.196949930567
$GPGGA,020542.00,3359.9079,N,11921.3899,W,1,09,0.8,6.7,M,-33.5,M,,*5D
$PYRTM,2024,127.087318388681,18.196965798819
$GPGGA,020543.00,3359.9077,N,11921.3902,W,1,09,0.8,6.7,M,-33.5,M,,*51
$PYRTM,2024,127.087329973542,18.196977383681
$GPGGA,020544.00,3359.9077,N,11921.3905,W,1,09,0.8,6.7,M,-33.5,M,,*51
$PYRTM,2024,127.087341421100,18.196988831250
$GPGGA,020545.00,3359.9078,N,11921.3907,W,1,09,0.8,6.7,M,-33.5,M,,*5D
$PYRTM,2024,127.087353121574,18.197000531713
$GPGGA,020546.00,3359.9078,N,11921.3909,W,1,09,0.8,6.7,M,-33.5,M,,*50
$PYRTM,2024,127.087364569005,18.197011979144
$GPGGA,020547.00,3359.9076,N,11921.3912,W,1,09,0.8,6.7,M,-33.5,M,,*55
$PYRTM,2024,127.087371964155,18.197019374294
$GPGGA,020548.00,3359.9074,N,11921.3916,W,1,09,0.8,6.7,M,-33.5,M,,*5C
$PYRTM,2024,127.087390610637,18.197038020775
$GPGGA,020549.00,3359.9073,N,11921.3919,W,1,09,0.8,6.7,M,-33.5,M,,*55
$PYRTM,2024,127.087402196227,18.197049606366
$GPGGA,020550.00,3359.9075,N,11921.3920,W,1,09,0.8,6.7,M,-33.5,M,,*51
$PYRTM,2024,127.087413759028,18.197061169167
$GPGGA,020551.00,3359.9075,N,11921.3921,W,1,09,0.8,6.7,M,-33.5,M,,*51
$PYRTM,2024,127.087422429005,18.197069839144
$GPGGA,020552.00,3359.9074,N,11921.3925,W,1,09,0.8,6.7,M,-33.5,M,,*57
$PYRTM,2024,127.087434014201,18.197081424340
$GPGGA,020553.00,3359.9072,N,11921.3929,W,1,09,0.8,6.7,M,-33.5,M,,*5C
$PYRTM,2024,127.087445575370,18.197092985509
$GPGGA,020554.00,3359.9072,N,11921.3931,W,1,09,0.8,6.7,M,-33.5,M,,*52
$PYRTM,2024,127.087457162859,18.197104572998
$GPGGA,020555.00,3359.9072,N,11921.3932,W,1,09,0.8,6.7,M,-33.5,M,,*50
$PYRTM,2024,127.087468723553,18.197116133692
$GPGGA,020556.00,3359.9073,N,11921.3935,W,1,09,0.8,6.7,M,-33.5,M,,*55
$PYRTM,2024,127.087480311586,18.197127721725
$GPGGA,020557.00,3359.9072,N,11921.3939,W,1,09,0.8,6.7,M,-33.5,M,,*59
$PYRTM,2024,127.087491871933,18.197139282072
$GPGGA,020558.00,3359.9069,N,11921.3942,W,1,09,0.8,6.7,M,-33.5,M,,*50
$PYRTM,2024,127.087503454167,18.197150864306
$GPGGA,020559.00,3359.9067,N,11921.3945,W,1,09,0.8,6.7,M,-33.5,M,,*58
$PYRTM,2024,127.087515021609,18.197162431748
$GPGGA,020600.00,3359.9066,N,11921.3947,W,1,09,0.8,6.7,M,-33.5,M,,*54
$PYRTM,2024,127.087526609236,18.197174019375
$GPGGA,020601.00,3359.9068,N,11921.3951,W,1,09,0.8,6.7,M,-33.5,M,,*5C
$PYRTM,2024,127.087534002975,18.197181413113
$GPGGA,020602.00,3359.9068,N,11921.3954,W,1,09,0.8,6.7,M,-33.5,M,,*5A
$PYRTM,2024,127.087549758553,18.197197168692
$GPGGA,020603.00,3359.9066,N,11921.3956,W,1,09,0.8,6.7,M,-33.5,M,,*57
$PYRTM,2024,127.087561318519,18.197208728657
$GPGGA,020604.00,3359.9063,N,11921.3959,W,1,09,0.8,6.7,M,-33.5,M,,*5A
$PYRTM,2024,127.087568724884,18.197216135023
$GPGGA,020605.00,3359.9062,N,11921.3962,W,1,09,0.8,6.7,M,-33.5,M,,*52
$PYRTM,2024,127.087584465926,18.197231876065
$GPGGA,020606.00,3359.9064,N,11921.3965,W,1,09,0.8,6.6,M,-33.5,M,,*51
$PYRTM,2024,127.087596066667,18.197243476806
$GPGGA,020607.00,3359.9065,N,11921.3968,W,1,09,0.8,6.6,M,-33.5,M,,*5C
$PYRTM,2024,127.087607613472,18.197255023611
$GPGGA,020608.00,3359.9065,N,11921.3970,W,1,09,0.8,6.6,M,-33.5,M,,*5A
$PYRTM,2024,127.087619201296,18.197266611435
$GPGGA,020609.00,3359.9062,N,11921.3973,W,1,09,0.8,6.6,M,-33.5,M,,*5F
$PYRTM,2024,127.087630762731,18.197278172870
$GPGGA,020610.00,3359.9059,N,11921.3975,W,1,09,0.8,6.6,M,-33.5,M,,*59
$PYRTM,2024,127.087642349687,18.197289759826
$GPGGA,020611.00,3359.9060,N,11921.3979,W,1,09,0.8,6.6,M,-33.5,M,,*5E
$PYRTM,2024,127.087649760394,18.197297170532
$GPGGA,020612.00,3359.9061,N,11921.3982,W,1,09,0.8,6.6,M,-33.5,M,,*58
$PYRTM,2024,127.087665497593,18.197312907743
$GPGGA,020613.00,3359.9061,N,11921.3984,W,1,09,0.8,6.6,M,-33.5,M,,*5F
$PYRTM,2024,127.087677059028,18.197324469167
$GPGGA,020614.00,3359.9060,N,11921.3986,W,1,09,0.8,6.6,M,-33.5,M,,*5B
$PYRTM,2024,127.087688647558,18.197336057697
$GPGGA,020615.00,3359.9057,N,11921.3989,W,1,09,0.8,6.5,M,-33.5,M,,*52
$PYRTM,2024,127.087700207442,18.197347617593
$GPGGA,020616.00,3359.9053,N,11921.3993,W,1,09,0.8,6.5,M,-33.5,M,,*5E
$PYRTM,2024,127.087711795046,18.197359205185
$GPGGA,020617.00,3359.9053,N,11921.3997,W,1,09,0.8,6.5,M,-33.5,M,,*5B
$PYRTM,2024,127.087723355231,18.197370765370
$GPGGA,020618.00,3359.9055,N,11921.3998,W,1,09,0.8,6.5,M,-33.5,M,,*5D
$PYRTM,2024,127.087730763646,18.197378173785
$GPGGA,020619.00,3359.9056,N,11921.3999,W,1,09,0.8,6.5,M,-33.5,M,,*5E
$PYRTM,2024,127.087749409560,18.197396819699
$GPGGA,020620.00,3359.9054,N,11921.4003,W,1,09,0.8,6.5,M,-33.5,M,,*5B
$PYRTM,2024,127.087758093345,18.197405503484
$GPGGA,020621.00,3359.9051,N,11921.4007,W,1,09,0.8,6.5,M,-33.5,M,,*5B
$PYRTM,2024,127.087765485220,18.197412895359
$GPGGA,020622.00,3359.9050,N,11921.4010,W,1,09,0.8,6.4,M,-33.5,M,,*5E
$PYRTM,2024,127.087781241933,18.197428652072
$GPGGA,020623.00,3359.9051,N,11921.4012,W,1,09,0.8,6.4,M,-33.5,M,,*5C
$PYRTM,2024,127.087792800532,18.197440210671
$GPGGA,020624.00,3359.9052,N,11921.4015,W,1,09,0.8,6.4,M,-33.5,M,,*5F
$PYRTM,2024,127.087804387512,18.197451797662
$GPGGA,020625.00,3359.9051,N,11921.4018,W,1,09,0.8,6.4,M,-33.5,M,,*50
$PYRTM,2024,127.087815950127,18.197463360266
$GPGGA,020626.00,3359.9050,N,11921.4021,W,1,09,0.8,6.5,M,-33.5,M,,*59
$PYRTM,2024,127.087823356748,18.197470766898
$GPGGA,020627.00,3359.9048,N,11921.4023,W,1,09,0.8,6.5,M,-33.5,M,,*53
$PYRTM,2024,127.087839097130,18.197486507269
$GPGGA,020628.00,3359.9047,N,11921.4027,W,1,09,0.8,6.5,M,-33.5,M,,*57
$PYRTM,2024,127.087850684734,18.197498094873
$GPGGA,020629.00,3359.9047,N,11921.4030,W,1,09,0.8,6.5,M,-33.5,M,,*50
$PYRTM,2024,127.087862245660,18.197509655799
$GPGGA,020630.00,3359.9048,N,11921.4032,W,1,09,0.8,6.5,M,-33.5,M,,*55
$PYRTM,2024,127.087873833275,18.197521243414
$GPGGA,020631.00,3359.9047,N,11921.4033,W,1,09,0.8,6.5,M,-33.5,M,,*5A
$PYRTM,2024,127.087885395868,18.197532806019
$GPGGA,020632.00,3359.9046,N,11921.4036,W,1,09,0.8,6.5,M,-33.5,M,,*5D
$PYRTM,2024,127.087896980220,18.197544390359
$GPGGA,020633.00,3359.9043,N,11921.4040,W,1,09,0.8,6.5,M,-33.5,M,,*58
$PYRTM,2024,127.087908541863,18.197555952014
$GPGGA,020634.00,3359.9043,N,11921.4042,W,1,09,0.8,6.5,M,-33.5,M,,*5D
$PYRTM,2024,127.087920133843,18.197567543993
$GPGGA,020635.00,3359.9044,N,11921.4044,W,1,09,0.8,6.5,M,-33.5,M,,*5D
$PYRTM,2024,127.087931691088,18.197579101238
$GPGGA,020636.00,3359.9043,N,11921.4047,W,1,09,0.8,6.4,M,-33.5,M,,*5B
$PYRTM,2024,127.087943280972,18.197590691111
$GPGGA,020637.00,3359.9041,N,11921.4051,W,1,09,0.8,6.4,M,-33.5,M,,*5F
$PYRTM,2024,127.087954838461,18.197602248600
$GPGGA,020638.00,3359.9039,N,11921.4053,W,1,09,0.8,6.4,M,-33.5,M,,*5D
$PYRTM,2024,127.087966430579,18.197613840718
$GPGGA,020639.00,3359.9038,N,11921.4053,W,1,09,0.8,6.4,M,-33.5,M,,*5D
$PYRTM,2024,127.087973833519,18.197621243657
$GPGGA,020640.00,3359.9039,N,11921.4056,W,1,09,0.8,6.4,M,-33.5,M,,*57
$PYRTM,2024,127.087989573507,18.197636983646
$GPGGA,020641.00,3359.9039,N,11921.4061,W,1,09,0.8,6.4,M,-33.5,M,,*52
$PYRTM,2024,127.088001135266,18.197648545417
$GPGGA,020642.00,3359.9038,N,11921.4064,W,1,09,0.8,6.4,M,-33.5,M,,*55
$PYRTM,2024,127.088012721968,18.197660132118
$GPGGA,020643.00,3359.9037,N,11921.4064,W,1,09,0.8,6.4,M,-33.5,M,,*5B
$PYRTM,2024,127.088020133287,18.197667543438
$GPGGA,020644.00,3359.9036,N,11921.4064,W,1,09,0.8,6.4,M,-33.5,M,,*5D
$PYRTM,2024,127.088035872060,18.197683282199
$GPGGA,020645.00,3359.9037,N,11921.4068,W,1,09,0.8,6.4,M,-33.5,M,,*51
$PYRTM,2024,127.088047431238,18.197694841377
$GPGGA,020646.00,3359.9037,N,11921.4072,W,1,09,0.8,6.4,M,-33.5,M,,*59
$PYRTM,2024,127.088059014340,18.197706424479
$GPGGA,020647.00,3359.9037,N,11921.4075,W,1,09,0.8,6.4,M,-33.5,M,,*5F
$PYRTM,2024,127.088070581690,18.197717991829
$GPGGA,020648.00,3359.9035,N,11921.4075,W,1,09,0.8,6.4,M,-33.5,M,,*52
$PYRTM,2024,127.088082169595,18.197729579734
$GPGGA,020649.00,3359.9033,N,11921.4076,W,1,09,0.8,6.4,M,-33.5,M,,*56
$PYRTM,2024,127.088089561169,18.197736971308
$GPGGA,020650.00,3359.9032,N,11921.4079,W,1,09,0.8,6.4,M,-33.5,M,,*50
$PYRTM,2024,127.088108208171,18.197755618310
$GPGGA,020651.00,3359.9034,N,11921.4083,W,1,09,0.8,6.3,M,-33.5,M,,*55
$PYRTM,2024,127.088119793032,18.197767203171
$GPGGA,020652.00,3359.9035,N,11921.4084,W,1,09,0.8,6.3,M,-33.5,M,,*50
$PYRTM,2024,127.088131356586,18.197778766725
$GPGGA,020653.00,3359.9033,N,11921.4085,W,1,09,0.8,6.3,M,-33.5,M,,*56
$PYRTM,2024,127.088140024537,18.197787434676
$GPGGA,020654.00,3359.9029,N,11921.4087,W,1,09,0.8,6.3,M,-33.5,M,,*58
$PYRTM,2024,127.088147431921,18.197794842060
$GPGGA,020655.00,3359.9028,N,11921.4090,W,1,09,0.8,6.3,M,-33.5,M,,*5E
$PYRTM,2024,127.088163173715,18.197810583854
$GPGGA,020656.00,3359.9029,N,11921.4092,W,1,09,0.8,6.3,M,-33.5,M,,*5E
$PYRTM,2024,127.088174760741,18.197822170880
$GPGGA,020657.00,3359.9031,N,11921.4094,W,1,09,0.8,6.3,M,-33.5,M,,*50
$PYRTM,2024,127.088186320197,18.197833730336
$GPGGA,020658.00,3359.9030,N,11921.4096,W,1,09,0.8,6.3,M,-33.5,M,,*5C
$PYRTM,2024,127.088197908576,18.197845318715
$GPGGA,020659.00,3359.9027,N,11921.4098,W,1,09,0.8,6.3,M,-33.5,M,,*55
$PYRTM,2024,127.088209470266,18.197856880417
$GPGGA,020700.00,3359.9025,N,11921.4100,W,1,09,0.8,6.3,M,-33.5,M,,*5A
$PYRTM,2024,127.088221057280,18.197868467431
$GPGGA,020701.00,3359.9025,N,11921.4102,W,1,09,0.8,6.3,M,-33.5,M,,*59
$PYRTM,2024,127.088232618299,18.197880028437
$GPGGA,020702.00,3359.9028,N,11921.4104,W,1,09,0.8,6.3,M,-33.5,M,,*51
$PYRTM,2024,127.088244200463,18.197891610613
$GPGGA,020703.00,3359.9028,N,11921.4108,W,1,09,0.8,6.3,M,-33.5,M,,*5C
$PYRTM,2024,127.088255768102,18.197903178241
$GPGGA,020704.00,3359.9026,N,11921.4110,W,1,09,0.8,6.2,M,-33.5,M,,*5D
$PYRTM,2024,127.088263175208,18.197910585347
$GPGGA,020705.00,3359.9024,N,11921.4110,W,1,09,0.8,6.2,M,-33.5,M,,*5E
$PYRTM,2024,127.088278914375,18.197926324514
$GPGGA,020706.00,3359.9023,N,11921.4111,W,1,09,0.8,6.3,M,-33.5,M,,*5A
$PYRTM,2024,127.088290505359,18.197937915498
$GPGGA,020707.00,3359.9025,N,11921.4114,W,1,09,0.8,6.3,M,-33.5,M,,*58
$PYRTM,2024,127.088302062072,18.197949472211
$GPGGA,020708.00,3359.9026,N,11921.4118,W,1,09,0.8,6.3,M,-33.5,M,,*58
$PYRTM,2024,127.088313665729,18.197961075868
$GPGGA,020709.00,3359.9025,N,11921.4120,W,1,09,0.8,6.2,M,-33.5,M,,*50
$PYRTM,2024,127.088325211701,18.197972621840
$GPGGA,020710.00,3359.9022,N,11921.4121,W,1,09,0.8,6.2,M,-33.5,M,,*5E
$PYRTM,2024,127.088336800174,18.197984210313
$GPGGA,020711.00,3359.9020,N,11921.4121,W,1,09,0.8,6.2,M,-33.5,M,,*5D
$PYRTM,2024,127.088348359873,18.197995770012
$GPGGA,020712.00,3359.9021,N,11921.4124,W,1,09,0.8,6.2,M,-33.5,M,,*5A
$PYRTM,2024,127.088359947338,18.198007357477
$GPGGA,020713.00,3359.9022,N,11921.4127,W,1,09,0.8,6.2,M,-33.5,M,,*5B
$PYRTM,2024,127.088371508866,18.198018919005
$GPGGA,020714.00,3359.9021,N,11921.4130,W,1,09,0.8,6.2,M,-33.5,M,,*59
$PYRTM,2024,127.088383090764,18.198030500903
$GPGGA,020715.00,3359.9018,N,11921.4131,W,1,09,0.8,6.2,M,-33.5,M,,*53
$PYRTM,2024,127.088394656123,18.198042066262
$GPGGA,020716.00,3359.9016,N,11921.4132,W,1,09,0.8,6.2,M,-33.5,M,,*5D
$PYRTM,2024,127.088402063380,18.198049473519
$GPGGA,020717.00,3359.9016,N,11921.4135,W,1,09,0.8,6.2,M,-33.5,M,,*5B
$PYRTM,2024,127.088417805243,18.198065215382
$GPGGA,020718.00,3359.9017,N,11921.4138,W,1,09,0.8,6.2,M,-33.5,M,,*58
$PYRTM,2024,127.088429393229,18.198076803368
$GPGGA,020719.00,3359.9017,N,11921.4140,W,1,09,0.8,6.2,M,-33.5,M,,*56
$PYRTM,2024,127.088440952743,18.198088362894
$GPGGA,020720.00,3359.9016,N,11921.4142,W,1,09,0.8,6.2,M,-33.5,M,,*5F
$PYRTM,2024,127.088448360787,18.198095770926
$GPGGA,020721.00,3359.9014,N,11921.4143,W,1,09,0.8,6.2,M,-33.5,M,,*5D
$PYRTM,2024,127.088467018796,18.198114428935
$GPGGA,020722.00,3359.9014,N,11921.4145,W,1,09,0.8,6.2,M,-33.5,M,,*58
$PYRTM,2024,127.088475692593,18.198123102743
$GPGGA,020723.00,3359.9014,N,11921.4148,W,1,09,0.8,6.2,M,-33.5,M,,*54
$PYRTM,2024,127.088487249699,18.198134659838
$GPGGA,020724.00,3359.9014,N,11921.4151,W,1,09,0.8,6.1,M,-33.5,M,,*58
$PYRTM,2024,127.088498947593,18.198146357731
$GPGGA,020725.00,3359.9014,N,11921.4151,W,1,09,0.8,6.1,M,-33.5,M,,*59
$PYRTM,2024,127.088510526597,18.198157936736
$GPGGA,020726.00,3359.9013,N,11921.4152,W,1,09,0.8,6.1,M,-33.5,M,,*5E
$PYRTM,2024,127.088522095104,18.198169505243
$GPGGA,020727.00,3359.9011,N,11921.4155,W,1,09,0.8,6.1,M,-33.5,M,,*5A
$PYRTM,2024,127.088533675162,18.198181085301
$GPGGA,020728.00,3359.9011,N,11921.4158,W,1,09,0.8,6.1,M,-33.5,M,,*58
$PYRTM,2024,127.088545244618,18.198192654757
$GPGGA,020729.00,3359.9011,N,11921.4161,W,1,09,0.8,6.1,M,-33.5,M,,*53
$PYRTM,2024,127.088552542836,18.198199952975
$GPGGA,020730.00,3359.9011,N,11921.4162,W,1,09,0.8,6.1,M,-33.5,M,,*58
$PYRTM,2024,127.088568398183,18.198215808322
$GPGGA,020731.00,3359.9010,N,11921.4163,W,1,09,0.8,6.1,M,-33.5,M,,*59
$PYRTM,2024,127.088579979109,18.198227389248
$GPGGA,020732.00,3359.9007,N,11921.4166,W,1,09,0.8,6.1,M,-33.5,M,,*59
$PYRTM,2024,127.088591431204,18.198238841343
$GPGGA,020733.00,3359.9006,N,11921.4169,W,1,09,0.8,6.1,M,-33.5,M,,*56
$PYRTM,2024,127.088602991053,18.198250401204
$GPGGA,020734.00,3359.9006,N,11921.4170,W,1,09,0.8,6.1,M,-33.5,M,,*59
$PYRTM,2024,127.088610399676,18.198257809826
$GPGGA,020735.00,3359.9006,N,11921.4172,W,1,09,0.8,6.1,M,-33.5,M,,*5A
$PYRTM,2024,127.088626138981,18.198273549132
$GPGGA,020736.00,3359.9007,N,11921.4174,W,1,09,0.8,6.1,M,-33.5,M,,*5E
$PYRTM,2024,127.088637727164,18.198285137303
$GPGGA,020737.00,3359.9006,N,11921.4177,W,1,09,0.8,6.1,M,-33.5,M,,*5D
$PYRTM,2024,127.088649290185,18.198296700324
$GPGGA,020738.00,3359.9004,N,11921.4179,W,1,09,0.8,6.1,M,-33.5,M,,*5E
$PYRTM,2024,127.088660888681,18.198308298819
$GPGGA,020739.00,3359.9003,N,11921.4180,W,1,09,0.8,6.1,M,-33.5,M,,*5E
$PYRTM,2024,127.088668270949,18.198315681100
$GPGGA,020740.00,3359.9003,N,11921.4182,W,1,09,0.8,6.1,M,-33.5,M,,*52
$PYRTM,2024,127.088684027164,18.198331437303
$GPGGA,020741.00,3359.9003,N,11921.4185,W,1,09,0.8,6.1,M,-33.5,M,,*54
$PYRTM,2024,127.088695583796,18.198342993935
$GPGGA,020742.00,3359.9004,N,11921.4188,W,1,09,0.8,6.1,M,-33.5,M,,*5D
$PYRTM,2024,127.088707172627,18.198354582766
$GPGGA,020743.00,3359.9003,N,11921.4190,W,1,09,0.8,6.1,M,-33.5,M,,*52
$PYRTM,2024,127.088718734769,18.198366144907
$GPGGA,020744.00,3359.9001,N,11921.4191,W,1,09,0.8,6.1,M,-33.5,M,,*56
$PYRTM,2024,127.088730322106,18.198377732245
$GPGGA,020745.00,3359.9000,N,11921.4191,W,1,09,0.8,6.1,M,-33.5,M,,*56
$PYRTM,2024,127.088741882245,18.198389292384
$GPGGA,020746.00,3359.9000,N,11921.4194,W,1,09,0.8,6.1,M,-33.5,M,,*50
$PYRTM,2024,127.088753462500,18.198400872639
$GPGGA,020747.00,3359.9000,N,11921.4197,W,1,09,0.8,6.0,M,-33.5,M,,*53
$PYRTM,2024,127.088765030475,18.198412440625
$GPGGA,020748.00,3359.9001,N,11921.4199,W,1,09,0.8,6.0,M,-33.5,M,,*53
$PYRTM,2024,127.088772437662,18.198419847812
$GPGGA,020749.00,3359.8999,N,11921.4200,W,1,09,0.8,6.0,M,-33.5,M,,*58
$PYRTM,2024,127.088791099398,18.198438509537
$GPGGA,020750.00,3359.8997,N,11921.4201,W,1,09,0.8,6.0,M,-33.5,M,,*5F
$PYRTM,2024,127.088799765845,18.198447175984
$GPGGA,020751.00,3359.8996,N,11921.4204,W,1,09,0.8,6.0,M,-33.5,M,,*5A
$PYRTM,2024,127.088807161516,18.198454571655
$GPGGA,020752.00,3359.8997,N,11921.4207,W,1,09,0.8,6.0,M,-33.5,M,,*5B
$PYRTM,2024,127.088825807697,18.198473217836
$GPGGA,020753.00,3359.8998,N,11921.4209,W,1,09,0.8,6.0,M,-33.5,M,,*5B
$PYRTM,2024,127.088834474734,18.198481884873
$GPGGA,020754.00,3359.8997,N,11921.4210,W,1,09,0.8,6.0,M,-33.5,M,,*5B
$PYRTM,2024,127.088841881088,18.198489291227
$GPGGA,020755.00,3359.8995,N,11921.4211,W,1,09,0.8,6.0,M,-33.5,M,,*59
$PYRTM,2024,127.088857622639,18.198505032778
$GPGGA,020756.00,3359.8992,N,11921.4214,W,1,09,0.8,6.0,M,-33.5,M,,*58
$PYRTM,2024,127.088869212789,18.198516622940
$GPGGA,020757.00,3359.8991,N,11921.4218,W,1,09,0.8,6.0,M,-33.5,M,,*56
$PYRTM,2024,127.088880771123,18.198528181262
$GPGGA,020758.00,3359.8992,N,11921.4220,W,1,09,0.8,5.9,M,-33.5,M,,*5B
$PYRTM,2024,127.088892359236,18.198539769375
$GPGGA,020759.00,3359.8992,N,11921.4220,W,1,09,0.8,5.9,M,-33.5,M,,*5A
$PYRTM,2024,127.088903919676,18.198551329815
$GPGGA,020800.00,3359.8991,N,11921.4222,W,1,09,0.8,5.9,M,-33.5,M,,*58
$PYRTM,2024,127.088915506053,18.198562916192
$GPGGA,020801.00,3359.8988,N,11921.4225,W,1,09,0.8,6.0,M,-33.5,M,,*5C
$PYRTM,2024,127.088927067836,18.198574477975
$GPGGA,020802.00,3359.8987,N,11921.4228,W,1,09,0.8,6.0,M,-33.5,M,,*5D
$PYRTM,2024,127.088938654884,18.198586065023
$GPGGA,020803.00,3359.8988,N,11921.4229,W,1,09,0.8,6.0,M,-33.5,M,,*52
$PYRTM,2024,127.088950217512,18.198597627650
$GPGGA,020804.00,3359.8990,N,11921.4230,W,1,09,0.8,6.0,M,-33.5,M,,*54
$PYRTM,2024,127.088961802905,18.198609213044
$GPGGA,020805.00,3359.8990,N,11921.4233,W,1,09,0.8,6.0,M,-33.5,M,,*56
$PYRTM,2024,127.088973364803,18.198620774942
$GPGGA,020806.00,3359.8988,N,11921.4235,W,1,09,0.8,6.0,M,-33.5,M,,*5A
$PYRTM,2024,127.088984951840,18.198632361991
$GPGGA,020807.00,3359.8987,N,11921.4238,W,1,09,0.8,6.0,M,-33.5,M,,*59
$PYRTM,2024,127.088992346481,18.198639756620
$GPGGA,020808.00,3359.8987,N,11921.4238,W,1,09,0.8,6.0,M,-33.5,M,,*56
$PYRTM,2024,127.089008099433,18.198655509572
$GPGGA,020809.00,3359.8988,N,11921.4240,W,1,09,0.8,6.0,M,-33.5,M,,*57
$PYRTM,2024,127.089019662523,18.198667072662
$GPGGA,020810.00,3359.8987,N,11921.4243,W,1,09,0.8,6.0,M,-33.5,M,,*53
$PYRTM,2024,127.089031251701,18.198678661840
$GPGGA,020811.00,3359.8986,N,11921.4246,W,1,09,0.8,6.0,M,-33.5,M,,*56
$PYRTM,2024,127.089042809340,18.198690219479
$GPGGA,020812.00,3359.8983,N,11921.4247,W,1,09,0.8,6.0,M,-33.5,M,,*51
$PYRTM,2024,127.089054399549,18.198701809687
$GPGGA,020813.00,3359.8982,N,11921.4247,W,1,09,0.8,6.0,M,-33.5,M,,*51
$PYRTM,2024,127.089065957199,18.198713367338
$GPGGA,020814.00,3359.8982,N,11921.4249,W,1,09,0.8,6.0,M,-33.5,M,,*58
$PYRTM,2024,127.089077545694,18.198724955833
$GPGGA,020815.00,3359.8983,N,11921.4252,W,1,09,0.8,6.0,M,-33.5,M,,*52
$PYRTM,2024,127.089089106065,18.198736516204
$GPGGA,020816.00,3359.8981,N,11921.4256,W,1,09,0.8,5.9,M,-33.5,M,,*5D
$PYRTM,2024,127.089100693113,18.198748103252
$GPGGA,020817.00,3359.8980,N,11921.4256,W,1,09,0.8,5.9,M,-33.5,M,,*5D
$PYRTM,2024,127.089108108727,18.198755518866
$GPGGA,020818.00,3359.8979,N,11921.4257,W,1,09,0.8,5.9,M,-33.5,M,,*55
$PYRTM,2024,127.089123841100,18.198771251238
$GPGGA,020819.00,3359.8979,N,11921.4259,W,1,09,0.8,5.9,M,-33.5,M,,*5A
$PYRTM,2024,127.089135403194,18.198782813333
$GPGGA,020820.00,3359.8980,N,11921.4263,W,1,09,0.8,5.9,M,-33.5,M,,*5F
$PYRTM,2024,127.089142809722,18.198790219861
$GPGGA,020821.00,3359.8980,N,11921.4265,W,1,09,0.8,5.9,M,-33.5,M,,*58
$PYRTM,2024,127.089158551250,18.198805961389
$GPGGA,020822.00,3359.8979,N,11921.4266,W,1,09,0.8,5.9,M,-33.5,M,,*5E
$PYRTM,2024,127.089165957581,18.198813367720
$GPGGA,020823.00,3359.8978,N,11921.4267,W,1,09,0.8,5.9,M,-33.5,M,,*5F
$PYRTM,2024,127.089184606262,18.198832016412
$GPGGA,020824.00,3359.8978,N,11921.4269,W,1,09,0.8,5.9,M,-33.5,M,,*56
$PYRTM,2024,127.089193285637,18.198840695775
$GPGGA,020825.00,3359.8978,N,11921.4272,W,1,09,0.8,5.9,M,-33.5,M,,*5D
$PYRTM,2024,127.089204847789,18.198852257928
$GPGGA,020826.00,3359.8978,N,11921.4274,W,1,09,0.8,5.9,M,-33.5,M,,*58
$PYRTM,2024,127.089216436806,18.198863846956
$GPGGA,020827.00,3359.8977,N,11921.4276,W,1,09,0.8,5.8,M,-33.5,M,,*55
$PYRTM,2024,127.089227995370,18.198875405509
$GPGGA,020828.00,3359.8976,N,11921.4277,W,1,09,0.8,5.9,M,-33.5,M,,*5B
$PYRTM,2024,127.089239586319,18.198886996458
$GPGGA,020829.00,3359.8975,N,11921.4279,W,1,09,0.8,5.9,M,-33.5,M,,*57
$PYRTM,2024,127.089251143796,18.198898553935
$GPGGA,020830.00,3359.8975,N,11921.4281,W,1,09,0.8,5.9,M,-33.5,M,,*58
$PYRTM,2024,127.089262727211,18.198910137361
$GPGGA,020831.00,3359.8975,N,11921.4283,W,1,09,0.8,5.9,M,-33.5,M,,*5B
$PYRTM,2024,127.089274291632,18.198921701771
$GPGGA,020832.00,3359.8974,N,11921.4285,W,1,09,0.8,5.9,M,-33.5,M,,*5F
$PYRTM,2024,127.089281699525,18.198929109664
$GPGGA,020833.00,3359.8972,N,11921.4288,W,1,09,0.8,5.9,M,-33.5,M,,*55
$PYRTM,2024,127.089297441493,18.198944851632
$GPGGA,020834.00,3359.8971,N,11921.4289,W,1,09,0.8,5.9,M,-33.5,M,,*50
$PYRTM,2024,127.089309028600,18.198956438738
$GPGGA,020835.00,3359.8971,N,11921.4290,W,1,09,0.8,5.8,M,-33.5,M,,*58
$PYRTM,2024,127.089320590602,18.198968000741
$GPGGA,020836.00,3359.8971,N,11921.4292,W,1,09,0.8,5.8,M,-33.5,M,,*59
$PYRTM,2024,127.089332176238,18.198979586377
$GPGGA,020837.00,3359.8970,N,11921.4295,W,1,09,0.8,5.8,M,-33.5,M,,*5E
$PYRTM,2024,127.089343736991,18.198991147130
$GPGGA,020838.00,3359.8969,N,11921.4297,W,1,09,0.8,5.8,M,-33.5,M,,*5B
$PYRTM,2024,127.089355324178,18.199002734329
$GPGGA,020839.00,3359.8967,N,11921.4298,W,1,09,0.8,5.9,M,-33.5,M,,*5A
$PYRTM,2024,127.089366885856,18.199014295995
