$PYRTM,2024,122.083336835278,13.192984245428
$GPGGA,015959.00,3313.8338,N,11837.9471,W,1,08,1.0,9.7,M,-34.7,M,,*50
$PYRTM,2024,122.083348435856,13.192995845995
$GPGGA,020000.00,3313.8349,N,11837.9498,W,1,08,1.0,9.3,M,-34.7,M,,*56
$PYRTM,2024,122.083355817049,13.193003227199
$GPGGA,020001.00,3313.8357,N,11837.9525,W,1,08,1.0,8.6,M,-34.7,M,,*5B
$PYRTM,2024,122.083367505347,13.193014915486
$GPGGA,020002.00,3313.8363,N,11837.9547,W,1,08,1.0,8.7,M,-34.7,M,,*5A
$PYRTM,2024,122.083386024606,13.193033434745
$GPGGA,020003.00,3313.8371,N,11837.9568,W,1,08,1.0,9.1,M,-34.7,M,,*52
$PYRTM,2024,122.083394718727,13.193042128866
$GPGGA,020004.00,3313.8380,N,11837.9593,W,1,08,1.0,9.3,M,-34.7,M,,*5D
$PYRTM,2024,122.083406279861,13.193053690000
$GPGGA,020005.00,3313.8390,N,11837.9617,W,1,08,1.0,9.4,M,-34.7,M,,*55
$PYRTM,2024,122.083417866910,13.193065277049
$GPGGA,020006.00,3313.8399,N,11837.9641,W,1,08,1.0,9.3,M,-34.7,M,,*5B
$PYRTM,2024,122.083429426505,13.193076836644
$GPGGA,020007.00,3313.8408,N,11837.9666,W,1,08,1.0,9.1,M,-34.7,M,,*52
$PYRTM,2024,122.083441015220,13.193088425359
$GPGGA,020008.00,3313.8415,N,11837.9690,W,1,08,1.0,9.1,M,-34.7,M,,*58
$PYRTM,2024,122.083452575787,13.193099985926
$GPGGA,020009.00,3313.8422,N,11837.9712,W,1,08,1.0,9.4,M,-34.7,M,,*53
$PYRTM,2024,122.083464158345,13.193111568484
$GPGGA,020010.00,3313.8432,N,11837.9735,W,1,08,1.0,9.8,M,-34.7,M,,*53
$PYRTM,2024,122.083471557187,13.193118967326
$GPGGA,020011.00,3313.8442,N,11837.9760,W,1,08,1.0,9.8,M,-34.7,M,,*55
$PYRTM,2024,122.083487312396,13.193134722546
$GPGGA,020012.00,3313.8450,N,11837.9786,W,1,08,1.0,9.4,M,-34.7,M,,*51
$PYRTM,2024,122.083498873356,13.193146283495
$GPGGA,020013.00,3313.8456,N,11837.9812,W,1,08,1.0,8.9,M,-34.7,M,,*58
$PYRTM,2024,122.083510471794,13.193157881944
$GPGGA,020014.00,3313.8463,N,11837.9837,W,1,08,1.0,8.6,M,-34.7,M,,*51
$PYRTM,2024,122.083522022025,13.193169432164
$GPGGA,020015.00,3313.8472,N,11837.9860,W,1,08,1.0,8.8,M,-34.7,M,,*5C
$PYRTM,2024,122.083529430278,13.193176840417
$GPGGA,020016.00,3313.8482,N,11837.9883,W,1,08,1.0,9.3,M,-34.7,M,,*57
$PYRTM,2024,122.083545169850,13.193192580000
$GPGGA,020017.00,3313.8489,N,11837.9908,W,1,08,1.0,9.6,M,-34.7,M,,*5A
$PYRTM,2024,122.083556757743,13.193204167882
$GPGGA,020018.00,3313.8495,N,11837.9934,W,1,08,1.0,9.7,M,-34.7,M,,*56
$PYRTM,2024,122.083568319097,13.193215729236
$GPGGA,020019.00,3313.8502,N,11837.9959,W,1,08,1.0,9.6,M,-34.7,M,,*52
$PYRTM,2024,122.083575725961,13.193223136100
$GPGGA,020020.00,3313.8511,N,11837.9983,W,1,08,1.0,9.5,M,-34.7,M,,*5E
$PYRTM,2024,122.083587424954,13.193234835093
$GPGGA,020021.00,3313.8520,N,11838.0007,W,1,08,1.0,9.2,M,-34.7,M,,*59
$PYRTM,2024,122.083603053032,13.193250463171
$GPGGA,020022.00,3313.8529,N,11838.0032,W,1,08,1.0,9.0,M,-34.7,M,,*57
$PYRTM,2024,122.083614614456,13.193262024595
$GPGGA,020023.00,3313.8536,N,11838.0056,W,1,08,1.0,9.2,M,-34.7,M,,*58
$PYRTM,2024,122.083626204375,13.193273614514
$GPGGA,020024.00,3313.8544,N,11838.0082,W,1,08,1.0,9.3,M,-34.7,M,,*52
$PYRTM,2024,122.083637761759,13.193285171898
$GPGGA,020025.00,3313.8552,N,11838.0108,W,1,08,1.0,9.4,M,-34.7,M,,*50
$PYRTM,2024,122.083649350868,13.193296761007
$GPGGA,020026.00,3313.8561,N,11838.0132,W,1,08,1.0,9.6,M,-34.7,M,,*58
$PYRTM,2024,122.083660911875,13.193308322014
$GPGGA,020027.00,3313.8570,N,11838.0156,W,1,08,1.0,9.8,M,-34.7,M,,*55
$PYRTM,2024,122.083668318009,13.193315728160
$GPGGA,020028.00,3313.8578,N,11838.0182,W,1,08,1.0,9.6,M,-34.7,M,,*55
$PYRTM,2024,122.083684059780,13.193331469919
$GPGGA,020029.00,3313.8587,N,11838.0208,W,1,08,1.0,9.2,M,-34.7,M,,*51
$PYRTM,2024,122.083695649861,13.193343060000
$GPGGA,020030.00,3313.8594,N,11838.0233,W,1,08,1.0,8.9,M,-34.7,M,,*59
$PYRTM,2024,122.083707207905,13.193354618044
$GPGGA,020031.00,3313.8602,N,11838.0257,W,1,08,1.0,9.1,M,-34.7,M,,*5F
$PYRTM,2024,122.083718795046,13.193366205185
$GPGGA,020032.00,3313.8611,N,11838.0280,W,1,08,1.0,9.6,M,-34.7,M,,*53
$PYRTM,2024,122.083726205509,13.193373615660
$GPGGA,020033.00,3313.8620,N,11838.0305,W,1,08,1.0,9.8,M,-34.7,M,,*52
$PYRTM,2024,122.083744831690,13.193392241840
$GPGGA,020034.00,3313.8629,N,11838.0332,W,1,08,1.0,9.6,M,-34.7,M,,*56
$PYRTM,2024,122.083753505405,13.193400915544
$GPGGA,020035.00,3313.8636,N,11838.0357,W,1,08,1.0,9.5,M,-34.7,M,,*59
$PYRTM,2024,122.083765092118,13.193412502257
$GPGGA,020036.00,3313.8645,N,11838.0381,W,1,08,1.0,9.4,M,-34.7,M,,*54
$PYRTM,2024,122.083772487627,13.193419897778
$GPGGA,020037.00,3313.8654,N,11838.0407,W,1,08,1.0,9.1,M,-34.7,M,,*59
$PYRTM,2024,122.083788240069,13.193435650208
$GPGGA,020038.00,3313.8663,N,11838.0432,W,1,08,1.0,8.9,M,-34.7,M,,*5D
$PYRTM,2024,122.083799800336,13.193447210486
$GPGGA,020039.00,3313.8670,N,11838.0454,W,1,08,1.0,9.3,M,-34.7,M,,*55
$PYRTM,2024,122.083811388194,13.193458798333
$GPGGA,020040.00,3313.8679,N,11838.0478,W,1,08,1.0,9.8,M,-34.7,M,,*57
$PYRTM,2024,122.083822949931,13.193470360069
$GPGGA,020041.00,3313.8689,N,11838.0507,W,1,08,1.0,9.6,M,-34.7,M,,*5E
$PYRTM,2024,122.083834550370,13.193481960509
$GPGGA,020042.00,3313.8698,N,11838.0534,W,1,08,1.0,9.1,M,-34.7,M,,*5A
$PYRTM,2024,122.083846097697,13.193493507836
$GPGGA,020043.00,3313.8705,N,11838.0555,W,1,08,1.0,9.3,M,-34.7,M,,*5B
$PYRTM,2024,122.083857688021,13.193505098171
$GPGGA,020044.00,3313.8712,N,11838.0575,W,1,08,1.0,9.9,M,-34.7,M,,*52
$PYRTM,2024,122.083869245741,13.193516655880
$GPGGA,020045.00,3313.8722,N,11838.0600,W,1,08,1.0,10.0,M,-34.7,M,,*60
$PYRTM,2024,122.083880836956,13.193528247095
$GPGGA,020046.00,3313.8731,N,11838.0628,W,1,08,1.0,9.4,M,-34.7,M,,*57
$PYRTM,2024,122.083892394225,13.193539804363
$GPGGA,020047.00,3313.8738,N,11838.0652,W,1,08,1.0,9.0,M,-34.7,M,,*56
$PYRTM,2024,122.083899802153,13.193547212292
$GPGGA,020048.00,3313.8746,N,11838.0675,W,1,08,1.0,9.2,M,-34.7,M,,*57
$PYRTM,2024,122.083918438438,13.193565848576
$GPGGA,020049.00,3313.8754,N,11838.0699,W,1,08,1.0,9.5,M,-34.7,M,,*50
$PYRTM,2024,122.083927129479,13.193574539618
$GPGGA,020050.00,3313.8763,N,11838.0722,W,1,08,1.0,9.8,M,-34.7,M,,*50
$PYRTM,2024,122.083938691076,13.193586101227
$GPGGA,020051.00,3313.8772,N,11838.0746,W,1,08,1.0,10.1,M,-34.7,M,,*62
$PYRTM,2024,122.083950273750,13.193597683889
$GPGGA,020052.00,3313.8781,N,11838.0772,W,1,08,1.0,9.9,M,-34.7,M,,*5A
$PYRTM,2024,122.083961840451,13.193609250590
$GPGGA,020053.00,3313.8788,N,11838.0797,W,1,08,1.0,9.7,M,-34.7,M,,*57
$PYRTM,2024,122.083973426887,13.193620837025
$GPGGA,020054.00,3313.8794,N,11838.0820,W,1,08,1.0,9.7,M,-34.7,M,,*5E
$PYRTM,2024,122.083984987535,13.193632397685
$GPGGA,020055.00,3313.8803,N,11838.0844,W,1,08,1.0,9.7,M,-34.7,M,,*5C
$PYRTM,2024,122.083996578148,13.193643988287
$GPGGA,020056.00,3313.8813,N,11838.0868,W,1,08,1.0,9.6,M,-34.7,M,,*51
$PYRTM,2024,122.084008137650,13.193655547801
$GPGGA,020057.00,3313.8823,N,11838.0891,W,1,08,1.0,9.6,M,-34.7,M,,*55
$PYRTM,2024,122.084019725984,13.193667136123
$GPGGA,020058.00,3313.8829,N,11838.0915,W,1,08,1.0,9.9,M,-34.7,M,,*52
$PYRTM,2024,122.084031285023,13.193678695162
$GPGGA,020059.00,3313.8835,N,11838.0941,W,1,08,1.0,9.9,M,-34.7,M,,*5F
$PYRTM,2024,122.084042870694,13.193690280833
$GPGGA,020100.00,3313.8842,N,11838.0968,W,1,08,1.0,9.5,M,-34.7,M,,*55
$PYRTM,2024,122.084050279850,13.193697689988
$GPGGA,020101.00,3313.8853,N,11838.0993,W,1,08,1.0,9.1,M,-34.7,M,,*54
$PYRTM,2024,122.084066020058,13.193713430197
$GPGGA,020102.00,3313.8862,N,11838.1015,W,1,08,1.0,9.2,M,-34.7,M,,*50
$PYRTM,2024,122.084077615891,13.193725026030
$GPGGA,020103.00,3313.8869,N,11838.1039,W,1,08,1.0,9.6,M,-34.7,M,,*50
$PYRTM,2024,122.084084987789,13.193732397928
$GPGGA,020104.00,3313.8876,N,11838.1066,W,1,08,1.0,9.5,M,-34.7,M,,*50
$PYRTM,2024,122.084103621898,13.193751032037
$GPGGA,020105.00,3313.8884,N,11838.1093,W,1,08,1.0,9.2,M,-34.7,M,,*51
$PYRTM,2024,122.084112312049,13.193759722188
$GPGGA,020106.00,3313.8892,N,11838.1115,W,1,08,1.0,9.2,M,-34.7,M,,*5A
$PYRTM,2024,122.084123877616,13.193771287755
$GPGGA,020107.00,3313.8901,N,11838.1137,W,1,08,1.0,9.5,M,-34.7,M,,*57
$PYRTM,2024,122.084135466817,13.193782876956
$GPGGA,020108.00,3313.8910,N,11838.1164,W,1,08,1.0,9.3,M,-34.7,M,,*58
$PYRTM,2024,122.084147025486,13.193794435637
$GPGGA,020109.00,3313.8917,N,11838.1190,W,1,08,1.0,9.0,M,-34.7,M,,*56
$PYRTM,2024,122.084158612326,13.193806022465
$GPGGA,020110.00,3313.8924,N,11838.1215,W,1,08,1.0,8.9,M,-34.7,M,,*58
$PYRTM,2024,122.084170175903,13.193817586042
$GPGGA,020111.00,3313.8932,N,11838.1237,W,1,08,1.0,9.4,M,-34.7,M,,*52
$PYRTM,2024,122.084181764549,13.193829174688
$GPGGA,020112.00,3313.8942,N,11838.1261,W,1,08,1.0,9.6,M,-34.7,M,,*57
$PYRTM,2024,122.084193322778,13.193840732917
$GPGGA,020113.00,3313.8952,N,11838.1288,W,1,08,1.0,9.3,M,-34.7,M,,*55
$PYRTM,2024,122.084204913125,13.193852323264
$GPGGA,020114.00,3313.8959,N,11838.1314,W,1,08,1.0,8.8,M,-34.7,M,,*57
$PYRTM,2024,122.084216472558,13.193863882697
$GPGGA,020115.00,3313.8964,N,11838.1337,W,1,08,1.0,9.1,M,-34.7,M,,*51
$PYRTM,2024,122.084228058981,13.193875469120
$GPGGA,020116.00,3313.8972,N,11838.1360,W,1,08,1.0,9.6,M,-34.7,M,,*50
$PYRTM,2024,122.084239619421,13.193887029560
$GPGGA,020117.00,3313.8983,N,11838.1386,W,1,08,1.0,9.6,M,-34.7,M,,*57
$PYRTM,2024,122.084251205822,13.193898615961
$GPGGA,020118.00,3313.8992,N,11838.1412,W,1,08,1.0,9.2,M,-34.7,M,,*56
$PYRTM,2024,122.084262768426,13.193910178565
$GPGGA,020119.00,3313.8998,N,11838.1435,W,1,08,1.0,9.2,M,-34.7,M,,*58
$PYRTM,2024,122.084270177095,13.193917587234
$GPGGA,020120.00,3313.9005,N,11838.1459,W,1,08,1.0,9.4,M,-34.7,M,,*52
$PYRTM,2024,122.084285915741,13.193933325880
$GPGGA,020121.00,3313.9012,N,11838.1485,W,1,08,1.0,9.2,M,-34.7,M,,*52
$PYRTM,2024,122.084297504201,13.193944914340
$GPGGA,020122.00,3313.9022,N,11838.1511,W,1,08,1.0,8.8,M,-34.7,M,,*55
$PYRTM,2024,122.084309066076,13.193956476215
$GPGGA,020123.00,3313.9030,N,11838.1534,W,1,08,1.0,8.8,M,-34.7,M,,*50
$PYRTM,2024,122.084320651042,13.193968061192
$GPGGA,020124.00,3313.9039,N,11838.1557,W,1,08,1.0,9.3,M,-34.7,M,,*51
$PYRTM,2024,122.084332211921,13.193979622060
$GPGGA,020125.00,3313.9046,N,11838.1582,W,1,08,1.0,9.5,M,-34.7,M,,*56
$PYRTM,2024,122.084343802569,13.193991212708
$GPGGA,020126.00,3313.9053,N,11838.1608,W,1,08,1.0,9.5,M,-34.7,M,,*50
$PYRTM,2024,122.084355362095,13.194002772234
$GPGGA,020127.00,3313.9062,N,11838.1633,W,1,08,1.0,9.3,M,-34.7,M,,*5D
$PYRTM,2024,122.084366951910,13.194014362060
$GPGGA,020128.00,3313.9072,N,11838.1658,W,1,08,1.0,8.9,M,-34.7,M,,*55
$PYRTM,2024,122.084378509803,13.194025919942
$GPGGA,020129.00,3313.9080,N,11838.1682,W,1,08,1.0,8.7,M,-34.7,M,,*50
$PYRTM,2024,122.084390099132,13.194037509271
$GPGGA,020130.00,3313.9087,N,11838.1707,W,1,08,1.0,9.0,M,-34.7,M,,*55
$PYRTM,2024,122.084401657917,13.194049068056
$GPGGA,020131.00,3313.9095,N,11838.1730,W,1,08,1.0,9.5,M,-34.7,M,,*56
$PYRTM,2024,122.084413239549,13.194060649687
$GPGGA,020132.00,3313.9105,N,11838.1754,W,1,08,1.0,10.0,M,-34.7,M,,*62
$PYRTM,2024,122.084424806169,13.194072216308
$GPGGA,020133.00,3313.9114,N,11838.1780,W,1,08,1.0,9.8,M,-34.7,M,,*5A
$PYRTM,2024,122.084436394155,13.194083804294
$GPGGA,020134.00,3313.9122,N,11838.1807,W,1,08,1.0,9.3,M,-34.7,M,,*53
$PYRTM,2024,122.084443801644,13.194091211794
$GPGGA,020135.00,3313.9128,N,11838.1831,W,1,08,1.0,9.3,M,-34.7,M,,*5D
$PYRTM,2024,122.084462434583,13.194109844734
$GPGGA,020136.00,3313.9137,N,11838.1853,W,1,08,1.0,9.6,M,-34.7,M,,*51
$PYRTM,2024,122.084471102176,13.194118512315
$GPGGA,020137.00,3313.9147,N,11838.1878,W,1,08,1.0,9.7,M,-34.7,M,,*5F
$PYRTM,2024,122.084482691539,13.194130101678
$GPGGA,020138.00,3313.9156,N,11838.1905,W,1,08,1.0,9.4,M,-34.7,M,,*58
$PYRTM,2024,122.084494251227,13.194141661366
$GPGGA,020139.00,3313.9163,N,11838.1931,W,1,08,1.0,9.2,M,-34.7,M,,*5E
$PYRTM,2024,122.084505837546,13.194153247685
$GPGGA,020140.00,3313.9171,N,11838.1955,W,1,08,1.0,9.4,M,-34.7,M,,*57
$PYRTM,2024,122.084517399595,13.194164809734
$GPGGA,020141.00,3313.9180,N,11838.1979,W,1,08,1.0,9.5,M,-34.7,M,,*57
$PYRTM,2024,122.084528990313,13.194176400451
$GPGGA,020142.00,3313.9189,N,11838.2005,W,1,08,1.0,9.4,M,-34.7,M,,*5D
$PYRTM,2024,122.084540549803,13.194187959942
$GPGGA,020143.00,3313.9197,N,11838.2031,W,1,08,1.0,9.2,M,-34.7,M,,*52
$PYRTM,2024,122.084552135185,13.194199545324
$GPGGA,020144.00,3313.9205,N,11838.2055,W,1,08,1.0,9.4,M,-34.7,M,,*59
$PYRTM,2024,122.084563695197,13.194211105336
$GPGGA,020145.00,3313.9214,N,11838.2078,W,1,08,1.0,9.9,M,-34.7,M,,*5A
$PYRTM,2024,122.084575283252,13.194222693391
$GPGGA,020146.00,3313.9223,N,11838.2101,W,1,08,1.0,10.4,M,-34.7,M,,*67
$PYRTM,2024,122.084586844363,13.194234254502
$GPGGA,020147.00,3313.9232,N,11838.2128,W,1,08,1.0,10.0,M,-34.7,M,,*69
$PYRTM,2024,122.084598431620,13.194245841759
$GPGGA,020148.00,3313.9240,N,11838.2156,W,1,08,1.0,9.2,M,-34.7,M,,*50
$PYRTM,2024,122.084609992766,13.194257402905
$GPGGA,020149.00,3313.9247,N,11838.2178,W,1,08,1.0,9.1,M,-34.7,M,,*59
$PYRTM,2024,122.084621580822,13.194268990961
$GPGGA,020150.00,3313.9255,N,11838.2198,W,1,08,1.0,9.5,M,-34.7,M,,*58
$PYRTM,2024,122.084633143137,13.194280553275
$GPGGA,020151.00,3313.9266,N,11838.2226,W,1,08,1.0,9.5,M,-34.7,M,,*5F
$PYRTM,2024,122.084647616562,13.194295026701
$GPGGA,020152.00,3313.9275,N,11838.2253,W,1,08,1.0,9.2,M,-34.7,M,,*5B
$PYRTM,2024,122.084659182685,13.194306592836
$GPGGA,020153.00,3313.9281,N,11838.2274,W,1,08,1.0,9.5,M,-34.7,M,,*53
$PYRTM,2024,122.084667876319,13.194315286458
$GPGGA,020154.00,3313.9289,N,11838.2293,W,1,08,1.0,10.3,M,-34.7,M,,*6B
$PYRTM,2024,122.084675271794,13.194322681933
$GPGGA,020155.00,3313.9298,N,11838.2317,W,1,08,1.0,10.4,M,-34.7,M,,*60
$PYRTM,2024,122.084691028426,13.194338438565
$GPGGA,020156.00,3313.9308,N,11838.2345,W,1,08,1.0,9.6,M,-34.7,M,,*56
$PYRTM,2024,122.084702586204,13.194349996343
$GPGGA,020157.00,3313.9315,N,11838.2368,W,1,08,1.0,9.0,M,-34.7,M,,*52
$PYRTM,2024,122.084709992419,13.194357402558
$GPGGA,020158.00,3313.9322,N,11838.2387,W,1,08,1.0,9.2,M,-34.7,M,,*5A
$PYRTM,2024,122.084725736123,13.194373146262
$GPGGA,020159.00,3313.9331,N,11838.2408,W,1,08,1.0,9.6,M,-34.7,M,,*5D
$PYRTM,2024,122.084737322859,13.194384732998
$GPGGA,020200.00,3313.9341,N,11838.2434,W,1,08,1.0,9.3,M,-34.7,M,,*5F
$PYRTM,2024,122.084748882257,13.194396292396
$GPGGA,020201.00,3313.9349,N,11838.2462,W,1,08,1.0,8.7,M,-34.7,M,,*50
$PYRTM,2024,122.084760470116,13.194407880255
$GPGGA,020202.00,3313.9354,N,11838.2485,W,1,08,1.0,8.5,M,-34.7,M,,*54
$PYRTM,2024,122.084772031528,13.194419441667
$GPGGA,020203.00,3313.9360,N,11838.2505,W,1,08,1.0,9.1,M,-34.7,M,,*5E
$PYRTM,2024,122.084779438171,13.194426848310
$GPGGA,020204.00,3313.9369,N,11838.2527,W,1,08,1.0,9.6,M,-34.7,M,,*57
$PYRTM,2024,122.084795180833,13.194442590972
$GPGGA,020205.00,3313.9380,N,11838.2552,W,1,08,1.0,9.4,M,-34.7,M,,*51
$PYRTM,2024,122.084802587731,13.194449997870
$GPGGA,020206.00,3313.9388,N,11838.2577,W,1,08,1.0,9.0,M,-34.7,M,,*59
$PYRTM,2024,122.084821222778,13.194468632928
$GPGGA,020207.00,3313.9392,N,11838.2601,W,1,08,1.0,9.0,M,-34.7,M,,*51
$PYRTM,2024,122.084829915278,13.194477325417
$GPGGA,020208.00,3313.9397,N,11838.2625,W,1,08,1.0,9.0,M,-34.7,M,,*5D
$PYRTM,2024,122.084841476759,13.194488886898
$GPGGA,020209.00,3313.9406,N,11838.2649,W,1,08,1.0,9.1,M,-34.7,M,,*58
$PYRTM,2024,122.084848882720,13.194496292859
$GPGGA,020210.00,3313.9416,N,11838.2672,W,1,08,1.0,9.2,M,-34.7,M,,*5A
$PYRTM,2024,122.084864625382,13.194512035521
$GPGGA,020211.00,3313.9425,N,11838.2696,W,1,08,1.0,9.4,M,-34.7,M,,*57
$PYRTM,2024,122.084876214132,13.194523624271
$GPGGA,020212.00,3313.9431,N,11838.2721,W,1,08,1.0,9.5,M,-34.7,M,,*5D
$PYRTM,2024,122.084887772361,13.194535182500
$GPGGA,020213.00,3313.9437,N,11838.2746,W,1,08,1.0,9.5,M,-34.7,M,,*5B
$PYRTM,2024,122.084899361505,13.194546771644
$GPGGA,020214.00,3313.9445,N,11838.2772,W,1,08,1.0,9.2,M,-34.7,M,,*59
$PYRTM,2024,122.084910921377,13.194558331516
$GPGGA,020215.00,3313.9454,N,11838.2794,W,1,08,1.0,9.1,M,-34.7,M,,*53
$PYRTM,2024,122.084922502917,13.194569913056
$GPGGA,020216.00,3313.9462,N,11838.2816,W,1,08,1.0,9.5,M,-34.7,M,,*54
$PYRTM,2024,122.084934072095,13.194581482234
$GPGGA,020217.00,3313.9469,N,11838.2840,W,1,08,1.0,9.8,M,-34.7,M,,*50
$PYRTM,2024,122.084945651701,13.194593061840
$GPGGA,020218.00,3313.9476,N,11838.2867,W,1,08,1.0,9.7,M,-34.7,M,,*5B
$PYRTM,2024,122.084957218056,13.194604628194
$GPGGA,020219.00,3313.9484,N,11838.2892,W,1,08,1.0,9.3,M,-34.7,M,,*59
$PYRTM,2024,122.084964625231,13.194612035370
$GPGGA,020220.00,3313.9492,N,11838.2916,W,1,08,1.0,9.3,M,-34.7,M,,*59
$PYRTM,2024,122.084980365822,13.194627775961
$GPGGA,020221.00,3313.9501,N,11838.2940,W,1,08,1.0,9.4,M,-34.7,M,,*57
$PYRTM,2024,122.084991952083,13.194639362234
$GPGGA,020222.00,3313.9509,N,11838.2965,W,1,08,1.0,9.5,M,-34.7,M,,*5A
$PYRTM,2024,122.085003514942,13.194650925081
$GPGGA,020223.00,3313.9516,N,11838.2991,W,1,08,1.0,9.7,M,-34.7,M,,*5C
$PYRTM,2024,122.085010921771,13.194658331910
$GPGGA,020224.00,3313.9524,N,11838.3016,W,1,08,1.0,9.9,M,-34.7,M,,*53
$PYRTM,2024,122.085026663762,13.194674073900
$GPGGA,020225.00,3313.9533,N,11838.3040,W,1,08,1.0,10.1,M,-34.7,M,,*67
$PYRTM,2024,122.085038253287,13.194685663426
$GPGGA,020226.00,3313.9543,N,11838.3065,W,1,08,1.0,10.1,M,-34.7,M,,*64
$PYRTM,2024,122.085049810359,13.194697220498
$GPGGA,020227.00,3313.9550,N,11838.3090,W,1,08,1.0,9.9,M,-34.7,M,,*5D
$PYRTM,2024,122.085061411921,13.194708822060
$GPGGA,020228.00,3313.9557,N,11838.3116,W,1,08,1.0,9.8,M,-34.7,M,,*5B
$PYRTM,2024,122.085072958461,13.194720368600
$GPGGA,020229.00,3313.9565,N,11838.3141,W,1,08,1.0,9.6,M,-34.7,M,,*57
$PYRTM,2024,122.085080367755,13.194727777894
$GPGGA,020230.00,3313.9574,N,11838.3165,W,1,08,1.0,9.4,M,-34.7,M,,*5B
$PYRTM,2024,122.085096110394,13.194743520544
$GPGGA,020231.00,3313.9583,N,11838.3189,W,1,08,1.0,9.5,M,-34.7,M,,*51
$PYRTM,2024,122.085107695023,13.194755105162
$GPGGA,020232.00,3313.9591,N,11838.3215,W,1,08,1.0,9.7,M,-34.7,M,,*55
$PYRTM,2024,122.085119256609,13.194766666759
$GPGGA,020233.00,3313.9598,N,11838.3243,W,1,08,1.0,9.6,M,-34.7,M,,*5F
$PYRTM,2024,122.085130842315,13.194778252465
$GPGGA,020234.00,3313.9607,N,11838.3268,W,1,08,1.0,9.6,M,-34.7,M,,*54
$PYRTM,2024,122.085142404734,13.194789814873
$GPGGA,020235.00,3313.9616,N,11838.3291,W,1,08,1.0,10.0,M,-34.7,M,,*6D
$PYRTM,2024,122.085153994931,13.194801405069
$GPGGA,020236.00,3313.9625,N,11838.3314,W,1,08,1.0,10.6,M,-34.7,M,,*64
$PYRTM,2024,122.085161386366,13.194808796516
$GPGGA,020237.00,3313.9633,N,11838.3340,W,1,08,1.0,10.8,M,-34.7,M,,*6D
$PYRTM,2024,122.085180033530,13.194827443669
$GPGGA,020238.00,3313.9641,N,11838.3368,W,1,08,1.0,10.2,M,-34.7,M,,*67
$PYRTM,2024,122.085188700856,13.194836110995
$GPGGA,020239.00,3313.9649,N,11838.3393,W,1,08,1.0,9.5,M,-34.7,M,,*55
$PYRTM,2024,122.085200290220,13.194847700359
$GPGGA,020240.00,3313.9658,N,11838.3416,W,1,08,1.0,9.4,M,-34.7,M,,*50
$PYRTM,2024,122.085211849514,13.194859259653
$GPGGA,020241.00,3313.9666,N,11838.3440,W,1,08,1.0,9.8,M,-34.7,M,,*53
$PYRTM,2024,122.085223437315,13.194870847465
$GPGGA,020242.00,3313.9676,N,11838.3466,W,1,08,1.0,10.1,M,-34.7,M,,*64
$PYRTM,2024,122.085230843738,13.194878253877
$GPGGA,020243.00,3313.9684,N,11838.3492,W,1,08,1.0,10.3,M,-34.7,M,,*61
$PYRTM,2024,122.085246579954,13.194893990093
$GPGGA,020244.00,3313.9693,N,11838.3518,W,1,08,1.0,10.3,M,-34.7,M,,*63
$PYRTM,2024,122.085258145382,13.194905555521
$GPGGA,020245.00,3313.9700,N,11838.3544,W,1,08,1.0,10.3,M,-34.7,M,,*60
$PYRTM,2024,122.085265553785,13.194912963935
$GPGGA,020246.00,3313.9708,N,11838.3569,W,1,08,1.0,10.3,M,-34.7,M,,*64
$PYRTM,2024,122.085281293611,13.194928703750
$GPGGA,020247.00,3313.9718,N,11838.3593,W,1,08,1.0,10.1,M,-34.7,M,,*63
$PYRTM,2024,122.085292882824,13.194940292963
$GPGGA,020248.00,3313.9728,N,11838.3618,W,1,08,1.0,9.9,M,-34.7,M,,*5F
$PYRTM,2024,122.085304442407,13.194951852546
$GPGGA,020249.00,3313.9736,N,11838.3643,W,1,08,1.0,10.0,M,-34.7,M,,*6E
$PYRTM,2024,122.085316024074,13.194963434213
$GPGGA,020250.00,3313.9744,N,11838.3669,W,1,08,1.0,10.1,M,-34.7,M,,*6A
$PYRTM,2024,122.085327592616,13.194975002755
$GPGGA,020251.00,3313.9752,N,11838.3694,W,1,08,1.0,10.3,M,-34.7,M,,*6C
$PYRTM,2024,122.085339172836,13.194986582975
$GPGGA,020252.00,3313.9761,N,11838.3721,W,1,08,1.0,10.1,M,-34.7,M,,*62
$PYRTM,2024,122.085350738981,13.194998149132
$GPGGA,020253.00,3313.9770,N,11838.3746,W,1,08,1.0,10.0,M,-34.7,M,,*63
$PYRTM,2024,122.085362331389,13.195009741528
$GPGGA,020254.00,3313.9779,N,11838.3770,W,1,08,1.0,10.2,M,-34.7,M,,*6A
$PYRTM,2024,122.085373887523,13.195021297662
$GPGGA,020255.00,3313.9787,N,11838.3794,W,1,08,1.0,10.5,M,-34.7,M,,*67
$PYRTM,2024,122.085381295023,13.195028705162
$GPGGA,020256.00,3313.9796,N,11838.3821,W,1,08,1.0,10.2,M,-34.7,M,,*62
$PYRTM,2024,122.085399931100,13.195047341238
$GPGGA,020257.00,3313.9805,N,11838.3849,W,1,08,1.0,9.6,M,-34.7,M,,*54
$PYRTM,2024,122.085408625220,13.195056035359
$GPGGA,020258.00,3313.9813,N,11838.3874,W,1,08,1.0,9.4,M,-34.7,M,,*50
$PYRTM,2024,122.085420184248,13.195067594387
$GPGGA,020259.00,3313.9821,N,11838.3895,W,1,08,1.0,9.9,M,-34.7,M,,*52
$PYRTM,2024,122.085431771100,13.195079181238
$GPGGA,020300.00,3313.9832,N,11838.3920,W,1,08,1.0,10.3,M,-34.7,M,,*60
$PYRTM,2024,122.085443332118,13.195090742257
$GPGGA,020301.00,3313.9841,N,11838.3949,W,1,08,1.0,9.9,M,-34.7,M,,*58
$PYRTM,2024,122.085454918808,13.195102328947
$GPGGA,020302.00,3313.9848,N,11838.3976,W,1,08,1.0,9.4,M,-34.7,M,,*53
$PYRTM,2024,122.085466479711,13.195113889850
$GPGGA,020303.00,3313.9855,N,11838.3998,W,1,08,1.0,9.6,M,-34.7,M,,*5C
$PYRTM,2024,122.085478068681,13.195125478819
$GPGGA,020304.00,3313.9864,N,11838.4019,W,1,08,1.0,10.1,M,-34.7,M,,*61
$PYRTM,2024,122.085489628495,13.195137038634
$GPGGA,020305.00,3313.9876,N,11838.4045,W,1,08,1.0,10.2,M,-34.7,M,,*69
$PYRTM,2024,122.085501214907,13.195148625046
$GPGGA,020306.00,3313.9885,N,11838.4073,W,1,08,1.0,9.7,M,-34.7,M,,*5E
$PYRTM,2024,122.085512777500,13.195160187639
$GPGGA,020307.00,3313.9891,N,11838.4098,W,1,08,1.0,9.5,M,-34.7,M,,*5D
$PYRTM,2024,122.085520183079,13.195167593218
$GPGGA,020308.00,3313.9897,N,11838.4120,W,1,08,1.0,10.0,M,-34.7,M,,*6B
$PYRTM,2024,122.085538819063,13.195186229213
$GPGGA,020309.00,3313.9907,N,11838.4143,W,1,08,1.0,10.4,M,-34.7,M,,*63
$PYRTM,2024,122.085547515868,13.195194926007
$GPGGA,020310.00,3313.9918,N,11838.4168,W,1,08,1.0,10.3,M,-34.7,M,,*6B
$PYRTM,2024,122.085559075775,13.195206485914
$GPGGA,020311.00,3313.9926,N,11838.4194,W,1,08,1.0,10.2,M,-34.7,M,,*65
$PYRTM,2024,122.085570659109,13.195218069248
$GPGGA,020312.00,3313.9932,N,11838.4218,W,1,08,1.0,10.3,M,-34.7,M,,*65
$PYRTM,2024,122.085582221505,13.195229631644
$GPGGA,020313.00,3313.9938,N,11838.4241,W,1,08,1.0,10.5,M,-34.7,M,,*64
$PYRTM,2024,122.085593811238,13.195241221377
$GPGGA,020314.00,3313.9947,N,11838.4266,W,1,08,1.0,10.5,M,-34.7,M,,*6E
$PYRTM,2024,122.085605370880,13.195252781019
$GPGGA,020315.00,3313.9957,N,11838.4292,W,1,08,1.0,10.2,M,-34.7,M,,*62
$PYRTM,2024,122.085612777326,13.195260187477
$GPGGA,020316.00,3313.9966,N,11838.4317,W,1,08,1.0,9.9,M,-34.7,M,,*5C
$PYRTM,2024,122.085624469190,13.195271879329
$GPGGA,020317.00,3313.9972,N,11838.4340,W,1,08,1.0,10.2,M,-34.7,M,,*69
$PYRTM,2024,122.085640106053,13.195287516192
$GPGGA,020318.00,3313.9978,N,11838.4364,W,1,08,1.0,10.6,M,-34.7,M,,*6E
$PYRTM,2024,122.085651666667,13.195299076806
$GPGGA,020319.00,3313.9987,N,11838.4391,W,1,08,1.0,10.5,M,-34.7,M,,*66
$PYRTM,2024,122.085659073646,13.195306483785
$GPGGA,020320.00,3313.9997,N,11838.4418,W,1,08,1.0,9.9,M,-34.7,M,,*5F
$PYRTM,2024,122.085674813935,13.195322224074
$GPGGA,020321.00,3314.0003,N,11838.4441,W,1,08,1.0,9.9,M,-34.7,M,,*58
$PYRTM,2024,122.085686397986,13.195333808125
$GPGGA,020322.00,3314.0010,N,11838.4463,W,1,08,1.0,10.4,M,-34.7,M,,*6C
$PYRTM,2024,122.085697964352,13.195345374491
$GPGGA,020323.00,3314.0019,N,11838.4488,W,1,08,1.0,10.8,M,-34.7,M,,*6D
$PYRTM,2024,122.085709553854,13.195356963993
$GPGGA,020324.00,3314.0027,N,11838.4514,W,1,08,1.0,10.8,M,-34.7,M,,*63
$PYRTM,2024,122.085721113773,13.195368523912
$GPGGA,020325.00,3314.0036,N,11838.4540,W,1,08,1.0,10.5,M,-34.7,M,,*6E
$PYRTM,2024,122.085732701667,13.195380111806
$GPGGA,020326.00,3314.0044,N,11838.4564,W,1,08,1.0,10.3,M,-34.7,M,,*68
$PYRTM,2024,122.085744262176,13.195391672315
$GPGGA,020327.00,3314.0052,N,11838.4588,W,1,08,1.0,10.3,M,-34.7,M,,*6C
$PYRTM,2024,122.085751668113,13.195399078252
$GPGGA,020328.00,3314.0060,N,11838.4614,W,1,08,1.0,10.2,M,-34.7,M,,*65
$PYRTM,2024,122.085767412037,13.195414822176
$GPGGA,020329.00,3314.0069,N,11838.4639,W,1,07,1.3,10.1,M,-34.7,M,,*6D
$PYRTM,2024,122.085774817535,13.195422227674
$GPGGA,020330.00,3314.0078,N,11838.4665,W,1,08,1.0,10.2,M,-34.7,M,,*63
$PYRTM,2024,122.085790557477,13.195437967616
$GPGGA,020331.00,3314.0085,N,11838.4690,W,1,08,1.0,10.2,M,-34.7,M,,*6A
$PYRTM,2024,122.085802144977,13.195449555116
$GPGGA,020332.00,3314.0092,N,11838.4714,W,1,08,1.0,10.5,M,-34.7,M,,*65
$PYRTM,2024,122.085813705949,13.195461116088
$GPGGA,020333.00,3314.0100,N,11838.4740,W,1,08,1.0,10.3,M,-34.7,M,,*69
$PYRTM,2024,122.085825292627,13.195472702766
$GPGGA,020334.00,3314.0109,N,11838.4767,W,1,08,1.0,9.7,M,-34.7,M,,*5E
$PYRTM,2024,122.085836854063,13.195484264201
$GPGGA,020335.00,3314.0117,N,11838.4792,W,1,08,1.0,9.5,M,-34.7,M,,*58
$PYRTM,2024,122.085848443495,13.195495853634
$GPGGA,020336.00,3314.0125,N,11838.4814,W,1,08,1.0,9.8,M,-34.7,M,,*56
$PYRTM,2024,122.085860002211,13.195507412361
$GPGGA,020337.00,3314.0133,N,11838.4839,W,1,08,1.0,10.1,M,-34.7,M,,*6E
$PYRTM,2024,122.085871593218,13.195519003368
$GPGGA,020338.00,3314.0143,N,11838.4866,W,1,08,1.0,9.8,M,-34.7,M,,*5D
$PYRTM,2024,122.085878983264,13.195526393403
$GPGGA,020339.00,3314.0150,N,11838.4891,W,1,08,1.0,9.4,M,-34.7,M,,*5A
$PYRTM,2024,122.085897634722,13.195545044861
$GPGGA,020340.00,3314.0157,N,11838.4915,W,1,08,1.0,9.5,M,-34.7,M,,*5F
$PYRTM,2024,122.085906298669,13.195553708808
$GPGGA,020341.00,3314.0164,N,11838.4939,W,1,08,1.0,9.8,M,-34.7,M,,*5D
$PYRTM,2024,122.085917890718,13.195565300856
$GPGGA,020342.00,3314.0173,N,11838.4965,W,1,08,1.0,9.9,M,-34.7,M,,*50
$PYRTM,2024,122.085929449595,13.195576859734
$GPGGA,020343.00,3314.0182,N,11838.4991,W,1,08,1.0,9.7,M,-34.7,M,,*5A
$PYRTM,2024,122.085941029109,13.195588439248
$GPGGA,020344.00,3314.0190,N,11838.5015,W,1,08,1.0,9.7,M,-34.7,M,,*5A
$PYRTM,2024,122.085952596817,13.195600006956
$GPGGA,020345.00,3314.0197,N,11838.5040,W,1,08,1.0,9.7,M,-34.7,M,,*5C
$PYRTM,2024,122.085964183657,13.195611593808
$GPGGA,020346.00,3314.0205,N,11838.5066,W,1,08,1.0,9.5,M,-34.7,M,,*51
$PYRTM,2024,122.085975744884,13.195623155035
$GPGGA,020347.00,3314.0213,N,11838.5092,W,1,08,1.0,9.3,M,-34.7,M,,*5A
$PYRTM,2024,122.085987330706,13.195634740845
$GPGGA,020348.00,3314.0221,N,11838.5117,W,1,08,1.0,9.3,M,-34.7,M,,*58
$PYRTM,2024,122.085998893171,13.195646303310
$GPGGA,020349.00,3314.0229,N,11838.5141,W,1,07,1.3,9.6,M,-34.7,M,,*5B
$PYRTM,2024,122.086006196262,13.195653606412
$GPGGA,020350.00,3314.0239,N,11838.5166,W,1,08,1.0,9.8,M,-34.7,M,,*55
$PYRTM,2024,122.086022040243,13.195669450382
$GPGGA,020351.00,3314.0247,N,11838.5193,W,1,08,1.0,9.5,M,-34.7,M,,*5A
$PYRTM,2024,122.086033643727,13.195681053866
$GPGGA,020352.00,3314.0254,N,11838.5220,W,1,08,1.0,9.1,M,-34.7,M,,*54
$PYRTM,2024,122.086041023275,13.195688433426
$GPGGA,020353.00,3314.0262,N,11838.5246,W,1,08,1.0,9.0,M,-34.7,M,,*51
$PYRTM,2024,122.086056779005,13.195704189144
$GPGGA,020354.00,3314.0272,N,11838.5270,W,1,08,1.0,9.1,M,-34.7,M,,*53
$PYRTM,2024,122.086068337326,13.195715747465
$GPGGA,020355.00,3314.0282,N,11838.5295,W,1,08,1.0,9.2,M,-34.7,M,,*55
$PYRTM,2024,122.086079926123,13.195727336262
$GPGGA,020356.00,3314.0291,N,11838.5321,W,1,08,1.0,9.3,M,-34.7,M,,*5B
$PYRTM,2024,122.086091485637,13.195738895775
$GPGGA,020357.00,3314.0299,N,11838.5348,W,1,07,1.3,9.3,M,-34.7,M,,*51
$PYRTM,2024,122.086103072025,13.195750482176
$GPGGA,020358.00,3314.0308,N,11838.5374,W,1,07,1.3,9.1,M,-34.7,M,,*5A
$PYRTM,2024,122.086114634363,13.195762044502
$GPGGA,020359.00,3314.0317,N,11838.5400,W,1,07,1.3,8.9,M,-34.7,M,,*58
$PYRTM,2024,122.086122041331,13.195769451470
$GPGGA,020400.00,3314.0325,N,11838.5425,W,1,07,1.3,8.9,M,-34.7,M,,*55
$PYRTM,2024,122.086137783194,13.195785193333
$GPGGA,020401.00,3314.0333,N,11838.5450,W,1,07,1.3,8.9,M,-34.7,M,,*51
$PYRTM,2024,122.086149365590,13.195796775729
$GPGGA,020402.00,3314.0341,N,11838.5476,W,1,07,1.3,8.7,M,-34.7,M,,*5D
$PYRTM,2024,122.086156763715,13.195804173854
$GPGGA,020403.00,3314.0349,N,11838.5503,W,1,07,1.3,8.5,M,-34.7,M,,*55
$PYRTM,2024,122.086172520729,13.195819930868
$GPGGA,020404.00,3314.0357,N,11838.5528,W,1,07,1.3,8.4,M,-34.7,M,,*55
$PYRTM,2024,122.086184078900,13.195831489039
$GPGGA,020405.00,3314.0366,N,11838.5553,W,1,07,1.3,8.4,M,-34.7,M,,*5A
$PYRTM,2024,122.086191487060,13.195838897199
$GPGGA,020406.00,3314.0375,N,11838.5581,W,1,07,1.3,8.1,M,-34.7,M,,*51
$PYRTM,2024,122.086207226551,13.195854636690
$GPGGA,020407.00,3314.0384,N,11838.5609,W,1,07,1.3,7.8,M,-34.7,M,,*5B
$PYRTM,2024,122.086218818009,13.195866228148
$GPGGA,020408.00,3314.0392,N,11838.5633,W,1,07,1.3,8.0,M,-34.7,M,,*5D
$PYRTM,2024,122.086226094433,13.195873504572
$GPGGA,020409.00,3314.0399,N,11838.5656,W,1,07,1.3,8.5,M,-34.7,M,,*51
$PYRTM,2024,122.086237898750,13.195885308889
$GPGGA,020410.00,3314.0409,N,11838.5684,W,1,07,1.3,8.6,M,-34.7,M,,*5B
$PYRTM,2024,122.086256417118,13.195903827257
$GPGGA,020411.00,3314.0419,N,11838.5711,W,1,07,1.3,8.3,M,-34.7,M,,*53
$PYRTM,2024,122.086265111412,13.195912521551
$GPGGA,020412.00,3314.0426,N,11838.5735,W,1,07,1.3,8.2,M,-34.7,M,,*5B
$PYRTM,2024,122.086276672106,13.195924082245
$GPGGA,020413.00,3314.0433,N,11838.5758,W,1,07,1.3,8.4,M,-34.7,M,,*53
$PYRTM,2024,122.086288259873,13.195935670012
$GPGGA,020414.00,3314.0441,N,11838.5784,W,1,07,1.3,8.3,M,-34.7,M,,*57
$PYRTM,2024,122.086299820463,13.195947230602
$GPGGA,020415.00,3314.0451,N,11838.5811,W,1,07,1.3,7.8,M,-34.7,M,,*50
$PYRTM,2024,122.086311409653,13.195958819792
$GPGGA,020416.00,3314.0459,N,11838.5836,W,1,07,1.3,7.4,M,-34.7,M,,*52
$PYRTM,2024,122.086322967917,13.195970378056
$GPGGA,020417.00,3314.0466,N,11838.5860,W,1,07,1.3,7.5,M,-34.7,M,,*5D
$PYRTM,2024,122.086334549861,13.195981960000
$GPGGA,020418.00,3314.0474,N,11838.5887,W,1,07,1.3,7.6,M,-34.7,M,,*5B
$PYRTM,2024,122.086341836725,13.195989246863
$GPGGA,020419.00,3314.0482,N,11838.5913,W,1,07,1.3,7.7,M,-34.7,M,,*5E
$PYRTM,2024,122.086357706505,13.196005116644
$GPGGA,020420.00,3314.0490,N,11838.5937,W,1,07,1.3,7.9,M,-34.7,M,,*5F
$PYRTM,2024,122.086369265729,13.196016675880
$GPGGA,020421.00,3314.0498,N,11838.5960,W,1,07,1.3,8.5,M,-34.7,M,,*57
$PYRTM,2024,122.086380855231,13.196028265370
$GPGGA,020422.00,3314.0507,N,11838.5986,W,1,07,1.3,8.8,M,-34.7,M,,*56
$PYRTM,2024,122.086392414016,13.196039824155
$GPGGA,020423.00,3314.0516,N,11838.6013,W,1,07,1.3,8.3,M,-34.7,M,,*5A
$PYRTM,2024,122.086404000440,13.196051410579
$GPGGA,020424.00,3314.0523,N,11838.6039,W,1,07,1.3,7.8,M,-34.7,M,,*57
$PYRTM,2024,122.086415562315,13.196062972454
$GPGGA,020425.00,3314.0530,N,11838.6061,W,1,07,1.3,7.8,M,-34.7,M,,*59
$PYRTM,2024,122.086422852847,13.196070262986
$GPGGA,020426.00,3314.0540,N,11838.6086,W,1,07,1.3,7.9,M,-34.7,M,,*55
$PYRTM,2024,122.086438710359,13.196086120498
$GPGGA,020427.00,3314.0550,N,11838.6113,W,1,07,1.3,7.9,M,-34.7,M,,*58
$PYRTM,2024,122.086450292350,13.196097702488
$GPGGA,020428.00,3314.0557,N,11838.6138,W,1,07,1.3,8.0,M,-34.7,M,,*5F
$PYRTM,2024,122.086457592014,13.196105002153
$GPGGA,020429.00,3314.0563,N,11838.6164,W,1,07,1.3,8.2,M,-34.7,M,,*52
$PYRTM,2024,122.086473445694,13.196120855845
$GPGGA,020430.00,3314.0572,N,11838.6190,W,1,07,1.3,8.2,M,-34.7,M,,*51
$PYRTM,2024,122.086485006273,13.196132416412
$GPGGA,020431.00,3314.0580,N,11838.6216,W,1,07,1.3,8.0,M,-34.7,M,,*52
$PYRTM,2024,122.086492299225,13.196139709363
$GPGGA,020432.00,3314.0588,N,11838.6241,W,1,07,1.3,7.9,M,-34.7,M,,*5D
$PYRTM,2024,122.086508154479,13.196155564618
$GPGGA,020433.00,3314.0596,N,11838.6265,W,1,07,1.3,8.2,M,-34.7,M,,*51
$PYRTM,2024,122.086519742002,13.196167152153
$GPGGA,020434.00,3314.0604,N,11838.6289,W,1,07,1.3,8.3,M,-34.7,M,,*5D
$PYRTM,2024,122.086531303657,13.196178713796
$GPGGA,020435.00,3314.0612,N,11838.6317,W,1,07,1.3,8.0,M,-34.7,M,,*5E
$PYRTM,2024,122.086542904757,13.196190314896
$GPGGA,020436.00,3314.0620,N,11838.6345,W,1,07,1.3,7.5,M,-34.7,M,,*51
$PYRTM,2024,122.086554452558,13.196201862697
$GPGGA,020437.00,3314.0627,N,11838.6367,W,1,07,1.3,7.6,M,-34.7,M,,*54
$PYRTM,2024,122.086566042998,13.196213453137
$GPGGA,020438.00,3314.0637,N,11838.6389,W,1,07,1.3,8.1,M,-34.7,M,,*52
$PYRTM,2024,122.086573325150,13.196220735289
$GPGGA,020439.00,3314.0647,N,11838.6416,W,1,07,1.3,8.0,M,-34.7,M,,*54
$PYRTM,2024,122.086589182176,13.196236592315
$GPGGA,020440.00,3314.0655,N,11838.6444,W,1,07,1.3,7.7,M,-34.7,M,,*56
$PYRTM,2024,122.086596482245,13.196243892396
$GPGGA,020441.00,3314.0662,N,11838.6470,W,1,07,1.3,7.4,M,-34.7,M,,*57
$PYRTM,2024,122.086615223715,13.196262633854
$GPGGA,020442.00,3314.0669,N,11838.6492,W,1,07,1.3,7.7,M,-34.7,M,,*50
$PYRTM,2024,122.086623900035,13.196271310185
$GPGGA,020443.00,3314.0679,N,11838.6515,W,1,07,1.3,8.1,M,-34.7,M,,*57
$PYRTM,2024,122.086635484005,13.196282894144
$GPGGA,020444.00,3314.0689,N,11838.6541,W,1,07,1.3,8.0,M,-34.7,M,,*5F
$PYRTM,2024,122.086647045926,13.196294456065
$GPGGA,020445.00,3314.0698,N,11838.6567,W,1,07,1.3,7.6,M,-34.7,M,,*53
$PYRTM,2024,122.086658637512,13.196306047650
$GPGGA,020446.00,3314.0704,N,11838.6591,W,1,07,1.3,7.5,M,-34.7,M,,*5E
$PYRTM,2024,122.086670192234,13.196317602373
$GPGGA,020447.00,3314.0711,N,11838.6616,W,1,07,1.3,7.5,M,-34.7,M,,*57
$PYRTM,2024,122.086681783819,13.196329193970
$GPGGA,020448.00,3314.0721,N,11838.6642,W,1,07,1.3,7.2,M,-34.7,M,,*5D
$PYRTM,2024,122.086689175197,13.196336585336
$GPGGA,020449.00,3314.0731,N,11838.6667,W,1,07,1.3,7.3,M,-34.7,M,,*5B
$PYRTM,2024,122.086704932176,13.196352342326
$GPGGA,020450.00,3314.0739,N,11838.6691,W,1,07,1.3,7.7,M,-34.7,M,,*56
$PYRTM,2024,122.086716491076,13.196363901215
$GPGGA,020451.00,3314.0746,N,11838.6715,W,1,07,1.3,8.2,M,-34.7,M,,*58
$PYRTM,2024,122.086728090683,13.196375500822
$GPGGA,020452.00,3314.0754,N,11838.6740,W,1,07,1.3,8.7,M,-34.7,M,,*5D
$PYRTM,2024,122.086739638125,13.196387048264
$GPGGA,020453.00,3314.0763,N,11838.6766,W,1,07,1.3,8.9,M,-34.7,M,,*52
$PYRTM,2024,122.086751227164,13.196398637315
$GPGGA,020454.00,3314.0773,N,11838.6792,W,1,07,1.3,8.4,M,-34.7,M,,*52
$PYRTM,2024,122.086758517025,13.196405927164
$GPGGA,020455.00,3314.0781,N,11838.6815,W,1,07,1.3,8.2,M,-34.7,M,,*58
$PYRTM,2024,122.086774370556,13.196421780694
$GPGGA,020456.00,3314.0789,N,11838.6838,W,1,07,1.3,8.5,M,-34.7,M,,*5B
$PYRTM,2024,122.086785935139,13.196433345278
$GPGGA,020457.00,3314.0797,N,11838.6864,W,1,07,1.3,8.8,M,-34.7,M,,*51
$PYRTM,2024,122.086797522731,13.196444932882
$GPGGA,020458.00,3314.0807,N,11838.6891,W,1,07,1.3,8.9,M,-34.7,M,,*53
$PYRTM,2024,122.086809083345,13.196456493484
$GPGGA,020459.00,3314.0815,N,11838.6916,W,1,07,1.3,8.6,M,-34.7,M,,*50
$PYRTM,2024,122.086820671748,13.196468081887
$GPGGA,020500.00,3314.0823,N,11838.6941,W,1,07,1.3,8.3,M,-34.7,M,,*5F
$PYRTM,2024,122.086832231586,13.196479641725
$GPGGA,020501.00,3314.0832,N,11838.6965,W,1,07,1.3,8.2,M,-34.7,M,,*59
$PYRTM,2024,122.086843813368,13.196491223507
$GPGGA,020502.00,3314.0842,N,11838.6991,W,1,07,1.3,8.1,M,-34.7,M,,*55
$PYRTM,2024,122.086855379769,13.196502789907
$GPGGA,020503.00,3314.0851,N,11838.7018,W,1,07,1.3,8.2,M,-34.7,M,,*5C
$PYRTM,2024,122.086862671875,13.196510082014
$GPGGA,020504.00,3314.0858,N,11838.7043,W,1,07,1.3,8.0,M,-34.7,M,,*5E
$PYRTM,2024,122.086881421875,13.196528832025
$GPGGA,020505.00,3314.0866,N,11838.7069,W,1,07,1.3,7.8,M,-34.7,M,,*5D
$PYRTM,2024,122.086890117650,13.196537527789
$GPGGA,020506.00,3314.0876,N,11838.7094,W,1,07,1.3,7.7,M,-34.7,M,,*52
$PYRTM,2024,122.086901676412,13.196549086551
$GPGGA,020507.00,3314.0884,N,11838.7118,W,1,07,1.3,7.8,M,-34.7,M,,*54
$PYRTM,2024,122.086913263322,13.196560673461
$GPGGA,020508.00,3314.0891,N,11838.7142,W,1,07,1.3,7.8,M,-34.7,M,,*50
$PYRTM,2024,122.086924824664,13.196572234815
$GPGGA,020509.00,3314.0899,N,11838.7169,W,1,07,1.3,7.7,M,-34.7,M,,*5F
$PYRTM,2024,122.086936414433,13.196583824572
$GPGGA,020510.00,3314.0908,N,11838.7197,W,1,07,1.3,7.3,M,-34.7,M,,*5B
$PYRTM,2024,122.086947972720,13.196595382859
$GPGGA,020511.00,3314.0916,N,11838.7221,W,1,07,1.3,7.4,M,-34.7,M,,*5C
$PYRTM,2024,122.086955265845,13.196602675995
$GPGGA,020512.00,3314.0926,N,11838.7245,W,1,07,1.3,7.6,M,-34.7,M,,*5C
$PYRTM,2024,122.086973901632,13.196621311771
$GPGGA,020513.00,3314.0936,N,11838.7271,W,1,07,1.3,7.5,M,-34.7,M,,*58
$PYRTM,2024,122.086982708264,13.196630118403
$GPGGA,020514.00,3314.0943,N,11838.7297,W,1,07,1.3,7.6,M,-34.7,M,,*56
$PYRTM,2024,122.086994270694,13.196641680833
$GPGGA,020515.00,3314.0949,N,11838.7322,W,1,07,1.3,7.7,M,-34.7,M,,*53
$PYRTM,2024,122.087005856701,13.196653266840
$GPGGA,020516.00,3314.0956,N,11838.7348,W,1,07,1.3,7.7,M,-34.7,M,,*52
$PYRTM,2024,122.087017418206,13.196664828345
$GPGGA,020517.00,3314.0964,N,11838.7371,W,1,07,1.3,8.1,M,-34.7,M,,*51
$PYRTM,2024,122.087029008866,13.196676419005
$GPGGA,020518.00,3314.0975,N,11838.7394,W,1,07,1.3,8.2,M,-34.7,M,,*56
$PYRTM,2024,122.087040567141,13.196687977280
$GPGGA,020519.00,3314.0985,N,11838.7421,W,1,07,1.3,7.7,M,-34.7,M,,*5B
$PYRTM,2024,122.087052156771,13.196699566910
$GPGGA,020520.00,3314.0991,N,11838.7448,W,1,07,1.3,7.6,M,-34.7,M,,*5A
$PYRTM,2024,122.087059445845,13.196706855995
$GPGGA,020521.00,3314.0996,N,11838.7472,W,1,07,1.3,7.8,M,-34.7,M,,*5B
$PYRTM,2024,122.087075305671,13.196722715810
$GPGGA,020522.00,3314.1003,N,11838.7497,W,1,07,1.3,8.0,M,-34.7,M,,*50
$PYRTM,2024,122.087086862801,13.196734272940
$GPGGA,020523.00,3314.1014,N,11838.7524,W,1,07,1.3,7.5,M,-34.7,M,,*54
$PYRTM,2024,122.087098449826,13.196745859965
$GPGGA,020524.00,3314.1024,N,11838.7549,W,1,07,1.3,7.2,M,-34.7,M,,*5C
$PYRTM,2024,122.087110011863,13.196757422002
$GPGGA,020525.00,3314.1031,N,11838.7572,W,1,07,1.3,7.7,M,-34.7,M,,*54
$PYRTM,2024,122.087121593692,13.196769003831
$GPGGA,020526.00,3314.1037,N,11838.7597,W,1,07,1.3,7.9,M,-34.7,M,,*54
$PYRTM,2024,122.087133161944,13.196780572083
$GPGGA,020527.00,3314.1046,N,11838.7624,W,1,07,1.3,7.6,M,-34.7,M,,*57
$PYRTM,2024,122.087144747488,13.196792157639
$GPGGA,020528.00,3314.1054,N,11838.7650,W,1,07,1.3,7.4,M,-34.7,M,,*5A
$PYRTM,2024,122.087156309375,13.196803719525
$GPGGA,020529.00,3314.1062,N,11838.7673,W,1,07,1.3,7.3,M,-34.7,M,,*58
$PYRTM,2024,122.087167896215,13.196815306354
$GPGGA,020530.00,3314.1070,N,11838.7697,W,1,07,1.3,7.3,M,-34.7,M,,*59
$PYRTM,2024,122.087175174248,13.196822584387
$GPGGA,020531.00,3314.1079,N,11838.7723,W,1,07,1.3,6.9,M,-34.7,M,,*54
$PYRTM,2024,122.087191046215,13.196838456354
$GPGGA,020532.00,3314.1087,N,11838.7749,W,1,07,1.3,6.6,M,-34.7,M,,*55
$PYRTM,2024,122.087202604178,13.196850014317
$GPGGA,020533.00,3314.1095,N,11838.7773,W,1,07,1.3,6.9,M,-34.7,M,,*51
$PYRTM,2024,122.087214194769,13.196861604907
$GPGGA,020534.00,3314.1103,N,11838.7798,W,1,07,1.3,7.3,M,-34.7,M,,*56
$PYRTM,2024,122.087225754259,13.196873164398
$GPGGA,020535.00,3314.1111,N,11838.7824,W,1,07,1.3,7.4,M,-34.7,M,,*5B
$PYRTM,2024,122.087233046042,13.196880456181
$GPGGA,020536.00,3314.1119,N,11838.7850,W,1,07,1.3,7.3,M,-34.7,M,,*54
$PYRTM,2024,122.087248901817,13.196896311956
$GPGGA,020537.00,3314.1126,N,11838.7873,W,1,07,1.3,7.3,M,-34.7,M,,*58
$PYRTM,2024,122.087260489757,13.196907899896
$GPGGA,020538.00,3314.1135,N,11838.7896,W,1,07,1.3,7.6,M,-34.7,M,,*5B
$PYRTM,2024,122.087272056725,13.196919466863
$GPGGA,020539.00,3314.1144,N,11838.7922,W,1,07,1.3,7.6,M,-34.7,M,,*52
$PYRTM,2024,122.087279348461,13.196926758600
$GPGGA,020540.00,3314.1154,N,11838.7950,W,1,07,1.3,7.1,M,-34.7,M,,*5F
$PYRTM,2024,122.087291161053,13.196938571192
$GPGGA,020541.00,3314.1161,N,11838.7975,W,1,07,1.3,6.8,M,-34.7,M,,*57
$PYRTM,2024,122.087306792164,13.196954202303
$GPGGA,020542.00,3314.1167,N,11838.7997,W,1,07,1.3,7.0,M,-34.7,M,,*57
$PYRTM,2024,122.087314064502,13.196961474641
$GPGGA,020543.00,3314.1176,N,11838.8022,W,1,07,1.3,7.3,M,-34.7,M,,*5D
$PYRTM,2024,122.087332706204,13.196980116354
$GPGGA,020544.00,3314.1187,N,11838.8049,W,1,07,1.3,7.0,M,-34.7,M,,*5A
$PYRTM,2024,122.087341500637,13.196988910775
$GPGGA,020545.00,3314.1195,N,11838.8075,W,1,07,1.3,6.6,M,-34.7,M,,*50
$PYRTM,2024,122.087353081736,13.197000491875
$GPGGA,020546.00,3314.1201,N,11838.8098,W,1,07,1.3,7.0,M,-34.7,M,,*59
$PYRTM,2024,122.087364642373,13.197012052512
$GPGGA,020547.00,3314.1208,N,11838.8122,W,1,07,1.3,7.4,M,-34.7,M,,*55
$PYRTM,2024,122.087376248345,13.197023658484
$GPGGA,020548.00,3314.1218,N,11838.8147,W,1,07,1.3,7.3,M,-34.7,M,,*5F
$PYRTM,2024,122.087387791516,13.197035201667
$GPGGA,020549.00,3314.1229,N,11838.8173,W,1,07,1.3,6.2,M,-34.7,M,,*5B
$PYRTM,2024,122.087399382488,13.197046792627
$GPGGA,020550.00,3314.1238,N,11838.8199,W,1,07,1.3,5.6,M,-34.7,M,,*50
$PYRTM,2024,122.087410945810,13.197058355961
$GPGGA,020551.00,3314.1243,N,11838.8223,W,1,07,1.3,5.9,M,-34.7,M,,*50
$PYRTM,2024,122.087422530671,13.197069940810
$GPGGA,020552.00,3314.1250,N,11838.8245,W,1,07,1.3,6.6,M,-34.7,M,,*5D
$PYRTM,2024,122.087434088924,13.197081499074
$GPGGA,020553.00,3314.1259,N,11838.8268,W,1,07,1.3,7.4,M,-34.7,M,,*59
$PYRTM,2024,122.087441380116,13.197088790255
$GPGGA,020554.00,3314.1270,N,11838.8296,W,1,07,1.3,7.4,M,-34.7,M,,*54
$PYRTM,2024,122.087457236551,13.197104646690
$GPGGA,020555.00,3314.1278,N,11838.8324,W,1,07,1.3,6.6,M,-34.7,M,,*56
$PYRTM,2024,122.087464528900,13.197111939039
$GPGGA,020556.00,3314.1284,N,11838.8348,W,1,07,1.3,6.4,M,-34.7,M,,*5E
$PYRTM,2024,122.087476333889,13.197123744028
$GPGGA,020557.00,3314.1290,N,11838.8368,W,1,07,1.3,7.1,M,-34.7,M,,*5C
$PYRTM,2024,122.087491971505,13.197139381644
$GPGGA,020558.00,3314.1299,N,11838.8390,W,1,07,1.3,8.0,M,-34.7,M,,*53
$PYRTM,2024,122.087503532917,13.197150943056
$GPGGA,020559.00,3314.1310,N,11838.8417,W,1,07,1.3,7.9,M,-34.7,M,,*5C
$PYRTM,2024,122.087515120000,13.197162530139
$GPGGA,020600.00,3314.1320,N,11838.8446,W,1,07,1.3,7.2,M,-34.7,M,,*5F
$PYRTM,2024,122.087526680961,13.197174091100
$GPGGA,020601.00,3314.1327,N,11838.8470,W,1,07,1.3,7.1,M,-34.7,M,,*5F
$PYRTM,2024,122.087538270347,13.197185680486
$GPGGA,020602.00,3314.1335,N,11838.8490,W,1,07,1.3,7.6,M,-34.7,M,,*56
$PYRTM,2024,122.087549829826,13.197197239965
$GPGGA,020603.00,3314.1344,N,11838.8513,W,1,07,1.3,8.0,M,-34.7,M,,*52
$PYRTM,2024,122.087561419016,13.197208829155
$GPGGA,020604.00,3314.1354,N,11838.8538,W,1,07,1.3,8.3,M,-34.7,M,,*5E
$PYRTM,2024,122.087572977731,13.197220387870
$GPGGA,020605.00,3314.1363,N,11838.8564,W,1,07,1.3,8.1,M,-34.7,M,,*50
$PYRTM,2024,122.087584564005,13.197231974144
$GPGGA,020606.00,3314.1370,N,11838.8589,W,1,07,1.3,7.9,M,-34.7,M,,*55
$PYRTM,2024,122.087596125116,13.197243535255
$GPGGA,020607.00,3314.1376,N,11838.8612,W,1,07,1.3,8.0,M,-34.7,M,,*55
$PYRTM,2024,122.087603418252,13.197250828391
$GPGGA,020608.00,3314.1384,N,11838.8635,W,1,07,1.3,8.2,M,-34.7,M,,*50
$PYRTM,2024,122.087619273044,13.197266683183
$GPGGA,020609.00,3314.1394,N,11838.8660,W,1,07,1.3,8.2,M,-34.7,M,,*50
$PYRTM,2024,122.087630861238,13.197278271377
$GPGGA,020610.00,3314.1404,N,11838.8686,W,1,07,1.3,7.8,M,-34.7,M,,*5B
$PYRTM,2024,122.087642423461,13.197289833600
$GPGGA,020611.00,3314.1411,N,11838.8711,W,1,07,1.3,7.5,M,-34.7,M,,*5C
$PYRTM,2024,122.087649714051,13.197297124190
$GPGGA,020612.00,3314.1417,N,11838.8734,W,1,07,1.3,7.7,M,-34.7,M,,*5C
$PYRTM,2024,122.087661519294,13.197308929433
$GPGGA,020613.00,3314.1424,N,11838.8759,W,1,07,1.3,7.9,M,-34.7,M,,*58
$PYRTM,2024,122.087673091458,13.197320501597
$GPGGA,020614.00,3314.1433,N,11838.8785,W,1,07,1.3,7.8,M,-34.7,M,,*59
$PYRTM,2024,122.087691497141,13.197338907280
$GPGGA,020615.00,3314.1441,N,11838.8810,W,1,07,1.3,7.8,M,-34.7,M,,*5E
$PYRTM,2024,122.087700308264,13.197347718403
$GPGGA,020616.00,3314.1448,N,11838.8833,W,1,07,1.3,8.2,M,-34.7,M,,*50
$PYRTM,2024,122.087711867350,13.197359277488
$GPGGA,020617.00,3314.1457,N,11838.8857,W,1,07,1.3,8.5,M,-34.7,M,,*5A
$PYRTM,2024,122.087723457269,13.197370867407
$GPGGA,020618.00,3314.1465,N,11838.8883,W,1,07,1.3,8.3,M,-34.7,M,,*5B
$PYRTM,2024,122.087735015694,13.197382425833
$GPGGA,020619.00,3314.1471,N,11838.8910,W,1,07,1.3,8.0,M,-34.7,M,,*57
$PYRTM,2024,122.087746608773,13.197394018912
$GPGGA,020620.00,3314.1478,N,11838.8933,W,1,07,1.3,8.1,M,-34.7,M,,*54
$PYRTM,2024,122.087758163692,13.197405573831
$GPGGA,020621.00,3314.1487,N,11838.8956,W,1,07,1.3,8.3,M,-34.7,M,,*54
$PYRTM,2024,122.087769752326,13.197417162465
$GPGGA,020622.00,3314.1497,N,11838.8983,W,1,07,1.3,8.0,M,-34.7,M,,*5D
$PYRTM,2024,122.087777043646,13.197424453785
$GPGGA,020623.00,3314.1506,N,11838.9010,W,1,07,1.3,7.8,M,-34.7,M,,*50
$PYRTM,2024,122.087792894595,13.197440304745
$GPGGA,020624.00,3314.1511,N,11838.9035,W,1,07,1.3,8.1,M,-34.7,M,,*50
$PYRTM,2024,122.087804465220,13.197451875359
$GPGGA,020625.00,3314.1517,N,11838.9059,W,1,07,1.3,8.6,M,-34.7,M,,*5A
$PYRTM,2024,122.087811753009,13.197459163148
$GPGGA,020626.00,3314.1526,N,11838.9084,W,1,07,1.3,9.0,M,-34.7,M,,*5C
$PYRTM,2024,122.087827610405,13.197475020544
$GPGGA,020627.00,3314.1536,N,11838.9109,W,1,07,1.3,8.7,M,-34.7,M,,*5E
$PYRTM,2024,122.087839200046,13.197486610185
$GPGGA,020628.00,3314.1544,N,11838.9135,W,1,07,1.3,8.3,M,-34.7,M,,*5F
$PYRTM,2024,122.087850756979,13.197498167118
$GPGGA,020629.00,3314.1550,N,11838.9160,W,1,07,1.3,8.1,M,-34.7,M,,*59
$PYRTM,2024,122.087862345359,13.197509755509
$GPGGA,020630.00,3314.1555,N,11838.9185,W,1,07,1.3,8.3,M,-34.7,M,,*5D
$PYRTM,2024,122.087873905312,13.197521315451
$GPGGA,020631.00,3314.1563,N,11838.9210,W,1,07,1.3,8.5,M,-34.7,M,,*50
$PYRTM,2024,122.087885497836,13.197532907975
$GPGGA,020632.00,3314.1573,N,11838.9236,W,1,07,1.3,8.6,M,-34.7,M,,*55
$PYRTM,2024,122.087897054433,13.197544464583
$GPGGA,020633.00,3314.1581,N,11838.9261,W,1,07,1.3,8.9,M,-34.7,M,,*54
$PYRTM,2024,122.087908655498,13.197556065648
$GPGGA,020634.00,3314.1589,N,11838.9286,W,1,07,1.3,9.1,M,-34.7,M,,*5B
$PYRTM,2024,122.087920203160,13.197567613299
$GPGGA,020635.00,3314.1596,N,11838.9312,W,1,07,1.3,9.0,M,-34.7,M,,*59
$PYRTM,2024,122.087931790324,13.197579200463
$GPGGA,020636.00,3314.1603,N,11838.9336,W,1,07,1.3,9.0,M,-34.7,M,,*53
$PYRTM,2024,122.087943349954,13.197590760093
$GPGGA,020637.00,3314.1611,N,11838.9360,W,1,07,1.3,8.9,M,-34.7,M,,*5A
$PYRTM,2024,122.087954940833,13.197602350984
$GPGGA,020638.00,3314.1620,N,11838.9387,W,1,07,1.3,8.5,M,-34.7,M,,*52
$PYRTM,2024,122.087966497639,13.197613907778
$GPGGA,020639.00,3314.1628,N,11838.9414,W,1,07,1.3,8.2,M,-34.7,M,,*51
$PYRTM,2024,122.087978086227,13.197625496366
$GPGGA,020640.00,3314.1634,N,11838.9438,W,1,07,1.3,8.3,M,-34.7,M,,*5D
$PYRTM,2024,122.087989648148,13.197637058287
$GPGGA,020641.00,3314.1641,N,11838.9462,W,1,07,1.3,8.8,M,-34.7,M,,*5A
$PYRTM,2024,122.088001234491,13.197648644630
$GPGGA,020642.00,3314.1651,N,11838.9488,W,1,07,1.3,9.0,M,-34.7,M,,*55
$PYRTM,2024,122.088012797025,13.197660207164
$GPGGA,020643.00,3314.1660,N,11838.9513,W,1,07,1.3,8.7,M,-34.7,M,,*53
$PYRTM,2024,122.088024383912,13.197671794051
$GPGGA,020644.00,3314.1665,N,11838.9539,W,1,07,1.3,8.5,M,-34.7,M,,*5B
$PYRTM,2024,122.088031661516,13.197679071655
$GPGGA,020645.00,3314.1671,N,11838.9565,W,1,07,1.3,8.3,M,-34.7,M,,*50
$PYRTM,2024,122.088050308773,13.197697718912
$GPGGA,020646.00,3314.1678,N,11838.9589,W,1,07,1.3,8.4,M,-34.7,M,,*5F
$PYRTM,2024,122.088059091968,13.197706502106
$GPGGA,020647.00,3314.1688,N,11838.9611,W,1,07,1.3,8.7,M,-34.7,M,,*50
$PYRTM,2024,122.088070681701,13.197718091840
$GPGGA,020648.00,3314.1698,N,11838.9637,W,1,07,1.3,8.7,M,-34.7,M,,*5A
$PYRTM,2024,122.088077967766,13.197725377905
$GPGGA,020649.00,3314.1706,N,11838.9665,W,1,07,1.3,8.3,M,-34.7,M,,*5E
$PYRTM,2024,122.088093829120,13.197741239259
$GPGGA,020650.00,3314.1710,N,11838.9690,W,1,07,1.3,8.3,M,-34.7,M,,*5B
$PYRTM,2024,122.088105389120,13.197752799271
$GPGGA,020651.00,3314.1717,N,11838.9713,W,1,07,1.3,8.7,M,-34.7,M,,*53
$PYRTM,2024,122.088116971759,13.197764381898
$GPGGA,020652.00,3314.1726,N,11838.9738,W,1,07,1.3,9.1,M,-34.7,M,,*5C
$PYRTM,2024,122.088128538113,13.197775948252
$GPGGA,020653.00,3314.1737,N,11838.9763,W,1,07,1.3,9.0,M,-34.7,M,,*52
$PYRTM,2024,122.088140124606,13.197787534745
$GPGGA,020654.00,3314.1746,N,11838.9789,W,1,07,1.3,8.5,M,-34.7,M,,*53
$PYRTM,2024,122.088151686227,13.197799096366
$GPGGA,020655.00,3314.1751,N,11838.9814,W,1,07,1.3,8.5,M,-34.7,M,,*5F
$PYRTM,2024,122.088159092882,13.197806503021
$GPGGA,020656.00,3314.1756,N,11838.9840,W,1,07,1.3,8.6,M,-34.7,M,,*59
$PYRTM,2024,122.088174835116,13.197822245255
$GPGGA,020657.00,3314.1764,N,11838.9866,W,1,07,1.3,8.6,M,-34.7,M,,*5D
$PYRTM,2024,122.088186421667,13.197833831806
$GPGGA,020658.00,3314.1774,N,11838.9891,W,1,07,1.3,8.6,M,-34.7,M,,*5B
$PYRTM,2024,122.088197982801,13.197845392928
$GPGGA,020659.00,3314.1783,N,11838.9915,W,1,07,1.3,9.0,M,-34.7,M,,*58
$PYRTM,2024,122.088209571701,13.197856981840
$GPGGA,020700.00,3314.1788,N,11838.9940,W,1,07,1.3,9.5,M,-34.7,M,,*5B
$PYRTM,2024,122.088221131644,13.197868541782
$GPGGA,020701.00,3314.1793,N,11838.9968,W,1,07,1.3,9.6,M,-34.7,M,,*59
$PYRTM,2024,122.088232721944,13.197880132095
$GPGGA,020702.00,3314.1800,N,11838.9995,W,1,07,1.3,9.2,M,-34.7,M,,*59
$PYRTM,2024,122.088244279456,13.197891689595
$GPGGA,020703.00,3314.1809,N,11839.0020,W,1,07,1.3,8.8,M,-34.7,M,,*55
$PYRTM,2024,122.088255869352,13.197903279491
$GPGGA,020704.00,3314.1818,N,11839.0043,W,1,07,1.3,8.9,M,-34.7,M,,*56
$PYRTM,2024,122.088267426863,13.197914837002
$GPGGA,020705.00,3314.1825,N,11839.0067,W,1,07,1.3,9.3,M,-34.7,M,,*54
$PYRTM,2024,122.088274719479,13.197922129618
$GPGGA,020706.00,3314.1831,N,11839.0096,W,1,07,1.3,9.4,M,-34.7,M,,*5B
$PYRTM,2024,122.088290576157,13.197937986296
$GPGGA,020707.00,3314.1840,N,11839.0125,W,1,07,1.3,8.9,M,-34.7,M,,*59
$PYRTM,2024,122.088302162928,13.197949573067
$GPGGA,020708.00,3314.1849,N,11839.0148,W,1,07,1.3,8.8,M,-34.7,M,,*55
$PYRTM,2024,122.088313725544,13.197961135683
$GPGGA,020709.00,3314.1857,N,11839.0168,W,1,07,1.3,9.4,M,-34.7,M,,*54
$PYRTM,2024,122.088325305764,13.197972715903
$GPGGA,020710.00,3314.1865,N,11839.0192,W,1,07,1.3,9.7,M,-34.7,M,,*5B
$PYRTM,2024,122.088332593183,13.197980003322
$GPGGA,020711.00,3314.1874,N,11839.0222,W,1,07,1.3,9.0,M,-34.7,M,,*55
$PYRTM,2024,122.088351236725,13.197998646875
$GPGGA,020712.00,3314.1882,N,11839.0249,W,1,07,1.3,8.2,M,-34.7,M,,*51
$PYRTM,2024,122.088360020405,13.198007430544
$GPGGA,020713.00,3314.1889,N,11839.0270,W,1,07,1.3,8.2,M,-34.7,M,,*51
$PYRTM,2024,122.088371608044,13.198019018183
$GPGGA,020714.00,3314.1896,N,11839.0292,W,1,07,1.3,8.8,M,-34.7,M,,*5E
$PYRTM,2024,122.088383169039,13.198030579190
$GPGGA,020715.00,3314.1905,N,11839.0318,W,1,07,1.3,9.0,M,-34.7,M,,*5E
$PYRTM,2024,122.088390460463,13.198037870602
$GPGGA,020716.00,3314.1914,N,11839.0345,W,1,07,1.3,8.9,M,-34.7,M,,*5D
$PYRTM,2024,122.088409094919,13.198056505058
$GPGGA,020717.00,3314.1921,N,11839.0369,W,1,07,1.3,8.8,M,-34.7,M,,*55
$PYRTM,2024,122.088417907546,13.198065317685
$GPGGA,020718.00,3314.1929,N,11839.0392,W,1,07,1.3,8.7,M,-34.7,M,,*59
$PYRTM,2024,122.088425183542,13.198072593681
$GPGGA,020719.00,3314.1937,N,11839.0417,W,1,07,1.3,8.5,M,-34.7,M,,*5F
$PYRTM,2024,122.088441052778,13.198088462917
$GPGGA,020720.00,3314.1946,N,11839.0440,W,1,07,1.3,8.6,M,-34.7,M,,*52
$PYRTM,2024,122.088452615185,13.198100025324
$GPGGA,020721.00,3314.1955,N,11839.0465,W,1,07,1.3,8.6,M,-34.7,M,,*56
$PYRTM,2024,122.088464204421,13.198111614560
$GPGGA,020722.00,3314.1964,N,11839.0492,W,1,07,1.3,8.3,M,-34.7,M,,*5A
$PYRTM,2024,122.088475762106,13.198123172245
$GPGGA,020723.00,3314.1970,N,11839.0517,W,1,07,1.3,8.2,M,-34.7,M,,*53
$PYRTM,2024,122.088487345810,13.198134755949
$GPGGA,020724.00,3314.1978,N,11839.0538,W,1,07,1.3,8.6,M,-34.7,M,,*55
$PYRTM,2024,122.088498910590,13.198146320729
$GPGGA,020725.00,3314.1988,N,11839.0562,W,1,07,1.3,9.0,M,-34.7,M,,*53
$PYRTM,2024,122.088510492593,13.198157902731
$GPGGA,020726.00,3314.1998,N,11839.0588,W,1,07,1.3,8.8,M,-34.7,M,,*5C
$PYRTM,2024,122.088522058345,13.198169468484
$GPGGA,020727.00,3314.2005,N,11839.0613,W,1,07,1.3,8.6,M,-34.7,M,,*5C
$PYRTM,2024,122.088533647176,13.198181057315
$GPGGA,020728.00,3314.2010,N,11839.0636,W,1,07,1.3,8.7,M,-34.7,M,,*51
$PYRTM,2024,122.088540925104,13.198188335243
$GPGGA,020729.00,3314.2018,N,11839.0659,W,1,07,1.3,9.0,M,-34.7,M,,*57
$PYRTM,2024,122.088556796736,13.198204206887
$GPGGA,020730.00,3314.2028,N,11839.0685,W,1,07,1.3,9.0,M,-34.7,M,,*5D
$PYRTM,2024,122.088568355937,13.198215766076
$GPGGA,020731.00,3314.2037,N,11839.0710,W,1,07,1.3,8.7,M,-34.7,M,,*59
$PYRTM,2024,122.088579956979,13.198227367130
$GPGGA,020732.00,3314.2045,N,11839.0735,W,1,07,1.3,8.5,M,-34.7,M,,*5A
$PYRTM,2024,122.088591503843,13.198238913981
$GPGGA,020733.00,3314.2051,N,11839.0760,W,1,07,1.3,8.7,M,-34.7,M,,*5C
$PYRTM,2024,122.088603094201,13.198250504340
$GPGGA,020734.00,3314.2058,N,11839.0784,W,1,07,1.3,9.2,M,-34.7,M,,*5C
$PYRTM,2024,122.088614652141,13.198262062280
$GPGGA,020735.00,3314.2067,N,11839.0809,W,1,07,1.3,9.5,M,-34.7,M,,*5C
$PYRTM,2024,122.088626240694,13.198273650833
$GPGGA,020736.00,3314.2076,N,11839.0835,W,1,07,1.3,9.4,M,-34.7,M,,*51
$PYRTM,2024,122.088637800486,13.198285210625
$GPGGA,020737.00,3314.2084,N,11839.0861,W,1,07,1.3,9.2,M,-34.7,M,,*5A
$PYRTM,2024,122.088649387882,13.198296798021
$GPGGA,020738.00,3314.2091,N,11839.0885,W,1,07,1.3,9.3,M,-34.7,M,,*5A
$PYRTM,2024,122.088656667882,13.198304078021
$GPGGA,020739.00,3314.2098,N,11839.0909,W,1,07,1.3,9.5,M,-34.7,M,,*51
$PYRTM,2024,122.088672536007,13.198319946146
$GPGGA,020740.00,3314.2106,N,11839.0934,W,1,07,1.3,9.6,M,-34.7,M,,*54
$PYRTM,2024,122.088684097118,13.198331507269
$GPGGA,020741.00,3314.2115,N,11839.0960,W,1,07,1.3,9.3,M,-34.7,M,,*53
$PYRTM,2024,122.088691389248,13.198338799398
$GPGGA,020742.00,3314.2123,N,11839.0985,W,1,07,1.3,9.1,M,-34.7,M,,*5C
$PYRTM,2024,122.088703195289,13.198350605428
$GPGGA,020743.00,3314.2131,N,11839.1011,W,1,07,1.3,9.0,M,-34.7,M,,*5A
$PYRTM,2024,122.088718848137,13.198366258287
$GPGGA,020744.00,3314.2137,N,11839.1037,W,1,07,1.3,9.0,M,-34.7,M,,*5F
$PYRTM,2024,122.088730393125,13.198377803264
$GPGGA,020745.00,3314.2144,N,11839.1060,W,1,07,1.3,9.5,M,-34.7,M,,*5D
$PYRTM,2024,122.088741983738,13.198389393877
$GPGGA,020746.00,3314.2153,N,11839.1085,W,1,07,1.3,9.8,M,-34.7,M,,*5E
$PYRTM,2024,122.088749259421,13.198396669560
$GPGGA,020747.00,3314.2163,N,11839.1111,W,1,07,1.3,9.6,M,-34.7,M,,*5E
$PYRTM,2024,122.088767921250,13.198415331389
$GPGGA,020748.00,3314.2171,N,11839.1137,W,1,07,1.3,9.3,M,-34.7,M,,*53
$PYRTM,2024,122.088779468773,13.198426878912
$GPGGA,020749.00,3314.2176,N,11839.1161,W,1,07,1.3,9.5,M,-34.7,M,,*50
$PYRTM,2024,122.088791055671,13.198438465810
$GPGGA,020750.00,3314.2182,N,11839.1187,W,1,07,1.3,9.6,M,-34.7,M,,*58
$PYRTM,2024,122.088799838403,13.198447248542
$GPGGA,020751.00,3314.2191,N,11839.1213,W,1,07,1.3,9.5,M,-34.7,M,,*56
$PYRTM,2024,122.088807131250,13.198454541389
$GPGGA,020752.00,3314.2200,N,11839.1237,W,1,07,1.3,9.4,M,-34.7,M,,*59
$PYRTM,2024,122.088822986817,13.198470396956
$GPGGA,020753.00,3314.2208,N,11839.1262,W,1,07,1.3,9.5,M,-34.7,M,,*51
$PYRTM,2024,122.088834570116,13.198481980266
$GPGGA,020754.00,3314.2215,N,11839.1288,W,1,07,1.3,9.6,M,-34.7,M,,*5D
$PYRTM,2024,122.088846136134,13.198493546273
$GPGGA,020755.00,3314.2223,N,11839.1315,W,1,07,1.3,9.5,M,-34.7,M,,*5F
$PYRTM,2024,122.088857723275,13.198505133414
$GPGGA,020756.00,3314.2230,N,11839.1340,W,1,07,1.3,9.5,M,-34.7,M,,*5E
$PYRTM,2024,122.088869284340,13.198516694479
$GPGGA,020757.00,3314.2238,N,11839.1365,W,1,07,1.3,9.5,M,-34.7,M,,*50
$PYRTM,2024,122.088880871227,13.198528281366
$GPGGA,020758.00,3314.2246,N,11839.1391,W,1,07,1.3,9.5,M,-34.7,M,,*5D
$PYRTM,2024,122.088888150810,13.198535560961
$GPGGA,020759.00,3314.2254,N,11839.1418,W,1,07,1.3,9.4,M,-34.7,M,,*58
$PYRTM,2024,122.088904021782,13.198551431921
$GPGGA,020800.00,3314.2262,N,11839.1442,W,1,07,1.3,9.6,M,-34.7,M,,*53
$PYRTM,2024,122.088915581123,13.198562991262
$GPGGA,020801.00,3314.2268,N,11839.1466,W,1,07,1.3,9.9,M,-34.7,M,,*51
$PYRTM,2024,122.088922987975,13.198570398113
$GPGGA,020802.00,3314.2276,N,11839.1492,W,1,07,1.3,10.1,M,-34.7,M,,*66
$PYRTM,2024,122.088938729167,13.198586139306
$GPGGA,020803.00,3314.2284,N,11839.1519,W,1,07,1.3,9.9,M,-34.7,M,,*58
$PYRTM,2024,122.088950310972,13.198597721111
$GPGGA,020804.00,3314.2291,N,11839.1544,W,1,07,1.3,9.8,M,-34.7,M,,*52
$PYRTM,2024,122.088957722963,13.198605133102
$GPGGA,020805.00,3314.2297,N,11839.1568,W,1,07,1.3,10.1,M,-34.7,M,,*6A
$PYRTM,2024,122.088973467836,13.198620877975
$GPGGA,020806.00,3314.2305,N,11839.1592,W,1,07,1.3,10.6,M,-34.7,M,,*61
$PYRTM,2024,122.088985024954,13.198632435093
$GPGGA,020807.00,3314.2314,N,11839.1618,W,1,07,1.3,11.0,M,-34.7,M,,*66
$PYRTM,2024,122.088996607419,13.198644017558
$GPGGA,020808.00,3314.2323,N,11839.1646,W,1,07,1.3,11.0,M,-34.7,M,,*66
$PYRTM,2024,122.089008172940,13.198655583079
$GPGGA,020809.00,3314.2329,N,11839.1672,W,1,07,1.3,11.2,M,-34.7,M,,*68
$PYRTM,2024,122.089019756875,13.198667167025
$GPGGA,020810.00,3314.2336,N,11839.1695,W,1,07,1.3,11.4,M,-34.7,M,,*61
$PYRTM,2024,122.089031322187,13.198678732326
$GPGGA,020811.00,3314.2346,N,11839.1719,W,1,07,1.3,11.4,M,-34.7,M,,*62
$PYRTM,2024,122.089038729201,13.198686139340
$GPGGA,020812.00,3314.2357,N,11839.1747,W,1,07,1.3,11.0,M,-34.7,M,,*6E
$PYRTM,2024,122.089054470012,13.198701880150
$GPGGA,020813.00,3314.2363,N,11839.1772,W,1,07,1.3,10.7,M,-34.7,M,,*68
$PYRTM,2024,122.089066060069,13.198713470208
$GPGGA,020814.00,3314.2368,N,11839.1797,W,1,07,1.3,10.5,M,-34.7,M,,*6D
$PYRTM,2024,122.089077617998,13.198725028137
$GPGGA,020815.00,3314.2377,N,11839.1823,W,1,07,1.3,10.2,M,-34.7,M,,*65
$PYRTM,2024,122.089085025394,13.198732435532
$GPGGA,020816.00,3314.2386,N,11839.1848,W,1,07,1.3,10.3,M,-34.7,M,,*64
$PYRTM,2024,122.089100768530,13.198748178669
$GPGGA,020817.00,3314.2394,N,11839.1872,W,1,07,1.3,10.5,M,-34.7,M,,*69
$PYRTM,2024,122.089108175509,13.198755585660
$GPGGA,020818.00,3314.2400,N,11839.1897,W,1,07,1.3,11.0,M,-34.7,M,,*63
$PYRTM,2024,122.089126810347,13.198774220486
$GPGGA,020819.00,3314.2407,N,11839.1924,W,1,07,1.3,10.7,M,-34.7,M,,*6A
$PYRTM,2024,122.089135502106,13.198782912257
$GPGGA,020820.00,3314.2414,N,11839.1950,W,1,07,1.3,10.0,M,-34.7,M,,*66
$PYRTM,2024,122.089147064606,13.198794474745
$GPGGA,020821.00,3314.2421,N,11839.1974,W,1,07,1.3,9.8,M,-34.7,M,,*57
$PYRTM,2024,122.089154471250,13.198801881389
$GPGGA,020822.00,3314.2430,N,11839.1998,W,1,07,1.3,10.0,M,-34.7,M,,*66
$PYRTM,2024,122.089170211887,13.198817622025
$GPGGA,020823.00,3314.2438,N,11839.2024,W,1,07,1.3,10.0,M,-34.7,M,,*62
$PYRTM,2024,122.089181799225,13.198829209375
$GPGGA,020824.00,3314.2445,N,11839.2050,W,1,07,1.3,9.9,M,-34.7,M,,*5D
$PYRTM,2024,122.089189080660,13.198836490799
$GPGGA,020825.00,3314.2452,N,11839.2075,W,1,07,1.3,9.9,M,-34.7,M,,*5D
$PYRTM,2024,122.089204947269,13.198852357407
$GPGGA,020826.00,3314.2459,N,11839.2101,W,1,07,1.3,9.9,M,-34.7,M,,*57
$PYRTM,2024,122.089216509051,13.198863919190
$GPGGA,020827.00,3314.2467,N,11839.2127,W,1,07,1.3,9.7,M,-34.7,M,,*51
$PYRTM,2024,122.089228098056,13.198875508194
$GPGGA,020828.00,3314.2475,N,11839.2151,W,1,07,1.3,9.8,M,-34.7,M,,*53
$PYRTM,2024,122.089239657222,13.198887067361
$GPGGA,020829.00,3314.2483,N,11839.2174,W,1,07,1.3,10.2,M,-34.7,M,,*6E
$PYRTM,2024,122.089251247431,13.198898657569
$GPGGA,020830.00,3314.2491,N,11839.2199,W,1,07,1.3,10.5,M,-34.7,M,,*61
$PYRTM,2024,122.089262806134,13.198910216273
$GPGGA,020831.00,3314.2499,N,11839.2226,W,1,07,1.3,10.3,M,-34.7,M,,*69
$PYRTM,2024,122.089274392164,13.198921802303
$GPGGA,020832.00,3314.2505,N,11839.2252,W,1,07,1.3,10.0,M,-34.7,M,,*6E
$PYRTM,2024,122.089285953472,13.198933363611
$GPGGA,020833.00,3314.2513,N,11839.2277,W,1,07,1.3,9.8,M,-34.7,M,,*5F
$PYRTM,2024,122.089297541238,13.198944951377
$GPGGA,020834.00,3314.2521,N,11839.2300,W,1,07,1.3,9.9,M,-34.7,M,,*59
$PYRTM,2024,122.089309102708,13.198956512847
$GPGGA,020835.00,3314.2530,N,11839.2324,W,1,07,1.3,10.2,M,-34.7,M,,*6D
$PYRTM,2024,122.089320685394,13.198968095532
$GPGGA,020836.00,3314.2538,N,11839.2350,W,1,07,1.3,10.3,M,-34.7,M,,*64
$PYRTM,2024,122.089332250602,13.198979660741
$GPGGA,020837.00,3314.2544,N,11839.2376,W,1,07,1.3,10.4,M,-34.7,M,,*6D
$PYRTM,2024,122.089343837407,13.198991247546
$GPGGA,020838.00,3314.2550,N,11839.2401,W,1,07,1.3,10.6,M,-34.7,M,,*62
$PYRTM,2024,122.089355400220,13.199002810359
$GPGGA,020839.00,3314.2559,N,11839.2425,W,1,07,1.3,10.8,M,-34.7,M,,*62
