$PYRTM,2024,122.333337017187,13.442984427326
$GPGGA,075959.00,3329.9013,N,11932.5771,W,1,10,0.8,16.0,M,-34.9,M,,*68
$PYRTM,2024,122.333348563866,13.442995974005
$GPGGA,080000.00,3329.9021,N,11932.5802,W,1,10,0.8,15.1,M,-34.9,M,,*6F
$PYRTM,2024,122.333355972361,13.443003382500
$GPGGA,080001.00,3329.9024,N,11932.5828,W,1,10,0.8,14.5,M,-34.9,M,,*66
$PYRTM,2024,122.333374607465,13.443022017604
$GPGGA,080002.00,3329.9029,N,11932.5849,W,1,10,0.8,14.7,M,-34.9,M,,*6D
$PYRTM,2024,122.333386192824,13.443033602963
$GPGGA,080003.00,3329.9039,N,11932.5870,W,1,10,0.8,15.2,M,-34.9,M,,*63
$PYRTM,2024,122.333394860799,13.443042270937
$GPGGA,080004.00,3329.9052,N,11932.5895,W,1,10,0.8,14.9,M,-34.9,M,,*68
$PYRTM,2024,122.333406447593,13.443053857731
$GPGGA,080005.00,3329.9062,N,11932.5922,W,1,10,0.8,13.6,M,-34.9,M,,*6F
$PYRTM,2024,122.333418008484,13.443065418623
$GPGGA,080006.00,3329.9067,N,11932.5946,W,1,10,0.8,13.5,M,-34.9,M,,*68
$PYRTM,2024,122.333429596134,13.443077006273
$GPGGA,080007.00,3329.9073,N,11932.5969,W,1,10,0.8,14.1,M,-34.9,M,,*62
$PYRTM,2024,122.333441156343,13.443088566481
$GPGGA,080008.00,3329.9085,N,11932.5993,W,1,10,0.8,14.3,M,-34.9,M,,*63
$PYRTM,2024,122.333452743519,13.443100153657
$GPGGA,080009.00,3329.9097,N,11932.6019,W,1,10,0.8,14.0,M,-34.9,M,,*6A
$PYRTM,2024,122.333464304109,13.443111714248
$GPGGA,080010.00,3329.9105,N,11932.6042,W,1,10,0.8,14.2,M,-34.9,M,,*64
$PYRTM,2024,122.333475894896,13.443123305035
$GPGGA,080011.00,3329.9111,N,11932.6067,W,1,10,0.8,14.3,M,-34.9,M,,*66
$PYRTM,2024,122.333483287303,13.443130697442
$GPGGA,080012.00,3329.9118,N,11932.6094,W,1,10,0.8,14.1,M,-34.9,M,,*62
$PYRTM,2024,122.333499043530,13.443146453669
$GPGGA,080013.00,3329.9126,N,11932.6118,W,1,10,0.8,14.2,M,-34.9,M,,*68
$PYRTM,2024,122.333510603426,13.443158013576
$GPGGA,080014.00,3329.9135,N,11932.6140,W,1,10,0.8,14.6,M,-34.9,M,,*64
$PYRTM,2024,122.333522189421,13.443169599560
$GPGGA,080015.00,3329.9144,N,11932.6165,W,1,10,0.8,14.5,M,-34.9,M,,*67
$PYRTM,2024,122.333533750891,13.443181161030
$GPGGA,080016.00,3329.9151,N,11932.6194,W,1,10,0.8,14.2,M,-34.9,M,,*69
$PYRTM,2024,122.333545338553,13.443192748692
$GPGGA,080017.00,3329.9156,N,11932.6218,W,1,10,0.8,14.4,M,-34.9,M,,*6E
$PYRTM,2024,122.333556899965,13.443204310104
$GPGGA,080018.00,3329.9163,N,11932.6239,W,1,10,0.8,15.1,M,-34.9,M,,*60
$PYRTM,2024,122.333568486933,13.443215897072
$GPGGA,080019.00,3329.9171,N,11932.6265,W,1,10,0.8,15.3,M,-34.9,M,,*69
$PYRTM,2024,122.333575893981,13.443223304120
$GPGGA,080020.00,3329.9180,N,11932.6292,W,1,10,0.8,14.8,M,-34.9,M,,*6F
$PYRTM,2024,122.333594528449,13.443241938588
$GPGGA,080021.00,3329.9187,N,11932.6317,W,1,10,0.8,14.6,M,-34.9,M,,*6B
$PYRTM,2024,122.333606088414,13.443253498553
$GPGGA,080022.00,3329.9193,N,11932.6340,W,1,10,0.8,14.7,M,-34.9,M,,*6E
$PYRTM,2024,122.333617675602,13.443265085752
$GPGGA,080023.00,3329.9201,N,11932.6365,W,1,10,0.8,14.8,M,-34.9,M,,*6F
$PYRTM,2024,122.333626343738,13.443273753877
$GPGGA,080024.00,3329.9210,N,11932.6392,W,1,10,0.8,14.9,M,-34.9,M,,*61
$PYRTM,2024,122.333637931377,13.443285341516
$GPGGA,080025.00,3329.9218,N,11932.6416,W,1,10,0.8,15.3,M,-34.9,M,,*68
$PYRTM,2024,122.333649490787,13.443296900926
$GPGGA,080026.00,3329.9225,N,11932.6440,W,1,10,0.8,15.7,M,-34.9,M,,*62
$PYRTM,2024,122.333661082442,13.443308492581
$GPGGA,080027.00,3329.9234,N,11932.6465,W,1,10,0.8,15.9,M,-34.9,M,,*6A
$PYRTM,2024,122.333672639884,13.443320050023
$GPGGA,080028.00,3329.9243,N,11932.6491,W,1,10,0.8,15.5,M,-34.9,M,,*62
$PYRTM,2024,122.333684229954,13.443331640093
$GPGGA,080029.00,3329.9250,N,11932.6519,W,1,10,0.8,14.6,M,-34.9,M,,*62
$PYRTM,2024,122.333695788125,13.443343198264
$GPGGA,080030.00,3329.9257,N,11932.6544,W,1,10,0.8,14.6,M,-34.9,M,,*65
$PYRTM,2024,122.333707377060,13.443354787199
$GPGGA,080031.00,3329.9266,N,11932.6568,W,1,10,0.8,14.9,M,-34.9,M,,*67
$PYRTM,2024,122.333718937187,13.443366347326
$GPGGA,080032.00,3329.9276,N,11932.6595,W,1,10,0.8,14.8,M,-34.9,M,,*66
$PYRTM,2024,122.333726344329,13.443373754468
$GPGGA,080033.00,3329.9283,N,11932.6623,W,1,10,0.8,14.5,M,-34.9,M,,*6E
$PYRTM,2024,122.333738149630,13.443385559769
$GPGGA,080034.00,3329.9290,N,11932.6647,W,1,10,0.8,15.1,M,-34.9,M,,*6C
$PYRTM,2024,122.333749723912,13.443397134051
$GPGGA,080035.00,3329.9297,N,11932.6671,W,1,10,0.8,15.2,M,-34.9,M,,*6C
$PYRTM,2024,122.333765233773,13.443412643912
$GPGGA,080036.00,3329.9308,N,11932.6697,W,1,10,0.8,15.4,M,-34.9,M,,*66
$PYRTM,2024,122.333772641644,13.443420051782
$GPGGA,080037.00,3329.9319,N,11932.6722,W,1,10,0.8,15.0,M,-34.9,M,,*6C
$PYRTM,2024,122.333788382153,13.443435792292
$GPGGA,080038.00,3329.9328,N,11932.6746,W,1,10,0.8,14.7,M,-34.9,M,,*65
$PYRTM,2024,122.333799970197,13.443447380336
$GPGGA,080039.00,3329.9335,N,11932.6772,W,1,10,0.8,14.7,M,-34.9,M,,*6F
$PYRTM,2024,122.333811531620,13.443458941759
$GPGGA,080040.00,3329.9343,N,11932.6800,W,1,10,0.8,14.2,M,-34.9,M,,*6F
$PYRTM,2024,122.333823132280,13.443470542419
$GPGGA,080041.00,3329.9352,N,11932.6826,W,1,10,0.8,13.9,M,-34.9,M,,*66
$PYRTM,2024,122.333830512662,13.443477922801
$GPGGA,080042.00,3329.9361,N,11932.6848,W,1,10,0.8,14.3,M,-34.9,M,,*60
$PYRTM,2024,122.333842318403,13.443489728542
$GPGGA,080043.00,3329.9369,N,11932.6873,W,1,10,0.8,14.2,M,-34.9,M,,*60
$PYRTM,2024,122.333857827859,13.443505237998
$GPGGA,080044.00,3329.9375,N,11932.6903,W,1,10,0.8,14.1,M,-34.9,M,,*6F
$PYRTM,2024,122.333869417847,13.443516827986
$GPGGA,080045.00,3329.9384,N,11932.6931,W,1,10,0.8,13.9,M,-34.9,M,,*6E
$PYRTM,2024,122.333880975313,13.443528385451
$GPGGA,080046.00,3329.9395,N,11932.6953,W,1,10,0.8,13.7,M,-34.9,M,,*67
$PYRTM,2024,122.333892563310,13.443539973449
$GPGGA,080047.00,3329.9406,N,11932.6976,W,1,10,0.8,13.7,M,-34.9,M,,*6C
$PYRTM,2024,122.333899972118,13.443547382257
$GPGGA,080048.00,3329.9414,N,11932.7001,W,1,10,0.8,13.8,M,-34.9,M,,*67
$PYRTM,2024,122.333915711007,13.443563121146
$GPGGA,080049.00,3329.9420,N,11932.7029,W,1,10,0.8,13.8,M,-34.9,M,,*6B
$PYRTM,2024,122.333923106447,13.443570516586
$GPGGA,080050.00,3329.9428,N,11932.7060,W,1,10,0.8,13.0,M,-34.9,M,,*6E
$PYRTM,2024,122.333934909606,13.443582319745
$GPGGA,080051.00,3329.9437,N,11932.7085,W,1,10,0.8,12.9,M,-34.9,M,,*62
$PYRTM,2024,122.333953314537,13.443600724676
$GPGGA,080052.00,3329.9445,N,11932.7105,W,1,10,0.8,13.7,M,-34.9,M,,*62
$PYRTM,2024,122.333964902801,13.443612312940
$GPGGA,080053.00,3329.9454,N,11932.7131,W,1,10,0.8,14.3,M,-34.9,M,,*67
$PYRTM,2024,122.333976461412,13.443623871551
$GPGGA,080054.00,3329.9462,N,11932.7161,W,1,10,0.8,13.9,M,-34.9,M,,*6D
$PYRTM,2024,122.333985169236,13.443632579375
$GPGGA,080055.00,3329.9470,N,11932.7189,W,1,10,0.8,13.0,M,-34.9,M,,*60
$PYRTM,2024,122.333992549375,13.443639959514
$GPGGA,080056.00,3329.9476,N,11932.7212,W,1,10,0.8,14.1,M,-34.9,M,,*62
$PYRTM,2024,122.334008306690,13.443655716829
$GPGGA,080057.00,3329.9483,N,11932.7234,W,1,10,0.8,14.5,M,-34.9,M,,*69
$PYRTM,2024,122.334019864306,13.443667274456
$GPGGA,080058.00,3329.9492,N,11932.7262,W,1,10,0.8,14.1,M,-34.9,M,,*61
$PYRTM,2024,122.334027272697,13.443674682836
$GPGGA,080059.00,3329.9502,N,11932.7290,W,1,10,0.8,12.9,M,-34.9,M,,*6B
$PYRTM,2024,122.334043015938,13.443690426076
$GPGGA,080100.00,3329.9510,N,11932.7312,W,1,10,0.8,13.1,M,-34.9,M,,*67
$PYRTM,2024,122.334054599444,13.443702009583
$GPGGA,080101.00,3329.9518,N,11932.7332,W,1,10,0.8,13.5,M,-34.9,M,,*68
$PYRTM,2024,122.334066161748,13.443713571887
$GPGGA,080102.00,3329.9528,N,11932.7358,W,1,10,0.8,13.5,M,-34.9,M,,*64
$PYRTM,2024,122.334077743171,13.443725153310
$GPGGA,080103.00,3329.9536,N,11932.7387,W,1,10,0.8,13.2,M,-34.9,M,,*6F
$PYRTM,2024,122.334089307928,13.443736718067
$GPGGA,080104.00,3329.9544,N,11932.7410,W,1,10,0.8,13.6,M,-34.9,M,,*60
$PYRTM,2024,122.334100895521,13.443748305660
$GPGGA,080105.00,3329.9553,N,11932.7431,W,1,10,0.8,14.2,M,-34.9,M,,*67
$PYRTM,2024,122.334112456933,13.443759867072
$GPGGA,080106.00,3329.9564,N,11932.7455,W,1,10,0.8,14.4,M,-34.9,M,,*64
$PYRTM,2024,122.334124046667,13.443771456806
$GPGGA,080107.00,3329.9573,N,11932.7485,W,1,10,0.8,13.5,M,-34.9,M,,*68
$PYRTM,2024,122.334131438796,13.443778848935
$GPGGA,080108.00,3329.9579,N,11932.7510,W,1,10,0.8,13.9,M,-34.9,M,,*6C
$PYRTM,2024,122.334147191412,13.443794601551
$GPGGA,080109.00,3329.9586,N,11932.7534,W,1,10,0.8,14.4,M,-34.9,M,,*61
$PYRTM,2024,122.334158754641,13.443806164780
$GPGGA,080110.00,3329.9596,N,11932.7561,W,1,10,0.8,14.7,M,-34.9,M,,*6B
$PYRTM,2024,122.334170354063,13.443817764201
$GPGGA,080111.00,3329.9605,N,11932.7590,W,1,10,0.8,14.3,M,-34.9,M,,*69
$PYRTM,2024,122.334181902199,13.443829312338
$GPGGA,080112.00,3329.9614,N,11932.7617,W,1,10,0.8,14.0,M,-34.9,M,,*65
$PYRTM,2024,122.334193494560,13.443840904699
$GPGGA,080113.00,3329.9622,N,11932.7640,W,1,10,0.8,14.2,M,-34.9,M,,*61
$PYRTM,2024,122.334205051250,13.443852461389
$GPGGA,080114.00,3329.9630,N,11932.7662,W,1,10,0.8,15.0,M,-34.9,M,,*66
$PYRTM,2024,122.334216747951,13.443864158090
$GPGGA,080115.00,3329.9640,N,11932.7686,W,1,10,0.8,15.5,M,-34.9,M,,*6F
$PYRTM,2024,122.334228314306,13.443875724444
$GPGGA,080116.00,3329.9649,N,11932.7715,W,1,10,0.8,14.3,M,-34.9,M,,*69
$PYRTM,2024,122.334239904606,13.443887314745
$GPGGA,080117.00,3329.9656,N,11932.7744,W,1,10,0.8,12.8,M,-34.9,M,,*6F
$PYRTM,2024,122.334251462731,13.443898872870
$GPGGA,080118.00,3329.9661,N,11932.7766,W,1,10,0.8,13.6,M,-34.9,M,,*6B
$PYRTM,2024,122.334263049375,13.443910459514
$GPGGA,080119.00,3329.9669,N,11932.7784,W,1,10,0.8,14.1,M,-34.9,M,,*6E
$PYRTM,2024,122.334274610799,13.443922020937
$GPGGA,080120.00,3329.9680,N,11932.7807,W,1,10,0.8,15.3,M,-34.9,M,,*64
$PYRTM,2024,122.334286199051,13.443933609201
$GPGGA,080121.00,3329.9690,N,11932.7835,W,1,10,0.8,14.6,M,-34.9,M,,*61
$PYRTM,2024,122.334300665185,13.443948075324
$GPGGA,080122.00,3329.9698,N,11932.7864,W,1,10,0.8,13.8,M,-34.9,M,,*67
$PYRTM,2024,122.334314658600,13.443962068738
$GPGGA,080123.00,3329.9704,N,11932.7888,W,1,10,0.8,13.4,M,-34.9,M,,*6C
$PYRTM,2024,122.334320792130,13.443968202269
$GPGGA,080124.00,3329.9712,N,11932.7910,W,1,10,0.8,13.7,M,-34.9,M,,*6F
$PYRTM,2024,122.334328198738,13.443975608877
$GPGGA,080125.00,3329.9721,N,11932.7934,W,1,10,0.8,13.8,M,-34.9,M,,*67
$PYRTM,2024,122.334343941065,13.443991351204
$GPGGA,080126.00,3329.9729,N,11932.7960,W,1,10,0.8,13.9,M,-34.9,M,,*6C
$PYRTM,2024,122.334355530718,13.444002940856
$GPGGA,080127.00,3329.9738,N,11932.7985,W,1,10,0.8,14.4,M,-34.9,M,,*6C
$PYRTM,2024,122.334362921875,13.444010332014
$GPGGA,080128.00,3329.9747,N,11932.8010,W,1,10,0.8,14.6,M,-34.9,M,,*63
$PYRTM,2024,122.334378678009,13.444026088148
$GPGGA,080129.00,3329.9756,N,11932.8038,W,1,10,0.8,13.6,M,-34.9,M,,*6F
$PYRTM,2024,122.334390238900,13.444037649039
$GPGGA,080130.00,3329.9763,N,11932.8064,W,1,10,0.8,12.8,M,-34.9,M,,*67
$PYRTM,2024,122.334401824398,13.444049234537
$GPGGA,080131.00,3329.9771,N,11932.8084,W,1,10,0.8,13.5,M,-34.9,M,,*67
$PYRTM,2024,122.334413385833,13.444060795972
$GPGGA,080132.00,3329.9781,N,11932.8103,W,1,10,0.8,13.9,M,-34.9,M,,*69
$PYRTM,2024,122.334424972407,13.444072382546
$GPGGA,080133.00,3329.9792,N,11932.8129,W,1,10,0.8,14.1,M,-34.9,M,,*6D
$PYRTM,2024,122.334436533623,13.444083943762
$GPGGA,080134.00,3329.9801,N,11932.8159,W,1,10,0.8,13.1,M,-34.9,M,,*6F
$PYRTM,2024,122.334448120833,13.444095530984
$GPGGA,080135.00,3329.9806,N,11932.8188,W,1,10,0.8,12.2,M,-34.9,M,,*67
$PYRTM,2024,122.334459682442,13.444107092581
$GPGGA,080136.00,3329.9812,N,11932.8211,W,1,10,0.8,12.2,M,-34.9,M,,*62
$PYRTM,2024,122.334471262569,13.444118672708
$GPGGA,080137.00,3329.9822,N,11932.8230,W,1,10,0.8,13.2,M,-34.9,M,,*62
$PYRTM,2024,122.334482835289,13.444130245440
$GPGGA,080138.00,3329.9834,N,11932.8254,W,1,10,0.8,14.1,M,-34.9,M,,*6C
$PYRTM,2024,122.334490237361,13.444137647512
$GPGGA,080139.00,3329.9841,N,11932.8285,W,1,09,0.8,14.1,M,-34.9,M,,*6B
$PYRTM,2024,122.334502042824,13.444149452963
$GPGGA,080140.00,3329.9843,N,11932.8317,W,1,09,0.8,13.4,M,-34.9,M,,*6F
$PYRTM,2024,122.334517569178,13.444164979329
$GPGGA,080141.00,3329.9845,N,11932.8344,W,1,09,0.8,13.2,M,-34.9,M,,*68
$PYRTM,2024,122.334529127350,13.444176537500
$GPGGA,080142.00,3329.9854,N,11932.8365,W,1,09,0.8,13.6,M,-34.9,M,,*6C
$PYRTM,2024,122.334540715127,13.444188125266
$GPGGA,080143.00,3329.9867,N,11932.8387,W,1,09,0.8,14.1,M,-34.9,M,,*61
$PYRTM,2024,122.334552275336,13.444199685475
$GPGGA,080144.00,3329.9876,N,11932.8413,W,1,09,0.8,13.9,M,-34.9,M,,*63
$PYRTM,2024,122.334563861528,13.444211271667
$GPGGA,080145.00,3329.9881,N,11932.8442,W,1,09,0.8,13.5,M,-34.9,M,,*62
$PYRTM,2024,122.334575423877,13.444222834016
$GPGGA,080146.00,3329.9887,N,11932.8468,W,1,09,0.8,13.7,M,-34.9,M,,*6D
$PYRTM,2024,122.334587005012,13.444234415150
$GPGGA,080147.00,3329.9895,N,11932.8491,W,1,09,0.8,14.4,M,-34.9,M,,*6D
$PYRTM,2024,122.334598572060,13.444245982211
$GPGGA,080148.00,3329.9905,N,11932.8513,W,1,09,0.8,15.2,M,-34.9,M,,*66
$PYRTM,2024,122.334610158519,13.444257568669
$GPGGA,080149.00,3329.9915,N,11932.8540,W,1,09,0.8,15.6,M,-34.9,M,,*64
$PYRTM,2024,122.334621720741,13.444269130880
$GPGGA,080150.00,3329.9922,N,11932.8570,W,1,09,0.8,13.5,M,-34.9,M,,*6E
$PYRTM,2024,122.334633310544,13.444280720683
$GPGGA,080151.00,3329.9928,N,11932.8596,W,1,09,0.8,12.1,M,-34.9,M,,*68
$PYRTM,2024,122.334640701181,13.444288111319
$GPGGA,080152.00,3329.9934,N,11932.8617,W,1,09,0.8,13.6,M,-34.9,M,,*6A
$PYRTM,2024,122.334652521632,13.444299931771
$GPGGA,080153.00,3329.9945,N,11932.8639,W,1,09,0.8,12.9,M,-34.9,M,,*6F
$PYRTM,2024,122.334670909606,13.444318319745
$GPGGA,080154.00,3329.9956,N,11932.8666,W,1,09,0.8,12.8,M,-34.9,M,,*61
$PYRTM,2024,122.334679606551,13.444327016701
$GPGGA,080155.00,3329.9966,N,11932.8693,W,1,09,0.8,12.3,M,-34.9,M,,*62
$PYRTM,2024,122.334691164641,13.444338574780
$GPGGA,080156.00,3329.9972,N,11932.8718,W,1,09,0.8,12.8,M,-34.9,M,,*6D
$PYRTM,2024,122.334702754097,13.444350164236
$GPGGA,080157.00,3329.9977,N,11932.8743,W,1,09,0.8,13.5,M,-34.9,M,,*6B
$PYRTM,2024,122.334714314294,13.444361724433
$GPGGA,080158.00,3329.9985,N,11932.8769,W,1,09,0.8,13.5,M,-34.9,M,,*61
$PYRTM,2024,122.334725899340,13.444373309479
$GPGGA,080159.00,3329.9995,N,11932.8792,W,1,09,0.8,13.3,M,-34.9,M,,*63
$PYRTM,2024,122.334737461331,13.444384871470
$GPGGA,080200.00,3330.0003,N,11932.8817,W,1,09,0.8,13.4,M,-34.9,M,,*6E
$PYRTM,2024,122.334744868426,13.444392278565
$GPGGA,080201.00,3330.0012,N,11932.8844,W,1,09,0.8,13.0,M,-34.9,M,,*6D
$PYRTM,2024,122.334760610810,13.444408020949
$GPGGA,080202.00,3330.0021,N,11932.8873,W,1,09,0.8,12.1,M,-34.9,M,,*6A
$PYRTM,2024,122.334772197454,13.444419607593
$GPGGA,080203.00,3330.0029,N,11932.8896,W,1,09,0.8,12.4,M,-34.9,M,,*6D
$PYRTM,2024,122.334779592338,13.444427002477
$GPGGA,080204.00,3330.0036,N,11932.8917,W,1,09,0.8,13.3,M,-34.9,M,,*6A
$PYRTM,2024,122.334791404062,13.444438814201
$GPGGA,080205.00,3330.0045,N,11932.8942,W,1,09,0.8,13.5,M,-34.9,M,,*69
$PYRTM,2024,122.334806907037,13.444454317176
$GPGGA,080206.00,3330.0055,N,11932.8973,W,1,09,0.8,12.1,M,-34.9,M,,*6C
$PYRTM,2024,122.334818487662,13.444465897801
$GPGGA,080207.00,3330.0062,N,11932.8998,W,1,09,0.8,11.2,M,-34.9,M,,*6C
$PYRTM,2024,122.334830054502,13.444477464641
$GPGGA,080208.00,3330.0068,N,11932.9013,W,1,09,0.8,11.9,M,-34.9,M,,*69
$PYRTM,2024,122.334841643808,13.444489054132
$GPGGA,080209.00,3330.0077,N,11932.9031,W,1,09,0.8,13.3,M,-34.9,M,,*6E
$PYRTM,2024,122.334853202153,13.444500612292
$GPGGA,080210.00,3330.0087,N,11932.9060,W,1,09,0.8,12.1,M,-34.9,M,,*6E
$PYRTM,2024,122.334864788738,13.444512198877
$GPGGA,080211.00,3330.0094,N,11932.9089,W,1,09,0.8,11.7,M,-34.9,M,,*6F
$PYRTM,2024,122.334872198241,13.444519608380
$GPGGA,080212.00,3330.0099,N,11932.9112,W,1,09,0.8,11.7,M,-34.9,M,,*62
$PYRTM,2024,122.334887940266,13.444535350417
$GPGGA,080213.00,3330.0106,N,11932.9133,W,1,09,0.8,12.5,M,-34.9,M,,*66
$PYRTM,2024,122.334899499155,13.444546909294
$GPGGA,080214.00,3330.0115,N,11932.9157,W,1,09,0.8,12.7,M,-34.9,M,,*63
$PYRTM,2024,122.334911080775,13.444558490914
$GPGGA,080215.00,3330.0122,N,11932.9182,W,1,09,0.8,13.1,M,-34.9,M,,*69
$PYRTM,2024,122.334918481979,13.444565892118
$GPGGA,080216.00,3330.0129,N,11932.9207,W,1,09,0.8,13.9,M,-34.9,M,,*67
$PYRTM,2024,122.334934234560,13.444581644699
$GPGGA,080217.00,3330.0136,N,11932.9231,W,1,09,0.8,14.4,M,-34.9,M,,*67
$PYRTM,2024,122.334945795440,13.444593205579
$GPGGA,080218.00,3330.0144,N,11932.9254,W,1,09,0.8,14.5,M,-34.9,M,,*6F
$PYRTM,2024,122.334957382917,13.444604793056
$GPGGA,080219.00,3330.0153,N,11932.9279,W,1,09,0.8,13.5,M,-34.9,M,,*60
$PYRTM,2024,122.334968943773,13.444616353912
$GPGGA,080220.00,3330.0160,N,11932.9304,W,1,09,0.8,12.9,M,-34.9,M,,*6C
$PYRTM,2024,122.334980530880,13.444627941019
$GPGGA,080221.00,3330.0166,N,11932.9328,W,1,09,0.8,12.7,M,-34.9,M,,*6B
$PYRTM,2024,122.334992092940,13.444639503079
$GPGGA,080222.00,3330.0174,N,11932.9355,W,1,09,0.8,11.8,M,-34.9,M,,*6D
$PYRTM,2024,122.335003682431,13.444651092569
$GPGGA,080223.00,3330.0186,N,11932.9379,W,1,09,0.8,11.0,M,-34.9,M,,*67
$PYRTM,2024,122.335011074225,13.444658484363
$GPGGA,080224.00,3330.0196,N,11932.9396,W,1,09,0.8,12.5,M,-34.9,M,,*66
$PYRTM,2024,122.335029723403,13.444677133542
$GPGGA,080225.00,3330.0204,N,11932.9417,W,1,09,0.8,13.7,M,-34.9,M,,*62
$PYRTM,2024,122.335041281481,13.444688691620
$GPGGA,080226.00,3330.0210,N,11932.9447,W,1,09,0.8,13.6,M,-34.9,M,,*60
$PYRTM,2024,122.335052872998,13.444700283137
$GPGGA,080227.00,3330.0214,N,11932.9478,W,1,09,0.8,12.8,M,-34.9,M,,*66
$PYRTM,2024,122.335061538669,13.444708948808
$GPGGA,080228.00,3330.0220,N,11932.9499,W,1,09,0.8,13.3,M,-34.9,M,,*6B
$PYRTM,2024,122.335073119572,13.444720529711
$GPGGA,080229.00,3330.0228,N,11932.9515,W,1,09,0.8,14.5,M,-34.9,M,,*66
$PYRTM,2024,122.335084686123,13.444732096262
$GPGGA,080230.00,3330.0239,N,11932.9537,W,1,09,0.8,14.5,M,-34.9,M,,*6E
$PYRTM,2024,122.335096268715,13.444743678854
$GPGGA,080231.00,3330.0246,N,11932.9567,W,1,09,0.8,13.3,M,-34.9,M,,*63
$PYRTM,2024,122.335107834329,13.444755244468
$GPGGA,080232.00,3330.0249,N,11932.9594,W,1,09,0.8,12.8,M,-34.9,M,,*69
$PYRTM,2024,122.335119420035,13.444766830174
$GPGGA,080233.00,3330.0254,N,11932.9616,W,1,09,0.8,12.9,M,-34.9,M,,*6C
$PYRTM,2024,122.335130983044,13.444778393183
$GPGGA,080234.00,3330.0265,N,11932.9639,W,1,09,0.8,13.5,M,-34.9,M,,*69
$PYRTM,2024,122.335142574028,13.444789984167
$GPGGA,080235.00,3330.0277,N,11932.9660,W,1,09,0.8,14.2,M,-34.9,M,,*67
$PYRTM,2024,122.335154131447,13.444801541597
$GPGGA,080236.00,3330.0286,N,11932.9682,W,1,09,0.8,15.0,M,-34.9,M,,*65
$PYRTM,2024,122.335165720220,13.444813130370
$GPGGA,080237.00,3330.0293,N,11932.9708,W,1,09,0.8,14.9,M,-34.9,M,,*6B
$PYRTM,2024,122.335173113461,13.444820523600
$GPGGA,080238.00,3330.0299,N,11932.9734,W,1,09,0.8,13.7,M,-34.9,M,,*68
$PYRTM,2024,122.335184917106,13.444832327245
$GPGGA,080239.00,3330.0306,N,11932.9757,W,1,09,0.8,12.6,M,-34.9,M,,*6B
$PYRTM,2024,122.335200426667,13.444847836817
$GPGGA,080240.00,3330.0314,N,11932.9774,W,1,09,0.8,12.8,M,-34.9,M,,*69
$PYRTM,2024,122.335212013993,13.444859424132
$GPGGA,080241.00,3330.0324,N,11932.9791,W,1,09,0.8,14.1,M,-34.9,M,,*6F
$PYRTM,2024,122.335223575428,13.444870985567
$GPGGA,080242.00,3330.0334,N,11932.9818,W,1,09,0.8,13.4,M,-34.9,M,,*61
$PYRTM,2024,122.335235161956,13.444882572095
$GPGGA,080243.00,3330.0341,N,11932.9852,W,1,09,0.8,11.5,M,-34.9,M,,*6F
$PYRTM,2024,122.335246725995,13.444894136146
$GPGGA,080244.00,3330.0344,N,11932.9879,W,1,09,0.8,10.9,M,-34.9,M,,*69
$PYRTM,2024,122.335254130961,13.444901541100
$GPGGA,080245.00,3330.0349,N,11932.9896,W,1,09,0.8,12.0,M,-34.9,M,,*6F
$PYRTM,2024,122.335269872419,13.444917282558
$GPGGA,080246.00,3330.0360,N,11932.9914,W,1,09,0.8,13.7,M,-34.9,M,,*6A
$PYRTM,2024,122.335281461019,13.444928871169
$GPGGA,080247.00,3330.0373,N,11932.9939,W,1,09,0.8,13.9,M,-34.9,M,,*68
$PYRTM,2024,122.335288853947,13.444936264086
$GPGGA,080248.00,3330.0380,N,11932.9967,W,1,09,0.8,13.5,M,-34.9,M,,*6C
$PYRTM,2024,122.335304601181,13.444952011331
$GPGGA,080249.00,3330.0384,N,11932.9991,W,1,09,0.8,13.6,M,-34.9,M,,*63
$PYRTM,2024,122.335312002882,13.444959413021
$GPGGA,080250.00,3330.0388,N,11933.0012,W,1,09,0.8,14.1,M,-34.9,M,,*6D
$PYRTM,2024,122.335327755162,13.444975165301
$GPGGA,080251.00,3330.0397,N,11933.0036,W,1,09,0.8,13.9,M,-34.9,M,,*6B
$PYRTM,2024,122.335339317014,13.444986727153
$GPGGA,080252.00,3330.0408,N,11933.0061,W,1,09,0.8,13.0,M,-34.9,M,,*62
$PYRTM,2024,122.335350916898,13.444998327049
$GPGGA,080253.00,3330.0416,N,11933.0082,W,1,09,0.8,12.4,M,-34.9,M,,*64
$PYRTM,2024,122.335362466400,13.445009876539
$GPGGA,080254.00,3330.0422,N,11933.0104,W,1,09,0.8,13.5,M,-34.9,M,,*6B
$PYRTM,2024,122.335369873067,13.445017283218
$GPGGA,080255.00,3330.0428,N,11933.0132,W,1,09,0.8,13.8,M,-34.9,M,,*68
$PYRTM,2024,122.335388506412,13.445035916562
$GPGGA,080256.00,3330.0435,N,11933.0159,W,1,09,0.8,13.4,M,-34.9,M,,*66
$PYRTM,2024,122.335400096563,13.445047506701
$GPGGA,080257.00,3330.0443,N,11933.0182,W,1,09,0.8,13.4,M,-34.9,M,,*60
$PYRTM,2024,122.335411652720,13.445059062859
$GPGGA,080258.00,3330.0451,N,11933.0202,W,1,09,0.8,14.2,M,-34.9,M,,*66
$PYRTM,2024,122.335423241447,13.445070651586
$GPGGA,080259.00,3330.0461,N,11933.0225,W,1,09,0.8,14.6,M,-34.9,M,,*65
$PYRTM,2024,122.335434802882,13.445082213021
$GPGGA,080300.00,3330.0470,N,11933.0252,W,1,09,0.8,12.3,M,-34.9,M,,*6B
$PYRTM,2024,122.335443497049,13.445090907187
$GPGGA,080301.00,3330.0476,N,11933.0276,W,1,09,0.8,11.6,M,-34.9,M,,*6C
$PYRTM,2024,122.335455057245,13.445102467396
$GPGGA,080302.00,3330.0481,N,11933.0294,W,1,09,0.8,12.5,M,-34.9,M,,*6B
$PYRTM,2024,122.335466643912,13.445114054051
$GPGGA,080303.00,3330.0490,N,11933.0313,W,1,09,0.8,13.3,M,-34.9,M,,*63
$PYRTM,2024,122.335478204815,13.445125614954
$GPGGA,080304.00,3330.0502,N,11933.0341,W,1,09,0.8,13.2,M,-34.9,M,,*68
$PYRTM,2024,122.335489806042,13.445137216181
$GPGGA,080305.00,3330.0511,N,11933.0367,W,1,09,0.8,12.2,M,-34.9,M,,*6E
$PYRTM,2024,122.335501355891,13.445148766030
$GPGGA,080306.00,3330.0515,N,11933.0390,W,1,09,0.8,12.1,M,-34.9,M,,*62
$PYRTM,2024,122.335512943252,13.445160353391
$GPGGA,080307.00,3330.0519,N,11933.0414,W,1,09,0.8,12.4,M,-34.9,M,,*61
$PYRTM,2024,122.335524502454,13.445171912581
$GPGGA,080308.00,3330.0526,N,11933.0440,W,1,09,0.8,12.5,M,-34.9,M,,*62
$PYRTM,2024,122.335536092037,13.445183502176
$GPGGA,080309.00,3330.0536,N,11933.0466,W,1,09,0.8,12.5,M,-34.9,M,,*66
$PYRTM,2024,122.335547650937,13.445195061076
$GPGGA,080310.00,3330.0546,N,11933.0488,W,1,09,0.8,13.0,M,-34.9,M,,*6D
$PYRTM,2024,122.335559238924,13.445206649063
$GPGGA,080311.00,3330.0552,N,11933.0508,W,1,09,0.8,13.9,M,-34.9,M,,*69
$PYRTM,2024,122.335570798507,13.445218208646
$GPGGA,080312.00,3330.0557,N,11933.0534,W,1,09,0.8,14.5,M,-34.9,M,,*6B
$PYRTM,2024,122.335582385602,13.445229795741
$GPGGA,080313.00,3330.0562,N,11933.0564,W,1,09,0.8,12.8,M,-34.9,M,,*62
$PYRTM,2024,122.335593947419,13.445241357558
$GPGGA,080314.00,3330.0571,N,11933.0590,W,1,09,0.8,11.5,M,-34.9,M,,*62
$PYRTM,2024,122.335601354583,13.445248764722
$GPGGA,080315.00,3330.0579,N,11933.0605,W,1,09,0.8,12.2,M,-34.9,M,,*60
$PYRTM,2024,122.335613161331,13.445260571470
$GPGGA,080316.00,3330.0587,N,11933.0621,W,1,09,0.8,13.9,M,-34.9,M,,*6E
$PYRTM,2024,122.335628679178,13.445276089317
$GPGGA,080317.00,3330.0597,N,11933.0648,W,1,09,0.8,14.1,M,-34.9,M,,*6E
$PYRTM,2024,122.335640244537,13.445287654676
$GPGGA,080318.00,3330.0602,N,11933.0679,W,1,09,0.8,13.4,M,-34.9,M,,*6E
$PYRTM,2024,122.335647651470,13.445295061620
$GPGGA,080319.00,3330.0607,N,11933.0703,W,1,09,0.8,13.5,M,-34.9,M,,*67
$PYRTM,2024,122.335663391690,13.445310801829
$GPGGA,080320.00,3330.0616,N,11933.0718,W,1,09,0.8,14.4,M,-34.9,M,,*61
$PYRTM,2024,122.335674985301,13.445322395440
$GPGGA,080321.00,3330.0628,N,11933.0738,W,1,09,0.8,14.7,M,-34.9,M,,*6C
$PYRTM,2024,122.335686657025,13.445334067164
$GPGGA,080322.00,3330.0639,N,11933.0763,W,1,09,0.8,14.0,M,-34.9,M,,*66
$PYRTM,2024,122.335698245880,13.445345656030
$GPGGA,080323.00,3330.0645,N,11933.0789,W,1,09,0.8,13.5,M,-34.9,M,,*6A
$PYRTM,2024,122.335709805995,13.445357216134
$GPGGA,080324.00,3330.0652,N,11933.0814,W,1,09,0.8,13.3,M,-34.9,M,,*66
$PYRTM,2024,122.335721393738,13.445368803877
$GPGGA,080325.00,3330.0662,N,11933.0836,W,1,09,0.8,13.2,M,-34.9,M,,*65
$PYRTM,2024,122.335728798565,13.445376208715
$GPGGA,080326.00,3330.0672,N,11933.0857,W,1,09,0.8,13.5,M,-34.9,M,,*67
$PYRTM,2024,122.335747319236,13.445394729375
$GPGGA,080327.00,3330.0679,N,11933.0879,W,1,09,0.8,14.1,M,-34.9,M,,*62
$PYRTM,2024,122.335755984664,13.445403394803
$GPGGA,080328.00,3330.0684,N,11933.0905,W,1,09,0.8,14.4,M,-34.9,M,,*60
$PYRTM,2024,122.335763392512,13.445410802650
$GPGGA,080329.00,3330.0690,N,11933.0930,W,1,09,0.8,14.2,M,-34.9,M,,*64
$PYRTM,2024,122.335779134479,13.445426544618
$GPGGA,080330.00,3330.0697,N,11933.0953,W,1,09,0.8,14.0,M,-34.9,M,,*6C
$PYRTM,2024,122.335786541644,13.445433951794
$GPGGA,080331.00,3330.0705,N,11933.0975,W,1,09,0.8,13.8,M,-34.9,M,,*6C
$PYRTM,2024,122.335798346146,13.445445756285
$GPGGA,080332.00,3330.0712,N,11933.1000,W,1,09,0.8,13.3,M,-34.9,M,,*68
$PYRTM,2024,122.335813870937,13.445461281076
$GPGGA,080333.00,3330.0720,N,11933.1027,W,1,09,0.8,12.7,M,-34.9,M,,*68
$PYRTM,2024,122.335825430174,13.445472840324
$GPGGA,080334.00,3330.0727,N,11933.1049,W,1,09,0.8,13.1,M,-34.9,M,,*67
$PYRTM,2024,122.335837019896,13.445484430046
$GPGGA,080335.00,3330.0733,N,11933.1071,W,1,09,0.8,13.9,M,-34.9,M,,*60
$PYRTM,2024,122.335848579074,13.445495989213
$GPGGA,080336.00,3330.0741,N,11933.1097,W,1,09,0.8,14.1,M,-34.9,M,,*61
$PYRTM,2024,122.335860168287,13.445507578426
$GPGGA,080337.00,3330.0749,N,11933.1125,W,1,09,0.8,13.5,M,-34.9,M,,*63
$PYRTM,2024,122.335871726493,13.445519136632
$GPGGA,080338.00,3330.0757,N,11933.1147,W,1,09,0.8,13.1,M,-34.9,M,,*63
$PYRTM,2024,122.335883316215,13.445530726354
$GPGGA,080339.00,3330.0765,N,11933.1168,W,1,09,0.8,13.5,M,-34.9,M,,*6A
$PYRTM,2024,122.335894876088,13.445542286227
$GPGGA,080340.00,3330.0774,N,11933.1192,W,1,09,0.8,13.9,M,-34.9,M,,*6D
$PYRTM,2024,122.335906463947,13.445553874086
$GPGGA,080341.00,3330.0781,N,11933.1221,W,1,09,0.8,13.4,M,-34.9,M,,*60
$PYRTM,2024,122.335918023333,13.445565433472
$GPGGA,080342.00,3330.0789,N,11933.1243,W,1,09,0.8,13.2,M,-34.9,M,,*69
$PYRTM,2024,122.335929611227,13.445577021366
$GPGGA,080343.00,3330.0798,N,11933.1261,W,1,09,0.8,13.7,M,-34.9,M,,*6D
$PYRTM,2024,122.335941170914,13.445588581053
$GPGGA,080344.00,3330.0808,N,11933.1285,W,1,09,0.8,13.7,M,-34.9,M,,*66
$PYRTM,2024,122.335948581111,13.445595991250
$GPGGA,080345.00,3330.0815,N,11933.1314,W,1,09,0.8,13.0,M,-34.9,M,,*65
$PYRTM,2024,122.335964320810,13.445611730961
$GPGGA,080346.00,3330.0821,N,11933.1339,W,1,09,0.8,12.7,M,-34.9,M,,*68
$PYRTM,2024,122.335975908125,13.445623318264
$GPGGA,080347.00,3330.0829,N,11933.1363,W,1,09,0.8,12.9,M,-34.9,M,,*60
$PYRTM,2024,122.335987467269,13.445634877407
$GPGGA,080348.00,3330.0840,N,11933.1386,W,1,09,0.8,13.2,M,-34.9,M,,*61
$PYRTM,2024,122.335999054549,13.445646464688
$GPGGA,080349.00,3330.0849,N,11933.1409,W,1,09,0.8,13.4,M,-34.9,M,,*6F
$PYRTM,2024,122.336010615926,13.445658026065
$GPGGA,080350.00,3330.0857,N,11933.1437,W,1,09,0.8,12.9,M,-34.9,M,,*69
$PYRTM,2024,122.336018022500,13.445665432639
$GPGGA,080351.00,3330.0864,N,11933.1466,W,1,09,0.8,12.2,M,-34.9,M,,*67
$PYRTM,2024,122.336036658056,13.445684068194
$GPGGA,080352.00,3330.0873,N,11933.1488,W,1,09,0.8,12.6,M,-34.9,M,,*66
$PYRTM,2024,122.336045352338,13.445692762477
$GPGGA,080353.00,3330.0884,N,11933.1505,W,1,09,0.8,13.7,M,-34.9,M,,*6B
$PYRTM,2024,122.336056914063,13.445704324201
$GPGGA,080354.00,3330.0895,N,11933.1527,W,1,09,0.8,14.5,M,-34.9,M,,*69
$PYRTM,2024,122.336068499861,13.445715910000
$GPGGA,080355.00,3330.0904,N,11933.1554,W,1,09,0.8,14.0,M,-34.9,M,,*60
$PYRTM,2024,122.336080069016,13.445727479167
$GPGGA,080356.00,3330.0910,N,11933.1582,W,1,09,0.8,12.8,M,-34.9,M,,*63
$PYRTM,2024,122.336087469861,13.445734880000
$GPGGA,080357.00,3330.0915,N,11933.1606,W,1,09,0.8,12.1,M,-34.9,M,,*61
$PYRTM,2024,122.336106103414,13.445753513553
$GPGGA,080358.00,3330.0923,N,11933.1627,W,1,09,0.8,12.4,M,-34.9,M,,*6D
$PYRTM,2024,122.336117684931,13.445765095069
$GPGGA,080359.00,3330.0933,N,11933.1649,W,1,09,0.8,12.9,M,-34.9,M,,*68
$PYRTM,2024,122.336129250567,13.445776660706
$GPGGA,080400.00,3330.0944,N,11933.1676,W,1,09,0.8,12.8,M,-34.9,M,,*6E
$PYRTM,2024,122.336140840208,13.445788250347
$GPGGA,080401.00,3330.0952,N,11933.1704,W,1,09,0.8,12.4,M,-34.9,M,,*60
$PYRTM,2024,122.336152400000,13.445799810139
$GPGGA,080402.00,3330.0956,N,11933.1731,W,1,09,0.8,13.0,M,-34.9,M,,*64
$PYRTM,2024,122.336161092512,13.445808502650
$GPGGA,080403.00,3330.0963,N,11933.1755,W,1,09,0.8,14.2,M,-34.9,M,,*64
$PYRTM,2024,122.336172667488,13.445820077627
$GPGGA,080404.00,3330.0972,N,11933.1779,W,1,09,0.8,15.4,M,-34.9,M,,*6A
$PYRTM,2024,122.336184244803,13.445831654942
$GPGGA,080405.00,3330.0982,N,11933.1805,W,1,09,0.8,15.8,M,-34.9,M,,*6C
$PYRTM,2024,122.336195815451,13.445843225602
$GPGGA,080406.00,3330.0991,N,11933.1832,W,1,09,0.8,15.4,M,-34.9,M,,*65
$PYRTM,2024,122.336203210324,13.445850620463
$GPGGA,080407.00,3330.0997,N,11933.1856,W,1,09,0.8,15.2,M,-34.9,M,,*66
$PYRTM,2024,122.336218962477,13.445866372616
$GPGGA,080408.00,3330.1002,N,11933.1881,W,1,09,0.8,15.1,M,-34.9,M,,*64
$PYRTM,2024,122.336230532650,13.445877942789
$GPGGA,080409.00,3330.1010,N,11933.1909,W,1,09,0.8,14.1,M,-34.9,M,,*66
$PYRTM,2024,122.336237947222,13.445885357373
$GPGGA,080410.00,3330.1021,N,11933.1936,W,1,09,0.8,13.0,M,-34.9,M,,*66
$PYRTM,2024,122.336253687153,13.445901097303
$GPGGA,080411.00,3330.1029,N,11933.1955,W,1,09,0.8,13.4,M,-34.9,M,,*6E
$PYRTM,2024,122.336265259167,13.445912669306
$GPGGA,080412.00,3330.1037,N,11933.1974,W,1,09,0.8,15.2,M,-34.9,M,,*61
$PYRTM,2024,122.336276834479,13.445924244618
$GPGGA,080413.00,3330.1043,N,11933.2000,W,1,09,0.8,16.2,M,-34.9,M,,*69
$PYRTM,2024,122.336288405139,13.445935815278
$GPGGA,080414.00,3330.1050,N,11933.2028,W,1,09,0.8,14.9,M,-34.9,M,,*6F
$PYRTM,2024,122.336299985625,13.445947395764
$GPGGA,080415.00,3330.1056,N,11933.2051,W,1,09,0.8,14.5,M,-34.9,M,,*6A
$PYRTM,2024,122.336311555926,13.445958966065
$GPGGA,080416.00,3330.1065,N,11933.2070,W,1,09,0.8,14.5,M,-34.9,M,,*6A
$PYRTM,2024,122.336323130718,13.445970540856
$GPGGA,080417.00,3330.1077,N,11933.2094,W,1,09,0.8,14.2,M,-34.9,M,,*65
$PYRTM,2024,122.336334705949,13.445982116088
$GPGGA,080418.00,3330.1088,N,11933.2123,W,1,09,0.8,13.3,M,-34.9,M,,*61
$PYRTM,2024,122.336346281863,13.445993692002
$GPGGA,080419.00,3330.1094,N,11933.2148,W,1,09,0.8,13.3,M,-34.9,M,,*60
$PYRTM,2024,122.336357853634,13.446005263773
$GPGGA,080420.00,3330.1100,N,11933.2170,W,1,09,0.8,14.2,M,-34.9,M,,*6B
$PYRTM,2024,122.336369442164,13.446016852303
$GPGGA,080421.00,3330.1109,N,11933.2193,W,1,09,0.8,15.0,M,-34.9,M,,*6D
$PYRTM,2024,122.336381000579,13.446028410718
$GPGGA,080422.00,3330.1120,N,11933.2219,W,1,09,0.8,13.9,M,-34.9,M,,*6B
$PYRTM,2024,122.336392570671,13.446039980810
$GPGGA,080423.00,3330.1129,N,11933.2243,W,1,09,0.8,12.8,M,-34.9,M,,*6C
$PYRTM,2024,122.336404150764,13.446051560903
$GPGGA,080424.00,3330.1135,N,11933.2263,W,1,09,0.8,12.7,M,-34.9,M,,*6B
$PYRTM,2024,122.336411546215,13.446058956366
$GPGGA,080425.00,3330.1140,N,11933.2286,W,1,09,0.8,13.3,M,-34.9,M,,*66
$PYRTM,2024,122.336427300949,13.446074711088
$GPGGA,080426.00,3330.1146,N,11933.2312,W,1,09,0.8,13.2,M,-34.9,M,,*6E
$PYRTM,2024,122.336438872407,13.446086282558
$GPGGA,080427.00,3330.1155,N,11933.2337,W,1,09,0.8,13.1,M,-34.9,M,,*69
$PYRTM,2024,122.336446267083,13.446093677222
$GPGGA,080428.00,3330.1164,N,11933.2359,W,1,09,0.8,13.2,M,-34.9,M,,*6F
$PYRTM,2024,122.336464915035,13.446112325174
$GPGGA,080429.00,3330.1173,N,11933.2384,W,1,09,0.8,12.8,M,-34.9,M,,*63
$PYRTM,2024,122.336473589178,13.446120999317
$GPGGA,080430.00,3330.1181,N,11933.2411,W,1,09,0.8,12.1,M,-34.9,M,,*64
$PYRTM,2024,122.336485168947,13.446132579086
$GPGGA,080431.00,3330.1186,N,11933.2435,W,1,09,0.8,12.3,M,-34.9,M,,*66
$PYRTM,2024,122.336492563576,13.446139973715
$GPGGA,080432.00,3330.1192,N,11933.2457,W,1,09,0.8,13.1,M,-34.9,M,,*67
$PYRTM,2024,122.336508312627,13.446155722766
$GPGGA,080433.00,3330.1201,N,11933.2484,W,1,09,0.8,13.3,M,-34.9,M,,*63
$PYRTM,2024,122.336519891019,13.446167301157
$GPGGA,080434.00,3330.1210,N,11933.2511,W,1,09,0.8,12.7,M,-34.9,M,,*6C
$PYRTM,2024,122.336527285625,13.446174695764
$GPGGA,080435.00,3330.1216,N,11933.2534,W,1,09,0.8,12.7,M,-34.9,M,,*6C
$PYRTM,2024,122.336543038843,13.446190448981
$GPGGA,080436.00,3330.1220,N,11933.2556,W,1,09,0.8,13.1,M,-34.9,M,,*69
$PYRTM,2024,122.336554617269,13.446202027407
$GPGGA,080437.00,3330.1227,N,11933.2583,W,1,09,0.8,12.7,M,-34.9,M,,*60
$PYRTM,2024,122.336562009769,13.446209419907
$GPGGA,080438.00,3330.1236,N,11933.2612,W,1,09,0.8,11.7,M,-34.9,M,,*67
$PYRTM,2024,122.336577757639,13.446225167778
$GPGGA,080439.00,3330.1245,N,11933.2637,W,1,09,0.8,11.3,M,-34.9,M,,*61
$PYRTM,2024,122.336589336586,13.446236746725
$GPGGA,080440.00,3330.1252,N,11933.2659,W,1,09,0.8,12.9,M,-34.9,M,,*68
$PYRTM,2024,122.336596729884,13.446244140023
$GPGGA,080441.00,3330.1258,N,11933.2686,W,1,09,0.8,14.1,M,-34.9,M,,*6F
$PYRTM,2024,122.336612479028,13.446259889167
$GPGGA,080442.00,3330.1263,N,11933.2712,W,1,09,0.8,14.8,M,-34.9,M,,*61
$PYRTM,2024,122.336624060382,13.446271470521
$GPGGA,080443.00,3330.1272,N,11933.2739,W,1,09,0.8,14.8,M,-34.9,M,,*69
$PYRTM,2024,122.336631453484,13.446278863623
$GPGGA,080444.00,3330.1281,N,11933.2765,W,1,09,0.8,13.5,M,-34.9,M,,*61
$PYRTM,2024,122.336647206898,13.446294617037
$GPGGA,080445.00,3330.1288,N,11933.2789,W,1,09,0.8,12.4,M,-34.9,M,,*6B
$PYRTM,2024,122.336658781956,13.446306192095
$GPGGA,080446.00,3330.1294,N,11933.2811,W,1,09,0.8,11.8,M,-34.9,M,,*64
$PYRTM,2024,122.336666174653,13.446313584792
$GPGGA,080447.00,3330.1304,N,11933.2836,W,1,09,0.8,11.5,M,-34.9,M,,*65
$PYRTM,2024,122.336681929340,13.446329339491
$GPGGA,080448.00,3330.1313,N,11933.2862,W,1,09,0.8,11.6,M,-34.9,M,,*6E
$PYRTM,2024,122.336693506586,13.446340916736
$GPGGA,080449.00,3330.1321,N,11933.2885,W,1,09,0.8,12.6,M,-34.9,M,,*64
$PYRTM,2024,122.336700899780,13.446348309919
$GPGGA,080450.00,3330.1327,N,11933.2911,W,1,09,0.8,13.4,M,-34.9,M,,*65
$PYRTM,2024,122.336716654248,13.446364064387
$GPGGA,080451.00,3330.1333,N,11933.2940,W,1,09,0.8,13.4,M,-34.9,M,,*65
$PYRTM,2024,122.336728225231,13.446375635382
$GPGGA,080452.00,3330.1341,N,11933.2966,W,1,09,0.8,13.0,M,-34.9,M,,*63
$PYRTM,2024,122.336734808889,13.446382219028
$GPGGA,080453.00,3330.1352,N,11933.2990,W,1,09,0.8,12.5,M,-34.9,M,,*6D
$PYRTM,2024,122.336751373773,13.446398783912
$GPGGA,080454.00,3330.1363,N,11933.3017,W,1,09,0.8,11.5,M,-34.9,M,,*6C
$PYRTM,2024,122.336762947419,13.446410357558
$GPGGA,080455.00,3330.1372,N,11933.3041,W,1,09,0.8,10.8,M,-34.9,M,,*62
$PYRTM,2024,122.336770357674,13.446417767813
$GPGGA,080456.00,3330.1377,N,11933.3062,W,1,09,0.8,11.7,M,-34.9,M,,*6B
$PYRTM,2024,122.336782032940,13.446429443079
$GPGGA,080457.00,3330.1384,N,11933.3086,W,1,09,0.8,11.9,M,-34.9,M,,*62
$PYRTM,2024,122.336797671424,13.446445081563
$GPGGA,080458.00,3330.1393,N,11933.3115,W,1,09,0.8,11.9,M,-34.9,M,,*60
$PYRTM,2024,122.336805066701,13.446452476840
$GPGGA,080459.00,3330.1402,N,11933.3140,W,1,09,0.8,11.5,M,-34.9,M,,*62
$PYRTM,2024,122.336823699259,13.446471109398
$GPGGA,080500.00,3330.1410,N,11933.3162,W,1,09,0.8,11.6,M,-34.9,M,,*6F
$PYRTM,2024,122.336832392558,13.446479802697
$GPGGA,080501.00,3330.1417,N,11933.3187,W,1,09,0.8,11.2,M,-34.9,M,,*66
$PYRTM,2024,122.336839793044,13.446487203183
$GPGGA,080502.00,3330.1424,N,11933.3212,W,1,09,0.8,11.1,M,-34.9,M,,*69
$PYRTM,2024,122.336855540509,13.446502950648
$GPGGA,080503.00,3330.1432,N,11933.3235,W,1,09,0.8,11.8,M,-34.9,M,,*63
$PYRTM,2024,122.336867115926,13.446514526065
$GPGGA,080504.00,3330.1442,N,11933.3258,W,1,09,0.8,12.6,M,-34.9,M,,*65
$PYRTM,2024,122.336874515243,13.446521925382
$GPGGA,080505.00,3330.1451,N,11933.3285,W,1,09,0.8,12.5,M,-34.9,M,,*65
$PYRTM,2024,122.336890258414,13.446537668553
$GPGGA,080506.00,3330.1457,N,11933.3312,W,1,09,0.8,12.2,M,-34.9,M,,*68
$PYRTM,2024,122.336901837164,13.446549247303
$GPGGA,080507.00,3330.1461,N,11933.3336,W,1,09,0.8,12.3,M,-34.9,M,,*6B
$PYRTM,2024,122.336909249606,13.446556659745
$GPGGA,080508.00,3330.1468,N,11933.3359,W,1,09,0.8,12.9,M,-34.9,M,,*6E
$PYRTM,2024,122.336924985741,13.446572395880
$GPGGA,080509.00,3330.1478,N,11933.3383,W,1,09,0.8,13.1,M,-34.9,M,,*60
$PYRTM,2024,122.336936562662,13.446583972801
$GPGGA,080510.00,3330.1488,N,11933.3410,W,1,09,0.8,12.6,M,-34.9,M,,*6C
$PYRTM,2024,122.336948133623,13.446595543762
$GPGGA,080511.00,3330.1497,N,11933.3437,W,1,09,0.8,11.9,M,-34.9,M,,*6A
$PYRTM,2024,122.336959708137,13.446607118275
$GPGGA,080512.00,3330.1502,N,11933.3463,W,1,09,0.8,11.8,M,-34.9,M,,*64
$PYRTM,2024,122.336971282766,13.446618692905
$GPGGA,080513.00,3330.1507,N,11933.3486,W,1,09,0.8,12.5,M,-34.9,M,,*65
$PYRTM,2024,122.336982855648,13.446630265787
$GPGGA,080514.00,3330.1516,N,11933.3510,W,1,09,0.8,13.4,M,-34.9,M,,*6C
$PYRTM,2024,122.336994430822,13.446641840961
$GPGGA,080515.00,3330.1528,N,11933.3538,W,1,09,0.8,14.0,M,-34.9,M,,*69
$PYRTM,2024,122.337006004919,13.446653415058
$GPGGA,080516.00,3330.1537,N,11933.3567,W,1,09,0.8,13.2,M,-34.9,M,,*6B
$PYRTM,2024,122.337017581701,13.446664991840
$GPGGA,080517.00,3330.1541,N,11933.3593,W,1,09,0.8,13.0,M,-34.9,M,,*62
$PYRTM,2024,122.337029152801,13.446676562940
$GPGGA,080518.00,3330.1545,N,11933.3616,W,1,09,1.0,13.4,M,-34.9,M,,*6A
$PYRTM,2024,122.337040729965,13.446688140104
$GPGGA,080519.00,3330.1554,N,11933.3642,W,1,09,1.0,13.3,M,-34.9,M,,*6D
$PYRTM,2024,122.337052300694,13.446699710833
$GPGGA,080520.00,3330.1565,N,11933.3668,W,1,09,1.0,13.1,M,-34.9,M,,*6F
$PYRTM,2024,122.337063890069,13.446711300208
$GPGGA,080521.00,3330.1575,N,11933.3693,W,1,09,1.0,13.0,M,-34.9,M,,*6A
$PYRTM,2024,122.337071285012,13.446718695150
$GPGGA,080522.00,3330.1581,N,11933.3719,W,1,09,1.0,13.0,M,-34.9,M,,*61
$PYRTM,2024,122.337087024838,13.446734434977
$GPGGA,080523.00,3330.1586,N,11933.3745,W,1,09,1.0,13.3,M,-34.9,M,,*6D
$PYRTM,2024,122.337098597627,13.446746007766
$GPGGA,080524.00,3330.1594,N,11933.3770,W,1,09,1.0,13.8,M,-34.9,M,,*64
$PYRTM,2024,122.337105992859,13.446753402998
$GPGGA,080525.00,3330.1606,N,11933.3795,W,1,09,1.0,13.8,M,-34.9,M,,*66
$PYRTM,2024,122.337121741192,13.446769151331
$GPGGA,080526.00,3330.1616,N,11933.3819,W,1,09,1.0,13.5,M,-34.9,M,,*62
$PYRTM,2024,122.337133320961,13.446780731100
$GPGGA,080527.00,3330.1623,N,11933.3844,W,1,09,1.0,13.3,M,-34.9,M,,*6B
$PYRTM,2024,122.337144890243,13.446792300382
$GPGGA,080528.00,3330.1629,N,11933.3871,W,1,09,1.0,12.9,M,-34.9,M,,*63
$PYRTM,2024,122.337152290058,13.446799700197
$GPGGA,080529.00,3330.1637,N,11933.3894,W,1,09,1.0,13.0,M,-34.9,M,,*6E
$PYRTM,2024,122.337170922778,13.446818332917
$GPGGA,080530.00,3330.1646,N,11933.3913,W,1,09,1.0,13.9,M,-34.9,M,,*67
$PYRTM,2024,122.337179735440,13.446827145579
$GPGGA,080531.00,3330.1656,N,11933.3940,W,1,09,1.0,13.9,M,-34.9,M,,*61
$PYRTM,2024,122.337191293090,13.446838703241
$GPGGA,080532.00,3330.1664,N,11933.3969,W,1,09,1.0,13.3,M,-34.9,M,,*62
$PYRTM,2024,122.337202884375,13.446850294514
$GPGGA,080533.00,3330.1667,N,11933.3991,W,1,09,1.0,13.7,M,-34.9,M,,*63
$PYRTM,2024,122.337214335463,13.446861745602
$GPGGA,080534.00,3330.1673,N,11933.4014,W,1,09,1.0,13.8,M,-34.9,M,,*6D
$PYRTM,2024,122.337221736331,13.446869146470
$GPGGA,080535.00,3330.1684,N,11933.4041,W,1,09,1.0,13.4,M,-34.9,M,,*68
$PYRTM,2024,122.337237486447,13.446884896586
$GPGGA,080536.00,3330.1693,N,11933.4065,W,1,09,1.0,13.3,M,-34.9,M,,*6C
$PYRTM,2024,122.337249061771,13.446896471910
$GPGGA,080537.00,3330.1698,N,11933.4087,W,1,09,1.0,13.9,M,-34.9,M,,*60
$PYRTM,2024,122.337260635914,13.446908046053
$GPGGA,080538.00,3330.1703,N,11933.4112,W,1,09,1.0,14.3,M,-34.9,M,,*6C
$PYRTM,2024,122.337272210220,13.446919620359
$GPGGA,080539.00,3330.1711,N,11933.4139,W,1,09,1.0,13.9,M,-34.9,M,,*6A
$PYRTM,2024,122.337283783796,13.446931193935
$GPGGA,080540.00,3330.1721,N,11933.4163,W,1,09,1.0,13.5,M,-34.9,M,,*64
$PYRTM,2024,122.337295360069,13.446942770208
$GPGGA,080541.00,3330.1730,N,11933.4184,W,1,09,1.0,13.4,M,-34.9,M,,*6D
$PYRTM,2024,122.337306927234,13.446954337373
$GPGGA,080542.00,3330.1737,N,11933.4210,W,1,09,1.0,13.3,M,-34.9,M,,*60
$PYRTM,2024,122.337318508785,13.446965918924
$GPGGA,080543.00,3330.1743,N,11933.4236,W,1,09,1.0,13.3,M,-34.9,M,,*66
$PYRTM,2024,122.337330080440,13.446977490579
$GPGGA,080544.00,3330.1750,N,11933.4259,W,1,09,0.8,13.6,M,-34.9,M,,*66
$PYRTM,2024,122.337341655428,13.446989065567
$GPGGA,080545.00,3330.1758,N,11933.4281,W,1,09,1.0,14.2,M,-34.9,M,,*60
$PYRTM,2024,122.337353229479,13.447000639630
$GPGGA,080546.00,3330.1768,N,11933.4309,W,1,09,1.0,13.3,M,-34.9,M,,*67
$PYRTM,2024,122.337364808102,13.447012218252
$GPGGA,080547.00,3330.1776,N,11933.4338,W,1,09,0.8,12.1,M,-34.9,M,,*61
$PYRTM,2024,122.337376371644,13.447023781794
$GPGGA,080548.00,3330.1782,N,11933.4362,W,1,09,0.8,11.7,M,-34.9,M,,*6F
$PYRTM,2024,122.337387965833,13.447035375972
$GPGGA,080549.00,3330.1789,N,11933.4381,W,1,09,0.8,12.7,M,-34.9,M,,*6B
$PYRTM,2024,122.337399525069,13.447046935208
$GPGGA,080550.00,3330.1798,N,11933.4405,W,1,09,0.8,13.5,M,-34.9,M,,*6B
$PYRTM,2024,122.337411099826,13.447058509965
$GPGGA,080551.00,3330.1807,N,11933.4433,W,1,09,0.8,12.4,M,-34.9,M,,*66
$PYRTM,2024,122.337422673773,13.447070083912
$GPGGA,080552.00,3330.1813,N,11933.4460,W,1,09,0.8,11.8,M,-34.9,M,,*69
$PYRTM,2024,122.337434247685,13.447081657824
$GPGGA,080553.00,3330.1820,N,11933.4480,W,1,09,0.8,12.1,M,-34.9,M,,*6C
$PYRTM,2024,122.337445827211,13.447093237350
$GPGGA,080554.00,3330.1828,N,11933.4502,W,1,09,0.8,12.6,M,-34.9,M,,*6F
$PYRTM,2024,122.337457403275,13.447104813414
$GPGGA,080555.00,3330.1838,N,11933.4527,W,1,09,0.8,12.6,M,-34.9,M,,*68
$PYRTM,2024,122.337468975278,13.447116385417
$GPGGA,080556.00,3330.1846,N,11933.4550,W,1,09,0.8,12.7,M,-34.9,M,,*63
$PYRTM,2024,122.337480551910,13.447127962049
$GPGGA,080557.00,3330.1853,N,11933.4572,W,1,09,0.8,13.0,M,-34.9,M,,*60
$PYRTM,2024,122.337492117292,13.447139527431
$GPGGA,080558.00,3330.1862,N,11933.4598,W,1,09,0.8,12.5,M,-34.9,M,,*6D
$PYRTM,2024,122.337503690648,13.447151100787
$GPGGA,080559.00,3330.1869,N,11933.4626,W,1,09,0.8,11.7,M,-34.9,M,,*60
$PYRTM,2024,122.337511086597,13.447158496736
$GPGGA,080600.00,3330.1875,N,11933.4648,W,1,09,0.8,11.8,M,-34.9,M,,*65
$PYRTM,2024,122.337529748750,13.447177158889
$GPGGA,080601.00,3330.1884,N,11933.4671,W,1,09,0.8,12.3,M,-34.9,M,,*68
$PYRTM,2024,122.337538423160,13.447185833299
$GPGGA,080602.00,3330.1895,N,11933.4698,W,1,09,0.8,12.8,M,-34.9,M,,*67
$PYRTM,2024,122.337550011100,13.447197421238
$GPGGA,080603.00,3330.1903,N,11933.4726,W,1,09,0.8,12.6,M,-34.9,M,,*62
$PYRTM,2024,122.337561557315,13.447208967454
$GPGGA,080604.00,3330.1908,N,11933.4750,W,1,09,0.8,13.0,M,-34.9,M,,*68
$PYRTM,2024,122.337573145382,13.447220555521
$GPGGA,080605.00,3330.1913,N,11933.4772,W,1,09,0.8,13.8,M,-34.9,M,,*6B
$PYRTM,2024,122.337584710544,13.447232120671
$GPGGA,080606.00,3330.1922,N,11933.4798,W,1,09,0.8,13.7,M,-34.9,M,,*61
$PYRTM,2024,122.337596285486,13.447243695625
$GPGGA,080607.00,3330.1932,N,11933.4825,W,1,09,0.8,12.6,M,-34.9,M,,*68
$PYRTM,2024,122.337607858831,13.447255268970
$GPGGA,080608.00,3330.1941,N,11933.4849,W,1,09,0.8,11.9,M,-34.9,M,,*65
$PYRTM,2024,122.337615254213,13.447262664352
$GPGGA,080609.00,3330.1946,N,11933.4868,W,1,09,0.8,13.2,M,-34.9,M,,*69
$PYRTM,2024,122.337631007859,13.447278417998
$GPGGA,080610.00,3330.1953,N,11933.4891,W,1,09,0.8,14.8,M,-34.9,M,,*6E
$PYRTM,2024,122.337642582465,13.447289992604
$GPGGA,080611.00,3330.1960,N,11933.4919,W,1,09,0.8,13.8,M,-34.9,M,,*69
$PYRTM,2024,122.337654155324,13.447301565463
$GPGGA,080612.00,3330.1969,N,11933.4945,W,1,09,0.8,12.5,M,-34.9,M,,*66
$PYRTM,2024,122.337665730475,13.447313140613
$GPGGA,080613.00,3330.1978,N,11933.4966,W,1,09,0.8,12.2,M,-34.9,M,,*61
$PYRTM,2024,122.337677304190,13.447324714317
$GPGGA,080614.00,3330.1988,N,11933.4987,W,1,09,0.8,12.3,M,-34.9,M,,*67
$PYRTM,2024,122.337688877535,13.447336287674
$GPGGA,080615.00,3330.1996,N,11933.5011,W,1,09,0.8,12.3,M,-34.9,M,,*6E
$PYRTM,2024,122.337700452882,13.447347863021
$GPGGA,080616.00,3330.2005,N,11933.5035,W,1,09,0.8,12.3,M,-34.9,M,,*6B
$PYRTM,2024,122.337712041782,13.447359451921
$GPGGA,080617.00,3330.2013,N,11933.5059,W,1,09,0.8,12.3,M,-34.9,M,,*67
$PYRTM,2024,122.337723602650,13.447371012801
$GPGGA,080618.00,3330.2022,N,11933.5085,W,1,09,0.8,12.2,M,-34.9,M,,*6A
$PYRTM,2024,122.337735191169,13.447382601308
$GPGGA,080619.00,3330.2031,N,11933.5110,W,1,09,0.8,11.7,M,-34.9,M,,*62
$PYRTM,2024,122.337746750856,13.447394160995
$GPGGA,080620.00,3330.2037,N,11933.5132,W,1,09,0.8,12.1,M,-34.9,M,,*6B
$PYRTM,2024,122.337758323310,13.447405733461
$GPGGA,080621.00,3330.2042,N,11933.5154,W,1,09,0.8,12.7,M,-34.9,M,,*6E
$PYRTM,2024,122.337770000243,13.447417410382
$GPGGA,080622.00,3330.2050,N,11933.5183,W,1,09,0.8,11.8,M,-34.9,M,,*68
$PYRTM,2024,122.337781471863,13.447428882002
$GPGGA,080623.00,3330.2057,N,11933.5212,W,1,09,0.8,10.6,M,-34.9,M,,*6A
$PYRTM,2024,122.337793045822,13.447440455961
$GPGGA,080624.00,3330.2065,N,11933.5234,W,1,09,0.8,10.4,M,-34.9,M,,*6A
$PYRTM,2024,122.337804620093,13.447452030231
$GPGGA,080625.00,3330.2072,N,11933.5254,W,1,09,0.8,11.7,M,-34.9,M,,*69
$PYRTM,2024,122.337812013924,13.447459424062
$GPGGA,080626.00,3330.2079,N,11933.5279,W,1,09,0.8,12.9,M,-34.9,M,,*63
$PYRTM,2024,122.337827770440,13.447475180579
$GPGGA,080627.00,3330.2086,N,11933.5309,W,1,09,0.8,12.7,M,-34.9,M,,*6A
$PYRTM,2024,122.337839343495,13.447486753634
$GPGGA,080628.00,3330.2095,N,11933.5337,W,1,09,0.8,12.2,M,-34.9,M,,*6F
$PYRTM,2024,122.337846737407,13.447494147558
$GPGGA,080629.00,3330.2102,N,11933.5360,W,1,09,0.8,11.9,M,-34.9,M,,*6B
$PYRTM,2024,122.337862489907,13.447509900046
$GPGGA,080630.00,3330.2109,N,11933.5381,W,1,09,0.8,12.5,M,-34.9,M,,*68
$PYRTM,2024,122.337869884630,13.447517294769
$GPGGA,080631.00,3330.2117,N,11933.5407,W,1,09,0.8,12.8,M,-34.9,M,,*62
$PYRTM,2024,122.337888518137,13.447535928275
$GPGGA,080632.00,3330.2125,N,11933.5435,W,1,09,0.8,12.4,M,-34.9,M,,*6D
$PYRTM,2024,122.337897216134,13.447544626273
$GPGGA,080633.00,3330.2130,N,11933.5460,W,1,09,0.8,12.3,M,-34.9,M,,*6F
$PYRTM,2024,122.337908787882,13.447556198021
$GPGGA,080634.00,3330.2136,N,11933.5483,W,1,09,0.8,12.8,M,-34.9,M,,*68
$PYRTM,2024,122.337920362477,13.447567772616
$GPGGA,080635.00,3330.2144,N,11933.5508,W,1,09,0.8,12.9,M,-34.9,M,,*6F
$PYRTM,2024,122.337931935799,13.447579345938
$GPGGA,080636.00,3330.2153,N,11933.5533,W,1,09,0.8,12.5,M,-34.9,M,,*6E
$PYRTM,2024,122.337943511285,13.447590921424
$GPGGA,080637.00,3330.2162,N,11933.5558,W,1,09,0.8,11.7,M,-34.9,M,,*61
$PYRTM,2024,122.337950920370,13.447598330509
$GPGGA,080638.00,3330.2170,N,11933.5584,W,1,09,0.8,11.1,M,-34.9,M,,*6A
$PYRTM,2024,122.337962595706,13.447610005845
$GPGGA,080639.00,3330.2177,N,11933.5608,W,1,09,0.8,11.8,M,-34.9,M,,*62
$PYRTM,2024,122.337978231644,13.447625641782
$GPGGA,080640.00,3330.2182,N,11933.5632,W,1,09,0.8,12.9,M,-34.9,M,,*6D
$PYRTM,2024,122.337989805799,13.447637215937
$GPGGA,080641.00,3330.2188,N,11933.5655,W,1,09,0.8,13.9,M,-34.9,M,,*66
$PYRTM,2024,122.338001379850,13.447648789988
$GPGGA,080642.00,3330.2197,N,11933.5679,W,1,09,0.8,15.0,M,-34.9,M,,*6A
$PYRTM,2024,122.338012955116,13.447660365255
$GPGGA,080643.00,3330.2207,N,11933.5707,W,1,09,0.8,14.3,M,-34.9,M,,*6B
$PYRTM,2024,122.338024529005,13.447671939155
$GPGGA,080644.00,3330.2214,N,11933.5738,W,1,09,0.8,12.5,M,-34.9,M,,*62
$PYRTM,2024,122.338036116956,13.447683527095
$GPGGA,080645.00,3330.2218,N,11933.5760,W,1,09,0.8,12.2,M,-34.9,M,,*65
$PYRTM,2024,122.338047677546,13.447695087685
$GPGGA,080646.00,3330.2226,N,11933.5779,W,1,09,0.8,12.7,M,-34.9,M,,*66
$PYRTM,2024,122.338059253889,13.447706664016
$GPGGA,080647.00,3330.2237,N,11933.5803,W,1,09,0.8,13.2,M,-34.9,M,,*61
$PYRTM,2024,122.338070823727,13.447718233866
$GPGGA,080648.00,3330.2248,N,11933.5829,W,1,09,0.8,13.5,M,-34.9,M,,*69
$PYRTM,2024,122.338082402708,13.447729812847
$GPGGA,080649.00,3330.2254,N,11933.5852,W,1,09,0.8,14.0,M,-34.9,M,,*6B
$PYRTM,2024,122.338094192315,13.447741602454
$GPGGA,080650.00,3330.2260,N,11933.5874,W,1,09,0.8,14.5,M,-34.9,M,,*65
$PYRTM,2024,122.338105547755,13.447752957894
$GPGGA,080651.00,3330.2269,N,11933.5900,W,1,09,0.8,13.2,M,-34.9,M,,*6F
$PYRTM,2024,122.338117121771,13.447764531921
$GPGGA,080652.00,3330.2278,N,11933.5927,W,1,09,0.8,11.5,M,-34.9,M,,*6C
$PYRTM,2024,122.338128696910,13.447776107060
$GPGGA,080653.00,3330.2285,N,11933.5949,W,1,09,0.8,11.1,M,-34.9,M,,*63
$PYRTM,2024,122.338140269595,13.447787679734
$GPGGA,080654.00,3330.2292,N,11933.5969,W,1,09,0.8,11.8,M,-34.9,M,,*69
$PYRTM,2024,122.338151843530,13.447799253669
$GPGGA,080655.00,3330.2302,N,11933.5993,W,1,09,0.8,13.1,M,-34.9,M,,*6E
$PYRTM,2024,122.338163417743,13.447810827882
$GPGGA,080656.00,3330.2312,N,11933.6019,W,1,09,0.8,13.5,M,-34.9,M,,*60
$PYRTM,2024,122.338170813368,13.447818223507
$GPGGA,080657.00,3330.2319,N,11933.6048,W,1,09,0.8,13.0,M,-34.9,M,,*6B
$PYRTM,2024,122.338186566458,13.447833976597
$GPGGA,080658.00,3330.2323,N,11933.6074,W,1,09,0.8,12.4,M,-34.9,M,,*67
$PYRTM,2024,122.338198143565,13.447845553715
$GPGGA,080659.00,3330.2328,N,11933.6096,W,1,09,0.8,12.4,M,-34.9,M,,*61
$PYRTM,2024,122.338205536678,13.447852946817
$GPGGA,080700.00,3330.2337,N,11933.6116,W,1,09,0.8,13.1,M,-34.9,M,,*6F
$PYRTM,2024,122.338221303819,13.447868713958
$GPGGA,080701.00,3330.2347,N,11933.6140,W,1,09,0.8,13.4,M,-34.9,M,,*6F
$PYRTM,2024,122.338228684456,13.447876094606
$GPGGA,080702.00,3330.2354,N,11933.6170,W,1,09,0.8,12.4,M,-34.9,M,,*6C
$PYRTM,2024,122.338247334363,13.447894744514
$GPGGA,080703.00,3330.2359,N,11933.6200,W,1,09,0.8,11.6,M,-34.9,M,,*65
$PYRTM,2024,122.338256012407,13.447903422558
$GPGGA,080704.00,3330.2363,N,11933.6220,W,1,09,0.8,11.9,M,-34.9,M,,*66
$PYRTM,2024,122.338267585278,13.447914995417
$GPGGA,080705.00,3330.2371,N,11933.6240,W,1,09,0.8,13.0,M,-34.9,M,,*69
$PYRTM,2024,122.338279160428,13.447926570567
$GPGGA,080706.00,3330.2383,N,11933.6266,W,1,09,0.8,13.3,M,-34.9,M,,*60
$PYRTM,2024,122.338290735301,13.447938145440
$GPGGA,080707.00,3330.2391,N,11933.6294,W,1,09,0.8,12.2,M,-34.9,M,,*6F
$PYRTM,2024,122.338302308507,13.447949718646
$GPGGA,080708.00,3330.2393,N,11933.6317,W,1,09,0.8,12.0,M,-34.9,M,,*6A
$PYRTM,2024,122.338313883345,13.447961293484
$GPGGA,080709.00,3330.2397,N,11933.6336,W,1,09,0.8,12.7,M,-34.9,M,,*6B
$PYRTM,2024,122.338325451250,13.447972861389
$GPGGA,080710.00,3330.2406,N,11933.6361,W,1,09,0.8,12.7,M,-34.9,M,,*6E
$PYRTM,2024,122.338337032917,13.447984443056
$GPGGA,080711.00,3330.2415,N,11933.6389,W,1,09,0.8,12.1,M,-34.9,M,,*6D
$PYRTM,2024,122.338348600579,13.447996010718
$GPGGA,080712.00,3330.2421,N,11933.6412,W,1,09,0.8,11.8,M,-34.9,M,,*66
$PYRTM,2024,122.338360173819,13.448007583958
$GPGGA,080713.00,3330.2426,N,11933.6434,W,1,09,0.8,12.1,M,-34.9,M,,*6E
$PYRTM,2024,122.338371753171,13.448019163322
$GPGGA,080714.00,3330.2432,N,11933.6458,W,1,09,0.8,12.4,M,-34.9,M,,*63
$PYRTM,2024,122.338383330127,13.448030740266
$GPGGA,080715.00,3330.2440,N,11933.6485,W,1,09,0.8,12.2,M,-34.9,M,,*61
$PYRTM,2024,122.338394902766,13.448042312905
$GPGGA,080716.00,3330.2450,N,11933.6510,W,1,09,0.8,11.6,M,-34.9,M,,*69
$PYRTM,2024,122.338402294687,13.448049704826
$GPGGA,080717.00,3330.2457,N,11933.6534,W,1,09,0.8,11.3,M,-34.9,M,,*6C
$PYRTM,2024,122.338418049062,13.448065459201
$GPGGA,080718.00,3330.2462,N,11933.6557,W,1,09,0.8,11.8,M,-34.9,M,,*6B
$PYRTM,2024,122.338429623380,13.448077033519
$GPGGA,080719.00,3330.2468,N,11933.6581,W,1,09,0.8,12.7,M,-34.9,M,,*67
$PYRTM,2024,122.338437034190,13.448084444329
$GPGGA,080720.00,3330.2475,N,11933.6605,W,1,09,0.8,13.1,M,-34.9,M,,*69
$PYRTM,2024,122.338452772708,13.448100182847
$GPGGA,080721.00,3330.2482,N,11933.6632,W,1,09,0.8,11.7,M,-34.9,M,,*60
$PYRTM,2024,122.338464349225,13.448111759375
$GPGGA,080722.00,3330.2488,N,11933.6661,W,1,09,0.8,10.5,M,-34.9,M,,*6C
$PYRTM,2024,122.338475922176,13.448123332315
$GPGGA,080723.00,3330.2496,N,11933.6684,W,1,09,0.8,9.8,M,-34.9,M,,*5C
$PYRTM,2024,122.338487494549,13.448134904687
$GPGGA,080724.00,3330.2504,N,11933.6702,W,1,09,0.8,11.5,M,-34.9,M,,*6A
$PYRTM,2024,122.338499067801,13.448146477940
$GPGGA,080725.00,3330.2512,N,11933.6726,W,1,09,0.8,11.7,M,-34.9,M,,*68
$PYRTM,2024,122.338506463495,13.448153873634
$GPGGA,080726.00,3330.2518,N,11933.6757,W,1,09,0.8,10.7,M,-34.9,M,,*66
$PYRTM,2024,122.338518153588,13.448165563727
$GPGGA,080727.00,3330.2524,N,11933.6787,W,1,09,0.8,11.2,M,-34.9,M,,*61
$PYRTM,2024,122.338533786285,13.448181196424
$GPGGA,080728.00,3330.2532,N,11933.6811,W,1,09,0.8,11.8,M,-34.9,M,,*63
$PYRTM,2024,122.338545368484,13.448192778634
$GPGGA,080729.00,3330.2541,N,11933.6832,W,1,09,0.8,12.9,M,-34.9,M,,*65
$PYRTM,2024,122.338556933831,13.448204343970
$GPGGA,080730.00,3330.2550,N,11933.6854,W,1,09,0.8,13.8,M,-34.9,M,,*6D
$PYRTM,2024,122.338568516597,13.448215926736
$GPGGA,080731.00,3330.2558,N,11933.6880,W,1,09,0.8,13.7,M,-34.9,M,,*62
$PYRTM,2024,122.338580086539,13.448227496678
$GPGGA,080732.00,3330.2563,N,11933.6908,W,1,09,0.8,12.5,M,-34.9,M,,*6B
$PYRTM,2024,122.338587483218,13.448234893356
$GPGGA,080733.00,3330.2569,N,11933.6935,W,1,09,0.8,11.4,M,-34.9,M,,*6C
$PYRTM,2024,122.338606117060,13.448253527199
$GPGGA,080734.00,3330.2577,N,11933.6958,W,1,09,0.8,11.4,M,-34.9,M,,*6F
$PYRTM,2024,122.338614804063,13.448262214201
$GPGGA,080735.00,3330.2588,N,11933.6979,W,1,09,0.8,12.2,M,-34.9,M,,*68
$PYRTM,2024,122.338626486597,13.448273896748
$GPGGA,080736.00,3330.2598,N,11933.7003,W,1,09,0.8,13.1,M,-34.9,M,,*6D
$PYRTM,2024,122.338638072176,13.448285482315
$GPGGA,080737.00,3330.2604,N,11933.7033,W,1,09,0.8,12.9,M,-34.9,M,,*60
$PYRTM,2024,122.338649634977,13.448297045116
$GPGGA,080738.00,3330.2608,N,11933.7063,W,1,09,0.8,12.3,M,-34.9,M,,*6C
$PYRTM,2024,122.338661108021,13.448308518160
$GPGGA,080739.00,3330.2616,N,11933.7084,W,1,09,0.8,12.5,M,-34.9,M,,*6D
$PYRTM,2024,122.338672680706,13.448320090845
$GPGGA,080740.00,3330.2626,N,11933.7102,W,1,09,0.8,13.4,M,-34.9,M,,*6F
$PYRTM,2024,122.338684250752,13.448331660891
$GPGGA,080741.00,3330.2637,N,11933.7124,W,1,09,0.8,13.9,M,-34.9,M,,*67
$PYRTM,2024,122.338695828669,13.448343238808
$GPGGA,080742.00,3330.2646,N,11933.7154,W,1,09,0.8,12.7,M,-34.9,M,,*6A
$PYRTM,2024,122.338707406435,13.448354816574
$GPGGA,080743.00,3330.2650,N,11933.7182,W,1,09,0.8,11.5,M,-34.9,M,,*66
$PYRTM,2024,122.338718978009,13.448366388148
$GPGGA,080744.00,3330.2655,N,11933.7201,W,1,09,0.8,11.6,M,-34.9,M,,*6F
$PYRTM,2024,122.338730554120,13.448377964259
$GPGGA,080745.00,3330.2666,N,11933.7217,W,1,09,0.8,12.7,M,-34.9,M,,*6B
$PYRTM,2024,122.338742126273,13.448389536412
$GPGGA,080746.00,3330.2679,N,11933.7241,W,1,09,0.8,13.0,M,-34.9,M,,*63
$PYRTM,2024,122.338753700382,13.448401110521
$GPGGA,080747.00,3330.2688,N,11933.7271,W,1,09,0.8,12.3,M,-34.9,M,,*6D
$PYRTM,2024,122.338761110174,13.448408520313
$GPGGA,080748.00,3330.2692,N,11933.7297,W,1,09,0.8,12.0,M,-34.9,M,,*62
$PYRTM,2024,122.338776848171,13.448424258310
$GPGGA,080749.00,3330.2697,N,11933.7318,W,1,09,0.8,12.5,M,-34.9,M,,*65
$PYRTM,2024,122.338788422060,13.448435832188
$GPGGA,080750.00,3330.2705,N,11933.7337,W,1,09,0.8,13.3,M,-34.9,M,,*6D
$PYRTM,2024,122.338799994850,13.448447404988
$GPGGA,080751.00,3330.2715,N,11933.7364,W,1,09,0.8,13.2,M,-34.9,M,,*6A
$PYRTM,2024,122.338811570324,13.448458980475
$GPGGA,080752.00,3330.2724,N,11933.7394,W,1,09,0.8,12.6,M,-34.9,M,,*61
$PYRTM,2024,122.338823146053,13.448470556192
$GPGGA,080753.00,3330.2727,N,11933.7419,W,1,09,0.8,12.2,M,-34.9,M,,*65
$PYRTM,2024,122.338834713519,13.448482123657
$GPGGA,080754.00,3330.2732,N,11933.7439,W,1,09,0.8,13.1,M,-34.9,M,,*66
$PYRTM,2024,122.338846295278,13.448493705417
$GPGGA,080755.00,3330.2740,N,11933.7462,W,1,09,0.8,14.3,M,-34.9,M,,*69
$PYRTM,2024,122.338857867199,13.448505277350
$GPGGA,080756.00,3330.2751,N,11933.7489,W,1,09,0.8,14.2,M,-34.9,M,,*6E
$PYRTM,2024,122.338869441678,13.448516851817
$GPGGA,080757.00,3330.2758,N,11933.7518,W,1,09,0.8,13.3,M,-34.9,M,,*69
$PYRTM,2024,122.338881015046,13.448528425185
$GPGGA,080758.00,3330.2762,N,11933.7545,W,1,09,0.8,12.5,M,-34.9,M,,*60
$PYRTM,2024,122.338892603333,13.448540013484
$GPGGA,080759.00,3330.2766,N,11933.7565,W,1,09,0.8,13.4,M,-34.9,M,,*67
$PYRTM,2024,122.338899984375,13.448547394525
$GPGGA,080800.00,3330.2776,N,11933.7586,W,1,09,0.8,14.8,M,-34.9,M,,*63
$PYRTM,2024,122.338915741678,13.448563151817
$GPGGA,080801.00,3330.2787,N,11933.7610,W,1,09,0.8,15.5,M,-34.9,M,,*6C
$PYRTM,2024,122.338927310579,13.448574720718
$GPGGA,080802.00,3330.2795,N,11933.7637,W,1,09,0.8,15.0,M,-34.9,M,,*6C
$PYRTM,2024,122.338938886169,13.448586296308
$GPGGA,080803.00,3330.2800,N,11933.7663,W,1,09,0.8,14.0,M,-34.9,M,,*6E
$PYRTM,2024,122.338946295127,13.448593705266
$GPGGA,080804.00,3330.2805,N,11933.7685,W,1,09,0.8,13.7,M,-34.9,M,,*64
$PYRTM,2024,122.338964927512,13.448612337650
$GPGGA,080805.00,3330.2813,N,11933.7706,W,1,09,0.8,13.8,M,-34.9,M,,*67
$PYRTM,2024,122.338973608623,13.448621018762
$GPGGA,080806.00,3330.2824,N,11933.7728,W,1,09,0.8,14.1,M,-34.9,M,,*62
$PYRTM,2024,122.338985182928,13.448632593067
$GPGGA,080807.00,3330.2834,N,11933.7752,W,1,09,0.8,14.3,M,-34.9,M,,*6D
$PYRTM,2024,122.338992578333,13.448639988472
$GPGGA,080808.00,3330.2841,N,11933.7779,W,1,09,0.8,14.5,M,-34.9,M,,*6F
$PYRTM,2024,122.339008330949,13.448655741088
$GPGGA,080809.00,3330.2847,N,11933.7807,W,1,09,0.8,14.1,M,-34.9,M,,*6A
$PYRTM,2024,122.339019903623,13.448667313773
$GPGGA,080810.00,3330.2852,N,11933.7833,W,1,09,0.8,13.5,M,-34.9,M,,*62
$PYRTM,2024,122.339031481956,13.448678892106
$GPGGA,080811.00,3330.2860,N,11933.7854,W,1,09,0.8,13.8,M,-34.9,M,,*6E
$PYRTM,2024,122.339043053056,13.448690463194
$GPGGA,080812.00,3330.2871,N,11933.7876,W,1,09,0.8,14.2,M,-34.9,M,,*60
$PYRTM,2024,122.339054641505,13.448702051644
$GPGGA,080813.00,3330.2882,N,11933.7903,W,1,09,0.8,13.9,M,-34.9,M,,*62
$PYRTM,2024,122.339062022222,13.448709432361
$GPGGA,080814.00,3330.2887,N,11933.7930,W,1,09,0.8,13.4,M,-34.9,M,,*6D
$PYRTM,2024,122.339073711551,13.448721121690
$GPGGA,080815.00,3330.2889,N,11933.7952,W,1,09,0.8,14.1,M,-34.9,M,,*64
$PYRTM,2024,122.339089349942,13.448736760081
$GPGGA,080816.00,3330.2896,N,11933.7975,W,1,09,0.8,14.5,M,-34.9,M,,*68
$PYRTM,2024,122.339100926944,13.448748337083
$GPGGA,080817.00,3330.2908,N,11933.8000,W,1,09,0.8,14.2,M,-34.9,M,,*6C
$PYRTM,2024,122.339112496991,13.448759907130
$GPGGA,080818.00,3330.2917,N,11933.8025,W,1,09,0.8,13.7,M,-34.9,M,,*68
$PYRTM,2024,122.339124073785,13.448771483924
$GPGGA,080819.00,3330.2924,N,11933.8050,W,1,09,0.8,13.3,M,-34.9,M,,*6F
$PYRTM,2024,122.339135645498,13.448783055637
$GPGGA,080820.00,3330.2928,N,11933.8076,W,1,09,0.8,13.1,M,-34.9,M,,*6F
$PYRTM,2024,122.339147219861,13.448794630000
$GPGGA,080821.00,3330.2934,N,11933.8098,W,1,09,0.8,13.8,M,-34.9,M,,*6A
$PYRTM,2024,122.339158789248,13.448806199398
$GPGGA,080822.00,3330.2943,N,11933.8117,W,1,09,0.8,15.0,M,-34.9,M,,*61
$PYRTM,2024,122.339170369028,13.448817779167
$GPGGA,080823.00,3330.2953,N,11933.8142,W,1,09,0.8,15.4,M,-34.9,M,,*65
$PYRTM,2024,122.339181942720,13.448829352859
$GPGGA,080824.00,3330.2961,N,11933.8172,W,1,09,0.8,14.4,M,-34.9,M,,*61
$PYRTM,2024,122.339193518727,13.448840928866
$GPGGA,080825.00,3330.2965,N,11933.8198,W,1,09,0.8,13.2,M,-34.9,M,,*61
$PYRTM,2024,122.339205090880,13.448852501019
$GPGGA,080826.00,3330.2971,N,11933.8216,W,1,09,0.8,13.3,M,-34.9,M,,*63
$PYRTM,2024,122.339216670972,13.448864081123
$GPGGA,080827.00,3330.2982,N,11933.8234,W,1,09,0.8,14.0,M,-34.9,M,,*6A
$PYRTM,2024,122.339228240289,13.448875650428
$GPGGA,080828.00,3330.2993,N,11933.8261,W,1,09,0.8,14.1,M,-34.9,M,,*64
$PYRTM,2024,122.339239829491,13.448887239630
$GPGGA,080829.00,3330.3001,N,11933.8290,W,1,09,0.8,13.5,M,-34.9,M,,*6B
$PYRTM,2024,122.339251386794,13.448898796933
$GPGGA,080830.00,3330.3004,N,11933.8315,W,1,09,0.8,13.5,M,-34.9,M,,*6A
$PYRTM,2024,122.339262962280,13.448910372419
$GPGGA,080831.00,3330.3008,N,11933.8337,W,1,09,0.8,14.1,M,-34.9,M,,*64
$PYRTM,2024,122.339274535822,13.448921945961
$GPGGA,080832.00,3330.3017,N,11933.8357,W,1,09,0.8,14.7,M,-34.9,M,,*69
$PYRTM,2024,122.339286110405,13.448933520544
$GPGGA,080833.00,3330.3029,N,11933.8382,W,1,09,0.8,14.5,M,-34.9,M,,*6F
$PYRTM,2024,122.339297684005,13.448945094144
$GPGGA,080834.00,3330.3039,N,11933.8410,W,1,09,0.8,12.1,M,-34.9,M,,*67
$PYRTM,2024,122.339305079282,13.448952489421
$GPGGA,080835.00,3330.3043,N,11933.8432,W,1,09,0.8,11.5,M,-34.9,M,,*6C
