$PYRTM,2024,128.166681853877,19.276329264028
$GPGGA,040000.00,3300.3511,N,11803.1239,W,1,09,1.0,8.8,M,-34.6,M,,*5A
$PYRTM,2024,128.166693424410,19.276340834560
$GPGGA,040001.00,3300.3502,N,11803.1223,W,1,09,1.0,8.6,M,-34.6,M,,*5C
$PYRTM,2024,128.166700007396,19.276347417535
$GPGGA,040002.00,3300.3493,N,11803.1207,W,1,09,1.0,8.6,M,-34.6,M,,*50
$PYRTM,2024,128.166716572674,19.276363982812
$GPGGA,040003.00,3300.3484,N,11803.1190,W,1,09,1.0,8.6,M,-34.6,M,,*5A
$PYRTM,2024,128.166728147546,19.276375557685
$GPGGA,040004.00,3300.3475,N,11803.1174,W,1,09,1.0,8.6,M,-34.6,M,,*59
$PYRTM,2024,128.166735554340,19.276382964479
$GPGGA,040005.00,3300.3466,N,11803.1157,W,1,09,1.0,8.8,M,-34.6,M,,*55
$PYRTM,2024,128.166751296053,19.276398706192
$GPGGA,040006.00,3300.3457,N,11803.1140,W,1,09,1.0,9.0,M,-34.6,M,,*5B
$PYRTM,2024,128.166762867813,19.276410277951
$GPGGA,040007.00,3300.3448,N,11803.1123,W,1,09,1.0,9.2,M,-34.6,M,,*53
$PYRTM,2024,128.166770263542,19.276417673681
$GPGGA,040008.00,3300.3440,N,11803.1107,W,1,09,1.0,9.3,M,-34.6,M,,*53
$PYRTM,2024,128.166786016991,19.276433427141
$GPGGA,040009.00,3300.3431,N,11803.1090,W,1,09,1.0,9.3,M,-34.6,M,,*5B
$PYRTM,2024,128.166793413519,19.276440823657
$GPGGA,040010.00,3300.3424,N,11803.1073,W,1,09,1.0,9.3,M,-34.6,M,,*5A
$PYRTM,2024,128.166812045752,19.276459455891
$GPGGA,040011.00,3300.3417,N,11803.1055,W,1,09,1.0,9.2,M,-34.6,M,,*5E
$PYRTM,2024,128.166820743981,19.276468154120
$GPGGA,040012.00,3300.3408,N,11803.1039,W,1,09,1.0,9.0,M,-34.6,M,,*5B
$PYRTM,2024,128.166832314988,19.276479725127
$GPGGA,040013.00,3300.3399,N,11803.1022,W,1,09,1.0,8.8,M,-34.6,M,,*56
$PYRTM,2024,128.166843891238,19.276491301377
$GPGGA,040014.00,3300.3390,N,11803.1006,W,1,09,1.0,8.8,M,-34.6,M,,*5E
$PYRTM,2024,128.166855456782,19.276502866921
$GPGGA,040015.00,3300.3381,N,11803.0990,W,1,09,1.0,8.9,M,-34.6,M,,*59
$PYRTM,2024,128.166867039896,19.276514450035
$GPGGA,040016.00,3300.3372,N,11803.0973,W,1,09,1.0,8.9,M,-34.6,M,,*5B
$PYRTM,2024,128.166874431863,19.276521842002
$GPGGA,040017.00,3300.3364,N,11803.0955,W,1,09,1.0,8.8,M,-34.6,M,,*58
$PYRTM,2024,128.166890179931,19.276537590069
$GPGGA,040018.00,3300.3355,N,11803.0937,W,1,09,1.0,8.7,M,-34.6,M,,*5E
$PYRTM,2024,128.166901758692,19.276549168831
$GPGGA,040019.00,3300.3346,N,11803.0920,W,1,09,1.0,8.7,M,-34.6,M,,*5B
$PYRTM,2024,128.166909153044,19.276556563183
$GPGGA,040020.00,3300.3336,N,11803.0905,W,1,09,1.0,8.7,M,-34.6,M,,*51
$PYRTM,2024,128.166924903275,19.276572313414
$GPGGA,040021.00,3300.3326,N,11803.0888,W,1,09,1.0,8.5,M,-34.6,M,,*57
$PYRTM,2024,128.166936482454,19.276583892593
$GPGGA,040022.00,3300.3318,N,11803.0872,W,1,09,0.8,8.3,M,-34.6,M,,*53
$PYRTM,2024,128.166943878380,19.276591288519
$GPGGA,040023.00,3300.3310,N,11803.0856,W,1,09,0.8,8.4,M,-34.6,M,,*5B
$PYRTM,2024,128.166959630208,19.276607040347
$GPGGA,040024.00,3300.3302,N,11803.0841,W,1,09,0.8,8.6,M,-34.6,M,,*5B
$PYRTM,2024,128.166971198553,19.276618608692
$GPGGA,040025.00,3300.3294,N,11803.0824,W,1,09,0.8,8.9,M,-34.6,M,,*58
$PYRTM,2024,128.166978599120,19.276626009259
$GPGGA,040026.00,3300.3285,N,11803.0807,W,1,09,0.8,9.0,M,-34.6,M,,*52
$PYRTM,2024,128.166994354248,19.276641764398
$GPGGA,040027.00,3300.3276,N,11803.0789,W,1,09,0.8,9.1,M,-34.6,M,,*57
$PYRTM,2024,128.167005929433,19.276653339572
$GPGGA,040028.00,3300.3268,N,11803.0772,W,1,09,0.8,9.4,M,-34.6,M,,*56
$PYRTM,2024,128.167017500023,19.276664910162
$GPGGA,040029.00,3300.3259,N,11803.0755,W,1,09,0.8,9.5,M,-34.6,M,,*51
$PYRTM,2024,128.167029075498,19.276676485637
$GPGGA,040030.00,3300.3250,N,11803.0737,W,1,09,0.8,9.4,M,-34.6,M,,*55
$PYRTM,2024,128.167040649271,19.276688059410
$GPGGA,040031.00,3300.3241,N,11803.0719,W,1,09,0.8,9.0,M,-34.6,M,,*5C
$PYRTM,2024,128.167048042801,19.276695452940
$GPGGA,040032.00,3300.3233,N,11803.0702,W,1,09,0.8,8.8,M,-34.6,M,,*59
$PYRTM,2024,128.167063796701,19.276711206840
$GPGGA,040033.00,3300.3225,N,11803.0686,W,1,09,0.8,8.6,M,-34.6,M,,*5C
$PYRTM,2024,128.167075371597,19.276722781736
$GPGGA,040034.00,3300.3217,N,11803.0670,W,1,09,0.8,8.3,M,-34.6,M,,*56
$PYRTM,2024,128.167086940856,19.276734350995
$GPGGA,040035.00,3300.3208,N,11803.0654,W,1,09,0.8,8.0,M,-34.6,M,,*5C
$PYRTM,2024,128.167098520104,19.276745930243
$GPGGA,040036.00,3300.3200,N,11803.0637,W,1,09,0.8,8.0,M,-34.6,M,,*52
$PYRTM,2024,128.167105915266,19.276753325405
$GPGGA,040037.00,3300.3191,N,11803.0621,W,1,09,0.8,8.2,M,-34.6,M,,*5D
$PYRTM,2024,128.167121667812,19.276769077951
$GPGGA,040038.00,3300.3181,N,11803.0604,W,1,09,0.8,8.7,M,-34.6,M,,*51
$PYRTM,2024,128.167133241968,19.276780652106
$GPGGA,040039.00,3300.3172,N,11803.0587,W,1,09,0.8,9.1,M,-34.6,M,,*53
$PYRTM,2024,128.167140637558,19.276788047697
$GPGGA,040040.00,3300.3163,N,11803.0569,W,1,09,0.8,9.4,M,-34.6,M,,*58
$PYRTM,2024,128.167152327847,19.276799737986
$GPGGA,040041.00,3300.3156,N,11803.0550,W,1,09,0.8,9.5,M,-34.6,M,,*54
$PYRTM,2024,128.167170858102,19.276818268241
$GPGGA,040042.00,3300.3148,N,11803.0532,W,1,09,0.8,9.5,M,-34.6,M,,*5C
$PYRTM,2024,128.167179539155,19.276826949294
$GPGGA,040043.00,3300.3141,N,11803.0515,W,1,09,0.8,9.3,M,-34.6,M,,*57
$PYRTM,2024,128.167191116123,19.276838526262
$GPGGA,040044.00,3300.3131,N,11803.0500,W,1,09,0.8,9.1,M,-34.6,M,,*51
$PYRTM,2024,128.167202686470,19.276850096609
$GPGGA,040045.00,3300.3122,N,11803.0484,W,1,09,0.8,8.8,M,-34.6,M,,*57
$PYRTM,2024,128.167214261123,19.276861671273
$GPGGA,040046.00,3300.3116,N,11803.0467,W,1,09,0.8,8.8,M,-34.6,M,,*5E
$PYRTM,2024,128.167225835486,19.276873245625
$GPGGA,040047.00,3300.3109,N,11803.0449,W,1,09,0.8,9.0,M,-34.6,M,,*54
$PYRTM,2024,128.167237410220,19.276884820359
$GPGGA,040048.00,3300.3099,N,11803.0432,W,1,09,0.8,9.1,M,-34.6,M,,*5E
$PYRTM,2024,128.167244804988,19.276892215127
$GPGGA,040049.00,3300.3087,N,11803.0417,W,1,09,0.8,9.2,M,-34.6,M,,*54
$PYRTM,2024,128.167263451956,19.276910862095
$GPGGA,040050.00,3300.3078,N,11803.0400,W,1,09,0.8,9.1,M,-34.6,M,,*59
$PYRTM,2024,128.167272132963,19.276919543102
$GPGGA,040051.00,3300.3069,N,11803.0383,W,1,09,0.8,9.2,M,-34.6,M,,*57
$PYRTM,2024,128.167279526887,19.276926937037
$GPGGA,040052.00,3300.3062,N,11803.0365,W,1,09,0.8,9.3,M,-34.6,M,,*56
$PYRTM,2024,128.167295279063,19.276942689201
$GPGGA,040053.00,3300.3053,N,11803.0349,W,1,09,0.8,9.1,M,-34.6,M,,*59
$PYRTM,2024,128.167306857060,19.276954267211
$GPGGA,040054.00,3300.3043,N,11803.0334,W,1,09,0.8,8.9,M,-34.6,M,,*5C
$PYRTM,2024,128.167318427870,19.276965838009
$GPGGA,040055.00,3300.3033,N,11803.0319,W,1,09,0.8,8.9,M,-34.6,M,,*55
$PYRTM,2024,128.167330018935,19.276977429074
$GPGGA,040056.00,3300.3025,N,11803.0302,W,1,09,0.8,8.8,M,-34.6,M,,*5A
$PYRTM,2024,128.167341571806,19.276988981944
$GPGGA,040057.00,3300.3018,N,11803.0284,W,1,09,0.8,9.0,M,-34.6,M,,*53
$PYRTM,2024,128.167353164664,19.277000574803
$GPGGA,040058.00,3300.3011,N,11803.0267,W,1,09,0.8,9.4,M,-34.6,M,,*5C
$PYRTM,2024,128.167364725741,19.277012135880
$GPGGA,040059.00,3300.3000,N,11803.0251,W,1,09,0.8,9.7,M,-34.6,M,,*5B
$PYRTM,2024,128.167372119676,19.277019529815
$GPGGA,040100.00,3300.2990,N,11803.0235,W,1,09,0.8,9.7,M,-34.6,M,,*55
$PYRTM,2024,128.167387872419,19.277035282558
$GPGGA,040101.00,3300.2982,N,11803.0216,W,1,09,0.8,9.7,M,-34.6,M,,*56
$PYRTM,2024,128.167399447685,19.277046857824
$GPGGA,040102.00,3300.2975,N,11803.0198,W,1,09,0.8,9.7,M,-34.6,M,,*58
$PYRTM,2024,128.167411017396,19.277058427546
$GPGGA,040103.00,3300.2968,N,11803.0180,W,1,09,0.8,9.7,M,-34.6,M,,*5C
$PYRTM,2024,128.167422596192,19.277070006331
$GPGGA,040104.00,3300.2958,N,11803.0164,W,1,09,0.8,9.4,M,-34.6,M,,*51
$PYRTM,2024,128.167429991863,19.277077402002
$GPGGA,040105.00,3300.2948,N,11803.0149,W,1,09,0.8,9.1,M,-34.6,M,,*5B
$PYRTM,2024,128.167445743947,19.277093154097
$GPGGA,040106.00,3300.2939,N,11803.0134,W,1,09,0.8,8.8,M,-34.6,M,,*5C
$PYRTM,2024,128.167457316863,19.277104727002
$GPGGA,040107.00,3300.2932,N,11803.0117,W,1,09,0.8,8.7,M,-34.6,M,,*58
$PYRTM,2024,128.167468892697,19.277116302836
$GPGGA,040108.00,3300.2924,N,11803.0099,W,1,09,0.8,8.7,M,-34.6,M,,*57
$PYRTM,2024,128.167480465197,19.277127875324
$GPGGA,040109.00,3300.2916,N,11803.0083,W,1,09,0.8,8.9,M,-34.6,M,,*52
$PYRTM,2024,128.167487864850,19.277135274988
$GPGGA,040110.00,3300.2905,N,11803.0067,W,1,09,0.8,9.2,M,-34.6,M,,*58
$PYRTM,2024,128.167503614016,19.277151024155
$GPGGA,040111.00,3300.2893,N,11803.0051,W,1,09,0.8,9.4,M,-34.6,M,,*54
$PYRTM,2024,128.167511010671,19.277158420810
$GPGGA,040112.00,3300.2885,N,11803.0033,W,1,09,0.8,9.6,M,-34.6,M,,*56
$PYRTM,2024,128.167529643623,19.277177053762
$GPGGA,040113.00,3300.2879,N,11803.0014,W,1,09,0.8,9.9,M,-34.6,M,,*5E
$PYRTM,2024,128.167538336944,19.277185747083
$GPGGA,040114.00,3300.2872,N,11802.9996,W,1,09,0.8,10.0,M,-34.6,M,,*68
$PYRTM,2024,128.167549911181,19.277197321319
$GPGGA,040115.00,3300.2863,N,11802.9979,W,1,09,0.8,9.9,M,-34.6,M,,*59
$PYRTM,2024,128.167561485891,19.277208896030
$GPGGA,040116.00,3300.2852,N,11802.9964,W,1,09,0.8,9.6,M,-34.6,M,,*5B
$PYRTM,2024,128.167573056806,19.277220466944
$GPGGA,040117.00,3300.2844,N,11802.9948,W,1,09,0.8,9.5,M,-34.6,M,,*50
$PYRTM,2024,128.167584635324,19.277232045463
$GPGGA,040118.00,3300.2837,N,11802.9933,W,1,09,0.8,9.5,M,-34.6,M,,*57
$PYRTM,2024,128.167596201458,19.277243611597
$GPGGA,040119.00,3300.2830,N,11802.9916,W,1,09,0.8,9.5,M,-34.6,M,,*56
$PYRTM,2024,128.167607782604,19.277255192743
$GPGGA,040120.00,3300.2821,N,11802.9898,W,1,09,0.8,9.3,M,-34.6,M,,*5D
$PYRTM,2024,128.167615178461,19.277262588600
$GPGGA,040121.00,3300.2811,N,11802.9881,W,1,09,0.8,9.3,M,-34.6,M,,*57
$PYRTM,2024,128.167630925637,19.277278335775
$GPGGA,040122.00,3300.2802,N,11802.9864,W,1,09,0.8,9.4,M,-34.6,M,,*5A
$PYRTM,2024,128.167642503727,19.277289913866
$GPGGA,040123.00,3300.2793,N,11802.9847,W,1,09,0.8,9.6,M,-34.6,M,,*5F
$PYRTM,2024,128.167654081111,19.277301491250
$GPGGA,040124.00,3300.2784,N,11802.9830,W,1,09,0.8,9.6,M,-34.6,M,,*5E
$PYRTM,2024,128.167665651887,19.277313062025
$GPGGA,040125.00,3300.2775,N,11802.9813,W,1,09,0.8,9.6,M,-34.6,M,,*50
$PYRTM,2024,128.167677240752,19.277324650891
$GPGGA,040126.00,3300.2765,N,11802.9796,W,1,09,0.8,9.5,M,-34.6,M,,*53
$PYRTM,2024,128.167688801123,19.277336211262
$GPGGA,040127.00,3300.2756,N,11802.9781,W,1,09,0.8,9.4,M,-34.6,M,,*55
$PYRTM,2024,128.167700374317,19.277347784456
$GPGGA,040128.00,3300.2748,N,11802.9765,W,1,09,0.8,9.6,M,-34.6,M,,*5D
$PYRTM,2024,128.167707783958,19.277355194097
$GPGGA,040129.00,3300.2740,N,11802.9748,W,1,09,0.8,9.8,M,-34.6,M,,*55
$PYRTM,2024,128.167723522789,19.277370932940
$GPGGA,040130.00,3300.2732,N,11802.9731,W,1,09,0.8,10.0,M,-34.6,M,,*66
$PYRTM,2024,128.167735096643,19.277382506782
$GPGGA,040131.00,3300.2723,N,11802.9714,W,1,09,0.8,10.3,M,-34.6,M,,*63
$PYRTM,2024,128.167742492234,19.277389902373
$GPGGA,040132.00,3300.2715,N,11802.9698,W,1,09,0.8,10.5,M,-34.6,M,,*66
$PYRTM,2024,128.167758245590,19.277405655729
$GPGGA,040133.00,3300.2706,N,11802.9681,W,1,09,0.8,10.6,M,-34.6,M,,*6E
$PYRTM,2024,128.167769820243,19.277417230394
$GPGGA,040134.00,3300.2698,N,11802.9662,W,1,09,0.8,10.4,M,-34.6,M,,*60
$PYRTM,2024,128.167781394132,19.277428804271
$GPGGA,040135.00,3300.2690,N,11802.9644,W,1,09,0.8,10.3,M,-34.6,M,,*6A
$PYRTM,2024,128.167792969282,19.277440379421
$GPGGA,040136.00,3300.2682,N,11802.9627,W,1,09,0.8,10.1,M,-34.6,M,,*6D
$PYRTM,2024,128.167800361806,19.277447771944
$GPGGA,040137.00,3300.2672,N,11802.9612,W,1,09,0.8,9.8,M,-34.6,M,,*54
$PYRTM,2024,128.167816118090,19.277463528229
$GPGGA,040138.00,3300.2662,N,11802.9597,W,1,09,0.8,9.6,M,-34.6,M,,*5A
$PYRTM,2024,128.167827690590,19.277475100729
$GPGGA,040139.00,3300.2654,N,11802.9580,W,1,09,0.8,9.3,M,-34.6,M,,*5D
$PYRTM,2024,128.167839279190,19.277486689329
$GPGGA,040140.00,3300.2646,N,11802.9563,W,1,09,0.8,9.2,M,-34.6,M,,*5C
$PYRTM,2024,128.167850838576,19.277498248715
$GPGGA,040141.00,3300.2637,N,11802.9546,W,1,09,0.8,9.3,M,-34.6,M,,*5D
$PYRTM,2024,128.167862413194,19.277509823333
$GPGGA,040142.00,3300.2628,N,11802.9530,W,1,09,0.8,9.6,M,-34.6,M,,*54
$PYRTM,2024,128.167869822581,19.277517232720
$GPGGA,040143.00,3300.2618,N,11802.9513,W,1,09,0.8,9.9,M,-34.6,M,,*58
$PYRTM,2024,128.167888455914,19.277535866053
$GPGGA,040144.00,3300.2609,N,11802.9496,W,1,09,0.8,10.2,M,-34.6,M,,*60
$PYRTM,2024,128.167897135116,19.277544545255
$GPGGA,040145.00,3300.2601,N,11802.9478,W,1,09,0.8,10.5,M,-34.6,M,,*6E
$PYRTM,2024,128.167908710104,19.277556120243
$GPGGA,040146.00,3300.2593,N,11802.9460,W,1,09,0.8,10.6,M,-34.6,M,,*6F
$PYRTM,2024,128.167920283310,19.277567693449
$GPGGA,040147.00,3300.2584,N,11802.9443,W,1,09,0.8,10.5,M,-34.6,M,,*6A
$PYRTM,2024,128.167931857708,19.277579267859
$GPGGA,040148.00,3300.2575,N,11802.9426,W,1,09,0.8,10.3,M,-34.6,M,,*6E
$PYRTM,2024,128.167943425995,19.277590836134
$GPGGA,040149.00,3300.2567,N,11802.9410,W,1,09,0.8,10.0,M,-34.6,M,,*6A
$PYRTM,2024,128.167955005972,19.277602416111
$GPGGA,040150.00,3300.2560,N,11802.9393,W,1,09,0.8,9.8,M,-34.6,M,,*59
$PYRTM,2024,128.167966579086,19.277613989225
$GPGGA,040151.00,3300.2552,N,11802.9377,W,1,09,0.8,9.6,M,-34.6,M,,*5D
$PYRTM,2024,128.167973973970,19.277621384109
$GPGGA,040152.00,3300.2542,N,11802.9361,W,1,09,0.8,9.5,M,-34.6,M,,*5B
$PYRTM,2024,128.167985670150,19.277633080289
$GPGGA,040153.00,3300.2532,N,11802.9345,W,1,09,0.8,9.5,M,-34.6,M,,*5B
$PYRTM,2024,128.168001306204,19.277648716343
$GPGGA,040154.00,3300.2523,N,11802.9328,W,1,09,0.8,9.4,M,-34.6,M,,*56
$PYRTM,2024,128.168012876759,19.277660286910
$GPGGA,040155.00,3300.2516,N,11802.9310,W,1,09,0.8,9.5,M,-34.6,M,,*5B
$PYRTM,2024,128.168024453183,19.277671863322
$GPGGA,040156.00,3300.2507,N,11802.9293,W,1,09,0.8,9.8,M,-34.6,M,,*5F
$PYRTM,2024,128.168036027685,19.277683437824
$GPGGA,040157.00,3300.2497,N,11802.9276,W,1,09,0.8,10.1,M,-34.6,M,,*6C
$PYRTM,2024,128.168047600116,19.277695010255
$GPGGA,040158.00,3300.2487,N,11802.9259,W,1,09,0.8,10.3,M,-34.6,M,,*6D
$PYRTM,2024,128.168059172338,19.277706582477
$GPGGA,040159.00,3300.2477,N,11802.9242,W,1,09,0.8,10.5,M,-34.6,M,,*6F
$PYRTM,2024,128.168070748044,19.277718158183
$GPGGA,040200.00,3300.2469,N,11802.9225,W,1,09,0.8,10.5,M,-34.6,M,,*6E
$PYRTM,2024,128.168082321505,19.277729731644
$GPGGA,040201.00,3300.2461,N,11802.9207,W,1,09,0.8,10.4,M,-34.6,M,,*66
$PYRTM,2024,128.168089716690,19.277737126829
$GPGGA,040202.00,3300.2454,N,11802.9189,W,1,09,0.8,10.1,M,-34.6,M,,*63
$PYRTM,2024,128.168105464896,19.277752875046
$GPGGA,040203.00,3300.2446,N,11802.9172,W,1,09,0.8,9.9,M,-34.6,M,,*55
$PYRTM,2024,128.168117044201,19.277764454340
$GPGGA,040204.00,3300.2437,N,11802.9156,W,1,09,0.8,9.9,M,-34.6,M,,*52
$PYRTM,2024,128.168124438495,19.277771848634
$GPGGA,040205.00,3300.2428,N,11802.9141,W,1,09,0.8,9.9,M,-34.6,M,,*5B
$PYRTM,2024,128.168140195359,19.277787605498
$GPGGA,040206.00,3300.2419,N,11802.9125,W,1,09,0.8,9.9,M,-34.6,M,,*58
$PYRTM,2024,128.168151760648,19.277799170787
$GPGGA,040207.00,3300.2410,N,11802.9109,W,1,09,0.8,10.0,M,-34.6,M,,*6F
$PYRTM,2024,128.168163355266,19.277810765405
$GPGGA,040208.00,3300.2402,N,11802.9091,W,1,09,0.8,10.1,M,-34.6,M,,*62
$PYRTM,2024,128.168174910116,19.277822320255
$GPGGA,040209.00,3300.2393,N,11802.9073,W,1,09,0.8,10.0,M,-34.6,M,,*61
$PYRTM,2024,128.168182310428,19.277829720567
$GPGGA,040210.00,3300.2385,N,11802.9055,W,1,09,0.8,10.2,M,-34.6,M,,*68
$PYRTM,2024,128.168198063287,19.277845473426
$GPGGA,040211.00,3300.2375,N,11802.9039,W,1,09,0.8,10.2,M,-34.6,M,,*6C
$PYRTM,2024,128.168209640255,19.277857050394
$GPGGA,040212.00,3300.2365,N,11802.9023,W,1,09,0.8,10.1,M,-34.6,M,,*66
$PYRTM,2024,128.168221210880,19.277868621019
$GPGGA,040213.00,3300.2357,N,11802.9005,W,1,09,0.8,9.9,M,-34.6,M,,*52
$PYRTM,2024,128.168228605231,19.277876015370
$GPGGA,040214.00,3300.2349,N,11802.8987,W,1,09,0.8,9.7,M,-34.6,M,,*56
$PYRTM,2024,128.168247240856,19.277894650995
$GPGGA,040215.00,3300.2341,N,11802.8972,W,1,09,0.8,9.6,M,-34.6,M,,*54
$PYRTM,2024,128.168258828970,19.277906239109
$GPGGA,040216.00,3300.2332,N,11802.8955,W,1,09,0.8,9.7,M,-34.6,M,,*57
$PYRTM,2024,128.168270389248,19.277917799387
$GPGGA,040217.00,3300.2324,N,11802.8939,W,1,09,0.8,9.8,M,-34.6,M,,*54
$PYRTM,2024,128.168281976030,19.277929386169
$GPGGA,040218.00,3300.2316,N,11802.8921,W,1,09,0.8,9.8,M,-34.6,M,,*53
$PYRTM,2024,128.168293537130,19.277940947269
$GPGGA,040219.00,3300.2307,N,11802.8904,W,1,09,0.8,10.1,M,-34.6,M,,*64
$PYRTM,2024,128.168302225162,19.277949635312
$GPGGA,040220.00,3300.2298,N,11802.8888,W,1,09,0.8,10.3,M,-34.6,M,,*6E
$PYRTM,2024,128.168313805764,19.277961215903
$GPGGA,040221.00,3300.2290,N,11802.8871,W,1,09,0.8,10.3,M,-34.6,M,,*61
$PYRTM,2024,128.168325381863,19.277972792002
$GPGGA,040222.00,3300.2282,N,11802.8853,W,1,09,0.8,10.3,M,-34.6,M,,*61
$PYRTM,2024,128.168336952928,19.277984363067
$GPGGA,040223.00,3300.2273,N,11802.8835,W,1,09,0.8,10.0,M,-34.6,M,,*6D
$PYRTM,2024,128.168348541632,19.277995951771
$GPGGA,040224.00,3300.2265,N,11802.8818,W,1,09,0.8,9.9,M,-34.6,M,,*53
$PYRTM,2024,128.168360100012,19.278007510150
$GPGGA,040225.00,3300.2256,N,11802.8801,W,1,09,0.8,10.0,M,-34.6,M,,*6B
$PYRTM,2024,128.168367495093,19.278014905231
$GPGGA,040226.00,3300.2247,N,11802.8784,W,1,09,0.8,9.9,M,-34.6,M,,*5B
$PYRTM,2024,128.168379200428,19.278026610567
$GPGGA,040227.00,3300.2238,N,11802.8767,W,1,09,0.8,9.7,M,-34.6,M,,*51
$PYRTM,2024,128.168394824144,19.278042234282
$GPGGA,040228.00,3300.2229,N,11802.8751,W,1,09,1.0,9.5,M,-34.6,M,,*50
$PYRTM,2024,128.168406397106,19.278053807245
$GPGGA,040229.00,3300.2220,N,11802.8734,W,1,09,1.0,9.4,M,-34.6,M,,*5A
$PYRTM,2024,128.168417974236,19.278065384375
$GPGGA,040230.00,3300.2212,N,11802.8716,W,1,09,1.0,9.3,M,-34.6,M,,*54
$PYRTM,2024,128.168429547072,19.278076957211
$GPGGA,040231.00,3300.2204,N,11802.8699,W,1,09,1.0,9.3,M,-34.6,M,,*54
$PYRTM,2024,128.168441119884,19.278088530023
$GPGGA,040232.00,3300.2194,N,11802.8683,W,1,09,1.0,9.4,M,-34.6,M,,*51
$PYRTM,2024,128.168452694190,19.278100104329
$GPGGA,040233.00,3300.2184,N,11802.8667,W,1,09,1.0,9.6,M,-34.6,M,,*59
$PYRTM,2024,128.168464275301,19.278111685440
$GPGGA,040234.00,3300.2175,N,11802.8650,W,1,09,1.0,9.7,M,-34.6,M,,*55
$PYRTM,2024,128.168475843125,19.278123253264
$GPGGA,040235.00,3300.2166,N,11802.8632,W,1,09,1.0,9.7,M,-34.6,M,,*52
$PYRTM,2024,128.168487437245,19.278134847384
$GPGGA,040236.00,3300.2159,N,11802.8613,W,1,09,1.0,9.9,M,-34.6,M,,*50
$PYRTM,2024,128.168498989965,19.278146400104
$GPGGA,040237.00,3300.2152,N,11802.8596,W,1,09,1.0,10.1,M,-34.6,M,,*64
$PYRTM,2024,128.168510590243,19.278158000382
$GPGGA,040238.00,3300.2143,N,11802.8580,W,1,09,1.0,10.2,M,-34.6,M,,*6F
$PYRTM,2024,128.168522138391,19.278169548530
$GPGGA,040239.00,3300.2134,N,11802.8564,W,1,09,1.0,10.0,M,-34.6,M,,*66
$PYRTM,2024,128.168533724630,19.278181134769
$GPGGA,040240.00,3300.2125,N,11802.8547,W,1,09,1.0,9.5,M,-34.6,M,,*54
$PYRTM,2024,128.168545287002,19.278192697141
$GPGGA,040241.00,3300.2117,N,11802.8529,W,1,09,1.0,9.2,M,-34.6,M,,*5B
$PYRTM,2024,128.168556861065,19.278204271204
$GPGGA,040242.00,3300.2109,N,11802.8512,W,1,09,1.0,9.1,M,-34.6,M,,*5C
$PYRTM,2024,128.168568430833,19.278215840972
$GPGGA,040243.00,3300.2099,N,11802.8496,W,1,09,1.0,9.2,M,-34.6,M,,*5B
$PYRTM,2024,128.168575830162,19.278223240301
$GPGGA,040244.00,3300.2088,N,11802.8480,W,1,09,1.0,9.2,M,-34.6,M,,*5B
$PYRTM,2024,128.168587521481,19.278234931620
$GPGGA,040245.00,3300.2078,N,11802.8463,W,1,09,1.0,9.2,M,-34.6,M,,*58
$PYRTM,2024,128.168606051262,19.278253461400
$GPGGA,040246.00,3300.2069,N,11802.8445,W,1,09,1.0,9.3,M,-34.6,M,,*5E
$PYRTM,2024,128.168614732164,19.278262142303
$GPGGA,040247.00,3300.2062,N,11802.8426,W,1,09,1.0,9.5,M,-34.6,M,,*57
$PYRTM,2024,128.168626305637,19.278273715775
$GPGGA,040248.00,3300.2053,N,11802.8410,W,1,09,1.0,9.7,M,-34.6,M,,*5D
$PYRTM,2024,128.168637880058,19.278285290208
$GPGGA,040249.00,3300.2043,N,11802.8394,W,1,09,1.0,9.7,M,-34.6,M,,*56
$PYRTM,2024,128.168649464954,19.278296875093
$GPGGA,040250.00,3300.2034,N,11802.8378,W,1,09,1.0,9.5,M,-34.6,M,,*5E
$PYRTM,2024,128.168661028600,19.278308438738
$GPGGA,040251.00,3300.2027,N,11802.8361,W,1,09,1.0,9.3,M,-34.6,M,,*53
$PYRTM,2024,128.168672627766,19.278320037905
$GPGGA,040252.00,3300.2021,N,11802.8343,W,1,09,1.0,9.5,M,-34.6,M,,*50
$PYRTM,2024,128.168684175833,19.278331585972
$GPGGA,040253.00,3300.2013,N,11802.8326,W,1,09,1.0,9.6,M,-34.6,M,,*50
$PYRTM,2024,128.168695750648,19.278343160799
$GPGGA,040254.00,3300.2003,N,11802.8310,W,1,09,1.0,9.7,M,-34.6,M,,*52
$PYRTM,2024,128.168707324398,19.278354734537
$GPGGA,040255.00,3300.1992,N,11802.8293,W,1,09,1.0,9.6,M,-34.6,M,,*5A
$PYRTM,2024,128.168718909803,19.278366319942
$GPGGA,040256.00,3300.1983,N,11802.8275,W,1,09,1.0,9.6,M,-34.6,M,,*51
$PYRTM,2024,128.168730472951,19.278377883090
$GPGGA,040257.00,3300.1975,N,11802.8256,W,1,09,1.0,9.6,M,-34.6,M,,*58
$PYRTM,2024,128.168742060509,19.278389470648
$GPGGA,040258.00,3300.1967,N,11802.8239,W,1,09,1.0,9.7,M,-34.6,M,,*5C
$PYRTM,2024,128.168749452731,19.278396862870
$GPGGA,040259.00,3300.1957,N,11802.8223,W,1,09,1.0,9.7,M,-34.6,M,,*55
$PYRTM,2024,128.168768089155,19.278415499306
$GPGGA,040300.00,3300.1947,N,11802.8207,W,1,09,1.0,9.4,M,-34.6,M,,*5C
$PYRTM,2024,128.168776769144,19.278424179282
$GPGGA,040301.00,3300.1938,N,11802.8190,W,1,09,1.0,9.0,M,-34.6,M,,*5C
$PYRTM,2024,128.168788343576,19.278435753715
$GPGGA,040302.00,3300.1931,N,11802.8174,W,1,09,1.0,8.8,M,-34.6,M,,*55
$PYRTM,2024,128.168799918333,19.278447328472
$GPGGA,040303.00,3300.1922,N,11802.8158,W,1,09,1.0,9.0,M,-34.6,M,,*51
$PYRTM,2024,128.168811518947,19.278458929086
$GPGGA,040304.00,3300.1913,N,11802.8143,W,1,09,1.0,9.4,M,-34.6,M,,*5A
$PYRTM,2024,128.168823065949,19.278470476100
$GPGGA,040305.00,3300.1903,N,11802.8127,W,1,09,1.0,9.5,M,-34.6,M,,*59
$PYRTM,2024,128.168834649016,19.278482059155
$GPGGA,040306.00,3300.1894,N,11802.8109,W,1,09,1.0,9.6,M,-34.6,M,,*5A
$PYRTM,2024,128.168846214306,19.278493624444
$GPGGA,040307.00,3300.1886,N,11802.8090,W,1,09,1.0,9.7,M,-34.6,M,,*58
$PYRTM,2024,128.168853609537,19.278501019676
$GPGGA,040308.00,3300.1878,N,11802.8072,W,1,09,1.0,9.9,M,-34.6,M,,*54
$PYRTM,2024,128.168869358461,19.278516768611
$GPGGA,040309.00,3300.1869,N,11802.8055,W,1,09,1.0,9.9,M,-34.6,M,,*50
$PYRTM,2024,128.168880937234,19.278528347373
$GPGGA,040310.00,3300.1859,N,11802.8038,W,1,09,1.0,9.6,M,-34.6,M,,*5F
$PYRTM,2024,128.168888356794,19.278535766933
$GPGGA,040311.00,3300.1851,N,11802.8022,W,1,09,1.0,9.4,M,-34.6,M,,*5F
$PYRTM,2024,128.168904085081,19.278551495231
$GPGGA,040312.00,3300.1844,N,11802.8004,W,1,09,1.0,9.4,M,-34.6,M,,*5C
$PYRTM,2024,128.168915660278,19.278563070417
$GPGGA,040313.00,3300.1836,N,11802.7988,W,1,09,1.0,9.5,M,-34.6,M,,*5B
$PYRTM,2024,128.168927233137,19.278574643275
$GPGGA,040314.00,3300.1826,N,11802.7972,W,1,09,1.0,9.5,M,-34.6,M,,*58
$PYRTM,2024,128.168938803044,19.278586213183
$GPGGA,040315.00,3300.1816,N,11802.7956,W,1,09,1.0,9.5,M,-34.6,M,,*5C
$PYRTM,2024,128.168946202824,19.278593612963
$GPGGA,040316.00,3300.1808,N,11802.7939,W,1,09,1.0,9.5,M,-34.6,M,,*59
$PYRTM,2024,128.168964850775,19.278612260914
$GPGGA,040317.00,3300.1799,N,11802.7922,W,1,09,1.0,9.6,M,-34.6,M,,*56
$PYRTM,2024,128.168973538437,19.278620948576
$GPGGA,040318.00,3300.1790,N,11802.7904,W,1,09,1.0,9.8,M,-34.6,M,,*5A
$PYRTM,2024,128.168985100787,19.278632510937
$GPGGA,040319.00,3300.1780,N,11802.7888,W,1,09,1.0,9.8,M,-34.6,M,,*5F
$PYRTM,2024,128.168996686412,19.278644096551
$GPGGA,040320.00,3300.1771,N,11802.7871,W,1,09,1.0,9.7,M,-34.6,M,,*52
$PYRTM,2024,128.169008252685,19.278655662824
$GPGGA,040321.00,3300.1763,N,11802.7853,W,1,09,1.0,9.6,M,-34.6,M,,*51
$PYRTM,2024,128.169019827164,19.278667237303
$GPGGA,040322.00,3300.1755,N,11802.7836,W,1,09,1.0,9.3,M,-34.6,M,,*51
$PYRTM,2024,128.169027236528,19.278674646667
$GPGGA,040323.00,3300.1747,N,11802.7820,W,1,09,1.0,9.1,M,-34.6,M,,*56
$PYRTM,2024,128.169042974653,19.278690384792
$GPGGA,040324.00,3300.1738,N,11802.7804,W,1,09,1.0,9.0,M,-34.6,M,,*5E
$PYRTM,2024,128.169054544641,19.278701954780
$GPGGA,040325.00,3300.1729,N,11802.7788,W,1,09,1.0,9.2,M,-34.6,M,,*56
$PYRTM,2024,128.169066123391,19.278713533542
$GPGGA,040326.00,3300.1721,N,11802.7772,W,1,09,1.0,9.4,M,-34.6,M,,*5E
$PYRTM,2024,128.169077692338,19.278725102477
$GPGGA,040327.00,3300.1713,N,11802.7755,W,1,09,1.0,9.5,M,-34.6,M,,*5A
$PYRTM,2024,128.169089273611,19.278736683750
$GPGGA,040328.00,3300.1705,N,11802.7737,W,1,09,1.0,9.7,M,-34.6,M,,*54
$PYRTM,2024,128.169100846481,19.278748256620
$GPGGA,040329.00,3300.1696,N,11802.7720,W,1,09,1.0,10.0,M,-34.6,M,,*67
$PYRTM,2024,128.169112420208,19.278759830347
$GPGGA,040330.00,3300.1687,N,11802.7703,W,1,09,1.0,9.9,M,-34.6,M,,*5F
$PYRTM,2024,128.169119820995,19.278767231134
$GPGGA,040331.00,3300.1678,N,11802.7686,W,1,09,1.0,9.7,M,-34.6,M,,*5C
$PYRTM,2024,128.169135575486,19.278782985625
$GPGGA,040332.00,3300.1669,N,11802.7668,W,1,09,1.0,9.6,M,-34.6,M,,*5E
$PYRTM,2024,128.169147143380,19.278794553519
$GPGGA,040333.00,3300.1661,N,11802.7651,W,1,09,1.0,9.7,M,-34.6,M,,*5C
$PYRTM,2024,128.169158724456,19.278806134606
$GPGGA,040334.00,3300.1652,N,11802.7635,W,1,09,1.0,9.7,M,-34.6,M,,*59
$PYRTM,2024,128.169170290880,19.278817701019
$GPGGA,040335.00,3300.1642,N,11802.7619,W,1,09,1.0,9.6,M,-34.6,M,,*56
$PYRTM,2024,128.169181872106,19.278829282245
$GPGGA,040336.00,3300.1633,N,11802.7603,W,1,09,1.0,9.4,M,-34.6,M,,*5A
$PYRTM,2024,128.169193438900,19.278840849039
$GPGGA,040337.00,3300.1625,N,11802.7585,W,1,09,1.0,9.3,M,-34.6,M,,*56
$PYRTM,2024,128.169205025046,19.278852435185
$GPGGA,040338.00,3300.1617,N,11802.7568,W,1,09,1.0,9.4,M,-34.6,M,,*5C
$PYRTM,2024,128.169212420475,19.278859830613
$GPGGA,040339.00,3300.1607,N,11802.7553,W,1,09,1.0,9.6,M,-34.6,M,,*56
$PYRTM,2024,128.169228160810,19.278875570949
$GPGGA,040340.00,3300.1597,N,11802.7538,W,1,09,1.0,9.8,M,-34.6,M,,*51
$PYRTM,2024,128.169239735706,19.278887145856
$GPGGA,040341.00,3300.1588,N,11802.7520,W,1,09,1.0,9.9,M,-34.6,M,,*56
$PYRTM,2024,128.169251309306,19.278898719444
$GPGGA,040342.00,3300.1582,N,11802.7502,W,1,09,1.0,9.8,M,-34.6,M,,*5E
$PYRTM,2024,128.169262884294,19.278910294433
$GPGGA,040343.00,3300.1574,N,11802.7484,W,1,09,1.0,9.8,M,-34.6,M,,*59
$PYRTM,2024,128.169270279063,19.278917689201
$GPGGA,040344.00,3300.1565,N,11802.7468,W,1,09,1.0,9.8,M,-34.6,M,,*5C
$PYRTM,2024,128.169286027674,19.278933437824
$GPGGA,040345.00,3300.1555,N,11802.7452,W,1,09,1.0,9.7,M,-34.6,M,,*58
$PYRTM,2024,128.169297614074,19.278945024225
$GPGGA,040346.00,3300.1545,N,11802.7436,W,1,09,1.0,9.6,M,-34.6,M,,*59
$PYRTM,2024,128.169305007338,19.278952417477
$GPGGA,040347.00,3300.1537,N,11802.7418,W,1,09,1.0,9.4,M,-34.6,M,,*53
$PYRTM,2024,128.169323654583,19.278971064722
$GPGGA,040348.00,3300.1530,N,11802.7400,W,1,09,1.0,9.4,M,-34.6,M,,*52
$PYRTM,2024,128.169332329190,19.278979739329
$GPGGA,040349.00,3300.1522,N,11802.7383,W,1,09,1.0,9.6,M,-34.6,M,,*5E
$PYRTM,2024,128.169343901562,19.278991311701
$GPGGA,040350.00,3300.1513,N,11802.7367,W,1,09,1.0,9.8,M,-34.6,M,,*50
$PYRTM,2024,128.169355477303,19.279002887442
$GPGGA,040351.00,3300.1504,N,11802.7352,W,1,09,1.0,9.8,M,-34.6,M,,*51
$PYRTM,2024,128.169367051377,19.279014461528
$GPGGA,040352.00,3300.1494,N,11802.7335,W,1,09,1.0,9.6,M,-34.6,M,,*55
$PYRTM,2024,128.169378625359,19.279026035498
$GPGGA,040353.00,3300.1486,N,11802.7318,W,1,09,1.0,9.3,M,-34.6,M,,*5D
$PYRTM,2024,128.169386019664,19.279033429803
$GPGGA,040354.00,3300.1478,N,11802.7300,W,1,09,1.0,9.2,M,-34.6,M,,*53
$PYRTM,2024,128.169401773437,19.279049183576
$GPGGA,040355.00,3300.1470,N,11802.7284,W,1,09,1.0,9.4,M,-34.6,M,,*51
$PYRTM,2024,128.169413347176,19.279060757315
$GPGGA,040356.00,3300.1460,N,11802.7267,W,1,09,1.0,9.7,M,-34.6,M,,*5D
$PYRTM,2024,128.169424921192,19.279072331331
$GPGGA,040357.00,3300.1451,N,11802.7250,W,1,09,1.0,9.8,M,-34.6,M,,*55
$PYRTM,2024,128.169436495035,19.279083905174
$GPGGA,040358.00,3300.1441,N,11802.7233,W,1,09,1.0,9.7,M,-34.6,M,,*51
$PYRTM,2024,128.169443897581,19.279091307720
$GPGGA,040359.00,3300.1433,N,11802.7216,W,1,09,1.0,9.6,M,-34.6,M,,*53
$PYRTM,2024,128.169459643750,19.279107053889
$GPGGA,040400.00,3300.1425,N,11802.7201,W,1,09,1.0,9.5,M,-34.6,M,,*5A
$PYRTM,2024,128.169471218843,19.279118628981
$GPGGA,040401.00,3300.1417,N,11802.7184,W,1,09,1.0,9.4,M,-34.6,M,,*55
$PYRTM,2024,128.169478612697,19.279126022836
$GPGGA,040402.00,3300.1410,N,11802.7167,W,1,09,1.0,9.2,M,-34.6,M,,*5A
$PYRTM,2024,128.169490302882,19.279137713021
$GPGGA,040403.00,3300.1401,N,11802.7150,W,1,09,1.0,9.1,M,-34.6,M,,*5C
$PYRTM,2024,128.169505948484,19.279153358634
$GPGGA,040404.00,3300.1391,N,11802.7134,W,1,09,1.0,9.3,M,-34.6,M,,*55
$PYRTM,2024,128.169517513958,19.279164924097
$GPGGA,040405.00,3300.1381,N,11802.7118,W,1,09,1.0,9.7,M,-34.6,M,,*5F
$PYRTM,2024,128.169529088322,19.279176498472
$GPGGA,040406.00,3300.1371,N,11802.7100,W,1,09,1.0,10.0,M,-34.6,M,,*65
$PYRTM,2024,128.169540663796,19.279188073935
$GPGGA,040407.00,3300.1363,N,11802.7081,W,1,09,1.0,10.3,M,-34.6,M,,*6C
$PYRTM,2024,128.169552237639,19.279199647778
$GPGGA,040408.00,3300.1355,N,11802.7062,W,1,09,1.0,10.3,M,-34.6,M,,*6B
$PYRTM,2024,128.169563806609,19.279211216748
$GPGGA,040409.00,3300.1347,N,11802.7045,W,1,09,1.0,10.1,M,-34.6,M,,*6E
$PYRTM,2024,128.169575385937,19.279222796076
$GPGGA,040410.00,3300.1339,N,11802.7029,W,1,09,1.0,9.8,M,-34.6,M,,*54
$PYRTM,2024,128.169586960220,19.279234370370
$GPGGA,040411.00,3300.1330,N,11802.7014,W,1,09,1.0,9.3,M,-34.6,M,,*59
$PYRTM,2024,128.169598533854,19.279245943993
$GPGGA,040412.00,3300.1322,N,11802.6997,W,1,09,1.0,9.0,M,-34.6,M,,*59
$PYRTM,2024,128.169610107732,19.279257517882
$GPGGA,040413.00,3300.1313,N,11802.6981,W,1,09,1.0,8.9,M,-34.6,M,,*55
$PYRTM,2024,128.169617505752,19.279264915891
$GPGGA,040414.00,3300.1304,N,11802.6966,W,1,09,1.0,9.2,M,-34.6,M,,*57
$PYRTM,2024,128.169633257257,19.279280667396
$GPGGA,040415.00,3300.1295,N,11802.6950,W,1,09,1.0,9.6,M,-34.6,M,,*5E
$PYRTM,2024,128.169644838021,19.279292248160
$GPGGA,040416.00,3300.1287,N,11802.6932,W,1,09,1.0,10.0,M,-34.6,M,,*64
$PYRTM,2024,128.169652237199,19.279299647338
$GPGGA,040417.00,3300.1279,N,11802.6913,W,1,09,1.0,10.2,M,-34.6,M,,*65
$PYRTM,2024,128.169663914387,19.279311324525
$GPGGA,040418.00,3300.1271,N,11802.6894,W,1,09,1.0,10.2,M,-34.6,M,,*6C
$PYRTM,2024,128.169682446725,19.279329856875
$GPGGA,040419.00,3300.1262,N,11802.6877,W,1,09,1.0,10.0,M,-34.6,M,,*60
$PYRTM,2024,128.169691126354,19.279338536493
$GPGGA,040420.00,3300.1252,N,11802.6861,W,1,09,1.0,9.7,M,-34.6,M,,*51
$PYRTM,2024,128.169702701829,19.279350111968
$GPGGA,040421.00,3300.1243,N,11802.6845,W,1,09,1.0,9.4,M,-34.6,M,,*55
$PYRTM,2024,128.169710095162,19.279357505301
$GPGGA,040422.00,3300.1237,N,11802.6828,W,1,09,1.0,9.3,M,-34.6,M,,*59
$PYRTM,2024,128.169725851875,19.279373262014
$GPGGA,040423.00,3300.1230,N,11802.6812,W,1,09,1.0,9.4,M,-34.6,M,,*51
$PYRTM,2024,128.169737422662,19.279384832801
$GPGGA,040424.00,3300.1221,N,11802.6796,W,1,09,1.0,9.5,M,-34.6,M,,*54
$PYRTM,2024,128.169748998160,19.279396408299
$GPGGA,040425.00,3300.1212,N,11802.6781,W,1,09,1.0,9.6,M,-34.6,M,,*50
$PYRTM,2024,128.169760572257,19.279407982407
$GPGGA,040426.00,3300.1203,N,11802.6764,W,1,09,1.0,9.6,M,-34.6,M,,*58
$PYRTM,2024,128.169767972847,19.279415382986
$GPGGA,040427.00,3300.1194,N,11802.6747,W,1,09,1.0,9.7,M,-34.6,M,,*54
$PYRTM,2024,128.169783713970,19.279431124109
$GPGGA,040428.00,3300.1186,N,11802.6730,W,1,09,1.0,9.8,M,-34.6,M,,*57
$PYRTM,2024,128.169795293958,19.279442704097
$GPGGA,040429.00,3300.1177,N,11802.6712,W,1,09,1.0,9.8,M,-34.6,M,,*58
$PYRTM,2024,128.169806875937,19.279454286076
$GPGGA,040430.00,3300.1168,N,11802.6695,W,1,09,1.0,9.7,M,-34.6,M,,*5F
$PYRTM,2024,128.169818443669,19.279465853808
$GPGGA,040431.00,3300.1159,N,11802.6679,W,1,09,1.0,9.6,M,-34.6,M,,*5F
$PYRTM,2024,128.169830024479,19.279477434618
$GPGGA,040432.00,3300.1151,N,11802.6664,W,1,09,1.0,9.5,M,-34.6,M,,*5B
$PYRTM,2024,128.169841591343,19.279489001493
$GPGGA,040433.00,3300.1142,N,11802.6648,W,1,09,1.0,9.4,M,-34.6,M,,*57
$PYRTM,2024,128.169853164514,19.279500574664
$GPGGA,040434.00,3300.1134,N,11802.6631,W,1,09,1.0,9.3,M,-34.6,M,,*58
$PYRTM,2024,128.169860586458,19.279507996609
$GPGGA,040435.00,3300.1126,N,11802.6615,W,1,09,1.0,9.3,M,-34.6,M,,*5C
$PYRTM,2024,128.169876313322,19.279523723472
$GPGGA,040436.00,3300.1117,N,11802.6599,W,1,09,1.0,9.5,M,-34.6,M,,*5C
$PYRTM,2024,128.169887889630,19.279535299780
$GPGGA,040437.00,3300.1108,N,11802.6583,W,1,09,1.0,9.7,M,-34.6,M,,*5A
$PYRTM,2024,128.169899460845,19.279546870984
$GPGGA,040438.00,3300.1101,N,11802.6566,W,1,09,1.0,10.0,M,-34.6,M,,*68
$PYRTM,2024,128.169911036273,19.279558446424
$GPGGA,040439.00,3300.1093,N,11802.6548,W,1,09,1.0,10.1,M,-34.6,M,,*6E
$PYRTM,2024,128.169922609016,19.279570019167
$GPGGA,040440.00,3300.1085,N,11802.6529,W,1,09,1.0,10.1,M,-34.6,M,,*60
$PYRTM,2024,128.169934184259,19.279581594398
$GPGGA,040441.00,3300.1077,N,11802.6512,W,1,09,1.0,9.9,M,-34.6,M,,*54
$PYRTM,2024,128.169941578993,19.279588989144
$GPGGA,040442.00,3300.1068,N,11802.6496,W,1,09,1.0,9.7,M,-34.6,M,,*5A
$PYRTM,2024,128.169957334606,19.279604744745
$GPGGA,040443.00,3300.1059,N,11802.6480,W,1,09,1.0,9.5,M,-34.6,M,,*5C
$PYRTM,2024,128.169968932454,19.279616342593
$GPGGA,040444.00,3300.1051,N,11802.6464,W,1,09,1.0,9.2,M,-34.6,M,,*5E
$PYRTM,2024,128.169980481748,19.279627891887
$GPGGA,040445.00,3300.1043,N,11802.6447,W,1,09,1.0,8.8,M,-34.6,M,,*56
$PYRTM,2024,128.169992061667,19.279639471817
$GPGGA,040446.00,3300.1035,N,11802.6431,W,1,09,1.0,8.8,M,-34.6,M,,*55
$PYRTM,2024,128.169999460590,19.279646870741
$GPGGA,040447.00,3300.1026,N,11802.6416,W,1,09,1.0,9.2,M,-34.6,M,,*58
$PYRTM,2024,128.170015214329,19.279662624468
$GPGGA,040448.00,3300.1017,N,11802.6400,W,1,09,1.0,9.6,M,-34.6,M,,*56
$PYRTM,2024,128.170022610324,19.279670020463
$GPGGA,040449.00,3300.1008,N,11802.6383,W,1,09,1.0,9.8,M,-34.6,M,,*5B
$PYRTM,2024,128.170041245463,19.279688655613
$GPGGA,040450.00,3300.0999,N,11802.6365,W,1,09,1.0,9.8,M,-34.6,M,,*5B
$PYRTM,2024,128.170049926100,19.279697336238
$GPGGA,040451.00,3300.0991,N,11802.6347,W,1,09,1.0,10.0,M,-34.6,M,,*62
$PYRTM,2024,128.170061500613,19.279708910752
$GPGGA,040452.00,3300.0982,N,11802.6330,W,1,09,1.0,10.2,M,-34.6,M,,*61
$PYRTM,2024,128.170073068484,19.279720478623
$GPGGA,040453.00,3300.0973,N,11802.6313,W,1,09,1.0,10.3,M,-34.6,M,,*6E
$PYRTM,2024,128.170084648854,19.279732058993
$GPGGA,040454.00,3300.0965,N,11802.6297,W,1,09,0.8,10.1,M,-34.6,M,,*68
$PYRTM,2024,128.170092054815,19.279739464954
$GPGGA,040455.00,3300.0958,N,11802.6279,W,1,09,0.8,9.5,M,-34.6,M,,*5B
$PYRTM,2024,128.170107795451,19.279755205590
$GPGGA,040456.00,3300.0950,N,11802.6262,W,1,09,0.8,8.9,M,-34.6,M,,*57
$PYRTM,2024,128.170119370972,19.279766781111
$GPGGA,040457.00,3300.0942,N,11802.6247,W,1,09,0.8,8.8,M,-34.6,M,,*53
$PYRTM,2024,128.170130944502,19.279778354641
$GPGGA,040458.00,3300.0933,N,11802.6232,W,1,09,0.8,8.9,M,-34.6,M,,*59
$PYRTM,2024,128.170142518727,19.279789928866
$GPGGA,040459.00,3300.0923,N,11802.6217,W,1,09,0.8,8.9,M,-34.6,M,,*5E
$PYRTM,2024,128.170154091956,19.279801502095
$GPGGA,040500.00,3300.0914,N,11802.6200,W,1,09,0.8,9.0,M,-34.6,M,,*59
$PYRTM,2024,128.170165661377,19.279813071516
$GPGGA,040501.00,3300.0906,N,11802.6182,W,1,09,0.8,9.2,M,-34.6,M,,*50
$PYRTM,2024,128.170177247940,19.279824658079
$GPGGA,040502.00,3300.0898,N,11802.6164,W,1,09,0.8,9.5,M,-34.6,M,,*5A
$PYRTM,2024,128.170188815069,19.279836225220
$GPGGA,040503.00,3300.0890,N,11802.6146,W,1,09,0.8,9.7,M,-34.6,M,,*51
$PYRTM,2024,128.170200397627,19.279847807778
$GPGGA,040504.00,3300.0880,N,11802.6130,W,1,09,0.8,9.8,M,-34.6,M,,*59
$PYRTM,2024,128.170207796910,19.279855207049
$GPGGA,040505.00,3300.0870,N,11802.6114,W,1,09,0.8,9.5,M,-34.6,M,,*5C
$PYRTM,2024,128.170223537234,19.279870947384
$GPGGA,040506.00,3300.0861,N,11802.6097,W,1,09,0.8,9.1,M,-34.6,M,,*51
$PYRTM,2024,128.170230955671,19.279878365810
$GPGGA,040507.00,3300.0853,N,11802.6081,W,1,09,0.8,8.9,M,-34.6,M,,*5F
$PYRTM,2024,128.170249578935,19.279896989074
$GPGGA,040508.00,3300.0846,N,11802.6064,W,1,09,0.8,8.9,M,-34.6,M,,*5F
$PYRTM,2024,128.170258260104,19.279905670243
$GPGGA,040509.00,3300.0838,N,11802.6046,W,1,09,0.8,9.0,M,-34.6,M,,*5F
$PYRTM,2024,128.170269845914,19.279917256053
$GPGGA,040510.00,3300.0829,N,11802.6030,W,1,09,0.8,9.2,M,-34.6,M,,*54
$PYRTM,2024,128.170281407986,19.279928818125
$GPGGA,040511.00,3300.0820,N,11802.6014,W,1,09,1.0,9.6,M,-34.6,M,,*57
$PYRTM,2024,128.170292981898,19.279940392049
$GPGGA,040512.00,3300.0811,N,11802.5999,W,1,09,1.0,9.7,M,-34.6,M,,*58
$PYRTM,2024,128.170304556192,19.279951966331
$GPGGA,040513.00,3300.0803,N,11802.5981,W,1,09,1.0,9.5,M,-34.6,M,,*51
$PYRTM,2024,128.170316130729,19.279963540868
$GPGGA,040514.00,3300.0796,N,11802.5963,W,1,09,1.0,9.0,M,-34.6,M,,*5C
$PYRTM,2024,128.170327705243,19.279975115382
$GPGGA,040515.00,3300.0788,N,11802.5947,W,1,09,1.0,8.9,M,-34.6,M,,*5C
$PYRTM,2024,128.170335098322,19.279982508472
$GPGGA,040516.00,3300.0779,N,11802.5932,W,1,09,1.0,8.8,M,-34.6,M,,*52
$PYRTM,2024,128.170350852384,19.279998262523
$GPGGA,040517.00,3300.0769,N,11802.5917,W,1,09,1.0,8.8,M,-34.6,M,,*55
$PYRTM,2024,128.170362435764,19.280009845903
$GPGGA,040518.00,3300.0760,N,11802.5902,W,1,09,1.0,8.9,M,-34.6,M,,*56
$PYRTM,2024,128.170374000995,19.280021411134
$GPGGA,040519.00,3300.0751,N,11802.5885,W,1,09,1.0,9.3,M,-34.6,M,,*50
$PYRTM,2024,128.170381395521,19.280028805660
$GPGGA,040520.00,3300.0743,N,11802.5869,W,1,09,1.0,9.7,M,-34.6,M,,*5F
$PYRTM,2024,128.170400037720,19.280047447859
$GPGGA,040521.00,3300.0732,N,11802.5854,W,1,09,1.0,10.0,M,-34.6,M,,*69
$PYRTM,2024,128.170408724005,19.280056134144
$GPGGA,040522.00,3300.0722,N,11802.5837,W,1,09,1.0,10.0,M,-34.6,M,,*6E
$PYRTM,2024,128.170420298681,19.280067708819
$GPGGA,040523.00,3300.0714,N,11802.5819,W,1,09,1.0,10.1,M,-34.6,M,,*67
$PYRTM,2024,128.170431871157,19.280079281296
$GPGGA,040524.00,3300.0709,N,11802.5801,W,1,09,1.0,10.2,M,-34.6,M,,*66
$PYRTM,2024,128.170443440718,19.280090850856
$GPGGA,040525.00,3300.0702,N,11802.5784,W,1,09,1.0,10.2,M,-34.6,M,,*6E
$PYRTM,2024,128.170455020370,19.280102430509
$GPGGA,040526.00,3300.0692,N,11802.5768,W,1,09,1.0,10.0,M,-34.6,M,,*65
$PYRTM,2024,128.170466595822,19.280114005961
$GPGGA,040527.00,3300.0682,N,11802.5753,W,1,09,1.0,9.7,M,-34.6,M,,*52
$PYRTM,2024,128.170478168819,19.280125578958
$GPGGA,040528.00,3300.0673,N,11802.5736,W,1,09,1.0,9.4,M,-34.6,M,,*53
$PYRTM,2024,128.170489743160,19.280137153299
$GPGGA,040529.00,3300.0666,N,11802.5718,W,1,09,1.0,9.3,M,-34.6,M,,*5D
$PYRTM,2024,128.170501324606,19.280148734745
$GPGGA,040530.00,3300.0659,N,11802.5699,W,1,09,1.0,9.3,M,-34.6,M,,*51
$PYRTM,2024,128.170512891493,19.280160301632
$GPGGA,040531.00,3300.0649,N,11802.5683,W,1,09,1.0,9.4,M,-34.6,M,,*5D
$PYRTM,2024,128.170524473264,19.280171883403
$GPGGA,040532.00,3300.0638,N,11802.5667,W,1,09,1.0,9.4,M,-34.6,M,,*52
$PYRTM,2024,128.170536039294,19.280183449433
$GPGGA,040533.00,3300.0628,N,11802.5649,W,1,10,0.8,9.8,M,-34.6,M,,*53
$PYRTM,2024,128.170543434097,19.280190844236
$GPGGA,040534.00,3300.0622,N,11802.5632,W,1,10,0.8,10.3,M,-34.6,M,,*61
$PYRTM,2024,128.170559189028,19.280206599167
$GPGGA,040535.00,3300.0616,N,11802.5615,W,1,10,0.8,10.4,M,-34.6,M,,*65
$PYRTM,2024,128.170570760833,19.280218170972
$GPGGA,040536.00,3300.0607,N,11802.5599,W,1,10,0.8,10.5,M,-34.6,M,,*60
$PYRTM,2024,128.170582335718,19.280229745856
$GPGGA,040537.00,3300.0596,N,11802.5584,W,1,10,0.8,10.6,M,-34.6,M,,*65
$PYRTM,2024,128.170593910046,19.280241320185
$GPGGA,040538.00,3300.0586,N,11802.5569,W,1,10,0.8,10.8,M,-34.6,M,,*66
$PYRTM,2024,128.170601311030,19.280248721169
$GPGGA,040539.00,3300.0578,N,11802.5553,W,1,10,0.8,10.9,M,-34.6,M,,*6E
$PYRTM,2024,128.170617064769,19.280264474907
$GPGGA,040540.00,3300.0570,N,11802.5536,W,1,10,0.8,11.0,M,-34.6,M,,*63
$PYRTM,2024,128.170628630671,19.280276040822
$GPGGA,040541.00,3300.0561,N,11802.5519,W,1,10,0.8,11.0,M,-34.6,M,,*6F
$PYRTM,2024,128.170640206632,19.280287616771
$GPGGA,040542.00,3300.0551,N,11802.5503,W,1,10,0.8,10.9,M,-34.6,M,,*6C
$PYRTM,2024,128.170651778056,19.280299188206
$GPGGA,040543.00,3300.0542,N,11802.5487,W,1,10,0.8,10.8,M,-34.6,M,,*63
$PYRTM,2024,128.170659175509,19.280306585648
$GPGGA,040544.00,3300.0534,N,11802.5469,W,1,10,0.8,10.8,M,-34.6,M,,*65
$PYRTM,2024,128.170674930590,19.280322340729
$GPGGA,040545.00,3300.0527,N,11802.5451,W,1,10,0.8,10.9,M,-34.6,M,,*6C
$PYRTM,2024,128.170686510613,19.280333920752
$GPGGA,040546.00,3300.0517,N,11802.5434,W,1,10,0.8,10.9,M,-34.6,M,,*6F
$PYRTM,2024,128.170693903762,19.280341313900
$GPGGA,040547.00,3300.0506,N,11802.5418,W,1,10,0.8,10.8,M,-34.6,M,,*61
$PYRTM,2024,128.170709659618,19.280357069757
$GPGGA,040548.00,3300.0496,N,11802.5401,W,1,10,0.8,10.7,M,-34.6,M,,*61
$PYRTM,2024,128.170721221111,19.280368631250
$GPGGA,040549.00,3300.0488,N,11802.5383,W,1,10,0.8,10.7,M,-34.6,M,,*62
$PYRTM,2024,128.170732799479,19.280380209618
$GPGGA,040550.00,3300.0481,N,11802.5365,W,1,10,0.8,10.8,M,-34.6,M,,*64
$PYRTM,2024,128.170740217199,19.280387627338
$GPGGA,040551.00,3300.0472,N,11802.5350,W,1,10,0.8,10.7,M,-34.6,M,,*60
$PYRTM,2024,128.170758840532,19.280406250671
$GPGGA,040552.00,3300.0462,N,11802.5335,W,1,10,0.8,10.5,M,-34.6,M,,*63
$PYRTM,2024,128.170767521840,19.280414931979
$GPGGA,040553.00,3300.0454,N,11802.5319,W,1,10,0.8,10.3,M,-34.6,M,,*6F
$PYRTM,2024,128.170779106968,19.280426517106
$GPGGA,040554.00,3300.0446,N,11802.5302,W,1,10,0.8,10.3,M,-34.6,M,,*61
$PYRTM,2024,128.170786488762,19.280433898900
$GPGGA,040555.00,3300.0439,N,11802.5285,W,1,10,0.8,10.6,M,-34.6,M,,*63
$PYRTM,2024,128.170802243519,19.280449653657
$GPGGA,040556.00,3300.0430,N,11802.5268,W,1,10,0.8,10.8,M,-34.6,M,,*64
$PYRTM,2024,128.170809646169,19.280457056308
$GPGGA,040557.00,3300.0420,N,11802.5251,W,1,10,0.8,11.0,M,-34.6,M,,*67
$PYRTM,2024,128.170825399711,19.280472809850
$GPGGA,040558.00,3300.0411,N,11802.5233,W,1,10,0.8,11.1,M,-34.6,M,,*6F
$PYRTM,2024,128.170836965347,19.280484375486
$GPGGA,040559.00,3300.0403,N,11802.5215,W,1,10,0.8,11.1,M,-34.6,M,,*69
$PYRTM,2024,128.170848548669,19.280495958808
$GPGGA,040600.00,3300.0396,N,11802.5196,W,1,10,0.8,11.0,M,-34.6,M,,*64
$PYRTM,2024,128.170860114398,19.280507524537
$GPGGA,040601.00,3300.0387,N,11802.5179,W,1,10,0.8,10.8,M,-34.6,M,,*6D
$PYRTM,2024,128.170867514618,19.280514924757
$GPGGA,040602.00,3300.0378,N,11802.5164,W,1,10,0.8,10.7,M,-34.6,M,,*6D
$PYRTM,2024,128.170883257627,19.280530667766
$GPGGA,040603.00,3300.0369,N,11802.5149,W,1,10,0.8,10.5,M,-34.6,M,,*61
$PYRTM,2024,128.170894837523,19.280542247662
$GPGGA,040604.00,3300.0361,N,11802.5133,W,1,10,0.8,10.4,M,-34.6,M,,*62
$PYRTM,2024,128.170906410475,19.280553820613
$GPGGA,040605.00,3300.0353,N,11802.5117,W,1,10,0.8,10.3,M,-34.6,M,,*63
$PYRTM,2024,128.170917985336,19.280565395475
$GPGGA,040606.00,3300.0344,N,11802.5101,W,1,10,0.8,10.2,M,-34.6,M,,*60
$PYRTM,2024,128.170929558808,19.280576968947
$GPGGA,040607.00,3300.0335,N,11802.5085,W,1,10,0.8,10.2,M,-34.6,M,,*6A
$PYRTM,2024,128.170941134792,19.280588544931
$GPGGA,040608.00,3300.0324,N,11802.5069,W,1,10,0.8,10.4,M,-34.6,M,,*61
$PYRTM,2024,128.170952704016,19.280600114155
$GPGGA,040609.00,3300.0315,N,11802.5052,W,1,10,0.8,10.8,M,-34.6,M,,*66
$PYRTM,2024,128.170964281829,19.280611691968
$GPGGA,040610.00,3300.0306,N,11802.5033,W,1,10,0.8,11.0,M,-34.6,M,,*62
$PYRTM,2024,128.170971689537,19.280619099676
$GPGGA,040611.00,3300.0297,N,11802.5016,W,1,10,0.8,11.1,M,-34.6,M,,*6C
$PYRTM,2024,128.170987430822,19.280634840972
$GPGGA,040612.00,3300.0288,N,11802.4999,W,1,10,0.8,11.2,M,-34.6,M,,*6D
$PYRTM,2024,128.170999004699,19.280646414838
$GPGGA,040613.00,3300.0280,N,11802.4983,W,1,10,0.8,11.2,M,-34.6,M,,*6F
$PYRTM,2024,128.171010605370,19.280658015509
$GPGGA,040614.00,3300.0272,N,11802.4966,W,1,10,0.8,11.1,M,-34.6,M,,*6D
$PYRTM,2024,128.171022153565,19.280669563704
$GPGGA,040615.00,3300.0264,N,11802.4950,W,1,10,0.8,10.9,M,-34.6,M,,*67
$PYRTM,2024,128.171033735243,19.280681145382
$GPGGA,040616.00,3300.0256,N,11802.4934,W,1,10,0.8,10.7,M,-34.6,M,,*69
$PYRTM,2024,128.171041128657,19.280688538796
$GPGGA,040617.00,3300.0247,N,11802.4918,W,1,10,0.8,10.5,M,-34.6,M,,*64
$PYRTM,2024,128.171056874641,19.280704284780
$GPGGA,040618.00,3300.0238,N,11802.4901,W,1,10,0.8,10.4,M,-34.6,M,,*6A
$PYRTM,2024,128.171068445035,19.280715855174
$GPGGA,040619.00,3300.0229,N,11802.4884,W,1,10,0.8,10.5,M,-34.6,M,,*66
$PYRTM,2024,128.171080023287,19.280727433426
$GPGGA,040620.00,3300.0219,N,11802.4867,W,1,10,0.8,10.7,M,-34.6,M,,*60
$PYRTM,2024,128.171091593796,19.280739003947
$GPGGA,040621.00,3300.0210,N,11802.4850,W,1,10,0.8,10.8,M,-34.6,M,,*63
$PYRTM,2024,128.171098993750,19.280746403889
$GPGGA,040622.00,3300.0201,N,11802.4834,W,1,10,0.8,10.8,M,-34.6,M,,*62
$PYRTM,2024,128.171117640845,19.280765050984
$GPGGA,040623.00,3300.0192,N,11802.4817,W,1,10,0.8,10.7,M,-34.6,M,,*64
$PYRTM,2024,128.171126319664,19.280773729803
$GPGGA,040624.00,3300.0184,N,11802.4800,W,1,10,0.8,10.8,M,-34.6,M,,*6D
$PYRTM,2024,128.171137896412,19.280785306551
$GPGGA,040625.00,3300.0177,N,11802.4784,W,1,10,0.8,10.7,M,-34.6,M,,*6C
$PYRTM,2024,128.171149468600,19.280796878738
$GPGGA,040626.00,3300.0168,N,11802.4767,W,1,10,0.8,10.7,M,-34.6,M,,*6C
$PYRTM,2024,128.171156870579,19.280804280718
$GPGGA,040627.00,3300.0158,N,11802.4750,W,1,10,0.8,10.7,M,-34.6,M,,*6A
$PYRTM,2024,128.171172624757,19.280820034896
$GPGGA,040628.00,3300.0149,N,11802.4735,W,1,10,0.8,11.0,M,-34.6,M,,*60
$PYRTM,2024,128.171184190880,19.280831601019
$GPGGA,040629.00,3300.0139,N,11802.4718,W,1,10,0.8,11.3,M,-34.6,M,,*6A
$PYRTM,2024,128.171195773206,19.280843183356
$GPGGA,040630.00,3300.0130,N,11802.4700,W,1,10,0.8,11.2,M,-34.6,M,,*63
$PYRTM,2024,128.171207338831,19.280854748970
$GPGGA,040631.00,3300.0122,N,11802.4681,W,1,10,0.8,11.1,M,-34.6,M,,*6A
$PYRTM,2024,128.171218924294,19.280866334433
$GPGGA,040632.00,3300.0115,N,11802.4663,W,1,10,0.8,10.9,M,-34.6,M,,*68
$PYRTM,2024,128.171230487361,19.280877897500
$GPGGA,040633.00,3300.0107,N,11802.4647,W,1,10,0.8,10.7,M,-34.6,M,,*62
$PYRTM,2024,128.171242062373,19.280889472512
$GPGGA,040634.00,3300.0097,N,11802.4632,W,1,10,0.8,10.4,M,-34.6,M,,*6C
$PYRTM,2024,128.171253636667,19.280901046806
$GPGGA,040635.00,3300.0088,N,11802.4617,W,1,10,0.8,10.3,M,-34.6,M,,*63
$PYRTM,2024,128.171265209225,19.280912619363
$GPGGA,040636.00,3300.0080,N,11802.4601,W,1,10,0.8,10.3,M,-34.6,M,,*6F
$PYRTM,2024,128.171272616725,19.280920026875
$GPGGA,040637.00,3300.0072,N,11802.4584,W,1,10,0.8,10.6,M,-34.6,M,,*68
$PYRTM,2024,128.171288369942,19.280935780081
$GPGGA,040638.00,3300.0063,N,11802.4568,W,1,10,0.8,10.8,M,-34.6,M,,*6B
$PYRTM,2024,128.171299929769,19.280947339907
$GPGGA,040639.00,3300.0054,N,11802.4550,W,1,10,0.8,11.0,M,-34.6,M,,*6C
$PYRTM,2024,128.171311517870,19.280958928009
$GPGGA,040640.00,3300.0045,N,11802.4532,W,1,10,0.8,11.1,M,-34.6,M,,*67
$PYRTM,2024,128.171323082049,19.280970492199
$GPGGA,040641.00,3300.0036,N,11802.4515,W,1,10,0.8,11.1,M,-34.6,M,,*67
$PYRTM,2024,128.171330476678,19.280977886817
$GPGGA,040642.00,3300.0027,N,11802.4497,W,1,10,0.8,11.0,M,-34.6,M,,*6E
$PYRTM,2024,128.171342165023,19.280989575162
$GPGGA,040643.00,3300.0019,N,11802.4481,W,1,10,0.8,11.0,M,-34.6,M,,*65
$PYRTM,2024,128.171357828970,19.281005239109
$GPGGA,040644.00,3300.0010,N,11802.4464,W,1,10,0.8,11.0,M,-34.6,M,,*60
$PYRTM,2024,128.171369372917,19.281016783056
$GPGGA,040645.00,3300.0001,N,11802.4448,W,1,10,0.8,10.7,M,-34.6,M,,*69
$PYRTM,2024,128.171380963056,19.281028373194
$GPGGA,040646.00,3259.9992,N,11802.4432,W,1,10,0.8,10.4,M,-34.6,M,,*63
$PYRTM,2024,128.171388360868,19.281035771007
$GPGGA,040647.00,3259.9984,N,11802.4416,W,1,10,0.8,10.3,M,-34.6,M,,*64
$PYRTM,2024,128.171404098657,19.281051508796
$GPGGA,040648.00,3259.9976,N,11802.4399,W,1,10,0.8,10.5,M,-34.6,M,,*60
$PYRTM,2024,128.171415674433,19.281063084583
$GPGGA,040649.00,3259.9968,N,11802.4382,W,1,10,0.8,10.6,M,-34.6,M,,*67
$PYRTM,2024,128.171423068183,19.281070478322
$GPGGA,040650.00,3259.9959,N,11802.4366,W,1,10,0.8,10.7,M,-34.6,M,,*66
$PYRTM,2024,128.171438821840,19.281086231991
$GPGGA,040651.00,3259.9949,N,11802.4349,W,1,10,0.8,10.8,M,-34.6,M,,*64
$PYRTM,2024,128.171450407535,19.281097817674
$GPGGA,040652.00,3259.9940,N,11802.4333,W,1,10,0.8,10.9,M,-34.6,M,,*62
$PYRTM,2024,128.171457802419,19.281105212558
$GPGGA,040653.00,3259.9931,N,11802.4315,W,1,10,0.8,10.9,M,-34.6,M,,*61
$PYRTM,2024,128.171476437720,19.281123847870
$GPGGA,040654.00,3259.9923,N,11802.4298,W,1,10,0.8,10.9,M,-34.6,M,,*61
$PYRTM,2024,128.171488011308,19.281135421447
$GPGGA,040655.00,3259.9915,N,11802.4281,W,1,10,0.8,10.8,M,-34.6,M,,*6C
$PYRTM,2024,128.171499586030,19.281146996169
$GPGGA,040656.00,3259.9906,N,11802.4264,W,1,10,0.8,10.8,M,-34.6,M,,*66
$PYRTM,2024,128.171508268194,19.281155678333
$GPGGA,040657.00,3259.9897,N,11802.4248,W,1,10,0.8,10.8,M,-34.6,M,,*60
$PYRTM,2024,128.171515663079,19.281163073229
$GPGGA,040658.00,3259.9887,N,11802.4231,W,1,10,0.8,10.7,M,-34.6,M,,*6F
$PYRTM,2024,128.171531415301,19.281178825440
$GPGGA,040659.00,3259.9878,N,11802.4215,W,1,10,0.8,10.8,M,-34.6,M,,*67
$PYRTM,2024,128.171538809653,19.281186219792
$GPGGA,040700.00,3259.9869,N,11802.4198,W,1,10,0.8,10.9,M,-34.6,M,,*6D
$PYRTM,2024,128.171554563437,19.281201973576
$GPGGA,040701.00,3259.9861,N,11802.4181,W,1,10,0.8,10.9,M,-34.6,M,,*6C
$PYRTM,2024,128.171566137025,19.281213547164
$GPGGA,040702.00,3259.9852,N,11802.4164,W,1,10,0.8,10.8,M,-34.6,M,,*65
$PYRTM,2024,128.171577707674,19.281225117813
$GPGGA,040703.00,3259.9844,N,11802.4148,W,1,10,0.8,10.7,M,-34.6,M,,*62
$PYRTM,2024,128.171589286030,19.281236696169
$GPGGA,040704.00,3259.9836,N,11802.4131,W,1,10,0.8,10.7,M,-34.6,M,,*6E
$PYRTM,2024,128.171596693148,19.281244103287
$GPGGA,040705.00,3259.9828,N,11802.4115,W,1,10,0.8,10.7,M,-34.6,M,,*66
$PYRTM,2024,128.171612435810,19.281259845949
$GPGGA,040706.00,3259.9819,N,11802.4099,W,1,10,0.8,10.7,M,-34.6,M,,*62
$PYRTM,2024,128.171624009178,19.281271419317
$GPGGA,040707.00,3259.9809,N,11802.4084,W,1,10,0.8,10.8,M,-34.6,M,,*61
$PYRTM,2024,128.171631404051,19.281278814190
$GPGGA,040708.00,3259.9801,N,11802.4067,W,1,10,0.8,10.9,M,-34.6,M,,*6A
$PYRTM,2024,128.171647157002,19.281294567141
$GPGGA,040709.00,3259.9793,N,11802.4049,W,1,10,0.8,10.9,M,-34.6,M,,*63
$PYRTM,2024,128.171658756713,19.281306166852
$GPGGA,040710.00,3259.9785,N,11802.4031,W,1,10,0.8,11.0,M,-34.6,M,,*6B
$PYRTM,2024,128.171670305961,19.281317716100
$GPGGA,040711.00,3259.9776,N,11802.4013,W,1,10,0.8,11.0,M,-34.6,M,,*66
$PYRTM,2024,128.171681886910,19.281329297049
$GPGGA,040712.00,3259.9765,N,11802.3996,W,1,10,0.8,11.0,M,-34.6,M,,*64
$PYRTM,2024,128.171689285822,19.281336695961
$GPGGA,040713.00,3259.9754,N,11802.3980,W,1,10,0.8,10.9,M,-34.6,M,,*68
$PYRTM,2024,128.171705028310,19.281352438449
$GPGGA,040714.00,3259.9745,N,11802.3964,W,1,10,0.8,10.7,M,-34.6,M,,*6B
$PYRTM,2024,128.171716602257,19.281364012396
$GPGGA,040715.00,3259.9738,N,11802.3947,W,1,10,0.8,10.6,M,-34.6,M,,*60
$PYRTM,2024,128.171723997060,19.281371407211
$GPGGA,040716.00,3259.9731,N,11802.3930,W,1,10,0.8,10.6,M,-34.6,M,,*6A
$PYRTM,2024,128.171742643032,19.281390053171
$GPGGA,040717.00,3259.9722,N,11802.3914,W,1,10,0.8,10.5,M,-34.6,M,,*6C
$PYRTM,2024,128.171751334988,19.281398745127
$GPGGA,040718.00,3259.9714,N,11802.3898,W,1,10,0.8,10.5,M,-34.6,M,,*63
$PYRTM,2024,128.171762893137,19.281410303287
$GPGGA,040719.00,3259.9705,N,11802.3882,W,1,10,0.8,10.7,M,-34.6,M,,*6B
$PYRTM,2024,128.171774482442,19.281421892581
$GPGGA,040720.00,3259.9696,N,11802.3867,W,1,10,0.8,11.0,M,-34.6,M,,*67
$PYRTM,2024,128.171786047083,19.281433457234
$GPGGA,040721.00,3259.9687,N,11802.3850,W,1,10,0.8,11.0,M,-34.6,M,,*62
$PYRTM,2024,128.171797620301,19.281445030440
$GPGGA,040722.00,3259.9678,N,11802.3832,W,1,10,0.8,11.0,M,-34.6,M,,*65
$PYRTM,2024,128.171805026817,19.281452436956
$GPGGA,040723.00,3259.9670,N,11802.3813,W,1,10,0.8,11.0,M,-34.6,M,,*6F
$PYRTM,2024,128.171816704711,19.281464114850
$GPGGA,040724.00,3259.9662,N,11802.3795,W,1,10,0.8,11.1,M,-34.6,M,,*6B
$PYRTM,2024,128.171835236713,19.281482646863
$GPGGA,040725.00,3259.9653,N,11802.3779,W,1,10,0.8,11.0,M,-34.6,M,,*6B
$PYRTM,2024,128.171843925023,19.281491335162
$GPGGA,040726.00,3259.9644,N,11802.3763,W,1,10,0.8,10.6,M,-34.6,M,,*62
$PYRTM,2024,128.171855490799,19.281502900949
$GPGGA,040727.00,3259.9634,N,11802.3747,W,1,10,0.8,10.3,M,-34.6,M,,*67
$PYRTM,2024,128.171867092535,19.281514502674
$GPGGA,040728.00,3259.9626,N,11802.3730,W,1,10,0.8,10.2,M,-34.6,M,,*6A
$PYRTM,2024,128.171878640417,19.281526050556
$GPGGA,040729.00,3259.9618,N,11802.3714,W,1,10,0.8,10.3,M,-34.6,M,,*61
$PYRTM,2024,128.171890213229,19.281537623368
$GPGGA,040730.00,3259.9609,N,11802.3698,W,1,10,0.8,10.5,M,-34.6,M,,*6A
$PYRTM,2024,128.171901788634,19.281549198773
$GPGGA,040731.00,3259.9600,N,11802.3682,W,1,10,0.8,10.8,M,-34.6,M,,*64
$PYRTM,2024,128.171913364201,19.281560774352
$GPGGA,040732.00,3259.9590,N,11802.3664,W,1,10,0.8,11.0,M,-34.6,M,,*6C
$PYRTM,2024,128.171920771076,19.281568181227
$GPGGA,040733.00,3259.9582,N,11802.3647,W,1,10,0.8,11.2,M,-34.6,M,,*6D
$PYRTM,2024,128.171936509780,19.281583919919
$GPGGA,040734.00,3259.9573,N,11802.3629,W,1,10,0.8,11.4,M,-34.6,M,,*6A
$PYRTM,2024,128.171948084225,19.281595494363
$GPGGA,040735.00,3259.9564,N,11802.3612,W,1,10,0.8,11.3,M,-34.6,M,,*62
$PYRTM,2024,128.171959657940,19.281607068079
$GPGGA,040736.00,3259.9555,N,11802.3596,W,1,10,0.8,11.0,M,-34.6,M,,*6F
$PYRTM,2024,128.171971233843,19.281618643981
$GPGGA,040737.00,3259.9547,N,11802.3579,W,1,10,0.8,10.8,M,-34.6,M,,*65
$PYRTM,2024,128.171982814514,19.281630224653
$GPGGA,040738.00,3259.9540,N,11802.3562,W,1,10,0.8,10.7,M,-34.6,M,,*68
$PYRTM,2024,128.171994381574,19.281641791713
$GPGGA,040739.00,3259.9533,N,11802.3546,W,1,10,0.8,10.6,M,-34.6,M,,*6A
$PYRTM,2024,128.172005962951,19.281653373090
$GPGGA,040740.00,3259.9524,N,11802.3531,W,1,10,0.8,10.5,M,-34.6,M,,*61
$PYRTM,2024,128.172017528773,19.281664938912
$GPGGA,040741.00,3259.9513,N,11802.3516,W,1,10,0.8,10.4,M,-34.6,M,,*60
$PYRTM,2024,128.172029110648,19.281676520787
$GPGGA,040742.00,3259.9504,N,11802.3499,W,1,10,0.8,10.3,M,-34.6,M,,*64
$PYRTM,2024,128.172040678831,19.281688088970
$GPGGA,040743.00,3259.9496,N,11802.3480,W,1,10,0.8,10.4,M,-34.6,M,,*60
$PYRTM,2024,128.172052262986,19.281699673125
$GPGGA,040744.00,3259.9488,N,11802.3462,W,1,10,0.8,10.6,M,-34.6,M,,*66
$PYRTM,2024,128.172063825313,19.281711235451
$GPGGA,040745.00,3259.9478,N,11802.3445,W,1,10,0.8,10.9,M,-34.6,M,,*62
$PYRTM,2024,128.172075410463,19.281722820602
$GPGGA,040746.00,3259.9467,N,11802.3428,W,1,10,0.8,11.0,M,-34.6,M,,*6C
$PYRTM,2024,128.172086969664,19.281734379803
$GPGGA,040747.00,3259.9456,N,11802.3412,W,1,10,0.8,11.0,M,-34.6,M,,*66
$PYRTM,2024,128.172094371354,19.281741781493
$GPGGA,040748.00,3259.9448,N,11802.3395,W,1,10,0.8,10.8,M,-34.6,M,,*67
$PYRTM,2024,128.172110118681,19.281757528831
$GPGGA,040749.00,3259.9442,N,11802.3378,W,1,10,0.8,10.6,M,-34.6,M,,*61
$PYRTM,2024,128.172121696389,19.281769106528
$GPGGA,040750.00,3259.9435,N,11802.3362,W,1,10,0.8,10.6,M,-34.6,M,,*62
$PYRTM,2024,128.172129097616,19.281776507755
$GPGGA,040751.00,3259.9427,N,11802.3346,W,1,10,0.8,10.7,M,-34.6,M,,*67
$PYRTM,2024,128.172144855984,19.281792266123
$GPGGA,040752.00,3259.9416,N,11802.3332,W,1,10,0.8,10.8,M,-34.6,M,,*6A
$PYRTM,2024,128.172156418229,19.281803828368
$GPGGA,040753.00,3259.9406,N,11802.3316,W,1,10,0.8,11.0,M,-34.6,M,,*65
$PYRTM,2024,128.172168019375,19.281815429514
$GPGGA,040754.00,3259.9399,N,11802.3298,W,1,10,0.8,11.1,M,-34.6,M,,*65
$PYRTM,2024,128.172175399988,19.281822810127
$GPGGA,040755.00,3259.9392,N,11802.3279,W,1,10,0.8,11.0,M,-34.6,M,,*61
$PYRTM,2024,128.172194037917,19.281841448056
$GPGGA,040756.00,3259.9384,N,11802.3260,W,1,10,0.8,10.8,M,-34.6,M,,*64
$PYRTM,2024,128.172202715613,19.281850125752
$GPGGA,040757.00,3259.9373,N,11802.3243,W,1,10,0.8,10.7,M,-34.6,M,,*63
$PYRTM,2024,128.172214288727,19.281861698866
$GPGGA,040758.00,3259.9363,N,11802.3227,W,1,10,0.8,10.6,M,-34.6,M,,*6E
$PYRTM,2024,128.172225859514,19.281873269653
$GPGGA,040759.00,3259.9354,N,11802.3211,W,1,10,0.8,10.5,M,-34.6,M,,*6D
$PYRTM,2024,128.172237438032,19.281884848183
$GPGGA,040800.00,3259.9346,N,11802.3194,W,1,10,0.8,10.3,M,-34.6,M,,*65
$PYRTM,2024,128.172249011979,19.281896422118
$GPGGA,040801.00,3259.9338,N,11802.3177,W,1,10,0.8,10.1,M,-34.6,M,,*62
$PYRTM,2024,128.172260585926,19.281907996076
$GPGGA,040802.00,3259.9329,N,11802.3162,W,1,10,0.8,10.1,M,-34.6,M,,*65
$PYRTM,2024,128.172272160336,19.281919570475
$GPGGA,040803.00,3259.9320,N,11802.3147,W,1,10,0.8,10.2,M,-34.6,M,,*69
$PYRTM,2024,128.172283734016,19.281931144155
$GPGGA,040804.00,3259.9311,N,11802.3131,W,1,10,0.8,10.4,M,-34.6,M,,*6B
$PYRTM,2024,128.172295308831,19.281942718970
$GPGGA,040805.00,3259.9302,N,11802.3114,W,1,10,0.8,10.6,M,-34.6,M,,*6D
$PYRTM,2024,128.172302704560,19.281950114699
$GPGGA,040806.00,3259.9294,N,11802.3096,W,1,10,0.8,10.9,M,-34.6,M,,*64
$PYRTM,2024,128.172318457778,19.281965867928
$GPGGA,040807.00,3259.9286,N,11802.3078,W,1,10,0.8,11.2,M,-34.6,M,,*6C
$PYRTM,2024,128.172330056516,19.281977466655
$GPGGA,040808.00,3259.9276,N,11802.3061,W,1,10,0.8,11.5,M,-34.6,M,,*63
$PYRTM,2024,128.172341604514,19.281989014664
$GPGGA,040809.00,3259.9266,N,11802.3044,W,1,10,0.8,11.5,M,-34.6,M,,*64
$PYRTM,2024,128.172353204363,19.282000614502
$GPGGA,040810.00,3259.9258,N,11802.3027,W,1,10,0.8,11.3,M,-34.6,M,,*62
$PYRTM,2024,128.172364753287,19.282012163426
$GPGGA,040811.00,3259.9250,N,11802.3009,W,1,10,0.8,11.0,M,-34.6,M,,*64
$PYRTM,2024,128.172376327222,19.282023737361
$GPGGA,040812.00,3259.9243,N,11802.2992,W,1,10,0.8,10.6,M,-34.6,M,,*68
$PYRTM,2024,128.172387902766,19.282035312905
$GPGGA,040813.00,3259.9234,N,11802.2975,W,1,10,0.8,10.4,M,-34.6,M,,*62
$PYRTM,2024,128.172399475602,19.282046885741
$GPGGA,040814.00,3259.9225,N,11802.2960,W,1,10,0.8,10.2,M,-34.6,M,,*67
$PYRTM,2024,128.172411049757,19.282058459907
$GPGGA,040815.00,3259.9216,N,11802.2944,W,1,10,0.8,10.2,M,-34.6,M,,*60
$PYRTM,2024,128.172422624468,19.282070034606
$GPGGA,040816.00,3259.9207,N,11802.2927,W,1,10,0.8,10.2,M,-34.6,M,,*66
$PYRTM,2024,128.172434198588,19.282081608727
$GPGGA,040817.00,3259.9199,N,11802.2910,W,1,10,0.8,10.3,M,-34.6,M,,*66
$PYRTM,2024,128.172445772083,19.282093182234
$GPGGA,040818.00,3259.9190,N,11802.2893,W,1,10,0.8,10.4,M,-34.6,M,,*6D
$PYRTM,2024,128.172457341412,19.282104751551
$GPGGA,040819.00,3259.9180,N,11802.2878,W,1,10,0.8,10.6,M,-34.6,M,,*6A
$PYRTM,2024,128.172464742708,19.282112152859
$GPGGA,040820.00,3259.9170,N,11802.2862,W,1,10,0.8,10.8,M,-34.6,M,,*6A
$PYRTM,2024,128.172483384919,19.282130795058
$GPGGA,040821.00,3259.9161,N,11802.2845,W,1,10,0.8,10.8,M,-34.6,M,,*6E
$PYRTM,2024,128.172494962743,19.282142372882
$GPGGA,040822.00,3259.9154,N,11802.2827,W,1,10,0.8,10.8,M,-34.6,M,,*6F
$PYRTM,2024,128.172503643113,19.282151053252
$GPGGA,040823.00,3259.9147,N,11802.2809,W,1,10,0.8,10.8,M,-34.6,M,,*60
$PYRTM,2024,128.172515224387,19.282162634525
$GPGGA,040824.00,3259.9138,N,11802.2792,W,1,10,0.8,10.9,M,-34.6,M,,*63
$PYRTM,2024,128.172526791169,19.282174201308
$GPGGA,040825.00,3259.9127,N,11802.2777,W,1,10,0.8,11.1,M,-34.6,M,,*6E
$PYRTM,2024,128.172534187801,19.282181597940
$GPGGA,040826.00,3259.9117,N,11802.2760,W,1,10,0.8,11.2,M,-34.6,M,,*6B
$PYRTM,2024,128.172552833646,19.282200243785
$GPGGA,040827.00,3259.9110,N,11802.2742,W,1,10,0.8,11.2,M,-34.6,M,,*6D
$PYRTM,2024,128.172561524687,19.282208934826
$GPGGA,040828.00,3259.9103,N,11802.2724,W,1,10,0.8,11.0,M,-34.6,M,,*62
$PYRTM,2024,128.172573082894,19.282220493032
$GPGGA,040829.00,3259.9096,N,11802.2706,W,1,10,0.8,10.8,M,-34.6,M,,*67
$PYRTM,2024,128.172584661481,19.282232071632
$GPGGA,040830.00,3259.9088,N,11802.2689,W,1,10,0.8,10.5,M,-34.6,M,,*6B
$PYRTM,2024,128.172592068692,19.282239478831
$GPGGA,040831.00,3259.9079,N,11802.2673,W,1,10,0.8,10.3,M,-34.6,M,,*67
$PYRTM,2024,128.172607809931,19.282255220069
$GPGGA,040832.00,3259.9070,N,11802.2658,W,1,10,0.8,10.1,M,-34.6,M,,*66
$PYRTM,2024,128.172619385706,19.282266795856
$GPGGA,040833.00,3259.9061,N,11802.2643,W,1,10,0.8,9.9,M,-34.6,M,,*5D
$PYRTM,2024,128.172626780764,19.282274190903
$GPGGA,040834.00,3259.9052,N,11802.2626,W,1,10,0.8,9.8,M,-34.6,M,,*58
$PYRTM,2024,128.172642528935,19.282289939074
$GPGGA,040835.00,3259.9044,N,11802.2608,W,1,10,0.8,10.0,M,-34.6,M,,*62
$PYRTM,2024,128.172654114236,19.282301524387
$GPGGA,040836.00,3259.9034,N,11802.2592,W,1,10,0.8,10.4,M,-34.6,M,,*62
$PYRTM,2024,128.172665674734,19.282313084873
$GPGGA,040837.00,3259.9023,N,11802.2575,W,1,10,0.8,10.8,M,-34.6,M,,*60
$PYRTM,2024,128.172677263218,19.282324673356
$GPGGA,040838.00,3259.9013,N,11802.2558,W,1,10,0.8,11.1,M,-34.6,M,,*6B
$PYRTM,2024,128.172688824618,19.282336234757
