$PYRTM,2024,122.750003653484,13.859651063623
$GPGGA,175959.00,3356.6226,N,11944.0330,W,1,09,0.8,12.7,M,-33.9,M,,*63
$PYRTM,2024,122.750015227593,13.859662637731
$GPGGA,180000.00,3356.6228,N,11944.0300,W,1,09,0.8,12.8,M,-33.9,M,,*6E
$PYRTM,2024,122.750022621771,13.859670031910
$GPGGA,180001.00,3356.6230,N,11944.0271,W,1,09,0.8,12.9,M,-33.9,M,,*60
$PYRTM,2024,122.750038376597,13.859685786736
$GPGGA,180002.00,3356.6233,N,11944.0241,W,1,09,0.8,13.0,M,-33.9,M,,*6B
$PYRTM,2024,122.750049953380,13.859697363530
$GPGGA,180003.00,3356.6237,N,11944.0211,W,1,09,0.8,13.1,M,-33.9,M,,*6A
$PYRTM,2024,122.750057347859,13.859704757998
$GPGGA,180004.00,3356.6239,N,11944.0181,W,1,09,0.8,13.1,M,-33.9,M,,*69
$PYRTM,2024,122.750073098935,13.859720509074
$GPGGA,180005.00,3356.6241,N,11944.0151,W,1,09,0.8,13.1,M,-33.9,M,,*6A
$PYRTM,2024,122.750084673403,13.859732083542
$GPGGA,180006.00,3356.6243,N,11944.0122,W,1,09,0.8,13.1,M,-33.9,M,,*6F
$PYRTM,2024,122.750092067164,13.859739477303
$GPGGA,180007.00,3356.6246,N,11944.0093,W,1,09,0.8,13.1,M,-33.9,M,,*60
$PYRTM,2024,122.750107820440,13.859755230579
$GPGGA,180008.00,3356.6249,N,11944.0063,W,1,09,0.8,13.0,M,-33.9,M,,*6E
$PYRTM,2024,122.750119398333,13.859766808472
$GPGGA,180009.00,3356.6252,N,11944.0034,W,1,09,0.8,12.8,M,-33.9,M,,*6E
$PYRTM,2024,122.750130968669,13.859778378808
$GPGGA,180010.00,3356.6255,N,11944.0005,W,1,09,0.8,12.8,M,-33.9,M,,*63
$PYRTM,2024,122.750142546933,13.859789957072
$GPGGA,180011.00,3356.6257,N,11943.9976,W,1,09,0.8,12.8,M,-33.9,M,,*63
$PYRTM,2024,122.750154112164,13.859801522303
$GPGGA,180012.00,3356.6259,N,11943.9946,W,1,09,0.8,12.9,M,-33.9,M,,*6C
$PYRTM,2024,122.750165691146,13.859813101285
$GPGGA,180013.00,3356.6261,N,11943.9916,W,1,09,0.8,12.9,M,-33.9,M,,*63
$PYRTM,2024,122.750177265336,13.859824675463
$GPGGA,180014.00,3356.6264,N,11943.9886,W,1,09,0.8,13.1,M,-33.9,M,,*60
$PYRTM,2024,122.750188846134,13.859836256273
$GPGGA,180015.00,3356.6268,N,11943.9855,W,1,09,0.8,13.3,M,-33.9,M,,*61
$PYRTM,2024,122.750200414259,13.859847824398
$GPGGA,180016.00,3356.6270,N,11943.9825,W,1,09,0.8,13.3,M,-33.9,M,,*6C
$PYRTM,2024,122.750211991389,13.859859401528
$GPGGA,180017.00,3356.6272,N,11943.9795,W,1,09,0.8,13.2,M,-33.9,M,,*6A
$PYRTM,2024,122.750223557593,13.859870967731
$GPGGA,180018.00,3356.6275,N,11943.9765,W,1,09,0.8,13.0,M,-33.9,M,,*6F
$PYRTM,2024,122.750235139803,13.859882549942
$GPGGA,180019.00,3356.6279,N,11943.9736,W,1,09,0.8,12.9,M,-33.9,M,,*6C
$PYRTM,2024,122.750242531597,13.859889941736
$GPGGA,180020.00,3356.6282,N,11943.9708,W,1,09,0.8,12.8,M,-33.9,M,,*6E
$PYRTM,2024,122.750258286169,13.859905696308
$GPGGA,180021.00,3356.6285,N,11943.9678,W,1,09,0.8,12.7,M,-33.9,M,,*61
$PYRTM,2024,122.750265691898,13.859913102037
$GPGGA,180022.00,3356.6286,N,11943.9649,W,1,09,0.8,12.5,M,-33.9,M,,*61
$PYRTM,2024,122.750277372211,13.859924782350
$GPGGA,180023.00,3356.6288,N,11943.9620,W,1,09,0.8,12.5,M,-33.9,M,,*61
$PYRTM,2024,122.750293006354,13.859940416493
$GPGGA,180024.00,3356.6290,N,11943.9590,W,1,09,0.8,12.5,M,-33.9,M,,*67
$PYRTM,2024,122.750300401539,13.859947811678
$GPGGA,180025.00,3356.6293,N,11943.9561,W,1,09,0.8,12.7,M,-33.9,M,,*69
$PYRTM,2024,122.750316151169,13.859963561308
$GPGGA,180026.00,3356.6297,N,11943.9530,W,1,09,0.8,12.8,M,-33.9,M,,*65
$PYRTM,2024,122.750327730162,13.859975140301
$GPGGA,180027.00,3356.6299,N,11943.9500,W,1,09,0.8,13.0,M,-33.9,M,,*60
$PYRTM,2024,122.750339304294,13.859986714433
$GPGGA,180028.00,3356.6302,N,11943.9471,W,1,09,0.8,13.1,M,-33.9,M,,*6A
$PYRTM,2024,122.750350877766,13.859998287905
$GPGGA,180029.00,3356.6305,N,11943.9442,W,1,09,0.8,13.2,M,-33.9,M,,*6F
$PYRTM,2024,122.750362451204,13.860009861343
$GPGGA,180030.00,3356.6308,N,11943.9412,W,1,09,0.8,13.1,M,-33.9,M,,*6C
$PYRTM,2024,122.750369847176,13.860017257315
$GPGGA,180031.00,3356.6312,N,11943.9382,W,1,09,0.8,12.9,M,-33.9,M,,*61
$PYRTM,2024,122.750385599826,13.860033009965
$GPGGA,180032.00,3356.6315,N,11943.9353,W,1,09,0.8,12.7,M,-33.9,M,,*67
$PYRTM,2024,122.750397189375,13.860044599525
$GPGGA,180033.00,3356.6316,N,11943.9324,W,1,09,0.8,12.8,M,-33.9,M,,*6A
$PYRTM,2024,122.750408748530,13.860056158669
$GPGGA,180034.00,3356.6318,N,11943.9294,W,1,09,0.8,12.8,M,-33.9,M,,*69
$PYRTM,2024,122.750420325324,13.860067735463
$GPGGA,180035.00,3356.6321,N,11943.9264,W,1,09,0.8,12.8,M,-33.9,M,,*6D
$PYRTM,2024,122.750431896377,13.860079306528
$GPGGA,180036.00,3356.6324,N,11943.9235,W,1,09,0.8,12.8,M,-33.9,M,,*6F
$PYRTM,2024,122.750443465914,13.860090876053
$GPGGA,180037.00,3356.6326,N,11943.9206,W,1,09,0.8,12.8,M,-33.9,M,,*6C
$PYRTM,2024,122.750455045104,13.860102455243
$GPGGA,180038.00,3356.6327,N,11943.9177,W,1,09,0.8,13.0,M,-33.9,M,,*6E
$PYRTM,2024,122.750466613472,13.860114023611
$GPGGA,180039.00,3356.6330,N,11943.9148,W,1,09,0.8,13.0,M,-33.9,M,,*65
$PYRTM,2024,122.750478192870,13.860125603009
$GPGGA,180040.00,3356.6334,N,11943.9119,W,1,09,0.8,12.9,M,-33.9,M,,*63
$PYRTM,2024,122.750489766968,13.860137177106
$GPGGA,180041.00,3356.6337,N,11943.9090,W,1,09,0.8,12.8,M,-33.9,M,,*60
$PYRTM,2024,122.750501336562,13.860148746701
$GPGGA,180042.00,3356.6340,N,11943.9061,W,1,09,0.8,12.8,M,-33.9,M,,*6D
$PYRTM,2024,122.750512916748,13.860160326887
$GPGGA,180043.00,3356.6342,N,11943.9031,W,1,09,0.8,13.0,M,-33.9,M,,*62
$PYRTM,2024,122.750524490544,13.860171900683
$GPGGA,180044.00,3356.6344,N,11943.9001,W,1,09,0.8,13.0,M,-33.9,M,,*60
$PYRTM,2024,122.750536063970,13.860183474109
$GPGGA,180045.00,3356.6347,N,11943.8970,W,1,09,0.8,13.1,M,-33.9,M,,*6D
$PYRTM,2024,122.750547637141,13.860195047280
$GPGGA,180046.00,3356.6350,N,11943.8940,W,1,09,0.8,13.1,M,-33.9,M,,*6B
$PYRTM,2024,122.750559212269,13.860206622407
$GPGGA,180047.00,3356.6354,N,11943.8910,W,1,09,0.8,13.1,M,-33.9,M,,*6B
$PYRTM,2024,122.750570784988,13.860218195127
$GPGGA,180048.00,3356.6358,N,11943.8881,W,1,09,0.8,13.0,M,-33.9,M,,*60
$PYRTM,2024,122.750582374630,13.860229784769
$GPGGA,180049.00,3356.6361,N,11943.8851,W,1,09,0.8,12.9,M,-33.9,M,,*6E
$PYRTM,2024,122.750593934144,13.860241344282
$GPGGA,180050.00,3356.6363,N,11943.8822,W,1,09,0.8,12.7,M,-33.9,M,,*6E
$PYRTM,2024,122.750605522431,13.860252932569
$GPGGA,180051.00,3356.6366,N,11943.8794,W,1,09,0.8,12.6,M,-33.9,M,,*69
$PYRTM,2024,122.750617082755,13.860264492894
$GPGGA,180052.00,3356.6369,N,11943.8765,W,1,09,0.8,12.7,M,-33.9,M,,*6A
$PYRTM,2024,122.750624478414,13.860271888565
$GPGGA,180053.00,3356.6373,N,11943.8736,W,1,09,0.8,12.7,M,-33.9,M,,*66
$PYRTM,2024,122.750636179745,13.860283589884
$GPGGA,180054.00,3356.6376,N,11943.8706,W,1,09,0.8,12.8,M,-33.9,M,,*68
$PYRTM,2024,122.750651808032,13.860299218171
$GPGGA,180055.00,3356.6379,N,11943.8676,W,1,09,0.8,13.0,M,-33.9,M,,*69
$PYRTM,2024,122.750659213160,13.860306623299
$GPGGA,180056.00,3356.6383,N,11943.8645,W,1,09,0.8,13.1,M,-33.9,M,,*6E
$PYRTM,2024,122.750674953148,13.860322363287
$GPGGA,180057.00,3356.6387,N,11943.8615,W,1,09,0.8,13.2,M,-33.9,M,,*6D
$PYRTM,2024,122.750682363414,13.860329773553
$GPGGA,180058.00,3356.6391,N,11943.8585,W,1,09,0.8,13.2,M,-33.9,M,,*6F
$PYRTM,2024,122.750698103681,13.860345513819
$GPGGA,180059.00,3356.6394,N,11943.8555,W,1,09,0.8,13.1,M,-33.9,M,,*65
$PYRTM,2024,122.750709676400,13.860357086539
$GPGGA,180100.00,3356.6397,N,11943.8526,W,1,09,0.8,12.9,M,-33.9,M,,*66
$PYRTM,2024,122.750721250359,13.860368660486
$GPGGA,180101.00,3356.6402,N,11943.8497,W,1,09,0.8,12.8,M,-33.9,M,,*66
$PYRTM,2024,122.750732819109,13.860380229248
$GPGGA,180102.00,3356.6405,N,11943.8469,W,1,09,0.8,12.7,M,-33.9,M,,*6C
$PYRTM,2024,122.750744401458,13.860391811609
$GPGGA,180103.00,3356.6409,N,11943.8440,W,1,09,0.8,12.7,M,-33.9,M,,*6A
$PYRTM,2024,122.750755972407,13.860403382546
$GPGGA,180104.00,3356.6412,N,11943.8411,W,1,09,0.8,12.6,M,-33.9,M,,*62
$PYRTM,2024,122.750767550891,13.860414961030
$GPGGA,180105.00,3356.6415,N,11943.8382,W,1,09,0.8,12.7,M,-33.9,M,,*68
$PYRTM,2024,122.750779122245,13.860426532384
$GPGGA,180106.00,3356.6419,N,11943.8353,W,1,09,0.8,12.9,M,-33.9,M,,*65
$PYRTM,2024,122.750790698692,13.860438108831
$GPGGA,180107.00,3356.6423,N,11943.8324,W,1,09,0.8,13.1,M,-33.9,M,,*64
$PYRTM,2024,122.750802269086,13.860449679225
$GPGGA,180108.00,3356.6427,N,11943.8293,W,1,09,0.8,13.2,M,-33.9,M,,*61
$PYRTM,2024,122.750813842778,13.860461252917
$GPGGA,180109.00,3356.6431,N,11943.8262,W,1,09,0.8,13.2,M,-33.9,M,,*69
$PYRTM,2024,122.750825417106,13.860472827245
$GPGGA,180110.00,3356.6434,N,11943.8232,W,1,09,0.8,13.2,M,-33.9,M,,*61
$PYRTM,2024,122.750832813206,13.860480223356
$GPGGA,180111.00,3356.6438,N,11943.8202,W,1,09,0.8,13.2,M,-33.9,M,,*6F
$PYRTM,2024,122.750848565660,13.860495975799
$GPGGA,180112.00,3356.6443,N,11943.8172,W,1,09,0.8,13.0,M,-33.9,M,,*66
$PYRTM,2024,122.750860254884,13.860507665023
$GPGGA,180113.00,3356.6446,N,11943.8143,W,1,09,0.8,12.8,M,-33.9,M,,*69
$PYRTM,2024,122.750871817431,13.860519227569
$GPGGA,180114.00,3356.6449,N,11943.8114,W,1,09,0.8,12.6,M,-33.9,M,,*6D
$PYRTM,2024,122.750883287465,13.860530697604
$GPGGA,180115.00,3356.6452,N,11943.8086,W,1,09,0.8,12.5,M,-33.9,M,,*6F
$PYRTM,2024,122.750890682755,13.860538092894
$GPGGA,180116.00,3356.6456,N,11943.8058,W,1,09,0.8,12.6,M,-33.9,M,,*68
$PYRTM,2024,122.750906439549,13.860553849699
$GPGGA,180117.00,3356.6460,N,11943.8029,W,1,09,0.8,12.7,M,-33.9,M,,*6B
$PYRTM,2024,122.750918010463,13.860565420602
$GPGGA,180118.00,3356.6465,N,11943.7999,W,1,09,0.8,12.8,M,-33.9,M,,*63
$PYRTM,2024,122.750925406030,13.860572816169
$GPGGA,180119.00,3356.6468,N,11943.7970,W,1,09,0.8,13.0,M,-33.9,M,,*61
$PYRTM,2024,122.750941157650,13.860588567789
$GPGGA,180120.00,3356.6472,N,11943.7940,W,1,09,0.8,13.2,M,-33.9,M,,*61
$PYRTM,2024,122.750952735984,13.860600146123
$GPGGA,180121.00,3356.6475,N,11943.7910,W,1,09,0.8,13.3,M,-33.9,M,,*63
$PYRTM,2024,122.750964307222,13.860611717361
$GPGGA,180122.00,3356.6480,N,11943.7879,W,1,09,0.8,13.3,M,-33.9,M,,*64
$PYRTM,2024,122.750975884525,13.860623294664
$GPGGA,180123.00,3356.6485,N,11943.7849,W,1,09,0.8,13.2,M,-33.9,M,,*62
$PYRTM,2024,122.750987453924,13.860634864063
$GPGGA,180124.00,3356.6488,N,11943.7820,W,1,09,0.8,13.0,M,-33.9,M,,*65
$PYRTM,2024,122.750994850266,13.860642260405
$GPGGA,180125.00,3356.6492,N,11943.7791,W,1,09,0.8,12.8,M,-33.9,M,,*63
$PYRTM,2024,122.751013483623,13.860660893762
$GPGGA,180126.00,3356.6495,N,11943.7762,W,1,09,0.8,12.7,M,-33.9,M,,*64
$PYRTM,2024,122.751022178056,13.860669588194
$GPGGA,180127.00,3356.6498,N,11943.7733,W,1,09,0.8,12.7,M,-33.9,M,,*6C
$PYRTM,2024,122.751029585509,13.860676995648
$GPGGA,180128.00,3356.6502,N,11943.7704,W,1,09,0.8,12.7,M,-33.9,M,,*65
$PYRTM,2024,122.751041608299,13.860689018438
$GPGGA,180129.00,3356.6506,N,11943.7675,W,1,09,0.8,12.8,M,-33.9,M,,*68
$PYRTM,2024,122.751056899653,13.860704309792
$GPGGA,180130.00,3356.6509,N,11943.7646,W,1,09,0.8,12.9,M,-33.9,M,,*6E
$PYRTM,2024,122.751068475023,13.860715885174
$GPGGA,180131.00,3356.6513,N,11943.7617,W,1,09,0.8,13.0,M,-33.9,M,,*68
$PYRTM,2024,122.751080043252,13.860727453391
$GPGGA,180132.00,3356.6517,N,11943.7587,W,1,09,0.8,13.0,M,-33.9,M,,*65
$PYRTM,2024,122.751091623067,13.860739033206
$GPGGA,180133.00,3356.6521,N,11943.7557,W,1,09,0.8,13.1,M,-33.9,M,,*6D
$PYRTM,2024,122.751103196840,13.860750606979
$GPGGA,180134.00,3356.6525,N,11943.7527,W,1,09,0.8,13.1,M,-33.9,M,,*69
$PYRTM,2024,122.751114772431,13.860762182569
$GPGGA,180135.00,3356.6528,N,11943.7497,W,1,09,0.8,13.2,M,-33.9,M,,*6C
$PYRTM,2024,122.751126345139,13.860773755278
$GPGGA,180136.00,3356.6532,N,11943.7468,W,1,09,0.8,13.1,M,-33.9,M,,*67
$PYRTM,2024,122.751137921817,13.860785331968
$GPGGA,180137.00,3356.6536,N,11943.7439,W,1,09,0.8,13.0,M,-33.9,M,,*67
$PYRTM,2024,122.751149493704,13.860796903843
$GPGGA,180138.00,3356.6541,N,11943.7410,W,1,09,0.8,12.9,M,-33.9,M,,*6B
$PYRTM,2024,122.751161071597,13.860808481736
$GPGGA,180139.00,3356.6545,N,11943.7381,W,1,09,0.8,12.9,M,-33.9,M,,*61
$PYRTM,2024,122.751172641042,13.860820051181
$GPGGA,180140.00,3356.6549,N,11943.7352,W,1,09,0.8,12.8,M,-33.9,M,,*6C
$PYRTM,2024,122.751180035509,13.860827445648
$GPGGA,180141.00,3356.6552,N,11943.7323,W,1,09,0.8,12.8,M,-33.9,M,,*61
$PYRTM,2024,122.751195784225,13.860843194363
$GPGGA,180142.00,3356.6555,N,11943.7294,W,1,09,0.8,12.8,M,-33.9,M,,*68
$PYRTM,2024,122.751203190139,13.860850600278
$GPGGA,180143.00,3356.6559,N,11943.7264,W,1,09,0.8,12.8,M,-33.9,M,,*6A
$PYRTM,2024,122.751214885451,13.860862295590
$GPGGA,180144.00,3356.6563,N,11943.7235,W,1,09,0.8,13.0,M,-33.9,M,,*69
$PYRTM,2024,122.751230511968,13.860877922106
$GPGGA,180145.00,3356.6568,N,11943.7205,W,1,09,0.8,13.1,M,-33.9,M,,*61
$PYRTM,2024,122.751242080718,13.860889490856
$GPGGA,180146.00,3356.6571,N,11943.7175,W,1,09,0.8,13.1,M,-33.9,M,,*6E
$PYRTM,2024,122.751253659502,13.860901069641
$GPGGA,180147.00,3356.6575,N,11943.7145,W,1,09,0.8,13.2,M,-33.9,M,,*6B
$PYRTM,2024,122.751265230104,13.860912640243
$GPGGA,180148.00,3356.6579,N,11943.7116,W,1,09,0.8,13.2,M,-33.9,M,,*6E
$PYRTM,2024,122.751276810301,13.860924220440
$GPGGA,180149.00,3356.6583,N,11943.7087,W,1,09,0.8,13.1,M,-33.9,M,,*60
$PYRTM,2024,122.751288382963,13.860935793102
$GPGGA,180150.00,3356.6587,N,11943.7058,W,1,09,0.8,12.9,M,-33.9,M,,*67
$PYRTM,2024,122.751299958461,13.860947368600
$GPGGA,180151.00,3356.6590,N,11943.7029,W,1,09,0.8,12.8,M,-33.9,M,,*67
$PYRTM,2024,122.751307352106,13.860954762257
$GPGGA,180152.00,3356.6594,N,11943.6999,W,1,09,0.8,12.8,M,-33.9,M,,*63
$PYRTM,2024,122.751323109398,13.860970519549
$GPGGA,180153.00,3356.6598,N,11943.6970,W,1,09,0.8,12.9,M,-33.9,M,,*68
$PYRTM,2024,122.751334677743,13.860982087882
$GPGGA,180154.00,3356.6602,N,11943.6940,W,1,09,0.8,13.1,M,-33.9,M,,*65
$PYRTM,2024,122.751346257164,13.860993667303
$GPGGA,180155.00,3356.6605,N,11943.6910,W,1,09,0.8,13.2,M,-33.9,M,,*65
$PYRTM,2024,122.751353648553,13.861001058692
$GPGGA,180156.00,3356.6609,N,11943.6881,W,1,09,0.8,13.3,M,-33.9,M,,*62
$PYRTM,2024,122.751369402315,13.861016812465
$GPGGA,180157.00,3356.6613,N,11943.6851,W,1,09,0.8,13.3,M,-33.9,M,,*65
$PYRTM,2024,122.751380975093,13.861028385231
$GPGGA,180158.00,3356.6618,N,11943.6822,W,1,09,0.8,13.1,M,-33.9,M,,*67
$PYRTM,2024,122.751388369907,13.861035780046
$GPGGA,180159.00,3356.6622,N,11943.6793,W,1,09,0.8,13.0,M,-33.9,M,,*6B
$PYRTM,2024,122.751400408681,13.861047818831
$GPGGA,180200.00,3356.6626,N,11943.6764,W,1,09,0.8,12.8,M,-33.9,M,,*61
$PYRTM,2024,122.751415701238,13.861063111377
$GPGGA,180201.00,3356.6628,N,11943.6736,W,1,09,0.8,12.8,M,-33.9,M,,*69
$PYRTM,2024,122.751427272187,13.861074682338
$GPGGA,180202.00,3356.6632,N,11943.6707,W,1,09,0.8,12.8,M,-33.9,M,,*63
$PYRTM,2024,122.751438845463,13.861086255602
$GPGGA,180203.00,3356.6637,N,11943.6678,W,1,09,0.8,13.0,M,-33.9,M,,*67
$PYRTM,2024,122.751450420012,13.861097830150
$GPGGA,180204.00,3356.6640,N,11943.6648,W,1,09,0.8,13.0,M,-33.9,M,,*63
$PYRTM,2024,122.751457815208,13.861105225347
$GPGGA,180205.00,3356.6644,N,11943.6618,W,1,09,0.8,13.0,M,-33.9,M,,*63
$PYRTM,2024,122.751473568414,13.861120978565
$GPGGA,180206.00,3356.6647,N,11943.6588,W,1,09,0.8,13.2,M,-33.9,M,,*6B
$PYRTM,2024,122.751485143218,13.861132553356
$GPGGA,180207.00,3356.6651,N,11943.6558,W,1,09,0.8,13.4,M,-33.9,M,,*66
$PYRTM,2024,122.751496712674,13.861144122812
$GPGGA,180208.00,3356.6655,N,11943.6528,W,1,09,0.8,13.5,M,-33.9,M,,*6B
$PYRTM,2024,122.751508294873,13.861155705012
$GPGGA,180209.00,3356.6660,N,11943.6498,W,1,09,0.8,13.5,M,-33.9,M,,*66
$PYRTM,2024,122.751515686424,13.861163096574
$GPGGA,180210.00,3356.6664,N,11943.6469,W,1,09,0.8,13.3,M,-33.9,M,,*62
$PYRTM,2024,122.751531443264,13.861178853403
$GPGGA,180211.00,3356.6667,N,11943.6441,W,1,09,0.8,13.2,M,-33.9,M,,*6B
$PYRTM,2024,122.751543013275,13.861190423414
$GPGGA,180212.00,3356.6671,N,11943.6413,W,1,09,0.8,13.1,M,-33.9,M,,*6B
$PYRTM,2024,122.751550408646,13.861197818785
$GPGGA,180213.00,3356.6675,N,11943.6384,W,1,09,0.8,13.0,M,-33.9,M,,*66
$PYRTM,2024,122.751566163600,13.861213573738
$GPGGA,180214.00,3356.6679,N,11943.6356,W,1,09,0.8,12.9,M,-33.9,M,,*6A
$PYRTM,2024,122.751577737500,13.861225147639
$GPGGA,180215.00,3356.6683,N,11943.6327,W,1,09,0.8,12.9,M,-33.9,M,,*68
$PYRTM,2024,122.751589309317,13.861236719456
$GPGGA,180216.00,3356.6686,N,11943.6298,W,1,09,0.8,12.9,M,-33.9,M,,*6B
$PYRTM,2024,122.751600884491,13.861248294630
$GPGGA,180217.00,3356.6690,N,11943.6268,W,1,09,0.8,13.0,M,-33.9,M,,*6A
$PYRTM,2024,122.751612453889,13.861259864028
$GPGGA,180218.00,3356.6692,N,11943.6238,W,1,09,0.8,13.2,M,-33.9,M,,*60
$PYRTM,2024,122.751624033553,13.861271443692
$GPGGA,180219.00,3356.6695,N,11943.6207,W,1,09,0.8,13.3,M,-33.9,M,,*6B
$PYRTM,2024,122.751635607153,13.861283017303
$GPGGA,180220.00,3356.6699,N,11943.6178,W,1,09,0.8,13.3,M,-33.9,M,,*66
$PYRTM,2024,122.751647181852,13.861294591991
$GPGGA,180221.00,3356.6704,N,11943.6149,W,1,09,0.8,13.4,M,-33.9,M,,*67
$PYRTM,2024,122.751658749641,13.861306159780
$GPGGA,180222.00,3356.6708,N,11943.6120,W,1,09,0.8,13.3,M,-33.9,M,,*60
$PYRTM,2024,122.751670332141,13.861317742280
$GPGGA,180223.00,3356.6712,N,11943.6091,W,1,09,0.8,13.1,M,-33.9,M,,*63
$PYRTM,2024,122.751681903056,13.861329313194
$GPGGA,180224.00,3356.6716,N,11943.6063,W,1,09,0.8,13.1,M,-33.9,M,,*6D
$PYRTM,2024,122.751689299282,13.861336709421
$GPGGA,180225.00,3356.6719,N,11943.6035,W,1,09,0.8,13.1,M,-33.9,M,,*60
$PYRTM,2024,122.751705051377,13.861352461516
$GPGGA,180226.00,3356.6723,N,11943.6006,W,1,09,0.8,13.2,M,-33.9,M,,*69
$PYRTM,2024,122.751712445822,13.861359855961
$GPGGA,180227.00,3356.6727,N,11943.5976,W,1,09,0.8,13.2,M,-33.9,M,,*61
$PYRTM,2024,122.751728200405,13.861375610544
$GPGGA,180228.00,3356.6730,N,11943.5947,W,1,09,0.8,13.2,M,-33.9,M,,*6A
$PYRTM,2024,122.751739785637,13.861387195775
$GPGGA,180229.00,3356.6734,N,11943.5917,W,1,09,0.8,13.4,M,-33.9,M,,*6C
$PYRTM,2024,122.751747181100,13.861394591238
$GPGGA,180230.00,3356.6738,N,11943.5888,W,1,09,0.8,13.5,M,-33.9,M,,*6E
$PYRTM,2024,122.751762922338,13.861410332477
$GPGGA,180231.00,3356.6741,N,11943.5859,W,1,09,0.8,13.4,M,-33.9,M,,*6C
$PYRTM,2024,122.751774496042,13.861421906192
$GPGGA,180232.00,3356.6745,N,11943.5830,W,1,09,0.8,13.2,M,-33.9,M,,*62
$PYRTM,2024,122.751781890903,13.861429301042
$GPGGA,180233.00,3356.6749,N,11943.5801,W,1,09,0.8,13.0,M,-33.9,M,,*6F
$PYRTM,2024,122.751797639919,13.861445050058
$GPGGA,180234.00,3356.6753,N,11943.5773,W,1,09,0.8,13.0,M,-33.9,M,,*69
$PYRTM,2024,122.751809229919,13.861456640058
$GPGGA,180235.00,3356.6757,N,11943.5745,W,1,09,0.8,13.1,M,-33.9,M,,*68
$PYRTM,2024,122.751820793866,13.861468204005
$GPGGA,180236.00,3356.6760,N,11943.5716,W,1,09,0.8,13.2,M,-33.9,M,,*6A
$PYRTM,2024,122.751832366447,13.861479776586
$GPGGA,180237.00,3356.6763,N,11943.5687,W,1,09,0.8,13.3,M,-33.9,M,,*60
$PYRTM,2024,122.751843941539,13.861491351678
$GPGGA,180238.00,3356.6767,N,11943.5658,W,1,09,0.8,13.3,M,-33.9,M,,*69
$PYRTM,2024,122.751855514873,13.861502925012
$GPGGA,180239.00,3356.6771,N,11943.5629,W,1,09,0.8,13.3,M,-33.9,M,,*69
$PYRTM,2024,122.751862916539,13.861510326678
$GPGGA,180240.00,3356.6775,N,11943.5600,W,1,09,0.8,13.4,M,-33.9,M,,*6F
$PYRTM,2024,122.751878671644,13.861526081782
$GPGGA,180241.00,3356.6779,N,11943.5571,W,1,09,0.8,13.4,M,-33.9,M,,*67
$PYRTM,2024,122.751890237488,13.861537647639
$GPGGA,180242.00,3356.6783,N,11943.5542,W,1,09,0.8,13.3,M,-33.9,M,,*66
$PYRTM,2024,122.751897632361,13.861545042500
$GPGGA,180243.00,3356.6787,N,11943.5514,W,1,09,0.8,13.3,M,-33.9,M,,*60
$PYRTM,2024,122.751913381296,13.861560791447
$GPGGA,180244.00,3356.6791,N,11943.5486,W,1,09,0.8,13.2,M,-33.9,M,,*6B
$PYRTM,2024,122.751924970347,13.861572380486
$GPGGA,180245.00,3356.6794,N,11943.5457,W,1,09,0.8,13.1,M,-33.9,M,,*60
$PYRTM,2024,122.751936534572,13.861583944711
$GPGGA,180246.00,3356.6798,N,11943.5428,W,1,09,0.8,13.0,M,-33.9,M,,*66
$PYRTM,2024,122.751948107951,13.861595518090
$GPGGA,180247.00,3356.6802,N,11943.5400,W,1,09,0.8,13.1,M,-33.9,M,,*60
$PYRTM,2024,122.751955518426,13.861602928565
$GPGGA,180248.00,3356.6806,N,11943.5371,W,1,09,0.8,13.3,M,-33.9,M,,*68
$PYRTM,2024,122.751971267269,13.861618677407
$GPGGA,180249.00,3356.6810,N,11943.5341,W,1,09,0.8,13.4,M,-33.9,M,,*6A
$PYRTM,2024,122.751982826250,13.861630236389
$GPGGA,180250.00,3356.6814,N,11943.5313,W,1,09,0.8,13.5,M,-33.9,M,,*60
$PYRTM,2024,122.751994404803,13.861641814942
$GPGGA,180251.00,3356.6817,N,11943.5284,W,1,09,0.8,13.5,M,-33.9,M,,*6D
$PYRTM,2024,122.752005974850,13.861653384988
$GPGGA,180252.00,3356.6821,N,11943.5255,W,1,09,0.8,13.5,M,-33.9,M,,*67
$PYRTM,2024,122.752013373738,13.861660783889
$GPGGA,180253.00,3356.6826,N,11943.5226,W,1,09,0.8,13.2,M,-33.9,M,,*62
$PYRTM,2024,122.752029127558,13.861676537708
$GPGGA,180254.00,3356.6830,N,11943.5198,W,1,09,0.8,13.0,M,-33.9,M,,*66
$PYRTM,2024,122.752040712998,13.861688123137
$GPGGA,180255.00,3356.6834,N,11943.5170,W,1,09,0.8,13.0,M,-33.9,M,,*65
$PYRTM,2024,122.752052276644,13.861699686794
$GPGGA,180256.00,3356.6837,N,11943.5141,W,1,09,0.8,13.1,M,-33.9,M,,*66
$PYRTM,2024,122.752063877280,13.861711287419
$GPGGA,180257.00,3356.6840,N,11943.5112,W,1,09,0.8,13.2,M,-33.9,M,,*62
$PYRTM,2024,122.752071251111,13.861718661250
$GPGGA,180258.00,3356.6844,N,11943.5083,W,1,09,0.8,13.2,M,-33.9,M,,*60
$PYRTM,2024,122.752087005370,13.861734415509
$GPGGA,180259.00,3356.6848,N,11943.5054,W,1,09,0.8,13.2,M,-33.9,M,,*67
$PYRTM,2024,122.752098571435,13.861745981574
$GPGGA,180300.00,3356.6852,N,11943.5025,W,1,09,0.8,13.3,M,-33.9,M,,*66
$PYRTM,2024,122.752105967002,13.861753377141
$GPGGA,180301.00,3356.6856,N,11943.4997,W,1,09,0.8,13.4,M,-33.9,M,,*65
$PYRTM,2024,122.752121721238,13.861769131377
$GPGGA,180302.00,3356.6860,N,11943.4968,W,1,09,0.8,13.4,M,-33.9,M,,*63
$PYRTM,2024,122.752133294005,13.861780704144
$GPGGA,180303.00,3356.6864,N,11943.4939,W,1,09,0.8,13.3,M,-33.9,M,,*65
$PYRTM,2024,122.752144868912,13.861792279051
$GPGGA,180304.00,3356.6868,N,11943.4910,W,1,09,0.8,13.3,M,-33.9,M,,*65
$PYRTM,2024,122.752156454734,13.861803864873
$GPGGA,180305.00,3356.6873,N,11943.4882,W,1,09,0.8,13.3,M,-33.9,M,,*64
$PYRTM,2024,122.752163861771,13.861811271910
$GPGGA,180306.00,3356.6877,N,11943.4854,W,1,09,0.8,13.3,M,-33.9,M,,*68
$PYRTM,2024,122.752179590926,13.861827001065
$GPGGA,180307.00,3356.6881,N,11943.4825,W,1,09,0.8,13.3,M,-33.9,M,,*66
$PYRTM,2024,122.752186992326,13.861834402465
$GPGGA,180308.00,3356.6884,N,11943.4796,W,1,09,0.8,13.3,M,-33.9,M,,*6B
$PYRTM,2024,122.752198677604,13.861846087755
$GPGGA,180309.00,3356.6888,N,11943.4767,W,1,09,0.8,13.2,M,-33.9,M,,*69
$PYRTM,2024,122.752214313900,13.861861724039
$GPGGA,180310.00,3356.6892,N,11943.4739,W,1,09,0.8,13.1,M,-33.9,M,,*62
$PYRTM,2024,122.752221708993,13.861869119132
$GPGGA,180311.00,3356.6897,N,11943.4710,W,1,09,0.8,13.1,M,-33.9,M,,*6D
$PYRTM,2024,122.752237461725,13.861884871863
$GPGGA,180312.00,3356.6901,N,11943.4681,W,1,09,0.8,13.2,M,-33.9,M,,*6A
$PYRTM,2024,122.752249057662,13.861896467801
$GPGGA,180313.00,3356.6904,N,11943.4652,W,1,09,0.8,13.3,M,-33.9,M,,*61
$PYRTM,2024,122.752260604583,13.861908014722
$GPGGA,180314.00,3356.6908,N,11943.4623,W,1,09,0.8,13.3,M,-33.9,M,,*6C
$PYRTM,2024,122.752272199595,13.861919609734
$GPGGA,180315.00,3356.6911,N,11943.4594,W,1,09,0.8,13.4,M,-33.9,M,,*6D
$PYRTM,2024,122.752283753484,13.861931163623
$GPGGA,180316.00,3356.6916,N,11943.4565,W,1,09,0.8,13.4,M,-33.9,M,,*67
$PYRTM,2024,122.752295332465,13.861942742604
$GPGGA,180317.00,3356.6920,N,11943.4536,W,1,09,0.8,13.3,M,-33.9,M,,*62
$PYRTM,2024,122.752306907488,13.861954317627
$GPGGA,180318.00,3356.6923,N,11943.4507,W,1,09,0.8,13.3,M,-33.9,M,,*6C
$PYRTM,2024,122.752318492280,13.861965902419
$GPGGA,180319.00,3356.6926,N,11943.4479,W,1,09,0.8,13.3,M,-33.9,M,,*60
$PYRTM,2024,122.752330054896,13.861977465035
$GPGGA,180320.00,3356.6931,N,11943.4450,W,1,09,0.8,13.3,M,-33.9,M,,*67
$PYRTM,2024,122.752337448900,13.861984859039
$GPGGA,180321.00,3356.6935,N,11943.4421,W,1,09,0.8,13.3,M,-33.9,M,,*64
$PYRTM,2024,122.752353198264,13.862000608403
$GPGGA,180322.00,3356.6940,N,11943.4393,W,1,09,0.8,13.2,M,-33.9,M,,*6A
$PYRTM,2024,122.752364783981,13.862012194120
$GPGGA,180323.00,3356.6943,N,11943.4364,W,1,09,0.8,13.2,M,-33.9,M,,*60
$PYRTM,2024,122.752376351852,13.862023761991
$GPGGA,180324.00,3356.6946,N,11943.4335,W,1,09,0.8,13.2,M,-33.9,M,,*66
$PYRTM,2024,122.752387924942,13.862035335150
$GPGGA,180325.00,3356.6950,N,11943.4306,W,1,09,0.8,13.2,M,-33.9,M,,*60
$PYRTM,2024,122.752399493970,13.862046904109
$GPGGA,180326.00,3356.6954,N,11943.4277,W,1,09,0.8,13.2,M,-33.9,M,,*60
$PYRTM,2024,122.752411084942,13.862058495081
$GPGGA,180327.00,3356.6958,N,11943.4249,W,1,09,0.8,13.2,M,-33.9,M,,*60
$PYRTM,2024,122.752422647315,13.862070057454
$GPGGA,180328.00,3356.6962,N,11943.4219,W,1,09,0.8,13.2,M,-33.9,M,,*63
$PYRTM,2024,122.752430041968,13.862077452106
$GPGGA,180329.00,3356.6965,N,11943.4191,W,1,09,0.8,13.2,M,-33.9,M,,*66
$PYRTM,2024,122.752448690069,13.862096100208
$GPGGA,180330.00,3356.6969,N,11943.4162,W,1,09,0.8,13.3,M,-33.9,M,,*6F
$PYRTM,2024,122.752457378727,13.862104788877
$GPGGA,180331.00,3356.6973,N,11943.4133,W,1,09,0.8,13.3,M,-33.9,M,,*61
$PYRTM,2024,122.752468939282,13.862116349421
$GPGGA,180332.00,3356.6976,N,11943.4104,W,1,09,0.8,13.3,M,-33.9,M,,*63
$PYRTM,2024,122.752476339201,13.862123749340
$GPGGA,180333.00,3356.6980,N,11943.4076,W,1,09,0.8,13.3,M,-33.9,M,,*6F
$PYRTM,2024,122.752488376644,13.862135786782
$GPGGA,180334.00,3356.6984,N,11943.4047,W,1,09,0.8,13.4,M,-33.9,M,,*69
$PYRTM,2024,122.752503678229,13.862151088380
$GPGGA,180335.00,3356.6988,N,11943.4018,W,1,09,0.8,13.3,M,-33.9,M,,*69
$PYRTM,2024,122.752515241377,13.862162651516
$GPGGA,180336.00,3356.6992,N,11943.3989,W,1,09,0.8,13.4,M,-33.9,M,,*60
$PYRTM,2024,122.752526826181,13.862174236319
$GPGGA,180337.00,3356.6996,N,11943.3960,W,1,09,0.8,13.4,M,-33.9,M,,*62
$PYRTM,2024,122.752538384595,13.862185794734
$GPGGA,180338.00,3356.6999,N,11943.3931,W,1,09,0.8,13.4,M,-33.9,M,,*66
$PYRTM,2024,122.752545784225,13.862193194363
$GPGGA,180339.00,3356.7003,N,11943.3902,W,1,09,0.8,13.3,M,-33.9,M,,*6B
$PYRTM,2024,122.752561533553,13.862208943692
$GPGGA,180340.00,3356.7007,N,11943.3873,W,1,09,0.8,13.1,M,-33.9,M,,*64
$PYRTM,2024,122.752573123090,13.862220533229
$GPGGA,180341.00,3356.7010,N,11943.3845,W,1,09,0.8,13.1,M,-33.9,M,,*66
$PYRTM,2024,122.752584686007,13.862232096146
$GPGGA,180342.00,3356.7014,N,11943.3817,W,1,09,0.8,13.1,M,-33.9,M,,*66
$PYRTM,2024,122.752596259769,13.862243669907
$GPGGA,180343.00,3356.7017,N,11943.3788,W,1,09,0.8,13.1,M,-33.9,M,,*6D
$PYRTM,2024,122.752607832894,13.862255243032
$GPGGA,180344.00,3356.7022,N,11943.3760,W,1,09,0.8,13.1,M,-33.9,M,,*6A
$PYRTM,2024,122.752619431829,13.862266841968
$GPGGA,180345.00,3356.7025,N,11943.3732,W,1,09,0.8,13.1,M,-33.9,M,,*6B
$PYRTM,2024,122.752626808958,13.862274219097
$GPGGA,180346.00,3356.7028,N,11943.3703,W,1,09,0.8,13.1,M,-33.9,M,,*67
$PYRTM,2024,122.752642578796,13.862289988935
$GPGGA,180347.00,3356.7032,N,11943.3674,W,1,09,0.8,13.2,M,-33.9,M,,*6F
$PYRTM,2024,122.752654129282,13.862301539421
$GPGGA,180348.00,3356.7036,N,11943.3645,W,1,09,0.8,13.3,M,-33.9,M,,*67
$PYRTM,2024,122.752661525694,13.862308935833
$GPGGA,180349.00,3356.7040,N,11943.3616,W,1,09,0.8,13.3,M,-33.9,M,,*61
$PYRTM,2024,122.752677277870,13.862324688009
$GPGGA,180350.00,3356.7044,N,11943.3587,W,1,09,0.8,13.4,M,-33.9,M,,*61
$PYRTM,2024,122.752688852187,13.862336262326
$GPGGA,180351.00,3356.7048,N,11943.3557,W,1,09,0.8,13.4,M,-33.9,M,,*61
$PYRTM,2024,122.752700426157,13.862347836296
$GPGGA,180352.00,3356.7052,N,11943.3529,W,1,09,0.8,13.5,M,-33.9,M,,*61
$PYRTM,2024,122.752712002789,13.862359412928
$GPGGA,180353.00,3356.7056,N,11943.3500,W,1,09,0.8,13.5,M,-33.9,M,,*6F
$PYRTM,2024,122.752723574421,13.862370984560
$GPGGA,180354.00,3356.7060,N,11943.3472,W,1,09,0.8,13.4,M,-33.9,M,,*68
$PYRTM,2024,122.752735159560,13.862382569687
$GPGGA,180355.00,3356.7065,N,11943.3443,W,1,09,0.8,13.3,M,-33.9,M,,*69
$PYRTM,2024,122.752746722222,13.862394132361
$GPGGA,180356.00,3356.7069,N,11943.3415,W,1,09,0.8,13.3,M,-33.9,M,,*65
$PYRTM,2024,122.752758308646,13.862405718785
$GPGGA,180357.00,3356.7073,N,11943.3387,W,1,09,0.8,13.3,M,-33.9,M,,*63
$PYRTM,2024,122.752769870995,13.862417281134
$GPGGA,180358.00,3356.7077,N,11943.3358,W,1,09,0.8,13.3,M,-33.9,M,,*6A
$PYRTM,2024,122.752777267535,13.862424677674
$GPGGA,180359.00,3356.7081,N,11943.3329,W,1,09,0.8,13.2,M,-33.9,M,,*65
$PYRTM,2024,122.752788954468,13.862436364606
$GPGGA,180400.00,3356.7085,N,11943.3299,W,1,09,0.8,13.1,M,-33.9,M,,*63
$PYRTM,2024,122.752804600706,13.862452010845
$GPGGA,180401.00,3356.7088,N,11943.3270,W,1,09,0.8,13.2,M,-33.9,M,,*6B
$PYRTM,2024,122.752816168252,13.862463578391
$GPGGA,180402.00,3356.7092,N,11943.3242,W,1,09,0.8,13.3,M,-33.9,M,,*63
$PYRTM,2024,122.752827767940,13.862475178079
$GPGGA,180403.00,3356.7096,N,11943.3213,W,1,09,0.8,13.3,M,-33.9,M,,*62
$PYRTM,2024,122.752835148218,13.862482558356
$GPGGA,180404.00,3356.7100,N,11943.3184,W,1,09,0.8,13.2,M,-33.9,M,,*67
$PYRTM,2024,122.752850916331,13.862498326470
$GPGGA,180405.00,3356.7104,N,11943.3156,W,1,09,0.8,13.1,M,-33.9,M,,*6E
$PYRTM,2024,122.752862464051,13.862509874190
$GPGGA,180406.00,3356.7108,N,11943.3128,W,1,09,0.8,13.1,M,-33.9,M,,*68
$PYRTM,2024,122.752874039271,13.862521449410
$GPGGA,180407.00,3356.7112,N,11943.3100,W,1,09,0.8,13.2,M,-33.9,M,,*6B
$PYRTM,2024,122.752885612384,13.862533022512
$GPGGA,180408.00,3356.7116,N,11943.3071,W,1,09,0.8,13.3,M,-33.9,M,,*66
$PYRTM,2024,122.752897186551,13.862544596690
$GPGGA,180409.00,3356.7121,N,11943.3043,W,1,09,0.8,13.4,M,-33.9,M,,*65
$PYRTM,2024,122.752908755903,13.862556166042
$GPGGA,180410.00,3356.7124,N,11943.3013,W,1,09,0.8,13.5,M,-33.9,M,,*6C
$PYRTM,2024,122.752916155521,13.862563565660
$GPGGA,180411.00,3356.7128,N,11943.2984,W,1,09,0.8,13.6,M,-33.9,M,,*64
$PYRTM,2024,122.752931910660,13.862579320799
$GPGGA,180412.00,3356.7133,N,11943.2955,W,1,09,0.8,13.7,M,-33.9,M,,*60
$PYRTM,2024,122.752943494225,13.862590904363
$GPGGA,180413.00,3356.7137,N,11943.2926,W,1,09,0.8,13.7,M,-33.9,M,,*61
$PYRTM,2024,122.752950884757,13.862598294896
$GPGGA,180414.00,3356.7142,N,11943.2897,W,1,09,0.8,13.5,M,-33.9,M,,*6D
$PYRTM,2024,122.752966642928,13.862614053067
$GPGGA,180415.00,3356.7146,N,11943.2868,W,1,09,0.8,13.2,M,-33.9,M,,*6F
$PYRTM,2024,122.752978206123,13.862625616262
$GPGGA,180416.00,3356.7149,N,11943.2840,W,1,09,0.8,13.1,M,-33.9,M,,*6A
$PYRTM,2024,122.752989787465,13.862637197604
$GPGGA,180417.00,3356.7153,N,11943.2812,W,1,09,0.8,13.0,M,-33.9,M,,*66
$PYRTM,2024,122.753001354086,13.862648764225
$GPGGA,180418.00,3356.7156,N,11943.2783,W,1,09,0.8,12.9,M,-33.9,M,,*63
$PYRTM,2024,122.753012936157,13.862660346296
$GPGGA,180419.00,3356.7160,N,11943.2755,W,1,09,0.8,13.0,M,-33.9,M,,*64
$PYRTM,2024,122.753024501817,13.862671911956
$GPGGA,180420.00,3356.7163,N,11943.2726,W,1,09,0.8,13.1,M,-33.9,M,,*68
$PYRTM,2024,122.753036101412,13.862683511551
$GPGGA,180421.00,3356.7166,N,11943.2698,W,1,09,0.8,13.3,M,-33.9,M,,*6A
$PYRTM,2024,122.753043496157,13.862690906296
$GPGGA,180422.00,3356.7169,N,11943.2669,W,1,09,0.8,13.5,M,-33.9,M,,*6E
$PYRTM,2024,122.753059235880,13.862706646019
$GPGGA,180423.00,3356.7173,N,11943.2640,W,1,09,0.8,13.5,M,-33.9,M,,*6F
$PYRTM,2024,122.753070801007,13.862718211146
$GPGGA,180424.00,3356.7178,N,11943.2611,W,1,09,0.8,13.6,M,-33.9,M,,*64
$PYRTM,2024,122.753082394977,13.862729805116
$GPGGA,180425.00,3356.7183,N,11943.2583,W,1,09,0.8,13.7,M,-33.9,M,,*68
$PYRTM,2024,122.753093947778,13.862741357917
$GPGGA,180426.00,3356.7187,N,11943.2555,W,1,09,0.8,13.7,M,-33.9,M,,*64
$PYRTM,2024,122.753101342627,13.862748752766
$GPGGA,180427.00,3356.7191,N,11943.2526,W,1,09,0.8,13.5,M,-33.9,M,,*64
$PYRTM,2024,122.753117092639,13.862764502778
$GPGGA,180428.00,3356.7195,N,11943.2498,W,1,09,0.8,13.5,M,-33.9,M,,*6B
$PYRTM,2024,122.753128669282,13.862776079421
$GPGGA,180429.00,3356.7199,N,11943.2469,W,1,09,0.8,13.3,M,-33.9,M,,*6E
$PYRTM,2024,122.753136071053,13.862783481181
$GPGGA,180430.00,3356.7203,N,11943.2441,W,1,09,0.8,13.2,M,-33.9,M,,*6D
$PYRTM,2024,122.753147753819,13.862795163958
$GPGGA,180431.00,3356.7207,N,11943.2411,W,1,09,0.8,13.3,M,-33.9,M,,*6C
$PYRTM,2024,122.753163393079,13.862810803206
$GPGGA,180432.00,3356.7210,N,11943.2382,W,1,09,0.8,13.5,M,-33.9,M,,*62
$PYRTM,2024,122.753170787303,13.862818197442
$GPGGA,180433.00,3356.7214,N,11943.2353,W,1,09,0.8,13.6,M,-33.9,M,,*68
$PYRTM,2024,122.753186540521,13.862833950660
$GPGGA,180434.00,3356.7217,N,11943.2324,W,1,09,0.8,13.7,M,-33.9,M,,*6D
$PYRTM,2024,122.753193935775,13.862841345926
$GPGGA,180435.00,3356.7221,N,11943.2295,W,1,09,0.8,13.6,M,-33.9,M,,*63
$PYRTM,2024,122.753205977176,13.862853387315
$GPGGA,180436.00,3356.7224,N,11943.2267,W,1,09,0.8,13.5,M,-33.9,M,,*6B
$PYRTM,2024,122.753221287674,13.862868697812
$GPGGA,180437.00,3356.7228,N,11943.2240,W,1,09,0.8,13.5,M,-33.9,M,,*63
$PYRTM,2024,122.753232836377,13.862880246516
$GPGGA,180438.00,3356.7233,N,11943.2211,W,1,09,0.8,13.5,M,-33.9,M,,*62
$PYRTM,2024,122.753244421667,13.862891831806
$GPGGA,180439.00,3356.7236,N,11943.2183,W,1,09,0.8,13.4,M,-33.9,M,,*6F
$PYRTM,2024,122.753255985937,13.862903396076
$GPGGA,180440.00,3356.7239,N,11943.2155,W,1,09,0.8,13.3,M,-33.9,M,,*62
$PYRTM,2024,122.753263381331,13.862910791470
$GPGGA,180441.00,3356.7242,N,11943.2126,W,1,09,0.8,13.4,M,-33.9,M,,*6C
$PYRTM,2024,122.753279133160,13.862926543299
$GPGGA,180442.00,3356.7246,N,11943.2098,W,1,09,0.8,13.6,M,-33.9,M,,*6D
$PYRTM,2024,122.753290708715,13.862938118854
$GPGGA,180443.00,3356.7250,N,11943.2069,W,1,09,0.8,13.7,M,-33.9,M,,*64
$PYRTM,2024,122.753302282176,13.862949692326
$GPGGA,180444.00,3356.7254,N,11943.2040,W,1,09,0.8,13.7,M,-33.9,M,,*6C
$PYRTM,2024,122.753313856007,13.862961266146
$GPGGA,180445.00,3356.7257,N,11943.2011,W,1,09,0.8,13.8,M,-33.9,M,,*65
$PYRTM,2024,122.753321262546,13.862968672685
$GPGGA,180446.00,3356.7261,N,11943.1982,W,1,09,0.8,13.8,M,-33.9,M,,*63
$PYRTM,2024,122.753337016539,13.862984426678
$GPGGA,180447.00,3356.7265,N,11943.1954,W,1,09,0.8,13.8,M,-33.9,M,,*6D
$PYRTM,2024,122.753348578368,13.862995988507
$GPGGA,180448.00,3356.7269,N,11943.1925,W,1,09,0.8,13.8,M,-33.9,M,,*68
$PYRTM,2024,122.753355975266,13.863003385417
$GPGGA,180449.00,3356.7273,N,11943.1897,W,1,09,0.8,13.7,M,-33.9,M,,*65
$PYRTM,2024,122.753371726933,13.863019137072
$GPGGA,180450.00,3356.7276,N,11943.1868,W,1,09,0.8,13.6,M,-33.9,M,,*69
$PYRTM,2024,122.753383309051,13.863030719190
$GPGGA,180451.00,3356.7280,N,11943.1840,W,1,09,0.8,13.6,M,-33.9,M,,*6B
$PYRTM,2024,122.753394875718,13.863042285856
$GPGGA,180452.00,3356.7284,N,11943.1812,W,1,09,0.8,13.6,M,-33.9,M,,*6B
$PYRTM,2024,122.753406456620,13.863053866759
$GPGGA,180453.00,3356.7288,N,11943.1783,W,1,09,0.8,13.6,M,-33.9,M,,*61
$PYRTM,2024,122.753418023472,13.863065433611
$GPGGA,180454.00,3356.7292,N,11943.1754,W,1,09,0.8,13.6,M,-33.9,M,,*67
$PYRTM,2024,122.753429608333,13.863077018472
$GPGGA,180455.00,3356.7296,N,11943.1726,W,1,09,0.8,13.7,M,-33.9,M,,*66
$PYRTM,2024,122.753437016701,13.863084426840
$GPGGA,180456.00,3356.7300,N,11943.1697,W,1,09,0.8,13.8,M,-33.9,M,,*6F
$PYRTM,2024,122.753452746030,13.863100156169
$GPGGA,180457.00,3356.7304,N,11943.1669,W,1,09,0.8,13.9,M,-33.9,M,,*6A
$PYRTM,2024,122.753464317049,13.863111727187
$GPGGA,180458.00,3356.7308,N,11943.1640,W,1,09,0.8,13.8,M,-33.9,M,,*63
$PYRTM,2024,122.753475894387,13.863123304525
$GPGGA,180459.00,3356.7312,N,11943.1611,W,1,09,0.8,13.7,M,-33.9,M,,*62
$PYRTM,2024,122.753487468137,13.863134878275
$GPGGA,180500.00,3356.7316,N,11943.1583,W,1,09,0.8,13.7,M,-33.9,M,,*63
$PYRTM,2024,122.753499041424,13.863146451562
$GPGGA,180501.00,3356.7319,N,11943.1554,W,1,09,0.8,13.8,M,-33.9,M,,*68
$PYRTM,2024,122.753506448553,13.863153858692
$GPGGA,180502.00,3356.7323,N,11943.1526,W,1,09,0.8,13.9,M,-33.9,M,,*66
$PYRTM,2024,122.753522190266,13.863169600405
$GPGGA,180503.00,3356.7327,N,11943.1497,W,1,09,0.8,13.8,M,-33.9,M,,*69
$PYRTM,2024,122.753533760822,13.863181170961
$GPGGA,180504.00,3356.7331,N,11943.1468,W,1,09,0.8,13.8,M,-33.9,M,,*69
$PYRTM,2024,122.753545363600,13.863192773750
$GPGGA,180505.00,3356.7335,N,11943.1440,W,1,09,0.8,13.7,M,-33.9,M,,*69
$PYRTM,2024,122.753552741632,13.863200151771
$GPGGA,180506.00,3356.7339,N,11943.1411,W,1,09,0.8,13.8,M,-33.9,M,,*6D
$PYRTM,2024,122.753568495162,13.863215905301
$GPGGA,180507.00,3356.7343,N,11943.1382,W,1,09,0.8,13.8,M,-33.9,M,,*6C
$PYRTM,2024,122.753580061956,13.863227472095
$GPGGA,180508.00,3356.7347,N,11943.1354,W,1,09,0.8,13.9,M,-33.9,M,,*6D
$PYRTM,2024,122.753591643438,13.863239053565
$GPGGA,180509.00,3356.7351,N,11943.1325,W,1,09,0.8,13.9,M,-33.9,M,,*6D
$PYRTM,2024,122.753599053738,13.863246463877
$GPGGA,180510.00,3356.7354,N,11943.1297,W,1,09,0.8,13.9,M,-33.9,M,,*68
$PYRTM,2024,122.753614783391,13.863262193530
$GPGGA,180511.00,3356.7358,N,11943.1268,W,1,09,0.8,13.8,M,-33.9,M,,*64
$PYRTM,2024,122.753626358356,13.863273768495
$GPGGA,180512.00,3356.7361,N,11943.1240,W,1,09,0.8,13.8,M,-33.9,M,,*67
$PYRTM,2024,122.753632387836,13.863279797975
$GPGGA,180513.00,3356.7365,N,11943.1211,W,1,09,0.8,13.8,M,-33.9,M,,*66
$PYRTM,2024,122.753649506505,13.863296916644
$GPGGA,180514.00,3356.7369,N,11943.1182,W,1,09,0.8,13.9,M,-33.9,M,,*65
$PYRTM,2024,122.753661079745,13.863308489896
$GPGGA,180515.00,3356.7372,N,11943.1153,W,1,09,0.8,13.9,M,-33.9,M,,*62
$PYRTM,2024,122.753668486701,13.863315896840
$GPGGA,180516.00,3356.7376,N,11943.1125,W,1,09,0.8,14.0,M,-33.9,M,,*6A
$PYRTM,2024,122.753684239699,13.863331649838
$GPGGA,180517.00,3356.7380,N,11943.1096,W,1,09,0.8,14.0,M,-33.9,M,,*6B
$PYRTM,2024,122.753695804062,13.863343214201
$GPGGA,180518.00,3356.7384,N,11943.1067,W,1,09,0.8,14.0,M,-33.9,M,,*6E
$PYRTM,2024,122.753703198067,13.863350608206
$GPGGA,180519.00,3356.7388,N,11943.1039,W,1,09,0.8,14.0,M,-33.9,M,,*68
$PYRTM,2024,122.753718949965,13.863366360104
$GPGGA,180520.00,3356.7392,N,11943.1010,W,1,09,0.8,13.9,M,-33.9,M,,*6C
$PYRTM,2024,122.753730533079,13.863377943218
$GPGGA,180521.00,3356.7395,N,11943.0981,W,1,09,0.8,13.8,M,-33.9,M,,*6B
$PYRTM,2024,122.753742099907,13.863389510046
$GPGGA,180522.00,3356.7398,N,11943.0953,W,1,09,0.8,13.8,M,-33.9,M,,*6A
$PYRTM,2024,122.753753695440,13.863401105579
$GPGGA,180523.00,3356.7402,N,11943.0924,W,1,09,0.8,13.9,M,-33.9,M,,*6E
$PYRTM,2024,122.753765246481,13.863412656620
$GPGGA,180524.00,3356.7406,N,11943.0896,W,1,09,0.8,14.0,M,-33.9,M,,*6B
$PYRTM,2024,122.753776830509,13.863424240648
$GPGGA,180525.00,3356.7410,N,11943.0867,W,1,09,0.8,14.0,M,-33.9,M,,*63
$PYRTM,2024,122.753788391377,13.863435801516
$GPGGA,180526.00,3356.7412,N,11943.0839,W,1,09,0.8,14.1,M,-33.9,M,,*68
$PYRTM,2024,122.753795789850,13.863443199988
$GPGGA,180527.00,3356.7417,N,11943.0810,W,1,09,0.8,14.2,M,-33.9,M,,*64
$PYRTM,2024,122.753807487616,13.863454897755
$GPGGA,180528.00,3356.7422,N,11943.0781,W,1,09,0.8,14.2,M,-33.9,M,,*6A
$PYRTM,2024,122.753823117650,13.863470527801
$GPGGA,180529.00,3356.7426,N,11943.0752,W,1,09,0.8,14.2,M,-33.9,M,,*61
$PYRTM,2024,122.753834692407,13.863482102546
$GPGGA,180530.00,3356.7429,N,11943.0724,W,1,09,0.8,14.2,M,-33.9,M,,*67
$PYRTM,2024,122.753846266516,13.863493676655
$GPGGA,180531.00,3356.7432,N,11943.0695,W,1,09,0.8,14.1,M,-33.9,M,,*64
$PYRTM,2024,122.753857837836,13.863505247986
$GPGGA,180532.00,3356.7436,N,11943.0666,W,1,09,0.8,14.1,M,-33.9,M,,*6F
$PYRTM,2024,122.753865235625,13.863512645764
$GPGGA,180533.00,3356.7440,N,11943.0637,W,1,09,0.8,14.0,M,-33.9,M,,*6A
$PYRTM,2024,122.753883883530,13.863531293681
$GPGGA,180534.00,3356.7443,N,11943.0609,W,1,09,0.8,13.8,M,-33.9,M,,*6C
$PYRTM,2024,122.753892563924,13.863539974063
$GPGGA,180535.00,3356.7446,N,11943.0581,W,1,09,0.8,13.8,M,-33.9,M,,*6B
$PYRTM,2024,122.753904139711,13.863551549850
$GPGGA,180536.00,3356.7449,N,11943.0552,W,1,09,0.8,13.9,M,-33.9,M,,*68
$PYRTM,2024,122.753915719468,13.863563129618
$GPGGA,180537.00,3356.7454,N,11943.0524,W,1,09,0.8,14.0,M,-33.9,M,,*6A
$PYRTM,2024,122.753923112894,13.863570523032
$GPGGA,180538.00,3356.7458,N,11943.0495,W,1,09,0.8,14.1,M,-33.9,M,,*63
$PYRTM,2024,122.753938867396,13.863586277535
$GPGGA,180539.00,3356.7462,N,11943.0466,W,1,09,0.8,14.2,M,-33.9,M,,*64
$PYRTM,2024,122.753946260729,13.863593670868
$GPGGA,180540.00,3356.7465,N,11943.0437,W,1,09,0.8,14.3,M,-33.9,M,,*68
$PYRTM,2024,122.753962016366,13.863609426505
$GPGGA,180541.00,3356.7469,N,11943.0409,W,1,09,0.8,14.3,M,-33.9,M,,*68
$PYRTM,2024,122.753973581968,13.863620992106
$GPGGA,180542.00,3356.7474,N,11943.0380,W,1,09,0.8,14.3,M,-33.9,M,,*61
$PYRTM,2024,122.753985167465,13.863632577604
$GPGGA,180543.00,3356.7479,N,11943.0351,W,1,09,0.8,14.3,M,-33.9,M,,*61
$PYRTM,2024,122.753996725775,13.863644135914
$GPGGA,180544.00,3356.7483,N,11943.0323,W,1,09,0.8,14.2,M,-33.9,M,,*67
$PYRTM,2024,122.754008304734,13.863655714873
$GPGGA,180545.00,3356.7486,N,11943.0294,W,1,09,0.8,14.1,M,-33.9,M,,*6D
$PYRTM,2024,122.754015714525,13.863663124664
$GPGGA,180546.00,3356.7489,N,11943.0266,W,1,09,0.8,14.0,M,-33.9,M,,*6D
$PYRTM,2024,122.754031452593,13.863678862743
$GPGGA,180547.00,3356.7493,N,11943.0238,W,1,09,0.8,14.0,M,-33.9,M,,*6C
$PYRTM,2024,122.754043021644,13.863690431782
$GPGGA,180548.00,3356.7497,N,11943.0209,W,1,09,0.8,14.1,M,-33.9,M,,*64
$PYRTM,2024,122.754054602535,13.863702012674
$GPGGA,180549.00,3356.7500,N,11943.0181,W,1,09,0.8,14.1,M,-33.9,M,,*69
$PYRTM,2024,122.754066175683,13.863713585822
$GPGGA,180550.00,3356.7504,N,11943.0152,W,1,09,0.8,14.1,M,-33.9,M,,*6B
$PYRTM,2024,122.754077748727,13.863725158866
$GPGGA,180551.00,3356.7507,N,11943.0123,W,1,09,0.8,14.1,M,-33.9,M,,*6F
$PYRTM,2024,122.754089324514,13.863736734653
$GPGGA,180552.00,3356.7511,N,11943.0094,W,1,09,0.8,14.2,M,-33.9,M,,*65
$PYRTM,2024,122.754096718924,13.863744129062
$GPGGA,180553.00,3356.7515,N,11943.0065,W,1,09,0.8,14.3,M,-33.9,M,,*6F
$PYRTM,2024,122.754112473171,13.863759883322
$GPGGA,180554.00,3356.7520,N,11943.0037,W,1,09,0.8,14.4,M,-33.9,M,,*6E
$PYRTM,2024,122.754119868206,13.863767278345
$GPGGA,180555.00,3356.7524,N,11943.0008,W,1,09,0.8,14.3,M,-33.9,M,,*60
$PYRTM,2024,122.754135620602,13.863783030741
$GPGGA,180556.00,3356.7528,N,11942.9980,W,1,09,0.8,14.2,M,-33.9,M,,*6F
$PYRTM,2024,122.754147201586,13.863794611725
$GPGGA,180557.00,3356.7531,N,11942.9952,W,1,09,0.8,14.1,M,-33.9,M,,*6A
$PYRTM,2024,122.754158769884,13.863806180023
$GPGGA,180558.00,3356.7535,N,11942.9923,W,1,09,0.8,14.0,M,-33.9,M,,*66
$PYRTM,2024,122.754170343611,13.863817753762
$GPGGA,180559.00,3356.7538,N,11942.9895,W,1,09,0.8,13.9,M,-33.9,M,,*68
$PYRTM,2024,122.754181918819,13.863829328970
$GPGGA,180600.00,3356.7543,N,11942.9866,W,1,09,0.8,14.0,M,-33.9,M,,*69
$PYRTM,2024,122.754193502141,13.863840912280
$GPGGA,180601.00,3356.7547,N,11942.9837,W,1,09,0.8,14.1,M,-33.9,M,,*69
$PYRTM,2024,122.754205064780,13.863852474919
$GPGGA,180602.00,3356.7550,N,11942.9808,W,1,09,0.8,14.2,M,-33.9,M,,*63
$PYRTM,2024,122.754216650093,13.863864060231
$GPGGA,180603.00,3356.7553,N,11942.9779,W,1,09,0.8,14.3,M,-33.9,M,,*69
$PYRTM,2024,122.754224040266,13.863871450405
$GPGGA,180604.00,3356.7556,N,11942.9750,W,1,09,0.8,14.3,M,-33.9,M,,*60
$PYRTM,2024,122.754239798299,13.863887208449
$GPGGA,180605.00,3356.7561,N,11942.9722,W,1,09,0.8,14.4,M,-33.9,M,,*67
$PYRTM,2024,122.754251361701,13.863898771840
$GPGGA,180606.00,3356.7566,N,11942.9693,W,1,09,0.8,14.3,M,-33.9,M,,*6F
$PYRTM,2024,122.754262934965,13.863910345104
$GPGGA,180607.00,3356.7571,N,11942.9664,W,1,09,0.8,14.2,M,-33.9,M,,*61
$PYRTM,2024,122.754274510266,13.863921920405
$GPGGA,180608.00,3356.7574,N,11942.9636,W,1,09,0.8,14.0,M,-33.9,M,,*6E
$PYRTM,2024,122.754281903692,13.863929313831
$GPGGA,180609.00,3356.7577,N,11942.9608,W,1,09,0.8,14.0,M,-33.9,M,,*61
$PYRTM,2024,122.754297659907,13.863945070046
$GPGGA,180610.00,3356.7581,N,11942.9580,W,1,09,0.8,14.0,M,-33.9,M,,*63
$PYRTM,2024,122.754309255822,13.863956665961
$GPGGA,180611.00,3356.7585,N,11942.9551,W,1,09,0.8,14.0,M,-33.9,M,,*6A
$PYRTM,2024,122.754320806505,13.863968216644
$GPGGA,180612.00,3356.7589,N,11942.9522,W,1,09,0.8,14.0,M,-33.9,M,,*61
$PYRTM,2024,122.754332387882,13.863979798021
$GPGGA,180613.00,3356.7592,N,11942.9493,W,1,09,0.8,14.2,M,-33.9,M,,*63
$PYRTM,2024,122.754343954549,13.863991364699
$GPGGA,180614.00,3356.7596,N,11942.9464,W,1,09,0.8,14.3,M,-33.9,M,,*69
$PYRTM,2024,122.754351348588,13.863998758727
$GPGGA,180615.00,3356.7600,N,11942.9435,W,1,09,0.8,14.4,M,-33.9,M,,*67
$PYRTM,2024,122.754367103472,13.864014513611
$GPGGA,180616.00,3356.7605,N,11942.9406,W,1,09,0.8,14.3,M,-33.9,M,,*66
$PYRTM,2024,122.754378676991,13.864026087130
$GPGGA,180617.00,3356.7608,N,11942.9377,W,1,09,0.8,14.2,M,-33.9,M,,*6A
$PYRTM,2024,122.754386079317,13.864033489456
$GPGGA,180618.00,3356.7612,N,11942.9349,W,1,09,0.8,14.2,M,-33.9,M,,*63
$PYRTM,2024,122.754401824873,13.864049235023
$GPGGA,180619.00,3356.7617,N,11942.9321,W,1,09,0.8,14.1,M,-33.9,M,,*6A
$PYRTM,2024,122.754413399699,13.864060809838
$GPGGA,180620.00,3356.7621,N,11942.9292,W,1,09,0.8,14.0,M,-33.9,M,,*6D
$PYRTM,2024,122.754424984711,13.864072394861
$GPGGA,180621.00,3356.7623,N,11942.9264,W,1,09,0.8,13.9,M,-33.9,M,,*69
$PYRTM,2024,122.754436547465,13.864083957604
$GPGGA,180622.00,3356.7626,N,11942.9235,W,1,09,0.8,14.0,M,-33.9,M,,*65
$PYRTM,2024,122.754448121863,13.864095532002
$GPGGA,180623.00,3356.7630,N,11942.9207,W,1,09,0.8,14.1,M,-33.9,M,,*63
$PYRTM,2024,122.754459695822,13.864107105961
$GPGGA,180624.00,3356.7634,N,11942.9177,W,1,09,0.8,14.1,M,-33.9,M,,*64
$PYRTM,2024,122.754471277234,13.864118687373
$GPGGA,180625.00,3356.7638,N,11942.9149,W,1,09,0.8,14.2,M,-33.9,M,,*67
$PYRTM,2024,122.754482845382,13.864130255521
$GPGGA,180626.00,3356.7642,N,11942.9120,W,1,09,0.8,14.3,M,-33.9,M,,*67
$PYRTM,2024,122.754494426690,13.864141836829
$GPGGA,180627.00,3356.7645,N,11942.9092,W,1,09,0.8,14.3,M,-33.9,M,,*69
$PYRTM,2024,122.754501818924,13.864149229074
$GPGGA,180628.00,3356.7648,N,11942.9063,W,1,09,0.8,14.2,M,-33.9,M,,*64
$PYRTM,2024,122.754517573715,13.864164983854
$GPGGA,180629.00,3356.7652,N,11942.9035,W,1,09,0.8,14.0,M,-33.9,M,,*6F
$PYRTM,2024,122.754529141100,13.864176551238
$GPGGA,180630.00,3356.7657,N,11942.9006,W,1,09,0.8,14.0,M,-33.9,M,,*62
$PYRTM,2024,122.754540726053,13.864188136192
$GPGGA,180631.00,3356.7660,N,11942.8978,W,1,09,0.8,14.0,M,-33.9,M,,*66
$PYRTM,2024,122.754552287789,13.864199697928
$GPGGA,180632.00,3356.7663,N,11942.8949,W,1,09,0.8,14.0,M,-33.9,M,,*64
$PYRTM,2024,122.754563862720,13.864211272859
$GPGGA,180633.00,3356.7665,N,11942.8920,W,1,09,0.8,14.1,M,-33.9,M,,*6D
$PYRTM,2024,122.754575437315,13.864222847454
$GPGGA,180634.00,3356.7668,N,11942.8891,W,1,09,0.8,14.1,M,-33.9,M,,*6C
$PYRTM,2024,122.754582833218,13.864230243368
$GPGGA,180635.00,3356.7673,N,11942.8862,W,1,09,0.8,14.1,M,-33.9,M,,*6B
$PYRTM,2024,122.754598584884,13.864245995023
$GPGGA,180636.00,3356.7677,N,11942.8834,W,1,09,0.8,14.1,M,-33.9,M,,*6F
$PYRTM,2024,122.754610170440,13.864257580579
$GPGGA,180637.00,3356.7681,N,11942.8805,W,1,09,0.8,14.1,M,-33.9,M,,*65
$PYRTM,2024,122.754617565787,13.864264975926
$GPGGA,180638.00,3356.7684,N,11942.8776,W,1,09,0.8,14.0,M,-33.9,M,,*65
$PYRTM,2024,122.754633307928,13.864280718067
$GPGGA,180639.00,3356.7688,N,11942.8747,W,1,09,0.8,14.0,M,-33.9,M,,*6A
$PYRTM,2024,122.754640715347,13.864288125486
$GPGGA,180640.00,3356.7692,N,11942.8719,W,1,09,0.8,13.9,M,-33.9,M,,*6A
$PYRTM,2024,122.754652747882,13.864300158021
$GPGGA,180641.00,3356.7696,N,11942.8690,W,1,09,0.8,13.9,M,-33.9,M,,*6F
$PYRTM,2024,122.754668030185,13.864315440324
$GPGGA,180642.00,3356.7700,N,11942.8662,W,1,09,0.8,13.9,M,-33.9,M,,*6F
$PYRTM,2024,122.754679611667,13.864327021806
$GPGGA,180643.00,3356.7703,N,11942.8633,W,1,09,0.8,14.0,M,-33.9,M,,*67
$PYRTM,2024,122.754691178831,13.864338588970
$GPGGA,180644.00,3356.7707,N,11942.8605,W,1,09,0.8,14.0,M,-33.9,M,,*61
$PYRTM,2024,122.754702759954,13.864350170093
$GPGGA,180645.00,3356.7711,N,11942.8576,W,1,09,0.8,13.9,M,-33.9,M,,*6E
$PYRTM,2024,122.754714325775,13.864361735914
$GPGGA,180646.00,3356.7715,N,11942.8547,W,1,09,0.8,13.9,M,-33.9,M,,*6B
$PYRTM,2024,122.754725910347,13.864373320486
$GPGGA,180647.00,3356.7719,N,11942.8519,W,1,09,0.8,14.0,M,-33.9,M,,*63
$PYRTM,2024,122.754737475694,13.864384885833
$GPGGA,180648.00,3356.7722,N,11942.8489,W,1,09,0.8,13.9,M,-33.9,M,,*62
$PYRTM,2024,122.754749059259,13.864396469387
$GPGGA,180649.00,3356.7726,N,11942.8460,W,1,09,0.8,13.9,M,-33.9,M,,*60
$PYRTM,2024,122.754760621991,13.864408032130
$GPGGA,180650.00,3356.7729,N,11942.8431,W,1,09,0.8,13.9,M,-33.9,M,,*63
$PYRTM,2024,122.754767913889,13.864415324028
$GPGGA,180651.00,3356.7734,N,11942.8403,W,1,09,0.8,14.0,M,-33.9,M,,*61
$PYRTM,2024,122.754779705370,13.864427115509
$GPGGA,180652.00,3356.7738,N,11942.8374,W,1,09,0.8,14.0,M,-33.9,M,,*69
$PYRTM,2024,122.754795355417,13.864442765556
$GPGGA,180653.00,3356.7741,N,11942.8345,W,1,09,0.8,14.0,M,-33.9,M,,*64
$PYRTM,2024,122.754806920127,13.864454330266
$GPGGA,180654.00,3356.7745,N,11942.8316,W,1,09,0.8,13.9,M,-33.9,M,,*6F
$PYRTM,2024,122.754818493310,13.864465903449
$GPGGA,180655.00,3356.7748,N,11942.8288,W,1,09,0.8,13.8,M,-33.9,M,,*64
$PYRTM,2024,122.754830067292,13.864477477431
$GPGGA,180656.00,3356.7752,N,11942.8259,W,1,09,0.8,13.9,M,-33.9,M,,*61
$PYRTM,2024,122.754837373877,13.864484784016
$GPGGA,180657.00,3356.7757,N,11942.8230,W,1,09,0.8,13.9,M,-33.9,M,,*6A
$PYRTM,2024,122.754853216331,13.864500626470
$GPGGA,180658.00,3356.7761,N,11942.8201,W,1,09,0.8,13.9,M,-33.9,M,,*62
$PYRTM,2024,122.754864817604,13.864512227743
$GPGGA,180659.00,3356.7764,N,11942.8172,W,1,09,0.8,14.0,M,-33.9,M,,*6F
$PYRTM,2024,122.754876359815,13.864523769965
$GPGGA,180700.00,3356.7767,N,11942.8143,W,1,09,0.8,14.0,M,-33.9,M,,*63
$PYRTM,2024,122.754887947558,13.864535357697
$GPGGA,180701.00,3356.7770,N,11942.8114,W,1,09,0.8,14.0,M,-33.9,M,,*66
$PYRTM,2024,122.754899513079,13.864546923218
$GPGGA,180702.00,3356.7775,N,11942.8085,W,1,09,0.8,13.8,M,-33.9,M,,*66
$PYRTM,2024,122.754911086574,13.864558496713
$GPGGA,180703.00,3356.7778,N,11942.8057,W,1,09,0.8,13.6,M,-33.9,M,,*6B
$PYRTM,2024,122.754922662558,13.864570072697
$GPGGA,180704.00,3356.7782,N,11942.8028,W,1,09,0.8,13.6,M,-33.9,M,,*61
$PYRTM,2024,122.754930057882,13.864577468021
$GPGGA,180705.00,3356.7785,N,11942.7999,W,1,09,0.8,13.6,M,-33.9,M,,*6B
$PYRTM,2024,122.754941753356,13.864589163495
$GPGGA,180706.00,3356.7788,N,11942.7971,W,1,09,0.8,13.6,M,-33.9,M,,*63
$PYRTM,2024,122.754957382801,13.864604792940
$GPGGA,180707.00,3356.7791,N,11942.7942,W,1,09,0.8,13.6,M,-33.9,M,,*6A
$PYRTM,2024,122.754968957627,13.864616367766
$GPGGA,180708.00,3356.7795,N,11942.7913,W,1,09,0.8,13.8,M,-33.9,M,,*6B
$PYRTM,2024,122.754980532060,13.864627942211
$GPGGA,180709.00,3356.7799,N,11942.7884,W,1,09,0.8,13.8,M,-33.9,M,,*69
$PYRTM,2024,122.754992106736,13.864639516875
$GPGGA,180710.00,3356.7803,N,11942.7855,W,1,09,0.8,13.9,M,-33.9,M,,*60
$PYRTM,2024,122.754999412917,13.864646823067
$GPGGA,180711.00,3356.7807,N,11942.7825,W,1,09,0.8,14.0,M,-33.9,M,,*6C
$PYRTM,2024,122.755011543808,13.864658953947
$GPGGA,180712.00,3356.7811,N,11942.7796,W,1,09,0.8,14.0,M,-33.9,M,,*6F
$PYRTM,2024,122.755026836123,13.864674246262
$GPGGA,180713.00,3356.7814,N,11942.7768,W,1,09,0.8,14.0,M,-33.9,M,,*6A
$PYRTM,2024,122.755038402894,13.864685813044
$GPGGA,180714.00,3356.7818,N,11942.7739,W,1,09,0.8,13.8,M,-33.9,M,,*6A
$PYRTM,2024,122.755049984294,13.864697394433
$GPGGA,180715.00,3356.7822,N,11942.7710,W,1,09,0.8,13.7,M,-33.9,M,,*66
$PYRTM,2024,122.755061550810,13.864708960949
$GPGGA,180716.00,3356.7826,N,11942.7682,W,1,09,0.8,13.7,M,-33.9,M,,*6B
$PYRTM,2024,122.755073132384,13.864720542523
$GPGGA,180717.00,3356.7829,N,11942.7653,W,1,09,0.8,13.7,M,-33.9,M,,*69
$PYRTM,2024,122.755084699271,13.864732109410
$GPGGA,180718.00,3356.7832,N,11942.7624,W,1,09,0.8,13.7,M,-33.9,M,,*6C
$PYRTM,2024,122.755096273912,13.864743684051
$GPGGA,180719.00,3356.7836,N,11942.7595,W,1,09,0.8,13.8,M,-33.9,M,,*6F
$PYRTM,2024,122.755103682025,13.864751092164
$GPGGA,180720.00,3356.7840,N,11942.7565,W,1,09,0.8,13.8,M,-33.9,M,,*6B
$PYRTM,2024,122.755119433368,13.864766843507
$GPGGA,180721.00,3356.7843,N,11942.7536,W,1,09,0.8,13.8,M,-33.9,M,,*6F
$PYRTM,2024,122.755130991088,13.864778401238
$GPGGA,180722.00,3356.7846,N,11942.7507,W,1,09,0.8,13.8,M,-33.9,M,,*6B
$PYRTM,2024,122.755142568426,13.864789978565
$GPGGA,180723.00,3356.7850,N,11942.7478,W,1,09,0.8,13.8,M,-33.9,M,,*64
$PYRTM,2024,122.755154143646,13.864801553785
$GPGGA,180724.00,3356.7854,N,11942.7450,W,1,09,0.8,13.7,M,-33.9,M,,*62
$PYRTM,2024,122.755165717639,13.864813127778
$GPGGA,180725.00,3356.7858,N,11942.7421,W,1,09,0.8,13.5,M,-33.9,M,,*6B
$PYRTM,2024,122.755177292373,13.864824702523
$GPGGA,180726.00,3356.7861,N,11942.7393,W,1,09,0.8,13.4,M,-33.9,M,,*6D
$PYRTM,2024,122.755188876794,13.864836286933
$GPGGA,180727.00,3356.7865,N,11942.7365,W,1,09,0.8,13.3,M,-33.9,M,,*66
$PYRTM,2024,122.755200440185,13.864847850336
$GPGGA,180728.00,3356.7867,N,11942.7336,W,1,09,0.8,13.3,M,-33.9,M,,*6D
$PYRTM,2024,122.755212021956,13.864859432095
$GPGGA,180729.00,3356.7871,N,11942.7307,W,1,09,0.8,13.5,M,-33.9,M,,*6F
$PYRTM,2024,122.755219415498,13.864866825637
$GPGGA,180730.00,3356.7875,N,11942.7277,W,1,09,0.8,13.7,M,-33.9,M,,*67
$PYRTM,2024,122.755235188009,13.864882598148
$GPGGA,180731.00,3356.7879,N,11942.7248,W,1,09,0.8,13.9,M,-33.9,M,,*68
$PYRTM,2024,122.755246732662,13.864894142801
$GPGGA,180732.00,3356.7883,N,11942.7218,W,1,09,0.8,14.0,M,-33.9,M,,*65
$PYRTM,2024,122.755258319039,13.864905729178
$GPGGA,180733.00,3356.7887,N,11942.7189,W,1,09,0.8,14.0,M,-33.9,M,,*6B
$PYRTM,2024,122.755269881956,13.864917292106
$GPGGA,180734.00,3356.7891,N,11942.7159,W,1,09,0.8,14.0,M,-33.9,M,,*66
$PYRTM,2024,122.755281458819,13.864928868958
$GPGGA,180735.00,3356.7896,N,11942.7130,W,1,09,0.8,13.9,M,-33.9,M,,*61
$PYRTM,2024,122.755293033773,13.864940443912
$GPGGA,180736.00,3356.7900,N,11942.7102,W,1,09,0.8,13.8,M,-33.9,M,,*6C
$PYRTM,2024,122.755300326238,13.864947736377
$GPGGA,180737.00,3356.7904,N,11942.7074,W,1,09,0.8,13.7,M,-33.9,M,,*66
$PYRTM,2024,122.755319075706,13.864966485845
$GPGGA,180738.00,3356.7908,N,11942.7045,W,1,09,0.8,13.5,M,-33.9,M,,*65
$PYRTM,2024,122.755327755417,13.864975165556
$GPGGA,180739.00,3356.7911,N,11942.7017,W,1,09,0.8,13.3,M,-33.9,M,,*6D
$PYRTM,2024,122.755335035093,13.864982445231
$GPGGA,180740.00,3356.7914,N,11942.6989,W,1,09,0.8,13.3,M,-33.9,M,,*69
$PYRTM,2024,122.755350904016,13.864998314155
$GPGGA,180741.00,3356.7917,N,11942.6960,W,1,09,0.8,13.3,M,-33.9,M,,*6C
$PYRTM,2024,122.755362473611,13.865009883762
$GPGGA,180742.00,3356.7920,N,11942.6931,W,1,09,0.8,13.3,M,-33.9,M,,*6F
$PYRTM,2024,122.755369774271,13.865017184410
$GPGGA,180743.00,3356.7924,N,11942.6902,W,1,09,0.8,13.4,M,-33.9,M,,*6D
$PYRTM,2024,122.755385629861,13.865033040000
$GPGGA,180744.00,3356.7927,N,11942.6873,W,1,09,0.8,13.5,M,-33.9,M,,*6F
$PYRTM,2024,122.755397209294,13.865044619433
$GPGGA,180745.00,3356.7931,N,11942.6845,W,1,09,0.8,13.7,M,-33.9,M,,*6E
$PYRTM,2024,122.755404479387,13.865051889537
$GPGGA,180746.00,3356.7935,N,11942.6816,W,1,09,0.8,13.7,M,-33.9,M,,*6F
$PYRTM,2024,122.755420356227,13.865067766366
$GPGGA,180747.00,3356.7939,N,11942.6787,W,1,09,0.8,13.7,M,-33.9,M,,*65
$PYRTM,2024,122.755431923310,13.865079333461
$GPGGA,180748.00,3356.7942,N,11942.6758,W,1,09,0.8,13.6,M,-33.9,M,,*65
$PYRTM,2024,122.755443504387,13.865090914525
$GPGGA,180749.00,3356.7946,N,11942.6729,W,1,09,0.8,13.5,M,-33.9,M,,*65
$PYRTM,2024,122.755455072037,13.865102482176
$GPGGA,180750.00,3356.7949,N,11942.6699,W,1,09,0.8,13.5,M,-33.9,M,,*68
$PYRTM,2024,122.755466645463,13.865114055602
$GPGGA,180751.00,3356.7952,N,11942.6670,W,1,09,0.8,13.6,M,-33.9,M,,*67
$PYRTM,2024,122.755478219502,13.865125629641
$GPGGA,180752.00,3356.7956,N,11942.6641,W,1,09,0.8,13.7,M,-33.9,M,,*63
$PYRTM,2024,122.755489792801,13.865137202940
$GPGGA,180753.00,3356.7960,N,11942.6612,W,1,09,0.8,13.7,M,-33.9,M,,*61
$PYRTM,2024,122.755501368472,13.865148778611
$GPGGA,180754.00,3356.7963,N,11942.6583,W,1,09,0.8,13.6,M,-33.9,M,,*6F
$PYRTM,2024,122.755512941736,13.865160351875
$GPGGA,180755.00,3356.7967,N,11942.6554,W,1,09,0.8,13.5,M,-33.9,M,,*63
$PYRTM,2024,122.755524511366,13.865171921505
$GPGGA,180756.00,3356.7971,N,11942.6526,W,1,09,0.8,13.4,M,-33.9,M,,*63
$PYRTM,2024,122.755536090509,13.865183500660
$GPGGA,180757.00,3356.7975,N,11942.6498,W,1,09,0.8,13.3,M,-33.9,M,,*65
$PYRTM,2024,122.755543368889,13.865190779028
$GPGGA,180758.00,3356.7978,N,11942.6469,W,1,09,0.8,13.3,M,-33.9,M,,*69
$PYRTM,2024,122.755559238090,13.865206648229
$GPGGA,180759.00,3356.7981,N,11942.6441,W,1,09,0.8,13.3,M,-33.9,M,,*64
$PYRTM,2024,122.755570812847,13.865218222986
$GPGGA,180800.00,3356.7984,N,11942.6411,W,1,09,0.8,13.2,M,-33.9,M,,*66
$PYRTM,2024,122.755578106412,13.865225516551
$GPGGA,180801.00,3356.7988,N,11942.6382,W,1,09,0.8,13.2,M,-33.9,M,,*66
$PYRTM,2024,122.755593961204,13.865241371343
$GPGGA,180802.00,3356.7990,N,11942.6353,W,1,09,0.8,13.3,M,-33.9,M,,*61
$PYRTM,2024,122.755605557569,13.865252967708
$GPGGA,180803.00,3356.7995,N,11942.6324,W,1,09,0.8,13.4,M,-33.9,M,,*62
$PYRTM,2024,122.755617109039,13.865264519178
$GPGGA,180804.00,3356.7999,N,11942.6296,W,1,09,0.8,13.5,M,-33.9,M,,*60
$PYRTM,2024,122.755628704016,13.865276114167
$GPGGA,180805.00,3356.8003,N,11942.6267,W,1,09,0.8,13.4,M,-33.9,M,,*6B
$PYRTM,2024,122.755640258310,13.865287668449
$GPGGA,180806.00,3356.8006,N,11942.6239,W,1,09,0.8,13.5,M,-33.9,M,,*67
$PYRTM,2024,122.755651831736,13.865299241875
$GPGGA,180807.00,3356.8009,N,11942.6210,W,1,09,0.8,13.5,M,-33.9,M,,*62
$PYRTM,2024,122.755659110799,13.865306520938
$GPGGA,180808.00,3356.8013,N,11942.6181,W,1,09,0.8,13.5,M,-33.9,M,,*6D
$PYRTM,2024,122.755674991100,13.865322401238
$GPGGA,180809.00,3356.8018,N,11942.6152,W,1,09,0.8,13.5,M,-33.9,M,,*69
$PYRTM,2024,122.755686555231,13.865333965370
$GPGGA,180810.00,3356.8023,N,11942.6123,W,1,09,0.8,13.6,M,-33.9,M,,*6C
$PYRTM,2024,122.755698128449,13.865345538588
$GPGGA,180811.00,3356.8026,N,11942.6094,W,1,09,0.8,13.6,M,-33.9,M,,*65
$PYRTM,2024,122.755709704676,13.865357114815
$GPGGA,180812.00,3356.8029,N,11942.6064,W,1,09,0.8,13.6,M,-33.9,M,,*66
$PYRTM,2024,122.755721287512,13.865368697650
$GPGGA,180813.00,3356.8032,N,11942.6034,W,1,09,0.8,13.5,M,-33.9,M,,*6B
$PYRTM,2024,122.755728554641,13.865375964780
$GPGGA,180814.00,3356.8037,N,11942.6005,W,1,09,0.8,13.5,M,-33.9,M,,*6B
$PYRTM,2024,122.755744424016,13.865391834155
$GPGGA,180815.00,3356.8042,N,11942.5976,W,1,09,0.8,13.4,M,-33.9,M,,*67
$PYRTM,2024,122.755755998831,13.865403408981
$GPGGA,180816.00,3356.8045,N,11942.5948,W,1,09,0.8,13.3,M,-33.9,M,,*69
$PYRTM,2024,122.755767580961,13.865414991100
$GPGGA,180817.00,3356.8048,N,11942.5919,W,1,09,0.8,13.1,M,-33.9,M,,*63
$PYRTM,2024,122.755774853889,13.865422264028
$GPGGA,180818.00,3356.8051,N,11942.5891,W,1,09,0.8,13.0,M,-33.9,M,,*64
$PYRTM,2024,122.755790729062,13.865438139201
$GPGGA,180819.00,3356.8056,N,11942.5863,W,1,09,0.8,13.0,M,-33.9,M,,*6F
$PYRTM,2024,122.755802295729,13.865449705868
$GPGGA,180820.00,3356.8060,N,11942.5834,W,1,09,0.8,13.1,M,-33.9,M,,*63
$PYRTM,2024,122.755813895625,13.865461305775
$GPGGA,180821.00,3356.8063,N,11942.5805,W,1,09,0.8,13.3,M,-33.9,M,,*61
$PYRTM,2024,122.755825445231,13.865472855382
$GPGGA,180822.00,3356.8066,N,11942.5776,W,1,09,0.8,13.5,M,-33.9,M,,*6A
$PYRTM,2024,122.755837017512,13.865484427650
$GPGGA,180823.00,3356.8069,N,11942.5746,W,1,09,0.8,13.6,M,-33.9,M,,*64
$PYRTM,2024,122.755848591794,13.865496001944
$GPGGA,180824.00,3356.8074,N,11942.5716,W,1,09,0.8,13.7,M,-33.9,M,,*6B
$PYRTM,2024,122.755860175856,13.865507585995
$GPGGA,180825.00,3356.8078,N,11942.5687,W,1,09,0.8,13.6,M,-33.9,M,,*6E
$PYRTM,2024,122.755871742824,13.865519152963
$GPGGA,180826.00,3356.8083,N,11942.5659,W,1,09,0.8,13.6,M,-33.9,M,,*6A
$PYRTM,2024,122.755883307523,13.865530717662
$GPGGA,180827.00,3356.8087,N,11942.5629,W,1,09,0.8,13.5,M,-33.9,M,,*6B
$PYRTM,2024,122.755894895463,13.865542305602
$GPGGA,180828.00,3356.8090,N,11942.5601,W,1,09,0.8,13.4,M,-33.9,M,,*69
$PYRTM,2024,122.755906456146,13.865553866285
$GPGGA,180829.00,3356.8094,N,11942.5572,W,1,09,0.8,13.3,M,-33.9,M,,*6C
$PYRTM,2024,122.755913742917,13.865561153056
$GPGGA,180830.00,3356.8098,N,11942.5544,W,1,09,0.8,13.3,M,-33.9,M,,*6D
$PYRTM,2024,122.755929607801,13.865577017951
$GPGGA,180831.00,3356.8101,N,11942.5515,W,1,09,0.8,13.3,M,-33.9,M,,*69
$PYRTM,2024,122.755941184236,13.865588594375
$GPGGA,180832.00,3356.8105,N,11942.5486,W,1,09,0.8,13.3,M,-33.9,M,,*65
$PYRTM,2024,122.755952747940,13.865600158079
$GPGGA,180833.00,3356.8109,N,11942.5456,W,1,09,0.8,13.4,M,-33.9,M,,*62
$PYRTM,2024,122.755964342118,13.865611752257
$GPGGA,180834.00,3356.8112,N,11942.5426,W,1,09,0.8,13.5,M,-33.9,M,,*69
$PYRTM,2024,122.755971625093,13.865619035231
$GPGGA,180835.00,3356.8116,N,11942.5397,W,1,09,0.8,13.5,M,-33.9,M,,*61
