$PYRTM,2024,123.500015507905,14.609662918044
$GPGGA,120000.00,3416.3007,N,12039.1130,W,1,12,0.8,13.6,M,-33.8,M,,*69
$PYRTM,2024,123.500027069850,14.609674479988
$GPGGA,120001.00,3416.3011,N,12039.1141,W,1,12,0.8,13.2,M,-33.8,M,,*6D
$PYRTM,2024,123.500038657234,14.609686067373
$GPGGA,120002.00,3416.3017,N,12039.1152,W,1,12,0.8,13.6,M,-33.8,M,,*6E
$PYRTM,2024,123.500050217512,14.609697627650
$GPGGA,120003.00,3416.3022,N,12039.1167,W,1,12,0.8,14.0,M,-33.8,M,,*6E
$PYRTM,2024,123.500061805081,14.609709215220
$GPGGA,120004.00,3416.3024,N,12039.1186,W,1,12,0.8,14.2,M,-33.8,M,,*62
$PYRTM,2024,123.500073366134,14.609720776273
$GPGGA,120005.00,3416.3026,N,12039.1203,W,1,12,0.8,14.4,M,-33.8,M,,*69
$PYRTM,2024,123.500084956620,14.609732366759
$GPGGA,120006.00,3416.3029,N,12039.1214,W,1,12,0.8,15.2,M,-33.8,M,,*64
$PYRTM,2024,123.500096515544,14.609743925683
$GPGGA,120007.00,3416.3034,N,12039.1223,W,1,12,0.8,15.7,M,-33.8,M,,*68
$PYRTM,2024,123.500103921528,14.609751331678
$GPGGA,120008.00,3416.3040,N,12039.1238,W,1,12,0.8,15.1,M,-33.8,M,,*68
$PYRTM,2024,123.500122579838,14.609769989977
$GPGGA,120009.00,3416.3046,N,12039.1256,W,1,12,0.8,13.3,M,-33.8,M,,*63
$PYRTM,2024,123.500131263900,14.609778674039
$GPGGA,120010.00,3416.3049,N,12039.1273,W,1,12,0.8,12.1,M,-33.8,M,,*60
$PYRTM,2024,123.500142812824,14.609790222963
$GPGGA,120011.00,3416.3051,N,12039.1286,W,1,12,0.8,12.4,M,-33.8,M,,*67
$PYRTM,2024,123.500154398438,14.609801808588
$GPGGA,120012.00,3416.3053,N,12039.1300,W,1,12,0.8,13.3,M,-33.8,M,,*6F
$PYRTM,2024,123.500165959850,14.609813369988
$GPGGA,120013.00,3416.3060,N,12039.1315,W,1,12,0.8,13.8,M,-33.8,M,,*61
$PYRTM,2024,123.500173366516,14.609820776655
$GPGGA,120014.00,3416.3066,N,12039.1332,W,1,12,0.8,13.8,M,-33.8,M,,*65
$PYRTM,2024,123.500189108137,14.609836518275
$GPGGA,120015.00,3416.3070,N,12039.1349,W,1,12,0.8,13.5,M,-33.8,M,,*62
$PYRTM,2024,123.500200694745,14.609848104884
$GPGGA,120016.00,3416.3072,N,12039.1365,W,1,12,0.8,13.1,M,-33.8,M,,*69
$PYRTM,2024,123.500212257245,14.609859667384
$GPGGA,120017.00,3416.3077,N,12039.1378,W,1,12,0.8,13.1,M,-33.8,M,,*61
$PYRTM,2024,123.500223843484,14.609871253634
$GPGGA,120018.00,3416.3084,N,12039.1390,W,1,12,0.8,13.2,M,-33.8,M,,*67
$PYRTM,2024,123.500235406250,14.609882816389
$GPGGA,120019.00,3416.3091,N,12039.1407,W,1,12,0.8,12.8,M,-33.8,M,,*60
$PYRTM,2024,123.500246996632,14.609894406771
$GPGGA,120020.00,3416.3095,N,12039.1425,W,1,12,0.8,12.6,M,-33.8,M,,*60
$PYRTM,2024,123.500258553576,14.609905963715
$GPGGA,120021.00,3416.3096,N,12039.1443,W,1,12,0.8,12.9,M,-33.8,M,,*6D
$PYRTM,2024,123.500270154873,14.609917565012
$GPGGA,120022.00,3416.3101,N,12039.1459,W,1,12,0.8,13.2,M,-33.8,M,,*60
$PYRTM,2024,123.500277534549,14.609924944687
$GPGGA,120023.00,3416.3109,N,12039.1470,W,1,12,0.8,13.5,M,-33.8,M,,*65
$PYRTM,2024,123.500293289479,14.609940699618
$GPGGA,120024.00,3416.3114,N,12039.1480,W,1,12,0.8,14.3,M,-33.8,M,,*60
$PYRTM,2024,123.500304849201,14.609952259340
$GPGGA,120025.00,3416.3116,N,12039.1494,W,1,12,0.8,14.7,M,-33.8,M,,*62
$PYRTM,2024,123.500312256470,14.609959666609
$GPGGA,120026.00,3416.3118,N,12039.1515,W,1,12,0.8,13.8,M,-33.8,M,,*6F
$PYRTM,2024,123.500323949329,14.609971359468
$GPGGA,120027.00,3416.3122,N,12039.1535,W,1,12,0.8,12.6,M,-33.8,M,,*6A
$PYRTM,2024,123.500339587894,14.609986998044
$GPGGA,120028.00,3416.3128,N,12039.1547,W,1,12,0.8,12.5,M,-33.8,M,,*69
$PYRTM,2024,123.500351148009,14.609998558148
$GPGGA,120029.00,3416.3134,N,12039.1555,W,1,12,0.8,13.4,M,-33.8,M,,*66
$PYRTM,2024,123.500362733021,14.610010143148
$GPGGA,120030.00,3416.3141,N,12039.1570,W,1,12,0.8,13.9,M,-33.8,M,,*66
$PYRTM,2024,123.500374294583,14.610021704722
$GPGGA,120031.00,3416.3144,N,12039.1591,W,1,12,0.8,13.6,M,-33.8,M,,*62
$PYRTM,2024,123.500385882002,14.610033292141
$GPGGA,120032.00,3416.3144,N,12039.1607,W,1,12,0.8,13.5,M,-33.8,M,,*6E
$PYRTM,2024,123.500393276678,14.610040686817
$GPGGA,120033.00,3416.3147,N,12039.1614,W,1,12,0.8,14.1,M,-33.8,M,,*6D
$PYRTM,2024,123.500409030185,14.610056440324
$GPGGA,120034.00,3416.3155,N,12039.1623,W,1,12,0.8,14.0,M,-33.8,M,,*6C
$PYRTM,2024,123.500416425845,14.610063835984
$GPGGA,120035.00,3416.3163,N,12039.1638,W,1,12,0.8,12.8,M,-33.8,M,,*6C
$PYRTM,2024,123.500432192245,14.610079602384
$GPGGA,120036.00,3416.3167,N,12039.1655,W,1,12,0.8,11.8,M,-33.8,M,,*63
$PYRTM,2024,123.500443740093,14.610091150231
$GPGGA,120037.00,3416.3167,N,12039.1668,W,1,12,0.8,12.0,M,-33.8,M,,*67
$PYRTM,2024,123.500451147384,14.610098557523
$GPGGA,120038.00,3416.3171,N,12039.1678,W,1,12,0.8,13.0,M,-33.8,M,,*6F
$PYRTM,2024,123.500462837558,14.610110247697
$GPGGA,120039.00,3416.3176,N,12039.1690,W,1,12,0.8,13.7,M,-33.8,M,,*68
$PYRTM,2024,123.500481370197,14.610128780336
$GPGGA,120040.00,3416.3183,N,12039.1705,W,1,12,0.8,13.4,M,-33.8,M,,*62
$PYRTM,2024,123.500490037616,14.610137447755
$GPGGA,120041.00,3416.3187,N,12039.1721,W,1,12,0.8,12.3,M,-33.8,M,,*67
$PYRTM,2024,123.500501624931,14.610149035069
$GPGGA,120042.00,3416.3191,N,12039.1734,W,1,12,0.8,11.6,M,-33.8,M,,*61
$PYRTM,2024,123.500509021100,14.610156431238
$GPGGA,120043.00,3416.3194,N,12039.1745,W,1,12,0.8,11.8,M,-33.8,M,,*6D
$PYRTM,2024,123.500524772674,14.610172182812
$GPGGA,120044.00,3416.3199,N,12039.1757,W,1,12,0.8,12.3,M,-33.8,M,,*6C
$PYRTM,2024,123.500536332581,14.610183742720
$GPGGA,120045.00,3416.3204,N,12039.1773,W,1,12,0.8,12.8,M,-33.8,M,,*67
$PYRTM,2024,123.500547919896,14.610195330035
$GPGGA,120046.00,3416.3208,N,12039.1786,W,1,12,0.8,13.5,M,-33.8,M,,*6E
$PYRTM,2024,123.500559482095,14.610206892234
$GPGGA,120047.00,3416.3213,N,12039.1796,W,1,12,0.8,14.2,M,-33.8,M,,*64
$PYRTM,2024,123.500571071331,14.610218481470
$GPGGA,120048.00,3416.3220,N,12039.1810,W,1,12,0.8,13.9,M,-33.8,M,,*66
$PYRTM,2024,123.500582628634,14.610230038773
$GPGGA,120049.00,3416.3226,N,12039.1827,W,1,12,0.8,12.7,M,-33.8,M,,*6A
$PYRTM,2024,123.500590037118,14.610237447257
$GPGGA,120050.00,3416.3229,N,12039.1842,W,1,12,0.8,12.0,M,-33.8,M,,*69
$PYRTM,2024,123.500605778426,14.610253188565
$GPGGA,120051.00,3416.3232,N,12039.1852,W,1,12,0.8,12.4,M,-33.8,M,,*67
$PYRTM,2024,123.500617368137,14.610264778275
$GPGGA,120052.00,3416.3237,N,12039.1863,W,1,12,0.8,13.1,M,-33.8,M,,*67
$PYRTM,2024,123.500624775637,14.610272185775
$GPGGA,120053.00,3416.3244,N,12039.1881,W,1,12,0.8,13.0,M,-33.8,M,,*6F
$PYRTM,2024,123.500640513611,14.610287923750
$GPGGA,120054.00,3416.3248,N,12039.1896,W,1,12,0.8,12.6,M,-33.8,M,,*65
$PYRTM,2024,123.500647924132,14.610295334271
$GPGGA,120055.00,3416.3248,N,12039.1907,W,1,12,0.8,13.1,M,-33.8,M,,*6B
$PYRTM,2024,123.500663662384,14.610311072523
$GPGGA,120056.00,3416.3250,N,12039.1920,W,1,12,0.8,13.4,M,-33.8,M,,*61
$PYRTM,2024,123.500675224745,14.610322634884
$GPGGA,120057.00,3416.3256,N,12039.1936,W,1,12,0.8,12.6,M,-33.8,M,,*62
$PYRTM,2024,123.500686810440,14.610334220579
$GPGGA,120058.00,3416.3262,N,12039.1947,W,1,12,0.8,11.9,M,-33.8,M,,*60
$PYRTM,2024,123.500698370995,14.610345781134
$GPGGA,120059.00,3416.3263,N,12039.1958,W,1,12,0.8,12.5,M,-33.8,M,,*61
$PYRTM,2024,123.500709959120,14.610357369259
$GPGGA,120100.00,3416.3264,N,12039.1973,W,1,12,0.8,13.3,M,-33.8,M,,*65
$PYRTM,2024,123.500721520532,14.610368930683
$GPGGA,120101.00,3416.3269,N,12039.1991,W,1,12,0.8,13.1,M,-33.8,M,,*67
$PYRTM,2024,123.500733108611,14.610380518750
$GPGGA,120102.00,3416.3275,N,12039.2004,W,1,12,0.8,12.9,M,-33.8,M,,*66
$PYRTM,2024,123.500744668634,14.610392078773
$GPGGA,120103.00,3416.3278,N,12039.2014,W,1,12,0.8,13.2,M,-33.8,M,,*61
$PYRTM,2024,123.500756259595,14.610403669734
$GPGGA,120104.00,3416.3280,N,12039.2028,W,1,12,0.8,13.4,M,-33.8,M,,*68
$PYRTM,2024,123.500763652708,14.610411062847
$GPGGA,120105.00,3416.3284,N,12039.2045,W,1,12,0.8,12.8,M,-33.8,M,,*6B
$PYRTM,2024,123.500779407488,14.610426817627
$GPGGA,120106.00,3416.3288,N,12039.2057,W,1,12,0.8,12.6,M,-33.8,M,,*69
$PYRTM,2024,123.500790966447,14.610438376586
$GPGGA,120107.00,3416.3289,N,12039.2067,W,1,12,0.8,13.3,M,-33.8,M,,*6E
$PYRTM,2024,123.500802552025,14.610449962176
$GPGGA,120108.00,3416.3290,N,12039.2083,W,1,12,0.8,13.4,M,-33.8,M,,*64
$PYRTM,2024,123.500814115046,14.610461525185
$GPGGA,120109.00,3416.3294,N,12039.2102,W,1,12,0.8,12.6,M,-33.8,M,,*6A
$PYRTM,2024,123.500821520174,14.610468930313
$GPGGA,120110.00,3416.3298,N,12039.2116,W,1,12,0.8,12.0,M,-33.8,M,,*6D
$PYRTM,2024,123.500840194699,14.610487604838
$GPGGA,120111.00,3416.3300,N,12039.2126,W,1,12,0.8,12.6,M,-33.8,M,,*69
$PYRTM,2024,123.500848853160,14.610496263299
$GPGGA,120112.00,3416.3301,N,12039.2138,W,1,12,0.8,13.5,M,-33.8,M,,*66
$PYRTM,2024,123.500860410428,14.610507820567
$GPGGA,120113.00,3416.3304,N,12039.2154,W,1,12,0.8,13.7,M,-33.8,M,,*6A
$PYRTM,2024,123.500871999907,14.610519410046
$GPGGA,120114.00,3416.3308,N,12039.2171,W,1,12,0.8,13.0,M,-33.8,M,,*61
$PYRTM,2024,123.500883557755,14.610530967894
$GPGGA,120115.00,3416.3311,N,12039.2186,W,1,12,0.8,12.2,M,-33.8,M,,*63
$PYRTM,2024,123.500895146030,14.610542556169
$GPGGA,120116.00,3416.3314,N,12039.2198,W,1,12,0.8,12.0,M,-33.8,M,,*68
$PYRTM,2024,123.500902540660,14.610549950799
$GPGGA,120117.00,3416.3317,N,12039.2211,W,1,12,0.8,12.5,M,-33.8,M,,*6D
$PYRTM,2024,123.500918296852,14.610565706991
$GPGGA,120118.00,3416.3320,N,12039.2225,W,1,12,0.8,13.1,M,-33.8,M,,*64
$PYRTM,2024,123.500929854201,14.610577264340
$GPGGA,120119.00,3416.3324,N,12039.2239,W,1,12,0.8,13.8,M,-33.8,M,,*65
$PYRTM,2024,123.500941447280,14.610588857431
$GPGGA,120120.00,3416.3329,N,12039.2254,W,1,12,0.8,13.9,M,-33.8,M,,*68
$PYRTM,2024,123.500953004653,14.610600414792
$GPGGA,120121.00,3416.3336,N,12039.2270,W,1,12,0.8,13.2,M,-33.8,M,,*6A
$PYRTM,2024,123.500964590880,14.610612001019
$GPGGA,120122.00,3416.3340,N,12039.2283,W,1,12,0.8,12.4,M,-33.8,M,,*63
$PYRTM,2024,123.500976280255,14.610623690405
$GPGGA,120123.00,3416.3341,N,12039.2294,W,1,12,0.8,12.8,M,-33.8,M,,*69
$PYRTM,2024,123.500987849595,14.610635259734
$GPGGA,120124.00,3416.3343,N,12039.2306,W,1,12,0.8,13.2,M,-33.8,M,,*6D
$PYRTM,2024,123.500999435868,14.610646846007
$GPGGA,120125.00,3416.3349,N,12039.2326,W,1,12,0.8,12.5,M,-33.8,M,,*62
$PYRTM,2024,123.501011002986,14.610658413125
$GPGGA,120126.00,3416.3355,N,12039.2343,W,1,12,0.8,11.7,M,-33.8,M,,*6E
$PYRTM,2024,123.501018283831,14.610665693970
$GPGGA,120127.00,3416.3360,N,12039.2354,W,1,12,0.8,11.8,M,-33.8,M,,*60
$PYRTM,2024,123.501034152025,14.610681562176
$GPGGA,120128.00,3416.3366,N,12039.2364,W,1,12,0.8,12.5,M,-33.8,M,,*64
$PYRTM,2024,123.501045597847,14.610693007986
$GPGGA,120129.00,3416.3371,N,12039.2376,W,1,12,0.8,13.5,M,-33.8,M,,*61
$PYRTM,2024,123.501057183773,14.610704593912
$GPGGA,120130.00,3416.3371,N,12039.2391,W,1,12,0.8,14.3,M,-33.8,M,,*61
$PYRTM,2024,123.501068745278,14.610716155417
$GPGGA,120131.00,3416.3372,N,12039.2410,W,1,12,0.8,14.4,M,-33.8,M,,*6A
$PYRTM,2024,123.501076152176,14.610723562315
$GPGGA,120132.00,3416.3378,N,12039.2429,W,1,12,0.8,12.8,M,-33.8,M,,*63
$PYRTM,2024,123.501091894711,14.610739304850
$GPGGA,120133.00,3416.3388,N,12039.2442,W,1,12,0.8,11.7,M,-33.8,M,,*6C
$PYRTM,2024,123.501103485081,14.610750895220
$GPGGA,120134.00,3416.3394,N,12039.2447,W,1,12,0.8,11.6,M,-33.8,M,,*62
$PYRTM,2024,123.501115044063,14.610762454201
$GPGGA,120135.00,3416.3397,N,12039.2454,W,1,12,0.8,12.0,M,-33.8,M,,*67
$PYRTM,2024,123.501126628403,14.610774038542
$GPGGA,120136.00,3416.3399,N,12039.2472,W,1,12,0.8,12.7,M,-33.8,M,,*69
$PYRTM,2024,123.501138190833,14.610785600972
$GPGGA,120137.00,3416.3403,N,12039.2493,W,1,12,0.8,11.1,M,-33.8,M,,*66
$PYRTM,2024,123.501149777211,14.610797187350
$GPGGA,120138.00,3416.3410,N,12039.2506,W,1,12,0.8,9.8,M,-33.8,M,,*56
$PYRTM,2024,123.501161339375,14.610808749514
$GPGGA,120139.00,3416.3416,N,12039.2513,W,1,12,0.8,9.6,M,-33.8,M,,*5B
$PYRTM,2024,123.501172920556,14.610820330694
$GPGGA,120140.00,3416.3418,N,12039.2522,W,1,12,0.8,10.0,M,-33.8,M,,*67
$PYRTM,2024,123.501180321563,14.610827731701
$GPGGA,120141.00,3416.3422,N,12039.2539,W,1,12,0.8,10.0,M,-33.8,M,,*65
$PYRTM,2024,123.501198968160,14.610846378299
$GPGGA,120142.00,3416.3426,N,12039.2558,W,1,12,0.8,9.6,M,-33.8,M,,*5B
$PYRTM,2024,123.501207638704,14.610855048843
$GPGGA,120143.00,3416.3429,N,12039.2572,W,1,12,0.8,10.1,M,-33.8,M,,*62
$PYRTM,2024,123.501219217292,14.610866627431
$GPGGA,120144.00,3416.3432,N,12039.2581,W,1,12,0.8,11.3,M,-33.8,M,,*60
$PYRTM,2024,123.501230784282,14.610878194421
$GPGGA,120145.00,3416.3436,N,12039.2594,W,1,12,0.8,12.0,M,-33.8,M,,*61
$PYRTM,2024,123.501242373796,14.610889783935
$GPGGA,120146.00,3416.3441,N,12039.2609,W,1,12,0.8,11.6,M,-33.8,M,,*60
$PYRTM,2024,123.501253933600,14.610901343738
$GPGGA,120147.00,3416.3447,N,12039.2623,W,1,12,0.8,10.7,M,-33.8,M,,*6F
$PYRTM,2024,123.501265522639,14.610912932778
$GPGGA,120148.00,3416.3450,N,12039.2634,W,1,12,0.8,10.4,M,-33.8,M,,*63
$PYRTM,2024,123.501277080278,14.610924490417
$GPGGA,120149.00,3416.3452,N,12039.2648,W,1,12,0.8,10.7,M,-33.8,M,,*68
$PYRTM,2024,123.501288671019,14.610936081157
$GPGGA,120150.00,3416.3455,N,12039.2663,W,1,12,0.8,11.5,M,-33.8,M,,*6D
$PYRTM,2024,123.501300228854,14.610947639005
$GPGGA,120151.00,3416.3461,N,12039.2677,W,1,12,0.8,12.1,M,-33.8,M,,*69
$PYRTM,2024,123.501311815752,14.610959225891
$GPGGA,120152.00,3416.3468,N,12039.2691,W,1,12,0.8,12.5,M,-33.8,M,,*6F
$PYRTM,2024,123.501323377095,14.610970787234
$GPGGA,120153.00,3416.3473,N,12039.2706,W,1,12,0.8,12.5,M,-33.8,M,,*6B
$PYRTM,2024,123.501334965498,14.610982375637
$GPGGA,120154.00,3416.3478,N,12039.2719,W,1,12,0.8,12.5,M,-33.8,M,,*69
$PYRTM,2024,123.501346526771,14.610993936910
$GPGGA,120155.00,3416.3481,N,12039.2733,W,1,12,0.8,12.5,M,-33.8,M,,*66
$PYRTM,2024,123.501358115347,14.611005525486
$GPGGA,120156.00,3416.3486,N,12039.2750,W,1,12,0.8,12.3,M,-33.8,M,,*61
$PYRTM,2024,123.501365508426,14.611012918565
$GPGGA,120157.00,3416.3492,N,12039.2768,W,1,12,0.8,11.5,M,-33.8,M,,*6B
$PYRTM,2024,123.501381261690,14.611028671829
$GPGGA,120158.00,3416.3498,N,12039.2782,W,1,12,0.8,11.3,M,-33.8,M,,*6C
$PYRTM,2024,123.501388656759,14.611036066910
$GPGGA,120159.00,3416.3504,N,12039.2793,W,1,12,0.8,12.1,M,-33.8,M,,*68
$PYRTM,2024,123.501404413530,14.611051823669
$GPGGA,120200.00,3416.3508,N,12039.2804,W,1,12,0.8,13.3,M,-33.8,M,,*69
$PYRTM,2024,123.501415972095,14.611063382245
$GPGGA,120201.00,3416.3512,N,12039.2823,W,1,12,0.8,13.3,M,-33.8,M,,*66
$PYRTM,2024,123.501423379873,14.611070790023
$GPGGA,120202.00,3416.3516,N,12039.2844,W,1,12,0.8,12.4,M,-33.8,M,,*66
$PYRTM,2024,123.501435071447,14.611082481586
$GPGGA,120203.00,3416.3522,N,12039.2859,W,1,12,0.8,11.7,M,-33.8,M,,*6C
$PYRTM,2024,123.501450708218,14.611098118356
$GPGGA,120204.00,3416.3529,N,12039.2868,W,1,12,0.8,11.8,M,-33.8,M,,*6D
$PYRTM,2024,123.501458109167,14.611105519306
$GPGGA,120205.00,3416.3536,N,12039.2883,W,1,12,0.8,12.2,M,-33.8,M,,*6E
$PYRTM,2024,123.501473855521,14.611121265671
$GPGGA,120206.00,3416.3541,N,12039.2902,W,1,12,0.8,12.1,M,-33.8,M,,*66
$PYRTM,2024,123.501485416157,14.611132826296
$GPGGA,120207.00,3416.3544,N,12039.2918,W,1,12,0.8,12.8,M,-33.8,M,,*60
$PYRTM,2024,123.501497002743,14.611144412894
$GPGGA,120208.00,3416.3545,N,12039.2928,W,1,12,0.8,14.3,M,-33.8,M,,*60
$PYRTM,2024,123.501508564016,14.611155974155
$GPGGA,120209.00,3416.3550,N,12039.2940,W,1,12,0.8,15.1,M,-33.8,M,,*68
$PYRTM,2024,123.501515972569,14.611163382708
$GPGGA,120210.00,3416.3558,N,12039.2956,W,1,12,0.8,14.2,M,-33.8,M,,*6D
$PYRTM,2024,123.501531712361,14.611179122500
$GPGGA,120211.00,3416.3564,N,12039.2974,W,1,12,0.8,12.4,M,-33.8,M,,*63
$PYRTM,2024,123.501539119618,14.611186529757
$GPGGA,120212.00,3416.3567,N,12039.2988,W,1,12,0.8,11.8,M,-33.8,M,,*6F
$PYRTM,2024,123.501557778565,14.611205188704
$GPGGA,120213.00,3416.3568,N,12039.2997,W,1,12,0.8,12.9,M,-33.8,M,,*6D
$PYRTM,2024,123.501566448148,14.611213858287
$GPGGA,120214.00,3416.3569,N,12039.3007,W,1,12,0.8,14.6,M,-33.8,M,,*63
$PYRTM,2024,123.501578008796,14.611225418935
$GPGGA,120215.00,3416.3576,N,12039.3024,W,1,12,0.8,15.0,M,-33.8,M,,*6A
$PYRTM,2024,123.501589599201,14.611237009340
$GPGGA,120216.00,3416.3583,N,12039.3041,W,1,12,0.8,13.9,M,-33.8,M,,*6F
$PYRTM,2024,123.501601158194,14.611248568333
$GPGGA,120217.00,3416.3586,N,12039.3056,W,1,12,0.8,13.0,M,-33.8,M,,*64
$PYRTM,2024,123.501612748958,14.611260159097
$GPGGA,120218.00,3416.3586,N,12039.3067,W,1,12,0.8,12.9,M,-33.8,M,,*61
$PYRTM,2024,123.501624306632,14.611271716771
$GPGGA,120219.00,3416.3589,N,12039.3080,W,1,12,0.8,13.6,M,-33.8,M,,*68
$PYRTM,2024,123.501631713912,14.611279124051
$GPGGA,120220.00,3416.3594,N,12039.3095,W,1,12,0.8,14.1,M,-33.8,M,,*6A
$PYRTM,2024,123.501647453900,14.611294864039
$GPGGA,120221.00,3416.3600,N,12039.3111,W,1,12,0.8,14.3,M,-33.8,M,,*6A
$PYRTM,2024,123.501659040891,14.611306451030
$GPGGA,120222.00,3416.3606,N,12039.3125,W,1,12,0.8,14.2,M,-33.8,M,,*69
$PYRTM,2024,123.501670602106,14.611318012245
$GPGGA,120223.00,3416.3610,N,12039.3140,W,1,12,0.8,13.9,M,-33.8,M,,*60
$PYRTM,2024,123.501682189421,14.611329599560
$GPGGA,120224.00,3416.3614,N,12039.3156,W,1,12,0.8,13.6,M,-33.8,M,,*6B
$PYRTM,2024,123.501693750949,14.611341161088
$GPGGA,120225.00,3416.3620,N,12039.3169,W,1,12,0.8,13.7,M,-33.8,M,,*60
$PYRTM,2024,123.501705338935,14.611352749074
$GPGGA,120226.00,3416.3624,N,12039.3182,W,1,12,0.8,14.1,M,-33.8,M,,*63
$PYRTM,2024,123.501716898704,14.611364308843
$GPGGA,120227.00,3416.3628,N,12039.3197,W,1,12,0.8,14.2,M,-33.8,M,,*69
$PYRTM,2024,123.501728489097,14.611375899236
$GPGGA,120228.00,3416.3633,N,12039.3215,W,1,12,0.8,13.8,M,-33.8,M,,*68
$PYRTM,2024,123.501740048067,14.611387458206
$GPGGA,120229.00,3416.3637,N,12039.3233,W,1,12,0.8,13.1,M,-33.8,M,,*60
$PYRTM,2024,123.501747455961,14.611394866100
$GPGGA,120230.00,3416.3643,N,12039.3248,W,1,12,0.8,13.0,M,-33.8,M,,*66
$PYRTM,2024,123.501759144907,14.611406555046
$GPGGA,120231.00,3416.3650,N,12039.3260,W,1,12,0.8,13.1,M,-33.8,M,,*6E
$PYRTM,2024,123.501774797014,14.611422207164
$GPGGA,120232.00,3416.3656,N,12039.3273,W,1,12,0.8,13.7,M,-33.8,M,,*6F
$PYRTM,2024,123.501786345347,14.611433755486
$GPGGA,120233.00,3416.3657,N,12039.3289,W,1,12,0.8,14.4,M,-33.8,M,,*6E
$PYRTM,2024,123.501797931319,14.611445341458
$GPGGA,120234.00,3416.3658,N,12039.3309,W,1,12,0.8,14.7,M,-33.8,M,,*6C
$PYRTM,2024,123.501809492593,14.611456902731
$GPGGA,120235.00,3416.3663,N,12039.3329,W,1,12,0.8,13.6,M,-33.8,M,,*61
$PYRTM,2024,123.501821074398,14.611468484537
$GPGGA,120236.00,3416.3670,N,12039.3343,W,1,12,0.8,13.0,M,-33.8,M,,*6A
$PYRTM,2024,123.501832642072,14.611480052222
$GPGGA,120237.00,3416.3678,N,12039.3351,W,1,12,0.8,13.4,M,-33.8,M,,*64
$PYRTM,2024,123.501844227419,14.611491637558
$GPGGA,120238.00,3416.3686,N,12039.3364,W,1,12,0.8,14.0,M,-33.8,M,,*6F
$PYRTM,2024,123.501855789560,14.611503199699
$GPGGA,120239.00,3416.3691,N,12039.3383,W,1,12,0.8,13.9,M,-33.8,M,,*6F
$PYRTM,2024,123.501863198426,14.611510608565
$GPGGA,120240.00,3416.3690,N,12039.3401,W,1,12,0.8,14.0,M,-33.8,M,,*63
$PYRTM,2024,123.501878939815,14.611526349954
$GPGGA,120241.00,3416.3693,N,12039.3415,W,1,12,0.8,14.3,M,-33.8,M,,*67
$PYRTM,2024,123.501890520220,14.611537930359
$GPGGA,120242.00,3416.3703,N,12039.3427,W,1,12,0.8,14.4,M,-33.8,M,,*6A
$PYRTM,2024,123.501897919711,14.611545329850
$GPGGA,120243.00,3416.3714,N,12039.3440,W,1,12,0.8,13.9,M,-33.8,M,,*66
$PYRTM,2024,123.501916561285,14.611563971424
$GPGGA,120244.00,3416.3718,N,12039.3456,W,1,12,0.8,13.3,M,-33.8,M,,*60
$PYRTM,2024,123.501928151539,14.611575561678
$GPGGA,120245.00,3416.3718,N,12039.3474,W,1,12,0.8,13.3,M,-33.8,M,,*61
$PYRTM,2024,123.501939714560,14.611587124699
$GPGGA,120246.00,3416.3719,N,12039.3490,W,1,12,0.8,13.9,M,-33.8,M,,*63
$PYRTM,2024,123.501948384016,14.611595794167
$GPGGA,120247.00,3416.3725,N,12039.3501,W,1,12,0.8,14.7,M,-33.8,M,,*6D
$PYRTM,2024,123.501959970289,14.611607380428
$GPGGA,120248.00,3416.3733,N,12039.3516,W,1,12,0.8,14.4,M,-33.8,M,,*60
$PYRTM,2024,123.501971531563,14.611618941701
$GPGGA,120249.00,3416.3739,N,12039.3534,W,1,12,0.8,13.5,M,-33.8,M,,*6D
$PYRTM,2024,123.501983117708,14.611630527847
$GPGGA,120250.00,3416.3741,N,12039.3550,W,1,12,0.8,13.0,M,-33.8,M,,*6D
$PYRTM,2024,123.501990513437,14.611637923576
$GPGGA,120251.00,3416.3742,N,12039.3562,W,1,12,0.8,13.8,M,-33.8,M,,*66
$PYRTM,2024,123.502006267419,14.611653677558
$GPGGA,120252.00,3416.3745,N,12039.3576,W,1,12,0.8,14.7,M,-33.8,M,,*6F
$PYRTM,2024,123.502013662141,14.611661072280
$GPGGA,120253.00,3416.3752,N,12039.3594,W,1,12,0.8,14.8,M,-33.8,M,,*6B
$PYRTM,2024,123.502029415313,14.611676825451
$GPGGA,120254.00,3416.3759,N,12039.3611,W,1,12,0.8,14.0,M,-33.8,M,,*61
$PYRTM,2024,123.502040977025,14.611688387164
$GPGGA,120255.00,3416.3764,N,12039.3624,W,1,12,0.8,13.7,M,-33.8,M,,*68
$PYRTM,2024,123.502052562859,14.611699972998
$GPGGA,120256.00,3416.3768,N,12039.3637,W,1,12,0.8,13.8,M,-33.8,M,,*6A
$PYRTM,2024,123.502064125961,14.611711536111
$GPGGA,120257.00,3416.3773,N,12039.3654,W,1,12,0.8,13.7,M,-33.8,M,,*6B
$PYRTM,2024,123.502071531586,14.611718941725
$GPGGA,120258.00,3416.3779,N,12039.3673,W,1,12,0.8,13.4,M,-33.8,M,,*68
$PYRTM,2024,123.502087272303,14.611734682442
$GPGGA,120259.00,3416.3785,N,12039.3686,W,1,12,0.8,13.9,M,-33.8,M,,*6D
$PYRTM,2024,123.502098873391,14.611746283530
$GPGGA,120300.00,3416.3789,N,12039.3694,W,1,12,0.8,15.0,M,-33.8,M,,*60
$PYRTM,2024,123.502110420208,14.611757830347
$GPGGA,120301.00,3416.3793,N,12039.3708,W,1,12,0.8,15.7,M,-33.8,M,,*69
$PYRTM,2024,123.502122007442,14.611769417581
$GPGGA,120302.00,3416.3798,N,12039.3729,W,1,12,0.8,14.3,M,-33.8,M,,*67
$PYRTM,2024,123.502133570671,14.611780980810
$GPGGA,120303.00,3416.3804,N,12039.3749,W,1,12,0.8,12.5,M,-33.8,M,,*6A
$PYRTM,2024,123.502140977303,14.611788387442
$GPGGA,120304.00,3416.3808,N,12039.3759,W,1,12,0.8,12.4,M,-33.8,M,,*61
$PYRTM,2024,123.502156718611,14.611804128750
$GPGGA,120305.00,3416.3813,N,12039.3765,W,1,12,0.8,13.4,M,-33.8,M,,*64
$PYRTM,2024,123.502164126424,14.611811536574
$GPGGA,120306.00,3416.3819,N,12039.3779,W,1,12,0.8,14.1,M,-33.8,M,,*62
$PYRTM,2024,123.502175828252,14.611823238391
$GPGGA,120307.00,3416.3824,N,12039.3799,W,1,12,0.8,13.5,M,-33.8,M,,*60
$PYRTM,2024,123.502191454711,14.611838864850
$GPGGA,120308.00,3416.3829,N,12039.3815,W,1,12,0.8,12.6,M,-33.8,M,,*6B
$PYRTM,2024,123.502198849502,14.611846259641
$GPGGA,120309.00,3416.3832,N,12039.3822,W,1,12,0.8,12.4,M,-33.8,M,,*66
$PYRTM,2024,123.502214601944,14.611862012083
$GPGGA,120310.00,3416.3838,N,12039.3828,W,1,12,0.8,12.6,M,-33.8,M,,*6C
$PYRTM,2024,123.502226162593,14.611873572731
$GPGGA,120311.00,3416.3844,N,12039.3841,W,1,12,0.8,12.5,M,-33.8,M,,*6A
$PYRTM,2024,123.502237749861,14.611885160000
$GPGGA,120312.00,3416.3850,N,12039.3858,W,1,12,0.8,11.7,M,-33.8,M,,*65
$PYRTM,2024,123.502249310370,14.611896720509
$GPGGA,120313.00,3416.3854,N,12039.3873,W,1,12,0.8,11.0,M,-33.8,M,,*6E
$PYRTM,2024,123.502256719097,14.611904129248
$GPGGA,120314.00,3416.3860,N,12039.3883,W,1,12,0.8,11.0,M,-33.8,M,,*61
$PYRTM,2024,123.502275351539,14.611922761667
$GPGGA,120315.00,3416.3868,N,12039.3891,W,1,12,0.8,11.3,M,-33.8,M,,*68
$PYRTM,2024,123.502284046319,14.611931456458
$GPGGA,120316.00,3416.3874,N,12039.3904,W,1,12,0.8,11.7,M,-33.8,M,,*6F
$PYRTM,2024,123.502295608426,14.611943018565
$GPGGA,120317.00,3416.3875,N,12039.3922,W,1,12,0.8,12.0,M,-33.8,M,,*6F
$PYRTM,2024,123.502307195139,14.611954605278
$GPGGA,120318.00,3416.3877,N,12039.3937,W,1,12,0.8,12.3,M,-33.8,M,,*65
$PYRTM,2024,123.502318757558,14.611966167697
$GPGGA,120319.00,3416.3884,N,12039.3946,W,1,12,0.8,12.5,M,-33.8,M,,*68
$PYRTM,2024,123.502330344676,14.611977754815
$GPGGA,120320.00,3416.3895,N,12039.3954,W,1,12,0.8,12.4,M,-33.8,M,,*60
$PYRTM,2024,123.502337737743,14.611985147882
$GPGGA,120321.00,3416.3901,N,12039.3968,W,1,12,0.8,11.5,M,-33.8,M,,*60
$PYRTM,2024,123.502353491505,14.612000901644
$GPGGA,120322.00,3416.3902,N,12039.3990,W,1,12,0.8,10.7,M,-33.8,M,,*64
$PYRTM,2024,123.502365053530,14.612012463669
$GPGGA,120323.00,3416.3902,N,12039.4008,W,1,12,0.8,10.5,M,-33.8,M,,*68
$PYRTM,2024,123.502372462211,14.612019872350
$GPGGA,120324.00,3416.3910,N,12039.4016,W,1,12,0.8,11.5,M,-33.8,M,,*62
$PYRTM,2024,123.502388202315,14.612035612454
$GPGGA,120325.00,3416.3920,N,12039.4022,W,1,12,0.8,12.9,M,-33.8,M,,*68
$PYRTM,2024,123.502399792049,14.612047202187
$GPGGA,120326.00,3416.3926,N,12039.4036,W,1,12,0.8,13.8,M,-33.8,M,,*68
$PYRTM,2024,123.502411350961,14.612058761111
$GPGGA,120327.00,3416.3929,N,12039.4058,W,1,12,0.8,13.2,M,-33.8,M,,*64
$PYRTM,2024,123.502422940174,14.612070350313
$GPGGA,120328.00,3416.3932,N,12039.4077,W,1,12,0.8,12.1,M,-33.8,M,,*6E
$PYRTM,2024,123.502434497523,14.612081907662
$GPGGA,120329.00,3416.3934,N,12039.4087,W,1,12,0.8,11.7,M,-33.8,M,,*63
$PYRTM,2024,123.502446204016,14.612093614155
$GPGGA,120330.00,3416.3940,N,12039.4095,W,1,12,0.8,12.4,M,-33.8,M,,*6B
$PYRTM,2024,123.502457763391,14.612105173530
$GPGGA,120331.00,3416.3949,N,12039.4108,W,1,12,0.8,12.6,M,-33.8,M,,*64
$PYRTM,2024,123.502469344190,14.612116754329
$GPGGA,120332.00,3416.3957,N,12039.4126,W,1,12,0.8,12.1,M,-33.8,M,,*63
$PYRTM,2024,123.502480910718,14.612128320856
$GPGGA,120333.00,3416.3960,N,12039.4143,W,1,12,0.8,12.1,M,-33.8,M,,*65
$PYRTM,2024,123.502492497211,14.612139907350
$GPGGA,120334.00,3416.3959,N,12039.4155,W,1,12,0.8,13.1,M,-33.8,M,,*6E
$PYRTM,2024,123.502503943426,14.612151353565
$GPGGA,120335.00,3416.3961,N,12039.4165,W,1,12,0.8,14.1,M,-33.8,M,,*60
$PYRTM,2024,123.502511351759,14.612158761898
$GPGGA,120336.00,3416.3969,N,12039.4180,W,1,12,0.8,13.9,M,-33.8,M,,*6F
$PYRTM,2024,123.502529986296,14.612177396435
$GPGGA,120337.00,3416.3977,N,12039.4197,W,1,12,0.8,12.9,M,-33.8,M,,*66
$PYRTM,2024,123.502538679711,14.612186089850
$GPGGA,120338.00,3416.3980,N,12039.4212,W,1,12,0.8,12.5,M,-33.8,M,,*63
$PYRTM,2024,123.502550239745,14.612197649884
$GPGGA,120339.00,3416.3982,N,12039.4224,W,1,12,0.8,13.0,M,-33.8,M,,*61
$PYRTM,2024,123.502561828692,14.612209238831
$GPGGA,120340.00,3416.3988,N,12039.4236,W,1,12,0.8,13.5,M,-33.8,M,,*63
$PYRTM,2024,123.502573388866,14.612220799005
$GPGGA,120341.00,3416.3992,N,12039.4252,W,1,12,0.8,14.0,M,-33.8,M,,*69
$PYRTM,2024,123.502584978171,14.612232388310
$GPGGA,120342.00,3416.3994,N,12039.4270,W,1,12,0.8,13.9,M,-33.8,M,,*62
$PYRTM,2024,123.502596536134,14.612243946273
$GPGGA,120343.00,3416.3998,N,12039.4288,W,1,12,0.8,13.4,M,-33.8,M,,*65
$PYRTM,2024,123.502608124479,14.612255534618
$GPGGA,120344.00,3416.4004,N,12039.4303,W,1,12,0.8,12.9,M,-33.8,M,,*67
$PYRTM,2024,123.502615534282,14.612262944421
$GPGGA,120345.00,3416.4012,N,12039.4314,W,1,12,0.8,13.1,M,-33.8,M,,*6E
$PYRTM,2024,123.502634164525,14.612281574664
$GPGGA,120346.00,3416.4016,N,12039.4326,W,1,12,0.8,13.9,M,-33.8,M,,*60
$PYRTM,2024,123.502642833472,14.612290243611
$GPGGA,120347.00,3416.4014,N,12039.4342,W,1,12,0.8,14.8,M,-33.8,M,,*67
$PYRTM,2024,123.502654419861,14.612301830000
$GPGGA,120348.00,3416.4015,N,12039.4364,W,1,12,0.8,14.7,M,-33.8,M,,*62
$PYRTM,2024,123.502661814954,14.612309225093
$GPGGA,120349.00,3416.4020,N,12039.4384,W,1,12,0.8,13.8,M,-33.8,M,,*63
$PYRTM,2024,123.502677567951,14.612324978090
$GPGGA,120350.00,3416.4028,N,12039.4396,W,1,12,0.8,13.2,M,-33.8,M,,*6A
$PYRTM,2024,123.502689129826,14.612336539965
$GPGGA,120351.00,3416.4034,N,12039.4407,W,1,12,0.8,13.4,M,-33.8,M,,*6F
$PYRTM,2024,123.502700717604,14.612348127743
$GPGGA,120352.00,3416.4035,N,12039.4423,W,1,12,0.8,13.9,M,-33.8,M,,*66
$PYRTM,2024,123.502712277361,14.612359687500
$GPGGA,120353.00,3416.4037,N,12039.4444,W,1,12,0.8,14.0,M,-33.8,M,,*6A
$PYRTM,2024,123.502723865625,14.612371275764
$GPGGA,120354.00,3416.4040,N,12039.4463,W,1,12,0.8,13.8,M,-33.8,M,,*67
$PYRTM,2024,123.502735426343,14.612382836481
$GPGGA,120355.00,3416.4045,N,12039.4477,W,1,12,0.8,13.8,M,-33.8,M,,*66
$PYRTM,2024,123.502747016285,14.612394426435
$GPGGA,120356.00,3416.4052,N,12039.4490,W,1,12,0.8,13.7,M,-33.8,M,,*65
$PYRTM,2024,123.502758575301,14.612405985440
$GPGGA,120357.00,3416.4059,N,12039.4504,W,1,12,0.8,13.4,M,-33.8,M,,*60
$PYRTM,2024,123.502770165255,14.612417575394
$GPGGA,120358.00,3416.4061,N,12039.4521,W,1,12,0.8,13.4,M,-33.8,M,,*63
$PYRTM,2024,123.502777556887,14.612424967025
$GPGGA,120359.00,3416.4059,N,12039.4542,W,1,12,0.8,13.4,M,-33.8,M,,*6C
$PYRTM,2024,123.502793309919,14.612440720046
$GPGGA,120400.00,3416.4064,N,12039.4561,W,1,12,0.8,13.3,M,-33.8,M,,*6F
$PYRTM,2024,123.502804870197,14.612452280336
$GPGGA,120401.00,3416.4074,N,12039.4573,W,1,12,0.8,13.6,M,-33.8,M,,*69
$PYRTM,2024,123.502816457789,14.612463867928
$GPGGA,120402.00,3416.4082,N,12039.4584,W,1,12,0.8,14.0,M,-33.8,M,,*6A
$PYRTM,2024,123.502828019861,14.612475430000
$GPGGA,120403.00,3416.4084,N,12039.4603,W,1,12,0.8,14.0,M,-33.8,M,,*61
$PYRTM,2024,123.502835426794,14.612482836933
$GPGGA,120404.00,3416.4086,N,12039.4624,W,1,12,0.8,13.6,M,-33.8,M,,*60
$PYRTM,2024,123.502851168252,14.612498578391
$GPGGA,120405.00,3416.4090,N,12039.4640,W,1,12,0.8,13.4,M,-33.8,M,,*66
$PYRTM,2024,123.502862755625,14.612510165764
$GPGGA,120406.00,3416.4098,N,12039.4653,W,1,12,0.8,13.3,M,-33.8,M,,*68
$PYRTM,2024,123.502874317384,14.612521727523
$GPGGA,120407.00,3416.4107,N,12039.4667,W,1,12,0.8,13.0,M,-33.8,M,,*6A
$PYRTM,2024,123.502881723727,14.612529133866
$GPGGA,120408.00,3416.4114,N,12039.4683,W,1,12,0.8,12.9,M,-33.8,M,,*65
$PYRTM,2024,123.502900358067,14.612547768206
$GPGGA,120409.00,3416.4117,N,12039.4699,W,1,12,0.8,13.4,M,-33.8,M,,*60
$PYRTM,2024,123.502911959537,14.612559369676
$GPGGA,120410.00,3416.4120,N,12039.4716,W,1,12,0.8,14.1,M,-33.8,M,,*68
$PYRTM,2024,123.502920613819,14.612568023958
$GPGGA,120411.00,3416.4126,N,12039.4733,W,1,12,0.8,14.0,M,-33.8,M,,*69
$PYRTM,2024,123.502928025000,14.612575435139
$GPGGA,120412.00,3416.4133,N,12039.4751,W,1,12,0.8,13.1,M,-33.8,M,,*6C
$PYRTM,2024,123.502943761053,14.612591171192
$GPGGA,120413.00,3416.4140,N,12039.4769,W,1,12,0.8,12.4,M,-33.8,M,,*66
$PYRTM,2024,123.502955348333,14.612602758472
$GPGGA,120414.00,3416.4146,N,12039.4785,W,1,12,0.8,12.4,M,-33.8,M,,*65
$PYRTM,2024,123.502966910139,14.612614320278
$GPGGA,120415.00,3416.4152,N,12039.4796,W,1,12,0.8,13.3,M,-33.8,M,,*65
$PYRTM,2024,123.502974317350,14.612621727488
$GPGGA,120416.00,3416.4161,N,12039.4807,W,1,12,0.8,14.3,M,-33.8,M,,*66
$PYRTM,2024,123.502992950370,14.612640360509
$GPGGA,120417.00,3416.4169,N,12039.4825,W,1,12,0.8,14.1,M,-33.8,M,,*6D
$PYRTM,2024,123.503001640104,14.612649050243
$GPGGA,120418.00,3416.4174,N,12039.4847,W,1,12,0.8,13.3,M,-33.8,M,,*6F
$PYRTM,2024,123.503013205428,14.612660615567
$GPGGA,120419.00,3416.4176,N,12039.4862,W,1,12,0.8,13.5,M,-33.8,M,,*6D
$PYRTM,2024,123.503024796215,14.612672206354
$GPGGA,120420.00,3416.4183,N,12039.4871,W,1,12,0.8,14.1,M,-33.8,M,,*6C
$PYRTM,2024,123.503036356076,14.612683766215
$GPGGA,120421.00,3416.4195,N,12039.4881,W,1,12,0.8,14.3,M,-33.8,M,,*67
$PYRTM,2024,123.503047942616,14.612695352755
$GPGGA,120422.00,3416.4204,N,12039.4896,W,1,12,0.8,13.7,M,-33.8,M,,*6A
$PYRTM,2024,123.503059504225,14.612706914363
$GPGGA,120423.00,3416.4206,N,12039.4918,W,1,12,0.8,12.5,M,-33.8,M,,*6D
$PYRTM,2024,123.503071093889,14.612718504028
$GPGGA,120424.00,3416.4207,N,12039.4938,W,1,12,0.8,12.4,M,-33.8,M,,*68
$PYRTM,2024,123.503082652083,14.612730062222
$GPGGA,120425.00,3416.4214,N,12039.4948,W,1,12,0.8,12.9,M,-33.8,M,,*61
$PYRTM,2024,123.503094242778,14.612741652917
$GPGGA,120426.00,3416.4224,N,12039.4956,W,1,12,0.8,14.0,M,-33.8,M,,*61
$PYRTM,2024,123.503105799954,14.612753210093
$GPGGA,120427.00,3416.4231,N,12039.4971,W,1,12,0.8,14.6,M,-33.8,M,,*67
$PYRTM,2024,123.503117390799,14.612764800949
$GPGGA,120428.00,3416.4234,N,12039.4992,W,1,12,0.8,14.3,M,-33.8,M,,*65
$PYRTM,2024,123.503128947639,14.612776357778
$GPGGA,120429.00,3416.4238,N,12039.5011,W,1,12,0.8,13.2,M,-33.8,M,,*6D
$PYRTM,2024,123.503136354120,14.612783764259
$GPGGA,120430.00,3416.4247,N,12039.5021,W,1,12,0.8,13.1,M,-33.8,M,,*6D
$PYRTM,2024,123.503152097269,14.612799507407
$GPGGA,120431.00,3416.4257,N,12039.5029,W,1,12,0.8,13.5,M,-33.8,M,,*61
$PYRTM,2024,123.503159503588,14.612806913727
$GPGGA,120432.00,3416.4265,N,12039.5045,W,1,12,0.8,13.7,M,-33.8,M,,*6B
$PYRTM,2024,123.503175244132,14.612822654271
$GPGGA,120433.00,3416.4271,N,12039.5065,W,1,12,0.8,13.7,M,-33.8,M,,*6D
$PYRTM,2024,123.503186831852,14.612834241991
$GPGGA,120434.00,3416.4274,N,12039.5082,W,1,12,0.8,14.0,M,-33.8,M,,*66
$PYRTM,2024,123.503194226933,14.612841637072
$GPGGA,120435.00,3416.4279,N,12039.5093,W,1,12,0.8,15.1,M,-33.8,M,,*6A
$PYRTM,2024,123.503209981389,14.612857391528
$GPGGA,120436.00,3416.4288,N,12039.5104,W,1,12,0.8,15.6,M,-33.8,M,,*6F
$PYRTM,2024,123.503221541319,14.612868951458
$GPGGA,120437.00,3416.4300,N,12039.5120,W,1,12,0.8,14.3,M,-33.8,M,,*6D
$PYRTM,2024,123.503233131597,14.612880541736
$GPGGA,120438.00,3416.4307,N,12039.5138,W,1,12,0.8,12.8,M,-33.8,M,,*61
$PYRTM,2024,123.503244689850,14.612892099988
$GPGGA,120439.00,3416.4309,N,12039.5153,W,1,12,0.8,12.4,M,-33.8,M,,*6F
$PYRTM,2024,123.503252096933,14.612899507072
$GPGGA,120440.00,3416.4310,N,12039.5167,W,1,12,0.8,13.1,M,-33.8,M,,*6A
$PYRTM,2024,123.503263787674,14.612911197813
$GPGGA,120441.00,3416.4317,N,12039.5182,W,1,12,0.8,13.9,M,-33.8,M,,*6F
$PYRTM,2024,123.503279428519,14.612926838657
$GPGGA,120442.00,3416.4325,N,12039.5198,W,1,12,0.8,14.2,M,-33.8,M,,*6A
$PYRTM,2024,123.503290987315,14.612938397454
$GPGGA,120443.00,3416.4329,N,12039.5214,W,1,12,0.8,13.8,M,-33.8,M,,*6D
$PYRTM,2024,123.503302569178,14.612949979317
$GPGGA,120444.00,3416.4330,N,12039.5232,W,1,12,0.8,13.2,M,-33.8,M,,*6C
$PYRTM,2024,123.503314135382,14.612961545521
$GPGGA,120445.00,3416.4334,N,12039.5248,W,1,12,0.8,12.7,M,-33.8,M,,*60
$PYRTM,2024,123.503325722766,14.612973132905
$GPGGA,120446.00,3416.4341,N,12039.5260,W,1,12,0.8,12.7,M,-33.8,M,,*6B
$PYRTM,2024,123.503333116366,14.612980526505
$GPGGA,120447.00,3416.4348,N,12039.5274,W,1,12,0.8,13.2,M,-33.8,M,,*62
$PYRTM,2024,123.503351763414,14.612999173553
$GPGGA,120448.00,3416.4352,N,12039.5292,W,1,12,0.8,13.7,M,-33.8,M,,*6B
$PYRTM,2024,123.503360431308,14.613007841447
$GPGGA,120449.00,3416.4354,N,12039.5312,W,1,12,0.8,14.2,M,-33.8,M,,*67
$PYRTM,2024,123.503367839433,14.613015249572
$GPGGA,120450.00,3416.4359,N,12039.5330,W,1,12,0.8,14.1,M,-33.8,M,,*61
$PYRTM,2024,123.503383581053,14.613030991192
$GPGGA,120451.00,3416.4367,N,12039.5344,W,1,12,0.8,13.8,M,-33.8,M,,*60
$PYRTM,2024,123.503395166956,14.613042577095
$GPGGA,120452.00,3416.4372,N,12039.5357,W,1,12,0.8,13.6,M,-33.8,M,,*6B
$PYRTM,2024,123.503406729120,14.613054139259
$GPGGA,120453.00,3416.4375,N,12039.5375,W,1,12,0.8,13.4,M,-33.8,M,,*6F
$PYRTM,2024,123.503418318877,14.613065729016
$GPGGA,120454.00,3416.4378,N,12039.5394,W,1,12,0.8,12.8,M,-33.8,M,,*67
$PYRTM,2024,123.503429877674,14.613077287813
$GPGGA,120455.00,3416.4384,N,12039.5412,W,1,12,0.8,12.1,M,-33.8,M,,*65
$PYRTM,2024,123.503441459676,14.613088869815
$GPGGA,120456.00,3416.4390,N,12039.5429,W,1,12,0.8,11.8,M,-33.8,M,,*61
$PYRTM,2024,123.503453026181,14.613100436331
$GPGGA,120457.00,3416.4397,N,12039.5445,W,1,12,0.8,12.0,M,-33.8,M,,*66
$PYRTM,2024,123.503464612211,14.613112022350
$GPGGA,120458.00,3416.4400,N,12039.5460,W,1,12,0.8,13.0,M,-33.8,M,,*66
$PYRTM,2024,123.503476172917,14.613123583056
$GPGGA,120459.00,3416.4399,N,12039.5473,W,1,12,0.8,14.5,M,-33.8,M,,*60
$PYRTM,2024,123.503487760602,14.613135170741
$GPGGA,120500.00,3416.4400,N,12039.5489,W,1,12,0.8,15.2,M,-33.8,M,,*69
$PYRTM,2024,123.503499324826,14.613146734965
$GPGGA,120501.00,3416.4406,N,12039.5510,W,1,12,0.8,13.7,M,-33.8,M,,*6C
$PYRTM,2024,123.503510909965,14.613158320104
$GPGGA,120502.00,3416.4412,N,12039.5528,W,1,12,0.8,12.5,M,-33.8,M,,*62
$PYRTM,2024,123.503522469988,14.613169880127
$GPGGA,120503.00,3416.4415,N,12039.5539,W,1,12,0.8,12.9,M,-33.8,M,,*68
$PYRTM,2024,123.503534060799,14.613181470937
$GPGGA,120504.00,3416.4417,N,12039.5552,W,1,12,0.8,13.6,M,-33.8,M,,*6E
$PYRTM,2024,123.503545620509,14.613193030648
$GPGGA,120505.00,3416.4421,N,12039.5571,W,1,12,0.8,14.0,M,-33.8,M,,*6A
$PYRTM,2024,123.503557220266,14.613204630405
$GPGGA,120506.00,3416.4423,N,12039.5588,W,1,12,0.8,14.3,M,-33.8,M,,*6E
$PYRTM,2024,123.503564600162,14.613212010301
$GPGGA,120507.00,3416.4425,N,12039.5603,W,1,12,0.8,14.4,M,-33.8,M,,*6E
$PYRTM,2024,123.503580357986,14.613227768125
$GPGGA,120508.00,3416.4428,N,12039.5619,W,1,12,0.8,13.9,M,-33.8,M,,*6D
$PYRTM,2024,123.503591916817,14.613239326956
$GPGGA,120509.00,3416.4435,N,12039.5633,W,1,12,0.8,13.0,M,-33.8,M,,*61
$PYRTM,2024,123.503603505301,14.613250915440
$GPGGA,120510.00,3416.4442,N,12039.5645,W,1,12,0.8,12.6,M,-33.8,M,,*6F
$PYRTM,2024,123.503615063495,14.613262473634
$GPGGA,120511.00,3416.4444,N,12039.5661,W,1,12,0.8,12.7,M,-33.8,M,,*6F
$PYRTM,2024,123.503626648009,14.613274058148
$GPGGA,120512.00,3416.4443,N,12039.5679,W,1,12,0.8,13.0,M,-33.8,M,,*64
$PYRTM,2024,123.503634058623,14.613281468762
$GPGGA,120513.00,3416.4447,N,12039.5694,W,1,12,0.8,13.5,M,-33.8,M,,*67
$PYRTM,2024,123.503649798646,14.613297208785
$GPGGA,120514.00,3416.4455,N,12039.5708,W,1,12,0.8,13.7,M,-33.8,M,,*65
$PYRTM,2024,123.503661361933,14.613308772072
$GPGGA,120515.00,3416.4462,N,12039.5722,W,1,12,0.8,13.7,M,-33.8,M,,*68
$PYRTM,2024,123.503672947280,14.613320357419
$GPGGA,120516.00,3416.4465,N,12039.5738,W,1,12,0.8,13.6,M,-33.8,M,,*66
$PYRTM,2024,123.503680343611,14.613327753750
$GPGGA,120517.00,3416.4465,N,12039.5756,W,1,12,0.8,13.1,M,-33.8,M,,*68
$PYRTM,2024,123.503692034977,14.613339445116
$GPGGA,120518.00,3416.4470,N,12039.5774,W,1,12,0.8,12.4,M,-33.8,M,,*67
$PYRTM,2024,123.503710550694,14.613357960833
$GPGGA,120519.00,3416.4476,N,12039.5789,W,1,12,0.8,12.2,M,-33.8,M,,*64
$PYRTM,2024,123.503719244028,14.613366654167
$GPGGA,120520.00,3416.4484,N,12039.5800,W,1,12,0.8,12.9,M,-33.8,M,,*66
$PYRTM,2024,123.503730804502,14.613378214630
$GPGGA,120521.00,3416.4490,N,12039.5811,W,1,12,0.8,13.8,M,-33.8,M,,*62
$PYRTM,2024,123.503742406262,14.613389816400
$GPGGA,120522.00,3416.4494,N,12039.5829,W,1,12,0.8,14.1,M,-33.8,M,,*60
$PYRTM,2024,123.503753955035,14.613401365174
$GPGGA,120523.00,3416.4494,N,12039.5849,W,1,12,0.8,14.0,M,-33.8,M,,*66
$PYRTM,2024,123.503765541644,14.613412951794
$GPGGA,120524.00,3416.4495,N,12039.5867,W,1,12,0.8,13.7,M,-33.8,M,,*6C
$PYRTM,2024,123.503777104317,14.613424514456
$GPGGA,120525.00,3416.4504,N,12039.5880,W,1,12,0.8,13.3,M,-33.8,M,,*69
$PYRTM,2024,123.503788692755,14.613436102894
$GPGGA,120526.00,3416.4516,N,12039.5892,W,1,12,0.8,12.6,M,-33.8,M,,*6E
$PYRTM,2024,123.503796096771,14.613443506921
$GPGGA,120527.00,3416.4523,N,12039.5906,W,1,12,0.8,12.3,M,-33.8,M,,*60
$PYRTM,2024,123.503811837488,14.613459247627
$GPGGA,120528.00,3416.4524,N,12039.5925,W,1,12,0.8,12.9,M,-33.8,M,,*63
$PYRTM,2024,123.503823399051,14.613470809190
$GPGGA,120529.00,3416.4526,N,12039.5945,W,1,12,0.8,13.4,M,-33.8,M,,*6A
$PYRTM,2024,123.503834985833,14.613482395972
$GPGGA,120530.00,3416.4533,N,12039.5959,W,1,12,0.8,13.8,M,-33.8,M,,*67
$PYRTM,2024,123.503846548831,14.613493958970
$GPGGA,120531.00,3416.4541,N,12039.5968,W,1,12,0.8,14.3,M,-33.8,M,,*6D
$PYRTM,2024,123.503858134190,14.613505544329
$GPGGA,120532.00,3416.4547,N,12039.5981,W,1,12,0.8,13.9,M,-33.8,M,,*62
$PYRTM,2024,123.503869696574,14.613517106713
$GPGGA,120533.00,3416.4552,N,12039.6001,W,1,12,0.8,12.4,M,-33.8,M,,*69
$PYRTM,2024,123.503881283993,14.613528694144
$GPGGA,120534.00,3416.4556,N,12039.6019,W,1,12,0.8,11.3,M,-33.8,M,,*67
$PYRTM,2024,123.503892842801,14.613540252940
$GPGGA,120535.00,3416.4561,N,12039.6033,W,1,12,0.8,11.1,M,-33.8,M,,*68
$PYRTM,2024,123.503904434005,14.613551844144
$GPGGA,120536.00,3416.4569,N,12039.6046,W,1,12,0.8,12.2,M,-33.8,M,,*61
$PYRTM,2024,123.503911827245,14.613559237384
$GPGGA,120537.00,3416.4574,N,12039.6059,W,1,12,0.8,13.5,M,-33.8,M,,*64
$PYRTM,2024,123.503927699525,14.613575109664
$GPGGA,120538.00,3416.4579,N,12039.6077,W,1,12,0.8,14.2,M,-33.8,M,,*6A
$PYRTM,2024,123.503939257234,14.613586667373
$GPGGA,120539.00,3416.4585,N,12039.6096,W,1,12,0.8,13.7,M,-33.8,M,,*65
$PYRTM,2024,123.503946550613,14.613593960752
$GPGGA,120540.00,3416.4591,N,12039.6112,W,1,12,0.8,12.5,M,-33.8,M,,*60
$PYRTM,2024,123.503962289109,14.613609699248
$GPGGA,120541.00,3416.4596,N,12039.6124,W,1,12,0.8,12.0,M,-33.8,M,,*66
$PYRTM,2024,123.503973877118,14.613621287257
$GPGGA,120542.00,3416.4603,N,12039.6137,W,1,12,0.8,12.0,M,-33.8,M,,*68
$PYRTM,2024,123.503985437801,14.613632847940
$GPGGA,120543.00,3416.4609,N,12039.6153,W,1,12,0.8,12.0,M,-33.8,M,,*61
$PYRTM,2024,123.503997019549,14.613644429687
$GPGGA,120544.00,3416.4615,N,12039.6172,W,1,12,0.8,12.1,M,-33.8,M,,*69
$PYRTM,2024,123.504004419850,14.613651830000
$GPGGA,120545.00,3416.4617,N,12039.6188,W,1,12,0.8,12.8,M,-33.8,M,,*66
$PYRTM,2024,123.504023067801,14.613670477940
$GPGGA,120546.00,3416.4620,N,12039.6199,W,1,12,0.8,14.0,M,-33.8,M,,*6F
$PYRTM,2024,123.504031735243,14.613679145382
$GPGGA,120547.00,3416.4625,N,12039.6213,W,1,12,0.8,14.5,M,-33.8,M,,*6F
$PYRTM,2024,123.504043324062,14.613690734213
$GPGGA,120548.00,3416.4634,N,12039.6230,W,1,12,0.8,13.2,M,-33.8,M,,*61
$PYRTM,2024,123.504050716644,14.613698126782
$GPGGA,120549.00,3416.4642,N,12039.6243,W,1,12,0.8,12.2,M,-33.8,M,,*64
$PYRTM,2024,123.504069366655,14.613716776794
$GPGGA,120550.00,3416.4644,N,12039.6254,W,1,12,0.8,12.5,M,-33.8,M,,*6B
$PYRTM,2024,123.504078029167,14.613725439306
$GPGGA,120551.00,3416.4646,N,12039.6269,W,1,12,0.8,13.1,M,-33.8,M,,*63
$PYRTM,2024,123.504089632257,14.613737042384
$GPGGA,120552.00,3416.4650,N,12039.6287,W,1,12,0.8,13.6,M,-33.8,M,,*60
$PYRTM,2024,123.504101179444,14.613748589583
$GPGGA,120553.00,3416.4656,N,12039.6304,W,1,12,0.8,13.5,M,-33.8,M,,*6E
$PYRTM,2024,123.504112774792,14.613760184931
$GPGGA,120554.00,3416.4664,N,12039.6316,W,1,12,0.8,13.2,M,-33.8,M,,*6C
$PYRTM,2024,123.504120175822,14.613767585961
$GPGGA,120555.00,3416.4671,N,12039.6328,W,1,12,0.8,13.1,M,-33.8,M,,*67
$PYRTM,2024,123.504135915683,14.613783325833
$GPGGA,120556.00,3416.4673,N,12039.6342,W,1,12,0.8,13.3,M,-33.8,M,,*68
$PYRTM,2024,123.504147483009,14.613794893148
$GPGGA,120557.00,3416.4675,N,12039.6359,W,1,12,0.8,13.4,M,-33.8,M,,*62
$PYRTM,2024,123.504159062419,14.613806472558
$GPGGA,120558.00,3416.4681,N,12039.6376,W,1,12,0.8,13.0,M,-33.8,M,,*6F
$PYRTM,2024,123.504170631840,14.613818041979
$GPGGA,120559.00,3416.4688,N,12039.6391,W,1,12,0.8,13.0,M,-33.8,M,,*6E
$PYRTM,2024,123.504182215012,14.613829625162
$GPGGA,120600.00,3416.4695,N,12039.6404,W,1,12,0.8,13.2,M,-33.8,M,,*64
$PYRTM,2024,123.504193785312,14.613841195451
$GPGGA,120601.00,3416.4699,N,12039.6421,W,1,12,0.8,13.3,M,-33.8,M,,*6F
$PYRTM,2024,123.504205355787,14.613852765926
$GPGGA,120602.00,3416.4701,N,12039.6440,W,1,12,0.8,13.6,M,-33.8,M,,*6E
$PYRTM,2024,123.504216928553,14.613864338692
$GPGGA,120603.00,3416.4704,N,12039.6456,W,1,12,0.8,14.0,M,-33.8,M,,*6C
$PYRTM,2024,123.504228511354,14.613875921493
$GPGGA,120604.00,3416.4711,N,12039.6471,W,1,12,0.8,14.0,M,-33.8,M,,*6A
$PYRTM,2024,123.504235902639,14.613883312778
$GPGGA,120605.00,3416.4719,N,12039.6485,W,1,12,0.8,13.8,M,-33.8,M,,*67
$PYRTM,2024,123.504251658970,14.613899069109
$GPGGA,120606.00,3416.4725,N,12039.6502,W,1,12,0.8,13.3,M,-33.8,M,,*6E
$PYRTM,2024,123.504263229132,14.613910639259
$GPGGA,120607.00,3416.4727,N,12039.6521,W,1,12,0.8,12.8,M,-33.8,M,,*66
$PYRTM,2024,123.504274807697,14.613922217847
$GPGGA,120608.00,3416.4731,N,12039.6537,W,1,12,0.8,12.8,M,-33.8,M,,*69
$PYRTM,2024,123.504286373889,14.613933784028
$GPGGA,120609.00,3416.4740,N,12039.6551,W,1,12,0.8,13.1,M,-33.8,M,,*66
$PYRTM,2024,123.504297952940,14.613945363079
$GPGGA,120610.00,3416.4748,N,12039.6566,W,1,12,0.8,13.3,M,-33.8,M,,*60
$PYRTM,2024,123.504309526563,14.613956936701
$GPGGA,120611.00,3416.4754,N,12039.6583,W,1,12,0.8,13.5,M,-33.8,M,,*61
$PYRTM,2024,123.504321101539,14.613968511678
$GPGGA,120612.00,3416.4757,N,12039.6601,W,1,12,0.8,13.6,M,-33.8,M,,*6B
$PYRTM,2024,123.504332675498,14.613980085637
$GPGGA,120613.00,3416.4762,N,12039.6619,W,1,12,0.8,13.5,M,-33.8,M,,*66
$PYRTM,2024,123.504344249641,14.613991659780
$GPGGA,120614.00,3416.4769,N,12039.6635,W,1,12,0.8,13.3,M,-33.8,M,,*62
$PYRTM,2024,123.504355823924,14.614003234074
$GPGGA,120615.00,3416.4776,N,12039.6650,W,1,12,0.8,13.5,M,-33.8,M,,*68
$PYRTM,2024,123.504367400394,14.614014810532
$GPGGA,120616.00,3416.4780,N,12039.6663,W,1,12,0.8,14.4,M,-33.8,M,,*64
$PYRTM,2024,123.504374793229,14.614022203368
$GPGGA,120617.00,3416.4786,N,12039.6680,W,1,12,0.8,13.9,M,-33.8,M,,*64
$PYRTM,2024,123.504390549421,14.614037959572
$GPGGA,120618.00,3416.4794,N,12039.6703,W,1,12,0.8,12.6,M,-33.8,M,,*6C
$PYRTM,2024,123.504402120556,14.614049530694
$GPGGA,120619.00,3416.4798,N,12039.6723,W,1,12,0.8,12.1,M,-33.8,M,,*64
$PYRTM,2024,123.504409515313,14.614056925451
$GPGGA,120620.00,3416.4798,N,12039.6735,W,1,12,0.8,13.1,M,-33.8,M,,*68
$PYRTM,2024,123.504428150069,14.614075560208
$GPGGA,120621.00,3416.4802,N,12039.6745,W,1,12,0.8,14.6,M,-33.8,M,,*62
$PYRTM,2024,123.504436846574,14.614084256713
$GPGGA,120622.00,3416.4812,N,12039.6759,W,1,12,0.8,14.5,M,-33.8,M,,*6E
$PYRTM,2024,123.504448418368,14.614095828519
$GPGGA,120623.00,3416.4821,N,12039.6780,W,1,12,0.8,12.9,M,-33.8,M,,*61
$PYRTM,2024,123.504459991435,14.614107401574
$GPGGA,120624.00,3416.4823,N,12039.6799,W,1,12,0.8,11.9,M,-33.8,M,,*6F
$PYRTM,2024,123.504467402685,14.614114812836
$GPGGA,120625.00,3416.4821,N,12039.6812,W,1,12,0.8,12.3,M,-33.8,M,,*69
$PYRTM,2024,123.504483140590,14.614130550729
$GPGGA,120626.00,3416.4826,N,12039.6821,W,1,12,0.8,13.3,M,-33.8,M,,*6C
$PYRTM,2024,123.504494713981,14.614142124132
$GPGGA,120627.00,3416.4836,N,12039.6834,W,1,12,0.8,13.7,M,-33.8,M,,*6C
$PYRTM,2024,123.504506289213,14.614153699363
$GPGGA,120628.00,3416.4843,N,12039.6851,W,1,12,0.8,13.2,M,-33.8,M,,*67
$PYRTM,2024,123.504517861343,14.614165271481
$GPGGA,120629.00,3416.4843,N,12039.6868,W,1,12,0.8,12.7,M,-33.8,M,,*68
$PYRTM,2024,123.504525256817,14.614172666956
$GPGGA,120630.00,3416.4846,N,12039.6882,W,1,12,0.8,12.4,M,-33.8,M,,*62
$PYRTM,2024,123.504541010127,14.614188420266
$GPGGA,120631.00,3416.4854,N,12039.6893,W,1,12,0.8,12.2,M,-33.8,M,,*66
$PYRTM,2024,123.504552586343,14.614199996481
$GPGGA,120632.00,3416.4860,N,12039.6904,W,1,12,0.8,12.5,M,-33.8,M,,*6A
$PYRTM,2024,123.504564159294,14.614211569433
$GPGGA,120633.00,3416.4861,N,12039.6920,W,1,12,0.8,13.1,M,-33.8,M,,*69
$PYRTM,2024,123.504575736366,14.614223146505
$GPGGA,120634.00,3416.4863,N,12039.6939,W,1,12,0.8,13.4,M,-33.8,M,,*61
$PYRTM,2024,123.504587307870,14.614234718009
$GPGGA,120635.00,3416.4869,N,12039.6954,W,1,12,0.8,13.1,M,-33.8,M,,*64
$PYRTM,2024,123.504598887130,14.614246297269
$GPGGA,120636.00,3416.4875,N,12039.6966,W,1,12,0.8,12.9,M,-33.8,M,,*62
$PYRTM,2024,123.504610455949,14.614257866088
$GPGGA,120637.00,3416.4877,N,12039.6977,W,1,12,0.8,13.3,M,-33.8,M,,*6A
$PYRTM,2024,123.504622030116,14.614269440255
$GPGGA,120638.00,3416.4880,N,12039.6992,W,1,12,0.8,13.3,M,-33.8,M,,*66
$PYRTM,2024,123.504633598924,14.614281009063
$GPGGA,120639.00,3416.4886,N,12039.7012,W,1,12,0.8,11.9,M,-33.8,M,,*69
$PYRTM,2024,123.504645178437,14.614292588576
$GPGGA,120640.00,3416.4892,N,12039.7029,W,1,12,0.8,11.2,M,-33.8,M,,*61
$PYRTM,2024,123.504656752813,14.614304162951
$GPGGA,120641.00,3416.4894,N,12039.7039,W,1,12,0.8,12.1,M,-33.8,M,,*67
$PYRTM,2024,123.504668326574,14.614315736713
$GPGGA,120642.00,3416.4894,N,12039.7048,W,1,12,0.8,13.6,M,-33.8,M,,*64
$PYRTM,2024,123.504679900081,14.614327310220
$GPGGA,120643.00,3416.4897,N,12039.7061,W,1,12,0.8,14.5,M,-33.8,M,,*69
$PYRTM,2024,123.504691478553,14.614338888704
$GPGGA,120644.00,3416.4903,N,12039.7078,W,1,12,0.8,13.6,M,-33.8,M,,*6E
$PYRTM,2024,123.504698872037,14.614346282176
$GPGGA,120645.00,3416.4909,N,12039.7094,W,1,12,0.8,11.9,M,-33.8,M,,*6A
$PYRTM,2024,123.504714637384,14.614362047523
$GPGGA,120646.00,3416.4914,N,12039.7106,W,1,12,0.8,11.0,M,-33.8,M,,*66
$PYRTM,2024,123.504726197859,14.614373607998
$GPGGA,120647.00,3416.4917,N,12039.7117,W,1,12,0.8,11.6,M,-33.8,M,,*62
$PYRTM,2024,123.504737775046,14.614385185185
$GPGGA,120648.00,3416.4916,N,12039.7129,W,1,12,0.8,13.2,M,-33.8,M,,*67
$PYRTM,2024,123.504745165069,14.614392575208
$GPGGA,120649.00,3416.4919,N,12039.7146,W,1,12,0.8,14.3,M,-33.8,M,,*66
$PYRTM,2024,123.504760924907,14.614408335046
$GPGGA,120650.00,3416.4926,N,12039.7165,W,1,12,0.8,13.7,M,-33.8,M,,*60
$PYRTM,2024,123.504768327176,14.614415737315
$GPGGA,120651.00,3416.4931,N,12039.7178,W,1,12,0.8,12.9,M,-33.8,M,,*64
$PYRTM,2024,123.504786964815,14.614434374942
$GPGGA,120652.00,3416.4932,N,12039.7187,W,1,12,0.8,12.7,M,-33.8,M,,*6A
$PYRTM,2024,123.504795640833,14.614443050972
$GPGGA,120653.00,3416.4931,N,12039.7201,W,1,12,0.8,12.9,M,-33.8,M,,*6B
$PYRTM,2024,123.504807215706,14.614454625845
$GPGGA,120654.00,3416.4935,N,12039.7218,W,1,12,0.8,12.5,M,-33.8,M,,*6C
$PYRTM,2024,123.504818790266,14.614466200405
$GPGGA,120655.00,3416.4941,N,12039.7233,W,1,12,0.8,12.2,M,-33.8,M,,*60
$PYRTM,2024,123.504830379248,14.614477789387
$GPGGA,120656.00,3416.4946,N,12039.7245,W,1,12,0.8,12.7,M,-33.8,M,,*60
$PYRTM,2024,123.504841940509,14.614489350648
$GPGGA,120657.00,3416.4948,N,12039.7258,W,1,12,0.8,13.6,M,-33.8,M,,*63
$PYRTM,2024,123.504849335104,14.614496745243
$GPGGA,120658.00,3416.4949,N,12039.7276,W,1,12,0.8,13.9,M,-33.8,M,,*6E
$PYRTM,2024,123.504865088079,14.614512498218
$GPGGA,120659.00,3416.4951,N,12039.7294,W,1,12,0.8,13.6,M,-33.8,M,,*65
$PYRTM,2024,123.504876669306,14.614524079444
$GPGGA,120700.00,3416.4956,N,12039.7305,W,1,12,0.8,13.2,M,-33.8,M,,*62
$PYRTM,2024,123.504888236262,14.614535646400
$GPGGA,120701.00,3416.4961,N,12039.7316,W,1,12,0.8,13.1,M,-33.8,M,,*66
$PYRTM,2024,123.504899835185,14.614547245324
$GPGGA,120702.00,3416.4966,N,12039.7327,W,1,12,0.8,13.2,M,-33.8,M,,*63
$PYRTM,2024,123.504907211840,14.614554621979
$GPGGA,120703.00,3416.4971,N,12039.7339,W,1,12,0.8,13.6,M,-33.8,M,,*6F
$PYRTM,2024,123.504922966759,14.614570376898
$GPGGA,120704.00,3416.4974,N,12039.7356,W,1,12,0.8,13.6,M,-33.8,M,,*64
$PYRTM,2024,123.504934532049,14.614581942188
$GPGGA,120705.00,3416.4977,N,12039.7375,W,1,12,0.8,13.2,M,-33.8,M,,*63
$PYRTM,2024,123.504946106204,14.614593516343
$GPGGA,120706.00,3416.4982,N,12039.7392,W,1,12,0.8,12.7,M,-33.8,M,,*67
$PYRTM,2024,123.504957680544,14.614605090683
$GPGGA,120707.00,3416.4989,N,12039.7402,W,1,12,0.8,12.9,M,-33.8,M,,*6D
$PYRTM,2024,123.504965074988,14.614612485127
$GPGGA,120708.00,3416.4994,N,12039.7411,W,1,12,0.8,13.7,M,-33.8,M,,*63
$PYRTM,2024,123.504980829039,14.614628239178
$GPGGA,120709.00,3416.4997,N,12039.7425,W,1,12,0.8,14.5,M,-33.8,M,,*63
$PYRTM,2024,123.504992402975,14.614639813113
$GPGGA,120710.00,3416.5002,N,12039.7445,W,1,12,0.8,14.0,M,-33.8,M,,*6C
$PYRTM,2024,123.505003973646,14.614651383796
$GPGGA,120711.00,3416.5008,N,12039.7464,W,1,12,0.8,12.7,M,-33.8,M,,*65
$PYRTM,2024,123.505015551586,14.614662961725
$GPGGA,120712.00,3416.5012,N,12039.7478,W,1,12,0.8,12.2,M,-33.8,M,,*65
$PYRTM,2024,123.505027125463,14.614674535602
$GPGGA,120713.00,3416.5014,N,12039.7487,W,1,12,0.8,13.0,M,-33.8,M,,*61
$PYRTM,2024,123.505038699826,14.614686109965
$GPGGA,120714.00,3416.5017,N,12039.7499,W,1,12,0.8,13.8,M,-33.8,M,,*62
$PYRTM,2024,123.505050273576,14.614697683715
$GPGGA,120715.00,3416.5023,N,12039.7516,W,1,12,0.8,13.3,M,-33.8,M,,*69
$PYRTM,2024,123.505057668900,14.614705079039
$GPGGA,120716.00,3416.5029,N,12039.7532,W,1,12,0.8,12.2,M,-33.8,M,,*66
$PYRTM,2024,123.505073422847,14.614720832986
$GPGGA,120717.00,3416.5034,N,12039.7543,W,1,12,0.8,11.8,M,-33.8,M,,*64
$PYRTM,2024,123.505085016620,14.614732426759
$GPGGA,120718.00,3416.5039,N,12039.7553,W,1,12,0.8,12.1,M,-33.8,M,,*6D
$PYRTM,2024,123.505092397639,14.614739807778
$GPGGA,120719.00,3416.5043,N,12039.7567,W,1,12,0.8,12.5,M,-33.8,M,,*62
$PYRTM,2024,123.505108156574,14.614755566713
$GPGGA,120720.00,3416.5046,N,12039.7583,W,1,12,0.8,12.9,M,-33.8,M,,*6B
$PYRTM,2024,123.505115555058,14.614762965208
$GPGGA,120721.00,3416.5050,N,12039.7600,W,1,12,0.8,13.2,M,-33.8,M,,*6F
$PYRTM,2024,123.505134187650,14.614781597789
$GPGGA,120722.00,3416.5055,N,12039.7613,W,1,12,0.8,13.1,M,-33.8,M,,*68
$PYRTM,2024,123.505142867442,14.614790277581
$GPGGA,120723.00,3416.5062,N,12039.7623,W,1,12,0.8,13.0,M,-33.8,M,,*6F
$PYRTM,2024,123.505154453090,14.614801863229
$GPGGA,120724.00,3416.5068,N,12039.7636,W,1,12,0.8,12.7,M,-33.8,M,,*60
$PYRTM,2024,123.505166016933,14.614813427072
$GPGGA,120725.00,3416.5070,N,12039.7654,W,1,12,0.8,12.1,M,-33.8,M,,*6A
$PYRTM,2024,123.505177589618,14.614824999757
$GPGGA,120726.00,3416.5073,N,12039.7673,W,1,12,0.8,11.7,M,-33.8,M,,*6A
$PYRTM,2024,123.505189164097,14.614836574236
$GPGGA,120727.00,3416.5079,N,12039.7684,W,1,12,0.8,11.9,M,-33.8,M,,*67
$PYRTM,2024,123.505200739167,14.614848149306
$GPGGA,120728.00,3416.5088,N,12039.7691,W,1,12,0.8,13.1,M,-33.8,M,,*68
$PYRTM,2024,123.505208139931,14.614855550069
$GPGGA,120729.00,3416.5095,N,12039.7701,W,1,12,0.8,14.3,M,-33.8,M,,*68
$PYRTM,2024,123.505223894676,14.614871304826
$GPGGA,120730.00,3416.5097,N,12039.7719,W,1,12,0.8,14.6,M,-33.8,M,,*6E
$PYRTM,2024,123.505235461065,14.614882871204
$GPGGA,120731.00,3416.5098,N,12039.7739,W,1,12,0.8,13.4,M,-33.8,M,,*67
$PYRTM,2024,123.505247042951,14.614894453090
$GPGGA,120732.00,3416.5102,N,12039.7754,W,1,12,0.8,12.5,M,-33.8,M,,*6D
$PYRTM,2024,123.505258608970,14.614906019109
$GPGGA,120733.00,3416.5112,N,12039.7763,W,1,12,0.8,12.2,M,-33.8,M,,*6E
$PYRTM,2024,123.505266004282,14.614913414421
$GPGGA,120734.00,3416.5122,N,12039.7772,W,1,12,0.8,12.4,M,-33.8,M,,*6C
$PYRTM,2024,123.505281757257,14.614929167396
$GPGGA,120735.00,3416.5127,N,12039.7788,W,1,12,0.8,13.0,M,-33.8,M,,*68
$PYRTM,2024,123.505293331215,14.614940741354
$GPGGA,120736.00,3416.5126,N,12039.7804,W,1,12,0.8,13.9,M,-33.8,M,,*68
$PYRTM,2024,123.505304908345,14.614952318484
$GPGGA,120737.00,3416.5126,N,12039.7821,W,1,12,0.8,14.5,M,-33.8,M,,*65
$PYRTM,2024,123.505316479549,14.614963889688
$GPGGA,120738.00,3416.5133,N,12039.7840,W,1,12,0.8,14.0,M,-33.8,M,,*6C
$PYRTM,2024,123.505328054792,14.614975464931
$GPGGA,120739.00,3416.5143,N,12039.7857,W,1,12,0.8,12.7,M,-33.8,M,,*6D
$PYRTM,2024,123.505339641192,14.614987051331
$GPGGA,120740.00,3416.5151,N,12039.7867,W,1,12,0.8,12.5,M,-33.8,M,,*61
$PYRTM,2024,123.505351203611,14.614998613750
$GPGGA,120741.00,3416.5154,N,12039.7874,W,1,12,0.8,13.4,M,-33.8,M,,*67
$PYRTM,2024,123.505358598565,14.615006008704
$GPGGA,120742.00,3416.5155,N,12039.7889,W,1,12,0.8,13.9,M,-33.8,M,,*6A
$PYRTM,2024,123.505374350278,14.615021760417
$GPGGA,120743.00,3416.5160,N,12039.7908,W,1,12,0.8,13.3,M,-33.8,M,,*6F
$PYRTM,2024,123.505385935012,14.615033345150
$GPGGA,120744.00,3416.5166,N,12039.7923,W,1,12,0.8,12.7,M,-33.8,M,,*62
$PYRTM,2024,123.505397614826,14.615045024965
$GPGGA,120745.00,3416.5171,N,12039.7931,W,1,12,0.8,12.8,M,-33.8,M,,*69
$PYRTM,2024,123.505409081979,14.615056492118
$GPGGA,120746.00,3416.5176,N,12039.7941,W,1,12,0.8,13.2,M,-33.8,M,,*61
$PYRTM,2024,123.505416479491,14.615063889630
$GPGGA,120747.00,3416.5181,N,12039.7955,W,1,12,0.8,12.9,M,-33.8,M,,*67
$PYRTM,2024,123.505432230046,14.615079640185
$GPGGA,120748.00,3416.5187,N,12039.7973,W,1,12,0.8,12.0,M,-33.8,M,,*63
$PYRTM,2024,123.505443796586,14.615091206725
$GPGGA,120749.00,3416.5189,N,12039.7989,W,1,12,0.8,12.0,M,-33.8,M,,*69
$PYRTM,2024,123.505455369780,14.615102779919
$GPGGA,120750.00,3416.5191,N,12039.8001,W,1,12,0.8,12.7,M,-33.8,M,,*69
$PYRTM,2024,123.505466944919,14.615114355046
$GPGGA,120751.00,3416.5195,N,12039.8012,W,1,12,0.8,13.5,M,-33.8,M,,*6D
$PYRTM,2024,123.505474339097,14.615121749236
$GPGGA,120752.00,3416.5202,N,12039.8027,W,1,12,0.8,13.1,M,-33.8,M,,*61
$PYRTM,2024,123.505492987951,14.615140398090
$GPGGA,120753.00,3416.5210,N,12039.8045,W,1,12,0.8,12.2,M,-33.8,M,,*65
$PYRTM,2024,123.505501677523,14.615149087662
$GPGGA,120754.00,3416.5211,N,12039.8059,W,1,12,0.8,12.0,M,-33.8,M,,*6C
$PYRTM,2024,123.505513241458,14.615160651597
$GPGGA,120755.00,3416.5211,N,12039.8071,W,1,12,0.8,12.5,M,-33.8,M,,*62
$PYRTM,2024,123.505524815104,14.615172225243
$GPGGA,120756.00,3416.5215,N,12039.8086,W,1,12,0.8,12.6,M,-33.8,M,,*6E
$PYRTM,2024,123.505536389606,14.615183799745
$GPGGA,120757.00,3416.5223,N,12039.8105,W,1,12,0.8,11.8,M,-33.8,M,,*6D
$PYRTM,2024,123.505547971586,14.615195381725
$GPGGA,120758.00,3416.5229,N,12039.8119,W,1,12,0.8,11.8,M,-33.8,M,,*65
$PYRTM,2024,123.505559533935,14.615206944074
$GPGGA,120759.00,3416.5230,N,12039.8128,W,1,12,0.8,12.9,M,-33.8,M,,*6C
$PYRTM,2024,123.505571119699,14.615218529838
$GPGGA,120800.00,3416.5231,N,12039.8139,W,1,12,0.8,14.0,M,-33.8,M,,*61
$PYRTM,2024,123.505582686562,14.615230096701
$GPGGA,120801.00,3416.5236,N,12039.8156,W,1,12,0.8,13.9,M,-33.8,M,,*60
$PYRTM,2024,123.505594272269,14.615241682419
$GPGGA,120802.00,3416.5241,N,12039.8170,W,1,12,0.8,13.3,M,-33.8,M,,*6D
$PYRTM,2024,123.505601667662,14.615249077801
$GPGGA,120803.00,3416.5245,N,12039.8181,W,1,12,0.8,13.2,M,-33.8,M,,*67
$PYRTM,2024,123.505617421447,14.615264831586
$GPGGA,120804.00,3416.5246,N,12039.8194,W,1,12,0.8,13.2,M,-33.8,M,,*67
$PYRTM,2024,123.505628979456,14.615276389595
$GPGGA,120805.00,3416.5248,N,12039.8212,W,1,12,0.8,13.0,M,-33.8,M,,*67
$PYRTM,2024,123.505640569005,14.615287979144
$GPGGA,120806.00,3416.5253,N,12039.8228,W,1,12,0.8,12.6,M,-33.8,M,,*60
$PYRTM,2024,123.505652126690,14.615299536829
$GPGGA,120807.00,3416.5260,N,12039.8239,W,1,12,0.8,12.7,M,-33.8,M,,*60
$PYRTM,2024,123.505663706377,14.615311116516
$GPGGA,120808.00,3416.5265,N,12039.8250,W,1,12,0.8,13.4,M,-33.8,M,,*67
$PYRTM,2024,123.505675280081,14.615322690220
$GPGGA,120809.00,3416.5266,N,12039.8265,W,1,12,0.8,14.1,M,-33.8,M,,*61
$PYRTM,2024,123.505686864884,14.615334275023
$GPGGA,120810.00,3416.5267,N,12039.8283,W,1,12,0.8,14.3,M,-33.8,M,,*62
$PYRTM,2024,123.505698428021,14.615345838160
$GPGGA,120811.00,3416.5273,N,12039.8298,W,1,12,0.8,13.6,M,-33.8,M,,*6E
$PYRTM,2024,123.505710001505,14.615357411655
$GPGGA,120812.00,3416.5281,N,12039.8311,W,1,12,0.8,12.9,M,-33.8,M,,*6E
$PYRTM,2024,123.505721578264,14.615368988403
$GPGGA,120813.00,3416.5285,N,12039.8326,W,1,12,0.8,12.5,M,-33.8,M,,*63
$PYRTM,2024,123.505733159618,14.615380569757
$GPGGA,120814.00,3416.5288,N,12039.8343,W,1,12,0.8,12.6,M,-33.8,M,,*69
$PYRTM,2024,123.505744720093,14.615392130231
$GPGGA,120815.00,3416.5291,N,12039.8359,W,1,12,0.8,13.4,M,-33.8,M,,*68
$PYRTM,2024,123.505752119514,14.615399529653
$GPGGA,120816.00,3416.5298,N,12039.8371,W,1,12,0.8,14.5,M,-33.8,M,,*6E
$PYRTM,2024,123.505767867558,14.615415277697
$GPGGA,120817.00,3416.5307,N,12039.8384,W,1,12,0.8,14.7,M,-33.8,M,,*60
$PYRTM,2024,123.505779459271,14.615426869410
$GPGGA,120818.00,3416.5313,N,12039.8401,W,1,12,0.8,14.0,M,-33.8,M,,*67
$PYRTM,2024,123.505791020370,14.615438430509
$GPGGA,120819.00,3416.5314,N,12039.8418,W,1,12,0.8,13.6,M,-33.8,M,,*68
$PYRTM,2024,123.505802595359,14.615450005498
$GPGGA,120820.00,3416.5315,N,12039.8432,W,1,12,0.8,13.7,M,-33.8,M,,*6A
$PYRTM,2024,123.505814174028,14.615461584167
$GPGGA,120821.00,3416.5323,N,12039.8443,W,1,12,0.8,13.8,M,-33.8,M,,*67
$PYRTM,2024,123.505825754931,14.615473165069
$GPGGA,120822.00,3416.5332,N,12039.8456,W,1,12,0.8,13.2,M,-33.8,M,,*6A
$PYRTM,2024,123.505833150012,14.615480560150
$GPGGA,120823.00,3416.5338,N,12039.8471,W,1,12,0.8,12.8,M,-33.8,M,,*6F
$PYRTM,2024,123.505851780197,14.615499190336
$GPGGA,120824.00,3416.5340,N,12039.8485,W,1,12,0.8,13.2,M,-33.8,M,,*67
$PYRTM,2024,123.505860466829,14.615507876968
$GPGGA,120825.00,3416.5342,N,12039.8498,W,1,12,0.8,14.2,M,-33.8,M,,*6F
$PYRTM,2024,123.505872048403,14.615519458542
$GPGGA,120826.00,3416.5350,N,12039.8513,W,1,12,0.8,14.0,M,-33.8,M,,*6F
$PYRTM,2024,123.505883615926,14.615531026076
$GPGGA,120827.00,3416.5361,N,12039.8529,W,1,12,0.8,12.8,M,-33.8,M,,*6B
$PYRTM,2024,123.505895196157,14.615542606296
$GPGGA,120828.00,3416.5371,N,12039.8544,W,1,12,0.8,11.6,M,-33.8,M,,*63
$PYRTM,2024,123.505906763542,14.615554173681
$GPGGA,120829.00,3416.5372,N,12039.8559,W,1,12,0.8,11.8,M,-33.8,M,,*63
$PYRTM,2024,123.505918345278,14.615565755417
$GPGGA,120830.00,3416.5370,N,12039.8572,W,1,12,0.8,13.0,M,-33.8,M,,*6A
$PYRTM,2024,123.505925756516,14.615573166655
$GPGGA,120831.00,3416.5374,N,12039.8587,W,1,12,0.8,13.8,M,-33.8,M,,*6D
$PYRTM,2024,123.505941485914,14.615588896053
$GPGGA,120832.00,3416.5384,N,12039.8605,W,1,12,0.8,13.5,M,-33.8,M,,*65
$PYRTM,2024,123.505953061528,14.615600471678
$GPGGA,120833.00,3416.5390,N,12039.8621,W,1,12,0.8,13.0,M,-33.8,M,,*62
$PYRTM,2024,123.505964644884,14.615612055023
$GPGGA,120834.00,3416.5387,N,12039.8634,W,1,12,0.8,13.2,M,-33.8,M,,*65
$PYRTM,2024,123.505976205787,14.615623615926
$GPGGA,120835.00,3416.5385,N,12039.8651,W,1,12,0.8,13.4,M,-33.8,M,,*63
$PYRTM,2024,123.505983604444,14.615631014583
$GPGGA,120836.00,3416.5390,N,12039.8671,W,1,12,0.8,12.8,M,-33.8,M,,*6B
