$PYRTM,2024,128.083336987778,19.192984397917
$GPGGA,015959.00,3304.9229,N,11812.3279,W,1,09,0.8,8.1,M,-34.6,M,,*5B
$PYRTM,2024,128.083348587431,19.192995997569
$GPGGA,020000.00,3304.9227,N,11812.3271,W,1,09,0.8,8.1,M,-34.6,M,,*5E
$PYRTM,2024,128.083360135775,19.193007545914
$GPGGA,020001.00,3304.9224,N,11812.3263,W,1,09,0.8,8.0,M,-34.6,M,,*5E
$PYRTM,2024,128.083371717361,19.193019127500
$GPGGA,020002.00,3304.9220,N,11812.3255,W,1,09,0.8,7.9,M,-34.6,M,,*5A
$PYRTM,2024,128.083383284340,19.193030694479
$GPGGA,020003.00,3304.9216,N,11812.3247,W,1,09,0.8,7.8,M,-34.6,M,,*5C
$PYRTM,2024,128.083394871759,19.193042281898
$GPGGA,020004.00,3304.9214,N,11812.3239,W,1,09,0.8,7.7,M,-34.6,M,,*5F
$PYRTM,2024,128.083406431933,19.193053842072
$GPGGA,020005.00,3304.9212,N,11812.3229,W,1,09,0.8,7.7,M,-34.6,M,,*59
$PYRTM,2024,128.083418019988,19.193065430127
$GPGGA,020006.00,3304.9209,N,11812.3219,W,1,09,0.8,7.9,M,-34.6,M,,*5D
$PYRTM,2024,128.083429580810,19.193076990949
$GPGGA,020007.00,3304.9205,N,11812.3211,W,1,09,0.8,8.3,M,-34.6,M,,*5D
$PYRTM,2024,128.083441168438,19.193088578588
$GPGGA,020008.00,3304.9200,N,11812.3203,W,1,09,0.8,8.8,M,-34.6,M,,*5F
$PYRTM,2024,128.083452728495,19.193100138646
$GPGGA,020009.00,3304.9198,N,11812.3195,W,1,09,0.8,9.1,M,-34.6,M,,*58
$PYRTM,2024,128.083464316134,19.193111726285
$GPGGA,020010.00,3304.9197,N,11812.3185,W,1,09,0.8,9.0,M,-34.6,M,,*5F
$PYRTM,2024,128.083471711968,19.193119122118
$GPGGA,020011.00,3304.9196,N,11812.3176,W,1,09,0.8,8.6,M,-34.6,M,,*54
$PYRTM,2024,128.083487466690,19.193134876829
$GPGGA,020012.00,3304.9193,N,11812.3167,W,1,09,0.8,8.1,M,-34.6,M,,*55
$PYRTM,2024,128.083499025023,19.193146435162
$GPGGA,020013.00,3304.9189,N,11812.3159,W,1,09,0.8,7.7,M,-34.6,M,,*5B
$PYRTM,2024,128.083510614838,19.193158024977
$GPGGA,020014.00,3304.9186,N,11812.3151,W,1,09,0.8,7.6,M,-34.6,M,,*5A
$PYRTM,2024,128.083518020463,19.193165430613
$GPGGA,020015.00,3304.9184,N,11812.3143,W,1,09,0.8,8.0,M,-34.6,M,,*53
$PYRTM,2024,128.083533761528,19.193181171667
$GPGGA,020016.00,3304.9183,N,11812.3134,W,1,09,0.8,8.3,M,-34.6,M,,*54
$PYRTM,2024,128.083545334213,19.193192744352
$GPGGA,020017.00,3304.9179,N,11812.3126,W,1,09,0.8,8.5,M,-34.6,M,,*55
$PYRTM,2024,128.083552730451,19.193200140590
$GPGGA,020018.00,3304.9174,N,11812.3117,W,1,09,0.8,8.3,M,-34.6,M,,*53
$PYRTM,2024,128.083568482188,19.193215892326
$GPGGA,020019.00,3304.9171,N,11812.3108,W,1,09,0.8,8.1,M,-34.6,M,,*5B
$PYRTM,2024,128.083580057338,19.193227467477
$GPGGA,020020.00,3304.9168,N,11812.3098,W,1,09,0.8,7.9,M,-34.6,M,,*56
$PYRTM,2024,128.083591632975,19.193239043113
$GPGGA,020021.00,3304.9167,N,11812.3089,W,1,09,0.8,7.9,M,-34.6,M,,*58
$PYRTM,2024,128.083603208900,19.193250619039
$GPGGA,020022.00,3304.9164,N,11812.3080,W,1,09,0.8,8.0,M,-34.6,M,,*57
$PYRTM,2024,128.083614778773,19.193262188912
$GPGGA,020023.00,3304.9161,N,11812.3073,W,1,09,0.8,8.2,M,-34.6,M,,*5D
$PYRTM,2024,128.083626353206,19.193273763356
$GPGGA,020024.00,3304.9157,N,11812.3065,W,1,09,0.8,8.4,M,-34.6,M,,*5E
$PYRTM,2024,128.083633748889,19.193281159028
$GPGGA,020025.00,3304.9155,N,11812.3056,W,1,09,0.8,8.6,M,-34.6,M,,*5F
$PYRTM,2024,128.083652396505,19.193299806644
$GPGGA,020026.00,3304.9154,N,11812.3047,W,1,09,0.8,8.7,M,-34.6,M,,*5C
$PYRTM,2024,128.083661071609,19.193308481748
$GPGGA,020027.00,3304.9152,N,11812.3037,W,1,09,0.8,8.5,M,-34.6,M,,*5E
$PYRTM,2024,128.083668472083,19.193315882222
$GPGGA,020028.00,3304.9149,N,11812.3029,W,1,09,0.8,8.4,M,-34.6,M,,*55
$PYRTM,2024,128.083684224143,19.193331634282
$GPGGA,020029.00,3304.9146,N,11812.3020,W,1,09,0.8,8.3,M,-34.6,M,,*55
$PYRTM,2024,128.083695798657,19.193343208808
$GPGGA,020030.00,3304.9143,N,11812.3012,W,1,09,0.8,8.1,M,-34.6,M,,*5B
$PYRTM,2024,128.083707367465,19.193354777604
$GPGGA,020031.00,3304.9141,N,11812.3003,W,1,09,0.8,8.1,M,-34.6,M,,*58
$PYRTM,2024,128.083718949907,19.193366360046
$GPGGA,020032.00,3304.9138,N,11812.2995,W,1,09,0.8,8.0,M,-34.6,M,,*53
$PYRTM,2024,128.083730520799,19.193377930938
$GPGGA,020033.00,3304.9135,N,11812.2986,W,1,09,0.8,8.0,M,-34.6,M,,*5D
$PYRTM,2024,128.083742094931,19.193389505069
$GPGGA,020034.00,3304.9132,N,11812.2977,W,1,09,0.8,8.0,M,-34.6,M,,*53
$PYRTM,2024,128.083753669190,19.193401079329
$GPGGA,020035.00,3304.9129,N,11812.2969,W,1,09,0.8,8.0,M,-34.6,M,,*57
$PYRTM,2024,128.083765244201,19.193412654340
$GPGGA,020036.00,3304.9126,N,11812.2960,W,1,09,0.8,8.1,M,-34.6,M,,*53
$PYRTM,2024,128.083776816377,19.193424226516
$GPGGA,020037.00,3304.9123,N,11812.2950,W,1,09,0.8,8.2,M,-34.6,M,,*57
$PYRTM,2024,128.083788391563,19.193435801701
$GPGGA,020038.00,3304.9120,N,11812.2942,W,1,09,0.8,8.4,M,-34.6,M,,*5E
$PYRTM,2024,128.083799960220,19.193447370359
$GPGGA,020039.00,3304.9119,N,11812.2933,W,1,09,0.8,8.6,M,-34.6,M,,*51
$PYRTM,2024,128.083811555046,19.193458965185
$GPGGA,020040.00,3304.9116,N,11812.2924,W,1,09,0.8,8.6,M,-34.6,M,,*56
$PYRTM,2024,128.083823113194,19.193470523345
$GPGGA,020041.00,3304.9113,N,11812.2915,W,1,09,0.8,8.4,M,-34.6,M,,*52
$PYRTM,2024,128.083834690995,19.193482101134
$GPGGA,020042.00,3304.9111,N,11812.2906,W,1,09,0.8,8.3,M,-34.6,M,,*56
$PYRTM,2024,128.083846260752,19.193493670891
$GPGGA,020043.00,3304.9109,N,11812.2897,W,1,09,0.8,8.3,M,-34.6,M,,*57
$PYRTM,2024,128.083857835937,19.193505246076
$GPGGA,020044.00,3304.9106,N,11812.2889,W,1,09,0.8,8.4,M,-34.6,M,,*57
$PYRTM,2024,128.083865243264,19.193512653403
$GPGGA,020045.00,3304.9103,N,11812.2881,W,1,09,0.8,8.3,M,-34.6,M,,*5C
$PYRTM,2024,128.083876921690,19.193524331829
$GPGGA,020046.00,3304.9101,N,11812.2873,W,1,09,0.8,8.1,M,-34.6,M,,*52
$PYRTM,2024,128.083888508623,19.193535918773
$GPGGA,020047.00,3304.9099,N,11812.2863,W,1,09,0.8,8.0,M,-34.6,M,,*53
$PYRTM,2024,128.083904133090,19.193551543229
$GPGGA,020048.00,3304.9096,N,11812.2854,W,1,09,0.8,7.8,M,-34.6,M,,*50
$PYRTM,2024,128.083915702361,19.193563112500
$GPGGA,020049.00,3304.9092,N,11812.2846,W,1,09,0.8,7.8,M,-34.6,M,,*56
$PYRTM,2024,128.083927280451,19.193574690590
$GPGGA,020050.00,3304.9089,N,11812.2838,W,1,09,0.8,8.1,M,-34.6,M,,*5B
$PYRTM,2024,128.083938854595,19.193586264734
$GPGGA,020051.00,3304.9087,N,11812.2829,W,1,09,0.8,8.5,M,-34.6,M,,*50
$PYRTM,2024,128.083950429248,19.193597839387
$GPGGA,020052.00,3304.9084,N,11812.2820,W,1,09,0.8,8.6,M,-34.6,M,,*5A
$PYRTM,2024,128.083962003333,19.193609413472
$GPGGA,020053.00,3304.9080,N,11812.2810,W,1,09,0.8,8.6,M,-34.6,M,,*5C
$PYRTM,2024,128.083969398623,19.193616808762
$GPGGA,020054.00,3304.9077,N,11812.2802,W,1,09,0.8,8.5,M,-34.6,M,,*53
$PYRTM,2024,128.083985151181,19.193632561319
$GPGGA,020055.00,3304.9074,N,11812.2793,W,1,09,0.8,8.5,M,-34.6,M,,*56
$PYRTM,2024,128.083992546470,19.193639956609
$GPGGA,020056.00,3304.9072,N,11812.2784,W,1,09,0.8,8.4,M,-34.6,M,,*54
$PYRTM,2024,128.084011181632,19.193658591771
$GPGGA,020057.00,3304.9070,N,11812.2775,W,1,09,0.8,8.4,M,-34.6,M,,*59
$PYRTM,2024,128.084022770949,19.193670181100
$GPGGA,020058.00,3304.9067,N,11812.2767,W,1,09,0.8,8.5,M,-34.6,M,,*52
$PYRTM,2024,128.084031448044,19.193678858183
$GPGGA,020059.00,3304.9064,N,11812.2759,W,1,09,0.8,8.6,M,-34.6,M,,*5E
$PYRTM,2024,128.084043022720,19.193690432859
$GPGGA,020100.00,3304.9062,N,11812.2751,W,1,09,0.8,8.8,M,-34.6,M,,*53
$PYRTM,2024,128.084054599317,19.193702009468
$GPGGA,020101.00,3304.9060,N,11812.2742,W,1,09,0.8,8.7,M,-34.6,M,,*5D
$PYRTM,2024,128.084066170174,19.193713580312
$GPGGA,020102.00,3304.9058,N,11812.2733,W,1,09,0.8,8.5,M,-34.6,M,,*51
$PYRTM,2024,128.084077744294,19.193725154433
$GPGGA,020103.00,3304.9055,N,11812.2724,W,1,09,0.8,8.4,M,-34.6,M,,*5A
$PYRTM,2024,128.084089318056,19.193736728194
$GPGGA,020104.00,3304.9052,N,11812.2715,W,1,09,0.8,8.4,M,-34.6,M,,*58
$PYRTM,2024,128.084096713206,19.193744123345
$GPGGA,020105.00,3304.9049,N,11812.2706,W,1,09,0.8,8.5,M,-34.6,M,,*50
$PYRTM,2024,128.084112466493,19.193759876632
$GPGGA,020106.00,3304.9046,N,11812.2697,W,1,09,0.8,8.7,M,-34.6,M,,*57
$PYRTM,2024,128.084124035370,19.193771445509
$GPGGA,020107.00,3304.9043,N,11812.2688,W,1,09,0.8,8.9,M,-34.6,M,,*53
$PYRTM,2024,128.084135630613,19.193783040752
$GPGGA,020108.00,3304.9040,N,11812.2679,W,1,09,0.8,8.8,M,-34.6,M,,*50
$PYRTM,2024,128.084147188287,19.193794598426
$GPGGA,020109.00,3304.9036,N,11812.2670,W,1,09,0.8,8.6,M,-34.6,M,,*57
$PYRTM,2024,128.084158766157,19.193806176296
$GPGGA,020110.00,3304.9033,N,11812.2661,W,1,09,0.8,8.3,M,-34.6,M,,*5F
$PYRTM,2024,128.084170338194,19.193817748333
$GPGGA,020111.00,3304.9030,N,11812.2652,W,1,09,0.8,8.1,M,-34.6,M,,*5F
$PYRTM,2024,128.084181910868,19.193829321007
$GPGGA,020112.00,3304.9027,N,11812.2644,W,1,09,0.8,8.2,M,-34.6,M,,*5E
$PYRTM,2024,128.084193486562,19.193840896701
$GPGGA,020113.00,3304.9024,N,11812.2636,W,1,09,0.8,8.6,M,-34.6,M,,*5D
$PYRTM,2024,128.084205059942,19.193852470081
$GPGGA,020114.00,3304.9022,N,11812.2628,W,1,09,0.8,8.9,M,-34.6,M,,*5C
$PYRTM,2024,128.084216627419,19.193864037558
$GPGGA,020115.00,3304.9019,N,11812.2619,W,1,09,0.8,9.2,M,-34.6,M,,*5D
$PYRTM,2024,128.084228213194,19.193875623333
$GPGGA,020116.00,3304.9018,N,11812.2610,W,1,09,0.8,9.3,M,-34.6,M,,*57
$PYRTM,2024,128.084239781748,19.193887191898
$GPGGA,020117.00,3304.9015,N,11812.2601,W,1,09,0.8,9.2,M,-34.6,M,,*5A
$PYRTM,2024,128.084251368322,19.193898778461
$GPGGA,020118.00,3304.9012,N,11812.2592,W,1,09,0.8,9.0,M,-34.6,M,,*59
$PYRTM,2024,128.084258634641,19.193906044780
$GPGGA,020119.00,3304.9010,N,11812.2583,W,1,09,0.8,8.8,M,-34.6,M,,*53
$PYRTM,2024,128.084274503565,19.193921913704
$GPGGA,020120.00,3304.9008,N,11812.2575,W,1,09,0.8,8.8,M,-34.6,M,,*59
$PYRTM,2024,128.084286072940,19.193933483079
$GPGGA,020121.00,3304.9005,N,11812.2567,W,1,09,0.8,8.7,M,-34.6,M,,*59
$PYRTM,2024,128.084293471713,19.193940881852
$GPGGA,020122.00,3304.9002,N,11812.2558,W,1,09,0.8,8.6,M,-34.6,M,,*50
$PYRTM,2024,128.084309227153,19.193956637292
$GPGGA,020123.00,3304.8997,N,11812.2550,W,1,09,0.8,8.4,M,-34.6,M,,*5F
$PYRTM,2024,128.084320808542,19.193968218681
$GPGGA,020124.00,3304.8994,N,11812.2541,W,1,09,0.8,8.4,M,-34.6,M,,*5B
$PYRTM,2024,128.084332376586,19.193979786725
$GPGGA,020125.00,3304.8991,N,11812.2532,W,1,09,0.8,8.6,M,-34.6,M,,*59
$PYRTM,2024,128.084343975150,19.193991385289
$GPGGA,020126.00,3304.8989,N,11812.2523,W,1,09,0.8,8.8,M,-34.6,M,,*5D
$PYRTM,2024,128.084351354201,19.193998764340
$GPGGA,020127.00,3304.8985,N,11812.2515,W,1,09,0.8,8.9,M,-34.6,M,,*54
$PYRTM,2024,128.084369990799,19.194017400938
$GPGGA,020128.00,3304.8982,N,11812.2506,W,1,09,0.8,8.9,M,-34.6,M,,*5E
$PYRTM,2024,128.084381564688,19.194028974826
$GPGGA,020129.00,3304.8979,N,11812.2498,W,1,09,0.8,9.0,M,-34.6,M,,*55
$PYRTM,2024,128.084393139329,19.194040549468
$GPGGA,020130.00,3304.8978,N,11812.2489,W,1,09,0.8,9.1,M,-34.6,M,,*5D
$PYRTM,2024,128.084401815174,19.194049225313
$GPGGA,020131.00,3304.8976,N,11812.2480,W,1,09,0.8,9.1,M,-34.6,M,,*5B
$PYRTM,2024,128.084409214444,19.194056624583
$GPGGA,020132.00,3304.8972,N,11812.2472,W,1,09,0.8,9.0,M,-34.6,M,,*50
$PYRTM,2024,128.084424967500,19.194072377639
$GPGGA,020133.00,3304.8969,N,11812.2464,W,1,09,0.8,9.0,M,-34.6,M,,*5C
$PYRTM,2024,128.084436552998,19.194083963148
$GPGGA,020134.00,3304.8968,N,11812.2455,W,1,09,0.8,9.1,M,-34.6,M,,*59
$PYRTM,2024,128.084448111655,19.194095521806
$GPGGA,020135.00,3304.8966,N,11812.2446,W,1,09,0.8,9.1,M,-34.6,M,,*54
$PYRTM,2024,128.084459698102,19.194107108252
$GPGGA,020136.00,3304.8963,N,11812.2437,W,1,09,0.8,9.1,M,-34.6,M,,*54
$PYRTM,2024,128.084467091181,19.194114501331
$GPGGA,020137.00,3304.8959,N,11812.2428,W,1,09,0.8,9.1,M,-34.6,M,,*52
$PYRTM,2024,128.084482845590,19.194130255741
$GPGGA,020138.00,3304.8956,N,11812.2419,W,1,09,0.8,9.1,M,-34.6,M,,*50
$PYRTM,2024,128.084494412419,19.194141822558
$GPGGA,020139.00,3304.8954,N,11812.2411,W,1,09,0.8,9.1,M,-34.6,M,,*5B
$PYRTM,2024,128.084505994502,19.194153404653
$GPGGA,020140.00,3304.8952,N,11812.2401,W,1,09,0.8,8.9,M,-34.6,M,,*5B
$PYRTM,2024,128.084517560752,19.194164970891
$GPGGA,020141.00,3304.8949,N,11812.2393,W,1,09,0.8,8.7,M,-34.6,M,,*52
$PYRTM,2024,128.084529254560,19.194176664699
$GPGGA,020142.00,3304.8944,N,11812.2385,W,1,09,0.8,8.5,M,-34.6,M,,*59
$PYRTM,2024,128.084540819097,19.194188229236
$GPGGA,020143.00,3304.8941,N,11812.2378,W,1,09,0.8,8.5,M,-34.6,M,,*5F
$PYRTM,2024,128.084548103715,19.194195513854
$GPGGA,020144.00,3304.8939,N,11812.2369,W,1,09,0.8,8.5,M,-34.6,M,,*57
$PYRTM,2024,128.084563856933,19.194211267072
$GPGGA,020145.00,3304.8936,N,11812.2360,W,1,09,0.8,8.8,M,-34.6,M,,*5D
$PYRTM,2024,128.084575443275,19.194222853414
$GPGGA,020146.00,3304.8934,N,11812.2350,W,1,09,0.8,9.0,M,-34.6,M,,*56
$PYRTM,2024,128.084587007662,19.194234417801
$GPGGA,020147.00,3304.8930,N,11812.2341,W,1,09,0.8,9.3,M,-34.6,M,,*50
$PYRTM,2024,128.084598578762,19.194245988900
$GPGGA,020148.00,3304.8927,N,11812.2333,W,1,09,0.8,9.6,M,-34.6,M,,*59
$PYRTM,2024,128.084605981817,19.194253391956
$GPGGA,020149.00,3304.8925,N,11812.2324,W,1,09,0.8,9.8,M,-34.6,M,,*52
$PYRTM,2024,128.084621727014,19.194269137153
$GPGGA,020150.00,3304.8923,N,11812.2315,W,1,09,0.8,9.6,M,-34.6,M,,*50
$PYRTM,2024,128.084633301516,19.194280711655
$GPGGA,020151.00,3304.8922,N,11812.2306,W,1,09,0.8,9.2,M,-34.6,M,,*56
$PYRTM,2024,128.084640607546,19.194288017685
$GPGGA,020152.00,3304.8919,N,11812.2297,W,1,09,0.8,8.9,M,-34.6,M,,*5E
$PYRTM,2024,128.084659342951,19.194306753090
$GPGGA,020153.00,3304.8916,N,11812.2289,W,1,09,0.8,8.7,M,-34.6,M,,*51
$PYRTM,2024,128.084670920891,19.194318331030
$GPGGA,020154.00,3304.8913,N,11812.2282,W,1,09,0.8,8.8,M,-34.6,M,,*57
$PYRTM,2024,128.084682485822,19.194329895961
$GPGGA,020155.00,3304.8910,N,11812.2274,W,1,09,0.8,8.9,M,-34.6,M,,*5D
$PYRTM,2024,128.084691171840,19.194338581979
$GPGGA,020156.00,3304.8907,N,11812.2265,W,1,09,0.8,9.0,M,-34.6,M,,*50
$PYRTM,2024,128.084698449988,19.194345860127
$GPGGA,020157.00,3304.8904,N,11812.2256,W,1,09,0.8,9.1,M,-34.6,M,,*53
$PYRTM,2024,128.084710256817,19.194357666956
$GPGGA,020158.00,3304.8901,N,11812.2246,W,1,09,0.8,9.1,M,-34.6,M,,*58
$PYRTM,2024,128.084725891713,19.194373301852
$GPGGA,020159.00,3304.8897,N,11812.2238,W,1,09,0.8,9.2,M,-34.6,M,,*5D
$PYRTM,2024,128.084737468553,19.194384878704
$GPGGA,020200.00,3304.8893,N,11812.2230,W,1,09,0.8,9.2,M,-34.6,M,,*5E
$PYRTM,2024,128.084749044213,19.194396454352
$GPGGA,020201.00,3304.8891,N,11812.2221,W,1,09,0.8,9.2,M,-34.6,M,,*5D
$PYRTM,2024,128.084760628796,19.194408038935
$GPGGA,020202.00,3304.8889,N,11812.2212,W,1,09,0.8,9.2,M,-34.6,M,,*57
$PYRTM,2024,128.084772184942,19.194419595081
$GPGGA,020203.00,3304.8887,N,11812.2204,W,1,09,0.8,9.1,M,-34.6,M,,*5C
$PYRTM,2024,128.084779497130,19.194426907269
$GPGGA,020204.00,3304.8884,N,11812.2196,W,1,09,0.8,9.1,M,-34.6,M,,*50
$PYRTM,2024,128.084795340486,19.194442750625
$GPGGA,020205.00,3304.8881,N,11812.2187,W,1,09,0.8,9.3,M,-34.6,M,,*56
$PYRTM,2024,128.084806921562,19.194454331701
$GPGGA,020206.00,3304.8879,N,11812.2179,W,1,09,0.8,9.6,M,-34.6,M,,*56
$PYRTM,2024,128.084814314850,19.194461724988
$GPGGA,020207.00,3304.8876,N,11812.2170,W,1,09,0.8,9.8,M,-34.6,M,,*5F
$PYRTM,2024,128.084830070370,19.194477480509
$GPGGA,020208.00,3304.8874,N,11812.2161,W,1,09,0.8,9.9,M,-34.6,M,,*53
$PYRTM,2024,128.084841631146,19.194489041285
$GPGGA,020209.00,3304.8871,N,11812.2152,W,1,09,0.8,9.8,M,-34.6,M,,*56
$PYRTM,2024,128.084853209745,19.194500619884
$GPGGA,020210.00,3304.8868,N,11812.2143,W,1,09,0.8,9.7,M,-34.6,M,,*59
$PYRTM,2024,128.084864780347,19.194512190498
$GPGGA,020211.00,3304.8866,N,11812.2135,W,1,09,0.8,9.5,M,-34.6,M,,*55
$PYRTM,2024,128.084876373137,19.194523783287
$GPGGA,020212.00,3304.8863,N,11812.2126,W,1,09,0.8,9.3,M,-34.6,M,,*57
$PYRTM,2024,128.084887933912,19.194535344074
$GPGGA,020213.00,3304.8860,N,11812.2118,W,1,09,0.8,9.0,M,-34.6,M,,*5B
$PYRTM,2024,128.084899506725,19.194546916863
$GPGGA,020214.00,3304.8857,N,11812.2109,W,1,09,0.8,8.9,M,-34.6,M,,*50
$PYRTM,2024,128.084911076100,19.194558486238
$GPGGA,020215.00,3304.8854,N,11812.2101,W,1,09,0.8,9.0,M,-34.6,M,,*52
$PYRTM,2024,128.084922666319,19.194570076470
$GPGGA,020216.00,3304.8851,N,11812.2093,W,1,09,0.8,9.3,M,-34.6,M,,*5D
$PYRTM,2024,128.084934229479,19.194581639618
$GPGGA,020217.00,3304.8848,N,11812.2084,W,1,09,0.8,9.5,M,-34.6,M,,*54
$PYRTM,2024,128.084945790810,19.194593200949
$GPGGA,020218.00,3304.8845,N,11812.2075,W,1,09,0.8,9.6,M,-34.6,M,,*5B
$PYRTM,2024,128.084957376609,19.194604786748
$GPGGA,020219.00,3304.8842,N,11812.2066,W,1,09,0.8,9.7,M,-34.6,M,,*5E
$PYRTM,2024,128.084964771505,19.194612181655
$GPGGA,020220.00,3304.8840,N,11812.2057,W,1,09,0.8,9.8,M,-34.6,M,,*5B
$PYRTM,2024,128.084980525926,19.194627936065
$GPGGA,020221.00,3304.8837,N,11812.2049,W,1,09,0.8,9.9,M,-34.6,M,,*54
$PYRTM,2024,128.084992088079,19.194639498218
$GPGGA,020222.00,3304.8834,N,11812.2039,W,1,09,0.8,9.8,M,-34.6,M,,*52
$PYRTM,2024,128.084999378866,19.194646789005
$GPGGA,020223.00,3304.8831,N,11812.2031,W,1,09,0.8,9.9,M,-34.6,M,,*5F
$PYRTM,2024,128.085011185440,19.194658595579
$GPGGA,020224.00,3304.8829,N,11812.2023,W,1,09,0.8,9.9,M,-34.6,M,,*52
$PYRTM,2024,128.085026822384,19.194674232535
$GPGGA,020225.00,3304.8827,N,11812.2014,W,1,09,0.8,9.9,M,-34.6,M,,*59
$PYRTM,2024,128.085034112917,19.194681523056
$GPGGA,020226.00,3304.8825,N,11812.2006,W,1,09,0.8,9.8,M,-34.6,M,,*5A
$PYRTM,2024,128.085049973623,19.194697383762
$GPGGA,020227.00,3304.8822,N,11812.1997,W,1,09,0.8,9.7,M,-34.6,M,,*51
$PYRTM,2024,128.085061531806,19.194708941944
$GPGGA,020228.00,3304.8820,N,11812.1988,W,1,09,0.8,9.5,M,-34.6,M,,*50
$PYRTM,2024,128.085068822766,19.194716232905
$GPGGA,020229.00,3304.8817,N,11812.1979,W,1,09,0.8,9.4,M,-34.6,M,,*5A
$PYRTM,2024,128.085084680012,19.194732090150
$GPGGA,020230.00,3304.8814,N,11812.1971,W,1,09,0.8,9.4,M,-34.6,M,,*59
$PYRTM,2024,128.085096267326,19.194743677465
$GPGGA,020231.00,3304.8811,N,11812.1963,W,1,09,0.8,9.5,M,-34.6,M,,*5F
$PYRTM,2024,128.085107829815,19.194755239954
$GPGGA,020232.00,3304.8808,N,11812.1954,W,1,09,0.8,9.7,M,-34.6,M,,*52
$PYRTM,2024,128.085119415197,19.194766825336
$GPGGA,020233.00,3304.8804,N,11812.1945,W,1,09,0.8,9.7,M,-34.6,M,,*5F
$PYRTM,2024,128.085130977720,19.194778387870
$GPGGA,020234.00,3304.8802,N,11812.1936,W,1,09,0.8,9.7,M,-34.6,M,,*5A
$PYRTM,2024,128.085142563275,19.194789973414
$GPGGA,020235.00,3304.8799,N,11812.1927,W,1,09,0.8,9.9,M,-34.6,M,,*58
$PYRTM,2024,128.085154126134,19.194801536273
$GPGGA,020236.00,3304.8796,N,11812.1919,W,1,09,0.8,10.1,M,-34.6,M,,*69
$PYRTM,2024,128.085165713669,19.194813123808
$GPGGA,020237.00,3304.8794,N,11812.1911,W,1,09,0.8,10.2,M,-34.6,M,,*61
$PYRTM,2024,128.085177273588,19.194824683727
$GPGGA,020238.00,3304.8791,N,11812.1902,W,1,09,0.8,10.1,M,-34.6,M,,*6A
$PYRTM,2024,128.085188861389,19.194836271528
$GPGGA,020239.00,3304.8789,N,11812.1894,W,1,09,0.8,10.0,M,-34.6,M,,*6D
$PYRTM,2024,128.085200420150,19.194847830289
$GPGGA,020240.00,3304.8787,N,11812.1885,W,1,09,0.8,10.0,M,-34.6,M,,*6D
$PYRTM,2024,128.085212009352,19.194859419491
$GPGGA,020241.00,3304.8783,N,11812.1877,W,1,09,0.8,10.0,M,-34.6,M,,*65
$PYRTM,2024,128.085223569884,19.194870980023
$GPGGA,020242.00,3304.8781,N,11812.1868,W,1,09,0.8,10.0,M,-34.6,M,,*6A
$PYRTM,2024,128.085235160266,19.194882570405
$GPGGA,020243.00,3304.8778,N,11812.1860,W,1,09,0.8,10.2,M,-34.6,M,,*67
$PYRTM,2024,128.085242551285,19.194889961424
$GPGGA,020244.00,3304.8775,N,11812.1852,W,1,09,0.8,10.2,M,-34.6,M,,*6C
$PYRTM,2024,128.085258306759,19.194905716898
$GPGGA,020245.00,3304.8772,N,11812.1843,W,1,09,0.8,10.2,M,-34.6,M,,*6A
$PYRTM,2024,128.085269866169,19.194917276308
$GPGGA,020246.00,3304.8768,N,11812.1834,W,1,09,0.8,10.1,M,-34.6,M,,*61
$PYRTM,2024,128.085277273715,19.194924683854
$GPGGA,020247.00,3304.8766,N,11812.1825,W,1,09,0.8,10.0,M,-34.6,M,,*6F
$PYRTM,2024,128.085293014572,19.194940424711
$GPGGA,020248.00,3304.8765,N,11812.1816,W,1,09,0.8,9.9,M,-34.6,M,,*52
$PYRTM,2024,128.085304601736,19.194952011875
$GPGGA,020249.00,3304.8762,N,11812.1808,W,1,09,0.8,9.8,M,-34.6,M,,*5A
$PYRTM,2024,128.085316162199,19.194963572338
$GPGGA,020250.00,3304.8758,N,11812.1800,W,1,09,0.8,9.7,M,-34.6,M,,*5C
$PYRTM,2024,128.085327749444,19.194975159583
$GPGGA,020251.00,3304.8755,N,11812.1792,W,1,09,0.8,9.8,M,-34.6,M,,*5B
$PYRTM,2024,128.085339309618,19.194986719757
$GPGGA,020252.00,3304.8754,N,11812.1782,W,1,09,0.8,9.9,M,-34.6,M,,*59
$PYRTM,2024,128.085350897523,19.194998307674
$GPGGA,020253.00,3304.8752,N,11812.1773,W,1,09,0.8,10.0,M,-34.6,M,,*61
$PYRTM,2024,128.085358292523,19.195005702662
$GPGGA,020254.00,3304.8748,N,11812.1764,W,1,09,0.8,10.1,M,-34.6,M,,*6A
$PYRTM,2024,128.085370006678,19.195017416817
$GPGGA,020255.00,3304.8744,N,11812.1756,W,1,09,0.8,10.3,M,-34.6,M,,*64
$PYRTM,2024,128.085385606470,19.195033016609
$GPGGA,020256.00,3304.8741,N,11812.1747,W,1,09,0.8,10.5,M,-34.6,M,,*64
$PYRTM,2024,128.085393014491,19.195040424630
$GPGGA,020257.00,3304.8740,N,11812.1739,W,1,09,0.8,10.5,M,-34.6,M,,*6D
$PYRTM,2024,128.085408754039,19.195056164178
$GPGGA,020258.00,3304.8738,N,11812.1729,W,1,09,0.8,10.4,M,-34.6,M,,*6D
$PYRTM,2024,128.085420345914,19.195067756053
$GPGGA,020259.00,3304.8735,N,11812.1721,W,1,09,0.8,10.1,M,-34.6,M,,*6C
$PYRTM,2024,128.085427750231,19.195075160370
$GPGGA,020300.00,3304.8731,N,11812.1712,W,1,09,0.8,10.0,M,-34.6,M,,*64
$PYRTM,2024,128.085446384109,19.195093794248
$GPGGA,020301.00,3304.8728,N,11812.1704,W,1,09,0.8,10.0,M,-34.6,M,,*6A
$PYRTM,2024,128.085457958322,19.195105368461
$GPGGA,020302.00,3304.8726,N,11812.1695,W,1,09,0.8,10.3,M,-34.6,M,,*6D
$PYRTM,2024,128.085469531713,19.195116941852
$GPGGA,020303.00,3304.8723,N,11812.1687,W,1,09,0.8,10.5,M,-34.6,M,,*6C
$PYRTM,2024,128.085478200741,19.195125610880
$GPGGA,020304.00,3304.8721,N,11812.1679,W,1,09,0.8,10.5,M,-34.6,M,,*68
$PYRTM,2024,128.085485608194,19.195133018333
$GPGGA,020305.00,3304.8718,N,11812.1670,W,1,09,0.8,10.2,M,-34.6,M,,*6D
$PYRTM,2024,128.085501349236,19.195148759375
$GPGGA,020306.00,3304.8715,N,11812.1660,W,1,09,0.8,9.8,M,-34.6,M,,*50
$PYRTM,2024,128.085512935336,19.195160345475
$GPGGA,020307.00,3304.8712,N,11812.1650,W,1,09,0.8,9.5,M,-34.6,M,,*58
$PYRTM,2024,128.085520226910,19.195167637049
$GPGGA,020308.00,3304.8709,N,11812.1641,W,1,09,0.8,9.7,M,-34.6,M,,*5F
$PYRTM,2024,128.085536084028,19.195183494167
$GPGGA,020309.00,3304.8706,N,11812.1634,W,1,09,0.8,10.1,M,-34.6,M,,*6D
$PYRTM,2024,128.085547645799,19.195195055937
$GPGGA,020310.00,3304.8703,N,11812.1626,W,1,09,0.8,10.5,M,-34.6,M,,*67
$PYRTM,2024,128.085555052569,19.195202462708
$GPGGA,020311.00,3304.8700,N,11812.1618,W,1,09,0.8,10.5,M,-34.6,M,,*68
$PYRTM,2024,128.085570794097,19.195218204236
$GPGGA,020312.00,3304.8697,N,11812.1609,W,1,09,0.8,10.3,M,-34.6,M,,*62
$PYRTM,2024,128.085582380810,19.195229790961
$GPGGA,020313.00,3304.8695,N,11812.1599,W,1,09,0.8,10.1,M,-34.6,M,,*69
$PYRTM,2024,128.085593942025,19.195241352164
$GPGGA,020314.00,3304.8693,N,11812.1589,W,1,09,0.8,10.1,M,-34.6,M,,*69
$PYRTM,2024,128.085605529433,19.195252939583
$GPGGA,020315.00,3304.8690,N,11812.1581,W,1,09,0.8,10.3,M,-34.6,M,,*61
$PYRTM,2024,128.085617089213,19.195264499352
$GPGGA,020316.00,3304.8687,N,11812.1573,W,1,09,0.8,10.6,M,-34.6,M,,*6C
$PYRTM,2024,128.085628677986,19.195276088125
$GPGGA,020317.00,3304.8684,N,11812.1566,W,1,09,0.8,10.8,M,-34.6,M,,*64
$PYRTM,2024,128.085640237581,19.195287647720
$GPGGA,020318.00,3304.8682,N,11812.1557,W,1,09,0.8,10.7,M,-34.6,M,,*60
$PYRTM,2024,128.085651825451,19.195299235590
$GPGGA,020319.00,3304.8679,N,11812.1548,W,1,09,0.8,10.4,M,-34.6,M,,*68
$PYRTM,2024,128.085663387199,19.195310797350
$GPGGA,020320.00,3304.8676,N,11812.1538,W,1,09,0.8,10.0,M,-34.6,M,,*6E
$PYRTM,2024,128.085674973032,19.195322383171
$GPGGA,020321.00,3304.8673,N,11812.1529,W,1,09,0.8,9.8,M,-34.6,M,,*5A
$PYRTM,2024,128.085686535347,19.195333945486
$GPGGA,020322.00,3304.8670,N,11812.1520,W,1,09,0.8,10.0,M,-34.6,M,,*63
$PYRTM,2024,128.085698122720,19.195345532859
$GPGGA,020323.00,3304.8667,N,11812.1513,W,1,09,0.8,10.3,M,-34.6,M,,*67
$PYRTM,2024,128.085709682326,19.195357092465
$GPGGA,020324.00,3304.8665,N,11812.1505,W,1,09,0.8,10.6,M,-34.6,M,,*60
$PYRTM,2024,128.085721272639,19.195368682778
$GPGGA,020325.00,3304.8662,N,11812.1496,W,1,09,0.8,10.5,M,-34.6,M,,*6E
$PYRTM,2024,128.085732830637,19.195380240775
$GPGGA,020326.00,3304.8659,N,11812.1487,W,1,09,0.8,10.2,M,-34.6,M,,*62
$PYRTM,2024,128.085744421771,19.195391831910
$GPGGA,020327.00,3304.8657,N,11812.1477,W,1,09,0.8,9.8,M,-34.6,M,,*50
$PYRTM,2024,128.085751709352,19.195399119491
$GPGGA,020328.00,3304.8655,N,11812.1468,W,1,09,0.8,9.7,M,-34.6,M,,*5C
$PYRTM,2024,128.085767565833,19.195414975972
$GPGGA,020329.00,3304.8652,N,11812.1460,W,1,09,0.8,9.9,M,-34.6,M,,*5C
$PYRTM,2024,128.085779127963,19.195426538113
$GPGGA,020330.00,3304.8648,N,11812.1453,W,1,09,0.8,10.3,M,-34.6,M,,*6D
$PYRTM,2024,128.085786534456,19.195433944595
$GPGGA,020331.00,3304.8644,N,11812.1445,W,1,09,0.8,10.7,M,-34.6,M,,*63
$PYRTM,2024,128.085805169491,19.195452579630
$GPGGA,020332.00,3304.8642,N,11812.1436,W,1,09,0.8,10.8,M,-34.6,M,,*6D
$PYRTM,2024,128.085813863553,19.195461273692
$GPGGA,020333.00,3304.8641,N,11812.1426,W,1,09,0.8,10.8,M,-34.6,M,,*6E
$PYRTM,2024,128.085821262778,19.195468672928
$GPGGA,020334.00,3304.8638,N,11812.1418,W,1,09,0.8,10.7,M,-34.6,M,,*65
$PYRTM,2024,128.085837010972,19.195484421111
$GPGGA,020335.00,3304.8635,N,11812.1410,W,1,09,0.8,10.5,M,-34.6,M,,*63
$PYRTM,2024,128.085848573160,19.195495983299
$GPGGA,020336.00,3304.8632,N,11812.1402,W,1,09,0.8,10.2,M,-34.6,M,,*63
$PYRTM,2024,128.085860162824,19.195507572963
$GPGGA,020337.00,3304.8629,N,11812.1393,W,1,09,0.8,10.0,M,-34.6,M,,*65
$PYRTM,2024,128.085871722292,19.195519132431
$GPGGA,020338.00,3304.8626,N,11812.1383,W,1,09,0.8,10.2,M,-34.6,M,,*66
$PYRTM,2024,128.085883310289,19.195530720428
$GPGGA,020339.00,3304.8625,N,11812.1375,W,1,09,0.8,10.4,M,-34.6,M,,*6B
$PYRTM,2024,128.085890704213,19.195538114363
$GPGGA,020340.00,3304.8622,N,11812.1366,W,1,09,0.8,10.6,M,-34.6,M,,*62
$PYRTM,2024,128.085906458391,19.195553868530
$GPGGA,020341.00,3304.8619,N,11812.1357,W,1,09,0.8,10.5,M,-34.6,M,,*6A
$PYRTM,2024,128.085918018252,19.195565428391
$GPGGA,020342.00,3304.8615,N,11812.1348,W,1,09,0.8,10.3,M,-34.6,M,,*6D
$PYRTM,2024,128.085929604317,19.195577014456
$GPGGA,020343.00,3304.8614,N,11812.1338,W,1,09,0.8,10.0,M,-34.6,M,,*69
$PYRTM,2024,128.085941166273,19.195588576412
$GPGGA,020344.00,3304.8612,N,11812.1329,W,1,09,0.8,9.9,M,-34.6,M,,*59
$PYRTM,2024,128.085952866898,19.195600277037
$GPGGA,020345.00,3304.8609,N,11812.1320,W,1,09,0.8,10.0,M,-34.6,M,,*6A
$PYRTM,2024,128.085964431713,19.195611841852
$GPGGA,020346.00,3304.8606,N,11812.1313,W,1,09,0.8,10.3,M,-34.6,M,,*65
$PYRTM,2024,128.085976016481,19.195623426620
$GPGGA,020347.00,3304.8602,N,11812.1306,W,1,09,0.8,10.5,M,-34.6,M,,*62
$PYRTM,2024,128.085987576806,19.195634986944
$GPGGA,020348.00,3304.8600,N,11812.1297,W,1,09,0.8,10.5,M,-34.6,M,,*66
$PYRTM,2024,128.085994869560,19.195642279699
$GPGGA,020349.00,3304.8599,N,11812.1287,W,1,09,0.8,10.5,M,-34.6,M,,*65
$PYRTM,2024,128.086010609769,19.195658019907
$GPGGA,020350.00,3304.8597,N,11812.1277,W,1,09,0.8,10.4,M,-34.6,M,,*6D
$PYRTM,2024,128.086022198299,19.195669608437
$GPGGA,020351.00,3304.8593,N,11812.1268,W,1,09,0.8,10.4,M,-34.6,M,,*66
$PYRTM,2024,128.086029592650,19.195677002789
$GPGGA,020352.00,3304.8589,N,11812.1261,W,1,09,0.8,10.5,M,-34.6,M,,*66
$PYRTM,2024,128.086045360544,19.195692770683
$GPGGA,020353.00,3304.8586,N,11812.1254,W,1,09,0.8,10.7,M,-34.6,M,,*6C
$PYRTM,2024,128.086056907917,19.195704318067
$GPGGA,020354.00,3304.8583,N,11812.1245,W,1,09,0.8,10.5,M,-34.6,M,,*6C
$PYRTM,2024,128.086068497164,19.195715907315
$GPGGA,020355.00,3304.8582,N,11812.1235,W,1,09,0.8,10.2,M,-34.6,M,,*6C
$PYRTM,2024,128.086080055220,19.195727465359
$GPGGA,020356.00,3304.8580,N,11812.1226,W,1,09,0.8,10.0,M,-34.6,M,,*6D
$PYRTM,2024,128.086091647002,19.195739057141
$GPGGA,020357.00,3304.8577,N,11812.1218,W,1,09,0.8,10.0,M,-34.6,M,,*69
$PYRTM,2024,128.086103202488,19.195750612627
$GPGGA,020358.00,3304.8572,N,11812.1211,W,1,09,0.8,10.1,M,-34.6,M,,*6B
$PYRTM,2024,128.086114789722,19.195762199861
$GPGGA,020359.00,3304.8569,N,11812.1203,W,1,09,0.8,10.2,M,-34.6,M,,*60
$PYRTM,2024,128.086122199421,19.195769609560
$GPGGA,020400.00,3304.8568,N,11812.1194,W,1,09,0.8,10.4,M,-34.6,M,,*61
$PYRTM,2024,128.086140831296,19.195788241435
$GPGGA,020401.00,3304.8566,N,11812.1184,W,1,09,0.8,10.4,M,-34.6,M,,*6F
$PYRTM,2024,128.086152394109,19.195799804248
$GPGGA,020402.00,3304.8564,N,11812.1175,W,1,09,0.8,10.3,M,-34.6,M,,*67
$PYRTM,2024,128.086166412512,19.195813822650
$GPGGA,020403.00,3304.8560,N,11812.1167,W,1,09,0.8,10.3,M,-34.6,M,,*61
$PYRTM,2024,128.086172648519,19.195820058657
$GPGGA,020404.00,3304.8557,N,11812.1159,W,1,09,0.8,10.3,M,-34.6,M,,*6F
$PYRTM,2024,128.086184235752,19.195831645891
$GPGGA,020405.00,3304.8554,N,11812.1151,W,1,09,0.8,10.3,M,-34.6,M,,*65
$PYRTM,2024,128.086195797164,19.195843207303
$GPGGA,020406.00,3304.8552,N,11812.1141,W,1,09,0.8,10.2,M,-34.6,M,,*60
$PYRTM,2024,128.086207386667,19.195854796817
$GPGGA,020407.00,3304.8549,N,11812.1132,W,1,09,0.8,10.2,M,-34.6,M,,*6F
$PYRTM,2024,128.086218943981,19.195866354120
$GPGGA,020408.00,3304.8546,N,11812.1124,W,1,09,0.8,10.3,M,-34.6,M,,*69
$PYRTM,2024,128.086226353773,19.195873763912
$GPGGA,020409.00,3304.8541,N,11812.1116,W,1,09,0.8,10.5,M,-34.6,M,,*68
$PYRTM,2024,128.086242093912,19.195889504051
$GPGGA,020410.00,3304.8539,N,11812.1107,W,1,09,0.8,10.6,M,-34.6,M,,*6C
$PYRTM,2024,128.086253679780,19.195901089919
$GPGGA,020411.00,3304.8538,N,11812.1098,W,1,09,0.8,10.5,M,-34.6,M,,*68
$PYRTM,2024,128.086265241632,19.195912651782
$GPGGA,020412.00,3304.8536,N,11812.1089,W,1,09,0.8,10.3,M,-34.6,M,,*63
$PYRTM,2024,128.086276827037,19.195924237176
$GPGGA,020413.00,3304.8533,N,11812.1081,W,1,09,0.8,10.1,M,-34.6,M,,*6D
$PYRTM,2024,128.086288388507,19.195935798657
$GPGGA,020414.00,3304.8529,N,11812.1073,W,1,09,0.8,10.0,M,-34.6,M,,*6D
$PYRTM,2024,128.086299976169,19.195947386308
$GPGGA,020415.00,3304.8526,N,11812.1065,W,1,09,0.8,10.0,M,-34.6,M,,*64
$PYRTM,2024,128.086311537546,19.195958947697
$GPGGA,020416.00,3304.8524,N,11812.1055,W,1,09,0.8,10.1,M,-34.6,M,,*67
$PYRTM,2024,128.086318945451,19.195966355602
$GPGGA,020417.00,3304.8522,N,11812.1046,W,1,09,0.8,10.5,M,-34.6,M,,*66
$PYRTM,2024,128.086334685648,19.195982095787
$GPGGA,020418.00,3304.8520,N,11812.1037,W,1,09,0.8,10.8,M,-34.6,M,,*60
$PYRTM,2024,128.086346273160,19.195993683310
$GPGGA,020419.00,3304.8515,N,11812.1029,W,1,09,0.8,10.8,M,-34.6,M,,*68
$PYRTM,2024,128.086353668924,19.196001079062
$GPGGA,020420.00,3304.8511,N,11812.1020,W,1,09,0.8,10.6,M,-34.6,M,,*61
$PYRTM,2024,128.086369421088,19.196016831227
$GPGGA,020421.00,3304.8509,N,11812.1011,W,1,09,0.8,10.4,M,-34.6,M,,*69
$PYRTM,2024,128.086380982581,19.196028392720
$GPGGA,020422.00,3304.8508,N,11812.1003,W,1,09,0.8,10.2,M,-34.6,M,,*6E
$PYRTM,2024,128.086388391007,19.196035801146
$GPGGA,020423.00,3304.8506,N,11812.0995,W,1,09,0.8,10.1,M,-34.6,M,,*65
$PYRTM,2024,128.086404130937,19.196051541088
$GPGGA,020424.00,3304.8503,N,11812.0987,W,1,09,0.8,10.0,M,-34.6,M,,*65
$PYRTM,2024,128.086415717037,19.196063127188
$GPGGA,020425.00,3304.8499,N,11812.0979,W,1,09,0.8,10.1,M,-34.6,M,,*66
$PYRTM,2024,128.086427279456,19.196074689595
$GPGGA,020426.00,3304.8497,N,11812.0970,W,1,09,0.8,10.3,M,-34.6,M,,*60
$PYRTM,2024,128.086438866725,19.196086276863
$GPGGA,020427.00,3304.8494,N,11812.0961,W,1,09,0.8,10.4,M,-34.6,M,,*65
$PYRTM,2024,128.086446274387,19.196093684525
$GPGGA,020428.00,3304.8491,N,11812.0952,W,1,09,0.8,10.5,M,-34.6,M,,*6E
$PYRTM,2024,128.086462014352,19.196109424491
$GPGGA,020429.00,3304.8487,N,11812.0943,W,1,09,0.8,10.5,M,-34.6,M,,*68
$PYRTM,2024,128.086473576887,19.196120987025
$GPGGA,020430.00,3304.8484,N,11812.0935,W,1,09,0.8,10.4,M,-34.6,M,,*63
$PYRTM,2024,128.086480983079,19.196128393218
$GPGGA,020431.00,3304.8482,N,11812.0926,W,1,09,0.8,10.3,M,-34.6,M,,*61
$PYRTM,2024,128.086492672130,19.196140082269
$GPGGA,020432.00,3304.8480,N,11812.0917,W,1,09,0.8,10.3,M,-34.6,M,,*62
$PYRTM,2024,128.086511203866,19.196158614016
$GPGGA,020433.00,3304.8478,N,11812.0907,W,1,09,0.8,10.3,M,-34.6,M,,*65
$PYRTM,2024,128.086522767049,19.196170177188
$GPGGA,020434.00,3304.8475,N,11812.0899,W,1,09,0.8,10.3,M,-34.6,M,,*69
$PYRTM,2024,128.086534352743,19.196181762882
$GPGGA,020435.00,3304.8472,N,11812.0892,W,1,09,0.8,10.4,M,-34.6,M,,*63
$PYRTM,2024,128.086543019907,19.196190430046
$GPGGA,020436.00,3304.8469,N,11812.0883,W,1,09,0.8,10.4,M,-34.6,M,,*6A
$PYRTM,2024,128.086550428125,19.196197838264
$GPGGA,020437.00,3304.8467,N,11812.0874,W,1,09,0.8,10.3,M,-34.6,M,,*6A
$PYRTM,2024,128.086566169329,19.196213579479
$GPGGA,020438.00,3304.8465,N,11812.0864,W,1,09,0.8,10.3,M,-34.6,M,,*66
$PYRTM,2024,128.086577768623,19.196225178762
$GPGGA,020439.00,3304.8462,N,11812.0856,W,1,09,0.8,10.3,M,-34.6,M,,*61
$PYRTM,2024,128.086589315903,19.196236726042
$GPGGA,020440.00,3304.8459,N,11812.0848,W,1,09,0.8,10.3,M,-34.6,M,,*68
$PYRTM,2024,128.086600903310,19.196248313449
$GPGGA,020441.00,3304.8456,N,11812.0839,W,1,09,0.8,10.2,M,-34.6,M,,*61
$PYRTM,2024,128.086608313218,19.196255723356
$GPGGA,020442.00,3304.8453,N,11812.0830,W,1,09,0.8,10.1,M,-34.6,M,,*6D
$PYRTM,2024,128.086624051597,19.196271461736
$GPGGA,020443.00,3304.8450,N,11812.0822,W,1,09,0.8,10.1,M,-34.6,M,,*6C
$PYRTM,2024,128.086635615451,19.196283025590
$GPGGA,020444.00,3304.8448,N,11812.0813,W,1,09,0.8,10.3,M,-34.6,M,,*62
$PYRTM,2024,128.086643021285,19.196290431424
$GPGGA,020445.00,3304.8444,N,11812.0805,W,1,09,0.8,10.4,M,-34.6,M,,*6F
$PYRTM,2024,128.086658761169,19.196306171308
$GPGGA,020446.00,3304.8441,N,11812.0797,W,1,09,0.8,10.6,M,-34.6,M,,*6F
$PYRTM,2024,128.086670347870,19.196317758009
$GPGGA,020447.00,3304.8438,N,11812.0787,W,1,09,0.8,10.7,M,-34.6,M,,*60
$PYRTM,2024,128.086681911065,19.196329321215
$GPGGA,020448.00,3304.8436,N,11812.0778,W,1,09,0.8,10.7,M,-34.6,M,,*61
$PYRTM,2024,128.086693496030,19.196340906169
$GPGGA,020449.00,3304.8433,N,11812.0769,W,1,09,0.8,10.6,M,-34.6,M,,*64
$PYRTM,2024,128.086705058380,19.196352468519
$GPGGA,020450.00,3304.8430,N,11812.0762,W,1,09,0.8,10.4,M,-34.6,M,,*66
$PYRTM,2024,128.086716647199,19.196364057338
$GPGGA,020451.00,3304.8427,N,11812.0754,W,1,09,0.8,10.3,M,-34.6,M,,*63
$PYRTM,2024,128.086728206389,19.196375616528
$GPGGA,020452.00,3304.8425,N,11812.0745,W,1,09,0.8,10.2,M,-34.6,M,,*63
$PYRTM,2024,128.086739792350,19.196387202488
$GPGGA,020453.00,3304.8423,N,11812.0735,W,1,09,0.8,10.2,M,-34.6,M,,*63
$PYRTM,2024,128.086751353438,19.196398763576
$GPGGA,020454.00,3304.8420,N,11812.0726,W,1,09,0.8,10.3,M,-34.6,M,,*64
$PYRTM,2024,128.086762941296,19.196410351447
$GPGGA,020455.00,3304.8416,N,11812.0719,W,1,09,0.8,10.6,M,-34.6,M,,*69
$PYRTM,2024,128.086774501898,19.196421912037
$GPGGA,020456.00,3304.8412,N,11812.0711,W,1,09,0.8,10.7,M,-34.6,M,,*67
$PYRTM,2024,128.086786089792,19.196433499942
$GPGGA,020457.00,3304.8409,N,11812.0702,W,1,09,0.8,10.7,M,-34.6,M,,*6E
$PYRTM,2024,128.086793484595,19.196440894734
$GPGGA,020458.00,3304.8408,N,11812.0692,W,1,09,0.8,10.4,M,-34.6,M,,*6B
$PYRTM,2024,128.086809237373,19.196456647512
$GPGGA,020459.00,3304.8405,N,11812.0683,W,1,09,0.8,10.1,M,-34.6,M,,*62
$PYRTM,2024,128.086820799514,19.196468209664
$GPGGA,020500.00,3304.8403,N,11812.0674,W,1,09,0.8,10.0,M,-34.6,M,,*60
$PYRTM,2024,128.086828206759,19.196475616898
$GPGGA,020501.00,3304.8399,N,11812.0667,W,1,09,0.8,10.1,M,-34.6,M,,*66
$PYRTM,2024,128.086843946887,19.196491357025
$GPGGA,020502.00,3304.8396,N,11812.0659,W,1,09,0.8,10.4,M,-34.6,M,,*62
$PYRTM,2024,128.086851354306,19.196498764444
$GPGGA,020503.00,3304.8393,N,11812.0650,W,1,09,0.8,10.5,M,-34.6,M,,*6E
$PYRTM,2024,128.086869987917,19.196517398056
$GPGGA,020504.00,3304.8391,N,11812.0641,W,1,09,0.8,10.5,M,-34.6,M,,*6B
$PYRTM,2024,128.086878685336,19.196526095475
$GPGGA,020505.00,3304.8388,N,11812.0631,W,1,09,0.8,10.3,M,-34.6,M,,*63
$PYRTM,2024,128.086890244109,19.196537654248
$GPGGA,020506.00,3304.8385,N,11812.0622,W,1,09,0.8,10.2,M,-34.6,M,,*6E
$PYRTM,2024,128.086901845301,19.196549255440
$GPGGA,020507.00,3304.8382,N,11812.0613,W,1,09,0.8,10.2,M,-34.6,M,,*6A
$PYRTM,2024,128.086913392211,19.196560802350
$GPGGA,020508.00,3304.8379,N,11812.0604,W,1,09,0.8,10.4,M,-34.6,M,,*61
$PYRTM,2024,128.086924978542,19.196572388681
$GPGGA,020509.00,3304.8377,N,11812.0595,W,1,09,0.8,10.5,M,-34.6,M,,*64
$PYRTM,2024,128.086936540544,19.196583950683
$GPGGA,020510.00,3304.8374,N,11812.0586,W,1,09,0.8,10.6,M,-34.6,M,,*6E
$PYRTM,2024,128.086948127940,19.196595538079
$GPGGA,020511.00,3304.8372,N,11812.0578,W,1,09,0.8,10.7,M,-34.6,M,,*69
$PYRTM,2024,128.086959689039,19.196607099178
$GPGGA,020512.00,3304.8369,N,11812.0569,W,1,09,0.8,10.5,M,-34.6,M,,*62
$PYRTM,2024,128.086971275590,19.196618685741
$GPGGA,020513.00,3304.8366,N,11812.0560,W,1,09,0.8,10.2,M,-34.6,M,,*62
$PYRTM,2024,128.086982836169,19.196630246308
$GPGGA,020514.00,3304.8364,N,11812.0551,W,1,09,0.8,10.0,M,-34.6,M,,*67
$PYRTM,2024,128.086994423634,19.196641833773
$GPGGA,020515.00,3304.8361,N,11812.0542,W,1,09,0.8,9.9,M,-34.6,M,,*50
$PYRTM,2024,128.087005985046,19.196653395197
$GPGGA,020516.00,3304.8358,N,11812.0533,W,1,09,0.8,9.9,M,-34.6,M,,*5F
$PYRTM,2024,128.087017572234,19.196664982373
$GPGGA,020517.00,3304.8355,N,11812.0525,W,1,09,0.8,10.1,M,-34.6,M,,*64
$PYRTM,2024,128.087024967164,19.196672377303
$GPGGA,020518.00,3304.8352,N,11812.0518,W,1,09,0.8,10.3,M,-34.6,M,,*60
$PYRTM,2024,128.087040733472,19.196688143611
$GPGGA,020519.00,3304.8349,N,11812.0509,W,1,09,0.8,10.3,M,-34.6,M,,*6B
$PYRTM,2024,128.087052280833,19.196699690972
$GPGGA,020520.00,3304.8346,N,11812.0500,W,1,09,0.8,10.2,M,-34.6,M,,*66
$PYRTM,2024,128.087063869062,19.196711279201
$GPGGA,020521.00,3304.8344,N,11812.0490,W,1,09,0.8,10.1,M,-34.6,M,,*6E
$PYRTM,2024,128.087075431794,19.196722841944
$GPGGA,020522.00,3304.8341,N,11812.0481,W,1,09,0.8,10.2,M,-34.6,M,,*6B
$PYRTM,2024,128.087082837373,19.196730247512
$GPGGA,020523.00,3304.8339,N,11812.0473,W,1,09,0.8,10.5,M,-34.6,M,,*6F
$PYRTM,2024,128.087098579028,19.196745989178
$GPGGA,020524.00,3304.8335,N,11812.0464,W,1,09,0.8,10.8,M,-34.6,M,,*6F
$PYRTM,2024,128.087110165579,19.196757575718
$GPGGA,020525.00,3304.8332,N,11812.0455,W,1,09,0.8,10.9,M,-34.6,M,,*6A
$PYRTM,2024,128.087121724630,19.196769134769
$GPGGA,020526.00,3304.8329,N,11812.0446,W,1,09,0.8,10.9,M,-34.6,M,,*61
$PYRTM,2024,128.087133313854,19.196780723993
$GPGGA,020527.00,3304.8328,N,11812.0437,W,1,09,0.8,10.6,M,-34.6,M,,*68
$PYRTM,2024,128.087140707650,19.196788117789
$GPGGA,020528.00,3304.8326,N,11812.0428,W,1,09,0.8,10.2,M,-34.6,M,,*63
$PYRTM,2024,128.087156461447,19.196803871597
$GPGGA,020529.00,3304.8322,N,11812.0420,W,1,09,0.8,9.8,M,-34.6,M,,*5C
$PYRTM,2024,128.087168021968,19.196815432106
$GPGGA,020530.00,3304.8319,N,11812.0412,W,1,09,0.8,9.5,M,-34.6,M,,*50
$PYRTM,2024,128.087179608796,19.196827018935
$GPGGA,020531.00,3304.8316,N,11812.0405,W,1,09,0.8,9.6,M,-34.6,M,,*5B
$PYRTM,2024,128.087191171042,19.196838581181
$GPGGA,020532.00,3304.8314,N,11812.0396,W,1,09,0.8,9.9,M,-34.6,M,,*58
$PYRTM,2024,128.087202760833,19.196850170984
$GPGGA,020533.00,3304.8310,N,11812.0388,W,1,09,0.8,10.2,M,-34.6,M,,*61
$PYRTM,2024,128.087210152870,19.196857563009
$GPGGA,020534.00,3304.8307,N,11812.0379,W,1,09,0.8,10.4,M,-34.6,M,,*68
$PYRTM,2024,128.087228813704,19.196876223843
$GPGGA,020535.00,3304.8304,N,11812.0370,W,1,09,0.8,10.5,M,-34.6,M,,*62
$PYRTM,2024,128.087240362269,19.196887772407
$GPGGA,020536.00,3304.8302,N,11812.0362,W,1,09,0.8,10.5,M,-34.6,M,,*64
$PYRTM,2024,128.087251962419,19.196899372928
$GPGGA,020537.00,3304.8300,N,11812.0352,W,1,09,0.8,10.3,M,-34.6,M,,*62
$PYRTM,2024,128.087260616262,19.196908026400
$GPGGA,020538.00,3304.8296,N,11812.0343,W,1,09,0.8,10.0,M,-34.6,M,,*60
$PYRTM,2024,128.087268022882,19.196915433021
$GPGGA,020539.00,3304.8292,N,11812.0335,W,1,09,0.8,9.9,M,-34.6,M,,*55
$PYRTM,2024,128.087283765081,19.196931175220
$GPGGA,020540.00,3304.8289,N,11812.0327,W,1,09,0.8,9.9,M,-34.6,M,,*52
$PYRTM,2024,128.087295350197,19.196942760336
$GPGGA,020541.00,3304.8286,N,11812.0318,W,1,09,0.8,10.2,M,-34.6,M,,*63
$PYRTM,2024,128.087306912998,19.196954323137
$GPGGA,020542.00,3304.8284,N,11812.0309,W,1,09,0.8,10.4,M,-34.6,M,,*64
$PYRTM,2024,128.087318498912,19.196965909051
$GPGGA,020543.00,3304.8281,N,11812.0300,W,1,09,0.8,10.6,M,-34.6,M,,*6B
$PYRTM,2024,128.087330061076,19.196977471215
$GPGGA,020544.00,3304.8278,N,11812.0291,W,1,09,0.8,10.6,M,-34.6,M,,*63
$PYRTM,2024,128.087341647025,19.196989057164
$GPGGA,020545.00,3304.8275,N,11812.0282,W,1,09,0.8,10.4,M,-34.6,M,,*6F
$PYRTM,2024,128.087353208067,19.197000618206
$GPGGA,020546.00,3304.8274,N,11812.0273,W,1,09,0.8,10.1,M,-34.6,M,,*66
$PYRTM,2024,128.087364808727,19.197012218866
$GPGGA,020547.00,3304.8272,N,11812.0265,W,1,09,0.8,9.8,M,-34.6,M,,*57
$PYRTM,2024,128.087376355729,19.197023765868
$GPGGA,020548.00,3304.8269,N,11812.0256,W,1,09,0.8,9.6,M,-34.6,M,,*5C
$PYRTM,2024,128.087387956331,19.197035366470
$GPGGA,020549.00,3304.8265,N,11812.0248,W,1,09,0.8,9.7,M,-34.6,M,,*5F
$PYRTM,2024,128.087399505521,19.197046915660
$GPGGA,020550.00,3304.8262,N,11812.0239,W,1,09,0.8,10.0,M,-34.6,M,,*69
$PYRTM,2024,128.087411205266,19.197058615405
$GPGGA,020551.00,3304.8260,N,11812.0230,W,1,09,0.8,10.3,M,-34.6,M,,*60
$PYRTM,2024,128.087422767674,19.197070177813
$GPGGA,020552.00,3304.8257,N,11812.0221,W,1,09,0.8,10.5,M,-34.6,M,,*61
$PYRTM,2024,128.087434355220,19.197081765359
$GPGGA,020553.00,3304.8253,N,11812.0211,W,1,09,0.8,10.5,M,-34.6,M,,*67
$PYRTM,2024,128.087445801238,19.197093211377
$GPGGA,020554.00,3304.8250,N,11812.0203,W,1,09,0.8,10.4,M,-34.6,M,,*61
$PYRTM,2024,128.087453208229,19.197100618368
$GPGGA,020555.00,3304.8248,N,11812.0194,W,1,09,0.8,10.2,M,-34.6,M,,*62
$PYRTM,2024,128.087468948727,19.197116358866
$GPGGA,020556.00,3304.8245,N,11812.0185,W,1,09,0.8,10.0,M,-34.6,M,,*6E
$PYRTM,2024,128.087480535532,19.197127945671
$GPGGA,020557.00,3304.8242,N,11812.0177,W,1,09,0.8,10.1,M,-34.6,M,,*64
$PYRTM,2024,128.087487932245,19.197135342384
$GPGGA,020558.00,3304.8239,N,11812.0169,W,1,09,0.8,10.3,M,-34.6,M,,*6A
$PYRTM,2024,128.087503685880,19.197151096019
$GPGGA,020559.00,3304.8237,N,11812.0160,W,1,09,0.8,10.6,M,-34.6,M,,*69
$PYRTM,2024,128.087515245729,19.197162655868
$GPGGA,020600.00,3304.8235,N,11812.0151,W,1,09,0.8,10.8,M,-34.6,M,,*68
$PYRTM,2024,128.087526836597,19.197174246736
$GPGGA,020601.00,3304.8233,N,11812.0141,W,1,09,0.8,10.9,M,-34.6,M,,*6F
$PYRTM,2024,128.087538394410,19.197185804549
$GPGGA,020602.00,3304.8230,N,11812.0133,W,1,09,0.8,10.7,M,-34.6,M,,*64
$PYRTM,2024,128.087545802419,19.197193212558
$GPGGA,020603.00,3304.8226,N,11812.0124,W,1,09,0.8,10.4,M,-34.6,M,,*67
$PYRTM,2024,128.087561541933,19.197208952072
$GPGGA,020604.00,3304.8223,N,11812.0115,W,1,09,0.8,9.9,M,-34.6,M,,*52
$PYRTM,2024,128.087568950741,19.197216360880
$GPGGA,020605.00,3304.8221,N,11812.0106,W,1,09,0.8,9.7,M,-34.6,M,,*5D
$PYRTM,2024,128.087587585451,19.197234995602
$GPGGA,020606.00,3304.8218,N,11812.0097,W,1,09,0.8,9.7,M,-34.6,M,,*5D
$PYRTM,2024,128.087596277975,19.197243688113
$GPGGA,020607.00,3304.8215,N,11812.0089,W,1,09,0.8,9.8,M,-34.6,M,,*51
$PYRTM,2024,128.087603685012,19.197251095150
$GPGGA,020608.00,3304.8211,N,11812.0081,W,1,09,0.8,10.1,M,-34.6,M,,*63
$PYRTM,2024,128.087619426157,19.197266836296
$GPGGA,020609.00,3304.8207,N,11812.0072,W,1,09,0.8,10.3,M,-34.6,M,,*6B
$PYRTM,2024,128.087630988299,19.197278398438
$GPGGA,020610.00,3304.8205,N,11812.0063,W,1,09,0.8,10.3,M,-34.6,M,,*61
$PYRTM,2024,128.087642569167,19.197289979306
$GPGGA,020611.00,3304.8202,N,11812.0054,W,1,09,0.8,10.3,M,-34.6,M,,*63
$PYRTM,2024,128.087654136771,19.197301546910
$GPGGA,020612.00,3304.8199,N,11812.0046,W,1,09,0.8,10.2,M,-34.6,M,,*63
$PYRTM,2024,128.087665723310,19.197313133449
$GPGGA,020613.00,3304.8196,N,11812.0038,W,1,09,0.8,10.0,M,-34.6,M,,*66
$PYRTM,2024,128.087677285475,19.197324695613
$GPGGA,020614.00,3304.8194,N,11812.0029,W,1,09,0.8,9.9,M,-34.6,M,,*52
$PYRTM,2024,128.087684694387,19.197332104525
$GPGGA,020615.00,3304.8191,N,11812.0019,W,1,09,0.8,10.0,M,-34.6,M,,*64
$PYRTM,2024,128.087696382014,19.197343792153
$GPGGA,020616.00,3304.8188,N,11812.0010,W,1,09,0.8,10.3,M,-34.6,M,,*65
$PYRTM,2024,128.087712034433,19.197359444572
$GPGGA,020617.00,3304.8185,N,11812.0002,W,1,09,0.8,10.7,M,-34.6,M,,*6E
$PYRTM,2024,128.087719414225,19.197366824363
$GPGGA,020618.00,3304.8182,N,11811.9994,W,1,09,0.8,10.8,M,-34.6,M,,*65
$PYRTM,2024,128.087731103461,19.197378513600
$GPGGA,020619.00,3304.8179,N,11811.9985,W,1,09,0.8,10.6,M,-34.6,M,,*6E
$PYRTM,2024,128.087746728623,19.197394138762
$GPGGA,020620.00,3304.8177,N,11811.9975,W,1,09,0.8,10.1,M,-34.6,M,,*62
$PYRTM,2024,128.087754135255,19.197401545394
$GPGGA,020621.00,3304.8175,N,11811.9966,W,1,09,0.8,9.6,M,-34.6,M,,*5C
$PYRTM,2024,128.087769877951,19.197417288102
$GPGGA,020622.00,3304.8172,N,11811.9957,W,1,09,0.8,9.3,M,-34.6,M,,*5F
$PYRTM,2024,128.087781464074,19.197428874213
$GPGGA,020623.00,3304.8168,N,11811.9950,W,1,09,0.8,9.4,M,-34.6,M,,*55
$PYRTM,2024,128.087793025891,19.197440436030
$GPGGA,020624.00,3304.8165,N,11811.9942,W,1,09,0.8,9.8,M,-34.6,M,,*50
$PYRTM,2024,128.087804612431,19.197452022569
$GPGGA,020625.00,3304.8162,N,11811.9933,W,1,09,0.8,10.1,M,-34.6,M,,*61
$PYRTM,2024,128.087816173183,19.197463583322
$GPGGA,020626.00,3304.8159,N,11811.9924,W,1,09,0.8,10.3,M,-34.6,M,,*6E
$PYRTM,2024,128.087827761979,19.197475172118
$GPGGA,020627.00,3304.8156,N,11811.9915,W,1,09,0.8,10.3,M,-34.6,M,,*62
$PYRTM,2024,128.087839322222,19.197486732361
$GPGGA,020628.00,3304.8153,N,11811.9906,W,1,09,0.8,10.3,M,-34.6,M,,*6A
$PYRTM,2024,128.087850908519,19.197498318657
$GPGGA,020629.00,3304.8150,N,11811.9897,W,1,09,0.8,10.1,M,-34.6,M,,*63
$PYRTM,2024,128.087862472199,19.197509882338
$GPGGA,020630.00,3304.8148,N,11811.9889,W,1,09,0.8,9.9,M,-34.6,M,,*5D
$PYRTM,2024,128.087874059201,19.197521469340
$GPGGA,020631.00,3304.8145,N,11811.9881,W,1,09,0.8,9.7,M,-34.6,M,,*57
$PYRTM,2024,128.087885618125,19.197533028264
$GPGGA,020632.00,3304.8143,N,11811.9872,W,1,09,0.8,9.7,M,-34.6,M,,*5E
$PYRTM,2024,128.087897208356,19.197544618495
$GPGGA,020633.00,3304.8140,N,11811.9864,W,1,09,0.8,9.9,M,-34.6,M,,*55
$PYRTM,2024,128.087908768970,19.197556179120
$GPGGA,020634.00,3304.8136,N,11811.9855,W,1,09,0.8,10.2,M,-34.6,M,,*62
$PYRTM,2024,128.087920353079,19.197567763218
$GPGGA,020635.00,3304.8133,N,11811.9847,W,1,09,0.8,10.4,M,-34.6,M,,*63
$PYRTM,2024,128.087927761192,19.197575171331
$GPGGA,020636.00,3304.8131,N,11811.9838,W,1,09,0.8,10.3,M,-34.6,M,,*6D
$PYRTM,2024,128.087946394271,19.197593804410
$GPGGA,020637.00,3304.8129,N,11811.9828,W,1,09,0.8,10.2,M,-34.6,M,,*65
$PYRTM,2024,128.087955063750,19.197602473889
$GPGGA,020638.00,3304.8127,N,11811.9819,W,1,09,0.8,10.0,M,-34.6,M,,*64
$PYRTM,2024,128.087966649931,19.197614060069
$GPGGA,020639.00,3304.8123,N,11811.9810,W,1,09,0.8,9.7,M,-34.6,M,,*57
$PYRTM,2024,128.087973941921,19.197621352072
$GPGGA,020640.00,3304.8120,N,11811.9802,W,1,09,0.8,9.5,M,-34.6,M,,*5B
$PYRTM,2024,128.087986213125,19.197633623264
$GPGGA,020641.00,3304.8116,N,11811.9794,W,1,09,0.8,9.6,M,-34.6,M,,*5C
$PYRTM,2024,128.088001359780,19.197648769919
$GPGGA,020642.00,3304.8114,N,11811.9786,W,1,09,0.8,9.8,M,-34.6,M,,*50
$PYRTM,2024,128.088012949734,19.197660359884
$GPGGA,020643.00,3304.8112,N,11811.9777,W,1,09,0.8,9.9,M,-34.6,M,,*58
$PYRTM,2024,128.088020237558,19.197667647708
$GPGGA,020644.00,3304.8108,N,11811.9768,W,1,09,0.8,9.8,M,-34.6,M,,*5B
$PYRTM,2024,128.088036098218,19.197683508368
$GPGGA,020645.00,3304.8104,N,11811.9760,W,1,09,0.8,9.7,M,-34.6,M,,*51
$PYRTM,2024,128.088047656840,19.197695066979
$GPGGA,020646.00,3304.8100,N,11811.9753,W,1,09,0.8,9.7,M,-34.6,M,,*56
$PYRTM,2024,128.088055063368,19.197702473507
$GPGGA,020647.00,3304.8098,N,11811.9744,W,1,09,0.8,9.6,M,-34.6,M,,*50
$PYRTM,2024,128.088070805637,19.197718215787
$GPGGA,020648.00,3304.8097,N,11811.9734,W,1,09,0.8,9.6,M,-34.6,M,,*57
$PYRTM,2024,128.088082391817,19.197729801956
$GPGGA,020649.00,3304.8094,N,11811.9726,W,1,09,0.8,9.7,M,-34.6,M,,*57
$PYRTM,2024,128.088089798056,19.197737208194
$GPGGA,020650.00,3304.8090,N,11811.9719,W,1,09,0.8,10.0,M,-34.6,M,,*68
$PYRTM,2024,128.088105541123,19.197752951262
$GPGGA,020651.00,3304.8086,N,11811.9711,W,1,09,0.8,10.3,M,-34.6,M,,*65
$PYRTM,2024,128.088117100937,19.197764511076
$GPGGA,020652.00,3304.8084,N,11811.9702,W,1,09,0.8,10.5,M,-34.6,M,,*60
$PYRTM,2024,128.088124509676,19.197771919815
$GPGGA,020653.00,3304.8083,N,11811.9693,W,1,09,0.8,10.4,M,-34.6,M,,*6E
$PYRTM,2024,128.088140248345,19.197787658484
$GPGGA,020654.00,3304.8080,N,11811.9684,W,1,09,0.8,10.1,M,-34.6,M,,*69
$PYRTM,2024,128.088151834722,19.197799244861
$GPGGA,020655.00,3304.8077,N,11811.9675,W,1,09,0.8,9.8,M,-34.6,M,,*5F
$PYRTM,2024,128.088163395961,19.197810806100
$GPGGA,020656.00,3304.8072,N,11811.9668,W,1,09,0.8,9.6,M,-34.6,M,,*5B
$PYRTM,2024,128.088174983519,19.197822393657
$GPGGA,020657.00,3304.8068,N,11811.9660,W,1,09,0.8,9.5,M,-34.6,M,,*5A
$PYRTM,2024,128.088186545093,19.197833955231
$GPGGA,020658.00,3304.8065,N,11811.9653,W,1,09,0.8,9.5,M,-34.6,M,,*58
$PYRTM,2024,128.088198145949,19.197845556088
$GPGGA,020659.00,3304.8062,N,11811.9645,W,1,09,0.8,9.4,M,-34.6,M,,*58
$PYRTM,2024,128.088209693796,19.197857103935
$GPGGA,020700.00,3304.8058,N,11811.9637,W,1,09,0.8,9.4,M,-34.6,M,,*59
$PYRTM,2024,128.088221280127,19.197868690266
$GPGGA,020701.00,3304.8055,N,11811.9629,W,1,09,0.8,9.5,M,-34.6,M,,*5B
$PYRTM,2024,128.088232844826,19.197880254965
$GPGGA,020702.00,3304.8051,N,11811.9621,W,1,09,0.8,9.6,M,-34.6,M,,*57
$PYRTM,2024,128.088244429803,19.197891839942
$GPGGA,020703.00,3304.8047,N,11811.9613,W,1,09,0.8,9.8,M,-34.6,M,,*5E
$PYRTM,2024,128.088251840278,19.197899250417
$GPGGA,020704.00,3304.8044,N,11811.9605,W,1,09,0.8,10.1,M,-34.6,M,,*6C
$PYRTM,2024,128.088267576667,19.197914986806
$GPGGA,020705.00,3304.8041,N,11811.9596,W,1,09,0.8,10.3,M,-34.6,M,,*63
$PYRTM,2024,128.088279140324,19.197926550463
$GPGGA,020706.00,3304.8038,N,11811.9587,W,1,09,0.8,10.3,M,-34.6,M,,*6E
$PYRTM,2024,128.088286547326,19.197933957477
$GPGGA,020707.00,3304.8035,N,11811.9579,W,1,09,0.8,10.3,M,-34.6,M,,*63
$PYRTM,2024,128.088305180694,19.197952590833
$GPGGA,020708.00,3304.8032,N,11811.9570,W,1,09,0.8,10.2,M,-34.6,M,,*63
$PYRTM,2024,128.088313874213,19.197961284352
$GPGGA,020709.00,3304.8029,N,11811.9563,W,1,09,0.8,10.1,M,-34.6,M,,*69
$PYRTM,2024,128.088325435764,19.197972845903
$GPGGA,020710.00,3304.8026,N,11811.9555,W,1,09,0.8,9.8,M,-34.6,M,,*5A
$PYRTM,2024,128.088337021863,19.197984432002
$GPGGA,020711.00,3304.8024,N,11811.9547,W,1,09,0.8,9.5,M,-34.6,M,,*57
$PYRTM,2024,128.088344418646,19.197991828785
$GPGGA,020712.00,3304.8021,N,11811.9539,W,1,09,0.8,9.3,M,-34.6,M,,*5E
$PYRTM,2024,128.088360172928,19.198007583067
$GPGGA,020713.00,3304.8017,N,11811.9532,W,1,09,0.8,9.2,M,-34.6,M,,*50
$PYRTM,2024,128.088371731736,19.198019141875
$GPGGA,020714.00,3304.8012,N,11811.9524,W,1,09,0.8,9.4,M,-34.6,M,,*53
$PYRTM,2024,128.088379138924,19.198026549062
$GPGGA,020715.00,3304.8007,N,11811.9517,W,1,09,0.8,9.7,M,-34.6,M,,*55
$PYRTM,2024,128.088394880637,19.198042290775
$GPGGA,020716.00,3304.8003,N,11811.9508,W,1,09,0.8,9.9,M,-34.6,M,,*52
$PYRTM,2024,128.088402287199,19.198049697338
$GPGGA,020717.00,3304.8000,N,11811.9499,W,1,09,0.8,10.0,M,-34.6,M,,*68
$PYRTM,2024,128.088418028345,19.198065438484
$GPGGA,020718.00,3304.7997,N,11811.9490,W,1,09,0.8,10.0,M,-34.6,M,,*66
$PYRTM,2024,128.088429614942,19.198077025093
$GPGGA,020719.00,3304.7993,N,11811.9483,W,1,09,0.8,9.8,M,-34.6,M,,*51
$PYRTM,2024,128.088436910150,19.198084320289
$GPGGA,020720.00,3304.7990,N,11811.9475,W,1,09,0.8,9.6,M,-34.6,M,,*5F
$PYRTM,2024,128.088452764144,19.198100174282
$GPGGA,020721.00,3304.7987,N,11811.9467,W,1,09,0.8,9.3,M,-34.6,M,,*5E
$PYRTM,2024,128.088464324931,19.198111735069
$GPGGA,020722.00,3304.7985,N,11811.9459,W,1,09,0.8,9.3,M,-34.6,M,,*52
$PYRTM,2024,128.088475911574,19.198123321725
$GPGGA,020723.00,3304.7982,N,11811.9452,W,1,09,0.8,9.7,M,-34.6,M,,*5B
$PYRTM,2024,128.088487473241,19.198134883380
$GPGGA,020724.00,3304.7978,N,11811.9444,W,1,09,0.8,10.1,M,-34.6,M,,*60
$PYRTM,2024,128.088494880046,19.198142290185
$GPGGA,020725.00,3304.7974,N,11811.9435,W,1,09,0.8,10.3,M,-34.6,M,,*69
$PYRTM,2024,128.088510621389,19.198158031528
$GPGGA,020726.00,3304.7971,N,11811.9426,W,1,09,0.8,10.4,M,-34.6,M,,*6A
$PYRTM,2024,128.088522210845,19.198169620984
$GPGGA,020727.00,3304.7968,N,11811.9417,W,1,09,0.8,10.3,M,-34.6,M,,*66
$PYRTM,2024,128.088529602593,19.198177012731
$GPGGA,020728.00,3304.7965,N,11811.9409,W,1,09,0.8,10.0,M,-34.6,M,,*68
$PYRTM,2024,128.088545359190,19.198192769329
$GPGGA,020729.00,3304.7961,N,11811.9401,W,1,09,0.8,9.6,M,-34.6,M,,*5B
$PYRTM,2024,128.088556916331,19.198204326470
$GPGGA,020730.00,3304.7958,N,11811.9393,W,1,09,0.8,9.1,M,-34.6,M,,*52
$PYRTM,2024,128.088568504444,19.198215914583
$GPGGA,020731.00,3304.7954,N,11811.9385,W,1,09,0.8,9.0,M,-34.6,M,,*59
$PYRTM,2024,128.088580066875,19.198227477014
$GPGGA,020732.00,3304.7950,N,11811.9378,W,1,09,0.8,9.1,M,-34.6,M,,*5D
$PYRTM,2024,128.088587472465,19.198234882616
$GPGGA,020733.00,3304.7946,N,11811.9371,W,1,09,0.8,9.6,M,-34.6,M,,*55
$PYRTM,2024,128.088603215324,19.198250625463
$GPGGA,020734.00,3304.7943,N,11811.9364,W,1,09,0.8,10.0,M,-34.6,M,,*6D
$PYRTM,2024,128.088614800579,19.198262210718
$GPGGA,020735.00,3304.7939,N,11811.9355,W,1,09,0.8,10.3,M,-34.6,M,,*60
$PYRTM,2024,128.088622198333,19.198269608472
$GPGGA,020736.00,3304.7935,N,11811.9345,W,1,09,0.8,10.4,M,-34.6,M,,*69
$PYRTM,2024,128.088637948646,19.198285358785
$GPGGA,020737.00,3304.7932,N,11811.9336,W,1,09,0.8,10.3,M,-34.6,M,,*6C
$PYRTM,2024,128.088645344410,19.198292754549
$GPGGA,020738.00,3304.7929,N,11811.9327,W,1,09,0.8,10.2,M,-34.6,M,,*68
$PYRTM,2024,128.088663990521,19.198311400660
$GPGGA,020739.00,3304.7926,N,11811.9321,W,1,09,0.8,10.0,M,-34.6,M,,*62
$PYRTM,2024,128.088672660382,19.198320070521
$GPGGA,020740.00,3304.7923,N,11811.9313,W,1,09,0.8,9.7,M,-34.6,M,,*57
$PYRTM,2024,128.088679963102,19.198327373252
$GPGGA,020741.00,3304.7920,N,11811.9305,W,1,09,0.8,9.3,M,-34.6,M,,*56
$PYRTM,2024,128.088695806169,19.198343216319
$GPGGA,020742.00,3304.7918,N,11811.9296,W,1,09,0.8,9.2,M,-34.6,M,,*54
$PYRTM,2024,128.088707398067,19.198354808206
$GPGGA,020743.00,3304.7915,N,11811.9288,W,1,09,0.8,9.3,M,-34.6,M,,*56
$PYRTM,2024,128.088714672743,19.198362082882
$GPGGA,020744.00,3304.7911,N,11811.9281,W,1,09,0.8,9.7,M,-34.6,M,,*58
$PYRTM,2024,128.088730545382,19.198377955521
$GPGGA,020745.00,3304.7906,N,11811.9273,W,1,09,0.8,10.2,M,-34.6,M,,*6F
$PYRTM,2024,128.088742103611,19.198389513750
$GPGGA,020746.00,3304.7903,N,11811.9265,W,1,09,0.8,10.5,M,-34.6,M,,*69
$PYRTM,2024,128.088753686134,19.198401096273
$GPGGA,020747.00,3304.7899,N,11811.9256,W,1,09,0.8,10.5,M,-34.6,M,,*6A
$PYRTM,2024,128.088765251458,19.198412661597
$GPGGA,020748.00,3304.7896,N,11811.9247,W,1,09,0.8,10.2,M,-34.6,M,,*6D
$PYRTM,2024,128.088776838947,19.198424249086
$GPGGA,020749.00,3304.7892,N,11811.9238,W,1,09,0.8,9.8,M,-34.6,M,,*52
$PYRTM,2024,128.088788400880,19.198435811019
$GPGGA,020750.00,3304.7888,N,11811.9230,W,1,09,0.8,9.5,M,-34.6,M,,*54
$PYRTM,2024,128.088795806169,19.198443216319
$GPGGA,020751.00,3304.7885,N,11811.9223,W,1,09,0.8,9.4,M,-34.6,M,,*5B
$PYRTM,2024,128.088811547419,19.198458957569
$GPGGA,020752.00,3304.7882,N,11811.9216,W,1,09,0.8,9.5,M,-34.6,M,,*58
$PYRTM,2024,128.088823135648,19.198470545787
$GPGGA,020753.00,3304.7878,N,11811.9207,W,1,09,0.8,9.8,M,-34.6,M,,*51
$PYRTM,2024,128.088830530312,19.198477940451
$GPGGA,020754.00,3304.7875,N,11811.9199,W,1,09,0.8,10.0,M,-34.6,M,,*6F
$PYRTM,2024,128.088846287049,19.198493697188
$GPGGA,020755.00,3304.7872,N,11811.9192,W,1,09,0.8,10.3,M,-34.6,M,,*61
$PYRTM,2024,128.088857843796,19.198505253947
$GPGGA,020756.00,3304.7868,N,11811.9184,W,1,09,0.8,10.4,M,-34.6,M,,*69
$PYRTM,2024,128.088869441505,19.198516851644
$GPGGA,020757.00,3304.7865,N,11811.9175,W,1,09,0.8,10.2,M,-34.6,M,,*6D
$PYRTM,2024,128.088880992072,19.198528402222
$GPGGA,020758.00,3304.7862,N,11811.9167,W,1,09,0.8,9.9,M,-34.6,M,,*55
$PYRTM,2024,128.088888400590,19.198535810729
$GPGGA,020759.00,3304.7859,N,11811.9158,W,1,09,0.8,9.6,M,-34.6,M,,*5F
$PYRTM,2024,128.088904140220,19.198551550359
$GPGGA,020800.00,3304.7856,N,11811.9150,W,1,09,0.8,9.6,M,-34.6,M,,*5B
$PYRTM,2024,128.088915726852,19.198563136991
$GPGGA,020801.00,3304.7853,N,11811.9142,W,1,09,0.8,9.7,M,-34.6,M,,*5D
$PYRTM,2024,128.088927289537,19.198574699676
$GPGGA,020802.00,3304.7849,N,11811.9135,W,1,09,0.8,10.0,M,-34.6,M,,*6A
$PYRTM,2024,128.088938876852,19.198586286991
$GPGGA,020803.00,3304.7845,N,11811.9127,W,1,09,0.8,10.3,M,-34.6,M,,*67
$PYRTM,2024,128.088950438565,19.198597848704
$GPGGA,020804.00,3304.7842,N,11811.9119,W,1,09,0.8,10.4,M,-34.6,M,,*6D
$PYRTM,2024,128.088962024352,19.198609434491
$GPGGA,020805.00,3304.7839,N,11811.9109,W,1,09,0.8,10.3,M,-34.6,M,,*66
$PYRTM,2024,128.088973587280,19.198620997419
$GPGGA,020806.00,3304.7836,N,11811.9100,W,1,09,0.8,10.0,M,-34.6,M,,*60
$PYRTM,2024,128.088985174421,19.198632584560
$GPGGA,020807.00,3304.7832,N,11811.9093,W,1,09,0.8,9.9,M,-34.6,M,,*5F
$PYRTM,2024,128.088996733519,19.198644143657
$GPGGA,020808.00,3304.7827,N,11811.9085,W,1,09,0.8,9.9,M,-34.6,M,,*53
$PYRTM,2024,128.089004140694,19.198651550833
$GPGGA,020809.00,3304.7824,N,11811.9077,W,1,09,0.8,10.0,M,-34.6,M,,*6D
$PYRTM,2024,128.089022775752,19.198670185891
$GPGGA,020810.00,3304.7821,N,11811.9070,W,1,09,0.8,10.2,M,-34.6,M,,*65
$PYRTM,2024,128.089031472338,19.198678882477
$GPGGA,020811.00,3304.7818,N,11811.9062,W,1,09,0.8,10.3,M,-34.6,M,,*6C
$PYRTM,2024,128.089043030324,19.198690440463
$GPGGA,020812.00,3304.7816,N,11811.9054,W,1,09,0.8,10.3,M,-34.6,M,,*64
$PYRTM,2024,128.089054620880,19.198702031019
$GPGGA,020813.00,3304.7812,N,11811.9047,W,1,09,0.8,10.1,M,-34.6,M,,*61
$PYRTM,2024,128.089062012049,19.198709422199
$GPGGA,020814.00,3304.7809,N,11811.9038,W,1,09,0.8,9.9,M,-34.6,M,,*54
$PYRTM,2024,128.089077765764,19.198725175903
$GPGGA,020815.00,3304.7805,N,11811.9030,W,1,09,0.8,9.8,M,-34.6,M,,*50
$PYRTM,2024,128.089085175150,19.198732585289
$GPGGA,020816.00,3304.7802,N,11811.9021,W,1,09,0.8,10.0,M,-34.6,M,,*64
$PYRTM,2024,128.089103808437,19.198751218576
$GPGGA,020817.00,3304.7799,N,11811.9012,W,1,09,0.8,10.4,M,-34.6,M,,*6C
$PYRTM,2024,128.089115369954,19.198762780093
$GPGGA,020818.00,3304.7795,N,11811.9005,W,1,09,0.8,10.7,M,-34.6,M,,*6A
$PYRTM,2024,128.089124064259,19.198771474398
$GPGGA,020819.00,3304.7791,N,11811.8997,W,1,09,0.8,10.7,M,-34.6,M,,*6C
$PYRTM,2024,128.089135624120,19.198783034259
$GPGGA,020820.00,3304.7788,N,11811.8988,W,1,09,0.8,10.4,M,-34.6,M,,*63
$PYRTM,2024,128.089147210127,19.198794620266
$GPGGA,020821.00,3304.7786,N,11811.8979,W,1,09,0.8,9.9,M,-34.6,M,,*57
$PYRTM,2024,128.089154504583,19.198801914722
$GPGGA,020822.00,3304.7783,N,11811.8969,W,1,09,0.8,9.5,M,-34.6,M,,*5C
$PYRTM,2024,128.089170361586,19.198817771725
$GPGGA,020823.00,3304.7779,N,11811.8962,W,1,09,0.8,9.4,M,-34.6,M,,*52
$PYRTM,2024,128.089181919711,19.198829329850
$GPGGA,020824.00,3304.7774,N,11811.8957,W,1,09,0.8,9.8,M,-34.6,M,,*52
$PYRTM,2024,128.089193510139,19.198840920278
$GPGGA,020825.00,3304.7771,N,11811.8950,W,1,09,0.8,10.1,M,-34.6,M,,*60
$PYRTM,2024,128.089205068681,19.198852478819
$GPGGA,020826.00,3304.7768,N,11811.8942,W,1,09,0.8,10.3,M,-34.6,M,,*6A
$PYRTM,2024,128.089216654676,19.198864064815
$GPGGA,020827.00,3304.7765,N,11811.8933,W,1,09,0.8,10.4,M,-34.6,M,,*67
$PYRTM,2024,128.089224065197,19.198871475336
$GPGGA,020828.00,3304.7762,N,11811.8923,W,1,09,0.8,10.4,M,-34.6,M,,*6E
$PYRTM,2024,128.089239803171,19.198887213310
$GPGGA,020829.00,3304.7759,N,11811.8914,W,1,09,0.8,10.5,M,-34.6,M,,*62
$PYRTM,2024,128.089251363611,19.198898773750
$GPGGA,020830.00,3304.7754,N,11811.8907,W,1,09,0.8,10.5,M,-34.6,M,,*65
$PYRTM,2024,128.089258772558,19.198906182697
$GPGGA,020831.00,3304.7750,N,11811.8899,W,1,09,0.8,10.6,M,-34.6,M,,*65
$PYRTM,2024,128.089274512581,19.198921922720
$GPGGA,020832.00,3304.7748,N,11811.8891,W,1,09,0.8,10.6,M,-34.6,M,,*67
$PYRTM,2024,128.089286099583,19.198933509722
$GPGGA,020833.00,3304.7747,N,11811.8882,W,1,09,0.8,10.4,M,-34.6,M,,*69
$PYRTM,2024,128.089297661829,19.198945071968
$GPGGA,020834.00,3304.7744,N,11811.8873,W,1,09,0.8,10.0,M,-34.6,M,,*67
$PYRTM,2024,128.089309248854,19.198956659005
$GPGGA,020835.00,3304.7740,N,11811.8866,W,1,09,0.8,9.6,M,-34.6,M,,*58
$PYRTM,2024,128.089316541817,19.198963951956
$GPGGA,020836.00,3304.7735,N,11811.8859,W,1,09,0.8,9.5,M,-34.6,M,,*56
$PYRTM,2024,128.089332390833,19.198979800984
$GPGGA,020837.00,3304.7732,N,11811.8851,W,1,09,0.8,9.7,M,-34.6,M,,*5A
$PYRTM,2024,128.089343958646,19.198991368785
