$PYRTM,2024,126.601878735486,17.711526145625
$GPGGA,142641.00,3401.1836,N,11930.7204,W,1,11,0.8,12.5,M,-33.5,M,,*6D
$PYRTM,2024,126.601890297546,17.711537707685
$GPGGA,142642.00,3401.1816,N,11930.7211,W,1,11,0.8,12.5,M,-33.5,M,,*68
$PYRTM,2024,126.601901883958,17.711549294097
$GPGGA,142643.00,3401.1795,N,11930.7218,W,1,11,0.8,12.5,M,-33.5,M,,*64
$PYRTM,2024,126.601913445706,17.711560855856
$GPGGA,142644.00,3401.1774,N,11930.7225,W,1,11,0.8,12.5,M,-33.5,M,,*62
$PYRTM,2024,126.601925035532,17.711572445671
$GPGGA,142645.00,3401.1753,N,11930.7232,W,1,11,0.8,12.5,M,-33.5,M,,*60
$PYRTM,2024,126.601936594236,17.711584004375
$GPGGA,142646.00,3401.1732,N,11930.7239,W,1,11,0.8,12.5,M,-33.5,M,,*6F
$PYRTM,2024,126.601948181933,17.711595592072
$GPGGA,142647.00,3401.1710,N,11930.7247,W,1,11,0.8,12.5,M,-33.5,M,,*67
$PYRTM,2024,126.601955579676,17.711602989815
$GPGGA,142648.00,3401.1688,N,11930.7253,W,1,11,0.8,12.5,M,-33.5,M,,*6D
$PYRTM,2024,126.601971328970,17.711618739109
$GPGGA,142649.00,3401.1667,N,11930.7260,W,1,11,0.8,12.4,M,-33.5,M,,*6C
$PYRTM,2024,126.601982892477,17.711630302616
$GPGGA,142650.00,3401.1645,N,11930.7267,W,1,11,0.8,12.3,M,-33.5,M,,*64
$PYRTM,2024,126.601994477303,17.711641887442
$GPGGA,142651.00,3401.1624,N,11930.7273,W,1,11,0.8,12.5,M,-33.5,M,,*61
$PYRTM,2024,126.602006039329,17.711653449468
$GPGGA,142652.00,3401.1604,N,11930.7280,W,1,11,0.8,12.6,M,-33.6,M,,*6C
$PYRTM,2024,126.602013448275,17.711660858414
$GPGGA,142653.00,3401.1583,N,11930.7287,W,1,11,0.8,12.7,M,-33.6,M,,*67
$PYRTM,2024,126.602029188206,17.711676598356
$GPGGA,142654.00,3401.1562,N,11930.7293,W,1,11,0.8,12.6,M,-33.6,M,,*6B
$PYRTM,2024,126.602040787836,17.711688197975
$GPGGA,142655.00,3401.1541,N,11930.7300,W,1,11,0.8,12.6,M,-33.6,M,,*60
$PYRTM,2024,126.602052335648,17.711699745799
$GPGGA,142656.00,3401.1520,N,11930.7307,W,1,11,0.8,12.5,M,-33.6,M,,*60
$PYRTM,2024,126.602063922812,17.711711332963
$GPGGA,142657.00,3401.1499,N,11930.7314,W,1,11,0.8,12.6,M,-33.6,M,,*63
$PYRTM,2024,126.602075483264,17.711722893403
$GPGGA,142658.00,3401.1478,N,11930.7321,W,1,11,0.8,12.6,M,-33.6,M,,*65
$PYRTM,2024,126.602087072963,17.711734483113
$GPGGA,142659.00,3401.1456,N,11930.7328,W,1,11,0.8,12.5,M,-33.6,M,,*62
$PYRTM,2024,126.602098633299,17.711746043438
$GPGGA,142700.00,3401.1435,N,11930.7335,W,1,11,0.8,12.4,M,-33.6,M,,*67
$PYRTM,2024,126.602110219421,17.711757629560
$GPGGA,142701.00,3401.1414,N,11930.7342,W,1,11,0.8,12.4,M,-33.6,M,,*65
$PYRTM,2024,126.602121780683,17.711769190822
$GPGGA,142702.00,3401.1393,N,11930.7350,W,1,11,0.8,12.5,M,-33.6,M,,*6C
$PYRTM,2024,126.602129186910,17.711776597049
$GPGGA,142703.00,3401.1372,N,11930.7356,W,1,11,0.8,12.6,M,-33.6,M,,*67
$PYRTM,2024,126.602144928727,17.711792338866
$GPGGA,142704.00,3401.1351,N,11930.7363,W,1,11,0.8,12.4,M,-33.6,M,,*65
$PYRTM,2024,126.602152336551,17.711799746701
$GPGGA,142705.00,3401.1329,N,11930.7370,W,1,11,0.8,12.2,M,-33.6,M,,*6F
$PYRTM,2024,126.602170970706,17.711818380856
$GPGGA,142706.00,3401.1309,N,11930.7377,W,1,11,0.8,12.3,M,-33.6,M,,*68
$PYRTM,2024,126.602179664826,17.711827074965
$GPGGA,142707.00,3401.1289,N,11930.7384,W,1,11,0.8,12.6,M,-33.6,M,,*69
$PYRTM,2024,126.602187059514,17.711834469653
$GPGGA,142708.00,3401.1268,N,11930.7392,W,1,11,0.8,12.6,M,-33.6,M,,*6E
$PYRTM,2024,126.602202816204,17.711850226343
$GPGGA,142709.00,3401.1246,N,11930.7399,W,1,11,0.8,12.5,M,-33.6,M,,*6B
$PYRTM,2024,126.602214374167,17.711861784317
$GPGGA,142710.00,3401.1226,N,11930.7405,W,1,11,0.8,12.5,M,-33.6,M,,*67
$PYRTM,2024,126.602225964398,17.711873374537
$GPGGA,142711.00,3401.1205,N,11930.7412,W,1,11,0.8,12.5,M,-33.6,M,,*61
$PYRTM,2024,126.602237521736,17.711884931875
$GPGGA,142712.00,3401.1184,N,11930.7419,W,1,11,0.8,12.6,M,-33.6,M,,*60
$PYRTM,2024,126.602244929363,17.711892339502
$GPGGA,142713.00,3401.1163,N,11930.7426,W,1,11,0.8,12.7,M,-33.6,M,,*65
$PYRTM,2024,126.602260671400,17.711908081539
$GPGGA,142714.00,3401.1142,N,11930.7433,W,1,11,0.8,12.8,M,-33.6,M,,*6A
$PYRTM,2024,126.602272257130,17.711919667269
$GPGGA,142715.00,3401.1121,N,11930.7439,W,1,11,0.8,12.7,M,-33.6,M,,*6B
$PYRTM,2024,126.602283818866,17.711931229005
$GPGGA,142716.00,3401.1101,N,11930.7446,W,1,11,0.8,12.7,M,-33.6,M,,*62
$PYRTM,2024,126.602295405058,17.711942815197
$GPGGA,142717.00,3401.1080,N,11930.7454,W,1,11,0.8,12.8,M,-33.6,M,,*67
$PYRTM,2024,126.602306966505,17.711954376644
$GPGGA,142718.00,3401.1059,N,11930.7461,W,1,11,0.8,12.7,M,-33.6,M,,*65
$PYRTM,2024,126.602318553981,17.711965964132
$GPGGA,142719.00,3401.1038,N,11930.7467,W,1,11,0.8,12.6,M,-33.6,M,,*64
$PYRTM,2024,126.602325949352,17.711973359491
$GPGGA,142720.00,3401.1017,N,11930.7473,W,1,11,0.8,12.6,M,-33.6,M,,*66
$PYRTM,2024,126.602344595012,17.711992005150
$GPGGA,142721.00,3401.0996,N,11930.7481,W,1,11,0.8,12.6,M,-33.6,M,,*6B
$PYRTM,2024,126.602353262569,17.712000672708
$GPGGA,142722.00,3401.0975,N,11930.7489,W,1,11,0.8,12.6,M,-33.6,M,,*6D
$PYRTM,2024,126.602360671701,17.712008081840
$GPGGA,142723.00,3401.0954,N,11930.7496,W,1,11,0.8,12.8,M,-33.6,M,,*6F
$PYRTM,2024,126.602376411065,17.712023821204
$GPGGA,142724.00,3401.0933,N,11930.7502,W,1,11,0.8,12.8,M,-33.6,M,,*65
$PYRTM,2024,126.602388014317,17.712035424456
$GPGGA,142725.00,3401.0912,N,11930.7508,W,1,11,0.8,12.9,M,-33.6,M,,*6C
$PYRTM,2024,126.602399560521,17.712046970660
$GPGGA,142726.00,3401.0891,N,11930.7516,W,1,11,0.8,13.0,M,-33.6,M,,*62
$PYRTM,2024,126.602411149514,17.712058559653
$GPGGA,142727.00,3401.0871,N,11930.7524,W,1,11,0.8,12.9,M,-33.6,M,,*64
$PYRTM,2024,126.602418542743,17.712065952894
$GPGGA,142728.00,3401.0850,N,11930.7532,W,1,11,0.8,12.8,M,-33.6,M,,*6E
$PYRTM,2024,126.602434290000,17.712081700139
$GPGGA,142729.00,3401.0830,N,11930.7538,W,1,11,0.8,12.9,M,-33.6,M,,*62
$PYRTM,2024,126.602445857685,17.712093267824
$GPGGA,142730.00,3401.0809,N,11930.7543,W,1,11,0.8,12.9,M,-33.6,M,,*6C
$PYRTM,2024,126.602457444329,17.712104854468
$GPGGA,142731.00,3401.0787,N,11930.7551,W,1,11,0.8,12.8,M,-33.6,M,,*66
$PYRTM,2024,126.602469005023,17.712116415162
$GPGGA,142732.00,3401.0767,N,11930.7560,W,1,11,0.8,12.7,M,-33.6,M,,*66
$PYRTM,2024,126.602480592176,17.712128002315
$GPGGA,142733.00,3401.0747,N,11930.7568,W,1,11,0.8,12.7,M,-33.6,M,,*6D
$PYRTM,2024,126.602492153137,17.712139563287
$GPGGA,142734.00,3401.0726,N,11930.7575,W,1,11,0.8,12.7,M,-33.6,M,,*61
$PYRTM,2024,126.602503740914,17.712151151053
$GPGGA,142735.00,3401.0705,N,11930.7583,W,1,11,0.8,12.8,M,-33.6,M,,*67
$PYRTM,2024,126.602511135116,17.712158545255
$GPGGA,142736.00,3401.0684,N,11930.7590,W,1,11,0.8,13.0,M,-33.6,M,,*67
$PYRTM,2024,126.602529782060,17.712177192199
$GPGGA,142737.00,3401.0662,N,11930.7599,W,1,11,0.8,12.9,M,-33.6,M,,*6F
$PYRTM,2024,126.602541342639,17.712188752778
$GPGGA,142738.00,3401.0642,N,11930.7607,W,1,11,0.8,12.8,M,-33.6,M,,*67
$PYRTM,2024,126.602552931690,17.712200341829
$GPGGA,142739.00,3401.0621,N,11930.7614,W,1,11,0.8,12.8,M,-33.6,M,,*61
$PYRTM,2024,126.602561598484,17.712209008623
$GPGGA,142740.00,3401.0600,N,11930.7622,W,1,11,0.8,12.8,M,-33.6,M,,*69
$PYRTM,2024,126.602573188623,17.712220598762
$GPGGA,142741.00,3401.0580,N,11930.7630,W,1,11,0.8,12.8,M,-33.6,M,,*60
$PYRTM,2024,126.602584748611,17.712232158750
$GPGGA,142742.00,3401.0559,N,11930.7638,W,1,11,0.8,12.7,M,-33.6,M,,*60
$PYRTM,2024,126.602592154838,17.712239564977
$GPGGA,142743.00,3401.0538,N,11930.7645,W,1,11,0.8,12.7,M,-33.6,M,,*6C
$PYRTM,2024,126.602607896551,17.712255306690
$GPGGA,142744.00,3401.0518,N,11930.7653,W,1,11,0.8,12.7,M,-33.6,M,,*6E
$PYRTM,2024,126.602619476470,17.712266886609
$GPGGA,142745.00,3401.0497,N,11930.7660,W,1,11,0.8,12.7,M,-33.6,M,,*69
$PYRTM,2024,126.602631042488,17.712278452627
$GPGGA,142746.00,3401.0476,N,11930.7669,W,1,11,0.8,12.7,M,-33.6,M,,*6C
$PYRTM,2024,126.602642631551,17.712290041690
$GPGGA,142747.00,3401.0455,N,11930.7677,W,1,11,0.8,12.8,M,-33.6,M,,*6C
$PYRTM,2024,126.602650040810,17.712297450949
$GPGGA,142748.00,3401.0435,N,11930.7684,W,1,11,0.8,12.9,M,-33.6,M,,*68
$PYRTM,2024,126.602665777766,17.712313187905
$GPGGA,142749.00,3401.0413,N,11930.7691,W,1,11,0.8,12.9,M,-33.6,M,,*69
$PYRTM,2024,126.602677338993,17.712324749132
$GPGGA,142750.00,3401.0392,N,11930.7699,W,1,11,0.8,12.8,M,-33.6,M,,*66
$PYRTM,2024,126.602688929861,17.712336340000
$GPGGA,142751.00,3401.0371,N,11930.7707,W,1,11,0.8,12.8,M,-33.6,M,,*6C
$PYRTM,2024,126.602700488021,17.712347898160
$GPGGA,142752.00,3401.0351,N,11930.7715,W,1,11,0.8,12.9,M,-33.6,M,,*6F
$PYRTM,2024,126.602707896400,17.712355306539
$GPGGA,142753.00,3401.0330,N,11930.7721,W,1,11,0.8,13.0,M,-33.6,M,,*66
$PYRTM,2024,126.602723636748,17.712371046887
$GPGGA,142754.00,3401.0308,N,11930.7728,W,1,11,0.8,12.8,M,-33.6,M,,*6A
$PYRTM,2024,126.602735223912,17.712382634051
$GPGGA,142755.00,3401.0287,N,11930.7736,W,1,11,0.8,12.6,M,-33.6,M,,*6C
$PYRTM,2024,126.602746785139,17.712394195278
$GPGGA,142756.00,3401.0267,N,11930.7745,W,1,11,0.8,12.7,M,-33.6,M,,*64
$PYRTM,2024,126.602758374537,17.712405784676
$GPGGA,142757.00,3401.0246,N,11930.7752,W,1,11,0.8,13.0,M,-33.6,M,,*66
$PYRTM,2024,126.602765768275,17.712413178414
$GPGGA,142758.00,3401.0224,N,11930.7759,W,1,11,0.8,12.9,M,-33.6,M,,*6E
$PYRTM,2024,126.602781534514,17.712428944664
$GPGGA,142759.00,3401.0203,N,11930.7767,W,1,11,0.8,12.8,M,-33.6,M,,*66
$PYRTM,2024,126.602793080625,17.712440490764
$GPGGA,142800.00,3401.0182,N,11930.7775,W,1,11,0.8,12.7,M,-33.6,M,,*63
$PYRTM,2024,126.602804667639,17.712452077778
$GPGGA,142801.00,3401.0161,N,11930.7783,W,1,11,0.8,12.8,M,-33.6,M,,*69
$PYRTM,2024,126.602816230590,17.712463640741
$GPGGA,142802.00,3401.0140,N,11930.7791,W,1,11,0.8,12.8,M,-33.6,M,,*6A
$PYRTM,2024,126.602823637245,17.712471047384
$GPGGA,142803.00,3401.0118,N,11930.7799,W,1,11,0.8,12.7,M,-33.6,M,,*61
$PYRTM,2024,126.602839379884,17.712486790023
$GPGGA,142804.00,3401.0097,N,11930.7806,W,1,11,0.8,12.6,M,-33.6,M,,*68
$PYRTM,2024,126.602850965995,17.712498376134
$GPGGA,142805.00,3401.0076,N,11930.7814,W,1,11,0.8,12.6,M,-33.6,M,,*65
$PYRTM,2024,126.602862526007,17.712509936146
$GPGGA,142806.00,3401.0055,N,11930.7823,W,1,11,0.8,12.7,M,-33.6,M,,*62
$PYRTM,2024,126.602869933275,17.712517343414
$GPGGA,142807.00,3401.0034,N,11930.7832,W,1,11,0.8,12.7,M,-33.6,M,,*64
$PYRTM,2024,126.602888568368,17.712535978507
$GPGGA,142808.00,3401.0014,N,11930.7841,W,1,11,0.8,12.8,M,-33.6,M,,*62
$PYRTM,2024,126.602897260856,17.712544670995
$GPGGA,142809.00,3400.9993,N,11930.7849,W,1,11,0.8,13.0,M,-33.6,M,,*6C
$PYRTM,2024,126.602908822384,17.712556232523
$GPGGA,142810.00,3400.9972,N,11930.7858,W,1,11,0.8,13.0,M,-33.6,M,,*6B
$PYRTM,2024,126.602920404317,17.712567814456
$GPGGA,142811.00,3400.9951,N,11930.7867,W,1,11,0.8,12.8,M,-33.6,M,,*6E
$PYRTM,2024,126.602931970972,17.712579381123
$GPGGA,142812.00,3400.9930,N,11930.7877,W,1,11,0.8,12.6,M,-33.6,M,,*65
$PYRTM,2024,126.602939377326,17.712586787465
$GPGGA,142813.00,3400.9910,N,11930.7887,W,1,11,0.8,12.5,M,-33.6,M,,*6A
$PYRTM,2024,126.602955119051,17.712602529190
$GPGGA,142814.00,3400.9890,N,11930.7897,W,1,11,0.8,12.7,M,-33.6,M,,*67
$PYRTM,2024,126.602966709062,17.712614119213
$GPGGA,142815.00,3400.9869,N,11930.7907,W,1,11,0.8,12.8,M,-33.6,M,,*67
$PYRTM,2024,126.602978266852,17.712625676991
$GPGGA,142816.00,3400.9847,N,11930.7917,W,1,11,0.8,12.7,M,-33.6,M,,*66
$PYRTM,2024,126.602989854421,17.712637264560
$GPGGA,142817.00,3400.9827,N,11930.7928,W,1,11,0.8,12.6,M,-33.6,M,,*6C
$PYRTM,2024,126.602997264236,17.712644674375
$GPGGA,142818.00,3400.9807,N,11930.7939,W,1,11,0.8,12.7,M,-33.6,M,,*60
$PYRTM,2024,126.603013002187,17.712660412326
$GPGGA,142819.00,3400.9787,N,11930.7951,W,1,11,0.8,12.8,M,-33.6,M,,*67
$PYRTM,2024,126.603024563819,17.712671973958
$GPGGA,142820.00,3400.9767,N,11930.7962,W,1,11,0.8,12.8,M,-33.6,M,,*63
$PYRTM,2024,126.603036151204,17.712683561343
$GPGGA,142821.00,3400.9747,N,11930.7973,W,1,11,0.8,12.9,M,-33.6,M,,*61
$PYRTM,2024,126.603047712940,17.712695123079
$GPGGA,142822.00,3400.9727,N,11930.7984,W,1,11,0.8,13.0,M,-33.6,M,,*64
$PYRTM,2024,126.603059299167,17.712706709306
$GPGGA,142823.00,3400.9707,N,11930.7997,W,1,12,0.8,12.8,M,-33.6,M,,*6F
$PYRTM,2024,126.603070860463,17.712718270602
$GPGGA,142824.00,3400.9687,N,11930.8009,W,1,12,0.8,12.5,M,-33.6,M,,*6D
$PYRTM,2024,126.603078268113,17.712725678252
$GPGGA,142825.00,3400.9668,N,11930.8022,W,1,12,0.8,12.7,M,-33.6,M,,*66
$PYRTM,2024,126.603094009942,17.712741420081
$GPGGA,142826.00,3400.9648,N,11930.8034,W,1,12,0.8,12.7,M,-33.6,M,,*60
$PYRTM,2024,126.603105610949,17.712753021100
$GPGGA,142827.00,3400.9627,N,11930.8046,W,1,12,0.8,12.7,M,-33.6,M,,*6D
$PYRTM,2024,126.603112990428,17.712760400567
$GPGGA,142828.00,3400.9608,N,11930.8057,W,1,12,0.8,12.8,M,-33.6,M,,*60
$PYRTM,2024,126.603128746991,17.712776157130
$GPGGA,142829.00,3400.9589,N,11930.8070,W,1,12,0.8,12.9,M,-33.6,M,,*6F
$PYRTM,2024,126.603140305764,17.712787715903
$GPGGA,142830.00,3400.9569,N,11930.8084,W,1,12,0.8,12.7,M,-33.6,M,,*6C
$PYRTM,2024,126.603147710972,17.712795121123
$GPGGA,142831.00,3400.9548,N,11930.8096,W,1,12,0.8,12.6,M,-33.6,M,,*6C
$PYRTM,2024,126.603163452986,17.712810863125
$GPGGA,142832.00,3400.9529,N,11930.8107,W,1,12,0.8,12.6,M,-33.6,M,,*61
$PYRTM,2024,126.603170862639,17.712818272778
$GPGGA,142833.00,3400.9509,N,11930.8119,W,1,12,0.8,12.8,M,-33.6,M,,*63
$PYRTM,2024,126.603186601701,17.712834011840
$GPGGA,142834.00,3400.9490,N,11930.8132,W,1,12,0.8,12.7,M,-33.6,M,,*63
$PYRTM,2024,126.603198184757,17.712845594896
$GPGGA,142835.00,3400.9469,N,11930.8145,W,1,12,0.8,12.5,M,-33.6,M,,*66
$PYRTM,2024,126.603209751227,17.712857161366
$GPGGA,142836.00,3400.9449,N,11930.8157,W,1,12,0.8,12.5,M,-33.6,M,,*64
$PYRTM,2024,126.603221337685,17.712868747824
$GPGGA,142837.00,3400.9429,N,11930.8169,W,1,12,0.8,12.5,M,-33.6,M,,*6E
$PYRTM,2024,126.603228731817,17.712876141956
$GPGGA,142838.00,3400.9408,N,11930.8181,W,1,12,0.8,12.5,M,-33.6,M,,*64
$PYRTM,2024,126.603247379850,17.712894789988
$GPGGA,142839.00,3400.9389,N,11930.8194,W,1,12,0.8,12.6,M,-33.6,M,,*6C
$PYRTM,2024,126.603256046424,17.712903456563
$GPGGA,142840.00,3400.9368,N,11930.8206,W,1,12,0.8,12.5,M,-33.6,M,,*66
$PYRTM,2024,126.603267636204,17.712915046343
$GPGGA,142841.00,3400.9348,N,11930.8218,W,1,12,0.8,12.4,M,-33.6,M,,*6B
$PYRTM,2024,126.603279194942,17.712926605081
$GPGGA,142842.00,3400.9328,N,11930.8231,W,1,12,0.8,12.3,M,-33.6,M,,*62
$PYRTM,2024,126.603286602072,17.712934012211
$GPGGA,142843.00,3400.9309,N,11930.8244,W,1,12,0.8,12.3,M,-33.6,M,,*62
$PYRTM,2024,126.603302343727,17.712949753866
$GPGGA,142844.00,3400.9289,N,11930.8257,W,1,12,0.8,12.4,M,-33.6,M,,*69
$PYRTM,2024,126.603313945498,17.712961355637
$GPGGA,142845.00,3400.9269,N,11930.8271,W,1,12,0.8,12.3,M,-33.6,M,,*65
$PYRTM,2024,126.603321325174,17.712968735313
$GPGGA,142846.00,3400.9249,N,11930.8284,W,1,12,0.8,12.3,M,-33.6,M,,*6E
$PYRTM,2024,126.603337081181,17.712984491331
$GPGGA,142847.00,3400.9230,N,11930.8296,W,1,12,0.8,12.4,M,-33.6,M,,*65
$PYRTM,2024,126.603344473275,17.712991883426
$GPGGA,142848.00,3400.9210,N,11930.8309,W,1,12,0.8,12.5,M,-33.6,M,,*6E
$PYRTM,2024,126.603360227963,17.713007638102
$GPGGA,142849.00,3400.9190,N,11930.8322,W,1,12,0.8,12.3,M,-33.6,M,,*6B
$PYRTM,2024,126.603371788403,17.713019198542
$GPGGA,142850.00,3400.9170,N,11930.8337,W,1,12,0.8,12.2,M,-33.6,M,,*68
$PYRTM,2024,126.603383376470,17.713030786609
$GPGGA,142851.00,3400.9151,N,11930.8350,W,1,12,0.8,12.1,M,-33.6,M,,*68
$PYRTM,2024,126.603394937280,17.713042347419
$GPGGA,142852.00,3400.9131,N,11930.8363,W,1,12,0.8,12.1,M,-33.6,M,,*6D
$PYRTM,2024,126.603402343380,17.713049753519
$GPGGA,142853.00,3400.9111,N,11930.8375,W,1,12,0.8,12.2,M,-33.6,M,,*6A
$PYRTM,2024,126.603418084699,17.713065494838
$GPGGA,142854.00,3400.9090,N,11930.8389,W,1,12,0.8,12.1,M,-33.6,M,,*65
$PYRTM,2024,126.603429673102,17.713077083241
$GPGGA,142855.00,3400.9070,N,11930.8403,W,1,12,0.8,12.1,M,-33.6,M,,*6F
$PYRTM,2024,126.603441233113,17.713088643252
$GPGGA,142856.00,3400.9051,N,11930.8417,W,1,12,0.8,12.2,M,-33.6,M,,*69
$PYRTM,2024,126.603448640440,17.713096050579
$GPGGA,142857.00,3400.9031,N,11930.8430,W,1,12,0.8,12.3,M,-33.6,M,,*6A
$PYRTM,2024,126.603467274537,17.713114684676
$GPGGA,142858.00,3400.9011,N,11930.8444,W,1,12,0.8,12.3,M,-33.6,M,,*64
$PYRTM,2024,126.603478856910,17.713126267049
$GPGGA,142859.00,3400.8991,N,11930.8457,W,1,12,0.8,12.3,M,-33.6,M,,*67
$PYRTM,2024,126.603487529537,17.713134939676
$GPGGA,142900.00,3400.8971,N,11930.8470,W,1,12,0.8,12.4,M,-33.6,M,,*66
$PYRTM,2024,126.603499132014,17.713146542153
$GPGGA,142901.00,3400.8952,N,11930.8485,W,1,12,0.8,12.4,M,-33.6,M,,*6C
$PYRTM,2024,126.603510679734,17.713158089873
$GPGGA,142902.00,3400.8933,N,11930.8498,W,1,12,0.8,12.4,M,-33.6,M,,*64
$PYRTM,2024,126.603522268669,17.713169678808
$GPGGA,142903.00,3400.8913,N,11930.8512,W,1,12,0.8,12.3,M,-33.6,M,,*63
$PYRTM,2024,126.603533826412,17.713181236551
$GPGGA,142904.00,3400.8893,N,11930.8525,W,1,12,0.8,12.1,M,-33.6,M,,*6B
$PYRTM,2024,126.603545413252,17.713192823391
$GPGGA,142905.00,3400.8873,N,11930.8537,W,1,12,0.8,12.1,M,-33.6,M,,*67
$PYRTM,2024,126.603556974340,17.713204384479
$GPGGA,142906.00,3400.8853,N,11930.8551,W,1,12,0.8,12.2,M,-33.6,M,,*65
$PYRTM,2024,126.603568563299,17.713215973437
$GPGGA,142907.00,3400.8833,N,11930.8565,W,1,12,0.8,12.1,M,-33.6,M,,*66
$PYRTM,2024,126.603575969120,17.713223379259
$GPGGA,142908.00,3400.8813,N,11930.8579,W,1,12,0.8,12.0,M,-33.6,M,,*67
$PYRTM,2024,126.603587646123,17.713235056273
$GPGGA,142909.00,3400.8793,N,11930.8592,W,1,12,0.8,12.0,M,-33.6,M,,*64
$PYRTM,2024,126.603606167245,17.713253577384
$GPGGA,142910.00,3400.8773,N,11930.8604,W,1,12,0.8,12.0,M,-33.6,M,,*6E
$PYRTM,2024,126.603617753403,17.713265163542
$GPGGA,142911.00,3400.8753,N,11930.8618,W,1,12,0.8,12.0,M,-33.6,M,,*60
$PYRTM,2024,126.603629314167,17.713276724306
$GPGGA,142912.00,3400.8734,N,11930.8632,W,1,12,0.8,12.0,M,-33.6,M,,*6A
$PYRTM,2024,126.603638000289,17.713285410440
$GPGGA,142913.00,3400.8714,N,11930.8646,W,1,12,0.8,12.1,M,-33.6,M,,*6B
$PYRTM,2024,126.603649568206,17.713296978345
$GPGGA,142914.00,3400.8694,N,11930.8659,W,1,12,0.8,12.1,M,-33.6,M,,*6B
$PYRTM,2024,126.603661158843,17.713308568981
$GPGGA,142915.00,3400.8674,N,11930.8672,W,1,12,0.8,11.9,M,-33.6,M,,*66
$PYRTM,2024,126.603672717292,17.713320127431
$GPGGA,142916.00,3400.8655,N,11930.8685,W,1,12,0.8,11.8,M,-33.6,M,,*6F
$PYRTM,2024,126.603684306875,17.713331717014
$GPGGA,142917.00,3400.8635,N,11930.8698,W,1,12,0.8,11.8,M,-33.6,M,,*64
$PYRTM,2024,126.603691698958,17.713339109097
$GPGGA,142918.00,3400.8616,N,11930.8713,W,1,12,0.8,11.7,M,-33.6,M,,*67
$PYRTM,2024,126.603707454896,17.713354865035
$GPGGA,142919.00,3400.8596,N,11930.8726,W,1,12,0.8,11.8,M,-33.6,M,,*64
$PYRTM,2024,126.603719011991,17.713366422130
$GPGGA,142920.00,3400.8576,N,11930.8739,W,1,12,0.8,11.9,M,-33.6,M,,*6F
$PYRTM,2024,126.603730601181,17.713378011319
$GPGGA,142921.00,3400.8556,N,11930.8753,W,1,12,0.8,11.9,M,-33.6,M,,*60
$PYRTM,2024,126.603742161863,17.713389572002
$GPGGA,142922.00,3400.8537,N,11930.8766,W,1,12,0.8,11.9,M,-33.6,M,,*62
$PYRTM,2024,126.603749568380,17.713396978519
$GPGGA,142923.00,3400.8518,N,11930.8781,W,1,12,0.8,11.9,M,-33.6,M,,*67
$PYRTM,2024,126.603765310475,17.713412720613
$GPGGA,142924.00,3400.8499,N,11930.8796,W,1,12,0.8,11.9,M,-33.6,M,,*6E
$PYRTM,2024,126.603776897326,17.713424307465
$GPGGA,142925.00,3400.8479,N,11930.8810,W,1,12,0.8,11.9,M,-33.6,M,,*60
$PYRTM,2024,126.603788459167,17.713435869317
$GPGGA,142926.00,3400.8460,N,11930.8824,W,1,12,0.8,11.8,M,-33.6,M,,*6D
$PYRTM,2024,126.603800045671,17.713447455822
$GPGGA,142927.00,3400.8440,N,11930.8839,W,1,12,0.8,11.8,M,-33.6,M,,*62
$PYRTM,2024,126.603811607894,17.713459018032
$GPGGA,142928.00,3400.8422,N,11930.8854,W,1,12,0.8,11.9,M,-33.6,M,,*63
$PYRTM,2024,126.603823192650,17.713470602789
$GPGGA,142929.00,3400.8403,N,11930.8870,W,1,12,0.8,11.9,M,-33.6,M,,*67
$PYRTM,2024,126.603834753785,17.713482163935
$GPGGA,142930.00,3400.8384,N,11930.8886,W,1,12,0.8,11.8,M,-33.6,M,,*6F
$PYRTM,2024,126.603842161701,17.713489571840
$GPGGA,142931.00,3400.8365,N,11930.8900,W,1,12,0.8,11.8,M,-33.6,M,,*6E
$PYRTM,2024,126.603860794757,17.713508204896
$GPGGA,142932.00,3400.8346,N,11930.8915,W,1,12,0.8,11.9,M,-33.6,M,,*69
$PYRTM,2024,126.603872386748,17.713519796898
$GPGGA,142933.00,3400.8328,N,11930.8931,W,1,12,0.8,11.9,M,-33.6,M,,*66
$PYRTM,2024,126.603883945891,17.713531356030
$GPGGA,142934.00,3400.8309,N,11930.8947,W,1,12,0.8,11.8,M,-33.6,M,,*62
$PYRTM,2024,126.603892640671,17.713540050822
$GPGGA,142935.00,3400.8291,N,11930.8962,W,1,12,0.8,11.8,M,-33.6,M,,*64
$PYRTM,2024,126.603904199630,17.713551609769
$GPGGA,142936.00,3400.8272,N,11930.8978,W,1,12,0.8,11.9,M,-33.6,M,,*60
$PYRTM,2024,126.603915786343,17.713563196481
$GPGGA,142937.00,3400.8254,N,11930.8994,W,1,12,0.8,12.0,M,-33.6,M,,*6D
$PYRTM,2024,126.603923194097,17.713570604236
$GPGGA,142938.00,3400.8235,N,11930.9010,W,1,12,0.8,12.1,M,-33.6,M,,*60
$PYRTM,2024,126.603938935394,17.713586345532
$GPGGA,142939.00,3400.8216,N,11930.9026,W,1,12,0.8,12.0,M,-33.6,M,,*64
$PYRTM,2024,126.603946345602,17.713593755741
$GPGGA,142940.00,3400.8198,N,11930.9041,W,1,12,0.8,12.0,M,-33.6,M,,*6E
$PYRTM,2024,126.603964975822,17.713612385961
$GPGGA,142941.00,3400.8179,N,11930.9057,W,1,12,0.8,12.0,M,-33.6,M,,*67
$PYRTM,2024,126.603973644410,17.713621054549
$GPGGA,142942.00,3400.8161,N,11930.9074,W,1,12,0.8,12.0,M,-33.6,M,,*6C
$PYRTM,2024,126.603981051748,17.713628461887
$GPGGA,142943.00,3400.8142,N,11930.9090,W,1,12,0.8,11.8,M,-33.6,M,,*6D
$PYRTM,2024,126.603996792546,17.713644202685
$GPGGA,142944.00,3400.8123,N,11930.9105,W,1,12,0.8,11.8,M,-33.6,M,,*60
$PYRTM,2024,126.604008379190,17.713655789340
$GPGGA,142945.00,3400.8104,N,11930.9121,W,1,12,0.8,11.8,M,-33.6,M,,*62
$PYRTM,2024,126.604019940278,17.713667350417
$GPGGA,142946.00,3400.8086,N,11930.9137,W,1,12,0.8,11.8,M,-33.6,M,,*6D
$PYRTM,2024,126.604031530347,17.713678940498
$GPGGA,142947.00,3400.8067,N,11930.9153,W,1,12,0.8,11.8,M,-33.6,M,,*61
$PYRTM,2024,126.604038922512,17.713686332662
$GPGGA,142948.00,3400.8049,N,11930.9169,W,1,12,0.8,11.7,M,-33.6,M,,*64
$PYRTM,2024,126.604054677975,17.713702088113
$GPGGA,142949.00,3400.8030,N,11930.9185,W,1,12,0.8,11.7,M,-33.6,M,,*69
$PYRTM,2024,126.604066236725,17.713713646875
$GPGGA,142950.00,3400.8012,N,11930.9200,W,1,12,0.8,11.9,M,-33.6,M,,*61
$PYRTM,2024,126.604077837280,17.713725247419
$GPGGA,142951.00,3400.7993,N,11930.9216,W,1,12,0.8,12.0,M,-33.6,M,,*62
$PYRTM,2024,126.604089383762,17.713736793900
$GPGGA,142952.00,3400.7974,N,11930.9233,W,1,12,0.8,11.9,M,-33.6,M,,*65
$PYRTM,2024,126.604096790845,17.713744200984
$GPGGA,142953.00,3400.7956,N,11930.9249,W,1,12,0.8,11.8,M,-33.6,M,,*68
$PYRTM,2024,126.604112534190,17.713759944329
$GPGGA,142954.00,3400.7938,N,11930.9264,W,1,12,0.8,11.9,M,-33.6,M,,*69
$PYRTM,2024,126.604124120556,17.713771530694
$GPGGA,142955.00,3400.7919,N,11930.9280,W,1,12,0.8,11.8,M,-33.6,M,,*60
$PYRTM,2024,126.604135680995,17.713783091134
$GPGGA,142956.00,3400.7900,N,11930.9295,W,1,12,0.8,11.7,M,-33.6,M,,*60
$PYRTM,2024,126.604147268738,17.713794678889
$GPGGA,142957.00,3400.7881,N,11930.9311,W,1,12,0.8,11.6,M,-33.6,M,,*65
$PYRTM,2024,126.604154663600,17.713802073738
$GPGGA,142958.00,3400.7862,N,11930.9327,W,1,12,0.8,11.6,M,-33.6,M,,*62
$PYRTM,2024,126.604170417419,17.713817827558
$GPGGA,142959.00,3400.7844,N,11930.9342,W,1,12,0.8,11.8,M,-33.6,M,,*6A
$PYRTM,2024,126.604181978970,17.713829389109
$GPGGA,143000.00,3400.7825,N,11930.9357,W,1,12,0.8,11.9,M,-33.6,M,,*6C
$PYRTM,2024,126.604193564850,17.713840974988
$GPGGA,143001.00,3400.7806,N,11930.9374,W,1,12,0.8,11.8,M,-33.6,M,,*6C
$PYRTM,2024,126.604205127546,17.713852537685
$GPGGA,143002.00,3400.7787,N,11930.9390,W,1,12,0.8,11.8,M,-33.6,M,,*63
$PYRTM,2024,126.604212534525,17.713859944664
$GPGGA,143003.00,3400.7768,N,11930.9405,W,1,12,0.8,11.8,M,-33.6,M,,*68
$PYRTM,2024,126.604224224028,17.713871634167
$GPGGA,143004.00,3400.7749,N,11930.9420,W,1,12,0.8,12.0,M,-33.6,M,,*60
$PYRTM,2024,126.604239877546,17.713887287685
$GPGGA,143005.00,3400.7730,N,11930.9435,W,1,12,0.8,12.0,M,-33.6,M,,*6B
$PYRTM,2024,126.604251422928,17.713898833067
$GPGGA,143006.00,3400.7711,N,11930.9451,W,1,12,0.8,11.9,M,-33.6,M,,*63
$PYRTM,2024,126.604263024525,17.713910434664
$GPGGA,143007.00,3400.7692,N,11930.9467,W,1,12,0.8,11.8,M,-33.6,M,,*6C
$PYRTM,2024,126.604270406007,17.713917816146
$GPGGA,143008.00,3400.7674,N,11930.9483,W,1,12,0.8,11.7,M,-33.6,M,,*6E
$PYRTM,2024,126.604286159421,17.713933569560
$GPGGA,143009.00,3400.7655,N,11930.9498,W,1,12,0.8,11.9,M,-33.6,M,,*68
$PYRTM,2024,126.604297720475,17.713945130625
$GPGGA,143010.00,3400.7636,N,11930.9512,W,1,12,0.8,12.1,M,-33.6,M,,*6D
$PYRTM,2024,126.604305128449,17.713952538600
$GPGGA,143011.00,3400.7617,N,11930.9528,W,1,12,0.8,12.0,M,-33.6,M,,*67
$PYRTM,2024,126.604323761169,17.713971171308
$GPGGA,143012.00,3400.7598,N,11930.9545,W,1,12,0.8,11.9,M,-33.6,M,,*61
$PYRTM,2024,126.604335344248,17.713982754387
$GPGGA,143013.00,3400.7580,N,11930.9561,W,1,12,0.8,11.8,M,-33.6,M,,*6E
$PYRTM,2024,126.604346910081,17.713994320220
$GPGGA,143014.00,3400.7561,N,11930.9577,W,1,12,0.8,11.7,M,-33.6,M,,*6E
$PYRTM,2024,126.604355603530,17.714003013681
$GPGGA,143015.00,3400.7543,N,11930.9592,W,1,12,0.8,11.8,M,-33.6,M,,*6B
$PYRTM,2024,126.604362998183,17.714010408322
$GPGGA,143016.00,3400.7523,N,11930.9607,W,1,12,0.8,11.8,M,-33.6,M,,*61
$PYRTM,2024,126.604378751979,17.714026162118
$GPGGA,143017.00,3400.7503,N,11930.9623,W,1,12,0.8,11.6,M,-33.6,M,,*6A
$PYRTM,2024,126.604386147396,17.714033557535
$GPGGA,143018.00,3400.7485,N,11930.9639,W,1,12,0.8,11.7,M,-33.6,M,,*60
$PYRTM,2024,126.604401914502,17.714049324641
$GPGGA,143019.00,3400.7467,N,11930.9655,W,1,12,0.8,11.7,M,-33.6,M,,*67
$PYRTM,2024,126.604413473634,17.714060883773
$GPGGA,143020.00,3400.7447,N,11930.9670,W,1,12,0.8,11.6,M,-33.6,M,,*69
$PYRTM,2024,126.604425052049,17.714072462188
$GPGGA,143021.00,3400.7427,N,11930.9685,W,1,12,0.8,11.5,M,-33.6,M,,*67
$PYRTM,2024,126.604436624479,17.714084034618
$GPGGA,143022.00,3400.7408,N,11930.9699,W,1,12,0.8,11.6,M,-33.6,M,,*67
$PYRTM,2024,126.604444018322,17.714091428461
$GPGGA,143023.00,3400.7390,N,11930.9715,W,1,12,0.8,11.7,M,-33.6,M,,*64
$PYRTM,2024,126.604459765498,17.714107175648
$GPGGA,143024.00,3400.7371,N,11930.9732,W,1,12,0.8,11.7,M,-33.6,M,,*69
$PYRTM,2024,126.604471345255,17.714118755405
$GPGGA,143025.00,3400.7352,N,11930.9747,W,1,12,0.8,11.7,M,-33.6,M,,*6B
$PYRTM,2024,126.604482920000,17.714130330139
$GPGGA,143026.00,3400.7333,N,11930.9762,W,1,12,0.8,11.7,M,-33.6,M,,*68
$PYRTM,2024,126.604494493287,17.714141903426
$GPGGA,143027.00,3400.7314,N,11930.9777,W,1,12,0.8,11.6,M,-33.6,M,,*69
$PYRTM,2024,126.604501902396,17.714149312546
$GPGGA,143028.00,3400.7296,N,11930.9794,W,1,12,0.8,11.5,M,-33.6,M,,*63
$PYRTM,2024,126.604517641400,17.714165051539
$GPGGA,143029.00,3400.7278,N,11930.9810,W,1,12,0.8,11.5,M,-33.6,M,,*61
$PYRTM,2024,126.604529216644,17.714176626782
$GPGGA,143030.00,3400.7260,N,11930.9827,W,1,12,0.8,11.5,M,-33.6,M,,*64
$PYRTM,2024,126.604540784583,17.714188194722
$GPGGA,143031.00,3400.7241,N,11930.9843,W,1,12,0.8,11.6,M,-33.6,M,,*67
$PYRTM,2024,126.604552359282,17.714199769433
$GPGGA,143032.00,3400.7223,N,11930.9859,W,1,12,0.8,11.5,M,-33.6,M,,*68
$PYRTM,2024,126.604559758333,17.714207168472
$GPGGA,143033.00,3400.7205,N,11930.9877,W,1,12,0.8,11.4,M,-33.6,M,,*60
$PYRTM,2024,126.604575512176,17.714222922315
$GPGGA,143034.00,3400.7189,N,11930.9895,W,1,12,0.8,11.4,M,-33.6,M,,*6C
$PYRTM,2024,126.604587089792,17.714234499931
$GPGGA,143035.00,3400.7171,N,11930.9913,W,1,12,0.8,11.4,M,-33.6,M,,*65
$PYRTM,2024,126.604598659838,17.714246069977
$GPGGA,143036.00,3400.7154,N,11930.9930,W,1,12,0.8,11.5,M,-33.6,M,,*61
$PYRTM,2024,126.604606055764,17.714253465914
$GPGGA,143037.00,3400.7137,N,11930.9948,W,1,12,0.8,11.5,M,-33.6,M,,*6A
$PYRTM,2024,126.604624689884,17.714272100035
$GPGGA,143038.00,3400.7120,N,11930.9967,W,1,12,0.8,11.4,M,-33.6,M,,*6F
$PYRTM,2024,126.604636280440,17.714283690590
$GPGGA,143039.00,3400.7104,N,11930.9986,W,1,12,0.8,11.5,M,-33.6,M,,*66
$PYRTM,2024,126.604644952882,17.714292363021
$GPGGA,143040.00,3400.7088,N,11931.0005,W,1,12,0.8,11.6,M,-33.6,M,,*64
$PYRTM,2024,126.604656531285,17.714303941424
$GPGGA,143041.00,3400.7072,N,11931.0024,W,1,12,0.8,11.6,M,-33.6,M,,*63
$PYRTM,2024,126.604663941296,17.714311351435
$GPGGA,143042.00,3400.7056,N,11931.0043,W,1,12,0.8,11.6,M,-33.6,M,,*67
$PYRTM,2024,126.604682574225,17.714329984363
$GPGGA,143043.00,3400.7040,N,11931.0062,W,1,12,0.8,11.6,M,-33.6,M,,*62
$PYRTM,2024,126.604691249444,17.714338659583
$GPGGA,143044.00,3400.7024,N,11931.0082,W,1,12,0.8,11.6,M,-33.6,M,,*69
$PYRTM,2024,126.604702828438,17.714350238576
$GPGGA,143045.00,3400.7009,N,11931.0101,W,1,12,0.8,11.6,M,-33.6,M,,*6D
$PYRTM,2024,126.604714402095,17.714361812234
$GPGGA,143046.00,3400.6993,N,11931.0121,W,1,12,0.8,11.6,M,-33.6,M,,*67
$PYRTM,2024,126.604725979502,17.714373389653
$GPGGA,143047.00,3400.6977,N,11931.0141,W,1,12,0.8,11.5,M,-33.6,M,,*69
$PYRTM,2024,126.604737550833,17.714384960972
$GPGGA,143048.00,3400.6962,N,11931.0161,W,1,12,0.8,11.4,M,-33.6,M,,*61
$PYRTM,2024,126.604749125556,17.714396535694
$GPGGA,143049.00,3400.6947,N,11931.0182,W,1,12,0.8,11.4,M,-33.6,M,,*6A
$PYRTM,2024,126.604760697940,17.714408108079
$GPGGA,143050.00,3400.6931,N,11931.0202,W,1,12,0.8,11.4,M,-33.6,M,,*68
$PYRTM,2024,126.604772275764,17.714419685914
$GPGGA,143051.00,3400.6916,N,11931.0222,W,1,12,0.8,11.3,M,-33.6,M,,*69
$PYRTM,2024,126.604783847130,17.714431257280
$GPGGA,143052.00,3400.6900,N,11931.0242,W,1,12,0.8,11.4,M,-33.6,M,,*6C
$PYRTM,2024,126.604795436238,17.714442846377
$GPGGA,143053.00,3400.6884,N,11931.0262,W,1,12,0.8,11.3,M,-33.6,M,,*65
$PYRTM,2024,126.604806995949,17.714454406088
$GPGGA,143054.00,3400.6868,N,11931.0283,W,1,12,0.8,11.3,M,-33.6,M,,*6F
$PYRTM,2024,126.604818583669,17.714465994028
$GPGGA,143055.00,3400.6853,N,11931.0303,W,1,12,0.8,11.3,M,-33.6,M,,*6F
$PYRTM,2024,126.604830144664,17.714477554803
$GPGGA,143056.00,3400.6838,N,11931.0323,W,1,12,0.8,11.4,M,-33.6,M,,*64
$PYRTM,2024,126.604841713345,17.714489123495
$GPGGA,143057.00,3400.6823,N,11931.0343,W,1,12,0.8,11.5,M,-33.6,M,,*68
$PYRTM,2024,126.604853291840,17.714500701979
$GPGGA,143058.00,3400.6807,N,11931.0365,W,1,12,0.8,11.4,M,-33.6,M,,*64
$PYRTM,2024,126.604864866956,17.714512277095
$GPGGA,143059.00,3400.6792,N,11931.0385,W,1,12,0.8,11.3,M,-33.6,M,,*6F
$PYRTM,2024,126.604872278912,17.714519689051
$GPGGA,143100.00,3400.6777,N,11931.0405,W,1,12,0.8,11.4,M,-33.6,M,,*61
$PYRTM,2024,126.604888015961,17.714535426100
$GPGGA,143101.00,3400.6762,N,11931.0425,W,1,12,0.8,11.5,M,-33.6,M,,*67
$PYRTM,2024,126.604899588194,17.714546998333
$GPGGA,143102.00,3400.6746,N,11931.0446,W,1,12,0.8,11.5,M,-33.6,M,,*67
$PYRTM,2024,126.604911164456,17.714558574595
$GPGGA,143103.00,3400.6730,N,11931.0467,W,1,12,0.8,11.4,M,-33.6,M,,*65
$PYRTM,2024,126.604922736389,17.714570146528
$GPGGA,143104.00,3400.6715,N,11931.0487,W,1,12,0.8,11.4,M,-33.6,M,,*6B
$PYRTM,2024,126.604934313565,17.714581723704
$GPGGA,143105.00,3400.6700,N,11931.0507,W,1,12,0.8,11.4,M,-33.6,M,,*67
$PYRTM,2024,126.604945885104,17.714593295243
$GPGGA,143106.00,3400.6684,N,11931.0528,W,1,12,0.8,11.3,M,-33.6,M,,*63
$PYRTM,2024,126.604957459236,17.714604869375
$GPGGA,143107.00,3400.6669,N,11931.0549,W,1,12,0.8,11.2,M,-33.6,M,,*67
$PYRTM,2024,126.604969032766,17.714616442917
$GPGGA,143108.00,3400.6653,N,11931.0569,W,1,12,0.8,11.3,M,-33.6,M,,*62
$PYRTM,2024,126.604980622373,17.714628032512
$GPGGA,143109.00,3400.6638,N,11931.0588,W,1,12,0.8,11.5,M,-33.6,M,,*67
$PYRTM,2024,126.604988004120,17.714635414259
$GPGGA,143110.00,3400.6622,N,11931.0608,W,1,12,0.8,11.5,M,-33.6,M,,*6F
$PYRTM,2024,126.605003759120,17.714651169259
$GPGGA,143111.00,3400.6607,N,11931.0629,W,1,12,0.8,11.5,M,-33.6,M,,*6A
$PYRTM,2024,126.605015332095,17.714662742234
$GPGGA,143112.00,3400.6591,N,11931.0650,W,1,12,0.8,11.4,M,-33.6,M,,*6A
$PYRTM,2024,126.605022725104,17.714670135243
$GPGGA,143113.00,3400.6576,N,11931.0671,W,1,12,0.8,11.4,M,-33.6,M,,*61
$PYRTM,2024,126.605041359537,17.714688769676
$GPGGA,143114.00,3400.6561,N,11931.0691,W,1,12,0.8,11.5,M,-33.6,M,,*6F
$PYRTM,2024,126.605052946400,17.714700356539
$GPGGA,143115.00,3400.6546,N,11931.0710,W,1,12,0.8,11.6,M,-33.6,M,,*60
$PYRTM,2024,126.605064506863,17.714711917002
$GPGGA,143116.00,3400.6530,N,11931.0731,W,1,12,0.8,11.4,M,-33.6,M,,*63
$PYRTM,2024,126.605073201157,17.714720611296
$GPGGA,143117.00,3400.6514,N,11931.0752,W,1,12,0.8,11.3,M,-33.6,M,,*66
$PYRTM,2024,126.605084773935,17.714732184086
$GPGGA,143118.00,3400.6499,N,11931.0771,W,1,12,0.8,11.3,M,-33.6,M,,*6C
$PYRTM,2024,126.605096348692,17.714743758831
$GPGGA,143119.00,3400.6484,N,11931.0790,W,1,12,0.8,11.5,M,-33.6,M,,*68
$PYRTM,2024,126.605107922222,17.714755332361
$GPGGA,143120.00,3400.6468,N,11931.0809,W,1,12,0.8,11.5,M,-33.6,M,,*6F
$PYRTM,2024,126.605119498218,17.714766908356
$GPGGA,143121.00,3400.6452,N,11931.0830,W,1,12,0.8,11.3,M,-33.6,M,,*6B
$PYRTM,2024,126.605131070880,17.714778481019
$GPGGA,143122.00,3400.6437,N,11931.0849,W,1,12,0.8,11.2,M,-33.6,M,,*64
$PYRTM,2024,126.605138465799,17.714785875937
$GPGGA,143123.00,3400.6422,N,11931.0867,W,1,12,0.8,11.4,M,-33.6,M,,*6B
$PYRTM,2024,126.605154219132,17.714801629271
$GPGGA,143124.00,3400.6407,N,11931.0885,W,1,12,0.8,11.5,M,-33.6,M,,*66
$PYRTM,2024,126.605161615359,17.714809025509
$GPGGA,143125.00,3400.6392,N,11931.0903,W,1,12,0.8,11.5,M,-33.6,M,,*63
$PYRTM,2024,126.605177367639,17.714824777778
$GPGGA,143126.00,3400.6378,N,11931.0922,W,1,12,0.8,11.4,M,-33.6,M,,*66
$PYRTM,2024,126.605188945845,17.714836355984
$GPGGA,143127.00,3400.6364,N,11931.0940,W,1,12,0.8,11.4,M,-33.6,M,,*6E
$PYRTM,2024,126.605200515995,17.714847926134
$GPGGA,143128.00,3400.6350,N,11931.0958,W,1,12,0.8,11.3,M,-33.6,M,,*68
$PYRTM,2024,126.605212090093,17.714859500231
$GPGGA,143129.00,3400.6336,N,11931.0976,W,1,12,0.8,11.3,M,-33.6,M,,*65
$PYRTM,2024,126.605223664491,17.714871074630
$GPGGA,143130.00,3400.6322,N,11931.0993,W,1,12,0.8,11.4,M,-33.6,M,,*64
$PYRTM,2024,126.605235238854,17.714882648993
$GPGGA,143131.00,3400.6307,N,11931.1011,W,1,12,0.8,11.2,M,-33.6,M,,*66
$PYRTM,2024,126.605246812743,17.714894222882
$GPGGA,143132.00,3400.6293,N,11931.1029,W,1,12,0.8,11.1,M,-33.6,M,,*61
$PYRTM,2024,126.605258386389,17.714905796528
$GPGGA,143133.00,3400.6280,N,11931.1046,W,1,12,0.8,11.1,M,-33.6,M,,*6B
$PYRTM,2024,126.605269961586,17.714917371736
$GPGGA,143134.00,3400.6267,N,11931.1063,W,1,12,0.8,11.1,M,-33.6,M,,*62
$PYRTM,2024,126.605281535069,17.714928945220
$GPGGA,143135.00,3400.6253,N,11931.1081,W,1,12,0.8,11.1,M,-33.6,M,,*68
$PYRTM,2024,126.605293104410,17.714940514549
$GPGGA,143136.00,3400.6239,N,11931.1098,W,1,12,0.8,11.1,M,-33.6,M,,*6F
$PYRTM,2024,126.605300504144,17.714947914282
$GPGGA,143137.00,3400.6226,N,11931.1115,W,1,12,0.8,11.1,M,-33.6,M,,*64
$PYRTM,2024,126.605316258206,17.714963668345
$GPGGA,143138.00,3400.6214,N,11931.1133,W,1,12,0.8,11.2,M,-33.6,M,,*6D
$PYRTM,2024,126.605327846944,17.714975257095
$GPGGA,143139.00,3400.6202,N,11931.1150,W,1,12,0.8,11.4,M,-33.6,M,,*68
$PYRTM,2024,126.605339406181,17.714986816331
$GPGGA,143140.00,3400.6190,N,11931.1168,W,1,12,0.8,11.4,M,-33.6,M,,*65
$PYRTM,2024,126.605350983403,17.714998393542
$GPGGA,143141.00,3400.6178,N,11931.1185,W,1,12,0.8,11.4,M,-33.6,M,,*61
$PYRTM,2024,126.605358375405,17.715005785544
$GPGGA,143142.00,3400.6166,N,11931.1202,W,1,12,0.8,11.4,M,-33.6,M,,*61
$PYRTM,2024,126.605370065822,17.715017475972
$GPGGA,143143.00,3400.6155,N,11931.1219,W,1,12,0.8,11.4,M,-33.6,M,,*6A
$PYRTM,2024,126.605388583866,17.715035994005
$GPGGA,143144.00,3400.6144,N,11931.1236,W,1,12,0.8,11.5,M,-33.6,M,,*61
$PYRTM,2024,126.605400170637,17.715047580775
$GPGGA,143145.00,3400.6133,N,11931.1253,W,1,12,0.8,11.4,M,-33.6,M,,*62
$PYRTM,2024,126.605414170625,17.715061580764
$GPGGA,143146.00,3400.6122,N,11931.1270,W,1,12,0.8,11.3,M,-33.6,M,,*67
$PYRTM,2024,126.605420425185,17.715067835324
$GPGGA,143147.00,3400.6111,N,11931.1288,W,1,12,0.8,11.1,M,-33.6,M,,*63
$PYRTM,2024,126.605431994745,17.715079404884
$GPGGA,143148.00,3400.6099,N,11931.1304,W,1,12,0.8,11.2,M,-33.6,M,,*6B
$PYRTM,2024,126.605443574062,17.715090984201
$GPGGA,143149.00,3400.6089,N,11931.1320,W,1,12,0.8,11.5,M,-33.6,M,,*6A
$PYRTM,2024,126.605455147419,17.715102557569
$GPGGA,143150.00,3400.6078,N,11931.1337,W,1,12,0.8,11.6,M,-33.6,M,,*69
$PYRTM,2024,126.605466716887,17.715114127025
$GPGGA,143151.00,3400.6067,N,11931.1355,W,1,12,0.8,11.5,M,-33.6,M,,*61
$PYRTM,2024,126.605478290081,17.715125700220
$GPGGA,143152.00,3400.6056,N,11931.1372,W,1,12,0.8,11.4,M,-33.6,M,,*64
$PYRTM,2024,126.605489869734,17.715137279873
$GPGGA,143153.00,3400.6046,N,11931.1388,W,1,12,0.8,11.3,M,-33.6,M,,*66
$PYRTM,2024,126.605501438750,17.715148848889
$GPGGA,143154.00,3400.6036,N,11931.1404,W,1,12,0.8,11.5,M,-33.6,M,,*63
$PYRTM,2024,126.605513021053,17.715160431192
$GPGGA,143155.00,3400.6026,N,11931.1422,W,1,12,0.8,11.5,M,-33.6,M,,*67
$PYRTM,2024,126.605524592361,17.715172002512
$GPGGA,143156.00,3400.6015,N,11931.1439,W,1,12,0.8,11.4,M,-33.6,M,,*6F
$PYRTM,2024,126.605531987454,17.715179397604
$GPGGA,143157.00,3400.6004,N,11931.1455,W,1,12,0.8,11.4,M,-33.6,M,,*64
$PYRTM,2024,126.605547740833,17.715195150972
$GPGGA,143158.00,3400.5994,N,11931.1470,W,1,12,0.8,11.4,M,-33.6,M,,*6F
$PYRTM,2024,126.605559314745,17.715206724884
$GPGGA,143159.00,3400.5985,N,11931.1488,W,1,12,0.8,11.3,M,-33.6,M,,*6E
$PYRTM,2024,126.605570889676,17.715218299815
$GPGGA,143200.00,3400.5976,N,11931.1505,W,1,12,0.8,11.3,M,-33.6,M,,*69
$PYRTM,2024,126.605582463449,17.715229873588
$GPGGA,143201.00,3400.5966,N,11931.1521,W,1,12,0.8,11.3,M,-33.6,M,,*6F
$PYRTM,2024,126.605589871921,17.715237282072
$GPGGA,143202.00,3400.5955,N,11931.1536,W,1,12,0.8,11.2,M,-33.6,M,,*6B
$PYRTM,2024,126.605605610660,17.715253020799
$GPGGA,143203.00,3400.5946,N,11931.1552,W,1,12,0.8,11.3,M,-33.6,M,,*6B
$PYRTM,2024,126.605617185370,17.715264595509
$GPGGA,143204.00,3400.5936,N,11931.1568,W,1,12,0.8,11.4,M,-33.6,M,,*65
$PYRTM,2024,126.605628759468,17.715276169606
$GPGGA,143205.00,3400.5928,N,11931.1584,W,1,12,0.8,11.5,M,-33.6,M,,*68
$PYRTM,2024,126.605640333727,17.715287743866
$GPGGA,143206.00,3400.5918,N,11931.1601,W,1,12,0.8,11.5,M,-33.6,M,,*66
$PYRTM,2024,126.605647728877,17.715295139016
$GPGGA,143207.00,3400.5909,N,11931.1617,W,1,12,0.8,11.4,M,-33.6,M,,*61
$PYRTM,2024,126.605663482234,17.715310892373
$GPGGA,143208.00,3400.5900,N,11931.1633,W,1,12,0.8,11.4,M,-33.6,M,,*61
$PYRTM,2024,126.605675056620,17.715322466759
$GPGGA,143209.00,3400.5890,N,11931.1648,W,1,12,0.8,11.4,M,-33.6,M,,*64
$PYRTM,2024,126.605686630532,17.715334040671
$GPGGA,143210.00,3400.5881,N,11931.1663,W,1,12,0.8,11.4,M,-33.6,M,,*65
$PYRTM,2024,126.605698208032,17.715345618171
$GPGGA,143211.00,3400.5871,N,11931.1679,W,1,12,0.8,11.2,M,-33.6,M,,*66
$PYRTM,2024,126.605705599549,17.715353009688
$GPGGA,143212.00,3400.5861,N,11931.1696,W,1,12,0.8,11.0,M,-33.6,M,,*67
$PYRTM,2024,126.605721355961,17.715368766100
$GPGGA,143213.00,3400.5852,N,11931.1711,W,1,12,0.8,11.1,M,-33.6,M,,*69
$PYRTM,2024,126.605732922870,17.715380333021
$GPGGA,143214.00,3400.5843,N,11931.1725,W,1,12,0.8,11.3,M,-33.6,M,,*6B
$PYRTM,2024,126.605740324167,17.715387734306
$GPGGA,143215.00,3400.5834,N,11931.1740,W,1,12,0.8,11.5,M,-33.6,M,,*6F
$PYRTM,2024,126.605758957315,17.715406367465
$GPGGA,143216.00,3400.5823,N,11931.1757,W,1,12,0.8,11.3,M,-33.6,M,,*6A
$PYRTM,2024,126.605770543657,17.715417953796
$GPGGA,143217.00,3400.5813,N,11931.1772,W,1,12,0.8,11.2,M,-33.6,M,,*6E
$PYRTM,2024,126.605782105231,17.715429515370
$GPGGA,143218.00,3400.5804,N,11931.1786,W,1,12,0.8,11.4,M,-33.6,M,,*6A
$PYRTM,2024,126.605790799282,17.715438209421
$GPGGA,143219.00,3400.5795,N,11931.1801,W,1,12,0.8,11.5,M,-33.6,M,,*6D
$PYRTM,2024,126.605802372292,17.715449782431
$GPGGA,143220.00,3400.5787,N,11931.1817,W,1,12,0.8,11.5,M,-33.6,M,,*63
$PYRTM,2024,126.605813946713,17.715461356863
$GPGGA,143221.00,3400.5777,N,11931.1832,W,1,12,0.8,11.5,M,-33.6,M,,*6A
$PYRTM,2024,126.605825520648,17.715472930787
$GPGGA,143222.00,3400.5768,N,11931.1848,W,1,12,0.8,11.5,M,-33.6,M,,*6A
$PYRTM,2024,126.605837095440,17.715484505579
$GPGGA,143223.00,3400.5759,N,11931.1862,W,1,12,0.8,11.6,M,-33.6,M,,*62
$PYRTM,2024,126.605848668808,17.715496078947
$GPGGA,143224.00,3400.5750,N,11931.1877,W,1,12,0.8,11.6,M,-33.6,M,,*68
$PYRTM,2024,126.605860239850,17.715507649988
$GPGGA,143225.00,3400.5741,N,11931.1892,W,1,12,0.8,11.7,M,-33.6,M,,*63
$PYRTM,2024,126.605871812813,17.715519222951
$GPGGA,143226.00,3400.5733,N,11931.1908,W,1,12,0.8,11.6,M,-33.6,M,,*66
$PYRTM,2024,126.605879213345,17.715526623484
$GPGGA,143227.00,3400.5723,N,11931.1923,W,1,12,0.8,11.5,M,-33.6,M,,*6C
$PYRTM,2024,126.605894965116,17.715542375255
$GPGGA,143228.00,3400.5713,N,11931.1938,W,1,12,0.8,11.3,M,-33.6,M,,*6C
$PYRTM,2024,126.605906543414,17.715553953553
$GPGGA,143229.00,3400.5704,N,11931.1952,W,1,12,0.8,11.2,M,-33.6,M,,*66
$PYRTM,2024,126.605918107824,17.715565517963
$GPGGA,143230.00,3400.5695,N,11931.1966,W,1,12,0.8,11.4,M,-33.6,M,,*66
$PYRTM,2024,126.605929688808,17.715577098947
$GPGGA,143231.00,3400.5686,N,11931.1980,W,1,12,0.8,11.4,M,-33.6,M,,*6D
$PYRTM,2024,126.605937098113,17.715584508252
$GPGGA,143232.00,3400.5676,N,11931.1996,W,1,12,0.8,11.2,M,-33.6,M,,*60
$PYRTM,2024,126.605952836944,17.715600247083
$GPGGA,143233.00,3400.5667,N,11931.2010,W,1,12,0.8,11.1,M,-33.6,M,,*66
$PYRTM,2024,126.605964411262,17.715611821400
$GPGGA,143234.00,3400.5658,N,11931.2023,W,1,12,0.8,11.3,M,-33.6,M,,*6F
$PYRTM,2024,126.605975983993,17.715623394132
$GPGGA,143235.00,3400.5649,N,11931.2038,W,1,12,0.8,11.4,M,-33.6,M,,*63
$PYRTM,2024,126.605987553368,17.715634963507
$GPGGA,143236.00,3400.5639,N,11931.2053,W,1,12,0.8,11.3,M,-33.6,M,,*6D
$PYRTM,2024,126.605999134028,17.715646544178
$GPGGA,143237.00,3400.5630,N,11931.2068,W,1,12,0.8,11.2,M,-33.6,M,,*6C
$PYRTM,2024,126.606010705799,17.715658115938
$GPGGA,143238.00,3400.5622,N,11931.2083,W,1,12,0.8,11.4,M,-33.6,M,,*63
$PYRTM,2024,126.606022281759,17.715669691898
$GPGGA,143239.00,3400.5613,N,11931.2097,W,1,12,0.8,11.5,M,-33.6,M,,*64
$PYRTM,2024,126.606033855150,17.715681265289
$GPGGA,143240.00,3400.5604,N,11931.2112,W,1,12,0.8,11.5,M,-33.6,M,,*60
$PYRTM,2024,126.606045429734,17.715692839884
$GPGGA,143241.00,3400.5595,N,11931.2127,W,1,12,0.8,11.4,M,-33.6,M,,*6D
$PYRTM,2024,126.606052826111,17.715700236250
$GPGGA,143242.00,3400.5586,N,11931.2142,W,1,12,0.8,11.4,M,-33.6,M,,*6F
$PYRTM,2024,126.606068580752,17.715715990891
$GPGGA,143243.00,3400.5578,N,11931.2156,W,1,12,0.8,11.4,M,-33.6,M,,*6A
$PYRTM,2024,126.606080152963,17.715727563113
$GPGGA,143244.00,3400.5569,N,11931.2171,W,1,12,0.8,11.3,M,-33.6,M,,*6F
$PYRTM,2024,126.606091741157,17.715739151296
$GPGGA,143245.00,3400.5560,N,11931.2185,W,1,12,0.8,11.2,M,-33.6,M,,*6D
$PYRTM,2024,126.606099122512,17.715746532650
$GPGGA,143246.00,3400.5551,N,11931.2200,W,1,12,0.8,11.2,M,-33.6,M,,*62
$PYRTM,2024,126.606117770104,17.715765180243
$GPGGA,143247.00,3400.5542,N,11931.2214,W,1,12,0.8,11.2,M,-33.6,M,,*64
$PYRTM,2024,126.606126447002,17.715773857141
$GPGGA,143248.00,3400.5534,N,11931.2229,W,1,12,0.8,11.1,M,-33.6,M,,*67
$PYRTM,2024,126.606138021632,17.715785431771
$GPGGA,143249.00,3400.5525,N,11931.2243,W,1,12,0.8,11.2,M,-33.6,M,,*69
$PYRTM,2024,126.606149595243,17.715797005382
$GPGGA,143250.00,3400.5516,N,11931.2257,W,1,12,0.8,11.2,M,-33.6,M,,*64
$PYRTM,2024,126.606161170185,17.715808580324
$GPGGA,143251.00,3400.5507,N,11931.2271,W,1,12,0.8,11.1,M,-33.6,M,,*62
$PYRTM,2024,126.606168565185,17.715815975324
$GPGGA,143252.00,3400.5499,N,11931.2286,W,1,12,0.8,11.2,M,-33.6,M,,*6C
$PYRTM,2024,126.606184317975,17.715831728113
$GPGGA,143253.00,3400.5491,N,11931.2300,W,1,12,0.8,11.3,M,-33.6,M,,*6B
$PYRTM,2024,126.606195892766,17.715843302917
$GPGGA,143254.00,3400.5483,N,11931.2315,W,1,12,0.8,11.3,M,-33.6,M,,*6B
$PYRTM,2024,126.606207467581,17.715854877720
$GPGGA,143255.00,3400.5474,N,11931.2329,W,1,12,0.8,11.2,M,-33.6,M,,*6C
$PYRTM,2024,126.606219040845,17.715866450995
$GPGGA,143256.00,3400.5465,N,11931.2343,W,1,12,0.8,11.2,M,-33.6,M,,*63
$PYRTM,2024,126.606230615324,17.715878025463
$GPGGA,143257.00,3400.5457,N,11931.2358,W,1,12,0.8,11.2,M,-33.6,M,,*69
$PYRTM,2024,126.606242189630,17.715889599769
$GPGGA,143258.00,3400.5448,N,11931.2373,W,1,12,0.8,11.2,M,-33.6,M,,*61
$PYRTM,2024,126.606253767083,17.715901177234
$GPGGA,143259.00,3400.5440,N,11931.2388,W,1,12,0.8,11.2,M,-33.6,M,,*6C
$PYRTM,2024,126.606265339086,17.715912749225
$GPGGA,143300.00,3400.5431,N,11931.2402,W,1,12,0.8,11.3,M,-33.6,M,,*63
$PYRTM,2024,126.606276925718,17.715924335856
$GPGGA,143301.00,3400.5422,N,11931.2416,W,1,12,0.8,11.2,M,-33.6,M,,*64
$PYRTM,2024,126.606288481215,17.715935891354
$GPGGA,143302.00,3400.5414,N,11931.2430,W,1,12,0.8,11.3,M,-33.6,M,,*67
$PYRTM,2024,126.606300060370,17.715947470498
$GPGGA,143303.00,3400.5406,N,11931.2444,W,1,12,0.8,11.5,M,-33.6,M,,*60
$PYRTM,2024,126.606307467928,17.715954878067
$GPGGA,143304.00,3400.5398,N,11931.2459,W,1,12,0.8,11.4,M,-33.6,M,,*6A
$PYRTM,2024,126.606323208507,17.715970618646
$GPGGA,143305.00,3400.5389,N,11931.2475,W,1,12,0.8,11.0,M,-33.6,M,,*61
$PYRTM,2024,126.606334783137,17.715982193287
$GPGGA,143306.00,3400.5381,N,11931.2488,W,1,12,0.8,11.0,M,-33.6,M,,*68
$PYRTM,2024,126.606346357523,17.715993767674
$GPGGA,143307.00,3400.5372,N,11931.2501,W,1,12,0.8,11.1,M,-33.6,M,,*64
$PYRTM,2024,126.606357931227,17.716005341366
$GPGGA,143308.00,3400.5365,N,11931.2515,W,1,12,0.8,11.1,M,-33.6,M,,*68
$PYRTM,2024,126.606365326597,17.716012736736
$GPGGA,143309.00,3400.5357,N,11931.2531,W,1,12,0.8,11.1,M,-33.6,M,,*6E
$PYRTM,2024,126.606381079734,17.716028489873
$GPGGA,143310.00,3400.5348,N,11931.2546,W,1,12,0.8,10.9,M,-33.6,M,,*61
$PYRTM,2024,126.606392655718,17.716040065856
$GPGGA,143311.00,3400.5339,N,11931.2559,W,1,12,0.8,11.0,M,-33.6,M,,*60
$PYRTM,2024,126.606404223137,17.716051633275
$GPGGA,143312.00,3400.5330,N,11931.2572,W,1,12,0.8,11.1,M,-33.6,M,,*62
$PYRTM,2024,126.606415802465,17.716063212604
$GPGGA,143313.00,3400.5322,N,11931.2587,W,1,12,0.8,11.1,M,-33.6,M,,*6A
$PYRTM,2024,126.606427375891,17.716074786042
$GPGGA,143314.00,3400.5314,N,11931.2602,W,1,12,0.8,11.0,M,-33.6,M,,*67
$PYRTM,2024,126.606438954317,17.716086364456
$GPGGA,143315.00,3400.5306,N,11931.2617,W,1,12,0.8,11.1,M,-33.6,M,,*60
$PYRTM,2024,126.606450523935,17.716097934074
$GPGGA,143316.00,3400.5298,N,11931.2630,W,1,12,0.8,11.3,M,-33.6,M,,*62
$PYRTM,2024,126.606457919317,17.716105329456
$GPGGA,143317.00,3400.5289,N,11931.2645,W,1,12,0.8,11.2,M,-33.6,M,,*60
$PYRTM,2024,126.606476554514,17.716123964653
$GPGGA,143318.00,3400.5280,N,11931.2659,W,1,12,0.8,11.1,M,-33.6,M,,*68
$PYRTM,2024,126.606488155266,17.716135565405
$GPGGA,143319.00,3400.5272,N,11931.2673,W,1,12,0.8,11.1,M,-33.6,M,,*6C
$PYRTM,2024,126.606499701898,17.716147112037
$GPGGA,143320.00,3400.5265,N,11931.2688,W,1,12,0.8,11.2,M,-33.6,M,,*67
$PYRTM,2024,126.606508396447,17.716155806586
$GPGGA,143321.00,3400.5257,N,11931.2702,W,1,12,0.8,11.2,M,-33.6,M,,*64
$PYRTM,2024,126.606519969062,17.716167379201
$GPGGA,143322.00,3400.5248,N,11931.2717,W,1,12,0.8,11.2,M,-33.6,M,,*6D
$PYRTM,2024,126.606531545093,17.716178955231
$GPGGA,143323.00,3400.5239,N,11931.2730,W,1,12,0.8,11.2,M,-33.6,M,,*6F
$PYRTM,2024,126.606543117789,17.716190527928
$GPGGA,143324.00,3400.5231,N,11931.2744,W,1,12,0.8,11.2,M,-33.6,M,,*63
$PYRTM,2024,126.606554693530,17.716202103669
$GPGGA,143325.00,3400.5224,N,11931.2759,W,1,12,0.8,11.3,M,-33.6,M,,*6B
$PYRTM,2024,126.606566266875,17.716213677014
$GPGGA,143326.00,3400.5217,N,11931.2774,W,1,12,0.8,11.3,M,-33.6,M,,*67
$PYRTM,2024,126.606577839931,17.716225250069
$GPGGA,143327.00,3400.5208,N,11931.2787,W,1,12,0.8,11.3,M,-33.6,M,,*64
$PYRTM,2024,126.606589409850,17.716236820000
$GPGGA,143328.00,3400.5198,N,11931.2800,W,1,12,0.8,11.3,M,-33.6,M,,*61
$PYRTM,2024,126.606596811123,17.716244221262
$GPGGA,143329.00,3400.5190,N,11931.2815,W,1,12,0.8,11.2,M,-33.6,M,,*6D
$PYRTM,2024,126.606612561181,17.716259971319
$GPGGA,143330.00,3400.5183,N,11931.2830,W,1,12,0.8,11.2,M,-33.6,M,,*60
$PYRTM,2024,126.606624139213,17.716271549352
$GPGGA,143331.00,3400.5176,N,11931.2845,W,1,12,0.8,11.4,M,-33.6,M,,*6F
$PYRTM,2024,126.606635710961,17.716283121111
$GPGGA,143332.00,3400.5167,N,11931.2859,W,1,12,0.8,11.4,M,-33.6,M,,*61
$PYRTM,2024,126.606647299248,17.716294709398
$GPGGA,143333.00,3400.5158,N,11931.2873,W,1,12,0.8,11.3,M,-33.6,M,,*63
$PYRTM,2024,126.606654680197,17.716302090336
$GPGGA,143334.00,3400.5150,N,11931.2887,W,1,12,0.8,11.2,M,-33.6,M,,*66
$PYRTM,2024,126.606670433206,17.716317843345
$GPGGA,143335.00,3400.5142,N,11931.2902,W,1,12,0.8,11.1,M,-33.6,M,,*6B
$PYRTM,2024,126.606682006076,17.716329416215
$GPGGA,143336.00,3400.5134,N,11931.2916,W,1,12,0.8,11.1,M,-33.6,M,,*6C
$PYRTM,2024,126.606693581250,17.716340991389
$GPGGA,143337.00,3400.5126,N,11931.2931,W,1,12,0.8,11.1,M,-33.6,M,,*6B
$PYRTM,2024,126.606705156632,17.716352566782
$GPGGA,143338.00,3400.5118,N,11931.2946,W,1,12,0.8,11.0,M,-33.6,M,,*68
$PYRTM,2024,126.606716729896,17.716364140046
$GPGGA,143339.00,3400.5110,N,11931.2960,W,1,12,0.8,11.0,M,-33.6,M,,*65
$PYRTM,2024,126.606728304699,17.716375714838
$GPGGA,143340.00,3400.5101,N,11931.2974,W,1,12,0.8,11.0,M,-33.6,M,,*6E
$PYRTM,2024,126.606739878819,17.716387288958
$GPGGA,143341.00,3400.5093,N,11931.2989,W,1,12,0.8,11.1,M,-33.6,M,,*66
$PYRTM,2024,126.606751453785,17.716398863935
$GPGGA,143342.00,3400.5086,N,11931.3003,W,1,12,0.8,11.1,M,-33.6,M,,*6B
$PYRTM,2024,126.606763027014,17.716410437153
$GPGGA,143343.00,3400.5079,N,11931.3018,W,1,12,0.8,11.0,M,-33.6,M,,*61
$PYRTM,2024,126.606770422338,17.716417832477
$GPGGA,143344.00,3400.5071,N,11931.3032,W,1,12,0.8,11.1,M,-33.6,M,,*67
$PYRTM,2024,126.606786189074,17.716433599213
$GPGGA,143345.00,3400.5063,N,11931.3046,W,1,12,0.8,11.1,M,-33.6,M,,*66
$PYRTM,2024,126.606797749340,17.716445159479
$GPGGA,143346.00,3400.5054,N,11931.3060,W,1,12,0.8,11.2,M,-33.6,M,,*66
$PYRTM,2024,126.606809327431,17.716456737569
$GPGGA,143347.00,3400.5047,N,11931.3074,W,1,12,0.8,11.2,M,-33.6,M,,*60
$PYRTM,2024,126.606816718924,17.716464129062
$GPGGA,143348.00,3400.5040,N,11931.3089,W,1,12,0.8,11.0,M,-33.6,M,,*68
$PYRTM,2024,126.606835367905,17.716482778044
$GPGGA,143349.00,3400.5033,N,11931.3104,W,1,12,0.8,11.0,M,-33.6,M,,*69
$PYRTM,2024,126.606844045312,17.716491455451
$GPGGA,143350.00,3400.5025,N,11931.3118,W,1,12,0.8,11.1,M,-33.6,M,,*6A
$PYRTM,2024,126.606851441146,17.716498851285
$GPGGA,143351.00,3400.5016,N,11931.3132,W,1,12,0.8,11.1,M,-33.6,M,,*63
$PYRTM,2024,126.606867188576,17.716514598715
$GPGGA,143352.00,3400.5008,N,11931.3146,W,1,12,0.8,11.2,M,-33.6,M,,*6F
$PYRTM,2024,126.606878767060,17.716526177199
$GPGGA,143353.00,3400.5000,N,11931.3160,W,1,12,0.8,11.0,M,-33.6,M,,*60
$PYRTM,2024,126.606886177882,17.716533588021
$GPGGA,143354.00,3400.4993,N,11931.3175,W,1,12,0.8,11.0,M,-33.6,M,,*61
$PYRTM,2024,126.606901916863,17.716549327002
$GPGGA,143355.00,3400.4985,N,11931.3189,W,1,12,0.8,11.0,M,-33.6,M,,*64
$PYRTM,2024,126.606913485162,17.716560895301
$GPGGA,143356.00,3400.4976,N,11931.3202,W,1,12,0.8,11.1,M,-33.6,M,,*6A
$PYRTM,2024,126.606925064664,17.716572474803
$GPGGA,143357.00,3400.4968,N,11931.3215,W,1,12,0.8,11.1,M,-33.6,M,,*62
$PYRTM,2024,126.606936639468,17.716584049606
$GPGGA,143358.00,3400.4960,N,11931.3230,W,1,12,0.8,11.1,M,-33.6,M,,*62
$PYRTM,2024,126.606948213275,17.716595623414
$GPGGA,143359.00,3400.4952,N,11931.3244,W,1,12,0.8,11.1,M,-33.6,M,,*61
$PYRTM,2024,126.606959786285,17.716607196424
$GPGGA,143400.00,3400.4944,N,11931.3258,W,1,12,0.8,11.2,M,-33.6,M,,*63
$PYRTM,2024,126.606971364329,17.716618774468
$GPGGA,143401.00,3400.4936,N,11931.3272,W,1,12,0.8,11.2,M,-33.6,M,,*6F
$PYRTM,2024,126.606982935382,17.716630345521
$GPGGA,143402.00,3400.4928,N,11931.3286,W,1,12,0.8,11.3,M,-33.6,M,,*69
$PYRTM,2024,126.606994513137,17.716641923275
$GPGGA,143403.00,3400.4921,N,11931.3299,W,1,12,0.8,11.4,M,-33.6,M,,*68
$PYRTM,2024,126.607001904780,17.716649314919
$GPGGA,143404.00,3400.4913,N,11931.3313,W,1,12,0.8,11.5,M,-33.6,M,,*6C
$PYRTM,2024,126.607017661030,17.716665071169
$GPGGA,143405.00,3400.4904,N,11931.3327,W,1,12,0.8,11.3,M,-33.6,M,,*6A
$PYRTM,2024,126.607029233171,17.716676643310
$GPGGA,143406.00,3400.4897,N,11931.3342,W,1,12,0.8,11.2,M,-33.6,M,,*60
$PYRTM,2024,126.607040808009,17.716688218148
$GPGGA,143407.00,3400.4889,N,11931.3355,W,1,12,0.8,11.1,M,-33.6,M,,*6B
$PYRTM,2024,126.607052381319,17.716699791458
$GPGGA,143408.00,3400.4881,N,11931.3367,W,1,12,0.8,11.2,M,-33.6,M,,*6E
$PYRTM,2024,126.607059773924,17.716707184062
$GPGGA,143409.00,3400.4873,N,11931.3381,W,1,12,0.8,11.2,M,-33.6,M,,*6A
$PYRTM,2024,126.607075528275,17.716722938414
$GPGGA,143410.00,3400.4865,N,11931.3396,W,1,12,0.8,11.1,M,-33.6,M,,*60
$PYRTM,2024,126.607087104144,17.716734514282
$GPGGA,143411.00,3400.4857,N,11931.3410,W,1,12,0.8,11.0,M,-33.6,M,,*68
$PYRTM,2024,126.607098678507,17.716746088657
$GPGGA,143412.00,3400.4849,N,11931.3422,W,1,12,0.8,11.0,M,-33.6,M,,*65
$PYRTM,2024,126.607110251505,17.716757661644
$GPGGA,143413.00,3400.4840,N,11931.3435,W,1,12,0.8,11.2,M,-33.6,M,,*69
$PYRTM,2024,126.607117644884,17.716765055023
$GPGGA,143414.00,3400.4833,N,11931.3449,W,1,12,0.8,11.1,M,-33.6,M,,*62
$PYRTM,2024,126.607133399306,17.716780809456
$GPGGA,143415.00,3400.4825,N,11931.3464,W,1,12,0.8,11.0,M,-33.6,M,,*6A
$PYRTM,2024,126.607144973600,17.716792383750
$GPGGA,143416.00,3400.4818,N,11931.3478,W,1,12,0.8,11.0,M,-33.6,M,,*6A
$PYRTM,2024,126.607156555266,17.716803965405
$GPGGA,143417.00,3400.4810,N,11931.3490,W,1,12,0.8,10.9,M,-33.6,M,,*6D
$PYRTM,2024,126.607168123438,17.716815533576
$GPGGA,143418.00,3400.4801,N,11931.3504,W,1,12,0.8,10.9,M,-33.6,M,,*6E
$PYRTM,2024,126.607175517303,17.716822927442
$GPGGA,143419.00,3400.4794,N,11931.3517,W,1,12,0.8,11.1,M,-33.6,M,,*67
$PYRTM,2024,126.607194163576,17.716841573715
$GPGGA,143420.00,3400.4787,N,11931.3530,W,1,12,0.8,11.2,M,-33.6,M,,*69
$PYRTM,2024,126.607202852720,17.716850262859
$GPGGA,143421.00,3400.4780,N,11931.3544,W,1,12,0.8,11.2,M,-33.6,M,,*6C
$PYRTM,2024,126.607214419178,17.716861829329
$GPGGA,143422.00,3400.4772,N,11931.3559,W,1,12,0.8,10.9,M,-33.6,M,,*64
$PYRTM,2024,126.607221813831,17.716869223970
$GPGGA,143423.00,3400.4764,N,11931.3572,W,1,12,0.8,10.8,M,-33.6,M,,*6A
$PYRTM,2024,126.607240459514,17.716887869653
$GPGGA,143424.00,3400.4756,N,11931.3584,W,1,12,0.8,11.0,M,-33.6,M,,*6C
$PYRTM,2024,126.607252034514,17.716899444653
$GPGGA,143425.00,3400.4748,N,11931.3597,W,1,12,0.8,11.3,M,-33.6,M,,*63
$PYRTM,2024,126.607260709062,17.716908119201
$GPGGA,143426.00,3400.4740,N,11931.3611,W,1,12,0.8,11.2,M,-33.6,M,,*64
$PYRTM,2024,126.607272299699,17.716919709838
$GPGGA,143427.00,3400.4733,N,11931.3626,W,1,12,0.8,11.2,M,-33.6,M,,*65
$PYRTM,2024,126.607283862558,17.716931272697
$GPGGA,143428.00,3400.4726,N,11931.3639,W,1,12,0.8,11.3,M,-33.6,M,,*61
$PYRTM,2024,126.607291257303,17.716938667442
$GPGGA,143429.00,3400.4718,N,11931.3651,W,1,12,0.8,11.4,M,-33.6,M,,*64
$PYRTM,2024,126.607307011181,17.716954421319
$GPGGA,143430.00,3400.4710,N,11931.3664,W,1,12,0.8,11.4,M,-33.6,M,,*62
$PYRTM,2024,126.607318584988,17.716965995127
$GPGGA,143431.00,3400.4703,N,11931.3679,W,1,12,0.8,11.3,M,-33.6,M,,*6A
$PYRTM,2024,126.607325986458,17.716973396597
$GPGGA,143432.00,3400.4697,N,11931.3693,W,1,12,0.8,11.2,M,-33.6,M,,*60
$PYRTM,2024,126.607341759271,17.716989169421
$GPGGA,143433.00,3400.4689,N,11931.3707,W,1,12,0.8,11.2,M,-33.6,M,,*62
$PYRTM,2024,126.607349140417,17.716996550556
$GPGGA,143434.00,3400.4681,N,11931.3719,W,1,12,0.8,11.1,M,-33.6,M,,*61
$PYRTM,2024,126.607364890324,17.717012300463
$GPGGA,143435.00,3400.4673,N,11931.3731,W,1,12,0.8,11.0,M,-33.6,M,,*66
$PYRTM,2024,126.607376451597,17.717023861736
$GPGGA,143436.00,3400.4665,N,11931.3744,W,1,12,0.8,11.0,M,-33.6,M,,*60
$PYRTM,2024,126.607388030197,17.717035440336
$GPGGA,143437.00,3400.4657,N,11931.3759,W,1,12,0.8,10.9,M,-33.6,M,,*64
$PYRTM,2024,126.607399605116,17.717047015255
$GPGGA,143438.00,3400.4650,N,11931.3772,W,1,12,0.8,10.7,M,-33.6,M,,*6B
$PYRTM,2024,126.607406999931,17.717054410069
$GPGGA,143439.00,3400.4642,N,11931.3785,W,1,12,0.8,10.8,M,-33.6,M,,*6E
$PYRTM,2024,126.607422752188,17.717070162326
$GPGGA,143440.00,3400.4633,N,11931.3797,W,1,12,0.8,11.0,M,-33.6,M,,*6C
$PYRTM,2024,126.607434326782,17.717081736921
$GPGGA,143441.00,3400.4626,N,11931.3810,W,1,12,0.8,11.1,M,-33.6,M,,*68
$PYRTM,2024,126.607445901690,17.717093311829
$GPGGA,143442.00,3400.4619,N,11931.3824,W,1,12,0.8,11.2,M,-33.6,M,,*63
$PYRTM,2024,126.607457475579,17.717104885729
$GPGGA,143443.00,3400.4612,N,11931.3838,W,1,12,0.8,11.1,M,-33.6,M,,*67
$PYRTM,2024,126.607464876597,17.717112286736
$GPGGA,143444.00,3400.4605,N,11931.3851,W,1,12,0.8,11.1,M,-33.6,M,,*69
$PYRTM,2024,126.607480622650,17.717128032789
$GPGGA,143445.00,3400.4597,N,11931.3864,W,1,12,0.8,11.3,M,-33.6,M,,*64
$PYRTM,2024,126.607492198588,17.717139608727
$GPGGA,143446.00,3400.4589,N,11931.3877,W,1,12,0.8,11.3,M,-33.6,M,,*6A
$PYRTM,2024,126.607503782917,17.717151193056
$GPGGA,143447.00,3400.4582,N,11931.3891,W,1,12,0.8,11.2,M,-33.6,M,,*69
$PYRTM,2024,126.607515346667,17.717162756817
$GPGGA,143448.00,3400.4575,N,11931.3905,W,1,12,0.8,11.0,M,-33.6,M,,*60
$PYRTM,2024,126.607522741794,17.717170151933
$GPGGA,143449.00,3400.4568,N,11931.3918,W,1,12,0.8,11.0,M,-33.6,M,,*61
$PYRTM,2024,126.607534430486,17.717181840625
$GPGGA,143450.00,3400.4560,N,11931.3931,W,1,12,0.8,10.8,M,-33.6,M,,*63
$PYRTM,2024,126.607552965949,17.717200376088
$GPGGA,143451.00,3400.4552,N,11931.3943,W,1,12,0.8,10.8,M,-33.6,M,,*66
$PYRTM,2024,126.607561643634,17.717209053773
$GPGGA,143452.00,3400.4544,N,11931.3956,W,1,12,0.8,10.8,M,-33.6,M,,*66
$PYRTM,2024,126.607573217940,17.717220628079
$GPGGA,143453.00,3400.4537,N,11931.3969,W,1,12,0.8,11.0,M,-33.6,M,,*66
$PYRTM,2024,126.607580495370,17.717227905509
$GPGGA,143454.00,3400.4529,N,11931.3982,W,1,12,0.8,11.0,M,-33.6,M,,*6B
$PYRTM,2024,126.607596376227,17.717243786366
$GPGGA,143455.00,3400.4521,N,11931.3996,W,1,12,0.8,10.9,M,-33.6,M,,*6F
$PYRTM,2024,126.607603644259,17.717251054398
$GPGGA,143456.00,3400.4513,N,11931.4009,W,1,12,0.8,10.9,M,-33.6,M,,*65
$PYRTM,2024,126.607619513044,17.717266923183
$GPGGA,143457.00,3400.4506,N,11931.4021,W,1,12,0.8,11.0,M,-33.6,M,,*62
$PYRTM,2024,126.607631088067,17.717278498206
$GPGGA,143458.00,3400.4498,N,11931.4034,W,1,12,0.8,11.1,M,-33.6,M,,*6E
$PYRTM,2024,126.607638482373,17.717285892512
$GPGGA,143459.00,3400.4491,N,11931.4047,W,1,12,0.8,11.2,M,-33.6,M,,*61
$PYRTM,2024,126.607654236597,17.717301646736
$GPGGA,143500.00,3400.4483,N,11931.4061,W,1,12,0.8,11.0,M,-33.6,M,,*69
$PYRTM,2024,126.607665820648,17.717313230787
$GPGGA,143501.00,3400.4475,N,11931.4075,W,1,12,0.8,10.9,M,-33.6,M,,*6C
$PYRTM,2024,126.607677384259,17.717324794398
$GPGGA,143502.00,3400.4468,N,11931.4088,W,1,12,0.8,11.0,M,-33.6,M,,*69
$PYRTM,2024,126.607688958391,17.717336368530
$GPGGA,143503.00,3400.4459,N,11931.4100,W,1,12,0.8,11.1,M,-33.6,M,,*6A
$PYRTM,2024,126.607700533519,17.717347943669
$GPGGA,143504.00,3400.4451,N,11931.4115,W,1,12,0.8,11.0,M,-33.6,M,,*60
$PYRTM,2024,126.607712115810,17.717359525949
$GPGGA,143505.00,3400.4442,N,11931.4128,W,1,12,0.8,11.0,M,-33.6,M,,*6D
$PYRTM,2024,126.607723680613,17.717371090752
$GPGGA,143506.00,3400.4434,N,11931.4142,W,1,12,0.8,11.0,M,-33.6,M,,*63
$PYRTM,2024,126.607735262685,17.717382672824
$GPGGA,143507.00,3400.4425,N,11931.4156,W,1,12,0.8,11.1,M,-33.6,M,,*66
$PYRTM,2024,126.607746830579,17.717394240729
$GPGGA,143508.00,3400.4416,N,11931.4170,W,1,12,0.8,11.1,M,-33.6,M,,*6D
$PYRTM,2024,126.607754109016,17.717401519155
$GPGGA,143509.00,3400.4407,N,11931.4185,W,1,12,0.8,11.1,M,-33.6,M,,*66
$PYRTM,2024,126.607769977095,17.717417387234
$GPGGA,143510.00,3400.4397,N,11931.4200,W,1,12,0.8,11.3,M,-33.6,M,,*6C
$PYRTM,2024,126.607781562836,17.717428972986
$GPGGA,143511.00,3400.4388,N,11931.4216,W,1,12,0.8,11.1,M,-33.6,M,,*66
$PYRTM,2024,126.607793121319,17.717440531458
$GPGGA,143512.00,3400.4378,N,11931.4231,W,1,12,0.8,11.0,M,-33.6,M,,*6E
$PYRTM,2024,126.607804711262,17.717452121400
$GPGGA,143513.00,3400.4368,N,11931.4246,W,1,12,0.8,10.9,M,-33.6,M,,*66
$PYRTM,2024,126.607816274468,17.717463684606
$GPGGA,143514.00,3400.4358,N,11931.4262,W,1,12,0.8,10.9,M,-33.6,M,,*64
$PYRTM,2024,126.607827849248,17.717475259387
$GPGGA,143515.00,3400.4348,N,11931.4278,W,1,12,0.8,10.9,M,-33.6,M,,*6F
$PYRTM,2024,126.607839421748,17.717486831898
$GPGGA,143516.00,3400.4337,N,11931.4294,W,1,12,0.8,10.8,M,-33.6,M,,*67
$PYRTM,2024,126.607850996065,17.717498406204
$GPGGA,143517.00,3400.4327,N,11931.4310,W,1,12,0.8,10.8,M,-33.6,M,,*6A
