$PYRTM,2024,122.833336978785,13.942984388924
$GPGGA,195959.00,3359.9856,N,11923.3446,W,1,10,0.8,9.7,M,-33.5,M,,*5A
$PYRTM,2024,122.833348565613,13.942995975752
$GPGGA,200000.00,3359.9866,N,11923.3418,W,1,10,0.8,9.5,M,-33.5,M,,*5A
$PYRTM,2024,122.833362903553,13.943010313692
$GPGGA,200001.00,3359.9875,N,11923.3391,W,1,10,0.8,9.4,M,-33.5,M,,*5E
$PYRTM,2024,122.833374492917,13.943021903056
$GPGGA,200002.00,3359.9884,N,11923.3363,W,1,10,0.8,9.4,M,-33.5,M,,*5E
$PYRTM,2024,122.833383274317,13.943030684456
$GPGGA,200003.00,3359.9894,N,11923.3335,W,1,10,0.8,9.5,M,-33.5,M,,*5C
$PYRTM,2024,122.833394849699,13.943042259838
$GPGGA,200004.00,3359.9904,N,11923.3308,W,1,10,0.8,9.7,M,-33.5,M,,*5F
$PYRTM,2024,122.833406423924,13.943053834062
$GPGGA,200005.00,3359.9914,N,11923.3280,W,1,10,0.8,9.8,M,-33.5,M,,*51
$PYRTM,2024,122.833417998067,13.943065408218
$GPGGA,200006.00,3359.9924,N,11923.3252,W,1,10,0.8,9.8,M,-33.5,M,,*5E
$PYRTM,2024,122.833425297708,13.943072707859
$GPGGA,200007.00,3359.9935,N,11923.3224,W,1,10,0.8,9.9,M,-33.5,M,,*5F
$PYRTM,2024,122.833441147824,13.943088557963
$GPGGA,200008.00,3359.9945,N,11923.3196,W,1,10,0.8,9.9,M,-33.5,M,,*5D
$PYRTM,2024,122.833448436586,13.943095846725
$GPGGA,200009.00,3359.9955,N,11923.3168,W,1,10,0.8,9.9,M,-33.5,M,,*5C
$PYRTM,2024,122.833467187662,13.943114597801
$GPGGA,200010.00,3359.9966,N,11923.3139,W,1,10,0.8,10.0,M,-33.5,M,,*61
$PYRTM,2024,122.833478748183,13.943126158322
$GPGGA,200011.00,3359.9977,N,11923.3112,W,1,10,0.8,10.0,M,-33.5,M,,*69
$PYRTM,2024,122.833487443160,13.943134853299
$GPGGA,200012.00,3359.9988,N,11923.3085,W,1,10,0.8,10.0,M,-33.5,M,,*65
$PYRTM,2024,122.833494838009,13.943142248148
$GPGGA,200013.00,3359.9999,N,11923.3057,W,1,10,0.8,10.0,M,-33.5,M,,*6B
$PYRTM,2024,122.833510593958,13.943158004109
$GPGGA,200014.00,3400.0009,N,11923.3028,W,1,10,0.8,10.0,M,-33.5,M,,*66
$PYRTM,2024,122.833522161366,13.943169571505
$GPGGA,200015.00,3400.0019,N,11923.3000,W,1,10,0.8,9.8,M,-33.5,M,,*5C
$PYRTM,2024,122.833533742060,13.943181152211
$GPGGA,200016.00,3400.0030,N,11923.2973,W,1,10,0.8,9.8,M,-33.5,M,,*58
$PYRTM,2024,122.833545312720,13.943192722859
$GPGGA,200017.00,3400.0042,N,11923.2946,W,1,10,0.8,9.8,M,-33.5,M,,*5A
$PYRTM,2024,122.833556891042,13.943204301181
$GPGGA,200018.00,3400.0054,N,11923.2919,W,1,10,0.8,9.8,M,-33.5,M,,*58
$PYRTM,2024,122.833568462095,13.943215872234
$GPGGA,200019.00,3400.0064,N,11923.2891,W,1,10,0.8,9.8,M,-33.5,M,,*5B
$PYRTM,2024,122.833580036019,13.943227446157
$GPGGA,200020.00,3400.0074,N,11923.2863,W,1,10,0.8,9.8,M,-33.5,M,,*5D
$PYRTM,2024,122.833591611308,13.943239021447
$GPGGA,200021.00,3400.0084,N,11923.2836,W,1,10,0.8,9.8,M,-33.5,M,,*53
$PYRTM,2024,122.833598897454,13.943246307593
$GPGGA,200022.00,3400.0096,N,11923.2809,W,1,10,0.8,9.8,M,-33.5,M,,*5F
$PYRTM,2024,122.833614758657,13.943262168796
$GPGGA,200023.00,3400.0108,N,11923.2782,W,1,10,0.8,9.8,M,-33.5,M,,*54
$PYRTM,2024,122.833626332025,13.943273742164
$GPGGA,200024.00,3400.0118,N,11923.2754,W,1,10,0.8,9.8,M,-33.5,M,,*59
$PYRTM,2024,122.833633623264,13.943281033414
$GPGGA,200025.00,3400.0128,N,11923.2726,W,1,10,0.8,9.8,M,-33.5,M,,*5E
$PYRTM,2024,122.833649480127,13.943296890266
$GPGGA,200026.00,3400.0139,N,11923.2699,W,1,10,0.8,10.0,M,-33.5,M,,*68
$PYRTM,2024,122.833661054144,13.943308464282
$GPGGA,200027.00,3400.0151,N,11923.2672,W,1,10,0.8,10.2,M,-33.5,M,,*60
$PYRTM,2024,122.833668448727,13.943315858866
$GPGGA,200028.00,3400.0162,N,11923.2644,W,1,10,0.8,10.2,M,-33.5,M,,*6A
$PYRTM,2024,122.833684203403,13.943331613542
$GPGGA,200029.00,3400.0173,N,11923.2616,W,1,10,0.8,10.0,M,-33.5,M,,*6E
$PYRTM,2024,122.833695779444,13.943343189583
$GPGGA,200030.00,3400.0184,N,11923.2588,W,1,10,0.8,9.9,M,-33.5,M,,*5B
$PYRTM,2024,122.833707351655,13.943354761794
$GPGGA,200031.00,3400.0195,N,11923.2561,W,1,10,0.8,9.9,M,-33.5,M,,*5D
$PYRTM,2024,122.833718938993,13.943366349132
$GPGGA,200032.00,3400.0206,N,11923.2534,W,1,10,0.8,10.0,M,-33.5,M,,*66
$PYRTM,2024,122.833726320035,13.943373730174
$GPGGA,200033.00,3400.0217,N,11923.2506,W,1,10,0.8,10.1,M,-33.5,M,,*67
$PYRTM,2024,122.833742076238,13.943389486377
$GPGGA,200034.00,3400.0228,N,11923.2478,W,1,10,0.8,10.2,M,-33.5,M,,*67
$PYRTM,2024,122.833753647558,13.943401057697
$GPGGA,200035.00,3400.0238,N,11923.2449,W,1,10,0.8,10.2,M,-33.5,M,,*65
$PYRTM,2024,122.833761042245,13.943408452384
$GPGGA,200036.00,3400.0249,N,11923.2421,W,1,10,0.8,10.1,M,-33.5,M,,*6D
$PYRTM,2024,122.833776795648,13.943424205787
$GPGGA,200037.00,3400.0259,N,11923.2393,W,1,10,0.8,10.0,M,-33.5,M,,*62
$PYRTM,2024,122.833788371481,13.943435781620
$GPGGA,200038.00,3400.0270,N,11923.2366,W,1,10,0.8,10.0,M,-33.5,M,,*6C
$PYRTM,2024,122.833799943542,13.943447353681
$GPGGA,200039.00,3400.0281,N,11923.2338,W,1,10,0.8,10.0,M,-33.5,M,,*68
$PYRTM,2024,122.833807378762,13.943454788900
$GPGGA,200040.00,3400.0291,N,11923.2311,W,1,10,0.8,10.0,M,-33.5,M,,*6C
$PYRTM,2024,122.833823089468,13.943470499606
$GPGGA,200041.00,3400.0302,N,11923.2283,W,1,10,0.8,9.9,M,-33.5,M,,*5D
$PYRTM,2024,122.833834667454,13.943482077593
$GPGGA,200042.00,3400.0313,N,11923.2256,W,1,10,0.8,9.9,M,-33.5,M,,*56
$PYRTM,2024,122.833846235637,13.943493645775
$GPGGA,200043.00,3400.0323,N,11923.2229,W,1,10,0.8,10.0,M,-33.5,M,,*6D
$PYRTM,2024,122.833857815637,13.943505225775
$GPGGA,200044.00,3400.0333,N,11923.2201,W,1,10,0.8,10.0,M,-33.5,M,,*61
$PYRTM,2024,122.833869388588,13.943516798727
$GPGGA,200045.00,3400.0343,N,11923.2173,W,1,10,0.8,10.0,M,-33.5,M,,*61
$PYRTM,2024,122.833880963206,13.943528373345
$GPGGA,200046.00,3400.0354,N,11923.2145,W,1,10,0.8,10.0,M,-33.5,M,,*61
$PYRTM,2024,122.833892535972,13.943539946111
$GPGGA,200047.00,3400.0365,N,11923.2118,W,1,10,0.8,10.1,M,-33.5,M,,*6B
$PYRTM,2024,122.833899828507,13.943547238657
$GPGGA,200048.00,3400.0376,N,11923.2090,W,1,10,0.8,10.1,M,-33.5,M,,*67
$PYRTM,2024,122.833915683889,13.943563094028
$GPGGA,200049.00,3400.0387,N,11923.2062,W,1,10,0.8,10.1,M,-33.5,M,,*65
$PYRTM,2024,122.833927261690,13.943574671829
$GPGGA,200050.00,3400.0397,N,11923.2034,W,1,10,0.8,10.2,M,-33.5,M,,*6C
$PYRTM,2024,122.833938833715,13.943586243854
$GPGGA,200051.00,3400.0408,N,11923.2006,W,1,10,0.8,10.2,M,-33.5,M,,*6D
$PYRTM,2024,122.833950411667,13.943597821806
$GPGGA,200052.00,3400.0419,N,11923.1978,W,1,10,0.8,10.2,M,-33.5,M,,*6D
$PYRTM,2024,122.833961981250,13.943609391389
$GPGGA,200053.00,3400.0430,N,11923.1951,W,1,10,0.8,10.2,M,-33.5,M,,*6C
$PYRTM,2024,122.833973555856,13.943620965995
$GPGGA,200054.00,3400.0440,N,11923.1924,W,1,10,0.8,10.2,M,-33.5,M,,*6E
$PYRTM,2024,122.833985124977,13.943632535116
$GPGGA,200055.00,3400.0451,N,11923.1896,W,1,10,0.8,10.2,M,-33.5,M,,*67
$PYRTM,2024,122.833996704491,13.943644114630
$GPGGA,200056.00,3400.0462,N,11923.1869,W,1,10,0.8,10.1,M,-33.5,M,,*67
$PYRTM,2024,122.834008280127,13.943655690266
$GPGGA,200057.00,3400.0474,N,11923.1842,W,1,10,0.8,10.1,M,-33.5,M,,*68
$PYRTM,2024,122.834019852361,13.943667262500
$GPGGA,200058.00,3400.0485,N,11923.1814,W,1,10,0.8,10.0,M,-33.5,M,,*6B
$PYRTM,2024,122.834031426921,13.943678837060
$GPGGA,200059.00,3400.0495,N,11923.1786,W,1,10,0.8,10.1,M,-33.5,M,,*6E
$PYRTM,2024,122.834042999977,13.943690410116
$GPGGA,200100.00,3400.0505,N,11923.1758,W,1,10,0.8,10.1,M,-33.5,M,,*68
$PYRTM,2024,122.834054570706,13.943701980845
$GPGGA,200101.00,3400.0517,N,11923.1730,W,1,10,0.8,10.2,M,-33.5,M,,*67
$PYRTM,2024,122.834066149711,13.943713559861
$GPGGA,200102.00,3400.0528,N,11923.1703,W,1,10,0.8,10.2,M,-33.5,M,,*68
$PYRTM,2024,122.834077724988,13.943725135127
$GPGGA,200103.00,3400.0539,N,11923.1676,W,1,10,0.8,10.2,M,-33.5,M,,*6A
$PYRTM,2024,122.834085118970,13.943732529109
$GPGGA,200104.00,3400.0549,N,11923.1648,W,1,10,0.8,10.2,M,-33.5,M,,*67
$PYRTM,2024,122.834100872917,13.943748283067
$GPGGA,200105.00,3400.0560,N,11923.1621,W,1,10,0.8,10.3,M,-33.5,M,,*63
$PYRTM,2024,122.834112461007,13.943759871146
$GPGGA,200106.00,3400.0571,N,11923.1594,W,1,10,0.8,10.2,M,-33.5,M,,*6C
$PYRTM,2024,122.834124020081,13.943771430220
$GPGGA,200107.00,3400.0582,N,11923.1566,W,1,10,0.8,10.2,M,-33.5,M,,*6C
$PYRTM,2024,122.834131311609,13.943778721748
$GPGGA,200108.00,3400.0593,N,11923.1539,W,1,10,0.8,10.2,M,-33.5,M,,*69
$PYRTM,2024,122.834147166933,13.943794577072
$GPGGA,200109.00,3400.0604,N,11923.1511,W,1,10,0.8,10.3,M,-33.5,M,,*6E
$PYRTM,2024,122.834158737118,13.943806147257
$GPGGA,200110.00,3400.0615,N,11923.1483,W,1,10,0.8,10.4,M,-33.5,M,,*6B
$PYRTM,2024,122.834166041400,13.943813451539
$GPGGA,200111.00,3400.0627,N,11923.1455,W,1,10,0.8,10.4,M,-33.5,M,,*60
$PYRTM,2024,122.834181891968,13.943829302106
$GPGGA,200112.00,3400.0639,N,11923.1428,W,1,10,0.8,10.5,M,-33.5,M,,*67
$PYRTM,2024,122.834189181852,13.943836591991
$GPGGA,200113.00,3400.0650,N,11923.1400,W,1,10,0.8,10.6,M,-33.5,M,,*60
$PYRTM,2024,122.834205041366,13.943852451505
$GPGGA,200114.00,3400.0661,N,11923.1373,W,1,10,0.8,10.7,M,-33.5,M,,*67
$PYRTM,2024,122.834216613090,13.943864023229
$GPGGA,200115.00,3400.0672,N,11923.1345,W,1,10,0.8,10.7,M,-33.5,M,,*61
$PYRTM,2024,122.834223892106,13.943871302257
$GPGGA,200116.00,3400.0684,N,11923.1317,W,1,10,0.8,10.5,M,-33.5,M,,*6E
$PYRTM,2024,122.834239760694,13.943887170833
$GPGGA,200117.00,3400.0696,N,11923.1290,W,1,10,0.8,10.4,M,-33.5,M,,*63
$PYRTM,2024,122.834251335162,13.943898745301
$GPGGA,200118.00,3400.0707,N,11923.1263,W,1,10,0.8,10.4,M,-33.5,M,,*69
$PYRTM,2024,122.834262913553,13.943910323692
$GPGGA,200119.00,3400.0718,N,11923.1236,W,1,10,0.8,10.4,M,-33.5,M,,*66
$PYRTM,2024,122.834274486806,13.943921896944
$GPGGA,200120.00,3400.0728,N,11923.1208,W,1,10,0.8,10.4,M,-33.5,M,,*62
$PYRTM,2024,122.834286059051,13.943933469190
$GPGGA,200121.00,3400.0739,N,11923.1181,W,1,10,0.8,10.4,M,-33.5,M,,*61
$PYRTM,2024,122.834297635081,13.943945045231
$GPGGA,200122.00,3400.0751,N,11923.1154,W,1,10,0.8,10.4,M,-33.5,M,,*64
$PYRTM,2024,122.834309207106,13.943956617245
$GPGGA,200123.00,3400.0762,N,11923.1127,W,1,10,0.8,10.4,M,-33.5,M,,*61
$PYRTM,2024,122.834320781597,13.943968191736
$GPGGA,200124.00,3400.0774,N,11923.1099,W,1,10,0.8,10.5,M,-33.5,M,,*64
$PYRTM,2024,122.834332354363,13.943979764502
$GPGGA,200125.00,3400.0784,N,11923.1072,W,1,10,0.8,10.5,M,-33.5,M,,*6F
$PYRTM,2024,122.834343929769,13.943991339907
$GPGGA,200126.00,3400.0796,N,11923.1044,W,1,10,0.8,10.5,M,-33.5,M,,*6A
$PYRTM,2024,122.834355503854,13.944002914005
$GPGGA,200127.00,3400.0808,N,11923.1017,W,1,10,0.8,10.6,M,-33.5,M,,*66
$PYRTM,2024,122.834367077130,13.944014487269
$GPGGA,200128.00,3400.0820,N,11923.0990,W,1,10,0.8,10.7,M,-33.5,M,,*65
$PYRTM,2024,122.834378651042,13.944026061181
$GPGGA,200129.00,3400.0831,N,11923.0962,W,1,10,0.8,10.7,M,-33.5,M,,*69
$PYRTM,2024,122.834386045405,13.944033455544
$GPGGA,200130.00,3400.0842,N,11923.0934,W,1,10,0.8,10.7,M,-33.5,M,,*66
$PYRTM,2024,122.834401794375,13.944049204514
$GPGGA,200131.00,3400.0853,N,11923.0907,W,1,10,0.8,10.8,M,-33.5,M,,*68
$PYRTM,2024,122.834413369282,13.944060779421
$GPGGA,200132.00,3400.0865,N,11923.0879,W,1,10,0.8,10.8,M,-33.5,M,,*66
$PYRTM,2024,122.834424947199,13.944072357338
$GPGGA,200133.00,3400.0877,N,11923.0852,W,1,10,0.8,10.7,M,-33.5,M,,*62
$PYRTM,2024,122.834436522662,13.944083932801
$GPGGA,200134.00,3400.0888,N,11923.0825,W,1,10,0.8,10.5,M,-33.5,M,,*67
$PYRTM,2024,122.834443916366,13.944091326782
$GPGGA,200135.00,3400.0899,N,11923.0798,W,1,10,0.8,10.5,M,-33.5,M,,*6F
$PYRTM,2024,122.834459673542,13.944107083681
$GPGGA,200136.00,3400.0910,N,11923.0770,W,1,10,0.8,10.5,M,-33.5,M,,*6A
$PYRTM,2024,122.834471244491,13.944118654641
$GPGGA,200137.00,3400.0921,N,11923.0743,W,1,10,0.8,10.4,M,-33.5,M,,*68
$PYRTM,2024,122.834478531597,13.944125941748
$GPGGA,200138.00,3400.0932,N,11923.0715,W,1,10,0.8,10.4,M,-33.5,M,,*66
$PYRTM,2024,122.834494392049,13.944141802188
$GPGGA,200139.00,3400.0943,N,11923.0688,W,1,10,0.8,10.4,M,-33.5,M,,*64
$PYRTM,2024,122.834505973345,13.944153383484
$GPGGA,200140.00,3400.0954,N,11923.0661,W,1,10,0.8,10.5,M,-33.5,M,,*6A
$PYRTM,2024,122.834517539734,13.944164949873
$GPGGA,200141.00,3400.0965,N,11923.0633,W,1,10,0.8,10.7,M,-33.5,M,,*6C
$PYRTM,2024,122.834524821111,13.944172231250
$GPGGA,200142.00,3400.0976,N,11923.0606,W,1,10,0.8,10.7,M,-33.5,M,,*6B
$PYRTM,2024,122.834543582535,13.944190992685
$GPGGA,200143.00,3400.0987,N,11923.0578,W,1,10,0.8,10.5,M,-33.5,M,,*6C
$PYRTM,2024,122.834552274225,13.944199684363
$GPGGA,200144.00,3400.0997,N,11923.0551,W,1,10,0.8,10.5,M,-33.5,M,,*61
$PYRTM,2024,122.834563837326,13.944211247477
$GPGGA,200145.00,3400.1009,N,11923.0524,W,1,10,0.8,10.5,M,-33.5,M,,*6D
$PYRTM,2024,122.834575410289,13.944222820428
$GPGGA,200146.00,3400.1020,N,11923.0497,W,1,10,0.8,10.5,M,-33.5,M,,*6C
$PYRTM,2024,122.834586985289,13.944234395428
$GPGGA,200147.00,3400.1032,N,11923.0470,W,1,10,0.8,10.5,M,-33.5,M,,*67
$PYRTM,2024,122.834598560347,13.944245970486
$GPGGA,200148.00,3400.1042,N,11923.0442,W,1,10,0.8,10.5,M,-33.5,M,,*6E
$PYRTM,2024,122.834610134213,13.944257544352
$GPGGA,200149.00,3400.1052,N,11923.0414,W,1,10,0.8,10.5,M,-33.5,M,,*6D
$PYRTM,2024,122.834621707720,13.944269117859
$GPGGA,200150.00,3400.1063,N,11923.0386,W,1,10,0.8,10.5,M,-33.5,M,,*6B
$PYRTM,2024,122.834633277801,13.944280687940
$GPGGA,200151.00,3400.1074,N,11923.0358,W,1,10,0.8,10.5,M,-33.5,M,,*6F
$PYRTM,2024,122.834644863588,13.944292273727
$GPGGA,200152.00,3400.1086,N,11923.0331,W,1,10,0.8,10.5,M,-33.5,M,,*6E
$PYRTM,2024,122.834652137975,13.944299548113
$GPGGA,200153.00,3400.1097,N,11923.0304,W,1,10,0.8,10.4,M,-33.5,M,,*68
$PYRTM,2024,122.834668011921,13.944315422060
$GPGGA,200154.00,3400.1107,N,11923.0276,W,1,10,0.8,10.4,M,-33.5,M,,*63
$PYRTM,2024,122.834679579259,13.944326989398
$GPGGA,200155.00,3400.1117,N,11923.0248,W,1,10,0.8,10.4,M,-33.5,M,,*6E
$PYRTM,2024,122.834691160509,13.944338570648
$GPGGA,200156.00,3400.1127,N,11923.0220,W,1,10,0.8,10.3,M,-33.5,M,,*67
$PYRTM,2024,122.834702721968,13.944350132118
$GPGGA,200157.00,3400.1139,N,11923.0194,W,1,10,0.8,10.4,M,-33.5,M,,*62
$PYRTM,2024,122.834714300417,13.944361710556
$GPGGA,200158.00,3400.1150,N,11923.0167,W,1,10,0.8,10.4,M,-33.5,M,,*6E
$PYRTM,2024,122.834725876088,13.944373286227
$GPGGA,200159.00,3400.1161,N,11923.0139,W,1,10,0.8,10.3,M,-33.5,M,,*61
$PYRTM,2024,122.834737460833,13.944384870972
$GPGGA,200200.00,3400.1171,N,11923.0111,W,1,10,0.8,10.2,M,-33.5,M,,*64
$PYRTM,2024,122.834749023785,13.944396433924
$GPGGA,200201.00,3400.1181,N,11923.0083,W,1,10,0.8,10.0,M,-33.5,M,,*62
$PYRTM,2024,122.834760597905,13.944408008044
$GPGGA,200202.00,3400.1192,N,11923.0056,W,1,10,0.8,10.0,M,-33.5,M,,*6B
$PYRTM,2024,122.834767878125,13.944415288264
$GPGGA,200203.00,3400.1204,N,11923.0029,W,1,10,0.8,10.0,M,-33.5,M,,*6E
$PYRTM,2024,122.834783757488,13.944431167627
$GPGGA,200204.00,3400.1215,N,11923.0003,W,1,10,0.8,10.1,M,-33.5,M,,*60
$PYRTM,2024,122.834795321366,13.944442731516
$GPGGA,200205.00,3400.1225,N,11922.9975,W,1,10,0.8,10.2,M,-33.5,M,,*61
$PYRTM,2024,122.834806897025,13.944454307164
$GPGGA,200206.00,3400.1235,N,11922.9947,W,1,10,0.8,10.2,M,-33.5,M,,*62
$PYRTM,2024,122.834814174491,13.944461584630
$GPGGA,200207.00,3400.1246,N,11922.9920,W,1,10,0.8,10.3,M,-33.5,M,,*67
$PYRTM,2024,122.834830067512,13.944477477650
$GPGGA,200208.00,3400.1257,N,11922.9892,W,1,10,0.8,10.3,M,-33.5,M,,*60
$PYRTM,2024,122.834841612037,13.944489022176
$GPGGA,200209.00,3400.1269,N,11922.9865,W,1,10,0.8,10.3,M,-33.5,M,,*64
$PYRTM,2024,122.834853210000,13.944500620139
$GPGGA,200210.00,3400.1280,N,11922.9838,W,1,10,0.8,10.3,M,-33.5,M,,*63
$PYRTM,2024,122.834864766389,13.944512176528
$GPGGA,200211.00,3400.1291,N,11922.9810,W,1,10,0.8,10.2,M,-33.5,M,,*69
$PYRTM,2024,122.834876346007,13.944523756146
$GPGGA,200212.00,3400.1302,N,11922.9783,W,1,10,0.8,10.1,M,-33.5,M,,*67
$PYRTM,2024,122.834890692512,13.944538102650
$GPGGA,200213.00,3400.1313,N,11922.9755,W,1,10,0.8,10.1,M,-33.5,M,,*6D
$PYRTM,2024,122.834904799317,13.944552209456
$GPGGA,200214.00,3400.1324,N,11922.9728,W,1,10,0.8,10.0,M,-33.5,M,,*65
$PYRTM,2024,122.834911062454,13.944558472593
$GPGGA,200215.00,3400.1334,N,11922.9700,W,1,10,0.8,9.8,M,-33.5,M,,*5F
$PYRTM,2024,122.834922635289,13.944570045428
$GPGGA,200216.00,3400.1345,N,11922.9673,W,1,10,0.8,9.8,M,-33.5,M,,*5F
$PYRTM,2024,122.834934209815,13.944581619965
$GPGGA,200217.00,3400.1355,N,11922.9646,W,1,10,0.8,10.0,M,-33.5,M,,*69
$PYRTM,2024,122.834945791296,13.944593201447
$GPGGA,200218.00,3400.1366,N,11922.9619,W,1,10,0.8,10.0,M,-33.5,M,,*6C
$PYRTM,2024,122.834957358472,13.944604768623
$GPGGA,200219.00,3400.1376,N,11922.9592,W,1,10,0.8,9.9,M,-33.5,M,,*5D
$PYRTM,2024,122.834968932072,13.944616342211
$GPGGA,200220.00,3400.1387,N,11922.9565,W,1,10,0.8,10.0,M,-33.5,M,,*60
$PYRTM,2024,122.834980507350,13.944627917488
$GPGGA,200221.00,3400.1399,N,11922.9538,W,1,10,0.8,10.1,M,-33.5,M,,*67
$PYRTM,2024,122.834992080301,13.944639490440
$GPGGA,200222.00,3400.1410,N,11922.9511,W,1,10,0.8,10.2,M,-33.5,M,,*6A
$PYRTM,2024,122.834999361238,13.944646771377
$GPGGA,200223.00,3400.1421,N,11922.9483,W,1,10,0.8,10.2,M,-33.5,M,,*63
$PYRTM,2024,122.835015228032,13.944662638171
$GPGGA,200224.00,3400.1432,N,11922.9455,W,1,10,0.8,10.3,M,-33.5,M,,*6C
$PYRTM,2024,122.835026797361,13.944674207500
$GPGGA,200225.00,3400.1443,N,11922.9428,W,1,10,0.8,10.2,M,-33.5,M,,*60
$PYRTM,2024,122.835038385220,13.944685795359
$GPGGA,200226.00,3400.1454,N,11922.9401,W,1,10,0.8,10.1,M,-33.5,M,,*6D
$PYRTM,2024,122.835049950312,13.944697360463
$GPGGA,200227.00,3400.1465,N,11922.9374,W,1,10,0.8,10.0,M,-33.5,M,,*6A
$PYRTM,2024,122.835057231829,13.944704641968
$GPGGA,200228.00,3400.1476,N,11922.9347,W,1,10,0.8,9.9,M,-33.5,M,,*56
$PYRTM,2024,122.835073099549,13.944720509687
$GPGGA,200229.00,3400.1486,N,11922.9320,W,1,10,0.8,9.9,M,-33.5,M,,*59
$PYRTM,2024,122.835084673079,13.944732083218
$GPGGA,200230.00,3400.1495,N,11922.9292,W,1,10,0.8,9.8,M,-33.5,M,,*5A
$PYRTM,2024,122.835096249248,13.944743659387
$GPGGA,200231.00,3400.1504,N,11922.9265,W,1,10,0.8,9.8,M,-33.5,M,,*5A
$PYRTM,2024,122.835107833866,13.944755244005
$GPGGA,200232.00,3400.1514,N,11922.9238,W,1,10,0.8,9.7,M,-33.5,M,,*5F
$PYRTM,2024,122.835119396377,13.944766806516
$GPGGA,200233.00,3400.1524,N,11922.9211,W,1,10,0.8,9.6,M,-33.5,M,,*57
$PYRTM,2024,122.835130980961,13.944778391100
$GPGGA,200234.00,3400.1534,N,11922.9184,W,1,10,0.8,9.6,M,-33.5,M,,*5E
$PYRTM,2024,122.835142545602,13.944789955741
$GPGGA,200235.00,3400.1543,N,11922.9156,W,1,10,0.8,9.7,M,-33.5,M,,*51
$PYRTM,2024,122.835154118843,13.944801528981
$GPGGA,200236.00,3400.1552,N,11922.9128,W,1,10,0.8,9.9,M,-33.5,M,,*55
$PYRTM,2024,122.835165687581,13.944813097731
$GPGGA,200237.00,3400.1562,N,11922.9101,W,1,10,0.8,10.0,M,-33.5,M,,*6D
$PYRTM,2024,122.835177268090,13.944824678229
$GPGGA,200238.00,3400.1573,N,11922.9073,W,1,10,0.8,10.1,M,-33.5,M,,*67
$PYRTM,2024,122.835188957373,13.944836367512
$GPGGA,200239.00,3400.1582,N,11922.9046,W,1,10,0.8,10.1,M,-33.5,M,,*6E
$PYRTM,2024,122.835200425579,13.944847835729
$GPGGA,200240.00,3400.1591,N,11922.9018,W,1,10,0.8,10.0,M,-33.5,M,,*68
$PYRTM,2024,122.835211988704,13.944859398843
$GPGGA,200241.00,3400.1600,N,11922.8991,W,1,10,0.8,9.9,M,-33.5,M,,*5A
$PYRTM,2024,122.835223572141,13.944870982292
$GPGGA,200242.00,3400.1610,N,11922.8964,W,1,10,0.8,9.9,M,-33.5,M,,*52
$PYRTM,2024,122.835230843090,13.944878253229
$GPGGA,200243.00,3400.1619,N,11922.8938,W,1,10,0.8,9.8,M,-33.5,M,,*52
$PYRTM,2024,122.835242534699,13.944889944838
$GPGGA,200244.00,3400.1629,N,11922.8911,W,1,10,0.8,9.7,M,-33.5,M,,*52
$PYRTM,2024,122.835258285706,13.944905695845
$GPGGA,200245.00,3400.1638,N,11922.8884,W,1,10,0.8,9.8,M,-33.5,M,,*51
$PYRTM,2024,122.835269859826,13.944917269977
$GPGGA,200246.00,3400.1647,N,11922.8858,W,1,10,0.8,9.8,M,-33.5,M,,*5B
$PYRTM,2024,122.835281428738,13.944928838877
$GPGGA,200247.00,3400.1656,N,11922.8830,W,1,10,0.8,9.8,M,-33.5,M,,*54
$PYRTM,2024,122.835293019144,13.944940429282
$GPGGA,200248.00,3400.1665,N,11922.8803,W,1,10,0.8,9.8,M,-33.5,M,,*5B
$PYRTM,2024,122.835304577465,13.944951987604
$GPGGA,200249.00,3400.1675,N,11922.8775,W,1,10,0.8,9.9,M,-33.5,M,,*54
$PYRTM,2024,122.835316168588,13.944963578727
$GPGGA,200250.00,3400.1685,N,11922.8749,W,1,10,0.8,9.9,M,-33.5,M,,*5C
$PYRTM,2024,122.835327729919,13.944975140058
$GPGGA,200251.00,3400.1694,N,11922.8722,W,1,10,0.8,10.0,M,-33.5,M,,*61
$PYRTM,2024,122.835339304120,13.944986714259
$GPGGA,200252.00,3400.1704,N,11922.8695,W,1,10,0.8,9.9,M,-33.5,M,,*56
$PYRTM,2024,122.835350874375,13.944998284514
$GPGGA,200253.00,3400.1713,N,11922.8668,W,1,10,0.8,9.8,M,-33.5,M,,*52
$PYRTM,2024,122.835362463970,13.945009874109
$GPGGA,200254.00,3400.1723,N,11922.8642,W,1,10,0.8,9.7,M,-33.5,M,,*51
$PYRTM,2024,122.835374027986,13.945021438125
$GPGGA,200255.00,3400.1733,N,11922.8616,W,1,10,0.8,9.7,M,-33.5,M,,*50
$PYRTM,2024,122.835385600417,13.945033010567
$GPGGA,200256.00,3400.1743,N,11922.8589,W,1,10,0.8,9.5,M,-33.5,M,,*53
$PYRTM,2024,122.835397175660,13.945044585799
$GPGGA,200257.00,3400.1752,N,11922.8562,W,1,10,0.8,9.5,M,-33.5,M,,*57
$PYRTM,2024,122.835408757674,13.945056167813
$GPGGA,200258.00,3400.1761,N,11922.8536,W,1,10,0.8,9.6,M,-33.5,M,,*5A
$PYRTM,2024,122.835420327280,13.945067737419
$GPGGA,200259.00,3400.1771,N,11922.8510,W,1,10,0.8,9.7,M,-33.5,M,,*5F
$PYRTM,2024,122.835431906227,13.945079316366
$GPGGA,200300.00,3400.1781,N,11922.8483,W,1,10,0.8,9.8,M,-33.5,M,,*59
$PYRTM,2024,122.835443466933,13.945090877083
$GPGGA,200301.00,3400.1791,N,11922.8456,W,1,10,0.8,9.9,M,-33.5,M,,*50
$PYRTM,2024,122.835455070532,13.945102480671
$GPGGA,200302.00,3400.1801,N,11922.8430,W,1,10,0.8,9.9,M,-33.5,M,,*55
$PYRTM,2024,122.835462326227,13.945109736366
$GPGGA,200303.00,3400.1811,N,11922.8404,W,1,10,0.8,10.0,M,-33.5,M,,*63
$PYRTM,2024,122.835478194097,13.945125604236
$GPGGA,200304.00,3400.1822,N,11922.8378,W,1,10,0.8,9.9,M,-33.5,M,,*59
$PYRTM,2024,122.835489769329,13.945137179468
$GPGGA,200305.00,3400.1832,N,11922.8352,W,1,10,0.8,9.8,M,-33.5,M,,*50
$PYRTM,2024,122.835501343160,13.945148753299
$GPGGA,200306.00,3400.1842,N,11922.8326,W,1,10,0.8,9.7,M,-33.5,M,,*58
$PYRTM,2024,122.835512911736,13.945160321875
$GPGGA,200307.00,3400.1852,N,11922.8300,W,1,10,0.8,9.6,M,-33.5,M,,*5D
$PYRTM,2024,122.835524490312,13.945171900451
$GPGGA,200308.00,3400.1862,N,11922.8274,W,1,10,0.8,9.5,M,-33.5,M,,*50
$PYRTM,2024,122.835531770266,13.945179180405
$GPGGA,200309.00,3400.1871,N,11922.8248,W,1,10,0.8,9.5,M,-33.5,M,,*5C
$PYRTM,2024,122.835547638993,13.945195049132
$GPGGA,200310.00,3400.1881,N,11922.8222,W,1,10,0.8,9.4,M,-33.5,M,,*56
$PYRTM,2024,122.835559212917,13.945206623056
$GPGGA,200311.00,3400.1890,N,11922.8196,W,1,10,0.8,9.3,M,-33.5,M,,*5C
$PYRTM,2024,122.835570786655,13.945218196794
$GPGGA,200312.00,3400.1900,N,11922.8171,W,1,10,0.8,9.3,M,-33.5,M,,*5E
$PYRTM,2024,122.835578067361,13.945225477512
$GPGGA,200313.00,3400.1911,N,11922.8145,W,1,10,0.8,9.4,M,-33.5,M,,*5F
$PYRTM,2024,122.835593943113,13.945241353252
$GPGGA,200314.00,3400.1920,N,11922.8119,W,1,10,0.8,9.4,M,-33.5,M,,*53
$PYRTM,2024,122.835601213958,13.945248624097
$GPGGA,200315.00,3400.1929,N,11922.8092,W,1,10,0.8,9.4,M,-33.5,M,,*59
$PYRTM,2024,122.835617093461,13.945264503600
$GPGGA,200316.00,3400.1939,N,11922.8067,W,1,10,0.8,9.5,M,-33.5,M,,*50
$PYRTM,2024,122.835628659190,13.945276069329
$GPGGA,200317.00,3400.1949,N,11922.8041,W,1,10,0.8,9.6,M,-33.5,M,,*51
$PYRTM,2024,122.835635937025,13.945283347164
$GPGGA,200318.00,3400.1960,N,11922.8015,W,1,10,0.8,9.7,M,-33.5,M,,*55
$PYRTM,2024,122.835651802639,13.945299212778
$GPGGA,200319.00,3400.1970,N,11922.7989,W,1,10,0.8,9.6,M,-33.5,M,,*57
$PYRTM,2024,122.835663380347,13.945310790486
$GPGGA,200320.00,3400.1980,N,11922.7964,W,1,10,0.8,9.6,M,-33.5,M,,*51
$PYRTM,2024,122.835674955035,13.945322365174
$GPGGA,200321.00,3400.1990,N,11922.7938,W,1,10,0.8,9.5,M,-33.5,M,,*5B
$PYRTM,2024,122.835686528576,13.945333938715
$GPGGA,200322.00,3400.2000,N,11922.7912,W,1,10,0.8,9.4,M,-33.5,M,,*52
$PYRTM,2024,122.835698099248,13.945345509387
$GPGGA,200323.00,3400.2010,N,11922.7886,W,1,10,0.8,9.3,M,-33.5,M,,*59
$PYRTM,2024,122.835709676863,13.945357087002
$GPGGA,200324.00,3400.2020,N,11922.7861,W,1,10,0.8,9.3,M,-33.5,M,,*54
$PYRTM,2024,122.835721246609,13.945368656759
$GPGGA,200325.00,3400.2030,N,11922.7836,W,1,10,0.8,9.3,M,-33.5,M,,*56
$PYRTM,2024,122.835732837373,13.945380247512
$GPGGA,200326.00,3400.2040,N,11922.7809,W,1,10,0.8,9.3,M,-33.5,M,,*5E
$PYRTM,2024,122.835744399769,13.945391809907
$GPGGA,200327.00,3400.2049,N,11922.7783,W,1,10,0.8,9.3,M,-33.5,M,,*5B
$PYRTM,2024,122.835755973542,13.945403383681
$GPGGA,200328.00,3400.2058,N,11922.7757,W,1,10,0.8,9.3,M,-33.5,M,,*5D
$PYRTM,2024,122.835767548333,13.945414958484
$GPGGA,200329.00,3400.2067,N,11922.7731,W,1,10,0.8,9.2,M,-33.5,M,,*51
$PYRTM,2024,122.835774840660,13.945422250799
$GPGGA,200330.00,3400.2077,N,11922.7706,W,1,10,0.8,9.2,M,-33.5,M,,*5C
$PYRTM,2024,122.835790695417,13.945438105556
$GPGGA,200331.00,3400.2086,N,11922.7680,W,1,10,0.8,9.2,M,-33.5,M,,*5C
$PYRTM,2024,122.835802295174,13.945449705312
$GPGGA,200332.00,3400.2095,N,11922.7654,W,1,10,0.8,9.2,M,-33.5,M,,*54
$PYRTM,2024,122.835813840949,13.945461251100
$GPGGA,200333.00,3400.2104,N,11922.7628,W,1,10,0.8,9.2,M,-33.5,M,,*57
$PYRTM,2024,122.835825426250,13.945472836389
$GPGGA,200334.00,3400.2114,N,11922.7603,W,1,10,0.8,9.3,M,-33.5,M,,*59
$PYRTM,2024,122.835832697928,13.945480108067
$GPGGA,200335.00,3400.2123,N,11922.7578,W,1,10,0.8,9.3,M,-33.5,M,,*53
$PYRTM,2024,122.835848566100,13.945495976238
$GPGGA,200336.00,3400.2133,N,11922.7553,W,1,10,0.8,9.3,M,-33.5,M,,*58
$PYRTM,2024,122.835860141134,13.945507551273
$GPGGA,200337.00,3400.2142,N,11922.7527,W,1,10,0.8,9.3,M,-33.5,M,,*5C
$PYRTM,2024,122.835871727083,13.945519137222
$GPGGA,200338.00,3400.2152,N,11922.7502,W,1,10,0.8,9.3,M,-33.5,M,,*55
$PYRTM,2024,122.835883289641,13.945530699780
$GPGGA,200339.00,3400.2162,N,11922.7476,W,1,10,0.8,9.4,M,-33.5,M,,*52
$PYRTM,2024,122.835890569086,13.945537979225
$GPGGA,200340.00,3400.2171,N,11922.7450,W,1,10,0.8,9.4,M,-33.5,M,,*5A
$PYRTM,2024,122.835906432766,13.945553842905
$GPGGA,200341.00,3400.2181,N,11922.7423,W,1,10,0.8,9.4,M,-33.5,M,,*50
$PYRTM,2024,122.835918011285,13.945565421424
$GPGGA,200342.00,3400.2190,N,11922.7397,W,1,10,0.8,9.4,M,-33.5,M,,*5B
$PYRTM,2024,122.835929586771,13.945576996910
$GPGGA,200343.00,3400.2200,N,11922.7371,W,1,10,0.8,9.4,M,-33.5,M,,*58
$PYRTM,2024,122.835941159491,13.945588569630
$GPGGA,200344.00,3400.2210,N,11922.7345,W,1,10,0.8,9.4,M,-33.5,M,,*59
$PYRTM,2024,122.835948439502,13.945595849641
$GPGGA,200345.00,3400.2219,N,11922.7319,W,1,10,0.8,9.4,M,-33.5,M,,*58
$PYRTM,2024,122.835960129109,13.945607539248
$GPGGA,200346.00,3400.2229,N,11922.7294,W,1,10,0.8,9.3,M,-33.5,M,,*5B
$PYRTM,2024,122.835978659965,13.945626070104
$GPGGA,200347.00,3400.2238,N,11922.7269,W,1,10,0.8,9.2,M,-33.5,M,,*59
$PYRTM,2024,122.835990259225,13.945637669363
$GPGGA,200348.00,3400.2248,N,11922.7244,W,1,10,0.8,9.1,M,-33.5,M,,*5D
$PYRTM,2024,122.836001808218,13.945649218356
$GPGGA,200349.00,3400.2258,N,11922.7219,W,1,10,0.8,9.0,M,-33.5,M,,*54
$PYRTM,2024,122.836010613426,13.945658023565
$GPGGA,200350.00,3400.2267,N,11922.7194,W,1,10,0.8,9.1,M,-33.5,M,,*57
$PYRTM,2024,122.836022178206,13.945669588345
$GPGGA,200351.00,3400.2276,N,11922.7168,W,1,10,0.8,9.1,M,-33.5,M,,*55
$PYRTM,2024,122.836033763912,13.945681174062
$GPGGA,200352.00,3400.2284,N,11922.7142,W,1,10,0.8,9.1,M,-33.5,M,,*53
$PYRTM,2024,122.836041032269,13.945688442407
$GPGGA,200353.00,3400.2294,N,11922.7117,W,1,10,0.8,9.1,M,-33.5,M,,*53
$PYRTM,2024,122.836056911782,13.945704321921
$GPGGA,200354.00,3400.2305,N,11922.7092,W,1,10,0.8,9.2,M,-33.5,M,,*52
$PYRTM,2024,122.836068474884,13.945715885012
$GPGGA,200355.00,3400.2315,N,11922.7066,W,1,10,0.8,9.2,M,-33.5,M,,*59
$PYRTM,2024,122.836080060370,13.945727470509
$GPGGA,200356.00,3400.2324,N,11922.7040,W,1,10,0.8,9.3,M,-33.5,M,,*5D
$PYRTM,2024,122.836091623194,13.945739033333
$GPGGA,200357.00,3400.2334,N,11922.7013,W,1,10,0.8,9.3,M,-33.5,M,,*5B
$PYRTM,2024,122.836098903345,13.945746313484
$GPGGA,200358.00,3400.2345,N,11922.6988,W,1,10,0.8,9.4,M,-33.5,M,,*5F
$PYRTM,2024,122.836114770995,13.945762181134
$GPGGA,200359.00,3400.2355,N,11922.6963,W,1,10,0.8,9.4,M,-33.5,M,,*5A
$PYRTM,2024,122.836126358009,13.945773768148
$GPGGA,200400.00,3400.2365,N,11922.6937,W,1,10,0.8,9.3,M,-33.5,M,,*54
$PYRTM,2024,122.836133624132,13.945781034271
$GPGGA,200401.00,3400.2375,N,11922.6912,W,1,10,0.8,9.3,M,-33.5,M,,*53
$PYRTM,2024,122.836149493819,13.945796903958
$GPGGA,200402.00,3400.2385,N,11922.6886,W,1,10,0.8,9.2,M,-33.5,M,,*52
$PYRTM,2024,122.836161067755,13.945808477894
$GPGGA,200403.00,3400.2395,N,11922.6861,W,1,10,0.8,9.1,M,-33.5,M,,*58
$PYRTM,2024,122.836172666366,13.945820076516
$GPGGA,200404.00,3400.2405,N,11922.6836,W,1,10,0.8,9.0,M,-33.5,M,,*52
$PYRTM,2024,122.836184216539,13.945831626678
$GPGGA,200405.00,3400.2415,N,11922.6810,W,1,10,0.8,8.9,M,-33.5,M,,*5E
$PYRTM,2024,122.836195817627,13.945843227755
$GPGGA,200406.00,3400.2424,N,11922.6785,W,1,10,0.8,8.9,M,-33.5,M,,*5C
$PYRTM,2024,122.836207366644,13.945854776782
$GPGGA,200407.00,3400.2434,N,11922.6759,W,1,10,0.8,9.0,M,-33.5,M,,*55
$PYRTM,2024,122.836214642859,13.945862052998
$GPGGA,200408.00,3400.2445,N,11922.6734,W,1,10,0.8,9.0,M,-33.5,M,,*57
$PYRTM,2024,122.836230512454,13.945877922593
$GPGGA,200409.00,3400.2454,N,11922.6709,W,1,10,0.8,9.1,M,-33.5,M,,*59
$PYRTM,2024,122.836242086678,13.945889496817
$GPGGA,200410.00,3400.2464,N,11922.6683,W,1,10,0.8,9.0,M,-33.5,M,,*50
$PYRTM,2024,122.836253660856,13.945901070995
$GPGGA,200411.00,3400.2474,N,11922.6658,W,1,10,0.8,8.9,M,-33.5,M,,*5E
$PYRTM,2024,122.836265235243,13.945912645382
$GPGGA,200412.00,3400.2484,N,11922.6633,W,1,10,0.8,8.8,M,-33.5,M,,*5E
$PYRTM,2024,122.836272514051,13.945919924190
$GPGGA,200413.00,3400.2495,N,11922.6609,W,1,10,0.8,8.8,M,-33.5,M,,*56
$PYRTM,2024,122.836288383356,13.945935793495
$GPGGA,200414.00,3400.2506,N,11922.6584,W,1,10,0.8,8.8,M,-33.5,M,,*5C
$PYRTM,2024,122.836299958125,13.945947368264
$GPGGA,200415.00,3400.2516,N,11922.6559,W,1,10,0.8,8.8,M,-33.5,M,,*5C
$PYRTM,2024,122.836311543669,13.945958953808
$GPGGA,200416.00,3400.2525,N,11922.6533,W,1,10,0.8,8.8,M,-33.5,M,,*53
$PYRTM,2024,122.836318809722,13.945966219861
$GPGGA,200417.00,3400.2534,N,11922.6508,W,1,10,0.8,8.9,M,-33.5,M,,*5B
$PYRTM,2024,122.836337457581,13.945984867720
$GPGGA,200418.00,3400.2545,N,11922.6482,W,1,10,0.8,9.0,M,-33.5,M,,*59
$PYRTM,2024,122.836349031331,13.945996441470
$GPGGA,200419.00,3400.2557,N,11922.6457,W,1,10,0.8,9.0,M,-33.5,M,,*53
$PYRTM,2024,122.836357836088,13.946005246227
$GPGGA,200420.00,3400.2567,N,11922.6432,W,1,10,0.8,9.0,M,-33.5,M,,*59
$PYRTM,2024,122.836365106644,13.946012516782
$GPGGA,200421.00,3400.2577,N,11922.6406,W,1,10,0.8,9.1,M,-33.5,M,,*5F
$PYRTM,2024,122.836380997616,13.946028407766
$GPGGA,200422.00,3400.2587,N,11922.6381,W,1,10,0.8,9.0,M,-33.5,M,,*5A
$PYRTM,2024,122.836392551238,13.946039961389
$GPGGA,200423.00,3400.2598,N,11922.6356,W,1,10,0.8,9.0,M,-33.5,M,,*5F
$PYRTM,2024,122.836404135451,13.946051545590
$GPGGA,200424.00,3400.2608,N,11922.6332,W,1,10,0.8,8.8,M,-33.5,M,,*59
$PYRTM,2024,122.836415699387,13.946063109525
$GPGGA,200425.00,3400.2618,N,11922.6308,W,1,10,0.8,8.8,M,-33.5,M,,*50
$PYRTM,2024,122.836422978727,13.946070388866
$GPGGA,200426.00,3400.2629,N,11922.6283,W,1,10,0.8,8.8,M,-33.5,M,,*53
$PYRTM,2024,122.836438847951,13.946086258090
$GPGGA,200427.00,3400.2639,N,11922.6258,W,1,10,0.8,8.8,M,-33.5,M,,*55
$PYRTM,2024,122.836450432558,13.946097842697
$GPGGA,200428.00,3400.2649,N,11922.6233,W,1,10,0.8,8.8,M,-33.5,M,,*50
$PYRTM,2024,122.836461995602,13.946109405729
$GPGGA,200429.00,3400.2659,N,11922.6207,W,1,10,0.8,8.9,M,-33.5,M,,*56
$PYRTM,2024,122.836473569595,13.946120979734
$GPGGA,200430.00,3400.2670,N,11922.6182,W,1,10,0.8,9.0,M,-33.5,M,,*53
$PYRTM,2024,122.836485144421,13.946132554560
$GPGGA,200431.00,3400.2680,N,11922.6157,W,1,10,0.8,9.0,M,-33.5,M,,*55
$PYRTM,2024,122.836496728993,13.946144139120
$GPGGA,200432.00,3400.2691,N,11922.6132,W,1,10,0.8,9.0,M,-33.5,M,,*55
$PYRTM,2024,122.836508292176,13.946155702315
$GPGGA,200433.00,3400.2701,N,11922.6107,W,1,10,0.8,9.0,M,-33.5,M,,*5A
$PYRTM,2024,122.836519879537,13.946167289676
$GPGGA,200434.00,3400.2712,N,11922.6082,W,1,10,0.8,9.0,M,-33.5,M,,*53
$PYRTM,2024,122.836531441204,13.946178851343
$GPGGA,200435.00,3400.2723,N,11922.6058,W,1,10,0.8,8.9,M,-33.5,M,,*5F
$PYRTM,2024,122.836538734410,13.946186144560
$GPGGA,200436.00,3400.2733,N,11922.6033,W,1,10,0.8,8.8,M,-33.5,M,,*51
$PYRTM,2024,122.836554588785,13.946201998924
$GPGGA,200437.00,3400.2742,N,11922.6008,W,1,10,0.8,8.8,M,-33.5,M,,*5E
$PYRTM,2024,122.836566188785,13.946213598924
$GPGGA,200438.00,3400.2752,N,11922.5983,W,1,10,0.8,8.8,M,-33.5,M,,*59
$PYRTM,2024,122.836577737662,13.946225147801
$GPGGA,200439.00,3400.2762,N,11922.5957,W,1,10,0.8,8.9,M,-33.5,M,,*53
$PYRTM,2024,122.836589361910,13.946236772049
$GPGGA,200440.00,3400.2773,N,11922.5933,W,1,10,0.8,9.0,M,-33.5,M,,*57
$PYRTM,2024,122.836600880417,13.946248290567
$GPGGA,200441.00,3400.2783,N,11922.5908,W,1,10,0.8,9.0,M,-33.5,M,,*51
$PYRTM,2024,122.836612460266,13.946259870405
$GPGGA,200442.00,3400.2794,N,11922.5882,W,1,10,0.8,9.1,M,-33.5,M,,*56
$PYRTM,2024,122.836624033519,13.946271443657
$GPGGA,200443.00,3400.2804,N,11922.5857,W,1,10,0.8,9.2,M,-33.5,M,,*5A
$PYRTM,2024,122.836635620914,13.946283031053
$GPGGA,200444.00,3400.2815,N,11922.5832,W,1,10,0.8,9.1,M,-33.5,M,,*5D
$PYRTM,2024,122.836642889248,13.946290299387
$GPGGA,200445.00,3400.2826,N,11922.5807,W,1,10,0.8,9.0,M,-33.5,M,,*5B
$PYRTM,2024,122.836655039213,13.946302449352
$GPGGA,200446.00,3400.2836,N,11922.5782,W,1,10,0.8,9.0,M,-33.5,M,,*5B
$PYRTM,2024,122.836670330868,13.946317741007
$GPGGA,200447.00,3400.2846,N,11922.5757,W,1,10,0.8,9.0,M,-33.5,M,,*55
$PYRTM,2024,122.836677610428,13.946325020567
$GPGGA,200448.00,3400.2856,N,11922.5732,W,1,10,0.8,8.9,M,-33.5,M,,*50
$PYRTM,2024,122.836693474502,13.946340884641
$GPGGA,200449.00,3400.2867,N,11922.5707,W,1,10,0.8,8.9,M,-33.5,M,,*55
$PYRTM,2024,122.836705064155,13.946352474294
$GPGGA,200450.00,3400.2877,N,11922.5683,W,1,10,0.8,8.8,M,-33.5,M,,*50
$PYRTM,2024,122.836712331493,13.946359741632
$GPGGA,200451.00,3400.2887,N,11922.5658,W,1,10,0.8,8.9,M,-33.5,M,,*59
$PYRTM,2024,122.836728210324,13.946375620475
$GPGGA,200452.00,3400.2897,N,11922.5632,W,1,10,0.8,8.9,M,-33.5,M,,*57
$PYRTM,2024,122.836739776968,13.946387187106
$GPGGA,200453.00,3400.2907,N,11922.5607,W,1,10,0.8,8.9,M,-33.5,M,,*58
$PYRTM,2024,122.836751357014,13.946398767153
$GPGGA,200454.00,3400.2918,N,11922.5582,W,1,10,0.8,9.0,M,-33.5,M,,*57
$PYRTM,2024,122.836762924271,13.946410334410
$GPGGA,200455.00,3400.2929,N,11922.5558,W,1,10,0.8,9.1,M,-33.5,M,,*52
$PYRTM,2024,122.836774506771,13.946421916910
$GPGGA,200456.00,3400.2939,N,11922.5533,W,1,10,0.8,9.2,M,-33.5,M,,*5E
$PYRTM,2024,122.836786072106,13.946433482245
$GPGGA,200457.00,3400.2950,N,11922.5507,W,1,10,0.8,9.2,M,-33.5,M,,*57
$PYRTM,2024,122.836797645544,13.946445055683
$GPGGA,200458.00,3400.2960,N,11922.5482,W,1,10,0.8,9.1,M,-33.5,M,,*54
$PYRTM,2024,122.836809220382,13.946456630521
$GPGGA,200459.00,3400.2971,N,11922.5457,W,1,10,0.8,9.1,M,-33.5,M,,*5D
$PYRTM,2024,122.836820794039,13.946468204178
$GPGGA,200500.00,3400.2983,N,11922.5433,W,1,10,0.8,9.0,M,-33.5,M,,*5E
$PYRTM,2024,122.836832368854,13.946479778993
$GPGGA,200501.00,3400.2994,N,11922.5408,W,1,10,0.8,9.0,M,-33.5,M,,*51
$PYRTM,2024,122.836843942604,13.946491352743
$GPGGA,200502.00,3400.3005,N,11922.5382,W,1,10,0.8,8.9,M,-33.5,M,,*5F
$PYRTM,2024,122.836851222755,13.946498632894
$GPGGA,200503.00,3400.3014,N,11922.5357,W,1,10,0.8,8.8,M,-33.5,M,,*57
$PYRTM,2024,122.836867091065,13.946514501204
$GPGGA,200504.00,3400.3025,N,11922.5332,W,1,10,0.8,8.8,M,-33.5,M,,*51
$PYRTM,2024,122.836878665243,13.946526075394
$GPGGA,200505.00,3400.3036,N,11922.5307,W,1,10,0.8,8.8,M,-33.5,M,,*54
$PYRTM,2024,122.836890251065,13.946537661204
$GPGGA,200506.00,3400.3047,N,11922.5281,W,1,10,0.8,8.8,M,-33.5,M,,*5E
$PYRTM,2024,122.836901813414,13.946549223553
$GPGGA,200507.00,3400.3057,N,11922.5256,W,1,10,0.8,8.8,M,-33.5,M,,*54
$PYRTM,2024,122.836913396053,13.946560806192
$GPGGA,200508.00,3400.3067,N,11922.5231,W,1,10,0.8,8.9,M,-33.5,M,,*58
$PYRTM,2024,122.836924956782,13.946572366921
$GPGGA,200509.00,3400.3078,N,11922.5205,W,1,10,0.8,8.9,M,-33.5,M,,*50
$PYRTM,2024,122.836936543634,13.946583953785
$GPGGA,200510.00,3400.3088,N,11922.5179,W,1,10,0.8,8.8,M,-33.5,M,,*5E
$PYRTM,2024,122.836943815428,13.946591225567
$GPGGA,200511.00,3400.3099,N,11922.5155,W,1,10,0.8,8.8,M,-33.5,M,,*51
$PYRTM,2024,122.836959693403,13.946607103553
$GPGGA,200512.00,3400.3110,N,11922.5130,W,1,10,0.8,8.9,M,-33.5,M,,*50
$PYRTM,2024,122.836971258206,13.946618668345
$GPGGA,200513.00,3400.3119,N,11922.5104,W,1,10,0.8,8.9,M,-33.5,M,,*5F
$PYRTM,2024,122.836982832581,13.946630242720
$GPGGA,200514.00,3400.3129,N,11922.5079,W,1,10,0.8,8.8,M,-33.5,M,,*51
$PYRTM,2024,122.836994406505,13.946641816644
$GPGGA,200515.00,3400.3140,N,11922.5054,W,1,10,0.8,8.6,M,-33.5,M,,*5E
$PYRTM,2024,122.837001685637,13.946649095775
$GPGGA,200516.00,3400.3151,N,11922.5029,W,1,10,0.8,8.6,M,-33.5,M,,*57
$PYRTM,2024,122.837017555069,13.946664965208
$GPGGA,200517.00,3400.3162,N,11922.5005,W,1,10,0.8,8.6,M,-33.5,M,,*58
$PYRTM,2024,122.837029129248,13.946676539387
$GPGGA,200518.00,3400.3173,N,11922.4981,W,1,10,0.8,8.6,M,-33.5,M,,*53
$PYRTM,2024,122.837036408530,13.946683818669
$GPGGA,200519.00,3400.3183,N,11922.4956,W,1,10,0.8,8.6,M,-33.5,M,,*57
$PYRTM,2024,122.837052277188,13.946699687326
$GPGGA,200520.00,3400.3194,N,11922.4931,W,1,10,0.8,8.7,M,-33.5,M,,*5B
$PYRTM,2024,122.837059558380,13.946706968519
$GPGGA,200521.00,3400.3205,N,11922.4906,W,1,10,0.8,8.8,M,-33.5,M,,*5A
$PYRTM,2024,122.837075436620,13.946722846759
$GPGGA,200522.00,3400.3217,N,11922.4882,W,1,10,0.8,8.9,M,-33.5,M,,*56
$PYRTM,2024,122.837086999410,13.946734409549
$GPGGA,200523.00,3400.3228,N,11922.4857,W,1,10,0.8,9.1,M,-33.5,M,,*5A
$PYRTM,2024,122.837094291667,13.946741701806
$GPGGA,200524.00,3400.3240,N,11922.4831,W,1,10,0.8,8.9,M,-33.5,M,,*5A
$PYRTM,2024,122.837110149375,13.946757559514
$GPGGA,200525.00,3400.3250,N,11922.4806,W,1,10,0.8,8.8,M,-33.5,M,,*5F
$PYRTM,2024,122.837121730370,13.946769140521
$GPGGA,200526.00,3400.3262,N,11922.4780,W,1,10,0.8,8.7,M,-33.5,M,,*53
$PYRTM,2024,122.837133296088,13.946780706227
$GPGGA,200527.00,3400.3273,N,11922.4756,W,1,10,0.8,8.7,M,-33.5,M,,*59
$PYRTM,2024,122.837144879583,13.946792289722
$GPGGA,200528.00,3400.3284,N,11922.4731,W,1,10,0.8,8.7,M,-33.5,M,,*5F
$PYRTM,2024,122.837152150394,13.946799560532
$GPGGA,200529.00,3400.3295,N,11922.4706,W,1,10,0.8,8.6,M,-33.5,M,,*5B
$PYRTM,2024,122.837168018484,13.946815428623
$GPGGA,200530.00,3400.3305,N,11922.4681,W,1,10,0.8,8.5,M,-33.5,M,,*56
$PYRTM,2024,122.837179591644,13.946827001782
$GPGGA,200531.00,3400.3315,N,11922.4657,W,1,10,0.8,8.6,M,-33.5,M,,*5E
$PYRTM,2024,122.837191165741,13.946838575880
$GPGGA,200532.00,3400.3326,N,11922.4632,W,1,10,0.8,8.7,M,-33.5,M,,*5F
$PYRTM,2024,122.837202736366,13.946850146505
$GPGGA,200533.00,3400.3338,N,11922.4608,W,1,10,0.8,8.7,M,-33.5,M,,*58
$PYRTM,2024,122.837210020787,13.946857430926
$GPGGA,200534.00,3400.3349,N,11922.4584,W,1,10,0.8,8.8,M,-33.5,M,,*51
$PYRTM,2024,122.837225889375,13.946873299514
$GPGGA,200535.00,3400.3360,N,11922.4559,W,1,10,0.8,8.9,M,-33.5,M,,*5A
$PYRTM,2024,122.837237464109,13.946884874248
$GPGGA,200536.00,3400.3370,N,11922.4534,W,1,10,0.8,9.0,M,-33.5,M,,*5B
$PYRTM,2024,122.837244742593,13.946892152731
$GPGGA,200537.00,3400.3382,N,11922.4510,W,1,10,0.8,9.1,M,-33.5,M,,*50
$PYRTM,2024,122.837260611632,13.946908021771
$GPGGA,200538.00,3400.3394,N,11922.4485,W,1,10,0.8,9.1,M,-33.5,M,,*55
$PYRTM,2024,122.837272186898,13.946919597037
$GPGGA,200539.00,3400.3406,N,11922.4461,W,1,10,0.8,9.1,M,-33.5,M,,*52
$PYRTM,2024,122.837283771389,13.946931181528
$GPGGA,200540.00,3400.3417,N,11922.4436,W,1,10,0.8,9.1,M,-33.5,M,,*5E
$PYRTM,2024,122.837295333993,13.946942744132
$GPGGA,200541.00,3400.3429,N,11922.4412,W,1,10,0.8,9.1,M,-33.5,M,,*54
$PYRTM,2024,122.837306915787,13.946954325926
$GPGGA,200542.00,3400.3440,N,11922.4387,W,1,10,0.8,9.0,M,-33.5,M,,*52
$PYRTM,2024,122.837318478171,13.946965888310
$GPGGA,200543.00,3400.3452,N,11922.4362,W,1,10,0.8,9.0,M,-33.5,M,,*5B
$PYRTM,2024,122.837330082488,13.946977492639
$GPGGA,200544.00,3400.3464,N,11922.4338,W,1,10,0.8,9.1,M,-33.5,M,,*57
$PYRTM,2024,122.837341630775,13.946989040926
$GPGGA,200545.00,3400.3475,N,11922.4313,W,1,10,0.8,9.0,M,-33.5,M,,*5E
$PYRTM,2024,122.837353204583,13.947000614734
$GPGGA,200546.00,3400.3487,N,11922.4288,W,1,10,0.8,9.1,M,-33.5,M,,*52
$PYRTM,2024,122.837360483843,13.947007893993
$GPGGA,200547.00,3400.3498,N,11922.4263,W,1,10,0.8,9.1,M,-33.5,M,,*58
$PYRTM,2024,122.837379142847,13.947026552986
$GPGGA,200548.00,3400.3510,N,11922.4239,W,1,10,0.8,9.1,M,-33.5,M,,*59
$PYRTM,2024,122.837387927743,13.947035337882
$GPGGA,200549.00,3400.3522,N,11922.4213,W,1,10,0.8,9.1,M,-33.5,M,,*51
$PYRTM,2024,122.837395219236,13.947042629375
$GPGGA,200550.00,3400.3532,N,11922.4189,W,1,10,0.8,9.1,M,-33.5,M,,*58
$PYRTM,2024,122.837413854340,13.947061264479
$GPGGA,200551.00,3400.3543,N,11922.4164,W,1,10,0.8,9.0,M,-33.5,M,,*5D
$PYRTM,2024,122.837425438750,13.947072848889
$GPGGA,200552.00,3400.3554,N,11922.4139,W,1,10,0.8,8.9,M,-33.5,M,,*58
$PYRTM,2024,122.837434224120,13.947081634271
$GPGGA,200553.00,3400.3565,N,11922.4115,W,1,10,0.8,8.9,M,-33.5,M,,*55
$PYRTM,2024,122.837445797720,13.947093207859
$GPGGA,200554.00,3400.3576,N,11922.4089,W,1,10,0.8,8.8,M,-33.5,M,,*55
$PYRTM,2024,122.837457372431,13.947104782569
$GPGGA,200555.00,3400.3586,N,11922.4064,W,1,10,0.8,9.0,M,-33.5,M,,*51
$PYRTM,2024,122.837468947373,13.947116357512
$GPGGA,200556.00,3400.3596,N,11922.4039,W,1,10,0.8,9.0,M,-33.5,M,,*5B
$PYRTM,2024,122.837480520336,13.947127930475
$GPGGA,200557.00,3400.3606,N,11922.4014,W,1,10,0.8,8.9,M,-33.5,M,,*57
$PYRTM,2024,122.837492102639,13.947139512778
$GPGGA,200558.00,3400.3617,N,11922.3988,W,1,10,0.8,8.9,M,-33.5,M,,*53
$PYRTM,2024,122.837503663785,13.947151073924
$GPGGA,200559.00,3400.3627,N,11922.3963,W,1,10,0.8,8.8,M,-33.5,M,,*55
$PYRTM,2024,122.837515250683,13.947162660822
$GPGGA,200600.00,3400.3637,N,11922.3937,W,1,10,0.8,8.8,M,-33.5,M,,*5A
$PYRTM,2024,122.837526816748,13.947174226887
$GPGGA,200601.00,3400.3646,N,11922.3911,W,1,10,0.8,8.6,M,-33.5,M,,*57
$PYRTM,2024,122.837538391169,13.947185801308
$GPGGA,200602.00,3400.3656,N,11922.3885,W,1,10,0.8,8.7,M,-33.5,M,,*58
$PYRTM,2024,122.837549965278,13.947197375417
$GPGGA,200603.00,3400.3665,N,11922.3859,W,1,10,0.8,8.7,M,-33.5,M,,*58
$PYRTM,2024,122.837557256632,13.947204666771
$GPGGA,200604.00,3400.3674,N,11922.3833,W,1,10,0.8,8.6,M,-33.5,M,,*52
$PYRTM,2024,122.837573108449,13.947220518588
$GPGGA,200605.00,3400.3683,N,11922.3807,W,1,10,0.8,8.4,M,-33.5,M,,*5E
$PYRTM,2024,122.837584687639,13.947232097778
$GPGGA,200606.00,3400.3691,N,11922.3780,W,1,10,0.8,8.3,M,-33.5,M,,*59
$PYRTM,2024,122.837596261771,13.947243671921
$GPGGA,200607.00,3400.3699,N,11922.3754,W,1,10,0.8,8.3,M,-33.5,M,,*59
$PYRTM,2024,122.837607835579,13.947255245718
$GPGGA,200608.00,3400.3707,N,11922.3728,W,1,10,0.8,8.5,M,-33.5,M,,*5D
$PYRTM,2024,122.837619406586,13.947266816725
$GPGGA,200609.00,3400.3714,N,11922.3701,W,1,10,0.8,8.7,M,-33.5,M,,*57
$PYRTM,2024,122.837630985058,13.947278395197
$GPGGA,200610.00,3400.3721,N,11922.3675,W,1,10,0.8,8.8,M,-33.5,M,,*54
$PYRTM,2024,122.837642559236,13.947289969375
$GPGGA,200611.00,3400.3728,N,11922.3648,W,1,10,0.8,8.8,M,-33.5,M,,*52
$PYRTM,2024,122.837654147731,13.947301557870
$GPGGA,200612.00,3400.3736,N,11922.3621,W,1,10,0.8,9.0,M,-33.5,M,,*58
$PYRTM,2024,122.837665707407,13.947313117558
$GPGGA,200613.00,3400.3743,N,11922.3595,W,1,10,0.8,9.0,M,-33.5,M,,*57
$PYRTM,2024,122.837672998889,13.947320409028
$GPGGA,200614.00,3400.3750,N,11922.3569,W,1,10,0.8,9.1,M,-33.5,M,,*50
$PYRTM,2024,122.837688856620,13.947336266759
$GPGGA,200615.00,3400.3756,N,11922.3542,W,1,10,0.8,8.9,M,-33.5,M,,*57
$PYRTM,2024,122.837700437060,13.947347847199
$GPGGA,200616.00,3400.3762,N,11922.3515,W,1,10,0.8,8.7,M,-33.5,M,,*5F
$PYRTM,2024,122.837707708032,13.947355118171
$GPGGA,200617.00,3400.3769,N,11922.3488,W,1,10,0.8,8.5,M,-33.5,M,,*52
$PYRTM,2024,122.837723578704,13.947370988843
$GPGGA,200618.00,3400.3775,N,11922.3461,W,1,10,0.8,8.4,M,-33.5,M,,*56
$PYRTM,2024,122.837730856771,13.947378266910
$GPGGA,200619.00,3400.3781,N,11922.3434,W,1,10,0.8,8.4,M,-33.5,M,,*5C
$PYRTM,2024,122.837746737025,13.947394147164
$GPGGA,200620.00,3400.3786,N,11922.3408,W,1,10,0.8,8.6,M,-33.5,M,,*5C
$PYRTM,2024,122.837754004213,13.947401414352
$GPGGA,200621.00,3400.3792,N,11922.3381,W,1,10,0.8,8.6,M,-33.5,M,,*5E
$PYRTM,2024,122.837772651875,13.947420062014
$GPGGA,200622.00,3400.3798,N,11922.3353,W,1,10,0.8,8.5,M,-33.5,M,,*5B
$PYRTM,2024,122.837784222222,13.947431632373
$GPGGA,200623.00,3400.3804,N,11922.3326,W,1,10,0.8,8.5,M,-33.5,M,,*52
$PYRTM,2024,122.837793022164,13.947440432315
$GPGGA,200624.00,3400.3811,N,11922.3299,W,1,10,0.8,8.7,M,-33.5,M,,*56
$PYRTM,2024,122.837804591377,13.947452001516
$GPGGA,200625.00,3400.3816,N,11922.3272,W,1,10,0.8,8.8,M,-33.5,M,,*5A
$PYRTM,2024,122.837816181852,13.947463591991
$GPGGA,200626.00,3400.3822,N,11922.3244,W,1,10,0.8,8.7,M,-33.5,M,,*54
$PYRTM,2024,122.837823451481,13.947470861620
$GPGGA,200627.00,3400.3828,N,11922.3217,W,1,10,0.8,8.6,M,-33.5,M,,*58
$PYRTM,2024,122.837839318588,13.947486728738
$GPGGA,200628.00,3400.3835,N,11922.3189,W,1,10,0.8,8.4,M,-33.5,M,,*5D
$PYRTM,2024,122.837850892731,13.947498302870
$GPGGA,200629.00,3400.3841,N,11922.3162,W,1,10,0.8,8.4,M,-33.5,M,,*5A
$PYRTM,2024,122.837862474549,13.947509884699
$GPGGA,200630.00,3400.3847,N,11922.3134,W,1,10,0.8,8.3,M,-33.5,M,,*50
$PYRTM,2024,122.837874042187,13.947521452326
$GPGGA,200631.00,3400.3853,N,11922.3107,W,1,10,0.8,8.1,M,-33.5,M,,*56
$PYRTM,2024,122.837881322292,13.947528732431
$GPGGA,200632.00,3400.3858,N,11922.3080,W,1,10,0.8,8.1,M,-33.5,M,,*50
$PYRTM,2024,122.837897190891,13.947544601030
$GPGGA,200633.00,3400.3865,N,11922.3053,W,1,10,0.8,8.3,M,-33.5,M,,*53
$PYRTM,2024,122.837908766065,13.947556176204
$GPGGA,200634.00,3400.3870,N,11922.3026,W,1,10,0.8,8.3,M,-33.5,M,,*52
$PYRTM,2024,122.837916042778,13.947563452917
$GPGGA,200635.00,3400.3876,N,11922.2999,W,1,10,0.8,8.2,M,-33.5,M,,*58
$PYRTM,2024,122.837931911736,13.947579321875
$GPGGA,200636.00,3400.3881,N,11922.2971,W,1,10,0.8,8.2,M,-33.5,M,,*55
$PYRTM,2024,122.837943486840,13.947590896979
$GPGGA,200637.00,3400.3887,N,11922.2944,W,1,10,0.8,8.1,M,-33.5,M,,*57
$PYRTM,2024,122.837955071458,13.947602481597
$GPGGA,200638.00,3400.3894,N,11922.2916,W,1,10,0.8,8.1,M,-33.5,M,,*5D
$PYRTM,2024,122.837966635671,13.947614045810
$GPGGA,200639.00,3400.3900,N,11922.2888,W,1,10,0.8,8.1,M,-33.5,M,,*56
$PYRTM,2024,122.837978208113,13.947625618264
$GPGGA,200640.00,3400.3906,N,11922.2861,W,1,10,0.8,7.9,M,-33.5,M,,*5E
$PYRTM,2024,122.837989797894,13.947637208032
$GPGGA,200641.00,3400.3913,N,11922.2832,W,1,10,0.8,7.9,M,-33.5,M,,*5D
$PYRTM,2024,122.838001344734,13.947648754884
$GPGGA,200642.00,3400.3919,N,11922.2805,W,1,10,0.8,7.9,M,-33.5,M,,*50
$PYRTM,2024,122.838012933449,13.947660343588
$GPGGA,200643.00,3400.3926,N,11922.2777,W,1,10,0.8,8.1,M,-33.5,M,,*50
$PYRTM,2024,122.838024493287,13.947671903426
$GPGGA,200644.00,3400.3932,N,11922.2750,W,1,10,0.8,8.2,M,-33.5,M,,*54
$PYRTM,2024,122.838036080451,13.947683490590
$GPGGA,200645.00,3400.3938,N,11922.2722,W,1,10,0.8,8.1,M,-33.5,M,,*59
$PYRTM,2024,122.838047640683,13.947695050822
$GPGGA,200646.00,3400.3944,N,11922.2694,W,1,10,0.8,8.0,M,-33.5,M,,*5C
$PYRTM,2024,122.838054934387,13.947702344525
$GPGGA,200647.00,3400.3950,N,11922.2667,W,1,10,0.8,7.9,M,-33.5,M,,*52
$PYRTM,2024,122.838070789769,13.947718199919
$GPGGA,200648.00,3400.3956,N,11922.2640,W,1,10,0.8,8.0,M,-33.5,M,,*58
$PYRTM,2024,122.838082375984,13.947729786123
$GPGGA,200649.00,3400.3962,N,11922.2612,W,1,10,0.8,8.0,M,-33.5,M,,*59
$PYRTM,2024,122.838093936933,13.947741347072
$GPGGA,200650.00,3400.3967,N,11922.2585,W,1,10,0.8,7.8,M,-33.5,M,,*5E
$PYRTM,2024,122.838101228565,13.947748638715
$GPGGA,200651.00,3400.3973,N,11922.2557,W,1,10,0.8,7.8,M,-33.5,M,,*55
$PYRTM,2024,122.838119861678,13.947767271817
$GPGGA,200652.00,3400.3980,N,11922.2530,W,1,10,0.8,7.9,M,-33.5,M,,*5A
$PYRTM,2024,122.838128672060,13.947776082199
$GPGGA,200653.00,3400.3986,N,11922.2502,W,1,10,0.8,8.0,M,-33.5,M,,*5A
$PYRTM,2024,122.838140234005,13.947787644155
$GPGGA,200654.00,3400.3992,N,11922.2474,W,1,10,0.8,8.2,M,-33.5,M,,*5A
$PYRTM,2024,122.838151835613,13.947799245752
$GPGGA,200655.00,3400.3998,N,11922.2446,W,1,10,0.8,8.4,M,-33.5,M,,*56
$PYRTM,2024,122.838163380532,13.947810790671
$GPGGA,200656.00,3400.4003,N,11922.2418,W,1,10,0.8,8.4,M,-33.5,M,,*52
$PYRTM,2024,122.838170674664,13.947818084803
$GPGGA,200657.00,3400.4010,N,11922.2390,W,1,10,0.8,8.4,M,-33.5,M,,*56
$PYRTM,2024,122.838186531829,13.947833941968
$GPGGA,200658.00,3400.4017,N,11922.2363,W,1,10,0.8,8.5,M,-33.5,M,,*53
$PYRTM,2024,122.838198117674,13.947845527813
$GPGGA,200659.00,3400.4024,N,11922.2335,W,1,10,0.8,8.5,M,-33.5,M,,*51
$PYRTM,2024,122.838209678981,13.947857089120
$GPGGA,200700.00,3400.4029,N,11922.2307,W,1,10,0.8,8.3,M,-33.5,M,,*56
$PYRTM,2024,122.838221267465,13.947868677604
$GPGGA,200701.00,3400.4035,N,11922.2280,W,1,10,0.8,8.0,M,-33.5,M,,*57
$PYRTM,2024,122.838228559803,13.947875969954
$GPGGA,200702.00,3400.4040,N,11922.2252,W,1,10,0.8,7.9,M,-33.5,M,,*5F
$PYRTM,2024,122.838244408623,13.947891818762
$GPGGA,200703.00,3400.4047,N,11922.2224,W,1,10,0.8,7.9,M,-33.5,M,,*58
$PYRTM,2024,122.838255974317,13.947903384456
$GPGGA,200704.00,3400.4053,N,11922.2196,W,1,10,0.8,8.1,M,-33.5,M,,*57
$PYRTM,2024,122.838267562187,13.947914972326
$GPGGA,200705.00,3400.4059,N,11922.2168,W,1,10,0.8,8.4,M,-33.5,M,,*58
$PYRTM,2024,122.838279122755,13.947926532894
$GPGGA,200706.00,3400.4064,N,11922.2140,W,1,10,0.8,8.4,M,-33.5,M,,*5F
$PYRTM,2024,122.838286414468,13.947933824606
$GPGGA,200707.00,3400.4070,N,11922.2112,W,1,10,0.8,8.3,M,-33.5,M,,*5B
$PYRTM,2024,122.838302271794,13.947949681933
$GPGGA,200708.00,3400.4076,N,11922.2084,W,1,10,0.8,8.1,M,-33.5,M,,*5E
$PYRTM,2024,122.838313859896,13.947961270035
$GPGGA,200709.00,3400.4082,N,11922.2056,W,1,10,0.8,8.2,M,-33.5,M,,*58
$PYRTM,2024,122.838325419583,13.947972829722
$GPGGA,200710.00,3400.4089,N,11922.2029,W,1,10,0.8,8.4,M,-33.5,M,,*55
$PYRTM,2024,122.838337011076,13.947984421215
$GPGGA,200711.00,3400.4094,N,11922.2001,W,1,10,0.8,8.5,M,-33.5,M,,*53
$PYRTM,2024,122.838348568530,13.947995978669
$GPGGA,200712.00,3400.4100,N,11922.1973,W,1,10,0.8,8.4,M,-33.5,M,,*52
$PYRTM,2024,122.838360158495,13.948007568634
$GPGGA,200713.00,3400.4106,N,11922.1946,W,1,10,0.8,8.5,M,-33.5,M,,*52
$PYRTM,2024,122.838371716725,13.948019126863
$GPGGA,200714.00,3400.4113,N,11922.1918,W,1,10,0.8,8.5,M,-33.5,M,,*5A
$PYRTM,2024,122.838383299190,13.948030709329
$GPGGA,200715.00,3400.4119,N,11922.1890,W,1,10,0.8,8.5,M,-33.5,M,,*50
$PYRTM,2024,122.838394865347,13.948042275486
$GPGGA,200716.00,3400.4125,N,11922.1862,W,1,10,0.8,8.6,M,-33.5,M,,*52
$PYRTM,2024,122.838406453912,13.948053864051
$GPGGA,200717.00,3400.4130,N,11922.1833,W,1,10,0.8,8.7,M,-33.5,M,,*52
$PYRTM,2024,122.838418013426,13.948065423565
$GPGGA,200718.00,3400.4137,N,11922.1804,W,1,10,0.8,8.7,M,-33.5,M,,*5E
$PYRTM,2024,122.838429603241,13.948077013380
$GPGGA,200719.00,3400.4143,N,11922.1776,W,1,10,0.8,8.8,M,-33.5,M,,*59
$PYRTM,2024,122.838441161667,13.948088571806
$GPGGA,200720.00,3400.4148,N,11922.1748,W,1,10,0.8,8.8,M,-33.5,M,,*55
$PYRTM,2024,122.838452748588,13.948100158727
$GPGGA,200721.00,3400.4154,N,11922.1720,W,1,10,0.8,8.8,M,-33.5,M,,*57
$PYRTM,2024,122.838460027396,13.948107437535
$GPGGA,200722.00,3400.4160,N,11922.1692,W,1,10,0.8,8.6,M,-33.5,M,,*55
$PYRTM,2024,122.838478674236,13.948126084375
$GPGGA,200723.00,3400.4165,N,11922.1664,W,1,10,0.8,8.5,M,-33.5,M,,*5B
$PYRTM,2024,122.838487457581,13.948134867720
$GPGGA,200724.00,3400.4171,N,11922.1637,W,1,10,0.8,8.6,M,-33.5,M,,*5C
$PYRTM,2024,122.838499046470,13.948146456609
$GPGGA,200725.00,3400.4175,N,11922.1609,W,1,10,0.8,8.6,M,-33.5,M,,*54
$PYRTM,2024,122.838510608391,13.948158018542
$GPGGA,200726.00,3400.4180,N,11922.1581,W,1,10,0.8,8.7,M,-33.5,M,,*5F
$PYRTM,2024,122.838517898368,13.948165308507
$GPGGA,200727.00,3400.4186,N,11922.1553,W,1,10,0.8,9.0,M,-33.5,M,,*51
$PYRTM,2024,122.838533754502,13.948181164641
$GPGGA,200728.00,3400.4191,N,11922.1524,W,1,10,0.8,9.1,M,-33.5,M,,*59
$PYRTM,2024,122.838545356667,13.948192766806
$GPGGA,200729.00,3400.4197,N,11922.1496,W,1,10,0.8,9.2,M,-33.5,M,,*55
$PYRTM,2024,122.838556902616,13.948204312755
$GPGGA,200730.00,3400.4203,N,11922.1468,W,1,10,0.8,9.2,M,-33.5,M,,*52
$PYRTM,2024,122.838568490127,13.948215900266
$GPGGA,200731.00,3400.4209,N,11922.1440,W,1,10,0.8,9.3,M,-33.5,M,,*52
$PYRTM,2024,122.838575782269,13.948223192407
$GPGGA,200732.00,3400.4216,N,11922.1413,W,1,10,0.8,9.2,M,-33.5,M,,*58
$PYRTM,2024,122.838591638183,13.948239048322
$GPGGA,200733.00,3400.4222,N,11922.1385,W,1,10,0.8,9.2,M,-33.5,M,,*56
$PYRTM,2024,122.838603198657,13.948250608796
$GPGGA,200734.00,3400.4228,N,11922.1357,W,1,10,0.8,9.1,M,-33.5,M,,*57
$PYRTM,2024,122.838610491979,13.948257902118
$GPGGA,200735.00,3400.4233,N,11922.1329,W,1,10,0.8,9.0,M,-33.5,M,,*54
$PYRTM,2024,122.838626348113,13.948273758252
$GPGGA,200736.00,3400.4239,N,11922.1301,W,1,10,0.8,8.8,M,-33.5,M,,*5E
$PYRTM,2024,122.838637935023,13.948285345162
$GPGGA,200737.00,3400.4244,N,11922.1272,W,1,10,0.8,8.8,M,-33.5,M,,*50
$PYRTM,2024,122.838649497442,13.948296907581
$GPGGA,200738.00,3400.4250,N,11922.1244,W,1,10,0.8,9.0,M,-33.5,M,,*56
$PYRTM,2024,122.838661083461,13.948308493600
$GPGGA,200739.00,3400.4256,N,11922.1216,W,1,10,0.8,9.1,M,-33.5,M,,*57
$PYRTM,2024,122.838668363449,13.948315773588
$GPGGA,200740.00,3400.4262,N,11922.1187,W,1,10,0.8,9.3,M,-33.5,M,,*57
$PYRTM,2024,122.838684234225,13.948331644363
$GPGGA,200741.00,3400.4268,N,11922.1159,W,1,10,0.8,9.3,M,-33.5,M,,*5F
$PYRTM,2024,122.838695793889,13.948343204028
$GPGGA,200742.00,3400.4274,N,11922.1131,W,1,10,0.8,9.3,M,-33.5,M,,*5F
$PYRTM,2024,122.838707382361,13.948354792500
$GPGGA,200743.00,3400.4280,N,11922.1103,W,1,10,0.8,9.3,M,-33.5,M,,*54
$PYRTM,2024,122.838718940914,13.948366351053
$GPGGA,200744.00,3400.4286,N,11922.1074,W,1,10,0.8,9.2,M,-33.5,M,,*55
$PYRTM,2024,122.838726232870,13.948373643009
$GPGGA,200745.00,3400.4291,N,11922.1046,W,1,10,0.8,9.1,M,-33.5,M,,*50
$PYRTM,2024,122.838742090058,13.948389500197
$GPGGA,200746.00,3400.4297,N,11922.1018,W,1,10,0.8,9.2,M,-33.5,M,,*5D
$PYRTM,2024,122.838753679375,13.948401089514
$GPGGA,200747.00,3400.4303,N,11922.0989,W,1,10,0.8,9.3,M,-33.5,M,,*51
$PYRTM,2024,122.838765237500,13.948412647639
$GPGGA,200748.00,3400.4309,N,11922.0961,W,1,10,0.8,9.4,M,-33.5,M,,*55
$PYRTM,2024,122.838776825856,13.948424235995
$GPGGA,200749.00,3400.4315,N,11922.0933,W,1,10,0.8,9.3,M,-33.5,M,,*59
$PYRTM,2024,122.838784118449,13.948431528588
$GPGGA,200750.00,3400.4320,N,11922.0905,W,1,10,0.8,9.2,M,-33.5,M,,*53
$PYRTM,2024,122.838799968275,13.948447378426
$GPGGA,200751.00,3400.4326,N,11922.0877,W,1,10,0.8,9.1,M,-33.5,M,,*53
$PYRTM,2024,122.838811534595,13.948458944734
$GPGGA,200752.00,3400.4332,N,11922.0849,W,1,10,0.8,9.1,M,-33.5,M,,*58
$PYRTM,2024,122.838818825775,13.948466235914
$GPGGA,200753.00,3400.4338,N,11922.0822,W,1,10,0.8,9.1,M,-33.5,M,,*5E
$PYRTM,2024,122.838837460984,13.948484871123
$GPGGA,200754.00,3400.4343,N,11922.0794,W,1,10,0.8,9.1,M,-33.5,M,,*57
$PYRTM,2024,122.838846264896,13.948493675035
$GPGGA,200755.00,3400.4349,N,11922.0766,W,1,10,0.8,9.2,M,-33.5,M,,*52
$PYRTM,2024,122.838857831551,13.948505241690
$GPGGA,200756.00,3400.4354,N,11922.0738,W,1,10,0.8,9.3,M,-33.5,M,,*57
$PYRTM,2024,122.838865123218,13.948512533356
$GPGGA,200757.00,3400.4360,N,11922.0710,W,1,10,0.8,9.4,M,-33.5,M,,*5C
$PYRTM,2024,122.838880979421,13.948528389560
$GPGGA,200758.00,3400.4367,N,11922.0681,W,1,10,0.8,9.3,M,-33.5,M,,*5A
$PYRTM,2024,122.838892581759,13.948539991898
$GPGGA,200759.00,3400.4373,N,11922.0653,W,1,10,0.8,9.3,M,-33.5,M,,*51
$PYRTM,2024,122.838904010706,13.948551420845
$GPGGA,200800.00,3400.4378,N,11922.0624,W,1,10,0.8,9.4,M,-33.5,M,,*5E
$PYRTM,2024,122.838915717824,13.948563127963
$GPGGA,200801.00,3400.4384,N,11922.0595,W,1,10,0.8,9.3,M,-33.5,M,,*52
$PYRTM,2024,122.838927276088,13.948574686227
$GPGGA,200802.00,3400.4390,N,11922.0567,W,1,10,0.8,9.2,M,-33.5,M,,*58
$PYRTM,2024,122.838934567512,13.948581977650
$GPGGA,200803.00,3400.4397,N,11922.0539,W,1,10,0.8,9.2,M,-33.5,M,,*55
$PYRTM,2024,122.838950424468,13.948597834606
$GPGGA,200804.00,3400.4403,N,11922.0511,W,1,10,0.8,9.1,M,-33.5,M,,*51
$PYRTM,2024,122.838962010984,13.948609421123
$GPGGA,200805.00,3400.4409,N,11922.0482,W,1,10,0.8,9.1,M,-33.5,M,,*51
$PYRTM,2024,122.838973571933,13.948620982072
$GPGGA,200806.00,3400.4415,N,11922.0454,W,1,10,0.8,9.2,M,-33.5,M,,*57
$PYRTM,2024,122.838985038600,13.948632448750
$GPGGA,200807.00,3400.4420,N,11922.0426,W,1,10,0.8,9.3,M,-33.5,M,,*54
$PYRTM,2024,122.838992453090,13.948639863229
$GPGGA,200808.00,3400.4425,N,11922.0397,W,1,10,0.8,9.2,M,-33.5,M,,*52
$PYRTM,2024,122.839008306806,13.948655716944
$GPGGA,200809.00,3400.4430,N,11922.0369,W,1,10,0.8,9.2,M,-33.5,M,,*56
$PYRTM,2024,122.839019752153,13.948667162292
$GPGGA,200810.00,3400.4436,N,11922.0341,W,1,10,0.8,9.2,M,-33.5,M,,*52
$PYRTM,2024,122.839031340023,13.948678750162
$GPGGA,200811.00,3400.4442,N,11922.0313,W,1,10,0.8,9.0,M,-33.5,M,,*55
$PYRTM,2024,122.839042902593,13.948690312731
$GPGGA,200812.00,3400.4447,N,11922.0285,W,1,10,0.8,9.0,M,-33.5,M,,*5D
$PYRTM,2024,122.839054489178,13.948701899317
$GPGGA,200813.00,3400.4452,N,11922.0256,W,1,10,0.8,9.1,M,-33.5,M,,*57
$PYRTM,2024,122.839066048947,13.948713459086
$GPGGA,200814.00,3400.4457,N,11922.0228,W,1,10,0.8,9.1,M,-33.5,M,,*5C
$PYRTM,2024,122.839077643252,13.948725053391
$GPGGA,200815.00,3400.4463,N,11922.0199,W,1,10,0.8,9.3,M,-33.5,M,,*51
$PYRTM,2024,122.839089197269,13.948736607407
$GPGGA,200816.00,3400.4469,N,11922.0171,W,1,10,0.8,9.3,M,-33.5,M,,*5E
$PYRTM,2024,122.839100787604,13.948748197743
$GPGGA,200817.00,3400.4476,N,11922.0142,W,1,10,0.8,9.3,M,-33.5,M,,*51
$PYRTM,2024,122.839108180926,13.948755591076
$GPGGA,200818.00,3400.4481,N,11922.0113,W,1,10,0.8,9.4,M,-33.5,M,,*55
$PYRTM,2024,122.839123936123,13.948771346273
$GPGGA,200819.00,3400.4487,N,11922.0084,W,1,10,0.8,9.6,M,-33.5,M,,*5F
$PYRTM,2024,122.839135613229,13.948783023368
$GPGGA,200820.00,3400.4493,N,11922.0056,W,1,10,0.8,9.7,M,-33.5,M,,*5E
$PYRTM,2024,122.839147082014,13.948794492153
$GPGGA,200821.00,3400.4500,N,11922.0027,W,1,10,0.8,9.7,M,-33.5,M,,*52
$PYRTM,2024,122.839158757176,13.948806167315
$GPGGA,200822.00,3400.4506,N,11921.9998,W,1,10,0.8,9.6,M,-33.5,M,,*51
$PYRTM,2024,122.839166051609,13.948813461748
$GPGGA,200823.00,3400.4512,N,11921.9970,W,1,10,0.8,9.4,M,-33.5,M,,*51
$PYRTM,2024,122.839177752847,13.948825162986
$GPGGA,200824.00,3400.4518,N,11921.9941,W,1,10,0.8,9.3,M,-33.5,M,,*59
$PYRTM,2024,122.839196271377,13.948843681516
$GPGGA,200825.00,3400.4523,N,11921.9913,W,1,10,0.8,9.3,M,-33.5,M,,*57
$PYRTM,2024,122.839204943634,13.948852353773
$GPGGA,200826.00,3400.4529,N,11921.9885,W,1,10,0.8,9.2,M,-33.5,M,,*51
$PYRTM,2024,122.839216525914,13.948863936053
$GPGGA,200827.00,3400.4534,N,11921.9857,W,1,10,0.8,9.1,M,-33.5,M,,*50
$PYRTM,2024,122.839228089572,13.948875499722
$GPGGA,200828.00,3400.4539,N,11921.9828,W,1,10,0.8,9.3,M,-33.5,M,,*58
$PYRTM,2024,122.839239673738,13.948887083877
$GPGGA,200829.00,3400.4544,N,11921.9800,W,1,10,0.8,9.5,M,-33.5,M,,*5F
$PYRTM,2024,122.839251236019,13.948898646157
$GPGGA,200830.00,3400.4550,N,11921.9771,W,1,10,0.8,9.6,M,-33.5,M,,*58
$PYRTM,2024,122.839262824109,13.948910234248
$GPGGA,200831.00,3400.4556,N,11921.9743,W,1,10,0.8,9.5,M,-33.5,M,,*5D
$PYRTM,2024,122.839274383137,13.948921793275
$GPGGA,200832.00,3400.4561,N,11921.9714,W,1,10,0.8,9.4,M,-33.5,M,,*59
$PYRTM,2024,122.839281791435,13.948929201574
$GPGGA,200833.00,3400.4568,N,11921.9685,W,1,10,0.8,9.4,M,-33.5,M,,*58
$PYRTM,2024,122.839297532431,13.948944942569
$GPGGA,200834.00,3400.4574,N,11921.9657,W,1,10,0.8,9.4,M,-33.5,M,,*5D
$PYRTM,2024,122.839309122072,13.948956532211
$GPGGA,200835.00,3400.4580,N,11921.9628,W,1,10,0.8,9.4,M,-33.5,M,,*5F
$PYRTM,2024,122.839320681308,13.948968091447
$GPGGA,200836.00,3400.4585,N,11921.9599,W,1,10,0.8,9.4,M,-33.5,M,,*50
$PYRTM,2024,122.839332269664,13.948979679803
$GPGGA,200837.00,3400.4591,N,11921.9570,W,1,10,0.8,9.4,M,-33.5,M,,*53
$PYRTM,2024,122.839339675289,13.948987085428
$GPGGA,200838.00,3400.4597,N,11921.9541,W,1,10,0.8,9.4,M,-33.5,M,,*58
$PYRTM,2024,122.839355416273,13.949002826412
