$PYRTM,2024,125.333337083611,16.442984493750
$GPGGA,075959.00,3512.4018,N,12149.8682,W,1,09,0.8,8.2,M,-32.6,M,,*5B
$PYRTM,2024,125.333344466227,16.442991876366
$GPGGA,080000.00,3512.4021,N,12149.8688,W,1,09,0.8,8.0,M,-32.6,M,,*56
$PYRTM,2024,125.333360215602,16.443007625741
$GPGGA,080001.00,3512.4024,N,12149.8689,W,1,09,0.8,8.1,M,-32.6,M,,*52
$PYRTM,2024,125.333371785127,16.443019195278
$GPGGA,080002.00,3512.4028,N,12149.8691,W,1,09,0.8,8.2,M,-32.6,M,,*57
$PYRTM,2024,125.333383363553,16.443030773692
$GPGGA,080003.00,3512.4034,N,12149.8697,W,1,09,0.8,8.0,M,-32.6,M,,*5F
$PYRTM,2024,125.333394933495,16.443042343634
$GPGGA,080004.00,3512.4040,N,12149.8707,W,1,09,0.8,7.3,M,-32.6,M,,*5F
$PYRTM,2024,125.333406515127,16.443053925266
$GPGGA,080005.00,3512.4043,N,12149.8714,W,1,09,0.8,7.1,M,-32.6,M,,*5D
$PYRTM,2024,125.333418080822,16.443065490972
$GPGGA,080006.00,3512.4044,N,12149.8717,W,1,09,0.8,7.1,M,-32.6,M,,*5A
$PYRTM,2024,125.333429659884,16.443077070023
$GPGGA,080007.00,3512.4048,N,12149.8719,W,1,09,0.8,7.2,M,-32.6,M,,*5A
$PYRTM,2024,125.333441228634,16.443088638773
$GPGGA,080008.00,3512.4055,N,12149.8723,W,1,09,0.8,7.1,M,-32.6,M,,*53
$PYRTM,2024,125.333452811655,16.443100221794
$GPGGA,080009.00,3512.4060,N,12149.8731,W,1,09,0.8,6.8,M,-32.6,M,,*5F
$PYRTM,2024,125.333460202650,16.443107612789
$GPGGA,080010.00,3512.4061,N,12149.8739,W,1,09,0.8,6.6,M,-32.6,M,,*50
$PYRTM,2024,125.333471892373,16.443119302512
$GPGGA,080011.00,3512.4062,N,12149.8743,W,1,09,0.8,6.7,M,-32.6,M,,*5E
$PYRTM,2024,125.333487531030,16.443134941169
$GPGGA,080012.00,3512.4069,N,12149.8746,W,1,09,0.8,6.8,M,-32.6,M,,*5C
$PYRTM,2024,125.333499104491,16.443146514630
$GPGGA,080013.00,3512.4078,N,12149.8751,W,1,09,0.8,6.8,M,-32.6,M,,*5B
$PYRTM,2024,125.333510680116,16.443158090255
$GPGGA,080014.00,3512.4080,N,12149.8758,W,1,09,0.8,6.8,M,-32.6,M,,*52
$PYRTM,2024,125.333518072928,16.443165483067
$GPGGA,080015.00,3512.4078,N,12149.8765,W,1,09,0.8,7.5,M,-32.6,M,,*56
$PYRTM,2024,125.333536707917,16.443184118056
$GPGGA,080016.00,3512.4079,N,12149.8770,W,1,09,0.8,8.2,M,-32.6,M,,*58
$PYRTM,2024,125.333548294965,16.443195705104
$GPGGA,080017.00,3512.4086,N,12149.8773,W,1,09,0.8,8.3,M,-32.6,M,,*5B
$PYRTM,2024,125.333559855833,16.443207265984
$GPGGA,080018.00,3512.4095,N,12149.8777,W,1,09,0.8,7.9,M,-32.6,M,,*57
$PYRTM,2024,125.333568550035,16.443215960185
$GPGGA,080019.00,3512.4100,N,12149.8784,W,1,09,0.8,7.0,M,-32.6,M,,*5E
$PYRTM,2024,125.333575944479,16.443223354618
$GPGGA,080020.00,3512.4099,N,12149.8791,W,1,09,0.8,6.7,M,-32.6,M,,*57
$PYRTM,2024,125.333591697940,16.443239108079
$GPGGA,080021.00,3512.4098,N,12149.8794,W,1,09,0.8,6.8,M,-32.6,M,,*5D
$PYRTM,2024,125.333603271007,16.443250681146
$GPGGA,080022.00,3512.4102,N,12149.8796,W,1,09,0.8,6.9,M,-32.6,M,,*5F
$PYRTM,2024,125.333614845914,16.443262256053
$GPGGA,080023.00,3512.4108,N,12149.8798,W,1,09,0.8,6.9,M,-32.6,M,,*5A
$PYRTM,2024,125.333626419907,16.443273830046
$GPGGA,080024.00,3512.4114,N,12149.8804,W,1,09,0.8,6.5,M,-32.6,M,,*56
$PYRTM,2024,125.333637997940,16.443285408090
$GPGGA,080025.00,3512.4118,N,12149.8812,W,1,09,0.8,5.7,M,-32.6,M,,*5D
$PYRTM,2024,125.333649563032,16.443296973183
$GPGGA,080026.00,3512.4120,N,12149.8819,W,1,09,0.8,5.4,M,-32.6,M,,*5D
$PYRTM,2024,125.333661146875,16.443308557014
$GPGGA,080027.00,3512.4122,N,12149.8822,W,1,09,0.8,5.5,M,-32.6,M,,*57
$PYRTM,2024,125.333672717269,16.443320127407
$GPGGA,080028.00,3512.4127,N,12149.8824,W,1,09,0.8,5.6,M,-32.6,M,,*58
$PYRTM,2024,125.333680112060,16.443327522199
$GPGGA,080029.00,3512.4132,N,12149.8828,W,1,09,0.8,5.9,M,-32.6,M,,*5E
$PYRTM,2024,125.333692266204,16.443339676343
$GPGGA,080030.00,3512.4135,N,12149.8835,W,1,09,0.8,6.3,M,-32.6,M,,*54
$PYRTM,2024,125.333703375868,16.443350786007
$GPGGA,080031.00,3512.4137,N,12149.8842,W,1,09,0.8,6.6,M,-32.6,M,,*52
$PYRTM,2024,125.333719013646,16.443366423785
$GPGGA,080032.00,3512.4140,N,12149.8848,W,1,09,0.8,6.7,M,-32.6,M,,*5A
$PYRTM,2024,125.333726408449,16.443373818588
$GPGGA,080033.00,3512.4144,N,12149.8852,W,1,09,0.8,6.4,M,-32.6,M,,*57
$PYRTM,2024,125.333742161574,16.443389571713
$GPGGA,080034.00,3512.4149,N,12149.8857,W,1,09,0.8,6.0,M,-32.6,M,,*5C
$PYRTM,2024,125.333753731470,16.443401141609
$GPGGA,080035.00,3512.4152,N,12149.8862,W,1,09,0.8,5.8,M,-32.6,M,,*5A
$PYRTM,2024,125.333765310347,16.443412720486
$GPGGA,080036.00,3512.4154,N,12149.8867,W,1,09,0.8,5.9,M,-32.6,M,,*5B
$PYRTM,2024,125.333776887616,16.443424297755
$GPGGA,080037.00,3512.4157,N,12149.8871,W,1,09,0.8,6.1,M,-32.6,M,,*55
$PYRTM,2024,125.333788458600,16.443435868738
$GPGGA,080038.00,3512.4160,N,12149.8874,W,1,09,0.8,6.3,M,-32.6,M,,*59
$PYRTM,2024,125.333800035718,16.443447445856
$GPGGA,080039.00,3512.4166,N,12149.8880,W,1,09,0.8,6.0,M,-32.6,M,,*56
$PYRTM,2024,125.333811608148,16.443459018287
$GPGGA,080040.00,3512.4170,N,12149.8888,W,1,09,0.8,5.3,M,-32.6,M,,*57
$PYRTM,2024,125.333823183970,16.443470594109
$GPGGA,080041.00,3512.4171,N,12149.8895,W,1,09,0.8,5.0,M,-32.6,M,,*58
$PYRTM,2024,125.333834754745,16.443482164884
$GPGGA,080042.00,3512.4173,N,12149.8897,W,1,09,0.8,5.2,M,-32.6,M,,*59
$PYRTM,2024,125.333846329479,16.443493739618
$GPGGA,080043.00,3512.4179,N,12149.8899,W,1,09,0.8,5.3,M,-32.6,M,,*5D
$PYRTM,2024,125.333857902986,16.443505313125
$GPGGA,080044.00,3512.4185,N,12149.8904,W,1,09,0.8,5.5,M,-32.6,M,,*5A
$PYRTM,2024,125.333869473275,16.443516883414
$GPGGA,080045.00,3512.4187,N,12149.8912,W,1,09,0.8,5.7,M,-32.6,M,,*5C
$PYRTM,2024,125.333876888461,16.443524298600
$GPGGA,080046.00,3512.4187,N,12149.8921,W,1,09,0.8,5.7,M,-32.6,M,,*5F
$PYRTM,2024,125.333895518796,16.443542928947
$GPGGA,080047.00,3512.4191,N,12149.8927,W,1,09,0.8,5.5,M,-32.6,M,,*5D
$PYRTM,2024,125.333904200972,16.443551611111
$GPGGA,080048.00,3512.4198,N,12149.8930,W,1,09,0.8,5.3,M,-32.6,M,,*5B
$PYRTM,2024,125.333911593762,16.443559003900
$GPGGA,080049.00,3512.4203,N,12149.8933,W,1,09,0.8,5.3,M,-32.6,M,,*58
$PYRTM,2024,125.333927346956,16.443574757095
$GPGGA,080050.00,3512.4204,N,12149.8938,W,1,09,0.8,5.4,M,-32.6,M,,*5B
$PYRTM,2024,125.333938921863,16.443586332014
$GPGGA,080051.00,3512.4205,N,12149.8946,W,1,09,0.8,5.6,M,-32.6,M,,*50
$PYRTM,2024,125.333950494850,16.443597904988
$GPGGA,080052.00,3512.4209,N,12149.8954,W,1,09,0.8,5.6,M,-32.6,M,,*5C
$PYRTM,2024,125.333962079433,16.443609489572
$GPGGA,080053.00,3512.4215,N,12149.8958,W,1,09,0.8,5.6,M,-32.6,M,,*5C
$PYRTM,2024,125.333973643738,16.443621053877
$GPGGA,080054.00,3512.4220,N,12149.8960,W,1,09,0.8,5.7,M,-32.6,M,,*57
$PYRTM,2024,125.333985218519,16.443632628657
$GPGGA,080055.00,3512.4223,N,12149.8963,W,1,09,0.8,5.9,M,-32.6,M,,*58
$PYRTM,2024,125.333996794294,16.443644204433
$GPGGA,080056.00,3512.4225,N,12149.8971,W,1,09,0.8,5.9,M,-32.6,M,,*5E
$PYRTM,2024,125.334004189074,16.443651599213
$GPGGA,080057.00,3512.4227,N,12149.8980,W,1,09,0.8,5.6,M,-32.6,M,,*5C
$PYRTM,2024,125.334019936088,16.443667346227
$GPGGA,080058.00,3512.4231,N,12149.8985,W,1,09,0.8,5.5,M,-32.6,M,,*52
$PYRTM,2024,125.334031517118,16.443678927257
$GPGGA,080059.00,3512.4236,N,12149.8988,W,1,09,0.8,5.5,M,-32.6,M,,*59
$PYRTM,2024,125.334043088831,16.443690498970
$GPGGA,080100.00,3512.4241,N,12149.8990,W,1,09,0.8,5.7,M,-32.6,M,,*5F
$PYRTM,2024,125.334050484340,16.443697894479
$GPGGA,080101.00,3512.4245,N,12149.8996,W,1,09,0.8,5.9,M,-32.6,M,,*52
$PYRTM,2024,125.334062637986,16.443710048125
$GPGGA,080102.00,3512.4248,N,12149.9005,W,1,09,0.8,6.0,M,-32.6,M,,*54
$PYRTM,2024,125.334077811713,16.443725221852
$GPGGA,080103.00,3512.4250,N,12149.9013,W,1,09,0.8,6.0,M,-32.6,M,,*5B
$PYRTM,2024,125.334089386215,16.443736796366
$GPGGA,080104.00,3512.4253,N,12149.9018,W,1,09,0.8,6.0,M,-32.6,M,,*54
$PYRTM,2024,125.334100956019,16.443748366157
$GPGGA,080105.00,3512.4259,N,12149.9022,W,1,09,0.8,6.0,M,-32.6,M,,*56
$PYRTM,2024,125.334112535961,16.443759946100
$GPGGA,080106.00,3512.4265,N,12149.9025,W,1,09,0.8,6.0,M,-32.6,M,,*5D
$PYRTM,2024,125.334119929317,16.443767339456
$GPGGA,080107.00,3512.4267,N,12149.9030,W,1,09,0.8,6.2,M,-32.6,M,,*58
$PYRTM,2024,125.334135682569,16.443783092708
$GPGGA,080108.00,3512.4269,N,12149.9038,W,1,09,0.8,6.4,M,-32.6,M,,*57
$PYRTM,2024,125.334147271447,16.443794681586
$GPGGA,080109.00,3512.4271,N,12149.9046,W,1,09,0.8,6.3,M,-32.6,M,,*51
$PYRTM,2024,125.334154651944,16.443802062095
$GPGGA,080110.00,3512.4277,N,12149.9052,W,1,09,0.8,6.1,M,-32.6,M,,*58
$PYRTM,2024,125.334170408819,16.443817818958
$GPGGA,080111.00,3512.4282,N,12149.9054,W,1,09,0.8,6.3,M,-32.6,M,,*57
$PYRTM,2024,125.334181974120,16.443829384259
$GPGGA,080112.00,3512.4286,N,12149.9057,W,1,09,0.8,6.5,M,-32.6,M,,*55
$PYRTM,2024,125.334193553704,16.443840963854
$GPGGA,080113.00,3512.4287,N,12149.9063,W,1,09,0.8,6.7,M,-32.6,M,,*50
$PYRTM,2024,125.334205127812,16.443852537951
$GPGGA,080114.00,3512.4289,N,12149.9071,W,1,09,0.8,6.7,M,-32.6,M,,*5A
$PYRTM,2024,125.334216713264,16.443864123403
$GPGGA,080115.00,3512.4295,N,12149.9078,W,1,09,0.8,6.4,M,-32.6,M,,*5C
$PYRTM,2024,125.334228271019,16.443875681157
$GPGGA,080116.00,3512.4301,N,12149.9083,W,1,09,0.8,6.1,M,-32.6,M,,*52
$PYRTM,2024,125.334235671586,16.443883081725
$GPGGA,080117.00,3512.4304,N,12149.9088,W,1,09,0.8,6.1,M,-32.6,M,,*5D
$PYRTM,2024,125.334254317315,16.443901727465
$GPGGA,080118.00,3512.4305,N,12149.9093,W,1,09,0.8,6.3,M,-32.6,M,,*5B
$PYRTM,2024,125.334262997720,16.443910407859
$GPGGA,080119.00,3512.4307,N,12149.9097,W,1,09,0.8,6.5,M,-32.6,M,,*5A
$PYRTM,2024,125.334274572546,16.443921982685
$GPGGA,080120.00,3512.4313,N,12149.9105,W,1,09,0.8,6.5,M,-32.6,M,,*5F
$PYRTM,2024,125.334281966771,16.443929376910
$GPGGA,080121.00,3512.4318,N,12149.9113,W,1,09,0.8,6.2,M,-32.6,M,,*55
$PYRTM,2024,125.334297716343,16.443945126493
$GPGGA,080122.00,3512.4321,N,12149.9119,W,1,09,0.8,6.0,M,-32.6,M,,*54
$PYRTM,2024,125.334309296875,16.443956707014
$GPGGA,080123.00,3512.4324,N,12149.9123,W,1,09,0.8,6.1,M,-32.6,M,,*58
$PYRTM,2024,125.334316702199,16.443964112338
$GPGGA,080124.00,3512.4329,N,12149.9125,W,1,09,0.8,6.3,M,-32.6,M,,*56
$PYRTM,2024,125.334332442500,16.443979852639
$GPGGA,080125.00,3512.4335,N,12149.9129,W,1,09,0.8,6.6,M,-32.6,M,,*53
$PYRTM,2024,125.334344016748,16.443991426887
$GPGGA,080126.00,3512.4338,N,12149.9136,W,1,09,0.8,6.7,M,-32.6,M,,*52
$PYRTM,2024,125.334351412604,16.443998822743
$GPGGA,080127.00,3512.4339,N,12149.9146,W,1,09,0.8,6.3,M,-32.6,M,,*51
$PYRTM,2024,125.334367165498,16.444014575637
$GPGGA,080128.00,3512.4342,N,12149.9152,W,1,09,0.8,6.1,M,-32.6,M,,*55
$PYRTM,2024,125.334378739977,16.444026150116
$GPGGA,080129.00,3512.4348,N,12149.9154,W,1,09,0.8,6.2,M,-32.6,M,,*5B
$PYRTM,2024,125.334386148044,16.444033558183
$GPGGA,080130.00,3512.4353,N,12149.9156,W,1,09,0.8,6.4,M,-32.6,M,,*5D
$PYRTM,2024,125.334401898773,16.444049308912
$GPGGA,080131.00,3512.4357,N,12149.9161,W,1,09,0.8,6.7,M,-32.6,M,,*5F
$PYRTM,2024,125.334413457130,16.444060867269
$GPGGA,080132.00,3512.4355,N,12149.9169,W,1,09,0.8,7.2,M,-32.6,M,,*52
$PYRTM,2024,125.334420857523,16.444068267674
$GPGGA,080133.00,3512.4357,N,12149.9179,W,1,09,0.8,7.5,M,-32.6,M,,*57
$PYRTM,2024,125.334436612292,16.444084022431
$GPGGA,080134.00,3512.4363,N,12149.9186,W,1,09,0.8,7.1,M,-32.6,M,,*53
$PYRTM,2024,125.334448208935,16.444095619074
$GPGGA,080135.00,3512.4369,N,12149.9190,W,1,09,0.8,6.8,M,-32.6,M,,*57
$PYRTM,2024,125.334455586042,16.444102996181
$GPGGA,080136.00,3512.4371,N,12149.9189,W,1,09,0.8,6.9,M,-32.6,M,,*54
$PYRTM,2024,125.334471340405,16.444118750544
$GPGGA,080137.00,3512.4373,N,12149.9190,W,1,09,0.8,7.1,M,-32.6,M,,*56
$PYRTM,2024,125.334482907234,16.444130317373
$GPGGA,080138.00,3512.4376,N,12149.9198,W,1,09,0.8,7.3,M,-32.6,M,,*56
$PYRTM,2024,125.334490301944,16.444137712083
$GPGGA,080139.00,3512.4381,N,12149.9208,W,1,09,0.8,7.2,M,-32.6,M,,*54
$PYRTM,2024,125.334506055324,16.444153465463
$GPGGA,080140.00,3512.4384,N,12149.9213,W,1,09,0.8,7.1,M,-32.6,M,,*56
$PYRTM,2024,125.334517640521,16.444165050660
$GPGGA,080141.00,3512.4386,N,12149.9215,W,1,09,0.8,7.3,M,-32.6,M,,*51
$PYRTM,2024,125.334525038461,16.444172448600
$GPGGA,080142.00,3512.4389,N,12149.9218,W,1,09,0.8,7.5,M,-32.6,M,,*56
$PYRTM,2024,125.334540777569,16.444188187708
$GPGGA,080143.00,3512.4391,N,12149.9223,W,1,09,0.8,7.7,M,-32.6,M,,*54
$PYRTM,2024,125.334552348704,16.444199758843
$GPGGA,080144.00,3512.4394,N,12149.9229,W,1,09,0.8,7.8,M,-32.6,M,,*53
$PYRTM,2024,125.334559747176,16.444207157315
$GPGGA,080145.00,3512.4397,N,12149.9234,W,1,09,0.8,7.9,M,-32.6,M,,*5C
$PYRTM,2024,125.334575501944,16.444222912083
$GPGGA,080146.00,3512.4400,N,12149.9241,W,1,09,0.8,8.1,M,-32.6,M,,*53
$PYRTM,2024,125.334587100359,16.444234510498
$GPGGA,080147.00,3512.4403,N,12149.9247,W,1,09,0.8,8.1,M,-32.6,M,,*57
$PYRTM,2024,125.334594476204,16.444241886354
$GPGGA,080148.00,3512.4406,N,12149.9252,W,1,09,0.8,8.1,M,-32.6,M,,*59
$PYRTM,2024,125.334613118900,16.444260529039
$GPGGA,080149.00,3512.4409,N,12149.9256,W,1,09,0.8,8.2,M,-32.6,M,,*50
$PYRTM,2024,125.334621797245,16.444269207384
$GPGGA,080150.00,3512.4412,N,12149.9261,W,1,09,0.8,8.4,M,-32.6,M,,*50
$PYRTM,2024,125.334629192917,16.444276603056
$GPGGA,080151.00,3512.4414,N,12149.9268,W,1,09,0.8,8.5,M,-32.6,M,,*5F
$PYRTM,2024,125.334644944525,16.444292354676
$GPGGA,080152.00,3512.4418,N,12149.9275,W,1,09,0.8,8.6,M,-32.6,M,,*5F
$PYRTM,2024,125.334656518958,16.444303929097
$GPGGA,080153.00,3512.4424,N,12149.9280,W,1,09,0.8,8.6,M,-32.6,M,,*5B
$PYRTM,2024,125.334663938565,16.444311348704
$GPGGA,080154.00,3512.4429,N,12149.9283,W,1,09,0.8,8.6,M,-32.6,M,,*52
$PYRTM,2024,125.334679667095,16.444327077245
$GPGGA,080155.00,3512.4432,N,12149.9289,W,1,09,0.8,8.6,M,-32.6,M,,*53
$PYRTM,2024,125.334691243275,16.444338653414
$GPGGA,080156.00,3512.4433,N,12149.9297,W,1,09,0.8,8.7,M,-32.6,M,,*5F
$PYRTM,2024,125.334698635729,16.444346045868
$GPGGA,080157.00,3512.4435,N,12149.9302,W,1,09,0.8,8.9,M,-32.6,M,,*5B
$PYRTM,2024,125.334714389583,16.444361799722
$GPGGA,080158.00,3512.4440,N,12149.9305,W,1,09,0.8,9.1,M,-32.6,M,,*58
$PYRTM,2024,125.334725963461,16.444373373600
$GPGGA,080159.00,3512.4445,N,12149.9309,W,1,09,0.8,9.1,M,-32.6,M,,*50
$PYRTM,2024,125.334733365938,16.444380776076
$GPGGA,080200.00,3512.4449,N,12149.9315,W,1,09,0.8,8.8,M,-32.6,M,,*56
$PYRTM,2024,125.334749113391,16.444396523530
$GPGGA,080201.00,3512.4450,N,12149.9324,W,1,09,0.8,8.6,M,-32.6,M,,*53
$PYRTM,2024,125.334760686829,16.444408096968
$GPGGA,080202.00,3512.4451,N,12149.9331,W,1,09,0.8,8.6,M,-32.6,M,,*55
$PYRTM,2024,125.334772268252,16.444419678391
$GPGGA,080203.00,3512.4454,N,12149.9334,W,1,09,0.8,8.8,M,-32.6,M,,*5A
$PYRTM,2024,125.334783836204,16.444431246354
$GPGGA,080204.00,3512.4460,N,12149.9336,W,1,09,0.8,9.0,M,-32.6,M,,*51
$PYRTM,2024,125.334791228947,16.444438639086
$GPGGA,080205.00,3512.4465,N,12149.9342,W,1,09,0.8,9.2,M,-32.6,M,,*54
$PYRTM,2024,125.334809876366,16.444457286505
$GPGGA,080206.00,3512.4468,N,12149.9351,W,1,09,0.8,9.2,M,-32.6,M,,*58
$PYRTM,2024,125.334818565694,16.444465975833
$GPGGA,080207.00,3512.4469,N,12149.9359,W,1,09,0.8,9.2,M,-32.6,M,,*50
$PYRTM,2024,125.334830131331,16.444477541470
$GPGGA,080208.00,3512.4472,N,12149.9363,W,1,09,0.8,9.3,M,-32.6,M,,*5D
$PYRTM,2024,125.334841704016,16.444489114155
$GPGGA,080209.00,3512.4478,N,12149.9366,W,1,09,0.8,9.3,M,-32.6,M,,*53
$PYRTM,2024,125.334849125868,16.444496536019
$GPGGA,080210.00,3512.4484,N,12149.9370,W,1,09,0.8,9.3,M,-32.6,M,,*5F
$PYRTM,2024,125.334864852593,16.444512262731
$GPGGA,080211.00,3512.4487,N,12149.9377,W,1,09,0.8,9.2,M,-32.6,M,,*5B
$PYRTM,2024,125.334876428704,16.444523838843
$GPGGA,080212.00,3512.4487,N,12149.9385,W,1,09,0.8,9.3,M,-32.6,M,,*54
$PYRTM,2024,125.334888001447,16.444535411586
$GPGGA,080213.00,3512.4489,N,12149.9390,W,1,09,0.8,9.5,M,-32.6,M,,*59
$PYRTM,2024,125.334899575880,16.444546986019
$GPGGA,080214.00,3512.4495,N,12149.9393,W,1,09,0.8,9.5,M,-32.6,M,,*50
$PYRTM,2024,125.334911161065,16.444558571204
$GPGGA,080215.00,3512.4502,N,12149.9396,W,1,09,0.8,9.3,M,-32.6,M,,*5D
$PYRTM,2024,125.334922724398,16.444570134537
$GPGGA,080216.00,3512.4505,N,12149.9403,W,1,09,0.8,9.3,M,-32.6,M,,*52
$PYRTM,2024,125.334934306100,16.444581716238
$GPGGA,080217.00,3512.4504,N,12149.9413,W,1,09,0.8,9.4,M,-32.6,M,,*54
$PYRTM,2024,125.334941699641,16.444589109780
$GPGGA,080218.00,3512.4506,N,12149.9421,W,1,09,0.8,9.5,M,-32.6,M,,*59
$PYRTM,2024,125.334953382581,16.444600792720
$GPGGA,080219.00,3512.4513,N,12149.9423,W,1,09,0.8,9.8,M,-32.6,M,,*53
$PYRTM,2024,125.334971914942,16.444619325093
$GPGGA,080220.00,3512.4520,N,12149.9422,W,1,09,0.8,10.3,M,-32.6,M,,*6B
$PYRTM,2024,125.334980605498,16.444628015637
$GPGGA,080221.00,3512.4523,N,12149.9428,W,1,09,0.8,10.7,M,-32.6,M,,*67
$PYRTM,2024,125.334992164549,16.444639574687
$GPGGA,080222.00,3512.4524,N,12149.9440,W,1,09,0.8,10.5,M,-32.6,M,,*6F
$PYRTM,2024,125.334999563380,16.444646973519
$GPGGA,080223.00,3512.4526,N,12149.9449,W,1,09,0.8,10.0,M,-32.6,M,,*60
$PYRTM,2024,125.335015317940,16.444662728079
$GPGGA,080224.00,3512.4530,N,12149.9452,W,1,09,0.8,9.9,M,-32.6,M,,*5B
$PYRTM,2024,125.335026903044,16.444674313183
$GPGGA,080225.00,3512.4536,N,12149.9453,W,1,09,0.8,10.0,M,-32.6,M,,*6C
$PYRTM,2024,125.335038465486,16.444685875625
$GPGGA,080226.00,3512.4541,N,12149.9457,W,1,09,0.8,9.9,M,-32.6,M,,*5A
$PYRTM,2024,125.335050050637,16.444697460787
$GPGGA,080227.00,3512.4546,N,12149.9465,W,1,09,0.8,9.8,M,-32.6,M,,*5C
$PYRTM,2024,125.335061614248,16.444709024387
$GPGGA,080228.00,3512.4546,N,12149.9474,W,1,09,0.8,10.0,M,-32.6,M,,*63
$PYRTM,2024,125.335073199722,16.444720609861
$GPGGA,080229.00,3512.4547,N,12149.9480,W,1,09,0.8,10.4,M,-32.6,M,,*6C
$PYRTM,2024,125.335084763437,16.444732173576
$GPGGA,080230.00,3512.4551,N,12149.9484,W,1,09,0.8,10.5,M,-32.6,M,,*66
$PYRTM,2024,125.335096343565,16.444743753704
$GPGGA,080231.00,3512.4557,N,12149.9489,W,1,09,0.8,10.3,M,-32.6,M,,*6A
$PYRTM,2024,125.335107910752,16.444755320903
$GPGGA,080232.00,3512.4562,N,12149.9494,W,1,09,0.8,10.1,M,-32.6,M,,*61
$PYRTM,2024,125.335115306354,16.444762716493
$GPGGA,080233.00,3512.4564,N,12149.9499,W,1,09,0.8,10.2,M,-32.6,M,,*68
$PYRTM,2024,125.335131058970,16.444778469109
$GPGGA,080234.00,3512.4566,N,12149.9505,W,1,09,0.8,10.2,M,-32.6,M,,*69
$PYRTM,2024,125.335142643935,16.444790054074
$GPGGA,080235.00,3512.4570,N,12149.9512,W,1,09,0.8,10.3,M,-32.6,M,,*68
$PYRTM,2024,125.335154206956,16.444801617095
$GPGGA,080236.00,3512.4574,N,12149.9518,W,1,09,0.8,10.3,M,-32.6,M,,*65
$PYRTM,2024,125.335165780486,16.444813190625
$GPGGA,080237.00,3512.4579,N,12149.9522,W,1,09,0.8,10.5,M,-32.6,M,,*66
$PYRTM,2024,125.335177355764,16.444824765914
$GPGGA,080238.00,3512.4582,N,12149.9526,W,1,09,0.8,10.5,M,-32.6,M,,*69
$PYRTM,2024,125.335184751227,16.444832161366
$GPGGA,080239.00,3512.4587,N,12149.9533,W,1,09,0.8,10.3,M,-32.6,M,,*6F
$PYRTM,2024,125.335200505868,16.444847916007
$GPGGA,080240.00,3512.4590,N,12149.9540,W,1,09,0.8,9.9,M,-32.6,M,,*51
$PYRTM,2024,125.335212089144,16.444859499282
$GPGGA,080241.00,3512.4593,N,12149.9544,W,1,09,0.8,9.7,M,-32.6,M,,*59
$PYRTM,2024,125.335223646863,16.444871057002
$GPGGA,080242.00,3512.4597,N,12149.9548,W,1,09,0.8,9.9,M,-32.6,M,,*5C
$PYRTM,2024,125.335235225579,16.444882635718
$GPGGA,080243.00,3512.4602,N,12149.9554,W,1,09,0.8,9.8,M,-32.6,M,,*5E
$PYRTM,2024,125.335246800532,16.444894210671
$GPGGA,080244.00,3512.4606,N,12149.9561,W,1,09,0.8,9.8,M,-32.6,M,,*5B
$PYRTM,2024,125.335258400463,16.444905810602
$GPGGA,080245.00,3512.4609,N,12149.9566,W,1,09,0.8,9.8,M,-32.6,M,,*52
$PYRTM,2024,125.335269944028,16.444917354167
$GPGGA,080246.00,3512.4612,N,12149.9571,W,1,09,0.8,9.9,M,-32.6,M,,*5C
$PYRTM,2024,125.335281530278,16.444928940417
$GPGGA,080247.00,3512.4616,N,12149.9576,W,1,09,0.8,10.0,M,-32.6,M,,*6F
$PYRTM,2024,125.335293098970,16.444940509109
$GPGGA,080248.00,3512.4619,N,12149.9582,W,1,09,0.8,10.0,M,-32.6,M,,*64
$PYRTM,2024,125.335304670046,16.444952080185
$GPGGA,080249.00,3512.4623,N,12149.9589,W,1,09,0.8,9.7,M,-32.6,M,,*58
$PYRTM,2024,125.335312090139,16.444959500289
$GPGGA,080250.00,3512.4627,N,12149.9594,W,1,09,0.8,9.5,M,-32.6,M,,*5A
$PYRTM,2024,125.335330713356,16.444978123495
$GPGGA,080251.00,3512.4631,N,12149.9599,W,1,09,0.8,9.4,M,-32.6,M,,*50
$PYRTM,2024,125.335339395289,16.444986805428
$GPGGA,080252.00,3512.4633,N,12149.9603,W,1,09,0.8,9.5,M,-32.6,M,,*50
$PYRTM,2024,125.335350978044,16.444998388183
$GPGGA,080253.00,3512.4635,N,12149.9609,W,1,09,0.8,9.6,M,-32.6,M,,*5E
$PYRTM,2024,125.335362541725,16.445009951863
$GPGGA,080254.00,3512.4639,N,12149.9617,W,1,09,0.8,9.5,M,-32.6,M,,*59
$PYRTM,2024,125.335374116690,16.445021526829
$GPGGA,080255.00,3512.4644,N,12149.9623,W,1,09,0.8,9.4,M,-32.6,M,,*54
$PYRTM,2024,125.335385691887,16.445033102025
$GPGGA,080256.00,3512.4649,N,12149.9626,W,1,09,0.8,9.5,M,-32.6,M,,*5E
$PYRTM,2024,125.335397264456,16.445044674595
$GPGGA,080257.00,3512.4653,N,12149.9629,W,1,09,0.8,9.6,M,-32.6,M,,*58
$PYRTM,2024,125.335408833773,16.445056243912
$GPGGA,080258.00,3512.4656,N,12149.9636,W,1,09,0.8,9.6,M,-32.6,M,,*5C
$PYRTM,2024,125.335416233287,16.445063643426
$GPGGA,080259.00,3512.4658,N,12149.9644,W,1,09,0.8,9.6,M,-32.6,M,,*56
$PYRTM,2024,125.335431985532,16.445079395671
$GPGGA,080300.00,3512.4661,N,12149.9650,W,1,09,0.8,9.6,M,-32.6,M,,*54
$PYRTM,2024,125.335443586053,16.445090996192
$GPGGA,080301.00,3512.4668,N,12149.9655,W,1,09,0.8,9.5,M,-32.6,M,,*5A
$PYRTM,2024,125.335450961169,16.445098371319
$GPGGA,080302.00,3512.4673,N,12149.9659,W,1,09,0.8,9.5,M,-32.6,M,,*5F
$PYRTM,2024,125.335466711632,16.445114121782
$GPGGA,080303.00,3512.4676,N,12149.9665,W,1,09,0.8,9.6,M,-32.6,M,,*57
$PYRTM,2024,125.335478282384,16.445125692523
$GPGGA,080304.00,3512.4678,N,12149.9672,W,1,09,0.8,9.8,M,-32.6,M,,*56
$PYRTM,2024,125.335485679398,16.445133089537
$GPGGA,080305.00,3512.4680,N,12149.9679,W,1,09,0.8,9.8,M,-32.6,M,,*5B
$PYRTM,2024,125.335501427569,16.445148837708
$GPGGA,080306.00,3512.4685,N,12149.9686,W,1,09,0.8,9.6,M,-32.6,M,,*53
$PYRTM,2024,125.335513005764,16.445160415914
$GPGGA,080307.00,3512.4689,N,12149.9690,W,1,09,0.8,9.5,M,-32.6,M,,*5A
$PYRTM,2024,125.335520407917,16.445167818056
$GPGGA,080308.00,3512.4693,N,12149.9693,W,1,09,0.8,9.6,M,-32.6,M,,*5E
$PYRTM,2024,125.335536165116,16.445183575255
$GPGGA,080309.00,3512.4697,N,12149.9699,W,1,09,0.8,9.6,M,-32.6,M,,*51
$PYRTM,2024,125.335547728935,16.445195139074
$GPGGA,080310.00,3512.4700,N,12149.9707,W,1,09,0.8,9.7,M,-32.6,M,,*51
$PYRTM,2024,125.335555122951,16.445202533090
$GPGGA,080311.00,3512.4701,N,12149.9714,W,1,09,0.8,9.8,M,-32.6,M,,*5C
$PYRTM,2024,125.335570875486,16.445218285625
$GPGGA,080312.00,3512.4705,N,12149.9719,W,1,09,0.8,9.9,M,-32.6,M,,*57
$PYRTM,2024,125.335582458519,16.445229868657
$GPGGA,080313.00,3512.4711,N,12149.9724,W,1,09,0.8,9.8,M,-32.6,M,,*5C
$PYRTM,2024,125.335594025243,16.445241435382
$GPGGA,080314.00,3512.4717,N,12149.9729,W,1,09,0.8,9.6,M,-32.6,M,,*5E
$PYRTM,2024,125.335605621690,16.445253031829
$GPGGA,080315.00,3512.4721,N,12149.9736,W,1,09,0.8,9.6,M,-32.6,M,,*54
$PYRTM,2024,125.335613006343,16.445260416493
$GPGGA,080316.00,3512.4723,N,12149.9742,W,1,09,0.8,9.9,M,-32.6,M,,*59
$PYRTM,2024,125.335624683229,16.445272093368
$GPGGA,080317.00,3512.4726,N,12149.9748,W,1,09,0.8,10.2,M,-32.6,M,,*64
$PYRTM,2024,125.335640321516,16.445287731655
$GPGGA,080318.00,3512.4731,N,12149.9754,W,1,09,0.8,10.2,M,-32.6,M,,*60
$PYRTM,2024,125.335651905625,16.445299315764
$GPGGA,080319.00,3512.4737,N,12149.9760,W,1,09,0.8,9.9,M,-32.6,M,,*53
$PYRTM,2024,125.335663464444,16.445310874583
$GPGGA,080320.00,3512.4741,N,12149.9765,W,1,09,0.8,9.7,M,-32.6,M,,*53
$PYRTM,2024,125.335670864271,16.445318274410
$GPGGA,080321.00,3512.4744,N,12149.9770,W,1,09,0.8,9.8,M,-32.6,M,,*5C
$PYRTM,2024,125.335689507164,16.445336917303
$GPGGA,080322.00,3512.4747,N,12149.9775,W,1,09,0.8,9.9,M,-32.6,M,,*58
$PYRTM,2024,125.335698191493,16.445345601632
$GPGGA,080323.00,3512.4750,N,12149.9781,W,1,09,0.8,10.0,M,-32.6,M,,*65
$PYRTM,2024,125.335709766343,16.445357176481
$GPGGA,080324.00,3512.4754,N,12149.9789,W,1,09,0.8,9.9,M,-32.6,M,,*5F
$PYRTM,2024,125.335721340266,16.445368750405
$GPGGA,080325.00,3512.4758,N,12149.9795,W,1,09,0.8,9.7,M,-32.6,M,,*51
$PYRTM,2024,125.335732914734,16.445380324873
$GPGGA,080326.00,3512.4762,N,12149.9799,W,1,09,0.8,9.8,M,-32.6,M,,*58
$PYRTM,2024,125.335744495775,16.445391905914
$GPGGA,080327.00,3512.4766,N,12149.9804,W,1,09,0.8,9.9,M,-32.6,M,,*57
$PYRTM,2024,125.335756062361,16.445403472500
$GPGGA,080328.00,3512.4772,N,12149.9809,W,1,09,0.8,10.0,M,-32.6,M,,*61
$PYRTM,2024,125.335767656204,16.445415066343
$GPGGA,080329.00,3512.4776,N,12149.9816,W,1,09,0.8,10.0,M,-32.6,M,,*6A
$PYRTM,2024,125.335779205660,16.445426615799
$GPGGA,080330.00,3512.4778,N,12149.9823,W,1,09,0.8,10.1,M,-32.6,M,,*6B
$PYRTM,2024,125.335790796389,16.445438206528
$GPGGA,080331.00,3512.4781,N,12149.9830,W,1,09,0.8,10.1,M,-32.6,M,,*6E
$PYRTM,2024,125.335802354225,16.445449764375
$GPGGA,080332.00,3512.4787,N,12149.9835,W,1,09,0.8,10.0,M,-32.6,M,,*6F
$PYRTM,2024,125.335813933380,16.445461343530
$GPGGA,080333.00,3512.4793,N,12149.9839,W,1,09,0.8,9.9,M,-32.6,M,,*56
$PYRTM,2024,125.335825504120,16.445472914259
$GPGGA,080334.00,3512.4798,N,12149.9844,W,1,09,0.8,9.9,M,-32.6,M,,*50
$PYRTM,2024,125.335837093299,16.445484503449
$GPGGA,080335.00,3512.4800,N,12149.9852,W,1,09,0.8,10.0,M,-32.6,M,,*69
$PYRTM,2024,125.335848656875,16.445496067025
$GPGGA,080336.00,3512.4801,N,12149.9860,W,1,09,0.8,10.1,M,-32.6,M,,*6B
$PYRTM,2024,125.335860229016,16.445507639155
$GPGGA,080337.00,3512.4806,N,12149.9866,W,1,09,0.8,10.3,M,-32.6,M,,*69
$PYRTM,2024,125.335871799514,16.445519209653
$GPGGA,080338.00,3512.4812,N,12149.9870,W,1,09,0.8,10.2,M,-32.6,M,,*65
$PYRTM,2024,125.335883377477,16.445530787616
$GPGGA,080339.00,3512.4817,N,12149.9876,W,1,09,0.8,10.0,M,-32.6,M,,*65
$PYRTM,2024,125.335890783079,16.445538193218
$GPGGA,080340.00,3512.4819,N,12149.9883,W,1,09,0.8,10.1,M,-32.6,M,,*6E
$PYRTM,2024,125.335906536505,16.445553946644
$GPGGA,080341.00,3512.4822,N,12149.9890,W,1,09,0.8,10.4,M,-32.6,M,,*60
$PYRTM,2024,125.335918100127,16.445565510266
$GPGGA,080342.00,3512.4827,N,12149.9895,W,1,09,0.8,10.8,M,-32.6,M,,*6F
$PYRTM,2024,125.335925494444,16.445572904583
$GPGGA,080343.00,3512.4833,N,12149.9898,W,1,09,0.8,11.1,M,-32.6,M,,*6E
$PYRTM,2024,125.335941247303,16.445588657442
$GPGGA,080344.00,3512.4837,N,12149.9903,W,1,09,0.8,11.0,M,-32.6,M,,*6F
$PYRTM,2024,125.335952830208,16.445600240347
$GPGGA,080345.00,3512.4839,N,12149.9913,W,1,09,0.8,10.9,M,-32.6,M,,*69
$PYRTM,2024,125.335964396759,16.445611806898
$GPGGA,080346.00,3512.4842,N,12149.9922,W,1,09,0.8,10.7,M,-32.6,M,,*6A
$PYRTM,2024,125.335975970937,16.445623381076
$GPGGA,080347.00,3512.4848,N,12149.9927,W,1,09,0.8,10.6,M,-32.6,M,,*65
$PYRTM,2024,125.335983391296,16.445630801435
$GPGGA,080348.00,3512.4856,N,12149.9926,W,1,09,0.8,11.0,M,-32.6,M,,*63
$PYRTM,2024,125.335999119225,16.445646529363
$GPGGA,080349.00,3512.4862,N,12149.9929,W,1,09,0.8,11.5,M,-32.6,M,,*6F
$PYRTM,2024,125.336010693125,16.445658103264
$GPGGA,080350.00,3512.4864,N,12149.9939,W,1,09,0.8,11.3,M,-32.6,M,,*66
$PYRTM,2024,125.336018088519,16.445665498657
$GPGGA,080351.00,3512.4865,N,12149.9952,W,1,09,0.8,10.8,M,-32.6,M,,*61
$PYRTM,2024,125.336029776609,16.445677186748
$GPGGA,080352.00,3512.4869,N,12149.9959,W,1,09,0.8,10.5,M,-32.6,M,,*68
$PYRTM,2024,125.336048310683,16.445695720822
$GPGGA,080353.00,3512.4876,N,12149.9959,W,1,09,0.8,10.7,M,-32.6,M,,*65
$PYRTM,2024,125.336059883519,16.445707293657
$GPGGA,080354.00,3512.4882,N,12149.9960,W,1,09,0.8,11.0,M,-32.6,M,,*65
$PYRTM,2024,125.336071461435,16.445718871574
$GPGGA,080355.00,3512.4886,N,12149.9966,W,1,09,0.8,11.2,M,-32.6,M,,*64
$PYRTM,2024,125.336080137963,16.445727548102
$GPGGA,080356.00,3512.4889,N,12149.9976,W,1,09,0.8,11.1,M,-32.6,M,,*6A
$PYRTM,2024,125.336087532743,16.445734942882
$GPGGA,080357.00,3512.4891,N,12149.9985,W,1,09,0.8,11.1,M,-32.6,M,,*6E
$PYRTM,2024,125.336103397164,16.445750807303
$GPGGA,080358.00,3512.4892,N,12149.9990,W,1,09,0.8,11.2,M,-32.6,M,,*65
$PYRTM,2024,125.336114871435,16.445762281574
$GPGGA,080359.00,3512.4895,N,12149.9992,W,1,09,0.8,11.4,M,-32.6,M,,*67
$PYRTM,2024,125.336122282604,16.445769692743
$GPGGA,080400.00,3512.4902,N,12149.9996,W,1,09,0.8,11.1,M,-32.6,M,,*62
$PYRTM,2024,125.336138019120,16.445785429259
$GPGGA,080401.00,3512.4909,N,12150.0004,W,1,09,0.8,10.5,M,-32.6,M,,*6E
$PYRTM,2024,125.336149583831,16.445796993970
$GPGGA,080402.00,3512.4912,N,12150.0011,W,1,09,0.8,10.4,M,-32.6,M,,*62
$PYRTM,2024,125.336161167303,16.445808577442
$GPGGA,080403.00,3512.4911,N,12150.0015,W,1,09,0.8,10.4,M,-32.6,M,,*64
$PYRTM,2024,125.336172730706,16.445820140845
$GPGGA,080404.00,3512.4913,N,12150.0018,W,1,09,0.8,10.6,M,-32.6,M,,*6E
$PYRTM,2024,125.336184316424,16.445831726562
$GPGGA,080405.00,3512.4920,N,12150.0023,W,1,09,0.8,10.6,M,-32.6,M,,*67
$PYRTM,2024,125.336195878924,16.445843289063
$GPGGA,080406.00,3512.4926,N,12150.0031,W,1,09,0.8,9.9,M,-32.6,M,,*56
$PYRTM,2024,125.336207453507,16.445854863646
$GPGGA,080407.00,3512.4929,N,12150.0039,W,1,09,0.8,9.3,M,-32.6,M,,*5A
$PYRTM,2024,125.336219027917,16.445866438056
$GPGGA,080408.00,3512.4930,N,12150.0044,W,1,09,0.8,9.1,M,-32.6,M,,*55
$PYRTM,2024,125.336230613160,16.445878023299
$GPGGA,080409.00,3512.4934,N,12150.0045,W,1,09,0.8,9.2,M,-32.6,M,,*52
$PYRTM,2024,125.336242175880,16.445889586019
$GPGGA,080410.00,3512.4939,N,12150.0045,W,1,09,0.8,9.3,M,-32.6,M,,*56
$PYRTM,2024,125.336253775648,16.445901185787
$GPGGA,080411.00,3512.4943,N,12150.0051,W,1,09,0.8,9.2,M,-32.6,M,,*5E
$PYRTM,2024,125.336265324896,16.445912735035
$GPGGA,080412.00,3512.4946,N,12150.0062,W,1,09,0.8,8.7,M,-32.6,M,,*5C
$PYRTM,2024,125.336272620231,16.445920030370
$GPGGA,080413.00,3512.4948,N,12150.0071,W,1,09,0.8,8.1,M,-32.6,M,,*57
$PYRTM,2024,125.336291366493,16.445938776632
$GPGGA,080414.00,3512.4952,N,12150.0075,W,1,09,0.8,8.1,M,-32.6,M,,*5F
$PYRTM,2024,125.336300034907,16.445947445046
$GPGGA,080415.00,3512.4957,N,12150.0074,W,1,09,0.8,8.4,M,-32.6,M,,*5F
$PYRTM,2024,125.336311621285,16.445959031424
$GPGGA,080416.00,3512.4960,N,12150.0076,W,1,09,0.8,8.5,M,-32.6,M,,*5B
$PYRTM,2024,125.336323184375,16.445970594514
$GPGGA,080417.00,3512.4962,N,12150.0082,W,1,09,0.8,8.7,M,-32.6,M,,*51
$PYRTM,2024,125.336334783553,16.445982193692
$GPGGA,080418.00,3512.4965,N,12150.0091,W,1,09,0.8,8.6,M,-32.6,M,,*5A
$PYRTM,2024,125.336346331725,16.445993741863
$GPGGA,080419.00,3512.4969,N,12150.0100,W,1,09,0.8,8.2,M,-32.6,M,,*5A
$PYRTM,2024,125.336357920764,16.446005330903
$GPGGA,080420.00,3512.4973,N,12150.0104,W,1,09,0.8,8.0,M,-32.6,M,,*5D
$PYRTM,2024,125.336369478495,16.446016888634
$GPGGA,080421.00,3512.4978,N,12150.0105,W,1,09,0.8,8.1,M,-32.6,M,,*57
$PYRTM,2024,125.336381066979,16.446028477118
$GPGGA,080422.00,3512.4981,N,12150.0108,W,1,09,0.8,8.2,M,-32.6,M,,*5C
$PYRTM,2024,125.336388360579,16.446035770718
$GPGGA,080423.00,3512.4984,N,12150.0114,W,1,09,0.8,8.4,M,-32.6,M,,*53
$PYRTM,2024,125.336407107512,16.446054517650
$GPGGA,080424.00,3512.4987,N,12150.0121,W,1,09,0.8,8.5,M,-32.6,M,,*50
$PYRTM,2024,125.336415777593,16.446063187743
$GPGGA,080425.00,3512.4992,N,12150.0128,W,1,09,0.8,8.2,M,-32.6,M,,*5B
$PYRTM,2024,125.336427357789,16.446074767928
$GPGGA,080426.00,3512.4996,N,12150.0134,W,1,09,0.8,7.8,M,-32.6,M,,*54
$PYRTM,2024,125.336438925289,16.446086335428
$GPGGA,080427.00,3512.5000,N,12150.0138,W,1,09,0.8,7.8,M,-32.6,M,,*5E
$PYRTM,2024,125.336450506759,16.446097916898
$GPGGA,080428.00,3512.5004,N,12150.0141,W,1,09,0.8,7.9,M,-32.6,M,,*5A
$PYRTM,2024,125.336462072813,16.446109482951
$GPGGA,080429.00,3512.5007,N,12150.0146,W,1,09,0.8,8.1,M,-32.6,M,,*58
$PYRTM,2024,125.336473658958,16.446121069097
$GPGGA,080430.00,3512.5009,N,12150.0154,W,1,09,0.8,8.2,M,-32.6,M,,*5E
$PYRTM,2024,125.336485221007,16.446132631146
$GPGGA,080431.00,3512.5014,N,12150.0161,W,1,09,0.8,8.0,M,-32.6,M,,*57
$PYRTM,2024,125.336496821331,16.446144231481
$GPGGA,080432.00,3512.5019,N,12150.0166,W,1,09,0.8,7.9,M,-32.6,M,,*58
$PYRTM,2024,125.336504098183,16.446151508322
$GPGGA,080433.00,3512.5024,N,12150.0169,W,1,09,0.8,7.9,M,-32.6,M,,*58
$PYRTM,2024,125.336519970139,16.446167380278
$GPGGA,080434.00,3512.5026,N,12150.0173,W,1,09,0.8,8.1,M,-32.6,M,,*51
$PYRTM,2024,125.336531516146,16.446178926285
$GPGGA,080435.00,3512.5026,N,12150.0180,W,1,09,0.8,8.3,M,-32.6,M,,*5E
$PYRTM,2024,125.336543104525,16.446190514664
$GPGGA,080436.00,3512.5030,N,12150.0186,W,1,09,0.8,8.1,M,-32.6,M,,*5E
$PYRTM,2024,125.336554665544,16.446202075683
$GPGGA,080437.00,3512.5036,N,12150.0190,W,1,09,0.8,7.8,M,-32.6,M,,*58
$PYRTM,2024,125.336561956794,16.446209366933
$GPGGA,080438.00,3512.5042,N,12150.0194,W,1,09,0.8,7.3,M,-32.6,M,,*5B
$PYRTM,2024,125.336577813657,16.446225223796
$GPGGA,080439.00,3512.5044,N,12150.0201,W,1,09,0.8,7.1,M,-32.6,M,,*51
$PYRTM,2024,125.336589400637,16.446236810775
$GPGGA,080440.00,3512.5045,N,12150.0208,W,1,09,0.8,7.4,M,-32.6,M,,*52
$PYRTM,2024,125.336600961123,16.446248371262
$GPGGA,080441.00,3512.5047,N,12150.0213,W,1,09,0.8,7.8,M,-32.6,M,,*57
$PYRTM,2024,125.336612552708,16.446259962847
$GPGGA,080442.00,3512.5052,N,12150.0216,W,1,09,0.8,7.9,M,-32.6,M,,*54
$PYRTM,2024,125.336624110718,16.446271520856
$GPGGA,080443.00,3512.5059,N,12150.0220,W,1,09,0.8,7.8,M,-32.6,M,,*5A
$PYRTM,2024,125.336635697373,16.446283107512
$GPGGA,080444.00,3512.5064,N,12150.0228,W,1,09,0.8,7.3,M,-32.6,M,,*50
$PYRTM,2024,125.336642988692,16.446290398831
$GPGGA,080445.00,3512.5065,N,12150.0238,W,1,09,0.8,6.9,M,-32.6,M,,*5A
$PYRTM,2024,125.336658848692,16.446306258831
$GPGGA,080446.00,3512.5066,N,12150.0245,W,1,09,0.8,6.8,M,-32.6,M,,*51
$PYRTM,2024,125.336670410822,16.446317820961
$GPGGA,080447.00,3512.5069,N,12150.0246,W,1,09,0.8,7.0,M,-32.6,M,,*55
$PYRTM,2024,125.336681994433,16.446329404572
$GPGGA,080448.00,3512.5076,N,12150.0247,W,1,09,0.8,7.2,M,-32.6,M,,*57
$PYRTM,2024,125.336693555069,16.446340965208
$GPGGA,080449.00,3512.5082,N,12150.0252,W,1,09,0.8,7.2,M,-32.6,M,,*59
$PYRTM,2024,125.336705144479,16.446352554618
$GPGGA,080450.00,3512.5084,N,12150.0261,W,1,09,0.8,7.1,M,-32.6,M,,*54
$PYRTM,2024,125.336712437442,16.446359847593
$GPGGA,080451.00,3512.5084,N,12150.0271,W,1,09,0.8,7.0,M,-32.6,M,,*55
$PYRTM,2024,125.336728291377,16.446375701516
$GPGGA,080452.00,3512.5086,N,12150.0276,W,1,09,0.8,7.3,M,-32.6,M,,*50
$PYRTM,2024,125.336739852326,16.446387262465
$GPGGA,080453.00,3512.5093,N,12150.0278,W,1,09,0.8,7.4,M,-32.6,M,,*5C
$PYRTM,2024,125.336747144537,16.446394554676
$GPGGA,080454.00,3512.5100,N,12150.0281,W,1,09,0.8,7.4,M,-32.6,M,,*56
$PYRTM,2024,125.336765914815,16.446413324954
$GPGGA,080455.00,3512.5102,N,12150.0288,W,1,09,0.8,7.7,M,-32.6,M,,*5F
$PYRTM,2024,125.336774587650,16.446421997789
$GPGGA,080456.00,3512.5102,N,12150.0296,W,1,09,0.8,8.2,M,-32.6,M,,*59
$PYRTM,2024,125.336781867685,16.446429277824
$GPGGA,080457.00,3512.5105,N,12150.0303,W,1,09,0.8,8.3,M,-32.6,M,,*53
$PYRTM,2024,125.336797735278,16.446445145417
$GPGGA,080458.00,3512.5112,N,12150.0308,W,1,09,0.8,8.2,M,-32.6,M,,*50
$PYRTM,2024,125.336809297141,16.446456707280
$GPGGA,080459.00,3512.5119,N,12150.0312,W,1,09,0.8,7.8,M,-32.6,M,,*54
$PYRTM,2024,125.336820888912,16.446468299051
$GPGGA,080500.00,3512.5122,N,12150.0317,W,1,09,0.8,7.8,M,-32.6,M,,*54
$PYRTM,2024,125.336832444028,16.446479854167
$GPGGA,080501.00,3512.5123,N,12150.0322,W,1,09,0.8,7.9,M,-32.6,M,,*53
$PYRTM,2024,125.336844036435,16.446491446586
$GPGGA,080502.00,3512.5125,N,12150.0328,W,1,09,0.8,8.0,M,-32.6,M,,*5A
$PYRTM,2024,125.336855593877,16.446503004016
$GPGGA,080503.00,3512.5129,N,12150.0334,W,1,09,0.8,8.0,M,-32.6,M,,*5A
$PYRTM,2024,125.336867183229,16.446514593368
$GPGGA,080504.00,3512.5135,N,12150.0340,W,1,09,0.8,7.5,M,-32.6,M,,*59
$PYRTM,2024,125.336878742350,16.446526152488
$GPGGA,080505.00,3512.5140,N,12150.0344,W,1,09,0.8,7.2,M,-32.6,M,,*59
$PYRTM,2024,125.336886035197,16.446533445336
$GPGGA,080506.00,3512.5143,N,12150.0350,W,1,09,0.8,7.3,M,-32.6,M,,*5D
$PYRTM,2024,125.336901889155,16.446549299294
$GPGGA,080507.00,3512.5145,N,12150.0356,W,1,09,0.8,7.4,M,-32.6,M,,*5B
$PYRTM,2024,125.336913471968,16.446560882106
$GPGGA,080508.00,3512.5147,N,12150.0361,W,1,09,0.8,7.5,M,-32.6,M,,*53
$PYRTM,2024,125.336920756748,16.446568166887
$GPGGA,080509.00,3512.5150,N,12150.0366,W,1,09,0.8,7.6,M,-32.6,M,,*50
$PYRTM,2024,125.336936626736,16.446584036875
$GPGGA,080510.00,3512.5156,N,12150.0371,W,1,09,0.8,7.8,M,-32.6,M,,*56
$PYRTM,2024,125.336948186470,16.446595596609
$GPGGA,080511.00,3512.5161,N,12150.0377,W,1,09,0.8,7.8,M,-32.6,M,,*55
$PYRTM,2024,125.336955477731,16.446602887870
$GPGGA,080512.00,3512.5165,N,12150.0384,W,1,09,0.8,7.7,M,-32.6,M,,*51
$PYRTM,2024,125.336971335463,16.446618745602
$GPGGA,080513.00,3512.5167,N,12150.0391,W,1,09,0.8,7.7,M,-32.6,M,,*56
$PYRTM,2024,125.336982924838,16.446630334977
$GPGGA,080514.00,3512.5171,N,12150.0395,W,1,09,0.8,7.8,M,-32.6,M,,*5D
$PYRTM,2024,125.336994483889,16.446641894028
$GPGGA,080515.00,3512.5176,N,12150.0398,W,1,09,0.8,7.9,M,-32.6,M,,*57
$PYRTM,2024,125.337006085556,16.446653495694
$GPGGA,080516.00,3512.5182,N,12150.0401,W,1,09,0.8,8.0,M,-32.6,M,,*5E
$PYRTM,2024,125.337013361470,16.446660771620
$GPGGA,080517.00,3512.5188,N,12150.0409,W,1,09,0.8,7.8,M,-32.6,M,,*5A
$PYRTM,2024,125.337029219306,16.446676629444
$GPGGA,080518.00,3512.5190,N,12150.0419,W,1,09,0.8,7.4,M,-32.6,M,,*51
$PYRTM,2024,125.337040781065,16.446688191204
$GPGGA,080519.00,3512.5190,N,12150.0425,W,1,09,0.8,7.4,M,-32.6,M,,*5F
$PYRTM,2024,125.337052365903,16.446699776042
$GPGGA,080520.00,3512.5194,N,12150.0426,W,1,09,0.8,7.5,M,-32.6,M,,*53
$PYRTM,2024,125.337063929190,16.446711339329
$GPGGA,080521.00,3512.5202,N,12150.0425,W,1,09,0.8,7.5,M,-32.6,M,,*5D
$PYRTM,2024,125.337075515370,16.446722925509
$GPGGA,080522.00,3512.5209,N,12150.0432,W,1,09,0.8,7.1,M,-32.6,M,,*57
$PYRTM,2024,125.337087077847,16.446734487986
$GPGGA,080523.00,3512.5210,N,12150.0443,W,1,09,0.8,6.7,M,-32.6,M,,*5F
$PYRTM,2024,125.337098658472,16.446746068611
$GPGGA,080524.00,3512.5208,N,12150.0452,W,1,09,0.8,6.7,M,-32.6,M,,*51
$PYRTM,2024,125.337105950463,16.446753360602
$GPGGA,080525.00,3512.5211,N,12150.0453,W,1,09,0.8,6.9,M,-32.6,M,,*57
$PYRTM,2024,125.337124704815,16.446772114954
$GPGGA,080526.00,3512.5220,N,12150.0450,W,1,09,0.8,7.0,M,-32.6,M,,*5D
$PYRTM,2024,125.337133373252,16.446780783391
$GPGGA,080527.00,3512.5229,N,12150.0453,W,1,09,0.8,7.0,M,-32.6,M,,*56
$PYRTM,2024,125.337140664190,16.446788074340
$GPGGA,080528.00,3512.5230,N,12150.0464,W,1,09,0.8,6.8,M,-32.6,M,,*5C
$PYRTM,2024,125.337156520752,16.446803930891
$GPGGA,080529.00,3512.5229,N,12150.0475,W,1,09,0.8,6.6,M,-32.6,M,,*5B
$PYRTM,2024,125.337168111817,16.446815521956
$GPGGA,080530.00,3512.5232,N,12150.0480,W,1,09,0.8,6.9,M,-32.6,M,,*5C
$PYRTM,2024,125.337175387269,16.446822797407
$GPGGA,080531.00,3512.5241,N,12150.0479,W,1,09,0.8,7.3,M,-32.6,M,,*54
$PYRTM,2024,125.337191271424,16.446838681563
$GPGGA,080532.00,3512.5247,N,12150.0480,W,1,08,1.0,7.8,M,-32.6,M,,*54
$PYRTM,2024,125.337202819329,16.446850229468
$GPGGA,080533.00,3512.5250,N,12150.0488,W,1,08,1.0,7.9,M,-32.6,M,,*5A
$PYRTM,2024,125.337214406354,16.446861816493
$GPGGA,080534.00,3512.5252,N,12150.0499,W,1,08,1.0,7.8,M,-32.6,M,,*5E
$PYRTM,2024,125.337225966204,16.446873376343
$GPGGA,080535.00,3512.5255,N,12150.0506,W,1,08,1.0,7.6,M,-32.6,M,,*51
$PYRTM,2024,125.337237552986,16.446884963125
$GPGGA,080536.00,3512.5261,N,12150.0507,W,1,08,1.0,7.6,M,-32.6,M,,*54
$PYRTM,2024,125.337249113715,16.446896523854
$GPGGA,080537.00,3512.5265,N,12150.0508,W,1,08,1.0,7.7,M,-32.6,M,,*5F
$PYRTM,2024,125.337260705891,16.446908116030
$GPGGA,080538.00,3512.5267,N,12150.0514,W,1,08,1.0,7.7,M,-32.6,M,,*5F
$PYRTM,2024,125.337272263414,16.446919673553
$GPGGA,080539.00,3512.5268,N,12150.0523,W,1,08,1.0,7.6,M,-32.6,M,,*54
$PYRTM,2024,125.337283848958,16.446931259097
$GPGGA,080540.00,3512.5271,N,12150.0531,W,1,08,1.0,7.3,M,-32.6,M,,*54
$PYRTM,2024,125.337291142002,16.446938552141
$GPGGA,080541.00,3512.5277,N,12150.0534,W,1,08,1.0,7.2,M,-32.6,M,,*57
$PYRTM,2024,125.337307000856,16.446954410995
$GPGGA,080542.00,3512.5283,N,12150.0535,W,1,08,1.0,7.3,M,-32.6,M,,*5F
$PYRTM,2024,125.337318558819,16.446965968958
$GPGGA,080543.00,3512.5285,N,12150.0539,W,1,08,1.0,7.4,M,-32.6,M,,*53
$PYRTM,2024,125.337330150359,16.446977560498
$GPGGA,080544.00,3512.5285,N,12150.0549,W,1,08,1.0,7.3,M,-32.6,M,,*54
$PYRTM,2024,125.337341707535,16.446989117674
$GPGGA,080545.00,3512.5287,N,12150.0558,W,1,08,1.0,7.1,M,-32.6,M,,*55
$PYRTM,2024,125.337353294155,16.447000704294
$GPGGA,080546.00,3512.5293,N,12150.0561,W,1,08,1.0,7.1,M,-32.6,M,,*59
$PYRTM,2024,125.337364855637,16.447012265775
$GPGGA,080547.00,3512.5300,N,12150.0562,W,1,08,1.0,7.4,M,-32.6,M,,*55
$PYRTM,2024,125.337376442708,16.447023852847
$GPGGA,080548.00,3512.5304,N,12150.0565,W,1,08,1.0,7.7,M,-32.6,M,,*5A
$PYRTM,2024,125.337383737257,16.447031147396
$GPGGA,080549.00,3512.5306,N,12150.0574,W,1,08,1.0,7.7,M,-32.6,M,,*59
$PYRTM,2024,125.337399592361,16.447047002500
$GPGGA,080550.00,3512.5308,N,12150.0584,W,1,08,1.0,7.4,M,-32.6,M,,*53
$PYRTM,2024,125.337406876597,16.447054286736
$GPGGA,080551.00,3512.5312,N,12150.0592,W,1,08,1.0,7.0,M,-32.6,M,,*5A
$PYRTM,2024,125.337422739792,16.447070149931
$GPGGA,080552.00,3512.5316,N,12150.0596,W,1,08,1.0,7.2,M,-32.6,M,,*5B
$PYRTM,2024,125.337434301562,16.447081711713
$GPGGA,080553.00,3512.5318,N,12150.0597,W,1,08,1.0,7.5,M,-32.6,M,,*52
$PYRTM,2024,125.337445888056,16.447093298194
$GPGGA,080554.00,3512.5321,N,12150.0601,W,1,08,1.0,7.8,M,-32.6,M,,*5E
$PYRTM,2024,125.337457448322,16.447104858461
$GPGGA,080555.00,3512.5327,N,12150.0609,W,1,08,1.0,7.6,M,-32.6,M,,*5F
$PYRTM,2024,125.337464741435,16.447112151574
$GPGGA,080556.00,3512.5331,N,12150.0618,W,1,08,1.0,7.0,M,-32.6,M,,*5D
$PYRTM,2024,125.337483492118,16.447130902257
$GPGGA,080557.00,3512.5332,N,12150.0624,W,1,08,1.0,6.9,M,-32.6,M,,*58
$PYRTM,2024,125.337495078426,16.447142488565
$GPGGA,080558.00,3512.5330,N,12150.0627,W,1,08,1.0,7.2,M,-32.6,M,,*5C
$PYRTM,2024,125.337506639236,16.447154049375
$GPGGA,080559.00,3512.5333,N,12150.0630,W,1,08,1.0,7.5,M,-32.6,M,,*5F
$PYRTM,2024,125.337515336285,16.447162746424
$GPGGA,080600.00,3512.5341,N,12150.0635,W,1,08,1.0,7.3,M,-32.6,M,,*56
$PYRTM,2024,125.337522740185,16.447170150336
$GPGGA,080601.00,3512.5347,N,12150.0640,W,1,08,1.0,7.2,M,-32.6,M,,*52
$PYRTM,2024,125.337538481771,16.447185891910
$GPGGA,080602.00,3512.5349,N,12150.0645,W,1,08,1.0,7.3,M,-32.6,M,,*5B
$PYRTM,2024,125.337550042512,16.447197452650
$GPGGA,080603.00,3512.5350,N,12150.0653,W,1,08,1.0,7.3,M,-32.6,M,,*55
$PYRTM,2024,125.337561630197,16.447209040336
$GPGGA,080604.00,3512.5353,N,12150.0660,W,1,08,1.0,7.2,M,-32.6,M,,*50
$PYRTM,2024,125.337573191123,16.447220601262
$GPGGA,080605.00,3512.5357,N,12150.0664,W,1,08,1.0,7.3,M,-32.6,M,,*50
$PYRTM,2024,125.337584778484,16.447232188623
$GPGGA,080606.00,3512.5363,N,12150.0667,W,1,08,1.0,7.3,M,-32.6,M,,*57
$PYRTM,2024,125.337596340833,16.447243750984
$GPGGA,080607.00,3512.5368,N,12150.0671,W,1,08,1.0,7.4,M,-32.6,M,,*5D
$PYRTM,2024,125.337603638715,16.447251048854
$GPGGA,080608.00,3512.5370,N,12150.0677,W,1,08,1.0,7.4,M,-32.6,M,,*5D
$PYRTM,2024,125.337619486840,16.447266896979
$GPGGA,080609.00,3512.5372,N,12150.0685,W,1,08,1.0,7.5,M,-32.6,M,,*52
$PYRTM,2024,125.337631078160,16.447278488299
$GPGGA,080610.00,3512.5374,N,12150.0692,W,1,08,1.0,7.5,M,-32.6,M,,*5A
$PYRTM,2024,125.337642636539,16.447290046678
$GPGGA,080611.00,3512.5377,N,12150.0696,W,1,08,1.0,7.6,M,-32.6,M,,*5F
$PYRTM,2024,125.337654237662,16.447301647801
$GPGGA,080612.00,3512.5382,N,12150.0697,W,1,08,1.0,7.8,M,-32.6,M,,*59
$PYRTM,2024,125.337665796782,16.447313206921
$GPGGA,080613.00,3512.5388,N,12150.0703,W,1,08,1.0,7.8,M,-32.6,M,,*5E
$PYRTM,2024,125.337677369977,16.447324780116
$GPGGA,080614.00,3512.5392,N,12150.0711,W,1,08,1.0,7.8,M,-32.6,M,,*51
$PYRTM,2024,125.337688945208,16.447336355347
$GPGGA,080615.00,3512.5392,N,12150.0718,W,1,08,1.0,8.1,M,-32.6,M,,*5F
$PYRTM,2024,125.337700519653,16.447347929792
$GPGGA,080616.00,3512.5395,N,12150.0723,W,1,08,1.0,8.3,M,-32.6,M,,*51
$PYRTM,2024,125.337712092755,16.447359502894
$GPGGA,080617.00,3512.5402,N,12150.0727,W,1,08,1.0,8.4,M,-32.6,M,,*5A
$PYRTM,2024,125.337719384097,16.447366794236
$GPGGA,080618.00,3512.5408,N,12150.0732,W,1,08,1.0,8.4,M,-32.6,M,,*5B
$PYRTM,2024,125.337735240914,16.447382651042
$GPGGA,080619.00,3512.5411,N,12150.0737,W,1,08,1.0,8.5,M,-32.6,M,,*56
$PYRTM,2024,125.337746815567,16.447394225706
$GPGGA,080620.00,3512.5413,N,12150.0742,W,1,08,1.0,8.9,M,-32.6,M,,*50
$PYRTM,2024,125.337754117708,16.447401527847
$GPGGA,080621.00,3512.5418,N,12150.0747,W,1,08,1.0,9.1,M,-32.6,M,,*56
$PYRTM,2024,125.337765900648,16.447413310787
$GPGGA,080622.00,3512.5423,N,12150.0752,W,1,08,1.0,9.2,M,-32.6,M,,*5A
$PYRTM,2024,125.337784419132,16.447431829271
$GPGGA,080623.00,3512.5427,N,12150.0758,W,1,08,1.0,9.1,M,-32.6,M,,*56
$PYRTM,2024,125.337796005405,16.447443415544
$GPGGA,080624.00,3512.5429,N,12150.0762,W,1,08,1.0,9.2,M,-32.6,M,,*55
$PYRTM,2024,125.337807566933,16.447454977072
$GPGGA,080625.00,3512.5431,N,12150.0767,W,1,08,1.0,9.3,M,-32.6,M,,*59
$PYRTM,2024,125.337816263287,16.447463673426
$GPGGA,080626.00,3512.5436,N,12150.0773,W,1,08,1.0,9.2,M,-32.6,M,,*59
$PYRTM,2024,125.337823563681,16.447470973819
$GPGGA,080627.00,3512.5441,N,12150.0779,W,1,08,1.0,9.1,M,-32.6,M,,*51
$PYRTM,2024,125.337842305949,16.447489716088
$GPGGA,080628.00,3512.5442,N,12150.0784,W,1,08,1.0,9.3,M,-32.6,M,,*5D
$PYRTM,2024,125.337850977176,16.447498387315
$GPGGA,080629.00,3512.5443,N,12150.0791,W,1,08,1.0,9.5,M,-32.6,M,,*5F
$PYRTM,2024,125.337858268889,16.447505679028
$GPGGA,080630.00,3512.5446,N,12150.0797,W,1,08,1.0,9.7,M,-32.6,M,,*56
$PYRTM,2024,125.337874126019,16.447521536157
$GPGGA,080631.00,3512.5451,N,12150.0802,W,1,08,1.0,9.8,M,-32.6,M,,*5D
$PYRTM,2024,125.337885705208,16.447533115359
$GPGGA,080632.00,3512.5456,N,12150.0807,W,1,08,1.0,9.7,M,-32.6,M,,*53
$PYRTM,2024,125.337892991829,16.447540401968
$GPGGA,080633.00,3512.5459,N,12150.0812,W,1,08,1.0,9.7,M,-32.6,M,,*59
$PYRTM,2024,125.337908856551,16.447556266690
$GPGGA,080634.00,3512.5457,N,12150.0820,W,1,08,1.0,10.0,M,-32.6,M,,*6E
$PYRTM,2024,125.337920427801,16.447567837940
$GPGGA,080635.00,3512.5458,N,12150.0827,W,1,08,1.0,10.2,M,-32.6,M,,*65
$PYRTM,2024,125.337927822859,16.447575232998
$GPGGA,080636.00,3512.5464,N,12150.0832,W,1,08,1.0,10.2,M,-32.6,M,,*6D
$PYRTM,2024,125.337943574201,16.447590984340
$GPGGA,080637.00,3512.5472,N,12150.0835,W,1,08,1.0,9.9,M,-32.6,M,,*5F
$PYRTM,2024,125.337955154421,16.447602564560
$GPGGA,080638.00,3512.5475,N,12150.0838,W,1,08,1.0,10.1,M,-32.6,M,,*6A
$PYRTM,2024,125.337962546528,16.447609956667
$GPGGA,080639.00,3512.5474,N,12150.0845,W,1,08,1.0,10.4,M,-32.6,M,,*65
$PYRTM,2024,125.337978301817,16.447625711956
$GPGGA,080640.00,3512.5476,N,12150.0854,W,1,08,1.0,10.4,M,-32.6,M,,*69
$PYRTM,2024,125.337989871933,16.447637282072
$GPGGA,080641.00,3512.5479,N,12150.0860,W,1,08,1.0,10.3,M,-32.6,M,,*67
$PYRTM,2024,125.337997267292,16.447644677431
$GPGGA,080642.00,3512.5483,N,12150.0861,W,1,08,1.0,10.4,M,-32.6,M,,*67
$PYRTM,2024,125.338013022153,16.447660432303
$GPGGA,080643.00,3512.5488,N,12150.0863,W,1,08,1.0,10.5,M,-32.6,M,,*6E
$PYRTM,2024,125.338024595347,16.447672005486
$GPGGA,080644.00,3512.5493,N,12150.0871,W,1,08,1.0,10.1,M,-32.6,M,,*64
$PYRTM,2024,125.338036168796,16.447683578935
$GPGGA,080645.00,3512.5493,N,12150.0882,W,1,08,1.0,9.6,M,-32.6,M,,*56
$PYRTM,2024,125.338047745035,16.447695155174
$GPGGA,080646.00,3512.5490,N,12150.0891,W,1,08,1.0,10.0,M,-32.6,M,,*6A
$PYRTM,2024,125.338059312535,16.447706722685
$GPGGA,080647.00,3512.5491,N,12150.0897,W,1,08,1.0,10.5,M,-32.6,M,,*69
$PYRTM,2024,125.338070892326,16.447718302465
$GPGGA,080648.00,3512.5498,N,12150.0899,W,1,08,1.0,10.9,M,-32.6,M,,*6D
$PYRTM,2024,125.338082465475,16.447729875613
$GPGGA,080649.00,3512.5505,N,12150.0901,W,1,08,1.0,11.1,M,-32.6,M,,*60
$PYRTM,2024,125.338094039942,16.447741450081
$GPGGA,080650.00,3512.5506,N,12150.0908,W,1,08,1.0,11.1,M,-32.6,M,,*62
$PYRTM,2024,125.338105613380,16.447753023519
$GPGGA,080651.00,3512.5503,N,12150.0917,W,1,08,1.0,11.4,M,-32.6,M,,*6D
$PYRTM,2024,125.338117187072,16.447764597211
$GPGGA,080652.00,3512.5503,N,12150.0927,W,1,08,1.0,11.3,M,-32.6,M,,*6A
$PYRTM,2024,125.338128761238,16.447776171389
$GPGGA,080653.00,3512.5510,N,12150.0932,W,1,08,1.0,11.0,M,-32.6,M,,*6E
$PYRTM,2024,125.338140338657,16.447787748796
$GPGGA,080654.00,3512.5517,N,12150.0933,W,1,08,1.0,10.8,M,-32.6,M,,*66
$PYRTM,2024,125.338147730810,16.447795140949
$GPGGA,080655.00,3512.5520,N,12150.0935,W,1,08,1.0,11.1,M,-32.6,M,,*6D
$PYRTM,2024,125.338163486782,16.447810896921
$GPGGA,080656.00,3512.5520,N,12150.0942,W,1,08,1.0,11.4,M,-32.6,M,,*6B
$PYRTM,2024,125.338175059190,16.447822469317
$GPGGA,080657.00,3512.5521,N,12150.0951,W,1,08,1.0,12.4,M,-32.6,M,,*6A
$PYRTM,2024,125.338182452049,16.447829862188
$GPGGA,080658.00,3512.5527,N,12150.0958,W,1,08,1.0,11.1,M,-32.6,M,,*6C
$PYRTM,2024,125.338201087095,16.447848497234
$GPGGA,080659.00,3512.5533,N,12150.0963,W,1,08,1.0,10.6,M,-32.6,M,,*66
$PYRTM,2024,125.338209781192,16.447857191331
$GPGGA,080700.00,3512.5537,N,12150.0968,W,1,08,1.0,10.1,M,-32.6,M,,*63
$PYRTM,2024,125.338221355833,16.447868765972
$GPGGA,080701.00,3512.5538,N,12150.0973,W,1,08,1.0,10.3,M,-32.6,M,,*65
$PYRTM,2024,125.338228750694,16.447876160833
$GPGGA,080702.00,3512.5536,N,12150.0977,W,1,08,1.0,10.8,M,-32.6,M,,*67
$PYRTM,2024,125.338244498600,16.447891908738
$GPGGA,080703.00,3512.5538,N,12150.0980,W,1,08,1.0,11.1,M,-32.6,M,,*68
$PYRTM,2024,125.338256077755,16.447903487894
$GPGGA,080704.00,3512.5542,N,12150.0985,W,1,08,1.0,11.4,M,-32.6,M,,*62
$PYRTM,2024,125.338263474375,16.447910884514
$GPGGA,080705.00,3512.5548,N,12150.0991,W,1,08,1.0,11.2,M,-32.6,M,,*6A
$PYRTM,2024,125.338279227465,16.447926637604
$GPGGA,080706.00,3512.5551,N,12150.1000,W,1,08,1.0,10.6,M,-32.6,M,,*64
$PYRTM,2024,125.338290801678,16.447938211817
$GPGGA,080707.00,3512.5549,N,12150.1007,W,1,08,1.0,10.5,M,-32.6,M,,*68
$PYRTM,2024,125.338302377396,16.447949787535
$GPGGA,080708.00,3512.5549,N,12150.1012,W,1,08,1.0,10.5,M,-32.6,M,,*63
$PYRTM,2024,125.338313948634,16.447961358785
$GPGGA,080709.00,3512.5553,N,12150.1013,W,1,08,1.0,10.6,M,-32.6,M,,*6B
$PYRTM,2024,125.338325526400,16.447972936539
$GPGGA,080710.00,3512.5559,N,12150.1017,W,1,08,1.0,10.7,M,-32.6,M,,*6C
$PYRTM,2024,125.338337097049,16.447984507199
$GPGGA,080711.00,3512.5563,N,12150.1026,W,1,08,1.0,10.2,M,-32.6,M,,*63
$PYRTM,2024,125.338348681562,16.447996091713
$GPGGA,080712.00,3512.5564,N,12150.1036,W,1,08,1.0,9.8,M,-32.6,M,,*54
$PYRTM,2024,125.338360245556,16.448007655694
$GPGGA,080713.00,3512.5562,N,12150.1042,W,1,08,1.0,9.7,M,-32.6,M,,*5F
$PYRTM,2024,125.338371819329,16.448019229468
$GPGGA,080714.00,3512.5565,N,12150.1044,W,1,08,1.0,9.8,M,-32.6,M,,*56
$PYRTM,2024,125.338383389074,16.448030799213
$GPGGA,080715.00,3512.5571,N,12150.1047,W,1,08,1.0,9.8,M,-32.6,M,,*51
$PYRTM,2024,125.338394967882,16.448042378021
$GPGGA,080716.00,3512.5578,N,12150.1053,W,1,08,1.0,9.7,M,-32.6,M,,*51
$PYRTM,2024,125.338406542002,16.448053952141
$GPGGA,080717.00,3512.5580,N,12150.1061,W,1,08,1.0,9.6,M,-32.6,M,,*57
$PYRTM,2024,125.338413833553,16.448061243704
$GPGGA,080718.00,3512.5578,N,12150.1068,W,1,08,1.0,9.7,M,-32.6,M,,*57
$PYRTM,2024,125.338429690637,16.448077100775
$GPGGA,080719.00,3512.5579,N,12150.1072,W,1,08,1.0,9.9,M,-32.6,M,,*52
$PYRTM,2024,125.338441272106,16.448088682245
$GPGGA,080720.00,3512.5584,N,12150.1077,W,1,08,1.0,10.1,M,-32.6,M,,*6F
$PYRTM,2024,125.338452838380,16.448100248530
$GPGGA,080721.00,3512.5590,N,12150.1084,W,1,08,1.0,9.9,M,-32.6,M,,*57
$PYRTM,2024,125.338460124213,16.448107534363
$GPGGA,080722.00,3512.5591,N,12150.1090,W,1,08,1.0,9.8,M,-32.6,M,,*51
$PYRTM,2024,125.338475986238,16.448123396377
$GPGGA,080723.00,3512.5590,N,12150.1095,W,1,08,1.0,10.0,M,-32.6,M,,*64
$PYRTM,2024,125.338487569410,16.448134979549
$GPGGA,080724.00,3512.5592,N,12150.1099,W,1,08,1.0,10.2,M,-32.6,M,,*6F
$PYRTM,2024,125.338499134514,16.448146544653
$GPGGA,080725.00,3512.5598,N,12150.1103,W,1,08,1.0,10.2,M,-32.6,M,,*66
$PYRTM,2024,125.338510710394,16.448158120532
$GPGGA,080726.00,3512.5603,N,12150.1109,W,1,08,1.0,9.9,M,-32.6,M,,*5D
$PYRTM,2024,125.338517989884,16.448165400035
$GPGGA,080727.00,3512.5603,N,12150.1115,W,1,08,1.0,9.6,M,-32.6,M,,*5E
$PYRTM,2024,125.338533856181,16.448181266319
$GPGGA,080728.00,3512.5602,N,12150.1123,W,1,08,1.0,9.7,M,-32.6,M,,*54
$PYRTM,2024,125.338541135706,16.448188545845
$GPGGA,080729.00,3512.5606,N,12150.1128,W,1,08,1.0,9.8,M,-32.6,M,,*55
$PYRTM,2024,125.338559898900,16.448207309039
$GPGGA,080730.00,3512.5613,N,12150.1132,W,1,08,1.0,9.6,M,-32.6,M,,*5C
$PYRTM,2024,125.338568579363,16.448215989502
$GPGGA,080731.00,3512.5618,N,12150.1134,W,1,08,1.0,9.5,M,-32.6,M,,*53
$PYRTM,2024,125.338580152928,16.448227563067
$GPGGA,080732.00,3512.5619,N,12150.1140,W,1,08,1.0,9.7,M,-32.6,M,,*50
$PYRTM,2024,125.338591728218,16.448239138356
$GPGGA,080733.00,3512.5617,N,12150.1149,W,1,08,1.0,10.3,M,-32.6,M,,*6A
$PYRTM,2024,125.338603304363,16.448250714514
$GPGGA,080734.00,3512.5620,N,12150.1157,W,1,08,1.0,10.3,M,-32.6,M,,*66
$PYRTM,2024,125.338610703773,16.448258113912
$GPGGA,080735.00,3512.5626,N,12150.1162,W,1,08,1.0,10.2,M,-32.6,M,,*66
$PYRTM,2024,125.338626458160,16.448273868299
$GPGGA,080736.00,3512.5632,N,12150.1163,W,1,08,1.0,10.2,M,-32.6,M,,*61
$PYRTM,2024,125.338638025312,16.448285435451
$GPGGA,080737.00,3512.5634,N,12150.1168,W,1,08,1.0,10.3,M,-32.6,M,,*6C
$PYRTM,2024,125.338645420602,16.448292830741
$GPGGA,080738.00,3512.5634,N,12150.1177,W,1,08,1.0,10.4,M,-32.6,M,,*6A
$PYRTM,2024,125.338657110972,16.448304521111
$GPGGA,080739.00,3512.5636,N,12150.1186,W,1,08,1.0,10.5,M,-32.6,M,,*66
$PYRTM,2024,125.338672745995,16.448320156134
$GPGGA,080740.00,3512.5639,N,12150.1191,W,1,08,1.0,10.6,M,-32.6,M,,*62
$PYRTM,2024,125.338684321042,16.448331731181
$GPGGA,080741.00,3512.5643,N,12150.1194,W,1,08,1.0,10.8,M,-32.6,M,,*65
$PYRTM,2024,125.338695894931,16.448343305069
$GPGGA,080742.00,3512.5647,N,12150.1198,W,1,08,1.0,10.9,M,-32.6,M,,*6F
$PYRTM,2024,125.338707469329,16.448354879468
$GPGGA,080743.00,3512.5650,N,12150.1204,W,1,08,1.0,10.8,M,-32.6,M,,*6F
$PYRTM,2024,125.338719043148,16.448366453287
$GPGGA,080744.00,3512.5652,N,12150.1210,W,1,08,1.0,10.8,M,-32.6,M,,*6F
$PYRTM,2024,125.338730617801,16.448378027940
$GPGGA,080745.00,3512.5654,N,12150.1216,W,1,08,1.0,11.0,M,-32.6,M,,*67
$PYRTM,2024,125.338742192662,16.448389602801
$GPGGA,080746.00,3512.5657,N,12150.1222,W,1,08,1.0,11.1,M,-32.6,M,,*61
$PYRTM,2024,125.338753766620,16.448401176759
$GPGGA,080747.00,3512.5660,N,12150.1228,W,1,08,1.0,11.3,M,-32.6,M,,*6C
$PYRTM,2024,125.338761161748,16.448408571887
$GPGGA,080748.00,3512.5664,N,12150.1232,W,1,08,1.0,11.4,M,-32.6,M,,*6B
$PYRTM,2024,125.338776915116,16.448424325255
$GPGGA,080749.00,3512.5668,N,12150.1237,W,1,08,1.0,11.4,M,-32.6,M,,*63
$PYRTM,2024,125.338788495671,16.448435905810
$GPGGA,080750.00,3512.5673,N,12150.1243,W,1,08,1.0,11.2,M,-32.6,M,,*64
$PYRTM,2024,125.338795883356,16.448443293495
$GPGGA,080751.00,3512.5676,N,12150.1249,W,1,08,1.0,11.1,M,-32.6,M,,*69
$PYRTM,2024,125.338811663171,16.448459073322
$GPGGA,080752.00,3512.5676,N,12150.1257,W,1,08,1.0,11.1,M,-32.6,M,,*65
$PYRTM,2024,125.338823206435,16.448470616574
$GPGGA,080753.00,3512.5677,N,12150.1264,W,1,08,1.0,11.1,M,-32.6,M,,*65
$PYRTM,2024,125.338830605949,16.448478016088
$GPGGA,080754.00,3512.5682,N,12150.1268,W,1,08,1.0,11.1,M,-32.6,M,,*64
$PYRTM,2024,125.338846354178,16.448493764329
$GPGGA,080755.00,3512.5688,N,12150.1269,W,1,08,1.0,11.1,M,-32.6,M,,*6E
$PYRTM,2024,125.338857933241,16.448505343380
$GPGGA,080756.00,3512.5691,N,12150.1275,W,1,08,1.0,11.1,M,-32.6,M,,*68
$PYRTM,2024,125.338869507813,16.448516917963
$GPGGA,080757.00,3512.5691,N,12150.1284,W,1,08,1.0,11.2,M,-32.6,M,,*64
$PYRTM,2024,125.338881080417,16.448528490556
$GPGGA,080758.00,3512.5690,N,12150.1293,W,1,08,1.0,11.4,M,-32.6,M,,*6A
$PYRTM,2024,125.338888482338,16.448535892477
$GPGGA,080759.00,3512.5693,N,12150.1297,W,1,08,1.0,11.8,M,-32.6,M,,*60
$PYRTM,2024,125.338907125208,16.448554535336
$GPGGA,080800.00,3512.5701,N,12150.1299,W,1,08,1.0,11.6,M,-32.6,M,,*69
$PYRTM,2024,125.338915804653,16.448563214803
$GPGGA,080801.00,3512.5709,N,12150.1303,W,1,08,1.0,11.2,M,-32.6,M,,*66
$PYRTM,2024,125.338927378044,16.448574788183
$GPGGA,080802.00,3512.5710,N,12150.1312,W,1,08,1.0,10.6,M,-32.6,M,,*68
$PYRTM,2024,125.338938952824,16.448586362963
$GPGGA,080803.00,3512.5707,N,12150.1321,W,1,08,1.0,11.1,M,-32.6,M,,*69
$PYRTM,2024,125.338946347789,16.448593757940
$GPGGA,080804.00,3512.5706,N,12150.1328,W,1,08,1.0,11.9,M,-32.6,M,,*6E
$PYRTM,2024,125.338958037211,16.448605447350
$GPGGA,080805.00,3512.5710,N,12150.1333,W,1,08,1.0,12.3,M,-32.6,M,,*6B
$PYRTM,2024,125.338973701759,16.448621111898
$GPGGA,080806.00,3512.5718,N,12150.1337,W,1,08,1.0,12.0,M,-32.6,M,,*67
$PYRTM,2024,125.338985250174,16.448632660313
$GPGGA,080807.00,3512.5724,N,12150.1343,W,1,08,1.0,11.3,M,-32.6,M,,*6A
$PYRTM,2024,125.338996822488,16.448644232627
$GPGGA,080808.00,3512.5724,N,12150.1351,W,1,08,1.0,10.7,M,-32.6,M,,*63
$PYRTM,2024,125.339008396400,16.448655806539
$GPGGA,080809.00,3512.5721,N,12150.1358,W,1,08,1.0,11.2,M,-32.6,M,,*6A
$PYRTM,2024,125.339019982292,16.448667392431
$GPGGA,080810.00,3512.5720,N,12150.1363,W,1,08,1.0,12.4,M,-32.6,M,,*6E
$PYRTM,2024,125.339031546759,16.448678956898
$GPGGA,080811.00,3512.5726,N,12150.1366,W,1,08,1.0,12.9,M,-32.6,M,,*61
$PYRTM,2024,125.339043119387,16.448690529537
$GPGGA,080812.00,3512.5734,N,12150.1370,W,1,08,1.0,12.8,M,-32.6,M,,*67
$PYRTM,2024,125.339054688380,16.448702098519
$GPGGA,080813.00,3512.5737,N,12150.1377,W,1,08,1.0,12.3,M,-32.6,M,,*69
$PYRTM,2024,125.339066278600,16.448713688738
$GPGGA,080814.00,3512.5735,N,12150.1386,W,1,08,1.0,11.9,M,-32.6,M,,*6B
$PYRTM,2024,125.339077837928,16.448725248067
$GPGGA,080815.00,3512.5736,N,12150.1394,W,1,08,1.0,11.4,M,-32.6,M,,*67
$PYRTM,2024,125.339085237824,16.448732647963
$GPGGA,080816.00,3512.5740,N,12150.1398,W,1,08,1.0,11.4,M,-32.6,M,,*69
$PYRTM,2024,125.339100990046,16.448748400185
$GPGGA,080817.00,3512.5747,N,12150.1399,W,1,08,1.0,11.8,M,-32.6,M,,*62
$PYRTM,2024,125.339112571863,16.448759982014
$GPGGA,080818.00,3512.5752,N,12150.1402,W,1,08,1.0,12.3,M,-32.6,M,,*64
$PYRTM,2024,125.339124138935,16.448771549074
$GPGGA,080819.00,3512.5753,N,12150.1412,W,1,08,1.0,12.7,M,-32.6,M,,*61
$PYRTM,2024,125.339135720104,16.448783130243
$GPGGA,080820.00,3512.5752,N,12150.1423,W,1,08,1.0,12.7,M,-32.6,M,,*68
$PYRTM,2024,125.339147286840,16.448794696979
$GPGGA,080821.00,3512.5754,N,12150.1430,W,1,08,1.0,12.4,M,-32.6,M,,*6E
$PYRTM,2024,125.339158860961,16.448806271111
$GPGGA,080822.00,3512.5762,N,12150.1430,W,1,08,1.0,12.2,M,-32.6,M,,*6E
$PYRTM,2024,125.339170436632,16.448817846771
$GPGGA,080823.00,3512.5769,N,12150.1431,W,1,08,1.0,11.8,M,-32.6,M,,*6C
$PYRTM,2024,125.339182019769,16.448829429907
$GPGGA,080824.00,3512.5770,N,12150.1438,W,1,08,1.0,12.1,M,-32.6,M,,*60
$PYRTM,2024,125.339193584167,16.448840994306
$GPGGA,080825.00,3512.5767,N,12150.1449,W,1,08,1.0,12.7,M,-32.6,M,,*67
$PYRTM,2024,125.339205156736,16.448852566875
$GPGGA,080826.00,3512.5768,N,12150.1458,W,1,08,1.0,13.0,M,-32.6,M,,*6D
$PYRTM,2024,125.339216733484,16.448864143623
$GPGGA,080827.00,3512.5777,N,12150.1461,W,1,08,1.0,13.1,M,-32.6,M,,*69
$PYRTM,2024,125.339228306968,16.448875717106
$GPGGA,080828.00,3512.5785,N,12150.1463,W,1,08,1.0,12.4,M,-32.6,M,,*6D
$PYRTM,2024,125.339239875150,16.448887285289
$GPGGA,080829.00,3512.5788,N,12150.1467,W,1,08,1.0,12.1,M,-32.6,M,,*60
$PYRTM,2024,125.339247273935,16.448894684074
$GPGGA,080830.00,3512.5786,N,12150.1474,W,1,08,1.0,12.4,M,-32.6,M,,*61
$PYRTM,2024,125.339265920833,16.448913330972
$GPGGA,080831.00,3512.5787,N,12150.1480,W,1,08,1.0,12.5,M,-32.6,M,,*6B
$PYRTM,2024,125.339274612465,16.448922022604
$GPGGA,080832.00,3512.5793,N,12150.1486,W,1,08,1.0,12.4,M,-32.6,M,,*6A
$PYRTM,2024,125.339286176759,16.448933586898
$GPGGA,080833.00,3512.5800,N,12150.1490,W,1,08,1.0,12.0,M,-32.6,M,,*6D
$PYRTM,2024,125.339297757917,16.448945168056
$GPGGA,080834.00,3512.5802,N,12150.1495,W,1,08,1.0,12.0,M,-32.6,M,,*6D
$PYRTM,2024,125.339309324537,16.448956734676
$GPGGA,080835.00,3512.5802,N,12150.1500,W,1,08,1.0,11.9,M,-32.6,M,,*6B
$PYRTM,2024,125.339320901065,16.448968311204
$GPGGA,080836.00,3512.5806,N,12150.1506,W,1,08,1.0,12.3,M,-32.6,M,,*63
$PYRTM,2024,125.339332479375,16.448979889514
$GPGGA,080837.00,3512.5813,N,12150.1511,W,1,08,1.0,12.3,M,-32.6,M,,*60
$PYRTM,2024,125.339344046968,16.448991457106
$GPGGA,080838.00,3512.5816,N,12150.1515,W,1,08,1.0,12.3,M,-32.6,M,,*6E
