$PYRTM,2024,124.500003694433,15.609651104572
$GPGGA,115959.00,3535.3826,N,12143.5375,W,1,12,0.8,9.4,M,-31.6,M,,*5F
$PYRTM,2024,124.500015259201,15.609662669340
$GPGGA,120000.00,3535.3846,N,12143.5380,W,1,12,0.8,9.2,M,-31.6,M,,*56
$PYRTM,2024,124.500026832616,15.609674242755
$GPGGA,120001.00,3535.3866,N,12143.5380,W,1,12,0.8,9.4,M,-31.6,M,,*53
$PYRTM,2024,124.500038406481,15.609685816620
$GPGGA,120002.00,3535.3885,N,12143.5377,W,1,12,0.8,9.7,M,-31.6,M,,*56
$PYRTM,2024,124.500049980532,15.609697390671
$GPGGA,120003.00,3535.3905,N,12143.5376,W,1,12,0.8,10.2,M,-31.6,M,,*62
$PYRTM,2024,124.500061555324,15.609708965463
$GPGGA,120004.00,3535.3925,N,12143.5378,W,1,12,0.8,10.6,M,-31.6,M,,*6D
$PYRTM,2024,124.500073137118,15.609720547257
$GPGGA,120005.00,3535.3947,N,12143.5381,W,1,12,0.8,10.5,M,-31.6,M,,*6D
$PYRTM,2024,124.500084703773,15.609732113912
$GPGGA,120006.00,3535.3970,N,12143.5385,W,1,12,0.8,9.8,M,-31.6,M,,*5B
$PYRTM,2024,124.500096285810,15.609743695949
$GPGGA,120007.00,3535.3989,N,12143.5388,W,1,12,0.8,9.8,M,-31.6,M,,*51
$PYRTM,2024,124.500103683102,15.609751093241
$GPGGA,120008.00,3535.4005,N,12143.5384,W,1,12,0.8,10.6,M,-31.6,M,,*6E
$PYRTM,2024,124.500119425150,15.609766835289
$GPGGA,120009.00,3535.4025,N,12143.5376,W,1,12,0.8,11.2,M,-31.6,M,,*65
$PYRTM,2024,124.500130995000,15.609778405139
$GPGGA,120010.00,3535.4048,N,12143.5375,W,1,12,0.8,10.8,M,-31.6,M,,*6E
$PYRTM,2024,124.500142584734,15.609789994873
$GPGGA,120011.00,3535.4069,N,12143.5384,W,1,12,0.8,10.4,M,-31.6,M,,*6E
$PYRTM,2024,124.500154148704,15.609801558843
$GPGGA,120012.00,3535.4084,N,12143.5392,W,1,12,0.8,10.5,M,-31.6,M,,*68
$PYRTM,2024,124.500165722002,15.609813132141
$GPGGA,120013.00,3535.4102,N,12143.5390,W,1,12,0.8,11.0,M,-31.6,M,,*60
$PYRTM,2024,124.500177296204,15.609824706354
$GPGGA,120014.00,3535.4123,N,12143.5383,W,1,12,0.8,10.7,M,-31.6,M,,*60
$PYRTM,2024,124.500188883438,15.609836293576
$GPGGA,120015.00,3535.4145,N,12143.5380,W,1,12,0.8,10.1,M,-31.6,M,,*64
$PYRTM,2024,124.500200445069,15.609847855220
$GPGGA,120016.00,3535.4163,N,12143.5386,W,1,12,0.8,9.9,M,-31.6,M,,*55
$PYRTM,2024,124.500212030255,15.609859440394
$GPGGA,120017.00,3535.4179,N,12143.5395,W,1,12,0.8,10.7,M,-31.6,M,,*6B
$PYRTM,2024,124.500223588738,15.609870998877
$GPGGA,120018.00,3535.4197,N,12143.5398,W,1,12,0.8,11.0,M,-31.6,M,,*6F
$PYRTM,2024,124.500235174942,15.609882585081
$GPGGA,120019.00,3535.4218,N,12143.5394,W,1,12,0.8,10.7,M,-31.6,M,,*60
$PYRTM,2024,124.500246736956,15.609894147095
$GPGGA,120020.00,3535.4238,N,12143.5390,W,1,12,0.8,10.4,M,-31.6,M,,*6F
$PYRTM,2024,124.500254136227,15.609901546366
$GPGGA,120021.00,3535.4256,N,12143.5393,W,1,12,0.8,10.8,M,-31.6,M,,*69
$PYRTM,2024,124.500269890046,15.609917300185
$GPGGA,120022.00,3535.4275,N,12143.5400,W,1,12,0.8,11.0,M,-31.6,M,,*6F
$PYRTM,2024,124.500281463634,15.609928873773
$GPGGA,120023.00,3535.4294,N,12143.5404,W,1,12,0.8,11.3,M,-31.6,M,,*66
$PYRTM,2024,124.500293037593,15.609940447731
$GPGGA,120024.00,3535.4312,N,12143.5399,W,1,12,0.8,11.8,M,-31.6,M,,*66
$PYRTM,2024,124.500304612442,15.609952022581
$GPGGA,120025.00,3535.4330,N,12143.5394,W,1,12,0.8,13.0,M,-31.6,M,,*60
$PYRTM,2024,124.500316188125,15.609963598264
$GPGGA,120026.00,3535.4352,N,12143.5397,W,1,12,0.8,11.9,M,-31.6,M,,*6F
$PYRTM,2024,124.500327761782,15.609975171921
$GPGGA,120027.00,3535.4372,N,12143.5405,W,1,12,0.8,11.1,M,-31.6,M,,*68
$PYRTM,2024,124.500335167442,15.609982577581
$GPGGA,120028.00,3535.4389,N,12143.5408,W,1,12,0.8,11.3,M,-31.6,M,,*6C
$PYRTM,2024,124.500353802546,15.610001212685
$GPGGA,120029.00,3535.4408,N,12143.5404,W,1,12,0.8,11.9,M,-31.6,M,,*65
$PYRTM,2024,124.500362483449,15.610009893588
$GPGGA,120030.00,3535.4430,N,12143.5401,W,1,12,0.8,11.4,M,-31.6,M,,*6E
$PYRTM,2024,124.500374057141,15.610021467280
$GPGGA,120031.00,3535.4451,N,12143.5405,W,1,12,0.8,10.8,M,-31.6,M,,*61
$PYRTM,2024,124.500385626840,15.610033036979
$GPGGA,120032.00,3535.4469,N,12143.5412,W,1,12,0.8,10.6,M,-31.6,M,,*61
$PYRTM,2024,124.500397212813,15.610044622963
$GPGGA,120033.00,3535.4486,N,12143.5416,W,1,12,0.8,10.8,M,-31.6,M,,*6B
$PYRTM,2024,124.500408779873,15.610056190012
$GPGGA,120034.00,3535.4505,N,12143.5415,W,1,12,0.8,10.7,M,-31.6,M,,*6A
$PYRTM,2024,124.500416175116,15.610063585255
$GPGGA,120035.00,3535.4525,N,12143.5411,W,1,12,0.8,10.3,M,-31.6,M,,*69
$PYRTM,2024,124.500431928634,15.610079338773
$GPGGA,120036.00,3535.4543,N,12143.5411,W,1,12,0.8,10.4,M,-31.6,M,,*6D
$PYRTM,2024,124.500443513866,15.610090924005
$GPGGA,120037.00,3535.4562,N,12143.5416,W,1,12,0.8,10.6,M,-31.6,M,,*6A
$PYRTM,2024,124.500455078426,15.610102488565
$GPGGA,120038.00,3535.4582,N,12143.5422,W,1,12,0.8,10.5,M,-31.6,M,,*6F
$PYRTM,2024,124.500466650069,15.610114060208
$GPGGA,120039.00,3535.4602,N,12143.5423,W,1,12,0.8,10.5,M,-31.6,M,,*64
$PYRTM,2024,124.500474059907,15.610121470046
$GPGGA,120040.00,3535.4620,N,12143.5421,W,1,12,0.8,10.8,M,-31.6,M,,*65
$PYRTM,2024,124.500489799132,15.610137209271
$GPGGA,120041.00,3535.4638,N,12143.5419,W,1,12,0.8,11.3,M,-31.6,M,,*6C
$PYRTM,2024,124.500497200324,15.610144610463
$GPGGA,120042.00,3535.4659,N,12143.5421,W,1,12,0.8,11.1,M,-31.6,M,,*61
$PYRTM,2024,124.500512958252,15.610160368391
$GPGGA,120043.00,3535.4681,N,12143.5425,W,1,12,0.8,10.3,M,-31.6,M,,*62
$PYRTM,2024,124.500524516053,15.610171926192
$GPGGA,120044.00,3535.4699,N,12143.5429,W,1,12,0.8,10.2,M,-31.6,M,,*61
$PYRTM,2024,124.500536105451,15.610183515590
$GPGGA,120045.00,3535.4716,N,12143.5428,W,1,12,0.8,10.7,M,-31.6,M,,*62
$PYRTM,2024,124.500547668924,15.610195079063
$GPGGA,120046.00,3535.4737,N,12143.5424,W,1,12,0.8,11.1,M,-31.6,M,,*69
$PYRTM,2024,124.500559251505,15.610206661644
$GPGGA,120047.00,3535.4759,N,12143.5424,W,1,12,0.8,10.9,M,-31.6,M,,*69
$PYRTM,2024,124.500570817049,15.610218227188
$GPGGA,120048.00,3535.4778,N,12143.5431,W,1,12,0.8,10.4,M,-31.6,M,,*6C
$PYRTM,2024,124.500582417049,15.610229827187
$GPGGA,120049.00,3535.4797,N,12143.5437,W,1,12,0.8,10.5,M,-31.6,M,,*6B
$PYRTM,2024,124.500589799016,15.610237209155
$GPGGA,120050.00,3535.4815,N,12143.5436,W,1,12,0.8,10.7,M,-31.6,M,,*65
$PYRTM,2024,124.500605565741,15.610252975880
$GPGGA,120051.00,3535.4835,N,12143.5430,W,1,12,0.8,11.2,M,-31.6,M,,*64
$PYRTM,2024,124.500617114410,15.610264524549
$GPGGA,120052.00,3535.4856,N,12143.5428,W,1,12,0.8,11.1,M,-31.6,M,,*68
$PYRTM,2024,124.500628699745,15.610276109896
$GPGGA,120053.00,3535.4877,N,12143.5435,W,1,12,0.8,9.9,M,-31.6,M,,*57
$PYRTM,2024,124.500640258067,15.610287668206
$GPGGA,120054.00,3535.4895,N,12143.5444,W,1,12,0.8,9.6,M,-31.6,M,,*55
$PYRTM,2024,124.500647658553,15.610295068692
$GPGGA,120055.00,3535.4912,N,12143.5442,W,1,12,0.8,10.2,M,-31.6,M,,*60
$PYRTM,2024,124.500663406863,15.610310817002
$GPGGA,120056.00,3535.4932,N,12143.5435,W,1,12,0.8,10.3,M,-31.6,M,,*60
$PYRTM,2024,124.500674985382,15.610322395521
$GPGGA,120057.00,3535.4954,N,12143.5434,W,1,12,0.8,9.9,M,-31.6,M,,*52
$PYRTM,2024,124.500686555706,15.610333965845
$GPGGA,120058.00,3535.4972,N,12143.5442,W,1,12,0.8,10.0,M,-31.6,M,,*69
$PYRTM,2024,124.500693954965,15.610341365116
$GPGGA,120059.00,3535.4989,N,12143.5449,W,1,12,0.8,10.6,M,-31.6,M,,*61
$PYRTM,2024,124.500712599097,15.610360009236
$GPGGA,120100.00,3535.5009,N,12143.5448,W,1,12,0.8,11.1,M,-31.6,M,,*6B
$PYRTM,2024,124.500721290556,15.610368700706
$GPGGA,120101.00,3535.5031,N,12143.5442,W,1,12,0.8,10.9,M,-31.6,M,,*62
$PYRTM,2024,124.500732857025,15.610380267164
$GPGGA,120102.00,3535.5050,N,12143.5443,W,1,12,0.8,10.7,M,-31.6,M,,*69
$PYRTM,2024,124.500744455590,15.610391865741
$GPGGA,120103.00,3535.5068,N,12143.5449,W,1,12,0.8,10.8,M,-31.6,M,,*66
$PYRTM,2024,124.500756000498,15.610403410637
$GPGGA,120104.00,3535.5086,N,12143.5453,W,1,12,0.8,11.4,M,-31.6,M,,*67
$PYRTM,2024,124.500763401192,15.610410811331
$GPGGA,120105.00,3535.5107,N,12143.5451,W,1,12,0.8,11.6,M,-31.6,M,,*6E
$PYRTM,2024,124.500779152951,15.610426563090
$GPGGA,120106.00,3535.5129,N,12143.5449,W,1,12,0.8,11.2,M,-31.6,M,,*6C
$PYRTM,2024,124.500790737998,15.610438148137
$GPGGA,120107.00,3535.5149,N,12143.5452,W,1,12,0.8,10.8,M,-31.6,M,,*6A
$PYRTM,2024,124.500802301771,15.610449711910
$GPGGA,120108.00,3535.5167,N,12143.5457,W,1,12,0.8,11.0,M,-31.6,M,,*65
$PYRTM,2024,124.500813875000,15.610461285139
$GPGGA,120109.00,3535.5186,N,12143.5459,W,1,12,0.8,11.2,M,-31.6,M,,*67
$PYRTM,2024,124.500821277269,15.610468687407
$GPGGA,120110.00,3535.5205,N,12143.5459,W,1,12,0.8,11.2,M,-31.6,M,,*67
$PYRTM,2024,124.500837024398,15.610484434537
$GPGGA,120111.00,3535.5225,N,12143.5459,W,1,12,0.8,11.2,M,-31.6,M,,*64
$PYRTM,2024,124.500844430532,15.610491840671
$GPGGA,120112.00,3535.5244,N,12143.5459,W,1,12,0.8,11.1,M,-31.6,M,,*63
$PYRTM,2024,124.500860172280,15.610507582419
$GPGGA,120113.00,3535.5264,N,12143.5461,W,1,12,0.8,11.0,M,-31.6,M,,*6A
$PYRTM,2024,124.500871747755,15.610519157894
$GPGGA,120114.00,3535.5283,N,12143.5464,W,1,12,0.8,11.0,M,-31.6,M,,*61
$PYRTM,2024,124.500879141505,15.610526551644
$GPGGA,120115.00,3535.5302,N,12143.5466,W,1,12,0.8,11.1,M,-31.6,M,,*6B
$PYRTM,2024,124.500894894583,15.610542304722
$GPGGA,120116.00,3535.5322,N,12143.5465,W,1,12,0.8,11.1,M,-31.6,M,,*69
$PYRTM,2024,124.500906476690,15.610553886829
$GPGGA,120117.00,3535.5342,N,12143.5465,W,1,12,0.8,11.1,M,-31.6,M,,*6E
$PYRTM,2024,124.500918042373,15.610565452512
$GPGGA,120118.00,3535.5360,N,12143.5466,W,1,12,0.8,11.7,M,-31.6,M,,*64
$PYRTM,2024,124.500929626146,15.610577036285
$GPGGA,120119.00,3535.5380,N,12143.5465,W,1,12,0.8,11.6,M,-31.6,M,,*69
$PYRTM,2024,124.500941191412,15.610588601551
$GPGGA,120120.00,3535.5403,N,12143.5465,W,1,12,0.8,11.0,M,-31.6,M,,*69
$PYRTM,2024,124.500952777199,15.610600187350
$GPGGA,120121.00,3535.5421,N,12143.5467,W,1,12,0.8,11.0,M,-31.6,M,,*6A
$PYRTM,2024,124.500964338773,15.610611748912
$GPGGA,120122.00,3535.5438,N,12143.5470,W,1,12,0.8,11.6,M,-31.6,M,,*61
$PYRTM,2024,124.500975924699,15.610623334838
$GPGGA,120123.00,3535.5458,N,12143.5470,W,1,12,0.8,11.8,M,-31.6,M,,*68
$PYRTM,2024,124.500987482917,15.610634893056
$GPGGA,120124.00,3535.5480,N,12143.5468,W,1,12,0.8,11.7,M,-31.6,M,,*6C
$PYRTM,2024,124.500999061690,15.610646471829
$GPGGA,120125.00,3535.5499,N,12143.5467,W,1,12,0.8,11.8,M,-31.6,M,,*65
$PYRTM,2024,124.501010631377,15.610658041528
$GPGGA,120126.00,3535.5519,N,12143.5469,W,1,12,0.8,11.8,M,-31.6,M,,*61
$PYRTM,2024,124.501022209965,15.610669620104
$GPGGA,120127.00,3535.5538,N,12143.5473,W,1,12,0.8,11.9,M,-31.6,M,,*69
$PYRTM,2024,124.501033779965,15.610681190104
$GPGGA,120128.00,3535.5558,N,12143.5476,W,1,12,0.8,11.8,M,-31.6,M,,*64
$PYRTM,2024,124.501045366701,15.610692776840
$GPGGA,120129.00,3535.5579,N,12143.5475,W,1,12,0.8,11.5,M,-31.6,M,,*68
$PYRTM,2024,124.501052765150,15.610700175289
$GPGGA,120130.00,3535.5598,N,12143.5472,W,1,12,0.8,11.2,M,-31.6,M,,*6F
$PYRTM,2024,124.501071403866,15.610718814005
$GPGGA,120131.00,3535.5618,N,12143.5473,W,1,12,0.8,11.1,M,-31.6,M,,*67
$PYRTM,2024,124.501080078356,15.610727488495
$GPGGA,120132.00,3535.5639,N,12143.5477,W,1,12,0.8,11.3,M,-31.6,M,,*61
$PYRTM,2024,124.501091663750,15.610739073900
$GPGGA,120133.00,3535.5662,N,12143.5482,W,1,12,0.8,10.8,M,-31.6,M,,*6E
$PYRTM,2024,124.501103226852,15.610750636991
$GPGGA,120134.00,3535.5683,N,12143.5486,W,1,12,0.8,10.7,M,-31.6,M,,*6D
$PYRTM,2024,124.501110624792,15.610758034931
$GPGGA,120135.00,3535.5700,N,12143.5485,W,1,12,0.8,11.4,M,-31.6,M,,*67
$PYRTM,2024,124.501126378310,15.610773788449
$GPGGA,120136.00,3535.5719,N,12143.5481,W,1,12,0.8,11.9,M,-31.6,M,,*65
$PYRTM,2024,124.501137952465,15.610785362604
$GPGGA,120137.00,3535.5740,N,12143.5480,W,1,12,0.8,11.8,M,-31.6,M,,*68
$PYRTM,2024,124.501149520856,15.610796930995
$GPGGA,120138.00,3535.5761,N,12143.5486,W,1,12,0.8,11.2,M,-31.6,M,,*68
$PYRTM,2024,124.501161100347,15.610808510498
$GPGGA,120139.00,3535.5780,N,12143.5492,W,1,12,0.8,11.0,M,-31.6,M,,*61
$PYRTM,2024,124.501168501875,15.610815912014
$GPGGA,120140.00,3535.5798,N,12143.5492,W,1,12,0.8,11.4,M,-31.6,M,,*62
$PYRTM,2024,124.501184248079,15.610831658218
$GPGGA,120141.00,3535.5817,N,12143.5488,W,1,12,0.8,11.8,M,-31.6,M,,*6C
$PYRTM,2024,124.501195823032,15.610843233171
$GPGGA,120142.00,3535.5839,N,12143.5487,W,1,12,0.8,11.4,M,-31.6,M,,*60
$PYRTM,2024,124.501207407917,15.610854818056
$GPGGA,120143.00,3535.5859,N,12143.5490,W,1,12,0.8,11.1,M,-31.6,M,,*64
$PYRTM,2024,124.501214803727,15.610862213866
$GPGGA,120144.00,3535.5877,N,12143.5492,W,1,12,0.8,11.4,M,-31.6,M,,*68
$PYRTM,2024,124.501230556632,15.610877966771
$GPGGA,120145.00,3535.5897,N,12143.5492,W,1,12,0.8,11.5,M,-31.6,M,,*66
$PYRTM,2024,124.501242119838,15.610889529988
$GPGGA,120146.00,3535.5919,N,12143.5492,W,1,12,0.8,11.4,M,-31.6,M,,*63
$PYRTM,2024,124.501253700486,15.610901110625
$GPGGA,120147.00,3535.5939,N,12143.5494,W,1,12,0.8,11.1,M,-31.6,M,,*63
$PYRTM,2024,124.501265267708,15.610912677847
$GPGGA,120148.00,3535.5957,N,12143.5493,W,1,12,0.8,11.4,M,-31.6,M,,*66
$PYRTM,2024,124.501276842639,15.610924252778
$GPGGA,120149.00,3535.5975,N,12143.5490,W,1,12,0.8,12.1,M,-31.6,M,,*62
$PYRTM,2024,124.501284260938,15.610931671076
$GPGGA,120150.00,3535.5997,N,12143.5489,W,1,12,0.8,11.8,M,-31.6,M,,*64
$PYRTM,2024,124.501299990382,15.610947400521
$GPGGA,120151.00,3535.6017,N,12143.5491,W,1,12,0.8,11.3,M,-31.6,M,,*65
$PYRTM,2024,124.501311564583,15.610958974722
$GPGGA,120152.00,3535.6035,N,12143.5492,W,1,12,0.8,11.4,M,-31.6,M,,*62
$PYRTM,2024,124.501323138692,15.610970548831
$GPGGA,120153.00,3535.6052,N,12143.5491,W,1,12,0.8,11.7,M,-31.6,M,,*62
$PYRTM,2024,124.501334714132,15.610982124271
$GPGGA,120154.00,3535.6072,N,12143.5489,W,1,12,0.8,11.5,M,-31.6,M,,*6C
$PYRTM,2024,124.501346287130,15.610993697280
$GPGGA,120155.00,3535.6094,N,12143.5489,W,1,12,0.8,10.9,M,-31.6,M,,*68
$PYRTM,2024,124.501357861366,15.611005271505
$GPGGA,120156.00,3535.6113,N,12143.5492,W,1,12,0.8,10.7,M,-31.6,M,,*61
$PYRTM,2024,124.501369446030,15.611016856169
$GPGGA,120157.00,3535.6130,N,12143.5495,W,1,12,0.8,11.0,M,-31.6,M,,*60
$PYRTM,2024,124.501381009109,15.611028419248
$GPGGA,120158.00,3535.6150,N,12143.5495,W,1,12,0.8,11.2,M,-31.6,M,,*6B
$PYRTM,2024,124.501392610000,15.611040020139
$GPGGA,120159.00,3535.6169,N,12143.5492,W,1,12,0.8,11.4,M,-31.6,M,,*61
$PYRTM,2024,124.501399990475,15.611047400613
$GPGGA,120200.00,3535.6189,N,12143.5490,W,1,12,0.8,11.5,M,-31.6,M,,*63
$PYRTM,2024,124.501411552581,15.611058962720
$GPGGA,120201.00,3535.6210,N,12143.5493,W,1,12,0.8,11.2,M,-31.6,M,,*65
$PYRTM,2024,124.501430196678,15.611077606817
$GPGGA,120202.00,3535.6231,N,12143.5496,W,1,12,0.8,10.8,M,-31.6,M,,*6B
$PYRTM,2024,124.501438887292,15.611086297431
$GPGGA,120203.00,3535.6248,N,12143.5498,W,1,12,0.8,11.1,M,-31.6,M,,*62
$PYRTM,2024,124.501450456308,15.611097866447
$GPGGA,120204.00,3535.6266,N,12143.5494,W,1,12,0.8,11.8,M,-31.6,M,,*6C
$PYRTM,2024,124.501457850243,15.611105260382
$GPGGA,120205.00,3535.6288,N,12143.5491,W,1,12,0.8,11.9,M,-31.6,M,,*69
$PYRTM,2024,124.501473602894,15.611121013032
$GPGGA,120206.00,3535.6310,N,12143.5493,W,1,12,0.8,11.4,M,-31.6,M,,*65
$PYRTM,2024,124.501485177234,15.611132587373
$GPGGA,120207.00,3535.6329,N,12143.5499,W,1,12,0.8,11.3,M,-31.6,M,,*63
$PYRTM,2024,124.501496746759,15.611144156910
$GPGGA,120208.00,3535.6349,N,12143.5503,W,1,12,0.8,11.1,M,-31.6,M,,*6A
$PYRTM,2024,124.501508335880,15.611155746019
$GPGGA,120209.00,3535.6369,N,12143.5503,W,1,12,0.8,11.1,M,-31.6,M,,*69
$PYRTM,2024,124.501519900498,15.611167310648
$GPGGA,120210.00,3535.6389,N,12143.5499,W,1,12,0.8,11.3,M,-31.6,M,,*6F
$PYRTM,2024,124.501531473530,15.611178883669
$GPGGA,120211.00,3535.6408,N,12143.5499,W,1,12,0.8,11.2,M,-31.6,M,,*61
$PYRTM,2024,124.501543048287,15.611190458426
$GPGGA,120212.00,3535.6429,N,12143.5504,W,1,12,0.8,11.0,M,-31.6,M,,*66
$PYRTM,2024,124.501554622060,15.611202032199
$GPGGA,120213.00,3535.6447,N,12143.5509,W,1,12,0.8,10.9,M,-31.6,M,,*6A
$PYRTM,2024,124.501566197199,15.611213607338
$GPGGA,120214.00,3535.6465,N,12143.5509,W,1,12,0.8,11.3,M,-31.6,M,,*66
$PYRTM,2024,124.501573591586,15.611221001725
$GPGGA,120215.00,3535.6484,N,12143.5504,W,1,12,0.8,11.3,M,-31.6,M,,*65
$PYRTM,2024,124.501585280440,15.611232690579
$GPGGA,120216.00,3535.6506,N,12143.5503,W,1,12,0.8,10.7,M,-31.6,M,,*6F
$PYRTM,2024,124.501600919919,15.611248330058
$GPGGA,120217.00,3535.6525,N,12143.5507,W,1,12,0.8,10.5,M,-31.6,M,,*69
$PYRTM,2024,124.501612492720,15.611259902859
$GPGGA,120218.00,3535.6542,N,12143.5512,W,1,12,0.8,10.8,M,-31.6,M,,*6E
$PYRTM,2024,124.501624077500,15.611271487639
$GPGGA,120219.00,3535.6562,N,12143.5514,W,1,12,0.8,11.5,M,-31.6,M,,*67
$PYRTM,2024,124.501631476863,15.611278887002
$GPGGA,120220.00,3535.6584,N,12143.5512,W,1,12,0.8,11.6,M,-31.6,M,,*60
$PYRTM,2024,124.501647228414,15.611294638553
$GPGGA,120221.00,3535.6605,N,12143.5509,W,1,12,0.8,11.5,M,-31.6,M,,*62
$PYRTM,2024,124.501658789803,15.611306199942
$GPGGA,120222.00,3535.6623,N,12143.5509,W,1,12,0.8,11.7,M,-31.6,M,,*67
$PYRTM,2024,124.501670364363,15.611317774502
$GPGGA,120223.00,3535.6643,N,12143.5513,W,1,12,0.8,11.4,M,-31.6,M,,*68
$PYRTM,2024,124.501681933056,15.611329343194
$GPGGA,120224.00,3535.6665,N,12143.5517,W,1,12,0.8,10.7,M,-31.6,M,,*6D
$PYRTM,2024,124.501689331944,15.611336742083
$GPGGA,120225.00,3535.6683,N,12143.5516,W,1,12,0.8,10.5,M,-31.6,M,,*67
$PYRTM,2024,124.501705086782,15.611352496921
$GPGGA,120226.00,3535.6700,N,12143.5511,W,1,12,0.8,11.0,M,-31.6,M,,*6D
$PYRTM,2024,124.501712481470,15.611359891620
$GPGGA,120227.00,3535.6719,N,12143.5508,W,1,12,0.8,10.8,M,-31.6,M,,*65
$PYRTM,2024,124.501728237222,15.611375647361
$GPGGA,120228.00,3535.6740,N,12143.5511,W,1,12,0.8,10.6,M,-31.6,M,,*60
$PYRTM,2024,124.501739796968,15.611387207106
$GPGGA,120229.00,3535.6759,N,12143.5517,W,1,12,0.8,10.7,M,-31.6,M,,*6E
$PYRTM,2024,124.501751384120,15.611398794259
$GPGGA,120230.00,3535.6777,N,12143.5519,W,1,12,0.8,10.8,M,-31.6,M,,*6B
$PYRTM,2024,124.501762945787,15.611410355926
$GPGGA,120231.00,3535.6797,N,12143.5515,W,1,12,0.8,10.8,M,-31.6,M,,*68
$PYRTM,2024,124.501770352662,15.611417762801
$GPGGA,120232.00,3535.6816,N,12143.5513,W,1,12,0.8,10.9,M,-31.6,M,,*6A
$PYRTM,2024,124.501786092025,15.611433502164
$GPGGA,120233.00,3535.6834,N,12143.5513,W,1,12,0.8,11.3,M,-31.6,M,,*60
$PYRTM,2024,124.501797682106,15.611445092245
$GPGGA,120234.00,3535.6854,N,12143.5514,W,1,12,0.8,11.7,M,-31.6,M,,*62
$PYRTM,2024,124.501805074444,15.611452484583
$GPGGA,120235.00,3535.6876,N,12143.5516,W,1,12,0.8,11.7,M,-31.6,M,,*61
$PYRTM,2024,124.501820842708,15.611468252847
$GPGGA,120236.00,3535.6897,N,12143.5519,W,1,12,0.8,10.3,M,-31.6,M,,*67
$PYRTM,2024,124.501832390995,15.611479801134
$GPGGA,120237.00,3535.6914,N,12143.5520,W,1,12,0.8,10.9,M,-31.6,M,,*6C
$PYRTM,2024,124.501843979537,15.611491389687
$GPGGA,120238.00,3535.6933,N,12143.5516,W,1,12,0.8,11.3,M,-31.6,M,,*68
$PYRTM,2024,124.501855540185,15.611502950324
$GPGGA,120239.00,3535.6953,N,12143.5511,W,1,12,0.8,11.7,M,-31.6,M,,*6C
$PYRTM,2024,124.501862945880,15.611510356019
$GPGGA,120240.00,3535.6975,N,12143.5513,W,1,12,0.8,11.4,M,-31.6,M,,*67
$PYRTM,2024,124.501878686366,15.611526096516
$GPGGA,120241.00,3535.6995,N,12143.5523,W,1,12,0.8,10.5,M,-31.6,M,,*6B
$PYRTM,2024,124.501890268067,15.611537678206
$GPGGA,120242.00,3535.7014,N,12143.5528,W,1,12,0.8,10.5,M,-31.6,M,,*62
$PYRTM,2024,124.501901834352,15.611549244491
$GPGGA,120243.00,3535.7032,N,12143.5522,W,1,12,0.8,11.0,M,-31.6,M,,*69
$PYRTM,2024,124.501913421782,15.611560831921
$GPGGA,120244.00,3535.7050,N,12143.5512,W,1,12,0.8,11.7,M,-31.6,M,,*6E
$PYRTM,2024,124.501924981921,15.611572392060
$GPGGA,120245.00,3535.7071,N,12143.5511,W,1,12,0.8,11.1,M,-31.6,M,,*69
$PYRTM,2024,124.501936569259,15.611583979398
$GPGGA,120246.00,3535.7093,N,12143.5520,W,1,12,0.8,10.4,M,-31.6,M,,*60
$PYRTM,2024,124.501943964306,15.611591374444
$GPGGA,120247.00,3535.7111,N,12143.5528,W,1,12,0.8,10.2,M,-31.6,M,,*64
$PYRTM,2024,124.501959720231,15.611607130370
$GPGGA,120248.00,3535.7127,N,12143.5525,W,1,12,0.8,10.6,M,-31.6,M,,*67
$PYRTM,2024,124.501971278796,15.611618688935
$GPGGA,120249.00,3535.7147,N,12143.5516,W,1,12,0.8,11.1,M,-31.6,M,,*66
$PYRTM,2024,124.501978687998,15.611626098137
$GPGGA,120250.00,3535.7167,N,12143.5513,W,1,12,0.8,11.2,M,-31.6,M,,*6A
$PYRTM,2024,124.501994429630,15.611641839769
$GPGGA,120251.00,3535.7185,N,12143.5518,W,1,12,0.8,11.3,M,-31.6,M,,*6D
$PYRTM,2024,124.502006017396,15.611653427535
$GPGGA,120252.00,3535.7204,N,12143.5525,W,1,12,0.8,11.3,M,-31.6,M,,*6A
$PYRTM,2024,124.502017576528,15.611664986667
$GPGGA,120253.00,3535.7224,N,12143.5527,W,1,12,0.8,10.9,M,-31.6,M,,*60
$PYRTM,2024,124.502029164167,15.611676574306
$GPGGA,120254.00,3535.7243,N,12143.5524,W,1,12,0.8,10.7,M,-31.6,M,,*6B
$PYRTM,2024,124.502036571181,15.611683981319
$GPGGA,120255.00,3535.7261,N,12143.5520,W,1,12,0.8,10.8,M,-31.6,M,,*61
$PYRTM,2024,124.502052312917,15.611699723056
$GPGGA,120256.00,3535.7279,N,12143.5517,W,1,12,0.8,11.6,M,-31.6,M,,*60
$PYRTM,2024,124.502063873403,15.611711283542
$GPGGA,120257.00,3535.7300,N,12143.5520,W,1,12,0.8,11.2,M,-31.6,M,,*6E
$PYRTM,2024,124.502075460764,15.611722870903
$GPGGA,120258.00,3535.7321,N,12143.5527,W,1,12,0.8,10.8,M,-31.6,M,,*6E
$PYRTM,2024,124.502087022454,15.611734432593
$GPGGA,120259.00,3535.7339,N,12143.5532,W,1,12,0.8,10.6,M,-31.6,M,,*6C
$PYRTM,2024,124.502098609063,15.611746019201
$GPGGA,120300.00,3535.7358,N,12143.5529,W,1,12,0.8,10.6,M,-31.6,M,,*6C
$PYRTM,2024,124.502110170313,15.611757580451
$GPGGA,120301.00,3535.7379,N,12143.5524,W,1,12,0.8,10.6,M,-31.6,M,,*63
$PYRTM,2024,124.502117576597,15.611764986736
$GPGGA,120302.00,3535.7399,N,12143.5523,W,1,12,0.8,10.6,M,-31.6,M,,*69
$PYRTM,2024,124.502129152708,15.611776562847
$GPGGA,120303.00,3535.7417,N,12143.5529,W,1,12,0.8,11.0,M,-31.6,M,,*64
$PYRTM,2024,124.502147797847,15.611795207986
$GPGGA,120304.00,3535.7437,N,12143.5536,W,1,12,0.8,11.1,M,-31.6,M,,*6E
$PYRTM,2024,124.502156466481,15.611803876620
$GPGGA,120305.00,3535.7456,N,12143.5536,W,1,12,0.8,11.0,M,-31.6,M,,*69
$PYRTM,2024,124.502168056424,15.611815466562
$GPGGA,120306.00,3535.7475,N,12143.5532,W,1,12,0.8,11.1,M,-31.6,M,,*6E
$PYRTM,2024,124.502179615278,15.611827025417
$GPGGA,120307.00,3535.7494,N,12143.5529,W,1,12,0.8,11.1,M,-31.6,M,,*6A
$PYRTM,2024,124.502191197164,15.611838607315
$GPGGA,120308.00,3535.7514,N,12143.5531,W,1,12,0.8,11.1,M,-31.6,M,,*65
$PYRTM,2024,124.502202762373,15.611850172512
$GPGGA,120309.00,3535.7534,N,12143.5537,W,1,12,0.8,11.1,M,-31.6,M,,*60
$PYRTM,2024,124.502214346262,15.611861756400
$GPGGA,120310.00,3535.7553,N,12143.5541,W,1,12,0.8,11.3,M,-31.6,M,,*6A
$PYRTM,2024,124.502225912164,15.611873322303
$GPGGA,120311.00,3535.7573,N,12143.5540,W,1,12,0.8,11.5,M,-31.6,M,,*6E
$PYRTM,2024,124.502237501296,15.611884911435
$GPGGA,120312.00,3535.7594,N,12143.5537,W,1,12,0.8,11.5,M,-31.6,M,,*64
$PYRTM,2024,124.502249060556,15.611896470694
$GPGGA,120313.00,3535.7615,N,12143.5535,W,1,12,0.8,11.2,M,-31.6,M,,*6A
$PYRTM,2024,124.502260646470,15.611908056609
$GPGGA,120314.00,3535.7635,N,12143.5539,W,1,12,0.8,11.1,M,-31.6,M,,*60
$PYRTM,2024,124.502272207813,15.611919617951
$GPGGA,120315.00,3535.7654,N,12143.5546,W,1,12,0.8,11.3,M,-31.6,M,,*6C
$PYRTM,2024,124.502283789734,15.611931199873
$GPGGA,120316.00,3535.7674,N,12143.5546,W,1,12,0.8,11.5,M,-31.6,M,,*6B
$PYRTM,2024,124.502295357836,15.611942767975
$GPGGA,120317.00,3535.7695,N,12143.5540,W,1,12,0.8,11.4,M,-31.6,M,,*62
$PYRTM,2024,124.502306943866,15.611954354005
$GPGGA,120318.00,3535.7715,N,12143.5537,W,1,12,0.8,11.6,M,-31.6,M,,*66
$PYRTM,2024,124.502314339618,15.611961749757
$GPGGA,120319.00,3535.7734,N,12143.5543,W,1,12,0.8,11.6,M,-31.6,M,,*67
$PYRTM,2024,124.502332987350,15.611980397488
$GPGGA,120320.00,3535.7755,N,12143.5551,W,1,12,0.8,11.5,M,-31.6,M,,*6A
$PYRTM,2024,124.502341655301,15.611989065440
$GPGGA,120321.00,3535.7776,N,12143.5552,W,1,12,0.8,11.2,M,-31.6,M,,*6E
$PYRTM,2024,124.502349060926,15.611996471065
$GPGGA,120322.00,3535.7796,N,12143.5549,W,1,12,0.8,11.4,M,-31.6,M,,*6F
$PYRTM,2024,124.502364801597,15.612012211736
$GPGGA,120323.00,3535.7815,N,12143.5547,W,1,12,0.8,11.8,M,-31.6,M,,*68
$PYRTM,2024,124.502372208380,15.612019618519
$GPGGA,120324.00,3535.7834,N,12143.5546,W,1,12,0.8,12.1,M,-31.6,M,,*67
$PYRTM,2024,124.502387950324,15.612035360463
$GPGGA,120325.00,3535.7854,N,12143.5548,W,1,12,0.8,12.1,M,-31.6,M,,*6E
$PYRTM,2024,124.502399536319,15.612046946458
$GPGGA,120326.00,3535.7875,N,12143.5553,W,1,12,0.8,11.3,M,-31.6,M,,*65
$PYRTM,2024,124.502406948947,15.612054359086
$GPGGA,120327.00,3535.7895,N,12143.5557,W,1,12,0.8,11.1,M,-31.6,M,,*6C
$PYRTM,2024,124.502422685567,15.612070095706
$GPGGA,120328.00,3535.7912,N,12143.5555,W,1,12,0.8,11.7,M,-31.6,M,,*69
$PYRTM,2024,124.502434248426,15.612081658565
$GPGGA,120329.00,3535.7932,N,12143.5550,W,1,12,0.8,12.4,M,-31.6,M,,*6F
$PYRTM,2024,124.502445834375,15.612093244514
$GPGGA,120330.00,3535.7953,N,12143.5549,W,1,12,0.8,12.2,M,-31.6,M,,*6E
$PYRTM,2024,124.502457393773,15.612104803912
$GPGGA,120331.00,3535.7975,N,12143.5553,W,1,12,0.8,11.8,M,-31.6,M,,*69
$PYRTM,2024,124.502464801979,15.612112212118
$GPGGA,120332.00,3535.7993,N,12143.5559,W,1,12,0.8,11.7,M,-31.6,M,,*67
$PYRTM,2024,124.502480544525,15.612127954664
$GPGGA,120333.00,3535.8011,N,12143.5562,W,1,12,0.8,11.9,M,-31.6,M,,*6C
$PYRTM,2024,124.502487949803,15.612135359942
$GPGGA,120334.00,3535.8029,N,12143.5557,W,1,12,0.8,12.3,M,-31.6,M,,*6F
$PYRTM,2024,124.502506469074,15.612153879213
$GPGGA,120335.00,3535.8051,N,12143.5551,W,1,12,0.8,12.0,M,-31.6,M,,*64
$PYRTM,2024,124.502515281655,15.612162691794
$GPGGA,120336.00,3535.8074,N,12143.5552,W,1,12,0.8,11.5,M,-31.6,M,,*65
$PYRTM,2024,124.502526840046,15.612174250185
$GPGGA,120337.00,3535.8092,N,12143.5560,W,1,12,0.8,11.6,M,-31.6,M,,*6E
$PYRTM,2024,124.502538426794,15.612185836956
$GPGGA,120338.00,3535.8109,N,12143.5567,W,1,12,0.8,11.8,M,-31.6,M,,*6B
$PYRTM,2024,124.502549987454,15.612197397593
$GPGGA,120339.00,3535.8130,N,12143.5567,W,1,12,0.8,11.9,M,-31.6,M,,*61
$PYRTM,2024,124.502561576019,15.612208986157
$GPGGA,120340.00,3535.8152,N,12143.5562,W,1,12,0.8,11.7,M,-31.6,M,,*60
$PYRTM,2024,124.502573135324,15.612220545463
$GPGGA,120341.00,3535.8170,N,12143.5559,W,1,12,0.8,11.6,M,-31.6,M,,*68
$PYRTM,2024,124.502580542847,15.612227952986
$GPGGA,120342.00,3535.8190,N,12143.5561,W,1,12,0.8,11.5,M,-31.6,M,,*6D
$PYRTM,2024,124.502596284641,15.612243694780
$GPGGA,120343.00,3535.8211,N,12143.5567,W,1,12,0.8,10.9,M,-31.6,M,,*6D
$PYRTM,2024,124.502603693623,15.612251103762
$GPGGA,120344.00,3535.8231,N,12143.5570,W,1,12,0.8,10.6,M,-31.6,M,,*61
$PYRTM,2024,124.502619431088,15.612266841227
$GPGGA,120345.00,3535.8249,N,12143.5570,W,1,12,0.8,10.8,M,-31.6,M,,*61
$PYRTM,2024,124.502631022743,15.612278432882
$GPGGA,120346.00,3535.8269,N,12143.5566,W,1,12,0.8,11.0,M,-31.6,M,,*6E
$PYRTM,2024,124.502642581331,15.612289991470
$GPGGA,120347.00,3535.8289,N,12143.5564,W,1,12,0.8,11.0,M,-31.6,M,,*63
$PYRTM,2024,124.502654170579,15.612301580718
$GPGGA,120348.00,3535.8310,N,12143.5568,W,1,12,0.8,11.0,M,-31.6,M,,*61
$PYRTM,2024,124.502665728148,15.612313138287
$GPGGA,120349.00,3535.8329,N,12143.5575,W,1,12,0.8,11.2,M,-31.6,M,,*64
$PYRTM,2024,124.502677330486,15.612324740625
$GPGGA,120350.00,3535.8349,N,12143.5577,W,1,12,0.8,11.2,M,-31.6,M,,*68
$PYRTM,2024,124.502684711030,15.612332121169
$GPGGA,120351.00,3535.8369,N,12143.5573,W,1,12,0.8,11.3,M,-31.6,M,,*6E
$PYRTM,2024,124.502700466933,15.612347877072
$GPGGA,120352.00,3535.8389,N,12143.5569,W,1,12,0.8,11.1,M,-31.6,M,,*6A
$PYRTM,2024,124.502712025729,15.612359435868
$GPGGA,120353.00,3535.8409,N,12143.5570,W,1,12,0.8,11.1,M,-31.6,M,,*6C
$PYRTM,2024,124.502723611806,15.612371021944
$GPGGA,120354.00,3535.8428,N,12143.5574,W,1,12,0.8,11.3,M,-31.6,M,,*6E
$PYRTM,2024,124.502735173634,15.612382583773
$GPGGA,120355.00,3535.8448,N,12143.5577,W,1,12,0.8,11.5,M,-31.6,M,,*6C
$PYRTM,2024,124.502746760856,15.612394170995
$GPGGA,120356.00,3535.8469,N,12143.5577,W,1,12,0.8,11.3,M,-31.6,M,,*6A
$PYRTM,2024,124.502758322477,15.612405732616
$GPGGA,120357.00,3535.8491,N,12143.5576,W,1,12,0.8,10.8,M,-31.6,M,,*67
$PYRTM,2024,124.502769910787,15.612417320937
$GPGGA,120358.00,3535.8511,N,12143.5576,W,1,12,0.8,10.8,M,-31.6,M,,*61
$PYRTM,2024,124.502781470972,15.612428881111
$GPGGA,120359.00,3535.8530,N,12143.5577,W,1,12,0.8,11.3,M,-31.6,M,,*68
$PYRTM,2024,124.502793057257,15.612440467396
$GPGGA,120400.00,3535.8551,N,12143.5578,W,1,12,0.8,11.4,M,-31.6,M,,*6C
$PYRTM,2024,124.502804617662,15.612452027801
$GPGGA,120401.00,3535.8572,N,12143.5581,W,1,12,0.8,11.4,M,-31.6,M,,*6A
$PYRTM,2024,124.502816208623,15.612463618762
$GPGGA,120402.00,3535.8593,N,12143.5580,W,1,12,0.8,11.3,M,-31.6,M,,*60
$PYRTM,2024,124.502827766759,15.612475176898
$GPGGA,120403.00,3535.8613,N,12143.5579,W,1,12,0.8,11.0,M,-31.6,M,,*6F
$PYRTM,2024,124.502835174931,15.612482585069
$GPGGA,120404.00,3535.8633,N,12143.5579,W,1,12,0.8,10.9,M,-31.6,M,,*62
$PYRTM,2024,124.502846864896,15.612494275035
$GPGGA,120405.00,3535.8653,N,12143.5582,W,1,12,0.8,10.9,M,-31.6,M,,*61
$PYRTM,2024,124.502865410370,15.612512820509
$GPGGA,120406.00,3535.8673,N,12143.5584,W,1,12,0.8,10.9,M,-31.6,M,,*66
$PYRTM,2024,124.502874062917,15.612521473056
$GPGGA,120407.00,3535.8693,N,12143.5585,W,1,12,0.8,11.0,M,-31.6,M,,*60
$PYRTM,2024,124.502885653333,15.612533063472
$GPGGA,120408.00,3535.8714,N,12143.5584,W,1,12,0.8,10.8,M,-31.6,M,,*69
$PYRTM,2024,124.502893058947,15.612540469086
$GPGGA,120409.00,3535.8735,N,12143.5584,W,1,12,0.8,10.7,M,-31.6,M,,*64
$PYRTM,2024,124.502908799248,15.612556209387
$GPGGA,120410.00,3535.8755,N,12143.5588,W,1,12,0.8,10.9,M,-31.6,M,,*68
$PYRTM,2024,124.502920361701,15.612567771840
$GPGGA,120411.00,3535.8776,N,12143.5590,W,1,12,0.8,11.2,M,-31.6,M,,*6B
$PYRTM,2024,124.502931947442,15.612579357581
$GPGGA,120412.00,3535.8797,N,12143.5590,W,1,12,0.8,11.4,M,-31.6,M,,*61
$PYRTM,2024,124.502943509664,15.612590919803
$GPGGA,120413.00,3535.8817,N,12143.5588,W,1,12,0.8,11.6,M,-31.6,M,,*6C
$PYRTM,2024,124.502955095799,15.612602505938
$GPGGA,120414.00,3535.8838,N,12143.5588,W,1,12,0.8,11.6,M,-31.6,M,,*66
$PYRTM,2024,124.502966656019,15.612614066157
$GPGGA,120415.00,3535.8860,N,12143.5590,W,1,12,0.8,11.5,M,-31.6,M,,*60
$PYRTM,2024,124.502978245556,15.612625655694
$GPGGA,120416.00,3535.8882,N,12143.5593,W,1,12,0.8,11.3,M,-31.6,M,,*6A
$PYRTM,2024,124.502989806400,15.612637216528
$GPGGA,120417.00,3535.8902,N,12143.5594,W,1,12,0.8,11.3,M,-31.6,M,,*65
$PYRTM,2024,124.503001394711,15.612648804850
$GPGGA,120418.00,3535.8922,N,12143.5593,W,1,12,0.8,11.6,M,-31.6,M,,*6A
$PYRTM,2024,124.503012952766,15.612660362905
$GPGGA,120419.00,3535.8943,N,12143.5592,W,1,12,0.8,11.8,M,-31.6,M,,*63
$PYRTM,2024,124.503024555683,15.612671965822
$GPGGA,120420.00,3535.8965,N,12143.5591,W,1,12,0.8,11.6,M,-31.6,M,,*60
$PYRTM,2024,124.503036102454,15.612683512593
$GPGGA,120421.00,3535.8986,N,12143.5595,W,1,12,0.8,11.2,M,-31.6,M,,*6C
$PYRTM,2024,124.503047688981,15.612695099120
$GPGGA,120422.00,3535.9007,N,12143.5598,W,1,12,0.8,11.0,M,-31.6,M,,*61
$PYRTM,2024,124.503055099248,15.612702509387
$GPGGA,120423.00,3535.9027,N,12143.5599,W,1,12,0.8,10.8,M,-31.6,M,,*6A
$PYRTM,2024,124.503070838090,15.612718248229
$GPGGA,120424.00,3535.9046,N,12143.5596,W,1,12,0.8,11.0,M,-31.6,M,,*6C
$PYRTM,2024,124.503082398588,15.612729808727
$GPGGA,120425.00,3535.9066,N,12143.5595,W,1,12,0.8,11.3,M,-31.6,M,,*6F
$PYRTM,2024,124.503089806319,15.612737216458
$GPGGA,120426.00,3535.9087,N,12143.5596,W,1,12,0.8,11.5,M,-31.6,M,,*66
$PYRTM,2024,124.503105547025,15.612752957164
$GPGGA,120427.00,3535.9109,N,12143.5600,W,1,12,0.8,11.2,M,-31.6,M,,*6B
$PYRTM,2024,124.503117134595,15.612764544734
$GPGGA,120428.00,3535.9131,N,12143.5604,W,1,12,0.8,11.0,M,-31.6,M,,*69
$PYRTM,2024,124.503124530035,15.612771940174
$GPGGA,120429.00,3535.9151,N,12143.5605,W,1,12,0.8,10.8,M,-31.6,M,,*66
$PYRTM,2024,124.503140298241,15.612787708380
$GPGGA,120430.00,3535.9169,N,12143.5602,W,1,12,0.8,11.1,M,-31.6,M,,*6A
$PYRTM,2024,124.503151845822,15.612799255961
$GPGGA,120431.00,3535.9189,N,12143.5597,W,1,12,0.8,11.7,M,-31.6,M,,*6C
$PYRTM,2024,124.503163434167,15.612810844306
$GPGGA,120432.00,3535.9213,N,12143.5598,W,1,12,0.5,11.3,M,-31.6,M,,*69
$PYRTM,2024,124.503174992847,15.612822402998
$GPGGA,120433.00,3535.9236,N,12143.5605,W,1,12,0.8,10.4,M,-31.6,M,,*63
$PYRTM,2024,124.503182399873,15.612829810012
$GPGGA,120434.00,3535.9255,N,12143.5613,W,1,12,0.5,10.3,M,-31.6,M,,*6C
$PYRTM,2024,124.503198140602,15.612845550741
$GPGGA,120435.00,3535.9274,N,12143.5611,W,1,12,0.5,11.0,M,-31.6,M,,*6E
$PYRTM,2024,124.503205547072,15.612852957199
$GPGGA,120436.00,3535.9294,N,12143.5603,W,1,12,0.5,11.8,M,-31.6,M,,*68
$PYRTM,2024,124.503221289086,15.612868699225
$GPGGA,120437.00,3535.9316,N,12143.5599,W,1,12,0.5,12.2,M,-31.6,M,,*6B
$PYRTM,2024,124.503232876123,15.612880286262
$GPGGA,120438.00,3535.9339,N,12143.5605,W,1,12,0.5,11.9,M,-31.6,M,,*67
$PYRTM,2024,124.503244436412,15.612891846551
$GPGGA,120439.00,3535.9359,N,12143.5614,W,1,12,0.5,11.5,M,-31.6,M,,*6C
$PYRTM,2024,124.503256025058,15.612903435197
$GPGGA,120440.00,3535.9376,N,12143.5616,W,1,12,0.5,11.7,M,-31.6,M,,*6F
$PYRTM,2024,124.503267585440,15.612914995579
$GPGGA,120441.00,3535.9396,N,12143.5609,W,1,12,0.5,12.0,M,-31.6,M,,*6A
$PYRTM,2024,124.503279172766,15.612926582905
$GPGGA,120442.00,3535.9417,N,12143.5602,W,1,12,0.5,11.7,M,-31.6,M,,*68
$PYRTM,2024,124.503290733681,15.612938143819
$GPGGA,120443.00,3535.9438,N,12143.5604,W,1,12,0.5,11.5,M,-31.6,M,,*60
$PYRTM,2024,124.503298142778,15.612945552928
$GPGGA,120444.00,3535.9456,N,12143.5613,W,1,12,0.5,11.7,M,-31.6,M,,*6B
$PYRTM,2024,124.503313882535,15.612961292674
$GPGGA,120445.00,3535.9475,N,12143.5619,W,1,12,0.5,11.9,M,-31.6,M,,*6F
$PYRTM,2024,124.503325483819,15.612972893958
$GPGGA,120446.00,3535.9496,N,12143.5618,W,1,12,0.5,11.7,M,-31.6,M,,*6E
$PYRTM,2024,124.503337031597,15.612984441736
$GPGGA,120447.00,3535.9516,N,12143.5614,W,1,12,0.5,11.5,M,-31.6,M,,*68
$PYRTM,2024,124.503348632118,15.612996042257
$GPGGA,120448.00,3535.9536,N,12143.5610,W,1,12,0.5,11.6,M,-31.6,M,,*62
$PYRTM,2024,124.503360179537,15.613007589688
$GPGGA,120449.00,3535.9556,N,12143.5611,W,1,12,0.5,12.0,M,-31.6,M,,*61
$PYRTM,2024,124.503371766562,15.613019176701
$GPGGA,120450.00,3535.9576,N,12143.5616,W,1,12,0.5,12.2,M,-31.6,M,,*6E
$PYRTM,2024,124.503379174132,15.613026584282
$GPGGA,120451.00,3535.9598,N,12143.5621,W,1,12,0.5,12.0,M,-31.6,M,,*69
$PYRTM,2024,124.503394917894,15.613042328032
$GPGGA,120452.00,3535.9618,N,12143.5621,W,1,12,0.5,11.9,M,-31.6,M,,*6B
$PYRTM,2024,124.503406476817,15.613053886956
$GPGGA,120453.00,3535.9638,N,12143.5616,W,1,12,0.5,12.0,M,-31.6,M,,*66
$PYRTM,2024,124.503418062396,15.613065472535
$GPGGA,120454.00,3535.9660,N,12143.5615,W,1,12,0.5,11.8,M,-31.6,M,,*64
$PYRTM,2024,124.503429631076,15.613077041215
$GPGGA,120455.00,3535.9681,N,12143.5618,W,1,12,0.5,11.4,M,-31.6,M,,*6B
$PYRTM,2024,124.503441211007,15.613088621146
$GPGGA,120456.00,3535.9700,N,12143.5621,W,1,12,0.5,11.4,M,-31.6,M,,*6A
$PYRTM,2024,124.503452770926,15.613100181065
$GPGGA,120457.00,3535.9719,N,12143.5620,W,1,12,0.5,11.8,M,-31.6,M,,*6E
$PYRTM,2024,124.503464358819,15.613111768958
$GPGGA,120458.00,3535.9739,N,12143.5618,W,1,12,0.5,11.5,M,-31.6,M,,*65
$PYRTM,2024,124.503475920544,15.613123330683
$GPGGA,120459.00,3535.9761,N,12143.5617,W,1,12,0.5,11.0,M,-31.6,M,,*63
$PYRTM,2024,124.503487510914,15.613134921053
$GPGGA,120500.00,3535.9780,N,12143.5620,W,1,12,0.5,10.9,M,-31.6,M,,*6D
$PYRTM,2024,124.503499070046,15.613146480185
$GPGGA,120501.00,3535.9799,N,12143.5621,W,1,12,0.5,11.3,M,-31.6,M,,*6E
$PYRTM,2024,124.503510659375,15.613158069514
$GPGGA,120502.00,3535.9819,N,12143.5619,W,1,12,0.5,11.8,M,-31.6,M,,*6A
$PYRTM,2024,124.503518051366,15.613165461505
$GPGGA,120503.00,3535.9839,N,12143.5619,W,1,12,0.5,11.9,M,-31.6,M,,*68
$PYRTM,2024,124.503533805255,15.613181215394
$GPGGA,120504.00,3535.9861,N,12143.5620,W,1,12,0.5,11.6,M,-31.6,M,,*67
$PYRTM,2024,124.503545365972,15.613192776111
$GPGGA,120505.00,3535.9883,N,12143.5621,W,1,12,0.5,11.0,M,-31.6,M,,*6D
$PYRTM,2024,124.503552773102,15.613200183252
$GPGGA,120506.00,3535.9902,N,12143.5622,W,1,12,0.5,10.6,M,-31.6,M,,*62
$PYRTM,2024,124.503564476053,15.613211886192
$GPGGA,120507.00,3535.9919,N,12143.5619,W,1,12,0.5,11.5,M,-31.6,M,,*63
$PYRTM,2024,124.503580102697,15.613227512836
$GPGGA,120508.00,3535.9938,N,12143.5615,W,1,12,0.5,12.2,M,-31.6,M,,*67
$PYRTM,2024,124.503591662604,15.613239072743
$GPGGA,120509.00,3535.9962,N,12143.5617,W,1,12,0.5,11.8,M,-31.6,M,,*62
$PYRTM,2024,124.503603250255,15.613250660394
$GPGGA,120510.00,3535.9983,N,12143.5624,W,1,12,0.5,11.3,M,-31.6,M,,*6E
$PYRTM,2024,124.503610645058,15.613258055197
$GPGGA,120511.00,3536.0000,N,12143.5625,W,1,12,0.5,11.8,M,-31.6,M,,*6D
$PYRTM,2024,124.503626397905,15.613273808044
$GPGGA,120512.00,3536.0019,N,12143.5617,W,1,12,0.5,12.3,M,-31.6,M,,*6F
$PYRTM,2024,124.503637960336,15.613285370475
$GPGGA,120513.00,3536.0041,N,12143.5609,W,1,12,0.5,12.3,M,-31.6,M,,*6C
$PYRTM,2024,124.503649561354,15.613296971493
$GPGGA,120514.00,3536.0062,N,12143.5611,W,1,12,0.5,11.5,M,-31.6,M,,*66
$PYRTM,2024,124.503661107199,15.613308517338
$GPGGA,120515.00,3536.0081,N,12143.5618,W,1,12,0.5,10.9,M,-31.6,M,,*6E
$PYRTM,2024,124.503672697535,15.613320107674
$GPGGA,120516.00,3536.0099,N,12143.5619,W,1,12,0.5,10.8,M,-31.6,M,,*64
$PYRTM,2024,124.503684255278,15.613331665417
$GPGGA,120517.00,3536.0119,N,12143.5614,W,1,12,0.5,10.8,M,-31.6,M,,*61
$PYRTM,2024,124.503691663148,15.613339073299
$GPGGA,120518.00,3536.0138,N,12143.5610,W,1,12,0.5,10.9,M,-31.6,M,,*68
$PYRTM,2024,124.503707404155,15.613354814294
$GPGGA,120519.00,3536.0157,N,12143.5613,W,1,12,0.5,10.9,M,-31.6,M,,*63
$PYRTM,2024,124.503718991759,15.613366401898
$GPGGA,120520.00,3536.0177,N,12143.5619,W,1,12,0.5,11.1,M,-31.6,M,,*68
$PYRTM,2024,124.503726398576,15.613373808715
$GPGGA,120521.00,3536.0196,N,12143.5621,W,1,12,0.5,11.4,M,-31.6,M,,*68
$PYRTM,2024,124.503742139190,15.613389549329
$GPGGA,120522.00,3536.0215,N,12143.5615,W,1,12,0.5,12.1,M,-31.6,M,,*62
$PYRTM,2024,124.503753700694,15.613401110833
$GPGGA,120523.00,3536.0236,N,12143.5609,W,1,12,0.5,11.9,M,-31.6,M,,*64
$PYRTM,2024,124.503761108970,15.613408519109
$GPGGA,120524.00,3536.0256,N,12143.5611,W,1,12,0.5,11.4,M,-31.6,M,,*61
$PYRTM,2024,124.503776850081,15.613424260220
$GPGGA,120525.00,3536.0274,N,12143.5619,W,1,12,0.5,11.0,M,-31.6,M,,*6C
$PYRTM,2024,124.503784257049,15.613431667187
$GPGGA,120526.00,3536.0293,N,12143.5622,W,1,12,0.5,11.0,M,-31.6,M,,*6E
$PYRTM,2024,124.503799997442,15.613447407581
$GPGGA,120527.00,3536.0313,N,12143.5617,W,1,12,0.5,11.0,M,-31.6,M,,*60
$PYRTM,2024,124.503811587963,15.613458998102
$GPGGA,120528.00,3536.0333,N,12143.5611,W,1,12,0.5,11.3,M,-31.6,M,,*68
$PYRTM,2024,124.503823158322,15.613470568461
$GPGGA,120529.00,3536.0353,N,12143.5615,W,1,12,0.5,11.1,M,-31.6,M,,*69
$PYRTM,2024,124.503834735394,15.613482145532
$GPGGA,120530.00,3536.0373,N,12143.5625,W,1,12,0.5,10.9,M,-31.6,M,,*69
$PYRTM,2024,124.503846307373,15.613493717512
$GPGGA,120531.00,3536.0392,N,12143.5629,W,1,12,0.5,10.8,M,-31.6,M,,*6A
$PYRTM,2024,124.503857884271,15.613505294410
$GPGGA,120532.00,3536.0412,N,12143.5623,W,1,12,0.5,11.0,M,-31.6,M,,*65
$PYRTM,2024,124.503869456829,15.613516866968
$GPGGA,120533.00,3536.0432,N,12143.5617,W,1,12,0.5,10.9,M,-31.6,M,,*69
$PYRTM,2024,124.503881029549,15.613528439687
$GPGGA,120534.00,3536.0453,N,12143.5619,W,1,12,0.5,10.8,M,-31.6,M,,*66
$PYRTM,2024,124.503892598438,15.613540008576
$GPGGA,120535.00,3536.0471,N,12143.5626,W,1,12,0.5,10.8,M,-31.6,M,,*6B
$PYRTM,2024,124.503904179444,15.613551589595
$GPGGA,120536.00,3536.0490,N,12143.5630,W,1,12,0.5,10.9,M,-31.6,M,,*61
$PYRTM,2024,124.503915752940,15.613563163079
$GPGGA,120537.00,3536.0510,N,12143.5629,W,1,12,0.5,10.8,M,-31.6,M,,*60
$PYRTM,2024,124.503923146331,15.613570556470
$GPGGA,120538.00,3536.0531,N,12143.5626,W,1,12,0.5,10.5,M,-31.6,M,,*6E
$PYRTM,2024,124.503941780660,15.613589190799
$GPGGA,120539.00,3536.0551,N,12143.5625,W,1,12,0.5,10.4,M,-31.6,M,,*6B
$PYRTM,2024,124.503950474132,15.613597884271
$GPGGA,120540.00,3536.0569,N,12143.5628,W,1,12,0.5,10.9,M,-31.6,M,,*6E
$PYRTM,2024,124.503957870590,15.613605280729
$GPGGA,120541.00,3536.0589,N,12143.5632,W,1,12,0.5,11.5,M,-31.6,M,,*67
$PYRTM,2024,124.503973637870,15.613621048009
$GPGGA,120542.00,3536.0610,N,12143.5633,W,1,12,0.5,11.2,M,-31.6,M,,*61
$PYRTM,2024,124.503985197801,15.613632607940
$GPGGA,120543.00,3536.0632,N,12143.5631,W,1,12,0.5,11.0,M,-31.6,M,,*60
$PYRTM,2024,124.503996785069,15.613644195208
$GPGGA,120544.00,3536.0652,N,12143.5629,W,1,12,0.5,10.9,M,-31.6,M,,*60
$PYRTM,2024,124.504008340440,15.613655750579
$GPGGA,120545.00,3536.0671,N,12143.5632,W,1,12,0.5,11.0,M,-31.6,M,,*62
$PYRTM,2024,124.504015740069,15.613663150208
$GPGGA,120546.00,3536.0690,N,12143.5635,W,1,12,0.5,11.3,M,-31.6,M,,*6A
$PYRTM,2024,124.504031493600,15.613678903738
$GPGGA,120547.00,3536.0711,N,12143.5635,W,1,12,0.5,11.4,M,-31.6,M,,*64
$PYRTM,2024,124.504043070648,15.613690480787
$GPGGA,120548.00,3536.0733,N,12143.5634,W,1,12,0.5,11.4,M,-31.6,M,,*6A
$PYRTM,2024,124.504054641516,15.613702051655
$GPGGA,120549.00,3536.0753,N,12143.5637,W,1,12,0.5,10.9,M,-31.6,M,,*62
$PYRTM,2024,124.504066217801,15.613713627940
$GPGGA,120550.00,3536.0771,N,12143.5643,W,1,12,0.5,11.1,M,-31.6,M,,*60
$PYRTM,2024,124.504073626366,15.613721036505
$GPGGA,120551.00,3536.0790,N,12143.5645,W,1,12,0.5,11.3,M,-31.6,M,,*6A
$PYRTM,2024,124.504089365359,15.613736775498
$GPGGA,120552.00,3536.0811,N,12143.5643,W,1,12,0.5,11.4,M,-31.6,M,,*6E
$PYRTM,2024,124.504100941551,15.613748351690
$GPGGA,120553.00,3536.0833,N,12143.5641,W,1,12,0.5,10.8,M,-31.6,M,,*60
$PYRTM,2024,124.504112512512,15.613759922650
$GPGGA,120554.00,3536.0854,N,12143.5645,W,1,12,0.5,10.4,M,-31.6,M,,*6E
$PYRTM,2024,124.504124086725,15.613771496863
$GPGGA,120555.00,3536.0871,N,12143.5648,W,1,12,0.5,10.8,M,-31.6,M,,*69
$PYRTM,2024,124.504131482141,15.613778892280
$GPGGA,120556.00,3536.0890,N,12143.5648,W,1,12,0.5,11.3,M,-31.6,M,,*6F
$PYRTM,2024,124.504147234410,15.613794644549
$GPGGA,120557.00,3536.0911,N,12143.5648,W,1,12,0.5,11.3,M,-31.6,M,,*66
$PYRTM,2024,124.504158823380,15.613806233519
$GPGGA,120558.00,3536.0933,N,12143.5650,W,1,12,0.5,11.0,M,-31.6,M,,*63
$PYRTM,2024,124.504170384190,15.613817794329
$GPGGA,120559.00,3536.0952,N,12143.5653,W,1,12,0.5,10.8,M,-31.6,M,,*6F
$PYRTM,2024,124.504181960347,15.613829370486
$GPGGA,120600.00,3536.0971,N,12143.5653,W,1,12,0.5,11.1,M,-31.6,M,,*69
$PYRTM,2024,124.504189352616,15.613836762755
$GPGGA,120601.00,3536.0991,N,12143.5650,W,1,12,0.5,11.4,M,-31.6,M,,*60
$PYRTM,2024,124.504205105197,15.613852515336
$GPGGA,120602.00,3536.1011,N,12143.5649,W,1,12,0.5,11.7,M,-31.6,M,,*68
$PYRTM,2024,124.504212417477,15.613859827616
$GPGGA,120603.00,3536.1031,N,12143.5651,W,1,12,0.5,11.7,M,-31.6,M,,*62
$PYRTM,2024,124.504228254907,15.613875665058
$GPGGA,120604.00,3536.1051,N,12143.5656,W,1,12,0.5,11.5,M,-31.6,M,,*66
$PYRTM,2024,124.504239827824,15.613887237963
$GPGGA,120605.00,3536.1071,N,12143.5658,W,1,12,0.5,11.4,M,-31.6,M,,*6A
$PYRTM,2024,124.504251403819,15.613898813958
$GPGGA,120606.00,3536.1091,N,12143.5656,W,1,12,0.5,11.3,M,-31.6,M,,*6E
$PYRTM,2024,124.504262976412,15.613910386551
$GPGGA,120607.00,3536.1111,N,12143.5653,W,1,12,0.5,11.4,M,-31.6,M,,*64
$PYRTM,2024,124.504274551563,15.613921961701
$GPGGA,120608.00,3536.1131,N,12143.5655,W,1,12,0.5,11.6,M,-31.6,M,,*6D
$PYRTM,2024,124.504281946250,15.613929356389
$GPGGA,120609.00,3536.1153,N,12143.5660,W,1,12,0.5,11.2,M,-31.6,M,,*6A
$PYRTM,2024,124.504300593044,15.613948003183
$GPGGA,120610.00,3536.1174,N,12143.5664,W,1,12,0.5,10.7,M,-31.6,M,,*67
$PYRTM,2024,124.504312155197,15.613959565347
$GPGGA,120611.00,3536.1194,N,12143.5660,W,1,12,0.5,10.7,M,-31.6,M,,*6C
$PYRTM,2024,124.504323646285,15.613971056424
$GPGGA,120612.00,3536.1213,N,12143.5655,W,1,12,0.5,11.1,M,-31.6,M,,*62
$PYRTM,2024,124.504332421076,15.613979831215
$GPGGA,120613.00,3536.1234,N,12143.5654,W,1,12,0.5,11.0,M,-31.6,M,,*66
$PYRTM,2024,124.504344010347,15.613991420486
$GPGGA,120614.00,3536.1255,N,12143.5659,W,1,12,0.5,10.2,M,-31.6,M,,*68
$PYRTM,2024,124.504355571470,15.614002981609
$GPGGA,120615.00,3536.1275,N,12143.5664,W,1,12,0.5,10.3,M,-31.6,M,,*64
$PYRTM,2024,124.504362965637,15.614010375787
$GPGGA,120616.00,3536.1294,N,12143.5664,W,1,12,0.5,10.9,M,-31.6,M,,*62
$PYRTM,2024,124.504378718125,15.614026128275
$GPGGA,120617.00,3536.1314,N,12143.5659,W,1,12,0.5,11.3,M,-31.6,M,,*6F
$PYRTM,2024,124.504390287396,15.614037697535
$GPGGA,120618.00,3536.1335,N,12143.5658,W,1,12,0.5,11.3,M,-31.6,M,,*62
$PYRTM,2024,124.504401865741,15.614049275880
$GPGGA,120619.00,3536.1358,N,12143.5663,W,1,12,0.5,10.9,M,-31.6,M,,*6B
$PYRTM,2024,124.504413440532,15.614060850671
$GPGGA,120620.00,3536.1378,N,12143.5671,W,1,12,0.5,10.8,M,-31.6,M,,*61
$PYRTM,2024,124.504425015521,15.614072425660
$GPGGA,120621.00,3536.1396,N,12143.5672,W,1,12,0.5,11.3,M,-31.6,M,,*69
$PYRTM,2024,124.504436590787,15.614084000926
$GPGGA,120622.00,3536.1415,N,12143.5666,W,1,12,0.5,11.8,M,-31.6,M,,*68
$PYRTM,2024,124.504448158727,15.614095568866
$GPGGA,120623.00,3536.1439,N,12143.5660,W,1,12,0.5,11.0,M,-31.6,M,,*69
$PYRTM,2024,124.504459737766,15.614107147905
$GPGGA,120624.00,3536.1461,N,12143.5663,W,1,12,0.5,10.6,M,-31.6,M,,*67
$PYRTM,2024,124.504471311933,15.614118722072
$GPGGA,120625.00,3536.1479,N,12143.5671,W,1,12,0.5,10.8,M,-31.6,M,,*62
$PYRTM,2024,124.504478706655,15.614126116794
$GPGGA,120626.00,3536.1497,N,12143.5675,W,1,12,0.5,11.1,M,-31.6,M,,*6D
$PYRTM,2024,124.504494460162,15.614141870301
$GPGGA,120627.00,3536.1518,N,12143.5672,W,1,12,0.5,11.1,M,-31.6,M,,*6D
$PYRTM,2024,124.504506041956,15.614153452095
$GPGGA,120628.00,3536.1538,N,12143.5668,W,1,12,0.5,11.1,M,-31.6,M,,*6B
$PYRTM,2024,124.504513435370,15.614160845509
$GPGGA,120629.00,3536.1557,N,12143.5668,W,1,12,0.5,11.5,M,-31.6,M,,*67
$PYRTM,2024,124.504529182130,15.614176592269
$GPGGA,120630.00,3536.1577,N,12143.5672,W,1,12,0.5,11.8,M,-31.6,M,,*6B
$PYRTM,2024,124.504536589491,15.614183999618
$GPGGA,120631.00,3536.1596,N,12143.5676,W,1,12,0.5,11.7,M,-31.6,M,,*6E
$PYRTM,2024,124.504552332512,15.614199742650
$GPGGA,120632.00,3536.1615,N,12143.5678,W,1,12,0.5,11.7,M,-31.6,M,,*6B
$PYRTM,2024,124.504563906192,15.614211316331
$GPGGA,120633.00,3536.1634,N,12143.5675,W,1,12,0.5,11.6,M,-31.6,M,,*65
$PYRTM,2024,124.504575480035,15.614222890174
$GPGGA,120634.00,3536.1655,N,12143.5673,W,1,12,0.5,11.3,M,-31.6,M,,*66
$PYRTM,2024,124.504587053194,15.614234463333
$GPGGA,120635.00,3536.1674,N,12143.5676,W,1,12,0.5,11.4,M,-31.6,M,,*66
$PYRTM,2024,124.504594448727,15.614241858866
$GPGGA,120636.00,3536.1693,N,12143.5679,W,1,12,0.5,11.9,M,-31.6,M,,*6E
$PYRTM,2024,124.504610202257,15.614257612407
$GPGGA,120637.00,3536.1713,N,12143.5681,W,1,12,0.5,12.0,M,-31.6,M,,*6B
$PYRTM,2024,124.504621785718,15.614269195856
$GPGGA,120638.00,3536.1734,N,12143.5683,W,1,12,0.5,12.2,M,-31.6,M,,*61
$PYRTM,2024,124.504633353264,15.614280763403
$GPGGA,120639.00,3536.1754,N,12143.5682,W,1,12,0.5,11.9,M,-31.6,M,,*6F
$PYRTM,2024,124.504640744352,15.614288154491
$GPGGA,120640.00,3536.1774,N,12143.5679,W,1,12,0.5,12.0,M,-31.6,M,,*6D
$PYRTM,2024,124.504659392801,15.614306802940
$GPGGA,120641.00,3536.1794,N,12143.5679,W,1,12,0.5,12.3,M,-31.6,M,,*61
$PYRTM,2024,124.504668090706,15.614315500845
$GPGGA,120642.00,3536.1815,N,12143.5682,W,1,12,0.5,12.1,M,-31.6,M,,*62
$PYRTM,2024,124.504679648137,15.614327058287
$GPGGA,120643.00,3536.1836,N,12143.5687,W,1,12,0.5,11.7,M,-31.6,M,,*62
$PYRTM,2024,124.504691238542,15.614338648681
$GPGGA,120644.00,3536.1855,N,12143.5689,W,1,12,0.5,11.4,M,-31.6,M,,*6D
$PYRTM,2024,124.504702795590,15.614350205729
$GPGGA,120645.00,3536.1874,N,12143.5685,W,1,12,0.5,11.8,M,-31.6,M,,*6F
$PYRTM,2024,124.504714368438,15.614361778576
$GPGGA,120646.00,3536.1895,N,12143.5682,W,1,12,0.5,12.0,M,-31.6,M,,*6F
$PYRTM,2024,124.504725942558,15.614373352697
$GPGGA,120647.00,3536.1915,N,12143.5685,W,1,12,0.5,12.0,M,-31.6,M,,*60
$PYRTM,2024,124.504733337604,15.614380747743
$GPGGA,120648.00,3536.1937,N,12143.5692,W,1,12,0.5,11.6,M,-31.6,M,,*6C
$PYRTM,2024,124.504749093218,15.614396503356
$GPGGA,120649.00,3536.1957,N,12143.5696,W,1,12,0.5,11.3,M,-31.6,M,,*6A
$PYRTM,2024,124.504760676308,15.614408086447
$GPGGA,120650.00,3536.1975,N,12143.5692,W,1,12,0.5,11.9,M,-31.6,M,,*6C
$PYRTM,2024,124.504772234757,15.614419644896
$GPGGA,120651.00,3536.1995,N,12143.5686,W,1,12,0.5,12.2,M,-31.6,M,,*6E
$PYRTM,2024,124.504783824618,15.614431234757
$GPGGA,120652.00,3536.2017,N,12143.5687,W,1,12,0.5,11.8,M,-31.6,M,,*65
$PYRTM,2024,124.504791092396,15.614438502535
$GPGGA,120653.00,3536.2039,N,12143.5696,W,1,12,0.5,11.0,M,-31.6,M,,*60
$PYRTM,2024,124.504806973993,15.614454384132
$GPGGA,120654.00,3536.2057,N,12143.5704,W,1,12,0.5,11.1,M,-31.6,M,,*64
$PYRTM,2024,124.504818536979,15.614465947118
$GPGGA,120655.00,3536.2075,N,12143.5702,W,1,12,0.5,11.7,M,-31.6,M,,*65
$PYRTM,2024,124.504830137303,15.614477547442
$GPGGA,120656.00,3536.2097,N,12143.5695,W,1,12,0.5,12.1,M,-31.6,M,,*60
$PYRTM,2024,124.504841679190,15.614489089329
$GPGGA,120657.00,3536.2119,N,12143.5693,W,1,12,0.5,11.8,M,-31.6,M,,*6A
$PYRTM,2024,124.504853258310,15.614500668449
$GPGGA,120658.00,3536.2139,N,12143.5701,W,1,12,0.5,11.6,M,-31.6,M,,*63
$PYRTM,2024,124.504864832778,15.614512242917
$GPGGA,120659.00,3536.2157,N,12143.5709,W,1,12,0.5,11.8,M,-31.6,M,,*6C
$PYRTM,2024,124.504876418970,15.614523829109
$GPGGA,120700.00,3536.2177,N,12143.5712,W,1,12,0.5,11.9,M,-31.6,M,,*68
$PYRTM,2024,124.504883815451,15.614531225590
$GPGGA,120701.00,3536.2198,N,12143.5707,W,1,12,0.5,11.9,M,-31.6,M,,*6C
$PYRTM,2024,124.504899556505,15.614546966644
$GPGGA,120702.00,3536.2217,N,12143.5704,W,1,12,0.5,11.9,M,-31.6,M,,*68
$PYRTM,2024,124.504906835741,15.614554245880
$GPGGA,120703.00,3536.2236,N,12143.5705,W,1,12,0.5,11.8,M,-31.6,M,,*6A
$PYRTM,2024,124.504922703993,15.614570114132
$GPGGA,120704.00,3536.2258,N,12143.5712,W,1,12,0.5,11.3,M,-31.6,M,,*68
$PYRTM,2024,124.504934278507,15.614581688646
$GPGGA,120705.00,3536.2278,N,12143.5719,W,1,12,0.5,10.9,M,-31.6,M,,*6B
$PYRTM,2024,124.504945866516,15.614593276655
$GPGGA,120706.00,3536.2295,N,12143.5718,W,1,12,0.5,11.3,M,-31.6,M,,*61
$PYRTM,2024,124.504957421470,15.614604831609
$GPGGA,120707.00,3536.2314,N,12143.5712,W,1,12,0.5,11.4,M,-31.6,M,,*65
$PYRTM,2024,124.504964823634,15.614612233785
$GPGGA,120708.00,3536.2335,N,12143.5709,W,1,12,0.5,11.4,M,-31.6,M,,*63
$PYRTM,2024,124.504980573877,15.614627984005
$GPGGA,120709.00,3536.2354,N,12143.5713,W,1,12,0.5,11.4,M,-31.6,M,,*6E
$PYRTM,2024,124.504992157674,15.614639567824
$GPGGA,120710.00,3536.2373,N,12143.5718,W,1,12,0.5,11.0,M,-31.6,M,,*6C
$PYRTM,2024,124.504999549988,15.614646960127
$GPGGA,120711.00,3536.2393,N,12143.5720,W,1,12,0.5,10.8,M,-31.6,M,,*61
$PYRTM,2024,124.505018193542,15.614665603681
$GPGGA,120712.00,3536.2411,N,12143.5719,W,1,12,0.5,10.6,M,-31.6,M,,*6B
$PYRTM,2024,124.505029760116,15.614677170255
$GPGGA,120713.00,3536.2428,N,12143.5716,W,1,12,0.5,11.2,M,-31.6,M,,*6A
$PYRTM,2024,124.505041231204,15.614688641343
$GPGGA,120714.00,3536.2445,N,12143.5714,W,1,12,0.5,11.8,M,-31.6,M,,*6E
$PYRTM,2024,124.505050019618,15.614697429757
$GPGGA,120715.00,3536.2465,N,12143.5717,W,1,12,0.5,11.3,M,-31.6,M,,*65
$PYRTM,2024,124.505061593403,15.614709003542
$GPGGA,120716.00,3536.2484,N,12143.5724,W,1,12,0.5,10.2,M,-31.6,M,,*69
$PYRTM,2024,124.505073163669,15.614720573808
$GPGGA,120717.00,3536.2500,N,12143.5729,W,1,12,0.5,9.9,M,-31.6,M,,*5B
$PYRTM,2024,124.505080562292,15.614727972431
$GPGGA,120718.00,3536.2514,N,12143.5725,W,1,12,0.5,10.4,M,-31.6,M,,*68
$PYRTM,2024,124.505096315683,15.614743725822
$GPGGA,120719.00,3536.2530,N,12143.5718,W,1,12,0.5,11.0,M,-31.6,M,,*64
$PYRTM,2024,124.505107890231,15.614755300370
$GPGGA,120720.00,3536.2547,N,12143.5718,W,1,12,0.5,10.9,M,-31.6,M,,*66
$PYRTM,2024,124.505119467269,15.614766877419
$GPGGA,120721.00,3536.2563,N,12143.5724,W,1,12,0.5,11.0,M,-31.6,M,,*66
$PYRTM,2024,124.505131039572,15.614778449711
$GPGGA,120722.00,3536.2578,N,12143.5731,W,1,12,0.5,10.9,M,-31.6,M,,*63
$PYRTM,2024,124.505138445509,15.614785855648
$GPGGA,120723.00,3536.2594,N,12143.5731,W,1,12,0.5,10.7,M,-31.6,M,,*6E
$PYRTM,2024,124.505154195162,15.614801605301
$GPGGA,120724.00,3536.2611,N,12143.5726,W,1,12,0.5,10.6,M,-31.6,M,,*60
$PYRTM,2024,124.505161588299,15.614808998437
$GPGGA,120725.00,3536.2627,N,12143.5722,W,1,12,0.5,10.8,M,-31.6,M,,*6E
$PYRTM,2024,124.505177342813,15.614824752951
$GPGGA,120726.00,3536.2642,N,12143.5723,W,1,12,0.5,11.2,M,-31.6,M,,*64
$PYRTM,2024,124.505188909676,15.614836319815
$GPGGA,120727.00,3536.2658,N,12143.5728,W,1,12,0.5,11.3,M,-31.6,M,,*64
$PYRTM,2024,124.505196304954,15.614843715093
$GPGGA,120728.00,3536.2675,N,12143.5731,W,1,12,0.5,11.2,M,-31.6,M,,*6D
$PYRTM,2024,124.505212059479,15.614859469618
$GPGGA,120729.00,3536.2690,N,12143.5730,W,1,12,0.5,11.3,M,-31.6,M,,*67
$PYRTM,2024,124.505223632639,15.614871042778
$GPGGA,120730.00,3536.2704,N,12143.5728,W,1,12,0.5,11.4,M,-31.6,M,,*6D
$PYRTM,2024,124.505235206840,15.614882616979
$GPGGA,120731.00,3536.2720,N,12143.5728,W,1,12,0.5,11.4,M,-31.6,M,,*6A
$PYRTM,2024,124.505246791794,15.614894201933
$GPGGA,120732.00,3536.2734,N,12143.5731,W,1,12,0.5,11.5,M,-31.6,M,,*65
$PYRTM,2024,124.505254183553,15.614901593692
$GPGGA,120733.00,3536.2748,N,12143.5733,W,1,12,0.5,11.8,M,-31.6,M,,*60
$PYRTM,2024,124.505265864155,15.614913274294
$GPGGA,120734.00,3536.2762,N,12143.5733,W,1,12,0.5,11.8,M,-31.6,M,,*6F
$PYRTM,2024,124.505284391771,15.614931801910
$GPGGA,120735.00,3536.2778,N,12143.5731,W,1,12,0.5,11.6,M,-31.6,M,,*69
$PYRTM,2024,124.505293076817,15.614940486956
$GPGGA,120736.00,3536.2791,N,12143.5730,W,1,12,0.5,11.6,M,-31.6,M,,*6C
$PYRTM,2024,124.505304651019,15.614952061157
$GPGGA,120737.00,3536.2804,N,12143.5731,W,1,12,0.5,11.7,M,-31.6,M,,*6E
$PYRTM,2024,124.505312045046,15.614959455185
$GPGGA,120738.00,3536.2819,N,12143.5734,W,1,12,0.5,11.6,M,-31.6,M,,*69
$PYRTM,2024,124.505327794896,15.614975205035
$GPGGA,120739.00,3536.2833,N,12143.5736,W,1,12,0.5,11.5,M,-31.6,M,,*61
$PYRTM,2024,124.505339382766,15.614986792905
$GPGGA,120740.00,3536.2846,N,12143.5736,W,1,12,0.5,11.7,M,-31.6,M,,*6F
$PYRTM,2024,124.505350942639,15.614998352778
$GPGGA,120741.00,3536.2859,N,12143.5733,W,1,12,0.5,11.9,M,-31.6,M,,*6B
$PYRTM,2024,124.505358342998,15.615005753137
$GPGGA,120742.00,3536.2873,N,12143.5731,W,1,12,0.5,12.0,M,-31.6,M,,*68
$PYRTM,2024,124.505376873519,15.615024283657
$GPGGA,120743.00,3536.2886,N,12143.5732,W,1,12,0.5,11.9,M,-31.6,M,,*6A
$PYRTM,2024,124.505388567535,15.615035977674
$GPGGA,120744.00,3536.2900,N,12143.5735,W,1,12,0.5,11.6,M,-31.6,M,,*6A
$PYRTM,2024,124.505397247222,15.615044657361
$GPGGA,120745.00,3536.2914,N,12143.5737,W,1,12,0.5,11.2,M,-31.6,M,,*68
$PYRTM,2024,124.505408819039,15.615056229190
$GPGGA,120746.00,3536.2926,N,12143.5737,W,1,12,0.5,11.3,M,-31.6,M,,*6B
$PYRTM,2024,124.505420390243,15.615067800382
$GPGGA,120747.00,3536.2937,N,12143.5733,W,1,12,0.5,11.9,M,-31.6,M,,*64
$PYRTM,2024,124.505427672813,15.615075082951
$GPGGA,120748.00,3536.2951,N,12143.5730,W,1,12,0.5,12.3,M,-31.6,M,,*61
$PYRTM,2024,124.505443540660,15.615090950799
$GPGGA,120749.00,3536.2966,N,12143.5732,W,1,12,0.5,12.0,M,-31.6,M,,*65
$PYRTM,2024,124.505455126887,15.615102537025
$GPGGA,120750.00,3536.2979,N,12143.5736,W,1,12,0.5,11.8,M,-31.6,M,,*6C
$PYRTM,2024,124.505466689850,15.615114099988
$GPGGA,120751.00,3536.2992,N,12143.5739,W,1,12,0.5,11.7,M,-31.6,M,,*68
$PYRTM,2024,124.505478288472,15.615125698611
$GPGGA,120752.00,3536.3004,N,12143.5737,W,1,12,0.5,11.5,M,-31.6,M,,*60
$PYRTM,2024,124.505485665810,15.615133075949
$GPGGA,120753.00,3536.3017,N,12143.5733,W,1,12,0.5,11.6,M,-31.6,M,,*64
$PYRTM,2024,124.505501419931,15.615148830069
$GPGGA,120754.00,3536.3029,N,12143.5733,W,1,12,0.5,11.7,M,-31.6,M,,*6F
$PYRTM,2024,124.505512988148,15.615160398287
$GPGGA,120755.00,3536.3041,N,12143.5736,W,1,12,0.5,11.8,M,-31.6,M,,*6A
$PYRTM,2024,124.505520380613,15.615167790752
$GPGGA,120756.00,3536.3053,N,12143.5739,W,1,12,0.5,12.0,M,-31.6,M,,*6E
$PYRTM,2024,124.505536133947,15.615183544086
$GPGGA,120757.00,3536.3064,N,12143.5740,W,1,12,0.5,12.1,M,-31.6,M,,*64
$PYRTM,2024,124.505547718692,15.615195128831
$GPGGA,120758.00,3536.3077,N,12143.5739,W,1,12,0.5,11.6,M,-31.6,M,,*63
$PYRTM,2024,124.505559279595,15.615206689734
$GPGGA,120759.00,3536.3090,N,12143.5739,W,1,12,0.5,11.0,M,-31.6,M,,*6D
$PYRTM,2024,124.505570856736,15.615218266875
$GPGGA,120800.00,3536.3101,N,12143.5740,W,1,12,0.5,10.9,M,-31.6,M,,*61
$PYRTM,2024,124.505582431262,15.615229841400
$GPGGA,120801.00,3536.3111,N,12143.5739,W,1,12,0.5,11.5,M,-31.6,M,,*62
$PYRTM,2024,124.505594005567,15.615241415706
$GPGGA,120802.00,3536.3123,N,12143.5737,W,1,12,0.5,12.4,M,-31.6,M,,*6C
$PYRTM,2024,124.505605575532,15.615252985671
$GPGGA,120803.00,3536.3137,N,12143.5737,W,1,12,0.5,12.4,M,-31.6,M,,*68
$PYRTM,2024,124.505617154838,15.615264564977
$GPGGA,120804.00,3536.3149,N,12143.5742,W,1,12,0.5,12.1,M,-31.6,M,,*61
$PYRTM,2024,124.505624557581,15.615271967720
$GPGGA,120805.00,3536.3161,N,12143.5748,W,1,12,0.5,11.6,M,-31.6,M,,*64
$PYRTM,2024,124.505636238935,15.615283649074
$GPGGA,120806.00,3536.3172,N,12143.5748,W,1,12,0.5,11.3,M,-31.6,M,,*60
$PYRTM,2024,124.505651876898,15.615299287049
$GPGGA,120807.00,3536.3184,N,12143.5744,W,1,12,0.5,11.5,M,-31.6,M,,*62
$PYRTM,2024,124.505659271852,15.615306681991
$GPGGA,120808.00,3536.3195,N,12143.5741,W,1,12,0.5,11.7,M,-31.6,M,,*6A
$PYRTM,2024,124.505675023958,15.615322434097
$GPGGA,120809.00,3536.3206,N,12143.5743,W,1,12,0.5,11.8,M,-31.6,M,,*6F
$PYRTM,2024,124.505686606782,15.615334016921
$GPGGA,120810.00,3536.3217,N,12143.5751,W,1,12,0.5,11.3,M,-31.6,M,,*6F
$PYRTM,2024,124.505698172755,15.615345582894
$GPGGA,120811.00,3536.3228,N,12143.5760,W,1,12,0.5,10.5,M,-31.6,M,,*67
$PYRTM,2024,124.505709759248,15.615357169387
$GPGGA,120812.00,3536.3238,N,12143.5762,W,1,12,0.5,10.4,M,-31.6,M,,*66
$PYRTM,2024,124.505717156562,15.615364566701
$GPGGA,120813.00,3536.3247,N,12143.5757,W,1,12,0.5,10.9,M,-31.6,M,,*64
$PYRTM,2024,124.505735684525,15.615383094664
$GPGGA,120814.00,3536.3259,N,12143.5752,W,1,12,0.5,11.1,M,-31.6,M,,*60
$PYRTM,2024,124.505744471250,15.615391881389
$GPGGA,120815.00,3536.3271,N,12143.5755,W,1,12,0.5,11.1,M,-31.6,M,,*6C
$PYRTM,2024,124.505756055046,15.615403465185
$GPGGA,120816.00,3536.3281,N,12143.5763,W,1,12,0.5,11.0,M,-31.6,M,,*64
$PYRTM,2024,124.505767618252,15.615415028403
$GPGGA,120817.00,3536.3290,N,12143.5773,W,1,12,0.5,11.0,M,-31.6,M,,*64
$PYRTM,2024,124.505775013380,15.615422423519
$GPGGA,120818.00,3536.3300,N,12143.5775,W,1,12,0.5,11.1,M,-31.6,M,,*64
$PYRTM,2024,124.505790766528,15.615438176667
$GPGGA,120819.00,3536.3309,N,12143.5769,W,1,12,0.5,11.5,M,-31.6,M,,*65
$PYRTM,2024,124.505802348009,15.615449758148
$GPGGA,120820.00,3536.3320,N,12143.5764,W,1,12,0.5,11.9,M,-31.6,M,,*65
$PYRTM,2024,124.505813908831,15.615461318970
$GPGGA,120821.00,3536.3333,N,12143.5769,W,1,12,0.5,11.6,M,-31.6,M,,*64
$PYRTM,2024,124.505825496065,15.615472906204
$GPGGA,120822.00,3536.3342,N,12143.5778,W,1,12,0.5,11.3,M,-31.6,M,,*64
$PYRTM,2024,124.505832890451,15.615480300590
$GPGGA,120823.00,3536.3350,N,12143.5782,W,1,12,0.5,11.5,M,-31.6,M,,*65
$PYRTM,2024,124.505848662512,15.615496072650
$GPGGA,120824.00,3536.3359,N,12143.5781,W,1,12,0.5,11.8,M,-31.6,M,,*65
$PYRTM,2024,124.505860211505,15.615507621644
$GPGGA,120825.00,3536.3370,N,12143.5781,W,1,12,0.5,11.6,M,-31.6,M,,*61
$PYRTM,2024,124.505871784514,15.615519194653
$GPGGA,120826.00,3536.3381,N,12143.5786,W,1,12,0.5,11.1,M,-31.6,M,,*6C
$PYRTM,2024,124.505883358981,15.615530769132
$GPGGA,120827.00,3536.3390,N,12143.5791,W,1,12,0.5,11.0,M,-31.6,M,,*6A
$PYRTM,2024,124.505894945150,15.615542355289
$GPGGA,120828.00,3536.3399,N,12143.5794,W,1,12,0.5,11.2,M,-31.6,M,,*6B
$PYRTM,2024,124.505906507431,15.615553917569
$GPGGA,120829.00,3536.3409,N,12143.5795,W,1,12,0.5,11.5,M,-31.6,M,,*62
$PYRTM,2024,124.505918092685,15.615565502824
$GPGGA,120830.00,3536.3419,N,12143.5798,W,1,12,0.5,11.3,M,-31.6,M,,*60
$PYRTM,2024,124.505929657315,15.615577067454
$GPGGA,120831.00,3536.3428,N,12143.5803,W,1,12,0.5,11.2,M,-31.6,M,,*6F
$PYRTM,2024,124.505941229803,15.615588639942
$GPGGA,120832.00,3536.3436,N,12143.5808,W,1,12,0.5,11.2,M,-31.6,M,,*68
$PYRTM,2024,124.505948632037,15.615596042176
$GPGGA,120833.00,3536.3446,N,12143.5809,W,1,12,0.5,11.4,M,-31.6,M,,*69
$PYRTM,2024,124.505964390868,15.615611801007
$GPGGA,120834.00,3536.3457,N,12143.5809,W,1,12,0.5,11.2,M,-31.6,M,,*68
$PYRTM,2024,124.505975953519,15.615623363657
$GPGGA,120835.00,3536.3467,N,12143.5815,W,1,12,0.5,11.2,M,-31.6,M,,*67
