$PYRTM,2024,127.416681793866,18.526329204005
$GPGGA,100000.00,3338.0231,N,11914.5443,W,1,10,0.8,10.8,M,-34.3,M,,*67
$PYRTM,2024,127.416693378993,18.526340789132
$GPGGA,100001.00,3338.0212,N,11914.5428,W,1,10,0.8,11.0,M,-34.3,M,,*63
$PYRTM,2024,127.416705068970,18.526352479109
$GPGGA,100002.00,3338.0192,N,11914.5416,W,1,10,0.8,11.1,M,-34.3,M,,*67
$PYRTM,2024,127.416716540880,18.526363951019
$GPGGA,100003.00,3338.0170,N,11914.5404,W,1,10,0.8,10.8,M,-34.3,M,,*61
$PYRTM,2024,127.416723922569,18.526371332708
$GPGGA,100004.00,3338.0149,N,11914.5389,W,1,10,0.8,10.5,M,-34.3,M,,*63
$PYRTM,2024,127.416739689965,18.526387100104
$GPGGA,100005.00,3338.0131,N,11914.5371,W,1,10,0.8,10.6,M,-34.3,M,,*69
$PYRTM,2024,127.416751238218,18.526398648356
$GPGGA,100006.00,3338.0113,N,11914.5354,W,1,10,0.8,10.9,M,-34.3,M,,*62
$PYRTM,2024,127.416762818935,18.526410229074
$GPGGA,100007.00,3338.0093,N,11914.5342,W,1,10,0.8,11.1,M,-34.3,M,,*64
$PYRTM,2024,127.416774384803,18.526421794942
$GPGGA,100008.00,3338.0070,N,11914.5334,W,1,10,0.8,11.0,M,-34.3,M,,*66
$PYRTM,2024,127.416781792593,18.526429202743
$GPGGA,100009.00,3338.0048,N,11914.5321,W,1,10,0.8,10.8,M,-34.3,M,,*61
$PYRTM,2024,127.416797534907,18.526444945046
$GPGGA,100010.00,3338.0029,N,11914.5303,W,1,10,0.8,10.9,M,-34.3,M,,*6F
$PYRTM,2024,127.416809121933,18.526456532072
$GPGGA,100011.00,3338.0012,N,11914.5285,W,1,10,0.8,11.2,M,-34.3,M,,*63
$PYRTM,2024,127.416820682801,18.526468092940
$GPGGA,100012.00,3337.9993,N,11914.5271,W,1,10,0.8,11.6,M,-34.3,M,,*69
$PYRTM,2024,127.416832263819,18.526479673958
$GPGGA,100013.00,3337.9970,N,11914.5260,W,1,10,0.8,11.5,M,-34.3,M,,*66
$PYRTM,2024,127.416843830394,18.526491240532
$GPGGA,100014.00,3337.9950,N,11914.5247,W,1,10,0.8,11.3,M,-34.3,M,,*60
$PYRTM,2024,127.416855417234,18.526502827373
$GPGGA,100015.00,3337.9932,N,11914.5231,W,1,10,0.8,11.2,M,-34.3,M,,*65
$PYRTM,2024,127.416866978877,18.526514389028
$GPGGA,100016.00,3337.9915,N,11914.5212,W,1,10,0.8,11.0,M,-34.3,M,,*60
$PYRTM,2024,127.416874385405,18.526521795544
$GPGGA,100017.00,3337.9897,N,11914.5195,W,1,10,0.8,10.8,M,-34.3,M,,*6F
$PYRTM,2024,127.416886077303,18.526533487442
$GPGGA,100018.00,3337.9877,N,11914.5183,W,1,10,0.8,10.5,M,-34.3,M,,*64
$PYRTM,2024,127.416901716238,18.526549126377
$GPGGA,100019.00,3337.9856,N,11914.5172,W,1,10,0.8,10.6,M,-34.3,M,,*6B
$PYRTM,2024,127.416913275880,18.526560686019
$GPGGA,100020.00,3337.9836,N,11914.5159,W,1,10,0.8,10.7,M,-34.3,M,,*6F
$PYRTM,2024,127.416924857488,18.526572267627
$GPGGA,100021.00,3337.9817,N,11914.5143,W,1,10,0.8,10.7,M,-34.3,M,,*66
$PYRTM,2024,127.416932268796,18.526579678935
$GPGGA,100022.00,3337.9799,N,11914.5128,W,1,10,0.8,10.8,M,-34.3,M,,*6E
$PYRTM,2024,127.416950903576,18.526598313715
$GPGGA,100023.00,3337.9779,N,11914.5114,W,1,10,0.8,10.8,M,-34.3,M,,*6E
$PYRTM,2024,127.416959570914,18.526606981053
$GPGGA,100024.00,3337.9758,N,11914.5101,W,1,10,0.8,10.8,M,-34.3,M,,*6E
$PYRTM,2024,127.416971152894,18.526618563032
$GPGGA,100025.00,3337.9738,N,11914.5087,W,1,10,0.8,10.9,M,-34.3,M,,*67
$PYRTM,2024,127.416978553623,18.526625963773
$GPGGA,100026.00,3337.9719,N,11914.5073,W,1,10,0.8,11.1,M,-34.3,M,,*65
$PYRTM,2024,127.416990253831,18.526637663970
$GPGGA,100027.00,3337.9699,N,11914.5060,W,1,10,0.8,11.0,M,-34.3,M,,*6E
$PYRTM,2024,127.417005867292,18.526653277431
$GPGGA,100028.00,3337.9679,N,11914.5045,W,1,10,0.8,10.9,M,-34.3,M,,*60
$PYRTM,2024,127.417017454826,18.526664864965
$GPGGA,100029.00,3337.9659,N,11914.5028,W,1,10,0.8,11.0,M,-34.3,M,,*60
$PYRTM,2024,127.417029015127,18.526676425266
$GPGGA,100030.00,3337.9641,N,11914.5012,W,1,10,0.8,11.3,M,-34.3,M,,*6B
$PYRTM,2024,127.417040604560,18.526688014699
$GPGGA,100031.00,3337.9622,N,11914.4998,W,1,10,0.8,11.6,M,-34.3,M,,*60
$PYRTM,2024,127.417052164271,18.526699574421
$GPGGA,100032.00,3337.9601,N,11914.4985,W,1,10,0.8,11.5,M,-34.3,M,,*6D
$PYRTM,2024,127.417059571516,18.526706981655
$GPGGA,100033.00,3337.9580,N,11914.4972,W,1,10,0.8,11.0,M,-34.3,M,,*6B
$PYRTM,2024,127.417075312616,18.526722722755
$GPGGA,100034.00,3337.9560,N,11914.4956,W,1,10,0.8,10.8,M,-34.3,M,,*6D
$PYRTM,2024,127.417086901447,18.526734311597
$GPGGA,100035.00,3337.9542,N,11914.4939,W,1,10,0.8,10.8,M,-34.3,M,,*65
$PYRTM,2024,127.417098460162,18.526745870301
$GPGGA,100036.00,3337.9523,N,11914.4924,W,1,10,0.8,10.9,M,-34.3,M,,*6C
$PYRTM,2024,127.417110048345,18.526757458484
$GPGGA,100037.00,3337.9503,N,11914.4912,W,1,10,0.8,11.0,M,-34.3,M,,*62
$PYRTM,2024,127.417121608600,18.526769018738
$GPGGA,100038.00,3337.9483,N,11914.4901,W,1,10,0.8,10.8,M,-34.3,M,,*6F
$PYRTM,2024,127.417129016204,18.526776426354
$GPGGA,100039.00,3337.9464,N,11914.4886,W,1,10,0.8,10.5,M,-34.3,M,,*64
$PYRTM,2024,127.417144758009,18.526792168148
$GPGGA,100040.00,3337.9447,N,11914.4868,W,1,10,0.8,10.5,M,-34.3,M,,*6B
$PYRTM,2024,127.417156343750,18.526803753889
$GPGGA,100041.00,3337.9428,N,11914.4852,W,1,10,0.8,10.7,M,-34.3,M,,*68
$PYRTM,2024,127.417163739363,18.526811149502
$GPGGA,100042.00,3337.9408,N,11914.4840,W,1,10,0.8,10.8,M,-34.3,M,,*65
$PYRTM,2024,127.417179492523,18.526826902662
$GPGGA,100043.00,3337.9386,N,11914.4829,W,1,10,0.8,11.0,M,-34.3,M,,*63
$PYRTM,2024,127.417191053414,18.526838463553
$GPGGA,100044.00,3337.9365,N,11914.4815,W,1,10,0.8,11.3,M,-34.3,M,,*65
$PYRTM,2024,127.417202640162,18.526850050301
$GPGGA,100045.00,3337.9347,N,11914.4797,W,1,10,0.8,11.5,M,-34.3,M,,*67
$PYRTM,2024,127.417214203183,18.526861613322
$GPGGA,100046.00,3337.9328,N,11914.4781,W,1,10,0.8,11.5,M,-34.3,M,,*6A
$PYRTM,2024,127.417225792778,18.526873202917
$GPGGA,100047.00,3337.9308,N,11914.4769,W,1,10,0.8,11.0,M,-34.3,M,,*6A
$PYRTM,2024,127.417237351100,18.526884761238
$GPGGA,100048.00,3337.9289,N,11914.4756,W,1,10,0.8,10.7,M,-34.3,M,,*67
$PYRTM,2024,127.417248937095,18.526896347234
$GPGGA,100049.00,3337.9271,N,11914.4742,W,1,10,0.8,10.6,M,-34.3,M,,*65
$PYRTM,2024,127.417260499444,18.526907909583
$GPGGA,100050.00,3337.9253,N,11914.4726,W,1,10,0.8,10.6,M,-34.3,M,,*6F
$PYRTM,2024,127.417272080868,18.526919491007
$GPGGA,100051.00,3337.9233,N,11914.4711,W,1,10,0.8,10.7,M,-34.3,M,,*6D
$PYRTM,2024,127.417283646146,18.526931056285
$GPGGA,100052.00,3337.9213,N,11914.4699,W,1,10,0.8,11.2,M,-34.3,M,,*69
$PYRTM,2024,127.417291053900,18.526938464039
$GPGGA,100053.00,3337.9193,N,11914.4686,W,1,10,0.8,11.6,M,-34.3,M,,*69
$PYRTM,2024,127.417309726435,18.526957136574
$GPGGA,100054.00,3337.9172,N,11914.4670,W,1,10,0.8,11.6,M,-34.3,M,,*68
$PYRTM,2024,127.417318384352,18.526965794491
$GPGGA,100055.00,3337.9153,N,11914.4653,W,1,10,0.8,11.4,M,-34.3,M,,*69
$PYRTM,2024,127.417329942222,18.526977352373
$GPGGA,100056.00,3337.9135,N,11914.4638,W,1,10,0.8,11.1,M,-34.3,M,,*62
$PYRTM,2024,127.417341529653,18.526988939803
$GPGGA,100057.00,3337.9117,N,11914.4624,W,1,10,0.8,10.9,M,-34.3,M,,*67
$PYRTM,2024,127.417353090880,18.527000501019
$GPGGA,100058.00,3337.9098,N,11914.4611,W,1,10,0.8,10.6,M,-34.3,M,,*67
$PYRTM,2024,127.417360496238,18.527007906377
$GPGGA,100059.00,3337.9079,N,11914.4598,W,1,10,0.8,10.5,M,-34.3,M,,*68
$PYRTM,2024,127.417376238958,18.527023649097
$GPGGA,100100.00,3337.9059,N,11914.4585,W,1,10,0.8,10.4,M,-34.3,M,,*6A
$PYRTM,2024,127.417387830475,18.527035240613
$GPGGA,100101.00,3337.9040,N,11914.4571,W,1,10,0.8,10.6,M,-34.3,M,,*6A
$PYRTM,2024,127.417399387188,18.527046797326
$GPGGA,100102.00,3337.9022,N,11914.4554,W,1,10,0.8,11.1,M,-34.3,M,,*6C
$PYRTM,2024,127.417410978160,18.527058388299
$GPGGA,100103.00,3337.9003,N,11914.4538,W,1,10,0.8,11.8,M,-34.3,M,,*6D
$PYRTM,2024,127.417422536933,18.527069947072
$GPGGA,100104.00,3337.8983,N,11914.4524,W,1,10,0.8,12.2,M,-34.3,M,,*6E
$PYRTM,2024,127.417434118576,18.527081528715
$GPGGA,100105.00,3337.8962,N,11914.4513,W,1,10,0.8,12.0,M,-34.3,M,,*66
$PYRTM,2024,127.417445684468,18.527093094606
$GPGGA,100106.00,3337.8943,N,11914.4498,W,1,10,0.8,11.5,M,-34.3,M,,*62
$PYRTM,2024,127.417453091852,18.527100501991
$GPGGA,100107.00,3337.8927,N,11914.4480,W,1,10,0.8,11.0,M,-34.3,M,,*6D
$PYRTM,2024,127.417468831991,18.527116242141
$GPGGA,100108.00,3337.8911,N,11914.4463,W,1,10,0.8,10.5,M,-34.3,M,,*6E
$PYRTM,2024,127.417480413831,18.527127823970
$GPGGA,100109.00,3337.8892,N,11914.4451,W,1,10,0.8,10.4,M,-34.3,M,,*65
$PYRTM,2024,127.417487814734,18.527135224873
$GPGGA,100110.00,3337.8872,N,11914.4441,W,1,10,0.8,10.5,M,-34.3,M,,*63
$PYRTM,2024,127.417503569225,18.527150979363
$GPGGA,100111.00,3337.8852,N,11914.4429,W,1,10,0.8,10.6,M,-34.3,M,,*6D
$PYRTM,2024,127.417515127326,18.527162537465
$GPGGA,100112.00,3337.8832,N,11914.4415,W,1,10,0.8,10.7,M,-34.3,M,,*66
$PYRTM,2024,127.417526720069,18.527174130208
$GPGGA,100113.00,3337.8813,N,11914.4399,W,1,10,0.8,10.8,M,-34.3,M,,*68
$PYRTM,2024,127.417538277141,18.527185687280
$GPGGA,100114.00,3337.8795,N,11914.4384,W,1,10,0.8,11.1,M,-34.3,M,,*6A
$PYRTM,2024,127.417549867188,18.527197277326
$GPGGA,100115.00,3337.8773,N,11914.4371,W,1,10,0.8,11.2,M,-34.3,M,,*6A
$PYRTM,2024,127.417557258356,18.527204668495
$GPGGA,100116.00,3337.8752,N,11914.4361,W,1,10,0.8,11.0,M,-34.3,M,,*69
$PYRTM,2024,127.417573011655,18.527220421794
$GPGGA,100117.00,3337.8731,N,11914.4348,W,1,10,0.8,10.6,M,-34.3,M,,*61
$PYRTM,2024,127.417584573623,18.527231983762
$GPGGA,100118.00,3337.8713,N,11914.4332,W,1,10,0.8,10.5,M,-34.3,M,,*60
$PYRTM,2024,127.417596159977,18.527243570116
$GPGGA,100119.00,3337.8697,N,11914.4316,W,1,10,0.8,10.8,M,-34.3,M,,*67
$PYRTM,2024,127.417607721192,18.527255131331
$GPGGA,100120.00,3337.8678,N,11914.4303,W,1,10,0.8,11.2,M,-34.3,M,,*63
$PYRTM,2024,127.417619308553,18.527266718692
$GPGGA,100121.00,3337.8656,N,11914.4293,W,1,10,0.8,11.4,M,-34.3,M,,*60
$PYRTM,2024,127.417630870486,18.527278280625
$GPGGA,100122.00,3337.8635,N,11914.4280,W,1,10,0.8,11.3,M,-34.3,M,,*63
$PYRTM,2024,127.417642471493,18.527289881644
$GPGGA,100123.00,3337.8617,N,11914.4265,W,1,10,0.8,11.3,M,-34.3,M,,*69
$PYRTM,2024,127.417649852037,18.527297262176
$GPGGA,100124.00,3337.8599,N,11914.4247,W,1,10,0.8,11.6,M,-34.3,M,,*6E
$PYRTM,2024,127.417668499525,18.527315909664
$GPGGA,100125.00,3337.8579,N,11914.4231,W,1,10,0.8,11.7,M,-34.3,M,,*61
$PYRTM,2024,127.417677167141,18.527324577280
$GPGGA,100126.00,3337.8559,N,11914.4219,W,1,10,0.8,11.4,M,-34.3,M,,*69
$PYRTM,2024,127.417688754618,18.527336164757
$GPGGA,100127.00,3337.8539,N,11914.4208,W,1,10,0.8,11.0,M,-34.3,M,,*6A
$PYRTM,2024,127.417700314838,18.527347724988
$GPGGA,100128.00,3337.8521,N,11914.4193,W,1,10,0.8,10.9,M,-34.3,M,,*65
$PYRTM,2024,127.417711901134,18.527359311273
$GPGGA,100129.00,3337.8504,N,11914.4176,W,1,10,0.8,11.0,M,-34.3,M,,*60
$PYRTM,2024,127.417723461979,18.527370872118
$GPGGA,100130.00,3337.8485,N,11914.4163,W,1,10,0.8,10.7,M,-34.3,M,,*62
$PYRTM,2024,127.417735050336,18.527382460486
$GPGGA,100131.00,3337.8464,N,11914.4153,W,1,10,0.8,10.3,M,-34.3,M,,*6B
$PYRTM,2024,127.417746614734,18.527394024873
$GPGGA,100132.00,3337.8443,N,11914.4142,W,1,10,0.8,10.3,M,-34.3,M,,*6D
$PYRTM,2024,127.417754018924,18.527401429063
$GPGGA,100133.00,3337.8425,N,11914.4127,W,1,10,0.8,10.7,M,-34.3,M,,*6B
$PYRTM,2024,127.417769757894,18.527417168032
$GPGGA,100134.00,3337.8407,N,11914.4111,W,1,10,0.8,10.9,M,-34.3,M,,*67
$PYRTM,2024,127.417781348206,18.527428758356
$GPGGA,100135.00,3337.8387,N,11914.4097,W,1,10,0.8,10.9,M,-34.3,M,,*66
$PYRTM,2024,127.417792908588,18.527440318738
$GPGGA,100136.00,3337.8367,N,11914.4084,W,1,10,0.8,10.9,M,-34.3,M,,*69
$PYRTM,2024,127.417804495486,18.527451905625
$GPGGA,100137.00,3337.8348,N,11914.4070,W,1,10,0.8,11.0,M,-34.3,M,,*66
$PYRTM,2024,127.417811903704,18.527459313843
$GPGGA,100138.00,3337.8330,N,11914.4055,W,1,10,0.8,10.9,M,-34.3,M,,*69
$PYRTM,2024,127.417827644282,18.527475054421
$GPGGA,100139.00,3337.8312,N,11914.4041,W,1,10,0.8,10.6,M,-34.3,M,,*62
$PYRTM,2024,127.417839204167,18.527486614306
$GPGGA,100140.00,3337.8293,N,11914.4028,W,1,10,0.8,10.3,M,-34.3,M,,*6E
$PYRTM,2024,127.417850791250,18.527498201389
$GPGGA,100141.00,3337.8275,N,11914.4012,W,1,10,0.8,10.1,M,-34.3,M,,*6C
$PYRTM,2024,127.417862351817,18.527509761956
$GPGGA,100142.00,3337.8257,N,11914.3997,W,1,10,0.8,10.1,M,-34.3,M,,*6C
$PYRTM,2024,127.417873942546,18.527521352685
$GPGGA,100143.00,3337.8237,N,11914.3986,W,1,10,0.8,10.3,M,-34.3,M,,*69
$PYRTM,2024,127.417885501146,18.527532911285
$GPGGA,100144.00,3337.8216,N,11914.3975,W,1,10,0.8,10.4,M,-34.3,M,,*66
$PYRTM,2024,127.417897086493,18.527544496632
$GPGGA,100145.00,3337.8196,N,11914.3961,W,1,10,0.8,10.5,M,-34.3,M,,*68
$PYRTM,2024,127.417908647465,18.527556057604
$GPGGA,100146.00,3337.8178,N,11914.3944,W,1,10,0.8,10.6,M,-34.3,M,,*6F
$PYRTM,2024,127.417920231296,18.527567641435
$GPGGA,100147.00,3337.8159,N,11914.3927,W,1,10,0.8,10.5,M,-34.3,M,,*6B
$PYRTM,2024,127.417927629977,18.527575040116
$GPGGA,100148.00,3337.8139,N,11914.3911,W,1,10,0.8,10.4,M,-34.3,M,,*66
$PYRTM,2024,127.417943382535,18.527590792674
$GPGGA,100149.00,3337.8119,N,11914.3900,W,1,10,0.8,10.5,M,-34.3,M,,*64
$PYRTM,2024,127.417954945069,18.527602355208
$GPGGA,100150.00,3337.8099,N,11914.3888,W,1,10,0.8,10.5,M,-34.3,M,,*64
$PYRTM,2024,127.417962354248,18.527609764387
$GPGGA,100151.00,3337.8079,N,11914.3874,W,1,10,0.8,10.4,M,-34.3,M,,*69
$PYRTM,2024,127.417978093275,18.527625503414
$GPGGA,100152.00,3337.8060,N,11914.3861,W,1,10,0.8,10.2,M,-34.3,M,,*60
$PYRTM,2024,127.417989682130,18.527637092269
$GPGGA,100153.00,3337.8040,N,11914.3847,W,1,10,0.8,10.1,M,-34.3,M,,*64
$PYRTM,2024,127.418001240336,18.527648650475
$GPGGA,100154.00,3337.8020,N,11914.3834,W,1,10,0.8,10.3,M,-34.3,M,,*63
$PYRTM,2024,127.418008647188,18.527656057326
$GPGGA,100155.00,3337.7999,N,11914.3820,W,1,10,0.8,10.7,M,-34.3,M,,*67
$PYRTM,2024,127.418027306308,18.527674716447
$GPGGA,100156.00,3337.7979,N,11914.3807,W,1,10,0.8,11.2,M,-34.3,M,,*6B
$PYRTM,2024,127.418035977419,18.527683387558
$GPGGA,100157.00,3337.7960,N,11914.3793,W,1,10,0.8,11.5,M,-34.3,M,,*67
$PYRTM,2024,127.418043373380,18.527690783530
$GPGGA,100158.00,3337.7940,N,11914.3778,W,1,10,0.8,11.4,M,-34.3,M,,*6E
$PYRTM,2024,127.418059124722,18.527706534861
$GPGGA,100159.00,3337.7921,N,11914.3764,W,1,10,0.8,11.2,M,-34.3,M,,*63
$PYRTM,2024,127.418070686759,18.527718096898
$GPGGA,100200.00,3337.7902,N,11914.3749,W,1,10,0.8,11.0,M,-34.3,M,,*60
$PYRTM,2024,127.418078092593,18.527725502731
$GPGGA,100201.00,3337.7882,N,11914.3736,W,1,10,0.8,10.8,M,-34.3,M,,*69
$PYRTM,2024,127.418093835347,18.527741245486
$GPGGA,100202.00,3337.7863,N,11914.3723,W,1,10,0.8,10.7,M,-34.3,M,,*6E
$PYRTM,2024,127.418105423993,18.527752834144
$GPGGA,100203.00,3337.7842,N,11914.3710,W,1,10,0.8,10.5,M,-34.3,M,,*6E
$PYRTM,2024,127.418112816262,18.527760226400
$GPGGA,100204.00,3337.7822,N,11914.3697,W,1,10,0.8,10.5,M,-34.3,M,,*61
$PYRTM,2024,127.418128572998,18.527775983148
$GPGGA,100205.00,3337.7803,N,11914.3681,W,1,10,0.8,10.8,M,-34.3,M,,*69
$PYRTM,2024,127.418140131875,18.527787542014
$GPGGA,100206.00,3337.7784,N,11914.3665,W,1,10,0.8,11.3,M,-34.3,M,,*6A
$PYRTM,2024,127.418151720903,18.527799131042
$GPGGA,100207.00,3337.7764,N,11914.3652,W,1,10,0.8,11.4,M,-34.3,M,,*66
$PYRTM,2024,127.418163281088,18.527810691227
$GPGGA,100208.00,3337.7742,N,11914.3639,W,1,10,0.8,11.2,M,-34.3,M,,*66
$PYRTM,2024,127.418170688218,18.527818098356
$GPGGA,100209.00,3337.7722,N,11914.3623,W,1,10,0.8,10.9,M,-34.3,M,,*60
$PYRTM,2024,127.418186427558,18.527833837697
$GPGGA,100210.00,3337.7704,N,11914.3607,W,1,10,0.8,10.8,M,-34.3,M,,*6B
$PYRTM,2024,127.418198014387,18.527845424525
$GPGGA,100211.00,3337.7686,N,11914.3593,W,1,10,0.8,11.0,M,-34.3,M,,*66
$PYRTM,2024,127.418209577130,18.527856987269
$GPGGA,100212.00,3337.7666,N,11914.3582,W,1,10,0.8,11.1,M,-34.3,M,,*6A
$PYRTM,2024,127.418221162072,18.527868572211
$GPGGA,100213.00,3337.7646,N,11914.3570,W,1,10,0.8,11.1,M,-34.3,M,,*64
$PYRTM,2024,127.418228556794,18.527875966944
$GPGGA,100214.00,3337.7626,N,11914.3556,W,1,10,0.8,11.1,M,-34.3,M,,*61
$PYRTM,2024,127.418244305370,18.527891715509
$GPGGA,100215.00,3337.7607,N,11914.3541,W,1,10,0.8,11.3,M,-34.3,M,,*67
$PYRTM,2024,127.418255871296,18.527903281435
$GPGGA,100216.00,3337.7589,N,11914.3524,W,1,10,0.8,11.5,M,-34.3,M,,*64
$PYRTM,2024,127.418267460937,18.527914871076
$GPGGA,100217.00,3337.7569,N,11914.3510,W,1,10,0.8,11.3,M,-34.3,M,,*6A
$PYRTM,2024,127.418279019572,18.527926429711
$GPGGA,100218.00,3337.7547,N,11914.3499,W,1,10,0.8,10.8,M,-34.3,M,,*63
$PYRTM,2024,127.418290609792,18.527938019931
$GPGGA,100219.00,3337.7527,N,11914.3486,W,1,10,0.8,10.5,M,-34.3,M,,*67
$PYRTM,2024,127.418302169896,18.527949580035
$GPGGA,100220.00,3337.7509,N,11914.3468,W,1,10,0.8,10.8,M,-34.3,M,,*6C
$PYRTM,2024,127.418313758600,18.527961168738
$GPGGA,100221.00,3337.7491,N,11914.3450,W,1,10,0.8,11.2,M,-34.3,M,,*6D
$PYRTM,2024,127.418325317373,18.527972727512
$GPGGA,100222.00,3337.7472,N,11914.3437,W,1,10,0.8,11.4,M,-34.3,M,,*64
$PYRTM,2024,127.418336903414,18.527984313553
$GPGGA,100223.00,3337.7450,N,11914.3427,W,1,10,0.8,11.2,M,-34.3,M,,*62
$PYRTM,2024,127.418348467014,18.527995877153
$GPGGA,100224.00,3337.7429,N,11914.3416,W,1,10,0.8,11.0,M,-34.3,M,,*6B
$PYRTM,2024,127.418360052905,18.528007463056
$GPGGA,100225.00,3337.7410,N,11914.3401,W,1,10,0.8,11.0,M,-34.3,M,,*66
$PYRTM,2024,127.418367447789,18.528014857928
$GPGGA,100226.00,3337.7393,N,11914.3383,W,1,10,0.8,10.9,M,-34.3,M,,*6C
$PYRTM,2024,127.418386092720,18.528033502859
$GPGGA,100227.00,3337.7372,N,11914.3368,W,1,10,0.8,10.9,M,-34.3,M,,*67
$PYRTM,2024,127.418394761458,18.528042171597
$GPGGA,100228.00,3337.7350,N,11914.3356,W,1,10,0.8,11.2,M,-34.3,M,,*6F
$PYRTM,2024,127.418402168067,18.528049578206
$GPGGA,100229.00,3337.7329,N,11914.3344,W,1,10,0.8,11.6,M,-34.3,M,,*67
$PYRTM,2024,127.418417909907,18.528065320058
$GPGGA,100230.00,3337.7309,N,11914.3329,W,1,10,0.8,11.8,M,-34.3,M,,*68
$PYRTM,2024,127.418429496157,18.528076906308
$GPGGA,100231.00,3337.7290,N,11914.3313,W,1,10,0.8,11.7,M,-34.3,M,,*6E
$PYRTM,2024,127.418441057361,18.528088467500
$GPGGA,100232.00,3337.7272,N,11914.3297,W,1,10,0.8,11.2,M,-34.3,M,,*69
$PYRTM,2024,127.418452647303,18.528100057442
$GPGGA,100233.00,3337.7253,N,11914.3283,W,1,10,0.8,10.7,M,-34.3,M,,*6A
$PYRTM,2024,127.418464205532,18.528111615683
$GPGGA,100234.00,3337.7233,N,11914.3270,W,1,10,0.8,10.5,M,-34.3,M,,*65
$PYRTM,2024,127.418475796215,18.528123206354
$GPGGA,100235.00,3337.7214,N,11914.3258,W,1,10,0.8,10.5,M,-34.3,M,,*6B
$PYRTM,2024,127.418487354699,18.528134764838
$GPGGA,100236.00,3337.7195,N,11914.3243,W,1,10,0.8,10.7,M,-34.3,M,,*6A
$PYRTM,2024,127.418498941030,18.528146351169
$GPGGA,100237.00,3337.7176,N,11914.3229,W,1,10,0.8,11.1,M,-34.3,M,,*6D
$PYRTM,2024,127.418510503275,18.528157913414
$GPGGA,100238.00,3337.7155,N,11914.3216,W,1,10,0.8,11.3,M,-34.3,M,,*6D
$PYRTM,2024,127.418517911076,18.528165321215
$GPGGA,100239.00,3337.7134,N,11914.3203,W,1,10,0.8,11.4,M,-34.3,M,,*68
$PYRTM,2024,127.418533650880,18.528181061019
$GPGGA,100240.00,3337.7114,N,11914.3188,W,1,10,0.8,11.4,M,-34.3,M,,*64
$PYRTM,2024,127.418545238090,18.528192648229
$GPGGA,100241.00,3337.7095,N,11914.3172,W,1,10,0.8,11.4,M,-34.3,M,,*68
$PYRTM,2024,127.418552632361,18.528200042500
$GPGGA,100242.00,3337.7076,N,11914.3156,W,1,10,0.8,11.2,M,-34.3,M,,*66
$PYRTM,2024,127.418568385544,18.528215795683
$GPGGA,100243.00,3337.7056,N,11914.3145,W,1,10,0.8,10.8,M,-34.3,M,,*6C
$PYRTM,2024,127.418579947361,18.528227357500
$GPGGA,100244.00,3337.7035,N,11914.3133,W,1,10,0.8,10.3,M,-34.3,M,,*64
$PYRTM,2024,127.418591533704,18.528238943843
$GPGGA,100245.00,3337.7016,N,11914.3120,W,1,10,0.8,10.2,M,-34.3,M,,*67
$PYRTM,2024,127.418603096505,18.528250506644
$GPGGA,100246.00,3337.6998,N,11914.3105,W,1,10,0.8,10.2,M,-34.3,M,,*6D
$PYRTM,2024,127.418610502731,18.528257912870
$GPGGA,100247.00,3337.6979,N,11914.3091,W,1,10,0.8,10.3,M,-34.3,M,,*6E
$PYRTM,2024,127.418626242569,18.528273652708
$GPGGA,100248.00,3337.6959,N,11914.3077,W,1,10,0.8,10.4,M,-34.3,M,,*6C
$PYRTM,2024,127.418637843877,18.528285254016
$GPGGA,100249.00,3337.6938,N,11914.3065,W,1,10,0.8,10.7,M,-34.3,M,,*6A
$PYRTM,2024,127.418644531065,18.528291941215
$GPGGA,100250.00,3337.6918,N,11914.3052,W,1,10,0.8,11.1,M,-34.3,M,,*63
$PYRTM,2024,127.418660978264,18.528308388403
$GPGGA,100251.00,3337.6899,N,11914.3038,W,1,10,0.8,11.3,M,-34.3,M,,*64
$PYRTM,2024,127.418672539977,18.528319950127
$GPGGA,100252.00,3337.6881,N,11914.3022,W,1,10,0.8,11.3,M,-34.3,M,,*65
$PYRTM,2024,127.418679948148,18.528327358287
$GPGGA,100253.00,3337.6863,N,11914.3007,W,1,10,0.8,10.9,M,-34.3,M,,*64
$PYRTM,2024,127.418695687824,18.528343097963
$GPGGA,100254.00,3337.6844,N,11914.2993,W,1,10,0.8,10.5,M,-34.3,M,,*6F
$PYRTM,2024,127.418707275046,18.528354685185
$GPGGA,100255.00,3337.6823,N,11914.2981,W,1,10,0.8,10.2,M,-34.3,M,,*6B
$PYRTM,2024,127.418718836516,18.528366246655
$GPGGA,100256.00,3337.6803,N,11914.2966,W,1,10,0.8,10.2,M,-34.3,M,,*63
$PYRTM,2024,127.418726243206,18.528373653345
$GPGGA,100257.00,3337.6783,N,11914.2951,W,1,10,0.8,10.7,M,-34.3,M,,*64
$PYRTM,2024,127.418744878785,18.528392288924
$GPGGA,100258.00,3337.6763,N,11914.2938,W,1,10,0.8,11.5,M,-34.3,M,,*69
$PYRTM,2024,127.418753572708,18.528400982847
$GPGGA,100259.00,3337.6742,N,11914.2925,W,1,10,0.8,11.6,M,-34.3,M,,*64
$PYRTM,2024,127.418765132743,18.528412542882
$GPGGA,100300.00,3337.6721,N,11914.2909,W,1,10,0.8,11.1,M,-34.3,M,,*65
$PYRTM,2024,127.418779613854,18.528427024005
$GPGGA,100301.00,3337.6702,N,11914.2891,W,1,10,0.8,10.7,M,-34.3,M,,*62
$PYRTM,2024,127.418791174560,18.528438584699
$GPGGA,100302.00,3337.6685,N,11914.2874,W,1,10,0.8,10.7,M,-34.3,M,,*64
$PYRTM,2024,127.418799869410,18.528447279549
$GPGGA,100303.00,3337.6667,N,11914.2858,W,1,10,0.8,10.9,M,-34.3,M,,*69
$PYRTM,2024,127.418811430405,18.528458840556
$GPGGA,100304.00,3337.6647,N,11914.2847,W,1,10,0.8,11.2,M,-34.3,M,,*68
$PYRTM,2024,127.418823017407,18.528470427546
$GPGGA,100305.00,3337.6626,N,11914.2839,W,1,10,0.8,11.4,M,-34.3,M,,*61
$PYRTM,2024,127.418830411516,18.528477821655
$GPGGA,100306.00,3337.6605,N,11914.2827,W,1,10,0.8,11.4,M,-34.3,M,,*6C
$PYRTM,2024,127.418846168160,18.528493578299
$GPGGA,100307.00,3337.6586,N,11914.2811,W,1,10,0.8,11.3,M,-34.3,M,,*67
$PYRTM,2024,127.418857725498,18.528505135637
$GPGGA,100308.00,3337.6568,N,11914.2794,W,1,10,0.8,11.4,M,-34.3,M,,*6D
$PYRTM,2024,127.418869313287,18.528516723426
$GPGGA,100309.00,3337.6550,N,11914.2779,W,1,10,0.8,11.5,M,-34.3,M,,*65
$PYRTM,2024,127.418880874688,18.528528284826
$GPGGA,100310.00,3337.6529,N,11914.2766,W,1,10,0.8,11.3,M,-34.3,M,,*6B
$PYRTM,2024,127.418892461215,18.528539871354
$GPGGA,100311.00,3337.6507,N,11914.2753,W,1,10,0.8,10.9,M,-34.3,M,,*6B
$PYRTM,2024,127.418904022697,18.528551432836
$GPGGA,100312.00,3337.6488,N,11914.2739,W,1,10,0.8,11.0,M,-34.3,M,,*6A
$PYRTM,2024,127.418915610949,18.528563021088
$GPGGA,100313.00,3337.6470,N,11914.2725,W,1,10,0.8,11.3,M,-34.3,M,,*62
$PYRTM,2024,127.418927170660,18.528574580810
$GPGGA,100314.00,3337.6450,N,11914.2712,W,1,10,0.8,11.3,M,-34.3,M,,*63
$PYRTM,2024,127.418938758831,18.528586168970
$GPGGA,100315.00,3337.6431,N,11914.2698,W,1,10,0.8,11.2,M,-34.3,M,,*67
$PYRTM,2024,127.418946151586,18.528593561725
$GPGGA,100316.00,3337.6412,N,11914.2683,W,1,10,0.8,10.8,M,-34.3,M,,*64
$PYRTM,2024,127.418961909873,18.528609320012
$GPGGA,100317.00,3337.6393,N,11914.2667,W,1,10,0.8,10.6,M,-34.3,M,,*6F
$PYRTM,2024,127.418973468264,18.528620878414
$GPGGA,100318.00,3337.6374,N,11914.2651,W,1,10,0.8,10.6,M,-34.3,M,,*6C
$PYRTM,2024,127.418985053692,18.528632463831
$GPGGA,100319.00,3337.6354,N,11914.2638,W,1,10,0.8,11.4,M,-34.3,M,,*63
$PYRTM,2024,127.418996617014,18.528644027164
$GPGGA,100320.00,3337.6333,N,11914.2626,W,1,10,0.8,11.7,M,-34.3,M,,*64
$PYRTM,2024,127.419008203102,18.528655613241
$GPGGA,100321.00,3337.6313,N,11914.2614,W,1,10,0.8,12.0,M,-34.3,M,,*62
$PYRTM,2024,127.419019763935,18.528667174074
$GPGGA,100322.00,3337.6293,N,11914.2599,W,1,10,0.8,12.0,M,-34.3,M,,*6E
$PYRTM,2024,127.419031350718,18.528678760856
$GPGGA,100323.00,3337.6274,N,11914.2583,W,1,10,0.8,11.8,M,-34.3,M,,*66
$PYRTM,2024,127.419042911794,18.528690321933
$GPGGA,100324.00,3337.6255,N,11914.2567,W,1,10,0.8,11.5,M,-34.3,M,,*65
$PYRTM,2024,127.419054498345,18.528701908495
$GPGGA,100325.00,3337.6237,N,11914.2552,W,1,10,0.8,11.3,M,-34.3,M,,*60
$PYRTM,2024,127.419061894826,18.528709304965
$GPGGA,100326.00,3337.6217,N,11914.2537,W,1,10,0.8,11.3,M,-34.3,M,,*62
$PYRTM,2024,127.419077649514,18.528725059653
$GPGGA,100327.00,3337.6198,N,11914.2526,W,1,10,0.8,11.3,M,-34.3,M,,*67
$PYRTM,2024,127.419085042720,18.528732452859
$GPGGA,100328.00,3337.6177,N,11914.2515,W,1,10,0.8,11.4,M,-34.3,M,,*6E
$PYRTM,2024,127.419103702894,18.528751113032
$GPGGA,100329.00,3337.6157,N,11914.2501,W,1,10,0.8,11.5,M,-34.3,M,,*69
$PYRTM,2024,127.419112356493,18.528759766632
$GPGGA,100330.00,3337.6138,N,11914.2484,W,1,10,0.8,11.7,M,-34.3,M,,*66
$PYRTM,2024,127.419123945521,18.528771355660
$GPGGA,100331.00,3337.6118,N,11914.2467,W,1,10,0.8,11.5,M,-34.3,M,,*6A
$PYRTM,2024,127.419135504514,18.528782914653
$GPGGA,100332.00,3337.6097,N,11914.2454,W,1,10,0.8,11.4,M,-34.3,M,,*6E
$PYRTM,2024,127.419147091690,18.528794501829
$GPGGA,100333.00,3337.6076,N,11914.2441,W,1,10,0.8,11.5,M,-34.3,M,,*65
$PYRTM,2024,127.419158653241,18.528806063380
$GPGGA,100334.00,3337.6056,N,11914.2427,W,1,10,0.8,11.6,M,-34.3,M,,*63
$PYRTM,2024,127.419170240787,18.528817650926
$GPGGA,100335.00,3337.6037,N,11914.2412,W,1,10,0.8,11.6,M,-34.3,M,,*63
$PYRTM,2024,127.419181800880,18.528829211019
$GPGGA,100336.00,3337.6017,N,11914.2397,W,1,10,0.8,11.6,M,-34.3,M,,*68
$PYRTM,2024,127.419193389537,18.528840799688
$GPGGA,100337.00,3337.5996,N,11914.2385,W,1,10,0.8,11.6,M,-34.3,M,,*69
$PYRTM,2024,127.419204951481,18.528852361620
$GPGGA,100338.00,3337.5975,N,11914.2373,W,1,10,0.8,11.7,M,-34.3,M,,*63
$PYRTM,2024,127.419216536910,18.528863947049
$GPGGA,100339.00,3337.5955,N,11914.2357,W,1,10,0.8,11.6,M,-34.3,M,,*67
$PYRTM,2024,127.419228098137,18.528875508275
$GPGGA,100340.00,3337.5937,N,11914.2339,W,1,10,0.8,11.8,M,-34.3,M,,*6B
$PYRTM,2024,127.419239685637,18.528887095787
$GPGGA,100341.00,3337.5918,N,11914.2322,W,1,10,0.8,12.3,M,-34.3,M,,*65
$PYRTM,2024,127.419247080127,18.528894490266
$GPGGA,100342.00,3337.5898,N,11914.2309,W,1,10,0.8,12.3,M,-34.3,M,,*66
$PYRTM,2024,127.419262837639,18.528910247778
$GPGGA,100343.00,3337.5877,N,11914.2298,W,1,10,0.8,11.8,M,-34.3,M,,*67
$PYRTM,2024,127.419270229259,18.528917639410
$GPGGA,100344.00,3337.5858,N,11914.2285,W,1,10,0.8,11.3,M,-34.3,M,,*6A
$PYRTM,2024,127.419281919259,18.528929329398
$GPGGA,100345.00,3337.5841,N,11914.2268,W,1,10,0.8,10.9,M,-34.3,M,,*6B
$PYRTM,2024,127.419297542905,18.528944953044
$GPGGA,100346.00,3337.5823,N,11914.2252,W,1,10,0.8,10.5,M,-34.3,M,,*69
$PYRTM,2024,127.419309130046,18.528956540197
$GPGGA,100347.00,3337.5802,N,11914.2238,W,1,10,0.8,10.1,M,-34.3,M,,*63
$PYRTM,2024,127.419316538819,18.528963948958
$GPGGA,100348.00,3337.5782,N,11914.2225,W,1,10,0.8,10.5,M,-34.3,M,,*63
$PYRTM,2024,127.419332277662,18.528979687812
$GPGGA,100349.00,3337.5762,N,11914.2213,W,1,10,0.8,11.0,M,-34.3,M,,*6D
$PYRTM,2024,127.419343838044,18.528991248183
$GPGGA,100350.00,3337.5741,N,11914.2201,W,1,10,0.8,11.7,M,-34.3,M,,*60
$PYRTM,2024,127.419355426134,18.529002836273
$GPGGA,100351.00,3337.5719,N,11914.2188,W,1,10,0.8,10.1,M,-34.3,M,,*69
$PYRTM,2024,127.419366987164,18.529014397303
$GPGGA,100352.00,3337.5699,N,11914.2173,W,1,10,0.8,9.9,M,-34.3,M,,*57
$PYRTM,2024,127.419374394838,18.529021804977
$GPGGA,100353.00,3337.5680,N,11914.2156,W,1,10,0.8,10.0,M,-34.3,M,,*68
$PYRTM,2024,127.419390135231,18.529037545370
$GPGGA,100354.00,3337.5662,N,11914.2141,W,1,10,0.8,10.3,M,-34.3,M,,*66
$PYRTM,2024,127.419401724780,18.529049134919
$GPGGA,100355.00,3337.5642,N,11914.2129,W,1,10,0.8,10.1,M,-34.3,M,,*69
$PYRTM,2024,127.419413284178,18.529060694317
$GPGGA,100356.00,3337.5622,N,11914.2118,W,1,10,0.8,9.8,M,-34.3,M,,*5F
$PYRTM,2024,127.419424885278,18.529072295417
$GPGGA,100357.00,3337.5602,N,11914.2103,W,1,10,0.8,9.9,M,-34.3,M,,*57
$PYRTM,2024,127.419436432338,18.529083842488
$GPGGA,100358.00,3337.5585,N,11914.2085,W,1,10,0.8,10.4,M,-34.3,M,,*6E
$PYRTM,2024,127.419443837801,18.529091247940
$GPGGA,100359.00,3337.5566,N,11914.2070,W,1,10,0.8,11.0,M,-34.3,M,,*6D
$PYRTM,2024,127.419462473947,18.529109884086
$GPGGA,100400.00,3337.5544,N,11914.2061,W,1,10,0.8,11.2,M,-34.3,M,,*64
$PYRTM,2024,127.419474064560,18.529121474699
$GPGGA,100401.00,3337.5522,N,11914.2050,W,1,10,0.8,11.0,M,-34.3,M,,*65
$PYRTM,2024,127.419485622836,18.529133032986
$GPGGA,100402.00,3337.5503,N,11914.2036,W,1,10,0.8,10.5,M,-34.3,M,,*61
$PYRTM,2024,127.419497209236,18.529144619375
$GPGGA,100403.00,3337.5485,N,11914.2016,W,1,10,0.8,10.0,M,-34.3,M,,*68
$PYRTM,2024,127.419508773056,18.529156183194
$GPGGA,100404.00,3337.5466,N,11914.1999,W,1,10,0.8,9.7,M,-34.3,M,,*50
$PYRTM,2024,127.419517464549,18.529164874687
$GPGGA,100405.00,3337.5446,N,11914.1986,W,1,10,0.8,9.7,M,-34.3,M,,*5D
$PYRTM,2024,127.419529026319,18.529176436458
$GPGGA,100406.00,3337.5424,N,11914.1976,W,1,10,0.8,10.0,M,-34.3,M,,*6A
$PYRTM,2024,127.419540612025,18.529188022164
$GPGGA,100407.00,3337.5403,N,11914.1965,W,1,10,0.8,10.3,M,-34.3,M,,*6F
$PYRTM,2024,127.419552172963,18.529199583102
$GPGGA,100408.00,3337.5384,N,11914.1949,W,1,10,0.8,10.4,M,-34.3,M,,*61
$PYRTM,2024,127.419563760498,18.529211170637
$GPGGA,100409.00,3337.5365,N,11914.1933,W,1,10,0.8,10.3,M,-34.3,M,,*65
$PYRTM,2024,127.419575321806,18.529222731944
$GPGGA,100410.00,3337.5345,N,11914.1920,W,1,10,0.8,10.2,M,-34.3,M,,*6C
$PYRTM,2024,127.419586911100,18.529234321238
$GPGGA,100411.00,3337.5324,N,11914.1909,W,1,10,0.8,10.3,M,-34.3,M,,*60
$PYRTM,2024,127.419598468565,18.529245878692
$GPGGA,100412.00,3337.5304,N,11914.1895,W,1,10,0.8,10.4,M,-34.3,M,,*62
$PYRTM,2024,127.419605877975,18.529253288113
$GPGGA,100413.00,3337.5286,N,11914.1878,W,1,10,0.8,10.7,M,-34.3,M,,*68
$PYRTM,2024,127.419621619456,18.529269029606
$GPGGA,100414.00,3337.5266,N,11914.1859,W,1,10,0.8,10.9,M,-34.3,M,,*6C
$PYRTM,2024,127.419633205208,18.529280615347
$GPGGA,100415.00,3337.5246,N,11914.1845,W,1,10,0.8,11.1,M,-34.3,M,,*6B
$PYRTM,2024,127.419644766493,18.529292176632
$GPGGA,100416.00,3337.5224,N,11914.1835,W,1,10,0.8,11.4,M,-34.3,M,,*6E
$PYRTM,2024,127.419656353079,18.529303763218
$GPGGA,100417.00,3337.5203,N,11914.1823,W,1,10,0.8,11.4,M,-34.3,M,,*6D
$PYRTM,2024,127.419667915104,18.529315325243
$GPGGA,100418.00,3337.5182,N,11914.1808,W,1,10,0.8,11.0,M,-34.3,M,,*65
$PYRTM,2024,127.419679502812,18.529326912963
$GPGGA,100419.00,3337.5164,N,11914.1791,W,1,10,0.8,10.7,M,-34.3,M,,*65
$PYRTM,2024,127.419691062037,18.529338472176
$GPGGA,100420.00,3337.5146,N,11914.1775,W,1,10,0.8,10.5,M,-34.3,M,,*67
$PYRTM,2024,127.419702650150,18.529350060289
$GPGGA,100421.00,3337.5125,N,11914.1763,W,1,10,0.8,10.3,M,-34.3,M,,*62
$PYRTM,2024,127.419714211238,18.529361621377
$GPGGA,100422.00,3337.5103,N,11914.1754,W,1,10,0.8,10.0,M,-34.3,M,,*62
$PYRTM,2024,127.419725797986,18.529373208137
$GPGGA,100423.00,3337.5081,N,11914.1745,W,1,10,0.8,9.8,M,-34.3,M,,*58
$PYRTM,2024,127.419737358785,18.529384768935
$GPGGA,100424.00,3337.5061,N,11914.1730,W,1,10,0.8,10.1,M,-34.3,M,,*62
$PYRTM,2024,127.419748951331,18.529396361481
$GPGGA,100425.00,3337.5043,N,11914.1710,W,1,10,0.8,10.8,M,-34.3,M,,*68
$PYRTM,2024,127.419760509062,18.529407919201
$GPGGA,100426.00,3337.5024,N,11914.1693,W,1,10,0.8,11.2,M,-34.3,M,,*6B
$PYRTM,2024,127.419767914167,18.529415324306
$GPGGA,100427.00,3337.5003,N,11914.1679,W,1,10,0.8,11.5,M,-34.3,M,,*6C
$PYRTM,2024,127.419783654711,18.529431064850
$GPGGA,100428.00,3337.4982,N,11914.1667,W,1,10,0.8,11.6,M,-34.3,M,,*6E
$PYRTM,2024,127.419795242755,18.529442652894
$GPGGA,100429.00,3337.4963,N,11914.1651,W,1,10,0.8,11.8,M,-34.3,M,,*6B
$PYRTM,2024,127.419802651944,18.529450062083
$GPGGA,100430.00,3337.4945,N,11914.1634,W,1,10,0.8,11.8,M,-34.3,M,,*64
$PYRTM,2024,127.419821283738,18.529468693877
$GPGGA,100431.00,3337.4927,N,11914.1619,W,1,10,0.8,11.4,M,-34.3,M,,*62
$PYRTM,2024,127.419829951424,18.529477361563
$GPGGA,100432.00,3337.4908,N,11914.1606,W,1,10,0.8,11.1,M,-34.3,M,,*67
$PYRTM,2024,127.419841538391,18.529488948530
$GPGGA,100433.00,3337.4888,N,11914.1593,W,1,10,0.8,10.8,M,-34.3,M,,*68
$PYRTM,2024,127.419848945880,18.529496356030
$GPGGA,100434.00,3337.4868,N,11914.1578,W,1,10,0.8,10.8,M,-34.3,M,,*64
$PYRTM,2024,127.419864686620,18.529512096759
$GPGGA,100435.00,3337.4849,N,11914.1562,W,1,10,0.8,11.1,M,-34.3,M,,*65
$PYRTM,2024,127.419876249062,18.529523659213
$GPGGA,100436.00,3337.4828,N,11914.1548,W,1,10,0.8,11.5,M,-34.3,M,,*6D
$PYRTM,2024,127.419883655648,18.529531065787
$GPGGA,100437.00,3337.4806,N,11914.1538,W,1,10,0.8,11.7,M,-34.3,M,,*65
$PYRTM,2024,127.419899396042,18.529546806181
$GPGGA,100438.00,3337.4784,N,11914.1527,W,1,10,0.8,11.4,M,-34.3,M,,*62
$PYRTM,2024,127.419910986030,18.529558396169
$GPGGA,100439.00,3337.4762,N,11914.1513,W,1,10,0.8,11.1,M,-34.3,M,,*69
$PYRTM,2024,127.419922545289,18.529569955428
$GPGGA,100440.00,3337.4744,N,11914.1496,W,1,10,0.8,10.9,M,-34.3,M,,*66
$PYRTM,2024,127.419934135000,18.529581545139
$GPGGA,100441.00,3337.4727,N,11914.1480,W,1,10,0.8,10.8,M,-34.3,M,,*64
$PYRTM,2024,127.419941526204,18.529588936354
$GPGGA,100442.00,3337.4707,N,11914.1469,W,1,10,0.8,10.7,M,-34.3,M,,*6D
$PYRTM,2024,127.419957279595,18.529604689734
$GPGGA,100443.00,3337.4686,N,11914.1458,W,1,10,0.8,10.7,M,-34.3,M,,*66
$PYRTM,2024,127.419968841887,18.529616252025
$GPGGA,100444.00,3337.4666,N,11914.1445,W,1,10,0.8,10.9,M,-34.3,M,,*6D
$PYRTM,2024,127.419976247662,18.529623657801
$GPGGA,100445.00,3337.4649,N,11914.1428,W,1,10,0.8,10.9,M,-34.3,M,,*6A
$PYRTM,2024,127.419991990417,18.529639400556
$GPGGA,100446.00,3337.4631,N,11914.1410,W,1,10,0.8,11.0,M,-34.3,M,,*65
$PYRTM,2024,127.420003576539,18.529650986678
$GPGGA,100447.00,3337.4611,N,11914.1394,W,1,10,0.8,11.1,M,-34.3,M,,*6C
$PYRTM,2024,127.420015137118,18.529662547257
$GPGGA,100448.00,3337.4590,N,11914.1382,W,1,10,0.8,11.4,M,-34.3,M,,*6B
$PYRTM,2024,127.420026727731,18.529674137870
$GPGGA,100449.00,3337.4570,N,11914.1369,W,1,10,0.8,11.6,M,-34.3,M,,*63
$PYRTM,2024,127.420034120741,18.529681530891
$GPGGA,100450.00,3337.4551,N,11914.1354,W,1,10,0.8,11.3,M,-34.3,M,,*63
$PYRTM,2024,127.420049886620,18.529697296759
$GPGGA,100451.00,3337.4533,N,11914.1337,W,1,10,0.8,10.9,M,-34.3,M,,*68
$PYRTM,2024,127.420061434387,18.529708844537
$GPGGA,100452.00,3337.4515,N,11914.1321,W,1,10,0.8,10.4,M,-34.3,M,,*65
$PYRTM,2024,127.420073020613,18.529720430752
$GPGGA,100453.00,3337.4495,N,11914.1307,W,1,10,0.8,10.1,M,-34.3,M,,*6C
$PYRTM,2024,127.420084582708,18.529731992847
$GPGGA,100454.00,3337.4474,N,11914.1295,W,1,10,0.8,10.2,M,-34.3,M,,*6D
$PYRTM,2024,127.420096168738,18.529743578877
$GPGGA,100455.00,3337.4453,N,11914.1282,W,1,10,0.8,10.4,M,-34.3,M,,*69
$PYRTM,2024,127.420107730336,18.529755140475
$GPGGA,100456.00,3337.4433,N,11914.1268,W,1,10,0.8,10.8,M,-34.3,M,,*64
$PYRTM,2024,127.420119317106,18.529766727245
$GPGGA,100457.00,3337.4414,N,11914.1253,W,1,10,0.8,11.1,M,-34.3,M,,*60
$PYRTM,2024,127.420130878854,18.529778288993
$GPGGA,100458.00,3337.4393,N,11914.1238,W,1,10,0.8,11.0,M,-34.3,M,,*6B
$PYRTM,2024,127.420142479803,18.529789889942
$GPGGA,100459.00,3337.4372,N,11914.1223,W,1,10,0.8,10.7,M,-34.3,M,,*69
$PYRTM,2024,127.420154027222,18.529801437361
$GPGGA,100500.00,3337.4353,N,11914.1207,W,1,10,0.8,10.6,M,-34.3,M,,*60
$PYRTM,2024,127.420161434502,18.529808844641
$GPGGA,100501.00,3337.4334,N,11914.1191,W,1,10,0.8,10.8,M,-34.3,M,,*62
$PYRTM,2024,127.420180067836,18.529827477975
$GPGGA,100502.00,3337.4315,N,11914.1176,W,1,10,0.8,10.8,M,-34.3,M,,*6B
$PYRTM,2024,127.420188762280,18.529836172431
$GPGGA,100503.00,3337.4294,N,11914.1163,W,1,10,0.8,10.9,M,-34.3,M,,*67
$PYRTM,2024,127.420200323657,18.529847733808
$GPGGA,100504.00,3337.4274,N,11914.1151,W,1,10,0.8,11.1,M,-34.3,M,,*66
$PYRTM,2024,127.420207730440,18.529855140579
$GPGGA,100505.00,3337.4254,N,11914.1136,W,1,10,0.8,11.3,M,-34.3,M,,*66
$PYRTM,2024,127.420219421782,18.529866831921
$GPGGA,100506.00,3337.4235,N,11914.1120,W,1,10,0.8,11.3,M,-34.3,M,,*65
$PYRTM,2024,127.420235058553,18.529882468692
$GPGGA,100507.00,3337.4216,N,11914.1105,W,1,10,0.8,11.0,M,-34.3,M,,*61
$PYRTM,2024,127.420246619688,18.529894029826
$GPGGA,100508.00,3337.4197,N,11914.1091,W,1,10,0.8,10.6,M,-34.3,M,,*6F
$PYRTM,2024,127.420258210139,18.529905620278
$GPGGA,100509.00,3337.4178,N,11914.1078,W,1,10,0.8,10.2,M,-34.3,M,,*6C
$PYRTM,2024,127.420265602940,18.529913013079
$GPGGA,100510.00,3337.4158,N,11914.1064,W,1,10,0.8,10.1,M,-34.3,M,,*68
$PYRTM,2024,127.420281350718,18.529928760856
$GPGGA,100511.00,3337.4137,N,11914.1051,W,1,10,0.8,10.2,M,-34.3,M,,*65
$PYRTM,2024,127.420292915868,18.529940326019
$GPGGA,100512.00,3337.4116,N,11914.1039,W,1,10,0.8,10.5,M,-34.3,M,,*6C
$PYRTM,2024,127.420304503345,18.529951913495
$GPGGA,100513.00,3337.4096,N,11914.1026,W,1,10,0.8,10.9,M,-34.3,M,,*66
$PYRTM,2024,127.420316064016,18.529963474155
$GPGGA,100514.00,3337.4075,N,11914.1010,W,1,10,0.8,11.1,M,-34.3,M,,*60
$PYRTM,2024,127.420327651736,18.529975061875
$GPGGA,100515.00,3337.4055,N,11914.0995,W,1,10,0.8,10.9,M,-34.3,M,,*6F
$PYRTM,2024,127.420339213206,18.529986623356
$GPGGA,100516.00,3337.4036,N,11914.0979,W,1,10,0.8,10.6,M,-34.3,M,,*64
$PYRTM,2024,127.420350800220,18.529998210359
$GPGGA,100517.00,3337.4017,N,11914.0965,W,1,10,0.8,10.3,M,-34.3,M,,*6E
$PYRTM,2024,127.420362360556,18.530009770694
$GPGGA,100518.00,3337.3997,N,11914.0951,W,1,10,0.8,9.9,M,-34.3,M,,*52
$PYRTM,2024,127.420373947801,18.530021357951
$GPGGA,100519.00,3337.3979,N,11914.0936,W,1,10,0.8,9.8,M,-34.3,M,,*53
$PYRTM,2024,127.420385509525,18.530032919664
$GPGGA,100520.00,3337.3961,N,11914.0922,W,1,10,0.8,10.2,M,-34.3,M,,*67
$PYRTM,2024,127.420397110822,18.530044520961
$GPGGA,100521.00,3337.3941,N,11914.0909,W,1,10,0.8,10.5,M,-34.3,M,,*6A
$PYRTM,2024,127.420408657269,18.530056067407
$GPGGA,100522.00,3337.3922,N,11914.0896,W,1,10,0.8,10.6,M,-34.3,M,,*68
$PYRTM,2024,127.420420248241,18.530067658380
$GPGGA,100523.00,3337.3902,N,11914.0881,W,1,10,0.8,10.8,M,-34.3,M,,*63
$PYRTM,2024,127.420431805891,18.530079216030
$GPGGA,100524.00,3337.3883,N,11914.0865,W,1,10,0.8,11.0,M,-34.3,M,,*6F
$PYRTM,2024,127.420443388924,18.530090799074
$GPGGA,100525.00,3337.3864,N,11914.0850,W,1,10,0.8,10.8,M,-34.3,M,,*68
$PYRTM,2024,127.420454953681,18.530102363819
$GPGGA,100526.00,3337.3843,N,11914.0837,W,1,10,0.8,10.5,M,-34.3,M,,*62
$PYRTM,2024,127.420466542072,18.530113952211
$GPGGA,100527.00,3337.3822,N,11914.0824,W,1,10,0.8,10.2,M,-34.3,M,,*61
$PYRTM,2024,127.420478103137,18.530125513287
$GPGGA,100528.00,3337.3802,N,11914.0808,W,1,10,0.8,10.1,M,-34.3,M,,*61
$PYRTM,2024,127.420489689769,18.530137099907
$GPGGA,100529.00,3337.3784,N,11914.0794,W,1,10,0.8,10.2,M,-34.3,M,,*68
$PYRTM,2024,127.420501250683,18.530148660833
$GPGGA,100530.00,3337.3765,N,11914.0779,W,1,10,0.8,10.4,M,-34.3,M,,*6A
$PYRTM,2024,127.420508658414,18.530156068553
$GPGGA,100531.00,3337.3745,N,11914.0765,W,1,10,0.8,10.5,M,-34.3,M,,*65
$PYRTM,2024,127.420520348021,18.530167758160
$GPGGA,100532.00,3337.3724,N,11914.0751,W,1,10,0.8,10.5,M,-34.3,M,,*66
$PYRTM,2024,127.420538879051,18.530186289190
$GPGGA,100533.00,3337.3704,N,11914.0736,W,1,10,0.8,10.8,M,-34.3,M,,*69
$PYRTM,2024,127.420547548044,18.530194958194
$GPGGA,100534.00,3337.3684,N,11914.0721,W,1,10,0.8,11.2,M,-34.3,M,,*6A
$PYRTM,2024,127.420559134329,18.530206544479
$GPGGA,100535.00,3337.3664,N,11914.0706,W,1,10,0.8,11.6,M,-34.3,M,,*64
$PYRTM,2024,127.420570695556,18.530218105706
$GPGGA,100536.00,3337.3643,N,11914.0693,W,1,10,0.8,11.6,M,-34.3,M,,*6F
$PYRTM,2024,127.420582285174,18.530229695312
$GPGGA,100537.00,3337.3624,N,11914.0680,W,1,10,0.8,11.5,M,-34.3,M,,*6E
$PYRTM,2024,127.420589677905,18.530237088056
$GPGGA,100538.00,3337.3605,N,11914.0665,W,1,10,0.8,11.7,M,-34.3,M,,*6B
$PYRTM,2024,127.420605429734,18.530252839873
$GPGGA,100539.00,3337.3587,N,11914.0650,W,1,10,0.8,11.8,M,-34.3,M,,*6A
$PYRTM,2024,127.420616993241,18.530264403380
$GPGGA,100540.00,3337.3568,N,11914.0635,W,1,10,0.8,11.5,M,-34.3,M,,*6B
$PYRTM,2024,127.420628577523,18.530275987662
$GPGGA,100541.00,3337.3548,N,11914.0622,W,1,10,0.8,11.0,M,-34.3,M,,*6B
$PYRTM,2024,127.420635986412,18.530283396551
$GPGGA,100542.00,3337.3528,N,11914.0610,W,1,10,0.8,10.8,M,-34.3,M,,*66
$PYRTM,2024,127.420651726806,18.530299136944
$GPGGA,100543.00,3337.3508,N,11914.0596,W,1,10,0.8,11.0,M,-34.3,M,,*61
$PYRTM,2024,127.420663288194,18.530310698333
$GPGGA,100544.00,3337.3490,N,11914.0579,W,1,10,0.8,11.5,M,-34.3,M,,*62
$PYRTM,2024,127.420674875984,18.530322286123
$GPGGA,100545.00,3337.3471,N,11914.0563,W,1,10,0.8,11.9,M,-34.3,M,,*6B
$PYRTM,2024,127.420686436389,18.530333846528
$GPGGA,100546.00,3337.3449,N,11914.0549,W,1,10,0.8,11.9,M,-34.3,M,,*6B
$PYRTM,2024,127.420693844375,18.530341254514
$GPGGA,100547.00,3337.3427,N,11914.0539,W,1,10,0.8,11.5,M,-34.3,M,,*69
$PYRTM,2024,127.420709584491,18.530356994630
$GPGGA,100548.00,3337.3406,N,11914.0526,W,1,10,0.8,11.2,M,-34.3,M,,*6C
$PYRTM,2024,127.420721185046,18.530368595185
$GPGGA,100549.00,3337.3387,N,11914.0509,W,1,10,0.8,11.1,M,-34.3,M,,*6D
$PYRTM,2024,127.420732731898,18.530380142037
$GPGGA,100550.00,3337.3371,N,11914.0489,W,1,10,0.8,11.3,M,-34.3,M,,*67
$PYRTM,2024,127.420744323461,18.530391733600
$GPGGA,100551.00,3337.3352,N,11914.0474,W,1,10,0.8,11.6,M,-34.3,M,,*60
$PYRTM,2024,127.420755880602,18.530403290741
$GPGGA,100552.00,3337.3330,N,11914.0465,W,1,10,0.8,11.7,M,-34.3,M,,*66
$PYRTM,2024,127.420767482500,18.530414892639
$GPGGA,100553.00,3337.3309,N,11914.0455,W,1,10,0.8,11.7,M,-34.3,M,,*6E
$PYRTM,2024,127.420779028056,18.530426438194
$GPGGA,100554.00,3337.3290,N,11914.0441,W,1,10,0.8,11.6,M,-34.3,M,,*6C
$PYRTM,2024,127.420790615475,18.530438025613
$GPGGA,100555.00,3337.3272,N,11914.0423,W,1,10,0.8,11.3,M,-34.3,M,,*60
$PYRTM,2024,127.420802177593,18.530449587731
$GPGGA,100556.00,3337.3255,N,11914.0406,W,1,10,0.8,11.1,M,-34.3,M,,*63
$PYRTM,2024,127.420809584965,18.530456995104
$GPGGA,100557.00,3337.3235,N,11914.0391,W,1,10,0.8,11.1,M,-34.3,M,,*6D
$PYRTM,2024,127.420825325104,18.530472735255
$GPGGA,100558.00,3337.3213,N,11914.0377,W,1,10,0.8,11.4,M,-34.3,M,,*6B
$PYRTM,2024,127.420836915613,18.530484325752
$GPGGA,100559.00,3337.3192,N,11914.0364,W,1,10,0.8,11.6,M,-34.3,M,,*60
$PYRTM,2024,127.420844308623,18.530491718762
$GPGGA,100600.00,3337.3170,N,11914.0352,W,1,10,0.8,11.8,M,-34.3,M,,*68
$PYRTM,2024,127.420860061076,18.530507471215
$GPGGA,100601.00,3337.3149,N,11914.0337,W,1,10,0.8,11.1,M,-34.3,M,,*69
$PYRTM,2024,127.420867456146,18.530514866285
$GPGGA,100602.00,3337.3130,N,11914.0320,W,1,10,0.8,11.0,M,-34.3,M,,*63
$PYRTM,2024,127.420879145729,18.530526555868
$GPGGA,100603.00,3337.3112,N,11914.0303,W,1,10,0.8,11.1,M,-34.3,M,,*62
$PYRTM,2024,127.420897665035,18.530545075174
$GPGGA,100604.00,3337.3094,N,11914.0290,W,1,10,0.8,11.1,M,-34.3,M,,*61
$PYRTM,2024,127.420906373206,18.530553783356
$GPGGA,100605.00,3337.3073,N,11914.0279,W,1,10,0.8,11.0,M,-34.3,M,,*6F
$PYRTM,2024,127.420917918704,18.530565328843
$GPGGA,100606.00,3337.3052,N,11914.0269,W,1,10,0.8,10.7,M,-34.3,M,,*68
$PYRTM,2024,127.420929505324,18.530576915463
$GPGGA,100607.00,3337.3033,N,11914.0254,W,1,10,0.8,11.0,M,-34.3,M,,*66
$PYRTM,2024,127.420941067326,18.530588477465
$GPGGA,100608.00,3337.3016,N,11914.0237,W,1,10,0.8,11.6,M,-34.3,M,,*6D
$PYRTM,2024,127.420952654444,18.530600064583
$GPGGA,100609.00,3337.2998,N,11914.0221,W,1,10,0.8,12.2,M,-34.3,M,,*62
$PYRTM,2024,127.420960063762,18.530607473912
$GPGGA,100610.00,3337.2977,N,11914.0208,W,1,10,0.8,12.4,M,-34.3,M,,*66
$PYRTM,2024,127.420978695984,18.530626106123
$GPGGA,100611.00,3337.2956,N,11914.0195,W,1,10,0.8,12.1,M,-34.3,M,,*66
$PYRTM,2024,127.420990257500,18.530637667639
$GPGGA,100612.00,3337.2936,N,11914.0180,W,1,10,0.8,11.6,M,-34.3,M,,*63
$PYRTM,2024,127.420998950706,18.530646360845
$GPGGA,100613.00,3337.2918,N,11914.0161,W,1,10,0.8,11.0,M,-34.3,M,,*67
$PYRTM,2024,127.421006347072,18.530653757211
$GPGGA,100614.00,3337.2901,N,11914.0142,W,1,10,0.8,10.6,M,-34.3,M,,*6E
$PYRTM,2024,127.421022099375,18.530669509514
$GPGGA,100615.00,3337.2882,N,11914.0128,W,1,10,0.8,10.7,M,-34.3,M,,*68
$PYRTM,2024,127.421029494317,18.530676904468
$GPGGA,100616.00,3337.2861,N,11914.0117,W,1,10,0.8,10.9,M,-34.3,M,,*64
$PYRTM,2024,127.421045245995,18.530692656134
$GPGGA,100617.00,3337.2839,N,11914.0106,W,1,10,0.8,11.0,M,-34.3,M,,*60
$PYRTM,2024,127.421056809919,18.530704220058
$GPGGA,100618.00,3337.2820,N,11914.0094,W,1,10,0.8,10.9,M,-34.3,M,,*65
$PYRTM,2024,127.421068398414,18.530715808553
$GPGGA,100619.00,3337.2803,N,11914.0080,W,1,10,0.8,10.6,M,-34.3,M,,*6F
$PYRTM,2024,127.421079956586,18.530727366725
$GPGGA,100620.00,3337.2785,N,11914.0063,W,1,10,0.8,10.4,M,-34.3,M,,*6B
$PYRTM,2024,127.421091547396,18.530738957535
$GPGGA,100621.00,3337.2766,N,11914.0048,W,1,10,0.8,10.2,M,-34.3,M,,*68
$PYRTM,2024,127.421103104618,18.530750514769
$GPGGA,100622.00,3337.2745,N,11914.0036,W,1,10,0.8,10.4,M,-34.3,M,,*65
$PYRTM,2024,127.421114692002,18.530762102141
$GPGGA,100623.00,3337.2724,N,11914.0025,W,1,10,0.8,10.6,M,-34.3,M,,*63
$PYRTM,2024,127.421126253275,18.530773663414
$GPGGA,100624.00,3337.2705,N,11914.0011,W,1,10,0.8,10.8,M,-34.3,M,,*6E
$PYRTM,2024,127.421137840046,18.530785250185
$GPGGA,100625.00,3337.2687,N,11913.9993,W,1,10,0.8,10.9,M,-34.3,M,,*68
$PYRTM,2024,127.421149401528,18.530796811667
$GPGGA,100626.00,3337.2669,N,11913.9976,W,1,10,0.8,11.1,M,-34.3,M,,*69
$PYRTM,2024,127.421160987940,18.530808398079
$GPGGA,100627.00,3337.2649,N,11913.9962,W,1,10,0.8,11.1,M,-34.3,M,,*6F
$PYRTM,2024,127.421172550671,18.530819960810
$GPGGA,100628.00,3337.2627,N,11913.9950,W,1,10,0.8,11.1,M,-34.3,M,,*69
$PYRTM,2024,127.421184137153,18.530831547292
$GPGGA,100629.00,3337.2605,N,11913.9937,W,1,10,0.8,11.2,M,-34.3,M,,*6A
$PYRTM,2024,127.421195697407,18.530843107546
$GPGGA,100630.00,3337.2587,N,11913.9921,W,1,10,0.8,11.1,M,-34.3,M,,*6F
$PYRTM,2024,127.421203105475,18.530850515613
$GPGGA,100631.00,3337.2568,N,11913.9906,W,1,10,0.8,10.9,M,-34.3,M,,*63
$PYRTM,2024,127.421218846285,18.530866256424
$GPGGA,100632.00,3337.2548,N,11913.9892,W,1,10,0.8,10.4,M,-34.3,M,,*63
$PYRTM,2024,127.421230436100,18.530877846250
$GPGGA,100633.00,3337.2527,N,11913.9878,W,1,10,0.8,10.0,M,-34.3,M,,*6B
$PYRTM,2024,127.421237942141,18.530885352280
$GPGGA,100634.00,3337.2507,N,11913.9864,W,1,10,0.8,9.9,M,-34.3,M,,*52
$PYRTM,2024,127.421253595000,18.530901005150
$GPGGA,100635.00,3337.2489,N,11913.9848,W,1,10,0.8,10.2,M,-34.3,M,,*69
$PYRTM,2024,127.421265142755,18.530912552905
$GPGGA,100636.00,3337.2469,N,11913.9835,W,1,10,0.8,10.5,M,-34.3,M,,*69
$PYRTM,2024,127.421276731887,18.530924142025
$GPGGA,100637.00,3337.2449,N,11913.9823,W,1,10,0.8,10.5,M,-34.3,M,,*6D
$PYRTM,2024,127.421288290000,18.530935700139
$GPGGA,100638.00,3337.2428,N,11913.9810,W,1,10,0.8,10.2,M,-34.3,M,,*62
$PYRTM,2024,127.421295698565,18.530943108704
$GPGGA,100639.00,3337.2409,N,11913.9794,W,1,10,0.8,10.0,M,-34.3,M,,*61
$PYRTM,2024,127.421311438241,18.530958848380
$GPGGA,100640.00,3337.2390,N,11913.9776,W,1,10,0.8,9.9,M,-34.3,M,,*55
$PYRTM,2024,127.421323025231,18.530970435370
$GPGGA,100641.00,3337.2371,N,11913.9760,W,1,10,0.8,10.1,M,-34.3,M,,*6C
$PYRTM,2024,127.421330421019,18.530977831157
$GPGGA,100642.00,3337.2349,N,11913.9746,W,1,10,0.8,10.6,M,-34.3,M,,*67
$PYRTM,2024,127.421346175845,18.530993585984
$GPGGA,100643.00,3337.2328,N,11913.9733,W,1,10,0.8,11.2,M,-34.3,M,,*66
$PYRTM,2024,127.421357737373,18.531005147512
$GPGGA,100644.00,3337.2308,N,11913.9719,W,1,10,0.8,11.7,M,-34.3,M,,*6E
$PYRTM,2024,127.421369322141,18.531016732280
$GPGGA,100645.00,3337.2289,N,11913.9702,W,1,10,0.8,11.8,M,-34.3,M,,*62
$PYRTM,2024,127.421380884062,18.531028294201
$GPGGA,100646.00,3337.2270,N,11913.9686,W,1,10,0.8,11.4,M,-34.3,M,,*66
$PYRTM,2024,127.421392470127,18.531039880266
$GPGGA,100647.00,3337.2252,N,11913.9671,W,1,10,0.8,10.8,M,-34.3,M,,*62
$PYRTM,2024,127.421404031759,18.531051441898
$GPGGA,100648.00,3337.2234,N,11913.9656,W,1,10,0.8,10.5,M,-34.3,M,,*65
$PYRTM,2024,127.421415620903,18.531063031042
$GPGGA,100649.00,3337.2216,N,11913.9640,W,1,10,0.8,10.4,M,-34.3,M,,*62
$PYRTM,2024,127.421427178113,18.531074588252
$GPGGA,100650.00,3337.2195,N,11913.9625,W,1,10,0.8,10.3,M,-34.3,M,,*66
$PYRTM,2024,127.421434585764,18.531081995903
$GPGGA,100651.00,3337.2174,N,11913.9611,W,1,10,0.8,10.7,M,-34.3,M,,*6B
$PYRTM,2024,127.421450327512,18.531097737650
$GPGGA,100652.00,3337.2154,N,11913.9598,W,1,10,0.8,11.3,M,-34.3,M,,*6D
$PYRTM,2024,127.421461915035,18.531109325174
$GPGGA,100653.00,3337.2134,N,11913.9583,W,1,10,0.8,11.4,M,-34.3,M,,*67
$PYRTM,2024,127.421473475498,18.531120885637
$GPGGA,100654.00,3337.2114,N,11913.9567,W,1,10,0.8,11.2,M,-34.3,M,,*6E
$PYRTM,2024,127.421485062245,18.531132472384
$GPGGA,100655.00,3337.2095,N,11913.9549,W,1,10,0.8,11.1,M,-34.3,M,,*68
$PYRTM,2024,127.421496624803,18.531144034942
$GPGGA,100656.00,3337.2076,N,11913.9532,W,1,10,0.8,11.0,M,-34.3,M,,*6B
$PYRTM,2024,127.421508211227,18.531155621366
$GPGGA,100657.00,3337.2056,N,11913.9518,W,1,10,0.8,10.9,M,-34.3,M,,*68
$PYRTM,2024,127.421519771678,18.531167181817
$GPGGA,100658.00,3337.2036,N,11913.9508,W,1,10,0.8,10.9,M,-34.3,M,,*60
$PYRTM,2024,127.421531362627,18.531178772766
$GPGGA,100659.00,3337.2017,N,11913.9496,W,1,10,0.8,11.2,M,-34.3,M,,*6E
$PYRTM,2024,127.421542920775,18.531190330914
$GPGGA,100700.00,3337.1999,N,11913.9481,W,1,10,0.8,11.3,M,-34.3,M,,*68
$PYRTM,2024,127.421554511019,18.531201921169
$GPGGA,100701.00,3337.1980,N,11913.9466,W,1,10,0.8,11.2,M,-34.3,M,,*69
$PYRTM,2024,127.421566069931,18.531213480081
$GPGGA,100702.00,3337.1962,N,11913.9450,W,1,10,0.8,11.1,M,-34.3,M,,*60
$PYRTM,2024,127.421577656285,18.531225066424
$GPGGA,100703.00,3337.1943,N,11913.9434,W,1,10,0.8,11.2,M,-34.3,M,,*63
$PYRTM,2024,127.421585065162,18.531232475301
$GPGGA,100704.00,3337.1923,N,11913.9421,W,1,10,0.8,11.2,M,-34.3,M,,*66
$PYRTM,2024,127.421603697431,18.531251107569
$GPGGA,100705.00,3337.1903,N,11913.9409,W,1,10,0.8,11.0,M,-34.3,M,,*6D
$PYRTM,2024,127.421612366748,18.531259776887
$GPGGA,100706.00,3337.1883,N,11913.9393,W,1,10,0.8,10.7,M,-34.3,M,,*65
$PYRTM,2024,127.421623953796,18.531271363935
$GPGGA,100707.00,3337.1865,N,11913.9376,W,1,10,0.8,10.3,M,-34.3,M,,*63
$PYRTM,2024,127.421635513727,18.531282923866
$GPGGA,100708.00,3337.1846,N,11913.9361,W,1,10,0.8,10.2,M,-34.3,M,,*6A
$PYRTM,2024,127.421647103669,18.531294513808
$GPGGA,100709.00,3337.1826,N,11913.9347,W,1,10,0.8,10.3,M,-34.3,M,,*68
$PYRTM,2024,127.421654497928,18.531301908067
$GPGGA,100710.00,3337.1807,N,11913.9333,W,1,10,0.8,10.8,M,-34.3,M,,*6B
$PYRTM,2024,127.421670249201,18.531317659340
$GPGGA,100711.00,3337.1786,N,11913.9321,W,1,10,0.8,11.3,M,-34.3,M,,*65
$PYRTM,2024,127.421681810671,18.531329220810
$GPGGA,100712.00,3337.1767,N,11913.9308,W,1,10,0.8,11.5,M,-34.3,M,,*64
$PYRTM,2024,127.421693397546,18.531340807685
$GPGGA,100713.00,3337.1748,N,11913.9292,W,1,10,0.8,11.5,M,-34.3,M,,*6A
$PYRTM,2024,127.421700806713,18.531348216852
$GPGGA,100714.00,3337.1729,N,11913.9274,W,1,10,0.8,11.3,M,-34.3,M,,*64
$PYRTM,2024,127.421716546435,18.531363956574
$GPGGA,100715.00,3337.1709,N,11913.9259,W,1,10,0.8,11.6,M,-34.3,M,,*6D
$PYRTM,2024,127.421723942049,18.531371352187
$GPGGA,100716.00,3337.1689,N,11913.9246,W,1,10,0.8,12.0,M,-34.3,M,,*6C
$PYRTM,2024,127.421739695093,18.531387105243
$GPGGA,100717.00,3337.1670,N,11913.9233,W,1,10,0.8,12.5,M,-34.3,M,,*6C
$PYRTM,2024,127.421751254884,18.531398665023
$GPGGA,100718.00,3337.1651,N,11913.9220,W,1,10,0.8,12.6,M,-34.3,M,,*61
$PYRTM,2024,127.421758663681,18.531406073819
$GPGGA,100719.00,3337.1631,N,11913.9203,W,1,10,0.8,12.7,M,-34.3,M,,*66
$PYRTM,2024,127.421774403032,18.531421813171
$GPGGA,100720.00,3337.1613,N,11913.9186,W,1,10,0.8,11.7,M,-34.3,M,,*61
$PYRTM,2024,127.421785993924,18.531433404063
$GPGGA,100721.00,3337.1593,N,11913.9172,W,1,10,0.8,11.1,M,-34.3,M,,*66
$PYRTM,2024,127.421797551424,18.531444961562
$GPGGA,100722.00,3337.1574,N,11913.9159,W,1,10,0.8,10.9,M,-34.3,M,,*6C
$PYRTM,2024,127.421809139687,18.531456549826
$GPGGA,100723.00,3337.1555,N,11913.9147,W,1,10,0.8,11.2,M,-34.3,M,,*6B
$PYRTM,2024,127.421816550856,18.531463960995
$GPGGA,100724.00,3337.1534,N,11913.9135,W,1,10,0.8,11.0,M,-34.3,M,,*6C
$PYRTM,2024,127.421832287396,18.531479697535
$GPGGA,100725.00,3337.1513,N,11913.9122,W,1,10,0.8,10.9,M,-34.3,M,,*66
$PYRTM,2024,127.421843849051,18.531491259190
$GPGGA,100726.00,3337.1494,N,11913.9106,W,1,10,0.8,10.9,M,-34.3,M,,*6D
$PYRTM,2024,127.421855435741,18.531502845880
$GPGGA,100727.00,3337.1474,N,11913.9089,W,1,10,0.8,11.2,M,-34.3,M,,*6E
$PYRTM,2024,127.421866996319,18.531514406458
$GPGGA,100728.00,3337.1454,N,11913.9075,W,1,10,0.8,11.3,M,-34.3,M,,*61
$PYRTM,2024,127.421874403264,18.531521813403
$GPGGA,100729.00,3337.1433,N,11913.9063,W,1,10,0.8,11.3,M,-34.3,M,,*66
$PYRTM,2024,127.421890145139,18.531537555278
$GPGGA,100730.00,3337.1413,N,11913.9048,W,1,10,0.8,11.3,M,-34.3,M,,*65
$PYRTM,2024,127.421901733808,18.531549143947
$GPGGA,100731.00,3337.1394,N,11913.9030,W,1,10,0.8,11.1,M,-34.3,M,,*61
$PYRTM,2024,127.421909127292,18.531556537431
$GPGGA,100732.00,3337.1376,N,11913.9013,W,1,10,0.8,11.1,M,-34.3,M,,*6F
$PYRTM,2024,127.421924882106,18.531572292245
$GPGGA,100733.00,3337.1357,N,11913.8998,W,1,10,0.8,10.8,M,-34.3,M,,*6E
$PYRTM,2024,127.421936440405,18.531583850544
$GPGGA,100734.00,3337.1336,N,11913.8987,W,1,10,0.8,10.5,M,-34.3,M,,*6D
$PYRTM,2024,127.421943849190,18.531591259329
$GPGGA,100735.00,3337.1315,N,11913.8974,W,1,10,0.8,10.1,M,-34.3,M,,*65
$PYRTM,2024,127.421962483067,18.531609893206
$GPGGA,100736.00,3337.1297,N,11913.8958,W,1,10,0.8,10.0,M,-34.3,M,,*62
$PYRTM,2024,127.421971189977,18.531618600116
$GPGGA,100737.00,3337.1278,N,11913.8942,W,1,10,0.8,10.2,M,-34.3,M,,*6B
$PYRTM,2024,127.421982737998,18.531630148137
$GPGGA,100738.00,3337.1258,N,11913.8928,W,1,10,0.8,10.4,M,-34.3,M,,*6C
$PYRTM,2024,127.421994319641,18.531641729780
$GPGGA,100739.00,3337.1236,N,11913.8916,W,1,10,0.8,10.6,M,-34.3,M,,*6A
$PYRTM,2024,127.422005885486,18.531653295625
$GPGGA,100740.00,3337.1216,N,11913.8904,W,1,10,0.8,10.8,M,-34.3,M,,*6B
$PYRTM,2024,127.422017467025,18.531664877164
$GPGGA,100741.00,3337.1197,N,11913.8888,W,1,10,0.8,10.8,M,-34.3,M,,*65
$PYRTM,2024,127.422024880868,18.531672291007
$GPGGA,100742.00,3337.1179,N,11913.8871,W,1,10,0.8,10.7,M,-34.3,M,,*6F
$PYRTM,2024,127.422040622037,18.531688032176
$GPGGA,100743.00,3337.1160,N,11913.8855,W,1,10,0.8,10.6,M,-34.3,M,,*61
$PYRTM,2024,127.422048015868,18.531695426007
$GPGGA,100744.00,3337.1140,N,11913.8842,W,1,10,0.8,10.6,M,-34.3,M,,*62
$PYRTM,2024,127.422059705463,18.531707115613
$GPGGA,100745.00,3337.1119,N,11913.8831,W,1,10,0.8,10.6,M,-34.3,M,,*6B
$PYRTM,2024,127.422071281944,18.531718692083
$GPGGA,100746.00,3337.1098,N,11913.8818,W,1,10,0.8,10.6,M,-34.3,M,,*6B
$PYRTM,2024,127.422086920486,18.531734330625
$GPGGA,100747.00,3337.1078,N,11913.8803,W,1,10,0.8,10.7,M,-34.3,M,,*6F
$PYRTM,2024,127.422093040023,18.531740450162
$GPGGA,100748.00,3337.1057,N,11913.8787,W,1,10,0.8,11.0,M,-34.3,M,,*68
$PYRTM,2024,127.422110066123,18.531757476262
$GPGGA,100749.00,3337.1037,N,11913.8773,W,1,10,0.8,11.3,M,-34.3,M,,*67
$PYRTM,2024,127.422121626921,18.531769037060
$GPGGA,100750.00,3337.1016,N,11913.8760,W,1,10,0.8,11.5,M,-34.3,M,,*68
$PYRTM,2024,127.422133214884,18.531780625023
$GPGGA,100751.00,3337.0995,N,11913.8746,W,1,10,0.8,11.5,M,-34.3,M,,*6E
$PYRTM,2024,127.422144775509,18.531792185648
$GPGGA,100752.00,3337.0977,N,11913.8730,W,1,10,0.8,11.4,M,-34.3,M,,*61
$PYRTM,2024,127.422152182442,18.531799592581
$GPGGA,100753.00,3337.0960,N,11913.8714,W,1,10,0.8,11.1,M,-34.3,M,,*65
$PYRTM,2024,127.422167924826,18.531815334965
$GPGGA,100754.00,3337.0940,N,11913.8701,W,1,10,0.8,10.8,M,-34.3,M,,*6C
$PYRTM,2024,127.422179510648,18.531826920787
$GPGGA,100755.00,3337.0919,N,11913.8690,W,1,10,0.8,10.4,M,-34.3,M,,*64
$PYRTM,2024,127.422191076829,18.531838486968
$GPGGA,100756.00,3337.0900,N,11913.8674,W,1,10,0.8,10.5,M,-34.3,M,,*64
$PYRTM,2024,127.422202661991,18.531850072130
$GPGGA,100757.00,3337.0882,N,11913.8655,W,1,10,0.8,10.9,M,-34.3,M,,*61
$PYRTM,2024,127.422214220984,18.531861631123
$GPGGA,100758.00,3337.0862,N,11913.8640,W,1,10,0.8,11.4,M,-34.3,M,,*68
$PYRTM,2024,127.422225811400,18.531873221539
$GPGGA,100759.00,3337.0840,N,11913.8629,W,1,10,0.8,11.5,M,-34.3,M,,*67
$PYRTM,2024,127.422233216701,18.531880626840
$GPGGA,100800.00,3337.0819,N,11913.8618,W,1,10,0.8,11.1,M,-34.3,M,,*6E
$PYRTM,2024,127.422244890150,18.531892300289
$GPGGA,100801.00,3337.0799,N,11913.8602,W,1,10,0.8,10.5,M,-34.3,M,,*66
$PYRTM,2024,127.422260517222,18.531907927361
$GPGGA,100802.00,3337.0782,N,11913.8584,W,1,10,0.8,10.1,M,-34.3,M,,*66
$PYRTM,2024,127.422272104271,18.531919514410
$GPGGA,100803.00,3337.0765,N,11913.8568,W,1,10,0.8,10.1,M,-34.3,M,,*6C
$PYRTM,2024,127.422279498553,18.531926908692
$GPGGA,100804.00,3337.0745,N,11913.8555,W,1,10,0.8,10.4,M,-34.3,M,,*62
$PYRTM,2024,127.422295252604,18.531942662743
$GPGGA,100805.00,3337.0723,N,11913.8544,W,1,10,0.8,10.7,M,-34.3,M,,*60
$PYRTM,2024,127.422302646366,18.531950056505
$GPGGA,100806.00,3337.0702,N,11913.8532,W,1,10,0.8,11.0,M,-34.3,M,,*67
$PYRTM,2024,127.422321295938,18.531968706076
$GPGGA,100807.00,3337.0683,N,11913.8517,W,1,10,0.8,11.3,M,-34.3,M,,*6A
$PYRTM,2024,127.422329961100,18.531977371250
$GPGGA,100808.00,3337.0665,N,11913.8500,W,1,10,0.8,11.3,M,-34.3,M,,*6B
$PYRTM,2024,127.422341547361,18.531988957500
$GPGGA,100809.00,3337.0645,N,11913.8483,W,1,10,0.8,11.2,M,-34.3,M,,*63
$PYRTM,2024,127.422348955370,18.531996365509
$GPGGA,100810.00,3337.0625,N,11913.8469,W,1,10,0.8,11.0,M,-34.3,M,,*6B
$PYRTM,2024,127.422364698414,18.532012108565
$GPGGA,100811.00,3337.0606,N,11913.8455,W,1,10,0.8,10.8,M,-34.3,M,,*6D
$PYRTM,2024,127.422376257500,18.532023667639
$GPGGA,100812.00,3337.0587,N,11913.8441,W,1,10,0.8,10.4,M,-34.3,M,,*6D
$PYRTM,2024,127.422387844248,18.532035254387
$GPGGA,100813.00,3337.0569,N,11913.8425,W,1,10,0.8,10.2,M,-34.3,M,,*68
$PYRTM,2024,127.422399404838,18.532046814977
$GPGGA,100814.00,3337.0550,N,11913.8412,W,1,10,0.8,10.1,M,-34.3,M,,*62
$PYRTM,2024,127.422410995451,18.532058405590
$GPGGA,100815.00,3337.0530,N,11913.8400,W,1,10,0.8,10.2,M,-34.3,M,,*65
$PYRTM,2024,127.422422554514,18.532069964664
$GPGGA,100816.00,3337.0509,N,11913.8387,W,1,10,0.8,10.4,M,-34.3,M,,*62
$PYRTM,2024,127.422434144063,18.532081554201
$GPGGA,100817.00,3337.0489,N,11913.8371,W,1,10,0.8,10.4,M,-34.3,M,,*63
$PYRTM,2024,127.422441536007,18.532088946157
$GPGGA,100818.00,3337.0470,N,11913.8353,W,1,10,0.8,10.5,M,-34.3,M,,*6B
$PYRTM,2024,127.422457290544,18.532104700683
$GPGGA,100819.00,3337.0450,N,11913.8336,W,1,10,0.8,10.7,M,-34.3,M,,*69
$PYRTM,2024,127.422468850544,18.532116260683
$GPGGA,100820.00,3337.0431,N,11913.8322,W,1,10,0.8,10.7,M,-34.3,M,,*61
$PYRTM,2024,127.422480437454,18.532127847593
$GPGGA,100821.00,3337.0411,N,11913.8310,W,1,10,0.8,10.7,M,-34.3,M,,*63
$PYRTM,2024,127.422492000243,18.532139410382
$GPGGA,100822.00,3337.0392,N,11913.8295,W,1,10,0.8,10.7,M,-34.3,M,,*60
$PYRTM,2024,127.422503581111,18.532150991250
$GPGGA,100823.00,3337.0374,N,11913.8279,W,1,10,0.8,10.6,M,-34.3,M,,*6A
$PYRTM,2024,127.422515148241,18.532162558380
$GPGGA,100824.00,3337.0355,N,11913.8264,W,1,10,0.8,10.3,M,-34.3,M,,*67
$PYRTM,2024,127.422526736701,18.532174146840
$GPGGA,100825.00,3337.0334,N,11913.8251,W,1,10,0.8,10.1,M,-34.3,M,,*65
$PYRTM,2024,127.422534128750,18.532181538889
$GPGGA,100826.00,3337.0315,N,11913.8239,W,1,10,0.8,10.1,M,-34.3,M,,*6B
$PYRTM,2024,127.422549885116,18.532197295255
$GPGGA,100827.00,3337.0295,N,11913.8225,W,1,10,0.8,10.2,M,-34.3,M,,*6D
$PYRTM,2024,127.422561442546,18.532208852685
$GPGGA,100828.00,3337.0276,N,11913.8210,W,1,10,0.8,10.3,M,-34.3,M,,*68
$PYRTM,2024,127.422573024896,18.532220435035
$GPGGA,100829.00,3337.0255,N,11913.8195,W,1,10,0.8,10.2,M,-34.3,M,,*67
$PYRTM,2024,127.422584593310,18.532232003449
$GPGGA,100830.00,3337.0236,N,11913.8180,W,1,10,0.8,10.2,M,-34.3,M,,*6E
$PYRTM,2024,127.422596179005,18.532243589144
$GPGGA,100831.00,3337.0216,N,11913.8165,W,1,10,0.8,10.4,M,-34.3,M,,*60
$PYRTM,2024,127.422607739525,18.532255149676
$GPGGA,100832.00,3337.0196,N,11913.8150,W,1,10,0.8,10.5,M,-34.3,M,,*6F
$PYRTM,2024,127.422619326910,18.532266737049
$GPGGA,100833.00,3337.0176,N,11913.8136,W,1,10,0.8,10.4,M,-34.3,M,,*61
$PYRTM,2024,127.422630889190,18.532278299340
$GPGGA,100834.00,3337.0156,N,11913.8122,W,1,10,0.8,10.2,M,-34.3,M,,*67
$PYRTM,2024,127.422642490000,18.532289900150
$GPGGA,100835.00,3337.0136,N,11913.8108,W,1,10,0.8,10.0,M,-34.3,M,,*6A
$PYRTM,2024,127.422654037199,18.532301447350
$GPGGA,100836.00,3337.0116,N,11913.8093,W,1,10,0.8,9.7,M,-34.3,M,,*57
