$PYRTM,2024,124.666670312801,15.776317722940
$GPGGA,155959.00,3525.0146,N,12106.9377,W,1,11,0.8,9.1,M,-31.4,M,,*5D
$PYRTM,2024,124.666681912581,15.776329322720
$GPGGA,160000.00,3525.0136,N,12106.9351,W,1,11,0.8,9.0,M,-31.4,M,,*5C
$PYRTM,2024,124.666689293993,15.776336704144
$GPGGA,160001.00,3525.0129,N,12106.9324,W,1,11,0.8,8.9,M,-31.4,M,,*59
$PYRTM,2024,124.666700995509,15.776348405648
$GPGGA,160002.00,3525.0121,N,12106.9298,W,1,11,0.8,8.8,M,-31.4,M,,*55
$PYRTM,2024,124.666719515764,15.776366925903
$GPGGA,160003.00,3525.0112,N,12106.9272,W,1,11,0.8,8.5,M,-31.4,M,,*5D
$PYRTM,2024,124.666728196134,15.776375606273
$GPGGA,160004.00,3525.0101,N,12106.9247,W,1,11,0.8,8.2,M,-31.4,M,,*59
$PYRTM,2024,124.666739757002,15.776387167141
$GPGGA,160005.00,3525.0092,N,12106.9222,W,1,11,0.8,8.1,M,-31.4,M,,*53
$PYRTM,2024,124.666751339317,15.776398749456
$GPGGA,160006.00,3525.0084,N,12106.9196,W,1,11,0.8,8.2,M,-31.4,M,,*58
$PYRTM,2024,124.666762908113,15.776410318252
$GPGGA,160007.00,3525.0077,N,12106.9168,W,1,11,0.8,8.3,M,-31.4,M,,*55
$PYRTM,2024,124.666774492454,15.776421902593
$GPGGA,160008.00,3525.0069,N,12106.9140,W,1,11,0.8,8.6,M,-31.4,M,,*5A
$PYRTM,2024,124.666786054965,15.776433465104
$GPGGA,160009.00,3525.0060,N,12106.9114,W,1,11,0.8,9.0,M,-31.4,M,,*54
$PYRTM,2024,124.666797644120,15.776445054259
$GPGGA,160010.00,3525.0051,N,12106.9088,W,1,11,0.8,9.2,M,-31.4,M,,*58
$PYRTM,2024,124.666809201481,15.776456611620
$GPGGA,160011.00,3525.0042,N,12106.9061,W,1,11,0.8,9.1,M,-31.4,M,,*5F
$PYRTM,2024,124.666820792176,15.776468202315
$GPGGA,160012.00,3525.0033,N,12106.9035,W,1,11,0.8,9.1,M,-31.4,M,,*5B
$PYRTM,2024,124.666832350949,15.776479761088
$GPGGA,160013.00,3525.0025,N,12106.9008,W,1,11,0.8,8.9,M,-31.4,M,,*5A
$PYRTM,2024,124.666843937558,15.776491347697
$GPGGA,160014.00,3525.0017,N,12106.8982,W,1,11,0.8,8.7,M,-31.4,M,,*58
$PYRTM,2024,124.666855500081,15.776502910220
$GPGGA,160015.00,3525.0009,N,12106.8956,W,1,11,0.8,8.6,M,-31.4,M,,*5E
$PYRTM,2024,124.666862908391,15.776510318530
$GPGGA,160016.00,3525.0000,N,12106.8931,W,1,11,0.8,8.7,M,-31.4,M,,*54
$PYRTM,2024,124.666878647812,15.776526057951
$GPGGA,160017.00,3524.9990,N,12106.8905,W,1,11,0.8,8.8,M,-31.4,M,,*55
$PYRTM,2024,124.666890234433,15.776537644572
$GPGGA,160018.00,3524.9981,N,12106.8879,W,1,11,0.8,8.8,M,-31.4,M,,*50
$PYRTM,2024,124.666901796227,15.776549206366
$GPGGA,160019.00,3524.9973,N,12106.8853,W,1,11,0.8,8.9,M,-31.4,M,,*55
$PYRTM,2024,124.666913377164,15.776560787303
$GPGGA,160020.00,3524.9964,N,12106.8826,W,1,11,0.8,9.1,M,-31.4,M,,*52
$PYRTM,2024,124.666920778461,15.776568188611
$GPGGA,160021.00,3524.9956,N,12106.8800,W,1,11,0.8,9.4,M,-31.4,M,,*53
$PYRTM,2024,124.666936533252,15.776583943391
$GPGGA,160022.00,3524.9946,N,12106.8773,W,1,11,0.8,9.5,M,-31.4,M,,*5B
$PYRTM,2024,124.666948092419,15.776595502558
$GPGGA,160023.00,3524.9936,N,12106.8747,W,1,11,0.8,9.5,M,-31.4,M,,*5A
$PYRTM,2024,124.666959681562,15.776607091713
$GPGGA,160024.00,3524.9926,N,12106.8721,W,1,11,0.8,9.5,M,-31.4,M,,*5C
$PYRTM,2024,124.666971242361,15.776618652500
$GPGGA,160025.00,3524.9918,N,12106.8694,W,1,11,0.8,9.6,M,-31.4,M,,*5C
$PYRTM,2024,124.666982830243,15.776630240382
$GPGGA,160026.00,3524.9911,N,12106.8667,W,1,11,0.8,9.4,M,-31.4,M,,*58
$PYRTM,2024,124.666994388414,15.776641798565
$GPGGA,160027.00,3524.9903,N,12106.8640,W,1,11,0.8,9.3,M,-31.4,M,,*58
$PYRTM,2024,124.667005971690,15.776653381829
$GPGGA,160028.00,3524.9894,N,12106.8614,W,1,11,0.8,9.1,M,-31.4,M,,*5B
$PYRTM,2024,124.667017537975,15.776664948113
$GPGGA,160029.00,3524.9885,N,12106.8589,W,1,11,0.8,9.0,M,-31.4,M,,*5C
$PYRTM,2024,124.667029124086,15.776676534225
$GPGGA,160030.00,3524.9876,N,12106.8563,W,1,11,0.8,8.8,M,-31.4,M,,*55
$PYRTM,2024,124.667040686863,15.776688097002
$GPGGA,160031.00,3524.9869,N,12106.8536,W,1,11,0.8,8.7,M,-31.4,M,,*55
$PYRTM,2024,124.667052274907,15.776699685046
$GPGGA,160032.00,3524.9861,N,12106.8509,W,1,11,0.8,8.8,M,-31.4,M,,*5D
$PYRTM,2024,124.667059673692,15.776707083831
$GPGGA,160033.00,3524.9851,N,12106.8483,W,1,11,0.8,8.8,M,-31.4,M,,*5C
$PYRTM,2024,124.667078313229,15.776725723368
$GPGGA,160034.00,3524.9841,N,12106.8456,W,1,11,0.8,8.8,M,-31.4,M,,*52
$PYRTM,2024,124.667086980405,15.776734390544
$GPGGA,160035.00,3524.9832,N,12106.8429,W,1,11,0.8,8.9,M,-31.4,M,,*5E
$PYRTM,2024,124.667098568750,15.776745978889
$GPGGA,160036.00,3524.9824,N,12106.8402,W,1,11,0.8,9.0,M,-31.4,M,,*5B
$PYRTM,2024,124.667110129063,15.776757539201
$GPGGA,160037.00,3524.9816,N,12106.8374,W,1,11,0.8,9.0,M,-31.4,M,,*5D
$PYRTM,2024,124.667117536921,15.776764947072
$GPGGA,160038.00,3524.9808,N,12106.8348,W,1,11,0.8,8.8,M,-31.4,M,,*5B
$PYRTM,2024,124.667133276840,15.776780686979
$GPGGA,160039.00,3524.9799,N,12106.8322,W,1,11,0.8,8.5,M,-31.4,M,,*5C
$PYRTM,2024,124.667144869282,15.776792279664
$GPGGA,160040.00,3524.9790,N,12106.8297,W,1,11,0.8,8.3,M,-31.4,M,,*52
$PYRTM,2024,124.667156426181,15.776803836319
$GPGGA,160041.00,3524.9782,N,12106.8271,W,1,11,0.8,8.1,M,-31.4,M,,*5A
$PYRTM,2024,124.667168028137,15.776815438275
$GPGGA,160042.00,3524.9774,N,12106.8244,W,1,11,0.8,8.0,M,-31.4,M,,*57
$PYRTM,2024,124.667179573252,15.776826983391
$GPGGA,160043.00,3524.9766,N,12106.8218,W,1,11,0.8,8.2,M,-31.4,M,,*5E
$PYRTM,2024,124.667191164896,15.776838575035
$GPGGA,160044.00,3524.9756,N,12106.8191,W,1,11,0.8,8.4,M,-31.4,M,,*5E
$PYRTM,2024,124.667202722315,15.776850132454
$GPGGA,160045.00,3524.9746,N,12106.8165,W,1,11,0.8,8.6,M,-31.4,M,,*57
$PYRTM,2024,124.667214309271,15.776861719410
$GPGGA,160046.00,3524.9736,N,12106.8139,W,1,11,0.8,8.7,M,-31.4,M,,*5B
$PYRTM,2024,124.667225870475,15.776873280613
$GPGGA,160047.00,3524.9727,N,12106.8112,W,1,11,0.8,8.7,M,-31.4,M,,*53
$PYRTM,2024,124.667233285648,15.776880695787
$GPGGA,160048.00,3524.9719,N,12106.8085,W,1,11,0.8,8.7,M,-31.4,M,,*5E
$PYRTM,2024,124.667249018437,15.776896428576
$GPGGA,160049.00,3524.9711,N,12106.8059,W,1,11,0.8,8.5,M,-31.4,M,,*54
$PYRTM,2024,124.667260606852,15.776908016991
$GPGGA,160050.00,3524.9702,N,12106.8033,W,1,11,0.8,8.3,M,-31.4,M,,*54
$PYRTM,2024,124.667272168808,15.776919578947
$GPGGA,160051.00,3524.9693,N,12106.8009,W,1,11,0.8,8.2,M,-31.4,M,,*54
$PYRTM,2024,124.667283769352,15.776931179491
$GPGGA,160052.00,3524.9683,N,12106.7983,W,1,11,0.8,8.2,M,-31.4,M,,*52
$PYRTM,2024,124.667291148484,15.776938558623
$GPGGA,160053.00,3524.9675,N,12106.7956,W,1,11,0.8,8.1,M,-31.4,M,,*51
$PYRTM,2024,124.667306906308,15.776954316447
$GPGGA,160054.00,3524.9667,N,12106.7928,W,1,11,0.8,8.1,M,-31.4,M,,*5C
$PYRTM,2024,124.667318463727,15.776965873866
$GPGGA,160055.00,3524.9659,N,12106.7902,W,1,11,0.8,8.4,M,-31.4,M,,*5D
$PYRTM,2024,124.667330051169,15.776977461308
$GPGGA,160056.00,3524.9649,N,12106.7876,W,1,11,0.8,8.6,M,-31.4,M,,*5F
$PYRTM,2024,124.667341611262,15.776989021400
$GPGGA,160057.00,3524.9639,N,12106.7849,W,1,11,0.8,8.7,M,-31.4,M,,*54
$PYRTM,2024,124.667353198657,15.777000608796
$GPGGA,160058.00,3524.9630,N,12106.7821,W,1,11,0.8,8.5,M,-31.4,M,,*5E
$PYRTM,2024,124.667364760845,15.777012170984
$GPGGA,160059.00,3524.9621,N,12106.7794,W,1,11,0.8,8.3,M,-31.4,M,,*58
$PYRTM,2024,124.667372168854,15.777019578993
$GPGGA,160100.00,3524.9613,N,12106.7769,W,1,11,0.8,8.2,M,-31.4,M,,*57
$PYRTM,2024,124.667387908796,15.777035318935
$GPGGA,160101.00,3524.9604,N,12106.7743,W,1,11,0.8,8.2,M,-31.4,M,,*58
$PYRTM,2024,124.667399498449,15.777046908600
$GPGGA,160102.00,3524.9595,N,12106.7718,W,1,11,0.8,8.2,M,-31.4,M,,*5E
$PYRTM,2024,124.667406891794,15.777054301933
$GPGGA,160103.00,3524.9586,N,12106.7693,W,1,11,0.8,8.1,M,-31.4,M,,*5C
$PYRTM,2024,124.667418698275,15.777066108414
$GPGGA,160104.00,3524.9576,N,12106.7668,W,1,11,0.8,8.3,M,-31.4,M,,*52
$PYRTM,2024,124.667437122951,15.777084533090
$GPGGA,160105.00,3524.9566,N,12106.7642,W,1,11,0.8,8.5,M,-31.4,M,,*5C
$PYRTM,2024,124.667445792465,15.777093202604
$GPGGA,160106.00,3524.9557,N,12106.7615,W,1,11,0.8,8.7,M,-31.4,M,,*5D
$PYRTM,2024,124.667457354039,15.777104764178
$GPGGA,160107.00,3524.9549,N,12106.7588,W,1,11,0.8,8.8,M,-31.4,M,,*5B
$PYRTM,2024,124.667464761806,15.777112171944
$GPGGA,160108.00,3524.9540,N,12106.7560,W,1,11,0.8,8.6,M,-31.4,M,,*55
$PYRTM,2024,124.667480502407,15.777127912546
$GPGGA,160109.00,3524.9531,N,12106.7532,W,1,11,0.8,8.3,M,-31.4,M,,*50
$PYRTM,2024,124.667492088542,15.777139498681
$GPGGA,160110.00,3524.9521,N,12106.7506,W,1,11,0.8,8.1,M,-31.4,M,,*5C
$PYRTM,2024,124.667503650301,15.777151060440
$GPGGA,160111.00,3524.9513,N,12106.7480,W,1,11,0.8,8.1,M,-31.4,M,,*53
$PYRTM,2024,124.667515231609,15.777162641748
$GPGGA,160112.00,3524.9504,N,12106.7454,W,1,11,0.8,7.9,M,-31.4,M,,*58
$PYRTM,2024,124.667522632523,15.777170042674
$GPGGA,160113.00,3524.9495,N,12106.7428,W,1,11,0.8,7.7,M,-31.4,M,,*55
$PYRTM,2024,124.667538388843,15.777185798993
$GPGGA,160114.00,3524.9484,N,12106.7403,W,1,11,0.8,7.6,M,-31.4,M,,*5A
$PYRTM,2024,124.667549946563,15.777197356701
$GPGGA,160115.00,3524.9475,N,12106.7378,W,1,11,0.8,7.6,M,-31.4,M,,*5E
$PYRTM,2024,124.667561649213,15.777209059352
$GPGGA,160116.00,3524.9467,N,12106.7351,W,1,11,0.8,7.8,M,-31.4,M,,*5B
$PYRTM,2024,124.667573234688,15.777220644826
$GPGGA,160117.00,3524.9461,N,12106.7323,W,1,11,0.8,8.0,M,-31.4,M,,*5E
$PYRTM,2024,124.667580509005,15.777227919144
$GPGGA,160118.00,3524.9453,N,12106.7296,W,1,11,0.8,8.2,M,-31.4,M,,*5D
$PYRTM,2024,124.667596397488,15.777243807627
$GPGGA,160119.00,3524.9442,N,12106.7270,W,1,11,0.8,8.4,M,-31.4,M,,*52
$PYRTM,2024,124.667607945231,15.777255355370
$GPGGA,160120.00,3524.9431,N,12106.7245,W,1,11,0.8,8.4,M,-31.4,M,,*5A
$PYRTM,2024,124.667619392083,15.777266802222
$GPGGA,160121.00,3524.9420,N,12106.7219,W,1,11,0.8,8.4,M,-31.4,M,,*52
$PYRTM,2024,124.667630973738,15.777278383877
$GPGGA,160122.00,3524.9412,N,12106.7193,W,1,11,0.8,8.2,M,-31.4,M,,*57
$PYRTM,2024,124.667638374525,15.777285784664
$GPGGA,160123.00,3524.9404,N,12106.7166,W,1,11,0.8,8.0,M,-31.4,M,,*59
$PYRTM,2024,124.667654130868,15.777301541007
$GPGGA,160124.00,3524.9395,N,12106.7141,W,1,11,0.8,7.8,M,-31.4,M,,*53
$PYRTM,2024,124.667661523090,15.777308933241
$GPGGA,160125.00,3524.9384,N,12106.7116,W,1,11,0.8,7.5,M,-31.4,M,,*5D
$PYRTM,2024,124.667677278171,15.777324688310
$GPGGA,160126.00,3524.9375,N,12106.7090,W,1,11,0.8,7.4,M,-31.4,M,,*5E
$PYRTM,2024,124.667688836354,15.777336246493
$GPGGA,160127.00,3524.9366,N,12106.7063,W,1,11,0.8,7.5,M,-31.4,M,,*50
$PYRTM,2024,124.667696242986,15.777343653125
$GPGGA,160128.00,3524.9358,N,12106.7036,W,1,11,0.8,7.8,M,-31.4,M,,*5F
$PYRTM,2024,124.667711985208,15.777359395359
$GPGGA,160129.00,3524.9349,N,12106.7009,W,1,11,0.8,8.1,M,-31.4,M,,*54
$PYRTM,2024,124.667723572824,15.777370982963
$GPGGA,160130.00,3524.9338,N,12106.6984,W,1,11,0.8,8.4,M,-31.4,M,,*52
$PYRTM,2024,124.667735134641,15.777382544780
$GPGGA,160131.00,3524.9327,N,12106.6958,W,1,11,0.8,8.3,M,-31.4,M,,*5B
$PYRTM,2024,124.667746722407,15.777394132546
$GPGGA,160132.00,3524.9318,N,12106.6932,W,1,11,0.8,8.0,M,-31.4,M,,*5B
$PYRTM,2024,124.667758282315,15.777405692454
$GPGGA,160133.00,3524.9311,N,12106.6906,W,1,11,0.8,7.8,M,-31.4,M,,*53
$PYRTM,2024,124.667769863519,15.777417273657
$GPGGA,160134.00,3524.9303,N,12106.6881,W,1,11,0.8,7.8,M,-31.4,M,,*59
$PYRTM,2024,124.667777263322,15.777424673461
$GPGGA,160135.00,3524.9294,N,12106.6856,W,1,11,0.8,7.8,M,-31.4,M,,*5D
$PYRTM,2024,124.667795905602,15.777443315741
$GPGGA,160136.00,3524.9285,N,12106.6830,W,1,11,0.8,7.9,M,-31.4,M,,*5F
$PYRTM,2024,124.667804578380,15.777451988519
$GPGGA,160137.00,3524.9275,N,12106.6804,W,1,11,0.8,8.0,M,-31.4,M,,*50
$PYRTM,2024,124.667811985162,15.777459395301
$GPGGA,160138.00,3524.9266,N,12106.6777,W,1,11,0.8,8.0,M,-31.4,M,,*56
$PYRTM,2024,124.667827726586,15.777475136725
$GPGGA,160139.00,3524.9257,N,12106.6750,W,1,11,0.8,7.9,M,-31.4,M,,*56
$PYRTM,2024,124.667839315706,15.777486725845
$GPGGA,160140.00,3524.9247,N,12106.6723,W,1,11,0.8,8.0,M,-31.4,M,,*5B
$PYRTM,2024,124.667850874144,15.777498284282
$GPGGA,160141.00,3524.9239,N,12106.6696,W,1,11,0.8,8.1,M,-31.4,M,,*5D
$PYRTM,2024,124.667862462546,15.777509872685
$GPGGA,160142.00,3524.9231,N,12106.6670,W,1,11,0.8,8.1,M,-31.4,M,,*5E
$PYRTM,2024,124.667869859850,15.777517269988
$GPGGA,160143.00,3524.9222,N,12106.6644,W,1,11,0.8,8.0,M,-31.4,M,,*5B
$PYRTM,2024,124.667885609051,15.777533019190
$GPGGA,160144.00,3524.9213,N,12106.6618,W,1,11,0.8,7.8,M,-31.4,M,,*50
$PYRTM,2024,124.667897170509,15.777544580660
$GPGGA,160145.00,3524.9205,N,12106.6592,W,1,11,0.8,7.6,M,-31.4,M,,*59
$PYRTM,2024,124.667908773449,15.777556183588
$GPGGA,160146.00,3524.9197,N,12106.6567,W,1,11,0.8,7.5,M,-31.4,M,,*5B
$PYRTM,2024,124.667920321030,15.777567731169
$GPGGA,160147.00,3524.9188,N,12106.6541,W,1,11,0.8,7.6,M,-31.4,M,,*53
$PYRTM,2024,124.667931906076,15.777579316215
$GPGGA,160148.00,3524.9179,N,12106.6514,W,1,11,0.8,7.6,M,-31.4,M,,*52
$PYRTM,2024,124.667943467812,15.777590877951
$GPGGA,160149.00,3524.9170,N,12106.6488,W,1,11,0.8,7.8,M,-31.4,M,,*50
$PYRTM,2024,124.667955054711,15.777602464850
$GPGGA,160150.00,3524.9161,N,12106.6462,W,1,11,0.8,8.0,M,-31.4,M,,*5B
$PYRTM,2024,124.667966615845,15.777614025984
$GPGGA,160151.00,3524.9153,N,12106.6434,W,1,11,0.8,8.1,M,-31.4,M,,*59
$PYRTM,2024,124.667978198576,15.777625608727
$GPGGA,160152.00,3524.9145,N,12106.6407,W,1,11,0.8,8.0,M,-31.4,M,,*5C
$PYRTM,2024,124.667985598275,15.777633008414
$GPGGA,160153.00,3524.9136,N,12106.6381,W,1,11,0.8,7.9,M,-31.4,M,,*56
$PYRTM,2024,124.668001345868,15.777648756007
$GPGGA,160154.00,3524.9127,N,12106.6356,W,1,11,0.8,7.9,M,-31.4,M,,*5B
$PYRTM,2024,124.668008745405,15.777656155544
$GPGGA,160155.00,3524.9118,N,12106.6331,W,1,11,0.8,7.9,M,-31.4,M,,*57
$PYRTM,2024,124.668024502118,15.777671912257
$GPGGA,160156.00,3524.9109,N,12106.6306,W,1,11,0.8,7.8,M,-31.4,M,,*51
$PYRTM,2024,124.668036060694,15.777683470833
$GPGGA,160157.00,3524.9100,N,12106.6281,W,1,11,0.8,7.6,M,-31.4,M,,*59
$PYRTM,2024,124.668047650509,15.777695060648
$GPGGA,160158.00,3524.9092,N,12106.6254,W,1,11,0.8,7.5,M,-31.4,M,,*57
$PYRTM,2024,124.668059209896,15.777706620035
$GPGGA,160159.00,3524.9083,N,12106.6227,W,1,11,0.8,7.5,M,-31.4,M,,*52
$PYRTM,2024,124.668070796319,15.777718206470
$GPGGA,160200.00,3524.9075,N,12106.6200,W,1,11,0.8,7.8,M,-31.4,M,,*5C
$PYRTM,2024,124.668082356991,15.777729767130
$GPGGA,160201.00,3524.9066,N,12106.6174,W,1,11,0.8,8.1,M,-31.4,M,,*59
$PYRTM,2024,124.668093944387,15.777741354525
$GPGGA,160202.00,3524.9056,N,12106.6147,W,1,11,0.8,8.3,M,-31.4,M,,*5B
$PYRTM,2024,124.668101339641,15.777748749792
$GPGGA,160203.00,3524.9047,N,12106.6120,W,1,11,0.8,8.3,M,-31.4,M,,*5B
$PYRTM,2024,124.668117086956,15.777764497095
$GPGGA,160204.00,3524.9038,N,12106.6094,W,1,11,0.8,8.2,M,-31.4,M,,*5B
$PYRTM,2024,124.668124487454,15.777771897593
$GPGGA,160205.00,3524.9029,N,12106.6069,W,1,11,0.8,8.0,M,-31.4,M,,*5A
$PYRTM,2024,124.668136190174,15.777783600313
$GPGGA,160206.00,3524.9020,N,12106.6043,W,1,11,0.8,7.7,M,-31.4,M,,*50
$PYRTM,2024,124.668154708345,15.777802118484
$GPGGA,160207.00,3524.9012,N,12106.6018,W,1,11,0.8,7.6,M,-31.4,M,,*5F
$PYRTM,2024,124.668166283032,15.777813693171
$GPGGA,160208.00,3524.9003,N,12106.5993,W,1,11,0.8,7.7,M,-31.4,M,,*58
$PYRTM,2024,124.668177867188,15.777825277326
$GPGGA,160209.00,3524.8994,N,12106.5967,W,1,11,0.8,7.8,M,-31.4,M,,*5B
$PYRTM,2024,124.668186537963,15.777833948102
$GPGGA,160210.00,3524.8986,N,12106.5941,W,1,11,0.8,8.0,M,-31.4,M,,*53
$PYRTM,2024,124.668198099213,15.777845509352
$GPGGA,160211.00,3524.8978,N,12106.5914,W,1,11,0.8,8.4,M,-31.4,M,,*57
$PYRTM,2024,124.668209685093,15.777857095231
$GPGGA,160212.00,3524.8969,N,12106.5887,W,1,11,0.8,8.5,M,-31.4,M,,*5E
$PYRTM,2024,124.668217082361,15.777864492500
$GPGGA,160213.00,3524.8961,N,12106.5860,W,1,11,0.8,8.5,M,-31.4,M,,*5E
$PYRTM,2024,124.668232833484,15.777880243623
$GPGGA,160214.00,3524.8951,N,12106.5834,W,1,11,0.8,8.3,M,-31.4,M,,*5D
$PYRTM,2024,124.668244395463,15.777891805602
$GPGGA,160215.00,3524.8941,N,12106.5809,W,1,11,0.8,8.1,M,-31.4,M,,*51
$PYRTM,2024,124.668255976944,15.777903387083
$GPGGA,160216.00,3524.8933,N,12106.5783,W,1,11,0.8,8.1,M,-31.4,M,,*5A
$PYRTM,2024,124.668267543854,15.777914953993
$GPGGA,160217.00,3524.8925,N,12106.5757,W,1,11,0.8,8.1,M,-31.4,M,,*55
$PYRTM,2024,124.668274956597,15.777922366736
$GPGGA,160218.00,3524.8918,N,12106.5730,W,1,11,0.8,8.1,M,-31.4,M,,*55
$PYRTM,2024,124.668290692257,15.777938102396
$GPGGA,160219.00,3524.8908,N,12106.5704,W,1,11,0.8,8.1,M,-31.4,M,,*52
$PYRTM,2024,124.668302280289,15.777949690428
$GPGGA,160220.00,3524.8899,N,12106.5679,W,1,11,0.8,8.2,M,-31.4,M,,*59
$PYRTM,2024,124.668313839155,15.777961249294
$GPGGA,160221.00,3524.8890,N,12106.5653,W,1,11,0.8,8.3,M,-31.4,M,,*58
$PYRTM,2024,124.668325426979,15.777972837118
$GPGGA,160222.00,3524.8882,N,12106.5626,W,1,11,0.8,8.3,M,-31.4,M,,*5A
$PYRTM,2024,124.668336988183,15.777984398322
$GPGGA,160223.00,3524.8874,N,12106.5599,W,1,11,0.8,8.4,M,-31.4,M,,*52
$PYRTM,2024,124.668348575023,15.777995985162
$GPGGA,160224.00,3524.8865,N,12106.5574,W,1,11,0.8,8.5,M,-31.4,M,,*57
$PYRTM,2024,124.668360137292,15.778007547431
$GPGGA,160225.00,3524.8855,N,12106.5548,W,1,11,0.8,8.4,M,-31.4,M,,*5B
$PYRTM,2024,124.668371723056,15.778019133194
$GPGGA,160226.00,3524.8846,N,12106.5523,W,1,11,0.8,8.2,M,-31.4,M,,*51
$PYRTM,2024,124.668383285498,15.778030695637
$GPGGA,160227.00,3524.8837,N,12106.5498,W,1,11,0.8,8.1,M,-31.4,M,,*54
$PYRTM,2024,124.668390690521,15.778038100671
$GPGGA,160228.00,3524.8829,N,12106.5472,W,1,11,0.8,8.1,M,-31.4,M,,*50
$PYRTM,2024,124.668406434225,15.778053844363
$GPGGA,160229.00,3524.8821,N,12106.5446,W,1,11,0.8,8.0,M,-31.4,M,,*5F
$PYRTM,2024,124.668418034711,15.778065444861
$GPGGA,160230.00,3524.8812,N,12106.5419,W,1,11,0.8,8.1,M,-31.4,M,,*5C
$PYRTM,2024,124.668429580359,15.778076990498
$GPGGA,160231.00,3524.8803,N,12106.5394,W,1,11,0.8,8.2,M,-31.4,M,,*5C
$PYRTM,2024,124.668441163935,15.778088574074
$GPGGA,160232.00,3524.8793,N,12106.5368,W,1,11,0.8,8.4,M,-31.4,M,,*5C
$PYRTM,2024,124.668448578252,15.778095988391
$GPGGA,160233.00,3524.8784,N,12106.5341,W,1,11,0.8,8.5,M,-31.4,M,,*51
$PYRTM,2024,124.668464316782,15.778111726921
$GPGGA,160234.00,3524.8776,N,12106.5314,W,1,11,0.8,8.6,M,-31.4,M,,*58
$PYRTM,2024,124.668475876562,15.778123286701
$GPGGA,160235.00,3524.8768,N,12106.5288,W,1,11,0.8,8.6,M,-31.4,M,,*52
$PYRTM,2024,124.668487464664,15.778134874803
$GPGGA,160236.00,3524.8760,N,12106.5261,W,1,11,0.8,8.6,M,-31.4,M,,*5E
$PYRTM,2024,124.668494861192,15.778142271331
$GPGGA,160237.00,3524.8751,N,12106.5235,W,1,11,0.8,8.4,M,-31.4,M,,*5E
$PYRTM,2024,124.668513506285,15.778160916424
$GPGGA,160238.00,3524.8741,N,12106.5209,W,1,11,0.8,8.1,M,-31.4,M,,*5A
$PYRTM,2024,124.668522176169,15.778169586308
$GPGGA,160239.00,3524.8732,N,12106.5183,W,1,11,0.8,7.9,M,-31.4,M,,*59
$PYRTM,2024,124.668529581944,15.778176992083
$GPGGA,160240.00,3524.8724,N,12106.5157,W,1,11,0.8,7.9,M,-31.4,M,,*59
$PYRTM,2024,124.668545322870,15.778192733021
$GPGGA,160241.00,3524.8716,N,12106.5131,W,1,11,0.8,8.0,M,-31.4,M,,*5F
$PYRTM,2024,124.668556909850,15.778204319988
$GPGGA,160242.00,3524.8706,N,12106.5105,W,1,11,0.8,8.2,M,-31.4,M,,*58
$PYRTM,2024,124.668564316898,15.778211727037
$GPGGA,160243.00,3524.8697,N,12106.5079,W,1,11,0.8,8.3,M,-31.4,M,,*5B
$PYRTM,2024,124.668580056968,15.778227467106
$GPGGA,160244.00,3524.8687,N,12106.5053,W,1,11,0.8,8.3,M,-31.4,M,,*55
$PYRTM,2024,124.668591620231,15.778239030370
$GPGGA,160245.00,3524.8679,N,12106.5027,W,1,11,0.8,8.5,M,-31.4,M,,*50
$PYRTM,2024,124.668603206354,15.778250616493
$GPGGA,160246.00,3524.8671,N,12106.5000,W,1,11,0.8,8.4,M,-31.4,M,,*5F
$PYRTM,2024,124.668614767396,15.778262177535
$GPGGA,160247.00,3524.8662,N,12106.4973,W,1,11,0.8,8.3,M,-31.4,M,,*57
$PYRTM,2024,124.668626349190,15.778273759329
$GPGGA,160248.00,3524.8654,N,12106.4946,W,1,11,0.8,8.1,M,-31.4,M,,*59
$PYRTM,2024,124.668638160509,15.778285570660
$GPGGA,160249.00,3524.8645,N,12106.4920,W,1,11,0.8,8.2,M,-31.4,M,,*5B
$PYRTM,2024,124.668649505486,15.778296915625
$GPGGA,160250.00,3524.8636,N,12106.4895,W,1,11,0.8,8.1,M,-31.4,M,,*5B
$PYRTM,2024,124.668661064155,15.778308474294
$GPGGA,160251.00,3524.8627,N,12106.4869,W,1,11,0.8,8.0,M,-31.4,M,,*58
$PYRTM,2024,124.668672665058,15.778320075197
$GPGGA,160252.00,3524.8619,N,12106.4842,W,1,11,0.8,8.0,M,-31.4,M,,*5F
$PYRTM,2024,124.668680046806,15.778327456944
$GPGGA,160253.00,3524.8611,N,12106.4815,W,1,11,0.8,8.1,M,-31.4,M,,*55
$PYRTM,2024,124.668695794271,15.778343204410
$GPGGA,160254.00,3524.8602,N,12106.4788,W,1,11,0.8,8.3,M,-31.4,M,,*59
$PYRTM,2024,124.668707361690,15.778354771829
$GPGGA,160255.00,3524.8592,N,12106.4763,W,1,11,0.8,8.5,M,-31.4,M,,*51
$PYRTM,2024,124.668718947419,15.778366357558
$GPGGA,160256.00,3524.8582,N,12106.4738,W,1,11,0.8,8.5,M,-31.4,M,,*5D
$PYRTM,2024,124.668730508414,15.778377918553
$GPGGA,160257.00,3524.8572,N,12106.4712,W,1,11,0.8,8.7,M,-31.4,M,,*59
$PYRTM,2024,124.668737915185,15.778385325324
$GPGGA,160258.00,3524.8564,N,12106.4686,W,1,11,0.8,8.6,M,-31.4,M,,*5C
$PYRTM,2024,124.668753656146,15.778401066285
$GPGGA,160259.00,3524.8556,N,12106.4660,W,1,11,0.8,8.5,M,-31.4,M,,*57
$PYRTM,2024,124.668765239282,15.778412649421
$GPGGA,160300.00,3524.8547,N,12106.4634,W,1,11,0.8,8.3,M,-31.4,M,,*5D
$PYRTM,2024,124.668776804606,15.778424214745
$GPGGA,160301.00,3524.8538,N,12106.4608,W,1,11,0.8,8.3,M,-31.4,M,,*5B
$PYRTM,2024,124.668788395463,15.778435805602
$GPGGA,160302.00,3524.8529,N,12106.4582,W,1,11,0.8,8.4,M,-31.4,M,,*5E
$PYRTM,2024,124.668799954028,15.778447364167
$GPGGA,160303.00,3524.8520,N,12106.4555,W,1,11,0.8,8.5,M,-31.4,M,,*5D
$PYRTM,2024,124.668811540775,15.778458950914
$GPGGA,160304.00,3524.8511,N,12106.4529,W,1,11,0.8,8.6,M,-31.4,M,,*50
$PYRTM,2024,124.668823101204,15.778470511343
$GPGGA,160305.00,3524.8502,N,12106.4502,W,1,11,0.8,8.8,M,-31.4,M,,*54
$PYRTM,2024,124.668834688727,15.778482098866
$GPGGA,160306.00,3524.8493,N,12106.4476,W,1,11,0.8,8.8,M,-31.4,M,,*5C
$PYRTM,2024,124.668846249410,15.778493659549
$GPGGA,160307.00,3524.8484,N,12106.4450,W,1,11,0.8,8.9,M,-31.4,M,,*5E
$PYRTM,2024,124.668853656447,15.778501066586
$GPGGA,160308.00,3524.8475,N,12106.4423,W,1,11,0.8,8.8,M,-31.4,M,,*5A
$PYRTM,2024,124.668872312025,15.778519722164
$GPGGA,160309.00,3524.8466,N,12106.4397,W,1,11,0.8,8.7,M,-31.4,M,,*5E
$PYRTM,2024,124.668880984676,15.778528394826
$GPGGA,160310.00,3524.8456,N,12106.4372,W,1,11,0.8,8.5,M,-31.4,M,,*5C
$PYRTM,2024,124.668892546609,15.778539956748
$GPGGA,160311.00,3524.8446,N,12106.4346,W,1,11,0.8,8.5,M,-31.4,M,,*5B
$PYRTM,2024,124.668899953461,15.778547363600
$GPGGA,160312.00,3524.8437,N,12106.4321,W,1,11,0.8,8.5,M,-31.4,M,,*5F
$PYRTM,2024,124.668918600903,15.778566011042
$GPGGA,160313.00,3524.8428,N,12106.4296,W,1,11,0.8,8.5,M,-31.4,M,,*5D
$PYRTM,2024,124.668930174699,15.778577584850
$GPGGA,160314.00,3524.8420,N,12106.4269,W,1,11,0.8,8.4,M,-31.4,M,,*53
$PYRTM,2024,124.668938845243,15.778586255394
$GPGGA,160315.00,3524.8412,N,12106.4243,W,1,11,0.8,8.4,M,-31.4,M,,*5B
$PYRTM,2024,124.668950424375,15.778597834514
$GPGGA,160316.00,3524.8403,N,12106.4217,W,1,11,0.8,8.5,M,-31.4,M,,*58
$PYRTM,2024,124.668961992095,15.778609402234
$GPGGA,160317.00,3524.8394,N,12106.4191,W,1,11,0.8,8.6,M,-31.4,M,,*5E
$PYRTM,2024,124.668973573623,15.778620983762
$GPGGA,160318.00,3524.8384,N,12106.4166,W,1,11,0.8,8.7,M,-31.4,M,,*59
$PYRTM,2024,124.668985138148,15.778632548287
$GPGGA,160319.00,3524.8375,N,12106.4140,W,1,11,0.8,8.8,M,-31.4,M,,*5D
$PYRTM,2024,124.668996725718,15.778644135856
$GPGGA,160320.00,3524.8366,N,12106.4113,W,1,11,0.8,8.7,M,-31.4,M,,*5C
$PYRTM,2024,124.669008288414,15.778655698553
$GPGGA,160321.00,3524.8357,N,12106.4087,W,1,11,0.8,8.7,M,-31.4,M,,*53
$PYRTM,2024,124.669019874236,15.778667284375
$GPGGA,160322.00,3524.8349,N,12106.4060,W,1,11,0.8,8.5,M,-31.4,M,,*54
$PYRTM,2024,124.669027269144,15.778674679282
$GPGGA,160323.00,3524.8340,N,12106.4034,W,1,11,0.8,8.3,M,-31.4,M,,*5B
$PYRTM,2024,124.669043141019,15.778690551157
$GPGGA,160324.00,3524.8330,N,12106.4009,W,1,11,0.8,8.1,M,-31.4,M,,*57
$PYRTM,2024,124.669054727859,15.778702137998
$GPGGA,160325.00,3524.8320,N,12106.3983,W,1,11,0.8,8.0,M,-31.4,M,,*5A
$PYRTM,2024,124.669066172419,15.778713582558
$GPGGA,160326.00,3524.8312,N,12106.3956,W,1,11,0.8,8.0,M,-31.4,M,,*50
$PYRTM,2024,124.669077732106,15.778725142257
$GPGGA,160327.00,3524.8305,N,12106.3930,W,1,11,0.8,8.3,M,-31.4,M,,*54
$PYRTM,2024,124.669085140046,15.778732550185
$GPGGA,160328.00,3524.8297,N,12106.3904,W,1,11,0.8,8.6,M,-31.4,M,,*53
$PYRTM,2024,124.669100879549,15.778748289688
$GPGGA,160329.00,3524.8287,N,12106.3878,W,1,11,0.8,8.7,M,-31.4,M,,*58
$PYRTM,2024,124.669112469919,15.778759880058
$GPGGA,160330.00,3524.8277,N,12106.3852,W,1,11,0.8,8.6,M,-31.4,M,,*56
$PYRTM,2024,124.669124028206,15.778771438345
$GPGGA,160331.00,3524.8268,N,12106.3827,W,1,11,0.8,8.7,M,-31.4,M,,*5A
$PYRTM,2024,124.669135611736,15.778783021875
$GPGGA,160332.00,3524.8259,N,12106.3801,W,1,11,0.8,8.7,M,-31.4,M,,*5F
$PYRTM,2024,124.669143013229,15.778790423368
$GPGGA,160333.00,3524.8251,N,12106.3774,W,1,11,0.8,8.7,M,-31.4,M,,*5B
$PYRTM,2024,124.669158778009,15.778806188148
$GPGGA,160334.00,3524.8242,N,12106.3748,W,1,11,0.8,8.7,M,-31.4,M,,*51
$PYRTM,2024,124.669170324641,15.778817734780
$GPGGA,160335.00,3524.8233,N,12106.3722,W,1,11,0.8,8.7,M,-31.4,M,,*5A
$PYRTM,2024,124.669181916551,15.778829326690
$GPGGA,160336.00,3524.8224,N,12106.3696,W,1,11,0.8,8.6,M,-31.4,M,,*50
$PYRTM,2024,124.669193475150,15.778840885289
$GPGGA,160337.00,3524.8215,N,12106.3670,W,1,11,0.8,8.5,M,-31.4,M,,*58
$PYRTM,2024,124.669205061412,15.778852471551
$GPGGA,160338.00,3524.8207,N,12106.3644,W,1,11,0.8,8.6,M,-31.4,M,,*50
$PYRTM,2024,124.669212471400,15.778859881551
$GPGGA,160339.00,3524.8198,N,12106.3618,W,1,11,0.8,8.9,M,-31.4,M,,*52
$PYRTM,2024,124.669231102002,15.778878512141
$GPGGA,160340.00,3524.8188,N,12106.3592,W,1,11,0.8,9.2,M,-31.4,M,,*56
$PYRTM,2024,124.669239769734,15.778887179873
$GPGGA,160341.00,3524.8179,N,12106.3566,W,1,11,0.8,9.3,M,-31.4,M,,*53
$PYRTM,2024,124.669251354236,15.778898764375
$GPGGA,160342.00,3524.8170,N,12106.3540,W,1,11,0.8,9.4,M,-31.4,M,,*5A
$PYRTM,2024,124.669258752338,15.778906162477
$GPGGA,160343.00,3524.8162,N,12106.3514,W,1,11,0.8,9.5,M,-31.4,M,,*58
$PYRTM,2024,124.669274500475,15.778921910613
$GPGGA,160344.00,3524.8154,N,12106.3486,W,1,11,0.8,9.4,M,-31.4,M,,*51
$PYRTM,2024,124.669281899711,15.778929309850
$GPGGA,160345.00,3524.8147,N,12106.3460,W,1,11,0.8,9.3,M,-31.4,M,,*5D
$PYRTM,2024,124.669294065799,15.778941475938
$GPGGA,160346.00,3524.8138,N,12106.3434,W,1,11,0.8,9.2,M,-31.4,M,,*56
$PYRTM,2024,124.669309214734,15.778956624873
$GPGGA,160347.00,3524.8129,N,12106.3408,W,1,11,0.8,9.0,M,-31.4,M,,*5A
$PYRTM,2024,124.669320802118,15.778968212269
$GPGGA,160348.00,3524.8121,N,12106.3383,W,1,11,0.8,9.0,M,-31.4,M,,*59
$PYRTM,2024,124.669332362292,15.778979772431
$GPGGA,160349.00,3524.8113,N,12106.3356,W,1,11,0.8,9.0,M,-31.4,M,,*51
$PYRTM,2024,124.669343949919,15.778991360058
$GPGGA,160350.00,3524.8105,N,12106.3329,W,1,11,0.8,8.9,M,-31.4,M,,*5E
$PYRTM,2024,124.669355511308,15.779002921447
$GPGGA,160351.00,3524.8096,N,12106.3302,W,1,11,0.8,8.8,M,-31.4,M,,*5C
$PYRTM,2024,124.669367098264,15.779014508403
$GPGGA,160352.00,3524.8087,N,12106.3277,W,1,11,0.8,8.9,M,-31.4,M,,*5D
$PYRTM,2024,124.669374492627,15.779021902766
$GPGGA,160353.00,3524.8078,N,12106.3250,W,1,11,0.8,9.1,M,-31.4,M,,*50
$PYRTM,2024,124.669390246806,15.779037656944
$GPGGA,160354.00,3524.8070,N,12106.3222,W,1,11,0.8,9.2,M,-31.4,M,,*59
$PYRTM,2024,124.669401808368,15.779049218507
$GPGGA,160355.00,3524.8063,N,12106.3194,W,1,11,0.8,9.1,M,-31.4,M,,*57
$PYRTM,2024,124.669413408924,15.779060819063
$GPGGA,160356.00,3524.8055,N,12106.3168,W,1,11,0.8,9.0,M,-31.4,M,,*53
$PYRTM,2024,124.669424956227,15.779072366366
$GPGGA,160357.00,3524.8046,N,12106.3143,W,1,11,0.8,8.9,M,-31.4,M,,*51
$PYRTM,2024,124.669432363137,15.779079773275
$GPGGA,160358.00,3524.8036,N,12106.3117,W,1,11,0.8,8.8,M,-31.4,M,,*59
$PYRTM,2024,124.669448104352,15.779095514491
$GPGGA,160359.00,3524.8028,N,12106.3090,W,1,11,0.8,8.6,M,-31.4,M,,*57
$PYRTM,2024,124.669459691400,15.779107101539
$GPGGA,160400.00,3524.8020,N,12106.3064,W,1,11,0.8,8.5,M,-31.4,M,,*5C
$PYRTM,2024,124.669471252083,15.779118662222
$GPGGA,160401.00,3524.8011,N,12106.3038,W,1,11,0.8,8.5,M,-31.4,M,,*56
$PYRTM,2024,124.669482839525,15.779130249653
$GPGGA,160402.00,3524.8004,N,12106.3011,W,1,11,0.8,8.6,M,-31.4,M,,*59
$PYRTM,2024,124.669494400150,15.779141810289
$GPGGA,160403.00,3524.7996,N,12106.2984,W,1,11,0.8,8.8,M,-31.4,M,,*5F
$PYRTM,2024,124.669505987106,15.779153397245
$GPGGA,160404.00,3524.7988,N,12106.2957,W,1,11,0.8,8.8,M,-31.4,M,,*59
$PYRTM,2024,124.669513382743,15.779160792882
$GPGGA,160405.00,3524.7979,N,12106.2930,W,1,11,0.8,8.8,M,-31.4,M,,*57
$PYRTM,2024,124.669529136285,15.779176546424
$GPGGA,160406.00,3524.7969,N,12106.2904,W,1,11,0.8,8.8,M,-31.4,M,,*52
$PYRTM,2024,124.669540697535,15.779188107674
$GPGGA,160407.00,3524.7960,N,12106.2878,W,1,11,0.8,8.6,M,-31.4,M,,*5E
$PYRTM,2024,124.669548104271,15.779195514410
$GPGGA,160408.00,3524.7951,N,12106.2851,W,1,11,0.8,8.4,M,-31.4,M,,*5A
$PYRTM,2024,124.669563845914,15.779211256053
$GPGGA,160409.00,3524.7943,N,12106.2825,W,1,11,0.8,8.4,M,-31.4,M,,*5B
$PYRTM,2024,124.669571252627,15.779218662766
$GPGGA,160410.00,3524.7934,N,12106.2799,W,1,11,0.8,8.5,M,-31.4,M,,*5A
$PYRTM,2024,124.669589894375,15.779237304514
$GPGGA,160411.00,3524.7925,N,12106.2772,W,1,11,0.8,8.6,M,-31.4,M,,*5D
$PYRTM,2024,124.669598580602,15.779245990741
$GPGGA,160412.00,3524.7917,N,12106.2745,W,1,11,0.8,8.6,M,-31.4,M,,*5B
$PYRTM,2024,124.669610141701,15.779257551840
$GPGGA,160413.00,3524.7908,N,12106.2718,W,1,11,0.8,8.6,M,-31.4,M,,*5C
$PYRTM,2024,124.669621729907,15.779269140046
$GPGGA,160414.00,3524.7899,N,12106.2691,W,1,11,0.8,8.8,M,-31.4,M,,*5C
$PYRTM,2024,124.669633289907,15.779280700046
$GPGGA,160415.00,3524.7890,N,12106.2665,W,1,11,0.8,8.9,M,-31.4,M,,*5E
$PYRTM,2024,124.669644872338,15.779292282477
$GPGGA,160416.00,3524.7881,N,12106.2638,W,1,11,0.8,8.8,M,-31.4,M,,*54
$PYRTM,2024,124.669652272106,15.779299682245
$GPGGA,160417.00,3524.7873,N,12106.2611,W,1,11,0.8,8.6,M,-31.4,M,,*5D
$PYRTM,2024,124.669664437847,15.779311847986
$GPGGA,160418.00,3524.7865,N,12106.2585,W,1,11,0.8,8.5,M,-31.4,M,,*58
$PYRTM,2024,124.669679586771,15.779326996910
$GPGGA,160419.00,3524.7856,N,12106.2560,W,1,11,0.8,8.5,M,-31.4,M,,*52
$PYRTM,2024,124.669691188056,15.779338598194
$GPGGA,160420.00,3524.7846,N,12106.2535,W,1,11,0.8,8.3,M,-31.4,M,,*5F
$PYRTM,2024,124.669702736667,15.779350146806
$GPGGA,160421.00,3524.7836,N,12106.2509,W,1,11,0.8,8.2,M,-31.4,M,,*57
$PYRTM,2024,124.669714318877,15.779361729016
$GPGGA,160422.00,3524.7828,N,12106.2482,W,1,11,0.8,8.2,M,-31.4,M,,*59
$PYRTM,2024,124.669721732639,15.779369142778
$GPGGA,160423.00,3524.7821,N,12106.2455,W,1,11,0.8,8.3,M,-31.4,M,,*5A
$PYRTM,2024,124.669737470312,15.779384880451
$GPGGA,160424.00,3524.7813,N,12106.2428,W,1,11,0.8,8.6,M,-31.4,M,,*53
$PYRTM,2024,124.669749031817,15.779396441956
$GPGGA,160425.00,3524.7802,N,12106.2401,W,1,11,0.8,8.6,M,-31.4,M,,*59
$PYRTM,2024,124.669760619630,15.779408029769
$GPGGA,160426.00,3524.7792,N,12106.2374,W,1,11,0.8,8.5,M,-31.4,M,,*5A
$PYRTM,2024,124.669772179722,15.779419589861
$GPGGA,160427.00,3524.7783,N,12106.2348,W,1,11,0.8,8.5,M,-31.4,M,,*54
$PYRTM,2024,124.669783767535,15.779431177674
$GPGGA,160428.00,3524.7775,N,12106.2322,W,1,11,0.8,8.5,M,-31.4,M,,*5E
$PYRTM,2024,124.669795329398,15.779442739537
$GPGGA,160429.00,3524.7767,N,12106.2295,W,1,11,0.8,8.5,M,-31.4,M,,*51
$PYRTM,2024,124.669806919306,15.779454329444
$GPGGA,160430.00,3524.7758,N,12106.2269,W,1,11,0.8,8.3,M,-31.4,M,,*50
$PYRTM,2024,124.669818478090,15.779465888241
$GPGGA,160431.00,3524.7749,N,12106.2243,W,1,11,0.8,8.3,M,-31.4,M,,*59
$PYRTM,2024,124.669830068565,15.779477478704
$GPGGA,160432.00,3524.7741,N,12106.2217,W,1,11,0.8,8.5,M,-31.4,M,,*55
$PYRTM,2024,124.669837463935,15.779484874074
$GPGGA,160433.00,3524.7733,N,12106.2191,W,1,11,0.8,8.5,M,-31.4,M,,*5C
$PYRTM,2024,124.669853211065,15.779500621204
$GPGGA,160434.00,3524.7724,N,12106.2164,W,1,11,0.8,8.5,M,-31.4,M,,*57
$PYRTM,2024,124.669864772928,15.779512183067
$GPGGA,160435.00,3524.7715,N,12106.2138,W,1,11,0.8,8.6,M,-31.4,M,,*5E
$PYRTM,2024,124.669876362025,15.779523772176
$GPGGA,160436.00,3524.7706,N,12106.2111,W,1,11,0.8,8.7,M,-31.4,M,,*55
$PYRTM,2024,124.669887921725,15.779535331863
$GPGGA,160437.00,3524.7696,N,12106.2085,W,1,11,0.8,8.6,M,-31.4,M,,*51
$PYRTM,2024,124.669895328275,15.779542738414
$GPGGA,160438.00,3524.7686,N,12106.2059,W,1,11,0.8,8.4,M,-31.4,M,,*5C
$PYRTM,2024,124.669911069560,15.779558479699
$GPGGA,160439.00,3524.7678,N,12106.2032,W,1,11,0.8,8.4,M,-31.4,M,,*51
$PYRTM,2024,124.669922657477,15.779570067616
$GPGGA,160440.00,3524.7671,N,12106.2006,W,1,11,0.8,8.5,M,-31.4,M,,*50
$PYRTM,2024,124.669930051887,15.779577462025
$GPGGA,160441.00,3524.7661,N,12106.1980,W,1,11,0.8,8.4,M,-31.4,M,,*55
$PYRTM,2024,124.669948697778,15.779596107917
$GPGGA,160442.00,3524.7652,N,12106.1954,W,1,11,0.8,8.3,M,-31.4,M,,*58
$PYRTM,2024,124.669960283542,15.779607693681
$GPGGA,160443.00,3524.7643,N,12106.1927,W,1,11,0.8,8.3,M,-31.4,M,,*5D
$PYRTM,2024,124.669971846493,15.779619256632
$GPGGA,160444.00,3524.7636,N,12106.1900,W,1,11,0.8,8.7,M,-31.4,M,,*59
$PYRTM,2024,124.669983431088,15.779630841227
$GPGGA,160445.00,3524.7628,N,12106.1872,W,1,11,0.8,8.8,M,-31.4,M,,*5C
$PYRTM,2024,124.669994996169,15.779642406319
$GPGGA,160446.00,3524.7619,N,12106.1845,W,1,11,0.8,8.8,M,-31.4,M,,*59
$PYRTM,2024,124.670003662627,15.779651072766
$GPGGA,160447.00,3524.7608,N,12106.1820,W,1,11,0.8,8.7,M,-31.4,M,,*54
$PYRTM,2024,124.670011069491,15.779658479630
$GPGGA,160448.00,3524.7599,N,12106.1794,W,1,11,0.8,8.7,M,-31.4,M,,*50
$PYRTM,2024,124.670026811944,15.779674222083
$GPGGA,160449.00,3524.7591,N,12106.1767,W,1,11,0.8,8.6,M,-31.4,M,,*54
$PYRTM,2024,124.670038393229,15.779685803368
$GPGGA,160450.00,3524.7584,N,12106.1740,W,1,11,0.8,8.5,M,-31.4,M,,*5E
$PYRTM,2024,124.670045795347,15.779693205486
$GPGGA,160451.00,3524.7576,N,12106.1712,W,1,11,0.8,8.3,M,-31.4,M,,*53
$PYRTM,2024,124.670061541644,15.779708951782
$GPGGA,160452.00,3524.7566,N,12106.1687,W,1,11,0.8,8.3,M,-31.4,M,,*5C
$PYRTM,2024,124.670068941956,15.779716352095
$GPGGA,160453.00,3524.7556,N,12106.1662,W,1,11,0.8,8.4,M,-31.4,M,,*52
$PYRTM,2024,124.670084708646,15.779732118785
$GPGGA,160454.00,3524.7547,N,12106.1636,W,1,11,0.8,8.5,M,-31.4,M,,*55
$PYRTM,2024,124.670096255475,15.779743665613
$GPGGA,160455.00,3524.7539,N,12106.1608,W,1,11,0.8,8.6,M,-31.4,M,,*53
$PYRTM,2024,124.670107843032,15.779755253171
$GPGGA,160456.00,3524.7531,N,12106.1581,W,1,11,0.8,8.8,M,-31.4,M,,*54
$PYRTM,2024,124.670119404329,15.779766814468
$GPGGA,160457.00,3524.7522,N,12106.1554,W,1,11,0.8,8.8,M,-31.4,M,,*5F
$PYRTM,2024,124.670126813194,15.779774223333
$GPGGA,160458.00,3524.7512,N,12106.1529,W,1,11,0.8,8.7,M,-31.4,M,,*56
$PYRTM,2024,124.670142554491,15.779789964630
$GPGGA,160459.00,3524.7502,N,12106.1503,W,1,11,0.8,8.5,M,-31.4,M,,*5C
$PYRTM,2024,124.670154137593,15.779801547731
$GPGGA,160500.00,3524.7493,N,12106.1478,W,1,11,0.8,8.4,M,-31.4,M,,*54
$PYRTM,2024,124.670165700752,15.779813110891
$GPGGA,160501.00,3524.7485,N,12106.1451,W,1,11,0.8,8.3,M,-31.4,M,,*5E
$PYRTM,2024,124.670177288507,15.779824698646
$GPGGA,160502.00,3524.7477,N,12106.1424,W,1,11,0.8,8.4,M,-31.4,M,,*55
$PYRTM,2024,124.670184681910,15.779832092049
$GPGGA,160503.00,3524.7469,N,12106.1397,W,1,11,0.8,8.5,M,-31.4,M,,*55
$PYRTM,2024,124.670200439144,15.779847849282
$GPGGA,160504.00,3524.7459,N,12106.1371,W,1,11,0.8,8.5,M,-31.4,M,,*59
$PYRTM,2024,124.670211997627,15.779859407766
$GPGGA,160505.00,3524.7449,N,12106.1344,W,1,11,0.8,8.5,M,-31.4,M,,*5F
$PYRTM,2024,124.670223588819,15.779870998958
$GPGGA,160506.00,3524.7440,N,12106.1318,W,1,11,0.8,8.6,M,-31.4,M,,*5F
$PYRTM,2024,124.670235145694,15.779882555833
$GPGGA,160507.00,3524.7432,N,12106.1291,W,1,11,0.8,8.7,M,-31.4,M,,*5A
$PYRTM,2024,124.670242554236,15.779889964387
$GPGGA,160508.00,3524.7423,N,12106.1264,W,1,11,0.8,8.8,M,-31.4,M,,*50
$PYRTM,2024,124.670258293843,15.779905703981
$GPGGA,160509.00,3524.7414,N,12106.1239,W,1,11,0.8,8.7,M,-31.4,M,,*52
$PYRTM,2024,124.670269876065,15.779917286204
$GPGGA,160510.00,3524.7404,N,12106.1213,W,1,11,0.8,8.6,M,-31.4,M,,*52
$PYRTM,2024,124.670281443067,15.779928853218
$GPGGA,160511.00,3524.7396,N,12106.1187,W,1,11,0.8,8.5,M,-31.4,M,,*52
$PYRTM,2024,124.670288851528,15.779936261667
$GPGGA,160512.00,3524.7389,N,12106.1159,W,1,11,0.8,8.5,M,-31.4,M,,*5C
$PYRTM,2024,124.670307522766,15.779954932905
$GPGGA,160513.00,3524.7381,N,12106.1132,W,1,11,0.8,8.5,M,-31.4,M,,*58
$PYRTM,2024,124.670316172593,15.779963582743
$GPGGA,160514.00,3524.7372,N,12106.1106,W,1,11,0.8,8.6,M,-31.4,M,,*57
$PYRTM,2024,124.670327738947,15.779975149097
$GPGGA,160515.00,3524.7361,N,12106.1080,W,1,11,0.8,8.6,M,-31.4,M,,*5B
$PYRTM,2024,124.670339340023,15.779986750162
$GPGGA,160516.00,3524.7351,N,12106.1053,W,1,11,0.8,8.6,M,-31.4,M,,*55
$PYRTM,2024,124.670350888368,15.779998298507
$GPGGA,160517.00,3524.7343,N,12106.1026,W,1,11,0.8,8.6,M,-31.4,M,,*55
$PYRTM,2024,124.670358295255,15.780005705394
$GPGGA,160518.00,3524.7336,N,12106.0999,W,1,11,0.8,8.5,M,-31.4,M,,*57
$PYRTM,2024,124.670374036111,15.780021446250
$GPGGA,160519.00,3524.7327,N,12106.0972,W,1,11,0.8,8.5,M,-31.4,M,,*53
$PYRTM,2024,124.670385623553,15.780033033692
$GPGGA,160520.00,3524.7317,N,12106.0947,W,1,11,0.8,8.6,M,-31.4,M,,*5F
$PYRTM,2024,124.670397182894,15.780044593044
$GPGGA,160521.00,3524.7307,N,12106.0921,W,1,11,0.8,8.6,M,-31.4,M,,*5F
$PYRTM,2024,124.670408771065,15.780056181204
$GPGGA,160522.00,3524.7299,N,12106.0895,W,1,11,0.8,8.6,M,-31.4,M,,*54
$PYRTM,2024,124.670416166748,15.780063576887
$GPGGA,160523.00,3524.7291,N,12106.0868,W,1,11,0.8,8.7,M,-31.4,M,,*5E
$PYRTM,2024,124.670431913819,15.780079323970
$GPGGA,160524.00,3524.7283,N,12106.0841,W,1,11,0.8,8.7,M,-31.4,M,,*51
$PYRTM,2024,124.670443480278,15.780090890417
$GPGGA,160525.00,3524.7274,N,12106.0814,W,1,11,0.8,8.7,M,-31.4,M,,*58
$PYRTM,2024,124.670455069028,15.780102479167
$GPGGA,160526.00,3524.7265,N,12106.0788,W,1,11,0.8,8.6,M,-31.4,M,,*50
$PYRTM,2024,124.670466756887,15.780114167025
$GPGGA,160527.00,3524.7256,N,12106.0762,W,1,11,0.8,8.7,M,-31.4,M,,*54
$PYRTM,2024,124.670478330370,15.780125740498
$GPGGA,160528.00,3524.7247,N,12106.0735,W,1,11,0.8,8.8,M,-31.4,M,,*56
$PYRTM,2024,124.670489906076,15.780137316215
$GPGGA,160529.00,3524.7238,N,12106.0708,W,1,11,0.8,8.7,M,-31.4,M,,*5E
$PYRTM,2024,124.670501480162,15.780148890301
$GPGGA,160530.00,3524.7229,N,12106.0681,W,1,11,0.8,8.6,M,-31.4,M,,*57
$PYRTM,2024,124.670513053426,15.780160463565
$GPGGA,160531.00,3524.7220,N,12106.0654,W,1,11,0.8,8.7,M,-31.4,M,,*56
$PYRTM,2024,124.670524516586,15.780171926725
$GPGGA,160532.00,3524.7212,N,12106.0627,W,1,11,0.8,8.8,M,-31.4,M,,*5F
$PYRTM,2024,124.670536078102,15.780183488241
$GPGGA,160533.00,3524.7202,N,12106.0601,W,1,11,0.8,8.7,M,-31.4,M,,*54
$PYRTM,2024,124.670547656146,15.780195066296
$GPGGA,160534.00,3524.7193,N,12106.0575,W,1,11,0.8,8.5,M,-31.4,M,,*5A
$PYRTM,2024,124.670555056042,15.780202466181
$GPGGA,160535.00,3524.7184,N,12106.0548,W,1,11,0.8,8.5,M,-31.4,M,,*53
$PYRTM,2024,124.670570808194,15.780218218333
$GPGGA,160536.00,3524.7176,N,12106.0522,W,1,11,0.8,8.5,M,-31.4,M,,*51
$PYRTM,2024,124.670582378032,15.780229788171
$GPGGA,160537.00,3524.7169,N,12106.0495,W,1,11,0.8,8.6,M,-31.4,M,,*50
$PYRTM,2024,124.670593961644,15.780241371782
$GPGGA,160538.00,3524.7160,N,12106.0468,W,1,11,0.8,8.7,M,-31.4,M,,*55
$PYRTM,2024,124.670605519155,15.780252929294
$GPGGA,160539.00,3524.7151,N,12106.0441,W,1,11,0.8,8.7,M,-31.4,M,,*5D
$PYRTM,2024,124.670612927303,15.780260337442
$GPGGA,160540.00,3524.7141,N,12106.0414,W,1,11,0.8,8.7,M,-31.4,M,,*52
$PYRTM,2024,124.670628666343,15.780276076481
$GPGGA,160541.00,3524.7133,N,12106.0387,W,1,11,0.8,8.8,M,-31.4,M,,*54
$PYRTM,2024,124.670640262106,15.780287672245
$GPGGA,160542.00,3524.7125,N,12106.0360,W,1,11,0.8,8.9,M,-31.4,M,,*58
$PYRTM,2024,124.670647661725,15.780295071863
$GPGGA,160543.00,3524.7116,N,12106.0334,W,1,11,0.8,8.8,M,-31.4,M,,*59
$PYRTM,2024,124.670666296215,15.780313706354
$GPGGA,160544.00,3524.7106,N,12106.0308,W,1,11,0.8,8.6,M,-31.4,M,,*5E
$PYRTM,2024,124.670674963542,15.780322373681
$GPGGA,160545.00,3524.7096,N,12106.0282,W,1,11,0.8,8.4,M,-31.4,M,,*56
$PYRTM,2024,124.670686549630,15.780333959769
$GPGGA,160546.00,3524.7088,N,12106.0256,W,1,11,0.8,8.5,M,-31.4,M,,*52
$PYRTM,2024,124.670698110972,15.780345521111
$GPGGA,160547.00,3524.7081,N,12106.0228,W,1,11,0.8,8.6,M,-31.4,M,,*50
$PYRTM,2024,124.670709700625,15.780357110764
$GPGGA,160548.00,3524.7073,N,12106.0200,W,1,11,0.8,8.7,M,-31.4,M,,*59
$PYRTM,2024,124.670721261470,15.780368671609
$GPGGA,160549.00,3524.7064,N,12106.0173,W,1,11,0.8,8.8,M,-31.4,M,,*56
$PYRTM,2024,124.670728667002,15.780376077141
$GPGGA,160550.00,3524.7054,N,12106.0147,W,1,11,0.8,8.9,M,-31.4,M,,*5B
$PYRTM,2024,124.670744408681,15.780391818819
$GPGGA,160551.00,3524.7044,N,12106.0120,W,1,11,0.8,8.9,M,-31.4,M,,*5A
$PYRTM,2024,124.670755997674,15.780403407813
$GPGGA,160552.00,3524.7037,N,12106.0093,W,1,11,0.8,9.0,M,-31.4,M,,*5C
$PYRTM,2024,124.670767556331,15.780414966470
$GPGGA,160553.00,3524.7029,N,12106.0066,W,1,11,0.8,8.9,M,-31.4,M,,*50
$PYRTM,2024,124.670779138067,15.780426548206
$GPGGA,160554.00,3524.7019,N,12106.0040,W,1,11,0.8,8.7,M,-31.4,M,,*5E
$PYRTM,2024,124.670786551227,15.780433961377
$GPGGA,160555.00,3524.7009,N,12106.0015,W,1,11,0.8,8.5,M,-31.4,M,,*5C
$PYRTM,2024,124.670802291852,15.780449701991
$GPGGA,160556.00,3524.7001,N,12105.9989,W,1,11,0.8,8.5,M,-31.4,M,,*51
$PYRTM,2024,124.670813852905,15.780461263044
$GPGGA,160557.00,3524.6993,N,12105.9962,W,1,11,0.8,8.6,M,-31.4,M,,*55
$PYRTM,2024,124.670825434028,15.780472844167
$GPGGA,160558.00,3524.6985,N,12105.9935,W,1,11,0.8,8.6,M,-31.4,M,,*5F
$PYRTM,2024,124.670837002222,15.780484412361
$GPGGA,160559.00,3524.6976,N,12105.9909,W,1,11,0.8,8.7,M,-31.4,M,,*5C
$PYRTM,2024,124.670844408299,15.780491818437
$GPGGA,160600.00,3524.6967,N,12105.9882,W,1,11,0.8,8.9,M,-31.4,M,,*5F
$PYRTM,2024,124.670860148565,15.780507558704
$GPGGA,160601.00,3524.6958,N,12105.9855,W,1,11,0.8,9.0,M,-31.4,M,,*50
$PYRTM,2024,124.670871739468,15.780519149606
$GPGGA,160602.00,3524.6950,N,12105.9827,W,1,11,0.8,8.8,M,-31.4,M,,*57
$PYRTM,2024,124.670883299225,15.780530709363
$GPGGA,160603.00,3524.6941,N,12105.9801,W,1,11,0.8,8.8,M,-31.4,M,,*52
$PYRTM,2024,124.670894884491,15.780542294630
$GPGGA,160604.00,3524.6933,N,12105.9774,W,1,11,0.8,8.8,M,-31.4,M,,*5D
$PYRTM,2024,124.670902292488,15.780549702627
$GPGGA,160605.00,3524.6924,N,12105.9748,W,1,11,0.8,8.8,M,-31.4,M,,*55
$PYRTM,2024,124.670918028345,15.780565438484
$GPGGA,160606.00,3524.6915,N,12105.9722,W,1,11,0.8,8.6,M,-31.4,M,,*56
$PYRTM,2024,124.670929595625,15.780577005764
$GPGGA,160607.00,3524.6907,N,12105.9696,W,1,11,0.8,8.5,M,-31.4,M,,*59
$PYRTM,2024,124.670941180891,15.780588591030
$GPGGA,160608.00,3524.6899,N,12105.9669,W,1,11,0.8,8.5,M,-31.4,M,,*50
$PYRTM,2024,124.670952744028,15.780600154167
$GPGGA,160609.00,3524.6891,N,12105.9642,W,1,11,0.8,8.5,M,-31.4,M,,*50
$PYRTM,2024,124.670964332049,15.780611742188
$GPGGA,160610.00,3524.6882,N,12105.9615,W,1,11,0.8,8.6,M,-31.4,M,,*5B
$PYRTM,2024,124.670975890856,15.780623300995
$GPGGA,160611.00,3524.6873,N,12105.9589,W,1,11,0.8,8.7,M,-31.4,M,,*53
$PYRTM,2024,124.670987473125,15.780634883264
$GPGGA,160612.00,3524.6864,N,12105.9562,W,1,11,0.8,8.9,M,-31.4,M,,*5D
$PYRTM,2024,124.670999037940,15.780646448079
$GPGGA,160613.00,3524.6856,N,12105.9535,W,1,11,0.8,8.9,M,-31.4,M,,*5F
$PYRTM,2024,124.671006446296,15.780653856435
$GPGGA,160614.00,3524.6848,N,12105.9508,W,1,11,0.8,8.8,M,-31.4,M,,*58
$PYRTM,2024,124.671025103981,15.780672514120
$GPGGA,160615.00,3524.6839,N,12105.9481,W,1,11,0.8,8.7,M,-31.4,M,,*50
$PYRTM,2024,124.671033769317,15.780681179456
$GPGGA,160616.00,3524.6831,N,12105.9455,W,1,11,0.8,8.7,M,-31.4,M,,*52
$PYRTM,2024,124.671045335185,15.780692745324
$GPGGA,160617.00,3524.6823,N,12105.9429,W,1,11,0.8,8.7,M,-31.4,M,,*5B
$PYRTM,2024,124.671056923657,15.780704333796
$GPGGA,160618.00,3524.6813,N,12105.9402,W,1,11,0.8,8.6,M,-31.4,M,,*5F
$PYRTM,2024,124.671068483738,15.780715893877
$GPGGA,160619.00,3524.6804,N,12105.9376,W,1,11,0.8,8.4,M,-31.4,M,,*5E
$PYRTM,2024,124.671075890752,15.780723300891
$GPGGA,160620.00,3524.6795,N,12105.9350,W,1,11,0.8,8.4,M,-31.4,M,,*57
$PYRTM,2024,124.671091632616,15.780739042755
$GPGGA,160621.00,3524.6786,N,12105.9324,W,1,11,0.8,8.5,M,-31.4,M,,*56
$PYRTM,2024,124.671103218056,15.780750628194
$GPGGA,160622.00,3524.6777,N,12105.9297,W,1,11,0.8,8.7,M,-31.4,M,,*50
$PYRTM,2024,124.671114779537,15.780762189676
$GPGGA,160623.00,3524.6769,N,12105.9270,W,1,11,0.8,8.8,M,-31.4,M,,*58
$PYRTM,2024,124.671126369722,15.780773779861
$GPGGA,160624.00,3524.6760,N,12105.9244,W,1,11,0.8,8.8,M,-31.4,M,,*51
$PYRTM,2024,124.671133761944,15.780781172083
$GPGGA,160625.00,3524.6751,N,12105.9217,W,1,11,0.8,8.8,M,-31.4,M,,*54
$PYRTM,2024,124.671149518727,15.780796928866
$GPGGA,160626.00,3524.6743,N,12105.9191,W,1,11,0.8,8.8,M,-31.4,M,,*59
$PYRTM,2024,124.671156909653,15.780804319792
$GPGGA,160627.00,3524.6734,N,12105.9164,W,1,11,0.8,8.8,M,-31.4,M,,*52
$PYRTM,2024,124.671172664595,15.780820074734
$GPGGA,160628.00,3524.6726,N,12105.9137,W,1,11,0.8,8.8,M,-31.4,M,,*58
$PYRTM,2024,124.671184224062,15.780831634201
$GPGGA,160629.00,3524.6718,N,12105.9110,W,1,11,0.8,8.9,M,-31.4,M,,*50
$PYRTM,2024,124.671191631597,15.780839041748
$GPGGA,160630.00,3524.6709,N,12105.9084,W,1,11,0.8,8.8,M,-31.4,M,,*55
$PYRTM,2024,124.671207372870,15.780854783009
$GPGGA,160631.00,3524.6699,N,12105.9058,W,1,11,0.8,8.6,M,-31.4,M,,*53
$PYRTM,2024,124.671218963611,15.780866373750
$GPGGA,160632.00,3524.6690,N,12105.9032,W,1,11,0.8,8.4,M,-31.4,M,,*57
$PYRTM,2024,124.671230522153,15.780877932292
$GPGGA,160633.00,3524.6682,N,12105.9006,W,1,11,0.8,8.3,M,-31.4,M,,*55
$PYRTM,2024,124.671242107049,15.780889517187
$GPGGA,160634.00,3524.6675,N,12105.8978,W,1,11,0.8,8.5,M,-31.4,M,,*5D
$PYRTM,2024,124.671249503403,15.780896913542
$GPGGA,160635.00,3524.6666,N,12105.8952,W,1,11,0.8,8.5,M,-31.4,M,,*56
$PYRTM,2024,124.671265271400,15.780912681539
$GPGGA,160636.00,3524.6656,N,12105.8925,W,1,11,0.8,8.6,M,-31.4,M,,*55
$PYRTM,2024,124.671276816887,15.780924227025
$GPGGA,160637.00,3524.6647,N,12105.8899,W,1,11,0.8,8.7,M,-31.4,M,,*53
$PYRTM,2024,124.671288407859,15.780935817998
$GPGGA,160638.00,3524.6638,N,12105.8872,W,1,11,0.8,8.8,M,-31.4,M,,*5E
$PYRTM,2024,124.671299966586,15.780947376725
$GPGGA,160639.00,3524.6631,N,12105.8845,W,1,11,0.8,8.8,M,-31.4,M,,*52
$PYRTM,2024,124.671307373819,15.780954783970
$GPGGA,160640.00,3524.6623,N,12105.8817,W,1,11,0.8,8.7,M,-31.4,M,,*57
$PYRTM,2024,124.671323115000,15.780970525139
$GPGGA,160641.00,3524.6614,N,12105.8791,W,1,11,0.8,8.7,M,-31.4,M,,*53
$PYRTM,2024,124.671334701308,15.780982111447
$GPGGA,160642.00,3524.6605,N,12105.8766,W,1,11,0.8,8.7,M,-31.4,M,,*58
$PYRTM,2024,124.671346264745,15.780993674884
$GPGGA,160643.00,3524.6596,N,12105.8740,W,1,11,0.8,8.5,M,-31.4,M,,*56
$PYRTM,2024,124.671357850787,15.781005260926
$GPGGA,160644.00,3524.6588,N,12105.8713,W,1,11,0.8,8.4,M,-31.4,M,,*59
$PYRTM,2024,124.671365243634,15.781012653773
$GPGGA,160645.00,3524.6580,N,12105.8686,W,1,11,0.8,8.4,M,-31.4,M,,*5D
$PYRTM,2024,124.671383890475,15.781031300625
$GPGGA,160646.00,3524.6572,N,12105.8660,W,1,11,0.8,8.5,M,-31.4,M,,*5A
$PYRTM,2024,124.671392558681,15.781039968819
$GPGGA,160647.00,3524.6563,N,12105.8633,W,1,11,0.8,8.7,M,-31.4,M,,*5F
$PYRTM,2024,124.671404161204,15.781051571343
$GPGGA,160648.00,3524.6554,N,12105.8605,W,1,11,0.8,8.7,M,-31.4,M,,*51
$PYRTM,2024,124.671415705914,15.781063116053
$GPGGA,160649.00,3524.6545,N,12105.8578,W,1,11,0.8,8.8,M,-31.4,M,,*56
$PYRTM,2024,124.671427297488,15.781074707627
$GPGGA,160650.00,3524.6537,N,12105.8551,W,1,11,0.8,8.8,M,-31.4,M,,*50
$PYRTM,2024,124.671438854051,15.781086264190
$GPGGA,160651.00,3524.6528,N,12105.8524,W,1,11,0.8,8.8,M,-31.4,M,,*5D
$PYRTM,2024,124.671450441354,15.781097851493
$GPGGA,160652.00,3524.6519,N,12105.8498,W,1,11,0.8,8.8,M,-31.4,M,,*5A
$PYRTM,2024,124.671462003738,15.781109413877
$GPGGA,160653.00,3524.6510,N,12105.8472,W,1,11,0.8,8.7,M,-31.4,M,,*59
$PYRTM,2024,124.671473591481,15.781121001620
$GPGGA,160654.00,3524.6502,N,12105.8446,W,1,11,0.8,8.5,M,-31.4,M,,*58
$PYRTM,2024,124.671485158403,15.781132568542
$GPGGA,160655.00,3524.6494,N,12105.8418,W,1,11,0.8,8.5,M,-31.4,M,,*5C
$PYRTM,2024,124.671496739769,15.781144149907
$GPGGA,160656.00,3524.6486,N,12105.8391,W,1,11,0.8,8.5,M,-31.4,M,,*5A
$PYRTM,2024,124.671508299988,15.781155710127
$GPGGA,160657.00,3524.6478,N,12105.8364,W,1,11,0.8,8.7,M,-31.4,M,,*52
$PYRTM,2024,124.671519882766,15.781167292917
$GPGGA,160658.00,3524.6469,N,12105.8338,W,1,11,0.8,8.9,M,-31.4,M,,*5A
$PYRTM,2024,124.671527282650,15.781174692789
$GPGGA,160659.00,3524.6459,N,12105.8312,W,1,11,0.8,8.9,M,-31.4,M,,*50
$PYRTM,2024,124.671543039630,15.781190449769
$GPGGA,160700.00,3524.6451,N,12105.8285,W,1,11,0.8,9.0,M,-31.4,M,,*52
$PYRTM,2024,124.671554597523,15.781202007662
$GPGGA,160701.00,3524.6444,N,12105.8258,W,1,11,0.8,8.8,M,-31.4,M,,*5E
$PYRTM,2024,124.671562005139,15.781209415278
$GPGGA,160702.00,3524.6436,N,12105.8230,W,1,11,0.8,8.7,M,-31.4,M,,*59
$PYRTM,2024,124.671577745440,15.781225155579
$GPGGA,160703.00,3524.6428,N,12105.8204,W,1,11,0.8,8.7,M,-31.4,M,,*50
$PYRTM,2024,124.671585152350,15.781232562488
$GPGGA,160704.00,3524.6419,N,12105.8177,W,1,11,0.8,8.8,M,-31.4,M,,*5D
$PYRTM,2024,124.671600894259,15.781248304398
$GPGGA,160705.00,3524.6411,N,12105.8151,W,1,11,0.8,8.9,M,-31.4,M,,*51
$PYRTM,2024,124.671612482025,15.781259892164
$GPGGA,160706.00,3524.6403,N,12105.8124,W,1,11,0.8,8.8,M,-31.4,M,,*52
$PYRTM,2024,124.671619889236,15.781267299375
$GPGGA,160707.00,3524.6394,N,12105.8097,W,1,11,0.8,8.7,M,-31.4,M,,*5C
$PYRTM,2024,124.671635629051,15.781283039190
$GPGGA,160708.00,3524.6385,N,12105.8070,W,1,11,0.8,8.7,M,-31.4,M,,*5A
$PYRTM,2024,124.671647190370,15.781294600509
$GPGGA,160709.00,3524.6377,N,12105.8044,W,1,11,0.8,8.8,M,-31.4,M,,*5E
$PYRTM,2024,124.671658777130,15.781306187269
$GPGGA,160710.00,3524.6369,N,12105.8017,W,1,11,0.8,8.9,M,-31.4,M,,*5E
$PYRTM,2024,124.671670339190,15.781317749340
$GPGGA,160711.00,3524.6361,N,12105.7989,W,1,11,0.8,8.9,M,-31.4,M,,*56
$PYRTM,2024,124.671677745903,15.781325156042
$GPGGA,160712.00,3524.6353,N,12105.7962,W,1,11,0.8,8.7,M,-31.4,M,,*5F
$PYRTM,2024,124.671693486493,15.781340896644
$GPGGA,160713.00,3524.6345,N,12105.7936,W,1,11,0.8,8.8,M,-31.4,M,,*57
$PYRTM,2024,124.671705075984,15.781352486123
$GPGGA,160714.00,3524.6335,N,12105.7910,W,1,11,0.8,8.8,M,-31.4,M,,*53
$PYRTM,2024,124.671716635035,15.781364045174
$GPGGA,160715.00,3524.6327,N,12105.7883,W,1,11,0.8,8.8,M,-31.4,M,,*5A
$PYRTM,2024,124.671724041817,15.781371451968
$GPGGA,160716.00,3524.6319,N,12105.7857,W,1,11,0.8,8.7,M,-31.4,M,,*52
$PYRTM,2024,124.671742688657,15.781390098796
$GPGGA,160717.00,3524.6311,N,12105.7829,W,1,11,0.8,8.5,M,-31.4,M,,*50
$PYRTM,2024,124.671751365278,15.781398775417
$GPGGA,160718.00,3524.6303,N,12105.7802,W,1,11,0.8,8.5,M,-31.4,M,,*55
$PYRTM,2024,124.671762931505,15.781410341655
$GPGGA,160719.00,3524.6295,N,12105.7776,W,1,11,0.8,8.6,M,-31.4,M,,*55
$PYRTM,2024,124.671774517639,15.781421927778
$GPGGA,160720.00,3524.6286,N,12105.7749,W,1,11,0.8,8.6,M,-31.4,M,,*51
$PYRTM,2024,124.671786079850,15.781433489988
$GPGGA,160721.00,3524.6277,N,12105.7723,W,1,11,0.8,8.5,M,-31.4,M,,*51
$PYRTM,2024,124.671793486852,15.781440896991
$GPGGA,160722.00,3524.6269,N,12105.7695,W,1,11,0.8,8.5,M,-31.4,M,,*51
$PYRTM,2024,124.671809227083,15.781456637222
$GPGGA,160723.00,3524.6261,N,12105.7669,W,1,11,0.8,8.6,M,-31.4,M,,*58
$PYRTM,2024,124.671820814479,15.781468224618
$GPGGA,160724.00,3524.6252,N,12105.7642,W,1,11,0.8,8.8,M,-31.4,M,,*58
$PYRTM,2024,124.671832375660,15.781479785799
$GPGGA,160725.00,3524.6242,N,12105.7616,W,1,11,0.8,8.9,M,-31.4,M,,*58
$PYRTM,2024,124.671843966053,15.781491376192
$GPGGA,160726.00,3524.6234,N,12105.7590,W,1,11,0.8,9.0,M,-31.4,M,,*5F
$PYRTM,2024,124.671851362512,15.781498772650
$GPGGA,160727.00,3524.6227,N,12105.7562,W,1,11,0.8,9.0,M,-31.4,M,,*51
$PYRTM,2024,124.671867113796,15.781514523935
$GPGGA,160728.00,3524.6219,N,12105.7535,W,1,11,0.8,8.9,M,-31.4,M,,*59
$PYRTM,2024,124.671878673032,15.781526083171
$GPGGA,160729.00,3524.6210,N,12105.7508,W,1,11,0.8,8.8,M,-31.4,M,,*5E
$PYRTM,2024,124.671890259306,15.781537669444
$GPGGA,160730.00,3524.6200,N,12105.7482,W,1,11,0.8,8.8,M,-31.4,M,,*54
$PYRTM,2024,124.671897673819,15.781545083958
$GPGGA,160731.00,3524.6190,N,12105.7456,W,1,11,0.8,8.9,M,-31.4,M,,*57
$PYRTM,2024,124.671913402894,15.781560813044
$GPGGA,160732.00,3524.6182,N,12105.7428,W,1,11,0.8,8.8,M,-31.4,M,,*5F
$PYRTM,2024,124.671924970081,15.781572380220
$GPGGA,160733.00,3524.6173,N,12105.7401,W,1,11,0.8,8.8,M,-31.4,M,,*5B
$PYRTM,2024,124.671936550822,15.781583960961
$GPGGA,160734.00,3524.6165,N,12105.7375,W,1,11,0.8,8.7,M,-31.4,M,,*50
$PYRTM,2024,124.671948117708,15.781595527847
$GPGGA,160735.00,3524.6156,N,12105.7349,W,1,11,0.8,8.8,M,-31.4,M,,*51
$PYRTM,2024,124.671959699282,15.781607109421
$GPGGA,160736.00,3524.6147,N,12105.7323,W,1,11,0.8,8.7,M,-31.4,M,,*51
$PYRTM,2024,124.671971266863,15.781618677002
$GPGGA,160737.00,3524.6138,N,12105.7297,W,1,11,0.8,8.7,M,-31.4,M,,*56
$PYRTM,2024,124.671982856505,15.781630266644
$GPGGA,160738.00,3524.6131,N,12105.7270,W,1,11,0.8,8.8,M,-31.4,M,,*56
$PYRTM,2024,124.671990247072,15.781637657211
$GPGGA,160739.00,3524.6123,N,12105.7243,W,1,11,0.8,8.9,M,-31.4,M,,*55
$PYRTM,2024,124.672006004086,15.781653414236
$GPGGA,160740.00,3524.6115,N,12105.7216,W,1,11,0.8,9.0,M,-31.4,M,,*56
$PYRTM,2024,124.672017562326,15.781664972465
$GPGGA,160741.00,3524.6105,N,12105.7189,W,1,11,0.8,9.0,M,-31.4,M,,*53
$PYRTM,2024,124.672029144074,15.781676554213
$GPGGA,160742.00,3524.6096,N,12105.7162,W,1,11,0.8,9.0,M,-31.4,M,,*5E
$PYRTM,2024,124.672040711296,15.781688121435
$GPGGA,160743.00,3524.6088,N,12105.7135,W,1,11,0.8,9.0,M,-31.4,M,,*52
$PYRTM,2024,124.672052297975,15.781699708113
$GPGGA,160744.00,3524.6080,N,12105.7107,W,1,11,0.8,9.0,M,-31.4,M,,*5C
$PYRTM,2024,124.672063858981,15.781711269120
$GPGGA,160745.00,3524.6072,N,12105.7080,W,1,11,0.8,8.8,M,-31.4,M,,*57
$PYRTM,2024,124.672075440752,15.781722850891
$GPGGA,160746.00,3524.6063,N,12105.7054,W,1,11,0.8,8.7,M,-31.4,M,,*52
$PYRTM,2024,124.672082840926,15.781730251076
$GPGGA,160747.00,3524.6054,N,12105.7028,W,1,11,0.8,8.6,M,-31.4,M,,*5D
$PYRTM,2024,124.672101486782,15.781748896921
$GPGGA,160748.00,3524.6046,N,12105.7002,W,1,11,0.8,8.6,M,-31.4,M,,*59
$PYRTM,2024,124.672110156238,15.781757566377
$GPGGA,160749.00,3524.6038,N,12105.6975,W,1,11,0.8,8.6,M,-31.4,M,,*59
$PYRTM,2024,124.672121756343,15.781769166481
$GPGGA,160750.00,3524.6031,N,12105.6948,W,1,11,0.8,8.8,M,-31.4,M,,*58
$PYRTM,2024,124.672133304109,15.781780714259
$GPGGA,160751.00,3524.6023,N,12105.6920,W,1,11,0.8,8.8,M,-31.4,M,,*54
$PYRTM,2024,124.672144904919,15.781792315058
$GPGGA,160752.00,3524.6014,N,12105.6893,W,1,11,0.8,8.9,M,-31.4,M,,*5B
$PYRTM,2024,124.672156452060,15.781803862199
$GPGGA,160753.00,3524.6005,N,12105.6866,W,1,11,0.8,9.0,M,-31.4,M,,*58
$PYRTM,2024,124.672168039271,15.781815449410
$GPGGA,160754.00,3524.5996,N,12105.6839,W,1,11,0.8,9.0,M,-31.4,M,,*55
$PYRTM,2024,124.672179599479,15.781827009618
$GPGGA,160755.00,3524.5988,N,12105.6811,W,1,11,0.8,8.9,M,-31.4,M,,*59
$PYRTM,2024,124.672191182894,15.781838593032
$GPGGA,160756.00,3524.5981,N,12105.6784,W,1,11,0.8,8.8,M,-31.4,M,,*51
$PYRTM,2024,124.672202748160,15.781850158299
$GPGGA,160757.00,3524.5972,N,12105.6758,W,1,11,0.8,8.7,M,-31.4,M,,*52
$PYRTM,2024,124.672214335127,15.781861745278
$GPGGA,160758.00,3524.5963,N,12105.6732,W,1,11,0.8,8.6,M,-31.4,M,,*50
$PYRTM,2024,124.672225897535,15.781873307674
$GPGGA,160759.00,3524.5954,N,12105.6706,W,1,11,0.8,8.7,M,-31.4,M,,*53
$PYRTM,2024,124.672237483947,15.781884894086
$GPGGA,160800.00,3524.5946,N,12105.6680,W,1,11,0.8,8.7,M,-31.4,M,,*5C
$PYRTM,2024,124.672249046285,15.781896456424
$GPGGA,160801.00,3524.5939,N,12105.6652,W,1,11,0.8,8.7,M,-31.4,M,,*5A
$PYRTM,2024,124.672260635150,15.781908045289
$GPGGA,160802.00,3524.5930,N,12105.6626,W,1,11,0.8,8.8,M,-31.4,M,,*5C
$PYRTM,2024,124.672268034062,15.781915444201
$GPGGA,160803.00,3524.5921,N,12105.6599,W,1,11,0.8,8.9,M,-31.4,M,,*5B
$PYRTM,2024,124.672283781771,15.781931191910
$GPGGA,160804.00,3524.5912,N,12105.6572,W,1,11,0.8,8.9,M,-31.4,M,,*59
$PYRTM,2024,124.672295341296,15.781942751435
$GPGGA,160805.00,3524.5905,N,12105.6544,W,1,11,0.8,9.0,M,-31.4,M,,*53
$PYRTM,2024,124.672302750023,15.781950160162
$GPGGA,160806.00,3524.5897,N,12105.6516,W,1,11,0.8,9.0,M,-31.4,M,,*5D
$PYRTM,2024,124.672318489387,15.781965899525
$GPGGA,160807.00,3524.5888,N,12105.6490,W,1,11,0.8,9.0,M,-31.4,M,,*5D
$PYRTM,2024,124.672330072477,15.781977482616
$GPGGA,160808.00,3524.5879,N,12105.6464,W,1,11,0.8,8.8,M,-31.4,M,,*5E
$PYRTM,2024,124.672341637627,15.781989047766
$GPGGA,160809.00,3524.5870,N,12105.6437,W,1,11,0.8,8.8,M,-31.4,M,,*50
$PYRTM,2024,124.672353219942,15.782000630081
$GPGGA,160810.00,3524.5862,N,12105.6410,W,1,11,0.8,8.8,M,-31.4,M,,*5E
$PYRTM,2024,124.672360620856,15.782008030995
$GPGGA,160811.00,3524.5855,N,12105.6383,W,1,11,0.8,8.7,M,-31.4,M,,*59
$PYRTM,2024,124.672376373889,15.782023784028
$GPGGA,160812.00,3524.5847,N,12105.6356,W,1,11,0.8,8.7,M,-31.4,M,,*51
$PYRTM,2024,124.672387935486,15.782035345625
$GPGGA,160813.00,3524.5838,N,12105.6329,W,1,11,0.8,8.7,M,-31.4,M,,*50
$PYRTM,2024,124.672399535347,15.782046945486
$GPGGA,160814.00,3524.5829,N,12105.6303,W,1,11,0.8,8.7,M,-31.4,M,,*5F
$PYRTM,2024,124.672411083183,15.782058493322
$GPGGA,160815.00,3524.5820,N,12105.6276,W,1,11,0.8,8.8,M,-31.4,M,,*5B
$PYRTM,2024,124.672418489190,15.782065899329
$GPGGA,160816.00,3524.5811,N,12105.6249,W,1,11,0.8,8.7,M,-31.4,M,,*59
$PYRTM,2024,124.672434231910,15.782081642049
$GPGGA,160817.00,3524.5802,N,12105.6222,W,1,11,0.8,8.7,M,-31.4,M,,*57
$PYRTM,2024,124.672441639005,15.782089049144
$GPGGA,160818.00,3524.5794,N,12105.6195,W,1,11,0.8,8.6,M,-31.4,M,,*56
$PYRTM,2024,124.672460271840,15.782107681979
$GPGGA,160819.00,3524.5786,N,12105.6167,W,1,11,0.8,8.7,M,-31.4,M,,*58
$PYRTM,2024,124.672468971354,15.782116381493
$GPGGA,160820.00,3524.5778,N,12105.6139,W,1,11,0.8,8.5,M,-31.4,M,,*5A
$PYRTM,2024,124.672476374016,15.782123784155
$GPGGA,160821.00,3524.5770,N,12105.6112,W,1,11,0.8,8.6,M,-31.4,M,,*59
$PYRTM,2024,124.672492114120,15.782139524259
$GPGGA,160822.00,3524.5760,N,12105.6087,W,1,11,0.8,8.6,M,-31.4,M,,*56
$PYRTM,2024,124.672503675891,15.782151086030
$GPGGA,160823.00,3524.5751,N,12105.6061,W,1,11,0.8,8.7,M,-31.4,M,,*5C
$PYRTM,2024,124.672515257928,15.782162668067
$GPGGA,160824.00,3524.5743,N,12105.6035,W,1,11,0.8,8.7,M,-31.4,M,,*59
$PYRTM,2024,124.672526825069,15.782174235208
$GPGGA,160825.00,3524.5735,N,12105.6008,W,1,11,0.8,8.6,M,-31.4,M,,*56
$PYRTM,2024,124.672534230810,15.782181640938
$GPGGA,160826.00,3524.5727,N,12105.5980,W,1,11,0.8,8.5,M,-31.4,M,,*5F
$PYRTM,2024,124.672549973484,15.782197383623
$GPGGA,160827.00,3524.5719,N,12105.5954,W,1,11,0.8,8.6,M,-31.4,M,,*59
$PYRTM,2024,124.672561562593,15.782208972731
$GPGGA,160828.00,3524.5710,N,12105.5927,W,1,11,0.8,8.7,M,-31.4,M,,*5A
$PYRTM,2024,124.672573120880,15.782220531019
$GPGGA,160829.00,3524.5701,N,12105.5900,W,1,11,0.8,8.8,M,-31.4,M,,*51
$PYRTM,2024,124.672584702708,15.782232112847
$GPGGA,160830.00,3524.5691,N,12105.5871,W,1,11,0.8,8.8,M,-31.4,M,,*56
$PYRTM,2024,124.672592116806,15.782239526944
$GPGGA,160831.00,3524.5682,N,12105.5844,W,1,11,0.8,8.7,M,-31.4,M,,*5C
$PYRTM,2024,124.672607850984,15.782255261123
$GPGGA,160832.00,3524.5673,N,12105.5817,W,1,11,0.8,8.8,M,-31.4,M,,*58
$PYRTM,2024,124.672619417037,15.782266827176
$GPGGA,160833.00,3524.5665,N,12105.5790,W,1,11,0.8,8.7,M,-31.4,M,,*51
$PYRTM,2024,124.672631007187,15.782278417326
$GPGGA,160834.00,3524.5656,N,12105.5763,W,1,11,0.8,8.6,M,-31.4,M,,*5B
$PYRTM,2024,124.672638399109,15.782285809248
$GPGGA,160835.00,3524.5648,N,12105.5737,W,1,11,0.8,8.5,M,-31.4,M,,*57
$PYRTM,2024,124.672650563993,15.782297974132
$GPGGA,160836.00,3524.5639,N,12105.5712,W,1,11,0.8,8.5,M,-31.4,M,,*55
$PYRTM,2024,124.672665715185,15.782313125324
$GPGGA,160837.00,3524.5630,N,12105.5685,W,1,11,0.8,8.6,M,-31.4,M,,*51
$PYRTM,2024,124.672677300370,15.782324710509
$GPGGA,160838.00,3524.5622,N,12105.5658,W,1,11,0.8,8.8,M,-31.4,M,,*53
$PYRTM,2024,124.672688862535,15.782336272674
$GPGGA,160839.00,3524.5613,N,12105.5631,W,1,11,0.8,8.8,M,-31.4,M,,*5F
$PYRTM,2024,124.672700451551,15.782347861690
