$PYRTM,2024,121.750003678356,12.859651088495
$GPGGA,175959.00,3246.0192,N,11732.0964,W,1,09,0.8,11.4,M,-34.5,M,,*66
$PYRTM,2024,121.750015255440,12.859662665579
$GPGGA,180000.00,3246.0204,N,11732.0988,W,1,09,0.8,11.1,M,-34.5,M,,*62
$PYRTM,2024,121.750026831933,12.859674242072
$GPGGA,180001.00,3246.0215,N,11732.1011,W,1,09,0.8,11.2,M,-34.5,M,,*68
$PYRTM,2024,121.750038403356,12.859685813495
$GPGGA,180002.00,3246.0224,N,11732.1035,W,1,09,0.8,11.7,M,-34.5,M,,*6A
$PYRTM,2024,121.750045797951,12.859693208090
$GPGGA,180003.00,3246.0233,N,11732.1058,W,1,09,0.8,12.3,M,-34.5,M,,*61
$PYRTM,2024,121.750061550475,12.859708960613
$GPGGA,180004.00,3246.0243,N,11732.1082,W,1,09,0.8,12.6,M,-34.5,M,,*63
$PYRTM,2024,121.750073126134,12.859720536273
$GPGGA,180005.00,3246.0255,N,11732.1106,W,1,09,0.8,12.4,M,-34.5,M,,*6A
$PYRTM,2024,121.750080535567,12.859727945706
$GPGGA,180006.00,3246.0267,N,11732.1131,W,1,09,0.8,11.7,M,-34.5,M,,*6C
$PYRTM,2024,121.750096273854,12.859743683993
$GPGGA,180007.00,3246.0276,N,11732.1154,W,1,09,0.8,11.5,M,-34.5,M,,*6C
$PYRTM,2024,121.750107850289,12.859755260428
$GPGGA,180008.00,3246.0285,N,11732.1174,W,1,09,0.8,12.0,M,-34.5,M,,*6B
$PYRTM,2024,121.750115245683,12.859762655822
$GPGGA,180009.00,3246.0296,N,11732.1196,W,1,09,0.8,12.7,M,-34.5,M,,*63
$PYRTM,2024,121.750130996759,12.859778406910
$GPGGA,180010.00,3246.0308,N,11732.1221,W,1,09,0.8,12.6,M,-34.5,M,,*63
$PYRTM,2024,121.750142571447,12.859789981586
$GPGGA,180011.00,3246.0317,N,11732.1246,W,1,09,0.8,12.1,M,-34.5,M,,*6A
$PYRTM,2024,121.750149967384,12.859797377523
$GPGGA,180012.00,3246.0325,N,11732.1269,W,1,09,0.8,11.8,M,-34.5,M,,*6F
$PYRTM,2024,121.750165720440,12.859813130579
$GPGGA,180013.00,3246.0334,N,11732.1292,W,1,09,0.8,11.8,M,-34.5,M,,*6A
$PYRTM,2024,121.750177293299,12.859824703437
$GPGGA,180014.00,3246.0345,N,11732.1313,W,1,09,0.8,12.2,M,-34.5,M,,*6A
$PYRTM,2024,121.750188869387,12.859836279525
$GPGGA,180015.00,3246.0357,N,11732.1334,W,1,09,0.8,12.6,M,-34.5,M,,*69
$PYRTM,2024,121.750200441354,12.859847851493
$GPGGA,180016.00,3246.0367,N,11732.1359,W,1,09,0.8,12.5,M,-34.5,M,,*61
$PYRTM,2024,121.750212018889,12.859859429028
$GPGGA,180017.00,3246.0376,N,11732.1385,W,1,09,0.8,12.1,M,-34.5,M,,*65
$PYRTM,2024,121.750219411308,12.859866821447
$GPGGA,180018.00,3246.0384,N,11732.1409,W,1,09,0.8,11.8,M,-34.5,M,,*6E
$PYRTM,2024,121.750235166782,12.859882576921
$GPGGA,180019.00,3246.0393,N,11732.1430,W,1,09,0.8,12.2,M,-34.5,M,,*6A
$PYRTM,2024,121.750246738310,12.859894148449
$GPGGA,180020.00,3246.0406,N,11732.1451,W,1,09,0.8,12.6,M,-34.5,M,,*68
$PYRTM,2024,121.750254135660,12.859901545799
$GPGGA,180021.00,3246.0418,N,11732.1477,W,1,09,0.8,12.3,M,-34.5,M,,*67
$PYRTM,2024,121.750269887558,12.859917297697
$GPGGA,180022.00,3246.0428,N,11732.1502,W,1,09,0.8,11.8,M,-34.5,M,,*6C
$PYRTM,2024,121.750281460301,12.859928870440
$GPGGA,180023.00,3246.0435,N,11732.1525,W,1,09,0.8,12.3,M,-34.5,M,,*6C
$PYRTM,2024,121.750288173866,12.859935584005
$GPGGA,180024.00,3246.0446,N,11732.1547,W,1,09,0.8,12.9,M,-34.5,M,,*61
$PYRTM,2024,121.750304608692,12.859952018843
$GPGGA,180025.00,3246.0459,N,11732.1571,W,1,09,0.8,12.9,M,-34.5,M,,*6B
$PYRTM,2024,121.750312003495,12.859959413634
$GPGGA,180026.00,3246.0471,N,11732.1596,W,1,09,0.8,12.6,M,-34.5,M,,*64
$PYRTM,2024,121.750330652685,12.859978062824
$GPGGA,180027.00,3246.0479,N,11732.1618,W,1,09,0.8,12.5,M,-34.5,M,,*6B
$PYRTM,2024,121.750339326007,12.859986736146
$GPGGA,180028.00,3246.0488,N,11732.1639,W,1,09,0.8,12.8,M,-34.5,M,,*64
$PYRTM,2024,121.750350910208,12.859998320347
$GPGGA,180029.00,3246.0500,N,11732.1663,W,1,09,0.8,12.7,M,-34.5,M,,*64
$PYRTM,2024,121.750362480220,12.860009890359
$GPGGA,180030.00,3246.0510,N,11732.1687,W,1,09,0.8,12.0,M,-34.5,M,,*60
$PYRTM,2024,121.750374056597,12.860021466736
$GPGGA,180031.00,3246.0519,N,11732.1709,W,1,09,0.8,11.8,M,-34.5,M,,*64
$PYRTM,2024,121.750385628160,12.860033038299
$GPGGA,180032.00,3246.0528,N,11732.1731,W,1,09,0.8,12.3,M,-34.5,M,,*66
$PYRTM,2024,121.750393023611,12.860040433750
$GPGGA,180033.00,3246.0538,N,11732.1753,W,1,09,0.8,12.7,M,-34.5,M,,*66
$PYRTM,2024,121.750408777153,12.860056187292
$GPGGA,180034.00,3246.0549,N,11732.1777,W,1,09,0.8,12.8,M,-34.5,M,,*6E
$PYRTM,2024,121.750416170741,12.860063580880
$GPGGA,180035.00,3246.0558,N,11732.1801,W,1,09,0.8,12.8,M,-34.5,M,,*61
$PYRTM,2024,121.750431924514,12.860079334653
$GPGGA,180036.00,3246.0567,N,11732.1823,W,1,09,0.8,13.1,M,-34.5,M,,*66
$PYRTM,2024,121.750443498333,12.860090908472
$GPGGA,180037.00,3246.0577,N,11732.1846,W,1,09,0.8,13.2,M,-34.5,M,,*66
$PYRTM,2024,121.750450906713,12.860098316852
$GPGGA,180038.00,3246.0588,N,11732.1870,W,1,09,0.8,13.2,M,-34.5,M,,*6C
$PYRTM,2024,121.750466643148,12.860114053287
$GPGGA,180039.00,3246.0601,N,11732.1894,W,1,09,0.8,12.9,M,-34.5,M,,*6F
$PYRTM,2024,121.750478222002,12.860125632153
$GPGGA,180040.00,3246.0612,N,11732.1918,W,1,09,0.8,12.6,M,-34.5,M,,*69
$PYRTM,2024,121.750485617083,12.860133027234
$GPGGA,180041.00,3246.0620,N,11732.1942,W,1,09,0.8,12.5,M,-34.5,M,,*65
$PYRTM,2024,121.750501369282,12.860148779421
$GPGGA,180042.00,3246.0630,N,11732.1966,W,1,09,0.8,11.8,M,-34.5,M,,*6F
$PYRTM,2024,121.750512938900,12.860160349039
$GPGGA,180043.00,3246.0643,N,11732.1990,W,1,09,0.8,11.6,M,-34.5,M,,*6D
$PYRTM,2024,121.750524518495,12.860171928646
$GPGGA,180044.00,3246.0657,N,11732.2013,W,1,09,0.8,11.8,M,-34.5,M,,*60
$PYRTM,2024,121.750536095000,12.860183505139
$GPGGA,180045.00,3246.0667,N,11732.2036,W,1,09,0.8,11.7,M,-34.5,M,,*6A
$PYRTM,2024,121.750547665405,12.860195075556
$GPGGA,180046.00,3246.0676,N,11732.2062,W,1,09,0.8,11.5,M,-34.5,M,,*6A
$PYRTM,2024,121.750559243102,12.860206653241
$GPGGA,180047.00,3246.0685,N,11732.2088,W,1,09,0.8,11.2,M,-34.5,M,,*64
$PYRTM,2024,121.750566635856,12.860214045995
$GPGGA,180048.00,3246.0696,N,11732.2111,W,1,09,0.8,11.4,M,-34.5,M,,*6E
$PYRTM,2024,121.750582391227,12.860229801377
$GPGGA,180049.00,3246.0708,N,11732.2133,W,1,09,0.8,11.9,M,-34.5,M,,*64
$PYRTM,2024,121.750593962106,12.860241372245
$GPGGA,180050.00,3246.0717,N,11732.2155,W,1,09,0.8,12.6,M,-34.5,M,,*6E
$PYRTM,2024,121.750601358194,12.860248768333
$GPGGA,180051.00,3246.0726,N,11732.2181,W,1,09,0.8,12.8,M,-34.5,M,,*6A
$PYRTM,2024,121.750617115289,12.860264525428
$GPGGA,180052.00,3246.0735,N,11732.2205,W,1,09,0.8,12.8,M,-34.5,M,,*64
$PYRTM,2024,121.750628685625,12.860276095764
$GPGGA,180053.00,3246.0746,N,11732.2228,W,1,09,0.8,12.5,M,-34.5,M,,*63
$PYRTM,2024,121.750636079965,12.860283490104
$GPGGA,180054.00,3246.0758,N,11732.2252,W,1,09,0.8,11.8,M,-34.5,M,,*68
$PYRTM,2024,121.750651828958,12.860299239097
$GPGGA,180055.00,3246.0768,N,11732.2277,W,1,09,0.8,11.3,M,-34.5,M,,*66
$PYRTM,2024,121.750663407697,12.860310817836
$GPGGA,180056.00,3246.0775,N,11732.2299,W,1,09,0.8,11.6,M,-34.5,M,,*6C
$PYRTM,2024,121.750670802569,12.860318212708
$GPGGA,180057.00,3246.0785,N,11732.2322,W,1,09,0.8,12.3,M,-34.5,M,,*65
$PYRTM,2024,121.750689436238,12.860336846377
$GPGGA,180058.00,3246.0796,N,11732.2346,W,1,09,0.8,12.8,M,-34.5,M,,*61
$PYRTM,2024,121.750698133414,12.860345543553
$GPGGA,180059.00,3246.0808,N,11732.2370,W,1,09,0.8,12.9,M,-34.5,M,,*6C
$PYRTM,2024,121.750705524722,12.860352934861
$GPGGA,180100.00,3246.0818,N,11732.2393,W,1,09,0.8,12.8,M,-34.5,M,,*6C
$PYRTM,2024,121.750721282801,12.860368692940
$GPGGA,180101.00,3246.0827,N,11732.2416,W,1,09,0.8,12.5,M,-34.5,M,,*66
$PYRTM,2024,121.750732851574,12.860380261713
$GPGGA,180102.00,3246.0836,N,11732.2439,W,1,09,0.8,12.3,M,-34.5,M,,*6E
$PYRTM,2024,121.750740247419,12.860387657569
$GPGGA,180103.00,3246.0847,N,11732.2462,W,1,09,0.8,12.3,M,-34.5,M,,*67
$PYRTM,2024,121.750755999225,12.860403409363
$GPGGA,180104.00,3246.0858,N,11732.2485,W,1,09,0.8,12.4,M,-34.5,M,,*60
$PYRTM,2024,121.750767575544,12.860414985683
$GPGGA,180105.00,3246.0868,N,11732.2510,W,1,09,0.8,12.3,M,-34.5,M,,*68
$PYRTM,2024,121.750774984641,12.860422394780
$GPGGA,180106.00,3246.0877,N,11732.2535,W,1,09,0.8,12.3,M,-34.5,M,,*62
$PYRTM,2024,121.750790721921,12.860438132060
$GPGGA,180107.00,3246.0887,N,11732.2560,W,1,09,0.8,12.0,M,-34.5,M,,*6F
$PYRTM,2024,121.750802295799,12.860449705937
$GPGGA,180108.00,3246.0897,N,11732.2581,W,1,09,0.8,12.8,M,-34.5,M,,*66
$PYRTM,2024,121.750809691933,12.860457102072
$GPGGA,180109.00,3246.0906,N,11732.2603,W,1,09,0.8,13.5,M,-34.5,M,,*6B
$PYRTM,2024,121.750825440139,12.860472850278
$GPGGA,180110.00,3246.0917,N,11732.2627,W,1,09,0.8,13.4,M,-34.5,M,,*64
$PYRTM,2024,121.750837018368,12.860484428507
$GPGGA,180111.00,3246.0928,N,11732.2652,W,1,09,0.8,12.8,M,-34.5,M,,*66
$PYRTM,2024,121.750844414005,12.860491824144
$GPGGA,180112.00,3246.0938,N,11732.2675,W,1,09,0.8,12.4,M,-34.5,M,,*6D
$PYRTM,2024,121.750860163102,12.860507573241
$GPGGA,180113.00,3246.0947,N,11732.2696,W,1,09,0.8,13.0,M,-34.5,M,,*6C
$PYRTM,2024,121.750871741690,12.860519151829
$GPGGA,180114.00,3246.0958,N,11732.2718,W,1,09,0.8,13.6,M,-34.5,M,,*64
$PYRTM,2024,121.750879138021,12.860526548160
$GPGGA,180115.00,3246.0970,N,11732.2744,W,1,09,0.8,13.5,M,-34.5,M,,*65
$PYRTM,2024,121.750894891088,12.860542301238
$GPGGA,180116.00,3246.0979,N,11732.2769,W,1,09,0.8,13.3,M,-34.5,M,,*66
$PYRTM,2024,121.750906477581,12.860553887731
$GPGGA,180117.00,3246.0987,N,11732.2790,W,1,09,0.8,13.8,M,-34.5,M,,*6B
$PYRTM,2024,121.750913860081,12.860561270220
$GPGGA,180118.00,3246.0999,N,11732.2811,W,1,09,0.8,14.1,M,-34.5,M,,*63
$PYRTM,2024,121.750929608241,12.860577018380
$GPGGA,180119.00,3246.1010,N,11732.2834,W,1,09,0.8,13.5,M,-34.5,M,,*6F
$PYRTM,2024,121.750941183843,12.860588593981
$GPGGA,180120.00,3246.1020,N,11732.2859,W,1,09,0.8,13.0,M,-34.5,M,,*68
$PYRTM,2024,121.750948582361,12.860595992500
$GPGGA,180121.00,3246.1028,N,11732.2883,W,1,09,0.8,12.8,M,-34.5,M,,*6F
$PYRTM,2024,121.750964332095,12.860611742234
$GPGGA,180122.00,3246.1039,N,11732.2906,W,1,09,0.8,12.9,M,-34.5,M,,*61
$PYRTM,2024,121.750975910093,12.860623320231
$GPGGA,180123.00,3246.1050,N,11732.2928,W,1,09,0.8,13.0,M,-34.5,M,,*6B
$PYRTM,2024,121.750983304537,12.860630714676
$GPGGA,180124.00,3246.1061,N,11732.2951,W,1,09,0.8,13.2,M,-34.5,M,,*62
$PYRTM,2024,121.750999062546,12.860646472685
$GPGGA,180125.00,3246.1070,N,11732.2976,W,1,09,0.8,13.3,M,-34.5,M,,*67
$PYRTM,2024,121.751010631528,12.860658041667
$GPGGA,180126.00,3246.1080,N,11732.3001,W,1,09,0.8,12.9,M,-34.5,M,,*68
$PYRTM,2024,121.751018024294,12.860665434433
$GPGGA,180127.00,3246.1090,N,11732.3024,W,1,09,0.8,12.9,M,-34.5,M,,*6F
$PYRTM,2024,121.751029717338,12.860677127477
$GPGGA,180128.00,3246.1101,N,11732.3045,W,1,09,0.8,13.4,M,-34.5,M,,*62
$PYRTM,2024,121.751048246759,12.860695656898
$GPGGA,180129.00,3246.1112,N,11732.3069,W,1,09,0.8,13.4,M,-34.5,M,,*6F
$PYRTM,2024,121.751059808796,12.860707218947
$GPGGA,180130.00,3246.1122,N,11732.3094,W,1,09,0.8,13.0,M,-34.5,M,,*62
$PYRTM,2024,121.751071399352,12.860718809491
$GPGGA,180131.00,3246.1131,N,11732.3118,W,1,09,0.8,12.8,M,-34.5,M,,*6D
$PYRTM,2024,121.751080076470,12.860727486609
$GPGGA,180132.00,3246.1141,N,11732.3140,W,1,09,0.8,13.0,M,-34.5,M,,*6D
$PYRTM,2024,121.751091650845,12.860739060984
$GPGGA,180133.00,3246.1154,N,11732.3162,W,1,09,0.8,13.1,M,-34.5,M,,*69
$PYRTM,2024,121.751103218935,12.860750629074
$GPGGA,180134.00,3246.1165,N,11732.3185,W,1,09,0.8,13.2,M,-34.5,M,,*66
$PYRTM,2024,121.751110619641,12.860758029792
$GPGGA,180135.00,3246.1175,N,11732.3209,W,1,09,0.8,13.2,M,-34.5,M,,*61
$PYRTM,2024,121.751126374086,12.860773784225
$GPGGA,180136.00,3246.1183,N,11732.3234,W,1,09,0.8,13.3,M,-34.5,M,,*64
$PYRTM,2024,121.751137947188,12.860785357326
$GPGGA,180137.00,3246.1192,N,11732.3258,W,1,09,0.8,13.3,M,-34.5,M,,*6F
$PYRTM,2024,121.751149520150,12.860796930289
$GPGGA,180138.00,3246.1204,N,11732.3282,W,1,09,0.8,13.1,M,-34.5,M,,*69
$PYRTM,2024,121.751161095231,12.860808505370
$GPGGA,180139.00,3246.1216,N,11732.3304,W,1,09,0.8,13.1,M,-34.5,M,,*64
$PYRTM,2024,121.751172664421,12.860820074560
$GPGGA,180140.00,3246.1227,N,11732.3327,W,1,09,0.8,13.2,M,-34.5,M,,*6A
$PYRTM,2024,121.751184238229,12.860831648368
$GPGGA,180141.00,3246.1235,N,11732.3352,W,1,09,0.8,13.0,M,-34.5,M,,*68
$PYRTM,2024,121.751195818090,12.860843228229
$GPGGA,180142.00,3246.1244,N,11732.3378,W,1,09,0.8,12.8,M,-34.5,M,,*6C
$PYRTM,2024,121.751207394560,12.860854804699
$GPGGA,180143.00,3246.1254,N,11732.3401,W,1,09,0.8,13.1,M,-34.5,M,,*6D
$PYRTM,2024,121.751218965394,12.860866375532
$GPGGA,180144.00,3246.1267,N,11732.3422,W,1,09,0.8,13.3,M,-34.5,M,,*69
$PYRTM,2024,121.751230543912,12.860877954051
$GPGGA,180145.00,3246.1278,N,11732.3446,W,1,09,0.8,13.5,M,-34.5,M,,*62
$PYRTM,2024,121.751242115243,12.860889525382
$GPGGA,180146.00,3246.1287,N,11732.3471,W,1,09,0.8,13.2,M,-34.5,M,,*62
$PYRTM,2024,121.751253690579,12.860901100718
$GPGGA,180147.00,3246.1296,N,11732.3496,W,1,09,0.8,12.9,M,-34.5,M,,*60
$PYRTM,2024,121.751261095822,12.860908505961
$GPGGA,180148.00,3246.1307,N,11732.3519,W,1,09,0.8,13.0,M,-34.5,M,,*68
$PYRTM,2024,121.751276836377,12.860924246516
$GPGGA,180149.00,3246.1319,N,11732.3541,W,1,09,0.8,13.1,M,-34.5,M,,*6A
$PYRTM,2024,121.751288405174,12.860935815324
$GPGGA,180150.00,3246.1330,N,11732.3565,W,1,09,0.8,13.3,M,-34.5,M,,*6D
$PYRTM,2024,121.751299985081,12.860947395220
$GPGGA,180151.00,3246.1340,N,11732.3589,W,1,09,0.8,13.3,M,-34.5,M,,*69
$PYRTM,2024,121.751311558380,12.860958968519
$GPGGA,180152.00,3246.1349,N,11732.3613,W,1,09,0.8,13.5,M,-34.5,M,,*65
$PYRTM,2024,121.751318953160,12.860966363299
$GPGGA,180153.00,3246.1360,N,11732.3637,W,1,09,0.8,13.4,M,-34.5,M,,*68
$PYRTM,2024,121.751334707049,12.860982117188
$GPGGA,180154.00,3246.1371,N,11732.3661,W,1,09,0.8,13.1,M,-34.5,M,,*69
$PYRTM,2024,121.751346280810,12.860993690949
$GPGGA,180155.00,3246.1381,N,11732.3684,W,1,09,0.8,13.0,M,-34.5,M,,*6D
$PYRTM,2024,121.751357855799,12.861005265949
$GPGGA,180156.00,3246.1391,N,11732.3707,W,1,09,0.8,13.4,M,-34.5,M,,*61
$PYRTM,2024,121.751369437118,12.861016847257
$GPGGA,180157.00,3246.1401,N,11732.3731,W,1,09,0.8,13.5,M,-34.5,M,,*6A
$PYRTM,2024,121.751376830498,12.861024240648
$GPGGA,180158.00,3246.1412,N,11732.3757,W,1,09,0.8,13.3,M,-34.5,M,,*61
$PYRTM,2024,121.751388513472,12.861035923623
$GPGGA,180159.00,3246.1422,N,11732.3782,W,1,09,0.8,13.1,M,-34.5,M,,*69
$PYRTM,2024,121.751407041192,12.861054451331
$GPGGA,180200.00,3246.1431,N,11732.3805,W,1,09,0.8,13.2,M,-34.5,M,,*67
$PYRTM,2024,121.751418615475,12.861066025613
$GPGGA,180201.00,3246.1442,N,11732.3828,W,1,09,0.8,13.5,M,-34.5,M,,*6A
$PYRTM,2024,121.751430193507,12.861077603646
$GPGGA,180202.00,3246.1454,N,11732.3852,W,1,09,0.8,13.5,M,-34.5,M,,*63
$PYRTM,2024,121.751438881771,12.861086291910
$GPGGA,180203.00,3246.1465,N,11732.3877,W,1,09,0.8,13.3,M,-34.5,M,,*61
$PYRTM,2024,121.751450443924,12.861097854062
$GPGGA,180204.00,3246.1474,N,11732.3902,W,1,09,0.8,13.0,M,-34.5,M,,*66
$PYRTM,2024,121.751462031100,12.861109441238
$GPGGA,180205.00,3246.1483,N,11732.3925,W,1,09,0.8,13.2,M,-34.5,M,,*68
$PYRTM,2024,121.751469429340,12.861116839479
$GPGGA,180206.00,3246.1494,N,11732.3946,W,1,09,0.8,13.7,M,-34.5,M,,*6D
$PYRTM,2024,121.751485170475,12.861132580613
$GPGGA,180207.00,3246.1506,N,11732.3970,W,1,09,0.8,13.6,M,-34.5,M,,*62
$PYRTM,2024,121.751496744340,12.861144154479
$GPGGA,180208.00,3246.1517,N,11732.3997,W,1,09,0.8,13.0,M,-34.5,M,,*62
$PYRTM,2024,121.751508318438,12.861155728576
$GPGGA,180209.00,3246.1525,N,11732.4021,W,1,09,0.8,12.6,M,-34.5,M,,*66
$PYRTM,2024,121.751519895972,12.861167306111
$GPGGA,180210.00,3246.1534,N,11732.4042,W,1,09,0.8,13.1,M,-34.5,M,,*6D
$PYRTM,2024,121.751527289653,12.861174699792
$GPGGA,180211.00,3246.1547,N,11732.4064,W,1,09,0.8,13.4,M,-34.5,M,,*69
$PYRTM,2024,121.751543041007,12.861190451146
$GPGGA,180212.00,3246.1560,N,11732.4089,W,1,09,0.8,13.1,M,-34.5,M,,*69
$PYRTM,2024,121.751554614861,12.861202025000
$GPGGA,180213.00,3246.1568,N,11732.4113,W,1,09,0.8,12.8,M,-34.5,M,,*6A
$PYRTM,2024,121.751562017535,12.861209427674
$GPGGA,180214.00,3246.1576,N,11732.4135,W,1,09,0.8,13.5,M,-34.5,M,,*6A
$PYRTM,2024,121.751577763947,12.861225174097
$GPGGA,180215.00,3246.1587,N,11732.4157,W,1,09,0.8,13.8,M,-34.5,M,,*6C
$PYRTM,2024,121.751589339907,12.861236750058
$GPGGA,180216.00,3246.1599,N,11732.4179,W,1,09,0.8,13.7,M,-34.5,M,,*63
$PYRTM,2024,121.751596734167,12.861244144306
$GPGGA,180217.00,3246.1609,N,11732.4202,W,1,09,0.8,13.6,M,-34.5,M,,*66
$PYRTM,2024,121.751612485729,12.861259895868
$GPGGA,180218.00,3246.1620,N,11732.4227,W,1,09,0.8,13.2,M,-34.5,M,,*61
$PYRTM,2024,121.751624084722,12.861271494861
$GPGGA,180219.00,3246.1631,N,11732.4252,W,1,09,0.8,12.8,M,-34.5,M,,*69
$PYRTM,2024,121.751635634074,12.861283044213
$GPGGA,180220.00,3246.1639,N,11732.4275,W,1,09,0.8,12.9,M,-34.5,M,,*6F
$PYRTM,2024,121.751647216447,12.861294626586
$GPGGA,180221.00,3246.1647,N,11732.4297,W,1,09,0.8,13.5,M,-34.5,M,,*66
$PYRTM,2024,121.751658782558,12.861306192697
$GPGGA,180222.00,3246.1659,N,11732.4320,W,1,09,0.8,13.8,M,-34.5,M,,*6A
$PYRTM,2024,121.751666178009,12.861313588148
$GPGGA,180223.00,3246.1671,N,11732.4344,W,1,09,0.8,13.6,M,-34.5,M,,*6D
$PYRTM,2024,121.751681932905,12.861329343044
$GPGGA,180224.00,3246.1681,N,11732.4369,W,1,09,0.8,13.3,M,-34.5,M,,*6F
$PYRTM,2024,121.751693504884,12.861340915023
$GPGGA,180225.00,3246.1688,N,11732.4391,W,1,09,0.8,13.5,M,-34.5,M,,*66
$PYRTM,2024,121.751700912488,12.861348322627
$GPGGA,180226.00,3246.1696,N,11732.4413,W,1,09,0.8,13.9,M,-34.5,M,,*6B
$PYRTM,2024,121.751716654109,12.861364064248
$GPGGA,180227.00,3246.1708,N,11732.4435,W,1,09,0.8,14.0,M,-34.5,M,,*66
$PYRTM,2024,121.751728227708,12.861375637847
$GPGGA,180228.00,3246.1721,N,11732.4460,W,1,09,0.8,13.5,M,-34.5,M,,*60
$PYRTM,2024,121.751739801632,12.861387211771
$GPGGA,180229.00,3246.1732,N,11732.4484,W,1,09,0.8,12.7,M,-34.5,M,,*6A
$PYRTM,2024,121.751747208785,12.861394618924
$GPGGA,180230.00,3246.1740,N,11732.4508,W,1,09,0.8,12.9,M,-34.5,M,,*6C
$PYRTM,2024,121.751765838738,12.861413248877
$GPGGA,180231.00,3246.1750,N,11732.4531,W,1,09,0.8,13.0,M,-34.5,M,,*6E
$PYRTM,2024,121.751774525208,12.861421935347
$GPGGA,180232.00,3246.1762,N,11732.4553,W,1,09,0.8,13.6,M,-34.5,M,,*6E
$PYRTM,2024,121.751786123530,12.861433533669
$GPGGA,180233.00,3246.1773,N,11732.4576,W,1,09,0.8,14.0,M,-34.5,M,,*69
$PYRTM,2024,121.751793499352,12.861440909491
$GPGGA,180234.00,3246.1784,N,11732.4601,W,1,09,0.8,14.1,M,-34.5,M,,*64
$PYRTM,2024,121.751809254063,12.861456664201
$GPGGA,180235.00,3246.1793,N,11732.4626,W,1,09,0.8,13.5,M,-34.5,M,,*65
$PYRTM,2024,121.751820820845,12.861468230984
$GPGGA,180236.00,3246.1802,N,11732.4648,W,1,09,0.8,13.4,M,-34.5,M,,*68
$PYRTM,2024,121.751832402211,12.861479812361
$GPGGA,180237.00,3246.1813,N,11732.4670,W,1,09,0.8,13.3,M,-34.5,M,,*65
$PYRTM,2024,121.751843969907,12.861491380046
$GPGGA,180238.00,3246.1824,N,11732.4694,W,1,09,0.8,13.0,M,-34.5,M,,*67
$PYRTM,2024,121.751855542384,12.861502952523
$GPGGA,180239.00,3246.1834,N,11732.4717,W,1,09,0.8,13.3,M,-34.5,M,,*6E
$PYRTM,2024,121.751867118657,12.861514528796
$GPGGA,180240.00,3246.1843,N,11732.4740,W,1,09,0.8,13.0,M,-34.5,M,,*61
$PYRTM,2024,121.751878691134,12.861526101273
$GPGGA,180241.00,3246.1853,N,11732.4764,W,1,09,0.8,13.0,M,-34.5,M,,*67
$PYRTM,2024,121.751890263090,12.861537673229
$GPGGA,180242.00,3246.1865,N,11732.4786,W,1,09,0.8,13.1,M,-34.5,M,,*6C
$PYRTM,2024,121.751901852014,12.861549262153
$GPGGA,180243.00,3246.1876,N,11732.4809,W,1,09,0.8,13.0,M,-34.5,M,,*66
$PYRTM,2024,121.751909245139,12.861556655278
$GPGGA,180244.00,3246.1886,N,11732.4833,W,1,09,0.8,12.4,M,-34.5,M,,*62
$PYRTM,2024,121.751924987581,12.861572397720
$GPGGA,180245.00,3246.1895,N,11732.4857,W,1,09,0.8,12.2,M,-34.5,M,,*65
$PYRTM,2024,121.751936562546,12.861583972685
$GPGGA,180246.00,3246.1904,N,11732.4879,W,1,09,0.8,12.3,M,-34.5,M,,*62
$PYRTM,2024,121.751948161493,12.861595571632
$GPGGA,180247.00,3246.1916,N,11732.4903,W,1,09,0.8,12.3,M,-34.5,M,,*6C
$PYRTM,2024,121.751959709977,12.861607120127
$GPGGA,180248.00,3246.1927,N,11732.4927,W,1,09,0.8,12.2,M,-34.5,M,,*66
$PYRTM,2024,121.751967106030,12.861614516169
$GPGGA,180249.00,3246.1937,N,11732.4951,W,1,09,0.8,12.3,M,-34.5,M,,*66
$PYRTM,2024,121.751982854398,12.861630264537
$GPGGA,180250.00,3246.1945,N,11732.4973,W,1,09,0.8,12.9,M,-34.5,M,,*61
$PYRTM,2024,121.751994440394,12.861641850532
$GPGGA,180251.00,3246.1956,N,11732.4995,W,1,09,0.8,13.3,M,-34.5,M,,*61
$PYRTM,2024,121.752006008437,12.861653418576
$GPGGA,180252.00,3246.1968,N,11732.5020,W,1,09,0.8,12.9,M,-34.5,M,,*62
$PYRTM,2024,121.752017580521,12.861664990660
$GPGGA,180253.00,3246.1979,N,11732.5045,W,1,09,0.8,12.5,M,-34.5,M,,*6C
$PYRTM,2024,121.752029155810,12.861676565949
$GPGGA,180254.00,3246.1986,N,11732.5068,W,1,09,0.8,12.5,M,-34.5,M,,*64
$PYRTM,2024,121.752040745451,12.861688155590
$GPGGA,180255.00,3246.1995,N,11732.5090,W,1,09,0.8,12.8,M,-34.5,M,,*6D
$PYRTM,2024,121.752052298252,12.861699708391
$GPGGA,180256.00,3246.2006,N,11732.5114,W,1,09,0.8,13.0,M,-34.5,M,,*6A
$PYRTM,2024,121.752059699502,12.861707109641
$GPGGA,180257.00,3246.2018,N,11732.5139,W,1,09,0.8,12.3,M,-34.5,M,,*69
$PYRTM,2024,121.752075447153,12.861722857292
$GPGGA,180258.00,3246.2028,N,11732.5163,W,1,09,0.8,12.3,M,-34.5,M,,*6A
$PYRTM,2024,121.752082845949,12.861730256088
$GPGGA,180259.00,3246.2037,N,11732.5187,W,1,09,0.8,12.5,M,-34.5,M,,*69
$PYRTM,2024,121.752098603900,12.861746014039
$GPGGA,180300.00,3246.2046,N,11732.5210,W,1,09,0.8,12.7,M,-34.5,M,,*6D
$PYRTM,2024,121.752105995440,12.861753405579
$GPGGA,180301.00,3246.2056,N,11732.5231,W,1,09,0.8,13.0,M,-34.5,M,,*68
$PYRTM,2024,121.752124641898,12.861772052037
$GPGGA,180302.00,3246.2068,N,11732.5255,W,1,09,0.8,13.1,M,-34.5,M,,*65
$PYRTM,2024,121.752133331563,12.861780741701
$GPGGA,180303.00,3246.2080,N,11732.5281,W,1,09,0.8,12.4,M,-34.5,M,,*6F
$PYRTM,2024,121.752144895532,12.861792305671
$GPGGA,180304.00,3246.2089,N,11732.5305,W,1,09,0.8,11.8,M,-34.5,M,,*63
$PYRTM,2024,121.752156489815,12.861803899954
$GPGGA,180305.00,3246.2096,N,11732.5327,W,1,09,0.8,12.2,M,-34.5,M,,*65
$PYRTM,2024,121.752163876470,12.861811286609
$GPGGA,180306.00,3246.2107,N,11732.5349,W,1,09,0.8,13.0,M,-34.5,M,,*64
$PYRTM,2024,121.752179626458,12.861827036597
$GPGGA,180307.00,3246.2119,N,11732.5373,W,1,09,0.8,13.0,M,-34.5,M,,*63
$PYRTM,2024,121.752191192523,12.861838602674
$GPGGA,180308.00,3246.2131,N,11732.5398,W,1,09,0.8,12.6,M,-34.5,M,,*64
$PYRTM,2024,121.752202777512,12.861850187650
$GPGGA,180309.00,3246.2140,N,11732.5421,W,1,09,0.8,12.5,M,-34.5,M,,*65
$PYRTM,2024,121.752214340880,12.861861751019
$GPGGA,180310.00,3246.2148,N,11732.5443,W,1,09,0.8,12.4,M,-34.5,M,,*60
$PYRTM,2024,121.752225925972,12.861873336111
$GPGGA,180311.00,3246.2157,N,11732.5466,W,1,09,0.8,12.8,M,-34.5,M,,*64
$PYRTM,2024,121.752233316968,12.861880727106
$GPGGA,180312.00,3246.2171,N,11732.5490,W,1,09,0.8,12.6,M,-34.5,M,,*64
$PYRTM,2024,121.752249064780,12.861896474931
$GPGGA,180313.00,3246.2182,N,11732.5514,W,1,09,0.8,12.1,M,-34.5,M,,*63
$PYRTM,2024,121.752260636944,12.861908047083
$GPGGA,180314.00,3246.2191,N,11732.5536,W,1,09,0.8,12.6,M,-34.5,M,,*61
$PYRTM,2024,121.752268033576,12.861915443715
$GPGGA,180315.00,3246.2198,N,11732.5559,W,1,09,0.8,12.3,M,-34.5,M,,*65
$PYRTM,2024,121.752283786725,12.861931196863
$GPGGA,180316.00,3246.2210,N,11732.5583,W,1,09,0.8,12.3,M,-34.5,M,,*62
$PYRTM,2024,121.752295366944,12.861942777083
$GPGGA,180317.00,3246.2221,N,11732.5607,W,1,09,0.8,12.3,M,-34.5,M,,*6E
$PYRTM,2024,121.752302765972,12.861950176111
$GPGGA,180318.00,3246.2232,N,11732.5630,W,1,09,0.8,12.1,M,-34.5,M,,*65
$PYRTM,2024,121.752318516875,12.861965927014
$GPGGA,180319.00,3246.2242,N,11732.5653,W,1,09,0.8,12.3,M,-34.5,M,,*64
$PYRTM,2024,121.752325909722,12.861973319861
$GPGGA,180320.00,3246.2250,N,11732.5676,W,1,09,0.8,12.7,M,-34.5,M,,*6E
$PYRTM,2024,121.752337592928,12.861985003067
$GPGGA,180321.00,3246.2260,N,11732.5701,W,1,09,0.8,12.7,M,-34.5,M,,*6D
$PYRTM,2024,121.752353231319,12.862000641458
$GPGGA,180322.00,3246.2269,N,11732.5725,W,1,09,0.8,12.7,M,-34.5,M,,*61
$PYRTM,2024,121.752364805556,12.862012215694
$GPGGA,180323.00,3246.2279,N,11732.5749,W,1,09,0.8,12.6,M,-34.5,M,,*6A
$PYRTM,2024,121.752376389097,12.862023799236
$GPGGA,180324.00,3246.2291,N,11732.5773,W,1,09,0.8,12.5,M,-34.5,M,,*61
$PYRTM,2024,121.752387955220,12.862035365359
$GPGGA,180325.00,3246.2301,N,11732.5796,W,1,09,0.8,12.5,M,-34.5,M,,*63
$PYRTM,2024,121.752399526574,12.862046936713
$GPGGA,180326.00,3246.2310,N,11732.5818,W,1,09,0.8,12.8,M,-34.5,M,,*64
$PYRTM,2024,121.752411103322,12.862058513461
$GPGGA,180327.00,3246.2320,N,11732.5842,W,1,09,0.8,13.0,M,-34.5,M,,*60
$PYRTM,2024,121.752422675995,12.862070086134
$GPGGA,180328.00,3246.2331,N,11732.5865,W,1,09,0.8,13.0,M,-34.5,M,,*6A
$PYRTM,2024,121.752430071759,12.862077481898
$GPGGA,180329.00,3246.2342,N,11732.5888,W,1,09,0.8,12.9,M,-34.5,M,,*64
$PYRTM,2024,121.752445825035,12.862093235174
$GPGGA,180330.00,3246.2353,N,11732.5911,W,1,09,0.8,12.7,M,-34.5,M,,*63
$PYRTM,2024,121.752457408634,12.862104818773
$GPGGA,180331.00,3246.2363,N,11732.5934,W,1,09,0.8,12.3,M,-34.5,M,,*62
$PYRTM,2024,121.752464803356,12.862112213495
$GPGGA,180332.00,3246.2374,N,11732.5959,W,1,09,0.8,12.0,M,-34.5,M,,*6F
$PYRTM,2024,121.752483439363,12.862130849502
$GPGGA,180333.00,3246.2384,N,11732.5982,W,1,09,0.8,12.0,M,-34.5,M,,*67
$PYRTM,2024,121.752495015312,12.862142425451
$GPGGA,180334.00,3246.2395,N,11732.6004,W,1,09,0.8,12.6,M,-34.5,M,,*62
$PYRTM,2024,121.752506603229,12.862154013380
$GPGGA,180335.00,3246.2405,N,11732.6026,W,1,09,0.8,13.3,M,-34.5,M,,*69
$PYRTM,2024,121.752515269572,12.862162679711
$GPGGA,180336.00,3246.2416,N,11732.6050,W,1,09,0.8,13.0,M,-34.5,M,,*6A
$PYRTM,2024,121.752522663981,12.862170074120
$GPGGA,180337.00,3246.2428,N,11732.6077,W,1,09,0.8,12.4,M,-34.5,M,,*66
$PYRTM,2024,121.752538419190,12.862185829329
$GPGGA,180338.00,3246.2438,N,11732.6101,W,1,09,0.8,11.7,M,-34.5,M,,*68
$PYRTM,2024,121.752545813831,12.862193223970
$GPGGA,180339.00,3246.2448,N,11732.6122,W,1,09,0.8,11.8,M,-34.5,M,,*60
$PYRTM,2024,121.752564458160,12.862211868299
$GPGGA,180340.00,3246.2459,N,11732.6144,W,1,09,0.8,12.4,M,-34.5,M,,*61
$PYRTM,2024,121.752576032928,12.862223443067
$GPGGA,180341.00,3246.2471,N,11732.6167,W,1,09,0.8,13.0,M,-34.5,M,,*6E
$PYRTM,2024,121.752584714468,12.862232124606
$GPGGA,180342.00,3246.2481,N,11732.6190,W,1,09,0.8,13.1,M,-34.5,M,,*6B
$PYRTM,2024,121.752596287164,12.862243697303
$GPGGA,180343.00,3246.2492,N,11732.6215,W,1,09,0.8,12.8,M,-34.5,M,,*6E
$PYRTM,2024,121.752607862627,12.862255272766
$GPGGA,180344.00,3246.2502,N,11732.6241,W,1,09,0.8,12.1,M,-34.5,M,,*69
$PYRTM,2024,121.752619435243,12.862266845382
$GPGGA,180345.00,3246.2511,N,11732.6265,W,1,09,0.8,11.6,M,-34.5,M,,*68
$PYRTM,2024,121.752626842222,12.862274252361
$GPGGA,180346.00,3246.2520,N,11732.6287,W,1,09,0.8,12.3,M,-34.5,M,,*63
$PYRTM,2024,121.752642598600,12.862290008738
$GPGGA,180347.00,3246.2530,N,11732.6309,W,1,09,0.8,13.8,M,-34.5,M,,*6E
$PYRTM,2024,121.752654158032,12.862301568171
$GPGGA,180348.00,3246.2541,N,11732.6332,W,1,09,0.8,14.5,M,-34.5,M,,*65
$PYRTM,2024,121.752661553854,12.862308963993
$GPGGA,180349.00,3246.2553,N,11732.6357,W,1,09,0.8,13.0,M,-34.5,M,,*66
$PYRTM,2024,121.752677307141,12.862324717280
$GPGGA,180350.00,3246.2563,N,11732.6382,W,1,09,0.8,12.0,M,-34.5,M,,*64
$PYRTM,2024,121.752688879977,12.862336290116
$GPGGA,180351.00,3246.2572,N,11732.6404,W,1,09,0.8,11.9,M,-34.5,M,,*66
$PYRTM,2024,121.752696304294,12.862343714433
$GPGGA,180352.00,3246.2583,N,11732.6426,W,1,09,0.8,11.6,M,-34.5,M,,*64
$PYRTM,2024,121.752712028299,12.862359438437
$GPGGA,180353.00,3246.2597,N,11732.6451,W,1,09,0.8,11.3,M,-34.5,M,,*65
$PYRTM,2024,121.752723602639,12.862371012778
$GPGGA,180354.00,3246.2609,N,11732.6475,W,1,09,0.8,10.9,M,-34.5,M,,*6B
$PYRTM,2024,121.752731001354,12.862378411505
$GPGGA,180355.00,3246.2616,N,11732.6496,W,1,09,0.8,11.6,M,-34.5,M,,*67
$PYRTM,2024,121.752746755162,12.862394165301
$GPGGA,180356.00,3246.2625,N,11732.6519,W,1,09,0.8,12.3,M,-34.5,M,,*64
$PYRTM,2024,121.752758325000,12.862405735150
$GPGGA,180357.00,3246.2634,N,11732.6544,W,1,09,0.8,12.2,M,-34.5,M,,*6C
$PYRTM,2024,121.752765736609,12.862413146748
$GPGGA,180358.00,3246.2644,N,11732.6566,W,1,09,0.8,12.1,M,-34.5,M,,*67
$PYRTM,2024,121.752781473657,12.862428883796
$GPGGA,180359.00,3246.2655,N,11732.6588,W,1,09,0.8,12.1,M,-34.5,M,,*66
$PYRTM,2024,121.752793052523,12.862440462674
$GPGGA,180400.00,3246.2667,N,11732.6612,W,1,09,0.8,11.9,M,-34.5,M,,*67
$PYRTM,2024,121.752800448380,12.862447858519
$GPGGA,180401.00,3246.2676,N,11732.6636,W,1,09,0.8,11.7,M,-34.5,M,,*6E
$PYRTM,2024,121.752816197083,12.862463607222
$GPGGA,180402.00,3246.2684,N,11732.6660,W,1,09,0.8,11.8,M,-34.5,M,,*6C
$PYRTM,2024,121.752823592176,12.862471002315
$GPGGA,180403.00,3246.2694,N,11732.6681,W,1,09,0.8,12.3,M,-34.5,M,,*6B
$PYRTM,2024,121.752842239676,12.862489649815
$GPGGA,180404.00,3246.2707,N,11732.6704,W,1,09,0.8,12.5,M,-34.5,M,,*6D
$PYRTM,2024,121.752850918079,12.862498328218
$GPGGA,180405.00,3246.2718,N,11732.6730,W,1,09,0.8,12.0,M,-34.5,M,,*60
$PYRTM,2024,121.752862493519,12.862509903657
$GPGGA,180406.00,3246.2725,N,11732.6754,W,1,09,0.8,11.9,M,-34.5,M,,*65
$PYRTM,2024,121.752874067685,12.862521477836
$GPGGA,180407.00,3246.2733,N,11732.6774,W,1,09,0.8,12.4,M,-34.5,M,,*6F
$PYRTM,2024,121.752885636192,12.862533046331
$GPGGA,180408.00,3246.2744,N,11732.6797,W,1,09,0.8,12.8,M,-34.5,M,,*61
$PYRTM,2024,121.752897214387,12.862544624525
$GPGGA,180409.00,3246.2757,N,11732.6821,W,1,09,0.8,12.5,M,-34.5,M,,*6D
$PYRTM,2024,121.752908789201,12.862556199340
$GPGGA,180410.00,3246.2766,N,11732.6844,W,1,09,0.8,12.4,M,-34.5,M,,*65
$PYRTM,2024,121.752920365521,12.862567775660
$GPGGA,180411.00,3246.2774,N,11732.6866,W,1,09,0.8,12.6,M,-34.5,M,,*65
$PYRTM,2024,121.752927764988,12.862575175127
$GPGGA,180412.00,3246.2785,N,11732.6890,W,1,09,0.8,12.5,M,-34.5,M,,*62
$PYRTM,2024,121.752943512396,12.862590922535
$GPGGA,180413.00,3246.2797,N,11732.6913,W,1,09,0.8,12.1,M,-34.5,M,,*6E
$PYRTM,2024,121.752955085521,12.862602495660
$GPGGA,180414.00,3246.2808,N,11732.6935,W,1,09,0.8,12.0,M,-34.5,M,,*65
$PYRTM,2024,121.752966653692,12.862614063831
$GPGGA,180415.00,3246.2817,N,11732.6958,W,1,09,0.8,12.1,M,-34.5,M,,*60
$PYRTM,2024,121.752978228704,12.862625638843
$GPGGA,180416.00,3246.2826,N,11732.6983,W,1,09,0.8,12.2,M,-34.5,M,,*64
$PYRTM,2024,121.752989828056,12.862637238194
$GPGGA,180417.00,3246.2834,N,11732.7007,W,1,09,0.8,12.3,M,-34.5,M,,*63
$PYRTM,2024,121.753001377269,12.862648787407
$GPGGA,180418.00,3246.2845,N,11732.7028,W,1,09,0.8,12.7,M,-34.5,M,,*63
$PYRTM,2024,121.753012963808,12.862660373958
$GPGGA,180419.00,3246.2856,N,11732.7050,W,1,09,0.8,12.7,M,-34.5,M,,*6F
$PYRTM,2024,121.753024531088,12.862671941227
$GPGGA,180420.00,3246.2866,N,11732.7074,W,1,09,0.8,12.2,M,-34.5,M,,*65
$PYRTM,2024,121.753036104155,12.862683514294
$GPGGA,180421.00,3246.2874,N,11732.7098,W,1,09,0.8,11.7,M,-34.5,M,,*63
$PYRTM,2024,121.753047681470,12.862695091609
$GPGGA,180422.00,3246.2883,N,11732.7121,W,1,09,0.8,11.6,M,-34.5,M,,*6A
$PYRTM,2024,121.753059253426,12.862706663565
$GPGGA,180423.00,3246.2894,N,11732.7144,W,1,09,0.8,11.8,M,-34.5,M,,*60
$PYRTM,2024,121.753070827523,12.862718237662
$GPGGA,180424.00,3246.2906,N,11732.7167,W,1,09,0.8,12.1,M,-34.5,M,,*66
$PYRTM,2024,121.753082412512,12.862729822650
$GPGGA,180425.00,3246.2917,N,11732.7191,W,1,09,0.8,12.5,M,-34.5,M,,*6A
$PYRTM,2024,121.753093976100,12.862741386238
$GPGGA,180426.00,3246.2927,N,11732.7215,W,1,09,0.8,12.8,M,-34.5,M,,*68
$PYRTM,2024,121.753105550394,12.862752960532
$GPGGA,180427.00,3246.2936,N,11732.7237,W,1,09,0.8,13.1,M,-34.5,M,,*61
$PYRTM,2024,121.753117123553,12.862764533692
$GPGGA,180428.00,3246.2946,N,11732.7260,W,1,09,0.8,13.0,M,-34.5,M,,*6A
$PYRTM,2024,121.753128706898,12.862776117037
$GPGGA,180429.00,3246.2959,N,11732.7286,W,1,09,0.8,12.0,M,-34.5,M,,*6C
$PYRTM,2024,121.753140272743,12.862787682882
$GPGGA,180430.00,3246.2969,N,11732.7310,W,1,09,0.8,11.1,M,-34.5,M,,*6B
$PYRTM,2024,121.753151871285,12.862799281424
$GPGGA,180431.00,3246.2978,N,11732.7328,W,1,09,0.8,11.3,M,-34.5,M,,*63
$PYRTM,2024,121.753163421424,12.862810831562
$GPGGA,180432.00,3246.2990,N,11732.7347,W,1,09,0.8,12.0,M,-34.5,M,,*6F
$PYRTM,2024,121.753175021331,12.862822431481
$GPGGA,180433.00,3246.3001,N,11732.7372,W,1,09,0.8,12.0,M,-34.5,M,,*68
$PYRTM,2024,121.753182395532,12.862829805671
$GPGGA,180434.00,3246.3010,N,11732.7398,W,1,09,0.8,11.3,M,-34.5,M,,*6B
$PYRTM,2024,121.753201051019,12.862848461157
$GPGGA,180435.00,3246.3019,N,11732.7420,W,1,09,0.8,11.0,M,-34.5,M,,*64
$PYRTM,2024,121.753212610451,12.862860020590
$GPGGA,180436.00,3246.3029,N,11732.7440,W,1,09,0.8,11.3,M,-34.5,M,,*61
$PYRTM,2024,121.753224184479,12.862871594630
$GPGGA,180437.00,3246.3041,N,11732.7461,W,1,09,0.8,11.6,M,-34.5,M,,*68
$PYRTM,2024,121.753232864792,12.862880274931
$GPGGA,180438.00,3246.3051,N,11732.7485,W,1,09,0.8,11.6,M,-34.5,M,,*6C
$PYRTM,2024,121.753240260139,12.862887670278
$GPGGA,180439.00,3246.3059,N,11732.7509,W,1,09,0.8,11.8,M,-34.5,M,,*6E
$PYRTM,2024,121.753256013727,12.862903423866
$GPGGA,180440.00,3246.3069,N,11732.7531,W,1,09,0.8,11.8,M,-34.5,M,,*68
$PYRTM,2024,121.753267598924,12.862915009063
$GPGGA,180441.00,3246.3081,N,11732.7555,W,1,09,0.8,11.6,M,-34.5,M,,*63
$PYRTM,2024,121.753279161516,12.862926571655
$GPGGA,180442.00,3246.3091,N,11732.7577,W,1,09,0.8,11.9,M,-34.5,M,,*6E
$PYRTM,2024,121.753290735174,12.862938145312
$GPGGA,180443.00,3246.3100,N,11732.7599,W,1,09,0.8,11.8,M,-34.5,M,,*67
$PYRTM,2024,121.753302311319,12.862949721458
$GPGGA,180444.00,3246.3110,N,11732.7621,W,1,09,0.8,12.3,M,-34.5,M,,*69
$PYRTM,2024,121.753309705521,12.862957115660
$GPGGA,180445.00,3246.3122,N,11732.7645,W,1,09,0.8,12.1,M,-34.5,M,,*69
$PYRTM,2024,121.753325458519,12.862972868657
$GPGGA,180446.00,3246.3134,N,11732.7669,W,1,09,0.8,11.5,M,-34.5,M,,*64
$PYRTM,2024,121.753337057859,12.862984467998
$GPGGA,180447.00,3246.3144,N,11732.7692,W,1,09,0.8,11.3,M,-34.5,M,,*60
$PYRTM,2024,121.753348606829,12.862996016968
$GPGGA,180448.00,3246.3151,N,11732.7713,W,1,09,0.8,11.5,M,-34.5,M,,*65
$PYRTM,2024,121.753360187697,12.863007597836
$GPGGA,180449.00,3246.3160,N,11732.7735,W,1,09,0.8,12.0,M,-34.5,M,,*64
$PYRTM,2024,121.753371755521,12.863019165660
$GPGGA,180450.00,3246.3171,N,11732.7760,W,1,09,0.8,11.8,M,-34.5,M,,*67
$PYRTM,2024,121.753379148519,12.863026558657
$GPGGA,180451.00,3246.3183,N,11732.7784,W,1,09,0.8,11.3,M,-34.5,M,,*6A
$PYRTM,2024,121.753394916192,12.863042326331
$GPGGA,180452.00,3246.3192,N,11732.7806,W,1,09,0.8,11.3,M,-34.5,M,,*6C
$PYRTM,2024,121.753406464132,12.863053874271
$GPGGA,180453.00,3246.3200,N,11732.7827,W,1,09,0.8,11.7,M,-34.5,M,,*62
$PYRTM,2024,121.753413873912,12.863061284051
$GPGGA,180454.00,3246.3210,N,11732.7850,W,1,09,0.8,11.9,M,-34.5,M,,*6A
$PYRTM,2024,121.753429613218,12.863077023356
$GPGGA,180455.00,3246.3221,N,11732.7875,W,1,09,0.8,11.6,M,-34.5,M,,*61
$PYRTM,2024,121.753441202025,12.863088612176
$GPGGA,180456.00,3246.3230,N,11732.7898,W,1,09,0.8,11.5,M,-34.5,M,,*62
$PYRTM,2024,121.753452760625,12.863100170775
$GPGGA,180457.00,3246.3240,N,11732.7920,W,1,09,0.8,11.6,M,-34.5,M,,*65
$PYRTM,2024,121.753464347859,12.863111757998
$GPGGA,180458.00,3246.3251,N,11732.7943,W,1,09,0.8,11.5,M,-34.5,M,,*6C
$PYRTM,2024,121.753471758565,12.863119168704
$GPGGA,180459.00,3246.3260,N,11732.7968,W,1,09,0.8,11.3,M,-34.5,M,,*60
$PYRTM,2024,121.753487491227,12.863134901366
$GPGGA,180500.00,3246.3270,N,11732.7990,W,1,09,0.8,11.4,M,-34.5,M,,*6C
$PYRTM,2024,121.753494891991,12.863142302130
$GPGGA,180501.00,3246.3281,N,11732.8012,W,1,09,0.8,11.6,M,-34.5,M,,*6D
$PYRTM,2024,121.753506578588,12.863153988727
$GPGGA,180502.00,3246.3291,N,11732.8036,W,1,09,0.8,11.5,M,-34.5,M,,*6A
$PYRTM,2024,121.753522206227,12.863169616366
$GPGGA,180503.00,3246.3300,N,11732.8060,W,1,09,0.8,11.3,M,-34.5,M,,*67
$PYRTM,2024,121.753533792616,12.863181202755
$GPGGA,180504.00,3246.3311,N,11732.8084,W,1,09,0.8,11.0,M,-34.5,M,,*69
$PYRTM,2024,121.753541188322,12.863188598461
$GPGGA,180505.00,3246.3321,N,11732.8106,W,1,09,0.8,11.3,M,-34.5,M,,*63
$PYRTM,2024,121.753559835289,12.863207245428
$GPGGA,180506.00,3246.3330,N,11732.8125,W,1,09,0.8,12.4,M,-34.5,M,,*65
$PYRTM,2024,121.753568503009,12.863215913148
$GPGGA,180507.00,3246.3342,N,11732.8146,W,1,09,0.8,13.1,M,-34.5,M,,*60
$PYRTM,2024,121.753575910625,12.863223320764
$GPGGA,180508.00,3246.3353,N,11732.8173,W,1,09,0.8,12.6,M,-34.5,M,,*6F
$PYRTM,2024,121.753591649653,12.863239059792
$GPGGA,180509.00,3246.3361,N,11732.8199,W,1,09,0.8,11.6,M,-34.5,M,,*68
$PYRTM,2024,121.753603251412,12.863250661551
$GPGGA,180510.00,3246.3369,N,11732.8218,W,1,09,0.8,11.5,M,-34.5,M,,*61
$PYRTM,2024,121.753610631609,12.863258041748
$GPGGA,180511.00,3246.3381,N,11732.8237,W,1,09,0.8,12.1,M,-34.5,M,,*6C
$PYRTM,2024,121.753626385220,12.863273795359
$GPGGA,180512.00,3246.3394,N,11732.8258,W,1,09,0.8,12.5,M,-34.5,M,,*66
$PYRTM,2024,121.753637948391,12.863285358542
$GPGGA,180513.00,3246.3404,N,11732.8284,W,1,09,0.8,12.3,M,-34.5,M,,*6E
$PYRTM,2024,121.753645354838,12.863292764988
$GPGGA,180514.00,3246.3411,N,11732.8310,W,1,09,0.8,11.9,M,-34.5,M,,*68
$PYRTM,2024,121.753661095197,12.863308505336
$GPGGA,180515.00,3246.3417,N,11732.8333,W,1,09,0.8,11.6,M,-34.5,M,,*61
$PYRTM,2024,121.753672682766,12.863320092917
$GPGGA,180516.00,3246.3428,N,11732.8353,W,1,09,0.8,12.5,M,-34.5,M,,*68
$PYRTM,2024,121.753680076343,12.863327486481
$GPGGA,180517.00,3246.3441,N,11732.8375,W,1,09,0.8,12.8,M,-34.5,M,,*6F
$PYRTM,2024,121.753695832940,12.863343243079
$GPGGA,180518.00,3246.3453,N,11732.8398,W,1,09,0.8,12.5,M,-34.5,M,,*6D
$PYRTM,2024,121.753707393275,12.863354803414
$GPGGA,180519.00,3246.3461,N,11732.8423,W,1,09,0.8,12.4,M,-34.5,M,,*6B
$PYRTM,2024,121.753714799340,12.863362209479
$GPGGA,180520.00,3246.3469,N,11732.8445,W,1,09,0.8,12.4,M,-34.5,M,,*69
$PYRTM,2024,121.753730540220,12.863377950359
$GPGGA,180521.00,3246.3479,N,11732.8467,W,1,09,0.8,12.7,M,-34.5,M,,*6A
$PYRTM,2024,121.753742131875,12.863389542014
$GPGGA,180522.00,3246.3493,N,11732.8488,W,1,09,0.8,13.0,M,-34.5,M,,*6A
$PYRTM,2024,121.753753688738,12.863401098877
$GPGGA,180523.00,3246.3504,N,11732.8511,W,1,09,0.8,12.3,M,-34.5,M,,*67
$PYRTM,2024,121.753765278009,12.863412688148
$GPGGA,180524.00,3246.3512,N,11732.8537,W,1,09,0.8,12.0,M,-34.5,M,,*60
$PYRTM,2024,121.753776835937,12.863424246076
$GPGGA,180525.00,3246.3519,N,11732.8561,W,1,09,0.8,11.9,M,-34.5,M,,*63
$PYRTM,2024,121.753788423148,12.863435833287
$GPGGA,180526.00,3246.3528,N,11732.8584,W,1,09,0.8,12.0,M,-34.5,M,,*63
$PYRTM,2024,121.753799985255,12.863447395394
$GPGGA,180527.00,3246.3540,N,11732.8606,W,1,09,0.8,12.3,M,-34.5,M,,*66
$PYRTM,2024,121.753811571944,12.863458982083
$GPGGA,180528.00,3246.3551,N,11732.8629,W,1,09,0.8,12.5,M,-34.5,M,,*62
$PYRTM,2024,121.753823136030,12.863470546169
$GPGGA,180529.00,3246.3561,N,11732.8652,W,1,09,0.8,12.9,M,-34.5,M,,*60
$PYRTM,2024,121.753834720347,12.863482130486
$GPGGA,180530.00,3246.3571,N,11732.8676,W,1,09,0.8,12.8,M,-34.5,M,,*6E
$PYRTM,2024,121.753846281007,12.863493691146
$GPGGA,180531.00,3246.3582,N,11732.8701,W,1,09,0.8,12.2,M,-34.5,M,,*68
$PYRTM,2024,121.753853689271,12.863501099410
$GPGGA,180532.00,3246.3591,N,11732.8725,W,1,09,0.8,11.8,M,-34.5,M,,*66
$PYRTM,2024,121.753869429884,12.863516840035
$GPGGA,180533.00,3246.3601,N,11732.8746,W,1,09,0.8,11.9,M,-34.5,M,,*69
$PYRTM,2024,121.753881017037,12.863528427176
$GPGGA,180534.00,3246.3612,N,11732.8768,W,1,09,0.8,12.3,M,-34.5,M,,*69
$PYRTM,2024,121.753888411192,12.863535821331
$GPGGA,180535.00,3246.3624,N,11732.8792,W,1,09,0.8,12.4,M,-34.5,M,,*6F
$PYRTM,2024,121.753900113727,12.863547523866
$GPGGA,180536.00,3246.3633,N,11732.8817,W,1,09,0.8,12.1,M,-34.5,M,,*6D
$PYRTM,2024,121.753918634491,12.863566044630
$GPGGA,180537.00,3246.3641,N,11732.8841,W,1,09,0.8,12.1,M,-34.5,M,,*6A
$PYRTM,2024,121.753930206192,12.863577616331
$GPGGA,180538.00,3246.3651,N,11732.8863,W,1,09,0.8,12.1,M,-34.5,M,,*64
$PYRTM,2024,121.753941780220,12.863589190359
$GPGGA,180539.00,3246.3663,N,11732.8885,W,1,09,0.8,12.2,M,-34.5,M,,*6F
$PYRTM,2024,121.753950477014,12.863597887153
$GPGGA,180540.00,3246.3675,N,11732.8909,W,1,09,0.8,12.0,M,-34.5,M,,*61
$PYRTM,2024,121.753962023241,12.863609433380
$GPGGA,180541.00,3246.3685,N,11732.8932,W,1,09,0.8,11.9,M,-34.5,M,,*6D
$PYRTM,2024,121.753973609502,12.863621019641
$GPGGA,180542.00,3246.3694,N,11732.8955,W,1,09,0.8,11.6,M,-34.5,M,,*60
$PYRTM,2024,121.753985171366,12.863632581505
$GPGGA,180543.00,3246.3705,N,11732.8979,W,1,09,0.8,11.5,M,-34.5,M,,*65
$PYRTM,2024,121.753992579062,12.863639989213
$GPGGA,180544.00,3246.3716,N,11732.9003,W,1,09,0.8,11.4,M,-34.5,M,,*64
$PYRTM,2024,121.754008319190,12.863655729329
$GPGGA,180545.00,3246.3728,N,11732.9027,W,1,09,0.8,11.3,M,-34.5,M,,*69
$PYRTM,2024,121.754019906412,12.863667316551
$GPGGA,180546.00,3246.3739,N,11732.9051,W,1,09,0.8,11.1,M,-34.5,M,,*69
$PYRTM,2024,121.754031466829,12.863678876968
$GPGGA,180547.00,3246.3749,N,11732.9075,W,1,09,0.8,11.0,M,-34.5,M,,*68
$PYRTM,2024,121.754043049687,12.863690459826
$GPGGA,180548.00,3246.3757,N,11732.9096,W,1,09,0.8,11.8,M,-34.5,M,,*6D
$PYRTM,2024,121.754054615475,12.863702025613
$GPGGA,180549.00,3246.3768,N,11732.9117,W,1,09,0.8,12.9,M,-34.5,M,,*6A
$PYRTM,2024,121.754062024259,12.863709434410
$GPGGA,180550.00,3246.3780,N,11732.9143,W,1,09,0.8,12.8,M,-34.5,M,,*64
$PYRTM,2024,121.754077763438,12.863725173576
$GPGGA,180551.00,3246.3789,N,11732.9169,W,1,09,0.8,12.1,M,-34.5,M,,*6D
$PYRTM,2024,121.754089354583,12.863736764722
$GPGGA,180552.00,3246.3796,N,11732.9193,W,1,09,0.8,12.0,M,-34.5,M,,*64
$PYRTM,2024,121.754096746273,12.863744156412
$GPGGA,180553.00,3246.3805,N,11732.9214,W,1,09,0.8,12.2,M,-34.5,M,,*6E
$PYRTM,2024,121.754112502153,12.863759912303
$GPGGA,180554.00,3246.3816,N,11732.9237,W,1,09,0.8,12.4,M,-34.5,M,,*6C
$PYRTM,2024,121.754124060046,12.863771470185
$GPGGA,180555.00,3246.3828,N,11732.9261,W,1,09,0.8,12.1,M,-34.5,M,,*66
$PYRTM,2024,121.754131468113,12.863778878252
$GPGGA,180556.00,3246.3838,N,11732.9285,W,1,09,0.8,12.0,M,-34.5,M,,*6F
$PYRTM,2024,121.754147208854,12.863794619005
$GPGGA,180557.00,3246.3847,N,11732.9306,W,1,09,0.8,12.8,M,-34.5,M,,*64
$PYRTM,2024,121.754158795556,12.863806205694
$GPGGA,180558.00,3246.3858,N,11732.9329,W,1,09,0.8,12.8,M,-34.5,M,,*68
$PYRTM,2024,121.754170357419,12.863817767558
$GPGGA,180559.00,3246.3870,N,11732.9354,W,1,09,0.8,12.7,M,-34.5,M,,*66
$PYRTM,2024,121.754181943727,12.863829353866
$GPGGA,180600.00,3246.3881,N,11732.9378,W,1,09,0.8,11.8,M,-34.5,M,,*65
$PYRTM,2024,121.754193505567,12.863840915706
$GPGGA,180601.00,3246.3891,N,11732.9399,W,1,09,0.8,11.6,M,-34.5,M,,*64
$PYRTM,2024,121.754200912222,12.863848322361
$GPGGA,180602.00,3246.3901,N,11732.9422,W,1,09,0.8,11.5,M,-34.5,M,,*6B
$PYRTM,2024,121.754216658206,12.863864068345
$GPGGA,180603.00,3246.3911,N,11732.9447,W,1,09,0.8,11.3,M,-34.5,M,,*6E
$PYRTM,2024,121.754228240266,12.863875650405
$GPGGA,180604.00,3246.3922,N,11732.9472,W,1,09,0.8,11.1,M,-34.5,M,,*6D
$PYRTM,2024,121.754239801667,12.863887211794
$GPGGA,180605.00,3246.3932,N,11732.9496,W,1,09,0.8,10.9,M,-34.5,M,,*6E
$PYRTM,2024,121.754251387465,12.863898797604
$GPGGA,180606.00,3246.3941,N,11732.9520,W,1,09,0.8,11.1,M,-34.5,M,,*6C
$PYRTM,2024,121.754258782859,12.863906193009
$GPGGA,180607.00,3246.3950,N,11732.9542,W,1,09,0.8,11.6,M,-34.5,M,,*6E
$PYRTM,2024,121.754277429109,12.863924839248
$GPGGA,180608.00,3246.3962,N,11732.9565,W,1,09,0.8,11.6,M,-34.5,M,,*65
$PYRTM,2024,121.754286097928,12.863933508067
$GPGGA,180609.00,3246.3974,N,11732.9590,W,1,09,0.8,10.9,M,-34.5,M,,*67
$PYRTM,2024,121.754297688993,12.863945099132
$GPGGA,180610.00,3246.3983,N,11732.9615,W,1,09,0.8,10.2,M,-34.5,M,,*62
$PYRTM,2024,121.754305080243,12.863952490382
$GPGGA,180611.00,3246.3990,N,11732.9637,W,1,09,0.8,10.8,M,-34.5,M,,*6B
$PYRTM,2024,121.754320835590,12.863968245729
$GPGGA,180612.00,3246.4001,N,11732.9660,W,1,09,0.8,11.1,M,-34.5,M,,*64
$PYRTM,2024,121.754332395301,12.863979805440
$GPGGA,180613.00,3246.4012,N,11732.9684,W,1,09,0.8,11.4,M,-34.5,M,,*68
$PYRTM,2024,121.754339802280,12.863987212419
$GPGGA,180614.00,3246.4021,N,11732.9708,W,1,09,0.8,11.4,M,-34.5,M,,*6A
$PYRTM,2024,121.754355541910,12.864002952049
$GPGGA,180615.00,3246.4031,N,11732.9732,W,1,09,0.8,11.2,M,-34.5,M,,*65
$PYRTM,2024,121.754367129884,12.864014540023
$GPGGA,180616.00,3246.4041,N,11732.9756,W,1,09,0.8,11.0,M,-34.5,M,,*61
$PYRTM,2024,121.754374538796,12.864021948935
$GPGGA,180617.00,3246.4051,N,11732.9778,W,1,09,0.8,11.1,M,-34.5,M,,*6C
$PYRTM,2024,121.754390278218,12.864037688356
$GPGGA,180618.00,3246.4060,N,11732.9800,W,1,09,0.8,11.5,M,-34.5,M,,*65
$PYRTM,2024,121.754401839688,12.864049249826
$GPGGA,180619.00,3246.4071,N,11732.9823,W,1,09,0.8,11.5,M,-34.5,M,,*65
$PYRTM,2024,121.754409246354,12.864056656505
$GPGGA,180620.00,3246.4082,N,11732.9849,W,1,09,0.8,11.0,M,-34.5,M,,*6A
$PYRTM,2024,121.754424987708,12.864072397847
$GPGGA,180621.00,3246.4091,N,11732.9874,W,1,09,0.8,10.8,M,-34.5,M,,*6E
$PYRTM,2024,121.754432395208,12.864079805347
$GPGGA,180622.00,3246.4099,N,11732.9895,W,1,09,0.8,11.3,M,-34.5,M,,*60
$PYRTM,2024,121.754451042245,12.864098452384
$GPGGA,180623.00,3246.4109,N,11732.9917,W,1,09,0.8,12.3,M,-34.5,M,,*61
$PYRTM,2024,121.754462615694,12.864110025833
$GPGGA,180624.00,3246.4120,N,11732.9941,W,1,09,0.8,12.6,M,-34.5,M,,*6B
$PYRTM,2024,121.754471283183,12.864118693322
$GPGGA,180625.00,3246.4130,N,11732.9966,W,1,09,0.8,12.1,M,-34.5,M,,*69
$PYRTM,2024,121.754478690081,12.864126100220
$GPGGA,180626.00,3246.4140,N,11732.9989,W,1,09,0.8,11.7,M,-34.5,M,,*69
$PYRTM,2024,121.754494434583,12.864141844722
$GPGGA,180627.00,3246.4149,N,11733.0011,W,1,09,0.8,11.6,M,-34.5,M,,*60
$PYRTM,2024,121.754506022951,12.864153433090
$GPGGA,180628.00,3246.4159,N,11733.0034,W,1,09,0.8,11.5,M,-34.5,M,,*6A
$PYRTM,2024,121.754513418241,12.864160828380
$GPGGA,180629.00,3246.4169,N,11733.0056,W,1,09,0.8,11.7,M,-34.5,M,,*6E
$PYRTM,2024,121.754529168056,12.864176578194
$GPGGA,180630.00,3246.4180,N,11733.0078,W,1,09,0.8,12.2,M,-34.5,M,,*6B
$PYRTM,2024,121.754536576609,12.864183986748
$GPGGA,180631.00,3246.4192,N,11733.0103,W,1,09,0.8,12.1,M,-34.5,M,,*67
$PYRTM,2024,121.754548265220,12.864195675359
$GPGGA,180632.00,3246.4201,N,11733.0127,W,1,09,0.8,12.0,M,-34.5,M,,*6A
$PYRTM,2024,121.754563877708,12.864211287847
$GPGGA,180633.00,3246.4210,N,11733.0148,W,1,09,0.8,12.3,M,-34.5,M,,*61
$PYRTM,2024,121.754575463368,12.864222873507
$GPGGA,180634.00,3246.4222,N,11733.0170,W,1,09,0.8,12.4,M,-34.5,M,,*6B
$PYRTM,2024,121.754582859745,12.864230269884
$GPGGA,180635.00,3246.4235,N,11733.0195,W,1,09,0.8,12.1,M,-34.5,M,,*62
$PYRTM,2024,121.754598612708,12.864246022859
$GPGGA,180636.00,3246.4244,N,11733.0219,W,1,09,0.8,12.2,M,-34.5,M,,*63
$PYRTM,2024,121.754610172963,12.864257583090
$GPGGA,180637.00,3246.4253,N,11733.0242,W,1,09,0.8,12.0,M,-34.5,M,,*68
$PYRTM,2024,121.754617579919,12.864264990058
$GPGGA,180638.00,3246.4264,N,11733.0265,W,1,09,0.8,11.9,M,-34.5,M,,*6C
$PYRTM,2024,121.754636239132,12.864283649271
$GPGGA,180639.00,3246.4276,N,11733.0289,W,1,09,0.8,11.7,M,-34.5,M,,*62
$PYRTM,2024,121.754644922998,12.864292333137
$GPGGA,180640.00,3246.4287,N,11733.0313,W,1,09,0.8,11.6,M,-34.5,M,,*61
$PYRTM,2024,121.754652303634,12.864299713773
$GPGGA,180641.00,3246.4296,N,11733.0336,W,1,09,0.8,11.5,M,-34.5,M,,*64
$PYRTM,2024,121.754668060984,12.864315471123
$GPGGA,180642.00,3246.4305,N,11733.0359,W,1,09,0.8,11.4,M,-34.5,M,,*64
$PYRTM,2024,121.754679618912,12.864327029051
$GPGGA,180643.00,3246.4316,N,11733.0384,W,1,09,0.8,11.7,M,-34.5,M,,*64
$PYRTM,2024,121.754687026389,12.864334436528
$GPGGA,180644.00,3246.4327,N,11733.0408,W,1,09,0.8,11.1,M,-34.5,M,,*64
$PYRTM,2024,121.754702767338,12.864350177477
$GPGGA,180645.00,3246.4335,N,11733.0429,W,1,09,0.8,11.2,M,-34.5,M,,*66
$PYRTM,2024,121.754714356227,12.864361766366
$GPGGA,180646.00,3246.4343,N,11733.0450,W,1,09,0.8,12.1,M,-34.5,M,,*6A
$PYRTM,2024,121.754721763704,12.864369173843
$GPGGA,180647.00,3246.4352,N,11733.0475,W,1,09,0.8,12.3,M,-34.5,M,,*6E
$PYRTM,2024,121.754737502755,12.864384912894
$GPGGA,180648.00,3246.4363,N,11733.0500,W,1,09,0.8,11.8,M,-34.5,M,,*68
$PYRTM,2024,121.754749064965,12.864396475116
$GPGGA,180649.00,3246.4375,N,11733.0522,W,1,09,0.8,11.6,M,-34.5,M,,*60
$PYRTM,2024,121.754760882025,12.864408292176
$GPGGA,180650.00,3246.4385,N,11733.0543,W,1,09,0.8,11.9,M,-34.5,M,,*6F
$PYRTM,2024,121.754772212685,12.864419622824
$GPGGA,180651.00,3246.4395,N,11733.0565,W,1,09,0.8,12.3,M,-34.5,M,,*62
$PYRTM,2024,121.754783799907,12.864431210046
$GPGGA,180652.00,3246.4404,N,11733.0591,W,1,09,0.8,12.2,M,-34.5,M,,*64
$PYRTM,2024,121.754791195243,12.864438605382
$GPGGA,180653.00,3246.4414,N,11733.0615,W,1,09,0.8,11.9,M,-34.5,M,,*63
$PYRTM,2024,121.754806947465,12.864454357604
$GPGGA,180654.00,3246.4425,N,11733.0636,W,1,09,0.8,12.0,M,-34.5,M,,*6D
$PYRTM,2024,121.754814344028,12.864461754167
$GPGGA,180655.00,3246.4437,N,11733.0659,W,1,09,0.8,11.8,M,-34.5,M,,*6D
$PYRTM,2024,121.754830098241,12.864477508380
$GPGGA,180656.00,3246.4446,N,11733.0683,W,1,09,0.8,11.3,M,-34.5,M,,*64
$PYRTM,2024,121.754841657546,12.864489067685
$GPGGA,180657.00,3246.4454,N,11733.0708,W,1,09,0.8,11.1,M,-34.5,M,,*66
$PYRTM,2024,121.754849066748,12.864496476887
$GPGGA,180658.00,3246.4464,N,11733.0731,W,1,09,0.8,11.5,M,-34.5,M,,*64
$PYRTM,2024,121.754864805498,12.864512215637
$GPGGA,180659.00,3246.4474,N,11733.0753,W,1,09,0.8,11.9,M,-34.5,M,,*6C
$PYRTM,2024,121.754876386991,12.864523797130
$GPGGA,180700.00,3246.4486,N,11733.0777,W,1,09,0.8,11.8,M,-34.5,M,,*6B
$PYRTM,2024,121.754883797234,12.864531207373
$GPGGA,180701.00,3246.4496,N,11733.0800,W,1,09,0.8,11.8,M,-34.5,M,,*64
$PYRTM,2024,121.754899535174,12.864546945313
$GPGGA,180702.00,3246.4505,N,11733.0823,W,1,09,0.8,12.0,M,-34.5,M,,*66
$PYRTM,2024,121.754911103773,12.864558513912
$GPGGA,180703.00,3246.4515,N,11733.0846,W,1,09,0.8,12.0,M,-34.5,M,,*65
$PYRTM,2024,121.754918508623,12.864565918762
$GPGGA,180704.00,3246.4525,N,11733.0870,W,1,09,0.8,11.9,M,-34.5,M,,*6E
$PYRTM,2024,121.754934250995,12.864581661134
$GPGGA,180705.00,3246.4536,N,11733.0893,W,1,09,0.8,11.7,M,-34.5,M,,*6E
$PYRTM,2024,121.754945836331,12.864593246470
$GPGGA,180706.00,3246.4546,N,11733.0918,W,1,09,0.8,11.5,M,-34.5,M,,*6A
$PYRTM,2024,121.754957398275,12.864604808414
$GPGGA,180707.00,3246.4554,N,11733.0941,W,1,09,0.8,11.5,M,-34.5,M,,*64
$PYRTM,2024,121.754969000139,12.864616410278
$GPGGA,180708.00,3246.4565,N,11733.0964,W,1,09,0.8,11.9,M,-34.5,M,,*62
$PYRTM,2024,121.754976380289,12.864623790428
$GPGGA,180709.00,3246.4575,N,11733.0988,W,1,09,0.8,12.2,M,-34.5,M,,*68
$PYRTM,2024,121.754995026875,12.864642437014
$GPGGA,180710.00,3246.4585,N,11733.1013,W,1,09,0.8,12.1,M,-34.5,M,,*66
$PYRTM,2024,121.755003694711,12.864651104850
$GPGGA,180711.00,3246.4595,N,11733.1038,W,1,09,0.8,11.6,M,-34.5,M,,*6B
$PYRTM,2024,121.755011101111,12.864658511250
$GPGGA,180712.00,3246.4605,N,11733.1063,W,1,09,0.8,11.2,M,-34.5,M,,*68
$PYRTM,2024,121.755026842373,12.864674252512
$GPGGA,180713.00,3246.4614,N,11733.1086,W,1,09,0.8,11.3,M,-34.5,M,,*63
$PYRTM,2024,121.755038429954,12.864685840093
$GPGGA,180714.00,3246.4624,N,11733.1107,W,1,09,0.8,12.0,M,-34.5,M,,*6F
$PYRTM,2024,121.755045837373,12.864693247512
$GPGGA,180715.00,3246.4634,N,11733.1131,W,1,09,0.8,12.4,M,-34.5,M,,*6E
$PYRTM,2024,121.755061579433,12.864708989572
$GPGGA,180716.00,3246.4645,N,11733.1157,W,1,09,0.8,12.2,M,-34.5,M,,*6D
$PYRTM,2024,121.755068987465,12.864716397604
$GPGGA,180717.00,3246.4655,N,11733.1183,W,1,09,0.8,11.6,M,-34.5,M,,*63
$PYRTM,2024,121.755080670394,12.864728080532
$GPGGA,180718.00,3246.4665,N,11733.1205,W,1,09,0.8,11.7,M,-34.5,M,,*63
$PYRTM,2024,121.755096289502,12.864743699641
$GPGGA,180719.00,3246.4674,N,11733.1228,W,1,09,0.8,11.9,M,-34.5,M,,*63
$PYRTM,2024,121.755107875590,12.864755285741
$GPGGA,180720.00,3246.4684,N,11733.1251,W,1,09,0.8,12.3,M,-34.5,M,,*61
$PYRTM,2024,121.755115271100,12.864762681238
$GPGGA,180721.00,3246.4695,N,11733.1275,W,1,09,0.8,12.1,M,-34.5,M,,*64
$PYRTM,2024,121.755131018669,12.864778428808
$GPGGA,180722.00,3246.4707,N,11733.1301,W,1,09,0.8,11.7,M,-34.5,M,,*6A
$PYRTM,2024,121.755142583727,12.864789993866
$GPGGA,180723.00,3246.4716,N,11733.1325,W,1,09,0.8,11.0,M,-34.5,M,,*6A
$PYRTM,2024,121.755149992280,12.864797402419
$GPGGA,180724.00,3246.4724,N,11733.1347,W,1,09,0.8,11.3,M,-34.5,M,,*6B
$PYRTM,2024,121.755165733738,12.864813143877
$GPGGA,180725.00,3246.4735,N,11733.1369,W,1,09,0.8,11.8,M,-34.5,M,,*6D
$PYRTM,2024,121.755177318750,12.864824728889
$GPGGA,180726.00,3246.4748,N,11733.1394,W,1,09,0.8,11.6,M,-34.5,M,,*68
$PYRTM,2024,121.755184727199,12.864832137338
$GPGGA,180727.00,3246.4758,N,11733.1419,W,1,09,0.8,11.0,M,-34.5,M,,*6C
$PYRTM,2024,121.755200468669,12.864847878808
$GPGGA,180728.00,3246.4768,N,11733.1440,W,1,09,0.8,11.3,M,-34.5,M,,*6F
$PYRTM,2024,121.755212029352,12.864859439491
$GPGGA,180729.00,3246.4778,N,11733.1462,W,1,09,0.8,12.3,M,-34.5,M,,*6C
$PYRTM,2024,121.755219437350,12.864866847488
$GPGGA,180730.00,3246.4790,N,11733.1486,W,1,09,0.8,11.9,M,-34.5,M,,*61
$PYRTM,2024,121.755235177616,12.864882587755
$GPGGA,180731.00,3246.4800,N,11733.1514,W,1,09,0.8,10.9,M,-34.5,M,,*6D
$PYRTM,2024,121.755246763773,12.864894173912
$GPGGA,180732.00,3246.4810,N,11733.1538,W,1,09,0.8,10.4,M,-34.5,M,,*6C
$PYRTM,2024,121.755254159491,12.864901569630
$GPGGA,180733.00,3246.4819,N,11733.1559,W,1,09,0.8,10.6,M,-34.5,M,,*61
$PYRTM,2024,121.755269910208,12.864917320347
$GPGGA,180734.00,3246.4829,N,11733.1582,W,1,09,0.8,11.2,M,-34.5,M,,*66
$PYRTM,2024,121.755277307558,12.864924717697
$GPGGA,180735.00,3246.4839,N,11733.1606,W,1,09,0.8,11.7,M,-34.5,M,,*6C
$PYRTM,2024,121.755289004306,12.864936414444
$GPGGA,180736.00,3246.4848,N,11733.1631,W,1,09,0.8,11.8,M,-34.5,M,,*62
$PYRTM,2024,121.755304622118,12.864952032257
$GPGGA,180737.00,3246.4858,N,11733.1655,W,1,09,0.8,11.5,M,-34.5,M,,*6D
$PYRTM,2024,121.755316211910,12.864963622049
$GPGGA,180738.00,3246.4868,N,11733.1681,W,1,09,0.8,10.7,M,-34.5,M,,*6B
$PYRTM,2024,121.755323605220,12.864971015370
$GPGGA,180739.00,3246.4876,N,11733.1705,W,1,09,0.8,10.0,M,-34.5,M,,*6F
$PYRTM,2024,121.755335291806,12.864982701944
$GPGGA,180740.00,3246.4884,N,11733.1727,W,1,09,0.8,10.7,M,-34.5,M,,*6B
$PYRTM,2024,121.755353697280,12.865001107419
$GPGGA,180741.00,3246.4895,N,11733.1748,W,1,09,0.8,11.8,M,-34.5,M,,*6D
$PYRTM,2024,121.755365399641,12.865012809792
$GPGGA,180742.00,3246.4906,N,11733.1773,W,1,09,0.8,12.1,M,-34.5,M,,*67
$PYRTM,2024,121.755376984444,12.865024394583
$GPGGA,180743.00,3246.4915,N,11733.1799,W,1,09,0.8,11.9,M,-34.5,M,,*6B
$PYRTM,2024,121.755385649086,12.865033059225
$GPGGA,180744.00,3246.4922,N,11733.1823,W,1,09,0.8,12.2,M,-34.5,M,,*6E
$PYRTM,2024,121.755393062442,12.865040472593
$GPGGA,180745.00,3246.4933,N,11733.1844,W,1,09,0.8,12.1,M,-34.5,M,,*6D
$PYRTM,2024,121.755408798067,12.865056208206
$GPGGA,180746.00,3246.4945,N,11733.1867,W,1,09,0.8,12.0,M,-34.5,M,,*6F
$PYRTM,2024,121.755420364259,12.865067774398
$GPGGA,180747.00,3246.4955,N,11733.1890,W,1,09,0.8,11.8,M,-34.5,M,,*6C
$PYRTM,2024,121.755431945775,12.865079355914
$GPGGA,180748.00,3246.4962,N,11733.1915,W,1,09,0.8,11.6,M,-34.5,M,,*65
$PYRTM,2024,121.755443511505,12.865090921644
$GPGGA,180749.00,3246.4971,N,11733.1941,W,1,09,0.8,11.1,M,-34.5,M,,*60
$PYRTM,2024,121.755455099479,12.865102509618
$GPGGA,180750.00,3246.4982,N,11733.1967,W,1,09,0.8,10.5,M,-34.5,M,,*65
$PYRTM,2024,121.755462493218,12.865109903356
$GPGGA,180751.00,3246.4992,N,11733.1989,W,1,09,0.8,10.5,M,-34.5,M,,*65
$PYRTM,2024,121.755478251690,12.865125661829
$GPGGA,180752.00,3246.4999,N,11733.2010,W,1,09,0.8,11.3,M,-34.5,M,,*60
$PYRTM,2024,121.755489808333,12.865137218472
$GPGGA,180753.00,3246.5008,N,11733.2033,W,1,09,0.8,12.9,M,-34.5,M,,*69
$PYRTM,2024,121.755497216493,12.865144626632
$GPGGA,180754.00,3246.5018,N,11733.2058,W,1,09,0.8,12.0,M,-34.5,M,,*6B
$PYRTM,2024,121.755512956644,12.865160366782
$GPGGA,180755.00,3246.5028,N,11733.2084,W,1,09,0.8,11.0,M,-34.5,M,,*6B
$PYRTM,2024,121.755524539537,12.865171949676
$GPGGA,180756.00,3246.5036,N,11733.2107,W,1,09,0.8,10.6,M,-34.5,M,,*6A
$PYRTM,2024,121.755531945694,12.865179355845
$GPGGA,180757.00,3246.5045,N,11733.2128,W,1,09,0.8,10.8,M,-34.5,M,,*6C
$PYRTM,2024,121.755547692384,12.865195102523
$GPGGA,180758.00,3246.5056,N,11733.2151,W,1,09,0.8,11.5,M,-34.5,M,,*63
$PYRTM,2024,121.755559252431,12.865206662569
$GPGGA,180759.00,3246.5067,N,11733.2176,W,1,09,0.8,12.0,M,-34.5,M,,*63
$PYRTM,2024,121.755566661921,12.865214072060
$GPGGA,180800.00,3246.5077,N,11733.2202,W,1,09,0.8,12.0,M,-34.5,M,,*61
$PYRTM,2024,121.755582401111,12.865229811250
$GPGGA,180801.00,3246.5085,N,11733.2226,W,1,09,0.8,12.2,M,-34.5,M,,*69
$PYRTM,2024,121.755593984687,12.865241394826
$GPGGA,180802.00,3246.5095,N,11733.2247,W,1,09,0.8,12.5,M,-34.5,M,,*6B
$PYRTM,2024,121.755601382222,12.865248792361
$GPGGA,180803.00,3246.5106,N,11733.2271,W,1,09,0.8,12.4,M,-34.5,M,,*65
$PYRTM,2024,121.755617137269,12.865264547407
$GPGGA,180804.00,3246.5116,N,11733.2296,W,1,09,0.8,11.8,M,-34.5,M,,*65
$PYRTM,2024,121.755628698299,12.865276108449
$GPGGA,180805.00,3246.5125,N,11733.2320,W,1,09,0.8,11.4,M,-34.5,M,,*64
$PYRTM,2024,121.755636106192,12.865283516331
$GPGGA,180806.00,3246.5134,N,11733.2343,W,1,09,0.8,11.4,M,-34.5,M,,*62
$PYRTM,2024,121.755651846713,12.865299256852
$GPGGA,180807.00,3246.5146,N,11733.2364,W,1,09,0.8,12.3,M,-34.5,M,,*67
$PYRTM,2024,121.755663435949,12.865310846088
$GPGGA,180808.00,3246.5157,N,11733.2388,W,1,09,0.8,12.2,M,-34.5,M,,*6B
$PYRTM,2024,121.755670828762,12.865318238900
$GPGGA,180809.00,3246.5166,N,11733.2414,W,1,09,0.8,11.6,M,-34.5,M,,*6D
$PYRTM,2024,121.755686594954,12.865334005104
$GPGGA,180810.00,3246.5174,N,11733.2439,W,1,09,0.8,11.5,M,-34.5,M,,*6A
$PYRTM,2024,121.755693977014,12.865341387153
$GPGGA,180811.00,3246.5182,N,11733.2462,W,1,09,0.8,11.8,M,-34.5,M,,*61
$PYRTM,2024,121.755712510625,12.865359920764
$GPGGA,180812.00,3246.5192,N,11733.2483,W,1,09,0.8,12.1,M,-34.5,M,,*66
$PYRTM,2024,121.755721292292,12.865368702431
$GPGGA,180813.00,3246.5204,N,11733.2508,W,1,09,0.8,12.2,M,-34.5,M,,*6A
$PYRTM,2024,121.755732880069,12.865380290220
$GPGGA,180814.00,3246.5214,N,11733.2534,W,1,09,0.8,11.6,M,-34.5,M,,*64
$PYRTM,2024,121.755744439144,12.865391849294
$GPGGA,180815.00,3246.5222,N,11733.2558,W,1,09,0.8,11.4,M,-34.5,M,,*68
$PYRTM,2024,121.755756027662,12.865403437801
$GPGGA,180816.00,3246.5231,N,11733.2579,W,1,09,0.8,12.3,M,-34.5,M,,*6E
$PYRTM,2024,121.755767586215,12.865414996354
$GPGGA,180817.00,3246.5242,N,11733.2602,W,1,09,0.8,13.0,M,-34.5,M,,*66
$PYRTM,2024,121.755774994954,12.865422405093
$GPGGA,180818.00,3246.5255,N,11733.2628,W,1,09,0.8,12.9,M,-34.5,M,,*6F
$PYRTM,2024,121.755790734965,12.865438145104
$GPGGA,180819.00,3246.5266,N,11733.2653,W,1,09,0.8,12.9,M,-34.5,M,,*62
$PYRTM,2024,121.755802322350,12.865449732488
$GPGGA,180820.00,3246.5274,N,11733.2675,W,1,09,0.8,12.7,M,-34.5,M,,*61
$PYRTM,2024,121.755809719641,12.865457129780
$GPGGA,180821.00,3246.5284,N,11733.2698,W,1,09,0.8,12.3,M,-34.5,M,,*68
$PYRTM,2024,121.755825474606,12.865472884745
$GPGGA,180822.00,3246.5294,N,11733.2721,W,1,09,0.8,11.9,M,-34.5,M,,*60
$PYRTM,2024,121.755832866262,12.865480276400
$GPGGA,180823.00,3246.5303,N,11733.2745,W,1,09,0.8,11.4,M,-34.5,M,,*61
$PYRTM,2024,121.755844561470,12.865491971620
$GPGGA,180824.00,3246.5312,N,11733.2769,W,1,09,0.8,11.3,M,-34.5,M,,*6F
$PYRTM,2024,121.755860179468,12.865507589606
$GPGGA,180825.00,3246.5321,N,11733.2794,W,1,09,0.8,11.3,M,-34.5,M,,*6C
$PYRTM,2024,121.755871768391,12.865519178530
$GPGGA,180826.00,3246.5330,N,11733.2820,W,1,09,0.8,11.4,M,-34.5,M,,*68
$PYRTM,2024,121.755879174919,12.865526585058
$GPGGA,180827.00,3246.5340,N,11733.2844,W,1,09,0.8,11.4,M,-34.5,M,,*6C
$PYRTM,2024,121.755894910613,12.865542320752
$GPGGA,180828.00,3246.5351,N,11733.2869,W,1,09,0.8,11.3,M,-34.5,M,,*6B
$PYRTM,2024,121.755906477188,12.865553887326
$GPGGA,180829.00,3246.5361,N,11733.2894,W,1,09,0.8,11.3,M,-34.5,M,,*6B
$PYRTM,2024,121.755918059514,12.865565469653
$GPGGA,180830.00,3246.5371,N,11733.2917,W,1,09,0.8,11.5,M,-34.5,M,,*6E
$PYRTM,2024,121.755929627488,12.865577037627
$GPGGA,180831.00,3246.5382,N,11733.2941,W,1,09,0.8,11.5,M,-34.5,M,,*60
$PYRTM,2024,121.755937032894,12.865584443032
$GPGGA,180832.00,3246.5394,N,11733.2966,W,1,09,0.8,11.3,M,-34.5,M,,*67
$PYRTM,2024,121.755952773507,12.865600183646
$GPGGA,180833.00,3246.5405,N,11733.2992,W,1,09,0.8,11.0,M,-34.5,M,,*61
$PYRTM,2024,121.755964355451,12.865611765590
$GPGGA,180834.00,3246.5415,N,11733.3015,W,1,09,0.8,10.9,M,-34.5,M,,*68
$PYRTM,2024,121.755971755150,12.865619165289
$GPGGA,180835.00,3246.5426,N,11733.3037,W,1,09,0.8,11.3,M,-34.5,M,,*62
