$PYRTM,2024,127.500003594352,18.609651004491
$GPGGA,115959.00,3327.1381,N,11904.2153,W,1,12,0.8,11.8,M,-34.5,M,,*64
$PYRTM,2024,127.500011001238,18.609658411377
$GPGGA,120000.00,3327.1377,N,11904.2145,W,1,12,0.8,11.7,M,-34.5,M,,*66
$PYRTM,2024,127.500022692292,18.609670102431
$GPGGA,120001.00,3327.1370,N,11904.2140,W,1,12,0.8,11.6,M,-34.5,M,,*64
$PYRTM,2024,127.500038331146,18.609685741285
$GPGGA,120002.00,3327.1362,N,11904.2133,W,1,12,0.8,11.4,M,-34.5,M,,*62
$PYRTM,2024,127.500049891100,18.609697301238
$GPGGA,120003.00,3327.1357,N,11904.2126,W,1,12,0.8,11.3,M,-34.5,M,,*66
$PYRTM,2024,127.500057299734,18.609704709873
$GPGGA,120004.00,3327.1354,N,11904.2116,W,1,12,0.8,11.5,M,-34.5,M,,*67
$PYRTM,2024,127.500073041146,18.609720451296
$GPGGA,120005.00,3327.1351,N,11904.2107,W,1,12,0.8,11.8,M,-34.5,M,,*6E
$PYRTM,2024,127.500084626991,18.609732037130
$GPGGA,120006.00,3327.1345,N,11904.2100,W,1,12,0.8,11.8,M,-34.5,M,,*6F
$PYRTM,2024,127.500096189595,18.609743599745
$GPGGA,120007.00,3327.1336,N,11904.2095,W,1,12,0.8,11.6,M,-34.5,M,,*69
$PYRTM,2024,127.500107777187,18.609755187326
$GPGGA,120008.00,3327.1330,N,11904.2089,W,1,12,0.8,11.5,M,-34.5,M,,*6E
$PYRTM,2024,127.500119338287,18.609766748426
$GPGGA,120009.00,3327.1327,N,11904.2081,W,1,12,0.8,11.5,M,-34.5,M,,*61
$PYRTM,2024,127.500126744745,18.609774154896
$GPGGA,120010.00,3327.1324,N,11904.2071,W,1,12,0.8,11.8,M,-34.5,M,,*68
$PYRTM,2024,127.500145385197,18.609792795336
$GPGGA,120011.00,3327.1318,N,11904.2063,W,1,12,0.8,12.0,M,-34.5,M,,*6E
$PYRTM,2024,127.500154074942,18.609801485081
$GPGGA,120012.00,3327.1310,N,11904.2058,W,1,12,0.8,12.1,M,-34.5,M,,*6C
$PYRTM,2024,127.500165634028,18.609813044167
$GPGGA,120013.00,3327.1302,N,11904.2053,W,1,12,0.8,12.2,M,-34.5,M,,*66
$PYRTM,2024,127.500177234572,18.609824644711
$GPGGA,120014.00,3327.1298,N,11904.2044,W,1,12,0.8,12.3,M,-34.5,M,,*64
$PYRTM,2024,127.500188782326,18.609836192465
$GPGGA,120015.00,3327.1295,N,11904.2034,W,1,12,0.8,12.3,M,-34.5,M,,*6F
$PYRTM,2024,127.500200368924,18.609847779062
$GPGGA,120016.00,3327.1292,N,11904.2025,W,1,12,0.8,12.2,M,-34.5,M,,*6A
$PYRTM,2024,127.500211930266,18.609859340405
$GPGGA,120017.00,3327.1285,N,11904.2018,W,1,12,0.8,12.1,M,-34.5,M,,*60
$PYRTM,2024,127.500223512558,18.609870922708
$GPGGA,120018.00,3327.1277,N,11904.2012,W,1,12,0.8,12.2,M,-34.5,M,,*6B
$PYRTM,2024,127.500235078715,18.609882488854
$GPGGA,120019.00,3327.1273,N,11904.2004,W,1,12,0.8,12.3,M,-34.5,M,,*68
$PYRTM,2024,127.500242486134,18.609889896273
$GPGGA,120020.00,3327.1269,N,11904.1995,W,1,12,0.8,12.2,M,-34.5,M,,*6A
$PYRTM,2024,127.500258227072,18.609905637211
$GPGGA,120021.00,3327.1265,N,11904.1986,W,1,12,0.8,12.0,M,-34.5,M,,*67
$PYRTM,2024,127.500269813472,18.609917223611
$GPGGA,120022.00,3327.1260,N,11904.1979,W,1,12,0.8,12.0,M,-34.5,M,,*61
$PYRTM,2024,127.500277209873,18.609924620012
$GPGGA,120023.00,3327.1254,N,11904.1973,W,1,12,0.8,12.2,M,-34.5,M,,*6F
$PYRTM,2024,127.500288920498,18.609936330648
$GPGGA,120024.00,3327.1247,N,11904.1967,W,1,12,0.8,12.1,M,-34.5,M,,*6C
$PYRTM,2024,127.500304524468,18.609951934606
$GPGGA,120025.00,3327.1241,N,11904.1959,W,1,12,0.8,11.6,M,-34.5,M,,*62
$PYRTM,2024,127.500311931956,18.609959342095
$GPGGA,120026.00,3327.1236,N,11904.1950,W,1,12,0.8,11.3,M,-34.5,M,,*6D
$PYRTM,2024,127.500327672234,18.609975082373
$GPGGA,120027.00,3327.1231,N,11904.1943,W,1,12,0.8,11.6,M,-34.5,M,,*6C
$PYRTM,2024,127.500339273287,18.609986683426
$GPGGA,120028.00,3327.1225,N,11904.1938,W,1,12,0.8,12.2,M,-34.5,M,,*6D
$PYRTM,2024,127.500346656539,18.609994066690
$GPGGA,120029.00,3327.1218,N,11904.1931,W,1,12,0.8,12.4,M,-34.5,M,,*6D
$PYRTM,2024,127.500362407303,18.610009817442
$GPGGA,120030.00,3327.1213,N,11904.1922,W,1,12,0.8,12.2,M,-34.5,M,,*6A
$PYRTM,2024,127.500373968750,18.610021378889
$GPGGA,120031.00,3327.1208,N,11904.1912,W,1,12,0.8,11.9,M,-34.5,M,,*6A
$PYRTM,2024,127.500385556759,18.610032966898
$GPGGA,120032.00,3327.1203,N,11904.1906,W,1,12,0.8,11.7,M,-34.5,M,,*69
$PYRTM,2024,127.500392966470,18.610040376609
$GPGGA,120033.00,3327.1197,N,11904.1901,W,1,12,0.8,11.8,M,-34.5,M,,*6E
$PYRTM,2024,127.500404651632,18.610052061771
$GPGGA,120034.00,3327.1191,N,11904.1896,W,1,12,0.8,11.9,M,-34.5,M,,*61
$PYRTM,2024,127.500420266134,18.610067676273
$GPGGA,120035.00,3327.1188,N,11904.1887,W,1,12,0.8,12.0,M,-34.5,M,,*62
$PYRTM,2024,127.500431853160,18.610079263299
$GPGGA,120036.00,3327.1185,N,11904.1878,W,1,12,0.8,11.8,M,-34.5,M,,*67
$PYRTM,2024,127.500443413206,18.610090823345
$GPGGA,120037.00,3327.1179,N,11904.1870,W,1,12,0.8,11.6,M,-34.5,M,,*63
$PYRTM,2024,127.500455000660,18.610102410799
$GPGGA,120038.00,3327.1170,N,11904.1864,W,1,12,0.8,11.6,M,-34.5,M,,*60
$PYRTM,2024,127.500462396725,18.610109806863
$GPGGA,120039.00,3327.1163,N,11904.1859,W,1,12,0.8,11.9,M,-34.5,M,,*62
$PYRTM,2024,127.500478148657,18.610125558796
$GPGGA,120040.00,3327.1159,N,11904.1852,W,1,12,0.8,12.3,M,-34.5,M,,*67
$PYRTM,2024,127.500485543333,18.610132953484
$GPGGA,120041.00,3327.1156,N,11904.1841,W,1,12,0.8,12.1,M,-34.5,M,,*69
$PYRTM,2024,127.500504187269,18.610151597407
$GPGGA,120042.00,3327.1153,N,11904.1830,W,1,12,0.8,11.3,M,-34.5,M,,*68
$PYRTM,2024,127.500512859016,18.610160269155
$GPGGA,120043.00,3327.1147,N,11904.1823,W,1,12,0.8,11.1,M,-34.5,M,,*6C
$PYRTM,2024,127.500520265648,18.610167675787
$GPGGA,120044.00,3327.1139,N,11904.1819,W,1,12,0.8,11.3,M,-34.5,M,,*69
$PYRTM,2024,127.500536009016,18.610183419155
$GPGGA,120045.00,3327.1132,N,11904.1814,W,1,12,0.8,11.4,M,-34.5,M,,*69
$PYRTM,2024,127.500547594711,18.610195004850
$GPGGA,120046.00,3327.1127,N,11904.1807,W,1,12,0.8,11.2,M,-34.5,M,,*6A
$PYRTM,2024,127.500559156863,18.610206567002
$GPGGA,120047.00,3327.1123,N,11904.1798,W,1,12,0.8,11.0,M,-34.5,M,,*64
$PYRTM,2024,127.500570738113,18.610218148252
$GPGGA,120048.00,3327.1119,N,11904.1791,W,1,12,0.8,11.0,M,-34.5,M,,*6B
$PYRTM,2024,127.500582303194,18.610229713333
$GPGGA,120049.00,3327.1112,N,11904.1785,W,1,12,0.8,11.2,M,-34.5,M,,*66
$PYRTM,2024,127.500593891331,18.610241301470
$GPGGA,120050.00,3327.1106,N,11904.1779,W,1,12,0.8,11.3,M,-34.5,M,,*69
$PYRTM,2024,127.500605453218,18.610252863356
$GPGGA,120051.00,3327.1101,N,11904.1771,W,1,12,0.8,11.3,M,-34.5,M,,*67
$PYRTM,2024,127.500617039711,18.610264449850
$GPGGA,120052.00,3327.1097,N,11904.1763,W,1,12,0.8,11.3,M,-34.5,M,,*69
$PYRTM,2024,127.500628600544,18.610276010683
$GPGGA,120053.00,3327.1092,N,11904.1756,W,1,12,0.8,11.5,M,-34.5,M,,*6D
$PYRTM,2024,127.500636009630,18.610283419769
$GPGGA,120054.00,3327.1086,N,11904.1749,W,1,12,0.8,11.7,M,-34.5,M,,*63
$PYRTM,2024,127.500651749248,18.610299159387
$GPGGA,120055.00,3327.1079,N,11904.1743,W,1,12,0.8,11.9,M,-34.5,M,,*66
$PYRTM,2024,127.500659156169,18.610306566308
$GPGGA,120056.00,3327.1074,N,11904.1735,W,1,12,0.8,12.0,M,-34.5,M,,*63
$PYRTM,2024,127.500674899144,18.610322309282
$GPGGA,120057.00,3327.1069,N,11904.1727,W,1,12,0.8,12.1,M,-34.5,M,,*6C
$PYRTM,2024,127.500686484167,18.610333894306
$GPGGA,120058.00,3327.1063,N,11904.1719,W,1,12,0.8,12.0,M,-34.5,M,,*65
$PYRTM,2024,127.500693877928,18.610341288067
$GPGGA,120059.00,3327.1057,N,11904.1714,W,1,12,0.8,12.0,M,-34.5,M,,*6E
$PYRTM,2024,127.500709626933,18.610357037072
$GPGGA,120100.00,3327.1052,N,11904.1708,W,1,12,0.8,11.8,M,-34.5,M,,*60
$PYRTM,2024,127.500721192905,18.610368603044
$GPGGA,120101.00,3327.1047,N,11904.1700,W,1,12,0.8,11.4,M,-34.5,M,,*61
$PYRTM,2024,127.500732783750,18.610380193889
$GPGGA,120102.00,3327.1042,N,11904.1692,W,1,12,0.8,11.0,M,-34.5,M,,*69
$PYRTM,2024,127.500744342407,18.610391752546
$GPGGA,120103.00,3327.1037,N,11904.1685,W,1,12,0.8,11.1,M,-34.5,M,,*6D
$PYRTM,2024,127.500755932500,18.610403342639
$GPGGA,120104.00,3327.1030,N,11904.1680,W,1,12,0.8,11.6,M,-34.5,M,,*6F
$PYRTM,2024,127.500767618877,18.610415029016
$GPGGA,120105.00,3327.1022,N,11904.1675,W,1,12,0.8,12.0,M,-34.5,M,,*62
$PYRTM,2024,127.500774898426,18.610422308565
$GPGGA,120106.00,3327.1016,N,11904.1667,W,1,12,0.8,12.5,M,-34.5,M,,*60
$PYRTM,2024,127.500790639826,18.610438049965
$GPGGA,120107.00,3327.1013,N,11904.1659,W,1,12,0.8,12.8,M,-34.5,M,,*64
$PYRTM,2024,127.500802226366,18.610449636505
$GPGGA,120108.00,3327.1009,N,11904.1650,W,1,12,0.8,12.5,M,-34.5,M,,*64
$PYRTM,2024,127.500809633553,18.610457043692
$GPGGA,120109.00,3327.1003,N,11904.1643,W,1,12,0.8,12.0,M,-34.5,M,,*68
$PYRTM,2024,127.500825375567,18.610472785718
$GPGGA,120110.00,3327.0996,N,11904.1637,W,1,12,0.8,11.7,M,-34.5,M,,*63
$PYRTM,2024,127.500836936019,18.610484346157
$GPGGA,120111.00,3327.0989,N,11904.1631,W,1,12,0.8,11.6,M,-34.5,M,,*6B
$PYRTM,2024,127.500844343912,18.610491754051
$GPGGA,120112.00,3327.0984,N,11904.1624,W,1,12,0.8,11.5,M,-34.5,M,,*62
$PYRTM,2024,127.500862997766,18.610510407905
$GPGGA,120113.00,3327.0981,N,11904.1615,W,1,12,0.8,12.1,M,-34.5,M,,*63
$PYRTM,2024,127.500874564236,18.610521974375
$GPGGA,120114.00,3327.0977,N,11904.1605,W,1,12,0.8,12.4,M,-34.5,M,,*69
$PYRTM,2024,127.500886138380,18.610533548519
$GPGGA,120115.00,3327.0972,N,11904.1598,W,1,12,0.8,12.4,M,-34.5,M,,*6A
$PYRTM,2024,127.500894824363,18.610542234502
$GPGGA,120116.00,3327.0964,N,11904.1592,W,1,12,0.8,12.4,M,-34.5,M,,*64
$PYRTM,2024,127.500906380810,18.610553790961
$GPGGA,120117.00,3327.0958,N,11904.1587,W,1,12,0.8,12.3,M,-34.5,M,,*69
$PYRTM,2024,127.500917971204,18.610565381343
$GPGGA,120118.00,3327.0954,N,11904.1579,W,1,12,0.8,12.1,M,-34.5,M,,*69
$PYRTM,2024,127.500925365706,18.610572775845
$GPGGA,120119.00,3327.0951,N,11904.1570,W,1,12,0.8,11.7,M,-34.5,M,,*61
$PYRTM,2024,127.500941118831,18.610588528970
$GPGGA,120120.00,3327.0947,N,11904.1560,W,1,12,0.8,11.3,M,-34.5,M,,*69
$PYRTM,2024,127.500952678507,18.610600088646
$GPGGA,120121.00,3327.0941,N,11904.1554,W,1,12,0.8,11.3,M,-34.5,M,,*69
$PYRTM,2024,127.500964259595,18.610611669734
$GPGGA,120122.00,3327.0933,N,11904.1548,W,1,12,0.8,11.8,M,-34.5,M,,*69
$PYRTM,2024,127.500975826586,18.610623236725
$GPGGA,120123.00,3327.0927,N,11904.1542,W,1,12,0.8,12.6,M,-34.5,M,,*6A
$PYRTM,2024,127.500983233438,18.610630643576
$GPGGA,120124.00,3327.0921,N,11904.1534,W,1,12,0.8,12.9,M,-34.5,M,,*65
$PYRTM,2024,127.500998975995,18.610646386134
$GPGGA,120125.00,3327.0917,N,11904.1527,W,1,12,0.8,12.6,M,-34.5,M,,*6C
$PYRTM,2024,127.501010562975,18.610657973113
$GPGGA,120126.00,3327.0912,N,11904.1520,W,1,12,0.8,11.9,M,-34.5,M,,*61
$PYRTM,2024,127.501022124815,18.610669534954
$GPGGA,120127.00,3327.0907,N,11904.1513,W,1,12,0.8,11.4,M,-34.5,M,,*69
$PYRTM,2024,127.501033708727,18.610681118866
$GPGGA,120128.00,3327.0903,N,11904.1505,W,1,12,0.8,11.3,M,-34.5,M,,*62
$PYRTM,2024,127.501041106493,18.610688516632
$GPGGA,120129.00,3327.0899,N,11904.1496,W,1,12,0.8,11.3,M,-34.5,M,,*6A
$PYRTM,2024,127.501056857292,18.610704267442
$GPGGA,120130.00,3327.0893,N,11904.1489,W,1,12,0.8,11.8,M,-34.5,M,,*6D
$PYRTM,2024,127.501068419259,18.610715829398
$GPGGA,120131.00,3327.0886,N,11904.1484,W,1,12,0.8,12.5,M,-34.5,M,,*6B
$PYRTM,2024,127.501080008831,18.610727418970
$GPGGA,120132.00,3327.0879,N,11904.1478,W,1,12,0.8,12.7,M,-34.5,M,,*69
$PYRTM,2024,127.501091566713,18.610738976852
$GPGGA,120133.00,3327.0875,N,11904.1469,W,1,12,0.8,12.8,M,-34.5,M,,*6B
$PYRTM,2024,127.501103157755,18.610750567905
$GPGGA,120134.00,3327.0872,N,11904.1458,W,1,12,0.8,12.3,M,-34.5,M,,*62
$PYRTM,2024,127.501114717917,18.610762128067
$GPGGA,120135.00,3327.0870,N,11904.1447,W,1,12,0.8,11.5,M,-34.5,M,,*6A
$PYRTM,2024,127.501126306319,18.610773716458
$GPGGA,120136.00,3327.0864,N,11904.1439,W,1,12,0.8,11.4,M,-34.5,M,,*64
$PYRTM,2024,127.501137864167,18.610785274306
$GPGGA,120137.00,3327.0857,N,11904.1434,W,1,12,0.8,11.8,M,-34.5,M,,*64
$PYRTM,2024,127.501149451493,18.610796861644
$GPGGA,120138.00,3327.0851,N,11904.1429,W,1,12,0.8,12.3,M,-34.5,M,,*69
$PYRTM,2024,127.501156858970,18.610804269109
$GPGGA,120139.00,3327.0848,N,11904.1420,W,1,12,0.8,12.5,M,-34.5,M,,*6F
$PYRTM,2024,127.501172600799,18.610820010937
$GPGGA,120140.00,3327.0844,N,11904.1411,W,1,12,0.8,12.4,M,-34.5,M,,*6E
$PYRTM,2024,127.501184162025,18.610831572164
$GPGGA,120141.00,3327.0839,N,11904.1404,W,1,12,0.8,12.2,M,-34.5,M,,*67
$PYRTM,2024,127.501195747662,18.610843157801
$GPGGA,120142.00,3327.0833,N,11904.1396,W,1,12,0.8,11.9,M,-34.5,M,,*6A
$PYRTM,2024,127.501203143993,18.610850554132
$GPGGA,120143.00,3327.0828,N,11904.1388,W,1,12,0.8,11.7,M,-34.5,M,,*60
$PYRTM,2024,127.501221785347,18.610869195486
$GPGGA,120144.00,3327.0823,N,11904.1380,W,1,12,0.8,11.5,M,-34.5,M,,*66
$PYRTM,2024,127.501230458056,18.610877868194
$GPGGA,120145.00,3327.0819,N,11904.1372,W,1,12,0.8,11.6,M,-34.5,M,,*60
$PYRTM,2024,127.501242044919,18.610889455069
$GPGGA,120146.00,3327.0815,N,11904.1366,W,1,12,0.8,11.9,M,-34.5,M,,*65
$PYRTM,2024,127.501253607488,18.610901017627
$GPGGA,120147.00,3327.0809,N,11904.1359,W,1,12,0.8,11.9,M,-34.5,M,,*65
$PYRTM,2024,127.501265196169,18.610912606308
$GPGGA,120148.00,3327.0803,N,11904.1352,W,1,12,0.8,11.8,M,-34.5,M,,*6A
$PYRTM,2024,127.501272588218,18.610919998356
$GPGGA,120149.00,3327.0797,N,11904.1344,W,1,12,0.8,11.7,M,-34.5,M,,*61
$PYRTM,2024,127.501288344340,18.610935754491
$GPGGA,120150.00,3327.0793,N,11904.1338,W,1,12,0.8,11.8,M,-34.5,M,,*69
$PYRTM,2024,127.501295735833,18.610943145972
$GPGGA,120151.00,3327.0789,N,11904.1331,W,1,12,0.8,12.1,M,-34.5,M,,*60
$PYRTM,2024,127.501311503044,18.610958913183
$GPGGA,120152.00,3327.0786,N,11904.1323,W,1,12,0.8,12.2,M,-34.5,M,,*6C
$PYRTM,2024,127.501323050567,18.610970460706
$GPGGA,120153.00,3327.0781,N,11904.1313,W,1,12,0.8,12.0,M,-34.5,M,,*6B
$PYRTM,2024,127.501334638275,18.610982048414
$GPGGA,120154.00,3327.0775,N,11904.1305,W,1,12,0.8,11.9,M,-34.5,M,,*6A
$PYRTM,2024,127.501346198079,18.610993608218
$GPGGA,120155.00,3327.0770,N,11904.1297,W,1,12,0.8,12.0,M,-34.5,M,,*6E
$PYRTM,2024,127.501357788310,18.611005198449
$GPGGA,120156.00,3327.0765,N,11904.1290,W,1,12,0.8,12.3,M,-34.5,M,,*6D
$PYRTM,2024,127.501369347141,18.611016757280
$GPGGA,120157.00,3327.0760,N,11904.1283,W,1,12,0.8,12.3,M,-34.5,M,,*6B
$PYRTM,2024,127.501380935972,18.611028346111
$GPGGA,120158.00,3327.0756,N,11904.1276,W,1,12,0.8,12.1,M,-34.5,M,,*69
$PYRTM,2024,127.501388329699,18.611035739838
$GPGGA,120159.00,3327.0751,N,11904.1268,W,1,12,0.8,11.6,M,-34.5,M,,*64
$PYRTM,2024,127.501404083368,18.611051493507
$GPGGA,120200.00,3327.0745,N,11904.1261,W,1,12,0.8,11.1,M,-34.5,M,,*60
$PYRTM,2024,127.501411479317,18.611058889456
$GPGGA,120201.00,3327.0740,N,11904.1252,W,1,12,0.8,11.0,M,-34.5,M,,*65
$PYRTM,2024,127.501427232975,18.611074643113
$GPGGA,120202.00,3327.0737,N,11904.1244,W,1,12,0.8,11.4,M,-34.5,M,,*65
$PYRTM,2024,127.501438793391,18.611086203530
$GPGGA,120203.00,3327.0732,N,11904.1237,W,1,12,0.8,12.0,M,-34.5,M,,*62
$PYRTM,2024,127.501446200475,18.611093610613
$GPGGA,120204.00,3327.0725,N,11904.1231,W,1,12,0.8,12.2,M,-34.5,M,,*67
$PYRTM,2024,127.501461942512,18.611109352662
$GPGGA,120205.00,3327.0719,N,11904.1223,W,1,12,0.8,12.2,M,-34.5,M,,*6A
$PYRTM,2024,127.501473531481,18.611120941620
$GPGGA,120206.00,3327.0714,N,11904.1215,W,1,12,0.8,12.1,M,-34.5,M,,*62
$PYRTM,2024,127.501485089826,18.611132499965
$GPGGA,120207.00,3327.0711,N,11904.1206,W,1,12,0.8,11.9,M,-34.5,M,,*6F
$PYRTM,2024,127.501496677488,18.611144087627
$GPGGA,120208.00,3327.0707,N,11904.1198,W,1,12,0.8,11.6,M,-34.5,M,,*6C
$PYRTM,2024,127.501504083183,18.611151493322
$GPGGA,120209.00,3327.0703,N,11904.1190,W,1,12,0.8,11.5,M,-34.5,M,,*62
$PYRTM,2024,127.501519825451,18.611167235590
$GPGGA,120210.00,3327.0698,N,11904.1182,W,1,12,0.8,11.9,M,-34.5,M,,*66
$PYRTM,2024,127.501531385671,18.611178795810
$GPGGA,120211.00,3327.0693,N,11904.1175,W,1,12,0.8,12.2,M,-34.5,M,,*6C
$PYRTM,2024,127.501542973935,18.611190384074
$GPGGA,120212.00,3327.0687,N,11904.1167,W,1,12,0.8,12.6,M,-34.5,M,,*6D
$PYRTM,2024,127.501554536528,18.611201946667
$GPGGA,120213.00,3327.0682,N,11904.1159,W,1,12,0.8,12.7,M,-34.5,M,,*65
$PYRTM,2024,127.501561943218,18.611209353356
$GPGGA,120214.00,3327.0678,N,11904.1151,W,1,12,0.8,12.6,M,-34.5,M,,*6E
$PYRTM,2024,127.501580596759,18.611228006910
$GPGGA,120215.00,3327.0674,N,11904.1141,W,1,12,0.8,12.1,M,-34.5,M,,*65
$PYRTM,2024,127.501589269919,18.611236680058
$GPGGA,120216.00,3327.0670,N,11904.1133,W,1,12,0.8,11.6,M,-34.5,M,,*63
$PYRTM,2024,127.501600832118,18.611248242257
$GPGGA,120217.00,3327.0663,N,11904.1127,W,1,12,0.8,11.2,M,-34.5,M,,*61
$PYRTM,2024,127.501612419410,18.611259829549
$GPGGA,120218.00,3327.0657,N,11904.1122,W,1,12,0.8,11.0,M,-34.5,M,,*6E
$PYRTM,2024,127.501619814896,18.611267225035
$GPGGA,120219.00,3327.0652,N,11904.1115,W,1,12,0.8,11.1,M,-34.5,M,,*6F
$PYRTM,2024,127.501635570984,18.611282981134
$GPGGA,120220.00,3327.0649,N,11904.1105,W,1,12,0.8,11.5,M,-34.5,M,,*6A
$PYRTM,2024,127.501647129097,18.611294539236
$GPGGA,120221.00,3327.0646,N,11904.1095,W,1,12,0.8,12.0,M,-34.5,M,,*6A
$PYRTM,2024,127.501658718646,18.611306128785
$GPGGA,120222.00,3327.0639,N,11904.1089,W,1,12,0.8,12.3,M,-34.5,M,,*6F
$PYRTM,2024,127.501670278935,18.611317689074
$GPGGA,120223.00,3327.0631,N,11904.1083,W,1,12,0.8,12.2,M,-34.5,M,,*6D
$PYRTM,2024,127.501681864479,18.611329274618
$GPGGA,120224.00,3327.0625,N,11904.1076,W,1,12,0.8,12.0,M,-34.5,M,,*67
$PYRTM,2024,127.501693425324,18.611340835463
$GPGGA,120225.00,3327.0624,N,11904.1065,W,1,12,0.8,11.8,M,-34.5,M,,*6E
$PYRTM,2024,127.501705011343,18.611352421493
$GPGGA,120226.00,3327.0623,N,11904.1055,W,1,12,0.8,11.5,M,-34.5,M,,*64
$PYRTM,2024,127.501716573322,18.611363983461
$GPGGA,120227.00,3327.0617,N,11904.1046,W,1,12,0.8,11.3,M,-34.5,M,,*66
$PYRTM,2024,127.501728160683,18.611375570833
$GPGGA,120228.00,3327.0609,N,11904.1041,W,1,12,0.8,11.6,M,-34.5,M,,*64
$PYRTM,2024,127.501735567118,18.611382977257
$GPGGA,120229.00,3327.0602,N,11904.1036,W,1,12,0.8,12.1,M,-34.5,M,,*6A
$PYRTM,2024,127.501751309306,18.611398719444
$GPGGA,120230.00,3327.0599,N,11904.1028,W,1,12,0.8,12.5,M,-34.5,M,,*68
$PYRTM,2024,127.501762872373,18.611410282512
$GPGGA,120231.00,3327.0598,N,11904.1017,W,1,12,0.8,12.4,M,-34.5,M,,*65
$PYRTM,2024,127.501774457060,18.611421867199
$GPGGA,120232.00,3327.0595,N,11904.1007,W,1,12,0.8,12.0,M,-34.5,M,,*6E
$PYRTM,2024,127.501781850995,18.611429261134
$GPGGA,120233.00,3327.0588,N,11904.1000,W,1,12,0.8,11.4,M,-34.5,M,,*63
$PYRTM,2024,127.501800499896,18.611447910035
$GPGGA,120234.00,3327.0580,N,11904.0995,W,1,12,0.8,11.0,M,-34.5,M,,*6C
$PYRTM,2024,127.501812072141,18.611459482292
$GPGGA,120235.00,3327.0574,N,11904.0989,W,1,12,0.8,10.9,M,-34.5,M,,*63
$PYRTM,2024,127.501820756863,18.611468167014
$GPGGA,120236.00,3327.0570,N,11904.0981,W,1,12,0.8,11.1,M,-34.5,M,,*65
$PYRTM,2024,127.501832314815,18.611479724954
$GPGGA,120237.00,3327.0566,N,11904.0973,W,1,12,0.8,11.7,M,-34.5,M,,*68
$PYRTM,2024,127.501843904074,18.611491314213
$GPGGA,120238.00,3327.0561,N,11904.0965,W,1,12,0.8,11.9,M,-34.5,M,,*69
$PYRTM,2024,127.501855463519,18.611502873657
$GPGGA,120239.00,3327.0554,N,11904.0956,W,1,12,0.8,12.0,M,-34.5,M,,*64
$PYRTM,2024,127.501867050023,18.611514460162
$GPGGA,120240.00,3327.0548,N,11904.0947,W,1,12,0.8,12.0,M,-34.5,M,,*67
$PYRTM,2024,127.501878613692,18.611526023831
$GPGGA,120241.00,3327.0544,N,11904.0938,W,1,12,0.8,12.0,M,-34.5,M,,*62
$PYRTM,2024,127.501890198576,18.611537608715
$GPGGA,120242.00,3327.0540,N,11904.0930,W,1,12,0.8,12.4,M,-34.5,M,,*69
$PYRTM,2024,127.501901761644,18.611549171782
$GPGGA,120243.00,3327.0535,N,11904.0924,W,1,12,0.8,12.6,M,-34.5,M,,*6D
$PYRTM,2024,127.501909168090,18.611556578229
$GPGGA,120244.00,3327.0530,N,11904.0918,W,1,12,0.8,12.3,M,-34.5,M,,*65
$PYRTM,2024,127.501920857905,18.611568268044
$GPGGA,120245.00,3327.0526,N,11904.0911,W,1,12,0.8,12.1,M,-34.5,M,,*68
$PYRTM,2024,127.501939388218,18.611586798356
$GPGGA,120246.00,3327.0523,N,11904.0902,W,1,12,0.8,11.9,M,-34.5,M,,*67
$PYRTM,2024,127.501948057014,18.611595467153
$GPGGA,120247.00,3327.0519,N,11904.0894,W,1,12,0.8,11.9,M,-34.5,M,,*61
$PYRTM,2024,127.501959643264,18.611607053414
$GPGGA,120248.00,3327.0515,N,11904.0886,W,1,12,0.8,11.9,M,-34.5,M,,*61
$PYRTM,2024,127.501971206227,18.611618616366
$GPGGA,120249.00,3327.0511,N,11904.0880,W,1,12,0.8,12.1,M,-34.5,M,,*69
$PYRTM,2024,127.501982791690,18.611630201829
$GPGGA,120250.00,3327.0505,N,11904.0873,W,1,12,0.8,12.4,M,-34.5,M,,*6D
$PYRTM,2024,127.501990186123,18.611637596273
$GPGGA,120251.00,3327.0500,N,11904.0865,W,1,12,0.8,12.4,M,-34.5,M,,*6E
$PYRTM,2024,127.502005954144,18.611653364282
$GPGGA,120252.00,3327.0496,N,11904.0854,W,1,12,0.8,12.3,M,-34.5,M,,*66
$PYRTM,2024,127.502017502500,18.611664912639
$GPGGA,120253.00,3327.0493,N,11904.0845,W,1,12,0.8,12.4,M,-34.5,M,,*65
$PYRTM,2024,127.502024907593,18.611672317731
$GPGGA,120254.00,3327.0488,N,11904.0838,W,1,12,0.8,12.4,M,-34.5,M,,*62
$PYRTM,2024,127.502040648900,18.611688059051
$GPGGA,120255.00,3327.0481,N,11904.0832,W,1,12,0.8,12.3,M,-34.5,M,,*67
$PYRTM,2024,127.502048056667,18.611695466806
$GPGGA,120256.00,3327.0475,N,11904.0825,W,1,12,0.8,12.3,M,-34.5,M,,*69
$PYRTM,2024,127.502063797234,18.611711207373
$GPGGA,120257.00,3327.0472,N,11904.0817,W,1,12,0.8,12.5,M,-34.5,M,,*68
$PYRTM,2024,127.502075384502,18.611722794641
$GPGGA,120258.00,3327.0469,N,11904.0810,W,1,12,0.8,12.7,M,-34.5,M,,*68
$PYRTM,2024,127.502082792882,18.611730203021
$GPGGA,120259.00,3327.0463,N,11904.0803,W,1,12,0.8,12.6,M,-34.5,M,,*60
$PYRTM,2024,127.502098532419,18.611745942558
$GPGGA,120300.00,3327.0456,N,11904.0796,W,1,12,0.8,12.3,M,-34.5,M,,*6D
$PYRTM,2024,127.502110095799,18.611757505938
$GPGGA,120301.00,3327.0451,N,11904.0789,W,1,12,0.8,12.3,M,-34.5,M,,*65
$PYRTM,2024,127.502121682685,18.611769092824
$GPGGA,120302.00,3327.0449,N,11904.0781,W,1,12,0.8,12.3,M,-34.5,M,,*67
$PYRTM,2024,127.502133243403,18.611780653542
$GPGGA,120303.00,3327.0446,N,11904.0773,W,1,12,0.8,13.0,M,-34.5,M,,*66
$PYRTM,2024,127.502140649062,18.611788059201
$GPGGA,120304.00,3327.0441,N,11904.0766,W,1,12,0.8,13.2,M,-34.5,M,,*60
$PYRTM,2024,127.502156392419,18.611803802558
$GPGGA,120305.00,3327.0435,N,11904.0759,W,1,12,0.8,13.1,M,-34.5,M,,*6D
$PYRTM,2024,127.502163799641,18.611811209780
$GPGGA,120306.00,3327.0431,N,11904.0751,W,1,12,0.8,12.6,M,-34.5,M,,*64
$PYRTM,2024,127.502179540370,18.611826950509
$GPGGA,120307.00,3327.0428,N,11904.0741,W,1,12,0.8,12.3,M,-34.5,M,,*69
$PYRTM,2024,127.502191130775,18.611838540914
$GPGGA,120308.00,3327.0423,N,11904.0733,W,1,12,0.8,12.4,M,-34.5,M,,*6F
$PYRTM,2024,127.502198522164,18.611845932315
$GPGGA,120309.00,3327.0415,N,11904.0728,W,1,12,0.8,12.8,M,-34.5,M,,*6D
$PYRTM,2024,127.502214278310,18.611861688449
$GPGGA,120310.00,3327.0408,N,11904.0724,W,1,12,0.8,13.0,M,-34.5,M,,*6C
$PYRTM,2024,127.502225837199,18.611873247338
$GPGGA,120311.00,3327.0404,N,11904.0715,W,1,12,0.8,12.8,M,-34.5,M,,*6A
$PYRTM,2024,127.502237424803,18.611884834942
$GPGGA,120312.00,3327.0401,N,11904.0703,W,1,12,0.8,12.3,M,-34.5,M,,*60
$PYRTM,2024,127.502248986493,18.611896396632
$GPGGA,120313.00,3327.0396,N,11904.0693,W,1,12,0.8,12.1,M,-34.5,M,,*62
$PYRTM,2024,127.502260572431,18.611907982569
$GPGGA,120314.00,3327.0389,N,11904.0688,W,1,12,0.8,12.3,M,-34.5,M,,*63
$PYRTM,2024,127.502272134456,18.611919544595
$GPGGA,120315.00,3327.0381,N,11904.0684,W,1,12,0.8,12.6,M,-34.5,M,,*63
$PYRTM,2024,127.502279541586,18.611926951725
$GPGGA,120316.00,3327.0376,N,11904.0677,W,1,12,0.8,12.5,M,-34.5,M,,*67
$PYRTM,2024,127.502298195567,18.611945605706
$GPGGA,120317.00,3327.0373,N,11904.0667,W,1,12,0.8,13.0,M,-34.5,M,,*66
$PYRTM,2024,127.502306863414,18.611954273565
$GPGGA,120318.00,3327.0371,N,11904.0657,W,1,12,0.8,12.6,M,-34.5,M,,*6F
$PYRTM,2024,127.502314149086,18.611961559225
$GPGGA,120319.00,3327.0366,N,11904.0649,W,1,12,0.8,12.4,M,-34.5,M,,*65
$PYRTM,2024,127.502330017917,18.611977428056
$GPGGA,120320.00,3327.0359,N,11904.0643,W,1,12,0.8,12.5,M,-34.5,M,,*68
$PYRTM,2024,127.502341579433,18.611988989583
$GPGGA,120321.00,3327.0353,N,11904.0636,W,1,12,0.8,12.7,M,-34.5,M,,*63
$PYRTM,2024,127.502353166053,18.612000576204
$GPGGA,120322.00,3327.0350,N,11904.0626,W,1,12,0.8,13.0,M,-34.5,M,,*64
$PYRTM,2024,127.502364728113,18.612012138252
$GPGGA,120323.00,3327.0348,N,11904.0616,W,1,12,0.8,13.2,M,-34.5,M,,*6D
$PYRTM,2024,127.502376316968,18.612023727106
$GPGGA,120324.00,3327.0344,N,11904.0608,W,1,12,0.8,12.8,M,-34.5,M,,*62
$PYRTM,2024,127.502387875012,18.612035285150
$GPGGA,120325.00,3327.0338,N,11904.0599,W,1,12,0.8,12.1,M,-34.5,M,,*6A
$PYRTM,2024,127.502395167604,18.612042577755
$GPGGA,120326.00,3327.0331,N,11904.0591,W,1,12,0.8,11.5,M,-34.5,M,,*6F
$PYRTM,2024,127.502411024826,18.612058434965
$GPGGA,120327.00,3327.0327,N,11904.0582,W,1,12,0.8,11.2,M,-34.5,M,,*6C
$PYRTM,2024,127.502418315347,18.612065725498
$GPGGA,120328.00,3327.0323,N,11904.0574,W,1,12,0.8,11.4,M,-34.5,M,,*68
$PYRTM,2024,127.502434172743,18.612081582882
$GPGGA,120329.00,3327.0319,N,11904.0569,W,1,12,0.8,12.0,M,-34.5,M,,*6B
$PYRTM,2024,127.502445758646,18.612093168796
$GPGGA,120330.00,3327.0312,N,11904.0563,W,1,12,0.8,12.3,M,-34.5,M,,*61
$PYRTM,2024,127.502457322882,18.612104733021
$GPGGA,120331.00,3327.0305,N,11904.0556,W,1,12,0.8,12.2,M,-34.5,M,,*61
$PYRTM,2024,127.502468910243,18.612116320382
$GPGGA,120332.00,3327.0301,N,11904.0546,W,1,12,0.8,12.2,M,-34.5,M,,*67
$PYRTM,2024,127.502480469120,18.612127879259
$GPGGA,120333.00,3327.0298,N,11904.0536,W,1,12,0.8,12.0,M,-34.5,M,,*62
$PYRTM,2024,127.502492057326,18.612139467477
$GPGGA,120334.00,3327.0294,N,11904.0528,W,1,12,0.8,12.1,M,-34.5,M,,*67
$PYRTM,2024,127.502503617072,18.612151027211
$GPGGA,120335.00,3327.0288,N,11904.0520,W,1,12,0.8,12.1,M,-34.5,M,,*63
$PYRTM,2024,127.502510908750,18.612158318889
$GPGGA,120336.00,3327.0282,N,11904.0513,W,1,12,0.8,12.2,M,-34.5,M,,*69
$PYRTM,2024,127.502526766701,18.612174176840
$GPGGA,120337.00,3327.0277,N,11904.0506,W,1,12,0.8,12.2,M,-34.5,M,,*66
$PYRTM,2024,127.502534057755,18.612181467894
$GPGGA,120338.00,3327.0275,N,11904.0497,W,1,12,0.8,12.2,M,-34.5,M,,*62
$PYRTM,2024,127.502549914769,18.612197324919
$GPGGA,120339.00,3327.0273,N,11904.0486,W,1,12,0.8,12.1,M,-34.5,M,,*66
$PYRTM,2024,127.502561503646,18.612208913796
$GPGGA,120340.00,3327.0267,N,11904.0477,W,1,12,0.8,11.9,M,-34.5,M,,*68
$PYRTM,2024,127.502568896111,18.612216306250
$GPGGA,120341.00,3327.0261,N,11904.0470,W,1,12,0.8,11.9,M,-34.5,M,,*68
$PYRTM,2024,127.502584652315,18.612232062454
$GPGGA,120342.00,3327.0254,N,11904.0464,W,1,12,0.8,12.3,M,-34.5,M,,*61
$PYRTM,2024,127.502596211076,18.612243621215
$GPGGA,120343.00,3327.0249,N,11904.0458,W,1,12,0.8,12.7,M,-34.5,M,,*67
$PYRTM,2024,127.502607796759,18.612255206898
$GPGGA,120344.00,3327.0244,N,11904.0450,W,1,12,0.8,12.8,M,-34.5,M,,*6A
$PYRTM,2024,127.502619359225,18.612266769363
$GPGGA,120345.00,3327.0241,N,11904.0441,W,1,11,0.8,12.9,M,-34.5,M,,*6C
$PYRTM,2024,127.502630944965,18.612278355104
$GPGGA,120346.00,3327.0240,N,11904.0432,W,1,11,0.8,12.8,M,-34.5,M,,*6B
$PYRTM,2024,127.502638241250,18.612285651389
$GPGGA,120347.00,3327.0236,N,11904.0423,W,1,11,0.8,12.3,M,-34.5,M,,*60
$PYRTM,2024,127.502656987674,18.612304397813
$GPGGA,120348.00,3327.0230,N,11904.0416,W,1,11,0.8,12.1,M,-34.5,M,,*6D
$PYRTM,2024,127.502665657407,18.612313067546
$GPGGA,120349.00,3327.0223,N,11904.0410,W,1,11,0.8,12.4,M,-34.5,M,,*6D
$PYRTM,2024,127.502677242812,18.612324652951
$GPGGA,120350.00,3327.0216,N,11904.0405,W,1,11,0.8,12.6,M,-34.5,M,,*65
$PYRTM,2024,127.502684522940,18.612331933079
$GPGGA,120351.00,3327.0212,N,11904.0398,W,1,11,0.8,12.9,M,-34.5,M,,*6C
$PYRTM,2024,127.502700391690,18.612347801840
$GPGGA,120352.00,3327.0210,N,11904.0387,W,1,11,0.8,12.8,M,-34.5,M,,*62
$PYRTM,2024,127.502711952373,18.612359362512
$GPGGA,120353.00,3327.0206,N,11904.0376,W,1,11,0.8,12.7,M,-34.5,M,,*65
$PYRTM,2024,127.502723543414,18.612370953553
$GPGGA,120354.00,3327.0200,N,11904.0367,W,1,11,0.8,12.4,M,-34.5,M,,*67
$PYRTM,2024,127.502735102650,18.612382512789
$GPGGA,120355.00,3327.0192,N,11904.0363,W,1,11,0.8,12.3,M,-34.5,M,,*6D
$PYRTM,2024,127.502742392211,18.612389802350
$GPGGA,120356.00,3327.0187,N,11904.0358,W,1,11,0.8,12.2,M,-34.5,M,,*63
$PYRTM,2024,127.502758249549,18.612405659699
$GPGGA,120357.00,3327.0185,N,11904.0349,W,1,11,0.8,12.2,M,-34.5,M,,*60
$PYRTM,2024,127.502765541134,18.612412951273
$GPGGA,120358.00,3327.0181,N,11904.0339,W,1,11,0.8,12.3,M,-34.5,M,,*6D
$PYRTM,2024,127.502777346968,18.612424757106
$GPGGA,120359.00,3327.0175,N,11904.0330,W,1,11,0.8,12.3,M,-34.5,M,,*6E
$PYRTM,2024,127.502792985625,18.612440395764
$GPGGA,120400.00,3327.0168,N,11904.0323,W,1,11,0.8,12.4,M,-34.5,M,,*6C
$PYRTM,2024,127.502804545764,18.612451955903
$GPGGA,120401.00,3327.0163,N,11904.0316,W,1,11,0.8,12.7,M,-34.5,M,,*63
$PYRTM,2024,127.502816132743,18.612463542882
$GPGGA,120402.00,3327.0159,N,11904.0309,W,1,11,0.8,12.6,M,-34.5,M,,*66
$PYRTM,2024,127.502827693715,18.612475103854
$GPGGA,120403.00,3327.0155,N,11904.0299,W,1,11,0.8,12.1,M,-34.5,M,,*64
$PYRTM,2024,127.502839281273,18.612486691412
$GPGGA,120404.00,3327.0150,N,11904.0290,W,1,11,0.8,11.5,M,-34.5,M,,*68
$PYRTM,2024,127.502850843160,18.612498253299
$GPGGA,120405.00,3327.0146,N,11904.0281,W,1,11,0.8,11.1,M,-34.5,M,,*6A
$PYRTM,2024,127.502862429618,18.612509839757
$GPGGA,120406.00,3327.0140,N,11904.0273,W,1,11,0.8,11.1,M,-34.5,M,,*62
$PYRTM,2024,127.502873992836,18.612521402975
$GPGGA,120407.00,3327.0134,N,11904.0264,W,1,11,0.8,11.7,M,-34.5,M,,*60
$PYRTM,2024,127.502885579306,18.612532989444
$GPGGA,120408.00,3327.0126,N,11904.0258,W,1,11,0.8,12.3,M,-34.5,M,,*64
$PYRTM,2024,127.502897140926,18.612544551065
$GPGGA,120409.00,3327.0119,N,11904.0251,W,1,11,0.8,12.8,M,-34.5,M,,*6B
$PYRTM,2024,127.502904546273,18.612551956412
$GPGGA,120410.00,3327.0115,N,11904.0243,W,1,11,0.8,12.7,M,-34.5,M,,*63
$PYRTM,2024,127.502923181759,18.612570591898
$GPGGA,120411.00,3327.0113,N,11904.0233,W,1,11,0.8,12.5,M,-34.5,M,,*61
$PYRTM,2024,127.502934772303,18.612582182442
$GPGGA,120412.00,3327.0110,N,11904.0222,W,1,11,0.8,11.8,M,-34.5,M,,*6F
$PYRTM,2024,127.502943436366,18.612590846505
$GPGGA,120413.00,3327.0105,N,11904.0213,W,1,11,0.8,11.3,M,-34.5,M,,*63
$PYRTM,2024,127.502955026262,18.612602436400
$GPGGA,120414.00,3327.0098,N,11904.0208,W,1,11,0.8,11.4,M,-34.5,M,,*6C
$PYRTM,2024,127.502966584109,18.612613994248
$GPGGA,120415.00,3327.0091,N,11904.0203,W,1,11,0.8,12.1,M,-34.5,M,,*69
$PYRTM,2024,127.502978171481,18.612625581620
$GPGGA,120416.00,3327.0086,N,11904.0196,W,1,11,0.8,12.9,M,-34.5,M,,*6B
$PYRTM,2024,127.502989731944,18.612637142083
$GPGGA,120417.00,3327.0082,N,11904.0186,W,1,11,0.8,13.3,M,-34.5,M,,*64
$PYRTM,2024,127.502997140012,18.612644550150
$GPGGA,120418.00,3327.0079,N,11904.0175,W,1,11,0.8,13.1,M,-34.5,M,,*61
$PYRTM,2024,127.503015774444,18.612663184595
$GPGGA,120419.00,3327.0074,N,11904.0165,W,1,11,0.8,12.8,M,-34.5,M,,*64
$PYRTM,2024,127.503024463102,18.612671873241
$GPGGA,120420.00,3327.0069,N,11904.0157,W,1,11,0.8,12.3,M,-34.5,M,,*68
$PYRTM,2024,127.503031756528,18.612679166678
$GPGGA,120421.00,3327.0064,N,11904.0149,W,1,11,0.8,12.0,M,-34.5,M,,*68
$PYRTM,2024,127.503047616794,18.612695026933
$GPGGA,120422.00,3327.0059,N,11904.0142,W,1,11,0.8,11.8,M,-34.5,M,,*65
$PYRTM,2024,127.503059176991,18.612706587130
$GPGGA,120423.00,3327.0054,N,11904.0135,W,1,11,0.8,11.5,M,-34.5,M,,*64
$PYRTM,2024,127.503070764687,18.612718174826
$GPGGA,120424.00,3327.0049,N,11904.0129,W,1,11,0.8,11.5,M,-34.5,M,,*62
$PYRTM,2024,127.503082326736,18.612729736875
$GPGGA,120425.00,3327.0042,N,11904.0124,W,1,11,0.8,12.0,M,-34.5,M,,*63
$PYRTM,2024,127.503093927164,18.612741337315
$GPGGA,120426.00,3327.0036,N,11904.0116,W,1,11,0.8,12.6,M,-34.5,M,,*64
$PYRTM,2024,127.503105474352,18.612752884491
$GPGGA,120427.00,3327.0031,N,11904.0106,W,1,11,0.8,12.9,M,-34.5,M,,*6C
$PYRTM,2024,127.503117064688,18.612764474826
$GPGGA,120428.00,3327.0027,N,11904.0096,W,1,11,0.8,13.1,M,-34.5,M,,*65
$PYRTM,2024,127.503128623102,18.612776033241
$GPGGA,120429.00,3327.0021,N,11904.0089,W,1,11,0.8,13.0,M,-34.5,M,,*6D
$PYRTM,2024,127.503140212535,18.612787622674
$GPGGA,120430.00,3327.0014,N,11904.0082,W,1,11,0.8,12.8,M,-34.5,M,,*61
$PYRTM,2024,127.503151770613,18.612799180752
$GPGGA,120431.00,3327.0007,N,11904.0076,W,1,11,0.8,12.2,M,-34.5,M,,*63
$PYRTM,2024,127.503163361250,18.612810771389
$GPGGA,120432.00,3327.0004,N,11904.0067,W,1,11,0.8,11.7,M,-34.5,M,,*65
$PYRTM,2024,127.503170651991,18.612818062130
$GPGGA,120433.00,3327.0003,N,11904.0056,W,1,11,0.8,11.5,M,-34.5,M,,*63
$PYRTM,2024,127.503186506655,18.612833916794
$GPGGA,120434.00,3326.9999,N,11904.0046,W,1,11,0.8,12.0,M,-34.5,M,,*61
$PYRTM,2024,127.503198070127,18.612845480266
$GPGGA,120435.00,3326.9991,N,11904.0041,W,1,11,0.8,12.9,M,-34.5,M,,*66
$PYRTM,2024,127.503209654583,18.612857064722
$GPGGA,120436.00,3326.9983,N,11904.0034,W,1,11,0.8,13.5,M,-34.5,M,,*69
$PYRTM,2024,127.503221216030,18.612868626169
$GPGGA,120437.00,3326.9977,N,11904.0025,W,1,11,0.8,13.7,M,-34.5,M,,*61
$PYRTM,2024,127.503232803356,18.612880213495
$GPGGA,120438.00,3326.9974,N,11904.0014,W,1,11,0.8,13.4,M,-34.5,M,,*6C
$PYRTM,2024,127.503244364352,18.612891774491
$GPGGA,120439.00,3326.9971,N,11904.0004,W,1,11,0.8,12.7,M,-34.5,M,,*6B
$PYRTM,2024,127.503255953160,18.612903363299
$GPGGA,120440.00,3326.9965,N,11903.9996,W,1,11,0.8,11.8,M,-34.5,M,,*60
$PYRTM,2024,127.503267512951,18.612914923102
$GPGGA,120441.00,3326.9958,N,11903.9990,W,1,11,0.8,11.2,M,-34.5,M,,*63
$PYRTM,2024,127.503279102917,18.612926513056
$GPGGA,120442.00,3326.9952,N,11903.9982,W,1,11,0.8,11.4,M,-34.5,M,,*6F
$PYRTM,2024,127.503286391632,18.612933801771
$GPGGA,120443.00,3326.9947,N,11903.9974,W,1,11,0.8,11.7,M,-34.5,M,,*60
$PYRTM,2024,127.503302251759,18.612949661910
$GPGGA,120444.00,3326.9942,N,11903.9967,W,1,11,0.8,12.6,M,-34.5,M,,*62
$PYRTM,2024,127.503313809421,18.612961219560
$GPGGA,120445.00,3326.9936,N,11903.9960,W,1,11,0.8,13.0,M,-34.5,M,,*60
$PYRTM,2024,127.503325396157,18.612972806296
$GPGGA,120446.00,3326.9930,N,11903.9952,W,1,11,0.8,13.6,M,-34.5,M,,*62
$PYRTM,2024,127.503336957905,18.612984368044
$GPGGA,120447.00,3326.9923,N,11903.9942,W,1,11,0.8,13.3,M,-34.5,M,,*65
$PYRTM,2024,127.503348545208,18.612995955359
$GPGGA,120448.00,3326.9919,N,11903.9931,W,1,11,0.8,12.7,M,-34.5,M,,*62
$PYRTM,2024,127.503355839583,18.613003249722
$GPGGA,120449.00,3326.9917,N,11903.9922,W,1,11,0.8,12.4,M,-34.5,M,,*6C
$PYRTM,2024,127.503374471146,18.613021881296
$GPGGA,120450.00,3326.9913,N,11903.9914,W,1,11,0.8,12.4,M,-34.5,M,,*65
$PYRTM,2024,127.503383257245,18.613030667396
$GPGGA,120451.00,3326.9906,N,11903.9908,W,1,11,0.8,12.4,M,-34.5,M,,*6D
$PYRTM,2024,127.503394842396,18.613042252535
$GPGGA,120452.00,3326.9899,N,11903.9902,W,1,11,0.8,12.5,M,-34.5,M,,*62
$PYRTM,2024,127.503402121968,18.613049532106
$GPGGA,120453.00,3326.9894,N,11903.9893,W,1,11,0.8,12.7,M,-34.5,M,,*65
$PYRTM,2024,127.503417989734,18.613065399873
$GPGGA,120454.00,3326.9892,N,11903.9883,W,1,11,0.8,12.8,M,-34.5,M,,*6A
$PYRTM,2024,127.503429551806,18.613076961944
$GPGGA,120455.00,3326.9887,N,11903.9875,W,1,11,0.8,12.8,M,-34.5,M,,*66
$PYRTM,2024,127.503441138333,18.613088548472
$GPGGA,120456.00,3326.9880,N,11903.9868,W,1,11,0.8,12.4,M,-34.5,M,,*62
$PYRTM,2024,127.503452700347,18.613100110486
$GPGGA,120457.00,3326.9873,N,11903.9861,W,1,11,0.8,11.8,M,-34.5,M,,*69
$PYRTM,2024,127.503459993322,18.613107403461
$GPGGA,120458.00,3326.9869,N,11903.9853,W,1,11,0.8,11.5,M,-34.5,M,,*61
$PYRTM,2024,127.503475845579,18.613123255718
$GPGGA,120459.00,3326.9866,N,11903.9844,W,1,11,0.8,11.5,M,-34.5,M,,*69
$PYRTM,2024,127.503487449097,18.613134859236
$GPGGA,120500.00,3326.9861,N,11903.9836,W,1,11,0.8,11.6,M,-34.5,M,,*65
$PYRTM,2024,127.503494714028,18.613142124167
$GPGGA,120501.00,3326.9855,N,11903.9829,W,1,11,0.8,12.0,M,-34.5,M,,*68
$PYRTM,2024,127.503510583368,18.613157993507
$GPGGA,120502.00,3326.9848,N,11903.9821,W,1,11,0.8,12.2,M,-34.5,M,,*6D
$PYRTM,2024,127.503522144549,18.613169554687
$GPGGA,120503.00,3326.9842,N,11903.9812,W,1,11,0.8,12.3,M,-34.5,M,,*67
$PYRTM,2024,127.503533731725,18.613181141863
$GPGGA,120504.00,3326.9837,N,11903.9802,W,1,11,0.8,12.1,M,-34.5,M,,*61
$PYRTM,2024,127.503545293819,18.613192703958
$GPGGA,120505.00,3326.9833,N,11903.9793,W,1,11,0.8,12.0,M,-34.5,M,,*62
$PYRTM,2024,127.503556882280,18.613204292431
$GPGGA,120506.00,3326.9829,N,11903.9787,W,1,11,0.8,11.9,M,-34.5,M,,*65
$PYRTM,2024,127.503568444988,18.613215855127
$GPGGA,120507.00,3326.9824,N,11903.9780,W,1,11,0.8,11.8,M,-34.5,M,,*6F
$PYRTM,2024,127.503580028877,18.613227439016
$GPGGA,120508.00,3326.9819,N,11903.9770,W,1,11,0.8,11.4,M,-34.5,M,,*6D
$PYRTM,2024,127.503591590093,18.613239000231
$GPGGA,120509.00,3326.9815,N,11903.9760,W,1,11,0.8,11.5,M,-34.5,M,,*60
$PYRTM,2024,127.503603178333,18.613250588461
$GPGGA,120510.00,3326.9810,N,11903.9752,W,1,11,0.8,12.0,M,-34.5,M,,*6A
$PYRTM,2024,127.503614738553,18.613262148692
$GPGGA,120511.00,3326.9803,N,11903.9745,W,1,11,0.8,12.7,M,-34.6,M,,*6B
$PYRTM,2024,127.503626320347,18.613273730486
$GPGGA,120512.00,3326.9798,N,11903.9738,W,1,11,0.8,13.0,M,-34.6,M,,*69
$PYRTM,2024,127.503633604410,18.613281014549
$GPGGA,120513.00,3326.9794,N,11903.9728,W,1,11,0.8,12.9,M,-34.6,M,,*6D
$PYRTM,2024,127.503649476644,18.613296886782
$GPGGA,120514.00,3326.9790,N,11903.9718,W,1,11,0.8,12.6,M,-34.6,M,,*62
$PYRTM,2024,127.503656753229,18.613304163380
$GPGGA,120515.00,3326.9785,N,11903.9710,W,1,11,0.8,12.2,M,-34.6,M,,*6B
$PYRTM,2024,127.503672625185,18.613320035336
$GPGGA,120516.00,3326.9778,N,11903.9701,W,1,11,0.8,11.6,M,-34.6,M,,*6D
$PYRTM,2024,127.503684183507,18.613331593646
$GPGGA,120517.00,3326.9772,N,11903.9691,W,1,11,0.8,11.5,M,-34.6,M,,*6D
$PYRTM,2024,127.503695770625,18.613343180764
$GPGGA,120518.00,3326.9768,N,11903.9682,W,1,11,0.8,11.7,M,-34.6,M,,*69
$PYRTM,2024,127.503707331887,18.613354742025
$GPGGA,120519.00,3326.9764,N,11903.9674,W,1,11,0.8,12.2,M,-34.6,M,,*6B
$PYRTM,2024,127.503714626898,18.613362037037
$GPGGA,120520.00,3326.9757,N,11903.9668,W,1,11,0.8,12.8,M,-34.6,M,,*66
$PYRTM,2024,127.503733260741,18.613380670880
$GPGGA,120521.00,3326.9749,N,11903.9661,W,1,11,0.8,12.8,M,-34.6,M,,*61
$PYRTM,2024,127.503742067292,18.613389477431
$GPGGA,120522.00,3326.9744,N,11903.9652,W,1,11,0.8,12.3,M,-34.6,M,,*64
$PYRTM,2024,127.503749347083,18.613396757222
$GPGGA,120523.00,3326.9743,N,11903.9641,W,1,11,0.8,11.8,M,-34.6,M,,*68
$PYRTM,2024,127.503765216574,18.613412626713
$GPGGA,120524.00,3326.9742,N,11903.9632,W,1,11,0.8,11.7,M,-34.6,M,,*65
$PYRTM,2024,127.503776778079,18.613424188218
$GPGGA,120525.00,3326.9735,N,11903.9626,W,1,11,0.8,11.8,M,-34.6,M,,*6E
$PYRTM,2024,127.503788363970,18.613435774109
$GPGGA,120526.00,3326.9727,N,11903.9622,W,1,11,0.8,11.9,M,-34.6,M,,*6B
$PYRTM,2024,127.503799926505,18.613447336644
$GPGGA,120527.00,3326.9721,N,11903.9613,W,1,11,0.8,12.2,M,-34.6,M,,*66
$PYRTM,2024,127.503807217685,18.613454627836
$GPGGA,120528.00,3326.9719,N,11903.9601,W,1,11,0.8,12.7,M,-34.6,M,,*64
$PYRTM,2024,127.503823074329,18.613470484468
$GPGGA,120529.00,3326.9718,N,11903.9590,W,1,11,0.8,13.0,M,-34.6,M,,*69
$PYRTM,2024,127.503834780706,18.613482190845
$GPGGA,120530.00,3326.9712,N,11903.9582,W,1,11,0.8,13.4,M,-34.6,M,,*6C
$PYRTM,2024,127.503846234977,18.613493645116
$GPGGA,120531.00,3326.9704,N,11903.9576,W,1,11,0.8,12.5,M,-34.6,M,,*61
$PYRTM,2024,127.503857823449,18.613505233588
$GPGGA,120532.00,3326.9698,N,11903.9568,W,1,11,0.8,11.8,M,-34.6,M,,*67
$PYRTM,2024,127.503865100405,18.613512510544
$GPGGA,120533.00,3326.9697,N,11903.9557,W,1,11,0.8,11.0,M,-34.6,M,,*6D
$PYRTM,2024,127.503880958692,18.613528368843
$GPGGA,120534.00,3326.9697,N,11903.9545,W,1,11,0.8,10.6,M,-34.6,M,,*6E
$PYRTM,2024,127.503892530486,18.613539940625
$GPGGA,120535.00,3326.9691,N,11903.9538,W,1,11,0.8,11.2,M,-34.6,M,,*66
$PYRTM,2024,127.503904107639,18.613551517789
$GPGGA,120536.00,3326.9682,N,11903.9534,W,1,11,0.8,12.2,M,-34.6,M,,*68
$PYRTM,2024,127.503915680440,18.613563090579
$GPGGA,120537.00,3326.9674,N,11903.9531,W,1,11,0.8,13.1,M,-34.6,M,,*67
$PYRTM,2024,127.503927255556,18.613574665694
$GPGGA,120538.00,3326.9670,N,11903.9523,W,1,11,0.8,13.7,M,-34.6,M,,*69
$PYRTM,2024,127.503938828079,18.613586238218
$GPGGA,120539.00,3326.9670,N,11903.9511,W,1,11,0.8,13.1,M,-34.6,M,,*6F
$PYRTM,2024,127.503950405069,18.613597815208
$GPGGA,120540.00,3326.9667,N,11903.9500,W,1,11,0.8,12.3,M,-34.6,M,,*64
$PYRTM,2024,127.503961972234,18.613609382373
$GPGGA,120541.00,3326.9662,N,11903.9491,W,1,11,0.8,11.8,M,-34.6,M,,*61
$PYRTM,2024,127.503973551470,18.613620961609
$GPGGA,120542.00,3326.9655,N,11903.9484,W,1,11,0.8,11.5,M,-34.6,M,,*6F
$PYRTM,2024,127.503985125150,18.613632535289
$GPGGA,120543.00,3326.9650,N,11903.9474,W,1,11,0.8,11.6,M,-34.6,M,,*67
$PYRTM,2024,127.503996699583,18.613644109722
$GPGGA,120544.00,3326.9647,N,11903.9465,W,1,11,0.8,12.0,M,-34.6,M,,*63
$PYRTM,2024,127.504008273831,18.613655683970
$GPGGA,120545.00,3326.9643,N,11903.9455,W,1,11,0.8,12.6,M,-34.6,M,,*63
$PYRTM,2024,127.504019850718,18.613667260856
$GPGGA,120546.00,3326.9637,N,11903.9447,W,1,11,0.8,12.9,M,-34.6,M,,*6F
$PYRTM,2024,127.504027138183,18.613674548322
$GPGGA,120547.00,3326.9632,N,11903.9438,W,1,11,0.8,12.8,M,-34.6,M,,*62
$PYRTM,2024,127.504045776157,18.613693186296
$GPGGA,120548.00,3326.9627,N,11903.9430,W,1,11,0.8,12.1,M,-34.6,M,,*68
$PYRTM,2024,127.504057347951,18.613704758090
$GPGGA,120549.00,3326.9624,N,11903.9420,W,1,11,0.8,11.5,M,-34.6,M,,*6C
$PYRTM,2024,127.504066144063,18.613713554201
$GPGGA,120550.00,3326.9622,N,11903.9411,W,1,11,0.8,11.3,M,-34.6,M,,*66
$PYRTM,2024,127.504073436088,18.613720846238
$GPGGA,120551.00,3326.9618,N,11903.9403,W,1,11,0.8,11.5,M,-34.6,M,,*6B
$PYRTM,2024,127.504092070081,18.613739480220
$GPGGA,120552.00,3326.9612,N,11903.9396,W,1,11,0.8,11.7,M,-34.6,M,,*6B
$PYRTM,2024,127.504100866481,18.613748276620
$GPGGA,120553.00,3326.9605,N,11903.9390,W,1,11,0.8,12.1,M,-34.6,M,,*6F
$PYRTM,2024,127.504112441273,18.613759851400
$GPGGA,120554.00,3326.9599,N,11903.9383,W,1,11,0.8,12.4,M,-34.6,M,,*69
$PYRTM,2024,127.504124015359,18.613771425498
$GPGGA,120555.00,3326.9596,N,11903.9373,W,1,11,0.8,12.5,M,-34.6,M,,*69
$PYRTM,2024,127.504135591343,18.613783001493
$GPGGA,120556.00,3326.9594,N,11903.9363,W,1,11,0.8,12.4,M,-34.6,M,,*68
$PYRTM,2024,127.504147164248,18.613794574387
$GPGGA,120557.00,3326.9590,N,11903.9352,W,1,11,0.8,11.8,M,-34.6,M,,*60
$PYRTM,2024,127.504158737465,18.613806147604
$GPGGA,120558.00,3326.9586,N,11903.9343,W,1,11,0.8,11.4,M,-34.6,M,,*64
$PYRTM,2024,127.504170314352,18.613817724491
$GPGGA,120559.00,3326.9580,N,11903.9333,W,1,11,0.8,11.3,M,-34.6,M,,*63
$PYRTM,2024,127.504177592755,18.613825002894
$GPGGA,120600.00,3326.9576,N,11903.9324,W,1,11,0.8,11.9,M,-34.6,M,,*69
$PYRTM,2024,127.504193461829,18.613840871968
$GPGGA,120601.00,3326.9573,N,11903.9317,W,1,11,0.8,12.4,M,-34.6,M,,*63
$PYRTM,2024,127.504205038889,18.613852449028
$GPGGA,120602.00,3326.9569,N,11903.9310,W,1,11,0.8,12.3,M,-34.6,M,,*6B
$PYRTM,2024,127.504216609433,18.613864019583
$GPGGA,120603.00,3326.9565,N,11903.9301,W,1,11,0.8,11.8,M,-34.6,M,,*6E
$PYRTM,2024,127.504228186157,18.613875596296
$GPGGA,120604.00,3326.9562,N,11903.9290,W,1,11,0.8,11.4,M,-34.6,M,,*6B
$PYRTM,2024,127.504239764514,18.613887174653
$GPGGA,120605.00,3326.9559,N,11903.9279,W,1,11,0.8,11.0,M,-34.6,M,,*61
$PYRTM,2024,127.504251333299,18.613898743437
$GPGGA,120606.00,3326.9556,N,11903.9268,W,1,11,0.8,10.9,M,-34.6,M,,*65
$PYRTM,2024,127.504262905475,18.613910315613
$GPGGA,120607.00,3326.9554,N,11903.9256,W,1,11,0.8,11.3,M,-34.6,M,,*60
$PYRTM,2024,127.504274481759,18.613921891898
$GPGGA,120608.00,3326.9552,N,11903.9247,W,1,11,0.8,11.9,M,-34.6,M,,*63
$PYRTM,2024,127.504286049109,18.613933459248
$GPGGA,120609.00,3326.9547,N,11903.9239,W,1,11,0.8,12.1,M,-34.6,M,,*64
$PYRTM,2024,127.504297624468,18.613945034606
$GPGGA,120610.00,3326.9542,N,11903.9230,W,1,11,0.8,12.0,M,-34.6,M,,*61
$PYRTM,2024,127.504309203634,18.613956613773
$GPGGA,120611.00,3326.9540,N,11903.9220,W,1,11,0.8,10.9,M,-34.6,M,,*68
$PYRTM,2024,127.504320778449,18.613968188588
$GPGGA,120612.00,3326.9540,N,11903.9209,W,1,11,0.8,10.5,M,-34.6,M,,*6C
$PYRTM,2024,127.504328062211,18.613975472350
$GPGGA,120613.00,3326.9538,N,11903.9198,W,1,11,0.8,10.3,M,-34.6,M,,*6F
$PYRTM,2024,127.504343926215,18.613991336354
$GPGGA,120614.00,3326.9533,N,11903.9187,W,1,11,0.8,10.5,M,-34.6,M,,*6B
$PYRTM,2024,127.504355500000,18.614002910139
$GPGGA,120615.00,3326.9528,N,11903.9175,W,1,11,0.8,11.4,M,-34.6,M,,*6D
$PYRTM,2024,127.504362779688,18.614010189826
$GPGGA,120616.00,3326.9525,N,11903.9164,W,1,11,0.8,12.2,M,-34.6,M,,*66
$PYRTM,2024,127.504378647975,18.614026058113
$GPGGA,120617.00,3326.9525,N,11903.9153,W,1,11,0.8,12.6,M,-34.6,M,,*67
$PYRTM,2024,127.504390236921,18.614037647060
$GPGGA,120618.00,3326.9523,N,11903.9142,W,1,11,0.8,12.8,M,-34.6,M,,*60
$PYRTM,2024,127.504401791169,18.614049201308
$GPGGA,120619.00,3326.9521,N,11903.9131,W,1,11,0.8,12.1,M,-34.6,M,,*6E
$PYRTM,2024,127.504409077106,18.614056487245
$GPGGA,120620.00,3326.9518,N,11903.9122,W,1,11,0.8,11.5,M,-34.6,M,,*6B
$PYRTM,2024,127.504424944225,18.614072354363
$GPGGA,120621.00,3326.9517,N,11903.9112,W,1,11,0.8,10.7,M,-34.6,M,,*65
$PYRTM,2024,127.504432341181,18.614079751319
$GPGGA,120622.00,3326.9516,N,11903.9102,W,1,11,0.8,10.4,M,-34.6,M,,*65
$PYRTM,2024,127.504448092512,18.614095502650
$GPGGA,120623.00,3326.9515,N,11903.9092,W,1,11,0.8,10.3,M,-34.6,M,,*68
$PYRTM,2024,127.504459669028,18.614107079167
$GPGGA,120624.00,3326.9512,N,11903.9082,W,1,11,0.8,11.2,M,-34.6,M,,*69
$PYRTM,2024,127.504471241968,18.614118652106
$GPGGA,120625.00,3326.9510,N,11903.9071,W,1,11,0.8,12.3,M,-34.6,M,,*64
$PYRTM,2024,127.504478520012,18.614125930150
$GPGGA,120626.00,3326.9507,N,11903.9060,W,1,11,0.8,13.0,M,-34.6,M,,*63
$PYRTM,2024,127.504494389410,18.614141799560
$GPGGA,120627.00,3326.9505,N,11903.9048,W,1,11,0.8,13.0,M,-34.6,M,,*6A
$PYRTM,2024,127.504505964086,18.614153374225
$GPGGA,120628.00,3326.9504,N,11903.9037,W,1,11,0.8,12.5,M,-34.6,M,,*68
$PYRTM,2024,127.504517534502,18.614164944641
$GPGGA,120629.00,3326.9501,N,11903.9026,W,1,11,0.8,11.5,M,-34.6,M,,*6F
$PYRTM,2024,127.504529112222,18.614176522361
$GPGGA,120630.00,3326.9497,N,11903.9016,W,1,11,0.8,10.8,M,-34.6,M,,*66
$PYRTM,2024,127.504536391308,18.614183801447
$GPGGA,120631.00,3326.9494,N,11903.9007,W,1,11,0.8,10.5,M,-34.6,M,,*69
$PYRTM,2024,127.504552274907,18.614199685046
$GPGGA,120632.00,3326.9491,N,11903.8998,W,1,11,0.8,10.8,M,-34.6,M,,*6C
$PYRTM,2024,127.504563834375,18.614211244514
$GPGGA,120633.00,3326.9490,N,11903.8988,W,1,11,0.8,11.6,M,-34.6,M,,*62
$PYRTM,2024,127.504575412153,18.614222822292
$GPGGA,120634.00,3326.9489,N,11903.8976,W,1,11,0.8,12.3,M,-34.6,M,,*6A
$PYRTM,2024,127.504586983160,18.614234393299
$GPGGA,120635.00,3326.9488,N,11903.8964,W,1,11,0.8,12.5,M,-34.6,M,,*6F
$PYRTM,2024,127.504598572188,18.614245982338
$GPGGA,120636.00,3326.9485,N,11903.8952,W,1,11,0.8,12.2,M,-34.6,M,,*63
$PYRTM,2024,127.504610130868,18.614257541019
$GPGGA,120637.00,3326.9481,N,11903.8940,W,1,11,0.8,11.9,M,-34.6,M,,*6D
$PYRTM,2024,127.504617410521,18.614264820660
$GPGGA,120638.00,3326.9478,N,11903.8929,W,1,11,0.8,11.5,M,-34.6,M,,*67
$PYRTM,2024,127.504633281389,18.614280691528
$GPGGA,120639.00,3326.9477,N,11903.8919,W,1,11,0.8,11.3,M,-34.6,M,,*6C
$PYRTM,2024,127.504644854919,18.614292265058
$GPGGA,120640.00,3326.9477,N,11903.8908,W,1,11,0.8,11.0,M,-34.6,M,,*61
$PYRTM,2024,127.504656423704,18.614303833843
$GPGGA,120641.00,3326.9477,N,11903.8897,W,1,11,0.8,11.0,M,-34.6,M,,*67
$PYRTM,2024,127.504668002454,18.614315412604
$GPGGA,120642.00,3326.9475,N,11903.8886,W,1,11,0.8,11.2,M,-34.6,M,,*64
$PYRTM,2024,127.504679571470,18.614326981609
$GPGGA,120643.00,3326.9473,N,11903.8876,W,1,11,0.8,11.3,M,-34.5,M,,*6E
$PYRTM,2024,127.504691145903,18.614338556042
$GPGGA,120644.00,3326.9470,N,11903.8865,W,1,11,0.8,11.1,M,-34.5,M,,*6A
$PYRTM,2024,127.504702726389,18.614350136528
$GPGGA,120645.00,3326.9468,N,11903.8853,W,1,11,0.8,10.8,M,-34.5,M,,*6F
$PYRTM,2024,127.504714300336,18.614361710475
$GPGGA,120646.00,3326.9468,N,11903.8842,W,1,11,0.8,10.7,M,-34.5,M,,*63
$PYRTM,2024,127.504725874294,18.614373284433
$GPGGA,120647.00,3326.9467,N,11903.8832,W,1,11,0.8,10.9,M,-34.5,M,,*64
$PYRTM,2024,127.504737462188,18.614384872338
$GPGGA,120648.00,3326.9465,N,11903.8820,W,1,11,0.8,11.0,M,-34.5,M,,*62
$PYRTM,2024,127.504749022269,18.614396432419
$GPGGA,120649.00,3326.9460,N,11903.8808,W,1,11,0.8,11.0,M,-34.5,M,,*6C
$PYRTM,2024,127.504760599514,18.614408009653
$GPGGA,120650.00,3326.9457,N,11903.8797,W,1,12,0.8,11.1,M,-34.5,M,,*6B
$PYRTM,2024,127.504767887269,18.614415297407
$GPGGA,120651.00,3326.9458,N,11903.8786,W,1,12,0.8,11.8,M,-34.5,M,,*6C
$PYRTM,2024,127.504786535972,18.614433946111
$GPGGA,120652.00,3326.9461,N,11903.8775,W,1,12,0.8,12.3,M,-34.5,M,,*61
$PYRTM,2024,127.504798095509,18.614445505660
$GPGGA,120653.00,3326.9462,N,11903.8763,W,1,12,0.8,12.1,M,-34.5,M,,*66
$PYRTM,2024,127.504812087315,18.614459497454
$GPGGA,120654.00,3326.9458,N,11903.8752,W,1,12,0.8,11.7,M,-34.5,M,,*6F
$PYRTM,2024,127.504818466875,18.614465877014
$GPGGA,120655.00,3326.9455,N,11903.8741,W,1,12,0.8,11.7,M,-34.5,M,,*61
$PYRTM,2024,127.504830040451,18.614477450590
$GPGGA,120656.00,3326.9455,N,11903.8730,W,1,12,0.8,11.9,M,-34.5,M,,*6A
$PYRTM,2024,127.504841615012,18.614489025150
$GPGGA,120657.00,3326.9458,N,11903.8717,W,1,12,0.8,12.2,M,-34.5,M,,*6B
$PYRTM,2024,127.504848893843,18.614496303993
$GPGGA,120658.00,3326.9460,N,11903.8705,W,1,12,0.8,12.6,M,-34.5,M,,*68
$PYRTM,2024,127.504864762523,18.614512172662
$GPGGA,120659.00,3326.9458,N,11903.8692,W,1,12,0.8,12.7,M,-34.5,M,,*6C
$PYRTM,2024,127.504876340139,18.614523750278
$GPGGA,120700.00,3326.9455,N,11903.8680,W,1,12,0.8,12.6,M,-34.5,M,,*6E
$PYRTM,2024,127.504887911863,18.614535322002
$GPGGA,120701.00,3326.9454,N,11903.8669,W,1,12,0.8,12.5,M,-34.5,M,,*6A
$PYRTM,2024,127.504899486725,18.614546896863
$GPGGA,120702.00,3326.9455,N,11903.8657,W,1,12,0.8,12.2,M,-34.5,M,,*62
$PYRTM,2024,127.504906775961,18.614554186100
$GPGGA,120703.00,3326.9456,N,11903.8646,W,1,12,0.8,11.8,M,-34.5,M,,*69
$PYRTM,2024,127.504922638333,18.614570048472
$GPGGA,120704.00,3326.9456,N,11903.8635,W,1,11,0.8,11.3,M,-34.5,M,,*62
$PYRTM,2024,127.504934208750,18.614581618889
$GPGGA,120705.00,3326.9453,N,11903.8625,W,1,11,0.8,12.0,M,-34.5,M,,*67
$PYRTM,2024,127.504941488113,18.614588898252
$GPGGA,120706.00,3326.9450,N,11903.8613,W,1,11,0.8,13.0,M,-34.5,M,,*63
$PYRTM,2024,127.504957357639,18.614604767778
$GPGGA,120707.00,3326.9451,N,11903.8600,W,1,11,0.8,13.6,M,-34.5,M,,*67
$PYRTM,2024,127.504968934826,18.614616344977
$GPGGA,120708.00,3326.9452,N,11903.8586,W,1,11,0.8,13.6,M,-34.5,M,,*66
$PYRTM,2024,127.504980505463,18.614627915602
$GPGGA,120709.00,3326.9451,N,11903.8571,W,1,11,0.8,13.3,M,-34.5,M,,*69
$PYRTM,2024,127.504992080243,18.614639490382
$GPGGA,120710.00,3326.9449,N,11903.8558,W,1,11,0.8,13.0,M,-34.5,M,,*60
$PYRTM,2024,127.504999382188,18.614646792326
$GPGGA,120711.00,3326.9447,N,11903.8546,W,1,11,0.8,12.9,M,-34.5,M,,*68
$PYRTM,2024,127.505015228738,18.614662638877
$GPGGA,120712.00,3326.9449,N,11903.8536,W,1,11,0.8,12.7,M,-34.5,M,,*6C
$PYRTM,2024,127.505026802442,18.614674212581
$GPGGA,120713.00,3326.9451,N,11903.8526,W,1,11,0.8,12.4,M,-34.5,M,,*66
$PYRTM,2024,127.505038373414,18.614685783553
$GPGGA,120714.00,3326.9453,N,11903.8515,W,1,11,0.8,12.0,M,-34.5,M,,*67
$PYRTM,2024,127.505049946481,18.614697356620
$GPGGA,120715.00,3326.9454,N,11903.8503,W,1,11,0.8,11.6,M,-34.5,M,,*63
$PYRTM,2024,127.505057230058,18.614704640197
$GPGGA,120716.00,3326.9453,N,11903.8491,W,1,11,0.8,11.5,M,-34.5,M,,*6E
$PYRTM,2024,127.505073100347,18.614720510486
$GPGGA,120717.00,3326.9452,N,11903.8478,W,1,11,0.8,11.8,M,-34.5,M,,*64
$PYRTM,2024,127.505080377755,18.614727787905
$GPGGA,120718.00,3326.9452,N,11903.8466,W,1,11,0.8,12.4,M,-34.5,M,,*6B
$PYRTM,2024,127.505096247986,18.614743658125
$GPGGA,120719.00,3326.9454,N,11903.8455,W,1,11,0.8,12.9,M,-34.5,M,,*61
$PYRTM,2024,127.505107836296,18.614755246435
$GPGGA,120720.00,3326.9456,N,11903.8443,W,1,11,0.8,13.1,M,-34.5,M,,*67
$PYRTM,2024,127.505115107373,18.614762517512
$GPGGA,120721.00,3326.9455,N,11903.8432,W,1,11,0.8,13.1,M,-34.5,M,,*63
$PYRTM,2024,127.505130973218,18.614778383368
$GPGGA,120722.00,3326.9454,N,11903.8420,W,1,11,0.8,12.5,M,-34.5,M,,*67
$PYRTM,2024,127.505138255509,18.614785665648
$GPGGA,120723.00,3326.9454,N,11903.8408,W,1,11,0.8,11.9,M,-34.5,M,,*63
$PYRTM,2024,127.505156899086,18.614804309225
$GPGGA,120724.00,3326.9456,N,11903.8397,W,1,11,0.8,11.6,M,-34.5,M,,*68
$PYRTM,2024,127.505165693484,18.614813103623
$GPGGA,120725.00,3326.9458,N,11903.8386,W,1,11,0.8,11.9,M,-34.5,M,,*68
$PYRTM,2024,127.505172971574,18.614820381713
$GPGGA,120726.00,3326.9459,N,11903.8375,W,1,11,0.8,12.5,M,-34.5,M,,*69
$PYRTM,2024,127.505188861829,18.614836271968
$GPGGA,120727.00,3326.9460,N,11903.8363,W,1,11,0.8,13.0,M,-34.5,M,,*61
$PYRTM,2024,127.505200414954,18.614847825093
$GPGGA,120728.00,3326.9461,N,11903.8350,W,1,11,0.8,13.1,M,-34.5,M,,*6E
$PYRTM,2024,127.505211988229,18.614859398368
$GPGGA,120729.00,3326.9464,N,11903.8337,W,1,11,0.8,13.0,M,-34.5,M,,*6A
$PYRTM,2024,127.505223563854,18.614870973993
$GPGGA,120730.00,3326.9465,N,11903.8325,W,1,11,0.8,12.6,M,-34.5,M,,*67
$PYRTM,2024,127.505235136887,18.614882547025
$GPGGA,120731.00,3326.9464,N,11903.8314,W,1,11,0.8,12.0,M,-34.5,M,,*63
$PYRTM,2024,127.505246712720,18.614894122859
$GPGGA,120732.00,3326.9464,N,11903.8302,W,1,11,0.8,11.7,M,-34.5,M,,*63
$PYRTM,2024,127.505258285475,18.614905695613
$GPGGA,120733.00,3326.9464,N,11903.8292,W,1,11,0.8,12.0,M,-34.5,M,,*6E
$PYRTM,2024,127.505269860984,18.614917271134
$GPGGA,120734.00,3326.9467,N,11903.8282,W,1,11,0.8,12.1,M,-34.5,M,,*6A
$PYRTM,2024,127.505281435486,18.614928845625
$GPGGA,120735.00,3326.9470,N,11903.8271,W,1,11,0.8,12.5,M,-34.5,M,,*65
$PYRTM,2024,127.505288712755,18.614936122894
$GPGGA,120736.00,3326.9471,N,11903.8259,W,1,11,0.8,12.9,M,-34.5,M,,*61
$PYRTM,2024,127.505304582454,18.614951992593
$GPGGA,120737.00,3326.9471,N,11903.8245,W,1,11,0.8,12.9,M,-34.5,M,,*6D
$PYRTM,2024,127.505316162292,18.614963572442
$GPGGA,120738.00,3326.9472,N,11903.8232,W,1,11,0.8,12.8,M,-34.5,M,,*60
$PYRTM,2024,127.505327731863,18.614975142002
$GPGGA,120739.00,3326.9476,N,11903.8221,W,1,11,0.8,12.7,M,-34.5,M,,*68
$PYRTM,2024,127.505339309711,18.614986719861
$GPGGA,120740.00,3326.9480,N,11903.8210,W,1,11,0.8,12.6,M,-34.5,M,,*6C
$PYRTM,2024,127.505346598924,18.614994009062
$GPGGA,120741.00,3326.9482,N,11903.8199,W,1,11,0.8,12.6,M,-34.5,M,,*6D
$PYRTM,2024,127.505362453461,18.615009863600
$GPGGA,120742.00,3326.9481,N,11903.8186,W,1,11,0.8,12.4,M,-34.5,M,,*61
$PYRTM,2024,127.505369756331,18.615017166470
$GPGGA,120743.00,3326.9481,N,11903.8173,W,1,11,0.8,12.2,M,-34.5,M,,*6C
$PYRTM,2024,127.505385602373,18.615033012512
$GPGGA,120744.00,3326.9484,N,11903.8163,W,1,11,0.8,12.3,M,-34.5,M,,*6E
$PYRTM,2024,127.505397177326,18.615044587465
$GPGGA,120745.00,3326.9489,N,11903.8154,W,1,11,0.8,12.4,M,-34.5,M,,*61
$PYRTM,2024,127.505408751690,18.615056161829
$GPGGA,120746.00,3326.9493,N,11903.8143,W,1,11,0.8,12.3,M,-34.5,M,,*68
$PYRTM,2024,127.505420325891,18.615067736030
$GPGGA,120747.00,3326.9492,N,11903.8130,W,1,11,0.8,12.1,M,-34.5,M,,*6E
$PYRTM,2024,127.505431899120,18.615079309259
$GPGGA,120748.00,3326.9491,N,11903.8117,W,1,11,0.8,12.0,M,-34.5,M,,*66
$PYRTM,2024,127.505443468924,18.615090879074
$GPGGA,120749.00,3326.9492,N,11903.8106,W,1,11,0.8,12.3,M,-34.5,M,,*67
$PYRTM,2024,127.505455046898,18.615102457037
$GPGGA,120750.00,3326.9497,N,11903.8095,W,1,11,0.8,12.8,M,-34.5,M,,*6A
$PYRTM,2024,127.505462333391,18.615109743530
$GPGGA,120751.00,3326.9503,N,11903.8084,W,1,11,0.8,13.2,M,-34.5,M,,*6C
$PYRTM,2024,127.505478199722,18.615125609873
$GPGGA,120752.00,3326.9506,N,11903.8073,W,1,11,0.8,13.3,M,-34.5,M,,*63
$PYRTM,2024,127.505489769711,18.615137179850
$GPGGA,120753.00,3326.9505,N,11903.8060,W,1,11,0.8,12.9,M,-34.5,M,,*68
$PYRTM,2024,127.505497048993,18.615144459144
$GPGGA,120754.00,3326.9504,N,11903.8047,W,1,11,0.8,12.4,M,-34.5,M,,*66
$PYRTM,2024,127.505515697361,18.615163107512
$GPGGA,120755.00,3326.9506,N,11903.8034,W,1,11,0.8,12.2,M,-34.5,M,,*67
$PYRTM,2024,127.505527273345,18.615174683495
$GPGGA,120756.00,3326.9510,N,11903.8024,W,1,11,0.8,12.2,M,-34.5,M,,*62
$PYRTM,2024,127.505538843519,18.615186253657
$GPGGA,120757.00,3326.9517,N,11903.8014,W,1,11,0.8,12.5,M,-34.5,M,,*60
$PYRTM,2024,127.505547641088,18.615195051227
$GPGGA,120758.00,3326.9521,N,11903.8003,W,1,11,0.8,12.6,M,-34.5,M,,*6F
$PYRTM,2024,127.505559214572,18.615206624711
$GPGGA,120759.00,3326.9522,N,11903.7991,W,1,11,0.8,12.8,M,-34.5,M,,*6E
$PYRTM,2024,127.505570788646,18.615218198785
$GPGGA,120800.00,3326.9522,N,11903.7979,W,1,11,0.8,12.6,M,-34.5,M,,*65
$PYRTM,2024,127.505582363021,18.615229773160
$GPGGA,120801.00,3326.9524,N,11903.7968,W,1,11,0.8,12.5,M,-34.5,M,,*61
$PYRTM,2024,127.505593937546,18.615241347685
$GPGGA,120802.00,3326.9527,N,11903.7956,W,1,11,0.8,12.5,M,-34.5,M,,*6C
$PYRTM,2024,127.505605512558,18.615252922708
$GPGGA,120803.00,3326.9531,N,11903.7943,W,1,11,0.8,12.6,M,-34.5,M,,*6D
$PYRTM,2024,127.505617088229,18.615264498368
$GPGGA,120804.00,3326.9534,N,11903.7929,W,1,11,0.8,12.5,M,-34.5,M,,*60
$PYRTM,2024,127.505628660243,18.615276070382
$GPGGA,120805.00,3326.9537,N,11903.7917,W,1,11,0.8,12.4,M,-34.5,M,,*6E
$PYRTM,2024,127.505635939398,18.615283349549
$GPGGA,120806.00,3326.9541,N,11903.7905,W,1,11,0.8,12.2,M,-34.5,M,,*69
$PYRTM,2024,127.505651810220,18.615299220359
$GPGGA,120807.00,3326.9544,N,11903.7894,W,1,11,0.8,12.2,M,-34.5,M,,*64
$PYRTM,2024,127.505663397373,18.615310807512
$GPGGA,120808.00,3326.9545,N,11903.7882,W,1,11,0.8,12.1,M,-34.5,M,,*6E
$PYRTM,2024,127.505674956505,18.615322366644
$GPGGA,120809.00,3326.9546,N,11903.7871,W,1,11,0.8,12.0,M,-34.5,M,,*61
$PYRTM,2024,127.505686535370,18.615333945509
$GPGGA,120810.00,3326.9548,N,11903.7860,W,1,11,0.8,12.0,M,-34.5,M,,*67
$PYRTM,2024,127.505693821968,18.615341232106
$GPGGA,120811.00,3326.9553,N,11903.7850,W,1,11,0.8,12.1,M,-34.5,M,,*6E
$PYRTM,2024,127.505709679838,18.615357089977
$GPGGA,120812.00,3326.9558,N,11903.7839,W,1,11,0.8,12.2,M,-34.5,M,,*6A
$PYRTM,2024,127.505721253796,18.615368663935
$GPGGA,120813.00,3326.9561,N,11903.7827,W,1,11,0.8,12.5,M,-34.5,M,,*69
$PYRTM,2024,127.505732823530,18.615380233669
$GPGGA,120814.00,3326.9562,N,11903.7815,W,1,11,0.8,12.8,M,-34.5,M,,*61
$PYRTM,2024,127.505744401933,18.615391812072
$GPGGA,120815.00,3326.9565,N,11903.7803,W,1,11,0.8,13.1,M,-34.5,M,,*68
$PYRTM,2024,127.505755977025,18.615403387164
$GPGGA,120816.00,3326.9568,N,11903.7791,W,1,11,0.8,13.0,M,-34.5,M,,*63
$PYRTM,2024,127.505767545671,18.615414955822
$GPGGA,120817.00,3326.9572,N,11903.7780,W,1,11,0.8,12.7,M,-34.5,M,,*6F
$PYRTM,2024,127.505779125035,18.615426535174
$GPGGA,120818.00,3326.9576,N,11903.7767,W,1,11,0.8,12.1,M,-34.5,M,,*6B
$PYRTM,2024,127.505790699919,18.615438110058
$GPGGA,120819.00,3326.9578,N,11903.7755,W,1,11,0.8,11.8,M,-34.5,M,,*6F
$PYRTM,2024,127.505802274444,18.615449684583
$GPGGA,120820.00,3326.9579,N,11903.7744,W,1,11,0.8,12.0,M,-34.5,M,,*6F
$PYRTM,2024,127.505809563345,18.615456973484
$GPGGA,120821.00,3326.9583,N,11903.7732,W,1,11,0.8,12.5,M,-34.5,M,,*6F
$PYRTM,2024,127.505825416655,18.615472826794
$GPGGA,120822.00,3326.9587,N,11903.7720,W,1,11,0.8,12.9,M,-34.5,M,,*67
$PYRTM,2024,127.505836996968,18.615484407106
$GPGGA,120823.00,3326.9593,N,11903.7709,W,1,11,0.8,13.3,M,-34.5,M,,*63
$PYRTM,2024,127.505848572465,18.615495982616
$GPGGA,120824.00,3326.9597,N,11903.7699,W,1,11,0.8,13.4,M,-34.5,M,,*6F
$PYRTM,2024,127.505855861088,18.615503271227
$GPGGA,120825.00,3326.9599,N,11903.7688,W,1,11,0.8,13.1,M,-34.5,M,,*65
$PYRTM,2024,127.505874510278,18.615521920417
$GPGGA,120826.00,3326.9599,N,11903.7675,W,1,11,0.8,12.4,M,-34.5,M,,*60
$PYRTM,2024,127.505888502269,18.615535912407
$GPGGA,120827.00,3326.9601,N,11903.7662,W,1,11,0.8,11.8,M,-34.5,M,,*6A
$PYRTM,2024,127.505894866215,18.615542276354
$GPGGA,120828.00,3326.9605,N,11903.7651,W,1,11,0.8,11.7,M,-34.5,M,,*6E
$PYRTM,2024,127.505906436227,18.615553846366
$GPGGA,120829.00,3326.9612,N,11903.7640,W,1,11,0.8,12.3,M,-34.5,M,,*6E
$PYRTM,2024,127.505918015139,18.615565425278
$GPGGA,120830.00,3326.9618,N,11903.7629,W,1,11,0.8,13.2,M,-34.5,M,,*63
$PYRTM,2024,127.505929589919,18.615577000069
$GPGGA,120831.00,3326.9621,N,11903.7617,W,1,11,0.8,14.1,M,-34.5,M,,*61
$PYRTM,2024,127.505941163113,18.615588573252
$GPGGA,120832.00,3326.9622,N,11903.7603,W,1,11,0.8,14.3,M,-34.5,M,,*66
$PYRTM,2024,127.505952737049,18.615600147188
$GPGGA,120833.00,3326.9624,N,11903.7589,W,1,11,0.8,13.7,M,-34.5,M,,*63
$PYRTM,2024,127.505964312222,18.615611722361
$GPGGA,120834.00,3326.9627,N,11903.7576,W,1,11,0.8,12.7,M,-34.5,M,,*66
$PYRTM,2024,127.505975886933,18.615623297072
$GPGGA,120835.00,3326.9631,N,11903.7566,W,1,11,0.8,11.9,M,-34.5,M,,*6C
