$PYRTM,2024,125.166670281204,16.276317691343
$GPGGA,035959.00,3511.7773,N,12148.6841,W,1,09,1.0,10.1,M,-32.6,M,,*68
$PYRTM,2024,125.166681867095,16.276329277234
$GPGGA,040000.00,3511.7778,N,12148.6840,W,1,09,1.0,10.2,M,-32.6,M,,*66
$PYRTM,2024,125.166689261933,16.276336672072
$GPGGA,040001.00,3511.7784,N,12148.6843,W,1,09,1.0,10.1,M,-32.6,M,,*64
$PYRTM,2024,125.166705019039,16.276352429178
$GPGGA,040002.00,3511.7786,N,12148.6850,W,1,09,1.0,9.8,M,-32.6,M,,*56
$PYRTM,2024,125.166716578900,16.276363989039
$GPGGA,040003.00,3511.7785,N,12148.6856,W,1,09,1.0,9.7,M,-32.6,M,,*5D
$PYRTM,2024,125.166728159931,16.276375570069
$GPGGA,040004.00,3511.7789,N,12148.6857,W,1,09,1.0,9.7,M,-32.6,M,,*57
$PYRTM,2024,125.166739726644,16.276387136782
$GPGGA,040005.00,3511.7797,N,12148.6856,W,1,09,1.0,9.6,M,-32.6,M,,*59
$PYRTM,2024,125.166751312234,16.276398722384
$GPGGA,040006.00,3511.7804,N,12148.6858,W,1,09,1.0,9.4,M,-32.6,M,,*53
$PYRTM,2024,125.166762876736,16.276410286875
$GPGGA,040007.00,3511.7806,N,12148.6866,W,1,09,1.0,8.9,M,-32.6,M,,*51
$PYRTM,2024,125.166774460012,16.276421870150
$GPGGA,040008.00,3511.7803,N,12148.6874,W,1,09,1.0,9.0,M,-32.6,M,,*50
$PYRTM,2024,125.166786023380,16.276433433519
$GPGGA,040009.00,3511.7804,N,12148.6876,W,1,09,1.0,9.3,M,-32.6,M,,*57
$PYRTM,2024,125.166797613009,16.276445023148
$GPGGA,040010.00,3511.7811,N,12148.6874,W,1,09,1.0,10.0,M,-32.6,M,,*62
$PYRTM,2024,125.166805005544,16.276452415683
$GPGGA,040011.00,3511.7818,N,12148.6876,W,1,09,1.0,10.0,M,-32.6,M,,*68
$PYRTM,2024,125.166820751771,16.276468161910
$GPGGA,040012.00,3511.7820,N,12148.6882,W,1,09,1.0,9.8,M,-32.6,M,,*5B
$PYRTM,2024,125.166832318113,16.276479728252
$GPGGA,040013.00,3511.7817,N,12148.6891,W,1,09,1.0,9.6,M,-32.6,M,,*52
$PYRTM,2024,125.166839724711,16.276487134850
$GPGGA,040014.00,3511.7817,N,12148.6895,W,1,09,1.0,9.7,M,-32.6,M,,*50
$PYRTM,2024,125.166858362292,16.276505772431
$GPGGA,040015.00,3511.7824,N,12148.6895,W,1,09,1.0,10.0,M,-32.6,M,,*6E
$PYRTM,2024,125.166867068576,16.276514478715
$GPGGA,040016.00,3511.7832,N,12148.6897,W,1,09,1.0,9.8,M,-32.6,M,,*58
$PYRTM,2024,125.166878614688,16.276526024826
$GPGGA,040017.00,3511.7835,N,12148.6905,W,1,09,1.0,9.8,M,-32.6,M,,*54
$PYRTM,2024,125.166890204572,16.276537614711
$GPGGA,040018.00,3511.7832,N,12148.6912,W,1,09,1.0,10.3,M,-32.6,M,,*69
$PYRTM,2024,125.166901763634,16.276549173773
$GPGGA,040019.00,3511.7831,N,12148.6917,W,1,09,1.0,10.9,M,-32.6,M,,*64
$PYRTM,2024,125.166913355000,16.276560765139
$GPGGA,040020.00,3511.7839,N,12148.6918,W,1,09,1.0,11.5,M,-32.6,M,,*64
$PYRTM,2024,125.166924913704,16.276572323843
$GPGGA,040021.00,3511.7847,N,12148.6922,W,1,09,1.0,11.5,M,-32.6,M,,*65
$PYRTM,2024,125.166936497731,16.276583907870
$GPGGA,040022.00,3511.7848,N,12148.6926,W,1,09,1.0,11.5,M,-32.6,M,,*6D
$PYRTM,2024,125.166948059387,16.276595469525
$GPGGA,040023.00,3511.7843,N,12148.6932,W,1,09,1.0,12.2,M,-32.6,M,,*66
$PYRTM,2024,125.166959646910,16.276607057049
$GPGGA,040024.00,3511.7843,N,12148.6936,W,1,09,1.0,12.7,M,-32.6,M,,*60
$PYRTM,2024,125.166971208148,16.276618618287
$GPGGA,040025.00,3511.7849,N,12148.6939,W,1,09,1.0,12.9,M,-32.6,M,,*6A
$PYRTM,2024,125.166982795752,16.276630205891
$GPGGA,040026.00,3511.7856,N,12148.6940,W,1,09,1.0,12.8,M,-32.6,M,,*68
$PYRTM,2024,125.166990191204,16.276637601343
$GPGGA,040027.00,3511.7859,N,12148.6945,W,1,09,1.0,12.5,M,-32.6,M,,*6E
$PYRTM,2024,125.167005946157,16.276653356296
$GPGGA,040028.00,3511.7858,N,12148.6953,W,1,09,1.0,12.4,M,-32.6,M,,*66
$PYRTM,2024,125.167017504144,16.276664914282
$GPGGA,040029.00,3511.7857,N,12148.6959,W,1,09,1.0,12.6,M,-32.6,M,,*60
$PYRTM,2024,125.167029095359,16.276676505498
$GPGGA,040030.00,3511.7861,N,12148.6960,W,1,09,1.0,12.8,M,-32.6,M,,*69
$PYRTM,2024,125.167040653368,16.276688063507
$GPGGA,040031.00,3511.7870,N,12148.6959,W,1,09,1.0,12.8,M,-32.6,M,,*62
$PYRTM,2024,125.167052241528,16.276699651667
$GPGGA,040032.00,3511.7877,N,12148.6962,W,1,09,1.0,12.9,M,-32.6,M,,*6F
$PYRTM,2024,125.167063802662,16.276711212801
$GPGGA,040033.00,3511.7876,N,12148.6969,W,1,09,1.0,12.9,M,-32.6,M,,*64
$PYRTM,2024,125.167075388958,16.276722799097
$GPGGA,040034.00,3511.7874,N,12148.6977,W,1,09,1.0,12.8,M,-32.6,M,,*6F
$PYRTM,2024,125.167086949410,16.276734359549
$GPGGA,040035.00,3511.7874,N,12148.6980,W,1,09,1.0,12.7,M,-32.6,M,,*69
$PYRTM,2024,125.167098537523,16.276745947662
$GPGGA,040036.00,3511.7878,N,12148.6980,W,1,09,1.0,12.6,M,-32.6,M,,*67
$PYRTM,2024,125.167110099132,16.276757509271
$GPGGA,040037.00,3511.7884,N,12148.6981,W,1,09,1.0,12.5,M,-32.6,M,,*67
$PYRTM,2024,125.167117506273,16.276764916412
$GPGGA,040038.00,3511.7889,N,12148.6986,W,1,09,1.0,11.9,M,-32.6,M,,*6D
$PYRTM,2024,125.167133246863,16.276780657002
$GPGGA,040039.00,3511.7890,N,12148.6994,W,1,09,1.0,11.5,M,-32.6,M,,*6B
$PYRTM,2024,125.167144834606,16.276792244745
$GPGGA,040040.00,3511.7888,N,12148.6999,W,1,09,1.0,11.2,M,-32.6,M,,*66
$PYRTM,2024,125.167156395405,16.276803805544
$GPGGA,040041.00,3511.7889,N,12148.7001,W,1,09,1.0,11.3,M,-32.6,M,,*6E
$PYRTM,2024,125.167167983542,16.276815393681
$GPGGA,040042.00,3511.7895,N,12148.7003,W,1,09,1.0,11.4,M,-32.6,M,,*65
$PYRTM,2024,125.167179543345,16.276826953484
$GPGGA,040043.00,3511.7902,N,12148.7006,W,1,09,1.0,11.1,M,-32.6,M,,*6B
$PYRTM,2024,125.167191133171,16.276838543310
$GPGGA,040044.00,3511.7906,N,12148.7012,W,1,09,1.0,10.7,M,-32.6,M,,*6A
$PYRTM,2024,125.167198526192,16.276845936331
$GPGGA,040045.00,3511.7905,N,12148.7018,W,1,09,1.0,10.5,M,-32.6,M,,*60
$PYRTM,2024,125.167217174410,16.276864584549
$GPGGA,040046.00,3511.7906,N,12148.7022,W,1,09,1.0,10.5,M,-32.6,M,,*69
$PYRTM,2024,125.167225839688,16.276873249826
$GPGGA,040047.00,3511.7909,N,12148.7024,W,1,09,0.8,10.6,M,-32.6,M,,*6B
$PYRTM,2024,125.167237426412,16.276884836551
$GPGGA,040048.00,3511.7915,N,12148.7027,W,1,09,0.8,10.6,M,-32.6,M,,*6A
$PYRTM,2024,125.167248987211,16.276896397350
$GPGGA,040049.00,3511.7920,N,12148.7031,W,1,09,1.0,10.6,M,-32.6,M,,*63
$PYRTM,2024,125.167256394977,16.276903805104
$GPGGA,040050.00,3511.7922,N,12148.7036,W,1,09,0.8,10.7,M,-32.6,M,,*66
$PYRTM,2024,125.167272134109,16.276919544248
$GPGGA,040051.00,3511.7921,N,12148.7042,W,1,09,0.8,10.9,M,-32.6,M,,*69
$PYRTM,2024,125.167283723183,16.276931133322
$GPGGA,040052.00,3511.7922,N,12148.7048,W,1,09,0.8,10.9,M,-32.6,M,,*63
$PYRTM,2024,125.167295285822,16.276942695961
$GPGGA,040053.00,3511.7926,N,12148.7052,W,1,09,0.8,11.0,M,-32.6,M,,*65
$PYRTM,2024,125.167306871389,16.276954281528
$GPGGA,040054.00,3511.7930,N,12148.7054,W,1,09,0.8,11.1,M,-32.6,M,,*62
$PYRTM,2024,125.167314265220,16.276961675359
$GPGGA,040055.00,3511.7935,N,12148.7057,W,1,09,0.8,11.3,M,-32.6,M,,*67
$PYRTM,2024,125.167330032905,16.276977443044
$GPGGA,040056.00,3511.7937,N,12148.7061,W,1,09,0.8,11.4,M,-32.6,M,,*64
$PYRTM,2024,125.167341580046,16.276988990185
$GPGGA,040057.00,3511.7939,N,12148.7067,W,1,09,0.8,11.5,M,-32.6,M,,*6C
$PYRTM,2024,125.167353171088,16.277000581238
$GPGGA,040058.00,3511.7940,N,12148.7074,W,1,09,0.8,11.6,M,-32.6,M,,*6C
$PYRTM,2024,125.167364730208,16.277012140347
$GPGGA,040059.00,3511.7942,N,12148.7078,W,1,09,0.8,11.7,M,-32.6,M,,*62
$PYRTM,2024,125.167372135775,16.277019545914
$GPGGA,040100.00,3511.7948,N,12148.7081,W,1,09,0.8,11.7,M,-32.6,M,,*63
$PYRTM,2024,125.167387877361,16.277035287500
$GPGGA,040101.00,3511.7953,N,12148.7084,W,1,09,0.8,11.8,M,-32.6,M,,*62
$PYRTM,2024,125.167399464780,16.277046874919
$GPGGA,040102.00,3511.7956,N,12148.7088,W,1,09,0.8,11.8,M,-32.6,M,,*68
$PYRTM,2024,125.167406877118,16.277054287257
$GPGGA,040103.00,3511.7957,N,12148.7094,W,1,09,0.8,11.9,M,-32.6,M,,*64
$PYRTM,2024,125.167422614977,16.277070025116
$GPGGA,040104.00,3511.7959,N,12148.7099,W,1,09,0.8,12.0,M,-32.6,M,,*6A
$PYRTM,2024,125.167434174583,16.277081584722
$GPGGA,040105.00,3511.7962,N,12148.7104,W,1,09,0.8,12.0,M,-32.6,M,,*66
$PYRTM,2024,125.167445761597,16.277093171736
$GPGGA,040106.00,3511.7967,N,12148.7108,W,1,09,0.8,11.8,M,-32.6,M,,*67
$PYRTM,2024,125.167457323646,16.277104733785
$GPGGA,040107.00,3511.7972,N,12148.7112,W,1,09,0.8,11.5,M,-32.6,M,,*64
$PYRTM,2024,125.167464732616,16.277112142755
$GPGGA,040108.00,3511.7974,N,12148.7116,W,1,09,0.8,11.5,M,-32.6,M,,*69
$PYRTM,2024,125.167480474201,16.277127884340
$GPGGA,040109.00,3511.7975,N,12148.7119,W,1,09,0.8,11.6,M,-32.6,M,,*65
$PYRTM,2024,125.167492059340,16.277139469479
$GPGGA,040110.00,3511.7977,N,12148.7123,W,1,09,0.8,11.7,M,-32.6,M,,*67
$PYRTM,2024,125.167503617836,16.277151027975
$GPGGA,040111.00,3511.7981,N,12148.7128,W,1,09,0.8,11.8,M,-32.6,M,,*6B
$PYRTM,2024,125.167515209120,16.277162619259
$GPGGA,040112.00,3511.7986,N,12148.7133,W,1,09,0.8,11.6,M,-32.6,M,,*6B
$PYRTM,2024,125.167526766794,16.277174176933
$GPGGA,040113.00,3511.7990,N,12148.7136,W,1,09,0.8,11.5,M,-32.6,M,,*6B
$PYRTM,2024,125.167538356968,16.277185767118
$GPGGA,040114.00,3511.7993,N,12148.7139,W,1,09,0.8,11.5,M,-32.6,M,,*60
$PYRTM,2024,125.167549916181,16.277197326319
$GPGGA,040115.00,3511.7995,N,12148.7143,W,1,09,0.8,11.6,M,-32.6,M,,*69
$PYRTM,2024,125.167557322153,16.277204732292
$GPGGA,040116.00,3511.7998,N,12148.7147,W,1,09,0.8,11.6,M,-32.6,M,,*63
$PYRTM,2024,125.167575956319,16.277223366458
$GPGGA,040117.00,3511.8003,N,12148.7151,W,1,09,0.8,11.7,M,-32.6,M,,*60
$PYRTM,2024,125.167587543785,16.277234953924
$GPGGA,040118.00,3511.8009,N,12148.7155,W,1,09,0.8,11.5,M,-32.6,M,,*63
$PYRTM,2024,125.167599105139,16.277246515289
$GPGGA,040119.00,3511.8013,N,12148.7161,W,1,09,0.8,10.8,M,-32.6,M,,*62
$PYRTM,2024,125.167607802002,16.277255212141
$GPGGA,040120.00,3511.8016,N,12148.7166,W,1,09,0.8,10.4,M,-32.6,M,,*66
$PYRTM,2024,125.167619362106,16.277266772257
$GPGGA,040121.00,3511.8017,N,12148.7168,W,1,09,0.8,10.5,M,-32.6,M,,*69
$PYRTM,2024,125.167630942454,16.277278352593
$GPGGA,040122.00,3511.8020,N,12148.7168,W,1,09,0.8,10.6,M,-32.6,M,,*6D
$PYRTM,2024,125.167642509329,16.277289919468
$GPGGA,040123.00,3511.8026,N,12148.7171,W,1,09,0.8,10.7,M,-32.6,M,,*63
$PYRTM,2024,125.167654095718,16.277301505856
$GPGGA,040124.00,3511.8031,N,12148.7178,W,1,09,0.8,10.3,M,-32.6,M,,*6F
$PYRTM,2024,125.167665656539,16.277313066678
$GPGGA,040125.00,3511.8034,N,12148.7186,W,1,09,0.8,9.7,M,-32.6,M,,*56
$PYRTM,2024,125.167673062523,16.277320472662
$GPGGA,040126.00,3511.8034,N,12148.7189,W,1,09,0.8,9.6,M,-32.6,M,,*5B
$PYRTM,2024,125.167688806123,16.277336216273
$GPGGA,040127.00,3511.8035,N,12148.7189,W,1,09,0.8,9.7,M,-32.6,M,,*5A
$PYRTM,2024,125.167696212477,16.277343622616
$GPGGA,040128.00,3511.8042,N,12148.7190,W,1,09,0.8,9.8,M,-32.6,M,,*52
$PYRTM,2024,125.167707903183,16.277355313322
$GPGGA,040129.00,3511.8049,N,12148.7195,W,1,09,0.8,9.7,M,-32.6,M,,*52
$PYRTM,2024,125.167723540995,16.277370951134
$GPGGA,040130.00,3511.8052,N,12148.7201,W,1,09,0.8,9.4,M,-32.6,M,,*5D
$PYRTM,2024,125.167735101782,16.277382511921
$GPGGA,040131.00,3511.8051,N,12148.7207,W,1,09,0.8,9.3,M,-32.6,M,,*5E
$PYRTM,2024,125.167746688958,16.277394099097
$GPGGA,040132.00,3511.8052,N,12148.7212,W,1,09,0.8,9.4,M,-32.6,M,,*5D
$PYRTM,2024,125.167758249502,16.277405659641
$GPGGA,040133.00,3511.8057,N,12148.7213,W,1,09,0.8,9.5,M,-32.6,M,,*59
$PYRTM,2024,125.167765656100,16.277413066238
$GPGGA,040134.00,3511.8064,N,12148.7213,W,1,09,0.8,9.6,M,-32.6,M,,*5D
$PYRTM,2024,125.167781405775,16.277428815914
$GPGGA,040135.00,3511.8069,N,12148.7218,W,1,09,0.8,9.5,M,-32.6,M,,*59
$PYRTM,2024,125.167792985255,16.277440395394
$GPGGA,040136.00,3511.8070,N,12148.7227,W,1,09,0.8,9.2,M,-32.6,M,,*59
$PYRTM,2024,125.167804559097,16.277451969236
$GPGGA,040137.00,3511.8069,N,12148.7233,W,1,09,0.8,9.1,M,-32.6,M,,*56
$PYRTM,2024,125.167816135440,16.277463545579
$GPGGA,040138.00,3511.8073,N,12148.7234,W,1,09,0.8,9.2,M,-32.6,M,,*56
$PYRTM,2024,125.167827709468,16.277475119606
$GPGGA,040139.00,3511.8080,N,12148.7233,W,1,09,0.8,9.2,M,-32.6,M,,*5C
$PYRTM,2024,125.167839285463,16.277486695602
$GPGGA,040140.00,3511.8087,N,12148.7237,W,1,09,0.8,9.1,M,-32.6,M,,*52
$PYRTM,2024,125.167850958229,16.277498368368
$GPGGA,040141.00,3511.8087,N,12148.7244,W,1,09,0.8,9.0,M,-32.6,M,,*56
$PYRTM,2024,125.167858251366,16.277505661505
$GPGGA,040142.00,3511.8086,N,12148.7251,W,1,09,0.8,9.0,M,-32.6,M,,*50
$PYRTM,2024,125.167874105937,16.277521516076
$GPGGA,040143.00,3511.8088,N,12148.7254,W,1,09,0.8,9.1,M,-32.6,M,,*5B
$PYRTM,2024,125.167885693854,16.277533103993
$GPGGA,040144.00,3511.8094,N,12148.7254,W,1,09,0.8,9.3,M,-32.6,M,,*53
$PYRTM,2024,125.167897255440,16.277544665579
$GPGGA,040145.00,3511.8102,N,12148.7256,W,1,09,0.8,9.2,M,-32.6,M,,*5F
$PYRTM,2024,125.167908727176,16.277556137315
$GPGGA,040146.00,3511.8107,N,12148.7262,W,1,09,0.8,8.8,M,-32.6,M,,*55
$PYRTM,2024,125.167916135069,16.277563545208
$GPGGA,040147.00,3511.8106,N,12148.7270,W,1,09,0.8,8.6,M,-32.6,M,,*58
$PYRTM,2024,125.167934767986,16.277582178137
$GPGGA,040148.00,3511.8105,N,12148.7275,W,1,09,0.8,8.8,M,-32.6,M,,*5F
$PYRTM,2024,125.167943448229,16.277590858368
$GPGGA,040149.00,3511.8109,N,12148.7276,W,1,09,0.8,8.9,M,-32.6,M,,*50
$PYRTM,2024,125.167950842720,16.277598252859
$GPGGA,040150.00,3511.8117,N,12148.7278,W,1,09,0.8,8.8,M,-32.6,M,,*58
$PYRTM,2024,125.167966593183,16.277614003322
$GPGGA,040151.00,3511.8125,N,12148.7282,W,1,09,0.8,8.4,M,-32.6,M,,*51
$PYRTM,2024,125.167978172118,16.277625582257
$GPGGA,040152.00,3511.8127,N,12148.7288,W,1,09,0.8,7.9,M,-32.6,M,,*58
$PYRTM,2024,125.167989740914,16.277637151053
$GPGGA,040153.00,3511.8125,N,12148.7295,W,1,09,0.8,7.9,M,-32.6,M,,*57
$PYRTM,2024,125.168001334815,16.277648744954
$GPGGA,040154.00,3511.8125,N,12148.7300,W,1,09,0.8,8.0,M,-32.6,M,,*5B
$PYRTM,2024,125.168008714456,16.277656124595
$GPGGA,040155.00,3511.8130,N,12148.7302,W,1,09,0.8,8.1,M,-32.6,M,,*5D
$PYRTM,2024,125.168024470741,16.277671880880
$GPGGA,040156.00,3511.8137,N,12148.7305,W,1,09,0.8,8.2,M,-32.6,M,,*5D
$PYRTM,2024,125.168036037338,16.277683447477
$GPGGA,040157.00,3511.8142,N,12148.7309,W,1,09,0.8,8.3,M,-32.6,M,,*53
$PYRTM,2024,125.168043435880,16.277690846019
$GPGGA,040158.00,3511.8143,N,12148.7315,W,1,09,0.8,8.3,M,-32.6,M,,*50
$PYRTM,2024,125.168059185035,16.277706595174
$GPGGA,040159.00,3511.8144,N,12148.7320,W,1,09,0.8,8.4,M,-32.6,M,,*57
$PYRTM,2024,125.168070766921,16.277718177060
$GPGGA,040200.00,3511.8146,N,12148.7323,W,1,09,0.8,8.5,M,-32.6,M,,*58
$PYRTM,2024,125.168082339850,16.277729749988
$GPGGA,040201.00,3511.8151,N,12148.7326,W,1,09,0.8,8.7,M,-32.6,M,,*58
$PYRTM,2024,125.168093913634,16.277741323773
$GPGGA,040202.00,3511.8157,N,12148.7331,W,1,09,0.8,8.5,M,-32.6,M,,*59
$PYRTM,2024,125.168101309282,16.277748719433
$GPGGA,040203.00,3511.8160,N,12148.7336,W,1,09,0.8,8.4,M,-32.6,M,,*5A
$PYRTM,2024,125.168117061794,16.277764471933
$GPGGA,040204.00,3511.8161,N,12148.7339,W,1,09,0.8,8.5,M,-32.6,M,,*52
$PYRTM,2024,125.168128637431,16.277776047569
$GPGGA,040205.00,3511.8163,N,12148.7342,W,1,09,0.8,8.6,M,-32.6,M,,*5E
$PYRTM,2024,125.168136029016,16.277783439155
$GPGGA,040206.00,3511.8168,N,12148.7348,W,1,09,0.8,8.4,M,-32.6,M,,*5E
$PYRTM,2024,125.168151783877,16.277799194016
$GPGGA,040207.00,3511.8172,N,12148.7352,W,1,09,0.8,8.2,M,-32.6,M,,*59
$PYRTM,2024,125.168163358206,16.277810768345
$GPGGA,040208.00,3511.8173,N,12148.7356,W,1,09,0.8,8.3,M,-32.6,M,,*52
$PYRTM,2024,125.168170753044,16.277818163183
$GPGGA,040209.00,3511.8172,N,12148.7360,W,1,09,0.8,8.3,M,-32.6,M,,*57
$PYRTM,2024,125.168186520729,16.277833930868
$GPGGA,040210.00,3511.8176,N,12148.7366,W,1,09,0.8,8.5,M,-32.6,M,,*5B
$PYRTM,2024,125.168198079919,16.277845490058
$GPGGA,040211.00,3511.8183,N,12148.7370,W,1,09,0.8,8.4,M,-32.6,M,,*56
$PYRTM,2024,125.168209654398,16.277857064537
$GPGGA,040212.00,3511.8188,N,12148.7372,W,1,09,0.8,8.4,M,-32.6,M,,*5C
$PYRTM,2024,125.168221229086,16.277868639225
$GPGGA,040213.00,3511.8189,N,12148.7375,W,1,09,0.8,8.5,M,-32.6,M,,*5A
$PYRTM,2024,125.168232802616,16.277880212766
$GPGGA,040214.00,3511.8187,N,12148.7382,W,1,09,0.8,8.6,M,-32.6,M,,*58
$PYRTM,2024,125.168244371782,16.277891781933
$GPGGA,040215.00,3511.8190,N,12148.7389,W,1,09,0.8,8.6,M,-32.6,M,,*54
$PYRTM,2024,125.168255951227,16.277903361366
$GPGGA,040216.00,3511.8197,N,12148.7391,W,1,09,0.8,8.5,M,-32.6,M,,*5A
$PYRTM,2024,125.168263345694,16.277910755833
$GPGGA,040217.00,3511.8203,N,12148.7390,W,1,09,0.8,8.6,M,-32.6,M,,*57
$PYRTM,2024,125.168275037419,16.277922447558
$GPGGA,040218.00,3511.8205,N,12148.7393,W,1,09,0.8,8.6,M,-32.6,M,,*5D
$PYRTM,2024,125.168293554595,16.277940964734
$GPGGA,040219.00,3511.8205,N,12148.7400,W,1,09,0.8,8.7,M,-32.6,M,,*50
$PYRTM,2024,125.168305141019,16.277952551157
$GPGGA,040220.00,3511.8206,N,12148.7408,W,1,09,1.0,8.8,M,-32.6,M,,*57
$PYRTM,2024,125.168316702627,16.277964112766
$GPGGA,040221.00,3511.8210,N,12148.7411,W,1,09,0.8,8.9,M,-32.6,M,,*51
$PYRTM,2024,125.168325399549,16.277972809688
$GPGGA,040222.00,3511.8215,N,12148.7413,W,1,09,0.8,9.0,M,-32.6,M,,*5D
$PYRTM,2024,125.168332791586,16.277980201725
$GPGGA,040223.00,3511.8219,N,12148.7415,W,1,09,1.0,9.1,M,-32.6,M,,*5E
$PYRTM,2024,125.168348546632,16.277995956771
$GPGGA,040224.00,3511.8222,N,12148.7421,W,1,09,1.0,9.2,M,-32.6,M,,*55
$PYRTM,2024,125.168360118241,16.278007528380
$GPGGA,040225.00,3511.8224,N,12148.7427,W,1,09,1.0,9.3,M,-32.6,M,,*55
$PYRTM,2024,125.168371695220,16.278019105359
$GPGGA,040226.00,3511.8227,N,12148.7431,W,1,09,0.8,9.4,M,-32.6,M,,*5C
$PYRTM,2024,125.168383268495,16.278030678646
$GPGGA,040227.00,3511.8231,N,12148.7433,W,1,09,1.0,9.5,M,-32.6,M,,*50
$PYRTM,2024,125.168390661875,16.278038072014
$GPGGA,040228.00,3511.8235,N,12148.7437,W,1,09,1.0,9.5,M,-32.6,M,,*5F
$PYRTM,2024,125.168406414664,16.278053824803
$GPGGA,040229.00,3511.8239,N,12148.7442,W,1,09,0.8,9.5,M,-32.6,M,,*59
$PYRTM,2024,125.168417988843,16.278065398981
$GPGGA,040230.00,3511.8241,N,12148.7447,W,1,09,0.8,9.5,M,-32.6,M,,*5B
$PYRTM,2024,125.168429562894,16.278076973032
$GPGGA,040231.00,3511.8244,N,12148.7450,W,1,09,0.8,9.6,M,-32.6,M,,*5A
$PYRTM,2024,125.168441138796,16.278088548935
$GPGGA,040232.00,3511.8250,N,12148.7452,W,1,09,1.0,9.9,M,-32.6,M,,*58
$PYRTM,2024,125.168452711447,16.278100121597
$GPGGA,040233.00,3511.8255,N,12148.7457,W,1,09,1.0,9.6,M,-32.6,M,,*56
$PYRTM,2024,125.168460106771,16.278107516921
$GPGGA,040234.00,3511.8257,N,12148.7465,W,1,09,1.0,9.6,M,-32.6,M,,*52
$PYRTM,2024,125.168475856146,16.278123266285
$GPGGA,040235.00,3511.8258,N,12148.7470,W,1,09,1.0,9.8,M,-32.6,M,,*56
$PYRTM,2024,125.168487436042,16.278134846181
$GPGGA,040236.00,3511.8261,N,12148.7472,W,1,09,1.0,10.0,M,-32.6,M,,*6D
$PYRTM,2024,125.168499003414,16.278146413553
$GPGGA,040237.00,3511.8267,N,12148.7475,W,1,09,1.0,9.8,M,-32.6,M,,*5D
$PYRTM,2024,125.168510596794,16.278158006933
$GPGGA,040238.00,3511.8273,N,12148.7480,W,1,09,1.0,9.5,M,-32.6,M,,*50
$PYRTM,2024,125.168522156308,16.278169566447
$GPGGA,040239.00,3511.8273,N,12148.7485,W,1,09,1.0,9.5,M,-32.6,M,,*54
$PYRTM,2024,125.168533730243,16.278181140382
$GPGGA,040240.00,3511.8274,N,12148.7489,W,1,09,1.0,9.6,M,-32.6,M,,*52
$PYRTM,2024,125.168545304329,16.278192714468
$GPGGA,040241.00,3511.8278,N,12148.7491,W,1,09,1.0,9.7,M,-32.6,M,,*57
$PYRTM,2024,125.168556879410,16.278204289560
$GPGGA,040242.00,3511.8285,N,12148.7493,W,1,09,1.0,9.6,M,-32.6,M,,*55
$PYRTM,2024,125.168564285972,16.278211696111
$GPGGA,040243.00,3511.8291,N,12148.7498,W,1,09,1.0,9.3,M,-32.6,M,,*5F
$PYRTM,2024,125.168580029514,16.278227439653
$GPGGA,040244.00,3511.8291,N,12148.7504,W,1,09,1.0,9.1,M,-32.6,M,,*5E
$PYRTM,2024,125.168591602326,16.278239012465
$GPGGA,040245.00,3511.8291,N,12148.7508,W,1,09,1.0,9.3,M,-32.6,M,,*51
$PYRTM,2024,125.168598996331,16.278246406470
$GPGGA,040246.00,3511.8296,N,12148.7511,W,1,09,1.0,9.4,M,-32.6,M,,*5A
$PYRTM,2024,125.168614748947,16.278262159086
$GPGGA,040247.00,3511.8303,N,12148.7514,W,1,09,1.0,9.4,M,-32.6,M,,*53
$PYRTM,2024,125.168626323275,16.278273733414
$GPGGA,040248.00,3511.8309,N,12148.7518,W,1,09,1.0,9.2,M,-32.6,M,,*5C
$PYRTM,2024,125.168633718206,16.278281128356
$GPGGA,040249.00,3511.8313,N,12148.7522,W,1,09,1.0,9.1,M,-32.6,M,,*5C
$PYRTM,2024,125.168652365706,16.278299775845
$GPGGA,040250.00,3511.8313,N,12148.7528,W,1,09,1.0,9.1,M,-32.6,M,,*5E
$PYRTM,2024,125.168661046065,16.278308456204
$GPGGA,040251.00,3511.8315,N,12148.7532,W,1,09,1.0,9.2,M,-32.6,M,,*51
$PYRTM,2024,125.168672634815,16.278320044954
$GPGGA,040252.00,3511.8320,N,12148.7535,W,1,09,1.0,9.3,M,-32.6,M,,*52
$PYRTM,2024,125.168684194896,16.278331605035
$GPGGA,040253.00,3511.8327,N,12148.7536,W,1,09,1.0,9.4,M,-32.6,M,,*50
$PYRTM,2024,125.168695771644,16.278343181782
$GPGGA,040254.00,3511.8331,N,12148.7540,W,1,09,1.0,9.5,M,-32.6,M,,*50
$PYRTM,2024,125.168703162836,16.278350572975
$GPGGA,040255.00,3511.8332,N,12148.7548,W,1,09,1.0,9.5,M,-32.6,M,,*5A
$PYRTM,2024,125.168715323264,16.278362733403
$GPGGA,040256.00,3511.8332,N,12148.7556,W,1,09,1.0,9.6,M,-32.6,M,,*55
$PYRTM,2024,125.168730486435,16.278377896574
$GPGGA,040257.00,3511.8334,N,12148.7561,W,1,09,1.0,9.6,M,-32.6,M,,*56
$PYRTM,2024,125.168742064699,16.278389474838
$GPGGA,040258.00,3511.8341,N,12148.7560,W,1,09,1.0,9.9,M,-32.6,M,,*55
$PYRTM,2024,125.168749475000,16.278396885139
$GPGGA,040259.00,3511.8347,N,12148.7561,W,1,09,1.0,10.1,M,-32.6,M,,*63
$PYRTM,2024,125.168765212500,16.278412622639
$GPGGA,040300.00,3511.8350,N,12148.7568,W,1,09,1.0,10.1,M,-32.6,M,,*61
$PYRTM,2024,125.168776781991,16.278424192130
$GPGGA,040301.00,3511.8350,N,12148.7579,W,1,09,1.0,9.8,M,-32.6,M,,*51
$PYRTM,2024,125.168788361771,16.278435771910
$GPGGA,040302.00,3511.8351,N,12148.7586,W,1,09,1.0,9.8,M,-32.6,M,,*53
$PYRTM,2024,125.168799936944,16.278447347083
$GPGGA,040303.00,3511.8357,N,12148.7585,W,1,09,1.0,10.1,M,-32.6,M,,*66
$PYRTM,2024,125.168811514352,16.278458924491
$GPGGA,040304.00,3511.8365,N,12148.7585,W,1,09,1.0,10.3,M,-32.6,M,,*62
$PYRTM,2024,125.168823078611,16.278470488750
$GPGGA,040305.00,3511.8370,N,12148.7591,W,1,09,1.0,10.2,M,-32.6,M,,*63
$PYRTM,2024,125.168834673194,16.278482083333
$GPGGA,040306.00,3511.8370,N,12148.7600,W,1,09,1.0,10.0,M,-32.6,M,,*69
$PYRTM,2024,125.168846232083,16.278493642222
$GPGGA,040307.00,3511.8369,N,12148.7605,W,1,09,1.0,10.0,M,-32.6,M,,*65
$PYRTM,2024,125.168857806215,16.278505216354
$GPGGA,040308.00,3511.8373,N,12148.7604,W,1,09,1.0,10.1,M,-32.6,M,,*61
$PYRTM,2024,125.168869380845,16.278516790984
$GPGGA,040309.00,3511.8382,N,12148.7604,W,1,09,1.0,10.0,M,-32.6,M,,*6F
$PYRTM,2024,125.168880955370,16.278528365521
$GPGGA,040310.00,3511.8388,N,12148.7610,W,1,09,1.0,9.5,M,-32.6,M,,*55
$PYRTM,2024,125.168892528900,16.278539939039
$GPGGA,040311.00,3511.8388,N,12148.7617,W,1,09,1.0,9.2,M,-32.6,M,,*54
$PYRTM,2024,125.168899923044,16.278547333194
$GPGGA,040312.00,3511.8386,N,12148.7620,W,1,09,1.0,9.3,M,-32.6,M,,*5C
$PYRTM,2024,125.168915671574,16.278563081713
$GPGGA,040313.00,3511.8389,N,12148.7622,W,1,09,1.0,9.8,M,-32.6,M,,*5B
$PYRTM,2024,125.168927245868,16.278574656007
$GPGGA,040314.00,3511.8397,N,12148.7625,W,1,09,1.0,9.9,M,-32.6,M,,*55
$PYRTM,2024,125.168934646296,16.278582056435
$GPGGA,040315.00,3511.8403,N,12148.7630,W,1,09,1.0,10.0,M,-32.6,M,,*6B
$PYRTM,2024,125.168950399005,16.278597809144
$GPGGA,040316.00,3511.8404,N,12148.7636,W,1,09,1.0,10.2,M,-32.6,M,,*6B
$PYRTM,2024,125.168961968229,16.278609378368
$GPGGA,040317.00,3511.8403,N,12148.7640,W,1,09,1.0,10.3,M,-32.6,M,,*6D
$PYRTM,2024,125.168969369421,16.278616779560
$GPGGA,040318.00,3511.8407,N,12148.7643,W,1,09,1.0,10.4,M,-32.6,M,,*62
$PYRTM,2024,125.168985116181,16.278632526319
$GPGGA,040319.00,3511.8414,N,12148.7647,W,1,09,1.0,10.3,M,-32.6,M,,*62
$PYRTM,2024,125.168992517581,16.278639927720
$GPGGA,040320.00,3511.8419,N,12148.7652,W,1,09,1.0,10.0,M,-32.6,M,,*62
$PYRTM,2024,125.169011151157,16.278658561296
$GPGGA,040321.00,3511.8420,N,12148.7657,W,1,09,1.0,9.9,M,-32.6,M,,*5D
$PYRTM,2024,125.169019859236,16.278667269375
$GPGGA,040322.00,3511.8420,N,12148.7661,W,1,09,1.0,10.0,M,-32.6,M,,*6A
$PYRTM,2024,125.169031417662,16.278678827801
$GPGGA,040323.00,3511.8424,N,12148.7663,W,1,09,1.0,10.2,M,-32.6,M,,*6F
$PYRTM,2024,125.169038814144,16.278686224282
$GPGGA,040324.00,3511.8430,N,12148.7667,W,1,09,1.0,10.1,M,-32.6,M,,*6A
$PYRTM,2024,125.169054566389,16.278701976528
$GPGGA,040325.00,3511.8436,N,12148.7673,W,1,09,1.0,9.5,M,-32.6,M,,*54
$PYRTM,2024,125.169066140012,16.278713550150
$GPGGA,040326.00,3511.8439,N,12148.7676,W,1,09,1.0,9.2,M,-32.6,M,,*5A
$PYRTM,2024,125.169073548958,16.278720959097
$GPGGA,040327.00,3511.8439,N,12148.7678,W,1,09,1.0,9.4,M,-32.6,M,,*53
$PYRTM,2024,125.169089292986,16.278736703125
$GPGGA,040328.00,3511.8441,N,12148.7681,W,1,09,1.0,9.5,M,-32.6,M,,*54
$PYRTM,2024,125.169100863102,16.278748273241
$GPGGA,040329.00,3511.8446,N,12148.7686,W,1,09,1.0,9.6,M,-32.6,M,,*56
$PYRTM,2024,125.169112438553,16.278759848692
$GPGGA,040330.00,3511.8451,N,12148.7690,W,1,09,1.0,9.6,M,-32.6,M,,*5F
$PYRTM,2024,125.169124012199,16.278771422338
$GPGGA,040331.00,3511.8455,N,12148.7692,W,1,09,1.0,9.7,M,-32.6,M,,*59
$PYRTM,2024,125.169135599329,16.278783009468
$GPGGA,040332.00,3511.8458,N,12148.7695,W,1,09,1.0,9.8,M,-32.6,M,,*5F
$PYRTM,2024,125.169147161146,16.278794571285
$GPGGA,040333.00,3511.8460,N,12148.7700,W,1,09,1.0,9.9,M,-32.6,M,,*59
$PYRTM,2024,125.169158737280,16.278806147419
$GPGGA,040334.00,3511.8462,N,12148.7705,W,1,09,1.0,10.0,M,-32.6,M,,*68
$PYRTM,2024,125.169170307708,16.278817717847
$GPGGA,040335.00,3511.8464,N,12148.7708,W,1,09,1.0,10.1,M,-32.6,M,,*63
$PYRTM,2024,125.169177702928,16.278825113067
$GPGGA,040336.00,3511.8468,N,12148.7711,W,1,09,1.0,10.3,M,-32.6,M,,*66
$PYRTM,2024,125.169193456123,16.278840866262
$GPGGA,040337.00,3511.8474,N,12148.7714,W,1,09,1.0,10.2,M,-32.6,M,,*6E
$PYRTM,2024,125.169205031863,16.278852442002
$GPGGA,040338.00,3511.8479,N,12148.7718,W,1,09,1.0,10.1,M,-32.6,M,,*63
$PYRTM,2024,125.169216605613,16.278864015752
$GPGGA,040339.00,3511.8480,N,12148.7723,W,1,09,1.0,10.2,M,-32.6,M,,*6F
$PYRTM,2024,125.169228174479,16.278875584618
$GPGGA,040340.00,3511.8479,N,12148.7728,W,1,09,1.0,10.4,M,-32.6,M,,*6A
$PYRTM,2024,125.169239750880,16.278887161019
$GPGGA,040341.00,3511.8481,N,12148.7731,W,1,09,1.0,10.4,M,-32.6,M,,*64
$PYRTM,2024,125.169251328646,16.278898738785
$GPGGA,040342.00,3511.8486,N,12148.7733,W,1,09,1.0,10.6,M,-32.6,M,,*60
$PYRTM,2024,125.169262895671,16.278910305810
$GPGGA,040343.00,3511.8492,N,12148.7736,W,1,09,1.0,10.3,M,-32.6,M,,*64
$PYRTM,2024,125.169274475208,16.278921885347
$GPGGA,040344.00,3511.8496,N,12148.7742,W,1,09,1.0,10.0,M,-32.6,M,,*67
$PYRTM,2024,125.169286048206,16.278933458345
$GPGGA,040345.00,3511.8496,N,12148.7748,W,1,09,1.0,9.9,M,-32.6,M,,*5D
$PYRTM,2024,125.169297622986,16.278945033125
$GPGGA,040346.00,3511.8498,N,12148.7751,W,1,09,1.0,10.1,M,-32.6,M,,*68
$PYRTM,2024,125.169305018958,16.278952429097
$GPGGA,040347.00,3511.8500,N,12148.7753,W,1,09,1.0,10.2,M,-32.6,M,,*68
$PYRTM,2024,125.169320890046,16.278968300174
$GPGGA,040348.00,3511.8503,N,12148.7759,W,1,09,1.0,10.1,M,-32.6,M,,*6D
$PYRTM,2024,125.169332449711,16.278979859850
$GPGGA,040349.00,3511.8506,N,12148.7767,W,1,09,1.0,10.1,M,-32.6,M,,*64
$PYRTM,2024,125.169339741701,16.278987151840
$GPGGA,040350.00,3511.8509,N,12148.7773,W,1,09,1.0,10.1,M,-32.6,M,,*66
$PYRTM,2024,125.169351546782,16.278998956921
$GPGGA,040351.00,3511.8512,N,12148.7775,W,1,09,1.0,10.5,M,-32.6,M,,*6F
$PYRTM,2024,125.169369975995,16.279017386134
$GPGGA,040352.00,3511.8516,N,12148.7777,W,1,09,1.0,10.8,M,-32.6,M,,*67
$PYRTM,2024,125.169378639005,16.279026049144
$GPGGA,040353.00,3511.8520,N,12148.7782,W,1,09,1.0,11.0,M,-32.6,M,,*60
$PYRTM,2024,125.169390215718,16.279037625856
$GPGGA,040354.00,3511.8521,N,12148.7789,W,1,09,1.0,11.1,M,-32.6,M,,*6C
$PYRTM,2024,125.169401791921,16.279049202060
$GPGGA,040355.00,3511.8523,N,12148.7793,W,1,09,1.0,11.3,M,-32.6,M,,*66
$PYRTM,2024,125.169413364965,16.279060775104
$GPGGA,040356.00,3511.8528,N,12148.7795,W,1,09,1.0,11.4,M,-32.6,M,,*6F
$PYRTM,2024,125.169424938322,16.279072348472
$GPGGA,040357.00,3511.8535,N,12148.7794,W,1,09,1.0,11.5,M,-32.6,M,,*62
$PYRTM,2024,125.169436513796,16.279083923935
$GPGGA,040358.00,3511.8541,N,12148.7796,W,1,09,1.0,11.5,M,-32.6,M,,*6C
$PYRTM,2024,125.169443908056,16.279091318194
$GPGGA,040359.00,3511.8542,N,12148.7803,W,1,09,1.0,11.6,M,-32.6,M,,*6E
$PYRTM,2024,125.169459661308,16.279107071447
$GPGGA,040400.00,3511.8541,N,12148.7810,W,1,09,1.0,11.8,M,-32.6,M,,*6A
$PYRTM,2024,125.169471235405,16.279118645544
$GPGGA,040401.00,3511.8544,N,12148.7812,W,1,09,1.0,11.9,M,-32.6,M,,*6D
$PYRTM,2024,125.169482812535,16.279130222674
$GPGGA,040402.00,3511.8551,N,12148.7814,W,1,09,1.0,11.9,M,-32.6,M,,*6C
$PYRTM,2024,125.169494384051,16.279141794190
$GPGGA,040403.00,3511.8559,N,12148.7818,W,1,09,1.0,11.6,M,-32.6,M,,*66
$PYRTM,2024,125.169505972106,16.279153382234
$GPGGA,040404.00,3511.8561,N,12148.7824,W,1,09,1.0,11.5,M,-32.6,M,,*66
$PYRTM,2024,125.169517531806,16.279164941944
$GPGGA,040405.00,3511.8560,N,12148.7829,W,1,09,1.0,11.7,M,-32.6,M,,*69
$PYRTM,2024,125.169529106817,16.279176516956
$GPGGA,040406.00,3511.8563,N,12148.7833,W,1,09,1.0,11.8,M,-32.6,M,,*6D
$PYRTM,2024,125.169540679907,16.279188090046
$GPGGA,040407.00,3511.8568,N,12148.7836,W,1,09,1.0,11.9,M,-32.6,M,,*63
$PYRTM,2024,125.169552254502,16.279199664641
$GPGGA,040408.00,3511.8574,N,12148.7840,W,1,09,1.0,11.8,M,-32.6,M,,*61
$PYRTM,2024,125.169563823380,16.279211233519
$GPGGA,040409.00,3511.8578,N,12148.7846,W,1,09,1.0,11.6,M,-32.6,M,,*64
$PYRTM,2024,125.169571223368,16.279218633507
$GPGGA,040410.00,3511.8579,N,12148.7850,W,1,09,1.0,11.6,M,-32.6,M,,*6A
$PYRTM,2024,125.169586977037,16.279234387176
$GPGGA,040411.00,3511.8580,N,12148.7853,W,1,09,1.0,11.7,M,-32.6,M,,*6F
$PYRTM,2024,125.169598555023,16.279245965150
$GPGGA,040412.00,3511.8585,N,12148.7855,W,1,09,1.0,11.9,M,-32.6,M,,*61
$PYRTM,2024,125.169610124965,16.279257535104
$GPGGA,040413.00,3511.8591,N,12148.7859,W,1,09,1.0,12.0,M,-32.6,M,,*63
$PYRTM,2024,125.169621699225,16.279269109363
$GPGGA,040414.00,3511.8594,N,12148.7865,W,1,09,1.0,11.7,M,-32.6,M,,*6A
$PYRTM,2024,125.169629094051,16.279276504190
$GPGGA,040415.00,3511.8595,N,12148.7872,W,1,09,1.0,11.6,M,-32.6,M,,*6D
$PYRTM,2024,125.169644847361,16.279292257500
$GPGGA,040416.00,3511.8597,N,12148.7876,W,1,09,1.0,11.8,M,-32.6,M,,*66
$PYRTM,2024,125.169656421285,16.279303831424
$GPGGA,040417.00,3511.8602,N,12148.7877,W,1,09,1.0,12.0,M,-32.6,M,,*62
$PYRTM,2024,125.169663816146,16.279311226285
$GPGGA,040418.00,3511.8608,N,12148.7878,W,1,09,1.0,12.0,M,-32.6,M,,*68
$PYRTM,2024,125.169679569537,16.279326979676
$GPGGA,040419.00,3511.8613,N,12148.7882,W,1,09,1.0,12.0,M,-32.6,M,,*66
$PYRTM,2024,125.169691144028,16.279338554167
$GPGGA,040420.00,3511.8614,N,12148.7890,W,1,09,1.0,11.8,M,-32.6,M,,*63
$PYRTM,2024,125.169698554294,16.279345964433
$GPGGA,040421.00,3511.8615,N,12148.7897,W,1,09,1.0,11.8,M,-32.6,M,,*64
$PYRTM,2024,125.169710228426,16.279357638565
$GPGGA,040422.00,3511.8619,N,12148.7900,W,1,09,1.0,11.8,M,-32.6,M,,*64
$PYRTM,2024,125.169728747535,16.279376157674
$GPGGA,040423.00,3511.8626,N,12148.7901,W,1,09,1.0,11.8,M,-32.6,M,,*68
$PYRTM,2024,125.169737441910,16.279384852049
$GPGGA,040424.00,3511.8631,N,12148.7903,W,1,09,1.0,11.9,M,-32.6,M,,*6A
$PYRTM,2024,125.169749014028,16.279396424167
$GPGGA,040425.00,3511.8632,N,12148.7910,W,1,09,1.0,12.1,M,-32.6,M,,*61
$PYRTM,2024,125.169760588183,16.279407998322
$GPGGA,040426.00,3511.8633,N,12148.7919,W,1,09,1.0,12.2,M,-32.6,M,,*69
$PYRTM,2024,125.169772157697,16.279419567836
$GPGGA,040427.00,3511.8636,N,12148.7926,W,1,09,1.0,12.1,M,-32.6,M,,*62
$PYRTM,2024,125.169783740301,16.279431150440
$GPGGA,040428.00,3511.8641,N,12148.7928,W,1,09,1.0,12.2,M,-32.6,M,,*60
$PYRTM,2024,125.169791132025,16.279438542164
$GPGGA,040429.00,3511.8646,N,12148.7928,W,1,09,1.0,12.4,M,-32.6,M,,*60
$PYRTM,2024,125.169806889294,16.279454299433
$GPGGA,040430.00,3511.8650,N,12148.7931,W,1,09,1.0,12.4,M,-32.6,M,,*67
$PYRTM,2024,125.169814281354,16.279461691493
$GPGGA,040431.00,3511.8653,N,12148.7938,W,1,09,1.0,12.2,M,-32.6,M,,*6A
$PYRTM,2024,125.169830036748,16.279477446887
$GPGGA,040432.00,3511.8655,N,12148.7945,W,1,09,1.0,11.8,M,-32.6,M,,*6C
$PYRTM,2024,125.169841610208,16.279489020347
$GPGGA,040433.00,3511.8659,N,12148.7948,W,1,10,0.8,12.3,M,-32.6,M,,*65
$PYRTM,2024,125.169853184190,16.279500594317
$GPGGA,040434.00,3511.8664,N,12148.7947,W,1,10,0.8,12.8,M,-32.6,M,,*68
$PYRTM,2024,125.169864756609,16.279512166748
$GPGGA,040435.00,3511.8668,N,12148.7950,W,1,10,0.8,12.8,M,-32.6,M,,*63
$PYRTM,2024,125.169876329896,16.279523740035
$GPGGA,040436.00,3511.8671,N,12148.7959,W,1,10,0.8,12.4,M,-32.6,M,,*6D
$PYRTM,2024,125.169883740799,16.279531150938
$GPGGA,040437.00,3511.8673,N,12148.7970,W,1,10,0.8,11.0,M,-32.6,M,,*62
$PYRTM,2024,125.169899478576,16.279546888715
$GPGGA,040438.00,3511.8675,N,12148.7973,W,1,10,0.8,11.4,M,-32.6,M,,*6C
$PYRTM,2024,125.169911052604,16.279558462743
$GPGGA,040439.00,3511.8680,N,12148.7971,W,1,10,0.8,11.7,M,-32.6,M,,*66
$PYRTM,2024,125.169922625868,16.279570036007
$GPGGA,040440.00,3511.8686,N,12148.7974,W,1,10,0.8,11.5,M,-32.6,M,,*69
$PYRTM,2024,125.169934196181,16.279581606319
$GPGGA,040441.00,3511.8689,N,12148.7982,W,1,10,0.8,11.1,M,-32.6,M,,*6A
$PYRTM,2024,125.169941595336,16.279589005475
$GPGGA,040442.00,3511.8689,N,12148.7988,W,1,10,0.8,11.0,M,-32.6,M,,*62
$PYRTM,2024,125.169957349769,16.279604759907
$GPGGA,040443.00,3511.8690,N,12148.7991,W,1,10,0.8,11.3,M,-32.6,M,,*60
$PYRTM,2024,125.169968926435,16.279616336574
$GPGGA,040444.00,3511.8695,N,12148.7993,W,1,10,0.8,11.0,M,-32.6,M,,*63
$PYRTM,2024,125.169980498218,16.279627908356
$GPGGA,040445.00,3511.8701,N,12148.7999,W,1,10,0.8,10.7,M,-32.6,M,,*62
$PYRTM,2024,125.169992086586,16.279639496725
$GPGGA,040446.00,3511.8704,N,12148.8004,W,1,10,0.8,10.6,M,-32.6,M,,*67
$PYRTM,2024,125.170003646562,16.279651056701
$GPGGA,040447.00,3511.8704,N,12148.8007,W,1,10,0.8,10.8,M,-32.6,M,,*6B
$PYRTM,2024,125.170015215208,16.279662625347
$GPGGA,040448.00,3511.8706,N,12148.8011,W,1,10,0.8,11.0,M,-32.6,M,,*68
$PYRTM,2024,125.170026794850,16.279674204988
$GPGGA,040449.00,3511.8711,N,12148.8016,W,1,10,0.8,11.2,M,-32.6,M,,*6A
$PYRTM,2024,125.170038369213,16.279685779352
$GPGGA,040450.00,3511.8716,N,12148.8020,W,1,10,0.8,11.2,M,-32.6,M,,*60
$PYRTM,2024,125.170049939803,16.279697349954
$GPGGA,040451.00,3511.8718,N,12148.8024,W,1,10,0.8,11.3,M,-32.6,M,,*6A
$PYRTM,2024,125.170061517963,16.279708928102
$GPGGA,040452.00,3511.8718,N,12148.8026,W,1,10,0.8,11.2,M,-32.6,M,,*6A
$PYRTM,2024,125.170068913843,16.279716323993
$GPGGA,040453.00,3511.8720,N,12148.8031,W,1,10,0.8,11.5,M,-32.6,M,,*61
$PYRTM,2024,125.170087559479,16.279734969618
$GPGGA,040454.00,3511.8725,N,12148.8035,W,1,10,0.8,11.4,M,-32.6,M,,*66
$PYRTM,2024,125.170096234375,16.279743644514
$GPGGA,040455.00,3511.8731,N,12148.8038,W,1,10,0.8,11.3,M,-32.6,M,,*68
$PYRTM,2024,125.170107815255,16.279755225394
$GPGGA,040456.00,3511.8733,N,12148.8042,W,1,10,0.8,11.2,M,-32.6,M,,*65
$PYRTM,2024,125.170119388241,16.279766798391
$GPGGA,040457.00,3511.8732,N,12148.8048,W,1,10,0.8,11.2,M,-32.6,M,,*6F
$PYRTM,2024,125.170130964213,16.279778374352
$GPGGA,040458.00,3511.8734,N,12148.8053,W,1,10,0.8,11.3,M,-32.6,M,,*6D
$PYRTM,2024,125.170142535532,16.279789945671
$GPGGA,040459.00,3511.8739,N,12148.8054,W,1,10,0.8,11.3,M,-32.6,M,,*66
$PYRTM,2024,125.170149931238,16.279797341377
$GPGGA,040500.00,3511.8746,N,12148.8056,W,1,10,0.8,11.3,M,-32.6,M,,*61
$PYRTM,2024,125.170165686817,16.279813096956
$GPGGA,040501.00,3511.8751,N,12148.8060,W,1,10,0.8,11.4,M,-32.6,M,,*64
$PYRTM,2024,125.170177273646,16.279824683785
$GPGGA,040502.00,3511.8750,N,12148.8066,W,1,10,0.8,11.4,M,-32.6,M,,*60
$PYRTM,2024,125.170184652639,16.279832062778
$GPGGA,040503.00,3511.8750,N,12148.8072,W,1,10,0.8,11.4,M,-32.6,M,,*64
$PYRTM,2024,125.170200401632,16.279847811782
$GPGGA,040504.00,3511.8754,N,12148.8076,W,1,10,0.8,11.4,M,-32.6,M,,*63
$PYRTM,2024,125.170207814502,16.279855224641
$GPGGA,040505.00,3511.8761,N,12148.8077,W,1,10,0.8,11.4,M,-32.6,M,,*65
$PYRTM,2024,125.170223556574,16.279870966713
$GPGGA,040506.00,3511.8767,N,12148.8078,W,1,10,0.8,11.5,M,-32.6,M,,*6E
$PYRTM,2024,125.170235130150,16.279882540301
$GPGGA,040507.00,3511.8768,N,12148.8084,W,1,10,0.8,11.5,M,-32.6,M,,*63
$PYRTM,2024,125.170246705150,16.279894115289
$GPGGA,040508.00,3511.8767,N,12148.8092,W,1,10,0.8,11.5,M,-32.6,M,,*64
$PYRTM,2024,125.170258278889,16.279905689028
$GPGGA,040509.00,3511.8770,N,12148.8097,W,1,10,0.8,11.7,M,-32.6,M,,*64
$PYRTM,2024,125.170269846354,16.279917256493
$GPGGA,040510.00,3511.8777,N,12148.8096,W,1,10,0.8,12.0,M,-32.6,M,,*6E
$PYRTM,2024,125.170281426134,16.279928836273
$GPGGA,040511.00,3511.8783,N,12148.8097,W,1,10,0.8,12.1,M,-32.6,M,,*64
$PYRTM,2024,125.170293015081,16.279940425220
$GPGGA,040512.00,3511.8786,N,12148.8103,W,1,10,0.8,12.2,M,-32.6,M,,*6D
$PYRTM,2024,125.170304575243,16.279951985382
$GPGGA,040513.00,3511.8787,N,12148.8113,W,1,10,0.8,12.0,M,-32.6,M,,*6E
$PYRTM,2024,125.170316162535,16.279963572674
$GPGGA,040514.00,3511.8788,N,12148.8118,W,1,10,0.8,11.8,M,-32.6,M,,*66
$PYRTM,2024,125.170327722303,16.279975132442
$GPGGA,040515.00,3511.8793,N,12148.8118,W,1,10,0.8,11.7,M,-32.6,M,,*62
$PYRTM,2024,125.170339296042,16.279986706192
$GPGGA,040516.00,3511.8799,N,12148.8117,W,1,10,0.8,11.7,M,-32.6,M,,*64
$PYRTM,2024,125.170350870255,16.279998280394
$GPGGA,040517.00,3511.8804,N,12148.8121,W,1,10,0.8,11.4,M,-32.6,M,,*68
$PYRTM,2024,125.170362447245,16.280009857384
$GPGGA,040518.00,3511.8807,N,12148.8128,W,1,10,0.8,11.0,M,-32.6,M,,*69
$PYRTM,2024,125.170374019769,16.280021429907
$GPGGA,040519.00,3511.8808,N,12148.8133,W,1,10,0.8,10.9,M,-32.6,M,,*65
$PYRTM,2024,125.170381413657,16.280028823796
$GPGGA,040520.00,3511.8810,N,12148.8137,W,1,10,0.8,10.9,M,-32.6,M,,*62
$PYRTM,2024,125.170397167083,16.280044577222
$GPGGA,040521.00,3511.8814,N,12148.8140,W,1,10,0.8,11.0,M,-32.6,M,,*6F
$PYRTM,2024,125.170408742546,16.280056152685
$GPGGA,040522.00,3511.8819,N,12148.8143,W,1,10,0.8,11.1,M,-32.6,M,,*63
$PYRTM,2024,125.170420316123,16.280067726273
$GPGGA,040523.00,3511.8824,N,12148.8146,W,1,10,0.8,11.3,M,-32.6,M,,*6B
$PYRTM,2024,125.170427709433,16.280075119572
$GPGGA,040524.00,3511.8827,N,12148.8150,W,1,10,0.8,11.4,M,-32.6,M,,*6F
$PYRTM,2024,125.170446342789,16.280093752917
$GPGGA,040525.00,3511.8829,N,12148.8155,W,1,10,0.8,11.4,M,-32.6,M,,*65
$PYRTM,2024,125.170455037002,16.280102447141
$GPGGA,040526.00,3511.8832,N,12148.8162,W,1,10,0.8,11.2,M,-32.6,M,,*6E
$PYRTM,2024,125.170466611748,16.280114021887
$GPGGA,040527.00,3511.8836,N,12148.8168,W,1,10,0.8,10.9,M,-32.6,M,,*6B
$PYRTM,2024,125.170478189676,16.280125599815
$GPGGA,040528.00,3511.8840,N,12148.8170,W,1,10,0.8,11.0,M,-32.6,M,,*64
$PYRTM,2024,125.170489760139,16.280137170278
$GPGGA,040529.00,3511.8845,N,12148.8169,W,1,10,0.8,11.0,M,-32.6,M,,*68
$PYRTM,2024,125.170497156042,16.280144566192
$GPGGA,040530.00,3511.8851,N,12148.8172,W,1,10,0.8,10.9,M,-32.6,M,,*67
$PYRTM,2024,125.170512903148,16.280160313287
$GPGGA,040531.00,3511.8854,N,12148.8179,W,1,10,0.8,10.8,M,-32.6,M,,*69
$PYRTM,2024,125.170524483414,16.280171893553
$GPGGA,040532.00,3511.8854,N,12148.8187,W,1,10,0.8,10.7,M,-32.6,M,,*64
$PYRTM,2024,125.170536051262,16.280183461400
$GPGGA,040533.00,3511.8857,N,12148.8192,W,1,10,0.8,10.8,M,-32.6,M,,*6D
$PYRTM,2024,125.170547631609,16.280195041748
$GPGGA,040534.00,3511.8862,N,12148.8194,W,1,10,0.8,10.8,M,-32.6,M,,*6A
$PYRTM,2024,125.170555039595,16.280202449734
$GPGGA,040535.00,3511.8868,N,12148.8196,W,1,10,0.8,10.9,M,-32.6,M,,*62
$PYRTM,2024,125.170570779745,16.280218189884
$GPGGA,040536.00,3511.8870,N,12148.8200,W,1,10,0.8,11.0,M,-32.6,M,,*6C
$PYRTM,2024,125.170578173322,16.280225583461
$GPGGA,040537.00,3511.8871,N,12148.8208,W,1,10,0.8,11.0,M,-32.6,M,,*64
$PYRTM,2024,125.170593927685,16.280241337824
$GPGGA,040538.00,3511.8873,N,12148.8216,W,1,10,0.8,11.0,M,-32.6,M,,*66
$PYRTM,2024,125.170605501875,16.280252912014
$GPGGA,040539.00,3511.8878,N,12148.8219,W,1,10,0.8,11.1,M,-32.6,M,,*62
$PYRTM,2024,125.170612896354,16.280260306493
$GPGGA,040540.00,3511.8884,N,12148.8219,W,1,10,0.8,11.4,M,-32.6,M,,*6A
$PYRTM,2024,125.170628651192,16.280276061331
$GPGGA,040541.00,3511.8888,N,12148.8223,W,1,10,0.8,11.6,M,-32.6,M,,*6C
$PYRTM,2024,125.170640227095,16.280287637234
$GPGGA,040542.00,3511.8889,N,12148.8232,W,1,10,0.8,11.5,M,-32.6,M,,*6D
$PYRTM,2024,125.170651802257,16.280299212396
$GPGGA,040543.00,3511.8891,N,12148.8238,W,1,10,0.8,11.5,M,-32.6,M,,*6F
$PYRTM,2024,125.170663373681,16.280310783819
$GPGGA,040544.00,3511.8896,N,12148.8238,W,1,10,0.8,11.5,M,-32.6,M,,*6F
$PYRTM,2024,125.170674945995,16.280322356134
$GPGGA,040545.00,3511.8903,N,12148.8240,W,1,10,0.8,11.5,M,-32.6,M,,*6C
$PYRTM,2024,125.170686516933,16.280333927072
$GPGGA,040546.00,3511.8909,N,12148.8245,W,1,10,0.8,11.1,M,-32.6,M,,*64
$PYRTM,2024,125.170698091192,16.280345501331
$GPGGA,040547.00,3511.8911,N,12148.8251,W,1,10,0.8,10.8,M,-32.6,M,,*61
$PYRTM,2024,125.170709669433,16.280357079572
$GPGGA,040548.00,3511.8912,N,12148.8255,W,1,10,0.8,10.9,M,-32.6,M,,*68
$PYRTM,2024,125.170721245752,16.280368655891
$GPGGA,040549.00,3511.8915,N,12148.8259,W,1,10,0.8,11.0,M,-32.6,M,,*6A
$PYRTM,2024,125.170732817755,16.280380227894
$GPGGA,040550.00,3511.8921,N,12148.8264,W,1,10,0.8,10.8,M,-32.6,M,,*62
$PYRTM,2024,125.170744391655,16.280391801794
$GPGGA,040551.00,3511.8926,N,12148.8268,W,1,10,0.8,10.5,M,-32.6,M,,*65
$PYRTM,2024,125.170751786007,16.280399196146
$GPGGA,040552.00,3511.8929,N,12148.8271,W,1,10,0.8,10.6,M,-32.6,M,,*62
$PYRTM,2024,125.170767534236,16.280414944387
$GPGGA,040553.00,3511.8931,N,12148.8275,W,1,10,0.8,10.6,M,-32.6,M,,*6E
$PYRTM,2024,125.170779230590,16.280426640729
$GPGGA,040554.00,3511.8933,N,12148.8281,W,1,10,0.8,10.7,M,-32.6,M,,*61
$PYRTM,2024,125.170786508576,16.280433918715
$GPGGA,040555.00,3511.8937,N,12148.8286,W,1,10,0.8,10.6,M,-32.6,M,,*62
$PYRTM,2024,125.170805155255,16.280452565394
$GPGGA,040556.00,3511.8942,N,12148.8290,W,1,10,0.8,10.6,M,-32.6,M,,*64
$PYRTM,2024,125.170813831366,16.280461241505
$GPGGA,040557.00,3511.8947,N,12148.8293,W,1,10,0.8,10.7,M,-32.6,M,,*62
$PYRTM,2024,125.170825414711,16.280472824850
$GPGGA,040558.00,3511.8951,N,12148.8297,W,1,10,0.8,10.8,M,-32.6,M,,*61
$PYRTM,2024,125.170836984051,16.280484394190
$GPGGA,040559.00,3511.8954,N,12148.8302,W,1,10,0.8,10.9,M,-32.6,M,,*69
$PYRTM,2024,125.170848559838,16.280495969977
$GPGGA,040600.00,3511.8955,N,12148.8309,W,1,10,0.8,11.0,M,-32.6,M,,*64
$PYRTM,2024,125.170860132060,16.280507542199
$GPGGA,040601.00,3511.8959,N,12148.8313,W,1,10,0.8,11.1,M,-32.6,M,,*63
$PYRTM,2024,125.170871708866,16.280519119016
$GPGGA,040602.00,3511.8965,N,12148.8316,W,1,10,0.8,10.9,M,-32.6,M,,*63
$PYRTM,2024,125.170883281354,16.280530691493
$GPGGA,040603.00,3511.8971,N,12148.8321,W,1,10,0.8,10.5,M,-32.6,M,,*6F
$PYRTM,2024,125.170894856053,16.280542266192
$GPGGA,040604.00,3511.8974,N,12148.8327,W,1,10,0.8,10.2,M,-32.6,M,,*6C
$PYRTM,2024,125.170906424641,16.280553834780
$GPGGA,040605.00,3511.8976,N,12148.8330,W,1,10,0.8,10.2,M,-32.6,M,,*69
$PYRTM,2024,125.170918004398,16.280565414537
$GPGGA,040606.00,3511.8979,N,12148.8332,W,1,10,0.8,10.3,M,-32.6,M,,*66
$PYRTM,2024,125.170925399456,16.280572809595
$GPGGA,040607.00,3511.8984,N,12148.8337,W,1,10,0.8,10.4,M,-32.6,M,,*67
$PYRTM,2024,125.170944045324,16.280591455475
$GPGGA,040608.00,3511.8988,N,12148.8345,W,1,10,0.8,10.0,M,-32.6,M,,*65
$PYRTM,2024,125.170952727095,16.280600137234
$GPGGA,040609.00,3511.8990,N,12148.8352,W,1,10,0.8,9.6,M,-32.6,M,,*55
$PYRTM,2024,125.170964303009,16.280611713148
$GPGGA,040610.00,3511.8993,N,12148.8352,W,1,10,0.8,9.7,M,-32.6,M,,*5F
$PYRTM,2024,125.170975874838,16.280623284988
$GPGGA,040611.00,3511.8999,N,12148.8351,W,1,10,0.8,9.8,M,-32.6,M,,*58
$PYRTM,2024,125.170987451412,16.280634861551
$GPGGA,040612.00,3511.9006,N,12148.8355,W,1,10,0.8,9.7,M,-32.6,M,,*5E
$PYRTM,2024,125.170999022685,16.280646432824
$GPGGA,040613.00,3511.9009,N,12148.8364,W,1,10,0.8,9.2,M,-32.6,M,,*57
$PYRTM,2024,125.171010597269,16.280658007407
$GPGGA,040614.00,3511.9010,N,12148.8372,W,1,10,0.8,8.9,M,-32.6,M,,*55
$PYRTM,2024,125.171022170150,16.280669580289
$GPGGA,040615.00,3511.9014,N,12148.8375,W,1,10,0.8,8.9,M,-32.6,M,,*57
$PYRTM,2024,125.171033745613,16.280681155752
$GPGGA,040616.00,3511.9021,N,12148.8374,W,1,10,0.8,9.3,M,-32.6,M,,*58
$PYRTM,2024,125.171045319572,16.280692729711
$GPGGA,040617.00,3511.9028,N,12148.8374,W,1,10,0.8,9.7,M,-32.6,M,,*54
$PYRTM,2024,125.171056893704,16.280704303843
$GPGGA,040618.00,3511.9032,N,12148.8380,W,1,10,0.8,9.5,M,-32.6,M,,*59
$PYRTM,2024,125.171068469097,16.280715879248
$GPGGA,040619.00,3511.9034,N,12148.8390,W,1,10,0.8,8.6,M,-32.6,M,,*5D
$PYRTM,2024,125.171080042431,16.280727452569
$GPGGA,040620.00,3511.9035,N,12148.8397,W,1,10,0.8,8.1,M,-32.6,M,,*56
$PYRTM,2024,125.171091616586,16.280739026725
$GPGGA,040621.00,3511.9039,N,12148.8398,W,1,10,0.8,8.1,M,-32.6,M,,*54
$PYRTM,2024,125.171103185208,16.280750595347
$GPGGA,040622.00,3511.9045,N,12148.8396,W,1,10,0.8,8.4,M,-32.6,M,,*57
$PYRTM,2024,125.171114763275,16.280762173414
$GPGGA,040623.00,3511.9050,N,12148.8399,W,1,10,0.8,8.6,M,-32.6,M,,*5F
$PYRTM,2024,125.171126353194,16.280773763333
$GPGGA,040624.00,3511.9053,N,12148.8407,W,1,10,0.8,8.3,M,-32.6,M,,*5E
$PYRTM,2024,125.171137913264,16.280785323403
$GPGGA,040625.00,3511.9056,N,12148.8418,W,1,10,0.8,7.7,M,-32.6,M,,*5F
$PYRTM,2024,125.171145306655,16.280792716794
$GPGGA,040626.00,3511.9058,N,12148.8421,W,1,10,0.8,7.5,M,-32.6,M,,*5A
$PYRTM,2024,125.171163940694,16.280811350833
$GPGGA,040627.00,3511.9062,N,12148.8419,W,1,10,0.8,7.7,M,-32.6,M,,*5B
$PYRTM,2024,125.171172629595,16.280820039734
$GPGGA,040628.00,3511.9068,N,12148.8418,W,1,10,0.8,7.7,M,-32.6,M,,*5F
$PYRTM,2024,125.171184208495,16.280831618634
$GPGGA,040629.00,3511.9075,N,12148.8425,W,1,10,0.8,7.4,M,-32.6,M,,*5F
$PYRTM,2024,125.171195783600,16.280843193738
$GPGGA,040630.00,3511.9078,N,12148.8434,W,1,10,0.8,6.8,M,-32.6,M,,*57
$PYRTM,2024,125.171207353194,16.280854763333
$GPGGA,040631.00,3511.9080,N,12148.8439,W,1,10,0.8,6.6,M,-32.6,M,,*52
$PYRTM,2024,125.171214752431,16.280862162569
$GPGGA,040632.00,3511.9083,N,12148.8439,W,1,10,0.8,6.7,M,-32.6,M,,*53
$PYRTM,2024,125.171230500069,16.280877910208
$GPGGA,040633.00,3511.9090,N,12148.8439,W,1,10,0.8,6.8,M,-32.6,M,,*5F
$PYRTM,2024,125.171242079502,16.280889489641
$GPGGA,040634.00,3511.9096,N,12148.8444,W,1,10,0.8,6.7,M,-32.6,M,,*5B
$PYRTM,2024,125.171249474340,16.280896884491
$GPGGA,040635.00,3511.9097,N,12148.8453,W,1,10,0.8,6.4,M,-32.6,M,,*5E
$PYRTM,2024,125.171265228264,16.280912638403
$GPGGA,040636.00,3511.9098,N,12148.8460,W,1,10,0.8,6.3,M,-32.6,M,,*55
$PYRTM,2024,125.171276803796,16.280924213935
$GPGGA,040637.00,3511.9102,N,12148.8462,W,1,10,0.8,6.4,M,-32.6,M,,*53
$PYRTM,2024,125.171288390058,16.280935800197
$GPGGA,040638.00,3511.9108,N,12148.8461,W,1,10,0.8,6.5,M,-32.6,M,,*54
$PYRTM,2024,125.171295771493,16.280943181632
$GPGGA,040639.00,3511.9113,N,12148.8465,W,1,10,0.8,6.9,M,-32.6,M,,*57
$PYRTM,2024,125.171311539433,16.280958949572
$GPGGA,040640.00,3511.9114,N,12148.8473,W,1,10,0.8,7.0,M,-32.6,M,,*51
$PYRTM,2024,125.171323098113,16.280970508252
$GPGGA,040641.00,3511.9114,N,12148.8482,W,1,10,0.8,7.0,M,-32.6,M,,*5E
$PYRTM,2024,125.171330493241,16.280977903380
$GPGGA,040642.00,3511.9117,N,12148.8486,W,1,10,0.8,7.0,M,-32.6,M,,*5A
$PYRTM,2024,125.171346247546,16.280993657685
$GPGGA,040643.00,3511.9123,N,12148.8486,W,1,10,0.8,7.4,M,-32.6,M,,*58
$PYRTM,2024,125.171357823160,16.281005233299
$GPGGA,040644.00,3511.9129,N,12148.8488,W,1,10,0.8,7.9,M,-32.6,M,,*56
$PYRTM,2024,125.171369389873,16.281016800012
$GPGGA,040645.00,3511.9132,N,12148.8495,W,1,10,0.8,8.2,M,-32.6,M,,*55
$PYRTM,2024,125.171380972512,16.281028382650
$GPGGA,040646.00,3511.9133,N,12148.8504,W,1,10,0.8,8.0,M,-32.6,M,,*5C
$PYRTM,2024,125.171392544225,16.281039954363
$GPGGA,040647.00,3511.9135,N,12148.8512,W,1,10,0.8,7.9,M,-32.6,M,,*5A
$PYRTM,2024,125.171404114086,16.281051524225
$GPGGA,040648.00,3511.9140,N,12148.8513,W,1,10,0.8,7.9,M,-32.6,M,,*56
$PYRTM,2024,125.171415691458,16.281063101597
$GPGGA,040649.00,3511.9147,N,12148.8512,W,1,10,0.8,8.2,M,-32.6,M,,*55
$PYRTM,2024,125.171427265440,16.281074675579
$GPGGA,040650.00,3511.9152,N,12148.8514,W,1,10,0.8,8.4,M,-32.6,M,,*59
$PYRTM,2024,125.171438839178,16.281086249317
$GPGGA,040651.00,3511.9154,N,12148.8523,W,1,10,0.8,8.1,M,-32.6,M,,*5F
$PYRTM,2024,125.171450427338,16.281097837477
$GPGGA,040652.00,3511.9155,N,12148.8533,W,1,10,0.8,7.5,M,-32.6,M,,*57
$PYRTM,2024,125.171461988287,16.281109398426
$GPGGA,040653.00,3511.9157,N,12148.8538,W,1,10,0.8,7.2,M,-32.6,M,,*58
$PYRTM,2024,125.171473576250,16.281120986389
$GPGGA,040654.00,3511.9162,N,12148.8535,W,1,10,0.8,7.3,M,-32.6,M,,*55
$PYRTM,2024,125.171485136204,16.281132546343
$GPGGA,040655.00,3511.9170,N,12148.8533,W,1,10,0.8,7.3,M,-32.6,M,,*51
$PYRTM,2024,125.171496709560,16.281144119699
$GPGGA,040656.00,3511.9176,N,12148.8537,W,1,10,0.8,7.1,M,-32.6,M,,*52
$PYRTM,2024,125.171511165463,16.281158575613
$GPGGA,040657.00,3511.9177,N,12148.8547,W,1,10,0.8,6.5,M,-32.6,M,,*50
$PYRTM,2024,125.171525171470,16.281172581609
$GPGGA,040658.00,3511.9177,N,12148.8557,W,1,10,0.8,6.2,M,-32.6,M,,*59
$PYRTM,2024,125.171531433275,16.281178843414
$GPGGA,040659.00,3511.9181,N,12148.8559,W,1,10,0.8,6.3,M,-32.6,M,,*5E
$PYRTM,2024,125.171538830012,16.281186240150
$GPGGA,040700.00,3511.9189,N,12148.8555,W,1,10,0.8,6.6,M,-32.6,M,,*52
$PYRTM,2024,125.171554581157,16.281201991296
$GPGGA,040701.00,3511.9197,N,12148.8557,W,1,10,0.8,6.7,M,-32.6,M,,*5F
$PYRTM,2024,125.171566155428,16.281213565567
$GPGGA,040702.00,3511.9200,N,12148.8566,W,1,10,0.8,6.4,M,-32.6,M,,*50
$PYRTM,2024,125.171573549549,16.281220959687
$GPGGA,040703.00,3511.9201,N,12148.8576,W,1,10,0.8,5.9,M,-32.6,M,,*5F
$PYRTM,2024,125.171589304340,16.281236714479
$GPGGA,040704.00,3511.9202,N,12148.8580,W,1,10,0.8,5.8,M,-32.6,M,,*53
$PYRTM,2024,125.171600872269,16.281248282407
$GPGGA,040705.00,3511.9205,N,12148.8579,W,1,10,0.8,5.9,M,-32.6,M,,*52
$PYRTM,2024,125.171612466250,16.281259876389
$GPGGA,040706.00,3511.9212,N,12148.8583,W,1,10,0.8,5.8,M,-32.6,M,,*53
$PYRTM,2024,125.171624025856,16.281271435995
$GPGGA,040707.00,3511.9218,N,12148.8591,W,1,10,0.8,5.4,M,-32.6,M,,*57
$PYRTM,2024,125.171631312650,16.281278722789
$GPGGA,040708.00,3511.9219,N,12148.8596,W,1,10,0.8,5.2,M,-32.6,M,,*58
$PYRTM,2024,125.171647174965,16.281294585104
$GPGGA,040709.00,3511.9219,N,12148.8597,W,1,10,0.8,5.4,M,-32.6,M,,*5E
$PYRTM,2024,125.171658749051,16.281306159190
$GPGGA,040710.00,3511.9221,N,12148.8599,W,1,10,0.8,5.5,M,-32.6,M,,*52
$PYRTM,2024,125.171666048507,16.281313458646
$GPGGA,040711.00,3511.9227,N,12148.8605,W,1,10,0.8,5.3,M,-32.6,M,,*55
$PYRTM,2024,125.171681897153,16.281329307292
$GPGGA,040712.00,3511.9232,N,12148.8611,W,1,10,0.8,4.7,M,-32.6,M,,*52
$PYRTM,2024,125.171693471157,16.281340881296
$GPGGA,040713.00,3511.9234,N,12148.8614,W,1,10,0.8,4.5,M,-32.6,M,,*52
$PYRTM,2024,125.171705044317,16.281352454456
$GPGGA,040714.00,3511.9235,N,12148.8615,W,1,10,0.8,4.6,M,-32.6,M,,*56
$PYRTM,2024,125.171716620266,16.281364030405
$GPGGA,040715.00,3511.9237,N,12148.8617,W,1,10,0.8,4.8,M,-32.6,M,,*59
$PYRTM,2024,125.171728195718,16.281375605856
$GPGGA,040716.00,3511.9241,N,12148.8623,W,1,10,0.8,5.0,M,-32.6,M,,*55
$PYRTM,2024,125.171739768438,16.281387178576
$GPGGA,040717.00,3511.9246,N,12148.8629,W,1,10,0.8,4.9,M,-32.6,M,,*51
$PYRTM,2024,125.171751354873,16.281398765012
$GPGGA,040718.00,3511.9249,N,12148.8632,W,1,10,0.8,4.9,M,-32.6,M,,*5B
$PYRTM,2024,125.171758631991,16.281406042130
$GPGGA,040719.00,3511.9249,N,12148.8635,W,1,10,0.8,5.1,M,-32.6,M,,*54
$PYRTM,2024,125.171774493009,16.281421903148
$GPGGA,040720.00,3511.9249,N,12148.8641,W,1,10,0.8,5.2,M,-32.6,M,,*5E
$PYRTM,2024,125.171786064086,16.281433474225
$GPGGA,040721.00,3511.9251,N,12148.8648,W,1,10,0.8,5.2,M,-32.6,M,,*5F
$PYRTM,2024,125.171797640891,16.281445051030
$GPGGA,040722.00,3511.9257,N,12148.8650,W,1,10,0.8,5.2,M,-32.6,M,,*53
$PYRTM,2024,125.171809212211,16.281456622350
$GPGGA,040723.00,3511.9263,N,12148.8649,W,1,10,0.8,5.6,M,-32.6,M,,*59
$PYRTM,2024,125.171816504005,16.281463914155
$GPGGA,040724.00,3511.9266,N,12148.8651,W,1,10,0.8,5.9,M,-32.6,M,,*5D
$PYRTM,2024,125.171832359051,16.281479769190
$GPGGA,040725.00,3511.9266,N,12148.8658,W,1,10,0.8,6.0,M,-32.6,M,,*5F
$PYRTM,2024,125.171843934433,16.281491344583
$GPGGA,040726.00,3511.9266,N,12148.8667,W,1,10,0.8,5.9,M,-32.6,M,,*5A
$PYRTM,2024,125.171855504502,16.281502914641
$GPGGA,040727.00,3511.9269,N,12148.8671,W,1,10,0.8,5.8,M,-32.6,M,,*52
$PYRTM,2024,125.171862800637,16.281510210775
$GPGGA,040728.00,3511.9274,N,12148.8670,W,1,10,0.8,5.8,M,-32.6,M,,*50
$PYRTM,2024,125.171881537766,16.281528947905
$GPGGA,040729.00,3511.9280,N,12148.8669,W,1,10,0.8,6.0,M,-32.6,M,,*59
$PYRTM,2024,125.171890234109,16.281537644248
$GPGGA,040730.00,3511.9282,N,12148.8674,W,1,10,0.8,6.1,M,-32.6,M,,*5E
$PYRTM,2024,125.171901806586,16.281549216725
$GPGGA,040731.00,3511.9284,N,12148.8681,W,1,10,0.8,6.0,M,-32.6,M,,*52
$PYRTM,2024,125.171913379803,16.281560789942
$GPGGA,040732.00,3511.9285,N,12148.8687,W,1,10,0.8,6.0,M,-32.6,M,,*56
$PYRTM,2024,125.171924953634,16.281572363785
$GPGGA,040733.00,3511.9287,N,12148.8690,W,1,10,0.8,6.2,M,-32.6,M,,*51
$PYRTM,2024,125.171932247431,16.281579657569
$GPGGA,040734.00,3511.9291,N,12148.8693,W,1,10,0.8,6.3,M,-32.6,M,,*53
$PYRTM,2024,125.171948102477,16.281595512616
$GPGGA,040735.00,3511.9296,N,12148.8696,W,1,10,0.8,6.4,M,-32.6,M,,*57
$PYRTM,2024,125.171955397188,16.281602807326
$GPGGA,040736.00,3511.9299,N,12148.8700,W,1,10,0.8,6.5,M,-32.6,M,,*54
$PYRTM,2024,125.171967186632,16.281614596771
$GPGGA,040737.00,3511.9300,N,12148.8705,W,1,10,0.8,6.6,M,-32.6,M,,*52
$PYRTM,2024,125.171982831701,16.281630241840
$GPGGA,040738.00,3511.9301,N,12148.8710,W,1,10,0.8,6.7,M,-32.6,M,,*59
$PYRTM,2024,125.171994399491,16.281641809630
$GPGGA,040739.00,3511.9305,N,12148.8716,W,1,10,0.8,6.7,M,-32.6,M,,*5A
$PYRTM,2024,125.172005974213,16.281653384352
$GPGGA,040740.00,3511.9310,N,12148.8719,W,1,10,0.8,6.8,M,-32.6,M,,*50
$PYRTM,2024,125.172017548090,16.281664958229
$GPGGA,040741.00,3511.9314,N,12148.8721,W,1,10,0.8,6.8,M,-32.6,M,,*5E
$PYRTM,2024,125.172029122072,16.281676532211
$GPGGA,040742.00,3511.9317,N,12148.8725,W,1,10,0.8,6.9,M,-32.6,M,,*5B
$PYRTM,2024,125.172036399502,16.281683809641
$GPGGA,040743.00,3511.9318,N,12148.8731,W,1,10,0.8,7.0,M,-32.6,M,,*58
$PYRTM,2024,125.172048676389,16.281696086528
$GPGGA,040744.00,3511.9321,N,12148.8737,W,1,10,0.8,7.0,M,-32.6,M,,*53
$PYRTM,2024,125.172063843900,16.281711254039
$GPGGA,040745.00,3511.9326,N,12148.8739,W,1,10,0.8,7.0,M,-32.6,M,,*5B
$PYRTM,2024,125.172075417778,16.281722827917
$GPGGA,040746.00,3511.9331,N,12148.8740,W,1,10,0.8,7.1,M,-32.6,M,,*51
$PYRTM,2024,125.172082695949,16.281730106088
$GPGGA,040747.00,3511.9334,N,12148.8746,W,1,10,0.8,7.1,M,-32.6,M,,*53
$PYRTM,2024,125.172098573657,16.281745983796
$GPGGA,040748.00,3511.9336,N,12148.8754,W,1,10,0.8,7.2,M,-32.6,M,,*5E
$PYRTM,2024,125.172110139074,16.281757549225
$GPGGA,040749.00,3511.9336,N,12148.8759,W,1,10,0.8,7.2,M,-32.6,M,,*52
$PYRTM,2024,125.172121722014,16.281769132153
$GPGGA,040750.00,3511.9339,N,12148.8761,W,1,10,0.8,7.3,M,-32.6,M,,*5F
$PYRTM,2024,125.172133289676,16.281780699815
$GPGGA,040751.00,3511.9345,N,12148.8762,W,1,10,0.8,7.3,M,-32.6,M,,*56
$PYRTM,2024,125.172140581782,16.281787991933
$GPGGA,040752.00,3511.9351,N,12148.8766,W,1,10,0.8,7.1,M,-32.6,M,,*56
$PYRTM,2024,125.172156431968,16.281803842106
$GPGGA,040753.00,3511.9354,N,12148.8773,W,1,10,0.8,6.7,M,-32.6,M,,*51
$PYRTM,2024,125.172168010613,16.281815420752
$GPGGA,040754.00,3511.9353,N,12148.8781,W,1,10,0.8,6.6,M,-32.6,M,,*5D
$PYRTM,2024,125.172179579919,16.281826990058
$GPGGA,040755.00,3511.9352,N,12148.8786,W,1,10,0.8,6.8,M,-32.6,M,,*54
$PYRTM,2024,125.172191169977,16.281838580116
$GPGGA,040756.00,3511.9357,N,12148.8786,W,1,10,0.8,6.9,M,-32.6,M,,*53
$PYRTM,2024,125.172198565370,16.281845975509
$GPGGA,040757.00,3511.9366,N,12148.8787,W,1,10,0.8,6.8,M,-32.6,M,,*50
$PYRTM,2024,125.172214307269,16.281861717407
$GPGGA,040758.00,3511.9371,N,12148.8794,W,1,10,0.8,6.5,M,-32.6,M,,*56
$PYRTM,2024,125.172221713345,16.281869123495
$GPGGA,040759.00,3511.9371,N,12148.8802,W,1,10,0.8,6.3,M,-32.6,M,,*51
$PYRTM,2024,125.172240349132,16.281887759271
$GPGGA,040800.00,3511.9371,N,12148.8807,W,1,10,0.8,6.3,M,-32.6,M,,*57
$PYRTM,2024,125.172249028877,16.281896439016
$GPGGA,040801.00,3511.9375,N,12148.8807,W,1,10,0.8,6.4,M,-32.6,M,,*55
$PYRTM,2024,125.172260614699,16.281908024838
$GPGGA,040802.00,3511.9381,N,12148.8808,W,1,10,0.8,6.4,M,-32.6,M,,*52
$PYRTM,2024,125.172272178854,16.281919588993
$GPGGA,040803.00,3511.9387,N,12148.8813,W,1,10,0.8,6.0,M,-32.6,M,,*5B
$PYRTM,2024,125.172283777581,16.281931187720
$GPGGA,040804.00,3511.9389,N,12148.8820,W,1,10,0.8,5.5,M,-32.6,M,,*54
$PYRTM,2024,125.172295322049,16.281942732187
$GPGGA,040805.00,3511.9390,N,12148.8826,W,1,10,0.8,5.3,M,-32.6,M,,*5D
$PYRTM,2024,125.172306908993,16.281954319132
$GPGGA,040806.00,3511.9393,N,12148.8828,W,1,10,0.8,5.3,M,-32.6,M,,*53
$PYRTM,2024,125.172318474352,16.281965884491
$GPGGA,040807.00,3511.9398,N,12148.8831,W,1,10,0.8,5.4,M,-32.6,M,,*56
$PYRTM,2024,125.172330047917,16.281977458056
$GPGGA,040808.00,3511.9403,N,12148.8835,W,1,10,0.8,5.6,M,-32.6,M,,*5A
$PYRTM,2024,125.172341622789,16.281989032928
$GPGGA,040809.00,3511.9405,N,12148.8840,W,1,10,0.8,5.6,M,-32.6,M,,*5F
$PYRTM,2024,125.172353196782,16.282000606921
$GPGGA,040810.00,3511.9408,N,12148.8847,W,1,10,0.8,5.7,M,-32.6,M,,*5C
$PYRTM,2024,125.172364772454,16.282012182593
$GPGGA,040811.00,3511.9411,N,12148.8852,W,1,10,0.8,5.7,M,-32.6,M,,*51
$PYRTM,2024,125.172372051481,16.282019461620
$GPGGA,040812.00,3511.9415,N,12148.8856,W,1,10,0.8,5.6,M,-32.6,M,,*53
$PYRTM,2024,125.172387920579,16.282035330729
$GPGGA,040813.00,3511.9419,N,12148.8859,W,1,10,0.8,5.6,M,-32.6,M,,*51
$PYRTM,2024,125.172399504306,16.282046914456
$GPGGA,040814.00,3511.9423,N,12148.8861,W,1,10,0.8,5.7,M,-32.6,M,,*55
$PYRTM,2024,125.172406772558,16.282054182697
$GPGGA,040815.00,3511.9427,N,12148.8865,W,1,10,0.8,5.8,M,-32.6,M,,*5B
$PYRTM,2024,125.172425535185,16.282072945324
$GPGGA,040816.00,3511.9430,N,12148.8872,W,1,10,0.8,5.9,M,-32.6,M,,*59
$PYRTM,2024,125.172434216088,16.282081626238
$GPGGA,040817.00,3511.9433,N,12148.8879,W,1,10,0.8,5.8,M,-32.6,M,,*51
$PYRTM,2024,125.172445797002,16.282093207141
$GPGGA,040818.00,3511.9437,N,12148.8884,W,1,10,0.8,5.6,M,-32.6,M,,*56
$PYRTM,2024,125.172457358472,16.282104768611
$GPGGA,040819.00,3511.9441,N,12148.8885,W,1,10,0.8,5.7,M,-32.6,M,,*56
$PYRTM,2024,125.172468945880,16.282116356019
$GPGGA,040820.00,3511.9447,N,12148.8886,W,1,10,0.8,5.8,M,-32.6,M,,*56
$PYRTM,2024,125.172480508333,16.282127918472
$GPGGA,040821.00,3511.9450,N,12148.8891,W,1,10,0.8,6.0,M,-32.6,M,,*5C
$PYRTM,2024,125.172487804826,16.282135214977
$GPGGA,040822.00,3511.9452,N,12148.8900,W,1,10,0.8,5.8,M,-32.6,M,,*5F
$PYRTM,2024,125.172503660150,16.282151070289
$GPGGA,040823.00,3511.9454,N,12148.8907,W,1,10,0.8,5.6,M,-32.6,M,,*51
$PYRTM,2024,125.172515245671,16.282162655822
$GPGGA,040824.00,3511.9458,N,12148.8909,W,1,10,0.8,5.7,M,-32.6,M,,*55
$PYRTM,2024,125.172526808403,16.282174218553
$GPGGA,040825.00,3511.9464,N,12148.8910,W,1,10,0.8,5.8,M,-32.6,M,,*5C
$PYRTM,2024,125.172538394873,16.282185805012
$GPGGA,040826.00,3511.9469,N,12148.8914,W,1,10,0.8,5.7,M,-32.6,M,,*59
$PYRTM,2024,125.172549958762,16.282197368900
$GPGGA,040827.00,3511.9471,N,12148.8921,W,1,10,0.8,5.5,M,-32.6,M,,*55
$PYRTM,2024,125.172561530058,16.282208940185
$GPGGA,040828.00,3511.9472,N,12148.8926,W,1,10,0.8,5.6,M,-32.6,M,,*5D
$PYRTM,2024,125.172573099907,16.282220510046
$GPGGA,040829.00,3511.9476,N,12148.8928,W,1,10,0.8,5.7,M,-32.6,M,,*57
$PYRTM,2024,125.172580401389,16.282227811528
$GPGGA,040830.00,3511.9483,N,12148.8932,W,1,10,0.8,5.5,M,-32.6,M,,*5C
$PYRTM,2024,125.172599141794,16.282246551933
$GPGGA,040831.00,3511.9487,N,12148.8939,W,1,10,0.8,5.0,M,-32.6,M,,*57
$PYRTM,2024,125.172607835278,16.282255245417
$GPGGA,040832.00,3511.9488,N,12148.8943,W,1,10,0.8,4.8,M,-32.6,M,,*5F
$PYRTM,2024,125.172619402095,16.282266812234
$GPGGA,040833.00,3511.9492,N,12148.8946,W,1,10,0.8,4.9,M,-32.6,M,,*51
$PYRTM,2024,125.172630982801,16.282278392940
$GPGGA,040834.00,3511.9498,N,12148.8948,W,1,10,0.8,5.1,M,-32.6,M,,*5B
$PYRTM,2024,125.172642544537,16.282289954676
$GPGGA,040835.00,3511.9502,N,12148.8954,W,1,10,0.8,5.2,M,-32.6,M,,*56
$PYRTM,2024,125.172654134919,16.282301545058
$GPGGA,040836.00,3511.9502,N,12148.8961,W,1,10,0.8,5.2,M,-32.6,M,,*53
$PYRTM,2024,125.172661404606,16.282308814745
$GPGGA,040837.00,3511.9503,N,12148.8967,W,1,10,0.8,5.3,M,-32.6,M,,*54
$PYRTM,2024,125.172677273021,16.282324683160
