$PYRTM,2024,123.750003603021,14.859651013160
$GPGGA,175959.00,3435.6213,N,12103.9058,W,1,09,0.8,10.9,M,-33.4,M,,*6A
$PYRTM,2024,123.750015177153,14.859662587292
$GPGGA,180000.00,3435.6226,N,12103.9070,W,1,09,0.8,11.0,M,-33.4,M,,*61
$PYRTM,2024,123.750022468056,14.859669878194
$GPGGA,180001.00,3435.6238,N,12103.9084,W,1,09,0.8,11.0,M,-33.4,M,,*64
$PYRTM,2024,123.750041103183,14.859688513322
$GPGGA,180002.00,3435.6248,N,12103.9100,W,1,09,0.8,10.8,M,-33.4,M,,*64
$PYRTM,2024,123.750049945162,14.859697355301
$GPGGA,180003.00,3435.6259,N,12103.9113,W,1,09,0.8,10.7,M,-33.4,M,,*68
$PYRTM,2024,123.750061468657,14.859708878808
$GPGGA,180004.00,3435.6272,N,12103.9123,W,1,09,0.8,10.8,M,-33.4,M,,*6A
$PYRTM,2024,123.750073056343,14.859720466481
$GPGGA,180005.00,3435.6285,N,12103.9131,W,1,09,0.8,11.2,M,-33.4,M,,*6B
$PYRTM,2024,123.750084622500,14.859732032639
$GPGGA,180006.00,3435.6297,N,12103.9142,W,1,09,0.8,11.7,M,-33.4,M,,*6A
$PYRTM,2024,123.750096197153,14.859743607292
$GPGGA,180007.00,3435.6308,N,12103.9157,W,1,09,0.8,11.6,M,-33.4,M,,*69
$PYRTM,2024,123.750107771296,14.859755181447
$GPGGA,180008.00,3435.6320,N,12103.9175,W,1,09,0.8,10.7,M,-33.4,M,,*6C
$PYRTM,2024,123.750115051134,14.859762461273
$GPGGA,180009.00,3435.6331,N,12103.9190,W,1,09,0.8,9.8,M,-33.4,M,,*51
$PYRTM,2024,123.750130913345,14.859778323484
$GPGGA,180010.00,3435.6341,N,12103.9198,W,1,09,0.8,10.0,M,-33.4,M,,*66
$PYRTM,2024,123.750142504722,14.859789914873
$GPGGA,180011.00,3435.6353,N,12103.9204,W,1,09,0.8,10.7,M,-33.4,M,,*65
$PYRTM,2024,123.750149772998,14.859797183137
$GPGGA,180012.00,3435.6367,N,12103.9217,W,1,09,0.8,10.7,M,-33.4,M,,*63
$PYRTM,2024,123.750165514641,14.859812924780
$GPGGA,180013.00,3435.6379,N,12103.9234,W,1,09,0.8,9.8,M,-33.4,M,,*5B
$PYRTM,2024,123.750177100498,14.859824510637
$GPGGA,180014.00,3435.6387,N,12103.9249,W,1,09,0.8,9.5,M,-33.4,M,,*5A
$PYRTM,2024,123.750184511227,14.859831921377
$GPGGA,180015.00,3435.6394,N,12103.9258,W,1,09,0.8,10.0,M,-33.4,M,,*64
$PYRTM,2024,123.750196300729,14.859843710868
$GPGGA,180016.00,3435.6407,N,12103.9267,W,1,09,0.8,10.7,M,-33.4,M,,*61
$PYRTM,2024,123.750211945671,14.859859355810
$GPGGA,180017.00,3435.6424,N,12103.9279,W,1,09,0.8,10.5,M,-33.4,M,,*6C
$PYRTM,2024,123.750223512407,14.859870922546
$GPGGA,180018.00,3435.6438,N,12103.9292,W,1,09,0.8,10.3,M,-33.4,M,,*6D
$PYRTM,2024,123.750235111516,14.859882521655
$GPGGA,180019.00,3435.6444,N,12103.9303,W,1,09,0.8,11.2,M,-33.4,M,,*6E
$PYRTM,2024,123.750246660984,14.859894071123
$GPGGA,180020.00,3435.6452,N,12103.9312,W,1,09,0.8,12.3,M,-33.4,M,,*61
$PYRTM,2024,123.750258234120,14.859905644259
$GPGGA,180021.00,3435.6467,N,12103.9323,W,1,09,0.8,11.6,M,-33.4,M,,*62
$PYRTM,2024,123.750269809063,14.859917219213
$GPGGA,180022.00,3435.6481,N,12103.9336,W,1,09,0.8,10.3,M,-33.4,M,,*69
$PYRTM,2024,123.750281256042,14.859928666181
$GPGGA,180023.00,3435.6488,N,12103.9348,W,1,09,0.8,9.7,M,-33.4,M,,*54
$PYRTM,2024,123.750292958773,14.859940368912
$GPGGA,180024.00,3435.6496,N,12103.9357,W,1,09,0.8,10.3,M,-33.4,M,,*6E
$PYRTM,2024,123.750304530822,14.859951940961
$GPGGA,180025.00,3435.6507,N,12103.9364,W,1,09,0.8,10.9,M,-33.4,M,,*6C
$PYRTM,2024,123.750316101493,14.859963511632
$GPGGA,180026.00,3435.6521,N,12103.9376,W,1,09,0.8,10.1,M,-33.4,M,,*60
$PYRTM,2024,123.750323385324,14.859970795463
$GPGGA,180027.00,3435.6532,N,12103.9389,W,1,09,0.8,9.5,M,-33.4,M,,*5F
$PYRTM,2024,123.750339141713,14.859986551863
$GPGGA,180028.00,3435.6539,N,12103.9402,W,1,09,0.8,9.3,M,-33.4,M,,*59
$PYRTM,2024,123.750350699826,14.859998109977
$GPGGA,180029.00,3435.6548,N,12103.9414,W,1,09,0.8,9.7,M,-33.4,M,,*5D
$PYRTM,2024,123.750362403391,14.860009813530
$GPGGA,180030.00,3435.6559,N,12103.9425,W,1,09,0.8,10.1,M,-33.4,M,,*69
$PYRTM,2024,123.750373984086,14.860021394225
$GPGGA,180031.00,3435.6570,N,12103.9435,W,1,09,0.8,10.6,M,-33.4,M,,*65
$PYRTM,2024,123.750381255671,14.860028665810
$GPGGA,180032.00,3435.6581,N,12103.9444,W,1,09,0.8,11.0,M,-33.4,M,,*69
$PYRTM,2024,123.750399909942,14.860047320081
$GPGGA,180033.00,3435.6594,N,12103.9458,W,1,09,0.8,10.5,M,-33.4,M,,*65
$PYRTM,2024,123.750408699549,14.860056109688
$GPGGA,180034.00,3435.6606,N,12103.9473,W,1,09,0.8,9.5,M,-33.4,M,,*5B
$PYRTM,2024,123.750420283426,14.860067693565
$GPGGA,180035.00,3435.6612,N,12103.9483,W,1,09,0.8,9.6,M,-33.4,M,,*53
$PYRTM,2024,123.750431847882,14.860079258021
$GPGGA,180036.00,3435.6619,N,12103.9488,W,1,09,0.8,10.6,M,-33.4,M,,*68
$PYRTM,2024,123.750443419988,14.860090830127
$GPGGA,180037.00,3435.6632,N,12103.9496,W,1,09,0.8,11.3,M,-33.4,M,,*6B
$PYRTM,2024,123.750450828924,14.860098239063
$GPGGA,180038.00,3435.6646,N,12103.9509,W,1,09,0.8,10.6,M,-33.4,M,,*64
$PYRTM,2024,123.750466569595,14.860113979734
$GPGGA,180039.00,3435.6655,N,12103.9522,W,1,09,0.8,9.7,M,-33.4,M,,*57
$PYRTM,2024,123.750478032998,14.860125443148
$GPGGA,180040.00,3435.6664,N,12103.9530,W,1,09,0.8,9.4,M,-33.4,M,,*5B
$PYRTM,2024,123.750489589861,14.860137000000
$GPGGA,180041.00,3435.6674,N,12103.9538,W,1,09,0.8,9.6,M,-33.4,M,,*51
$PYRTM,2024,123.750501171944,14.860148582083
$GPGGA,180042.00,3435.6684,N,12103.9546,W,1,09,0.8,9.9,M,-33.4,M,,*5B
$PYRTM,2024,123.750512865891,14.860160276030
$GPGGA,180043.00,3435.6694,N,12103.9557,W,1,09,0.8,10.3,M,-33.4,M,,*69
$PYRTM,2024,123.750524440683,14.860171850833
$GPGGA,180044.00,3435.6705,N,12103.9571,W,1,09,0.8,10.3,M,-33.4,M,,*63
$PYRTM,2024,123.750536014757,14.860183424907
$GPGGA,180045.00,3435.6716,N,12103.9582,W,1,09,0.8,10.3,M,-33.4,M,,*6C
$PYRTM,2024,123.750547588530,14.860194998669
$GPGGA,180046.00,3435.6727,N,12103.9589,W,1,09,0.8,10.6,M,-33.4,M,,*63
$PYRTM,2024,123.750559187951,14.860206598090
$GPGGA,180047.00,3435.6737,N,12103.9595,W,1,09,0.8,11.0,M,-33.4,M,,*69
$PYRTM,2024,123.750570736574,14.860218146713
$GPGGA,180048.00,3435.6747,N,12103.9607,W,1,09,0.8,10.9,M,-33.4,M,,*61
$PYRTM,2024,123.750582331250,14.860229741389
$GPGGA,180049.00,3435.6759,N,12103.9622,W,1,09,0.8,10.1,M,-33.4,M,,*60
$PYRTM,2024,123.750589588808,14.860236998947
$GPGGA,180050.00,3435.6772,N,12103.9634,W,1,09,0.8,9.5,M,-33.4,M,,*5A
$PYRTM,2024,123.750605470289,14.860252880428
$GPGGA,180051.00,3435.6781,N,12103.9640,W,1,09,0.8,10.0,M,-33.4,M,,*69
$PYRTM,2024,123.750617032836,14.860264442975
$GPGGA,180052.00,3435.6792,N,12103.9646,W,1,09,0.8,10.9,M,-33.4,M,,*67
$PYRTM,2024,123.750624314873,14.860271725012
$GPGGA,180053.00,3435.6806,N,12103.9657,W,1,09,0.8,11.0,M,-33.4,M,,*6C
$PYRTM,2024,123.750640183762,14.860287593900
$GPGGA,180054.00,3435.6818,N,12103.9672,W,1,09,0.8,10.4,M,-33.4,M,,*66
$PYRTM,2024,123.750651768391,14.860299178542
$GPGGA,180055.00,3435.6825,N,12103.9684,W,1,09,0.8,10.0,M,-33.4,M,,*64
$PYRTM,2024,123.750659035104,14.860306445243
$GPGGA,180056.00,3435.6833,N,12103.9692,W,1,09,0.8,10.2,M,-33.4,M,,*65
$PYRTM,2024,123.750674915451,14.860322325590
$GPGGA,180057.00,3435.6847,N,12103.9699,W,1,09,0.8,10.1,M,-33.4,M,,*6F
$PYRTM,2024,123.750686479468,14.860333889618
$GPGGA,180058.00,3435.6861,N,12103.9707,W,1,09,0.8,10.0,M,-33.4,M,,*63
$PYRTM,2024,123.750693775208,14.860341185347
$GPGGA,180059.00,3435.6868,N,12103.9717,W,1,09,0.8,10.4,M,-33.4,M,,*6E
$PYRTM,2024,123.750709624641,14.860357034780
$GPGGA,180100.00,3435.6875,N,12103.9730,W,1,09,0.8,10.9,M,-33.4,M,,*67
$PYRTM,2024,123.750721209016,14.860368619155
$GPGGA,180101.00,3435.6885,N,12103.9743,W,1,09,0.8,10.8,M,-33.4,M,,*6C
$PYRTM,2024,123.750728481725,14.860375891863
$GPGGA,180102.00,3435.6896,N,12103.9750,W,1,09,0.8,10.6,M,-33.4,M,,*61
$PYRTM,2024,123.750740284213,14.860387694363
$GPGGA,180103.00,3435.6908,N,12103.9755,W,1,09,0.8,10.6,M,-33.4,M,,*63
$PYRTM,2024,123.750758702870,14.860406113009
$GPGGA,180104.00,3435.6921,N,12103.9765,W,1,09,0.8,10.3,M,-33.4,M,,*69
$PYRTM,2024,123.750770286829,14.860417696968
$GPGGA,180105.00,3435.6930,N,12103.9779,W,1,09,0.8,10.0,M,-33.4,M,,*66
$PYRTM,2024,123.750781850787,14.860429260937
$GPGGA,180106.00,3435.6936,N,12103.9791,W,1,09,0.8,10.4,M,-33.4,M,,*61
$PYRTM,2024,123.750790647292,14.860438057431
$GPGGA,180107.00,3435.6945,N,12103.9800,W,1,09,0.8,11.0,M,-33.4,M,,*66
$PYRTM,2024,123.750797925150,14.860445335289
$GPGGA,180108.00,3435.6961,N,12103.9807,W,1,09,0.8,10.7,M,-33.4,M,,*6E
$PYRTM,2024,123.750813794155,14.860461204294
$GPGGA,180109.00,3435.6976,N,12103.9816,W,1,09,0.8,10.0,M,-33.4,M,,*6E
$PYRTM,2024,123.750825268056,14.860472678194
$GPGGA,180110.00,3435.6985,N,12103.9830,W,1,09,0.8,9.5,M,-33.4,M,,*53
$PYRTM,2024,123.750832648600,14.860480058738
$GPGGA,180111.00,3435.6989,N,12103.9844,W,1,09,0.8,10.0,M,-33.4,M,,*60
$PYRTM,2024,123.750848518287,14.860495928437
$GPGGA,180112.00,3435.6998,N,12103.9854,W,1,09,0.8,10.8,M,-33.4,M,,*6A
$PYRTM,2024,123.750860101678,14.860507511817
$GPGGA,180113.00,3435.7013,N,12103.9860,W,1,09,0.8,10.9,M,-33.4,M,,*66
$PYRTM,2024,123.750871666076,14.860519076215
$GPGGA,180114.00,3435.7027,N,12103.9868,W,1,09,0.8,10.7,M,-33.4,M,,*60
$PYRTM,2024,123.750883266204,14.860530676343
$GPGGA,180115.00,3435.7035,N,12103.9882,W,1,09,0.8,10.2,M,-33.4,M,,*63
$PYRTM,2024,123.750894698368,14.860542108507
$GPGGA,180116.00,3435.7042,N,12103.9899,W,1,09,0.8,9.8,M,-33.4,M,,*58
$PYRTM,2024,123.750906260556,14.860553670706
$GPGGA,180117.00,3435.7052,N,12103.9910,W,1,09,0.8,9.8,M,-33.4,M,,*58
$PYRTM,2024,123.750917958588,14.860565368727
$GPGGA,180118.00,3435.7065,N,12103.9914,W,1,09,0.8,10.4,M,-33.4,M,,*63
$PYRTM,2024,123.750929540162,14.860576950301
$GPGGA,180119.00,3435.7078,N,12103.9921,W,1,09,0.8,11.0,M,-33.4,M,,*6D
$PYRTM,2024,123.750936815799,14.860584225937
$GPGGA,180120.00,3435.7089,N,12103.9936,W,1,09,0.8,10.4,M,-33.4,M,,*6A
$PYRTM,2024,123.750952556030,14.860599966169
$GPGGA,180121.00,3435.7099,N,12103.9954,W,1,09,0.8,9.7,M,-33.4,M,,*55
$PYRTM,2024,123.750964146968,14.860611557106
$GPGGA,180122.00,3435.7108,N,12103.9964,W,1,09,0.8,9.6,M,-33.4,M,,*5D
$PYRTM,2024,123.750971538171,14.860618948310
$GPGGA,180123.00,3435.7120,N,12103.9968,W,1,09,0.8,10.1,M,-33.4,M,,*65
$PYRTM,2024,123.750987410278,14.860634820417
$GPGGA,180124.00,3435.7134,N,12103.9975,W,1,09,0.8,10.3,M,-33.4,M,,*69
$PYRTM,2024,123.750998854780,14.860646264919
$GPGGA,180125.00,3435.7146,N,12103.9991,W,1,09,0.8,9.9,M,-33.4,M,,*55
$PYRTM,2024,123.751006262755,14.860653672894
$GPGGA,180126.00,3435.7153,N,12104.0006,W,1,09,0.8,9.7,M,-33.4,M,,*55
$PYRTM,2024,123.751022129410,14.860669539549
$GPGGA,180127.00,3435.7163,N,12104.0014,W,1,09,0.8,10.0,M,-33.4,M,,*6B
$PYRTM,2024,123.751033704317,14.860681114468
$GPGGA,180128.00,3435.7178,N,12104.0019,W,1,09,0.8,10.0,M,-33.4,M,,*63
$PYRTM,2024,123.751040997569,14.860688407708
$GPGGA,180129.00,3435.7191,N,12104.0027,W,1,09,0.8,10.4,M,-33.4,M,,*6C
$PYRTM,2024,123.751056853252,14.860704263403
$GPGGA,180130.00,3435.7199,N,12104.0043,W,1,09,0.8,10.6,M,-33.4,M,,*6C
$PYRTM,2024,123.751068452488,14.860715862627
$GPGGA,180131.00,3435.7206,N,12104.0060,W,1,09,0.8,10.7,M,-33.4,M,,*68
$PYRTM,2024,123.751075706701,14.860723116840
$GPGGA,180132.00,3435.7216,N,12104.0069,W,1,09,0.8,11.3,M,-33.4,M,,*66
$PYRTM,2024,123.751091576285,14.860738986424
$GPGGA,180133.00,3435.7229,N,12104.0070,W,1,09,0.8,12.2,M,-33.4,M,,*61
$PYRTM,2024,123.751098855370,14.860746265509
$GPGGA,180134.00,3435.7243,N,12104.0076,W,1,09,0.8,12.4,M,-33.4,M,,*6A
$PYRTM,2024,123.751117500937,14.860764911076
$GPGGA,180135.00,3435.7255,N,12104.0091,W,1,09,0.8,11.4,M,-33.4,M,,*66
$PYRTM,2024,123.751126297593,14.860773707731
$GPGGA,180136.00,3435.7263,N,12104.0110,W,1,09,0.8,10.7,M,-33.4,M,,*6A
$PYRTM,2024,123.751137871250,14.860785281389
$GPGGA,180137.00,3435.7269,N,12104.0121,W,1,09,0.8,10.8,M,-33.4,M,,*6C
$PYRTM,2024,123.751145150637,14.860792560775
$GPGGA,180138.00,3435.7280,N,12104.0123,W,1,09,0.8,11.7,M,-33.4,M,,*68
$PYRTM,2024,123.751161007975,14.860808418113
$GPGGA,180139.00,3435.7297,N,12104.0128,W,1,09,0.8,12.3,M,-33.4,M,,*63
$PYRTM,2024,123.751172588218,14.860819998356
$GPGGA,180140.00,3435.7310,N,12104.0140,W,1,09,0.8,12.2,M,-33.4,M,,*6C
$PYRTM,2024,123.751179887431,14.860827297569
$GPGGA,180141.00,3435.7316,N,12104.0155,W,1,09,0.8,11.9,M,-33.4,M,,*67
$PYRTM,2024,123.751195742928,14.860843153067
$GPGGA,180142.00,3435.7322,N,12104.0170,W,1,09,0.8,11.9,M,-33.4,M,,*64
$PYRTM,2024,123.751207304329,14.860854714468
$GPGGA,180143.00,3435.7334,N,12104.0181,W,1,09,0.8,10.8,M,-33.4,M,,*6C
$PYRTM,2024,123.751218891713,14.860866301852
$GPGGA,180144.00,3435.7349,N,12104.0186,W,1,09,0.8,10.3,M,-33.4,M,,*6D
$PYRTM,2024,123.751230453241,14.860877863380
$GPGGA,180145.00,3435.7359,N,12104.0188,W,1,09,0.8,11.2,M,-33.4,M,,*63
$PYRTM,2024,123.751242039468,14.860889449606
$GPGGA,180146.00,3435.7369,N,12104.0195,W,1,09,0.8,12.2,M,-33.4,M,,*6C
$PYRTM,2024,123.751249319491,14.860896729641
$GPGGA,180147.00,3435.7380,N,12104.0210,W,1,09,0.8,11.9,M,-33.4,M,,*6C
$PYRTM,2024,123.751265183993,14.860912594132
$GPGGA,180148.00,3435.7391,N,12104.0225,W,1,09,0.8,11.4,M,-33.4,M,,*68
$PYRTM,2024,123.751276750382,14.860924160521
$GPGGA,180149.00,3435.7398,N,12104.0232,W,1,09,0.8,11.6,M,-33.4,M,,*64
$PYRTM,2024,123.751284040845,14.860931450984
$GPGGA,180150.00,3435.7408,N,12104.0234,W,1,09,0.8,12.3,M,-33.4,M,,*62
$PYRTM,2024,123.751299897813,14.860947307951
$GPGGA,180151.00,3435.7422,N,12104.0238,W,1,09,0.8,12.4,M,-33.4,M,,*60
$PYRTM,2024,123.751311488912,14.860958899051
$GPGGA,180152.00,3435.7434,N,12104.0252,W,1,09,0.8,11.6,M,-33.4,M,,*69
$PYRTM,2024,123.751318764595,14.860966174734
$GPGGA,180153.00,3435.7441,N,12104.0269,W,1,09,0.8,11.0,M,-33.4,M,,*64
$PYRTM,2024,123.751334634086,14.860982044225
$GPGGA,180154.00,3435.7446,N,12104.0279,W,1,09,0.8,11.1,M,-33.4,M,,*64
$PYRTM,2024,123.751346194537,14.860993604676
$GPGGA,180155.00,3435.7457,N,12104.0283,W,1,09,0.8,11.8,M,-33.4,M,,*69
$PYRTM,2024,123.751353487500,14.861000897639
$GPGGA,180156.00,3435.7472,N,12104.0288,W,1,09,0.8,11.7,M,-33.4,M,,*69
$PYRTM,2024,123.751369343229,14.861016753368
$GPGGA,180157.00,3435.7484,N,12104.0300,W,1,09,0.8,11.3,M,-33.4,M,,*64
$PYRTM,2024,123.751380929595,14.861028339745
$GPGGA,180158.00,3435.7490,N,12104.0314,W,1,09,0.8,11.2,M,-33.4,M,,*6A
$PYRTM,2024,123.751392491296,14.861039901435
$GPGGA,180159.00,3435.7496,N,12104.0325,W,1,09,0.8,11.5,M,-33.4,M,,*68
$PYRTM,2024,123.751404078009,14.861051488148
$GPGGA,180200.00,3435.7509,N,12104.0333,W,1,09,0.8,11.5,M,-33.4,M,,*67
$PYRTM,2024,123.751415641458,14.861063051609
$GPGGA,180201.00,3435.7522,N,12104.0340,W,1,09,0.8,11.3,M,-33.4,M,,*6D
$PYRTM,2024,123.751422930486,14.861070340637
$GPGGA,180202.00,3435.7530,N,12104.0350,W,1,09,0.8,11.5,M,-33.4,M,,*6A
$PYRTM,2024,123.751438788021,14.861086198160
$GPGGA,180203.00,3435.7536,N,12104.0362,W,1,09,0.8,12.4,M,-33.4,M,,*6E
$PYRTM,2024,123.751450375208,14.861097785347
$GPGGA,180204.00,3435.7547,N,12104.0373,W,1,09,0.8,12.1,M,-33.4,M,,*6A
$PYRTM,2024,123.751457654861,14.861105065000
$GPGGA,180205.00,3435.7562,N,12104.0383,W,1,09,0.8,11.1,M,-33.4,M,,*60
$PYRTM,2024,123.751476300822,14.861123710961
$GPGGA,180206.00,3435.7573,N,12104.0392,W,1,09,0.8,10.6,M,-33.4,M,,*65
$PYRTM,2024,123.751485083646,14.861132493785
$GPGGA,180207.00,3435.7579,N,12104.0402,W,1,09,0.8,11.1,M,-33.4,M,,*66
$PYRTM,2024,123.751492375694,14.861139785845
$GPGGA,180208.00,3435.7585,N,12104.0413,W,1,09,0.8,12.1,M,-33.4,M,,*69
$PYRTM,2024,123.751508233218,14.861155643356
$GPGGA,180209.00,3435.7597,N,12104.0424,W,1,09,0.8,12.4,M,-33.4,M,,*6A
$PYRTM,2024,123.751519823553,14.861167233692
$GPGGA,180210.00,3435.7611,N,12104.0437,W,1,09,0.8,11.0,M,-33.4,M,,*6A
$PYRTM,2024,123.751531264711,14.861178674850
$GPGGA,180211.00,3435.7623,N,12104.0450,W,1,09,0.8,9.3,M,-33.4,M,,*51
$PYRTM,2024,123.751542853090,14.861190263229
$GPGGA,180212.00,3435.7630,N,12104.0461,W,1,09,0.8,9.0,M,-33.4,M,,*51
$PYRTM,2024,123.751554530532,14.861201940671
$GPGGA,180213.00,3435.7634,N,12104.0471,W,1,09,0.8,10.2,M,-33.4,M,,*6F
$PYRTM,2024,123.751561820625,14.861209230764
$GPGGA,180214.00,3435.7642,N,12104.0479,W,1,09,0.8,11.5,M,-33.4,M,,*67
$PYRTM,2024,123.751577677269,14.861225087407
$GPGGA,180215.00,3435.7656,N,12104.0489,W,1,09,0.8,11.8,M,-33.4,M,,*61
$PYRTM,2024,123.751589265093,14.861236675231
$GPGGA,180216.00,3435.7670,N,12104.0503,W,1,09,0.8,10.5,M,-33.4,M,,*69
$PYRTM,2024,123.751596546852,14.861243956991
$GPGGA,180217.00,3435.7678,N,12104.0520,W,1,09,0.8,8.5,M,-33.4,M,,*58
$PYRTM,2024,123.751612297049,14.861259707199
$GPGGA,180218.00,3435.7683,N,12104.0532,W,1,09,0.8,7.8,M,-33.4,M,,*52
$PYRTM,2024,123.751623858935,14.861271269074
$GPGGA,180219.00,3435.7689,N,12104.0539,W,1,09,0.8,8.5,M,-33.4,M,,*50
$PYRTM,2024,123.751635459595,14.861282869734
$GPGGA,180220.00,3435.7701,N,12104.0544,W,1,09,0.8,9.5,M,-33.4,M,,*50
$PYRTM,2024,123.751647007396,14.861294417535
$GPGGA,180221.00,3435.7715,N,12104.0556,W,1,09,0.8,9.8,M,-33.4,M,,*5A
$PYRTM,2024,123.751658608437,14.861306018576
$GPGGA,180222.00,3435.7724,N,12104.0573,W,1,09,0.8,9.0,M,-33.4,M,,*54
$PYRTM,2024,123.751670155579,14.861317565718
$GPGGA,180223.00,3435.7730,N,12104.0587,W,1,09,0.8,7.8,M,-33.4,M,,*5D
$PYRTM,2024,123.751681745370,14.861329155509
$GPGGA,180224.00,3435.7738,N,12104.0596,W,1,09,0.8,7.7,M,-33.4,M,,*5D
$PYRTM,2024,123.751689136852,14.861336546991
$GPGGA,180225.00,3435.7749,N,12104.0602,W,1,09,0.8,8.0,M,-33.4,M,,*5C
$PYRTM,2024,123.751700826956,14.861348237095
$GPGGA,180226.00,3435.7762,N,12104.0610,W,1,09,0.8,8.6,M,-33.4,M,,*53
$PYRTM,2024,123.751716454375,14.861363864514
$GPGGA,180227.00,3435.7772,N,12104.0622,W,1,09,0.8,9.3,M,-33.4,M,,*56
$PYRTM,2024,123.751728040116,14.861375450255
$GPGGA,180228.00,3435.7778,N,12104.0638,W,1,09,0.8,9.8,M,-33.4,M,,*53
$PYRTM,2024,123.751734740938,14.861382151076
$GPGGA,180229.00,3435.7787,N,12104.0654,W,1,09,0.8,9.5,M,-33.4,M,,*55
$PYRTM,2024,123.751751188333,14.861398598472
$GPGGA,180230.00,3435.7799,N,12104.0664,W,1,09,0.8,8.9,M,-33.4,M,,*5C
$PYRTM,2024,123.751758581944,14.861405992083
$GPGGA,180231.00,3435.7811,N,12104.0668,W,1,09,0.8,8.6,M,-33.4,M,,*51
$PYRTM,2024,123.751770273137,14.861417683275
$GPGGA,180232.00,3435.7823,N,12104.0677,W,1,09,0.8,8.5,M,-33.4,M,,*5E
$PYRTM,2024,123.751785896620,14.861433306759
$GPGGA,180233.00,3435.7833,N,12104.0694,W,1,09,0.8,8.1,M,-33.4,M,,*57
$PYRTM,2024,123.751797483437,14.861444893576
$GPGGA,180234.00,3435.7840,N,12104.0710,W,1,09,0.8,8.3,M,-33.4,M,,*5B
$PYRTM,2024,123.751809045231,14.861456455370
$GPGGA,180235.00,3435.7847,N,12104.0715,W,1,09,0.8,9.4,M,-33.4,M,,*5E
$PYRTM,2024,123.751816454248,14.861463864398
$GPGGA,180236.00,3435.7859,N,12104.0717,W,1,09,0.8,10.6,M,-33.4,M,,*6A
$PYRTM,2024,123.751835088113,14.861482498252
$GPGGA,180237.00,3435.7873,N,12104.0726,W,1,09,0.8,10.7,M,-33.4,M,,*60
$PYRTM,2024,123.751846677986,14.861494088125
$GPGGA,180238.00,3435.7883,N,12104.0742,W,1,09,0.8,9.4,M,-33.4,M,,*59
$PYRTM,2024,123.751858235972,14.861505646123
$GPGGA,180239.00,3435.7889,N,12104.0759,W,1,09,0.8,8.4,M,-33.4,M,,*59
$PYRTM,2024,123.751866929155,14.861514339306
$GPGGA,180240.00,3435.7895,N,12104.0768,W,1,09,0.8,8.7,M,-33.4,M,,*5B
$PYRTM,2024,123.751874338993,14.861521749132
$GPGGA,180241.00,3435.7905,N,12104.0770,W,1,09,0.8,10.1,M,-33.4,M,,*64
$PYRTM,2024,123.751890194560,14.861537604711
$GPGGA,180242.00,3435.7919,N,12104.0775,W,1,09,0.8,11.4,M,-33.4,M,,*6B
$PYRTM,2024,123.751897601458,14.861545011597
$GPGGA,180243.00,3435.7932,N,12104.0787,W,1,09,0.8,11.8,M,-33.4,M,,*62
$PYRTM,2024,123.751909278472,14.861556688611
$GPGGA,180244.00,3435.7943,N,12104.0803,W,1,09,0.8,11.0,M,-33.4,M,,*68
$PYRTM,2024,123.751924904155,14.861572314306
$GPGGA,180245.00,3435.7950,N,12104.0818,W,1,09,0.8,10.1,M,-33.4,M,,*61
$PYRTM,2024,123.751936493241,14.861583903380
$GPGGA,180246.00,3435.7957,N,12104.0827,W,1,09,0.8,10.1,M,-33.4,M,,*69
$PYRTM,2024,123.751943770093,14.861591180231
$GPGGA,180247.00,3435.7967,N,12104.0833,W,1,09,0.8,10.5,M,-33.4,M,,*6A
$PYRTM,2024,123.751959523044,14.861606933183
$GPGGA,180248.00,3435.7982,N,12104.0838,W,1,09,0.8,11.0,M,-33.4,M,,*61
$PYRTM,2024,123.751971085139,14.861618495278
$GPGGA,180249.00,3435.7995,N,12104.0848,W,1,09,0.8,11.3,M,-33.4,M,,*62
$PYRTM,2024,123.751982673275,14.861630083414
$GPGGA,180250.00,3435.8002,N,12104.0865,W,1,09,0.8,11.1,M,-33.4,M,,*6F
$PYRTM,2024,123.751994232708,14.861641642847
$GPGGA,180251.00,3435.8007,N,12104.0883,W,1,09,0.8,10.6,M,-33.4,M,,*65
$PYRTM,2024,123.752005823438,14.861653233576
$GPGGA,180252.00,3435.8016,N,12104.0894,W,1,09,0.8,10.1,M,-33.4,M,,*67
$PYRTM,2024,123.752017380220,14.861664790359
$GPGGA,180253.00,3435.8029,N,12104.0902,W,1,09,0.8,9.9,M,-33.4,M,,*54
$PYRTM,2024,123.752028968241,14.861676378380
$GPGGA,180254.00,3435.8042,N,12104.0910,W,1,09,0.8,10.1,M,-33.4,M,,*6D
$PYRTM,2024,123.752040529294,14.861687939433
$GPGGA,180255.00,3435.8051,N,12104.0921,W,1,09,0.8,10.8,M,-33.4,M,,*65
$PYRTM,2024,123.752052118113,14.861699528252
$GPGGA,180256.00,3435.8060,N,12104.0935,W,1,09,0.8,11.6,M,-33.4,M,,*6E
$PYRTM,2024,123.752063678032,14.861711088171
$GPGGA,180257.00,3435.8070,N,12104.0949,W,1,09,0.8,11.6,M,-33.4,M,,*65
$PYRTM,2024,123.752075267801,14.861722677940
$GPGGA,180258.00,3435.8080,N,12104.0962,W,1,09,0.8,11.1,M,-33.4,M,,*6B
$PYRTM,2024,123.752082660370,14.861730070509
$GPGGA,180259.00,3435.8092,N,12104.0974,W,1,09,0.8,10.5,M,-33.4,M,,*6B
$PYRTM,2024,123.752098413345,14.861745823484
$GPGGA,180300.00,3435.8105,N,12104.0986,W,1,09,0.8,10.1,M,-33.4,M,,*60
$PYRTM,2024,123.752109974109,14.861757384248
$GPGGA,180301.00,3435.8114,N,12104.0996,W,1,09,0.8,10.4,M,-33.4,M,,*65
$PYRTM,2024,123.752121561956,14.861768972095
$GPGGA,180302.00,3435.8121,N,12104.1005,W,1,09,0.8,11.5,M,-33.4,M,,*62
$PYRTM,2024,123.752133122488,14.861780532627
$GPGGA,180303.00,3435.8131,N,12104.1018,W,1,09,0.8,12.2,M,-33.4,M,,*6A
$PYRTM,2024,123.752144712859,14.861792122998
$GPGGA,180304.00,3435.8145,N,12104.1033,W,1,09,0.8,11.5,M,-33.4,M,,*63
$PYRTM,2024,123.752152104167,14.861799514306
$GPGGA,180305.00,3435.8156,N,12104.1047,W,1,09,0.8,10.4,M,-33.4,M,,*63
$PYRTM,2024,123.752167872361,14.861815282500
$GPGGA,180306.00,3435.8162,N,12104.1059,W,1,09,0.8,10.0,M,-33.4,M,,*6C
$PYRTM,2024,123.752175253507,14.861822663646
$GPGGA,180307.00,3435.8170,N,12104.1069,W,1,09,0.8,10.8,M,-33.4,M,,*65
$PYRTM,2024,123.752193913495,14.861841323634
$GPGGA,180308.00,3435.8181,N,12104.1078,W,1,09,0.8,11.5,M,-33.4,M,,*68
$PYRTM,2024,123.752202568414,14.861849978553
$GPGGA,180309.00,3435.8195,N,12104.1091,W,1,09,0.8,11.4,M,-33.4,M,,*6A
$PYRTM,2024,123.752209974549,14.861857384687
$GPGGA,180310.00,3435.8207,N,12104.1107,W,1,09,0.8,10.8,M,-33.4,M,,*69
$PYRTM,2024,123.752225715567,14.861873125706
$GPGGA,180311.00,3435.8214,N,12104.1120,W,1,09,0.8,10.5,M,-33.4,M,,*62
$PYRTM,2024,123.752237303310,14.861884713449
$GPGGA,180312.00,3435.8221,N,12104.1132,W,1,09,0.8,10.6,M,-33.4,M,,*67
$PYRTM,2024,123.752248868183,14.861896278322
$GPGGA,180313.00,3435.8233,N,12104.1145,W,1,09,0.8,10.5,M,-33.4,M,,*66
$PYRTM,2024,123.752260451748,14.861907861887
$GPGGA,180314.00,3435.8245,N,12104.1157,W,1,09,0.8,10.4,M,-33.4,M,,*62
$PYRTM,2024,123.752272012002,14.861919422141
$GPGGA,180315.00,3435.8255,N,12104.1167,W,1,09,0.8,10.7,M,-33.4,M,,*62
$PYRTM,2024,123.752283600880,14.861931011019
$GPGGA,180316.00,3435.8264,N,12104.1178,W,1,09,0.8,11.2,M,-33.4,M,,*69
$PYRTM,2024,123.752290994549,14.861938404687
$GPGGA,180317.00,3435.8276,N,12104.1191,W,1,09,0.8,11.2,M,-33.4,M,,*6C
$PYRTM,2024,123.752306751898,14.861954162037
$GPGGA,180318.00,3435.8288,N,12104.1204,W,1,09,0.8,10.8,M,-33.4,M,,*66
$PYRTM,2024,123.752318309155,14.861965719294
$GPGGA,180319.00,3435.8298,N,12104.1217,W,1,09,0.8,10.5,M,-33.4,M,,*69
$PYRTM,2024,123.752325717130,14.861973127269
$GPGGA,180320.00,3435.8307,N,12104.1231,W,1,09,0.8,10.6,M,-33.4,M,,*63
$PYRTM,2024,123.752341457836,14.861988867975
$GPGGA,180321.00,3435.8317,N,12104.1245,W,1,09,0.8,10.6,M,-33.4,M,,*60
$PYRTM,2024,123.752353047454,14.862000457593
$GPGGA,180322.00,3435.8329,N,12104.1257,W,1,09,0.8,10.8,M,-33.4,M,,*63
$PYRTM,2024,123.752360439745,14.862007849884
$GPGGA,180323.00,3435.8341,N,12104.1267,W,1,09,0.8,11.2,M,-33.4,M,,*64
$PYRTM,2024,123.752376192361,14.862023602500
$GPGGA,180324.00,3435.8352,N,12104.1278,W,1,09,0.8,11.3,M,-33.4,M,,*6E
$PYRTM,2024,123.752387754016,14.862035164155
$GPGGA,180325.00,3435.8363,N,12104.1293,W,1,09,0.8,11.1,M,-33.4,M,,*6A
$PYRTM,2024,123.752395162917,14.862042573067
$GPGGA,180326.00,3435.8372,N,12104.1308,W,1,09,0.8,10.8,M,-33.4,M,,*62
$PYRTM,2024,123.752410903611,14.862058313750
$GPGGA,180327.00,3435.8380,N,12104.1322,W,1,09,0.8,10.7,M,-33.4,M,,*69
$PYRTM,2024,123.752422489942,14.862069900081
$GPGGA,180328.00,3435.8394,N,12104.1330,W,1,09,0.8,10.8,M,-33.4,M,,*6F
$PYRTM,2024,123.752434050602,14.862081460741
$GPGGA,180329.00,3435.8410,N,12104.1337,W,1,09,0.8,10.8,M,-33.4,M,,*62
$PYRTM,2024,123.752445638218,14.862093048356
$GPGGA,180330.00,3435.8422,N,12104.1349,W,1,09,0.8,10.6,M,-33.4,M,,*6C
$PYRTM,2024,123.752457200081,14.862104610231
$GPGGA,180331.00,3435.8429,N,12104.1366,W,1,09,0.8,11.2,M,-33.4,M,,*6E
$PYRTM,2024,123.752468801076,14.862116211215
$GPGGA,180332.00,3435.8437,N,12104.1380,W,1,09,0.8,11.5,M,-33.4,M,,*6D
$PYRTM,2024,123.752480347454,14.862127757593
$GPGGA,180333.00,3435.8452,N,12104.1390,W,1,09,0.8,11.3,M,-33.4,M,,*68
$PYRTM,2024,123.752487755058,14.862135165197
$GPGGA,180334.00,3435.8467,N,12104.1399,W,1,09,0.8,10.8,M,-33.4,M,,*6A
$PYRTM,2024,123.752503497326,14.862150907477
$GPGGA,180335.00,3435.8479,N,12104.1410,W,1,09,0.8,10.4,M,-33.4,M,,*6E
$PYRTM,2024,123.752515083738,14.862162493877
$GPGGA,180336.00,3435.8488,N,12104.1427,W,1,09,0.8,10.2,M,-33.4,M,,*61
$PYRTM,2024,123.752526644352,14.862174054491
$GPGGA,180337.00,3435.8498,N,12104.1441,W,1,09,0.8,10.6,M,-33.4,M,,*65
$PYRTM,2024,123.752534053796,14.862181463935
$GPGGA,180338.00,3435.8512,N,12104.1451,W,1,09,0.8,11.3,M,-33.4,M,,*6C
$PYRTM,2024,123.752552692049,14.862200102188
$GPGGA,180339.00,3435.8528,N,12104.1460,W,1,09,0.8,11.0,M,-33.4,M,,*65
$PYRTM,2024,123.752564279977,14.862211690116
$GPGGA,180340.00,3435.8541,N,12104.1473,W,1,09,0.8,10.6,M,-33.4,M,,*61
$PYRTM,2024,123.752575842593,14.862223252731
$GPGGA,180341.00,3435.8550,N,12104.1488,W,1,09,0.8,10.7,M,-33.4,M,,*65
$PYRTM,2024,123.752584529988,14.862231940127
$GPGGA,180342.00,3435.8561,N,12104.1502,W,1,09,0.8,10.9,M,-33.4,M,,*69
$PYRTM,2024,123.752591922639,14.862239332778
$GPGGA,180343.00,3435.8575,N,12104.1514,W,1,09,0.8,11.1,M,-33.4,M,,*63
$PYRTM,2024,123.752607675752,14.862255085891
$GPGGA,180344.00,3435.8588,N,12104.1523,W,1,09,0.8,11.4,M,-33.4,M,,*67
$PYRTM,2024,123.752619249433,14.862266659572
$GPGGA,180345.00,3435.8598,N,12104.1531,W,1,09,0.8,12.0,M,-33.4,M,,*63
$PYRTM,2024,123.752630825417,14.862278235544
$GPGGA,180346.00,3435.8608,N,12104.1544,W,1,09,0.8,12.2,M,-33.4,M,,*6A
$PYRTM,2024,123.752642401505,14.862289811644
$GPGGA,180347.00,3435.8622,N,12104.1561,W,1,09,0.8,11.2,M,-33.4,M,,*67
$PYRTM,2024,123.752653987870,14.862301398009
$GPGGA,180348.00,3435.8634,N,12104.1574,W,1,09,0.8,10.8,M,-33.4,M,,*60
$PYRTM,2024,123.752665549051,14.862312959190
$GPGGA,180349.00,3435.8642,N,12104.1579,W,1,09,0.8,11.5,M,-33.4,M,,*61
$PYRTM,2024,123.752677136065,14.862324546204
$GPGGA,180350.00,3435.8651,N,12104.1585,W,1,09,0.8,12.6,M,-33.4,M,,*68
$PYRTM,2024,123.752688695081,14.862336105220
$GPGGA,180351.00,3435.8665,N,12104.1596,W,1,09,0.8,12.6,M,-33.4,M,,*6C
$PYRTM,2024,123.752700269722,14.862347679861
$GPGGA,180352.00,3435.8679,N,12104.1610,W,1,09,0.8,11.6,M,-33.4,M,,*6C
$PYRTM,2024,123.752711843634,14.862359253773
$GPGGA,180353.00,3435.8689,N,12104.1619,W,1,09,0.8,11.1,M,-33.4,M,,*6C
$PYRTM,2024,123.752723420810,14.862370830949
$GPGGA,180354.00,3435.8701,N,12104.1624,W,1,09,0.8,11.1,M,-33.4,M,,*64
$PYRTM,2024,123.752734993171,14.862382403310
$GPGGA,180355.00,3435.8714,N,12104.1633,W,1,09,0.8,11.0,M,-33.4,M,,*66
$PYRTM,2024,123.752746565961,14.862393976100
$GPGGA,180356.00,3435.8725,N,12104.1645,W,1,09,0.8,10.8,M,-33.4,M,,*6F
$PYRTM,2024,123.752758140243,14.862405550382
$GPGGA,180357.00,3435.8736,N,12104.1657,W,1,09,0.8,11.0,M,-33.4,M,,*66
$PYRTM,2024,123.752765535775,14.862412945914
$GPGGA,180358.00,3435.8747,N,12104.1665,W,1,09,0.8,11.6,M,-33.4,M,,*68
$PYRTM,2024,123.752781290150,14.862428700289
$GPGGA,180359.00,3435.8760,N,12104.1673,W,1,09,0.8,11.9,M,-33.4,M,,*64
$PYRTM,2024,123.752792878403,14.862440288542
$GPGGA,180400.00,3435.8772,N,12104.1685,W,1,09,0.8,11.5,M,-33.4,M,,*69
$PYRTM,2024,123.752804436644,14.862451846771
$GPGGA,180401.00,3435.8783,N,12104.1696,W,1,09,0.8,11.1,M,-33.4,M,,*60
$PYRTM,2024,123.752816014595,14.862463424745
$GPGGA,180402.00,3435.8793,N,12104.1702,W,1,09,0.8,11.3,M,-33.4,M,,*6C
$PYRTM,2024,123.752827586563,14.862474996701
$GPGGA,180403.00,3435.8805,N,12104.1709,W,1,09,0.8,11.7,M,-33.4,M,,*62
$PYRTM,2024,123.752839174954,14.862486585093
$GPGGA,180404.00,3435.8817,N,12104.1722,W,1,09,0.8,11.8,M,-33.4,M,,*60
$PYRTM,2024,123.752850735046,14.862498145185
$GPGGA,180405.00,3435.8828,N,12104.1737,W,1,09,0.8,11.3,M,-33.4,M,,*62
$PYRTM,2024,123.752862308657,14.862509718796
$GPGGA,180406.00,3435.8838,N,12104.1748,W,1,09,0.8,11.1,M,-33.4,M,,*6A
$PYRTM,2024,123.752869717454,14.862517127593
$GPGGA,180407.00,3435.8851,N,12104.1753,W,1,09,0.8,11.3,M,-33.4,M,,*6C
$PYRTM,2024,123.752885457778,14.862532867917
$GPGGA,180408.00,3435.8866,N,12104.1759,W,1,09,0.8,11.4,M,-33.4,M,,*6A
$PYRTM,2024,123.752892866632,14.862540276771
$GPGGA,180409.00,3435.8878,N,12104.1770,W,1,09,0.8,11.5,M,-33.4,M,,*6E
$PYRTM,2024,123.752911501458,14.862558911597
$GPGGA,180410.00,3435.8886,N,12104.1785,W,1,09,0.8,11.7,M,-33.4,M,,*6F
$PYRTM,2024,123.752920179201,14.862567589340
$GPGGA,180411.00,3435.8895,N,12104.1800,W,1,09,0.8,11.4,M,-33.4,M,,*6D
$PYRTM,2024,123.752931752477,14.862579162616
$GPGGA,180412.00,3435.8909,N,12104.1810,W,1,09,0.8,10.8,M,-33.4,M,,*66
$PYRTM,2024,123.752943326968,14.862590737118
$GPGGA,180413.00,3435.8925,N,12104.1816,W,1,09,0.8,10.5,M,-33.4,M,,*62
$PYRTM,2024,123.752954901898,14.862602312037
$GPGGA,180414.00,3435.8938,N,12104.1824,W,1,09,0.8,10.8,M,-33.4,M,,*65
$PYRTM,2024,123.752962296412,14.862609706551
$GPGGA,180415.00,3435.8947,N,12104.1836,W,1,09,0.8,11.3,M,-33.4,M,,*65
$PYRTM,2024,123.752978054317,14.862625464456
$GPGGA,180416.00,3435.8957,N,12104.1851,W,1,09,0.8,11.6,M,-33.4,M,,*63
$PYRTM,2024,123.752989624120,14.862637034259
$GPGGA,180417.00,3435.8970,N,12104.1864,W,1,09,0.8,11.5,M,-33.4,M,,*62
$PYRTM,2024,123.753001201632,14.862648611771
$GPGGA,180418.00,3435.8983,N,12104.1874,W,1,09,0.8,11.3,M,-33.4,M,,*66
$PYRTM,2024,123.753013118889,14.862660529028
$GPGGA,180419.00,3435.8998,N,12104.1883,W,1,09,0.8,10.9,M,-33.4,M,,*6E
$PYRTM,2024,123.753024347431,14.862671757569
$GPGGA,180420.00,3435.9011,N,12104.1894,W,1,09,0.8,10.4,M,-33.4,M,,*66
$PYRTM,2024,123.753035920833,14.862683330972
$GPGGA,180421.00,3435.9022,N,12104.1906,W,1,09,0.8,10.5,M,-33.4,M,,*6C
$PYRTM,2024,123.753047842442,14.862695252581
$GPGGA,180422.00,3435.9032,N,12104.1917,W,1,09,0.8,11.1,M,-33.4,M,,*6B
$PYRTM,2024,123.753059069028,14.862706479178
$GPGGA,180423.00,3435.9044,N,12104.1930,W,1,09,0.8,11.4,M,-33.4,M,,*6B
$PYRTM,2024,123.753070642824,14.862718052963
$GPGGA,180424.00,3435.9058,N,12104.1943,W,1,09,0.8,10.9,M,-33.4,M,,*69
$PYRTM,2024,123.753082589919,14.862730000058
$GPGGA,180425.00,3435.9069,N,12104.1954,W,1,09,0.8,10.9,M,-33.4,M,,*6C
$PYRTM,2024,123.753093791389,14.862741201528
$GPGGA,180426.00,3435.9079,N,12104.1964,W,1,09,0.8,11.1,M,-33.4,M,,*64
$PYRTM,2024,123.753101188565,14.862748598704
$GPGGA,180427.00,3435.9091,N,12104.1977,W,1,09,0.8,10.8,M,-33.4,M,,*69
$PYRTM,2024,123.753112992813,14.862760402963
$GPGGA,180428.00,3435.9104,N,12104.1990,W,1,09,0.8,10.5,M,-33.4,M,,*6F
$PYRTM,2024,123.753128514167,14.862775924306
$GPGGA,180429.00,3435.9114,N,12104.2001,W,1,09,0.8,10.8,M,-33.4,M,,*60
$PYRTM,2024,123.753140103715,14.862787513854
$GPGGA,180430.00,3435.9126,N,12104.2012,W,1,09,0.8,11.0,M,-33.4,M,,*62
$PYRTM,2024,123.753151661655,14.862799071794
$GPGGA,180431.00,3435.9139,N,12104.2024,W,1,09,0.8,11.3,M,-33.4,M,,*6B
$PYRTM,2024,123.753163252870,14.862810663009
$GPGGA,180432.00,3435.9149,N,12104.2037,W,1,09,0.8,11.9,M,-33.4,M,,*67
$PYRTM,2024,123.753174809861,14.862822220000
$GPGGA,180433.00,3435.9156,N,12104.2048,W,1,09,0.8,12.9,M,-33.4,M,,*63
$PYRTM,2024,123.753186385440,14.862833795579
$GPGGA,180434.00,3435.9169,N,12104.2062,W,1,09,0.8,12.4,M,-33.4,M,,*6D
$PYRTM,2024,123.753197959097,14.862845369236
$GPGGA,180435.00,3435.9186,N,12104.2074,W,1,09,0.8,10.8,M,-33.4,M,,*64
$PYRTM,2024,123.753209532546,14.862856942685
$GPGGA,180436.00,3435.9197,N,12104.2084,W,1,09,0.8,10.2,M,-33.4,M,,*62
$PYRTM,2024,123.753216942454,14.862864352593
$GPGGA,180437.00,3435.9205,N,12104.2092,W,1,09,0.8,10.9,M,-33.4,M,,*67
$PYRTM,2024,123.753232684340,14.862880094479
$GPGGA,180438.00,3435.9215,N,12104.2104,W,1,09,0.8,11.2,M,-33.4,M,,*6D
$PYRTM,2024,123.753244256458,14.862891666597
$GPGGA,180439.00,3435.9227,N,12104.2120,W,1,09,0.8,11.2,M,-33.4,M,,*6B
$PYRTM,2024,123.753251649931,14.862899060069
$GPGGA,180440.00,3435.9241,N,12104.2134,W,1,09,0.8,10.3,M,-33.4,M,,*60
$PYRTM,2024,123.753270297535,14.862917707674
$GPGGA,180441.00,3435.9253,N,12104.2146,W,1,09,0.8,9.6,M,-33.4,M,,*5A
$PYRTM,2024,123.753278989120,14.862926399259
$GPGGA,180442.00,3435.9263,N,12104.2156,W,1,09,0.8,9.5,M,-33.4,M,,*58
$PYRTM,2024,123.753290552373,14.862937962512
$GPGGA,180443.00,3435.9274,N,12104.2166,W,1,09,0.8,9.9,M,-33.4,M,,*50
$PYRTM,2024,123.753302243287,14.862949653426
$GPGGA,180444.00,3435.9288,N,12104.2179,W,1,09,0.8,10.1,M,-33.4,M,,*6A
$PYRTM,2024,123.753313815984,14.862961226123
$GPGGA,180445.00,3435.9299,N,12104.2195,W,1,09,0.8,10.0,M,-33.4,M,,*68
$PYRTM,2024,123.753325394363,14.862972804514
$GPGGA,180446.00,3435.9306,N,12104.2208,W,1,10,0.8,10.2,M,-33.4,M,,*61
$PYRTM,2024,123.753332683773,14.862980093924
$GPGGA,180447.00,3435.9315,N,12104.2218,W,1,10,0.8,11.0,M,-33.4,M,,*60
$PYRTM,2024,123.753348540475,14.862995950613
$GPGGA,180448.00,3435.9330,N,12104.2227,W,1,10,0.8,10.9,M,-33.4,M,,*6C
$PYRTM,2024,123.753355832674,14.863003242812
$GPGGA,180449.00,3435.9344,N,12104.2239,W,1,10,0.8,10.0,M,-33.4,M,,*68
$PYRTM,2024,123.753371689514,14.863019099653
$GPGGA,180450.00,3435.9353,N,12104.2252,W,1,10,0.8,9.7,M,-33.4,M,,*54
$PYRTM,2024,123.753383146736,14.863030556875
$GPGGA,180451.00,3435.9358,N,12104.2266,W,1,10,0.8,10.2,M,-33.4,M,,*64
$PYRTM,2024,123.753394732824,14.863042142963
$GPGGA,180452.00,3435.9369,N,12104.2276,W,1,10,0.8,10.4,M,-33.4,M,,*62
$PYRTM,2024,123.753406294861,14.863053705000
$GPGGA,180453.00,3435.9384,N,12104.2287,W,1,10,0.8,10.4,M,-33.4,M,,*6E
$PYRTM,2024,123.753417880382,14.863065290521
$GPGGA,180454.00,3435.9399,N,12104.2300,W,1,10,0.8,9.9,M,-33.4,M,,*5E
$PYRTM,2024,123.753429438403,14.863076848542
$GPGGA,180455.00,3435.9408,N,12104.2311,W,1,10,0.8,10.2,M,-33.4,M,,*63
$PYRTM,2024,123.753441016493,14.863088426632
$GPGGA,180456.00,3435.9416,N,12104.2321,W,1,10,0.8,10.4,M,-33.4,M,,*6A
$PYRTM,2024,123.753452590509,14.863100000648
$GPGGA,180457.00,3435.9430,N,12104.2334,W,1,10,0.8,9.8,M,-33.4,M,,*5F
$PYRTM,2024,123.753464173079,14.863111583218
$GPGGA,180458.00,3435.9442,N,12104.2347,W,1,10,0.8,9.3,M,-33.4,M,,*5A
$PYRTM,2024,123.753475739363,14.863123149502
$GPGGA,180459.00,3435.9451,N,12104.2356,W,1,10,0.8,10.1,M,-33.4,M,,*63
$PYRTM,2024,123.753487321794,14.863134731933
$GPGGA,180500.00,3435.9460,N,12104.2366,W,1,10,0.8,11.0,M,-33.4,M,,*6F
$PYRTM,2024,123.753498887801,14.863146297940
$GPGGA,180501.00,3435.9473,N,12104.2379,W,1,10,0.8,11.0,M,-33.4,M,,*62
$PYRTM,2024,123.753510471285,14.863157881424
$GPGGA,180502.00,3435.9486,N,12104.2393,W,1,10,0.8,10.2,M,-33.4,M,,*6C
$PYRTM,2024,123.753522037083,14.863169447234
$GPGGA,180503.00,3435.9497,N,12104.2405,W,1,10,0.8,9.7,M,-33.4,M,,*58
$PYRTM,2024,123.753533622141,14.863181032280
$GPGGA,180504.00,3435.9507,N,12104.2416,W,1,10,0.8,9.9,M,-33.4,M,,*5B
$PYRTM,2024,123.753541020324,14.863188430463
$GPGGA,180505.00,3435.9519,N,12104.2426,W,1,10,0.8,10.2,M,-33.4,M,,*65
$PYRTM,2024,123.753556770336,14.863204180475
$GPGGA,180506.00,3435.9531,N,12104.2437,W,1,10,0.8,10.5,M,-33.4,M,,*6B
$PYRTM,2024,123.753568333183,14.863215743322
$GPGGA,180507.00,3435.9543,N,12104.2450,W,1,10,0.8,10.6,M,-33.4,M,,*6D
$PYRTM,2024,123.753575728021,14.863223138160
$GPGGA,180508.00,3435.9553,N,12104.2465,W,1,10,0.8,10.6,M,-33.4,M,,*65
$PYRTM,2024,123.753591482269,14.863238892407
$GPGGA,180509.00,3435.9564,N,12104.2480,W,1,10,0.8,10.1,M,-33.4,M,,*6C
$PYRTM,2024,123.753598876204,14.863246286343
$GPGGA,180510.00,3435.9575,N,12104.2490,W,1,10,0.8,10.0,M,-33.4,M,,*64
$PYRTM,2024,123.753610680648,14.863258090787
$GPGGA,180511.00,3435.9589,N,12104.2497,W,1,10,0.8,10.2,M,-33.4,M,,*63
$PYRTM,2024,123.753629097523,14.863276507662
$GPGGA,180512.00,3435.9603,N,12104.2508,W,1,10,0.8,10.2,M,-33.4,M,,*66
$PYRTM,2024,123.753637779456,14.863285189595
$GPGGA,180513.00,3435.9614,N,12104.2524,W,1,10,0.8,10.3,M,-33.4,M,,*6E
$PYRTM,2024,123.753649360405,14.863296770544
$GPGGA,180514.00,3435.9621,N,12104.2540,W,1,10,0.8,10.8,M,-33.4,M,,*66
$PYRTM,2024,123.753660921771,14.863308331910
$GPGGA,180515.00,3435.9630,N,12104.2554,W,1,10,0.8,11.3,M,-33.4,M,,*68
$PYRTM,2024,123.753672500440,14.863319910579
$GPGGA,180516.00,3435.9644,N,12104.2565,W,1,10,0.8,11.2,M,-33.4,M,,*6B
$PYRTM,2024,123.753684075741,14.863331485880
$GPGGA,180517.00,3435.9660,N,12104.2576,W,1,10,0.8,10.2,M,-33.4,M,,*6F
$PYRTM,2024,123.753695648530,14.863343058657
$GPGGA,180518.00,3435.9674,N,12104.2589,W,1,10,0.8,9.5,M,-33.4,M,,*5A
$PYRTM,2024,123.753703056655,14.863350466794
$GPGGA,180519.00,3435.9682,N,12104.2603,W,1,10,0.8,10.0,M,-33.4,M,,*6E
$PYRTM,2024,123.753718796968,14.863366207106
$GPGGA,180520.00,3435.9691,N,12104.2618,W,1,10,0.8,10.4,M,-33.4,M,,*68
$PYRTM,2024,123.753730371377,14.863377781516
$GPGGA,180521.00,3435.9704,N,12104.2630,W,1,10,0.8,11.1,M,-33.4,M,,*6A
$PYRTM,2024,123.753741945590,14.863389355729
$GPGGA,180522.00,3435.9718,N,12104.2640,W,1,10,0.8,10.9,M,-33.4,M,,*6A
$PYRTM,2024,123.753753520903,14.863400931042
$GPGGA,180523.00,3435.9732,N,12104.2653,W,1,10,0.8,9.4,M,-33.4,M,,*54
$PYRTM,2024,123.753760915231,14.863408325370
$GPGGA,180524.00,3435.9742,N,12104.2671,W,1,10,0.8,8.4,M,-33.4,M,,*55
$PYRTM,2024,123.753776668762,14.863424078900
$GPGGA,180525.00,3435.9749,N,12104.2684,W,1,10,0.8,8.4,M,-33.4,M,,*55
$PYRTM,2024,123.753784064005,14.863431474144
$GPGGA,180526.00,3435.9760,N,12104.2694,W,1,10,0.8,8.9,M,-33.4,M,,*51
$PYRTM,2024,123.753799816748,14.863447226887
$GPGGA,180527.00,3435.9776,N,12104.2703,W,1,10,0.8,9.1,M,-33.4,M,,*51
$PYRTM,2024,123.753811399097,14.863458809236
$GPGGA,180528.00,3435.9792,N,12104.2717,W,1,10,0.8,8.7,M,-33.4,M,,*56
$PYRTM,2024,123.753822965255,14.863470375405
$GPGGA,180529.00,3435.9802,N,12104.2732,W,1,10,0.8,8.4,M,-33.4,M,,*55
$PYRTM,2024,123.753834547836,14.863481957975
$GPGGA,180530.00,3435.9809,N,12104.2746,W,1,10,0.8,9.2,M,-33.4,M,,*52
$PYRTM,2024,123.753846114259,14.863493524398
$GPGGA,180531.00,3435.9818,N,12104.2755,W,1,10,0.8,9.8,M,-33.4,M,,*5B
$PYRTM,2024,123.753857699225,14.863505109375
$GPGGA,180532.00,3435.9833,N,12104.2766,W,1,10,0.8,9.6,M,-33.4,M,,*5F
$PYRTM,2024,123.753869255972,14.863516666111
$GPGGA,180533.00,3435.9849,N,12104.2778,W,1,10,0.8,8.6,M,-33.4,M,,*5D
$PYRTM,2024,123.753880850567,14.863528260706
$GPGGA,180534.00,3435.9861,N,12104.2789,W,1,10,0.8,8.7,M,-33.4,M,,*5F
$PYRTM,2024,123.753892410914,14.863539821053
$GPGGA,180535.00,3435.9867,N,12104.2801,W,1,10,0.8,9.3,M,-33.4,M,,*52
$PYRTM,2024,123.753903984815,14.863551394954
$GPGGA,180536.00,3435.9875,N,12104.2814,W,1,10,0.8,10.0,M,-33.4,M,,*6D
$PYRTM,2024,123.753915553866,14.863562964005
$GPGGA,180537.00,3435.9889,N,12104.2828,W,1,10,0.8,9.7,M,-33.4,M,,*5F
$PYRTM,2024,123.753922954282,14.863570364421
$GPGGA,180538.00,3435.9903,N,12104.2838,W,1,10,0.8,9.4,M,-33.4,M,,*51
$PYRTM,2024,123.753938700845,14.863586110984
$GPGGA,180539.00,3435.9915,N,12104.2847,W,1,10,0.8,9.6,M,-33.4,M,,*5D
$PYRTM,2024,123.753950268264,14.863597678403
$GPGGA,180540.00,3435.9924,N,12104.2857,W,1,10,0.8,10.0,M,-33.4,M,,*6E
$PYRTM,2024,123.753961855278,14.863609265417
$GPGGA,180541.00,3435.9933,N,12104.2871,W,1,10,0.8,10.2,M,-33.4,M,,*6F
$PYRTM,2024,123.753969250185,14.863616660324
$GPGGA,180542.00,3435.9943,N,12104.2887,W,1,10,0.8,10.0,M,-33.4,M,,*60
$PYRTM,2024,123.753987898368,14.863635308507
$GPGGA,180543.00,3435.9956,N,12104.2902,W,1,10,0.8,9.2,M,-33.4,M,,*53
$PYRTM,2024,123.753996564537,14.863643974676
$GPGGA,180544.00,3435.9968,N,12104.2913,W,1,10,0.8,9.3,M,-33.4,M,,*58
$PYRTM,2024,123.754008151296,14.863655561435
$GPGGA,180545.00,3435.9978,N,12104.2923,W,1,10,0.8,9.8,M,-33.4,M,,*50
$PYRTM,2024,123.754019715046,14.863667125185
$GPGGA,180546.00,3435.9988,N,12104.2937,W,1,10,0.8,10.3,M,-33.4,M,,*6A
$PYRTM,2024,123.754031300521,14.863678710660
$GPGGA,180547.00,3435.9998,N,12104.2952,W,1,10,0.8,10.6,M,-33.4,M,,*6C
$PYRTM,2024,123.754042861655,14.863690271794
$GPGGA,180548.00,3436.0010,N,12104.2963,W,1,10,0.8,10.7,M,-33.4,M,,*63
$PYRTM,2024,123.754054464016,14.863701874155
$GPGGA,180549.00,3436.0025,N,12104.2974,W,1,10,0.8,10.0,M,-33.4,M,,*65
$PYRTM,2024,123.754066011586,14.863713421725
$GPGGA,180550.00,3436.0039,N,12104.2990,W,1,10,0.8,8.9,M,-33.4,M,,*5A
$PYRTM,2024,123.754073417072,14.863720827211
$GPGGA,180551.00,3436.0047,N,12104.3006,W,1,10,0.8,8.7,M,-33.4,M,,*5B
$PYRTM,2024,123.754092076470,14.863739486620
$GPGGA,180552.00,3436.0054,N,12104.3017,W,1,10,0.8,9.6,M,-33.4,M,,*5A
$PYRTM,2024,123.754103638472,14.863751048611
$GPGGA,180553.00,3436.0066,N,12104.3023,W,1,10,0.8,10.9,M,-33.4,M,,*6A
$PYRTM,2024,123.754112307500,14.863759717639
$GPGGA,180554.00,3436.0083,N,12104.3033,W,1,10,0.8,11.1,M,-33.4,M,,*6E
$PYRTM,2024,123.754119715093,14.863767125231
$GPGGA,180555.00,3436.0096,N,12104.3048,W,1,10,0.8,10.1,M,-33.4,M,,*66
$PYRTM,2024,123.754135455359,14.863782865498
$GPGGA,180556.00,3436.0101,N,12104.3064,W,1,10,0.8,9.4,M,-33.4,M,,*59
$PYRTM,2024,123.754147046296,14.863794456435
$GPGGA,180557.00,3436.0106,N,12104.3074,W,1,10,0.8,9.8,M,-33.4,M,,*52
$PYRTM,2024,123.754158605613,14.863806015752
$GPGGA,180558.00,3436.0118,N,12104.3083,W,1,10,0.8,10.3,M,-33.4,M,,*69
$PYRTM,2024,123.754170192558,14.863817602697
$GPGGA,180559.00,3436.0134,N,12104.3093,W,1,10,0.8,10.1,M,-33.4,M,,*65
$PYRTM,2024,123.754181752396,14.863829162535
$GPGGA,180600.00,3436.0145,N,12104.3106,W,1,10,0.8,10.1,M,-33.4,M,,*61
$PYRTM,2024,123.754193340231,14.863840750370
$GPGGA,180601.00,3436.0152,N,12104.3120,W,1,10,0.8,10.5,M,-33.4,M,,*66
$PYRTM,2024,123.754204902500,14.863852312650
$GPGGA,180602.00,3436.0161,N,12104.3134,W,1,10,0.8,11.0,M,-33.4,M,,*64
$PYRTM,2024,123.754216490012,14.863863900150
$GPGGA,180603.00,3436.0173,N,12104.3147,W,1,10,0.8,10.6,M,-33.4,M,,*65
$PYRTM,2024,123.754228048079,14.863875458218
$GPGGA,180604.00,3436.0184,N,12104.3157,W,1,10,0.8,10.5,M,-33.4,M,,*68
$PYRTM,2024,123.754239650370,14.863887060509
$GPGGA,180605.00,3436.0195,N,12104.3167,W,1,10,0.8,10.8,M,-33.4,M,,*67
$PYRTM,2024,123.754247044769,14.863894454907
$GPGGA,180606.00,3436.0208,N,12104.3177,W,1,10,0.8,10.9,M,-33.4,M,,*63
$PYRTM,2024,123.754262787130,14.863910197269
$GPGGA,180607.00,3436.0220,N,12104.3190,W,1,10,0.8,10.9,M,-33.4,M,,*61
$PYRTM,2024,123.754274345671,14.863921755822
$GPGGA,180608.00,3436.0227,N,12104.3205,W,1,10,0.8,10.9,M,-33.4,M,,*66
$PYRTM,2024,123.754285932998,14.863933343137
$GPGGA,180609.00,3436.0235,N,12104.3221,W,1,10,0.8,10.9,M,-33.4,M,,*62
$PYRTM,2024,123.754297493310,14.863944903449
$GPGGA,180610.00,3436.0248,N,12104.3232,W,1,10,0.8,10.8,M,-33.4,M,,*63
$PYRTM,2024,123.754309080556,14.863956490694
$GPGGA,180611.00,3436.0264,N,12104.3241,W,1,10,0.8,10.6,M,-33.4,M,,*66
$PYRTM,2024,123.754320642419,14.863968052558
$GPGGA,180612.00,3436.0276,N,12104.3252,W,1,10,0.8,10.5,M,-33.4,M,,*67
$PYRTM,2024,123.754328049583,14.863975459722
$GPGGA,180613.00,3436.0283,N,12104.3266,W,1,10,0.8,10.9,M,-33.4,M,,*67
$PYRTM,2024,123.754346721644,14.863994131782
$GPGGA,180614.00,3436.0290,N,12104.3282,W,1,10,0.8,11.5,M,-33.4,M,,*65
$PYRTM,2024,123.754355372477,14.864002782616
$GPGGA,180615.00,3436.0303,N,12104.3297,W,1,10,0.8,10.5,M,-33.4,M,,*6A
$PYRTM,2024,123.754366938067,14.864014348206
$GPGGA,180616.00,3436.0317,N,12104.3309,W,1,10,0.8,10.2,M,-33.4,M,,*6D
$PYRTM,2024,123.754378528912,14.864025939051
$GPGGA,180617.00,3436.0328,N,12104.3319,W,1,10,0.8,10.5,M,-33.4,M,,*66
$PYRTM,2024,123.754390087593,14.864037497731
$GPGGA,180618.00,3436.0337,N,12104.3330,W,1,10,0.8,10.9,M,-33.4,M,,*60
$PYRTM,2024,123.754401678148,14.864049088287
$GPGGA,180619.00,3436.0348,N,12104.3343,W,1,10,0.8,11.3,M,-33.4,M,,*66
$PYRTM,2024,123.754413237164,14.864060647315
$GPGGA,180620.00,3436.0359,N,12104.3357,W,1,10,0.8,11.6,M,-33.4,M,,*6C
$PYRTM,2024,123.754420644317,14.864068054456
$GPGGA,180621.00,3436.0372,N,12104.3371,W,1,10,0.8,11.4,M,-33.4,M,,*62
$PYRTM,2024,123.754436384699,14.864083794838
$GPGGA,180622.00,3436.0383,N,12104.3385,W,1,10,0.8,11.1,M,-33.4,M,,*61
$PYRTM,2024,123.754447970266,14.864095380405
$GPGGA,180623.00,3436.0393,N,12104.3396,W,1,10,0.8,11.4,M,-33.4,M,,*66
$PYRTM,2024,123.754455379942,14.864102790081
$GPGGA,180624.00,3436.0403,N,12104.3406,W,1,10,0.8,12.0,M,-33.4,M,,*66
$PYRTM,2024,123.754471118808,14.864118528947
$GPGGA,180625.00,3436.0416,N,12104.3417,W,1,10,0.8,12.3,M,-33.4,M,,*60
$PYRTM,2024,123.754482680451,14.864130090590
$GPGGA,180626.00,3436.0430,N,12104.3431,W,1,10,0.8,11.7,M,-33.4,M,,*64
$PYRTM,2024,123.754494268947,14.864141679086
$GPGGA,180627.00,3436.0440,N,12104.3447,W,1,10,0.8,11.2,M,-33.4,M,,*66
$PYRTM,2024,123.754505827708,14.864153237847
$GPGGA,180628.00,3436.0446,N,12104.3458,W,1,10,0.8,11.7,M,-33.4,M,,*64
$PYRTM,2024,123.754517411123,14.864164821262
$GPGGA,180629.00,3436.0457,N,12104.3469,W,1,10,0.8,12.3,M,-33.4,M,,*60
$PYRTM,2024,123.754524811910,14.864172222049
$GPGGA,180630.00,3436.0471,N,12104.3482,W,1,10,0.8,12.2,M,-33.4,M,,*68
$PYRTM,2024,123.754540567465,14.864187977604
$GPGGA,180631.00,3436.0481,N,12104.3494,W,1,10,0.8,12.0,M,-33.4,M,,*63
$PYRTM,2024,123.754552125451,14.864199535590
$GPGGA,180632.00,3436.0487,N,12104.3508,W,1,10,0.8,12.0,M,-33.4,M,,*62
$PYRTM,2024,123.754563715104,14.864211125243
$GPGGA,180633.00,3436.0496,N,12104.3524,W,1,10,0.8,11.6,M,-33.4,M,,*68
$PYRTM,2024,123.754575273542,14.864222683681
$GPGGA,180634.00,3436.0508,N,12104.3537,W,1,10,0.8,11.2,M,-33.4,M,,*6F
$PYRTM,2024,123.754586862025,14.864234272164
$GPGGA,180635.00,3436.0519,N,12104.3544,W,1,10,0.8,11.5,M,-33.4,M,,*6D
$PYRTM,2024,123.754598422836,14.864245832975
$GPGGA,180636.00,3436.0528,N,12104.3552,W,1,10,0.8,12.3,M,-33.4,M,,*6E
$PYRTM,2024,123.754610008333,14.864257418472
$GPGGA,180637.00,3436.0538,N,12104.3568,W,1,10,0.8,12.6,M,-33.4,M,,*62
$PYRTM,2024,123.754617420428,14.864264830579
$GPGGA,180638.00,3436.0546,N,12104.3586,W,1,10,0.8,12.0,M,-33.4,M,,*62
$PYRTM,2024,123.754633157535,14.864280567674
$GPGGA,180639.00,3436.0553,N,12104.3600,W,1,10,0.8,11.6,M,-33.4,M,,*6F
$PYRTM,2024,123.754644718183,14.864292128322
$GPGGA,180640.00,3436.0564,N,12104.3610,W,1,10,0.8,11.3,M,-33.4,M,,*61
$PYRTM,2024,123.754652126400,14.864299536539
$GPGGA,180641.00,3436.0578,N,12104.3620,W,1,10,0.8,11.3,M,-33.4,M,,*6E
$PYRTM,2024,123.754667867766,14.864315277917
$GPGGA,180642.00,3436.0589,N,12104.3631,W,1,10,0.8,11.6,M,-33.4,M,,*66
$PYRTM,2024,123.754679455255,14.864326865394
$GPGGA,180643.00,3436.0594,N,12104.3647,W,1,10,0.8,12.4,M,-33.4,M,,*6B
$PYRTM,2024,123.754686850914,14.864334261053
$GPGGA,180644.00,3436.0600,N,12104.3667,W,1,10,0.8,12.3,M,-33.4,M,,*67
$PYRTM,2024,123.754705497245,14.864352907384
$GPGGA,180645.00,3436.0610,N,12104.3685,W,1,10,0.8,11.0,M,-33.4,M,,*6B
$PYRTM,2024,123.754714164317,14.864361574456
$GPGGA,180646.00,3436.0621,N,12104.3692,W,1,10,0.8,10.2,M,-33.4,M,,*6F
$PYRTM,2024,123.754725753738,14.864373163877
$GPGGA,180647.00,3436.0630,N,12104.3696,W,1,10,0.8,10.4,M,-33.4,M,,*6C
$PYRTM,2024,123.754737312164,14.864384722303
$GPGGA,180648.00,3436.0640,N,12104.3706,W,1,10,0.8,10.7,M,-33.4,M,,*6F
$PYRTM,2024,123.754749014456,14.864396424595
$GPGGA,180649.00,3436.0649,N,12104.3723,W,1,10,0.8,10.3,M,-33.4,M,,*64
$PYRTM,2024,123.754760600359,14.864408010498
$GPGGA,180650.00,3436.0654,N,12104.3738,W,1,10,0.8,10.4,M,-33.4,M,,*6D
$PYRTM,2024,123.754772162627,14.864419572766
$GPGGA,180651.00,3436.0660,N,12104.3749,W,1,10,0.8,10.9,M,-33.4,M,,*60
$PYRTM,2024,123.754779456470,14.864426866597
$GPGGA,180652.00,3436.0671,N,12104.3758,W,1,10,0.8,11.2,M,-33.4,M,,*69
$PYRTM,2024,123.754795305926,14.864442716065
$GPGGA,180653.00,3436.0683,N,12104.3767,W,1,10,0.8,11.3,M,-33.4,M,,*68
$PYRTM,2024,123.754806908461,14.864454318600
$GPGGA,180654.00,3436.0695,N,12104.3777,W,1,10,0.8,11.0,M,-33.4,M,,*6A
$PYRTM,2024,123.754818459120,14.864465869259
$GPGGA,180655.00,3436.0704,N,12104.3790,W,1,10,0.8,11.1,M,-33.4,M,,*6A
$PYRTM,2024,123.754825739213,14.864473149352
$GPGGA,180656.00,3436.0709,N,12104.3806,W,1,10,0.8,11.3,M,-33.4,M,,*66
$PYRTM,2024,123.754844384618,14.864491794757
$GPGGA,180657.00,3436.0718,N,12104.3820,W,1,10,0.8,11.3,M,-33.4,M,,*63
$PYRTM,2024,123.754853054780,14.864500464931
$GPGGA,180658.00,3436.0730,N,12104.3831,W,1,10,0.8,11.1,M,-33.4,M,,*64
$PYRTM,2024,123.754860463171,14.864507873310
$GPGGA,180659.00,3436.0742,N,12104.3840,W,1,10,0.8,10.9,M,-33.4,M,,*6F
$PYRTM,2024,123.754876202014,14.864523612153
$GPGGA,180700.00,3436.0750,N,12104.3852,W,1,10,0.8,11.2,M,-33.4,M,,*68
$PYRTM,2024,123.754887792373,14.864535202512
$GPGGA,180701.00,3436.0758,N,12104.3867,W,1,10,0.8,11.3,M,-33.4,M,,*66
$PYRTM,2024,123.754899350405,14.864546760544
$GPGGA,180702.00,3436.0768,N,12104.3881,W,1,10,0.8,11.1,M,-33.4,M,,*6C
$PYRTM,2024,123.754910951817,14.864558361956
$GPGGA,180703.00,3436.0779,N,12104.3892,W,1,10,0.8,10.8,M,-33.4,M,,*67
$PYRTM,2024,123.754922501146,14.864569911285
$GPGGA,180704.00,3436.0787,N,12104.3903,W,1,10,0.8,11.0,M,-33.4,M,,*61
$PYRTM,2024,123.754929906354,14.864577316493
$GPGGA,180705.00,3436.0796,N,12104.3917,W,1,10,0.8,11.0,M,-33.4,M,,*65
$PYRTM,2024,123.754945646296,14.864593056435
$GPGGA,180706.00,3436.0807,N,12104.3932,W,1,10,0.8,10.8,M,-33.4,M,,*6F
$PYRTM,2024,123.754957234132,14.864604644282
$GPGGA,180707.00,3436.0815,N,12104.3944,W,1,10,0.8,11.3,M,-33.4,M,,*66
$PYRTM,2024,123.754968796169,14.864616206308
$GPGGA,180708.00,3436.0822,N,12104.3954,W,1,10,0.8,12.1,M,-33.4,M,,*6D
$PYRTM,2024,123.754980383252,14.864627793403
$GPGGA,180709.00,3436.0832,N,12104.3966,W,1,10,0.8,12.3,M,-33.4,M,,*6E
$PYRTM,2024,123.754987777639,14.864635187778
$GPGGA,180710.00,3436.0844,N,12104.3981,W,1,10,0.8,11.3,M,-33.4,M,,*6D
$PYRTM,2024,123.755003532778,14.864650942917
$GPGGA,180711.00,3436.0854,N,12104.3994,W,1,10,0.8,10.4,M,-33.4,M,,*6F
$PYRTM,2024,123.755015093183,14.864662503333
$GPGGA,180712.00,3436.0860,N,12104.4004,W,1,10,0.8,10.9,M,-33.4,M,,*61
$PYRTM,2024,123.755026680984,14.864674091123
$GPGGA,180713.00,3436.0867,N,12104.4014,W,1,10,0.8,12.0,M,-33.4,M,,*6D
$PYRTM,2024,123.755038241505,14.864685651644
$GPGGA,180714.00,3436.0878,N,12104.4028,W,1,10,0.8,12.1,M,-33.4,M,,*6A
$PYRTM,2024,123.755045649329,14.864693059468
$GPGGA,180715.00,3436.0890,N,12104.4045,W,1,10,0.8,11.3,M,-33.4,M,,*67
$PYRTM,2024,123.755064306389,14.864711716528
$GPGGA,180716.00,3436.0899,N,12104.4057,W,1,10,0.8,10.7,M,-33.4,M,,*6B
$PYRTM,2024,123.755072980289,14.864720390428
$GPGGA,180717.00,3436.0907,N,12104.4065,W,1,10,0.8,11.0,M,-33.4,M,,*6B
$PYRTM,2024,123.755084538079,14.864731948218
$GPGGA,180718.00,3436.0917,N,12104.4076,W,1,10,0.8,11.2,M,-33.4,M,,*65
$PYRTM,2024,123.755096125637,14.864743535775
$GPGGA,180719.00,3436.0927,N,12104.4091,W,1,10,0.8,11.1,M,-33.4,M,,*6D
$PYRTM,2024,123.755107685093,14.864755095231
$GPGGA,180720.00,3436.0937,N,12104.4105,W,1,10,0.8,10.9,M,-33.4,M,,*63
$PYRTM,2024,123.755119273032,14.864766683171
$GPGGA,180721.00,3436.0947,N,12104.4117,W,1,10,0.8,10.8,M,-33.4,M,,*67
$PYRTM,2024,123.755126668056,14.864774078194
$GPGGA,180722.00,3436.0957,N,12104.4127,W,1,10,0.8,11.0,M,-33.4,M,,*6F
$PYRTM,2024,123.755142420648,14.864789830787
$GPGGA,180723.00,3436.0967,N,12104.4137,W,1,10,0.8,11.1,M,-33.4,M,,*6D
$PYRTM,2024,123.755153983368,14.864801393507
$GPGGA,180724.00,3436.0978,N,12104.4150,W,1,10,0.8,10.8,M,-33.4,M,,*6D
$PYRTM,2024,123.755161389861,14.864808800000
$GPGGA,180725.00,3436.0988,N,12104.4165,W,1,10,0.8,10.5,M,-33.4,M,,*68
$PYRTM,2024,123.755177131076,14.864824541215
$GPGGA,180726.00,3436.0997,N,12104.4179,W,1,10,0.8,10.6,M,-33.4,M,,*6B
$PYRTM,2024,123.755188718507,14.864836128657
$GPGGA,180727.00,3436.1005,N,12104.4189,W,1,10,0.8,11.3,M,-33.4,M,,*62
$PYRTM,2024,123.755196116192,14.864843526343
$GPGGA,180728.00,3436.1016,N,12104.4198,W,1,10,0.8,11.9,M,-33.4,M,,*65
$PYRTM,2024,123.755211869572,14.864859279711
$GPGGA,180729.00,3436.1028,N,12104.4209,W,1,10,0.8,11.8,M,-33.4,M,,*63
$PYRTM,2024,123.755219262454,14.864866672593
$GPGGA,180730.00,3436.1038,N,12104.4224,W,1,10,0.8,11.4,M,-33.4,M,,*69
$PYRTM,2024,123.755235018634,14.864882428773
$GPGGA,180731.00,3436.1046,N,12104.4239,W,1,10,0.8,11.2,M,-33.4,M,,*6B
$PYRTM,2024,123.755246575394,14.864893985532
$GPGGA,180732.00,3436.1055,N,12104.4253,W,1,10,0.8,11.4,M,-33.4,M,,*60
$PYRTM,2024,123.755258157905,14.864905568044
$GPGGA,180733.00,3436.1065,N,12104.4264,W,1,10,0.8,11.8,M,-33.4,M,,*6A
$PYRTM,2024,123.755269724259,14.864917134398
$GPGGA,180734.00,3436.1077,N,12104.4274,W,1,10,0.8,12.1,M,-33.4,M,,*65
$PYRTM,2024,123.755281306065,14.864928716204
$GPGGA,180735.00,3436.1090,N,12104.4285,W,1,10,0.8,12.4,M,-33.4,M,,*66
$PYRTM,2024,123.755292873090,14.864940283229
$GPGGA,180736.00,3436.1101,N,12104.4302,W,1,10,0.8,11.5,M,-33.4,M,,*60
$PYRTM,2024,123.755304459641,14.864951869780
$GPGGA,180737.00,3436.1109,N,12104.4320,W,1,10,0.8,11.1,M,-33.4,M,,*6D
$PYRTM,2024,123.755316020521,14.864963430660
$GPGGA,180738.00,3436.1118,N,12104.4331,W,1,10,0.8,11.4,M,-33.4,M,,*67
$PYRTM,2024,123.755327613345,14.864975023484
$GPGGA,180739.00,3436.1130,N,12104.4339,W,1,10,0.8,11.9,M,-33.4,M,,*69
$PYRTM,2024,123.755339169838,14.864986579977
$GPGGA,180740.00,3436.1143,N,12104.4351,W,1,10,0.8,12.0,M,-33.4,M,,*67
$PYRTM,2024,123.755350756748,14.864998166887
$GPGGA,180741.00,3436.1154,N,12104.4367,W,1,10,0.8,11.6,M,-33.4,M,,*60
$PYRTM,2024,123.755362318981,14.865009729120
$GPGGA,180742.00,3436.1161,N,12104.4383,W,1,10,0.8,11.7,M,-33.4,M,,*6E
$PYRTM,2024,123.755373904630,14.865021314769
$GPGGA,180743.00,3436.1169,N,12104.4395,W,1,10,0.8,12.3,M,-33.4,M,,*67
$PYRTM,2024,123.755385465822,14.865032875961
$GPGGA,180744.00,3436.1182,N,12104.4404,W,1,10,0.8,12.2,M,-33.4,M,,*6B
$PYRTM,2024,123.755397055891,14.865044466030
$GPGGA,180745.00,3436.1195,N,12104.4416,W,1,10,0.8,11.9,M,-33.4,M,,*67
$PYRTM,2024,123.755404448912,14.865051859051
$GPGGA,180746.00,3436.1205,N,12104.4429,W,1,10,0.8,11.7,M,-33.4,M,,*6C
$PYRTM,2024,123.755423095150,14.865070505289
$GPGGA,180747.00,3436.1212,N,12104.4441,W,1,10,0.8,12.4,M,-33.4,M,,*65
$PYRTM,2024,123.755431765556,14.865079175694
$GPGGA,180748.00,3436.1222,N,12104.4455,W,1,10,0.8,13.0,M,-33.4,M,,*69
$PYRTM,2024,123.755443353160,14.865090763299
$GPGGA,180749.00,3436.1233,N,12104.4470,W,1,10,0.8,12.2,M,-33.4,M,,*6C
$PYRTM,2024,123.755454912569,14.865102322708
$GPGGA,180750.00,3436.1246,N,12104.4485,W,1,10,0.8,10.5,M,-33.4,M,,*69
$PYRTM,2024,123.755466498669,14.865113908819
$GPGGA,180751.00,3436.1256,N,12104.4497,W,1,10,0.8,10.0,M,-33.4,M,,*6F
$PYRTM,2024,123.755473894699,14.865121304850
$GPGGA,180752.00,3436.1265,N,12104.4504,W,1,10,0.8,10.6,M,-33.4,M,,*61
$PYRTM,2024,123.755489647280,14.865137057419
$GPGGA,180753.00,3436.1275,N,12104.4514,W,1,10,0.8,11.7,M,-33.4,M,,*60
$PYRTM,2024,123.755501209375,14.865148619514
$GPGGA,180754.00,3436.1288,N,12104.4530,W,1,10,0.8,11.7,M,-33.4,M,,*63
$PYRTM,2024,123.755512796470,14.865160206609
$GPGGA,180755.00,3436.1298,N,12104.4546,W,1,10,0.8,11.1,M,-33.4,M,,*64
$PYRTM,2024,123.755524355926,14.865171766065
$GPGGA,180756.00,3436.1305,N,12104.4558,W,1,10,0.8,11.0,M,-33.4,M,,*6C
$PYRTM,2024,123.755535946597,14.865183356736
$GPGGA,180757.00,3436.1314,N,12104.4566,W,1,10,0.8,11.7,M,-33.4,M,,*67
$PYRTM,2024,123.755547506076,14.865194916227
$GPGGA,180758.00,3436.1326,N,12104.4575,W,1,10,0.8,12.0,M,-33.4,M,,*6F
$PYRTM,2024,123.755559095706,14.865206505845
$GPGGA,180759.00,3436.1340,N,12104.4588,W,1,10,0.8,11.5,M,-33.4,M,,*6A
$PYRTM,2024,123.755566486736,14.865213896875
$GPGGA,180800.00,3436.1349,N,12104.4601,W,1,10,0.8,11.4,M,-33.4,M,,*63
$PYRTM,2024,123.755582241215,14.865229651354
$GPGGA,180801.00,3436.1356,N,12104.4614,W,1,10,0.8,12.2,M,-33.4,M,,*6D
$PYRTM,2024,123.755593802164,14.865241212303
$GPGGA,180802.00,3436.1364,N,12104.4626,W,1,10,0.8,12.9,M,-33.4,M,,*65
$PYRTM,2024,123.755605389826,14.865252799965
$GPGGA,180803.00,3436.1376,N,12104.4636,W,1,10,0.8,12.9,M,-33.4,M,,*66
$PYRTM,2024,123.755616949653,14.865264359792
$GPGGA,180804.00,3436.1388,N,12104.4647,W,1,10,0.8,12.3,M,-33.4,M,,*6C
$PYRTM,2024,123.755628536933,14.865275947072
$GPGGA,180805.00,3436.1397,N,12104.4658,W,1,10,0.8,12.4,M,-33.4,M,,*6A
$PYRTM,2024,123.755635947894,14.865283358032
$GPGGA,180806.00,3436.1404,N,12104.4671,W,1,10,0.8,12.2,M,-33.4,M,,*69
$PYRTM,2024,123.755651704282,14.865299114421
$GPGGA,180807.00,3436.1416,N,12104.4686,W,1,10,0.8,10.9,M,-33.4,M,,*6A
$PYRTM,2024,123.755663246516,14.865310656655
$GPGGA,180808.00,3436.1429,N,12104.4699,W,1,10,0.8,10.6,M,-33.4,M,,*68
$PYRTM,2024,123.755670653738,14.865318063877
$GPGGA,180809.00,3436.1436,N,12104.4707,W,1,10,0.8,11.5,M,-33.4,M,,*63
$PYRTM,2024,123.755686393947,14.865333804086
$GPGGA,180810.00,3436.1443,N,12104.4715,W,1,10,0.8,13.1,M,-33.4,M,,*6C
$PYRTM,2024,123.755697984502,14.865345394641
$GPGGA,180811.00,3436.1454,N,12104.4728,W,1,10,0.8,13.6,M,-33.4,M,,*62
$PYRTM,2024,123.755709543426,14.865356953576
$GPGGA,180812.00,3436.1464,N,12104.4744,W,1,10,0.8,12.9,M,-33.4,M,,*66
$PYRTM,2024,123.755721132882,14.865368543021
$GPGGA,180813.00,3436.1472,N,12104.4756,W,1,10,0.8,12.1,M,-33.4,M,,*6B
$PYRTM,2024,123.755732693044,14.865380103183
$GPGGA,180814.00,3436.1481,N,12104.4764,W,1,10,0.8,12.1,M,-33.4,M,,*61
$PYRTM,2024,123.755744273183,14.865391683322
$GPGGA,180815.00,3436.1491,N,12104.4772,W,1,10,0.8,12.6,M,-33.4,M,,*61
$PYRTM,2024,123.755755840104,14.865403250243
$GPGGA,180816.00,3436.1501,N,12104.4784,W,1,10,0.8,13.0,M,-33.4,M,,*64
$PYRTM,2024,123.755763248194,14.865410658345
$GPGGA,180817.00,3436.1511,N,12104.4799,W,1,10,0.8,12.8,M,-33.4,M,,*61
$PYRTM,2024,123.755781894016,14.865429304155
$GPGGA,180818.00,3436.1521,N,12104.4812,W,1,10,0.8,12.2,M,-33.4,M,,*6B
$PYRTM,2024,123.755790576424,14.865437986574
$GPGGA,180819.00,3436.1530,N,12104.4822,W,1,10,0.8,12.0,M,-33.4,M,,*6B
$PYRTM,2024,123.755797970590,14.865445380729
$GPGGA,180820.00,3436.1541,N,12104.4830,W,1,10,0.8,11.8,M,-33.4,M,,*6F
$PYRTM,2024,123.755813725139,14.865461135278
$GPGGA,180821.00,3436.1553,N,12104.4842,W,1,10,0.8,11.2,M,-33.4,M,,*62
$PYRTM,2024,123.755821118333,14.865468528472
$GPGGA,180822.00,3436.1562,N,12104.4855,W,1,10,0.8,11.0,M,-33.4,M,,*67
$PYRTM,2024,123.755832823218,14.865480233356
$GPGGA,180823.00,3436.1566,N,12104.4869,W,1,10,0.8,11.7,M,-33.4,M,,*6A
$PYRTM,2024,123.755848433299,14.865495843438
$GPGGA,180824.00,3436.1574,N,12104.4881,W,1,10,0.8,12.2,M,-33.4,M,,*6E
$PYRTM,2024,123.755860020417,14.865507430556
$GPGGA,180825.00,3436.1589,N,12104.4892,W,1,10,0.8,11.8,M,-33.4,M,,*66
$PYRTM,2024,123.755871582118,14.865518992257
$GPGGA,180826.00,3436.1601,N,12104.4902,W,1,10,0.8,10.8,M,-33.4,M,,*6F
$PYRTM,2024,123.755883171146,14.865530581285
$GPGGA,180827.00,3436.1608,N,12104.4913,W,1,10,0.8,10.8,M,-33.4,M,,*67
$PYRTM,2024,123.755894730995,14.865542141134
$GPGGA,180828.00,3436.1613,N,12104.4927,W,1,10,0.8,11.2,M,-33.4,M,,*6E
$PYRTM,2024,123.755906320706,14.865553730856
$GPGGA,180829.00,3436.1621,N,12104.4941,W,1,10,0.8,11.5,M,-33.4,M,,*69
$PYRTM,2024,123.755917878495,14.865565288634
$GPGGA,180830.00,3436.1631,N,12104.4953,W,1,10,0.8,11.1,M,-33.4,M,,*67
$PYRTM,2024,123.755925286343,14.865572696481
$GPGGA,180831.00,3436.1643,N,12104.4964,W,1,10,0.8,10.8,M,-33.4,M,,*6F
$PYRTM,2024,123.755936976377,14.865584386516
$GPGGA,180832.00,3436.1655,N,12104.4974,W,1,10,0.8,10.6,M,-33.4,M,,*64
$PYRTM,2024,123.755952612720,14.865600022859
$GPGGA,180833.00,3436.1663,N,12104.4986,W,1,10,0.8,10.8,M,-33.4,M,,*63
$PYRTM,2024,123.755964175000,14.865611585139
$GPGGA,180834.00,3436.1669,N,12104.5002,W,1,10,0.8,11.2,M,-33.4,M,,*61
$PYRTM,2024,123.755975761875,14.865623172014
$GPGGA,180835.00,3436.1676,N,12104.5018,W,1,10,0.8,11.6,M,-33.4,M,,*61
$PYRTM,2024,123.755987323542,14.865634733681
