$PYRTM,2024,127.583342366667,18.692989776806
$GPGGA,135959.00,3327.7843,N,11902.6830,W,1,10,1.0,10.0,M,-34.5,M,,*69
$PYRTM,2024,127.583353954988,18.693001365127
$GPGGA,140000.00,3327.7846,N,11902.6830,W,1,10,1.0,10.0,M,-34.5,M,,*6B
$PYRTM,2024,127.583365516898,18.693012927049
$GPGGA,140001.00,3327.7848,N,11902.6828,W,1,10,1.0,10.0,M,-34.5,M,,*6D
$PYRTM,2024,127.583377105035,18.693024515174
$GPGGA,140002.00,3327.7849,N,11902.6824,W,1,10,1.0,10.1,M,-34.5,M,,*62
$PYRTM,2024,127.583390170775,18.693037580914
$GPGGA,140003.00,3327.7850,N,11902.6820,W,1,10,1.0,10.0,M,-34.5,M,,*6E
$PYRTM,2024,127.583402438669,18.693049848808
$GPGGA,140004.00,3327.7851,N,11902.6818,W,1,10,1.0,10.1,M,-34.5,M,,*62
$PYRTM,2024,127.583411814954,18.693059225093
$GPGGA,140005.00,3327.7852,N,11902.6818,W,1,10,1.0,10.1,M,-34.5,M,,*60
$PYRTM,2024,127.583423401076,18.693070811215
$GPGGA,140006.00,3327.7855,N,11902.6817,W,1,10,1.0,10.1,M,-34.5,M,,*6B
$PYRTM,2024,127.583434961597,18.693082371736
$GPGGA,140007.00,3327.7857,N,11902.6813,W,1,10,1.0,10.1,M,-34.5,M,,*6C
$PYRTM,2024,127.583446543611,18.693093953750
$GPGGA,140008.00,3327.7858,N,11902.6809,W,1,10,1.0,10.1,M,-34.5,M,,*67
$PYRTM,2024,127.583458110162,18.693105520312
$GPGGA,140009.00,3327.7858,N,11902.6806,W,1,10,1.0,10.1,M,-34.5,M,,*69
$PYRTM,2024,127.583469699931,18.693117110069
$GPGGA,140010.00,3327.7861,N,11902.6803,W,1,10,1.0,10.2,M,-34.5,M,,*6D
$PYRTM,2024,127.583481607292,18.693129017431
$GPGGA,140011.00,3327.7865,N,11902.6803,W,1,10,1.0,10.4,M,-34.5,M,,*6E
$PYRTM,2024,127.583492850949,18.693140261088
$GPGGA,140012.00,3327.7868,N,11902.6801,W,1,10,1.0,10.4,M,-34.5,M,,*62
$PYRTM,2024,127.583504407419,18.693151817558
$GPGGA,140013.00,3327.7870,N,11902.6798,W,1,10,1.0,10.4,M,-34.5,M,,*65
$PYRTM,2024,127.583515993704,18.693163403854
$GPGGA,140014.00,3327.7871,N,11902.6797,W,1,10,1.0,10.4,M,-34.5,M,,*6C
$PYRTM,2024,127.583527555856,18.693174965995
$GPGGA,140015.00,3327.7872,N,11902.6796,W,1,10,1.0,10.4,M,-34.5,M,,*6F
$PYRTM,2024,127.583539142153,18.693186552292
$GPGGA,140016.00,3327.7875,N,11902.6795,W,1,10,1.0,10.3,M,-34.5,M,,*6F
$PYRTM,2024,127.583550705498,18.693198115637
$GPGGA,140017.00,3327.7876,N,11902.6792,W,1,10,1.0,10.3,M,-34.5,M,,*6A
$PYRTM,2024,127.583562291134,18.693209701273
$GPGGA,140018.00,3327.7876,N,11902.6787,W,1,10,1.0,10.3,M,-34.5,M,,*61
$PYRTM,2024,127.583573852569,18.693221262708
$GPGGA,140019.00,3327.7876,N,11902.6784,W,1,10,1.0,10.3,M,-34.5,M,,*63
$PYRTM,2024,127.583585438947,18.693232849086
$GPGGA,140020.00,3327.7878,N,11902.6783,W,1,10,1.0,10.3,M,-34.5,M,,*60
$PYRTM,2024,127.583597001308,18.693244411447
$GPGGA,140021.00,3327.7882,N,11902.6783,W,1,10,1.0,10.3,M,-34.5,M,,*64
$PYRTM,2024,127.583608586759,18.693255996898
$GPGGA,140022.00,3327.7884,N,11902.6781,W,1,10,1.0,10.3,M,-34.5,M,,*63
$PYRTM,2024,127.583620147928,18.693267558079
$GPGGA,140023.00,3327.7885,N,11902.6776,W,1,10,1.0,10.3,M,-34.5,M,,*6B
$PYRTM,2024,127.583631735394,18.693279145532
$GPGGA,140024.00,3327.7885,N,11902.6770,W,1,10,1.0,10.3,M,-34.5,M,,*6A
$PYRTM,2024,127.583643297130,18.693290707269
$GPGGA,140025.00,3327.7888,N,11902.6768,W,1,10,1.0,10.3,M,-34.5,M,,*6F
$PYRTM,2024,127.583654887130,18.693302297269
$GPGGA,140026.00,3327.7892,N,11902.6769,W,1,10,1.0,10.3,M,-34.5,M,,*66
$PYRTM,2024,127.583666445312,18.693313855451
$GPGGA,140027.00,3327.7896,N,11902.6768,W,1,10,1.0,10.3,M,-34.5,M,,*62
$PYRTM,2024,127.583678035266,18.693325445405
$GPGGA,140028.00,3327.7896,N,11902.6763,W,1,10,1.0,10.1,M,-34.5,M,,*64
$PYRTM,2024,127.583689593773,18.693337003912
$GPGGA,140029.00,3327.7895,N,11902.6756,W,1,10,1.0,10.1,M,-34.5,M,,*60
$PYRTM,2024,127.583701064444,18.693348474583
$GPGGA,140030.00,3327.7897,N,11902.6751,W,1,10,1.0,9.9,M,-34.5,M,,*5D
$PYRTM,2024,127.583712626944,18.693360037095
$GPGGA,140031.00,3327.7900,N,11902.6749,W,1,10,1.0,9.9,M,-34.5,M,,*5A
$PYRTM,2024,127.583724213403,18.693371623542
$GPGGA,140032.00,3327.7903,N,11902.6749,W,1,10,1.0,9.9,M,-34.5,M,,*5A
$PYRTM,2024,127.583736931019,18.693384341157
$GPGGA,140033.00,3327.7905,N,11902.6748,W,1,10,1.0,9.9,M,-34.5,M,,*5C
$PYRTM,2024,127.583749547558,18.693396957697
$GPGGA,140034.00,3327.7904,N,11902.6744,W,1,10,1.0,9.9,M,-34.5,M,,*56
$PYRTM,2024,127.583758922535,18.693406332674
$GPGGA,140035.00,3327.7904,N,11902.6739,W,1,10,1.0,9.9,M,-34.5,M,,*5D
$PYRTM,2024,127.583770624676,18.693418034815
$GPGGA,140036.00,3327.7907,N,11902.6734,W,1,10,1.0,10.0,M,-34.5,M,,*61
$PYRTM,2024,127.583782188275,18.693429598414
$GPGGA,140037.00,3327.7912,N,11902.6731,W,1,10,1.0,11.0,M,-34.5,M,,*60
$PYRTM,2024,127.583793774468,18.693441184618
$GPGGA,140038.00,3327.7916,N,11902.6730,W,1,10,1.0,11.0,M,-34.5,M,,*6A
$PYRTM,2024,127.583805335880,18.693452746019
$GPGGA,140039.00,3327.7918,N,11902.6729,W,1,10,1.0,11.0,M,-34.5,M,,*6D
$PYRTM,2024,127.583816922141,18.693464332280
$GPGGA,140040.00,3327.7918,N,11902.6726,W,1,10,1.0,11.0,M,-34.5,M,,*6C
$PYRTM,2024,127.583828833519,18.693476243657
$GPGGA,140041.00,3327.7917,N,11902.6722,W,1,10,1.0,11.0,M,-34.5,M,,*66
$PYRTM,2024,127.583840073125,18.693487483264
$GPGGA,140042.00,3327.7919,N,11902.6717,W,1,10,1.0,11.0,M,-34.5,M,,*6D
$PYRTM,2024,127.583850705208,18.693498115347
$GPGGA,140043.00,3327.7921,N,11902.6714,W,1,10,1.0,11.0,M,-34.5,M,,*64
$PYRTM,2024,127.583863669120,18.693511079259
$GPGGA,140044.00,3327.7923,N,11902.6712,W,1,10,1.0,11.0,M,-34.5,M,,*67
$PYRTM,2024,127.583874330162,18.693521740301
$GPGGA,140045.00,3327.7924,N,11902.6710,W,1,10,1.0,11.0,M,-34.5,M,,*63
$PYRTM,2024,127.583885326632,18.693532736771
$GPGGA,140046.00,3327.7925,N,11902.6706,W,1,10,1.0,11.0,M,-34.5,M,,*66
$PYRTM,2024,127.583896320486,18.693543730625
$GPGGA,140047.00,3327.7927,N,11902.6702,W,1,10,1.0,11.1,M,-34.5,M,,*60
$PYRTM,2024,127.583907432512,18.693554842650
$GPGGA,140048.00,3327.7929,N,11902.6699,W,1,10,1.0,11.1,M,-34.5,M,,*62
$PYRTM,2024,127.583918413183,18.693565823322
$GPGGA,140049.00,3327.7931,N,11902.6696,W,1,10,1.0,11.1,M,-34.5,M,,*65
$PYRTM,2024,127.583929522778,18.693576932917
$GPGGA,140050.00,3327.7933,N,11902.6692,W,1,10,1.0,11.1,M,-34.5,M,,*6B
$PYRTM,2024,127.583940521296,18.693587931435
$GPGGA,140051.00,3327.7935,N,11902.6687,W,1,10,1.0,11.1,M,-34.5,M,,*68
$PYRTM,2024,127.583951631701,18.693599041840
$GPGGA,140052.00,3327.7937,N,11902.6682,W,1,10,1.0,11.1,M,-34.5,M,,*6C
$PYRTM,2024,127.583962627303,18.693610037442
$GPGGA,140053.00,3327.7939,N,11902.6678,W,1,10,1.0,11.1,M,-34.5,M,,*66
$PYRTM,2024,127.583974116019,18.693621526157
$GPGGA,140054.00,3327.7940,N,11902.6675,W,1,10,1.0,11.2,M,-34.5,M,,*61
$PYRTM,2024,127.583985326435,18.693632736574
$GPGGA,140055.00,3327.7940,N,11902.6672,W,1,10,1.0,11.2,M,-34.5,M,,*67
$PYRTM,2024,127.583996887882,18.693644298032
$GPGGA,140056.00,3327.7941,N,11902.6668,W,1,10,1.0,11.2,M,-34.5,M,,*6E
$PYRTM,2024,127.584008473796,18.693655883935
$GPGGA,140057.00,3327.7943,N,11902.6665,W,1,10,1.0,11.2,M,-34.5,M,,*60
$PYRTM,2024,127.584020036019,18.693667446157
$GPGGA,140058.00,3327.7944,N,11902.6662,W,1,10,1.0,11.2,M,-34.5,M,,*6F
$PYRTM,2024,127.584031623785,18.693679033935
$GPGGA,140059.00,3327.7944,N,11902.6658,W,1,10,1.0,11.2,M,-34.5,M,,*67
$PYRTM,2024,127.584043183970,18.693690594109
$GPGGA,140100.00,3327.7945,N,11902.6655,W,1,10,1.0,11.2,M,-34.5,M,,*66
$PYRTM,2024,127.584054770278,18.693702180417
$GPGGA,140101.00,3327.7947,N,11902.6651,W,1,10,1.0,11.3,M,-34.5,M,,*60
$PYRTM,2024,127.584066334282,18.693713744421
$GPGGA,140102.00,3327.7949,N,11902.6648,W,1,10,1.0,11.3,M,-34.5,M,,*65
$PYRTM,2024,127.584077934514,18.693725344653
$GPGGA,140103.00,3327.7951,N,11902.6645,W,1,10,1.0,11.3,M,-34.5,M,,*60
$PYRTM,2024,127.584093659549,18.693741069688
$GPGGA,140104.00,3327.7952,N,11902.6641,W,1,10,1.0,11.3,M,-34.5,M,,*60
$PYRTM,2024,127.584105220683,18.693752630822
$GPGGA,140105.00,3327.7953,N,11902.6637,W,1,10,1.0,11.3,M,-34.5,M,,*61
$PYRTM,2024,127.584116804294,18.693764214433
$GPGGA,140106.00,3327.7955,N,11902.6634,W,1,10,1.0,11.3,M,-34.5,M,,*67
$PYRTM,2024,127.584128369005,18.693775779144
$GPGGA,140107.00,3327.7958,N,11902.6632,W,1,10,1.0,11.3,M,-34.5,M,,*6D
$PYRTM,2024,127.584139956262,18.693787366400
$GPGGA,140108.00,3327.7959,N,11902.6630,W,1,10,1.0,11.4,M,-34.5,M,,*66
$PYRTM,2024,127.584151516852,18.693798926991
$GPGGA,140109.00,3327.7959,N,11902.6626,W,1,10,1.0,11.4,M,-34.5,M,,*60
$PYRTM,2024,127.584163105289,18.693810515428
$GPGGA,140110.00,3327.7959,N,11902.6622,W,1,10,1.0,11.4,M,-34.5,M,,*6C
$PYRTM,2024,127.584175027118,18.693822437257
$GPGGA,140111.00,3327.7962,N,11902.6619,W,1,10,1.0,11.4,M,-34.5,M,,*6D
$PYRTM,2024,127.584186248310,18.693833658449
$GPGGA,140112.00,3327.7965,N,11902.6617,W,1,10,1.0,11.5,M,-34.5,M,,*66
$PYRTM,2024,127.584197814097,18.693845224236
$GPGGA,140113.00,3327.7969,N,11902.6614,W,1,10,1.0,11.5,M,-34.5,M,,*68
$PYRTM,2024,127.584209404606,18.693856814745
$GPGGA,140114.00,3327.7970,N,11902.6611,W,1,10,1.0,11.5,M,-34.5,M,,*62
$PYRTM,2024,127.584220962731,18.693868372870
$GPGGA,140115.00,3327.7968,N,11902.6609,W,1,10,1.0,11.6,M,-34.5,M,,*60
$PYRTM,2024,127.584232553785,18.693879963924
$GPGGA,140116.00,3327.7969,N,11902.6607,W,1,10,1.0,11.6,M,-34.5,M,,*6C
$PYRTM,2024,127.584244111759,18.693891521898
$GPGGA,140117.00,3327.7971,N,11902.6603,W,1,10,1.0,11.6,M,-34.5,M,,*60
$PYRTM,2024,127.584255697176,18.693903107315
$GPGGA,140118.00,3327.7975,N,11902.6598,W,1,10,1.0,11.7,M,-34.5,M,,*6B
$PYRTM,2024,127.584267258287,18.693914668426
$GPGGA,140119.00,3327.7977,N,11902.6594,W,1,10,1.0,11.7,M,-34.5,M,,*64
$PYRTM,2024,127.584278841528,18.693926251667
$GPGGA,140120.00,3327.7978,N,11902.6592,W,1,10,1.0,11.8,M,-34.5,M,,*68
$PYRTM,2024,127.584290408484,18.693937818623
$GPGGA,140121.00,3327.7979,N,11902.6590,W,1,10,1.0,11.8,M,-34.5,M,,*6A
$PYRTM,2024,127.584301994491,18.693949404630
$GPGGA,140122.00,3327.7979,N,11902.6587,W,1,10,1.0,11.8,M,-34.5,M,,*6F
$PYRTM,2024,127.584313556817,18.693960966956
$GPGGA,140123.00,3327.7980,N,11902.6583,W,1,10,1.0,11.8,M,-34.5,M,,*6C
$PYRTM,2024,127.584325142234,18.693972552384
$GPGGA,140124.00,3327.7982,N,11902.6581,W,1,10,1.0,11.8,M,-34.5,M,,*6B
$PYRTM,2024,127.584336704120,18.693984114259
$GPGGA,140125.00,3327.7984,N,11902.6579,W,1,10,1.0,11.8,M,-34.5,M,,*6B
$PYRTM,2024,127.584348290741,18.693995700880
$GPGGA,140126.00,3327.7985,N,11902.6577,W,1,10,1.0,11.8,M,-34.5,M,,*67
$PYRTM,2024,127.584359853322,18.694007263461
$GPGGA,140127.00,3327.7987,N,11902.6573,W,1,10,1.0,11.8,M,-34.5,M,,*60
$PYRTM,2024,127.584371440926,18.694018851065
$GPGGA,140128.00,3327.7988,N,11902.6569,W,1,10,1.0,11.9,M,-34.5,M,,*6A
$PYRTM,2024,127.584383001863,18.694030412002
$GPGGA,140129.00,3327.7991,N,11902.6565,W,1,10,1.0,11.9,M,-34.5,M,,*6F
$PYRTM,2024,127.584394590660,18.694042000799
$GPGGA,140130.00,3327.7995,N,11902.6561,W,1,10,1.0,11.9,M,-34.5,M,,*67
$PYRTM,2024,127.584406149630,18.694053559769
$GPGGA,140131.00,3327.7996,N,11902.6559,W,1,10,1.0,11.9,M,-34.5,M,,*6E
$PYRTM,2024,127.584417751262,18.694065161400
$GPGGA,140132.00,3327.7995,N,11902.6556,W,1,10,1.0,11.9,M,-34.5,M,,*61
$PYRTM,2024,127.584430339421,18.694077749560
$GPGGA,140133.00,3327.7996,N,11902.6552,W,1,10,1.0,12.0,M,-34.5,M,,*6D
$PYRTM,2024,127.584441926331,18.694089336470
$GPGGA,140134.00,3327.7999,N,11902.6547,W,1,10,1.0,12.0,M,-34.5,M,,*61
$PYRTM,2024,127.584453488843,18.694100898981
$GPGGA,140135.00,3327.8002,N,11902.6544,W,1,10,1.0,12.1,M,-34.5,M,,*66
$PYRTM,2024,127.584465074884,18.694112485278
$GPGGA,140136.00,3327.8003,N,11902.6542,W,1,10,1.0,12.1,M,-34.5,M,,*62
$PYRTM,2024,127.584476636250,18.694124046389
$GPGGA,140137.00,3327.8003,N,11902.6539,W,1,10,1.0,12.1,M,-34.5,M,,*6F
$PYRTM,2024,127.584488222627,18.694135632766
$GPGGA,140138.00,3327.8002,N,11902.6536,W,1,10,1.0,12.2,M,-34.5,M,,*6D
$PYRTM,2024,127.584499784711,18.694147194850
$GPGGA,140139.00,3327.8004,N,11902.6533,W,1,10,1.0,12.2,M,-34.5,M,,*6F
$PYRTM,2024,127.584511372940,18.694158783079
$GPGGA,140140.00,3327.8007,N,11902.6530,W,1,10,1.0,12.2,M,-34.5,M,,*61
$PYRTM,2024,127.584523293819,18.694170703970
$GPGGA,140141.00,3327.8009,N,11902.6527,W,1,10,1.0,12.3,M,-34.5,M,,*69
$PYRTM,2024,127.584534519132,18.694181929271
$GPGGA,140142.00,3327.8011,N,11902.6524,W,1,10,1.0,12.3,M,-34.5,M,,*60
$PYRTM,2024,127.584546432778,18.694193842928
$GPGGA,140143.00,3327.8011,N,11902.6520,W,1,10,1.0,12.3,M,-34.5,M,,*65
$PYRTM,2024,127.584557667778,18.694205077917
$GPGGA,140144.00,3327.8011,N,11902.6517,W,1,10,1.0,12.3,M,-34.5,M,,*66
$PYRTM,2024,127.584569231748,18.694216641887
$GPGGA,140145.00,3327.8012,N,11902.6515,W,1,10,1.0,12.3,M,-34.5,M,,*66
$PYRTM,2024,127.584580831505,18.694228241644
$GPGGA,140146.00,3327.8014,N,11902.6514,W,1,10,1.0,12.4,M,-34.5,M,,*65
$PYRTM,2024,127.584592377488,18.694239787627
$GPGGA,140147.00,3327.8017,N,11902.6511,W,1,10,1.0,12.3,M,-34.5,M,,*65
$PYRTM,2024,127.584603967650,18.694251377789
$GPGGA,140148.00,3327.8018,N,11902.6506,W,1,10,1.0,12.4,M,-34.5,M,,*64
$PYRTM,2024,127.584615527951,18.694262938090
$GPGGA,140149.00,3327.8018,N,11902.6501,W,1,10,1.0,12.4,M,-34.5,M,,*62
$PYRTM,2024,127.584627112199,18.694274522338
$GPGGA,140150.00,3327.8019,N,11902.6498,W,1,10,1.0,12.4,M,-34.5,M,,*6A
$PYRTM,2024,127.584638673356,18.694286083495
$GPGGA,140151.00,3327.8020,N,11902.6497,W,1,10,1.0,12.4,M,-34.5,M,,*6E
$PYRTM,2024,127.584650261400,18.694297671539
$GPGGA,140152.00,3327.8020,N,11902.6495,W,1,10,1.0,12.4,M,-34.5,M,,*6F
$PYRTM,2024,127.584661820567,18.694309230706
$GPGGA,140153.00,3327.8021,N,11902.6492,W,1,10,1.0,12.5,M,-34.5,M,,*69
$PYRTM,2024,127.584673410069,18.694320820208
$GPGGA,140154.00,3327.8022,N,11902.6487,W,1,10,1.0,12.4,M,-34.5,M,,*68
$PYRTM,2024,127.584684971181,18.694332381319
$GPGGA,140155.00,3327.8023,N,11902.6482,W,1,10,1.0,12.5,M,-34.5,M,,*6C
$PYRTM,2024,127.584696558981,18.694343969132
$GPGGA,140156.00,3327.8024,N,11902.6480,W,1,10,1.0,12.5,M,-34.5,M,,*6A
$PYRTM,2024,127.584708120451,18.694355530590
$GPGGA,140157.00,3327.8024,N,11902.6479,W,1,10,1.0,12.5,M,-34.5,M,,*6D
$PYRTM,2024,127.584719706088,18.694367116227
$GPGGA,140158.00,3327.8026,N,11902.6477,W,1,10,1.0,12.4,M,-34.5,M,,*6F
$PYRTM,2024,127.584731267882,18.694378678021
$GPGGA,140159.00,3327.8027,N,11902.6475,W,1,10,1.0,12.5,M,-34.5,M,,*6C
$PYRTM,2024,127.584742853403,18.694390263542
$GPGGA,140200.00,3327.8026,N,11902.6472,W,1,10,1.0,12.5,M,-34.5,M,,*65
$PYRTM,2024,127.584754417419,18.694401827558
$GPGGA,140201.00,3327.8026,N,11902.6470,W,1,10,1.0,12.6,M,-34.5,M,,*65
$PYRTM,2024,127.584765889537,18.694413299676
$GPGGA,140202.00,3327.8027,N,11902.6467,W,1,10,1.0,12.5,M,-34.5,M,,*62
$PYRTM,2024,127.584778603669,18.694426013808
$GPGGA,140203.00,3327.8031,N,11902.6464,W,1,10,1.0,12.6,M,-34.5,M,,*64
$PYRTM,2024,127.584791222338,18.694438632477
$GPGGA,140204.00,3327.8033,N,11902.6462,W,1,10,1.0,12.5,M,-34.5,M,,*64
$PYRTM,2024,127.584800711262,18.694448121400
$GPGGA,140205.00,3327.8034,N,11902.6460,W,1,10,1.0,12.6,M,-34.5,M,,*63
$PYRTM,2024,127.584812301204,18.694459711343
$GPGGA,140206.00,3327.8034,N,11902.6457,W,1,10,1.0,12.5,M,-34.5,M,,*67
$PYRTM,2024,127.584823860324,18.694471270463
$GPGGA,140207.00,3327.8034,N,11902.6453,W,1,10,1.0,12.6,M,-34.5,M,,*61
$PYRTM,2024,127.584835449294,18.694482859433
$GPGGA,140208.00,3327.8035,N,11902.6451,W,1,10,1.0,12.6,M,-34.5,M,,*6D
$PYRTM,2024,127.584846892917,18.694494303056
$GPGGA,140209.00,3327.8038,N,11902.6450,W,1,10,1.0,12.6,M,-34.5,M,,*60
$PYRTM,2024,127.584858596343,18.694506006481
$GPGGA,140210.00,3327.8040,N,11902.6449,W,1,10,1.0,12.6,M,-34.5,M,,*6F
$PYRTM,2024,127.584870513484,18.694517923623
$GPGGA,140211.00,3327.8039,N,11902.6447,W,1,10,1.0,12.6,M,-34.5,M,,*6E
$PYRTM,2024,127.584881744248,18.694529154398
$GPGGA,140212.00,3327.8039,N,11902.6444,W,1,10,1.0,12.6,M,-34.5,M,,*6E
$PYRTM,2024,127.584893307639,18.694540717789
$GPGGA,140213.00,3327.8041,N,11902.6441,W,1,10,1.0,12.7,M,-34.5,M,,*64
$PYRTM,2024,127.584904892500,18.694552302650
$GPGGA,140214.00,3327.8043,N,11902.6440,W,1,10,1.0,12.7,M,-34.5,M,,*60
$PYRTM,2024,127.584916453646,18.694563863785
$GPGGA,140215.00,3327.8045,N,11902.6440,W,1,10,1.0,12.7,M,-34.5,M,,*67
$PYRTM,2024,127.584927925463,18.694575335602
$GPGGA,140216.00,3327.8046,N,11902.6438,W,1,10,1.0,12.7,M,-34.5,M,,*68
$PYRTM,2024,127.584939602465,18.694587012604
$GPGGA,140217.00,3327.8045,N,11902.6436,W,1,10,1.0,12.7,M,-34.5,M,,*64
$PYRTM,2024,127.584951076215,18.694598486354
$GPGGA,140218.00,3327.8045,N,11902.6433,W,1,10,1.0,12.8,M,-34.5,M,,*61
$PYRTM,2024,127.584962752477,18.694610162616
$GPGGA,140219.00,3327.8046,N,11902.6432,W,1,10,1.0,12.8,M,-34.5,M,,*62
$PYRTM,2024,127.584974224734,18.694621634873
$GPGGA,140220.00,3327.8050,N,11902.6431,W,1,10,1.0,12.8,M,-34.5,M,,*6C
$PYRTM,2024,127.584985899722,18.694633309861
$GPGGA,140221.00,3327.8052,N,11902.6430,W,1,10,1.0,12.8,M,-34.5,M,,*6E
$PYRTM,2024,127.584997373322,18.694644783461
$GPGGA,140222.00,3327.8052,N,11902.6428,W,1,10,1.0,12.8,M,-34.5,M,,*64
$PYRTM,2024,127.585008931968,18.694656342118
$GPGGA,140223.00,3327.8051,N,11902.6427,W,1,10,1.0,12.8,M,-34.5,M,,*69
$PYRTM,2024,127.585020624144,18.694668034282
$GPGGA,140224.00,3327.8051,N,11902.6427,W,1,10,1.0,12.8,M,-34.5,M,,*6E
$PYRTM,2024,127.585032197072,18.694679607211
$GPGGA,140225.00,3327.8052,N,11902.6425,W,1,10,1.0,12.8,M,-34.5,M,,*6E
$PYRTM,2024,127.585043669120,18.694691079271
$GPGGA,140226.00,3327.8053,N,11902.6424,W,1,10,1.0,12.8,M,-34.5,M,,*6D
$PYRTM,2024,127.585055228796,18.694702638947
$GPGGA,140227.00,3327.8052,N,11902.6424,W,1,10,1.0,12.8,M,-34.5,M,,*6D
$PYRTM,2024,127.585066815498,18.694714225648
$GPGGA,140228.00,3327.8053,N,11902.6424,W,1,10,1.0,12.8,M,-34.5,M,,*63
$PYRTM,2024,127.585078376400,18.694725786539
$GPGGA,140229.00,3327.8054,N,11902.6422,W,1,10,1.0,12.8,M,-34.5,M,,*63
$PYRTM,2024,127.585089963611,18.694737373750
$GPGGA,140230.00,3327.8055,N,11902.6420,W,1,10,1.0,12.9,M,-34.5,M,,*69
$PYRTM,2024,127.585101523646,18.694748933785
$GPGGA,140231.00,3327.8056,N,11902.6420,W,1,10,1.0,12.9,M,-34.5,M,,*6B
$PYRTM,2024,127.585113111759,18.694760521898
$GPGGA,140232.00,3327.8056,N,11902.6420,W,1,10,1.0,12.9,M,-34.5,M,,*68
$PYRTM,2024,127.585126293056,18.694773703206
$GPGGA,140233.00,3327.8056,N,11902.6420,W,1,10,1.0,12.9,M,-34.5,M,,*69
$PYRTM,2024,127.585138446458,18.694785856609
$GPGGA,140234.00,3327.8056,N,11902.6420,W,1,10,1.0,12.9,M,-34.5,M,,*6E
$PYRTM,2024,127.585147820937,18.694795231088
$GPGGA,140235.00,3327.8061,N,11902.6419,W,1,10,1.0,12.0,M,-34.5,M,,*68
$PYRTM,2024,127.585159410567,18.694806820718
$GPGGA,140236.00,3327.8064,N,11902.6419,W,1,10,1.0,11.7,M,-34.5,M,,*6A
$PYRTM,2024,127.585170969861,18.694818380000
$GPGGA,140237.00,3327.8066,N,11902.6418,W,1,10,1.0,11.9,M,-34.5,M,,*66
$PYRTM,2024,127.585182559387,18.694829969525
$GPGGA,140238.00,3327.8070,N,11902.6414,W,1,10,1.0,12.0,M,-34.5,M,,*68
$PYRTM,2024,127.585194117824,18.694841527963
$GPGGA,140239.00,3327.8071,N,11902.6414,W,1,10,1.0,12.1,M,-34.5,M,,*69
$PYRTM,2024,127.585205699977,18.694853110116
$GPGGA,140240.00,3327.8072,N,11902.6414,W,1,10,1.0,12.3,M,-34.5,M,,*66
$PYRTM,2024,127.585217730949,18.694865141088
$GPGGA,140241.00,3327.8072,N,11902.6414,W,1,10,1.0,12.3,M,-34.5,M,,*67
$PYRTM,2024,127.585228852870,18.694876263021
$GPGGA,140242.00,3327.8074,N,11902.6415,W,1,10,1.0,12.0,M,-34.5,M,,*60
$PYRTM,2024,127.585240415208,18.694887825347
$GPGGA,140243.00,3327.8073,N,11902.6416,W,1,10,1.0,12.0,M,-34.5,M,,*65
$PYRTM,2024,127.585252001863,18.694899412002
$GPGGA,140244.00,3327.8075,N,11902.6414,W,1,10,1.0,12.0,M,-34.5,M,,*66
$PYRTM,2024,127.585263570081,18.694910980220
$GPGGA,140245.00,3327.8077,N,11902.6413,W,1,10,1.0,11.9,M,-34.5,M,,*68
$PYRTM,2024,127.585275266134,18.694922676285
$GPGGA,140246.00,3327.8075,N,11902.6413,W,1,10,1.0,11.8,M,-34.5,M,,*68
$PYRTM,2024,127.585286826655,18.694934236806
$GPGGA,140247.00,3327.8074,N,11902.6413,W,1,10,1.0,11.4,M,-34.5,M,,*64
$PYRTM,2024,127.585297488935,18.694944899074
$GPGGA,140248.00,3327.8074,N,11902.6413,W,1,10,1.0,11.4,M,-34.5,M,,*6B
$PYRTM,2024,127.585309409086,18.694956819225
$GPGGA,140249.00,3327.8074,N,11902.6415,W,1,10,1.0,11.3,M,-34.5,M,,*6B
$PYRTM,2024,127.585319014977,18.694966425116
$GPGGA,140250.00,3327.8076,N,11902.6414,W,1,10,1.0,11.2,M,-34.5,M,,*61
$PYRTM,2024,127.585330010926,18.694977421065
$GPGGA,140251.00,3327.8075,N,11902.6413,W,1,10,1.0,11.5,M,-34.5,M,,*63
$PYRTM,2024,127.585341125625,18.694988535764
$GPGGA,140252.00,3327.8074,N,11902.6413,W,1,10,1.0,11.4,M,-34.5,M,,*60
$PYRTM,2024,127.585362187674,18.695009597813
$GPGGA,140253.00,3327.8075,N,11902.6412,W,1,10,1.0,11.6,M,-34.5,M,,*63
$PYRTM,2024,127.585373168275,18.695020578414
$GPGGA,140254.00,3327.8075,N,11902.6414,W,1,10,1.0,11.6,M,-34.5,M,,*62
$PYRTM,2024,127.585384278981,18.695031689120
$GPGGA,140255.00,3327.8076,N,11902.6415,W,1,10,1.0,11.8,M,-34.5,M,,*6F
$PYRTM,2024,127.585396316400,18.695043726539
$GPGGA,140256.00,3327.8076,N,11902.6414,W,1,10,1.0,12.0,M,-34.5,M,,*66
$PYRTM,2024,127.585407313044,18.695054723183
$GPGGA,140257.00,3327.8075,N,11902.6416,W,1,10,1.0,11.9,M,-34.5,M,,*6C
$PYRTM,2024,127.585418308484,18.695065718623
$GPGGA,140258.00,3327.8075,N,11902.6416,W,1,10,1.0,11.8,M,-34.5,M,,*62
$PYRTM,2024,127.585429419387,18.695076829525
$GPGGA,140259.00,3327.8075,N,11902.6416,W,1,10,1.0,11.7,M,-34.5,M,,*6C
$PYRTM,2024,127.585440427697,18.695087837836
$GPGGA,140300.00,3327.8073,N,11902.6416,W,1,10,1.0,11.7,M,-34.5,M,,*67
$PYRTM,2024,127.585451527998,18.695098938137
$GPGGA,140301.00,3327.8074,N,11902.6417,W,1,10,1.0,11.8,M,-34.5,M,,*6F
$PYRTM,2024,127.585462523368,18.695109933507
$GPGGA,140302.00,3327.8073,N,11902.6418,W,1,10,1.0,11.9,M,-34.5,M,,*65
$PYRTM,2024,127.585473531782,18.695120941921
$GPGGA,140303.00,3327.8072,N,11902.6416,W,1,10,1.0,11.8,M,-34.5,M,,*6A
$PYRTM,2024,127.585483355150,18.695130765289
$GPGGA,140304.00,3327.8074,N,11902.6418,W,1,10,1.0,12.0,M,-34.5,M,,*6E
$PYRTM,2024,127.585494352245,18.695141762384
$GPGGA,140305.00,3327.8074,N,11902.6418,W,1,10,1.0,11.8,M,-34.5,M,,*64
$PYRTM,2024,127.585506638981,18.695154049120
$GPGGA,140306.00,3327.8074,N,11902.6417,W,1,10,1.0,11.9,M,-34.5,M,,*69
$PYRTM,2024,127.585518207419,18.695165617569
$GPGGA,140307.00,3327.8074,N,11902.6418,W,1,10,1.0,12.0,M,-34.5,M,,*6D
$PYRTM,2024,127.585529783565,18.695177193704
$GPGGA,140308.00,3327.8074,N,11902.6417,W,1,10,1.0,11.9,M,-34.5,M,,*67
$PYRTM,2024,127.585541354965,18.695188765116
$GPGGA,140309.00,3327.8074,N,11902.6418,W,1,10,1.0,11.9,M,-34.5,M,,*69
$PYRTM,2024,127.585552932801,18.695200342940
$GPGGA,140310.00,3327.8075,N,11902.6419,W,1,10,1.0,11.8,M,-34.5,M,,*60
$PYRTM,2024,127.585564504954,18.695211915093
$GPGGA,140311.00,3327.8076,N,11902.6421,W,1,10,1.0,11.9,M,-34.5,M,,*68
$PYRTM,2024,127.585576528542,18.695223938681
$GPGGA,140312.00,3327.8077,N,11902.6423,W,1,10,1.0,11.8,M,-34.5,M,,*69
$PYRTM,2024,127.585587651285,18.695235061424
$GPGGA,140313.00,3327.8078,N,11902.6425,W,1,10,1.0,11.8,M,-34.5,M,,*61
$PYRTM,2024,127.585599225544,18.695246635683
$GPGGA,140314.00,3327.8077,N,11902.6426,W,1,10,1.0,11.7,M,-34.5,M,,*65
$PYRTM,2024,127.585610803206,18.695258213345
$GPGGA,140315.00,3327.8077,N,11902.6426,W,1,10,1.0,11.7,M,-34.5,M,,*64
$PYRTM,2024,127.585622374780,18.695269784919
$GPGGA,140316.00,3327.8075,N,11902.6426,W,1,10,1.0,11.6,M,-34.5,M,,*64
$PYRTM,2024,127.585633942940,18.695281353079
$GPGGA,140317.00,3327.8077,N,11902.6429,W,1,10,1.0,11.7,M,-34.5,M,,*69
$PYRTM,2024,127.585645523056,18.695292933194
$GPGGA,140318.00,3327.8078,N,11902.6431,W,1,10,1.0,11.8,M,-34.5,M,,*6F
$PYRTM,2024,127.585657096701,18.695304506840
$GPGGA,140319.00,3327.8077,N,11902.6431,W,1,10,1.0,11.9,M,-34.5,M,,*60
$PYRTM,2024,127.585668670718,18.695316080868
$GPGGA,140320.00,3327.8078,N,11902.6431,W,1,10,1.0,11.9,M,-34.5,M,,*65
$PYRTM,2024,127.585680239016,18.695327649155
$GPGGA,140321.00,3327.8078,N,11902.6431,W,1,10,1.0,11.9,M,-34.5,M,,*64
$PYRTM,2024,127.585691820671,18.695339230810
$GPGGA,140322.00,3327.8078,N,11902.6431,W,1,10,1.0,11.8,M,-34.5,M,,*66
$PYRTM,2024,127.585703392870,18.695350803009
$GPGGA,140323.00,3327.8077,N,11902.6433,W,1,10,1.0,11.8,M,-34.5,M,,*6A
$PYRTM,2024,127.585714969988,18.695362380127
$GPGGA,140324.00,3327.8076,N,11902.6435,W,1,10,1.0,11.7,M,-34.5,M,,*65
$PYRTM,2024,127.585726536933,18.695373947072
$GPGGA,140325.00,3327.8074,N,11902.6435,W,1,10,1.0,11.6,M,-34.5,M,,*67
$PYRTM,2024,127.585738234919,18.695385645069
$GPGGA,140326.00,3327.8074,N,11902.6434,W,1,10,1.0,11.6,M,-34.5,M,,*65
$PYRTM,2024,127.585749792106,18.695397202245
$GPGGA,140327.00,3327.8075,N,11902.6436,W,1,10,1.0,11.7,M,-34.5,M,,*66
$PYRTM,2024,127.585761380856,18.695408790995
$GPGGA,140328.00,3327.8074,N,11902.6436,W,1,10,1.0,11.7,M,-34.5,M,,*68
$PYRTM,2024,127.585772942292,18.695420352431
$GPGGA,140329.00,3327.8075,N,11902.6436,W,1,10,1.0,11.8,M,-34.5,M,,*67
$PYRTM,2024,127.585784528252,18.695431938403
$GPGGA,140330.00,3327.8076,N,11902.6437,W,1,10,1.0,11.9,M,-34.5,M,,*6C
$PYRTM,2024,127.585796088970,18.695443499109
$GPGGA,140331.00,3327.8075,N,11902.6436,W,1,10,1.0,11.9,M,-34.5,M,,*6F
$PYRTM,2024,127.585807676736,18.695455086887
$GPGGA,140332.00,3327.8076,N,11902.6437,W,1,10,1.0,12.0,M,-34.5,M,,*64
$PYRTM,2024,127.585819236771,18.695466646921
$GPGGA,140333.00,3327.8076,N,11902.6438,W,1,10,1.0,12.0,M,-34.5,M,,*6A
$PYRTM,2024,127.585829424572,18.695476834722
$GPGGA,140334.00,3327.8076,N,11902.6440,W,1,10,1.0,12.1,M,-34.5,M,,*63
$PYRTM,2024,127.585841357049,18.695488767187
$GPGGA,140335.00,3327.8077,N,11902.6440,W,1,10,1.0,12.1,M,-34.5,M,,*63
$PYRTM,2024,127.585853974745,18.695501384884
$GPGGA,140336.00,3327.8078,N,11902.6440,W,1,10,1.0,12.2,M,-34.5,M,,*6C
$PYRTM,2024,127.585865535706,18.695512945856
$GPGGA,140337.00,3327.8078,N,11902.6441,W,1,10,1.0,12.3,M,-34.5,M,,*6D
$PYRTM,2024,127.585877120961,18.695524531100
$GPGGA,140338.00,3327.8076,N,11902.6442,W,1,10,1.0,12.2,M,-34.5,M,,*6E
$PYRTM,2024,127.585888682975,18.695536093113
$GPGGA,140339.00,3327.8075,N,11902.6444,W,1,10,1.0,12.3,M,-34.5,M,,*6B
$PYRTM,2024,127.585900272905,18.695547683044
$GPGGA,140340.00,3327.8076,N,11902.6445,W,1,10,1.0,12.4,M,-34.5,M,,*60
$PYRTM,2024,127.585911832072,18.695559242211
$GPGGA,140341.00,3327.8076,N,11902.6445,W,1,10,1.0,12.5,M,-34.5,M,,*60
$PYRTM,2024,127.585923422465,18.695570832604
$GPGGA,140342.00,3327.8075,N,11902.6446,W,1,10,1.0,12.5,M,-34.5,M,,*63
$PYRTM,2024,127.585935455058,18.695582865197
$GPGGA,140343.00,3327.8075,N,11902.6446,W,1,10,1.0,12.6,M,-34.5,M,,*61
$PYRTM,2024,127.585946566447,18.695593976586
$GPGGA,140344.00,3327.8074,N,11902.6447,W,1,10,1.0,12.5,M,-34.5,M,,*65
$PYRTM,2024,127.585958129155,18.695605539294
$GPGGA,140345.00,3327.8074,N,11902.6447,W,1,10,1.0,12.4,M,-34.5,M,,*65
$PYRTM,2024,127.585969715255,18.695617125394
$GPGGA,140346.00,3327.8074,N,11902.6449,W,1,10,1.0,12.4,M,-34.5,M,,*68
$PYRTM,2024,127.585981276215,18.695628686354
$GPGGA,140347.00,3327.8074,N,11902.6449,W,1,10,1.0,12.3,M,-34.5,M,,*6E
$PYRTM,2024,127.585992863206,18.695640273345
$GPGGA,140348.00,3327.8073,N,11902.6452,W,1,10,1.0,12.5,M,-34.5,M,,*6A
$PYRTM,2024,127.586004426065,18.695651836204
$GPGGA,140349.00,3327.8072,N,11902.6454,W,1,10,1.0,12.6,M,-34.5,M,,*6F
$PYRTM,2024,127.586016011377,18.695663421516
$GPGGA,140350.00,3327.8070,N,11902.6453,W,1,10,1.0,12.5,M,-34.5,M,,*61
$PYRTM,2024,127.586027571910,18.695674982049
$GPGGA,140351.00,3327.8069,N,11902.6454,W,1,10,1.0,12.6,M,-34.5,M,,*6C
$PYRTM,2024,127.586039154549,18.695686564687
$GPGGA,140352.00,3327.8068,N,11902.6454,W,1,10,1.0,12.6,M,-34.5,M,,*6E
$PYRTM,2024,127.586050726100,18.695698136238
$GPGGA,140353.00,3327.8069,N,11902.6455,W,1,10,1.0,12.7,M,-34.5,M,,*6E
$PYRTM,2024,127.586062308206,18.695709718345
$GPGGA,140354.00,3327.8070,N,11902.6456,W,1,10,1.0,12.8,M,-34.5,M,,*6D
$PYRTM,2024,127.586073869016,18.695721279155
$GPGGA,140355.00,3327.8069,N,11902.6459,W,1,10,1.0,12.9,M,-34.5,M,,*6A
$PYRTM,2024,127.586085459618,18.695732869757
$GPGGA,140356.00,3327.8067,N,11902.6458,W,1,10,1.0,12.9,M,-34.5,M,,*66
$PYRTM,2024,127.586097017917,18.695744428056
$GPGGA,140357.00,3327.8065,N,11902.6459,W,1,10,1.0,13.1,M,-34.5,M,,*6D
$PYRTM,2024,127.586108618588,18.695756028727
$GPGGA,140358.00,3327.8064,N,11902.6462,W,1,10,1.0,13.2,M,-34.5,M,,*68
$PYRTM,2024,127.586120166319,18.695767576470
$GPGGA,140359.00,3327.8063,N,11902.6462,W,1,10,1.0,13.3,M,-34.5,M,,*6F
$PYRTM,2024,127.586131752164,18.695779162303
$GPGGA,140400.00,3327.8064,N,11902.6468,W,1,10,1.0,13.5,M,-34.5,M,,*6F
$PYRTM,2024,127.586143314815,18.695790724954
$GPGGA,140401.00,3327.8062,N,11902.6470,W,1,10,1.0,13.5,M,-34.5,M,,*61
$PYRTM,2024,127.586154901273,18.695802311424
$GPGGA,140402.00,3327.8060,N,11902.6469,W,1,10,1.0,13.6,M,-34.5,M,,*6B
$PYRTM,2024,127.586166462199,18.695813872350
$GPGGA,140403.00,3327.8060,N,11902.6470,W,1,10,1.0,13.6,M,-34.5,M,,*62
$PYRTM,2024,127.586176647512,18.695824057650
$GPGGA,140404.00,3327.8059,N,11902.6471,W,1,10,1.0,13.6,M,-34.5,M,,*6E
$PYRTM,2024,127.586188581609,18.695835991748
$GPGGA,140405.00,3327.8058,N,11902.6473,W,1,10,1.0,13.5,M,-34.5,M,,*6F
$PYRTM,2024,127.586201198866,18.695848609005
$GPGGA,140406.00,3327.8058,N,11902.6475,W,1,10,1.0,13.6,M,-34.5,M,,*69
$PYRTM,2024,127.586212760104,18.695860170243
$GPGGA,140407.00,3327.8057,N,11902.6477,W,1,10,1.0,13.6,M,-34.5,M,,*65
$PYRTM,2024,127.586224346933,18.695871757072
$GPGGA,140408.00,3327.8058,N,11902.6480,W,1,10,1.0,13.6,M,-34.5,M,,*6D
$PYRTM,2024,127.586235907789,18.695883317940
$GPGGA,140409.00,3327.8059,N,11902.6478,W,1,10,1.0,13.7,M,-34.5,M,,*6B
$PYRTM,2024,127.586247495208,18.695894905347
$GPGGA,140410.00,3327.8057,N,11902.6480,W,1,10,1.0,13.8,M,-34.5,M,,*65
$PYRTM,2024,127.586259055752,18.695906465891
$GPGGA,140411.00,3327.8059,N,11902.6478,W,1,10,1.0,13.7,M,-34.5,M,,*62
$PYRTM,2024,127.586270645347,18.695918055498
$GPGGA,140412.00,3327.8059,N,11902.6481,W,1,10,1.0,13.9,M,-34.5,M,,*69
$PYRTM,2024,127.586282204306,18.695929614456
$GPGGA,140413.00,3327.8060,N,11902.6482,W,1,10,1.0,13.8,M,-34.5,M,,*60
$PYRTM,2024,127.586294241042,18.695941651181
$GPGGA,140414.00,3327.8056,N,11902.6484,W,1,10,1.0,13.7,M,-34.5,M,,*6B
$PYRTM,2024,127.586305352593,18.695952762731
$GPGGA,140415.00,3327.8055,N,11902.6484,W,1,10,1.0,13.4,M,-34.5,M,,*6A
$PYRTM,2024,127.586316941817,18.695964351956
$GPGGA,140416.00,3327.8053,N,11902.6486,W,1,10,1.0,13.4,M,-34.5,M,,*6D
$PYRTM,2024,127.586328500046,18.695975910185
$GPGGA,140417.00,3327.8053,N,11902.6490,W,1,10,1.0,13.4,M,-34.5,M,,*6B
$PYRTM,2024,127.586340082743,18.695987492882
$GPGGA,140418.00,3327.8054,N,11902.6493,W,1,10,1.0,13.5,M,-34.5,M,,*61
$PYRTM,2024,127.586351647662,18.695999057801
$GPGGA,140419.00,3327.8053,N,11902.6496,W,1,10,1.0,13.5,M,-34.5,M,,*62
$PYRTM,2024,127.586363235706,18.696010645845
$GPGGA,140420.00,3327.8051,N,11902.6496,W,1,10,1.0,13.6,M,-34.5,M,,*69
$PYRTM,2024,127.586374796956,18.696022207095
$GPGGA,140421.00,3327.8050,N,11902.6498,W,1,10,1.0,13.6,M,-34.5,M,,*67
$PYRTM,2024,127.586386383819,18.696033793958
$GPGGA,140422.00,3327.8051,N,11902.6501,W,1,10,1.0,13.6,M,-34.5,M,,*64
$PYRTM,2024,127.586397945069,18.696045355220
$GPGGA,140423.00,3327.8052,N,11902.6503,W,1,10,1.0,13.6,M,-34.5,M,,*64
$PYRTM,2024,127.586409531852,18.696056941991
$GPGGA,140424.00,3327.8051,N,11902.6506,W,1,10,1.0,13.6,M,-34.5,M,,*65
$PYRTM,2024,127.586421094896,18.696068505035
$GPGGA,140425.00,3327.8049,N,11902.6507,W,1,10,1.0,13.6,M,-34.5,M,,*6C
$PYRTM,2024,127.586432675868,18.696080086007
$GPGGA,140426.00,3327.8047,N,11902.6509,W,1,10,1.0,13.6,M,-34.5,M,,*6F
$PYRTM,2024,127.586444242558,18.696091652697
$GPGGA,140427.00,3327.8046,N,11902.6510,W,1,10,1.0,13.7,M,-34.5,M,,*66
$PYRTM,2024,127.586455843484,18.696103253623
$GPGGA,140428.00,3327.8046,N,11902.6512,W,1,10,1.0,13.7,M,-34.5,M,,*6B
$PYRTM,2024,127.586467390428,18.696114800567
$GPGGA,140429.00,3327.8048,N,11902.6514,W,1,10,1.0,13.7,M,-34.5,M,,*62
$PYRTM,2024,127.586478980162,18.696126390301
$GPGGA,140430.00,3327.8048,N,11902.6517,W,1,10,1.0,13.7,M,-34.5,M,,*69
$PYRTM,2024,127.586490540671,18.696137950810
$GPGGA,140431.00,3327.8046,N,11902.6519,W,1,10,1.0,13.7,M,-34.5,M,,*68
$PYRTM,2024,127.586502126655,18.696149536794
$GPGGA,140432.00,3327.8043,N,11902.6520,W,1,10,1.0,13.7,M,-34.5,M,,*64
$PYRTM,2024,127.586513686875,18.696161097014
$GPGGA,140433.00,3327.8043,N,11902.6521,W,1,10,1.0,13.8,M,-34.5,M,,*6B
$PYRTM,2024,127.586523871655,18.696171281794
$GPGGA,140434.00,3327.8045,N,11902.6523,W,1,10,1.0,13.8,M,-34.5,M,,*68
$PYRTM,2024,127.586535802789,18.696183212940
$GPGGA,140435.00,3327.8046,N,11902.6526,W,1,10,1.0,13.8,M,-34.5,M,,*6F
$PYRTM,2024,127.586548422095,18.696195832234
$GPGGA,140436.00,3327.8044,N,11902.6528,W,1,10,1.0,13.8,M,-34.5,M,,*60
$PYRTM,2024,127.586559983438,18.696207393576
$GPGGA,140437.00,3327.8040,N,11902.6530,W,1,10,1.0,13.8,M,-34.5,M,,*6C
$PYRTM,2024,127.586571570845,18.696218980984
$GPGGA,140438.00,3327.8038,N,11902.6531,W,1,10,1.0,13.8,M,-34.5,M,,*6D
$PYRTM,2024,127.586583131968,18.696230542106
$GPGGA,140439.00,3327.8038,N,11902.6533,W,1,10,1.0,13.8,M,-34.5,M,,*6E
$PYRTM,2024,127.586594719340,18.696242129479
$GPGGA,140440.00,3327.8039,N,11902.6535,W,1,10,1.0,13.8,M,-34.5,M,,*67
$PYRTM,2024,127.586606279769,18.696253689907
$GPGGA,140441.00,3327.8040,N,11902.6538,W,1,10,1.0,13.8,M,-34.5,M,,*65
$PYRTM,2024,127.586617868206,18.696265278345
$GPGGA,140442.00,3327.8038,N,11902.6540,W,1,10,1.0,13.8,M,-34.5,M,,*66
$PYRTM,2024,127.586629428252,18.696276838391
$GPGGA,140443.00,3327.8036,N,11902.6542,W,1,10,1.0,13.8,M,-34.5,M,,*6B
$PYRTM,2024,127.586641019086,18.696288429236
$GPGGA,140444.00,3327.8034,N,11902.6545,W,1,10,1.0,13.9,M,-34.5,M,,*68
$PYRTM,2024,127.586653054039,18.696300464178
$GPGGA,140445.00,3327.8033,N,11902.6548,W,1,10,1.0,13.9,M,-34.5,M,,*63
$PYRTM,2024,127.586664178889,18.696311589039
$GPGGA,140446.00,3327.8033,N,11902.6551,W,1,10,1.0,13.9,M,-34.5,M,,*68
$PYRTM,2024,127.586675726551,18.696323136690
$GPGGA,140447.00,3327.8032,N,11902.6553,W,1,10,1.0,13.9,M,-34.5,M,,*6A
$PYRTM,2024,127.586687314375,18.696334724514
$GPGGA,140448.00,3327.8031,N,11902.6554,W,1,10,1.0,13.9,M,-34.5,M,,*61
$PYRTM,2024,127.586698873519,18.696346283657
$GPGGA,140449.00,3327.8030,N,11902.6556,W,1,10,1.0,13.9,M,-34.5,M,,*63
$PYRTM,2024,127.586710461574,18.696357871713
$GPGGA,140450.00,3327.8031,N,11902.6559,W,1,10,1.0,14.0,M,-34.5,M,,*6B
$PYRTM,2024,127.586722022350,18.696369432488
$GPGGA,140451.00,3327.8031,N,11902.6563,W,1,10,1.0,14.0,M,-34.5,M,,*63
$PYRTM,2024,127.586733608646,18.696381018796
$GPGGA,140452.00,3327.8030,N,11902.6565,W,1,10,1.0,14.0,M,-34.5,M,,*67
$PYRTM,2024,127.586744244850,18.696391655000
$GPGGA,140453.00,3327.8027,N,11902.6567,W,1,10,1.0,14.0,M,-34.5,M,,*62
$PYRTM,2024,127.586756281493,18.696403691632
$GPGGA,140454.00,3327.8025,N,11902.6569,W,1,10,1.0,14.0,M,-34.5,M,,*69
$PYRTM,2024,127.586766363576,18.696413773715
$GPGGA,140455.00,3327.8025,N,11902.6572,W,1,10,1.0,14.0,M,-34.5,M,,*62
$PYRTM,2024,127.586777474363,18.696424884502
$GPGGA,140456.00,3327.8025,N,11902.6575,W,1,10,1.0,14.0,M,-34.5,M,,*66
$PYRTM,2024,127.586788585775,18.696435995914
$GPGGA,140457.00,3327.8024,N,11902.6577,W,1,10,1.0,14.0,M,-34.5,M,,*64
$PYRTM,2024,127.586799697743,18.696447107882
$GPGGA,140458.00,3327.8022,N,11902.6579,W,1,10,1.0,14.0,M,-34.5,M,,*63
$PYRTM,2024,127.586818317882,18.696465728032
$GPGGA,140459.00,3327.8021,N,11902.6580,W,1,10,1.0,13.9,M,-34.5,M,,*69
$PYRTM,2024,127.586829428981,18.696476839120
$GPGGA,140500.00,3327.8020,N,11902.6583,W,1,10,1.0,14.0,M,-34.5,M,,*68
$PYRTM,2024,127.586840543287,18.696487953426
$GPGGA,140501.00,3327.8020,N,11902.6586,W,1,10,1.0,14.0,M,-34.5,M,,*6C
$PYRTM,2024,127.586851652338,18.696499062477
$GPGGA,140502.00,3327.8019,N,11902.6589,W,1,10,1.0,13.9,M,-34.5,M,,*64
$PYRTM,2024,127.586862763368,18.696510173507
$GPGGA,140503.00,3327.8018,N,11902.6591,W,1,10,1.0,13.9,M,-34.5,M,,*6D
$PYRTM,2024,127.586877476319,18.696524886458
$GPGGA,140504.00,3327.8016,N,11902.6593,W,1,10,1.0,14.0,M,-34.5,M,,*68
$PYRTM,2024,127.586888588044,18.696535998183
$GPGGA,140505.00,3327.8015,N,11902.6595,W,1,10,1.0,14.0,M,-34.5,M,,*6C
$PYRTM,2024,127.586899697199,18.696547107338
$GPGGA,140506.00,3327.8015,N,11902.6598,W,1,10,1.0,14.0,M,-34.5,M,,*62
$PYRTM,2024,127.586910809410,18.696558219560
$GPGGA,140507.00,3327.8014,N,11902.6601,W,1,10,1.0,14.0,M,-34.5,M,,*61
$PYRTM,2024,127.586921920023,18.696569330162
$GPGGA,140508.00,3327.8013,N,11902.6604,W,1,10,1.0,14.0,M,-34.5,M,,*6C
$PYRTM,2024,127.586933030579,18.696580440718
$GPGGA,140509.00,3327.8011,N,11902.6604,W,1,10,1.0,14.0,M,-34.5,M,,*6F
$PYRTM,2024,127.586944130231,18.696591540370
$GPGGA,140510.00,3327.8011,N,11902.6606,W,1,10,1.0,14.0,M,-34.5,M,,*65
$PYRTM,2024,127.586955253889,18.696602664039
$GPGGA,140511.00,3327.8011,N,11902.6610,W,1,10,1.0,14.0,M,-34.5,M,,*63
$PYRTM,2024,127.586966352269,18.696613762407
$GPGGA,140512.00,3327.8010,N,11902.6614,W,1,10,1.0,14.0,M,-34.5,M,,*65
$PYRTM,2024,127.586977470440,18.696624880579
$GPGGA,140513.00,3327.8009,N,11902.6617,W,1,10,1.0,14.0,M,-34.5,M,,*6F
$PYRTM,2024,127.586988586806,18.696635996944
$GPGGA,140514.00,3327.8007,N,11902.6617,W,1,10,1.0,13.9,M,-34.5,M,,*68
$PYRTM,2024,127.586999801736,18.696647211875
$GPGGA,140515.00,3327.8005,N,11902.6618,W,1,10,1.0,13.9,M,-34.5,M,,*64
$PYRTM,2024,127.587011389062,18.696658799201
$GPGGA,140516.00,3327.8004,N,11902.6622,W,1,10,1.0,13.9,M,-34.5,M,,*6F
$PYRTM,2024,127.587022951192,18.696670361331
$GPGGA,140517.00,3327.8003,N,11902.6625,W,1,10,1.0,13.9,M,-34.5,M,,*6E
$PYRTM,2024,127.587034535764,18.696681945903
$GPGGA,140518.00,3327.8002,N,11902.6626,W,1,10,1.0,13.9,M,-34.5,M,,*63
$PYRTM,2024,127.587046097674,18.696693507813
$GPGGA,140519.00,3327.8001,N,11902.6627,W,1,10,1.0,13.9,M,-34.5,M,,*60
$PYRTM,2024,127.587057686100,18.696705096238
$GPGGA,140520.00,3327.7999,N,11902.6630,W,1,10,1.0,13.9,M,-34.5,M,,*6B
$PYRTM,2024,127.587069246505,18.696716656644
$GPGGA,140521.00,3327.7996,N,11902.6635,W,1,10,1.0,13.9,M,-34.5,M,,*60
$PYRTM,2024,127.587080837269,18.696728247407
$GPGGA,140522.00,3327.7995,N,11902.6639,W,1,10,1.0,13.9,M,-34.5,M,,*6C
$PYRTM,2024,127.587092394167,18.696739804306
$GPGGA,140523.00,3327.7995,N,11902.6641,W,1,10,1.0,13.9,M,-34.5,M,,*62
$PYRTM,2024,127.587103984525,18.696751394664
$GPGGA,140524.00,3327.7995,N,11902.6644,W,1,10,1.0,13.9,M,-34.5,M,,*60
$PYRTM,2024,127.587115543519,18.696762953657
$GPGGA,140525.00,3327.7994,N,11902.6645,W,1,10,1.0,13.9,M,-34.5,M,,*61
$PYRTM,2024,127.587127133738,18.696774543877
$GPGGA,140526.00,3327.7992,N,11902.6647,W,1,10,1.0,13.9,M,-34.5,M,,*66
$PYRTM,2024,127.587138691273,18.696786101424
$GPGGA,140527.00,3327.7991,N,11902.6650,W,1,10,1.0,13.9,M,-34.5,M,,*62
$PYRTM,2024,127.587150277986,18.696797688125
$GPGGA,140528.00,3327.7991,N,11902.6654,W,1,10,1.0,14.0,M,-34.5,M,,*67
$PYRTM,2024,127.587161840313,18.696809250451
$GPGGA,140529.00,3327.7991,N,11902.6658,W,1,10,1.0,14.0,M,-34.5,M,,*6A
$PYRTM,2024,127.587173427708,18.696820837847
$GPGGA,140530.00,3327.7991,N,11902.6660,W,1,10,1.0,14.0,M,-34.5,M,,*69
$PYRTM,2024,127.587184989861,18.696832400000
$GPGGA,140531.00,3327.7990,N,11902.6661,W,1,10,1.0,14.0,M,-34.5,M,,*68
$PYRTM,2024,127.587196574803,18.696843984942
$GPGGA,140532.00,3327.7988,N,11902.6662,W,1,10,1.0,14.0,M,-34.5,M,,*61
$PYRTM,2024,127.587208136319,18.696855546458
$GPGGA,140533.00,3327.7986,N,11902.6666,W,1,10,1.0,14.0,M,-34.5,M,,*6A
$PYRTM,2024,127.587218321933,18.696865732072
$GPGGA,140534.00,3327.7986,N,11902.6670,W,1,10,1.0,14.0,M,-34.5,M,,*6A
$PYRTM,2024,127.587230255498,18.696877665648
$GPGGA,140535.00,3327.7986,N,11902.6674,W,1,10,1.0,14.0,M,-34.5,M,,*6F
$PYRTM,2024,127.587242872535,18.696890282674
$GPGGA,140536.00,3327.7983,N,11902.6676,W,1,10,1.0,14.0,M,-34.5,M,,*6B
$PYRTM,2024,127.587254433704,18.696901843843
$GPGGA,140537.00,3327.7979,N,11902.6677,W,1,10,1.0,14.0,M,-34.5,M,,*6E
$PYRTM,2024,127.587266034977,18.696913445116
$GPGGA,140538.00,3327.7977,N,11902.6680,W,1,10,1.0,14.0,M,-34.5,M,,*67
$PYRTM,2024,127.587277581366,18.696924991505
$GPGGA,140539.00,3327.7977,N,11902.6684,W,1,10,1.0,14.0,M,-34.5,M,,*62
$PYRTM,2024,127.587289183530,18.696936593669
$GPGGA,140540.00,3327.7977,N,11902.6690,W,1,10,1.0,14.0,M,-34.5,M,,*69
$PYRTM,2024,127.587300729699,18.696948139838
$GPGGA,140541.00,3327.7976,N,11902.6692,W,1,10,1.0,14.0,M,-34.5,M,,*6B
$PYRTM,2024,127.587312330289,18.696959740428
$GPGGA,140542.00,3327.7974,N,11902.6692,W,1,10,1.0,13.9,M,-34.5,M,,*64
$PYRTM,2024,127.587323878762,18.696971288912
$GPGGA,140543.00,3327.7973,N,11902.6694,W,1,10,1.0,14.0,M,-34.5,M,,*6A
$PYRTM,2024,127.587335466111,18.696982876250
$GPGGA,140544.00,3327.7972,N,11902.6699,W,1,10,1.0,13.9,M,-34.5,M,,*6F
$PYRTM,2024,127.587347026285,18.696994436435
$GPGGA,140545.00,3327.7973,N,11902.6704,W,1,10,1.0,13.9,M,-34.5,M,,*6A
$PYRTM,2024,127.587358614016,18.697006024155
$GPGGA,140546.00,3327.7972,N,11902.6705,W,1,10,1.0,14.0,M,-34.5,M,,*67
$PYRTM,2024,127.587370174016,18.697017584155
$GPGGA,140547.00,3327.7971,N,11902.6707,W,1,10,1.0,13.9,M,-34.5,M,,*69
$PYRTM,2024,127.587381763808,18.697029173947
$GPGGA,140548.00,3327.7969,N,11902.6709,W,1,10,1.0,13.9,M,-34.5,M,,*61
$PYRTM,2024,127.587393323113,18.697040733252
$GPGGA,140549.00,3327.7968,N,11902.6712,W,1,10,1.0,13.9,M,-34.5,M,,*6B
$PYRTM,2024,127.587404910440,18.697052320579
$GPGGA,140550.00,3327.7967,N,11902.6715,W,1,10,1.0,13.9,M,-34.5,M,,*6B
$PYRTM,2024,127.587416470544,18.697063880683
$GPGGA,140551.00,3327.7966,N,11902.6718,W,1,10,1.0,13.9,M,-34.5,M,,*66
$PYRTM,2024,127.587428057361,18.697075467500
$GPGGA,140552.00,3327.7964,N,11902.6722,W,1,10,1.0,13.8,M,-34.5,M,,*6F
$PYRTM,2024,127.587439619387,18.697087029525
$GPGGA,140553.00,3327.7962,N,11902.6725,W,1,10,1.0,13.8,M,-34.5,M,,*6F
$PYRTM,2024,127.587451220023,18.697098630162
$GPGGA,140554.00,3327.7960,N,11902.6727,W,1,10,1.0,13.8,M,-34.5,M,,*68
$PYRTM,2024,127.587462767188,18.697110177326
$GPGGA,140555.00,3327.7961,N,11902.6729,W,1,10,1.0,13.8,M,-34.5,M,,*66
$PYRTM,2024,127.587474357708,18.697121767847
$GPGGA,140556.00,3327.7960,N,11902.6733,W,1,10,1.0,13.8,M,-34.5,M,,*6F
$PYRTM,2024,127.587485915405,18.697133325544
$GPGGA,140557.00,3327.7958,N,11902.6737,W,1,10,1.0,13.8,M,-34.5,M,,*61
$PYRTM,2024,127.587497506609,18.697144916748
$GPGGA,140558.00,3327.7955,N,11902.6738,W,1,10,1.0,13.8,M,-34.5,M,,*6C
$PYRTM,2024,127.587509065648,18.697156475787
$GPGGA,140559.00,3327.7952,N,11902.6739,W,1,10,1.0,13.8,M,-34.5,M,,*6B
$PYRTM,2024,127.587520651875,18.697168062014
$GPGGA,140600.00,3327.7951,N,11902.6742,W,1,10,1.0,13.8,M,-34.5,M,,*6B
$PYRTM,2024,127.587532213553,18.697179623692
$GPGGA,140601.00,3327.7951,N,11902.6747,W,1,10,1.0,13.8,M,-34.5,M,,*6F
$PYRTM,2024,127.587543799502,18.697191209641
$GPGGA,140602.00,3327.7950,N,11902.6751,W,1,10,1.0,13.8,M,-34.5,M,,*6A
$PYRTM,2024,127.587555361285,18.697202771424
$GPGGA,140603.00,3327.7949,N,11902.6753,W,1,10,1.0,13.9,M,-34.5,M,,*60
$PYRTM,2024,127.587565546181,18.697212956331
$GPGGA,140604.00,3327.7947,N,11902.6753,W,1,10,1.0,13.9,M,-34.5,M,,*69
$PYRTM,2024,127.587577475544,18.697224885683
$GPGGA,140605.00,3327.7946,N,11902.6756,W,1,10,1.0,13.9,M,-34.5,M,,*6C
$PYRTM,2024,127.587590096806,18.697237506944
$GPGGA,140606.00,3327.7945,N,11902.6761,W,1,10,1.0,13.8,M,-34.5,M,,*69
$PYRTM,2024,127.587601658461,18.697249068600
$GPGGA,140607.00,3327.7944,N,11902.6765,W,1,10,1.0,13.8,M,-34.5,M,,*6D
$PYRTM,2024,127.587613245926,18.697260656065
$GPGGA,140608.00,3327.7944,N,11902.6765,W,1,10,1.0,13.9,M,-34.5,M,,*63
$PYRTM,2024,127.587624806157,18.697272216308
$GPGGA,140609.00,3327.7943,N,11902.6766,W,1,10,1.0,13.9,M,-34.5,M,,*66
$PYRTM,2024,127.587636408484,18.697283818623
$GPGGA,140610.00,3327.7941,N,11902.6770,W,1,10,1.0,13.9,M,-34.5,M,,*6B
$PYRTM,2024,127.587647954387,18.697295364525
$GPGGA,140611.00,3327.7939,N,11902.6774,W,1,10,1.0,13.9,M,-34.5,M,,*61
$PYRTM,2024,127.587659544491,18.697306954630
$GPGGA,140612.00,3327.7939,N,11902.6776,W,1,10,1.0,13.9,M,-34.5,M,,*60
$PYRTM,2024,127.587671103380,18.697318513519
$GPGGA,140613.00,3327.7938,N,11902.6777,W,1,10,1.0,13.9,M,-34.5,M,,*61
$PYRTM,2024,127.587682692951,18.697330103090
$GPGGA,140614.00,3327.7935,N,11902.6779,W,1,10,1.0,13.9,M,-34.5,M,,*65
$PYRTM,2024,127.587694251007,18.697341661146
$GPGGA,140615.00,3327.7933,N,11902.6787,W,1,10,1.0,13.9,M,-34.5,M,,*63
$PYRTM,2024,127.587705838148,18.697353248287
$GPGGA,140616.00,3327.7933,N,11902.6794,W,1,10,1.0,13.9,M,-34.5,M,,*62
$PYRTM,2024,127.587717399792,18.697364809931
$GPGGA,140617.00,3327.7933,N,11902.6796,W,1,10,1.0,14.0,M,-34.5,M,,*6F
$PYRTM,2024,127.587728986424,18.697376396563
$GPGGA,140618.00,3327.7934,N,11902.6797,W,1,10,1.0,14.0,M,-34.5,M,,*66
$PYRTM,2024,127.587740547882,18.697387958032
$GPGGA,140619.00,3327.7934,N,11902.6799,W,1,10,1.0,14.0,M,-34.5,M,,*69
$PYRTM,2024,127.587752134988,18.697399545127
$GPGGA,140620.00,3327.7934,N,11902.6803,W,1,10,1.0,14.0,M,-34.5,M,,*6F
$PYRTM,2024,127.587763697789,18.697411107928
$GPGGA,140621.00,3327.7935,N,11902.6807,W,1,10,1.0,14.0,M,-34.5,M,,*6B
$PYRTM,2024,127.587775271771,18.697422681910
$GPGGA,140622.00,3327.7935,N,11902.6809,W,1,10,1.0,14.1,M,-34.5,M,,*67
$PYRTM,2024,127.587786845197,18.697434255336
$GPGGA,140623.00,3327.7933,N,11902.6810,W,1,10,1.0,14.1,M,-34.5,M,,*68
$PYRTM,2024,127.587798430694,18.697445840833
$GPGGA,140624.00,3327.7931,N,11902.6811,W,1,10,1.0,14.1,M,-34.5,M,,*6C
$PYRTM,2024,127.587809992292,18.697457402431
$GPGGA,140625.00,3327.7931,N,11902.6814,W,1,10,1.0,14.1,M,-34.5,M,,*68
$PYRTM,2024,127.587821583310,18.697468993449
$GPGGA,140626.00,3327.7931,N,11902.6818,W,1,10,1.0,14.1,M,-34.5,M,,*67
$PYRTM,2024,127.587833142569,18.697480552720
$GPGGA,140627.00,3327.7930,N,11902.6821,W,1,10,1.0,14.1,M,-34.5,M,,*6D
$PYRTM,2024,127.587844731979,18.697492142118
$GPGGA,140628.00,3327.7928,N,11902.6821,W,1,10,1.0,14.1,M,-34.5,M,,*6B
$PYRTM,2024,127.587856287928,18.697503698067
$GPGGA,140629.00,3327.7925,N,11902.6823,W,1,10,1.0,14.2,M,-34.5,M,,*66
$PYRTM,2024,127.587867878750,18.697515288889
$GPGGA,140630.00,3327.7923,N,11902.6826,W,1,10,1.0,14.1,M,-34.5,M,,*6E
$PYRTM,2024,127.587879438449,18.697526848588
$GPGGA,140631.00,3327.7922,N,11902.6829,W,1,10,1.0,14.2,M,-34.5,M,,*62
$PYRTM,2024,127.587891025116,18.697538435255
$GPGGA,140632.00,3327.7921,N,11902.6832,W,1,10,1.0,14.2,M,-34.5,M,,*68
$PYRTM,2024,127.587902587060,18.697549997199
$GPGGA,140633.00,3327.7919,N,11902.6834,W,1,10,1.0,14.2,M,-34.5,M,,*64
$PYRTM,2024,127.587912770463,18.697560180602
$GPGGA,140634.00,3327.7918,N,11902.6835,W,1,10,1.0,14.2,M,-34.5,M,,*63
$PYRTM,2024,127.587924715787,18.697572125926
$GPGGA,140635.00,3327.7918,N,11902.6837,W,1,10,1.0,14.2,M,-34.5,M,,*60
$PYRTM,2024,127.587937320660,18.697584730799
$GPGGA,140636.00,3327.7918,N,11902.6840,W,1,09,1.0,14.1,M,-34.5,M,,*68
$PYRTM,2024,127.587948882975,18.697596293113
$GPGGA,140637.00,3327.7916,N,11902.6841,W,1,10,1.0,14.1,M,-34.5,M,,*6E
$PYRTM,2024,127.587960468958,18.697607879097
$GPGGA,140638.00,3327.7914,N,11902.6842,W,1,10,1.0,14.1,M,-34.5,M,,*60
$PYRTM,2024,127.587972032037,18.697619442187
$GPGGA,140639.00,3327.7912,N,11902.6845,W,1,10,1.0,14.2,M,-34.5,M,,*63
$PYRTM,2024,127.587983617870,18.697631028009
$GPGGA,140640.00,3327.7911,N,11902.6849,W,1,10,1.0,14.2,M,-34.5,M,,*62
$PYRTM,2024,127.587995179884,18.697642590023
$GPGGA,140641.00,3327.7912,N,11902.6851,W,1,10,1.0,14.2,M,-34.5,M,,*69
$PYRTM,2024,127.588006768981,18.697654179120
$GPGGA,140642.00,3327.7912,N,11902.6851,W,1,10,1.0,14.2,M,-34.5,M,,*6A
$PYRTM,2024,127.588018328773,18.697665738912
$GPGGA,140643.00,3327.7910,N,11902.6851,W,1,10,1.0,14.2,M,-34.5,M,,*69
$PYRTM,2024,127.588029929757,18.697677339896
$GPGGA,140644.00,3327.7908,N,11902.6853,W,1,10,1.0,14.2,M,-34.5,M,,*65
$PYRTM,2024,127.588041476759,18.697688886898
$GPGGA,140645.00,3327.7907,N,11902.6857,W,1,10,1.0,14.2,M,-34.5,M,,*6F
$PYRTM,2024,127.588053066192,18.697700476343
$GPGGA,140646.00,3327.7907,N,11902.6859,W,1,10,1.0,14.2,M,-34.5,M,,*62
$PYRTM,2024,127.588064624803,18.697712034942
$GPGGA,140647.00,3327.7906,N,11902.6860,W,1,10,1.0,14.3,M,-34.5,M,,*69
$PYRTM,2024,127.588076210845,18.697723620984
$GPGGA,140648.00,3327.7904,N,11902.6861,W,1,10,1.0,14.3,M,-34.5,M,,*65
$PYRTM,2024,127.588087773241,18.697735183391
$GPGGA,140649.00,3327.7902,N,11902.6864,W,1,10,1.0,14.3,M,-34.5,M,,*67
$PYRTM,2024,127.588099360069,18.697746770208
$GPGGA,140650.00,3327.7902,N,11902.6866,W,1,10,1.0,14.3,M,-34.5,M,,*6D
$PYRTM,2024,127.588110920150,18.697758330301
$GPGGA,140651.00,3327.7902,N,11902.6868,W,1,10,1.0,14.3,M,-34.5,M,,*62
$PYRTM,2024,127.588122506829,18.697769916968
$GPGGA,140652.00,3327.7902,N,11902.6872,W,1,10,1.0,14.3,M,-34.5,M,,*6A
$PYRTM,2024,127.588134068507,18.697781478646
$GPGGA,140653.00,3327.7900,N,11902.6876,W,1,10,1.0,14.3,M,-34.5,M,,*6D
$PYRTM,2024,127.588145657130,18.697793067269
$GPGGA,140654.00,3327.7898,N,11902.6878,W,1,10,1.0,14.3,M,-34.5,M,,*64
$PYRTM,2024,127.588157217083,18.697804627222
$GPGGA,140655.00,3327.7898,N,11902.6879,W,1,10,1.0,14.3,M,-34.5,M,,*64
$PYRTM,2024,127.588168799213,18.697816209352
$GPGGA,140656.00,3327.7899,N,11902.6881,W,1,10,1.0,14.3,M,-34.5,M,,*61
$PYRTM,2024,127.588179438021,18.697826848160
$GPGGA,140657.00,3327.7899,N,11902.6883,W,1,10,1.0,14.3,M,-34.5,M,,*62
$PYRTM,2024,127.588190447639,18.697837857778
$GPGGA,140658.00,3327.7897,N,11902.6886,W,1,10,1.0,14.3,M,-34.5,M,,*66
$PYRTM,2024,127.588202137106,18.697849547245
$GPGGA,140659.00,3327.7895,N,11902.6887,W,1,10,1.0,14.4,M,-34.5,M,,*63
$PYRTM,2024,127.588213263032,18.697860673171
$GPGGA,140700.00,3327.7893,N,11902.6889,W,1,10,1.0,14.5,M,-34.5,M,,*67
$PYRTM,2024,127.588224360451,18.697871770590
$GPGGA,140701.00,3327.7892,N,11902.6891,W,1,10,1.0,14.5,M,-34.5,M,,*6E
$PYRTM,2024,127.588235472396,18.697882882535
$GPGGA,140702.00,3327.7891,N,11902.6893,W,1,10,1.0,14.4,M,-34.5,M,,*6D
$PYRTM,2024,127.588246583785,18.697893993924
$GPGGA,140703.00,3327.7890,N,11902.6893,W,1,10,1.0,14.4,M,-34.5,M,,*6D
$PYRTM,2024,127.588262207199,18.697909617338
$GPGGA,140704.00,3327.7887,N,11902.6894,W,1,10,1.0,14.5,M,-34.5,M,,*6A
$PYRTM,2024,127.588273318484,18.697920728623
$GPGGA,140705.00,3327.7885,N,11902.6896,W,1,10,1.0,14.5,M,-34.5,M,,*6B
$PYRTM,2024,127.588284547523,18.697931957662
$GPGGA,140706.00,3327.7883,N,11902.6898,W,1,10,1.0,14.5,M,-34.5,M,,*60
$PYRTM,2024,127.588296105417,18.697943515556
$GPGGA,140707.00,3327.7882,N,11902.6900,W,1,10,1.0,14.5,M,-34.5,M,,*60
$PYRTM,2024,127.588307694294,18.697955104433
$GPGGA,140708.00,3327.7880,N,11902.6902,W,1,10,1.0,14.5,M,-34.5,M,,*6F
$PYRTM,2024,127.588319255903,18.697966666042
$GPGGA,140709.00,3327.7878,N,11902.6903,W,1,10,1.0,14.5,M,-34.5,M,,*68
$PYRTM,2024,127.588330843113,18.697978253252
$GPGGA,140710.00,3327.7876,N,11902.6904,W,1,10,1.0,14.5,M,-34.5,M,,*69
$PYRTM,2024,127.588342404769,18.697989814907
$GPGGA,140711.00,3327.7876,N,11902.6905,W,1,10,1.0,14.5,M,-34.5,M,,*69
$PYRTM,2024,127.588353990405,18.698001400544
$GPGGA,140712.00,3327.7874,N,11902.6908,W,1,10,1.0,14.5,M,-34.5,M,,*65
$PYRTM,2024,127.588365557535,18.698012967674
$GPGGA,140713.00,3327.7872,N,11902.6910,W,1,10,1.0,14.5,M,-34.5,M,,*6B
$PYRTM,2024,127.588377142373,18.698024552512
$GPGGA,140714.00,3327.7872,N,11902.6912,W,1,10,1.0,14.5,M,-34.5,M,,*6E
$PYRTM,2024,127.588388701076,18.698036111215
$GPGGA,140715.00,3327.7870,N,11902.6913,W,1,10,1.0,14.5,M,-34.5,M,,*6C
$PYRTM,2024,127.588400290544,18.698047700694
$GPGGA,140716.00,3327.7870,N,11902.6914,W,1,10,1.0,14.5,M,-34.5,M,,*68
$PYRTM,2024,127.588411848773,18.698059258924
$GPGGA,140717.00,3327.7870,N,11902.6915,W,1,10,1.0,14.5,M,-34.5,M,,*68
$PYRTM,2024,127.588423439537,18.698070849676
$GPGGA,140718.00,3327.7870,N,11902.6916,W,1,10,1.0,14.5,M,-34.5,M,,*64
$PYRTM,2024,127.588434997049,18.698082407187
$GPGGA,140719.00,3327.7868,N,11902.6918,W,1,10,1.0,14.5,M,-34.5,M,,*62
$PYRTM,2024,127.588446583900,18.698093994039
$GPGGA,140720.00,3327.7865,N,11902.6920,W,1,10,1.0,14.5,M,-34.5,M,,*6E
$PYRTM,2024,127.588458146204,18.698105556343
$GPGGA,140721.00,3327.7862,N,11902.6922,W,1,10,1.0,14.5,M,-34.5,M,,*6A
$PYRTM,2024,127.588469731852,18.698117141991
$GPGGA,140722.00,3327.7860,N,11902.6923,W,1,10,1.0,14.5,M,-34.5,M,,*6A
$PYRTM,2024,127.588481294132,18.698128704271
$GPGGA,140723.00,3327.7860,N,11902.6922,W,1,10,1.0,14.5,M,-34.5,M,,*6A
$PYRTM,2024,127.588492880949,18.698140291088
$GPGGA,140724.00,3327.7860,N,11902.6922,W,1,10,1.0,14.5,M,-34.5,M,,*6D
$PYRTM,2024,127.588504443067,18.698151853206
$GPGGA,140725.00,3327.7860,N,11902.6924,W,1,10,1.0,14.5,M,-34.5,M,,*6A
$PYRTM,2024,127.588516029201,18.698163439340
$GPGGA,140726.00,3327.7859,N,11902.6927,W,1,10,1.0,14.5,M,-34.5,M,,*60
$PYRTM,2024,127.588527590949,18.698175001088
$GPGGA,140727.00,3327.7858,N,11902.6929,W,1,10,1.0,14.4,M,-34.5,M,,*6F
$PYRTM,2024,127.588539177512,18.698186587662
$GPGGA,140728.00,3327.7857,N,11902.6930,W,1,10,1.0,14.4,M,-34.5,M,,*67
$PYRTM,2024,127.588550738102,18.698198148241
$GPGGA,140729.00,3327.7857,N,11902.6931,W,1,10,1.0,14.5,M,-34.5,M,,*66
$PYRTM,2024,127.588562340301,18.698209750451
$GPGGA,140730.00,3327.7856,N,11902.6932,W,1,10,1.0,14.5,M,-34.5,M,,*6C
$PYRTM,2024,127.588573886412,18.698221296551
$GPGGA,140731.00,3327.7856,N,11902.6934,W,1,10,1.0,14.5,M,-34.5,M,,*6B
$PYRTM,2024,127.588585476609,18.698232886748
$GPGGA,140732.00,3327.7855,N,11902.6937,W,1,10,1.0,14.5,M,-34.5,M,,*68
$PYRTM,2024,127.588597035255,18.698244445405
$GPGGA,140733.00,3327.7854,N,11902.6938,W,1,10,1.0,14.5,M,-34.5,M,,*67
$PYRTM,2024,127.588607698495,18.698255108646
$GPGGA,140734.00,3327.7851,N,11902.6939,W,1,10,1.0,14.5,M,-34.5,M,,*64
$PYRTM,2024,127.588619154641,18.698266564780
$GPGGA,140735.00,3327.7849,N,11902.6939,W,1,10,1.0,14.5,M,-34.5,M,,*6C
$PYRTM,2024,127.588631771632,18.698279181782
$GPGGA,140736.00,3327.7848,N,11902.6941,W,1,10,1.0,14.6,M,-34.5,M,,*62
$PYRTM,2024,127.588643331354,18.698290741493
$GPGGA,140737.00,3327.7849,N,11902.6944,W,1,10,1.0,14.6,M,-34.5,M,,*67
$PYRTM,2024,127.588654919850,18.698302329988
$GPGGA,140738.00,3327.7848,N,11902.6946,W,1,10,1.0,14.6,M,-34.5,M,,*6B
$PYRTM,2024,127.588666480301,18.698313890440
$GPGGA,140739.00,3327.7846,N,11902.6946,W,1,10,1.0,14.6,M,-34.5,M,,*64
$PYRTM,2024,127.588678067616,18.698325477755
$GPGGA,140740.00,3327.7843,N,11902.6945,W,1,10,1.0,14.7,M,-34.5,M,,*6D
$PYRTM,2024,127.588689628380,18.698337038519
$GPGGA,140741.00,3327.7842,N,11902.6948,W,1,10,1.0,14.7,M,-34.5,M,,*60
$PYRTM,2024,127.588701215486,18.698348625625
$GPGGA,140742.00,3327.7842,N,11902.6951,W,1,10,1.0,14.7,M,-34.5,M,,*6B
$PYRTM,2024,127.588712777523,18.698360187674
$GPGGA,140743.00,3327.7842,N,11902.6952,W,1,10,1.0,14.7,M,-34.5,M,,*69
$PYRTM,2024,127.588724352500,18.698371762639
$GPGGA,140744.00,3327.7839,N,11902.6952,W,1,10,1.0,14.8,M,-34.5,M,,*6D
$PYRTM,2024,127.588735925405,18.698383335544
$GPGGA,140745.00,3327.7835,N,11902.6953,W,1,10,1.0,14.7,M,-34.5,M,,*6E
$PYRTM,2024,127.588747511632,18.698394921771
$GPGGA,140746.00,3327.7832,N,11902.6955,W,1,10,1.0,14.7,M,-34.5,M,,*6C
$PYRTM,2024,127.588759073877,18.698406484016
$GPGGA,140747.00,3327.7831,N,11902.6958,W,1,10,1.0,14.7,M,-34.5,M,,*63
$PYRTM,2024,127.588770664236,18.698418074387
$GPGGA,140748.00,3327.7831,N,11902.6959,W,1,10,1.0,14.7,M,-34.5,M,,*6D
$PYRTM,2024,127.588782222419,18.698429632558
$GPGGA,140749.00,3327.7831,N,11902.6958,W,1,10,1.0,14.7,M,-34.5,M,,*6D
$PYRTM,2024,127.588793822789,18.698441232928
$GPGGA,140750.00,3327.7829,N,11902.6957,W,1,10,1.0,14.8,M,-34.5,M,,*6C
$PYRTM,2024,127.588805370602,18.698452780741
$GPGGA,140751.00,3327.7828,N,11902.6959,W,1,10,1.0,14.8,M,-34.5,M,,*62
$PYRTM,2024,127.588816956481,18.698464366620
$GPGGA,140752.00,3327.7829,N,11902.6962,W,1,10,1.0,14.9,M,-34.5,M,,*69
$PYRTM,2024,127.588828520914,18.698475931065
$GPGGA,140753.00,3327.7829,N,11902.6964,W,1,10,1.0,14.9,M,-34.5,M,,*6E
$PYRTM,2024,127.588840105139,18.698487515278
$GPGGA,140754.00,3327.7828,N,11902.6965,W,1,10,1.0,14.9,M,-34.5,M,,*69
$PYRTM,2024,127.588851666389,18.698499076528
$GPGGA,140755.00,3327.7825,N,11902.6965,W,1,10,1.0,14.9,M,-34.5,M,,*65
$PYRTM,2024,127.588863253449,18.698510663588
$GPGGA,140756.00,3327.7823,N,11902.6965,W,1,10,1.0,14.9,M,-34.5,M,,*60
$PYRTM,2024,127.588874814699,18.698522224850
$GPGGA,140757.00,3327.7824,N,11902.6965,W,1,10,1.0,14.8,M,-34.5,M,,*67
$PYRTM,2024,127.588886403113,18.698533813252
$GPGGA,140758.00,3327.7824,N,11902.6966,W,1,10,1.0,14.8,M,-34.5,M,,*6B
$PYRTM,2024,127.588897963137,18.698545373287
$GPGGA,140759.00,3327.7822,N,11902.6967,W,1,10,1.0,14.9,M,-34.5,M,,*6C
$PYRTM,2024,127.588909550370,18.698556960509
$GPGGA,140800.00,3327.7818,N,11902.6968,W,1,10,1.0,14.9,M,-34.5,M,,*69
$PYRTM,2024,127.588921111157,18.698568521308
$GPGGA,140801.00,3327.7814,N,11902.6968,W,1,10,1.0,14.9,M,-34.5,M,,*64
$PYRTM,2024,127.588932699375,18.698580109514
$GPGGA,140802.00,3327.7814,N,11902.6969,W,1,10,1.0,14.9,M,-34.5,M,,*66
$PYRTM,2024,127.588944259988,18.698591670127
$GPGGA,140803.00,3327.7814,N,11902.6972,W,1,10,1.0,14.9,M,-34.5,M,,*6D
$PYRTM,2024,127.588954444988,18.698601855139
$GPGGA,140804.00,3327.7813,N,11902.6974,W,1,10,1.0,14.9,M,-34.5,M,,*6B
$PYRTM,2024,127.588966378866,18.698613789005
$GPGGA,140805.00,3327.7812,N,11902.6974,W,1,10,1.0,15.0,M,-34.5,M,,*63
$PYRTM,2024,127.588978998414,18.698626408553
$GPGGA,140806.00,3327.7810,N,11902.6973,W,1,10,1.0,15.0,M,-34.5,M,,*65
$PYRTM,2024,127.588990558472,18.698637968611
$GPGGA,140807.00,3327.7809,N,11902.6974,W,1,10,1.0,15.0,M,-34.5,M,,*6B
$PYRTM,2024,127.589002143634,18.698649553773
$GPGGA,140808.00,3327.7809,N,11902.6977,W,1,10,1.0,15.0,M,-34.5,M,,*67
$PYRTM,2024,127.589013704387,18.698661114525
$GPGGA,140809.00,3327.7809,N,11902.6980,W,1,10,1.0,15.0,M,-34.5,M,,*6E
$PYRTM,2024,127.589025292824,18.698672702975
$GPGGA,140810.00,3327.7808,N,11902.6981,W,1,10,1.0,15.0,M,-34.5,M,,*66
$PYRTM,2024,127.589036853553,18.698684263692
$GPGGA,140811.00,3327.7805,N,11902.6980,W,1,10,1.0,15.0,M,-34.5,M,,*6B
$PYRTM,2024,127.589048440289,18.698695850428
$GPGGA,140812.00,3327.7803,N,11902.6980,W,1,10,1.0,15.0,M,-34.5,M,,*6E
$PYRTM,2024,127.589060001030,18.698707411169
$GPGGA,140813.00,3327.7802,N,11902.6981,W,1,10,1.0,15.0,M,-34.5,M,,*6F
$PYRTM,2024,127.589071588322,18.698718998461
$GPGGA,140814.00,3327.7801,N,11902.6983,W,1,10,1.0,15.0,M,-34.5,M,,*69
$PYRTM,2024,127.589083150058,18.698730560197
$GPGGA,140815.00,3327.7800,N,11902.6985,W,1,10,1.0,15.0,M,-34.5,M,,*6F
$PYRTM,2024,127.589094737234,18.698742147373
$GPGGA,140816.00,3327.7799,N,11902.6984,W,1,10,1.0,15.0,M,-34.5,M,,*62
$PYRTM,2024,127.589106300023,18.698753710174
$GPGGA,140817.00,3327.7796,N,11902.6983,W,1,10,1.0,14.9,M,-34.5,M,,*63
$PYRTM,2024,127.589117886285,18.698765296435
$GPGGA,140818.00,3327.7795,N,11902.6984,W,1,10,1.0,15.0,M,-34.5,M,,*60
$PYRTM,2024,127.589129446424,18.698776856574
$GPGGA,140819.00,3327.7794,N,11902.6986,W,1,10,1.0,15.0,M,-34.5,M,,*62
$PYRTM,2024,127.589141048484,18.698788458623
$GPGGA,140820.00,3327.7793,N,11902.6988,W,1,10,1.0,15.0,M,-34.5,M,,*61
$PYRTM,2024,127.589152594433,18.698800004572
$GPGGA,140821.00,3327.7792,N,11902.6990,W,1,10,1.0,15.1,M,-34.5,M,,*69
$PYRTM,2024,127.589164183646,18.698811593785
$GPGGA,140822.00,3327.7790,N,11902.6990,W,1,10,1.0,15.0,M,-34.5,M,,*69
$PYRTM,2024,127.589175742384,18.698823152523
$GPGGA,140823.00,3327.7788,N,11902.6991,W,1,10,1.0,15.0,M,-34.5,M,,*60
$PYRTM,2024,127.589187330463,18.698834740602
$GPGGA,140824.00,3327.7786,N,11902.6993,W,1,10,1.0,15.1,M,-34.5,M,,*6A
$PYRTM,2024,127.589198890741,18.698846300880
$GPGGA,140825.00,3327.7786,N,11902.6995,W,1,10,1.0,15.1,M,-34.5,M,,*6D
$PYRTM,2024,127.589210477639,18.698857887778
$GPGGA,140826.00,3327.7786,N,11902.6996,W,1,10,1.0,15.2,M,-34.5,M,,*6E
$PYRTM,2024,127.589222041296,18.698869451435
$GPGGA,140827.00,3327.7785,N,11902.6995,W,1,10,1.0,15.1,M,-34.5,M,,*6C
$PYRTM,2024,127.589233627986,18.698881038125
$GPGGA,140828.00,3327.7784,N,11902.6994,W,1,10,1.0,15.1,M,-34.5,M,,*63
$PYRTM,2024,127.589245188322,18.698892598472
$GPGGA,140829.00,3327.7784,N,11902.6995,W,1,10,1.0,15.2,M,-34.5,M,,*60
$PYRTM,2024,127.589256771296,18.698904181435
$GPGGA,140830.00,3327.7785,N,11902.6999,W,1,10,1.0,15.1,M,-34.5,M,,*66
$PYRTM,2024,127.589268336366,18.698915746505
$GPGGA,140831.00,3327.7787,N,11902.7003,W,1,10,1.0,15.1,M,-34.5,M,,*6E
$PYRTM,2024,127.589279918634,18.698927328773
$GPGGA,140832.00,3327.7787,N,11902.7012,W,1,10,1.0,15.3,M,-34.5,M,,*6F
$PYRTM,2024,127.589291485718,18.698938895856
$GPGGA,140833.00,3327.7785,N,11902.7010,W,1,10,1.0,15.3,M,-34.5,M,,*6E
$PYRTM,2024,127.589301670486,18.698949080625
$GPGGA,140834.00,3327.7781,N,11902.7010,W,1,10,1.0,15.4,M,-34.5,M,,*6A
$PYRTM,2024,127.589313603831,18.698961013970
$GPGGA,140835.00,3327.7780,N,11902.7013,W,1,10,1.0,15.4,M,-34.5,M,,*69
