$PYRTM,2024,121.916670948912,13.026318359051
$GPGGA,215959.00,3300.2115,N,11804.8230,W,1,11,0.8,12.1,M,-34.6,M,,*69
$PYRTM,2024,121.916685416042,13.026332826181
$GPGGA,220000.00,3300.2126,N,11804.8252,W,1,11,0.8,11.8,M,-34.6,M,,*64
$PYRTM,2024,121.916696644699,13.026344054838
$GPGGA,220001.00,3300.2137,N,11804.8275,W,1,11,0.8,13.1,M,-34.6,M,,*6B
$PYRTM,2024,121.916712023576,13.026359433715
$GPGGA,220002.00,3300.2147,N,11804.8299,W,1,11,0.8,13.1,M,-34.6,M,,*6D
$PYRTM,2024,121.916723253403,13.026370663542
$GPGGA,220003.00,3300.2158,N,11804.8323,W,1,11,0.8,13.3,M,-34.6,M,,*60
$PYRTM,2024,121.916734375266,13.026381785417
$GPGGA,220004.00,3300.2168,N,11804.8346,W,1,11,0.8,13.0,M,-34.6,M,,*64
$PYRTM,2024,121.916745485012,13.026392895150
$GPGGA,220005.00,3300.2178,N,11804.8367,W,1,11,0.8,14.1,M,-34.6,M,,*61
$PYRTM,2024,121.916756610984,13.026404021123
$GPGGA,220006.00,3300.2190,N,11804.8389,W,1,11,0.8,15.7,M,-34.6,M,,*63
$PYRTM,2024,121.916767823241,13.026415233380
$GPGGA,220007.00,3300.2200,N,11804.8413,W,1,11,0.8,14.8,M,-34.6,M,,*62
$PYRTM,2024,121.916778930868,13.026426341007
$GPGGA,220008.00,3300.2209,N,11804.8437,W,1,11,0.8,12.1,M,-34.6,M,,*6D
$PYRTM,2024,121.916790293333,13.026437703472
$GPGGA,220009.00,3300.2218,N,11804.8459,W,1,11,0.8,11.5,M,-34.6,M,,*63
$PYRTM,2024,121.916801837037,13.026449247176
$GPGGA,220010.00,3300.2226,N,11804.8479,W,1,11,0.8,14.1,M,-34.6,M,,*65
$PYRTM,2024,121.916813428310,13.026460838449
$GPGGA,220011.00,3300.2237,N,11804.8503,W,1,11,0.8,13.8,M,-34.6,M,,*66
$PYRTM,2024,121.916824985891,13.026472396030
$GPGGA,220012.00,3300.2247,N,11804.8528,W,1,11,0.8,12.4,M,-34.6,M,,*66
$PYRTM,2024,121.916836575880,13.026483986019
$GPGGA,220013.00,3300.2256,N,11804.8551,W,1,11,0.8,12.2,M,-34.6,M,,*6F
$PYRTM,2024,121.916848135312,13.026495545451
$GPGGA,220014.00,3300.2264,N,11804.8574,W,1,11,0.8,11.6,M,-34.6,M,,*69
$PYRTM,2024,121.916859723229,13.026507133368
$GPGGA,220015.00,3300.2272,N,11804.8597,W,1,11,0.8,10.9,M,-34.6,M,,*6C
$PYRTM,2024,121.916871282697,13.026518692836
$GPGGA,220016.00,3300.2282,N,11804.8620,W,1,11,0.8,13.1,M,-34.6,M,,*64
$PYRTM,2024,121.916882872292,13.026530282431
$GPGGA,220017.00,3300.2294,N,11804.8642,W,1,11,0.8,12.1,M,-34.6,M,,*67
$PYRTM,2024,121.916894432442,13.026541842581
$GPGGA,220018.00,3300.2304,N,11804.8665,W,1,11,0.8,12.1,M,-34.6,M,,*65
$PYRTM,2024,121.916906019016,13.026553429155
$GPGGA,220019.00,3300.2314,N,11804.8686,W,1,11,0.8,11.8,M,-34.6,M,,*62
$PYRTM,2024,121.916917581979,13.026564992118
$GPGGA,220020.00,3300.2323,N,11804.8709,W,1,11,0.8,11.9,M,-34.6,M,,*6B
$PYRTM,2024,121.916929162419,13.026576572558
$GPGGA,220021.00,3300.2333,N,11804.8732,W,1,11,0.8,12.5,M,-34.6,M,,*6C
$PYRTM,2024,121.916940729340,13.026588139479
$GPGGA,220022.00,3300.2344,N,11804.8757,W,1,11,0.8,11.7,M,-34.6,M,,*6D
$PYRTM,2024,121.916952316563,13.026599726701
$GPGGA,220023.00,3300.2353,N,11804.8779,W,1,11,0.8,11.6,M,-34.6,M,,*67
$PYRTM,2024,121.916963878472,13.026611288611
$GPGGA,220024.00,3300.2363,N,11804.8799,W,1,11,0.8,11.7,M,-34.6,M,,*6C
$PYRTM,2024,121.916975468646,13.026622878785
$GPGGA,220025.00,3300.2372,N,11804.8820,W,1,11,0.8,14.5,M,-34.6,M,,*67
$PYRTM,2024,121.916987026586,13.026634436736
$GPGGA,220026.00,3300.2383,N,11804.8844,W,1,11,0.8,13.3,M,-34.6,M,,*69
$PYRTM,2024,121.916998615394,13.026646025532
$GPGGA,220027.00,3300.2392,N,11804.8867,W,1,11,0.8,10.8,M,-34.6,M,,*61
$PYRTM,2024,121.917010174375,13.026657584514
$GPGGA,220028.00,3300.2400,N,11804.8889,W,1,11,0.8,10.4,M,-34.6,M,,*6E
$PYRTM,2024,121.917021761505,13.026669171644
$GPGGA,220029.00,3300.2410,N,11804.8910,W,1,11,0.8,9.4,M,-34.6,M,,*57
$PYRTM,2024,121.917033323044,13.026680733183
$GPGGA,220030.00,3300.2420,N,11804.8932,W,1,11,0.8,12.1,M,-34.6,M,,*63
$PYRTM,2024,121.917045953553,13.026693363692
$GPGGA,220031.00,3300.2430,N,11804.8956,W,1,11,0.8,13.4,M,-34.6,M,,*65
$PYRTM,2024,121.917057994120,13.026705404259
$GPGGA,220032.00,3300.2439,N,11804.8980,W,1,11,0.8,12.4,M,-34.6,M,,*65
$PYRTM,2024,121.917069317269,13.026716727407
$GPGGA,220033.00,3300.2448,N,11804.9004,W,1,11,0.8,12.6,M,-34.6,M,,*64
$PYRTM,2024,121.917080659838,13.026728069977
$GPGGA,220034.00,3300.2456,N,11804.9026,W,1,11,0.8,12.0,M,-34.6,M,,*6A
$PYRTM,2024,121.917092247558,13.026739657708
$GPGGA,220035.00,3300.2465,N,11804.9047,W,1,11,0.8,12.4,M,-34.6,M,,*68
$PYRTM,2024,121.917103807442,13.026751217593
$GPGGA,220036.00,3300.2477,N,11804.9068,W,1,11,0.8,12.2,M,-34.6,M,,*63
$PYRTM,2024,121.917115394641,13.026762804780
$GPGGA,220037.00,3300.2488,N,11804.9090,W,1,11,0.8,14.0,M,-34.6,M,,*61
$PYRTM,2024,121.917126955845,13.026774365984
$GPGGA,220038.00,3300.2497,N,11804.9112,W,1,11,0.8,12.3,M,-34.6,M,,*6E
$PYRTM,2024,121.917138538773,13.026785948912
$GPGGA,220039.00,3300.2505,N,11804.9134,W,1,11,0.8,11.6,M,-34.6,M,,*67
$PYRTM,2024,121.917150103310,13.026797513449
$GPGGA,220040.00,3300.2515,N,11804.9157,W,1,11,0.8,11.7,M,-34.6,M,,*6C
$PYRTM,2024,121.917161692778,13.026809102917
$GPGGA,220041.00,3300.2525,N,11804.9179,W,1,11,0.8,9.4,M,-34.6,M,,*58
$PYRTM,2024,121.917173253229,13.026820663368
$GPGGA,220042.00,3300.2535,N,11804.9202,W,1,11,0.8,7.9,M,-34.6,M,,*56
$PYRTM,2024,121.917184841991,13.026832252130
$GPGGA,220043.00,3300.2545,N,11804.9224,W,1,11,0.8,7.5,M,-34.6,M,,*58
$PYRTM,2024,121.917196399861,13.026843810000
$GPGGA,220044.00,3300.2554,N,11804.9245,W,1,11,0.8,12.1,M,-34.6,M,,*68
$PYRTM,2024,121.917207989699,13.026855399838
$GPGGA,220045.00,3300.2562,N,11804.9267,W,1,11,0.8,14.4,M,-34.6,M,,*6F
$PYRTM,2024,121.917219550104,13.026866960243
$GPGGA,220046.00,3300.2572,N,11804.9290,W,1,11,0.8,13.3,M,-34.6,M,,*65
$PYRTM,2024,121.917231139838,13.026878549988
$GPGGA,220047.00,3300.2582,N,11804.9312,W,1,11,0.8,9.6,M,-34.6,M,,*5E
$PYRTM,2024,121.917242698692,13.026890108831
$GPGGA,220048.00,3300.2590,N,11804.9332,W,1,11,0.8,11.2,M,-34.6,M,,*6D
$PYRTM,2024,121.917254286435,13.026901696586
$GPGGA,220049.00,3300.2600,N,11804.9353,W,1,11,0.8,12.8,M,-34.6,M,,*68
$PYRTM,2024,121.917265846366,13.026913256505
$GPGGA,220050.00,3300.2610,N,11804.9375,W,1,11,0.8,13.9,M,-34.6,M,,*65
$PYRTM,2024,121.917277883137,13.026925293275
$GPGGA,220051.00,3300.2621,N,11804.9399,W,1,11,0.8,12.4,M,-34.6,M,,*68
$PYRTM,2024,121.917289343461,13.026936753623
$GPGGA,220052.00,3300.2631,N,11804.9422,W,1,11,0.8,10.9,M,-34.6,M,,*62
$PYRTM,2024,121.917300576539,13.026947986678
$GPGGA,220053.00,3300.2641,N,11804.9446,W,1,11,0.8,10.8,M,-34.6,M,,*67
$PYRTM,2024,121.917312143079,13.026959553391
$GPGGA,220054.00,3300.2650,N,11804.9469,W,1,11,0.8,10.3,M,-34.6,M,,*66
$PYRTM,2024,121.917323730185,13.026971140324
$GPGGA,220055.00,3300.2660,N,11804.9491,W,1,11,0.8,12.4,M,-34.6,M,,*66
$PYRTM,2024,121.917335290475,13.026982700613
$GPGGA,220056.00,3300.2670,N,11804.9513,W,1,11,0.8,13.4,M,-34.6,M,,*6E
$PYRTM,2024,121.917346878229,13.026994288368
$GPGGA,220057.00,3300.2679,N,11804.9537,W,1,11,0.8,13.0,M,-34.6,M,,*64
$PYRTM,2024,121.917358440833,13.027005850972
$GPGGA,220058.00,3300.2687,N,11804.9559,W,1,11,0.8,13.7,M,-34.6,M,,*65
$PYRTM,2024,121.917370028148,13.027017438287
$GPGGA,220059.00,3300.2696,N,11804.9580,W,1,11,0.8,10.7,M,-34.6,M,,*63
$PYRTM,2024,121.917381586817,13.027028996956
$GPGGA,220100.00,3300.2708,N,11804.9601,W,1,11,0.8,14.0,M,-34.6,M,,*61
$PYRTM,2024,121.917394319792,13.027041729931
$GPGGA,220101.00,3300.2720,N,11804.9623,W,1,11,0.8,12.5,M,-34.6,M,,*69
$PYRTM,2024,121.917407397812,13.027054807951
$GPGGA,220102.00,3300.2730,N,11804.9646,W,1,11,0.8,12.4,M,-34.6,M,,*69
$PYRTM,2024,121.917416771898,13.027064182037
$GPGGA,220103.00,3300.2740,N,11804.9669,W,1,11,0.8,14.8,M,-34.6,M,,*68
$PYRTM,2024,121.917427885382,13.027075295521
$GPGGA,220104.00,3300.2749,N,11804.9692,W,1,11,0.8,12.6,M,-34.6,M,,*6A
$PYRTM,2024,121.917439470116,13.027086880255
$GPGGA,220105.00,3300.2760,N,11804.9714,W,1,11,0.8,11.4,M,-34.6,M,,*6E
$PYRTM,2024,121.917451031019,13.027098441157
$GPGGA,220106.00,3300.2770,N,11804.9735,W,1,11,0.8,12.5,M,-34.6,M,,*6D
$PYRTM,2024,121.917462619826,13.027110029965
$GPGGA,220107.00,3300.2779,N,11804.9758,W,1,11,0.8,13.0,M,-34.6,M,,*6A
$PYRTM,2024,121.917474179618,13.027121589757
$GPGGA,220108.00,3300.2788,N,11804.9783,W,1,11,0.8,10.6,M,-34.6,M,,*68
$PYRTM,2024,121.917485773519,13.027133183657
$GPGGA,220109.00,3300.2796,N,11804.9808,W,1,11,0.8,10.2,M,-34.6,M,,*6E
$PYRTM,2024,121.917497327975,13.027144738113
$GPGGA,220110.00,3300.2807,N,11804.9829,W,1,11,0.8,12.0,M,-34.6,M,,*62
$PYRTM,2024,121.917508912373,13.027156322512
$GPGGA,220111.00,3300.2818,N,11804.9851,W,1,11,0.8,14.3,M,-34.6,M,,*67
$PYRTM,2024,121.917520477072,13.027167887211
$GPGGA,220112.00,3300.2827,N,11804.9874,W,1,11,0.8,15.5,M,-34.6,M,,*68
$PYRTM,2024,121.917532065706,13.027179475845
$GPGGA,220113.00,3300.2836,N,11804.9898,W,1,11,0.8,11.8,M,-34.6,M,,*62
$PYRTM,2024,121.917543625590,13.027191035729
$GPGGA,220114.00,3300.2844,N,11804.9920,W,1,11,0.8,11.8,M,-34.6,M,,*62
$PYRTM,2024,121.917555213368,13.027202623507
$GPGGA,220115.00,3300.2854,N,11804.9942,W,1,11,0.8,9.7,M,-34.6,M,,*50
$PYRTM,2024,121.917566774549,13.027214184687
$GPGGA,220116.00,3300.2865,N,11804.9964,W,1,11,0.8,7.7,M,-34.6,M,,*5B
$PYRTM,2024,121.917578360590,13.027225770729
$GPGGA,220117.00,3300.2877,N,11804.9987,W,1,11,0.8,9.9,M,-34.6,M,,*54
$PYRTM,2024,121.917589920486,13.027237330625
$GPGGA,220118.00,3300.2888,N,11805.0010,W,1,11,0.8,11.6,M,-34.6,M,,*62
$PYRTM,2024,121.917601509572,13.027248919711
$GPGGA,220119.00,3300.2897,N,11805.0033,W,1,11,0.8,11.7,M,-34.6,M,,*6D
$PYRTM,2024,121.917613069884,13.027260480023
$GPGGA,220120.00,3300.2906,N,11805.0057,W,1,11,0.8,9.9,M,-34.6,M,,*5B
$PYRTM,2024,121.917624657569,13.027272067708
$GPGGA,220121.00,3300.2917,N,11805.0079,W,1,11,0.8,10.5,M,-34.6,M,,*62
$PYRTM,2024,121.917636217350,13.027283627488
$GPGGA,220122.00,3300.2928,N,11805.0099,W,1,11,0.8,10.1,M,-34.6,M,,*67
$PYRTM,2024,121.917647805521,13.027295215660
$GPGGA,220123.00,3300.2938,N,11805.0122,W,1,11,0.8,10.4,M,-34.6,M,,*63
$PYRTM,2024,121.917659366829,13.027306776968
$GPGGA,220124.00,3300.2947,N,11805.0146,W,1,11,0.8,7.2,M,-34.6,M,,*5E
$PYRTM,2024,121.917670953333,13.027318363472
$GPGGA,220125.00,3300.2956,N,11805.0170,W,1,11,0.8,8.6,M,-34.6,M,,*51
$PYRTM,2024,121.917682516285,13.027329926424
$GPGGA,220126.00,3300.2967,N,11805.0191,W,1,11,0.8,11.7,M,-34.6,M,,*66
$PYRTM,2024,121.917694097465,13.027341507604
$GPGGA,220127.00,3300.2978,N,11805.0215,W,1,11,0.8,12.5,M,-34.6,M,,*67
$PYRTM,2024,121.917705664456,13.027353074595
$GPGGA,220128.00,3300.2988,N,11805.0239,W,1,11,0.8,11.3,M,-34.6,M,,*6C
$PYRTM,2024,121.917717252650,13.027364662789
$GPGGA,220129.00,3300.2996,N,11805.0262,W,1,11,0.8,11.0,M,-34.6,M,,*6F
$PYRTM,2024,121.917728811053,13.027376221192
$GPGGA,220130.00,3300.3003,N,11805.0284,W,1,11,0.8,13.6,M,-34.6,M,,*6F
$PYRTM,2024,121.917741546377,13.027388956516
$GPGGA,220131.00,3300.3011,N,11805.0307,W,1,11,0.8,9.3,M,-34.6,M,,*59
$PYRTM,2024,121.917754622720,13.027402032870
$GPGGA,220132.00,3300.3022,N,11805.0329,W,1,11,0.8,12.2,M,-34.6,M,,*6D
$PYRTM,2024,121.917764126713,13.027411536852
$GPGGA,220133.00,3300.3032,N,11805.0350,W,1,11,0.8,12.4,M,-34.6,M,,*65
$PYRTM,2024,121.917775701713,13.027423111852
$GPGGA,220134.00,3300.3043,N,11805.0373,W,1,11,0.8,12.0,M,-34.6,M,,*61
$PYRTM,2024,121.917787274282,13.027434684421
$GPGGA,220135.00,3300.3052,N,11805.0395,W,1,11,0.8,10.5,M,-34.6,M,,*6F
$PYRTM,2024,121.917798848206,13.027446258345
$GPGGA,220136.00,3300.3061,N,11805.0416,W,1,11,0.8,11.3,M,-34.6,M,,*67
$PYRTM,2024,121.917810438252,13.027457848391
$GPGGA,220137.00,3300.3072,N,11805.0438,W,1,11,0.8,13.4,M,-34.6,M,,*6D
$PYRTM,2024,121.917821997928,13.027469408067
$GPGGA,220138.00,3300.3083,N,11805.0462,W,1,11,0.8,11.3,M,-34.6,M,,*66
$PYRTM,2024,121.917833574225,13.027480984363
$GPGGA,220139.00,3300.3093,N,11805.0485,W,1,11,0.8,10.5,M,-34.6,M,,*68
$PYRTM,2024,121.917845145718,13.027492555856
$GPGGA,220140.00,3300.3102,N,11805.0506,W,1,11,0.8,10.3,M,-34.6,M,,*63
$PYRTM,2024,121.917857171076,13.027504581215
$GPGGA,220141.00,3300.3113,N,11805.0527,W,1,11,0.8,12.3,M,-34.6,M,,*63
$PYRTM,2024,121.917868290174,13.027515700313
$GPGGA,220142.00,3300.3124,N,11805.0548,W,1,11,0.8,12.5,M,-34.6,M,,*6B
$PYRTM,2024,121.917879869711,13.027527279861
$GPGGA,220143.00,3300.3135,N,11805.0571,W,1,11,0.8,12.6,M,-34.6,M,,*63
$PYRTM,2024,121.917893984387,13.027541394525
$GPGGA,220144.00,3300.3144,N,11805.0592,W,1,11,0.8,11.6,M,-34.6,M,,*6C
$PYRTM,2024,121.917907067176,13.027554477315
$GPGGA,220145.00,3300.3153,N,11805.0614,W,1,11,0.8,12.1,M,-34.6,M,,*62
$PYRTM,2024,121.917917831956,13.027565242095
$GPGGA,220146.00,3300.3162,N,11805.0636,W,1,11,0.8,13.2,M,-34.6,M,,*61
$PYRTM,2024,121.917928942650,13.027576352789
$GPGGA,220147.00,3300.3172,N,11805.0657,W,1,11,0.8,11.5,M,-34.6,M,,*63
$PYRTM,2024,121.917940056597,13.027587466736
$GPGGA,220148.00,3300.3183,N,11805.0679,W,1,11,0.8,12.2,M,-34.6,M,,*6A
$PYRTM,2024,121.917951267454,13.027598677593
$GPGGA,220149.00,3300.3194,N,11805.0702,W,1,11,0.8,12.7,M,-34.6,M,,*65
$PYRTM,2024,121.917962380046,13.027609790185
$GPGGA,220150.00,3300.3204,N,11805.0726,W,1,11,0.8,10.5,M,-34.6,M,,*61
$PYRTM,2024,121.917973503692,13.027620913831
$GPGGA,220151.00,3300.3212,N,11805.0748,W,1,11,0.8,12.6,M,-34.6,M,,*6E
$PYRTM,2024,121.917984603437,13.027632013588
$GPGGA,220152.00,3300.3222,N,11805.0768,W,1,11,0.8,12.6,M,-34.6,M,,*6C
$PYRTM,2024,121.917995843507,13.027643253646
$GPGGA,220153.00,3300.3233,N,11805.0791,W,1,11,0.8,10.7,M,-34.6,M,,*68
$PYRTM,2024,121.918006940023,13.027654350162
$GPGGA,220154.00,3300.3243,N,11805.0815,W,1,11,0.8,10.3,M,-34.6,M,,*6F
$PYRTM,2024,121.918018066042,13.027665476181
$GPGGA,220155.00,3300.3252,N,11805.0838,W,1,11,0.8,9.1,M,-34.6,M,,*5B
$PYRTM,2024,121.918029175081,13.027676585220
$GPGGA,220156.00,3300.3261,N,11805.0859,W,1,11,0.8,11.1,M,-34.6,M,,*66
$PYRTM,2024,121.918040400984,13.027687811123
$GPGGA,220157.00,3300.3270,N,11805.0879,W,1,11,0.8,14.3,M,-34.6,M,,*62
$PYRTM,2024,121.918051512303,13.027698922442
$GPGGA,220158.00,3300.3281,N,11805.0901,W,1,11,0.8,12.2,M,-34.6,M,,*6A
$PYRTM,2024,121.918062626076,13.027710036215
$GPGGA,220159.00,3300.3291,N,11805.0925,W,1,11,0.8,12.6,M,-34.6,M,,*68
$PYRTM,2024,121.918073729826,13.027721139965
$GPGGA,220200.00,3300.3301,N,11805.0948,W,1,11,0.8,10.0,M,-34.6,M,,*60
$PYRTM,2024,121.918084961169,13.027732371308
$GPGGA,220201.00,3300.3310,N,11805.0970,W,1,11,0.8,10.1,M,-34.6,M,,*6B
$PYRTM,2024,121.918099995718,13.027747405856
$GPGGA,220202.00,3300.3320,N,11805.0990,W,1,11,0.8,10.8,M,-34.6,M,,*6C
$PYRTM,2024,121.918111107072,13.027758517211
$GPGGA,220203.00,3300.3330,N,11805.1012,W,1,11,0.8,12.8,M,-34.6,M,,*6C
$PYRTM,2024,121.918122217951,13.027769628090
$GPGGA,220204.00,3300.3339,N,11805.1036,W,1,11,0.8,11.6,M,-34.6,M,,*69
$PYRTM,2024,121.918133329306,13.027780739444
$GPGGA,220205.00,3300.3349,N,11805.1059,W,1,11,0.8,12.6,M,-34.6,M,,*65
$PYRTM,2024,121.918144555660,13.027791965810
$GPGGA,220206.00,3300.3360,N,11805.1081,W,1,11,0.8,14.0,M,-34.6,M,,*68
$PYRTM,2024,121.918156041181,13.027803451319
$GPGGA,220207.00,3300.3371,N,11805.1104,W,1,11,0.8,12.1,M,-34.6,M,,*62
$PYRTM,2024,121.918167587836,13.027814997975
$GPGGA,220208.00,3300.3383,N,11805.1128,W,1,11,0.8,11.2,M,-34.6,M,,*6E
$PYRTM,2024,121.918179178009,13.027826588148
$GPGGA,220209.00,3300.3393,N,11805.1151,W,1,11,0.8,10.4,M,-34.6,M,,*67
$PYRTM,2024,121.918190736667,13.027838146806
$GPGGA,220210.00,3300.3402,N,11805.1174,W,1,11,0.8,12.2,M,-34.6,M,,*63
$PYRTM,2024,121.918202323727,13.027849733866
$GPGGA,220211.00,3300.3412,N,11805.1197,W,1,11,0.8,12.2,M,-34.6,M,,*6E
$PYRTM,2024,121.918213884549,13.027861294687
$GPGGA,220212.00,3300.3422,N,11805.1219,W,1,11,0.8,11.9,M,-34.6,M,,*63
$PYRTM,2024,121.918225474039,13.027872884178
$GPGGA,220213.00,3300.3431,N,11805.1240,W,1,11,0.8,12.9,M,-34.6,M,,*6F
$PYRTM,2024,121.918237033866,13.027884444005
$GPGGA,220214.00,3300.3440,N,11805.1262,W,1,11,0.8,10.0,M,-34.6,M,,*65
$PYRTM,2024,121.918248505208,13.027895915347
$GPGGA,220215.00,3300.3450,N,11805.1284,W,1,11,0.8,9.9,M,-34.6,M,,*5C
$PYRTM,2024,121.918260066088,13.027907476227
$GPGGA,220216.00,3300.3460,N,11805.1305,W,1,11,0.8,9.7,M,-34.6,M,,*5A
$PYRTM,2024,121.918271653102,13.027919063252
$GPGGA,220217.00,3300.3470,N,11805.1327,W,1,11,0.8,8.8,M,-34.6,M,,*54
$PYRTM,2024,121.918283329734,13.027930739873
$GPGGA,220218.00,3300.3481,N,11805.1350,W,1,11,0.8,11.7,M,-34.6,M,,*62
$PYRTM,2024,121.918294920266,13.027942330405
$GPGGA,220219.00,3300.3491,N,11805.1371,W,1,11,0.8,12.5,M,-34.6,M,,*60
$PYRTM,2024,121.918306476829,13.027953886968
$GPGGA,220220.00,3300.3502,N,11805.1392,W,1,11,0.8,13.3,M,-34.6,M,,*6B
$PYRTM,2024,121.918318067917,13.027965478056
$GPGGA,220221.00,3300.3512,N,11805.1416,W,1,11,0.8,12.6,M,-34.6,M,,*64
$PYRTM,2024,121.918329626910,13.027977037049
$GPGGA,220222.00,3300.3521,N,11805.1439,W,1,11,0.8,10.7,M,-34.6,M,,*69
$PYRTM,2024,121.918341216354,13.027988626493
$GPGGA,220223.00,3300.3530,N,11805.1462,W,1,11,0.8,10.5,M,-34.6,M,,*64
$PYRTM,2024,121.918352659062,13.028000069201
$GPGGA,220224.00,3300.3540,N,11805.1483,W,1,11,0.8,9.4,M,-34.6,M,,*52
$PYRTM,2024,121.918364248646,13.028011658796
$GPGGA,220225.00,3300.3549,N,11805.1506,W,1,11,0.8,9.9,M,-34.6,M,,*5B
$PYRTM,2024,121.918375921435,13.028023331574
$GPGGA,220226.00,3300.3559,N,11805.1530,W,1,11,0.8,11.0,M,-34.6,M,,*6C
$PYRTM,2024,121.918387505856,13.028034916007
$GPGGA,220227.00,3300.3568,N,11805.1552,W,1,11,0.8,10.1,M,-34.6,M,,*6B
$PYRTM,2024,121.918399070995,13.028046481134
$GPGGA,220228.00,3300.3577,N,11805.1572,W,1,11,0.8,10.6,M,-34.6,M,,*6F
$PYRTM,2024,121.918410653032,13.028058063171
$GPGGA,220229.00,3300.3587,N,11805.1592,W,1,11,0.8,10.7,M,-34.6,M,,*6E
$PYRTM,2024,121.918422105486,13.028069515625
$GPGGA,220230.00,3300.3596,N,11805.1615,W,1,11,0.8,9.7,M,-34.6,M,,*52
$PYRTM,2024,121.918435298299,13.028082708438
$GPGGA,220231.00,3300.3605,N,11805.1637,W,1,11,0.8,8.2,M,-34.6,M,,*5E
$PYRTM,2024,121.918446880208,13.028094290347
$GPGGA,220232.00,3300.3614,N,11805.1660,W,1,11,0.8,7.5,M,-34.6,M,,*57
$PYRTM,2024,121.918457996551,13.028105406701
$GPGGA,220233.00,3300.3625,N,11805.1684,W,1,11,0.8,9.4,M,-34.6,M,,*51
$PYRTM,2024,121.918469556273,13.028116966412
$GPGGA,220234.00,3300.3635,N,11805.1707,W,1,10,0.8,9.6,M,-34.6,M,,*5E
$PYRTM,2024,121.918481139676,13.028128549826
$GPGGA,220235.00,3300.3645,N,11805.1730,W,1,10,0.8,9.2,M,-34.6,M,,*58
$PYRTM,2024,121.918492704190,13.028140114329
$GPGGA,220236.00,3300.3655,N,11805.1754,W,1,10,0.8,10.3,M,-34.6,M,,*61
$PYRTM,2024,121.918504294664,13.028151704815
$GPGGA,220237.00,3300.3663,N,11805.1777,W,1,10,0.8,10.0,M,-34.6,M,,*67
$PYRTM,2024,121.918515853032,13.028163263171
$GPGGA,220238.00,3300.3671,N,11805.1798,W,1,10,0.8,13.3,M,-34.6,M,,*6A
$PYRTM,2024,121.918527437535,13.028174847674
$GPGGA,220239.00,3300.3678,N,11805.1820,W,1,10,0.8,13.6,M,-34.6,M,,*6B
$PYRTM,2024,121.918539000417,13.028186410556
$GPGGA,220240.00,3300.3687,N,11805.1843,W,1,10,0.8,14.0,M,-34.6,M,,*61
$PYRTM,2024,121.918550588426,13.028197998565
$GPGGA,220241.00,3300.3696,N,11805.1868,W,1,10,0.8,14.3,M,-34.6,M,,*6A
$PYRTM,2024,121.918562149977,13.028209560116
$GPGGA,220242.00,3300.3705,N,11805.1891,W,1,10,0.8,12.5,M,-34.6,M,,*64
$PYRTM,2024,121.918573737766,13.028221147905
$GPGGA,220243.00,3300.3716,N,11805.1914,W,1,10,0.8,13.9,M,-34.6,M,,*66
$PYRTM,2024,121.918585298831,13.028232708970
$GPGGA,220244.00,3300.3728,N,11805.1938,W,1,10,0.8,16.7,M,-34.6,M,,*69
$PYRTM,2024,121.918596885220,13.028244295359
$GPGGA,220245.00,3300.3738,N,11805.1962,W,1,10,0.8,16.9,M,-34.6,M,,*68
$PYRTM,2024,121.918608446852,13.028255856991
$GPGGA,220246.00,3300.3748,N,11805.1984,W,1,10,0.8,18.6,M,-34.6,M,,*65
$PYRTM,2024,121.918620035856,13.028267446007
$GPGGA,220247.00,3300.3757,N,11805.2006,W,1,10,0.8,15.8,M,-34.6,M,,*69
$PYRTM,2024,121.918631594178,13.028279004317
$GPGGA,220248.00,3300.3768,N,11805.2027,W,1,10,0.8,16.8,M,-34.6,M,,*6A
$PYRTM,2024,121.918643184074,13.028290594213
$GPGGA,220249.00,3300.3777,N,11805.2048,W,1,10,0.8,14.4,M,-34.6,M,,*62
$PYRTM,2024,121.918654742685,13.028302152824
$GPGGA,220250.00,3300.3787,N,11805.2071,W,1,10,0.8,14.9,M,-34.6,M,,*62
$PYRTM,2024,121.918666326030,13.028313736181
$GPGGA,220251.00,3300.3797,N,11805.2095,W,1,10,0.8,13.1,M,-34.6,M,,*67
$PYRTM,2024,121.918677893009,13.028325303148
$GPGGA,220252.00,3300.3806,N,11805.2117,W,1,10,0.8,13.9,M,-34.6,M,,*60
$PYRTM,2024,121.918689480127,13.028336890278
$GPGGA,220253.00,3300.3816,N,11805.2139,W,1,10,0.8,15.9,M,-34.6,M,,*6A
$PYRTM,2024,121.918701040822,13.028348450961
$GPGGA,220254.00,3300.3826,N,11805.2161,W,1,10,0.8,13.6,M,-34.6,M,,*6A
$PYRTM,2024,121.918712627130,13.028360037269
$GPGGA,220255.00,3300.3836,N,11805.2183,W,1,10,0.8,12.3,M,-34.6,M,,*62
$PYRTM,2024,121.918724192002,13.028371602141
$GPGGA,220256.00,3300.3845,N,11805.2205,W,1,10,0.8,11.2,M,-34.6,M,,*6A
$PYRTM,2024,121.918735775440,13.028383185579
$GPGGA,220257.00,3300.3855,N,11805.2229,W,1,10,0.8,10.2,M,-34.6,M,,*65
$PYRTM,2024,121.918747337546,13.028394747685
$GPGGA,220258.00,3300.3866,N,11805.2253,W,1,10,0.8,11.9,M,-34.6,M,,*6D
$PYRTM,2024,121.918758924491,13.028406334641
$GPGGA,220259.00,3300.3876,N,11805.2275,W,1,10,0.8,11.3,M,-34.6,M,,*63
$PYRTM,2024,121.918770482859,13.028417892998
$GPGGA,220300.00,3300.3886,N,11805.2295,W,1,10,0.8,13.7,M,-34.6,M,,*69
$PYRTM,2024,121.918783216875,13.028430627014
$GPGGA,220301.00,3300.3895,N,11805.2319,W,1,10,0.8,12.9,M,-34.6,M,,*60
$PYRTM,2024,121.918796295104,13.028443705243
$GPGGA,220302.00,3300.3906,N,11805.2340,W,1,10,0.8,10.4,M,-34.6,M,,*6B
$PYRTM,2024,121.918805554826,13.028452964965
$GPGGA,220303.00,3300.3917,N,11805.2360,W,1,10,0.8,10.1,M,-34.6,M,,*6D
$PYRTM,2024,121.918816781100,13.028464191238
$GPGGA,220304.00,3300.3926,N,11805.2381,W,1,10,0.8,10.7,M,-34.6,M,,*61
$PYRTM,2024,121.918828369039,13.028475779178
$GPGGA,220305.00,3300.3936,N,11805.2402,W,1,10,0.8,11.3,M,-34.6,M,,*68
$PYRTM,2024,121.918839928009,13.028487338148
$GPGGA,220306.00,3300.3946,N,11805.2425,W,1,10,0.8,13.6,M,-34.6,M,,*6E
$PYRTM,2024,121.918851517292,13.028498927431
$GPGGA,220307.00,3300.3956,N,11805.2450,W,1,10,0.8,12.7,M,-34.6,M,,*6C
$PYRTM,2024,121.918863078426,13.028510488565
$GPGGA,220308.00,3300.3965,N,11805.2474,W,1,10,0.8,10.4,M,-34.6,M,,*64
$PYRTM,2024,121.918874665417,13.028522075556
$GPGGA,220309.00,3300.3974,N,11805.2497,W,1,10,0.8,9.9,M,-34.6,M,,*5D
$PYRTM,2024,121.918886224618,13.028533634757
$GPGGA,220310.00,3300.3986,N,11805.2520,W,1,10,0.8,11.2,M,-34.6,M,,*67
$PYRTM,2024,121.918897813588,13.028545223727
$GPGGA,220311.00,3300.3997,N,11805.2543,W,1,10,0.8,12.1,M,-34.6,M,,*63
$PYRTM,2024,121.918909373079,13.028556783218
$GPGGA,220312.00,3300.4006,N,11805.2567,W,1,10,0.8,10.2,M,-34.6,M,,*61
$PYRTM,2024,121.918920961586,13.028568371725
$GPGGA,220313.00,3300.4015,N,11805.2589,W,1,10,0.8,11.2,M,-34.6,M,,*63
$PYRTM,2024,121.918932522581,13.028579932720
$GPGGA,220314.00,3300.4025,N,11805.2611,W,1,10,0.8,11.7,M,-34.6,M,,*60
$PYRTM,2024,121.918944111343,13.028591521481
$GPGGA,220315.00,3300.4034,N,11805.2634,W,1,10,0.8,12.0,M,-34.6,M,,*62
$PYRTM,2024,121.918955672106,13.028603082245
$GPGGA,220316.00,3300.4043,N,11805.2657,W,1,10,0.8,12.1,M,-34.6,M,,*65
$PYRTM,2024,121.918967258576,13.028614668715
$GPGGA,220317.00,3300.4053,N,11805.2681,W,1,10,0.8,11.7,M,-34.6,M,,*6B
$PYRTM,2024,121.918978820150,13.028626230289
$GPGGA,220318.00,3300.4062,N,11805.2704,W,1,10,0.8,12.6,M,-34.6,M,,*68
$PYRTM,2024,121.918990401979,13.028637812118
$GPGGA,220319.00,3300.4072,N,11805.2728,W,1,10,0.8,11.1,M,-34.6,M,,*62
$PYRTM,2024,121.919001967153,13.028649377292
$GPGGA,220320.00,3300.4082,N,11805.2753,W,1,10,0.8,9.9,M,-34.6,M,,*5A
$PYRTM,2024,121.919014005289,13.028661415440
$GPGGA,220321.00,3300.4090,N,11805.2775,W,1,10,0.8,12.0,M,-34.6,M,,*6F
$PYRTM,2024,121.919025592396,13.028673002535
$GPGGA,220322.00,3300.4098,N,11805.2798,W,1,10,0.8,11.9,M,-34.6,M,,*6D
$PYRTM,2024,121.919037154514,13.028684564653
$GPGGA,220323.00,3300.4108,N,11805.2821,W,1,10,0.8,11.3,M,-34.6,M,,*63
$PYRTM,2024,121.919048741771,13.028696151921
$GPGGA,220324.00,3300.4119,N,11805.2844,W,1,10,0.8,13.7,M,-34.6,M,,*61
$PYRTM,2024,121.919060302662,13.028707712801
$GPGGA,220325.00,3300.4129,N,11805.2867,W,1,10,0.8,14.3,M,-34.6,M,,*61
$PYRTM,2024,121.919071885579,13.028719295718
$GPGGA,220326.00,3300.4139,N,11805.2890,W,1,10,0.8,15.9,M,-34.6,M,,*60
$PYRTM,2024,121.919083452928,13.028730863067
$GPGGA,220327.00,3300.4149,N,11805.2913,W,1,10,0.8,16.6,M,-34.6,M,,*60
$PYRTM,2024,121.919095040891,13.028742451030
$GPGGA,220328.00,3300.4160,N,11805.2935,W,1,10,0.8,17.2,M,-34.6,M,,*65
$PYRTM,2024,121.919106602280,13.028754012419
$GPGGA,220329.00,3300.4171,N,11805.2958,W,1,10,0.8,19.0,M,-34.6,M,,*63
$PYRTM,2024,121.919118189792,13.028765599931
$GPGGA,220330.00,3300.4181,N,11805.2982,W,1,10,0.8,18.8,M,-34.6,M,,*6A
$PYRTM,2024,121.919130923264,13.028778333403
$GPGGA,220331.00,3300.4191,N,11805.3007,W,1,10,0.8,16.0,M,-34.6,M,,*69
$PYRTM,2024,121.919143521829,13.028790931968
$GPGGA,220332.00,3300.4202,N,11805.3028,W,1,10,0.8,15.5,M,-34.6,M,,*68
$PYRTM,2024,121.919153009606,13.028800419745
$GPGGA,220333.00,3300.4214,N,11805.3046,W,1,10,0.8,14.8,M,-34.6,M,,*6A
$PYRTM,2024,121.919164598808,13.028812008947
$GPGGA,220334.00,3300.4223,N,11805.3066,W,1,10,0.8,13.8,M,-34.6,M,,*6C
$PYRTM,2024,121.919176159676,13.028823569815
$GPGGA,220335.00,3300.4232,N,11805.3092,W,1,10,0.8,13.5,M,-34.6,M,,*6B
$PYRTM,2024,121.919187745451,13.028835155602
$GPGGA,220336.00,3300.4241,N,11805.3118,W,1,10,0.8,12.9,M,-34.6,M,,*62
$PYRTM,2024,121.919199307292,13.028846717431
$GPGGA,220337.00,3300.4251,N,11805.3140,W,1,10,0.8,14.4,M,-34.6,M,,*64
$PYRTM,2024,121.919210893924,13.028858304062
$GPGGA,220338.00,3300.4263,N,11805.3160,W,1,10,0.8,15.7,M,-34.6,M,,*6A
$PYRTM,2024,121.919222454977,13.028869865116
$GPGGA,220339.00,3300.4274,N,11805.3180,W,1,10,0.8,15.7,M,-34.6,M,,*63
$PYRTM,2024,121.919234042500,13.028881452639
$GPGGA,220340.00,3300.4284,N,11805.3202,W,1,10,0.8,14.2,M,-34.6,M,,*6F
$PYRTM,2024,121.919245603681,13.028893013819
$GPGGA,220341.00,3300.4292,N,11805.3224,W,1,10,0.8,13.1,M,-34.6,M,,*69
$PYRTM,2024,121.919257186551,13.028904596701
$GPGGA,220342.00,3300.4304,N,11805.3247,W,1,10,0.8,13.6,M,-34.6,M,,*66
$PYRTM,2024,121.919268750544,13.028916160683
$GPGGA,220343.00,3300.4315,N,11805.3269,W,1,10,0.8,14.3,M,-34.6,M,,*69
$PYRTM,2024,121.919280334838,13.028927744977
$GPGGA,220344.00,3300.4324,N,11805.3290,W,1,10,0.8,14.6,M,-34.6,M,,*6F
$PYRTM,2024,121.919291900660,13.028939310799
$GPGGA,220345.00,3300.4333,N,11805.3312,W,1,10,0.8,16.2,M,-34.6,M,,*65
$PYRTM,2024,121.919303487002,13.028950897141
$GPGGA,220346.00,3300.4342,N,11805.3336,W,1,10,0.8,13.9,M,-34.6,M,,*68
$PYRTM,2024,121.919315047731,13.028962457870
$GPGGA,220347.00,3300.4352,N,11805.3360,W,1,10,0.8,14.5,M,-34.6,M,,*60
$PYRTM,2024,121.919326636065,13.028974046204
$GPGGA,220348.00,3300.4363,N,11805.3382,W,1,10,0.8,12.3,M,-34.6,M,,*61
$PYRTM,2024,121.919341330359,13.028988740498
$GPGGA,220349.00,3300.4374,N,11805.3402,W,1,10,0.8,14.1,M,-34.6,M,,*6D
$PYRTM,2024,121.919354414525,13.029001824664
$GPGGA,220350.00,3300.4385,N,11805.3424,W,1,10,0.8,16.6,M,-34.6,M,,*6A
$PYRTM,2024,121.919365180729,13.029012590880
$GPGGA,220351.00,3300.4396,N,11805.3447,W,1,10,0.8,16.8,M,-34.6,M,,*62
$PYRTM,2024,121.919376284063,13.029023694201
$GPGGA,220352.00,3300.4406,N,11805.3471,W,1,10,0.8,16.1,M,-34.6,M,,*63
$PYRTM,2024,121.919387403426,13.029034813576
$GPGGA,220353.00,3300.4416,N,11805.3493,W,1,10,0.8,15.6,M,-34.6,M,,*6B
$PYRTM,2024,121.919398628947,13.029046039086
$GPGGA,220354.00,3300.4426,N,11805.3515,W,1,10,0.8,14.0,M,-34.6,M,,*67
$PYRTM,2024,121.919409732141,13.029057142280
$GPGGA,220355.00,3300.4437,N,11805.3537,W,1,10,0.8,15.0,M,-34.6,M,,*67
$PYRTM,2024,121.919420837199,13.029068247338
$GPGGA,220356.00,3300.4447,N,11805.3559,W,1,10,0.8,14.2,M,-34.6,M,,*68
$PYRTM,2024,121.919431963252,13.029079373391
$GPGGA,220357.00,3300.4458,N,11805.3582,W,1,10,0.8,12.5,M,-34.6,M,,*60
$PYRTM,2024,121.919443188345,13.029090598484
$GPGGA,220358.00,3300.4467,N,11805.3606,W,1,10,0.8,11.6,M,-34.6,M,,*6C
$PYRTM,2024,121.919454287245,13.029101697384
$GPGGA,220359.00,3300.4475,N,11805.3629,W,1,10,0.8,9.5,M,-34.6,M,,*59
$PYRTM,2024,121.919465409896,13.029112820035
$GPGGA,220400.00,3300.4484,N,11805.3650,W,1,10,0.8,12.3,M,-34.6,M,,*6E
$PYRTM,2024,121.919476520440,13.029123930579
$GPGGA,220401.00,3300.4494,N,11805.3671,W,1,10,0.8,12.5,M,-34.6,M,,*6B
$PYRTM,2024,121.919491567141,13.029138977280
$GPGGA,220402.00,3300.4503,N,11805.3692,W,1,10,0.8,12.3,M,-34.6,M,,*6C
$PYRTM,2024,121.919502679329,13.029150089468
$GPGGA,220403.00,3300.4511,N,11805.3715,W,1,10,0.8,12.5,M,-34.6,M,,*66
$PYRTM,2024,121.919513892789,13.029161302928
$GPGGA,220404.00,3300.4520,N,11805.3737,W,1,10,0.8,13.2,M,-34.6,M,,*65
$PYRTM,2024,121.919525004155,13.029172414294
$GPGGA,220405.00,3300.4531,N,11805.3758,W,1,10,0.8,14.5,M,-34.6,M,,*6D
$PYRTM,2024,121.919536115046,13.029183525185
$GPGGA,220406.00,3300.4542,N,11805.3781,W,1,10,0.8,16.3,M,-34.6,M,,*6A
$PYRTM,2024,121.919547227569,13.029194637720
$GPGGA,220407.00,3300.4552,N,11805.3806,W,1,10,0.8,14.0,M,-34.6,M,,*6B
$PYRTM,2024,121.919558452894,13.029205863032
$GPGGA,220408.00,3300.4562,N,11805.3829,W,1,10,0.8,12.3,M,-34.6,M,,*6F
$PYRTM,2024,121.919569564375,13.029216974514
$GPGGA,220409.00,3300.4572,N,11805.3852,W,1,10,0.8,14.0,M,-34.6,M,,*66
$PYRTM,2024,121.919580675590,13.029228085729
$GPGGA,220410.00,3300.4583,N,11805.3875,W,1,10,0.8,13.7,M,-34.6,M,,*65
$PYRTM,2024,121.919592258021,13.029239668160
$GPGGA,220411.00,3300.4594,N,11805.3899,W,1,10,0.8,14.9,M,-34.6,M,,*69
$PYRTM,2024,121.919603387905,13.029250798044
$GPGGA,220412.00,3300.4604,N,11805.3923,W,1,10,0.8,16.9,M,-34.6,M,,*62
$PYRTM,2024,121.919619115718,13.029266525856
$GPGGA,220413.00,3300.4612,N,11805.3946,W,1,10,0.8,14.7,M,-34.6,M,,*6B
$PYRTM,2024,121.919630240799,13.029277650937
$GPGGA,220414.00,3300.4619,N,11805.3966,W,1,10,0.8,16.7,M,-34.6,M,,*67
$PYRTM,2024,121.919641339248,13.029288749387
$GPGGA,220415.00,3300.4628,N,11805.3986,W,1,10,0.8,17.5,M,-34.6,M,,*69
$PYRTM,2024,121.919652436065,13.029299846204
$GPGGA,220416.00,3300.4640,N,11805.4008,W,1,10,0.8,15.5,M,-34.6,M,,*6E
$PYRTM,2024,121.919663676215,13.029311086354
$GPGGA,220417.00,3300.4650,N,11805.4033,W,1,10,0.8,13.7,M,-34.6,M,,*62
$PYRTM,2024,121.919674780706,13.029322190845
$GPGGA,220418.00,3300.4658,N,11805.4056,W,1,10,0.8,15.2,M,-34.6,M,,*65
$PYRTM,2024,121.919685886539,13.029333296678
$GPGGA,220419.00,3300.4667,N,11805.4076,W,1,10,0.8,14.8,M,-34.6,M,,*61
$PYRTM,2024,121.919697008588,13.029344418727
$GPGGA,220420.00,3300.4678,N,11805.4097,W,1,10,0.8,16.5,M,-34.6,M,,*65
$PYRTM,2024,121.919708222975,13.029355633113
$GPGGA,220421.00,3300.4690,N,11805.4120,W,1,10,0.8,16.0,M,-34.6,M,,*6A
$PYRTM,2024,121.919719347176,13.029366757315
$GPGGA,220422.00,3300.4700,N,11805.4143,W,1,10,0.8,16.3,M,-34.6,M,,*67
$PYRTM,2024,121.919730458715,13.029377868866
$GPGGA,220423.00,3300.4708,N,11805.4164,W,1,10,0.8,13.7,M,-34.6,M,,*6A
$PYRTM,2024,121.919741673032,13.029389083171
$GPGGA,220424.00,3300.4716,N,11805.4184,W,1,10,0.8,15.1,M,-34.6,M,,*6C
$PYRTM,2024,121.919753253414,13.029400663553
$GPGGA,220425.00,3300.4725,N,11805.4206,W,1,10,0.8,16.6,M,-34.6,M,,*60
$PYRTM,2024,121.919764821632,13.029412231771
$GPGGA,220426.00,3300.4735,N,11805.4228,W,1,10,0.8,16.2,M,-34.6,M,,*6A
$PYRTM,2024,121.919776409514,13.029423819653
$GPGGA,220427.00,3300.4744,N,11805.4250,W,1,10,0.8,14.4,M,-34.6,M,,*66
$PYRTM,2024,121.919787968507,13.029435378646
$GPGGA,220428.00,3300.4752,N,11805.4274,W,1,10,0.8,14.3,M,-34.6,M,,*6F
$PYRTM,2024,121.919799550521,13.029446960660
$GPGGA,220429.00,3300.4761,N,11805.4298,W,1,10,0.8,11.8,M,-34.6,M,,*62
$PYRTM,2024,121.919811117060,13.029458527211
$GPGGA,220430.00,3300.4771,N,11805.4322,W,1,10,0.8,11.9,M,-34.6,M,,*6A
$PYRTM,2024,121.919823747975,13.029471158113
$GPGGA,220431.00,3300.4783,N,11805.4345,W,1,10,0.8,13.4,M,-34.6,M,,*68
$PYRTM,2024,121.919835782870,13.029483193009
$GPGGA,220432.00,3300.4794,N,11805.4366,W,1,10,0.8,15.2,M,-34.6,M,,*6C
$PYRTM,2024,121.919847119363,13.029494529502
$GPGGA,220433.00,3300.4804,N,11805.4387,W,1,10,0.8,16.8,M,-34.6,M,,*6D
$PYRTM,2024,121.919858457593,13.029505867731
$GPGGA,220434.00,3300.4813,N,11805.4409,W,1,10,0.8,12.7,M,-34.6,M,,*66
$PYRTM,2024,121.919870044537,13.029517454676
$GPGGA,220435.00,3300.4823,N,11805.4431,W,1,10,0.8,11.9,M,-34.6,M,,*62
$PYRTM,2024,121.919881603600,13.029529013738
$GPGGA,220436.00,3300.4834,N,11805.4452,W,1,10,0.8,12.1,M,-34.6,M,,*69
$PYRTM,2024,121.919893191262,13.029540601400
$GPGGA,220437.00,3300.4844,N,11805.4475,W,1,10,0.8,11.0,M,-34.6,M,,*68
$PYRTM,2024,121.919904751273,13.029552161412
$GPGGA,220438.00,3300.4854,N,11805.4498,W,1,10,0.8,13.2,M,-34.6,M,,*65
$PYRTM,2024,121.919916341053,13.029563751192
$GPGGA,220439.00,3300.4864,N,11805.4520,W,1,10,0.8,15.0,M,-34.6,M,,*61
$PYRTM,2024,121.919927899687,13.029575309838
$GPGGA,220440.00,3300.4874,N,11805.4543,W,1,10,0.8,16.6,M,-34.6,M,,*6E
$PYRTM,2024,121.919939482454,13.029586892604
$GPGGA,220441.00,3300.4884,N,11805.4566,W,1,10,0.8,15.5,M,-34.6,M,,*67
$PYRTM,2024,121.919951047870,13.029598458009
$GPGGA,220442.00,3300.4893,N,11805.4586,W,1,10,0.8,12.5,M,-34.6,M,,*6B
$PYRTM,2024,121.919962631574,13.029610041713
$GPGGA,220443.00,3300.4904,N,11805.4608,W,1,10,0.8,15.3,M,-34.6,M,,*61
$PYRTM,2024,121.919974198009,13.029621608148
$GPGGA,220444.00,3300.4914,N,11805.4632,W,1,10,0.8,13.7,M,-34.6,M,,*6C
$PYRTM,2024,121.919985786308,13.029633196447
$GPGGA,220445.00,3300.4922,N,11805.4655,W,1,10,0.8,14.1,M,-34.6,M,,*68
$PYRTM,2024,121.919997346192,13.029644756331
$GPGGA,220446.00,3300.4930,N,11805.4676,W,1,10,0.8,14.1,M,-34.6,M,,*69
$PYRTM,2024,121.920008934468,13.029656344606
$GPGGA,220447.00,3300.4939,N,11805.4695,W,1,10,0.8,12.4,M,-34.6,M,,*6F
$PYRTM,2024,121.920020492581,13.029667902720
$GPGGA,220448.00,3300.4949,N,11805.4716,W,1,10,0.8,14.4,M,-34.6,M,,*6B
$PYRTM,2024,121.920032083519,13.029679493657
$GPGGA,220449.00,3300.4958,N,11805.4740,W,1,10,0.8,15.2,M,-34.6,M,,*6E
$PYRTM,2024,121.920043642454,13.029691052593
$GPGGA,220450.00,3300.4966,N,11805.4763,W,1,10,0.8,15.2,M,-34.6,M,,*6A
$PYRTM,2024,121.920055228438,13.029702638576
$GPGGA,220451.00,3300.4974,N,11805.4785,W,1,10,0.8,16.9,M,-34.6,M,,*68
$PYRTM,2024,121.920066788113,13.029714198252
$GPGGA,220452.00,3300.4983,N,11805.4806,W,1,10,0.8,16.6,M,-34.6,M,,*68
$PYRTM,2024,121.920078377894,13.029725788032
$GPGGA,220453.00,3300.4994,N,11805.4828,W,1,10,0.8,16.8,M,-34.6,M,,*6D
$PYRTM,2024,121.920089937049,13.029737347188
$GPGGA,220454.00,3300.5004,N,11805.4850,W,1,10,0.8,18.9,M,-34.6,M,,*6B
$PYRTM,2024,121.920101524780,13.029748934919
$GPGGA,220455.00,3300.5014,N,11805.4872,W,1,10,0.8,18.0,M,-34.6,M,,*62
$PYRTM,2024,121.920113085741,13.029760495880
$GPGGA,220456.00,3300.5023,N,11805.4894,W,1,10,0.8,15.5,M,-34.6,M,,*65
$PYRTM,2024,121.920124673333,13.029772083484
$GPGGA,220457.00,3300.5034,N,11805.4916,W,1,10,0.8,14.0,M,-34.6,M,,*6D
$PYRTM,2024,121.920136234931,13.029783645069
$GPGGA,220458.00,3300.5045,N,11805.4938,W,1,10,0.8,13.4,M,-34.6,M,,*6B
$PYRTM,2024,121.920147820938,13.029795231076
$GPGGA,220459.00,3300.5057,N,11805.4962,W,1,10,0.8,15.3,M,-34.6,M,,*67
$PYRTM,2024,121.920159383565,13.029806793704
$GPGGA,220500.00,3300.5065,N,11805.4985,W,1,10,0.8,13.0,M,-34.6,M,,*67
$PYRTM,2024,121.920172459271,13.029819869410
$GPGGA,220501.00,3300.5073,N,11805.5007,W,1,10,0.8,12.6,M,-34.6,M,,*64
$PYRTM,2024,121.920185193715,13.029832603854
$GPGGA,220502.00,3300.5082,N,11805.5030,W,1,10,0.8,13.6,M,-34.6,M,,*6C
$PYRTM,2024,121.920194452766,13.029841862905
$GPGGA,220503.00,3300.5092,N,11805.5054,W,1,10,0.8,15.8,M,-34.6,M,,*66
$PYRTM,2024,121.920205680729,13.029853090868
$GPGGA,220504.00,3300.5102,N,11805.5077,W,1,10,0.8,16.2,M,-34.6,M,,*61
$PYRTM,2024,121.920217261898,13.029864672037
$GPGGA,220505.00,3300.5112,N,11805.5100,W,1,10,0.8,16.4,M,-34.6,M,,*66
$PYRTM,2024,121.920228828472,13.029876238611
$GPGGA,220506.00,3300.5121,N,11805.5123,W,1,10,0.8,13.6,M,-34.6,M,,*63
$PYRTM,2024,121.920240414815,13.029887824954
$GPGGA,220507.00,3300.5130,N,11805.5146,W,1,10,0.8,13.3,M,-34.6,M,,*64
$PYRTM,2024,121.920251975231,13.029899385359
$GPGGA,220508.00,3300.5139,N,11805.5168,W,1,10,0.8,11.4,M,-34.6,M,,*6B
$PYRTM,2024,121.920263562581,13.029910972720
$GPGGA,220509.00,3300.5149,N,11805.5191,W,1,10,0.8,12.1,M,-34.6,M,,*6D
$PYRTM,2024,121.920275124387,13.029922534537
$GPGGA,220510.00,3300.5160,N,11805.5214,W,1,10,0.8,14.8,M,-34.6,M,,*6F
$PYRTM,2024,121.920286711782,13.029934121933
$GPGGA,220511.00,3300.5170,N,11805.5237,W,1,10,0.8,14.7,M,-34.6,M,,*61
$PYRTM,2024,121.920298272847,13.029945682986
$GPGGA,220512.00,3300.5179,N,11805.5259,W,1,10,0.8,14.2,M,-34.6,M,,*66
$PYRTM,2024,121.920309861505,13.029957271644
$GPGGA,220513.00,3300.5189,N,11805.5282,W,1,10,0.8,13.7,M,-34.6,M,,*6C
$PYRTM,2024,121.920321421319,13.029968831458
$GPGGA,220514.00,3300.5200,N,11805.5306,W,1,10,0.8,14.9,M,-34.6,M,,*6D
$PYRTM,2024,121.920333007025,13.029980417164
$GPGGA,220515.00,3300.5211,N,11805.5329,W,1,10,0.8,15.6,M,-34.6,M,,*6F
$PYRTM,2024,121.920344568241,13.029991978380
$GPGGA,220516.00,3300.5220,N,11805.5351,W,1,10,0.8,16.3,M,-34.6,M,,*67
$PYRTM,2024,121.920356171262,13.030003581400
$GPGGA,220517.00,3300.5229,N,11805.5372,W,1,10,0.8,17.7,M,-34.6,M,,*6B
$PYRTM,2024,121.920367717523,13.030015127662
$GPGGA,220518.00,3300.5238,N,11805.5396,W,1,10,0.8,18.4,M,-34.6,M,,*62
$PYRTM,2024,121.920379300046,13.030026710185
$GPGGA,220519.00,3300.5248,N,11805.5421,W,1,10,0.8,18.1,M,-34.6,M,,*6A
$PYRTM,2024,121.920390865301,13.030038275440
$GPGGA,220520.00,3300.5258,N,11805.5444,W,1,10,0.8,17.4,M,-34.6,M,,*68
$PYRTM,2024,121.920402452789,13.030049862940
$GPGGA,220521.00,3300.5270,N,11805.5466,W,1,10,0.8,16.2,M,-34.6,M,,*64
$PYRTM,2024,121.920414014167,13.030061424306
$GPGGA,220522.00,3300.5283,N,11805.5489,W,1,10,0.8,14.0,M,-34.6,M,,*6A
$PYRTM,2024,121.920425604699,13.030073014838
$GPGGA,220523.00,3300.5296,N,11805.5513,W,1,10,0.8,14.0,M,-34.6,M,,*6D
$PYRTM,2024,121.920437163565,13.030084573704
$GPGGA,220524.00,3300.5305,N,11805.5536,W,1,10,0.8,13.5,M,-34.6,M,,*64
$PYRTM,2024,121.920448749248,13.030096159387
$GPGGA,220525.00,3300.5313,N,11805.5560,W,1,10,0.8,13.3,M,-34.6,M,,*67
$PYRTM,2024,121.920460311771,13.030107721910
$GPGGA,220526.00,3300.5322,N,11805.5582,W,1,10,0.8,15.2,M,-34.6,M,,*6D
$PYRTM,2024,121.920471892558,13.030119302697
$GPGGA,220527.00,3300.5332,N,11805.5601,W,1,10,0.8,12.8,M,-34.6,M,,*68
$PYRTM,2024,121.920483458993,13.030130869132
$GPGGA,220528.00,3300.5343,N,11805.5621,W,1,10,0.8,12.0,M,-34.6,M,,*6B
$PYRTM,2024,121.920495046053,13.030142456192
$GPGGA,220529.00,3300.5354,N,11805.5645,W,1,10,0.8,12.7,M,-34.6,M,,*69
$PYRTM,2024,121.920506607708,13.030154017847
$GPGGA,220530.00,3300.5361,N,11805.5669,W,1,10,0.8,10.1,M,-34.6,M,,*6D
$PYRTM,2024,121.920519340775,13.030166750914
$GPGGA,220531.00,3300.5370,N,11805.5692,W,1,10,0.8,8.4,M,-34.6,M,,*54
$PYRTM,2024,121.920532417164,13.030179827303
$GPGGA,220532.00,3300.5381,N,11805.5713,W,1,10,0.8,11.4,M,-34.6,M,,*69
$PYRTM,2024,121.920541791424,13.030189201563
$GPGGA,220533.00,3300.5392,N,11805.5733,W,1,10,0.8,12.1,M,-34.6,M,,*6E
$PYRTM,2024,121.920553379525,13.030200789664
$GPGGA,220534.00,3300.5401,N,11805.5755,W,1,10,0.8,13.4,M,-34.6,M,,*60
$PYRTM,2024,121.920564941227,13.030212351366
$GPGGA,220535.00,3300.5408,N,11805.5779,W,1,10,0.8,13.3,M,-34.6,M,,*61
$PYRTM,2024,121.920576528808,13.030223938947
$GPGGA,220536.00,3300.5416,N,11805.5801,W,1,10,0.8,13.2,M,-34.6,M,,*6C
$PYRTM,2024,121.920588088171,13.030235498310
$GPGGA,220537.00,3300.5428,N,11805.5821,W,1,10,0.8,12.5,M,-34.6,M,,*64
$PYRTM,2024,121.920599791042,13.030247201181
$GPGGA,220538.00,3300.5441,N,11805.5841,W,1,10,0.8,11.3,M,-34.6,M,,*67
$PYRTM,2024,121.920611351424,13.030258761563
$GPGGA,220539.00,3300.5451,N,11805.5863,W,1,10,0.8,12.6,M,-34.6,M,,*61
$PYRTM,2024,121.920622936250,13.030270346389
$GPGGA,220540.00,3300.5457,N,11805.5888,W,1,10,0.8,12.6,M,-34.6,M,,*6C
$PYRTM,2024,121.920634500000,13.030281910150
$GPGGA,220541.00,3300.5463,N,11805.5912,W,1,10,0.8,10.7,M,-34.6,M,,*6B
$PYRTM,2024,121.920645972859,13.030293382998
$GPGGA,220542.00,3300.5474,N,11805.5933,W,1,10,0.8,9.6,M,-34.6,M,,*54
$PYRTM,2024,121.920657648866,13.030305059005
$GPGGA,220543.00,3300.5485,N,11805.5954,W,1,10,0.8,13.2,M,-34.6,M,,*65
$PYRTM,2024,121.920669236609,13.030316646748
$GPGGA,220544.00,3300.5495,N,11805.5975,W,1,10,0.8,13.7,M,-34.6,M,,*65
$PYRTM,2024,121.920680797639,13.030328207778
$GPGGA,220545.00,3300.5503,N,11805.5999,W,1,10,0.8,14.3,M,-34.6,M,,*6B
$PYRTM,2024,121.920692385613,13.030339795752
$GPGGA,220546.00,3300.5512,N,11805.6022,W,1,10,0.8,12.1,M,-34.6,M,,*66
$PYRTM,2024,121.920703946123,13.030351356262
$GPGGA,220547.00,3300.5523,N,11805.6044,W,1,10,0.8,12.2,M,-34.6,M,,*66
$PYRTM,2024,121.920715533241,13.030362943380
$GPGGA,220548.00,3300.5535,N,11805.6065,W,1,10,0.8,12.8,M,-34.6,M,,*67
$PYRTM,2024,121.920727092095,13.030374502234
$GPGGA,220549.00,3300.5546,N,11805.6085,W,1,10,0.8,16.5,M,-34.6,M,,*65
$PYRTM,2024,121.920738681944,13.030386092083
$GPGGA,220550.00,3300.5555,N,11805.6106,W,1,10,0.8,16.4,M,-34.6,M,,*64
$PYRTM,2024,121.920750707025,13.030398117176
$GPGGA,220551.00,3300.5565,N,11805.6129,W,1,10,0.8,12.3,M,-34.6,M,,*68
$PYRTM,2024,121.920761825532,13.030409235683
$GPGGA,220552.00,3300.5574,N,11805.6154,W,1,10,0.8,9.0,M,-34.6,M,,*58
$PYRTM,2024,121.920773390752,13.030420800891
$GPGGA,220553.00,3300.5583,N,11805.6177,W,1,10,0.8,10.0,M,-34.6,M,,*68
$PYRTM,2024,121.920788677616,13.030436087755
$GPGGA,220554.00,3300.5593,N,11805.6197,W,1,10,0.8,15.0,M,-34.6,M,,*65
$PYRTM,2024,121.920801759340,13.030449169479
$GPGGA,220555.00,3300.5603,N,11805.6219,W,1,10,0.8,16.1,M,-34.6,M,,*69
$PYRTM,2024,121.920812526933,13.030459937072
$GPGGA,220556.00,3300.5612,N,11805.6242,W,1,10,0.8,16.1,M,-34.6,M,,*64
$PYRTM,2024,121.920823635694,13.030471045833
$GPGGA,220557.00,3300.5620,N,11805.6266,W,1,10,0.8,18.7,M,-34.6,M,,*6A
$PYRTM,2024,121.920834749711,13.030482159850
$GPGGA,220558.00,3300.5629,N,11805.6287,W,1,10,0.8,16.5,M,-34.6,M,,*6F
$PYRTM,2024,121.920845973102,13.030493383241
$GPGGA,220559.00,3300.5638,N,11805.6308,W,1,10,0.8,15.7,M,-34.6,M,,*69
$PYRTM,2024,121.920857096481,13.030504506620
$GPGGA,220600.00,3300.5649,N,11805.6332,W,1,10,0.8,15.7,M,-34.6,M,,*69
$PYRTM,2024,121.920868209514,13.030515619653
$GPGGA,220601.00,3300.5659,N,11805.6355,W,1,10,0.8,16.3,M,-34.6,M,,*6F
$PYRTM,2024,121.920883242095,13.030530652245
$GPGGA,220602.00,3300.5667,N,11805.6378,W,1,10,0.8,15.3,M,-34.6,M,,*6D
$PYRTM,2024,121.920894354549,13.030541764688
$GPGGA,220603.00,3300.5676,N,11805.6401,W,1,10,0.8,14.5,M,-34.6,M,,*62
$PYRTM,2024,121.920905568079,13.030552978218
$GPGGA,220604.00,3300.5686,N,11805.6423,W,1,10,0.8,14.2,M,-34.6,M,,*6D
$PYRTM,2024,121.920916679375,13.030564089514
$GPGGA,220605.00,3300.5697,N,11805.6446,W,1,10,0.8,15.3,M,-34.6,M,,*6F
$PYRTM,2024,121.920927790428,13.030575200567
$GPGGA,220606.00,3300.5707,N,11805.6470,W,1,10,0.8,15.2,M,-34.6,M,,*60
$PYRTM,2024,121.920938901343,13.030586311481
$GPGGA,220607.00,3300.5717,N,11805.6492,W,1,10,0.8,14.3,M,-34.6,M,,*6C
$PYRTM,2024,121.920950128484,13.030597538623
$GPGGA,220608.00,3300.5727,N,11805.6512,W,1,10,0.8,13.5,M,-34.6,M,,*68
$PYRTM,2024,121.920961239120,13.030608649259
$GPGGA,220609.00,3300.5737,N,11805.6534,W,1,10,0.8,13.2,M,-34.6,M,,*6B
$PYRTM,2024,121.920972351319,13.030619761458
$GPGGA,220610.00,3300.5747,N,11805.6559,W,1,10,0.8,13.4,M,-34.6,M,,*69
$PYRTM,2024,121.920983460208,13.030630870347
$GPGGA,220611.00,3300.5757,N,11805.6585,W,1,10,0.8,14.5,M,-34.6,M,,*6E
$PYRTM,2024,121.920994686250,13.030642096389
$GPGGA,220612.00,3300.5766,N,11805.6606,W,1,10,0.8,15.0,M,-34.6,M,,*63
$PYRTM,2024,121.921005797766,13.030653207905
$GPGGA,220613.00,3300.5774,N,11805.6624,W,1,10,0.8,13.8,M,-34.6,M,,*6F
$PYRTM,2024,121.921016909225,13.030664319363
$GPGGA,220614.00,3300.5783,N,11805.6644,W,1,10,0.8,12.9,M,-34.6,M,,*66
$PYRTM,2024,121.921028022419,13.030675432558
$GPGGA,220615.00,3300.5793,N,11805.6667,W,1,10,0.8,13.9,M,-34.6,M,,*66
$PYRTM,2024,121.921039249306,13.030686659444
$GPGGA,220616.00,3300.5802,N,11805.6688,W,1,10,0.8,14.0,M,-34.6,M,,*6D
$PYRTM,2024,121.921050386887,13.030697797025
$GPGGA,220617.00,3300.5809,N,11805.6710,W,1,10,0.8,16.7,M,-34.6,M,,*62
$PYRTM,2024,121.921061483785,13.030708893924
$GPGGA,220618.00,3300.5818,N,11805.6732,W,1,10,0.8,16.1,M,-34.6,M,,*6B
$PYRTM,2024,121.921072710741,13.030720120880
$GPGGA,220619.00,3300.5828,N,11805.6754,W,1,10,0.8,15.5,M,-34.6,M,,*6E
$PYRTM,2024,121.921084271933,13.030731682072
$GPGGA,220620.00,3300.5839,N,11805.6775,W,1,10,0.8,14.9,M,-34.6,M,,*6A
$PYRTM,2024,121.921095858600,13.030743268738
$GPGGA,220621.00,3300.5850,N,11805.6797,W,1,10,0.8,16.2,M,-34.6,M,,*61
$PYRTM,2024,121.921107420174,13.030754830312
$GPGGA,220622.00,3300.5860,N,11805.6819,W,1,10,0.8,17.0,M,-34.6,M,,*6B
$PYRTM,2024,121.921119010012,13.030766420150
$GPGGA,220623.00,3300.5869,N,11805.6842,W,1,10,0.8,15.0,M,-34.6,M,,*6F
$PYRTM,2024,121.921130568900,13.030777979039
$GPGGA,220624.00,3300.5877,N,11805.6865,W,1,10,0.8,16.5,M,-34.6,M,,*64
$PYRTM,2024,121.921142155706,13.030789565845
$GPGGA,220625.00,3300.5888,N,11805.6885,W,1,10,0.8,16.8,M,-34.6,M,,*66
$PYRTM,2024,121.921153716898,13.030801127037
$GPGGA,220626.00,3300.5900,N,11805.6904,W,1,10,0.8,16.9,M,-34.6,M,,*6D
$PYRTM,2024,121.921165304676,13.030812714803
$GPGGA,220627.00,3300.5910,N,11805.6926,W,1,10,0.8,14.3,M,-34.6,M,,*65
$PYRTM,2024,121.921176864954,13.030824275093
$GPGGA,220628.00,3300.5920,N,11805.6949,W,1,10,0.8,14.5,M,-34.6,M,,*66
$PYRTM,2024,121.921188456111,13.030835866250
$GPGGA,220629.00,3300.5928,N,11805.6972,W,1,10,0.8,13.8,M,-34.6,M,,*6D
$PYRTM,2024,121.921200014190,13.030847424329
$GPGGA,220630.00,3300.5938,N,11805.6991,W,1,10,0.8,13.9,M,-34.6,M,,*68
$PYRTM,2024,121.921211604178,13.030859014317
$GPGGA,220631.00,3300.5950,N,11805.7012,W,1,10,0.8,15.0,M,-34.6,M,,*6B
$PYRTM,2024,121.921224680231,13.030872090382
$GPGGA,220632.00,3300.5961,N,11805.7035,W,1,10,0.8,13.2,M,-34.6,M,,*6B
$PYRTM,2024,121.921236010405,13.030883420544
$GPGGA,220633.00,3300.5970,N,11805.7058,W,1,10,0.8,14.2,M,-34.6,M,,*66
$PYRTM,2024,121.921247351748,13.030894761887
$GPGGA,220634.00,3300.5978,N,11805.7080,W,1,10,0.8,12.8,M,-34.6,M,,*60
$PYRTM,2024,121.921258939502,13.030906349641
$GPGGA,220635.00,3300.5987,N,11805.7103,W,1,10,0.8,13.2,M,-34.6,M,,*60
$PYRTM,2024,121.921270500081,13.030917910231
$GPGGA,220636.00,3300.5999,N,11805.7126,W,1,10,0.8,12.2,M,-34.6,M,,*6A
$PYRTM,2024,121.921282086968,13.030929497106
$GPGGA,220637.00,3300.6010,N,11805.7147,W,1,10,0.8,12.1,M,-34.6,M,,*64
$PYRTM,2024,121.921293647384,13.030941057523
$GPGGA,220638.00,3300.6019,N,11805.7168,W,1,10,0.8,10.8,M,-34.6,M,,*64
$PYRTM,2024,121.921305234931,13.030952645069
$GPGGA,220639.00,3300.6027,N,11805.7189,W,1,10,0.8,12.5,M,-34.6,M,,*68
$PYRTM,2024,121.921316796400,13.030964206539
$GPGGA,220640.00,3300.6037,N,11805.7214,W,1,10,0.8,14.9,M,-34.6,M,,*6A
$PYRTM,2024,121.921328384572,13.030975794711
$GPGGA,220641.00,3300.6048,N,11805.7237,W,1,10,0.8,14.6,M,-34.6,M,,*6D
$PYRTM,2024,121.921340176701,13.030987586840
$GPGGA,220642.00,3300.6059,N,11805.7259,W,1,10,0.8,14.0,M,-34.6,M,,*60
$PYRTM,2024,121.921351551308,13.030998961447
$GPGGA,220643.00,3300.6068,N,11805.7280,W,1,10,0.8,12.0,M,-34.6,M,,*61
$PYRTM,2024,121.921363093218,13.031010503356
$GPGGA,220644.00,3300.6078,N,11805.7301,W,1,10,0.8,12.0,M,-34.6,M,,*6F
$PYRTM,2024,121.921374683368,13.031022093519
$GPGGA,220645.00,3300.6088,N,11805.7325,W,1,10,0.8,12.4,M,-34.6,M,,*63
$PYRTM,2024,121.921386244225,13.031033654363
$GPGGA,220646.00,3300.6098,N,11805.7348,W,1,10,0.8,12.3,M,-34.6,M,,*6D
$PYRTM,2024,121.921397829907,13.031045240046
$GPGGA,220647.00,3300.6107,N,11805.7370,W,1,10,0.8,13.6,M,-34.6,M,,*64
$PYRTM,2024,121.921409390301,13.031056800440
$GPGGA,220648.00,3300.6116,N,11805.7391,W,1,10,0.8,15.4,M,-34.6,M,,*60
$PYRTM,2024,121.921420971389,13.031068381528
$GPGGA,220649.00,3300.6125,N,11805.7412,W,1,10,0.8,14.3,M,-34.6,M,,*6B
$PYRTM,2024,121.921432537361,13.031079947500
$GPGGA,220650.00,3300.6135,N,11805.7435,W,1,10,0.8,15.7,M,-34.6,M,,*62
$PYRTM,2024,121.921444128391,13.031091538530
$GPGGA,220651.00,3300.6146,N,11805.7456,W,1,10,0.8,16.9,M,-34.6,M,,*6F
$PYRTM,2024,121.921455688912,13.031103099051
$GPGGA,220652.00,3300.6156,N,11805.7478,W,1,10,0.8,16.9,M,-34.6,M,,*61
$PYRTM,2024,121.921467269722,13.031114679873
$GPGGA,220653.00,3300.6164,N,11805.7501,W,1,10,0.8,17.7,M,-34.6,M,,*61
$PYRTM,2024,121.921478835914,13.031126246053
$GPGGA,220654.00,3300.6174,N,11805.7523,W,1,10,0.8,16.8,M,-34.6,M,,*69
$PYRTM,2024,121.921490423796,13.031137833935
$GPGGA,220655.00,3300.6186,N,11805.7544,W,1,10,0.8,16.6,M,-34.6,M,,*6A
$PYRTM,2024,121.921501983160,13.031149393310
$GPGGA,220656.00,3300.6198,N,11805.7566,W,1,10,0.8,18.0,M,-34.6,M,,*6E
$PYRTM,2024,121.921513574537,13.031160984676
$GPGGA,220657.00,3300.6209,N,11805.7587,W,1,10,0.8,15.7,M,-34.6,M,,*61
$PYRTM,2024,121.921525133206,13.031172543345
$GPGGA,220658.00,3300.6219,N,11805.7610,W,1,10,0.8,15.7,M,-34.6,M,,*62
$PYRTM,2024,121.921536732975,13.031184143113
$GPGGA,220659.00,3300.6228,N,11805.7634,W,1,10,0.8,13.0,M,-34.6,M,,*66
$PYRTM,2024,121.921548279919,13.031195690058
$GPGGA,220700.00,3300.6237,N,11805.7656,W,1,10,0.8,12.5,M,-34.6,M,,*65
$PYRTM,2024,121.921559861458,13.031207271597
$GPGGA,220701.00,3300.6249,N,11805.7678,W,1,10,0.8,13.5,M,-34.6,M,,*60
$PYRTM,2024,121.921570049306,13.031217459444
$GPGGA,220702.00,3300.6261,N,11805.7701,W,1,10,0.8,10.8,M,-34.6,M,,*68
$PYRTM,2024,121.921582320532,13.031229730671
$GPGGA,220703.00,3300.6272,N,11805.7724,W,1,10,0.8,12.3,M,-34.6,M,,*65
$PYRTM,2024,121.921594939618,13.031242349757
$GPGGA,220704.00,3300.6281,N,11805.7747,W,1,10,0.8,13.7,M,-34.6,M,,*6E
$PYRTM,2024,121.921606159016,13.031253569167
$GPGGA,220705.00,3300.6291,N,11805.7771,W,1,10,0.8,13.5,M,-34.6,M,,*69
$PYRTM,2024,121.921617724213,13.031265134352
$GPGGA,220706.00,3300.6301,N,11805.7793,W,1,10,0.8,14.9,M,-34.6,M,,*65
$PYRTM,2024,121.921629312442,13.031276722581
$GPGGA,220707.00,3300.6311,N,11805.7815,W,1,10,0.8,14.4,M,-34.6,M,,*69
$PYRTM,2024,121.921640872824,13.031288282963
$GPGGA,220708.00,3300.6321,N,11805.7837,W,1,10,0.8,11.4,M,-34.6,M,,*60
$PYRTM,2024,121.921652459699,13.031299869838
$GPGGA,220709.00,3300.6331,N,11805.7861,W,1,10,0.8,11.6,M,-34.6,M,,*61
$PYRTM,2024,121.921664021759,13.031311431898
$GPGGA,220710.00,3300.6340,N,11805.7887,W,1,10,0.8,12.9,M,-34.6,M,,*6B
$PYRTM,2024,121.921675607836,13.031323017975
$GPGGA,220711.00,3300.6350,N,11805.7910,W,1,10,0.8,12.5,M,-34.6,M,,*68
$PYRTM,2024,121.921687170069,13.031334580208
$GPGGA,220712.00,3300.6360,N,11805.7932,W,1,10,0.8,13.2,M,-34.6,M,,*6E
$PYRTM,2024,121.921698771076,13.031346181215
$GPGGA,220713.00,3300.6371,N,11805.7953,W,1,10,0.8,12.2,M,-34.6,M,,*69
$PYRTM,2024,121.921710318970,13.031357729109
$GPGGA,220714.00,3300.6381,N,11805.7975,W,1,10,0.8,11.5,M,-34.6,M,,*61
$PYRTM,2024,121.921721919815,13.031369329954
$GPGGA,220715.00,3300.6390,N,11805.7999,W,1,10,0.8,13.0,M,-34.6,M,,*65
$PYRTM,2024,121.921733465937,13.031380876088
$GPGGA,220716.00,3300.6397,N,11805.8023,W,1,10,0.8,11.6,M,-34.6,M,,*62
$PYRTM,2024,121.921745052488,13.031392462627
$GPGGA,220717.00,3300.6406,N,11805.8045,W,1,10,0.8,10.0,M,-34.6,M,,*6B
$PYRTM,2024,121.921756615208,13.031404025347
$GPGGA,220718.00,3300.6418,N,11805.8067,W,1,10,0.8,10.8,M,-34.6,M,,*63
$PYRTM,2024,121.921768202535,13.031415612674
$GPGGA,220719.00,3300.6429,N,11805.8090,W,1,10,0.8,10.4,M,-34.6,M,,*64
$PYRTM,2024,121.921779763889,13.031427174028
$GPGGA,220720.00,3300.6438,N,11805.8113,W,1,10,0.8,11.8,M,-34.6,M,,*69
$PYRTM,2024,121.921791344225,13.031438754363
$GPGGA,220721.00,3300.6448,N,11805.8136,W,1,10,0.8,14.1,M,-34.6,M,,*64
$PYRTM,2024,121.921802911782,13.031450321921
$GPGGA,220722.00,3300.6457,N,11805.8158,W,1,10,0.8,14.0,M,-34.6,M,,*60
$PYRTM,2024,121.921814497685,13.031461907824
$GPGGA,220723.00,3300.6468,N,11805.8181,W,1,10,0.8,16.0,M,-34.6,M,,*6B
$PYRTM,2024,121.921826059294,13.031473469433
$GPGGA,220724.00,3300.6478,N,11805.8203,W,1,10,0.8,16.6,M,-34.6,M,,*62
$PYRTM,2024,121.921837649583,13.031485059722
$GPGGA,220725.00,3300.6489,N,11805.8226,W,1,10,0.8,14.9,M,-34.6,M,,*67
$PYRTM,2024,121.921849208032,13.031496618171
$GPGGA,220726.00,3300.6499,N,11805.8251,W,1,10,0.8,12.3,M,-34.6,M,,*69
$PYRTM,2024,121.921860797106,13.031508207245
$GPGGA,220727.00,3300.6507,N,11805.8275,W,1,10,0.8,12.9,M,-34.6,M,,*62
$PYRTM,2024,121.921872355150,13.031519765301
$GPGGA,220728.00,3300.6516,N,11805.8299,W,1,10,0.8,14.1,M,-34.6,M,,*61
$PYRTM,2024,121.921883956840,13.031531366979
$GPGGA,220729.00,3300.6527,N,11805.8322,W,1,10,0.8,15.4,M,-34.6,M,,*67
$PYRTM,2024,121.921895505174,13.031542915324
$GPGGA,220730.00,3300.6539,N,11805.8345,W,1,10,0.8,15.6,M,-34.6,M,,*63
$PYRTM,2024,121.921907091898,13.031554502037
$GPGGA,220731.00,3300.6548,N,11805.8367,W,1,10,0.8,15.0,M,-34.6,M,,*62
$PYRTM,2024,121.921917725289,13.031565135428
$GPGGA,220732.00,3300.6557,N,11805.8390,W,1,10,0.8,15.4,M,-34.6,M,,*63
$PYRTM,2024,121.921929081238,13.031576491377
$GPGGA,220733.00,3300.6566,N,11805.8414,W,1,10,0.8,11.7,M,-34.6,M,,*6C
$PYRTM,2024,121.921942279352,13.031589689491
$GPGGA,220734.00,3300.6576,N,11805.8434,W,1,10,0.8,14.7,M,-34.6,M,,*6D
$PYRTM,2024,121.921953837766,13.031601247917
$GPGGA,220735.00,3300.6587,N,11805.8453,W,1,10,0.8,14.0,M,-34.6,M,,*64
$PYRTM,2024,121.921965428924,13.031612839063
$GPGGA,220736.00,3300.6597,N,11805.8475,W,1,10,0.8,13.8,M,-34.6,M,,*6D
$PYRTM,2024,121.921976986435,13.031624396586
$GPGGA,220737.00,3300.6606,N,11805.8500,W,1,10,0.8,15.4,M,-34.6,M,,*6E
$PYRTM,2024,121.921988572755,13.031635982894
$GPGGA,220738.00,3300.6615,N,11805.8522,W,1,10,0.8,13.9,M,-34.6,M,,*68
$PYRTM,2024,121.922000134236,13.031647544375
$GPGGA,220739.00,3300.6626,N,11805.8541,W,1,10,0.8,13.0,M,-34.6,M,,*65
$PYRTM,2024,121.922011721667,13.031659131817
$GPGGA,220740.00,3300.6638,N,11805.8562,W,1,10,0.8,16.1,M,-34.6,M,,*61
$PYRTM,2024,121.922023283218,13.031670693368
$GPGGA,220741.00,3300.6649,N,11805.8584,W,1,10,0.8,13.1,M,-34.6,M,,*6B
$PYRTM,2024,121.922034872546,13.031682282685
$GPGGA,220742.00,3300.6657,N,11805.8607,W,1,10,0.8,14.3,M,-34.6,M,,*6A
$PYRTM,2024,121.922046431123,13.031693841262
$GPGGA,220743.00,3300.6665,N,11805.8628,W,1,10,0.8,16.6,M,-34.6,M,,*60
$PYRTM,2024,121.922058018727,13.031705428866
$GPGGA,220744.00,3300.6675,N,11805.8649,W,1,10,0.8,15.6,M,-34.6,M,,*62
$PYRTM,2024,121.922069692847,13.031717102986
$GPGGA,220745.00,3300.6688,N,11805.8671,W,1,10,0.8,17.3,M,-34.6,M,,*6D
$PYRTM,2024,121.922081283565,13.031728693704
$GPGGA,220746.00,3300.6700,N,11805.8693,W,1,10,0.8,15.6,M,-34.6,M,,*64
$PYRTM,2024,121.922092841563,13.031740251701
$GPGGA,220747.00,3300.6710,N,11805.8717,W,1,10,0.8,15.8,M,-34.6,M,,*67
$PYRTM,2024,121.922104424815,13.031751834954
$GPGGA,220748.00,3300.6716,N,11805.8739,W,1,10,0.8,13.8,M,-34.6,M,,*64
$PYRTM,2024,121.922115992199,13.031763402350
$GPGGA,220749.00,3300.6726,N,11805.8764,W,1,10,0.8,13.4,M,-34.6,M,,*62
$PYRTM,2024,121.922127578183,13.031774988333
$GPGGA,220750.00,3300.6737,N,11805.8787,W,1,10,0.8,12.1,M,-34.6,M,,*63
$PYRTM,2024,121.922139140266,13.031786550417
$GPGGA,220751.00,3300.6749,N,11805.8808,W,1,10,0.8,14.6,M,-34.6,M,,*62
$PYRTM,2024,121.922150726574,13.031798136713
$GPGGA,220752.00,3300.6759,N,11805.8829,W,1,10,0.8,15.6,M,-34.6,M,,*62
$PYRTM,2024,121.922162287188,13.031809697326
$GPGGA,220753.00,3300.6769,N,11805.8852,W,1,10,0.8,16.4,M,-34.6,M,,*6D
$PYRTM,2024,121.922173875440,13.031821285579
$GPGGA,220754.00,3300.6779,N,11805.8876,W,1,10,0.8,15.8,M,-34.6,M,,*62
$PYRTM,2024,121.922185434248,13.031832844387
$GPGGA,220755.00,3300.6789,N,11805.8898,W,1,10,0.8,12.7,M,-34.6,M,,*64
$PYRTM,2024,121.922197023484,13.031844433623
$GPGGA,220756.00,3300.6799,N,11805.8920,W,1,10,0.8,11.9,M,-34.6,M,,*69
$PYRTM,2024,121.922208583437,13.031855993576
$GPGGA,220757.00,3300.6808,N,11805.8943,W,1,10,0.8,11.8,M,-34.6,M,,*6B
$PYRTM,2024,121.922220174606,13.031867584745
$GPGGA,220758.00,3300.6818,N,11805.8967,W,1,10,0.8,14.9,M,-34.6,M,,*67
$PYRTM,2024,121.922236030139,13.031883440278
$GPGGA,220759.00,3300.6828,N,11805.8988,W,1,10,0.8,12.6,M,-34.6,M,,*6D
$PYRTM,2024,121.922249093715,13.031896503854
$GPGGA,220800.00,3300.6838,N,11805.9009,W,1,10,0.8,13.4,M,-34.6,M,,*6D
$PYRTM,2024,121.922259874468,13.031907284606
$GPGGA,220801.00,3300.6847,N,11805.9031,W,1,10,0.8,16.2,M,-34.6,M,,*6C
$PYRTM,2024,121.922274449259,13.031921859398
$GPGGA,220802.00,3300.6857,N,11805.9053,W,1,10,0.8,13.2,M,-34.6,M,,*6F
$PYRTM,2024,121.922285569109,13.031932979248
$GPGGA,220803.00,3300.6866,N,11805.9076,W,1,10,0.8,14.3,M,-34.6,M,,*6D
$PYRTM,2024,121.922296790197,13.031944200336
$GPGGA,220804.00,3300.6876,N,11805.9097,W,1,10,0.8,14.4,M,-34.6,M,,*63
$PYRTM,2024,121.922308352593,13.031955762743
$GPGGA,220805.00,3300.6887,N,11805.9117,W,1,10,0.8,16.3,M,-34.6,M,,*60
$PYRTM,2024,121.922319465521,13.031966875660
$GPGGA,220806.00,3300.6898,N,11805.9139,W,1,10,0.8,15.9,M,-34.6,M,,*68
$PYRTM,2024,121.922330576528,13.031977986678
$GPGGA,220807.00,3300.6909,N,11805.9164,W,1,10,0.8,13.9,M,-34.6,M,,*6E
$PYRTM,2024,121.922341687778,13.031989097917
$GPGGA,220808.00,3300.6921,N,11805.9189,W,1,10,0.8,16.5,M,-34.6,M,,*61
$PYRTM,2024,121.922352914653,13.032000324792
$GPGGA,220809.00,3300.6933,N,11805.9210,W,1,10,0.8,15.5,M,-34.6,M,,*63
$PYRTM,2024,121.922364025093,13.032011435243
$GPGGA,220810.00,3300.6944,N,11805.9229,W,1,10,0.8,14.2,M,-34.6,M,,*67
$PYRTM,2024,121.922375136863,13.032022547002
$GPGGA,220811.00,3300.6955,N,11805.9252,W,1,10,0.8,14.3,M,-34.6,M,,*6B
$PYRTM,2024,121.922386247708,13.032033657859
$GPGGA,220812.00,3300.6966,N,11805.9276,W,1,10,0.8,11.6,M,-34.6,M,,*6E
$PYRTM,2024,121.922397474907,13.032044885058
$GPGGA,220813.00,3300.6975,N,11805.9300,W,1,10,0.8,12.2,M,-34.6,M,,*6A
$PYRTM,2024,121.922408584826,13.032055994977
$GPGGA,220814.00,3300.6984,N,11805.9323,W,1,10,0.8,12.5,M,-34.6,M,,*65
$PYRTM,2024,121.922419696933,13.032067107072
$GPGGA,220815.00,3300.6993,N,11805.9344,W,1,10,0.8,12.0,M,-34.6,M,,*66
$PYRTM,2024,121.922430806725,13.032078216863
$GPGGA,220816.00,3300.7005,N,11805.9365,W,1,10,0.8,11.1,M,-34.6,M,,*63
$PYRTM,2024,121.922442035451,13.032089445590
$GPGGA,220817.00,3300.7015,N,11805.9387,W,1,10,0.8,10.5,M,-34.6,M,,*6A
$PYRTM,2024,121.922453161586,13.032100571725
$GPGGA,220818.00,3300.7023,N,11805.9409,W,1,10,0.8,11.0,M,-34.6,M,,*65
$PYRTM,2024,121.922464271169,13.032111681308
$GPGGA,220819.00,3300.7031,N,11805.9432,W,1,10,0.8,12.5,M,-34.6,M,,*69
$PYRTM,2024,121.922475384826,13.032122794965
$GPGGA,220820.00,3300.7041,N,11805.9453,W,1,10,0.8,13.9,M,-34.6,M,,*6E
$PYRTM,2024,121.922486607813,13.032134017951
$GPGGA,220821.00,3300.7052,N,11805.9474,W,1,10,0.8,15.3,M,-34.6,M,,*64
$PYRTM,2024,121.922498170069,13.032145580208
$GPGGA,220822.00,3300.7063,N,11805.9496,W,1,10,0.8,13.0,M,-34.6,M,,*6C
$PYRTM,2024,121.922509281157,13.032156691296
$GPGGA,220823.00,3300.7072,N,11805.9519,W,1,10,0.8,12.3,M,-34.6,M,,*69
$PYRTM,2024,121.922520392778,13.032167802917
$GPGGA,220824.00,3300.7079,N,11805.9543,W,1,10,0.8,14.4,M,-34.6,M,,*6B
$PYRTM,2024,121.922531504780,13.032178914919
$GPGGA,220825.00,3300.7088,N,11805.9564,W,1,10,0.8,12.7,M,-34.6,M,,*64
$PYRTM,2024,121.922542733021,13.032190143160
$GPGGA,220826.00,3300.7099,N,11805.9586,W,1,10,0.8,14.7,M,-34.6,M,,*6D
$PYRTM,2024,121.922554088553,13.032201498692
$GPGGA,220827.00,3300.7109,N,11805.9609,W,1,10,0.8,14.1,M,-34.6,M,,*66
$PYRTM,2024,121.922565659375,13.032213069514
$GPGGA,220828.00,3300.7119,N,11805.9633,W,1,10,0.8,13.5,M,-34.6,M,,*62
$PYRTM,2024,121.922577237049,13.032224647187
$GPGGA,220829.00,3300.7128,N,11805.9657,W,1,10,0.8,13.5,M,-34.6,M,,*63
$PYRTM,2024,121.922588802650,13.032236212789
$GPGGA,220830.00,3300.7137,N,11805.9680,W,1,10,0.8,14.3,M,-34.6,M,,*6E
$PYRTM,2024,121.922600382338,13.032247792488
$GPGGA,220831.00,3300.7148,N,11805.9704,W,1,10,0.8,16.3,M,-34.6,M,,*68
$PYRTM,2024,121.922613101053,13.032260511192
$GPGGA,220832.00,3300.7160,N,11805.9725,W,1,10,0.8,14.4,M,-34.6,M,,*67
$PYRTM,2024,121.922624687940,13.032272098079
$GPGGA,220833.00,3300.7170,N,11805.9747,W,1,10,0.8,15.8,M,-34.6,M,,*6E
$PYRTM,2024,121.922636250301,13.032283660440
$GPGGA,220834.00,3300.7180,N,11805.9772,W,1,10,0.8,16.5,M,-34.6,M,,*6E
$PYRTM,2024,121.922647952303,13.032295362442
$GPGGA,220835.00,3300.7189,N,11805.9796,W,1,10,0.8,16.3,M,-34.6,M,,*6A
$PYRTM,2024,121.922659397627,13.032306807766
