$PYRTM,2024,124.166673452060,15.276320862199
$GPGGA,035959.00,3506.8365,N,12133.6004,W,1,09,1.0,-3.3,M,-32.6,M,,*7A
$PYRTM,2024,124.166684927963,15.276332338102
$GPGGA,040000.00,3506.8370,N,12133.6013,W,1,09,1.0,-3.1,M,-32.6,M,,*7D
$PYRTM,2024,124.166696033125,15.276343443275
$GPGGA,040001.00,3506.8377,N,12133.6017,W,1,09,1.0,-2.8,M,-32.6,M,,*77
$PYRTM,2024,124.166707151539,15.276354561678
$GPGGA,040002.00,3506.8388,N,12133.6018,W,1,09,1.0,-2.5,M,-32.6,M,,*76
$PYRTM,2024,124.166718374074,15.276365784213
$GPGGA,040003.00,3506.8399,N,12133.6023,W,1,09,1.0,-2.2,M,-32.6,M,,*78
$PYRTM,2024,124.166729485961,15.276376896100
$GPGGA,040004.00,3506.8406,N,12133.6030,W,1,09,1.0,-2.3,M,-32.6,M,,*7D
$PYRTM,2024,124.166740596910,15.276388007049
$GPGGA,040005.00,3506.8412,N,12133.6035,W,1,09,1.0,-2.3,M,-32.6,M,,*7C
$PYRTM,2024,124.166757831238,15.276405241377
$GPGGA,040006.00,3506.8421,N,12133.6037,W,1,09,1.0,-2.5,M,-32.6,M,,*7B
$PYRTM,2024,124.166768954653,15.276416364792
$GPGGA,040007.00,3506.8432,N,12133.6040,W,1,09,1.0,-2.7,M,-32.6,M,,*7A
$PYRTM,2024,124.166780055255,15.276427465394
$GPGGA,040008.00,3506.8444,N,12133.6048,W,1,09,1.0,-1.8,M,-32.6,M,,*70
$PYRTM,2024,124.166791178958,15.276438589097
$GPGGA,040009.00,3506.8452,N,12133.6054,W,1,09,1.0,-2.4,M,-32.6,M,,*74
$PYRTM,2024,124.166805745602,15.276453155741
$GPGGA,040010.00,3506.8461,N,12133.6056,W,1,09,1.0,-2.1,M,-32.6,M,,*7B
$PYRTM,2024,124.166816856435,15.276464266574
$GPGGA,040011.00,3506.8472,N,12133.6057,W,1,09,1.0,-1.5,M,-32.6,M,,*7E
$PYRTM,2024,124.166827970914,15.276475381053
$GPGGA,040012.00,3506.8484,N,12133.6062,W,1,09,1.0,-2.3,M,-32.6,M,,*77
$PYRTM,2024,124.166839557060,15.276486967199
$GPGGA,040013.00,3506.8495,N,12133.6072,W,1,09,1.0,-3.7,M,-32.6,M,,*72
$PYRTM,2024,124.166850653924,15.276498064063
$GPGGA,040014.00,3506.8505,N,12133.6081,W,1,09,1.0,-8.7,M,-32.6,M,,*7A
$PYRTM,2024,124.166861767361,15.276509177500
$GPGGA,040015.00,3506.8516,N,12133.6086,W,1,09,1.0,-2.4,M,-32.6,M,,*77
$PYRTM,2024,124.166872893414,15.276520303553
$GPGGA,040016.00,3506.8528,N,12133.6089,W,1,09,1.0,-3.4,M,-32.6,M,,*77
$PYRTM,2024,124.166884000602,15.276531410741
$GPGGA,040017.00,3506.8538,N,12133.6094,W,1,09,1.0,-1.8,M,-32.6,M,,*75
$PYRTM,2024,124.166895112211,15.276542522350
$GPGGA,040018.00,3506.8546,N,12133.6101,W,1,09,1.0,-1.0,M,-32.6,M,,*76
$PYRTM,2024,124.166912459560,15.276559869699
$GPGGA,040019.00,3506.8555,N,12133.6109,W,1,09,1.0,-1.3,M,-32.6,M,,*7E
$PYRTM,2024,124.166923571088,15.276570981227
$GPGGA,040020.00,3506.8564,N,12133.6118,W,1,09,1.0,-2.3,M,-32.6,M,,*75
$PYRTM,2024,124.166934682187,15.276582092338
$GPGGA,040021.00,3506.8575,N,12133.6125,W,1,09,1.0,-1.0,M,-32.5,M,,*79
$PYRTM,2024,124.166945793565,15.276593203704
$GPGGA,040022.00,3506.8586,N,12133.6130,W,1,09,1.0,1.3,M,-32.5,M,,*5C
$PYRTM,2024,124.166956902940,15.276604313090
$GPGGA,040023.00,3506.8596,N,12133.6136,W,1,09,1.0,0.6,M,-32.5,M,,*5E
$PYRTM,2024,124.166968013947,15.276615424086
$GPGGA,040024.00,3506.8607,N,12133.6146,W,1,09,1.0,-1.7,M,-32.5,M,,*78
$PYRTM,2024,124.166979126956,15.276626537095
$GPGGA,040025.00,3506.8617,N,12133.6156,W,1,09,1.0,-0.3,M,-32.5,M,,*7C
$PYRTM,2024,124.166990237338,15.276637647477
$GPGGA,040026.00,3506.8626,N,12133.6164,W,1,09,1.0,2.7,M,-32.5,M,,*57
$PYRTM,2024,124.167001347257,15.276648757396
$GPGGA,040027.00,3506.8635,N,12133.6169,W,1,09,1.0,2.5,M,-32.5,M,,*5B
$PYRTM,2024,124.167012459306,15.276659869444
$GPGGA,040028.00,3506.8648,N,12133.6172,W,1,09,1.0,1.8,M,-32.5,M,,*5A
$PYRTM,2024,124.167023570741,15.276670980880
$GPGGA,040029.00,3506.8661,N,12133.6176,W,1,09,1.0,8.0,M,-32.5,M,,*55
$PYRTM,2024,124.167034566829,15.276681976968
$GPGGA,040030.00,3506.8669,N,12133.6187,W,1,09,1.0,6.8,M,-32.5,M,,*5D
$PYRTM,2024,124.167045679479,15.276693089618
$GPGGA,040031.00,3506.8678,N,12133.6199,W,1,09,1.0,4.8,M,-32.5,M,,*51
$PYRTM,2024,124.167056790058,15.276704200197
$GPGGA,040032.00,3506.8690,N,12133.6202,W,1,09,1.0,6.4,M,-32.5,M,,*5B
$PYRTM,2024,124.167068014965,15.276715425104
$GPGGA,040033.00,3506.8701,N,12133.6198,W,1,09,1.0,8.9,M,-32.5,M,,*50
$PYRTM,2024,124.167079604850,15.276727014988
$GPGGA,040034.00,3506.8710,N,12133.6199,W,1,09,1.0,6.5,M,-32.5,M,,*54
$PYRTM,2024,124.167091164051,15.276738574190
$GPGGA,040035.00,3506.8721,N,12133.6212,W,1,09,1.0,6.2,M,-32.5,M,,*50
$PYRTM,2024,124.167102747477,15.276750157616
$GPGGA,040036.00,3506.8730,N,12133.6227,W,1,09,1.0,5.4,M,-32.5,M,,*50
$PYRTM,2024,124.167114312523,15.276761722662
$GPGGA,040037.00,3506.8739,N,12133.6229,W,1,09,1.0,5.2,M,-32.5,M,,*50
$PYRTM,2024,124.167125901192,15.276773311331
$GPGGA,040038.00,3506.8748,N,12133.6221,W,1,09,1.0,4.5,M,-32.5,M,,*57
$PYRTM,2024,124.167137462326,15.276784872465
$GPGGA,040039.00,3506.8760,N,12133.6219,W,1,09,1.0,2.4,M,-32.5,M,,*50
$PYRTM,2024,124.167150194178,15.276797604317
$GPGGA,040040.00,3506.8772,N,12133.6229,W,1,09,1.0,1.8,M,-32.5,M,,*51
$PYRTM,2024,124.167161775567,15.276809185706
$GPGGA,040041.00,3506.8779,N,12133.6245,W,1,09,1.0,1.4,M,-32.5,M,,*5D
$PYRTM,2024,124.167173341204,15.276820751343
$GPGGA,040042.00,3506.8785,N,12133.6254,W,1,09,1.0,0.2,M,-32.5,M,,*5A
$PYRTM,2024,124.167184930799,15.276832340938
$GPGGA,040043.00,3506.8797,N,12133.6254,W,1,09,1.0,0.0,M,-32.5,M,,*5A
$PYRTM,2024,124.167196490312,15.276843900451
$GPGGA,040044.00,3506.8811,N,12133.6252,W,1,09,1.0,-0.9,M,-32.5,M,,*7E
$PYRTM,2024,124.167208076273,15.276855486412
$GPGGA,040045.00,3506.8821,N,12133.6260,W,1,09,1.0,-1.9,M,-32.5,M,,*7C
$PYRTM,2024,124.167219639028,15.276867049167
$GPGGA,040046.00,3506.8829,N,12133.6274,W,1,09,1.0,-2.4,M,-32.5,M,,*7C
$PYRTM,2024,124.167231224653,15.276878634792
$GPGGA,040047.00,3506.8838,N,12133.6285,W,1,09,1.0,-2.3,M,-32.5,M,,*74
$PYRTM,2024,124.167242786539,15.276890196678
$GPGGA,040048.00,3506.8845,N,12133.6286,W,1,09,1.0,-1.6,M,-32.5,M,,*74
$PYRTM,2024,124.167254372928,15.276901783067
$GPGGA,040049.00,3506.8853,N,12133.6283,W,1,09,1.0,-1.2,M,-32.5,M,,*73
$PYRTM,2024,124.167265934363,15.276913344502
$GPGGA,040050.00,3506.8864,N,12133.6287,W,1,09,1.0,-1.1,M,-32.5,M,,*78
$PYRTM,2024,124.167277534873,15.276924945012
$GPGGA,040051.00,3506.8873,N,12133.6299,W,1,09,0.8,-1.2,M,-32.5,M,,*7A
$PYRTM,2024,124.167289082014,15.276936492153
$GPGGA,040052.00,3506.8880,N,12133.6310,W,1,09,0.8,-1.3,M,-32.5,M,,*74
$PYRTM,2024,124.167300673056,15.276948083183
$GPGGA,040053.00,3506.8887,N,12133.6313,W,1,09,0.8,-0.7,M,-32.5,M,,*74
$PYRTM,2024,124.167312229931,15.276959640069
$GPGGA,040054.00,3506.8899,N,12133.6313,W,1,09,0.8,-0.5,M,-32.5,M,,*7E
$PYRTM,2024,124.167323818542,15.276971228681
$GPGGA,040055.00,3506.8914,N,12133.6315,W,1,09,0.8,-0.3,M,-32.5,M,,*7B
$PYRTM,2024,124.167335378206,15.276982788345
$GPGGA,040056.00,3506.8925,N,12133.6323,W,1,09,0.8,0.2,M,-32.5,M,,*53
$PYRTM,2024,124.167346966806,15.276994376944
$GPGGA,040057.00,3506.8929,N,12133.6334,W,1,09,0.8,0.3,M,-32.5,M,,*59
$PYRTM,2024,124.167358527188,15.277005937326
$GPGGA,040058.00,3506.8937,N,12133.6342,W,1,09,0.8,0.4,M,-32.5,M,,*5F
$PYRTM,2024,124.167370115035,15.277017525174
$GPGGA,040059.00,3506.8950,N,12133.6344,W,1,09,0.8,0.4,M,-32.5,M,,*59
$PYRTM,2024,124.167381676493,15.277029086632
$GPGGA,040100.00,3506.8961,N,12133.6345,W,1,09,0.8,-0.6,M,-32.5,M,,*78
$PYRTM,2024,124.167393258090,15.277040668241
$GPGGA,040101.00,3506.8968,N,12133.6350,W,1,09,0.8,1.0,M,-32.5,M,,*5E
$PYRTM,2024,124.167404823681,15.277052233819
$GPGGA,040102.00,3506.8974,N,12133.6359,W,1,09,0.8,1.2,M,-32.5,M,,*5B
$PYRTM,2024,124.167416412164,15.277063822315
$GPGGA,040103.00,3506.8983,N,12133.6369,W,1,09,0.8,1.5,M,-32.5,M,,*56
$PYRTM,2024,124.167427971609,15.277075381748
$GPGGA,040104.00,3506.8994,N,12133.6375,W,1,09,0.8,2.7,M,-32.5,M,,*5B
$PYRTM,2024,124.167439561736,15.277086971875
$GPGGA,040105.00,3506.9004,N,12133.6378,W,1,09,0.8,4.7,M,-32.5,M,,*50
$PYRTM,2024,124.167451123241,15.277098533380
$GPGGA,040106.00,3506.9011,N,12133.6381,W,1,09,0.8,6.1,M,-32.5,M,,*55
$PYRTM,2024,124.167462711042,15.277110121181
$GPGGA,040107.00,3506.9017,N,12133.6389,W,1,09,0.8,5.7,M,-32.5,M,,*5F
$PYRTM,2024,124.167474269479,15.277121679618
$GPGGA,040108.00,3506.9026,N,12133.6403,W,1,09,0.8,4.6,M,-32.5,M,,*57
$PYRTM,2024,124.167485852118,15.277133262269
$GPGGA,040109.00,3506.9034,N,12133.6412,W,1,09,0.8,3.0,M,-32.5,M,,*54
$PYRTM,2024,124.167496037002,15.277143447141
$GPGGA,040110.00,3506.9040,N,12133.6413,W,1,09,0.8,2.2,M,-32.5,M,,*5D
$PYRTM,2024,124.167507836539,15.277155246678
$GPGGA,040111.00,3506.9046,N,12133.6410,W,1,09,0.8,2.8,M,-32.5,M,,*53
$PYRTM,2024,124.167520567454,15.277167977593
$GPGGA,040112.00,3506.9057,N,12133.6412,W,1,09,0.8,-0.9,M,-32.5,M,,*7C
$PYRTM,2024,124.167532150475,15.277179560613
$GPGGA,040113.00,3506.9068,N,12133.6422,W,1,09,0.8,-2.0,M,-32.5,M,,*79
$PYRTM,2024,124.167543715463,15.277191125602
$GPGGA,040114.00,3506.9073,N,12133.6432,W,1,09,0.8,0.2,M,-32.5,M,,*58
$PYRTM,2024,124.167555300926,15.277202711076
$GPGGA,040115.00,3506.9081,N,12133.6441,W,1,09,0.8,-2.0,M,-32.5,M,,*7D
$PYRTM,2024,124.167566861551,15.277214271690
$GPGGA,040116.00,3506.9093,N,12133.6444,W,1,09,0.8,-3.2,M,-32.5,M,,*7B
$PYRTM,2024,124.167578450961,15.277225861100
$GPGGA,040117.00,3506.9106,N,12133.6445,W,1,09,0.8,1.2,M,-32.5,M,,*59
$PYRTM,2024,124.167590010116,15.277237420255
$GPGGA,040118.00,3506.9114,N,12133.6451,W,1,09,0.8,0.7,M,-32.5,M,,*54
$PYRTM,2024,124.167601611377,15.277249021516
$GPGGA,040119.00,3506.9121,N,12133.6459,W,1,09,0.8,0.3,M,-32.5,M,,*5F
$PYRTM,2024,124.167613159479,15.277260569618
$GPGGA,040120.00,3506.9129,N,12133.6469,W,1,09,0.8,-1.3,M,-32.5,M,,*72
$PYRTM,2024,124.167624749248,15.277272159387
$GPGGA,040121.00,3506.9138,N,12133.6474,W,1,09,0.8,-0.4,M,-32.5,M,,*79
$PYRTM,2024,124.167636307373,15.277283717512
$GPGGA,040122.00,3506.9147,N,12133.6476,W,1,09,0.8,1.8,M,-32.5,M,,*50
$PYRTM,2024,124.167647908565,15.277295318704
$GPGGA,040123.00,3506.9157,N,12133.6477,W,1,09,0.8,3.5,M,-32.5,M,,*5E
$PYRTM,2024,124.167659457361,15.277306867500
$GPGGA,040124.00,3506.9165,N,12133.6483,W,1,09,0.8,2.3,M,-32.5,M,,*54
$PYRTM,2024,124.167671038067,15.277318448206
$GPGGA,040125.00,3506.9172,N,12133.6489,W,1,09,0.8,1.6,M,-32.5,M,,*5F
$PYRTM,2024,124.167682604294,15.277330014444
$GPGGA,040126.00,3506.9185,N,12133.6494,W,1,09,0.8,-0.3,M,-32.5,M,,*71
$PYRTM,2024,124.167694192813,15.277341602963
$GPGGA,040127.00,3506.9198,N,12133.6497,W,1,09,0.8,1.0,M,-32.5,M,,*50
$PYRTM,2024,124.167705754711,15.277353164850
$GPGGA,040128.00,3506.9207,N,12133.6504,W,1,09,0.8,-6.0,M,-32.5,M,,*7B
$PYRTM,2024,124.167717328449,15.277364738600
$GPGGA,040129.00,3506.9214,N,12133.6511,W,1,09,0.8,-4.6,M,-32.5,M,,*78
$PYRTM,2024,124.167728900579,15.277376310729
$GPGGA,040130.00,3506.9225,N,12133.6516,W,1,09,0.8,-5.8,M,-32.5,M,,*7A
$PYRTM,2024,124.167740488692,15.277387898831
$GPGGA,040131.00,3506.9238,N,12133.6519,W,1,09,0.8,-3.8,M,-32.5,M,,*7E
$PYRTM,2024,124.167752049711,15.277399459850
$GPGGA,040132.00,3506.9248,N,12133.6525,W,1,09,0.8,-3.8,M,-32.5,M,,*75
$PYRTM,2024,124.167763639433,15.277411049572
$GPGGA,040133.00,3506.9257,N,12133.6531,W,1,09,0.8,-4.9,M,-32.5,M,,*79
$PYRTM,2024,124.167775199491,15.277422609630
$GPGGA,040134.00,3506.9265,N,12133.6534,W,1,09,0.8,-2.4,M,-32.5,M,,*71
$PYRTM,2024,124.167786786829,15.277434196968
$GPGGA,040135.00,3506.9276,N,12133.6537,W,1,09,0.8,-6.2,M,-32.5,M,,*73
$PYRTM,2024,124.167798346007,15.277445756146
$GPGGA,040136.00,3506.9290,N,12133.6541,W,1,09,0.8,-2.6,M,-32.5,M,,*79
$PYRTM,2024,124.167809920127,15.277457330266
$GPGGA,040137.00,3506.9300,N,12133.6547,W,1,09,0.8,-2.6,M,-32.5,M,,*76
$PYRTM,2024,124.167821495023,15.277468905162
$GPGGA,040138.00,3506.9305,N,12133.6552,W,1,09,0.8,-2.5,M,-32.5,M,,*7B
$PYRTM,2024,124.167833081204,15.277480491343
$GPGGA,040139.00,3506.9310,N,12133.6554,W,1,09,0.8,-2.5,M,-32.5,M,,*78
$PYRTM,2024,124.167843717650,15.277491127789
$GPGGA,040140.00,3506.9320,N,12133.6559,W,1,09,0.8,-5.2,M,-32.5,M,,*78
$PYRTM,2024,124.167855059572,15.277502469711
$GPGGA,040141.00,3506.9334,N,12133.6567,W,1,09,0.8,-5.1,M,-32.5,M,,*72
$PYRTM,2024,124.167867792755,15.277515202894
$GPGGA,040142.00,3506.9344,N,12133.6573,W,1,09,0.8,-3.7,M,-32.5,M,,*73
$PYRTM,2024,124.167879365174,15.277526775313
$GPGGA,040143.00,3506.9351,N,12133.6578,W,1,09,0.8,-2.7,M,-32.5,M,,*7C
$PYRTM,2024,124.167890941736,15.277538351875
$GPGGA,040144.00,3506.9360,N,12133.6581,W,1,09,0.8,-1.8,M,-32.5,M,,*73
$PYRTM,2024,124.167902526042,15.277549936181
$GPGGA,040145.00,3506.9372,N,12133.6586,W,1,09,0.8,-0.4,M,-32.5,M,,*7B
$PYRTM,2024,124.167914086331,15.277561496470
$GPGGA,040146.00,3506.9382,N,12133.6592,W,1,09,0.8,1.2,M,-32.5,M,,*58
$PYRTM,2024,124.167925673461,15.277573083600
$GPGGA,040147.00,3506.9390,N,12133.6601,W,1,09,0.8,-0.5,M,-32.5,M,,*78
$PYRTM,2024,124.167937235266,15.277584645405
$GPGGA,040148.00,3506.9396,N,12133.6611,W,1,09,0.8,-2.4,M,-32.5,M,,*73
$PYRTM,2024,124.167948838368,15.277596248507
$GPGGA,040149.00,3506.9404,N,12133.6616,W,1,09,0.8,-2.4,M,-32.5,M,,*79
$PYRTM,2024,124.167960386296,15.277607796435
$GPGGA,040150.00,3506.9414,N,12133.6615,W,1,09,0.8,-2.6,M,-32.5,M,,*71
$PYRTM,2024,124.167971973877,15.277619384016
$GPGGA,040151.00,3506.9424,N,12133.6617,W,1,09,0.8,-3.0,M,-32.5,M,,*76
$PYRTM,2024,124.167983533611,15.277630943750
$GPGGA,040152.00,3506.9431,N,12133.6626,W,1,09,0.8,-2.5,M,-32.5,M,,*77
$PYRTM,2024,124.167995114051,15.277642524190
$GPGGA,040153.00,3506.9441,N,12133.6639,W,1,09,0.8,-2.2,M,-32.5,M,,*78
$PYRTM,2024,124.168006680532,15.277654090671
$GPGGA,040154.00,3506.9451,N,12133.6647,W,1,09,0.8,-2.1,M,-32.5,M,,*74
$PYRTM,2024,124.168018269306,15.277665679456
$GPGGA,040155.00,3506.9460,N,12133.6647,W,1,09,0.8,-0.6,M,-32.5,M,,*72
$PYRTM,2024,124.168029829491,15.277677239630
$GPGGA,040156.00,3506.9470,N,12133.6642,W,1,09,0.8,0.5,M,-32.5,M,,*5B
$PYRTM,2024,124.168041410255,15.277688820394
$GPGGA,040157.00,3506.9480,N,12133.6645,W,1,09,0.8,0.6,M,-32.5,M,,*51
$PYRTM,2024,124.168052976551,15.277700386690
$GPGGA,040158.00,3506.9492,N,12133.6657,W,1,09,0.8,-2.5,M,-32.5,M,,*72
$PYRTM,2024,124.168064563067,15.277711973206
$GPGGA,040159.00,3506.9502,N,12133.6671,W,1,09,0.8,-3.2,M,-32.5,M,,*79
$PYRTM,2024,124.168075201007,15.277722611146
$GPGGA,040200.00,3506.9508,N,12133.6678,W,1,09,0.8,-2.8,M,-32.5,M,,*7E
$PYRTM,2024,124.168087236285,15.277734646424
$GPGGA,040201.00,3506.9516,N,12133.6675,W,1,09,0.8,-1.9,M,-32.5,M,,*7F
$PYRTM,2024,124.168097899086,15.277745309225
$GPGGA,040202.00,3506.9528,N,12133.6674,W,1,09,0.8,-3.1,M,-32.5,M,,*7A
$PYRTM,2024,124.168109127500,15.277756537639
$GPGGA,040203.00,3506.9539,N,12133.6681,W,1,09,0.8,-3.5,M,-32.5,M,,*75
$PYRTM,2024,124.168120236806,15.277767646944
$GPGGA,040204.00,3506.9545,N,12133.6693,W,1,09,0.8,-4.4,M,-32.5,M,,*7C
$PYRTM,2024,124.168131347025,15.277778757164
$GPGGA,040205.00,3506.9549,N,12133.6703,W,1,09,0.8,-4.6,M,-32.5,M,,*7B
$PYRTM,2024,124.168142462674,15.277789872812
$GPGGA,040206.00,3506.9558,N,12133.6708,W,1,09,0.8,-4.5,M,-32.5,M,,*70
$PYRTM,2024,124.168153568704,15.277800978843
$GPGGA,040207.00,3506.9572,N,12133.6710,W,1,09,0.8,-4.8,M,-32.5,M,,*7D
$PYRTM,2024,124.168164568542,15.277811978681
$GPGGA,040208.00,3506.9584,N,12133.6714,W,1,09,0.8,-4.5,M,-32.5,M,,*72
$PYRTM,2024,124.168179132454,15.277826542593
$GPGGA,040209.00,3506.9592,N,12133.6723,W,1,09,0.8,-4.3,M,-32.5,M,,*76
$PYRTM,2024,124.168191866273,15.277839276412
$GPGGA,040210.00,3506.9599,N,12133.6732,W,1,09,0.8,-3.4,M,-32.5,M,,*75
$PYRTM,2024,124.168203456435,15.277850866574
$GPGGA,040211.00,3506.9608,N,12133.6738,W,1,09,0.8,-3.1,M,-32.5,M,,*70
$PYRTM,2024,124.168215014271,15.277862424410
$GPGGA,040212.00,3506.9622,N,12133.6745,W,1,09,0.8,-2.1,M,-32.5,M,,*70
$PYRTM,2024,124.168226601794,15.277874011933
$GPGGA,040213.00,3506.9633,N,12133.6752,W,1,09,0.8,-1.7,M,-32.5,M,,*72
$PYRTM,2024,124.168238163437,15.277885573576
$GPGGA,040214.00,3506.9639,N,12133.6758,W,1,09,0.8,-1.8,M,-32.5,M,,*7A
$PYRTM,2024,124.168249750417,15.277897160556
$GPGGA,040215.00,3506.9644,N,12133.6764,W,1,09,0.8,-0.4,M,-32.5,M,,*73
$PYRTM,2024,124.168261312824,15.277908722963
$GPGGA,040216.00,3506.9654,N,12133.6769,W,1,09,0.8,0.1,M,-32.5,M,,*54
$PYRTM,2024,124.168272900648,15.277920310787
$GPGGA,040217.00,3506.9666,N,12133.6773,W,1,09,0.8,-0.4,M,-32.5,M,,*77
$PYRTM,2024,124.168284460440,15.277931870579
$GPGGA,040218.00,3506.9674,N,12133.6781,W,1,09,0.8,-1.4,M,-32.5,M,,*77
$PYRTM,2024,124.168296036192,15.277943446331
$GPGGA,040219.00,3506.9680,N,12133.6787,W,1,09,0.8,-1.6,M,-32.5,M,,*79
$PYRTM,2024,124.168307608356,15.277955018495
$GPGGA,040220.00,3506.9686,N,12133.6791,W,1,09,0.8,-1.0,M,-32.5,M,,*74
$PYRTM,2024,124.168319183310,15.277966593449
$GPGGA,040221.00,3506.9696,N,12133.6795,W,1,09,0.8,-0.2,M,-32.5,M,,*73
$PYRTM,2024,124.168330756319,15.277978166470
$GPGGA,040222.00,3506.9706,N,12133.6802,W,1,09,0.8,0.0,M,-32.5,M,,*56
$PYRTM,2024,124.168342332106,15.277989742245
$GPGGA,040223.00,3506.9715,N,12133.6809,W,1,09,0.8,0.0,M,-32.5,M,,*5E
$PYRTM,2024,124.168353906123,15.278001316262
$GPGGA,040224.00,3506.9724,N,12133.6814,W,1,09,0.8,-0.6,M,-32.5,M,,*7C
$PYRTM,2024,124.168365493125,15.278012903264
$GPGGA,040225.00,3506.9734,N,12133.6818,W,1,09,0.8,-1.1,M,-32.5,M,,*76
$PYRTM,2024,124.168377052523,15.278024462662
$GPGGA,040226.00,3506.9742,N,12133.6820,W,1,09,0.8,-1.1,M,-32.5,M,,*7F
$PYRTM,2024,124.168388642083,15.278036052222
$GPGGA,040227.00,3506.9750,N,12133.6825,W,1,09,0.8,-0.6,M,-32.5,M,,*7E
$PYRTM,2024,124.168400201424,15.278047611563
$GPGGA,040228.00,3506.9762,N,12133.6833,W,1,09,0.8,-0.4,M,-32.5,M,,*75
$PYRTM,2024,124.168411786100,15.278059196238
$GPGGA,040229.00,3506.9773,N,12133.6841,W,1,09,0.8,-0.4,M,-32.5,M,,*71
$PYRTM,2024,124.168423349062,15.278070759201
$GPGGA,040230.00,3506.9779,N,12133.6842,W,1,09,0.8,-0.8,M,-32.5,M,,*7C
$PYRTM,2024,124.168434824039,15.278082234178
$GPGGA,040231.00,3506.9785,N,12133.6841,W,1,09,0.8,0.1,M,-32.5,M,,*59
$PYRTM,2024,124.168446498171,15.278093908310
$GPGGA,040232.00,3506.9797,N,12133.6845,W,1,09,0.8,-3.3,M,-32.5,M,,*71
$PYRTM,2024,124.168458090093,15.278105500231
$GPGGA,040233.00,3506.9812,N,12133.6852,W,1,09,0.8,-0.4,M,-32.5,M,,*70
$PYRTM,2024,124.168469645382,15.278117055810
$GPGGA,040234.00,3506.9821,N,12133.6859,W,1,09,0.8,-1.4,M,-32.5,M,,*7D
$PYRTM,2024,124.168481233299,15.278128643437
$GPGGA,040235.00,3506.9828,N,12133.6865,W,1,09,0.8,-1.6,M,-32.5,M,,*78
$PYRTM,2024,124.168492797789,15.278140207928
$GPGGA,040236.00,3506.9839,N,12133.6870,W,1,09,0.8,-1.5,M,-32.5,M,,*7C
$PYRTM,2024,124.168504377755,15.278151787894
$GPGGA,040237.00,3506.9852,N,12133.6875,W,1,09,0.8,-1.1,M,-32.5,M,,*71
$PYRTM,2024,124.168515942431,15.278163352569
$GPGGA,040238.00,3506.9861,N,12133.6881,W,1,09,0.8,-1.4,M,-32.5,M,,*70
$PYRTM,2024,124.168527529595,15.278174939734
$GPGGA,040239.00,3506.9868,N,12133.6885,W,1,09,0.8,-2.2,M,-32.5,M,,*79
$PYRTM,2024,124.168537718090,15.278185128229
$GPGGA,040240.00,3506.9879,N,12133.6891,W,1,09,0.8,-2.8,M,-32.5,M,,*78
$PYRTM,2024,124.168549506181,15.278196916319
$GPGGA,040241.00,3506.9891,N,12133.6896,W,1,09,0.8,-3.2,M,-32.5,M,,*73
$PYRTM,2024,124.168562239641,15.278209649780
$GPGGA,040242.00,3506.9901,N,12133.6903,W,1,09,0.8,-3.6,M,-32.5,M,,*71
$PYRTM,2024,124.168573826285,15.278221236424
$GPGGA,040243.00,3506.9906,N,12133.6907,W,1,09,0.8,-4.0,M,-32.5,M,,*72
$PYRTM,2024,124.168585388299,15.278232798438
$GPGGA,040244.00,3506.9914,N,12133.6911,W,1,09,0.8,-3.8,M,-32.5,M,,*7E
$PYRTM,2024,124.168596979016,15.278244389155
$GPGGA,040245.00,3506.9924,N,12133.6915,W,1,09,0.8,-3.8,M,-32.5,M,,*78
$PYRTM,2024,124.168608535856,15.278255945995
$GPGGA,040246.00,3506.9934,N,12133.6919,W,1,09,0.8,-4.1,M,-32.5,M,,*78
$PYRTM,2024,124.168620126134,15.278267536273
$GPGGA,040247.00,3506.9941,N,12133.6922,W,1,09,0.8,-5.1,M,-32.5,M,,*72
$PYRTM,2024,124.168631683414,15.278279093553
$GPGGA,040248.00,3506.9948,N,12133.6931,W,1,09,0.8,-5.8,M,-32.5,M,,*7F
$PYRTM,2024,124.168643272072,15.278290682211
$GPGGA,040249.00,3506.9959,N,12133.6942,W,1,09,0.8,-6.8,M,-32.5,M,,*79
$PYRTM,2024,124.168654833646,15.278302243785
$GPGGA,040250.00,3506.9969,N,12133.6949,W,1,09,0.8,-7.0,M,-32.5,M,,*70
$PYRTM,2024,124.168666418819,15.278313828958
$GPGGA,040251.00,3506.9975,N,12133.6951,W,1,09,0.8,-6.5,M,-32.5,M,,*71
$PYRTM,2024,124.168677981516,15.278325391655
$GPGGA,040252.00,3506.9982,N,12133.6951,W,1,09,0.8,-5.8,M,-32.5,M,,*74
$PYRTM,2024,124.168689567384,15.278336977523
$GPGGA,040253.00,3506.9990,N,12133.6956,W,1,09,0.8,-4.3,M,-32.5,M,,*7B
$PYRTM,2024,124.168701131551,15.278348541690
$GPGGA,040254.00,3506.9997,N,12133.6966,W,1,09,0.8,-3.4,M,-32.5,M,,*78
$PYRTM,2024,124.168712719155,15.278360129306
$GPGGA,040255.00,3507.0002,N,12133.6974,W,1,09,0.8,-3.4,M,-32.5,M,,*77
$PYRTM,2024,124.168724276632,15.278371686771
$GPGGA,040256.00,3507.0011,N,12133.6978,W,1,09,0.8,-6.6,M,-32.5,M,,*7D
$PYRTM,2024,124.168735866065,15.278383276204
$GPGGA,040257.00,3507.0023,N,12133.6980,W,1,09,0.8,-4.3,M,-32.5,M,,*7D
$PYRTM,2024,124.168747426597,15.278394836748
$GPGGA,040258.00,3507.0033,N,12133.6981,W,1,09,0.8,-2.5,M,-32.5,M,,*72
$PYRTM,2024,124.168759016053,15.278406426192
$GPGGA,040259.00,3507.0040,N,12133.6985,W,1,09,0.8,-2.8,M,-32.5,M,,*7E
$PYRTM,2024,124.168770573993,15.278417984144
$GPGGA,040300.00,3507.0048,N,12133.6992,W,1,09,0.8,-5.0,M,-32.5,M,,*72
$PYRTM,2024,124.168782163495,15.278429573634
$GPGGA,040301.00,3507.0058,N,12133.7000,W,1,09,0.8,-2.6,M,-32.5,M,,*70
$PYRTM,2024,124.168793724965,15.278441135104
$GPGGA,040302.00,3507.0067,N,12133.7005,W,1,09,0.8,-4.5,M,-32.5,M,,*7F
$PYRTM,2024,124.168805313333,15.278452723472
$GPGGA,040303.00,3507.0075,N,12133.7003,W,1,09,0.8,-4.4,M,-32.5,M,,*7A
$PYRTM,2024,124.168816870000,15.278464280127
$GPGGA,040304.00,3507.0085,N,12133.7004,W,1,09,0.8,-3.4,M,-32.5,M,,*72
$PYRTM,2024,124.168828457396,15.278475867535
$GPGGA,040305.00,3507.0096,N,12133.7009,W,1,09,0.8,-4.7,M,-32.5,M,,*78
$PYRTM,2024,124.168840019225,15.278487429363
$GPGGA,040306.00,3507.0106,N,12133.7018,W,1,09,0.8,-5.9,M,-32.5,M,,*7C
$PYRTM,2024,124.168851606875,15.278499017014
$GPGGA,040307.00,3507.0117,N,12133.7027,W,1,09,0.8,-6.3,M,-32.5,M,,*78
$PYRTM,2024,124.168863169537,15.278510579676
$GPGGA,040308.00,3507.0127,N,12133.7029,W,1,09,0.8,-5.8,M,-32.5,M,,*72
$PYRTM,2024,124.168874754155,15.278522164294
$GPGGA,040309.00,3507.0136,N,12133.7024,W,1,09,0.8,-1.0,M,-32.5,M,,*72
$PYRTM,2024,124.168884939757,15.278532349896
$GPGGA,040310.00,3507.0145,N,12133.7019,W,1,09,0.8,-5.9,M,-32.5,M,,*7D
$PYRTM,2024,124.168896731528,15.278544141667
$GPGGA,040311.00,3507.0157,N,12133.7022,W,1,09,0.8,-2.8,M,-32.5,M,,*71
$PYRTM,2024,124.168909464317,15.278556874456
$GPGGA,040312.00,3507.0168,N,12133.7032,W,1,09,0.8,-2.6,M,-32.5,M,,*71
$PYRTM,2024,124.168921053877,15.278568464016
$GPGGA,040313.00,3507.0173,N,12133.7039,W,1,09,0.8,-2.6,M,-32.5,M,,*71
$PYRTM,2024,124.168932612546,15.278580022685
$GPGGA,040314.00,3507.0175,N,12133.7036,W,1,09,0.8,-2.3,M,-32.5,M,,*7A
$PYRTM,2024,124.168944201829,15.278591611968
$GPGGA,040315.00,3507.0186,N,12133.7030,W,1,09,0.8,-3.3,M,-32.5,M,,*70
$PYRTM,2024,124.168955761690,15.278603171829
$GPGGA,040316.00,3507.0200,N,12133.7028,W,1,09,0.8,-2.4,M,-32.5,M,,*71
$PYRTM,2024,124.168967349850,15.278614759988
$GPGGA,040317.00,3507.0210,N,12133.7034,W,1,09,0.8,-2.5,M,-32.5,M,,*7D
$PYRTM,2024,124.168978908623,15.278626318762
$GPGGA,040318.00,3507.0215,N,12133.7048,W,1,09,0.8,-2.8,M,-32.5,M,,*71
$PYRTM,2024,124.168990495139,15.278637905278
$GPGGA,040319.00,3507.0221,N,12133.7057,W,1,09,0.8,-3.4,M,-32.5,M,,*74
$PYRTM,2024,124.169002062025,15.278649472164
$GPGGA,040320.00,3507.0230,N,12133.7057,W,1,09,0.8,-4.2,M,-32.5,M,,*7F
$PYRTM,2024,124.169013639248,15.278661049387
$GPGGA,040321.00,3507.0242,N,12133.7052,W,1,09,0.8,-4.3,M,-32.5,M,,*7F
$PYRTM,2024,124.169025205822,15.278672615961
$GPGGA,040322.00,3507.0252,N,12133.7051,W,1,09,0.8,-4.3,M,-32.5,M,,*7E
$PYRTM,2024,124.169036786921,15.278684197060
$GPGGA,040323.00,3507.0260,N,12133.7058,W,1,09,0.8,-4.8,M,-32.5,M,,*7C
$PYRTM,2024,124.169048354074,15.278695764213
$GPGGA,040324.00,3507.0267,N,12133.7069,W,1,09,0.8,-4.8,M,-32.5,M,,*7E
$PYRTM,2024,124.169059941134,15.278707351273
$GPGGA,040325.00,3507.0275,N,12133.7079,W,1,09,0.8,-5.0,M,-32.5,M,,*74
$PYRTM,2024,124.169071501898,15.278718912037
$GPGGA,040326.00,3507.0284,N,12133.7082,W,1,09,0.8,-5.3,M,-32.5,M,,*7E
$PYRTM,2024,124.169083077917,15.278730488056
$GPGGA,040327.00,3507.0293,N,12133.7076,W,1,09,0.8,-5.5,M,-32.5,M,,*74
$PYRTM,2024,124.169094650509,15.278742060648
$GPGGA,040328.00,3507.0303,N,12133.7072,W,1,09,0.8,-5.4,M,-32.5,M,,*76
$PYRTM,2024,124.169106240891,15.278753651030
$GPGGA,040329.00,3507.0314,N,12133.7080,W,1,09,0.8,-6.0,M,-32.5,M,,*7B
$PYRTM,2024,124.169117799884,15.278765210023
$GPGGA,040330.00,3507.0323,N,12133.7093,W,1,09,0.8,-6.5,M,-32.5,M,,*70
$PYRTM,2024,124.169129388889,15.278776799028
$GPGGA,040331.00,3507.0330,N,12133.7100,W,1,09,0.8,-6.5,M,-32.5,M,,*78
$PYRTM,2024,124.169140946574,15.278788356713
$GPGGA,040332.00,3507.0337,N,12133.7099,W,1,09,0.8,-6.5,M,-32.5,M,,*7D
$PYRTM,2024,124.169152533750,15.278799943889
$GPGGA,040333.00,3507.0345,N,12133.7097,W,1,09,0.8,-5.8,M,-32.5,M,,*79
$PYRTM,2024,124.169164096759,15.278811506898
$GPGGA,040334.00,3507.0355,N,12133.7102,W,1,09,0.8,-5.5,M,-32.5,M,,*7F
$PYRTM,2024,124.169175681748,15.278823091887
$GPGGA,040335.00,3507.0363,N,12133.7111,W,1,09,1.0,-5.0,M,-32.5,M,,*75
$PYRTM,2024,124.169187243171,15.278834653310
$GPGGA,040336.00,3507.0369,N,12133.7119,W,1,09,1.0,-3.0,M,-32.5,M,,*72
$PYRTM,2024,124.169198830197,15.278846240336
$GPGGA,040337.00,3507.0379,N,12133.7126,W,1,09,1.0,-3.8,M,-32.5,M,,*76
$PYRTM,2024,124.169210392106,15.278857802245
$GPGGA,040338.00,3507.0390,N,12133.7131,W,1,09,1.0,-4.0,M,-32.5,M,,*77
$PYRTM,2024,124.169221980394,15.278869390532
$GPGGA,040339.00,3507.0400,N,12133.7134,W,1,09,1.0,-2.8,M,-32.5,M,,*73
$PYRTM,2024,124.169232166609,15.278879576748
$GPGGA,040340.00,3507.0410,N,12133.7135,W,1,09,1.0,-1.6,M,-32.5,M,,*70
$PYRTM,2024,124.169243955440,15.278891365579
$GPGGA,040341.00,3507.0421,N,12133.7139,W,1,09,1.0,-3.2,M,-32.5,M,,*79
$PYRTM,2024,124.169256686655,15.278904096794
$GPGGA,040342.00,3507.0430,N,12133.7148,W,1,09,1.0,-4.7,M,-32.5,M,,*7E
$PYRTM,2024,124.169268278009,15.278915688148
$GPGGA,040343.00,3507.0437,N,12133.7158,W,1,09,1.0,-2.5,M,-32.5,M,,*7D
$PYRTM,2024,124.169279836551,15.278927246690
$GPGGA,040344.00,3507.0444,N,12133.7159,W,1,09,1.0,-2.2,M,-32.5,M,,*78
$PYRTM,2024,124.169291437292,15.278938847431
$GPGGA,040345.00,3507.0454,N,12133.7154,W,1,09,1.0,-4.2,M,-32.5,M,,*73
$PYRTM,2024,124.169302984549,15.278950394688
$GPGGA,040346.00,3507.0469,N,12133.7154,W,1,09,1.0,-2.9,M,-32.5,M,,*73
$PYRTM,2024,124.169314558553,15.278961968692
$GPGGA,040347.00,3507.0481,N,12133.7162,W,1,09,1.0,-1.3,M,-32.5,M,,*78
$PYRTM,2024,124.169326133414,15.278973543553
$GPGGA,040348.00,3507.0487,N,12133.7173,W,1,09,1.0,-2.3,M,-32.5,M,,*72
$PYRTM,2024,124.169337710949,15.278985121088
$GPGGA,040349.00,3507.0493,N,12133.7180,W,1,09,1.0,-2.2,M,-32.5,M,,*7B
$PYRTM,2024,124.169349281794,15.278996691933
$GPGGA,040350.00,3507.0503,N,12133.7177,W,1,09,1.0,-5.0,M,-32.5,M,,*76
$PYRTM,2024,124.169360868171,15.279008278310
$GPGGA,040351.00,3507.0514,N,12133.7176,W,1,09,1.0,-2.9,M,-32.5,M,,*7E
$PYRTM,2024,124.169372430440,15.279019840579
$GPGGA,040352.00,3507.0522,N,12133.7184,W,1,09,1.0,-1.7,M,-32.5,M,,*78
$PYRTM,2024,124.169383900926,15.279031311065
$GPGGA,040353.00,3507.0529,N,12133.7196,W,1,09,1.0,2.2,M,-32.5,M,,*5A
$PYRTM,2024,124.169395578299,15.279042988437
$GPGGA,040354.00,3507.0537,N,12133.7206,W,1,09,1.0,-0.3,M,-32.5,M,,*76
$PYRTM,2024,124.169407049190,15.279054459329
$GPGGA,040355.00,3507.0548,N,12133.7208,W,1,09,1.0,0.6,M,-32.5,M,,*59
$PYRTM,2024,124.169418725521,15.279066135660
$GPGGA,040356.00,3507.0562,N,12133.7210,W,1,09,1.0,-0.1,M,-32.5,M,,*71
$PYRTM,2024,124.169430326227,15.279077736366
$GPGGA,040357.00,3507.0572,N,12133.7214,W,1,09,1.0,-4.0,M,-32.5,M,,*70
$PYRTM,2024,124.169441873877,15.279089284016
$GPGGA,040358.00,3507.0579,N,12133.7220,W,1,09,1.0,-2.8,M,-32.5,M,,*7D
$PYRTM,2024,124.169453474942,15.279100885081
$GPGGA,040359.00,3507.0587,N,12133.7225,W,1,09,1.0,-5.0,M,-32.5,M,,*77
$PYRTM,2024,124.169465022581,15.279112432720
$GPGGA,040400.00,3507.0598,N,12133.7231,W,1,09,1.0,-5.0,M,-32.5,M,,*77
$PYRTM,2024,124.169476612106,15.279124022245
$GPGGA,040401.00,3507.0610,N,12133.7233,W,1,09,1.0,-4.1,M,-32.5,M,,*77
$PYRTM,2024,124.169488172523,15.279135582662
$GPGGA,040402.00,3507.0620,N,12133.7231,W,1,09,1.0,-3.4,M,-32.5,M,,*77
$PYRTM,2024,124.169499757419,15.279147167558
$GPGGA,040403.00,3507.0628,N,12133.7233,W,1,09,1.0,-3.4,M,-32.5,M,,*7C
$PYRTM,2024,124.169511318727,15.279158728866
$GPGGA,040404.00,3507.0637,N,12133.7240,W,1,09,1.0,-0.8,M,-32.5,M,,*7E
$PYRTM,2024,124.169521980243,15.279169390382
$GPGGA,040405.00,3507.0646,N,12133.7248,W,1,09,1.0,-0.7,M,-32.5,M,,*7E
$PYRTM,2024,124.169534017535,15.279181427674
$GPGGA,040406.00,3507.0655,N,12133.7254,W,1,09,1.0,-0.8,M,-32.5,M,,*7D
$PYRTM,2024,124.169545020255,15.279192430394
$GPGGA,040407.00,3507.0665,N,12133.7254,W,1,09,1.0,-3.5,M,-32.5,M,,*71
$PYRTM,2024,124.169555764769,15.279203174907
$GPGGA,040408.00,3507.0676,N,12133.7254,W,1,09,1.0,-5.5,M,-32.5,M,,*7A
$PYRTM,2024,124.169566875463,15.279214285602
$GPGGA,040409.00,3507.0687,N,12133.7261,W,1,09,1.0,-5.8,M,-32.5,M,,*7E
$PYRTM,2024,124.169582963067,15.279230373206
$GPGGA,040410.00,3507.0696,N,12133.7271,W,1,09,1.0,-3.8,M,-32.5,M,,*71
$PYRTM,2024,124.169594101701,15.279241511840
$GPGGA,040411.00,3507.0703,N,12133.7274,W,1,09,1.0,-0.2,M,-32.5,M,,*71
$PYRTM,2024,124.169605186736,15.279252596875
$GPGGA,040412.00,3507.0712,N,12133.7274,W,1,09,1.0,-1.0,M,-32.5,M,,*71
$PYRTM,2024,124.169616761968,15.279264172106
$GPGGA,040413.00,3507.0723,N,12133.7276,W,1,09,1.0,-2.6,M,-32.5,M,,*75
$PYRTM,2024,124.169627871088,15.279275281227
$GPGGA,040414.00,3507.0732,N,12133.7285,W,1,09,1.0,-3.4,M,-32.5,M,,*7D
$PYRTM,2024,124.169638994711,15.279286404850
$GPGGA,040415.00,3507.0737,N,12133.7295,W,1,09,1.0,-2.9,M,-32.5,M,,*74
$PYRTM,2024,124.169650208588,15.279297618727
$GPGGA,040416.00,3507.0744,N,12133.7299,W,1,09,1.0,-2.2,M,-32.5,M,,*74
$PYRTM,2024,124.169661796921,15.279309207072
$GPGGA,040417.00,3507.0756,N,12133.7299,W,1,09,1.0,-0.3,M,-32.5,M,,*75
$PYRTM,2024,124.169673356794,15.279320766933
$GPGGA,040418.00,3507.0768,N,12133.7300,W,1,09,1.0,-0.2,M,-32.5,M,,*77
$PYRTM,2024,124.169684944016,15.279332354155
$GPGGA,040419.00,3507.0776,N,12133.7309,W,1,09,1.0,-2.6,M,-32.5,M,,*76
$PYRTM,2024,124.169696505417,15.279343915556
$GPGGA,040420.00,3507.0782,N,12133.7321,W,1,09,1.0,-2.9,M,-32.5,M,,*72
$PYRTM,2024,124.169708092234,15.279355502373
$GPGGA,040421.00,3507.0791,N,12133.7331,W,1,09,1.0,-1.8,M,-32.5,M,,*72
$PYRTM,2024,124.169719653773,15.279367063912
$GPGGA,040422.00,3507.0802,N,12133.7332,W,1,09,1.0,-1.9,M,-32.5,M,,*76
$PYRTM,2024,124.169731243206,15.279378653345
$GPGGA,040423.00,3507.0810,N,12133.7330,W,1,09,1.0,-0.3,M,-32.5,M,,*7D
$PYRTM,2024,124.169742700405,15.279390110544
$GPGGA,040424.00,3507.0816,N,12133.7334,W,1,09,1.0,0.8,M,-32.5,M,,*5E
$PYRTM,2024,124.169754287824,15.279401697963
$GPGGA,040425.00,3507.0824,N,12133.7344,W,1,09,1.0,0.7,M,-32.5,M,,*56
$PYRTM,2024,124.169765847014,15.279413257153
$GPGGA,040426.00,3507.0835,N,12133.7354,W,1,09,1.0,5.0,M,-32.5,M,,*56
$PYRTM,2024,124.169777423519,15.279424833657
$GPGGA,040427.00,3507.0844,N,12133.7357,W,1,09,1.0,4.0,M,-32.5,M,,*53
$PYRTM,2024,124.169787954803,15.279435364942
$GPGGA,040428.00,3507.0850,N,12133.7356,W,1,09,1.0,4.0,M,-32.5,M,,*58
$PYRTM,2024,124.169800572824,15.279447982963
$GPGGA,040429.00,3507.0857,N,12133.7357,W,1,09,1.0,6.0,M,-32.5,M,,*5D
$PYRTM,2024,124.169812145637,15.279459555775
$GPGGA,040430.00,3507.0868,N,12133.7364,W,1,09,1.0,5.0,M,-32.5,M,,*5A
$PYRTM,2024,124.169823719201,15.279471129352
$GPGGA,040431.00,3507.0877,N,12133.7372,W,1,09,1.0,3.7,M,-32.5,M,,*53
$PYRTM,2024,124.169835292072,15.279482702211
$GPGGA,040432.00,3507.0885,N,12133.7378,W,1,09,1.0,4.9,M,-32.5,M,,*5E
$PYRTM,2024,124.169846866447,15.279494276586
$GPGGA,040433.00,3507.0891,N,12133.7382,W,1,09,1.0,1.7,M,-32.5,M,,*54
$PYRTM,2024,124.169857400197,15.279504810336
$GPGGA,040434.00,3507.0899,N,12133.7384,W,1,09,1.0,1.6,M,-32.5,M,,*5C
$PYRTM,2024,124.169870016435,15.279517426574
$GPGGA,040435.00,3507.0912,N,12133.7388,W,1,09,1.0,1.7,M,-32.5,M,,*52
$PYRTM,2024,124.169881589525,15.279528999664
$GPGGA,040436.00,3507.0923,N,12133.7396,W,1,09,1.0,3.5,M,-32.5,M,,*5C
$PYRTM,2024,124.169893278576,15.279540688715
$GPGGA,040437.00,3507.0930,N,12133.7404,W,1,09,1.0,-0.3,M,-32.5,M,,*7B
$PYRTM,2024,124.169904733241,15.279552143391
$GPGGA,040438.00,3507.0934,N,12133.7410,W,1,09,1.0,0.9,M,-32.5,M,,*52
$PYRTM,2024,124.169916325637,15.279563735775
$GPGGA,040439.00,3507.0943,N,12133.7414,W,1,09,0.8,1.9,M,-32.5,M,,*5F
$PYRTM,2024,124.169926613102,15.279574023241
$GPGGA,040440.00,3507.0956,N,12133.7417,W,1,09,1.0,1.1,M,-32.5,M,,*57
$PYRTM,2024,124.169938403310,15.279585813449
$GPGGA,040441.00,3507.0964,N,12133.7420,W,1,09,1.0,1.5,M,-32.5,M,,*57
$PYRTM,2024,124.169949992431,15.279597402558
$GPGGA,040442.00,3507.0968,N,12133.7422,W,1,09,0.8,1.9,M,-32.5,M,,*5F
$PYRTM,2024,124.169962608380,15.279610018519
$GPGGA,040443.00,3507.0974,N,12133.7426,W,1,09,1.0,2.2,M,-32.5,M,,*56
$PYRTM,2024,124.169974182616,15.279621592755
$GPGGA,040444.00,3507.0984,N,12133.7432,W,1,09,0.8,5.6,M,-32.5,M,,*51
$PYRTM,2024,124.169985874722,15.279633284861
$GPGGA,040445.00,3507.0992,N,12133.7438,W,1,09,0.8,5.2,M,-32.5,M,,*59
$PYRTM,2024,124.169997331088,15.279644741227
$GPGGA,040446.00,3507.0994,N,12133.7440,W,1,09,0.8,5.0,M,-32.5,M,,*51
$PYRTM,2024,124.170008907396,15.279656317535
$GPGGA,040447.00,3507.0999,N,12133.7439,W,1,09,0.8,1.6,M,-32.5,M,,*51
$PYRTM,2024,124.170020479329,15.279667889468
$GPGGA,040448.00,3507.1011,N,12133.7439,W,1,09,0.8,1.9,M,-32.5,M,,*59
$PYRTM,2024,124.170032053125,15.279679463264
$GPGGA,040449.00,3507.1022,N,12133.7445,W,1,09,0.8,1.2,M,-32.5,M,,*58
$PYRTM,2024,124.170043628021,15.279691038160
$GPGGA,040450.00,3507.1027,N,12133.7454,W,1,09,0.8,0.2,M,-32.5,M,,*54
$PYRTM,2024,124.170055201574,15.279702611713
$GPGGA,040451.00,3507.1031,N,12133.7461,W,1,09,0.8,0.1,M,-32.5,M,,*57
$PYRTM,2024,124.170066775926,15.279714186065
$GPGGA,040452.00,3507.1039,N,12133.7462,W,1,09,0.8,0.1,M,-32.5,M,,*5F
$PYRTM,2024,124.170078468148,15.279725878287
$GPGGA,040453.00,3507.1050,N,12133.7460,W,1,09,0.8,-0.4,M,-32.5,M,,*7B
$PYRTM,2024,124.170090027836,15.279737437975
$GPGGA,040454.00,3507.1058,N,12133.7462,W,1,09,0.8,-1.0,M,-32.5,M,,*73
$PYRTM,2024,124.170101609132,15.279749019271
$GPGGA,040455.00,3507.1065,N,12133.7472,W,1,09,0.8,-2.9,M,-32.5,M,,*77
$PYRTM,2024,124.170113174988,15.279760585139
$GPGGA,040456.00,3507.1071,N,12133.7483,W,1,09,0.8,-3.2,M,-32.5,M,,*75
$PYRTM,2024,124.170124749861,15.279772160000
$GPGGA,040457.00,3507.1079,N,12133.7490,W,1,09,0.8,-3.7,M,-32.5,M,,*7B
$PYRTM,2024,124.170136323044,15.279783733194
$GPGGA,040458.00,3507.1088,N,12133.7490,W,1,09,0.8,-3.9,M,-32.5,M,,*74
$PYRTM,2024,124.170147914491,15.279795324630
$GPGGA,040459.00,3507.1098,N,12133.7487,W,1,09,0.8,-3.9,M,-32.5,M,,*72
$PYRTM,2024,124.170159470000,15.279806880127
$GPGGA,040500.00,3507.1107,N,12133.7491,W,1,09,0.8,-3.5,M,-32.5,M,,*73
$PYRTM,2024,124.170171061829,15.279818471968
$GPGGA,040501.00,3507.1115,N,12133.7503,W,1,09,0.8,-3.9,M,-32.5,M,,*77
$PYRTM,2024,124.170182619907,15.279830030058
$GPGGA,040502.00,3507.1122,N,12133.7515,W,1,09,0.8,-3.6,M,-32.5,M,,*78
$PYRTM,2024,124.170194207188,15.279841617338
$GPGGA,040503.00,3507.1129,N,12133.7518,W,1,09,0.8,-3.3,M,-32.5,M,,*7A
$PYRTM,2024,124.170205768958,15.279853179109
$GPGGA,040504.00,3507.1137,N,12133.7514,W,1,09,0.8,-2.8,M,-32.5,M,,*74
$PYRTM,2024,124.170217350081,15.279864760220
$GPGGA,040505.00,3507.1149,N,12133.7514,W,1,09,0.8,-2.7,M,-32.5,M,,*73
$PYRTM,2024,124.170228916238,15.279876326377
$GPGGA,040506.00,3507.1158,N,12133.7523,W,1,09,0.8,-3.1,M,-32.5,M,,*73
$PYRTM,2024,124.170240507014,15.279887917153
$GPGGA,040507.00,3507.1163,N,12133.7536,W,1,09,0.8,-3.2,M,-32.5,M,,*7D
$PYRTM,2024,124.170252066817,15.279899476956
$GPGGA,040508.00,3507.1170,N,12133.7542,W,1,09,0.8,-4.7,M,-32.5,M,,*71
$PYRTM,2024,124.170263653079,15.279911063218
$GPGGA,040509.00,3507.1180,N,12133.7542,W,1,09,0.8,-5.8,M,-32.5,M,,*71
$PYRTM,2024,124.170273837257,15.279921247396
$GPGGA,040510.00,3507.1189,N,12133.7544,W,1,09,0.8,-7.3,M,-32.5,M,,*7F
$PYRTM,2024,124.170285628333,15.279933038472
$GPGGA,040511.00,3507.1197,N,12133.7551,W,1,09,0.8,-7.5,M,-32.5,M,,*73
$PYRTM,2024,124.170298361759,15.279945771898
$GPGGA,040512.00,3507.1205,N,12133.7559,W,1,09,0.8,-4.3,M,-32.5,M,,*75
$PYRTM,2024,124.170309948831,15.279957358970
$GPGGA,040513.00,3507.1215,N,12133.7563,W,1,09,0.8,-3.3,M,-32.5,M,,*7B
$PYRTM,2024,124.170321510590,15.279968920741
$GPGGA,040514.00,3507.1226,N,12133.7564,W,1,09,0.8,-3.9,M,-32.5,M,,*71
$PYRTM,2024,124.170333099734,15.279980509873
$GPGGA,040515.00,3507.1237,N,12133.7568,W,1,09,0.8,-4.0,M,-32.5,M,,*72
$PYRTM,2024,124.170344658241,15.279992068380
$GPGGA,040516.00,3507.1245,N,12133.7572,W,1,09,0.8,-6.7,M,-32.5,M,,*7A
$PYRTM,2024,124.170356245208,15.280003655359
$GPGGA,040517.00,3507.1252,N,12133.7574,W,1,09,0.8,-6.5,M,-32.5,M,,*79
$PYRTM,2024,124.170367806458,15.280015216597
$GPGGA,040518.00,3507.1261,N,12133.7577,W,1,09,0.8,-6.5,M,-32.5,M,,*75
$PYRTM,2024,124.170379381215,15.280026791354
$GPGGA,040519.00,3507.1272,N,12133.7584,W,1,09,0.8,-6.5,M,-32.5,M,,*7A
$PYRTM,2024,124.170390954201,15.280038364340
$GPGGA,040520.00,3507.1282,N,12133.7595,W,1,09,0.8,-0.7,M,-32.5,M,,*7B
$PYRTM,2024,124.170402541343,15.280049951481
$GPGGA,040521.00,3507.1291,N,12133.7601,W,1,09,0.8,-1.1,M,-32.5,M,,*71
$PYRTM,2024,124.170414103657,15.280061513796
$GPGGA,040522.00,3507.1301,N,12133.7599,W,1,09,0.8,-2.1,M,-32.5,M,,*7B
$PYRTM,2024,124.170425690683,15.280073100822
$GPGGA,040523.00,3507.1313,N,12133.7599,W,1,09,0.8,-2.6,M,-32.5,M,,*7E
$PYRTM,2024,124.170437251875,15.280084662014
$GPGGA,040524.00,3507.1327,N,12133.7607,W,1,09,0.8,-3.6,M,-32.5,M,,*7B
$PYRTM,2024,124.170448838900,15.280096249039
$GPGGA,040525.00,3507.1338,N,12133.7619,W,1,09,0.8,-3.6,M,-32.5,M,,*7B
$PYRTM,2024,124.170460399583,15.280107809722
$GPGGA,040526.00,3507.1346,N,12133.7625,W,1,09,0.8,-3.8,M,-32.5,M,,*70
$PYRTM,2024,124.170472000463,15.280119410602
$GPGGA,040527.00,3507.1356,N,12133.7624,W,1,09,0.8,-3.7,M,-32.5,M,,*7E
$PYRTM,2024,124.170483548484,15.280130958623
$GPGGA,040528.00,3507.1370,N,12133.7620,W,1,09,0.8,-3.5,M,-32.5,M,,*73
$PYRTM,2024,124.170495150174,15.280142560313
$GPGGA,040529.00,3507.1384,N,12133.7621,W,1,09,0.8,-3.1,M,-32.5,M,,*7C
$PYRTM,2024,124.170506695752,15.280154105891
$GPGGA,040530.00,3507.1394,N,12133.7630,W,1,09,0.8,-3.2,M,-32.5,M,,*76
$PYRTM,2024,124.170518288090,15.280165698229
$GPGGA,040531.00,3507.1402,N,12133.7641,W,1,09,0.8,-3.4,M,-32.5,M,,*7F
$PYRTM,2024,124.170529843970,15.280177254109
$GPGGA,040532.00,3507.1413,N,12133.7648,W,1,09,0.8,-3.7,M,-32.5,M,,*76
$PYRTM,2024,124.170541432639,15.280188842778
$GPGGA,040533.00,3507.1423,N,12133.7646,W,1,09,0.8,-3.5,M,-32.5,M,,*78
$PYRTM,2024,124.170552993090,15.280200403229
$GPGGA,040534.00,3507.1434,N,12133.7642,W,1,09,0.8,-3.0,M,-32.5,M,,*78
$PYRTM,2024,124.170564580764,15.280211990903
$GPGGA,040535.00,3507.1446,N,12133.7646,W,1,09,0.8,-3.1,M,-32.5,M,,*79
$PYRTM,2024,124.170576141227,15.280223551366
$GPGGA,040536.00,3507.1455,N,12133.7657,W,1,09,0.8,-3.2,M,-32.5,M,,*7B
$PYRTM,2024,124.170587723310,15.280235133461
$GPGGA,040537.00,3507.1463,N,12133.7669,W,1,09,0.8,-2.6,M,-32.5,M,,*77
$PYRTM,2024,124.170599290081,15.280246700220
$GPGGA,040538.00,3507.1472,N,12133.7677,W,1,09,0.8,-2.6,M,-32.5,M,,*77
$PYRTM,2024,124.170610876852,15.280258286991
$GPGGA,040539.00,3507.1482,N,12133.7677,W,1,09,0.8,-2.5,M,-32.5,M,,*7A
$PYRTM,2024,124.170621062928,15.280268473067
$GPGGA,040540.00,3507.1493,N,12133.7677,W,1,09,0.8,-2.6,M,-32.5,M,,*77
$PYRTM,2024,124.170632853160,15.280280263299
$GPGGA,040541.00,3507.1507,N,12133.7684,W,1,09,0.8,-3.5,M,-32.5,M,,*74
$PYRTM,2024,124.170645584456,15.280292994595
$GPGGA,040542.00,3507.1519,N,12133.7694,W,1,09,0.8,-4.5,M,-32.5,M,,*7E
$PYRTM,2024,124.170657176030,15.280304586181
$GPGGA,040543.00,3507.1527,N,12133.7701,W,1,09,0.8,-4.2,M,-32.5,M,,*78
$PYRTM,2024,124.170668734699,15.280316144838
$GPGGA,040544.00,3507.1536,N,12133.7704,W,1,09,0.8,-3.2,M,-32.5,M,,*7D
$PYRTM,2024,124.170680322350,15.280327732488
$GPGGA,040545.00,3507.1549,N,12133.7706,W,1,09,0.8,-4.6,M,-32.5,M,,*75
$PYRTM,2024,124.170691883009,15.280339293148
$GPGGA,040546.00,3507.1566,N,12133.7711,W,1,09,0.8,-7.8,M,-32.5,M,,*70
$PYRTM,2024,124.170703457766,15.280350867905
$GPGGA,040547.00,3507.1579,N,12133.7718,W,1,09,0.8,-7.9,M,-32.5,M,,*77
$PYRTM,2024,124.170715031586,15.280362441725
$GPGGA,040548.00,3507.1585,N,12133.7724,W,1,09,0.8,-8.5,M,-32.5,M,,*77
$PYRTM,2024,124.170726619583,15.280374029722
$GPGGA,040549.00,3507.1591,N,12133.7728,W,1,09,0.8,-8.3,M,-32.5,M,,*79
$PYRTM,2024,124.170738179178,15.280385589317
$GPGGA,040550.00,3507.1602,N,12133.7731,W,1,09,0.8,-8.0,M,-32.5,M,,*73
$PYRTM,2024,124.170749769560,15.280397179699
$GPGGA,040551.00,3507.1616,N,12133.7736,W,1,09,0.8,-8.0,M,-32.5,M,,*70
$PYRTM,2024,124.170761338542,15.280408748692
$GPGGA,040552.00,3507.1626,N,12133.7740,W,1,09,0.8,-7.8,M,-32.5,M,,*76
$PYRTM,2024,124.170772902176,15.280420312315
$GPGGA,040553.00,3507.1632,N,12133.7744,W,1,09,0.8,-8.2,M,-32.5,M,,*73
$PYRTM,2024,124.170784476632,15.280431886771
$GPGGA,040554.00,3507.1639,N,12133.7751,W,1,09,0.8,-7.8,M,-32.5,M,,*7E
$PYRTM,2024,124.170796050475,15.280443460625
$GPGGA,040555.00,3507.1650,N,12133.7757,W,1,09,0.8,-8.0,M,-32.5,M,,*71
$PYRTM,2024,124.170807624873,15.280455035012
$GPGGA,040556.00,3507.1662,N,12133.7763,W,1,09,0.8,-8.6,M,-32.5,M,,*72
$PYRTM,2024,124.170819215567,15.280466625706
$GPGGA,040557.00,3507.1671,N,12133.7768,W,1,09,0.8,-7.6,M,-32.5,M,,*75
$PYRTM,2024,124.170830773484,15.280478183634
$GPGGA,040558.00,3507.1678,N,12133.7770,W,1,09,0.8,-6.5,M,-32.5,M,,*78
$PYRTM,2024,124.170842362546,15.280489772685
$GPGGA,040559.00,3507.1688,N,12133.7776,W,1,09,0.8,-6.2,M,-32.5,M,,*77
$PYRTM,2024,124.170853919861,15.280501330000
$GPGGA,040600.00,3507.1699,N,12133.7784,W,1,09,0.8,-6.7,M,-32.5,M,,*70
$PYRTM,2024,124.170865507500,15.280512917639
$GPGGA,040601.00,3507.1708,N,12133.7791,W,1,09,0.8,-6.8,M,-32.5,M,,*73
$PYRTM,2024,124.170877070162,15.280524480301
$GPGGA,040602.00,3507.1714,N,12133.7792,W,1,09,0.8,-6.8,M,-32.5,M,,*7E
$PYRTM,2024,124.170888656169,15.280536066319
$GPGGA,040603.00,3507.1722,N,12133.7791,W,1,09,0.8,-6.2,M,-32.5,M,,*73
$PYRTM,2024,124.170900218009,15.280547628148
$GPGGA,040604.00,3507.1735,N,12133.7796,W,1,09,0.8,-6.6,M,-32.5,M,,*71
$PYRTM,2024,124.170911804155,15.280559214294
$GPGGA,040605.00,3507.1745,N,12133.7805,W,1,09,0.8,-6.3,M,-32.5,M,,*77
$PYRTM,2024,124.170923367419,15.280570777569
$GPGGA,040606.00,3507.1751,N,12133.7809,W,1,09,0.8,-6.5,M,-32.5,M,,*7B
$PYRTM,2024,124.170934952454,15.280582362593
$GPGGA,040607.00,3507.1759,N,12133.7809,W,1,09,0.8,-5.8,M,-32.5,M,,*7C
$PYRTM,2024,124.170946514444,15.280593924583
$GPGGA,040608.00,3507.1773,N,12133.7812,W,1,09,0.8,-6.8,M,-32.5,M,,*72
$PYRTM,2024,124.170958116424,15.280605526563
$GPGGA,040609.00,3507.1786,N,12133.7816,W,1,09,0.8,-7.2,M,-32.5,M,,*76
$PYRTM,2024,124.170967360174,15.280614770324
$GPGGA,040610.00,3507.1794,N,12133.7818,W,1,09,0.8,-8.7,M,-32.5,M,,*79
$PYRTM,2024,124.170980443287,15.280627853426
$GPGGA,040611.00,3507.1803,N,12133.7821,W,1,09,0.8,-6.3,M,-32.5,M,,*79
$PYRTM,2024,124.170992471632,15.280639881771
$GPGGA,040612.00,3507.1816,N,12133.7825,W,1,09,1.0,-7.3,M,-32.5,M,,*72
$PYRTM,2024,124.171004037072,15.280651447211
$GPGGA,040613.00,3507.1828,N,12133.7831,W,1,09,1.0,-10.0,M,-32.5,M,,*4E
$PYRTM,2024,124.171015148079,15.280662558218
$GPGGA,040614.00,3507.1837,N,12133.7835,W,1,09,1.0,-8.6,M,-32.5,M,,*7C
$PYRTM,2024,124.171026258588,15.280673668727
$GPGGA,040615.00,3507.1847,N,12133.7836,W,1,09,1.0,-8.2,M,-32.5,M,,*7D
$PYRTM,2024,124.171037372546,15.280684782685
$GPGGA,040616.00,3507.1857,N,12133.7840,W,1,09,1.0,-5.3,M,-32.5,M,,*72
$PYRTM,2024,124.171048483692,15.280695893843
$GPGGA,040617.00,3507.1867,N,12133.7847,W,1,09,1.0,-5.3,M,-32.5,M,,*77
$PYRTM,2024,124.171059593819,15.280707003958
$GPGGA,040618.00,3507.1876,N,12133.7855,W,1,09,1.0,-4.8,M,-32.5,M,,*71
$PYRTM,2024,124.171070704306,15.280718114456
$GPGGA,040619.00,3507.1886,N,12133.7861,W,1,09,1.0,-8.0,M,-32.5,M,,*7C
$PYRTM,2024,124.171081815220,15.280729225359
$GPGGA,040620.00,3507.1896,N,12133.7864,W,1,09,1.0,-9.3,M,-32.5,M,,*70
$PYRTM,2024,124.171092928507,15.280740338646
$GPGGA,040621.00,3507.1908,N,12133.7866,W,1,09,1.0,-6.1,M,-32.5,M,,*78
$PYRTM,2024,124.171104037975,15.280751448113
$GPGGA,040622.00,3507.1917,N,12133.7869,W,1,09,1.0,-2.5,M,-32.5,M,,*7A
$PYRTM,2024,124.171115150324,15.280762560463
$GPGGA,040623.00,3507.1926,N,12133.7874,W,1,09,1.0,0.0,M,-32.5,M,,*5F
$PYRTM,2024,124.171126375880,15.280773786019
$GPGGA,040624.00,3507.1937,N,12133.7880,W,1,09,0.8,-1.6,M,-32.5,M,,*70
$PYRTM,2024,124.171137968947,15.280785379097
$GPGGA,040625.00,3507.1947,N,12133.7885,W,1,09,0.8,-2.6,M,-32.5,M,,*70
$PYRTM,2024,124.171149525197,15.280796935347
$GPGGA,040626.00,3507.1957,N,12133.7889,W,1,09,0.8,-4.1,M,-32.5,M,,*7F
$PYRTM,2024,124.171161116019,15.280808526157
$GPGGA,040627.00,3507.1967,N,12133.7891,W,1,09,0.8,-3.9,M,-32.5,M,,*7B
$PYRTM,2024,124.171172674329,15.280820084468
$GPGGA,040628.00,3507.1976,N,12133.7895,W,1,09,0.8,-4.9,M,-32.5,M,,*77
$PYRTM,2024,124.171184262280,15.280831672419
$GPGGA,040629.00,3507.1985,N,12133.7900,W,1,09,0.8,-4.8,M,-32.5,M,,*76
$PYRTM,2024,124.171195821435,15.280843231574
$GPGGA,040630.00,3507.1996,N,12133.7907,W,1,09,0.8,-5.7,M,-32.5,M,,*75
$PYRTM,2024,124.171207411863,15.280854822002
$GPGGA,040631.00,3507.2008,N,12133.7914,W,1,09,0.8,-5.5,M,-32.5,M,,*79
$PYRTM,2024,124.171218969757,15.280866379896
$GPGGA,040632.00,3507.2019,N,12133.7923,W,1,09,0.8,-6.1,M,-32.5,M,,*79
$PYRTM,2024,124.171230560729,15.280877970868
$GPGGA,040633.00,3507.2027,N,12133.7931,W,1,09,0.8,-8.2,M,-32.5,M,,*7B
$PYRTM,2024,124.171242118576,15.280889528715
$GPGGA,040634.00,3507.2032,N,12133.7934,W,1,09,1.0,-7.3,M,-32.5,M,,*7A
$PYRTM,2024,124.171253708727,15.280901118866
$GPGGA,040635.00,3507.2040,N,12133.7933,W,1,09,0.8,-2.4,M,-32.5,M,,*72
$PYRTM,2024,124.171265266192,15.280912676331
$GPGGA,040636.00,3507.2054,N,12133.7938,W,1,09,0.8,-4.0,M,-32.5,M,,*7D
$PYRTM,2024,124.171276856215,15.280924266354
$GPGGA,040637.00,3507.2065,N,12133.7947,W,1,09,1.0,-4.7,M,-32.5,M,,*78
$PYRTM,2024,124.171288415556,15.280935825694
$GPGGA,040638.00,3507.2072,N,12133.7953,W,1,09,1.0,-4.7,M,-32.5,M,,*74
$PYRTM,2024,124.171300004225,15.280947414363
$GPGGA,040639.00,3507.2077,N,12133.7955,W,1,09,1.0,-4.7,M,-32.5,M,,*76
$PYRTM,2024,124.171316886771,15.280964296910
$GPGGA,040640.00,3507.2086,N,12133.7955,W,1,09,1.0,-5.6,M,-32.5,M,,*76
$PYRTM,2024,124.171328478472,15.280975888611
$GPGGA,040641.00,3507.2101,N,12133.7959,W,1,09,1.0,-2.3,M,-32.5,M,,*77
$PYRTM,2024,124.171340033715,15.280987443854
$GPGGA,040642.00,3507.2115,N,12133.7965,W,1,09,1.0,-2.7,M,-32.5,M,,*7A
$PYRTM,2024,124.171351622361,15.280999032500
$GPGGA,040643.00,3507.2123,N,12133.7969,W,1,09,1.0,-1.9,M,-32.5,M,,*7F
$PYRTM,2024,124.171363182986,15.281010593125
$GPGGA,040644.00,3507.2130,N,12133.7973,W,1,09,1.0,-0.9,M,-32.5,M,,*70
$PYRTM,2024,124.171374769803,15.281022179954
$GPGGA,040645.00,3507.2139,N,12133.7979,W,1,09,1.0,-1.1,M,-32.5,M,,*7B
$PYRTM,2024,124.171386331736,15.281033741875
$GPGGA,040646.00,3507.2150,N,12133.7983,W,1,09,1.0,-1.5,M,-32.5,M,,*76
$PYRTM,2024,124.171397904630,15.281045314769
$GPGGA,040647.00,3507.2161,N,12133.7984,W,1,09,1.0,-2.3,M,-32.5,M,,*77
$PYRTM,2024,124.171409479572,15.281056889711
$GPGGA,040648.00,3507.2172,N,12133.7987,W,1,09,1.0,-3.2,M,-32.5,M,,*79
$PYRTM,2024,124.171419895949,15.281067306088
$GPGGA,040649.00,3507.2185,N,12133.7996,W,1,09,1.0,-3.4,M,-32.5,M,,*76
$PYRTM,2024,124.171432627187,15.281080037326
$GPGGA,040650.00,3507.2195,N,12133.8004,W,1,09,1.0,-3.3,M,-32.5,M,,*75
$PYRTM,2024,124.171444215359,15.281091625498
$GPGGA,040651.00,3507.2204,N,12133.8008,W,1,09,1.0,-2.5,M,-32.5,M,,*74
$PYRTM,2024,124.171455775567,15.281103185706
$GPGGA,040652.00,3507.2215,N,12133.8008,W,1,09,1.0,-1.2,M,-32.5,M,,*73
$PYRTM,2024,124.171467363368,15.281114773507
$GPGGA,040653.00,3507.2227,N,12133.8013,W,1,09,1.0,-1.6,M,-32.5,M,,*7D
$PYRTM,2024,124.171478922847,15.281126332986
$GPGGA,040654.00,3507.2238,N,12133.8022,W,1,09,1.0,-2.2,M,-32.5,M,,*71
$PYRTM,2024,124.171489340995,15.281136751134
$GPGGA,040655.00,3507.2245,N,12133.8034,W,1,09,1.0,-2.9,M,-32.5,M,,*76
$PYRTM,2024,124.171502074005,15.281149484144
$GPGGA,040656.00,3507.2256,N,12133.8042,W,1,09,1.0,-2.9,M,-32.5,M,,*76
$PYRTM,2024,124.171513662674,15.281161072813
$GPGGA,040657.00,3507.2269,N,12133.8045,W,1,09,1.0,-2.4,M,-32.5,M,,*71
$PYRTM,2024,124.171525221065,15.281172631215
$GPGGA,040658.00,3507.2280,N,12133.8047,W,1,09,1.0,-2.4,M,-32.5,M,,*7B
$PYRTM,2024,124.171536808681,15.281184218819
$GPGGA,040659.00,3507.2289,N,12133.8055,W,1,09,1.0,-3.6,M,-32.5,M,,*73
$PYRTM,2024,124.171548369028,15.281195779167
$GPGGA,040700.00,3507.2299,N,12133.8068,W,1,09,1.0,-4.6,M,-32.5,M,,*76
$PYRTM,2024,124.171559956875,15.281207367014
$GPGGA,040701.00,3507.2310,N,12133.8079,W,1,09,1.0,-4.9,M,-32.5,M,,*78
$PYRTM,2024,124.171571518495,15.281218928646
$GPGGA,040702.00,3507.2320,N,12133.8082,W,1,09,1.0,-4.6,M,-32.5,M,,*73
$PYRTM,2024,124.171583104294,15.281230514433
$GPGGA,040703.00,3507.2330,N,12133.8080,W,1,09,1.0,-3.1,M,-32.5,M,,*71
$PYRTM,2024,124.171594667350,15.281242077500
$GPGGA,040704.00,3507.2342,N,12133.8082,W,1,09,1.0,-2.8,M,-32.5,M,,*79
$PYRTM,2024,124.171606252581,15.281253662720
$GPGGA,040705.00,3507.2355,N,12133.8090,W,1,09,1.0,-4.7,M,-32.5,M,,*74
$PYRTM,2024,124.171617814850,15.281265224988
$GPGGA,040706.00,3507.2365,N,12133.8099,W,1,09,1.0,-5.8,M,-32.5,M,,*73
$PYRTM,2024,124.171629404884,15.281276815023
$GPGGA,040707.00,3507.2369,N,12133.8103,W,1,09,1.0,-6.1,M,-32.5,M,,*76
$PYRTM,2024,124.171640963241,15.281288373391
$GPGGA,040708.00,3507.2373,N,12133.8102,W,1,09,1.0,-6.0,M,-32.5,M,,*72
$PYRTM,2024,124.171652553090,15.281299963229
$GPGGA,040709.00,3507.2385,N,12133.8104,W,1,09,1.0,-4.6,M,-32.5,M,,*78
$PYRTM,2024,124.171662735347,15.281310145486
$GPGGA,040710.00,3507.2398,N,12133.8110,W,1,09,1.0,-4.4,M,-32.5,M,,*7B
$PYRTM,2024,124.171674526944,15.281321937083
$GPGGA,040711.00,3507.2404,N,12133.8117,W,1,09,1.0,-4.4,M,-32.5,M,,*7F
$PYRTM,2024,124.171687261065,15.281334671215
$GPGGA,040712.00,3507.2408,N,12133.8122,W,1,09,1.0,-4.1,M,-32.5,M,,*73
$PYRTM,2024,124.171698847442,15.281346257581
$GPGGA,040713.00,3507.2417,N,12133.8127,W,1,09,1.0,-3.7,M,-32.5,M,,*78
$PYRTM,2024,124.171710406979,15.281357817118
$GPGGA,040714.00,3507.2426,N,12133.8133,W,1,09,1.0,-3.3,M,-32.5,M,,*7C
$PYRTM,2024,124.171721995833,15.281369405984
$GPGGA,040715.00,3507.2432,N,12133.8138,W,1,09,1.0,-3.4,M,-32.5,M,,*74
$PYRTM,2024,124.171733557326,15.281380967465
$GPGGA,040716.00,3507.2439,N,12133.8143,W,1,09,1.0,-3.4,M,-32.5,M,,*70
$PYRTM,2024,124.171745142940,15.281392553079
$GPGGA,040717.00,3507.2447,N,12133.8147,W,1,09,1.0,-1.8,M,-32.5,M,,*72
$PYRTM,2024,124.171756703924,15.281404114062
$GPGGA,040718.00,3507.2454,N,12133.8149,W,1,09,1.0,-0.6,M,-32.5,M,,*7E
$PYRTM,2024,124.171768293692,15.281415703831
$GPGGA,040719.00,3507.2461,N,12133.8156,W,1,09,1.0,-0.5,M,-32.5,M,,*74
$PYRTM,2024,124.171779852095,15.281427262245
$GPGGA,040720.00,3507.2469,N,12133.8165,W,1,09,1.0,-1.3,M,-32.5,M,,*71
$PYRTM,2024,124.171791438924,15.281438849062
$GPGGA,040721.00,3507.2477,N,12133.8175,W,1,09,1.0,-2.7,M,-32.5,M,,*79
$PYRTM,2024,124.171803001227,15.281450411366
$GPGGA,040722.00,3507.2483,N,12133.8180,W,1,09,1.0,-2.7,M,-32.5,M,,*7B
$PYRTM,2024,124.171814591771,15.281462001910
$GPGGA,040723.00,3507.2493,N,12133.8179,W,1,09,1.0,-3.1,M,-32.5,M,,*7A
$PYRTM,2024,124.171826151076,15.281473561215
$GPGGA,040724.00,3507.2505,N,12133.8181,W,1,09,1.0,-2.3,M,-32.5,M,,*77
$PYRTM,2024,124.171837735104,15.281485145243
$GPGGA,040725.00,3507.2516,N,12133.8188,W,1,09,1.0,-3.3,M,-32.5,M,,*7C
$PYRTM,2024,124.171849297488,15.281496707627
$GPGGA,040726.00,3507.2523,N,12133.8197,W,1,09,1.0,-4.3,M,-32.5,M,,*70
$PYRTM,2024,124.171860884086,15.281508294225
$GPGGA,040727.00,3507.2533,N,12133.8205,W,1,09,1.0,-5.1,M,-32.5,M,,*7B
$PYRTM,2024,124.171872447326,15.281519857465
$GPGGA,040728.00,3507.2545,N,12133.8210,W,1,09,1.0,-6.2,M,-32.5,M,,*71
$PYRTM,2024,124.171884033831,15.281531443970
$GPGGA,040729.00,3507.2557,N,12133.8211,W,1,09,1.0,-6.0,M,-32.5,M,,*70
$PYRTM,2024,124.171895594583,15.281543004722
$GPGGA,040730.00,3507.2567,N,12133.8213,W,1,09,1.0,-9.0,M,-32.5,M,,*76
$PYRTM,2024,124.171907181505,15.281554591644
$GPGGA,040731.00,3507.2577,N,12133.8216,W,1,09,1.0,-4.7,M,-32.5,M,,*79
$PYRTM,2024,124.171918743160,15.281566153299
$GPGGA,040732.00,3507.2589,N,12133.8222,W,1,09,1.0,-4.7,M,-32.5,M,,*7C
$PYRTM,2024,124.171930318623,15.281577728762
$GPGGA,040733.00,3507.2598,N,12133.8231,W,1,09,1.0,-4.4,M,-32.5,M,,*7C
$PYRTM,2024,124.171941891609,15.281589301759
$GPGGA,040734.00,3507.2607,N,12133.8239,W,1,09,1.0,-3.4,M,-32.5,M,,*71
$PYRTM,2024,124.171953473299,15.281600883438
$GPGGA,040735.00,3507.2615,N,12133.8244,W,1,09,1.0,-4.1,M,-32.5,M,,*7B
$PYRTM,2024,124.171965039190,15.281612449329
$GPGGA,040736.00,3507.2626,N,12133.8247,W,1,09,1.0,-1.1,M,-32.5,M,,*7E
$PYRTM,2024,124.171976626898,15.281624037049
$GPGGA,040737.00,3507.2638,N,12133.8254,W,1,09,1.0,-3.0,M,-32.5,M,,*71
$PYRTM,2024,124.171988187801,15.281635597940
$GPGGA,040738.00,3507.2648,N,12133.8261,W,1,09,1.0,-3.7,M,-32.5,M,,*78
$PYRTM,2024,124.171999776829,15.281647186968
$GPGGA,040739.00,3507.2656,N,12133.8263,W,1,09,1.0,-1.7,M,-32.5,M,,*76
$PYRTM,2024,124.172009960069,15.281657370208
$GPGGA,040740.00,3507.2664,N,12133.8264,W,1,09,1.0,-3.0,M,-32.5,M,,*7B
$PYRTM,2024,124.172021750729,15.281669160868
$GPGGA,040741.00,3507.2677,N,12133.8269,W,1,09,1.0,-5.1,M,-32.5,M,,*72
$PYRTM,2024,124.172034483160,15.281681893299
$GPGGA,040742.00,3507.2689,N,12133.8277,W,1,09,1.0,-7.1,M,-32.5,M,,*7D
$PYRTM,2024,124.172046065278,15.281693475417
$GPGGA,040743.00,3507.2697,N,12133.8287,W,1,09,1.0,-5.9,M,-32.5,M,,*76
$PYRTM,2024,124.172057630891,15.281705041030
$GPGGA,040744.00,3507.2704,N,12133.8293,W,1,09,1.0,-5.3,M,-32.5,M,,*75
$PYRTM,2024,124.172069105637,15.281716515775
$GPGGA,040745.00,3507.2716,N,12133.8299,W,1,09,1.0,-6.1,M,-32.5,M,,*7C
$PYRTM,2024,124.172080780475,15.281728190625
$GPGGA,040746.00,3507.2731,N,12133.8305,W,1,09,1.0,-4.4,M,-32.5,M,,*79
$PYRTM,2024,124.172092367245,15.281739777384
$GPGGA,040747.00,3507.2743,N,12133.8311,W,1,09,1.0,-3.7,M,-32.5,M,,*7C
$PYRTM,2024,124.172103929583,15.281751339722
$GPGGA,040748.00,3507.2750,N,12133.8316,W,1,09,1.0,-1.4,M,-32.5,M,,*77
$PYRTM,2024,124.172115399491,15.281762809630
$GPGGA,040749.00,3507.2760,N,12133.8322,W,1,09,1.0,-4.4,M,-32.5,M,,*77
$PYRTM,2024,124.172127077130,15.281774487280
$GPGGA,040750.00,3507.2773,N,12133.8328,W,1,09,1.0,-5.2,M,-32.5,M,,*70
$PYRTM,2024,124.172138666505,15.281786076644
$GPGGA,040751.00,3507.2785,N,12133.8334,W,1,09,1.0,-4.2,M,-32.5,M,,*74
$PYRTM,2024,124.172150227396,15.281797637535
$GPGGA,040752.00,3507.2792,N,12133.8340,W,1,09,1.0,-5.3,M,-32.5,M,,*72
$PYRTM,2024,124.172161812512,15.281809222650
$GPGGA,040753.00,3507.2798,N,12133.8345,W,1,09,1.0,-1.7,M,-32.5,M,,*7C
$PYRTM,2024,124.172173375000,15.281820785139
$GPGGA,040754.00,3507.2805,N,12133.8346,W,1,09,1.0,-1.6,M,-32.5,M,,*72
$PYRTM,2024,124.172184845428,15.281832255567
$GPGGA,040755.00,3507.2817,N,12133.8347,W,1,09,1.0,0.5,M,-32.5,M,,*5E
$PYRTM,2024,124.172196418542,15.281843828681
$GPGGA,040756.00,3507.2828,N,12133.8353,W,1,09,1.0,-0.1,M,-32.5,M,,*7D
$PYRTM,2024,124.172208108808,15.281855518947
$GPGGA,040757.00,3507.2835,N,12133.8363,W,1,09,1.0,-0.9,M,-32.5,M,,*7B
$PYRTM,2024,124.172219669630,15.281867079769
$GPGGA,040758.00,3507.2841,N,12133.8375,W,1,09,1.0,-1.9,M,-32.5,M,,*71
$PYRTM,2024,124.172231252801,15.281878662940
$GPGGA,040759.00,3507.2850,N,12133.8381,W,1,09,1.0,-4.1,M,-32.5,M,,*76
$PYRTM,2024,124.172242714919,15.281890125058
$GPGGA,040800.00,3507.2861,N,12133.8381,W,1,09,1.0,0.3,M,-32.5,M,,*5C
$PYRTM,2024,124.172254290197,15.281901700336
$GPGGA,040801.00,3507.2873,N,12133.8380,W,1,09,1.0,0.2,M,-32.5,M,,*5E
$PYRTM,2024,124.172265857917,15.281913268056
$GPGGA,040802.00,3507.2884,N,12133.8387,W,1,09,1.0,1.5,M,-32.5,M,,*54
$PYRTM,2024,124.172277437812,15.281924847951
$GPGGA,040803.00,3507.2891,N,12133.8400,W,1,09,1.0,-0.5,M,-32.5,M,,*75
$PYRTM,2024,124.172289115313,15.281936525451
$GPGGA,040804.00,3507.2897,N,12133.8413,W,1,09,1.0,-0.9,M,-32.5,M,,*7A
$PYRTM,2024,124.172300718194,15.281948128333
$GPGGA,040805.00,3507.2907,N,12133.8417,W,1,09,1.0,-3.2,M,-32.5,M,,*7F
$PYRTM,2024,124.172312262998,15.281959673148
$GPGGA,040806.00,3507.2919,N,12133.8415,W,1,09,1.0,-1.5,M,-32.5,M,,*74
$PYRTM,2024,124.172323853437,15.281971263576
$GPGGA,040807.00,3507.2930,N,12133.8418,W,1,09,1.0,-0.1,M,-32.5,M,,*76
$PYRTM,2024,124.172335310775,15.281982720914
$GPGGA,040808.00,3507.2941,N,12133.8428,W,1,09,1.0,0.1,M,-32.5,M,,*51
$PYRTM,2024,124.172346883032,15.281994293171
$GPGGA,040809.00,3507.2951,N,12133.8439,W,1,09,1.0,1.2,M,-32.5,M,,*53
$PYRTM,2024,124.172357183299,15.282004593437
$GPGGA,040810.00,3507.2962,N,12133.8448,W,1,09,1.0,-0.8,M,-32.5,M,,*7B
$PYRTM,2024,124.172368974572,15.282016384711
$GPGGA,040811.00,3507.2974,N,12133.8454,W,1,09,1.0,-4.7,M,-32.5,M,,*7B
$PYRTM,2024,124.172381708947,15.282029119086
$GPGGA,040812.00,3507.2988,N,12133.8459,W,1,09,1.0,-0.5,M,-32.5,M,,*70
$PYRTM,2024,124.172393181933,15.282040592083
$GPGGA,040813.00,3507.3000,N,12133.8466,W,1,09,1.0,4.3,M,-32.5,M,,*5A
$PYRTM,2024,124.172404754641,15.282052164780
$GPGGA,040814.00,3507.3009,N,12133.8474,W,1,09,1.0,3.6,M,-32.5,M,,*55
$PYRTM,2024,124.172415517627,15.282062927766
$GPGGA,040815.00,3507.3019,N,12133.8480,W,1,09,1.0,-0.8,M,-32.5,M,,*7E
$PYRTM,2024,124.172427439132,15.282074849271
$GPGGA,040816.00,3507.3031,N,12133.8483,W,1,09,1.0,-0.1,M,-32.5,M,,*7D
$PYRTM,2024,124.172436234977,15.282083645116
$GPGGA,040817.00,3507.3041,N,12133.8487,W,1,09,1.0,-1.6,M,-32.5,M,,*79
$PYRTM,2024,124.172453930301,15.282101340440
$GPGGA,040818.00,3507.3051,N,12133.8496,W,1,09,1.0,-3.1,M,-32.5,M,,*72
$PYRTM,2024,124.172465040718,15.282112450856
$GPGGA,040819.00,3507.3063,N,12133.8508,W,1,09,1.0,-3.9,M,-32.5,M,,*7C
$PYRTM,2024,124.172476616771,15.282124026910
$GPGGA,040820.00,3507.3075,N,12133.8513,W,1,09,1.0,-6.0,M,-32.5,M,,*77
$PYRTM,2024,124.172487743553,15.282135153692
$GPGGA,040821.00,3507.3086,N,12133.8512,W,1,09,1.0,-0.9,M,-32.5,M,,*74
$PYRTM,2024,124.172498839086,15.282146249225
$GPGGA,040822.00,3507.3096,N,12133.8519,W,1,09,1.0,-1.7,M,-32.5,M,,*72
$PYRTM,2024,124.172509950023,15.282157360162
$GPGGA,040823.00,3507.3105,N,12133.8531,W,1,09,1.0,-2.8,M,-32.5,M,,*7E
$PYRTM,2024,124.172521073704,15.282168483843
$GPGGA,040824.00,3507.3114,N,12133.8543,W,1,09,1.0,-1.4,M,-32.5,M,,*73
$PYRTM,2024,124.172532189028,15.282179599167
$GPGGA,040825.00,3507.3124,N,12133.8548,W,1,09,1.0,0.3,M,-32.5,M,,*51
$PYRTM,2024,124.172550704259,15.282198114398
$GPGGA,040826.00,3507.3133,N,12133.8549,W,1,09,1.0,-1.5,M,-32.5,M,,*7F
$PYRTM,2024,124.172561814514,15.282209224653
$GPGGA,040827.00,3507.3144,N,12133.8553,W,1,09,1.0,-1.5,M,-32.5,M,,*75
$PYRTM,2024,124.172572929062,15.282220339201
$GPGGA,040828.00,3507.3157,N,12133.8560,W,1,09,1.0,-0.4,M,-32.5,M,,*78
$PYRTM,2024,124.172583923380,15.282231333530
$GPGGA,040829.00,3507.3166,N,12133.8571,W,1,09,1.0,0.1,M,-32.5,M,,*53
$PYRTM,2024,124.172595037072,15.282242447211
$GPGGA,040830.00,3507.3171,N,12133.8579,W,1,09,1.0,-0.6,M,-32.5,M,,*7F
$PYRTM,2024,124.172606254398,15.282253664549
$GPGGA,040831.00,3507.3178,N,12133.8583,W,1,09,1.0,-0.3,M,-32.5,M,,*77
$PYRTM,2024,124.172617256250,15.282264666389
$GPGGA,040832.00,3507.3192,N,12133.8586,W,1,09,1.0,0.4,M,-32.5,M,,*5F
$PYRTM,2024,124.172628366204,15.282275776343
$GPGGA,040833.00,3507.3205,N,12133.8589,W,1,09,1.0,-0.2,M,-32.5,M,,*77
$PYRTM,2024,124.172639478507,15.282286888657
$GPGGA,040834.00,3507.3212,N,12133.8593,W,1,09,1.0,-0.3,M,-32.5,M,,*7C
$PYRTM,2024,124.172650591944,15.282298002083
$GPGGA,040835.00,3507.3216,N,12133.8599,W,1,09,1.0,-0.9,M,-32.5,M,,*79
$PYRTM,2024,124.172661801447,15.282309211586
$GPGGA,040836.00,3507.3224,N,12133.8605,W,1,09,1.0,-1.8,M,-32.5,M,,*7D
