$PYRTM,2024,127.666674728854,18.776322138993
$GPGGA,155959.00,3338.9360,N,11858.2954,W,1,11,0.8,11.1,M,-34.0,M,,*61
$PYRTM,2024,127.666686288287,18.776333698426
$GPGGA,160000.00,3338.9359,N,11858.2959,W,1,11,0.8,11.1,M,-34.0,M,,*65
$PYRTM,2024,127.666697876447,18.776345286597
$GPGGA,160001.00,3338.9357,N,11858.2966,W,1,11,0.8,10.8,M,-34.0,M,,*6E
$PYRTM,2024,127.666709437546,18.776356847685
$GPGGA,160002.00,3338.9357,N,11858.2974,W,1,11,0.8,10.9,M,-34.0,M,,*6F
$PYRTM,2024,127.666721025347,18.776368435486
$GPGGA,160003.00,3338.9357,N,11858.2980,W,1,11,0.8,10.9,M,-34.0,M,,*65
$PYRTM,2024,127.666732585475,18.776379995613
$GPGGA,160004.00,3338.9359,N,11858.2985,W,1,11,0.8,10.9,M,-34.0,M,,*69
$PYRTM,2024,127.666744176586,18.776391586725
$GPGGA,160005.00,3338.9359,N,11858.2990,W,1,11,0.8,10.6,M,-34.0,M,,*63
$PYRTM,2024,127.666757248970,18.776404659109
$GPGGA,160006.00,3338.9357,N,11858.2997,W,1,11,0.8,11.3,M,-34.0,M,,*6D
$PYRTM,2024,127.666768584618,18.776415994757
$GPGGA,160007.00,3338.9356,N,11858.3004,W,1,11,0.8,11.3,M,-34.0,M,,*6F
$PYRTM,2024,127.666779924421,18.776427334560
$GPGGA,160008.00,3338.9356,N,11858.3010,W,1,11,0.8,9.9,M,-34.0,M,,*56
$PYRTM,2024,127.666791512315,18.776438922454
$GPGGA,160009.00,3338.9357,N,11858.3017,W,1,11,0.8,9.8,M,-34.0,M,,*50
$PYRTM,2024,127.666803072755,18.776450482894
$GPGGA,160010.00,3338.9358,N,11858.3023,W,1,11,0.8,9.9,M,-34.0,M,,*51
$PYRTM,2024,127.666814659850,18.776462070000
$GPGGA,160011.00,3338.9358,N,11858.3028,W,1,11,0.8,9.8,M,-34.0,M,,*5A
$PYRTM,2024,127.666826219884,18.776473630023
$GPGGA,160012.00,3338.9357,N,11858.3033,W,1,11,0.8,9.0,M,-34.0,M,,*54
$PYRTM,2024,127.666837802419,18.776485212558
$GPGGA,160013.00,3338.9356,N,11858.3041,W,1,11,0.8,6.9,M,-34.0,M,,*57
$PYRTM,2024,127.666849370370,18.776496780509
$GPGGA,160014.00,3338.9356,N,11858.3048,W,1,11,0.8,8.6,M,-34.0,M,,*58
$PYRTM,2024,127.666860950637,18.776508360787
$GPGGA,160015.00,3338.9356,N,11858.3055,W,1,11,0.8,9.8,M,-34.0,M,,*5A
$PYRTM,2024,127.666872517373,18.776519927512
$GPGGA,160016.00,3338.9357,N,11858.3061,W,1,11,0.8,9.9,M,-34.0,M,,*5E
$PYRTM,2024,127.666884103287,18.776531513426
$GPGGA,160017.00,3338.9357,N,11858.3067,W,1,11,0.8,10.2,M,-34.0,M,,*6A
$PYRTM,2024,127.666895665347,18.776543075498
$GPGGA,160018.00,3338.9358,N,11858.3074,W,1,11,0.8,11.6,M,-34.0,M,,*6D
$PYRTM,2024,127.666907255498,18.776554665637
$GPGGA,160019.00,3338.9357,N,11858.3081,W,1,11,0.8,11.0,M,-34.0,M,,*6F
$PYRTM,2024,127.666918815428,18.776566225567
$GPGGA,160020.00,3338.9356,N,11858.3087,W,1,11,0.8,10.9,M,-34.0,M,,*6A
$PYRTM,2024,127.666930414734,18.776577824873
$GPGGA,160021.00,3338.9356,N,11858.3092,W,1,11,0.8,10.9,M,-34.0,M,,*6F
$PYRTM,2024,127.666941961238,18.776589371377
$GPGGA,160022.00,3338.9357,N,11858.3098,W,1,11,0.8,14.7,M,-34.0,M,,*6D
$PYRTM,2024,127.666953563218,18.776600973356
$GPGGA,160023.00,3338.9358,N,11858.3105,W,1,11,0.8,14.0,M,-34.0,M,,*61
$PYRTM,2024,127.666965111100,18.776612521238
$GPGGA,160024.00,3338.9357,N,11858.3112,W,1,11,0.8,13.9,M,-34.0,M,,*61
$PYRTM,2024,127.666977147569,18.776624557708
$GPGGA,160025.00,3338.9355,N,11858.3118,W,1,11,0.8,13.9,M,-34.0,M,,*68
$PYRTM,2024,127.666988259838,18.776635669977
$GPGGA,160026.00,3338.9353,N,11858.3123,W,1,11,0.8,14.0,M,-34.0,M,,*6B
$PYRTM,2024,127.666999840405,18.776647250556
$GPGGA,160027.00,3338.9354,N,11858.3130,W,1,11,0.8,13.6,M,-34.0,M,,*6E
$PYRTM,2024,127.667011406447,18.776658816586
$GPGGA,160028.00,3338.9356,N,11858.3140,W,1,11,0.8,13.8,M,-34.0,M,,*6A
$PYRTM,2024,127.667022993750,18.776670403889
$GPGGA,160029.00,3338.9356,N,11858.3148,W,1,11,0.8,13.8,M,-34.0,M,,*63
$PYRTM,2024,127.667034555440,18.776681965590
$GPGGA,160030.00,3338.9354,N,11858.3154,W,1,11,0.8,13.8,M,-34.0,M,,*64
$PYRTM,2024,127.667046141528,18.776693551667
$GPGGA,160031.00,3338.9353,N,11858.3161,W,1,11,0.8,11.0,M,-34.0,M,,*6E
$PYRTM,2024,127.667057704722,18.776705114861
$GPGGA,160032.00,3338.9354,N,11858.3169,W,1,11,0.8,11.4,M,-34.0,M,,*66
$PYRTM,2024,127.667069305579,18.776716715718
$GPGGA,160033.00,3338.9356,N,11858.3177,W,1,11,0.8,10.0,M,-34.0,M,,*6F
$PYRTM,2024,127.667080852558,18.776728262697
$GPGGA,160034.00,3338.9355,N,11858.3185,W,1,11,0.8,9.4,M,-34.0,M,,*5A
$PYRTM,2024,127.667092441319,18.776739851458
$GPGGA,160035.00,3338.9353,N,11858.3191,W,1,11,0.8,8.8,M,-34.0,M,,*55
$PYRTM,2024,127.667105158530,18.776752568669
$GPGGA,160036.00,3338.9352,N,11858.3198,W,1,11,0.8,11.3,M,-34.0,M,,*6D
$PYRTM,2024,127.667117773889,18.776765184028
$GPGGA,160037.00,3338.9353,N,11858.3207,W,1,11,0.8,11.7,M,-34.0,M,,*6C
$PYRTM,2024,127.667127149317,18.776774559456
$GPGGA,160038.00,3338.9355,N,11858.3216,W,1,11,0.8,13.8,M,-34.0,M,,*68
$PYRTM,2024,127.667138735775,18.776786145914
$GPGGA,160039.00,3338.9357,N,11858.3225,W,1,11,0.8,13.9,M,-34.0,M,,*6A
$PYRTM,2024,127.667150296007,18.776797706146
$GPGGA,160040.00,3338.9356,N,11858.3231,W,1,11,0.8,14.8,M,-34.0,M,,*66
$PYRTM,2024,127.667161883206,18.776809293345
$GPGGA,160041.00,3338.9354,N,11858.3238,W,1,11,0.8,13.4,M,-34.0,M,,*67
$PYRTM,2024,127.667173443704,18.776820853843
$GPGGA,160042.00,3338.9354,N,11858.3246,W,1,11,0.8,15.5,M,-34.0,M,,*6A
$PYRTM,2024,127.667185026667,18.776832436806
$GPGGA,160043.00,3338.9356,N,11858.3254,W,1,11,0.8,11.8,M,-34.0,M,,*63
$PYRTM,2024,127.667196593322,18.776844003461
$GPGGA,160044.00,3338.9356,N,11858.3261,W,1,11,0.8,13.6,M,-34.0,M,,*6E
$PYRTM,2024,127.667208181053,18.776855591204
$GPGGA,160045.00,3338.9354,N,11858.3268,W,1,11,0.8,12.4,M,-34.0,M,,*67
$PYRTM,2024,127.667219740961,18.776867151111
$GPGGA,160046.00,3338.9353,N,11858.3275,W,1,11,0.8,13.5,M,-34.0,M,,*6F
$PYRTM,2024,127.667231327234,18.776878737373
$GPGGA,160047.00,3338.9353,N,11858.3282,W,1,11,0.8,10.4,M,-34.0,M,,*64
$PYRTM,2024,127.667242889190,18.776890299329
$GPGGA,160048.00,3338.9351,N,11858.3287,W,1,11,0.8,10.5,M,-34.0,M,,*6D
$PYRTM,2024,127.667254479595,18.776901889734
$GPGGA,160049.00,3338.9351,N,11858.3291,W,1,11,0.8,10.4,M,-34.0,M,,*6A
$PYRTM,2024,127.667266038391,18.776913448530
$GPGGA,160050.00,3338.9350,N,11858.3298,W,1,11,0.8,12.3,M,-34.0,M,,*6F
$PYRTM,2024,127.667277638252,18.776925048391
$GPGGA,160051.00,3338.9350,N,11858.3306,W,1,11,0.8,10.4,M,-34.0,M,,*6D
$PYRTM,2024,127.667289188206,18.776936598345
$GPGGA,160052.00,3338.9350,N,11858.3313,W,1,11,0.8,9.8,M,-34.0,M,,*5E
$PYRTM,2024,127.667300773819,18.776948183970
$GPGGA,160053.00,3338.9350,N,11858.3320,W,1,11,0.8,8.9,M,-34.0,M,,*5F
$PYRTM,2024,127.667312337002,18.776959747141
$GPGGA,160054.00,3338.9351,N,11858.3327,W,1,11,0.8,9.1,M,-34.0,M,,*57
$PYRTM,2024,127.667324256493,18.776971666632
$GPGGA,160055.00,3338.9351,N,11858.3334,W,1,11,0.8,7.7,M,-34.0,M,,*5C
$PYRTM,2024,127.667335857153,18.776983267292
$GPGGA,160056.00,3338.9350,N,11858.3341,W,1,11,0.8,7.9,M,-34.0,M,,*52
$PYRTM,2024,127.667347071007,18.776994481146
$GPGGA,160057.00,3338.9350,N,11858.3348,W,1,11,0.8,8.9,M,-34.0,M,,*55
$PYRTM,2024,127.667358630833,18.777006040984
$GPGGA,160058.00,3338.9351,N,11858.3354,W,1,11,0.8,9.1,M,-34.0,M,,*5F
$PYRTM,2024,127.667370218056,18.777017628194
$GPGGA,160059.00,3338.9353,N,11858.3362,W,1,11,0.8,8.8,M,-34.0,M,,*51
$PYRTM,2024,127.667381779144,18.777029189294
$GPGGA,160100.00,3338.9353,N,11858.3371,W,1,11,0.8,7.7,M,-34.0,M,,*5E
$PYRTM,2024,127.667393369329,18.777040779468
$GPGGA,160101.00,3338.9352,N,11858.3377,W,1,11,0.8,7.9,M,-34.0,M,,*56
$PYRTM,2024,127.667404928993,18.777052339132
$GPGGA,160102.00,3338.9353,N,11858.3384,W,1,11,0.8,9.2,M,-34.0,M,,*5D
$PYRTM,2024,127.667416518634,18.777063928773
$GPGGA,160103.00,3338.9353,N,11858.3393,W,1,11,0.8,9.8,M,-34.0,M,,*50
$PYRTM,2024,127.667428076308,18.777075486447
$GPGGA,160104.00,3338.9353,N,11858.3403,W,1,11,0.8,11.6,M,-34.0,M,,*6E
$PYRTM,2024,127.667439658044,18.777087068183
$GPGGA,160105.00,3338.9352,N,11858.3412,W,1,11,0.8,12.5,M,-34.0,M,,*6E
$PYRTM,2024,127.667452381956,18.777099792095
$GPGGA,160106.00,3338.9350,N,11858.3421,W,1,11,0.8,10.3,M,-34.0,M,,*6B
$PYRTM,2024,127.667464999132,18.777112409271
$GPGGA,160107.00,3338.9350,N,11858.3430,W,1,11,0.8,10.9,M,-34.0,M,,*60
$PYRTM,2024,127.667474374028,18.777121784167
$GPGGA,160108.00,3338.9351,N,11858.3437,W,1,11,0.8,10.4,M,-34.0,M,,*64
$PYRTM,2024,127.667485959190,18.777133369329
$GPGGA,160109.00,3338.9352,N,11858.3443,W,1,11,0.8,10.8,M,-34.0,M,,*69
$PYRTM,2024,127.667497521644,18.777144931782
$GPGGA,160110.00,3338.9352,N,11858.3450,W,1,11,0.8,9.9,M,-34.0,M,,*5A
$PYRTM,2024,127.667509108507,18.777156518646
$GPGGA,160111.00,3338.9349,N,11858.3459,W,1,11,0.8,10.8,M,-34.0,M,,*61
$PYRTM,2024,127.667520670266,18.777168080417
$GPGGA,160112.00,3338.9346,N,11858.3466,W,1,11,0.8,12.9,M,-34.0,M,,*62
$PYRTM,2024,127.667532256354,18.777179666505
$GPGGA,160113.00,3338.9346,N,11858.3473,W,1,11,0.8,12.0,M,-34.0,M,,*6E
$PYRTM,2024,127.667543818426,18.777191228576
$GPGGA,160114.00,3338.9348,N,11858.3479,W,1,11,0.8,11.7,M,-34.0,M,,*69
$PYRTM,2024,127.667555403958,18.777202814109
$GPGGA,160115.00,3338.9351,N,11858.3484,W,1,11,0.8,11.7,M,-34.0,M,,*62
$PYRTM,2024,127.667566964479,18.777214374618
$GPGGA,160116.00,3338.9351,N,11858.3490,W,1,11,0.8,10.1,M,-34.0,M,,*63
$PYRTM,2024,127.667578555463,18.777225965602
$GPGGA,160117.00,3338.9349,N,11858.3498,W,1,11,0.8,9.4,M,-34.0,M,,*5E
$PYRTM,2024,127.667590113021,18.777237523160
$GPGGA,160118.00,3338.9347,N,11858.3508,W,1,11,0.8,8.4,M,-34.0,M,,*56
$PYRTM,2024,127.667601703634,18.777249113785
$GPGGA,160119.00,3338.9346,N,11858.3513,W,1,11,0.8,8.3,M,-34.0,M,,*5B
$PYRTM,2024,127.667613261910,18.777260672049
$GPGGA,160120.00,3338.9348,N,11858.3515,W,1,11,0.8,8.3,M,-34.0,M,,*59
$PYRTM,2024,127.667624844965,18.777272255104
$GPGGA,160121.00,3338.9350,N,11858.3522,W,1,11,0.8,8.7,M,-34.0,M,,*51
$PYRTM,2024,127.667636412905,18.777283823056
$GPGGA,160122.00,3338.9349,N,11858.3536,W,1,11,0.8,9.2,M,-34.0,M,,*5B
$PYRTM,2024,127.667647997326,18.777295407465
$GPGGA,160123.00,3338.9347,N,11858.3546,W,1,11,0.8,9.4,M,-34.0,M,,*55
$PYRTM,2024,127.667659561331,18.777306971470
$GPGGA,160124.00,3338.9346,N,11858.3551,W,1,11,0.8,9.3,M,-34.0,M,,*52
$PYRTM,2024,127.667671480012,18.777318890150
$GPGGA,160125.00,3338.9346,N,11858.3555,W,1,11,0.8,9.3,M,-34.0,M,,*57
$PYRTM,2024,127.667682706933,18.777330117072
$GPGGA,160126.00,3338.9346,N,11858.3560,W,1,11,0.8,9.5,M,-34.0,M,,*54
$PYRTM,2024,127.667694289653,18.777341699792
$GPGGA,160127.00,3338.9344,N,11858.3569,W,1,11,0.8,9.1,M,-34.0,M,,*5A
$PYRTM,2024,127.667705856412,18.777353266562
$GPGGA,160128.00,3338.9342,N,11858.3578,W,1,11,0.8,8.8,M,-34.0,M,,*5B
$PYRTM,2024,127.667717446412,18.777364856562
$GPGGA,160129.00,3338.9341,N,11858.3585,W,1,11,0.8,8.6,M,-34.0,M,,*55
$PYRTM,2024,127.667729004329,18.777376414468
$GPGGA,160130.00,3338.9341,N,11858.3591,W,1,11,0.8,8.6,M,-34.0,M,,*58
$PYRTM,2024,127.667740593935,18.777388004074
$GPGGA,160131.00,3338.9343,N,11858.3598,W,1,11,0.8,9.1,M,-34.0,M,,*54
$PYRTM,2024,127.667751225521,18.777398635660
$GPGGA,160132.00,3338.9344,N,11858.3605,W,1,11,0.8,9.1,M,-34.0,M,,*57
$PYRTM,2024,127.667764189583,18.777411599722
$GPGGA,160133.00,3338.9343,N,11858.3613,W,1,11,0.8,9.2,M,-34.0,M,,*55
$PYRTM,2024,127.667774966019,18.777422376157
$GPGGA,160134.00,3338.9343,N,11858.3620,W,1,11,0.8,9.3,M,-34.0,M,,*53
$PYRTM,2024,127.667785960972,18.777433371111
$GPGGA,160135.00,3338.9344,N,11858.3627,W,1,11,0.8,9.9,M,-34.0,M,,*58
$PYRTM,2024,127.667797079306,18.777444489444
$GPGGA,160136.00,3338.9346,N,11858.3634,W,1,11,0.8,10.0,M,-34.0,M,,*6A
$PYRTM,2024,127.667811771933,18.777459182072
$GPGGA,160137.00,3338.9348,N,11858.3640,W,1,11,0.8,10.3,M,-34.0,M,,*65
$PYRTM,2024,127.667822884225,18.777470294363
$GPGGA,160138.00,3338.9349,N,11858.3646,W,1,11,0.8,10.4,M,-34.0,M,,*6A
$PYRTM,2024,127.667833994317,18.777481404456
$GPGGA,160139.00,3338.9346,N,11858.3652,W,1,11,0.8,10.6,M,-34.0,M,,*63
$PYRTM,2024,127.667845109363,18.777492519502
$GPGGA,160140.00,3338.9344,N,11858.3661,W,1,11,0.8,10.6,M,-34.0,M,,*6F
$PYRTM,2024,127.667856217720,18.777503627859
$GPGGA,160141.00,3338.9345,N,11858.3671,W,1,11,0.8,10.4,M,-34.0,M,,*6C
$PYRTM,2024,127.667867322384,18.777514732535
$GPGGA,160142.00,3338.9346,N,11858.3678,W,1,11,0.8,10.2,M,-34.0,M,,*63
$PYRTM,2024,127.667878438426,18.777525848565
$GPGGA,160143.00,3338.9348,N,11858.3681,W,1,11,0.8,10.2,M,-34.0,M,,*6A
$PYRTM,2024,127.667890000127,18.777537410266
$GPGGA,160144.00,3338.9347,N,11858.3685,W,1,11,0.8,10.2,M,-34.0,M,,*66
$PYRTM,2024,127.667901486273,18.777548896412
$GPGGA,160145.00,3338.9344,N,11858.3692,W,1,11,0.8,9.9,M,-34.0,M,,*51
$PYRTM,2024,127.667913508461,18.777560918600
$GPGGA,160146.00,3338.9342,N,11858.3703,W,1,11,0.8,10.0,M,-34.0,M,,*6C
$PYRTM,2024,127.667924621644,18.777572031782
$GPGGA,160147.00,3338.9342,N,11858.3711,W,1,11,0.8,9.9,M,-34.0,M,,*5F
$PYRTM,2024,127.667936192477,18.777583602616
$GPGGA,160148.00,3338.9341,N,11858.3717,W,1,11,0.8,9.9,M,-34.0,M,,*55
$PYRTM,2024,127.667947766759,18.777595176898
$GPGGA,160149.00,3338.9340,N,11858.3722,W,1,11,0.8,9.8,M,-34.0,M,,*52
$PYRTM,2024,127.667959444838,18.777606854977
$GPGGA,160150.00,3338.9339,N,11858.3730,W,1,11,0.8,10.0,M,-34.0,M,,*67
$PYRTM,2024,127.667971031458,18.777618441597
$GPGGA,160151.00,3338.9339,N,11858.3736,W,1,11,0.8,10.1,M,-34.0,M,,*61
$PYRTM,2024,127.667982592269,18.777630002407
$GPGGA,160152.00,3338.9340,N,11858.3739,W,1,11,0.8,10.1,M,-34.0,M,,*63
$PYRTM,2024,127.667994179873,18.777641590012
$GPGGA,160153.00,3338.9341,N,11858.3742,W,1,11,0.8,10.2,M,-34.0,M,,*6C
$PYRTM,2024,127.668005741366,18.777653151505
$GPGGA,160154.00,3338.9341,N,11858.3749,W,1,11,0.8,10.5,M,-34.0,M,,*67
$PYRTM,2024,127.668017670440,18.777665080579
$GPGGA,160155.00,3338.9341,N,11858.3757,W,1,11,0.8,10.7,M,-34.0,M,,*6B
$PYRTM,2024,127.668028889236,18.777676299375
$GPGGA,160156.00,3338.9342,N,11858.3764,W,1,11,0.8,10.8,M,-34.0,M,,*64
$PYRTM,2024,127.668040490370,18.777687900509
$GPGGA,160157.00,3338.9343,N,11858.3768,W,1,11,0.8,10.7,M,-34.0,M,,*67
$PYRTM,2024,127.668052042847,18.777699452986
$GPGGA,160158.00,3338.9346,N,11858.3775,W,1,11,0.8,10.8,M,-34.0,M,,*6E
$PYRTM,2024,127.668063628044,18.777711038183
$GPGGA,160159.00,3338.9345,N,11858.3784,W,1,11,0.8,10.5,M,-34.0,M,,*6F
$PYRTM,2024,127.668075185382,18.777722595532
$GPGGA,160200.00,3338.9343,N,11858.3792,W,1,11,0.8,10.8,M,-34.0,M,,*6C
$PYRTM,2024,127.668086786343,18.777734196481
$GPGGA,160201.00,3338.9341,N,11858.3797,W,1,11,0.8,10.7,M,-34.0,M,,*65
$PYRTM,2024,127.668098334155,18.777745744306
$GPGGA,160202.00,3338.9342,N,11858.3803,W,1,11,0.8,10.5,M,-34.0,M,,*65
$PYRTM,2024,127.668109917292,18.777757327431
$GPGGA,160203.00,3338.9344,N,11858.3810,W,1,11,0.8,10.8,M,-34.0,M,,*6D
$PYRTM,2024,127.668121482824,18.777768892963
$GPGGA,160204.00,3338.9344,N,11858.3816,W,1,11,0.8,10.9,M,-34.0,M,,*6D
$PYRTM,2024,127.668133069491,18.777780479630
$GPGGA,160205.00,3338.9342,N,11858.3822,W,1,11,0.8,10.9,M,-34.0,M,,*6D
$PYRTM,2024,127.668145672164,18.777793082303
$GPGGA,160206.00,3338.9339,N,11858.3830,W,1,11,0.8,11.0,M,-34.0,M,,*69
$PYRTM,2024,127.668157255718,18.777804665856
$GPGGA,160207.00,3338.9339,N,11858.3838,W,1,11,0.8,10.9,M,-34.0,M,,*68
$PYRTM,2024,127.668168821169,18.777816231308
$GPGGA,160208.00,3338.9341,N,11858.3846,W,1,11,0.8,11.1,M,-34.0,M,,*68
$PYRTM,2024,127.668180407998,18.777827818137
$GPGGA,160209.00,3338.9341,N,11858.3852,W,1,11,0.8,11.2,M,-34.0,M,,*6F
$PYRTM,2024,127.668191969919,18.777839380058
$GPGGA,160210.00,3338.9341,N,11858.3859,W,1,11,0.8,11.3,M,-34.0,M,,*6D
$PYRTM,2024,127.668203555625,18.777850965764
$GPGGA,160211.00,3338.9339,N,11858.3868,W,1,11,0.8,11.2,M,-34.0,M,,*60
$PYRTM,2024,127.668215117419,18.777862527558
$GPGGA,160212.00,3338.9338,N,11858.3876,W,1,11,0.8,10.1,M,-34.0,M,,*6F
$PYRTM,2024,127.668226707130,18.777874117269
$GPGGA,160213.00,3338.9339,N,11858.3885,W,1,11,0.8,11.1,M,-34.0,M,,*62
$PYRTM,2024,127.668238265069,18.777885675208
$GPGGA,160214.00,3338.9340,N,11858.3893,W,1,11,0.8,12.4,M,-34.0,M,,*6A
$PYRTM,2024,127.668249848576,18.777897258715
$GPGGA,160215.00,3338.9339,N,11858.3901,W,1,11,0.8,11.9,M,-34.0,M,,*61
$PYRTM,2024,127.668261412720,18.777908822859
$GPGGA,160216.00,3338.9337,N,11858.3909,W,1,11,0.8,12.3,M,-34.0,M,,*6D
$PYRTM,2024,127.668272996042,18.777920406181
$GPGGA,160217.00,3338.9335,N,11858.3917,W,1,11,0.8,12.5,M,-34.0,M,,*67
$PYRTM,2024,127.668284563194,18.777931973333
$GPGGA,160218.00,3338.9335,N,11858.3926,W,1,11,0.8,13.0,M,-34.0,M,,*6E
$PYRTM,2024,127.668296149664,18.777943559815
$GPGGA,160219.00,3338.9336,N,11858.3935,W,1,11,0.8,11.9,M,-34.0,M,,*65
$PYRTM,2024,127.668307710799,18.777955120938
$GPGGA,160220.00,3338.9337,N,11858.3943,W,1,11,0.8,11.6,M,-34.0,M,,*60
$PYRTM,2024,127.668319297616,18.777966707766
$GPGGA,160221.00,3338.9339,N,11858.3948,W,1,11,0.8,11.5,M,-34.0,M,,*67
$PYRTM,2024,127.668330860428,18.777978270567
$GPGGA,160222.00,3338.9339,N,11858.3952,W,1,11,0.8,11.5,M,-34.0,M,,*6F
$PYRTM,2024,127.668342445891,18.777989856030
$GPGGA,160223.00,3338.9337,N,11858.3960,W,1,11,0.8,13.5,M,-34.0,M,,*63
$PYRTM,2024,127.668354006458,18.778001416597
$GPGGA,160224.00,3338.9335,N,11858.3971,W,1,11,0.8,13.0,M,-34.0,M,,*63
$PYRTM,2024,127.668366043067,18.778013453206
$GPGGA,160225.00,3338.9336,N,11858.3980,W,1,11,0.8,12.6,M,-34.0,M,,*68
$PYRTM,2024,127.668377154954,18.778024565093
$GPGGA,160226.00,3338.9337,N,11858.3984,W,1,11,0.8,12.6,M,-34.0,M,,*6E
$PYRTM,2024,127.668388745093,18.778036155231
$GPGGA,160227.00,3338.9338,N,11858.3989,W,1,11,0.8,12.6,M,-34.0,M,,*6D
$PYRTM,2024,127.668400304688,18.778047714826
$GPGGA,160228.00,3338.9336,N,11858.3997,W,1,11,0.8,11.9,M,-34.0,M,,*6F
$PYRTM,2024,127.668411894213,18.778059304352
$GPGGA,160229.00,3338.9334,N,11858.4009,W,1,11,0.8,12.4,M,-34.0,M,,*6B
$PYRTM,2024,127.668423451331,18.778070861481
$GPGGA,160230.00,3338.9332,N,11858.4017,W,1,11,0.8,12.5,M,-34.0,M,,*6B
$PYRTM,2024,127.668435039074,18.778082449213
$GPGGA,160231.00,3338.9332,N,11858.4021,W,1,11,0.8,12.5,M,-34.0,M,,*6F
$PYRTM,2024,127.668446602373,18.778094012512
$GPGGA,160232.00,3338.9333,N,11858.4026,W,1,11,0.8,12.5,M,-34.0,M,,*6A
$PYRTM,2024,127.668458186285,18.778105596424
$GPGGA,160233.00,3338.9334,N,11858.4035,W,1,11,0.8,13.0,M,-34.0,M,,*6A
$PYRTM,2024,127.668469748113,18.778117158252
$GPGGA,160234.00,3338.9333,N,11858.4045,W,1,11,0.8,12.7,M,-34.0,M,,*6B
$PYRTM,2024,127.668481336331,18.778128746470
$GPGGA,160235.00,3338.9331,N,11858.4053,W,1,11,0.8,13.4,M,-34.0,M,,*6D
$PYRTM,2024,127.668494408426,18.778141818565
$GPGGA,160236.00,3338.9330,N,11858.4060,W,1,11,0.8,13.4,M,-34.0,M,,*6F
$PYRTM,2024,127.668506671007,18.778154081146
$GPGGA,160237.00,3338.9330,N,11858.4064,W,1,11,0.8,13.5,M,-34.0,M,,*6B
$PYRTM,2024,127.668516044086,18.778163454225
$GPGGA,160238.00,3338.9330,N,11858.4068,W,1,11,0.8,13.5,M,-34.0,M,,*68
$PYRTM,2024,127.668527626273,18.778175036412
$GPGGA,160239.00,3338.9332,N,11858.4077,W,1,11,0.8,13.4,M,-34.0,M,,*64
$PYRTM,2024,127.668539193519,18.778186603657
$GPGGA,160240.00,3338.9331,N,11858.4087,W,1,11,0.8,13.8,M,-34.0,M,,*6A
$PYRTM,2024,127.668550794259,18.778198204398
$GPGGA,160241.00,3338.9330,N,11858.4094,W,1,11,0.8,13.5,M,-34.0,M,,*65
$PYRTM,2024,127.668562342118,18.778209752257
$GPGGA,160242.00,3338.9331,N,11858.4097,W,1,11,0.8,13.5,M,-34.0,M,,*64
$PYRTM,2024,127.668573930937,18.778221341076
$GPGGA,160243.00,3338.9333,N,11858.4100,W,1,11,0.8,13.6,M,-34.0,M,,*6B
$PYRTM,2024,127.668585491609,18.778232901748
$GPGGA,160244.00,3338.9335,N,11858.4108,W,1,11,0.8,13.3,M,-34.0,M,,*67
$PYRTM,2024,127.668597076898,18.778244487037
$GPGGA,160245.00,3338.9336,N,11858.4116,W,1,11,0.8,12.9,M,-34.0,M,,*61
$PYRTM,2024,127.668608638681,18.778256048831
$GPGGA,160246.00,3338.9334,N,11858.4121,W,1,11,0.8,12.9,M,-34.0,M,,*64
$PYRTM,2024,127.668620220694,18.778267630833
$GPGGA,160247.00,3338.9332,N,11858.4124,W,1,11,0.8,12.9,M,-34.0,M,,*66
$PYRTM,2024,127.668631786204,18.778279196343
$GPGGA,160248.00,3338.9331,N,11858.4129,W,1,11,0.8,13.0,M,-34.0,M,,*6F
$PYRTM,2024,127.668643371979,18.778290782118
$GPGGA,160249.00,3338.9334,N,11858.4137,W,1,11,0.8,13.4,M,-34.0,M,,*60
$PYRTM,2024,127.668654934028,18.778302344167
$GPGGA,160250.00,3338.9335,N,11858.4143,W,1,11,0.8,13.6,M,-34.0,M,,*68
$PYRTM,2024,127.668666520810,18.778313930961
$GPGGA,160251.00,3338.9333,N,11858.4149,W,1,11,0.8,13.8,M,-34.0,M,,*6B
$PYRTM,2024,127.668678082558,18.778325492697
$GPGGA,160252.00,3338.9332,N,11858.4156,W,1,11,0.8,13.9,M,-34.0,M,,*66
$PYRTM,2024,127.668689669745,18.778337079884
$GPGGA,160253.00,3338.9332,N,11858.4163,W,1,11,0.8,14.1,M,-34.0,M,,*6E
$PYRTM,2024,127.668701230312,18.778348640451
$GPGGA,160254.00,3338.9334,N,11858.4169,W,1,11,0.8,14.1,M,-34.0,M,,*65
$PYRTM,2024,127.668713267315,18.778360677454
$GPGGA,160255.00,3338.9334,N,11858.4177,W,1,11,0.8,14.3,M,-34.0,M,,*69
$PYRTM,2024,127.668724378808,18.778371788947
$GPGGA,160256.00,3338.9332,N,11858.4185,W,1,11,0.8,14.2,M,-34.0,M,,*60
$PYRTM,2024,127.668735969433,18.778383379583
$GPGGA,160257.00,3338.9330,N,11858.4191,W,1,11,0.8,14.1,M,-34.0,M,,*65
$PYRTM,2024,127.668747528102,18.778394938241
$GPGGA,160258.00,3338.9329,N,11858.4195,W,1,11,0.8,14.1,M,-34.0,M,,*66
$PYRTM,2024,127.668759117882,18.778406528021
$GPGGA,160259.00,3338.9332,N,11858.4201,W,1,11,0.8,13.9,M,-34.0,M,,*6C
$PYRTM,2024,127.668770674977,18.778418085116
$GPGGA,160300.00,3338.9333,N,11858.4209,W,1,11,0.8,13.8,M,-34.0,M,,*69
$PYRTM,2024,127.668782263333,18.778429673472
$GPGGA,160301.00,3338.9333,N,11858.4218,W,1,11,0.8,14.0,M,-34.0,M,,*67
$PYRTM,2024,127.668793825428,18.778441235567
$GPGGA,160302.00,3338.9330,N,11858.4223,W,1,11,0.8,13.7,M,-34.0,M,,*6F
$PYRTM,2024,127.668805407581,18.778452817720
$GPGGA,160303.00,3338.9328,N,11858.4228,W,1,11,0.8,14.1,M,-34.0,M,,*6D
$PYRTM,2024,127.668816972396,18.778464382535
$GPGGA,160304.00,3338.9328,N,11858.4234,W,1,11,0.8,13.7,M,-34.0,M,,*66
$PYRTM,2024,127.668828559965,18.778475970104
$GPGGA,160305.00,3338.9330,N,11858.4243,W,1,11,0.8,14.2,M,-34.0,M,,*6C
$PYRTM,2024,127.668841163333,18.778488573472
$GPGGA,160306.00,3338.9331,N,11858.4251,W,1,11,0.8,14.2,M,-34.0,M,,*6D
$PYRTM,2024,127.668853895000,18.778501305139
$GPGGA,160307.00,3338.9329,N,11858.4257,W,1,11,0.8,13.3,M,-34.0,M,,*65
$PYRTM,2024,127.668863269363,18.778510679502
$GPGGA,160308.00,3338.9328,N,11858.4263,W,1,11,0.8,10.7,M,-34.0,M,,*6B
$PYRTM,2024,127.668874870301,18.778522280440
$GPGGA,160309.00,3338.9328,N,11858.4271,W,1,11,0.8,14.0,M,-34.0,M,,*6A
$PYRTM,2024,127.668886418634,18.778533828773
$GPGGA,160310.00,3338.9330,N,11858.4278,W,1,11,0.8,12.3,M,-34.0,M,,*67
$PYRTM,2024,127.668898007326,18.778545417465
$GPGGA,160311.00,3338.9332,N,11858.4284,W,1,11,0.8,12.4,M,-34.0,M,,*60
$PYRTM,2024,127.668909564514,18.778556974653
$GPGGA,160312.00,3338.9332,N,11858.4288,W,1,11,0.8,12.4,M,-34.0,M,,*6F
$PYRTM,2024,127.668921152211,18.778568562361
$GPGGA,160313.00,3338.9329,N,11858.4294,W,1,11,0.8,14.1,M,-34.0,M,,*6A
$PYRTM,2024,127.668932713819,18.778580123958
$GPGGA,160314.00,3338.9328,N,11858.4301,W,1,11,0.8,16.3,M,-34.0,M,,*61
$PYRTM,2024,127.668944300463,18.778591710602
$GPGGA,160315.00,3338.9330,N,11858.4309,W,1,11,0.8,14.7,M,-34.0,M,,*67
$PYRTM,2024,127.668955862002,18.778603272141
$GPGGA,160316.00,3338.9332,N,11858.4315,W,1,11,0.8,14.6,M,-34.0,M,,*6A
$PYRTM,2024,127.668967449109,18.778614859248
$GPGGA,160317.00,3338.9332,N,11858.4321,W,1,11,0.8,13.0,M,-34.0,M,,*6D
$PYRTM,2024,127.668979009965,18.778626420104
$GPGGA,160318.00,3338.9331,N,11858.4328,W,1,11,0.8,13.6,M,-34.0,M,,*6E
$PYRTM,2024,127.668990597269,18.778638007407
$GPGGA,160319.00,3338.9332,N,11858.4335,W,1,11,0.8,14.6,M,-34.0,M,,*67
$PYRTM,2024,127.669002159201,18.778649569340
$GPGGA,160320.00,3338.9332,N,11858.4342,W,1,11,0.8,14.5,M,-34.0,M,,*6E
$PYRTM,2024,127.669013745336,18.778661155475
$GPGGA,160321.00,3338.9332,N,11858.4347,W,1,11,0.8,11.9,M,-34.0,M,,*63
$PYRTM,2024,127.669025306273,18.778672716412
$GPGGA,160322.00,3338.9332,N,11858.4353,W,1,11,0.8,10.4,M,-34.0,M,,*69
$PYRTM,2024,127.669036894745,18.778684304884
$GPGGA,160323.00,3338.9332,N,11858.4360,W,1,11,0.8,8.1,M,-34.0,M,,*54
$PYRTM,2024,127.669048455347,18.778695865486
$GPGGA,160324.00,3338.9333,N,11858.4366,W,1,11,0.8,8.2,M,-34.0,M,,*57
$PYRTM,2024,127.669060388843,18.778707798981
$GPGGA,160325.00,3338.9335,N,11858.4371,W,1,11,0.8,8.2,M,-34.0,M,,*56
$PYRTM,2024,127.669071959861,18.778719370012
$GPGGA,160326.00,3338.9337,N,11858.4376,W,1,11,0.8,7.1,M,-34.0,M,,*5C
$PYRTM,2024,127.669083204016,18.778730614155
$GPGGA,160327.00,3338.9336,N,11858.4383,W,1,11,0.8,8.9,M,-34.0,M,,*51
$PYRTM,2024,127.669094751956,18.778742162095
$GPGGA,160328.00,3338.9333,N,11858.4392,W,1,11,0.8,11.6,M,-34.0,M,,*6C
$PYRTM,2024,127.669106338426,18.778753748576
$GPGGA,160329.00,3338.9332,N,11858.4399,W,1,11,0.8,11.5,M,-34.0,M,,*64
$PYRTM,2024,127.669117900741,18.778765310880
$GPGGA,160330.00,3338.9331,N,11858.4403,W,1,11,0.8,11.5,M,-34.0,M,,*6B
$PYRTM,2024,127.669129488368,18.778776898507
$GPGGA,160331.00,3338.9330,N,11858.4408,W,1,11,0.8,12.0,M,-34.0,M,,*66
$PYRTM,2024,127.669141047940,18.778788458079
$GPGGA,160332.00,3338.9329,N,11858.4416,W,1,11,0.8,12.9,M,-34.0,M,,*6B
$PYRTM,2024,127.669152636273,18.778800046424
$GPGGA,160333.00,3338.9328,N,11858.4425,W,1,11,0.8,12.8,M,-34.0,M,,*6A
$PYRTM,2024,127.669164197095,18.778811607234
$GPGGA,160334.00,3338.9326,N,11858.4432,W,1,11,0.8,12.3,M,-34.0,M,,*6E
$PYRTM,2024,127.669175784826,18.778823194965
$GPGGA,160335.00,3338.9324,N,11858.4437,W,1,11,0.8,12.4,M,-34.0,M,,*6F
$PYRTM,2024,127.669188500926,18.778835911065
$GPGGA,160336.00,3338.9325,N,11858.4443,W,1,11,0.8,11.8,M,-34.0,M,,*61
$PYRTM,2024,127.669200191794,18.778847601933
$GPGGA,160337.00,3338.9327,N,11858.4451,W,1,11,0.8,13.1,M,-34.0,M,,*6A
$PYRTM,2024,127.669212242106,18.778859652245
$GPGGA,160338.00,3338.9327,N,11858.4457,W,1,11,0.8,12.3,M,-34.0,M,,*60
$PYRTM,2024,127.669222201806,18.778869611956
$GPGGA,160339.00,3338.9326,N,11858.4463,W,1,11,0.8,12.2,M,-34.0,M,,*66
$PYRTM,2024,127.669232829606,18.778880239745
$GPGGA,160340.00,3338.9325,N,11858.4469,W,1,11,0.8,12.2,M,-34.0,M,,*61
$PYRTM,2024,127.669243942650,18.778891352801
$GPGGA,160341.00,3338.9327,N,11858.4474,W,1,11,0.8,12.2,M,-34.0,M,,*6E
$PYRTM,2024,127.669255055787,18.778902465926
$GPGGA,160342.00,3338.9327,N,11858.4481,W,1,11,0.8,11.7,M,-34.0,M,,*61
$PYRTM,2024,127.669266164468,18.778913574606
$GPGGA,160343.00,3338.9326,N,11858.4489,W,1,11,0.8,11.4,M,-34.0,M,,*6A
$PYRTM,2024,127.669277275903,18.778924686042
$GPGGA,160344.00,3338.9324,N,11858.4498,W,1,11,0.8,10.9,M,-34.0,M,,*63
$PYRTM,2024,127.669288388356,18.778935798495
$GPGGA,160345.00,3338.9322,N,11858.4505,W,1,11,0.8,10.7,M,-34.0,M,,*6F
$PYRTM,2024,127.669299502049,18.778946912188
$GPGGA,160346.00,3338.9323,N,11858.4512,W,1,11,0.8,11.0,M,-34.0,M,,*6D
$PYRTM,2024,127.669310722604,18.778958132743
$GPGGA,160347.00,3338.9324,N,11858.4520,W,1,11,0.8,11.1,M,-34.0,M,,*6B
$PYRTM,2024,127.669321834734,18.778969244873
$GPGGA,160348.00,3338.9325,N,11858.4528,W,1,11,0.8,11.5,M,-34.0,M,,*69
$PYRTM,2024,127.669332945370,18.778980355521
$GPGGA,160349.00,3338.9326,N,11858.4535,W,1,11,0.8,11.6,M,-34.0,M,,*64
$PYRTM,2024,127.669344058831,18.778991468970
$GPGGA,160350.00,3338.9325,N,11858.4541,W,1,11,0.8,11.5,M,-34.0,M,,*6F
$PYRTM,2024,127.669355645741,18.779003055880
$GPGGA,160351.00,3338.9324,N,11858.4548,W,1,11,0.8,12.1,M,-34.0,M,,*61
$PYRTM,2024,127.669367205336,18.779014615475
$GPGGA,160352.00,3338.9324,N,11858.4556,W,1,11,0.8,12.6,M,-34.0,M,,*6A
$PYRTM,2024,127.669378792731,18.779026202870
$GPGGA,160353.00,3338.9324,N,11858.4563,W,1,11,0.8,12.8,M,-34.0,M,,*63
$PYRTM,2024,127.669390353553,18.779037763692
$GPGGA,160354.00,3338.9323,N,11858.4569,W,1,11,0.8,12.9,M,-34.0,M,,*68
$PYRTM,2024,127.669401942292,18.779049352431
$GPGGA,160355.00,3338.9323,N,11858.4577,W,1,11,0.8,14.9,M,-34.0,M,,*60
$PYRTM,2024,127.669413501227,18.779060911377
$GPGGA,160356.00,3338.9322,N,11858.4585,W,1,11,0.8,17.0,M,-34.0,M,,*65
$PYRTM,2024,127.669425089653,18.779072499792
$GPGGA,160357.00,3338.9322,N,11858.4595,W,1,11,0.8,17.1,M,-34.0,M,,*64
$PYRTM,2024,127.669436650556,18.779084060694
$GPGGA,160358.00,3338.9324,N,11858.4604,W,1,11,0.8,16.2,M,-34.0,M,,*64
$PYRTM,2024,127.669448239387,18.779095649525
$GPGGA,160359.00,3338.9324,N,11858.4611,W,1,11,0.8,16.0,M,-34.0,M,,*63
$PYRTM,2024,127.669459798137,18.779107208275
$GPGGA,160400.00,3338.9324,N,11858.4618,W,1,11,0.8,14.8,M,-34.0,M,,*6B
$PYRTM,2024,127.669471388356,18.779118798495
$GPGGA,160401.00,3338.9324,N,11858.4626,W,1,11,0.8,12.8,M,-34.0,M,,*61
$PYRTM,2024,127.669482948843,18.779130358981
$GPGGA,160402.00,3338.9323,N,11858.4635,W,1,11,0.8,14.2,M,-34.0,M,,*6B
$PYRTM,2024,127.669494538889,18.779141949028
$GPGGA,160403.00,3338.9322,N,11858.4642,W,1,11,0.8,14.4,M,-34.0,M,,*6D
$PYRTM,2024,127.669506097211,18.779153507350
$GPGGA,160404.00,3338.9321,N,11858.4648,W,1,11,0.8,14.6,M,-34.0,M,,*61
$PYRTM,2024,127.669517686319,18.779165096458
$GPGGA,160405.00,3338.9321,N,11858.4654,W,1,11,0.8,13.9,M,-34.0,M,,*65
$PYRTM,2024,127.669529245729,18.779176655868
$GPGGA,160406.00,3338.9320,N,11858.4662,W,1,11,0.8,11.2,M,-34.0,M,,*6B
$PYRTM,2024,127.669544985868,18.779192396007
$GPGGA,160407.00,3338.9318,N,11858.4670,W,1,11,0.8,12.3,M,-34.0,M,,*60
$PYRTM,2024,127.669556572164,18.779203982303
$GPGGA,160408.00,3338.9317,N,11858.4676,W,1,11,0.8,12.3,M,-34.0,M,,*66
$PYRTM,2024,127.669568132836,18.779215542975
$GPGGA,160409.00,3338.9317,N,11858.4679,W,1,11,0.8,12.4,M,-34.0,M,,*6F
$PYRTM,2024,127.669579720625,18.779227130775
$GPGGA,160410.00,3338.9318,N,11858.4685,W,1,11,0.8,15.2,M,-34.0,M,,*6A
$PYRTM,2024,127.669591281875,18.779238692014
$GPGGA,160411.00,3338.9317,N,11858.4696,W,1,11,0.8,16.0,M,-34.0,M,,*67
$PYRTM,2024,127.669602864074,18.779250274213
$GPGGA,160412.00,3338.9317,N,11858.4707,W,1,11,0.8,17.8,M,-34.0,M,,*64
$PYRTM,2024,127.669614430289,18.779261840428
$GPGGA,160413.00,3338.9317,N,11858.4714,W,1,11,0.8,17.6,M,-34.0,M,,*69
$PYRTM,2024,127.669626031597,18.779273441736
$GPGGA,160414.00,3338.9318,N,11858.4720,W,1,11,0.8,17.6,M,-34.0,M,,*66
$PYRTM,2024,127.669637579005,18.779284989144
$GPGGA,160415.00,3338.9320,N,11858.4727,W,1,11,0.8,17.6,M,-34.0,M,,*6B
$PYRTM,2024,127.669649616042,18.779297026181
$GPGGA,160416.00,3338.9322,N,11858.4734,W,1,11,0.8,16.7,M,-34.0,M,,*68
$PYRTM,2024,127.669660726308,18.779308136447
$GPGGA,160417.00,3338.9321,N,11858.4741,W,1,11,0.8,16.7,M,-34.0,M,,*68
$PYRTM,2024,127.669672313912,18.779319724051
$GPGGA,160418.00,3338.9321,N,11858.4749,W,1,11,0.8,16.5,M,-34.0,M,,*6D
$PYRTM,2024,127.669683874757,18.779331284896
$GPGGA,160419.00,3338.9322,N,11858.4755,W,1,11,0.8,16.7,M,-34.0,M,,*60
$PYRTM,2024,127.669695461701,18.779342871840
$GPGGA,160420.00,3338.9324,N,11858.4762,W,1,11,0.8,16.6,M,-34.0,M,,*69
$PYRTM,2024,127.669707025833,18.779354435972
$GPGGA,160421.00,3338.9324,N,11858.4771,W,1,11,0.8,15.6,M,-34.0,M,,*69
$PYRTM,2024,127.669718610949,18.779366021088
$GPGGA,160422.00,3338.9321,N,11858.4781,W,1,11,0.8,15.0,M,-34.0,M,,*66
$PYRTM,2024,127.669730170544,18.779377580683
$GPGGA,160423.00,3338.9319,N,11858.4791,W,1,11,0.8,14.9,M,-34.0,M,,*65
$PYRTM,2024,127.669741763299,18.779389173449
$GPGGA,160424.00,3338.9319,N,11858.4799,W,1,11,0.8,15.5,M,-34.0,M,,*67
$PYRTM,2024,127.669753795231,18.779401205370
$GPGGA,160425.00,3338.9322,N,11858.4805,W,1,11,0.8,15.4,M,-34.0,M,,*65
$PYRTM,2024,127.669764920833,18.779412330972
$GPGGA,160426.00,3338.9324,N,11858.4813,W,1,11,0.8,15.3,M,-34.0,M,,*60
$PYRTM,2024,127.669776468762,18.779423878900
$GPGGA,160427.00,3338.9324,N,11858.4821,W,1,11,0.8,15.3,M,-34.0,M,,*60
$PYRTM,2024,127.669788071250,18.779435481389
$GPGGA,160428.00,3338.9321,N,11858.4828,W,1,11,0.8,15.2,M,-34.0,M,,*62
$PYRTM,2024,127.669799617269,18.779447027407
$GPGGA,160429.00,3338.9322,N,11858.4835,W,1,11,0.8,15.5,M,-34.0,M,,*6B
$PYRTM,2024,127.669811199387,18.779458609525
$GPGGA,160430.00,3338.9324,N,11858.4841,W,1,11,0.8,17.2,M,-34.0,M,,*63
$PYRTM,2024,127.669822764595,18.779470174734
$GPGGA,160431.00,3338.9328,N,11858.4848,W,1,11,0.8,16.5,M,-34.0,M,,*61
$PYRTM,2024,127.669834351875,18.779481762025
$GPGGA,160432.00,3338.9330,N,11858.4855,W,1,11,0.8,15.1,M,-34.0,M,,*60
$PYRTM,2024,127.669845912650,18.779493322789
$GPGGA,160433.00,3338.9329,N,11858.4864,W,1,11,0.8,15.1,M,-34.0,M,,*6B
$PYRTM,2024,127.669857499722,18.779504909861
$GPGGA,160434.00,3338.9328,N,11858.4874,W,1,11,0.8,14.7,M,-34.0,M,,*6B
$PYRTM,2024,127.669869061100,18.779516471238
$GPGGA,160435.00,3338.9328,N,11858.4883,W,1,11,0.8,16.4,M,-34.0,M,,*63
$PYRTM,2024,127.669881805035,18.779529215174
$GPGGA,160436.00,3338.9330,N,11858.4888,W,1,11,0.8,16.5,M,-34.0,M,,*63
$PYRTM,2024,127.669893383056,18.779540793206
$GPGGA,160437.00,3338.9332,N,11858.4892,W,1,11,0.8,16.8,M,-34.0,M,,*66
$PYRTM,2024,127.669904954282,18.779552364421
$GPGGA,160438.00,3338.9331,N,11858.4900,W,1,11,0.8,14.2,M,-34.0,M,,*68
$PYRTM,2024,127.669916527604,18.779563937755
$GPGGA,160439.00,3338.9328,N,11858.4912,W,1,11,0.8,15.0,M,-34.0,M,,*61
$PYRTM,2024,127.669928102095,18.779575512234
$GPGGA,160440.00,3338.9326,N,11858.4919,W,1,11,0.8,15.0,M,-34.0,M,,*6A
$PYRTM,2024,127.669939676111,18.779587086250
$GPGGA,160441.00,3338.9326,N,11858.4923,W,1,11,0.8,15.1,M,-34.0,M,,*63
$PYRTM,2024,127.669951250035,18.779598660174
$GPGGA,160442.00,3338.9327,N,11858.4927,W,1,11,0.8,15.1,M,-34.0,M,,*65
$PYRTM,2024,127.669962826366,18.779610236505
$GPGGA,160443.00,3338.9328,N,11858.4933,W,1,11,0.8,15.3,M,-34.0,M,,*6C
$PYRTM,2024,127.669974398912,18.779621809051
$GPGGA,160444.00,3338.9326,N,11858.4942,W,1,11,0.8,14.3,M,-34.0,M,,*62
$PYRTM,2024,127.669985976968,18.779633387106
$GPGGA,160445.00,3338.9324,N,11858.4952,W,1,11,0.8,14.8,M,-34.0,M,,*6B
$PYRTM,2024,127.669997546273,18.779644956412
$GPGGA,160446.00,3338.9322,N,11858.4959,W,1,11,0.8,14.6,M,-34.0,M,,*6B
$PYRTM,2024,127.670009124062,18.779656534201
$GPGGA,160447.00,3338.9323,N,11858.4964,W,1,11,0.8,14.6,M,-34.0,M,,*65
$PYRTM,2024,127.670020695069,18.779668105208
$GPGGA,160448.00,3338.9323,N,11858.4967,W,1,11,0.8,14.1,M,-34.0,M,,*6E
$PYRTM,2024,127.670032284086,18.779679694225
$GPGGA,160449.00,3338.9324,N,11858.4974,W,1,11,0.8,13.8,M,-34.0,M,,*64
$PYRTM,2024,127.670043844664,18.779691254803
$GPGGA,160450.00,3338.9324,N,11858.4981,W,1,11,0.8,13.6,M,-34.0,M,,*68
$PYRTM,2024,127.670055421435,18.779702831574
$GPGGA,160451.00,3338.9323,N,11858.4990,W,1,11,0.8,13.7,M,-34.0,M,,*6F
$PYRTM,2024,127.670066994884,18.779714405035
$GPGGA,160452.00,3338.9322,N,11858.4998,W,1,11,0.8,14.7,M,-34.0,M,,*62
$PYRTM,2024,127.670078565324,18.779725975463
$GPGGA,160453.00,3338.9324,N,11858.5004,W,1,11,0.8,14.8,M,-34.0,M,,*67
$PYRTM,2024,127.670090140255,18.779737550394
$GPGGA,160454.00,3338.9325,N,11858.5011,W,1,11,0.8,14.8,M,-34.0,M,,*65
$PYRTM,2024,127.670102177269,18.779749587407
$GPGGA,160455.00,3338.9324,N,11858.5018,W,1,11,0.8,14.6,M,-34.0,M,,*62
$PYRTM,2024,127.670113288866,18.779760699016
$GPGGA,160456.00,3338.9325,N,11858.5026,W,1,11,0.8,14.9,M,-34.0,M,,*62
$PYRTM,2024,127.670124862477,18.779772272627
$GPGGA,160457.00,3338.9325,N,11858.5033,W,1,11,0.8,14.8,M,-34.0,M,,*66
$PYRTM,2024,127.670136431134,18.779783841273
$GPGGA,160458.00,3338.9325,N,11858.5036,W,1,11,0.8,14.8,M,-34.0,M,,*6C
$PYRTM,2024,127.670148011609,18.779795421748
$GPGGA,160459.00,3338.9328,N,11858.5040,W,1,11,0.8,14.7,M,-34.0,M,,*6E
$PYRTM,2024,127.670159584734,18.779806994873
$GPGGA,160500.00,3338.9328,N,11858.5049,W,1,11,0.8,14.3,M,-34.0,M,,*6E
$PYRTM,2024,127.670171154699,18.779818564838
$GPGGA,160501.00,3338.9328,N,11858.5060,W,1,11,0.8,14.3,M,-34.0,M,,*64
$PYRTM,2024,127.670182733056,18.779830143194
$GPGGA,160502.00,3338.9324,N,11858.5068,W,1,11,0.8,14.8,M,-34.0,M,,*68
$PYRTM,2024,127.670194323137,18.779841733287
$GPGGA,160503.00,3338.9323,N,11858.5072,W,1,11,0.8,15.2,M,-34.0,M,,*6E
$PYRTM,2024,127.670205881273,18.779853291412
$GPGGA,160504.00,3338.9326,N,11858.5076,W,1,11,0.8,15.2,M,-34.0,M,,*68
$PYRTM,2024,127.670217472442,18.779864882581
$GPGGA,160505.00,3338.9328,N,11858.5084,W,1,11,0.8,15.3,M,-34.0,M,,*6B
$PYRTM,2024,127.670230528322,18.779877938461
$GPGGA,160506.00,3338.9330,N,11858.5097,W,1,11,0.8,15.2,M,-34.0,M,,*62
$PYRTM,2024,127.670242790312,18.779890200451
$GPGGA,160507.00,3338.9328,N,11858.5106,W,1,11,0.8,15.0,M,-34.0,M,,*61
$PYRTM,2024,127.670252172743,18.779899582882
$GPGGA,160508.00,3338.9327,N,11858.5110,W,1,11,0.8,15.0,M,-34.0,M,,*66
$PYRTM,2024,127.670263751146,18.779911161285
$GPGGA,160509.00,3338.9328,N,11858.5114,W,1,11,0.8,15.0,M,-34.0,M,,*6C
$PYRTM,2024,127.670275321389,18.779922731528
$GPGGA,160510.00,3338.9334,N,11858.5121,W,1,11,0.8,14.6,M,-34.0,M,,*68
$PYRTM,2024,127.670286901782,18.779934311933
$GPGGA,160511.00,3338.9336,N,11858.5130,W,1,11,0.8,14.5,M,-34.0,M,,*68
$PYRTM,2024,127.670298474225,18.779945884363
$GPGGA,160512.00,3338.9335,N,11858.5136,W,1,11,0.8,14.8,M,-34.0,M,,*63
$PYRTM,2024,127.670310048102,18.779957458241
$GPGGA,160513.00,3338.9333,N,11858.5141,W,1,11,0.8,14.9,M,-34.0,M,,*65
$PYRTM,2024,127.670321622222,18.779969032361
$GPGGA,160514.00,3338.9335,N,11858.5147,W,1,11,0.8,14.1,M,-34.0,M,,*6A
$PYRTM,2024,127.670333191829,18.779980601968
$GPGGA,160515.00,3338.9338,N,11858.5154,W,1,11,0.8,14.0,M,-34.0,M,,*65
$PYRTM,2024,127.670344770509,18.779992180648
$GPGGA,160516.00,3338.9339,N,11858.5161,W,1,11,0.8,14.1,M,-34.0,M,,*60
$PYRTM,2024,127.670356359664,18.780003769803
$GPGGA,160517.00,3338.9337,N,11858.5168,W,1,11,0.8,14.0,M,-34.0,M,,*67
$PYRTM,2024,127.670367918391,18.780015328530
$GPGGA,160518.00,3338.9332,N,11858.5175,W,1,11,0.8,14.1,M,-34.0,M,,*60
$PYRTM,2024,127.670379497720,18.780026907870
$GPGGA,160519.00,3338.9330,N,11858.5181,W,1,11,0.8,14.4,M,-34.0,M,,*6D
$PYRTM,2024,127.670391067396,18.780038477535
$GPGGA,160520.00,3338.9331,N,11858.5186,W,1,11,0.8,14.4,M,-34.0,M,,*61
$PYRTM,2024,127.670402643877,18.780050054016
$GPGGA,160521.00,3338.9332,N,11858.5192,W,1,11,0.8,14.2,M,-34.0,M,,*60
$PYRTM,2024,127.670414216667,18.780061626806
$GPGGA,160522.00,3338.9331,N,11858.5200,W,1,11,0.8,14.1,M,-34.0,M,,*6B
$PYRTM,2024,127.670425790764,18.780073200903
$GPGGA,160523.00,3338.9329,N,11858.5207,W,1,11,0.8,13.9,M,-34.0,M,,*6B
$PYRTM,2024,127.670437358762,18.780084768900
$GPGGA,160524.00,3338.9328,N,11858.5212,W,1,11,0.8,13.9,M,-34.0,M,,*69
$PYRTM,2024,127.670449401516,18.780096811655
$GPGGA,160525.00,3338.9330,N,11858.5217,W,1,11,0.8,13.9,M,-34.0,M,,*64
$PYRTM,2024,127.670460512130,18.780107922269
$GPGGA,160526.00,3338.9333,N,11858.5224,W,1,11,0.8,13.5,M,-34.0,M,,*68
$PYRTM,2024,127.670472086285,18.780119496424
$GPGGA,160527.00,3338.9335,N,11858.5232,W,1,11,0.8,14.0,M,-34.0,M,,*6A
$PYRTM,2024,127.670483660289,18.780131070428
$GPGGA,160528.00,3338.9334,N,11858.5239,W,1,11,0.8,14.1,M,-34.0,M,,*6E
$PYRTM,2024,127.670495235197,18.780142645336
$GPGGA,160529.00,3338.9331,N,11858.5245,W,1,11,0.8,14.5,M,-34.0,M,,*65
$PYRTM,2024,127.670506808924,18.780154219062
$GPGGA,160530.00,3338.9330,N,11858.5252,W,1,11,0.8,15.3,M,-34.0,M,,*6D
$PYRTM,2024,127.670518378079,18.780165788218
$GPGGA,160531.00,3338.9331,N,11858.5260,W,1,11,0.8,14.1,M,-34.0,M,,*6F
$PYRTM,2024,127.670529957037,18.780177367176
$GPGGA,160532.00,3338.9333,N,11858.5266,W,1,11,0.8,13.9,M,-34.0,M,,*67
$PYRTM,2024,127.670541534514,18.780188944653
$GPGGA,160533.00,3338.9332,N,11858.5272,W,1,11,0.8,12.2,M,-34.0,M,,*68
$PYRTM,2024,127.670553106875,18.780200517014
$GPGGA,160534.00,3338.9331,N,11858.5280,W,1,11,0.8,12.1,M,-34.0,M,,*62
$PYRTM,2024,127.670564681806,18.780212091944
$GPGGA,160535.00,3338.9330,N,11858.5289,W,1,11,0.8,13.6,M,-34.0,M,,*6D
$PYRTM,2024,127.670577281713,18.780224691852
$GPGGA,160536.00,3338.9331,N,11858.5295,W,1,11,0.8,13.6,M,-34.0,M,,*62
$PYRTM,2024,127.670590013738,18.780237423889
$GPGGA,160537.00,3338.9333,N,11858.5301,W,1,11,0.8,13.5,M,-34.0,M,,*6E
$PYRTM,2024,127.670599401238,18.780246811389
$GPGGA,160538.00,3338.9334,N,11858.5307,W,1,11,0.8,13.2,M,-34.0,M,,*67
$PYRTM,2024,127.670610979537,18.780258389676
$GPGGA,160539.00,3338.9333,N,11858.5316,W,1,11,0.8,14.8,M,-34.0,M,,*6C
$PYRTM,2024,127.670622546412,18.780269956551
$GPGGA,160540.00,3338.9332,N,11858.5325,W,1,11,0.8,16.9,M,-34.0,M,,*60
$PYRTM,2024,127.670634119757,18.780281529896
$GPGGA,160541.00,3338.9332,N,11858.5331,W,1,11,0.8,16.6,M,-34.0,M,,*6B
$PYRTM,2024,127.670644772373,18.780292182512
$GPGGA,160542.00,3338.9333,N,11858.5337,W,1,11,0.8,16.2,M,-34.0,M,,*6B
$PYRTM,2024,127.670657736146,18.780305146285
$GPGGA,160543.00,3338.9333,N,11858.5345,W,1,11,0.8,15.8,M,-34.0,M,,*66
$PYRTM,2024,127.670668500185,18.780315910324
$GPGGA,160544.00,3338.9332,N,11858.5354,W,1,11,0.8,14.0,M,-34.0,M,,*69
$PYRTM,2024,127.670679614190,18.780327024329
$GPGGA,160545.00,3338.9331,N,11858.5361,W,1,11,0.8,14.3,M,-34.0,M,,*6E
$PYRTM,2024,127.670690721632,18.780338131771
$GPGGA,160546.00,3338.9330,N,11858.5367,W,1,11,0.8,14.1,M,-34.0,M,,*68
$PYRTM,2024,127.670701846806,18.780349256956
$GPGGA,160547.00,3338.9330,N,11858.5372,W,1,11,0.8,13.8,M,-34.0,M,,*63
$PYRTM,2024,127.670712944213,18.780360354352
$GPGGA,160548.00,3338.9331,N,11858.5377,W,1,11,0.8,12.9,M,-34.0,M,,*68
$PYRTM,2024,127.670724054722,18.780371464850
$GPGGA,160549.00,3338.9331,N,11858.5385,W,1,11,0.8,12.5,M,-34.0,M,,*68
$PYRTM,2024,127.670735167894,18.780382578032
$GPGGA,160550.00,3338.9331,N,11858.5393,W,1,11,0.8,11.5,M,-34.0,M,,*64
$PYRTM,2024,127.670746286319,18.780393696458
$GPGGA,160551.00,3338.9330,N,11858.5398,W,1,11,0.8,11.5,M,-34.0,M,,*6F
$PYRTM,2024,127.670757403461,18.780404813600
$GPGGA,160552.00,3338.9331,N,11858.5404,W,1,11,0.8,13.2,M,-34.0,M,,*6A
$PYRTM,2024,127.670768499745,18.780415909884
$GPGGA,160553.00,3338.9332,N,11858.5412,W,1,11,0.8,11.4,M,-34.0,M,,*6B
$PYRTM,2024,127.670779726481,18.780427136620
$GPGGA,160554.00,3338.9333,N,11858.5421,W,1,11,0.8,12.4,M,-34.0,M,,*6E
$PYRTM,2024,127.670790839306,18.780438249444
$GPGGA,160555.00,3338.9333,N,11858.5430,W,1,11,0.8,13.8,M,-34.0,M,,*62
$PYRTM,2024,127.670802400880,18.780449811019
$GPGGA,160556.00,3338.9331,N,11858.5437,W,1,11,0.8,14.0,M,-34.0,M,,*6B
$PYRTM,2024,127.670814003044,18.780461413183
$GPGGA,160557.00,3338.9331,N,11858.5444,W,1,11,0.8,15.7,M,-34.0,M,,*68
$PYRTM,2024,127.670825548785,18.780472958924
$GPGGA,160558.00,3338.9332,N,11858.5453,W,1,11,0.8,16.3,M,-34.0,M,,*65
$PYRTM,2024,127.670837149352,18.780484559491
$GPGGA,160559.00,3338.9333,N,11858.5461,W,1,11,0.8,13.7,M,-34.0,M,,*65
$PYRTM,2024,127.670848694711,18.780496104850
$GPGGA,160600.00,3338.9333,N,11858.5467,W,1,11,0.8,13.6,M,-34.0,M,,*6D
$PYRTM,2024,127.670860285868,18.780507696007
$GPGGA,160601.00,3338.9330,N,11858.5473,W,1,11,0.8,14.3,M,-34.0,M,,*68
$PYRTM,2024,127.670871844907,18.780519255046
$GPGGA,160602.00,3338.9327,N,11858.5481,W,1,11,0.8,12.9,M,-34.0,M,,*6C
$PYRTM,2024,127.670883432940,18.780530843079
$GPGGA,160603.00,3338.9328,N,11858.5490,W,1,11,0.8,14.5,M,-34.0,M,,*68
$PYRTM,2024,127.670894992998,18.780542403148
$GPGGA,160604.00,3338.9329,N,11858.5498,W,1,11,0.8,14.7,M,-34.0,M,,*64
$PYRTM,2024,127.670906580475,18.780553990625
$GPGGA,160605.00,3338.9330,N,11858.5503,W,1,11,0.8,14.6,M,-34.0,M,,*6F
$PYRTM,2024,127.670918142199,18.780565552338
$GPGGA,160606.00,3338.9329,N,11858.5509,W,1,11,0.8,15.2,M,-34.0,M,,*6B
$PYRTM,2024,127.670933881181,18.780581291331
$GPGGA,160607.00,3338.9328,N,11858.5519,W,1,11,0.8,13.8,M,-34.0,M,,*66
$PYRTM,2024,127.670945471435,18.780592881574
$GPGGA,160608.00,3338.9329,N,11858.5529,W,1,11,0.8,13.1,M,-34.0,M,,*62
$PYRTM,2024,127.670957029734,18.780604439873
$GPGGA,160609.00,3338.9330,N,11858.5536,W,1,11,0.8,12.7,M,-34.0,M,,*62
$PYRTM,2024,127.670968616377,18.780616026516
$GPGGA,160610.00,3338.9332,N,11858.5542,W,1,11,0.8,12.8,M,-34.0,M,,*64
$PYRTM,2024,127.670980179838,18.780627589988
$GPGGA,160611.00,3338.9332,N,11858.5549,W,1,11,0.8,10.7,M,-34.0,M,,*63
$PYRTM,2024,127.670991765150,18.780639175301
$GPGGA,160612.00,3338.9332,N,11858.5557,W,1,11,0.8,13.9,M,-34.0,M,,*62
$PYRTM,2024,127.671003327211,18.780650737350
$GPGGA,160613.00,3338.9330,N,11858.5564,W,1,11,0.8,15.4,M,-34.0,M,,*6A
$PYRTM,2024,127.671014912963,18.780662323102
$GPGGA,160614.00,3338.9330,N,11858.5572,W,1,11,0.8,16.1,M,-34.0,M,,*6C
$PYRTM,2024,127.671026475301,18.780673885451
$GPGGA,160615.00,3338.9331,N,11858.5579,W,1,11,0.8,14.1,M,-34.0,M,,*65
$PYRTM,2024,127.671038062211,18.780685472350
$GPGGA,160616.00,3338.9331,N,11858.5586,W,1,11,0.8,13.8,M,-34.0,M,,*68
$PYRTM,2024,127.671049622847,18.780697032986
$GPGGA,160617.00,3338.9330,N,11858.5590,W,1,11,0.8,13.9,M,-34.0,M,,*6E
$PYRTM,2024,127.671061210035,18.780708620174
$GPGGA,160618.00,3338.9331,N,11858.5596,W,1,11,0.8,13.8,M,-34.0,M,,*67
$PYRTM,2024,127.671072771979,18.780720182118
$GPGGA,160619.00,3338.9330,N,11858.5605,W,1,11,0.8,13.8,M,-34.0,M,,*6E
$PYRTM,2024,127.671084352627,18.780731762766
$GPGGA,160620.00,3338.9330,N,11858.5614,W,1,11,0.8,11.8,M,-34.0,M,,*66
$PYRTM,2024,127.671095919352,18.780743329491
$GPGGA,160621.00,3338.9332,N,11858.5619,W,1,11,0.8,11.4,M,-34.0,M,,*64
$PYRTM,2024,127.671107509907,18.780754920046
$GPGGA,160622.00,3338.9333,N,11858.5623,W,1,11,0.8,11.9,M,-34.0,M,,*62
$PYRTM,2024,127.671119067454,18.780766477593
$GPGGA,160623.00,3338.9332,N,11858.5627,W,1,11,0.8,11.9,M,-34.0,M,,*66
$PYRTM,2024,127.671130657465,18.780778067604
$GPGGA,160624.00,3338.9331,N,11858.5633,W,1,11,0.8,15.9,M,-34.0,M,,*63
$PYRTM,2024,127.671142692118,18.780790102257
$GPGGA,160625.00,3338.9331,N,11858.5642,W,1,11,0.8,12.3,M,-34.0,M,,*69
$PYRTM,2024,127.671153802627,18.780801212766
$GPGGA,160626.00,3338.9332,N,11858.5651,W,1,11,0.8,9.8,M,-34.0,M,,*5A
$PYRTM,2024,127.671165364884,18.780812775023
$GPGGA,160627.00,3338.9332,N,11858.5659,W,1,11,0.8,9.2,M,-34.0,M,,*59
$PYRTM,2024,127.671176947014,18.780824357153
$GPGGA,160628.00,3338.9332,N,11858.5663,W,1,11,0.8,9.2,M,-34.0,M,,*5F
$PYRTM,2024,127.671188513727,18.780835923877
$GPGGA,160629.00,3338.9332,N,11858.5664,W,1,11,0.8,9.4,M,-34.0,M,,*5F
$PYRTM,2024,127.671200094676,18.780847504815
$GPGGA,160630.00,3338.9332,N,11858.5667,W,1,11,0.8,11.8,M,-34.0,M,,*61
$PYRTM,2024,127.671211661898,18.780859072037
$GPGGA,160631.00,3338.9331,N,11858.5678,W,1,11,0.8,12.0,M,-34.0,M,,*66
$PYRTM,2024,127.671223248252,18.780870658391
$GPGGA,160632.00,3338.9330,N,11858.5687,W,1,11,0.8,10.9,M,-34.0,M,,*6F
$PYRTM,2024,127.671234810289,18.780882220440
$GPGGA,160633.00,3338.9329,N,11858.5693,W,1,11,0.8,10.7,M,-34.0,M,,*6D
$PYRTM,2024,127.671246399456,18.780893809595
$GPGGA,160634.00,3338.9327,N,11858.5695,W,1,11,0.8,10.7,M,-34.0,M,,*62
$PYRTM,2024,127.671257958171,18.780905368310
$GPGGA,160635.00,3338.9327,N,11858.5701,W,1,11,0.8,10.9,M,-34.0,M,,*61
$PYRTM,2024,127.671270697245,18.780918107384
$GPGGA,160636.00,3338.9326,N,11858.5709,W,1,11,0.8,11.7,M,-34.0,M,,*64
$PYRTM,2024,127.671282277593,18.780929687743
$GPGGA,160637.00,3338.9326,N,11858.5716,W,1,11,0.8,11.2,M,-34.0,M,,*6E
$PYRTM,2024,127.671293849977,18.780941260116
$GPGGA,160638.00,3338.9326,N,11858.5721,W,1,11,0.8,11.2,M,-34.0,M,,*65
$PYRTM,2024,127.671305425486,18.780952835625
$GPGGA,160639.00,3338.9326,N,11858.5725,W,1,11,0.8,11.2,M,-34.0,M,,*60
$PYRTM,2024,127.671316998310,18.780964408449
$GPGGA,160640.00,3338.9327,N,11858.5730,W,1,11,0.8,10.9,M,-34.0,M,,*61
$PYRTM,2024,127.671328573322,18.780975983461
$GPGGA,160641.00,3338.9326,N,11858.5738,W,1,11,0.8,11.2,M,-34.0,M,,*63
$PYRTM,2024,127.671340146505,18.780987556655
$GPGGA,160642.00,3338.9324,N,11858.5747,W,1,11,0.8,11.1,M,-34.0,M,,*69
$PYRTM,2024,127.671351725174,18.780999135313
$GPGGA,160643.00,3338.9322,N,11858.5752,W,1,11,0.8,11.2,M,-34.0,M,,*69
$PYRTM,2024,127.671363295081,18.781010705220
$GPGGA,160644.00,3338.9323,N,11858.5756,W,1,11,0.8,11.2,M,-34.0,M,,*6B
$PYRTM,2024,127.671374872465,18.781022282604
$GPGGA,160645.00,3338.9323,N,11858.5763,W,1,11,0.8,11.0,M,-34.0,M,,*6E
$PYRTM,2024,127.671386907731,18.781034317882
$GPGGA,160646.00,3338.9322,N,11858.5772,W,1,11,0.8,11.1,M,-34.0,M,,*6D
$PYRTM,2024,127.671398017419,18.781045427558
$GPGGA,160647.00,3338.9320,N,11858.5779,W,1,11,0.8,11.0,M,-34.0,M,,*64
$PYRTM,2024,127.671409590590,18.781057000729
$GPGGA,160648.00,3338.9319,N,11858.5784,W,1,11,0.8,11.0,M,-34.0,M,,*63
$PYRTM,2024,127.671421165336,18.781068575475
$GPGGA,160649.00,3338.9320,N,11858.5790,W,1,11,0.8,11.1,M,-34.0,M,,*6C
$PYRTM,2024,127.671432739664,18.781080149803
$GPGGA,160650.00,3338.9321,N,11858.5796,W,1,11,0.8,11.1,M,-34.0,M,,*63
$PYRTM,2024,127.671444308380,18.781091718519
$GPGGA,160651.00,3338.9321,N,11858.5802,W,1,11,0.8,12.6,M,-34.0,M,,*64
$PYRTM,2024,127.671455888206,18.781103298345
$GPGGA,160652.00,3338.9319,N,11858.5809,W,1,11,0.8,13.2,M,-34.0,M,,*62
$PYRTM,2024,127.671467456898,18.781114867025
$GPGGA,160653.00,3338.9319,N,11858.5815,W,1,11,0.8,13.1,M,-34.0,M,,*6D
$PYRTM,2024,127.671479035972,18.781126446111
$GPGGA,160654.00,3338.9320,N,11858.5822,W,1,11,0.8,15.5,M,-34.0,M,,*66
$PYRTM,2024,127.671490956863,18.781138367002
$GPGGA,160655.00,3338.9322,N,11858.5829,W,1,11,0.8,14.6,M,-34.0,M,,*6C
$PYRTM,2024,127.671502183819,18.781149593958
$GPGGA,160656.00,3338.9324,N,11858.5838,W,1,11,0.8,14.7,M,-34.0,M,,*68
$PYRTM,2024,127.671513772674,18.781161182813
$GPGGA,160657.00,3338.9323,N,11858.5845,W,1,11,0.8,15.6,M,-34.0,M,,*64
$PYRTM,2024,127.671525332373,18.781172742512
$GPGGA,160658.00,3338.9321,N,11858.5851,W,1,11,0.8,15.8,M,-34.0,M,,*62
$PYRTM,2024,127.671536910799,18.781184320937
$GPGGA,160659.00,3338.9320,N,11858.5856,W,1,11,0.8,15.8,M,-34.0,M,,*65
$PYRTM,2024,127.671548482998,18.781195893137
$GPGGA,160700.00,3338.9321,N,11858.5864,W,1,11,0.8,17.3,M,-34.0,M,,*61
$PYRTM,2024,127.671560055312,18.781207465451
$GPGGA,160701.00,3338.9321,N,11858.5872,W,1,11,0.8,15.0,M,-34.0,M,,*66
$PYRTM,2024,127.671571629572,18.781219039722
$GPGGA,160702.00,3338.9319,N,11858.5879,W,1,11,0.8,15.4,M,-34.0,M,,*61
$PYRTM,2024,127.671583203681,18.781230613819
$GPGGA,160703.00,3338.9316,N,11858.5887,W,1,11,0.8,15.1,M,-34.0,M,,*6B
$PYRTM,2024,127.671594777315,18.781242187454
$GPGGA,160704.00,3338.9314,N,11858.5897,W,1,11,0.8,16.4,M,-34.0,M,,*69
$PYRTM,2024,127.671606351840,18.781253761979
$GPGGA,160705.00,3338.9314,N,11858.5905,W,1,11,0.8,16.4,M,-34.0,M,,*62
$PYRTM,2024,127.671618956146,18.781266366285
$GPGGA,160706.00,3338.9314,N,11858.5911,W,1,11,0.8,16.2,M,-34.0,M,,*62
$PYRTM,2024,127.671631685787,18.781279095926
$GPGGA,160707.00,3338.9314,N,11858.5918,W,1,11,0.8,15.0,M,-34.0,M,,*6B
$PYRTM,2024,127.671641076042,18.781288486192
$GPGGA,160708.00,3338.9312,N,11858.5925,W,1,11,0.8,15.7,M,-34.0,M,,*6B
$PYRTM,2024,127.671652649306,18.781300059444
$GPGGA,160709.00,3338.9311,N,11858.5932,W,1,11,0.8,15.3,M,-34.0,M,,*6B
$PYRTM,2024,127.671664222130,18.781311632269
$GPGGA,160710.00,3338.9311,N,11858.5937,W,1,11,0.8,15.1,M,-34.0,M,,*64
$PYRTM,2024,127.671675802361,18.781323212500
$GPGGA,160711.00,3338.9312,N,11858.5942,W,1,11,0.8,15.6,M,-34.0,M,,*63
$PYRTM,2024,127.671687372812,18.781334782951
$GPGGA,160712.00,3338.9312,N,11858.5949,W,1,11,0.8,14.0,M,-34.0,M,,*6C
$PYRTM,2024,127.671698948125,18.781346358264
$GPGGA,160713.00,3338.9311,N,11858.5957,W,1,11,0.8,14.0,M,-34.0,M,,*61
$PYRTM,2024,127.671710518727,18.781357928866
$GPGGA,160714.00,3338.9310,N,11858.5964,W,1,11,0.8,13.8,M,-34.0,M,,*68
$PYRTM,2024,127.671722092731,18.781369502870
$GPGGA,160715.00,3338.9312,N,11858.5969,W,1,11,0.8,14.2,M,-34.0,M,,*6B
$PYRTM,2024,127.671733661470,18.781381071609
$GPGGA,160716.00,3338.9314,N,11858.5975,W,1,11,0.8,16.0,M,-34.0,M,,*63
$PYRTM,2024,127.671745237315,18.781392647454
$GPGGA,160717.00,3338.9313,N,11858.5985,W,1,11,0.8,16.2,M,-34.0,M,,*68
$PYRTM,2024,127.671756814850,18.781404224988
$GPGGA,160718.00,3338.9311,N,11858.5993,W,1,11,0.8,15.6,M,-34.0,M,,*65
$PYRTM,2024,127.671768389606,18.781415799745
$GPGGA,160719.00,3338.9309,N,11858.5997,W,1,11,0.8,15.7,M,-34.0,M,,*68
$PYRTM,2024,127.671779964954,18.781427375093
$GPGGA,160720.00,3338.9309,N,11858.6001,W,1,11,0.8,15.8,M,-34.0,M,,*68
$PYRTM,2024,127.671791538715,18.781438948854
$GPGGA,160721.00,3338.9310,N,11858.6008,W,1,11,0.8,16.0,M,-34.0,M,,*63
$PYRTM,2024,127.671803112338,18.781450522477
$GPGGA,160722.00,3338.9310,N,11858.6015,W,1,11,0.8,16.1,M,-34.0,M,,*6D
$PYRTM,2024,127.671814686771,18.781462096910
$GPGGA,160723.00,3338.9310,N,11858.6022,W,1,11,0.8,16.0,M,-34.0,M,,*69
$PYRTM,2024,127.671826259375,18.781473669514
$GPGGA,160724.00,3338.9308,N,11858.6028,W,1,11,0.8,16.2,M,-34.0,M,,*6F
$PYRTM,2024,127.671838180937,18.781485591076
$GPGGA,160725.00,3338.9307,N,11858.6033,W,1,11,0.8,17.1,M,-34.0,M,,*69
$PYRTM,2024,127.671849409132,18.781496819271
$GPGGA,160726.00,3338.9307,N,11858.6041,W,1,11,0.8,19.3,M,-34.0,M,,*63
$PYRTM,2024,127.671860985903,18.781508396053
$GPGGA,160727.00,3338.9307,N,11858.6047,W,1,11,0.8,19.1,M,-34.0,M,,*66
$PYRTM,2024,127.671872555880,18.781519966019
$GPGGA,160728.00,3338.9307,N,11858.6052,W,1,11,0.8,18.8,M,-34.0,M,,*65
$PYRTM,2024,127.671884130729,18.781531540868
$GPGGA,160729.00,3338.9306,N,11858.6059,W,1,11,0.8,16.4,M,-34.0,M,,*6C
$PYRTM,2024,127.671895704560,18.781543114699
$GPGGA,160730.00,3338.9306,N,11858.6066,W,1,11,0.8,17.4,M,-34.0,M,,*69
$PYRTM,2024,127.671907276296,18.781554686435
$GPGGA,160731.00,3338.9307,N,11858.6073,W,1,11,0.8,18.2,M,-34.0,M,,*64
$PYRTM,2024,127.671918853623,18.781566263762
$GPGGA,160732.00,3338.9309,N,11858.6080,W,1,11,0.8,20.9,M,-34.0,M,,*65
$PYRTM,2024,127.671930427731,18.781577837870
$GPGGA,160733.00,3338.9310,N,11858.6087,W,1,11,0.8,21.3,M,-34.0,M,,*60
$PYRTM,2024,127.671942002083,18.781589412234
$GPGGA,160734.00,3338.9311,N,11858.6093,W,1,11,0.8,20.8,M,-34.0,M,,*69
$PYRTM,2024,127.671953570949,18.781600981088
$GPGGA,160735.00,3338.9311,N,11858.6100,W,1,11,0.8,20.7,M,-34.0,M,,*6C
$PYRTM,2024,127.671966657338,18.781614067477
$GPGGA,160736.00,3338.9311,N,11858.6106,W,1,11,0.8,20.1,M,-34.0,M,,*6F
$PYRTM,2024,127.671978910660,18.781626320799
$GPGGA,160737.00,3338.9312,N,11858.6111,W,1,11,0.8,19.9,M,-34.0,M,,*69
$PYRTM,2024,127.671988298681,18.781635708819
$GPGGA,160738.00,3338.9314,N,11858.6116,W,1,11,0.8,17.0,M,-34.0,M,,*60
$PYRTM,2024,127.671999888194,18.781647298345
$GPGGA,160739.00,3338.9316,N,11858.6122,W,1,11,0.8,15.1,M,-34.0,M,,*67
$PYRTM,2024,127.672011447373,18.781658857512
$GPGGA,160740.00,3338.9314,N,11858.6129,W,1,11,0.8,13.9,M,-34.0,M,,*6E
$PYRTM,2024,127.672023035046,18.781670445185
$GPGGA,160741.00,3338.9313,N,11858.6134,W,1,11,0.8,14.0,M,-34.0,M,,*6A
$PYRTM,2024,127.672034594062,18.781682004201
$GPGGA,160742.00,3338.9314,N,11858.6140,W,1,11,0.8,16.0,M,-34.0,M,,*6F
$PYRTM,2024,127.672046172465,18.781693582604
$GPGGA,160743.00,3338.9317,N,11858.6146,W,1,11,0.8,15.1,M,-34.0,M,,*69
$PYRTM,2024,127.672057743264,18.781705153403
$GPGGA,160744.00,3338.9318,N,11858.6153,W,1,11,0.8,15.1,M,-34.0,M,,*65
$PYRTM,2024,127.672069316887,18.781716727025
$GPGGA,160745.00,3338.9318,N,11858.6159,W,1,11,0.8,16.9,M,-34.0,M,,*65
$PYRTM,2024,127.672080887396,18.781728297535
$GPGGA,160746.00,3338.9317,N,11858.6165,W,1,11,0.8,16.8,M,-34.0,M,,*67
$PYRTM,2024,127.672091539248,18.781738949387
$GPGGA,160747.00,3338.9317,N,11858.6170,W,1,11,0.8,16.8,M,-34.0,M,,*62
$PYRTM,2024,127.672103590775,18.781751000914
$GPGGA,160748.00,3338.9319,N,11858.6177,W,1,11,0.8,15.7,M,-34.0,M,,*68
$PYRTM,2024,127.672113299884,18.781760710023
$GPGGA,160749.00,3338.9321,N,11858.6185,W,1,11,0.8,18.1,M,-34.0,M,,*64
$PYRTM,2024,127.672124405266,18.781771815405
$GPGGA,160750.00,3338.9320,N,11858.6194,W,1,11,0.8,14.6,M,-34.0,M,,*66
$PYRTM,2024,127.672135405127,18.781782815266
$GPGGA,160751.00,3338.9317,N,11858.6200,W,1,11,0.8,14.8,M,-34.0,M,,*63
$PYRTM,2024,127.672146511933,18.781793922072
$GPGGA,160752.00,3338.9315,N,11858.6207,W,1,11,0.8,13.2,M,-34.0,M,,*68
$PYRTM,2024,127.672167814491,18.781815224630
$GPGGA,160753.00,3338.9316,N,11858.6216,W,1,11,0.8,13.8,M,-34.0,M,,*60
$PYRTM,2024,127.672178923044,18.781826333183
$GPGGA,160754.00,3338.9317,N,11858.6226,W,1,11,0.8,15.0,M,-34.0,M,,*6B
$PYRTM,2024,127.672190370058,18.781837780197
$GPGGA,160755.00,3338.9317,N,11858.6233,W,1,11,0.8,15.0,M,-34.0,M,,*6E
$PYRTM,2024,127.672202520486,18.781849930625
$GPGGA,160756.00,3338.9315,N,11858.6239,W,1,11,0.8,15.0,M,-34.0,M,,*65
$PYRTM,2024,127.672213632512,18.781861042650
$GPGGA,160757.00,3338.9312,N,11858.6243,W,1,11,0.8,15.3,M,-34.0,M,,*6D
$PYRTM,2024,127.672224743137,18.781872153264
$GPGGA,160758.00,3338.9310,N,11858.6252,W,1,11,0.8,17.1,M,-34.0,M,,*60
$PYRTM,2024,127.672235855035,18.781883265185
$GPGGA,160759.00,3338.9313,N,11858.6263,W,1,11,0.8,16.1,M,-34.0,M,,*61
$PYRTM,2024,127.672246966412,18.781894376551
$GPGGA,160800.00,3338.9314,N,11858.6271,W,1,11,0.8,16.3,M,-34.0,M,,*64
$PYRTM,2024,127.672258076991,18.781905487141
$GPGGA,160801.00,3338.9314,N,11858.6276,W,1,11,0.8,16.2,M,-34.0,M,,*63
$PYRTM,2024,127.672269187697,18.781916597836
$GPGGA,160802.00,3338.9313,N,11858.6281,W,1,11,0.8,14.2,M,-34.0,M,,*6D
$PYRTM,2024,127.672280301447,18.781927711597
$GPGGA,160803.00,3338.9313,N,11858.6288,W,1,11,0.8,13.6,M,-34.0,M,,*66
$PYRTM,2024,127.672291409977,18.781938820116
$GPGGA,160804.00,3338.9315,N,11858.6297,W,1,11,0.8,15.3,M,-34.0,M,,*6A
$PYRTM,2024,127.672302523044,18.781949933183
$GPGGA,160805.00,3338.9316,N,11858.6303,W,1,11,0.8,14.8,M,-34.0,M,,*6E
$PYRTM,2024,127.672313633900,18.781961044039
$GPGGA,160806.00,3338.9315,N,11858.6309,W,1,11,0.8,14.9,M,-34.0,M,,*65
$PYRTM,2024,127.672323483900,18.781970894039
$GPGGA,160807.00,3338.9314,N,11858.6315,W,1,11,0.8,16.3,M,-34.0,M,,*60
$PYRTM,2024,127.672334597014,18.781982007153
$GPGGA,160808.00,3338.9313,N,11858.6323,W,1,11,0.8,13.5,M,-34.0,M,,*6E
$PYRTM,2024,127.672347099525,18.781994509664
$GPGGA,160809.00,3338.9314,N,11858.6330,W,1,11,0.8,13.6,M,-34.0,M,,*69
$PYRTM,2024,127.672358670486,18.782006080625
$GPGGA,160810.00,3338.9314,N,11858.6338,W,1,11,0.8,11.3,M,-34.0,M,,*6E
$PYRTM,2024,127.672370114919,18.782017525058
$GPGGA,160811.00,3338.9313,N,11858.6345,W,1,11,0.8,8.5,M,-34.0,M,,*5C
$PYRTM,2024,127.672381702905,18.782029113056
$GPGGA,160812.00,3338.9311,N,11858.6353,W,1,11,0.8,9.0,M,-34.0,M,,*5E
$PYRTM,2024,127.672393393704,18.782040803854
$GPGGA,160813.00,3338.9311,N,11858.6360,W,1,11,0.8,13.7,M,-34.0,M,,*63
$PYRTM,2024,127.672404964294,18.782052374433
$GPGGA,160814.00,3338.9311,N,11858.6368,W,1,11,0.8,11.5,M,-34.0,M,,*6C
$PYRTM,2024,127.672416540683,18.782063950822
$GPGGA,160815.00,3338.9311,N,11858.6376,W,1,11,0.8,11.3,M,-34.0,M,,*64
$PYRTM,2024,127.672428116910,18.782075527049
$GPGGA,160816.00,3338.9311,N,11858.6382,W,1,11,0.8,11.3,M,-34.0,M,,*6C
$PYRTM,2024,127.672439690498,18.782087100637
$GPGGA,160817.00,3338.9312,N,11858.6388,W,1,11,0.8,12.7,M,-34.0,M,,*63
$PYRTM,2024,127.672451264699,18.782098674838
$GPGGA,160818.00,3338.9313,N,11858.6394,W,1,11,0.8,13.0,M,-34.0,M,,*66
$PYRTM,2024,127.672462832894,18.782110243032
$GPGGA,160819.00,3338.9314,N,11858.6400,W,1,11,0.8,12.8,M,-34.0,M,,*63
$PYRTM,2024,127.672474411678,18.782121821817
$GPGGA,160820.00,3338.9312,N,11858.6406,W,1,11,0.8,12.0,M,-34.0,M,,*61
$PYRTM,2024,127.672485989595,18.782133399734
$GPGGA,160821.00,3338.9310,N,11858.6413,W,1,11,0.8,11.3,M,-34.0,M,,*66
$PYRTM,2024,127.672497560972,18.782144971111
$GPGGA,160822.00,3338.9310,N,11858.6420,W,1,11,0.8,14.5,M,-34.0,M,,*66
$PYRTM,2024,127.672509136852,18.782156546991
$GPGGA,160823.00,3338.9310,N,11858.6427,W,1,11,0.8,13.3,M,-34.0,M,,*61
$PYRTM,2024,127.672520708935,18.782168119074
$GPGGA,160824.00,3338.9310,N,11858.6433,W,1,11,0.8,13.7,M,-34.0,M,,*67
$PYRTM,2024,127.672532286412,18.782179696551
$GPGGA,160825.00,3338.9310,N,11858.6440,W,1,11,0.8,13.2,M,-34.0,M,,*67
$PYRTM,2024,127.672544190475,18.782191600613
$GPGGA,160826.00,3338.9309,N,11858.6447,W,1,11,0.8,14.1,M,-34.0,M,,*6F
$PYRTM,2024,127.672553334537,18.782200744676
$GPGGA,160827.00,3338.9309,N,11858.6455,W,1,11,0.8,14.0,M,-34.0,M,,*6C
$PYRTM,2024,127.672567005347,18.782214415486
$GPGGA,160828.00,3338.9310,N,11858.6463,W,1,11,0.8,11.5,M,-34.0,M,,*6E
$PYRTM,2024,127.672578579954,18.782225990093
$GPGGA,160829.00,3338.9310,N,11858.6472,W,1,11,0.8,12.4,M,-34.0,M,,*6D
$PYRTM,2024,127.672590154769,18.782237564907
$GPGGA,160830.00,3338.9310,N,11858.6480,W,1,11,0.8,13.9,M,-34.0,M,,*64
$PYRTM,2024,127.672601727697,18.782249137836
$GPGGA,160831.00,3338.9310,N,11858.6486,W,1,11,0.8,14.2,M,-34.0,M,,*6F
$PYRTM,2024,127.672613296887,18.782260707025
$GPGGA,160832.00,3338.9310,N,11858.6491,W,1,11,0.8,14.5,M,-34.0,M,,*6D
$PYRTM,2024,127.672624875891,18.782272286030
$GPGGA,160833.00,3338.9311,N,11858.6498,W,1,11,0.8,15.4,M,-34.0,M,,*64
$PYRTM,2024,127.672636451100,18.782283861238
$GPGGA,160834.00,3338.9310,N,11858.6507,W,1,11,0.8,14.7,M,-34.0,M,,*67
$PYRTM,2024,127.672648023414,18.782295433553
$GPGGA,160835.00,3338.9309,N,11858.6517,W,1,11,0.8,12.0,M,-34.0,M,,*6E
$PYRTM,2024,127.672659598796,18.782307008947
