$PYRTM,2024,125.583341395370,16.692988805509
$GPGGA,135959.00,3510.6023,N,12151.3553,W,1,10,1.0,16.5,M,-32.7,M,,*63
$PYRTM,2024,125.583352857199,16.693000267338
$GPGGA,140000.00,3510.6024,N,12151.3578,W,1,10,1.0,17.7,M,-32.7,M,,*69
$PYRTM,2024,125.583365477292,16.693012887431
$GPGGA,140001.00,3510.6026,N,12151.3607,W,1,10,1.0,18.0,M,-32.7,M,,*69
$PYRTM,2024,125.583377035498,16.693024445637
$GPGGA,140002.00,3510.6029,N,12151.3636,W,1,10,1.0,18.9,M,-32.7,M,,*6E
$PYRTM,2024,125.583388625301,16.693036035440
$GPGGA,140003.00,3510.6031,N,12151.3662,W,1,10,1.0,18.3,M,-32.7,M,,*6D
$PYRTM,2024,125.583400183866,16.693047594005
$GPGGA,140004.00,3510.6030,N,12151.3685,W,1,10,1.0,19.0,M,-32.7,M,,*60
$PYRTM,2024,125.583411771609,16.693059181748
$GPGGA,140005.00,3510.6026,N,12151.3708,W,1,10,1.0,19.5,M,-32.7,M,,*67
$PYRTM,2024,125.583423332697,16.693070742836
$GPGGA,140006.00,3510.6024,N,12151.3736,W,1,10,1.0,18.4,M,-32.7,M,,*6B
$PYRTM,2024,125.583434919097,16.693082329236
$GPGGA,140007.00,3510.6030,N,12151.3766,W,1,10,1.0,15.7,M,-32.7,M,,*64
$PYRTM,2024,125.583446480081,16.693093890220
$GPGGA,140008.00,3510.6037,N,12151.3792,W,1,10,1.0,15.1,M,-32.7,M,,*61
$PYRTM,2024,125.583458067396,16.693105477535
$GPGGA,140009.00,3510.6036,N,12151.3812,W,1,10,1.0,16.8,M,-32.7,M,,*6C
$PYRTM,2024,125.583469629583,16.693117039722
$GPGGA,140010.00,3510.6030,N,12151.3833,W,1,10,1.0,19.2,M,-32.7,M,,*64
$PYRTM,2024,125.583481215116,16.693128625255
$GPGGA,140011.00,3510.6022,N,12151.3862,W,1,10,1.0,15.8,M,-32.7,M,,*64
$PYRTM,2024,125.583492777593,16.693140187731
$GPGGA,140012.00,3510.6022,N,12151.3894,W,1,10,1.0,14.9,M,-32.7,M,,*6E
$PYRTM,2024,125.583504705822,16.693152115961
$GPGGA,140013.00,3510.6031,N,12151.3918,W,1,10,1.0,14.8,M,-32.7,M,,*69
$PYRTM,2024,125.583515928009,16.693163338148
$GPGGA,140014.00,3510.6035,N,12151.3936,W,1,10,1.0,16.1,M,-32.7,M,,*6D
$PYRTM,2024,125.583527526516,16.693174936655
$GPGGA,140015.00,3510.6029,N,12151.3961,W,1,10,1.0,16.5,M,-32.7,M,,*67
$PYRTM,2024,125.583539073241,16.693186483380
$GPGGA,140016.00,3510.6027,N,12151.3989,W,1,10,1.0,14.9,M,-32.7,M,,*62
$PYRTM,2024,125.583550675718,16.693198085856
$GPGGA,140017.00,3510.6033,N,12151.4012,W,1,10,1.0,16.0,M,-32.7,M,,*61
$PYRTM,2024,125.583562223137,16.693209633275
$GPGGA,140018.00,3510.6042,N,12151.4030,W,1,10,1.0,13.9,M,-32.7,M,,*64
$PYRTM,2024,125.583573808368,16.693221218507
$GPGGA,140019.00,3510.6048,N,12151.4054,W,1,10,1.0,13.0,M,-32.7,M,,*64
$PYRTM,2024,125.583585370428,16.693232780567
$GPGGA,140020.00,3510.6048,N,12151.4082,W,1,10,1.0,12.4,M,-32.7,M,,*60
$PYRTM,2024,125.583596952442,16.693244362581
$GPGGA,140021.00,3510.6044,N,12151.4105,W,1,10,1.0,12.7,M,-32.7,M,,*60
$PYRTM,2024,125.583608520035,16.693255930174
$GPGGA,140022.00,3510.6042,N,12151.4121,W,1,10,1.0,14.0,M,-32.7,M,,*62
$PYRTM,2024,125.583620106319,16.693267516458
$GPGGA,140023.00,3510.6045,N,12151.4142,W,1,10,1.0,14.9,M,-32.7,M,,*68
$PYRTM,2024,125.583631667292,16.693279077431
$GPGGA,140024.00,3510.6051,N,12151.4169,W,1,10,1.0,13.8,M,-32.7,M,,*65
$PYRTM,2024,125.583643248530,16.693290658669
$GPGGA,140025.00,3510.6052,N,12151.4195,W,1,10,1.0,12.1,M,-32.7,M,,*6C
$PYRTM,2024,125.583654814641,16.693302224780
$GPGGA,140026.00,3510.6049,N,12151.4214,W,1,10,1.0,13.0,M,-32.7,M,,*6F
$PYRTM,2024,125.583666402361,16.693313812500
$GPGGA,140027.00,3510.6047,N,12151.4232,W,1,10,1.0,15.0,M,-32.7,M,,*62
$PYRTM,2024,125.583677964225,16.693325374375
$GPGGA,140028.00,3510.6050,N,12151.4255,W,1,10,1.0,14.8,M,-32.7,M,,*63
$PYRTM,2024,125.583688149329,16.693335559468
$GPGGA,140029.00,3510.6052,N,12151.4281,W,1,10,1.0,14.1,M,-32.7,M,,*60
$PYRTM,2024,125.583700083310,16.693347493449
$GPGGA,140030.00,3510.6049,N,12151.4305,W,1,10,1.0,15.6,M,-32.7,M,,*69
$PYRTM,2024,125.583712701100,16.693360111238
$GPGGA,140031.00,3510.6046,N,12151.4328,W,1,10,1.0,15.6,M,-32.7,M,,*68
$PYRTM,2024,125.583724260810,16.693371670949
$GPGGA,140032.00,3510.6049,N,12151.4350,W,1,10,1.0,14.3,M,-32.7,M,,*6F
$PYRTM,2024,125.583735847049,16.693383257187
$GPGGA,140033.00,3510.6053,N,12151.4372,W,1,10,1.0,13.4,M,-32.7,M,,*65
$PYRTM,2024,125.583747407894,16.693394818032
$GPGGA,140034.00,3510.6051,N,12151.4393,W,1,10,1.0,16.0,M,-32.7,M,,*6E
$PYRTM,2024,125.583758995000,16.693406405139
$GPGGA,140035.00,3510.6048,N,12151.4417,W,1,10,1.0,17.8,M,-32.7,M,,*65
$PYRTM,2024,125.583770556100,16.693417966238
$GPGGA,140036.00,3510.6048,N,12151.4443,W,1,10,1.0,15.3,M,-32.7,M,,*6E
$PYRTM,2024,125.583782143762,16.693429553912
$GPGGA,140037.00,3510.6051,N,12151.4465,W,1,10,1.0,15.0,M,-32.7,M,,*60
$PYRTM,2024,125.583793704769,16.693441114907
$GPGGA,140038.00,3510.6053,N,12151.4483,W,1,10,1.0,15.9,M,-32.7,M,,*6C
$PYRTM,2024,125.583805296169,16.693452706308
$GPGGA,140039.00,3510.6052,N,12151.4503,W,1,10,1.0,17.6,M,-32.7,M,,*68
$PYRTM,2024,125.583816853206,16.693464263356
$GPGGA,140040.00,3510.6048,N,12151.4531,W,1,10,1.0,15.4,M,-32.7,M,,*6C
$PYRTM,2024,125.583828436875,16.693475847025
$GPGGA,140041.00,3510.6049,N,12151.4554,W,1,10,1.0,15.1,M,-32.7,M,,*6A
$PYRTM,2024,125.583840002731,16.693487412870
$GPGGA,140042.00,3510.6050,N,12151.4570,W,1,10,1.0,16.1,M,-32.7,M,,*64
$PYRTM,2024,125.583852040208,16.693499450347
$GPGGA,140043.00,3510.6050,N,12151.4591,W,1,10,1.0,18.0,M,-32.7,M,,*65
$PYRTM,2024,125.583863149236,16.693510559375
$GPGGA,140044.00,3510.6051,N,12151.4619,W,1,10,1.0,16.7,M,-32.7,M,,*69
$PYRTM,2024,125.583874740764,16.693522150903
$GPGGA,140045.00,3510.6050,N,12151.4643,W,1,10,1.0,17.7,M,-32.7,M,,*67
$PYRTM,2024,125.583886298102,16.693533708241
$GPGGA,140046.00,3510.6048,N,12151.4662,W,1,10,1.0,17.7,M,-32.7,M,,*6E
$PYRTM,2024,125.583897887581,16.693545297720
$GPGGA,140047.00,3510.6047,N,12151.4683,W,1,10,1.0,17.2,M,-32.7,M,,*6A
$PYRTM,2024,125.583909445822,16.693556855972
$GPGGA,140048.00,3510.6050,N,12151.4708,W,1,10,1.0,16.2,M,-32.7,M,,*60
$PYRTM,2024,125.583921482917,16.693568893056
$GPGGA,140049.00,3510.6054,N,12151.4731,W,1,10,1.0,16.7,M,-32.7,M,,*6A
$PYRTM,2024,125.583933069896,16.693580480035
$GPGGA,140050.00,3510.6054,N,12151.4752,W,1,10,1.0,15.7,M,-32.7,M,,*64
$PYRTM,2024,125.583944629954,16.693592040093
$GPGGA,140051.00,3510.6051,N,12151.4775,W,1,10,1.0,14.9,M,-32.7,M,,*6A
$PYRTM,2024,125.583956218183,16.693603628322
$GPGGA,140052.00,3510.6050,N,12151.4798,W,1,10,1.0,16.4,M,-32.7,M,,*64
$PYRTM,2024,125.583967780729,16.693615190868
$GPGGA,140053.00,3510.6054,N,12151.4819,W,1,10,1.0,15.2,M,-32.7,M,,*62
$PYRTM,2024,125.583979369074,16.693626779213
$GPGGA,140054.00,3510.6059,N,12151.4842,W,1,10,1.0,14.8,M,-32.7,M,,*6D
$PYRTM,2024,125.583990927627,16.693638337778
$GPGGA,140055.00,3510.6060,N,12151.4866,W,1,10,1.0,15.0,M,-32.7,M,,*69
$PYRTM,2024,125.584002509815,16.693649919954
$GPGGA,140056.00,3510.6053,N,12151.4890,W,1,10,1.0,15.7,M,-32.7,M,,*64
$PYRTM,2024,125.584014076296,16.693661486435
$GPGGA,140057.00,3510.6049,N,12151.4912,W,1,10,1.0,16.0,M,-32.7,M,,*61
$PYRTM,2024,125.584025663403,16.693673073542
$GPGGA,140058.00,3510.6054,N,12151.4933,W,1,10,1.0,17.3,M,-32.7,M,,*63
$PYRTM,2024,125.584035967940,16.693683378079
$GPGGA,140059.00,3510.6062,N,12151.4958,W,1,10,1.0,16.1,M,-32.7,M,,*69
$PYRTM,2024,125.584047307338,16.693694717488
$GPGGA,140100.00,3510.6064,N,12151.4983,W,1,10,1.0,16.3,M,-32.7,M,,*66
$PYRTM,2024,125.584059927141,16.693707337280
$GPGGA,140101.00,3510.6060,N,12151.5006,W,1,10,1.0,18.0,M,-32.7,M,,*6B
$PYRTM,2024,125.584071484086,16.693718894225
$GPGGA,140102.00,3510.6058,N,12151.5028,W,1,10,1.0,19.7,M,-32.7,M,,*69
$PYRTM,2024,125.584083071319,16.693730481470
$GPGGA,140103.00,3510.6062,N,12151.5052,W,1,10,1.0,18.3,M,-32.7,M,,*69
$PYRTM,2024,125.584094634317,16.693742044456
$GPGGA,140104.00,3510.6067,N,12151.5078,W,1,10,1.0,18.9,M,-32.7,M,,*69
$PYRTM,2024,125.584106220127,16.693753630266
$GPGGA,140105.00,3510.6066,N,12151.5102,W,1,10,1.0,18.7,M,-32.7,M,,*6B
$PYRTM,2024,125.584117782037,16.693765192176
$GPGGA,140106.00,3510.6062,N,12151.5124,W,1,10,1.0,18.8,M,-32.7,M,,*67
$PYRTM,2024,125.584129367465,16.693776777616
$GPGGA,140107.00,3510.6062,N,12151.5147,W,1,10,1.0,17.0,M,-32.7,M,,*64
$PYRTM,2024,125.584140929907,16.693788340046
$GPGGA,140108.00,3510.6066,N,12151.5171,W,1,10,1.0,16.2,M,-32.7,M,,*69
$PYRTM,2024,125.584152516377,16.693799926516
$GPGGA,140109.00,3510.6069,N,12151.5198,W,1,10,1.0,14.8,M,-32.7,M,,*68
$PYRTM,2024,125.584164076794,16.693811486933
$GPGGA,140110.00,3510.6070,N,12151.5226,W,1,10,1.0,16.9,M,-32.7,M,,*6D
$PYRTM,2024,125.584175665104,16.693823075255
$GPGGA,140111.00,3510.6069,N,12151.5253,W,1,10,1.0,16.7,M,-32.7,M,,*68
$PYRTM,2024,125.584187230544,16.693834640694
$GPGGA,140112.00,3510.6070,N,12151.5277,W,1,10,1.0,17.3,M,-32.7,M,,*60
$PYRTM,2024,125.584199378692,16.693846788831
$GPGGA,140113.00,3510.6073,N,12151.5299,W,1,10,1.0,17.7,M,-32.7,M,,*66
$PYRTM,2024,125.584210965486,16.693858375625
$GPGGA,140114.00,3510.6076,N,12151.5324,W,1,10,1.0,17.7,M,-32.7,M,,*63
$PYRTM,2024,125.584222527303,16.693869937442
$GPGGA,140115.00,3510.6078,N,12151.5352,W,1,10,1.0,17.0,M,-32.7,M,,*6A
$PYRTM,2024,125.584234113981,16.693881524120
$GPGGA,140116.00,3510.6080,N,12151.5377,W,1,10,1.0,14.9,M,-32.7,M,,*63
$PYRTM,2024,125.584245674676,16.693893084815
$GPGGA,140117.00,3510.6083,N,12151.5396,W,1,10,1.0,15.0,M,-32.7,M,,*66
$PYRTM,2024,125.584257266644,16.693904676782
$GPGGA,140118.00,3510.6086,N,12151.5412,W,1,10,1.0,16.0,M,-32.7,M,,*64
$PYRTM,2024,125.584268824757,16.693916234896
$GPGGA,140119.00,3510.6084,N,12151.5435,W,1,10,1.0,17.8,M,-32.7,M,,*6B
$PYRTM,2024,125.584286416296,16.693933826435
$GPGGA,140120.00,3510.6081,N,12151.5464,W,1,10,1.0,16.3,M,-32.7,M,,*6A
$PYRTM,2024,125.584298568958,16.693945979097
$GPGGA,140121.00,3510.6084,N,12151.5490,W,1,10,1.0,15.1,M,-32.7,M,,*64
$PYRTM,2024,125.584308522396,16.693955932535
$GPGGA,140122.00,3510.6088,N,12151.5507,W,1,10,1.0,16.1,M,-32.7,M,,*67
$PYRTM,2024,125.584319299375,16.693966709514
$GPGGA,140123.00,3510.6091,N,12151.5524,W,1,10,1.0,17.9,M,-32.7,M,,*66
$PYRTM,2024,125.584330413843,16.693977823981
$GPGGA,140124.00,3510.6090,N,12151.5549,W,1,10,1.0,15.3,M,-32.7,M,,*63
$PYRTM,2024,125.584341637639,16.693989047778
$GPGGA,140125.00,3510.6087,N,12151.5576,W,1,10,1.0,15.1,M,-32.7,M,,*6A
$PYRTM,2024,125.584352747778,16.694000157917
$GPGGA,140126.00,3510.6089,N,12151.5600,W,1,10,1.0,15.4,M,-32.7,M,,*60
$PYRTM,2024,125.584363855035,16.694011265185
$GPGGA,140127.00,3510.6093,N,12151.5619,W,1,10,1.0,17.2,M,-32.7,M,,*66
$PYRTM,2024,125.584374957743,16.694022367882
$GPGGA,140128.00,3510.6092,N,12151.5639,W,1,10,1.0,18.5,M,-32.7,M,,*62
$PYRTM,2024,125.584390712963,16.694038123102
$GPGGA,140129.00,3510.6090,N,12151.5664,W,1,10,1.0,18.4,M,-32.7,M,,*68
$PYRTM,2024,125.584401823044,16.694049233183
$GPGGA,140130.00,3510.6091,N,12151.5690,W,1,10,1.0,18.3,M,-32.7,M,,*6D
$PYRTM,2024,125.584413046493,16.694060456632
$GPGGA,140131.00,3510.6095,N,12151.5713,W,1,10,1.0,16.4,M,-32.7,M,,*6B
$PYRTM,2024,125.584424162257,16.694071572407
$GPGGA,140132.00,3510.6098,N,12151.5734,W,1,10,1.0,17.2,M,-32.7,M,,*67
$PYRTM,2024,125.584435273264,16.694082683414
$GPGGA,140133.00,3510.6099,N,12151.5757,W,1,10,1.0,16.5,M,-32.7,M,,*64
$PYRTM,2024,125.584446385000,16.694093795139
$GPGGA,140134.00,3510.6097,N,12151.5780,W,1,10,1.0,17.2,M,-32.7,M,,*61
$PYRTM,2024,125.584457598831,16.694105008970
$GPGGA,140135.00,3510.6098,N,12151.5805,W,1,10,1.0,17.9,M,-32.7,M,,*66
$PYRTM,2024,125.584468709815,16.694116119965
$GPGGA,140136.00,3510.6102,N,12151.5829,W,1,10,1.0,15.6,M,-32.7,M,,*64
$PYRTM,2024,125.584479820116,16.694127230266
$GPGGA,140137.00,3510.6106,N,12151.5851,W,1,10,1.0,14.6,M,-32.7,M,,*6F
$PYRTM,2024,125.584490931053,16.694138341192
$GPGGA,140138.00,3510.6107,N,12151.5873,W,1,10,1.0,16.5,M,-32.7,M,,*60
$PYRTM,2024,125.584502517963,16.694149928102
$GPGGA,140139.00,3510.6106,N,12151.5900,W,1,10,1.0,17.1,M,-32.7,M,,*60
$PYRTM,2024,125.584513739537,16.694161149687
$GPGGA,140140.00,3510.6105,N,12151.5927,W,1,10,1.0,16.9,M,-32.7,M,,*61
$PYRTM,2024,125.584524856123,16.694172266262
$GPGGA,140141.00,3510.6108,N,12151.5949,W,1,10,1.0,15.8,M,-32.7,M,,*67
$PYRTM,2024,125.584535963438,16.694183373576
$GPGGA,140142.00,3510.6111,N,12151.5971,W,1,10,1.0,14.9,M,-32.7,M,,*67
$PYRTM,2024,125.584547530000,16.694194940150
$GPGGA,140143.00,3510.6112,N,12151.5996,W,1,10,1.0,14.9,M,-32.7,M,,*6C
$PYRTM,2024,125.584558641100,16.694206051238
$GPGGA,140144.00,3510.6110,N,12151.6021,W,1,10,1.0,16.8,M,-32.7,M,,*6C
$PYRTM,2024,125.584569866424,16.694217276562
$GPGGA,140145.00,3510.6113,N,12151.6046,W,1,10,1.0,16.9,M,-32.7,M,,*6E
$PYRTM,2024,125.584580976852,16.694228386991
$GPGGA,140146.00,3510.6118,N,12151.6072,W,1,10,1.0,16.4,M,-32.7,M,,*6C
$PYRTM,2024,125.584592333831,16.694239743970
$GPGGA,140147.00,3510.6121,N,12151.6096,W,1,10,1.0,18.2,M,-32.7,M,,*65
$PYRTM,2024,125.584603894861,16.694251305000
$GPGGA,140148.00,3510.6121,N,12151.6120,W,1,10,1.0,16.5,M,-32.7,M,,*6F
$PYRTM,2024,125.584615482118,16.694262892257
$GPGGA,140149.00,3510.6120,N,12151.6146,W,1,10,1.0,14.0,M,-32.7,M,,*68
$PYRTM,2024,125.584627044907,16.694274455046
$GPGGA,140150.00,3510.6123,N,12151.6173,W,1,10,1.0,16.4,M,-32.7,M,,*63
$PYRTM,2024,125.584638630637,16.694286040775
$GPGGA,140151.00,3510.6127,N,12151.6200,W,1,10,1.0,15.0,M,-32.7,M,,*66
$PYRTM,2024,125.584650191574,16.694297601713
$GPGGA,140152.00,3510.6129,N,12151.6227,W,1,10,1.0,12.6,M,-32.7,M,,*6F
$PYRTM,2024,125.584661778380,16.694309188519
$GPGGA,140153.00,3510.6128,N,12151.6255,W,1,10,1.0,13.3,M,-32.7,M,,*6E
$PYRTM,2024,125.584673340313,16.694320750451
$GPGGA,140154.00,3510.6128,N,12151.6282,W,1,10,1.0,14.2,M,-32.7,M,,*65
$PYRTM,2024,125.584684926852,16.694332336991
$GPGGA,140155.00,3510.6131,N,12151.6307,W,1,10,1.0,15.5,M,-32.7,M,,*66
$PYRTM,2024,125.584696488681,16.694343898831
$GPGGA,140156.00,3510.6135,N,12151.6334,W,1,10,1.0,14.9,M,-32.7,M,,*6C
$PYRTM,2024,125.584708079583,16.694355489722
$GPGGA,140157.00,3510.6139,N,12151.6360,W,1,10,1.0,15.4,M,-32.7,M,,*6C
$PYRTM,2024,125.584719637604,16.694367047743
$GPGGA,140158.00,3510.6140,N,12151.6386,W,1,10,1.0,15.4,M,-32.7,M,,*65
$PYRTM,2024,125.584729823241,16.694377233391
$GPGGA,140159.00,3510.6137,N,12151.6412,W,1,10,1.0,17.2,M,-32.7,M,,*6A
$PYRTM,2024,125.584741754815,16.694389164954
$GPGGA,140200.00,3510.6136,N,12151.6439,W,1,10,1.0,16.6,M,-32.7,M,,*68
$PYRTM,2024,125.584754372454,16.694401782593
$GPGGA,140201.00,3510.6141,N,12151.6465,W,1,10,1.0,17.0,M,-32.7,M,,*67
$PYRTM,2024,125.584765934294,16.694413344433
$GPGGA,140202.00,3510.6148,N,12151.6490,W,1,10,1.0,15.9,M,-32.7,M,,*6C
$PYRTM,2024,125.584777515208,16.694424925347
$GPGGA,140203.00,3510.6148,N,12151.6516,W,1,10,1.0,15.7,M,-32.7,M,,*6C
$PYRTM,2024,125.584789081412,16.694436491551
$GPGGA,140204.00,3510.6144,N,12151.6539,W,1,10,1.0,17.0,M,-32.7,M,,*6F
$PYRTM,2024,125.584800663287,16.694448073426
$GPGGA,140205.00,3510.6142,N,12151.6566,W,1,10,1.0,16.8,M,-32.7,M,,*6B
$PYRTM,2024,125.584812230532,16.694459640671
$GPGGA,140206.00,3510.6144,N,12151.6597,W,1,10,1.0,13.1,M,-32.7,M,,*6C
$PYRTM,2024,125.584823818044,16.694471228183
$GPGGA,140207.00,3510.6147,N,12151.6623,W,1,10,1.0,13.8,M,-32.7,M,,*6B
$PYRTM,2024,125.584835378403,16.694482788542
$GPGGA,140208.00,3510.6150,N,12151.6642,W,1,10,1.0,14.8,M,-32.7,M,,*62
$PYRTM,2024,125.584846965058,16.694494375197
$GPGGA,140209.00,3510.6150,N,12151.6664,W,1,10,1.0,15.3,M,-32.7,M,,*6D
$PYRTM,2024,125.584857498067,16.694504908206
$GPGGA,140210.00,3510.6148,N,12151.6694,W,1,10,1.0,13.7,M,-32.7,M,,*61
$PYRTM,2024,125.584870117025,16.694517527164
$GPGGA,140211.00,3510.6147,N,12151.6720,W,1,10,1.0,13.0,M,-32.7,M,,*66
$PYRTM,2024,125.584881675347,16.694529085498
$GPGGA,140212.00,3510.6149,N,12151.6742,W,1,10,1.0,14.3,M,-32.7,M,,*6B
$PYRTM,2024,125.584893482257,16.694540892396
$GPGGA,140213.00,3510.6153,N,12151.6765,W,1,10,1.0,15.5,M,-32.7,M,,*63
$PYRTM,2024,125.584904825683,16.694552235822
$GPGGA,140214.00,3510.6154,N,12151.6790,W,1,10,1.0,15.0,M,-32.7,M,,*6C
$PYRTM,2024,125.584916405336,16.694563815475
$GPGGA,140215.00,3510.6153,N,12151.6815,W,1,10,1.0,16.4,M,-32.7,M,,*6F
$PYRTM,2024,125.584927971458,16.694575381609
$GPGGA,140216.00,3510.6150,N,12151.6841,W,1,10,1.0,14.8,M,-32.7,M,,*60
$PYRTM,2024,125.584939558600,16.694586968738
$GPGGA,140217.00,3510.6151,N,12151.6865,W,1,10,1.0,15.5,M,-32.7,M,,*6A
$PYRTM,2024,125.584951121991,16.694598532130
$GPGGA,140218.00,3510.6157,N,12151.6886,W,1,10,1.0,14.4,M,-32.7,M,,*6E
$PYRTM,2024,125.584962707014,16.694610117153
$GPGGA,140219.00,3510.6164,N,12151.6909,W,1,10,1.0,14.3,M,-32.7,M,,*6E
$PYRTM,2024,125.584974267546,16.694621677685
$GPGGA,140220.00,3510.6163,N,12151.6936,W,1,10,1.0,16.2,M,-32.7,M,,*6C
$PYRTM,2024,125.584985855023,16.694633265162
$GPGGA,140221.00,3510.6158,N,12151.6962,W,1,10,1.0,16.7,M,-32.7,M,,*61
$PYRTM,2024,125.584997415301,16.694644825440
$GPGGA,140222.00,3510.6156,N,12151.6982,W,1,10,1.0,17.9,M,-32.7,M,,*6D
$PYRTM,2024,125.585009004954,16.694656415093
$GPGGA,140223.00,3510.6162,N,12151.7003,W,1,10,1.0,17.8,M,-32.7,M,,*6B
$PYRTM,2024,125.585020563854,16.694667973993
$GPGGA,140224.00,3510.6169,N,12151.7029,W,1,10,1.0,16.2,M,-32.7,M,,*64
$PYRTM,2024,125.585032154363,16.694679564502
$GPGGA,140225.00,3510.6170,N,12151.7054,W,1,10,1.0,15.9,M,-32.7,M,,*6F
$PYRTM,2024,125.585043712720,16.694691122870
$GPGGA,140226.00,3510.6166,N,12151.7076,W,1,10,1.0,16.6,M,-32.7,M,,*67
$PYRTM,2024,125.585055302720,16.694702712859
$GPGGA,140227.00,3510.6165,N,12151.7098,W,1,10,1.0,17.3,M,-32.7,M,,*61
$PYRTM,2024,125.585066859630,16.694714269769
$GPGGA,140228.00,3510.6167,N,12151.7121,W,1,10,1.0,16.8,M,-32.7,M,,*65
$PYRTM,2024,125.585077533380,16.694724943519
$GPGGA,140229.00,3510.6171,N,12151.7149,W,1,10,1.0,15.1,M,-32.7,M,,*67
$PYRTM,2024,125.585088980451,16.694736390590
$GPGGA,140230.00,3510.6174,N,12151.7177,W,1,10,1.0,15.2,M,-32.7,M,,*64
$PYRTM,2024,125.585101596516,16.694749006655
$GPGGA,140231.00,3510.6175,N,12151.7201,W,1,10,1.0,15.9,M,-32.7,M,,*6D
$PYRTM,2024,125.585113158657,16.694760568808
$GPGGA,140232.00,3510.6175,N,12151.7222,W,1,10,1.0,16.6,M,-32.7,M,,*63
$PYRTM,2024,125.585124739873,16.694772150012
$GPGGA,140233.00,3510.6177,N,12151.7249,W,1,10,1.0,17.0,M,-32.7,M,,*6A
$PYRTM,2024,125.585136306644,16.694783716782
$GPGGA,140234.00,3510.6180,N,12151.7276,W,1,10,1.0,16.0,M,-32.7,M,,*68
$PYRTM,2024,125.585147892396,16.694795302535
$GPGGA,140235.00,3510.6183,N,12151.7297,W,1,10,1.0,16.8,M,-32.7,M,,*6D
$PYRTM,2024,125.585159454479,16.694806864618
$GPGGA,140236.00,3510.6183,N,12151.7317,W,1,10,1.0,18.7,M,-32.7,M,,*66
$PYRTM,2024,125.585171037674,16.694818447813
$GPGGA,140237.00,3510.6184,N,12151.7342,W,1,10,1.0,17.5,M,-32.7,M,,*6D
$PYRTM,2024,125.585182603634,16.694830013773
$GPGGA,140238.00,3510.6186,N,12151.7368,W,1,10,1.0,15.3,M,-32.7,M,,*6C
$PYRTM,2024,125.585194192002,16.694841602141
$GPGGA,140239.00,3510.6188,N,12151.7393,W,1,10,1.0,16.3,M,-32.7,M,,*64
$PYRTM,2024,125.585205750949,16.694853161100
$GPGGA,140240.00,3510.6190,N,12151.7417,W,1,10,1.0,16.6,M,-32.7,M,,*6D
$PYRTM,2024,125.585217340845,16.694864750984
$GPGGA,140241.00,3510.6192,N,12151.7439,W,1,10,1.0,16.5,M,-32.7,M,,*61
$PYRTM,2024,125.585228900671,16.694876310810
$GPGGA,140242.00,3510.6193,N,12151.7464,W,1,10,1.0,16.3,M,-32.7,M,,*6D
$PYRTM,2024,125.585240936285,16.694888346424
$GPGGA,140243.00,3510.6193,N,12151.7492,W,1,10,1.0,14.0,M,-32.7,M,,*64
$PYRTM,2024,125.585252047164,16.694899457303
$GPGGA,140244.00,3510.6192,N,12151.7519,W,1,10,1.0,15.8,M,-32.7,M,,*69
$PYRTM,2024,125.585263634468,16.694911044606
$GPGGA,140245.00,3510.6194,N,12151.7542,W,1,10,1.0,16.3,M,-32.7,M,,*68
$PYRTM,2024,125.585275194352,16.694922604491
$GPGGA,140246.00,3510.6197,N,12151.7565,W,1,10,1.0,16.0,M,-32.7,M,,*6E
$PYRTM,2024,125.585286781771,16.694934191910
$GPGGA,140247.00,3510.6199,N,12151.7591,W,1,10,1.0,14.7,M,-32.7,M,,*6F
$PYRTM,2024,125.585298344433,16.694945754572
$GPGGA,140248.00,3510.6200,N,12151.7618,W,1,10,1.0,14.3,M,-32.7,M,,*65
$PYRTM,2024,125.585309931516,16.694957341655
$GPGGA,140249.00,3510.6200,N,12151.7642,W,1,10,1.0,14.3,M,-32.7,M,,*6B
$PYRTM,2024,125.585321493171,16.694968903310
$GPGGA,140250.00,3510.6198,N,12151.7664,W,1,10,1.0,15.8,M,-32.7,M,,*6F
$PYRTM,2024,125.585333082118,16.694980492257
$GPGGA,140251.00,3510.6200,N,12151.7690,W,1,10,1.0,18.3,M,-32.7,M,,*61
$PYRTM,2024,125.585344640266,16.694992050405
$GPGGA,140252.00,3510.6203,N,12151.7718,W,1,10,1.0,15.9,M,-32.7,M,,*67
$PYRTM,2024,125.585356228229,16.695003638368
$GPGGA,140253.00,3510.6205,N,12151.7743,W,1,10,1.0,14.2,M,-32.7,M,,*64
$PYRTM,2024,125.585367788692,16.695015198843
$GPGGA,140254.00,3510.6205,N,12151.7767,W,1,10,1.0,15.5,M,-32.7,M,,*63
$PYRTM,2024,125.585379378252,16.695026788391
$GPGGA,140255.00,3510.6206,N,12151.7794,W,1,10,1.0,13.8,M,-32.7,M,,*66
$PYRTM,2024,125.585390936644,16.695038346794
$GPGGA,140256.00,3510.6207,N,12151.7821,W,1,10,1.0,14.4,M,-32.7,M,,*6E
$PYRTM,2024,125.585402527222,16.695049937361
$GPGGA,140257.00,3510.6207,N,12151.7845,W,1,10,1.0,17.3,M,-32.7,M,,*69
$PYRTM,2024,125.585414086296,16.695061496435
$GPGGA,140258.00,3510.6207,N,12151.7869,W,1,10,1.0,18.5,M,-32.7,M,,*61
$PYRTM,2024,125.585424270602,16.695071680741
$GPGGA,140259.00,3510.6208,N,12151.7897,W,1,10,1.0,16.5,M,-32.7,M,,*60
$PYRTM,2024,125.585436204965,16.695083615104
$GPGGA,140300.00,3510.6211,N,12151.7925,W,1,10,1.0,15.5,M,-32.7,M,,*6E
$PYRTM,2024,125.585448820023,16.695096230162
$GPGGA,140301.00,3510.6213,N,12151.7950,W,1,10,1.0,16.8,M,-32.7,M,,*61
$PYRTM,2024,125.585460383519,16.695107793657
$GPGGA,140302.00,3510.6215,N,12151.7972,W,1,10,1.0,16.9,M,-32.7,M,,*65
$PYRTM,2024,125.585471971319,16.695119381458
$GPGGA,140303.00,3510.6214,N,12151.7995,W,1,10,1.0,18.6,M,-32.7,M,,*6D
$PYRTM,2024,125.585483542269,16.695130952407
$GPGGA,140304.00,3510.6212,N,12151.8020,W,1,10,1.0,18.8,M,-32.7,M,,*6A
$PYRTM,2024,125.585495116956,16.695142527095
$GPGGA,140305.00,3510.6211,N,12151.8048,W,1,10,1.0,18.8,M,-32.7,M,,*66
$PYRTM,2024,125.585506690660,16.695154100799
$GPGGA,140306.00,3510.6215,N,12151.8075,W,1,10,1.0,17.4,M,-32.7,M,,*6C
$PYRTM,2024,125.585518265787,16.695165675937
$GPGGA,140307.00,3510.6219,N,12151.8102,W,1,10,1.0,16.0,M,-32.7,M,,*65
$PYRTM,2024,125.585529840046,16.695177250185
$GPGGA,140308.00,3510.6218,N,12151.8125,W,1,10,1.0,15.1,M,-32.7,M,,*6C
$PYRTM,2024,125.585541416644,16.695188826782
$GPGGA,140309.00,3510.6212,N,12151.8147,W,1,10,1.0,18.2,M,-32.7,M,,*6D
$PYRTM,2024,125.585552988032,16.695200398171
$GPGGA,140310.00,3510.6208,N,12151.8174,W,1,10,1.0,16.4,M,-32.7,M,,*66
$PYRTM,2024,125.585564564850,16.695211974988
$GPGGA,140311.00,3510.6210,N,12151.8204,W,1,10,1.0,14.1,M,-32.7,M,,*6D
$PYRTM,2024,125.585576135787,16.695223545926
$GPGGA,140312.00,3510.6215,N,12151.8227,W,1,10,1.0,14.6,M,-32.7,M,,*6D
$PYRTM,2024,125.585588275972,16.695235686111
$GPGGA,140313.00,3510.6218,N,12151.8246,W,1,10,1.0,14.5,M,-32.7,M,,*65
$PYRTM,2024,125.585599863403,16.695247273553
$GPGGA,140314.00,3510.6217,N,12151.8269,W,1,10,1.0,13.8,M,-32.7,M,,*6A
$PYRTM,2024,125.585611425243,16.695258835382
$GPGGA,140315.00,3510.6215,N,12151.8295,W,1,10,1.0,15.2,M,-32.7,M,,*66
$PYRTM,2024,125.585623025104,16.695270435243
$GPGGA,140316.00,3510.6215,N,12151.8316,W,1,10,1.0,17.1,M,-32.7,M,,*6E
$PYRTM,2024,125.585634573345,16.695281983484
$GPGGA,140317.00,3510.6217,N,12151.8337,W,1,10,1.0,15.2,M,-32.7,M,,*6F
$PYRTM,2024,125.585646174525,16.695293584676
$GPGGA,140318.00,3510.6221,N,12151.8363,W,1,10,1.0,13.5,M,-32.7,M,,*65
$PYRTM,2024,125.585657720903,16.695305131042
$GPGGA,140319.00,3510.6225,N,12151.8387,W,1,10,1.0,11.7,M,-32.7,M,,*6A
$PYRTM,2024,125.585669312025,16.695316722176
$GPGGA,140320.00,3510.6226,N,12151.8408,W,1,10,1.0,13.9,M,-32.7,M,,*6F
$PYRTM,2024,125.585680870012,16.695328280150
$GPGGA,140321.00,3510.6227,N,12151.8430,W,1,10,1.0,14.3,M,-32.7,M,,*69
$PYRTM,2024,125.585692456424,16.695339866562
$GPGGA,140322.00,3510.6228,N,12151.8455,W,1,10,1.0,13.8,M,-32.7,M,,*6A
$PYRTM,2024,125.585704018102,16.695351428241
$GPGGA,140323.00,3510.6229,N,12151.8479,W,1,10,1.0,14.1,M,-32.7,M,,*6A
$PYRTM,2024,125.585715604225,16.695363014363
$GPGGA,140324.00,3510.6228,N,12151.8500,W,1,10,1.0,16.3,M,-32.7,M,,*63
$PYRTM,2024,125.585733198843,16.695380608981
$GPGGA,140325.00,3510.6226,N,12151.8524,W,1,10,1.0,16.4,M,-32.7,M,,*6D
$PYRTM,2024,125.585745119317,16.695392529468
$GPGGA,140326.00,3510.6227,N,12151.8552,W,1,10,1.0,14.4,M,-32.7,M,,*6C
$PYRTM,2024,125.585755869850,16.695403279988
$GPGGA,140327.00,3510.6233,N,12151.8579,W,1,10,1.0,14.7,M,-32.7,M,,*62
$PYRTM,2024,125.585767096412,16.695414506551
$GPGGA,140328.00,3510.6236,N,12151.8599,W,1,10,1.0,15.3,M,-32.7,M,,*63
$PYRTM,2024,125.585782723102,16.695430133241
$GPGGA,140329.00,3510.6233,N,12151.8619,W,1,10,1.0,17.0,M,-32.7,M,,*6D
$PYRTM,2024,125.585793949109,16.695441359248
$GPGGA,140330.00,3510.6230,N,12151.8648,W,1,10,1.0,15.5,M,-32.7,M,,*65
$PYRTM,2024,125.585805061262,16.695452471400
$GPGGA,140331.00,3510.6233,N,12151.8674,W,1,10,1.0,15.2,M,-32.7,M,,*6F
$PYRTM,2024,125.585816171238,16.695463581377
$GPGGA,140332.00,3510.6237,N,12151.8693,W,1,10,1.0,15.5,M,-32.7,M,,*66
$PYRTM,2024,125.585827283125,16.695474693264
$GPGGA,140333.00,3510.6240,N,12151.8714,W,1,10,1.0,14.8,M,-32.7,M,,*65
$PYRTM,2024,125.585838506956,16.695485917095
$GPGGA,140334.00,3510.6240,N,12151.8740,W,1,10,1.0,15.9,M,-32.7,M,,*63
$PYRTM,2024,125.585849618299,16.695497028438
$GPGGA,140335.00,3510.6241,N,12151.8765,W,1,10,1.0,16.2,M,-32.7,M,,*6C
$PYRTM,2024,125.585860729942,16.695508140081
$GPGGA,140336.00,3510.6242,N,12151.8785,W,1,10,1.0,16.6,M,-32.7,M,,*66
$PYRTM,2024,125.585871840694,16.695519250833
$GPGGA,140337.00,3510.6242,N,12151.8805,W,1,10,1.0,18.0,M,-32.7,M,,*68
$PYRTM,2024,125.585883082558,16.695530492697
$GPGGA,140338.00,3510.6241,N,12151.8831,W,1,10,1.0,15.7,M,-32.7,M,,*69
$PYRTM,2024,125.585894194016,16.695541604167
$GPGGA,140339.00,3510.6242,N,12151.8856,W,1,10,1.0,16.3,M,-32.7,M,,*6D
$PYRTM,2024,125.585905305961,16.695552716111
$GPGGA,140340.00,3510.6247,N,12151.8877,W,1,10,1.0,16.9,M,-32.7,M,,*6F
$PYRTM,2024,125.585916420845,16.695563830984
$GPGGA,140341.00,3510.6249,N,12151.8898,W,1,10,1.0,15.2,M,-32.7,M,,*69
$PYRTM,2024,125.585927642755,16.695575052894
$GPGGA,140342.00,3510.6249,N,12151.8926,W,1,10,1.0,15.4,M,-32.7,M,,*68
$PYRTM,2024,125.585939203611,16.695586613750
$GPGGA,140343.00,3510.6249,N,12151.8955,W,1,10,1.0,14.7,M,-32.7,M,,*6F
$PYRTM,2024,125.585950314630,16.695597724769
$GPGGA,140344.00,3510.6250,N,12151.8974,W,1,10,1.0,16.3,M,-32.7,M,,*65
$PYRTM,2024,125.585961425081,16.695608835220
$GPGGA,140345.00,3510.6250,N,12151.8992,W,1,10,1.0,18.6,M,-32.7,M,,*67
$PYRTM,2024,125.585972536748,16.695619946887
$GPGGA,140346.00,3510.6251,N,12151.9017,W,1,10,1.0,18.3,M,-32.7,M,,*65
$PYRTM,2024,125.585983763171,16.695631173310
$GPGGA,140347.00,3510.6251,N,12151.9044,W,1,10,1.0,16.9,M,-32.7,M,,*66
$PYRTM,2024,125.585994874780,16.695642284919
$GPGGA,140348.00,3510.6252,N,12151.9067,W,1,10,1.0,18.9,M,-32.7,M,,*65
$PYRTM,2024,125.586005986007,16.695653396146
$GPGGA,140349.00,3510.6253,N,12151.9087,W,1,10,1.0,20.1,M,-32.7,M,,*68
$PYRTM,2024,125.586017098507,16.695664508646
$GPGGA,140350.00,3510.6255,N,12151.9108,W,1,10,1.0,18.9,M,-32.7,M,,*63
$PYRTM,2024,125.586028322917,16.695675733056
$GPGGA,140351.00,3510.6253,N,12151.9131,W,1,10,1.0,21.6,M,-32.7,M,,*6B
$PYRTM,2024,125.586039435162,16.695686845301
$GPGGA,140352.00,3510.6251,N,12151.9155,W,1,10,1.0,19.3,M,-32.7,M,,*66
$PYRTM,2024,125.586050679722,16.695698089861
$GPGGA,140353.00,3510.6251,N,12151.9180,W,1,10,1.0,18.6,M,-32.7,M,,*6B
$PYRTM,2024,125.586062249155,16.695709659294
$GPGGA,140354.00,3510.6254,N,12151.9202,W,1,10,1.0,19.0,M,-32.7,M,,*67
$PYRTM,2024,125.586073823044,16.695721233183
$GPGGA,140355.00,3510.6258,N,12151.9225,W,1,10,1.0,19.2,M,-32.7,M,,*6D
$PYRTM,2024,125.586085399907,16.695732810046
$GPGGA,140356.00,3510.6259,N,12151.9251,W,1,10,1.0,17.8,M,-32.7,M,,*68
$PYRTM,2024,125.586096973171,16.695744383310
$GPGGA,140357.00,3510.6259,N,12151.9279,W,1,10,1.0,17.0,M,-32.7,M,,*6B
$PYRTM,2024,125.586108545694,16.695755955833
$GPGGA,140358.00,3510.6260,N,12151.9302,W,1,10,1.0,17.2,M,-32.7,M,,*61
$PYRTM,2024,125.586118731921,16.695766142060
$GPGGA,140359.00,3510.6259,N,12151.9324,W,1,10,1.0,18.8,M,-32.7,M,,*6B
$PYRTM,2024,125.586130652500,16.695778062639
$GPGGA,140400.00,3510.6259,N,12151.9348,W,1,10,1.0,18.9,M,-32.7,M,,*6B
$PYRTM,2024,125.586143268796,16.695790678935
$GPGGA,140401.00,3510.6263,N,12151.9375,W,1,10,1.0,18.4,M,-32.7,M,,*60
$PYRTM,2024,125.586154842350,16.695802252488
$GPGGA,140402.00,3510.6269,N,12151.9402,W,1,10,1.0,14.9,M,-32.7,M,,*6F
$PYRTM,2024,125.586166402812,16.695813812951
$GPGGA,140403.00,3510.6274,N,12151.9425,W,1,10,1.0,15.6,M,-32.7,M,,*69
$PYRTM,2024,125.586177990868,16.695825401019
$GPGGA,140404.00,3510.6273,N,12151.9446,W,1,10,1.0,18.0,M,-32.7,M,,*67
$PYRTM,2024,125.586189550579,16.695836960718
$GPGGA,140405.00,3510.6270,N,12151.9466,W,1,10,1.0,18.1,M,-32.7,M,,*66
$PYRTM,2024,125.586201139387,16.695848549525
$GPGGA,140406.00,3510.6270,N,12151.9490,W,1,10,1.0,18.9,M,-32.7,M,,*64
$PYRTM,2024,125.586212698229,16.695860108368
$GPGGA,140407.00,3510.6272,N,12151.9518,W,1,10,1.0,16.4,M,-32.7,M,,*65
$PYRTM,2024,125.586224287199,16.695871697350
$GPGGA,140408.00,3510.6277,N,12151.9544,W,1,10,1.0,14.1,M,-32.7,M,,*61
$PYRTM,2024,125.586236108171,16.695883518310
$GPGGA,140409.00,3510.6280,N,12151.9566,W,1,10,1.0,14.0,M,-32.7,M,,*69
$PYRTM,2024,125.586247435961,16.695894846100
$GPGGA,140410.00,3510.6279,N,12151.9586,W,1,10,1.0,14.4,M,-32.7,M,,*6D
$PYRTM,2024,125.586258996192,16.695906406331
$GPGGA,140411.00,3510.6276,N,12151.9611,W,1,10,1.0,16.6,M,-32.7,M,,*6E
$PYRTM,2024,125.586270583657,16.695917993796
$GPGGA,140412.00,3510.6277,N,12151.9639,W,1,10,1.0,17.2,M,-32.7,M,,*63
$PYRTM,2024,125.586281348125,16.695928758264
$GPGGA,140413.00,3510.6282,N,12151.9664,W,1,10,1.0,17.7,M,-32.7,M,,*65
$PYRTM,2024,125.586293732141,16.695941142280
$GPGGA,140414.00,3510.6288,N,12151.9687,W,1,10,1.0,18.5,M,-32.7,M,,*68
$PYRTM,2024,125.586305291123,16.695952701262
$GPGGA,140415.00,3510.6290,N,12151.9715,W,1,10,1.0,15.2,M,-32.7,M,,*60
$PYRTM,2024,125.586316880428,16.695964290567
$GPGGA,140416.00,3510.6289,N,12151.9742,W,1,10,1.0,15.6,M,-32.7,M,,*6D
$PYRTM,2024,125.586328440937,16.695975851076
$GPGGA,140417.00,3510.6287,N,12151.9765,W,1,10,1.0,17.5,M,-32.7,M,,*66
$PYRTM,2024,125.586338987176,16.695986397315
$GPGGA,140418.00,3510.6286,N,12151.9789,W,1,10,1.0,17.8,M,-32.7,M,,*67
$PYRTM,2024,125.586351588970,16.695998999109
$GPGGA,140419.00,3510.6290,N,12151.9816,W,1,10,1.0,18.3,M,-32.7,M,,*6C
$PYRTM,2024,125.586363172963,16.696010583102
$GPGGA,140420.00,3510.6293,N,12151.9844,W,1,10,1.0,16.1,M,-32.7,M,,*6E
$PYRTM,2024,125.586374737859,16.696022147998
$GPGGA,140421.00,3510.6294,N,12151.9870,W,1,10,1.0,17.0,M,-32.7,M,,*6F
$PYRTM,2024,125.586386325868,16.696033736007
$GPGGA,140422.00,3510.6293,N,12151.9893,W,1,10,1.0,18.4,M,-32.7,M,,*6D
$PYRTM,2024,125.586397885544,16.696045295683
$GPGGA,140423.00,3510.6294,N,12151.9918,W,1,10,1.0,19.5,M,-32.7,M,,*69
$PYRTM,2024,125.586409473495,16.696056883634
$GPGGA,140424.00,3510.6294,N,12151.9945,W,1,10,1.0,18.4,M,-32.7,M,,*66
$PYRTM,2024,125.586421033727,16.696068443866
$GPGGA,140425.00,3510.6297,N,12151.9972,W,1,10,1.0,17.3,M,-32.7,M,,*68
$PYRTM,2024,125.586432622072,16.696080032211
$GPGGA,140426.00,3510.6300,N,12151.9997,W,1,10,1.0,18.3,M,-32.7,M,,*60
$PYRTM,2024,125.586444182303,16.696091592442
$GPGGA,140427.00,3510.6302,N,12152.0019,W,1,10,1.0,19.2,M,-32.7,M,,*66
$PYRTM,2024,125.586455770984,16.696103181123
$GPGGA,140428.00,3510.6301,N,12152.0042,W,1,10,1.0,17.6,M,-32.7,M,,*6E
$PYRTM,2024,125.586465957708,16.696113367847
$GPGGA,140429.00,3510.6301,N,12152.0070,W,1,10,1.0,17.0,M,-32.7,M,,*68
$PYRTM,2024,125.586477893044,16.696125303194
$GPGGA,140430.00,3510.6302,N,12152.0096,W,1,10,1.0,14.7,M,-32.7,M,,*6F
$PYRTM,2024,125.586490479155,16.696137889294
$GPGGA,140431.00,3510.6306,N,12152.0115,W,1,10,1.0,16.2,M,-32.7,M,,*67
$PYRTM,2024,125.586502067766,16.696149477905
$GPGGA,140432.00,3510.6313,N,12152.0133,W,1,10,1.0,18.2,M,-32.7,M,,*6A
$PYRTM,2024,125.586513629039,16.696161039190
$GPGGA,140433.00,3510.6317,N,12152.0161,W,1,10,1.0,15.6,M,-32.7,M,,*61
$PYRTM,2024,125.586525214630,16.696172624769
$GPGGA,140434.00,3510.6317,N,12152.0192,W,1,10,1.0,16.8,M,-32.7,M,,*67
$PYRTM,2024,125.586536775243,16.696184185382
$GPGGA,140435.00,3510.6318,N,12152.0212,W,1,10,1.0,14.5,M,-32.7,M,,*6D
$PYRTM,2024,125.586548365046,16.696195775185
$GPGGA,140436.00,3510.6324,N,12152.0225,W,1,10,1.0,14.7,M,-32.7,M,,*67
$PYRTM,2024,125.586559922512,16.696207332650
$GPGGA,140437.00,3510.6331,N,12152.0246,W,1,10,1.0,15.2,M,-32.7,M,,*63
$PYRTM,2024,125.586571505729,16.696218915868
$GPGGA,140438.00,3510.6331,N,12152.0271,W,1,10,1.0,15.9,M,-32.7,M,,*63
$PYRTM,2024,125.586583072060,16.696230482199
$GPGGA,140439.00,3510.6326,N,12152.0292,W,1,10,1.0,16.2,M,-32.7,M,,*61
$PYRTM,2024,125.586594660532,16.696242070671
$GPGGA,140440.00,3510.6324,N,12152.0309,W,1,10,1.0,16.2,M,-32.7,M,,*6E
$PYRTM,2024,125.586606220590,16.696253630729
$GPGGA,140441.00,3510.6329,N,12152.0328,W,1,10,1.0,16.3,M,-32.7,M,,*60
$PYRTM,2024,125.586617809676,16.696265219815
$GPGGA,140442.00,3510.6336,N,12152.0348,W,1,10,1.0,15.6,M,-32.7,M,,*6D
$PYRTM,2024,125.586629729641,16.696277139780
$GPGGA,140443.00,3510.6336,N,12152.0369,W,1,10,1.0,15.7,M,-32.7,M,,*6E
$PYRTM,2024,125.586640957454,16.696288367593
$GPGGA,140444.00,3510.6331,N,12152.0389,W,1,10,1.0,14.7,M,-32.7,M,,*61
$PYRTM,2024,125.586652517616,16.696299927755
$GPGGA,140445.00,3510.6329,N,12152.0408,W,1,10,1.0,16.0,M,-32.7,M,,*62
$PYRTM,2024,125.586664105451,16.696311515590
$GPGGA,140446.00,3510.6332,N,12152.0427,W,1,10,1.0,17.1,M,-32.7,M,,*66
$PYRTM,2024,125.586675664954,16.696323075093
$GPGGA,140447.00,3510.6336,N,12152.0449,W,1,10,1.0,18.2,M,-32.7,M,,*67
$PYRTM,2024,125.586687253970,16.696334664109
$GPGGA,140448.00,3510.6338,N,12152.0472,W,1,10,1.0,15.3,M,-32.7,M,,*62
$PYRTM,2024,125.586698812905,16.696346223044
$GPGGA,140449.00,3510.6338,N,12152.0496,W,1,10,1.0,13.7,M,-32.7,M,,*6B
$PYRTM,2024,125.586710403380,16.696357813519
$GPGGA,140450.00,3510.6337,N,12152.0517,W,1,10,1.0,14.3,M,-32.7,M,,*67
$PYRTM,2024,125.586721963218,16.696369373356
$GPGGA,140451.00,3510.6336,N,12152.0534,W,1,10,1.0,16.8,M,-32.7,M,,*6F
$PYRTM,2024,125.586733550093,16.696380960231
$GPGGA,140452.00,3510.6336,N,12152.0553,W,1,10,1.0,17.8,M,-32.7,M,,*6C
$PYRTM,2024,125.586745111470,16.696392521609
$GPGGA,140453.00,3510.6337,N,12152.0578,W,1,10,1.0,16.7,M,-32.7,M,,*6B
$PYRTM,2024,125.586756698912,16.696404109062
$GPGGA,140454.00,3510.6338,N,12152.0605,W,1,10,1.0,16.7,M,-32.7,M,,*6A
$PYRTM,2024,125.586768259850,16.696415670000
$GPGGA,140455.00,3510.6340,N,12152.0628,W,1,10,1.0,16.4,M,-32.7,M,,*68
$PYRTM,2024,125.586779848241,16.696427258391
$GPGGA,140456.00,3510.6343,N,12152.0650,W,1,10,1.0,16.3,M,-32.7,M,,*60
$PYRTM,2024,125.586791406794,16.696438816933
$GPGGA,140457.00,3510.6345,N,12152.0674,W,1,10,1.0,17.5,M,-32.7,M,,*66
$PYRTM,2024,125.586802995671,16.696450405810
$GPGGA,140458.00,3510.6345,N,12152.0699,W,1,10,1.0,16.8,M,-32.7,M,,*66
$PYRTM,2024,125.586813630949,16.696461041088
$GPGGA,140459.00,3510.6346,N,12152.0725,W,1,10,1.0,18.9,M,-32.7,M,,*6D
$PYRTM,2024,125.586825116435,16.696472526574
$GPGGA,140500.00,3510.6348,N,12152.0752,W,1,10,1.0,17.2,M,-32.7,M,,*6A
$PYRTM,2024,125.586837702824,16.696485112963
$GPGGA,140501.00,3510.6350,N,12152.0774,W,1,10,1.0,18.2,M,-32.7,M,,*69
$PYRTM,2024,125.586849291910,16.696496702049
$GPGGA,140502.00,3510.6351,N,12152.0796,W,1,10,1.0,18.9,M,-32.7,M,,*6C
$PYRTM,2024,125.586860853634,16.696508263773
$GPGGA,140503.00,3510.6353,N,12152.0820,W,1,10,1.0,16.1,M,-32.7,M,,*6B
$PYRTM,2024,125.586872436655,16.696519846794
$GPGGA,140504.00,3510.6357,N,12152.0843,W,1,10,1.0,15.2,M,-32.7,M,,*6D
$PYRTM,2024,125.586884004294,16.696531414444
$GPGGA,140505.00,3510.6356,N,12152.0861,W,1,10,1.0,18.4,M,-32.7,M,,*66
$PYRTM,2024,125.586895590231,16.696543000370
$GPGGA,140506.00,3510.6350,N,12152.0883,W,1,10,1.0,18.9,M,-32.7,M,,*62
$PYRTM,2024,125.586907150127,16.696554560266
$GPGGA,140507.00,3510.6348,N,12152.0911,W,1,10,1.0,16.9,M,-32.7,M,,*6E
$PYRTM,2024,125.586918732176,16.696566142315
$GPGGA,140508.00,3510.6353,N,12152.0934,W,1,10,1.0,17.3,M,-32.7,M,,*67
$PYRTM,2024,125.586930298565,16.696577708704
$GPGGA,140509.00,3510.6357,N,12152.0950,W,1,10,1.0,16.7,M,-32.7,M,,*65
$PYRTM,2024,125.586941880127,16.696589290266
$GPGGA,140510.00,3510.6356,N,12152.0971,W,1,10,1.0,19.5,M,-32.7,M,,*62
$PYRTM,2024,125.586953448160,16.696600858299
$GPGGA,140511.00,3510.6351,N,12152.0996,W,1,10,1.0,16.9,M,-32.7,M,,*6E
$PYRTM,2024,125.586965036563,16.696612446701
$GPGGA,140512.00,3510.6350,N,12152.1021,W,1,10,1.0,17.0,M,-32.7,M,,*60
$PYRTM,2024,125.586977073032,16.696624483171
$GPGGA,140513.00,3510.6352,N,12152.1042,W,1,10,1.0,18.3,M,-32.7,M,,*6A
$PYRTM,2024,125.586988631921,16.696636042060
$GPGGA,140514.00,3510.6355,N,12152.1064,W,1,10,1.0,20.0,M,-32.7,M,,*66
$PYRTM,2024,125.587000335440,16.696647745579
$GPGGA,140515.00,3510.6357,N,12152.1088,W,1,10,1.0,20.1,M,-32.7,M,,*66
$PYRTM,2024,125.587011894271,16.696659304410
$GPGGA,140516.00,3510.6359,N,12152.1111,W,1,10,1.0,19.5,M,-32.7,M,,*64
$PYRTM,2024,125.587023483160,16.696670893299
$GPGGA,140517.00,3510.6362,N,12152.1133,W,1,10,1.0,22.8,M,-32.7,M,,*68
$PYRTM,2024,125.587035042685,16.696682452824
$GPGGA,140518.00,3510.6364,N,12152.1155,W,1,10,1.0,20.0,M,-32.7,M,,*6B
$PYRTM,2024,125.587046626389,16.696694036539
$GPGGA,140519.00,3510.6367,N,12152.1178,W,1,10,1.0,17.6,M,-32.7,M,,*64
$PYRTM,2024,125.587058190475,16.696705600613
$GPGGA,140520.00,3510.6370,N,12152.1203,W,1,10,1.0,16.6,M,-32.7,M,,*66
$PYRTM,2024,125.587069779271,16.696717189410
$GPGGA,140521.00,3510.6372,N,12152.1225,W,1,10,1.0,16.5,M,-32.7,M,,*62
$PYRTM,2024,125.587081339444,16.696728749595
$GPGGA,140522.00,3510.6375,N,12152.1245,W,1,10,1.0,16.9,M,-32.7,M,,*6C
$PYRTM,2024,125.587092928102,16.696740338241
$GPGGA,140523.00,3510.6375,N,12152.1270,W,1,10,1.0,18.5,M,-32.7,M,,*69
$PYRTM,2024,125.587104487731,16.696751897870
$GPGGA,140524.00,3510.6377,N,12152.1298,W,1,10,1.0,17.6,M,-32.7,M,,*66
$PYRTM,2024,125.587116076806,16.696763486956
$GPGGA,140525.00,3510.6379,N,12152.1324,W,1,10,1.0,17.5,M,-32.7,M,,*6C
$PYRTM,2024,125.587127636204,16.696775046343
$GPGGA,140526.00,3510.6380,N,12152.1348,W,1,10,1.0,17.7,M,-32.7,M,,*61
$PYRTM,2024,125.587139219491,16.696786629630
$GPGGA,140527.00,3510.6377,N,12152.1371,W,1,10,1.0,15.9,M,-32.7,M,,*6E
$PYRTM,2024,125.587150783785,16.696798193924
$GPGGA,140528.00,3510.6378,N,12152.1396,W,1,10,1.0,14.8,M,-32.7,M,,*67
$PYRTM,2024,125.587167221319,16.696814631458
$GPGGA,140529.00,3510.6382,N,12152.1422,W,1,10,1.0,15.7,M,-32.7,M,,*65
$PYRTM,2024,125.587179256470,16.696826666609
$GPGGA,140530.00,3510.6383,N,12152.1445,W,1,10,1.0,15.6,M,-32.7,M,,*6C
$PYRTM,2024,125.587192337407,16.696839747546
$GPGGA,140531.00,3510.6378,N,12152.1467,W,1,10,1.0,16.5,M,-32.7,M,,*69
$PYRTM,2024,125.587203448252,16.696850858391
$GPGGA,140532.00,3510.6373,N,12152.1490,W,1,10,1.0,16.1,M,-32.7,M,,*6D
$PYRTM,2024,125.587214674282,16.696862084421
$GPGGA,140533.00,3510.6376,N,12152.1515,W,1,10,1.0,14.8,M,-32.7,M,,*6E
$PYRTM,2024,125.587225784606,16.696873194745
$GPGGA,140534.00,3510.6385,N,12152.1541,W,1,10,1.0,14.0,M,-32.7,M,,*6C
$PYRTM,2024,125.587236895984,16.696884306123
$GPGGA,140535.00,3510.6388,N,12152.1565,W,1,10,1.0,15.2,M,-32.7,M,,*65
$PYRTM,2024,125.587248006829,16.696895416968
$GPGGA,140536.00,3510.6382,N,12152.1589,W,1,10,1.0,17.3,M,-32.7,M,,*6D
$PYRTM,2024,125.587259251748,16.696906661887
$GPGGA,140537.00,3510.6379,N,12152.1614,W,1,10,1.0,18.8,M,-32.7,M,,*6B
$PYRTM,2024,125.587270359988,16.696917770127
$GPGGA,140538.00,3510.6382,N,12152.1640,W,1,10,1.0,18.3,M,-32.7,M,,*6A
$PYRTM,2024,125.587281471771,16.696928881910
$GPGGA,140539.00,3510.6386,N,12152.1665,W,1,10,1.0,18.3,M,-32.7,M,,*68
$PYRTM,2024,125.587292577326,16.696939987465
$GPGGA,140540.00,3510.6389,N,12152.1689,W,1,10,1.0,18.4,M,-32.7,M,,*6C
$PYRTM,2024,125.587303809074,16.696951219213
$GPGGA,140541.00,3510.6388,N,12152.1714,W,1,10,1.0,16.6,M,-32.7,M,,*65
$PYRTM,2024,125.587314922940,16.696962333079
$GPGGA,140542.00,3510.6389,N,12152.1737,W,1,10,1.0,16.2,M,-32.7,M,,*62
$PYRTM,2024,125.587326483900,16.696973894039
$GPGGA,140543.00,3510.6391,N,12152.1759,W,1,10,1.0,18.5,M,-32.7,M,,*6B
$PYRTM,2024,125.587337594236,16.696985004375
$GPGGA,140544.00,3510.6393,N,12152.1784,W,1,10,1.0,18.8,M,-32.7,M,,*63
$PYRTM,2024,125.587348705521,16.696996115671
$GPGGA,140545.00,3510.6393,N,12152.1812,W,1,10,1.0,17.4,M,-32.7,M,,*61
$PYRTM,2024,125.587359930660,16.697007340799
$GPGGA,140546.00,3510.6395,N,12152.1837,W,1,10,1.0,16.9,M,-32.7,M,,*6F
$PYRTM,2024,125.587371041736,16.697018451875
$GPGGA,140547.00,3510.6399,N,12152.1860,W,1,10,1.0,20.8,M,-32.7,M,,*64
$PYRTM,2024,125.587382155023,16.697029565162
$GPGGA,140548.00,3510.6402,N,12152.1885,W,1,10,1.0,20.0,M,-32.7,M,,*6D
$PYRTM,2024,125.587393754722,16.697041164873
$GPGGA,140549.00,3510.6404,N,12152.1912,W,1,10,1.0,18.9,M,-32.7,M,,*67
$PYRTM,2024,125.587404850081,16.697052260220
$GPGGA,140550.00,3510.6402,N,12152.1936,W,1,10,1.0,19.0,M,-32.7,M,,*67
$PYRTM,2024,125.587416073924,16.697063484063
$GPGGA,140551.00,3510.6403,N,12152.1963,W,1,10,1.0,17.6,M,-32.7,M,,*6F
$PYRTM,2024,125.587427189144,16.697074599282
$GPGGA,140552.00,3510.6405,N,12152.1992,W,1,10,1.0,17.3,M,-32.7,M,,*61
$PYRTM,2024,125.587438299444,16.697085709583
$GPGGA,140553.00,3510.6404,N,12152.2015,W,1,10,1.0,16.4,M,-32.7,M,,*62
$PYRTM,2024,125.587449407755,16.697096817894
$GPGGA,140554.00,3510.6401,N,12152.2037,W,1,10,1.0,19.4,M,-32.7,M,,*6F
$PYRTM,2024,125.587460637963,16.697108048102
$GPGGA,140555.00,3510.6400,N,12152.2062,W,1,10,1.0,19.0,M,-32.7,M,,*6B
$PYRTM,2024,125.587471749873,16.697119160012
$GPGGA,140556.00,3510.6404,N,12152.2090,W,1,10,1.0,16.7,M,-32.7,M,,*69
$PYRTM,2024,125.587482860567,16.697130270706
$GPGGA,140557.00,3510.6408,N,12152.2115,W,1,10,1.0,17.1,M,-32.7,M,,*6F
$PYRTM,2024,125.587493973009,16.697141383160
$GPGGA,140558.00,3510.6408,N,12152.2136,W,1,10,1.0,16.8,M,-32.7,M,,*69
$PYRTM,2024,125.587509707639,16.697157117778
$GPGGA,140559.00,3510.6405,N,12152.2155,W,1,10,1.0,17.0,M,-32.7,M,,*69
$PYRTM,2024,125.587532154653,16.697179564803
$GPGGA,140600.00,3510.6403,N,12152.2181,W,1,10,1.0,17.6,M,-32.7,M,,*6F
$PYRTM,2024,125.587543266424,16.697190676562
$GPGGA,140601.00,3510.6407,N,12152.2209,W,1,10,1.0,17.2,M,-32.7,M,,*6D
$PYRTM,2024,125.587554491470,16.697201901609
$GPGGA,140602.00,3510.6412,N,12152.2234,W,1,10,1.0,14.5,M,-32.7,M,,*60
$PYRTM,2024,125.587565601586,16.697213011725
$GPGGA,140603.00,3510.6414,N,12152.2258,W,1,10,1.0,16.8,M,-32.7,M,,*62
$PYRTM,2024,125.587576714201,16.697224124340
$GPGGA,140604.00,3510.6412,N,12152.2282,W,1,10,1.0,17.9,M,-32.7,M,,*64
$PYRTM,2024,125.587587828032,16.697235238171
$GPGGA,140605.00,3510.6413,N,12152.2306,W,1,10,1.0,17.0,M,-32.7,M,,*60
$PYRTM,2024,125.587599065347,16.697246475486
$GPGGA,140606.00,3510.6414,N,12152.2330,W,1,10,1.0,17.8,M,-32.7,M,,*69
$PYRTM,2024,125.587610179479,16.697257589618
$GPGGA,140607.00,3510.6414,N,12152.2356,W,1,10,1.0,15.8,M,-32.7,M,,*6A
$PYRTM,2024,125.587621291505,16.697268701644
$GPGGA,140608.00,3510.6418,N,12152.2382,W,1,10,1.0,13.9,M,-32.7,M,,*67
$PYRTM,2024,125.587632414363,16.697279824537
$GPGGA,140609.00,3510.6423,N,12152.2406,W,1,10,1.0,11.7,M,-32.7,M,,*69
$PYRTM,2024,125.587643626563,16.697291036701
$GPGGA,140610.00,3510.6425,N,12152.2429,W,1,10,1.0,13.0,M,-32.7,M,,*6F
$PYRTM,2024,125.587654738183,16.697302148322
$GPGGA,140611.00,3510.6422,N,12152.2449,W,1,10,1.0,14.8,M,-32.7,M,,*60
$PYRTM,2024,125.587665852164,16.697313262303
$GPGGA,140612.00,3510.6418,N,12152.2469,W,1,10,1.0,14.8,M,-32.7,M,,*68
$PYRTM,2024,125.587677411123,16.697324821262
$GPGGA,140613.00,3510.6417,N,12152.2494,W,1,10,1.0,15.2,M,-32.7,M,,*6F
$PYRTM,2024,125.587688520231,16.697335930370
$GPGGA,140614.00,3510.6420,N,12152.2524,W,1,10,1.0,14.0,M,-32.7,M,,*65
$PYRTM,2024,125.587699748368,16.697347158507
$GPGGA,140615.00,3510.6424,N,12152.2549,W,1,10,1.0,13.2,M,-32.7,M,,*6E
$PYRTM,2024,125.587710858438,16.697358268576
$GPGGA,140616.00,3510.6429,N,12152.2569,W,1,10,1.0,10.2,M,-32.7,M,,*61
$PYRTM,2024,125.587721970486,16.697369380625
$GPGGA,140617.00,3510.6427,N,12152.2588,W,1,10,1.0,12.8,M,-32.7,M,,*69
$PYRTM,2024,125.587732039352,16.697379449491
$GPGGA,140618.00,3510.6423,N,12152.2607,W,1,10,1.0,14.9,M,-32.7,M,,*61
$PYRTM,2024,125.587744306181,16.697391716319
$GPGGA,140619.00,3510.6425,N,12152.2635,W,1,10,1.0,14.4,M,-32.7,M,,*6A
$PYRTM,2024,125.587755417049,16.697402827187
$GPGGA,140620.00,3510.6430,N,12152.2662,W,1,10,1.0,15.3,M,-32.7,M,,*60
$PYRTM,2024,125.587766529468,16.697413939618
$GPGGA,140621.00,3510.6434,N,12152.2682,W,1,10,1.0,16.0,M,-32.7,M,,*6B
$PYRTM,2024,125.587777638322,16.697425048461
$GPGGA,140622.00,3510.6435,N,12152.2700,W,1,10,1.0,16.6,M,-32.7,M,,*64
$PYRTM,2024,125.587788884340,16.697436294479
$GPGGA,140623.00,3510.6433,N,12152.2722,W,1,10,1.0,15.2,M,-32.7,M,,*64
$PYRTM,2024,125.587799992998,16.697447403137
$GPGGA,140624.00,3510.6436,N,12152.2748,W,1,10,1.0,16.6,M,-32.7,M,,*6D
$PYRTM,2024,125.587811091701,16.697458501840
$GPGGA,140625.00,3510.6441,N,12152.2773,W,1,10,1.0,16.7,M,-32.7,M,,*65
$PYRTM,2024,125.587822229398,16.697469639537
$GPGGA,140626.00,3510.6445,N,12152.2798,W,1,10,1.0,13.3,M,-32.7,M,,*66
$PYRTM,2024,125.587833437373,16.697480847512
$GPGGA,140627.00,3510.6445,N,12152.2821,W,1,10,1.0,15.5,M,-32.7,M,,*6A
$PYRTM,2024,125.587844669815,16.697492079954
$GPGGA,140628.00,3510.6445,N,12152.2843,W,1,10,1.0,16.0,M,-32.7,M,,*67
$PYRTM,2024,125.587854854595,16.697502264734
$GPGGA,140629.00,3510.6444,N,12152.2866,W,1,10,1.0,16.6,M,-32.7,M,,*66
$PYRTM,2024,125.587866658634,16.697514068773
$GPGGA,140630.00,3510.6444,N,12152.2892,W,1,10,1.0,16.5,M,-32.7,M,,*66
$PYRTM,2024,125.587879377500,16.697526787650
$GPGGA,140631.00,3510.6445,N,12152.2917,W,1,10,1.0,15.5,M,-32.7,M,,*69
$PYRTM,2024,125.587890964861,16.697538375000
$GPGGA,140632.00,3510.6450,N,12152.2940,W,1,10,1.0,17.6,M,-32.7,M,,*6D
$PYRTM,2024,125.587902525891,16.697549936030
$GPGGA,140633.00,3510.6454,N,12152.2964,W,1,10,1.0,15.3,M,-32.7,M,,*69
$PYRTM,2024,125.587914115660,16.697561525799
$GPGGA,140634.00,3510.6453,N,12152.2989,W,1,10,1.0,15.8,M,-32.7,M,,*61
$PYRTM,2024,125.587925673576,16.697573083715
$GPGGA,140635.00,3510.6450,N,12152.3015,W,1,10,1.0,16.5,M,-32.7,M,,*60
$PYRTM,2024,125.587937256956,16.697584667095
$GPGGA,140636.00,3510.6452,N,12152.3040,W,1,10,1.0,16.6,M,-32.7,M,,*62
$PYRTM,2024,125.587948822766,16.697596232905
$GPGGA,140637.00,3510.6457,N,12152.3066,W,1,10,1.0,16.4,M,-32.7,M,,*60
$PYRTM,2024,125.587960410116,16.697607820255
$GPGGA,140638.00,3510.6460,N,12152.3090,W,1,10,1.0,16.7,M,-32.7,M,,*61
$PYRTM,2024,125.587972326863,16.697619737002
$GPGGA,140639.00,3510.6461,N,12152.3116,W,1,10,1.0,15.8,M,-32.7,M,,*62
$PYRTM,2024,125.587983562407,16.697630972546
$GPGGA,140640.00,3510.6463,N,12152.3144,W,1,10,1.0,15.0,M,-32.7,M,,*61
$PYRTM,2024,125.587995120139,16.697642530278
$GPGGA,140641.00,3510.6465,N,12152.3170,W,1,10,1.0,16.8,M,-32.7,M,,*6A
$PYRTM,2024,125.588006721458,16.697654131597
$GPGGA,140642.00,3510.6465,N,12152.3194,W,1,10,1.0,16.3,M,-32.7,M,,*68
$PYRTM,2024,125.588018630231,16.697666040370
$GPGGA,140643.00,3510.6465,N,12152.3220,W,1,10,1.0,15.2,M,-32.7,M,,*67
$PYRTM,2024,125.588029855347,16.697677265486
$GPGGA,140644.00,3510.6469,N,12152.3244,W,1,10,1.0,15.5,M,-32.7,M,,*69
$PYRTM,2024,125.588041415822,16.697688825972
$GPGGA,140645.00,3510.6472,N,12152.3266,W,1,10,1.0,18.6,M,-32.7,M,,*6C
$PYRTM,2024,125.588053003275,16.697700413414
$GPGGA,140646.00,3510.6472,N,12152.3290,W,1,10,1.0,18.8,M,-32.7,M,,*68
$PYRTM,2024,125.588064563275,16.697711973414
$GPGGA,140647.00,3510.6471,N,12152.3317,W,1,10,1.0,18.2,M,-32.7,M,,*6E
$PYRTM,2024,125.588076151076,16.697723561215
$GPGGA,140648.00,3510.6473,N,12152.3341,W,1,10,1.0,17.0,M,-32.7,M,,*6D
$PYRTM,2024,125.588087711458,16.697735121597
$GPGGA,140649.00,3510.6477,N,12152.3364,W,1,10,1.0,17.6,M,-32.7,M,,*69
$PYRTM,2024,125.588099299560,16.697746709699
$GPGGA,140650.00,3510.6482,N,12152.3387,W,1,10,1.0,17.4,M,-32.7,M,,*64
$PYRTM,2024,125.588110860498,16.697758270637
$GPGGA,140651.00,3510.6484,N,12152.3408,W,1,10,1.0,18.3,M,-32.7,M,,*6B
$PYRTM,2024,125.588122446771,16.697769856910
$GPGGA,140652.00,3510.6483,N,12152.3431,W,1,10,1.0,19.0,M,-32.7,M,,*67
$PYRTM,2024,125.588134008600,16.697781418738
$GPGGA,140653.00,3510.6482,N,12152.3460,W,1,10,1.0,18.2,M,-32.7,M,,*60
$PYRTM,2024,125.588145599583,16.697793009722
$GPGGA,140654.00,3510.6484,N,12152.3488,W,1,10,1.0,15.4,M,-32.7,M,,*6C
$PYRTM,2024,125.588157158414,16.697804568553
$GPGGA,140655.00,3510.6490,N,12152.3510,W,1,10,1.0,17.0,M,-32.7,M,,*6E
$PYRTM,2024,125.588168749167,16.697816159306
$GPGGA,140656.00,3510.6493,N,12152.3532,W,1,10,1.0,16.9,M,-32.7,M,,*66
$PYRTM,2024,125.588180307072,16.697827717211
$GPGGA,140657.00,3510.6491,N,12152.3557,W,1,10,1.0,17.0,M,-32.7,M,,*6E
$PYRTM,2024,125.588191887593,16.697839297743
$GPGGA,140658.00,3510.6489,N,12152.3583,W,1,10,1.0,15.9,M,-32.7,M,,*6A
$PYRTM,2024,125.588202077025,16.697849487164
$GPGGA,140659.00,3510.6492,N,12152.3610,W,1,10,1.0,16.9,M,-32.7,M,,*6B
$PYRTM,2024,125.588213878912,16.697861289051
$GPGGA,140700.00,3510.6499,N,12152.3636,W,1,10,1.0,15.1,M,-32.7,M,,*62
$PYRTM,2024,125.588226603461,16.697874013600
$GPGGA,140701.00,3510.6504,N,12152.3662,W,1,10,1.0,16.2,M,-32.7,M,,*67
$PYRTM,2024,125.588238189907,16.697885600046
$GPGGA,140702.00,3510.6504,N,12152.3687,W,1,10,1.0,15.4,M,-32.7,M,,*6A
$PYRTM,2024,125.588249751713,16.697897161852
$GPGGA,140703.00,3510.6499,N,12152.3711,W,1,10,1.0,15.8,M,-32.7,M,,*6C
$PYRTM,2024,125.588261337870,16.697908748009
$GPGGA,140704.00,3510.6495,N,12152.3735,W,1,10,1.0,15.9,M,-32.7,M,,*60
$PYRTM,2024,125.588272899410,16.697920309549
$GPGGA,140705.00,3510.6498,N,12152.3762,W,1,10,1.0,15.6,M,-32.7,M,,*61
$PYRTM,2024,125.588284487975,16.697931898113
$GPGGA,140706.00,3510.6506,N,12152.3791,W,1,10,1.0,14.3,M,-32.7,M,,*6C
$PYRTM,2024,125.588296049653,16.697943459792
$GPGGA,140707.00,3510.6511,N,12152.3817,W,1,10,1.0,14.4,M,-32.7,M,,*6D
$PYRTM,2024,125.588307640590,16.697955050741
$GPGGA,140708.00,3510.6506,N,12152.3839,W,1,10,1.0,17.4,M,-32.7,M,,*6B
$PYRTM,2024,125.588319197176,16.697966607315
$GPGGA,140709.00,3510.6501,N,12152.3864,W,1,10,1.0,18.7,M,-32.7,M,,*69
$PYRTM,2024,125.588330785486,16.697978195637
$GPGGA,140710.00,3510.6503,N,12152.3892,W,1,10,1.0,17.7,M,-32.7,M,,*65
$PYRTM,2024,125.588342343171,16.697989753310
$GPGGA,140711.00,3510.6512,N,12152.3919,W,1,10,1.0,16.8,M,-32.7,M,,*68
$PYRTM,2024,125.588353934433,16.698001344572
$GPGGA,140712.00,3510.6520,N,12152.3944,W,1,10,1.0,16.8,M,-32.7,M,,*62
$PYRTM,2024,125.588365968611,16.698013378750
$GPGGA,140713.00,3510.6519,N,12152.3967,W,1,10,1.0,17.7,M,-32.7,M,,*66
$PYRTM,2024,125.588377531586,16.698024941725
$GPGGA,140714.00,3510.6511,N,12152.3989,W,1,10,1.0,16.5,M,-32.7,M,,*6A
$PYRTM,2024,125.588389116528,16.698036526667
$GPGGA,140715.00,3510.6512,N,12152.4016,W,1,10,1.0,16.7,M,-32.7,M,,*62
$PYRTM,2024,125.588400678380,16.698048088519
$GPGGA,140716.00,3510.6518,N,12152.4043,W,1,10,1.0,16.2,M,-32.7,M,,*6E
$PYRTM,2024,125.588412278634,16.698059688773
$GPGGA,140717.00,3510.6524,N,12152.4069,W,1,10,1.0,15.3,M,-32.7,M,,*6A
$PYRTM,2024,125.588423828032,16.698071238171
$GPGGA,140718.00,3510.6522,N,12152.4091,W,1,10,1.0,15.5,M,-32.7,M,,*62
$PYRTM,2024,125.588435414398,16.698082824537
$GPGGA,140719.00,3510.6516,N,12152.4113,W,1,10,1.0,17.2,M,-32.7,M,,*6A
$PYRTM,2024,125.588446974236,16.698094384375
$GPGGA,140720.00,3510.6517,N,12152.4138,W,1,10,1.0,17.3,M,-32.7,M,,*69
$PYRTM,2024,125.588458678495,16.698106088634
$GPGGA,140721.00,3510.6525,N,12152.4165,W,1,10,1.0,18.1,M,-32.7,M,,*6C
$PYRTM,2024,125.588470238738,16.698117648877
$GPGGA,140722.00,3510.6532,N,12152.4189,W,1,10,1.0,19.0,M,-32.7,M,,*6B
$PYRTM,2024,125.588481820579,16.698129230718
$GPGGA,140723.00,3510.6531,N,12152.4209,W,1,10,1.0,19.1,M,-32.7,M,,*63
$PYRTM,2024,125.588493386644,16.698140796782
$GPGGA,140724.00,3510.6524,N,12152.4232,W,1,10,1.0,18.8,M,-32.7,M,,*60
$PYRTM,2024,125.588504974549,16.698152384687
$GPGGA,140725.00,3510.6523,N,12152.4260,W,1,10,1.0,17.2,M,-32.7,M,,*64
$PYRTM,2024,125.588516535637,16.698163945775
$GPGGA,140726.00,3510.6529,N,12152.4287,W,1,10,1.0,17.1,M,-32.7,M,,*67
$PYRTM,2024,125.588528121215,16.698175531354
$GPGGA,140727.00,3510.6535,N,12152.4309,W,1,10,1.0,18.3,M,-32.7,M,,*61
$PYRTM,2024,125.588539681678,16.698187091817
$GPGGA,140728.00,3510.6538,N,12152.4328,W,1,10,1.0,18.4,M,-32.7,M,,*67
$PYRTM,2024,125.588550343750,16.698197753900
$GPGGA,140729.00,3510.6537,N,12152.4351,W,1,10,1.0,17.5,M,-32.7,M,,*69
$PYRTM,2024,125.588561450532,16.698208860671
$GPGGA,140730.00,3510.6536,N,12152.4380,W,1,10,1.0,16.9,M,-32.7,M,,*61
$PYRTM,2024,125.588573827303,16.698221237442
$GPGGA,140731.00,3510.6538,N,12152.4403,W,1,10,1.0,16.1,M,-32.7,M,,*6A
$PYRTM,2024,125.588585409248,16.698232819387
$GPGGA,140732.00,3510.6543,N,12152.4420,W,1,10,1.0,16.3,M,-32.7,M,,*66
$PYRTM,2024,125.588596976076,16.698244386215
$GPGGA,140733.00,3510.6548,N,12152.4441,W,1,10,1.0,13.4,M,-32.7,M,,*69
$PYRTM,2024,125.588608561933,16.698255972072
$GPGGA,140734.00,3510.6550,N,12152.4470,W,1,10,1.0,14.9,M,-32.7,M,,*6F
$PYRTM,2024,125.588619196875,16.698266607014
$GPGGA,140735.00,3510.6549,N,12152.4498,W,1,10,1.0,16.3,M,-32.7,M,,*68
$PYRTM,2024,125.588631122083,16.698278532222
$GPGGA,140736.00,3510.6547,N,12152.4522,W,1,10,1.0,18.1,M,-32.7,M,,*69
$PYRTM,2024,125.588641890451,16.698289300602
$GPGGA,140737.00,3510.6550,N,12152.4544,W,1,10,1.0,18.6,M,-32.7,M,,*69
$PYRTM,2024,125.588653011076,16.698300421215
$GPGGA,140738.00,3510.6557,N,12152.4570,W,1,10,1.0,16.1,M,-32.7,M,,*6F
$PYRTM,2024,125.588664233495,16.698311643634
$GPGGA,140739.00,3510.6560,N,12152.4593,W,1,10,1.0,16.7,M,-32.7,M,,*61
$PYRTM,2024,125.588675345799,16.698322755949
$GPGGA,140740.00,3510.6558,N,12152.4615,W,1,10,1.0,16.5,M,-32.7,M,,*6B
$PYRTM,2024,125.588686459560,16.698333869699
$GPGGA,140741.00,3510.6556,N,12152.4641,W,1,10,1.0,16.3,M,-32.7,M,,*63
$PYRTM,2024,125.588697566713,16.698344976852
$GPGGA,140742.00,3510.6559,N,12152.4665,W,1,10,1.0,17.7,M,-32.7,M,,*6C
$PYRTM,2024,125.588709127662,16.698356537801
$GPGGA,140743.00,3510.6563,N,12152.4686,W,1,10,1.0,17.6,M,-32.7,M,,*68
$PYRTM,2024,125.588720369271,16.698367779410
$GPGGA,140744.00,3510.6566,N,12152.4708,W,1,10,1.0,18.6,M,-32.7,M,,*62
$PYRTM,2024,125.588731483218,16.698378893356
$GPGGA,140745.00,3510.6566,N,12152.4734,W,1,10,1.0,18.9,M,-32.7,M,,*63
$PYRTM,2024,125.588742591111,16.698390001250
$GPGGA,140746.00,3510.6566,N,12152.4758,W,1,10,1.0,17.4,M,-32.7,M,,*68
$PYRTM,2024,125.588753819583,16.698401229722
$GPGGA,140747.00,3510.6568,N,12152.4779,W,1,10,1.0,17.3,M,-32.7,M,,*63
$PYRTM,2024,125.588765275023,16.698412685162
$GPGGA,140748.00,3510.6571,N,12152.4803,W,1,10,1.0,17.0,M,-32.7,M,,*65
$PYRTM,2024,125.588776853796,16.698424263935
$GPGGA,140749.00,3510.6574,N,12152.4829,W,1,10,1.0,15.4,M,-32.7,M,,*6F
$PYRTM,2024,125.588788423553,16.698435833704
$GPGGA,140750.00,3510.6577,N,12152.4850,W,1,10,1.0,16.3,M,-32.7,M,,*6E
$PYRTM,2024,125.588800002164,16.698447412303
$GPGGA,140751.00,3510.6578,N,12152.4871,W,1,10,1.0,18.1,M,-32.7,M,,*6F
$PYRTM,2024,125.588811572789,16.698458982928
$GPGGA,140752.00,3510.6580,N,12152.4900,W,1,10,1.0,15.7,M,-32.7,M,,*67
$PYRTM,2024,125.588823151586,16.698470561736
$GPGGA,140753.00,3510.6583,N,12152.4930,W,1,10,1.0,16.2,M,-32.7,M,,*60
$PYRTM,2024,125.588834720891,16.698482131030
$GPGGA,140754.00,3510.6585,N,12152.4952,W,1,10,1.0,17.1,M,-32.7,M,,*67
$PYRTM,2024,125.588846291586,16.698493701725
$GPGGA,140755.00,3510.6585,N,12152.4968,W,1,10,1.0,18.6,M,-32.7,M,,*67
$PYRTM,2024,125.588857869734,16.698505279873
$GPGGA,140756.00,3510.6584,N,12152.4992,W,1,10,1.0,18.3,M,-32.7,M,,*65
$PYRTM,2024,125.588873372951,16.698520783090
$GPGGA,140757.00,3510.6584,N,12152.5023,W,1,10,1.0,16.8,M,-32.7,M,,*63
$PYRTM,2024,125.588886345012,16.698533755150
$GPGGA,140758.00,3510.6585,N,12152.5046,W,1,10,1.0,17.0,M,-32.7,M,,*67
$PYRTM,2024,125.588896526516,16.698543936655
$GPGGA,140759.00,3510.6589,N,12152.5062,W,1,10,1.0,17.2,M,-32.7,M,,*6E
$PYRTM,2024,125.588908334734,16.698555744873
$GPGGA,140800.00,3510.6591,N,12152.5080,W,1,10,1.0,17.5,M,-32.7,M,,*6F
$PYRTM,2024,125.588921051551,16.698568461701
$GPGGA,140801.00,3510.6591,N,12152.5105,W,1,10,1.0,17.4,M,-32.7,M,,*63
$PYRTM,2024,125.588932653009,16.698580063148
$GPGGA,140802.00,3510.6589,N,12152.5131,W,1,10,1.0,18.2,M,-32.7,M,,*67
$PYRTM,2024,125.588944200058,16.698591610197
$GPGGA,140803.00,3510.6588,N,12152.5150,W,1,10,1.0,19.2,M,-32.7,M,,*61
$PYRTM,2024,125.588955781470,16.698603191609
$GPGGA,140804.00,3510.6590,N,12152.5169,W,1,10,1.0,17.8,M,-32.7,M,,*61
$PYRTM,2024,125.588967350648,16.698614760787
$GPGGA,140805.00,3510.6595,N,12152.5193,W,1,10,1.0,15.4,M,-32.7,M,,*6E
$PYRTM,2024,125.588978936053,16.698626346192
$GPGGA,140806.00,3510.6598,N,12152.5213,W,1,10,1.0,14.9,M,-32.7,M,,*67
$PYRTM,2024,125.588990498090,16.698637908229
$GPGGA,140807.00,3510.6596,N,12152.5229,W,1,10,1.0,17.1,M,-32.7,M,,*6A
$PYRTM,2024,125.589002078785,16.698649488924
$GPGGA,140808.00,3510.6591,N,12152.5248,W,1,10,1.0,18.9,M,-32.7,M,,*62
$PYRTM,2024,125.589013645220,16.698661055359
$GPGGA,140809.00,3510.6590,N,12152.5273,W,1,10,1.0,16.2,M,-32.7,M,,*6F
$PYRTM,2024,125.589025232257,16.698672642396
$GPGGA,140810.00,3510.6594,N,12152.5296,W,1,10,1.0,15.2,M,-32.7,M,,*6B
$PYRTM,2024,125.589036794190,16.698684204329
$GPGGA,140811.00,3510.6600,N,12152.5314,W,1,10,1.0,15.8,M,-32.7,M,,*65
$PYRTM,2024,125.589048382500,16.698695792639
$GPGGA,140812.00,3510.6602,N,12152.5330,W,1,10,1.0,17.4,M,-32.7,M,,*6C
$PYRTM,2024,125.589060181181,16.698707591331
$GPGGA,140813.00,3510.6600,N,12152.5347,W,1,10,1.0,18.3,M,-32.7,M,,*67
$PYRTM,2024,125.589071531562,16.698718941701
$GPGGA,140814.00,3510.6598,N,12152.5369,W,1,10,1.0,18.2,M,-32.7,M,,*6F
$PYRTM,2024,125.589083089606,16.698730499745
$GPGGA,140815.00,3510.6599,N,12152.5394,W,1,10,1.0,18.1,M,-32.7,M,,*6E
$PYRTM,2024,125.589094671285,16.698742081424
$GPGGA,140816.00,3510.6607,N,12152.5419,W,1,10,1.0,16.8,M,-32.7,M,,*6C
$PYRTM,2024,125.589106238067,16.698753648218
$GPGGA,140817.00,3510.6615,N,12152.5438,W,1,10,1.0,16.4,M,-32.7,M,,*61
$PYRTM,2024,125.589117825174,16.698765235313
$GPGGA,140818.00,3510.6617,N,12152.5455,W,1,10,1.0,17.2,M,-32.7,M,,*60
$PYRTM,2024,125.589129617836,16.698777027975
$GPGGA,140819.00,3510.6614,N,12152.5478,W,1,10,1.0,16.5,M,-32.7,M,,*6B
$PYRTM,2024,125.589140969919,16.698788380058
$GPGGA,140820.00,3510.6611,N,12152.5504,W,1,10,1.0,16.1,M,-32.7,M,,*6A
$PYRTM,2024,125.589152534398,16.698799944537
$GPGGA,140821.00,3510.6614,N,12152.5527,W,1,10,1.0,15.5,M,-32.7,M,,*68
$PYRTM,2024,125.589164116481,16.698811526620
$GPGGA,140822.00,3510.6621,N,12152.5548,W,1,10,1.0,20.4,M,-32.7,M,,*63
$PYRTM,2024,125.589175682245,16.698823092384
$GPGGA,140823.00,3510.6625,N,12152.5570,W,1,10,1.0,20.0,M,-32.7,M,,*69
$PYRTM,2024,125.589187271829,16.698834681968
$GPGGA,140824.00,3510.6623,N,12152.5593,W,1,10,1.0,17.9,M,-32.7,M,,*68
$PYRTM,2024,125.589198831806,16.698846241944
$GPGGA,140825.00,3510.6623,N,12152.5616,W,1,10,1.0,18.9,M,-32.7,M,,*68
$PYRTM,2024,125.589210418808,16.698857828947
$GPGGA,140826.00,3510.6626,N,12152.5639,W,1,10,1.0,17.1,M,-32.7,M,,*64
$PYRTM,2024,125.589221979479,16.698869389618
$GPGGA,140827.00,3510.6628,N,12152.5660,W,1,10,1.0,19.4,M,-32.7,M,,*6C
$PYRTM,2024,125.589233570023,16.698880980174
$GPGGA,140828.00,3510.6630,N,12152.5681,W,1,10,1.0,21.4,M,-32.7,M,,*6E
$PYRTM,2024,125.589243752188,16.698891162326
$GPGGA,140829.00,3510.6632,N,12152.5704,W,1,10,1.0,22.3,M,-32.7,M,,*65
$PYRTM,2024,125.589255559421,16.698902969560
$GPGGA,140830.00,3510.6634,N,12152.5728,W,1,10,1.0,22.1,M,-32.7,M,,*67
$PYRTM,2024,125.589268276111,16.698915686250
$GPGGA,140831.00,3510.6635,N,12152.5751,W,1,10,1.0,20.5,M,-32.7,M,,*6F
$PYRTM,2024,125.589279862419,16.698927272558
$GPGGA,140832.00,3510.6637,N,12152.5773,W,1,10,1.0,22.4,M,-32.7,M,,*6D
$PYRTM,2024,125.589291423275,16.698938833414
$GPGGA,140833.00,3510.6640,N,12152.5794,W,1,10,1.0,20.9,M,-32.7,M,,*6A
$PYRTM,2024,125.589303011481,16.698950421632
$GPGGA,140834.00,3510.6643,N,12152.5817,W,1,10,1.0,21.6,M,-32.7,M,,*64
$PYRTM,2024,125.589314573854,16.698961983993
$GPGGA,140835.00,3510.6645,N,12152.5846,W,1,10,1.0,20.8,M,-32.7,M,,*68
