$PYRTM,2024,127.833342292882,18.942989703021
$GPGGA,195959.00,3330.3011,N,11848.7171,W,1,08,1.0,13.0,M,-34.2,M,,*61
$PYRTM,2024,127.833353879225,18.943001289363
$GPGGA,200000.00,3330.2996,N,11848.7150,W,1,08,1.0,14.4,M,-34.2,M,,*6C
$PYRTM,2024,127.833365442766,18.943012852905
$GPGGA,200001.00,3330.2980,N,11848.7129,W,1,08,1.0,13.3,M,-34.2,M,,*64
$PYRTM,2024,127.833377033067,18.943024443206
$GPGGA,200002.00,3330.2964,N,11848.7110,W,1,08,1.0,13.8,M,-34.2,M,,*6C
$PYRTM,2024,127.833388589572,18.943035999711
$GPGGA,200003.00,3330.2950,N,11848.7090,W,1,08,1.0,14.7,M,-34.2,M,,*6B
$PYRTM,2024,127.833400179479,18.943047589618
$GPGGA,200004.00,3330.2937,N,11848.7069,W,1,08,1.0,13.3,M,-34.2,M,,*68
$PYRTM,2024,127.833411738275,18.943059148414
$GPGGA,200005.00,3330.2923,N,11848.7048,W,1,08,1.0,11.6,M,-34.2,M,,*68
$PYRTM,2024,127.833423326250,18.943070736389
$GPGGA,200006.00,3330.2909,N,11848.7028,W,1,08,1.0,9.6,M,-34.2,M,,*5C
$PYRTM,2024,127.833434886262,18.943082296400
$GPGGA,200007.00,3330.2894,N,11848.7008,W,1,08,1.0,11.0,M,-34.2,M,,*65
$PYRTM,2024,127.833446468750,18.943093878889
$GPGGA,200008.00,3330.2879,N,11848.6987,W,1,08,1.0,6.7,M,-34.2,M,,*57
$PYRTM,2024,127.833458035255,18.943105445394
$GPGGA,200009.00,3330.2864,N,11848.6964,W,1,08,1.0,7.4,M,-34.2,M,,*55
$PYRTM,2024,127.833469621574,18.943117031713
$GPGGA,200010.00,3330.2850,N,11848.6942,W,1,08,1.0,6.4,M,-34.2,M,,*5F
$PYRTM,2024,127.833481183634,18.943128593785
$GPGGA,200011.00,3330.2836,N,11848.6921,W,1,08,1.0,9.9,M,-34.2,M,,*59
$PYRTM,2024,127.833494260937,18.943141671076
$GPGGA,200012.00,3330.2820,N,11848.6901,W,1,08,1.0,8.5,M,-34.2,M,,*52
$PYRTM,2024,127.833506554410,18.943153964549
$GPGGA,200013.00,3330.2804,N,11848.6882,W,1,08,1.0,10.6,M,-34.2,M,,*65
$PYRTM,2024,127.833515918333,18.943163328472
$GPGGA,200014.00,3330.2791,N,11848.6862,W,1,08,1.0,10.3,M,-34.2,M,,*6A
$PYRTM,2024,127.833527479375,18.943174889514
$GPGGA,200015.00,3330.2777,N,11848.6842,W,1,08,1.0,11.3,M,-34.2,M,,*60
$PYRTM,2024,127.833539067859,18.943186477998
$GPGGA,200016.00,3330.2764,N,11848.6821,W,1,08,1.0,11.6,M,-34.2,M,,*61
$PYRTM,2024,127.833550628831,18.943198038970
$GPGGA,200017.00,3330.2749,N,11848.6801,W,1,08,1.0,12.2,M,-34.2,M,,*6A
$PYRTM,2024,127.833562218889,18.943209629039
$GPGGA,200018.00,3330.2735,N,11848.6781,W,1,08,1.0,13.9,M,-34.2,M,,*63
$PYRTM,2024,127.833573776968,18.943221187106
$GPGGA,200019.00,3330.2720,N,11848.6763,W,1,08,1.0,12.3,M,-34.2,M,,*61
$PYRTM,2024,127.833585367176,18.943232777315
$GPGGA,200020.00,3330.2707,N,11848.6743,W,1,08,1.0,11.2,M,-34.2,M,,*6E
$PYRTM,2024,127.833596924873,18.943244335012
$GPGGA,200021.00,3330.2693,N,11848.6723,W,1,08,1.0,12.7,M,-34.2,M,,*63
$PYRTM,2024,127.833608499051,18.943255909190
$GPGGA,200022.00,3330.2677,N,11848.6704,W,1,08,1.0,14.1,M,-34.2,M,,*6F
$PYRTM,2024,127.833620072558,18.943267482697
$GPGGA,200023.00,3330.2662,N,11848.6685,W,1,08,1.0,14.6,M,-34.2,M,,*65
$PYRTM,2024,127.833632110208,18.943279520347
$GPGGA,200024.00,3330.2647,N,11848.6666,W,1,08,1.0,15.6,M,-34.2,M,,*69
$PYRTM,2024,127.833643595938,18.943291006076
$GPGGA,200025.00,3330.2632,N,11848.6647,W,1,08,1.0,16.1,M,-34.2,M,,*6D
$PYRTM,2024,127.833654810000,18.943302220139
$GPGGA,200026.00,3330.2617,N,11848.6628,W,1,08,1.0,13.6,M,-34.2,M,,*62
$PYRTM,2024,127.833666370903,18.943313781042
$GPGGA,200027.00,3330.2602,N,11848.6608,W,1,08,1.0,13.9,M,-34.2,M,,*6A
$PYRTM,2024,127.833677957188,18.943325367326
$GPGGA,200028.00,3330.2587,N,11848.6589,W,1,08,1.0,13.3,M,-34.2,M,,*6B
$PYRTM,2024,127.833689518021,18.943336928160
$GPGGA,200029.00,3330.2571,N,11848.6570,W,1,08,1.0,13.5,M,-34.2,M,,*63
$PYRTM,2024,127.833701208391,18.943348618530
$GPGGA,200030.00,3330.2554,N,11848.6550,W,1,08,1.0,15.9,M,-34.2,M,,*64
$PYRTM,2024,127.833712664919,18.943360075058
$GPGGA,200031.00,3330.2539,N,11848.6529,W,1,08,1.0,15.6,M,-34.2,M,,*6F
$PYRTM,2024,127.833724266516,18.943371676655
$GPGGA,200032.00,3330.2525,N,11848.6507,W,1,08,1.0,16.1,M,-34.2,M,,*69
$PYRTM,2024,127.833735814201,18.943383224340
$GPGGA,200033.00,3330.2510,N,11848.6487,W,1,08,1.3,15.0,M,-34.2,M,,*66
$PYRTM,2024,127.833747415683,18.943394825833
$GPGGA,200034.00,3330.2495,N,11848.6469,W,1,08,1.3,17.0,M,-34.2,M,,*6F
$PYRTM,2024,127.833758962755,18.943406372894
$GPGGA,200035.00,3330.2478,N,11848.6451,W,1,08,1.3,17.3,M,-34.2,M,,*65
$PYRTM,2024,127.833770537720,18.943417947859
$GPGGA,200036.00,3330.2462,N,11848.6431,W,1,08,1.3,16.4,M,-34.2,M,,*6D
$PYRTM,2024,127.833782112106,18.943429522245
$GPGGA,200037.00,3330.2449,N,11848.6408,W,1,08,1.3,16.1,M,-34.2,M,,*6A
$PYRTM,2024,127.833793698588,18.943441108727
$GPGGA,200038.00,3330.2435,N,11848.6385,W,1,08,1.3,14.8,M,-34.2,M,,*67
$PYRTM,2024,127.833805260394,18.943452670532
$GPGGA,200039.00,3330.2421,N,11848.6364,W,1,08,1.3,14.4,M,-34.2,M,,*60
$PYRTM,2024,127.833816847512,18.943464257650
$GPGGA,200040.00,3330.2405,N,11848.6344,W,1,08,1.3,14.3,M,-34.2,M,,*6D
$PYRTM,2024,127.833828407199,18.943475817338
$GPGGA,200041.00,3330.2388,N,11848.6324,W,1,08,1.3,13.5,M,-34.2,M,,*69
$PYRTM,2024,127.833841025440,18.943488435579
$GPGGA,200042.00,3330.2373,N,11848.6304,W,1,08,1.3,13.7,M,-34.2,M,,*6E
$PYRTM,2024,127.833853762789,18.943501172928
$GPGGA,200043.00,3330.2359,N,11848.6283,W,1,08,1.3,13.7,M,-34.2,M,,*69
$PYRTM,2024,127.833863143310,18.943510553449
$GPGGA,200044.00,3330.2345,N,11848.6262,W,1,08,1.3,11.7,M,-34.2,M,,*6E
$PYRTM,2024,127.833874703646,18.943522113785
$GPGGA,200045.00,3330.2332,N,11848.6243,W,1,08,1.3,11.7,M,-34.2,M,,*6C
$PYRTM,2024,127.833886293438,18.943533703576
$GPGGA,200046.00,3330.2318,N,11848.6222,W,1,08,1.3,9.0,M,-34.2,M,,*5E
$PYRTM,2024,127.833897851644,18.943545261794
$GPGGA,200047.00,3330.2304,N,11848.6202,W,1,08,1.3,8.8,M,-34.2,M,,*59
$PYRTM,2024,127.833909442049,18.943556852199
$GPGGA,200048.00,3330.2291,N,11848.6181,W,1,08,1.3,8.6,M,-34.2,M,,*5D
$PYRTM,2024,127.833921001042,18.943568411181
$GPGGA,200049.00,3330.2277,N,11848.6160,W,1,08,1.3,9.6,M,-34.2,M,,*5A
$PYRTM,2024,127.833932587199,18.943579997338
$GPGGA,200050.00,3330.2262,N,11848.6140,W,1,08,1.3,8.9,M,-34.2,M,,*5A
$PYRTM,2024,127.833944150255,18.943591560394
$GPGGA,200051.00,3330.2247,N,11848.6117,W,1,08,1.3,10.5,M,-34.2,M,,*6B
$PYRTM,2024,127.833955730463,18.943603140602
$GPGGA,200052.00,3330.2233,N,11848.6094,W,1,08,1.3,11.6,M,-34.2,M,,*63
$PYRTM,2024,127.833967298125,18.943614708264
$GPGGA,200053.00,3330.2220,N,11848.6069,W,1,08,1.3,12.6,M,-34.2,M,,*61
$PYRTM,2024,127.833979333877,18.943626744016
$GPGGA,200054.00,3330.2207,N,11848.6046,W,1,08,1.3,14.8,M,-34.2,M,,*66
$PYRTM,2024,127.833990923704,18.943638333843
$GPGGA,200055.00,3330.2193,N,11848.6026,W,1,08,1.3,15.5,M,-34.2,M,,*63
$PYRTM,2024,127.834002482153,18.943649892292
$GPGGA,200056.00,3330.2179,N,11848.6005,W,1,08,1.3,14.4,M,-34.2,M,,*65
$PYRTM,2024,127.834014069988,18.943661480127
$GPGGA,200057.00,3330.2166,N,11848.5985,W,1,08,1.3,11.9,M,-34.2,M,,*60
$PYRTM,2024,127.834025631701,18.943673041852
$GPGGA,200058.00,3330.2153,N,11848.5965,W,1,08,1.3,10.6,M,-34.2,M,,*69
$PYRTM,2024,127.834037219271,18.943684629410
$GPGGA,200059.00,3330.2139,N,11848.5945,W,1,08,1.3,9.7,M,-34.2,M,,*5F
$PYRTM,2024,127.834048778634,18.943696188773
$GPGGA,200100.00,3330.2123,N,11848.5926,W,1,08,1.3,9.9,M,-34.2,M,,*52
$PYRTM,2024,127.834060485602,18.943707895741
$GPGGA,200101.00,3330.2107,N,11848.5907,W,1,08,1.3,10.9,M,-34.2,M,,*6E
$PYRTM,2024,127.834072404051,18.943719814190
$GPGGA,200102.00,3330.2092,N,11848.5887,W,1,08,1.3,11.8,M,-34.2,M,,*69
$PYRTM,2024,127.834083631215,18.943731041354
$GPGGA,200103.00,3330.2077,N,11848.5866,W,1,08,1.3,13.4,M,-34.2,M,,*62
$PYRTM,2024,127.834095191748,18.943742601887
$GPGGA,200104.00,3330.2063,N,11848.5845,W,1,08,1.3,13.3,M,-34.2,M,,*66
$PYRTM,2024,127.834106778310,18.943754188461
$GPGGA,200105.00,3330.2048,N,11848.5826,W,1,08,1.3,12.0,M,-34.2,M,,*69
$PYRTM,2024,127.834118340729,18.943765750868
$GPGGA,200106.00,3330.2034,N,11848.5806,W,1,07,1.3,11.2,M,-34.2,M,,*6D
$PYRTM,2024,127.834129928160,18.943777338310
$GPGGA,200107.00,3330.2019,N,11848.5785,W,1,08,1.3,11.2,M,-34.2,M,,*68
$PYRTM,2024,127.834142297685,18.943789707824
$GPGGA,200108.00,3330.2005,N,11848.5765,W,1,08,1.3,10.7,M,-34.2,M,,*60
$PYRTM,2024,127.834155260243,18.943802670382
$GPGGA,200109.00,3330.1991,N,11848.5744,W,1,08,1.3,9.4,M,-34.2,M,,*5E
$PYRTM,2024,127.834166025405,18.943813435544
$GPGGA,200110.00,3330.1977,N,11848.5725,W,1,08,1.3,7.7,M,-34.2,M,,*54
$PYRTM,2024,127.834177152257,18.943824562396
$GPGGA,200111.00,3330.1962,N,11848.5704,W,1,08,1.3,7.7,M,-34.2,M,,*52
$PYRTM,2024,127.834188246968,18.943835657106
$GPGGA,200112.00,3330.1945,N,11848.5683,W,1,08,1.3,8.5,M,-34.2,M,,*57
$PYRTM,2024,127.834202847315,18.943850257465
$GPGGA,200113.00,3330.1929,N,11848.5662,W,1,08,1.3,11.5,M,-34.2,M,,*6B
$PYRTM,2024,127.834214070822,18.943861480961
$GPGGA,200114.00,3330.1915,N,11848.5639,W,1,08,1.3,12.6,M,-34.2,M,,*6D
$PYRTM,2024,127.834225182176,18.943872592326
$GPGGA,200115.00,3330.1901,N,11848.5618,W,1,08,1.3,13.7,M,-34.2,M,,*6A
$PYRTM,2024,127.834236296042,18.943883706181
$GPGGA,200116.00,3330.1887,N,11848.5598,W,1,08,1.3,12.3,M,-34.2,M,,*68
$PYRTM,2024,127.834247390775,18.943894800914
$GPGGA,200117.00,3330.1873,N,11848.5578,W,1,08,1.3,12.0,M,-34.2,M,,*6F
$PYRTM,2024,127.834258646192,18.943906056331
$GPGGA,200118.00,3330.1860,N,11848.5558,W,1,08,1.3,12.3,M,-34.2,M,,*63
$PYRTM,2024,127.834269736644,18.943917146782
$GPGGA,200119.00,3330.1846,N,11848.5540,W,1,08,1.3,12.8,M,-34.2,M,,*64
$PYRTM,2024,127.834280841343,18.943928251481
$GPGGA,200120.00,3330.1832,N,11848.5522,W,1,08,1.3,13.5,M,-34.2,M,,*65
$PYRTM,2024,127.834291967778,18.943939377917
$GPGGA,200121.00,3330.1817,N,11848.5505,W,1,08,1.3,16.6,M,-34.2,M,,*60
$PYRTM,2024,127.834303191285,18.943950601424
$GPGGA,200122.00,3330.1803,N,11848.5485,W,1,08,1.3,14.1,M,-34.2,M,,*6A
$PYRTM,2024,127.834314297905,18.943961708056
$GPGGA,200123.00,3330.1788,N,11848.5465,W,1,08,1.3,12.8,M,-34.2,M,,*66
$PYRTM,2024,127.834325861690,18.943973271829
$GPGGA,200124.00,3330.1774,N,11848.5445,W,1,08,1.3,12.5,M,-34.2,M,,*6D
$PYRTM,2024,127.834336973831,18.943984383970
$GPGGA,200125.00,3330.1760,N,11848.5426,W,1,08,1.3,14.4,M,-34.2,M,,*6B
$PYRTM,2024,127.834348215139,18.943995625278
$GPGGA,200126.00,3330.1745,N,11848.5406,W,1,08,1.3,12.4,M,-34.2,M,,*6B
$PYRTM,2024,127.834359668889,18.944007079028
$GPGGA,200127.00,3330.1731,N,11848.5386,W,1,08,1.3,11.7,M,-34.2,M,,*66
$PYRTM,2024,127.834371232813,18.944018642951
$GPGGA,200128.00,3330.1719,N,11848.5364,W,1,08,1.3,11.4,M,-34.2,M,,*6C
$PYRTM,2024,127.834382820903,18.944030231042
$GPGGA,200129.00,3330.1707,N,11848.5343,W,1,08,1.3,12.2,M,-34.2,M,,*62
$PYRTM,2024,127.834394380637,18.944041790775
$GPGGA,200130.00,3330.1693,N,11848.5325,W,1,08,1.3,14.3,M,-34.2,M,,*61
$PYRTM,2024,127.834405969491,18.944053379630
$GPGGA,200131.00,3330.1677,N,11848.5306,W,1,08,1.3,15.8,M,-34.2,M,,*61
$PYRTM,2024,127.834417530868,18.944064941007
$GPGGA,200132.00,3330.1661,N,11848.5288,W,1,08,1.3,14.9,M,-34.2,M,,*62
$PYRTM,2024,127.834429118090,18.944076528241
$GPGGA,200133.00,3330.1647,N,11848.5267,W,1,08,1.3,13.1,M,-34.2,M,,*69
$PYRTM,2024,127.834440680880,18.944088091019
$GPGGA,200134.00,3330.1633,N,11848.5247,W,1,08,1.3,12.5,M,-34.2,M,,*6A
$PYRTM,2024,127.834452266736,18.944099676875
$GPGGA,200135.00,3330.1618,N,11848.5228,W,1,08,1.3,14.7,M,-34.2,M,,*6F
$PYRTM,2024,127.834463827130,18.944111237269
$GPGGA,200136.00,3330.1603,N,11848.5208,W,1,08,1.3,14.4,M,-34.2,M,,*67
$PYRTM,2024,127.834475417894,18.944122828032
$GPGGA,200137.00,3330.1589,N,11848.5188,W,1,08,1.3,13.2,M,-34.2,M,,*6D
$PYRTM,2024,127.834486977488,18.944134387627
$GPGGA,200138.00,3330.1576,N,11848.5169,W,1,08,1.3,16.2,M,-34.2,M,,*68
$PYRTM,2024,127.834498566238,18.944145976389
$GPGGA,200139.00,3330.1562,N,11848.5148,W,1,08,1.3,14.3,M,-34.2,M,,*6C
$PYRTM,2024,127.834510124676,18.944157534826
$GPGGA,200140.00,3330.1548,N,11848.5127,W,1,08,1.3,13.8,M,-34.2,M,,*6F
$PYRTM,2024,127.834521711100,18.944169121250
$GPGGA,200141.00,3330.1534,N,11848.5108,W,1,08,1.3,14.8,M,-34.2,M,,*6F
$PYRTM,2024,127.834534446458,18.944181856597
$GPGGA,200142.00,3330.1519,N,11848.5089,W,1,08,1.3,16.6,M,-34.2,M,,*67
$PYRTM,2024,127.834546017500,18.944193427639
$GPGGA,200143.00,3330.1504,N,11848.5069,W,1,08,1.3,13.8,M,-34.2,M,,*6F
$PYRTM,2024,127.834557594201,18.944205004340
$GPGGA,200144.00,3330.1490,N,11848.5047,W,1,08,1.0,11.1,M,-34.2,M,,*60
$PYRTM,2024,127.834569166181,18.944216576319
$GPGGA,200145.00,3330.1477,N,11848.5026,W,1,08,1.0,12.3,M,-34.2,M,,*6E
$PYRTM,2024,127.834580742384,18.944228152523
$GPGGA,200146.00,3330.1463,N,11848.5005,W,1,08,1.0,11.8,M,-34.2,M,,*61
$PYRTM,2024,127.834592312963,18.944239723102
$GPGGA,200147.00,3330.1449,N,11848.4986,W,1,08,1.0,11.7,M,-34.2,M,,*64
$PYRTM,2024,127.834603887951,18.944251298090
$GPGGA,200148.00,3330.1433,N,11848.4967,W,1,08,1.0,14.6,M,-34.2,M,,*6D
$PYRTM,2024,127.834615448241,18.944262858368
$GPGGA,200149.00,3330.1417,N,11848.4948,W,1,08,1.0,13.1,M,-34.2,M,,*67
$PYRTM,2024,127.834627035949,18.944274446088
$GPGGA,200150.00,3330.1404,N,11848.4928,W,1,08,1.0,14.0,M,-34.2,M,,*6D
$PYRTM,2024,127.834638609549,18.944286019687
$GPGGA,200151.00,3330.1391,N,11848.4908,W,1,08,1.0,13.0,M,-34.2,M,,*62
$PYRTM,2024,127.834650646042,18.944298056181
$GPGGA,200152.00,3330.1380,N,11848.4887,W,1,08,1.0,14.3,M,-34.2,M,,*63
$PYRTM,2024,127.834661976748,18.944309386887
$GPGGA,200153.00,3330.1366,N,11848.4867,W,1,08,1.0,15.3,M,-34.2,M,,*65
$PYRTM,2024,127.834673679988,18.944321090127
$GPGGA,200154.00,3330.1351,N,11848.4849,W,1,08,1.0,13.6,M,-34.2,M,,*69
$PYRTM,2024,127.834685125810,18.944332535961
$GPGGA,200155.00,3330.1337,N,11848.4829,W,1,08,1.0,12.7,M,-34.2,M,,*6E
$PYRTM,2024,127.834696480509,18.944343890660
$GPGGA,200156.00,3330.1323,N,11848.4806,W,1,08,1.0,12.3,M,-34.2,M,,*61
$PYRTM,2024,127.834708056134,18.944355466273
$GPGGA,200157.00,3330.1310,N,11848.4786,W,1,08,1.0,13.9,M,-34.2,M,,*6C
$PYRTM,2024,127.834719632454,18.944367042604
$GPGGA,200158.00,3330.1296,N,11848.4766,W,1,08,1.0,13.8,M,-34.2,M,,*63
$PYRTM,2024,127.834731204363,18.944378614514
$GPGGA,200159.00,3330.1280,N,11848.4748,W,1,08,1.0,16.7,M,-34.2,M,,*63
$PYRTM,2024,127.834742791424,18.944390201574
$GPGGA,200200.00,3330.1265,N,11848.4731,W,1,08,1.0,14.4,M,-34.2,M,,*68
$PYRTM,2024,127.834754351227,18.944401761366
$GPGGA,200201.00,3330.1250,N,11848.4712,W,1,08,1.0,14.0,M,-34.2,M,,*6A
$PYRTM,2024,127.834765928715,18.944413338854
$GPGGA,200202.00,3330.1236,N,11848.4692,W,1,08,1.0,14.5,M,-34.2,M,,*65
$PYRTM,2024,127.834777498900,18.944424909039
$GPGGA,200203.00,3330.1222,N,11848.4672,W,1,08,1.0,14.7,M,-34.2,M,,*6D
$PYRTM,2024,127.834789075498,18.944436485637
$GPGGA,200204.00,3330.1207,N,11848.4653,W,1,08,1.0,12.3,M,-34.2,M,,*6C
$PYRTM,2024,127.834800643704,18.944448053843
$GPGGA,200205.00,3330.1191,N,11848.4636,W,1,08,1.0,11.6,M,-34.2,M,,*64
$PYRTM,2024,127.834812222593,18.944459632731
$GPGGA,200206.00,3330.1175,N,11848.4617,W,1,08,1.0,13.3,M,-34.2,M,,*69
$PYRTM,2024,127.834823791227,18.944471201366
$GPGGA,200207.00,3330.1161,N,11848.4595,W,1,08,1.0,14.8,M,-34.2,M,,*68
$PYRTM,2024,127.834835371667,18.944482781806
$GPGGA,200208.00,3330.1146,N,11848.4574,W,1,08,1.0,13.0,M,-34.2,M,,*62
$PYRTM,2024,127.834846945127,18.944494355266
$GPGGA,200209.00,3330.1130,N,11848.4552,W,1,08,1.0,15.8,M,-34.2,M,,*68
$PYRTM,2024,127.834858518113,18.944505928252
$GPGGA,200210.00,3330.1115,N,11848.4532,W,1,08,1.0,15.3,M,-34.2,M,,*6A
$PYRTM,2024,127.834870094537,18.944517504676
$GPGGA,200211.00,3330.1100,N,11848.4510,W,1,08,1.0,14.7,M,-34.2,M,,*6A
$PYRTM,2024,127.834882711053,18.944530121192
$GPGGA,200212.00,3330.1086,N,11848.4488,W,1,08,1.0,14.5,M,-34.2,M,,*64
$PYRTM,2024,127.834895425046,18.944542835185
$GPGGA,200213.00,3330.1072,N,11848.4467,W,1,08,1.0,14.5,M,-34.2,M,,*6F
$PYRTM,2024,127.834904830255,18.944552240394
$GPGGA,200214.00,3330.1057,N,11848.4447,W,1,08,1.0,12.6,M,-34.2,M,,*68
$PYRTM,2024,127.834916390475,18.944563800613
$GPGGA,200215.00,3330.1042,N,11848.4426,W,1,08,1.0,12.6,M,-34.2,M,,*6A
$PYRTM,2024,127.834927958252,18.944575368391
$GPGGA,200216.00,3330.1028,N,11848.4404,W,1,08,1.0,13.8,M,-34.2,M,,*6A
$PYRTM,2024,127.834939538137,18.944586948275
$GPGGA,200217.00,3330.1013,N,11848.4383,W,1,08,1.0,11.7,M,-34.2,M,,*66
$PYRTM,2024,127.834951111123,18.944598521273
$GPGGA,200218.00,3330.0997,N,11848.4362,W,1,08,1.0,12.6,M,-34.2,M,,*60
$PYRTM,2024,127.834962686030,18.944610096169
$GPGGA,200219.00,3330.0980,N,11848.4343,W,1,08,1.0,14.2,M,-34.2,M,,*66
$PYRTM,2024,127.834974260625,18.944621670775
$GPGGA,200220.00,3330.0963,N,11848.4323,W,1,08,1.0,13.0,M,-34.2,M,,*62
$PYRTM,2024,127.834985831123,18.944633241262
$GPGGA,200221.00,3330.0948,N,11848.4301,W,1,08,1.0,12.0,M,-34.2,M,,*6B
$PYRTM,2024,127.834997407361,18.944644817500
$GPGGA,200222.00,3330.0934,N,11848.4280,W,1,08,1.0,13.3,M,-34.2,M,,*69
$PYRTM,2024,127.835008988553,18.944656398692
$GPGGA,200223.00,3330.0921,N,11848.4259,W,1,08,1.3,11.3,M,-34.2,M,,*69
$PYRTM,2024,127.835020905463,18.944668315602
$GPGGA,200224.00,3330.0907,N,11848.4239,W,1,08,1.0,10.8,M,-34.2,M,,*65
$PYRTM,2024,127.835032465660,18.944679875799
$GPGGA,200225.00,3330.0893,N,11848.4219,W,1,08,1.3,10.2,M,-34.2,M,,*63
$PYRTM,2024,127.835043708553,18.944691118692
$GPGGA,200226.00,3330.0877,N,11848.4201,W,1,08,1.3,9.9,M,-34.2,M,,*50
$PYRTM,2024,127.835055274792,18.944702684931
$GPGGA,200227.00,3330.0861,N,11848.4182,W,1,08,1.3,10.8,M,-34.2,M,,*67
$PYRTM,2024,127.835066857222,18.944714267373
$GPGGA,200228.00,3330.0846,N,11848.4162,W,1,08,1.3,11.2,M,-34.2,M,,*68
$PYRTM,2024,127.835078421667,18.944725831806
$GPGGA,200229.00,3330.0831,N,11848.4140,W,1,08,1.3,11.4,M,-34.2,M,,*6F
$PYRTM,2024,127.835090001910,18.944737412049
$GPGGA,200230.00,3330.0817,N,11848.4118,W,1,08,1.3,11.9,M,-34.2,M,,*63
$PYRTM,2024,127.835101575799,18.944748985938
$GPGGA,200231.00,3330.0805,N,11848.4095,W,1,08,1.3,11.8,M,-34.2,M,,*64
$PYRTM,2024,127.835113150556,18.944760560694
$GPGGA,200232.00,3330.0791,N,11848.4074,W,1,08,1.3,12.8,M,-34.2,M,,*69
$PYRTM,2024,127.835124720625,18.944772130764
$GPGGA,200233.00,3330.0776,N,11848.4054,W,1,08,1.3,14.0,M,-34.2,M,,*6D
$PYRTM,2024,127.835136299282,18.944783709421
$GPGGA,200234.00,3330.0761,N,11848.4035,W,1,08,1.3,13.1,M,-34.2,M,,*6D
$PYRTM,2024,127.835147872373,18.944795282512
$GPGGA,200235.00,3330.0748,N,11848.4015,W,1,08,1.3,11.8,M,-34.2,M,,*6E
$PYRTM,2024,127.835159434421,18.944806844560
$GPGGA,200236.00,3330.0735,N,11848.3993,W,1,08,1.3,11.4,M,-34.2,M,,*6B
$PYRTM,2024,127.835171008044,18.944818418194
$GPGGA,200237.00,3330.0722,N,11848.3972,W,1,08,1.3,14.5,M,-34.2,M,,*67
$PYRTM,2024,127.835182594444,18.944830004583
$GPGGA,200238.00,3330.0707,N,11848.3952,W,1,08,1.3,13.4,M,-34.2,M,,*6B
$PYRTM,2024,127.835194168437,18.944841578576
$GPGGA,200239.00,3330.0690,N,11848.3934,W,1,08,1.3,14.2,M,-34.2,M,,*64
$PYRTM,2024,127.835205745764,18.944853155903
$GPGGA,200240.00,3330.0675,N,11848.3914,W,1,08,1.3,14.6,M,-34.2,M,,*67
$PYRTM,2024,127.835217317604,18.944864727755
$GPGGA,200241.00,3330.0661,N,11848.3893,W,1,08,1.3,13.9,M,-34.2,M,,*65
$PYRTM,2024,127.835230385278,18.944877795417
$GPGGA,200242.00,3330.0647,N,11848.3872,W,1,08,1.3,13.5,M,-34.2,M,,*61
$PYRTM,2024,127.835242650289,18.944890060428
$GPGGA,200243.00,3330.0631,N,11848.3851,W,1,08,1.3,14.3,M,-34.2,M,,*61
$PYRTM,2024,127.835252042431,18.944899452581
$GPGGA,200244.00,3330.0615,N,11848.3832,W,1,08,1.3,13.3,M,-34.2,M,,*62
$PYRTM,2024,127.835263613461,18.944911023600
$GPGGA,200245.00,3330.0600,N,11848.3811,W,1,08,1.3,13.2,M,-34.2,M,,*67
$PYRTM,2024,127.835275188218,18.944922598356
$GPGGA,200246.00,3330.0586,N,11848.3791,W,1,08,1.3,12.2,M,-34.2,M,,*6F
$PYRTM,2024,127.835286762234,18.944934172373
$GPGGA,200247.00,3330.0572,N,11848.3771,W,1,08,1.3,11.9,M,-34.2,M,,*63
$PYRTM,2024,127.835298335579,18.944945745718
$GPGGA,200248.00,3330.0556,N,11848.3752,W,1,08,1.3,10.6,M,-34.2,M,,*65
$PYRTM,2024,127.835309905799,18.944957315938
$GPGGA,200249.00,3330.0541,N,11848.3734,W,1,08,1.3,11.0,M,-34.2,M,,*65
$PYRTM,2024,127.835321483889,18.944968894028
$GPGGA,200250.00,3330.0524,N,11848.3715,W,1,08,1.3,13.6,M,-34.2,M,,*69
$PYRTM,2024,127.835333057384,18.944980467523
$GPGGA,200251.00,3330.0510,N,11848.3696,W,1,08,1.3,13.5,M,-34.2,M,,*66
$PYRTM,2024,127.835344632812,18.944992042951
$GPGGA,200252.00,3330.0497,N,11848.3676,W,1,08,1.3,15.1,M,-34.2,M,,*67
$PYRTM,2024,127.835356206076,18.945003616227
$GPGGA,200253.00,3330.0483,N,11848.3656,W,1,08,1.3,16.2,M,-34.2,M,,*61
$PYRTM,2024,127.835368127211,18.945015537350
$GPGGA,200254.00,3330.0468,N,11848.3636,W,1,08,1.3,15.3,M,-34.2,M,,*67
$PYRTM,2024,127.835379817836,18.945027227975
$GPGGA,200255.00,3330.0454,N,11848.3616,W,1,08,1.3,14.5,M,-34.2,M,,*6C
$PYRTM,2024,127.835391391019,18.945038801157
$GPGGA,200256.00,3330.0441,N,11848.3597,W,1,08,1.3,17.9,M,-34.2,M,,*6E
$PYRTM,2024,127.835402966100,18.945050376238
$GPGGA,200257.00,3330.0427,N,11848.3577,W,1,08,1.3,17.3,M,-34.2,M,,*6B
$PYRTM,2024,127.835414538484,18.945061948623
$GPGGA,200258.00,3330.0412,N,11848.3558,W,1,08,1.3,15.7,M,-34.2,M,,*69
$PYRTM,2024,127.835426116725,18.945073526875
$GPGGA,200259.00,3330.0396,N,11848.3538,W,1,08,1.3,14.4,M,-34.2,M,,*67
$PYRTM,2024,127.835437688773,18.945085098924
$GPGGA,200300.00,3330.0380,N,11848.3517,W,1,08,1.3,14.0,M,-34.2,M,,*64
$PYRTM,2024,127.835449265926,18.945096676065
$GPGGA,200301.00,3330.0367,N,11848.3496,W,1,08,1.3,18.7,M,-34.2,M,,*6F
$PYRTM,2024,127.835460831192,18.945108241331
$GPGGA,200302.00,3330.0351,N,11848.3475,W,1,08,1.3,17.1,M,-34.2,M,,*6D
$PYRTM,2024,127.835472414387,18.945119824537
$GPGGA,200303.00,3330.0335,N,11848.3455,W,1,08,1.3,15.0,M,-34.2,M,,*6F
$PYRTM,2024,127.835483986134,18.945131396273
$GPGGA,200304.00,3330.0320,N,11848.3435,W,1,08,1.3,13.2,M,-34.2,M,,*6E
$PYRTM,2024,127.835495561887,18.945142972037
$GPGGA,200305.00,3330.0306,N,11848.3414,W,1,08,1.3,15.9,M,-34.2,M,,*65
$PYRTM,2024,127.835507132674,18.945154542812
$GPGGA,200306.00,3330.0292,N,11848.3393,W,1,08,1.3,15.3,M,-34.2,M,,*68
$PYRTM,2024,127.835518708299,18.945166118449
$GPGGA,200307.00,3330.0279,N,11848.3371,W,1,08,1.3,16.9,M,-34.2,M,,*69
$PYRTM,2024,127.835530386655,18.945177796794
$GPGGA,200308.00,3330.0264,N,11848.3350,W,1,08,1.3,15.7,M,-34.2,M,,*64
$PYRTM,2024,127.835541972685,18.945189382824
$GPGGA,200309.00,3330.0250,N,11848.3330,W,1,08,1.3,16.9,M,-34.2,M,,*69
$PYRTM,2024,127.835553534155,18.945200944294
$GPGGA,200310.00,3330.0235,N,11848.3309,W,1,08,1.3,16.4,M,-34.2,M,,*65
$PYRTM,2024,127.835565119016,18.945212529155
$GPGGA,200311.00,3330.0220,N,11848.3288,W,1,08,1.3,16.9,M,-34.2,M,,*65
$PYRTM,2024,127.835577724907,18.945225135046
$GPGGA,200312.00,3330.0205,N,11848.3266,W,1,08,1.3,19.5,M,-34.2,M,,*62
$PYRTM,2024,127.835591851238,18.945239261377
$GPGGA,200313.00,3330.0189,N,11848.3245,W,1,08,1.3,17.8,M,-34.2,M,,*66
$PYRTM,2024,127.835603896782,18.945251306933
$GPGGA,200314.00,3330.0173,N,11848.3225,W,1,08,1.3,14.5,M,-34.2,M,,*6C
$PYRTM,2024,127.835613832847,18.945261242986
$GPGGA,200315.00,3330.0157,N,11848.3204,W,1,08,1.3,14.4,M,-34.2,M,,*69
$PYRTM,2024,127.835624598461,18.945272008600
$GPGGA,200316.00,3330.0142,N,11848.3184,W,1,08,1.3,14.2,M,-34.2,M,,*63
$PYRTM,2024,127.835635723275,18.945283133414
$GPGGA,200317.00,3330.0128,N,11848.3165,W,1,08,1.3,14.1,M,-34.2,M,,*62
$PYRTM,2024,127.835646821898,18.945294232037
$GPGGA,200318.00,3330.0113,N,11848.3146,W,1,08,1.3,12.5,M,-34.2,M,,*66
$PYRTM,2024,127.835658046817,18.945305456956
$GPGGA,200319.00,3330.0098,N,11848.3125,W,1,08,1.3,10.8,M,-34.2,M,,*6F
$PYRTM,2024,127.835669171551,18.945316581690
$GPGGA,200320.00,3330.0084,N,11848.3104,W,1,08,1.3,11.6,M,-34.2,M,,*64
$PYRTM,2024,127.835680282176,18.945327692315
$GPGGA,200321.00,3330.0069,N,11848.3082,W,1,08,1.3,11.9,M,-34.2,M,,*66
$PYRTM,2024,127.835691389502,18.945338799641
$GPGGA,200322.00,3330.0053,N,11848.3060,W,1,08,1.3,14.4,M,-34.2,M,,*68
$PYRTM,2024,127.835702607523,18.945350017674
$GPGGA,200323.00,3330.0037,N,11848.3039,W,1,08,1.3,14.5,M,-34.2,M,,*66
$PYRTM,2024,127.835713719213,18.945361129352
$GPGGA,200324.00,3330.0022,N,11848.3018,W,1,08,1.3,13.7,M,-34.2,M,,*63
$PYRTM,2024,127.835725307049,18.945372717187
$GPGGA,200325.00,3330.0009,N,11848.2995,W,1,08,1.3,11.9,M,-34.2,M,,*6A
$PYRTM,2024,127.835736418241,18.945383828380
$GPGGA,200326.00,3329.9997,N,11848.2972,W,1,08,1.3,12.9,M,-34.2,M,,*6C
$PYRTM,2024,127.835747528391,18.945394938530
$GPGGA,200327.00,3329.9984,N,11848.2950,W,1,08,1.3,13.2,M,-34.2,M,,*65
$PYRTM,2024,127.835758754873,18.945406165012
$GPGGA,200328.00,3329.9971,N,11848.2930,W,1,08,1.3,10.8,M,-34.2,M,,*6F
$PYRTM,2024,127.835769881539,18.945417291678
$GPGGA,200329.00,3329.9957,N,11848.2911,W,1,08,1.3,9.4,M,-34.2,M,,*5D
$PYRTM,2024,127.835780978113,18.945428388252
$GPGGA,200330.00,3329.9942,N,11848.2890,W,1,08,1.3,8.6,M,-34.2,M,,*5A
$PYRTM,2024,127.835792091690,18.945439501829
$GPGGA,200331.00,3329.9928,N,11848.2868,W,1,08,1.3,7.4,M,-34.2,M,,*5D
$PYRTM,2024,127.835803199074,18.945450609225
$GPGGA,200332.00,3329.9915,N,11848.2846,W,1,08,1.3,8.7,M,-34.2,M,,*50
$PYRTM,2024,127.835814762130,18.945462172269
$GPGGA,200333.00,3329.9902,N,11848.2824,W,1,08,1.3,10.4,M,-34.2,M,,*69
$PYRTM,2024,127.835825872523,18.945473282662
$GPGGA,200334.00,3329.9886,N,11848.2803,W,1,08,1.3,8.8,M,-34.2,M,,*53
$PYRTM,2024,127.835837098380,18.945484508519
$GPGGA,200335.00,3329.9872,N,11848.2782,W,1,08,1.3,7.9,M,-34.2,M,,*51
$PYRTM,2024,127.835848573403,18.945495983553
$GPGGA,200336.00,3329.9858,N,11848.2760,W,1,08,1.3,8.8,M,-34.2,M,,*58
$PYRTM,2024,127.835860132153,18.945507542303
$GPGGA,200337.00,3329.9844,N,11848.2740,W,1,08,1.3,10.4,M,-34.2,M,,*63
$PYRTM,2024,127.835871724479,18.945519134618
$GPGGA,200338.00,3329.9829,N,11848.2720,W,1,08,1.3,11.4,M,-34.2,M,,*60
$PYRTM,2024,127.835883279977,18.945530690116
$GPGGA,200339.00,3329.9815,N,11848.2700,W,1,08,1.3,10.3,M,-34.2,M,,*6A
$PYRTM,2024,127.835894870752,18.945542280903
$GPGGA,200340.00,3329.9802,N,11848.2680,W,1,08,1.3,11.3,M,-34.2,M,,*6A
$PYRTM,2024,127.835906427292,18.945553837431
$GPGGA,200341.00,3329.9787,N,11848.2660,W,1,08,1.3,11.3,M,-34.2,M,,*67
$PYRTM,2024,127.835918016516,18.945565426655
$GPGGA,200342.00,3329.9771,N,11848.2644,W,1,08,1.3,11.4,M,-34.2,M,,*6C
$PYRTM,2024,127.835933756123,18.945581166262
$GPGGA,200343.00,3329.9754,N,11848.2626,W,1,08,1.3,12.1,M,-34.2,M,,*68
$PYRTM,2024,127.835945317801,18.945592727940
$GPGGA,200344.00,3329.9738,N,11848.2608,W,1,08,1.3,12.2,M,-34.2,M,,*6A
$PYRTM,2024,127.835956907095,18.945604317234
$GPGGA,200345.00,3329.9724,N,11848.2588,W,1,08,1.3,11.7,M,-34.2,M,,*6B
$PYRTM,2024,127.835968468160,18.945615878299
$GPGGA,200346.00,3329.9711,N,11848.2566,W,1,08,1.3,13.2,M,-34.2,M,,*69
$PYRTM,2024,127.835980056157,18.945627466308
$GPGGA,200347.00,3329.9697,N,11848.2544,W,1,08,1.3,12.5,M,-34.2,M,,*61
$PYRTM,2024,127.835991614468,18.945639024606
$GPGGA,200348.00,3329.9683,N,11848.2523,W,1,08,1.3,12.8,M,-34.2,M,,*67
$PYRTM,2024,127.836003201655,18.945650611794
$GPGGA,200349.00,3329.9668,N,11848.2503,W,1,08,1.3,9.8,M,-34.2,M,,*5B
$PYRTM,2024,127.836014761227,18.945662171366
$GPGGA,200350.00,3329.9653,N,11848.2482,W,1,08,1.3,8.8,M,-34.2,M,,*52
$PYRTM,2024,127.836026350405,18.945673760544
$GPGGA,200351.00,3329.9639,N,11848.2461,W,1,08,1.3,8.2,M,-34.2,M,,*58
$PYRTM,2024,127.836037910509,18.945685320648
$GPGGA,200352.00,3329.9626,N,11848.2441,W,1,08,1.3,9.6,M,-34.2,M,,*52
$PYRTM,2024,127.836049492963,18.945696903113
$GPGGA,200353.00,3329.9611,N,11848.2421,W,1,08,1.3,11.1,M,-34.2,M,,*6F
$PYRTM,2024,127.836061539028,18.945708949167
$GPGGA,200354.00,3329.9595,N,11848.2402,W,1,08,1.3,12.5,M,-34.2,M,,*61
$PYRTM,2024,127.836072877384,18.945720287523
$GPGGA,200355.00,3329.9580,N,11848.2382,W,1,08,1.3,13.7,M,-34.2,M,,*68
$PYRTM,2024,127.836084206852,18.945731617002
$GPGGA,200356.00,3329.9566,N,11848.2360,W,1,08,1.3,11.0,M,-34.2,M,,*6A
$PYRTM,2024,127.836095794306,18.945743204456
$GPGGA,200357.00,3329.9554,N,11848.2338,W,1,08,1.3,13.3,M,-34.2,M,,*66
$PYRTM,2024,127.836107356181,18.945754766319
$GPGGA,200358.00,3329.9541,N,11848.2319,W,1,08,1.3,14.5,M,-34.2,M,,*6F
$PYRTM,2024,127.836118945741,18.945766355880
$GPGGA,200359.00,3329.9527,N,11848.2301,W,1,08,1.3,12.5,M,-34.2,M,,*61
$PYRTM,2024,127.836130504005,18.945777914144
$GPGGA,200400.00,3329.9511,N,11848.2281,W,1,08,1.3,12.2,M,-34.2,M,,*61
$PYRTM,2024,127.836142094757,18.945789504896
$GPGGA,200401.00,3329.9497,N,11848.2261,W,1,08,1.3,11.7,M,-34.2,M,,*67
$PYRTM,2024,127.836153653345,18.945801063484
$GPGGA,200402.00,3329.9483,N,11848.2239,W,1,08,1.3,15.3,M,-34.2,M,,*6C
$PYRTM,2024,127.836165234340,18.945812644479
$GPGGA,200403.00,3329.9469,N,11848.2218,W,1,08,1.3,15.5,M,-34.2,M,,*6C
$PYRTM,2024,127.836176801817,18.945824211956
$GPGGA,200404.00,3329.9452,N,11848.2199,W,1,08,1.3,14.3,M,-34.2,M,,*6E
$PYRTM,2024,127.836188387928,18.945835798067
$GPGGA,200405.00,3329.9435,N,11848.2179,W,1,08,1.3,10.3,M,-34.2,M,,*64
$PYRTM,2024,127.836199947905,18.945847358044
$GPGGA,200406.00,3329.9419,N,11848.2158,W,1,08,1.3,9.5,M,-34.2,M,,*54
$PYRTM,2024,127.836211541400,18.945858951539
$GPGGA,200407.00,3329.9405,N,11848.2137,W,1,08,1.3,10.7,M,-34.2,M,,*6B
$PYRTM,2024,127.836223097269,18.945870507407
$GPGGA,200408.00,3329.9389,N,11848.2116,W,1,08,1.3,9.6,M,-34.2,M,,*5D
$PYRTM,2024,127.836234683854,18.945882093993
$GPGGA,200409.00,3329.9372,N,11848.2098,W,1,08,1.3,10.9,M,-34.2,M,,*68
$PYRTM,2024,127.836246244618,18.945893654757
$GPGGA,200410.00,3329.9354,N,11848.2081,W,1,08,1.3,12.8,M,-34.2,M,,*6F
$PYRTM,2024,127.836257832014,18.945905242153
$GPGGA,200411.00,3329.9338,N,11848.2061,W,1,08,1.3,13.9,M,-34.2,M,,*6A
$PYRTM,2024,127.836270563692,18.945917973831
$GPGGA,200412.00,3329.9324,N,11848.2040,W,1,08,1.3,14.6,M,-34.2,M,,*6F
$PYRTM,2024,127.836282137465,18.945929547604
$GPGGA,200413.00,3329.9310,N,11848.2019,W,1,08,1.3,14.2,M,-34.2,M,,*61
$PYRTM,2024,127.836293713750,18.945941123889
$GPGGA,200414.00,3329.9296,N,11848.1998,W,1,08,1.3,13.6,M,-34.2,M,,*69
$PYRTM,2024,127.836305285799,18.945952695937
$GPGGA,200415.00,3329.9281,N,11848.1978,W,1,08,1.3,11.4,M,-34.2,M,,*60
$PYRTM,2024,127.836316865567,18.945964275706
$GPGGA,200416.00,3329.9266,N,11848.1957,W,1,08,1.3,11.8,M,-34.2,M,,*6B
$PYRTM,2024,127.836328435243,18.945975845382
$GPGGA,200417.00,3329.9252,N,11848.1936,W,1,08,1.3,12.7,M,-34.2,M,,*66
$PYRTM,2024,127.836340008854,18.945987418993
$GPGGA,200418.00,3329.9238,N,11848.1915,W,1,08,1.3,12.1,M,-34.2,M,,*62
$PYRTM,2024,127.836351577824,18.945998987963
$GPGGA,200419.00,3329.9222,N,11848.1895,W,1,08,1.3,13.5,M,-34.2,M,,*64
$PYRTM,2024,127.836363162477,18.946010572616
$GPGGA,200420.00,3329.9205,N,11848.1875,W,1,08,1.3,13.2,M,-34.2,M,,*62
$PYRTM,2024,127.836374732049,18.946022142188
$GPGGA,200421.00,3329.9189,N,11848.1855,W,1,08,1.3,14.3,M,-34.2,M,,*60
$PYRTM,2024,127.836386647789,18.946034057940
$GPGGA,200422.00,3329.9173,N,11848.1834,W,1,08,1.3,13.8,M,-34.2,M,,*6D
$PYRTM,2024,127.836398098912,18.946045509051
$GPGGA,200423.00,3329.9159,N,11848.1814,W,1,08,1.3,11.9,M,-34.2,M,,*65
$PYRTM,2024,127.836409800914,18.946057211053
$GPGGA,200424.00,3329.9144,N,11848.1794,W,1,08,1.3,9.5,M,-34.2,M,,*5C
$PYRTM,2024,127.836420911829,18.946068321968
$GPGGA,200425.00,3329.9129,N,11848.1776,W,1,08,1.3,9.3,M,-34.2,M,,*5C
$PYRTM,2024,127.836432470822,18.946079880961
$GPGGA,200426.00,3329.9115,N,11848.1758,W,1,08,1.3,9.8,M,-34.2,M,,*57
$PYRTM,2024,127.836444176181,18.946091586319
$GPGGA,200427.00,3329.9102,N,11848.1738,W,1,08,1.3,11.3,M,-34.2,M,,*64
$PYRTM,2024,127.836455750833,18.946103160972
$GPGGA,200428.00,3329.9088,N,11848.1717,W,1,08,1.3,12.9,M,-34.2,M,,*6C
$PYRTM,2024,127.836467323738,18.946114733877
$GPGGA,200429.00,3329.9074,N,11848.1698,W,1,08,1.3,12.1,M,-34.2,M,,*60
$PYRTM,2024,127.836478898657,18.946126308796
$GPGGA,200430.00,3329.9058,N,11848.1678,W,1,08,1.3,11.5,M,-34.2,M,,*6F
$PYRTM,2024,127.836490472002,18.946137882141
$GPGGA,200431.00,3329.9043,N,11848.1657,W,1,08,1.3,11.7,M,-34.2,M,,*6B
$PYRTM,2024,127.836502047384,18.946149457523
$GPGGA,200432.00,3329.9029,N,11848.1635,W,1,08,1.3,12.4,M,-34.2,M,,*60
$PYRTM,2024,127.836513621192,18.946161031331
$GPGGA,200433.00,3329.9013,N,11848.1615,W,1,08,1.3,10.7,M,-34.2,M,,*6B
$PYRTM,2024,127.836525194329,18.946172604468
$GPGGA,200434.00,3329.8996,N,11848.1596,W,1,08,1.3,11.6,M,-34.2,M,,*61
$PYRTM,2024,127.836536773877,18.946184184016
$GPGGA,200435.00,3329.8979,N,11848.1577,W,1,08,1.3,12.1,M,-34.2,M,,*6A
$PYRTM,2024,127.836548345301,18.946195755451
$GPGGA,200436.00,3329.8965,N,11848.1555,W,1,08,1.3,13.4,M,-34.2,M,,*60
$PYRTM,2024,127.836559919387,18.946207329525
$GPGGA,200437.00,3329.8952,N,11848.1534,W,1,08,1.3,15.0,M,-34.2,M,,*60
$PYRTM,2024,127.836571506563,18.946218916701
$GPGGA,200438.00,3329.8938,N,11848.1515,W,1,08,1.3,14.4,M,-34.2,M,,*65
$PYRTM,2024,127.836583053484,18.946230463623
$GPGGA,200439.00,3329.8921,N,11848.1497,W,1,08,1.3,11.7,M,-34.2,M,,*61
$PYRTM,2024,127.836594509896,18.946241920046
$GPGGA,200440.00,3329.8905,N,11848.1477,W,1,08,1.3,9.7,M,-34.2,M,,*5E
$PYRTM,2024,127.836606213333,18.946253623484
$GPGGA,200441.00,3329.8891,N,11848.1456,W,1,08,1.3,12.0,M,-34.2,M,,*6D
$PYRTM,2024,127.836618817604,18.946266227743
$GPGGA,200442.00,3329.8878,N,11848.1434,W,1,08,1.3,10.6,M,-34.2,M,,*69
$PYRTM,2024,127.836631546563,18.946278956701
$GPGGA,200443.00,3329.8864,N,11848.1414,W,1,08,1.3,12.0,M,-34.2,M,,*63
$PYRTM,2024,127.836640924560,18.946288334699
$GPGGA,200444.00,3329.8847,N,11848.1396,W,1,08,1.3,11.9,M,-34.2,M,,*62
$PYRTM,2024,127.836652510208,18.946299920347
$GPGGA,200445.00,3329.8831,N,11848.1375,W,1,08,1.3,10.4,M,-34.2,M,,*63
$PYRTM,2024,127.836664085162,18.946311495301
$GPGGA,200446.00,3329.8818,N,11848.1353,W,1,08,1.3,10.4,M,-34.2,M,,*6F
$PYRTM,2024,127.836675659850,18.946323069988
$GPGGA,200447.00,3329.8804,N,11848.1331,W,1,08,1.3,11.6,M,-34.2,M,,*64
$PYRTM,2024,127.836687222720,18.946334632870
$GPGGA,200448.00,3329.8789,N,11848.1309,W,1,08,1.3,10.8,M,-34.2,M,,*65
$PYRTM,2024,127.836698797488,18.946346207627
$GPGGA,200449.00,3329.8772,N,11848.1288,W,1,08,1.3,10.6,M,-34.2,M,,*66
$PYRTM,2024,127.836710252789,18.946357662928
$GPGGA,200450.00,3329.8755,N,11848.1269,W,1,08,1.3,9.6,M,-34.2,M,,*5C
$PYRTM,2024,127.836721955127,18.946369365266
$GPGGA,200451.00,3329.8739,N,11848.1250,W,1,08,1.3,10.8,M,-34.2,M,,*6B
$PYRTM,2024,127.836733399583,18.946380809722
$GPGGA,200452.00,3329.8724,N,11848.1228,W,1,08,1.3,8.3,M,-34.2,M,,*59
$PYRTM,2024,127.836745103484,18.946392513623
$GPGGA,200453.00,3329.8710,N,11848.1206,W,1,08,1.3,10.6,M,-34.2,M,,*6F
$PYRTM,2024,127.836757026065,18.946404436204
$GPGGA,200454.00,3329.8696,N,11848.1185,W,1,08,1.3,8.4,M,-34.2,M,,*54
$PYRTM,2024,127.836768130613,18.946415540764
$GPGGA,200455.00,3329.8681,N,11848.1166,W,1,08,1.3,9.5,M,-34.2,M,,*5E
$PYRTM,2024,127.836779695706,18.946427105845
$GPGGA,200456.00,3329.8665,N,11848.1147,W,1,08,1.3,8.7,M,-34.2,M,,*57
$PYRTM,2024,127.836791283264,18.946438693403
$GPGGA,200457.00,3329.8651,N,11848.1125,W,1,08,1.3,8.7,M,-34.2,M,,*55
$PYRTM,2024,127.836802844769,18.946450254907
$GPGGA,200458.00,3329.8637,N,11848.1102,W,1,08,1.3,7.3,M,-34.2,M,,*54
$PYRTM,2024,127.836814433113,18.946461843252
$GPGGA,200459.00,3329.8623,N,11848.1081,W,1,08,1.3,6.4,M,-34.2,M,,*5C
$PYRTM,2024,127.836825991389,18.946473401528
$GPGGA,200500.00,3329.8608,N,11848.1061,W,1,08,1.3,5.9,M,-34.2,M,,*58
$PYRTM,2024,127.836837580451,18.946484990590
$GPGGA,200501.00,3329.8592,N,11848.1041,W,1,08,1.3,5.2,M,-34.2,M,,*50
$PYRTM,2024,127.836849140602,18.946496550741
$GPGGA,200502.00,3329.8577,N,11848.1021,W,1,08,1.3,6.3,M,-34.2,M,,*5C
$PYRTM,2024,127.836860728681,18.946508138819
$GPGGA,200503.00,3329.8563,N,11848.1000,W,1,08,1.3,7.4,M,-34.2,M,,*5D
$PYRTM,2024,127.836872290208,18.946519700347
$GPGGA,200504.00,3329.8549,N,11848.0979,W,1,08,1.3,9.3,M,-34.2,M,,*5D
$PYRTM,2024,127.836883872488,18.946531282627
$GPGGA,200505.00,3329.8535,N,11848.0958,W,1,08,1.3,9.0,M,-34.2,M,,*57
$PYRTM,2024,127.836895438275,18.946542848414
$GPGGA,200506.00,3329.8520,N,11848.0937,W,1,08,1.3,8.9,M,-34.2,M,,*51
$PYRTM,2024,127.836907020394,18.946554430532
$GPGGA,200507.00,3329.8506,N,11848.0917,W,1,08,1.3,8.2,M,-34.2,M,,*5D
$PYRTM,2024,127.836918705278,18.946566115417
$GPGGA,200508.00,3329.8491,N,11848.0896,W,1,08,1.3,10.5,M,-34.2,M,,*6B
$PYRTM,2024,127.836930169479,18.946577579618
$GPGGA,200509.00,3329.8476,N,11848.0878,W,1,08,1.3,9.0,M,-34.2,M,,*5E
$PYRTM,2024,127.836941734850,18.946589144988
$GPGGA,200510.00,3329.8461,N,11848.0857,W,1,08,1.3,8.9,M,-34.2,M,,*55
$PYRTM,2024,127.836953318229,18.946600728368
$GPGGA,200511.00,3329.8447,N,11848.0836,W,1,08,1.3,7.7,M,-34.2,M,,*56
$PYRTM,2024,127.836966503009,18.946613913160
$GPGGA,200512.00,3329.8432,N,11848.0816,W,1,08,1.3,6.6,M,-34.2,M,,*55
$PYRTM,2024,127.836978657940,18.946626068079
$GPGGA,200513.00,3329.8417,N,11848.0797,W,1,08,1.3,8.0,M,-34.2,M,,*5D
$PYRTM,2024,127.836988030000,18.946635440139
$GPGGA,200514.00,3329.8402,N,11848.0777,W,1,08,1.3,9.0,M,-34.2,M,,*51
$PYRTM,2024,127.836999734375,18.946647144514
$GPGGA,200515.00,3329.8387,N,11848.0757,W,1,08,1.3,10.8,M,-34.2,M,,*68
$PYRTM,2024,127.837011309699,18.946658719838
$GPGGA,200516.00,3329.8372,N,11848.0735,W,1,08,1.3,11.1,M,-34.2,M,,*6D
$PYRTM,2024,127.837022881655,18.946670291794
$GPGGA,200517.00,3329.8358,N,11848.0713,W,1,08,1.3,9.7,M,-34.2,M,,*5F
$PYRTM,2024,127.837033534583,18.946680944722
$GPGGA,200518.00,3329.8341,N,11848.0693,W,1,08,1.3,7.0,M,-34.2,M,,*58
$PYRTM,2024,127.837046488981,18.946693899120
$GPGGA,200519.00,3329.8325,N,11848.0674,W,1,08,1.3,6.6,M,-34.2,M,,*55
$PYRTM,2024,127.837057245787,18.946704655926
$GPGGA,200520.00,3329.8308,N,11848.0655,W,1,08,1.3,6.1,M,-34.2,M,,*54
$PYRTM,2024,127.837068355336,18.946715765475
$GPGGA,200521.00,3329.8292,N,11848.0634,W,1,08,1.3,5.6,M,-34.2,M,,*54
$PYRTM,2024,127.837079468345,18.946726878484
$GPGGA,200522.00,3329.8278,N,11848.0613,W,1,08,1.3,5.4,M,-34.2,M,,*54
$PYRTM,2024,127.837090577951,18.946737988090
$GPGGA,200523.00,3329.8264,N,11848.0591,W,1,08,1.3,6.5,M,-34.2,M,,*53
$PYRTM,2024,127.837101690972,18.946749101123
$GPGGA,200524.00,3329.8249,N,11848.0570,W,1,08,1.3,8.0,M,-34.2,M,,*5F
$PYRTM,2024,127.837113292176,18.946760702315
$GPGGA,200525.00,3329.8233,N,11848.0550,W,1,08,1.3,9.0,M,-34.2,M,,*50
$PYRTM,2024,127.837124388854,18.946771798993
$GPGGA,200526.00,3329.8218,N,11848.0531,W,1,08,1.3,9.4,M,-34.2,M,,*59
$PYRTM,2024,127.837135502431,18.946782912569
$GPGGA,200527.00,3329.8203,N,11848.0510,W,1,08,1.3,9.5,M,-34.2,M,,*50
$PYRTM,2024,127.837146610822,18.946794020961
$GPGGA,200528.00,3329.8188,N,11848.0490,W,1,08,1.3,8.0,M,-34.2,M,,*52
$PYRTM,2024,127.837157721748,18.946805131887
$GPGGA,200529.00,3329.8173,N,11848.0469,W,1,08,1.3,10.6,M,-34.2,M,,*6E
$PYRTM,2024,127.837168834965,18.946816245104
$GPGGA,200530.00,3329.8157,N,11848.0450,W,1,08,1.3,9.3,M,-34.2,M,,*57
$PYRTM,2024,127.837179943044,18.946827353183
$GPGGA,200531.00,3329.8142,N,11848.0432,W,1,08,1.3,11.1,M,-34.2,M,,*6D
$PYRTM,2024,127.837191174560,18.946838584699
$GPGGA,200532.00,3329.8128,N,11848.0413,W,1,08,1.3,11.4,M,-34.2,M,,*64
$PYRTM,2024,127.837202732755,18.946850142894
$GPGGA,200533.00,3329.8114,N,11848.0392,W,1,08,1.3,12.7,M,-34.2,M,,*64
$PYRTM,2024,127.837214319387,18.946861729525
$GPGGA,200534.00,3329.8100,N,11848.0372,W,1,08,1.3,12.3,M,-34.2,M,,*6C
$PYRTM,2024,127.837225880880,18.946873291019
$GPGGA,200535.00,3329.8085,N,11848.0351,W,1,08,1.3,9.3,M,-34.2,M,,*5A
$PYRTM,2024,127.837237467118,18.946884877257
$GPGGA,200536.00,3329.8071,N,11848.0332,W,1,08,1.3,9.8,M,-34.2,M,,*5C
$PYRTM,2024,127.837249030278,18.946896440428
$GPGGA,200537.00,3329.8056,N,11848.0313,W,1,08,1.3,12.4,M,-34.2,M,,*6D
$PYRTM,2024,127.837260611123,18.946908021273
$GPGGA,200538.00,3329.8041,N,11848.0294,W,1,08,1.3,11.3,M,-34.2,M,,*6E
$PYRTM,2024,127.837272177674,18.946919587813
$GPGGA,200539.00,3329.8026,N,11848.0274,W,1,08,1.3,11.3,M,-34.2,M,,*60
$PYRTM,2024,127.837283766007,18.946931176146
$GPGGA,200540.00,3329.8010,N,11848.0253,W,1,08,1.3,10.4,M,-34.2,M,,*68
$PYRTM,2024,127.837295325799,18.946942735938
$GPGGA,200541.00,3329.7996,N,11848.0232,W,1,08,1.3,11.3,M,-34.2,M,,*60
$PYRTM,2024,127.837306908461,18.946954318600
$GPGGA,200542.00,3329.7980,N,11848.0212,W,1,08,1.3,11.2,M,-34.2,M,,*67
$PYRTM,2024,127.837322657708,18.946970067847
$GPGGA,200543.00,3329.7965,N,11848.0192,W,1,08,1.3,11.1,M,-34.2,M,,*65
$PYRTM,2024,127.837334214687,18.946981624826
$GPGGA,200544.00,3329.7950,N,11848.0170,W,1,08,1.3,12.3,M,-34.2,M,,*69
$PYRTM,2024,127.837345800532,18.946993210671
$GPGGA,200545.00,3329.7938,N,11848.0149,W,1,08,1.3,13.4,M,-34.2,M,,*6A
$PYRTM,2024,127.837357362662,18.947004772801
$GPGGA,200546.00,3329.7925,N,11848.0129,W,1,08,1.3,12.3,M,-34.2,M,,*65
$PYRTM,2024,127.837368950880,18.947016361019
$GPGGA,200547.00,3329.7909,N,11848.0111,W,1,08,1.3,11.0,M,-34.2,M,,*61
$PYRTM,2024,127.837380512581,18.947027922720
$GPGGA,200548.00,3329.7893,N,11848.0093,W,1,08,1.3,10.6,M,-34.2,M,,*60
$PYRTM,2024,127.837392092465,18.947039502604
$GPGGA,200549.00,3329.7878,N,11848.0072,W,1,08,1.3,11.9,M,-34.2,M,,*65
$PYRTM,2024,127.837403657986,18.947051068125
$GPGGA,200550.00,3329.7865,N,11848.0050,W,1,08,1.3,11.8,M,-34.2,M,,*60
$PYRTM,2024,127.837415245394,18.947062655532
$GPGGA,200551.00,3329.7850,N,11848.0029,W,1,08,1.3,12.8,M,-34.2,M,,*6A
$PYRTM,2024,127.837426806528,18.947074216667
$GPGGA,200552.00,3329.7834,N,11848.0010,W,1,08,1.3,13.8,M,-34.2,M,,*60
$PYRTM,2024,127.837438393079,18.947085803218
$GPGGA,200553.00,3329.7817,N,11847.9991,W,1,08,1.3,12.7,M,-34.2,M,,*68
$PYRTM,2024,127.837450431678,18.947097841817
$GPGGA,200554.00,3329.7802,N,11847.9971,W,1,08,1.3,13.3,M,-34.2,M,,*60
$PYRTM,2024,127.837461773657,18.947109183808
$GPGGA,200555.00,3329.7789,N,11847.9949,W,1,08,1.3,11.6,M,-34.2,M,,*61
$PYRTM,2024,127.837473102384,18.947120512523
$GPGGA,200556.00,3329.7775,N,11847.9928,W,1,08,1.3,11.1,M,-34.2,M,,*61
$PYRTM,2024,127.837484690556,18.947132100694
$GPGGA,200557.00,3329.7759,N,11847.9909,W,1,08,1.3,10.1,M,-34.2,M,,*6C
$PYRTM,2024,127.837496251354,18.947143661493
$GPGGA,200558.00,3329.7743,N,11847.9891,W,1,08,1.3,10.4,M,-34.2,M,,*6D
$PYRTM,2024,127.837507840486,18.947155250625
$GPGGA,200559.00,3329.7727,N,11847.9872,W,1,08,1.3,9.8,M,-34.2,M,,*57
$PYRTM,2024,127.837519400382,18.947166810532
$GPGGA,200600.00,3329.7713,N,11847.9851,W,1,08,1.3,9.6,M,-34.2,M,,*50
$PYRTM,2024,127.837530986435,18.947178396574
$GPGGA,200601.00,3329.7700,N,11847.9830,W,1,08,1.3,12.5,M,-34.2,M,,*6D
$PYRTM,2024,127.837543027141,18.947190437280
$GPGGA,200602.00,3329.7686,N,11847.9809,W,1,08,1.3,12.8,M,-34.2,M,,*66
$PYRTM,2024,127.837554367199,18.947201777338
$GPGGA,200603.00,3329.7670,N,11847.9790,W,1,08,1.3,10.7,M,-34.2,M,,*6C
$PYRTM,2024,127.837565697685,18.947213107836
$GPGGA,200604.00,3329.7655,N,11847.9770,W,1,08,1.3,11.8,M,-34.2,M,,*6C
$PYRTM,2024,127.837577284583,18.947224694722
$GPGGA,200605.00,3329.7641,N,11847.9750,W,1,08,1.3,12.1,M,-34.2,M,,*60
$PYRTM,2024,127.837588845255,18.947236255405
$GPGGA,200606.00,3329.7627,N,11847.9729,W,1,08,1.3,9.5,M,-34.2,M,,*53
$PYRTM,2024,127.837600427650,18.947247837789
$GPGGA,200607.00,3329.7614,N,11847.9708,W,1,08,1.3,13.1,M,-34.2,M,,*6E
$PYRTM,2024,127.837611996481,18.947259406620
$GPGGA,200608.00,3329.7600,N,11847.9688,W,1,08,1.3,13.1,M,-34.2,M,,*6D
$PYRTM,2024,127.837623584468,18.947270994606
$GPGGA,200609.00,3329.7586,N,11847.9668,W,1,08,1.3,13.2,M,-34.2,M,,*6C
$PYRTM,2024,127.837635141806,18.947282551944
$GPGGA,200610.00,3329.7572,N,11847.9649,W,1,08,1.3,12.3,M,-34.2,M,,*6C
$PYRTM,2024,127.837646732569,18.947294142708
$GPGGA,200611.00,3329.7557,N,11847.9630,W,1,08,1.3,14.7,M,-34.2,M,,*66
$PYRTM,2024,127.837659461366,18.947306871505
$GPGGA,200612.00,3329.7542,N,11847.9611,W,1,08,1.3,13.9,M,-34.2,M,,*6B
$PYRTM,2024,127.837671030336,18.947318440475
$GPGGA,200613.00,3329.7526,N,11847.9590,W,1,08,1.3,13.9,M,-34.2,M,,*62
$PYRTM,2024,127.837682609988,18.947330020162
$GPGGA,200614.00,3329.7511,N,11847.9571,W,1,08,1.3,16.1,M,-34.2,M,,*63
$PYRTM,2024,127.837694179062,18.947341589201
$GPGGA,200615.00,3329.7495,N,11847.9552,W,1,08,1.3,14.4,M,-34.2,M,,*69
$PYRTM,2024,127.837705757396,18.947353167535
$GPGGA,200616.00,3329.7478,N,11847.9532,W,1,08,1.3,13.3,M,-34.2,M,,*6F
$PYRTM,2024,127.837717330880,18.947364741019
$GPGGA,200617.00,3329.7462,N,11847.9511,W,1,08,1.3,13.4,M,-34.2,M,,*63
$PYRTM,2024,127.837728909213,18.947376319352
$GPGGA,200618.00,3329.7447,N,11847.9489,W,1,08,1.3,13.8,M,-34.2,M,,*67
$PYRTM,2024,127.837740480035,18.947387890174
$GPGGA,200619.00,3329.7432,N,11847.9468,W,1,08,1.3,15.3,M,-34.2,M,,*66
$PYRTM,2024,127.837752054734,18.947399464884
$GPGGA,200620.00,3329.7417,N,11847.9449,W,1,08,1.3,16.7,M,-34.2,M,,*6F
$PYRTM,2024,127.837763630463,18.947411040602
$GPGGA,200621.00,3329.7402,N,11847.9429,W,1,08,1.3,17.6,M,-34.2,M,,*6C
$PYRTM,2024,127.837775203704,18.947422613843
$GPGGA,200622.00,3329.7388,N,11847.9407,W,1,08,1.3,16.1,M,-34.2,M,,*60
$PYRTM,2024,127.837786779954,18.947434190093
$GPGGA,200623.00,3329.7375,N,11847.9385,W,1,08,1.3,15.5,M,-34.2,M,,*69
$PYRTM,2024,127.837798698530,18.947446108681
$GPGGA,200624.00,3329.7360,N,11847.9364,W,1,08,1.3,14.8,M,-34.2,M,,*69
$PYRTM,2024,127.837810142731,18.947457552870
$GPGGA,200625.00,3329.7344,N,11847.9345,W,1,08,1.3,16.2,M,-34.2,M,,*65
$PYRTM,2024,127.837821500579,18.947468910718
$GPGGA,200626.00,3329.7327,N,11847.9326,W,1,08,1.3,18.2,M,-34.2,M,,*68
$PYRTM,2024,127.837833072338,18.947480482477
$GPGGA,200627.00,3329.7312,N,11847.9305,W,1,08,1.3,18.1,M,-34.2,M,,*6D
$PYRTM,2024,127.837844634421,18.947492044560
$GPGGA,200628.00,3329.7297,N,11847.9282,W,1,08,1.3,17.1,M,-34.2,M,,*6F
$PYRTM,2024,127.837856209699,18.947503619850
$GPGGA,200629.00,3329.7283,N,11847.9259,W,1,08,1.3,14.9,M,-34.2,M,,*66
$PYRTM,2024,127.837867798275,18.947515208414
$GPGGA,200630.00,3329.7269,N,11847.9237,W,1,08,1.3,15.5,M,-34.2,M,,*6F
$PYRTM,2024,127.837879363414,18.947526773553
$GPGGA,200631.00,3329.7254,N,11847.9217,W,1,08,1.3,15.0,M,-34.2,M,,*67
$PYRTM,2024,127.837890928576,18.947538338715
$GPGGA,200632.00,3329.7238,N,11847.9198,W,1,08,1.3,10.0,M,-34.2,M,,*6F
$PYRTM,2024,127.837902400822,18.947549810961
$GPGGA,200633.00,3329.7223,N,11847.9178,W,1,08,1.3,8.2,M,-34.2,M,,*51
$PYRTM,2024,127.837914077442,18.947561487581
$GPGGA,200634.00,3329.7208,N,11847.9158,W,1,08,1.3,12.0,M,-34.2,M,,*64
$PYRTM,2024,127.837925550972,18.947572961111
$GPGGA,200635.00,3329.7195,N,11847.9136,W,1,08,1.3,8.0,M,-34.2,M,,*51
$PYRTM,2024,127.837937110521,18.947584520660
$GPGGA,200636.00,3329.7181,N,11847.9112,W,1,08,1.3,9.0,M,-34.2,M,,*50
$PYRTM,2024,127.837948698461,18.947596108600
$GPGGA,200637.00,3329.7167,N,11847.9089,W,1,07,1.3,7.4,M,-34.2,M,,*5F
$PYRTM,2024,127.837960259468,18.947607669606
$GPGGA,200638.00,3329.7151,N,11847.9066,W,1,08,1.3,8.6,M,-34.2,M,,*56
$PYRTM,2024,127.837971850428,18.947619260579
$GPGGA,200639.00,3329.7134,N,11847.9045,W,1,08,1.3,7.2,M,-34.2,M,,*5E
$PYRTM,2024,127.837983407940,18.947630818079
$GPGGA,200640.00,3329.7119,N,11847.9022,W,1,08,1.3,7.4,M,-34.2,M,,*58
$PYRTM,2024,127.837995008449,18.947642418588
$GPGGA,200641.00,3329.7105,N,11847.8999,W,1,08,1.3,6.3,M,-34.2,M,,*5A
$PYRTM,2024,127.838007714769,18.947655124907
$GPGGA,200642.00,3329.7091,N,11847.8979,W,1,08,1.3,6.4,M,-34.2,M,,*5C
$PYRTM,2024,127.838020329236,18.947667739375
$GPGGA,200643.00,3329.7076,N,11847.8960,W,1,08,1.3,6.3,M,-34.2,M,,*5B
$PYRTM,2024,127.838029705787,18.947677115926
$GPGGA,200644.00,3329.7061,N,11847.8941,W,1,08,1.3,5.7,M,-34.2,M,,*5E
$PYRTM,2024,127.838041293125,18.947688703264
$GPGGA,200645.00,3329.7046,N,11847.8920,W,1,08,1.3,6.0,M,-34.2,M,,*59
$PYRTM,2024,127.838052852512,18.947700262662
$GPGGA,200646.00,3329.7032,N,11847.8900,W,1,08,1.3,7.8,M,-34.2,M,,*52
$PYRTM,2024,127.838064439248,18.947711849387
$GPGGA,200647.00,3329.7018,N,11847.8878,W,1,08,1.3,5.7,M,-34.2,M,,*58
$PYRTM,2024,127.838076001262,18.947723411400
$GPGGA,200648.00,3329.7005,N,11847.8857,W,1,08,1.3,4.7,M,-34.2,M,,*57
$PYRTM,2024,127.838087588542,18.947734998681
$GPGGA,200649.00,3329.6990,N,11847.8837,W,1,08,1.3,3.4,M,-34.2,M,,*50
$PYRTM,2024,127.838099148553,18.947746558692
$GPGGA,200650.00,3329.6974,N,11847.8816,W,1,08,1.3,4.4,M,-34.2,M,,*56
$PYRTM,2024,127.838110750058,18.947758160197
$GPGGA,200651.00,3329.6958,N,11847.8795,W,1,08,1.3,6.5,M,-34.2,M,,*5E
$PYRTM,2024,127.838122773877,18.947770184016
$GPGGA,200652.00,3329.6943,N,11847.8773,W,1,08,1.3,5.7,M,-34.2,M,,*5E
$PYRTM,2024,127.838133899248,18.947781309387
$GPGGA,200653.00,3329.6928,N,11847.8750,W,1,08,1.3,6.0,M,-34.2,M,,*57
$PYRTM,2024,127.838145921204,18.947793331343
$GPGGA,200654.00,3329.6913,N,11847.8729,W,1,08,1.3,7.9,M,-34.2,M,,*5E
$PYRTM,2024,127.838157035301,18.947804445440
$GPGGA,200655.00,3329.6896,N,11847.8708,W,1,08,1.3,7.6,M,-34.2,M,,*5F
$PYRTM,2024,127.838168595046,18.947816005185
$GPGGA,200656.00,3329.6879,N,11847.8689,W,1,08,1.3,7.9,M,-34.2,M,,*5A
$PYRTM,2024,127.838180181100,18.947827591238
$GPGGA,200657.00,3329.6864,N,11847.8668,W,1,08,1.3,6.8,M,-34.2,M,,*58
$PYRTM,2024,127.838191741458,18.947839151586
$GPGGA,200658.00,3329.6851,N,11847.8648,W,1,08,1.3,6.3,M,-34.2,M,,*58
$PYRTM,2024,127.838203329109,18.947850739248
$GPGGA,200659.00,3329.6837,N,11847.8628,W,1,08,1.3,6.3,M,-34.2,M,,*5F
$PYRTM,2024,127.838214891331,18.947862301470
$GPGGA,200700.00,3329.6822,N,11847.8609,W,1,08,1.3,7.8,M,-34.2,M,,*5F
$PYRTM,2024,127.838226478472,18.947873888611
$GPGGA,200701.00,3329.6805,N,11847.8591,W,1,08,1.3,9.4,M,-34.2,M,,*5B
$PYRTM,2024,127.838238038796,18.947885448935
$GPGGA,200702.00,3329.6788,N,11847.8573,W,1,08,1.3,7.7,M,-34.2,M,,*53
$PYRTM,2024,127.838249620683,18.947897030822
$GPGGA,200703.00,3329.6772,N,11847.8552,W,1,08,1.3,8.4,M,-34.2,M,,*58
$PYRTM,2024,127.838261187581,18.947908597731
$GPGGA,200704.00,3329.6757,N,11847.8530,W,1,08,1.3,8.8,M,-34.2,M,,*50
$PYRTM,2024,127.838272769387,18.947920179525
$GPGGA,200705.00,3329.6744,N,11847.8507,W,1,08,1.3,8.6,M,-34.2,M,,*59
$PYRTM,2024,127.838284450683,18.947931860822
$GPGGA,200706.00,3329.6730,N,11847.8487,W,1,08,1.3,10.1,M,-34.2,M,,*6E
$PYRTM,2024,127.838295938958,18.947943349097
$GPGGA,200707.00,3329.6714,N,11847.8470,W,1,08,1.3,9.8,M,-34.2,M,,*50
$PYRTM,2024,127.838307485069,18.947954895208
$GPGGA,200708.00,3329.6698,N,11847.8453,W,1,08,1.3,8.6,M,-34.2,M,,*54
$PYRTM,2024,127.838319073333,18.947966483472
$GPGGA,200709.00,3329.6684,N,11847.8435,W,1,08,1.3,9.6,M,-34.2,M,,*59
$PYRTM,2024,127.838330747535,18.947978157674
$GPGGA,200710.00,3329.6669,N,11847.8417,W,1,08,1.3,12.6,M,-34.2,M,,*68
$PYRTM,2024,127.838342335671,18.947989745810
$GPGGA,200711.00,3329.6655,N,11847.8399,W,1,08,1.3,11.5,M,-34.2,M,,*67
$PYRTM,2024,127.838354940266,18.948002350417
$GPGGA,200712.00,3329.6640,N,11847.8380,W,1,08,1.3,11.7,M,-34.2,M,,*6A
$PYRTM,2024,127.838367670521,18.948015080660
$GPGGA,200713.00,3329.6626,N,11847.8359,W,1,08,1.3,13.9,M,-34.2,M,,*63
$PYRTM,2024,127.838377043229,18.948024453368
$GPGGA,200714.00,3329.6613,N,11847.8338,W,1,08,1.3,15.7,M,-34.2,M,,*6D
$PYRTM,2024,127.838388626146,18.948036036285
$GPGGA,200715.00,3329.6600,N,11847.8317,W,1,08,1.3,14.0,M,-34.2,M,,*65
$PYRTM,2024,127.838400191887,18.948047602025
$GPGGA,200716.00,3329.6586,N,11847.8295,W,1,08,1.3,12.8,M,-34.2,M,,*6E
$PYRTM,2024,127.838411781319,18.948059191458
$GPGGA,200717.00,3329.6574,N,11847.8274,W,1,08,1.3,13.3,M,-34.2,M,,*67
$PYRTM,2024,127.838423339225,18.948070749363
$GPGGA,200718.00,3329.6561,N,11847.8254,W,1,08,1.3,10.8,M,-34.2,M,,*66
$PYRTM,2024,127.838434812523,18.948082222662
$GPGGA,200719.00,3329.6548,N,11847.8234,W,1,08,1.3,6.7,M,-34.2,M,,*52
$PYRTM,2024,127.838446373472,18.948093783611
$GPGGA,200720.00,3329.6533,N,11847.8214,W,1,08,1.3,6.8,M,-34.2,M,,*59
$PYRTM,2024,127.838457963542,18.948105373681
$GPGGA,200721.00,3329.6519,N,11847.8194,W,1,08,1.3,7.7,M,-34.2,M,,*55
$PYRTM,2024,127.838469522627,18.948116932766
$GPGGA,200722.00,3329.6504,N,11847.8173,W,1,08,1.3,9.9,M,-34.2,M,,*53
$PYRTM,2024,127.838480186829,18.948127596968
$GPGGA,200723.00,3329.6488,N,11847.8154,W,1,08,1.3,9.7,M,-34.2,M,,*5C
$PYRTM,2024,127.838493261516,18.948140671655
$GPGGA,200724.00,3329.6472,N,11847.8135,W,1,08,1.3,12.3,M,-34.2,M,,*67
$PYRTM,2024,127.838504488565,18.948151898704
$GPGGA,200725.00,3329.6458,N,11847.8116,W,1,08,1.3,13.6,M,-34.2,M,,*6B
$PYRTM,2024,127.838515599005,18.948163009144
$GPGGA,200726.00,3329.6445,N,11847.8096,W,1,08,1.3,11.6,M,-34.2,M,,*6F
$PYRTM,2024,127.838526710498,18.948174120637
$GPGGA,200727.00,3329.6431,N,11847.8076,W,1,08,1.3,11.2,M,-34.2,M,,*67
$PYRTM,2024,127.838537926157,18.948185336296
$GPGGA,200728.00,3329.6416,N,11847.8056,W,1,08,1.3,10.8,M,-34.2,M,,*64
$PYRTM,2024,127.838549037049,18.948196447187
$GPGGA,200729.00,3329.6401,N,11847.8037,W,1,08,1.3,10.7,M,-34.2,M,,*6B
$PYRTM,2024,127.838560147847,18.948207557986
$GPGGA,200730.00,3329.6386,N,11847.8017,W,1,08,1.3,9.1,M,-34.2,M,,*57
$PYRTM,2024,127.838571304062,18.948218714201
$GPGGA,200731.00,3329.6371,N,11847.7996,W,1,08,1.3,9.6,M,-34.2,M,,*56
$PYRTM,2024,127.838582369711,18.948229779861
$GPGGA,200732.00,3329.6357,N,11847.7974,W,1,08,1.3,8.5,M,-34.2,M,,*5F
$PYRTM,2024,127.838593480984,18.948240891123
$GPGGA,200733.00,3329.6344,N,11847.7951,W,1,08,1.3,9.1,M,-34.2,M,,*5E
$PYRTM,2024,127.838604592118,18.948252002257
$GPGGA,200734.00,3329.6330,N,11847.7929,W,1,08,1.3,10.9,M,-34.2,M,,*65
$PYRTM,2024,127.838615702616,18.948263112755
$GPGGA,200735.00,3329.6314,N,11847.7909,W,1,08,1.3,10.5,M,-34.2,M,,*6C
$PYRTM,2024,127.838626928669,18.948274338808
$GPGGA,200736.00,3329.6299,N,11847.7890,W,1,08,1.3,9.6,M,-34.2,M,,*51
$PYRTM,2024,127.838642001238,18.948289411377
$GPGGA,200737.00,3329.6285,N,11847.7870,W,1,08,1.3,10.2,M,-34.2,M,,*6F
$PYRTM,2024,127.838653100579,18.948300510718
$GPGGA,200738.00,3329.6270,N,11847.7850,W,1,08,1.3,8.8,M,-34.2,M,,*5B
$PYRTM,2024,127.838664212257,18.948311622396
$GPGGA,200739.00,3329.6254,N,11847.7831,W,1,08,1.3,6.5,M,-34.2,M,,*58
$PYRTM,2024,127.838675326435,18.948322736574
$GPGGA,200740.00,3329.6237,N,11847.7813,W,1,08,1.3,8.2,M,-34.2,M,,*5A
$PYRTM,2024,127.838686433738,18.948333843877
$GPGGA,200741.00,3329.6221,N,11847.7793,W,1,08,1.3,7.3,M,-34.2,M,,*55
$PYRTM,2024,127.838697664109,18.948345074248
$GPGGA,200742.00,3329.6207,N,11847.7771,W,1,08,1.3,8.7,M,-34.2,M,,*55
$PYRTM,2024,127.838712586354,18.948359996505
$GPGGA,200743.00,3329.6194,N,11847.7749,W,1,08,1.3,7.9,M,-34.2,M,,*57
$PYRTM,2024,127.838723717535,18.948371127674
$GPGGA,200744.00,3329.6180,N,11847.7727,W,1,08,1.3,6.7,M,-34.2,M,,*52
$PYRTM,2024,127.838738851875,18.948386262014
$GPGGA,200745.00,3329.6166,N,11847.7706,W,1,08,1.3,5.6,M,-34.2,M,,*5A
$PYRTM,2024,127.838749964340,18.948397374491
$GPGGA,200746.00,3329.6152,N,11847.7687,W,1,08,1.3,4.8,M,-34.2,M,,*59
$PYRTM,2024,127.838761076331,18.948408486470
$GPGGA,200747.00,3329.6138,N,11847.7667,W,1,08,1.3,4.8,M,-34.2,M,,*5A
$PYRTM,2024,127.838772185833,18.948419595972
$GPGGA,200748.00,3329.6126,N,11847.7646,W,1,08,1.3,6.6,M,-34.2,M,,*55
$PYRTM,2024,127.838783298252,18.948430708391
$GPGGA,200749.00,3329.6112,N,11847.7626,W,1,08,1.3,8.2,M,-34.2,M,,*5F
$PYRTM,2024,127.838794409109,18.948441819248
$GPGGA,200750.00,3329.6099,N,11847.7609,W,1,08,1.3,11.2,M,-34.2,M,,*60
$PYRTM,2024,127.838805519826,18.948452929965
$GPGGA,200751.00,3329.6084,N,11847.7590,W,1,08,1.3,10.9,M,-34.2,M,,*64
$PYRTM,2024,127.838816631921,18.948464042060
$GPGGA,200752.00,3329.6070,N,11847.7569,W,1,08,1.3,8.3,M,-34.2,M,,*59
$PYRTM,2024,127.838827742257,18.948475152396
$GPGGA,200753.00,3329.6057,N,11847.7548,W,1,08,1.3,8.1,M,-34.2,M,,*5C
$PYRTM,2024,127.838839444120,18.948486854259
$GPGGA,200754.00,3329.6043,N,11847.7527,W,1,08,1.3,8.3,M,-34.2,M,,*55
$PYRTM,2024,127.838850556736,18.948497966875
$GPGGA,200755.00,3329.6027,N,11847.7507,W,1,08,1.3,9.8,M,-34.2,M,,*5E
$PYRTM,2024,127.838862002569,18.948509412708
$GPGGA,200756.00,3329.6011,N,11847.7488,W,1,08,1.3,12.3,M,-34.2,M,,*6F
$PYRTM,2024,127.838873587535,18.948520997674
$GPGGA,200757.00,3329.5996,N,11847.7468,W,1,08,1.3,9.9,M,-34.2,M,,*55
$PYRTM,2024,127.838885149468,18.948532559606
$GPGGA,200758.00,3329.5981,N,11847.7448,W,1,08,1.3,9.1,M,-34.2,M,,*56
$PYRTM,2024,127.838896736100,18.948544146238
$GPGGA,200759.00,3329.5966,N,11847.7427,W,1,08,1.3,8.8,M,-34.2,M,,*5F
$PYRTM,2024,127.838908297812,18.948555707951
$GPGGA,200800.00,3329.5951,N,11847.7406,W,1,08,1.3,8.0,M,-34.2,M,,*53
$PYRTM,2024,127.838919885822,18.948567295972
$GPGGA,200801.00,3329.5938,N,11847.7385,W,1,08,1.3,9.7,M,-34.2,M,,*57
$PYRTM,2024,127.838931445660,18.948578855799
$GPGGA,200802.00,3329.5924,N,11847.7366,W,1,08,1.3,10.9,M,-34.2,M,,*62
$PYRTM,2024,127.838943035440,18.948590445579
$GPGGA,200803.00,3329.5910,N,11847.7346,W,1,08,1.3,10.0,M,-34.2,M,,*6F
$PYRTM,2024,127.838954594572,18.948602004711
$GPGGA,200804.00,3329.5897,N,11847.7326,W,1,08,1.3,12.3,M,-34.2,M,,*61
$PYRTM,2024,127.838966196215,18.948613606354
$GPGGA,200805.00,3329.5883,N,11847.7306,W,1,08,1.3,9.5,M,-34.2,M,,*5B
$PYRTM,2024,127.838977742373,18.948625152512
$GPGGA,200806.00,3329.5869,N,11847.7287,W,1,08,1.3,7.7,M,-34.2,M,,*58
$PYRTM,2024,127.838989324410,18.948636734549
$GPGGA,200807.00,3329.5855,N,11847.7266,W,1,08,1.3,6.8,M,-34.2,M,,*57
$PYRTM,2024,127.839000892002,18.948648302141
$GPGGA,200808.00,3329.5840,N,11847.7246,W,1,08,1.3,5.7,M,-34.2,M,,*52
$PYRTM,2024,127.839012477419,18.948659887558
$GPGGA,200809.00,3329.5824,N,11847.7226,W,1,08,1.3,6.1,M,-34.2,M,,*52
$PYRTM,2024,127.839024039931,18.948671450069
$GPGGA,200810.00,3329.5808,N,11847.7205,W,1,08,1.3,11.0,M,-34.2,M,,*62
$PYRTM,2024,127.839035626586,18.948683036725
$GPGGA,200811.00,3329.5794,N,11847.7182,W,1,08,1.3,11.7,M,-34.2,M,,*62
$PYRTM,2024,127.839048343750,18.948695753889
$GPGGA,200812.00,3329.5780,N,11847.7161,W,1,08,1.3,10.1,M,-34.2,M,,*6E
$PYRTM,2024,127.839059931204,18.948707341343
$GPGGA,200813.00,3329.5765,N,11847.7139,W,1,08,1.3,10.8,M,-34.2,M,,*60
$PYRTM,2024,127.839071491655,18.948718901794
$GPGGA,200814.00,3329.5749,N,11847.7119,W,1,08,1.3,11.2,M,-34.2,M,,*60
$PYRTM,2024,127.839083074641,18.948730484792
$GPGGA,200815.00,3329.5733,N,11847.7099,W,1,08,1.3,11.2,M,-34.2,M,,*65
$PYRTM,2024,127.839094639039,18.948742049190
$GPGGA,200816.00,3329.5720,N,11847.7077,W,1,08,1.3,14.3,M,-34.2,M,,*60
$PYRTM,2024,127.839106228148,18.948753638287
$GPGGA,200817.00,3329.5706,N,11847.7056,W,1,08,1.3,13.2,M,-34.2,M,,*60
$PYRTM,2024,127.839117788727,18.948765198877
$GPGGA,200818.00,3329.5691,N,11847.7037,W,1,08,1.3,10.1,M,-34.2,M,,*67
$PYRTM,2024,127.839129376840,18.948776786979
$GPGGA,200819.00,3329.5675,N,11847.7019,W,1,08,1.3,10.4,M,-34.2,M,,*65
$PYRTM,2024,127.839140821100,18.948788231238
$GPGGA,200820.00,3329.5659,N,11847.6999,W,1,08,1.3,9.6,M,-34.2,M,,*5B
$PYRTM,2024,127.839152422176,18.948799832315
$GPGGA,200821.00,3329.5645,N,11847.6980,W,1,08,1.3,7.8,M,-34.2,M,,*5F
$PYRTM,2024,127.839163969745,18.948811379896
$GPGGA,200822.00,3329.5631,N,11847.6959,W,1,08,1.3,6.6,M,-34.2,M,,*54
$PYRTM,2024,127.839175556887,18.948822967037
$GPGGA,200823.00,3329.5616,N,11847.6939,W,1,08,1.3,5.7,M,-34.2,M,,*54
$PYRTM,2024,127.839187595706,18.948835005845
$GPGGA,200824.00,3329.5600,N,11847.6919,W,1,08,1.3,8.9,M,-34.2,M,,*55
$PYRTM,2024,127.839198815532,18.948846225671
$GPGGA,200825.00,3329.5585,N,11847.6899,W,1,08,1.3,10.0,M,-34.2,M,,*63
$PYRTM,2024,127.839210381505,18.948857791644
$GPGGA,200826.00,3329.5571,N,11847.6879,W,1,08,1.3,11.0,M,-34.2,M,,*64
$PYRTM,2024,127.839221969861,18.948869380012
$GPGGA,200827.00,3329.5556,N,11847.6859,W,1,08,1.3,10.6,M,-34.2,M,,*65
$PYRTM,2024,127.839233415937,18.948880826076
$GPGGA,200828.00,3329.5541,N,11847.6839,W,1,08,1.3,8.9,M,-34.2,M,,*5C
$PYRTM,2024,127.839245003079,18.948892413218
$GPGGA,200829.00,3329.5526,N,11847.6818,W,1,08,1.3,8.4,M,-34.2,M,,*52
$PYRTM,2024,127.839256563507,18.948903973646
$GPGGA,200830.00,3329.5511,N,11847.6797,W,1,08,1.3,9.2,M,-34.2,M,,*51
$PYRTM,2024,127.839268149583,18.948915559722
$GPGGA,200831.00,3329.5496,N,11847.6775,W,1,08,1.3,8.5,M,-34.2,M,,*54
$PYRTM,2024,127.839280189572,18.948927599711
$GPGGA,200832.00,3329.5481,N,11847.6753,W,1,08,1.3,6.6,M,-34.2,M,,*58
$PYRTM,2024,127.839291301470,18.948938711609
$GPGGA,200833.00,3329.5467,N,11847.6730,W,1,08,1.3,4.8,M,-34.2,M,,*58
$PYRTM,2024,127.839302860139,18.948950270278
$GPGGA,200834.00,3329.5453,N,11847.6709,W,1,08,1.3,8.3,M,-34.2,M,,*55
$PYRTM,2024,127.839314450035,18.948961860174
$GPGGA,200835.00,3329.5438,N,11847.6688,W,1,08,1.3,6.1,M,-34.2,M,,*5D
$PYRTM,2024,127.839326009039,18.948973419178
$GPGGA,200836.00,3329.5423,N,11847.6668,W,1,08,1.3,6.5,M,-34.2,M,,*5E
$PYRTM,2024,127.839337591898,18.948985002049
