$PYRTM,2024,122.721305232072,13.830952642222
$GPGGA,171839.00,3356.2801,N,11951.1448,W,1,08,1.0,3.4,M,-34.0,M,,*53
$PYRTM,2024,122.721316799699,13.830964209838
$GPGGA,171840.00,3356.2803,N,11951.1421,W,1,08,1.0,4.6,M,-34.0,M,,*55
$PYRTM,2024,122.721328386435,13.830975796574
$GPGGA,171841.00,3356.2805,N,11951.1394,W,1,08,1.0,5.2,M,-34.0,M,,*5E
$PYRTM,2024,122.721339947419,13.830987357558
$GPGGA,171842.00,3356.2808,N,11951.1367,W,1,08,1.0,2.9,M,-34.0,M,,*50
$PYRTM,2024,122.721351529340,13.830998939479
$GPGGA,171843.00,3356.2812,N,11951.1340,W,1,08,1.0,1.5,M,-34.0,M,,*50
$PYRTM,2024,122.721363095394,13.831010505532
$GPGGA,171844.00,3356.2814,N,11951.1313,W,1,08,1.0,1.7,M,-34.0,M,,*55
$PYRTM,2024,122.721374682546,13.831022092685
$GPGGA,171845.00,3356.2816,N,11951.1287,W,1,08,1.0,1.2,M,-34.0,M,,*5F
$PYRTM,2024,122.721387283426,13.831034693565
$GPGGA,171846.00,3356.2819,N,11951.1261,W,1,08,1.0,1.8,M,-34.0,M,,*51
$PYRTM,2024,122.721400016030,13.831047426169
$GPGGA,171847.00,3356.2821,N,11951.1234,W,1,08,1.0,-0.2,M,-34.0,M,,*7D
$PYRTM,2024,122.721409392963,13.831056803102
$GPGGA,171848.00,3356.2823,N,11951.1207,W,1,08,1.0,-1.8,M,-34.0,M,,*7B
$PYRTM,2024,122.721420981782,13.831068391921
$GPGGA,171849.00,3356.2825,N,11951.1180,W,1,08,1.0,-3.2,M,-34.0,M,,*78
$PYRTM,2024,122.721432539757,13.831079949896
$GPGGA,171850.00,3356.2828,N,11951.1153,W,1,07,1.0,0.0,M,-34.0,M,,*50
$PYRTM,2024,122.721444129838,13.831091539988
$GPGGA,171851.00,3356.2833,N,11951.1127,W,1,08,1.0,2.7,M,-34.0,M,,*52
$PYRTM,2024,122.721455687546,13.831103097685
$GPGGA,171852.00,3356.2837,N,11951.1100,W,1,08,1.0,1.1,M,-34.0,M,,*55
$PYRTM,2024,122.721467277361,13.831114687500
$GPGGA,171853.00,3356.2840,N,11951.1074,W,1,08,1.0,3.6,M,-34.0,M,,*53
$PYRTM,2024,122.721478836597,13.831126246736
$GPGGA,171854.00,3356.2843,N,11951.1047,W,1,08,1.0,3.7,M,-34.0,M,,*56
$PYRTM,2024,122.721490423229,13.831137833368
$GPGGA,171855.00,3356.2846,N,11951.1021,W,1,08,1.0,-0.1,M,-34.0,M,,*7A
$PYRTM,2024,122.721501984491,13.831149394630
$GPGGA,171856.00,3356.2850,N,11951.0997,W,1,08,1.0,2.4,M,-34.0,M,,*51
$PYRTM,2024,122.721513566493,13.831160976632
$GPGGA,171857.00,3356.2854,N,11951.0972,W,1,08,1.0,1.5,M,-34.0,M,,*5D
$PYRTM,2024,122.721525494745,13.831172904884
$GPGGA,171858.00,3356.2859,N,11951.0947,W,1,08,1.0,0.8,M,-34.0,M,,*55
$PYRTM,2024,122.721536715012,13.831184125150
$GPGGA,171859.00,3356.2863,N,11951.0920,W,1,08,1.0,0.4,M,-34.0,M,,*50
$PYRTM,2024,122.721548281389,13.831195691528
$GPGGA,171900.00,3356.2869,N,11951.0893,W,1,08,1.0,1.7,M,-34.0,M,,*5C
$PYRTM,2024,122.721559863356,13.831207273507
$GPGGA,171901.00,3356.2873,N,11951.0867,W,1,08,1.0,1.2,M,-34.0,M,,*58
$PYRTM,2024,122.721571428669,13.831218838808
$GPGGA,171902.00,3356.2875,N,11951.0842,W,1,08,1.0,-0.7,M,-34.0,M,,*73
$PYRTM,2024,122.721583019942,13.831230430081
$GPGGA,171903.00,3356.2877,N,11951.0817,W,1,08,1.0,0.0,M,-34.0,M,,*5A
$PYRTM,2024,122.721594578160,13.831241988299
$GPGGA,171904.00,3356.2879,N,11951.0791,W,1,08,1.0,0.0,M,-34.0,M,,*52
$PYRTM,2024,122.721606168403,13.831253578542
$GPGGA,171905.00,3356.2883,N,11951.0763,W,1,08,1.0,-0.2,M,-34.0,M,,*74
$PYRTM,2024,122.721617725949,13.831265136100
$GPGGA,171906.00,3356.2888,N,11951.0734,W,1,08,1.0,1.3,M,-34.0,M,,*53
$PYRTM,2024,122.721629309074,13.831276719213
$GPGGA,171907.00,3356.2894,N,11951.0705,W,1,08,1.0,3.2,M,-34.0,M,,*5E
$PYRTM,2024,122.721640875336,13.831288285475
$GPGGA,171908.00,3356.2898,N,11951.0676,W,1,08,1.0,3.1,M,-34.0,M,,*5B
$PYRTM,2024,122.721652462187,13.831299872338
$GPGGA,171909.00,3356.2902,N,11951.0646,W,1,08,1.0,0.8,M,-34.0,M,,*51
$PYRTM,2024,122.721664024630,13.831311434769
$GPGGA,171910.00,3356.2905,N,11951.0616,W,1,08,1.0,1.1,M,-34.0,M,,*53
$PYRTM,2024,122.721674682674,13.831322092813
$GPGGA,171911.00,3356.2908,N,11951.0588,W,1,08,1.0,2.6,M,-34.0,M,,*5F
$PYRTM,2024,122.721687649653,13.831335059803
$GPGGA,171912.00,3356.2911,N,11951.0560,W,1,08,1.0,3.2,M,-34.0,M,,*57
$PYRTM,2024,122.721698283275,13.831345693414
$GPGGA,171913.00,3356.2914,N,11951.0533,W,1,08,1.0,2.4,M,-34.0,M,,*52
$PYRTM,2024,122.721709278171,13.831356688310
$GPGGA,171914.00,3356.2918,N,11951.0505,W,1,08,1.0,2.5,M,-34.0,M,,*5D
$PYRTM,2024,122.721720389144,13.831367799294
$GPGGA,171915.00,3356.2923,N,11951.0478,W,1,08,1.0,-0.3,M,-34.0,M,,*76
$PYRTM,2024,122.721734856979,13.831382267118
$GPGGA,171916.00,3356.2925,N,11951.0450,W,1,08,1.0,1.6,M,-34.0,M,,*50
$PYRTM,2024,122.721745968588,13.831393378727
$GPGGA,171917.00,3356.2926,N,11951.0423,W,1,08,1.0,2.5,M,-34.0,M,,*56
$PYRTM,2024,122.721756975718,13.831404385856
$GPGGA,171918.00,3356.2928,N,11951.0395,W,1,08,1.0,4.7,M,-34.0,M,,*59
$PYRTM,2024,122.721768101227,13.831415511366
$GPGGA,171919.00,3356.2930,N,11951.0368,W,1,08,1.0,10.9,M,-34.0,M,,*68
$PYRTM,2024,122.721779082141,13.831426492280
$GPGGA,171920.00,3356.2934,N,11951.0340,W,1,08,1.0,9.9,M,-34.0,M,,*54
$PYRTM,2024,122.721790312141,13.831437722292
$GPGGA,171921.00,3356.2939,N,11951.0311,W,1,08,1.0,10.8,M,-34.0,M,,*65
$PYRTM,2024,122.721801768692,13.831449178831
$GPGGA,171922.00,3356.2943,N,11951.0283,W,1,08,1.0,6.9,M,-34.0,M,,*57
$PYRTM,2024,122.721813342755,13.831460752894
$GPGGA,171923.00,3356.2946,N,11951.0254,W,1,08,1.0,5.9,M,-34.0,M,,*5A
$PYRTM,2024,122.721824915625,13.831472325764
$GPGGA,171924.00,3356.2948,N,11951.0227,W,1,08,1.0,5.4,M,-34.0,M,,*5A
$PYRTM,2024,122.721836605741,13.831484015880
$GPGGA,171925.00,3356.2951,N,11951.0199,W,1,08,1.0,11.2,M,-34.0,M,,*66
$PYRTM,2024,122.721848065255,13.831495475394
$GPGGA,171926.00,3356.2954,N,11951.0171,W,1,08,1.0,8.9,M,-34.0,M,,*55
$PYRTM,2024,122.721859633391,13.831507043542
$GPGGA,171927.00,3356.2957,N,11951.0143,W,1,08,1.0,8.7,M,-34.0,M,,*58
$PYRTM,2024,122.721871213322,13.831518623461
$GPGGA,171928.00,3356.2960,N,11951.0114,W,1,08,1.0,9.1,M,-34.0,M,,*56
$PYRTM,2024,122.721882903206,13.831530313345
$GPGGA,171929.00,3356.2962,N,11951.0084,W,1,08,1.0,10.3,M,-34.0,M,,*67
$PYRTM,2024,122.721894365301,13.831541775440
$GPGGA,171930.00,3356.2967,N,11951.0056,W,1,08,1.0,9.5,M,-34.0,M,,*5B
$PYRTM,2024,122.721905929861,13.831553340000
$GPGGA,171931.00,3356.2971,N,11951.0027,W,1,08,1.0,9.0,M,-34.0,M,,*5E
$PYRTM,2024,122.721917612141,13.831565022292
$GPGGA,171932.00,3356.2975,N,11951.0000,W,1,08,1.0,10.0,M,-34.0,M,,*64
$PYRTM,2024,122.721929087662,13.831576497801
$GPGGA,171933.00,3356.2979,N,11950.9971,W,1,08,1.0,9.0,M,-34.0,M,,*56
$PYRTM,2024,122.721940760278,13.831588170417
$GPGGA,171934.00,3356.2981,N,11950.9945,W,1,08,1.0,10.4,M,-34.0,M,,*6D
$PYRTM,2024,122.721952235856,13.831599645995
$GPGGA,171935.00,3356.2985,N,11950.9919,W,1,08,1.0,9.3,M,-34.0,M,,*5E
$PYRTM,2024,122.721963910683,13.831611320822
$GPGGA,171936.00,3356.2989,N,11950.9893,W,1,08,1.0,11.2,M,-34.0,M,,*6A
$PYRTM,2024,122.721975380139,13.831622790278
$GPGGA,171937.00,3356.2992,N,11950.9868,W,1,08,1.0,9.9,M,-34.0,M,,*57
$PYRTM,2024,122.721986963171,13.831634373310
$GPGGA,171938.00,3356.2995,N,11950.9842,W,1,08,1.0,9.7,M,-34.0,M,,*59
$PYRTM,2024,122.721998644074,13.831646054213
$GPGGA,171939.00,3356.2997,N,11950.9816,W,1,08,1.0,10.5,M,-34.0,M,,*61
$PYRTM,2024,122.722010206019,13.831657616157
$GPGGA,171940.00,3356.2999,N,11950.9791,W,1,08,1.0,11.7,M,-34.0,M,,*62
$PYRTM,2024,122.722021787199,13.831669197338
$GPGGA,171941.00,3356.3000,N,11950.9765,W,1,08,1.0,14.2,M,-34.0,M,,*60
$PYRTM,2024,122.722033353275,13.831680763426
$GPGGA,171942.00,3356.3002,N,11950.9739,W,1,08,1.0,12.3,M,-34.0,M,,*6F
$PYRTM,2024,122.722044935162,13.831692345301
$GPGGA,171943.00,3356.3003,N,11950.9712,W,1,08,1.0,10.1,M,-34.0,M,,*66
$PYRTM,2024,122.722056398414,13.831703808553
$GPGGA,171944.00,3356.3005,N,11950.9686,W,1,08,1.0,8.8,M,-34.0,M,,*5B
$PYRTM,2024,122.722067967512,13.831715377650
$GPGGA,171945.00,3356.3008,N,11950.9658,W,1,08,1.0,6.7,M,-34.0,M,,*55
$PYRTM,2024,122.722079310509,13.831726720648
$GPGGA,171946.00,3356.3010,N,11950.9630,W,1,08,1.0,6.5,M,-34.0,M,,*53
$PYRTM,2024,122.722092280463,13.831739690602
$GPGGA,171947.00,3356.3012,N,11950.9603,W,1,08,1.0,7.2,M,-34.0,M,,*56
$PYRTM,2024,122.722103840116,13.831751250255
$GPGGA,171948.00,3356.3016,N,11950.9577,W,1,08,1.0,8.0,M,-34.0,M,,*50
$PYRTM,2024,122.722115430093,13.831762840231
$GPGGA,171949.00,3356.3020,N,11950.9550,W,1,08,1.0,6.9,M,-34.0,M,,*56
$PYRTM,2024,122.722126988704,13.831774398854
$GPGGA,171950.00,3356.3023,N,11950.9523,W,1,08,1.0,6.1,M,-34.0,M,,*51
$PYRTM,2024,122.722138578183,13.831785988333
$GPGGA,171951.00,3356.3025,N,11950.9495,W,1,08,1.0,4.4,M,-34.0,M,,*5D
$PYRTM,2024,122.722150138600,13.831797548738
$GPGGA,171952.00,3356.3027,N,11950.9467,W,1,08,1.0,2.8,M,-34.0,M,,*5B
$PYRTM,2024,122.722161726771,13.831809136910
$GPGGA,171953.00,3356.3029,N,11950.9440,W,1,08,1.0,4.6,M,-34.0,M,,*59
$PYRTM,2024,122.722173285255,13.831820695394
$GPGGA,171954.00,3356.3030,N,11950.9412,W,1,08,1.0,4.2,M,-34.0,M,,*55
$PYRTM,2024,122.722184865775,13.831832275914
$GPGGA,171955.00,3356.3030,N,11950.9385,W,1,08,1.0,6.0,M,-34.0,M,,*5D
$PYRTM,2024,122.722196432975,13.831843843113
$GPGGA,171956.00,3356.3031,N,11950.9357,W,1,08,1.0,6.8,M,-34.0,M,,*58
$PYRTM,2024,122.722208019896,13.831855430035
$GPGGA,171957.00,3356.3033,N,11950.9330,W,1,08,1.0,8.2,M,-34.0,M,,*5E
$PYRTM,2024,122.722219942211,13.831867352350
$GPGGA,171958.00,3356.3035,N,11950.9302,W,1,08,1.0,6.1,M,-34.0,M,,*5B
$PYRTM,2024,122.722231170509,13.831878580648
$GPGGA,171959.00,3356.3039,N,11950.9275,W,1,08,1.0,5.8,M,-34.0,M,,*5D
$PYRTM,2024,122.722242730544,13.831890140683
$GPGGA,172000.00,3356.3043,N,11950.9248,W,1,08,1.0,5.9,M,-34.0,M,,*59
$PYRTM,2024,122.722254311134,13.831901721285
$GPGGA,172001.00,3356.3046,N,11950.9221,W,1,08,1.0,9.5,M,-34.0,M,,*52
$PYRTM,2024,122.722265878345,13.831913288484
$GPGGA,172002.00,3356.3047,N,11950.9192,W,1,08,1.0,9.6,M,-34.0,M,,*58
$PYRTM,2024,122.722277465544,13.831924875683
$GPGGA,172003.00,3356.3046,N,11950.9163,W,1,08,1.0,10.4,M,-34.0,M,,*6C
$PYRTM,2024,122.722289027095,13.831936437234
$GPGGA,172004.00,3356.3048,N,11950.9135,W,1,08,1.0,11.2,M,-34.0,M,,*61
$PYRTM,2024,122.722300617083,13.831948027222
$GPGGA,172005.00,3356.3051,N,11950.9107,W,1,08,1.0,11.2,M,-34.0,M,,*69
$PYRTM,2024,122.722312174780,13.831959584919
$GPGGA,172006.00,3356.3053,N,11950.9079,W,1,08,1.0,11.3,M,-34.0,M,,*61
$PYRTM,2024,122.722323764352,13.831971174491
$GPGGA,172007.00,3356.3055,N,11950.9052,W,1,08,1.0,10.9,M,-34.0,M,,*64
$PYRTM,2024,122.722335322326,13.831982732465
$GPGGA,172008.00,3356.3057,N,11950.9025,W,1,08,1.0,10.3,M,-34.0,M,,*63
$PYRTM,2024,122.722346909190,13.831994319329
$GPGGA,172009.00,3356.3058,N,11950.8998,W,1,08,1.0,6.9,M,-34.0,M,,*5E
$PYRTM,2024,122.722358470394,13.832005880532
$GPGGA,172010.00,3356.3060,N,11950.8971,W,1,08,1.0,6.7,M,-34.0,M,,*54
$PYRTM,2024,122.722370057928,13.832017468067
$GPGGA,172011.00,3356.3062,N,11950.8944,W,1,08,1.0,2.8,M,-34.0,M,,*5A
$PYRTM,2024,122.722381618646,13.832029028785
$GPGGA,172012.00,3356.3064,N,11950.8917,W,1,08,1.0,4.9,M,-34.0,M,,*5E
$PYRTM,2024,122.722393206308,13.832040616447
$GPGGA,172013.00,3356.3065,N,11950.8891,W,1,08,1.0,7.2,M,-34.0,M,,*59
$PYRTM,2024,122.722404767222,13.832052177361
$GPGGA,172014.00,3356.3066,N,11950.8863,W,1,08,1.0,8.4,M,-34.0,M,,*59
$PYRTM,2024,122.722416358287,13.832063768438
$GPGGA,172015.00,3356.3068,N,11950.8835,W,1,08,1.0,7.7,M,-34.0,M,,*59
$PYRTM,2024,122.722429421782,13.832076831921
$GPGGA,172016.00,3356.3071,N,11950.8808,W,1,08,1.0,7.0,M,-34.0,M,,*5B
$PYRTM,2024,122.722441688854,13.832089098993
$GPGGA,172017.00,3356.3074,N,11950.8781,W,1,08,1.0,8.2,M,-34.0,M,,*5C
$PYRTM,2024,122.722451063426,13.832098473565
$GPGGA,172018.00,3356.3077,N,11950.8755,W,1,08,1.0,10.8,M,-34.0,M,,*6A
$PYRTM,2024,122.722462666227,13.832110076366
$GPGGA,172019.00,3356.3080,N,11950.8728,W,1,08,1.0,10.1,M,-34.0,M,,*60
$PYRTM,2024,122.722474213275,13.832121623414
$GPGGA,172020.00,3356.3081,N,11950.8702,W,1,08,1.0,11.5,M,-34.0,M,,*66
$PYRTM,2024,122.722485801817,13.832133211956
$GPGGA,172021.00,3356.3083,N,11950.8674,W,1,08,1.0,12.8,M,-34.0,M,,*6B
$PYRTM,2024,122.722497360336,13.832144770475
$GPGGA,172022.00,3356.3085,N,11950.8646,W,1,08,1.0,13.4,M,-34.0,M,,*62
$PYRTM,2024,122.722508947535,13.832156357674
$GPGGA,172023.00,3356.3086,N,11950.8617,W,1,08,1.0,13.0,M,-34.0,M,,*60
$PYRTM,2024,122.722520510266,13.832167920417
$GPGGA,172024.00,3356.3087,N,11950.8588,W,1,08,1.0,13.4,M,-34.0,M,,*67
$PYRTM,2024,122.722532095000,13.832179505139
$GPGGA,172025.00,3356.3089,N,11950.8560,W,1,08,1.0,12.3,M,-34.0,M,,*68
$PYRTM,2024,122.722543657303,13.832191067442
$GPGGA,172026.00,3356.3092,N,11950.8532,W,1,08,1.0,10.4,M,-34.0,M,,*63
$PYRTM,2024,122.722555244942,13.832202655081
$GPGGA,172027.00,3356.3095,N,11950.8504,W,1,08,1.0,11.2,M,-34.0,M,,*67
$PYRTM,2024,122.722567281134,13.832214691273
$GPGGA,172028.00,3356.3099,N,11950.8476,W,1,08,1.0,10.7,M,-34.0,M,,*64
$PYRTM,2024,122.722578395150,13.832225805289
$GPGGA,172029.00,3356.3101,N,11950.8449,W,1,08,1.0,9.5,M,-34.0,M,,*53
$PYRTM,2024,122.722589953021,13.832237363160
$GPGGA,172030.00,3356.3104,N,11950.8422,W,1,08,1.0,9.2,M,-34.0,M,,*54
$PYRTM,2024,122.722601544375,13.832248954514
$GPGGA,172031.00,3356.3107,N,11950.8395,W,1,08,1.0,11.2,M,-34.0,M,,*64
$PYRTM,2024,122.722613101817,13.832260511956
$GPGGA,172032.00,3356.3111,N,11950.8367,W,1,08,1.0,10.1,M,-34.0,M,,*6F
$PYRTM,2024,122.722624691273,13.832272101412
$GPGGA,172033.00,3356.3114,N,11950.8340,W,1,08,1.0,10.8,M,-34.0,M,,*67
$PYRTM,2024,122.722636250139,13.832283660278
$GPGGA,172034.00,3356.3117,N,11950.8313,W,1,08,1.0,8.7,M,-34.0,M,,*53
$PYRTM,2024,122.722647824132,13.832295234271
$GPGGA,172035.00,3356.3119,N,11950.8284,W,1,08,1.0,5.6,M,-34.0,M,,*5F
$PYRTM,2024,122.722659398009,13.832306808148
$GPGGA,172036.00,3356.3123,N,11950.8257,W,1,08,1.0,6.6,M,-34.0,M,,*58
$PYRTM,2024,122.722670984699,13.832318394838
$GPGGA,172037.00,3356.3126,N,11950.8229,W,1,08,1.0,6.2,M,-34.0,M,,*51
$PYRTM,2024,122.722682546227,13.832329956366
$GPGGA,172038.00,3356.3129,N,11950.8201,W,1,08,1.0,7.9,M,-34.0,M,,*51
$PYRTM,2024,122.722694137662,13.832341547801
$GPGGA,172039.00,3356.3131,N,11950.8173,W,1,08,1.0,5.6,M,-34.0,M,,*52
$PYRTM,2024,122.722705694282,13.832353104421
$GPGGA,172040.00,3356.3134,N,11950.8145,W,1,08,1.0,4.6,M,-34.0,M,,*5D
$PYRTM,2024,122.722717284769,13.832364694907
$GPGGA,172041.00,3356.3138,N,11950.8118,W,1,08,1.0,4.5,M,-34.0,M,,*5B
$PYRTM,2024,122.722728842824,13.832376252963
$GPGGA,172042.00,3356.3142,N,11950.8090,W,1,08,1.0,2.2,M,-34.0,M,,*55
$PYRTM,2024,122.722740425046,13.832387835185
$GPGGA,172043.00,3356.3146,N,11950.8063,W,1,08,1.0,3.5,M,-34.0,M,,*5A
$PYRTM,2024,122.722751992199,13.832399402338
$GPGGA,172044.00,3356.3148,N,11950.8036,W,1,08,1.0,4.9,M,-34.0,M,,*58
$PYRTM,2024,122.722763579282,13.832410989421
$GPGGA,172045.00,3356.3149,N,11950.8009,W,1,08,1.0,5.1,M,-34.0,M,,*5D
$PYRTM,2024,122.722776183009,13.832423593148
$GPGGA,172046.00,3356.3151,N,11950.7982,W,1,08,1.0,3.8,M,-34.0,M,,*5D
$PYRTM,2024,122.722788912396,13.832436322535
$GPGGA,172047.00,3356.3153,N,11950.7955,W,1,08,1.0,5.9,M,-34.0,M,,*53
$PYRTM,2024,122.722798289248,13.832445699387
$GPGGA,172048.00,3356.3156,N,11950.7927,W,1,08,1.0,5.7,M,-34.0,M,,*52
$PYRTM,2024,122.722809877975,13.832457288113
$GPGGA,172049.00,3356.3159,N,11950.7899,W,1,08,1.0,6.1,M,-34.0,M,,*5D
$PYRTM,2024,122.722821437095,13.832468847234
$GPGGA,172050.00,3356.3162,N,11950.7872,W,1,08,1.0,6.3,M,-34.0,M,,*5A
$PYRTM,2024,122.722833020104,13.832480430243
$GPGGA,172051.00,3356.3165,N,11950.7845,W,1,08,1.0,5.4,M,-34.0,M,,*5C
$PYRTM,2024,122.722844584398,13.832491994537
$GPGGA,172052.00,3356.3168,N,11950.7817,W,1,08,1.0,4.8,M,-34.0,M,,*58
$PYRTM,2024,122.722856159861,13.832503570000
$GPGGA,172053.00,3356.3171,N,11950.7789,W,1,08,1.0,5.2,M,-34.0,M,,*52
$PYRTM,2024,122.722867734097,13.832515144236
$GPGGA,172054.00,3356.3174,N,11950.7760,W,1,08,1.0,6.1,M,-34.0,M,,*57
$PYRTM,2024,122.722879321898,13.832526732037
$GPGGA,172055.00,3356.3176,N,11950.7732,W,1,08,1.0,5.5,M,-34.0,M,,*54
$PYRTM,2024,122.722890881597,13.832538291748
$GPGGA,172056.00,3356.3179,N,11950.7705,W,1,08,1.0,5.5,M,-34.0,M,,*5C
$PYRTM,2024,122.722902457917,13.832549868056
$GPGGA,172057.00,3356.3181,N,11950.7677,W,1,08,1.0,8.3,M,-34.0,M,,*55
$PYRTM,2024,122.722914378194,13.832561788333
$GPGGA,172058.00,3356.3184,N,11950.7651,W,1,08,1.0,7.9,M,-34.0,M,,*5E
$PYRTM,2024,122.722925618495,13.832573028634
$GPGGA,172059.00,3356.3186,N,11950.7624,W,1,08,1.0,7.1,M,-34.0,M,,*57
$PYRTM,2024,122.722937178669,13.832584588808
$GPGGA,172100.00,3356.3189,N,11950.7596,W,1,08,1.0,5.8,M,-34.0,M,,*54
$PYRTM,2024,122.722948760000,13.832596170139
$GPGGA,172101.00,3356.3192,N,11950.7568,W,1,08,1.0,7.5,M,-34.0,M,,*51
$PYRTM,2024,122.722960324641,13.832607734780
$GPGGA,172102.00,3356.3193,N,11950.7540,W,1,08,1.0,9.5,M,-34.0,M,,*57
$PYRTM,2024,122.722971901181,13.832619311319
$GPGGA,172103.00,3356.3195,N,11950.7511,W,1,08,1.0,11.1,M,-34.0,M,,*69
$PYRTM,2024,122.722983475266,13.832630885405
$GPGGA,172104.00,3356.3196,N,11950.7483,W,1,08,1.0,9.1,M,-34.0,M,,*5E
$PYRTM,2024,122.722995060845,13.832642470984
$GPGGA,172105.00,3356.3198,N,11950.7457,W,1,08,1.0,7.3,M,-34.0,M,,*54
$PYRTM,2024,122.723006970521,13.832654380660
$GPGGA,172106.00,3356.3200,N,11950.7430,W,1,08,1.0,6.8,M,-34.0,M,,*5E
$PYRTM,2024,122.723018209537,13.832665619676
$GPGGA,172107.00,3356.3203,N,11950.7405,W,1,08,1.0,6.5,M,-34.0,M,,*57
$PYRTM,2024,122.723029772407,13.832677182546
$GPGGA,172108.00,3356.3205,N,11950.7379,W,1,08,1.0,7.0,M,-34.0,M,,*56
$PYRTM,2024,122.723041361192,13.832688771331
$GPGGA,172109.00,3356.3209,N,11950.7352,W,1,08,1.0,6.7,M,-34.0,M,,*54
$PYRTM,2024,122.723052922118,13.832700332257
$GPGGA,172110.00,3356.3211,N,11950.7326,W,1,08,1.0,3.9,M,-34.0,M,,*5D
$PYRTM,2024,122.723064506366,13.832711916505
$GPGGA,172111.00,3356.3213,N,11950.7299,W,1,08,1.0,5.0,M,-34.0,M,,*54
$PYRTM,2024,122.723076067998,13.832723478137
$GPGGA,172112.00,3356.3214,N,11950.7271,W,1,08,1.0,7.5,M,-34.0,M,,*51
$PYRTM,2024,122.723087653935,13.832735064074
$GPGGA,172113.00,3356.3214,N,11950.7243,W,1,08,1.0,9.4,M,-34.0,M,,*5E
$PYRTM,2024,122.723099215035,13.832746625174
$GPGGA,172114.00,3356.3214,N,11950.7214,W,1,08,1.0,10.3,M,-34.0,M,,*64
$PYRTM,2024,122.723110802211,13.832758212350
$GPGGA,172115.00,3356.3215,N,11950.7187,W,1,08,1.0,9.5,M,-34.0,M,,*53
$PYRTM,2024,122.723122480556,13.832769890694
$GPGGA,172116.00,3356.3217,N,11950.7160,W,1,08,1.0,7.0,M,-34.0,M,,*50
$PYRTM,2024,122.723135443391,13.832782853530
$GPGGA,172117.00,3356.3219,N,11950.7133,W,1,08,1.0,6.5,M,-34.0,M,,*5D
$PYRTM,2024,122.723146106632,13.832793516771
$GPGGA,172118.00,3356.3220,N,11950.7106,W,1,08,1.0,8.9,M,-34.0,M,,*5C
$PYRTM,2024,122.723157217222,13.832804627361
$GPGGA,172119.00,3356.3221,N,11950.7080,W,1,08,1.0,4.9,M,-34.0,M,,*5F
$PYRTM,2024,122.723168209201,13.832815619340
$GPGGA,172120.00,3356.3222,N,11950.7054,W,1,08,1.0,6.2,M,-34.0,M,,*56
$PYRTM,2024,122.723179190556,13.832826600694
$GPGGA,172121.00,3356.3224,N,11950.7028,W,1,08,1.0,6.4,M,-34.0,M,,*5C
$PYRTM,2024,122.723190303252,13.832837713391
$GPGGA,172122.00,3356.3225,N,11950.7001,W,1,08,1.0,5.6,M,-34.0,M,,*54
$PYRTM,2024,122.723201301620,13.832848711759
$GPGGA,172123.00,3356.3228,N,11950.6973,W,1,08,1.0,4.7,M,-34.0,M,,*55
$PYRTM,2024,122.723212411771,13.832859821910
$GPGGA,172124.00,3356.3229,N,11950.6944,W,1,08,1.0,5.4,M,-34.0,M,,*55
$PYRTM,2024,122.723223406100,13.832870816238
$GPGGA,172125.00,3356.3231,N,11950.6915,W,1,08,1.0,6.7,M,-34.0,M,,*59
$PYRTM,2024,122.723234518924,13.832881929062
$GPGGA,172126.00,3356.3234,N,11950.6887,W,1,08,1.0,6.3,M,-34.0,M,,*51
$PYRTM,2024,122.723245524919,13.832892935069
$GPGGA,172127.00,3356.3237,N,11950.6859,W,1,08,1.0,4.1,M,-34.0,M,,*50
$PYRTM,2024,122.723256970312,13.832904380451
$GPGGA,172128.00,3356.3239,N,11950.6831,W,1,08,1.0,2.0,M,-34.0,M,,*58
$PYRTM,2024,122.723268080023,13.832915490162
$GPGGA,172129.00,3356.3241,N,11950.6803,W,1,08,1.0,1.2,M,-34.0,M,,*56
$PYRTM,2024,122.723279078264,13.832926488414
$GPGGA,172130.00,3356.3243,N,11950.6777,W,1,08,1.0,1.1,M,-34.0,M,,*53
$PYRTM,2024,122.723290669479,13.832938079630
$GPGGA,172131.00,3356.3246,N,11950.6750,W,1,08,1.0,1.0,M,-34.0,M,,*53
$PYRTM,2024,122.723302227488,13.832949637627
$GPGGA,172132.00,3356.3248,N,11950.6724,W,1,08,1.0,3.5,M,-34.0,M,,*5A
$PYRTM,2024,122.723313807755,13.832961217894
$GPGGA,172133.00,3356.3250,N,11950.6697,W,1,08,1.0,3.1,M,-34.0,M,,*5F
$PYRTM,2024,122.723325373576,13.832972783715
$GPGGA,172134.00,3356.3252,N,11950.6670,W,1,08,1.0,2.2,M,-34.0,M,,*51
$PYRTM,2024,122.723337077292,13.832984487431
$GPGGA,172135.00,3356.3255,N,11950.6643,W,1,08,1.0,-0.8,M,-34.0,M,,*72
$PYRTM,2024,122.723348524306,13.832995934444
$GPGGA,172136.00,3356.3257,N,11950.6617,W,1,08,1.0,3.7,M,-34.0,M,,*53
$PYRTM,2024,122.723360106123,13.833007516262
$GPGGA,172137.00,3356.3260,N,11950.6590,W,1,08,1.0,3.8,M,-34.0,M,,*55
$PYRTM,2024,122.723371673449,13.833019083588
$GPGGA,172138.00,3356.3263,N,11950.6563,W,1,08,1.0,2.5,M,-34.0,M,,*59
$PYRTM,2024,122.723383254919,13.833030665069
$GPGGA,172139.00,3356.3266,N,11950.6535,W,1,08,1.0,2.8,M,-34.0,M,,*53
$PYRTM,2024,122.723394819329,13.833042229468
$GPGGA,172140.00,3356.3269,N,11950.6508,W,1,08,1.0,4.0,M,-34.0,M,,*52
$PYRTM,2024,122.723406400509,13.833053810648
$GPGGA,172141.00,3356.3273,N,11950.6480,W,1,08,1.0,4.7,M,-34.0,M,,*5E
$PYRTM,2024,122.723417967836,13.833065377975
$GPGGA,172142.00,3356.3276,N,11950.6452,W,1,08,1.0,4.0,M,-34.0,M,,*50
$PYRTM,2024,122.723429554907,13.833076965046
$GPGGA,172143.00,3356.3279,N,11950.6424,W,1,08,1.0,3.7,M,-34.0,M,,*5F
$PYRTM,2024,122.723441114942,13.833088525081
$GPGGA,172144.00,3356.3282,N,11950.6396,W,1,08,1.0,3.5,M,-34.0,M,,*50
$PYRTM,2024,122.723452705220,13.833100115359
$GPGGA,172145.00,3356.3285,N,11950.6368,W,1,08,1.0,4.6,M,-34.0,M,,*53
$PYRTM,2024,122.723468441956,13.833115852095
$GPGGA,172146.00,3356.3287,N,11950.6340,W,1,08,1.0,4.3,M,-34.0,M,,*5D
$PYRTM,2024,122.723480004340,13.833127414479
$GPGGA,172147.00,3356.3290,N,11950.6311,W,1,08,1.0,4.6,M,-34.0,M,,*5B
$PYRTM,2024,122.723491590208,13.833139000347
$GPGGA,172148.00,3356.3293,N,11950.6283,W,1,08,1.0,3.2,M,-34.0,M,,*5E
$PYRTM,2024,122.723503151354,13.833150561493
$GPGGA,172149.00,3356.3296,N,11950.6254,W,1,08,1.0,3.3,M,-34.0,M,,*51
$PYRTM,2024,122.723514742801,13.833162152940
$GPGGA,172150.00,3356.3297,N,11950.6226,W,1,08,1.0,3.0,M,-34.0,M,,*5E
$PYRTM,2024,122.723526299514,13.833173709653
$GPGGA,172151.00,3356.3300,N,11950.6198,W,1,08,1.0,4.5,M,-34.0,M,,*54
$PYRTM,2024,122.723537888183,13.833185298322
$GPGGA,172152.00,3356.3303,N,11950.6171,W,1,08,1.0,3.1,M,-34.0,M,,*50
$PYRTM,2024,122.723549448831,13.833196858970
$GPGGA,172153.00,3356.3304,N,11950.6143,W,1,08,1.0,0.4,M,-34.0,M,,*51
$PYRTM,2024,122.723561150937,13.833208561076
$GPGGA,172154.00,3356.3305,N,11950.6116,W,1,08,1.0,-1.0,M,-34.0,M,,*7F
$PYRTM,2024,122.723572598218,13.833220008356
$GPGGA,172155.00,3356.3308,N,11950.6088,W,1,08,1.0,0.1,M,-34.0,M,,*58
$PYRTM,2024,122.723584300417,13.833231710567
$GPGGA,172156.00,3356.3311,N,11950.6061,W,1,08,1.0,-0.1,M,-34.0,M,,*79
$PYRTM,2024,122.723595745938,13.833243156076
$GPGGA,172157.00,3356.3314,N,11950.6034,W,1,08,1.0,1.9,M,-34.0,M,,*59
$PYRTM,2024,122.723607328437,13.833254738576
$GPGGA,172158.00,3356.3317,N,11950.6007,W,1,08,1.0,2.3,M,-34.0,M,,*5C
$PYRTM,2024,122.723618895104,13.833266305255
$GPGGA,172159.00,3356.3321,N,11950.5980,W,1,08,1.0,2.7,M,-34.0,M,,*59
$PYRTM,2024,122.723630484745,13.833277894896
$GPGGA,172200.00,3356.3325,N,11950.5951,W,1,08,1.0,1.5,M,-34.0,M,,*5F
$PYRTM,2024,122.723642043657,13.833289453796
$GPGGA,172201.00,3356.3327,N,11950.5924,W,1,08,1.0,3.3,M,-34.0,M,,*5A
$PYRTM,2024,122.723653630972,13.833301041123
$GPGGA,172202.00,3356.3329,N,11950.5897,W,1,08,1.0,3.3,M,-34.0,M,,*5E
$PYRTM,2024,122.723665191285,13.833312601424
$GPGGA,172203.00,3356.3333,N,11950.5871,W,1,08,1.0,5.4,M,-34.0,M,,*5D
$PYRTM,2024,122.723676773310,13.833324183449
$GPGGA,172204.00,3356.3336,N,11950.5844,W,1,08,1.0,5.6,M,-34.0,M,,*5B
$PYRTM,2024,122.723688339178,13.833335749317
$GPGGA,172205.00,3356.3338,N,11950.5817,W,1,08,1.0,4.8,M,-34.0,M,,*5D
$PYRTM,2024,122.723699927627,13.833347337766
$GPGGA,172206.00,3356.3340,N,11950.5790,W,1,08,1.0,4.8,M,-34.0,M,,*51
$PYRTM,2024,122.723711487708,13.833358897847
$GPGGA,172207.00,3356.3341,N,11950.5763,W,1,08,1.0,5.6,M,-34.0,M,,*52
$PYRTM,2024,122.723723073241,13.833370483380
$GPGGA,172208.00,3356.3342,N,11950.5736,W,1,08,1.0,6.7,M,-34.0,M,,*5C
$PYRTM,2024,122.723734638715,13.833382048854
$GPGGA,172209.00,3356.3343,N,11950.5707,W,1,08,1.0,7.8,M,-34.0,M,,*50
$PYRTM,2024,122.723746225556,13.833393635694
$GPGGA,172210.00,3356.3345,N,11950.5679,W,1,08,1.0,9.5,M,-34.0,M,,*55
$PYRTM,2024,122.723757786007,13.833405196146
$GPGGA,172211.00,3356.3349,N,11950.5650,W,1,08,1.0,6.0,M,-34.0,M,,*59
$PYRTM,2024,122.723769373310,13.833416783449
$GPGGA,172212.00,3356.3353,N,11950.5622,W,1,08,1.0,7.2,M,-34.0,M,,*57
$PYRTM,2024,122.723780932477,13.833428342627
$GPGGA,172213.00,3356.3356,N,11950.5596,W,1,08,1.0,7.0,M,-34.0,M,,*5D
$PYRTM,2024,122.723792513310,13.833439923449
$GPGGA,172214.00,3356.3358,N,11950.5567,W,1,08,1.0,4.5,M,-34.0,M,,*5C
$PYRTM,2024,122.723804079525,13.833451489664
$GPGGA,172215.00,3356.3360,N,11950.5540,W,1,08,1.0,5.5,M,-34.0,M,,*52
$PYRTM,2024,122.723816811991,13.833464222141
$GPGGA,172216.00,3356.3364,N,11950.5513,W,1,08,1.0,6.1,M,-34.0,M,,*54
$PYRTM,2024,122.723828268843,13.833475678981
$GPGGA,172217.00,3356.3369,N,11950.5487,W,1,08,1.0,6.0,M,-34.0,M,,*55
$PYRTM,2024,122.723839856933,13.833487267072
$GPGGA,172218.00,3356.3371,N,11950.5460,W,1,08,1.0,5.3,M,-34.0,M,,*5A
$PYRTM,2024,122.723851417396,13.833498827546
$GPGGA,172219.00,3356.3372,N,11950.5433,W,1,08,1.0,5.9,M,-34.0,M,,*54
$PYRTM,2024,122.723863000197,13.833510410336
$GPGGA,172220.00,3356.3374,N,11950.5405,W,1,08,1.0,5.4,M,-34.0,M,,*50
$PYRTM,2024,122.723874566840,13.833521976979
$GPGGA,172221.00,3356.3376,N,11950.5378,W,1,08,1.0,5.8,M,-34.0,M,,*52
$PYRTM,2024,122.723886153993,13.833533564132
$GPGGA,172222.00,3356.3379,N,11950.5350,W,1,08,1.0,6.0,M,-34.0,M,,*5F
$PYRTM,2024,122.723897712755,13.833545122894
$GPGGA,172223.00,3356.3380,N,11950.5324,W,1,08,1.0,4.2,M,-34.0,M,,*5B
$PYRTM,2024,122.723909301910,13.833556712049
$GPGGA,172224.00,3356.3382,N,11950.5296,W,1,08,1.0,7.5,M,-34.0,M,,*52
$PYRTM,2024,122.723920861458,13.833568271609
$GPGGA,172225.00,3356.3384,N,11950.5268,W,1,08,1.0,8.6,M,-34.0,M,,*58
$PYRTM,2024,122.723932445370,13.833579855509
$GPGGA,172226.00,3356.3387,N,11950.5241,W,1,08,1.0,9.7,M,-34.0,M,,*53
$PYRTM,2024,122.723944011088,13.833591421227
$GPGGA,172227.00,3356.3391,N,11950.5212,W,1,08,1.0,7.3,M,-34.0,M,,*59
$PYRTM,2024,122.723956046574,13.833603456713
$GPGGA,172228.00,3356.3393,N,11950.5184,W,1,08,1.0,8.3,M,-34.0,M,,*57
$PYRTM,2024,122.723967158715,13.833614568854
$GPGGA,172229.00,3356.3394,N,11950.5156,W,1,08,1.0,5.6,M,-34.0,M,,*56
$PYRTM,2024,122.723978747407,13.833626157546
$GPGGA,172230.00,3356.3396,N,11950.5129,W,1,08,1.0,6.0,M,-34.0,M,,*51
$PYRTM,2024,122.723990306331,13.833637716481
$GPGGA,172231.00,3356.3399,N,11950.5101,W,1,08,1.0,4.8,M,-34.0,M,,*5F
$PYRTM,2024,122.724001894965,13.833649305104
$GPGGA,172232.00,3356.3401,N,11950.5073,W,1,08,1.0,5.8,M,-34.0,M,,*5F
$PYRTM,2024,122.724013455058,13.833660865197
$GPGGA,172233.00,3356.3404,N,11950.5047,W,1,08,1.0,6.0,M,-34.0,M,,*57
$PYRTM,2024,122.724025044340,13.833672454479
$GPGGA,172234.00,3356.3406,N,11950.5020,W,1,08,1.0,7.8,M,-34.0,M,,*5A
$PYRTM,2024,122.724036602859,13.833684012998
$GPGGA,172235.00,3356.3408,N,11950.4993,W,1,08,1.0,8.6,M,-34.0,M,,*54
$PYRTM,2024,122.724048191007,13.833695601146
$GPGGA,172236.00,3356.3411,N,11950.4965,W,1,08,1.0,8.5,M,-34.0,M,,*55
$PYRTM,2024,122.724059882697,13.833707292847
$GPGGA,172237.00,3356.3413,N,11950.4938,W,1,08,1.0,10.8,M,-34.0,M,,*6A
$PYRTM,2024,122.724071450069,13.833718860208
$GPGGA,172238.00,3356.3415,N,11950.4910,W,1,08,1.0,10.4,M,-34.0,M,,*65
$PYRTM,2024,122.724083024167,13.833730434306
$GPGGA,172239.00,3356.3417,N,11950.4882,W,1,08,1.0,10.8,M,-34.0,M,,*60
$PYRTM,2024,122.724094487859,13.833741897998
$GPGGA,172240.00,3356.3419,N,11950.4854,W,1,08,1.0,9.3,M,-34.0,M,,*58
$PYRTM,2024,122.724106048356,13.833753458495
$GPGGA,172241.00,3356.3421,N,11950.4825,W,1,08,1.0,8.5,M,-34.0,M,,*53
$PYRTM,2024,122.724117631157,13.833765041296
$GPGGA,172242.00,3356.3423,N,11950.4798,W,1,08,1.0,7.6,M,-34.0,M,,*57
$PYRTM,2024,122.724129197072,13.833776607211
$GPGGA,172243.00,3356.3425,N,11950.4772,W,1,08,1.0,6.0,M,-34.0,M,,*53
$PYRTM,2024,122.724140785324,13.833788195463
$GPGGA,172244.00,3356.3427,N,11950.4744,W,1,08,1.0,4.8,M,-34.0,M,,*59
$PYRTM,2024,122.724152344699,13.833799754838
$GPGGA,172245.00,3356.3429,N,11950.4717,W,1,08,1.0,4.9,M,-34.0,M,,*51
$PYRTM,2024,122.724165540347,13.833812950486
$GPGGA,172246.00,3356.3432,N,11950.4690,W,1,08,1.0,6.7,M,-34.0,M,,*5A
$PYRTM,2024,122.724177700694,13.833825110833
$GPGGA,172247.00,3356.3435,N,11950.4663,W,1,08,1.0,4.7,M,-34.0,M,,*52
$PYRTM,2024,122.724187082454,13.833834492593
$GPGGA,172248.00,3356.3439,N,11950.4636,W,1,08,1.0,2.4,M,-34.0,M,,*54
$PYRTM,2024,122.724198641829,13.833846051968
$GPGGA,172249.00,3356.3441,N,11950.4608,W,1,08,1.0,3.3,M,-34.0,M,,*51
$PYRTM,2024,122.724210229537,13.833857639676
$GPGGA,172250.00,3356.3443,N,11950.4579,W,1,08,1.0,2.9,M,-34.0,M,,*55
$PYRTM,2024,122.724221792836,13.833869202975
$GPGGA,172251.00,3356.3444,N,11950.4552,W,1,08,1.0,1.5,M,-34.0,M,,*55
$PYRTM,2024,122.724233379468,13.833880789606
$GPGGA,172252.00,3356.3446,N,11950.4523,W,1,08,1.0,3.2,M,-34.0,M,,*57
$PYRTM,2024,122.724244937153,13.833892347292
$GPGGA,172253.00,3356.3449,N,11950.4494,W,1,08,1.0,3.7,M,-34.0,M,,*51
$PYRTM,2024,122.724256525556,13.833903935694
$GPGGA,172254.00,3356.3453,N,11950.4466,W,1,08,1.0,4.9,M,-34.0,M,,*59
$PYRTM,2024,122.724268085347,13.833915495498
$GPGGA,172255.00,3356.3456,N,11950.4439,W,1,08,1.0,3.4,M,-34.0,M,,*5D
$PYRTM,2024,122.724279669433,13.833927079572
$GPGGA,172256.00,3356.3458,N,11950.4413,W,1,08,1.0,5.5,M,-34.0,M,,*5F
$PYRTM,2024,122.724291235706,13.833938645845
$GPGGA,172257.00,3356.3459,N,11950.4386,W,1,08,1.0,4.4,M,-34.0,M,,*54
$PYRTM,2024,122.724303272419,13.833950682558
$GPGGA,172258.00,3356.3460,N,11950.4358,W,1,08,1.0,5.0,M,-34.0,M,,*57
$PYRTM,2024,122.724314382419,13.833961792558
$GPGGA,172259.00,3356.3462,N,11950.4330,W,1,09,1.0,6.2,M,-34.0,M,,*5A
$PYRTM,2024,122.724325965729,13.833973375868
$GPGGA,172300.00,3356.3465,N,11950.4301,W,1,09,1.0,6.2,M,-34.0,M,,*52
$PYRTM,2024,122.724337531146,13.833984941285
$GPGGA,172301.00,3356.3467,N,11950.4272,W,1,09,1.0,6.9,M,-34.0,M,,*5F
$PYRTM,2024,122.724349118692,13.833996528831
$GPGGA,172302.00,3356.3471,N,11950.4243,W,1,09,1.0,8.5,M,-34.0,M,,*5B
$PYRTM,2024,122.724360678993,13.834008089132
$GPGGA,172303.00,3356.3476,N,11950.4215,W,1,09,1.0,9.0,M,-34.0,M,,*5A
$PYRTM,2024,122.724372383218,13.834019793368
$GPGGA,172304.00,3356.3480,N,11950.4188,W,1,09,1.0,11.7,M,-34.0,M,,*6D
$PYRTM,2024,122.724383957731,13.834031367882
$GPGGA,172305.00,3356.3483,N,11950.4162,W,1,09,1.0,11.6,M,-34.0,M,,*6A
$PYRTM,2024,122.724395531053,13.834042941192
$GPGGA,172306.00,3356.3485,N,11950.4136,W,1,09,1.0,10.4,M,-34.0,M,,*6D
$PYRTM,2024,122.724406975069,13.834054385208
$GPGGA,172307.00,3356.3487,N,11950.4108,W,1,09,1.0,9.4,M,-34.0,M,,*5B
$PYRTM,2024,122.724418563414,13.834065973553
$GPGGA,172308.00,3356.3490,N,11950.4081,W,1,09,1.0,9.4,M,-34.0,M,,*52
$PYRTM,2024,122.724430125012,13.834077535150
$GPGGA,172309.00,3356.3494,N,11950.4053,W,1,09,1.0,6.6,M,-34.0,M,,*55
$PYRTM,2024,122.724441712315,13.834089122454
$GPGGA,172310.00,3356.3498,N,11950.4025,W,1,09,1.0,7.3,M,-34.0,M,,*54
$PYRTM,2024,122.724453271829,13.834100681968
$GPGGA,172311.00,3356.3501,N,11950.3998,W,1,09,1.0,7.6,M,-34.0,M,,*59
$PYRTM,2024,122.724464860208,13.834112270347
$GPGGA,172312.00,3356.3504,N,11950.3971,W,1,09,1.0,9.2,M,-34.0,M,,*52
$PYRTM,2024,122.724476421238,13.834123831377
$GPGGA,172313.00,3356.3508,N,11950.3945,W,1,09,1.0,8.0,M,-34.0,M,,*5B
$PYRTM,2024,122.724488120845,13.834135530984
$GPGGA,172314.00,3356.3512,N,11950.3919,W,1,09,1.0,10.5,M,-34.0,M,,*62
$PYRTM,2024,122.724499687095,13.834147097234
$GPGGA,172315.00,3356.3516,N,11950.3893,W,1,09,1.0,11.9,M,-34.0,M,,*69
$PYRTM,2024,122.724512300903,13.834159711042
$GPGGA,172316.00,3356.3519,N,11950.3867,W,1,09,1.0,9.6,M,-34.0,M,,*58
$PYRTM,2024,122.724525035104,13.834172445243
$GPGGA,172317.00,3356.3521,N,11950.3841,W,1,09,1.0,10.0,M,-34.0,M,,*68
$PYRTM,2024,122.724534420347,13.834181830486
$GPGGA,172318.00,3356.3524,N,11950.3814,W,1,09,1.0,10.3,M,-34.0,M,,*61
$PYRTM,2024,122.724545997141,13.834193407280
$GPGGA,172319.00,3356.3528,N,11950.3788,W,1,09,1.0,8.9,M,-34.0,M,,*55
$PYRTM,2024,122.724557568449,13.834204978588
$GPGGA,172320.00,3356.3531,N,11950.3762,W,1,09,1.0,8.0,M,-34.0,M,,*5A
$PYRTM,2024,122.724568220741,13.834215630880
$GPGGA,172321.00,3356.3534,N,11950.3736,W,1,09,1.0,3.5,M,-34.0,M,,*51
$PYRTM,2024,122.724581051377,13.834228461516
$GPGGA,172322.00,3356.3538,N,11950.3709,W,1,09,1.0,4.3,M,-34.0,M,,*53
$PYRTM,2024,122.724590782222,13.834238192373
$GPGGA,172323.00,3356.3542,N,11950.3681,W,1,09,1.0,6.3,M,-34.0,M,,*5C
$PYRTM,2024,122.724601785127,13.834249195266
$GPGGA,172324.00,3356.3546,N,11950.3654,W,1,09,1.0,6.5,M,-34.0,M,,*51
$PYRTM,2024,122.724612894225,13.834260304375
$GPGGA,172325.00,3356.3549,N,11950.3627,W,1,09,1.0,8.9,M,-34.0,M,,*59
$PYRTM,2024,122.724623910775,13.834271320914
$GPGGA,172326.00,3356.3552,N,11950.3600,W,1,09,1.0,8.9,M,-34.0,M,,*55
$PYRTM,2024,122.724635002338,13.834282412477
$GPGGA,172327.00,3356.3554,N,11950.3573,W,1,09,1.0,7.6,M,-34.0,M,,*55
$PYRTM,2024,122.724646458333,13.834293868472
$GPGGA,172328.00,3356.3555,N,11950.3546,W,1,09,1.0,7.7,M,-34.0,M,,*5C
$PYRTM,2024,122.724657448669,13.834304858808
$GPGGA,172329.00,3356.3557,N,11950.3518,W,1,09,1.0,8.0,M,-34.0,M,,*5C
$PYRTM,2024,122.724668564444,13.834315974583
$GPGGA,172330.00,3356.3561,N,11950.3489,W,1,09,1.0,7.1,M,-34.0,M,,*56
$PYRTM,2024,122.724679561319,13.834326971458
$GPGGA,172331.00,3356.3565,N,11950.3460,W,1,09,1.0,7.0,M,-34.0,M,,*55
$PYRTM,2024,122.724691123009,13.834338533160
$GPGGA,172332.00,3356.3568,N,11950.3432,W,1,09,1.0,6.1,M,-34.0,M,,*5C
$PYRTM,2024,122.724702708889,13.834350119028
$GPGGA,172333.00,3356.3569,N,11950.3404,W,1,09,1.0,9.8,M,-34.0,M,,*5F
$PYRTM,2024,122.724714270671,13.834361680810
$GPGGA,172334.00,3356.3571,N,11950.3377,W,1,09,1.0,12.9,M,-34.0,M,,*69
$PYRTM,2024,122.724725860856,13.834373270995
$GPGGA,172335.00,3356.3574,N,11950.3350,W,1,09,1.0,14.5,M,-34.0,M,,*62
$PYRTM,2024,122.724737418125,13.834384828264
$GPGGA,172336.00,3356.3575,N,11950.3323,W,1,09,1.0,12.3,M,-34.0,M,,*64
$PYRTM,2024,122.724749006088,13.834396416238
$GPGGA,172337.00,3356.3576,N,11950.3295,W,1,09,1.0,12.5,M,-34.0,M,,*6C
$PYRTM,2024,122.724760566227,13.834407976366
$GPGGA,172338.00,3356.3578,N,11950.3266,W,1,09,1.0,9.6,M,-34.0,M,,*58
$PYRTM,2024,122.724772157778,13.834419567917
$GPGGA,172339.00,3356.3580,N,11950.3238,W,1,09,1.0,11.4,M,-34.0,M,,*6E
$PYRTM,2024,122.724783715347,13.834431125486
$GPGGA,172340.00,3356.3584,N,11950.3210,W,1,09,1.0,11.4,M,-34.0,M,,*6E
$PYRTM,2024,122.724795297257,13.834442707396
$GPGGA,172341.00,3356.3587,N,11950.3182,W,1,09,1.0,9.7,M,-34.0,M,,*5E
$PYRTM,2024,122.724806863437,13.834454273576
$GPGGA,172342.00,3356.3590,N,11950.3156,W,1,09,1.0,9.5,M,-34.0,M,,*50
$PYRTM,2024,122.724818453704,13.834465863843
$GPGGA,172343.00,3356.3593,N,11950.3129,W,1,09,1.0,8.5,M,-34.0,M,,*5B
$PYRTM,2024,122.724830012488,13.834477422627
$GPGGA,172344.00,3356.3596,N,11950.3103,W,1,09,1.0,9.4,M,-34.0,M,,*51
$PYRTM,2024,122.724841594630,13.834489004769
$GPGGA,172345.00,3356.3600,N,11950.3077,W,1,09,1.0,10.4,M,-34.0,M,,*66
$PYRTM,2024,122.724853160174,13.834500570324
$GPGGA,172346.00,3356.3603,N,11950.3050,W,1,09,1.0,7.1,M,-34.0,M,,*50
$PYRTM,2024,122.724868900231,13.834516310370
$GPGGA,172347.00,3356.3605,N,11950.3024,W,1,09,1.0,6.5,M,-34.0,M,,*51
$PYRTM,2024,122.724880487083,13.834527897222
$GPGGA,172348.00,3356.3607,N,11950.2997,W,1,09,1.0,6.3,M,-34.0,M,,*5A
$PYRTM,2024,122.724892049745,13.834539459884
$GPGGA,172349.00,3356.3609,N,11950.2970,W,1,09,1.0,9.2,M,-34.0,M,,*52
$PYRTM,2024,122.724903630544,13.834551040683
$GPGGA,172350.00,3356.3612,N,11950.2942,W,1,09,1.0,7.1,M,-34.0,M,,*5C
$PYRTM,2024,122.724915197338,13.834562607477
$GPGGA,172351.00,3356.3616,N,11950.2915,W,1,09,1.0,9.8,M,-34.0,M,,*5C
$PYRTM,2024,122.724926783981,13.834574194120
$GPGGA,172352.00,3356.3619,N,11950.2888,W,1,09,1.0,9.4,M,-34.0,M,,*59
$PYRTM,2024,122.724938345532,13.834585755671
$GPGGA,172353.00,3356.3621,N,11950.2860,W,1,09,1.0,10.0,M,-34.0,M,,*69
$PYRTM,2024,122.724949934676,13.834597344815
$GPGGA,172354.00,3356.3623,N,11950.2832,W,1,09,1.0,10.8,M,-34.0,M,,*63
$PYRTM,2024,122.724961495856,13.834608906007
$GPGGA,172355.00,3356.3626,N,11950.2805,W,1,09,1.0,11.1,M,-34.0,M,,*6B
$PYRTM,2024,122.724973082616,13.834620492755
$GPGGA,172356.00,3356.3629,N,11950.2778,W,1,09,1.0,10.4,M,-34.0,M,,*66
$PYRTM,2024,122.724984642963,13.834632053102
$GPGGA,172357.00,3356.3632,N,11950.2751,W,1,09,1.0,9.9,M,-34.0,M,,*53
$PYRTM,2024,122.724996679271,13.834644089410
$GPGGA,172358.00,3356.3634,N,11950.2725,W,1,09,1.0,9.3,M,-34.0,M,,*53
$PYRTM,2024,122.725007789132,13.834655199271
$GPGGA,172359.00,3356.3635,N,11950.2697,W,1,09,1.0,9.3,M,-34.0,M,,*5B
$PYRTM,2024,122.725019377095,13.834666787234
$GPGGA,172400.00,3356.3636,N,11950.2670,W,1,09,1.0,7.7,M,-34.0,M,,*50
$PYRTM,2024,122.725030937870,13.834678348009
$GPGGA,172401.00,3356.3639,N,11950.2642,W,1,09,1.0,10.0,M,-34.0,M,,*6E
$PYRTM,2024,122.725042527963,13.834689938102
$GPGGA,172402.00,3356.3643,N,11950.2615,W,1,09,1.0,12.8,M,-34.0,M,,*68
$PYRTM,2024,122.725054087847,13.834701497986
$GPGGA,172403.00,3356.3647,N,11950.2587,W,1,09,1.0,11.2,M,-34.0,M,,*6C
$PYRTM,2024,122.725065676250,13.834713086389
$GPGGA,172404.00,3356.3648,N,11950.2560,W,1,09,1.0,12.8,M,-34.0,M,,*64
$PYRTM,2024,122.725077235150,13.834724645289
$GPGGA,172405.00,3356.3649,N,11950.2533,W,1,09,1.0,10.0,M,-34.0,M,,*68
$PYRTM,2024,122.725088818738,13.834736228877
$GPGGA,172406.00,3356.3652,N,11950.2505,W,1,09,1.0,7.9,M,-34.0,M,,*5B
$PYRTM,2024,122.725100383958,13.834747794097
$GPGGA,172407.00,3356.3654,N,11950.2478,W,1,09,1.0,9.1,M,-34.0,M,,*51
$PYRTM,2024,122.725111970532,13.834759380671
$GPGGA,172408.00,3356.3657,N,11950.2452,W,1,09,1.0,8.8,M,-34.0,M,,*5D
$PYRTM,2024,122.725123531169,13.834770941308
$GPGGA,172409.00,3356.3661,N,11950.2425,W,1,09,1.0,9.4,M,-34.0,M,,*54
$PYRTM,2024,122.725135113576,13.834782523727
$GPGGA,172410.00,3356.3665,N,11950.2399,W,1,09,1.0,7.1,M,-34.0,M,,*53
$PYRTM,2024,122.725146680706,13.834794090845
$GPGGA,172411.00,3356.3669,N,11950.2371,W,1,09,1.0,10.1,M,-34.0,M,,*6E
$PYRTM,2024,122.725158270903,13.834805681042
$GPGGA,172412.00,3356.3672,N,11950.2343,W,1,09,1.0,11.6,M,-34.0,M,,*60
$PYRTM,2024,122.725169828438,13.834817238576
$GPGGA,172413.00,3356.3673,N,11950.2315,W,1,09,1.0,11.0,M,-34.0,M,,*65
$PYRTM,2024,122.725181418738,13.834828828877
$GPGGA,172414.00,3356.3673,N,11950.2286,W,1,09,1.0,10.8,M,-34.0,M,,*60
$PYRTM,2024,122.725192976111,13.834840386250
$GPGGA,172415.00,3356.3674,N,11950.2258,W,1,09,1.0,12.0,M,-34.0,M,,*6F
$PYRTM,2024,122.725205720475,13.834853130613
$GPGGA,172416.00,3356.3676,N,11950.2232,W,1,09,1.0,8.1,M,-34.0,M,,*58
$PYRTM,2024,122.725217164873,13.834864575012
$GPGGA,172417.00,3356.3679,N,11950.2206,W,1,09,1.0,6.0,M,-34.0,M,,*5E
$PYRTM,2024,122.725228752639,13.834876162778
$GPGGA,172418.00,3356.3682,N,11950.2179,W,1,09,1.0,6.5,M,-34.0,M,,*5B
$PYRTM,2024,122.725240313461,13.834887723600
$GPGGA,172419.00,3356.3686,N,11950.2151,W,1,09,1.0,7.3,M,-34.0,M,,*53
$PYRTM,2024,122.725251902095,13.834899312234
$GPGGA,172420.00,3356.3690,N,11950.2123,W,1,09,1.0,6.2,M,-34.0,M,,*5B
$PYRTM,2024,122.725263461806,13.834910871944
$GPGGA,172421.00,3356.3693,N,11950.2095,W,1,09,1.0,7.5,M,-34.0,M,,*53
$PYRTM,2024,122.725275050313,13.834922460451
$GPGGA,172422.00,3356.3696,N,11950.2068,W,1,09,1.0,8.6,M,-34.0,M,,*5B
$PYRTM,2024,122.725286609954,13.834934020093
$GPGGA,172423.00,3356.3698,N,11950.2040,W,1,09,1.0,8.0,M,-34.0,M,,*58
$PYRTM,2024,122.725298193391,13.834945603530
$GPGGA,172424.00,3356.3701,N,11950.2012,W,1,09,1.0,5.2,M,-34.0,M,,*56
$PYRTM,2024,122.725309757465,13.834957167604
$GPGGA,172425.00,3356.3704,N,11950.1985,W,1,09,1.0,6.1,M,-34.0,M,,*56
$PYRTM,2024,122.725321796157,13.834969206296
$GPGGA,172426.00,3356.3706,N,11950.1958,W,1,09,1.0,5.9,M,-34.0,M,,*5C
$PYRTM,2024,122.725332905810,13.834980315949
$GPGGA,172427.00,3356.3708,N,11950.1932,W,1,09,1.0,4.6,M,-34.0,M,,*51
$PYRTM,2024,122.725344946042,13.834992356181
$GPGGA,172428.00,3356.3712,N,11950.1905,W,1,09,1.0,4.8,M,-34.0,M,,*5F
$PYRTM,2024,122.725356054086,13.835003464236
$GPGGA,172429.00,3356.3714,N,11950.1879,W,1,09,1.0,6.3,M,-34.0,M,,*5B
$PYRTM,2024,122.725367644398,13.835015054537
$GPGGA,172430.00,3356.3716,N,11950.1852,W,1,09,1.0,6.8,M,-34.0,M,,*53
$PYRTM,2024,122.725379202269,13.835026612407
$GPGGA,172431.00,3356.3718,N,11950.1825,W,1,09,1.0,5.3,M,-34.0,M,,*54
$PYRTM,2024,122.725390791412,13.835038201563
$GPGGA,172432.00,3356.3720,N,11950.1798,W,1,09,1.0,5.2,M,-34.0,M,,*54
$PYRTM,2024,122.725402351019,13.835049761157
$GPGGA,172433.00,3356.3723,N,11950.1770,W,1,09,1.0,7.4,M,-34.0,M,,*54
$PYRTM,2024,122.725413939178,13.835061349329
$GPGGA,172434.00,3356.3725,N,11950.1743,W,1,09,1.0,5.3,M,-34.0,M,,*50
$PYRTM,2024,122.725425499178,13.835072909317
$GPGGA,172435.00,3356.3729,N,11950.1715,W,1,09,1.0,4.3,M,-34.0,M,,*5F
$PYRTM,2024,122.725437089051,13.835084499190
$GPGGA,172436.00,3356.3732,N,11950.1687,W,1,09,1.0,4.6,M,-34.0,M,,*59
$PYRTM,2024,122.725448648218,13.835096058356
$GPGGA,172437.00,3356.3737,N,11950.1661,W,1,09,1.0,2.8,M,-34.0,M,,*5D
$PYRTM,2024,122.725460236273,13.835107646412
$GPGGA,172438.00,3356.3741,N,11950.1635,W,1,09,1.0,2.4,M,-34.0,M,,*5E
$PYRTM,2024,122.725471796366,13.835119206505
$GPGGA,172439.00,3356.3745,N,11950.1610,W,1,09,1.0,2.2,M,-34.0,M,,*5A
$PYRTM,2024,122.725483378692,13.835130788831
$GPGGA,172440.00,3356.3748,N,11950.1583,W,1,09,1.0,2.1,M,-34.0,M,,*53
$PYRTM,2024,122.725494945093,13.835142355231
$GPGGA,172441.00,3356.3750,N,11950.1557,W,1,09,1.0,3.5,M,-34.0,M,,*57
$PYRTM,2024,122.725506532951,13.835153943090
$GPGGA,172442.00,3356.3752,N,11950.1531,W,1,09,1.0,6.1,M,-34.0,M,,*57
$PYRTM,2024,122.725518091817,13.835165501956
$GPGGA,172443.00,3356.3754,N,11950.1503,W,1,09,1.0,4.3,M,-34.0,M,,*51
$PYRTM,2024,122.725529681424,13.835177091563
$GPGGA,172444.00,3356.3756,N,11950.1474,W,1,09,1.0,7.5,M,-34.0,M,,*50
$PYRTM,2024,122.725541242766,13.835188652905
$GPGGA,172445.00,3356.3759,N,11950.1447,W,1,09,1.0,6.8,M,-34.0,M,,*52
$PYRTM,2024,122.725553974699,13.835201384838
$GPGGA,172446.00,3356.3762,N,11950.1418,W,1,09,1.0,6.7,M,-34.0,M,,*5C
$PYRTM,2024,122.725566705856,13.835214116007
$GPGGA,172447.00,3356.3765,N,11950.1389,W,1,09,1.0,10.0,M,-34.0,M,,*65
$PYRTM,2024,122.725575978032,13.835223388171
$GPGGA,172448.00,3356.3767,N,11950.1361,W,1,09,1.0,7.5,M,-34.0,M,,*5D
$PYRTM,2024,122.725587536181,13.835234946319
$GPGGA,172449.00,3356.3769,N,11950.1333,W,1,09,1.0,7.7,M,-34.0,M,,*57
$PYRTM,2024,122.725599125984,13.835246536123
$GPGGA,172450.00,3356.3771,N,11950.1306,W,1,09,1.0,6.3,M,-34.0,M,,*55
$PYRTM,2024,122.725610684387,13.835258094525
$GPGGA,172451.00,3356.3774,N,11950.1279,W,1,09,1.0,9.1,M,-34.0,M,,*55
$PYRTM,2024,122.725622273310,13.835269683449
$GPGGA,172452.00,3356.3778,N,11950.1251,W,1,09,1.0,8.8,M,-34.0,M,,*58
$PYRTM,2024,122.725633833264,13.835281243403
$GPGGA,172453.00,3356.3783,N,11950.1225,W,1,09,1.0,7.5,M,-34.0,M,,*5C
$PYRTM,2024,122.725645421181,13.835292831319
$GPGGA,172454.00,3356.3784,N,11950.1197,W,1,09,1.0,6.7,M,-34.0,M,,*55
$PYRTM,2024,122.725656980613,13.835304390752
$GPGGA,172455.00,3356.3785,N,11950.1169,W,1,09,1.0,8.3,M,-34.0,M,,*5E
$PYRTM,2024,122.725668570880,13.835315981007
$GPGGA,172456.00,3356.3788,N,11950.1141,W,1,09,1.0,6.8,M,-34.0,M,,*5F
$PYRTM,2024,122.725680130891,13.835327541030
$GPGGA,172457.00,3356.3792,N,11950.1115,W,1,09,1.0,7.0,M,-34.0,M,,*5D
$PYRTM,2024,122.725692167569,13.835339577708
$GPGGA,172458.00,3356.3795,N,11950.1089,W,1,09,1.0,7.4,M,-34.0,M,,*55
$PYRTM,2024,122.725703278148,13.835350688287
$GPGGA,172459.00,3356.3798,N,11950.1062,W,1,09,1.0,7.8,M,-34.0,M,,*50
$PYRTM,2024,122.725714866817,13.835362276956
$GPGGA,172500.00,3356.3800,N,11950.1035,W,1,09,1.0,6.6,M,-34.0,M,,*5E
$PYRTM,2024,122.725726427870,13.835373838009
$GPGGA,172501.00,3356.3802,N,11950.1008,W,1,09,1.0,6.4,M,-34.0,M,,*51
$PYRTM,2024,122.725738010509,13.835385420648
$GPGGA,172502.00,3356.3805,N,11950.0979,W,1,09,1.0,6.7,M,-34.0,M,,*58
$PYRTM,2024,122.725749575336,13.835396985475
$GPGGA,172503.00,3356.3807,N,11950.0951,W,1,09,1.0,5.3,M,-34.0,M,,*56
$PYRTM,2024,122.725761163194,13.835408573333
$GPGGA,172504.00,3356.3810,N,11950.0923,W,1,09,1.0,6.5,M,-34.0,M,,*57
$PYRTM,2024,122.725772726076,13.835420136227
$GPGGA,172505.00,3356.3813,N,11950.0895,W,1,09,1.0,7.6,M,-34.0,M,,*5B
$PYRTM,2024,122.725784311678,13.835431721817
$GPGGA,172506.00,3356.3816,N,11950.0866,W,1,09,1.0,7.0,M,-34.0,M,,*57
$PYRTM,2024,122.725795873090,13.835443283229
$GPGGA,172507.00,3356.3820,N,11950.0838,W,1,09,1.0,7.8,M,-34.0,M,,*50
$PYRTM,2024,122.725807460938,13.835454871076
$GPGGA,172508.00,3356.3822,N,11950.0810,W,1,09,1.0,8.1,M,-34.0,M,,*51
$PYRTM,2024,122.725819021100,13.835466431250
$GPGGA,172509.00,3356.3826,N,11950.0782,W,1,09,1.0,9.4,M,-34.0,M,,*54
$PYRTM,2024,122.725830711551,13.835478121678
$GPGGA,172510.00,3356.3830,N,11950.0754,W,1,09,1.0,10.1,M,-34.0,M,,*6D
$PYRTM,2024,122.725842286053,13.835489696204
$GPGGA,172511.00,3356.3833,N,11950.0727,W,1,09,1.0,11.0,M,-34.0,M,,*6B
$PYRTM,2024,122.725853756655,13.835501166794
$GPGGA,172512.00,3356.3835,N,11950.0699,W,1,09,1.0,9.7,M,-34.0,M,,*54
$PYRTM,2024,122.725865434444,13.835512844583
$GPGGA,172513.00,3356.3836,N,11950.0672,W,1,09,1.0,10.2,M,-34.0,M,,*6E
$PYRTM,2024,122.725877008229,13.835524418380
$GPGGA,172514.00,3356.3838,N,11950.0644,W,1,09,1.0,10.8,M,-34.0,M,,*68
$PYRTM,2024,122.725888466470,13.835535876609
$GPGGA,172515.00,3356.3840,N,11950.0616,W,1,09,1.0,9.4,M,-34.0,M,,*55
$PYRTM,2024,122.725901668206,13.835549078345
$GPGGA,172516.00,3356.3843,N,11950.0588,W,1,09,1.0,12.2,M,-34.0,M,,*6D
$PYRTM,2024,122.725913931319,13.835561341470
$GPGGA,172517.00,3356.3846,N,11950.0560,W,1,09,1.0,11.4,M,-34.0,M,,*6A
$PYRTM,2024,122.725923200903,13.835570611042
$GPGGA,172518.00,3356.3847,N,11950.0533,W,1,09,1.0,8.9,M,-34.0,M,,*57
$PYRTM,2024,122.725934761493,13.835582171632
$GPGGA,172519.00,3356.3850,N,11950.0506,W,1,09,1.0,8.6,M,-34.0,M,,*59
$PYRTM,2024,122.725946348912,13.835593759051
$GPGGA,172520.00,3356.3854,N,11950.0479,W,1,09,1.0,9.2,M,-34.0,M,,*5B
$PYRTM,2024,122.725957908380,13.835605318519
$GPGGA,172521.00,3356.3860,N,11950.0452,W,1,09,1.0,9.9,M,-34.0,M,,*5F
$PYRTM,2024,122.725969612882,13.835617023021
$GPGGA,172522.00,3356.3863,N,11950.0425,W,1,09,1.0,11.3,M,-34.0,M,,*6C
$PYRTM,2024,122.725981187581,13.835628597720
$GPGGA,172523.00,3356.3866,N,11950.0397,W,1,09,1.0,11.4,M,-34.0,M,,*61
$PYRTM,2024,122.725992647234,13.835640057373
$GPGGA,172524.00,3356.3866,N,11950.0368,W,1,09,1.0,9.6,M,-34.0,M,,*5D
$PYRTM,2024,122.726004338900,13.835651749039
$GPGGA,172525.00,3356.3867,N,11950.0339,W,1,09,1.0,10.4,M,-34.0,M,,*63
$PYRTM,2024,122.726014983843,13.835662393993
$GPGGA,172526.00,3356.3870,N,11950.0309,W,1,09,1.0,10.3,M,-34.0,M,,*62
$PYRTM,2024,122.726027948310,13.835675358449
$GPGGA,172527.00,3356.3873,N,11950.0281,W,1,09,1.0,10.9,M,-34.0,M,,*6B
$PYRTM,2024,122.726038591169,13.835686001308
$GPGGA,172528.00,3356.3876,N,11950.0253,W,1,09,1.0,9.9,M,-34.0,M,,*56
$PYRTM,2024,122.726050053241,13.835697463380
$GPGGA,172529.00,3356.3879,N,11950.0226,W,1,09,1.0,9.8,M,-34.0,M,,*5B
$PYRTM,2024,122.726061053681,13.835708463819
$GPGGA,172530.00,3356.3882,N,11950.0200,W,1,09,1.0,7.0,M,-34.0,M,,*55
$PYRTM,2024,122.726072161620,13.835719571759
$GPGGA,172531.00,3356.3884,N,11950.0175,W,1,10,0.8,7.2,M,-34.0,M,,*50
$PYRTM,2024,122.726083155845,13.835730565995
$GPGGA,172532.00,3356.3886,N,11950.0148,W,1,10,0.8,6.9,M,-34.0,M,,*55
$PYRTM,2024,122.726094268576,13.835741678715
$GPGGA,172533.00,3356.3889,N,11950.0122,W,1,10,0.8,8.3,M,-34.0,M,,*53
$PYRTM,2024,122.726105258171,13.835752668310
$GPGGA,172534.00,3356.3891,N,11950.0095,W,1,10,0.8,6.8,M,-34.0,M,,*55
$PYRTM,2024,122.726116377396,13.835763787535
$GPGGA,172535.00,3356.3893,N,11950.0068,W,1,10,0.8,6.2,M,-34.0,M,,*5E
$PYRTM,2024,122.726127355914,13.835774766053
$GPGGA,172536.00,3356.3896,N,11950.0040,W,1,10,0.8,5.3,M,-34.0,M,,*50
$PYRTM,2024,122.726138352396,13.835785762546
$GPGGA,172537.00,3356.3899,N,11950.0012,W,1,10,0.8,7.6,M,-34.0,M,,*5E
$PYRTM,2024,122.726149468426,13.835796878565
$GPGGA,172538.00,3356.3901,N,11949.9983,W,1,10,0.8,8.6,M,-34.0,M,,*5E
$PYRTM,2024,122.726163943426,13.835811353576
$GPGGA,172539.00,3356.3904,N,11949.9954,W,1,10,0.8,11.4,M,-34.0,M,,*6A
$PYRTM,2024,122.726174941620,13.835822351759
$GPGGA,172540.00,3356.3906,N,11949.9927,W,1,10,0.8,7.2,M,-34.0,M,,*53
$PYRTM,2024,122.726185934734,13.835833344873
$GPGGA,172541.00,3356.3910,N,11949.9901,W,1,10,0.8,8.0,M,-34.0,M,,*5C
$PYRTM,2024,122.726197049005,13.835844459144
$GPGGA,172542.00,3356.3914,N,11949.9874,W,1,10,0.8,9.1,M,-34.0,M,,*58
$PYRTM,2024,122.726208040822,13.835855450961
$GPGGA,172543.00,3356.3917,N,11949.9848,W,1,10,0.8,10.1,M,-34.0,M,,*6D
$PYRTM,2024,122.726222496042,13.835869906181
$GPGGA,172544.00,3356.3919,N,11949.9820,W,1,10,0.8,7.3,M,-34.0,M,,*5E
$PYRTM,2024,122.726233505544,13.835880915683
$GPGGA,172545.00,3356.3921,N,11949.9792,W,1,10,0.8,8.1,M,-34.0,M,,*5F
$PYRTM,2024,122.726244614861,13.835892025000
$GPGGA,172546.00,3356.3923,N,11949.9764,W,1,10,0.8,9.1,M,-34.0,M,,*56
$PYRTM,2024,122.726259082315,13.835906492454
$GPGGA,172547.00,3356.3926,N,11949.9736,W,1,10,0.8,7.0,M,-34.0,M,,*5A
$PYRTM,2024,122.726270193414,13.835917603553
$GPGGA,172548.00,3356.3931,N,11949.9708,W,1,10,0.8,7.8,M,-34.0,M,,*56
$PYRTM,2024,122.726281192650,13.835928602789
$GPGGA,172549.00,3356.3935,N,11949.9681,W,1,10,0.8,5.4,M,-34.0,M,,*5D
$PYRTM,2024,122.726292527060,13.835939937199
$GPGGA,172550.00,3356.3939,N,11949.9653,W,1,10,0.8,5.5,M,-34.0,M,,*57
$PYRTM,2024,122.726304093438,13.835951503576
$GPGGA,172551.00,3356.3942,N,11949.9626,W,1,10,0.8,4.6,M,-34.0,M,,*5A
$PYRTM,2024,122.726315683009,13.835963093148
$GPGGA,172552.00,3356.3946,N,11949.9598,W,1,10,0.8,3.2,M,-34.0,M,,*58
$PYRTM,2024,122.726327240926,13.835974651065
$GPGGA,172553.00,3356.3951,N,11949.9571,W,1,10,0.8,5.8,M,-34.0,M,,*54
$PYRTM,2024,122.726338822940,13.835986233090
$GPGGA,172554.00,3356.3955,N,11949.9543,W,1,10,0.8,5.2,M,-34.0,M,,*5C
$PYRTM,2024,122.726350391701,13.835997801852
$GPGGA,172555.00,3356.3958,N,11949.9514,W,1,10,0.8,4.7,M,-34.0,M,,*56
$PYRTM,2024,122.726361976505,13.836009386644
$GPGGA,172556.00,3356.3958,N,11949.9486,W,1,10,0.8,7.8,M,-34.0,M,,*53
$PYRTM,2024,122.726373538403,13.836020948542
$GPGGA,172557.00,3356.3960,N,11949.9459,W,1,10,0.8,5.3,M,-34.0,M,,*52
$PYRTM,2024,122.726385575405,13.836032985556
$GPGGA,172558.00,3356.3964,N,11949.9431,W,1,10,0.8,6.4,M,-34.0,M,,*53
$PYRTM,2024,122.726396688160,13.836044098299
$GPGGA,172559.00,3356.3968,N,11949.9404,W,1,10,0.8,4.2,M,-34.0,M,,*5C
$PYRTM,2024,122.726408269051,13.836055679201
$GPGGA,172600.00,3356.3974,N,11949.9377,W,1,10,0.8,3.5,M,-34.0,M,,*5D
$PYRTM,2024,122.726419834664,13.836067244803
$GPGGA,172601.00,3356.3979,N,11949.9350,W,1,10,0.8,1.3,M,-34.0,M,,*50
$PYRTM,2024,122.726431416620,13.836078826759
$GPGGA,172602.00,3356.3983,N,11949.9323,W,1,10,0.8,0.7,M,-34.0,M,,*57
$PYRTM,2024,122.726442984410,13.836090394549
$GPGGA,172603.00,3356.3987,N,11949.9297,W,1,10,0.8,1.8,M,-34.0,M,,*52
$PYRTM,2024,122.726454569977,13.836101980116
$GPGGA,172604.00,3356.3991,N,11949.9270,W,1,10,0.8,1.6,M,-34.0,M,,*55
$PYRTM,2024,122.726466130741,13.836113540880
$GPGGA,172605.00,3356.3994,N,11949.9241,W,1,10,0.8,2.7,M,-34.0,M,,*51
$PYRTM,2024,122.726478171285,13.836125581424
$GPGGA,172606.00,3356.3996,N,11949.9213,W,1,10,0.8,1.5,M,-34.0,M,,*56
$PYRTM,2024,122.726489280278,13.836136690428
$GPGGA,172607.00,3356.3998,N,11949.9184,W,1,10,0.8,0.6,M,-34.0,M,,*56
$PYRTM,2024,122.726500868241,13.836148278380
$GPGGA,172608.00,3356.4001,N,11949.9155,W,1,10,0.8,-0.1,M,-34.0,M,,*71
$PYRTM,2024,122.726512428252,13.836159838391
$GPGGA,172609.00,3356.4005,N,11949.9126,W,1,10,0.8,2.4,M,-34.0,M,,*5A
$PYRTM,2024,122.726524018356,13.836171428495
$GPGGA,172610.00,3356.4009,N,11949.9098,W,1,10,0.8,3.1,M,-34.0,M,,*5E
$PYRTM,2024,122.726535577130,13.836182987269
$GPGGA,172611.00,3356.4012,N,11949.9071,W,1,10,0.8,3.0,M,-34.0,M,,*53
$PYRTM,2024,122.726547166111,13.836194576250
$GPGGA,172612.00,3356.4015,N,11949.9044,W,1,10,0.8,2.4,M,-34.0,M,,*54
$PYRTM,2024,122.726558726574,13.836206136713
$GPGGA,172613.00,3356.4016,N,11949.9017,W,1,10,0.8,1.9,M,-34.0,M,,*5E
$PYRTM,2024,122.726570314653,13.836217724792
$GPGGA,172614.00,3356.4020,N,11949.8990,W,1,10,0.8,3.3,M,-34.0,M,,*53
$PYRTM,2024,122.726581873044,13.836229283183
$GPGGA,172615.00,3356.4023,N,11949.8963,W,1,10,0.8,3.4,M,-34.0,M,,*5A
$PYRTM,2024,122.726594616528,13.836242026667
$GPGGA,172616.00,3356.4026,N,11949.8934,W,1,10,0.8,4.6,M,-34.0,M,,*5B
$PYRTM,2024,122.726606060937,13.836253471088
$GPGGA,172617.00,3356.4027,N,11949.8906,W,1,10,0.8,5.5,M,-34.0,M,,*58
$PYRTM,2024,122.726617649803,13.836265059942
$GPGGA,172618.00,3356.4028,N,11949.8877,W,1,10,0.8,4.2,M,-34.0,M,,*59
$PYRTM,2024,122.726629210752,13.836276620891
$GPGGA,172619.00,3356.4029,N,11949.8849,W,1,10,0.8,4.9,M,-34.0,M,,*5F
$PYRTM,2024,122.726640798113,13.836288208252
$GPGGA,172620.00,3356.4032,N,11949.8821,W,1,10,0.8,5.6,M,-34.0,M,,*5F
$PYRTM,2024,122.726652358148,13.836299768287
$GPGGA,172621.00,3356.4036,N,11949.8793,W,1,10,0.8,7.4,M,-34.0,M,,*5C
$PYRTM,2024,122.726663940648,13.836311350787
$GPGGA,172622.00,3356.4038,N,11949.8767,W,1,10,0.8,9.4,M,-34.0,M,,*54
$PYRTM,2024,122.726675504815,13.836322914954
$GPGGA,172623.00,3356.4040,N,11949.8740,W,1,10,0.8,8.2,M,-34.0,M,,*58
$PYRTM,2024,122.726687094039,13.836334504178
$GPGGA,172624.00,3356.4041,N,11949.8714,W,1,10,0.8,5.0,M,-34.0,M,,*50
$PYRTM,2024,122.726698655810,13.836346065949
$GPGGA,172625.00,3356.4044,N,11949.8687,W,1,10,0.8,6.3,M,-34.0,M,,*5F
$PYRTM,2024,122.726710243067,13.836357653206
$GPGGA,172626.00,3356.4048,N,11949.8660,W,1,10,0.8,8.6,M,-34.0,M,,*52
$PYRTM,2024,122.726721803495,13.836369213634
$GPGGA,172627.00,3356.4049,N,11949.8633,W,1,10,0.8,8.3,M,-34.0,M,,*51
$PYRTM,2024,122.726733840197,13.836381250336
$GPGGA,172628.00,3356.4051,N,11949.8605,W,1,10,0.8,10.4,M,-34.0,M,,*6C
$PYRTM,2024,122.726744951910,13.836392362049
$GPGGA,172629.00,3356.4054,N,11949.8578,W,1,10,0.8,9.7,M,-34.0,M,,*5A
$PYRTM,2024,122.726756650833,13.836404060972
$GPGGA,172630.00,3356.4057,N,11949.8549,W,1,10,0.8,10.8,M,-34.0,M,,*64
$PYRTM,2024,122.726768098993,13.836415509132
$GPGGA,172631.00,3356.4060,N,11949.8522,W,1,10,0.8,9.5,M,-34.0,M,,*59
$PYRTM,2024,122.726779686331,13.836427096470
$GPGGA,172632.00,3356.4064,N,11949.8495,W,1,10,0.8,9.7,M,-34.0,M,,*51
$PYRTM,2024,122.726791246968,13.836438657118
$GPGGA,172633.00,3356.4065,N,11949.8467,W,1,10,0.8,9.2,M,-34.0,M,,*59
$PYRTM,2024,122.726802836505,13.836450246644
$GPGGA,172634.00,3356.4067,N,11949.8439,W,1,10,0.8,9.0,M,-34.0,M,,*55
$PYRTM,2024,122.726814395081,13.836461805220
$GPGGA,172635.00,3356.4070,N,11949.8411,W,1,10,0.8,6.2,M,-34.0,M,,*55
$PYRTM,2024,122.726825983322,13.836473393461
$GPGGA,172636.00,3356.4073,N,11949.8385,W,1,10,0.8,7.3,M,-34.0,M,,*5F
$PYRTM,2024,122.726837544340,13.836484954479
$GPGGA,172637.00,3356.4077,N,11949.8357,W,1,10,0.8,7.1,M,-34.0,M,,*57
$PYRTM,2024,122.726849132523,13.836496542674
$GPGGA,172638.00,3356.4080,N,11949.8330,W,1,10,0.8,7.4,M,-34.0,M,,*54
$PYRTM,2024,122.726860693947,13.836508104086
$GPGGA,172639.00,3356.4083,N,11949.8302,W,1,10,0.8,8.7,M,-34.0,M,,*5B
$PYRTM,2024,122.726872281979,13.836519692118
$GPGGA,172640.00,3356.4084,N,11949.8274,W,1,10,0.8,8.9,M,-34.0,M,,*5C
$PYRTM,2024,122.726883840556,13.836531250694
$GPGGA,172641.00,3356.4087,N,11949.8248,W,1,10,0.8,4.4,M,-34.0,M,,*50
$PYRTM,2024,122.726895435660,13.836542845799
$GPGGA,172642.00,3356.4091,N,11949.8221,W,1,10,0.8,3.5,M,-34.0,M,,*5D
$PYRTM,2024,122.726906989363,13.836554399502
$GPGGA,172643.00,3356.4095,N,11949.8194,W,1,10,0.8,3.1,M,-34.0,M,,*51
$PYRTM,2024,122.726918576377,13.836565986516
$GPGGA,172644.00,3356.4098,N,11949.8166,W,1,10,0.8,3.7,M,-34.0,M,,*50
$PYRTM,2024,122.726930146748,13.836577556887
$GPGGA,172645.00,3356.4101,N,11949.8139,W,1,10,0.8,5.3,M,-34.0,M,,*58
$PYRTM,2024,122.726942870729,13.836590280868
$GPGGA,172646.00,3356.4102,N,11949.8111,W,1,10,0.8,4.5,M,-34.0,M,,*55
$PYRTM,2024,122.726955486192,13.836602896331
$GPGGA,172647.00,3356.4105,N,11949.8083,W,1,10,0.8,3.2,M,-34.0,M,,*59
$PYRTM,2024,122.726964873067,13.836612283206
$GPGGA,172648.00,3356.4106,N,11949.8055,W,1,10,0.8,5.8,M,-34.0,M,,*52
$PYRTM,2024,122.726976435775,13.836623845914
$GPGGA,172649.00,3356.4107,N,11949.8027,W,1,10,0.8,8.2,M,-34.0,M,,*50
$PYRTM,2024,122.726988016574,13.836635426713
$GPGGA,172650.00,3356.4109,N,11949.8000,W,1,10,0.8,7.2,M,-34.0,M,,*5C
$PYRTM,2024,122.726999581331,13.836646991470
$GPGGA,172651.00,3356.4110,N,11949.7971,W,1,10,0.8,6.4,M,-34.0,M,,*52
$PYRTM,2024,122.727011164444,13.836658574595
$GPGGA,172652.00,3356.4111,N,11949.7943,W,1,10,0.8,5.2,M,-34.0,M,,*54
$PYRTM,2024,122.727022729132,13.836670139271
$GPGGA,172653.00,3356.4113,N,11949.7915,W,1,10,0.8,4.8,M,-34.0,M,,*5F
$PYRTM,2024,122.727034318519,13.836681728657
$GPGGA,172654.00,3356.4116,N,11949.7887,W,1,10,0.8,5.2,M,-34.0,M,,*5C
$PYRTM,2024,122.727045877859,13.836693287998
$GPGGA,172655.00,3356.4119,N,11949.7860,W,1,10,0.8,4.6,M,-34.0,M,,*5E
$PYRTM,2024,122.727057916262,13.836705326400
$GPGGA,172656.00,3356.4123,N,11949.7833,W,1,10,0.8,6.5,M,-34.0,M,,*53
$PYRTM,2024,122.727069025602,13.836716435741
$GPGGA,172657.00,3356.4125,N,11949.7806,W,1,10,0.8,5.8,M,-34.0,M,,*5C
$PYRTM,2024,122.727081064699,13.836728474838
$GPGGA,172658.00,3356.4128,N,11949.7779,W,1,10,0.8,5.9,M,-34.0,M,,*58
$PYRTM,2024,122.727092175382,13.836739585521
$GPGGA,172659.00,3356.4130,N,11949.7752,W,1,10,0.8,5.7,M,-34.0,M,,*57
$PYRTM,2024,122.727103764236,13.836751174387
$GPGGA,172700.00,3356.4132,N,11949.7724,W,1,10,0.8,8.4,M,-34.0,M,,*57
$PYRTM,2024,122.727115324132,13.836762734271
$GPGGA,172701.00,3356.4135,N,11949.7696,W,1,10,0.8,8.6,M,-34.0,M,,*5B
$PYRTM,2024,122.727126911748,13.836774321887
$GPGGA,172702.00,3356.4136,N,11949.7667,W,1,10,0.8,6.1,M,-34.0,M,,*5C
$PYRTM,2024,122.727138470312,13.836785880451
$GPGGA,172703.00,3356.4137,N,11949.7638,W,1,10,0.8,6.3,M,-34.0,M,,*54
$PYRTM,2024,122.727150059815,13.836797469965
$GPGGA,172704.00,3356.4140,N,11949.7610,W,1,10,0.8,8.8,M,-34.0,M,,*5C
$PYRTM,2024,122.727161619028,13.836809029167
$GPGGA,172705.00,3356.4144,N,11949.7583,W,1,10,0.8,9.0,M,-34.0,M,,*59
$PYRTM,2024,122.727173202488,13.836820612627
$GPGGA,172706.00,3356.4148,N,11949.7555,W,1,10,0.8,9.2,M,-34.0,M,,*5F
$PYRTM,2024,122.727184770162,13.836832180301
$GPGGA,172707.00,3356.4150,N,11949.7527,W,1,10,0.8,7.1,M,-34.0,M,,*5F
$PYRTM,2024,122.727196355718,13.836843765856
$GPGGA,172708.00,3356.4152,N,11949.7500,W,1,10,0.8,6.7,M,-34.0,M,,*50
$PYRTM,2024,122.727207918032,13.836855328171
$GPGGA,172709.00,3356.4153,N,11949.7473,W,1,10,0.8,8.0,M,-34.0,M,,*5C
$PYRTM,2024,122.727219504641,13.836866914780
$GPGGA,172710.00,3356.4154,N,11949.7446,W,1,10,0.8,7.6,M,-34.0,M,,*5C
$PYRTM,2024,122.727231064792,13.836878474931
$GPGGA,172711.00,3356.4155,N,11949.7419,W,1,10,0.8,8.7,M,-34.0,M,,*58
$PYRTM,2024,122.727242653368,13.836890063507
$GPGGA,172712.00,3356.4156,N,11949.7392,W,1,10,0.8,6.8,M,-34.0,M,,*5D
$PYRTM,2024,122.727254214757,13.836901624896
$GPGGA,172713.00,3356.4159,N,11949.7364,W,1,10,0.8,7.1,M,-34.0,M,,*52
$PYRTM,2024,122.727265801400,13.836913211539
$GPGGA,172714.00,3356.4162,N,11949.7337,W,1,10,0.8,8.7,M,-34.0,M,,*52
$PYRTM,2024,122.727277360903,13.836924771053
$GPGGA,172715.00,3356.4165,N,11949.7310,W,1,10,0.8,7.2,M,-34.0,M,,*5B
$PYRTM,2024,122.727290093924,13.836937504063
$GPGGA,172716.00,3356.4168,N,11949.7283,W,1,10,0.8,5.8,M,-34.0,M,,*56
$PYRTM,2024,122.727302710741,13.836950120880
$GPGGA,172717.00,3356.4171,N,11949.7255,W,1,10,0.8,6.4,M,-34.0,M,,*5B
$PYRTM,2024,122.727312092419,13.836959502569
$GPGGA,172718.00,3356.4174,N,11949.7228,W,1,10,0.8,8.5,M,-34.0,M,,*54
$PYRTM,2024,122.727323656910,13.836971067049
