$PYRTM,2024,126.750011035799,17.859658445938
$GPGGA,175959.00,3358.6969,N,11934.2903,W,1,10,0.8,12.0,M,-33.7,M,,*63
$PYRTM,2024,126.750022144317,17.859669554456
$GPGGA,180000.00,3358.6967,N,11934.2908,W,1,10,0.8,11.8,M,-33.7,M,,*62
$PYRTM,2024,126.750033245775,17.859680655914
$GPGGA,180001.00,3358.6966,N,11934.2914,W,1,10,0.8,10.9,M,-33.7,M,,*6F
$PYRTM,2024,126.750044363287,17.859691773426
$GPGGA,180002.00,3358.6965,N,11934.2919,W,1,10,0.8,10.1,M,-33.7,M,,*6A
$PYRTM,2024,126.750055596516,17.859703006655
$GPGGA,180003.00,3358.6964,N,11934.2925,W,1,10,0.8,9.8,M,-33.7,M,,*54
$PYRTM,2024,126.750066925231,17.859714335370
$GPGGA,180004.00,3358.6962,N,11934.2931,W,1,10,0.8,12.1,M,-33.7,M,,*63
$PYRTM,2024,126.750077110625,17.859724520764
$GPGGA,180005.00,3358.6961,N,11934.2937,W,1,10,0.8,12.0,M,-33.7,M,,*66
$PYRTM,2024,126.750089033681,17.859736443819
$GPGGA,180006.00,3358.6960,N,11934.2942,W,1,10,0.8,12.0,M,-33.7,M,,*66
$PYRTM,2024,126.750101660914,17.859749071053
$GPGGA,180007.00,3358.6959,N,11934.2948,W,1,10,0.8,11.7,M,-33.7,M,,*63
$PYRTM,2024,126.750113221458,17.859760631597
$GPGGA,180008.00,3358.6958,N,11934.2955,W,1,10,0.8,11.3,M,-33.7,M,,*65
$PYRTM,2024,126.750124809016,17.859772219155
$GPGGA,180009.00,3358.6956,N,11934.2960,W,1,10,0.8,11.4,M,-33.7,M,,*6B
$PYRTM,2024,126.750136369907,17.859783780058
$GPGGA,180010.00,3358.6954,N,11934.2965,W,1,10,0.8,11.2,M,-33.7,M,,*62
$PYRTM,2024,126.750147957211,17.859795367361
$GPGGA,180011.00,3358.6953,N,11934.2970,W,1,10,0.8,10.5,M,-33.7,M,,*66
$PYRTM,2024,126.750159518924,17.859806929063
$GPGGA,180012.00,3358.6953,N,11934.2977,W,1,10,0.8,12.0,M,-33.7,M,,*65
$PYRTM,2024,126.750171107083,17.859818517222
$GPGGA,180013.00,3358.6954,N,11934.2984,W,1,10,0.8,12.3,M,-33.7,M,,*6C
$PYRTM,2024,126.750182668113,17.859830078252
$GPGGA,180014.00,3358.6953,N,11934.2990,W,1,10,0.8,12.3,M,-33.7,M,,*69
$PYRTM,2024,126.750194254097,17.859841664236
$GPGGA,180015.00,3358.6951,N,11934.2995,W,1,10,0.8,12.6,M,-33.7,M,,*6A
$PYRTM,2024,126.750205816123,17.859853226262
$GPGGA,180016.00,3358.6949,N,11934.2999,W,1,10,0.8,12.4,M,-33.7,M,,*6E
$PYRTM,2024,126.750217416146,17.859864826285
$GPGGA,180017.00,3358.6948,N,11934.3006,W,1,10,0.8,12.5,M,-33.7,M,,*61
$PYRTM,2024,126.750228964375,17.859876374514
$GPGGA,180018.00,3358.6947,N,11934.3011,W,1,10,0.8,12.6,M,-33.7,M,,*64
$PYRTM,2024,126.750240563773,17.859887973912
$GPGGA,180019.00,3358.6947,N,11934.3017,W,1,10,0.8,12.5,M,-33.7,M,,*60
$PYRTM,2024,126.750252111088,17.859899521227
$GPGGA,180020.00,3358.6944,N,11934.3022,W,1,10,0.8,11.7,M,-33.7,M,,*6E
$PYRTM,2024,126.750263699236,17.859911109375
$GPGGA,180021.00,3358.6942,N,11934.3027,W,1,10,0.8,10.6,M,-33.7,M,,*6C
$PYRTM,2024,126.750275259375,17.859922669514
$GPGGA,180022.00,3358.6940,N,11934.3033,W,1,10,0.8,10.7,M,-33.7,M,,*69
$PYRTM,2024,126.750286846088,17.859934256227
$GPGGA,180023.00,3358.6940,N,11934.3038,W,1,10,0.8,10.5,M,-33.7,M,,*61
$PYRTM,2024,126.750298408669,17.859945818808
$GPGGA,180024.00,3358.6940,N,11934.3043,W,1,10,0.8,12.5,M,-33.7,M,,*68
$PYRTM,2024,126.750309994468,17.859957404606
$GPGGA,180025.00,3358.6940,N,11934.3049,W,1,10,0.8,12.3,M,-33.7,M,,*65
$PYRTM,2024,126.750321556308,17.859968966447
$GPGGA,180026.00,3358.6938,N,11934.3053,W,1,10,0.8,12.1,M,-33.7,M,,*60
$PYRTM,2024,126.750333143819,17.859980553958
$GPGGA,180027.00,3358.6936,N,11934.3057,W,1,10,0.8,11.9,M,-33.7,M,,*60
$PYRTM,2024,126.750344704560,17.859992114699
$GPGGA,180028.00,3358.6935,N,11934.3062,W,1,10,0.8,12.3,M,-33.7,M,,*63
$PYRTM,2024,126.750356290301,17.860003700440
$GPGGA,180029.00,3358.6935,N,11934.3067,W,1,10,0.8,14.0,M,-33.7,M,,*62
$PYRTM,2024,126.750367852315,17.860015262454
$GPGGA,180030.00,3358.6934,N,11934.3073,W,1,10,0.8,13.7,M,-33.7,M,,*6E
$PYRTM,2024,126.750379442523,17.860026852662
$GPGGA,180031.00,3358.6932,N,11934.3078,W,1,10,0.8,13.3,M,-33.7,M,,*66
$PYRTM,2024,126.750391002072,17.860038412211
$GPGGA,180032.00,3358.6929,N,11934.3083,W,1,10,0.8,13.2,M,-33.7,M,,*6A
$PYRTM,2024,126.750402590856,17.860050000995
$GPGGA,180033.00,3358.6926,N,11934.3088,W,1,10,0.8,9.4,M,-33.7,M,,*52
$PYRTM,2024,126.750414150312,17.860061560451
$GPGGA,180034.00,3358.6925,N,11934.3094,W,1,10,0.8,9.5,M,-33.7,M,,*5A
$PYRTM,2024,126.750424333981,17.860071744120
$GPGGA,180035.00,3358.6923,N,11934.3099,W,1,10,0.8,9.5,M,-33.7,M,,*50
$PYRTM,2024,126.750436255972,17.860083666111
$GPGGA,180036.00,3358.6921,N,11934.3102,W,1,10,0.8,11.4,M,-33.7,M,,*6A
$PYRTM,2024,126.750448883750,17.860096293889
$GPGGA,180037.00,3358.6919,N,11934.3107,W,1,10,0.8,11.5,M,-33.7,M,,*64
$PYRTM,2024,126.750460446377,17.860107856516
$GPGGA,180038.00,3358.6918,N,11934.3112,W,1,10,0.8,11.3,M,-33.7,M,,*68
$PYRTM,2024,126.750472031863,17.860119442002
$GPGGA,180039.00,3358.6916,N,11934.3117,W,1,10,0.8,11.3,M,-33.7,M,,*62
$PYRTM,2024,126.750483594051,17.860131004190
$GPGGA,180040.00,3358.6915,N,11934.3122,W,1,10,0.8,11.0,M,-33.7,M,,*6A
$PYRTM,2024,126.750495180463,17.860142590602
$GPGGA,180041.00,3358.6914,N,11934.3127,W,1,10,0.8,10.9,M,-33.7,M,,*67
$PYRTM,2024,126.750506742118,17.860154152269
$GPGGA,180042.00,3358.6912,N,11934.3132,W,1,10,0.8,10.4,M,-33.7,M,,*6B
$PYRTM,2024,126.750518328657,17.860165738796
$GPGGA,180043.00,3358.6910,N,11934.3139,W,1,10,0.8,9.3,M,-33.7,M,,*5C
$PYRTM,2024,126.750529890613,17.860177300752
$GPGGA,180044.00,3358.6907,N,11934.3144,W,1,10,0.8,9.2,M,-33.7,M,,*56
$PYRTM,2024,126.750541476134,17.860188886273
$GPGGA,180045.00,3358.6904,N,11934.3149,W,1,10,0.8,9.2,M,-33.7,M,,*59
$PYRTM,2024,126.750553039132,17.860200449271
$GPGGA,180046.00,3358.6903,N,11934.3155,W,1,10,0.8,9.6,M,-33.7,M,,*54
$PYRTM,2024,126.750564628495,17.860212038634
$GPGGA,180047.00,3358.6901,N,11934.3161,W,1,10,0.8,12.8,M,-33.7,M,,*64
$PYRTM,2024,126.750576186956,17.860223597095
$GPGGA,180048.00,3358.6899,N,11934.3167,W,1,10,0.8,12.0,M,-33.7,M,,*65
$PYRTM,2024,126.750587776921,17.860235187060
$GPGGA,180049.00,3358.6897,N,11934.3173,W,1,10,0.8,11.6,M,-33.7,M,,*6A
$PYRTM,2024,126.750599334606,17.860246744745
$GPGGA,180050.00,3358.6895,N,11934.3178,W,1,10,0.8,11.2,M,-33.7,M,,*6F
$PYRTM,2024,126.750610925428,17.860258335579
$GPGGA,180051.00,3358.6894,N,11934.3184,W,1,10,0.8,11.8,M,-33.7,M,,*66
$PYRTM,2024,126.750622484942,17.860269895081
$GPGGA,180052.00,3358.6893,N,11934.3190,W,1,10,0.8,11.9,M,-33.7,M,,*66
$PYRTM,2024,126.750634070231,17.860281480370
$GPGGA,180053.00,3358.6890,N,11934.3196,W,1,10,0.8,11.8,M,-33.7,M,,*63
$PYRTM,2024,126.750645631655,17.860293041794
$GPGGA,180054.00,3358.6887,N,11934.3201,W,1,10,0.8,11.5,M,-33.7,M,,*62
$PYRTM,2024,126.750657218484,17.860304628623
$GPGGA,180055.00,3358.6885,N,11934.3206,W,1,10,0.8,11.7,M,-33.7,M,,*64
$PYRTM,2024,126.750668780382,17.860316190532
$GPGGA,180056.00,3358.6884,N,11934.3212,W,1,10,0.8,11.3,M,-33.7,M,,*67
$PYRTM,2024,126.750680366690,17.860327776829
$GPGGA,180057.00,3358.6883,N,11934.3218,W,1,10,0.8,11.2,M,-33.7,M,,*6A
$PYRTM,2024,126.750692419282,17.860339829410
$GPGGA,180058.00,3358.6882,N,11934.3223,W,1,10,0.8,10.8,M,-33.7,M,,*67
$PYRTM,2024,126.750703965752,17.860351375891
$GPGGA,180059.00,3358.6879,N,11934.3229,W,1,10,0.8,11.7,M,-33.7,M,,*66
$PYRTM,2024,126.750715075671,17.860362485810
$GPGGA,180100.00,3358.6876,N,11934.3234,W,1,10,0.8,11.7,M,-33.7,M,,*68
$PYRTM,2024,126.750726663750,17.860374073889
$GPGGA,180101.00,3358.6874,N,11934.3241,W,1,10,0.8,12.6,M,-33.7,M,,*6B
$PYRTM,2024,126.750738225104,17.860385635243
$GPGGA,180102.00,3358.6876,N,11934.3248,W,1,10,0.8,13.6,M,-33.7,M,,*62
$PYRTM,2024,126.750749814745,17.860397224884
$GPGGA,180103.00,3358.6877,N,11934.3254,W,1,10,0.8,13.5,M,-33.7,M,,*6C
$PYRTM,2024,126.750761374062,17.860408784201
$GPGGA,180104.00,3358.6876,N,11934.3259,W,1,10,0.8,13.2,M,-33.7,M,,*60
$PYRTM,2024,126.750771558310,17.860418968449
$GPGGA,180105.00,3358.6873,N,11934.3263,W,1,10,0.8,12.6,M,-33.7,M,,*68
$PYRTM,2024,126.750783479606,17.860430889745
$GPGGA,180106.00,3358.6871,N,11934.3267,W,1,10,0.8,11.8,M,-33.7,M,,*60
$PYRTM,2024,126.750796123067,17.860443533206
$GPGGA,180107.00,3358.6870,N,11934.3271,W,1,10,0.8,12.1,M,-33.7,M,,*6D
$PYRTM,2024,126.750807670035,17.860455080174
$GPGGA,180108.00,3358.6870,N,11934.3277,W,1,10,0.8,11.7,M,-33.7,M,,*61
$PYRTM,2024,126.750819256505,17.860466666644
$GPGGA,180109.00,3358.6867,N,11934.3282,W,1,10,0.8,11.7,M,-33.7,M,,*6C
$PYRTM,2024,126.750830817998,17.860478228137
$GPGGA,180110.00,3358.6864,N,11934.3286,W,1,10,0.8,10.3,M,-33.7,M,,*66
$PYRTM,2024,126.750842400914,17.860489811053
$GPGGA,180111.00,3358.6861,N,11934.3290,W,1,10,0.8,10.3,M,-33.7,M,,*65
$PYRTM,2024,126.750853968877,17.860501379016
$GPGGA,180112.00,3358.6859,N,11934.3295,W,1,10,0.8,10.0,M,-33.7,M,,*6B
$PYRTM,2024,126.750865553843,17.860512963981
$GPGGA,180113.00,3358.6859,N,11934.3300,W,1,10,0.8,10.0,M,-33.7,M,,*67
$PYRTM,2024,126.750877114375,17.860524524514
$GPGGA,180114.00,3358.6857,N,11934.3306,W,1,10,0.8,9.9,M,-33.7,M,,*59
$PYRTM,2024,126.750888701319,17.860536111470
$GPGGA,180115.00,3358.6855,N,11934.3310,W,1,10,0.8,10.0,M,-33.7,M,,*6C
$PYRTM,2024,126.750900263634,17.860547673773
$GPGGA,180116.00,3358.6852,N,11934.3314,W,1,10,0.8,9.7,M,-33.7,M,,*53
$PYRTM,2024,126.750911851389,17.860559261528
$GPGGA,180117.00,3358.6850,N,11934.3319,W,1,10,0.8,9.6,M,-33.7,M,,*5C
$PYRTM,2024,126.750923410810,17.860570820949
$GPGGA,180118.00,3358.6850,N,11934.3324,W,1,10,0.8,10.3,M,-33.7,M,,*60
$PYRTM,2024,126.750935012037,17.860582422188
$GPGGA,180119.00,3358.6849,N,11934.3330,W,1,10,0.8,10.5,M,-33.7,M,,*6A
$PYRTM,2024,126.750946558588,17.860593968727
$GPGGA,180120.00,3358.6847,N,11934.3335,W,1,10,0.8,10.4,M,-33.7,M,,*6A
$PYRTM,2024,126.750958149757,17.860605559896
$GPGGA,180121.00,3358.6844,N,11934.3339,W,1,10,0.8,10.3,M,-33.7,M,,*63
$PYRTM,2024,126.750969708021,17.860617118171
$GPGGA,180122.00,3358.6841,N,11934.3344,W,1,10,0.8,10.1,M,-33.7,M,,*6D
$PYRTM,2024,126.750981295567,17.860628705706
$GPGGA,180123.00,3358.6840,N,11934.3349,W,1,10,0.8,10.3,M,-33.7,M,,*62
$PYRTM,2024,126.750992854387,17.860640264525
$GPGGA,180124.00,3358.6839,N,11934.3355,W,1,10,0.8,10.4,M,-33.7,M,,*61
$PYRTM,2024,126.751004442269,17.860651852407
$GPGGA,180125.00,3358.6838,N,11934.3360,W,1,10,0.8,10.4,M,-33.7,M,,*67
$PYRTM,2024,126.751016002812,17.860663412951
$GPGGA,180126.00,3358.6835,N,11934.3365,W,1,10,0.8,10.3,M,-33.7,M,,*6B
$PYRTM,2024,126.751027590995,17.860675001134
$GPGGA,180127.00,3358.6832,N,11934.3370,W,1,10,0.8,10.0,M,-33.7,M,,*6A
$PYRTM,2024,126.751038224931,17.860685635069
$GPGGA,180128.00,3358.6831,N,11934.3376,W,1,10,0.8,10.5,M,-33.7,M,,*65
$PYRTM,2024,126.751050264375,17.860697674514
$GPGGA,180129.00,3358.6830,N,11934.3381,W,1,10,0.8,10.6,M,-33.7,M,,*6E
$PYRTM,2024,126.751061039734,17.860708449873
$GPGGA,180130.00,3358.6828,N,11934.3386,W,1,10,0.8,10.4,M,-33.7,M,,*6A
$PYRTM,2024,126.751072150961,17.860719561100
$GPGGA,180131.00,3358.6826,N,11934.3391,W,1,10,0.8,10.1,M,-33.7,M,,*66
$PYRTM,2024,126.751083261771,17.860730671910
$GPGGA,180132.00,3358.6824,N,11934.3395,W,1,10,0.8,10.5,M,-33.7,M,,*67
$PYRTM,2024,126.751094367951,17.860741778090
$GPGGA,180133.00,3358.6822,N,11934.3401,W,1,10,0.8,10.6,M,-33.7,M,,*69
$PYRTM,2024,126.751105600521,17.860753010660
$GPGGA,180134.00,3358.6821,N,11934.3407,W,1,10,0.8,10.8,M,-33.7,M,,*65
$PYRTM,2024,126.751121213183,17.860768623322
$GPGGA,180135.00,3358.6819,N,11934.3412,W,1,10,0.8,10.8,M,-33.7,M,,*6B
$PYRTM,2024,126.751132452882,17.860779863032
$GPGGA,180136.00,3358.6817,N,11934.3417,W,1,10,0.8,11.0,M,-33.7,M,,*6A
$PYRTM,2024,126.751143564028,17.860790974178
$GPGGA,180137.00,3358.6815,N,11934.3422,W,1,10,0.8,10.8,M,-33.7,M,,*66
$PYRTM,2024,126.751154893206,17.860802303356
$GPGGA,180138.00,3358.6813,N,11934.3426,W,1,10,0.8,10.6,M,-33.7,M,,*65
$PYRTM,2024,126.751166475023,17.860813885162
$GPGGA,180139.00,3358.6812,N,11934.3431,W,1,10,0.8,10.8,M,-33.7,M,,*6D
$PYRTM,2024,126.751178042014,17.860825452153
$GPGGA,180140.00,3358.6811,N,11934.3437,W,1,10,0.8,10.5,M,-33.7,M,,*6B
$PYRTM,2024,126.751189629826,17.860837039965
$GPGGA,180141.00,3358.6810,N,11934.3443,W,1,10,0.8,10.7,M,-33.7,M,,*6A
$PYRTM,2024,126.751201189433,17.860848599572
$GPGGA,180142.00,3358.6808,N,11934.3448,W,1,10,0.8,10.5,M,-33.7,M,,*69
$PYRTM,2024,126.751212775556,17.860860185694
$GPGGA,180143.00,3358.6805,N,11934.3452,W,1,10,0.8,10.1,M,-33.7,M,,*6A
$PYRTM,2024,126.751224336840,17.860871746979
$GPGGA,180144.00,3358.6803,N,11934.3457,W,1,10,0.8,10.0,M,-33.7,M,,*6F
$PYRTM,2024,126.751235925266,17.860883335405
$GPGGA,180145.00,3358.6802,N,11934.3461,W,1,10,0.8,9.6,M,-33.7,M,,*54
$PYRTM,2024,126.751247486863,17.860894897002
$GPGGA,180146.00,3358.6802,N,11934.3467,W,1,10,0.8,9.5,M,-33.7,M,,*52
$PYRTM,2024,126.751259072813,17.860906482951
$GPGGA,180147.00,3358.6800,N,11934.3472,W,1,10,0.8,9.1,M,-33.7,M,,*51
$PYRTM,2024,126.751270634514,17.860918044653
$GPGGA,180148.00,3358.6798,N,11934.3476,W,1,10,0.8,9.3,M,-33.7,M,,*56
$PYRTM,2024,126.751282222373,17.860929632512
$GPGGA,180149.00,3358.6796,N,11934.3481,W,1,10,0.8,9.2,M,-33.7,M,,*50
$PYRTM,2024,126.751293781736,17.860941191875
$GPGGA,180150.00,3358.6795,N,11934.3486,W,1,10,0.8,9.2,M,-33.7,M,,*5C
$PYRTM,2024,126.751305383403,17.860952793542
$GPGGA,180151.00,3358.6793,N,11934.3491,W,1,10,0.8,8.2,M,-33.7,M,,*5C
$PYRTM,2024,126.751316929965,17.860964340104
$GPGGA,180152.00,3358.6792,N,11934.3496,W,1,10,0.8,8.9,M,-33.7,M,,*52
$PYRTM,2024,126.751328521157,17.860975931296
$GPGGA,180153.00,3358.6790,N,11934.3501,W,1,10,0.8,9.2,M,-33.7,M,,*54
$PYRTM,2024,126.751340078125,17.860987488264
$GPGGA,180154.00,3358.6788,N,11934.3506,W,1,10,0.8,9.4,M,-33.7,M,,*5B
$PYRTM,2024,126.751351667523,17.860999077662
$GPGGA,180155.00,3358.6787,N,11934.3511,W,1,10,0.8,10.0,M,-33.7,M,,*6F
$PYRTM,2024,126.751363228449,17.861010638588
$GPGGA,180156.00,3358.6785,N,11934.3516,W,1,10,0.8,9.4,M,-33.7,M,,*55
$PYRTM,2024,126.751374814213,17.861022224352
$GPGGA,180157.00,3358.6784,N,11934.3521,W,1,10,0.8,9.4,M,-33.7,M,,*51
$PYRTM,2024,126.751386376100,17.861033786238
$GPGGA,180158.00,3358.6783,N,11934.3525,W,1,10,0.8,9.5,M,-33.7,M,,*5C
$PYRTM,2024,126.751397963819,17.861045373958
$GPGGA,180159.00,3358.6780,N,11934.3530,W,1,10,0.8,9.3,M,-33.7,M,,*5C
$PYRTM,2024,126.751409524433,17.861056934572
$GPGGA,180200.00,3358.6778,N,11934.3535,W,1,10,0.8,9.5,M,-33.7,M,,*57
$PYRTM,2024,126.751421106319,17.861068516458
$GPGGA,180201.00,3358.6777,N,11934.3540,W,1,10,0.8,8.8,M,-33.7,M,,*57
$PYRTM,2024,126.751432673611,17.861080083750
$GPGGA,180202.00,3358.6776,N,11934.3544,W,1,10,0.8,9.0,M,-33.7,M,,*58
$PYRTM,2024,126.751444260741,17.861091670880
$GPGGA,180203.00,3358.6774,N,11934.3548,W,1,10,0.8,9.0,M,-33.7,M,,*57
$PYRTM,2024,126.751455820845,17.861103230984
$GPGGA,180204.00,3358.6773,N,11934.3552,W,1,10,0.8,9.0,M,-33.7,M,,*5C
$PYRTM,2024,126.751466481331,17.861113891470
$GPGGA,180205.00,3358.6772,N,11934.3558,W,1,10,0.8,9.7,M,-33.7,M,,*51
$PYRTM,2024,126.751477927743,17.861125337882
$GPGGA,180206.00,3358.6773,N,11934.3564,W,1,10,0.8,9.1,M,-33.7,M,,*5A
$PYRTM,2024,126.751490559132,17.861137969282
$GPGGA,180207.00,3358.6771,N,11934.3568,W,1,10,0.8,8.5,M,-33.7,M,,*50
$PYRTM,2024,126.751502117662,17.861149527813
$GPGGA,180208.00,3358.6769,N,11934.3572,W,1,10,0.8,8.5,M,-33.7,M,,*5D
$PYRTM,2024,126.751513707245,17.861161117396
$GPGGA,180209.00,3358.6767,N,11934.3575,W,1,10,0.8,8.4,M,-33.7,M,,*54
$PYRTM,2024,126.751525265579,17.861172675718
$GPGGA,180210.00,3358.6767,N,11934.3579,W,1,10,0.8,8.7,M,-33.7,M,,*53
$PYRTM,2024,126.751536854329,17.861184264468
$GPGGA,180211.00,3358.6766,N,11934.3584,W,1,10,0.8,8.8,M,-33.7,M,,*5E
$PYRTM,2024,126.751548413472,17.861195823611
$GPGGA,180212.00,3358.6765,N,11934.3589,W,1,10,0.8,7.8,M,-33.7,M,,*5C
$PYRTM,2024,126.751559996921,17.861207407072
$GPGGA,180213.00,3358.6763,N,11934.3593,W,1,10,0.8,7.2,M,-33.7,M,,*5A
$PYRTM,2024,126.751571563738,17.861218973889
$GPGGA,180214.00,3358.6761,N,11934.3597,W,1,10,0.8,7.4,M,-33.7,M,,*5D
$PYRTM,2024,126.751583149190,17.861230559329
$GPGGA,180215.00,3358.6760,N,11934.3602,W,1,10,0.8,7.1,M,-33.7,M,,*57
$PYRTM,2024,126.751594711863,17.861242122002
$GPGGA,180216.00,3358.6759,N,11934.3607,W,1,10,0.8,7.6,M,-33.7,M,,*5C
$PYRTM,2024,126.751606297604,17.861253707743
$GPGGA,180217.00,3358.6758,N,11934.3611,W,1,10,0.8,7.2,M,-33.7,M,,*5F
$PYRTM,2024,126.751617861319,17.861265271458
$GPGGA,180218.00,3358.6756,N,11934.3616,W,1,10,0.8,6.8,M,-33.7,M,,*52
$PYRTM,2024,126.751629446875,17.861276857014
$GPGGA,180219.00,3358.6755,N,11934.3620,W,1,10,0.8,7.0,M,-33.7,M,,*5C
$PYRTM,2024,126.751641006863,17.861288417002
$GPGGA,180220.00,3358.6754,N,11934.3625,W,1,10,0.8,6.9,M,-33.7,M,,*5A
$PYRTM,2024,126.751652594259,17.861300004398
$GPGGA,180221.00,3358.6754,N,11934.3629,W,1,10,0.8,6.7,M,-33.7,M,,*59
$PYRTM,2024,126.751664155949,17.861311566088
$GPGGA,180222.00,3358.6753,N,11934.3634,W,1,10,0.8,7.6,M,-33.7,M,,*51
$PYRTM,2024,126.751675747894,17.861323158032
$GPGGA,180223.00,3358.6752,N,11934.3638,W,1,10,0.8,8.3,M,-33.7,M,,*57
$PYRTM,2024,126.751687304421,17.861334714560
$GPGGA,180224.00,3358.6750,N,11934.3642,W,1,10,0.8,7.8,M,-33.7,M,,*5B
$PYRTM,2024,126.751698894468,17.861346304606
$GPGGA,180225.00,3358.6750,N,11934.3647,W,1,10,0.8,7.4,M,-33.7,M,,*53
$PYRTM,2024,126.751710453380,17.861357863519
$GPGGA,180226.00,3358.6750,N,11934.3651,W,1,10,0.8,7.6,M,-33.7,M,,*55
$PYRTM,2024,126.751722038970,17.861369449109
$GPGGA,180227.00,3358.6749,N,11934.3655,W,1,10,0.8,7.7,M,-33.7,M,,*59
$PYRTM,2024,126.751733599444,17.861381009583
$GPGGA,180228.00,3358.6746,N,11934.3658,W,1,10,0.8,8.0,M,-33.7,M,,*5C
$PYRTM,2024,126.751745188646,17.861392598785
$GPGGA,180229.00,3358.6743,N,11934.3662,W,1,10,0.8,8.1,M,-33.7,M,,*50
$PYRTM,2024,126.751756748287,17.861404158426
$GPGGA,180230.00,3358.6742,N,11934.3666,W,1,10,0.8,8.3,M,-33.7,M,,*5F
$PYRTM,2024,126.751768336771,17.861415746910
$GPGGA,180231.00,3358.6742,N,11934.3671,W,1,10,0.8,8.8,M,-33.7,M,,*53
$PYRTM,2024,126.751779897095,17.861427307234
$GPGGA,180232.00,3358.6741,N,11934.3676,W,1,10,0.8,9.1,M,-33.7,M,,*5C
$PYRTM,2024,126.751791485220,17.861438895359
$GPGGA,180233.00,3358.6740,N,11934.3680,W,1,10,0.8,8.8,M,-33.7,M,,*5D
$PYRTM,2024,126.751803046898,17.861450457037
$GPGGA,180234.00,3358.6737,N,11934.3684,W,1,10,0.8,9.2,M,-33.7,M,,*55
$PYRTM,2024,126.751813231377,17.861460641516
$GPGGA,180235.00,3358.6735,N,11934.3688,W,1,10,0.8,9.2,M,-33.7,M,,*5A
$PYRTM,2024,126.751825152616,17.861472562755
$GPGGA,180236.00,3358.6735,N,11934.3692,W,1,10,0.8,9.3,M,-33.7,M,,*53
$PYRTM,2024,126.751837783021,17.861485193160
$GPGGA,180237.00,3358.6734,N,11934.3697,W,1,10,0.8,9.6,M,-33.7,M,,*53
$PYRTM,2024,126.751849341435,17.861496751574
$GPGGA,180238.00,3358.6733,N,11934.3700,W,1,10,0.8,9.8,M,-33.7,M,,*5A
$PYRTM,2024,126.751860931748,17.861508341887
$GPGGA,180239.00,3358.6731,N,11934.3704,W,1,10,0.8,9.6,M,-33.7,M,,*53
$PYRTM,2024,126.751872496146,17.861519906296
$GPGGA,180240.00,3358.6730,N,11934.3709,W,1,10,0.8,9.3,M,-33.7,M,,*54
$PYRTM,2024,126.751884079190,17.861531489329
$GPGGA,180241.00,3358.6730,N,11934.3713,W,1,10,0.8,10.1,M,-33.7,M,,*64
$PYRTM,2024,126.751895638958,17.861543049097
$GPGGA,180242.00,3358.6729,N,11934.3718,W,1,10,0.8,9.8,M,-33.7,M,,*55
$PYRTM,2024,126.751907226354,17.861554636493
$GPGGA,180243.00,3358.6728,N,11934.3721,W,1,10,0.8,9.8,M,-33.7,M,,*5F
$PYRTM,2024,126.751918786366,17.861566196516
$GPGGA,180244.00,3358.6726,N,11934.3725,W,1,10,0.8,9.5,M,-33.7,M,,*5F
$PYRTM,2024,126.751930372998,17.861577783137
$GPGGA,180245.00,3358.6724,N,11934.3730,W,1,10,0.8,9.5,M,-33.7,M,,*58
$PYRTM,2024,126.751941934560,17.861589344699
$GPGGA,180246.00,3358.6723,N,11934.3734,W,1,10,0.8,9.7,M,-33.7,M,,*5A
$PYRTM,2024,126.751953520799,17.861600930938
$GPGGA,180247.00,3358.6722,N,11934.3739,W,1,10,0.8,9.4,M,-33.7,M,,*54
$PYRTM,2024,126.751965081678,17.861612491806
$GPGGA,180248.00,3358.6722,N,11934.3743,W,1,10,0.8,9.8,M,-33.7,M,,*5A
$PYRTM,2024,126.751976668611,17.861624078750
$GPGGA,180249.00,3358.6720,N,11934.3748,W,1,10,0.8,9.7,M,-33.7,M,,*5D
$PYRTM,2024,126.751988231204,17.861635641343
$GPGGA,180250.00,3358.6718,N,11934.3752,W,1,10,0.8,9.5,M,-33.7,M,,*57
$PYRTM,2024,126.751999817581,17.861647227720
$GPGGA,180251.00,3358.6716,N,11934.3757,W,1,10,0.8,10.0,M,-33.7,M,,*60
$PYRTM,2024,126.752011379144,17.861658789282
$GPGGA,180252.00,3358.6716,N,11934.3761,W,1,10,0.8,10.0,M,-33.7,M,,*66
$PYRTM,2024,126.752022965648,17.861670375787
$GPGGA,180253.00,3358.6716,N,11934.3766,W,1,10,0.8,9.3,M,-33.7,M,,*5B
$PYRTM,2024,126.752034528495,17.861681938634
$GPGGA,180254.00,3358.6714,N,11934.3771,W,1,10,0.8,9.2,M,-33.7,M,,*59
$PYRTM,2024,126.752046129954,17.861693540093
$GPGGA,180255.00,3358.6712,N,11934.3776,W,1,10,0.8,9.0,M,-33.7,M,,*5B
$PYRTM,2024,126.752057676042,17.861705086181
$GPGGA,180256.00,3358.6710,N,11934.3780,W,1,10,0.8,9.7,M,-33.7,M,,*54
$PYRTM,2024,126.752069276389,17.861716686528
$GPGGA,180257.00,3358.6708,N,11934.3784,W,1,10,0.8,9.4,M,-33.7,M,,*5B
$PYRTM,2024,126.752080823866,17.861728234005
$GPGGA,180258.00,3358.6707,N,11934.3790,W,1,10,0.8,9.6,M,-33.7,M,,*5C
$PYRTM,2024,126.752092412639,17.861739822778
$GPGGA,180259.00,3358.6707,N,11934.3796,W,1,10,0.8,9.9,M,-33.7,M,,*54
$PYRTM,2024,126.752103971725,17.861751381863
$GPGGA,180300.00,3358.6706,N,11934.3801,W,1,10,0.8,9.4,M,-33.7,M,,*54
$PYRTM,2024,126.752115560289,17.861762970428
$GPGGA,180301.00,3358.6704,N,11934.3805,W,1,10,0.8,9.4,M,-33.7,M,,*53
$PYRTM,2024,126.752127120475,17.861774530613
$GPGGA,180302.00,3358.6702,N,11934.3808,W,1,10,0.8,10.0,M,-33.7,M,,*67
$PYRTM,2024,126.752138706655,17.861786116794
$GPGGA,180303.00,3358.6700,N,11934.3813,W,1,10,0.8,10.4,M,-33.7,M,,*6A
$PYRTM,2024,126.752150268958,17.861797679097
$GPGGA,180304.00,3358.6700,N,11934.3819,W,1,10,0.8,10.4,M,-33.7,M,,*67
$PYRTM,2024,126.752160453067,17.861807863206
$GPGGA,180305.00,3358.6700,N,11934.3825,W,1,10,0.8,10.4,M,-33.7,M,,*69
$PYRTM,2024,126.752172375556,17.861819785706
$GPGGA,180306.00,3358.6699,N,11934.3829,W,1,10,0.8,10.6,M,-33.7,M,,*65
$PYRTM,2024,126.752184999630,17.861832409769
$GPGGA,180307.00,3358.6697,N,11934.3833,W,1,10,0.8,10.6,M,-33.7,M,,*61
$PYRTM,2024,126.752196566204,17.861843976343
$GPGGA,180308.00,3358.6694,N,11934.3837,W,1,10,0.8,9.5,M,-33.7,M,,*52
$PYRTM,2024,126.752208156273,17.861855566412
$GPGGA,180309.00,3358.6692,N,11934.3841,W,1,10,0.8,9.6,M,-33.7,M,,*57
$PYRTM,2024,126.752219714294,17.861867124433
$GPGGA,180310.00,3358.6691,N,11934.3847,W,1,10,0.8,9.0,M,-33.7,M,,*5C
$PYRTM,2024,126.752231303299,17.861878713437
$GPGGA,180311.00,3358.6690,N,11934.3853,W,1,10,0.8,9.4,M,-33.7,M,,*5D
$PYRTM,2024,126.752242864155,17.861890274294
$GPGGA,180312.00,3358.6689,N,11934.3859,W,1,10,0.8,9.2,M,-33.7,M,,*5A
$PYRTM,2024,126.752254452095,17.861901862234
$GPGGA,180313.00,3358.6686,N,11934.3865,W,1,10,0.8,8.9,M,-33.7,M,,*51
$PYRTM,2024,126.752266009884,17.861913420023
$GPGGA,180314.00,3358.6685,N,11934.3869,W,1,10,0.8,8.6,M,-33.7,M,,*56
$PYRTM,2024,126.752277598102,17.861925008252
$GPGGA,180315.00,3358.6684,N,11934.3874,W,1,10,0.8,8.7,M,-33.7,M,,*5B
$PYRTM,2024,126.752289159190,17.861936569329
$GPGGA,180316.00,3358.6683,N,11934.3878,W,1,10,0.8,8.5,M,-33.7,M,,*51
$PYRTM,2024,126.752300745949,17.861948156088
$GPGGA,180317.00,3358.6681,N,11934.3883,W,1,10,0.8,8.6,M,-33.7,M,,*55
$PYRTM,2024,126.752312307454,17.861959717593
$GPGGA,180318.00,3358.6678,N,11934.3887,W,1,10,0.8,8.8,M,-33.7,M,,*56
$PYRTM,2024,126.752323893981,17.861971304120
$GPGGA,180319.00,3358.6677,N,11934.3892,W,1,10,0.8,8.1,M,-33.7,M,,*55
$PYRTM,2024,126.752335454838,17.861982864977
$GPGGA,180320.00,3358.6676,N,11934.3898,W,1,10,0.8,7.7,M,-33.7,M,,*5D
$PYRTM,2024,126.752347042870,17.861994453009
$GPGGA,180321.00,3358.6674,N,11934.3902,W,1,10,0.8,7.4,M,-33.7,M,,*5F
$PYRTM,2024,126.752358602836,17.862006012975
$GPGGA,180322.00,3358.6673,N,11934.3907,W,1,10,0.8,7.3,M,-33.7,M,,*59
$PYRTM,2024,126.752370190405,17.862017600544
$GPGGA,180323.00,3358.6672,N,11934.3912,W,1,10,0.8,7.9,M,-33.7,M,,*57
$PYRTM,2024,126.752381752222,17.862029162361
$GPGGA,180324.00,3358.6670,N,11934.3916,W,1,10,0.8,7.4,M,-33.7,M,,*5B
$PYRTM,2024,126.752393342060,17.862040752211
$GPGGA,180325.00,3358.6669,N,11934.3922,W,1,10,0.8,7.2,M,-33.7,M,,*53
$PYRTM,2024,126.752404902338,17.862052312477
$GPGGA,180326.00,3358.6667,N,11934.3927,W,1,10,0.8,7.0,M,-33.7,M,,*59
$PYRTM,2024,126.752416490671,17.862063900810
$GPGGA,180327.00,3358.6666,N,11934.3932,W,1,10,0.8,7.0,M,-33.7,M,,*5D
$PYRTM,2024,126.752428048657,17.862075458796
$GPGGA,180328.00,3358.6664,N,11934.3937,W,1,10,0.8,7.0,M,-33.7,M,,*55
$PYRTM,2024,126.752439638252,17.862087048391
$GPGGA,180329.00,3358.6663,N,11934.3941,W,1,10,0.8,7.2,M,-33.7,M,,*50
$PYRTM,2024,126.752451196007,17.862098606146
$GPGGA,180330.00,3358.6662,N,11934.3947,W,1,10,0.8,6.8,M,-33.7,M,,*54
$PYRTM,2024,126.752462785544,17.862110195683
$GPGGA,180331.00,3358.6660,N,11934.3952,W,1,10,0.8,6.8,M,-33.7,M,,*53
$PYRTM,2024,126.752474344456,17.862121754595
$GPGGA,180332.00,3358.6659,N,11934.3957,W,1,10,0.8,7.2,M,-33.7,M,,*54
$PYRTM,2024,126.752485001875,17.862132412025
$GPGGA,180333.00,3358.6658,N,11934.3962,W,1,10,0.8,7.3,M,-33.7,M,,*53
$PYRTM,2024,126.752496930139,17.862144340278
$GPGGA,180334.00,3358.6656,N,11934.3967,W,1,10,0.8,7.4,M,-33.7,M,,*58
$PYRTM,2024,126.752508720428,17.862156130567
$GPGGA,180335.00,3358.6654,N,11934.3973,W,1,10,0.8,7.4,M,-33.7,M,,*5E
$PYRTM,2024,126.752519830579,17.862167240729
$GPGGA,180336.00,3358.6652,N,11934.3977,W,1,10,0.8,7.6,M,-33.7,M,,*5D
$PYRTM,2024,126.752530941111,17.862178351250
$GPGGA,180337.00,3358.6650,N,11934.3982,W,1,10,0.8,7.3,M,-33.7,M,,*51
$PYRTM,2024,126.752542052859,17.862189462998
$GPGGA,180338.00,3358.6649,N,11934.3987,W,1,10,0.8,9.6,M,-33.7,M,,*58
$PYRTM,2024,126.752553163958,17.862200574097
$GPGGA,180339.00,3358.6648,N,11934.3992,W,1,10,0.8,9.6,M,-33.7,M,,*5C
$PYRTM,2024,126.752564274120,17.862211684271
$GPGGA,180340.00,3358.6647,N,11934.3996,W,1,10,0.8,9.2,M,-33.7,M,,*5D
$PYRTM,2024,126.752575386840,17.862222796991
$GPGGA,180341.00,3358.6645,N,11934.4000,W,1,10,0.8,8.9,M,-33.7,M,,*55
$PYRTM,2024,126.752586497199,17.862233907338
$GPGGA,180342.00,3358.6642,N,11934.4007,W,1,10,0.8,7.5,M,-33.7,M,,*55
$PYRTM,2024,126.752597610081,17.862245020220
$GPGGA,180343.00,3358.6640,N,11934.4014,W,1,10,0.8,7.5,M,-33.7,M,,*54
$PYRTM,2024,126.752608605718,17.862256015856
$GPGGA,180344.00,3358.6637,N,11934.4020,W,1,10,0.8,7.6,M,-33.7,M,,*57
$PYRTM,2024,126.752620192037,17.862267602176
$GPGGA,180345.00,3358.6633,N,11934.4025,W,1,10,0.8,7.9,M,-33.7,M,,*58
$PYRTM,2024,126.752639275764,17.862286685903
$GPGGA,180346.00,3358.6630,N,11934.4030,W,1,10,0.8,8.1,M,-33.7,M,,*5B
$PYRTM,2024,126.752650384977,17.862297795116
$GPGGA,180347.00,3358.6629,N,11934.4036,W,1,10,0.8,7.9,M,-33.7,M,,*53
$PYRTM,2024,126.752661497037,17.862308907176
$GPGGA,180348.00,3358.6628,N,11934.4042,W,1,10,0.8,8.0,M,-33.7,M,,*58
$PYRTM,2024,126.752672609630,17.862320019769
$GPGGA,180349.00,3358.6627,N,11934.4047,W,1,10,0.8,8.0,M,-33.7,M,,*53
$PYRTM,2024,126.752683721169,17.862331131308
$GPGGA,180350.00,3358.6624,N,11934.4052,W,1,10,0.8,8.0,M,-33.7,M,,*5C
$PYRTM,2024,126.752694831713,17.862342241863
$GPGGA,180351.00,3358.6621,N,11934.4057,W,1,10,0.8,8.0,M,-33.7,M,,*5D
$PYRTM,2024,126.752705942407,17.862353352546
$GPGGA,180352.00,3358.6619,N,11934.4061,W,1,10,0.8,7.5,M,-33.7,M,,*5A
$PYRTM,2024,126.752717056262,17.862364466400
$GPGGA,180353.00,3358.6617,N,11934.4066,W,1,10,0.8,8.0,M,-33.7,M,,*58
$PYRTM,2024,126.752728165336,17.862375575475
$GPGGA,180354.00,3358.6615,N,11934.4071,W,1,10,0.8,8.0,M,-33.7,M,,*5B
$PYRTM,2024,126.752739280856,17.862386690995
$GPGGA,180355.00,3358.6613,N,11934.4077,W,1,10,0.8,7.9,M,-33.7,M,,*5C
$PYRTM,2024,126.752750386725,17.862397796863
$GPGGA,180356.00,3358.6611,N,11934.4082,W,1,10,0.8,8.0,M,-33.7,M,,*51
$PYRTM,2024,126.752761500370,17.862408910509
$GPGGA,180357.00,3358.6609,N,11934.4087,W,1,10,0.8,8.2,M,-33.7,M,,*5E
$PYRTM,2024,126.752773085544,17.862420495683
$GPGGA,180358.00,3358.6608,N,11934.4093,W,1,10,0.8,8.5,M,-33.7,M,,*52
$PYRTM,2024,126.752784200602,17.862431610741
$GPGGA,180359.00,3358.6607,N,11934.4099,W,1,10,0.8,8.2,M,-33.7,M,,*51
$PYRTM,2024,126.752795305648,17.862442715787
$GPGGA,180400.00,3358.6606,N,11934.4105,W,1,10,0.8,8.5,M,-33.7,M,,*58
$PYRTM,2024,126.752806419213,17.862453829363
$GPGGA,180401.00,3358.6606,N,11934.4109,W,1,10,0.8,9.7,M,-33.7,M,,*56
$PYRTM,2024,126.752817533461,17.862464943600
$GPGGA,180402.00,3358.6605,N,11934.4115,W,1,10,0.8,8.2,M,-33.7,M,,*5F
$PYRTM,2024,126.752828641481,17.862476051620
$GPGGA,180403.00,3358.6605,N,11934.4119,W,1,10,0.8,7.9,M,-33.7,M,,*56
$PYRTM,2024,126.752839766678,17.862487176817
$GPGGA,180404.00,3358.6605,N,11934.4123,W,1,10,0.8,7.5,M,-33.7,M,,*54
$PYRTM,2024,126.752856304826,17.862503714977
$GPGGA,180405.00,3358.6605,N,11934.4128,W,1,10,0.8,7.8,M,-33.7,M,,*53
$PYRTM,2024,126.752867866076,17.862515276227
$GPGGA,180406.00,3358.6605,N,11934.4133,W,1,10,0.8,8.9,M,-33.7,M,,*54
$PYRTM,2024,126.752879454769,17.862526864907
$GPGGA,180407.00,3358.6603,N,11934.4139,W,1,10,0.8,8.8,M,-33.7,M,,*58
$PYRTM,2024,126.752891013600,17.862538423738
$GPGGA,180408.00,3358.6601,N,11934.4143,W,1,10,0.8,9.0,M,-33.7,M,,*51
$PYRTM,2024,126.752902596759,17.862550006910
$GPGGA,180409.00,3358.6600,N,11934.4148,W,1,10,0.8,8.5,M,-33.7,M,,*5E
$PYRTM,2024,126.752914164248,17.862561574398
$GPGGA,180410.00,3358.6599,N,11934.4154,W,1,10,0.8,8.4,M,-33.7,M,,*59
$PYRTM,2024,126.752925743623,17.862573153762
$GPGGA,180411.00,3358.6598,N,11934.4160,W,1,10,0.8,8.5,M,-33.7,M,,*5F
$PYRTM,2024,126.752937310475,17.862584720613
$GPGGA,180412.00,3358.6596,N,11934.4166,W,1,10,0.8,8.2,M,-33.7,M,,*53
$PYRTM,2024,126.752948900035,17.862596310185
$GPGGA,180413.00,3358.6594,N,11934.4171,W,1,10,0.8,8.0,M,-33.7,M,,*54
$PYRTM,2024,126.752960460891,17.862607871030
$GPGGA,180414.00,3358.6592,N,11934.4177,W,1,10,0.8,8.6,M,-33.7,M,,*55
$PYRTM,2024,126.752972048796,17.862619458935
$GPGGA,180415.00,3358.6591,N,11934.4183,W,1,10,0.8,8.7,M,-33.7,M,,*5D
$PYRTM,2024,126.752983607176,17.862631017315
$GPGGA,180416.00,3358.6590,N,11934.4189,W,1,10,0.8,8.7,M,-33.7,M,,*55
$PYRTM,2024,126.752995194375,17.862642604514
$GPGGA,180417.00,3358.6588,N,11934.4195,W,1,10,0.8,8.9,M,-33.7,M,,*5E
$PYRTM,2024,126.753006755590,17.862654165741
$GPGGA,180418.00,3358.6586,N,11934.4200,W,1,10,0.8,9.1,M,-33.7,M,,*59
$PYRTM,2024,126.753018341366,17.862665751505
$GPGGA,180419.00,3358.6584,N,11934.4206,W,1,10,0.8,9.0,M,-33.7,M,,*5D
$PYRTM,2024,126.753029903831,17.862677313970
$GPGGA,180420.00,3358.6583,N,11934.4212,W,1,10,0.8,9.2,M,-33.7,M,,*57
$PYRTM,2024,126.753041490683,17.862688900822
$GPGGA,180421.00,3358.6582,N,11934.4217,W,1,10,0.8,9.3,M,-33.7,M,,*53
$PYRTM,2024,126.753053051238,17.862700461389
$GPGGA,180422.00,3358.6580,N,11934.4223,W,1,10,0.8,9.0,M,-33.7,M,,*56
$PYRTM,2024,126.753064638831,17.862712048970
$GPGGA,180423.00,3358.6578,N,11934.4228,W,1,10,0.8,13.1,M,-33.7,M,,*61
$PYRTM,2024,126.753076201910,17.862723612049
$GPGGA,180424.00,3358.6575,N,11934.4234,W,1,10,0.8,13.1,M,-33.7,M,,*66
$PYRTM,2024,126.753087786539,17.862735196690
$GPGGA,180425.00,3358.6574,N,11934.4239,W,1,10,0.8,11.9,M,-33.7,M,,*61
$PYRTM,2024,126.753099347234,17.862746757384
$GPGGA,180426.00,3358.6572,N,11934.4243,W,1,10,0.8,11.8,M,-33.7,M,,*68
$PYRTM,2024,126.753110935058,17.862758345197
$GPGGA,180427.00,3358.6571,N,11934.4248,W,1,10,0.8,12.0,M,-33.7,M,,*6A
$PYRTM,2024,126.753122495255,17.862769905394
$GPGGA,180428.00,3358.6570,N,11934.4253,W,1,10,0.8,12.1,M,-33.7,M,,*6F
$PYRTM,2024,126.753134097014,17.862781507153
$GPGGA,180429.00,3358.6568,N,11934.4258,W,1,10,0.8,11.9,M,-33.7,M,,*67
$PYRTM,2024,126.753145645833,17.862793055984
$GPGGA,180430.00,3358.6564,N,11934.4263,W,1,10,0.8,11.8,M,-33.7,M,,*6A
$PYRTM,2024,126.753157245417,17.862804655556
$GPGGA,180431.00,3358.6561,N,11934.4269,W,1,10,0.8,11.7,M,-33.7,M,,*6B
$PYRTM,2024,126.753168792708,17.862816202847
$GPGGA,180432.00,3358.6559,N,11934.4274,W,1,10,0.8,11.5,M,-33.7,M,,*6D
$PYRTM,2024,126.753180378981,17.862827789120
$GPGGA,180433.00,3358.6558,N,11934.4278,W,1,10,0.8,11.6,M,-33.7,M,,*62
$PYRTM,2024,126.753191941238,17.862839351377
$GPGGA,180434.00,3358.6557,N,11934.4285,W,1,10,0.8,11.5,M,-33.7,M,,*6B
$PYRTM,2024,126.753202602535,17.862850012685
$GPGGA,180435.00,3358.6555,N,11934.4290,W,1,10,0.8,12.8,M,-33.7,M,,*62
$PYRTM,2024,126.753214060752,17.862861470891
$GPGGA,180436.00,3358.6553,N,11934.4295,W,1,10,0.8,12.7,M,-33.7,M,,*6D
$PYRTM,2024,126.753226676227,17.862874086366
$GPGGA,180437.00,3358.6551,N,11934.4300,W,1,10,0.8,12.3,M,-33.7,M,,*67
$PYRTM,2024,126.753238239606,17.862885649757
$GPGGA,180438.00,3358.6550,N,11934.4306,W,1,10,0.8,13.0,M,-33.7,M,,*6D
$PYRTM,2024,126.753249821111,17.862897231262
$GPGGA,180439.00,3358.6550,N,11934.4313,W,1,10,0.8,12.8,M,-33.7,M,,*61
$PYRTM,2024,126.753261385833,17.862908795972
$GPGGA,180440.00,3358.6549,N,11934.4319,W,1,10,0.8,13.4,M,-33.7,M,,*60
$PYRTM,2024,126.753272968692,17.862920378831
$GPGGA,180441.00,3358.6547,N,11934.4326,W,1,10,0.8,11.8,M,-33.7,M,,*6D
$PYRTM,2024,126.753284533391,17.862931943530
$GPGGA,180442.00,3358.6545,N,11934.4333,W,1,10,0.8,11.6,M,-33.7,M,,*66
$PYRTM,2024,126.753296115567,17.862943525718
$GPGGA,180443.00,3358.6543,N,11934.4338,W,1,10,0.8,11.6,M,-33.7,M,,*6A
$PYRTM,2024,126.753307683021,17.862955093171
$GPGGA,180444.00,3358.6544,N,11934.4343,W,1,10,0.8,11.7,M,-33.7,M,,*67
$PYRTM,2024,126.753319273472,17.862966683611
$GPGGA,180445.00,3358.6543,N,11934.4351,W,1,10,0.8,11.5,M,-33.7,M,,*60
$PYRTM,2024,126.753330830845,17.862978240984
$GPGGA,180446.00,3358.6541,N,11934.4360,W,1,10,0.8,11.9,M,-33.7,M,,*6F
$PYRTM,2024,126.753342420370,17.862989830509
$GPGGA,180447.00,3358.6539,N,11934.4367,W,1,10,0.8,11.8,M,-33.7,M,,*67
$PYRTM,2024,126.753353979630,17.863001389769
$GPGGA,180448.00,3358.6536,N,11934.4372,W,1,10,0.8,12.0,M,-33.7,M,,*68
$PYRTM,2024,126.753365564352,17.863012974502
$GPGGA,180449.00,3358.6536,N,11934.4376,W,1,10,0.8,9.7,M,-33.7,M,,*50
$PYRTM,2024,126.753377126181,17.863024536319
$GPGGA,180450.00,3358.6539,N,11934.4382,W,1,10,0.8,9.7,M,-33.7,M,,*5C
$PYRTM,2024,126.753388714595,17.863036124734
$GPGGA,180451.00,3358.6538,N,11934.4387,W,1,10,0.8,9.6,M,-33.7,M,,*58
$PYRTM,2024,126.753400276875,17.863047687014
$GPGGA,180452.00,3358.6536,N,11934.4390,W,1,10,0.8,9.5,M,-33.7,M,,*50
$PYRTM,2024,126.753411857106,17.863059267245
$GPGGA,180453.00,3358.6533,N,11934.4394,W,1,10,0.8,9.4,M,-33.7,M,,*51
$PYRTM,2024,126.753423422639,17.863070832778
$GPGGA,180454.00,3358.6531,N,11934.4399,W,1,10,0.8,10.2,M,-33.7,M,,*67
$PYRTM,2024,126.753435005637,17.863082415775
$GPGGA,180455.00,3358.6532,N,11934.4405,W,1,10,0.8,9.7,M,-33.7,M,,*5A
$PYRTM,2024,126.753446572049,17.863093982199
$GPGGA,180456.00,3358.6530,N,11934.4410,W,1,10,0.8,9.6,M,-33.7,M,,*5E
$PYRTM,2024,126.753458159549,17.863105569688
$GPGGA,180457.00,3358.6528,N,11934.4414,W,1,10,0.8,9.2,M,-33.7,M,,*56
$PYRTM,2024,126.753469721956,17.863117132095
$GPGGA,180458.00,3358.6526,N,11934.4418,W,1,10,0.8,9.2,M,-33.7,M,,*5B
$PYRTM,2024,126.753481307315,17.863128717454
$GPGGA,180459.00,3358.6525,N,11934.4425,W,1,10,0.8,9.7,M,-33.7,M,,*52
$PYRTM,2024,126.753492869931,17.863140280069
$GPGGA,180500.00,3358.6525,N,11934.4432,W,1,10,0.8,11.0,M,-33.7,M,,*67
$PYRTM,2024,126.753504470787,17.863151880926
$GPGGA,180501.00,3358.6525,N,11934.4439,W,1,10,0.8,10.9,M,-33.7,M,,*65
$PYRTM,2024,126.753516017500,17.863163427639
$GPGGA,180502.00,3358.6523,N,11934.4443,W,1,10,0.8,10.9,M,-33.7,M,,*6D
$PYRTM,2024,126.753527605718,17.863175015856
$GPGGA,180503.00,3358.6519,N,11934.4447,W,1,10,0.8,13.3,M,-33.7,M,,*68
$PYRTM,2024,126.753539165370,17.863186575509
$GPGGA,180504.00,3358.6517,N,11934.4453,W,1,10,0.8,13.3,M,-33.7,M,,*64
$PYRTM,2024,126.753549349965,17.863196760104
$GPGGA,180505.00,3358.6517,N,11934.4460,W,1,10,0.8,11.0,M,-33.7,M,,*64
$PYRTM,2024,126.753561285764,17.863208695903
$GPGGA,180506.00,3358.6518,N,11934.4466,W,1,10,0.8,11.1,M,-33.7,M,,*6F
$PYRTM,2024,126.753573900000,17.863221310150
$GPGGA,180507.00,3358.6517,N,11934.4472,W,1,10,0.8,10.9,M,-33.7,M,,*6D
$PYRTM,2024,126.753585462905,17.863232873044
$GPGGA,180508.00,3358.6514,N,11934.4476,W,1,10,0.8,10.3,M,-33.7,M,,*6F
$PYRTM,2024,126.753597044063,17.863244454201
$GPGGA,180509.00,3358.6512,N,11934.4481,W,1,10,0.8,12.1,M,-33.7,M,,*60
$PYRTM,2024,126.753608610544,17.863256020694
$GPGGA,180510.00,3358.6510,N,11934.4486,W,1,10,0.8,9.8,M,-33.7,M,,*5E
$PYRTM,2024,126.753620196458,17.863267606597
$GPGGA,180511.00,3358.6510,N,11934.4492,W,1,10,0.8,7.9,M,-33.7,M,,*55
$PYRTM,2024,126.753631758067,17.863279168206
$GPGGA,180512.00,3358.6511,N,11934.4498,W,1,10,0.8,8.0,M,-33.7,M,,*5B
$PYRTM,2024,126.753643340671,17.863290750810
$GPGGA,180513.00,3358.6510,N,11934.4502,W,1,10,0.8,8.2,M,-33.7,M,,*5B
$PYRTM,2024,126.753654906146,17.863302316296
$GPGGA,180514.00,3358.6507,N,11934.4508,W,1,10,0.8,11.4,M,-33.7,M,,*6E
$PYRTM,2024,126.753666493576,17.863313903715
$GPGGA,180515.00,3358.6504,N,11934.4514,W,1,10,0.8,13.1,M,-33.7,M,,*66
$PYRTM,2024,126.753678054896,17.863325465035
$GPGGA,180516.00,3358.6501,N,11934.4523,W,1,10,0.8,9.9,M,-33.7,M,,*57
$PYRTM,2024,126.753689644664,17.863337054803
$GPGGA,180517.00,3358.6499,N,11934.4530,W,1,09,1.0,9.7,M,-33.7,M,,*5B
$PYRTM,2024,126.753701202986,17.863348613125
$GPGGA,180518.00,3358.6497,N,11934.4535,W,1,10,0.8,9.8,M,-33.7,M,,*51
$PYRTM,2024,126.753712794444,17.863360204583
$GPGGA,180519.00,3358.6493,N,11934.4541,W,1,10,0.8,12.7,M,-33.7,M,,*62
$PYRTM,2024,126.753724350012,17.863371760150
$GPGGA,180520.00,3358.6490,N,11934.4546,W,1,10,0.8,11.5,M,-33.7,M,,*6D
$PYRTM,2024,126.753735933449,17.863383343588
$GPGGA,180521.00,3358.6488,N,11934.4551,W,1,10,0.8,11.6,M,-33.7,M,,*60
$PYRTM,2024,126.753747499884,17.863394910023
$GPGGA,180522.00,3358.6488,N,11934.4557,W,1,10,0.8,11.4,M,-33.7,M,,*67
$PYRTM,2024,126.753759086204,17.863406496343
$GPGGA,180523.00,3358.6486,N,11934.4562,W,1,10,0.8,11.5,M,-33.7,M,,*6F
$PYRTM,2024,126.753770648773,17.863418058924
$GPGGA,180524.00,3358.6484,N,11934.4567,W,1,10,0.8,10.9,M,-33.7,M,,*62
$PYRTM,2024,126.753782229259,17.863429639398
$GPGGA,180525.00,3358.6481,N,11934.4573,W,1,10,0.8,10.7,M,-33.7,M,,*6D
$PYRTM,2024,126.753793796076,17.863441206227
$GPGGA,180526.00,3358.6479,N,11934.4578,W,1,10,0.8,12.2,M,-33.7,M,,*65
$PYRTM,2024,126.753805377627,17.863452787778
$GPGGA,180527.00,3358.6479,N,11934.4585,W,1,10,0.8,10.0,M,-33.7,M,,*66
$PYRTM,2024,126.753816944780,17.863464354919
$GPGGA,180528.00,3358.6479,N,11934.4592,W,1,10,0.8,9.8,M,-33.7,M,,*5F
$PYRTM,2024,126.753828531065,17.863475941204
$GPGGA,180529.00,3358.6478,N,11934.4599,W,1,10,0.8,9.6,M,-33.7,M,,*5A
$PYRTM,2024,126.753840093808,17.863487503947
$GPGGA,180530.00,3358.6475,N,11934.4604,W,1,10,0.8,9.6,M,-33.7,M,,*58
$PYRTM,2024,126.753851678924,17.863499089063
$GPGGA,180531.00,3358.6474,N,11934.4609,W,1,10,0.8,9.1,M,-33.7,M,,*52
$PYRTM,2024,126.753863241111,17.863510651250
$GPGGA,180532.00,3358.6474,N,11934.4616,W,1,10,0.8,8.9,M,-33.7,M,,*56
$PYRTM,2024,126.753874833588,17.863522243727
$GPGGA,180533.00,3358.6474,N,11934.4624,W,1,10,0.8,4.9,M,-33.7,M,,*5A
$PYRTM,2024,126.753886389560,17.863533799699
$GPGGA,180534.00,3358.6472,N,11934.4630,W,1,10,0.8,5.0,M,-33.7,M,,*56
$PYRTM,2024,126.753896574896,17.863543985035
$GPGGA,180535.00,3358.6470,N,11934.4635,W,1,10,0.8,5.3,M,-33.7,M,,*53
$PYRTM,2024,126.753908392523,17.863555802662
$GPGGA,180536.00,3358.6467,N,11934.4641,W,1,10,0.8,6.2,M,-33.7,M,,*57
$PYRTM,2024,126.753921124144,17.863568534282
$GPGGA,180537.00,3358.6465,N,11934.4647,W,1,10,0.8,10.9,M,-33.7,M,,*6E
$PYRTM,2024,126.753931759676,17.863579169826
$GPGGA,180538.00,3358.6464,N,11934.4653,W,1,10,0.8,10.7,M,-33.7,M,,*6B
$PYRTM,2024,126.753943693796,17.863591103935
$GPGGA,180539.00,3358.6462,N,11934.4659,W,1,10,0.8,10.6,M,-33.7,M,,*67
$PYRTM,2024,126.753954461262,17.863601871400
$GPGGA,180540.00,3358.6460,N,11934.4665,W,1,10,0.8,10.5,M,-33.7,M,,*67
$PYRTM,2024,126.753965570058,17.863612980197
$GPGGA,180541.00,3358.6458,N,11934.4671,W,1,10,0.8,8.5,M,-33.7,M,,*51
$PYRTM,2024,126.753976567465,17.863623977604
$GPGGA,180542.00,3358.6456,N,11934.4677,W,1,10,0.8,8.5,M,-33.7,M,,*5A
$PYRTM,2024,126.753987677130,17.863635087269
$GPGGA,180543.00,3358.6455,N,11934.4684,W,1,10,0.8,9.9,M,-33.7,M,,*59
$PYRTM,2024,126.753998788275,17.863646198414
$GPGGA,180544.00,3358.6453,N,11934.4690,W,1,10,0.8,10.4,M,-33.7,M,,*68
$PYRTM,2024,126.754009901019,17.863657311157
$GPGGA,180545.00,3358.6451,N,11934.4696,W,1,10,0.8,12.1,M,-33.7,M,,*6A
$PYRTM,2024,126.754021009421,17.863668419560
$GPGGA,180546.00,3358.6448,N,11934.4701,W,1,10,0.8,11.8,M,-33.7,M,,*64
$PYRTM,2024,126.754032123796,17.863679533935
$GPGGA,180547.00,3358.6447,N,11934.4707,W,1,10,0.8,11.4,M,-33.7,M,,*60
$PYRTM,2024,126.754050741331,17.863698151470
$GPGGA,180548.00,3358.6445,N,11934.4712,W,1,10,0.8,11.1,M,-33.7,M,,*6C
$PYRTM,2024,126.754061869062,17.863709279201
$GPGGA,180549.00,3358.6444,N,11934.4718,W,1,10,0.8,10.6,M,-33.7,M,,*60
$PYRTM,2024,126.754072964178,17.863720374317
$GPGGA,180550.00,3358.6442,N,11934.4724,W,1,10,0.8,10.4,M,-33.7,M,,*63
$PYRTM,2024,126.754084087697,17.863731497847
$GPGGA,180551.00,3358.6440,N,11934.4729,W,1,10,0.8,9.5,M,-33.7,M,,*54
$PYRTM,2024,126.754095198056,17.863742608194
$GPGGA,180552.00,3358.6437,N,11934.4734,W,1,10,0.8,9.2,M,-33.7,M,,*5C
$PYRTM,2024,126.754106309595,17.863753719734
$GPGGA,180553.00,3358.6434,N,11934.4740,W,1,10,0.8,10.9,M,-33.7,M,,*6E
$PYRTM,2024,126.754117422824,17.863764832963
$GPGGA,180554.00,3358.6431,N,11934.4746,W,1,10,0.8,10.8,M,-33.7,M,,*6B
$PYRTM,2024,126.754128532141,17.863775942280
$GPGGA,180555.00,3358.6430,N,11934.4754,W,1,10,0.8,12.1,M,-33.7,M,,*63
$PYRTM,2024,126.754139657616,17.863787067743
$GPGGA,180556.00,3358.6426,N,11934.4762,W,1,10,0.8,11.0,M,-33.7,M,,*60
$PYRTM,2024,126.754150755625,17.863798165775
$GPGGA,180557.00,3358.6422,N,11934.4768,W,1,10,0.8,10.9,M,-33.7,M,,*67
$PYRTM,2024,126.754162316412,17.863809726551
$GPGGA,180558.00,3358.6419,N,11934.4774,W,1,10,0.8,11.2,M,-33.7,M,,*67
$PYRTM,2024,126.754173427500,17.863820837639
$GPGGA,180559.00,3358.6418,N,11934.4780,W,1,10,0.8,11.5,M,-33.7,M,,*6B
$PYRTM,2024,126.754184537836,17.863831947975
$GPGGA,180600.00,3358.6417,N,11934.4786,W,1,10,0.8,12.5,M,-33.7,M,,*6E
$PYRTM,2024,126.754195650058,17.863843060208
$GPGGA,180601.00,3358.6416,N,11934.4793,W,1,10,0.8,11.0,M,-33.7,M,,*6C
$PYRTM,2024,126.754206761273,17.863854171412
$GPGGA,180602.00,3358.6413,N,11934.4799,W,1,10,0.8,10.0,M,-33.7,M,,*61
$PYRTM,2024,126.754217872535,17.863865282674
$GPGGA,180603.00,3358.6409,N,11934.4804,W,1,10,0.8,8.5,M,-33.7,M,,*5C
$PYRTM,2024,126.754228983009,17.863876393148
$GPGGA,180604.00,3358.6407,N,11934.4809,W,1,10,0.8,8.8,M,-33.7,M,,*55
$PYRTM,2024,126.754245203102,17.863892613252
$GPGGA,180605.00,3358.6408,N,11934.4815,W,1,10,0.8,8.7,M,-33.7,M,,*59
$PYRTM,2024,126.754256762141,17.863904172280
$GPGGA,180606.00,3358.6409,N,11934.4822,W,1,10,0.8,9.7,M,-33.7,M,,*5E
$PYRTM,2024,126.754268363333,17.863915773472
$GPGGA,180607.00,3358.6407,N,11934.4829,W,1,10,0.8,8.4,M,-33.7,M,,*58
$PYRTM,2024,126.754279908611,17.863927318750
$GPGGA,180608.00,3358.6404,N,11934.4836,W,1,10,0.8,7.3,M,-33.7,M,,*52
$PYRTM,2024,126.754291497373,17.863938907512
$GPGGA,180609.00,3358.6401,N,11934.4841,W,1,10,0.8,7.3,M,-33.7,M,,*56
$PYRTM,2024,126.754303058495,17.863950468646
$GPGGA,180610.00,3358.6400,N,11934.4847,W,1,10,0.8,7.7,M,-33.7,M,,*5D
$PYRTM,2024,126.754314646065,17.863962056204
$GPGGA,180611.00,3358.6402,N,11934.4854,W,1,10,0.8,7.7,M,-33.7,M,,*5C
$PYRTM,2024,126.754326206470,17.863973616609
$GPGGA,180612.00,3358.6402,N,11934.4861,W,1,10,0.8,6.7,M,-33.7,M,,*58
$PYRTM,2024,126.754337793843,17.863985203981
$GPGGA,180613.00,3358.6399,N,11934.4867,W,1,10,0.8,5.9,M,-33.7,M,,*57
$PYRTM,2024,126.754349355150,17.863996765289
$GPGGA,180614.00,3358.6395,N,11934.4871,W,1,10,0.8,5.9,M,-33.7,M,,*5B
$PYRTM,2024,126.754360941655,17.864008351794
$GPGGA,180615.00,3358.6392,N,11934.4876,W,1,10,0.8,6.8,M,-33.7,M,,*58
$PYRTM,2024,126.754372503692,17.864019913831
$GPGGA,180616.00,3358.6391,N,11934.4881,W,1,10,0.8,9.0,M,-33.7,M,,*57
$PYRTM,2024,126.754384089190,17.864031499329
$GPGGA,180617.00,3358.6390,N,11934.4888,W,1,10,0.8,10.2,M,-33.7,M,,*64
$PYRTM,2024,126.754395650590,17.864043060729
$GPGGA,180618.00,3358.6388,N,11934.4894,W,1,10,0.8,10.3,M,-33.7,M,,*6E
$PYRTM,2024,126.754407241481,17.864054651620
$GPGGA,180619.00,3358.6385,N,11934.4898,W,1,10,0.8,10.2,M,-33.7,M,,*6F
$PYRTM,2024,126.754417654410,17.864065064549
$GPGGA,180620.00,3358.6383,N,11934.4903,W,1,10,0.8,10.2,M,-33.7,M,,*60
$PYRTM,2024,126.754430389213,17.864077799352
$GPGGA,180621.00,3358.6381,N,11934.4909,W,1,10,0.8,9.7,M,-33.7,M,,*54
$PYRTM,2024,126.754441948252,17.864089358391
$GPGGA,180622.00,3358.6380,N,11934.4914,W,1,10,0.8,10.1,M,-33.7,M,,*64
$PYRTM,2024,126.754453550972,17.864100961111
$GPGGA,180623.00,3358.6379,N,11934.4920,W,1,10,0.8,10.0,M,-33.7,M,,*65
$PYRTM,2024,126.754465097512,17.864112507650
$GPGGA,180624.00,3358.6376,N,11934.4927,W,1,10,0.8,10.7,M,-33.7,M,,*6D
$PYRTM,2024,126.754476685197,17.864124095336
$GPGGA,180625.00,3358.6372,N,11934.4933,W,1,10,0.8,10.7,M,-33.7,M,,*6D
$PYRTM,2024,126.754488245046,17.864135655185
$GPGGA,180626.00,3358.6369,N,11934.4940,W,1,10,0.8,11.0,M,-33.7,M,,*66
$PYRTM,2024,126.754499831343,17.864147241493
$GPGGA,180627.00,3358.6367,N,11934.4946,W,1,10,0.8,10.9,M,-33.7,M,,*67
$PYRTM,2024,126.754511393148,17.864158803299
$GPGGA,180628.00,3358.6366,N,11934.4952,W,1,10,0.8,10.8,M,-33.7,M,,*6D
$PYRTM,2024,126.754522980764,17.864170390903
$GPGGA,180629.00,3358.6363,N,11934.4958,W,1,10,0.8,8.7,M,-33.7,M,,*55
$PYRTM,2024,126.754534541690,17.864181951829
$GPGGA,180630.00,3358.6360,N,11934.4964,W,1,10,0.8,8.7,M,-33.7,M,,*51
$PYRTM,2024,126.754546123079,17.864193533229
$GPGGA,180631.00,3358.6359,N,11934.4971,W,1,10,0.8,9.7,M,-33.7,M,,*5F
$PYRTM,2024,126.754557689178,17.864205099317
$GPGGA,180632.00,3358.6358,N,11934.4977,W,1,10,0.8,9.8,M,-33.7,M,,*54
$PYRTM,2024,126.754569271458,17.864216681597
$GPGGA,180633.00,3358.6357,N,11934.4982,W,1,10,0.8,9.7,M,-33.7,M,,*5F
$PYRTM,2024,126.754580839144,17.864228249282
$GPGGA,180634.00,3358.6355,N,11934.4987,W,1,10,0.8,9.7,M,-33.7,M,,*5F
$PYRTM,2024,126.754591022951,17.864238433102
$GPGGA,180635.00,3358.6353,N,11934.4992,W,1,10,0.8,9.5,M,-33.7,M,,*5E
$PYRTM,2024,126.754602841146,17.864250251285
$GPGGA,180636.00,3358.6351,N,11934.4998,W,1,10,0.8,6.5,M,-33.7,M,,*5A
$PYRTM,2024,126.754615576111,17.864262986250
$GPGGA,180637.00,3358.6350,N,11934.5005,W,1,10,0.8,6.7,M,-33.7,M,,*54
$PYRTM,2024,126.754627135058,17.864274545197
$GPGGA,180638.00,3358.6349,N,11934.5011,W,1,10,0.8,9.0,M,-33.7,M,,*5E
$PYRTM,2024,126.754638721493,17.864286131632
$GPGGA,180639.00,3358.6348,N,11934.5019,W,1,10,0.8,10.7,M,-33.7,M,,*69
$PYRTM,2024,126.754650281354,17.864297691493
$GPGGA,180640.00,3358.6346,N,11934.5027,W,1,10,0.8,7.6,M,-33.7,M,,*53
$PYRTM,2024,126.754661869144,17.864309279282
$GPGGA,180641.00,3358.6345,N,11934.5034,W,1,09,0.8,7.4,M,-33.7,M,,*59
$PYRTM,2024,126.754673443125,17.864320853264
$GPGGA,180642.00,3358.6344,N,11934.5039,W,1,09,0.8,7.5,M,-33.7,M,,*57
$PYRTM,2024,126.754685018877,17.864332429016
$GPGGA,180643.00,3358.6343,N,11934.5044,W,1,09,0.8,7.6,M,-33.7,M,,*58
$PYRTM,2024,126.754696592836,17.864344002975
$GPGGA,180644.00,3358.6342,N,11934.5050,W,1,09,0.8,7.2,M,-33.7,M,,*5F
$PYRTM,2024,126.754708166053,17.864355576192
$GPGGA,180645.00,3358.6340,N,11934.5056,W,1,09,0.8,6.8,M,-33.7,M,,*51
$PYRTM,2024,126.754719739201,17.864367149340
$GPGGA,180646.00,3358.6338,N,11934.5061,W,1,09,0.8,6.6,M,-33.7,M,,*57
$PYRTM,2024,126.754731315046,17.864378725185
$GPGGA,180647.00,3358.6337,N,11934.5068,W,1,09,0.8,8.3,M,-33.7,M,,*5B
$PYRTM,2024,126.754742887292,17.864390297431
$GPGGA,180648.00,3358.6336,N,11934.5075,W,1,09,0.8,8.0,M,-33.7,M,,*5A
$PYRTM,2024,126.754754461539,17.864401871678
$GPGGA,180649.00,3358.6334,N,11934.5082,W,1,09,0.8,7.7,M,-33.7,M,,*59
$PYRTM,2024,126.754766035475,17.864413445613
$GPGGA,180650.00,3358.6332,N,11934.5087,W,1,09,0.8,7.9,M,-33.7,M,,*5C
$PYRTM,2024,126.754777613519,17.864425023657
$GPGGA,180651.00,3358.6330,N,11934.5092,W,1,09,0.8,7.9,M,-33.7,M,,*5B
$PYRTM,2024,126.754789183646,17.864436593785
$GPGGA,180652.00,3358.6329,N,11934.5098,W,1,09,0.8,10.3,M,-33.7,M,,*66
$PYRTM,2024,126.754800760613,17.864448170752
$GPGGA,180653.00,3358.6327,N,11934.5105,W,1,09,0.8,10.2,M,-33.7,M,,*6D
$PYRTM,2024,126.754812331528,17.864459741667
$GPGGA,180654.00,3358.6326,N,11934.5110,W,1,09,0.8,10.3,M,-33.7,M,,*6E
$PYRTM,2024,126.754823906400,17.864471316539
$GPGGA,180655.00,3358.6326,N,11934.5115,W,1,09,0.8,9.9,M,-33.7,M,,*58
$PYRTM,2024,126.754835480903,17.864482891042
$GPGGA,180656.00,3358.6323,N,11934.5122,W,1,09,0.8,15.2,M,-33.7,M,,*6C
$PYRTM,2024,126.754847056030,17.864494466169
$GPGGA,180657.00,3358.6319,N,11934.5128,W,1,09,0.8,14.3,M,-33.7,M,,*6E
$PYRTM,2024,126.754858630231,17.864506040382
$GPGGA,180658.00,3358.6317,N,11934.5134,W,1,09,0.8,14.5,M,-33.7,M,,*64
$PYRTM,2024,126.754870204005,17.864517614144
$GPGGA,180659.00,3358.6315,N,11934.5139,W,1,09,0.8,14.5,M,-33.7,M,,*6A
$PYRTM,2024,126.754881772824,17.864529182963
$GPGGA,180700.00,3358.6312,N,11934.5145,W,1,09,0.8,15.9,M,-33.7,M,,*66
$PYRTM,2024,126.754893347535,17.864540757674
$GPGGA,180701.00,3358.6309,N,11934.5150,W,1,09,0.8,15.7,M,-33.7,M,,*67
$PYRTM,2024,126.754904926389,17.864552336528
$GPGGA,180702.00,3358.6307,N,11934.5155,W,1,09,0.8,15.4,M,-33.7,M,,*6C
$PYRTM,2024,126.754916500833,17.864563910972
$GPGGA,180703.00,3358.6304,N,11934.5160,W,1,09,0.8,15.0,M,-33.7,M,,*6C
$PYRTM,2024,126.754928074479,17.864575484618
$GPGGA,180704.00,3358.6304,N,11934.5165,W,1,09,0.8,15.3,M,-33.7,M,,*6D
$PYRTM,2024,126.754938722454,17.864586132593
$GPGGA,180705.00,3358.6304,N,11934.5168,W,1,09,0.8,15.8,M,-33.7,M,,*6A
$PYRTM,2024,126.754950066157,17.864597476296
$GPGGA,180706.00,3358.6302,N,11934.5173,W,1,09,0.8,16.3,M,-33.7,M,,*6D
$PYRTM,2024,126.754962799757,17.864610209896
$GPGGA,180707.00,3358.6299,N,11934.5179,W,1,09,0.8,16.1,M,-33.7,M,,*67
$PYRTM,2024,126.754974370833,17.864621780972
$GPGGA,180708.00,3358.6297,N,11934.5184,W,1,09,0.8,15.9,M,-33.7,M,,*6F
$PYRTM,2024,126.754985948333,17.864633358472
$GPGGA,180709.00,3358.6294,N,11934.5191,W,1,09,0.8,17.9,M,-33.7,M,,*6B
$PYRTM,2024,126.754997519491,17.864644929641
$GPGGA,180710.00,3358.6292,N,11934.5199,W,1,09,0.8,17.9,M,-33.7,M,,*6D
$PYRTM,2024,126.755009092986,17.864656503125
$GPGGA,180711.00,3358.6290,N,11934.5206,W,1,09,0.8,16.7,M,-33.7,M,,*64
$PYRTM,2024,126.755020666574,17.864668076725
$GPGGA,180712.00,3358.6287,N,11934.5212,W,1,09,0.8,16.7,M,-33.7,M,,*64
$PYRTM,2024,126.755032242674,17.864679652812
$GPGGA,180713.00,3358.6283,N,11934.5218,W,1,09,0.8,16.6,M,-33.7,M,,*6A
$PYRTM,2024,126.755043811806,17.864691221956
$GPGGA,180714.00,3358.6281,N,11934.5224,W,1,09,0.8,16.7,M,-33.7,M,,*61
$PYRTM,2024,126.755055383981,17.864702794120
$GPGGA,180715.00,3358.6280,N,11934.5230,W,1,09,0.8,16.7,M,-33.7,M,,*64
$PYRTM,2024,126.755066959468,17.864714369606
$GPGGA,180716.00,3358.6279,N,11934.5236,W,1,09,0.8,17.1,M,-33.7,M,,*60
$PYRTM,2024,126.755078533669,17.864725943808
$GPGGA,180717.00,3358.6276,N,11934.5242,W,1,09,0.8,16.8,M,-33.7,M,,*65
$PYRTM,2024,126.755090112975,17.864737523113
$GPGGA,180718.00,3358.6273,N,11934.5248,W,1,09,0.8,17.1,M,-33.7,M,,*6D
$PYRTM,2024,126.755101686030,17.864749096238
$GPGGA,180719.00,3358.6270,N,11934.5254,W,1,09,0.8,18.2,M,-33.7,M,,*6E
$PYRTM,2024,126.755113260602,17.864760670752
$GPGGA,180720.00,3358.6267,N,11934.5264,W,1,09,0.8,12.4,M,-33.7,M,,*6D
$PYRTM,2024,126.755124835532,17.864772245683
$GPGGA,180721.00,3358.6263,N,11934.5272,W,1,09,0.8,9.3,M,-33.7,M,,*52
$PYRTM,2024,126.755136408171,17.864783818310
$GPGGA,180722.00,3358.6259,N,11934.5279,W,1,09,0.8,9.8,M,-33.7,M,,*58
$PYRTM,2024,126.755147985926,17.864795396065
$GPGGA,180723.00,3358.6255,N,11934.5285,W,1,09,0.8,14.6,M,-33.7,M,,*64
$PYRTM,2024,126.755159552604,17.864806962743
$GPGGA,180724.00,3358.6252,N,11934.5292,W,1,09,0.8,14.6,M,-33.7,M,,*62
$PYRTM,2024,126.755171146331,17.864818556470
$GPGGA,180725.00,3358.6250,N,11934.5298,W,1,09,0.8,14.7,M,-33.7,M,,*6A
$PYRTM,2024,126.755182704502,17.864830114641
$GPGGA,180726.00,3358.6250,N,11934.5305,W,1,09,0.8,14.3,M,-33.7,M,,*68
$PYRTM,2024,126.755194279039,17.864841689178
$GPGGA,180727.00,3358.6248,N,11934.5311,W,1,09,0.8,14.3,M,-33.7,M,,*65
$PYRTM,2024,126.755206324676,17.864853734815
$GPGGA,180728.00,3358.6245,N,11934.5315,W,1,09,0.8,14.9,M,-33.7,M,,*69
$PYRTM,2024,126.755217891632,17.864865301771
$GPGGA,180729.00,3358.6242,N,11934.5321,W,1,09,0.8,15.1,M,-33.7,M,,*61
$PYRTM,2024,126.755229468600,17.864876878750
$GPGGA,180730.00,3358.6241,N,11934.5326,W,1,09,0.8,11.6,M,-33.7,M,,*6E
$PYRTM,2024,126.755241039896,17.864888450035
$GPGGA,180731.00,3358.6240,N,11934.5333,W,1,09,0.8,13.2,M,-33.7,M,,*6C
$PYRTM,2024,126.755252627778,17.864900037917
$GPGGA,180732.00,3358.6239,N,11934.5339,W,1,09,0.8,13.4,M,-33.7,M,,*6D
$PYRTM,2024,126.755264199248,17.864911609387
$GPGGA,180733.00,3358.6236,N,11934.5344,W,1,10,0.8,13.6,M,-33.7,M,,*63
$PYRTM,2024,126.755275765394,17.864923175532
$GPGGA,180734.00,3358.6234,N,11934.5348,W,1,10,0.8,13.6,M,-33.7,M,,*6A
$PYRTM,2024,126.755286062326,17.864933472465
$GPGGA,180735.00,3358.6232,N,11934.5352,W,1,10,0.8,14.3,M,-33.7,M,,*64
$PYRTM,2024,126.755297290938,17.864944701076
$GPGGA,180736.00,3358.6232,N,11934.5357,W,1,10,0.8,14.6,M,-33.7,M,,*67
$PYRTM,2024,126.755310015093,17.864957425231
$GPGGA,180737.00,3358.6232,N,11934.5362,W,1,10,0.8,14.1,M,-33.7,M,,*67
$PYRTM,2024,126.755321595475,17.864969005613
$GPGGA,180738.00,3358.6230,N,11934.5368,W,1,10,0.8,13.7,M,-33.7,M,,*61
$PYRTM,2024,126.755333172535,17.864980582674
$GPGGA,180739.00,3358.6227,N,11934.5373,W,1,10,0.8,11.1,M,-33.7,M,,*68
$PYRTM,2024,126.755344742616,17.864992152766
$GPGGA,180740.00,3358.6225,N,11934.5379,W,1,10,0.8,11.3,M,-33.7,M,,*6C
$PYRTM,2024,126.755356320185,17.865003730324
$GPGGA,180741.00,3358.6224,N,11934.5384,W,1,10,0.8,12.0,M,-33.7,M,,*6E
$PYRTM,2024,126.755367892477,17.865015302627
$GPGGA,180742.00,3358.6224,N,11934.5390,W,1,10,0.8,12.1,M,-33.7,M,,*69
$PYRTM,2024,126.755378539387,17.865025949525
$GPGGA,180743.00,3358.6223,N,11934.5396,W,1,10,0.8,11.7,M,-33.7,M,,*6C
$PYRTM,2024,126.755390446701,17.865037856852
$GPGGA,180744.00,3358.6221,N,11934.5402,W,1,10,0.8,11.5,M,-33.7,M,,*61
$PYRTM,2024,126.755401223831,17.865048633970
$GPGGA,180745.00,3358.6219,N,11934.5407,W,1,10,0.8,11.4,M,-33.7,M,,*6F
$PYRTM,2024,126.755412330995,17.865059741134
$GPGGA,180746.00,3358.6217,N,11934.5413,W,1,10,0.8,11.5,M,-33.7,M,,*66
$PYRTM,2024,126.755423446782,17.865070856921
$GPGGA,180747.00,3358.6217,N,11934.5419,W,1,10,0.8,14.3,M,-33.7,M,,*6E
$PYRTM,2024,126.755434559051,17.865081969190
$GPGGA,180748.00,3358.6217,N,11934.5426,W,1,10,0.8,12.8,M,-33.7,M,,*60
$PYRTM,2024,126.755445670336,17.865093080475
$GPGGA,180749.00,3358.6216,N,11934.5431,W,1,10,0.8,12.8,M,-33.7,M,,*66
$PYRTM,2024,126.755456780683,17.865104190822
$GPGGA,180750.00,3358.6214,N,11934.5435,W,1,10,0.8,12.8,M,-33.7,M,,*68
$PYRTM,2024,126.755467892940,17.865115303079
$GPGGA,180751.00,3358.6212,N,11934.5440,W,1,10,0.8,12.9,M,-33.7,M,,*6C
$PYRTM,2024,126.755479002604,17.865126412743
$GPGGA,180752.00,3358.6211,N,11934.5446,W,1,10,0.8,14.7,M,-33.7,M,,*62
$PYRTM,2024,126.755497508137,17.865144918275
$GPGGA,180753.00,3358.6211,N,11934.5452,W,1,10,0.8,14.0,M,-33.7,M,,*61
$PYRTM,2024,126.755508632025,17.865156042164
$GPGGA,180754.00,3358.6210,N,11934.5459,W,1,10,0.8,14.0,M,-33.7,M,,*6C
$PYRTM,2024,126.755520077118,17.865167487269
$GPGGA,180755.00,3358.6208,N,11934.5464,W,1,10,0.8,14.5,M,-33.7,M,,*6F
$PYRTM,2024,126.755531187639,17.865178597778
$GPGGA,180756.00,3358.6205,N,11934.5469,W,1,10,0.8,14.7,M,-33.7,M,,*6E
$PYRTM,2024,126.755542431968,17.865189842106
$GPGGA,180757.00,3358.6203,N,11934.5474,W,1,10,0.8,15.5,M,-33.7,M,,*66
$PYRTM,2024,126.755553881516,17.865201291655
$GPGGA,180758.00,3358.6202,N,11934.5480,W,1,10,0.8,15.5,M,-33.7,M,,*63
$PYRTM,2024,126.755564997894,17.865212408032
$GPGGA,180759.00,3358.6200,N,11934.5488,W,1,10,0.8,12.3,M,-33.7,M,,*69
$PYRTM,2024,126.755576109005,17.865223519144
$GPGGA,180800.00,3358.6197,N,11934.5495,W,1,10,0.8,12.2,M,-33.7,M,,*6A
$PYRTM,2024,126.755587222627,17.865234632766
$GPGGA,180801.00,3358.6195,N,11934.5500,W,1,10,0.8,12.3,M,-33.7,M,,*65
$PYRTM,2024,126.755598334097,17.865245744248
$GPGGA,180802.00,3358.6194,N,11934.5505,W,1,10,0.8,13.0,M,-33.7,M,,*60
$PYRTM,2024,126.755609559282,17.865256969433
$GPGGA,180803.00,3358.6192,N,11934.5511,W,1,10,0.8,14.2,M,-33.7,M,,*67
$PYRTM,2024,126.755620665856,17.865268075995
$GPGGA,180804.00,3358.6190,N,11934.5517,W,1,10,0.8,14.0,M,-33.7,M,,*66
$PYRTM,2024,126.755636281840,17.865283691979
$GPGGA,180805.00,3358.6188,N,11934.5523,W,1,10,0.8,13.8,M,-33.7,M,,*66
$PYRTM,2024,126.755647517535,17.865294927674
$GPGGA,180806.00,3358.6186,N,11934.5528,W,1,10,0.8,13.7,M,-33.7,M,,*6F
$PYRTM,2024,126.755658622303,17.865306032442
$GPGGA,180807.00,3358.6185,N,11934.5532,W,1,10,0.8,15.8,M,-33.7,M,,*6F
$PYRTM,2024,126.755669732500,17.865317142639
$GPGGA,180808.00,3358.6183,N,11934.5538,W,1,10,0.8,14.4,M,-33.7,M,,*61
$PYRTM,2024,126.755680850301,17.865328260440
$GPGGA,180809.00,3358.6181,N,11934.5544,W,1,10,0.8,14.3,M,-33.7,M,,*6E
$PYRTM,2024,126.755692071713,17.865339481852
$GPGGA,180810.00,3358.6179,N,11934.5550,W,1,10,0.8,14.1,M,-33.7,M,,*66
$PYRTM,2024,126.755703544167,17.865350954306
$GPGGA,180811.00,3358.6176,N,11934.5555,W,1,10,0.8,14.2,M,-33.7,M,,*6E
$PYRTM,2024,126.755715114988,17.865362525127
$GPGGA,180812.00,3358.6174,N,11934.5560,W,1,10,0.8,16.3,M,-33.7,M,,*6A
$PYRTM,2024,126.755726692407,17.865374102546
$GPGGA,180813.00,3358.6171,N,11934.5566,W,1,10,0.8,13.0,M,-33.7,M,,*6E
$PYRTM,2024,126.755738263808,17.865385673958
$GPGGA,180814.00,3358.6169,N,11934.5573,W,1,10,0.8,14.2,M,-33.7,M,,*61
$PYRTM,2024,126.755748668877,17.865396079016
$GPGGA,180815.00,3358.6167,N,11934.5579,W,1,10,0.8,14.4,M,-33.7,M,,*62
$PYRTM,2024,126.755761411493,17.865408821644
$GPGGA,180816.00,3358.6165,N,11934.5584,W,1,10,0.8,14.5,M,-33.7,M,,*60
$PYRTM,2024,126.755772987303,17.865420397454
$GPGGA,180817.00,3358.6163,N,11934.5589,W,1,10,0.8,17.4,M,-33.7,M,,*68
$PYRTM,2024,126.755784559687,17.865431969838
$GPGGA,180818.00,3358.6161,N,11934.5597,W,1,10,0.8,16.1,M,-33.7,M,,*6E
$PYRTM,2024,126.755796135116,17.865443545255
$GPGGA,180819.00,3358.6159,N,11934.5603,W,1,10,0.8,16.2,M,-33.7,M,,*69
$PYRTM,2024,126.755807708472,17.865455118611
$GPGGA,180820.00,3358.6157,N,11934.5608,W,1,10,0.8,16.2,M,-33.7,M,,*66
$PYRTM,2024,126.755819282488,17.865466692627
$GPGGA,180821.00,3358.6156,N,11934.5614,W,1,10,0.8,16.6,M,-33.7,M,,*6F
$PYRTM,2024,126.755830856759,17.865478266898
$GPGGA,180822.00,3358.6154,N,11934.5620,W,1,10,0.8,18.0,M,-33.7,M,,*61
$PYRTM,2024,126.755842432870,17.865489843009
$GPGGA,180823.00,3358.6153,N,11934.5626,W,1,10,0.8,16.0,M,-33.7,M,,*6F
$PYRTM,2024,126.755854005313,17.865501415451
$GPGGA,180824.00,3358.6152,N,11934.5632,W,1,10,0.8,13.9,M,-33.7,M,,*60
$PYRTM,2024,126.755865582025,17.865512992164
$GPGGA,180825.00,3358.6152,N,11934.5639,W,1,10,0.8,14.0,M,-33.7,M,,*64
$PYRTM,2024,126.755877149340,17.865524559479
$GPGGA,180826.00,3358.6150,N,11934.5644,W,1,10,0.8,14.6,M,-33.7,M,,*69
$PYRTM,2024,126.755888742315,17.865536152465
$GPGGA,180827.00,3358.6149,N,11934.5649,W,1,10,0.8,15.5,M,-33.7,M,,*6F
$PYRTM,2024,126.755900301551,17.865547711690
$GPGGA,180828.00,3358.6149,N,11934.5655,W,1,10,0.8,15.4,M,-33.7,M,,*6C
$PYRTM,2024,126.755911889676,17.865559299815
$GPGGA,180829.00,3358.6148,N,11934.5661,W,1,10,0.8,15.3,M,-33.7,M,,*6C
$PYRTM,2024,126.755923449757,17.865570859907
$GPGGA,180830.00,3358.6148,N,11934.5667,W,1,10,0.8,15.3,M,-33.7,M,,*62
$PYRTM,2024,126.755935024120,17.865582434271
$GPGGA,180831.00,3358.6147,N,11934.5673,W,1,10,0.8,15.5,M,-33.7,M,,*6F
$PYRTM,2024,126.755946598762,17.865594008900
$GPGGA,180832.00,3358.6145,N,11934.5679,W,1,10,0.8,15.4,M,-33.7,M,,*65
$PYRTM,2024,126.755958172778,17.865605582928
$GPGGA,180833.00,3358.6143,N,11934.5684,W,1,10,0.8,15.6,M,-33.7,M,,*62
$PYRTM,2024,126.755969741019,17.865617151157
$GPGGA,180834.00,3358.6143,N,11934.5690,W,1,10,0.8,12.0,M,-33.7,M,,*61
$PYRTM,2024,126.755979931782,17.865627341933
$GPGGA,180835.00,3358.6142,N,11934.5696,W,1,10,0.8,11.5,M,-33.7,M,,*61
$PYRTM,2024,126.755991741030,17.865639151169
$GPGGA,180836.00,3358.6142,N,11934.5702,W,1,10,0.8,10.9,M,-33.7,M,,*63
$PYRTM,2024,126.756004472083,17.865651882222
$GPGGA,180837.00,3358.6141,N,11934.5707,W,1,10,0.8,10.8,M,-33.7,M,,*65
