$PYRTM,2024,122.083341016400,13.192988426539
$GPGGA,015959.00,3313.8338,N,11837.9449,W,1,08,1.0,12.9,M,-34.7,M,,*6F
$PYRTM,2024,122.083352575394,13.192999985532
$GPGGA,020000.00,3313.8348,N,11837.9475,W,1,08,1.0,11.6,M,-34.7,M,,*68
$PYRTM,2024,122.083364162685,13.193011572824
$GPGGA,020001.00,3313.8357,N,11837.9504,W,1,08,1.0,11.4,M,-34.7,M,,*62
$PYRTM,2024,122.083375723935,13.193023134074
$GPGGA,020002.00,3313.8363,N,11837.9527,W,1,08,1.0,13.9,M,-34.7,M,,*68
$PYRTM,2024,122.083387311481,13.193034721620
$GPGGA,020003.00,3313.8370,N,11837.9548,W,1,08,1.0,15.3,M,-34.7,M,,*6E
$PYRTM,2024,122.083398872222,13.193046282361
$GPGGA,020004.00,3313.8379,N,11837.9573,W,1,08,1.0,14.0,M,-34.7,M,,*6A
$PYRTM,2024,122.083410459734,13.193057869873
$GPGGA,020005.00,3313.8389,N,11837.9598,W,1,08,1.0,16.7,M,-34.7,M,,*64
$PYRTM,2024,122.083422019745,13.193069429884
$GPGGA,020006.00,3313.8398,N,11837.9623,W,1,08,1.0,16.3,M,-34.7,M,,*60
$PYRTM,2024,122.083435214896,13.193082625035
$GPGGA,020007.00,3313.8407,N,11837.9648,W,1,08,1.0,14.4,M,-34.7,M,,*68
$PYRTM,2024,122.083446558194,13.193093968333
$GPGGA,020008.00,3313.8414,N,11837.9673,W,1,08,1.0,15.9,M,-34.7,M,,*61
$PYRTM,2024,122.083457913912,13.193105324051
$GPGGA,020009.00,3313.8422,N,11837.9697,W,1,08,1.0,16.1,M,-34.7,M,,*64
$PYRTM,2024,122.083469473264,13.193116883403
$GPGGA,020010.00,3313.8432,N,11837.9720,W,1,08,1.0,13.1,M,-34.7,M,,*65
$PYRTM,2024,122.083481065671,13.193128475822
$GPGGA,020011.00,3313.8443,N,11837.9745,W,1,08,1.0,13.8,M,-34.7,M,,*68
$PYRTM,2024,122.083492621123,13.193140031262
$GPGGA,020012.00,3313.8452,N,11837.9770,W,1,08,1.0,13.8,M,-34.7,M,,*6D
$PYRTM,2024,122.083504210359,13.193151620498
$GPGGA,020013.00,3313.8458,N,11837.9797,W,1,08,1.0,12.5,M,-34.7,M,,*63
$PYRTM,2024,122.083515769942,13.193163180081
$GPGGA,020014.00,3313.8465,N,11837.9821,W,1,08,1.0,12.4,M,-34.7,M,,*69
$PYRTM,2024,122.083527357847,13.193174767986
$GPGGA,020015.00,3313.8474,N,11837.9845,W,1,08,1.0,14.7,M,-34.7,M,,*6F
$PYRTM,2024,122.083538918252,13.193186328391
$GPGGA,020016.00,3313.8483,N,11837.9869,W,1,08,1.0,12.8,M,-34.7,M,,*63
$PYRTM,2024,122.083550507477,13.193197917616
$GPGGA,020017.00,3313.8490,N,11837.9893,W,1,08,1.0,11.0,M,-34.7,M,,*6E
$PYRTM,2024,122.083562068287,13.193209478426
$GPGGA,020018.00,3313.8496,N,11837.9919,W,1,08,1.0,11.2,M,-34.7,M,,*66
$PYRTM,2024,122.083573656273,13.193221066412
$GPGGA,020019.00,3313.8502,N,11837.9945,W,1,08,1.0,14.0,M,-34.7,M,,*65
$PYRTM,2024,122.083585693727,13.193233103866
$GPGGA,020020.00,3313.8511,N,11837.9970,W,1,08,1.0,15.3,M,-34.7,M,,*69
$PYRTM,2024,122.083597137755,13.193244547905
$GPGGA,020021.00,3313.8520,N,11837.9995,W,1,08,1.0,12.6,M,-34.7,M,,*63
$PYRTM,2024,122.083608363229,13.193255773368
$GPGGA,020022.00,3313.8528,N,11838.0019,W,1,08,1.0,12.1,M,-34.7,M,,*64
$PYRTM,2024,122.083619950752,13.193267360891
$GPGGA,020023.00,3313.8537,N,11838.0043,W,1,08,1.0,11.5,M,-34.7,M,,*63
$PYRTM,2024,122.083631511817,13.193278921956
$GPGGA,020024.00,3313.8545,N,11838.0069,W,1,08,1.0,11.2,M,-34.7,M,,*6E
$PYRTM,2024,122.083643100116,13.193290510266
$GPGGA,020025.00,3313.8552,N,11838.0095,W,1,08,1.0,13.9,M,-34.7,M,,*63
$PYRTM,2024,122.083654661169,13.193302071308
$GPGGA,020026.00,3313.8560,N,11838.0118,W,1,08,1.0,13.7,M,-34.7,M,,*6B
$PYRTM,2024,122.083666247963,13.193313658102
$GPGGA,020027.00,3313.8569,N,11838.0142,W,1,08,1.0,13.5,M,-34.7,M,,*6E
$PYRTM,2024,122.083677810185,13.193325220324
$GPGGA,020028.00,3313.8578,N,11838.0167,W,1,08,1.0,13.5,M,-34.7,M,,*66
$PYRTM,2024,122.083689397164,13.193336807303
$GPGGA,020029.00,3313.8587,N,11838.0192,W,1,08,1.0,10.3,M,-34.7,M,,*68
$PYRTM,2024,122.083700957153,13.193348367292
$GPGGA,020030.00,3313.8595,N,11838.0217,W,1,08,1.0,10.6,M,-34.7,M,,*68
$PYRTM,2024,122.083712544988,13.193359955127
$GPGGA,020031.00,3313.8603,N,11838.0241,W,1,08,1.0,12.2,M,-34.7,M,,*60
$PYRTM,2024,122.083724105637,13.193371515775
$GPGGA,020032.00,3313.8612,N,11838.0265,W,1,08,1.0,12.8,M,-34.7,M,,*6F
$PYRTM,2024,122.083735694074,13.193383104213
$GPGGA,020033.00,3313.8622,N,11838.0290,W,1,08,1.0,11.0,M,-34.7,M,,*6C
$PYRTM,2024,122.083747252801,13.193394662940
$GPGGA,020034.00,3313.8631,N,11838.0316,W,1,08,1.0,11.1,M,-34.7,M,,*67
$PYRTM,2024,122.083758841296,13.193406251435
$GPGGA,020035.00,3313.8639,N,11838.0341,W,1,08,1.0,13.7,M,-34.7,M,,*68
$PYRTM,2024,122.083770402326,13.193417812465
$GPGGA,020036.00,3313.8649,N,11838.0365,W,1,08,1.0,12.4,M,-34.7,M,,*68
$PYRTM,2024,122.083783018623,13.193430428762
$GPGGA,020037.00,3313.8659,N,11838.0392,W,1,08,1.0,12.3,M,-34.7,M,,*67
$PYRTM,2024,122.083795750579,13.193443160718
$GPGGA,020038.00,3313.8669,N,11838.0416,W,1,08,1.0,12.9,M,-34.7,M,,*6A
$PYRTM,2024,122.083805139780,13.193452549919
$GPGGA,020039.00,3313.8676,N,11838.0437,W,1,08,1.0,13.1,M,-34.7,M,,*6F
$PYRTM,2024,122.083816698426,13.193464108565
$GPGGA,020040.00,3313.8684,N,11838.0459,W,1,08,1.0,13.3,M,-34.7,M,,*66
$PYRTM,2024,122.083828285903,13.193475696042
$GPGGA,020041.00,3313.8693,N,11838.0486,W,1,08,1.0,12.9,M,-34.7,M,,*68
$PYRTM,2024,122.083839847176,13.193487257315
$GPGGA,020042.00,3313.8701,N,11838.0514,W,1,08,1.0,12.1,M,-34.7,M,,*63
$PYRTM,2024,122.083851434919,13.193498845069
$GPGGA,020043.00,3313.8707,N,11838.0535,W,1,08,1.0,12.1,M,-34.7,M,,*67
$PYRTM,2024,122.083862995093,13.193510405231
$GPGGA,020044.00,3313.8714,N,11838.0553,W,1,08,1.0,15.4,M,-34.7,M,,*60
$PYRTM,2024,122.083874578831,13.193521988970
$GPGGA,020045.00,3313.8723,N,11838.0576,W,1,08,1.0,11.2,M,-34.7,M,,*60
$PYRTM,2024,122.083886142882,13.193533553021
$GPGGA,020046.00,3313.8733,N,11838.0603,W,1,08,1.0,11.1,M,-34.7,M,,*60
$PYRTM,2024,122.083897731736,13.193545141875
$GPGGA,020047.00,3313.8740,N,11838.0627,W,1,08,1.0,12.3,M,-34.7,M,,*62
$PYRTM,2024,122.083909292894,13.193556703032
$GPGGA,020048.00,3313.8746,N,11838.0650,W,1,08,1.0,12.2,M,-34.7,M,,*6A
$PYRTM,2024,122.083920879606,13.193568289745
$GPGGA,020049.00,3313.8753,N,11838.0675,W,1,08,1.0,14.3,M,-34.7,M,,*6F
$PYRTM,2024,122.083932919039,13.193580329190
$GPGGA,020050.00,3313.8761,N,11838.0700,W,1,08,1.0,14.2,M,-34.7,M,,*64
$PYRTM,2024,122.083944478495,13.193591888634
$GPGGA,020051.00,3313.8771,N,11838.0725,W,1,08,1.0,14.8,M,-34.7,M,,*69
$PYRTM,2024,122.083956060359,13.193603470498
$GPGGA,020052.00,3313.8780,N,11838.0751,W,1,08,1.0,12.9,M,-34.7,M,,*60
$PYRTM,2024,122.083967625150,13.193615035289
$GPGGA,020053.00,3313.8788,N,11838.0778,W,1,08,1.0,11.7,M,-34.7,M,,*6F
$PYRTM,2024,122.083979213877,13.193626624016
$GPGGA,020054.00,3313.8796,N,11838.0801,W,1,08,1.0,11.5,M,-34.7,M,,*64
$PYRTM,2024,122.083990773542,13.193638183681
$GPGGA,020055.00,3313.8805,N,11838.0824,W,1,08,1.0,10.6,M,-34.7,M,,*65
$PYRTM,2024,122.084002362153,13.193649772303
$GPGGA,020056.00,3313.8815,N,11838.0849,W,1,08,1.0,11.3,M,-34.7,M,,*68
$PYRTM,2024,122.084014387326,13.193661797465
$GPGGA,020057.00,3313.8825,N,11838.0873,W,1,08,1.0,10.6,M,-34.7,M,,*67
$PYRTM,2024,122.084025509896,13.193672920035
$GPGGA,020058.00,3313.8832,N,11838.0897,W,1,08,1.0,13.0,M,-34.7,M,,*61
$PYRTM,2024,122.084037070150,13.193684480289
$GPGGA,020059.00,3313.8837,N,11838.0922,W,1,08,1.0,12.4,M,-34.7,M,,*6F
$PYRTM,2024,122.084048652905,13.193696063044
$GPGGA,020100.00,3313.8845,N,11838.0950,W,1,08,1.0,13.5,M,-34.7,M,,*62
$PYRTM,2024,122.084060217199,13.193707627338
$GPGGA,020101.00,3313.8855,N,11838.0975,W,1,08,1.0,11.6,M,-34.7,M,,*64
$PYRTM,2024,122.084071809225,13.193719219363
$GPGGA,020102.00,3313.8865,N,11838.0997,W,1,08,1.0,11.7,M,-34.7,M,,*69
$PYRTM,2024,122.084083366007,13.193730776146
$GPGGA,020103.00,3313.8872,N,11838.1019,W,1,08,1.0,12.5,M,-34.7,M,,*61
$PYRTM,2024,122.084094954595,13.193742364734
$GPGGA,020104.00,3313.8879,N,11838.1046,W,1,08,1.0,10.3,M,-34.7,M,,*63
$PYRTM,2024,122.084106513785,13.193753923924
$GPGGA,020105.00,3313.8888,N,11838.1073,W,1,08,1.0,11.7,M,-34.7,M,,*6F
$PYRTM,2024,122.084118103762,13.193765513900
$GPGGA,020106.00,3313.8896,N,11838.1095,W,1,08,1.0,13.2,M,-34.7,M,,*6C
$PYRTM,2024,122.084130836100,13.193778246238
$GPGGA,020107.00,3313.8904,N,11838.1118,W,1,08,1.0,14.3,M,-34.7,M,,*65
$PYRTM,2024,122.084142974815,13.193790384954
$GPGGA,020108.00,3313.8913,N,11838.1144,W,1,08,1.0,13.6,M,-34.7,M,,*67
$PYRTM,2024,122.084152357523,13.193799767662
$GPGGA,020109.00,3313.8922,N,11838.1171,W,1,08,1.0,14.0,M,-34.7,M,,*63
$PYRTM,2024,122.084163921759,13.193811331898
$GPGGA,020110.00,3313.8929,N,11838.1196,W,1,08,1.0,14.0,M,-34.7,M,,*69
$PYRTM,2024,122.084175511736,13.193822921887
$GPGGA,020111.00,3313.8937,N,11838.1217,W,1,08,1.0,13.1,M,-34.7,M,,*6B
$PYRTM,2024,122.084187071169,13.193834481319
$GPGGA,020112.00,3313.8946,N,11838.1240,W,1,08,1.0,14.2,M,-34.7,M,,*68
$PYRTM,2024,122.084198659306,13.193846069444
$GPGGA,020113.00,3313.8953,N,11838.1267,W,1,08,1.0,12.7,M,-34.7,M,,*6B
$PYRTM,2024,122.084210220683,13.193857630822
$GPGGA,020114.00,3313.8961,N,11838.1294,W,1,08,1.0,11.5,M,-34.7,M,,*60
$PYRTM,2024,122.084221808507,13.193869218657
$GPGGA,020115.00,3313.8966,N,11838.1317,W,1,08,1.0,12.7,M,-34.7,M,,*6D
$PYRTM,2024,122.084233369722,13.193880779873
$GPGGA,020116.00,3313.8973,N,11838.1338,W,1,08,1.0,12.5,M,-34.7,M,,*65
$PYRTM,2024,122.084244956632,13.193892366771
$GPGGA,020117.00,3313.8981,N,11838.1364,W,1,08,1.0,11.5,M,-34.7,M,,*63
$PYRTM,2024,122.084256516030,13.193903926169
$GPGGA,020118.00,3313.8991,N,11838.1391,W,1,08,1.0,13.6,M,-34.7,M,,*66
$PYRTM,2024,122.084267177650,13.193914587789
$GPGGA,020119.00,3313.8998,N,11838.1415,W,1,08,1.0,14.0,M,-34.7,M,,*64
$PYRTM,2024,122.084280257153,13.193927667292
$GPGGA,020120.00,3313.9004,N,11838.1438,W,1,08,1.0,11.8,M,-34.7,M,,*61
$PYRTM,2024,122.084289518947,13.193936929086
$GPGGA,020121.00,3313.9012,N,11838.1464,W,1,08,1.0,12.1,M,-34.7,M,,*64
$PYRTM,2024,122.084306069167,13.193953479306
$GPGGA,020122.00,3313.9022,N,11838.1491,W,1,08,1.0,11.8,M,-34.7,M,,*64
$PYRTM,2024,122.084317295903,13.193964706042
$GPGGA,020123.00,3313.9031,N,11838.1514,W,1,08,1.0,10.8,M,-34.7,M,,*6A
$PYRTM,2024,122.084328393032,13.193975803171
$GPGGA,020124.00,3313.9039,N,11838.1536,W,1,08,1.0,12.7,M,-34.7,M,,*68
$PYRTM,2024,122.084339516424,13.193986926562
$GPGGA,020125.00,3313.9047,N,11838.1563,W,1,08,1.0,12.4,M,-34.7,M,,*63
$PYRTM,2024,122.084350628356,13.193998038495
$GPGGA,020126.00,3313.9056,N,11838.1590,W,1,08,1.0,14.1,M,-34.7,M,,*6F
$PYRTM,2024,122.084361842859,13.194009252998
$GPGGA,020127.00,3313.9066,N,11838.1616,W,1,08,1.0,13.7,M,-34.7,M,,*61
$PYRTM,2024,122.084372954722,13.194020364861
$GPGGA,020128.00,3313.9076,N,11838.1643,W,1,08,1.0,13.3,M,-34.7,M,,*6B
$PYRTM,2024,122.084384066667,13.194031476806
$GPGGA,020129.00,3313.9085,N,11838.1668,W,1,08,1.0,13.5,M,-34.7,M,,*69
$PYRTM,2024,122.084395176181,13.194042586319
$GPGGA,020130.00,3313.9093,N,11838.1692,W,1,08,1.0,13.7,M,-34.7,M,,*61
$PYRTM,2024,122.084406404502,13.194053814641
$GPGGA,020131.00,3313.9100,N,11838.1716,W,1,08,1.0,14.4,M,-34.7,M,,*62
$PYRTM,2024,122.084417514664,13.194064924803
$GPGGA,020132.00,3313.9110,N,11838.1740,W,1,08,1.0,17.9,M,-34.7,M,,*6D
$PYRTM,2024,122.084429552650,13.194076962789
$GPGGA,020133.00,3313.9122,N,11838.1767,W,1,08,1.0,15.5,M,-34.7,M,,*66
$PYRTM,2024,122.084440776794,13.194088186933
$GPGGA,020134.00,3313.9132,N,11838.1794,W,1,08,1.0,13.9,M,-34.7,M,,*66
$PYRTM,2024,122.084451888669,13.194099298808
$GPGGA,020135.00,3313.9138,N,11838.1818,W,1,08,1.0,16.0,M,-34.7,M,,*6A
$PYRTM,2024,122.084463130498,13.194110540637
$GPGGA,020136.00,3313.9147,N,11838.1839,W,1,08,1.0,15.5,M,-34.7,M,,*64
$PYRTM,2024,122.084475732396,13.194123142535
$GPGGA,020137.00,3313.9158,N,11838.1863,W,1,08,1.0,15.1,M,-34.7,M,,*60
$PYRTM,2024,122.084486845880,13.194134256019
$GPGGA,020138.00,3313.9168,N,11838.1890,W,1,08,1.0,13.5,M,-34.7,M,,*62
$PYRTM,2024,122.084498435382,13.194145845521
$GPGGA,020139.00,3313.9174,N,11838.1917,W,1,08,1.0,14.6,M,-34.7,M,,*64
$PYRTM,2024,122.084509993993,13.194157404132
$GPGGA,020140.00,3313.9181,N,11838.1941,W,1,08,1.0,17.0,M,-34.7,M,,*66
$PYRTM,2024,122.084521584433,13.194168994572
$GPGGA,020141.00,3313.9189,N,11838.1966,W,1,08,1.0,16.4,M,-34.7,M,,*6F
$PYRTM,2024,122.084533141076,13.194180551215
$GPGGA,020142.00,3313.9198,N,11838.1991,W,1,08,1.0,15.1,M,-34.7,M,,*62
$PYRTM,2024,122.084544722847,13.194192132986
$GPGGA,020143.00,3313.9206,N,11838.2016,W,1,08,1.0,13.4,M,-34.7,M,,*61
$PYRTM,2024,122.084556289248,13.194203699387
$GPGGA,020144.00,3313.9214,N,11838.2041,W,1,08,1.0,14.7,M,-34.7,M,,*63
$PYRTM,2024,122.084567876227,13.194215286366
$GPGGA,020145.00,3313.9222,N,11838.2062,W,1,08,1.0,15.3,M,-34.7,M,,*63
$PYRTM,2024,122.084579437940,13.194226848079
$GPGGA,020146.00,3313.9230,N,11838.2083,W,1,08,1.0,17.8,M,-34.7,M,,*65
$PYRTM,2024,122.084591473738,13.194238883877
$GPGGA,020147.00,3313.9240,N,11838.2110,W,1,08,1.0,15.1,M,-34.7,M,,*63
$PYRTM,2024,122.084602702442,13.194250112581
$GPGGA,020148.00,3313.9247,N,11838.2140,W,1,08,1.0,13.2,M,-34.7,M,,*6B
$PYRTM,2024,122.084614188171,13.194261598310
$GPGGA,020149.00,3313.9251,N,11838.2162,W,1,08,1.0,14.1,M,-34.7,M,,*69
$PYRTM,2024,122.084626210243,13.194273620382
$GPGGA,020150.00,3313.9258,N,11838.2180,W,1,08,1.0,14.8,M,-34.7,M,,*6D
$PYRTM,2024,122.084637552222,13.194284962361
$GPGGA,020151.00,3313.9267,N,11838.2204,W,1,08,1.0,12.9,M,-34.7,M,,*68
$PYRTM,2024,122.084648881539,13.194296291678
$GPGGA,020152.00,3313.9276,N,11838.2234,W,1,08,1.0,13.0,M,-34.7,M,,*60
$PYRTM,2024,122.084660472569,13.194307882708
$GPGGA,020153.00,3313.9281,N,11838.2258,W,1,08,1.0,14.8,M,-34.7,M,,*6C
$PYRTM,2024,122.084672030486,13.194319440625
$GPGGA,020154.00,3313.9286,N,11838.2275,W,1,08,1.0,14.5,M,-34.7,M,,*6E
$PYRTM,2024,122.084683618287,13.194331028426
$GPGGA,020155.00,3313.9294,N,11838.2296,W,1,08,1.0,13.3,M,-34.7,M,,*60
$PYRTM,2024,122.084695178634,13.194342588773
$GPGGA,020156.00,3313.9303,N,11838.2323,W,1,08,1.0,12.2,M,-34.7,M,,*63
$PYRTM,2024,122.084706760972,13.194354171111
$GPGGA,020157.00,3313.9310,N,11838.2348,W,1,08,1.0,12.8,M,-34.7,M,,*67
$PYRTM,2024,122.084718327083,13.194365737442
$GPGGA,020158.00,3313.9316,N,11838.2368,W,1,08,1.0,14.0,M,-34.7,M,,*62
$PYRTM,2024,122.084729909213,13.194377319352
$GPGGA,020159.00,3313.9326,N,11838.2387,W,1,08,1.0,12.0,M,-34.7,M,,*67
$PYRTM,2024,122.084741476111,13.194388886250
$GPGGA,020200.00,3313.9338,N,11838.2410,W,1,08,1.0,9.2,M,-34.7,M,,*56
$PYRTM,2024,122.084753062361,13.194400472500
$GPGGA,020201.00,3313.9348,N,11838.2437,W,1,08,1.0,9.0,M,-34.7,M,,*57
$PYRTM,2024,122.084764623854,13.194412033993
$GPGGA,020202.00,3313.9355,N,11838.2460,W,1,08,1.0,9.4,M,-34.7,M,,*5E
$PYRTM,2024,122.084776209630,13.194423619769
$GPGGA,020203.00,3313.9362,N,11838.2479,W,1,08,1.0,10.3,M,-34.7,M,,*6C
$PYRTM,2024,122.084787772141,13.194435182280
$GPGGA,020204.00,3313.9370,N,11838.2499,W,1,08,1.0,9.1,M,-34.7,M,,*5C
$PYRTM,2024,122.084799357743,13.194446767882
$GPGGA,020205.00,3313.9379,N,11838.2523,W,1,08,1.0,7.0,M,-34.7,M,,*5B
$PYRTM,2024,122.084810919988,13.194458330127
$GPGGA,020206.00,3313.9386,N,11838.2549,W,1,08,1.0,11.3,M,-34.7,M,,*60
$PYRTM,2024,122.084823659988,13.194471070127
$GPGGA,020207.00,3313.9390,N,11838.2574,W,1,08,1.0,11.1,M,-34.7,M,,*6A
$PYRTM,2024,122.084835225023,13.194482635174
$GPGGA,020208.00,3313.9396,N,11838.2598,W,1,08,1.0,9.8,M,-34.7,M,,*51
$PYRTM,2024,122.084846812975,13.194494223113
$GPGGA,020209.00,3313.9404,N,11838.2623,W,1,08,1.0,10.0,M,-34.7,M,,*6F
$PYRTM,2024,122.084858372558,13.194505782697
$GPGGA,020210.00,3313.9414,N,11838.2648,W,1,08,1.0,10.8,M,-34.7,M,,*63
$PYRTM,2024,122.084869960382,13.194517370532
$GPGGA,020211.00,3313.9422,N,11838.2673,W,1,08,1.0,10.6,M,-34.7,M,,*61
$PYRTM,2024,122.084881520498,13.194528930637
$GPGGA,020212.00,3313.9430,N,11838.2699,W,1,08,1.0,10.8,M,-34.7,M,,*6B
$PYRTM,2024,122.084893109375,13.194540519514
$GPGGA,020213.00,3313.9436,N,11838.2725,W,1,08,1.0,9.0,M,-34.7,M,,*5A
$PYRTM,2024,122.084904670208,13.194552080347
$GPGGA,020214.00,3313.9444,N,11838.2751,W,1,08,1.0,11.5,M,-34.7,M,,*67
$PYRTM,2024,122.084916258623,13.194563668773
$GPGGA,020215.00,3313.9452,N,11838.2774,W,1,08,1.0,14.3,M,-34.7,M,,*65
$PYRTM,2024,122.084927817350,13.194575227488
$GPGGA,020216.00,3313.9461,N,11838.2795,W,1,08,1.0,12.0,M,-34.7,M,,*6C
$PYRTM,2024,122.084939409618,13.194586819757
$GPGGA,020217.00,3313.9468,N,11838.2819,W,1,08,1.0,13.0,M,-34.7,M,,*6E
$PYRTM,2024,122.084950966273,13.194598376412
$GPGGA,020218.00,3313.9475,N,11838.2846,W,1,08,1.0,12.0,M,-34.7,M,,*66
$PYRTM,2024,122.084962565370,13.194609975521
$GPGGA,020219.00,3313.9482,N,11838.2872,W,1,08,1.0,11.5,M,-34.7,M,,*6E
$PYRTM,2024,122.084974586354,13.194621996505
$GPGGA,020220.00,3313.9490,N,11838.2896,W,1,08,1.0,13.4,M,-34.7,M,,*6E
$PYRTM,2024,122.084985921968,13.194633332106
$GPGGA,020221.00,3313.9498,N,11838.2919,W,1,08,1.0,13.8,M,-34.7,M,,*6D
$PYRTM,2024,122.084997262558,13.194644672708
$GPGGA,020222.00,3313.9507,N,11838.2944,W,1,08,1.0,12.5,M,-34.7,M,,*6D
$PYRTM,2024,122.085008854410,13.194656264549
$GPGGA,020223.00,3313.9514,N,11838.2968,W,1,08,1.0,11.7,M,-34.7,M,,*61
$PYRTM,2024,122.085020410914,13.194667821053
$GPGGA,020224.00,3313.9522,N,11838.2991,W,1,08,1.0,12.9,M,-34.7,M,,*68
$PYRTM,2024,122.085032000035,13.194679410174
$GPGGA,020225.00,3313.9531,N,11838.3015,W,1,08,1.0,11.7,M,-34.7,M,,*62
$PYRTM,2024,122.085043559306,13.194690969444
$GPGGA,020226.00,3313.9541,N,11838.3040,W,1,08,1.0,10.9,M,-34.7,M,,*69
$PYRTM,2024,122.085055147211,13.194702557350
$GPGGA,020227.00,3313.9550,N,11838.3065,W,1,08,1.0,10.8,M,-34.7,M,,*6E
$PYRTM,2024,122.085066707431,13.194714117569
$GPGGA,020228.00,3313.9558,N,11838.3090,W,1,08,1.0,10.6,M,-34.7,M,,*6D
$PYRTM,2024,122.085078290995,13.194725701134
$GPGGA,020229.00,3313.9568,N,11838.3116,W,1,08,1.0,9.8,M,-34.7,M,,*56
$PYRTM,2024,122.085089855683,13.194737265833
$GPGGA,020230.00,3313.9578,N,11838.3140,W,1,08,1.0,9.1,M,-34.7,M,,*55
$PYRTM,2024,122.085101444005,13.194748854144
$GPGGA,020231.00,3313.9588,N,11838.3164,W,1,08,1.0,10.0,M,-34.7,M,,*64
$PYRTM,2024,122.085113005347,13.194760415486
$GPGGA,020232.00,3313.9596,N,11838.3190,W,1,08,1.0,11.6,M,-34.7,M,,*64
$PYRTM,2024,122.085124591968,13.194772002106
$GPGGA,020233.00,3313.9605,N,11838.3218,W,1,08,1.0,9.6,M,-34.7,M,,*56
$PYRTM,2024,122.085136152535,13.194783562674
$GPGGA,020234.00,3313.9613,N,11838.3244,W,1,08,1.0,8.9,M,-34.7,M,,*51
$PYRTM,2024,122.085147741667,13.194795151806
$GPGGA,020235.00,3313.9622,N,11838.3267,W,1,08,1.0,10.7,M,-34.7,M,,*64
$PYRTM,2024,122.085159300718,13.194806710856
$GPGGA,020236.00,3313.9630,N,11838.3289,W,1,08,1.0,12.5,M,-34.7,M,,*64
$PYRTM,2024,122.085172398796,13.194819808935
$GPGGA,020237.00,3313.9639,N,11838.3315,W,1,08,1.0,13.2,M,-34.7,M,,*6E
$PYRTM,2024,122.085184649514,13.194832059664
$GPGGA,020238.00,3313.9647,N,11838.3343,W,1,08,1.0,12.8,M,-34.7,M,,*60
$PYRTM,2024,122.085194032697,13.194841442836
$GPGGA,020239.00,3313.9656,N,11838.3369,W,1,08,1.0,10.5,M,-34.7,M,,*66
$PYRTM,2024,122.085205598252,13.194853008391
$GPGGA,020240.00,3313.9665,N,11838.3391,W,1,08,1.0,11.3,M,-34.7,M,,*68
$PYRTM,2024,122.085217185069,13.194864595208
$GPGGA,020241.00,3313.9675,N,11838.3414,W,1,08,1.0,10.1,M,-34.7,M,,*61
$PYRTM,2024,122.085228745532,13.194876155671
$GPGGA,020242.00,3313.9684,N,11838.3439,W,1,08,1.0,8.4,M,-34.7,M,,*5F
$PYRTM,2024,122.085240329282,13.194887739421
$GPGGA,020243.00,3313.9692,N,11838.3465,W,1,08,1.0,12.2,M,-34.7,M,,*6D
$PYRTM,2024,122.085251893727,13.194899303866
$GPGGA,020244.00,3313.9700,N,11838.3491,W,1,08,1.0,12.3,M,-34.7,M,,*6A
$PYRTM,2024,122.085263483218,13.194910893356
$GPGGA,020245.00,3313.9707,N,11838.3517,W,1,08,1.0,12.1,M,-34.7,M,,*61
$PYRTM,2024,122.085275043171,13.194922453310
$GPGGA,020246.00,3313.9714,N,11838.3543,W,1,08,1.0,12.7,M,-34.7,M,,*67
$PYRTM,2024,122.085286631551,13.194934041690
$GPGGA,020247.00,3313.9722,N,11838.3567,W,1,08,1.0,10.6,M,-34.7,M,,*66
$PYRTM,2024,122.085298193044,13.194945603183
$GPGGA,020248.00,3313.9732,N,11838.3593,W,1,08,1.0,9.0,M,-34.7,M,,*5D
$PYRTM,2024,122.085309775069,13.194957185208
$GPGGA,020249.00,3313.9740,N,11838.3619,W,1,08,1.0,9.8,M,-34.7,M,,*50
$PYRTM,2024,122.085321695810,13.194969105949
$GPGGA,020250.00,3313.9748,N,11838.3644,W,1,08,1.0,7.8,M,-34.7,M,,*56
$PYRTM,2024,122.085332927662,13.194980337801
$GPGGA,020251.00,3313.9756,N,11838.3670,W,1,08,1.0,8.6,M,-34.7,M,,*5E
$PYRTM,2024,122.085344488588,13.194991898727
$GPGGA,020252.00,3313.9766,N,11838.3696,W,1,08,1.0,11.9,M,-34.7,M,,*61
$PYRTM,2024,122.085356076505,13.195003486644
$GPGGA,020253.00,3313.9776,N,11838.3722,W,1,08,1.0,11.5,M,-34.7,M,,*63
$PYRTM,2024,122.085367636493,13.195015046632
$GPGGA,020254.00,3313.9784,N,11838.3748,W,1,08,1.0,13.0,M,-34.7,M,,*62
$PYRTM,2024,122.085379220220,13.195026630359
$GPGGA,020255.00,3313.9793,N,11838.3772,W,1,08,1.0,10.2,M,-34.7,M,,*6D
$PYRTM,2024,122.085390785058,13.195038195197
$GPGGA,020256.00,3313.9802,N,11838.3799,W,1,08,1.0,8.4,M,-34.7,M,,*53
$PYRTM,2024,122.085402373507,13.195049783646
$GPGGA,020257.00,3313.9811,N,11838.3827,W,1,08,1.0,8.0,M,-34.7,M,,*5E
$PYRTM,2024,122.085413932905,13.195061343044
$GPGGA,020258.00,3313.9820,N,11838.3851,W,1,08,1.0,6.4,M,-34.7,M,,*58
$PYRTM,2024,122.085425521227,13.195072931366
$GPGGA,020259.00,3313.9828,N,11838.3870,W,1,08,1.0,8.9,M,-34.7,M,,*51
$PYRTM,2024,122.085437080312,13.195084490451
$GPGGA,020300.00,3313.9837,N,11838.3892,W,1,08,1.0,12.4,M,-34.7,M,,*68
$PYRTM,2024,122.085448668484,13.195096078623
$GPGGA,020301.00,3313.9846,N,11838.3920,W,1,08,1.0,9.2,M,-34.7,M,,*5B
$PYRTM,2024,122.085460228310,13.195107638449
$GPGGA,020302.00,3313.9851,N,11838.3949,W,1,08,1.0,8.8,M,-34.7,M,,*5A
$PYRTM,2024,122.085471816539,13.195119226678
$GPGGA,020303.00,3313.9855,N,11838.3970,W,1,08,1.0,11.1,M,-34.7,M,,*64
$PYRTM,2024,122.085483377546,13.195130787685
$GPGGA,020304.00,3313.9863,N,11838.3990,W,1,08,1.0,13.5,M,-34.7,M,,*6E
$PYRTM,2024,122.085494966713,13.195142376852
$GPGGA,020305.00,3313.9873,N,11838.4015,W,1,08,1.0,12.8,M,-34.7,M,,*61
$PYRTM,2024,122.085506525023,13.195153935174
$GPGGA,020306.00,3313.9882,N,11838.4044,W,1,08,1.0,11.7,M,-34.7,M,,*64
$PYRTM,2024,122.085519142593,13.195166552731
$GPGGA,020307.00,3313.9887,N,11838.4070,W,1,08,1.0,10.7,M,-34.7,M,,*66
$PYRTM,2024,122.085531876678,13.195179286817
$GPGGA,020308.00,3313.9893,N,11838.4091,W,1,08,1.0,12.5,M,-34.7,M,,*63
$PYRTM,2024,122.085541262882,13.195188673021
$GPGGA,020309.00,3313.9902,N,11838.4113,W,1,08,1.0,9.4,M,-34.7,M,,*5B
$PYRTM,2024,122.085552823623,13.195200233762
$GPGGA,020310.00,3313.9912,N,11838.4138,W,1,08,1.0,8.3,M,-34.7,M,,*5D
$PYRTM,2024,122.085564410706,13.195211820856
$GPGGA,020311.00,3313.9921,N,11838.4164,W,1,08,1.0,8.1,M,-34.7,M,,*57
$PYRTM,2024,122.085575971910,13.195223382049
$GPGGA,020312.00,3313.9928,N,11838.4188,W,1,08,1.0,10.7,M,-34.7,M,,*60
$PYRTM,2024,122.085587562199,13.195234972338
$GPGGA,020313.00,3313.9936,N,11838.4211,W,1,08,1.0,12.5,M,-34.7,M,,*6D
$PYRTM,2024,122.085599119178,13.195246529317
$GPGGA,020314.00,3313.9946,N,11838.4235,W,1,08,1.0,12.4,M,-34.7,M,,*6A
$PYRTM,2024,122.085610695058,13.195258105197
$GPGGA,020315.00,3313.9957,N,11838.4262,W,1,08,1.0,11.9,M,-34.7,M,,*67
$PYRTM,2024,122.085622268981,13.195269679120
$GPGGA,020316.00,3313.9966,N,11838.4287,W,1,08,1.0,11.3,M,-34.7,M,,*67
$PYRTM,2024,122.085633857176,13.195281267326
$GPGGA,020317.00,3313.9974,N,11838.4310,W,1,08,1.0,13.2,M,-34.7,M,,*69
$PYRTM,2024,122.085645415035,13.195292825174
$GPGGA,020318.00,3313.9982,N,11838.4333,W,1,08,1.0,12.7,M,-34.7,M,,*6A
$PYRTM,2024,122.085656991944,13.195304402083
$GPGGA,020319.00,3313.9990,N,11838.4360,W,1,08,1.0,10.9,M,-34.7,M,,*62
$PYRTM,2024,122.085669042778,13.195316452917
$GPGGA,020320.00,3313.9999,N,11838.4387,W,1,08,1.0,12.2,M,-34.7,M,,*61
$PYRTM,2024,122.085680733657,13.195328143808
$GPGGA,020321.00,3314.0007,N,11838.4411,W,1,08,1.0,13.9,M,-34.7,M,,*62
$PYRTM,2024,122.085692306019,13.195339716157
$GPGGA,020322.00,3314.0015,N,11838.4433,W,1,08,1.0,11.4,M,-34.7,M,,*6D
$PYRTM,2024,122.085703876076,13.195351286215
$GPGGA,020323.00,3314.0025,N,11838.4459,W,1,08,1.0,12.0,M,-34.7,M,,*64
$PYRTM,2024,122.085715672697,13.195363082836
$GPGGA,020324.00,3314.0036,N,11838.4487,W,1,08,1.0,15.9,M,-34.7,M,,*6C
$PYRTM,2024,122.085728749329,13.195376159479
$GPGGA,020325.00,3314.0045,N,11838.4514,W,1,08,1.0,12.4,M,-34.7,M,,*68
$PYRTM,2024,122.085739402234,13.195386812373
$GPGGA,020326.00,3314.0054,N,11838.4539,W,1,08,1.0,9.7,M,-34.7,M,,*5D
$PYRTM,2024,122.085750634282,13.195398044421
$GPGGA,020327.00,3314.0061,N,11838.4563,W,1,08,1.0,14.9,M,-34.7,M,,*67
$PYRTM,2024,122.085762212546,13.195409622685
$GPGGA,020328.00,3314.0070,N,11838.4587,W,1,08,1.0,13.9,M,-34.7,M,,*65
$PYRTM,2024,122.085773324225,13.195420734363
$GPGGA,020329.00,3314.0078,N,11838.4612,W,1,08,1.0,15.8,M,-34.7,M,,*64
$PYRTM,2024,122.085784436354,13.195431846493
$GPGGA,020330.00,3314.0087,N,11838.4637,W,1,08,1.0,12.0,M,-34.7,M,,*64
$PYRTM,2024,122.085795549664,13.195442959815
$GPGGA,020331.00,3314.0094,N,11838.4661,W,1,08,1.0,12.1,M,-34.7,M,,*65
$PYRTM,2024,122.085806770683,13.195454180822
$GPGGA,020332.00,3314.0101,N,11838.4685,W,1,08,1.0,10.6,M,-34.7,M,,*64
$PYRTM,2024,122.085817887824,13.195465297963
$GPGGA,020333.00,3314.0109,N,11838.4711,W,1,08,1.0,10.3,M,-34.7,M,,*64
$PYRTM,2024,122.085828998426,13.195476408565
$GPGGA,020334.00,3314.0118,N,11838.4738,W,1,08,1.0,9.9,M,-34.7,M,,*5A
$PYRTM,2024,122.085840102836,13.195487512975
$GPGGA,020335.00,3314.0124,N,11838.4762,W,1,08,1.0,10.4,M,-34.7,M,,*6E
$PYRTM,2024,122.085851218553,13.195498628692
$GPGGA,020336.00,3314.0130,N,11838.4782,W,1,07,1.3,10.0,M,-34.7,M,,*6E
$PYRTM,2024,122.085862440486,13.195509850625
$GPGGA,020337.00,3314.0138,N,11838.4806,W,1,07,1.3,10.9,M,-34.7,M,,*6D
$PYRTM,2024,122.085877029502,13.195524439641
$GPGGA,020338.00,3314.0146,N,11838.4835,W,1,07,1.3,10.5,M,-34.7,M,,*67
$PYRTM,2024,122.085888134977,13.195535545116
$GPGGA,020339.00,3314.0154,N,11838.4863,W,1,07,1.3,10.2,M,-34.7,M,,*61
$PYRTM,2024,122.085899254664,13.195546664815
$GPGGA,020340.00,3314.0161,N,11838.4887,W,1,07,1.3,9.9,M,-34.7,M,,*50
$PYRTM,2024,122.085910479387,13.195557889525
$GPGGA,020341.00,3314.0168,N,11838.4911,W,1,07,1.3,8.1,M,-34.7,M,,*5F
$PYRTM,2024,122.085922041863,13.195569452002
$GPGGA,020342.00,3314.0177,N,11838.4938,W,1,07,1.3,8.2,M,-34.7,M,,*5A
$PYRTM,2024,122.085933627118,13.195581037257
$GPGGA,020343.00,3314.0186,N,11838.4966,W,1,07,1.3,8.8,M,-34.7,M,,*54
$PYRTM,2024,122.085945189560,13.195592599699
$GPGGA,020344.00,3314.0195,N,11838.4992,W,1,07,1.3,9.0,M,-34.7,M,,*53
$PYRTM,2024,122.085956781215,13.195604191354
$GPGGA,020345.00,3314.0203,N,11838.5017,W,1,07,1.3,10.0,M,-34.7,M,,*63
$PYRTM,2024,122.085968336944,13.195615747095
$GPGGA,020346.00,3314.0212,N,11838.5045,W,1,07,1.3,7.7,M,-34.7,M,,*56
$PYRTM,2024,122.085979927685,13.195627337824
$GPGGA,020347.00,3314.0220,N,11838.5073,W,1,07,1.3,6.8,M,-34.7,M,,*5D
$PYRTM,2024,122.085991484537,13.195638894676
$GPGGA,020348.00,3314.0229,N,11838.5098,W,1,07,1.3,7.9,M,-34.7,M,,*5E
$PYRTM,2024,122.086003075278,13.195650485417
$GPGGA,020349.00,3314.0239,N,11838.5123,W,1,07,1.3,10.4,M,-34.7,M,,*64
$PYRTM,2024,122.086015108796,13.195662518935
$GPGGA,020350.00,3314.0249,N,11838.5149,W,1,07,1.3,11.5,M,-34.7,M,,*67
$PYRTM,2024,122.086026335984,13.195673746123
$GPGGA,020351.00,3314.0259,N,11838.5176,W,1,07,1.3,12.4,M,-34.7,M,,*69
$PYRTM,2024,122.086037782604,13.195685192743
$GPGGA,020352.00,3314.0266,N,11838.5205,W,1,07,1.3,9.0,M,-34.7,M,,*5F
$PYRTM,2024,122.086049363981,13.195696774120
$GPGGA,020353.00,3314.0274,N,11838.5231,W,1,07,1.3,7.3,M,-34.7,M,,*57
$PYRTM,2024,122.086060931042,13.195708341181
$GPGGA,020354.00,3314.0283,N,11838.5254,W,1,07,1.3,9.4,M,-34.7,M,,*52
$PYRTM,2024,122.086072511192,13.195719921331
$GPGGA,020355.00,3314.0293,N,11838.5279,W,1,07,1.3,11.0,M,-34.7,M,,*60
$PYRTM,2024,122.086084078576,13.195731488715
$GPGGA,020356.00,3314.0302,N,11838.5304,W,1,07,1.3,8.9,M,-34.7,M,,*50
$PYRTM,2024,122.086095660266,13.195743070405
$GPGGA,020357.00,3314.0309,N,11838.5331,W,1,07,1.3,9.2,M,-34.7,M,,*56
$PYRTM,2024,122.086107225961,13.195754636100
$GPGGA,020358.00,3314.0316,N,11838.5357,W,1,07,1.3,5.7,M,-34.7,M,,*5E
$PYRTM,2024,122.086118813970,13.195766224109
$GPGGA,020359.00,3314.0324,N,11838.5382,W,1,07,1.3,6.0,M,-34.7,M,,*52
$PYRTM,2024,122.086130374363,13.195777784502
$GPGGA,020400.00,3314.0332,N,11838.5405,W,1,07,1.3,5.0,M,-34.7,M,,*55
$PYRTM,2024,122.086141967419,13.195789377569
$GPGGA,020401.00,3314.0338,N,11838.5428,W,1,07,1.3,6.1,M,-34.7,M,,*53
$PYRTM,2024,122.086153522431,13.195800932569
$GPGGA,020402.00,3314.0345,N,11838.5452,W,1,07,1.3,5.5,M,-34.7,M,,*50
$PYRTM,2024,122.086165127882,13.195812538021
$GPGGA,020403.00,3314.0352,N,11838.5478,W,1,07,1.3,4.0,M,-34.7,M,,*5B
$PYRTM,2024,122.086176671088,13.195824081227
$GPGGA,020404.00,3314.0360,N,11838.5502,W,1,07,1.3,3.9,M,-34.7,M,,*5F
$PYRTM,2024,122.086188253299,13.195835663437
$GPGGA,020405.00,3314.0368,N,11838.5526,W,1,07,1.3,7.3,M,-34.7,M,,*5E
$PYRTM,2024,122.086199819838,13.195847229977
$GPGGA,020406.00,3314.0377,N,11838.5551,W,1,07,1.3,3.4,M,-34.7,M,,*50
$PYRTM,2024,122.086212563391,13.195859973519
$GPGGA,020407.00,3314.0386,N,11838.5577,W,1,07,1.3,2.3,M,-34.7,M,,*5D
$PYRTM,2024,122.086224124641,13.195871534780
$GPGGA,020408.00,3314.0395,N,11838.5601,W,1,07,1.3,4.5,M,-34.7,M,,*52
$PYRTM,2024,122.086235712407,13.195883122546
$GPGGA,020409.00,3314.0402,N,11838.5624,W,1,07,1.3,4.6,M,-34.7,M,,*5E
$PYRTM,2024,122.086247272130,13.195894682269
$GPGGA,020410.00,3314.0409,N,11838.5651,W,1,07,1.3,2.8,M,-34.7,M,,*57
$PYRTM,2024,122.086258861331,13.195906271481
$GPGGA,020411.00,3314.0418,N,11838.5679,W,1,07,1.3,2.9,M,-34.7,M,,*5D
$PYRTM,2024,122.086270421551,13.195917831690
$GPGGA,020412.00,3314.0425,N,11838.5703,W,1,07,1.3,3.6,M,-34.7,M,,*52
$PYRTM,2024,122.086282010162,13.195929420301
$GPGGA,020413.00,3314.0432,N,11838.5725,W,1,07,1.3,5.8,M,-34.7,M,,*59
$PYRTM,2024,122.086293569433,13.195940979572
$GPGGA,020414.00,3314.0439,N,11838.5750,W,1,07,1.3,4.9,M,-34.7,M,,*57
$PYRTM,2024,122.086305144479,13.195952554618
$GPGGA,020415.00,3314.0447,N,11838.5778,W,1,07,1.3,3.4,M,-34.7,M,,*5F
$PYRTM,2024,122.086316718241,13.195964128380
$GPGGA,020416.00,3314.0456,N,11838.5805,W,1,07,1.3,3.0,M,-34.7,M,,*5D
$PYRTM,2024,122.086328641227,13.195976051366
$GPGGA,020417.00,3314.0464,N,11838.5830,W,1,07,1.3,4.5,M,-34.7,M,,*59
$PYRTM,2024,122.086339865880,13.195987276019
$GPGGA,020418.00,3314.0472,N,11838.5855,W,1,07,1.3,4.9,M,-34.7,M,,*5E
$PYRTM,2024,122.086351454039,13.195998864444
$GPGGA,020419.00,3314.0482,N,11838.5883,W,1,07,1.3,2.3,M,-34.7,M,,*57
$PYRTM,2024,122.086363376331,13.196010786470
$GPGGA,020420.00,3314.0490,N,11838.5906,W,1,07,1.3,6.5,M,-34.7,M,,*50
$PYRTM,2024,122.086374602477,13.196022012616
$GPGGA,020421.00,3314.0499,N,11838.5928,W,1,07,1.3,6.6,M,-34.7,M,,*57
$PYRTM,2024,122.086386164028,13.196033574167
$GPGGA,020422.00,3314.0508,N,11838.5954,W,1,07,1.3,6.2,M,-34.7,M,,*52
$PYRTM,2024,122.086397737454,13.196045147593
$GPGGA,020423.00,3314.0518,N,11838.5983,W,1,07,1.3,4.1,M,-34.7,M,,*59
$PYRTM,2024,122.086409309074,13.196056719213
$GPGGA,020424.00,3314.0526,N,11838.6009,W,1,07,1.3,3.0,M,-34.7,M,,*5D
$PYRTM,2024,122.086420898472,13.196068308611
$GPGGA,020425.00,3314.0534,N,11838.6032,W,1,07,1.3,4.2,M,-34.7,M,,*52
$PYRTM,2024,122.086432458310,13.196079868449
$GPGGA,020426.00,3314.0542,N,11838.6058,W,1,07,1.3,3.6,M,-34.7,M,,*5F
$PYRTM,2024,122.086444047593,13.196091457731
$GPGGA,020427.00,3314.0551,N,11838.6086,W,1,07,1.3,6.8,M,-34.7,M,,*54
$PYRTM,2024,122.086455608241,13.196103018380
$GPGGA,020428.00,3314.0557,N,11838.6113,W,1,07,1.3,8.0,M,-34.7,M,,*56
$PYRTM,2024,122.086467190266,13.196114600405
$GPGGA,020429.00,3314.0563,N,11838.6139,W,1,07,1.3,10.2,M,-34.7,M,,*63
$PYRTM,2024,122.086478754653,13.196126164792
$GPGGA,020430.00,3314.0570,N,11838.6166,W,1,07,1.3,9.1,M,-34.7,M,,*58
$PYRTM,2024,122.086490342905,13.196137753044
$GPGGA,020431.00,3314.0577,N,11838.6192,W,1,07,1.3,7.2,M,-34.7,M,,*58
$PYRTM,2024,122.086501903299,13.196149313438
$GPGGA,020432.00,3314.0585,N,11838.6218,W,1,07,1.3,7.2,M,-34.7,M,,*57
$PYRTM,2024,122.086513491609,13.196160901748
$GPGGA,020433.00,3314.0592,N,11838.6242,W,1,07,1.3,7.3,M,-34.7,M,,*5E
$PYRTM,2024,122.086525051377,13.196172461516
$GPGGA,020434.00,3314.0600,N,11838.6267,W,1,07,1.3,7.6,M,-34.7,M,,*53
$PYRTM,2024,122.086536641574,13.196184051713
$GPGGA,020435.00,3314.0608,N,11838.6296,W,1,07,1.3,7.0,M,-34.7,M,,*52
$PYRTM,2024,122.086548200012,13.196195610162
$GPGGA,020436.00,3314.0616,N,11838.6324,W,1,07,1.3,7.6,M,-34.7,M,,*50
$PYRTM,2024,122.086560817905,13.196208228044
$GPGGA,020437.00,3314.0625,N,11838.6347,W,1,07,1.3,6.4,M,-34.7,M,,*57
$PYRTM,2024,122.086573432616,13.196220842755
$GPGGA,020438.00,3314.0634,N,11838.6369,W,1,07,1.3,8.9,M,-34.7,M,,*57
$PYRTM,2024,122.086582932292,13.196230342431
$GPGGA,020439.00,3314.0644,N,11838.6396,W,1,07,1.3,9.8,M,-34.7,M,,*51
$PYRTM,2024,122.086594497118,13.196241907269
$GPGGA,020440.00,3314.0654,N,11838.6425,W,1,07,1.3,8.4,M,-34.7,M,,*5C
$PYRTM,2024,122.086606085984,13.196253496134
$GPGGA,020441.00,3314.0661,N,11838.6451,W,1,07,1.3,8.2,M,-34.7,M,,*5E
$PYRTM,2024,122.086617644884,13.196265055023
$GPGGA,020442.00,3314.0669,N,11838.6474,W,1,07,1.3,9.9,M,-34.7,M,,*58
$PYRTM,2024,122.086629233588,13.196276643727
$GPGGA,020443.00,3314.0679,N,11838.6496,W,1,07,1.3,8.3,M,-34.7,M,,*5F
$PYRTM,2024,122.086640794294,13.196288204433
$GPGGA,020444.00,3314.0690,N,11838.6521,W,1,07,1.3,6.7,M,-34.7,M,,*58
$PYRTM,2024,122.086652383148,13.196299793287
$GPGGA,020445.00,3314.0698,N,11838.6548,W,1,07,1.3,6.9,M,-34.7,M,,*50
$PYRTM,2024,122.086663941910,13.196311352049
$GPGGA,020446.00,3314.0704,N,11838.6573,W,1,07,1.3,9.3,M,-34.7,M,,*5A
$PYRTM,2024,122.086675524699,13.196322934838
$GPGGA,020447.00,3314.0711,N,11838.6597,W,1,07,1.3,11.2,M,-34.7,M,,*6D
$PYRTM,2024,122.086687091759,13.196334501898
$GPGGA,020448.00,3314.0720,N,11838.6624,W,1,07,1.3,9.4,M,-34.7,M,,*54
$PYRTM,2024,122.086698679062,13.196346089201
$GPGGA,020449.00,3314.0731,N,11838.6651,W,1,07,1.3,9.1,M,-34.7,M,,*52
$PYRTM,2024,122.086710595914,13.196358006065
$GPGGA,020450.00,3314.0740,N,11838.6676,W,1,07,1.3,8.0,M,-34.7,M,,*59
$PYRTM,2024,122.086721826655,13.196369236794
$GPGGA,020451.00,3314.0747,N,11838.6699,W,1,07,1.3,10.3,M,-34.7,M,,*64
$PYRTM,2024,122.086733387315,13.196380797454
$GPGGA,020452.00,3314.0754,N,11838.6723,W,1,07,1.3,10.3,M,-34.7,M,,*65
$PYRTM,2024,122.086744963160,13.196392373299
$GPGGA,020453.00,3314.0762,N,11838.6751,W,1,07,1.3,7.5,M,-34.7,M,,*54
$PYRTM,2024,122.086756534468,13.196403944606
$GPGGA,020454.00,3314.0771,N,11838.6778,W,1,07,1.3,6.4,M,-34.7,M,,*5A
$PYRTM,2024,122.086768123958,13.196415534097
$GPGGA,020455.00,3314.0780,N,11838.6802,W,1,07,1.3,7.3,M,-34.7,M,,*51
$PYRTM,2024,122.086779683600,13.196427093750
$GPGGA,020456.00,3314.0789,N,11838.6825,W,1,07,1.3,6.4,M,-34.7,M,,*58
$PYRTM,2024,122.086791272002,13.196438682141
$GPGGA,020457.00,3314.0798,N,11838.6851,W,1,07,1.3,6.0,M,-34.7,M,,*5E
$PYRTM,2024,122.086802831968,13.196450242106
$GPGGA,020458.00,3314.0809,N,11838.6879,W,1,07,1.3,6.8,M,-34.7,M,,*54
$PYRTM,2024,122.086814407373,13.196461817512
$GPGGA,020459.00,3314.0819,N,11838.6905,W,1,07,1.3,7.0,M,-34.7,M,,*57
$PYRTM,2024,122.086825983912,13.196473394051
$GPGGA,020500.00,3314.0828,N,11838.6929,W,1,07,1.3,6.2,M,-34.7,M,,*55
$PYRTM,2024,122.086837565012,13.196484975150
$GPGGA,020501.00,3314.0838,N,11838.6952,W,1,07,1.3,5.2,M,-34.7,M,,*5A
$PYRTM,2024,122.086849137072,13.196496547211
$GPGGA,020502.00,3314.0849,N,11838.6976,W,1,07,1.3,7.8,M,-34.7,M,,*51
$PYRTM,2024,122.086860717049,13.196508127187
$GPGGA,020503.00,3314.0857,N,11838.6999,W,1,07,1.3,5.0,M,-34.7,M,,*54
$PYRTM,2024,122.086872277778,13.196519687917
$GPGGA,020504.00,3314.0865,N,11838.7023,W,1,07,1.3,7.5,M,-34.7,M,,*5C
$PYRTM,2024,122.086883865208,13.196531275347
$GPGGA,020505.00,3314.0874,N,11838.7047,W,1,07,1.3,5.7,M,-34.7,M,,*5F
$PYRTM,2024,122.086895425394,13.196542835532
$GPGGA,020506.00,3314.0883,N,11838.7071,W,1,07,1.3,6.5,M,-34.7,M,,*50
$PYRTM,2024,122.086908519074,13.196555929213
$GPGGA,020507.00,3314.0892,N,11838.7094,W,1,07,1.3,7.2,M,-34.7,M,,*5C
$PYRTM,2024,122.086920785961,13.196568196100
$GPGGA,020508.00,3314.0900,N,11838.7117,W,1,07,1.3,10.4,M,-34.7,M,,*63
$PYRTM,2024,122.086930161181,13.196577571319
$GPGGA,020509.00,3314.0907,N,11838.7143,W,1,07,1.3,7.2,M,-34.7,M,,*54
$PYRTM,2024,122.086941722639,13.196589132778
$GPGGA,020510.00,3314.0914,N,11838.7170,W,1,07,1.3,7.7,M,-34.7,M,,*5B
$PYRTM,2024,122.086953311157,13.196600721296
$GPGGA,020511.00,3314.0922,N,11838.7193,W,1,07,1.3,8.1,M,-34.7,M,,*5B
$PYRTM,2024,122.086964870382,13.196612280521
$GPGGA,020512.00,3314.0931,N,11838.7217,W,1,07,1.3,9.3,M,-34.7,M,,*56
$PYRTM,2024,122.086976459919,13.196623870058
$GPGGA,020513.00,3314.0940,N,11838.7242,W,1,07,1.3,9.0,M,-34.7,M,,*52
$PYRTM,2024,122.086988019016,13.196635429155
$GPGGA,020514.00,3314.0948,N,11838.7269,W,1,07,1.3,10.0,M,-34.7,M,,*6C
$PYRTM,2024,122.086999607338,13.196647017477
$GPGGA,020515.00,3314.0954,N,11838.7297,W,1,07,1.3,11.3,M,-34.7,M,,*63
$PYRTM,2024,122.087011166111,13.196658576262
$GPGGA,020516.00,3314.0961,N,11838.7323,W,1,07,1.3,9.6,M,-34.7,M,,*54
$PYRTM,2024,122.087022757280,13.196670167419
$GPGGA,020517.00,3314.0968,N,11838.7347,W,1,07,1.3,9.6,M,-34.7,M,,*5E
$PYRTM,2024,122.087034313993,13.196681724132
$GPGGA,020518.00,3314.0977,N,11838.7371,W,1,07,1.3,10.8,M,-34.7,M,,*6C
$PYRTM,2024,122.087045905764,13.196693315903
$GPGGA,020519.00,3314.0986,N,11838.7398,W,1,07,1.3,6.4,M,-34.7,M,,*5F
$PYRTM,2024,122.087057819560,13.196705229687
$GPGGA,020520.00,3314.0992,N,11838.7424,W,1,07,1.3,6.0,M,-34.7,M,,*54
$PYRTM,2024,122.087068939711,13.196716349850
$GPGGA,020521.00,3314.0997,N,11838.7447,W,1,07,1.3,6.6,M,-34.7,M,,*53
$PYRTM,2024,122.087080497095,13.196727907234
$GPGGA,020522.00,3314.1006,N,11838.7472,W,1,07,1.3,7.6,M,-34.7,M,,*57
$PYRTM,2024,122.087092084792,13.196739494931
$GPGGA,020523.00,3314.1018,N,11838.7499,W,1,07,1.3,6.2,M,-34.7,M,,*59
$PYRTM,2024,122.087103645660,13.196751055799
$GPGGA,020524.00,3314.1029,N,11838.7525,W,1,07,1.3,8.9,M,-34.7,M,,*5F
$PYRTM,2024,122.087115227373,13.196762637512
$GPGGA,020525.00,3314.1037,N,11838.7548,W,1,07,1.3,9.5,M,-34.7,M,,*57
$PYRTM,2024,122.087126908773,13.196774318912
$GPGGA,020526.00,3314.1045,N,11838.7573,W,1,07,1.3,8.0,M,-34.7,M,,*5D
$PYRTM,2024,122.087138496435,13.196785906574
$GPGGA,020527.00,3314.1054,N,11838.7601,W,1,07,1.3,10.0,M,-34.7,M,,*63
$PYRTM,2024,122.087150056863,13.196797467002
$GPGGA,020528.00,3314.1062,N,11838.7629,W,1,07,1.3,9.8,M,-34.7,M,,*53
$PYRTM,2024,122.087160718565,13.196808128704
$GPGGA,020529.00,3314.1070,N,11838.7653,W,1,07,1.3,9.3,M,-34.7,M,,*57
$PYRTM,2024,122.087173682778,13.196821092928
$GPGGA,020530.00,3314.1078,N,11838.7677,W,1,07,1.3,10.0,M,-34.7,M,,*6A
$PYRTM,2024,122.087184449525,13.196831859676
$GPGGA,020531.00,3314.1087,N,11838.7704,W,1,07,1.3,8.5,M,-34.7,M,,*52
$PYRTM,2024,122.087195559595,13.196842969734
$GPGGA,020532.00,3314.1095,N,11838.7731,W,1,07,1.3,5.8,M,-34.7,M,,*54
$PYRTM,2024,122.087206668808,13.196854078958
$GPGGA,020533.00,3314.1102,N,11838.7755,W,1,07,1.3,4.0,M,-34.7,M,,*51
$PYRTM,2024,122.087217795359,13.196865205498
$GPGGA,020534.00,3314.1109,N,11838.7779,W,1,07,1.3,4.1,M,-34.7,M,,*52
$PYRTM,2024,122.087228886366,13.196876296505
$GPGGA,020535.00,3314.1116,N,11838.7807,W,1,07,1.3,5.1,M,-34.7,M,,*5A
$PYRTM,2024,122.087240005718,13.196887415856
$GPGGA,020536.00,3314.1124,N,11838.7834,W,1,07,1.3,6.5,M,-34.7,M,,*5F
$PYRTM,2024,122.087251113310,13.196898523449
$GPGGA,020537.00,3314.1131,N,11838.7857,W,1,07,1.3,8.5,M,-34.7,M,,*51
$PYRTM,2024,122.087265684560,13.196913094699
$GPGGA,020538.00,3314.1139,N,11838.7879,W,1,07,1.3,4.9,M,-34.7,M,,*5A
$PYRTM,2024,122.087276795116,13.196924205255
$GPGGA,020539.00,3314.1148,N,11838.7904,W,1,07,1.3,7.1,M,-34.7,M,,*5D
$PYRTM,2024,122.087290118137,13.196937528275
$GPGGA,020540.00,3314.1158,N,11838.7932,W,1,07,1.3,6.5,M,-34.7,M,,*52
$PYRTM,2024,122.087301229502,13.196948639641
$GPGGA,020541.00,3314.1166,N,11838.7957,W,1,07,1.3,8.9,M,-34.7,M,,*5F
$PYRTM,2024,122.087312329421,13.196959739560
$GPGGA,020542.00,3314.1172,N,11838.7978,W,1,07,1.3,9.4,M,-34.7,M,,*58
$PYRTM,2024,122.087323456181,13.196970866319
$GPGGA,020543.00,3314.1180,N,11838.8000,W,1,07,1.3,7.8,M,-34.7,M,,*5F
$PYRTM,2024,122.087334678704,13.196982088843
$GPGGA,020544.00,3314.1190,N,11838.8029,W,1,07,1.3,6.7,M,-34.7,M,,*5C
$PYRTM,2024,122.087345792766,13.196993202905
$GPGGA,020545.00,3314.1199,N,11838.8056,W,1,07,1.3,6.7,M,-34.7,M,,*5C
$PYRTM,2024,122.087357236956,13.197004647095
$GPGGA,020546.00,3314.1206,N,11838.8079,W,1,07,1.3,9.5,M,-34.7,M,,*5A
$PYRTM,2024,122.087368822720,13.197016232859
$GPGGA,020547.00,3314.1212,N,11838.8103,W,1,07,1.3,8.7,M,-34.7,M,,*51
$PYRTM,2024,122.087380383773,13.197027793912
$GPGGA,020548.00,3314.1220,N,11838.8129,W,1,07,1.3,7.5,M,-34.7,M,,*5A
$PYRTM,2024,122.087391970255,13.197039380394
$GPGGA,020549.00,3314.1229,N,11838.8156,W,1,07,1.3,4.9,M,-34.7,M,,*55
$PYRTM,2024,122.087404007812,13.197051417951
$GPGGA,020550.00,3314.1237,N,11838.8183,W,1,07,1.3,2.0,M,-34.7,M,,*55
$PYRTM,2024,122.087415122859,13.197062532998
$GPGGA,020551.00,3314.1244,N,11838.8206,W,1,07,1.3,2.7,M,-34.7,M,,*59
$PYRTM,2024,122.087426682940,13.197074093079
$GPGGA,020552.00,3314.1251,N,11838.8226,W,1,07,1.3,3.0,M,-34.7,M,,*5A
$PYRTM,2024,122.087438267384,13.197085677523
$GPGGA,020553.00,3314.1261,N,11838.8248,W,1,07,1.3,2.8,M,-34.7,M,,*59
$PYRTM,2024,122.087449828380,13.197097238519
$GPGGA,020554.00,3314.1272,N,11838.8273,W,1,07,1.3,2.6,M,-34.7,M,,*5A
$PYRTM,2024,122.087461415810,13.197108825961
$GPGGA,020555.00,3314.1281,N,11838.8301,W,1,07,1.3,2.9,M,-34.7,M,,*5C
$PYRTM,2024,122.087472978426,13.197120388565
$GPGGA,020556.00,3314.1287,N,11838.8326,W,1,07,1.3,2.3,M,-34.7,M,,*56
$PYRTM,2024,122.087485014074,13.197132424213
$GPGGA,020557.00,3314.1293,N,11838.8346,W,1,07,1.3,6.4,M,-34.7,M,,*57
$PYRTM,2024,122.087496125046,13.197143535185
$GPGGA,020558.00,3314.1301,N,11838.8366,W,1,07,1.3,6.3,M,-34.7,M,,*57
$PYRTM,2024,122.087507715127,13.197155125266
$GPGGA,020559.00,3314.1309,N,11838.8392,W,1,07,1.3,4.6,M,-34.7,M,,*52
$PYRTM,2024,122.087519272882,13.197166683021
$GPGGA,020600.00,3314.1317,N,11838.8421,W,1,07,1.3,5.0,M,-34.7,M,,*5A
$PYRTM,2024,122.087530860637,13.197178270775
$GPGGA,020601.00,3314.1323,N,11838.8445,W,1,07,1.3,5.9,M,-34.7,M,,*57
$PYRTM,2024,122.087542423507,13.197189833646
$GPGGA,020602.00,3314.1330,N,11838.8465,W,1,07,1.3,7.5,M,-34.7,M,,*5A
$PYRTM,2024,122.087554011933,13.197201422072
$GPGGA,020603.00,3314.1340,N,11838.8486,W,1,07,1.3,5.8,M,-34.7,M,,*5E
$PYRTM,2024,122.087565569641,13.197212979780
$GPGGA,020604.00,3314.1350,N,11838.8509,W,1,07,1.3,7.9,M,-34.7,M,,*5D
$PYRTM,2024,122.087577156586,13.197224566725
$GPGGA,020605.00,3314.1359,N,11838.8534,W,1,07,1.3,6.4,M,-34.7,M,,*57
$PYRTM,2024,122.087588718322,13.197236128461
$GPGGA,020606.00,3314.1367,N,11838.8559,W,1,07,1.3,4.9,M,-34.7,M,,*5D
$PYRTM,2024,122.087601346863,13.197248757002
$GPGGA,020607.00,3314.1374,N,11838.8581,W,1,07,1.3,5.6,M,-34.7,M,,*55
$PYRTM,2024,122.087612907905,13.197260318056
$GPGGA,020608.00,3314.1382,N,11838.8603,W,1,07,1.3,6.5,M,-34.7,M,,*5A
$PYRTM,2024,122.087624494606,13.197271904745
$GPGGA,020609.00,3314.1390,N,11838.8627,W,1,07,1.3,5.5,M,-34.7,M,,*5D
$PYRTM,2024,122.087636059155,13.197283469294
$GPGGA,020610.00,3314.1397,N,11838.8652,W,1,07,1.3,6.3,M,-34.7,M,,*55
$PYRTM,2024,122.087647644954,13.197295055104
$GPGGA,020611.00,3314.1404,N,11838.8677,W,1,07,1.3,6.6,M,-34.7,M,,*5B
$PYRTM,2024,122.087659205058,13.197306615197
$GPGGA,020612.00,3314.1409,N,11838.8701,W,1,07,1.3,6.5,M,-34.7,M,,*56
$PYRTM,2024,122.087670806377,13.197318216516
$GPGGA,020613.00,3314.1417,N,11838.8726,W,1,07,1.3,6.3,M,-34.7,M,,*5B
$PYRTM,2024,122.087682353750,13.197329763889
$GPGGA,020614.00,3314.1425,N,11838.8753,W,1,07,1.3,4.1,M,-34.7,M,,*5F
$PYRTM,2024,122.087693954653,13.197341364792
$GPGGA,020615.00,3314.1434,N,11838.8780,W,1,07,1.3,4.9,M,-34.7,M,,*58
$PYRTM,2024,122.087705501019,13.197352911157
$GPGGA,020616.00,3314.1443,N,11838.8804,W,1,07,1.3,5.7,M,-34.7,M,,*57
$PYRTM,2024,122.087717102662,13.197364512801
$GPGGA,020617.00,3314.1452,N,11838.8827,W,1,07,1.3,4.8,M,-34.7,M,,*59
$PYRTM,2024,122.087728649606,13.197376059757
$GPGGA,020618.00,3314.1461,N,11838.8855,W,1,07,1.3,3.1,M,-34.7,M,,*5D
$PYRTM,2024,122.087740237546,13.197387647685
$GPGGA,020619.00,3314.1469,N,11838.8884,W,1,07,1.3,5.7,M,-34.7,M,,*58
$PYRTM,2024,122.087752273854,13.197399683993
$GPGGA,020620.00,3314.1477,N,11838.8908,W,1,07,1.3,7.2,M,-34.7,M,,*5F
$PYRTM,2024,122.087763387477,13.197410797616
$GPGGA,020621.00,3314.1485,N,11838.8931,W,1,07,1.3,6.9,M,-34.7,M,,*53
$PYRTM,2024,122.087774946331,13.197422356470
$GPGGA,020622.00,3314.1496,N,11838.8957,W,1,07,1.3,5.0,M,-34.7,M,,*58
$PYRTM,2024,122.087786533854,13.197433943993
$GPGGA,020623.00,3314.1504,N,11838.8984,W,1,07,1.3,3.4,M,-34.7,M,,*5F
$PYRTM,2024,122.087798094363,13.197445504502
$GPGGA,020624.00,3314.1510,N,11838.9010,W,1,07,1.3,4.4,M,-34.7,M,,*5F
$PYRTM,2024,122.087809677535,13.197457087674
$GPGGA,020625.00,3314.1515,N,11838.9033,W,1,07,1.3,7.6,M,-34.7,M,,*5B
$PYRTM,2024,122.087821244225,13.197468654363
$GPGGA,020626.00,3314.1524,N,11838.9057,W,1,07,1.3,8.0,M,-34.7,M,,*51
$PYRTM,2024,122.087832845035,13.197480255174
$GPGGA,020627.00,3314.1534,N,11838.9082,W,1,07,1.3,6.6,M,-34.7,M,,*51
$PYRTM,2024,122.087844390498,13.197491800637
$GPGGA,020628.00,3314.1543,N,11838.9108,W,1,07,1.3,7.1,M,-34.7,M,,*5B
$PYRTM,2024,122.087855993426,13.197503403565
$GPGGA,020629.00,3314.1551,N,11838.9133,W,1,07,1.3,7.4,M,-34.7,M,,*54
$PYRTM,2024,122.087867539398,13.197514949537
$GPGGA,020630.00,3314.1558,N,11838.9158,W,1,07,1.3,9.4,M,-34.7,M,,*56
$PYRTM,2024,122.087879127060,13.197526537199
$GPGGA,020631.00,3314.1568,N,11838.9184,W,1,07,1.3,9.3,M,-34.7,M,,*52
$PYRTM,2024,122.087890688831,13.197538098970
$GPGGA,020632.00,3314.1578,N,11838.9211,W,1,07,1.3,5.1,M,-34.7,M,,*51
$PYRTM,2024,122.087902270671,13.197549680810
$GPGGA,020633.00,3314.1587,N,11838.9238,W,1,07,1.3,5.4,M,-34.7,M,,*5E
$PYRTM,2024,122.087913836632,13.197561246771
$GPGGA,020634.00,3314.1595,N,11838.9264,W,1,07,1.3,6.2,M,-34.7,M,,*56
$PYRTM,2024,122.087925424063,13.197572834213
$GPGGA,020635.00,3314.1602,N,11838.9292,W,1,07,1.3,7.1,M,-34.7,M,,*51
$PYRTM,2024,122.087936985405,13.197584395544
$GPGGA,020636.00,3314.1610,N,11838.9318,W,1,07,1.3,6.8,M,-34.7,M,,*5A
$PYRTM,2024,122.087949715961,13.197597126100
$GPGGA,020637.00,3314.1619,N,11838.9343,W,1,07,1.3,7.7,M,-34.7,M,,*52
$PYRTM,2024,122.087962344688,13.197609754826
$GPGGA,020638.00,3314.1629,N,11838.9368,W,1,07,1.3,4.4,M,-34.7,M,,*57
$PYRTM,2024,122.087971719896,13.197619130046
$GPGGA,020639.00,3314.1636,N,11838.9397,W,1,07,1.3,6.5,M,-34.7,M,,*5B
$PYRTM,2024,122.087983280625,13.197630690764
$GPGGA,020640.00,3314.1640,N,11838.9421,W,1,07,1.3,7.4,M,-34.7,M,,*5E
$PYRTM,2024,122.087994868345,13.197642278484
$GPGGA,020641.00,3314.1646,N,11838.9445,W,1,07,1.3,5.4,M,-34.7,M,,*59
$PYRTM,2024,122.088006428796,13.197653838935
$GPGGA,020642.00,3314.1654,N,11838.9472,W,1,07,1.3,5.1,M,-34.7,M,,*58
$PYRTM,2024,122.088018031898,13.197665442037
$GPGGA,020643.00,3314.1662,N,11838.9499,W,1,07,1.3,4.6,M,-34.7,M,,*5F
$PYRTM,2024,122.088029578345,13.197676988484
$GPGGA,020644.00,3314.1667,N,11838.9524,W,1,07,1.3,4.7,M,-34.7,M,,*5B
$PYRTM,2024,122.088041169155,13.197688579294
$GPGGA,020645.00,3314.1673,N,11838.9549,W,1,07,1.3,4.3,M,-34.7,M,,*50
$PYRTM,2024,122.088052726840,13.197700136979
$GPGGA,020646.00,3314.1680,N,11838.9572,W,1,07,1.3,2.4,M,-34.7,M,,*56
$PYRTM,2024,122.088064763380,13.197712173519
$GPGGA,020647.00,3314.1689,N,11838.9593,W,1,07,1.3,4.9,M,-34.7,M,,*5A
$PYRTM,2024,122.088075875694,13.197723285833
$GPGGA,020648.00,3314.1698,N,11838.9619,W,1,07,1.3,5.4,M,-34.7,M,,*58
$PYRTM,2024,122.088087462442,13.197734872581
$GPGGA,020649.00,3314.1707,N,11838.9648,W,1,07,1.3,6.6,M,-34.7,M,,*5B
$PYRTM,2024,122.088099503808,13.197746913947
$GPGGA,020650.00,3314.1712,N,11838.9675,W,1,07,1.3,7.6,M,-34.7,M,,*58
$PYRTM,2024,122.088110610567,13.197758020706
$GPGGA,020651.00,3314.1719,N,11838.9698,W,1,07,1.3,8.8,M,-34.7,M,,*50
$PYRTM,2024,122.088122171586,13.197769581725
$GPGGA,020652.00,3314.1728,N,11838.9723,W,1,07,1.3,7.9,M,-34.7,M,,*5E
$PYRTM,2024,122.088133754086,13.197781164225
$GPGGA,020653.00,3314.1737,N,11838.9749,W,1,07,1.3,5.1,M,-34.7,M,,*57
$PYRTM,2024,122.088145321586,13.197792731725
$GPGGA,020654.00,3314.1746,N,11838.9776,W,1,07,1.3,5.5,M,-34.7,M,,*5E
$PYRTM,2024,122.088156902095,13.197804312245
$GPGGA,020655.00,3314.1751,N,11838.9802,W,1,07,1.3,6.5,M,-34.7,M,,*56
$PYRTM,2024,122.088168469537,13.197815879676
$GPGGA,020656.00,3314.1756,N,11838.9828,W,1,07,1.3,6.0,M,-34.7,M,,*5F
$PYRTM,2024,122.088180058438,13.197827468576
$GPGGA,020657.00,3314.1764,N,11838.9853,W,1,07,1.3,6.8,M,-34.7,M,,*5B
$PYRTM,2024,122.088191617384,13.197839027535
$GPGGA,020658.00,3314.1774,N,11838.9879,W,1,07,1.3,5.8,M,-34.7,M,,*5E
$PYRTM,2024,122.088203206887,13.197850617025
$GPGGA,020659.00,3314.1784,N,11838.9904,W,1,07,1.3,4.6,M,-34.7,M,,*54
$PYRTM,2024,122.088214765255,13.197862175394
$GPGGA,020700.00,3314.1791,N,11838.9928,W,1,07,1.3,6.7,M,-34.7,M,,*50
$PYRTM,2024,122.088226347384,13.197873757523
$GPGGA,020701.00,3314.1796,N,11838.9954,W,1,07,1.3,7.5,M,-34.7,M,,*5E
$PYRTM,2024,122.088237912604,13.197885322743
$GPGGA,020702.00,3314.1802,N,11838.9982,W,1,07,1.3,7.8,M,-34.7,M,,*59
$PYRTM,2024,122.088249495451,13.197896905590
$GPGGA,020703.00,3314.1811,N,11839.0007,W,1,07,1.3,6.9,M,-34.7,M,,*56
$PYRTM,2024,122.088261060891,13.197908471030
$GPGGA,020704.00,3314.1819,N,11839.0030,W,1,07,1.3,5.8,M,-34.7,M,,*5F
$PYRTM,2024,122.088272649560,13.197920059699
$GPGGA,020705.00,3314.1825,N,11839.0052,W,1,07,1.3,7.6,M,-34.7,M,,*59
$PYRTM,2024,122.088284209688,13.197931619826
$GPGGA,020706.00,3314.1831,N,11839.0079,W,1,07,1.3,7.5,M,-34.7,M,,*55
$PYRTM,2024,122.088296942211,13.197944352361
$GPGGA,020707.00,3314.1838,N,11839.0109,W,1,07,1.3,5.0,M,-34.7,M,,*5C
$PYRTM,2024,122.088309572813,13.197956982951
$GPGGA,020708.00,3314.1846,N,11839.0134,W,1,07,1.3,6.1,M,-34.7,M,,*56
$PYRTM,2024,122.088318945972,13.197966356111
$GPGGA,020709.00,3314.1853,N,11839.0156,W,1,07,1.3,8.8,M,-34.7,M,,*50
$PYRTM,2024,122.088330507303,13.197977917442
$GPGGA,020710.00,3314.1859,N,11839.0180,W,1,07,1.3,7.7,M,-34.7,M,,*59
$PYRTM,2024,122.088342093900,13.197989504039
$GPGGA,020711.00,3314.1866,N,11839.0208,W,1,07,1.3,9.1,M,-34.7,M,,*5F
$PYRTM,2024,122.088353654664,13.198001064803
$GPGGA,020712.00,3314.1874,N,11839.0237,W,1,07,1.3,6.0,M,-34.7,M,,*5D
$PYRTM,2024,122.088365244317,13.198012654456
$GPGGA,020713.00,3314.1881,N,11839.0259,W,1,07,1.3,7.0,M,-34.7,M,,*5F
$PYRTM,2024,122.088376803576,13.198024213715
$GPGGA,020714.00,3314.1889,N,11839.0279,W,1,07,1.3,7.0,M,-34.7,M,,*52
$PYRTM,2024,122.088388385174,13.198035795312
$GPGGA,020715.00,3314.1899,N,11839.0305,W,1,07,1.3,6.9,M,-34.7,M,,*50
$PYRTM,2024,122.088400065324,13.198047475463
$GPGGA,020716.00,3314.1908,N,11839.0331,W,1,07,1.3,10.2,M,-34.7,M,,*61
$PYRTM,2024,122.088411539016,13.198058949155
$GPGGA,020717.00,3314.1917,N,11839.0355,W,1,07,1.3,9.3,M,-34.7,M,,*55
$PYRTM,2024,122.088423214942,13.198070625081
$GPGGA,020718.00,3314.1926,N,11839.0379,W,1,07,1.3,12.9,M,-34.7,M,,*66
$PYRTM,2024,122.088434802083,13.198082212222
$GPGGA,020719.00,3314.1936,N,11839.0404,W,1,07,1.3,12.5,M,-34.7,M,,*67
$PYRTM,2024,122.088446727731,13.198094137870
$GPGGA,020720.00,3314.1946,N,11839.0427,W,1,07,1.3,10.7,M,-34.7,M,,*6B
$PYRTM,2024,122.088458400648,13.198105810787
$GPGGA,020721.00,3314.1956,N,11839.0452,W,1,07,1.3,7.9,M,-34.7,M,,*51
$PYRTM,2024,122.088469987951,13.198117398090
$GPGGA,020722.00,3314.1965,N,11839.0480,W,1,07,1.3,7.7,M,-34.7,M,,*53
$PYRTM,2024,122.088481547951,13.198128958102
$GPGGA,020723.00,3314.1972,N,11839.0506,W,1,07,1.3,9.9,M,-34.7,M,,*5B
$PYRTM,2024,122.088493135926,13.198140546065
$GPGGA,020724.00,3314.1979,N,11839.0526,W,1,07,1.3,9.7,M,-34.7,M,,*5B
$PYRTM,2024,122.088504696285,13.198152106435
$GPGGA,020725.00,3314.1990,N,11839.0548,W,1,07,1.3,10.0,M,-34.7,M,,*6A
$PYRTM,2024,122.088516285278,13.198163695417
$GPGGA,020726.00,3314.2000,N,11839.0574,W,1,07,1.3,5.9,M,-34.7,M,,*58
$PYRTM,2024,122.088527844259,13.198175254398
$GPGGA,020727.00,3314.2006,N,11839.0600,W,1,07,1.3,5.5,M,-34.7,M,,*53
$PYRTM,2024,122.088539432847,13.198186842998
$GPGGA,020728.00,3314.2013,N,11839.0624,W,1,07,1.3,7.1,M,-34.7,M,,*58
$PYRTM,2024,122.088550992674,13.198198402812
$GPGGA,020729.00,3314.2021,N,11839.0646,W,1,07,1.3,6.1,M,-34.7,M,,*5D
$PYRTM,2024,122.088562580949,13.198209991088
$GPGGA,020730.00,3314.2030,N,11839.0670,W,1,07,1.3,4.8,M,-34.7,M,,*5B
$PYRTM,2024,122.088574142384,13.198221552523
$GPGGA,020731.00,3314.2040,N,11839.0695,W,1,07,1.3,5.0,M,-34.7,M,,*5F
$PYRTM,2024,122.088585730035,13.198233140174
$GPGGA,020732.00,3314.2047,N,11839.0721,W,1,07,1.3,4.5,M,-34.7,M,,*51
$PYRTM,2024,122.088597290301,13.198244700440
$GPGGA,020733.00,3314.2054,N,11839.0745,W,1,07,1.3,5.9,M,-34.7,M,,*5D
$PYRTM,2024,122.088610369595,13.198257779734
$GPGGA,020734.00,3314.2063,N,11839.0769,W,1,07,1.3,5.7,M,-34.7,M,,*5E
$PYRTM,2024,122.088623348032,13.198270758171
$GPGGA,020735.00,3314.2072,N,11839.0792,W,1,07,1.3,4.7,M,-34.7,M,,*5A
$PYRTM,2024,122.088634094468,13.198281504606
$GPGGA,020736.00,3314.2081,N,11839.0818,W,1,07,1.3,3.1,M,-34.7,M,,*59
$PYRTM,2024,122.088645208542,13.198292618681
$GPGGA,020737.00,3314.2089,N,11839.0843,W,1,07,1.3,3.5,M,-34.7,M,,*5A
$PYRTM,2024,122.088660252905,13.198307663044
$GPGGA,020738.00,3314.2095,N,11839.0867,W,1,07,1.3,6.0,M,-34.7,M,,*5E
$PYRTM,2024,122.088671364005,13.198318774144
$GPGGA,020739.00,3314.2102,N,11839.0891,W,1,07,1.3,6.7,M,-34.7,M,,*5E
$PYRTM,2024,122.088682475046,13.198329885197
$GPGGA,020740.00,3314.2109,N,11839.0916,W,1,07,1.3,6.6,M,-34.7,M,,*54
$PYRTM,2024,122.088693586551,13.198340996690
$GPGGA,020741.00,3314.2117,N,11839.0943,W,1,07,1.3,5.1,M,-34.7,M,,*5E
$PYRTM,2024,122.088704697743,13.198352107882
$GPGGA,020742.00,3314.2125,N,11839.0968,W,1,07,1.3,5.9,M,-34.7,M,,*5D
$PYRTM,2024,122.088715808553,13.198363218692
$GPGGA,020743.00,3314.2133,N,11839.0995,W,1,07,1.3,5.7,M,-34.7,M,,*57
$PYRTM,2024,122.088726920370,13.198374330509
$GPGGA,020744.00,3314.2140,N,11839.1020,W,1,07,1.3,7.9,M,-34.7,M,,*5E
$PYRTM,2024,122.088738031574,13.198385441713
$GPGGA,020745.00,3314.2147,N,11839.1044,W,1,07,1.3,8.5,M,-34.7,M,,*59
$PYRTM,2024,122.088749143576,13.198396553715
$GPGGA,020746.00,3314.2157,N,11839.1066,W,1,07,1.3,8.2,M,-34.7,M,,*5C
$PYRTM,2024,122.088760255127,13.198407665266
$GPGGA,020747.00,3314.2168,N,11839.1092,W,1,07,1.3,4.7,M,-34.7,M,,*53
$PYRTM,2024,122.088771365544,13.198418775683
$GPGGA,020748.00,3314.2177,N,11839.1118,W,1,07,1.3,5.8,M,-34.7,M,,*5F
$PYRTM,2024,122.088782477523,13.198429887662
$GPGGA,020749.00,3314.2184,N,11839.1143,W,1,07,1.3,7.1,M,-34.7,M,,*57
$PYRTM,2024,122.088794066181,13.198441476319
$GPGGA,020750.00,3314.2192,N,11839.1169,W,1,07,1.3,7.8,M,-34.7,M,,*59
$PYRTM,2024,122.088805176019,13.198452586169
$GPGGA,020751.00,3314.2201,N,11839.1196,W,1,07,1.3,7.8,M,-34.7,M,,*51
$PYRTM,2024,122.088816286898,13.198463697049
$GPGGA,020752.00,3314.2210,N,11839.1221,W,1,07,1.3,7.9,M,-34.7,M,,*5C
$PYRTM,2024,122.088827398553,13.198474808692
$GPGGA,020753.00,3314.2218,N,11839.1246,W,1,07,1.3,8.0,M,-34.7,M,,*52
$PYRTM,2024,122.088838728542,13.198486138692
$GPGGA,020754.00,3314.2225,N,11839.1272,W,1,07,1.3,5.9,M,-34.7,M,,*58
$PYRTM,2024,122.088850330208,13.198497740347
$GPGGA,020755.00,3314.2231,N,11839.1298,W,1,07,1.3,8.3,M,-34.7,M,,*5F
$PYRTM,2024,122.088861876354,13.198509286493
$GPGGA,020756.00,3314.2239,N,11839.1323,W,1,07,1.3,8.0,M,-34.7,M,,*56
$PYRTM,2024,122.088873467720,13.198520877859
$GPGGA,020757.00,3314.2247,N,11839.1349,W,1,07,1.3,6.5,M,-34.7,M,,*59
$PYRTM,2024,122.088885025995,13.198532436134
$GPGGA,020758.00,3314.2255,N,11839.1376,W,1,07,1.3,5.8,M,-34.7,M,,*57
$PYRTM,2024,122.088896611713,13.198544021863
$GPGGA,020759.00,3314.2263,N,11839.1403,W,1,07,1.3,4.9,M,-34.7,M,,*56
$PYRTM,2024,122.088908173229,13.198555583368
$GPGGA,020800.00,3314.2270,N,11839.1428,W,1,07,1.3,6.3,M,-34.7,M,,*56
$PYRTM,2024,122.088919759826,13.198567169965
$GPGGA,020801.00,3314.2276,N,11839.1452,W,1,07,1.3,7.8,M,-34.7,M,,*56
$PYRTM,2024,122.088931322303,13.198578732454
$GPGGA,020802.00,3314.2283,N,11839.1477,W,1,07,1.3,9.3,M,-34.7,M,,*5D
$PYRTM,2024,122.088942910949,13.198590321100
$GPGGA,020803.00,3314.2290,N,11839.1504,W,1,07,1.3,9.5,M,-34.7,M,,*5D
$PYRTM,2024,122.088954470440,13.198601880579
$GPGGA,020804.00,3314.2297,N,11839.1530,W,1,07,1.3,8.4,M,-34.7,M,,*5A
$PYRTM,2024,122.088966050961,13.198613461100
$GPGGA,020805.00,3314.2305,N,11839.1553,W,1,07,1.3,8.1,M,-34.7,M,,*51
$PYRTM,2024,122.088977619479,13.198625029618
$GPGGA,020806.00,3314.2313,N,11839.1576,W,1,07,1.3,9.3,M,-34.7,M,,*51
$PYRTM,2024,122.088990243056,13.198637653194
$GPGGA,020807.00,3314.2321,N,11839.1601,W,1,07,1.3,6.4,M,-34.7,M,,*5A
$PYRTM,2024,122.089001809120,13.198649219259
$GPGGA,020808.00,3314.2329,N,11839.1629,W,1,07,1.3,5.3,M,-34.7,M,,*53
$PYRTM,2024,122.089013397442,13.198660807581
$GPGGA,020809.00,3314.2335,N,11839.1656,W,1,07,1.3,6.9,M,-34.7,M,,*5E
$PYRTM,2024,122.089025072662,13.198672482801
$GPGGA,020810.00,3314.2342,N,11839.1678,W,1,07,1.3,10.4,M,-34.7,M,,*60
$PYRTM,2024,122.089036546748,13.198683956887
$GPGGA,020811.00,3314.2351,N,11839.1703,W,1,07,1.3,8.8,M,-34.7,M,,*5B
$PYRTM,2024,122.089048105174,13.198695515324
$GPGGA,020812.00,3314.2361,N,11839.1730,W,1,07,1.3,8.5,M,-34.7,M,,*56
$PYRTM,2024,122.089059807083,13.198707217234
$GPGGA,020813.00,3314.2368,N,11839.1756,W,1,07,1.3,10.6,M,-34.7,M,,*64
$PYRTM,2024,122.089071366574,13.198718776713
$GPGGA,020814.00,3314.2374,N,11839.1780,W,1,07,1.3,11.1,M,-34.7,M,,*63
$PYRTM,2024,122.089082956042,13.198730366181
$GPGGA,020815.00,3314.2383,N,11839.1806,W,1,07,1.3,10.8,M,-34.7,M,,*63
$PYRTM,2024,122.089094514213,13.198741924352
$GPGGA,020816.00,3314.2392,N,11839.1833,W,1,07,1.3,12.9,M,-34.7,M,,*65
$PYRTM,2024,122.089106103333,13.198753513472
$GPGGA,020817.00,3314.2399,N,11839.1857,W,1,07,1.3,15.6,M,-34.7,M,,*65
$PYRTM,2024,122.089117664850,13.198765074988
$GPGGA,020818.00,3314.2404,N,11839.1883,W,1,07,1.3,14.2,M,-34.7,M,,*65
$PYRTM,2024,122.089129238947,13.198776649086
$GPGGA,020819.00,3314.2411,N,11839.1911,W,1,07,1.3,14.1,M,-34.7,M,,*69
$PYRTM,2024,122.089141188137,13.198788598275
$GPGGA,020820.00,3314.2417,N,11839.1937,W,1,07,1.3,11.5,M,-34.7,M,,*60
$PYRTM,2024,122.089152511910,13.198799922049
$GPGGA,020821.00,3314.2425,N,11839.1961,W,1,07,1.3,10.5,M,-34.7,M,,*62
$PYRTM,2024,122.089163846632,13.198811256771
$GPGGA,020822.00,3314.2434,N,11839.1984,W,1,07,1.3,8.0,M,-34.7,M,,*56
$PYRTM,2024,122.089175433576,13.198822843715
$GPGGA,020823.00,3314.2442,N,11839.2011,W,1,07,1.3,6.3,M,-34.7,M,,*5D
$PYRTM,2024,122.089186994618,13.198834404757
$GPGGA,020824.00,3314.2450,N,11839.2038,W,1,07,1.3,8.8,M,-34.7,M,,*57
$PYRTM,2024,122.089198697222,13.198846107361
$GPGGA,020825.00,3314.2456,N,11839.2062,W,1,07,1.3,10.2,M,-34.7,M,,*6C
$PYRTM,2024,122.089210143588,13.198857553727
$GPGGA,020826.00,3314.2464,N,11839.2085,W,1,07,1.3,9.4,M,-34.7,M,,*59
$PYRTM,2024,122.089222181551,13.198869591690
$GPGGA,020827.00,3314.2472,N,11839.2110,W,1,07,1.3,9.9,M,-34.7,M,,*5F
$PYRTM,2024,122.089233290208,13.198880700359
$GPGGA,020828.00,3314.2479,N,11839.2133,W,1,07,1.3,7.7,M,-34.7,M,,*5A
$PYRTM,2024,122.089244878021,13.198892288160
$GPGGA,020829.00,3314.2487,N,11839.2154,W,1,07,1.3,7.2,M,-34.7,M,,*5E
$PYRTM,2024,122.089256439502,13.198903849641
$GPGGA,020830.00,3314.2496,N,11839.2180,W,1,07,1.3,7.8,M,-34.7,M,,*55
$PYRTM,2024,122.089268022604,13.198915432743
$GPGGA,020831.00,3314.2504,N,11839.2207,W,1,07,1.3,9.6,M,-34.7,M,,*52
$PYRTM,2024,122.089279702106,13.198927112245
$GPGGA,020832.00,3314.2509,N,11839.2233,W,1,07,1.3,10.6,M,-34.7,M,,*63
$PYRTM,2024,122.089291176065,13.198938586204
$GPGGA,020833.00,3314.2516,N,11839.2258,W,1,07,1.3,9.4,M,-34.7,M,,*5B
$PYRTM,2024,122.089302736273,13.198950146412
$GPGGA,020834.00,3314.2524,N,11839.2282,W,1,07,1.3,9.9,M,-34.7,M,,*57
$PYRTM,2024,122.089314317407,13.198961727558
$GPGGA,020835.00,3314.2532,N,11839.2305,W,1,07,1.3,9.5,M,-34.7,M,,*53
$PYRTM,2024,122.089325885162,13.198973295301
$GPGGA,020836.00,3314.2539,N,11839.2332,W,1,07,1.3,8.0,M,-34.7,M,,*5B
$PYRTM,2024,122.089338615856,13.198986025995
$GPGGA,020837.00,3314.2545,N,11839.2359,W,1,07,1.3,10.7,M,-34.7,M,,*62
$PYRTM,2024,122.089351232650,13.198998642789
