$PYRTM,2024,125.666675694595,16.776323104745
$GPGGA,155959.00,3510.6646,N,12207.8440,W,1,11,0.8,8.7,M,-32.9,M,,*53
$PYRTM,2024,125.666687266146,16.776334676285
$GPGGA,160000.00,3510.6648,N,12207.8447,W,1,11,0.8,8.3,M,-32.9,M,,*5D
$PYRTM,2024,125.666698853935,16.776346264074
$GPGGA,160001.00,3510.6649,N,12207.8453,W,1,11,0.8,8.2,M,-32.9,M,,*59
$PYRTM,2024,125.666708562604,16.776355972743
$GPGGA,160002.00,3510.6649,N,12207.8463,W,1,11,0.8,11.1,M,-32.9,M,,*62
$PYRTM,2024,125.666724071829,16.776371481968
$GPGGA,160003.00,3510.6649,N,12207.8473,W,1,11,0.8,11.3,M,-32.9,M,,*60
$PYRTM,2024,125.666734720567,16.776382130706
$GPGGA,160004.00,3510.6651,N,12207.8480,W,1,11,0.8,11.1,M,-32.9,M,,*60
$PYRTM,2024,125.666745847581,16.776393257720
$GPGGA,160005.00,3510.6654,N,12207.8485,W,1,11,0.8,10.9,M,-32.9,M,,*68
$PYRTM,2024,125.666757066609,16.776404476748
$GPGGA,160006.00,3510.6657,N,12207.8491,W,1,11,0.8,12.7,M,-32.9,M,,*61
$PYRTM,2024,125.666768184965,16.776415595104
$GPGGA,160007.00,3510.6658,N,12207.8499,W,1,11,0.8,10.8,M,-32.9,M,,*6A
$PYRTM,2024,125.666779179479,16.776426589618
$GPGGA,160008.00,3510.6657,N,12207.8509,W,1,11,0.8,8.5,M,-32.9,M,,*56
$PYRTM,2024,125.666790289572,16.776437699711
$GPGGA,160009.00,3510.6658,N,12207.8516,W,1,11,0.8,8.1,M,-32.9,M,,*52
$PYRTM,2024,125.666801395775,16.776448805914
$GPGGA,160010.00,3510.6662,N,12207.8520,W,1,11,0.8,7.7,M,-32.9,M,,*5F
$PYRTM,2024,125.666812505810,16.776459915949
$GPGGA,160011.00,3510.6664,N,12207.8525,W,1,11,0.8,7.3,M,-32.9,M,,*59
$PYRTM,2024,125.666823625486,16.776471035625
$GPGGA,160012.00,3510.6664,N,12207.8532,W,1,11,0.8,7.4,M,-32.9,M,,*5B
$PYRTM,2024,125.666834734965,16.776482145104
$GPGGA,160013.00,3510.6664,N,12207.8538,W,1,11,0.8,7.4,M,-32.9,M,,*50
$PYRTM,2024,125.666845848750,16.776493258889
$GPGGA,160014.00,3510.6663,N,12207.8543,W,1,11,0.8,7.2,M,-32.9,M,,*5A
$PYRTM,2024,125.666856955880,16.776504366019
$GPGGA,160015.00,3510.6664,N,12207.8549,W,1,11,0.8,6.9,M,-32.9,M,,*5C
$PYRTM,2024,125.666867951597,16.776515361736
$GPGGA,160016.00,3510.6663,N,12207.8558,W,1,11,0.8,7.1,M,-32.9,M,,*51
$PYRTM,2024,125.666879077951,16.776526488090
$GPGGA,160017.00,3510.6664,N,12207.8567,W,1,11,0.8,5.8,M,-32.9,M,,*50
$PYRTM,2024,125.666890292662,16.776537702801
$GPGGA,160018.00,3510.6666,N,12207.8573,W,1,11,0.8,5.4,M,-32.9,M,,*54
$PYRTM,2024,125.666901851400,16.776549261551
$GPGGA,160019.00,3510.6671,N,12207.8576,W,1,11,0.8,5.5,M,-32.9,M,,*57
$PYRTM,2024,125.666913433391,16.776560843530
$GPGGA,160020.00,3510.6674,N,12207.8580,W,1,11,0.8,8.0,M,-32.9,M,,*59
$PYRTM,2024,125.666924998588,16.776572408727
$GPGGA,160021.00,3510.6675,N,12207.8587,W,1,11,0.8,7.4,M,-32.9,M,,*55
$PYRTM,2024,125.666936586389,16.776583996528
$GPGGA,160022.00,3510.6671,N,12207.8596,W,1,11,0.8,5.0,M,-32.9,M,,*54
$PYRTM,2024,125.666948147650,16.776595557801
$GPGGA,160023.00,3510.6670,N,12207.8605,W,1,11,0.8,4.0,M,-32.9,M,,*5C
$PYRTM,2024,125.666959737789,16.776607147928
$GPGGA,160024.00,3510.6675,N,12207.8610,W,1,11,0.8,2.4,M,-32.9,M,,*58
$PYRTM,2024,125.666971296262,16.776618706400
$GPGGA,160025.00,3510.6682,N,12207.8610,W,1,11,0.8,1.4,M,-32.9,M,,*52
$PYRTM,2024,125.666982886146,16.776630296296
$GPGGA,160026.00,3510.6686,N,12207.8613,W,1,11,0.8,0.9,M,-32.9,M,,*5A
$PYRTM,2024,125.666994443773,16.776641853912
$GPGGA,160027.00,3510.6685,N,12207.8622,W,1,11,0.8,0.3,M,-32.9,M,,*50
$PYRTM,2024,125.667006027153,16.776653437292
$GPGGA,160028.00,3510.6684,N,12207.8633,W,1,11,0.8,3.2,M,-32.9,M,,*5C
$PYRTM,2024,125.667017593056,16.776665003206
$GPGGA,160029.00,3510.6686,N,12207.8637,W,1,11,0.8,3.2,M,-32.9,M,,*5B
$PYRTM,2024,125.667029180208,16.776676590347
$GPGGA,160030.00,3510.6691,N,12207.8638,W,1,11,0.8,3.3,M,-32.9,M,,*5B
$PYRTM,2024,125.667040741701,16.776688151852
$GPGGA,160031.00,3510.6693,N,12207.8642,W,1,11,0.8,1.6,M,-32.9,M,,*52
$PYRTM,2024,125.667056482650,16.776703892789
$GPGGA,160032.00,3510.6691,N,12207.8652,W,1,11,0.8,4.0,M,-32.9,M,,*51
$PYRTM,2024,125.667068071551,16.776715481690
$GPGGA,160033.00,3510.6689,N,12207.8662,W,1,11,0.8,4.4,M,-32.9,M,,*5E
$PYRTM,2024,125.667079630938,16.776727041076
$GPGGA,160034.00,3510.6691,N,12207.8669,W,1,11,0.8,4.4,M,-32.9,M,,*5B
$PYRTM,2024,125.667091230532,16.776738640683
$GPGGA,160035.00,3510.6694,N,12207.8673,W,1,11,0.8,4.1,M,-32.9,M,,*51
$PYRTM,2024,125.667102778657,16.776750188796
$GPGGA,160036.00,3510.6697,N,12207.8678,W,1,11,0.8,4.1,M,-32.9,M,,*5A
$PYRTM,2024,125.667114367940,16.776761778079
$GPGGA,160037.00,3510.6696,N,12207.8687,W,1,11,0.8,4.8,M,-32.9,M,,*53
$PYRTM,2024,125.667125926736,16.776773336875
$GPGGA,160038.00,3510.6695,N,12207.8698,W,1,11,0.8,3.7,M,-32.9,M,,*59
$PYRTM,2024,125.667137513958,16.776784924097
$GPGGA,160039.00,3510.6695,N,12207.8705,W,1,11,0.8,3.6,M,-32.9,M,,*5C
$PYRTM,2024,125.667149075127,16.776796485266
$GPGGA,160040.00,3510.6696,N,12207.8708,W,1,11,0.8,4.0,M,-32.9,M,,*5D
$PYRTM,2024,125.667160662650,16.776808072789
$GPGGA,160041.00,3510.6700,N,12207.8713,W,1,11,0.8,6.0,M,-32.9,M,,*5A
$PYRTM,2024,125.667172223808,16.776819633947
$GPGGA,160042.00,3510.6702,N,12207.8723,W,1,11,0.8,6.7,M,-32.9,M,,*5F
$PYRTM,2024,125.667183804907,16.776831215046
$GPGGA,160043.00,3510.6700,N,12207.8732,W,1,11,0.8,5.1,M,-32.9,M,,*59
$PYRTM,2024,125.667195370694,16.776842780833
$GPGGA,160044.00,3510.6699,N,12207.8739,W,1,11,0.8,5.2,M,-32.9,M,,*57
$PYRTM,2024,125.667206959236,16.776854369375
$GPGGA,160045.00,3510.6700,N,12207.8744,W,1,11,0.8,8.1,M,-32.9,M,,*53
$PYRTM,2024,125.667218521146,16.776865931285
$GPGGA,160046.00,3510.6703,N,12207.8751,W,1,11,0.8,5.9,M,-32.9,M,,*52
$PYRTM,2024,125.667230110035,16.776877520174
$GPGGA,160047.00,3510.6705,N,12207.8759,W,1,11,0.8,5.5,M,-32.9,M,,*51
$PYRTM,2024,125.667241667778,16.776889077917
$GPGGA,160048.00,3510.6703,N,12207.8765,W,1,11,0.8,4.6,M,-32.9,M,,*55
$PYRTM,2024,125.667253269549,16.776900679688
$GPGGA,160049.00,3510.6701,N,12207.8772,W,1,11,0.8,7.1,M,-32.9,M,,*54
$PYRTM,2024,125.667264816852,16.776912226991
$GPGGA,160050.00,3510.6704,N,12207.8777,W,1,11,0.8,5.5,M,-32.9,M,,*5A
$PYRTM,2024,125.667276417512,16.776923827650
$GPGGA,160051.00,3510.6707,N,12207.8783,W,1,11,0.8,5.4,M,-32.9,M,,*52
$PYRTM,2024,125.667289119711,16.776936529861
$GPGGA,160052.00,3510.6707,N,12207.8789,W,1,11,0.8,5.4,M,-32.9,M,,*5B
$PYRTM,2024,125.667300709097,16.776948119236
$GPGGA,160053.00,3510.6705,N,12207.8796,W,1,11,0.8,5.4,M,-32.9,M,,*56
$PYRTM,2024,125.667312268738,16.776959678877
$GPGGA,160054.00,3510.6704,N,12207.8803,W,1,11,0.8,1.8,M,-32.9,M,,*5B
$PYRTM,2024,125.667323856111,16.776971266250
$GPGGA,160055.00,3510.6706,N,12207.8811,W,1,11,0.8,3.0,M,-32.9,M,,*51
$PYRTM,2024,125.667335417407,16.776982827546
$GPGGA,160056.00,3510.6711,N,12207.8817,W,1,11,0.8,3.4,M,-32.9,M,,*56
$PYRTM,2024,125.667347004884,16.776994415023
$GPGGA,160057.00,3510.6714,N,12207.8820,W,1,11,0.8,3.5,M,-32.9,M,,*57
$PYRTM,2024,125.667358451470,16.777005861609
$GPGGA,160058.00,3510.6714,N,12207.8824,W,1,11,0.8,5.0,M,-32.9,M,,*5F
$PYRTM,2024,125.667370153831,16.777017563970
$GPGGA,160059.00,3510.6711,N,12207.8832,W,1,11,0.8,5.3,M,-32.9,M,,*5F
$PYRTM,2024,125.667381713264,16.777029123403
$GPGGA,160100.00,3510.6710,N,12207.8841,W,1,11,0.8,4.5,M,-32.9,M,,*50
$PYRTM,2024,125.667393307940,16.777040718079
$GPGGA,160101.00,3510.6714,N,12207.8847,W,1,11,0.8,4.3,M,-32.9,M,,*55
$PYRTM,2024,125.667403489016,16.777050899155
$GPGGA,160102.00,3510.6718,N,12207.8851,W,1,11,0.8,3.8,M,-32.9,M,,*51
$PYRTM,2024,125.667415296586,16.777062706725
$GPGGA,160103.00,3510.6718,N,12207.8856,W,1,11,0.8,3.5,M,-32.9,M,,*5A
$PYRTM,2024,125.667428013403,16.777075423542
$GPGGA,160104.00,3510.6717,N,12207.8863,W,1,11,0.8,3.5,M,-32.9,M,,*54
$PYRTM,2024,125.667439485116,16.777086895255
$GPGGA,160105.00,3510.6718,N,12207.8869,W,1,11,0.8,3.4,M,-32.9,M,,*51
$PYRTM,2024,125.667451158414,16.777098568553
$GPGGA,160106.00,3510.6719,N,12207.8874,W,1,11,0.8,3.5,M,-32.9,M,,*5E
$PYRTM,2024,125.667462746620,16.777110156759
$GPGGA,160107.00,3510.6720,N,12207.8880,W,1,11,0.8,3.9,M,-32.9,M,,*52
$PYRTM,2024,125.667474307500,16.777121717639
$GPGGA,160108.00,3510.6721,N,12207.8889,W,1,11,0.8,4.1,M,-32.9,M,,*5A
$PYRTM,2024,125.667485779769,16.777133189919
$GPGGA,160109.00,3510.6718,N,12207.8897,W,1,11,0.8,3.3,M,-32.9,M,,*5B
$PYRTM,2024,125.667497456968,16.777144867106
$GPGGA,160110.00,3510.6719,N,12207.8905,W,1,11,0.8,2.9,M,-32.9,M,,*53
$PYRTM,2024,125.667509031400,16.777156441539
$GPGGA,160111.00,3510.6721,N,12207.8912,W,1,11,0.8,3.2,M,-32.9,M,,*55
$PYRTM,2024,125.667520491319,16.777167901458
$GPGGA,160112.00,3510.6724,N,12207.8919,W,1,11,0.8,3.1,M,-32.9,M,,*5B
$PYRTM,2024,125.667532076759,16.777179486898
$GPGGA,160113.00,3510.6722,N,12207.8925,W,1,11,0.8,3.1,M,-32.9,M,,*53
$PYRTM,2024,125.667543638090,16.777191048229
$GPGGA,160114.00,3510.6719,N,12207.8933,W,1,11,0.8,3.3,M,-32.9,M,,*59
$PYRTM,2024,125.667555238391,16.777202648530
$GPGGA,160115.00,3510.6718,N,12207.8941,W,1,11,0.8,3.8,M,-32.9,M,,*57
$PYRTM,2024,125.667566788461,16.777214198600
$GPGGA,160116.00,3510.6721,N,12207.8947,W,1,11,0.8,3.6,M,-32.9,M,,*56
$PYRTM,2024,125.667578388206,16.777225798345
$GPGGA,160117.00,3510.6725,N,12207.8950,W,1,11,0.8,3.3,M,-32.9,M,,*50
$PYRTM,2024,125.667590048345,16.777237458484
$GPGGA,160118.00,3510.6724,N,12207.8957,W,1,11,0.8,1.9,M,-32.9,M,,*51
$PYRTM,2024,125.667601637720,16.777249047859
$GPGGA,160119.00,3510.6720,N,12207.8967,W,1,11,0.8,0.9,M,-32.9,M,,*56
$PYRTM,2024,125.667613084444,16.777260494583
$GPGGA,160120.00,3510.6718,N,12207.8975,W,1,11,0.8,0.9,M,-32.9,M,,*54
$PYRTM,2024,125.667624663449,16.777272073588
$GPGGA,160121.00,3510.6722,N,12207.8979,W,1,11,0.8,1.4,M,-32.9,M,,*5C
$PYRTM,2024,125.667636230590,16.777283640729
$GPGGA,160122.00,3510.6727,N,12207.8985,W,1,11,0.8,1.1,M,-32.9,M,,*5C
$PYRTM,2024,125.667647821782,16.777295231921
$GPGGA,160123.00,3510.6729,N,12207.8994,W,1,11,0.8,1.0,M,-32.9,M,,*52
$PYRTM,2024,125.667659379907,16.777306790058
$GPGGA,160124.00,3510.6727,N,12207.9005,W,1,11,0.8,1.7,M,-32.9,M,,*5C
$PYRTM,2024,125.667670965255,16.777318375394
$GPGGA,160125.00,3510.6725,N,12207.9013,W,1,11,0.8,1.5,M,-32.9,M,,*5A
$PYRTM,2024,125.667682527060,16.777329937199
$GPGGA,160126.00,3510.6728,N,12207.9018,W,1,11,0.8,0.3,M,-32.9,M,,*58
$PYRTM,2024,125.667694114340,16.777341524479
$GPGGA,160127.00,3510.6734,N,12207.9023,W,1,11,0.8,1.1,M,-32.9,M,,*5F
$PYRTM,2024,125.667705675926,16.777353086065
$GPGGA,160128.00,3510.6739,N,12207.9029,W,1,11,0.8,2.3,M,-32.9,M,,*56
$PYRTM,2024,125.667717377535,16.777364787674
$GPGGA,160129.00,3510.6737,N,12207.9036,W,1,11,0.8,-0.3,M,-32.9,M,,*78
$PYRTM,2024,125.667728823808,16.777376233947
$GPGGA,160130.00,3510.6732,N,12207.9044,W,1,11,0.8,0.4,M,-32.9,M,,*5A
$PYRTM,2024,125.667740525509,16.777387935648
$GPGGA,160131.00,3510.6730,N,12207.9053,W,1,11,0.8,0.0,M,-32.9,M,,*5B
$PYRTM,2024,125.667750711563,16.777398121701
$GPGGA,160132.00,3510.6731,N,12207.9058,W,1,11,0.8,0.0,M,-32.9,M,,*52
$PYRTM,2024,125.667762520405,16.777409930544
$GPGGA,160133.00,3510.6734,N,12207.9060,W,1,11,0.8,0.1,M,-32.9,M,,*5C
$PYRTM,2024,125.667775121366,16.777422531505
$GPGGA,160134.00,3510.6736,N,12207.9067,W,1,11,0.8,0.5,M,-32.9,M,,*5A
$PYRTM,2024,125.667786708738,16.777434118877
$GPGGA,160135.00,3510.6734,N,12207.9079,W,1,11,0.8,0.7,M,-32.9,M,,*54
$PYRTM,2024,125.667798270394,16.777445680532
$GPGGA,160136.00,3510.6732,N,12207.9088,W,1,11,0.8,0.8,M,-32.9,M,,*50
$PYRTM,2024,125.667809854780,16.777457264919
$GPGGA,160137.00,3510.6731,N,12207.9091,W,1,11,0.8,0.9,M,-32.9,M,,*5B
$PYRTM,2024,125.667821417558,16.777468827697
$GPGGA,160138.00,3510.6731,N,12207.9094,W,1,11,0.8,1.0,M,-32.9,M,,*59
$PYRTM,2024,125.667833004144,16.777480414282
$GPGGA,160139.00,3510.6733,N,12207.9101,W,1,11,0.8,2.3,M,-32.9,M,,*57
$PYRTM,2024,125.667844566562,16.777491976713
$GPGGA,160140.00,3510.6733,N,12207.9110,W,1,11,0.8,2.7,M,-32.9,M,,*5D
$PYRTM,2024,125.667856151586,16.777503561725
$GPGGA,160141.00,3510.6730,N,12207.9116,W,1,11,0.8,2.7,M,-32.9,M,,*59
$PYRTM,2024,125.667867713079,16.777515123218
$GPGGA,160142.00,3510.6729,N,12207.9122,W,1,11,0.8,3.0,M,-32.9,M,,*53
$PYRTM,2024,125.667879303449,16.777526713588
$GPGGA,160143.00,3510.6732,N,12207.9129,W,1,11,0.8,2.7,M,-32.9,M,,*55
$PYRTM,2024,125.667890861875,16.777538272014
$GPGGA,160144.00,3510.6736,N,12207.9134,W,1,11,0.8,2.7,M,-32.9,M,,*5A
$PYRTM,2024,125.667902453449,16.777549863588
$GPGGA,160145.00,3510.6737,N,12207.9136,W,1,11,0.8,2.7,M,-32.9,M,,*58
$PYRTM,2024,125.667914009688,16.777561419838
$GPGGA,160146.00,3510.6735,N,12207.9141,W,1,11,0.8,2.7,M,-32.9,M,,*59
$PYRTM,2024,125.667925600069,16.777573010220
$GPGGA,160147.00,3510.6731,N,12207.9151,W,1,11,0.8,2.5,M,-32.9,M,,*5F
$PYRTM,2024,125.667937158113,16.777584568252
$GPGGA,160148.00,3510.6730,N,12207.9160,W,1,11,0.8,2.3,M,-32.9,M,,*55
$PYRTM,2024,125.667948745625,16.777596155764
$GPGGA,160149.00,3510.6733,N,12207.9163,W,1,11,0.8,2.3,M,-32.9,M,,*54
$PYRTM,2024,125.667960305961,16.777607716100
$GPGGA,160150.00,3510.6737,N,12207.9163,W,1,11,0.8,2.4,M,-32.9,M,,*5F
$PYRTM,2024,125.667971894109,16.777619304248
$GPGGA,160151.00,3510.6737,N,12207.9166,W,1,11,0.8,2.2,M,-32.9,M,,*5D
$PYRTM,2024,125.667983454433,16.777630864572
$GPGGA,160152.00,3510.6735,N,12207.9176,W,1,11,0.8,2.3,M,-32.9,M,,*5C
$PYRTM,2024,125.667995036690,16.777642446829
$GPGGA,160153.00,3510.6736,N,12207.9186,W,1,11,0.8,1.5,M,-32.9,M,,*54
$PYRTM,2024,125.668006603866,16.777654014005
$GPGGA,160154.00,3510.6742,N,12207.9191,W,1,11,0.8,0.4,M,-32.9,M,,*56
$PYRTM,2024,125.668018184792,16.777665594931
$GPGGA,160155.00,3510.6747,N,12207.9191,W,1,11,0.8,0.0,M,-32.9,M,,*56
$PYRTM,2024,125.668029753785,16.777677163924
$GPGGA,160156.00,3510.6747,N,12207.9191,W,1,11,0.8,0.0,M,-32.9,M,,*55
$PYRTM,2024,125.668041338542,16.777688748681
$GPGGA,160157.00,3510.6744,N,12207.9198,W,1,11,0.8,0.3,M,-32.9,M,,*5D
$PYRTM,2024,125.668053015220,16.777700425359
$GPGGA,160158.00,3510.6744,N,12207.9209,W,1,11,0.8,-0.2,M,-32.9,M,,*75
$PYRTM,2024,125.668064602315,16.777712012454
$GPGGA,160159.00,3510.6747,N,12207.9215,W,1,11,0.8,-0.4,M,-32.9,M,,*7C
$PYRTM,2024,125.668076161910,16.777723572049
$GPGGA,160200.00,3510.6748,N,12207.9216,W,1,11,0.8,-0.4,M,-32.9,M,,*7F
$PYRTM,2024,125.668087739074,16.777735149213
$GPGGA,160201.00,3510.6745,N,12207.9219,W,1,11,0.8,-0.5,M,-32.9,M,,*7D
$PYRTM,2024,125.668097937662,16.777745347801
$GPGGA,160202.00,3510.6745,N,12207.9226,W,1,11,0.8,-0.1,M,-32.9,M,,*76
$PYRTM,2024,125.668109742361,16.777757152500
$GPGGA,160203.00,3510.6747,N,12207.9232,W,1,11,0.8,-0.1,M,-32.9,M,,*70
$PYRTM,2024,125.668122459120,16.777769869259
$GPGGA,160204.00,3510.6746,N,12207.9236,W,1,11,0.8,-0.1,M,-32.9,M,,*72
$PYRTM,2024,125.668134047813,16.777781457951
$GPGGA,160205.00,3510.6745,N,12207.9240,W,1,11,0.8,-0.1,M,-32.9,M,,*71
$PYRTM,2024,125.668144681956,16.777792092095
$GPGGA,160206.00,3510.6745,N,12207.9248,W,1,11,0.8,-0.1,M,-32.9,M,,*7A
$PYRTM,2024,125.668156718600,16.777804128750
$GPGGA,160207.00,3510.6748,N,12207.9256,W,1,11,0.8,-0.2,M,-32.9,M,,*7A
$PYRTM,2024,125.668168417477,16.777815827616
$GPGGA,160208.00,3510.6752,N,12207.9261,W,1,11,0.8,-0.3,M,-32.9,M,,*7B
$PYRTM,2024,125.668179532766,16.777826942905
$GPGGA,160209.00,3510.6754,N,12207.9266,W,1,11,0.8,-0.3,M,-32.9,M,,*7B
$PYRTM,2024,125.668190644896,16.777838055046
$GPGGA,160210.00,3510.6752,N,12207.9272,W,1,10,1.0,-0.1,M,-32.9,M,,*7A
$PYRTM,2024,125.668201752569,16.777849162708
$GPGGA,160211.00,3510.6751,N,12207.9280,W,1,11,0.8,-0.1,M,-32.9,M,,*7D
$PYRTM,2024,125.668212864444,16.777860274583
$GPGGA,160212.00,3510.6751,N,12207.9287,W,1,11,0.8,-0.1,M,-32.9,M,,*79
$PYRTM,2024,125.668223977859,16.777871387998
$GPGGA,160213.00,3510.6750,N,12207.9295,W,1,11,0.8,0.2,M,-32.9,M,,*54
$PYRTM,2024,125.668235096273,16.777882506424
$GPGGA,160214.00,3510.6750,N,12207.9303,W,1,11,0.8,0.2,M,-32.9,M,,*5D
$PYRTM,2024,125.668246200914,16.777893611053
$GPGGA,160215.00,3510.6749,N,12207.9310,W,1,11,0.8,0.2,M,-32.9,M,,*56
$PYRTM,2024,125.668257196366,16.777904606505
$GPGGA,160216.00,3510.6749,N,12207.9315,W,1,11,0.8,0.2,M,-32.9,M,,*50
$PYRTM,2024,125.668268307373,16.777915717512
$GPGGA,160217.00,3510.6748,N,12207.9319,W,1,11,0.8,0.3,M,-32.9,M,,*5D
$PYRTM,2024,125.668285537627,16.777932947766
$GPGGA,160218.00,3510.6746,N,12207.9328,W,1,11,0.8,0.9,M,-32.9,M,,*54
$PYRTM,2024,125.668296651134,16.777944061273
$GPGGA,160219.00,3510.6746,N,12207.9336,W,1,11,0.8,0.7,M,-32.9,M,,*54
$PYRTM,2024,125.668307760787,16.777955170926
$GPGGA,160220.00,3510.6748,N,12207.9340,W,1,11,0.8,0.7,M,-32.9,M,,*51
$PYRTM,2024,125.668318872604,16.777966282743
$GPGGA,160221.00,3510.6749,N,12207.9340,W,1,11,0.8,0.7,M,-32.9,M,,*51
$PYRTM,2024,125.668330348322,16.777977758461
$GPGGA,160222.00,3510.6747,N,12207.9342,W,1,11,0.8,1.1,M,-32.9,M,,*59
$PYRTM,2024,125.668341456574,16.777988866713
$GPGGA,160223.00,3510.6744,N,12207.9350,W,1,11,0.8,0.8,M,-32.9,M,,*50
$PYRTM,2024,125.668352567836,16.777999977975
$GPGGA,160224.00,3510.6743,N,12207.9359,W,1,11,0.8,0.0,M,-32.9,M,,*51
$PYRTM,2024,125.668363674306,16.778011084444
$GPGGA,160225.00,3510.6744,N,12207.9363,W,1,11,0.8,-0.1,M,-32.9,M,,*72
$PYRTM,2024,125.668374789618,16.778022199757
$GPGGA,160226.00,3510.6748,N,12207.9364,W,1,11,0.8,-0.1,M,-32.9,M,,*7A
$PYRTM,2024,125.668385903275,16.778033313414
$GPGGA,160227.00,3510.6750,N,12207.9367,W,1,11,0.8,-0.1,M,-32.9,M,,*71
$PYRTM,2024,125.668397006690,16.778044416829
$GPGGA,160228.00,3510.6747,N,12207.9374,W,1,11,0.8,0.2,M,-32.9,M,,*54
$PYRTM,2024,125.668408123634,16.778055533785
$GPGGA,160229.00,3510.6742,N,12207.9382,W,1,11,0.8,0.5,M,-32.9,M,,*5E
$PYRTM,2024,125.668419230370,16.778066640509
$GPGGA,160230.00,3510.6741,N,12207.9388,W,1,11,0.8,0.3,M,-32.9,M,,*59
$PYRTM,2024,125.668430345764,16.778077755903
$GPGGA,160231.00,3510.6744,N,12207.9391,W,1,11,0.8,0.3,M,-32.9,M,,*55
$PYRTM,2024,125.668445391678,16.778092801817
$GPGGA,160232.00,3510.6746,N,12207.9394,W,1,11,0.8,0.4,M,-32.9,M,,*56
$PYRTM,2024,125.668456968090,16.778104378229
$GPGGA,160233.00,3510.6745,N,12207.9401,W,1,11,0.8,0.6,M,-32.9,M,,*5D
$PYRTM,2024,125.668468534734,16.778115944873
$GPGGA,160234.00,3510.6742,N,12207.9410,W,1,11,0.8,0.8,M,-32.9,M,,*53
$PYRTM,2024,125.668480113843,16.778127523981
$GPGGA,160235.00,3510.6742,N,12207.9416,W,1,11,0.8,0.9,M,-32.9,M,,*55
$PYRTM,2024,125.668491683681,16.778139093819
$GPGGA,160236.00,3510.6743,N,12207.9420,W,1,11,0.8,0.9,M,-32.9,M,,*52
$PYRTM,2024,125.668503262072,16.778150672211
$GPGGA,160237.00,3510.6743,N,12207.9426,W,1,11,0.8,1.2,M,-32.9,M,,*5F
$PYRTM,2024,125.668514837002,16.778162247141
$GPGGA,160238.00,3510.6742,N,12207.9435,W,1,11,0.8,1.2,M,-32.9,M,,*53
$PYRTM,2024,125.668526414005,16.778173824144
$GPGGA,160239.00,3510.6739,N,12207.9442,W,1,11,0.8,1.1,M,-32.9,M,,*5D
$PYRTM,2024,125.668537985012,16.778185395150
$GPGGA,160240.00,3510.6740,N,12207.9444,W,1,11,0.8,1.2,M,-32.9,M,,*58
$PYRTM,2024,125.668549563623,16.778196973762
$GPGGA,160241.00,3510.6741,N,12207.9449,W,1,11,0.8,1.3,M,-32.9,M,,*54
$PYRTM,2024,125.668561128345,16.778208538484
$GPGGA,160242.00,3510.6740,N,12207.9456,W,1,11,0.8,1.6,M,-32.9,M,,*5D
$PYRTM,2024,125.668572711030,16.778220121169
$GPGGA,160243.00,3510.6738,N,12207.9462,W,1,11,0.8,1.7,M,-32.9,M,,*55
$PYRTM,2024,125.668584281620,16.778231691759
$GPGGA,160244.00,3510.6734,N,12207.9466,W,1,11,0.8,1.7,M,-32.9,M,,*5A
$PYRTM,2024,125.668595854931,16.778243265069
$GPGGA,160245.00,3510.6732,N,12207.9470,W,1,11,0.8,1.7,M,-32.9,M,,*5A
$PYRTM,2024,125.668607425012,16.778254835150
$GPGGA,160246.00,3510.6732,N,12207.9475,W,1,11,0.8,1.7,M,-32.9,M,,*5C
$PYRTM,2024,125.668619003854,16.778266413993
$GPGGA,160247.00,3510.6734,N,12207.9477,W,1,11,0.8,1.7,M,-32.9,M,,*59
$PYRTM,2024,125.668630573148,16.778277983287
$GPGGA,160248.00,3510.6732,N,12207.9478,W,1,11,0.8,1.7,M,-32.9,M,,*5F
$PYRTM,2024,125.668642152778,16.778289562917
$GPGGA,160249.00,3510.6728,N,12207.9485,W,1,11,0.8,1.7,M,-32.9,M,,*57
$PYRTM,2024,125.668653726285,16.778301136424
$GPGGA,160250.00,3510.6729,N,12207.9497,W,1,11,0.8,1.6,M,-32.9,M,,*5C
$PYRTM,2024,125.668665300972,16.778312711111
$GPGGA,160251.00,3510.6731,N,12207.9505,W,1,11,0.8,1.4,M,-32.9,M,,*5C
$PYRTM,2024,125.668676874606,16.778324284745
$GPGGA,160252.00,3510.6731,N,12207.9506,W,1,11,0.8,1.4,M,-32.9,M,,*5C
$PYRTM,2024,125.668688450058,16.778335860197
$GPGGA,160253.00,3510.6729,N,12207.9507,W,1,11,0.8,1.5,M,-32.9,M,,*54
$PYRTM,2024,125.668700022975,16.778347433113
$GPGGA,160254.00,3510.6728,N,12207.9513,W,1,11,0.8,1.8,M,-32.9,M,,*5A
$PYRTM,2024,125.668711611794,16.778359021933
$GPGGA,160255.00,3510.6727,N,12207.9523,W,1,11,0.8,1.9,M,-32.9,M,,*56
$PYRTM,2024,125.668723171019,16.778370581157
$GPGGA,160256.00,3510.6727,N,12207.9530,W,1,11,0.8,1.7,M,-32.9,M,,*59
$PYRTM,2024,125.668734749792,16.778382159931
$GPGGA,160257.00,3510.6728,N,12207.9531,W,1,11,0.8,1.8,M,-32.9,M,,*59
$PYRTM,2024,125.668746319340,16.778393729479
$GPGGA,160258.00,3510.6730,N,12207.9532,W,1,11,0.8,1.8,M,-32.9,M,,*5C
$PYRTM,2024,125.668757893796,16.778405303935
$GPGGA,160259.00,3510.6730,N,12207.9535,W,1,11,0.8,1.8,M,-32.9,M,,*5A
$PYRTM,2024,125.668769467361,16.778416877512
$GPGGA,160300.00,3510.6726,N,12207.9543,W,1,11,0.8,2.6,M,-32.9,M,,*5C
$PYRTM,2024,125.668781043449,16.778428453588
$GPGGA,160301.00,3510.6720,N,12207.9551,W,1,11,0.8,2.6,M,-32.9,M,,*58
$PYRTM,2024,125.668793645891,16.778441056030
$GPGGA,160302.00,3510.6719,N,12207.9557,W,1,11,0.8,2.5,M,-32.9,M,,*54
$PYRTM,2024,125.668805234676,16.778452644815
$GPGGA,160303.00,3510.6722,N,12207.9559,W,1,11,0.8,2.5,M,-32.9,M,,*53
$PYRTM,2024,125.668816792639,16.778464202778
$GPGGA,160304.00,3510.6723,N,12207.9558,W,1,11,0.8,2.5,M,-32.9,M,,*54
$PYRTM,2024,125.668828380602,16.778475790741
$GPGGA,160305.00,3510.6719,N,12207.9562,W,1,11,0.8,2.5,M,-32.9,M,,*55
$PYRTM,2024,125.668839941794,16.778487351944
$GPGGA,160306.00,3510.6715,N,12207.9570,W,1,11,0.8,2.3,M,-32.9,M,,*5F
$PYRTM,2024,125.668851525220,16.778498935359
$GPGGA,160307.00,3510.6713,N,12207.9579,W,1,11,0.8,1.7,M,-32.9,M,,*56
$PYRTM,2024,125.668863091296,16.778510501447
$GPGGA,160308.00,3510.6712,N,12207.9584,W,1,11,0.8,1.3,M,-32.9,M,,*5E
$PYRTM,2024,125.668874679525,16.778522089664
$GPGGA,160309.00,3510.6712,N,12207.9587,W,1,11,0.8,1.4,M,-32.9,M,,*5B
$PYRTM,2024,125.668886238981,16.778533649132
$GPGGA,160310.00,3510.6711,N,12207.9592,W,1,11,0.8,1.5,M,-32.9,M,,*55
$PYRTM,2024,125.668897828912,16.778545239062
$GPGGA,160311.00,3510.6711,N,12207.9598,W,1,11,0.8,1.7,M,-32.9,M,,*5C
$PYRTM,2024,125.668909386991,16.778556797141
$GPGGA,160312.00,3510.6710,N,12207.9602,W,1,11,0.8,1.8,M,-32.9,M,,*51
$PYRTM,2024,125.668920988206,16.778568398345
$GPGGA,160313.00,3510.6707,N,12207.9604,W,1,11,0.8,1.8,M,-32.9,M,,*50
$PYRTM,2024,125.668932534699,16.778579944838
$GPGGA,160314.00,3510.6707,N,12207.9606,W,1,11,0.8,1.8,M,-32.9,M,,*55
$PYRTM,2024,125.668944122616,16.778591532755
$GPGGA,160315.00,3510.6706,N,12207.9612,W,1,11,0.8,2.6,M,-32.9,M,,*5D
$PYRTM,2024,125.668955682176,16.778603092315
$GPGGA,160316.00,3510.6705,N,12207.9619,W,1,11,0.8,2.6,M,-32.9,M,,*56
$PYRTM,2024,125.668967273287,16.778614683426
$GPGGA,160317.00,3510.6704,N,12207.9624,W,1,11,0.8,2.6,M,-32.9,M,,*58
$PYRTM,2024,125.668978844271,16.778626254421
$GPGGA,160318.00,3510.6703,N,12207.9627,W,1,11,0.8,2.6,M,-32.9,M,,*53
$PYRTM,2024,125.668990418819,16.778637828958
$GPGGA,160319.00,3510.6703,N,12207.9630,W,1,10,1.0,2.6,M,-32.9,M,,*5C
$PYRTM,2024,125.669001993414,16.778649403553
$GPGGA,160320.00,3510.6704,N,12207.9635,W,1,11,0.8,2.6,M,-32.9,M,,*5C
$PYRTM,2024,125.669013566030,16.778660976169
$GPGGA,160321.00,3510.6704,N,12207.9641,W,1,11,0.8,2.6,M,-32.9,M,,*5E
$PYRTM,2024,125.669023180926,16.778670591065
$GPGGA,160322.00,3510.6699,N,12207.9647,W,1,11,0.8,2.8,M,-32.9,M,,*50
$PYRTM,2024,125.669036718461,16.778684128600
$GPGGA,160323.00,3510.6693,N,12207.9652,W,1,11,0.8,2.8,M,-32.9,M,,*5F
$PYRTM,2024,125.669048289954,16.778695700093
$GPGGA,160324.00,3510.6693,N,12207.9659,W,1,11,0.8,3.0,M,-32.9,M,,*5A
$PYRTM,2024,125.669059866493,16.778707276632
$GPGGA,160325.00,3510.6696,N,12207.9665,W,1,11,0.8,3.1,M,-32.9,M,,*50
$PYRTM,2024,125.669071437546,16.778718847685
$GPGGA,160326.00,3510.6699,N,12207.9669,W,1,11,0.8,3.1,M,-32.9,M,,*50
$PYRTM,2024,125.669083013414,16.778730423553
$GPGGA,160327.00,3510.6696,N,12207.9673,W,1,11,0.8,3.1,M,-32.9,M,,*55
$PYRTM,2024,125.669094584780,16.778741994919
$GPGGA,160328.00,3510.6692,N,12207.9678,W,1,11,0.8,3.0,M,-32.9,M,,*54
$PYRTM,2024,125.669106159884,16.778753570023
$GPGGA,160329.00,3510.6691,N,12207.9685,W,1,11,0.8,3.0,M,-32.9,M,,*54
$PYRTM,2024,125.669117732442,16.778765142581
$GPGGA,160330.00,3510.6693,N,12207.9689,W,1,11,0.8,3.0,M,-32.9,M,,*52
$PYRTM,2024,125.669129308368,16.778776718507
$GPGGA,160331.00,3510.6694,N,12207.9692,W,1,11,0.8,3.0,M,-32.9,M,,*5E
$PYRTM,2024,125.669139612164,16.778787022303
$GPGGA,160332.00,3510.6689,N,12207.9696,W,1,11,0.8,2.7,M,-32.9,M,,*53
$PYRTM,2024,125.669151401806,16.778798811944
$GPGGA,160333.00,3510.6684,N,12207.9704,W,1,11,0.8,2.6,M,-32.9,M,,*54
$PYRTM,2024,125.669164029931,16.778811440069
$GPGGA,160334.00,3510.6683,N,12207.9711,W,1,11,0.8,2.6,M,-32.9,M,,*50
$PYRTM,2024,125.669175603947,16.778823014086
$GPGGA,160335.00,3510.6683,N,12207.9716,W,1,11,0.8,2.7,M,-32.9,M,,*57
$PYRTM,2024,125.669187178206,16.778834588345
$GPGGA,160336.00,3510.6682,N,12207.9724,W,1,11,0.8,2.9,M,-32.9,M,,*5A
$PYRTM,2024,125.669198755891,16.778846166030
$GPGGA,160337.00,3510.6681,N,12207.9732,W,1,11,0.8,3.1,M,-32.9,M,,*56
$PYRTM,2024,125.669210327269,16.778857737419
$GPGGA,160338.00,3510.6680,N,12207.9738,W,1,11,0.8,3.0,M,-32.9,M,,*53
$PYRTM,2024,125.669221904352,16.778869314491
$GPGGA,160339.00,3510.6681,N,12207.9742,W,1,11,0.8,2.9,M,-32.9,M,,*56
$PYRTM,2024,125.669233474954,16.778880885093
$GPGGA,160340.00,3510.6682,N,12207.9746,W,1,11,0.8,2.9,M,-32.9,M,,*5F
$PYRTM,2024,125.669245052350,16.778892462488
$GPGGA,160341.00,3510.6681,N,12207.9751,W,1,11,0.8,2.3,M,-32.9,M,,*51
$PYRTM,2024,125.669256625440,16.778904035579
$GPGGA,160342.00,3510.6680,N,12207.9757,W,1,11,0.8,1.5,M,-32.9,M,,*50
$PYRTM,2024,125.669268198206,16.778915608345
$GPGGA,160343.00,3510.6680,N,12207.9762,W,1,11,0.8,1.4,M,-32.9,M,,*56
$PYRTM,2024,125.669279771354,16.778927181493
$GPGGA,160344.00,3510.6682,N,12207.9766,W,1,11,0.8,1.4,M,-32.9,M,,*57
$PYRTM,2024,125.669291461887,16.778938872025
$GPGGA,160345.00,3510.6682,N,12207.9769,W,1,11,0.8,1.2,M,-32.9,M,,*5F
$PYRTM,2024,125.669302919525,16.778950329664
$GPGGA,160346.00,3510.6680,N,12207.9775,W,1,11,0.8,2.0,M,-32.9,M,,*52
$PYRTM,2024,125.669314493727,16.778961903866
$GPGGA,160347.00,3510.6678,N,12207.9783,W,1,11,0.8,1.8,M,-32.9,M,,*56
$PYRTM,2024,125.669326067917,16.778973478067
$GPGGA,160348.00,3510.6679,N,12207.9789,W,1,11,0.8,1.7,M,-32.9,M,,*5D
$PYRTM,2024,125.669337644306,16.778985054444
$GPGGA,160349.00,3510.6682,N,12207.9795,W,1,11,0.8,1.6,M,-32.9,M,,*54
$PYRTM,2024,125.669349215856,16.778996625995
$GPGGA,160350.00,3510.6682,N,12207.9800,W,1,11,0.8,1.5,M,-32.9,M,,*5C
$PYRTM,2024,125.669360793299,16.779008203437
$GPGGA,160351.00,3510.6678,N,12207.9805,W,1,11,0.8,2.5,M,-32.9,M,,*5E
$PYRTM,2024,125.669372363854,16.779019773993
$GPGGA,160352.00,3510.6676,N,12207.9810,W,1,11,0.8,2.1,M,-32.9,M,,*53
$PYRTM,2024,125.669383953102,16.779031363241
$GPGGA,160353.00,3510.6676,N,12207.9817,W,1,11,0.8,3.3,M,-32.9,M,,*56
$PYRTM,2024,125.669395512083,16.779042922234
$GPGGA,160354.00,3510.6679,N,12207.9824,W,1,11,0.8,2.3,M,-32.9,M,,*5F
$PYRTM,2024,125.669407090937,16.779054501076
$GPGGA,160355.00,3510.6682,N,12207.9831,W,1,11,0.8,5.0,M,-32.9,M,,*5A
$PYRTM,2024,125.669418660764,16.779066070903
$GPGGA,160356.00,3510.6680,N,12207.9838,W,1,11,0.8,2.9,M,-32.9,M,,*5C
$PYRTM,2024,125.669430235498,16.779077645637
$GPGGA,160357.00,3510.6677,N,12207.9844,W,1,11,0.8,1.5,M,-32.9,M,,*51
$PYRTM,2024,125.669441809410,16.779089219537
$GPGGA,160358.00,3510.6677,N,12207.9849,W,1,11,0.8,2.1,M,-32.9,M,,*54
$PYRTM,2024,125.669453387859,16.779100797998
$GPGGA,160359.00,3510.6680,N,12207.9854,W,1,11,0.8,6.8,M,-32.9,M,,*5C
$PYRTM,2024,125.669464958044,16.779112368183
$GPGGA,160400.00,3510.6682,N,12207.9861,W,1,11,0.8,6.4,M,-32.9,M,,*5F
$PYRTM,2024,125.669476532350,16.779123942488
$GPGGA,160401.00,3510.6680,N,12207.9869,W,1,11,0.8,4.9,M,-32.9,M,,*5B
$PYRTM,2024,125.669486835903,16.779134246042
$GPGGA,160402.00,3510.6678,N,12207.9875,W,1,11,0.8,4.7,M,-32.9,M,,*5C
$PYRTM,2024,125.669498625532,16.779146035671
$GPGGA,160403.00,3510.6678,N,12207.9878,W,1,11,0.8,4.7,M,-32.9,M,,*50
$PYRTM,2024,125.669511255845,16.779158665984
$GPGGA,160404.00,3510.6678,N,12207.9885,W,1,11,0.8,5.1,M,-32.9,M,,*52
$PYRTM,2024,125.669522829317,16.779170239456
$GPGGA,160405.00,3510.6679,N,12207.9893,W,1,11,0.8,5.1,M,-32.9,M,,*55
$PYRTM,2024,125.669534402419,16.779181812558
$GPGGA,160406.00,3510.6679,N,12207.9901,W,1,11,0.8,4.7,M,-32.9,M,,*5B
$PYRTM,2024,125.669545991343,16.779193401481
$GPGGA,160407.00,3510.6679,N,12207.9907,W,1,11,0.8,4.6,M,-32.9,M,,*5D
$PYRTM,2024,125.669557551586,16.779204961725
$GPGGA,160408.00,3510.6680,N,12207.9913,W,1,11,0.8,4.7,M,-32.9,M,,*50
$PYRTM,2024,125.669569128958,16.779216539097
$GPGGA,160409.00,3510.6682,N,12207.9920,W,1,11,0.8,4.9,M,-32.9,M,,*5D
$PYRTM,2024,125.669580699178,16.779228109317
$GPGGA,160410.00,3510.6684,N,12207.9926,W,1,11,0.8,4.8,M,-32.9,M,,*54
$PYRTM,2024,125.669591347998,16.779238758137
$GPGGA,160411.00,3510.6684,N,12207.9932,W,1,11,0.8,2.9,M,-32.9,M,,*57
$PYRTM,2024,125.669602921644,16.779250331782
$GPGGA,160412.00,3510.6682,N,12207.9939,W,1,11,0.8,2.5,M,-32.9,M,,*55
$PYRTM,2024,125.669611589039,16.779258999178
$GPGGA,160413.00,3510.6682,N,12207.9945,W,1,11,0.8,2.5,M,-32.9,M,,*5F
$PYRTM,2024,125.669628256690,16.779275666829
$GPGGA,160414.00,3510.6682,N,12207.9951,W,1,11,0.8,2.7,M,-32.9,M,,*5F
$PYRTM,2024,125.669639255613,16.779286665752
$GPGGA,160415.00,3510.6683,N,12207.9956,W,1,11,0.8,3.2,M,-32.9,M,,*5C
$PYRTM,2024,125.669650362685,16.779297772824
$GPGGA,160416.00,3510.6683,N,12207.9962,W,1,11,0.8,3.2,M,-32.9,M,,*58
$PYRTM,2024,125.669661474479,16.779308884618
$GPGGA,160417.00,3510.6683,N,12207.9969,W,1,11,0.8,5.3,M,-32.9,M,,*55
$PYRTM,2024,125.669672584699,16.779319994838
$GPGGA,160418.00,3510.6682,N,12207.9977,W,1,11,0.8,4.2,M,-32.9,M,,*54
$PYRTM,2024,125.669684623449,16.779332033588
$GPGGA,160419.00,3510.6682,N,12207.9984,W,1,11,0.8,4.3,M,-32.9,M,,*58
$PYRTM,2024,125.669695399062,16.779342809201
$GPGGA,160420.00,3510.6682,N,12207.9989,W,1,11,0.8,4.4,M,-32.9,M,,*58
$PYRTM,2024,125.669706960729,16.779354370868
$GPGGA,160421.00,3510.6682,N,12207.9994,W,1,11,0.8,4.1,M,-32.9,M,,*50
$PYRTM,2024,125.669718547384,16.779365957523
$GPGGA,160422.00,3510.6686,N,12207.9999,W,1,11,0.8,4.0,M,-32.9,M,,*5B
$PYRTM,2024,125.669731177824,16.779378587963
$GPGGA,160423.00,3510.6689,N,12208.0006,W,1,11,0.8,2.8,M,-32.9,M,,*52
$PYRTM,2024,125.669742736748,16.779390146887
$GPGGA,160424.00,3510.6687,N,12208.0013,W,1,11,0.8,3.4,M,-32.9,M,,*52
$PYRTM,2024,125.669754311539,16.779401721678
$GPGGA,160425.00,3510.6682,N,12208.0017,W,1,11,0.8,4.9,M,-32.9,M,,*58
$PYRTM,2024,125.669765886123,16.779413296262
$GPGGA,160426.00,3510.6680,N,12208.0022,W,1,11,0.8,4.0,M,-32.9,M,,*56
$PYRTM,2024,125.669777460359,16.779424870498
$GPGGA,160427.00,3510.6683,N,12208.0029,W,1,11,0.8,4.3,M,-32.9,M,,*5C
$PYRTM,2024,125.669789029352,16.779436439491
$GPGGA,160428.00,3510.6686,N,12208.0034,W,1,11,0.8,4.0,M,-32.9,M,,*59
$PYRTM,2024,125.669800603866,16.779448014005
$GPGGA,160429.00,3510.6684,N,12208.0038,W,1,11,0.8,4.2,M,-32.9,M,,*54
$PYRTM,2024,125.669812287199,16.779459697338
$GPGGA,160430.00,3510.6681,N,12208.0042,W,1,11,0.8,3.9,M,-32.9,M,,*58
$PYRTM,2024,125.669823874965,16.779471285093
$GPGGA,160431.00,3510.6680,N,12208.0046,W,1,11,0.8,3.4,M,-32.9,M,,*51
$PYRTM,2024,125.669834059086,16.779481469225
$GPGGA,160432.00,3510.6681,N,12208.0052,W,1,11,0.8,5.6,M,-32.9,M,,*52
$PYRTM,2024,125.669845847778,16.779493257917
$GPGGA,160433.00,3510.6682,N,12208.0060,W,1,11,0.8,5.4,M,-32.9,M,,*53
$PYRTM,2024,125.669858477627,16.779505887766
$GPGGA,160434.00,3510.6681,N,12208.0065,W,1,11,0.8,5.0,M,-32.9,M,,*56
$PYRTM,2024,125.669870157604,16.779517567743
$GPGGA,160435.00,3510.6680,N,12208.0069,W,1,11,0.8,5.1,M,-32.9,M,,*5B
$PYRTM,2024,125.669881731366,16.779529141505
$GPGGA,160436.00,3510.6680,N,12208.0074,W,1,11,0.8,4.6,M,-32.9,M,,*52
$PYRTM,2024,125.669893215914,16.779540626053
$GPGGA,160437.00,3510.6681,N,12208.0080,W,1,11,0.8,2.8,M,-32.9,M,,*51
$PYRTM,2024,125.669904878009,16.779552288148
$GPGGA,160438.00,3510.6681,N,12208.0087,W,1,11,0.8,-0.2,M,-32.9,M,,*7C
$PYRTM,2024,125.669916460880,16.779563871019
$GPGGA,160439.00,3510.6682,N,12208.0096,W,1,11,0.8,-1.7,M,-32.9,M,,*7A
$PYRTM,2024,125.669927918646,16.779575328796
$GPGGA,160440.00,3510.6684,N,12208.0104,W,1,11,0.8,0.0,M,-32.9,M,,*53
$PYRTM,2024,125.669939497523,16.779586907662
$GPGGA,160441.00,3510.6686,N,12208.0109,W,1,11,0.8,0.1,M,-32.9,M,,*5C
$PYRTM,2024,125.669951072164,16.779598482303
$GPGGA,160442.00,3510.6687,N,12208.0113,W,1,11,0.8,0.2,M,-32.9,M,,*56
$PYRTM,2024,125.669962648206,16.779610058345
$GPGGA,160443.00,3510.6685,N,12208.0119,W,1,11,0.8,1.9,M,-32.9,M,,*55
$PYRTM,2024,125.669974221146,16.779621631285
$GPGGA,160444.00,3510.6682,N,12208.0127,W,1,11,0.8,2.5,M,-32.9,M,,*57
$PYRTM,2024,125.669985794109,16.779633204248
$GPGGA,160445.00,3510.6679,N,12208.0134,W,1,11,0.8,2.4,M,-32.9,M,,*51
$PYRTM,2024,125.669997369780,16.779644779919
$GPGGA,160446.00,3510.6680,N,12208.0138,W,1,11,0.8,1.8,M,-32.9,M,,*57
$PYRTM,2024,125.670008944225,16.779656354363
$GPGGA,160447.00,3510.6684,N,12208.0143,W,1,11,0.8,1.8,M,-32.9,M,,*5E
$PYRTM,2024,125.670020517141,16.779667927280
$GPGGA,160448.00,3510.6684,N,12208.0147,W,1,11,0.8,1.9,M,-32.9,M,,*54
$PYRTM,2024,125.670032094051,16.779679504190
$GPGGA,160449.00,3510.6681,N,12208.0153,W,1,11,0.8,0.5,M,-32.9,M,,*58
$PYRTM,2024,125.670043666181,16.779691076331
$GPGGA,160450.00,3510.6679,N,12208.0161,W,1,11,0.8,1.9,M,-32.9,M,,*5B
$PYRTM,2024,125.670055244491,16.779702654630
$GPGGA,160451.00,3510.6681,N,12208.0168,W,1,11,0.8,2.0,M,-32.9,M,,*5E
$PYRTM,2024,125.670066813472,16.779714223611
$GPGGA,160452.00,3510.6684,N,12208.0171,W,1,11,0.8,1.5,M,-32.9,M,,*56
$PYRTM,2024,125.670078520289,16.779725930428
$GPGGA,160453.00,3510.6687,N,12208.0175,W,1,11,0.8,1.6,M,-32.9,M,,*53
$PYRTM,2024,125.670089962280,16.779737372419
$GPGGA,160454.00,3510.6685,N,12208.0181,W,1,11,0.8,3.5,M,-32.9,M,,*5C
$PYRTM,2024,125.670101539606,16.779748949745
$GPGGA,160455.00,3510.6680,N,12208.0192,W,1,11,0.8,2.6,M,-32.9,M,,*58
$PYRTM,2024,125.670113109537,16.779760519676
$GPGGA,160456.00,3510.6680,N,12208.0198,W,1,11,0.8,2.4,M,-32.9,M,,*53
$PYRTM,2024,125.670124684884,16.779772095035
$GPGGA,160457.00,3510.6681,N,12208.0201,W,1,11,0.8,2.6,M,-32.9,M,,*52
$PYRTM,2024,125.670136259826,16.779783669965
$GPGGA,160458.00,3510.6682,N,12208.0206,W,1,11,0.8,2.6,M,-32.9,M,,*59
$PYRTM,2024,125.670147834375,16.779795244514
$GPGGA,160459.00,3510.6681,N,12208.0215,W,1,11,0.8,4.1,M,-32.9,M,,*58
$PYRTM,2024,125.670159407535,16.779806817674
$GPGGA,160500.00,3510.6677,N,12208.0226,W,1,11,0.8,4.1,M,-32.9,M,,*5C
$PYRTM,2024,125.670170981493,16.779818391632
$GPGGA,160501.00,3510.6676,N,12208.0232,W,1,11,0.8,4.2,M,-32.9,M,,*5A
$PYRTM,2024,125.670181624514,16.779829034653
$GPGGA,160502.00,3510.6679,N,12208.0234,W,1,11,0.8,4.2,M,-32.9,M,,*50
$PYRTM,2024,125.670193076146,16.779840486285
$GPGGA,160503.00,3510.6683,N,12208.0238,W,1,11,0.8,4.5,M,-32.9,M,,*5F
$PYRTM,2024,125.670205702431,16.779853112569
$GPGGA,160504.00,3510.6686,N,12208.0249,W,1,11,0.8,4.2,M,-32.9,M,,*5C
$PYRTM,2024,125.670217281852,16.779864691991
$GPGGA,160505.00,3510.6684,N,12208.0261,W,1,11,0.8,4.0,M,-32.9,M,,*57
$PYRTM,2024,125.670228853137,16.779876263275
$GPGGA,160506.00,3510.6681,N,12208.0266,W,1,11,0.8,3.9,M,-32.9,M,,*58
$PYRTM,2024,125.670240421725,16.779887831863
$GPGGA,160507.00,3510.6680,N,12208.0269,W,1,11,0.8,3.9,M,-32.9,M,,*57
$PYRTM,2024,125.670251999456,16.779899409595
$GPGGA,160508.00,3510.6682,N,12208.0273,W,1,11,0.8,4.0,M,-32.9,M,,*5F
$PYRTM,2024,125.670263573750,16.779910983900
$GPGGA,160509.00,3510.6683,N,12208.0280,W,1,11,0.8,4.0,M,-32.9,M,,*53
$PYRTM,2024,125.670275143704,16.779922553843
$GPGGA,160510.00,3510.6682,N,12208.0288,W,1,11,0.8,2.4,M,-32.9,M,,*50
$PYRTM,2024,125.670286718368,16.779934128519
$GPGGA,160511.00,3510.6679,N,12208.0293,W,1,11,0.8,2.3,M,-32.9,M,,*58
$PYRTM,2024,125.670298292188,16.779945702326
$GPGGA,160512.00,3510.6678,N,12208.0298,W,1,11,0.8,2.4,M,-32.9,M,,*56
$PYRTM,2024,125.670309871516,16.779957281655
$GPGGA,160513.00,3510.6681,N,12208.0304,W,1,11,0.8,1.5,M,-32.9,M,,*57
$PYRTM,2024,125.670321439363,16.779968849502
$GPGGA,160514.00,3510.6684,N,12208.0309,W,1,11,0.8,1.4,M,-32.9,M,,*59
$PYRTM,2024,125.670333018958,16.779980429109
$GPGGA,160515.00,3510.6683,N,12208.0313,W,1,11,0.8,1.4,M,-32.9,M,,*54
$PYRTM,2024,125.670344594282,16.779992004421
$GPGGA,160516.00,3510.6680,N,12208.0318,W,1,11,0.8,1.5,M,-32.9,M,,*5E
$PYRTM,2024,125.670356168032,16.780003578171
$GPGGA,160517.00,3510.6678,N,12208.0324,W,1,11,0.8,1.6,M,-32.9,M,,*54
$PYRTM,2024,125.670367740903,16.780015151042
$GPGGA,160518.00,3510.6680,N,12208.0329,W,1,11,0.8,1.7,M,-32.9,M,,*50
$PYRTM,2024,125.670379318657,16.780026728808
$GPGGA,160519.00,3510.6682,N,12208.0336,W,1,11,0.8,2.2,M,-32.9,M,,*5B
$PYRTM,2024,125.670390890498,16.780038300637
$GPGGA,160520.00,3510.6683,N,12208.0343,W,1,11,0.8,2.1,M,-32.9,M,,*51
$PYRTM,2024,125.670402479028,16.780049889167
$GPGGA,160521.00,3510.6683,N,12208.0347,W,1,11,0.8,2.1,M,-32.9,M,,*54
$PYRTM,2024,125.670414037905,16.780061448044
$GPGGA,160522.00,3510.6682,N,12208.0348,W,1,11,0.8,2.1,M,-32.9,M,,*59
$PYRTM,2024,125.670425613009,16.780073023148
$GPGGA,160523.00,3510.6680,N,12208.0353,W,1,11,0.8,2.3,M,-32.9,M,,*52
$PYRTM,2024,125.670437185972,16.780084596111
$GPGGA,160524.00,3510.6680,N,12208.0364,W,1,11,0.8,2.0,M,-32.9,M,,*52
$PYRTM,2024,125.670448755822,16.780096165961
$GPGGA,160525.00,3510.6683,N,12208.0373,W,1,11,0.8,1.7,M,-32.9,M,,*52
$PYRTM,2024,125.670460330602,16.780107740752
$GPGGA,160526.00,3510.6686,N,12208.0375,W,1,11,0.8,1.7,M,-32.9,M,,*52
$PYRTM,2024,125.670471911007,16.780119321146
$GPGGA,160527.00,3510.6688,N,12208.0375,W,1,11,0.8,1.7,M,-32.9,M,,*5D
$PYRTM,2024,125.670483483796,16.780130893935
$GPGGA,160528.00,3510.6689,N,12208.0381,W,1,11,0.8,1.8,M,-32.9,M,,*57
$PYRTM,2024,125.670495058218,16.780142468356
$GPGGA,160529.00,3510.6688,N,12208.0392,W,1,11,0.8,2.0,M,-32.9,M,,*5E
$PYRTM,2024,125.670506632639,16.780154042778
$GPGGA,160530.00,3510.6687,N,12208.0399,W,1,11,0.8,2.1,M,-32.9,M,,*53
$PYRTM,2024,125.670518207917,16.780165618056
$GPGGA,160531.00,3510.6687,N,12208.0402,W,1,11,0.8,2.1,M,-32.9,M,,*57
$PYRTM,2024,125.670528508715,16.780175918866
$GPGGA,160532.00,3510.6686,N,12208.0405,W,1,11,0.8,2.1,M,-32.9,M,,*52
$PYRTM,2024,125.670540298472,16.780187708611
$GPGGA,160533.00,3510.6685,N,12208.0410,W,1,11,0.8,2.2,M,-32.9,M,,*57
$PYRTM,2024,125.670552927986,16.780200338137
$GPGGA,160534.00,3510.6685,N,12208.0418,W,1,11,0.8,2.2,M,-32.9,M,,*58
$PYRTM,2024,125.670564502176,16.780211912315
$GPGGA,160535.00,3510.6685,N,12208.0426,W,1,11,0.8,2.8,M,-32.9,M,,*5E
$PYRTM,2024,125.670576077211,16.780223487350
$GPGGA,160536.00,3510.6685,N,12208.0431,W,1,11,0.8,3.1,M,-32.9,M,,*53
$PYRTM,2024,125.670587650799,16.780235060937
$GPGGA,160537.00,3510.6686,N,12208.0434,W,1,11,0.8,3.1,M,-32.9,M,,*54
$PYRTM,2024,125.670599224977,16.780246635116
$GPGGA,160538.00,3510.6688,N,12208.0437,W,1,11,0.8,3.1,M,-32.9,M,,*56
$PYRTM,2024,125.670610798704,16.780258208843
$GPGGA,160539.00,3510.6690,N,12208.0443,W,1,11,0.8,3.2,M,-32.9,M,,*5E
$PYRTM,2024,125.670622372512,16.780269782650
$GPGGA,160540.00,3510.6690,N,12208.0452,W,1,11,0.8,2.8,M,-32.9,M,,*5B
$PYRTM,2024,125.670633947014,16.780281357153
$GPGGA,160541.00,3510.6689,N,12208.0460,W,1,11,0.8,2.6,M,-32.9,M,,*5D
$PYRTM,2024,125.670645520764,16.780292930903
$GPGGA,160542.00,3510.6689,N,12208.0464,W,1,11,0.8,2.6,M,-32.9,M,,*5A
$PYRTM,2024,125.670657095359,16.780304505498
$GPGGA,160543.00,3510.6692,N,12208.0469,W,1,11,0.8,2.5,M,-32.9,M,,*5F
$PYRTM,2024,125.670668668947,16.780316079086
$GPGGA,160544.00,3510.6695,N,12208.0475,W,1,11,0.8,3.2,M,-32.9,M,,*54
$PYRTM,2024,125.670680243461,16.780327653600
$GPGGA,160545.00,3510.6695,N,12208.0482,W,1,11,0.8,3.8,M,-32.9,M,,*57
$PYRTM,2024,125.670691817720,16.780339227870
$GPGGA,160546.00,3510.6694,N,12208.0488,W,1,11,0.8,3.8,M,-32.9,M,,*5F
$PYRTM,2024,125.670703394502,16.780350804653
$GPGGA,160547.00,3510.6693,N,12208.0493,W,1,11,0.8,3.8,M,-32.9,M,,*53
$PYRTM,2024,125.670714965579,16.780362375718
$GPGGA,160548.00,3510.6694,N,12208.0499,W,1,11,0.8,3.2,M,-32.9,M,,*5B
$PYRTM,2024,125.670726545509,16.780373955648
$GPGGA,160549.00,3510.6695,N,12208.0505,W,1,11,0.8,2.4,M,-32.9,M,,*58
$PYRTM,2024,125.670738114109,16.780385524248
$GPGGA,160550.00,3510.6696,N,12208.0511,W,1,11,0.8,2.6,M,-32.9,M,,*54
$PYRTM,2024,125.670749683241,16.780397093380
$GPGGA,160551.00,3510.6697,N,12208.0515,W,1,11,0.8,2.6,M,-32.9,M,,*50
$PYRTM,2024,125.670759295104,16.780406705255
$GPGGA,160552.00,3510.6697,N,12208.0521,W,1,11,0.8,2.6,M,-32.9,M,,*54
$PYRTM,2024,125.670772838032,16.780420248171
$GPGGA,160553.00,3510.6696,N,12208.0529,W,1,11,0.8,2.3,M,-32.9,M,,*59
$PYRTM,2024,125.670784412176,16.780431822315
$GPGGA,160554.00,3510.6697,N,12208.0536,W,1,11,0.8,2.1,M,-32.9,M,,*53
$PYRTM,2024,125.670795985208,16.780443395359
$GPGGA,160555.00,3510.6697,N,12208.0540,W,1,11,0.8,2.1,M,-32.9,M,,*53
$PYRTM,2024,125.670807558773,16.780454968912
$GPGGA,160556.00,3510.6696,N,12208.0545,W,1,11,0.8,2.1,M,-32.9,M,,*54
$PYRTM,2024,125.670819133623,16.780466543762
$GPGGA,160557.00,3510.6695,N,12208.0554,W,1,11,0.8,1.8,M,-32.9,M,,*5C
$PYRTM,2024,125.670830707303,16.780478117442
$GPGGA,160558.00,3510.6696,N,12208.0563,W,1,11,0.8,1.6,M,-32.9,M,,*5A
$PYRTM,2024,125.670842285081,16.780489695231
$GPGGA,160559.00,3510.6699,N,12208.0569,W,1,11,0.8,1.7,M,-32.9,M,,*5F
$PYRTM,2024,125.670853856400,16.780501266539
$GPGGA,160600.00,3510.6700,N,12208.0572,W,1,11,0.8,1.7,M,-32.9,M,,*5B
$PYRTM,2024,125.670865434444,16.780512844583
$GPGGA,160601.00,3510.6701,N,12208.0577,W,1,11,0.8,1.6,M,-32.9,M,,*5F
$PYRTM,2024,125.670875730891,16.780523141042
$GPGGA,160602.00,3510.6698,N,12208.0588,W,1,11,0.8,1.3,M,-32.9,M,,*58
$PYRTM,2024,125.670887522697,16.780534932836
$GPGGA,160603.00,3510.6696,N,12208.0598,W,1,11,0.8,0.8,M,-32.9,M,,*5C
$PYRTM,2024,125.670900146296,16.780547556435
$GPGGA,160604.00,3510.6698,N,12208.0603,W,1,11,0.8,0.4,M,-32.9,M,,*58
$PYRTM,2024,125.670911727477,16.780559137616
$GPGGA,160605.00,3510.6702,N,12208.0605,W,1,11,0.8,0.4,M,-32.9,M,,*5D
$PYRTM,2024,125.670923301759,16.780570711898
$GPGGA,160606.00,3510.6705,N,12208.0608,W,1,11,0.8,0.4,M,-32.9,M,,*54
$PYRTM,2024,125.670934875579,16.780582285729
$GPGGA,160607.00,3510.6706,N,12208.0616,W,1,11,0.8,0.4,M,-32.9,M,,*59
$PYRTM,2024,125.670946448530,16.780593858669
$GPGGA,160608.00,3510.6706,N,12208.0627,W,1,11,0.8,0.4,M,-32.9,M,,*54
$PYRTM,2024,125.670958022662,16.780605432801
$GPGGA,160609.00,3510.6707,N,12208.0633,W,1,11,0.8,0.4,M,-32.9,M,,*51
$PYRTM,2024,125.670969597975,16.780617008125
$GPGGA,160610.00,3510.6710,N,12208.0634,W,1,11,0.8,0.4,M,-32.9,M,,*58
$PYRTM,2024,125.670981175185,16.780628585324
$GPGGA,160611.00,3510.6713,N,12208.0638,W,1,11,0.8,0.6,M,-32.9,M,,*54
$PYRTM,2024,125.670992745995,16.780640156134
$GPGGA,160612.00,3510.6714,N,12208.0649,W,1,11,0.8,0.3,M,-32.9,M,,*53
$PYRTM,2024,125.671004319259,16.780651729398
$GPGGA,160613.00,3510.6714,N,12208.0659,W,1,11,0.8,0.5,M,-32.9,M,,*55
$PYRTM,2024,125.671015893785,16.780663303935
$GPGGA,160614.00,3510.6713,N,12208.0665,W,1,11,0.8,0.7,M,-32.9,M,,*58
$PYRTM,2024,125.671027470451,16.780674880590
$GPGGA,160615.00,3510.6715,N,12208.0667,W,1,11,0.8,0.7,M,-32.9,M,,*5D
$PYRTM,2024,125.671038115868,16.780685526019
$GPGGA,160616.00,3510.6721,N,12208.0671,W,1,11,0.8,0.8,M,-32.9,M,,*51
$PYRTM,2024,125.671049227373,16.780696637512
$GPGGA,160617.00,3510.6725,N,12208.0681,W,1,11,0.8,0.6,M,-32.9,M,,*55
$PYRTM,2024,125.671061148032,16.780708558171
$GPGGA,160618.00,3510.6721,N,12208.0690,W,1,11,0.8,0.5,M,-32.9,M,,*5D
$PYRTM,2024,125.671071913947,16.780719324086
$GPGGA,160619.00,3510.6715,N,12208.0697,W,1,11,0.8,0.9,M,-32.9,M,,*50
$PYRTM,2024,125.671082894329,16.780730304468
$GPGGA,160620.00,3510.6714,N,12208.0703,W,1,11,0.8,1.5,M,-32.9,M,,*5A
$PYRTM,2024,125.671094004387,16.780741414525
$GPGGA,160621.00,3510.6718,N,12208.0706,W,1,11,0.8,2.0,M,-32.9,M,,*54
$PYRTM,2024,125.671105594016,16.780753004155
$GPGGA,160622.00,3510.6721,N,12208.0710,W,1,11,0.8,2.2,M,-32.9,M,,*58
$PYRTM,2024,125.671116705127,16.780764115266
$GPGGA,160623.00,3510.6717,N,12208.0716,W,1,11,0.8,2.2,M,-32.9,M,,*5A
$PYRTM,2024,125.671127815046,16.780775225185
$GPGGA,160624.00,3510.6709,N,12208.0726,W,1,11,0.8,2.2,M,-32.9,M,,*51
$PYRTM,2024,125.671138814977,16.780786225116
$GPGGA,160625.00,3510.6709,N,12208.0736,W,1,11,0.8,2.1,M,-32.9,M,,*52
$PYRTM,2024,125.671149917824,16.780797327963
$GPGGA,160626.00,3510.6714,N,12208.0742,W,1,11,0.8,1.9,M,-32.9,M,,*55
$PYRTM,2024,125.671161150266,16.780808560417
$GPGGA,160627.00,3510.6718,N,12208.0745,W,1,11,0.8,2.0,M,-32.9,M,,*55
$PYRTM,2024,125.671172709201,16.780820119340
$GPGGA,160628.00,3510.6719,N,12208.0749,W,1,11,0.8,2.0,M,-32.9,M,,*57
$PYRTM,2024,125.671184293692,16.780831703831
$GPGGA,160629.00,3510.6718,N,12208.0756,W,1,11,0.8,2.2,M,-32.9,M,,*5B
$PYRTM,2024,125.671195857442,16.780843267581
$GPGGA,160630.00,3510.6716,N,12208.0765,W,1,11,0.8,2.1,M,-32.9,M,,*5E
$PYRTM,2024,125.671207446852,16.780854856991
$GPGGA,160631.00,3510.6715,N,12208.0774,W,1,11,0.8,1.8,M,-32.9,M,,*56
$PYRTM,2024,125.671224229433,16.780871639572
$GPGGA,160632.00,3510.6718,N,12208.0779,W,1,11,0.8,1.4,M,-32.9,M,,*59
$PYRTM,2024,125.671235804653,16.780883214792
$GPGGA,160633.00,3510.6722,N,12208.0781,W,1,11,0.8,1.3,M,-32.9,M,,*51
$PYRTM,2024,125.671247375567,16.780894785706
$GPGGA,160634.00,3510.6723,N,12208.0784,W,1,11,0.8,1.4,M,-32.9,M,,*55
$PYRTM,2024,125.671258950150,16.780906360289
$GPGGA,160635.00,3510.6720,N,12208.0792,W,1,11,0.8,1.5,M,-32.9,M,,*51
$PYRTM,2024,125.671270528738,16.780917938877
$GPGGA,160636.00,3510.6718,N,12208.0802,W,1,11,0.8,1.7,M,-32.9,M,,*5D
$PYRTM,2024,125.671282094005,16.780929504144
$GPGGA,160637.00,3510.6717,N,12208.0807,W,1,11,0.8,1.8,M,-32.9,M,,*59
$PYRTM,2024,125.671293668958,16.780941079109
$GPGGA,160638.00,3510.6720,N,12208.0811,W,1,11,0.8,1.8,M,-32.9,M,,*55
$PYRTM,2024,125.671305242106,16.780952652245
$GPGGA,160639.00,3510.6722,N,12208.0818,W,1,11,0.8,2.0,M,-32.9,M,,*54
$PYRTM,2024,125.671316820752,16.780964230891
$GPGGA,160640.00,3510.6720,N,12208.0826,W,1,11,0.8,2.4,M,-32.9,M,,*51
$PYRTM,2024,125.671328395336,16.780975805475
$GPGGA,160641.00,3510.6716,N,12208.0834,W,1,11,0.8,3.0,M,-32.9,M,,*53
$PYRTM,2024,125.671339964838,16.780987374988
$GPGGA,160642.00,3510.6715,N,12208.0840,W,1,11,0.8,3.3,M,-32.9,M,,*53
$PYRTM,2024,125.671351544699,16.780998954838
$GPGGA,160643.00,3510.6718,N,12208.0846,W,1,11,0.8,3.3,M,-32.9,M,,*59
$PYRTM,2024,125.671363117627,16.781010527766
$GPGGA,160644.00,3510.6721,N,12208.0852,W,1,11,0.8,3.1,M,-32.9,M,,*53
$PYRTM,2024,125.671374695162,16.781022105301
$GPGGA,160645.00,3510.6721,N,12208.0859,W,1,11,0.8,3.3,M,-32.9,M,,*5B
$PYRTM,2024,125.671386266609,16.781033676748
$GPGGA,160646.00,3510.6717,N,12208.0865,W,1,11,0.8,3.9,M,-32.9,M,,*58
$PYRTM,2024,125.671397839942,16.781045250081
$GPGGA,160647.00,3510.6715,N,12208.0872,W,1,11,0.8,3.7,M,-32.9,M,,*53
$PYRTM,2024,125.671409412998,16.781056823137
$GPGGA,160648.00,3510.6718,N,12208.0877,W,1,11,0.8,3.1,M,-32.9,M,,*52
$PYRTM,2024,125.671420988009,16.781068398148
$GPGGA,160649.00,3510.6724,N,12208.0881,W,1,11,0.8,2.9,M,-32.9,M,,*5C
$PYRTM,2024,125.671432562442,16.781079972581
$GPGGA,160650.00,3510.6726,N,12208.0884,W,1,11,0.8,2.8,M,-32.9,M,,*52
$PYRTM,2024,125.671444135752,16.781091545891
$GPGGA,160651.00,3510.6725,N,12208.0890,W,1,11,0.8,2.1,M,-32.9,M,,*5C
$PYRTM,2024,125.671455705370,16.781103115509
$GPGGA,160652.00,3510.6722,N,12208.0900,W,1,11,0.8,0.4,M,-32.9,M,,*57
$PYRTM,2024,125.671467284618,16.781114694757
$GPGGA,160653.00,3510.6721,N,12208.0910,W,1,11,0.8,2.3,M,-32.9,M,,*51
$PYRTM,2024,125.671478859120,16.781126269259
$GPGGA,160654.00,3510.6724,N,12208.0917,W,1,11,0.8,0.1,M,-32.9,M,,*54
$PYRTM,2024,125.671490436169,16.781137846308
$GPGGA,160655.00,3510.6727,N,12208.0922,W,1,11,0.8,0.2,M,-32.9,M,,*53
$PYRTM,2024,125.671502009919,16.781149420058
$GPGGA,160656.00,3510.6729,N,12208.0927,W,1,11,0.8,-0.1,M,-32.9,M,,*75
$PYRTM,2024,125.671513595718,16.781161005856
$GPGGA,160657.00,3510.6730,N,12208.0934,W,1,11,0.8,1.7,M,-32.9,M,,*54
$PYRTM,2024,125.671525156562,16.781172566701
$GPGGA,160658.00,3510.6727,N,12208.0943,W,1,11,0.8,2.8,M,-32.9,M,,*51
$PYRTM,2024,125.671536732616,16.781184142755
$GPGGA,160659.00,3510.6727,N,12208.0952,W,1,11,0.8,4.0,M,-32.9,M,,*5E
$PYRTM,2024,125.671548299630,16.781195709769
$GPGGA,160700.00,3510.6731,N,12208.0958,W,1,11,0.8,3.6,M,-32.9,M,,*5F
$PYRTM,2024,125.671559878565,16.781207288704
$GPGGA,160701.00,3510.6734,N,12208.0963,W,1,11,0.8,3.4,M,-32.9,M,,*51
$PYRTM,2024,125.671570179722,16.781217589861
$GPGGA,160702.00,3510.6735,N,12208.0967,W,1,11,0.8,3.2,M,-32.9,M,,*51
$PYRTM,2024,125.671581972755,16.781229382894
$GPGGA,160703.00,3510.6733,N,12208.0975,W,1,11,0.8,4.2,M,-32.9,M,,*52
$PYRTM,2024,125.671594600602,16.781242010741
$GPGGA,160704.00,3510.6731,N,12208.0983,W,1,11,0.8,1.3,M,-32.9,M,,*5A
$PYRTM,2024,125.671606175972,16.781253586111
$GPGGA,160705.00,3510.6731,N,12208.0990,W,1,11,0.8,1.4,M,-32.9,M,,*5E
$PYRTM,2024,125.671617744780,16.781265154931
$GPGGA,160706.00,3510.6732,N,12208.0997,W,1,11,0.8,2.6,M,-32.9,M,,*58
$PYRTM,2024,125.671629323079,16.781276733218
$GPGGA,160707.00,3510.6733,N,12208.1004,W,1,11,0.8,1.2,M,-32.9,M,,*5D
$PYRTM,2024,125.671641000370,16.781288410509
$GPGGA,160708.00,3510.6734,N,12208.1010,W,1,11,0.8,-1.3,M,-32.9,M,,*7C
$PYRTM,2024,125.671652575544,16.781299985683
$GPGGA,160709.00,3510.6735,N,12208.1016,W,1,11,0.8,-1.2,M,-32.9,M,,*7B
$PYRTM,2024,125.671664041354,16.781311451493
$GPGGA,160710.00,3510.6736,N,12208.1023,W,1,11,0.8,-0.2,M,-32.9,M,,*77
$PYRTM,2024,125.671675623738,16.781323033889
$GPGGA,160711.00,3510.6737,N,12208.1029,W,1,11,0.8,-2.5,M,-32.9,M,,*78
$PYRTM,2024,125.671687193472,16.781334603611
$GPGGA,160712.00,3510.6740,N,12208.1036,W,1,11,0.8,-0.3,M,-32.9,M,,*71
$PYRTM,2024,125.671698770903,16.781346181042
$GPGGA,160713.00,3510.6742,N,12208.1042,W,1,11,0.8,-0.3,M,-32.9,M,,*71
$PYRTM,2024,125.671710343507,16.781357753646
$GPGGA,160714.00,3510.6743,N,12208.1047,W,1,11,0.8,-0.4,M,-32.9,M,,*75
$PYRTM,2024,125.671721911204,16.781369321343
$GPGGA,160715.00,3510.6742,N,12208.1049,W,1,11,0.8,-0.4,M,-32.9,M,,*7B
$PYRTM,2024,125.671733490185,16.781380900324
$GPGGA,160716.00,3510.6741,N,12208.1054,W,1,11,0.8,-4.2,M,-32.9,M,,*75
$PYRTM,2024,125.671745067454,16.781392477604
$GPGGA,160717.00,3510.6742,N,12208.1064,W,1,11,0.8,-1.7,M,-32.9,M,,*74
$PYRTM,2024,125.671756638912,16.781404049051
$GPGGA,160718.00,3510.6742,N,12208.1073,W,1,11,0.8,-1.9,M,-32.9,M,,*73
$PYRTM,2024,125.671768208426,16.781415618565
$GPGGA,160719.00,3510.6741,N,12208.1077,W,1,11,0.8,-1.8,M,-32.9,M,,*74
$PYRTM,2024,125.671779890637,16.781427300775
$GPGGA,160720.00,3510.6740,N,12208.1079,W,1,11,0.8,-2.0,M,-32.9,M,,*7A
$PYRTM,2024,125.671791361204,16.781438771343
$GPGGA,160721.00,3510.6739,N,12208.1087,W,1,11,0.8,-1.3,M,-32.9,M,,*74
$PYRTM,2024,125.671802930463,16.781450340602
$GPGGA,160722.00,3510.6737,N,12208.1098,W,1,11,0.8,-0.6,M,-32.9,M,,*73
$PYRTM,2024,125.671814509144,16.781461919282
$GPGGA,160723.00,3510.6735,N,12208.1107,W,1,11,0.8,-0.5,M,-32.9,M,,*74
$PYRTM,2024,125.671825036875,16.781472447014
$GPGGA,160724.00,3510.6736,N,12208.1116,W,1,11,0.8,0.3,M,-32.9,M,,*5B
$PYRTM,2024,125.671837661782,16.781485071921
$GPGGA,160725.00,3510.6738,N,12208.1122,W,1,11,0.8,0.2,M,-32.9,M,,*52
$PYRTM,2024,125.671849226319,16.781496636458
$GPGGA,160726.00,3510.6739,N,12208.1128,W,1,11,0.8,0.1,M,-32.9,M,,*59
$PYRTM,2024,125.671860808924,16.781508219063
$GPGGA,160727.00,3510.6737,N,12208.1137,W,1,11,0.8,0.8,M,-32.9,M,,*51
$PYRTM,2024,125.671872380243,16.781519790382
$GPGGA,160728.00,3510.6734,N,12208.1147,W,1,11,0.8,1.6,M,-32.9,M,,*55
$PYRTM,2024,125.671883957731,16.781531367870
$GPGGA,160729.00,3510.6735,N,12208.1154,W,1,11,0.8,1.5,M,-32.9,M,,*54
$PYRTM,2024,125.671895528252,16.781542938391
$GPGGA,160730.00,3510.6737,N,12208.1157,W,1,11,0.8,1.5,M,-32.9,M,,*5D
$PYRTM,2024,125.671907103657,16.781554513796
$GPGGA,160731.00,3510.6737,N,12208.1161,W,1,11,0.8,1.5,M,-32.9,M,,*59
$PYRTM,2024,125.671917751100,16.781565161238
$GPGGA,160732.00,3510.6734,N,12208.1169,W,1,11,0.8,1.0,M,-32.9,M,,*54
$PYRTM,2024,125.671929195197,16.781576605336
$GPGGA,160733.00,3510.6730,N,12208.1179,W,1,11,0.8,0.9,M,-32.9,M,,*58
$PYRTM,2024,125.671941819630,16.781589229769
$GPGGA,160734.00,3510.6728,N,12208.1187,W,1,11,0.8,0.7,M,-32.9,M,,*59
$PYRTM,2024,125.671953400810,16.781600810949
$GPGGA,160735.00,3510.6730,N,12208.1192,W,1,11,0.8,0.7,M,-32.9,M,,*55
$PYRTM,2024,125.671964968113,16.781612378252
$GPGGA,160736.00,3510.6732,N,12208.1194,W,1,11,0.8,0.7,M,-32.9,M,,*52
$PYRTM,2024,125.671976544028,16.781623954167
$GPGGA,160737.00,3510.6731,N,12208.1199,W,1,11,0.8,0.9,M,-32.9,M,,*53
$PYRTM,2024,125.671988122859,16.781635532998
$GPGGA,160738.00,3510.6728,N,12208.1211,W,1,11,0.8,0.7,M,-32.9,M,,*59
$PYRTM,2024,125.671999699271,16.781647109421
$GPGGA,160739.00,3510.6724,N,12208.1225,W,1,11,0.8,-0.4,M,-32.9,M,,*7D
$PYRTM,2024,125.672011270243,16.781658680382
$GPGGA,160740.00,3510.6724,N,12208.1232,W,1,11,0.8,-0.5,M,-32.9,M,,*74
$PYRTM,2024,125.672022848391,16.781670258530
$GPGGA,160741.00,3510.6727,N,12208.1233,W,1,11,0.8,-0.5,M,-32.9,M,,*77
$PYRTM,2024,125.672034412500,16.781681822639
$GPGGA,160742.00,3510.6729,N,12208.1234,W,1,11,0.8,-0.5,M,-32.9,M,,*7D
$PYRTM,2024,125.672045992986,16.781693403125
$GPGGA,160743.00,3510.6727,N,12208.1244,W,1,11,0.8,-0.5,M,-32.9,M,,*75
$PYRTM,2024,125.672057569803,16.781704979942
$GPGGA,160744.00,3510.6724,N,12208.1257,W,1,11,0.8,-0.5,M,-32.9,M,,*73
$PYRTM,2024,125.672069257199,16.781716667338
$GPGGA,160745.00,3510.6723,N,12208.1264,W,1,11,0.8,-0.7,M,-32.9,M,,*77
$PYRTM,2024,125.672080709387,16.781728119537
$GPGGA,160746.00,3510.6724,N,12208.1265,W,1,11,0.8,-0.7,M,-32.9,M,,*72
$PYRTM,2024,125.672092289653,16.781739699792
$GPGGA,160747.00,3510.6723,N,12208.1270,W,1,11,0.8,-0.5,M,-32.9,M,,*72
$PYRTM,2024,125.672103863843,16.781751273981
$GPGGA,160748.00,3510.6723,N,12208.1278,W,1,11,0.8,-0.5,M,-32.9,M,,*75
$PYRTM,2024,125.672115437488,16.781762847627
$GPGGA,160749.00,3510.6722,N,12208.1285,W,1,11,0.8,-0.5,M,-32.9,M,,*77
$PYRTM,2024,125.672127006516,16.781774416655
$GPGGA,160750.00,3510.6721,N,12208.1288,W,1,11,0.8,-0.5,M,-32.9,M,,*71
$PYRTM,2024,125.672138587211,16.781785997350
$GPGGA,160751.00,3510.6719,N,12208.1292,W,1,11,0.8,-0.6,M,-32.9,M,,*73
$PYRTM,2024,125.672150161481,16.781797571620
$GPGGA,160752.00,3510.6718,N,12208.1299,W,1,11,0.8,-0.3,M,-32.9,M,,*7F
$PYRTM,2024,125.672161734618,16.781809144757
$GPGGA,160753.00,3510.6719,N,12208.1305,W,1,11,0.8,-0.6,M,-32.9,M,,*7E
$PYRTM,2024,125.672173309317,16.781820719456
$GPGGA,160754.00,3510.6720,N,12208.1309,W,1,11,0.8,-0.6,M,-32.9,M,,*7F
$PYRTM,2024,125.672184886296,16.781832296435
$GPGGA,160755.00,3510.6721,N,12208.1313,W,1,11,0.8,-0.5,M,-32.9,M,,*77
$PYRTM,2024,125.672196456019,16.781843866157
$GPGGA,160756.00,3510.6718,N,12208.1319,W,1,11,0.8,-0.3,M,-32.9,M,,*72
$PYRTM,2024,125.672208035752,16.781855445891
$GPGGA,160757.00,3510.6717,N,12208.1328,W,1,11,0.8,-0.4,M,-32.9,M,,*79
$PYRTM,2024,125.672219605556,16.781867015694
$GPGGA,160758.00,3510.6719,N,12208.1334,W,1,11,0.8,-0.9,M,-32.9,M,,*78
$PYRTM,2024,125.672231179525,16.781878589664
$GPGGA,160759.00,3510.6723,N,12208.1336,W,1,11,0.8,-1.3,M,-32.9,M,,*79
$PYRTM,2024,125.672242751678,16.781890161817
$GPGGA,160800.00,3510.6722,N,12208.1341,W,1,11,0.8,-1.3,M,-32.9,M,,*7B
$PYRTM,2024,125.672254330660,16.781901740799
$GPGGA,160801.00,3510.6718,N,12208.1350,W,1,11,0.8,-1.0,M,-32.9,M,,*70
$PYRTM,2024,125.672264631539,16.781912041678
$GPGGA,160802.00,3510.6715,N,12208.1361,W,1,11,0.8,-0.8,M,-32.9,M,,*75
$PYRTM,2024,125.672276419757,16.781923829896
$GPGGA,160803.00,3510.6715,N,12208.1369,W,1,11,0.8,-1.0,M,-32.9,M,,*75
$PYRTM,2024,125.672289049144,16.781936459282
$GPGGA,160804.00,3510.6718,N,12208.1375,W,1,11,0.8,-1.0,M,-32.9,M,,*72
$PYRTM,2024,125.672300622650,16.781948032778
$GPGGA,160805.00,3510.6719,N,12208.1379,W,1,11,0.8,-1.0,M,-32.9,M,,*7E
$PYRTM,2024,125.672312192731,16.781959602870
$GPGGA,160806.00,3510.6719,N,12208.1384,W,1,11,0.8,0.9,M,-32.9,M,,*5A
$PYRTM,2024,125.672323774190,16.781971184329
$GPGGA,160807.00,3510.6717,N,12208.1393,W,1,11,0.8,1.3,M,-32.9,M,,*58
$PYRTM,2024,125.672335340116,16.781982750255
$GPGGA,160808.00,3510.6716,N,12208.1400,W,1,11,0.8,-1.5,M,-32.9,M,,*70
$PYRTM,2024,125.672346923391,16.781994333530
$GPGGA,160809.00,3510.6718,N,12208.1407,W,1,11,0.8,0.4,M,-32.9,M,,*55
$PYRTM,2024,125.672358495081,16.782005905220
$GPGGA,160810.00,3510.6721,N,12208.1413,W,1,11,0.8,0.2,M,-32.9,M,,*54
$PYRTM,2024,125.672370071053,16.782017481192
$GPGGA,160811.00,3510.6722,N,12208.1418,W,1,11,0.8,0.1,M,-32.9,M,,*5E
$PYRTM,2024,125.672381642870,16.782029053009
$GPGGA,160812.00,3510.6724,N,12208.1423,W,1,11,0.8,2.8,M,-32.9,M,,*58
$PYRTM,2024,125.672393217407,16.782040627546
$GPGGA,160813.00,3510.6724,N,12208.1433,W,1,11,0.8,1.4,M,-32.9,M,,*57
$PYRTM,2024,125.672404790127,16.782052200266
$GPGGA,160814.00,3510.6724,N,12208.1442,W,1,11,0.8,5.1,M,-32.9,M,,*57
$PYRTM,2024,125.672416365023,16.782063775162
$GPGGA,160815.00,3510.6724,N,12208.1446,W,1,11,0.8,5.1,M,-32.9,M,,*52
$PYRTM,2024,125.672427938646,16.782075348785
$GPGGA,160816.00,3510.6725,N,12208.1449,W,1,11,0.8,5.0,M,-32.9,M,,*5E
$PYRTM,2024,125.672439513461,16.782086923600
$GPGGA,160817.00,3510.6725,N,12208.1455,W,1,11,0.8,3.8,M,-32.9,M,,*5C
$PYRTM,2024,125.672451087581,16.782098497720
$GPGGA,160818.00,3510.6726,N,12208.1466,W,1,11,0.8,3.8,M,-32.9,M,,*50
$PYRTM,2024,125.672462662627,16.782110072766
$GPGGA,160819.00,3510.6726,N,12208.1474,W,1,11,0.8,3.7,M,-32.9,M,,*5D
$PYRTM,2024,125.672474235544,16.782121645683
$GPGGA,160820.00,3510.6723,N,12208.1477,W,1,11,0.8,3.7,M,-32.9,M,,*51
$PYRTM,2024,125.672484884074,16.782132294213
$GPGGA,160821.00,3510.6721,N,12208.1479,W,1,11,0.8,3.7,M,-32.9,M,,*5C
$PYRTM,2024,125.672497716447,16.782145126597
$GPGGA,160822.00,3510.6721,N,12208.1486,W,1,11,0.8,3.9,M,-32.9,M,,*51
$PYRTM,2024,125.672506527199,16.782153937338
$GPGGA,160823.00,3510.6721,N,12208.1495,W,1,11,0.8,3.3,M,-32.9,M,,*58
$PYRTM,2024,125.672524120197,16.782171530347
$GPGGA,160824.00,3510.6719,N,12208.1502,W,1,11,0.8,2.0,M,-32.9,M,,*59
$PYRTM,2024,125.672535233333,16.782182643472
$GPGGA,160825.00,3510.6717,N,12208.1509,W,1,11,0.8,2.0,M,-32.9,M,,*5D
$PYRTM,2024,125.672546329653,16.782193739792
$GPGGA,160826.00,3510.6719,N,12208.1515,W,1,11,0.8,1.7,M,-32.9,M,,*59
$PYRTM,2024,125.672557440382,16.782204850521
$GPGGA,160827.00,3510.6724,N,12208.1519,W,1,11,0.8,1.9,M,-32.9,M,,*54
$PYRTM,2024,125.672568560104,16.782215970243
$GPGGA,160828.00,3510.6725,N,12208.1525,W,1,11,0.8,2.0,M,-32.9,M,,*5F
$PYRTM,2024,125.672579549097,16.782226959248
$GPGGA,160829.00,3510.6720,N,12208.1532,W,1,11,0.8,2.9,M,-32.9,M,,*54
$PYRTM,2024,125.672590676377,16.782238086516
$GPGGA,160830.00,3510.6713,N,12208.1537,W,1,11,0.8,2.4,M,-32.9,M,,*54
$PYRTM,2024,125.672601770926,16.782249181065
$GPGGA,160831.00,3510.6713,N,12208.1541,W,1,11,0.8,2.2,M,-32.9,M,,*52
$PYRTM,2024,125.672613125012,16.782260535150
$GPGGA,160832.00,3510.6716,N,12208.1546,W,1,11,0.8,2.8,M,-32.9,M,,*59
$PYRTM,2024,125.672624699630,16.782272109769
$GPGGA,160833.00,3510.6718,N,12208.1555,W,1,11,0.8,3.2,M,-32.9,M,,*5F
$PYRTM,2024,125.672636273206,16.782283683345
$GPGGA,160834.00,3510.6718,N,12208.1563,W,1,11,0.8,3.5,M,-32.9,M,,*5A
$PYRTM,2024,125.672647848102,16.782295258241
$GPGGA,160835.00,3510.6714,N,12208.1568,W,1,11,0.8,3.6,M,-32.9,M,,*5F
$PYRTM,2024,125.672659421053,16.782306831192
$GPGGA,160836.00,3510.6712,N,12208.1572,W,1,11,0.8,3.6,M,-32.9,M,,*51
$PYRTM,2024,125.672670999063,16.782318409201
$GPGGA,160837.00,3510.6715,N,12208.1578,W,1,11,0.8,1.7,M,-32.9,M,,*5E
$PYRTM,2024,125.672682570729,16.782329980868
$GPGGA,160838.00,3510.6717,N,12208.1588,W,1,11,0.8,3.6,M,-32.9,M,,*5F
$PYRTM,2024,125.672694160104,16.782341570243
$GPGGA,160839.00,3510.6717,N,12208.1595,W,1,11,0.8,3.5,M,-32.9,M,,*51
