$PYRTM,2024,124.666676347604,15.776323757743
$GPGGA,155959.00,3525.0118,N,12106.9390,W,1,11,0.8,6.9,M,-31.4,M,,*58
$PYRTM,2024,124.666698792639,15.776346202778
$GPGGA,160000.00,3525.0110,N,12106.9364,W,1,11,0.8,7.4,M,-31.4,M,,*54
$PYRTM,2024,124.666709908831,15.776357318970
$GPGGA,160001.00,3525.0103,N,12106.9338,W,1,11,0.8,7.0,M,-31.4,M,,*5A
$PYRTM,2024,124.666721021227,15.776368431366
$GPGGA,160002.00,3525.0097,N,12106.9311,W,1,11,0.8,4.7,M,-31.4,M,,*5A
$PYRTM,2024,124.666732016181,15.776379426331
$GPGGA,160003.00,3525.0089,N,12106.9284,W,1,11,0.8,6.0,M,-31.4,M,,*5C
$PYRTM,2024,124.666743575718,15.776390985856
$GPGGA,160004.00,3525.0080,N,12106.9258,W,1,11,0.8,4.6,M,-31.4,M,,*57
$PYRTM,2024,124.666754687546,15.776402097685
$GPGGA,160005.00,3525.0071,N,12106.9232,W,1,11,0.8,4.6,M,-31.4,M,,*54
$PYRTM,2024,124.666765798113,15.776413208264
$GPGGA,160006.00,3525.0063,N,12106.9206,W,1,11,0.8,3.5,M,-31.4,M,,*57
$PYRTM,2024,124.666776909363,15.776424319502
$GPGGA,160007.00,3525.0056,N,12106.9179,W,1,11,0.8,6.3,M,-31.4,M,,*58
$PYRTM,2024,124.666788020579,15.776435430729
$GPGGA,160008.00,3525.0049,N,12106.9152,W,1,11,0.8,9.0,M,-31.4,M,,*5C
$PYRTM,2024,124.666799130775,15.776446540914
$GPGGA,160009.00,3525.0041,N,12106.9124,W,1,11,0.8,7.7,M,-31.4,M,,*5D
$PYRTM,2024,124.666810128727,15.776457538866
$GPGGA,160010.00,3525.0032,N,12106.9097,W,1,11,0.8,7.1,M,-31.4,M,,*5E
$PYRTM,2024,124.666821238958,15.776468649097
$GPGGA,160011.00,3525.0023,N,12106.9071,W,1,11,0.8,5.3,M,-31.4,M,,*57
$PYRTM,2024,124.666832350775,15.776479760914
$GPGGA,160012.00,3525.0014,N,12106.9045,W,1,11,0.8,5.2,M,-31.4,M,,*56
$PYRTM,2024,124.666843463009,15.776490873148
$GPGGA,160013.00,3525.0006,N,12106.9020,W,1,11,0.8,6.1,M,-31.4,M,,*57
$PYRTM,2024,124.666854573322,15.776501983461
$GPGGA,160014.00,3524.9998,N,12106.8994,W,1,11,0.8,5.1,M,-31.4,M,,*52
$PYRTM,2024,124.666865683750,15.776513093889
$GPGGA,160015.00,3524.9989,N,12106.8969,W,1,11,0.8,4.4,M,-31.4,M,,*55
$PYRTM,2024,124.666876680382,15.776524090521
$GPGGA,160016.00,3524.9980,N,12106.8944,W,1,11,0.8,3.5,M,-31.4,M,,*56
$PYRTM,2024,124.666888268032,15.776535678171
$GPGGA,160017.00,3524.9969,N,12106.8918,W,1,11,0.8,7.3,M,-31.4,M,,*5B
$PYRTM,2024,124.666899372697,15.776546782836
$GPGGA,160018.00,3524.9959,N,12106.8892,W,1,11,0.8,6.0,M,-31.4,M,,*56
$PYRTM,2024,124.666910494896,15.776557905035
$GPGGA,160019.00,3524.9951,N,12106.8864,W,1,11,0.8,6.1,M,-31.4,M,,*57
$PYRTM,2024,124.666921599676,15.776569009815
$GPGGA,160020.00,3524.9943,N,12106.8837,W,1,11,0.8,9.7,M,-31.4,M,,*51
$PYRTM,2024,124.666932699815,15.776580109965
$GPGGA,160021.00,3524.9935,N,12106.8809,W,1,11,0.8,7.3,M,-31.4,M,,*56
$PYRTM,2024,124.666943709144,15.776591119294
$GPGGA,160022.00,3524.9926,N,12106.8782,W,1,11,0.8,6.1,M,-31.4,M,,*58
$PYRTM,2024,124.666954805046,15.776602215185
$GPGGA,160023.00,3524.9916,N,12106.8755,W,1,11,0.8,5.2,M,-31.4,M,,*50
$PYRTM,2024,124.666965933275,15.776613343414
$GPGGA,160024.00,3524.9907,N,12106.8729,W,1,11,0.8,6.9,M,-31.4,M,,*54
$PYRTM,2024,124.666977041100,15.776624451250
$GPGGA,160025.00,3524.9898,N,12106.8702,W,1,11,0.8,5.5,M,-31.4,M,,*54
$PYRTM,2024,124.666988254803,15.776635664942
$GPGGA,160026.00,3524.9891,N,12106.8675,W,1,11,0.8,6.6,M,-31.4,M,,*5F
$PYRTM,2024,124.666998339907,15.776645750046
$GPGGA,160027.00,3524.9883,N,12106.8647,W,1,11,0.8,6.5,M,-31.4,M,,*5F
$PYRTM,2024,124.667010243484,15.776657653623
$GPGGA,160028.00,3524.9874,N,12106.8621,W,1,11,0.8,6.4,M,-31.4,M,,*59
$PYRTM,2024,124.667022875023,15.776670285162
$GPGGA,160029.00,3524.9864,N,12106.8597,W,1,11,0.8,5.3,M,-31.4,M,,*53
$PYRTM,2024,124.667034447917,15.776681858067
$GPGGA,160030.00,3524.9854,N,12106.8573,W,1,11,0.8,6.4,M,-31.4,M,,*56
$PYRTM,2024,124.667046021447,15.776693431586
$GPGGA,160031.00,3524.9846,N,12106.8547,W,1,11,0.8,7.2,M,-31.4,M,,*54
$PYRTM,2024,124.667057597546,15.776705007685
$GPGGA,160032.00,3524.9837,N,12106.8521,W,1,11,0.8,5.3,M,-31.4,M,,*52
$PYRTM,2024,124.667069166134,15.776716576285
$GPGGA,160033.00,3524.9828,N,12106.8495,W,1,11,0.8,5.7,M,-31.4,M,,*57
$PYRTM,2024,124.667080747593,15.776728157731
$GPGGA,160034.00,3524.9818,N,12106.8467,W,1,11,0.8,4.9,M,-31.4,M,,*51
$PYRTM,2024,124.667092318900,15.776739729039
$GPGGA,160035.00,3524.9808,N,12106.8439,W,1,11,0.8,6.2,M,-31.4,M,,*53
$PYRTM,2024,124.667103892384,15.776751302535
$GPGGA,160036.00,3524.9800,N,12106.8411,W,1,11,0.8,6.7,M,-31.4,M,,*57
$PYRTM,2024,124.667115462222,15.776762872361
$GPGGA,160037.00,3524.9791,N,12106.8384,W,1,11,0.8,9.6,M,-31.4,M,,*54
$PYRTM,2024,124.667127043171,15.776774453310
$GPGGA,160038.00,3524.9782,N,12106.8358,W,1,11,0.8,7.9,M,-31.4,M,,*59
$PYRTM,2024,124.667138614583,15.776786024722
$GPGGA,160039.00,3524.9774,N,12106.8331,W,1,11,0.8,5.9,M,-31.4,M,,*5C
$PYRTM,2024,124.667150183484,15.776797593623
$GPGGA,160040.00,3524.9765,N,12106.8306,W,1,11,0.8,6.7,M,-31.4,M,,*5B
$PYRTM,2024,124.667161763623,15.776809173773
$GPGGA,160041.00,3524.9756,N,12106.8280,W,1,11,0.8,6.9,M,-31.4,M,,*5B
$PYRTM,2024,124.667173337546,15.776820747685
$GPGGA,160042.00,3524.9749,N,12106.8253,W,1,11,0.8,6.3,M,-31.4,M,,*52
$PYRTM,2024,124.667184911887,15.776832322025
$GPGGA,160043.00,3524.9740,N,12106.8227,W,1,11,0.8,8.1,M,-31.4,M,,*55
$PYRTM,2024,124.667196488507,15.776843898646
$GPGGA,160044.00,3524.9730,N,12106.8200,W,1,11,0.8,7.4,M,-31.4,M,,*5A
$PYRTM,2024,124.667208059352,15.776855469491
$GPGGA,160045.00,3524.9721,N,12106.8173,W,1,11,0.8,6.9,M,-31.4,M,,*50
$PYRTM,2024,124.667219637245,15.776867047384
$GPGGA,160046.00,3524.9712,N,12106.8145,W,1,11,0.8,5.3,M,-31.4,M,,*5F
$PYRTM,2024,124.667231207106,15.776878617245
$GPGGA,160047.00,3524.9703,N,12106.8118,W,1,11,0.8,5.1,M,-31.4,M,,*54
$PYRTM,2024,124.667242782234,15.776890192373
$GPGGA,160048.00,3524.9696,N,12106.8090,W,1,11,0.8,3.4,M,-31.4,M,,*54
$PYRTM,2024,124.667254352025,15.776901762164
$GPGGA,160049.00,3524.9688,N,12106.8063,W,1,11,0.8,4.7,M,-31.4,M,,*52
$PYRTM,2024,124.667265931944,15.776913342083
$GPGGA,160050.00,3524.9680,N,12106.8038,W,1,11,0.8,4.1,M,-31.4,M,,*5A
$PYRTM,2024,124.667277504340,15.776924914479
$GPGGA,160051.00,3524.9671,N,12106.8013,W,1,11,0.8,5.5,M,-31.4,M,,*59
$PYRTM,2024,124.667289077685,15.776936487824
$GPGGA,160052.00,3524.9662,N,12106.7987,W,1,11,0.8,6.3,M,-31.4,M,,*56
$PYRTM,2024,124.667300652060,15.776948062199
$GPGGA,160053.00,3524.9654,N,12106.7961,W,1,11,0.8,5.8,M,-31.4,M,,*52
$PYRTM,2024,124.667312241458,15.776959651597
$GPGGA,160054.00,3524.9645,N,12106.7933,W,1,11,0.8,6.5,M,-31.4,M,,*5C
$PYRTM,2024,124.667323800405,15.776971210544
$GPGGA,160055.00,3524.9637,N,12106.7907,W,1,11,0.8,6.6,M,-31.4,M,,*5C
$PYRTM,2024,124.667335393449,15.776982803588
$GPGGA,160056.00,3524.9627,N,12106.7880,W,1,11,0.8,7.1,M,-31.4,M,,*56
$PYRTM,2024,124.667345559491,15.776992969630
$GPGGA,160057.00,3524.9617,N,12106.7852,W,1,11,0.8,7.4,M,-31.4,M,,*5E
$PYRTM,2024,124.667357466875,15.777004877014
$GPGGA,160058.00,3524.9608,N,12106.7825,W,1,11,0.8,6.6,M,-31.4,M,,*5C
$PYRTM,2024,124.667370097060,15.777017507199
$GPGGA,160059.00,3524.9599,N,12106.7798,W,1,11,0.8,3.0,M,-31.4,M,,*5C
$PYRTM,2024,124.667381674028,15.777029084167
$GPGGA,160100.00,3524.9590,N,12106.7772,W,1,11,0.8,3.5,M,-31.4,M,,*59
$PYRTM,2024,124.667393245949,15.777040656088
$GPGGA,160101.00,3524.9581,N,12106.7747,W,1,11,0.8,2.9,M,-31.4,M,,*53
$PYRTM,2024,124.667404819919,15.777052230058
$GPGGA,160102.00,3524.9572,N,12106.7721,W,1,11,0.8,2.5,M,-31.4,M,,*50
$PYRTM,2024,124.667416393877,15.777063804016
$GPGGA,160103.00,3524.9562,N,12106.7696,W,1,11,0.8,6.6,M,-31.4,M,,*5A
$PYRTM,2024,124.667427969109,15.777075379248
$GPGGA,160104.00,3524.9552,N,12106.7670,W,1,11,0.8,5.8,M,-31.4,M,,*5B
$PYRTM,2024,124.667439542419,15.777086952558
$GPGGA,160105.00,3524.9543,N,12106.7645,W,1,11,0.8,3.8,M,-31.4,M,,*5A
$PYRTM,2024,124.667451131204,15.777098541343
$GPGGA,160106.00,3524.9535,N,12106.7619,W,1,11,0.8,6.7,M,-31.4,M,,*5B
$PYRTM,2024,124.667462690058,15.777110100197
$GPGGA,160107.00,3524.9526,N,12106.7593,W,1,11,0.8,8.0,M,-31.4,M,,*50
$PYRTM,2024,124.667474265220,15.777121675359
$GPGGA,160108.00,3524.9518,N,12106.7567,W,1,11,0.8,6.0,M,-31.4,M,,*57
$PYRTM,2024,124.667485839387,15.777133249525
$GPGGA,160109.00,3524.9510,N,12106.7540,W,1,11,0.8,4.7,M,-31.4,M,,*5E
$PYRTM,2024,124.667497413437,15.777144823576
$GPGGA,160110.00,3524.9501,N,12106.7514,W,1,11,0.8,2.7,M,-31.4,M,,*51
$PYRTM,2024,124.667508987812,15.777156397951
$GPGGA,160111.00,3524.9493,N,12106.7488,W,1,11,0.8,3.8,M,-31.4,M,,*50
$PYRTM,2024,124.667520562153,15.777167972292
$GPGGA,160112.00,3524.9485,N,12106.7462,W,1,11,0.8,6.5,M,-31.4,M,,*58
$PYRTM,2024,124.667532135104,15.777179545255
$GPGGA,160113.00,3524.9475,N,12106.7437,W,1,11,0.8,4.6,M,-31.4,M,,*57
$PYRTM,2024,124.667543709352,15.777191119491
$GPGGA,160114.00,3524.9464,N,12106.7412,W,1,11,0.8,5.6,M,-31.4,M,,*56
$PYRTM,2024,124.667555284201,15.777202694340
$GPGGA,160115.00,3524.9454,N,12106.7387,W,1,11,0.8,3.8,M,-31.4,M,,*57
$PYRTM,2024,124.667566872454,15.777214282593
$GPGGA,160116.00,3524.9445,N,12106.7361,W,1,11,0.8,6.0,M,-31.4,M,,*51
$PYRTM,2024,124.667578432095,15.777225842234
$GPGGA,160117.00,3524.9437,N,12106.7333,W,1,11,0.8,5.9,M,-31.4,M,,*58
$PYRTM,2024,124.667590006065,15.777237416204
$GPGGA,160118.00,3524.9429,N,12106.7305,W,1,11,0.8,6.5,M,-31.4,M,,*52
$PYRTM,2024,124.667601580347,15.777248990486
$GPGGA,160119.00,3524.9419,N,12106.7278,W,1,11,0.8,4.9,M,-31.4,M,,*55
$PYRTM,2024,124.667613154086,15.777260564225
$GPGGA,160120.00,3524.9407,N,12106.7253,W,1,11,0.8,6.0,M,-31.4,M,,*52
$PYRTM,2024,124.667624722812,15.777272132963
$GPGGA,160121.00,3524.9396,N,12106.7228,W,1,11,0.8,4.1,M,-31.4,M,,*53
$PYRTM,2024,124.667636304861,15.777283715012
$GPGGA,160122.00,3524.9386,N,12106.7202,W,1,11,0.8,1.4,M,-31.4,M,,*59
$PYRTM,2024,124.667647877975,15.777295288113
$GPGGA,160123.00,3524.9378,N,12106.7177,W,1,11,0.8,1.9,M,-31.4,M,,*55
$PYRTM,2024,124.667659451319,15.777306861470
$GPGGA,160124.00,3524.9369,N,12106.7153,W,1,11,0.8,4.6,M,-31.4,M,,*5E
$PYRTM,2024,124.667671020185,15.777318430336
$GPGGA,160125.00,3524.9359,N,12106.7129,W,1,11,0.8,5.6,M,-31.4,M,,*50
$PYRTM,2024,124.667682601829,15.777330011979
$GPGGA,160126.00,3524.9348,N,12106.7104,W,1,11,0.8,8.7,M,-31.4,M,,*50
$PYRTM,2024,124.667692787303,15.777340197442
$GPGGA,160127.00,3524.9337,N,12106.7079,W,1,11,0.8,9.0,M,-31.4,M,,*54
$PYRTM,2024,124.667704577037,15.777351987176
$GPGGA,160128.00,3524.9327,N,12106.7052,W,1,11,0.8,9.7,M,-31.4,M,,*54
$PYRTM,2024,124.667717321111,15.777364731250
$GPGGA,160129.00,3524.9316,N,12106.7025,W,1,11,0.8,9.6,M,-31.4,M,,*56
$PYRTM,2024,124.667728897720,15.777376307859
$GPGGA,160130.00,3524.9305,N,12106.6999,W,1,11,0.8,9.6,M,-31.4,M,,*53
$PYRTM,2024,124.667740464711,15.777387874850
$GPGGA,160131.00,3524.9295,N,12106.6972,W,1,11,0.8,12.6,M,-31.4,M,,*65
$PYRTM,2024,124.667752044120,15.777399454259
$GPGGA,160132.00,3524.9286,N,12106.6945,W,1,11,0.8,12.6,M,-31.4,M,,*60
$PYRTM,2024,124.667763617894,15.777411028032
$GPGGA,160133.00,3524.9277,N,12106.6919,W,1,11,0.8,10.3,M,-31.4,M,,*61
$PYRTM,2024,124.667775655231,15.777423065370
$GPGGA,160134.00,3524.9269,N,12106.6893,W,1,11,0.8,11.1,M,-31.4,M,,*69
$PYRTM,2024,124.667787229201,15.777434639340
$GPGGA,160135.00,3524.9261,N,12106.6867,W,1,11,0.8,8.5,M,-31.4,M,,*57
$PYRTM,2024,124.667798803368,15.777446213507
$GPGGA,160136.00,3524.9253,N,12106.6841,W,1,11,0.8,5.5,M,-31.4,M,,*5C
$PYRTM,2024,124.667810377523,15.777457787662
$GPGGA,160137.00,3524.9244,N,12106.6814,W,1,11,0.8,3.7,M,-31.4,M,,*5F
$PYRTM,2024,124.667821951400,15.777469361539
$GPGGA,160138.00,3524.9235,N,12106.6787,W,1,11,0.8,3.7,M,-31.4,M,,*53
$PYRTM,2024,124.667833526238,15.777480936377
$GPGGA,160139.00,3524.9226,N,12106.6759,W,1,11,0.8,2.7,M,-31.4,M,,*52
$PYRTM,2024,124.667845100602,15.777492510741
$GPGGA,160140.00,3524.9217,N,12106.6730,W,1,11,0.8,4.8,M,-31.4,M,,*58
$PYRTM,2024,124.667856674838,15.777504084977
$GPGGA,160141.00,3524.9209,N,12106.6703,W,1,11,0.8,4.3,M,-31.4,M,,*5D
$PYRTM,2024,124.667868247581,15.777515657720
$GPGGA,160142.00,3524.9201,N,12106.6676,W,1,11,0.8,6.1,M,-31.4,M,,*55
$PYRTM,2024,124.667879825498,15.777527235637
$GPGGA,160143.00,3524.9194,N,12106.6649,W,1,11,0.8,6.9,M,-31.4,M,,*5F
$PYRTM,2024,124.667891395833,15.777538805972
$GPGGA,160144.00,3524.9186,N,12106.6622,W,1,11,0.8,6.3,M,-31.4,M,,*5C
$PYRTM,2024,124.667902970486,15.777550380625
$GPGGA,160145.00,3524.9178,N,12106.6596,W,1,11,0.8,8.0,M,-31.4,M,,*5D
$PYRTM,2024,124.667914545625,15.777561955775
$GPGGA,160146.00,3524.9171,N,12106.6570,W,1,11,0.8,7.6,M,-31.4,M,,*56
$PYRTM,2024,124.667926113831,15.777573523981
$GPGGA,160147.00,3524.9162,N,12106.6543,W,1,11,0.8,5.6,M,-31.4,M,,*57
$PYRTM,2024,124.667937796377,15.777585206516
$GPGGA,160148.00,3524.9153,N,12106.6518,W,1,11,0.8,7.0,M,-31.4,M,,*50
$PYRTM,2024,124.667949379190,15.777596789329
$GPGGA,160149.00,3524.9144,N,12106.6491,W,1,11,0.8,7.4,M,-31.4,M,,*53
$PYRTM,2024,124.667960944630,15.777608354769
$GPGGA,160150.00,3524.9135,N,12106.6465,W,1,11,0.8,5.6,M,-31.4,M,,*56
$PYRTM,2024,124.667972532245,15.777619942384
$GPGGA,160151.00,3524.9127,N,12106.6437,W,1,11,0.8,4.0,M,-31.4,M,,*54
$PYRTM,2024,124.667984092523,15.777631502662
$GPGGA,160152.00,3524.9119,N,12106.6410,W,1,11,0.8,5.8,M,-31.4,M,,*56
$PYRTM,2024,124.667995681898,15.777643092037
$GPGGA,160153.00,3524.9111,N,12106.6384,W,1,11,0.8,6.6,M,-31.4,M,,*58
$PYRTM,2024,124.668007242350,15.777654652488
$GPGGA,160154.00,3524.9102,N,12106.6358,W,1,11,0.8,6.7,M,-31.4,M,,*5D
$PYRTM,2024,124.668018830972,15.777666241111
$GPGGA,160155.00,3524.9094,N,12106.6332,W,1,11,0.8,5.2,M,-31.4,M,,*58
$PYRTM,2024,124.668030390880,15.777677801019
$GPGGA,160156.00,3524.9085,N,12106.6307,W,1,11,0.8,3.4,M,-31.4,M,,*5D
$PYRTM,2024,124.668040125069,15.777687535208
$GPGGA,160157.00,3524.9077,N,12106.6282,W,1,11,0.8,4.0,M,-31.4,M,,*5E
$PYRTM,2024,124.668054463044,15.777701873183
$GPGGA,160158.00,3524.9069,N,12106.6256,W,1,11,0.8,3.7,M,-31.4,M,,*57
$PYRTM,2024,124.668065239861,15.777712650012
$GPGGA,160159.00,3524.9061,N,12106.6230,W,1,11,0.8,4.5,M,-31.4,M,,*5B
$PYRTM,2024,124.668076353646,15.777723763785
$GPGGA,160200.00,3524.9053,N,12106.6205,W,1,11,0.8,3.8,M,-31.4,M,,*59
$PYRTM,2024,124.668087458727,15.777734868866
$GPGGA,160201.00,3524.9044,N,12106.6179,W,1,11,0.8,5.3,M,-31.4,M,,*5B
$PYRTM,2024,124.668098459525,15.777745869664
$GPGGA,160202.00,3524.9035,N,12106.6152,W,1,11,0.8,4.6,M,-31.4,M,,*53
$PYRTM,2024,124.668109572014,15.777756982153
$GPGGA,160203.00,3524.9026,N,12106.6126,W,1,11,0.8,6.0,M,-31.4,M,,*57
$PYRTM,2024,124.668121130671,15.777768540810
$GPGGA,160204.00,3524.9016,N,12106.6100,W,1,11,0.8,5.6,M,-31.4,M,,*52
$PYRTM,2024,124.668132241528,15.777779651667
$GPGGA,160205.00,3524.9008,N,12106.6075,W,1,11,0.8,5.2,M,-31.4,M,,*5B
$PYRTM,2024,124.668143352824,15.777790762963
$GPGGA,160206.00,3524.9000,N,12106.6049,W,1,11,0.8,7.0,M,-31.4,M,,*5F
$PYRTM,2024,124.668154465984,15.777801876123
$GPGGA,160207.00,3524.8991,N,12106.6024,W,1,11,0.8,6.9,M,-31.4,M,,*5D
$PYRTM,2024,124.668165577836,15.777812987975
$GPGGA,160208.00,3524.8982,N,12106.5999,W,1,11,0.8,4.6,M,-31.4,M,,*51
$PYRTM,2024,124.668180165671,15.777827575810
$GPGGA,160209.00,3524.8974,N,12106.5973,W,1,11,0.8,1.7,M,-31.4,M,,*59
$PYRTM,2024,124.668192197106,15.777839607245
$GPGGA,160210.00,3524.8965,N,12106.5947,W,1,11,0.8,0.0,M,-31.4,M,,*50
$PYRTM,2024,124.668203440220,15.777850850359
$GPGGA,160211.00,3524.8957,N,12106.5920,W,1,11,0.8,0.5,M,-31.4,M,,*54
$PYRTM,2024,124.668215009271,15.777862419410
$GPGGA,160212.00,3524.8949,N,12106.5891,W,1,11,0.8,-1.1,M,-31.4,M,,*7B
$PYRTM,2024,124.668226583009,15.777873993148
$GPGGA,160213.00,3524.8940,N,12106.5863,W,1,11,0.8,3.5,M,-31.4,M,,*55
$PYRTM,2024,124.668238157199,15.777885567338
$GPGGA,160214.00,3524.8930,N,12106.5837,W,1,11,0.8,3.8,M,-31.4,M,,*59
$PYRTM,2024,124.668249726470,15.777897136609
$GPGGA,160215.00,3524.8920,N,12106.5811,W,1,11,0.8,3.0,M,-31.4,M,,*55
$PYRTM,2024,124.668261307338,15.777908717477
$GPGGA,160216.00,3524.8911,N,12106.5784,W,1,11,0.8,1.8,M,-31.4,M,,*5D
$PYRTM,2024,124.668272880313,15.777920290451
$GPGGA,160217.00,3524.8904,N,12106.5758,W,1,11,0.8,1.2,M,-31.4,M,,*53
$PYRTM,2024,124.668284458160,15.777931868299
$GPGGA,160218.00,3524.8896,N,12106.5731,W,1,11,0.8,0.7,M,-31.4,M,,*5D
$PYRTM,2024,124.668296027442,15.777943437581
$GPGGA,160219.00,3524.8887,N,12106.5704,W,1,11,0.8,1.2,M,-31.4,M,,*5E
$PYRTM,2024,124.668307616354,15.777955026493
$GPGGA,160220.00,3524.8878,N,12106.5678,W,1,11,0.8,0.8,M,-31.4,M,,*55
$PYRTM,2024,124.668319177419,15.777966587558
$GPGGA,160221.00,3524.8870,N,12106.5653,W,1,11,0.8,3.6,M,-31.4,M,,*58
$PYRTM,2024,124.668330753194,15.777978163333
$GPGGA,160222.00,3524.8862,N,12106.5626,W,1,11,0.8,3.1,M,-31.4,M,,*5D
$PYRTM,2024,124.668342324444,15.777989734583
$GPGGA,160223.00,3524.8852,N,12106.5598,W,1,11,0.8,3.0,M,-31.4,M,,*58
$PYRTM,2024,124.668353898773,15.778001308912
$GPGGA,160224.00,3524.8842,N,12106.5573,W,1,11,0.8,4.5,M,-31.4,M,,*59
$PYRTM,2024,124.668365467639,15.778012877789
$GPGGA,160225.00,3524.8832,N,12106.5548,W,1,11,0.8,4.5,M,-31.4,M,,*57
$PYRTM,2024,124.668377048044,15.778024458183
$GPGGA,160226.00,3524.8824,N,12106.5523,W,1,11,0.8,5.2,M,-31.4,M,,*58
$PYRTM,2024,124.668387233681,15.778034643819
$GPGGA,160227.00,3524.8815,N,12106.5498,W,1,11,0.8,3.7,M,-31.4,M,,*59
$PYRTM,2024,124.668399025625,15.778046435764
$GPGGA,160228.00,3524.8807,N,12106.5473,W,1,11,0.8,3.5,M,-31.4,M,,*52
$PYRTM,2024,124.668411769352,15.778059179491
$GPGGA,160229.00,3524.8799,N,12106.5448,W,1,11,0.8,4.9,M,-31.4,M,,*58
$PYRTM,2024,124.668423359525,15.778070769664
$GPGGA,160230.00,3524.8790,N,12106.5422,W,1,11,0.8,3.3,M,-31.4,M,,*58
$PYRTM,2024,124.668434917442,15.778082327581
$GPGGA,160231.00,3524.8780,N,12106.5397,W,1,11,0.8,4.7,M,-31.4,M,,*52
$PYRTM,2024,124.668446495150,15.778093905301
$GPGGA,160232.00,3524.8770,N,12106.5370,W,1,11,0.8,3.8,M,-31.4,M,,*5F
$PYRTM,2024,124.668458068032,15.778105478171
$GPGGA,160233.00,3524.8761,N,12106.5344,W,1,11,0.8,2.6,M,-31.4,M,,*56
$PYRTM,2024,124.668469639734,15.778117049873
$GPGGA,160234.00,3524.8751,N,12106.5318,W,1,11,0.8,3.5,M,-31.4,M,,*59
$PYRTM,2024,124.668481217222,15.778128627361
$GPGGA,160235.00,3524.8742,N,12106.5292,W,1,11,0.8,1.8,M,-31.4,M,,*56
$PYRTM,2024,124.668492783993,15.778140194132
$GPGGA,160236.00,3524.8735,N,12106.5266,W,1,11,0.8,3.3,M,-31.4,M,,*57
$PYRTM,2024,124.668504359757,15.778151769896
$GPGGA,160237.00,3524.8727,N,12106.5239,W,1,11,0.8,5.2,M,-31.4,M,,*58
$PYRTM,2024,124.668515937569,15.778163347720
$GPGGA,160238.00,3524.8719,N,12106.5214,W,1,11,0.8,1.6,M,-31.4,M,,*55
$PYRTM,2024,124.668527511157,15.778174921296
$GPGGA,160239.00,3524.8710,N,12106.5188,W,1,11,0.8,-0.4,M,-31.4,M,,*75
$PYRTM,2024,124.668539086979,15.778186497130
$GPGGA,160240.00,3524.8702,N,12106.5163,W,1,11,0.8,4.3,M,-31.4,M,,*53
$PYRTM,2024,124.668550660093,15.778198070231
$GPGGA,160241.00,3524.8694,N,12106.5136,W,1,11,0.8,3.4,M,-31.4,M,,*5C
$PYRTM,2024,124.668562236065,15.778209646204
$GPGGA,160242.00,3524.8684,N,12106.5110,W,1,11,0.8,1.3,M,-31.4,M,,*5F
$PYRTM,2024,124.668573807095,15.778221217245
$GPGGA,160243.00,3524.8674,N,12106.5084,W,1,11,0.8,2.7,M,-31.4,M,,*5A
$PYRTM,2024,124.668585381389,15.778232791528
$GPGGA,160244.00,3524.8665,N,12106.5057,W,1,11,0.8,2.9,M,-31.4,M,,*5D
$PYRTM,2024,124.668596955197,15.778244365336
$GPGGA,160245.00,3524.8656,N,12106.5030,W,1,11,0.8,3.3,M,-31.4,M,,*56
$PYRTM,2024,124.668608525000,15.778255935139
$GPGGA,160246.00,3524.8649,N,12106.5003,W,1,11,0.8,6.1,M,-31.4,M,,*5C
$PYRTM,2024,124.668620103704,15.778267513843
$GPGGA,160247.00,3524.8641,N,12106.4977,W,1,11,0.8,5.5,M,-31.4,M,,*59
$PYRTM,2024,124.668631677801,15.778279087951
$GPGGA,160248.00,3524.8633,N,12106.4950,W,1,11,0.8,7.1,M,-31.4,M,,*50
$PYRTM,2024,124.668643252187,15.778290662326
$GPGGA,160249.00,3524.8626,N,12106.4923,W,1,11,0.8,6.0,M,-31.4,M,,*51
$PYRTM,2024,124.668654828356,15.778302238495
$GPGGA,160250.00,3524.8618,N,12106.4897,W,1,11,0.8,5.5,M,-31.4,M,,*5C
$PYRTM,2024,124.668666400706,15.778313810845
$GPGGA,160251.00,3524.8610,N,12106.4870,W,1,11,0.8,5.8,M,-31.4,M,,*51
$PYRTM,2024,124.668677989583,15.778325399722
$GPGGA,160252.00,3524.8602,N,12106.4843,W,1,11,0.8,5.1,M,-31.4,M,,*58
$PYRTM,2024,124.668689549664,15.778336959815
$GPGGA,160253.00,3524.8594,N,12106.4816,W,1,11,0.8,6.2,M,-31.4,M,,*55
$PYRTM,2024,124.668701126817,15.778348536956
$GPGGA,160254.00,3524.8587,N,12106.4789,W,1,11,0.8,4.1,M,-31.4,M,,*58
$PYRTM,2024,124.668712699120,15.778360109259
$GPGGA,160255.00,3524.8577,N,12106.4762,W,1,11,0.8,3.5,M,-31.4,M,,*50
$PYRTM,2024,124.668724272222,15.778371682361
$GPGGA,160256.00,3524.8567,N,12106.4737,W,1,11,0.8,3.5,M,-31.4,M,,*52
$PYRTM,2024,124.668734459433,15.778381869583
$GPGGA,160257.00,3524.8558,N,12106.4711,W,1,11,0.8,6.3,M,-31.4,M,,*58
$PYRTM,2024,124.668746250035,15.778393660174
$GPGGA,160258.00,3524.8550,N,12106.4685,W,1,11,0.8,5.7,M,-31.4,M,,*54
$PYRTM,2024,124.668758993426,15.778406403565
$GPGGA,160259.00,3524.8542,N,12106.4659,W,1,11,0.8,5.4,M,-31.4,M,,*54
$PYRTM,2024,124.668770569560,15.778417979711
$GPGGA,160300.00,3524.8531,N,12106.4634,W,1,11,0.8,6.0,M,-31.4,M,,*51
$PYRTM,2024,124.668782141481,15.778429551620
$GPGGA,160301.00,3524.8521,N,12106.4611,W,1,11,0.8,4.0,M,-31.4,M,,*54
$PYRTM,2024,124.668793716586,15.778441126725
$GPGGA,160302.00,3524.8510,N,12106.4587,W,1,11,0.8,1.6,M,-31.4,M,,*5A
$PYRTM,2024,124.668805290729,15.778452700880
$GPGGA,160303.00,3524.8501,N,12106.4561,W,1,11,0.8,2.1,M,-31.4,M,,*57
$PYRTM,2024,124.668816878704,15.778464288843
$GPGGA,160304.00,3524.8491,N,12106.4534,W,1,11,0.8,5.4,M,-31.4,M,,*5A
$PYRTM,2024,124.668828438727,15.778475848877
$GPGGA,160305.00,3524.8482,N,12106.4507,W,1,11,0.8,5.1,M,-31.4,M,,*5C
$PYRTM,2024,124.668840012720,15.778487422870
$GPGGA,160306.00,3524.8474,N,12106.4480,W,1,11,0.8,3.8,M,-31.4,M,,*57
$PYRTM,2024,124.668851581759,15.778498991898
$GPGGA,160307.00,3524.8466,N,12106.4453,W,1,11,0.8,3.3,M,-31.4,M,,*50
$PYRTM,2024,124.668863155625,15.778510565764
$GPGGA,160308.00,3524.8459,N,12106.4425,W,1,11,0.8,3.7,M,-31.4,M,,*56
$PYRTM,2024,124.668874735764,15.778522145903
$GPGGA,160309.00,3524.8452,N,12106.4398,W,1,11,0.8,4.3,M,-31.4,M,,*5E
$PYRTM,2024,124.668886309664,15.778533719803
$GPGGA,160310.00,3524.8444,N,12106.4372,W,1,11,0.8,3.0,M,-31.4,M,,*51
$PYRTM,2024,124.668897881609,15.778545291748
$GPGGA,160311.00,3524.8435,N,12106.4346,W,1,11,0.8,1.2,M,-31.4,M,,*51
$PYRTM,2024,124.668909460509,15.778556870648
$GPGGA,160312.00,3524.8425,N,12106.4320,W,1,11,0.8,1.5,M,-31.4,M,,*54
$PYRTM,2024,124.668921031204,15.778568441343
$GPGGA,160313.00,3524.8416,N,12106.4295,W,1,11,0.8,-1.2,M,-31.4,M,,*70
$PYRTM,2024,124.668932619375,15.778580029514
$GPGGA,160314.00,3524.8408,N,12106.4270,W,1,11,0.8,1.5,M,-31.4,M,,*59
$PYRTM,2024,124.668944174074,15.778591584213
$GPGGA,160315.00,3524.8401,N,12106.4244,W,1,11,0.8,1.1,M,-31.4,M,,*52
$PYRTM,2024,124.668955757072,15.778603167222
$GPGGA,160316.00,3524.8392,N,12106.4218,W,1,11,0.8,2.4,M,-31.4,M,,*53
$PYRTM,2024,124.668967328912,15.778614739051
$GPGGA,160317.00,3524.8382,N,12106.4193,W,1,11,0.8,2.0,M,-31.4,M,,*57
$PYRTM,2024,124.668978896574,15.778626306713
$GPGGA,160318.00,3524.8372,N,12106.4168,W,1,11,0.8,-0.3,M,-31.4,M,,*7F
$PYRTM,2024,124.668990471794,15.778637881933
$GPGGA,160319.00,3524.8362,N,12106.4142,W,1,11,0.8,0.9,M,-31.4,M,,*50
$PYRTM,2024,124.669002050903,15.778649461042
$GPGGA,160320.00,3524.8352,N,12106.4117,W,1,11,0.8,1.0,M,-31.4,M,,*51
$PYRTM,2024,124.669013619201,15.778661029340
$GPGGA,160321.00,3524.8343,N,12106.4091,W,1,11,0.8,3.1,M,-31.4,M,,*5C
$PYRTM,2024,124.669025197998,15.778672608137
$GPGGA,160322.00,3524.8334,N,12106.4066,W,1,11,0.8,3.1,M,-31.4,M,,*57
$PYRTM,2024,124.669036774873,15.778684185023
$GPGGA,160323.00,3524.8324,N,12106.4041,W,1,11,0.8,1.1,M,-31.4,M,,*50
$PYRTM,2024,124.669048347442,15.778695757581
$GPGGA,160324.00,3524.8313,N,12106.4016,W,1,11,0.8,0.0,M,-31.4,M,,*51
$PYRTM,2024,124.669059920694,15.778707330833
$GPGGA,160325.00,3524.8302,N,12106.3991,W,1,11,0.8,-3.1,M,-31.4,M,,*7E
$PYRTM,2024,124.669071509225,15.778718919363
$GPGGA,160326.00,3524.8292,N,12106.3965,W,1,11,0.8,-2.4,M,-31.4,M,,*7A
$PYRTM,2024,124.669081681771,15.778729091910
$GPGGA,160327.00,3524.8284,N,12106.3939,W,1,11,0.8,-0.7,M,-31.4,M,,*74
$PYRTM,2024,124.669093588021,15.778740998160
$GPGGA,160328.00,3524.8277,N,12106.3912,W,1,11,0.8,-1.9,M,-31.4,M,,*71
$PYRTM,2024,124.669106218738,15.778753628877
$GPGGA,160329.00,3524.8268,N,12106.3885,W,1,11,0.8,-0.6,M,-31.4,M,,*7F
$PYRTM,2024,124.669117791632,15.778765201782
$GPGGA,160330.00,3524.8257,N,12106.3859,W,1,11,0.8,1.4,M,-31.4,M,,*54
$PYRTM,2024,124.669129367141,15.778776777280
$GPGGA,160331.00,3524.8248,N,12106.3833,W,1,11,0.8,-0.3,M,-31.4,M,,*7C
$PYRTM,2024,124.669140939630,15.778788349769
$GPGGA,160332.00,3524.8239,N,12106.3806,W,1,11,0.8,1.1,M,-31.4,M,,*51
$PYRTM,2024,124.669152513924,15.778799924062
$GPGGA,160333.00,3524.8230,N,12106.3780,W,1,11,0.8,-1.9,M,-31.4,M,,*7D
$PYRTM,2024,124.669164551852,15.778811961991
$GPGGA,160334.00,3524.8221,N,12106.3754,W,1,11,0.8,0.5,M,-31.4,M,,*53
$PYRTM,2024,124.669175661817,15.778823071956
$GPGGA,160335.00,3524.8211,N,12106.3728,W,1,11,0.8,3.0,M,-31.4,M,,*5C
$PYRTM,2024,124.669187239965,15.778834650104
$GPGGA,160336.00,3524.8202,N,12106.3701,W,1,11,0.8,3.0,M,-31.4,M,,*56
$PYRTM,2024,124.669199275671,15.778846685810
$GPGGA,160337.00,3524.8192,N,12106.3675,W,1,11,0.8,3.4,M,-31.4,M,,*5B
$PYRTM,2024,124.669210387755,15.778857797894
$GPGGA,160338.00,3524.8183,N,12106.3649,W,1,11,0.8,3.7,M,-31.4,M,,*58
$PYRTM,2024,124.669221959039,15.778869369178
$GPGGA,160339.00,3524.8173,N,12106.3622,W,1,11,0.8,1.7,M,-31.4,M,,*59
$PYRTM,2024,124.669233532812,15.778880942951
$GPGGA,160340.00,3524.8163,N,12106.3596,W,1,11,0.8,3.8,M,-31.4,M,,*57
$PYRTM,2024,124.669245106157,15.778892516296
$GPGGA,160341.00,3524.8153,N,12106.3570,W,1,11,0.8,4.1,M,-31.4,M,,*53
$PYRTM,2024,124.669256676470,15.778904086609
$GPGGA,160342.00,3524.8144,N,12106.3544,W,1,11,0.8,6.6,M,-31.4,M,,*54
$PYRTM,2024,124.669268256100,15.778915666238
$GPGGA,160343.00,3524.8137,N,12106.3519,W,1,11,0.8,3.3,M,-31.4,M,,*59
$PYRTM,2024,124.669279828970,15.778927239109
$GPGGA,160344.00,3524.8130,N,12106.3494,W,1,11,0.8,2.7,M,-31.4,M,,*58
$PYRTM,2024,124.669291402824,15.778938812963
$GPGGA,160345.00,3524.8123,N,12106.3468,W,1,11,0.8,4.0,M,-31.4,M,,*59
$PYRTM,2024,124.669302977037,15.778950387176
$GPGGA,160346.00,3524.8114,N,12106.3444,W,1,11,0.8,1.8,M,-31.4,M,,*5D
$PYRTM,2024,124.669314551505,15.778961961644
$GPGGA,160347.00,3524.8106,N,12106.3419,W,1,11,0.8,1.0,M,-31.4,M,,*5F
$PYRTM,2024,124.669326128380,15.778973538519
$GPGGA,160348.00,3524.8097,N,12106.3394,W,1,11,0.8,-0.5,M,-31.4,M,,*72
$PYRTM,2024,124.669337699468,15.778985109606
$GPGGA,160349.00,3524.8090,N,12106.3368,W,1,11,0.8,-0.4,M,-31.4,M,,*76
$PYRTM,2024,124.669349273819,15.778996683958
$GPGGA,160350.00,3524.8081,N,12106.3340,W,1,11,0.8,-1.7,M,-31.4,M,,*76
$PYRTM,2024,124.669360848391,15.779008258530
$GPGGA,160351.00,3524.8071,N,12106.3313,W,1,11,0.8,2.5,M,-31.4,M,,*52
$PYRTM,2024,124.669372422512,15.779019832650
$GPGGA,160352.00,3524.8060,N,12106.3286,W,1,11,0.8,3.4,M,-31.4,M,,*5C
$PYRTM,2024,124.669383996505,15.779031406644
$GPGGA,160353.00,3524.8051,N,12106.3259,W,1,11,0.8,-0.7,M,-31.4,M,,*70
$PYRTM,2024,124.669395570590,15.779042980729
$GPGGA,160354.00,3524.8043,N,12106.3231,W,1,11,0.8,-1.0,M,-31.4,M,,*7C
$PYRTM,2024,124.669407139502,15.779054549641
$GPGGA,160355.00,3524.8036,N,12106.3202,W,1,11,0.8,-0.8,M,-31.4,M,,*76
$PYRTM,2024,124.669418721366,15.779066131505
$GPGGA,160356.00,3524.8028,N,12106.3175,W,1,11,0.8,1.7,M,-31.4,M,,*5A
$PYRTM,2024,124.669431320752,15.779078730891
$GPGGA,160357.00,3524.8019,N,12106.3149,W,1,11,0.8,3.0,M,-31.4,M,,*53
$PYRTM,2024,124.669444053669,15.779091463808
$GPGGA,160358.00,3524.8009,N,12106.3122,W,1,11,0.8,1.8,M,-31.4,M,,*5A
$PYRTM,2024,124.669453440775,15.779100850914
$GPGGA,160359.00,3524.8000,N,12106.3095,W,1,11,0.8,0.4,M,-31.4,M,,*52
$PYRTM,2024,124.669465018542,15.779112428681
$GPGGA,160400.00,3524.7992,N,12106.3069,W,1,11,0.8,0.8,M,-31.4,M,,*5B
$PYRTM,2024,124.669476589178,15.779123999317
$GPGGA,160401.00,3524.7984,N,12106.3044,W,1,11,0.8,-0.1,M,-31.4,M,,*76
$PYRTM,2024,124.669487238843,15.779134648981
$GPGGA,160402.00,3524.7978,N,12106.3017,W,1,11,0.8,1.0,M,-31.4,M,,*5D
$PYRTM,2024,124.669499145266,15.779146555417
$GPGGA,160403.00,3524.7971,N,12106.2990,W,1,11,0.8,-0.8,M,-31.4,M,,*76
$PYRTM,2024,124.669510255775,15.779157665914
$GPGGA,160404.00,3524.7963,N,12106.2962,W,1,11,0.8,-1.8,M,-31.4,M,,*7E
$PYRTM,2024,124.669521367234,15.779168777373
$GPGGA,160405.00,3524.7955,N,12106.2935,W,1,11,0.8,1.5,M,-31.4,M,,*58
$PYRTM,2024,124.669532477176,15.779179887315
$GPGGA,160406.00,3524.7947,N,12106.2910,W,1,11,0.8,5.7,M,-31.4,M,,*59
$PYRTM,2024,124.669543589282,15.779190999421
$GPGGA,160407.00,3524.7939,N,12106.2884,W,1,11,0.8,3.1,M,-31.4,M,,*5D
$PYRTM,2024,124.669554700660,15.779202110787
$GPGGA,160408.00,3524.7930,N,12106.2858,W,1,11,0.8,2.8,M,-31.4,M,,*52
$PYRTM,2024,124.669565811285,15.779213221424
$GPGGA,160409.00,3524.7922,N,12106.2832,W,1,11,0.8,1.9,M,-31.4,M,,*5E
$PYRTM,2024,124.669580396400,15.779227806539
$GPGGA,160410.00,3524.7914,N,12106.2805,W,1,11,0.8,2.7,M,-31.4,M,,*5A
$PYRTM,2024,124.669603918981,15.779251329120
$GPGGA,160411.00,3524.7905,N,12106.2778,W,1,11,0.8,4.4,M,-31.4,M,,*5B
$PYRTM,2024,124.669615016273,15.779262426412
$GPGGA,160412.00,3524.7896,N,12106.2751,W,1,11,0.8,5.9,M,-31.4,M,,*54
$PYRTM,2024,124.669626127269,15.779273537407
$GPGGA,160413.00,3524.7886,N,12106.2725,W,1,11,0.8,2.5,M,-31.4,M,,*5C
$PYRTM,2024,124.669637241227,15.779284651366
$GPGGA,160414.00,3524.7877,N,12106.2699,W,1,11,0.8,2.9,M,-31.4,M,,*5F
$PYRTM,2024,124.669648348808,15.779295758947
$GPGGA,160415.00,3524.7867,N,12106.2673,W,1,11,0.8,4.2,M,-31.4,M,,*56
$PYRTM,2024,124.669659460382,15.779306870521
$GPGGA,160416.00,3524.7858,N,12106.2647,W,1,11,0.8,6.5,M,-31.4,M,,*5B
$PYRTM,2024,124.669670441794,15.779317851933
$GPGGA,160417.00,3524.7849,N,12106.2621,W,1,11,0.8,5.8,M,-31.4,M,,*54
$PYRTM,2024,124.669681552315,15.779328962454
$GPGGA,160418.00,3524.7841,N,12106.2596,W,1,11,0.8,5.3,M,-31.4,M,,*57
$PYRTM,2024,124.669692663877,15.779340074016
$GPGGA,160419.00,3524.7832,N,12106.2572,W,1,11,0.8,6.5,M,-31.4,M,,*5D
$PYRTM,2024,124.669703774630,15.779351184769
$GPGGA,160420.00,3524.7823,N,12106.2547,W,1,11,0.8,3.8,M,-31.4,M,,*59
$PYRTM,2024,124.669714886563,15.779362296701
$GPGGA,160421.00,3524.7815,N,12106.2522,W,1,11,0.8,0.9,M,-31.4,M,,*5C
$PYRTM,2024,124.669725997373,15.779373407512
$GPGGA,160422.00,3524.7807,N,12106.2496,W,1,11,0.8,3.7,M,-31.4,M,,*5F
$PYRTM,2024,124.669737108657,15.779384518796
$GPGGA,160423.00,3524.7801,N,12106.2469,W,1,11,0.8,3.8,M,-31.4,M,,*57
$PYRTM,2024,124.669748220914,15.779395631053
$GPGGA,160424.00,3524.7793,N,12106.2441,W,1,11,0.8,5.3,M,-31.4,M,,*53
$PYRTM,2024,124.669759331123,15.779406741250
$GPGGA,160425.00,3524.7784,N,12106.2414,W,1,11,0.8,4.8,M,-31.4,M,,*5E
$PYRTM,2024,124.669770441863,15.779417852002
$GPGGA,160426.00,3524.7774,N,12106.2388,W,1,11,0.8,5.5,M,-31.4,M,,*5C
$PYRTM,2024,124.669783072488,15.779430482627
$GPGGA,160427.00,3524.7765,N,12106.2362,W,1,11,0.8,10.1,M,-31.4,M,,*69
$PYRTM,2024,124.669795212593,15.779442622731
$GPGGA,160428.00,3524.7756,N,12106.2336,W,1,11,0.8,9.9,M,-31.4,M,,*57
$PYRTM,2024,124.669804141979,15.779451552118
$GPGGA,160429.00,3524.7747,N,12106.2310,W,1,11,0.8,7.6,M,-31.4,M,,*53
$PYRTM,2024,124.669815250359,15.779462660498
$GPGGA,160430.00,3524.7739,N,12106.2284,W,1,11,0.8,5.8,M,-31.4,M,,*52
$PYRTM,2024,124.669826347257,15.779473757396
$GPGGA,160431.00,3524.7729,N,12106.2258,W,1,11,0.8,7.2,M,-31.4,M,,*5B
$PYRTM,2024,124.669837464653,15.779484874792
$GPGGA,160432.00,3524.7721,N,12106.2232,W,1,11,0.8,6.1,M,-31.4,M,,*5E
$PYRTM,2024,124.669848581887,15.779495992025
$GPGGA,160433.00,3524.7712,N,12106.2205,W,1,11,0.8,4.0,M,-31.4,M,,*58
$PYRTM,2024,124.669860026840,15.779507436979
$GPGGA,160434.00,3524.7703,N,12106.2178,W,1,11,0.8,5.3,M,-31.4,M,,*54
$PYRTM,2024,124.669871137766,15.779518547905
$GPGGA,160435.00,3524.7694,N,12106.2150,W,1,11,0.8,4.2,M,-31.4,M,,*50
$PYRTM,2024,124.669882250544,15.779529660683
$GPGGA,160436.00,3524.7685,N,12106.2124,W,1,11,0.8,5.5,M,-31.4,M,,*56
$PYRTM,2024,124.669893361840,15.779540771979
$GPGGA,160437.00,3524.7676,N,12106.2098,W,1,11,0.8,4.0,M,-31.4,M,,*59
$PYRTM,2024,124.669904831389,15.779552241528
$GPGGA,160438.00,3524.7665,N,12106.2071,W,1,11,0.8,5.0,M,-31.4,M,,*52
$PYRTM,2024,124.669916406227,15.779563816366
$GPGGA,160439.00,3524.7657,N,12106.2045,W,1,11,0.8,8.8,M,-31.4,M,,*50
$PYRTM,2024,124.669927983148,15.779575393287
$GPGGA,160440.00,3524.7648,N,12106.2018,W,1,11,0.8,7.1,M,-31.4,M,,*5E
$PYRTM,2024,124.669939557269,15.779586967407
$GPGGA,160441.00,3524.7638,N,12106.1991,W,1,11,0.8,7.2,M,-31.4,M,,*50
$PYRTM,2024,124.669951128762,15.779598538900
$GPGGA,160442.00,3524.7627,N,12106.1964,W,1,11,0.8,5.8,M,-31.4,M,,*5F
$PYRTM,2024,124.669962703808,15.779610113947
$GPGGA,160443.00,3524.7617,N,12106.1937,W,1,11,0.8,3.6,M,-31.4,M,,*53
$PYRTM,2024,124.669974292396,15.779621702535
$GPGGA,160444.00,3524.7609,N,12106.1910,W,1,11,0.8,5.8,M,-31.4,M,,*56
$PYRTM,2024,124.669985852118,15.779633262257
$GPGGA,160445.00,3524.7600,N,12106.1882,W,1,11,0.8,7.6,M,-31.4,M,,*58
$PYRTM,2024,124.669997428437,15.779644838576
$GPGGA,160446.00,3524.7590,N,12106.1854,W,1,11,0.8,3.8,M,-31.4,M,,*50
$PYRTM,2024,124.670008999722,15.779656409861
$GPGGA,160447.00,3524.7578,N,12106.1829,W,1,11,0.8,3.9,M,-31.4,M,,*5C
$PYRTM,2024,124.670020568796,15.779667978935
$GPGGA,160448.00,3524.7568,N,12106.1804,W,1,11,0.8,5.9,M,-31.4,M,,*5B
$PYRTM,2024,124.670032143391,15.779679553530
$GPGGA,160449.00,3524.7559,N,12106.1777,W,1,11,0.8,8.7,M,-31.4,M,,*50
$PYRTM,2024,124.670043722569,15.779691132720
$GPGGA,160450.00,3524.7552,N,12106.1750,W,1,11,0.8,8.9,M,-31.4,M,,*58
$PYRTM,2024,124.670055294062,15.779702704201
$GPGGA,160451.00,3524.7544,N,12106.1723,W,1,11,0.8,8.9,M,-31.4,M,,*5A
$PYRTM,2024,124.670066871088,15.779714281227
$GPGGA,160452.00,3524.7534,N,12106.1698,W,1,11,0.8,8.6,M,-31.4,M,,*50
$PYRTM,2024,124.670078445903,15.779725856042
$GPGGA,160453.00,3524.7524,N,12106.1673,W,1,11,0.8,7.7,M,-31.4,M,,*5B
$PYRTM,2024,124.670090019016,15.779737429155
$GPGGA,160454.00,3524.7515,N,12106.1646,W,1,11,0.8,10.4,M,-31.4,M,,*6D
$PYRTM,2024,124.670101592905,15.779749003056
$GPGGA,160455.00,3524.7507,N,12106.1620,W,1,11,0.8,9.9,M,-31.4,M,,*5A
$PYRTM,2024,124.670113180880,15.779760591019
$GPGGA,160456.00,3524.7500,N,12106.1592,W,1,11,0.8,8.6,M,-31.4,M,,*5A
$PYRTM,2024,124.670125885556,15.779773295694
$GPGGA,160457.00,3524.7491,N,12106.1566,W,1,11,0.8,8.0,M,-31.4,M,,*5F
$PYRTM,2024,124.670138501620,15.779785911759
$GPGGA,160458.00,3524.7481,N,12106.1540,W,1,11,0.8,7.8,M,-31.4,M,,*52
$PYRTM,2024,124.670147891100,15.779795301250
$GPGGA,160459.00,3524.7471,N,12106.1514,W,1,11,0.8,7.3,M,-31.4,M,,*56
$PYRTM,2024,124.670159463252,15.779806873391
$GPGGA,160500.00,3524.7463,N,12106.1487,W,1,11,0.8,8.0,M,-31.4,M,,*5F
$PYRTM,2024,124.670171038368,15.779818448507
$GPGGA,160501.00,3524.7456,N,12106.1460,W,1,11,0.8,7.5,M,-31.4,M,,*5B
$PYRTM,2024,124.670182613993,15.779830024132
$GPGGA,160502.00,3524.7448,N,12106.1433,W,1,11,0.8,6.0,M,-31.4,M,,*55
$PYRTM,2024,124.670194186597,15.779841596736
$GPGGA,160503.00,3524.7441,N,12106.1406,W,1,11,0.8,4.4,M,-31.4,M,,*5D
$PYRTM,2024,124.670205755625,15.779853165764
$GPGGA,160504.00,3524.7432,N,12106.1379,W,1,11,0.8,6.4,M,-31.4,M,,*53
$PYRTM,2024,124.670217333958,15.779864744109
$GPGGA,160505.00,3524.7423,N,12106.1353,W,1,11,0.8,8.3,M,-31.4,M,,*53
$PYRTM,2024,124.670228911609,15.779876321748
$GPGGA,160506.00,3524.7414,N,12106.1326,W,1,11,0.8,12.8,M,-31.4,M,,*66
$PYRTM,2024,124.670240483090,15.779887893229
$GPGGA,160507.00,3524.7406,N,12106.1299,W,1,11,0.8,12.4,M,-31.4,M,,*6D
$PYRTM,2024,124.670252059213,15.779899469352
$GPGGA,160508.00,3524.7397,N,12106.1273,W,1,11,0.8,11.1,M,-31.4,M,,*6F
$PYRTM,2024,124.670263631400,15.779911041539
$GPGGA,160509.00,3524.7387,N,12106.1248,W,1,11,0.8,10.6,M,-31.4,M,,*61
$PYRTM,2024,124.670275204317,15.779922614456
$GPGGA,160510.00,3524.7376,N,12106.1224,W,1,11,0.8,10.6,M,-31.4,M,,*6D
$PYRTM,2024,124.670286775602,15.779934185741
$GPGGA,160511.00,3524.7366,N,12106.1199,W,1,11,0.8,8.5,M,-31.4,M,,*52
$PYRTM,2024,124.670298354190,15.779945764329
$GPGGA,160512.00,3524.7358,N,12106.1173,W,1,11,0.8,5.9,M,-31.4,M,,*59
$PYRTM,2024,124.670309929745,15.779957339884
$GPGGA,160513.00,3524.7350,N,12106.1147,W,1,11,0.8,6.5,M,-31.4,M,,*58
$PYRTM,2024,124.670321501979,15.779968912118
$GPGGA,160514.00,3524.7341,N,12106.1120,W,1,11,0.8,4.9,M,-31.4,M,,*50
$PYRTM,2024,124.670333075486,15.779980485625
$GPGGA,160515.00,3524.7331,N,12106.1094,W,1,11,0.8,4.6,M,-31.4,M,,*57
$PYRTM,2024,124.670344649931,15.779992060069
$GPGGA,160516.00,3524.7322,N,12106.1067,W,1,11,0.8,6.5,M,-31.4,M,,*5B
$PYRTM,2024,124.670356557801,15.780003967940
$GPGGA,160517.00,3524.7314,N,12106.1040,W,1,11,0.8,7.9,M,-31.4,M,,*57
$PYRTM,2024,124.670367812836,15.780015222975
$GPGGA,160518.00,3524.7306,N,12106.1013,W,1,11,0.8,7.3,M,-31.4,M,,*57
$PYRTM,2024,124.670379367569,15.780026777720
$GPGGA,160519.00,3524.7297,N,12106.0986,W,1,11,0.8,5.3,M,-31.4,M,,*59
$PYRTM,2024,124.670390946331,15.780038356470
$GPGGA,160520.00,3524.7288,N,12106.0960,W,1,11,0.8,6.7,M,-31.4,M,,*52
$PYRTM,2024,124.670402521088,15.780049931238
$GPGGA,160521.00,3524.7278,N,12106.0933,W,1,11,0.8,12.1,M,-31.4,M,,*69
$PYRTM,2024,124.670414089757,15.780061499896
$GPGGA,160522.00,3524.7270,N,12106.0905,W,1,11,0.8,10.5,M,-31.4,M,,*61
$PYRTM,2024,124.670425667847,15.780073077986
$GPGGA,160523.00,3524.7262,N,12106.0879,W,1,11,0.8,13.3,M,-31.4,M,,*6C
$PYRTM,2024,124.670437245451,15.780084655590
$GPGGA,160524.00,3524.7255,N,12106.0852,W,1,11,0.8,10.0,M,-31.4,M,,*66
$PYRTM,2024,124.670448812720,15.780096222859
$GPGGA,160525.00,3524.7247,N,12106.0826,W,1,11,0.8,8.7,M,-31.4,M,,*59
$PYRTM,2024,124.670460391713,15.780107801852
$GPGGA,160526.00,3524.7237,N,12106.0798,W,1,11,0.8,6.0,M,-31.4,M,,*5E
$PYRTM,2024,124.670472994919,15.780120405058
$GPGGA,160527.00,3524.7228,N,12106.0771,W,1,11,0.8,5.0,M,-31.4,M,,*55
$PYRTM,2024,124.670485726493,15.780133136632
$GPGGA,160528.00,3524.7219,N,12106.0744,W,1,11,0.8,8.5,M,-31.4,M,,*56
$PYRTM,2024,124.670495108553,15.780142518692
$GPGGA,160529.00,3524.7210,N,12106.0717,W,1,11,0.8,5.2,M,-31.4,M,,*52
$PYRTM,2024,124.670506690683,15.780154100822
$GPGGA,160530.00,3524.7201,N,12106.0691,W,1,11,0.8,6.3,M,-31.4,M,,*57
$PYRTM,2024,124.670518256516,15.780165666655
$GPGGA,160531.00,3524.7192,N,12106.0664,W,1,11,0.8,4.0,M,-31.4,M,,*54
$PYRTM,2024,124.670529830637,15.780177240787
$GPGGA,160532.00,3524.7184,N,12106.0640,W,1,11,0.8,5.1,M,-31.4,M,,*56
$PYRTM,2024,124.670541410266,15.780188820405
$GPGGA,160533.00,3524.7175,N,12106.0615,W,1,11,0.8,3.3,M,-31.4,M,,*5D
$PYRTM,2024,124.670553443299,15.780200853437
$GPGGA,160534.00,3524.7166,N,12106.0590,W,1,11,0.8,3.2,M,-31.4,M,,*57
$PYRTM,2024,124.670564559155,15.780211969306
$GPGGA,160535.00,3524.7158,N,12106.0564,W,1,11,0.8,3.3,M,-31.4,M,,*51
$PYRTM,2024,124.670576132882,15.780223543032
$GPGGA,160536.00,3524.7149,N,12106.0537,W,1,11,0.8,3.8,M,-31.4,M,,*5F
$PYRTM,2024,124.670587701817,15.780235111956
$GPGGA,160537.00,3524.7141,N,12106.0510,W,1,11,0.8,6.3,M,-31.4,M,,*5D
$PYRTM,2024,124.670599281528,15.780246691667
$GPGGA,160538.00,3524.7131,N,12106.0482,W,1,11,0.8,7.3,M,-31.4,M,,*5E
$PYRTM,2024,124.670610849398,15.780258259549
$GPGGA,160539.00,3524.7122,N,12106.0454,W,1,11,0.8,8.4,M,-31.4,M,,*5E
$PYRTM,2024,124.670622432384,15.780269842523
$GPGGA,160540.00,3524.7113,N,12106.0427,W,1,11,0.8,7.8,M,-31.4,M,,*55
$PYRTM,2024,124.670634003241,15.780281413380
$GPGGA,160541.00,3524.7105,N,12106.0401,W,1,11,0.8,8.1,M,-31.4,M,,*51
$PYRTM,2024,124.670645580995,15.780292991134
$GPGGA,160542.00,3524.7097,N,12106.0374,W,1,11,0.8,9.9,M,-31.4,M,,*54
$PYRTM,2024,124.670657150579,15.780304560718
$GPGGA,160543.00,3524.7089,N,12106.0347,W,1,11,0.8,8.6,M,-31.4,M,,*54
$PYRTM,2024,124.670668725752,15.780316135891
$GPGGA,160544.00,3524.7079,N,12106.0321,W,1,11,0.8,10.3,M,-31.4,M,,*60
$PYRTM,2024,124.670680299884,15.780327710023
$GPGGA,160545.00,3524.7069,N,12106.0295,W,1,11,0.8,8.8,M,-31.4,M,,*5C
$PYRTM,2024,124.670691876169,15.780339286308
$GPGGA,160546.00,3524.7061,N,12106.0269,W,1,11,0.8,7.2,M,-31.4,M,,*51
$PYRTM,2024,124.670703449074,15.780350859213
$GPGGA,160547.00,3524.7054,N,12106.0241,W,1,11,0.8,7.7,M,-31.4,M,,*59
$PYRTM,2024,124.670715017269,15.780362427407
$GPGGA,160548.00,3524.7046,N,12106.0214,W,1,11,0.8,9.5,M,-31.4,M,,*59
$PYRTM,2024,124.670726597072,15.780374007211
$GPGGA,160549.00,3524.7036,N,12106.0187,W,1,11,0.8,10.4,M,-31.4,M,,*6F
$PYRTM,2024,124.670738170359,15.780385580498
$GPGGA,160550.00,3524.7026,N,12106.0159,W,1,11,0.8,10.0,M,-31.4,M,,*61
$PYRTM,2024,124.670749744826,15.780397154965
$GPGGA,160551.00,3524.7016,N,12106.0133,W,1,11,0.8,10.4,M,-31.4,M,,*6B
$PYRTM,2024,124.670761323322,15.780408733461
$GPGGA,160552.00,3524.7007,N,12106.0106,W,1,11,0.8,11.8,M,-31.4,M,,*63
$PYRTM,2024,124.670772893218,15.780420303368
$GPGGA,160553.00,3524.7000,N,12106.0078,W,1,11,0.8,9.0,M,-31.4,M,,*5C
$PYRTM,2024,124.670784470567,15.780431880706
$GPGGA,160554.00,3524.6991,N,12106.0051,W,1,11,0.8,7.8,M,-31.4,M,,*56
$PYRTM,2024,124.670796042164,15.780443452303
$GPGGA,160555.00,3524.6982,N,12106.0026,W,1,11,0.8,9.4,M,-31.4,M,,*57
$PYRTM,2024,124.670807615012,15.780455025150
$GPGGA,160556.00,3524.6974,N,12106.0002,W,1,11,0.8,8.2,M,-31.4,M,,*5C
$PYRTM,2024,124.670820217951,15.780467628090
$GPGGA,160557.00,3524.6966,N,12105.9976,W,1,11,0.8,8.5,M,-31.4,M,,*59
$PYRTM,2024,124.670832950741,15.780480360880
$GPGGA,160558.00,3524.6957,N,12105.9950,W,1,11,0.8,7.2,M,-31.4,M,,*58
$PYRTM,2024,124.670842338345,15.780489748484
$GPGGA,160559.00,3524.6948,N,12105.9924,W,1,11,0.8,6.0,M,-31.4,M,,*57
$PYRTM,2024,124.670853911933,15.780501322072
$GPGGA,160600.00,3524.6939,N,12105.9898,W,1,11,0.8,5.6,M,-31.4,M,,*5D
$PYRTM,2024,124.670865485382,15.780512895532
$GPGGA,160601.00,3524.6929,N,12105.9870,W,1,11,0.8,5.9,M,-31.4,M,,*54
$PYRTM,2024,124.670877060081,15.780524470220
$GPGGA,160602.00,3524.6920,N,12105.9842,W,1,11,0.8,7.1,M,-31.4,M,,*55
$PYRTM,2024,124.670888633854,15.780536043993
$GPGGA,160603.00,3524.6912,N,12105.9815,W,1,11,0.8,8.5,M,-31.4,M,,*5C
$PYRTM,2024,124.670900551447,15.780547961586
$GPGGA,160604.00,3524.6904,N,12105.9789,W,1,11,0.8,6.6,M,-31.4,M,,*5B
$PYRTM,2024,124.670911781620,15.780559191759
$GPGGA,160605.00,3524.6897,N,12105.9762,W,1,11,0.8,8.5,M,-31.4,M,,*59
$PYRTM,2024,124.670923352072,15.780570762211
$GPGGA,160606.00,3524.6889,N,12105.9735,W,1,11,0.8,9.2,M,-31.4,M,,*51
$PYRTM,2024,124.670933298634,15.780580708773
$GPGGA,160607.00,3524.6881,N,12105.9708,W,1,11,0.8,10.2,M,-31.4,M,,*6E
$PYRTM,2024,124.670945335683,15.780592745822
$GPGGA,160608.00,3524.6874,N,12105.9683,W,1,11,0.8,6.2,M,-31.4,M,,*5E
$PYRTM,2024,124.670956106019,15.780603516157
$GPGGA,160609.00,3524.6866,N,12105.9656,W,1,11,0.8,7.2,M,-31.4,M,,*55
$PYRTM,2024,124.670967107037,15.780614517176
$GPGGA,160610.00,3524.6856,N,12105.9630,W,1,11,0.8,8.8,M,-31.4,M,,*5B
$PYRTM,2024,124.670978216898,15.780625627049
$GPGGA,160611.00,3524.6846,N,12105.9603,W,1,11,0.8,6.6,M,-31.4,M,,*5B
$PYRTM,2024,124.670989332928,15.780636743067
$GPGGA,160612.00,3524.6836,N,12105.9577,W,1,11,0.8,10.7,M,-31.4,M,,*69
$PYRTM,2024,124.671000439896,15.780647850035
$GPGGA,160613.00,3524.6827,N,12105.9550,W,1,11,0.8,12.0,M,-31.4,M,,*68
$PYRTM,2024,124.671011557269,15.780658967407
$GPGGA,160614.00,3524.6817,N,12105.9523,W,1,11,0.8,13.7,M,-31.4,M,,*6E
$PYRTM,2024,124.671022657778,15.780670067917
$GPGGA,160615.00,3524.6808,N,12105.9497,W,1,11,0.8,13.3,M,-31.4,M,,*6B
$PYRTM,2024,124.671033894132,15.780681304271
$GPGGA,160616.00,3524.6800,N,12105.9471,W,1,11,0.8,16.0,M,-31.4,M,,*6E
$PYRTM,2024,124.671045336169,15.780692746308
$GPGGA,160617.00,3524.6791,N,12105.9444,W,1,11,0.8,14.6,M,-31.4,M,,*6A
$PYRTM,2024,124.671056923669,15.780704333819
$GPGGA,160618.00,3524.6781,N,12105.9417,W,1,11,0.8,12.7,M,-31.4,M,,*65
$PYRTM,2024,124.671068483692,15.780715893831
$GPGGA,160619.00,3524.6772,N,12105.9391,W,1,11,0.8,12.3,M,-31.4,M,,*65
$PYRTM,2024,124.671080069329,15.780727479468
$GPGGA,160620.00,3524.6762,N,12105.9364,W,1,11,0.8,10.1,M,-31.4,M,,*64
$PYRTM,2024,124.671091632454,15.780739042593
$GPGGA,160621.00,3524.6753,N,12105.9339,W,1,11,0.8,10.9,M,-31.4,M,,*67
$PYRTM,2024,124.671103218993,15.780750629132
$GPGGA,160622.00,3524.6744,N,12105.9312,W,1,11,0.8,10.4,M,-31.4,M,,*66
$PYRTM,2024,124.671114780093,15.780762190231
$GPGGA,160623.00,3524.6736,N,12105.9286,W,1,11,0.8,11.8,M,-31.4,M,,*63
$PYRTM,2024,124.671126370104,15.780773780243
$GPGGA,160624.00,3524.6728,N,12105.9259,W,1,11,0.8,14.8,M,-31.4,M,,*6C
$PYRTM,2024,124.671137928102,15.780785338241
$GPGGA,160625.00,3524.6719,N,12105.9233,W,1,11,0.8,11.9,M,-31.4,M,,*67
$PYRTM,2024,124.671149519109,15.780796929248
$GPGGA,160626.00,3524.6710,N,12105.9206,W,1,11,0.8,12.2,M,-31.4,M,,*63
$PYRTM,2024,124.671161078206,15.780808488345
$GPGGA,160627.00,3524.6702,N,12105.9179,W,1,11,0.8,8.8,M,-31.4,M,,*5B
$PYRTM,2024,124.671176931204,15.780824341343
$GPGGA,160628.00,3524.6694,N,12105.9152,W,1,11,0.8,11.5,M,-31.4,M,,*66
$PYRTM,2024,124.671188407269,15.780835817407
$GPGGA,160629.00,3524.6685,N,12105.9125,W,1,11,0.8,8.3,M,-31.4,M,,*59
$PYRTM,2024,124.671199966111,15.780847376262
$GPGGA,160630.00,3524.6675,N,12105.9099,W,1,11,0.8,7.4,M,-31.4,M,,*50
$PYRTM,2024,124.671211547407,15.780858957546
$GPGGA,160631.00,3524.6666,N,12105.9073,W,1,11,0.8,5.7,M,-31.4,M,,*56
$PYRTM,2024,124.671223113924,15.780870524063
$GPGGA,160632.00,3524.6657,N,12105.9046,W,1,11,0.8,4.1,M,-31.4,M,,*56
$PYRTM,2024,124.671234705579,15.780882115718
$GPGGA,160633.00,3524.6649,N,12105.9019,W,1,11,0.8,5.5,M,-31.4,M,,*57
$PYRTM,2024,124.671246733183,15.780894143322
$GPGGA,160634.00,3524.6642,N,12105.8991,W,1,11,0.8,8.2,M,-31.4,M,,*59
$PYRTM,2024,124.671257849190,15.780905259329
$GPGGA,160635.00,3524.6633,N,12105.8964,W,1,11,0.8,9.9,M,-31.4,M,,*5E
$PYRTM,2024,124.671269410451,15.780916820590
$GPGGA,160636.00,3524.6623,N,12105.8938,W,1,11,0.8,7.9,M,-31.4,M,,*5B
$PYRTM,2024,124.671281113785,15.780928523924
$GPGGA,160637.00,3524.6613,N,12105.8912,W,1,11,0.8,10.5,M,-31.4,M,,*6B
$PYRTM,2024,124.671292558542,15.780939968692
$GPGGA,160638.00,3524.6605,N,12105.8886,W,1,11,0.8,8.8,M,-31.4,M,,*5B
$PYRTM,2024,124.671304140532,15.780951550671
$GPGGA,160639.00,3524.6598,N,12105.8860,W,1,11,0.8,9.5,M,-31.4,M,,*59
$PYRTM,2024,124.671315707905,15.780963118044
$GPGGA,160640.00,3524.6591,N,12105.8833,W,1,11,0.8,8.0,M,-31.4,M,,*5C
$PYRTM,2024,124.671327295926,15.780974706065
$GPGGA,160641.00,3524.6582,N,12105.8808,W,1,11,0.8,5.9,M,-31.4,M,,*53
$PYRTM,2024,124.671338970394,15.780986380532
$GPGGA,160642.00,3524.6573,N,12105.8784,W,1,11,0.8,10.0,M,-31.4,M,,*68
$PYRTM,2024,124.671350442222,15.780997852361
$GPGGA,160643.00,3524.6564,N,12105.8758,W,1,11,0.8,7.0,M,-31.4,M,,*58
$PYRTM,2024,124.671362004063,15.781009414213
$GPGGA,160644.00,3524.6557,N,12105.8732,W,1,11,0.8,6.8,M,-31.4,M,,*5A
$PYRTM,2024,124.671373594051,15.781021004190
$GPGGA,160645.00,3524.6549,N,12105.8705,W,1,11,0.8,7.3,M,-31.4,M,,*5A
$PYRTM,2024,124.671385153252,15.781032563391
$GPGGA,160646.00,3524.6541,N,12105.8679,W,1,11,0.8,6.8,M,-31.4,M,,*51
$PYRTM,2024,124.671396738669,15.781044148808
$GPGGA,160647.00,3524.6531,N,12105.8652,W,1,11,0.8,6.5,M,-31.4,M,,*53
$PYRTM,2024,124.671408299838,15.781055709988
$GPGGA,160648.00,3524.6522,N,12105.8625,W,1,11,0.8,7.3,M,-31.4,M,,*59
$PYRTM,2024,124.671419886551,15.781067296690
$GPGGA,160649.00,3524.6514,N,12105.8597,W,1,11,0.8,7.5,M,-31.4,M,,*51
$PYRTM,2024,124.671431447616,15.781078857755
$GPGGA,160650.00,3524.6505,N,12105.8570,W,1,11,0.8,3.8,M,-31.4,M,,*59
$PYRTM,2024,124.671443037153,15.781090447292
$GPGGA,160651.00,3524.6494,N,12105.8544,W,1,11,0.8,10.7,M,-31.4,M,,*6B
$PYRTM,2024,124.671454595880,15.781102006019
$GPGGA,160652.00,3524.6484,N,12105.8518,W,1,11,0.8,11.9,M,-31.4,M,,*6F
$PYRTM,2024,124.671466183287,15.781113593426
$GPGGA,160653.00,3524.6475,N,12105.8492,W,1,11,0.8,10.8,M,-31.4,M,,*63
$PYRTM,2024,124.671477744178,15.781125154317
$GPGGA,160654.00,3524.6467,N,12105.8465,W,1,11,0.8,10.6,M,-31.4,M,,*61
$PYRTM,2024,124.671489332708,15.781136742847
$GPGGA,160655.00,3524.6459,N,12105.8438,W,1,11,0.8,9.1,M,-31.4,M,,*5A
$PYRTM,2024,124.671500892095,15.781148302234
$GPGGA,160656.00,3524.6451,N,12105.8412,W,1,11,0.8,9.5,M,-31.4,M,,*5D
$PYRTM,2024,124.671514103032,15.781161513171
$GPGGA,160657.00,3524.6442,N,12105.8384,W,1,11,0.8,9.3,M,-31.4,M,,*50
$PYRTM,2024,124.671525212813,15.781172622951
$GPGGA,160658.00,3524.6431,N,12105.8358,W,1,11,0.8,10.0,M,-31.4,M,,*61
$PYRTM,2024,124.671536785451,15.781184195602
$GPGGA,160659.00,3524.6422,N,12105.8330,W,1,11,0.8,10.3,M,-31.4,M,,*6F
$PYRTM,2024,124.671548359537,15.781195769676
$GPGGA,160700.00,3524.6414,N,12105.8303,W,1,11,0.8,11.1,M,-31.4,M,,*64
$PYRTM,2024,124.671559934699,15.781207344838
$GPGGA,160701.00,3524.6407,N,12105.8275,W,1,11,0.8,12.0,M,-31.4,M,,*65
$PYRTM,2024,124.671571508831,15.781218918970
$GPGGA,160702.00,3524.6400,N,12105.8247,W,1,11,0.8,13.4,M,-31.4,M,,*65
$PYRTM,2024,124.671583081887,15.781230492025
$GPGGA,160703.00,3524.6393,N,12105.8221,W,1,11,0.8,15.1,M,-31.4,M,,*6A
$PYRTM,2024,124.671595119468,15.781242529606
$GPGGA,160704.00,3524.6385,N,12105.8194,W,1,11,0.8,15.6,M,-31.4,M,,*60
$PYRTM,2024,124.671606231019,15.781253641157
$GPGGA,160705.00,3524.6378,N,12105.8167,W,1,11,0.8,14.1,M,-31.4,M,,*69
$PYRTM,2024,124.671617805278,15.781265215417
$GPGGA,160706.00,3524.6369,N,12105.8141,W,1,11,0.8,14.3,M,-31.4,M,,*6C
$PYRTM,2024,124.671629379039,15.781276789178
$GPGGA,160707.00,3524.6361,N,12105.8113,W,1,11,0.8,11.0,M,-31.4,M,,*64
$PYRTM,2024,124.671640954514,15.781288364653
$GPGGA,160708.00,3524.6353,N,12105.8087,W,1,11,0.8,10.5,M,-31.4,M,,*62
$PYRTM,2024,124.671652527512,15.781299937650
$GPGGA,160709.00,3524.6345,N,12105.8061,W,1,11,0.8,10.1,M,-31.4,M,,*68
$PYRTM,2024,124.671664097164,15.781311507303
$GPGGA,160710.00,3524.6337,N,12105.8033,W,1,11,0.8,10.7,M,-31.4,M,,*64
$PYRTM,2024,124.671675675220,15.781323085359
$GPGGA,160711.00,3524.6330,N,12105.8006,W,1,11,0.8,11.7,M,-31.4,M,,*65
$PYRTM,2024,124.671687249236,15.781334659375
$GPGGA,160712.00,3524.6323,N,12105.7979,W,1,11,0.8,15.0,M,-31.4,M,,*69
$PYRTM,2024,124.671698823854,15.781346233993
$GPGGA,160713.00,3524.6315,N,12105.7952,W,1,11,0.8,15.7,M,-31.4,M,,*63
$PYRTM,2024,124.671710400961,15.781357811111
$GPGGA,160714.00,3524.6307,N,12105.7925,W,1,11,0.8,13.5,M,-31.4,M,,*63
$PYRTM,2024,124.671721973056,15.781369383194
$GPGGA,160715.00,3524.6298,N,12105.7898,W,1,11,0.8,13.5,M,-31.4,M,,*62
$PYRTM,2024,124.671733560764,15.781380970914
$GPGGA,160716.00,3524.6290,N,12105.7871,W,1,11,0.8,11.7,M,-31.4,M,,*6E
$PYRTM,2024,124.671745121574,15.781392531713
$GPGGA,160717.00,3524.6282,N,12105.7844,W,1,11,0.8,11.4,M,-31.4,M,,*69
$PYRTM,2024,124.671756699120,15.781404109259
$GPGGA,160718.00,3524.6273,N,12105.7816,W,1,11,0.8,11.9,M,-31.4,M,,*62
$PYRTM,2024,124.671768263773,15.781415673924
$GPGGA,160719.00,3524.6264,N,12105.7790,W,1,11,0.8,12.7,M,-31.4,M,,*69
$PYRTM,2024,124.671779837697,15.781427247847
$GPGGA,160720.00,3524.6255,N,12105.7763,W,1,11,0.8,12.2,M,-31.4,M,,*68
$PYRTM,2024,124.671791416400,15.781438826539
$GPGGA,160721.00,3524.6245,N,12105.7736,W,1,11,0.8,11.5,M,-31.4,M,,*6C
$PYRTM,2024,124.671802992141,15.781450402280
$GPGGA,160722.00,3524.6237,N,12105.7708,W,1,11,0.8,12.2,M,-31.4,M,,*63
$PYRTM,2024,124.671814563843,15.781461973981
$GPGGA,160723.00,3524.6228,N,12105.7681,W,1,11,0.8,13.6,M,-31.4,M,,*69
$PYRTM,2024,124.671826140278,15.781473550417
$GPGGA,160724.00,3524.6220,N,12105.7654,W,1,11,0.8,13.0,M,-31.4,M,,*68
$PYRTM,2024,124.671837713762,15.781485123900
$GPGGA,160725.00,3524.6211,N,12105.7626,W,1,11,0.8,11.3,M,-31.4,M,,*6F
$PYRTM,2024,124.671849287407,15.781496697546
$GPGGA,160726.00,3524.6202,N,12105.7599,W,1,11,0.8,12.0,M,-31.4,M,,*69
$PYRTM,2024,124.671861891447,15.781509301586
$GPGGA,160727.00,3524.6194,N,12105.7571,W,1,11,0.8,12.2,M,-31.4,M,,*60
$PYRTM,2024,124.671874624606,15.781522034745
$GPGGA,160728.00,3524.6187,N,12105.7544,W,1,11,0.8,12.2,M,-31.4,M,,*6B
$PYRTM,2024,124.671884009282,15.781531419421
$GPGGA,160729.00,3524.6179,N,12105.7517,W,1,11,0.8,10.5,M,-31.4,M,,*68
$PYRTM,2024,124.671895598461,15.781543008600
$GPGGA,160730.00,3524.6170,N,12105.7491,W,1,11,0.8,8.5,M,-31.4,M,,*5F
$PYRTM,2024,124.671907157928,15.781554568067
$GPGGA,160731.00,3524.6161,N,12105.7465,W,1,11,0.8,9.0,M,-31.4,M,,*51
$PYRTM,2024,124.671918732535,15.781566142674
$GPGGA,160732.00,3524.6153,N,12105.7438,W,1,11,0.8,10.8,M,-31.4,M,,*6B
$PYRTM,2024,124.671930307801,15.781577717940
$GPGGA,160733.00,3524.6145,N,12105.7412,W,1,11,0.8,13.0,M,-31.4,M,,*6E
$PYRTM,2024,124.671942341921,15.781589752060
$GPGGA,160734.00,3524.6137,N,12105.7386,W,1,11,0.8,13.5,M,-31.4,M,,*63
$PYRTM,2024,124.671953454329,15.781600864479
$GPGGA,160735.00,3524.6129,N,12105.7361,W,1,11,0.8,13.3,M,-31.4,M,,*62
$PYRTM,2024,124.671965031238,15.781612441377
$GPGGA,160736.00,3524.6120,N,12105.7334,W,1,11,0.8,11.2,M,-31.4,M,,*6B
$PYRTM,2024,124.671976603449,15.781624013600
$GPGGA,160737.00,3524.6112,N,12105.7308,W,1,11,0.8,9.8,M,-31.4,M,,*57
$PYRTM,2024,124.671988177546,15.781635587685
$GPGGA,160738.00,3524.6104,N,12105.7281,W,1,11,0.8,9.7,M,-31.4,M,,*50
$PYRTM,2024,124.671999750903,15.781647161042
$GPGGA,160739.00,3524.6096,N,12105.7253,W,1,11,0.8,8.3,M,-31.4,M,,*51
$PYRTM,2024,124.672011328287,15.781658738437
$GPGGA,160740.00,3524.6088,N,12105.7225,W,1,11,0.8,8.2,M,-31.4,M,,*50
$PYRTM,2024,124.672022900069,15.781670310208
$GPGGA,160741.00,3524.6078,N,12105.7198,W,1,11,0.8,8.4,M,-31.4,M,,*5D
$PYRTM,2024,124.672034475868,15.781681886007
$GPGGA,160742.00,3524.6068,N,12105.7171,W,1,11,0.8,10.8,M,-31.4,M,,*6D
$PYRTM,2024,124.672046046806,15.781693456944
$GPGGA,160743.00,3524.6060,N,12105.7144,W,1,11,0.8,10.1,M,-31.4,M,,*6B
$PYRTM,2024,124.672057617396,15.781705027535
$GPGGA,160744.00,3524.6052,N,12105.7116,W,1,11,0.8,9.3,M,-31.4,M,,*50
$PYRTM,2024,124.672069190231,15.781716600370
$GPGGA,160745.00,3524.6044,N,12105.7090,W,1,11,0.8,7.6,M,-31.4,M,,*52
$PYRTM,2024,124.672080769676,15.781728179815
$GPGGA,160746.00,3524.6036,N,12105.7063,W,1,11,0.8,8.6,M,-31.4,M,,*57
$PYRTM,2024,124.672092676898,15.781740087037
$GPGGA,160747.00,3524.6027,N,12105.7038,W,1,11,0.8,8.8,M,-31.4,M,,*56
$PYRTM,2024,124.672103918738,15.781751328877
$GPGGA,160748.00,3524.6019,N,12105.7012,W,1,11,0.8,7.9,M,-31.4,M,,*52
$PYRTM,2024,124.672115491377,15.781762901516
$GPGGA,160749.00,3524.6011,N,12105.6985,W,1,11,0.8,6.9,M,-31.4,M,,*5C
$PYRTM,2024,124.672127065602,15.781774475741
$GPGGA,160750.00,3524.6003,N,12105.6959,W,1,11,0.8,7.8,M,-31.4,M,,*56
$PYRTM,2024,124.672138639907,15.781786050046
$GPGGA,160751.00,3524.5995,N,12105.6931,W,1,11,0.8,8.9,M,-31.4,M,,*52
$PYRTM,2024,124.672150219074,15.781797629213
$GPGGA,160752.00,3524.5985,N,12105.6903,W,1,11,0.8,9.3,M,-31.4,M,,*5A
$PYRTM,2024,124.672161789699,15.781809199838
$GPGGA,160753.00,3524.5977,N,12105.6875,W,1,11,0.8,9.4,M,-31.4,M,,*51
$PYRTM,2024,124.672173378009,15.781820788148
$GPGGA,160754.00,3524.5968,N,12105.6847,W,1,11,0.8,10.2,M,-31.4,M,,*67
$PYRTM,2024,124.672184936910,15.781832347060
$GPGGA,160755.00,3524.5961,N,12105.6820,W,1,11,0.8,10.6,M,-31.4,M,,*6A
$PYRTM,2024,124.672196511470,15.781843921609
$GPGGA,160756.00,3524.5953,N,12105.6794,W,1,11,0.8,13.1,M,-31.4,M,,*6C
$PYRTM,2024,124.672209114213,15.781856524352
$GPGGA,160757.00,3524.5945,N,12105.6768,W,1,11,0.8,10.9,M,-31.4,M,,*62
$PYRTM,2024,124.672221846285,15.781869256690
$GPGGA,160758.00,3524.5935,N,12105.6742,W,1,11,0.8,9.2,M,-31.4,M,,*51
$PYRTM,2024,124.672231234097,15.781878644236
$GPGGA,160759.00,3524.5927,N,12105.6716,W,1,11,0.8,10.3,M,-31.4,M,,*6B
$PYRTM,2024,124.672242795694,15.781890205833
$GPGGA,160800.00,3524.5919,N,12105.6690,W,1,11,0.8,9.6,M,-31.4,M,,*57
$PYRTM,2024,124.672254383657,15.781901793796
$GPGGA,160801.00,3524.5912,N,12105.6663,W,1,11,0.8,9.9,M,-31.4,M,,*5E
$PYRTM,2024,124.672265943646,15.781913353785
$GPGGA,160802.00,3524.5903,N,12105.6635,W,1,11,0.8,9.7,M,-31.4,M,,*50
$PYRTM,2024,124.672277529965,15.781924940104
$GPGGA,160803.00,3524.5894,N,12105.6608,W,1,11,0.8,8.2,M,-31.4,M,,*54
$PYRTM,2024,124.672289454826,15.781936864965
$GPGGA,160804.00,3524.5885,N,12105.6580,W,1,11,0.8,8.2,M,-31.4,M,,*50
$PYRTM,2024,124.672300680417,15.781948090567
$GPGGA,160805.00,3524.5878,N,12105.6551,W,1,11,0.8,9.5,M,-31.4,M,,*59
$PYRTM,2024,124.672312237350,15.781959647488
$GPGGA,160806.00,3524.5871,N,12105.6523,W,1,11,0.8,10.3,M,-31.4,M,,*68
$PYRTM,2024,124.672323828391,15.781971238530
$GPGGA,160807.00,3524.5863,N,12105.6495,W,1,11,0.8,9.9,M,-31.4,M,,*54
$PYRTM,2024,124.672335389259,15.781982799398
$GPGGA,160808.00,3524.5854,N,12105.6469,W,1,11,0.8,9.2,M,-31.4,M,,*57
$PYRTM,2024,124.672346974398,15.781994384537
$GPGGA,160809.00,3524.5844,N,12105.6444,W,1,11,0.8,9.7,M,-31.4,M,,*5D
$PYRTM,2024,124.672358535046,15.782005945185
$GPGGA,160810.00,3524.5836,N,12105.6417,W,1,11,0.8,9.6,M,-31.4,M,,*57
$PYRTM,2024,124.672370123646,15.782017533796
$GPGGA,160811.00,3524.5828,N,12105.6390,W,1,11,0.8,11.7,M,-31.4,M,,*69
$PYRTM,2024,124.672380757824,15.782028167963
$GPGGA,160812.00,3524.5819,N,12105.6364,W,1,11,0.8,11.8,M,-31.4,M,,*6C
$PYRTM,2024,124.672393719468,15.782041129606
$GPGGA,160813.00,3524.5810,N,12105.6338,W,1,11,0.8,10.3,M,-31.4,M,,*67
$PYRTM,2024,124.672404498183,15.782051908322
$GPGGA,160814.00,3524.5802,N,12105.6312,W,1,11,0.8,9.2,M,-31.4,M,,*52
$PYRTM,2024,124.672415610509,15.782063020648
$GPGGA,160815.00,3524.5793,N,12105.6286,W,1,11,0.8,9.0,M,-31.4,M,,*5A
$PYRTM,2024,124.672426721262,15.782074131400
$GPGGA,160816.00,3524.5784,N,12105.6261,W,1,11,0.8,8.7,M,-31.4,M,,*50
$PYRTM,2024,124.672437712419,15.782085122569
$GPGGA,160817.00,3524.5775,N,12105.6235,W,1,11,0.8,9.0,M,-31.4,M,,*58
$PYRTM,2024,124.672448822500,15.782096232639
$GPGGA,160818.00,3524.5767,N,12105.6208,W,1,11,0.8,8.3,M,-31.4,M,,*58
$PYRTM,2024,124.672459938553,15.782107348692
$GPGGA,160819.00,3524.5759,N,12105.6182,W,1,11,0.8,8.2,M,-31.4,M,,*54
$PYRTM,2024,124.672471048611,15.782118458750
$GPGGA,160820.00,3524.5752,N,12105.6155,W,1,11,0.8,10.3,M,-31.4,M,,*67
$PYRTM,2024,124.672482162812,15.782129572951
$GPGGA,160821.00,3524.5746,N,12105.6129,W,1,11,0.8,10.4,M,-31.4,M,,*6F
$PYRTM,2024,124.672493272199,15.782140682350
$GPGGA,160822.00,3524.5738,N,12105.6102,W,1,11,0.8,9.2,M,-31.4,M,,*52
$PYRTM,2024,124.672504380104,15.782151790243
$GPGGA,160823.00,3524.5731,N,12105.6075,W,1,11,0.8,10.0,M,-31.4,M,,*61
$PYRTM,2024,124.672516535671,15.782163945810
$GPGGA,160824.00,3524.5724,N,12105.6047,W,1,11,0.8,10.8,M,-31.4,M,,*6B
$PYRTM,2024,124.672527647789,15.782175057928
$GPGGA,160825.00,3524.5717,N,12105.6019,W,1,11,0.8,8.3,M,-31.4,M,,*53
$PYRTM,2024,124.672538644630,15.782186054769
$GPGGA,160826.00,3524.5710,N,12105.5992,W,1,11,0.8,8.3,M,-31.4,M,,*5E
$PYRTM,2024,124.672549973681,15.782197383819
$GPGGA,160827.00,3524.5700,N,12105.5966,W,1,11,0.8,8.1,M,-31.4,M,,*57
$PYRTM,2024,124.672565714838,15.782213124977
$GPGGA,160828.00,3524.5690,N,12105.5939,W,1,11,0.8,8.8,M,-31.4,M,,*53
$PYRTM,2024,124.672577302211,15.782224712350
$GPGGA,160829.00,3524.5681,N,12105.5911,W,1,11,0.8,8.9,M,-31.4,M,,*59
$PYRTM,2024,124.672588861586,15.782236271725
$GPGGA,160830.00,3524.5672,N,12105.5883,W,1,11,0.8,9.4,M,-31.4,M,,*5B
$PYRTM,2024,124.672600444086,15.782247854225
$GPGGA,160831.00,3524.5662,N,12105.5854,W,1,11,0.8,9.4,M,-31.4,M,,*51
$PYRTM,2024,124.672612010255,15.782259420394
$GPGGA,160832.00,3524.5652,N,12105.5827,W,1,11,0.8,9.0,M,-31.4,M,,*51
$PYRTM,2024,124.672623599051,15.782271009201
$GPGGA,160833.00,3524.5643,N,12105.5800,W,1,11,0.8,8.7,M,-31.4,M,,*53
$PYRTM,2024,124.672635633704,15.782283043843
$GPGGA,160834.00,3524.5634,N,12105.5774,W,1,11,0.8,9.3,M,-31.4,M,,*5D
$PYRTM,2024,124.672646747674,15.782294157812
$GPGGA,160835.00,3524.5623,N,12105.5749,W,1,11,0.8,9.9,M,-31.4,M,,*5E
$PYRTM,2024,124.672658307477,15.782305717616
$GPGGA,160836.00,3524.5614,N,12105.5723,W,1,11,0.8,8.9,M,-31.4,M,,*54
$PYRTM,2024,124.672670343333,15.782317753484
$GPGGA,160837.00,3524.5605,N,12105.5698,W,1,11,0.8,9.6,M,-31.4,M,,*5A
$PYRTM,2024,124.672681455035,15.782328865185
$GPGGA,160838.00,3524.5597,N,12105.5670,W,1,11,0.8,8.7,M,-31.4,M,,*5B
$PYRTM,2024,124.672693036563,15.782340446701
