$PYRTM,2024,127.333342422662,18.442989832801
$GPGGA,075959.00,3351.2048,N,11925.1160,W,1,08,1.0,8.5,M,-33.9,M,,*5B
$PYRTM,2024,127.333354010208,18.443001420347
$GPGGA,080000.00,3351.2030,N,11925.1149,W,1,08,1.0,6.6,M,-33.9,M,,*5D
$PYRTM,2024,127.333365571285,18.443012981424
$GPGGA,080001.00,3351.2012,N,11925.1137,W,1,08,1.0,8.9,M,-33.9,M,,*54
$PYRTM,2024,127.333377162257,18.443024572396
$GPGGA,080002.00,3351.1994,N,11925.1124,W,1,08,1.0,5.1,M,-33.9,M,,*54
$PYRTM,2024,127.333388719109,18.443036129259
$GPGGA,080003.00,3351.1976,N,11925.1111,W,1,08,1.0,4.9,M,-33.9,M,,*56
$PYRTM,2024,127.333400308356,18.443047718495
$GPGGA,080004.00,3351.1957,N,11925.1098,W,1,08,1.0,8.9,M,-33.9,M,,*5E
$PYRTM,2024,127.333411868507,18.443059278646
$GPGGA,080005.00,3351.1938,N,11925.1085,W,1,08,1.0,10.2,M,-33.9,M,,*68
$PYRTM,2024,127.333423455312,18.443070865451
$GPGGA,080006.00,3351.1920,N,11925.1071,W,1,08,1.0,8.6,M,-33.9,M,,*54
$PYRTM,2024,127.333435015822,18.443082425961
$GPGGA,080007.00,3351.1903,N,11925.1057,W,1,08,1.0,7.6,M,-33.9,M,,*5F
$PYRTM,2024,127.333446603310,18.443094013449
$GPGGA,080008.00,3351.1886,N,11925.1043,W,1,08,1.0,6.8,M,-33.9,M,,*56
$PYRTM,2024,127.333458166887,18.443105577025
$GPGGA,080009.00,3351.1869,N,11925.1030,W,1,08,1.0,6.2,M,-33.9,M,,*58
$PYRTM,2024,127.333469746806,18.443117156944
$GPGGA,080010.00,3351.1851,N,11925.1017,W,1,08,1.0,6.9,M,-33.9,M,,*55
$PYRTM,2024,127.333481311597,18.443128721736
$GPGGA,080011.00,3351.1833,N,11925.1004,W,1,08,1.0,7.7,M,-33.9,M,,*5D
$PYRTM,2024,127.333492899606,18.443140309757
$GPGGA,080012.00,3351.1815,N,11925.0993,W,1,08,1.0,8.2,M,-33.9,M,,*56
$PYRTM,2024,127.333504460579,18.443151870718
$GPGGA,080013.00,3351.1795,N,11925.0981,W,1,08,1.0,8.6,M,-33.9,M,,*57
$PYRTM,2024,127.333516043218,18.443163453356
$GPGGA,080014.00,3351.1776,N,11925.0967,W,1,08,1.0,10.5,M,-33.9,M,,*6F
$PYRTM,2024,127.333527609687,18.443175019826
$GPGGA,080015.00,3351.1758,N,11925.0952,W,1,08,1.0,10.7,M,-33.9,M,,*66
$PYRTM,2024,127.333539196447,18.443186606586
$GPGGA,080016.00,3351.1740,N,11925.0938,W,1,08,1.0,7.6,M,-33.9,M,,*57
$PYRTM,2024,127.333550756898,18.443198167049
$GPGGA,080017.00,3351.1722,N,11925.0925,W,1,08,1.0,10.1,M,-33.9,M,,*6F
$PYRTM,2024,127.333562344329,18.443209754468
$GPGGA,080018.00,3351.1702,N,11925.0914,W,1,08,1.0,8.0,M,-33.9,M,,*58
$PYRTM,2024,127.333573905035,18.443221315174
$GPGGA,080019.00,3351.1683,N,11925.0904,W,1,08,1.0,5.9,M,-33.9,M,,*54
$PYRTM,2024,127.333585494167,18.443232904306
$GPGGA,080020.00,3351.1667,N,11925.0892,W,1,08,1.0,7.2,M,-33.9,M,,*53
$PYRTM,2024,127.333597053113,18.443244463252
$GPGGA,080021.00,3351.1651,N,11925.0877,W,1,08,1.0,3.6,M,-33.9,M,,*5C
$PYRTM,2024,127.333608641076,18.443256051215
$GPGGA,080022.00,3351.1635,N,11925.0860,W,1,08,1.0,2.7,M,-33.9,M,,*5B
$PYRTM,2024,127.333620201227,18.443267611366
$GPGGA,080023.00,3351.1616,N,11925.0847,W,1,08,1.0,2.2,M,-33.9,M,,*5B
$PYRTM,2024,127.333631789977,18.443279200116
$GPGGA,080024.00,3351.1598,N,11925.0836,W,1,08,1.0,3.9,M,-33.9,M,,*55
$PYRTM,2024,127.333641971157,18.443289381296
$GPGGA,080025.00,3351.1581,N,11925.0824,W,1,08,1.0,2.0,M,-33.9,M,,*57
$PYRTM,2024,127.333653780255,18.443301190394
$GPGGA,080026.00,3351.1563,N,11925.0811,W,1,08,1.0,0.4,M,-33.9,M,,*58
$PYRTM,2024,127.333666497813,18.443313907951
$GPGGA,080027.00,3351.1545,N,11925.0797,W,1,08,1.0,3.3,M,-33.9,M,,*58
$PYRTM,2024,127.333678085718,18.443325495856
$GPGGA,080028.00,3351.1528,N,11925.0783,W,1,08,1.0,5.4,M,-33.9,M,,*58
$PYRTM,2024,127.333689645579,18.443337055718
$GPGGA,080029.00,3351.1511,N,11925.0770,W,1,08,1.0,3.3,M,-33.9,M,,*5E
$PYRTM,2024,127.333701228484,18.443348638623
$GPGGA,080030.00,3351.1494,N,11925.0757,W,1,08,1.0,2.0,M,-33.9,M,,*5D
$PYRTM,2024,127.333712795023,18.443360205162
$GPGGA,080031.00,3351.1475,N,11925.0744,W,1,08,1.0,3.4,M,-33.9,M,,*54
$PYRTM,2024,127.333724382396,18.443371792535
$GPGGA,080032.00,3351.1456,N,11925.0734,W,1,08,1.0,5.0,M,-33.9,M,,*53
$PYRTM,2024,127.333735943646,18.443383353785
$GPGGA,080033.00,3351.1438,N,11925.0723,W,1,08,1.0,3.7,M,-33.9,M,,*5D
$PYRTM,2024,127.333747531007,18.443394941157
$GPGGA,080034.00,3351.1421,N,11925.0708,W,1,08,1.0,6.4,M,-33.9,M,,*5D
$PYRTM,2024,127.333759092882,18.443406503021
$GPGGA,080035.00,3351.1404,N,11925.0696,W,1,08,1.0,5.4,M,-33.9,M,,*5E
$PYRTM,2024,127.333770674282,18.443418084421
$GPGGA,080036.00,3351.1386,N,11925.0686,W,1,08,1.0,7.5,M,-33.9,M,,*52
$PYRTM,2024,127.333782239803,18.443429649942
$GPGGA,080037.00,3351.1368,N,11925.0675,W,1,08,1.0,8.5,M,-33.9,M,,*50
$PYRTM,2024,127.333793823819,18.443441233958
$GPGGA,080038.00,3351.1350,N,11925.0664,W,1,08,1.0,8.5,M,-33.9,M,,*54
$PYRTM,2024,127.333805388206,18.443452798345
$GPGGA,080039.00,3351.1331,N,11925.0653,W,1,08,1.0,5.6,M,-33.9,M,,*58
$PYRTM,2024,127.333816977164,18.443464387303
$GPGGA,080040.00,3351.1312,N,11925.0640,W,1,08,1.0,5.2,M,-33.9,M,,*51
$PYRTM,2024,127.333827609826,18.443475019965
$GPGGA,080041.00,3351.1294,N,11925.0627,W,1,08,1.0,5.9,M,-33.9,M,,*55
$PYRTM,2024,127.333839532859,18.443486942998
$GPGGA,080042.00,3351.1276,N,11925.0614,W,1,08,1.0,5.9,M,-33.9,M,,*5A
$PYRTM,2024,127.333850304178,18.443497714329
$GPGGA,080043.00,3351.1259,N,11925.0600,W,1,08,1.0,8.5,M,-33.9,M,,*52
$PYRTM,2024,127.333861420289,18.443508830428
$GPGGA,080044.00,3351.1240,N,11925.0587,W,1,08,1.0,8.7,M,-33.9,M,,*53
$PYRTM,2024,127.333872979711,18.443520389850
$GPGGA,080045.00,3351.1223,N,11925.0575,W,1,08,1.0,8.3,M,-33.9,M,,*5E
$PYRTM,2024,127.333884091169,18.443531501308
$GPGGA,080046.00,3351.1206,N,11925.0562,W,1,08,1.0,7.2,M,-33.9,M,,*52
$PYRTM,2024,127.333895203704,18.443542613854
$GPGGA,080047.00,3351.1190,N,11925.0546,W,1,08,1.0,8.1,M,-33.9,M,,*55
$PYRTM,2024,127.333906316296,18.443553726447
$GPGGA,080048.00,3351.1174,N,11925.0530,W,1,08,1.0,9.4,M,-33.9,M,,*55
$PYRTM,2024,127.333917423785,18.443564833924
$GPGGA,080049.00,3351.1157,N,11925.0517,W,1,08,1.0,8.5,M,-33.9,M,,*50
$PYRTM,2024,127.333928537315,18.443575947454
$GPGGA,080050.00,3351.1139,N,11925.0507,W,1,08,1.0,7.9,M,-33.9,M,,*52
$PYRTM,2024,127.333939648380,18.443587058519
$GPGGA,080051.00,3351.1122,N,11925.0497,W,1,08,1.0,6.6,M,-33.9,M,,*5F
$PYRTM,2024,127.333958166840,18.443605576979
$GPGGA,080052.00,3351.1104,N,11925.0485,W,1,08,1.0,4.2,M,-33.9,M,,*5D
$PYRTM,2024,127.333969276400,18.443616686551
$GPGGA,080053.00,3351.1087,N,11925.0471,W,1,08,1.0,7.2,M,-33.9,M,,*5E
$PYRTM,2024,127.333980388507,18.443627798646
$GPGGA,080054.00,3351.1070,N,11925.0456,W,1,08,1.0,6.0,M,-33.9,M,,*57
$PYRTM,2024,127.333996014039,18.443643424178
$GPGGA,080055.00,3351.1049,N,11925.0443,W,1,08,1.0,5.9,M,-33.9,M,,*52
$PYRTM,2024,127.334007124884,18.443654535023
$GPGGA,080056.00,3351.1029,N,11925.0433,W,1,08,1.0,5.3,M,-33.9,M,,*5A
$PYRTM,2024,127.334018235718,18.443665645868
$GPGGA,080057.00,3351.1009,N,11925.0423,W,1,08,1.0,2.7,M,-33.9,M,,*5B
$PYRTM,2024,127.334029349294,18.443676759433
$GPGGA,080058.00,3351.0992,N,11925.0411,W,1,08,1.0,3.7,M,-33.9,M,,*5E
$PYRTM,2024,127.334040457731,18.443687867870
$GPGGA,080059.00,3351.0975,N,11925.0397,W,1,08,1.0,6.1,M,-33.9,M,,*5C
$PYRTM,2024,127.334051685810,18.443699095961
$GPGGA,080100.00,3351.0958,N,11925.0386,W,1,08,1.0,7.5,M,-33.9,M,,*5B
$PYRTM,2024,127.334062794838,18.443710204977
$GPGGA,080101.00,3351.0939,N,11925.0375,W,1,08,1.0,8.2,M,-33.9,M,,*59
$PYRTM,2024,127.334073906227,18.443721316377
$GPGGA,080102.00,3351.0922,N,11925.0363,W,1,08,1.0,4.1,M,-33.9,M,,*58
$PYRTM,2024,127.334085382546,18.443732792685
$GPGGA,080103.00,3351.0904,N,11925.0349,W,1,08,1.0,7.1,M,-33.9,M,,*56
$PYRTM,2024,127.334096490625,18.443743900764
$GPGGA,080104.00,3351.0885,N,11925.0333,W,1,08,1.0,6.4,M,-33.9,M,,*50
$PYRTM,2024,127.334107591794,18.443755001933
$GPGGA,080105.00,3351.0867,N,11925.0318,W,1,08,1.0,6.9,M,-33.9,M,,*59
$PYRTM,2024,127.334118817361,18.443766227500
$GPGGA,080106.00,3351.0848,N,11925.0306,W,1,08,1.0,6.8,M,-33.9,M,,*59
$PYRTM,2024,127.334129941250,18.443777351400
$GPGGA,080107.00,3351.0830,N,11925.0293,W,1,08,1.0,6.5,M,-33.9,M,,*57
$PYRTM,2024,127.334141050336,18.443788460475
$GPGGA,080108.00,3351.0812,N,11925.0279,W,1,08,1.0,6.9,M,-33.9,M,,*50
$PYRTM,2024,127.334152611586,18.443800021725
$GPGGA,080109.00,3351.0796,N,11925.0265,W,1,08,1.0,6.8,M,-33.9,M,,*5E
$PYRTM,2024,127.334164193924,18.443811604062
$GPGGA,080110.00,3351.0780,N,11925.0252,W,1,08,1.0,5.9,M,-33.9,M,,*57
$PYRTM,2024,127.334175758472,18.443823168611
$GPGGA,080111.00,3351.0762,N,11925.0238,W,1,08,1.0,7.5,M,-33.9,M,,*58
$PYRTM,2024,127.334187346725,18.443834756863
$GPGGA,080112.00,3351.0744,N,11925.0224,W,1,08,1.0,8.2,M,-33.9,M,,*5A
$PYRTM,2024,127.334198907789,18.443846317928
$GPGGA,080113.00,3351.0726,N,11925.0210,W,1,08,1.0,7.8,M,-33.9,M,,*5D
$PYRTM,2024,127.334210495521,18.443857905660
$GPGGA,080114.00,3351.0709,N,11925.0198,W,1,08,1.0,8.9,M,-33.9,M,,*5A
$PYRTM,2024,127.334222056898,18.443869467037
$GPGGA,080115.00,3351.0693,N,11925.0185,W,1,08,1.0,8.6,M,-33.9,M,,*5A
$PYRTM,2024,127.334233644363,18.443881054502
$GPGGA,080116.00,3351.0676,N,11925.0170,W,1,08,1.0,7.1,M,-33.9,M,,*50
$PYRTM,2024,127.334245204583,18.443892614734
$GPGGA,080117.00,3351.0659,N,11925.0156,W,1,08,1.0,8.5,M,-33.9,M,,*53
$PYRTM,2024,127.334256787130,18.443904197269
$GPGGA,080118.00,3351.0641,N,11925.0145,W,1,08,1.0,7.5,M,-33.9,M,,*58
$PYRTM,2024,127.334268352350,18.443915762488
$GPGGA,080119.00,3351.0623,N,11925.0135,W,1,08,1.0,5.6,M,-33.9,M,,*5B
$PYRTM,2024,127.334279940347,18.443927350486
$GPGGA,080120.00,3351.0604,N,11925.0122,W,1,08,1.0,6.1,M,-33.9,M,,*56
$PYRTM,2024,127.334291500799,18.443938910949
$GPGGA,080121.00,3351.0587,N,11925.0110,W,1,08,1.0,8.3,M,-33.9,M,,*52
$PYRTM,2024,127.334303084537,18.443950494676
$GPGGA,080122.00,3351.0571,N,11925.0098,W,1,08,1.0,6.0,M,-33.9,M,,*54
$PYRTM,2024,127.334314648738,18.443962058877
$GPGGA,080123.00,3351.0553,N,11925.0086,W,1,08,1.0,6.8,M,-33.9,M,,*52
$PYRTM,2024,127.334326239306,18.443973649444
$GPGGA,080124.00,3351.0535,N,11925.0074,W,1,08,1.0,8.5,M,-33.9,M,,*5B
$PYRTM,2024,127.334336421736,18.443983831875
$GPGGA,080125.00,3351.0516,N,11925.0062,W,1,08,1.0,7.6,M,-33.9,M,,*50
$PYRTM,2024,127.334348226748,18.443995636887
$GPGGA,080126.00,3351.0498,N,11925.0048,W,1,08,1.0,7.6,M,-33.9,M,,*5C
$PYRTM,2024,127.334360946516,18.444008356655
$GPGGA,080127.00,3351.0481,N,11925.0033,W,1,08,1.0,9.5,M,-33.9,M,,*54
$PYRTM,2024,127.334372536412,18.444019946562
$GPGGA,080128.00,3351.0464,N,11925.0020,W,1,08,1.0,11.3,M,-33.9,M,,*6D
$PYRTM,2024,127.334384094421,18.444031504560
$GPGGA,080129.00,3351.0446,N,11925.0008,W,1,08,1.0,9.9,M,-33.9,M,,*55
$PYRTM,2024,127.334395676458,18.444043086597
$GPGGA,080130.00,3351.0427,N,11924.9997,W,1,08,1.0,6.2,M,-33.9,M,,*59
$PYRTM,2024,127.334407241817,18.444054651956
$GPGGA,080131.00,3351.0410,N,11924.9983,W,1,08,1.0,5.5,M,-33.9,M,,*5D
$PYRTM,2024,127.334418829861,18.444066240000
$GPGGA,080132.00,3351.0392,N,11924.9968,W,1,08,1.0,5.7,M,-33.9,M,,*54
$PYRTM,2024,127.334430390799,18.444077800937
$GPGGA,080133.00,3351.0374,N,11924.9953,W,1,08,1.0,4.2,M,-33.9,M,,*51
$PYRTM,2024,127.334441977523,18.444089387662
$GPGGA,080134.00,3351.0355,N,11924.9941,W,1,08,1.0,7.5,M,-33.9,M,,*52
$PYRTM,2024,127.334453537720,18.444100947859
$GPGGA,080135.00,3351.0336,N,11924.9931,W,1,08,1.0,9.6,M,-33.9,M,,*5C
$PYRTM,2024,127.334465125845,18.444112535984
$GPGGA,080136.00,3351.0317,N,11924.9919,W,1,08,1.0,6.9,M,-33.9,M,,*56
$PYRTM,2024,127.334476686713,18.444124096863
$GPGGA,080137.00,3351.0300,N,11924.9905,W,1,08,1.0,5.0,M,-33.9,M,,*56
$PYRTM,2024,127.334488269861,18.444135680000
$GPGGA,080138.00,3351.0284,N,11924.9889,W,1,08,1.0,5.7,M,-33.9,M,,*56
$PYRTM,2024,127.334499834769,18.444147244907
$GPGGA,080139.00,3351.0266,N,11924.9875,W,1,08,1.0,7.8,M,-33.9,M,,*55
$PYRTM,2024,127.334511421389,18.444158831528
$GPGGA,080140.00,3351.0247,N,11924.9863,W,1,08,1.0,8.1,M,-33.9,M,,*59
$PYRTM,2024,127.334522982523,18.444170392674
$GPGGA,080141.00,3351.0229,N,11924.9849,W,1,08,1.0,8.7,M,-33.9,M,,*5E
$PYRTM,2024,127.334534570475,18.444181980613
$GPGGA,080142.00,3351.0210,N,11924.9834,W,1,08,1.0,11.2,M,-33.9,M,,*60
$PYRTM,2024,127.334546132292,18.444193542442
$GPGGA,080143.00,3351.0191,N,11924.9820,W,1,08,1.0,8.4,M,-33.9,M,,*50
$PYRTM,2024,127.334557718611,18.444205128750
$GPGGA,080144.00,3351.0172,N,11924.9806,W,1,08,1.0,7.5,M,-33.9,M,,*50
$PYRTM,2024,127.334569281088,18.444216691227
$GPGGA,080145.00,3351.0154,N,11924.9792,W,1,08,1.0,8.4,M,-33.9,M,,*59
$PYRTM,2024,127.334580862581,18.444228272720
$GPGGA,080146.00,3351.0136,N,11924.9779,W,1,08,1.0,8.3,M,-33.9,M,,*5C
$PYRTM,2024,127.334592426620,18.444239836759
$GPGGA,080147.00,3351.0117,N,11924.9766,W,1,08,1.0,11.0,M,-33.9,M,,*6B
$PYRTM,2024,127.334604014398,18.444251424537
$GPGGA,080148.00,3351.0097,N,11924.9754,W,1,08,1.0,9.3,M,-33.9,M,,*56
$PYRTM,2024,127.334615575544,18.444262985683
$GPGGA,080149.00,3351.0079,N,11924.9742,W,1,08,1.0,10.6,M,-33.9,M,,*6D
$PYRTM,2024,127.334627158067,18.444274568206
$GPGGA,080150.00,3351.0061,N,11924.9730,W,1,08,1.0,9.9,M,-33.9,M,,*5E
$PYRTM,2024,127.334638722894,18.444286133032
$GPGGA,080151.00,3351.0044,N,11924.9718,W,1,08,1.0,9.5,M,-33.9,M,,*5E
$PYRTM,2024,127.334650312211,18.444297722350
$GPGGA,080152.00,3351.0027,N,11924.9707,W,1,08,1.0,7.9,M,-33.9,M,,*54
$PYRTM,2024,127.334661871725,18.444309281863
$GPGGA,080153.00,3351.0008,N,11924.9697,W,1,08,1.0,8.8,M,-33.9,M,,*5E
$PYRTM,2024,127.334673460451,18.444320870590
$GPGGA,080154.00,3350.9990,N,11924.9686,W,1,08,1.0,8.3,M,-33.9,M,,*52
$PYRTM,2024,127.334683645405,18.444331055544
$GPGGA,080155.00,3350.9972,N,11924.9673,W,1,08,1.0,6.6,M,-33.9,M,,*5E
$PYRTM,2024,127.334695451053,18.444342861192
$GPGGA,080156.00,3350.9955,N,11924.9660,W,1,08,1.0,8.4,M,-33.9,M,,*56
$PYRTM,2024,127.334708167778,18.444355577917
$GPGGA,080157.00,3350.9938,N,11924.9645,W,1,08,1.0,5.7,M,-33.9,M,,*55
$PYRTM,2024,127.334719756829,18.444367166968
$GPGGA,080158.00,3350.9921,N,11924.9632,W,1,08,1.0,5.4,M,-33.9,M,,*51
$PYRTM,2024,127.334731316088,18.444378726238
$GPGGA,080159.00,3350.9904,N,11924.9620,W,1,08,1.0,5.7,M,-33.9,M,,*57
$PYRTM,2024,127.334742905185,18.444390315324
$GPGGA,080200.00,3350.9886,N,11924.9609,W,1,08,1.0,7.8,M,-33.9,M,,*55
$PYRTM,2024,127.334754465208,18.444401875347
$GPGGA,080201.00,3350.9868,N,11924.9598,W,1,08,1.0,7.9,M,-33.9,M,,*5E
$PYRTM,2024,127.334766051898,18.444413462025
$GPGGA,080202.00,3350.9850,N,11924.9585,W,1,08,1.0,6.5,M,-33.9,M,,*57
$PYRTM,2024,127.334777613530,18.444425023669
$GPGGA,080203.00,3350.9833,N,11924.9569,W,1,08,1.0,8.6,M,-33.9,M,,*5C
$PYRTM,2024,127.334789197176,18.444436607315
$GPGGA,080204.00,3350.9816,N,11924.9553,W,1,08,1.0,9.9,M,-33.9,M,,*5B
$PYRTM,2024,127.334800760856,18.444448170995
$GPGGA,080205.00,3350.9798,N,11924.9539,W,1,08,1.0,8.6,M,-33.9,M,,*51
$PYRTM,2024,127.334812344745,18.444459754884
$GPGGA,080206.00,3350.9781,N,11924.9526,W,1,08,1.0,9.0,M,-33.9,M,,*53
$PYRTM,2024,127.334823910509,18.444471320648
$GPGGA,080207.00,3350.9762,N,11924.9514,W,1,08,1.0,9.5,M,-33.9,M,,*5B
$PYRTM,2024,127.334835499595,18.444482909734
$GPGGA,080208.00,3350.9744,N,11924.9502,W,1,08,1.0,10.1,M,-33.9,M,,*6B
$PYRTM,2024,127.334847057060,18.444494467199
$GPGGA,080209.00,3350.9726,N,11924.9490,W,1,08,1.0,9.8,M,-33.9,M,,*55
$PYRTM,2024,127.334858647454,18.444506057593
$GPGGA,080210.00,3350.9707,N,11924.9476,W,1,08,1.0,7.5,M,-33.9,M,,*55
$PYRTM,2024,127.334870205694,18.444517615845
$GPGGA,080211.00,3350.9689,N,11924.9460,W,1,08,1.0,5.6,M,-33.9,M,,*55
$PYRTM,2024,127.334881793252,18.444529203391
$GPGGA,080212.00,3350.9673,N,11924.9444,W,1,08,1.0,5.0,M,-33.9,M,,*53
$PYRTM,2024,127.334893354109,18.444540764248
$GPGGA,080213.00,3350.9655,N,11924.9433,W,1,08,1.0,6.5,M,-33.9,M,,*50
$PYRTM,2024,127.334904942350,18.444552352500
$GPGGA,080214.00,3350.9635,N,11924.9423,W,1,08,1.0,7.1,M,-33.9,M,,*55
$PYRTM,2024,127.334916504757,18.444563914896
$GPGGA,080215.00,3350.9616,N,11924.9409,W,1,08,1.0,6.8,M,-33.9,M,,*55
$PYRTM,2024,127.334928090660,18.444575500799
$GPGGA,080216.00,3350.9600,N,11924.9391,W,1,08,1.0,7.3,M,-33.9,M,,*5D
$PYRTM,2024,127.334939650139,18.444587060278
$GPGGA,080217.00,3350.9583,N,11924.9377,W,1,08,1.0,3.4,M,-33.9,M,,*5F
$PYRTM,2024,127.334951237836,18.444598647975
$GPGGA,080218.00,3350.9565,N,11924.9368,W,1,08,1.0,3.6,M,-33.9,M,,*54
$PYRTM,2024,127.334962799560,18.444610209699
$GPGGA,080219.00,3350.9546,N,11924.9358,W,1,08,1.0,4.5,M,-33.9,M,,*53
$PYRTM,2024,127.334974382431,18.444621792569
$GPGGA,080220.00,3350.9528,N,11924.9344,W,1,08,1.0,5.2,M,-33.9,M,,*5A
$PYRTM,2024,127.334985946806,18.444633356944
$GPGGA,080221.00,3350.9512,N,11924.9330,W,1,08,1.0,7.2,M,-33.9,M,,*53
$PYRTM,2024,127.334997530903,18.444644941042
$GPGGA,080222.00,3350.9495,N,11924.9317,W,1,08,1.0,9.3,M,-33.9,M,,*54
$PYRTM,2024,127.335009095556,18.444656505694
$GPGGA,080223.00,3350.9478,N,11924.9306,W,1,08,1.0,9.2,M,-33.9,M,,*57
$PYRTM,2024,127.335020684120,18.444668094271
$GPGGA,080224.00,3350.9462,N,11924.9294,W,1,08,1.0,7.3,M,-33.9,M,,*5E
$PYRTM,2024,127.335031317546,18.444678727697
$GPGGA,080225.00,3350.9443,N,11924.9281,W,1,08,1.0,7.8,M,-33.9,M,,*53
$PYRTM,2024,127.335042674988,18.444690085127
$GPGGA,080226.00,3350.9425,N,11924.9268,W,1,08,1.0,7.8,M,-33.9,M,,*57
$PYRTM,2024,127.335055391400,18.444702801539
$GPGGA,080227.00,3350.9407,N,11924.9256,W,1,08,1.0,9.5,M,-33.9,M,,*58
$PYRTM,2024,127.335066979502,18.444714389641
$GPGGA,080228.00,3350.9387,N,11924.9245,W,1,08,1.0,9.1,M,-33.9,M,,*5E
$PYRTM,2024,127.335078540498,18.444725950637
$GPGGA,080229.00,3350.9369,N,11924.9231,W,1,08,1.0,7.8,M,-33.9,M,,*5B
$PYRTM,2024,127.335090127616,18.444737537755
$GPGGA,080230.00,3350.9353,N,11924.9216,W,1,08,1.0,8.4,M,-33.9,M,,*5C
$PYRTM,2024,127.335101688403,18.444749098542
$GPGGA,080231.00,3350.9336,N,11924.9202,W,1,08,1.0,6.9,M,-33.9,M,,*58
$PYRTM,2024,127.335113276736,18.444760686875
$GPGGA,080232.00,3350.9318,N,11924.9191,W,1,08,1.0,6.7,M,-33.9,M,,*50
$PYRTM,2024,127.335124837789,18.444772247928
$GPGGA,080233.00,3350.9300,N,11924.9180,W,1,08,1.0,6.2,M,-33.9,M,,*5D
$PYRTM,2024,127.335136424502,18.444783834641
$GPGGA,080234.00,3350.9283,N,11924.9167,W,1,08,1.0,7.7,M,-33.9,M,,*5D
$PYRTM,2024,127.335147984074,18.444795394213
$GPGGA,080235.00,3350.9267,N,11924.9152,W,1,08,1.0,5.6,M,-33.9,M,,*53
$PYRTM,2024,127.335159568495,18.444806978646
$GPGGA,080236.00,3350.9250,N,11924.9140,W,1,08,1.0,5.8,M,-33.9,M,,*59
$PYRTM,2024,127.335171132164,18.444818542303
$GPGGA,080237.00,3350.9234,N,11924.9128,W,1,08,1.0,4.8,M,-33.9,M,,*55
$PYRTM,2024,127.335182721944,18.444830132083
$GPGGA,080238.00,3350.9216,N,11924.9117,W,1,08,1.0,2.0,M,-33.9,M,,*58
$PYRTM,2024,127.335194282234,18.444841692373
$GPGGA,080239.00,3350.9197,N,11924.9105,W,1,08,1.0,3.3,M,-33.9,M,,*52
$PYRTM,2024,127.335205870324,18.444853280463
$GPGGA,080240.00,3350.9179,N,11924.9092,W,1,08,1.0,4.9,M,-33.9,M,,*5E
$PYRTM,2024,127.335217427986,18.444864838125
$GPGGA,080241.00,3350.9162,N,11924.9079,W,1,08,1.0,4.5,M,-33.9,M,,*5C
$PYRTM,2024,127.335229016701,18.444876426840
$GPGGA,080242.00,3350.9145,N,11924.9065,W,1,08,1.0,4.4,M,-33.9,M,,*56
$PYRTM,2024,127.335240578102,18.444887988241
$GPGGA,080243.00,3350.9128,N,11924.9050,W,1,08,1.0,3.8,M,-33.9,M,,*51
$PYRTM,2024,127.335252166134,18.444899576273
$GPGGA,080244.00,3350.9111,N,11924.9037,W,1,08,1.0,3.5,M,-33.9,M,,*50
$PYRTM,2024,127.335263725799,18.444911135938
$GPGGA,080245.00,3350.9094,N,11924.9027,W,1,08,1.0,4.6,M,-33.9,M,,*58
$PYRTM,2024,127.335275315150,18.444922725289
$GPGGA,080246.00,3350.9077,N,11924.9017,W,1,08,1.0,5.1,M,-33.9,M,,*53
$PYRTM,2024,127.335286310833,18.444933720972
$GPGGA,080247.00,3350.9059,N,11924.9004,W,1,08,1.0,4.6,M,-33.9,M,,*5A
$PYRTM,2024,127.335297058935,18.444944469074
$GPGGA,080248.00,3350.9043,N,11924.8990,W,1,08,1.0,5.2,M,-33.9,M,,*5E
$PYRTM,2024,127.335308170336,18.444955580475
$GPGGA,080249.00,3350.9026,N,11924.8975,W,1,08,1.0,7.6,M,-33.9,M,,*51
$PYRTM,2024,127.335319280220,18.444966690359
$GPGGA,080250.00,3350.9010,N,11924.8961,W,1,08,1.0,6.6,M,-33.9,M,,*58
$PYRTM,2024,127.335330391979,18.444977802118
$GPGGA,080251.00,3350.8992,N,11924.8950,W,1,08,1.0,6.4,M,-33.9,M,,*5B
$PYRTM,2024,127.335341503090,18.444988913229
$GPGGA,080252.00,3350.8974,N,11924.8940,W,1,08,1.0,12.0,M,-33.9,M,,*60
$PYRTM,2024,127.335352614722,18.445000024861
$GPGGA,080253.00,3350.8956,N,11924.8929,W,1,08,1.0,11.1,M,-33.9,M,,*6C
$PYRTM,2024,127.335363856192,18.445011266331
$GPGGA,080254.00,3350.8939,N,11924.8915,W,1,08,1.0,11.0,M,-33.9,M,,*6C
$PYRTM,2024,127.335379464850,18.445026874988
$GPGGA,080255.00,3350.8921,N,11924.8900,W,1,08,1.0,11.1,M,-33.9,M,,*61
$PYRTM,2024,127.335391054109,18.445038464248
$GPGGA,080256.00,3350.8904,N,11924.8884,W,1,08,1.0,8.6,M,-33.9,M,,*57
$PYRTM,2024,127.335402615475,18.445050025625
$GPGGA,080257.00,3350.8886,N,11924.8872,W,1,08,1.0,6.5,M,-33.9,M,,*59
$PYRTM,2024,127.335414203472,18.445061613623
$GPGGA,080258.00,3350.8869,N,11924.8861,W,1,08,1.0,6.4,M,-33.9,M,,*54
$PYRTM,2024,127.335425762813,18.445073172951
$GPGGA,080259.00,3350.8853,N,11924.8848,W,1,08,1.0,7.7,M,-33.9,M,,*55
$PYRTM,2024,127.335437352454,18.445084762593
$GPGGA,080300.00,3350.8834,N,11924.8834,W,1,08,1.0,7.4,M,-33.9,M,,*51
$PYRTM,2024,127.335448911493,18.445096321632
$GPGGA,080301.00,3350.8815,N,11924.8821,W,1,08,1.0,7.8,M,-33.9,M,,*5B
$PYRTM,2024,127.335460494780,18.445107904919
$GPGGA,080302.00,3350.8797,N,11924.8809,W,1,08,1.0,6.5,M,-33.9,M,,*5B
$PYRTM,2024,127.335472061377,18.445119471516
$GPGGA,080303.00,3350.8779,N,11924.8795,W,1,08,1.0,7.3,M,-33.9,M,,*57
$PYRTM,2024,127.335483642963,18.445131053102
$GPGGA,080304.00,3350.8763,N,11924.8782,W,1,08,1.0,7.4,M,-33.9,M,,*5A
$PYRTM,2024,127.335495208426,18.445142618565
$GPGGA,080305.00,3350.8745,N,11924.8768,W,1,08,1.0,5.8,M,-33.9,M,,*55
$PYRTM,2024,127.335506796331,18.445154206481
$GPGGA,080306.00,3350.8728,N,11924.8757,W,1,08,1.0,2.0,M,-33.9,M,,*5E
$PYRTM,2024,127.335518357836,18.445165767975
$GPGGA,080307.00,3350.8710,N,11924.8745,W,1,08,1.0,3.1,M,-33.9,M,,*57
$PYRTM,2024,127.335529939062,18.445177349201
$GPGGA,080308.00,3350.8691,N,11924.8732,W,1,08,1.0,2.6,M,-33.9,M,,*56
$PYRTM,2024,127.335541505521,18.445188915660
$GPGGA,080309.00,3350.8673,N,11924.8719,W,1,08,1.0,1.4,M,-33.9,M,,*53
$PYRTM,2024,127.335553087130,18.445200497269
$GPGGA,080310.00,3350.8654,N,11924.8704,W,1,08,1.0,-0.9,M,-33.9,M,,*73
$PYRTM,2024,127.335564652685,18.445212062824
$GPGGA,080311.00,3350.8635,N,11924.8689,W,1,08,1.0,-0.5,M,-33.9,M,,*7D
$PYRTM,2024,127.335576240081,18.445223650220
$GPGGA,080312.00,3350.8616,N,11924.8674,W,1,08,1.0,-1.6,M,-33.9,M,,*7F
$PYRTM,2024,127.335587801319,18.445235211470
$GPGGA,080313.00,3350.8596,N,11924.8663,W,1,08,1.0,-1.0,M,-33.9,M,,*75
$PYRTM,2024,127.335599388322,18.445246798461
$GPGGA,080314.00,3350.8577,N,11924.8652,W,1,08,1.0,-0.3,M,-33.9,M,,*7D
$PYRTM,2024,127.335611079618,18.445258489757
$GPGGA,080315.00,3350.8560,N,11924.8637,W,1,08,1.0,0.5,M,-33.9,M,,*52
$PYRTM,2024,127.335622537176,18.445269947315
$GPGGA,080316.00,3350.8543,N,11924.8619,W,1,08,1.0,1.2,M,-33.9,M,,*5A
$PYRTM,2024,127.335634097222,18.445281507361
$GPGGA,080317.00,3350.8525,N,11924.8605,W,1,08,1.0,1.1,M,-33.9,M,,*55
$PYRTM,2024,127.335645681331,18.445293091470
$GPGGA,080318.00,3350.8506,N,11924.8594,W,1,08,1.0,0.7,M,-33.9,M,,*57
$PYRTM,2024,127.335657246968,18.445304657106
$GPGGA,080319.00,3350.8487,N,11924.8584,W,1,08,1.0,3.5,M,-33.9,M,,*5E
$PYRTM,2024,127.335668834988,18.445316245139
$GPGGA,080320.00,3350.8469,N,11924.8571,W,1,08,1.0,5.9,M,-33.9,M,,*54
$PYRTM,2024,127.335680394641,18.445327804780
$GPGGA,080321.00,3350.8450,N,11924.8556,W,1,08,1.0,4.0,M,-33.9,M,,*52
$PYRTM,2024,127.335691977002,18.445339387153
$GPGGA,080322.00,3350.8432,N,11924.8541,W,1,08,1.0,5.8,M,-33.9,M,,*5A
$PYRTM,2024,127.335703542975,18.445350953113
$GPGGA,080323.00,3350.8413,N,11924.8528,W,1,08,1.0,6.4,M,-33.9,M,,*58
$PYRTM,2024,127.335715130521,18.445362540671
$GPGGA,080324.00,3350.8394,N,11924.8515,W,1,08,1.0,6.2,M,-33.9,M,,*5F
$PYRTM,2024,127.335725315289,18.445372725428
$GPGGA,080325.00,3350.8375,N,11924.8503,W,1,08,1.0,5.3,M,-33.9,M,,*54
$PYRTM,2024,127.335737121204,18.445384531343
$GPGGA,080326.00,3350.8357,N,11924.8491,W,1,08,1.0,4.3,M,-33.9,M,,*5C
$PYRTM,2024,127.335749838773,18.445397248912
$GPGGA,080327.00,3350.8339,N,11924.8480,W,1,08,1.0,4.5,M,-33.9,M,,*53
$PYRTM,2024,127.335761426019,18.445408836157
$GPGGA,080328.00,3350.8320,N,11924.8470,W,1,08,1.0,3.4,M,-33.9,M,,*5D
$PYRTM,2024,127.335772985301,18.445420395440
$GPGGA,080329.00,3350.8302,N,11924.8458,W,1,08,1.0,2.0,M,-33.9,M,,*53
$PYRTM,2024,127.335784573588,18.445431983727
$GPGGA,080330.00,3350.8284,N,11924.8445,W,1,08,1.0,3.8,M,-33.9,M,,*51
$PYRTM,2024,127.335796133900,18.445443544039
$GPGGA,080331.00,3350.8266,N,11924.8429,W,1,08,1.0,2.2,M,-33.9,M,,*5D
$PYRTM,2024,127.335807722650,18.445455132789
$GPGGA,080332.00,3350.8248,N,11924.8415,W,1,08,1.0,2.6,M,-33.9,M,,*59
$PYRTM,2024,127.335819282836,18.445466692975
$GPGGA,080333.00,3350.8228,N,11924.8404,W,1,08,1.0,4.4,M,-33.9,M,,*5A
$PYRTM,2024,127.335830866829,18.445478276968
$GPGGA,080334.00,3350.8210,N,11924.8392,W,1,08,1.0,4.7,M,-33.9,M,,*5D
$PYRTM,2024,127.335842430775,18.445489840914
$GPGGA,080335.00,3350.8193,N,11924.8380,W,1,08,1.0,4.0,M,-33.9,M,,*50
$PYRTM,2024,127.335854019873,18.445501430012
$GPGGA,080336.00,3350.8175,N,11924.8365,W,1,08,1.0,3.2,M,-33.9,M,,*55
$PYRTM,2024,127.335865581065,18.445512991204
$GPGGA,080337.00,3350.8156,N,11924.8351,W,1,08,1.0,2.9,M,-33.9,M,,*58
$PYRTM,2024,127.335877167859,18.445524577998
$GPGGA,080338.00,3350.8139,N,11924.8338,W,1,08,1.0,5.8,M,-33.9,M,,*57
$PYRTM,2024,127.335888729502,18.445536139641
$GPGGA,080339.00,3350.8122,N,11924.8326,W,1,08,1.0,6.7,M,-33.9,M,,*5F
$PYRTM,2024,127.335900315729,18.445547725868
$GPGGA,080340.00,3350.8104,N,11924.8314,W,1,08,1.0,5.7,M,-33.9,M,,*57
$PYRTM,2024,127.335911876968,18.445559287106
$GPGGA,080341.00,3350.8087,N,11924.8302,W,1,08,1.0,4.7,M,-33.9,M,,*5A
$PYRTM,2024,127.335923464375,18.445570874514
$GPGGA,080342.00,3350.8071,N,11924.8288,W,1,08,1.0,3.0,M,-33.9,M,,*53
$PYRTM,2024,127.335935024977,18.445582435116
$GPGGA,080343.00,3350.8054,N,11924.8275,W,1,08,1.0,2.8,M,-33.9,M,,*5E
$PYRTM,2024,127.335946612199,18.445594022338
$GPGGA,080344.00,3350.8037,N,11924.8264,W,1,08,1.0,5.7,M,-33.9,M,,*54
$PYRTM,2024,127.335958173993,18.445605584144
$GPGGA,080345.00,3350.8017,N,11924.8254,W,1,08,1.0,4.8,M,-33.9,M,,*5A
$PYRTM,2024,127.335969756435,18.445617166574
$GPGGA,080346.00,3350.7999,N,11924.8242,W,1,08,1.0,4.5,M,-33.9,M,,*53
$PYRTM,2024,127.335980165660,18.445627575799
$GPGGA,080347.00,3350.7982,N,11924.8227,W,1,08,1.0,2.5,M,-33.9,M,,*5D
$PYRTM,2024,127.335992903889,18.445640314028
$GPGGA,080348.00,3350.7965,N,11924.8211,W,1,08,1.0,2.8,M,-33.9,M,,*53
$PYRTM,2024,127.336004471123,18.445651881262
$GPGGA,080349.00,3350.7946,N,11924.8196,W,1,08,1.0,2.5,M,-33.9,M,,*52
$PYRTM,2024,127.336016051435,18.445663461574
$GPGGA,080350.00,3350.7927,N,11924.8183,W,1,08,1.0,4.0,M,-33.9,M,,*5A
$PYRTM,2024,127.336027616910,18.445675027049
$GPGGA,080351.00,3350.7909,N,11924.8170,W,1,08,1.0,4.3,M,-33.9,M,,*58
$PYRTM,2024,127.336039200069,18.445686610208
$GPGGA,080352.00,3350.7891,N,11924.8158,W,1,08,1.0,7.9,M,-33.9,M,,*58
$PYRTM,2024,127.336050767292,18.445698177431
$GPGGA,080353.00,3350.7873,N,11924.8145,W,1,08,1.0,8.8,M,-33.9,M,,*57
$PYRTM,2024,127.336062348831,18.445709758970
$GPGGA,080354.00,3350.7854,N,11924.8132,W,1,08,1.0,6.3,M,-33.9,M,,*50
$PYRTM,2024,127.336072538993,18.445719949132
$GPGGA,080355.00,3350.7835,N,11924.8119,W,1,08,1.0,5.1,M,-33.9,M,,*5E
$PYRTM,2024,127.336084344120,18.445731754259
$GPGGA,080356.00,3350.7815,N,11924.8106,W,1,08,1.0,5.3,M,-33.9,M,,*53
$PYRTM,2024,127.336097062697,18.445744472836
$GPGGA,080357.00,3350.7796,N,11924.8094,W,1,08,1.0,8.0,M,-33.9,M,,*52
$PYRTM,2024,127.336108645567,18.445756055718
$GPGGA,080358.00,3350.7779,N,11924.8079,W,1,08,1.0,7.4,M,-33.9,M,,*54
$PYRTM,2024,127.336120210035,18.445767620174
$GPGGA,080359.00,3350.7761,N,11924.8063,W,1,08,1.0,7.7,M,-33.9,M,,*54
$PYRTM,2024,127.336131798900,18.445779209051
$GPGGA,080400.00,3350.7742,N,11924.8048,W,1,08,1.0,7.6,M,-33.9,M,,*56
$PYRTM,2024,127.336143358773,18.445790768924
$GPGGA,080401.00,3350.7722,N,11924.8038,W,1,08,1.0,3.6,M,-33.9,M,,*52
$PYRTM,2024,127.336154941562,18.445802351701
$GPGGA,080402.00,3350.7704,N,11924.8026,W,1,08,1.0,3.8,M,-33.9,M,,*54
$PYRTM,2024,127.336166508727,18.445813918866
$GPGGA,080403.00,3350.7687,N,11924.8012,W,1,08,1.0,4.3,M,-33.9,M,,*54
$PYRTM,2024,127.336178094711,18.445825504850
$GPGGA,080404.00,3350.7670,N,11924.7996,W,1,08,1.0,1.5,M,-33.9,M,,*52
$PYRTM,2024,127.336189656470,18.445837066609
$GPGGA,080405.00,3350.7651,N,11924.7982,W,1,08,1.0,3.5,M,-33.9,M,,*57
$PYRTM,2024,127.336201237546,18.445848647685
$GPGGA,080406.00,3350.7633,N,11924.7971,W,1,08,1.0,3.1,M,-33.9,M,,*58
$PYRTM,2024,127.336212802986,18.445860213125
$GPGGA,080407.00,3350.7614,N,11924.7960,W,1,08,1.0,2.8,M,-33.9,M,,*54
$PYRTM,2024,127.336224391412,18.445871801551
$GPGGA,080408.00,3350.7598,N,11924.7948,W,1,08,1.0,3.6,M,-33.9,M,,*59
$PYRTM,2024,127.336235951308,18.445883361447
$GPGGA,080409.00,3350.7581,N,11924.7934,W,1,08,1.0,5.5,M,-33.9,M,,*5E
$PYRTM,2024,127.336247534873,18.445894945012
$GPGGA,080410.00,3350.7564,N,11924.7920,W,1,08,1.0,7.3,M,-33.9,M,,*5C
$PYRTM,2024,127.336259099907,18.445906510046
$GPGGA,080411.00,3350.7546,N,11924.7907,W,1,08,1.0,8.9,M,-33.9,M,,*5D
$PYRTM,2024,127.336270690104,18.445918100243
$GPGGA,080412.00,3350.7528,N,11924.7896,W,1,08,1.0,8.8,M,-33.9,M,,*5E
$PYRTM,2024,127.336282248079,18.445929658218
$GPGGA,080413.00,3350.7510,N,11924.7884,W,1,08,1.0,9.3,M,-33.9,M,,*5D
$PYRTM,2024,127.336293835336,18.445941245475
$GPGGA,080414.00,3350.7492,N,11924.7872,W,1,08,1.0,10.5,M,-33.9,M,,*66
$PYRTM,2024,127.336305394861,18.445952805000
$GPGGA,080415.00,3350.7475,N,11924.7859,W,1,08,1.0,7.7,M,-33.9,M,,*53
$PYRTM,2024,127.336316985266,18.445964395405
$GPGGA,080416.00,3350.7458,N,11924.7844,W,1,08,1.0,8.4,M,-33.9,M,,*5F
$PYRTM,2024,127.336328544398,18.445975954537
$GPGGA,080417.00,3350.7440,N,11924.7831,W,1,08,1.0,7.7,M,-33.9,M,,*59
$PYRTM,2024,127.336340133229,18.445987543368
$GPGGA,080418.00,3350.7422,N,11924.7819,W,1,08,1.0,8.9,M,-33.9,M,,*59
$PYRTM,2024,127.336351692095,18.445999102234
$GPGGA,080419.00,3350.7405,N,11924.7806,W,1,08,1.0,6.2,M,-33.9,M,,*56
$PYRTM,2024,127.336363282037,18.446010692176
$GPGGA,080420.00,3350.7388,N,11924.7792,W,1,08,1.0,3.4,M,-33.9,M,,*5F
$PYRTM,2024,127.336374841019,18.446022251157
$GPGGA,080421.00,3350.7370,N,11924.7778,W,1,08,1.0,4.0,M,-33.9,M,,*5E
$PYRTM,2024,127.336386423993,18.446033834132
$GPGGA,080422.00,3350.7354,N,11924.7766,W,1,08,1.0,5.3,M,-33.9,M,,*56
$PYRTM,2024,127.336397988600,18.446045398738
$GPGGA,080423.00,3350.7338,N,11924.7754,W,1,08,1.0,3.4,M,-33.9,M,,*5D
$PYRTM,2024,127.336409578773,18.446056988912
$GPGGA,080424.00,3350.7320,N,11924.7741,W,1,08,1.0,4.3,M,-33.9,M,,*57
$PYRTM,2024,127.336419763137,18.446067173287
$GPGGA,080425.00,3350.7301,N,11924.7727,W,1,08,1.0,3.5,M,-33.9,M,,*54
$PYRTM,2024,127.336431568218,18.446078978356
$GPGGA,080426.00,3350.7282,N,11924.7713,W,1,08,1.0,3.3,M,-33.9,M,,*5C
$PYRTM,2024,127.336444285150,18.446091695289
$GPGGA,080427.00,3350.7264,N,11924.7698,W,1,08,1.0,3.2,M,-33.9,M,,*56
$PYRTM,2024,127.336455875046,18.446103285185
$GPGGA,080428.00,3350.7246,N,11924.7684,W,1,08,1.0,1.8,M,-33.9,M,,*5C
$PYRTM,2024,127.336467434410,18.446114844549
$GPGGA,080429.00,3350.7227,N,11924.7671,W,1,08,1.0,2.8,M,-33.9,M,,*53
$PYRTM,2024,127.336479016736,18.446126426875
$GPGGA,080430.00,3350.7207,N,11924.7659,W,1,08,1.0,2.0,M,-33.9,M,,*5B
$PYRTM,2024,127.336490581123,18.446137991262
$GPGGA,080431.00,3350.7187,N,11924.7646,W,1,08,1.0,2.9,M,-33.9,M,,*56
$PYRTM,2024,127.336502170498,18.446149580637
$GPGGA,080432.00,3350.7168,N,11924.7632,W,1,08,1.0,1.5,M,-33.9,M,,*58
$PYRTM,2024,127.336513730579,18.446161140718
$GPGGA,080433.00,3350.7151,N,11924.7616,W,1,08,1.0,3.7,M,-33.9,M,,*55
$PYRTM,2024,127.336525320289,18.446172730428
$GPGGA,080434.00,3350.7135,N,11924.7602,W,1,08,1.0,3.9,M,-33.9,M,,*5B
$PYRTM,2024,127.336536878576,18.446184288715
$GPGGA,080435.00,3350.7117,N,11924.7590,W,1,08,1.0,2.7,M,-33.9,M,,*5D
$PYRTM,2024,127.336548460833,18.446195870972
$GPGGA,080436.00,3350.7098,N,11924.7580,W,1,08,1.0,4.9,M,-33.9,M,,*51
$PYRTM,2024,127.336560025845,18.446207435984
$GPGGA,080437.00,3350.7080,N,11924.7570,W,1,08,1.0,5.5,M,-33.9,M,,*5B
$PYRTM,2024,127.336571614873,18.446219025012
$GPGGA,080438.00,3350.7065,N,11924.7556,W,1,08,1.0,7.2,M,-33.9,M,,*5E
$PYRTM,2024,127.336583174491,18.446230584630
$GPGGA,080439.00,3350.7048,N,11924.7541,W,1,08,1.0,8.1,M,-33.9,M,,*5A
$PYRTM,2024,127.336594757037,18.446242167176
$GPGGA,080440.00,3350.7029,N,11924.7530,W,1,08,1.0,3.4,M,-33.9,M,,*5B
$PYRTM,2024,127.336606322882,18.446253733021
$GPGGA,080441.00,3350.7009,N,11924.7520,W,1,08,1.0,3.2,M,-33.9,M,,*5F
$PYRTM,2024,127.336617906157,18.446265316296
$GPGGA,080442.00,3350.6991,N,11924.7508,W,1,08,1.0,5.0,M,-33.9,M,,*5B
$PYRTM,2024,127.336629471088,18.446276881227
$GPGGA,080443.00,3350.6974,N,11924.7494,W,1,08,1.0,3.8,M,-33.9,M,,*5B
$PYRTM,2024,127.336641060185,18.446288470336
$GPGGA,080444.00,3350.6958,N,11924.7480,W,1,08,1.0,0.8,M,-33.9,M,,*54
$PYRTM,2024,127.336652618773,18.446300028912
$GPGGA,080445.00,3350.6940,N,11924.7468,W,1,08,1.0,1.5,M,-33.9,M,,*56
$PYRTM,2024,127.336664207778,18.446311617917
$GPGGA,080446.00,3350.6921,N,11924.7457,W,1,08,1.0,1.8,M,-33.9,M,,*53
$PYRTM,2024,127.336675768044,18.446323178183
$GPGGA,080447.00,3350.6902,N,11924.7443,W,1,08,1.0,1.5,M,-33.9,M,,*5B
$PYRTM,2024,127.336687357616,18.446334767755
$GPGGA,080448.00,3350.6885,N,11924.7429,W,1,08,1.0,1.8,M,-33.9,M,,*5B
$PYRTM,2024,127.336698915428,18.446346325579
$GPGGA,080449.00,3350.6868,N,11924.7416,W,1,08,1.0,1.4,M,-33.9,M,,*59
$PYRTM,2024,127.336709577847,18.446356987986
$GPGGA,080450.00,3350.6850,N,11924.7404,W,1,08,1.0,-0.7,M,-33.9,M,,*76
$PYRTM,2024,127.336720576852,18.446367986991
$GPGGA,080451.00,3350.6831,N,11924.7391,W,1,08,1.0,-0.1,M,-33.9,M,,*7D
$PYRTM,2024,127.336732250382,18.446379660532
$GPGGA,080452.00,3350.6813,N,11924.7377,W,1,08,1.0,0.5,M,-33.9,M,,*5F
$PYRTM,2024,127.336743360104,18.446390770255
$GPGGA,080453.00,3350.6796,N,11924.7363,W,1,08,1.0,0.3,M,-33.9,M,,*5F
$PYRTM,2024,127.336754472303,18.446401882442
$GPGGA,080454.00,3350.6779,N,11924.7349,W,1,08,1.0,6.6,M,-33.9,M,,*52
$PYRTM,2024,127.336770675903,18.446418086042
$GPGGA,080455.00,3350.6761,N,11924.7336,W,1,08,1.0,4.9,M,-33.9,M,,*5F
$PYRTM,2024,127.336781799641,18.446429209780
$GPGGA,080456.00,3350.6744,N,11924.7322,W,1,08,1.0,0.9,M,-33.9,M,,*5A
$PYRTM,2024,127.336792898993,18.446440309132
$GPGGA,080457.00,3350.6725,N,11924.7309,W,1,08,1.0,-1.5,M,-33.9,M,,*75
$PYRTM,2024,127.336804010370,18.446451420509
$GPGGA,080458.00,3350.6706,N,11924.7297,W,1,08,1.0,1.0,M,-33.9,M,,*55
$PYRTM,2024,127.336815133692,18.446462543831
$GPGGA,080459.00,3350.6688,N,11924.7284,W,1,08,1.0,1.7,M,-33.9,M,,*56
$PYRTM,2024,127.336826245567,18.446473655706
$GPGGA,080500.00,3350.6670,N,11924.7269,W,1,08,1.0,1.8,M,-33.9,M,,*50
$PYRTM,2024,127.336837804375,18.446485214514
$GPGGA,080501.00,3350.6652,N,11924.7254,W,1,08,1.0,0.4,M,-33.9,M,,*52
$PYRTM,2024,127.336849393437,18.446496803576
$GPGGA,080502.00,3350.6634,N,11924.7240,W,1,08,1.0,0.3,M,-33.9,M,,*53
$PYRTM,2024,127.336860953125,18.446508363264
$GPGGA,080503.00,3350.6616,N,11924.7228,W,1,08,1.0,-0.5,M,-33.9,M,,*77
$PYRTM,2024,127.336872542072,18.446519952211
$GPGGA,080504.00,3350.6597,N,11924.7217,W,1,08,1.0,0.1,M,-33.9,M,,*5F
$PYRTM,2024,127.336884102187,18.446531512326
$GPGGA,080505.00,3350.6579,N,11924.7205,W,1,08,1.0,3.5,M,-33.9,M,,*5A
$PYRTM,2024,127.336895685069,18.446543095208
$GPGGA,080506.00,3350.6562,N,11924.7191,W,1,08,1.0,2.4,M,-33.9,M,,*5D
$PYRTM,2024,127.336907249479,18.446554659618
$GPGGA,080507.00,3350.6544,N,11924.7176,W,1,08,1.0,1.4,M,-33.9,M,,*52
$PYRTM,2024,127.336918838333,18.446566248472
$GPGGA,080508.00,3350.6526,N,11924.7161,W,1,08,1.0,1.4,M,-33.9,M,,*5F
$PYRTM,2024,127.336930398657,18.446577808796
$GPGGA,080509.00,3350.6508,N,11924.7148,W,1,08,1.0,2.8,M,-33.9,M,,*56
$PYRTM,2024,127.336941985961,18.446589396100
$GPGGA,080510.00,3350.6492,N,11924.7137,W,1,08,1.0,1.0,M,-33.9,M,,*5F
$PYRTM,2024,127.336953545972,18.446600956111
$GPGGA,080511.00,3350.6475,N,11924.7124,W,1,08,1.0,2.3,M,-33.9,M,,*55
$PYRTM,2024,127.336965134873,18.446612545012
$GPGGA,080512.00,3350.6458,N,11924.7111,W,1,08,1.0,1.5,M,-33.9,M,,*5A
$PYRTM,2024,127.336976694190,18.446624104329
$GPGGA,080513.00,3350.6440,N,11924.7098,W,1,08,1.0,0.5,M,-33.9,M,,*53
$PYRTM,2024,127.336988278669,18.446635688808
$GPGGA,080514.00,3350.6423,N,11924.7084,W,1,08,1.0,0.8,M,-33.9,M,,*51
$PYRTM,2024,127.336999842650,18.446647252789
$GPGGA,080515.00,3350.6405,N,11924.7070,W,1,08,1.0,1.2,M,-33.9,M,,*54
$PYRTM,2024,127.337011431412,18.446658841551
$GPGGA,080516.00,3350.6386,N,11924.7057,W,1,08,1.0,2.1,M,-33.9,M,,*5E
$PYRTM,2024,127.337022992257,18.446670402396
$GPGGA,080517.00,3350.6368,N,11924.7045,W,1,08,1.0,2.5,M,-33.9,M,,*58
$PYRTM,2024,127.337034579109,18.446681989248
$GPGGA,080518.00,3350.6351,N,11924.7033,W,1,08,1.0,5.2,M,-33.9,M,,*5C
$PYRTM,2024,127.337046139167,18.446693549306
$GPGGA,080519.00,3350.6333,N,11924.7018,W,1,08,1.0,5.6,M,-33.9,M,,*54
$PYRTM,2024,127.337057728183,18.446705138322
$GPGGA,080520.00,3350.6314,N,11924.7005,W,1,08,1.0,1.6,M,-33.9,M,,*53
$PYRTM,2024,127.337069288623,18.446716698762
$GPGGA,080521.00,3350.6295,N,11924.6994,W,1,08,1.0,2.6,M,-33.9,M,,*59
$PYRTM,2024,127.337080876493,18.446728286632
$GPGGA,080522.00,3350.6276,N,11924.6981,W,1,08,1.0,4.0,M,-33.9,M,,*53
$PYRTM,2024,127.337092435359,18.446739845498
$GPGGA,080523.00,3350.6260,N,11924.6966,W,1,08,1.0,2.6,M,-33.9,M,,*5C
$PYRTM,2024,127.337104024271,18.446751434410
$GPGGA,080524.00,3350.6243,N,11924.6953,W,1,08,1.0,0.7,M,-33.9,M,,*5F
$PYRTM,2024,127.337114208391,18.446761618530
$GPGGA,080525.00,3350.6223,N,11924.6942,W,1,08,1.0,1.2,M,-33.9,M,,*5C
$PYRTM,2024,127.337126028681,18.446773438831
$GPGGA,080526.00,3350.6203,N,11924.6932,W,1,08,1.0,2.4,M,-33.9,M,,*5F
$PYRTM,2024,127.337138731968,18.446786142106
$GPGGA,080527.00,3350.6185,N,11924.6920,W,1,08,1.0,1.7,M,-33.9,M,,*50
$PYRTM,2024,127.337150320370,18.446797730509
$GPGGA,080528.00,3350.6169,N,11924.6904,W,1,08,1.0,2.0,M,-33.9,M,,*5F
$PYRTM,2024,127.337161881343,18.446809291481
$GPGGA,080529.00,3350.6154,N,11924.6887,W,1,08,1.0,1.2,M,-33.9,M,,*5B
$PYRTM,2024,127.337173464329,18.446820874468
$GPGGA,080530.00,3350.6137,N,11924.6874,W,1,08,1.0,0.3,M,-33.9,M,,*5A
$PYRTM,2024,127.337185027581,18.446832437720
$GPGGA,080531.00,3350.6118,N,11924.6862,W,1,08,1.0,0.5,M,-33.9,M,,*57
$PYRTM,2024,127.337196616539,18.446844026678
$GPGGA,080532.00,3350.6100,N,11924.6850,W,1,08,1.0,2.2,M,-33.9,M,,*59
$PYRTM,2024,127.337208177187,18.446855587326
$GPGGA,080533.00,3350.6082,N,11924.6835,W,1,08,1.0,3.4,M,-33.9,M,,*57
$PYRTM,2024,127.337219760810,18.446867170949
$GPGGA,080534.00,3350.6066,N,11924.6820,W,1,08,1.0,-0.7,M,-33.9,M,,*73
$PYRTM,2024,127.337231325845,18.446878735984
$GPGGA,080535.00,3350.6048,N,11924.6808,W,1,08,1.0,-1.2,M,-33.9,M,,*70
$PYRTM,2024,127.337242913565,18.446890323704
$GPGGA,080536.00,3350.6029,N,11924.6799,W,1,08,1.0,-1.7,M,-33.9,M,,*76
$PYRTM,2024,127.337254473252,18.446901883391
$GPGGA,080537.00,3350.6012,N,11924.6787,W,1,08,1.0,-2.4,M,-33.9,M,,*70
$PYRTM,2024,127.337264906713,18.446912316852
$GPGGA,080538.00,3350.5996,N,11924.6770,W,1,08,1.0,-2.0,M,-33.9,M,,*75
$PYRTM,2024,127.337277621250,18.446925031389
$GPGGA,080539.00,3350.5977,N,11924.6756,W,1,08,1.0,-1.4,M,-33.9,M,,*78
$PYRTM,2024,127.337289209595,18.446936619734
$GPGGA,080540.00,3350.5956,N,11924.6746,W,1,08,1.0,-1.4,M,-33.9,M,,*74
$PYRTM,2024,127.337300769468,18.446948179618
$GPGGA,080541.00,3350.5935,N,11924.6738,W,1,08,1.0,0.1,M,-33.9,M,,*50
$PYRTM,2024,127.337312358252,18.446959768391
$GPGGA,080542.00,3350.5917,N,11924.6724,W,1,08,1.0,1.1,M,-33.9,M,,*5F
$PYRTM,2024,127.337323917604,18.446971327743
$GPGGA,080543.00,3350.5902,N,11924.6707,W,1,08,1.0,3.3,M,-33.9,M,,*5B
$PYRTM,2024,127.337335505706,18.446982915845
$GPGGA,080544.00,3350.5886,N,11924.6692,W,1,08,1.0,1.2,M,-33.9,M,,*5F
$PYRTM,2024,127.337345909063,18.446993319201
$GPGGA,080545.00,3350.5867,N,11924.6684,W,1,08,1.0,2.6,M,-33.9,M,,*51
$PYRTM,2024,127.337358654259,18.447006064398
$GPGGA,080546.00,3350.5847,N,11924.6676,W,1,08,1.0,3.5,M,-33.9,M,,*5F
$PYRTM,2024,127.337370214248,18.447017624398
$GPGGA,080547.00,3350.5830,N,11924.6666,W,1,08,1.0,7.3,M,-33.9,M,,*5D
$PYRTM,2024,127.337381802118,18.447029212257
$GPGGA,080548.00,3350.5815,N,11924.6652,W,1,08,1.0,6.9,M,-33.9,M,,*59
$PYRTM,2024,127.337393362535,18.447040772674
$GPGGA,080549.00,3350.5799,N,11924.6637,W,1,08,1.0,6.0,M,-33.9,M,,*59
$PYRTM,2024,127.337404950509,18.447052360648
$GPGGA,080550.00,3350.5780,N,11924.6625,W,1,08,1.0,5.9,M,-33.9,M,,*50
$PYRTM,2024,127.337416511273,18.447063921424
$GPGGA,080551.00,3350.5760,N,11924.6614,W,1,08,1.0,4.1,M,-33.9,M,,*54
$PYRTM,2024,127.337428098553,18.447075508692
$GPGGA,080552.00,3350.5742,N,11924.6600,W,1,08,1.0,4.4,M,-33.9,M,,*57
$PYRTM,2024,127.337439657778,18.447087067917
$GPGGA,080553.00,3350.5727,N,11924.6586,W,1,08,1.0,3.7,M,-33.9,M,,*5C
$PYRTM,2024,127.337451246609,18.447098656748
$GPGGA,080554.00,3350.5709,N,11924.6572,W,1,08,1.0,3.2,M,-33.9,M,,*59
$PYRTM,2024,127.337461432396,18.447108842535
$GPGGA,080555.00,3350.5687,N,11924.6560,W,1,08,1.0,3.8,M,-33.9,M,,*56
$PYRTM,2024,127.337473251736,18.447120661875
$GPGGA,080556.00,3350.5666,N,11924.6548,W,1,08,1.0,5.6,M,-33.9,M,,*58
$PYRTM,2024,127.337485954687,18.447133364826
$GPGGA,080557.00,3350.5649,N,11924.6532,W,1,08,1.0,3.7,M,-33.9,M,,*5E
$PYRTM,2024,127.337497543194,18.447144953333
$GPGGA,080558.00,3350.5633,N,11924.6514,W,1,08,1.0,5.6,M,-33.9,M,,*5F
$PYRTM,2024,127.337509103947,18.447156514086
$GPGGA,080559.00,3350.5616,N,11924.6498,W,1,08,1.0,5.4,M,-33.9,M,,*5E
$PYRTM,2024,127.337520690972,18.447168101111
$GPGGA,080600.00,3350.5597,N,11924.6485,W,1,08,1.0,3.4,M,-33.9,M,,*51
$PYRTM,2024,127.337532253056,18.447179663194
$GPGGA,080601.00,3350.5577,N,11924.6474,W,1,08,1.0,3.3,M,-33.9,M,,*57
$PYRTM,2024,127.337543840567,18.447191250706
$GPGGA,080602.00,3350.5560,N,11924.6461,W,1,08,1.0,6.3,M,-33.9,M,,*53
$PYRTM,2024,127.337555400799,18.447202810938
$GPGGA,080603.00,3350.5544,N,11924.6445,W,1,08,1.0,7.1,M,-33.9,M,,*51
$PYRTM,2024,127.337566990278,18.447214400417
$GPGGA,080604.00,3350.5529,N,11924.6428,W,1,08,1.0,6.3,M,-33.9,M,,*55
$PYRTM,2024,127.337578549144,18.447225959282
$GPGGA,080605.00,3350.5512,N,11924.6414,W,1,08,1.0,2.4,M,-33.9,M,,*50
$PYRTM,2024,127.337590136250,18.447237546389
$GPGGA,080606.00,3350.5493,N,11924.6403,W,1,08,1.0,1.8,M,-33.9,M,,*52
$PYRTM,2024,127.337601697789,18.447249107928
$GPGGA,080607.00,3350.5474,N,11924.6392,W,1,08,1.0,2.0,M,-33.9,M,,*5E
$PYRTM,2024,127.337613284433,18.447260694572
$GPGGA,080608.00,3350.5458,N,11924.6377,W,1,08,1.0,4.3,M,-33.9,M,,*51
$PYRTM,2024,127.337624844618,18.447272254757
$GPGGA,080609.00,3350.5442,N,11924.6362,W,1,08,1.0,5.4,M,-33.9,M,,*59
$PYRTM,2024,127.337636433368,18.447283843507
$GPGGA,080610.00,3350.5423,N,11924.6350,W,1,08,1.0,6.3,M,-33.9,M,,*53
$PYRTM,2024,127.337647993229,18.447295403368
$GPGGA,080611.00,3350.5404,N,11924.6342,W,1,08,1.0,6.5,M,-33.9,M,,*52
$PYRTM,2024,127.337659582685,18.447306992824
$GPGGA,080612.00,3350.5385,N,11924.6331,W,1,08,1.0,4.0,M,-33.9,M,,*5C
$PYRTM,2024,127.337671141308,18.447318551458
$GPGGA,080613.00,3350.5368,N,11924.6316,W,1,08,1.0,4.1,M,-33.9,M,,*5A
$PYRTM,2024,127.337682724502,18.447330134641
$GPGGA,080614.00,3350.5352,N,11924.6298,W,1,08,1.0,1.1,M,-33.9,M,,*56
$PYRTM,2024,127.337694289398,18.447341699537
$GPGGA,080615.00,3350.5335,N,11924.6285,W,1,08,1.0,1.0,M,-33.9,M,,*5B
$PYRTM,2024,127.337705878438,18.447353288576
$GPGGA,080616.00,3350.5317,N,11924.6276,W,1,08,1.0,0.1,M,-33.9,M,,*54
$PYRTM,2024,127.337717437928,18.447364848067
$GPGGA,080617.00,3350.5299,N,11924.6266,W,1,08,1.0,2.9,M,-33.9,M,,*59
$PYRTM,2024,127.337729025590,18.447376435729
$GPGGA,080618.00,3350.5281,N,11924.6252,W,1,08,1.0,1.3,M,-33.9,M,,*51
$PYRTM,2024,127.337740586076,18.447387996215
$GPGGA,080619.00,3350.5266,N,11924.6237,W,1,08,1.0,2.2,M,-33.9,M,,*58
$PYRTM,2024,127.337752173484,18.447399583623
$GPGGA,080620.00,3350.5251,N,11924.6221,W,1,08,1.0,0.5,M,-33.9,M,,*54
$PYRTM,2024,127.337763734838,18.447411144977
$GPGGA,080621.00,3350.5235,N,11924.6207,W,1,08,1.0,-0.6,M,-33.9,M,,*7D
$PYRTM,2024,127.337775322396,18.447422732535
$GPGGA,080622.00,3350.5216,N,11924.6196,W,1,08,1.0,-0.9,M,-33.9,M,,*7B
$PYRTM,2024,127.337786882755,18.447434292894
$GPGGA,080623.00,3350.5197,N,11924.6188,W,1,08,1.0,-1.6,M,-33.9,M,,*71
$PYRTM,2024,127.337798470694,18.447445880833
$GPGGA,080624.00,3350.5178,N,11924.6175,W,1,08,1.0,-1.2,M,-33.9,M,,*71
$PYRTM,2024,127.337808657245,18.447456067384
$GPGGA,080625.00,3350.5160,N,11924.6158,W,1,08,1.0,-3.0,M,-33.9,M,,*76
$PYRTM,2024,127.337820462025,18.447467872164
$GPGGA,080626.00,3350.5143,N,11924.6141,W,1,08,1.0,-2.1,M,-33.9,M,,*7C
$PYRTM,2024,127.337833180544,18.447480590683
$GPGGA,080627.00,3350.5126,N,11924.6125,W,1,08,1.0,-2.5,M,-33.9,M,,*78
$PYRTM,2024,127.337844768148,18.447492178287
$GPGGA,080628.00,3350.5108,N,11924.6113,W,1,08,1.0,-1.1,M,-33.9,M,,*79
$PYRTM,2024,127.337856329352,18.447503739502
$GPGGA,080629.00,3350.5090,N,11924.6103,W,1,08,1.0,-2.4,M,-33.9,M,,*7F
$PYRTM,2024,127.337867916169,18.447515326308
$GPGGA,080630.00,3350.5070,N,11924.6091,W,1,08,1.0,0.3,M,-33.9,M,,*5B
$PYRTM,2024,127.337879475231,18.447526885370
$GPGGA,080631.00,3350.5053,N,11924.6074,W,1,08,1.0,-1.1,M,-33.9,M,,*7E
$PYRTM,2024,127.337891064444,18.447538474583
$GPGGA,080632.00,3350.5037,N,11924.6056,W,1,08,1.0,-1.5,M,-33.9,M,,*7B
$PYRTM,2024,127.337903101192,18.447550511331
$GPGGA,080633.00,3350.5019,N,11924.6040,W,1,08,1.0,-0.3,M,-33.9,M,,*76
$PYRTM,2024,127.337914661505,18.447562071655
$GPGGA,080634.00,3350.5002,N,11924.6027,W,1,08,1.0,-0.1,M,-33.9,M,,*78
$PYRTM,2024,127.337926249421,18.447573659560
$GPGGA,080635.00,3350.4985,N,11924.6015,W,1,08,1.0,1.7,M,-33.9,M,,*55
$PYRTM,2024,127.337937807975,18.447585218113
$GPGGA,080636.00,3350.4970,N,11924.6002,W,1,08,1.0,3.5,M,-33.9,M,,*5A
$PYRTM,2024,127.337949392743,18.447596802882
$GPGGA,080637.00,3350.4954,N,11924.5989,W,1,08,1.0,2.4,M,-33.9,M,,*54
$PYRTM,2024,127.337960958356,18.447608368495
$GPGGA,080638.00,3350.4937,N,11924.5978,W,1,08,1.0,1.9,M,-33.9,M,,*5E
$PYRTM,2024,127.337972545509,18.447619955648
$GPGGA,080639.00,3350.4920,N,11924.5968,W,1,08,1.0,0.5,M,-33.9,M,,*55
$PYRTM,2024,127.337984105174,18.447631515313
$GPGGA,080640.00,3350.4902,N,11924.5957,W,1,08,1.0,1.1,M,-33.9,M,,*52
$PYRTM,2024,127.337995694306,18.447643104444
$GPGGA,080641.00,3350.4886,N,11924.5943,W,1,08,1.0,1.1,M,-33.9,M,,*5B
$PYRTM,2024,127.338007255093,18.447654665231
$GPGGA,080642.00,3350.4868,N,11924.5928,W,1,08,1.0,-1.5,M,-33.9,M,,*7C
$PYRTM,2024,127.338018842049,18.447666252188
$GPGGA,080643.00,3350.4850,N,11924.5914,W,1,08,1.0,-2.4,M,-33.9,M,,*7B
$PYRTM,2024,127.338030534329,18.447677944468
$GPGGA,080644.00,3350.4829,N,11924.5904,W,1,08,1.0,-2.0,M,-33.9,M,,*77
$PYRTM,2024,127.338042101007,18.447689511146
$GPGGA,080645.00,3350.4809,N,11924.5894,W,1,08,1.0,-3.4,M,-33.9,M,,*79
$PYRTM,2024,127.338053681609,18.447701091748
$GPGGA,080646.00,3350.4791,N,11924.5879,W,1,08,1.0,-3.9,M,-33.9,M,,*7A
$PYRTM,2024,127.338065249919,18.447712660058
$GPGGA,080647.00,3350.4775,N,11924.5862,W,1,08,1.0,-5.2,M,-33.9,M,,*76
$PYRTM,2024,127.338076828368,18.447724238507
$GPGGA,080648.00,3350.4759,N,11924.5845,W,1,08,1.0,-5.7,M,-33.9,M,,*77
$PYRTM,2024,127.338088402593,18.447735812731
$GPGGA,080649.00,3350.4741,N,11924.5833,W,1,08,1.0,-4.4,M,-33.9,M,,*7C
$PYRTM,2024,127.338099976794,18.447747386933
$GPGGA,080650.00,3350.4723,N,11924.5823,W,1,08,1.0,-3.2,M,-33.9,M,,*70
$PYRTM,2024,127.338111551042,18.447758961181
$GPGGA,080651.00,3350.4705,N,11924.5813,W,1,08,1.0,-2.8,M,-33.9,M,,*7D
$PYRTM,2024,127.338123138669,18.447770548808
$GPGGA,080652.00,3350.4686,N,11924.5801,W,1,08,1.0,0.3,M,-33.9,M,,*53
$PYRTM,2024,127.338134699097,18.447782109236
$GPGGA,080653.00,3350.4669,N,11924.5786,W,1,08,1.0,-0.4,M,-33.9,M,,*79
$PYRTM,2024,127.338146288634,18.447793698773
$GPGGA,080654.00,3350.4653,N,11924.5770,W,1,08,1.0,0.8,M,-33.9,M,,*5F
$PYRTM,2024,127.338155531759,18.447802941898
$GPGGA,080655.00,3350.4635,N,11924.5756,W,1,08,1.0,-1.5,M,-33.9,M,,*7B
$PYRTM,2024,127.338166643403,18.447814053542
$GPGGA,080656.00,3350.4617,N,11924.5745,W,1,08,1.0,-2.4,M,-33.9,M,,*78
$PYRTM,2024,127.338182254120,18.447829664259
$GPGGA,080657.00,3350.4600,N,11924.5733,W,1,08,1.0,-1.7,M,-33.9,M,,*7E
$PYRTM,2024,127.338191284444,18.447838694583
$GPGGA,080658.00,3350.4584,N,11924.5719,W,1,08,1.0,-1.7,M,-33.9,M,,*76
$PYRTM,2024,127.338202402292,18.447849812431
$GPGGA,080659.00,3350.4568,N,11924.5704,W,1,08,1.0,-2.8,M,-33.9,M,,*75
$PYRTM,2024,127.338213513669,18.447860923808
$GPGGA,080700.00,3350.4552,N,11924.5692,W,1,08,1.0,-5.1,M,-33.9,M,,*71
$PYRTM,2024,127.338224736574,18.447872146725
$GPGGA,080701.00,3350.4534,N,11924.5679,W,1,08,1.0,-5.3,M,-33.9,M,,*77
$PYRTM,2024,127.338235845058,18.447883255208
$GPGGA,080702.00,3350.4515,N,11924.5665,W,1,08,1.0,-4.0,M,-33.9,M,,*78
$PYRTM,2024,127.338247426412,18.447894836551
$GPGGA,080703.00,3350.4496,N,11924.5650,W,1,08,1.0,-2.2,M,-33.9,M,,*71
$PYRTM,2024,127.338258546377,18.447905956516
$GPGGA,080704.00,3350.4477,N,11924.5635,W,1,08,1.0,-1.0,M,-33.9,M,,*7B
$PYRTM,2024,127.338269654572,18.447917064711
$GPGGA,080705.00,3350.4458,N,11924.5621,W,1,08,1.0,-1.8,M,-33.9,M,,*7A
$PYRTM,2024,127.338281330046,18.447928740185
$GPGGA,080706.00,3350.4438,N,11924.5609,W,1,08,1.0,-1.6,M,-33.9,M,,*7B
$PYRTM,2024,127.338292919792,18.447940329931
$GPGGA,080707.00,3350.4420,N,11924.5596,W,1,08,1.0,-3.2,M,-33.9,M,,*70
$PYRTM,2024,127.338304477789,18.447951887928
$GPGGA,080708.00,3350.4403,N,11924.5582,W,1,08,1.0,-2.8,M,-33.9,M,,*70
$PYRTM,2024,127.338316067593,18.447963477731
$GPGGA,080709.00,3350.4385,N,11924.5569,W,1,08,1.0,-2.7,M,-33.9,M,,*72
$PYRTM,2024,127.338327626169,18.447975036308
$GPGGA,080710.00,3350.4368,N,11924.5555,W,1,08,1.0,-2.1,M,-33.9,M,,*70
$PYRTM,2024,127.338339208889,18.447986619028
$GPGGA,080711.00,3350.4349,N,11924.5542,W,1,08,1.0,-2.5,M,-33.9,M,,*70
$PYRTM,2024,127.338350775220,18.447998185359
$GPGGA,080712.00,3350.4331,N,11924.5530,W,1,08,1.0,-3.9,M,-33.9,M,,*74
$PYRTM,2024,127.338362365498,18.448009775648
$GPGGA,080713.00,3350.4313,N,11924.5517,W,1,08,1.0,-2.1,M,-33.9,M,,*79
$PYRTM,2024,127.338373923380,18.448021333530
$GPGGA,080714.00,3350.4293,N,11924.5504,W,1,08,1.0,-0.5,M,-33.9,M,,*73
$PYRTM,2024,127.338385510984,18.448032921123
$GPGGA,080715.00,3350.4274,N,11924.5491,W,1,08,1.0,1.2,M,-33.9,M,,*5D
$PYRTM,2024,127.338397071157,18.448044481296
$GPGGA,080716.00,3350.4256,N,11924.5476,W,1,08,1.0,-0.8,M,-33.9,M,,*71
$PYRTM,2024,127.338408658333,18.448056068472
$GPGGA,080717.00,3350.4236,N,11924.5461,W,1,08,1.0,-0.3,M,-33.9,M,,*7B
$PYRTM,2024,127.338420219954,18.448067630116
$GPGGA,080718.00,3350.4217,N,11924.5447,W,1,08,1.0,-0.2,M,-33.9,M,,*72
$PYRTM,2024,127.338431808657,18.448079218808
$GPGGA,080719.00,3350.4198,N,11924.5433,W,1,08,1.0,0.7,M,-33.9,M,,*5C
$PYRTM,2024,127.338443368056,18.448090778206
$GPGGA,080720.00,3350.4178,N,11924.5420,W,1,08,1.0,-0.8,M,-33.9,M,,*78
$PYRTM,2024,127.338454954398,18.448102364537
$GPGGA,080721.00,3350.4158,N,11924.5408,W,1,08,1.0,-1.6,M,-33.9,M,,*7E
$PYRTM,2024,127.338466515532,18.448113925671
$GPGGA,080722.00,3350.4139,N,11924.5396,W,1,08,1.0,-3.0,M,-33.9,M,,*7E
$PYRTM,2024,127.338478102824,18.448125512963
$GPGGA,080723.00,3350.4122,N,11924.5382,W,1,08,1.0,-4.4,M,-33.9,M,,*73
$PYRTM,2024,127.338489665428,18.448137075567
$GPGGA,080724.00,3350.4105,N,11924.5366,W,1,08,1.0,-6.1,M,-33.9,M,,*7C
$PYRTM,2024,127.338503553600,18.448150963738
$GPGGA,080725.00,3350.4087,N,11924.5352,W,1,08,1.0,-6.0,M,-33.9,M,,*70
$PYRTM,2024,127.338514909664,18.448162319803
$GPGGA,080726.00,3350.4068,N,11924.5338,W,1,08,1.0,-4.3,M,-33.9,M,,*7F
$PYRTM,2024,127.338526482894,18.448173893032
$GPGGA,080727.00,3350.4048,N,11924.5326,W,1,08,1.0,-6.3,M,-33.9,M,,*71
$PYRTM,2024,127.338538057951,18.448185468102
$GPGGA,080728.00,3350.4028,N,11924.5314,W,1,08,1.0,-4.2,M,-33.9,M,,*7A
$PYRTM,2024,127.338549632153,18.448197042292
$GPGGA,080729.00,3350.4010,N,11924.5299,W,1,08,1.0,-3.3,M,-33.9,M,,*72
$PYRTM,2024,127.338561205567,18.448208615718
$GPGGA,080730.00,3350.3994,N,11924.5282,W,1,08,1.0,-3.8,M,-33.9,M,,*79
$PYRTM,2024,127.338572779687,18.448220189838
$GPGGA,080731.00,3350.3977,N,11924.5264,W,1,08,1.0,-5.7,M,-33.9,M,,*74
$PYRTM,2024,127.338584352431,18.448231762569
$GPGGA,080732.00,3350.3960,N,11924.5249,W,1,08,1.0,-4.6,M,-33.9,M,,*7E
$PYRTM,2024,127.338596147014,18.448243557153
$GPGGA,080733.00,3350.3942,N,11924.5237,W,1,08,1.0,-4.6,M,-33.9,M,,*76
$PYRTM,2024,127.338607501759,18.448254911898
$GPGGA,080734.00,3350.3922,N,11924.5228,W,1,08,1.0,-6.3,M,-33.9,M,,*7E
$PYRTM,2024,127.338619075185,18.448266485324
$GPGGA,080735.00,3350.3902,N,11924.5217,W,1,08,1.0,-5.1,M,-33.9,M,,*70
$PYRTM,2024,127.338630653310,18.448278063449
$GPGGA,080736.00,3350.3885,N,11924.5202,W,1,08,1.0,-4.0,M,-33.9,M,,*79
$PYRTM,2024,127.338642223032,18.448289633171
$GPGGA,080737.00,3350.3869,N,11924.5185,W,1,08,1.0,-5.9,M,-33.9,M,,*7E
$PYRTM,2024,127.338653801528,18.448301211667
$GPGGA,080738.00,3350.3851,N,11924.5170,W,1,08,1.0,-2.8,M,-33.9,M,,*76
$PYRTM,2024,127.338665372407,18.448312782546
$GPGGA,080739.00,3350.3833,N,11924.5159,W,1,08,1.0,-2.5,M,-33.9,M,,*75
$PYRTM,2024,127.338676948090,18.448324358229
$GPGGA,080740.00,3350.3814,N,11924.5148,W,1,08,1.0,-1.3,M,-33.9,M,,*7B
$PYRTM,2024,127.338688515023,18.448335925162
$GPGGA,080741.00,3350.3796,N,11924.5137,W,1,08,1.0,-2.6,M,-33.9,M,,*71
$PYRTM,2024,127.338700094919,18.448347505058
$GPGGA,080742.00,3350.3779,N,11924.5123,W,1,08,1.0,-3.2,M,-33.9,M,,*73
$PYRTM,2024,127.338711664699,18.448359074838
$GPGGA,080743.00,3350.3763,N,11924.5107,W,1,08,1.0,-5.0,M,-33.9,M,,*7B
$PYRTM,2024,127.338723243843,18.448370653981
$GPGGA,080744.00,3350.3746,N,11924.5093,W,1,08,1.0,-5.6,M,-33.9,M,,*71
$PYRTM,2024,127.338734818449,18.448382228588
$GPGGA,080745.00,3350.3727,N,11924.5081,W,1,08,1.0,-2.3,M,-33.9,M,,*76
$PYRTM,2024,127.338746393218,18.448393803356
$GPGGA,080746.00,3350.3707,N,11924.5070,W,1,08,1.0,-1.4,M,-33.9,M,,*7D
$PYRTM,2024,127.338757964873,18.448405375012
$GPGGA,080747.00,3350.3687,N,11924.5058,W,1,08,1.0,0.2,M,-33.9,M,,*55
$PYRTM,2024,127.338769539815,18.448416949954
$GPGGA,080748.00,3350.3671,N,11924.5043,W,1,08,1.0,0.0,M,-33.9,M,,*5B
$PYRTM,2024,127.338781115949,18.448428526100
$GPGGA,080749.00,3350.3655,N,11924.5026,W,1,08,1.0,-1.3,M,-33.9,M,,*70
$PYRTM,2024,127.338792690532,18.448440100671
$GPGGA,080750.00,3350.3639,N,11924.5011,W,1,08,1.0,0.0,M,-33.9,M,,*59
$PYRTM,2024,127.338804262627,18.448451672766
$GPGGA,080751.00,3350.3624,N,11924.4997,W,1,08,1.0,-1.8,M,-33.9,M,,*76
$PYRTM,2024,127.338815850984,18.448463261123
$GPGGA,080752.00,3350.3608,N,11924.4986,W,1,08,1.0,-5.1,M,-33.9,M,,*76
$PYRTM,2024,127.338827404132,18.448474814282
$GPGGA,080753.00,3350.3591,N,11924.4975,W,1,08,1.0,-5.2,M,-33.9,M,,*7B
$PYRTM,2024,127.338838983866,18.448486394005
$GPGGA,080754.00,3350.3574,N,11924.4964,W,1,08,1.0,-4.3,M,-33.9,M,,*77
$PYRTM,2024,127.338850326748,18.448497736887
$GPGGA,080755.00,3350.3556,N,11924.4950,W,1,08,1.0,-4.8,M,-33.9,M,,*7A
$PYRTM,2024,127.338863290289,18.448510700428
$GPGGA,080756.00,3350.3536,N,11924.4936,W,1,08,1.0,-3.9,M,-33.9,M,,*79
$PYRTM,2024,127.338874850544,18.448522260683
$GPGGA,080757.00,3350.3518,N,11924.4921,W,1,08,1.0,-1.9,M,-33.9,M,,*70
$PYRTM,2024,127.338886438183,18.448533848322
$GPGGA,080758.00,3350.3501,N,11924.4905,W,1,08,1.0,-0.5,M,-33.9,M,,*7C
$PYRTM,2024,127.338897999537,18.448545409676
$GPGGA,080759.00,3350.3483,N,11924.4889,W,1,08,1.0,0.4,M,-33.9,M,,*5F
$PYRTM,2024,127.338909586748,18.448556996887
$GPGGA,080800.00,3350.3467,N,11924.4875,W,1,08,1.0,0.8,M,-33.9,M,,*59
$PYRTM,2024,127.338921147917,18.448568558056
$GPGGA,080801.00,3350.3452,N,11924.4863,W,1,08,1.0,-0.5,M,-33.9,M,,*79
$PYRTM,2024,127.338932733947,18.448580144086
$GPGGA,080802.00,3350.3437,N,11924.4851,W,1,08,1.0,-1.4,M,-33.9,M,,*78
$PYRTM,2024,127.338944766146,18.448592176285
$GPGGA,080803.00,3350.3420,N,11924.4840,W,1,08,1.0,-0.6,M,-33.9,M,,*7C
$PYRTM,2024,127.338956101262,18.448603511400
$GPGGA,080804.00,3350.3402,N,11924.4827,W,1,08,1.0,2.0,M,-33.9,M,,*53
$PYRTM,2024,127.338967443866,18.448614854005
$GPGGA,080805.00,3350.3385,N,11924.4813,W,1,08,1.0,0.8,M,-33.9,M,,*57
$PYRTM,2024,127.338979033762,18.448626443912
$GPGGA,080806.00,3350.3369,N,11924.4797,W,1,08,1.0,-0.4,M,-33.9,M,,*74
$PYRTM,2024,127.338990592847,18.448638002986
$GPGGA,080807.00,3350.3352,N,11924.4783,W,1,08,1.0,-1.8,M,-33.9,M,,*75
$PYRTM,2024,127.339002181192,18.448649591331
$GPGGA,080808.00,3350.3335,N,11924.4771,W,1,08,1.0,-1.5,M,-33.9,M,,*7B
$PYRTM,2024,127.339013741412,18.448661151551
$GPGGA,080809.00,3350.3316,N,11924.4760,W,1,08,1.0,-2.4,M,-33.9,M,,*79
$PYRTM,2024,127.339025327072,18.448672737211
$GPGGA,080810.00,3350.3299,N,11924.4746,W,1,08,1.0,-2.4,M,-33.9,M,,*73
$PYRTM,2024,127.339036888287,18.448684298437
$GPGGA,080811.00,3350.3283,N,11924.4732,W,1,08,1.0,-3.1,M,-33.9,M,,*7E
$PYRTM,2024,127.339048476782,18.448695886921
$GPGGA,080812.00,3350.3266,N,11924.4717,W,1,08,1.0,-3.3,M,-33.9,M,,*73
$PYRTM,2024,127.339060038495,18.448707448634
$GPGGA,080813.00,3350.3248,N,11924.4704,W,1,08,1.0,-6.2,M,-33.9,M,,*78
$PYRTM,2024,127.339071623368,18.448719033507
$GPGGA,080814.00,3350.3230,N,11924.4693,W,1,08,1.0,-3.3,M,-33.9,M,,*7B
$PYRTM,2024,127.339083663866,18.448731074005
$GPGGA,080815.00,3350.3212,N,11924.4680,W,1,08,1.0,-3.1,M,-33.9,M,,*7A
$PYRTM,2024,127.339095120278,18.448742530417
$GPGGA,080816.00,3350.3194,N,11924.4666,W,1,08,1.0,-1.1,M,-33.9,M,,*7E
$PYRTM,2024,127.339106332917,18.448753743067
$GPGGA,080817.00,3350.3175,N,11924.4653,W,1,08,1.0,-0.5,M,-33.9,M,,*73
$PYRTM,2024,127.339117922500,18.448765332639
$GPGGA,080818.00,3350.3155,N,11924.4640,W,1,08,1.0,0.9,M,-33.9,M,,*5D
$PYRTM,2024,127.339129483102,18.448776893241
$GPGGA,080819.00,3350.3136,N,11924.4628,W,1,08,1.0,-0.1,M,-33.9,M,,*72
$PYRTM,2024,127.339141083831,18.448788493970
$GPGGA,080820.00,3350.3118,N,11924.4614,W,1,08,1.0,-1.5,M,-33.9,M,,*7E
$PYRTM,2024,127.339152629387,18.448800039537
$GPGGA,080821.00,3350.3101,N,11924.4600,W,1,08,1.0,-1.9,M,-33.9,M,,*7E
$PYRTM,2024,127.339164219468,18.448811629606
$GPGGA,080822.00,3350.3082,N,11924.4586,W,1,08,1.0,-2.9,M,-33.9,M,,*79
$PYRTM,2024,127.339175779178,18.448823189317
$GPGGA,080823.00,3350.3062,N,11924.4573,W,1,08,1.0,-3.1,M,-33.9,M,,*75
$PYRTM,2024,127.339187364838,18.448834774977
$GPGGA,080824.00,3350.3043,N,11924.4559,W,1,08,1.0,-2.2,M,-33.9,M,,*7B
$PYRTM,2024,127.339199969190,18.448847379329
$GPGGA,080825.00,3350.3026,N,11924.4544,W,1,08,1.0,-2.1,M,-33.9,M,,*76
$PYRTM,2024,127.339212700706,18.448860110845
$GPGGA,080826.00,3350.3009,N,11924.4530,W,1,08,1.0,-3.5,M,-33.9,M,,*7E
$PYRTM,2024,127.339222075231,18.448869485370
$GPGGA,080827.00,3350.2991,N,11924.4519,W,1,08,1.0,-3.7,M,-33.9,M,,*7F
$PYRTM,2024,127.339233662743,18.448881072882
$GPGGA,080828.00,3350.2972,N,11924.4509,W,1,08,1.0,-3.6,M,-33.9,M,,*7D
$PYRTM,2024,127.339245223229,18.448892633368
$GPGGA,080829.00,3350.2952,N,11924.4497,W,1,08,1.0,-4.7,M,-33.9,M,,*7E
$PYRTM,2024,127.339256811204,18.448904221343
$GPGGA,080830.00,3350.2934,N,11924.4482,W,1,08,1.0,-4.7,M,-33.9,M,,*72
$PYRTM,2024,127.339268371725,18.448915781863
$GPGGA,080831.00,3350.2915,N,11924.4467,W,1,08,1.0,-3.4,M,-33.9,M,,*7F
$PYRTM,2024,127.339279959988,18.448927370139
$GPGGA,080832.00,3350.2897,N,11924.4453,W,1,08,1.0,-4.6,M,-33.9,M,,*75
$PYRTM,2024,127.339291994711,18.448939404850
$GPGGA,080833.00,3350.2879,N,11924.4442,W,1,08,1.0,-3.0,M,-33.9,M,,*75
$PYRTM,2024,127.339303555729,18.448950965868
$GPGGA,080834.00,3350.2861,N,11924.4430,W,1,08,1.0,-3.3,M,-33.9,M,,*7D
$PYRTM,2024,127.339315145012,18.448962555150
$GPGGA,080835.00,3350.2844,N,11924.4416,W,1,08,1.0,-2.2,M,-33.9,M,,*7F
$PYRTM,2024,127.339326704630,18.448974114769
$GPGGA,080836.00,3350.2827,N,11924.4402,W,1,08,1.0,-4.4,M,-33.9,M,,*7C
$PYRTM,2024,127.339338291748,18.448985701887
$GPGGA,080837.00,3350.2809,N,11924.4389,W,1,08,1.0,-4.9,M,-33.9,M,,*78
$PYRTM,2024,127.339349853704,18.448997263843
$GPGGA,080838.00,3350.2793,N,11924.4379,W,1,08,1.0,-3.2,M,-33.9,M,,*78
$PYRTM,2024,127.339361441389,18.449008851528
