$PYRTM,2024,127.916673072465,19.026320482604
$GPGGA,215959.00,3319.6844,N,11833.9072,W,1,10,0.8,15.5,M,-34.4,M,,*69
$PYRTM,2024,127.916684182211,19.026331592338
$GPGGA,220000.00,3319.6832,N,11833.9050,W,1,10,0.8,17.1,M,-34.4,M,,*6D
$PYRTM,2024,127.916695297870,19.026342708009
$GPGGA,220001.00,3319.6817,N,11833.9032,W,1,10,0.8,15.7,M,-34.4,M,,*6B
$PYRTM,2024,127.916706408912,19.026353819051
$GPGGA,220002.00,3319.6801,N,11833.9016,W,1,10,0.8,13.9,M,-34.4,M,,*61
$PYRTM,2024,127.916717636366,19.026365046516
$GPGGA,220003.00,3319.6786,N,11833.8997,W,1,10,0.8,14.6,M,-34.4,M,,*69
$PYRTM,2024,127.916728744282,19.026376154421
$GPGGA,220004.00,3319.6772,N,11833.8977,W,1,10,0.8,14.4,M,-34.4,M,,*69
$PYRTM,2024,127.916739850243,19.026387260382
$GPGGA,220005.00,3319.6758,N,11833.8955,W,1,10,0.8,16.6,M,-34.4,M,,*60
$PYRTM,2024,127.916751415301,19.026398825440
$GPGGA,220006.00,3319.6743,N,11833.8932,W,1,10,0.8,18.0,M,-34.4,M,,*60
$PYRTM,2024,127.916763004456,19.026410414595
$GPGGA,220007.00,3319.6728,N,11833.8910,W,1,10,0.8,19.7,M,-34.4,M,,*6A
$PYRTM,2024,127.916774564745,19.026421974884
$GPGGA,220008.00,3319.6713,N,11833.8890,W,1,10,0.8,19.5,M,-34.4,M,,*66
$PYRTM,2024,127.916786152500,19.026433562639
$GPGGA,220009.00,3319.6699,N,11833.8868,W,1,10,0.8,18.1,M,-34.4,M,,*66
$PYRTM,2024,127.916797712188,19.026445122338
$GPGGA,220010.00,3319.6686,N,11833.8846,W,1,10,0.8,16.1,M,-34.4,M,,*62
$PYRTM,2024,127.916809300509,19.026456710648
$GPGGA,220011.00,3319.6673,N,11833.8825,W,1,10,0.8,18.2,M,-34.4,M,,*61
$PYRTM,2024,127.916820860845,19.026468270984
$GPGGA,220012.00,3319.6658,N,11833.8806,W,1,10,0.8,16.4,M,-34.4,M,,*62
$PYRTM,2024,127.916832448368,19.026479858507
$GPGGA,220013.00,3319.6643,N,11833.8787,W,1,10,0.8,16.5,M,-34.4,M,,*6E
$PYRTM,2024,127.916844009063,19.026491419201
$GPGGA,220014.00,3319.6627,N,11833.8766,W,1,10,0.8,15.3,M,-34.4,M,,*61
$PYRTM,2024,127.916859749525,19.026507159664
$GPGGA,220015.00,3319.6613,N,11833.8743,W,1,10,0.8,15.8,M,-34.4,M,,*6B
$PYRTM,2024,127.916871337870,19.026518748009
$GPGGA,220016.00,3319.6599,N,11833.8721,W,1,10,0.8,15.6,M,-34.4,M,,*63
$PYRTM,2024,127.916882898206,19.026530308345
$GPGGA,220017.00,3319.6583,N,11833.8699,W,1,10,0.8,19.0,M,-34.4,M,,*61
$PYRTM,2024,127.916894484792,19.026541894931
$GPGGA,220018.00,3319.6567,N,11833.8679,W,1,10,0.8,18.1,M,-34.4,M,,*6A
$PYRTM,2024,127.916906046389,19.026553456539
$GPGGA,220019.00,3319.6551,N,11833.8660,W,1,10,0.8,18.3,M,-34.4,M,,*64
$PYRTM,2024,127.916917636574,19.026565046713
$GPGGA,220020.00,3319.6536,N,11833.8639,W,1,10,0.8,15.6,M,-34.4,M,,*6B
$PYRTM,2024,127.916929195278,19.026576605417
$GPGGA,220021.00,3319.6521,N,11833.8618,W,1,10,0.8,13.3,M,-34.4,M,,*6C
$PYRTM,2024,127.916940781609,19.026588191748
$GPGGA,220022.00,3319.6505,N,11833.8598,W,1,10,0.8,10.8,M,-34.4,M,,*6A
$PYRTM,2024,127.916952343981,19.026599754120
$GPGGA,220023.00,3319.6489,N,11833.8578,W,1,10,0.8,10.2,M,-34.4,M,,*6A
$PYRTM,2024,127.916963933634,19.026611343773
$GPGGA,220024.00,3319.6473,N,11833.8558,W,1,10,0.8,10.1,M,-34.4,M,,*69
$PYRTM,2024,127.916975491412,19.026622901563
$GPGGA,220025.00,3319.6457,N,11833.8538,W,1,10,0.8,12.1,M,-34.4,M,,*6A
$PYRTM,2024,127.916987082975,19.026634493113
$GPGGA,220026.00,3319.6441,N,11833.8518,W,1,10,0.8,11.7,M,-34.4,M,,*69
$PYRTM,2024,127.916998641840,19.026646051979
$GPGGA,220027.00,3319.6426,N,11833.8498,W,1,10,0.8,10.8,M,-34.4,M,,*6E
$PYRTM,2024,127.917010227095,19.026657637234
$GPGGA,220028.00,3319.6410,N,11833.8477,W,1,10,0.8,9.2,M,-34.4,M,,*57
$PYRTM,2024,127.917021788611,19.026669198750
$GPGGA,220029.00,3319.6395,N,11833.8456,W,1,10,0.8,9.5,M,-34.4,M,,*58
$PYRTM,2024,127.917033375764,19.026680785903
$GPGGA,220030.00,3319.6379,N,11833.8436,W,1,10,0.8,9.1,M,-34.4,M,,*50
$PYRTM,2024,127.917044937083,19.026692347222
$GPGGA,220031.00,3319.6363,N,11833.8415,W,1,10,0.8,9.9,M,-34.4,M,,*53
$PYRTM,2024,127.917056524236,19.026703934375
$GPGGA,220032.00,3319.6348,N,11833.8394,W,1,10,0.8,8.7,M,-34.4,M,,*58
$PYRTM,2024,127.917068085741,19.026715495891
$GPGGA,220033.00,3319.6332,N,11833.8374,W,1,10,0.8,8.7,M,-34.4,M,,*5A
$PYRTM,2024,127.917079672037,19.026727082176
$GPGGA,220034.00,3319.6316,N,11833.8353,W,1,10,0.8,7.7,M,-34.4,M,,*51
$PYRTM,2024,127.917091233067,19.026738643206
$GPGGA,220035.00,3319.6301,N,11833.8333,W,1,10,0.8,10.0,M,-34.4,M,,*61
$PYRTM,2024,127.917102820567,19.026750230706
$GPGGA,220036.00,3319.6285,N,11833.8313,W,1,10,0.8,11.8,M,-34.4,M,,*64
$PYRTM,2024,127.917114382315,19.026761792454
$GPGGA,220037.00,3319.6269,N,11833.8293,W,1,10,0.8,11.4,M,-34.4,M,,*62
$PYRTM,2024,127.917126195544,19.026773605683
$GPGGA,220038.00,3319.6254,N,11833.8272,W,1,10,0.8,11.5,M,-34.4,M,,*6D
$PYRTM,2024,127.917137530150,19.026784940301
$GPGGA,220039.00,3319.6239,N,11833.8251,W,1,10,0.8,10.3,M,-34.4,M,,*61
$PYRTM,2024,127.917149119687,19.026796529826
$GPGGA,220040.00,3319.6224,N,11833.8231,W,1,10,0.8,9.7,M,-34.4,M,,*59
$PYRTM,2024,127.917160680567,19.026808090706
$GPGGA,220041.00,3319.6210,N,11833.8210,W,1,10,0.8,9.8,M,-34.4,M,,*53
$PYRTM,2024,127.917172268414,19.026819678553
$GPGGA,220042.00,3319.6195,N,11833.8190,W,1,10,0.8,9.5,M,-34.4,M,,*58
$PYRTM,2024,127.917183826609,19.026831236759
$GPGGA,220043.00,3319.6180,N,11833.8169,W,1,10,0.8,10.2,M,-34.4,M,,*64
$PYRTM,2024,127.917195413507,19.026842823646
$GPGGA,220044.00,3319.6165,N,11833.8146,W,1,10,0.8,11.0,M,-34.4,M,,*66
$PYRTM,2024,127.917206755926,19.026854166065
$GPGGA,220045.00,3319.6151,N,11833.8124,W,1,10,0.8,12.1,M,-34.4,M,,*66
$PYRTM,2024,127.917219718796,19.026867128935
$GPGGA,220046.00,3319.6136,N,11833.8102,W,1,10,0.8,12.2,M,-34.4,M,,*63
$PYRTM,2024,127.917231278287,19.026878688437
$GPGGA,220047.00,3319.6121,N,11833.8081,W,1,10,0.8,12.4,M,-34.4,M,,*68
$PYRTM,2024,127.917242867234,19.026890277384
$GPGGA,220048.00,3319.6106,N,11833.8059,W,1,10,0.8,11.7,M,-34.4,M,,*67
$PYRTM,2024,127.917254427153,19.026901837292
$GPGGA,220049.00,3319.6091,N,11833.8037,W,1,10,0.8,12.3,M,-34.4,M,,*66
$PYRTM,2024,127.917266002604,19.026913412743
$GPGGA,220050.00,3319.6077,N,11833.8016,W,1,10,0.8,13.3,M,-34.4,M,,*64
$PYRTM,2024,127.917277575683,19.026924985822
$GPGGA,220051.00,3319.6062,N,11833.7995,W,1,10,0.8,16.6,M,-34.4,M,,*6C
$PYRTM,2024,127.917289152083,19.026936562222
$GPGGA,220052.00,3319.6047,N,11833.7975,W,1,10,0.8,14.7,M,-34.4,M,,*65
$PYRTM,2024,127.917300724213,19.026948134363
$GPGGA,220053.00,3319.6033,N,11833.7954,W,1,10,0.8,12.7,M,-34.4,M,,*62
$PYRTM,2024,127.917312312894,19.026959723032
$GPGGA,220054.00,3319.6018,N,11833.7933,W,1,10,0.8,14.1,M,-34.4,M,,*6D
$PYRTM,2024,127.917323872720,19.026971282859
$GPGGA,220055.00,3319.6003,N,11833.7911,W,1,10,0.8,14.5,M,-34.4,M,,*62
$PYRTM,2024,127.917335460486,19.026982870625
$GPGGA,220056.00,3319.5987,N,11833.7890,W,1,10,0.8,12.9,M,-34.4,M,,*65
$PYRTM,2024,127.917347020336,19.026994430475
$GPGGA,220057.00,3319.5970,N,11833.7870,W,1,10,0.8,13.9,M,-34.4,M,,*63
$PYRTM,2024,127.917358605359,19.027006015498
$GPGGA,220058.00,3319.5954,N,11833.7849,W,1,10,0.8,12.5,M,-34.4,M,,*6D
$PYRTM,2024,127.917370170185,19.027017580324
$GPGGA,220059.00,3319.5939,N,11833.7828,W,1,10,0.8,13.3,M,-34.4,M,,*67
$PYRTM,2024,127.917381757894,19.027029168032
$GPGGA,220100.00,3319.5926,N,11833.7806,W,1,10,0.8,13.4,M,-34.4,M,,*6F
$PYRTM,2024,127.917393317569,19.027040727720
$GPGGA,220101.00,3319.5913,N,11833.7784,W,1,10,0.8,16.3,M,-34.4,M,,*6F
$PYRTM,2024,127.917404894248,19.027052304387
$GPGGA,220102.00,3319.5899,N,11833.7763,W,1,10,0.8,18.6,M,-34.4,M,,*6D
$PYRTM,2024,127.917416465949,19.027063876088
$GPGGA,220103.00,3319.5883,N,11833.7744,W,1,10,0.8,15.9,M,-34.4,M,,*60
$PYRTM,2024,127.917428044479,19.027075454618
$GPGGA,220104.00,3319.5868,N,11833.7724,W,1,10,0.8,15.0,M,-34.4,M,,*6D
$PYRTM,2024,127.917439970150,19.027087380289
$GPGGA,220105.00,3319.5853,N,11833.7702,W,1,10,0.8,15.0,M,-34.4,M,,*60
$PYRTM,2024,127.917451537014,19.027098947153
$GPGGA,220106.00,3319.5839,N,11833.7680,W,1,10,0.8,15.6,M,-34.4,M,,*62
$PYRTM,2024,127.917462762431,19.027110172569
$GPGGA,220107.00,3319.5825,N,11833.7658,W,1,10,0.8,17.6,M,-34.4,M,,*69
$PYRTM,2024,127.917474685324,19.027122095463
$GPGGA,220108.00,3319.5810,N,11833.7637,W,1,10,0.8,16.1,M,-34.4,M,,*6F
$PYRTM,2024,127.917486278160,19.027133688299
$GPGGA,220109.00,3319.5793,N,11833.7616,W,1,10,0.8,15.1,M,-34.4,M,,*6A
$PYRTM,2024,127.917497500428,19.027144910579
$GPGGA,220110.00,3319.5778,N,11833.7596,W,1,10,0.8,15.3,M,-34.4,M,,*6E
$PYRTM,2024,127.917509059884,19.027156470035
$GPGGA,220111.00,3319.5764,N,11833.7574,W,1,10,0.8,17.5,M,-34.4,M,,*6A
$PYRTM,2024,127.917520643021,19.027168053160
$GPGGA,220112.00,3319.5749,N,11833.7553,W,1,10,0.8,15.5,M,-34.4,M,,*61
$PYRTM,2024,127.917532207373,19.027179617512
$GPGGA,220113.00,3319.5734,N,11833.7533,W,1,10,0.8,15.1,M,-34.4,M,,*68
$PYRTM,2024,127.917543795278,19.027191205428
$GPGGA,220114.00,3319.5717,N,11833.7514,W,1,10,0.8,14.6,M,-34.4,M,,*6D
$PYRTM,2024,127.917556399931,19.027203810069
$GPGGA,220115.00,3319.5700,N,11833.7494,W,1,10,0.8,14.3,M,-34.4,M,,*66
$PYRTM,2024,127.917569131667,19.027216541817
$GPGGA,220116.00,3319.5683,N,11833.7473,W,1,10,0.8,14.8,M,-34.4,M,,*6D
$PYRTM,2024,127.917578503646,19.027225913785
$GPGGA,220117.00,3319.5667,N,11833.7451,W,1,10,0.8,16.0,M,-34.4,M,,*6C
$PYRTM,2024,127.917590086470,19.027237496609
$GPGGA,220118.00,3319.5651,N,11833.7430,W,1,10,0.8,15.9,M,-34.4,M,,*6B
$PYRTM,2024,127.917601652743,19.027249062882
$GPGGA,220119.00,3319.5636,N,11833.7408,W,1,10,0.8,15.2,M,-34.4,M,,*6B
$PYRTM,2024,127.917613244363,19.027260654502
$GPGGA,220120.00,3319.5621,N,11833.7387,W,1,10,0.8,14.9,M,-34.4,M,,*6D
$PYRTM,2024,127.917624805868,19.027272216007
$GPGGA,220121.00,3319.5605,N,11833.7366,W,1,10,0.8,15.2,M,-34.4,M,,*6F
$PYRTM,2024,127.917636398530,19.027283808669
$GPGGA,220122.00,3319.5589,N,11833.7346,W,1,10,0.8,13.9,M,-34.4,M,,*64
$PYRTM,2024,127.917647959005,19.027295369144
$GPGGA,220123.00,3319.5572,N,11833.7325,W,1,10,0.8,12.0,M,-34.4,M,,*6C
$PYRTM,2024,127.917659536331,19.027306946470
$GPGGA,220124.00,3319.5556,N,11833.7305,W,1,10,0.8,14.6,M,-34.4,M,,*6F
$PYRTM,2024,127.917671097315,19.027318507454
$GPGGA,220125.00,3319.5541,N,11833.7285,W,1,10,0.8,17.0,M,-34.4,M,,*64
$PYRTM,2024,127.917682693900,19.027330104039
$GPGGA,220126.00,3319.5526,N,11833.7265,W,1,10,0.8,17.8,M,-34.4,M,,*60
$PYRTM,2024,127.917694247477,19.027341657616
$GPGGA,220127.00,3319.5513,N,11833.7245,W,1,10,0.8,18.3,M,-34.4,M,,*61
$PYRTM,2024,127.917705830324,19.027353240463
$GPGGA,220128.00,3319.5499,N,11833.7225,W,1,10,0.8,17.0,M,-34.4,M,,*67
$PYRTM,2024,127.917717393854,19.027364804005
$GPGGA,220129.00,3319.5485,N,11833.7205,W,1,10,0.8,19.2,M,-34.4,M,,*65
$PYRTM,2024,127.917728986956,19.027376397106
$GPGGA,220130.00,3319.5470,N,11833.7184,W,1,10,0.8,17.4,M,-34.4,M,,*65
$PYRTM,2024,127.917740541921,19.027387952060
$GPGGA,220131.00,3319.5456,N,11833.7163,W,1,10,0.8,15.7,M,-34.4,M,,*68
$PYRTM,2024,127.917752125556,19.027399535694
$GPGGA,220132.00,3319.5442,N,11833.7141,W,1,10,0.8,14.0,M,-34.4,M,,*68
$PYRTM,2024,127.917763691597,19.027411101736
$GPGGA,220133.00,3319.5426,N,11833.7119,W,1,10,0.8,15.3,M,-34.4,M,,*64
$PYRTM,2024,127.917775278403,19.027422688542
$GPGGA,220134.00,3319.5410,N,11833.7096,W,1,10,0.8,16.9,M,-34.4,M,,*69
$PYRTM,2024,127.917786839248,19.027434249387
$GPGGA,220135.00,3319.5396,N,11833.7073,W,1,10,0.8,16.4,M,-34.4,M,,*67
$PYRTM,2024,127.917798426771,19.027445836910
$GPGGA,220136.00,3319.5382,N,11833.7051,W,1,10,0.8,16.5,M,-34.4,M,,*60
$PYRTM,2024,127.917809987222,19.027457397361
$GPGGA,220137.00,3319.5368,N,11833.7030,W,1,10,0.8,16.1,M,-34.4,M,,*66
$PYRTM,2024,127.917821911331,19.027469321470
$GPGGA,220138.00,3319.5354,N,11833.7011,W,1,10,0.8,15.4,M,-34.4,M,,*63
$PYRTM,2024,127.917833612593,19.027481022731
$GPGGA,220139.00,3319.5339,N,11833.6992,W,1,10,0.8,13.5,M,-34.4,M,,*6D
$PYRTM,2024,127.917845174803,19.027492584942
$GPGGA,220140.00,3319.5323,N,11833.6972,W,1,10,0.8,12.8,M,-34.4,M,,*6A
$PYRTM,2024,127.917856761435,19.027504171574
$GPGGA,220141.00,3319.5308,N,11833.6951,W,1,10,0.8,13.3,M,-34.4,M,,*69
$PYRTM,2024,127.917868322350,19.027515732488
$GPGGA,220142.00,3319.5292,N,11833.6931,W,1,10,0.8,13.4,M,-34.4,M,,*69
$PYRTM,2024,127.917879909479,19.027527319618
$GPGGA,220143.00,3319.5275,N,11833.6910,W,1,10,0.8,12.8,M,-34.4,M,,*6F
$PYRTM,2024,127.917891469421,19.027538879572
$GPGGA,220144.00,3319.5259,N,11833.6888,W,1,10,0.8,13.2,M,-34.4,M,,*6D
$PYRTM,2024,127.917904202546,19.027551612685
$GPGGA,220145.00,3319.5244,N,11833.6867,W,1,10,0.8,19.0,M,-34.4,M,,*69
$PYRTM,2024,127.917916354363,19.027563764502
$GPGGA,220146.00,3319.5230,N,11833.6846,W,1,10,0.8,21.3,M,-34.4,M,,*62
$PYRTM,2024,127.917925731435,19.027573141574
$GPGGA,220147.00,3319.5217,N,11833.6824,W,1,10,0.8,20.5,M,-34.4,M,,*65
$PYRTM,2024,127.917937316678,19.027584726829
$GPGGA,220148.00,3319.5203,N,11833.6801,W,1,10,0.8,20.3,M,-34.4,M,,*6E
$PYRTM,2024,127.917948879479,19.027596289618
$GPGGA,220149.00,3319.5189,N,11833.6780,W,1,10,0.8,18.1,M,-34.4,M,,*61
$PYRTM,2024,127.917960466262,19.027607876400
$GPGGA,220150.00,3319.5175,N,11833.6758,W,1,10,0.8,15.1,M,-34.4,M,,*62
$PYRTM,2024,127.917972026655,19.027619436794
$GPGGA,220151.00,3319.5161,N,11833.6736,W,1,10,0.8,14.5,M,-34.4,M,,*6B
$PYRTM,2024,127.917983613542,19.027631023681
$GPGGA,220152.00,3319.5147,N,11833.6714,W,1,10,0.8,17.5,M,-34.4,M,,*6F
$PYRTM,2024,127.917995175949,19.027642586088
$GPGGA,220153.00,3319.5133,N,11833.6691,W,1,10,0.8,19.3,M,-34.4,M,,*69
$PYRTM,2024,127.918006761713,19.027654171852
$GPGGA,220154.00,3319.5118,N,11833.6670,W,1,10,0.8,19.6,M,-34.4,M,,*6D
$PYRTM,2024,127.918018678113,19.027666088252
$GPGGA,220155.00,3319.5102,N,11833.6649,W,1,10,0.8,19.0,M,-34.4,M,,*6B
$PYRTM,2024,127.918029910127,19.027677320266
$GPGGA,220156.00,3319.5087,N,11833.6628,W,1,10,0.8,19.8,M,-34.4,M,,*6B
$PYRTM,2024,127.918041472245,19.027688882384
$GPGGA,220157.00,3319.5073,N,11833.6607,W,1,10,0.8,20.1,M,-34.4,M,,*6F
$PYRTM,2024,127.918053062396,19.027700472535
$GPGGA,220158.00,3319.5060,N,11833.6587,W,1,10,0.8,18.9,M,-34.4,M,,*6A
$PYRTM,2024,127.918063693981,19.027711104120
$GPGGA,220159.00,3319.5046,N,11833.6567,W,1,10,0.8,16.6,M,-34.4,M,,*60
$PYRTM,2024,127.918076657037,19.027724067176
$GPGGA,220200.00,3319.5030,N,11833.6548,W,1,10,0.8,14.9,M,-34.4,M,,*6E
$PYRTM,2024,127.918087435081,19.027734845220
$GPGGA,220201.00,3319.5014,N,11833.6528,W,1,10,0.8,14.5,M,-34.4,M,,*63
$PYRTM,2024,127.918098663090,19.027746073229
$GPGGA,220202.00,3319.4999,N,11833.6507,W,1,10,0.8,17.0,M,-34.4,M,,*66
$PYRTM,2024,127.918109766678,19.027757176829
$GPGGA,220203.00,3319.4982,N,11833.6486,W,1,10,0.8,15.0,M,-34.4,M,,*67
$PYRTM,2024,127.918120878900,19.027768289039
$GPGGA,220204.00,3319.4967,N,11833.6464,W,1,10,0.8,15.7,M,-34.4,M,,*60
$PYRTM,2024,127.918131990104,19.027779400243
$GPGGA,220205.00,3319.4953,N,11833.6443,W,1,10,0.8,16.7,M,-34.4,M,,*60
$PYRTM,2024,127.918143212141,19.027790622280
$GPGGA,220206.00,3319.4938,N,11833.6424,W,1,10,0.8,18.3,M,-34.4,M,,*65
$PYRTM,2024,127.918154318542,19.027801728681
$GPGGA,220207.00,3319.4922,N,11833.6403,W,1,10,0.8,16.0,M,-34.4,M,,*67
$PYRTM,2024,127.918165911956,19.027813322095
$GPGGA,220208.00,3319.4908,N,11833.6383,W,1,10,0.8,15.1,M,-34.4,M,,*6D
$PYRTM,2024,127.918177017963,19.027824428102
$GPGGA,220209.00,3319.4894,N,11833.6362,W,1,10,0.8,18.2,M,-34.4,M,,*69
$PYRTM,2024,127.918188132674,19.027835542813
$GPGGA,220210.00,3319.4878,N,11833.6343,W,1,10,0.8,15.3,M,-34.4,M,,*6C
$PYRTM,2024,127.918199356238,19.027846766389
$GPGGA,220211.00,3319.4861,N,11833.6324,W,1,10,0.8,14.9,M,-34.4,M,,*6F
$PYRTM,2024,127.918210467025,19.027857877176
$GPGGA,220212.00,3319.4845,N,11833.6305,W,1,10,0.8,15.9,M,-34.4,M,,*68
$PYRTM,2024,127.918222620046,19.027870030197
$GPGGA,220213.00,3319.4832,N,11833.6284,W,1,10,0.8,18.5,M,-34.4,M,,*60
$PYRTM,2024,127.918233730625,19.027881140764
$GPGGA,220214.00,3319.4819,N,11833.6261,W,1,10,0.8,17.4,M,-34.4,M,,*6B
$PYRTM,2024,127.918248662500,19.027896072639
$GPGGA,220215.00,3319.4805,N,11833.6239,W,1,10,0.8,15.3,M,-34.4,M,,*6F
$PYRTM,2024,127.918260236215,19.027907646354
$GPGGA,220216.00,3319.4790,N,11833.6217,W,1,10,0.8,16.8,M,-34.4,M,,*6B
$PYRTM,2024,127.918271811400,19.027919221539
$GPGGA,220217.00,3319.4775,N,11833.6197,W,1,10,0.8,16.3,M,-34.4,M,,*61
$PYRTM,2024,127.918283384317,19.027930794456
$GPGGA,220218.00,3319.4760,N,11833.6178,W,1,10,0.8,16.4,M,-34.4,M,,*6C
$PYRTM,2024,127.918294958194,19.027942368345
$GPGGA,220219.00,3319.4746,N,11833.6159,W,1,10,0.8,15.4,M,-34.4,M,,*69
$PYRTM,2024,127.918306532222,19.027953942361
$GPGGA,220220.00,3319.4732,N,11833.6137,W,1,10,0.8,15.2,M,-34.4,M,,*6E
$PYRTM,2024,127.918318106701,19.027965516840
$GPGGA,220221.00,3319.4718,N,11833.6115,W,1,10,0.8,15.3,M,-34.4,M,,*66
$PYRTM,2024,127.918329681701,19.027977091840
$GPGGA,220222.00,3319.4702,N,11833.6093,W,1,10,0.8,16.4,M,-34.4,M,,*65
$PYRTM,2024,127.918341254456,19.027988664606
$GPGGA,220223.00,3319.4686,N,11833.6073,W,1,10,0.8,17.9,M,-34.4,M,,*6B
$PYRTM,2024,127.918352824062,19.028000234201
$GPGGA,220224.00,3319.4669,N,11833.6053,W,1,10,0.8,18.8,M,-34.4,M,,*61
$PYRTM,2024,127.918364403241,19.028011813391
$GPGGA,220225.00,3319.4654,N,11833.6033,W,1,10,0.8,17.7,M,-34.4,M,,*68
$PYRTM,2024,127.918375980741,19.028023390880
$GPGGA,220226.00,3319.4640,N,11833.6012,W,1,10,0.8,16.8,M,-34.4,M,,*63
$PYRTM,2024,127.918387551620,19.028034961759
$GPGGA,220227.00,3319.4624,N,11833.5992,W,1,10,0.8,16.3,M,-34.4,M,,*69
$PYRTM,2024,127.918399127106,19.028046537257
$GPGGA,220228.00,3319.4609,N,11833.5972,W,1,10,0.8,13.0,M,-34.4,M,,*61
$PYRTM,2024,127.918410699294,19.028058109433
$GPGGA,220229.00,3319.4593,N,11833.5952,W,1,10,0.8,12.1,M,-34.4,M,,*62
$PYRTM,2024,127.918422275382,19.028069685521
$GPGGA,220230.00,3319.4578,N,11833.5931,W,1,10,0.8,12.9,M,-34.4,M,,*62
$PYRTM,2024,127.918433849537,19.028081259676
$GPGGA,220231.00,3319.4562,N,11833.5910,W,1,10,0.8,13.3,M,-34.4,M,,*60
$PYRTM,2024,127.918445424062,19.028092834201
$GPGGA,220232.00,3319.4546,N,11833.5887,W,1,10,0.8,12.9,M,-34.4,M,,*61
$PYRTM,2024,127.918456996366,19.028104406505
$GPGGA,220233.00,3319.4529,N,11833.5865,W,1,10,0.8,12.9,M,-34.4,M,,*65
$PYRTM,2024,127.918468570822,19.028115980961
$GPGGA,220234.00,3319.4512,N,11833.5842,W,1,10,0.8,14.0,M,-34.4,M,,*60
$PYRTM,2024,127.918480140324,19.028127550463
$GPGGA,220235.00,3319.4496,N,11833.5820,W,1,10,0.8,13.5,M,-34.4,M,,*6A
$PYRTM,2024,127.918491719630,19.028139129769
$GPGGA,220236.00,3319.4480,N,11833.5798,W,1,10,0.8,14.8,M,-34.4,M,,*68
$PYRTM,2024,127.918503293646,19.028150703785
$GPGGA,220237.00,3319.4464,N,11833.5778,W,1,10,0.8,17.8,M,-34.4,M,,*6E
$PYRTM,2024,127.918515099537,19.028162509676
$GPGGA,220238.00,3319.4448,N,11833.5757,W,1,10,0.8,15.9,M,-34.4,M,,*61
$PYRTM,2024,127.918526441655,19.028173851794
$GPGGA,220239.00,3319.4433,N,11833.5736,W,1,10,0.8,14.0,M,-34.4,M,,*63
$PYRTM,2024,127.918538019317,19.028185429456
$GPGGA,220240.00,3319.4419,N,11833.5715,W,1,10,0.8,15.0,M,-34.4,M,,*65
$PYRTM,2024,127.918549589560,19.028196999699
$GPGGA,220241.00,3319.4403,N,11833.5694,W,1,10,0.8,15.8,M,-34.4,M,,*6F
$PYRTM,2024,127.918561168056,19.028208578194
$GPGGA,220242.00,3319.4387,N,11833.5673,W,1,10,0.8,14.7,M,-34.4,M,,*60
$PYRTM,2024,127.918572738507,19.028220148657
$GPGGA,220243.00,3319.4372,N,11833.5651,W,1,10,0.8,14.5,M,-34.4,M,,*69
$PYRTM,2024,127.918584314016,19.028231724155
$GPGGA,220244.00,3319.4358,N,11833.5628,W,1,10,0.8,14.1,M,-34.4,M,,*6C
$PYRTM,2024,127.918595989178,19.028243399317
$GPGGA,220245.00,3319.4344,N,11833.5604,W,1,10,0.8,16.7,M,-34.4,M,,*6A
$PYRTM,2024,127.918608721400,19.028256131539
$GPGGA,220246.00,3319.4330,N,11833.5582,W,1,10,0.8,16.2,M,-34.4,M,,*62
$PYRTM,2024,127.918620178160,19.028267588299
$GPGGA,220247.00,3319.4314,N,11833.5561,W,1,10,0.8,15.8,M,-34.4,M,,*61
$PYRTM,2024,127.918631761644,19.028279171782
$GPGGA,220248.00,3319.4299,N,11833.5541,W,1,10,0.8,17.3,M,-34.4,M,,*61
$PYRTM,2024,127.918643327512,19.028290737650
$GPGGA,220249.00,3319.4285,N,11833.5520,W,1,10,0.8,19.3,M,-34.4,M,,*64
$PYRTM,2024,127.918654914688,19.028302324826
$GPGGA,220250.00,3319.4271,N,11833.5500,W,1,10,0.8,18.2,M,-34.4,M,,*65
$PYRTM,2024,127.918666475093,19.028313885231
$GPGGA,220251.00,3319.4257,N,11833.5480,W,1,10,0.8,17.4,M,-34.4,M,,*60
$PYRTM,2024,127.918678063403,19.028325473542
$GPGGA,220252.00,3319.4242,N,11833.5461,W,1,10,0.8,17.3,M,-34.4,M,,*6F
$PYRTM,2024,127.918689623657,19.028337033796
$GPGGA,220253.00,3319.4227,N,11833.5441,W,1,10,0.8,15.5,M,-34.4,M,,*6B
$PYRTM,2024,127.918701224398,19.028348634537
$GPGGA,220254.00,3319.4213,N,11833.5420,W,1,10,0.8,17.1,M,-34.4,M,,*6A
$PYRTM,2024,127.918712772627,19.028360182766
$GPGGA,220255.00,3319.4199,N,11833.5399,W,1,10,0.8,19.1,M,-34.4,M,,*61
$PYRTM,2024,127.918724359410,19.028371769560
$GPGGA,220256.00,3319.4184,N,11833.5378,W,1,10,0.8,19.9,M,-34.4,M,,*69
$PYRTM,2024,127.918735922188,19.028383332338
$GPGGA,220257.00,3319.4167,N,11833.5359,W,1,10,0.8,17.0,M,-34.4,M,,*61
$PYRTM,2024,127.918747503275,19.028394913414
$GPGGA,220258.00,3319.4151,N,11833.5338,W,1,10,0.8,17.6,M,-34.4,M,,*6A
$PYRTM,2024,127.918759070116,19.028406480255
$GPGGA,220259.00,3319.4136,N,11833.5315,W,1,10,0.8,17.5,M,-34.4,M,,*66
$PYRTM,2024,127.918770670544,19.028418080683
$GPGGA,220300.00,3319.4121,N,11833.5292,W,1,10,0.8,16.0,M,-34.4,M,,*67
$PYRTM,2024,127.918782217731,19.028429627882
$GPGGA,220301.00,3319.4105,N,11833.5270,W,1,10,0.8,11.8,M,-34.4,M,,*63
$PYRTM,2024,127.918793807731,19.028441217870
$GPGGA,220302.00,3319.4088,N,11833.5250,W,1,10,0.8,17.3,M,-34.4,M,,*6B
$PYRTM,2024,127.918805366273,19.028452776412
$GPGGA,220303.00,3319.4072,N,11833.5231,W,1,10,0.8,17.3,M,-34.4,M,,*68
$PYRTM,2024,127.918816952338,19.028464362477
$GPGGA,220304.00,3319.4057,N,11833.5210,W,1,10,0.8,17.7,M,-34.4,M,,*6F
$PYRTM,2024,127.918828514433,19.028475924572
$GPGGA,220305.00,3319.4043,N,11833.5189,W,1,10,0.8,15.6,M,-34.4,M,,*6B
$PYRTM,2024,127.918840102176,19.028487512315
$GPGGA,220306.00,3319.4028,N,11833.5167,W,1,10,0.8,16.1,M,-34.4,M,,*61
$PYRTM,2024,127.918851662986,19.028499073125
$GPGGA,220307.00,3319.4013,N,11833.5145,W,1,10,0.8,16.2,M,-34.4,M,,*6B
$PYRTM,2024,127.918863583727,19.028510993866
$GPGGA,220308.00,3319.3997,N,11833.5121,W,1,10,0.8,16.5,M,-34.4,M,,*63
$PYRTM,2024,127.918875058333,19.028522468484
$GPGGA,220309.00,3319.3981,N,11833.5097,W,1,10,0.8,15.6,M,-34.4,M,,*69
$PYRTM,2024,127.918886393079,19.028533803229
$GPGGA,220310.00,3319.3965,N,11833.5075,W,1,10,0.8,16.5,M,-34.4,M,,*67
$PYRTM,2024,127.918897959248,19.028545369398
$GPGGA,220311.00,3319.3949,N,11833.5053,W,1,10,0.8,18.8,M,-34.4,M,,*6F
$PYRTM,2024,127.918909545729,19.028556955868
$GPGGA,220312.00,3319.3933,N,11833.5032,W,1,10,0.8,19.7,M,-34.4,M,,*68
$PYRTM,2024,127.918921107535,19.028568517674
$GPGGA,220313.00,3319.3917,N,11833.5011,W,1,10,0.8,19.7,M,-34.4,M,,*6E
$PYRTM,2024,127.918932694873,19.028580105023
$GPGGA,220314.00,3319.3902,N,11833.4991,W,1,10,0.8,18.1,M,-34.4,M,,*6A
$PYRTM,2024,127.918945297153,19.028592707292
$GPGGA,220315.00,3319.3888,N,11833.4971,W,1,10,0.8,15.0,M,-34.4,M,,*6A
$PYRTM,2024,127.918957913623,19.028605323762
$GPGGA,220316.00,3319.3873,N,11833.4952,W,1,10,0.8,14.8,M,-34.4,M,,*65
$PYRTM,2024,127.918967404074,19.028614814213
$GPGGA,220317.00,3319.3858,N,11833.4933,W,1,10,0.8,15.5,M,-34.4,M,,*66
$PYRTM,2024,127.918978992303,19.028626402442
$GPGGA,220318.00,3319.3843,N,11833.4913,W,1,10,0.8,16.8,M,-34.4,M,,*6F
$PYRTM,2024,127.918990553646,19.028637963785
$GPGGA,220319.00,3319.3828,N,11833.4893,W,1,10,0.8,16.6,M,-34.4,M,,*64
$PYRTM,2024,127.919002142130,19.028649552269
$GPGGA,220320.00,3319.3814,N,11833.4872,W,1,10,0.8,16.1,M,-34.4,M,,*69
$PYRTM,2024,127.919013700417,19.028661110556
$GPGGA,220321.00,3319.3799,N,11833.4851,W,1,10,0.8,16.2,M,-34.4,M,,*60
$PYRTM,2024,127.919025288715,19.028672698854
$GPGGA,220322.00,3319.3783,N,11833.4830,W,1,10,0.8,16.9,M,-34.4,M,,*64
$PYRTM,2024,127.919036849444,19.028684259583
$GPGGA,220323.00,3319.3768,N,11833.4809,W,1,10,0.8,17.9,M,-34.4,M,,*6B
$PYRTM,2024,127.919048436632,19.028695846771
$GPGGA,220324.00,3319.3754,N,11833.4787,W,1,10,0.8,18.2,M,-34.4,M,,*6E
$PYRTM,2024,127.919059999201,19.028707409340
$GPGGA,220325.00,3319.3741,N,11833.4765,W,1,10,0.8,15.8,M,-34.4,M,,*60
$PYRTM,2024,127.919071584155,19.028718994294
$GPGGA,220326.00,3319.3728,N,11833.4746,W,1,10,0.8,13.4,M,-34.4,M,,*67
$PYRTM,2024,127.919083145405,19.028730555544
$GPGGA,220327.00,3319.3712,N,11833.4727,W,1,10,0.8,13.4,M,-34.4,M,,*68
$PYRTM,2024,127.919094733819,19.028742143958
$GPGGA,220328.00,3319.3697,N,11833.4709,W,1,10,0.8,13.4,M,-34.4,M,,*67
$PYRTM,2024,127.919106294757,19.028753704896
$GPGGA,220329.00,3319.3683,N,11833.4689,W,1,10,0.8,14.5,M,-34.4,M,,*6C
$PYRTM,2024,127.919117883600,19.028765293738
$GPGGA,220330.00,3319.3669,N,11833.4668,W,1,10,0.8,14.8,M,-34.4,M,,*62
$PYRTM,2024,127.919129442662,19.028776852801
$GPGGA,220331.00,3319.3654,N,11833.4646,W,1,10,0.8,16.6,M,-34.4,M,,*6D
$PYRTM,2024,127.919141044201,19.028788454340
$GPGGA,220332.00,3319.3638,N,11833.4624,W,1,10,0.8,18.6,M,-34.4,M,,*6E
$PYRTM,2024,127.919152590718,19.028800000868
$GPGGA,220333.00,3319.3623,N,11833.4603,W,1,10,0.8,18.3,M,-34.4,M,,*65
$PYRTM,2024,127.919164172512,19.028811582650
$GPGGA,220334.00,3319.3608,N,11833.4581,W,1,10,0.8,18.6,M,-34.4,M,,*67
$PYRTM,2024,127.919176095069,19.028823505208
$GPGGA,220335.00,3319.3593,N,11833.4561,W,1,10,0.8,19.4,M,-34.4,M,,*6A
$PYRTM,2024,127.919187662859,19.028835072998
$GPGGA,220336.00,3319.3578,N,11833.4540,W,1,10,0.8,19.7,M,-34.4,M,,*6C
$PYRTM,2024,127.919199251481,19.028846661620
$GPGGA,220337.00,3319.3564,N,11833.4519,W,1,10,0.8,19.9,M,-34.4,M,,*62
$PYRTM,2024,127.919211272280,19.028858682419
$GPGGA,220338.00,3319.3550,N,11833.4499,W,1,10,0.8,16.0,M,-34.4,M,,*65
$PYRTM,2024,127.919222398819,19.028869808958
$GPGGA,220339.00,3319.3536,N,11833.4479,W,1,10,0.8,15.5,M,-34.4,M,,*6C
$PYRTM,2024,127.919234071424,19.028881481563
$GPGGA,220340.00,3319.3520,N,11833.4459,W,1,10,0.8,16.2,M,-34.4,M,,*63
$PYRTM,2024,127.919245661389,19.028893071539
$GPGGA,220341.00,3319.3503,N,11833.4440,W,1,10,0.8,14.8,M,-34.4,M,,*63
$PYRTM,2024,127.919257220856,19.028904630995
$GPGGA,220342.00,3319.3487,N,11833.4418,W,1,10,0.8,16.6,M,-34.4,M,,*6C
$PYRTM,2024,127.919268809711,19.028916219850
$GPGGA,220343.00,3319.3472,N,11833.4396,W,1,10,0.8,19.4,M,-34.4,M,,*6B
$PYRTM,2024,127.919280371586,19.028927781736
$GPGGA,220344.00,3319.3457,N,11833.4373,W,1,10,0.8,17.1,M,-34.4,M,,*6B
$PYRTM,2024,127.919292994097,19.028940404236
$GPGGA,220345.00,3319.3442,N,11833.4350,W,1,10,0.8,18.6,M,-34.4,M,,*67
$PYRTM,2024,127.919305139005,19.028952549144
$GPGGA,220346.00,3319.3426,N,11833.4327,W,1,10,0.8,16.8,M,-34.4,M,,*66
$PYRTM,2024,127.919314628553,19.028962038704
$GPGGA,220347.00,3319.3410,N,11833.4306,W,1,10,0.8,16.4,M,-34.4,M,,*6D
$PYRTM,2024,127.919326205185,19.028973615324
$GPGGA,220348.00,3319.3393,N,11833.4287,W,1,10,0.8,17.2,M,-34.4,M,,*61
$PYRTM,2024,127.919337661030,19.028985071169
$GPGGA,220349.00,3319.3378,N,11833.4268,W,1,10,0.8,16.3,M,-34.4,M,,*64
$PYRTM,2024,127.919349352650,19.028996762801
$GPGGA,220350.00,3319.3364,N,11833.4248,W,1,10,0.8,17.0,M,-34.4,M,,*61
$PYRTM,2024,127.919360925220,19.029008335359
$GPGGA,220351.00,3319.3351,N,11833.4227,W,1,10,0.8,16.4,M,-34.4,M,,*6A
$PYRTM,2024,127.919372397813,19.029019807951
$GPGGA,220352.00,3319.3335,N,11833.4207,W,1,10,0.8,16.5,M,-34.4,M,,*68
$PYRTM,2024,127.919384073079,19.029031483218
$GPGGA,220353.00,3319.3319,N,11833.4187,W,1,10,0.8,17.5,M,-34.4,M,,*6D
$PYRTM,2024,127.919395660370,19.029043070509
$GPGGA,220354.00,3319.3303,N,11833.4168,W,1,10,0.8,17.3,M,-34.4,M,,*66
$PYRTM,2024,127.919407221516,19.029054631655
$GPGGA,220355.00,3319.3287,N,11833.4147,W,1,10,0.8,18.3,M,-34.4,M,,*68
$PYRTM,2024,127.919418693368,19.029066103507
$GPGGA,220356.00,3319.3273,N,11833.4125,W,1,10,0.8,16.3,M,-34.4,M,,*6A
$PYRTM,2024,127.919430372477,19.029077782616
$GPGGA,220357.00,3319.3259,N,11833.4103,W,1,10,0.8,16.2,M,-34.4,M,,*66
$PYRTM,2024,127.919441960567,19.029089370718
$GPGGA,220358.00,3319.3244,N,11833.4082,W,1,10,0.8,18.0,M,-34.4,M,,*61
$PYRTM,2024,127.919453519039,19.029100929178
$GPGGA,220359.00,3319.3229,N,11833.4063,W,1,10,0.8,16.7,M,-34.4,M,,*6D
$PYRTM,2024,127.919465108576,19.029112518727
$GPGGA,220400.00,3319.3214,N,11833.4043,W,1,10,0.8,16.2,M,-34.4,M,,*6F
$PYRTM,2024,127.919476667743,19.029124077882
$GPGGA,220401.00,3319.3200,N,11833.4021,W,1,10,0.8,17.5,M,-34.4,M,,*69
$PYRTM,2024,127.919488268565,19.029135678704
$GPGGA,220402.00,3319.3187,N,11833.3999,W,1,10,0.8,16.7,M,-34.4,M,,*68
$PYRTM,2024,127.919499816065,19.029147226215
$GPGGA,220403.00,3319.3173,N,11833.3977,W,1,10,0.8,14.2,M,-34.4,M,,*65
$PYRTM,2024,127.919510476204,19.029157886343
$GPGGA,220404.00,3319.3157,N,11833.3956,W,1,10,0.8,15.0,M,-34.4,M,,*64
$PYRTM,2024,127.919523439317,19.029170849468
$GPGGA,220405.00,3319.3141,N,11833.3936,W,1,10,0.8,18.7,M,-34.4,M,,*6E
$PYRTM,2024,127.919534189630,19.029181599769
$GPGGA,220406.00,3319.3125,N,11833.3915,W,1,10,0.8,19.1,M,-34.4,M,,*69
$PYRTM,2024,127.919545299502,19.029192709641
$GPGGA,220407.00,3319.3111,N,11833.3892,W,1,10,0.8,19.9,M,-34.4,M,,*69
$PYRTM,2024,127.919556888715,19.029204298854
$GPGGA,220408.00,3319.3098,N,11833.3869,W,1,10,0.8,16.8,M,-34.4,M,,*6C
$PYRTM,2024,127.919568109977,19.029215520116
$GPGGA,220409.00,3319.3084,N,11833.3847,W,1,10,0.8,17.8,M,-34.4,M,,*6D
$PYRTM,2024,127.919579226667,19.029226636806
$GPGGA,220410.00,3319.3068,N,11833.3828,W,1,10,0.8,17.5,M,-34.4,M,,*63
$PYRTM,2024,127.919590337697,19.029237747836
$GPGGA,220411.00,3319.3053,N,11833.3809,W,1,10,0.8,19.4,M,-34.4,M,,*66
$PYRTM,2024,127.919601448866,19.029248859005
$GPGGA,220412.00,3319.3039,N,11833.3787,W,1,10,0.8,19.1,M,-34.4,M,,*65
$PYRTM,2024,127.919612662870,19.029260073009
$GPGGA,220413.00,3319.3026,N,11833.3765,W,1,10,0.8,18.3,M,-34.4,M,,*65
$PYRTM,2024,127.919623775081,19.029271185231
$GPGGA,220414.00,3319.3010,N,11833.3743,W,1,10,0.8,16.8,M,-34.4,M,,*66
$PYRTM,2024,127.919634885370,19.029282295509
$GPGGA,220415.00,3319.2994,N,11833.3723,W,1,10,0.8,18.8,M,-34.4,M,,*6B
$PYRTM,2024,127.919649482014,19.029296892153
$GPGGA,220416.00,3319.2977,N,11833.3703,W,1,10,0.8,20.9,M,-34.4,M,,*6D
$PYRTM,2024,127.919660709653,19.029308119792
$GPGGA,220417.00,3319.2962,N,11833.3681,W,1,10,0.8,20.8,M,-34.4,M,,*62
$PYRTM,2024,127.919672284190,19.029319694329
$GPGGA,220418.00,3319.2948,N,11833.3660,W,1,10,0.8,19.8,M,-34.4,M,,*60
$PYRTM,2024,127.919683857292,19.029331267431
$GPGGA,220419.00,3319.2934,N,11833.3640,W,1,10,0.8,20.6,M,-34.4,M,,*6C
$PYRTM,2024,127.919695432199,19.029342842338
$GPGGA,220420.00,3319.2919,N,11833.3620,W,1,10,0.8,18.6,M,-34.4,M,,*64
$PYRTM,2024,127.919707005868,19.029354416019
$GPGGA,220421.00,3319.2903,N,11833.3599,W,1,10,0.8,16.9,M,-34.4,M,,*6E
$PYRTM,2024,127.919718579826,19.029365989965
$GPGGA,220422.00,3319.2888,N,11833.3579,W,1,10,0.8,17.5,M,-34.4,M,,*6C
$PYRTM,2024,127.919730154421,19.029377564560
$GPGGA,220423.00,3319.2873,N,11833.3559,W,1,10,0.8,18.5,M,-34.4,M,,*64
$PYRTM,2024,127.919741727998,19.029389138137
$GPGGA,220424.00,3319.2857,N,11833.3537,W,1,10,0.8,16.8,M,-34.4,M,,*6E
$PYRTM,2024,127.919753768576,19.029401178727
$GPGGA,220425.00,3319.2842,N,11833.3516,W,1,10,0.8,17.5,M,-34.4,M,,*64
$PYRTM,2024,127.919764994907,19.029412405046
$GPGGA,220426.00,3319.2827,N,11833.3495,W,1,10,0.8,18.2,M,-34.4,M,,*66
$PYRTM,2024,127.919776450463,19.029423860613
$GPGGA,220427.00,3319.2811,N,11833.3473,W,1,10,0.8,17.0,M,-34.4,M,,*67
$PYRTM,2024,127.919788028032,19.029435438183
$GPGGA,220428.00,3319.2796,N,11833.3452,W,1,10,0.8,16.2,M,-34.4,M,,*68
$PYRTM,2024,127.919799598831,19.029447008970
$GPGGA,220429.00,3319.2781,N,11833.3432,W,1,10,0.8,16.1,M,-34.4,M,,*6A
$PYRTM,2024,127.919811177245,19.029458587396
$GPGGA,220430.00,3319.2767,N,11833.3411,W,1,10,0.8,16.4,M,-34.4,M,,*6E
$PYRTM,2024,127.919822746505,19.029470156644
$GPGGA,220431.00,3319.2752,N,11833.3392,W,1,10,0.8,15.5,M,-34.4,M,,*67
$PYRTM,2024,127.919834321852,19.029481732002
$GPGGA,220432.00,3319.2737,N,11833.3372,W,1,10,0.8,17.4,M,-34.4,M,,*6A
$PYRTM,2024,127.919845895741,19.029493305880
$GPGGA,220433.00,3319.2721,N,11833.3352,W,1,10,0.8,17.1,M,-34.4,M,,*6B
$PYRTM,2024,127.919857469977,19.029504880116
$GPGGA,220434.00,3319.2705,N,11833.3333,W,1,10,0.8,17.2,M,-34.4,M,,*6E
$PYRTM,2024,127.919869039664,19.029516449803
$GPGGA,220435.00,3319.2688,N,11833.3315,W,1,10,0.8,17.6,M,-34.4,M,,*6B
$PYRTM,2024,127.919880617813,19.029528027951
$GPGGA,220436.00,3319.2674,N,11833.3295,W,1,10,0.8,18.8,M,-34.4,M,,*63
$PYRTM,2024,127.919892187106,19.029539597245
$GPGGA,220437.00,3319.2660,N,11833.3273,W,1,10,0.8,17.4,M,-34.4,M,,*6C
$PYRTM,2024,127.919903882500,19.029551292650
$GPGGA,220438.00,3319.2646,N,11833.3252,W,1,10,0.8,15.8,M,-34.4,M,,*6A
$PYRTM,2024,127.919915340475,19.029562750625
$GPGGA,220439.00,3319.2630,N,11833.3232,W,1,10,0.8,14.1,M,-34.4,M,,*64
$PYRTM,2024,127.919926917824,19.029574327963
$GPGGA,220440.00,3319.2614,N,11833.3214,W,1,10,0.8,14.0,M,-34.4,M,,*69
$PYRTM,2024,127.919938487975,19.029585898113
$GPGGA,220441.00,3319.2600,N,11833.3195,W,1,10,0.8,17.1,M,-34.4,M,,*65
$PYRTM,2024,127.919950077049,19.029597487188
$GPGGA,220442.00,3319.2587,N,11833.3174,W,1,10,0.8,16.4,M,-34.4,M,,*61
$PYRTM,2024,127.919961636632,19.029609046771
$GPGGA,220443.00,3319.2574,N,11833.3155,W,1,10,0.8,13.8,M,-34.4,M,,*66
$PYRTM,2024,127.919973212419,19.029620622558
$GPGGA,220444.00,3319.2559,N,11833.3136,W,1,10,0.8,13.5,M,-34.4,M,,*66
$PYRTM,2024,127.919984548704,19.029631958843
$GPGGA,220445.00,3319.2543,N,11833.3117,W,1,10,0.8,14.4,M,-34.4,M,,*69
$PYRTM,2024,127.919997403854,19.029644814005
$GPGGA,220446.00,3319.2527,N,11833.3096,W,1,10,0.8,14.2,M,-34.4,M,,*66
$PYRTM,2024,127.920008963090,19.029656373229
$GPGGA,220447.00,3319.2512,N,11833.3075,W,1,10,0.8,16.1,M,-34.4,M,,*6D
$PYRTM,2024,127.920020551516,19.029667961655
$GPGGA,220448.00,3319.2498,N,11833.3053,W,1,10,0.8,15.5,M,-34.4,M,,*62
$PYRTM,2024,127.920032110637,19.029679520775
$GPGGA,220449.00,3319.2485,N,11833.3030,W,1,10,0.8,12.9,M,-34.4,M,,*61
$PYRTM,2024,127.920043698264,19.029691108403
$GPGGA,220450.00,3319.2470,N,11833.3008,W,1,10,0.8,10.9,M,-34.4,M,,*6A
$PYRTM,2024,127.920055258206,19.029702668345
$GPGGA,220451.00,3319.2454,N,11833.2988,W,1,10,0.8,13.2,M,-34.4,M,,*65
$PYRTM,2024,127.920066845995,19.029714256134
$GPGGA,220452.00,3319.2439,N,11833.2968,W,1,10,0.8,14.8,M,-34.4,M,,*6E
$PYRTM,2024,127.920078407963,19.029725818113
$GPGGA,220453.00,3319.2425,N,11833.2948,W,1,10,0.8,16.2,M,-34.4,M,,*68
$PYRTM,2024,127.920089994826,19.029737404965
$GPGGA,220454.00,3319.2412,N,11833.2927,W,1,10,0.8,15.5,M,-34.4,M,,*66
$PYRTM,2024,127.920101555625,19.029748965775
$GPGGA,220455.00,3319.2398,N,11833.2906,W,1,10,0.8,14.2,M,-34.4,M,,*67
$PYRTM,2024,127.920113157384,19.029760567523
$GPGGA,220456.00,3319.2383,N,11833.2887,W,1,10,0.8,16.2,M,-34.4,M,,*64
$PYRTM,2024,127.920124705093,19.029772115231
$GPGGA,220457.00,3319.2368,N,11833.2866,W,1,10,0.8,16.8,M,-34.4,M,,*65
$PYRTM,2024,127.920136294491,19.029783704630
$GPGGA,220458.00,3319.2352,N,11833.2845,W,1,10,0.8,17.3,M,-34.4,M,,*68
$PYRTM,2024,127.920147853044,19.029795263183
$GPGGA,220459.00,3319.2335,N,11833.2824,W,1,10,0.8,15.3,M,-34.4,M,,*6D
$PYRTM,2024,127.920159439537,19.029806849676
$GPGGA,220500.00,3319.2320,N,11833.2803,W,1,10,0.8,15.0,M,-34.4,M,,*62
$PYRTM,2024,127.920171000775,19.029818410914
$GPGGA,220501.00,3319.2304,N,11833.2782,W,1,10,0.8,15.2,M,-34.4,M,,*61
$PYRTM,2024,127.920182588588,19.029829998727
$GPGGA,220502.00,3319.2289,N,11833.2761,W,1,10,0.8,18.1,M,-34.4,M,,*65
$PYRTM,2024,127.920194149201,19.029841559340
$GPGGA,220503.00,3319.2274,N,11833.2740,W,1,10,0.8,16.5,M,-34.4,M,,*6F
$PYRTM,2024,127.920205737187,19.029853147326
$GPGGA,220504.00,3319.2260,N,11833.2720,W,1,10,0.8,15.2,M,-34.4,M,,*6F
$PYRTM,2024,127.920217297488,19.029864707627
$GPGGA,220505.00,3319.2245,N,11833.2699,W,1,10,0.8,13.5,M,-34.4,M,,*6B
$PYRTM,2024,127.920228884213,19.029876294352
$GPGGA,220506.00,3319.2231,N,11833.2678,W,1,10,0.8,16.0,M,-34.4,M,,*64
$PYRTM,2024,127.920240446215,19.029887856354
$GPGGA,220507.00,3319.2216,N,11833.2659,W,1,10,0.8,16.2,M,-34.4,M,,*61
$PYRTM,2024,127.920252484144,19.029899894282
$GPGGA,220508.00,3319.2201,N,11833.2639,W,1,10,0.8,16.3,M,-34.4,M,,*6F
$PYRTM,2024,127.920263940995,19.029911351146
$GPGGA,220509.00,3319.2186,N,11833.2619,W,1,10,0.8,14.3,M,-34.4,M,,*62
$PYRTM,2024,127.920275184965,19.029922595104
$GPGGA,220510.00,3319.2171,N,11833.2598,W,1,10,0.8,14.1,M,-34.4,M,,*6A
$PYRTM,2024,127.920286742164,19.029934152303
$GPGGA,220511.00,3319.2155,N,11833.2577,W,1,10,0.8,14.2,M,-34.4,M,,*6F
$PYRTM,2024,127.920298333113,19.029945743252
$GPGGA,220512.00,3319.2138,N,11833.2556,W,1,10,0.8,15.7,M,-34.4,M,,*60
$PYRTM,2024,127.920309890509,19.029957300648
$GPGGA,220513.00,3319.2122,N,11833.2535,W,1,10,0.8,16.5,M,-34.4,M,,*6E
$PYRTM,2024,127.920321477731,19.029968887870
$GPGGA,220514.00,3319.2106,N,11833.2516,W,1,10,0.8,16.9,M,-34.4,M,,*62
$PYRTM,2024,127.920334666285,19.029982076424
$GPGGA,220515.00,3319.2092,N,11833.2497,W,1,10,0.8,13.3,M,-34.4,M,,*68
$PYRTM,2024,127.920346811806,19.029994221944
$GPGGA,220516.00,3319.2077,N,11833.2477,W,1,10,0.8,13.9,M,-34.4,M,,*64
$PYRTM,2024,127.920356187697,19.030003597836
$GPGGA,220517.00,3319.2064,N,11833.2456,W,1,10,0.8,14.7,M,-34.4,M,,*6D
$PYRTM,2024,127.920367773877,19.030015184016
$GPGGA,220518.00,3319.2049,N,11833.2435,W,1,10,0.8,11.9,M,-34.4,M,,*63
$PYRTM,2024,127.920379335301,19.030026745440
$GPGGA,220519.00,3319.2033,N,11833.2414,W,1,10,0.8,11.6,M,-34.4,M,,*63
$PYRTM,2024,127.920390923565,19.030038333704
$GPGGA,220520.00,3319.2018,N,11833.2394,W,1,10,0.8,13.8,M,-34.4,M,,*63
$PYRTM,2024,127.920402483403,19.030049893542
$GPGGA,220521.00,3319.2002,N,11833.2373,W,1,10,0.8,14.6,M,-34.4,M,,*69
$PYRTM,2024,127.920414071863,19.030061482002
$GPGGA,220522.00,3319.1988,N,11833.2352,W,1,10,0.8,13.8,M,-34.4,M,,*68
$PYRTM,2024,127.920425631516,19.030073041655
$GPGGA,220523.00,3319.1975,N,11833.2330,W,1,10,0.8,15.6,M,-34.4,M,,*67
$PYRTM,2024,127.920437222616,19.030084632755
$GPGGA,220524.00,3319.1962,N,11833.2309,W,1,10,0.8,14.8,M,-34.4,M,,*63
$PYRTM,2024,127.920448781412,19.030096191551
$GPGGA,220525.00,3319.1946,N,11833.2289,W,1,10,0.8,15.2,M,-34.4,M,,*66
$PYRTM,2024,127.920460382813,19.030107792963
$GPGGA,220526.00,3319.1931,N,11833.2271,W,1,10,0.8,15.2,M,-34.4,M,,*62
$PYRTM,2024,127.920471928287,19.030119338426
$GPGGA,220527.00,3319.1914,N,11833.2253,W,1,10,0.8,14.0,M,-34.4,M,,*67
$PYRTM,2024,127.920483510312,19.030130920451
$GPGGA,220528.00,3319.1898,N,11833.2235,W,1,10,0.8,14.0,M,-34.4,M,,*6D
$PYRTM,2024,127.920495076169,19.030142486308
$GPGGA,220529.00,3319.1883,N,11833.2215,W,1,10,0.8,13.0,M,-34.4,M,,*63
$PYRTM,2024,127.920506664387,19.030154074525
$GPGGA,220530.00,3319.1868,N,11833.2193,W,1,10,0.8,10.6,M,-34.4,M,,*66
$PYRTM,2024,127.920518225579,19.030165635718
$GPGGA,220531.00,3319.1853,N,11833.2171,W,1,10,0.8,12.2,M,-34.4,M,,*65
$PYRTM,2024,127.920529811817,19.030177221956
$GPGGA,220532.00,3319.1836,N,11833.2151,W,1,10,0.8,12.0,M,-34.4,M,,*65
$PYRTM,2024,127.920541372963,19.030188783102
$GPGGA,220533.00,3319.1821,N,11833.2131,W,1,10,0.8,12.3,M,-34.4,M,,*67
$PYRTM,2024,127.920552960301,19.030200370440
$GPGGA,220534.00,3319.1807,N,11833.2110,W,1,10,0.8,12.4,M,-34.4,M,,*60
$PYRTM,2024,127.920564521782,19.030211931921
$GPGGA,220535.00,3319.1793,N,11833.2088,W,1,10,0.8,13.1,M,-34.4,M,,*67
$PYRTM,2024,127.920576110336,19.030223520475
$GPGGA,220536.00,3319.1778,N,11833.2067,W,1,10,0.8,14.4,M,-34.4,M,,*62
$PYRTM,2024,127.920587672153,19.030235082292
$GPGGA,220537.00,3319.1764,N,11833.2046,W,1,10,0.8,13.2,M,-34.4,M,,*6C
$PYRTM,2024,127.920599706377,19.030247116516
$GPGGA,220538.00,3319.1750,N,11833.2025,W,1,10,0.8,15.1,M,-34.4,M,,*64
$PYRTM,2024,127.920611293727,19.030258703866
$GPGGA,220539.00,3319.1734,N,11833.2003,W,1,10,0.8,14.4,M,-34.4,M,,*67
$PYRTM,2024,127.920622855579,19.030270265718
$GPGGA,220540.00,3319.1720,N,11833.1983,W,1,10,0.8,16.7,M,-34.4,M,,*6F
$PYRTM,2024,127.920634437662,19.030281847801
$GPGGA,220541.00,3319.1705,N,11833.1963,W,1,10,0.8,17.6,M,-34.4,M,,*67
$PYRTM,2024,127.920646005220,19.030293415359
$GPGGA,220542.00,3319.1692,N,11833.1942,W,1,10,0.8,17.2,M,-34.4,M,,*6C
$PYRTM,2024,127.920657590556,19.030305000694
$GPGGA,220543.00,3319.1679,N,11833.1922,W,1,10,0.8,15.5,M,-34.4,M,,*6B
$PYRTM,2024,127.920669153148,19.030316563299
$GPGGA,220544.00,3319.1665,N,11833.1902,W,1,10,0.8,15.2,M,-34.4,M,,*64
$PYRTM,2024,127.920681892303,19.030329302442
$GPGGA,220545.00,3319.1651,N,11833.1882,W,1,10,0.8,15.2,M,-34.4,M,,*6B
$PYRTM,2024,127.920694037083,19.030341447222
$GPGGA,220546.00,3319.1637,N,11833.1862,W,1,10,0.8,13.8,M,-34.4,M,,*6A
$PYRTM,2024,127.920703411944,19.030350822083
$GPGGA,220547.00,3319.1622,N,11833.1842,W,1,10,0.8,14.8,M,-34.4,M,,*6A
$PYRTM,2024,127.920714998611,19.030362408762
$GPGGA,220548.00,3319.1607,N,11833.1823,W,1,10,0.8,17.2,M,-34.4,M,,*6C
$PYRTM,2024,127.920726560324,19.030373970463
$GPGGA,220549.00,3319.1590,N,11833.1804,W,1,10,0.8,16.9,M,-34.4,M,,*6F
$PYRTM,2024,127.920738147060,19.030385557199
$GPGGA,220550.00,3319.1574,N,11833.1785,W,1,10,0.8,16.6,M,-34.4,M,,*64
$PYRTM,2024,127.920749707546,19.030397117685
$GPGGA,220551.00,3319.1560,N,11833.1765,W,1,10,0.8,16.3,M,-34.4,M,,*6B
$PYRTM,2024,127.920761310532,19.030408720671
$GPGGA,220552.00,3319.1545,N,11833.1744,W,1,10,0.8,14.6,M,-34.4,M,,*6B
$PYRTM,2024,127.920772856690,19.030420266829
$GPGGA,220553.00,3319.1529,N,11833.1724,W,1,10,0.8,16.6,M,-34.4,M,,*64
$PYRTM,2024,127.920784461134,19.030431871273
$GPGGA,220554.00,3319.1513,N,11833.1705,W,1,10,0.8,16.4,M,-34.4,M,,*6B
$PYRTM,2024,127.920796004491,19.030443414630
$GPGGA,220555.00,3319.1499,N,11833.1686,W,1,10,0.8,15.5,M,-34.4,M,,*61
$PYRTM,2024,127.920807591551,19.030455001690
$GPGGA,220556.00,3319.1485,N,11833.1666,W,1,10,0.8,13.6,M,-34.4,M,,*64
$PYRTM,2024,127.920819153056,19.030466563194
$GPGGA,220557.00,3319.1470,N,11833.1645,W,1,10,0.8,12.4,M,-34.4,M,,*6D
$PYRTM,2024,127.920830740579,19.030478150718
$GPGGA,220558.00,3319.1454,N,11833.1625,W,1,10,0.8,11.5,M,-34.4,M,,*60
$PYRTM,2024,127.920842301296,19.030489711435
$GPGGA,220559.00,3319.1437,N,11833.1605,W,1,10,0.8,12.4,M,-34.4,M,,*64
$PYRTM,2024,127.920853888681,19.030501298819
$GPGGA,220600.00,3319.1421,N,11833.1584,W,1,10,0.8,14.4,M,-34.4,M,,*60
$PYRTM,2024,127.920865450185,19.030512860324
$GPGGA,220601.00,3319.1407,N,11833.1563,W,1,10,0.8,15.2,M,-34.4,M,,*6B
$PYRTM,2024,127.920877038495,19.030524448634
$GPGGA,220602.00,3319.1394,N,11833.1540,W,1,10,0.8,13.1,M,-34.4,M,,*61
$PYRTM,2024,127.920888599236,19.030536009375
$GPGGA,220603.00,3319.1380,N,11833.1519,W,1,10,0.8,11.1,M,-34.4,M,,*6B
$PYRTM,2024,127.920900186701,19.030547596840
$GPGGA,220604.00,3319.1365,N,11833.1499,W,1,10,0.8,11.0,M,-34.4,M,,*6F
$PYRTM,2024,127.920912217581,19.030559627731
$GPGGA,220605.00,3319.1350,N,11833.1478,W,1,10,0.8,13.0,M,-34.4,M,,*65
$PYRTM,2024,127.920923333044,19.030570743183
$GPGGA,220606.00,3319.1335,N,11833.1458,W,1,10,0.8,13.7,M,-34.4,M,,*60
$PYRTM,2024,127.920934895000,19.030582305139
$GPGGA,220607.00,3319.1321,N,11833.1438,W,1,10,0.8,13.2,M,-34.4,M,,*67
$PYRTM,2024,127.920946933912,19.030594344051
$GPGGA,220608.00,3319.1306,N,11833.1417,W,1,10,0.8,13.4,M,-34.4,M,,*66
$PYRTM,2024,127.920957233750,19.030604643889
$GPGGA,220609.00,3319.1290,N,11833.1395,W,1,10,0.8,13.7,M,-34.4,M,,*67
$PYRTM,2024,127.920970196007,19.030617606146
$GPGGA,220610.00,3319.1275,N,11833.1373,W,1,10,0.8,14.8,M,-34.4,M,,*64
$PYRTM,2024,127.920980973472,19.030628383623
$GPGGA,220611.00,3319.1261,N,11833.1350,W,1,10,0.8,11.7,M,-34.4,M,,*6B
$PYRTM,2024,127.920992200150,19.030639610289
$GPGGA,220612.00,3319.1246,N,11833.1329,W,1,10,0.8,11.5,M,-34.4,M,,*61
$PYRTM,2024,127.921003310243,19.030650720382
$GPGGA,220613.00,3319.1230,N,11833.1309,W,1,10,0.8,13.4,M,-34.4,M,,*60
$PYRTM,2024,127.921014421725,19.030661831863
$GPGGA,220614.00,3319.1215,N,11833.1288,W,1,10,0.8,13.7,M,-34.4,M,,*6B
$PYRTM,2024,127.921025533044,19.030672943183
$GPGGA,220615.00,3319.1201,N,11833.1265,W,1,10,0.8,13.2,M,-34.4,M,,*69
$PYRTM,2024,127.921040220625,19.030687630764
$GPGGA,220616.00,3319.1187,N,11833.1244,W,1,10,0.8,13.5,M,-34.4,M,,*63
$PYRTM,2024,127.921051344907,19.030698755046
$GPGGA,220617.00,3319.1173,N,11833.1224,W,1,10,0.8,10.2,M,-34.4,M,,*6B
$PYRTM,2024,127.921062443484,19.030709853623
$GPGGA,220618.00,3319.1159,N,11833.1205,W,1,10,0.8,10.8,M,-34.4,M,,*65
$PYRTM,2024,127.921073565868,19.030720976007
$GPGGA,220619.00,3319.1145,N,11833.1186,W,1,10,0.8,13.5,M,-34.4,M,,*6F
$PYRTM,2024,127.921084793692,19.030732203831
$GPGGA,220620.00,3319.1131,N,11833.1165,W,1,10,0.8,12.7,M,-34.4,M,,*68
$PYRTM,2024,127.921095903623,19.030743313762
$GPGGA,220621.00,3319.1118,N,11833.1145,W,1,10,0.8,10.7,M,-34.4,M,,*62
$PYRTM,2024,127.921107492118,19.030754902257
$GPGGA,220622.00,3319.1102,N,11833.1126,W,1,10,0.8,11.7,M,-34.4,M,,*6E
$PYRTM,2024,127.921119052789,19.030766462928
$GPGGA,220623.00,3319.1086,N,11833.1108,W,1,10,0.8,14.2,M,-34.4,M,,*6E
$PYRTM,2024,127.921130641597,19.030778051736
$GPGGA,220624.00,3319.1071,N,11833.1089,W,1,10,0.8,12.0,M,-34.4,M,,*6D
$PYRTM,2024,127.921142200961,19.030789611100
$GPGGA,220625.00,3319.1057,N,11833.1069,W,1,10,0.8,13.8,M,-34.4,M,,*6F
$PYRTM,2024,127.921153776597,19.030801186748
$GPGGA,220626.00,3319.1044,N,11833.1047,W,1,10,0.8,15.4,M,-34.4,M,,*68
$PYRTM,2024,127.921165349039,19.030812759178
$GPGGA,220627.00,3319.1030,N,11833.1028,W,1,10,0.8,15.1,M,-34.4,M,,*66
$PYRTM,2024,127.921176923924,19.030824334063
$GPGGA,220628.00,3319.1014,N,11833.1010,W,1,10,0.8,14.9,M,-34.4,M,,*6D
$PYRTM,2024,127.921188497419,19.030835907558
$GPGGA,220629.00,3319.0998,N,11833.0992,W,1,10,0.8,14.4,M,-34.4,M,,*6F
$PYRTM,2024,127.921200071597,19.030847481736
$GPGGA,220630.00,3319.0983,N,11833.0973,W,1,10,0.8,14.8,M,-34.4,M,,*6E
$PYRTM,2024,127.921211640764,19.030859050903
$GPGGA,220631.00,3319.0969,N,11833.0953,W,1,10,0.8,13.9,M,-34.4,M,,*6F
$PYRTM,2024,127.921223219896,19.030870630035
$GPGGA,220632.00,3319.0954,N,11833.0934,W,1,10,0.8,11.8,M,-34.4,M,,*60
$PYRTM,2024,127.921234789433,19.030882199572
$GPGGA,220633.00,3319.0940,N,11833.0915,W,1,10,0.8,12.6,M,-34.4,M,,*6A
$PYRTM,2024,127.921246369421,19.030893779560
$GPGGA,220634.00,3319.0925,N,11833.0895,W,1,10,0.8,13.0,M,-34.4,M,,*60
$PYRTM,2024,127.921257943194,19.030905353333
$GPGGA,220635.00,3319.0910,N,11833.0873,W,1,10,0.8,13.2,M,-34.4,M,,*6D
$PYRTM,2024,127.921269520289,19.030916930428
$GPGGA,220636.00,3319.0896,N,11833.0852,W,1,10,0.8,12.4,M,-34.4,M,,*65
$PYRTM,2024,127.921281091748,19.030928501887
$GPGGA,220637.00,3319.0881,N,11833.0831,W,1,10,0.8,10.7,M,-34.4,M,,*66
$PYRTM,2024,127.921293125150,19.030940535289
$GPGGA,220638.00,3319.0866,N,11833.0811,W,1,10,0.8,11.1,M,-34.4,M,,*65
$PYRTM,2024,127.921304341829,19.030951751968
$GPGGA,220639.00,3319.0850,N,11833.0791,W,1,10,0.8,14.2,M,-34.4,M,,*60
$PYRTM,2024,127.921315814618,19.030963224757
$GPGGA,220640.00,3319.0835,N,11833.0770,W,1,10,0.8,13.3,M,-34.4,M,,*64
$PYRTM,2024,127.921327393472,19.030974803623
$GPGGA,220641.00,3319.0821,N,11833.0748,W,1,10,0.8,12.8,M,-34.4,M,,*61
$PYRTM,2024,127.921338965324,19.030986375463
$GPGGA,220642.00,3319.0807,N,11833.0726,W,1,10,0.8,13.4,M,-34.4,M,,*63
$PYRTM,2024,127.921350530741,19.030997940880
$GPGGA,220643.00,3319.0794,N,11833.0704,W,1,10,0.8,12.0,M,-34.4,M,,*62
$PYRTM,2024,127.921362110949,19.031009521088
$GPGGA,220644.00,3319.0779,N,11833.0684,W,1,10,0.8,9.7,M,-34.4,M,,*52
$PYRTM,2024,127.921374713032,19.031022123171
$GPGGA,220645.00,3319.0763,N,11833.0665,W,1,10,0.8,12.1,M,-34.4,M,,*6B
$PYRTM,2024,127.921386301424,19.031033711563
$GPGGA,220646.00,3319.0747,N,11833.0645,W,1,10,0.8,10.7,M,-34.4,M,,*68
$PYRTM,2024,127.921397861597,19.031045271736
$GPGGA,220647.00,3319.0733,N,11833.0623,W,1,10,0.8,10.0,M,-34.4,M,,*6D
$PYRTM,2024,127.921409447500,19.031056857639
$GPGGA,220648.00,3319.0719,N,11833.0603,W,1,10,0.8,12.0,M,-34.4,M,,*6A
$PYRTM,2024,127.921421012639,19.031068422778
$GPGGA,220649.00,3319.0704,N,11833.0583,W,1,10,0.8,15.5,M,-34.4,M,,*6E
$PYRTM,2024,127.921432611354,19.031080021493
$GPGGA,220650.00,3319.0688,N,11833.0564,W,1,10,0.8,15.1,M,-34.4,M,,*6E
$PYRTM,2024,127.921444158391,19.031091568530
$GPGGA,220651.00,3319.0672,N,11833.0545,W,1,10,0.8,11.6,M,-34.4,M,,*6A
$PYRTM,2024,127.921455759687,19.031103169826
$GPGGA,220652.00,3319.0658,N,11833.0524,W,1,10,0.8,12.8,M,-34.4,M,,*6B
$PYRTM,2024,127.921467310347,19.031114720486
$GPGGA,220653.00,3319.0643,N,11833.0504,W,1,10,0.8,11.7,M,-34.4,M,,*6E
$PYRTM,2024,127.921478908345,19.031126318484
$GPGGA,220654.00,3319.0627,N,11833.0484,W,1,10,0.8,10.9,M,-34.4,M,,*6D
$PYRTM,2024,127.921490931458,19.031138341597
$GPGGA,220655.00,3319.0610,N,11833.0464,W,1,10,0.8,9.5,M,-34.4,M,,*52
$PYRTM,2024,127.921502036100,19.031149446227
$GPGGA,220656.00,3319.0594,N,11833.0443,W,1,10,0.8,10.5,M,-34.4,M,,*63
$PYRTM,2024,127.921513602894,19.031161013032
$GPGGA,220657.00,3319.0578,N,11833.0423,W,1,10,0.8,13.6,M,-34.4,M,,*66
$PYRTM,2024,127.921525189525,19.031172599664
$GPGGA,220658.00,3319.0561,N,11833.0403,W,1,10,0.8,10.8,M,-34.4,M,,*6E
$PYRTM,2024,127.921536750856,19.031184160995
$GPGGA,220659.00,3319.0546,N,11833.0383,W,1,10,0.8,11.1,M,-34.4,M,,*6D
$PYRTM,2024,127.921548338137,19.031195748275
$GPGGA,220700.00,3319.0532,N,11833.0361,W,1,10,0.8,12.6,M,-34.4,M,,*6B
$PYRTM,2024,127.921559899560,19.031207309699
$GPGGA,220701.00,3319.0518,N,11833.0340,W,1,10,0.8,10.1,M,-34.4,M,,*64
$PYRTM,2024,127.921571486528,19.031218896667
$GPGGA,220702.00,3319.0502,N,11833.0321,W,1,10,0.8,10.8,M,-34.4,M,,*62
$PYRTM,2024,127.921583049444,19.031230459595
$GPGGA,220703.00,3319.0487,N,11833.0304,W,1,10,0.8,9.3,M,-34.4,M,,*5B
$PYRTM,2024,127.921594635220,19.031242045359
$GPGGA,220704.00,3319.0472,N,11833.0286,W,1,10,0.8,10.8,M,-34.4,M,,*6E
$PYRTM,2024,127.921606197292,19.031253607431
$GPGGA,220705.00,3319.0459,N,11833.0267,W,1,10,0.8,12.3,M,-34.4,M,,*60
$PYRTM,2024,127.921617786609,19.031265196748
$GPGGA,220706.00,3319.0446,N,11833.0245,W,1,10,0.8,12.5,M,-34.4,M,,*6B
$PYRTM,2024,127.921629344931,19.031276755069
$GPGGA,220707.00,3319.0431,N,11833.0225,W,1,10,0.8,13.4,M,-34.4,M,,*6C
$PYRTM,2024,127.921641381458,19.031288791597
$GPGGA,220708.00,3319.0415,N,11833.0207,W,1,10,0.8,14.3,M,-34.4,M,,*65
$PYRTM,2024,127.921652854560,19.031300264699
$GPGGA,220709.00,3319.0398,N,11833.0188,W,1,10,0.8,13.3,M,-34.4,M,,*65
$PYRTM,2024,127.921664080428,19.031311490579
$GPGGA,220710.00,3319.0383,N,11833.0167,W,1,10,0.8,12.0,M,-34.4,M,,*64
$PYRTM,2024,127.921675641678,19.031323051817
$GPGGA,220711.00,3319.0370,N,11833.0144,W,1,10,0.8,12.9,M,-34.4,M,,*61
$PYRTM,2024,127.921687223530,19.031334633669
$GPGGA,220712.00,3319.0356,N,11833.0122,W,1,10,0.8,14.2,M,-34.4,M,,*6B
$PYRTM,2024,127.921698790255,19.031346200394
$GPGGA,220713.00,3319.0339,N,11833.0102,W,1,10,0.8,13.7,M,-34.4,M,,*63
$PYRTM,2024,127.921710376979,19.031357787118
$GPGGA,220714.00,3319.0323,N,11833.0084,W,1,10,0.8,12.0,M,-34.4,M,,*66
$PYRTM,2024,127.921723094387,19.031370504525
$GPGGA,220715.00,3319.0308,N,11833.0066,W,1,10,0.8,13.7,M,-34.4,M,,*64
$PYRTM,2024,127.921735712025,19.031383122164
$GPGGA,220716.00,3319.0294,N,11833.0046,W,1,10,0.8,12.4,M,-34.4,M,,*63
$PYRTM,2024,127.921745087488,19.031392497627
$GPGGA,220717.00,3319.0278,N,11833.0027,W,1,10,0.8,12.5,M,-34.4,M,,*66
$PYRTM,2024,127.921756673588,19.031404083727
$GPGGA,220718.00,3319.0264,N,11833.0007,W,1,10,0.8,13.1,M,-34.4,M,,*63
$PYRTM,2024,127.921768234433,19.031415644572
$GPGGA,220719.00,3319.0249,N,11832.9986,W,1,10,0.8,13.7,M,-34.4,M,,*63
$PYRTM,2024,127.921779825174,19.031427235324
$GPGGA,220720.00,3319.0236,N,11832.9963,W,1,10,0.8,13.4,M,-34.4,M,,*69
$PYRTM,2024,127.921791382141,19.031438792280
$GPGGA,220721.00,3319.0222,N,11832.9941,W,1,10,0.8,13.9,M,-34.4,M,,*60
$PYRTM,2024,127.921802984942,19.031450395081
$GPGGA,220722.00,3319.0206,N,11832.9920,W,1,10,0.8,13.6,M,-34.4,M,,*6D
$PYRTM,2024,127.921814531123,19.031461941262
$GPGGA,220723.00,3319.0191,N,11832.9900,W,1,10,0.8,13.3,M,-34.4,M,,*66
$PYRTM,2024,127.921826118819,19.031473528970
$GPGGA,220724.00,3319.0175,N,11832.9880,W,1,10,0.8,11.8,M,-34.4,M,,*6B
$PYRTM,2024,127.921837679063,19.031485089201
$GPGGA,220725.00,3319.0160,N,11832.9860,W,1,10,0.8,12.8,M,-34.4,M,,*63
$PYRTM,2024,127.921849266782,19.031496676921
$GPGGA,220726.00,3319.0148,N,11832.9838,W,1,10,0.8,15.3,M,-34.4,M,,*6B
$PYRTM,2024,127.921860827720,19.031508237859
$GPGGA,220727.00,3319.0135,N,11832.9818,W,1,10,0.8,12.0,M,-34.4,M,,*66
$PYRTM,2024,127.921872415000,19.031519825150
$GPGGA,220728.00,3319.0121,N,11832.9799,W,1,10,0.8,12.0,M,-34.4,M,,*6A
$PYRTM,2024,127.921883976794,19.031531386944
$GPGGA,220729.00,3319.0105,N,11832.9781,W,1,10,0.8,13.9,M,-34.4,M,,*6C
$PYRTM,2024,127.921895563264,19.031542973403
$GPGGA,220730.00,3319.0091,N,11832.9763,W,1,10,0.8,15.1,M,-34.4,M,,*6A
$PYRTM,2024,127.921907124850,19.031554535000
$GPGGA,220731.00,3319.0078,N,11832.9742,W,1,10,0.8,11.9,M,-34.4,M,,*63
$PYRTM,2024,127.921918712824,19.031566122963
$GPGGA,220732.00,3319.0063,N,11832.9720,W,1,10,0.8,12.0,M,-34.4,M,,*64
$PYRTM,2024,127.921930278102,19.031577688241
$GPGGA,220733.00,3319.0046,N,11832.9700,W,1,10,0.8,11.4,M,-34.4,M,,*67
$PYRTM,2024,127.921941863900,19.031589274051
$GPGGA,220734.00,3319.0029,N,11832.9680,W,1,10,0.8,11.5,M,-34.4,M,,*61
$PYRTM,2024,127.921953421863,19.031600832002
$GPGGA,220735.00,3319.0014,N,11832.9660,W,1,10,0.8,12.6,M,-34.4,M,,*60
$PYRTM,2024,127.921965011551,19.031612421690
$GPGGA,220736.00,3319.0000,N,11832.9638,W,1,10,0.8,12.5,M,-34.4,M,,*68
$PYRTM,2024,127.921976569757,19.031623979896
$GPGGA,220737.00,3318.9987,N,11832.9617,W,1,10,0.8,10.9,M,-34.4,M,,*64
$PYRTM,2024,127.921988607986,19.031636018125
$GPGGA,220738.00,3318.9973,N,11832.9596,W,1,10,0.8,12.5,M,-34.4,M,,*64
$PYRTM,2024,127.922000193229,19.031647603368
$GPGGA,220739.00,3318.9959,N,11832.9578,W,1,10,0.8,11.8,M,-34.4,M,,*63
$PYRTM,2024,127.922011305787,19.031658715926
$GPGGA,220740.00,3318.9943,N,11832.9559,W,1,10,0.8,11.5,M,-34.4,M,,*68
$PYRTM,2024,127.922022867153,19.031670277292
$GPGGA,220741.00,3318.9927,N,11832.9539,W,1,10,0.8,13.2,M,-34.4,M,,*68
$PYRTM,2024,127.922034455694,19.031681865833
$GPGGA,220742.00,3318.9910,N,11832.9518,W,1,10,0.8,12.6,M,-34.4,M,,*69
$PYRTM,2024,127.922046014086,19.031693424236
$GPGGA,220743.00,3318.9894,N,11832.9498,W,1,10,0.8,14.2,M,-34.4,M,,*6E
$PYRTM,2024,127.922057601435,19.031705011586
$GPGGA,220744.00,3318.9879,N,11832.9476,W,1,10,0.8,16.2,M,-34.4,M,,*68
$PYRTM,2024,127.922070795810,19.031718205949
$GPGGA,220745.00,3318.9864,N,11832.9454,W,1,10,0.8,13.9,M,-34.4,M,,*6B
$PYRTM,2024,127.922082937338,19.031730347488
$GPGGA,220746.00,3318.9851,N,11832.9432,W,1,10,0.8,11.8,M,-34.4,M,,*6D
$PYRTM,2024,127.922092310023,19.031739720162
$GPGGA,220747.00,3318.9839,N,11832.9412,W,1,10,0.8,8.9,M,-34.4,M,,*59
$PYRTM,2024,127.922103901366,19.031751311505
$GPGGA,220748.00,3318.9826,N,11832.9394,W,1,10,0.8,10.1,M,-34.4,M,,*60
$PYRTM,2024,127.922115459572,19.031762869722
$GPGGA,220749.00,3318.9813,N,11832.9376,W,1,10,0.8,11.8,M,-34.4,M,,*63
$PYRTM,2024,127.922127061088,19.031774471227
$GPGGA,220750.00,3318.9799,N,11832.9358,W,1,10,0.8,12.1,M,-34.4,M,,*60
$PYRTM,2024,127.922138607199,19.031786017338
$GPGGA,220751.00,3318.9784,N,11832.9340,W,1,10,0.8,13.3,M,-34.4,M,,*67
$PYRTM,2024,127.922150197523,19.031797607662
$GPGGA,220752.00,3318.9769,N,11832.9321,W,1,10,0.8,10.3,M,-34.4,M,,*63
$PYRTM,2024,127.922161756782,19.031809166921
$GPGGA,220753.00,3318.9753,N,11832.9301,W,1,10,0.8,11.8,M,-34.4,M,,*63
$PYRTM,2024,127.922173343912,19.031820754051
$GPGGA,220754.00,3318.9737,N,11832.9280,W,1,10,0.8,11.5,M,-34.4,M,,*63
$PYRTM,2024,127.922184904294,19.031832314433
$GPGGA,220755.00,3318.9723,N,11832.9257,W,1,10,0.8,9.5,M,-34.4,M,,*54
$PYRTM,2024,127.922196492963,19.031843903102
$GPGGA,220756.00,3318.9711,N,11832.9233,W,1,10,0.8,12.5,M,-34.4,M,,*6E
$PYRTM,2024,127.922208052465,19.031855462604
$GPGGA,220757.00,3318.9698,N,11832.9211,W,1,10,0.8,12.5,M,-34.4,M,,*6F
$PYRTM,2024,127.922219640683,19.031867050822
$GPGGA,220758.00,3318.9684,N,11832.9193,W,1,10,0.8,13.5,M,-34.4,M,,*65
$PYRTM,2024,127.922231200752,19.031878610891
$GPGGA,220759.00,3318.9669,N,11832.9176,W,1,10,0.8,11.4,M,-34.4,M,,*6F
$PYRTM,2024,127.922242787836,19.031890197975
$GPGGA,220800.00,3318.9655,N,11832.9159,W,1,10,0.8,11.3,M,-34.4,M,,*69
$PYRTM,2024,127.922254350775,19.031901760914
$GPGGA,220801.00,3318.9643,N,11832.9141,W,1,10,0.8,12.4,M,-34.4,M,,*62
$PYRTM,2024,127.922265938993,19.031913349132
$GPGGA,220802.00,3318.9630,N,11832.9122,W,1,10,0.8,10.7,M,-34.4,M,,*61
$PYRTM,2024,127.922277498796,19.031924908935
$GPGGA,220803.00,3318.9616,N,11832.9102,W,1,10,0.8,10.9,M,-34.4,M,,*68
$PYRTM,2024,127.922289088125,19.031936498264
$GPGGA,220804.00,3318.9600,N,11832.9083,W,1,10,0.8,11.8,M,-34.4,M,,*60
$PYRTM,2024,127.922300646227,19.031948056366
$GPGGA,220805.00,3318.9585,N,11832.9065,W,1,10,0.8,11.6,M,-34.4,M,,*69
$PYRTM,2024,127.922312232674,19.031959642812
$GPGGA,220806.00,3318.9570,N,11832.9044,W,1,10,0.8,10.3,M,-34.4,M,,*67
$PYRTM,2024,127.922323794120,19.031971204259
$GPGGA,220807.00,3318.9557,N,11832.9022,W,1,10,0.8,9.1,M,-34.4,M,,*59
$PYRTM,2024,127.922335831991,19.031983242130
$GPGGA,220808.00,3318.9545,N,11832.9000,W,1,10,0.8,11.7,M,-34.4,M,,*6A
$PYRTM,2024,127.922347535139,19.031994945289
$GPGGA,220809.00,3318.9531,N,11832.8980,W,1,10,0.8,10.7,M,-34.4,M,,*69
$PYRTM,2024,127.922359097847,19.032006507986
$GPGGA,220810.00,3318.9517,N,11832.8961,W,1,10,0.8,11.2,M,-34.4,M,,*6E
$PYRTM,2024,127.922370685613,19.032018095752
$GPGGA,220811.00,3318.9502,N,11832.8944,W,1,10,0.8,12.8,M,-34.4,M,,*65
$PYRTM,2024,127.922382243796,19.032029653935
$GPGGA,220812.00,3318.9488,N,11832.8924,W,1,10,0.8,13.3,M,-34.4,M,,*69
$PYRTM,2024,127.922393833553,19.032041243692
$GPGGA,220813.00,3318.9475,N,11832.8904,W,1,10,0.8,14.6,M,-34.4,M,,*6A
$PYRTM,2024,127.922406896690,19.032054306829
$GPGGA,220814.00,3318.9461,N,11832.8883,W,1,10,0.8,14.3,M,-34.4,M,,*63
$PYRTM,2024,127.922419867176,19.032067277326
$GPGGA,220815.00,3318.9446,N,11832.8862,W,1,10,0.8,16.4,M,-34.4,M,,*6D
$PYRTM,2024,127.922430753032,19.032078163171
$GPGGA,220816.00,3318.9430,N,11832.8842,W,1,10,0.8,16.0,M,-34.4,M,,*69
$PYRTM,2024,127.922441967743,19.032089377894
$GPGGA,220817.00,3318.9415,N,11832.8822,W,1,10,0.8,13.0,M,-34.4,M,,*6C
$PYRTM,2024,127.922453086400,19.032100496539
$GPGGA,220818.00,3318.9401,N,11832.8801,W,1,10,0.8,15.1,M,-34.4,M,,*60
$PYRTM,2024,127.922464189688,19.032111599826
$GPGGA,220819.00,3318.9387,N,11832.8781,W,1,10,0.8,16.8,M,-34.4,M,,*65
$PYRTM,2024,127.922475313229,19.032122723368
$GPGGA,220820.00,3318.9372,N,11832.8762,W,1,10,0.8,15.9,M,-34.4,M,,*6A
$PYRTM,2024,127.922486543056,19.032133953194
$GPGGA,220821.00,3318.9355,N,11832.8743,W,1,09,0.8,13.6,M,-34.4,M,,*6C
$PYRTM,2024,127.922497650486,19.032145060625
$GPGGA,220822.00,3318.9340,N,11832.8724,W,1,10,0.8,13.0,M,-34.4,M,,*64
$PYRTM,2024,127.922508762188,19.032156172326
$GPGGA,220823.00,3318.9325,N,11832.8704,W,1,09,0.8,13.6,M,-34.4,M,,*6A
$PYRTM,2024,127.922519872431,19.032167282569
$GPGGA,220824.00,3318.9312,N,11832.8684,W,1,10,0.8,14.9,M,-34.4,M,,*60
$PYRTM,2024,127.922531100810,19.032178510961
$GPGGA,220825.00,3318.9299,N,11832.8665,W,1,10,0.8,16.9,M,-34.4,M,,*6E
$PYRTM,2024,127.922542210532,19.032189620683
$GPGGA,220826.00,3318.9285,N,11832.8646,W,1,10,0.8,13.9,M,-34.4,M,,*64
$PYRTM,2024,127.922553323519,19.032200733669
$GPGGA,220827.00,3318.9270,N,11832.8628,W,1,10,0.8,15.5,M,-34.4,M,,*6D
$PYRTM,2024,127.922564433148,19.032211843287
$GPGGA,220828.00,3318.9256,N,11832.8609,W,1,10,0.8,13.2,M,-34.4,M,,*64
$PYRTM,2024,127.922575647627,19.032223057766
$GPGGA,220829.00,3318.9241,N,11832.8591,W,1,10,0.8,12.9,M,-34.4,M,,*6B
$PYRTM,2024,127.922586760081,19.032234170220
$GPGGA,220830.00,3318.9227,N,11832.8571,W,1,10,0.8,12.7,M,-34.4,M,,*63
$PYRTM,2024,127.922597870613,19.032245280752
$GPGGA,220831.00,3318.9212,N,11832.8550,W,1,10,0.8,15.8,M,-34.4,M,,*6F
$PYRTM,2024,127.922608981458,19.032256391597
$GPGGA,220832.00,3318.9196,N,11832.8530,W,1,09,0.8,15.5,M,-34.4,M,,*60
$PYRTM,2024,127.922620208356,19.032267618495
$GPGGA,220833.00,3318.9180,N,11832.8508,W,1,09,0.8,13.6,M,-34.4,M,,*68
$PYRTM,2024,127.922631318056,19.032278728194
$GPGGA,220834.00,3318.9164,N,11832.8487,W,1,09,0.8,14.0,M,-34.4,M,,*62
$PYRTM,2024,127.922642688391,19.032290098530
$GPGGA,220835.00,3318.9150,N,11832.8466,W,1,10,0.8,14.0,M,-34.4,M,,*63
