$PYRTM,2024,127.416674385532,18.526321795671
$GPGGA,095959.00,3338.0240,N,11914.5452,W,1,10,0.8,4.5,M,-34.3,M,,*51
$PYRTM,2024,127.416687127350,18.526334537488
$GPGGA,100000.00,3338.0221,N,11914.5435,W,1,10,0.8,5.3,M,-34.3,M,,*58
$PYRTM,2024,127.416698704282,18.526346114421
$GPGGA,100001.00,3338.0203,N,11914.5420,W,1,10,0.8,7.9,M,-34.3,M,,*55
$PYRTM,2024,127.416710277141,18.526357687280
$GPGGA,100002.00,3338.0183,N,11914.5408,W,1,10,0.8,7.5,M,-34.3,M,,*5B
$PYRTM,2024,127.416721851933,18.526369262072
$GPGGA,100003.00,3338.0161,N,11914.5397,W,1,10,0.8,10.1,M,-34.3,M,,*65
$PYRTM,2024,127.416733427141,18.526380837292
$GPGGA,100004.00,3338.0141,N,11914.5383,W,1,10,0.8,7.3,M,-34.3,M,,*51
$PYRTM,2024,127.416745002454,18.526392412593
$GPGGA,100005.00,3338.0122,N,11914.5366,W,1,10,0.8,8.4,M,-34.3,M,,*56
$PYRTM,2024,127.416756568935,18.526403979074
$GPGGA,100006.00,3338.0104,N,11914.5350,W,1,10,0.8,10.1,M,-34.3,M,,*68
$PYRTM,2024,127.416768151609,18.526415561748
$GPGGA,100007.00,3338.0084,N,11914.5337,W,1,10,0.8,13.0,M,-34.3,M,,*63
$PYRTM,2024,127.416779722269,18.526427132407
$GPGGA,100008.00,3338.0062,N,11914.5327,W,1,10,0.8,11.5,M,-34.3,M,,*62
$PYRTM,2024,127.416791311644,18.526438721782
$GPGGA,100009.00,3338.0041,N,11914.5314,W,1,10,0.8,9.0,M,-34.3,M,,*5E
$PYRTM,2024,127.416802871713,18.526450281852
$GPGGA,100010.00,3338.0023,N,11914.5296,W,1,10,0.8,8.8,M,-34.3,M,,*50
$PYRTM,2024,127.416814443831,18.526461853970
$GPGGA,100011.00,3338.0006,N,11914.5278,W,1,10,0.8,8.4,M,-34.3,M,,*5A
$PYRTM,2024,127.416826017731,18.526473427870
$GPGGA,100012.00,3337.9987,N,11914.5263,W,1,10,0.8,12.0,M,-34.3,M,,*6A
$PYRTM,2024,127.416837593079,18.526485003218
$GPGGA,100013.00,3337.9965,N,11914.5252,W,1,10,0.8,10.7,M,-34.3,M,,*60
$PYRTM,2024,127.416849166748,18.526496576887
$GPGGA,100014.00,3337.9942,N,11914.5241,W,1,10,0.8,11.7,M,-34.3,M,,*61
$PYRTM,2024,127.416860740579,18.526508150718
$GPGGA,100015.00,3337.9923,N,11914.5225,W,1,10,0.8,10.5,M,-34.3,M,,*66
$PYRTM,2024,127.416872309954,18.526519720093
$GPGGA,100016.00,3337.9906,N,11914.5206,W,1,10,0.8,9.4,M,-34.3,M,,*5A
$PYRTM,2024,127.416883890035,18.526531300185
$GPGGA,100017.00,3337.9889,N,11914.5188,W,1,10,0.8,11.2,M,-34.3,M,,*67
$PYRTM,2024,127.416895464225,18.526542874363
$GPGGA,100018.00,3337.9871,N,11914.5173,W,1,10,0.8,7.1,M,-34.3,M,,*5F
$PYRTM,2024,127.416907037211,18.526554447350
$GPGGA,100019.00,3337.9850,N,11914.5162,W,1,10,0.8,8.0,M,-34.3,M,,*53
$PYRTM,2024,127.416918610926,18.526566021065
$GPGGA,100020.00,3337.9829,N,11914.5148,W,1,10,0.8,9.9,M,-34.3,M,,*57
$PYRTM,2024,127.416930200509,18.526577610648
$GPGGA,100021.00,3337.9810,N,11914.5133,W,1,10,0.8,8.4,M,-34.3,M,,*5C
$PYRTM,2024,127.416941758692,18.526589168831
$GPGGA,100022.00,3337.9792,N,11914.5118,W,1,10,0.8,7.6,M,-34.3,M,,*5E
$PYRTM,2024,127.416953334271,18.526600744421
$GPGGA,100023.00,3337.9772,N,11914.5105,W,1,10,0.8,6.4,M,-34.3,M,,*5E
$PYRTM,2024,127.416964907998,18.526612318137
$GPGGA,100024.00,3337.9752,N,11914.5092,W,1,10,0.8,5.4,M,-34.3,M,,*57
$PYRTM,2024,127.416976483079,18.526623893218
$GPGGA,100025.00,3337.9731,N,11914.5079,W,1,10,0.8,4.7,M,-34.3,M,,*54
$PYRTM,2024,127.416988056007,18.526635466157
$GPGGA,100026.00,3337.9711,N,11914.5067,W,1,10,0.8,3.9,M,-34.3,M,,*53
$PYRTM,2024,127.416999629618,18.526647039757
$GPGGA,100027.00,3337.9691,N,11914.5054,W,1,10,0.8,4.8,M,-34.3,M,,*5D
$PYRTM,2024,127.417009818333,18.526657228472
$GPGGA,100028.00,3337.9671,N,11914.5040,W,1,10,0.8,4.7,M,-34.3,M,,*56
$PYRTM,2024,127.417021607396,18.526669017535
$GPGGA,100029.00,3337.9652,N,11914.5023,W,1,10,0.8,5.4,M,-34.3,M,,*51
$PYRTM,2024,127.417034349201,18.526681759340
$GPGGA,100030.00,3337.9633,N,11914.5007,W,1,10,0.8,7.4,M,-34.3,M,,*5A
$PYRTM,2024,127.417045926609,18.526693336748
$GPGGA,100031.00,3337.9614,N,11914.4992,W,1,10,0.8,8.4,M,-34.3,M,,*55
$PYRTM,2024,127.417057502975,18.526704913113
$GPGGA,100032.00,3337.9593,N,11914.4978,W,1,10,0.8,8.1,M,-34.3,M,,*5B
$PYRTM,2024,127.417069074641,18.526716484780
$GPGGA,100033.00,3337.9571,N,11914.4964,W,1,10,0.8,8.2,M,-34.3,M,,*58
$PYRTM,2024,127.417080644086,18.526728054225
$GPGGA,100034.00,3337.9551,N,11914.4950,W,1,10,0.8,7.1,M,-34.3,M,,*56
$PYRTM,2024,127.417092227083,18.526739637222
$GPGGA,100035.00,3337.9532,N,11914.4935,W,1,10,0.8,7.4,M,-34.3,M,,*54
$PYRTM,2024,127.417103797292,18.526751207431
$GPGGA,100036.00,3337.9513,N,11914.4920,W,1,10,0.8,11.3,M,-34.3,M,,*60
$PYRTM,2024,127.417115374005,18.526762784144
$GPGGA,100037.00,3337.9493,N,11914.4908,W,1,10,0.8,11.5,M,-34.3,M,,*64
$PYRTM,2024,127.417126946250,18.526774356389
$GPGGA,100038.00,3337.9472,N,11914.4897,W,1,10,0.8,10.8,M,-34.3,M,,*6F
$PYRTM,2024,127.417138520417,18.526785930556
$GPGGA,100039.00,3337.9451,N,11914.4884,W,1,10,0.8,11.4,M,-34.3,M,,*60
$PYRTM,2024,127.417150092917,18.526797503056
$GPGGA,100040.00,3337.9433,N,11914.4868,W,1,10,0.8,10.1,M,-34.3,M,,*6C
$PYRTM,2024,127.417161668611,18.526809078750
$GPGGA,100041.00,3337.9415,N,11914.4852,W,1,10,0.8,9.7,M,-34.3,M,,*5E
$PYRTM,2024,127.417173243067,18.526820653206
$GPGGA,100042.00,3337.9396,N,11914.4838,W,1,10,0.8,10.4,M,-34.3,M,,*66
$PYRTM,2024,127.417184816620,18.526832226759
$GPGGA,100043.00,3337.9374,N,11914.4827,W,1,10,0.8,10.8,M,-34.3,M,,*69
$PYRTM,2024,127.417196390752,18.526843800891
$GPGGA,100044.00,3337.9353,N,11914.4812,W,1,10,0.8,10.9,M,-34.3,M,,*6C
$PYRTM,2024,127.417207964537,18.526855374676
$GPGGA,100045.00,3337.9335,N,11914.4793,W,1,10,0.8,13.4,M,-34.3,M,,*65
$PYRTM,2024,127.417219539248,18.526866949387
$GPGGA,100046.00,3337.9316,N,11914.4776,W,1,10,0.8,13.1,M,-34.3,M,,*69
$PYRTM,2024,127.417231572442,18.526878982581
$GPGGA,100047.00,3337.9297,N,11914.4762,W,1,10,0.8,10.9,M,-34.3,M,,*6E
$PYRTM,2024,127.417243021979,18.526890432118
$GPGGA,100048.00,3337.9278,N,11914.4750,W,1,10,0.8,9.8,M,-34.3,M,,*58
$PYRTM,2024,127.417254264317,18.526901674456
$GPGGA,100049.00,3337.9260,N,11914.4737,W,1,10,0.8,8.0,M,-34.3,M,,*58
$PYRTM,2024,127.417265835359,18.526913245498
$GPGGA,100050.00,3337.9242,N,11914.4722,W,1,10,0.8,9.4,M,-34.3,M,,*51
$PYRTM,2024,127.417277412928,18.526924823067
$GPGGA,100051.00,3337.9223,N,11914.4708,W,1,10,0.8,10.3,M,-34.3,M,,*60
$PYRTM,2024,127.417288983009,18.526936393148
$GPGGA,100052.00,3337.9203,N,11914.4695,W,1,10,0.8,9.2,M,-34.3,M,,*5D
$PYRTM,2024,127.417300560046,18.526947970185
$GPGGA,100053.00,3337.9182,N,11914.4682,W,1,10,0.8,8.3,M,-34.3,M,,*50
$PYRTM,2024,127.417312132361,18.526959542500
$GPGGA,100054.00,3337.9162,N,11914.4667,W,1,10,0.8,11.0,M,-34.3,M,,*69
$PYRTM,2024,127.417323705764,18.526971115903
$GPGGA,100055.00,3337.9142,N,11914.4650,W,1,10,0.8,10.2,M,-34.3,M,,*6D
$PYRTM,2024,127.417335276910,18.526982687049
$GPGGA,100056.00,3337.9123,N,11914.4635,W,1,10,0.8,11.9,M,-34.3,M,,*60
$PYRTM,2024,127.417346853981,18.526994264120
$GPGGA,100057.00,3337.9105,N,11914.4621,W,1,10,0.8,10.4,M,-34.3,M,,*6C
$PYRTM,2024,127.417357042905,18.527004453044
$GPGGA,100058.00,3337.9087,N,11914.4607,W,1,10,0.8,9.8,M,-34.3,M,,*58
$PYRTM,2024,127.417368832627,18.527016242766
$GPGGA,100059.00,3337.9069,N,11914.4594,W,1,10,0.8,8.1,M,-34.3,M,,*58
$PYRTM,2024,127.417381577454,18.527028987593
$GPGGA,100100.00,3337.9050,N,11914.4582,W,1,10,0.8,9.2,M,-34.3,M,,*5A
$PYRTM,2024,127.417393150926,18.527040561076
$GPGGA,100101.00,3337.9030,N,11914.4569,W,1,10,0.8,7.6,M,-34.3,M,,*52
$PYRTM,2024,127.417404719838,18.527052129977
$GPGGA,100102.00,3337.9011,N,11914.4553,W,1,10,0.8,9.8,M,-34.3,M,,*5B
$PYRTM,2024,127.417416302037,18.527063712176
$GPGGA,100103.00,3337.8991,N,11914.4537,W,1,10,0.8,12.0,M,-34.3,M,,*6A
$PYRTM,2024,127.417427873171,18.527075283310
$GPGGA,100104.00,3337.8970,N,11914.4523,W,1,10,0.8,13.0,M,-34.3,M,,*66
$PYRTM,2024,127.417439462801,18.527086872940
$GPGGA,100105.00,3337.8949,N,11914.4510,W,1,10,0.8,12.5,M,-34.3,M,,*69
$PYRTM,2024,127.417451020417,18.527098430556
$GPGGA,100106.00,3337.8930,N,11914.4496,W,1,10,0.8,10.8,M,-34.3,M,,*64
$PYRTM,2024,127.417462597477,18.527110007616
$GPGGA,100107.00,3337.8913,N,11914.4478,W,1,10,0.8,10.1,M,-34.3,M,,*6D
$PYRTM,2024,127.417474170035,18.527121580174
$GPGGA,100108.00,3337.8897,N,11914.4462,W,1,10,0.8,9.6,M,-34.3,M,,*5B
$PYRTM,2024,127.417485743796,18.527133153935
$GPGGA,100109.00,3337.8880,N,11914.4450,W,1,10,0.8,10.1,M,-34.3,M,,*62
$PYRTM,2024,127.417497312118,18.527144722257
$GPGGA,100110.00,3337.8861,N,11914.4440,W,1,10,0.8,9.0,M,-34.3,M,,*5D
$PYRTM,2024,127.417508893032,18.527156303171
$GPGGA,100111.00,3337.8840,N,11914.4430,W,1,10,0.8,8.5,M,-34.3,M,,*5C
$PYRTM,2024,127.417520461412,18.527167871551
$GPGGA,100112.00,3337.8821,N,11914.4417,W,1,10,0.8,7.9,M,-34.3,M,,*5E
$PYRTM,2024,127.417532041100,18.527179451238
$GPGGA,100113.00,3337.8803,N,11914.4400,W,1,10,0.8,10.5,M,-34.3,M,,*63
$PYRTM,2024,127.417543608056,18.527191018194
$GPGGA,100114.00,3337.8784,N,11914.4383,W,1,10,0.8,10.5,M,-34.3,M,,*68
$PYRTM,2024,127.417555205104,18.527202615243
$GPGGA,100115.00,3337.8764,N,11914.4370,W,1,10,0.8,10.5,M,-34.3,M,,*6B
$PYRTM,2024,127.417566756609,18.527214166748
$GPGGA,100116.00,3337.8743,N,11914.4358,W,1,10,0.8,8.3,M,-34.3,M,,*58
$PYRTM,2024,127.417578340012,18.527225750150
$GPGGA,100117.00,3337.8722,N,11914.4346,W,1,10,0.8,6.9,M,-34.3,M,,*55
$PYRTM,2024,127.417589909815,18.527237319954
$GPGGA,100118.00,3337.8704,N,11914.4330,W,1,10,0.8,7.0,M,-34.3,M,,*57
$PYRTM,2024,127.417601486053,18.527248896192
$GPGGA,100119.00,3337.8687,N,11914.4314,W,1,10,0.8,7.8,M,-34.3,M,,*52
$PYRTM,2024,127.417613058588,18.527260468727
$GPGGA,100120.00,3337.8670,N,11914.4301,W,1,10,0.8,7.7,M,-34.3,M,,*5B
$PYRTM,2024,127.417623708044,18.527271118183
$GPGGA,100121.00,3337.8650,N,11914.4290,W,1,10,0.8,6.0,M,-34.3,M,,*57
$PYRTM,2024,127.417634687350,18.527282097500
$GPGGA,100122.00,3337.8629,N,11914.4279,W,1,10,0.8,6.0,M,-34.3,M,,*5D
$PYRTM,2024,127.417646271400,18.527293681539
$GPGGA,100123.00,3337.8610,N,11914.4264,W,1,10,0.8,6.5,M,-34.3,M,,*5F
$PYRTM,2024,127.417657387627,18.527304797766
$GPGGA,100124.00,3337.8593,N,11914.4245,W,1,10,0.8,8.1,M,-34.3,M,,*59
$PYRTM,2024,127.417668499514,18.527315909653
$GPGGA,100125.00,3337.8575,N,11914.4229,W,1,10,0.8,9.7,M,-34.3,M,,*5D
$PYRTM,2024,127.417679725231,18.527327135370
$GPGGA,100126.00,3337.8556,N,11914.4216,W,1,10,0.8,9.8,M,-34.3,M,,*5C
$PYRTM,2024,127.417690835891,18.527338246030
$GPGGA,100127.00,3337.8536,N,11914.4204,W,1,10,0.8,8.3,M,-34.3,M,,*52
$PYRTM,2024,127.417706456713,18.527353866852
$GPGGA,100128.00,3337.8517,N,11914.4191,W,1,10,0.8,8.0,M,-34.3,M,,*52
$PYRTM,2024,127.417717573507,18.527364983646
$GPGGA,100129.00,3337.8500,N,11914.4175,W,1,10,0.8,9.3,M,-34.3,M,,*5D
$PYRTM,2024,127.417728800162,18.527376210301
$GPGGA,100130.00,3337.8480,N,11914.4160,W,1,10,0.8,6.6,M,-34.3,M,,*52
$PYRTM,2024,127.417740376632,18.527387786771
$GPGGA,100131.00,3337.8459,N,11914.4150,W,1,10,0.8,6.6,M,-34.3,M,,*54
$PYRTM,2024,127.417751947627,18.527399357766
$GPGGA,100132.00,3337.8437,N,11914.4140,W,1,10,0.8,9.5,M,-34.3,M,,*52
$PYRTM,2024,127.417763521782,18.527410931921
$GPGGA,100133.00,3337.8418,N,11914.4127,W,1,10,0.8,8.8,M,-34.3,M,,*53
$PYRTM,2024,127.417775097778,18.527422507917
$GPGGA,100134.00,3337.8399,N,11914.4111,W,1,10,0.8,8.8,M,-34.3,M,,*5F
$PYRTM,2024,127.417786681944,18.527434092083
$GPGGA,100135.00,3337.8379,N,11914.4095,W,1,10,0.8,8.6,M,-34.3,M,,*53
$PYRTM,2024,127.417798240069,18.527445650208
$GPGGA,100136.00,3337.8358,N,11914.4082,W,1,10,0.8,5.0,M,-34.3,M,,*5E
$PYRTM,2024,127.417809819583,18.527457229722
$GPGGA,100137.00,3337.8339,N,11914.4069,W,1,10,0.8,5.2,M,-34.3,M,,*5F
$PYRTM,2024,127.417821392488,18.527468802627
$GPGGA,100138.00,3337.8320,N,11914.4055,W,1,10,0.8,7.7,M,-34.3,M,,*50
$PYRTM,2024,127.417832967998,18.527480378137
$GPGGA,100139.00,3337.8301,N,11914.4041,W,1,10,0.8,5.3,M,-34.3,M,,*51
$PYRTM,2024,127.417844535451,18.527491945590
$GPGGA,100140.00,3337.8281,N,11914.4029,W,1,10,0.8,5.0,M,-34.3,M,,*5B
$PYRTM,2024,127.417856117326,18.527503527465
$GPGGA,100141.00,3337.8262,N,11914.4015,W,1,10,0.8,4.8,M,-34.3,M,,*51
$PYRTM,2024,127.417867690810,18.527515100949
$GPGGA,100142.00,3337.8244,N,11914.4000,W,1,10,0.8,6.3,M,-34.3,M,,*5B
$PYRTM,2024,127.417879266366,18.527526676505
$GPGGA,100143.00,3337.8224,N,11914.3986,W,1,10,0.8,7.5,M,-34.3,M,,*5B
$PYRTM,2024,127.417889676111,18.527537086250
$GPGGA,100144.00,3337.8202,N,11914.3974,W,1,10,0.8,7.8,M,-34.3,M,,*58
$PYRTM,2024,127.417902414468,18.527549824606
$GPGGA,100145.00,3337.8182,N,11914.3960,W,1,10,0.8,7.2,M,-34.3,M,,*5D
$PYRTM,2024,127.417913980463,18.527561390613
$GPGGA,100146.00,3337.8163,N,11914.3943,W,1,10,0.8,9.2,M,-34.3,M,,*5E
$PYRTM,2024,127.417925559155,18.527572969306
$GPGGA,100147.00,3337.8145,N,11914.3924,W,1,10,0.8,9.8,M,-34.3,M,,*50
$PYRTM,2024,127.417937135243,18.527584545382
$GPGGA,100148.00,3337.8126,N,11914.3908,W,1,10,0.8,10.0,M,-34.3,M,,*64
$PYRTM,2024,127.417948709213,18.527596119363
$GPGGA,100149.00,3337.8107,N,11914.3895,W,1,10,0.8,10.5,M,-34.3,M,,*66
$PYRTM,2024,127.417960277222,18.527607687361
$GPGGA,100150.00,3337.8088,N,11914.3883,W,1,10,0.8,10.1,M,-34.3,M,,*6B
$PYRTM,2024,127.417971856412,18.527619266551
$GPGGA,100151.00,3337.8069,N,11914.3869,W,1,10,0.8,9.0,M,-34.3,M,,*58
$PYRTM,2024,127.417983429363,18.527630839502
$GPGGA,100152.00,3337.8049,N,11914.3855,W,1,10,0.8,8.0,M,-34.3,M,,*57
$PYRTM,2024,127.417995005729,18.527642415868
$GPGGA,100153.00,3337.8030,N,11914.3843,W,1,10,0.8,6.4,M,-34.3,M,,*55
$PYRTM,2024,127.418006577269,18.527653987407
$GPGGA,100154.00,3337.8010,N,11914.3829,W,1,10,0.8,6.8,M,-34.3,M,,*50
$PYRTM,2024,127.418018168310,18.527665578449
$GPGGA,100155.00,3337.7990,N,11914.3815,W,1,10,0.8,8.2,M,-34.3,M,,*54
$PYRTM,2024,127.418029720903,18.527677131042
$GPGGA,100156.00,3337.7969,N,11914.3801,W,1,10,0.8,8.8,M,-34.3,M,,*5E
$PYRTM,2024,127.418041301644,18.527688711782
$GPGGA,100157.00,3337.7948,N,11914.3787,W,1,10,0.8,10.2,M,-34.3,M,,*6E
$PYRTM,2024,127.418051488958,18.527698899097
$GPGGA,100158.00,3337.7927,N,11914.3771,W,1,10,0.8,13.0,M,-34.3,M,,*60
$PYRTM,2024,127.418063279132,18.527710689271
$GPGGA,100159.00,3337.7908,N,11914.3757,W,1,10,0.8,11.8,M,-34.3,M,,*62
$PYRTM,2024,127.418076023519,18.527723433657
$GPGGA,100200.00,3337.7888,N,11914.3743,W,1,10,0.8,9.1,M,-34.3,M,,*51
$PYRTM,2024,127.418087597465,18.527735007604
$GPGGA,100201.00,3337.7870,N,11914.3730,W,1,10,0.8,7.6,M,-34.3,M,,*5A
$PYRTM,2024,127.418099167025,18.527746577164
$GPGGA,100202.00,3337.7850,N,11914.3717,W,1,10,0.8,8.0,M,-34.3,M,,*57
$PYRTM,2024,127.418110746586,18.527758156736
$GPGGA,100203.00,3337.7831,N,11914.3705,W,1,10,0.8,5.7,M,-34.3,M,,*58
$PYRTM,2024,127.418122320602,18.527769730741
$GPGGA,100204.00,3337.7810,N,11914.3692,W,1,10,0.8,5.0,M,-34.3,M,,*54
$PYRTM,2024,127.418133893704,18.527781303843
$GPGGA,100205.00,3337.7791,N,11914.3677,W,1,10,0.8,7.3,M,-34.3,M,,*59
$PYRTM,2024,127.418145463866,18.527792874005
$GPGGA,100206.00,3337.7772,N,11914.3662,W,1,10,0.8,7.9,M,-34.3,M,,*59
$PYRTM,2024,127.418157045058,18.527804455197
$GPGGA,100207.00,3337.7752,N,11914.3648,W,1,10,0.8,8.2,M,-34.3,M,,*56
$PYRTM,2024,127.418168615567,18.527816025706
$GPGGA,100208.00,3337.7730,N,11914.3636,W,1,10,0.8,8.0,M,-34.3,M,,*56
$PYRTM,2024,127.418180204502,18.527827614641
$GPGGA,100209.00,3337.7710,N,11914.3622,W,1,10,0.8,9.1,M,-34.3,M,,*50
$PYRTM,2024,127.418191765197,18.527839175336
$GPGGA,100210.00,3337.7692,N,11914.3607,W,1,10,0.8,9.2,M,-34.3,M,,*57
$PYRTM,2024,127.418203340046,18.527850750197
$GPGGA,100211.00,3337.7674,N,11914.3592,W,1,10,0.8,10.1,M,-34.3,M,,*6A
$PYRTM,2024,127.418214912928,18.527862323067
$GPGGA,100212.00,3337.7654,N,11914.3579,W,1,10,0.8,11.1,M,-34.3,M,,*6F
$PYRTM,2024,127.418226486713,18.527873896852
$GPGGA,100213.00,3337.7633,N,11914.3568,W,1,10,0.8,9.3,M,-34.3,M,,*54
$PYRTM,2024,127.418238061887,18.527885472025
$GPGGA,100214.00,3337.7612,N,11914.3556,W,1,10,0.8,7.8,M,-34.3,M,,*58
$PYRTM,2024,127.418249620208,18.527897030347
$GPGGA,100215.00,3337.7593,N,11914.3540,W,1,10,0.8,8.9,M,-34.3,M,,*5A
$PYRTM,2024,127.418261203727,18.527908613866
$GPGGA,100216.00,3337.7575,N,11914.3522,W,1,10,0.8,11.2,M,-34.3,M,,*66
$PYRTM,2024,127.418273001898,18.527920412037
$GPGGA,100217.00,3337.7554,N,11914.3506,W,1,10,0.8,10.0,M,-34.3,M,,*61
$PYRTM,2024,127.418284356516,18.527931766655
$GPGGA,100218.00,3337.7533,N,11914.3493,W,1,10,0.8,7.1,M,-34.3,M,,*55
$PYRTM,2024,127.418295916111,18.527943326250
$GPGGA,100219.00,3337.7512,N,11914.3480,W,1,10,0.8,7.0,M,-34.3,M,,*54
$PYRTM,2024,127.418307505683,18.527954915822
$GPGGA,100220.00,3337.7493,N,11914.3465,W,1,10,0.8,8.7,M,-34.3,M,,*55
$PYRTM,2024,127.418319065729,18.527966475880
$GPGGA,100221.00,3337.7475,N,11914.3448,W,1,10,0.8,8.2,M,-34.3,M,,*56
$PYRTM,2024,127.418330655104,18.527978065243
$GPGGA,100222.00,3337.7456,N,11914.3433,W,1,10,0.8,10.0,M,-34.3,M,,*63
$PYRTM,2024,127.418342213715,18.527989623854
$GPGGA,100223.00,3337.7435,N,11914.3423,W,1,10,0.8,12.2,M,-34.3,M,,*66
$PYRTM,2024,127.418353796238,18.528001206377
$GPGGA,100224.00,3337.7414,N,11914.3413,W,1,10,0.8,10.4,M,-34.3,M,,*65
$PYRTM,2024,127.418365361528,18.528012771667
$GPGGA,100225.00,3337.7395,N,11914.3399,W,1,10,0.8,8.6,M,-34.3,M,,*54
$PYRTM,2024,127.418376950775,18.528024360914
$GPGGA,100226.00,3337.7378,N,11914.3380,W,1,10,0.8,9.9,M,-34.3,M,,*52
$PYRTM,2024,127.418388508958,18.528035919097
$GPGGA,100227.00,3337.7359,N,11914.3362,W,1,10,0.8,11.3,M,-34.3,M,,*6F
$PYRTM,2024,127.418399173218,18.528046583356
$GPGGA,100228.00,3337.7338,N,11914.3348,W,1,10,0.8,10.2,M,-34.3,M,,*6F
$PYRTM,2024,127.418410502257,18.528057912396
$GPGGA,100229.00,3337.7316,N,11914.3336,W,1,10,0.8,12.5,M,-34.3,M,,*6E
$PYRTM,2024,127.418423246169,18.528070656308
$GPGGA,100230.00,3337.7295,N,11914.3323,W,1,10,0.8,12.2,M,-34.3,M,,*6F
$PYRTM,2024,127.418434806470,18.528082216609
$GPGGA,100231.00,3337.7277,N,11914.3306,W,1,10,0.8,10.8,M,-34.3,M,,*6D
$PYRTM,2024,127.418446395208,18.528093805347
$GPGGA,100232.00,3337.7259,N,11914.3290,W,1,10,0.8,10.0,M,-34.3,M,,*64
$PYRTM,2024,127.418457954769,18.528105364907
$GPGGA,100233.00,3337.7240,N,11914.3275,W,1,10,0.8,11.1,M,-34.3,M,,*66
$PYRTM,2024,127.418469542512,18.528116952650
$GPGGA,100234.00,3337.7221,N,11914.3263,W,1,10,0.8,6.5,M,-34.3,M,,*53
$PYRTM,2024,127.418481103588,18.528128513738
$GPGGA,100235.00,3337.7203,N,11914.3251,W,1,10,0.8,4.9,M,-34.3,M,,*5D
$PYRTM,2024,127.418492690926,18.528140101065
$GPGGA,100236.00,3337.7185,N,11914.3238,W,1,10,0.8,7.3,M,-34.3,M,,*55
$PYRTM,2024,127.418504251887,18.528151662037
$GPGGA,100237.00,3337.7166,N,11914.3224,W,1,10,0.8,7.0,M,-34.3,M,,*57
$PYRTM,2024,127.418515835567,18.528163245706
$GPGGA,100238.00,3337.7145,N,11914.3212,W,1,10,0.8,9.6,M,-34.3,M,,*54
$PYRTM,2024,127.418527399803,18.528174809942
$GPGGA,100239.00,3337.7124,N,11914.3199,W,1,10,0.8,9.0,M,-34.3,M,,*54
$PYRTM,2024,127.418538987604,18.528186397743
$GPGGA,100240.00,3337.7104,N,11914.3184,W,1,10,0.8,8.8,M,-34.3,M,,*5D
$PYRTM,2024,127.418550546933,18.528197957072
$GPGGA,100241.00,3337.7086,N,11914.3168,W,1,10,0.8,5.2,M,-34.3,M,,*52
$PYRTM,2024,127.418562135197,18.528209545336
$GPGGA,100242.00,3337.7067,N,11914.3153,W,1,10,0.8,5.0,M,-34.3,M,,*54
$PYRTM,2024,127.418573694641,18.528221104780
$GPGGA,100243.00,3337.7047,N,11914.3140,W,1,10,0.8,8.3,M,-34.3,M,,*5B
$PYRTM,2024,127.418585284826,18.528232694965
$GPGGA,100244.00,3337.7027,N,11914.3128,W,1,10,0.8,8.0,M,-34.3,M,,*57
$PYRTM,2024,127.418596844861,18.528244255000
$GPGGA,100245.00,3337.7007,N,11914.3115,W,1,10,0.8,7.9,M,-34.3,M,,*5C
$PYRTM,2024,127.418608433171,18.528255843310
$GPGGA,100246.00,3337.6988,N,11914.3100,W,1,10,0.8,8.2,M,-34.3,M,,*50
$PYRTM,2024,127.418619991157,18.528267401296
$GPGGA,100247.00,3337.6969,N,11914.3085,W,1,10,0.8,8.8,M,-34.3,M,,*58
$PYRTM,2024,127.418631580000,18.528278990139
$GPGGA,100248.00,3337.6948,N,11914.3071,W,1,10,0.8,8.5,M,-34.3,M,,*52
$PYRTM,2024,127.418643139676,18.528290549815
$GPGGA,100249.00,3337.6928,N,11914.3058,W,1,10,0.8,11.8,M,-34.3,M,,*6B
$PYRTM,2024,127.418654723785,18.528302133924
$GPGGA,100250.00,3337.6908,N,11914.3045,W,1,10,0.8,14.4,M,-34.3,M,,*64
$PYRTM,2024,127.418666287488,18.528313697627
$GPGGA,100251.00,3337.6889,N,11914.3030,W,1,10,0.8,12.6,M,-34.3,M,,*6B
$PYRTM,2024,127.418677875903,18.528325286042
$GPGGA,100252.00,3337.6871,N,11914.3013,W,1,10,0.8,11.8,M,-34.3,M,,*63
$PYRTM,2024,127.418689436285,18.528336846424
$GPGGA,100253.00,3337.6852,N,11914.2998,W,1,10,0.8,13.4,M,-34.3,M,,*66
$PYRTM,2024,127.418701023773,18.528348433912
$GPGGA,100254.00,3337.6833,N,11914.2985,W,1,10,0.8,11.7,M,-34.3,M,,*6B
$PYRTM,2024,127.418712585197,18.528359995336
$GPGGA,100255.00,3337.6811,N,11914.2974,W,1,10,0.8,9.8,M,-34.3,M,,*52
$PYRTM,2024,127.418724174873,18.528371585012
$GPGGA,100256.00,3337.6791,N,11914.2960,W,1,10,0.8,7.8,M,-34.3,M,,*5D
$PYRTM,2024,127.418735733229,18.528383143368
$GPGGA,100257.00,3337.6771,N,11914.2945,W,1,10,0.8,8.2,M,-34.3,M,,*50
$PYRTM,2024,127.418745920683,18.528393330822
$GPGGA,100258.00,3337.6750,N,11914.2931,W,1,10,0.8,8.1,M,-34.3,M,,*5C
$PYRTM,2024,127.418757726053,18.528405136204
$GPGGA,100259.00,3337.6730,N,11914.2917,W,1,10,0.8,10.0,M,-34.3,M,,*67
$PYRTM,2024,127.418770465174,18.528417875312
$GPGGA,100300.00,3337.6709,N,11914.2901,W,1,10,0.8,11.0,M,-34.3,M,,*66
$PYRTM,2024,127.418782029977,18.528429440116
$GPGGA,100301.00,3337.6690,N,11914.2885,W,1,10,0.8,8.4,M,-34.3,M,,*57
$PYRTM,2024,127.418793618507,18.528441028646
$GPGGA,100302.00,3337.6672,N,11914.2868,W,1,10,0.8,10.1,M,-34.3,M,,*67
$PYRTM,2024,127.418805178079,18.528452588229
$GPGGA,100303.00,3337.6654,N,11914.2853,W,1,10,0.8,9.8,M,-34.3,M,,*5B
$PYRTM,2024,127.418816762870,18.528464173009
$GPGGA,100304.00,3337.6636,N,11914.2840,W,1,10,0.8,10.0,M,-34.3,M,,*6A
$PYRTM,2024,127.418828326644,18.528475736782
$GPGGA,100305.00,3337.6616,N,11914.2830,W,1,10,0.8,8.1,M,-34.3,M,,*56
$PYRTM,2024,127.418839911134,18.528487321285
$GPGGA,100306.00,3337.6595,N,11914.2820,W,1,10,0.8,7.1,M,-34.3,M,,*53
$PYRTM,2024,127.418851477743,18.528498887882
$GPGGA,100307.00,3337.6576,N,11914.2804,W,1,10,0.8,10.2,M,-34.3,M,,*6C
$PYRTM,2024,127.418863063484,18.528510473623
$GPGGA,100308.00,3337.6557,N,11914.2787,W,1,10,0.8,10.6,M,-34.3,M,,*60
$PYRTM,2024,127.418874622234,18.528522032373
$GPGGA,100309.00,3337.6539,N,11914.2771,W,1,10,0.8,9.9,M,-34.3,M,,*57
$PYRTM,2024,127.418886206123,18.528533616262
$GPGGA,100310.00,3337.6519,N,11914.2758,W,1,10,0.8,10.2,M,-34.3,M,,*65
$PYRTM,2024,127.418897770671,18.528545180810
$GPGGA,100311.00,3337.6498,N,11914.2745,W,1,10,0.8,10.0,M,-34.3,M,,*62
$PYRTM,2024,127.418909359468,18.528556769606
$GPGGA,100312.00,3337.6478,N,11914.2732,W,1,10,0.8,11.9,M,-34.3,M,,*67
$PYRTM,2024,127.418920918542,18.528568328681
$GPGGA,100313.00,3337.6459,N,11914.2717,W,1,10,0.8,11.9,M,-34.3,M,,*62
$PYRTM,2024,127.418932508657,18.528579918796
$GPGGA,100314.00,3337.6438,N,11914.2703,W,1,10,0.8,14.0,M,-34.3,M,,*6B
$PYRTM,2024,127.418944066956,18.528591477095
$GPGGA,100315.00,3337.6418,N,11914.2690,W,1,10,0.8,12.7,M,-34.3,M,,*62
$PYRTM,2024,127.418955655775,18.528603065914
$GPGGA,100316.00,3337.6399,N,11914.2675,W,1,10,0.8,13.1,M,-34.3,M,,*63
$PYRTM,2024,127.418967695035,18.528615105174
$GPGGA,100317.00,3337.6380,N,11914.2660,W,1,10,0.8,13.5,M,-34.3,M,,*6A
$PYRTM,2024,127.418979254468,18.528626664606
$GPGGA,100318.00,3337.6361,N,11914.2645,W,1,10,0.8,10.6,M,-34.3,M,,*6D
$PYRTM,2024,127.418990951852,18.528638361991
$GPGGA,100319.00,3337.6341,N,11914.2631,W,1,10,0.8,12.8,M,-34.3,M,,*61
$PYRTM,2024,127.419002531539,18.528649941690
$GPGGA,100320.00,3337.6321,N,11914.2619,W,1,10,0.8,14.1,M,-34.3,M,,*68
$PYRTM,2024,127.419014099965,18.528661510104
$GPGGA,100321.00,3337.6300,N,11914.2606,W,1,10,0.8,15.7,M,-34.3,M,,*63
$PYRTM,2024,127.419025678553,18.528673088692
$GPGGA,100322.00,3337.6280,N,11914.2592,W,1,10,0.8,14.7,M,-34.3,M,,*66
$PYRTM,2024,127.419037253993,18.528684664132
$GPGGA,100323.00,3337.6261,N,11914.2577,W,1,10,0.8,14.0,M,-34.3,M,,*64
$PYRTM,2024,127.419048842234,18.528696252384
$GPGGA,100324.00,3337.6242,N,11914.2562,W,1,10,0.8,13.7,M,-34.3,M,,*66
$PYRTM,2024,127.419060401215,18.528707811354
$GPGGA,100325.00,3337.6223,N,11914.2548,W,1,10,0.8,12.0,M,-34.3,M,,*6E
$PYRTM,2024,127.419077402245,18.528724812384
$GPGGA,100326.00,3337.6203,N,11914.2534,W,1,10,0.8,9.5,M,-34.3,M,,*5B
$PYRTM,2024,127.419089325382,18.528736735521
$GPGGA,100327.00,3337.6183,N,11914.2522,W,1,10,0.8,7.0,M,-34.3,M,,*5D
$PYRTM,2024,127.419101142662,18.528748552801
$GPGGA,100328.00,3337.6162,N,11914.2509,W,1,10,0.8,7.5,M,-34.3,M,,*51
$PYRTM,2024,127.419112253044,18.528759663183
$GPGGA,100329.00,3337.6142,N,11914.2496,W,1,10,0.8,9.6,M,-34.3,M,,*58
$PYRTM,2024,127.419123359201,18.528770769340
$GPGGA,100330.00,3337.6124,N,11914.2479,W,1,10,0.8,9.3,M,-34.3,M,,*54
$PYRTM,2024,127.419134475486,18.528781885625
$GPGGA,100331.00,3337.6105,N,11914.2463,W,1,10,0.8,7.0,M,-34.3,M,,*50
$PYRTM,2024,127.419145586713,18.528792996852
$GPGGA,100332.00,3337.6084,N,11914.2449,W,1,10,0.8,9.4,M,-34.3,M,,*59
$PYRTM,2024,127.419156698623,18.528804108762
$GPGGA,100333.00,3337.6064,N,11914.2436,W,1,10,0.8,7.8,M,-34.3,M,,*5C
$PYRTM,2024,127.419167810069,18.528815220220
$GPGGA,100334.00,3337.6045,N,11914.2421,W,1,10,0.8,7.3,M,-34.3,M,,*55
$PYRTM,2024,127.419178920741,18.528826330880
$GPGGA,100335.00,3337.6026,N,11914.2406,W,1,10,0.8,7.9,M,-34.3,M,,*5E
$PYRTM,2024,127.419190031192,18.528837441331
$GPGGA,100336.00,3337.6008,N,11914.2392,W,1,10,0.8,8.1,M,-34.3,M,,*5C
$PYRTM,2024,127.419201129745,18.528848539884
$GPGGA,100337.00,3337.5988,N,11914.2380,W,1,10,0.8,6.3,M,-34.3,M,,*50
$PYRTM,2024,127.419212241991,18.528859652141
$GPGGA,100338.00,3337.5968,N,11914.2368,W,1,10,0.8,4.8,M,-34.3,M,,*5E
$PYRTM,2024,127.419223366088,18.528870776227
$GPGGA,100339.00,3337.5947,N,11914.2353,W,1,10,0.8,5.4,M,-34.3,M,,*57
$PYRTM,2024,127.419234464479,18.528881874618
$GPGGA,100340.00,3337.5928,N,11914.2336,W,1,10,0.8,7.4,M,-34.3,M,,*51
$PYRTM,2024,127.419245587569,18.528892997708
$GPGGA,100341.00,3337.5910,N,11914.2319,W,1,10,0.8,7.3,M,-34.3,M,,*51
$PYRTM,2024,127.419256698333,18.528904108472
$GPGGA,100342.00,3337.5890,N,11914.2306,W,1,10,0.8,8.6,M,-34.3,M,,*5F
$PYRTM,2024,127.419267914074,18.528915324213
$GPGGA,100343.00,3337.5868,N,11914.2294,W,1,10,0.8,8.7,M,-34.3,M,,*52
$PYRTM,2024,127.419279023519,18.528926433657
$GPGGA,100344.00,3337.5847,N,11914.2281,W,1,10,0.8,8.6,M,-34.3,M,,*5D
$PYRTM,2024,127.419290134757,18.528937544907
$GPGGA,100345.00,3337.5828,N,11914.2265,W,1,10,0.8,9.3,M,-34.3,M,,*5B
$PYRTM,2024,127.419301247569,18.528948657720
$GPGGA,100346.00,3337.5810,N,11914.2249,W,1,10,0.8,6.0,M,-34.3,M,,*51
$PYRTM,2024,127.419312732118,18.528960142257
$GPGGA,100347.00,3337.5790,N,11914.2236,W,1,10,0.8,6.6,M,-34.3,M,,*59
$PYRTM,2024,127.419327288773,18.528974698924
$GPGGA,100348.00,3337.5771,N,11914.2222,W,1,10,0.8,5.5,M,-34.3,M,,*5C
$PYRTM,2024,127.419339439676,18.528986849826
$GPGGA,100349.00,3337.5752,N,11914.2208,W,1,10,0.8,7.6,M,-34.3,M,,*55
$PYRTM,2024,127.419350550521,18.528997960660
$GPGGA,100350.00,3337.5731,N,11914.2195,W,1,10,0.8,6.9,M,-34.3,M,,*51
$PYRTM,2024,127.419361662928,18.529009073067
$GPGGA,100351.00,3337.5709,N,11914.2181,W,1,10,0.8,5.3,M,-34.3,M,,*57
$PYRTM,2024,127.419372772546,18.529020182685
$GPGGA,100352.00,3337.5688,N,11914.2166,W,1,10,0.8,6.8,M,-34.3,M,,*5D
$PYRTM,2024,127.419384014757,18.529031424896
$GPGGA,100353.00,3337.5669,N,11914.2149,W,1,10,0.8,8.1,M,-34.3,M,,*59
$PYRTM,2024,127.419395472118,18.529042882257
$GPGGA,100354.00,3337.5651,N,11914.2132,W,1,10,0.8,8.6,M,-34.3,M,,*5E
$PYRTM,2024,127.419407032130,18.529054442269
$GPGGA,100355.00,3337.5632,N,11914.2119,W,1,10,0.8,9.0,M,-34.3,M,,*54
$PYRTM,2024,127.419418615278,18.529066025417
$GPGGA,100356.00,3337.5612,N,11914.2109,W,1,10,0.8,5.8,M,-34.3,M,,*50
$PYRTM,2024,127.419430180347,18.529077590486
$GPGGA,100357.00,3337.5592,N,11914.2095,W,1,10,0.8,5.6,M,-34.3,M,,*50
$PYRTM,2024,127.419440364560,18.529087774699
$GPGGA,100358.00,3337.5575,N,11914.2078,W,1,10,0.8,6.1,M,-34.3,M,,*51
$PYRTM,2024,127.419452172280,18.529099582419
$GPGGA,100359.00,3337.5557,N,11914.2063,W,1,10,0.8,7.9,M,-34.3,M,,*53
$PYRTM,2024,127.419464911354,18.529112321493
$GPGGA,100400.00,3337.5536,N,11914.2050,W,1,10,0.8,7.7,M,-34.3,M,,*51
$PYRTM,2024,127.419476476887,18.529123887037
$GPGGA,100401.00,3337.5514,N,11914.2040,W,1,10,0.8,7.9,M,-34.3,M,,*5F
$PYRTM,2024,127.419488064699,18.529135474838
$GPGGA,100402.00,3337.5493,N,11914.2024,W,1,10,0.8,5.5,M,-34.3,M,,*5E
$PYRTM,2024,127.419499627037,18.529147037176
$GPGGA,100403.00,3337.5475,N,11914.2006,W,1,10,0.8,6.0,M,-34.3,M,,*51
$PYRTM,2024,127.419511213310,18.529158623449
$GPGGA,100404.00,3337.5458,N,11914.1989,W,1,10,0.8,7.0,M,-34.3,M,,*55
$PYRTM,2024,127.419522773148,18.529170183287
$GPGGA,100405.00,3337.5439,N,11914.1976,W,1,10,0.8,7.9,M,-34.3,M,,*5A
$PYRTM,2024,127.419534363692,18.529181773831
$GPGGA,100406.00,3337.5417,N,11914.1967,W,1,10,0.8,8.2,M,-34.3,M,,*51
$PYRTM,2024,127.419545922280,18.529193332419
$GPGGA,100407.00,3337.5396,N,11914.1956,W,1,10,0.8,8.6,M,-34.3,M,,*58
$PYRTM,2024,127.419557505069,18.529204915208
$GPGGA,100408.00,3337.5376,N,11914.1941,W,1,10,0.8,8.7,M,-34.3,M,,*5E
$PYRTM,2024,127.419569071887,18.529216482025
$GPGGA,100409.00,3337.5356,N,11914.1925,W,1,10,0.8,8.5,M,-34.3,M,,*5D
$PYRTM,2024,127.419580652454,18.529228062593
$GPGGA,100410.00,3337.5337,N,11914.1911,W,1,10,0.8,7.0,M,-34.3,M,,*5F
$PYRTM,2024,127.419592219630,18.529239629769
$GPGGA,100411.00,3337.5317,N,11914.1900,W,1,10,0.8,8.4,M,-34.3,M,,*57
$PYRTM,2024,127.419603805359,18.529251215498
$GPGGA,100412.00,3337.5296,N,11914.1888,W,1,10,0.8,8.0,M,-34.3,M,,*59
$PYRTM,2024,127.419615366944,18.529262777095
$GPGGA,100413.00,3337.5276,N,11914.1873,W,1,10,0.8,9.7,M,-34.3,M,,*54
$PYRTM,2024,127.419626955544,18.529274365683
$GPGGA,100414.00,3337.5258,N,11914.1857,W,1,10,0.8,9.3,M,-34.3,M,,*5D
$PYRTM,2024,127.419638515231,18.529285925370
$GPGGA,100415.00,3337.5238,N,11914.1843,W,1,10,0.8,8.3,M,-34.3,M,,*5E
$PYRTM,2024,127.419650103183,18.529297513333
$GPGGA,100416.00,3337.5217,N,11914.1830,W,1,10,0.8,9.7,M,-34.3,M,,*51
$PYRTM,2024,127.419661662708,18.529309072859
$GPGGA,100417.00,3337.5195,N,11914.1817,W,1,10,0.8,9.6,M,-34.3,M,,*5D
$PYRTM,2024,127.419673250752,18.529320660903
$GPGGA,100418.00,3337.5175,N,11914.1803,W,1,10,0.8,10.1,M,-34.3,M,,*66
$PYRTM,2024,127.419684811157,18.529332221308
$GPGGA,100419.00,3337.5155,N,11914.1786,W,1,10,0.8,6.1,M,-34.3,M,,*50
$PYRTM,2024,127.419696395394,18.529343805532
$GPGGA,100420.00,3337.5137,N,11914.1769,W,1,10,0.8,7.6,M,-34.3,M,,*59
$PYRTM,2024,127.419707958866,18.529355369005
$GPGGA,100421.00,3337.5118,N,11914.1756,W,1,10,0.8,8.5,M,-34.3,M,,*55
$PYRTM,2024,127.419719547280,18.529366957419
$GPGGA,100422.00,3337.5097,N,11914.1746,W,1,10,0.8,8.8,M,-34.3,M,,*5C
$PYRTM,2024,127.419731108380,18.529378518519
$GPGGA,100423.00,3337.5074,N,11914.1736,W,1,10,0.8,7.1,M,-34.3,M,,*51
$PYRTM,2024,127.419742695590,18.529390105729
$GPGGA,100424.00,3337.5053,N,11914.1723,W,1,10,0.8,8.5,M,-34.3,M,,*5C
$PYRTM,2024,127.419754256713,18.529401666852
$GPGGA,100425.00,3337.5035,N,11914.1705,W,1,10,0.8,12.0,M,-34.3,M,,*67
$PYRTM,2024,127.419765831690,18.529413241829
$GPGGA,100426.00,3337.5016,N,11914.1688,W,1,10,0.8,10.3,M,-34.3,M,,*60
$PYRTM,2024,127.419777403530,18.529424813669
$GPGGA,100427.00,3337.4995,N,11914.1674,W,1,10,0.8,12.3,M,-34.3,M,,*63
$PYRTM,2024,127.419787589456,18.529434999595
$GPGGA,100428.00,3337.4972,N,11914.1662,W,1,10,0.8,14.5,M,-34.3,M,,*62
$PYRTM,2024,127.419799395382,18.529446805521
$GPGGA,100429.00,3337.4951,N,11914.1648,W,1,10,0.8,13.3,M,-34.3,M,,*6B
$PYRTM,2024,127.419812141690,18.529459551829
$GPGGA,100430.00,3337.4931,N,11914.1631,W,1,10,0.8,13.2,M,-34.3,M,,*6A
$PYRTM,2024,127.419823702477,18.529471112616
$GPGGA,100431.00,3337.4913,N,11914.1615,W,1,10,0.8,11.0,M,-34.3,M,,*6D
$PYRTM,2024,127.419835283600,18.529482693738
$GPGGA,100432.00,3337.4893,N,11914.1603,W,1,10,0.8,10.4,M,-34.3,M,,*65
$PYRTM,2024,127.419846849757,18.529494259896
$GPGGA,100433.00,3337.4873,N,11914.1590,W,1,10,0.8,11.5,M,-34.3,M,,*63
$PYRTM,2024,127.419858437616,18.529505847755
$GPGGA,100434.00,3337.4853,N,11914.1577,W,1,10,0.8,9.6,M,-34.3,M,,*55
$PYRTM,2024,127.419869996875,18.529517407014
$GPGGA,100435.00,3337.4835,N,11914.1561,W,1,10,0.8,10.4,M,-34.3,M,,*69
$PYRTM,2024,127.419881584722,18.529528994861
$GPGGA,100436.00,3337.4816,N,11914.1546,W,1,10,0.8,12.2,M,-34.3,M,,*6A
$PYRTM,2024,127.419893146042,18.529540556181
$GPGGA,100437.00,3337.4795,N,11914.1533,W,1,10,0.8,10.9,M,-34.3,M,,*64
$PYRTM,2024,127.419904733299,18.529552143437
$GPGGA,100438.00,3337.4772,N,11914.1521,W,1,10,0.8,11.9,M,-34.3,M,,*60
$PYRTM,2024,127.419916292812,18.529563702951
$GPGGA,100439.00,3337.4751,N,11914.1507,W,1,10,0.8,10.6,M,-34.3,M,,*6A
$PYRTM,2024,127.419927868958,18.529575279097
$GPGGA,100440.00,3337.4732,N,11914.1489,W,1,10,0.8,12.3,M,-34.3,M,,*61
$PYRTM,2024,127.419939441505,18.529586851644
$GPGGA,100441.00,3337.4714,N,11914.1471,W,1,10,0.8,12.6,M,-34.3,M,,*66
$PYRTM,2024,127.419951029907,18.529598440046
$GPGGA,100442.00,3337.4694,N,11914.1458,W,1,10,0.8,11.6,M,-34.3,M,,*64
$PYRTM,2024,127.419962590197,18.529610000336
$GPGGA,100443.00,3337.4673,N,11914.1449,W,1,10,0.8,12.5,M,-34.3,M,,*6C
$PYRTM,2024,127.419974177569,18.529621587708
$GPGGA,100444.00,3337.4653,N,11914.1438,W,1,10,0.8,8.7,M,-34.3,M,,*56
$PYRTM,2024,127.419985738495,18.529633148634
$GPGGA,100445.00,3337.4633,N,11914.1424,W,1,10,0.8,7.6,M,-34.3,M,,*52
$PYRTM,2024,127.419997321863,18.529644732002
$GPGGA,100446.00,3337.4615,N,11914.1407,W,1,10,0.8,8.4,M,-34.3,M,,*59
$PYRTM,2024,127.420008886169,18.529656296319
$GPGGA,100447.00,3337.4595,N,11914.1392,W,1,10,0.8,9.8,M,-34.3,M,,*55
$PYRTM,2024,127.420020474734,18.529667884884
$GPGGA,100448.00,3337.4575,N,11914.1380,W,1,10,0.8,10.4,M,-34.3,M,,*63
$PYRTM,2024,127.420032034919,18.529679445058
$GPGGA,100449.00,3337.4554,N,11914.1368,W,1,10,0.8,11.7,M,-34.3,M,,*65
$PYRTM,2024,127.420043622546,18.529691032685
$GPGGA,100450.00,3337.4535,N,11914.1354,W,1,10,0.8,12.5,M,-34.3,M,,*64
$PYRTM,2024,127.420055183125,18.529702593264
$GPGGA,100451.00,3337.4517,N,11914.1337,W,1,10,0.8,10.2,M,-34.3,M,,*65
$PYRTM,2024,127.420066770475,18.529714180613
$GPGGA,100452.00,3337.4499,N,11914.1320,W,1,10,0.8,9.7,M,-34.3,M,,*5A
$PYRTM,2024,127.420078330509,18.529725740648
$GPGGA,100453.00,3337.4480,N,11914.1306,W,1,10,0.8,8.3,M,-34.3,M,,*52
$PYRTM,2024,127.420089919329,18.529737329468
$GPGGA,100454.00,3337.4459,N,11914.1294,W,1,10,0.8,8.9,M,-34.3,M,,*51
$PYRTM,2024,127.420101480729,18.529748890880
$GPGGA,100455.00,3337.4437,N,11914.1283,W,1,10,0.8,9.8,M,-34.3,M,,*5E
$PYRTM,2024,127.420113067720,18.529760477859
$GPGGA,100456.00,3337.4418,N,11914.1268,W,1,10,0.8,9.2,M,-34.3,M,,*5F
$PYRTM,2024,127.420124627569,18.529772037708
$GPGGA,100457.00,3337.4399,N,11914.1253,W,1,10,0.8,9.0,M,-34.3,M,,*5A
$PYRTM,2024,127.420135289815,18.529782699954
$GPGGA,100458.00,3337.4379,N,11914.1238,W,1,10,0.8,12.5,M,-34.3,M,,*69
$PYRTM,2024,127.420146620428,18.529794030567
$GPGGA,100459.00,3337.4358,N,11914.1223,W,1,10,0.8,11.5,M,-34.3,M,,*62
$PYRTM,2024,127.420159351389,18.529806761528
$GPGGA,100500.00,3337.4339,N,11914.1207,W,1,10,0.8,10.7,M,-34.3,M,,*6D
$PYRTM,2024,127.420170927176,18.529818337315
$GPGGA,100501.00,3337.4321,N,11914.1191,W,1,10,0.8,10.2,M,-34.3,M,,*6C
$PYRTM,2024,127.420182512813,18.529829922951
$GPGGA,100502.00,3337.4303,N,11914.1176,W,1,10,0.8,9.9,M,-34.3,M,,*55
$PYRTM,2024,127.420194072546,18.529841482685
$GPGGA,100503.00,3337.4283,N,11914.1163,W,1,10,0.8,9.4,M,-34.3,M,,*54
$PYRTM,2024,127.420205655463,18.529853065602
$GPGGA,100504.00,3337.4263,N,11914.1150,W,1,10,0.8,8.6,M,-34.3,M,,*5E
$PYRTM,2024,127.420217219757,18.529864629896
$GPGGA,100505.00,3337.4243,N,11914.1137,W,1,10,0.8,7.7,M,-34.3,M,,*52
$PYRTM,2024,127.420228808148,18.529876218287
$GPGGA,100506.00,3337.4224,N,11914.1120,W,1,10,0.8,8.5,M,-34.3,M,,*5B
$PYRTM,2024,127.420240370023,18.529887780174
$GPGGA,100507.00,3337.4206,N,11914.1105,W,1,10,0.8,10.0,M,-34.3,M,,*61
$PYRTM,2024,127.420251956389,18.529899366528
$GPGGA,100508.00,3337.4187,N,11914.1089,W,1,10,0.8,12.9,M,-34.3,M,,*6A
$PYRTM,2024,127.420263516447,18.529910926586
$GPGGA,100509.00,3337.4167,N,11914.1075,W,1,10,0.8,11.6,M,-34.3,M,,*6A
$PYRTM,2024,127.420275103681,18.529922513808
$GPGGA,100510.00,3337.4148,N,11914.1062,W,1,10,0.8,11.8,M,-34.3,M,,*67
$PYRTM,2024,127.420286664965,18.529934075104
$GPGGA,100511.00,3337.4127,N,11914.1049,W,1,10,0.8,10.0,M,-34.3,M,,*6F
$PYRTM,2024,127.420298253623,18.529945663762
$GPGGA,100512.00,3337.4106,N,11914.1037,W,1,10,0.8,11.8,M,-34.3,M,,*6F
$PYRTM,2024,127.420309813507,18.529957223646
$GPGGA,100513.00,3337.4086,N,11914.1024,W,1,10,0.8,11.4,M,-34.3,M,,*69
$PYRTM,2024,127.420321395625,18.529968805764
$GPGGA,100514.00,3337.4066,N,11914.1008,W,1,10,0.8,11.8,M,-34.3,M,,*62
$PYRTM,2024,127.420332963368,18.529980373519
$GPGGA,100515.00,3337.4047,N,11914.0990,W,1,10,0.8,9.5,M,-34.3,M,,*5D
$PYRTM,2024,127.420344548981,18.529991959120
$GPGGA,100516.00,3337.4027,N,11914.0974,W,1,10,0.8,10.8,M,-34.3,M,,*67
$PYRTM,2024,127.420356587350,18.530003997500
$GPGGA,100517.00,3337.4008,N,11914.0960,W,1,10,0.8,9.8,M,-34.3,M,,*56
$PYRTM,2024,127.420368147025,18.530015557164
$GPGGA,100518.00,3337.3989,N,11914.0946,W,1,10,0.8,7.7,M,-34.3,M,,*5B
$PYRTM,2024,127.420379732569,18.530027142708
$GPGGA,100519.00,3337.3970,N,11914.0931,W,1,10,0.8,7.1,M,-34.3,M,,*5A
$PYRTM,2024,127.420391295648,18.530038705787
$GPGGA,100520.00,3337.3952,N,11914.0917,W,1,10,0.8,6.8,M,-34.3,M,,*5C
$PYRTM,2024,127.420402883623,18.530050293762
$GPGGA,100521.00,3337.3932,N,11914.0904,W,1,10,0.8,5.7,M,-34.3,M,,*55
$PYRTM,2024,127.420414442882,18.530061853021
$GPGGA,100522.00,3337.3911,N,11914.0891,W,1,10,0.8,4.7,M,-34.3,M,,*5B
$PYRTM,2024,127.420426030625,18.530073440764
$GPGGA,100523.00,3337.3892,N,11914.0877,W,1,10,0.8,5.1,M,-34.3,M,,*5F
$PYRTM,2024,127.420437592118,18.530085002257
$GPGGA,100524.00,3337.3873,N,11914.0861,W,1,10,0.8,6.1,M,-34.3,M,,*53
$PYRTM,2024,127.420449180220,18.530096590359
$GPGGA,100525.00,3337.3854,N,11914.0845,W,1,10,0.8,5.5,M,-34.3,M,,*56
$PYRTM,2024,127.420460741204,18.530108151354
$GPGGA,100526.00,3337.3834,N,11914.0831,W,1,10,0.8,6.6,M,-34.3,M,,*50
$PYRTM,2024,127.420472323507,18.530119733646
$GPGGA,100527.00,3337.3813,N,11914.0819,W,1,10,0.8,8.0,M,-34.3,M,,*56
$PYRTM,2024,127.420482629190,18.530130039329
$GPGGA,100528.00,3337.3793,N,11914.0806,W,1,10,0.8,6.4,M,-34.3,M,,*5A
$PYRTM,2024,127.420493843889,18.530141254028
$GPGGA,100529.00,3337.3774,N,11914.0793,W,1,10,0.8,5.3,M,-34.3,M,,*55
$PYRTM,2024,127.420506575243,18.530153985382
$GPGGA,100530.00,3337.3754,N,11914.0780,W,1,10,0.8,4.6,M,-34.3,M,,*59
$PYRTM,2024,127.420517222002,18.530164632141
$GPGGA,100531.00,3337.3734,N,11914.0767,W,1,10,0.8,5.4,M,-34.3,M,,*54
$PYRTM,2024,127.420529143009,18.530176553148
$GPGGA,100532.00,3337.3714,N,11914.0754,W,1,10,0.8,4.1,M,-34.3,M,,*51
$PYRTM,2024,127.420539804769,18.530187214907
$GPGGA,100533.00,3337.3693,N,11914.0740,W,1,10,0.8,4.3,M,-34.3,M,,*59
$PYRTM,2024,127.420550919676,18.530198329815
$GPGGA,100534.00,3337.3674,N,11914.0725,W,1,10,0.8,4.9,M,-34.3,M,,*5E
$PYRTM,2024,127.420562027905,18.530209438044
$GPGGA,100535.00,3337.3653,N,11914.0711,W,1,10,0.8,8.0,M,-34.3,M,,*58
$PYRTM,2024,127.420573139410,18.530220549549
$GPGGA,100536.00,3337.3633,N,11914.0697,W,1,10,0.8,8.0,M,-34.3,M,,*52
$PYRTM,2024,127.420584253333,18.530231663472
$GPGGA,100537.00,3337.3612,N,11914.0682,W,1,10,0.8,8.3,M,-34.3,M,,*57
$PYRTM,2024,127.420595355891,18.530242766042
$GPGGA,100538.00,3337.3592,N,11914.0666,W,1,10,0.8,7.7,M,-34.3,M,,*52
$PYRTM,2024,127.420606471424,18.530253881563
$GPGGA,100539.00,3337.3573,N,11914.0650,W,1,10,0.8,9.0,M,-34.3,M,,*50
$PYRTM,2024,127.420617699352,18.530265109491
$GPGGA,100540.00,3337.3554,N,11914.0635,W,1,10,0.8,9.9,M,-34.3,M,,*51
$PYRTM,2024,127.420635511991,18.530282922141
$GPGGA,100541.00,3337.3533,N,11914.0621,W,1,10,0.8,9.9,M,-34.3,M,,*54
$PYRTM,2024,127.420646621019,18.530294031169
$GPGGA,100542.00,3337.3512,N,11914.0609,W,1,10,0.8,7.8,M,-34.3,M,,*51
$PYRTM,2024,127.420657733218,18.530305143356
$GPGGA,100543.00,3337.3492,N,11914.0596,W,1,10,0.8,7.4,M,-34.3,M,,*50
$PYRTM,2024,127.420668845845,18.530316255995
$GPGGA,100544.00,3337.3473,N,11914.0581,W,1,10,0.8,7.9,M,-34.3,M,,*53
$PYRTM,2024,127.420679955197,18.530327365336
$GPGGA,100545.00,3337.3455,N,11914.0564,W,1,10,0.8,9.4,M,-34.3,M,,*5E
$PYRTM,2024,127.420691181366,18.530338591505
$GPGGA,100546.00,3337.3436,N,11914.0548,W,1,10,0.8,10.7,M,-34.3,M,,*6D
$PYRTM,2024,127.420702768194,18.530350178333
$GPGGA,100547.00,3337.3414,N,11914.0536,W,1,10,0.8,12.7,M,-34.3,M,,*67
$PYRTM,2024,127.420714215810,18.530361625949
$GPGGA,100548.00,3337.3393,N,11914.0524,W,1,10,0.8,9.2,M,-34.3,M,,*5C
$PYRTM,2024,127.420725325775,18.530372735914
$GPGGA,100549.00,3337.3375,N,11914.0510,W,1,10,0.8,8.1,M,-34.3,M,,*50
$PYRTM,2024,127.420736436146,18.530383846285
$GPGGA,100550.00,3337.3358,N,11914.0491,W,1,10,0.8,7.6,M,-34.3,M,,*57
$PYRTM,2024,127.420747549988,18.530394960127
$GPGGA,100551.00,3337.3341,N,11914.0475,W,1,10,0.8,8.2,M,-34.3,M,,*5F
$PYRTM,2024,127.420758775532,18.530406185671
$GPGGA,100552.00,3337.3321,N,11914.0466,W,1,10,0.8,11.8,M,-34.3,M,,*6A
$PYRTM,2024,127.420769884271,18.530417294410
$GPGGA,100553.00,3337.3299,N,11914.0459,W,1,10,0.8,10.3,M,-34.3,M,,*6F
$PYRTM,2024,127.420780996701,18.530428406840
$GPGGA,100554.00,3337.3280,N,11914.0445,W,1,10,0.8,10.0,M,-34.3,M,,*6E
$PYRTM,2024,127.420792108125,18.530439518275
$GPGGA,100555.00,3337.3262,N,11914.0427,W,1,10,0.8,10.8,M,-34.3,M,,*6F
$PYRTM,2024,127.420803219884,18.530450630023
$GPGGA,100556.00,3337.3246,N,11914.0410,W,1,10,0.8,8.1,M,-34.3,M,,*5E
$PYRTM,2024,127.420814444178,18.530461854317
$GPGGA,100557.00,3337.3227,N,11914.0395,W,1,10,0.8,11.9,M,-34.3,M,,*62
$PYRTM,2024,127.420830663866,18.530478074005
$GPGGA,100558.00,3337.3206,N,11914.0381,W,1,10,0.8,13.0,M,-34.3,M,,*60
$PYRTM,2024,127.420842223067,18.530489633206
$GPGGA,100559.00,3337.3185,N,11914.0367,W,1,10,0.8,12.2,M,-34.3,M,,*62
$PYRTM,2024,127.420853810914,18.530501221053
$GPGGA,100600.00,3337.3163,N,11914.0354,W,1,10,0.8,13.9,M,-34.3,M,,*6F
$PYRTM,2024,127.420865370081,18.530512780220
$GPGGA,100601.00,3337.3142,N,11914.0339,W,1,10,0.8,13.8,M,-34.3,M,,*67
$PYRTM,2024,127.420876959259,18.530524369410
$GPGGA,100602.00,3337.3122,N,11914.0321,W,1,10,0.8,11.5,M,-34.3,M,,*64
$PYRTM,2024,127.420888521088,18.530535931227
$GPGGA,100603.00,3337.3104,N,11914.0304,W,1,10,0.8,10.6,M,-34.3,M,,*64
$PYRTM,2024,127.420900110359,18.530547520498
$GPGGA,100604.00,3337.3087,N,11914.0289,W,1,10,0.8,8.6,M,-34.3,M,,*54
$PYRTM,2024,127.420911666840,18.530559076979
$GPGGA,100605.00,3337.3067,N,11914.0278,W,1,10,0.8,6.6,M,-34.3,M,,*5B
$PYRTM,2024,127.420923256933,18.530570667072
$GPGGA,100606.00,3337.3047,N,11914.0268,W,1,10,0.8,4.7,M,-34.3,M,,*58
$PYRTM,2024,127.420934817384,18.530582227523
$GPGGA,100607.00,3337.3027,N,11914.0256,W,1,10,0.8,4.4,M,-34.3,M,,*51
$PYRTM,2024,127.420946404734,18.530593814873
$GPGGA,100608.00,3337.3010,N,11914.0240,W,1,10,0.8,5.6,M,-34.3,M,,*5E
$PYRTM,2024,127.420957965475,18.530605375625
$GPGGA,100609.00,3337.2992,N,11914.0223,W,1,10,0.8,6.2,M,-34.3,M,,*5F
$PYRTM,2024,127.420969551562,18.530616961701
$GPGGA,100610.00,3337.2973,N,11914.0209,W,1,10,0.8,6.6,M,-34.3,M,,*54
$PYRTM,2024,127.420981113345,18.530628523484
$GPGGA,100611.00,3337.2951,N,11914.0196,W,1,10,0.8,7.4,M,-34.3,M,,*53
$PYRTM,2024,127.420992700000,18.530640110139
$GPGGA,100612.00,3337.2929,N,11914.0183,W,1,10,0.8,9.1,M,-34.3,M,,*50
$PYRTM,2024,127.421004263819,18.530651673970
$GPGGA,100613.00,3337.2910,N,11914.0166,W,1,10,0.8,10.6,M,-34.3,M,,*6F
$PYRTM,2024,127.421015848148,18.530663258287
$GPGGA,100614.00,3337.2892,N,11914.0148,W,1,10,0.8,9.2,M,-34.3,M,,*53
$PYRTM,2024,127.421027410775,18.530674820914
$GPGGA,100615.00,3337.2876,N,11914.0134,W,1,10,0.8,7.9,M,-34.3,M,,*56
$PYRTM,2024,127.421038991609,18.530686401759
$GPGGA,100616.00,3337.2856,N,11914.0123,W,1,10,0.8,7.8,M,-34.3,M,,*50
$PYRTM,2024,127.421050557153,18.530697967292
$GPGGA,100617.00,3337.2834,N,11914.0112,W,1,10,0.8,8.4,M,-34.3,M,,*54
$PYRTM,2024,127.421062145556,18.530709555694
$GPGGA,100618.00,3337.2812,N,11914.0100,W,1,10,0.8,6.3,M,-34.3,M,,*55
$PYRTM,2024,127.421073705116,18.530721115255
$GPGGA,100619.00,3337.2792,N,11914.0084,W,1,10,0.8,6.3,M,-34.3,M,,*5E
$PYRTM,2024,127.421085292616,18.530732702755
$GPGGA,100620.00,3337.2773,N,11914.0065,W,1,10,0.8,5.1,M,-34.3,M,,*55
$PYRTM,2024,127.421096738866,18.530744149005
$GPGGA,100621.00,3337.2753,N,11914.0047,W,1,10,0.8,5.1,M,-34.3,M,,*56
$PYRTM,2024,127.421108326192,18.530755736331
$GPGGA,100622.00,3337.2733,N,11914.0033,W,1,10,0.8,6.9,M,-34.3,M,,*5B
$PYRTM,2024,127.421119887095,18.530767297234
$GPGGA,100623.00,3337.2713,N,11914.0020,W,1,10,0.8,7.4,M,-34.3,M,,*56
$PYRTM,2024,127.421131474711,18.530778884850
$GPGGA,100624.00,3337.2692,N,11914.0007,W,1,10,0.8,7.4,M,-34.3,M,,*5C
$PYRTM,2024,127.421143035463,18.530790445602
$GPGGA,100625.00,3337.2674,N,11913.9990,W,1,10,0.8,5.6,M,-34.3,M,,*5C
$PYRTM,2024,127.421154622975,18.530802033113
$GPGGA,100626.00,3337.2656,N,11913.9971,W,1,10,0.8,4.8,M,-34.3,M,,*5F
$PYRTM,2024,127.421166183449,18.530813593588
$GPGGA,100627.00,3337.2638,N,11913.9955,W,1,10,0.8,3.5,M,-34.3,M,,*5A
$PYRTM,2024,127.421176482280,18.530823892431
$GPGGA,100628.00,3337.2617,N,11913.9942,W,1,10,0.8,5.8,M,-34.3,M,,*55
$PYRTM,2024,127.421188290428,18.530835700579
$GPGGA,100629.00,3337.2596,N,11913.9930,W,1,10,0.8,6.4,M,-34.3,M,,*54
$PYRTM,2024,127.421200933924,18.530848344062
$GPGGA,100630.00,3337.2576,N,11913.9915,W,1,10,0.8,8.2,M,-34.3,M,,*5D
$PYRTM,2024,127.421212481933,18.530859892072
$GPGGA,100631.00,3337.2558,N,11913.9899,W,1,10,0.8,8.7,M,-34.3,M,,*50
$PYRTM,2024,127.421224066030,18.530871476169
$GPGGA,100632.00,3337.2538,N,11913.9884,W,1,10,0.8,8.0,M,-34.3,M,,*5E
$PYRTM,2024,127.421235629213,18.530883039363
$GPGGA,100633.00,3337.2517,N,11913.9870,W,1,10,0.8,9.0,M,-34.3,M,,*58
$PYRTM,2024,127.421247210752,18.530894620891
$GPGGA,100634.00,3337.2497,N,11913.9855,W,1,10,0.8,9.8,M,-34.3,M,,*59
$PYRTM,2024,127.421258777153,18.530906187292
$GPGGA,100635.00,3337.2478,N,11913.9840,W,1,10,0.8,9.3,M,-34.3,M,,*56
$PYRTM,2024,127.421270479745,18.530917889884
$GPGGA,100636.00,3337.2458,N,11913.9826,W,1,10,0.8,10.0,M,-34.3,M,,*6C
$PYRTM,2024,127.421282038449,18.530929448588
$GPGGA,100637.00,3337.2438,N,11913.9814,W,1,10,0.8,11.9,M,-34.3,M,,*62
$PYRTM,2024,127.421293846887,18.530941257025
$GPGGA,100638.00,3337.2417,N,11913.9801,W,1,10,0.8,10.9,M,-34.3,M,,*65
$PYRTM,2024,127.421305186597,18.530952596736
$GPGGA,100639.00,3337.2398,N,11913.9786,W,1,10,0.8,11.1,M,-34.3,M,,*6D
$PYRTM,2024,127.421316660185,18.530964070324
$GPGGA,100640.00,3337.2379,N,11913.9770,W,1,10,0.8,8.2,M,-34.3,M,,*5E
$PYRTM,2024,127.421328220162,18.530975630301
$GPGGA,100641.00,3337.2360,N,11913.9755,W,1,10,0.8,9.0,M,-34.3,M,,*53
$PYRTM,2024,127.421339922755,18.530987332894
$GPGGA,100642.00,3337.2340,N,11913.9742,W,1,10,0.8,10.8,M,-34.3,M,,*64
$PYRTM,2024,127.421351368715,18.530998778854
$GPGGA,100643.00,3337.2319,N,11913.9730,W,1,10,0.8,9.9,M,-34.3,M,,*55
$PYRTM,2024,127.421363071562,18.531010481701
$GPGGA,100644.00,3337.2299,N,11913.9716,W,1,10,0.8,10.2,M,-34.3,M,,*6C
$PYRTM,2024,127.421374517813,18.531021927963
$GPGGA,100645.00,3337.2280,N,11913.9700,W,1,10,0.8,8.6,M,-34.3,M,,*5F
$PYRTM,2024,127.421386221169,18.531033631308
$GPGGA,100646.00,3337.2262,N,11913.9684,W,1,10,0.8,10.6,M,-34.3,M,,*64
$PYRTM,2024,127.421398141134,18.531045551273
$GPGGA,100647.00,3337.2243,N,11913.9671,W,1,10,0.8,12.2,M,-34.3,M,,*6A
$PYRTM,2024,127.421409367766,18.531056777905
$GPGGA,100648.00,3337.2224,N,11913.9657,W,1,10,0.8,11.8,M,-34.3,M,,*69
$PYRTM,2024,127.421420926840,18.531068336979
$GPGGA,100649.00,3337.2205,N,11913.9642,W,1,10,0.8,12.0,M,-34.3,M,,*64
$PYRTM,2024,127.421432399850,18.531079809988
$GPGGA,100650.00,3337.2184,N,11913.9627,W,1,10,0.8,9.4,M,-34.3,M,,*5B
$PYRTM,2024,127.421443960926,18.531091371065
$GPGGA,100651.00,3337.2162,N,11913.9614,W,1,10,0.8,9.9,M,-34.3,M,,*5F
$PYRTM,2024,127.421455549213,18.531102959352
$GPGGA,100652.00,3337.2141,N,11913.9601,W,1,10,0.8,9.7,M,-34.3,M,,*57
$PYRTM,2024,127.421467112512,18.531114522650
$GPGGA,100653.00,3337.2119,N,11913.9588,W,1,10,0.8,9.5,M,-34.3,M,,*5B
$PYRTM,2024,127.421478691910,18.531126102049
$GPGGA,100654.00,3337.2099,N,11913.9571,W,1,10,0.8,8.3,M,-34.3,M,,*54
$PYRTM,2024,127.421490257917,18.531137668056
$GPGGA,100655.00,3337.2080,N,11913.9553,W,1,10,0.8,8.1,M,-34.3,M,,*5F
$PYRTM,2024,127.421501860718,18.531149270856
$GPGGA,100656.00,3337.2062,N,11913.9535,W,1,10,0.8,8.0,M,-34.3,M,,*51
$PYRTM,2024,127.421513406678,18.531160816817
$GPGGA,100657.00,3337.2044,N,11913.9520,W,1,10,0.8,5.8,M,-34.3,M,,*55
$PYRTM,2024,127.421523706701,18.531171116852
$GPGGA,100658.00,3337.2024,N,11913.9508,W,1,10,0.8,7.7,M,-34.3,M,,*5B
$PYRTM,2024,127.421535513947,18.531182924086
$GPGGA,100659.00,3337.2004,N,11913.9497,W,1,10,0.8,9.4,M,-34.3,M,,*52
$PYRTM,2024,127.421548137836,18.531195547975
$GPGGA,100700.00,3337.1985,N,11913.9482,W,1,10,0.8,9.0,M,-34.3,M,,*5C
$PYRTM,2024,127.421559704664,18.531207114803
$GPGGA,100701.00,3337.1966,N,11913.9464,W,1,10,0.8,7.0,M,-34.3,M,,*56
$PYRTM,2024,127.421571291400,18.531218701539
$GPGGA,100702.00,3337.1947,N,11913.9445,W,1,10,0.8,7.3,M,-34.3,M,,*56
$PYRTM,2024,127.421582851343,18.531230261481
$GPGGA,100703.00,3337.1928,N,11913.9427,W,1,10,0.8,6.8,M,-34.3,M,,*50
$PYRTM,2024,127.421594440324,18.531241850463
$GPGGA,100704.00,3337.1908,N,11913.9413,W,1,10,0.8,9.8,M,-34.3,M,,*5D
$PYRTM,2024,127.421606115486,18.531253525625
$GPGGA,100705.00,3337.1888,N,11913.9401,W,1,10,0.8,11.2,M,-34.3,M,,*65
$PYRTM,2024,127.421617600648,18.531265010787
$GPGGA,100706.00,3337.1867,N,11913.9387,W,1,10,0.8,9.4,M,-34.3,M,,*51
$PYRTM,2024,127.421629147743,18.531276557882
$GPGGA,100707.00,3337.1849,N,11913.9371,W,1,10,0.8,9.6,M,-34.3,M,,*57
$PYRTM,2024,127.421640730278,18.531288140417
$GPGGA,100708.00,3337.1831,N,11913.9355,W,1,10,0.8,8.5,M,-34.3,M,,*53
$PYRTM,2024,127.421652410023,18.531299820162
$GPGGA,100709.00,3337.1812,N,11913.9342,W,1,10,0.8,10.3,M,-34.3,M,,*6A
$PYRTM,2024,127.421663998669,18.531311408808
$GPGGA,100710.00,3337.1792,N,11913.9329,W,1,10,0.8,11.5,M,-34.3,M,,*6F
$PYRTM,2024,127.421675560718,18.531322970856
$GPGGA,100711.00,3337.1772,N,11913.9317,W,1,10,0.8,10.5,M,-34.3,M,,*6C
$PYRTM,2024,127.421687143808,18.531334553947
$GPGGA,100712.00,3337.1752,N,11913.9305,W,1,10,0.8,11.2,M,-34.3,M,,*68
$PYRTM,2024,127.421698706389,18.531346116528
$GPGGA,100713.00,3337.1732,N,11913.9291,W,1,10,0.8,12.5,M,-34.3,M,,*67
$PYRTM,2024,127.421710175440,18.531357585590
$GPGGA,100714.00,3337.1714,N,11913.9274,W,1,10,0.8,9.1,M,-34.3,M,,*51
$PYRTM,2024,127.421721856713,18.531369266852
$GPGGA,100715.00,3337.1696,N,11913.9258,W,1,10,0.8,10.4,M,-34.3,M,,*68
$PYRTM,2024,127.421733331412,18.531380741551
$GPGGA,100716.00,3337.1677,N,11913.9243,W,1,10,0.8,8.7,M,-34.3,M,,*54
$PYRTM,2024,127.421745005590,18.531392415729
$GPGGA,100717.00,3337.1658,N,11913.9230,W,1,10,0.8,10.7,M,-34.3,M,,*65
$PYRTM,2024,127.421756475417,18.531403885556
$GPGGA,100718.00,3337.1639,N,11913.9216,W,1,10,0.8,9.6,M,-34.3,M,,*50
$PYRTM,2024,127.421768038762,18.531415448900
$GPGGA,100719.00,3337.1620,N,11913.9201,W,1,10,0.8,9.3,M,-34.3,M,,*5A
$PYRTM,2024,127.421779624664,18.531427034803
$GPGGA,100720.00,3337.1601,N,11913.9186,W,1,10,0.8,9.5,M,-34.3,M,,*59
$PYRTM,2024,127.421791301481,18.531438711632
$GPGGA,100721.00,3337.1582,N,11913.9171,W,1,10,0.8,11.6,M,-34.3,M,,*62
$PYRTM,2024,127.421802774653,18.531450184792
$GPGGA,100722.00,3337.1563,N,11913.9159,W,1,10,0.8,9.0,M,-34.3,M,,*5B
$PYRTM,2024,127.421814333947,18.531461744097
$GPGGA,100723.00,3337.1544,N,11913.9147,W,1,10,0.8,7.0,M,-34.3,M,,*5E
$PYRTM,2024,127.421825922442,18.531473332581
$GPGGA,100724.00,3337.1523,N,11913.9135,W,1,10,0.8,8.0,M,-34.3,M,,*52
$PYRTM,2024,127.421837598542,18.531485008681
$GPGGA,100725.00,3337.1503,N,11913.9122,W,1,10,0.8,10.0,M,-34.3,M,,*6E
$PYRTM,2024,127.421849069734,18.531496479873
$GPGGA,100726.00,3337.1483,N,11913.9107,W,1,10,0.8,8.9,M,-34.3,M,,*53
$PYRTM,2024,127.421860630093,18.531508040231
$GPGGA,100727.00,3337.1463,N,11913.9089,W,1,10,0.8,7.2,M,-34.3,M,,*5F
$PYRTM,2024,127.421871292859,18.531518702998
$GPGGA,100728.00,3337.1444,N,11913.9074,W,1,10,0.8,7.6,M,-34.3,M,,*53
$PYRTM,2024,127.421882738669,18.531530148808
$GPGGA,100729.00,3337.1423,N,11913.9061,W,1,10,0.8,8.9,M,-34.3,M,,*57
$PYRTM,2024,127.421895469282,18.531542879421
$GPGGA,100730.00,3337.1402,N,11913.9047,W,1,10,0.8,11.3,M,-34.3,M,,*6A
$PYRTM,2024,127.421907040995,18.531554451134
$GPGGA,100731.00,3337.1382,N,11913.9031,W,1,10,0.8,10.5,M,-34.3,M,,*62
$PYRTM,2024,127.421918518275,18.531565928414
$GPGGA,100732.00,3337.1364,N,11913.9015,W,1,10,0.8,8.6,M,-34.3,M,,*55
$PYRTM,2024,127.421930078762,18.531577488912
$GPGGA,100733.00,3337.1345,N,11913.9001,W,1,10,0.8,9.2,M,-34.3,M,,*57
$PYRTM,2024,127.421941778889,18.531589189028
$GPGGA,100734.00,3337.1326,N,11913.8989,W,1,10,0.8,10.9,M,-34.3,M,,*6E
$PYRTM,2024,127.421953337778,18.531600747917
$GPGGA,100735.00,3337.1305,N,11913.8977,W,1,10,0.8,10.5,M,-34.3,M,,*63
$PYRTM,2024,127.421963409039,18.531610819178
$GPGGA,100736.00,3337.1286,N,11913.8961,W,1,10,0.8,10.0,M,-34.3,M,,*68
$PYRTM,2024,127.421975107998,18.531622518137
$GPGGA,100737.00,3337.1267,N,11913.8945,W,1,10,0.8,9.9,M,-34.3,M,,*51
$PYRTM,2024,127.421987149410,18.531634559549
$GPGGA,100738.00,3337.1247,N,11913.8929,W,1,10,0.8,11.0,M,-34.3,M,,*66
$PYRTM,2024,127.421998261100,18.531645671238
$GPGGA,100739.00,3337.1225,N,11913.8916,W,1,10,0.8,8.9,M,-34.3,M,,*5E
$PYRTM,2024,127.422009486725,18.531656896863
$GPGGA,100740.00,3337.1204,N,11913.8902,W,1,10,0.8,10.5,M,-34.3,M,,*63
$PYRTM,2024,127.422020598461,18.531668008600
$GPGGA,100741.00,3337.1185,N,11913.8887,W,1,10,0.8,10.2,M,-34.3,M,,*63
$PYRTM,2024,127.422031708530,18.531679118669
$GPGGA,100742.00,3337.1167,N,11913.8870,W,1,10,0.8,10.8,M,-34.3,M,,*6E
$PYRTM,2024,127.422042821296,18.531690231435
$GPGGA,100743.00,3337.1148,N,11913.8854,W,1,10,0.8,10.2,M,-34.3,M,,*6E
$PYRTM,2024,127.422053931979,18.531701342118
$GPGGA,100744.00,3337.1128,N,11913.8840,W,1,10,0.8,7.2,M,-34.3,M,,*5C
$PYRTM,2024,127.422065145301,18.531712555440
$GPGGA,100745.00,3337.1107,N,11913.8829,W,1,10,0.8,9.1,M,-34.3,M,,*52
$PYRTM,2024,127.422076257245,18.531723667384
$GPGGA,100746.00,3337.1085,N,11913.8817,W,1,10,0.8,9.2,M,-34.3,M,,*54
$PYRTM,2024,127.422087742037,18.531735152176
$GPGGA,100747.00,3337.1064,N,11913.8802,W,1,10,0.8,9.3,M,-34.3,M,,*5F
$PYRTM,2024,127.422098838970,18.531746249109
$GPGGA,100748.00,3337.1044,N,11913.8786,W,1,10,0.8,9.8,M,-34.3,M,,*5A
$PYRTM,2024,127.422110066354,18.531757476493
$GPGGA,100749.00,3337.1024,N,11913.8772,W,1,10,0.8,11.1,M,-34.3,M,,*66
$PYRTM,2024,127.422121627431,18.531769037569
$GPGGA,100750.00,3337.1003,N,11913.8759,W,1,10,0.8,9.5,M,-34.3,M,,*5F
$PYRTM,2024,127.422133215463,18.531780625602
$GPGGA,100751.00,3337.0983,N,11913.8744,W,1,10,0.8,10.2,M,-34.3,M,,*6D
$PYRTM,2024,127.422144776319,18.531792186458
$GPGGA,100752.00,3337.0965,N,11913.8728,W,1,10,0.8,9.6,M,-34.3,M,,*50
$PYRTM,2024,127.422156362245,18.531803772384
$GPGGA,100753.00,3337.0947,N,11913.8712,W,1,10,0.8,10.3,M,-34.3,M,,*65
$PYRTM,2024,127.422167924919,18.531815335058
$GPGGA,100754.00,3337.0927,N,11913.8699,W,1,10,0.8,11.3,M,-34.3,M,,*67
$PYRTM,2024,127.422179511273,18.531826921412
$GPGGA,100755.00,3337.0906,N,11913.8687,W,1,10,0.8,11.7,M,-34.3,M,,*6E
$PYRTM,2024,127.422191077662,18.531838487801
$GPGGA,100756.00,3337.0885,N,11913.8675,W,1,10,0.8,11.2,M,-34.3,M,,*6F
$PYRTM,2024,127.422202662234,18.531850072373
$GPGGA,100757.00,3337.0866,N,11913.8658,W,1,10,0.8,12.8,M,-34.3,M,,*65
$PYRTM,2024,127.422219557373,18.531866967512
$GPGGA,100758.00,3337.0846,N,11913.8642,W,1,10,0.8,11.9,M,-34.3,M,,*61
$PYRTM,2024,127.422231117894,18.531878528032
$GPGGA,100759.00,3337.0824,N,11913.8628,W,1,10,0.8,13.6,M,-34.3,M,,*65
$PYRTM,2024,127.422242704745,18.531890114884
$GPGGA,100800.00,3337.0802,N,11913.8616,W,1,10,0.8,13.4,M,-34.3,M,,*6D
$PYRTM,2024,127.422254264838,18.531901674977
$GPGGA,100801.00,3337.0782,N,11913.8602,W,1,10,0.8,12.8,M,-34.3,M,,*63
$PYRTM,2024,127.422265854259,18.531913264398
$GPGGA,100802.00,3337.0764,N,11913.8585,W,1,10,0.8,11.0,M,-34.3,M,,*6F
$PYRTM,2024,127.422277415000,18.531924825139
$GPGGA,100803.00,3337.0748,N,11913.8570,W,1,10,0.8,12.0,M,-34.3,M,,*69
$PYRTM,2024,127.422287846806,18.531935256944
$GPGGA,100804.00,3337.0730,N,11913.8558,W,1,10,0.8,10.8,M,-34.3,M,,*61
$PYRTM,2024,127.422300561910,18.531947972049
$GPGGA,100805.00,3337.0708,N,11913.8548,W,1,10,0.8,10.9,M,-34.3,M,,*6B
$PYRTM,2024,127.422312150625,18.531959560764
$GPGGA,100806.00,3337.0687,N,11913.8536,W,1,10,0.8,11.8,M,-34.3,M,,*67
$PYRTM,2024,127.422323709225,18.531971119363
$GPGGA,100807.00,3337.0668,N,11913.8520,W,1,10,0.8,12.7,M,-34.3,M,,*6C
$PYRTM,2024,127.422335298356,18.531982708495
$GPGGA,100808.00,3337.0650,N,11913.8502,W,1,10,0.8,13.2,M,-34.3,M,,*6C
$PYRTM,2024,127.422346858773,18.531994268912
$GPGGA,100809.00,3337.0632,N,11913.8484,W,1,10,0.8,13.5,M,-34.3,M,,*61
$PYRTM,2024,127.422358441400,18.532005851539
$GPGGA,100810.00,3337.0613,N,11913.8470,W,1,10,0.8,11.3,M,-34.3,M,,*65
$PYRTM,2024,127.422370005405,18.532017415544
$GPGGA,100811.00,3337.0595,N,11913.8456,W,1,10,0.8,10.9,M,-34.3,M,,*66
$PYRTM,2024,127.422381481516,18.532028891655
$GPGGA,100812.00,3337.0576,N,11913.8441,W,1,10,0.8,9.4,M,-34.3,M,,*5B
$PYRTM,2024,127.422393041852,18.532040451991
$GPGGA,100813.00,3337.0557,N,11913.8426,W,1,10,0.8,8.4,M,-34.3,M,,*59
$PYRTM,2024,127.422404743588,18.532052153727
$GPGGA,100814.00,3337.0539,N,11913.8412,W,1,10,0.8,6.7,M,-34.3,M,,*5C
$PYRTM,2024,127.422416187928,18.532063598067
$GPGGA,100815.00,3337.0519,N,11913.8400,W,1,10,0.8,7.7,M,-34.3,M,,*5D
$PYRTM,2024,127.422427775359,18.532075185498
$GPGGA,100816.00,3337.0499,N,11913.8389,W,1,10,0.8,8.8,M,-34.3,M,,*51
$PYRTM,2024,127.422439336736,18.532086746887
$GPGGA,100817.00,3337.0478,N,11913.8373,W,1,10,0.8,7.2,M,-34.3,M,,*5F
$PYRTM,2024,127.422450924086,18.532098334225
$GPGGA,100818.00,3337.0458,N,11913.8356,W,1,10,0.8,6.7,M,-34.3,M,,*51
$PYRTM,2024,127.422462486296,18.532109896435
$GPGGA,100819.00,3337.0439,N,11913.8338,W,1,10,0.8,7.4,M,-34.3,M,,*5D
$PYRTM,2024,127.422474066481,18.532121476620
$GPGGA,100820.00,3337.0419,N,11913.8322,W,1,10,0.8,8.7,M,-34.3,M,,*52
$PYRTM,2024,127.422485746539,18.532133156678
$GPGGA,100821.00,3337.0399,N,11913.8308,W,1,10,0.8,10.7,M,-34.3,M,,*6D
$PYRTM,2024,127.422497323738,18.532144733889
$GPGGA,100822.00,3337.0380,N,11913.8293,W,1,10,0.8,12.3,M,-34.3,M,,*63
$PYRTM,2024,127.422508895822,18.532156305961
$GPGGA,100823.00,3337.0361,N,11913.8279,W,1,10,0.8,12.4,M,-34.3,M,,*6E
$PYRTM,2024,127.422520479398,18.532167889537
$GPGGA,100824.00,3337.0343,N,11913.8265,W,1,10,0.8,10.6,M,-34.3,M,,*64
$PYRTM,2024,127.422532043958,18.532179454097
$GPGGA,100825.00,3337.0322,N,11913.8253,W,1,10,0.8,11.1,M,-34.3,M,,*61
$PYRTM,2024,127.422543631354,18.532191041493
$GPGGA,100826.00,3337.0303,N,11913.8241,W,1,10,0.8,13.5,M,-34.3,M,,*64
$PYRTM,2024,127.422555190926,18.532202601065
$GPGGA,100827.00,3337.0283,N,11913.8227,W,1,10,0.8,12.3,M,-34.3,M,,*6B
$PYRTM,2024,127.422565378056,18.532212788194
$GPGGA,100828.00,3337.0263,N,11913.8212,W,1,10,0.8,12.6,M,-34.3,M,,*69
$PYRTM,2024,127.422577184954,18.532224595104
$GPGGA,100829.00,3337.0243,N,11913.8196,W,1,10,0.8,10.5,M,-34.3,M,,*64
$PYRTM,2024,127.422589812998,18.532237223137
$GPGGA,100830.00,3337.0224,N,11913.8181,W,1,10,0.8,8.5,M,-34.3,M,,*52
$PYRTM,2024,127.422601373935,18.532248784074
$GPGGA,100831.00,3337.0205,N,11913.8166,W,1,10,0.8,7.5,M,-34.3,M,,*56
$PYRTM,2024,127.422612963542,18.532260373681
$GPGGA,100832.00,3337.0186,N,11913.8151,W,1,10,0.8,9.1,M,-34.3,M,,*53
$PYRTM,2024,127.422624522176,18.532271932315
$GPGGA,100833.00,3337.0166,N,11913.8136,W,1,10,0.8,9.6,M,-34.3,M,,*5A
$PYRTM,2024,127.422636104884,18.532283515023
$GPGGA,100834.00,3337.0148,N,11913.8123,W,1,10,0.8,8.9,M,-34.3,M,,*5B
$PYRTM,2024,127.422647671667,18.532295081806
$GPGGA,100835.00,3337.0129,N,11913.8109,W,1,10,0.8,8.8,M,-34.3,M,,*54
$PYRTM,2024,127.422659373970,18.532306784120
$GPGGA,100836.00,3337.0109,N,11913.8095,W,1,10,0.8,10.4,M,-34.3,M,,*64
$PYRTM,2024,127.422670818981,18.532318229120
$GPGGA,100837.00,3337.0091,N,11913.8081,W,1,10,0.8,9.4,M,-34.3,M,,*58
$PYRTM,2024,127.422682509282,18.532329919421
$GPGGA,100838.00,3337.0072,N,11913.8067,W,1,10,0.8,12.2,M,-34.3,M,,*6E
