$PYRTM,2024,126.666675702951,17.776323113090
$GPGGA,155959.00,3400.9547,N,11931.7693,W,1,11,0.8,14.3,M,-33.6,M,,*67
$PYRTM,2024,126.666687249826,17.776334659965
$GPGGA,160000.00,3400.9550,N,11931.7692,W,1,11,0.8,14.3,M,-33.6,M,,*63
$PYRTM,2024,126.666698722488,17.776346132627
$GPGGA,160001.00,3400.9553,N,11931.7691,W,1,11,0.8,14.3,M,-33.6,M,,*62
$PYRTM,2024,126.666709052477,17.776356462616
$GPGGA,160002.00,3400.9556,N,11931.7691,W,1,11,0.8,14.3,M,-33.6,M,,*64
$PYRTM,2024,126.666720945243,17.776368355382
$GPGGA,160003.00,3400.9556,N,11931.7690,W,1,11,0.8,14.3,M,-33.6,M,,*64
$PYRTM,2024,126.666733548576,17.776380958715
$GPGGA,160004.00,3400.9557,N,11931.7690,W,1,11,0.8,14.3,M,-33.6,M,,*62
$PYRTM,2024,126.666745135370,17.776392545509
$GPGGA,160005.00,3400.9558,N,11931.7689,W,1,11,0.8,14.4,M,-33.6,M,,*63
$PYRTM,2024,126.666756695868,17.776404106007
$GPGGA,160006.00,3400.9559,N,11931.7688,W,1,11,0.8,14.4,M,-33.6,M,,*60
$PYRTM,2024,126.666768283125,17.776415693275
$GPGGA,160007.00,3400.9561,N,11931.7686,W,1,11,0.8,14.3,M,-33.6,M,,*63
$PYRTM,2024,126.666779845613,17.776427255752
$GPGGA,160008.00,3400.9563,N,11931.7685,W,1,11,0.8,14.4,M,-33.6,M,,*6A
$PYRTM,2024,126.666791431204,17.776438841343
$GPGGA,160009.00,3400.9563,N,11931.7684,W,1,11,0.8,14.3,M,-33.6,M,,*6D
$PYRTM,2024,126.666802992350,17.776450402488
$GPGGA,160010.00,3400.9564,N,11931.7683,W,1,11,0.8,14.4,M,-33.6,M,,*62
$PYRTM,2024,126.666814583194,17.776461993333
$GPGGA,160011.00,3400.9566,N,11931.7683,W,1,11,0.8,14.3,M,-33.6,M,,*66
$PYRTM,2024,126.666826143044,17.776473553194
$GPGGA,160012.00,3400.9568,N,11931.7682,W,1,11,0.8,14.3,M,-33.6,M,,*6A
$PYRTM,2024,126.666837730706,17.776485140845
$GPGGA,160013.00,3400.9570,N,11931.7681,W,1,11,0.8,14.3,M,-33.6,M,,*61
$PYRTM,2024,126.666849288750,17.776496698889
$GPGGA,160014.00,3400.9573,N,11931.7680,W,1,11,0.8,14.2,M,-33.6,M,,*65
$PYRTM,2024,126.666860879375,17.776508289514
$GPGGA,160015.00,3400.9574,N,11931.7680,W,1,11,0.8,14.1,M,-33.6,M,,*60
$PYRTM,2024,126.666872438368,17.776519848507
$GPGGA,160016.00,3400.9576,N,11931.7679,W,1,11,0.8,14.2,M,-33.6,M,,*64
$PYRTM,2024,126.666884024282,17.776531434421
$GPGGA,160017.00,3400.9577,N,11931.7678,W,1,11,0.8,14.2,M,-33.6,M,,*65
$PYRTM,2024,126.666895586956,17.776542997095
$GPGGA,160018.00,3400.9579,N,11931.7677,W,1,11,0.8,14.2,M,-33.6,M,,*6B
$PYRTM,2024,126.666907173183,17.776554583322
$GPGGA,160019.00,3400.9581,N,11931.7676,W,1,11,0.8,14.2,M,-33.6,M,,*6C
$PYRTM,2024,126.666918733681,17.776566143819
$GPGGA,160020.00,3400.9583,N,11931.7675,W,1,11,0.8,14.2,M,-33.6,M,,*67
$PYRTM,2024,126.666930321609,17.776577731759
$GPGGA,160021.00,3400.9583,N,11931.7675,W,1,11,0.8,14.2,M,-33.6,M,,*66
$PYRTM,2024,126.666941882743,17.776589292882
$GPGGA,160022.00,3400.9584,N,11931.7675,W,1,11,0.8,14.2,M,-33.6,M,,*62
$PYRTM,2024,126.666953470231,17.776600880370
$GPGGA,160023.00,3400.9585,N,11931.7674,W,1,11,0.8,14.2,M,-33.6,M,,*63
$PYRTM,2024,126.666965030590,17.776612440729
$GPGGA,160024.00,3400.9588,N,11931.7673,W,1,11,0.8,14.2,M,-33.6,M,,*6E
$PYRTM,2024,126.666976614132,17.776624024271
$GPGGA,160025.00,3400.9590,N,11931.7673,W,1,11,0.8,14.2,M,-33.6,M,,*66
$PYRTM,2024,126.666988179699,17.776635589838
$GPGGA,160026.00,3400.9591,N,11931.7671,W,1,11,0.8,14.1,M,-33.6,M,,*65
$PYRTM,2024,126.666999780359,17.776647190498
$GPGGA,160027.00,3400.9592,N,11931.7670,W,1,11,0.8,14.1,M,-33.6,M,,*66
$PYRTM,2024,126.667011327199,17.776658737338
$GPGGA,160028.00,3400.9595,N,11931.7670,W,1,11,0.8,14.1,M,-33.6,M,,*6E
$PYRTM,2024,126.667022928692,17.776670338831
$GPGGA,160029.00,3400.9597,N,11931.7668,W,1,11,0.8,14.1,M,-33.6,M,,*64
$PYRTM,2024,126.667034474410,17.776681884549
$GPGGA,160030.00,3400.9599,N,11931.7667,W,1,11,0.8,14.1,M,-33.6,M,,*6D
$PYRTM,2024,126.667046066458,17.776693476597
$GPGGA,160031.00,3400.9599,N,11931.7666,W,1,11,0.8,14.1,M,-33.6,M,,*6D
$PYRTM,2024,126.667056248056,17.776703658194
$GPGGA,160032.00,3400.9600,N,11931.7666,W,1,11,0.8,14.1,M,-33.6,M,,*6D
$PYRTM,2024,126.667068169479,17.776715579618
$GPGGA,160033.00,3400.9602,N,11931.7665,W,1,11,0.8,14.2,M,-33.6,M,,*6E
$PYRTM,2024,126.667080772627,17.776728182766
$GPGGA,160034.00,3400.9605,N,11931.7664,W,1,11,0.8,14.1,M,-33.6,M,,*6C
$PYRTM,2024,126.667092361273,17.776739771412
$GPGGA,160035.00,3400.9606,N,11931.7663,W,1,11,0.8,14.1,M,-33.6,M,,*69
$PYRTM,2024,126.667103921505,17.776751331644
$GPGGA,160036.00,3400.9606,N,11931.7662,W,1,11,0.8,14.1,M,-33.6,M,,*6B
$PYRTM,2024,126.667115513067,17.776762923206
$GPGGA,160037.00,3400.9606,N,11931.7660,W,1,11,0.8,14.1,M,-33.6,M,,*68
$PYRTM,2024,126.667127069340,17.776774479479
$GPGGA,160038.00,3400.9609,N,11931.7658,W,1,11,0.8,14.1,M,-33.6,M,,*63
$PYRTM,2024,126.667138656806,17.776786066944
$GPGGA,160039.00,3400.9612,N,11931.7657,W,1,11,0.8,14.2,M,-33.6,M,,*64
$PYRTM,2024,126.667150219363,17.776797629502
$GPGGA,160040.00,3400.9613,N,11931.7655,W,1,11,0.8,14.2,M,-33.6,M,,*69
$PYRTM,2024,126.667161799190,17.776809209329
$GPGGA,160041.00,3400.9614,N,11931.7654,W,1,11,0.8,14.3,M,-33.6,M,,*6F
$PYRTM,2024,126.667172440093,17.776819850231
$GPGGA,160042.00,3400.9616,N,11931.7653,W,1,11,0.8,14.3,M,-33.6,M,,*69
$PYRTM,2024,126.667184373623,17.776831783773
$GPGGA,160043.00,3400.9619,N,11931.7652,W,1,11,0.8,14.3,M,-33.6,M,,*66
$PYRTM,2024,126.667195484005,17.776842894144
$GPGGA,160044.00,3400.9622,N,11931.7651,W,1,11,0.8,14.4,M,-33.6,M,,*6D
$PYRTM,2024,126.667206481250,17.776853891389
$GPGGA,160045.00,3400.9624,N,11931.7650,W,1,11,0.8,14.3,M,-33.6,M,,*6C
$PYRTM,2024,126.667217477072,17.776864887211
$GPGGA,160046.00,3400.9626,N,11931.7650,W,1,11,0.8,14.3,M,-33.6,M,,*6D
$PYRTM,2024,126.667228587373,17.776875997523
$GPGGA,160047.00,3400.9626,N,11931.7649,W,1,11,0.8,14.3,M,-33.6,M,,*64
$PYRTM,2024,126.667239582593,17.776886992731
$GPGGA,160048.00,3400.9628,N,11931.7648,W,1,11,0.8,14.4,M,-33.6,M,,*63
$PYRTM,2024,126.667250693981,17.776898104120
$GPGGA,160049.00,3400.9630,N,11931.7646,W,1,11,0.8,14.4,M,-33.6,M,,*65
$PYRTM,2024,126.667261706505,17.776909116644
$GPGGA,160050.00,3400.9631,N,11931.7644,W,1,11,0.8,14.4,M,-33.6,M,,*6E
$PYRTM,2024,126.667272669942,17.776920080081
$GPGGA,160051.00,3400.9632,N,11931.7642,W,1,11,0.8,14.3,M,-33.6,M,,*6D
$PYRTM,2024,126.667283926655,17.776931336794
$GPGGA,160052.00,3400.9633,N,11931.7641,W,1,11,0.8,14.3,M,-33.6,M,,*6C
$PYRTM,2024,126.667295485370,17.776942895509
$GPGGA,160053.00,3400.9635,N,11931.7640,W,1,11,0.8,14.3,M,-33.6,M,,*6A
$PYRTM,2024,126.667307061250,17.776954471389
$GPGGA,160054.00,3400.9638,N,11931.7639,W,1,11,0.8,14.3,M,-33.6,M,,*6E
$PYRTM,2024,126.667318634919,17.776966045058
$GPGGA,160055.00,3400.9640,N,11931.7638,W,1,11,0.8,14.3,M,-33.6,M,,*61
$PYRTM,2024,126.667330208044,17.776977618183
$GPGGA,160056.00,3400.9641,N,11931.7638,W,1,11,0.8,14.3,M,-33.6,M,,*63
$PYRTM,2024,126.667341782639,17.776989192789
$GPGGA,160057.00,3400.9643,N,11931.7637,W,1,11,0.8,14.3,M,-33.6,M,,*6F
$PYRTM,2024,126.667353358113,17.777000768252
$GPGGA,160058.00,3400.9645,N,11931.7637,W,1,11,0.8,14.3,M,-33.6,M,,*66
$PYRTM,2024,126.667364926181,17.777012336319
$GPGGA,160059.00,3400.9648,N,11931.7636,W,1,11,0.8,14.3,M,-33.6,M,,*6B
$PYRTM,2024,126.667376504757,17.777023914896
$GPGGA,160100.00,3400.9650,N,11931.7635,W,1,11,0.8,14.3,M,-33.6,M,,*6C
$PYRTM,2024,126.667388078935,17.777035489086
$GPGGA,160101.00,3400.9652,N,11931.7634,W,1,11,0.8,14.3,M,-33.6,M,,*6E
$PYRTM,2024,126.667404849178,17.777052259317
$GPGGA,160102.00,3400.9653,N,11931.7634,W,1,11,0.8,14.3,M,-33.6,M,,*6C
$PYRTM,2024,126.667416439005,17.777063849144
$GPGGA,160103.00,3400.9654,N,11931.7633,W,1,11,0.8,14.3,M,-33.6,M,,*6D
$PYRTM,2024,126.667427995845,17.777075405995
$GPGGA,160104.00,3400.9655,N,11931.7631,W,1,11,0.8,14.3,M,-33.6,M,,*69
$PYRTM,2024,126.667439578900,17.777086989039
$GPGGA,160105.00,3400.9658,N,11931.7630,W,1,10,1.0,14.3,M,-33.6,M,,*6C
$PYRTM,2024,126.667451145347,17.777098555486
$GPGGA,160106.00,3400.9660,N,11931.7629,W,1,11,0.8,14.3,M,-33.6,M,,*64
$PYRTM,2024,126.667462733877,17.777110144016
$GPGGA,160107.00,3400.9661,N,11931.7628,W,1,11,0.8,14.3,M,-33.6,M,,*65
$PYRTM,2024,126.667474292639,17.777121702778
$GPGGA,160108.00,3400.9661,N,11931.7626,W,1,11,0.8,14.3,M,-33.6,M,,*64
$PYRTM,2024,126.667485875162,17.777133285301
$GPGGA,160109.00,3400.9662,N,11931.7626,W,1,10,0.8,14.3,M,-33.6,M,,*67
$PYRTM,2024,126.667497442674,17.777144852824
$GPGGA,160110.00,3400.9664,N,11931.7624,W,1,11,0.8,14.3,M,-33.6,M,,*6A
$PYRTM,2024,126.667509029294,17.777156439433
$GPGGA,160111.00,3400.9668,N,11931.7623,W,1,11,0.8,14.3,M,-33.6,M,,*60
$PYRTM,2024,126.667520591053,17.777168001192
$GPGGA,160112.00,3400.9670,N,11931.7621,W,1,11,0.8,14.3,M,-33.6,M,,*68
$PYRTM,2024,126.667532176991,17.777179587130
$GPGGA,160113.00,3400.9670,N,11931.7620,W,1,11,0.8,14.2,M,-33.6,M,,*69
$PYRTM,2024,126.667543738241,17.777191148380
$GPGGA,160114.00,3400.9671,N,11931.7619,W,1,11,0.8,14.3,M,-33.6,M,,*64
$PYRTM,2024,126.667555327986,17.777202738125
$GPGGA,160115.00,3400.9672,N,11931.7619,W,1,11,0.8,14.3,M,-33.6,M,,*66
$PYRTM,2024,126.667566887384,17.777214297523
$GPGGA,160116.00,3400.9674,N,11931.7618,W,1,11,0.8,14.3,M,-33.6,M,,*62
$PYRTM,2024,126.667578487037,17.777225897176
$GPGGA,160117.00,3400.9677,N,11931.7617,W,1,11,0.8,14.3,M,-33.6,M,,*6F
$PYRTM,2024,126.667590034086,17.777237444225
$GPGGA,160118.00,3400.9679,N,11931.7616,W,1,11,0.8,14.3,M,-33.6,M,,*6F
$PYRTM,2024,126.667601636331,17.777249046470
$GPGGA,160119.00,3400.9681,N,11931.7615,W,1,11,0.8,14.2,M,-33.6,M,,*6B
$PYRTM,2024,126.667613182847,17.777260592986
$GPGGA,160120.00,3400.9682,N,11931.7615,W,1,11,0.8,14.3,M,-33.6,M,,*63
$PYRTM,2024,126.667624770093,17.777272180231
$GPGGA,160121.00,3400.9682,N,11931.7615,W,1,11,0.8,14.3,M,-33.6,M,,*62
$PYRTM,2024,126.667636333102,17.777283743252
$GPGGA,160122.00,3400.9683,N,11931.7614,W,1,11,0.8,14.3,M,-33.6,M,,*61
$PYRTM,2024,126.667647918299,17.777295328437
$GPGGA,160123.00,3400.9686,N,11931.7612,W,1,11,0.8,14.3,M,-33.6,M,,*63
$PYRTM,2024,126.667659481181,17.777306891319
$GPGGA,160124.00,3400.9688,N,11931.7611,W,1,11,0.8,14.3,M,-33.6,M,,*69
$PYRTM,2024,126.667671066771,17.777318476910
$GPGGA,160125.00,3400.9690,N,11931.7611,W,1,11,0.8,14.2,M,-33.6,M,,*60
$PYRTM,2024,126.667682628681,17.777330038819
$GPGGA,160126.00,3400.9690,N,11931.7610,W,1,11,0.8,14.3,M,-33.6,M,,*63
$PYRTM,2024,126.667694215463,17.777341625602
$GPGGA,160127.00,3400.9691,N,11931.7610,W,1,11,0.8,14.3,M,-33.6,M,,*63
$PYRTM,2024,126.667705777685,17.777353187824
$GPGGA,160128.00,3400.9693,N,11931.7609,W,1,11,0.8,14.2,M,-33.6,M,,*67
$PYRTM,2024,126.667717363704,17.777364773843
$GPGGA,160129.00,3400.9696,N,11931.7608,W,1,11,0.8,14.2,M,-33.6,M,,*62
$PYRTM,2024,126.667728924259,17.777376334398
$GPGGA,160130.00,3400.9698,N,11931.7606,W,1,11,0.8,14.2,M,-33.6,M,,*6A
$PYRTM,2024,126.667740525775,17.777387935926
$GPGGA,160131.00,3400.9699,N,11931.7605,W,1,11,0.8,14.2,M,-33.6,M,,*69
$PYRTM,2024,126.667750698414,17.777398108553
$GPGGA,160132.00,3400.9699,N,11931.7605,W,1,11,0.8,14.1,M,-33.6,M,,*69
$PYRTM,2024,126.667762632025,17.777410042164
$GPGGA,160133.00,3400.9701,N,11931.7604,W,1,11,0.8,14.1,M,-33.6,M,,*69
$PYRTM,2024,126.667775221215,17.777422631366
$GPGGA,160134.00,3400.9703,N,11931.7603,W,1,11,0.8,14.1,M,-33.6,M,,*6B
$PYRTM,2024,126.667786821400,17.777434231539
$GPGGA,160135.00,3400.9705,N,11931.7601,W,1,11,0.8,14.1,M,-33.6,M,,*6E
$PYRTM,2024,126.667798368657,17.777445778796
$GPGGA,160136.00,3400.9707,N,11931.7600,W,1,11,0.8,14.1,M,-33.6,M,,*6E
$PYRTM,2024,126.667809956690,17.777457366829
$GPGGA,160137.00,3400.9708,N,11931.7600,W,1,11,0.8,14.1,M,-33.6,M,,*60
$PYRTM,2024,126.667821518530,17.777468928669
$GPGGA,160138.00,3400.9710,N,11931.7600,W,1,11,0.8,14.1,M,-33.6,M,,*66
$PYRTM,2024,126.667833105382,17.777480515521
$GPGGA,160139.00,3400.9712,N,11931.7599,W,1,11,0.8,14.1,M,-33.6,M,,*66
$PYRTM,2024,126.667844667905,17.777492078056
$GPGGA,160140.00,3400.9714,N,11931.7600,W,1,11,0.8,14.0,M,-33.6,M,,*6C
$PYRTM,2024,126.667856253299,17.777503663437
$GPGGA,160141.00,3400.9715,N,11931.7599,W,1,11,0.8,14.1,M,-33.6,M,,*6E
$PYRTM,2024,126.667867815498,17.777515225637
$GPGGA,160142.00,3400.9717,N,11931.7598,W,1,11,0.8,14.1,M,-33.6,M,,*6E
$PYRTM,2024,126.667879402894,17.777526813044
$GPGGA,160143.00,3400.9718,N,11931.7597,W,1,11,0.8,14.1,M,-33.6,M,,*6F
$PYRTM,2024,126.667890963275,17.777538373414
$GPGGA,160144.00,3400.9721,N,11931.7596,W,1,11,0.8,14.1,M,-33.6,M,,*63
$PYRTM,2024,126.667902549155,17.777549959294
$GPGGA,160145.00,3400.9722,N,11931.7595,W,1,11,0.8,14.0,M,-33.6,M,,*63
$PYRTM,2024,126.667914111111,17.777561521250
$GPGGA,160146.00,3400.9723,N,11931.7594,W,1,11,0.8,14.0,M,-33.6,M,,*60
$PYRTM,2024,126.667925711921,17.777573122060
$GPGGA,160147.00,3400.9724,N,11931.7593,W,1,11,0.8,14.0,M,-33.6,M,,*61
$PYRTM,2024,126.667937258762,17.777584668900
$GPGGA,160148.00,3400.9726,N,11931.7591,W,1,11,0.8,14.0,M,-33.6,M,,*6E
$PYRTM,2024,126.667948848993,17.777596259132
$GPGGA,160149.00,3400.9728,N,11931.7590,W,1,11,0.8,14.1,M,-33.6,M,,*61
$PYRTM,2024,126.667960407604,17.777607817743
$GPGGA,160150.00,3400.9730,N,11931.7589,W,1,11,0.8,14.0,M,-33.6,M,,*69
$PYRTM,2024,126.667972008264,17.777619418403
$GPGGA,160151.00,3400.9731,N,11931.7588,W,1,11,0.8,14.0,M,-33.6,M,,*68
$PYRTM,2024,126.667983554977,17.777630965116
$GPGGA,160152.00,3400.9731,N,11931.7588,W,1,11,0.8,14.0,M,-33.6,M,,*6B
$PYRTM,2024,126.667995142789,17.777642552928
$GPGGA,160153.00,3400.9733,N,11931.7587,W,1,11,0.8,14.1,M,-33.6,M,,*66
$PYRTM,2024,126.668006704688,17.777654114826
$GPGGA,160154.00,3400.9736,N,11931.7587,W,1,11,0.8,14.0,M,-33.6,M,,*65
$PYRTM,2024,126.668018291655,17.777665701794
$GPGGA,160155.00,3400.9739,N,11931.7585,W,1,11,0.8,14.0,M,-33.6,M,,*69
$PYRTM,2024,126.668029853079,17.777677263218
$GPGGA,160156.00,3400.9741,N,11931.7585,W,1,11,0.8,13.9,M,-33.6,M,,*6B
$PYRTM,2024,126.668041440428,17.777688850567
$GPGGA,160157.00,3400.9742,N,11931.7584,W,1,11,0.8,14.0,M,-33.6,M,,*66
$PYRTM,2024,126.668053000486,17.777700410637
$GPGGA,160158.00,3400.9743,N,11931.7584,W,1,10,0.8,14.0,M,-33.6,M,,*69
$PYRTM,2024,126.668064587373,17.777711997512
$GPGGA,160159.00,3400.9745,N,11931.7582,W,1,11,0.8,14.0,M,-33.6,M,,*69
$PYRTM,2024,126.668076149850,17.777723559988
$GPGGA,160200.00,3400.9748,N,11931.7581,W,1,11,0.8,13.9,M,-33.6,M,,*66
$PYRTM,2024,126.668087736921,17.777735147060
$GPGGA,160201.00,3400.9751,N,11931.7579,W,1,11,0.8,13.9,M,-33.6,M,,*68
$PYRTM,2024,126.668098372083,17.777745782222
$GPGGA,160202.00,3400.9751,N,11931.7579,W,1,11,0.8,14.0,M,-33.6,M,,*65
$PYRTM,2024,126.668109845984,17.777757256123
$GPGGA,160203.00,3400.9751,N,11931.7578,W,1,11,0.8,13.9,M,-33.6,M,,*6B
$PYRTM,2024,126.668122445231,17.777769855370
$GPGGA,160204.00,3400.9753,N,11931.7577,W,1,11,0.8,13.9,M,-33.6,M,,*61
$PYRTM,2024,126.668134035579,17.777781445718
$GPGGA,160205.00,3400.9756,N,11931.7575,W,1,11,0.8,13.9,M,-33.6,M,,*67
$PYRTM,2024,126.668145594919,17.777793005058
$GPGGA,160206.00,3400.9758,N,11931.7574,W,1,11,0.8,13.9,M,-33.6,M,,*6B
$PYRTM,2024,126.668157181759,17.777804591898
$GPGGA,160207.00,3400.9759,N,11931.7573,W,1,11,0.8,14.0,M,-33.6,M,,*62
$PYRTM,2024,126.668168743125,17.777816153275
$GPGGA,160208.00,3400.9759,N,11931.7572,W,1,11,0.8,14.0,M,-33.6,M,,*6C
$PYRTM,2024,126.668180325116,17.777827735255
$GPGGA,160209.00,3400.9761,N,11931.7571,W,1,11,0.8,14.0,M,-33.6,M,,*65
$PYRTM,2024,126.668191890370,17.777839300521
$GPGGA,160210.00,3400.9763,N,11931.7571,W,1,11,0.8,14.0,M,-33.6,M,,*6F
$PYRTM,2024,126.668203477384,17.777850887523
$GPGGA,160211.00,3400.9765,N,11931.7569,W,1,11,0.8,14.0,M,-33.6,M,,*61
$PYRTM,2024,126.668215038831,17.777862448970
$GPGGA,160212.00,3400.9766,N,11931.7569,W,1,11,0.8,14.0,M,-33.6,M,,*61
$PYRTM,2024,126.668226627002,17.777874037141
$GPGGA,160213.00,3400.9767,N,11931.7568,W,1,11,0.8,14.0,M,-33.6,M,,*60
$PYRTM,2024,126.668238187315,17.777885597454
$GPGGA,160214.00,3400.9769,N,11931.7568,W,1,11,0.8,14.0,M,-33.6,M,,*69
$PYRTM,2024,126.668249775590,17.777897185741
$GPGGA,160215.00,3400.9771,N,11931.7567,W,1,11,0.8,14.0,M,-33.6,M,,*6E
$PYRTM,2024,126.668261336979,17.777908747118
$GPGGA,160216.00,3400.9773,N,11931.7565,W,1,11,0.8,14.0,M,-33.6,M,,*6D
$PYRTM,2024,126.668272922431,17.777920332569
$GPGGA,160217.00,3400.9775,N,11931.7565,W,1,11,0.8,14.0,M,-33.6,M,,*6A
$PYRTM,2024,126.668284484363,17.777931894502
$GPGGA,160218.00,3400.9776,N,11931.7564,W,1,11,0.8,14.0,M,-33.6,M,,*67
$PYRTM,2024,126.668296073819,17.777943483958
$GPGGA,160219.00,3400.9778,N,11931.7564,W,1,11,0.8,14.0,M,-33.6,M,,*68
$PYRTM,2024,126.668307631748,17.777955041887
$GPGGA,160220.00,3400.9780,N,11931.7563,W,1,11,0.8,14.1,M,-33.6,M,,*63
$PYRTM,2024,126.668319221968,17.777966632106
$GPGGA,160221.00,3400.9781,N,11931.7562,W,1,11,0.8,14.1,M,-33.6,M,,*62
$PYRTM,2024,126.668330780891,17.777978191030
$GPGGA,160222.00,3400.9782,N,11931.7561,W,1,11,0.8,14.0,M,-33.6,M,,*60
$PYRTM,2024,126.668342362847,17.777989772998
$GPGGA,160223.00,3400.9784,N,11931.7560,W,1,11,0.8,14.0,M,-33.6,M,,*66
$PYRTM,2024,126.668353928299,17.778001338437
$GPGGA,160224.00,3400.9786,N,11931.7559,W,1,11,0.8,14.0,M,-33.6,M,,*69
$PYRTM,2024,126.668365516273,17.778012926412
$GPGGA,160225.00,3400.9787,N,11931.7558,W,1,11,0.8,14.0,M,-33.6,M,,*68
$PYRTM,2024,126.668377089028,17.778024499167
$GPGGA,160226.00,3400.9787,N,11931.7558,W,1,11,0.8,14.1,M,-33.6,M,,*6A
$PYRTM,2024,126.668388664861,17.778036075000
$GPGGA,160227.00,3400.9789,N,11931.7556,W,1,11,0.8,14.0,M,-33.6,M,,*6A
$PYRTM,2024,126.668400232477,17.778047642616
$GPGGA,160228.00,3400.9792,N,11931.7555,W,1,11,0.8,14.0,M,-33.6,M,,*6C
$PYRTM,2024,126.668411812593,17.778059222731
$GPGGA,160229.00,3400.9794,N,11931.7554,W,1,11,0.8,13.9,M,-33.6,M,,*64
$PYRTM,2024,126.668423386377,17.778070796516
$GPGGA,160230.00,3400.9795,N,11931.7554,W,1,11,0.8,14.0,M,-33.6,M,,*63
$PYRTM,2024,126.668434962153,17.778082372292
$GPGGA,160231.00,3400.9795,N,11931.7553,W,1,11,0.8,14.0,M,-33.6,M,,*65
$PYRTM,2024,126.668445146736,17.778092556875
$GPGGA,160232.00,3400.9798,N,11931.7551,W,1,11,0.8,14.0,M,-33.6,M,,*69
$PYRTM,2024,126.668457052535,17.778104462674
$GPGGA,160233.00,3400.9801,N,11931.7550,W,1,11,0.8,14.0,M,-33.6,M,,*66
$PYRTM,2024,126.668469567546,17.778116977685
$GPGGA,160234.00,3400.9805,N,11931.7548,W,1,11,0.8,14.0,M,-33.6,M,,*6C
$PYRTM,2024,126.668481126933,17.778128537072
$GPGGA,160235.00,3400.9806,N,11931.7547,W,1,11,0.8,14.0,M,-33.6,M,,*61
$PYRTM,2024,126.668492832789,17.778140242928
$GPGGA,160236.00,3400.9806,N,11931.7547,W,1,11,0.8,14.0,M,-33.6,M,,*62
$PYRTM,2024,126.668504409757,17.778151819896
$GPGGA,160237.00,3400.9807,N,11931.7546,W,1,11,0.8,14.0,M,-33.6,M,,*63
$PYRTM,2024,126.668515978889,17.778163389028
$GPGGA,160238.00,3400.9809,N,11931.7544,W,1,11,0.8,13.9,M,-33.6,M,,*6E
$PYRTM,2024,126.668527553634,17.778174963773
$GPGGA,160239.00,3400.9811,N,11931.7543,W,1,11,0.8,13.9,M,-33.6,M,,*61
$PYRTM,2024,126.668539127662,17.778186537801
$GPGGA,160240.00,3400.9813,N,11931.7541,W,1,11,0.8,13.9,M,-33.6,M,,*6F
$PYRTM,2024,126.668550704502,17.778198114641
$GPGGA,160241.00,3400.9814,N,11931.7541,W,1,11,0.8,13.9,M,-33.6,M,,*69
$PYRTM,2024,126.668562275926,17.778209686065
$GPGGA,160242.00,3400.9814,N,11931.7540,W,1,11,0.8,13.9,M,-33.6,M,,*6B
$PYRTM,2024,126.668573837488,17.778221247627
$GPGGA,160243.00,3400.9816,N,11931.7540,W,1,11,0.8,13.9,M,-33.6,M,,*68
$PYRTM,2024,126.668585424097,17.778232834236
$GPGGA,160244.00,3400.9819,N,11931.7539,W,1,11,0.8,13.9,M,-33.6,M,,*6E
$PYRTM,2024,126.668596999896,17.778244410035
$GPGGA,160245.00,3400.9822,N,11931.7538,W,1,11,0.8,13.9,M,-33.6,M,,*66
$PYRTM,2024,126.668608573368,17.778255983507
$GPGGA,160246.00,3400.9823,N,11931.7538,W,1,11,0.8,13.9,M,-33.6,M,,*64
$PYRTM,2024,126.668619221447,17.778266631597
$GPGGA,160247.00,3400.9824,N,11931.7537,W,1,11,0.8,13.9,M,-33.6,M,,*6D
$PYRTM,2024,126.668631131852,17.778278542002
$GPGGA,160248.00,3400.9825,N,11931.7537,W,1,11,0.8,13.8,M,-33.6,M,,*62
$PYRTM,2024,126.668641789919,17.778289200058
$GPGGA,160249.00,3400.9827,N,11931.7536,W,1,11,0.8,13.8,M,-33.6,M,,*60
$PYRTM,2024,126.668652787164,17.778300197303
$GPGGA,160250.00,3400.9830,N,11931.7535,W,1,11,0.8,13.8,M,-33.6,M,,*6D
$PYRTM,2024,126.668663911285,17.778311321424
$GPGGA,160251.00,3400.9831,N,11931.7534,W,1,11,0.8,13.8,M,-33.6,M,,*6C
$PYRTM,2024,126.668675343299,17.778322753438
$GPGGA,160252.00,3400.9832,N,11931.7534,W,1,11,0.8,13.8,M,-33.6,M,,*6C
$PYRTM,2024,126.668686350995,17.778333761134
$GPGGA,160253.00,3400.9831,N,11931.7533,W,1,11,0.8,13.7,M,-33.6,M,,*66
$PYRTM,2024,126.668697462546,17.778344872685
$GPGGA,160254.00,3400.9833,N,11931.7531,W,1,11,0.8,13.8,M,-33.6,M,,*6E
$PYRTM,2024,126.668708458981,17.778355869120
$GPGGA,160255.00,3400.9835,N,11931.7529,W,1,11,0.8,13.8,M,-33.6,M,,*60
$PYRTM,2024,126.668719466493,17.778366876632
$GPGGA,160256.00,3400.9838,N,11931.7528,W,1,11,0.8,13.7,M,-33.6,M,,*60
$PYRTM,2024,126.668730681042,17.778378091181
$GPGGA,160257.00,3400.9840,N,11931.7527,W,1,11,0.8,13.7,M,-33.6,M,,*61
$PYRTM,2024,126.668742240995,17.778389651134
$GPGGA,160258.00,3400.9839,N,11931.7527,W,1,11,0.8,13.8,M,-33.6,M,,*6F
$PYRTM,2024,126.668753828947,17.778401239097
$GPGGA,160259.00,3400.9840,N,11931.7526,W,1,11,0.8,13.8,M,-33.6,M,,*61
$PYRTM,2024,126.668765387407,17.778412797546
$GPGGA,160300.00,3400.9845,N,11931.7523,W,1,11,0.8,13.3,M,-33.6,M,,*67
$PYRTM,2024,126.668776976562,17.778424386701
$GPGGA,160301.00,3400.9851,N,11931.7521,W,1,11,0.8,13.3,M,-33.6,M,,*61
$PYRTM,2024,126.668793638438,17.778441048576
$GPGGA,160302.00,3400.9854,N,11931.7520,W,1,11,0.8,13.3,M,-33.6,M,,*66
$PYRTM,2024,126.668805333981,17.778452744120
$GPGGA,160303.00,3400.9855,N,11931.7519,W,1,11,0.8,13.3,M,-33.6,M,,*6C
$PYRTM,2024,126.668816907407,17.778464317546
$GPGGA,160304.00,3400.9855,N,11931.7518,W,1,11,0.8,13.3,M,-33.6,M,,*6A
$PYRTM,2024,126.668828482593,17.778475892731
$GPGGA,160305.00,3400.9857,N,11931.7517,W,1,11,0.8,13.2,M,-33.6,M,,*67
$PYRTM,2024,126.668840057639,17.778487467778
$GPGGA,160306.00,3400.9862,N,11931.7515,W,1,11,0.8,13.2,M,-33.6,M,,*60
$PYRTM,2024,126.668851501435,17.778498911574
$GPGGA,160307.00,3400.9865,N,11931.7514,W,1,11,0.8,13.2,M,-33.6,M,,*67
$PYRTM,2024,126.668863206157,17.778510616296
$GPGGA,160308.00,3400.9866,N,11931.7513,W,1,11,0.8,13.2,M,-33.6,M,,*6C
$PYRTM,2024,126.668874782743,17.778522192882
$GPGGA,160309.00,3400.9866,N,11931.7513,W,1,11,0.8,13.2,M,-33.6,M,,*6D
$PYRTM,2024,126.668886340648,17.778533750787
$GPGGA,160310.00,3400.9866,N,11931.7512,W,1,11,0.8,13.2,M,-33.6,M,,*64
$PYRTM,2024,126.668897921516,17.778545331655
$GPGGA,160311.00,3400.9869,N,11931.7511,W,1,11,0.8,13.2,M,-33.6,M,,*69
$PYRTM,2024,126.668909501644,17.778556911782
$GPGGA,160312.00,3400.9873,N,11931.7509,W,1,11,0.8,13.2,M,-33.6,M,,*68
$PYRTM,2024,126.668921075822,17.778568485961
$GPGGA,160313.00,3400.9875,N,11931.7507,W,1,11,0.8,13.2,M,-33.6,M,,*61
$PYRTM,2024,126.668932649734,17.778580059873
$GPGGA,160314.00,3400.9875,N,11931.7506,W,1,11,0.8,13.2,M,-33.6,M,,*67
$PYRTM,2024,126.668944217963,17.778591628102
$GPGGA,160315.00,3400.9874,N,11931.7505,W,1,11,0.8,13.2,M,-33.6,M,,*64
$PYRTM,2024,126.668955799005,17.778603209144
$GPGGA,160316.00,3400.9876,N,11931.7504,W,1,11,0.8,13.2,M,-33.6,M,,*64
$PYRTM,2024,126.668967359734,17.778614769873
$GPGGA,160317.00,3400.9880,N,11931.7503,W,1,11,0.8,13.2,M,-33.6,M,,*6B
$PYRTM,2024,126.668978945567,17.778626355706
$GPGGA,160318.00,3400.9883,N,11931.7502,W,1,11,0.8,13.2,M,-33.6,M,,*66
$PYRTM,2024,126.668990520162,17.778637930312
$GPGGA,160319.00,3400.9884,N,11931.7500,W,1,11,0.8,13.2,M,-33.6,M,,*62
$PYRTM,2024,126.669002094734,17.778649504873
$GPGGA,160320.00,3400.9884,N,11931.7500,W,1,11,0.8,13.2,M,-33.6,M,,*68
$PYRTM,2024,126.669013669005,17.778661079144
$GPGGA,160321.00,3400.9886,N,11931.7498,W,1,11,0.8,13.2,M,-33.6,M,,*6B
$PYRTM,2024,126.669025230058,17.778672640197
$GPGGA,160322.00,3400.9889,N,11931.7497,W,1,11,0.8,13.2,M,-33.6,M,,*68
$PYRTM,2024,126.669036819109,17.778684229259
$GPGGA,160323.00,3400.9891,N,11931.7497,W,1,11,0.8,13.2,M,-33.6,M,,*60
$PYRTM,2024,126.669048391157,17.778695801296
$GPGGA,160324.00,3400.9892,N,11931.7496,W,1,11,0.8,13.2,M,-33.6,M,,*65
$PYRTM,2024,126.669059967326,17.778707377465
$GPGGA,160325.00,3400.9894,N,11931.7494,W,1,11,0.8,13.2,M,-33.6,M,,*60
$PYRTM,2024,126.669071538507,17.778718948657
$GPGGA,160326.00,3400.9895,N,11931.7493,W,1,11,0.8,13.3,M,-33.6,M,,*64
$PYRTM,2024,126.669083112975,17.778730523125
$GPGGA,160327.00,3400.9898,N,11931.7492,W,1,11,0.8,13.2,M,-33.6,M,,*68
$PYRTM,2024,126.669094687303,17.778742097442
$GPGGA,160328.00,3400.9900,N,11931.7490,W,1,11,0.8,13.2,M,-33.6,M,,*65
$PYRTM,2024,126.669106256412,17.778753666551
$GPGGA,160329.00,3400.9902,N,11931.7489,W,1,11,0.8,13.1,M,-33.6,M,,*6D
$PYRTM,2024,126.669117830486,17.778765240625
$GPGGA,160330.00,3400.9903,N,11931.7488,W,1,11,0.8,13.1,M,-33.6,M,,*65
$PYRTM,2024,126.669129410174,17.778776820313
$GPGGA,160331.00,3400.9904,N,11931.7487,W,1,11,0.8,13.1,M,-33.6,M,,*6C
$PYRTM,2024,126.669139598241,17.778787008380
$GPGGA,160332.00,3400.9906,N,11931.7487,W,1,11,0.8,13.2,M,-33.6,M,,*6E
$PYRTM,2024,126.669151503519,17.778798913657
$GPGGA,160333.00,3400.9908,N,11931.7485,W,1,11,0.8,13.1,M,-33.6,M,,*60
$PYRTM,2024,126.669164133669,17.778811543808
$GPGGA,160334.00,3400.9910,N,11931.7484,W,1,11,0.8,13.1,M,-33.6,M,,*6F
$PYRTM,2024,126.669175705394,17.778823115532
$GPGGA,160335.00,3400.9911,N,11931.7484,W,1,11,0.8,13.1,M,-33.6,M,,*6F
$PYRTM,2024,126.669187280475,17.778834690613
$GPGGA,160336.00,3400.9911,N,11931.7484,W,1,11,0.8,13.0,M,-33.6,M,,*6D
$PYRTM,2024,126.669198853669,17.778846263808
$GPGGA,160337.00,3400.9913,N,11931.7482,W,1,11,0.8,13.0,M,-33.6,M,,*68
$PYRTM,2024,126.669210428299,17.778857838449
$GPGGA,160338.00,3400.9916,N,11931.7480,W,1,11,0.8,13.0,M,-33.6,M,,*60
$PYRTM,2024,126.669220946921,17.778868357060
$GPGGA,160339.00,3400.9918,N,11931.7478,W,1,11,0.8,13.0,M,-33.6,M,,*68
$PYRTM,2024,126.669233571759,17.778880981898
$GPGGA,160340.00,3400.9918,N,11931.7478,W,1,11,0.8,12.9,M,-33.6,M,,*6E
$PYRTM,2024,126.669245165069,17.778892575208
$GPGGA,160341.00,3400.9919,N,11931.7477,W,1,11,0.8,12.9,M,-33.6,M,,*61
$PYRTM,2024,126.669256712488,17.778904122627
$GPGGA,160342.00,3400.9921,N,11931.7475,W,1,11,0.8,12.9,M,-33.6,M,,*6B
$PYRTM,2024,126.669268287662,17.778915697801
$GPGGA,160343.00,3400.9924,N,11931.7474,W,1,11,0.8,13.0,M,-33.6,M,,*66
$PYRTM,2024,126.669279874630,17.778927284780
$GPGGA,160344.00,3400.9926,N,11931.7473,W,1,11,0.8,13.0,M,-33.6,M,,*64
$PYRTM,2024,126.669291447338,17.778938857477
$GPGGA,160345.00,3400.9927,N,11931.7472,W,1,11,0.8,13.0,M,-33.6,M,,*65
$PYRTM,2024,126.669303010231,17.778950420370
$GPGGA,160346.00,3400.9928,N,11931.7471,W,1,11,0.8,13.0,M,-33.6,M,,*6A
$PYRTM,2024,126.669314596516,17.778962006655
$GPGGA,160347.00,3400.9929,N,11931.7471,W,1,11,0.8,13.1,M,-33.6,M,,*6B
$PYRTM,2024,126.669326170023,17.778973580174
$GPGGA,160348.00,3400.9932,N,11931.7470,W,1,11,0.8,13.1,M,-33.6,M,,*6F
$PYRTM,2024,126.669337615394,17.778985025532
$GPGGA,160349.00,3400.9934,N,11931.7469,W,1,11,0.8,13.0,M,-33.6,M,,*61
$PYRTM,2024,126.669349198275,17.778996608414
$GPGGA,160350.00,3400.9935,N,11931.7468,W,1,11,0.8,13.0,M,-33.6,M,,*69
$PYRTM,2024,126.669360893206,17.779008303345
$GPGGA,160351.00,3400.9936,N,11931.7467,W,1,11,0.8,13.0,M,-33.6,M,,*64
$PYRTM,2024,126.669372466539,17.779019876678
$GPGGA,160352.00,3400.9937,N,11931.7466,W,1,11,0.8,13.1,M,-33.6,M,,*66
$PYRTM,2024,126.669384042153,17.779031452303
$GPGGA,160353.00,3400.9938,N,11931.7464,W,1,11,0.8,13.2,M,-33.6,M,,*69
$PYRTM,2024,126.669395603831,17.779043013970
$GPGGA,160354.00,3400.9940,N,11931.7462,W,1,11,0.8,13.2,M,-33.6,M,,*67
$PYRTM,2024,126.669407203750,17.779054613889
$GPGGA,160355.00,3400.9942,N,11931.7461,W,1,11,0.8,13.2,M,-33.6,M,,*67
$PYRTM,2024,126.669418763241,17.779066173380
$GPGGA,160356.00,3400.9943,N,11931.7460,W,1,11,0.8,13.1,M,-33.6,M,,*67
$PYRTM,2024,126.669430341748,17.779077751887
$GPGGA,160357.00,3400.9943,N,11931.7459,W,1,11,0.8,13.1,M,-33.6,M,,*6C
$PYRTM,2024,126.669441898993,17.779089309132
$GPGGA,160358.00,3400.9944,N,11931.7457,W,1,11,0.8,13.2,M,-33.6,M,,*69
$PYRTM,2024,126.669453473600,17.779100883738
$GPGGA,160359.00,3400.9946,N,11931.7457,W,1,11,0.8,13.2,M,-33.6,M,,*6A
$PYRTM,2024,126.669465059780,17.779112469919
$GPGGA,160400.00,3400.9949,N,11931.7456,W,1,11,0.8,13.2,M,-33.6,M,,*6F
$PYRTM,2024,126.669476633681,17.779124043831
$GPGGA,160401.00,3400.9950,N,11931.7454,W,1,11,0.8,13.1,M,-33.6,M,,*67
$PYRTM,2024,126.669486826308,17.779134236447
$GPGGA,160402.00,3400.9951,N,11931.7453,W,1,11,0.8,13.1,M,-33.6,M,,*62
$PYRTM,2024,126.669498734329,17.779146144468
$GPGGA,160403.00,3400.9953,N,11931.7452,W,1,11,0.8,13.1,M,-33.6,M,,*60
$PYRTM,2024,126.669511344271,17.779158754410
$GPGGA,160404.00,3400.9955,N,11931.7452,W,1,11,0.8,13.1,M,-33.6,M,,*61
$PYRTM,2024,126.669522933032,17.779170343171
$GPGGA,160405.00,3400.9957,N,11931.7451,W,1,11,0.8,13.1,M,-33.6,M,,*61
$PYRTM,2024,126.669534504086,17.779181914225
$GPGGA,160406.00,3400.9959,N,11931.7449,W,1,11,0.8,13.2,M,-33.6,M,,*66
$PYRTM,2024,126.669546073785,17.779193483935
$GPGGA,160407.00,3400.9961,N,11931.7449,W,1,11,0.8,13.2,M,-33.6,M,,*6C
$PYRTM,2024,126.669557653206,17.779205063345
$GPGGA,160408.00,3400.9963,N,11931.7447,W,1,11,0.8,13.2,M,-33.6,M,,*6F
$PYRTM,2024,126.669569228611,17.779216638750
$GPGGA,160409.00,3400.9965,N,11931.7446,W,1,11,0.8,13.2,M,-33.6,M,,*69
$PYRTM,2024,126.669580802292,17.779228212431
$GPGGA,160410.00,3400.9967,N,11931.7445,W,1,11,0.8,13.3,M,-33.6,M,,*61
$PYRTM,2024,126.669592377998,17.779239788137
$GPGGA,160411.00,3400.9969,N,11931.7444,W,1,11,0.8,13.3,M,-33.6,M,,*6F
$PYRTM,2024,126.669603949306,17.779251359444
$GPGGA,160412.00,3400.9970,N,11931.7442,W,1,11,0.8,13.4,M,-33.6,M,,*65
$PYRTM,2024,126.669615527037,17.779262937176
$GPGGA,160413.00,3400.9971,N,11931.7442,W,1,11,0.8,13.4,M,-33.6,M,,*65
$PYRTM,2024,126.669627092431,17.779274502569
$GPGGA,160414.00,3400.9972,N,11931.7440,W,1,11,0.8,13.4,M,-33.6,M,,*63
$PYRTM,2024,126.669638672454,17.779286082593
$GPGGA,160415.00,3400.9975,N,11931.7439,W,1,11,0.8,13.4,M,-33.6,M,,*6B
$PYRTM,2024,126.669650245856,17.779297655995
$GPGGA,160416.00,3400.9977,N,11931.7438,W,1,11,0.8,13.4,M,-33.6,M,,*6B
$PYRTM,2024,126.669661820359,17.779309230498
$GPGGA,160417.00,3400.9978,N,11931.7437,W,1,11,0.8,13.5,M,-33.6,M,,*6B
$PYRTM,2024,126.669673394745,17.779320804896
$GPGGA,160418.00,3400.9978,N,11931.7437,W,1,11,0.8,13.5,M,-33.6,M,,*64
$PYRTM,2024,126.669684969803,17.779332379942
$GPGGA,160419.00,3400.9979,N,11931.7435,W,1,11,0.8,13.5,M,-33.6,M,,*66
$PYRTM,2024,126.669696542685,17.779343952824
$GPGGA,160420.00,3400.9982,N,11931.7434,W,1,11,0.8,13.5,M,-33.6,M,,*69
$PYRTM,2024,126.669708117465,17.779355527604
$GPGGA,160421.00,3400.9986,N,11931.7432,W,1,11,0.8,13.4,M,-33.6,M,,*6B
$PYRTM,2024,126.669719690903,17.779367101042
$GPGGA,160422.00,3400.9987,N,11931.7431,W,1,11,0.8,13.4,M,-33.6,M,,*6A
$PYRTM,2024,126.669731265370,17.779378675509
$GPGGA,160423.00,3400.9987,N,11931.7430,W,1,11,0.8,13.4,M,-33.6,M,,*6A
$PYRTM,2024,126.669742826968,17.779390237106
$GPGGA,160424.00,3400.9988,N,11931.7429,W,1,11,0.8,13.4,M,-33.6,M,,*6A
$PYRTM,2024,126.669754402176,17.779401812315
$GPGGA,160425.00,3400.9990,N,11931.7428,W,1,11,0.8,13.4,M,-33.6,M,,*63
$PYRTM,2024,126.669765975093,17.779413385231
$GPGGA,160426.00,3400.9993,N,11931.7426,W,1,11,0.8,13.4,M,-33.6,M,,*6D
$PYRTM,2024,126.669777565775,17.779424975914
$GPGGA,160427.00,3400.9996,N,11931.7424,W,1,11,0.8,13.3,M,-33.6,M,,*6C
$PYRTM,2024,126.669789135984,17.779436546123
$GPGGA,160428.00,3400.9996,N,11931.7424,W,1,11,0.8,13.3,M,-33.6,M,,*63
$PYRTM,2024,126.669800713426,17.779448123565
$GPGGA,160429.00,3400.9997,N,11931.7423,W,1,11,0.8,13.3,M,-33.6,M,,*64
$PYRTM,2024,126.669812272546,17.779459682685
$GPGGA,160430.00,3400.9998,N,11931.7422,W,1,11,0.8,13.4,M,-33.6,M,,*65
$PYRTM,2024,126.669823848438,17.779471258576
$GPGGA,160431.00,3401.0001,N,11931.7420,W,1,11,0.8,13.4,M,-33.6,M,,*67
$PYRTM,2024,126.669834506736,17.779481916875
$GPGGA,160432.00,3401.0003,N,11931.7419,W,1,11,0.8,13.4,M,-33.6,M,,*6C
$PYRTM,2024,126.669845950394,17.779493360532
$GPGGA,160433.00,3401.0004,N,11931.7418,W,1,11,0.8,13.3,M,-33.6,M,,*6C
$PYRTM,2024,126.669858581296,17.779505991435
$GPGGA,160434.00,3401.0005,N,11931.7417,W,1,11,0.8,13.4,M,-33.6,M,,*62
$PYRTM,2024,126.669870155949,17.779517566088
$GPGGA,160435.00,3401.0006,N,11931.7416,W,1,11,0.8,13.4,M,-33.6,M,,*61
$PYRTM,2024,126.669881729641,17.779529139780
$GPGGA,160436.00,3401.0008,N,11931.7414,W,1,11,0.8,13.4,M,-33.6,M,,*6E
$PYRTM,2024,126.669893303403,17.779540713542
$GPGGA,160437.00,3401.0010,N,11931.7413,W,1,11,0.8,13.4,M,-33.6,M,,*61
$PYRTM,2024,126.669904872442,17.779552282581
$GPGGA,160438.00,3401.0012,N,11931.7412,W,1,11,0.8,13.4,M,-33.6,M,,*6D
$PYRTM,2024,126.669916451308,17.779563861447
$GPGGA,160439.00,3401.0013,N,11931.7410,W,1,11,0.8,13.4,M,-33.6,M,,*6F
$PYRTM,2024,126.669928020278,17.779575430417
$GPGGA,160440.00,3401.0014,N,11931.7409,W,1,11,0.8,13.4,M,-33.6,M,,*6E
$PYRTM,2024,126.669939587836,17.779586997975
$GPGGA,160441.00,3401.0015,N,11931.7408,W,1,11,0.8,13.4,M,-33.6,M,,*6F
$PYRTM,2024,126.669951162292,17.779598572431
$GPGGA,160442.00,3401.0017,N,11931.7407,W,1,11,0.8,13.4,M,-33.6,M,,*61
$PYRTM,2024,126.669962763056,17.779610173206
$GPGGA,160443.00,3401.0019,N,11931.7407,W,1,11,0.8,13.5,M,-33.6,M,,*6F
$PYRTM,2024,126.669974322431,17.779621732569
$GPGGA,160444.00,3401.0020,N,11931.7406,W,1,11,0.8,13.5,M,-33.6,M,,*63
$PYRTM,2024,126.669985899630,17.779633309769
$GPGGA,160445.00,3401.0022,N,11931.7405,W,1,11,0.8,13.5,M,-33.6,M,,*63
$PYRTM,2024,126.669997466111,17.779644876250
$GPGGA,160446.00,3401.0024,N,11931.7403,W,1,11,0.8,13.5,M,-33.6,M,,*60
$PYRTM,2024,126.670009044954,17.779656455093
$GPGGA,160447.00,3401.0025,N,11931.7402,W,1,11,0.8,13.5,M,-33.6,M,,*61
$PYRTM,2024,126.670020619410,17.779668029549
$GPGGA,160448.00,3401.0026,N,11931.7401,W,1,11,0.8,13.5,M,-33.6,M,,*6E
$PYRTM,2024,126.670032181100,17.779679591238
$GPGGA,160449.00,3401.0028,N,11931.7400,W,1,11,0.8,13.5,M,-33.6,M,,*60
$PYRTM,2024,126.670043755243,17.779691165382
$GPGGA,160450.00,3401.0030,N,11931.7399,W,1,11,0.8,13.6,M,-33.6,M,,*65
$PYRTM,2024,126.670055341227,17.779702751366
$GPGGA,160451.00,3401.0033,N,11931.7398,W,1,11,0.8,13.6,M,-33.6,M,,*66
$PYRTM,2024,126.670065985405,17.779713395544
$GPGGA,160452.00,3401.0035,N,11931.7397,W,1,11,0.8,13.6,M,-33.6,M,,*6C
$PYRTM,2024,126.670077912384,17.779725322523
$GPGGA,160453.00,3401.0036,N,11931.7396,W,1,11,0.8,13.6,M,-33.6,M,,*6F
$PYRTM,2024,126.670088545405,17.779735955544
$GPGGA,160454.00,3401.0038,N,11931.7395,W,1,11,0.8,13.6,M,-33.6,M,,*65
$PYRTM,2024,126.670099542338,17.779746952477
$GPGGA,160455.00,3401.0040,N,11931.7394,W,1,11,0.8,13.7,M,-33.6,M,,*6B
$PYRTM,2024,126.670110537245,17.779757947396
$GPGGA,160456.00,3401.0042,N,11931.7393,W,1,11,0.8,13.7,M,-33.6,M,,*6D
$PYRTM,2024,126.670121648912,17.779769059063
$GPGGA,160457.00,3401.0043,N,11931.7392,W,1,11,0.8,13.8,M,-33.6,M,,*63
$PYRTM,2024,126.670132656678,17.779780066817
$GPGGA,160458.00,3401.0044,N,11931.7391,W,1,11,0.8,13.8,M,-33.6,M,,*68
$PYRTM,2024,126.670143768900,17.779791179039
$GPGGA,160459.00,3401.0046,N,11931.7389,W,1,11,0.8,13.8,M,-33.6,M,,*62
$PYRTM,2024,126.670154763519,17.779802173657
$GPGGA,160500.00,3401.0047,N,11931.7388,W,1,11,0.8,13.8,M,-33.6,M,,*6F
$PYRTM,2024,126.670165870856,17.779813280995
$GPGGA,160501.00,3401.0049,N,11931.7387,W,1,11,0.8,13.8,M,-33.6,M,,*6F
$PYRTM,2024,126.670182657581,17.779830067720
$GPGGA,160502.00,3401.0051,N,11931.7386,W,1,11,0.8,13.8,M,-33.6,M,,*64
$PYRTM,2024,126.670194232627,17.779841642778
$GPGGA,160503.00,3401.0052,N,11931.7385,W,1,11,0.8,13.8,M,-33.6,M,,*65
$PYRTM,2024,126.670205806134,17.779853216273
$GPGGA,160504.00,3401.0053,N,11931.7384,W,1,11,0.8,13.8,M,-33.6,M,,*62
$PYRTM,2024,126.670217393507,17.779864803646
$GPGGA,160505.00,3401.0054,N,11931.7384,W,1,11,0.8,13.9,M,-33.6,M,,*65
$PYRTM,2024,126.670228953738,17.779876363889
$GPGGA,160506.00,3401.0057,N,11931.7382,W,1,11,0.8,13.8,M,-33.6,M,,*62
$PYRTM,2024,126.670240531227,17.779887941377
$GPGGA,160507.00,3401.0059,N,11931.7381,W,1,11,0.8,13.9,M,-33.6,M,,*6F
$PYRTM,2024,126.670252101215,17.779899511354
$GPGGA,160508.00,3401.0060,N,11931.7380,W,1,11,0.8,13.9,M,-33.6,M,,*6B
$PYRTM,2024,126.670263663484,17.779911073623
$GPGGA,160509.00,3401.0061,N,11931.7380,W,1,11,0.8,13.9,M,-33.6,M,,*6B
$PYRTM,2024,126.670275238322,17.779922648461
$GPGGA,160510.00,3401.0064,N,11931.7378,W,1,11,0.8,14.0,M,-33.6,M,,*6F
$PYRTM,2024,126.670286824190,17.779934234329
$GPGGA,160511.00,3401.0067,N,11931.7377,W,1,11,0.8,14.0,M,-33.6,M,,*62
$PYRTM,2024,126.670298398935,17.779945809074
$GPGGA,160512.00,3401.0069,N,11931.7375,W,1,11,0.8,14.0,M,-33.6,M,,*6D
$PYRTM,2024,126.670309972847,17.779957382986
$GPGGA,160513.00,3401.0070,N,11931.7374,W,1,11,0.8,14.0,M,-33.6,M,,*65
$PYRTM,2024,126.670321536030,17.779968946169
$GPGGA,160514.00,3401.0071,N,11931.7374,W,1,11,0.8,14.0,M,-33.6,M,,*63
$PYRTM,2024,126.670333123241,17.779980533380
$GPGGA,160515.00,3401.0072,N,11931.7374,W,1,11,0.8,13.9,M,-33.6,M,,*6F
$PYRTM,2024,126.670344695683,17.779992105822
$GPGGA,160516.00,3401.0075,N,11931.7372,W,1,11,0.8,14.0,M,-33.6,M,,*63
$PYRTM,2024,126.670356255972,17.780003666111
$GPGGA,160517.00,3401.0077,N,11931.7370,W,1,11,0.8,14.0,M,-33.6,M,,*62
$PYRTM,2024,126.670367843414,17.780015253565
$GPGGA,160518.00,3401.0079,N,11931.7369,W,1,11,0.8,14.0,M,-33.6,M,,*6B
$PYRTM,2024,126.670379418681,17.780026828819
$GPGGA,160519.00,3401.0079,N,11931.7369,W,1,11,0.8,14.0,M,-33.6,M,,*6A
$PYRTM,2024,126.670390992037,17.780038402176
$GPGGA,160520.00,3401.0079,N,11931.7368,W,1,11,0.8,14.0,M,-33.6,M,,*61
$PYRTM,2024,126.670402570243,17.780049980394
$GPGGA,160521.00,3401.0081,N,11931.7367,W,1,11,0.8,14.0,M,-33.6,M,,*68
$PYRTM,2024,126.670414140185,17.780061550336
$GPGGA,160522.00,3401.0085,N,11931.7366,W,1,11,0.8,14.0,M,-33.6,M,,*6E
$PYRTM,2024,126.670425717870,17.780073128009
$GPGGA,160523.00,3401.0087,N,11931.7365,W,1,11,0.8,14.0,M,-33.6,M,,*6E
$PYRTM,2024,126.670437288623,17.780084698762
$GPGGA,160524.00,3401.0088,N,11931.7364,W,1,11,0.8,14.0,M,-33.6,M,,*67
$PYRTM,2024,126.670448864421,17.780096274560
$GPGGA,160525.00,3401.0088,N,11931.7363,W,1,11,0.8,14.0,M,-33.6,M,,*61
$PYRTM,2024,126.670460437870,17.780107848009
$GPGGA,160526.00,3401.0088,N,11931.7363,W,1,11,0.8,14.0,M,-33.6,M,,*62
$PYRTM,2024,126.670471999259,17.780119409398
$GPGGA,160527.00,3401.0091,N,11931.7361,W,1,11,0.8,14.1,M,-33.6,M,,*68
$PYRTM,2024,126.670483572755,17.780130982894
$GPGGA,160528.00,3401.0094,N,11931.7359,W,1,11,0.8,14.0,M,-33.6,M,,*68
$PYRTM,2024,126.670495159016,17.780142569155
$GPGGA,160529.00,3401.0097,N,11931.7359,W,1,11,0.8,14.0,M,-33.6,M,,*6A
$PYRTM,2024,126.670506732963,17.780154143113
$GPGGA,160530.00,3401.0097,N,11931.7359,W,1,11,0.8,14.0,M,-33.6,M,,*62
$PYRTM,2024,126.670518303553,17.780165713692
$GPGGA,160531.00,3401.0097,N,11931.7358,W,1,11,0.8,14.1,M,-33.6,M,,*63
$PYRTM,2024,126.670528493264,17.780175903403
$GPGGA,160532.00,3401.0099,N,11931.7357,W,1,11,0.8,14.1,M,-33.6,M,,*61
$PYRTM,2024,126.670540400313,17.780187810451
$GPGGA,160533.00,3401.0103,N,11931.7355,W,1,11,0.8,14.1,M,-33.6,M,,*60
$PYRTM,2024,126.670552918102,17.780200328241
$GPGGA,160534.00,3401.0106,N,11931.7355,W,1,11,0.8,14.1,M,-33.6,M,,*62
$PYRTM,2024,126.670564605127,17.780212015266
$GPGGA,160535.00,3401.0106,N,11931.7354,W,1,11,0.8,14.1,M,-33.6,M,,*62
$PYRTM,2024,126.670576178889,17.780223589028
$GPGGA,160536.00,3401.0106,N,11931.7354,W,1,11,0.8,14.0,M,-33.6,M,,*60
$PYRTM,2024,126.670587755671,17.780235165822
$GPGGA,160537.00,3401.0107,N,11931.7354,W,1,11,0.8,14.1,M,-33.6,M,,*61
$PYRTM,2024,126.670599327431,17.780246737569
$GPGGA,160538.00,3401.0111,N,11931.7353,W,1,11,0.8,14.1,M,-33.6,M,,*6E
$PYRTM,2024,126.670610903657,17.780258313796
$GPGGA,160539.00,3401.0113,N,11931.7352,W,1,10,1.0,14.1,M,-33.6,M,,*64
$PYRTM,2024,126.670622474560,17.780269884699
$GPGGA,160540.00,3401.0115,N,11931.7351,W,1,11,0.8,14.0,M,-33.6,M,,*66
$PYRTM,2024,126.670633920498,17.780281330637
$GPGGA,160541.00,3401.0116,N,11931.7350,W,1,11,0.8,14.1,M,-33.6,M,,*64
$PYRTM,2024,126.670645612211,17.780293022350
$GPGGA,160542.00,3401.0116,N,11931.7350,W,1,11,0.8,14.1,M,-33.6,M,,*67
$PYRTM,2024,126.670657197766,17.780304607905
$GPGGA,160543.00,3401.0117,N,11931.7349,W,1,11,0.8,14.2,M,-33.6,M,,*6C
$PYRTM,2024,126.670668771169,17.780316181308
$GPGGA,160544.00,3401.0121,N,11931.7348,W,1,11,0.8,14.2,M,-33.6,M,,*6F
$PYRTM,2024,126.670680346262,17.780327756400
$GPGGA,160545.00,3401.0123,N,11931.7346,W,1,11,0.8,14.3,M,-33.6,M,,*63
$PYRTM,2024,126.670691920312,17.780339330463
$GPGGA,160546.00,3401.0124,N,11931.7345,W,1,11,0.8,14.3,M,-33.6,M,,*64
$PYRTM,2024,126.670703494363,17.780350904502
$GPGGA,160547.00,3401.0124,N,11931.7345,W,1,11,0.8,14.3,M,-33.6,M,,*65
$PYRTM,2024,126.670714952512,17.780362362650
$GPGGA,160548.00,3401.0125,N,11931.7344,W,1,11,0.8,14.3,M,-33.6,M,,*6A
$PYRTM,2024,126.670726630220,17.780374040359
$GPGGA,160549.00,3401.0128,N,11931.7342,W,1,11,0.8,14.3,M,-33.6,M,,*60
$PYRTM,2024,126.670738100266,17.780385510405
$GPGGA,160550.00,3401.0130,N,11931.7341,W,1,11,0.8,14.3,M,-33.6,M,,*62
$PYRTM,2024,126.670749659549,17.780397069687
$GPGGA,160551.00,3401.0132,N,11931.7340,W,1,11,0.8,14.3,M,-33.6,M,,*60
$PYRTM,2024,126.670761249468,17.780408659606
$GPGGA,160552.00,3401.0133,N,11931.7339,W,1,11,0.8,14.3,M,-33.6,M,,*6C
$PYRTM,2024,126.670772808356,17.780420218495
$GPGGA,160553.00,3401.0134,N,11931.7338,W,1,11,0.8,14.4,M,-33.6,M,,*6C
$PYRTM,2024,126.670784398403,17.780431808542
$GPGGA,160554.00,3401.0136,N,11931.7337,W,1,11,0.8,14.3,M,-33.6,M,,*61
$PYRTM,2024,126.670795957593,17.780443367731
$GPGGA,160555.00,3401.0138,N,11931.7335,W,1,11,0.8,14.3,M,-33.6,M,,*6C
$PYRTM,2024,126.670807660590,17.780455070729
$GPGGA,160556.00,3401.0141,N,11931.7334,W,1,11,0.8,14.3,M,-33.6,M,,*60
$PYRTM,2024,126.670819103900,17.780466514039
$GPGGA,160557.00,3401.0144,N,11931.7333,W,1,11,0.8,14.4,M,-33.6,M,,*64
$PYRTM,2024,126.670830693553,17.780478103692
$GPGGA,160558.00,3401.0144,N,11931.7332,W,1,11,0.8,14.4,M,-33.6,M,,*6A
$PYRTM,2024,126.670842255289,17.780489665428
$GPGGA,160559.00,3401.0145,N,11931.7331,W,1,11,0.8,14.4,M,-33.6,M,,*69
$PYRTM,2024,126.670853843519,17.780501253657
$GPGGA,160600.00,3401.0148,N,11931.7330,W,1,11,0.8,14.4,M,-33.6,M,,*6A
$PYRTM,2024,126.670865401806,17.780512811944
$GPGGA,160601.00,3401.0151,N,11931.7328,W,1,11,0.8,14.5,M,-33.6,M,,*6B
$PYRTM,2024,126.670875721447,17.780523131597
$GPGGA,160602.00,3401.0153,N,11931.7327,W,1,11,0.8,14.4,M,-33.6,M,,*64
$PYRTM,2024,126.670887624722,17.780535034861
$GPGGA,160603.00,3401.0153,N,11931.7327,W,1,11,0.8,14.5,M,-33.6,M,,*64
$PYRTM,2024,126.670900141771,17.780547551910
$GPGGA,160604.00,3401.0153,N,11931.7327,W,1,11,0.8,14.5,M,-33.6,M,,*63
$PYRTM,2024,126.670911700012,17.780559110150
$GPGGA,160605.00,3401.0155,N,11931.7326,W,1,11,0.8,14.5,M,-33.6,M,,*65
$PYRTM,2024,126.670923287106,17.780570697257
$GPGGA,160606.00,3401.0159,N,11931.7324,W,1,11,0.8,14.6,M,-33.6,M,,*6B
$PYRTM,2024,126.670934847616,17.780582257755
$GPGGA,160607.00,3401.0162,N,11931.7323,W,1,11,0.8,14.6,M,-33.6,M,,*65
$PYRTM,2024,126.670946434931,17.780593845081
$GPGGA,160608.00,3401.0162,N,11931.7323,W,1,11,0.8,14.7,M,-33.6,M,,*6B
$PYRTM,2024,126.670957996435,17.780605406586
$GPGGA,160609.00,3401.0162,N,11931.7322,W,1,11,0.8,14.7,M,-33.6,M,,*6B
$PYRTM,2024,126.670969580752,17.780616990891
$GPGGA,160610.00,3401.0164,N,11931.7321,W,1,11,0.8,14.7,M,-33.6,M,,*66
$PYRTM,2024,126.670981144595,17.780628554734
$GPGGA,160611.00,3401.0167,N,11931.7319,W,1,11,0.8,14.7,M,-33.6,M,,*6F
$PYRTM,2024,126.670992731493,17.780640141632
$GPGGA,160612.00,3401.0170,N,11931.7319,W,1,11,0.8,14.7,M,-33.6,M,,*6A
$PYRTM,2024,126.671004291655,17.780651701794
$GPGGA,160613.00,3401.0177,N,11931.7323,W,1,11,0.8,15.7,M,-33.6,M,,*64
$PYRTM,2024,126.671015881528,17.780663291667
$GPGGA,160614.00,3401.0177,N,11931.7323,W,1,11,0.8,15.7,M,-33.6,M,,*63
$PYRTM,2024,126.671027442049,17.780674852187
$GPGGA,160615.00,3401.0180,N,11931.7321,W,1,11,0.8,15.7,M,-33.6,M,,*68
$PYRTM,2024,126.671039029120,17.780686439259
$GPGGA,160616.00,3401.0183,N,11931.7320,W,1,11,0.8,15.7,M,-33.6,M,,*69
$PYRTM,2024,126.671050588912,17.780697999051
$GPGGA,160617.00,3401.0185,N,11931.7319,W,1,11,0.8,15.7,M,-33.6,M,,*64
$PYRTM,2024,126.671062177245,17.780709587396
$GPGGA,160618.00,3401.0185,N,11931.7318,W,1,11,0.8,15.7,M,-33.6,M,,*6A
$PYRTM,2024,126.671073738600,17.780721148738
$GPGGA,160619.00,3401.0186,N,11931.7318,W,1,11,0.8,15.7,M,-33.6,M,,*68
$PYRTM,2024,126.671085324988,17.780732735127
$GPGGA,160620.00,3401.0188,N,11931.7317,W,1,11,0.8,15.7,M,-33.6,M,,*63
$PYRTM,2024,126.671096886690,17.780744296829
$GPGGA,160621.00,3401.0191,N,11931.7315,W,1,11,0.8,15.8,M,-33.6,M,,*67
$PYRTM,2024,126.671108469132,17.780755879271
$GPGGA,160622.00,3401.0195,N,11931.7314,W,1,11,0.8,15.8,M,-33.6,M,,*61
$PYRTM,2024,126.671120034468,17.780767444606
$GPGGA,160623.00,3401.0195,N,11931.7314,W,1,11,0.8,15.8,M,-33.6,M,,*60
$PYRTM,2024,126.671131621644,17.780779031782
$GPGGA,160624.00,3401.0195,N,11931.7314,W,1,11,0.8,15.8,M,-33.6,M,,*67
$PYRTM,2024,126.671143182940,17.780790593079
$GPGGA,160625.00,3401.0196,N,11931.7313,W,1,11,0.8,15.7,M,-33.6,M,,*6D
$PYRTM,2024,126.671154770336,17.780802180475
$GPGGA,160626.00,3401.0199,N,11931.7312,W,1,11,0.8,15.7,M,-33.6,M,,*60
$PYRTM,2024,126.671166328924,17.780813739062
$GPGGA,160627.00,3401.0202,N,11931.7310,W,1,11,0.8,15.7,M,-33.6,M,,*62
$PYRTM,2024,126.671177919549,17.780825329687
$GPGGA,160628.00,3401.0202,N,11931.7309,W,1,11,0.8,15.7,M,-33.6,M,,*65
$PYRTM,2024,126.671189480046,17.780836890197
$GPGGA,160629.00,3401.0202,N,11931.7309,W,1,11,0.8,15.7,M,-33.6,M,,*64
$PYRTM,2024,126.671201067269,17.780848477419
$GPGGA,160630.00,3401.0203,N,11931.7308,W,1,11,0.8,15.7,M,-33.6,M,,*6C
$PYRTM,2024,126.671212626354,17.780860036493
$GPGGA,160631.00,3401.0205,N,11931.7308,W,1,11,0.8,15.7,M,-33.6,M,,*6B
$PYRTM,2024,126.671222945208,17.780870355347
$GPGGA,160632.00,3401.0208,N,11931.7307,W,1,11,0.8,15.7,M,-33.6,M,,*6A
$PYRTM,2024,126.671234850556,17.780882260694
$GPGGA,160633.00,3401.0210,N,11931.7306,W,1,11,0.8,15.7,M,-33.6,M,,*63
$PYRTM,2024,126.671247363738,17.780894773877
$GPGGA,160634.00,3401.0211,N,11931.7306,W,1,11,0.8,15.7,M,-33.6,M,,*65
$PYRTM,2024,126.671258923808,17.780906333947
$GPGGA,160635.00,3401.0212,N,11931.7305,W,1,11,0.8,15.7,M,-33.6,M,,*64
$PYRTM,2024,126.671270511609,17.780917921736
$GPGGA,160636.00,3401.0215,N,11931.7304,W,1,11,0.8,15.7,M,-33.6,M,,*61
$PYRTM,2024,126.671282070868,17.780929481007
$GPGGA,160637.00,3401.0218,N,11931.7303,W,1,11,0.8,15.7,M,-33.6,M,,*6A
$PYRTM,2024,126.671293665914,17.780941076053
$GPGGA,160638.00,3401.0222,N,11931.7302,W,1,11,0.8,15.8,M,-33.6,M,,*62
$PYRTM,2024,126.671305220544,17.780952630683
$GPGGA,160639.00,3401.0223,N,11931.7301,W,1,11,0.8,15.8,M,-33.6,M,,*61
$PYRTM,2024,126.671316810324,17.780964220463
$GPGGA,160640.00,3401.0224,N,11931.7301,W,1,11,0.8,15.8,M,-33.6,M,,*68
$PYRTM,2024,126.671328367118,17.780975777257
$GPGGA,160641.00,3401.0224,N,11931.7301,W,1,11,0.8,15.8,M,-33.6,M,,*69
$PYRTM,2024,126.671339956817,17.780987366956
$GPGGA,160642.00,3401.0227,N,11931.7300,W,1,11,0.8,15.8,M,-33.6,M,,*68
$PYRTM,2024,126.671351517627,17.780998927766
$GPGGA,160643.00,3401.0229,N,11931.7299,W,1,11,0.8,15.8,M,-33.6,M,,*66
$PYRTM,2024,126.671363100417,17.781010510567
$GPGGA,160644.00,3401.0231,N,11931.7298,W,1,11,0.8,15.8,M,-33.6,M,,*69
$PYRTM,2024,126.671374665208,17.781022075359
$GPGGA,160645.00,3401.0232,N,11931.7298,W,1,11,0.8,15.8,M,-33.6,M,,*6B
$PYRTM,2024,126.671386252697,17.781033662836
$GPGGA,160646.00,3401.0232,N,11931.7297,W,1,11,0.8,15.8,M,-33.6,M,,*67
$PYRTM,2024,126.671397816215,17.781045226354
$GPGGA,160647.00,3401.0234,N,11931.7297,W,1,11,0.8,15.8,M,-33.6,M,,*60
$PYRTM,2024,126.671409401678,17.781056811817
$GPGGA,160648.00,3401.0237,N,11931.7296,W,1,11,0.8,15.8,M,-33.6,M,,*6D
$PYRTM,2024,126.671420962153,17.781068372292
$GPGGA,160649.00,3401.0239,N,11931.7294,W,1,11,0.8,15.8,M,-33.6,M,,*60
$PYRTM,2024,126.671432550370,17.781079960509
$GPGGA,160650.00,3401.0241,N,11931.7293,W,1,11,0.8,15.8,M,-33.6,M,,*60
$PYRTM,2024,126.671444110150,17.781091520289
$GPGGA,160651.00,3401.0242,N,11931.7292,W,1,11,0.8,15.8,M,-33.6,M,,*63
$PYRTM,2024,126.671455800868,17.781103210995
$GPGGA,160652.00,3401.0243,N,11931.7291,W,1,11,0.8,15.8,M,-33.6,M,,*62
$PYRTM,2024,126.671467375544,17.781114785694
$GPGGA,160653.00,3401.0245,N,11931.7290,W,1,11,0.8,15.8,M,-33.6,M,,*64
$PYRTM,2024,126.671478962211,17.781126372350
$GPGGA,160654.00,3401.0247,N,11931.7289,W,1,11,0.8,15.9,M,-33.6,M,,*68
$PYRTM,2024,126.671490536111,17.781137946250
$GPGGA,160655.00,3401.0249,N,11931.7288,W,1,11,0.8,15.9,M,-33.6,M,,*66
$PYRTM,2024,126.671502097894,17.781149508032
$GPGGA,160656.00,3401.0250,N,11931.7287,W,1,11,0.8,15.9,M,-33.6,M,,*62
$PYRTM,2024,126.671512773519,17.781160183657
$GPGGA,160657.00,3401.0252,N,11931.7286,W,1,11,0.8,15.9,M,-33.6,M,,*60
$PYRTM,2024,126.671524551713,17.781171961852
$GPGGA,160658.00,3401.0253,N,11931.7286,W,1,11,0.8,15.9,M,-33.6,M,,*6E
$PYRTM,2024,126.671535329039,17.781182739178
$GPGGA,160659.00,3401.0255,N,11931.7285,W,1,11,0.8,15.9,M,-33.6,M,,*6A
$PYRTM,2024,126.671546324676,17.781193734815
$GPGGA,160700.00,3401.0258,N,11931.7284,W,1,11,0.8,15.9,M,-33.6,M,,*6B
$PYRTM,2024,126.671557326424,17.781204736563
$GPGGA,160701.00,3401.0260,N,11931.7282,W,1,11,0.8,15.9,M,-33.6,M,,*67
$PYRTM,2024,126.671573289537,17.781220699676
$GPGGA,160702.00,3401.0262,N,11931.7282,W,1,11,0.8,16.0,M,-33.6,M,,*6C
$PYRTM,2024,126.671584390266,17.781231800417
$GPGGA,160703.00,3401.0264,N,11931.7281,W,1,11,0.8,16.0,M,-33.6,M,,*68
$PYRTM,2024,126.671595402373,17.781242812512
$GPGGA,160704.00,3401.0265,N,11931.7280,W,1,11,0.8,16.0,M,-33.6,M,,*6F
$PYRTM,2024,126.671617737442,17.781265147581
$GPGGA,160705.00,3401.0266,N,11931.7278,W,1,11,0.8,16.0,M,-33.6,M,,*6A
$PYRTM,2024,126.671628849329,17.781276259479
$GPGGA,160706.00,3401.0269,N,11931.7276,W,1,11,0.8,16.0,M,-33.6,M,,*68
$PYRTM,2024,126.671639837859,17.781287247998
$GPGGA,160707.00,3401.0271,N,11931.7275,W,1,11,0.8,16.0,M,-33.6,M,,*63
$PYRTM,2024,126.671650954329,17.781298364479
$GPGGA,160708.00,3401.0271,N,11931.7274,W,1,11,0.8,16.1,M,-33.6,M,,*6C
$PYRTM,2024,126.671661950602,17.781309360741
$GPGGA,160709.00,3401.0271,N,11931.7274,W,1,11,0.8,16.1,M,-33.6,M,,*6D
$PYRTM,2024,126.671673063391,17.781320473530
$GPGGA,160710.00,3401.0272,N,11931.7272,W,1,11,0.8,16.1,M,-33.6,M,,*60
$PYRTM,2024,126.671684057072,17.781331467222
$GPGGA,160711.00,3401.0275,N,11931.7271,W,1,11,0.8,16.1,M,-33.6,M,,*65
$PYRTM,2024,126.671695038194,17.781342448333
$GPGGA,160712.00,3401.0277,N,11931.7269,W,1,11,0.8,16.1,M,-33.6,M,,*6D
$PYRTM,2024,126.671706149271,17.781353559410
$GPGGA,160713.00,3401.0278,N,11931.7269,W,1,11,0.8,16.1,M,-33.6,M,,*63
$PYRTM,2024,126.671717621447,17.781365031586
$GPGGA,160714.00,3401.0280,N,11931.7268,W,1,11,0.8,16.1,M,-33.6,M,,*62
$PYRTM,2024,126.671728616887,17.781376027025
$GPGGA,160715.00,3401.0282,N,11931.7267,W,1,11,0.8,16.1,M,-33.6,M,,*6E
$PYRTM,2024,126.671739729664,17.781387139803
$GPGGA,160716.00,3401.0284,N,11931.7265,W,1,11,0.8,16.1,M,-33.6,M,,*69
$PYRTM,2024,126.671750738866,17.781398149005
$GPGGA,160717.00,3401.0287,N,11931.7265,W,1,11,0.8,16.1,M,-33.6,M,,*6B
$PYRTM,2024,126.671761836644,17.781409246782
$GPGGA,160718.00,3401.0288,N,11931.7264,W,1,11,0.8,16.1,M,-33.6,M,,*6A
$PYRTM,2024,126.671772818009,17.781420228148
$GPGGA,160719.00,3401.0290,N,11931.7263,W,1,11,0.8,16.1,M,-33.6,M,,*65
$PYRTM,2024,126.671783812222,17.781431222373
$GPGGA,160720.00,3401.0292,N,11931.7263,W,1,11,0.8,16.1,M,-33.6,M,,*6D
$PYRTM,2024,126.671794807407,17.781442217546
$GPGGA,160721.00,3401.0294,N,11931.7262,W,1,11,0.8,16.1,M,-33.6,M,,*6B
$PYRTM,2024,126.671805919688,17.781453329826
$GPGGA,160722.00,3401.0295,N,11931.7262,W,1,11,0.8,16.1,M,-33.6,M,,*69
$PYRTM,2024,126.671816914977,17.781464325116
$GPGGA,160723.00,3401.0296,N,11931.7262,W,1,11,0.8,16.2,M,-33.6,M,,*68
$PYRTM,2024,126.671828040058,17.781475450197
$GPGGA,160724.00,3401.0298,N,11931.7261,W,1,11,0.8,16.2,M,-33.6,M,,*62
$PYRTM,2024,126.671839021273,17.781486431412
$GPGGA,160725.00,3401.0301,N,11931.7260,W,1,11,0.8,16.2,M,-33.6,M,,*63
$PYRTM,2024,126.671850145613,17.781497555752
$GPGGA,160726.00,3401.0303,N,11931.7259,W,1,11,0.8,16.2,M,-33.6,M,,*68
$PYRTM,2024,126.671872368287,17.781519778426
$GPGGA,160727.00,3401.0303,N,11931.7258,W,1,11,0.8,16.2,M,-33.6,M,,*68
$PYRTM,2024,126.671883478507,17.781530888646
$GPGGA,160728.00,3401.0304,N,11931.7258,W,1,11,0.8,16.2,M,-33.6,M,,*60
$PYRTM,2024,126.671894474931,17.781541885069
$GPGGA,160729.00,3401.0306,N,11931.7257,W,1,11,0.8,16.2,M,-33.6,M,,*6C
$PYRTM,2024,126.671905586655,17.781552996794
$GPGGA,160730.00,3401.0310,N,11931.7255,W,1,11,0.8,16.3,M,-33.6,M,,*60
$PYRTM,2024,126.671916577222,17.781563987361
$GPGGA,160731.00,3401.0313,N,11931.7255,W,1,11,0.8,16.2,M,-33.6,M,,*63
$PYRTM,2024,126.671926291667,17.781573701806
$GPGGA,160732.00,3401.0314,N,11931.7254,W,1,11,0.8,16.3,M,-33.6,M,,*67
$PYRTM,2024,126.671937402454,17.781584812593
$GPGGA,160733.00,3401.0314,N,11931.7254,W,1,11,0.8,16.3,M,-33.6,M,,*66
$PYRTM,2024,126.671949438171,17.781596848310
$GPGGA,160734.00,3401.0315,N,11931.7253,W,1,11,0.8,16.3,M,-33.6,M,,*67
$PYRTM,2024,126.671960441991,17.781607852130
$GPGGA,160735.00,3401.0318,N,11931.7252,W,1,11,0.8,16.3,M,-33.6,M,,*6A
$PYRTM,2024,126.671970516389,17.781617926528
$GPGGA,160736.00,3401.0321,N,11931.7251,W,1,11,0.8,16.3,M,-33.6,M,,*60
$PYRTM,2024,126.671982555081,17.781629965220
$GPGGA,160737.00,3401.0322,N,11931.7251,W,1,11,0.8,16.3,M,-33.6,M,,*62
$PYRTM,2024,126.671993549178,17.781640959317
$GPGGA,160738.00,3401.0322,N,11931.7250,W,1,11,0.8,16.3,M,-33.6,M,,*6C
$PYRTM,2024,126.672004661088,17.781652071227
$GPGGA,160739.00,3401.0322,N,11931.7249,W,1,11,0.8,16.3,M,-33.6,M,,*65
$PYRTM,2024,126.672015671076,17.781663081215
$GPGGA,160740.00,3401.0324,N,11931.7248,W,1,11,0.8,16.3,M,-33.6,M,,*6C
$PYRTM,2024,126.672026766944,17.781674177083
$GPGGA,160741.00,3401.0328,N,11931.7246,W,1,11,0.8,16.2,M,-33.6,M,,*6E
$PYRTM,2024,126.672037763171,17.781685173310
$GPGGA,160742.00,3401.0330,N,11931.7245,W,1,11,0.8,16.2,M,-33.6,M,,*67
$PYRTM,2024,126.672048745370,17.781696155509
$GPGGA,160743.00,3401.0331,N,11931.7243,W,1,11,0.8,16.1,M,-33.6,M,,*62
$PYRTM,2024,126.672060331227,17.781707741366
$GPGGA,160744.00,3401.0331,N,11931.7243,W,1,11,0.8,16.2,M,-33.6,M,,*66
$PYRTM,2024,126.672071331007,17.781718741146
$GPGGA,160745.00,3401.0332,N,11931.7242,W,1,11,0.8,16.2,M,-33.6,M,,*65
$PYRTM,2024,126.672082324826,17.781729734965
$GPGGA,160746.00,3401.0336,N,11931.7241,W,1,11,0.8,16.1,M,-33.6,M,,*62
$PYRTM,2024,126.672093321725,17.781740731863
$GPGGA,160747.00,3401.0340,N,11931.7240,W,1,11,0.8,16.0,M,-33.6,M,,*62
$PYRTM,2024,126.672103374178,17.781750784317
$GPGGA,160748.00,3401.0342,N,11931.7239,W,1,11,0.8,16.0,M,-33.6,M,,*61
$PYRTM,2024,126.672115410185,17.781762820324
$GPGGA,160749.00,3401.0341,N,11931.7239,W,1,11,0.8,16.0,M,-33.6,M,,*63
$PYRTM,2024,126.672127000243,17.781774410382
$GPGGA,160750.00,3401.0341,N,11931.7240,W,1,11,0.8,16.0,M,-33.6,M,,*65
$PYRTM,2024,126.672138559931,17.781785970069
$GPGGA,160751.00,3401.0343,N,11931.7238,W,1,11,0.8,15.9,M,-33.6,M,,*63
$PYRTM,2024,126.672149120127,17.781796530266
$GPGGA,160752.00,3401.0347,N,11931.7236,W,1,11,0.8,16.0,M,-33.6,M,,*60
$PYRTM,2024,126.672161707234,17.781809117384
$GPGGA,160753.00,3401.0349,N,11931.7234,W,1,11,0.8,15.9,M,-33.6,M,,*67
$PYRTM,2024,126.672173295718,17.781820705856
$GPGGA,160754.00,3401.0350,N,11931.7234,W,1,11,0.8,15.9,M,-33.6,M,,*68
$PYRTM,2024,126.672184856053,17.781832266204
$GPGGA,160755.00,3401.0348,N,11931.7233,W,1,11,0.8,15.9,M,-33.6,M,,*67
$PYRTM,2024,126.672196444375,17.781843854514
$GPGGA,160756.00,3401.0349,N,11931.7233,W,1,11,0.8,15.8,M,-33.6,M,,*64
$PYRTM,2024,126.672208004329,17.781855414468
$GPGGA,160757.00,3401.0353,N,11931.7230,W,1,11,0.8,15.9,M,-33.6,M,,*6C
$PYRTM,2024,126.672219592419,17.781867002569
$GPGGA,160758.00,3401.0358,N,11931.7229,W,1,11,0.8,15.8,M,-33.6,M,,*61
$PYRTM,2024,126.672231153194,17.781878563333
$GPGGA,160759.00,3401.0360,N,11931.7228,W,1,11,0.8,15.8,M,-33.6,M,,*6A
$PYRTM,2024,126.672242741389,17.781890151528
$GPGGA,160800.00,3401.0359,N,11931.7228,W,1,11,0.8,15.8,M,-33.6,M,,*63
$PYRTM,2024,126.672254300104,17.781901710255
$GPGGA,160801.00,3401.0359,N,11931.7228,W,1,11,0.8,15.9,M,-33.6,M,,*63
$PYRTM,2024,126.672264616539,17.781912026678
$GPGGA,160802.00,3401.0362,N,11931.7227,W,1,11,0.8,15.9,M,-33.6,M,,*67
$PYRTM,2024,126.672276408403,17.781923818542
$GPGGA,160803.00,3401.0366,N,11931.7226,W,1,11,0.8,15.8,M,-33.6,M,,*62
$PYRTM,2024,126.672289036875,17.781936447025
$GPGGA,160804.00,3401.0369,N,11931.7225,W,1,11,0.8,15.9,M,-33.6,M,,*68
$PYRTM,2024,126.672300598403,17.781948008542
$GPGGA,160805.00,3401.0369,N,11931.7225,W,1,11,0.8,15.9,M,-33.6,M,,*69
$PYRTM,2024,126.672312185868,17.781959596007
$GPGGA,160806.00,3401.0368,N,11931.7225,W,1,11,0.8,15.8,M,-33.6,M,,*6A
$PYRTM,2024,126.672323745243,17.781971155382
$GPGGA,160807.00,3401.0370,N,11931.7224,W,1,11,0.8,15.8,M,-33.6,M,,*63
$PYRTM,2024,126.672335334838,17.781982744988
$GPGGA,160808.00,3401.0374,N,11931.7222,W,1,11,0.8,15.8,M,-33.6,M,,*6E
$PYRTM,2024,126.672346894514,17.781994304653
$GPGGA,160809.00,3401.0377,N,11931.7220,W,1,11,0.8,15.8,M,-33.6,M,,*6E
$PYRTM,2024,126.672358483032,17.782005893171
$GPGGA,160810.00,3401.0378,N,11931.7220,W,1,11,0.8,15.8,M,-33.6,M,,*69
$PYRTM,2024,126.672370041759,17.782017451898
$GPGGA,160811.00,3401.0376,N,11931.7220,W,1,11,0.8,15.8,M,-33.6,M,,*66
$PYRTM,2024,126.672381630324,17.782029040463
$GPGGA,160812.00,3401.0377,N,11931.7220,W,1,11,0.8,15.8,M,-33.6,M,,*64
$PYRTM,2024,126.672393189711,17.782040599850
$GPGGA,160813.00,3401.0380,N,11931.7218,W,1,11,0.8,15.8,M,-33.6,M,,*66
$PYRTM,2024,126.672404779456,17.782052189595
$GPGGA,160814.00,3401.0384,N,11931.7216,W,1,11,0.8,15.9,M,-33.6,M,,*6A
$PYRTM,2024,126.672416339769,17.782063749907
$GPGGA,160815.00,3401.0386,N,11931.7215,W,1,11,0.8,16.0,M,-33.6,M,,*60
$PYRTM,2024,126.672427927014,17.782075337153
$GPGGA,160816.00,3401.0385,N,11931.7215,W,1,11,0.8,16.0,M,-33.6,M,,*60
$PYRTM,2024,126.672439488102,17.782086898241
$GPGGA,160817.00,3401.0386,N,11931.7215,W,1,11,0.8,16.0,M,-33.6,M,,*62
$PYRTM,2024,126.672451075544,17.782098485683
$GPGGA,160818.00,3401.0388,N,11931.7214,W,1,11,0.8,16.0,M,-33.6,M,,*62
$PYRTM,2024,126.672462635208,17.782110045359
$GPGGA,160819.00,3401.0392,N,11931.7213,W,1,11,0.8,16.0,M,-33.6,M,,*6F
$PYRTM,2024,126.672474224236,17.782121634375
$GPGGA,160820.00,3401.0395,N,11931.7212,W,1,11,0.8,16.0,M,-33.6,M,,*63
$PYRTM,2024,126.672485785729,17.782133195868
$GPGGA,160821.00,3401.0396,N,11931.7212,W,1,11,0.8,16.0,M,-33.6,M,,*61
$PYRTM,2024,126.672497372882,17.782144783021
$GPGGA,160822.00,3401.0396,N,11931.7212,W,1,11,0.8,16.0,M,-33.6,M,,*62
$PYRTM,2024,126.672508932164,17.782156342303
$GPGGA,160823.00,3401.0397,N,11931.7211,W,1,11,0.8,16.0,M,-33.6,M,,*61
$PYRTM,2024,126.672520515498,17.782167925637
$GPGGA,160824.00,3401.0400,N,11931.7210,W,1,11,0.8,15.9,M,-33.6,M,,*64
$PYRTM,2024,126.672532081019,17.782179491157
$GPGGA,160825.00,3401.0403,N,11931.7208,W,1,11,0.8,16.0,M,-33.6,M,,*65
$PYRTM,2024,126.672543680509,17.782191090648
$GPGGA,160826.00,3401.0404,N,11931.7208,W,1,11,0.8,16.0,M,-33.6,M,,*61
$PYRTM,2024,126.672555229931,17.782202640069
$GPGGA,160827.00,3401.0405,N,11931.7207,W,1,11,0.8,15.9,M,-33.6,M,,*64
$PYRTM,2024,126.672566816806,17.782214226944
$GPGGA,160828.00,3401.0405,N,11931.7207,W,1,11,0.8,15.9,M,-33.6,M,,*6B
$PYRTM,2024,126.672578379306,17.782225789444
$GPGGA,160829.00,3401.0408,N,11931.7206,W,1,11,0.8,15.9,M,-33.6,M,,*66
$PYRTM,2024,126.672589964815,17.782237374954
$GPGGA,160830.00,3401.0411,N,11931.7205,W,1,11,0.8,15.9,M,-33.6,M,,*65
$PYRTM,2024,126.672601526898,17.782248937037
$GPGGA,160831.00,3401.0412,N,11931.7204,W,1,11,0.8,15.9,M,-33.6,M,,*66
$PYRTM,2024,126.672611826817,17.782259236956
$GPGGA,160832.00,3401.0416,N,11931.7203,W,1,11,0.8,15.0,M,-33.6,M,,*6F
$PYRTM,2024,126.672623633819,17.782271043958
$GPGGA,160833.00,3401.0416,N,11931.7203,W,1,11,0.8,15.0,M,-33.6,M,,*6E
$PYRTM,2024,126.672636262813,17.782283672951
$GPGGA,160834.00,3401.0418,N,11931.7202,W,1,11,0.8,15.0,M,-33.6,M,,*66
$PYRTM,2024,126.672647823530,17.782295233669
$GPGGA,160835.00,3401.0421,N,11931.7200,W,1,11,0.8,15.0,M,-33.6,M,,*6F
