$PYRTM,2024,124.916673470926,16.026320881065
$GPGGA,215959.00,3510.6305,N,12128.0450,W,1,10,0.8,6.3,M,-32.3,M,,*50
$PYRTM,2024,124.916684586447,16.026331996597
$GPGGA,220000.00,3510.6303,N,12128.0453,W,1,10,0.8,6.3,M,-32.3,M,,*56
$PYRTM,2024,124.916695689016,16.026343099155
$GPGGA,220001.00,3510.6303,N,12128.0456,W,1,10,0.8,6.5,M,-32.3,M,,*54
$PYRTM,2024,124.916707138993,16.026354549132
$GPGGA,220002.00,3510.6302,N,12128.0458,W,1,10,0.8,6.7,M,-32.3,M,,*5A
$PYRTM,2024,124.916718251215,16.026365661354
$GPGGA,220003.00,3510.6301,N,12128.0461,W,1,10,0.8,6.8,M,-32.3,M,,*5D
$PYRTM,2024,124.916729362674,16.026376772824
$GPGGA,220004.00,3510.6299,N,12128.0464,W,1,10,0.8,6.9,M,-32.3,M,,*5E
$PYRTM,2024,124.916740473264,16.026387883403
$GPGGA,220005.00,3510.6295,N,12128.0466,W,1,10,0.8,6.7,M,-32.3,M,,*5F
$PYRTM,2024,124.916755648021,16.026403058160
$GPGGA,220006.00,3510.6294,N,12128.0468,W,1,10,0.8,6.9,M,-32.3,M,,*5D
$PYRTM,2024,124.916767224410,16.026414634572
$GPGGA,220007.00,3510.6294,N,12128.0471,W,1,10,0.8,6.8,M,-32.3,M,,*55
$PYRTM,2024,124.916778799201,16.026426209340
$GPGGA,220008.00,3510.6292,N,12128.0475,W,1,10,0.8,7.0,M,-32.3,M,,*51
$PYRTM,2024,124.916790370868,16.026437781007
$GPGGA,220009.00,3510.6290,N,12128.0477,W,1,10,0.8,7.3,M,-32.3,M,,*53
$PYRTM,2024,124.916801958634,16.026449368773
$GPGGA,220010.00,3510.6287,N,12128.0478,W,1,10,0.8,7.4,M,-32.3,M,,*55
$PYRTM,2024,124.916813517338,16.026460927477
$GPGGA,220011.00,3510.6285,N,12128.0478,W,1,10,0.8,7.4,M,-32.3,M,,*56
$PYRTM,2024,124.916825094907,16.026472505046
$GPGGA,220012.00,3510.6285,N,12128.0481,W,1,10,0.8,7.4,M,-32.3,M,,*53
$PYRTM,2024,124.916836666725,16.026484076875
$GPGGA,220013.00,3510.6287,N,12128.0484,W,1,10,0.8,7.5,M,-32.3,M,,*54
$PYRTM,2024,124.916848240486,16.026495650625
$GPGGA,220014.00,3510.6286,N,12128.0485,W,1,10,0.8,7.6,M,-32.3,M,,*50
$PYRTM,2024,124.916859814977,16.026507225116
$GPGGA,220015.00,3510.6282,N,12128.0484,W,1,10,0.8,7.8,M,-32.3,M,,*5A
$PYRTM,2024,124.916871384757,16.026518794896
$GPGGA,220016.00,3510.6279,N,12128.0485,W,1,10,0.8,7.8,M,-32.3,M,,*5C
$PYRTM,2024,124.916882963333,16.026530373484
$GPGGA,220017.00,3510.6278,N,12128.0487,W,1,10,0.8,7.8,M,-32.3,M,,*5E
$PYRTM,2024,124.916894538912,16.026541949051
$GPGGA,220018.00,3510.6279,N,12128.0492,W,1,10,0.8,7.9,M,-32.3,M,,*55
$PYRTM,2024,124.916906112697,16.026553522836
$GPGGA,220019.00,3510.6280,N,12128.0493,W,1,10,0.8,7.9,M,-32.3,M,,*53
$PYRTM,2024,124.916917690069,16.026565100208
$GPGGA,220020.00,3510.6278,N,12128.0493,W,1,10,0.8,8.0,M,-32.3,M,,*58
$PYRTM,2024,124.916929255394,16.026576665532
$GPGGA,220021.00,3510.6274,N,12128.0492,W,1,10,0.8,8.0,M,-32.3,M,,*54
$PYRTM,2024,124.916940835023,16.026588245162
$GPGGA,220022.00,3510.6270,N,12128.0494,W,1,10,0.8,8.0,M,-32.3,M,,*55
$PYRTM,2024,124.916952408032,16.026599818171
$GPGGA,220023.00,3510.6270,N,12128.0497,W,1,10,0.8,8.1,M,-32.3,M,,*56
$PYRTM,2024,124.916963983356,16.026611393495
$GPGGA,220024.00,3510.6271,N,12128.0500,W,1,10,0.8,8.1,M,-32.3,M,,*5F
$PYRTM,2024,124.916975556574,16.026622966713
$GPGGA,220025.00,3510.6269,N,12128.0501,W,1,10,0.8,8.1,M,-32.3,M,,*56
$PYRTM,2024,124.916987131123,16.026634541262
$GPGGA,220026.00,3510.6266,N,12128.0499,W,1,10,0.8,8.2,M,-32.3,M,,*59
$PYRTM,2024,124.916998698773,16.026646108912
$GPGGA,220027.00,3510.6263,N,12128.0500,W,1,10,0.8,8.3,M,-32.3,M,,*5D
$PYRTM,2024,124.917010282986,16.026657693125
$GPGGA,220028.00,3510.6262,N,12128.0504,W,1,10,0.8,8.5,M,-32.3,M,,*51
$PYRTM,2024,124.917021853831,16.026669263970
$GPGGA,220029.00,3510.6262,N,12128.0506,W,1,10,0.8,8.7,M,-32.3,M,,*50
$PYRTM,2024,124.917033445833,16.026680855972
$GPGGA,220030.00,3510.6262,N,12128.0508,W,1,10,0.8,8.7,M,-32.3,M,,*56
$PYRTM,2024,124.917044996817,16.026692406956
$GPGGA,220031.00,3510.6261,N,12128.0508,W,1,10,0.8,8.9,M,-32.3,M,,*5A
$PYRTM,2024,124.917056576146,16.026703986285
$GPGGA,220032.00,3510.6259,N,12128.0509,W,1,10,0.8,8.9,M,-32.3,M,,*53
$PYRTM,2024,124.917068152616,16.026715562755
$GPGGA,220033.00,3510.6258,N,12128.0510,W,1,10,0.8,8.8,M,-32.3,M,,*5A
$PYRTM,2024,124.917079724595,16.026727134734
$GPGGA,220034.00,3510.6257,N,12128.0511,W,1,10,0.8,8.9,M,-32.3,M,,*52
$PYRTM,2024,124.917091298368,16.026738708507
$GPGGA,220035.00,3510.6256,N,12128.0512,W,1,10,0.8,8.9,M,-32.3,M,,*51
$PYRTM,2024,124.917103913762,16.026751323900
$GPGGA,220036.00,3510.6256,N,12128.0513,W,1,10,0.8,9.0,M,-32.3,M,,*5B
$PYRTM,2024,124.917115476065,16.026762886204
$GPGGA,220037.00,3510.6254,N,12128.0514,W,1,10,0.8,9.0,M,-32.3,M,,*5F
$PYRTM,2024,124.917127065116,16.026774475255
$GPGGA,220038.00,3510.6252,N,12128.0514,W,1,10,0.8,9.1,M,-32.3,M,,*57
$PYRTM,2024,124.917138624062,16.026786034201
$GPGGA,220039.00,3510.6250,N,12128.0514,W,1,10,0.8,9.2,M,-32.3,M,,*57
$PYRTM,2024,124.917150206076,16.026797616215
$GPGGA,220040.00,3510.6249,N,12128.0515,W,1,10,0.8,9.3,M,-32.3,M,,*51
$PYRTM,2024,124.917161771806,16.026809181944
$GPGGA,220041.00,3510.6249,N,12128.0518,W,1,10,0.8,9.3,M,-32.3,M,,*5D
$PYRTM,2024,124.917173358611,16.026820768750
$GPGGA,220042.00,3510.6248,N,12128.0520,W,1,10,0.8,9.4,M,-32.3,M,,*53
$PYRTM,2024,124.917184920949,16.026832331088
$GPGGA,220043.00,3510.6245,N,12128.0518,W,1,10,0.8,9.4,M,-32.3,M,,*54
$PYRTM,2024,124.917196508507,16.026843918646
$GPGGA,220044.00,3510.6242,N,12128.0515,W,1,10,0.8,9.5,M,-32.3,M,,*58
$PYRTM,2024,124.917208068588,16.026855478727
$GPGGA,220045.00,3510.6242,N,12128.0515,W,1,10,0.8,9.5,M,-32.3,M,,*59
$PYRTM,2024,124.917219655116,16.026867065255
$GPGGA,220046.00,3510.6244,N,12128.0518,W,1,10,0.8,9.6,M,-32.3,M,,*52
$PYRTM,2024,124.917231216597,16.026878626736
$GPGGA,220047.00,3510.6245,N,12128.0522,W,1,10,0.8,9.7,M,-32.3,M,,*5A
$PYRTM,2024,124.917242810301,16.026890220440
$GPGGA,220048.00,3510.6242,N,12128.0520,W,1,10,0.8,9.9,M,-32.3,M,,*5E
$PYRTM,2024,124.917254365012,16.026901775150
$GPGGA,220049.00,3510.6237,N,12128.0514,W,1,10,0.8,11.2,M,-32.3,M,,*68
$PYRTM,2024,124.917265952106,16.026913362245
$GPGGA,220050.00,3510.6234,N,12128.0510,W,1,10,0.8,11.2,M,-32.3,M,,*67
$PYRTM,2024,124.917277513148,16.026924923287
$GPGGA,220051.00,3510.6234,N,12128.0512,W,1,10,0.8,11.2,M,-32.3,M,,*64
$PYRTM,2024,124.917289099537,16.026936509676
$GPGGA,220052.00,3510.6237,N,12128.0515,W,1,10,0.8,11.0,M,-32.3,M,,*61
$PYRTM,2024,124.917300662384,16.026948072523
$GPGGA,220053.00,3510.6238,N,12128.0515,W,1,10,0.8,11.1,M,-32.3,M,,*6E
$PYRTM,2024,124.917312250961,16.026959661100
$GPGGA,220054.00,3510.6236,N,12128.0511,W,1,10,0.8,12.2,M,-32.3,M,,*63
$PYRTM,2024,124.917323811192,16.026971221331
$GPGGA,220055.00,3510.6230,N,12128.0508,W,1,10,0.8,12.0,M,-32.3,M,,*6E
$PYRTM,2024,124.917335397083,16.026982807222
$GPGGA,220056.00,3510.6229,N,12128.0508,W,1,10,0.8,12.0,M,-32.3,M,,*65
$PYRTM,2024,124.917346958218,16.026994368356
$GPGGA,220057.00,3510.6232,N,12128.0512,W,1,10,0.8,12.0,M,-32.3,M,,*65
$PYRTM,2024,124.917358548183,16.027005958333
$GPGGA,220058.00,3510.6236,N,12128.0514,W,1,10,0.8,12.2,M,-32.3,M,,*6A
$PYRTM,2024,124.917370107118,16.027017517257
$GPGGA,220059.00,3510.6234,N,12128.0512,W,1,10,0.8,12.3,M,-32.3,M,,*6E
$PYRTM,2024,124.917381693634,16.027029103773
$GPGGA,220100.00,3510.6230,N,12128.0509,W,1,10,0.8,13.0,M,-32.3,M,,*6F
$PYRTM,2024,124.917393255451,16.027040665602
$GPGGA,220101.00,3510.6227,N,12128.0508,W,1,10,0.8,13.0,M,-32.3,M,,*69
$PYRTM,2024,124.917404843079,16.027052253218
$GPGGA,220102.00,3510.6229,N,12128.0510,W,1,10,0.8,13.0,M,-32.3,M,,*6D
$PYRTM,2024,124.917416403819,16.027063813958
$GPGGA,220103.00,3510.6233,N,12128.0514,W,1,10,0.8,12.8,M,-32.3,M,,*6A
$PYRTM,2024,124.917427990289,16.027075400428
$GPGGA,220104.00,3510.6231,N,12128.0513,W,1,10,0.8,12.9,M,-32.3,M,,*69
$PYRTM,2024,124.917439552963,16.027086963102
$GPGGA,220105.00,3510.6230,N,12128.0514,W,1,10,0.8,12.8,M,-32.3,M,,*6F
$PYRTM,2024,124.917449853727,16.027097263866
$GPGGA,220106.00,3510.6229,N,12128.0515,W,1,10,0.8,12.8,M,-32.3,M,,*65
$PYRTM,2024,124.917461666076,16.027109076215
$GPGGA,220107.00,3510.6228,N,12128.0514,W,1,10,0.8,12.8,M,-32.3,M,,*64
$PYRTM,2024,124.917474289907,16.027121700046
$GPGGA,220108.00,3510.6228,N,12128.0515,W,1,10,0.8,12.8,M,-32.3,M,,*6A
$PYRTM,2024,124.917485846782,16.027133256921
$GPGGA,220109.00,3510.6229,N,12128.0517,W,1,10,0.8,12.9,M,-32.3,M,,*69
$PYRTM,2024,124.917497436088,16.027144846227
$GPGGA,220110.00,3510.6228,N,12128.0516,W,1,10,0.8,12.8,M,-32.3,M,,*60
$PYRTM,2024,124.917508999005,16.027156409144
$GPGGA,220111.00,3510.6227,N,12128.0517,W,1,10,0.8,12.7,M,-32.3,M,,*60
$PYRTM,2024,124.917520584213,16.027167994352
$GPGGA,220112.00,3510.6229,N,12128.0518,W,1,10,0.8,12.7,M,-32.3,M,,*62
$PYRTM,2024,124.917532145081,16.027179555220
$GPGGA,220113.00,3510.6229,N,12128.0519,W,1,10,0.8,12.6,M,-32.3,M,,*63
$PYRTM,2024,124.917543731493,16.027191141632
$GPGGA,220114.00,3510.6225,N,12128.0520,W,1,10,0.8,12.6,M,-32.3,M,,*62
$PYRTM,2024,124.917555293785,16.027202703924
$GPGGA,220115.00,3510.6221,N,12128.0518,W,1,10,0.8,12.6,M,-32.3,M,,*6C
$PYRTM,2024,124.917566894317,16.027214304456
$GPGGA,220116.00,3510.6217,N,12128.0517,W,1,10,0.8,12.6,M,-32.3,M,,*65
$PYRTM,2024,124.917578441759,16.027225851898
$GPGGA,220117.00,3510.6217,N,12128.0521,W,1,10,0.8,12.3,M,-32.3,M,,*64
$PYRTM,2024,124.917590028542,16.027237438681
$GPGGA,220118.00,3510.6215,N,12128.0518,W,1,10,0.8,12.4,M,-32.3,M,,*64
$PYRTM,2024,124.917601591007,16.027249001146
$GPGGA,220119.00,3510.6215,N,12128.0518,W,1,10,0.8,12.5,M,-32.3,M,,*64
$PYRTM,2024,124.917613176620,16.027260586759
$GPGGA,220120.00,3510.6210,N,12128.0515,W,1,10,0.8,12.8,M,-32.3,M,,*6B
$PYRTM,2024,124.917624737546,16.027272147685
$GPGGA,220121.00,3510.6205,N,12128.0511,W,1,10,0.8,12.8,M,-32.3,M,,*6A
$PYRTM,2024,124.917636327176,16.027283737326
$GPGGA,220122.00,3510.6204,N,12128.0513,W,1,10,0.8,12.8,M,-32.3,M,,*6A
$PYRTM,2024,124.917647887836,16.027295297975
$GPGGA,220123.00,3510.6208,N,12128.0513,W,1,10,0.8,13.1,M,-32.3,M,,*6F
$PYRTM,2024,124.917659468993,16.027306879132
$GPGGA,220124.00,3510.6209,N,12128.0514,W,1,10,0.8,13.1,M,-32.3,M,,*6E
$PYRTM,2024,124.917671035903,16.027318446053
$GPGGA,220125.00,3510.6212,N,12128.0517,W,1,10,0.8,13.2,M,-32.3,M,,*65
$PYRTM,2024,124.917682625231,16.027330035370
$GPGGA,220126.00,3510.6207,N,12128.0514,W,1,10,0.8,13.1,M,-32.3,M,,*62
$PYRTM,2024,124.917694184294,16.027341594433
$GPGGA,220127.00,3510.6202,N,12128.0513,W,1,10,0.8,13.0,M,-32.3,M,,*60
$PYRTM,2024,124.917705771840,16.027353181979
$GPGGA,220128.00,3510.6203,N,12128.0515,W,1,10,0.8,13.1,M,-32.3,M,,*69
$PYRTM,2024,124.917717332338,16.027364742477
$GPGGA,220129.00,3510.6200,N,12128.0516,W,1,10,0.8,13.2,M,-32.3,M,,*6B
$PYRTM,2024,124.917728913160,16.027376323299
$GPGGA,220130.00,3510.6199,N,12128.0516,W,1,10,0.8,13.1,M,-32.3,M,,*63
$PYRTM,2024,124.917740481319,16.027387891458
$GPGGA,220131.00,3510.6195,N,12128.0515,W,1,10,0.8,13.2,M,-32.3,M,,*6E
$PYRTM,2024,124.917752067558,16.027399477697
$GPGGA,220132.00,3510.6193,N,12128.0513,W,1,10,0.8,13.2,M,-32.3,M,,*6D
$PYRTM,2024,124.917763629525,16.027411039664
$GPGGA,220133.00,3510.6191,N,12128.0512,W,1,10,0.8,13.2,M,-32.3,M,,*6F
$PYRTM,2024,124.917775209907,16.027422620046
$GPGGA,220134.00,3510.6191,N,12128.0514,W,1,10,0.8,13.2,M,-32.3,M,,*6E
$PYRTM,2024,124.917786778102,16.027434188241
$GPGGA,220135.00,3510.6190,N,12128.0517,W,1,10,0.8,13.2,M,-32.3,M,,*6D
$PYRTM,2024,124.917797076424,16.027444486562
$GPGGA,220136.00,3510.6188,N,12128.0518,W,1,10,0.8,13.2,M,-32.3,M,,*68
$PYRTM,2024,124.917808895984,16.027456306123
$GPGGA,220137.00,3510.6184,N,12128.0516,W,1,10,0.8,13.2,M,-32.3,M,,*6B
$PYRTM,2024,124.917821514931,16.027468925069
$GPGGA,220138.00,3510.6180,N,12128.0512,W,1,10,0.8,13.2,M,-32.3,M,,*64
$PYRTM,2024,124.917833073507,16.027480483657
$GPGGA,220139.00,3510.6179,N,12128.0510,W,1,10,0.8,13.2,M,-32.3,M,,*61
$PYRTM,2024,124.917844662894,16.027492073044
$GPGGA,220140.00,3510.6178,N,12128.0514,W,1,10,0.8,13.2,M,-32.3,M,,*6A
$PYRTM,2024,124.917856222164,16.027503632303
$GPGGA,220141.00,3510.6177,N,12128.0519,W,1,10,0.8,13.2,M,-32.3,M,,*69
$PYRTM,2024,124.917867803160,16.027515213299
$GPGGA,220142.00,3510.6175,N,12128.0520,W,1,10,0.8,13.2,M,-32.3,M,,*62
$PYRTM,2024,124.917879370891,16.027526781030
$GPGGA,220143.00,3510.6172,N,12128.0516,W,1,10,0.8,13.2,M,-32.3,M,,*61
$PYRTM,2024,124.917890955961,16.027538366100
$GPGGA,220144.00,3510.6170,N,12128.0513,W,1,10,0.8,13.2,M,-32.3,M,,*61
$PYRTM,2024,124.917902517558,16.027549927697
$GPGGA,220145.00,3510.6169,N,12128.0514,W,1,10,0.8,13.2,M,-32.3,M,,*6F
$PYRTM,2024,124.917914104120,16.027561514259
$GPGGA,220146.00,3510.6167,N,12128.0518,W,1,10,0.8,13.2,M,-32.3,M,,*6E
$PYRTM,2024,124.917925665104,16.027573075243
$GPGGA,220147.00,3510.6165,N,12128.0520,W,1,10,0.8,13.3,M,-32.3,M,,*67
$PYRTM,2024,124.917937252836,16.027584662975
$GPGGA,220148.00,3510.6163,N,12128.0519,W,1,10,0.8,13.3,M,-32.3,M,,*64
$PYRTM,2024,124.917948813981,16.027596224120
$GPGGA,220149.00,3510.6160,N,12128.0516,W,1,10,0.8,13.3,M,-32.3,M,,*69
$PYRTM,2024,124.917960401759,16.027607811898
$GPGGA,220150.00,3510.6158,N,12128.0515,W,1,10,0.8,13.3,M,-32.3,M,,*69
$PYRTM,2024,124.917971963611,16.027619373750
$GPGGA,220151.00,3510.6157,N,12128.0516,W,1,10,0.8,13.3,M,-32.3,M,,*64
$PYRTM,2024,124.917983549201,16.027630959340
$GPGGA,220152.00,3510.6155,N,12128.0518,W,1,10,0.8,13.3,M,-32.3,M,,*6B
$PYRTM,2024,124.917995111817,16.027642521956
$GPGGA,220153.00,3510.6153,N,12128.0520,W,1,10,0.8,13.3,M,-32.3,M,,*67
$PYRTM,2024,124.918006700799,16.027654110938
$GPGGA,220154.00,3510.6150,N,12128.0519,W,1,10,0.8,13.3,M,-32.3,M,,*69
$PYRTM,2024,124.918018259236,16.027665669375
$GPGGA,220155.00,3510.6147,N,12128.0515,W,1,10,0.8,13.3,M,-32.3,M,,*62
$PYRTM,2024,124.918029846609,16.027677256748
$GPGGA,220156.00,3510.6145,N,12128.0513,W,1,10,0.8,13.3,M,-32.3,M,,*65
$PYRTM,2024,124.918041408507,16.027688818646
$GPGGA,220157.00,3510.6143,N,12128.0516,W,1,10,0.8,13.3,M,-32.3,M,,*67
$PYRTM,2024,124.918052068843,16.027699478981
$GPGGA,220158.00,3510.6141,N,12128.0520,W,1,10,0.8,13.3,M,-32.3,M,,*6F
$PYRTM,2024,124.918064108981,16.027711519120
$GPGGA,220159.00,3510.6139,N,12128.0521,W,1,10,0.8,13.4,M,-32.3,M,,*67
$PYRTM,2024,124.918074855995,16.027722266134
$GPGGA,220200.00,3510.6136,N,12128.0518,W,1,10,0.8,13.4,M,-32.3,M,,*6D
$PYRTM,2024,124.918085970000,16.027733380139
$GPGGA,220201.00,3510.6133,N,12128.0516,W,1,10,0.8,13.4,M,-32.3,M,,*67
$PYRTM,2024,124.918097557384,16.027744967523
$GPGGA,220202.00,3510.6129,N,12128.0515,W,1,10,0.8,13.4,M,-32.3,M,,*6C
$PYRTM,2024,124.918108661377,16.027756071516
$GPGGA,220203.00,3510.6128,N,12128.0518,W,1,10,0.8,13.5,M,-32.3,M,,*60
$PYRTM,2024,124.918119777477,16.027767187627
$GPGGA,220204.00,3510.6126,N,12128.0518,W,1,10,0.8,13.5,M,-32.3,M,,*69
$PYRTM,2024,124.918130772697,16.027778182836
$GPGGA,220205.00,3510.6123,N,12128.0516,W,1,10,0.8,13.5,M,-32.3,M,,*63
$PYRTM,2024,124.918146848588,16.027794258727
$GPGGA,220206.00,3510.6119,N,12128.0514,W,1,10,0.8,13.5,M,-32.3,M,,*6B
$PYRTM,2024,124.918157968576,16.027805378715
$GPGGA,220207.00,3510.6118,N,12128.0513,W,1,10,0.8,13.5,M,-32.3,M,,*6C
$PYRTM,2024,124.918180297650,16.027827707801
$GPGGA,220208.00,3510.6117,N,12128.0514,W,1,10,0.8,13.5,M,-32.3,M,,*6B
$PYRTM,2024,124.918191409051,16.027838819190
$GPGGA,220209.00,3510.6114,N,12128.0513,W,1,10,0.8,13.6,M,-32.3,M,,*6D
$PYRTM,2024,124.918202521644,16.027849931782
$GPGGA,220210.00,3510.6110,N,12128.0511,W,1,10,0.8,13.6,M,-32.3,M,,*63
$PYRTM,2024,124.918213630961,16.027861041111
$GPGGA,220211.00,3510.6106,N,12128.0509,W,1,10,0.8,13.6,M,-32.3,M,,*6C
$PYRTM,2024,124.918224742963,16.027872153113
$GPGGA,220212.00,3510.6104,N,12128.0509,W,1,09,0.8,13.6,M,-32.3,M,,*65
$PYRTM,2024,124.918235853912,16.027883264051
$GPGGA,220213.00,3510.6103,N,12128.0511,W,1,10,0.8,13.6,M,-32.3,M,,*62
$PYRTM,2024,124.918246964757,16.027894374907
$GPGGA,220214.00,3510.6100,N,12128.0511,W,1,10,0.8,13.6,M,-32.3,M,,*66
$PYRTM,2024,124.918258191968,16.027905602106
$GPGGA,220215.00,3510.6096,N,12128.0509,W,1,10,0.8,12.9,M,-32.3,M,,*6E
$PYRTM,2024,124.918269302593,16.027916712731
$GPGGA,220216.00,3510.6093,N,12128.0504,W,1,10,0.8,12.9,M,-32.3,M,,*65
$PYRTM,2024,124.918280413287,16.027927823426
$GPGGA,220217.00,3510.6090,N,12128.0502,W,1,10,0.8,12.9,M,-32.3,M,,*61
$PYRTM,2024,124.918291524259,16.027938934398
$GPGGA,220218.00,3510.6088,N,12128.0503,W,1,10,0.8,12.9,M,-32.3,M,,*66
$PYRTM,2024,124.918302636169,16.027950046308
$GPGGA,220219.00,3510.6087,N,12128.0505,W,1,10,0.8,12.9,M,-32.3,M,,*6E
$PYRTM,2024,124.918313748160,16.027961158299
$GPGGA,220220.00,3510.6086,N,12128.0504,W,1,10,0.8,12.9,M,-32.3,M,,*64
$PYRTM,2024,124.918324857280,16.027972267419
$GPGGA,220221.00,3510.6085,N,12128.0499,W,1,10,0.8,13.2,M,-32.3,M,,*69
$PYRTM,2024,124.918335969259,16.027983379398
$GPGGA,220222.00,3510.6082,N,12128.0495,W,1,10,0.8,13.2,M,-32.3,M,,*61
$PYRTM,2024,124.918347082616,16.027994492755
$GPGGA,220223.00,3510.6081,N,12128.0495,W,1,10,0.8,13.2,M,-32.3,M,,*63
$PYRTM,2024,124.918358193148,16.028005603287
$GPGGA,220224.00,3510.6079,N,12128.0497,W,1,10,0.8,13.2,M,-32.3,M,,*61
$PYRTM,2024,124.918369302859,16.028016712998
$GPGGA,220225.00,3510.6076,N,12128.0496,W,1,10,0.8,13.2,M,-32.3,M,,*6E
$PYRTM,2024,124.918380416412,16.028027826551
$GPGGA,220226.00,3510.6074,N,12128.0491,W,1,10,0.8,13.1,M,-32.3,M,,*6B
$PYRTM,2024,124.918391526979,16.028038937118
$GPGGA,220227.00,3510.6071,N,12128.0487,W,1,10,0.8,13.2,M,-32.3,M,,*6B
$PYRTM,2024,124.918402634294,16.028050044433
$GPGGA,220228.00,3510.6068,N,12128.0488,W,1,10,0.8,13.2,M,-32.3,M,,*63
$PYRTM,2024,124.918413749410,16.028061159560
$GPGGA,220229.00,3510.6066,N,12128.0494,W,1,10,0.8,12.8,M,-32.3,M,,*6A
$PYRTM,2024,124.918424858507,16.028072268646
$GPGGA,220230.00,3510.6063,N,12128.0498,W,1,10,0.8,12.8,M,-32.3,M,,*6B
$PYRTM,2024,124.918435972269,16.028083382419
$GPGGA,220231.00,3510.6058,N,12128.0493,W,1,10,0.8,12.5,M,-32.3,M,,*64
$PYRTM,2024,124.918447558762,16.028094968912
$GPGGA,220232.00,3510.6053,N,12128.0485,W,1,10,0.8,13.1,M,-32.3,M,,*6E
$PYRTM,2024,124.918458669850,16.028106079988
$GPGGA,220233.00,3510.6049,N,12128.0481,W,1,10,0.8,13.2,M,-32.3,M,,*63
$PYRTM,2024,124.918469896053,16.028117306192
$GPGGA,220234.00,3510.6047,N,12128.0484,W,1,10,0.8,13.2,M,-32.3,M,,*6F
$PYRTM,2024,124.918481225475,16.028128635613
$GPGGA,220235.00,3510.6047,N,12128.0489,W,1,10,0.8,13.2,M,-32.3,M,,*63
$PYRTM,2024,124.918491524965,16.028138935104
$GPGGA,220236.00,3510.6044,N,12128.0488,W,1,10,0.8,13.1,M,-32.3,M,,*61
$PYRTM,2024,124.918503347396,16.028150757535
$GPGGA,220237.00,3510.6040,N,12128.0481,W,1,10,0.8,12.8,M,-32.3,M,,*65
$PYRTM,2024,124.918515961100,16.028163371238
$GPGGA,220238.00,3510.6036,N,12128.0474,W,1,10,0.8,12.7,M,-32.3,M,,*6E
$PYRTM,2024,124.918527520706,16.028174930845
$GPGGA,220239.00,3510.6034,N,12128.0474,W,1,10,0.8,12.7,M,-32.3,M,,*6D
$PYRTM,2024,124.918539109097,16.028186519236
$GPGGA,220240.00,3510.6034,N,12128.0480,W,1,10,0.8,12.7,M,-32.3,M,,*68
$PYRTM,2024,124.918550672095,16.028198082234
$GPGGA,220241.00,3510.6034,N,12128.0484,W,1,10,0.8,12.7,M,-32.3,M,,*6D
$PYRTM,2024,124.918562260660,16.028209670799
$GPGGA,220242.00,3510.6031,N,12128.0481,W,1,10,0.8,12.6,M,-32.3,M,,*6F
$PYRTM,2024,124.918573819410,16.028221229549
$GPGGA,220243.00,3510.6026,N,12128.0470,W,1,10,0.8,12.6,M,-32.3,M,,*66
$PYRTM,2024,124.918585422269,16.028232832407
$GPGGA,220244.00,3510.6023,N,12128.0466,W,1,10,0.8,12.4,M,-32.3,M,,*61
$PYRTM,2024,124.918596979259,16.028244389398
$GPGGA,220245.00,3510.6022,N,12128.0470,W,1,10,0.8,12.4,M,-32.3,M,,*66
$PYRTM,2024,124.918608555509,16.028255965648
$GPGGA,220246.00,3510.6022,N,12128.0472,W,1,10,0.8,12.4,M,-32.3,M,,*67
$PYRTM,2024,124.918620127928,16.028267538079
$GPGGA,220247.00,3510.6020,N,12128.0470,W,1,10,0.8,12.4,M,-32.3,M,,*66
$PYRTM,2024,124.918631703715,16.028279113854
$GPGGA,220248.00,3510.6016,N,12128.0464,W,1,10,0.8,11.9,M,-32.3,M,,*67
$PYRTM,2024,124.918643275822,16.028290685961
$GPGGA,220249.00,3510.6013,N,12128.0460,W,1,10,0.8,11.9,M,-32.3,M,,*67
$PYRTM,2024,124.918654852257,16.028302262407
$GPGGA,220250.00,3510.6011,N,12128.0461,W,1,10,0.8,11.9,M,-32.3,M,,*6C
$PYRTM,2024,124.918666425775,16.028313835914
$GPGGA,220251.00,3510.6008,N,12128.0462,W,1,10,0.8,12.0,M,-32.3,M,,*6C
$PYRTM,2024,124.918677993264,16.028325403403
$GPGGA,220252.00,3510.6004,N,12128.0460,W,1,10,0.8,12.0,M,-32.3,M,,*61
$PYRTM,2024,124.918689573727,16.028336983866
$GPGGA,220253.00,3510.6002,N,12128.0455,W,1,10,0.8,12.0,M,-32.3,M,,*60
$PYRTM,2024,124.918701147662,16.028348557801
$GPGGA,220254.00,3510.6000,N,12128.0450,W,1,10,0.8,12.0,M,-32.3,M,,*60
$PYRTM,2024,124.918712721123,16.028360131262
$GPGGA,220255.00,3510.5999,N,12128.0450,W,1,10,0.8,12.0,M,-32.3,M,,*6B
$PYRTM,2024,124.918724300231,16.028371710370
$GPGGA,220256.00,3510.5996,N,12128.0451,W,1,10,0.8,12.1,M,-32.3,M,,*67
$PYRTM,2024,124.918735869398,16.028383279537
$GPGGA,220257.00,3510.5993,N,12128.0452,W,1,10,0.8,12.0,M,-32.3,M,,*61
$PYRTM,2024,124.918747458391,16.028394868530
$GPGGA,220258.00,3510.5991,N,12128.0448,W,1,10,0.8,12.1,M,-32.3,M,,*66
$PYRTM,2024,124.918759018866,16.028406429016
$GPGGA,220259.00,3510.5990,N,12128.0443,W,1,10,0.8,12.1,M,-32.3,M,,*6D
$PYRTM,2024,124.918770591898,16.028418002037
$GPGGA,220300.00,3510.5989,N,12128.0442,W,1,10,0.8,12.1,M,-32.3,M,,*69
$PYRTM,2024,124.918782166678,16.028429576817
$GPGGA,220301.00,3510.5987,N,12128.0445,W,1,10,0.8,12.1,M,-32.3,M,,*61
$PYRTM,2024,124.918793739954,16.028441150093
$GPGGA,220302.00,3510.5984,N,12128.0447,W,1,10,0.8,12.1,M,-32.3,M,,*63
$PYRTM,2024,124.918805313866,16.028452724005
$GPGGA,220303.00,3510.5981,N,12128.0444,W,1,10,0.8,11.9,M,-32.3,M,,*6F
$PYRTM,2024,124.918816888507,16.028464298646
$GPGGA,220304.00,3510.5978,N,12128.0438,W,1,10,0.8,12.2,M,-32.3,M,,*6D
$PYRTM,2024,124.918828462546,16.028475872685
$GPGGA,220305.00,3510.5976,N,12128.0434,W,1,10,0.8,12.5,M,-32.3,M,,*69
$PYRTM,2024,124.918838750972,16.028486161111
$GPGGA,220306.00,3510.5976,N,12128.0436,W,1,10,0.8,12.5,M,-32.3,M,,*68
$PYRTM,2024,124.918850564340,16.028497974479
$GPGGA,220307.00,3510.5975,N,12128.0439,W,1,10,0.8,12.5,M,-32.3,M,,*65
$PYRTM,2024,124.918863188171,16.028510598310
$GPGGA,220308.00,3510.5972,N,12128.0438,W,1,10,0.8,12.5,M,-32.3,M,,*6C
$PYRTM,2024,124.918874760255,16.028522170394
$GPGGA,220309.00,3510.5970,N,12128.0431,W,1,10,0.8,12.9,M,-32.3,M,,*6A
$PYRTM,2024,124.918886333472,16.028533743623
$GPGGA,220310.00,3510.5968,N,12128.0423,W,1,10,0.8,12.9,M,-32.3,M,,*68
$PYRTM,2024,124.918897902581,16.028545312720
$GPGGA,220311.00,3510.5967,N,12128.0422,W,1,10,0.8,12.9,M,-32.3,M,,*67
$PYRTM,2024,124.918909483021,16.028556893160
$GPGGA,220312.00,3510.5966,N,12128.0425,W,1,10,0.8,12.9,M,-32.3,M,,*62
$PYRTM,2024,124.918921054641,16.028568464780
$GPGGA,220313.00,3510.5963,N,12128.0427,W,1,10,0.8,12.9,M,-32.3,M,,*64
$PYRTM,2024,124.918932626030,16.028580036181
$GPGGA,220314.00,3510.5960,N,12128.0421,W,1,10,0.8,12.6,M,-32.3,M,,*69
$PYRTM,2024,124.918944203993,16.028591614132
$GPGGA,220315.00,3510.5957,N,12128.0411,W,1,10,0.8,12.7,M,-32.3,M,,*6E
$PYRTM,2024,124.918955779525,16.028603189664
$GPGGA,220316.00,3510.5956,N,12128.0408,W,1,10,0.8,12.8,M,-32.3,M,,*6B
$PYRTM,2024,124.918967352639,16.028614762789
$GPGGA,220317.00,3510.5955,N,12128.0410,W,1,10,0.8,12.8,M,-32.3,M,,*60
$PYRTM,2024,124.918978941181,16.028626351319
$GPGGA,220318.00,3510.5953,N,12128.0410,W,1,10,0.8,12.8,M,-32.3,M,,*69
$PYRTM,2024,124.918990500868,16.028637911007
$GPGGA,220319.00,3510.5950,N,12128.0403,W,1,10,0.8,13.1,M,-32.3,M,,*61
$PYRTM,2024,124.919002070787,16.028649480926
$GPGGA,220320.00,3510.5947,N,12128.0396,W,1,10,0.8,13.1,M,-32.3,M,,*66
$PYRTM,2024,124.919013645139,16.028661055278
$GPGGA,220321.00,3510.5945,N,12128.0392,W,1,10,0.8,13.1,M,-32.3,M,,*61
$PYRTM,2024,124.919025222894,16.028672633032
$GPGGA,220322.00,3510.5944,N,12128.0392,W,1,10,0.8,13.1,M,-32.3,M,,*63
$PYRTM,2024,124.919036792905,16.028684203056
$GPGGA,220323.00,3510.5943,N,12128.0393,W,1,10,0.8,13.1,M,-32.3,M,,*64
$PYRTM,2024,124.919048366701,16.028695776840
$GPGGA,220324.00,3510.5942,N,12128.0392,W,1,10,0.8,13.1,M,-32.3,M,,*63
$PYRTM,2024,124.919059945324,16.028707355463
$GPGGA,220325.00,3510.5939,N,12128.0391,W,1,10,0.8,12.9,M,-32.3,M,,*64
$PYRTM,2024,124.919071523495,16.028718933646
$GPGGA,220326.00,3510.5936,N,12128.0389,W,1,10,0.8,13.0,M,-32.3,M,,*69
$PYRTM,2024,124.919083093530,16.028730503669
$GPGGA,220327.00,3510.5934,N,12128.0389,W,1,10,0.8,13.0,M,-32.3,M,,*6A
$PYRTM,2024,124.919094682234,16.028742092373
$GPGGA,220328.00,3510.5934,N,12128.0392,W,1,10,0.8,13.0,M,-32.3,M,,*6F
$PYRTM,2024,124.919106241748,16.028753651898
$GPGGA,220329.00,3510.5935,N,12128.0394,W,1,10,0.8,13.0,M,-32.3,M,,*69
$PYRTM,2024,124.919117816829,16.028765226968
$GPGGA,220330.00,3510.5932,N,12128.0390,W,1,10,0.8,12.8,M,-32.3,M,,*6B
$PYRTM,2024,124.919129389572,16.028776799711
$GPGGA,220331.00,3510.5930,N,12128.0382,W,1,10,0.8,12.8,M,-32.3,M,,*6B
$PYRTM,2024,124.919140959942,16.028788370081
$GPGGA,220332.00,3510.5928,N,12128.0378,W,1,10,0.8,12.7,M,-32.3,M,,*6B
$PYRTM,2024,124.919152533993,16.028799944132
$GPGGA,220333.00,3510.5928,N,12128.0380,W,1,10,0.8,12.7,M,-32.3,M,,*6D
$PYRTM,2024,124.919164115046,16.028811525185
$GPGGA,220334.00,3510.5930,N,12128.0382,W,1,10,0.8,12.7,M,-32.3,M,,*61
$PYRTM,2024,124.919175686169,16.028823096308
$GPGGA,220335.00,3510.5929,N,12128.0381,W,1,10,0.8,12.7,M,-32.3,M,,*6B
$PYRTM,2024,124.919185977130,16.028833387269
$GPGGA,220336.00,3510.5927,N,12128.0374,W,1,10,0.8,13.3,M,-32.3,M,,*69
$PYRTM,2024,124.919197793032,16.028845203171
$GPGGA,220337.00,3510.5924,N,12128.0368,W,1,10,0.8,13.4,M,-32.3,M,,*61
$PYRTM,2024,124.919210404491,16.028857814630
$GPGGA,220338.00,3510.5923,N,12128.0367,W,1,10,0.8,13.4,M,-32.3,M,,*66
$PYRTM,2024,124.919221983819,16.028869393958
$GPGGA,220339.00,3510.5924,N,12128.0369,W,1,10,0.8,13.4,M,-32.3,M,,*6E
$PYRTM,2024,124.919233559931,16.028880970069
$GPGGA,220340.00,3510.5924,N,12128.0369,W,1,10,0.8,13.4,M,-32.3,M,,*60
$PYRTM,2024,124.919245132025,16.028892542176
$GPGGA,220341.00,3510.5922,N,12128.0364,W,1,10,0.8,14.0,M,-32.3,M,,*69
$PYRTM,2024,124.919256705486,16.028904115625
$GPGGA,220342.00,3510.5920,N,12128.0357,W,1,10,0.8,14.0,M,-32.3,M,,*68
$PYRTM,2024,124.919268276146,16.028915686273
$GPGGA,220343.00,3510.5919,N,12128.0355,W,1,10,0.8,14.0,M,-32.3,M,,*61
$PYRTM,2024,124.919279855000,16.028927265139
$GPGGA,220344.00,3510.5918,N,12128.0356,W,1,10,0.8,14.0,M,-32.3,M,,*64
$PYRTM,2024,124.919291429433,16.028938839572
$GPGGA,220345.00,3510.5916,N,12128.0357,W,1,10,0.8,14.0,M,-32.3,M,,*6A
$PYRTM,2024,124.919303002662,16.028950412801
$GPGGA,220346.00,3510.5912,N,12128.0352,W,1,10,0.8,13.9,M,-32.3,M,,*66
$PYRTM,2024,124.919314576366,16.028961986505
$GPGGA,220347.00,3510.5909,N,12128.0347,W,1,10,0.8,13.9,M,-32.3,M,,*69
$PYRTM,2024,124.919326150289,16.028973560428
$GPGGA,220348.00,3510.5907,N,12128.0345,W,1,10,0.8,13.9,M,-32.3,M,,*6A
$PYRTM,2024,124.919337725613,16.028985135752
$GPGGA,220349.00,3510.5906,N,12128.0346,W,1,10,0.8,13.9,M,-32.3,M,,*69
$PYRTM,2024,124.919349313414,16.028996723553
$GPGGA,220350.00,3510.5903,N,12128.0345,W,1,10,0.8,13.9,M,-32.3,M,,*67
$PYRTM,2024,124.919360873414,16.029008283553
$GPGGA,220351.00,3510.5901,N,12128.0342,W,1,10,0.8,13.9,M,-32.3,M,,*63
$PYRTM,2024,124.919372447512,16.029019857650
$GPGGA,220352.00,3510.5898,N,12128.0338,W,1,10,0.8,13.9,M,-32.3,M,,*6C
$PYRTM,2024,124.919384020880,16.029031431030
$GPGGA,220353.00,3510.5897,N,12128.0336,W,1,10,0.8,13.9,M,-32.3,M,,*6C
$PYRTM,2024,124.919395595312,16.029043005463
$GPGGA,220354.00,3510.5896,N,12128.0336,W,1,10,0.8,13.9,M,-32.3,M,,*6A
$PYRTM,2024,124.919407169387,16.029054579537
$GPGGA,220355.00,3510.5894,N,12128.0337,W,1,10,0.8,13.9,M,-32.3,M,,*68
$PYRTM,2024,124.919418757905,16.029066168044
$GPGGA,220356.00,3510.5891,N,12128.0335,W,1,10,0.8,13.9,M,-32.3,M,,*6C
$PYRTM,2024,124.919430317674,16.029077727812
$GPGGA,220357.00,3510.5887,N,12128.0328,W,1,10,0.8,14.2,M,-32.3,M,,*6A
$PYRTM,2024,124.919441894595,16.029089304734
$GPGGA,220358.00,3510.5884,N,12128.0321,W,1,10,0.8,14.2,M,-32.3,M,,*6F
$PYRTM,2024,124.919453466285,16.029100876412
$GPGGA,220359.00,3510.5882,N,12128.0319,W,1,10,0.8,14.2,M,-32.3,M,,*63
$PYRTM,2024,124.919465041725,16.029112451863
$GPGGA,220400.00,3510.5880,N,12128.0320,W,1,10,0.8,14.2,M,-32.3,M,,*60
$PYRTM,2024,124.919476614549,16.029124024687
$GPGGA,220401.00,3510.5878,N,12128.0320,W,1,10,0.8,14.2,M,-32.3,M,,*66
$PYRTM,2024,124.919488192130,16.029135602269
$GPGGA,220402.00,3510.5874,N,12128.0315,W,1,10,0.8,13.4,M,-32.3,M,,*6E
$PYRTM,2024,124.919498836644,16.029146246782
$GPGGA,220403.00,3510.5871,N,12128.0309,W,1,10,0.8,13.5,M,-32.3,M,,*66
$PYRTM,2024,124.919510868889,16.029158279028
$GPGGA,220404.00,3510.5868,N,12128.0306,W,1,10,0.8,13.5,M,-32.3,M,,*66
$PYRTM,2024,124.919521869051,16.029169279190
$GPGGA,220405.00,3510.5866,N,12128.0307,W,1,10,0.8,13.5,M,-32.3,M,,*68
$PYRTM,2024,124.919532756019,16.029180166157
$GPGGA,220406.00,3510.5865,N,12128.0309,W,1,10,0.8,13.5,M,-32.3,M,,*66
$PYRTM,2024,124.919543859583,16.029191269722
$GPGGA,220407.00,3510.5864,N,12128.0305,W,1,10,0.8,13.8,M,-32.3,M,,*67
$PYRTM,2024,124.919554972558,16.029202382697
$GPGGA,220408.00,3510.5862,N,12128.0298,W,1,10,0.8,13.6,M,-32.3,M,,*65
$PYRTM,2024,124.919566083715,16.029213493854
$GPGGA,220409.00,3510.5860,N,12128.0294,W,1,10,0.8,13.6,M,-32.3,M,,*6A
$PYRTM,2024,124.919577193495,16.029224603634
$GPGGA,220410.00,3510.5860,N,12128.0295,W,1,10,0.8,13.6,M,-32.3,M,,*63
$PYRTM,2024,124.919588320359,16.029235730498
$GPGGA,220411.00,3510.5858,N,12128.0296,W,1,10,0.8,13.6,M,-32.3,M,,*6A
$PYRTM,2024,124.919599411169,16.029246821308
$GPGGA,220412.00,3510.5856,N,12128.0294,W,1,10,0.8,13.7,M,-32.3,M,,*64
$PYRTM,2024,124.919617819942,16.029265230081
$GPGGA,220413.00,3510.5854,N,12128.0289,W,1,10,0.8,13.7,M,-32.3,M,,*6B
$PYRTM,2024,124.919628931319,16.029276341458
$GPGGA,220414.00,3510.5853,N,12128.0285,W,1,10,0.8,13.6,M,-32.3,M,,*66
$PYRTM,2024,124.919640029838,16.029287439977
$GPGGA,220415.00,3510.5851,N,12128.0284,W,1,10,0.8,13.7,M,-32.3,M,,*65
$PYRTM,2024,124.919651146053,16.029298556192
$GPGGA,220416.00,3510.5850,N,12128.0285,W,1,10,0.8,13.6,M,-32.3,M,,*67
$PYRTM,2024,124.919662264722,16.029309674861
$GPGGA,220417.00,3510.5848,N,12128.0285,W,1,10,0.8,13.6,M,-32.3,M,,*6F
$PYRTM,2024,124.919673388993,16.029320799132
$GPGGA,220418.00,3510.5846,N,12128.0280,W,1,10,0.8,13.3,M,-32.3,M,,*6E
$PYRTM,2024,124.919684486377,16.029331896516
$GPGGA,220419.00,3510.5844,N,12128.0274,W,1,10,0.8,13.4,M,-32.3,M,,*61
$PYRTM,2024,124.919695611019,16.029343021157
$GPGGA,220420.00,3510.5842,N,12128.0271,W,1,10,0.8,13.4,M,-32.3,M,,*68
$PYRTM,2024,124.919706709248,16.029354119387
$GPGGA,220421.00,3510.5841,N,12128.0273,W,1,10,0.8,13.4,M,-32.3,M,,*68
$PYRTM,2024,124.919717819815,16.029365229954
$GPGGA,220422.00,3510.5840,N,12128.0275,W,1,10,0.8,13.4,M,-32.3,M,,*6C
$PYRTM,2024,124.919728930880,16.029376341019
$GPGGA,220423.00,3510.5839,N,12128.0273,W,1,10,0.8,13.4,M,-32.3,M,,*65
$PYRTM,2024,124.919740041620,16.029387451759
$GPGGA,220424.00,3510.5838,N,12128.0268,W,1,10,0.8,13.6,M,-32.3,M,,*6B
$PYRTM,2024,124.919751168287,16.029398578426
$GPGGA,220425.00,3510.5836,N,12128.0265,W,1,10,0.8,13.6,M,-32.3,M,,*69
$PYRTM,2024,124.919762380613,16.029409790752
$GPGGA,220426.00,3510.5834,N,12128.0267,W,1,10,0.8,13.7,M,-32.3,M,,*6B
$PYRTM,2024,124.919773492060,16.029420902211
$GPGGA,220427.00,3510.5832,N,12128.0271,W,1,10,0.8,13.7,M,-32.3,M,,*6B
$PYRTM,2024,124.919784602870,16.029432013009
$GPGGA,220428.00,3510.5832,N,12128.0273,W,1,10,0.8,13.7,M,-32.3,M,,*66
$PYRTM,2024,124.919795714757,16.029443124896
$GPGGA,220429.00,3510.5832,N,12128.0268,W,1,10,0.8,14.5,M,-32.3,M,,*68
$PYRTM,2024,124.919807057407,16.029454467546
$GPGGA,220430.00,3510.5829,N,12128.0260,W,1,10,0.8,14.3,M,-32.3,M,,*64
$PYRTM,2024,124.919818616910,16.029466027049
$GPGGA,220431.00,3510.5826,N,12128.0255,W,1,10,0.8,14.2,M,-32.3,M,,*6D
$PYRTM,2024,124.919830205903,16.029477616053
$GPGGA,220432.00,3510.5824,N,12128.0255,W,1,10,0.8,14.2,M,-32.3,M,,*6C
$PYRTM,2024,124.919841764155,16.029489174294
$GPGGA,220433.00,3510.5825,N,12128.0257,W,1,10,0.8,14.2,M,-32.3,M,,*6E
$PYRTM,2024,124.919853354433,16.029500764572
$GPGGA,220434.00,3510.5826,N,12128.0257,W,1,10,0.8,14.2,M,-32.3,M,,*6A
$PYRTM,2024,124.919864916042,16.029512326181
$GPGGA,220435.00,3510.5823,N,12128.0251,W,1,10,0.8,14.1,M,-32.3,M,,*6B
$PYRTM,2024,124.919881710394,16.029529120532
$GPGGA,220436.00,3510.5818,N,12128.0244,W,1,10,0.8,14.3,M,-32.3,M,,*66
$PYRTM,2024,124.919893286875,16.029540697014
$GPGGA,220437.00,3510.5816,N,12128.0241,W,1,10,0.8,14.3,M,-32.3,M,,*6C
$PYRTM,2024,124.919904857731,16.029552267870
$GPGGA,220438.00,3510.5817,N,12128.0244,W,1,10,0.8,14.3,M,-32.3,M,,*67
$PYRTM,2024,124.919916432697,16.029563842836
$GPGGA,220439.00,3510.5819,N,12128.0246,W,1,10,0.8,14.4,M,-32.3,M,,*6D
$PYRTM,2024,124.919928007257,16.029575417407
$GPGGA,220440.00,3510.5816,N,12128.0241,W,1,10,0.8,13.9,M,-32.3,M,,*61
$PYRTM,2024,124.919939580382,16.029586990532
$GPGGA,220441.00,3510.5810,N,12128.0235,W,1,10,0.8,13.8,M,-32.3,M,,*64
$PYRTM,2024,124.919951154618,16.029598564757
$GPGGA,220442.00,3510.5806,N,12128.0232,W,1,10,0.8,13.7,M,-32.3,M,,*68
$PYRTM,2024,124.919962728889,16.029610139028
$GPGGA,220443.00,3510.5807,N,12128.0234,W,1,10,0.8,13.7,M,-32.3,M,,*6E
$PYRTM,2024,124.919974298333,16.029621708472
$GPGGA,220444.00,3510.5809,N,12128.0238,W,1,10,0.8,13.7,M,-32.3,M,,*6B
$PYRTM,2024,124.919985877813,16.029633287951
$GPGGA,220445.00,3510.5810,N,12128.0240,W,1,10,0.8,13.7,M,-32.3,M,,*6D
$PYRTM,2024,124.919997467222,16.029644877361
$GPGGA,220446.00,3510.5807,N,12128.0238,W,1,10,0.8,13.7,M,-32.3,M,,*67
$PYRTM,2024,124.920009027569,16.029656437708
$GPGGA,220447.00,3510.5804,N,12128.0233,W,1,10,0.8,13.7,M,-32.3,M,,*6E
$PYRTM,2024,124.920020603160,16.029668013299
$GPGGA,220448.00,3510.5802,N,12128.0228,W,1,10,0.8,13.7,M,-32.3,M,,*6D
$PYRTM,2024,124.920032176123,16.029679586262
$GPGGA,220449.00,3510.5802,N,12128.0226,W,1,10,0.8,13.6,M,-32.3,M,,*63
$PYRTM,2024,124.920043750729,16.029691160868
$GPGGA,220450.00,3510.5803,N,12128.0229,W,1,10,0.8,13.7,M,-32.3,M,,*64
$PYRTM,2024,124.920054279757,16.029701689896
$GPGGA,220451.00,3510.5803,N,12128.0230,W,1,10,0.8,13.6,M,-32.3,M,,*6C
$PYRTM,2024,124.920066892002,16.029714302141
$GPGGA,220452.00,3510.5801,N,12128.0228,W,1,10,0.8,13.7,M,-32.3,M,,*65
$PYRTM,2024,124.920078471030,16.029725881181
$GPGGA,220453.00,3510.5799,N,12128.0225,W,1,10,0.8,13.6,M,-32.3,M,,*66
$PYRTM,2024,124.920090045312,16.029737455451
$GPGGA,220454.00,3510.5797,N,12128.0222,W,1,10,0.8,13.6,M,-32.3,M,,*68
$PYRTM,2024,124.920101618947,16.029749029086
$GPGGA,220455.00,3510.5796,N,12128.0220,W,1,10,0.8,13.6,M,-32.3,M,,*6A
$PYRTM,2024,124.920113194815,16.029760604954
$GPGGA,220456.00,3510.5795,N,12128.0219,W,1,10,0.8,13.6,M,-32.3,M,,*60
$PYRTM,2024,124.920124768611,16.029772178750
$GPGGA,220457.00,3510.5796,N,12128.0219,W,1,10,0.8,13.6,M,-32.3,M,,*62
$PYRTM,2024,124.920136342245,16.029783752384
$GPGGA,220458.00,3510.5796,N,12128.0218,W,1,10,0.8,13.6,M,-32.3,M,,*6C
$PYRTM,2024,124.920147917685,16.029795327824
$GPGGA,220459.00,3510.5795,N,12128.0216,W,1,10,0.8,13.6,M,-32.3,M,,*60
$PYRTM,2024,124.920159489028,16.029806899167
$GPGGA,220500.00,3510.5794,N,12128.0215,W,1,10,0.8,13.6,M,-32.3,M,,*6F
$PYRTM,2024,124.920171062616,16.029818472755
$GPGGA,220501.00,3510.5792,N,12128.0212,W,1,10,0.8,13.7,M,-32.3,M,,*6E
$PYRTM,2024,124.920182641551,16.029830051690
$GPGGA,220502.00,3510.5791,N,12128.0208,W,1,10,0.8,13.7,M,-32.3,M,,*65
$PYRTM,2024,124.920194213125,16.029841623264
$GPGGA,220503.00,3510.5790,N,12128.0206,W,1,10,0.8,13.7,M,-32.3,M,,*6B
$PYRTM,2024,124.920205786227,16.029853196366
$GPGGA,220504.00,3510.5790,N,12128.0204,W,1,10,0.8,13.6,M,-32.3,M,,*6F
$PYRTM,2024,124.920217359861,16.029864770000
$GPGGA,220505.00,3510.5789,N,12128.0203,W,1,10,0.8,13.7,M,-32.3,M,,*60
$PYRTM,2024,124.920227540475,16.029874950613
$GPGGA,220506.00,3510.5788,N,12128.0201,W,1,10,0.8,13.7,M,-32.3,M,,*60
$PYRTM,2024,124.920239467905,16.029886878044
$GPGGA,220507.00,3510.5785,N,12128.0199,W,1,10,0.8,13.6,M,-32.3,M,,*6F
$PYRTM,2024,124.920252087604,16.029899497743
$GPGGA,220508.00,3510.5784,N,12128.0195,W,1,10,0.8,13.7,M,-32.3,M,,*6C
$PYRTM,2024,124.920263657025,16.029911067176
$GPGGA,220509.00,3510.5783,N,12128.0193,W,1,10,0.8,13.7,M,-32.3,M,,*6C
$PYRTM,2024,124.920275231157,16.029922641296
$GPGGA,220510.00,3510.5782,N,12128.0192,W,1,10,0.8,13.7,M,-32.3,M,,*64
$PYRTM,2024,124.920286804201,16.029934214340
$GPGGA,220511.00,3510.5781,N,12128.0192,W,1,10,0.8,13.7,M,-32.3,M,,*66
$PYRTM,2024,124.920298382164,16.029945792303
$GPGGA,220512.00,3510.5781,N,12128.0190,W,1,10,0.8,14.1,M,-32.3,M,,*66
$PYRTM,2024,124.920309953356,16.029957363495
$GPGGA,220513.00,3510.5780,N,12128.0182,W,1,10,0.8,14.2,M,-32.3,M,,*66
$PYRTM,2024,124.920321527859,16.029968937998
$GPGGA,220514.00,3510.5781,N,12128.0179,W,1,10,0.8,14.3,M,-32.3,M,,*65
$PYRTM,2024,124.920333088333,16.029980498472
$GPGGA,220515.00,3510.5783,N,12128.0181,W,1,10,0.8,14.3,M,-32.3,M,,*61
$PYRTM,2024,124.920344675868,16.029992086007
$GPGGA,220516.00,3510.5785,N,12128.0182,W,1,10,0.8,14.3,M,-32.3,M,,*67
$PYRTM,2024,124.920356250243,16.030003660382
$GPGGA,220517.00,3510.5783,N,12128.0179,W,1,10,0.8,14.2,M,-32.3,M,,*65
$PYRTM,2024,124.920367824352,16.030015234491
$GPGGA,220518.00,3510.5780,N,12128.0168,W,1,10,0.8,14.0,M,-32.3,M,,*6B
$PYRTM,2024,124.920379400069,16.030026810208
$GPGGA,220519.00,3510.5778,N,12128.0160,W,1,10,0.8,14.2,M,-32.3,M,,*67
$PYRTM,2024,124.920390976007,16.030038386146
$GPGGA,220520.00,3510.5778,N,12128.0159,W,1,10,0.8,14.2,M,-32.3,M,,*67
$PYRTM,2024,124.920402547361,16.030049957512
$GPGGA,220521.00,3510.5780,N,12128.0161,W,1,10,0.8,14.3,M,-32.3,M,,*6B
$PYRTM,2024,124.920414124329,16.030061534468
$GPGGA,220522.00,3510.5782,N,12128.0161,W,1,10,0.8,14.3,M,-32.3,M,,*6A
$PYRTM,2024,124.920425690139,16.030073100289
$GPGGA,220523.00,3510.5780,N,12128.0156,W,1,10,0.8,14.5,M,-32.3,M,,*6B
$PYRTM,2024,124.920437270509,16.030084680648
$GPGGA,220524.00,3510.5776,N,12128.0150,W,1,10,0.8,14.2,M,-32.3,M,,*64
$PYRTM,2024,124.920448842789,16.030096252928
$GPGGA,220525.00,3510.5774,N,12128.0148,W,1,10,0.8,14.1,M,-32.3,M,,*6D
$PYRTM,2024,124.920460406400,16.030107816539
$GPGGA,220526.00,3510.5776,N,12128.0152,W,1,10,0.8,14.1,M,-32.3,M,,*67
$PYRTM,2024,124.920471991759,16.030119401910
$GPGGA,220527.00,3510.5780,N,12128.0154,W,1,10,0.8,14.1,M,-32.3,M,,*69
$PYRTM,2024,124.920483568125,16.030130978264
$GPGGA,220528.00,3510.5780,N,12128.0153,W,1,10,0.8,14.1,M,-32.3,M,,*61
$PYRTM,2024,124.920495139525,16.030142549664
$GPGGA,220529.00,3510.5776,N,12128.0147,W,1,10,0.8,14.6,M,-32.3,M,,*6B
$PYRTM,2024,124.920506718646,16.030154128785
$GPGGA,220530.00,3510.5772,N,12128.0143,W,1,10,0.8,14.6,M,-32.3,M,,*63
$PYRTM,2024,124.920518275440,16.030165685579
$GPGGA,220531.00,3510.5772,N,12128.0144,W,1,10,0.8,14.6,M,-32.3,M,,*65
$PYRTM,2024,124.920529862604,16.030177272743
$GPGGA,220532.00,3510.5774,N,12128.0143,W,1,10,0.8,14.6,M,-32.3,M,,*67
$PYRTM,2024,124.920541436100,16.030188846238
$GPGGA,220533.00,3510.5774,N,12128.0141,W,1,10,0.8,14.6,M,-32.3,M,,*64
$PYRTM,2024,124.920553010613,16.030200420752
$GPGGA,220534.00,3510.5771,N,12128.0134,W,1,10,0.8,14.4,M,-32.3,M,,*66
$PYRTM,2024,124.920564584398,16.030211994537
$GPGGA,220535.00,3510.5768,N,12128.0129,W,1,10,0.8,14.4,M,-32.3,M,,*63
$PYRTM,2024,124.920574770602,16.030222180741
$GPGGA,220536.00,3510.5768,N,12128.0128,W,1,10,0.8,14.4,M,-32.3,M,,*61
$PYRTM,2024,124.920586691887,16.030234102025
$GPGGA,220537.00,3510.5769,N,12128.0127,W,1,10,0.8,14.4,M,-32.3,M,,*6E
$PYRTM,2024,124.920599307766,16.030246717917
$GPGGA,220538.00,3510.5768,N,12128.0124,W,1,10,0.8,14.4,M,-32.3,M,,*63
$PYRTM,2024,124.920610869780,16.030258279919
$GPGGA,220539.00,3510.5766,N,12128.0118,W,1,10,0.8,14.4,M,-32.3,M,,*63
$PYRTM,2024,124.920622459583,16.030269869722
$GPGGA,220540.00,3510.5764,N,12128.0114,W,1,10,0.8,14.4,M,-32.3,M,,*63
$PYRTM,2024,124.920634030394,16.030281440532
$GPGGA,220541.00,3510.5765,N,12128.0113,W,1,10,0.8,14.4,M,-32.3,M,,*64
$PYRTM,2024,124.920645604815,16.030293014954
$GPGGA,220542.00,3510.5768,N,12128.0114,W,1,10,0.8,14.5,M,-32.3,M,,*6C
$PYRTM,2024,124.920657178854,16.030304588993
$GPGGA,220543.00,3510.5768,N,12128.0114,W,1,10,0.8,14.5,M,-32.3,M,,*6D
$PYRTM,2024,124.920668755139,16.030316165289
$GPGGA,220544.00,3510.5765,N,12128.0110,W,1,10,0.8,14.4,M,-32.3,M,,*62
$PYRTM,2024,124.920680326389,16.030327736528
$GPGGA,220545.00,3510.5762,N,12128.0104,W,1,10,0.8,14.4,M,-32.3,M,,*61
$PYRTM,2024,124.920691900648,16.030339310787
$GPGGA,220546.00,3510.5760,N,12128.0102,W,1,10,0.8,14.5,M,-32.3,M,,*67
$PYRTM,2024,124.920703474502,16.030350884641
$GPGGA,220547.00,3510.5761,N,12128.0103,W,1,10,0.8,14.5,M,-32.3,M,,*66
$PYRTM,2024,124.920715048611,16.030362458750
$GPGGA,220548.00,3510.5763,N,12128.0103,W,1,10,0.8,14.5,M,-32.3,M,,*6B
$PYRTM,2024,124.920726622512,16.030374032662
$GPGGA,220549.00,3510.5761,N,12128.0098,W,1,10,0.8,14.4,M,-32.3,M,,*6A
$PYRTM,2024,124.920738199549,16.030385609687
$GPGGA,220550.00,3510.5756,N,12128.0089,W,1,10,0.8,14.9,M,-32.3,M,,*6B
$PYRTM,2024,124.920749770694,16.030397180833
$GPGGA,220551.00,3510.5753,N,12128.0084,W,1,10,0.8,15.0,M,-32.3,M,,*6A
$PYRTM,2024,124.920761347674,16.030408757812
$GPGGA,220552.00,3510.5754,N,12128.0085,W,1,10,0.8,15.0,M,-32.3,M,,*6F
$PYRTM,2024,124.920772919271,16.030420329410
$GPGGA,220553.00,3510.5757,N,12128.0087,W,1,10,0.8,15.0,M,-32.3,M,,*6F
$PYRTM,2024,124.920784493657,16.030431903808
$GPGGA,220554.00,3510.5758,N,12128.0083,W,1,10,0.8,15.1,M,-32.3,M,,*62
$PYRTM,2024,124.920796067917,16.030443478067
$GPGGA,220555.00,3510.5753,N,12128.0075,W,1,10,0.8,15.2,M,-32.3,M,,*62
$PYRTM,2024,124.920807645799,16.030455055937
$GPGGA,220556.00,3510.5748,N,12128.0069,W,1,10,0.8,15.2,M,-32.3,M,,*66
$PYRTM,2024,124.920819215891,16.030466626030
$GPGGA,220557.00,3510.5749,N,12128.0068,W,1,10,0.8,15.2,M,-32.3,M,,*67
$PYRTM,2024,124.920830793715,16.030478203866
$GPGGA,220558.00,3510.5752,N,12128.0070,W,1,10,0.8,15.2,M,-32.3,M,,*6B
$PYRTM,2024,124.920842363576,16.030489773715
$GPGGA,220559.00,3510.5753,N,12128.0070,W,1,10,0.8,15.2,M,-32.3,M,,*6B
$PYRTM,2024,124.920853941481,16.030501351620
$GPGGA,220600.00,3510.5751,N,12128.0065,W,1,10,0.8,15.5,M,-32.3,M,,*65
$PYRTM,2024,124.920865509028,16.030512919167
$GPGGA,220601.00,3510.5747,N,12128.0061,W,1,10,0.8,16.0,M,-32.3,M,,*61
$PYRTM,2024,124.920877088692,16.030524498831
$GPGGA,220602.00,3510.5745,N,12128.0059,W,1,10,0.8,16.0,M,-32.3,M,,*6B
$PYRTM,2024,124.920888661296,16.030536071435
$GPGGA,220603.00,3510.5746,N,12128.0058,W,1,10,0.8,16.1,M,-32.3,M,,*69
$PYRTM,2024,124.920900238183,16.030547648322
$GPGGA,220604.00,3510.5748,N,12128.0059,W,1,10,0.8,16.1,M,-32.3,M,,*61
$PYRTM,2024,124.920911804236,16.030559214375
$GPGGA,220605.00,3510.5748,N,12128.0060,W,1,10,0.8,16.1,M,-32.3,M,,*6A
$PYRTM,2024,124.920922097512,16.030569507650
$GPGGA,220606.00,3510.5746,N,12128.0057,W,1,10,0.8,16.1,M,-32.3,M,,*63
$PYRTM,2024,124.920933911319,16.030581321458
$GPGGA,220607.00,3510.5742,N,12128.0052,W,1,10,0.8,16.1,M,-32.3,M,,*63
$PYRTM,2024,124.920945605370,16.030593015509
$GPGGA,220608.00,3510.5741,N,12128.0049,W,1,10,0.8,16.1,M,-32.3,M,,*65
$PYRTM,2024,124.920957643056,16.030605053194
$GPGGA,220609.00,3510.5742,N,12128.0050,W,1,10,0.8,16.2,M,-32.3,M,,*6C
$PYRTM,2024,124.920968623576,16.030616033715
$GPGGA,220610.00,3510.5744,N,12128.0052,W,1,10,0.8,16.2,M,-32.3,M,,*60
$PYRTM,2024,124.920979401748,16.030626811887
$GPGGA,220611.00,3510.5742,N,12128.0050,W,1,10,0.8,16.2,M,-32.3,M,,*65
$PYRTM,2024,124.920990514618,16.030637924757
$GPGGA,220612.00,3510.5741,N,12128.0046,W,1,10,0.8,16.2,M,-32.3,M,,*62
$PYRTM,2024,124.921001625394,16.030649035532
$GPGGA,220613.00,3510.5740,N,12128.0042,W,1,10,0.8,16.2,M,-32.3,M,,*66
$PYRTM,2024,124.921012736296,16.030660146435
$GPGGA,220614.00,3510.5740,N,12128.0041,W,1,10,0.8,16.2,M,-32.3,M,,*62
$PYRTM,2024,124.921023843484,16.030671253623
$GPGGA,220615.00,3510.5739,N,12128.0042,W,1,10,0.8,16.2,M,-32.3,M,,*6E
$PYRTM,2024,124.921035420787,16.030682830937
$GPGGA,220616.00,3510.5738,N,12128.0040,W,1,10,0.8,16.2,M,-32.3,M,,*6E
$PYRTM,2024,124.921046548194,16.030693958333
$GPGGA,220617.00,3510.5736,N,12128.0037,W,1,10,0.8,16.2,M,-32.3,M,,*61
$PYRTM,2024,124.921057643889,16.030705054039
$GPGGA,220618.00,3510.5735,N,12128.0033,W,1,10,0.8,16.2,M,-32.3,M,,*69
$PYRTM,2024,124.921076730069,16.030724140208
$GPGGA,220619.00,3510.5734,N,12128.0031,W,1,10,0.8,16.2,M,-32.3,M,,*6B
$PYRTM,2024,124.921087838634,16.030735248785
$GPGGA,220620.00,3510.5734,N,12128.0031,W,1,10,0.8,16.2,M,-32.3,M,,*61
$PYRTM,2024,124.921098951609,16.030746361748
$GPGGA,220621.00,3510.5733,N,12128.0030,W,1,10,0.8,16.2,M,-32.3,M,,*66
$PYRTM,2024,124.921110063414,16.030757473565
$GPGGA,220622.00,3510.5732,N,12128.0027,W,1,10,0.8,16.3,M,-32.3,M,,*63
$PYRTM,2024,124.921121173067,16.030768583206
$GPGGA,220623.00,3510.5731,N,12128.0023,W,1,10,0.8,16.3,M,-32.3,M,,*65
$PYRTM,2024,124.921132283391,16.030779693530
$GPGGA,220624.00,3510.5730,N,12128.0020,W,1,10,0.8,16.2,M,-32.3,M,,*61
$PYRTM,2024,124.921143395451,16.030790805590
$GPGGA,220625.00,3510.5730,N,12128.0020,W,1,10,0.8,16.3,M,-32.3,M,,*61
$PYRTM,2024,124.921154505752,16.030801915891
$GPGGA,220626.00,3510.5732,N,12128.0021,W,1,10,0.8,16.3,M,-32.3,M,,*61
$PYRTM,2024,124.921165617870,16.030813028021
$GPGGA,220627.00,3510.5731,N,12128.0018,W,1,10,0.8,16.3,M,-32.3,M,,*69
$PYRTM,2024,124.921176728495,16.030824138634
$GPGGA,220628.00,3510.5729,N,12128.0013,W,1,10,0.8,16.4,M,-32.3,M,,*63
$PYRTM,2024,124.921187840127,16.030835250266
$GPGGA,220629.00,3510.5728,N,12128.0009,W,1,10,0.8,16.4,M,-32.3,M,,*68
$PYRTM,2024,124.921198951863,16.030846362014
$GPGGA,220630.00,3510.5730,N,12128.0009,W,1,10,0.8,16.4,M,-32.3,M,,*69
$PYRTM,2024,124.921210181030,16.030857591169
$GPGGA,220631.00,3510.5733,N,12128.0009,W,1,10,0.8,16.4,M,-32.3,M,,*6B
$PYRTM,2024,124.921221648993,16.030869059132
$GPGGA,220632.00,3510.5734,N,12128.0007,W,1,10,0.8,16.4,M,-32.3,M,,*61
$PYRTM,2024,124.921232761458,16.030880171597
$GPGGA,220633.00,3510.5731,N,12128.0000,W,1,10,0.8,16.0,M,-32.3,M,,*66
$PYRTM,2024,124.921243891632,16.030891301771
$GPGGA,220634.00,3510.5725,N,12127.9993,W,1,10,0.8,16.2,M,-32.3,M,,*63
$PYRTM,2024,124.921254983796,16.030902393935
$GPGGA,220635.00,3510.5724,N,12127.9989,W,1,10,0.8,16.1,M,-32.3,M,,*6B
$PYRTM,2024,124.921270727523,16.030918137662
$GPGGA,220636.00,3510.5726,N,12127.9990,W,1,10,0.8,16.1,M,-32.3,M,,*62
$PYRTM,2024,124.921282182060,16.030929592199
$GPGGA,220637.00,3510.5729,N,12127.9992,W,1,10,0.8,16.1,M,-32.3,M,,*6E
$PYRTM,2024,124.921293756736,16.030941166875
$GPGGA,220638.00,3510.5728,N,12127.9991,W,1,10,0.8,16.1,M,-32.3,M,,*63
$PYRTM,2024,124.921305331157,16.030952741296
$GPGGA,220639.00,3510.5725,N,12127.9987,W,1,10,0.8,15.9,M,-32.3,M,,*63
$PYRTM,2024,124.921316903877,16.030964314016
$GPGGA,220640.00,3510.5723,N,12127.9983,W,1,10,0.8,15.9,M,-32.3,M,,*6F
$PYRTM,2024,124.921328479236,16.030975889375
$GPGGA,220641.00,3510.5724,N,12127.9982,W,1,10,0.8,16.0,M,-32.3,M,,*62
$PYRTM,2024,124.921340054155,16.030987464294
$GPGGA,220642.00,3510.5725,N,12127.9983,W,1,10,0.8,16.0,M,-32.3,M,,*61
$PYRTM,2024,124.921351627014,16.030999037153
$GPGGA,220643.00,3510.5725,N,12127.9983,W,1,10,0.8,16.0,M,-32.3,M,,*60
$PYRTM,2024,124.921363201111,16.031010611250
$GPGGA,220644.00,3510.5724,N,12127.9980,W,1,10,0.8,15.9,M,-32.3,M,,*6F
$PYRTM,2024,124.921374774097,16.031022184236
$GPGGA,220645.00,3510.5722,N,12127.9976,W,1,10,0.8,15.9,M,-32.3,M,,*61
$PYRTM,2024,124.921386353472,16.031033763611
$GPGGA,220646.00,3510.5720,N,12127.9974,W,1,10,0.8,15.9,M,-32.3,M,,*62
$PYRTM,2024,124.921397922211,16.031045332350
$GPGGA,220647.00,3510.5720,N,12127.9972,W,1,10,0.8,16.0,M,-32.3,M,,*6F
$PYRTM,2024,124.921409501192,16.031056911331
$GPGGA,220648.00,3510.5719,N,12127.9970,W,1,10,0.8,15.9,M,-32.3,M,,*62
$PYRTM,2024,124.921421072396,16.031068482523
$GPGGA,220649.00,3510.5717,N,12127.9968,W,1,10,0.8,15.9,M,-32.3,M,,*64
$PYRTM,2024,124.921432648519,16.031080058657
$GPGGA,220650.00,3510.5715,N,12127.9965,W,1,10,0.8,15.9,M,-32.3,M,,*63
$PYRTM,2024,124.921444219086,16.031091629225
$GPGGA,220651.00,3510.5716,N,12127.9964,W,1,10,0.8,15.9,M,-32.3,M,,*60
$PYRTM,2024,124.921455793750,16.031103203889
$GPGGA,220652.00,3510.5717,N,12127.9965,W,1,10,0.8,15.9,M,-32.3,M,,*63
$PYRTM,2024,124.921467367998,16.031114778137
$GPGGA,220653.00,3510.5717,N,12127.9962,W,1,10,0.8,16.0,M,-32.3,M,,*6F
$PYRTM,2024,124.921478942269,16.031126352407
$GPGGA,220654.00,3510.5714,N,12127.9959,W,1,10,0.8,16.0,M,-32.3,M,,*63
$PYRTM,2024,124.921490517928,16.031137928067
$GPGGA,220655.00,3510.5712,N,12127.9956,W,1,10,0.8,16.0,M,-32.3,M,,*6B
$PYRTM,2024,124.921502092454,16.031149502593
$GPGGA,220656.00,3510.5713,N,12127.9956,W,1,10,0.8,16.0,M,-32.3,M,,*69
$PYRTM,2024,124.921513666296,16.031161076435
$GPGGA,220657.00,3510.5715,N,12127.9958,W,1,10,0.8,16.0,M,-32.3,M,,*60
$PYRTM,2024,124.921525240359,16.031172650498
$GPGGA,220658.00,3510.5714,N,12127.9956,W,1,10,0.8,16.0,M,-32.3,M,,*60
$PYRTM,2024,124.921536814410,16.031184224549
$GPGGA,220659.00,3510.5711,N,12127.9951,W,1,10,0.8,17.0,M,-32.3,M,,*62
$PYRTM,2024,124.921548387384,16.031195797523
$GPGGA,220700.00,3510.5710,N,12127.9948,W,1,10,0.8,17.0,M,-32.3,M,,*66
$PYRTM,2024,124.921559959213,16.031207369352
$GPGGA,220701.00,3510.5710,N,12127.9948,W,1,10,0.8,17.0,M,-32.3,M,,*67
$PYRTM,2024,124.921571539826,16.031218949965
$GPGGA,220702.00,3510.5711,N,12127.9950,W,1,10,0.8,17.0,M,-32.3,M,,*6C
$PYRTM,2024,124.921583109560,16.031230519699
$GPGGA,220703.00,3510.5713,N,12127.9952,W,1,10,0.8,17.0,M,-32.3,M,,*6D
$PYRTM,2024,124.921594687245,16.031242097384
$GPGGA,220704.00,3510.5713,N,12127.9950,W,1,10,0.8,17.0,M,-32.3,M,,*68
$PYRTM,2024,124.921606258750,16.031253668889
$GPGGA,220705.00,3510.5708,N,12127.9945,W,1,10,0.8,16.5,M,-32.3,M,,*63
$PYRTM,2024,124.921616908542,16.031264318681
$GPGGA,220706.00,3510.5705,N,12127.9941,W,1,10,0.8,16.5,M,-32.3,M,,*69
$PYRTM,2024,124.921628365278,16.031275775417
$GPGGA,220707.00,3510.5704,N,12127.9942,W,1,10,0.8,16.5,M,-32.3,M,,*6A
$PYRTM,2024,124.921640981644,16.031288391782
$GPGGA,220708.00,3510.5705,N,12127.9944,W,1,10,0.8,16.5,M,-32.3,M,,*62
$PYRTM,2024,124.921652555417,16.031299965556
$GPGGA,220709.00,3510.5706,N,12127.9943,W,1,10,0.8,16.5,M,-32.3,M,,*67
$PYRTM,2024,124.921664129144,16.031311539282
$GPGGA,220710.00,3510.5704,N,12127.9939,W,1,10,0.8,16.5,M,-32.3,M,,*60
$PYRTM,2024,124.921675703947,16.031323114086
$GPGGA,220711.00,3510.5701,N,12127.9935,W,1,10,0.8,16.5,M,-32.3,M,,*68
$PYRTM,2024,124.921687280174,16.031334690324
$GPGGA,220712.00,3510.5699,N,12127.9932,W,1,10,0.8,16.5,M,-32.3,M,,*6C
$PYRTM,2024,124.921698851377,16.031346261516
$GPGGA,220713.00,3510.5698,N,12127.9933,W,1,10,0.8,16.5,M,-32.3,M,,*6D
$PYRTM,2024,124.921710427350,16.031357837488
$GPGGA,220714.00,3510.5698,N,12127.9934,W,1,10,0.8,16.6,M,-32.3,M,,*6E
$PYRTM,2024,124.921721999606,16.031369409745
$GPGGA,220715.00,3510.5697,N,12127.9933,W,1,10,0.8,16.6,M,-32.3,M,,*67
$PYRTM,2024,124.921733574919,16.031380985058
$GPGGA,220716.00,3510.5695,N,12127.9930,W,1,10,0.8,16.6,M,-32.3,M,,*65
$PYRTM,2024,124.921745143854,16.031392553993
$GPGGA,220717.00,3510.5692,N,12127.9926,W,1,10,0.8,16.5,M,-32.3,M,,*67
$PYRTM,2024,124.921756724016,16.031404134155
$GPGGA,220718.00,3510.5689,N,12127.9923,W,1,10,0.8,16.6,M,-32.3,M,,*64
$PYRTM,2024,124.921768296400,16.031415706539
$GPGGA,220719.00,3510.5688,N,12127.9925,W,1,10,0.8,16.6,M,-32.3,M,,*62
$PYRTM,2024,124.921779873843,16.031427283981
$GPGGA,220720.00,3510.5689,N,12127.9927,W,1,10,0.8,16.6,M,-32.3,M,,*6B
$PYRTM,2024,124.921791444838,16.031438854977
$GPGGA,220721.00,3510.5688,N,12127.9926,W,1,10,0.8,16.5,M,-32.3,M,,*69
$PYRTM,2024,124.921803032431,16.031450442569
$GPGGA,220722.00,3510.5685,N,12127.9924,W,1,10,0.8,16.5,M,-32.3,M,,*65
$PYRTM,2024,124.921814593032,16.031462003171
$GPGGA,220723.00,3510.5682,N,12127.9923,W,1,10,0.8,16.5,M,-32.3,M,,*64
$PYRTM,2024,124.921826168032,16.031473578171
$GPGGA,220724.00,3510.5680,N,12127.9924,W,1,10,0.8,16.5,M,-32.3,M,,*66
$PYRTM,2024,124.921837741933,16.031485152072
$GPGGA,220725.00,3510.5680,N,12127.9926,W,1,10,0.8,16.5,M,-32.3,M,,*65
$PYRTM,2024,124.921849315532,16.031496725671
$GPGGA,220726.00,3510.5679,N,12127.9927,W,1,10,0.8,16.5,M,-32.3,M,,*61
$PYRTM,2024,124.921860886088,16.031508296227
$GPGGA,220727.00,3510.5676,N,12127.9926,W,1,10,0.8,16.5,M,-32.3,M,,*6E
$PYRTM,2024,124.921872464919,16.031519875058
$GPGGA,220728.00,3510.5673,N,12127.9922,W,1,10,0.8,16.6,M,-32.3,M,,*63
$PYRTM,2024,124.921884038623,16.031531448762
$GPGGA,220729.00,3510.5670,N,12127.9920,W,1,10,0.8,16.6,M,-32.3,M,,*63
$PYRTM,2024,124.921895607269,16.031543017407
$GPGGA,220730.00,3510.5668,N,12127.9920,W,1,10,0.8,16.6,M,-32.3,M,,*62
$PYRTM,2024,124.921907187303,16.031554597442
$GPGGA,220731.00,3510.5666,N,12127.9920,W,1,10,0.8,16.6,M,-32.3,M,,*6D
$PYRTM,2024,124.921918764016,16.031566174155
$GPGGA,220732.00,3510.5664,N,12127.9920,W,1,10,0.8,16.6,M,-32.3,M,,*6C
$PYRTM,2024,124.921930334838,16.031577744977
$GPGGA,220733.00,3510.5661,N,12127.9919,W,1,10,0.8,16.6,M,-32.3,M,,*62
$PYRTM,2024,124.921941908391,16.031589318530
$GPGGA,220734.00,3510.5658,N,12127.9919,W,1,10,0.8,16.6,M,-32.3,M,,*6F
$PYRTM,2024,124.921953482616,16.031600892755
$GPGGA,220735.00,3510.5656,N,12127.9918,W,1,10,0.8,16.6,M,-32.3,M,,*61
$PYRTM,2024,124.921963668194,16.031611078345
$GPGGA,220736.00,3510.5653,N,12127.9916,W,1,10,0.8,16.6,M,-32.3,M,,*69
$PYRTM,2024,124.921975584456,16.031622994595
$GPGGA,220737.00,3510.5650,N,12127.9915,W,1,10,0.8,16.6,M,-32.3,M,,*68
$PYRTM,2024,124.921988207222,16.031635617361
$GPGGA,220738.00,3510.5647,N,12127.9915,W,1,10,0.8,16.6,M,-32.3,M,,*61
$PYRTM,2024,124.921999779039,16.031647189190
$GPGGA,220739.00,3510.5645,N,12127.9916,W,1,10,0.8,16.6,M,-32.3,M,,*61
$PYRTM,2024,124.922011356713,16.031658766852
$GPGGA,220740.00,3510.5644,N,12127.9916,W,1,10,0.8,16.6,M,-32.3,M,,*6E
$PYRTM,2024,124.922022928032,16.031670338183
$GPGGA,220741.00,3510.5640,N,12127.9912,W,1,10,0.8,15.6,M,-32.3,M,,*6C
$PYRTM,2024,124.922034516829,16.031681926968
$GPGGA,220742.00,3510.5634,N,12127.9909,W,1,10,0.8,15.6,M,-32.3,M,,*66
$PYRTM,2024,124.922046071273,16.031693481412
$GPGGA,220743.00,3510.5630,N,12127.9908,W,1,10,0.8,15.6,M,-32.3,M,,*62
$PYRTM,2024,124.922057651123,16.031705061262
$GPGGA,220744.00,3510.5627,N,12127.9909,W,1,10,0.8,15.6,M,-32.3,M,,*62
$PYRTM,2024,124.922069224005,16.031716634144
$GPGGA,220745.00,3510.5625,N,12127.9908,W,1,10,0.8,15.7,M,-32.3,M,,*61
$PYRTM,2024,124.922080799086,16.031728209225
$GPGGA,220746.00,3510.5622,N,12127.9907,W,1,10,0.8,15.7,M,-32.3,M,,*6A
$PYRTM,2024,124.922092368287,16.031739778438
$GPGGA,220747.00,3510.5617,N,12127.9904,W,1,10,0.8,16.3,M,-32.3,M,,*69
$PYRTM,2024,124.922103947766,16.031751357905
$GPGGA,220748.00,3510.5612,N,12127.9901,W,1,10,0.8,16.3,M,-32.3,M,,*66
$PYRTM,2024,124.922115520197,16.031762930336
$GPGGA,220749.00,3510.5608,N,12127.9900,W,1,10,0.8,16.3,M,-32.3,M,,*6D
$PYRTM,2024,124.922127099201,16.031774509352
$GPGGA,220750.00,3510.5605,N,12127.9901,W,1,10,0.8,16.3,M,-32.3,M,,*69
$PYRTM,2024,124.922138669676,16.031786079815
$GPGGA,220751.00,3510.5602,N,12127.9903,W,1,10,0.8,16.3,M,-32.3,M,,*6D
$PYRTM,2024,124.922150242905,16.031797653044
$GPGGA,220752.00,3510.5598,N,12127.9901,W,1,10,0.8,16.3,M,-32.3,M,,*6C
$PYRTM,2024,124.922161817801,16.031809227940
$GPGGA,220753.00,3510.5594,N,12127.9899,W,1,10,0.8,16.3,M,-32.3,M,,*61
$PYRTM,2024,124.922173391956,16.031820802095
$GPGGA,220754.00,3510.5588,N,12127.9898,W,1,10,0.8,16.3,M,-32.3,M,,*6A
$PYRTM,2024,124.922184962975,16.031832373125
$GPGGA,220755.00,3510.5584,N,12127.9900,W,1,10,0.8,16.3,M,-32.3,M,,*67
$PYRTM,2024,124.922196540949,16.031843951088
$GPGGA,220756.00,3510.5582,N,12127.9904,W,1,10,0.8,16.3,M,-32.3,M,,*66
$PYRTM,2024,124.922208113032,16.031855523171
$GPGGA,220757.00,3510.5578,N,12127.9907,W,1,10,0.8,16.3,M,-32.3,M,,*61
$PYRTM,2024,124.922219688831,16.031867098970
$GPGGA,220758.00,3510.5572,N,12127.9908,W,1,10,0.8,15.8,M,-32.3,M,,*63
$PYRTM,2024,124.922231257141,16.031878667280
$GPGGA,220759.00,3510.5567,N,12127.9905,W,1,10,0.8,15.7,M,-32.3,M,,*64
$PYRTM,2024,124.922242839583,16.031890249722
$GPGGA,220800.00,3510.5563,N,12127.9904,W,1,10,0.8,15.9,M,-32.3,M,,*6C
$PYRTM,2024,124.922254410579,16.031901820718
$GPGGA,220801.00,3510.5559,N,12127.9907,W,1,10,0.8,16.0,M,-32.3,M,,*6D
$PYRTM,2024,124.922265984919,16.031913395058
$GPGGA,220802.00,3510.5556,N,12127.9912,W,1,10,0.8,16.0,M,-32.3,M,,*65
$PYRTM,2024,124.922277558704,16.031924968843
$GPGGA,220803.00,3510.5552,N,12127.9915,W,1,10,0.8,16.0,M,-32.3,M,,*67
$PYRTM,2024,124.922289135382,16.031936545521
$GPGGA,220804.00,3510.5547,N,12127.9911,W,1,10,0.8,15.8,M,-32.3,M,,*6B
$PYRTM,2024,124.922300708287,16.031948118438
$GPGGA,220805.00,3510.5540,N,12127.9906,W,1,10,0.8,16.5,M,-32.3,M,,*65
$PYRTM,2024,124.922310892639,16.031958302778
$GPGGA,220806.00,3510.5535,N,12127.9905,W,1,10,0.8,16.5,M,-32.3,M,,*67
$PYRTM,2024,124.922322814363,16.031970224502
$GPGGA,220807.00,3510.5531,N,12127.9909,W,1,10,0.8,15.7,M,-32.3,M,,*6F
$PYRTM,2024,124.922335433275,16.031982843426
$GPGGA,220808.00,3510.5526,N,12127.9912,W,1,10,0.8,15.6,M,-32.3,M,,*6D
$PYRTM,2024,124.922346999144,16.031994409282
$GPGGA,220809.00,3510.5520,N,12127.9913,W,1,10,0.8,13.8,M,-32.3,M,,*63
$PYRTM,2024,124.922358581574,16.032005991713
$GPGGA,220810.00,3510.5515,N,12127.9912,W,1,10,0.8,14.0,M,-32.3,M,,*63
$PYRTM,2024,124.922370151829,16.032017561968
$GPGGA,220811.00,3510.5510,N,12127.9912,W,1,10,0.8,14.9,M,-32.3,M,,*6E
$PYRTM,2024,124.922381725822,16.032029135961
$GPGGA,220812.00,3510.5505,N,12127.9914,W,1,10,0.8,14.9,M,-32.3,M,,*6F
$PYRTM,2024,124.922392375926,16.032039786065
$GPGGA,220813.00,3510.5500,N,12127.9914,W,1,10,0.8,15.0,M,-32.3,M,,*63
$PYRTM,2024,124.922404291389,16.032051701539
$GPGGA,220814.00,3510.5496,N,12127.9913,W,1,10,0.8,14.9,M,-32.3,M,,*65
$PYRTM,2024,124.922415054931,16.032062465081
$GPGGA,220815.00,3510.5490,N,12127.9914,W,1,10,0.8,14.4,M,-32.3,M,,*68
$PYRTM,2024,124.922426166875,16.032073577025
$GPGGA,220816.00,3510.5485,N,12127.9917,W,1,10,0.8,14.3,M,-32.3,M,,*6B
$PYRTM,2024,124.922437282211,16.032084692350
$GPGGA,220817.00,3510.5480,N,12127.9919,W,1,10,0.8,12.6,M,-32.3,M,,*62
$PYRTM,2024,124.922448397315,16.032095807477
$GPGGA,220818.00,3510.5474,N,12127.9918,W,1,10,0.8,15.5,M,-32.3,M,,*63
$PYRTM,2024,124.922459504572,16.032106914722
$GPGGA,220819.00,3510.5468,N,12127.9917,W,1,10,0.8,14.0,M,-32.3,M,,*64
$PYRTM,2024,124.922470618137,16.032118028275
$GPGGA,220820.00,3510.5462,N,12127.9918,W,1,10,0.8,14.4,M,-32.3,M,,*6F
$PYRTM,2024,124.922481741100,16.032129151238
$GPGGA,220821.00,3510.5459,N,12127.9921,W,1,10,0.8,14.5,M,-32.3,M,,*6D
$PYRTM,2024,124.922492840903,16.032140251042
$GPGGA,220822.00,3510.5455,N,12127.9924,W,1,10,0.8,14.1,M,-32.3,M,,*63
$PYRTM,2024,124.922511356956,16.032158767095
$GPGGA,220823.00,3510.5450,N,12127.9925,W,1,10,0.8,14.3,M,-32.3,M,,*64
$PYRTM,2024,124.922522468414,16.032169878553
$GPGGA,220824.00,3510.5444,N,12127.9923,W,1,10,0.8,16.0,M,-32.3,M,,*61
$PYRTM,2024,124.922533570532,16.032180980671
$GPGGA,220825.00,3510.5437,N,12127.9923,W,1,10,0.8,17.5,M,-32.3,M,,*60
$PYRTM,2024,124.922544677454,16.032192087593
$GPGGA,220826.00,3510.5431,N,12127.9926,W,1,10,0.8,16.8,M,-32.3,M,,*6C
$PYRTM,2024,124.922555800961,16.032203211100
$GPGGA,220827.00,3510.5425,N,12127.9930,W,1,10,0.8,14.8,M,-32.3,M,,*6D
$PYRTM,2024,124.922566916921,16.032214327060
$GPGGA,220828.00,3510.5419,N,12127.9933,W,1,10,0.8,14.4,M,-32.3,M,,*62
$PYRTM,2024,124.922578025035,16.032225435174
$GPGGA,220829.00,3510.5414,N,12127.9934,W,1,10,0.8,13.9,M,-32.3,M,,*63
$PYRTM,2024,124.922589136979,16.032236547118
$GPGGA,220830.00,3510.5407,N,12127.9935,W,1,10,0.8,13.3,M,-32.3,M,,*62
$PYRTM,2024,124.922600241586,16.032247651725
$GPGGA,220831.00,3510.5401,N,12127.9935,W,1,10,0.8,11.7,M,-32.3,M,,*63
$PYRTM,2024,124.922611820961,16.032259231100
$GPGGA,220832.00,3510.5396,N,12127.9936,W,1,10,0.8,12.0,M,-32.3,M,,*6E
$PYRTM,2024,124.922622931609,16.032270341748
$GPGGA,220833.00,3510.5391,N,12127.9937,W,1,10,0.8,13.4,M,-32.3,M,,*6C
$PYRTM,2024,124.922634037674,16.032281447824
$GPGGA,220834.00,3510.5385,N,12127.9939,W,1,10,0.8,13.0,M,-32.3,M,,*64
$PYRTM,2024,124.922645148692,16.032292558831
$GPGGA,220835.00,3510.5380,N,12127.9941,W,1,10,0.8,12.6,M,-32.3,M,,*68
$PYRTM,2024,124.922660767188,16.032308177326
