$PYRTM,2024,122.250008975139,13.359656385278
$GPGGA,055959.00,3324.1606,N,11915.1615,W,1,09,1.0,12.5,M,-34.8,M,,*6E
$PYRTM,2024,122.250020548090,13.359667958229
$GPGGA,060000.00,3324.1615,N,11915.1633,W,1,09,1.0,12.9,M,-34.8,M,,*67
$PYRTM,2024,122.250032122130,13.359679532269
$GPGGA,060001.00,3324.1626,N,11915.1650,W,1,09,1.0,16.1,M,-34.8,M,,*6F
$PYRTM,2024,122.250043692245,13.359691102384
$GPGGA,060002.00,3324.1635,N,11915.1676,W,1,09,1.0,15.7,M,-34.8,M,,*6F
$PYRTM,2024,122.250055285463,13.359702695613
$GPGGA,060003.00,3324.1641,N,11915.1703,W,1,09,1.0,14.0,M,-34.8,M,,*68
$PYRTM,2024,122.250066845023,13.359714255162
$GPGGA,060004.00,3324.1646,N,11915.1727,W,1,09,1.0,14.0,M,-34.8,M,,*6E
$PYRTM,2024,122.250078421840,13.359725831979
$GPGGA,060005.00,3324.1656,N,11915.1749,W,1,09,1.0,13.7,M,-34.8,M,,*66
$PYRTM,2024,122.250089993461,13.359737403600
$GPGGA,060006.00,3324.1668,N,11915.1769,W,1,09,1.0,16.9,M,-34.8,M,,*61
$PYRTM,2024,122.250101567002,13.359748977141
$GPGGA,060007.00,3324.1680,N,11915.1790,W,1,09,1.0,19.9,M,-34.8,M,,*6F
$PYRTM,2024,122.250113604468,13.359761014606
$GPGGA,060008.00,3324.1688,N,11915.1816,W,1,09,1.0,18.9,M,-34.8,M,,*68
$PYRTM,2024,122.250124717049,13.359772127187
$GPGGA,060009.00,3324.1696,N,11915.1841,W,1,09,1.0,17.7,M,-34.8,M,,*65
$PYRTM,2024,122.250136291169,13.359783701308
$GPGGA,060010.00,3324.1705,N,11915.1864,W,1,09,1.0,19.0,M,-34.8,M,,*68
$PYRTM,2024,122.250147859086,13.359795269225
$GPGGA,060011.00,3324.1715,N,11915.1888,W,1,09,1.0,14.1,M,-34.8,M,,*66
$PYRTM,2024,122.250159438171,13.359806848310
$GPGGA,060012.00,3324.1726,N,11915.1913,W,1,09,1.0,12.5,M,-34.8,M,,*64
$PYRTM,2024,122.250170087558,13.359817497697
$GPGGA,060013.00,3324.1735,N,11915.1936,W,1,09,1.0,13.8,M,-34.8,M,,*6C
$PYRTM,2024,122.250181546505,13.359828956644
$GPGGA,060014.00,3324.1743,N,11915.1958,W,1,09,1.0,12.8,M,-34.8,M,,*63
$PYRTM,2024,122.250194161933,13.359841572083
$GPGGA,060015.00,3324.1752,N,11915.1983,W,1,09,1.0,13.1,M,-34.8,M,,*6C
$PYRTM,2024,122.250205735197,13.359853145336
$GPGGA,060016.00,3324.1762,N,11915.2011,W,1,09,1.0,12.1,M,-34.8,M,,*6C
$PYRTM,2024,122.250217312176,13.359864722315
$GPGGA,060017.00,3324.1771,N,11915.2035,W,1,09,1.0,14.1,M,-34.8,M,,*6F
$PYRTM,2024,122.250228879051,13.359876289201
$GPGGA,060018.00,3324.1780,N,11915.2055,W,1,09,1.0,13.6,M,-34.8,M,,*68
$PYRTM,2024,122.250240472535,13.359887882674
$GPGGA,060019.00,3324.1789,N,11915.2077,W,1,09,1.0,13.3,M,-34.8,M,,*65
$PYRTM,2024,122.250252033380,13.359899443530
$GPGGA,060020.00,3324.1799,N,11915.2104,W,1,09,1.0,12.7,M,-34.8,M,,*6E
$PYRTM,2024,122.250263608854,13.359911018993
$GPGGA,060021.00,3324.1807,N,11915.2129,W,1,09,1.0,13.0,M,-34.8,M,,*6E
$PYRTM,2024,122.250275179572,13.359922589711
$GPGGA,060022.00,3324.1814,N,11915.2152,W,1,09,1.0,16.5,M,-34.8,M,,*63
$PYRTM,2024,122.250286754722,13.359934164861
$GPGGA,060023.00,3324.1824,N,11915.2175,W,1,09,1.0,15.5,M,-34.8,M,,*67
$PYRTM,2024,122.250298327905,13.359945738044
$GPGGA,060024.00,3324.1834,N,11915.2200,W,1,09,1.0,12.7,M,-34.8,M,,*65
$PYRTM,2024,122.250309903970,13.359957314109
$GPGGA,060025.00,3324.1844,N,11915.2226,W,1,09,1.0,12.7,M,-34.8,M,,*67
$PYRTM,2024,122.250321476736,13.359968886875
$GPGGA,060026.00,3324.1854,N,11915.2250,W,1,09,1.0,12.3,M,-34.8,M,,*60
$PYRTM,2024,122.250333050498,13.359980460637
$GPGGA,060027.00,3324.1864,N,11915.2275,W,1,09,1.0,14.9,M,-34.8,M,,*69
$PYRTM,2024,122.250344626262,13.359992036400
$GPGGA,060028.00,3324.1874,N,11915.2299,W,1,09,1.0,12.3,M,-34.8,M,,*69
$PYRTM,2024,122.250356199583,13.360003609722
$GPGGA,060029.00,3324.1884,N,11915.2324,W,1,09,1.0,12.2,M,-34.8,M,,*61
$PYRTM,2024,122.250367775775,13.360015185926
$GPGGA,060030.00,3324.1894,N,11915.2349,W,1,09,1.0,11.8,M,-34.8,M,,*6A
$PYRTM,2024,122.250379362060,13.360026772199
$GPGGA,060031.00,3324.1904,N,11915.2374,W,1,09,1.0,12.7,M,-34.8,M,,*61
$PYRTM,2024,122.250390921238,13.360038331377
$GPGGA,060032.00,3324.1913,N,11915.2398,W,1,09,1.0,10.3,M,-34.8,M,,*60
$PYRTM,2024,122.250402510903,13.360049921053
$GPGGA,060033.00,3324.1922,N,11915.2423,W,1,09,1.0,8.9,M,-34.8,M,,*57
$PYRTM,2024,122.250414065185,13.360061475324
$GPGGA,060034.00,3324.1933,N,11915.2447,W,1,09,1.0,9.3,M,-34.8,M,,*59
$PYRTM,2024,122.250425643900,13.360073054039
$GPGGA,060035.00,3324.1944,N,11915.2473,W,1,09,1.0,9.6,M,-34.8,M,,*5A
$PYRTM,2024,122.250437213553,13.360084623704
$GPGGA,060036.00,3324.1952,N,11915.2499,W,1,09,1.0,11.9,M,-34.8,M,,*6C
$PYRTM,2024,122.250448778484,13.360096188623
$GPGGA,060037.00,3324.1961,N,11915.2522,W,1,09,1.0,12.8,M,-34.8,M,,*6E
$PYRTM,2024,122.250460945475,13.360108355625
$GPGGA,060038.00,3324.1969,N,11915.2547,W,1,09,1.0,10.9,M,-34.8,M,,*69
$PYRTM,2024,122.250472521042,13.360119931181
$GPGGA,060039.00,3324.1980,N,11915.2572,W,1,09,1.0,10.1,M,-34.8,M,,*61
$PYRTM,2024,122.250484096632,13.360131506771
$GPGGA,060040.00,3324.1990,N,11915.2599,W,1,09,1.0,10.2,M,-34.8,M,,*68
$PYRTM,2024,122.250495662731,13.360143072870
$GPGGA,060041.00,3324.1998,N,11915.2626,W,1,09,1.0,9.3,M,-34.8,M,,*5F
$PYRTM,2024,122.250507245370,13.360154655509
$GPGGA,060042.00,3324.2005,N,11915.2652,W,1,09,1.0,11.4,M,-34.8,M,,*6F
$PYRTM,2024,122.250523549144,13.360170959294
$GPGGA,060043.00,3324.2014,N,11915.2677,W,1,09,1.0,10.0,M,-34.8,M,,*6C
$PYRTM,2024,122.250535586470,13.360182996609
$GPGGA,060044.00,3324.2024,N,11915.2703,W,1,09,1.0,8.1,M,-34.8,M,,*52
$PYRTM,2024,122.250548665312,13.360196075451
$GPGGA,060045.00,3324.2034,N,11915.2728,W,1,09,1.0,9.5,M,-34.8,M,,*5E
$PYRTM,2024,122.250559775069,13.360207185208
$GPGGA,060046.00,3324.2042,N,11915.2755,W,1,09,1.0,9.9,M,-34.8,M,,*5A
$PYRTM,2024,122.250570886516,13.360218296655
$GPGGA,060047.00,3324.2050,N,11915.2782,W,1,09,1.0,10.5,M,-34.8,M,,*66
$PYRTM,2024,122.250581997512,13.360229407650
$GPGGA,060048.00,3324.2057,N,11915.2809,W,1,09,1.0,12.0,M,-34.8,M,,*65
$PYRTM,2024,122.250593224826,13.360240634977
$GPGGA,060049.00,3324.2066,N,11915.2836,W,1,09,1.0,10.3,M,-34.8,M,,*6B
$PYRTM,2024,122.250604336273,13.360251746412
$GPGGA,060050.00,3324.2077,N,11915.2864,W,1,09,1.0,7.0,M,-34.8,M,,*51
$PYRTM,2024,122.250615445197,13.360262855336
$GPGGA,060051.00,3324.2086,N,11915.2890,W,1,09,1.0,8.6,M,-34.8,M,,*5C
$PYRTM,2024,122.250626557940,13.360273968090
$GPGGA,060052.00,3324.2093,N,11915.2916,W,1,09,1.0,9.0,M,-34.8,M,,*53
$PYRTM,2024,122.250637667176,13.360285077326
$GPGGA,060053.00,3324.2102,N,11915.2942,W,1,09,1.0,8.6,M,-34.8,M,,*5D
$PYRTM,2024,122.250648778785,13.360296188924
$GPGGA,060054.00,3324.2110,N,11915.2969,W,1,09,1.0,9.0,M,-34.8,M,,*57
$PYRTM,2024,122.250659906505,13.360307316644
$GPGGA,060055.00,3324.2118,N,11915.2992,W,1,09,1.0,10.3,M,-34.8,M,,*61
$PYRTM,2024,122.250671000417,13.360318410556
$GPGGA,060056.00,3324.2128,N,11915.3018,W,1,09,1.0,8.7,M,-34.8,M,,*56
$PYRTM,2024,122.250682113345,13.360329523484
$GPGGA,060057.00,3324.2136,N,11915.3046,W,1,09,1.0,9.5,M,-34.8,M,,*50
$PYRTM,2024,122.250693224259,13.360340634398
$GPGGA,060058.00,3324.2146,N,11915.3071,W,1,09,1.0,10.7,M,-34.8,M,,*66
$PYRTM,2024,122.250704335833,13.360351745972
$GPGGA,060059.00,3324.2155,N,11915.3097,W,1,09,1.0,9.6,M,-34.8,M,,*54
$PYRTM,2024,122.250715578218,13.360362988356
$GPGGA,060100.00,3324.2165,N,11915.3125,W,1,09,1.0,11.3,M,-34.8,M,,*6E
$PYRTM,2024,122.250726687419,13.360374097558
$GPGGA,060101.00,3324.2174,N,11915.3153,W,1,09,1.0,11.7,M,-34.8,M,,*6A
$PYRTM,2024,122.250737799502,13.360385209641
$GPGGA,060102.00,3324.2182,N,11915.3178,W,1,09,1.0,11.8,M,-34.8,M,,*66
$PYRTM,2024,122.250749372477,13.360396782616
$GPGGA,060103.00,3324.2193,N,11915.3201,W,1,09,1.0,10.8,M,-34.8,M,,*6B
$PYRTM,2024,122.250760482824,13.360407892963
$GPGGA,060104.00,3324.2205,N,11915.3224,W,1,09,1.0,11.7,M,-34.8,M,,*69
$PYRTM,2024,122.250771697234,13.360419107373
$GPGGA,060105.00,3324.2217,N,11915.3251,W,1,09,1.0,10.1,M,-34.8,M,,*6E
$PYRTM,2024,122.250782808067,13.360430218206
$GPGGA,060106.00,3324.2228,N,11915.3280,W,1,09,1.0,10.1,M,-34.8,M,,*6D
$PYRTM,2024,122.250793921296,13.360441331435
$GPGGA,060107.00,3324.2235,N,11915.3306,W,1,09,1.0,11.6,M,-34.8,M,,*69
$PYRTM,2024,122.250805506748,13.360452916887
$GPGGA,060108.00,3324.2243,N,11915.3328,W,1,09,1.0,12.7,M,-34.8,M,,*69
$PYRTM,2024,122.250816621308,13.360464031447
$GPGGA,060109.00,3324.2254,N,11915.3350,W,1,09,1.0,14.6,M,-34.8,M,,*66
$PYRTM,2024,122.250827845301,13.360475255440
$GPGGA,060110.00,3324.2263,N,11915.3377,W,1,09,1.0,13.2,M,-34.8,M,,*6C
$PYRTM,2024,122.250838959734,13.360486369873
$GPGGA,060111.00,3324.2270,N,11915.3406,W,1,09,1.0,12.5,M,-34.8,M,,*68
$PYRTM,2024,122.250850065023,13.360497475162
$GPGGA,060112.00,3324.2276,N,11915.3431,W,1,09,1.0,12.0,M,-34.8,M,,*6C
$PYRTM,2024,122.250865797523,13.360513207662
$GPGGA,060113.00,3324.2285,N,11915.3454,W,1,09,1.0,12.0,M,-34.8,M,,*62
$PYRTM,2024,122.250877035787,13.360524445938
$GPGGA,060114.00,3324.2295,N,11915.3480,W,1,09,1.0,11.6,M,-34.8,M,,*68
$PYRTM,2024,122.250888595498,13.360536005637
$GPGGA,060115.00,3324.2305,N,11915.3506,W,1,09,1.0,13.5,M,-34.8,M,,*6F
$PYRTM,2024,122.250900184560,13.360547594699
$GPGGA,060116.00,3324.2315,N,11915.3528,W,1,09,1.0,11.9,M,-34.8,M,,*6F
$PYRTM,2024,122.250911743866,13.360559154005
$GPGGA,060117.00,3324.2323,N,11915.3555,W,1,09,1.0,12.2,M,-34.8,M,,*69
$PYRTM,2024,122.250923331806,13.360570741944
$GPGGA,060118.00,3324.2330,N,11915.3584,W,1,09,1.0,12.7,M,-34.8,M,,*6D
$PYRTM,2024,122.250934892130,13.360582302269
$GPGGA,060119.00,3324.2337,N,11915.3609,W,1,09,1.0,14.3,M,-34.8,M,,*6F
$PYRTM,2024,122.250946480660,13.360593890810
$GPGGA,060120.00,3324.2347,N,11915.3629,W,1,09,1.0,13.1,M,-34.8,M,,*65
$PYRTM,2024,122.250958041586,13.360605451736
$GPGGA,060121.00,3324.2359,N,11915.3653,W,1,09,1.0,12.2,M,-34.8,M,,*64
$PYRTM,2024,122.250969624514,13.360617034664
$GPGGA,060122.00,3324.2370,N,11915.3681,W,1,09,1.0,11.4,M,-34.8,M,,*66
$PYRTM,2024,122.250981189595,13.360628599734
$GPGGA,060123.00,3324.2377,N,11915.3706,W,1,09,1.0,12.8,M,-34.8,M,,*61
$PYRTM,2024,122.250992777697,13.360640187836
$GPGGA,060124.00,3324.2383,N,11915.3727,W,1,09,1.0,13.0,M,-34.8,M,,*67
$PYRTM,2024,122.251004335833,13.360651745972
$GPGGA,060125.00,3324.2394,N,11915.3751,W,1,09,1.0,12.0,M,-34.8,M,,*60
$PYRTM,2024,122.251015927986,13.360663338125
$GPGGA,060126.00,3324.2406,N,11915.3778,W,1,09,1.0,10.7,M,-34.8,M,,*61
$PYRTM,2024,122.251027485324,13.360674895475
$GPGGA,060127.00,3324.2414,N,11915.3802,W,1,09,1.0,10.4,M,-34.8,M,,*62
$PYRTM,2024,122.251039074282,13.360686484421
$GPGGA,060128.00,3324.2421,N,11915.3826,W,1,09,1.0,13.4,M,-34.8,M,,*6E
$PYRTM,2024,122.251050633669,13.360698043808
$GPGGA,060129.00,3324.2428,N,11915.3851,W,1,09,1.0,13.0,M,-34.8,M,,*62
$PYRTM,2024,122.251062221829,13.360709631968
$GPGGA,060130.00,3324.2436,N,11915.3878,W,1,09,1.0,15.1,M,-34.8,M,,*69
$PYRTM,2024,122.251073781794,13.360721191933
$GPGGA,060131.00,3324.2445,N,11915.3902,W,1,09,1.0,14.1,M,-34.8,M,,*61
$PYRTM,2024,122.251085371863,13.360732782002
$GPGGA,060132.00,3324.2455,N,11915.3924,W,1,09,1.0,17.3,M,-34.8,M,,*66
$PYRTM,2024,122.251096930752,13.360744340891
$GPGGA,060133.00,3324.2464,N,11915.3948,W,1,09,1.0,13.1,M,-34.8,M,,*69
$PYRTM,2024,122.251108518657,13.360755928796
$GPGGA,060134.00,3324.2470,N,11915.3972,W,1,09,1.0,14.0,M,-34.8,M,,*64
$PYRTM,2024,122.251120078877,13.360767489028
$GPGGA,060135.00,3324.2477,N,11915.3996,W,1,09,1.0,14.4,M,-34.8,M,,*6C
$PYRTM,2024,122.251131669155,13.360779079294
$GPGGA,060136.00,3324.2484,N,11915.4022,W,1,09,1.0,9.6,M,-34.8,M,,*5C
$PYRTM,2024,122.251143228461,13.360790638611
$GPGGA,060137.00,3324.2492,N,11915.4047,W,1,09,1.0,12.5,M,-34.8,M,,*60
$PYRTM,2024,122.251155149965,13.360802560104
$GPGGA,060138.00,3324.2502,N,11915.4068,W,1,09,1.0,13.9,M,-34.8,M,,*67
$PYRTM,2024,122.251166377083,13.360813787222
$GPGGA,060139.00,3324.2512,N,11915.4094,W,1,09,1.0,16.3,M,-34.8,M,,*6B
$PYRTM,2024,122.251177967245,13.360825377396
$GPGGA,060140.00,3324.2521,N,11915.4122,W,1,09,1.0,14.3,M,-34.8,M,,*6B
$PYRTM,2024,122.251189524907,13.360836935046
$GPGGA,060141.00,3324.2530,N,11915.4145,W,1,09,1.0,13.5,M,-34.8,M,,*6A
$PYRTM,2024,122.251201114688,13.360848524826
$GPGGA,060142.00,3324.2540,N,11915.4162,W,1,09,1.0,14.5,M,-34.8,M,,*6C
$PYRTM,2024,122.251211414398,13.360858824537
$GPGGA,060143.00,3324.2553,N,11915.4184,W,1,09,1.0,12.9,M,-34.8,M,,*6D
$PYRTM,2024,122.251223218484,13.360870628623
$GPGGA,060144.00,3324.2564,N,11915.4212,W,1,09,1.0,11.2,M,-34.8,M,,*6A
$PYRTM,2024,122.251235819873,13.360883230012
$GPGGA,060145.00,3324.2570,N,11915.4238,W,1,09,1.0,13.1,M,-34.8,M,,*67
$PYRTM,2024,122.251247403484,13.360894813634
$GPGGA,060146.00,3324.2576,N,11915.4258,W,1,09,1.0,12.4,M,-34.8,M,,*60
$PYRTM,2024,122.251258970833,13.360906380972
$GPGGA,060147.00,3324.2584,N,11915.4279,W,1,09,1.0,12.6,M,-34.8,M,,*6D
$PYRTM,2024,122.251270561100,13.360917971238
$GPGGA,060148.00,3324.2595,N,11915.4304,W,1,09,1.0,13.2,M,-34.8,M,,*6C
$PYRTM,2024,122.251282116771,13.360929526910
$GPGGA,060149.00,3324.2604,N,11915.4330,W,1,09,1.0,12.8,M,-34.8,M,,*6A
$PYRTM,2024,122.251293700718,13.360941110856
$GPGGA,060150.00,3324.2610,N,11915.4355,W,1,09,1.0,13.5,M,-34.8,M,,*68
$PYRTM,2024,122.251305266574,13.360952676713
$GPGGA,060151.00,3324.2616,N,11915.4378,W,1,09,1.0,9.9,M,-34.8,M,,*57
$PYRTM,2024,122.251316853507,13.360964263646
$GPGGA,060152.00,3324.2626,N,11915.4401,W,1,09,1.0,10.7,M,-34.8,M,,*68
$PYRTM,2024,122.251328763102,13.360976173241
$GPGGA,060153.00,3324.2637,N,11915.4424,W,1,09,1.0,11.2,M,-34.8,M,,*6A
$PYRTM,2024,122.251340002477,13.360987412627
$GPGGA,060154.00,3324.2648,N,11915.4450,W,1,09,1.0,12.7,M,-34.8,M,,*60
$PYRTM,2024,122.251351561400,13.360998971539
$GPGGA,060155.00,3324.2655,N,11915.4478,W,1,09,1.0,11.0,M,-34.8,M,,*63
$PYRTM,2024,122.251363153183,13.361010563322
$GPGGA,060156.00,3324.2662,N,11915.4505,W,1,09,1.0,10.0,M,-34.8,M,,*6E
$PYRTM,2024,122.251374709236,13.361022119375
$GPGGA,060157.00,3324.2670,N,11915.4529,W,1,09,1.0,13.7,M,-34.8,M,,*66
$PYRTM,2024,122.251386299479,13.361033709618
$GPGGA,060158.00,3324.2681,N,11915.4553,W,1,09,1.0,13.0,M,-34.8,M,,*6D
$PYRTM,2024,122.251397857523,13.361045267662
$GPGGA,060159.00,3324.2691,N,11915.4580,W,1,09,1.0,13.0,M,-34.8,M,,*63
$PYRTM,2024,122.251409442500,13.361056852639
$GPGGA,060200.00,3324.2699,N,11915.4608,W,1,09,1.0,12.8,M,-34.8,M,,*6E
$PYRTM,2024,122.251421006968,13.361068417106
$GPGGA,060201.00,3324.2705,N,11915.4632,W,1,09,1.0,14.8,M,-34.8,M,,*64
$PYRTM,2024,122.251432595046,13.361080005185
$GPGGA,060202.00,3324.2712,N,11915.4652,W,1,09,1.0,15.3,M,-34.8,M,,*6D
$PYRTM,2024,122.251444154826,13.361091564965
$GPGGA,060203.00,3324.2723,N,11915.4675,W,1,09,1.0,14.2,M,-34.8,M,,*6B
$PYRTM,2024,122.251455743495,13.361103153634
$GPGGA,060204.00,3324.2732,N,11915.4704,W,1,09,1.0,11.4,M,-34.8,M,,*68
$PYRTM,2024,122.251467302407,13.361114712558
$GPGGA,060205.00,3324.2740,N,11915.4733,W,1,09,1.0,11.4,M,-34.8,M,,*68
$PYRTM,2024,122.251478890775,13.361126300914
$GPGGA,060206.00,3324.2747,N,11915.4756,W,1,09,1.0,12.3,M,-34.8,M,,*6B
$PYRTM,2024,122.251490452535,13.361137862685
$GPGGA,060207.00,3324.2754,N,11915.4775,W,1,09,1.0,14.8,M,-34.8,M,,*64
$PYRTM,2024,122.251502489306,13.361149899444
$GPGGA,060208.00,3324.2766,N,11915.4799,W,1,09,1.0,15.0,M,-34.8,M,,*61
$PYRTM,2024,122.251513600000,13.361161010139
$GPGGA,060209.00,3324.2777,N,11915.4827,W,1,09,1.0,11.5,M,-34.8,M,,*6B
$PYRTM,2024,122.251525188032,13.361172598171
$GPGGA,060210.00,3324.2785,N,11915.4854,W,1,09,1.0,13.5,M,-34.8,M,,*68
$PYRTM,2024,122.251536747859,13.361184158009
$GPGGA,060211.00,3324.2789,N,11915.4877,W,1,09,1.0,12.4,M,-34.8,M,,*64
$PYRTM,2024,122.251548335706,13.361195745845
$GPGGA,060212.00,3324.2796,N,11915.4900,W,1,09,1.0,10.8,M,-34.8,M,,*66
$PYRTM,2024,122.251558637743,13.361206047882
$GPGGA,060213.00,3324.2806,N,11915.4924,W,1,09,1.0,10.9,M,-34.8,M,,*66
$PYRTM,2024,122.251570443704,13.361217853843
$GPGGA,060214.00,3324.2817,N,11915.4949,W,1,09,1.0,11.2,M,-34.8,M,,*60
$PYRTM,2024,122.251583046366,13.361230456505
$GPGGA,060215.00,3324.2825,N,11915.4975,W,1,09,1.0,13.4,M,-34.8,M,,*6B
$PYRTM,2024,122.251594641285,13.361242051424
$GPGGA,060216.00,3324.2832,N,11915.5000,W,1,09,1.0,14.2,M,-34.8,M,,*65
$PYRTM,2024,122.251606193588,13.361253603738
$GPGGA,060217.00,3324.2840,N,11915.5023,W,1,09,1.0,15.1,M,-34.8,M,,*62
$PYRTM,2024,122.251617780845,13.361265190984
$GPGGA,060218.00,3324.2849,N,11915.5049,W,1,09,1.0,13.2,M,-34.8,M,,*6D
$PYRTM,2024,122.251629341852,13.361276751991
$GPGGA,060219.00,3324.2860,N,11915.5076,W,1,09,1.0,12.0,M,-34.8,M,,*68
$PYRTM,2024,122.251640929028,13.361288339167
$GPGGA,060220.00,3324.2868,N,11915.5100,W,1,09,1.0,12.2,M,-34.8,M,,*68
$PYRTM,2024,122.251652490370,13.361299900509
$GPGGA,060221.00,3324.2875,N,11915.5122,W,1,09,1.0,11.7,M,-34.8,M,,*63
$PYRTM,2024,122.251664079190,13.361311489329
$GPGGA,060222.00,3324.2883,N,11915.5146,W,1,09,1.0,14.6,M,-34.8,M,,*6F
$PYRTM,2024,122.251675638067,13.361323048206
$GPGGA,060223.00,3324.2893,N,11915.5173,W,1,09,1.0,14.9,M,-34.8,M,,*66
$PYRTM,2024,122.251687225914,13.361334636053
$GPGGA,060224.00,3324.2902,N,11915.5197,W,1,09,1.0,14.3,M,-34.8,M,,*68
$PYRTM,2024,122.251698785567,13.361346195706
$GPGGA,060225.00,3324.2910,N,11915.5218,W,1,09,1.0,15.2,M,-34.8,M,,*6E
$PYRTM,2024,122.251710373738,13.361357783877
$GPGGA,060226.00,3324.2918,N,11915.5243,W,1,09,1.0,15.0,M,-34.8,M,,*69
$PYRTM,2024,122.251721936678,13.361369346817
$GPGGA,060227.00,3324.2926,N,11915.5271,W,1,09,1.0,12.7,M,-34.8,M,,*64
$PYRTM,2024,122.251733522882,13.361380933032
$GPGGA,060228.00,3324.2933,N,11915.5296,W,1,09,1.0,17.5,M,-34.8,M,,*61
$PYRTM,2024,122.251745083947,13.361392494086
$GPGGA,060229.00,3324.2941,N,11915.5318,W,1,09,1.0,16.7,M,-34.8,M,,*61
$PYRTM,2024,122.251756671019,13.361404081157
$GPGGA,060230.00,3324.2951,N,11915.5344,W,1,09,1.0,15.2,M,-34.8,M,,*67
$PYRTM,2024,122.251768231678,13.361415641817
$GPGGA,060231.00,3324.2960,N,11915.5373,W,1,09,1.0,15.9,M,-34.8,M,,*6B
$PYRTM,2024,122.251779821516,13.361427231655
$GPGGA,060232.00,3324.2966,N,11915.5400,W,1,09,1.0,15.7,M,-34.8,M,,*63
$PYRTM,2024,122.251791378125,13.361438788264
$GPGGA,060233.00,3324.2972,N,11915.5420,W,1,09,1.0,14.8,M,-34.8,M,,*6B
$PYRTM,2024,122.251802967130,13.361450377269
$GPGGA,060234.00,3324.2980,N,11915.5442,W,1,09,1.0,14.7,M,-34.8,M,,*6A
$PYRTM,2024,122.251814527153,13.361461937292
$GPGGA,060235.00,3324.2991,N,11915.5469,W,1,09,1.0,13.1,M,-34.8,M,,*63
$PYRTM,2024,122.251826115081,13.361473525220
$GPGGA,060236.00,3324.3000,N,11915.5496,W,1,09,1.0,12.7,M,-34.8,M,,*67
$PYRTM,2024,122.251837677755,13.361485087894
$GPGGA,060237.00,3324.3008,N,11915.5521,W,1,09,1.0,14.3,M,-34.8,M,,*61
$PYRTM,2024,122.251849829583,13.361497239722
$GPGGA,060238.00,3324.3014,N,11915.5543,W,1,09,1.0,11.6,M,-34.8,M,,*67
$PYRTM,2024,122.251861420787,13.361508830938
$GPGGA,060239.00,3324.3025,N,11915.5567,W,1,09,1.0,12.1,M,-34.8,M,,*66
$PYRTM,2024,122.251872977975,13.361520388113
$GPGGA,060240.00,3324.3035,N,11915.5596,W,1,09,1.0,10.3,M,-34.8,M,,*67
$PYRTM,2024,122.251884566412,13.361531976551
$GPGGA,060241.00,3324.3043,N,11915.5625,W,1,09,1.0,10.7,M,-34.8,M,,*68
$PYRTM,2024,122.251896125625,13.361543535775
$GPGGA,060242.00,3324.3051,N,11915.5648,W,1,09,1.0,14.0,M,-34.8,M,,*60
$PYRTM,2024,122.251906789132,13.361554199271
$GPGGA,060243.00,3324.3060,N,11915.5669,W,1,09,1.0,16.7,M,-34.8,M,,*65
$PYRTM,2024,122.251917899236,13.361565309375
$GPGGA,060244.00,3324.3071,N,11915.5695,W,1,09,1.0,14.8,M,-34.8,M,,*6C
$PYRTM,2024,122.251930269757,13.361577679896
$GPGGA,060245.00,3324.3082,N,11915.5723,W,1,09,1.0,14.5,M,-34.8,M,,*60
$PYRTM,2024,122.251941860116,13.361589270255
$GPGGA,060246.00,3324.3088,N,11915.5751,W,1,09,1.0,14.5,M,-34.8,M,,*6C
$PYRTM,2024,122.251953418426,13.361600828565
$GPGGA,060247.00,3324.3094,N,11915.5776,W,1,09,1.0,12.5,M,-34.8,M,,*63
$PYRTM,2024,122.251964079803,13.361611489942
$GPGGA,060248.00,3324.3104,N,11915.5798,W,1,09,1.0,11.9,M,-34.8,M,,*6B
$PYRTM,2024,122.251976117836,13.361623528009
$GPGGA,060249.00,3324.3114,N,11915.5821,W,1,09,1.0,14.4,M,-34.8,M,,*6E
$PYRTM,2024,122.251986866678,13.361634276817
$GPGGA,060250.00,3324.3122,N,11915.5847,W,1,09,1.0,14.1,M,-34.8,M,,*66
$PYRTM,2024,122.251997977662,13.361645387801
$GPGGA,060251.00,3324.3129,N,11915.5875,W,1,09,1.0,13.2,M,-34.8,M,,*69
$PYRTM,2024,122.252009087870,13.361656498009
$GPGGA,060252.00,3324.3136,N,11915.5903,W,1,09,1.0,10.5,M,-34.8,M,,*60
$PYRTM,2024,122.252020199722,13.361667609861
$GPGGA,060253.00,3324.3145,N,11915.5926,W,1,09,1.0,12.5,M,-34.8,M,,*60
$PYRTM,2024,122.252031441100,13.361678851238
$GPGGA,060254.00,3324.3154,N,11915.5948,W,1,09,1.0,10.8,M,-34.8,M,,*60
$PYRTM,2024,122.252042553206,13.361689963345
$GPGGA,060255.00,3324.3164,N,11915.5974,W,1,09,1.0,10.5,M,-34.8,M,,*60
$PYRTM,2024,122.252053667581,13.361701077720
$GPGGA,060256.00,3324.3174,N,11915.6004,W,1,09,1.0,12.6,M,-34.8,M,,*6E
$PYRTM,2024,122.252064774815,13.361712184954
$GPGGA,060257.00,3324.3180,N,11915.6032,W,1,09,1.0,11.5,M,-34.8,M,,*61
$PYRTM,2024,122.252075889144,13.361723299282
$GPGGA,060258.00,3324.3188,N,11915.6054,W,1,09,1.0,9.3,M,-34.8,M,,*59
$PYRTM,2024,122.252087112836,13.361734522975
$GPGGA,060259.00,3324.3198,N,11915.6076,W,1,09,1.0,10.0,M,-34.8,M,,*62
$PYRTM,2024,122.252098571852,13.361745981991
$GPGGA,060300.00,3324.3208,N,11915.6103,W,1,09,1.0,9.5,M,-34.8,M,,*5B
$PYRTM,2024,122.252110256748,13.361757666887
$GPGGA,060301.00,3324.3216,N,11915.6128,W,1,09,1.0,11.2,M,-34.8,M,,*62
$PYRTM,2024,122.252121822650,13.361769232789
$GPGGA,060302.00,3324.3223,N,11915.6151,W,1,09,1.0,12.3,M,-34.8,M,,*6B
$PYRTM,2024,122.252133413241,13.361780823380
$GPGGA,060303.00,3324.3230,N,11915.6176,W,1,09,1.0,10.8,M,-34.8,M,,*64
$PYRTM,2024,122.252144868009,13.361792278160
$GPGGA,060304.00,3324.3239,N,11915.6202,W,1,09,1.0,9.2,M,-34.8,M,,*58
$PYRTM,2024,122.252156561007,13.361803971146
$GPGGA,060305.00,3324.3248,N,11915.6226,W,1,09,1.0,11.2,M,-34.8,M,,*60
$PYRTM,2024,122.252168015405,13.361815425544
$GPGGA,060306.00,3324.3258,N,11915.6250,W,1,09,1.0,8.4,M,-34.8,M,,*5D
$PYRTM,2024,122.252179597662,13.361827007801
$GPGGA,060307.00,3324.3268,N,11915.6277,W,1,09,1.0,8.1,M,-34.8,M,,*5F
$PYRTM,2024,122.252191164074,13.361838574213
$GPGGA,060308.00,3324.3276,N,11915.6306,W,1,09,1.0,8.0,M,-34.8,M,,*59
$PYRTM,2024,122.252202737894,13.361850148032
$GPGGA,060309.00,3324.3284,N,11915.6330,W,1,09,1.0,9.3,M,-34.8,M,,*52
$PYRTM,2024,122.252214414387,13.361861824525
$GPGGA,060310.00,3324.3293,N,11915.6351,W,1,09,1.0,10.2,M,-34.8,M,,*62
$PYRTM,2024,122.252225886528,13.361873296667
$GPGGA,060311.00,3324.3303,N,11915.6375,W,1,09,1.0,9.9,M,-34.8,M,,*5E
$PYRTM,2024,122.252237563796,13.361884973935
$GPGGA,060312.00,3324.3314,N,11915.6404,W,1,09,1.0,10.7,M,-34.8,M,,*6C
$PYRTM,2024,122.252254346100,13.361901756238
$GPGGA,060313.00,3324.3323,N,11915.6431,W,1,09,1.0,13.3,M,-34.8,M,,*68
$PYRTM,2024,122.252265936667,13.361913346806
$GPGGA,060314.00,3324.3328,N,11915.6454,W,1,09,1.0,13.7,M,-34.8,M,,*63
$PYRTM,2024,122.252277495856,13.361924905995
$GPGGA,060315.00,3324.3336,N,11915.6476,W,1,09,1.0,12.2,M,-34.8,M,,*69
$PYRTM,2024,122.252289085185,13.361936495324
$GPGGA,060316.00,3324.3346,N,11915.6500,W,1,09,1.0,12.8,M,-34.8,M,,*67
$PYRTM,2024,122.252300644282,13.361948054421
$GPGGA,060317.00,3324.3356,N,11915.6526,W,1,09,1.0,12.4,M,-34.8,M,,*6F
$PYRTM,2024,122.252312230394,13.361959640532
$GPGGA,060318.00,3324.3364,N,11915.6550,W,1,09,1.0,13.6,M,-34.8,M,,*63
$PYRTM,2024,122.252323791493,13.361971201632
$GPGGA,060319.00,3324.3371,N,11915.6572,W,1,09,1.0,10.5,M,-34.8,M,,*66
$PYRTM,2024,122.252335374525,13.361982784664
$GPGGA,060320.00,3324.3379,N,11915.6598,W,1,09,1.0,11.2,M,-34.8,M,,*66
$PYRTM,2024,122.252346939988,13.361994350127
$GPGGA,060321.00,3324.3388,N,11915.6626,W,1,09,1.0,9.3,M,-34.8,M,,*57
$PYRTM,2024,122.252358521574,13.362005931713
$GPGGA,060322.00,3324.3396,N,11915.6649,W,1,09,1.0,11.0,M,-34.8,M,,*68
$PYRTM,2024,122.252370088600,13.362017498738
$GPGGA,060323.00,3324.3405,N,11915.6669,W,1,09,1.0,12.1,M,-34.8,M,,*64
$PYRTM,2024,122.252381676690,13.362029086829
$GPGGA,060324.00,3324.3416,N,11915.6693,W,1,09,1.0,10.9,M,-34.8,M,,*6E
$PYRTM,2024,122.252393236273,13.362040646412
$GPGGA,060325.00,3324.3425,N,11915.6723,W,1,09,1.0,8.8,M,-34.8,M,,*5D
$PYRTM,2024,122.252404823252,13.362052233391
$GPGGA,060326.00,3324.3432,N,11915.6749,W,1,09,1.0,9.8,M,-34.8,M,,*55
$PYRTM,2024,122.252416384167,13.362063794306
$GPGGA,060327.00,3324.3439,N,11915.6768,W,1,09,1.0,12.1,M,-34.8,M,,*6F
$PYRTM,2024,122.252427974468,13.362075384606
$GPGGA,060328.00,3324.3450,N,11915.6788,W,1,09,1.0,13.4,M,-34.8,M,,*65
$PYRTM,2024,122.252439533773,13.362086943912
$GPGGA,060329.00,3324.3461,N,11915.6816,W,1,09,1.0,10.9,M,-34.8,M,,*60
$PYRTM,2024,122.252451123102,13.362098533241
$GPGGA,060330.00,3324.3471,N,11915.6846,W,1,09,1.0,8.8,M,-34.8,M,,*54
$PYRTM,2024,122.252462681019,13.362110091169
$GPGGA,060331.00,3324.3477,N,11915.6871,W,1,09,1.0,9.3,M,-34.8,M,,*5D
$PYRTM,2024,122.252474271042,13.362121681181
$GPGGA,060332.00,3324.3484,N,11915.6890,W,1,09,1.0,12.0,M,-34.8,M,,*64
$PYRTM,2024,122.252486061852,13.362133471991
$GPGGA,060333.00,3324.3495,N,11915.6910,W,1,09,1.0,14.8,M,-34.8,M,,*62
$PYRTM,2024,122.252497418171,13.362144828310
$GPGGA,060334.00,3324.3506,N,11915.6937,W,1,09,1.0,14.6,M,-34.8,M,,*65
$PYRTM,2024,122.252508977512,13.362156387662
$GPGGA,060335.00,3324.3512,N,11915.6965,W,1,09,1.0,14.4,M,-34.8,M,,*64
$PYRTM,2024,122.252520565382,13.362167975521
$GPGGA,060336.00,3324.3517,N,11915.6988,W,1,09,1.0,13.7,M,-34.8,M,,*65
$PYRTM,2024,122.252532126667,13.362179536806
$GPGGA,060337.00,3324.3523,N,11915.7008,W,1,09,1.0,12.3,M,-34.8,M,,*66
$PYRTM,2024,122.252543931933,13.362191342083
$GPGGA,060338.00,3324.3534,N,11915.7031,W,1,09,1.0,14.0,M,-34.8,M,,*60
$PYRTM,2024,122.252555274757,13.362202684896
$GPGGA,060339.00,3324.3545,N,11915.7057,W,1,09,1.0,12.0,M,-34.8,M,,*61
$PYRTM,2024,122.252566861979,13.362214272118
$GPGGA,060340.00,3324.3553,N,11915.7082,W,1,09,1.0,14.3,M,-34.8,M,,*65
$PYRTM,2024,122.252578422292,13.362225832431
$GPGGA,060341.00,3324.3560,N,11915.7105,W,1,09,1.0,14.3,M,-34.8,M,,*6A
$PYRTM,2024,122.252590012465,13.362237422604
$GPGGA,060342.00,3324.3567,N,11915.7128,W,1,09,1.0,14.1,M,-34.8,M,,*63
$PYRTM,2024,122.252600191586,13.362247601725
$GPGGA,060343.00,3324.3577,N,11915.7153,W,1,09,1.0,15.4,M,-34.8,M,,*6B
$PYRTM,2024,122.252612119664,13.362259529803
$GPGGA,060344.00,3324.3588,N,11915.7174,W,1,09,1.0,14.6,M,-34.8,M,,*6A
$PYRTM,2024,122.252624721111,13.362272131250
$GPGGA,060345.00,3324.3600,N,11915.7200,W,1,09,1.0,13.1,M,-34.8,M,,*68
$PYRTM,2024,122.252636302488,13.362283712627
$GPGGA,060346.00,3324.3610,N,11915.7228,W,1,09,1.0,9.2,M,-34.8,M,,*58
$PYRTM,2024,122.252647867801,13.362295277940
$GPGGA,060347.00,3324.3617,N,11915.7250,W,1,09,1.0,9.4,M,-34.8,M,,*57
$PYRTM,2024,122.252659453970,13.362306864109
$GPGGA,060348.00,3324.3624,N,11915.7268,W,1,09,1.0,11.3,M,-34.8,M,,*6D
$PYRTM,2024,122.252671015775,13.362318425914
$GPGGA,060349.00,3324.3634,N,11915.7291,W,1,09,1.0,11.3,M,-34.8,M,,*6B
$PYRTM,2024,122.252682604433,13.362330014572
$GPGGA,060350.00,3324.3645,N,11915.7319,W,1,09,1.0,9.9,M,-34.8,M,,*57
$PYRTM,2024,122.252694165405,13.362341575544
$GPGGA,060351.00,3324.3652,N,11915.7342,W,1,09,1.0,12.0,M,-34.8,M,,*6D
$PYRTM,2024,122.252705750949,13.362353161088
$GPGGA,060352.00,3324.3656,N,11915.7361,W,1,09,1.0,13.3,M,-34.8,M,,*69
$PYRTM,2024,122.252717312697,13.362364722836
$GPGGA,060353.00,3324.3663,N,11915.7381,W,1,09,1.0,12.7,M,-34.8,M,,*65
$PYRTM,2024,122.252728900937,13.362376311088
$GPGGA,060354.00,3324.3674,N,11915.7402,W,1,09,1.0,13.6,M,-34.8,M,,*68
$PYRTM,2024,122.252740462627,13.362387872766
$GPGGA,060355.00,3324.3685,N,11915.7425,W,1,09,1.0,11.2,M,-34.8,M,,*64
$PYRTM,2024,122.252752049086,13.362399459236
$GPGGA,060356.00,3324.3692,N,11915.7450,W,1,09,1.0,9.8,M,-34.8,M,,*50
$PYRTM,2024,122.252763609919,13.362411020069
$GPGGA,060357.00,3324.3694,N,11915.7474,W,1,09,1.0,12.2,M,-34.8,M,,*61
$PYRTM,2024,122.252775200602,13.362422610741
$GPGGA,060358.00,3324.3700,N,11915.7496,W,1,09,1.0,11.4,M,-34.8,M,,*6B
$PYRTM,2024,122.252786759884,13.362434170023
$GPGGA,060359.00,3324.3711,N,11915.7520,W,1,09,1.0,10.1,M,-34.8,M,,*62
$PYRTM,2024,122.252798347512,13.362445757650
$GPGGA,060400.00,3324.3722,N,11915.7545,W,1,09,1.0,9.3,M,-34.8,M,,*50
$PYRTM,2024,122.252809906505,13.362457316644
$GPGGA,060401.00,3324.3730,N,11915.7569,W,1,09,1.0,10.3,M,-34.8,M,,*64
$PYRTM,2024,122.252821494861,13.362468905000
$GPGGA,060402.00,3324.3736,N,11915.7591,W,1,09,1.0,6.8,M,-34.8,M,,*5A
$PYRTM,2024,122.252833054005,13.362480464144
$GPGGA,060403.00,3324.3745,N,11915.7615,W,1,09,1.0,5.9,M,-34.8,M,,*52
$PYRTM,2024,122.252844640764,13.362492050903
$GPGGA,060404.00,3324.3755,N,11915.7643,W,1,09,1.0,4.5,M,-34.8,M,,*5A
$PYRTM,2024,122.252856201794,13.362503611933
$GPGGA,060405.00,3324.3763,N,11915.7670,W,1,09,1.0,9.1,M,-34.8,M,,*57
$PYRTM,2024,122.252867784329,13.362515194468
$GPGGA,060406.00,3324.3769,N,11915.7689,W,1,09,1.0,11.5,M,-34.8,M,,*65
$PYRTM,2024,122.252879352014,13.362526762153
$GPGGA,060407.00,3324.3775,N,11915.7710,W,1,09,1.0,14.4,M,-34.8,M,,*6C
$PYRTM,2024,122.252891389005,13.362538799144
$GPGGA,060408.00,3324.3783,N,11915.7736,W,1,09,1.0,14.0,M,-34.8,M,,*6A
$PYRTM,2024,122.252902498426,13.362549908565
$GPGGA,060409.00,3324.3789,N,11915.7762,W,1,09,1.0,15.3,M,-34.8,M,,*62
$PYRTM,2024,122.252914087789,13.362561497928
$GPGGA,060410.00,3324.3794,N,11915.7784,W,1,09,1.0,16.4,M,-34.8,M,,*6A
$PYRTM,2024,122.252925646794,13.362573056933
$GPGGA,060411.00,3324.3801,N,11915.7806,W,1,09,1.0,13.1,M,-34.8,M,,*6D
$PYRTM,2024,122.252937249838,13.362584659977
$GPGGA,060412.00,3324.3810,N,11915.7831,W,1,09,1.0,13.8,M,-34.8,M,,*63
$PYRTM,2024,122.252947422396,13.362594832535
$GPGGA,060413.00,3324.3819,N,11915.7857,W,1,09,1.0,14.5,M,-34.8,M,,*61
$PYRTM,2024,122.252959343808,13.362606753947
$GPGGA,060414.00,3324.3827,N,11915.7881,W,1,09,1.0,13.3,M,-34.8,M,,*61
$PYRTM,2024,122.252971945602,13.362619355741
$GPGGA,060415.00,3324.3833,N,11915.7905,W,1,09,1.0,15.9,M,-34.8,M,,*64
$PYRTM,2024,122.252983526829,13.362630936968
$GPGGA,060416.00,3324.3841,N,11915.7928,W,1,09,1.0,14.3,M,-34.8,M,,*66
$PYRTM,2024,122.252995093958,13.362642504097
$GPGGA,060417.00,3324.3851,N,11915.7952,W,1,09,1.0,15.0,M,-34.8,M,,*69
$PYRTM,2024,122.253006680833,13.362654090972
$GPGGA,060418.00,3324.3862,N,11915.7977,W,1,09,1.0,15.2,M,-34.8,M,,*63
$PYRTM,2024,122.253018242303,13.362665652442
$GPGGA,060419.00,3324.3871,N,11915.8002,W,1,09,1.0,13.1,M,-34.8,M,,*61
$PYRTM,2024,122.253029827546,13.362677237685
$GPGGA,060420.00,3324.3878,N,11915.8027,W,1,09,1.0,13.7,M,-34.8,M,,*63
$PYRTM,2024,122.253041389977,13.362688800116
$GPGGA,060421.00,3324.3886,N,11915.8051,W,1,09,1.0,12.7,M,-34.8,M,,*63
$PYRTM,2024,122.253052976458,13.362700386609
$GPGGA,060422.00,3324.3896,N,11915.8073,W,1,09,1.0,12.2,M,-34.8,M,,*64
$PYRTM,2024,122.253065016481,13.362712426620
$GPGGA,060423.00,3324.3908,N,11915.8099,W,1,09,1.0,10.8,M,-34.8,M,,*6F
$PYRTM,2024,122.253076573704,13.362723983843
$GPGGA,060424.00,3324.3917,N,11915.8129,W,1,09,1.0,10.0,M,-34.8,M,,*64
$PYRTM,2024,122.253088162083,13.362735572222
$GPGGA,060425.00,3324.3922,N,11915.8156,W,1,09,1.0,12.4,M,-34.8,M,,*6D
$PYRTM,2024,122.253099722477,13.362747132616
$GPGGA,060426.00,3324.3930,N,11915.8178,W,1,09,1.0,10.2,M,-34.8,M,,*65
$PYRTM,2024,122.253111304988,13.362758715127
$GPGGA,060427.00,3324.3942,N,11915.8202,W,1,09,1.0,11.7,M,-34.8,M,,*6B
$PYRTM,2024,122.253122871782,13.362770281921
$GPGGA,060428.00,3324.3955,N,11915.8225,W,1,09,1.0,14.4,M,-34.8,M,,*61
$PYRTM,2024,122.253134454306,13.362781864444
$GPGGA,060429.00,3324.3965,N,11915.8251,W,1,09,1.0,14.0,M,-34.8,M,,*64
$PYRTM,2024,122.253146019907,13.362793430046
$GPGGA,060430.00,3324.3970,N,11915.8278,W,1,09,1.0,14.1,M,-34.8,M,,*62
$PYRTM,2024,122.253157606840,13.362805016979
$GPGGA,060431.00,3324.3978,N,11915.8300,W,1,09,1.0,13.1,M,-34.8,M,,*62
$PYRTM,2024,122.253169169051,13.362816579190
$GPGGA,060432.00,3324.3989,N,11915.8320,W,1,09,1.0,10.9,M,-34.8,M,,*66
$PYRTM,2024,122.253180870926,13.362828281065
$GPGGA,060433.00,3324.4002,N,11915.8343,W,1,09,1.0,11.0,M,-34.8,M,,*67
$PYRTM,2024,122.253192429537,13.362839839687
$GPGGA,060434.00,3324.4012,N,11915.8366,W,1,09,1.0,11.0,M,-34.8,M,,*66
$PYRTM,2024,122.253204019167,13.362851429306
$GPGGA,060435.00,3324.4020,N,11915.8390,W,1,09,1.0,10.6,M,-34.8,M,,*68
$PYRTM,2024,122.253215465220,13.362862875370
$GPGGA,060436.00,3324.4028,N,11915.8418,W,1,09,1.0,9.1,M,-34.8,M,,*5B
$PYRTM,2024,122.253227166505,13.362874576644
$GPGGA,060437.00,3324.4035,N,11915.8443,W,1,09,1.0,11.1,M,-34.8,M,,*61
$PYRTM,2024,122.253238726262,13.362886136400
$GPGGA,060438.00,3324.4044,N,11915.8463,W,1,09,1.0,14.9,M,-34.8,M,,*67
$PYRTM,2024,122.253250316389,13.362897726528
$GPGGA,060439.00,3324.4053,N,11915.8486,W,1,09,1.0,15.6,M,-34.8,M,,*65
$PYRTM,2024,122.253261874919,13.362909285058
$GPGGA,060440.00,3324.4060,N,11915.8515,W,1,09,1.0,14.0,M,-34.8,M,,*67
$PYRTM,2024,122.253273463194,13.362920873333
$GPGGA,060441.00,3324.4068,N,11915.8540,W,1,09,1.0,14.8,M,-34.8,M,,*66
$PYRTM,2024,122.253285022824,13.362932432975
$GPGGA,060442.00,3324.4074,N,11915.8562,W,1,09,1.0,16.5,M,-34.8,M,,*67
$PYRTM,2024,122.253295208218,13.362942618356
$GPGGA,060443.00,3324.4083,N,11915.8584,W,1,09,1.0,15.2,M,-34.8,M,,*62
$PYRTM,2024,122.253306580428,13.362953990567
$GPGGA,060444.00,3324.4094,N,11915.8607,W,1,09,1.0,14.0,M,-34.8,M,,*68
$PYRTM,2024,122.253319168669,13.362966578808
$GPGGA,060445.00,3324.4104,N,11915.8631,W,1,09,1.0,14.2,M,-34.8,M,,*66
$PYRTM,2024,122.253330756412,13.362978166551
$GPGGA,060446.00,3324.4113,N,11915.8657,W,1,09,1.0,13.7,M,-34.8,M,,*61
$PYRTM,2024,122.253342316944,13.362989727083
$GPGGA,060447.00,3324.4120,N,11915.8682,W,1,09,1.0,12.6,M,-34.8,M,,*68
$PYRTM,2024,122.253353898912,13.363001309051
$GPGGA,060448.00,3324.4128,N,11915.8707,W,1,09,1.0,13.5,M,-34.8,M,,*61
$PYRTM,2024,122.253365465822,13.363012875961
$GPGGA,060449.00,3324.4137,N,11915.8731,W,1,09,1.0,12.9,M,-34.8,M,,*66
$PYRTM,2024,122.253377048252,13.363024458391
$GPGGA,060450.00,3324.4144,N,11915.8756,W,1,09,1.0,13.9,M,-34.8,M,,*6A
$PYRTM,2024,122.253388613715,13.363036023866
$GPGGA,060451.00,3324.4151,N,11915.8783,W,1,09,1.0,12.4,M,-34.8,M,,*6B
$PYRTM,2024,122.253400201169,13.363047611308
$GPGGA,060452.00,3324.4159,N,11915.8811,W,1,09,1.0,11.6,M,-34.8,M,,*65
$PYRTM,2024,122.253410835532,13.363058245671
$GPGGA,060453.00,3324.4165,N,11915.8832,W,1,09,1.0,12.8,M,-34.8,M,,*67
$PYRTM,2024,122.253422873819,13.363070283958
$GPGGA,060454.00,3324.4174,N,11915.8851,W,1,09,1.0,15.3,M,-34.8,M,,*69
$PYRTM,2024,122.253433528738,13.363080938877
$GPGGA,060455.00,3324.4184,N,11915.8880,W,1,09,1.0,15.3,M,-34.8,M,,*6B
$PYRTM,2024,122.253444762303,13.363092172442
$GPGGA,060456.00,3324.4191,N,11915.8909,W,1,09,1.0,14.9,M,-34.8,M,,*67
$PYRTM,2024,122.253455871424,13.363103281574
$GPGGA,060457.00,3324.4199,N,11915.8933,W,1,09,1.0,14.3,M,-34.8,M,,*6D
$PYRTM,2024,122.253466977894,13.363114388032
$GPGGA,060458.00,3324.4207,N,11915.8956,W,1,09,1.0,12.3,M,-34.8,M,,*63
$PYRTM,2024,122.253478094039,13.363125504178
$GPGGA,060459.00,3324.4217,N,11915.8979,W,1,09,1.0,12.2,M,-34.8,M,,*6F
$PYRTM,2024,122.253489320313,13.363136730451
$GPGGA,060500.00,3324.4227,N,11915.9004,W,1,09,1.0,15.0,M,-34.8,M,,*66
$PYRTM,2024,122.253500435914,13.363147846053
$GPGGA,060501.00,3324.4234,N,11915.9031,W,1,09,1.0,14.3,M,-34.8,M,,*61
$PYRTM,2024,122.253511544248,13.363158954387
$GPGGA,060502.00,3324.4239,N,11915.9055,W,1,09,1.0,15.6,M,-34.8,M,,*69
$PYRTM,2024,122.253522649757,13.363170059896
$GPGGA,060503.00,3324.4247,N,11915.9077,W,1,09,1.0,12.4,M,-34.8,M,,*64
$PYRTM,2024,122.253533869190,13.363181279329
$GPGGA,060504.00,3324.4257,N,11915.9102,W,1,09,1.0,12.2,M,-34.8,M,,*67
$PYRTM,2024,122.253545340012,13.363192750150
$GPGGA,060505.00,3324.4265,N,11915.9131,W,1,09,1.0,14.1,M,-34.8,M,,*62
$PYRTM,2024,122.253556910382,13.363204320532
$GPGGA,060506.00,3324.4271,N,11915.9156,W,1,09,1.0,16.6,M,-34.8,M,,*60
$PYRTM,2024,122.253568488796,13.363215898935
$GPGGA,060507.00,3324.4278,N,11915.9178,W,1,09,1.0,13.7,M,-34.8,M,,*60
$PYRTM,2024,122.253580166053,13.363227576192
$GPGGA,060508.00,3324.4288,N,11915.9205,W,1,09,1.0,12.7,M,-34.8,M,,*68
$PYRTM,2024,122.253591640208,13.363239050347
$GPGGA,060509.00,3324.4300,N,11915.9233,W,1,09,1.0,13.1,M,-34.8,M,,*6A
$PYRTM,2024,122.253603211111,13.363250621250
$GPGGA,060510.00,3324.4310,N,11915.9256,W,1,09,1.0,16.4,M,-34.8,M,,*60
$PYRTM,2024,122.253614785752,13.363262195891
$GPGGA,060511.00,3324.4317,N,11915.9277,W,1,09,1.0,16.8,M,-34.8,M,,*69
$PYRTM,2024,122.253626358484,13.363273768623
$GPGGA,060512.00,3324.4327,N,11915.9301,W,1,09,1.0,15.5,M,-34.8,M,,*67
$PYRTM,2024,122.253643245266,13.363290655405
$GPGGA,060513.00,3324.4338,N,11915.9329,W,1,09,1.0,11.3,M,-34.8,M,,*60
$PYRTM,2024,122.253654835394,13.363302245532
$GPGGA,060514.00,3324.4349,N,11915.9355,W,1,09,1.0,12.3,M,-34.8,M,,*69
$PYRTM,2024,122.253666393947,13.363313804086
$GPGGA,060515.00,3324.4357,N,11915.9374,W,1,09,1.0,14.0,M,-34.8,M,,*61
$PYRTM,2024,122.253677980278,13.363325390417
$GPGGA,060516.00,3324.4366,N,11915.9393,W,1,09,1.0,18.5,M,-34.8,M,,*60
$PYRTM,2024,122.253689542650,13.363336952789
$GPGGA,060517.00,3324.4375,N,11915.9421,W,1,09,1.0,16.9,M,-34.8,M,,*6F
$PYRTM,2024,122.253701131991,13.363348542130
$GPGGA,060518.00,3324.4383,N,11915.9452,W,1,09,1.0,14.1,M,-34.8,M,,*67
$PYRTM,2024,122.253712691678,13.363360101817
$GPGGA,060519.00,3324.4390,N,11915.9475,W,1,09,1.0,14.0,M,-34.8,M,,*60
$PYRTM,2024,122.253724271794,13.363371681933
$GPGGA,060520.00,3324.4397,N,11915.9493,W,1,09,1.0,14.5,M,-34.8,M,,*60
$PYRTM,2024,122.253735838588,13.363383248727
$GPGGA,060521.00,3324.4406,N,11915.9517,W,1,09,1.0,14.6,M,-34.8,M,,*60
$PYRTM,2024,122.253747423935,13.363394834074
$GPGGA,060522.00,3324.4417,N,11915.9546,W,1,09,1.0,12.0,M,-34.8,M,,*67
$PYRTM,2024,122.253758986956,13.363406397095
$GPGGA,060523.00,3324.4426,N,11915.9574,W,1,09,1.0,13.7,M,-34.8,M,,*63
$PYRTM,2024,122.253770576505,13.363417986644
$GPGGA,060524.00,3324.4433,N,11915.9596,W,1,09,1.0,15.5,M,-34.8,M,,*68
$PYRTM,2024,122.253782133947,13.363429544074
$GPGGA,060525.00,3324.4439,N,11915.9620,W,1,09,1.0,10.7,M,-34.8,M,,*6A
$PYRTM,2024,122.253793724329,13.363441134468
$GPGGA,060526.00,3324.4447,N,11915.9643,W,1,09,1.0,11.7,M,-34.8,M,,*64
$PYRTM,2024,122.253805283611,13.363452693762
$GPGGA,060527.00,3324.4457,N,11915.9665,W,1,09,1.0,13.4,M,-34.8,M,,*61
$PYRTM,2024,122.253816873264,13.363464283403
$GPGGA,060528.00,3324.4465,N,11915.9691,W,1,09,1.0,12.7,M,-34.8,M,,*66
$PYRTM,2024,122.253828430741,13.363475840880
$GPGGA,060529.00,3324.4473,N,11915.9718,W,1,09,1.0,12.8,M,-34.8,M,,*6F
$PYRTM,2024,122.253840018738,13.363487428877
$GPGGA,060530.00,3324.4480,N,11915.9742,W,1,09,1.0,13.0,M,-34.8,M,,*6D
$PYRTM,2024,122.253851580428,13.363498990567
$GPGGA,060531.00,3324.4487,N,11915.9762,W,1,09,1.0,12.0,M,-34.8,M,,*68
$PYRTM,2024,122.253863162500,13.363510572650
$GPGGA,060532.00,3324.4497,N,11915.9785,W,1,09,1.0,11.4,M,-34.8,M,,*64
$PYRTM,2024,122.253874726968,13.363522137106
$GPGGA,060533.00,3324.4507,N,11915.9811,W,1,09,1.0,12.3,M,-34.8,M,,*6B
$PYRTM,2024,122.253886309340,13.363533719479
$GPGGA,060534.00,3324.4516,N,11915.9837,W,1,09,1.0,11.7,M,-34.8,M,,*6F
$PYRTM,2024,122.253897876134,13.363545286273
$GPGGA,060535.00,3324.4525,N,11915.9860,W,1,09,1.0,13.8,M,-34.8,M,,*61
$PYRTM,2024,122.253909464363,13.363556874502
$GPGGA,060536.00,3324.4533,N,11915.9882,W,1,09,1.0,10.9,M,-34.8,M,,*6B
$PYRTM,2024,122.253921025035,13.363568435174
$GPGGA,060537.00,3324.4542,N,11915.9907,W,1,09,1.0,13.3,M,-34.8,M,,*69
$PYRTM,2024,122.253932844120,13.363580254259
$GPGGA,060538.00,3324.4552,N,11915.9933,W,1,09,1.0,12.7,M,-34.8,M,,*65
$PYRTM,2024,122.253944173067,13.363591583206
$GPGGA,060539.00,3324.4562,N,11915.9959,W,1,09,1.0,9.5,M,-34.8,M,,*53
$PYRTM,2024,122.253955761991,13.363603172130
$GPGGA,060540.00,3324.4570,N,11915.9984,W,1,09,1.0,11.3,M,-34.8,M,,*61
$PYRTM,2024,122.253967321713,13.363614731863
$GPGGA,060541.00,3324.4577,N,11916.0006,W,1,09,1.0,13.1,M,-34.8,M,,*6E
$PYRTM,2024,122.253978911424,13.363626321562
$GPGGA,060542.00,3324.4585,N,11916.0028,W,1,09,1.0,14.3,M,-34.8,M,,*69
$PYRTM,2024,122.253989095174,13.363636505312
$GPGGA,060543.00,3324.4594,N,11916.0053,W,1,09,1.0,11.0,M,-34.8,M,,*62
$PYRTM,2024,122.254001014826,13.363648424965
$GPGGA,060544.00,3324.4605,N,11916.0079,W,1,09,1.0,10.8,M,-34.8,M,,*6F
$PYRTM,2024,122.254013617789,13.363661027928
$GPGGA,060545.00,3324.4615,N,11916.0104,W,1,09,1.0,11.1,M,-34.8,M,,*6C
$PYRTM,2024,122.254025205868,13.363672616007
$GPGGA,060546.00,3324.4624,N,11916.0128,W,1,09,1.0,9.7,M,-34.8,M,,*5C
$PYRTM,2024,122.254036767477,13.363684177616
$GPGGA,060547.00,3324.4630,N,11916.0151,W,1,09,1.0,9.3,M,-34.8,M,,*52
$PYRTM,2024,122.254048347662,13.363695757801
$GPGGA,060548.00,3324.4637,N,11916.0176,W,1,09,1.0,9.5,M,-34.8,M,,*59
$PYRTM,2024,122.254059914178,13.363707324317
$GPGGA,060549.00,3324.4646,N,11916.0207,W,1,09,1.0,5.9,M,-34.8,M,,*5B
$PYRTM,2024,122.254070461921,13.363717872060
$GPGGA,060550.00,3324.4655,N,11916.0236,W,1,09,1.0,13.5,M,-34.8,M,,*68
$PYRTM,2024,122.254083063553,13.363730473692
$GPGGA,060551.00,3324.4662,N,11916.0256,W,1,09,1.0,14.5,M,-34.8,M,,*6C
$PYRTM,2024,122.254094653345,13.363742063484
$GPGGA,060552.00,3324.4670,N,11916.0275,W,1,09,1.0,11.7,M,-34.8,M,,*6A
$PYRTM,2024,122.254106212199,13.363753622338
$GPGGA,060553.00,3324.4681,N,11916.0300,W,1,09,1.0,11.4,M,-34.8,M,,*65
$PYRTM,2024,122.254117800394,13.363765210532
$GPGGA,060554.00,3324.4689,N,11916.0324,W,1,09,1.0,11.7,M,-34.8,M,,*6F
$PYRTM,2024,122.254129358947,13.363776769086
$GPGGA,060555.00,3324.4696,N,11916.0342,W,1,09,1.0,11.5,M,-34.8,M,,*62
$PYRTM,2024,122.254140948588,13.363788358727
$GPGGA,060556.00,3324.4704,N,11916.0359,W,1,09,1.0,10.7,M,-34.8,M,,*62
$PYRTM,2024,122.254152508333,13.363799918472
$GPGGA,060557.00,3324.4715,N,11916.0383,W,1,09,1.0,11.0,M,-34.8,M,,*62
$PYRTM,2024,122.254164097118,13.363811507257
$GPGGA,060558.00,3324.4724,N,11916.0410,W,1,09,1.0,12.7,M,-34.8,M,,*66
$PYRTM,2024,122.254175656285,13.363823066424
$GPGGA,060559.00,3324.4732,N,11916.0436,W,1,09,1.0,14.0,M,-34.8,M,,*65
$PYRTM,2024,122.254187245081,13.363834655220
$GPGGA,060600.00,3324.4739,N,11916.0459,W,1,09,1.0,14.4,M,-34.8,M,,*6C
$PYRTM,2024,122.254198803044,13.363846213183
$GPGGA,060601.00,3324.4749,N,11916.0482,W,1,09,1.0,13.8,M,-34.8,M,,*67
$PYRTM,2024,122.254210390301,13.363857800440
$GPGGA,060602.00,3324.4758,N,11916.0505,W,1,09,1.0,13.1,M,-34.8,M,,*63
$PYRTM,2024,122.254222300185,13.363869710324
$GPGGA,060603.00,3324.4768,N,11916.0528,W,1,09,1.0,13.5,M,-34.8,M,,*6A
$PYRTM,2024,122.254233538553,13.363880948692
$GPGGA,060604.00,3324.4776,N,11916.0551,W,1,09,1.0,12.8,M,-34.8,M,,*60
$PYRTM,2024,122.254245099977,13.363892510116
$GPGGA,060605.00,3324.4784,N,11916.0576,W,1,09,1.0,9.9,M,-34.8,M,,*52
$PYRTM,2024,122.254256682025,13.363904092164
$GPGGA,060606.00,3324.4792,N,11916.0602,W,1,09,1.0,9.3,M,-34.8,M,,*5C
$PYRTM,2024,122.254268249213,13.363915659363
$GPGGA,060607.00,3324.4800,N,11916.0626,W,1,09,1.0,10.6,M,-34.8,M,,*62
$PYRTM,2024,122.254280170139,13.363927580278
$GPGGA,060608.00,3324.4808,N,11916.0647,W,1,09,1.0,13.5,M,-34.8,M,,*62
$PYRTM,2024,122.254291396655,13.363938806794
$GPGGA,060609.00,3324.4816,N,11916.0673,W,1,09,1.0,12.9,M,-34.8,M,,*66
$PYRTM,2024,122.254302983576,13.363950393715
$GPGGA,060610.00,3324.4826,N,11916.0702,W,1,09,1.0,11.8,M,-34.8,M,,*68
$PYRTM,2024,122.254314544977,13.363961955116
$GPGGA,060611.00,3324.4834,N,11916.0728,W,1,09,1.0,13.4,M,-34.8,M,,*6C
$PYRTM,2024,122.254326145775,13.363973555903
$GPGGA,060612.00,3324.4842,N,11916.0748,W,1,09,1.0,17.0,M,-34.8,M,,*68
$PYRTM,2024,122.254336317685,13.363983727824
$GPGGA,060613.00,3324.4851,N,11916.0768,W,1,09,1.0,15.0,M,-34.8,M,,*6B
$PYRTM,2024,122.254348238322,13.363995648461
$GPGGA,060614.00,3324.4862,N,11916.0795,W,1,09,1.0,12.8,M,-34.8,M,,*61
$PYRTM,2024,122.254360841609,13.364008251748
$GPGGA,060615.00,3324.4874,N,11916.0825,W,1,09,1.0,10.7,M,-34.8,M,,*6E
$PYRTM,2024,122.254372427708,13.364019837847
$GPGGA,060616.00,3324.4883,N,11916.0849,W,1,09,1.0,11.2,M,-34.8,M,,*6B
$PYRTM,2024,122.254383990150,13.364031400289
$GPGGA,060617.00,3324.4891,N,11916.0867,W,1,09,1.0,12.2,M,-34.8,M,,*66
$PYRTM,2024,122.254395576655,13.364042986794
$GPGGA,060618.00,3324.4901,N,11916.0889,W,1,09,1.0,14.7,M,-34.8,M,,*62
$PYRTM,2024,122.254407138021,13.364054548160
$GPGGA,060619.00,3324.4913,N,11916.0916,W,1,09,1.0,14.0,M,-34.8,M,,*60
$PYRTM,2024,122.254418727454,13.364066137593
$GPGGA,060620.00,3324.4923,N,11916.0942,W,1,09,1.0,14.4,M,-34.8,M,,*6C
$PYRTM,2024,122.254430284988,13.364077695127
$GPGGA,060621.00,3324.4929,N,11916.0962,W,1,09,1.0,16.2,M,-34.8,M,,*61
$PYRTM,2024,122.254441872963,13.364089283102
$GPGGA,060622.00,3324.4935,N,11916.0979,W,1,09,1.0,17.2,M,-34.8,M,,*64
$PYRTM,2024,122.254453434618,13.364100844757
$GPGGA,060623.00,3324.4944,N,11916.1003,W,1,09,1.0,16.1,M,-34.8,M,,*64
$PYRTM,2024,122.254465021887,13.364112432025
$GPGGA,060624.00,3324.4955,N,11916.1032,W,1,09,1.0,14.2,M,-34.8,M,,*60
$PYRTM,2024,122.254476583218,13.364123993356
$GPGGA,060625.00,3324.4962,N,11916.1054,W,1,09,1.0,13.5,M,-34.8,M,,*65
$PYRTM,2024,122.254488185000,13.364135595127
$GPGGA,060626.00,3324.4968,N,11916.1070,W,1,09,1.0,14.1,M,-34.8,M,,*69
$PYRTM,2024,122.254499730336,13.364147140475
$GPGGA,060627.00,3324.4977,N,11916.1089,W,1,09,1.0,15.7,M,-34.8,M,,*67
$PYRTM,2024,122.254511320787,13.364158730926
$GPGGA,060628.00,3324.4987,N,11916.1113,W,1,09,1.0,14.9,M,-34.8,M,,*6A
$PYRTM,2024,122.254522879884,13.364170290023
$GPGGA,060629.00,3324.4994,N,11916.1135,W,1,09,1.0,15.5,M,-34.8,M,,*60
$PYRTM,2024,122.254534469340,13.364181879479
$GPGGA,060630.00,3324.4998,N,11916.1155,W,1,09,1.0,15.0,M,-34.8,M,,*67
$PYRTM,2024,122.254546026910,13.364193437049
$GPGGA,060631.00,3324.5003,N,11916.1177,W,1,09,1.0,14.3,M,-34.8,M,,*6E
$PYRTM,2024,122.254557613970,13.364205024109
$GPGGA,060632.00,3324.5010,N,11916.1199,W,1,09,1.0,11.4,M,-34.8,M,,*6D
$PYRTM,2024,122.254569175648,13.364216585787
$GPGGA,060633.00,3324.5018,N,11916.1221,W,1,09,1.0,12.8,M,-34.8,M,,*6B
$PYRTM,2024,122.254580763148,13.364228173287
$GPGGA,060634.00,3324.5027,N,11916.1243,W,1,09,1.0,11.2,M,-34.8,M,,*6D
$PYRTM,2024,122.254592324838,13.364239734977
$GPGGA,060635.00,3324.5036,N,11916.1267,W,1,09,1.0,11.7,M,-34.8,M,,*6F
$PYRTM,2024,122.254603914398,13.364251324537
$GPGGA,060636.00,3324.5043,N,11916.1290,W,1,09,1.0,11.4,M,-34.8,M,,*65
$PYRTM,2024,122.254615473808,13.364262883958
$GPGGA,060637.00,3324.5051,N,11916.1310,W,1,09,1.0,11.2,M,-34.8,M,,*68
$PYRTM,2024,122.254627510567,13.364274920706
$GPGGA,060638.00,3324.5060,N,11916.1331,W,1,09,1.0,10.0,M,-34.8,M,,*65
$PYRTM,2024,122.254639097870,13.364286508009
$GPGGA,060639.00,3324.5069,N,11916.1357,W,1,09,1.0,8.4,M,-34.8,M,,*50
$PYRTM,2024,122.254650774282,13.364298184421
$GPGGA,060640.00,3324.5076,N,11916.1383,W,1,09,1.0,13.4,M,-34.8,M,,*63
$PYRTM,2024,122.254662361192,13.364309771331
$GPGGA,060641.00,3324.5083,N,11916.1403,W,1,09,1.0,14.2,M,-34.8,M,,*66
$PYRTM,2024,122.254673924699,13.364321334838
$GPGGA,060642.00,3324.5091,N,11916.1421,W,1,09,1.0,13.4,M,-34.8,M,,*67
$PYRTM,2024,122.254684106817,13.364331516956
$GPGGA,060643.00,3324.5101,N,11916.1443,W,1,09,1.0,16.9,M,-34.8,M,,*62
$PYRTM,2024,122.254695464062,13.364342874201
$GPGGA,060644.00,3324.5110,N,11916.1468,W,1,09,1.0,16.0,M,-34.8,M,,*65
$PYRTM,2024,122.254708064965,13.364355475104
$GPGGA,060645.00,3324.5116,N,11916.1492,W,1,09,1.0,13.4,M,-34.8,M,,*66
$PYRTM,2024,122.254719652975,13.364367063113
$GPGGA,060646.00,3324.5123,N,11916.1512,W,1,09,1.0,14.2,M,-34.8,M,,*6B
$PYRTM,2024,122.254731213391,13.364378623530
$GPGGA,060647.00,3324.5130,N,11916.1535,W,1,09,1.0,14.8,M,-34.8,M,,*67
$PYRTM,2024,122.254742801748,13.364390211887
$GPGGA,060648.00,3324.5140,N,11916.1559,W,1,09,1.0,14.7,M,-34.8,M,,*6A
$PYRTM,2024,122.254754363646,13.364401773785
$GPGGA,060649.00,3324.5150,N,11916.1580,W,1,09,1.0,14.0,M,-34.8,M,,*69
$PYRTM,2024,122.254765950081,13.364413360220
$GPGGA,060650.00,3324.5158,N,11916.1604,W,1,09,1.0,12.1,M,-34.8,M,,*61
$PYRTM,2024,122.254777510231,13.364424920370
$GPGGA,060651.00,3324.5167,N,11916.1632,W,1,09,1.0,11.1,M,-34.8,M,,*6A
$PYRTM,2024,122.254789098090,13.364436508229
$GPGGA,060652.00,3324.5175,N,11916.1656,W,1,09,1.0,15.8,M,-34.8,M,,*65
$PYRTM,2024,122.254801255579,13.364448665718
$GPGGA,060653.00,3324.5184,N,11916.1678,W,1,09,1.0,12.3,M,-34.8,M,,*6A
$PYRTM,2024,122.254812811887,13.364460222025
$GPGGA,060654.00,3324.5194,N,11916.1702,W,1,09,1.0,11.3,M,-34.8,M,,*63
$PYRTM,2024,122.254824399479,13.364471809618
$GPGGA,060655.00,3324.5204,N,11916.1729,W,1,09,1.0,13.5,M,-34.8,M,,*65
$PYRTM,2024,122.254835960625,13.364483370764
$GPGGA,060656.00,3324.5213,N,11916.1756,W,1,09,1.0,11.1,M,-34.8,M,,*6E
$PYRTM,2024,122.254847547199,13.364494957338
$GPGGA,060657.00,3324.5220,N,11916.1780,W,1,09,1.0,10.1,M,-34.8,M,,*65
$PYRTM,2024,122.254864549248,13.364511959387
$GPGGA,060658.00,3324.5228,N,11916.1802,W,1,09,1.0,8.3,M,-34.8,M,,*5C
$PYRTM,2024,122.254876477060,13.364523887199
$GPGGA,060659.00,3324.5239,N,11916.1825,W,1,09,1.0,7.0,M,-34.8,M,,*54
$PYRTM,2024,122.254885283090,13.364532693229
$GPGGA,060700.00,3324.5249,N,11916.1851,W,1,09,1.0,5.8,M,-34.8,M,,*57
$PYRTM,2024,122.254902988414,13.364550398553
$GPGGA,060701.00,3324.5258,N,11916.1876,W,1,09,1.0,7.5,M,-34.8,M,,*5C
$PYRTM,2024,122.254914102014,13.364561512153
$GPGGA,060702.00,3324.5265,N,11916.1901,W,1,09,1.0,12.6,M,-34.8,M,,*67
$PYRTM,2024,122.254925326319,13.364572736458
$GPGGA,060703.00,3324.5273,N,11916.1925,W,1,09,1.0,12.9,M,-34.8,M,,*68
$PYRTM,2024,122.254936437118,13.364583847257
$GPGGA,060704.00,3324.5282,N,11916.1948,W,1,09,1.0,12.0,M,-34.8,M,,*63
$PYRTM,2024,122.254947548565,13.364594958704
$GPGGA,060705.00,3324.5293,N,11916.1971,W,1,09,1.0,15.9,M,-34.8,M,,*66
$PYRTM,2024,122.254958655336,13.364606065475
$GPGGA,060706.00,3324.5302,N,11916.1998,W,1,09,1.0,13.3,M,-34.8,M,,*67
$PYRTM,2024,122.254969880903,13.364617291042
$GPGGA,060707.00,3324.5311,N,11916.2025,W,1,09,1.0,9.9,M,-34.8,M,,*59
$PYRTM,2024,122.254981447269,13.364628857407
$GPGGA,060708.00,3324.5319,N,11916.2047,W,1,09,1.0,10.9,M,-34.8,M,,*62
$PYRTM,2024,122.254992557257,13.364639967396
$GPGGA,060709.00,3324.5330,N,11916.2066,W,1,09,1.0,12.6,M,-34.8,M,,*66
$PYRTM,2024,122.255003668623,13.364651078773
$GPGGA,060710.00,3324.5343,N,11916.2092,W,1,09,1.0,13.0,M,-34.8,M,,*66
$PYRTM,2024,122.255014780579,13.364662190718
$GPGGA,060711.00,3324.5352,N,11916.2121,W,1,09,1.0,15.3,M,-34.8,M,,*6B
$PYRTM,2024,122.255026020868,13.364673431007
$GPGGA,060712.00,3324.5357,N,11916.2146,W,1,09,1.0,14.3,M,-34.8,M,,*6D
$PYRTM,2024,122.255038174005,13.364685584144
$GPGGA,060713.00,3324.5364,N,11916.2168,W,1,09,1.0,15.1,M,-34.8,M,,*63
$PYRTM,2024,122.255048114595,13.364695524745
$GPGGA,060714.00,3324.5376,N,11916.2192,W,1,09,1.0,15.7,M,-34.8,M,,*64
$PYRTM,2024,122.255059225451,13.364706635590
$GPGGA,060715.00,3324.5387,N,11916.2218,W,1,09,1.0,15.6,M,-34.8,M,,*6B
$PYRTM,2024,122.255070465012,13.364717875150
$GPGGA,060716.00,3324.5396,N,11916.2244,W,1,09,1.0,14.9,M,-34.8,M,,*6F
$PYRTM,2024,122.255081577234,13.364728987373
$GPGGA,060717.00,3324.5402,N,11916.2270,W,1,09,1.0,14.3,M,-34.8,M,,*69
$PYRTM,2024,122.255092682951,13.364740093090
$GPGGA,060718.00,3324.5411,N,11916.2295,W,1,09,1.0,16.0,M,-34.8,M,,*6E
$PYRTM,2024,122.255103793009,13.364751203148
$GPGGA,060719.00,3324.5422,N,11916.2317,W,1,09,1.0,18.5,M,-34.8,M,,*6F
$PYRTM,2024,122.255115025764,13.364762435903
$GPGGA,060720.00,3324.5434,N,11916.2338,W,1,09,1.0,16.0,M,-34.8,M,,*64
$PYRTM,2024,122.255126138507,13.364773548646
$GPGGA,060721.00,3324.5444,N,11916.2364,W,1,09,1.0,15.4,M,-34.8,M,,*6C
$PYRTM,2024,122.255137236516,13.364784646655
$GPGGA,060722.00,3324.5450,N,11916.2393,W,1,09,1.0,16.6,M,-34.8,M,,*63
$PYRTM,2024,122.255148359618,13.364795769757
$GPGGA,060723.00,3324.5454,N,11916.2419,W,1,09,1.0,14.3,M,-34.8,M,,*64
$PYRTM,2024,122.255159581852,13.364806991991
$GPGGA,060724.00,3324.5462,N,11916.2437,W,1,09,1.0,16.3,M,-34.8,M,,*68
$PYRTM,2024,122.255171034051,13.364818444201
$GPGGA,060725.00,3324.5474,N,11916.2455,W,1,09,1.0,17.0,M,-34.8,M,,*68
$PYRTM,2024,122.255182623171,13.364830033310
$GPGGA,060726.00,3324.5487,N,11916.2481,W,1,09,1.0,14.3,M,-34.8,M,,*6E
$PYRTM,2024,122.255194180463,13.364841590602
$GPGGA,060727.00,3324.5497,N,11916.2511,W,1,09,1.0,12.5,M,-34.8,M,,*66
$PYRTM,2024,122.255205767662,13.364853177801
$GPGGA,060728.00,3324.5504,N,11916.2534,W,1,09,1.0,12.9,M,-34.8,M,,*69
$PYRTM,2024,122.255217328472,13.364864738611
$GPGGA,060729.00,3324.5513,N,11916.2551,W,1,09,1.0,13.5,M,-34.8,M,,*60
$PYRTM,2024,122.255228916505,13.364876326655
$GPGGA,060730.00,3324.5524,N,11916.2566,W,1,09,1.0,16.2,M,-34.8,M,,*6A
$PYRTM,2024,122.255240477442,13.364887887581
$GPGGA,060731.00,3324.5537,N,11916.2590,W,1,09,1.0,15.5,M,-34.8,M,,*64
$PYRTM,2024,122.255252067627,13.364899477766
$GPGGA,060732.00,3324.5545,N,11916.2618,W,1,09,1.0,13.3,M,-34.8,M,,*61
$PYRTM,2024,122.255263624780,13.364911034919
$GPGGA,060733.00,3324.5551,N,11916.2641,W,1,09,1.0,14.4,M,-34.8,M,,*69
$PYRTM,2024,122.255275207847,13.364922617986
$GPGGA,060734.00,3324.5557,N,11916.2659,W,1,09,1.0,16.2,M,-34.8,M,,*65
$PYRTM,2024,122.255286775613,13.364934185752
$GPGGA,060735.00,3324.5568,N,11916.2678,W,1,09,1.0,15.8,M,-34.8,M,,*62
$PYRTM,2024,122.255298359780,13.364945769919
$GPGGA,060736.00,3324.5581,N,11916.2702,W,1,09,1.0,15.4,M,-34.8,M,,*66
$PYRTM,2024,122.255309921574,13.364957331713
$GPGGA,060737.00,3324.5589,N,11916.2729,W,1,09,1.0,16.0,M,-34.8,M,,*61
$PYRTM,2024,122.255321739537,13.364969149676
$GPGGA,060738.00,3324.5593,N,11916.2751,W,1,09,1.0,16.9,M,-34.8,M,,*63
$PYRTM,2024,122.255333069664,13.364980479803
$GPGGA,060739.00,3324.5601,N,11916.2770,W,1,09,1.0,15.3,M,-34.8,M,,*60
$PYRTM,2024,122.255344659572,13.364992069711
$GPGGA,060740.00,3324.5611,N,11916.2792,W,1,09,1.0,14.3,M,-34.8,M,,*62
$PYRTM,2024,122.255356217905,13.365003628044
$GPGGA,060741.00,3324.5620,N,11916.2818,W,1,09,1.0,13.5,M,-34.8,M,,*6D
$PYRTM,2024,122.255367809063,13.365015219201
$GPGGA,060742.00,3324.5624,N,11916.2841,W,1,09,1.0,16.8,M,-34.8,M,,*6E
$PYRTM,2024,122.255378439468,13.365025849606
$GPGGA,060743.00,3324.5630,N,11916.2862,W,1,09,1.0,16.3,M,-34.8,M,,*60
$PYRTM,2024,122.255389906921,13.365037317060
$GPGGA,060744.00,3324.5641,N,11916.2885,W,1,09,1.0,17.0,M,-34.8,M,,*6A
$PYRTM,2024,122.255402514722,13.365049924861
$GPGGA,060745.00,3324.5654,N,11916.2910,W,1,09,1.0,13.8,M,-34.8,M,,*6E
$PYRTM,2024,122.255414098368,13.365061508507
$GPGGA,060746.00,3324.5662,N,11916.2934,W,1,09,1.0,12.4,M,-34.8,M,,*63
$PYRTM,2024,122.255425663125,13.365073073264
$GPGGA,060747.00,3324.5669,N,11916.2957,W,1,09,1.0,13.4,M,-34.8,M,,*6D
$PYRTM,2024,122.255437250046,13.365084660185
$GPGGA,060748.00,3324.5677,N,11916.2978,W,1,09,1.0,13.0,M,-34.8,M,,*64
$PYRTM,2024,122.255448811991,13.365096222130
$GPGGA,060749.00,3324.5686,N,11916.3001,W,1,09,1.0,15.3,M,-34.8,M,,*68
$PYRTM,2024,122.255460393692,13.365107803831
$GPGGA,060750.00,3324.5695,N,11916.3028,W,1,09,1.0,12.2,M,-34.8,M,,*6F
$PYRTM,2024,122.255471959919,13.365119370058
$GPGGA,060751.00,3324.5703,N,11916.3053,W,1,09,1.0,10.4,M,-34.8,M,,*68
$PYRTM,2024,122.255483542407,13.365130952546
$GPGGA,060752.00,3324.5710,N,11916.3074,W,1,09,1.0,11.0,M,-34.8,M,,*69
$PYRTM,2024,122.255495109491,13.365142519630
$GPGGA,060753.00,3324.5718,N,11916.3096,W,1,09,1.0,8.5,M,-34.8,M,,*51
$PYRTM,2024,122.255506697986,13.365154108125
$GPGGA,060754.00,3324.5726,N,11916.3122,W,1,09,1.0,9.4,M,-34.8,M,,*55
$PYRTM,2024,122.255518257963,13.365165668102
$GPGGA,060755.00,3324.5734,N,11916.3148,W,1,09,1.0,10.8,M,-34.8,M,,*6F
$PYRTM,2024,122.255529846690,13.365177256829
$GPGGA,060756.00,3324.5744,N,11916.3172,W,1,09,1.0,13.5,M,-34.8,M,,*6C
$PYRTM,2024,122.255541404352,13.365188814491
$GPGGA,060757.00,3324.5753,N,11916.3195,W,1,09,1.0,8.8,M,-34.8,M,,*55
$PYRTM,2024,122.255552990278,13.365200400405
$GPGGA,060758.00,3324.5761,N,11916.3219,W,1,09,1.0,11.7,M,-34.8,M,,*6B
$PYRTM,2024,122.255564554063,13.365211964201
$GPGGA,060759.00,3324.5769,N,11916.3246,W,1,09,1.0,10.6,M,-34.8,M,,*68
$PYRTM,2024,122.255576134919,13.365223545058
$GPGGA,060800.00,3324.5778,N,11916.3271,W,1,09,1.0,11.4,M,-34.8,M,,*6C
$PYRTM,2024,122.255587701806,13.365235111944
$GPGGA,060801.00,3324.5789,N,11916.3293,W,1,09,1.0,12.0,M,-34.8,M,,*68
$PYRTM,2024,122.255599283623,13.365246693762
$GPGGA,060802.00,3324.5800,N,11916.3316,W,1,09,1.0,12.6,M,-34.8,M,,*6F
$PYRTM,2024,122.255610848646,13.365258258785
$GPGGA,060803.00,3324.5809,N,11916.3343,W,1,09,1.0,13.3,M,-34.8,M,,*63
$PYRTM,2024,122.255622438715,13.365269848854
$GPGGA,060804.00,3324.5815,N,11916.3368,W,1,09,1.0,12.3,M,-34.8,M,,*61
$PYRTM,2024,122.255633997222,13.365281407361
$GPGGA,060805.00,3324.5824,N,11916.3390,W,1,09,1.0,12.4,M,-34.8,M,,*62
$PYRTM,2024,122.255645584595,13.365292994734
$GPGGA,060806.00,3324.5836,N,11916.3414,W,1,09,1.0,15.1,M,-34.8,M,,*6B
$PYRTM,2024,122.255657145521,13.365304555660
$GPGGA,060807.00,3324.5848,N,11916.3440,W,1,09,1.0,14.9,M,-34.8,M,,*6B
$PYRTM,2024,122.255669074306,13.365316484444
$GPGGA,060808.00,3324.5855,N,11916.3466,W,1,09,1.0,13.5,M,-34.8,M,,*67
$PYRTM,2024,122.255680293924,13.365327704062
$GPGGA,060809.00,3324.5862,N,11916.3490,W,1,09,1.0,14.8,M,-34.8,M,,*61
$PYRTM,2024,122.255691884433,13.365339294572
$GPGGA,060810.00,3324.5872,N,11916.3514,W,1,09,1.0,13.8,M,-34.8,M,,*62
$PYRTM,2024,122.255703442928,13.365350853067
$GPGGA,060811.00,3324.5884,N,11916.3543,W,1,09,1.0,12.5,M,-34.8,M,,*64
$PYRTM,2024,122.255715033681,13.365362443819
$GPGGA,060812.00,3324.5894,N,11916.3571,W,1,09,1.0,14.7,M,-34.8,M,,*63
$PYRTM,2024,122.255725209931,13.365372620069
$GPGGA,060813.00,3324.5901,N,11916.3594,W,1,09,1.0,14.0,M,-34.8,M,,*63
$PYRTM,2024,122.255737136215,13.365384546354
$GPGGA,060814.00,3324.5908,N,11916.3619,W,1,09,1.0,14.5,M,-34.8,M,,*6E
$PYRTM,2024,122.255749741042,13.365397151181
$GPGGA,060815.00,3324.5918,N,11916.3645,W,1,09,1.0,17.1,M,-34.8,M,,*60
$PYRTM,2024,122.255761325949,13.365408736088
$GPGGA,060816.00,3324.5928,N,11916.3673,W,1,09,1.0,16.0,M,-34.8,M,,*65
$PYRTM,2024,122.255772887326,13.365420297465
$GPGGA,060817.00,3324.5936,N,11916.3699,W,1,09,1.0,14.2,M,-34.8,M,,*6F
$PYRTM,2024,122.255784469282,13.365431879421
$GPGGA,060818.00,3324.5943,N,11916.3718,W,1,09,1.0,15.1,M,-34.8,M,,*68
$PYRTM,2024,122.255796036968,13.365443447106
$GPGGA,060819.00,3324.5951,N,11916.3739,W,1,09,1.0,16.1,M,-34.8,M,,*6A
$PYRTM,2024,122.255807618125,13.365455028264
$GPGGA,060820.00,3324.5961,N,11916.3767,W,1,09,1.0,12.5,M,-34.8,M,,*68
$PYRTM,2024,122.255819183056,13.365466593194
$GPGGA,060821.00,3324.5970,N,11916.3793,W,1,09,1.0,15.6,M,-34.8,M,,*66
$PYRTM,2024,122.255830773056,13.365478183194
$GPGGA,060822.00,3324.5976,N,11916.3811,W,1,09,1.0,15.5,M,-34.8,M,,*65
$PYRTM,2024,122.255842332778,13.365489742917
$GPGGA,060823.00,3324.5983,N,11916.3832,W,1,09,1.0,11.6,M,-34.8,M,,*68
$PYRTM,2024,122.255853921586,13.365501331725
$GPGGA,060824.00,3324.5992,N,11916.3860,W,1,09,1.0,13.2,M,-34.8,M,,*6E
$PYRTM,2024,122.255865479965,13.365512890104
$GPGGA,060825.00,3324.6002,N,11916.3884,W,1,09,1.0,11.7,M,-34.8,M,,*61
$PYRTM,2024,122.255877073067,13.365524483218
$GPGGA,060826.00,3324.6008,N,11916.3902,W,1,09,1.0,14.7,M,-34.8,M,,*62
$PYRTM,2024,122.255888628900,13.365536039039
$GPGGA,060827.00,3324.6013,N,11916.3924,W,1,09,1.0,17.3,M,-34.8,M,,*6A
$PYRTM,2024,122.255900210370,13.365547620509
$GPGGA,060828.00,3324.6021,N,11916.3947,W,1,09,1.0,14.5,M,-34.8,M,,*64
$PYRTM,2024,122.255911778819,13.365559188958
$GPGGA,060829.00,3324.6030,N,11916.3970,W,1,09,1.0,14.0,M,-34.8,M,,*64
$PYRTM,2024,122.255923365926,13.365570776065
$GPGGA,060830.00,3324.6038,N,11916.3995,W,1,09,1.0,14.1,M,-34.8,M,,*6E
$PYRTM,2024,122.255934926296,13.365582336447
$GPGGA,060831.00,3324.6045,N,11916.4018,W,1,09,1.0,11.1,M,-34.8,M,,*6B
$PYRTM,2024,122.255946515637,13.365593925775
$GPGGA,060832.00,3324.6054,N,11916.4040,W,1,09,1.0,11.2,M,-34.8,M,,*66
$PYRTM,2024,122.255958553252,13.365605963391
$GPGGA,060833.00,3324.6064,N,11916.4061,W,1,09,1.0,14.0,M,-34.8,M,,*60
$PYRTM,2024,122.255970112477,13.365617522616
$GPGGA,060834.00,3324.6075,N,11916.4086,W,1,09,1.0,15.5,M,-34.8,M,,*6A
$PYRTM,2024,122.255981692292,13.365629102431
$GPGGA,060835.00,3324.6084,N,11916.4113,W,1,09,1.0,13.4,M,-34.8,M,,*6F
$PYRTM,2024,122.255993259583,13.365640669722
