$PYRTM,2024,126.166675607049,17.276323017188
$GPGGA,035959.00,3425.7946,N,12108.0157,W,1,09,1.0,4.5,M,-33.8,M,,*54
$PYRTM,2024,126.166687197280,17.276334607431
$GPGGA,040000.00,3425.7928,N,12108.0137,W,1,09,1.0,5.1,M,-33.8,M,,*58
$PYRTM,2024,126.166698755463,17.276346165602
$GPGGA,040001.00,3425.7910,N,12108.0116,W,1,09,1.0,4.2,M,-33.8,M,,*53
$PYRTM,2024,126.166710344144,17.276357754282
$GPGGA,040002.00,3425.7893,N,12108.0095,W,1,09,1.0,5.8,M,-33.8,M,,*5B
$PYRTM,2024,126.166721904873,17.276369315012
$GPGGA,040003.00,3425.7878,N,12108.0074,W,1,09,1.0,7.1,M,-33.8,M,,*5B
$PYRTM,2024,126.166733940718,17.276381350856
$GPGGA,040004.00,3425.7863,N,12108.0054,W,1,09,1.0,5.6,M,-33.8,M,,*51
$PYRTM,2024,126.166745052535,17.276392462674
$GPGGA,040005.00,3425.7847,N,12108.0033,W,1,09,1.0,6.1,M,-33.8,M,,*53
$PYRTM,2024,126.166756641204,17.276404051343
$GPGGA,040006.00,3425.7828,N,12108.0012,W,1,09,1.0,0.5,M,-33.8,M,,*58
$PYRTM,2024,126.166768201134,17.276415611273
$GPGGA,040007.00,3425.7809,N,12107.9992,W,1,09,1.0,1.5,M,-33.8,M,,*5C
$PYRTM,2024,126.166779783704,17.276427193843
$GPGGA,040008.00,3425.7792,N,12107.9972,W,1,09,1.0,2.2,M,-33.8,M,,*54
$PYRTM,2024,126.166791349178,17.276438759317
$GPGGA,040009.00,3425.7777,N,12107.9949,W,1,09,1.0,2.7,M,-33.8,M,,*53
$PYRTM,2024,126.166802936134,17.276450346273
$GPGGA,040010.00,3425.7760,N,12107.9926,W,1,09,1.0,4.8,M,-33.8,M,,*5D
$PYRTM,2024,126.166814498449,17.276461908588
$GPGGA,040011.00,3425.7742,N,12107.9903,W,1,09,1.0,7.7,M,-33.8,M,,*57
$PYRTM,2024,126.166826088912,17.276473499063
$GPGGA,040012.00,3425.7723,N,12107.9881,W,1,09,1.0,8.0,M,-33.8,M,,*50
$PYRTM,2024,126.166837646250,17.276485056389
$GPGGA,040013.00,3425.7704,N,12107.9858,W,1,09,1.0,12.0,M,-33.8,M,,*6B
$PYRTM,2024,126.166850377546,17.276497787685
$GPGGA,040014.00,3425.7686,N,12107.9837,W,1,09,1.0,10.6,M,-33.8,M,,*6A
$PYRTM,2024,126.166862994884,17.276510405023
$GPGGA,040015.00,3425.7668,N,12107.9817,W,1,09,1.0,11.4,M,-33.8,M,,*6A
$PYRTM,2024,126.166872384063,17.276519794201
$GPGGA,040016.00,3425.7650,N,12107.9797,W,1,09,1.0,12.2,M,-33.8,M,,*60
$PYRTM,2024,126.166883943380,17.276531353530
$GPGGA,040017.00,3425.7633,N,12107.9778,W,1,09,1.0,10.9,M,-33.8,M,,*6C
$PYRTM,2024,126.166895529340,17.276542939479
$GPGGA,040018.00,3425.7616,N,12107.9758,W,1,09,1.0,9.8,M,-33.8,M,,*5F
$PYRTM,2024,126.166907567396,17.276554977546
$GPGGA,040019.00,3425.7601,N,12107.9736,W,1,09,1.0,10.2,M,-33.8,M,,*62
$PYRTM,2024,126.166919127500,17.276566537639
$GPGGA,040020.00,3425.7585,N,12107.9712,W,1,09,1.0,8.5,M,-33.8,M,,*5F
$PYRTM,2024,126.166930718437,17.276578128576
$GPGGA,040021.00,3425.7569,N,12107.9690,W,1,09,1.0,8.6,M,-33.8,M,,*54
$PYRTM,2024,126.166942389491,17.276589799630
$GPGGA,040022.00,3425.7552,N,12107.9670,W,1,09,1.0,10.5,M,-33.8,M,,*6B
$PYRTM,2024,126.166953865451,17.276601275602
$GPGGA,040023.00,3425.7533,N,12107.9650,W,1,09,1.0,8.7,M,-33.8,M,,*54
$PYRTM,2024,126.166965424873,17.276612835012
$GPGGA,040024.00,3425.7514,N,12107.9629,W,1,09,1.0,9.3,M,-33.8,M,,*5D
$PYRTM,2024,126.166977127558,17.276624537708
$GPGGA,040025.00,3425.7495,N,12107.9608,W,1,09,1.0,6.9,M,-33.8,M,,*52
$PYRTM,2024,126.166988687928,17.276636098067
$GPGGA,040026.00,3425.7476,N,12107.9588,W,1,09,1.0,6.5,M,-33.8,M,,*5B
$PYRTM,2024,126.167000275359,17.276647685498
$GPGGA,040027.00,3425.7459,N,12107.9566,W,1,09,1.0,6.2,M,-33.8,M,,*50
$PYRTM,2024,126.167011834745,17.276659244884
$GPGGA,040028.00,3425.7443,N,12107.9545,W,1,09,1.0,5.9,M,-33.8,M,,*5D
$PYRTM,2024,126.167023423218,17.276670833368
$GPGGA,040029.00,3425.7427,N,12107.9524,W,1,09,1.0,3.4,M,-33.8,M,,*52
$PYRTM,2024,126.167034983519,17.276682393657
$GPGGA,040030.00,3425.7409,N,12107.9502,W,1,09,1.0,4.4,M,-33.8,M,,*55
$PYRTM,2024,126.167046568437,17.276693978576
$GPGGA,040031.00,3425.7391,N,12107.9481,W,1,09,1.0,2.9,M,-33.8,M,,*53
$PYRTM,2024,126.167058131782,17.276705541933
$GPGGA,040032.00,3425.7374,N,12107.9460,W,1,09,1.0,2.7,M,-33.8,M,,*5A
$PYRTM,2024,126.167069720532,17.276717130671
$GPGGA,040033.00,3425.7357,N,12107.9437,W,1,09,1.0,2.6,M,-33.8,M,,*59
$PYRTM,2024,126.167081279398,17.276728689549
$GPGGA,040034.00,3425.7340,N,12107.9415,W,1,09,1.0,2.7,M,-33.8,M,,*59
$PYRTM,2024,126.167092868657,17.276740278796
$GPGGA,040035.00,3425.7322,N,12107.9393,W,1,09,1.0,6.2,M,-33.8,M,,*54
$PYRTM,2024,126.167104428495,17.276751838634
$GPGGA,040036.00,3425.7304,N,12107.9371,W,1,09,1.0,8.3,M,-33.8,M,,*50
$PYRTM,2024,126.167120866250,17.276768276389
$GPGGA,040037.00,3425.7286,N,12107.9349,W,1,09,1.0,5.7,M,-33.8,M,,*58
$PYRTM,2024,126.167133942986,17.276781353125
$GPGGA,040038.00,3425.7267,N,12107.9329,W,1,09,1.0,1.9,M,-33.8,M,,*54
$PYRTM,2024,126.167144608785,17.276792018935
$GPGGA,040039.00,3425.7247,N,12107.9309,W,1,09,1.0,5.9,M,-33.8,M,,*51
$PYRTM,2024,126.167155712396,17.276803122535
$GPGGA,040040.00,3425.7227,N,12107.9289,W,1,09,1.0,4.7,M,-33.8,M,,*5F
$PYRTM,2024,126.167166822292,17.276814232431
$GPGGA,040041.00,3425.7210,N,12107.9268,W,1,09,1.0,3.5,M,-33.8,M,,*50
$PYRTM,2024,126.167177938600,17.276825348738
$GPGGA,040042.00,3425.7193,N,12107.9245,W,1,09,1.0,6.1,M,-33.8,M,,*55
$PYRTM,2024,126.167189051944,17.276836462095
$GPGGA,040043.00,3425.7176,N,12107.9223,W,1,09,1.0,5.8,M,-33.8,M,,*55
$PYRTM,2024,126.167200176563,17.276847586701
$GPGGA,040044.00,3425.7157,N,12107.9202,W,1,09,1.0,6.3,M,-33.8,M,,*5A
$PYRTM,2024,126.167214860127,17.276862270266
$GPGGA,040045.00,3425.7139,N,12107.9180,W,1,09,1.0,10.0,M,-33.8,M,,*6E
$PYRTM,2024,126.167225974572,17.276873384711
$GPGGA,040046.00,3425.7121,N,12107.9157,W,1,09,1.0,11.8,M,-33.8,M,,*67
$PYRTM,2024,126.167237082083,17.276884492222
$GPGGA,040047.00,3425.7103,N,12107.9134,W,1,09,1.0,9.3,M,-33.8,M,,*51
$PYRTM,2024,126.167248196690,17.276895606829
$GPGGA,040048.00,3425.7086,N,12107.9111,W,1,09,1.0,7.3,M,-33.8,M,,*5B
$PYRTM,2024,126.167259753519,17.276907163657
$GPGGA,040049.00,3425.7067,N,12107.9090,W,1,09,1.0,8.8,M,-33.8,M,,*59
$PYRTM,2024,126.167270866458,17.276918276597
$GPGGA,040050.00,3425.7049,N,12107.9070,W,1,09,1.0,8.7,M,-33.8,M,,*5C
$PYRTM,2024,126.167281976991,17.276929387130
$GPGGA,040051.00,3425.7032,N,12107.9049,W,1,09,1.0,11.9,M,-33.8,M,,*6D
$PYRTM,2024,126.167293088600,17.276940498738
$GPGGA,040052.00,3425.7016,N,12107.9027,W,1,09,1.0,11.3,M,-33.8,M,,*6A
$PYRTM,2024,126.167304315394,17.276951725532
$GPGGA,040053.00,3425.6998,N,12107.9005,W,1,09,1.0,10.4,M,-33.8,M,,*63
$PYRTM,2024,126.167315788345,17.276963198484
$GPGGA,040054.00,3425.6980,N,12107.8984,W,1,09,1.0,7.9,M,-33.8,M,,*57
$PYRTM,2024,126.167326897488,17.276974307627
$GPGGA,040055.00,3425.6962,N,12107.8963,W,1,09,1.0,6.6,M,-33.8,M,,*5D
$PYRTM,2024,126.167338127917,17.276985538056
$GPGGA,040056.00,3425.6947,N,12107.8942,W,1,09,1.0,5.8,M,-33.8,M,,*57
$PYRTM,2024,126.167349224456,17.276996634595
$GPGGA,040057.00,3425.6933,N,12107.8919,W,1,09,1.0,5.3,M,-33.8,M,,*50
$PYRTM,2024,126.167360350833,17.277007760972
$GPGGA,040058.00,3425.6917,N,12107.8897,W,1,09,1.0,6.9,M,-33.8,M,,*57
$PYRTM,2024,126.167371445694,17.277018855833
$GPGGA,040059.00,3425.6898,N,12107.8876,W,1,09,1.0,6.5,M,-33.8,M,,*53
$PYRTM,2024,126.167382557894,17.277029968032
$GPGGA,040100.00,3425.6878,N,12107.8855,W,1,09,1.0,5.8,M,-33.8,M,,*5F
$PYRTM,2024,126.167393680833,17.277041090972
$GPGGA,040101.00,3425.6859,N,12107.8835,W,1,09,1.0,7.8,M,-33.8,M,,*59
$PYRTM,2024,126.167404791528,17.277052201667
$GPGGA,040102.00,3425.6842,N,12107.8812,W,1,09,1.0,8.6,M,-33.8,M,,*54
$PYRTM,2024,126.167415906169,17.277063316308
$GPGGA,040103.00,3425.6825,N,12107.8791,W,1,09,1.0,7.0,M,-33.8,M,,*59
$PYRTM,2024,126.167433264144,17.277080674282
$GPGGA,040104.00,3425.6807,N,12107.8772,W,1,09,1.0,4.9,M,-33.8,M,,*59
$PYRTM,2024,126.167444495035,17.277091905174
$GPGGA,040105.00,3425.6789,N,12107.8754,W,1,09,0.8,4.5,M,-33.8,M,,*50
$PYRTM,2024,126.167455603322,17.277103013461
$GPGGA,040106.00,3425.6774,N,12107.8733,W,1,09,0.8,3.7,M,-33.8,M,,*55
$PYRTM,2024,126.167466728576,17.277114138715
$GPGGA,040107.00,3425.6758,N,12107.8710,W,1,09,0.8,3.5,M,-33.8,M,,*59
$PYRTM,2024,126.167477820428,17.277125230567
$GPGGA,040108.00,3425.6741,N,12107.8686,W,1,09,0.8,4.8,M,-33.8,M,,*5A
$PYRTM,2024,126.167488936238,17.277136346377
$GPGGA,040109.00,3425.6723,N,12107.8664,W,1,09,0.8,4.8,M,-33.8,M,,*53
$PYRTM,2024,126.167500042870,17.277147453009
$GPGGA,040110.00,3425.6706,N,12107.8643,W,1,09,0.8,6.0,M,-33.8,M,,*53
$PYRTM,2024,126.167511145289,17.277158555428
$GPGGA,040111.00,3425.6690,N,12107.8620,W,1,09,0.8,6.9,M,-33.8,M,,*50
$PYRTM,2024,126.167522273044,17.277169683194
$GPGGA,040112.00,3425.6675,N,12107.8598,W,1,09,0.8,7.3,M,-33.8,M,,*53
$PYRTM,2024,126.167533370451,17.277180780590
$GPGGA,040113.00,3425.6658,N,12107.8576,W,1,09,0.8,5.6,M,-33.8,M,,*5A
$PYRTM,2024,126.167545539120,17.277192949259
$GPGGA,040114.00,3425.6640,N,12107.8557,W,1,09,0.8,6.3,M,-33.8,M,,*51
$PYRTM,2024,126.167556760093,17.277204170231
$GPGGA,040115.00,3425.6622,N,12107.8537,W,1,09,0.8,2.9,M,-33.8,M,,*5C
$PYRTM,2024,126.167567859931,17.277215270069
$GPGGA,040116.00,3425.6606,N,12107.8516,W,1,09,0.8,4.0,M,-33.8,M,,*55
$PYRTM,2024,126.167578982546,17.277226392685
$GPGGA,040117.00,3425.6591,N,12107.8493,W,1,09,0.8,2.7,M,-33.8,M,,*54
$PYRTM,2024,126.167590209491,17.277237619630
$GPGGA,040118.00,3425.6574,N,12107.8470,W,1,09,0.8,3.3,M,-33.8,M,,*58
$PYRTM,2024,126.167602030532,17.277249440671
$GPGGA,040119.00,3425.6556,N,12107.8448,W,1,09,0.8,4.7,M,-33.8,M,,*51
$PYRTM,2024,126.167613128090,17.277260538229
$GPGGA,040120.00,3425.6537,N,12107.8426,W,1,09,0.8,5.1,M,-33.8,M,,*53
$PYRTM,2024,126.167624689271,17.277272099410
$GPGGA,040121.00,3425.6521,N,12107.8403,W,1,09,0.8,5.6,M,-33.8,M,,*55
$PYRTM,2024,126.167636275509,17.277283685648
$GPGGA,040122.00,3425.6507,N,12107.8378,W,1,09,0.8,5.2,M,-33.8,M,,*5D
$PYRTM,2024,126.167647836586,17.277295246725
$GPGGA,040123.00,3425.6490,N,12107.8354,W,1,09,0.8,5.0,M,-33.8,M,,*5F
$PYRTM,2024,126.167659437199,17.277306847338
$GPGGA,040124.00,3425.6471,N,12107.8333,W,1,09,0.8,4.7,M,-33.8,M,,*50
$PYRTM,2024,126.167670985069,17.277318395208
$GPGGA,040125.00,3425.6450,N,12107.8313,W,1,09,0.8,4.3,M,-33.8,M,,*54
$PYRTM,2024,126.167682574780,17.277329984919
$GPGGA,040126.00,3425.6432,N,12107.8291,W,1,09,0.8,3.3,M,-33.8,M,,*5F
$PYRTM,2024,126.167694134491,17.277341544630
$GPGGA,040127.00,3425.6416,N,12107.8269,W,1,09,0.8,5.5,M,-33.8,M,,*5F
$PYRTM,2024,126.167705715000,17.277353125150
$GPGGA,040128.00,3425.6400,N,12107.8247,W,1,09,0.8,3.3,M,-33.8,M,,*5B
$PYRTM,2024,126.167717282616,17.277364692766
$GPGGA,040129.00,3425.6384,N,12107.8225,W,1,09,0.8,4.3,M,-33.8,M,,*52
$PYRTM,2024,126.167728870313,17.277376280451
$GPGGA,040130.00,3425.6366,N,12107.8204,W,1,09,0.8,3.2,M,-33.8,M,,*53
$PYRTM,2024,126.167740429965,17.277387840104
$GPGGA,040131.00,3425.6347,N,12107.8185,W,1,09,0.8,3.0,M,-33.8,M,,*59
$PYRTM,2024,126.167752012512,17.277399422650
$GPGGA,040132.00,3425.6327,N,12107.8163,W,1,09,0.8,3.5,M,-33.8,M,,*51
$PYRTM,2024,126.167763578808,17.277410988947
$GPGGA,040133.00,3425.6308,N,12107.8140,W,1,09,0.8,4.0,M,-33.8,M,,*5E
$PYRTM,2024,126.167775164664,17.277422574803
$GPGGA,040134.00,3425.6291,N,12107.8116,W,1,09,0.8,3.3,M,-33.8,M,,*5F
$PYRTM,2024,126.167786726759,17.277434136898
$GPGGA,040135.00,3425.6274,N,12107.8095,W,1,09,0.8,3.5,M,-33.8,M,,*59
$PYRTM,2024,126.167798313113,17.277445723252
$GPGGA,040136.00,3425.6255,N,12107.8073,W,1,09,0.8,3.3,M,-33.8,M,,*57
$PYRTM,2024,126.167809875313,17.277457285451
$GPGGA,040137.00,3425.6235,N,12107.8053,W,1,09,0.8,1.4,M,-33.8,M,,*57
$PYRTM,2024,126.167821461227,17.277468871366
$GPGGA,040138.00,3425.6217,N,12107.8031,W,1,09,0.8,0.9,M,-33.8,M,,*50
$PYRTM,2024,126.167833023426,17.277480433565
$GPGGA,040139.00,3425.6200,N,12107.8010,W,1,09,0.8,3.2,M,-33.8,M,,*5C
$PYRTM,2024,126.167844613519,17.277492023669
$GPGGA,040140.00,3425.6182,N,12107.7988,W,1,09,0.8,2.8,M,-33.8,M,,*57
$PYRTM,2024,126.167856172801,17.277503582940
$GPGGA,040141.00,3425.6164,N,12107.7966,W,1,09,0.8,2.1,M,-33.8,M,,*57
$PYRTM,2024,126.167867761887,17.277515172025
$GPGGA,040142.00,3425.6144,N,12107.7946,W,1,09,0.8,2.1,M,-33.8,M,,*54
$PYRTM,2024,126.167879321100,17.277526731238
$GPGGA,040143.00,3425.6127,N,12107.7923,W,1,09,0.8,2.1,M,-33.8,M,,*53
$PYRTM,2024,126.167892397917,17.277539808056
$GPGGA,040144.00,3425.6111,N,12107.7900,W,1,09,0.8,2.9,M,-33.8,M,,*58
$PYRTM,2024,126.167904666192,17.277552076331
$GPGGA,040145.00,3425.6094,N,12107.7876,W,1,09,0.8,5.5,M,-33.8,M,,*5E
$PYRTM,2024,126.167914054641,17.277561464780
$GPGGA,040146.00,3425.6076,N,12107.7854,W,1,09,0.8,5.4,M,-33.8,M,,*50
$PYRTM,2024,126.167925614815,17.277573024954
$GPGGA,040147.00,3425.6057,N,12107.7833,W,1,09,0.8,7.1,M,-33.8,M,,*54
$PYRTM,2024,126.167937202870,17.277584613021
$GPGGA,040148.00,3425.6038,N,12107.7813,W,1,09,0.8,8.8,M,-33.8,M,,*56
$PYRTM,2024,126.167949241424,17.277596651574
$GPGGA,040149.00,3425.6020,N,12107.7792,W,1,09,0.8,6.9,M,-33.8,M,,*57
$PYRTM,2024,126.167960351169,17.277607761319
$GPGGA,040150.00,3425.6004,N,12107.7770,W,1,09,0.8,7.3,M,-33.8,M,,*5E
$PYRTM,2024,126.167971913692,17.277619323843
$GPGGA,040151.00,3425.5988,N,12107.7749,W,1,09,0.8,5.4,M,-33.8,M,,*5E
$PYRTM,2024,126.167983502639,17.277630912778
$GPGGA,040152.00,3425.5971,N,12107.7728,W,1,09,0.8,5.2,M,-33.8,M,,*5A
$PYRTM,2024,126.167995060648,17.277642470787
$GPGGA,040153.00,3425.5953,N,12107.7707,W,1,09,0.8,5.7,M,-33.8,M,,*53
$PYRTM,2024,126.168006651389,17.277654061528
$GPGGA,040154.00,3425.5934,N,12107.7686,W,1,09,0.8,8.6,M,-33.8,M,,*51
$PYRTM,2024,126.168018209850,17.277665619988
$GPGGA,040155.00,3425.5917,N,12107.7663,W,1,09,0.8,9.3,M,-33.8,M,,*5E
$PYRTM,2024,126.168029799491,17.277677209630
$GPGGA,040156.00,3425.5900,N,12107.7641,W,1,09,0.8,8.2,M,-33.8,M,,*5B
$PYRTM,2024,126.168041358368,17.277688768507
$GPGGA,040157.00,3425.5883,N,12107.7619,W,1,09,0.8,8.1,M,-33.8,M,,*5E
$PYRTM,2024,126.168052944421,17.277700354560
$GPGGA,040158.00,3425.5865,N,12107.7596,W,1,09,0.8,7.0,M,-33.8,M,,*53
$PYRTM,2024,126.168064506146,17.277711916296
$GPGGA,040159.00,3425.5847,N,12107.7575,W,1,09,0.8,6.7,M,-33.8,M,,*59
$PYRTM,2024,126.168076093009,17.277723503148
$GPGGA,040200.00,3425.5830,N,12107.7551,W,1,09,0.8,6.9,M,-33.8,M,,*5E
$PYRTM,2024,126.168087653553,17.277735063692
$GPGGA,040201.00,3425.5812,N,12107.7528,W,1,09,0.8,6.7,M,-33.8,M,,*5F
$PYRTM,2024,126.168099242049,17.277746652187
$GPGGA,040202.00,3425.5794,N,12107.7504,W,1,09,0.8,5.9,M,-33.8,M,,*5E
$PYRTM,2024,126.168110802731,17.277758212870
$GPGGA,040203.00,3425.5776,N,12107.7482,W,1,09,0.8,7.8,M,-33.8,M,,*5F
$PYRTM,2024,126.168122390741,17.277769800880
$GPGGA,040204.00,3425.5757,N,12107.7463,W,1,09,0.8,8.9,M,-33.8,M,,*5A
$PYRTM,2024,126.168133950579,17.277781360718
$GPGGA,040205.00,3425.5738,N,12107.7443,W,1,09,0.8,12.1,M,-33.8,M,,*63
$PYRTM,2024,126.168145534248,17.277792944398
$GPGGA,040206.00,3425.5721,N,12107.7423,W,1,09,0.8,11.5,M,-33.8,M,,*69
$PYRTM,2024,126.168157100023,17.277804510162
$GPGGA,040207.00,3425.5706,N,12107.7401,W,1,09,0.8,10.6,M,-33.8,M,,*6F
$PYRTM,2024,126.168168700208,17.277816110347
$GPGGA,040208.00,3425.5692,N,12107.7379,W,1,09,0.8,9.4,M,-33.8,M,,*5E
$PYRTM,2024,126.168180247870,17.277827658009
$GPGGA,040209.00,3425.5676,N,12107.7356,W,1,09,0.8,8.3,M,-33.8,M,,*5E
$PYRTM,2024,126.168191837234,17.277839247373
$GPGGA,040210.00,3425.5657,N,12107.7336,W,1,09,0.8,6.5,M,-33.8,M,,*5B
$PYRTM,2024,126.168203398553,17.277850808704
$GPGGA,040211.00,3425.5637,N,12107.7315,W,1,09,0.8,6.6,M,-33.8,M,,*5E
$PYRTM,2024,126.168214983970,17.277862394120
$GPGGA,040212.00,3425.5620,N,12107.7292,W,1,09,0.8,7.6,M,-33.8,M,,*54
$PYRTM,2024,126.168226546389,17.277873956528
$GPGGA,040213.00,3425.5603,N,12107.7267,W,1,09,0.8,8.1,M,-33.8,M,,*56
$PYRTM,2024,126.168239276678,17.277886686817
$GPGGA,040214.00,3425.5586,N,12107.7242,W,1,09,0.8,9.0,M,-33.8,M,,*58
$PYRTM,2024,126.168251899282,17.277899309421
$GPGGA,040215.00,3425.5567,N,12107.7219,W,1,09,0.8,8.4,M,-33.8,M,,*5D
$PYRTM,2024,126.168261280660,17.277908690799
$GPGGA,040216.00,3425.5550,N,12107.7198,W,1,09,0.8,8.9,M,-33.8,M,,*5D
$PYRTM,2024,126.168272840914,17.277920251053
$GPGGA,040217.00,3425.5534,N,12107.7176,W,1,09,0.8,7.6,M,-33.8,M,,*5E
$PYRTM,2024,126.168284429560,17.277931839699
$GPGGA,040218.00,3425.5516,N,12107.7155,W,1,09,0.8,6.2,M,-33.8,M,,*55
$PYRTM,2024,126.168296460324,17.277943870463
$GPGGA,040219.00,3425.5496,N,12107.7136,W,1,09,0.8,7.8,M,-33.8,M,,*53
$PYRTM,2024,126.168307571968,17.277954982106
$GPGGA,040220.00,3425.5478,N,12107.7115,W,1,09,0.8,7.2,M,-33.8,M,,*52
$PYRTM,2024,126.168319138206,17.277966548345
$GPGGA,040221.00,3425.5461,N,12107.7092,W,1,09,0.8,7.3,M,-33.8,M,,*54
$PYRTM,2024,126.168330727384,17.277978137523
$GPGGA,040222.00,3425.5445,N,12107.7067,W,1,09,0.8,7.3,M,-33.8,M,,*5B
$PYRTM,2024,126.168342289306,17.277989699444
$GPGGA,040223.00,3425.5429,N,12107.7043,W,1,09,0.8,4.7,M,-33.8,M,,*51
$PYRTM,2024,126.168353877164,17.278001287303
$GPGGA,040224.00,3425.5412,N,12107.7021,W,1,09,0.8,2.0,M,-33.8,M,,*5B
$PYRTM,2024,126.168365435023,17.278012845162
$GPGGA,040225.00,3425.5394,N,12107.7001,W,1,09,0.8,3.2,M,-33.8,M,,*52
$PYRTM,2024,126.168377023912,17.278024434051
$GPGGA,040226.00,3425.5376,N,12107.6981,W,1,09,0.8,3.9,M,-33.8,M,,*56
$PYRTM,2024,126.168388584375,17.278035994514
$GPGGA,040227.00,3425.5359,N,12107.6961,W,1,09,0.8,5.6,M,-33.8,M,,*5D
$PYRTM,2024,126.168400170521,17.278047580660
$GPGGA,040228.00,3425.5345,N,12107.6940,W,1,09,0.8,5.5,M,-33.8,M,,*5F
$PYRTM,2024,126.168411732060,17.278059142211
$GPGGA,040229.00,3425.5330,N,12107.6920,W,1,09,0.8,5.3,M,-33.8,M,,*5C
$PYRTM,2024,126.168423317882,17.278070728021
$GPGGA,040230.00,3425.5313,N,12107.6900,W,1,09,1.0,6.1,M,-33.8,M,,*5F
$PYRTM,2024,126.168434878808,17.278082288947
$GPGGA,040231.00,3425.5295,N,12107.6880,W,1,09,1.0,4.3,M,-33.8,M,,*58
$PYRTM,2024,126.168446465544,17.278093875694
$GPGGA,040232.00,3425.5276,N,12107.6859,W,1,09,0.8,7.8,M,-33.8,M,,*53
$PYRTM,2024,126.168458027674,17.278105437812
$GPGGA,040233.00,3425.5258,N,12107.6836,W,1,09,0.8,8.0,M,-33.8,M,,*50
$PYRTM,2024,126.168470065961,17.278117476100
$GPGGA,040234.00,3425.5240,N,12107.6812,W,1,09,0.8,4.3,M,-33.8,M,,*57
$PYRTM,2024,126.168481177662,17.278128587812
$GPGGA,040235.00,3425.5222,N,12107.6790,W,1,09,0.8,7.5,M,-33.8,M,,*52
$PYRTM,2024,126.168492767674,17.278140177812
$GPGGA,040236.00,3425.5206,N,12107.6769,W,1,09,0.8,8.2,M,-33.8,M,,*59
$PYRTM,2024,126.168504325440,17.278151735579
$GPGGA,040237.00,3425.5190,N,12107.6746,W,1,09,0.8,5.4,M,-33.8,M,,*52
$PYRTM,2024,126.168515916227,17.278163326366
$GPGGA,040238.00,3425.5175,N,12107.6722,W,1,09,0.8,5.1,M,-33.8,M,,*51
$PYRTM,2024,126.168527472847,17.278174882998
$GPGGA,040239.00,3425.5159,N,12107.6701,W,1,09,0.8,4.1,M,-33.8,M,,*5E
$PYRTM,2024,126.168539060278,17.278186470417
$GPGGA,040240.00,3425.5142,N,12107.6682,W,1,09,0.8,3.8,M,-33.8,M,,*5E
$PYRTM,2024,126.168550622292,17.278198032431
$GPGGA,040241.00,3425.5126,N,12107.6663,W,1,09,0.8,5.2,M,-33.8,M,,*5E
$PYRTM,2024,126.168561281910,17.278208692049
$GPGGA,040242.00,3425.5109,N,12107.6642,W,1,09,0.8,3.9,M,-33.8,M,,*5E
$PYRTM,2024,126.168573322477,17.278220732616
$GPGGA,040243.00,3425.5093,N,12107.6619,W,1,09,0.8,5.0,M,-33.8,M,,*5C
$PYRTM,2024,126.168584067998,17.278231478137
$GPGGA,040244.00,3425.5076,N,12107.6598,W,1,09,0.8,2.6,M,-33.8,M,,*5B
$PYRTM,2024,126.168595178472,17.278242588611
$GPGGA,040245.00,3425.5058,N,12107.6577,W,1,09,0.8,1.4,M,-33.8,M,,*56
$PYRTM,2024,126.168606290995,17.278253701134
$GPGGA,040246.00,3425.5039,N,12107.6556,W,1,09,0.8,1.1,M,-33.8,M,,*54
$PYRTM,2024,126.168620875810,17.278268285949
$GPGGA,040247.00,3425.5020,N,12107.6534,W,1,09,0.8,0.4,M,-33.8,M,,*5D
$PYRTM,2024,126.168631986898,17.278279397037
$GPGGA,040248.00,3425.5001,N,12107.6511,W,1,09,0.8,2.0,M,-33.8,M,,*50
$PYRTM,2024,126.168643568553,17.278290978692
$GPGGA,040249.00,3425.4985,N,12107.6488,W,1,09,0.8,1.3,M,-33.8,M,,*54
$PYRTM,2024,126.168655611412,17.278303021551
$GPGGA,040250.00,3425.4967,N,12107.6466,W,1,09,0.8,-0.8,M,-33.8,M,,*77
$PYRTM,2024,126.168666722535,17.278314132674
$GPGGA,040251.00,3425.4950,N,12107.6446,W,1,09,0.8,0.0,M,-33.8,M,,*55
$PYRTM,2024,126.168677952639,17.278325362778
$GPGGA,040252.00,3425.4932,N,12107.6427,W,1,09,0.8,-0.3,M,-33.8,M,,*7B
$PYRTM,2024,126.168689511065,17.278336921204
$GPGGA,040253.00,3425.4914,N,12107.6408,W,1,09,0.8,-0.7,M,-33.8,M,,*77
$PYRTM,2024,126.168701100602,17.278348510741
$GPGGA,040254.00,3425.4897,N,12107.6387,W,1,09,0.8,1.0,M,-33.8,M,,*51
$PYRTM,2024,126.168712659722,17.278360069861
$GPGGA,040255.00,3425.4881,N,12107.6365,W,1,09,0.8,0.3,M,-33.8,M,,*59
$PYRTM,2024,126.168724241968,17.278371652106
$GPGGA,040256.00,3425.4864,N,12107.6343,W,1,09,0.8,1.1,M,-33.8,M,,*56
$PYRTM,2024,126.168735808125,17.278383218264
$GPGGA,040257.00,3425.4847,N,12107.6322,W,1,09,0.8,1.5,M,-33.8,M,,*55
$PYRTM,2024,126.168747395440,17.278394805579
$GPGGA,040258.00,3425.4828,N,12107.6302,W,1,09,0.8,3.2,M,-33.8,M,,*54
$PYRTM,2024,126.168758956863,17.278406367014
$GPGGA,040259.00,3425.4809,N,12107.6282,W,1,09,0.8,2.5,M,-33.8,M,,*59
$PYRTM,2024,126.168770542002,17.278417952141
$GPGGA,040300.00,3425.4789,N,12107.6261,W,1,09,0.8,4.4,M,-33.8,M,,*59
$PYRTM,2024,126.168782104491,17.278429514630
$GPGGA,040301.00,3425.4771,N,12107.6239,W,1,09,0.8,5.1,M,-33.8,M,,*56
$PYRTM,2024,126.168793690509,17.278441100648
$GPGGA,040302.00,3425.4754,N,12107.6217,W,1,09,0.8,4.4,M,-33.8,M,,*5A
$PYRTM,2024,126.168805251470,17.278452661620
$GPGGA,040303.00,3425.4737,N,12107.6195,W,1,10,0.8,2.5,M,-33.8,M,,*58
$PYRTM,2024,126.168816842569,17.278464252708
$GPGGA,040304.00,3425.4721,N,12107.6174,W,1,10,0.8,3.1,M,-33.8,M,,*52
$PYRTM,2024,126.168828399942,17.278475810081
$GPGGA,040305.00,3425.4703,N,12107.6152,W,1,10,0.8,5.5,M,-33.8,M,,*55
$PYRTM,2024,126.168840001088,17.278487411227
$GPGGA,040306.00,3425.4684,N,12107.6132,W,1,10,0.8,3.6,M,-33.8,M,,*5B
$PYRTM,2024,126.168851548125,17.278498958264
$GPGGA,040307.00,3425.4668,N,12107.6113,W,1,10,0.8,0.0,M,-33.8,M,,*5E
$PYRTM,2024,126.168863136250,17.278510546389
$GPGGA,040308.00,3425.4652,N,12107.6093,W,1,10,0.8,1.8,M,-33.8,M,,*58
$PYRTM,2024,126.168874696736,17.278522106875
$GPGGA,040309.00,3425.4635,N,12107.6071,W,1,10,0.8,4.2,M,-33.8,M,,*5B
$PYRTM,2024,126.168886278380,17.278533688519
$GPGGA,040310.00,3425.4616,N,12107.6050,W,1,10,0.8,3.1,M,-33.8,M,,*55
$PYRTM,2024,126.168897845868,17.278545256007
$GPGGA,040311.00,3425.4598,N,12107.6028,W,1,10,0.8,5.3,M,-33.8,M,,*5A
$PYRTM,2024,126.168909433681,17.278556843819
$GPGGA,040312.00,3425.4580,N,12107.6004,W,1,10,0.8,2.8,M,-33.8,M,,*52
$PYRTM,2024,126.168920993889,17.278568404028
$GPGGA,040313.00,3425.4563,N,12107.5981,W,1,10,0.8,4.9,M,-33.8,M,,*5E
$PYRTM,2024,126.168932575949,17.278579986088
$GPGGA,040314.00,3425.4544,N,12107.5959,W,1,10,0.8,3.0,M,-33.8,M,,*57
$PYRTM,2024,126.168942765868,17.278590176007
$GPGGA,040315.00,3425.4525,N,12107.5938,W,1,10,0.8,2.4,M,-33.8,M,,*53
$PYRTM,2024,126.168954567245,17.278601977384
$GPGGA,040316.00,3425.4506,N,12107.5916,W,1,10,0.8,1.8,M,-33.8,M,,*52
$PYRTM,2024,126.168967290729,17.278614700868
$GPGGA,040317.00,3425.4490,N,12107.5895,W,1,10,0.8,2.7,M,-33.8,M,,*5B
$PYRTM,2024,126.168978877211,17.278626287350
$GPGGA,040318.00,3425.4474,N,12107.5873,W,1,10,0.8,2.4,M,-33.8,M,,*55
$PYRTM,2024,126.168990448935,17.278637859074
$GPGGA,040319.00,3425.4458,N,12107.5850,W,1,10,0.8,1.3,M,-33.8,M,,*5F
$PYRTM,2024,126.169002476019,17.278649886157
$GPGGA,040320.00,3425.4443,N,12107.5828,W,1,10,0.8,1.6,M,-33.8,M,,*55
$PYRTM,2024,126.169013588264,17.278660998414
$GPGGA,040321.00,3425.4425,N,12107.5807,W,1,10,0.8,0.2,M,-33.8,M,,*5C
$PYRTM,2024,126.169025176817,17.278672586956
$GPGGA,040322.00,3425.4407,N,12107.5786,W,1,10,0.8,2.2,M,-33.8,M,,*5B
$PYRTM,2024,126.169036736019,17.278684146169
$GPGGA,040323.00,3425.4389,N,12107.5765,W,1,10,0.8,2.3,M,-33.8,M,,*57
$PYRTM,2024,126.169048323044,17.278695733194
$GPGGA,040324.00,3425.4372,N,12107.5743,W,1,10,0.8,0.6,M,-33.8,M,,*57
$PYRTM,2024,126.169059883472,17.278707293623
$GPGGA,040325.00,3425.4355,N,12107.5719,W,1,10,0.8,1.9,M,-33.8,M,,*52
$PYRTM,2024,126.169071471551,17.278718881690
$GPGGA,040326.00,3425.4337,N,12107.5695,W,1,10,0.8,3.9,M,-33.8,M,,*52
$PYRTM,2024,126.169083032535,17.278730442674
$GPGGA,040327.00,3425.4319,N,12107.5672,W,1,10,0.8,4.8,M,-33.8,M,,*50
$PYRTM,2024,126.169094621343,17.278742031481
$GPGGA,040328.00,3425.4303,N,12107.5648,W,1,10,0.8,5.7,M,-33.8,M,,*53
$PYRTM,2024,126.169106182431,17.278753592569
$GPGGA,040329.00,3425.4286,N,12107.5625,W,1,10,0.8,4.4,M,-33.8,M,,*57
$PYRTM,2024,126.169117768542,17.278765178681
$GPGGA,040330.00,3425.4268,N,12107.5602,W,1,10,0.8,4.5,M,-33.8,M,,*5B
$PYRTM,2024,126.169129328889,17.278776739028
$GPGGA,040331.00,3425.4250,N,12107.5579,W,1,10,0.8,3.0,M,-33.8,M,,*5C
$PYRTM,2024,126.169140918623,17.278788328773
$GPGGA,040332.00,3425.4232,N,12107.5558,W,1,10,0.8,6.8,M,-33.8,M,,*55
$PYRTM,2024,126.169152475810,17.278799885949
$GPGGA,040333.00,3425.4218,N,12107.5535,W,1,10,0.8,6.3,M,-33.8,M,,*5C
$PYRTM,2024,126.169164077500,17.278811487639
$GPGGA,040334.00,3425.4203,N,12107.5513,W,1,10,0.8,5.9,M,-33.8,M,,*5C
$PYRTM,2024,126.169175625937,17.278823036076
$GPGGA,040335.00,3425.4187,N,12107.5491,W,1,10,0.8,4.3,M,-33.8,M,,*52
$PYRTM,2024,126.169187215174,17.278834625324
$GPGGA,040336.00,3425.4167,N,12107.5470,W,1,10,0.8,3.7,M,-33.8,M,,*53
$PYRTM,2024,126.169198773530,17.278846183669
$GPGGA,040337.00,3425.4147,N,12107.5452,W,1,10,0.8,6.0,M,-33.8,M,,*52
$PYRTM,2024,126.169210355544,17.278857765683
$GPGGA,040338.00,3425.4129,N,12107.5431,W,1,10,0.8,4.4,M,-33.8,M,,*56
$PYRTM,2024,126.169221922211,17.278869332350
$GPGGA,040339.00,3425.4114,N,12107.5408,W,1,10,0.8,5.2,M,-33.8,M,,*54
$PYRTM,2024,126.169233505255,17.278880915394
$GPGGA,040340.00,3425.4099,N,12107.5386,W,1,10,0.8,2.3,M,-33.8,M,,*59
$PYRTM,2024,126.169245070093,17.278892480231
$GPGGA,040341.00,3425.4082,N,12107.5364,W,1,10,0.8,1.8,M,-33.8,M,,*56
$PYRTM,2024,126.169256658426,17.278904068565
$GPGGA,040342.00,3425.4064,N,12107.5343,W,1,10,0.8,2.0,M,-33.8,M,,*53
$PYRTM,2024,126.169268218808,17.278915628947
$GPGGA,040343.00,3425.4045,N,12107.5322,W,1,10,0.8,3.2,M,-33.8,M,,*55
$PYRTM,2024,126.169279805741,17.278927215880
$GPGGA,040344.00,3425.4026,N,12107.5301,W,1,10,0.8,2.2,M,-33.8,M,,*57
$PYRTM,2024,126.169289991644,17.278937401782
$GPGGA,040345.00,3425.4009,N,12107.5278,W,1,10,0.8,3.2,M,-33.8,M,,*55
$PYRTM,2024,126.169301807731,17.278949217870
$GPGGA,040346.00,3425.3993,N,12107.5256,W,1,10,0.8,2.6,M,-33.8,M,,*52
$PYRTM,2024,126.169314514780,17.278961924919
$GPGGA,040347.00,3425.3976,N,12107.5235,W,1,10,0.8,0.7,M,-33.8,M,,*5E
$PYRTM,2024,126.169326105509,17.278973515660
$GPGGA,040348.00,3425.3958,N,12107.5216,W,1,10,0.8,3.7,M,-33.8,M,,*5F
$PYRTM,2024,126.169337665949,17.278985076088
$GPGGA,040349.00,3425.3940,N,12107.5197,W,1,10,0.8,3.3,M,-33.8,M,,*59
$PYRTM,2024,126.169349325382,17.278996735521
$GPGGA,040350.00,3425.3923,N,12107.5177,W,1,10,0.8,1.2,M,-33.8,M,,*59
$PYRTM,2024,126.169361287755,17.279008697894
$GPGGA,040351.00,3425.3906,N,12107.5156,W,1,10,0.8,1.9,M,-33.8,M,,*57
$PYRTM,2024,126.169372399410,17.279019809560
$GPGGA,040352.00,3425.3890,N,12107.5134,W,1,10,0.8,0.8,M,-33.8,M,,*5E
$PYRTM,2024,126.169383963437,17.279031373576
$GPGGA,040353.00,3425.3873,N,12107.5110,W,1,10,0.8,2.6,M,-33.8,M,,*58
$PYRTM,2024,126.169395547477,17.279042957616
$GPGGA,040354.00,3425.3854,N,12107.5089,W,1,10,0.8,1.7,M,-33.8,M,,*59
$PYRTM,2024,126.169407107986,17.279054518125
$GPGGA,040355.00,3425.3834,N,12107.5069,W,1,10,0.8,2.7,M,-33.8,M,,*53
$PYRTM,2024,126.169418695718,17.279066105856
$GPGGA,040356.00,3425.3815,N,12107.5048,W,1,10,0.8,4.7,M,-33.8,M,,*56
$PYRTM,2024,126.169430258356,17.279077668495
$GPGGA,040357.00,3425.3797,N,12107.5028,W,1,10,0.8,4.5,M,-33.8,M,,*56
$PYRTM,2024,126.169441843854,17.279089253993
$GPGGA,040358.00,3425.3781,N,12107.5007,W,1,10,0.8,4.2,M,-33.8,M,,*54
$PYRTM,2024,126.169453404630,17.279100814769
$GPGGA,040359.00,3425.3764,N,12107.4986,W,1,10,0.8,4.8,M,-33.8,M,,*55
$PYRTM,2024,126.169464988090,17.279112398241
$GPGGA,040400.00,3425.3747,N,12107.4967,W,1,10,0.8,3.7,M,-33.8,M,,*58
$PYRTM,2024,126.169476555914,17.279123966053
$GPGGA,040401.00,3425.3729,N,12107.4948,W,1,10,0.8,4.6,M,-33.8,M,,*5A
$PYRTM,2024,126.169488143171,17.279135553310
$GPGGA,040402.00,3425.3711,N,12107.4928,W,1,10,0.8,5.1,M,-33.8,M,,*52
$PYRTM,2024,126.169499703738,17.279147113877
$GPGGA,040403.00,3425.3694,N,12107.4905,W,1,10,0.8,4.9,M,-33.8,M,,*59
$PYRTM,2024,126.169511304051,17.279158714190
$GPGGA,040404.00,3425.3676,N,12107.4882,W,1,10,0.8,4.8,M,-33.8,M,,*5D
$PYRTM,2024,126.169522850046,17.279170260185
$GPGGA,040405.00,3425.3658,N,12107.4859,W,1,10,0.8,2.5,M,-33.8,M,,*5D
$PYRTM,2024,126.169534432257,17.279181842396
$GPGGA,040406.00,3425.3640,N,12107.4835,W,1,10,0.8,5.4,M,-33.8,M,,*5B
$PYRTM,2024,126.169545998403,17.279193408542
$GPGGA,040407.00,3425.3622,N,12107.4813,W,1,10,0.8,5.0,M,-33.8,M,,*5E
$PYRTM,2024,126.169557582963,17.279204993102
$GPGGA,040408.00,3425.3604,N,12107.4791,W,1,10,0.8,6.8,M,-33.8,M,,*5B
$PYRTM,2024,126.169569146273,17.279216556424
$GPGGA,040409.00,3425.3587,N,12107.4769,W,1,10,0.8,5.8,M,-33.8,M,,*56
$PYRTM,2024,126.169580730579,17.279228140718
$GPGGA,040410.00,3425.3571,N,12107.4745,W,1,10,0.8,4.2,M,-33.8,M,,*52
$PYRTM,2024,126.169592294954,17.279239705093
$GPGGA,040411.00,3425.3555,N,12107.4722,W,1,10,0.8,2.8,M,-33.8,M,,*58
$PYRTM,2024,126.169603882720,17.279251292859
$GPGGA,040412.00,3425.3537,N,12107.4702,W,1,10,0.8,2.9,M,-33.8,M,,*5C
$PYRTM,2024,126.169615442535,17.279262852674
$GPGGA,040413.00,3425.3518,N,12107.4684,W,1,10,0.8,2.8,M,-33.8,M,,*5E
$PYRTM,2024,126.169627031204,17.279274441354
$GPGGA,040414.00,3425.3501,N,12107.4665,W,1,10,0.8,2.4,M,-33.8,M,,*52
$PYRTM,2024,126.169637665035,17.279285075185
$GPGGA,040415.00,3425.3487,N,12107.4644,W,1,10,0.8,4.8,M,-33.8,M,,*55
$PYRTM,2024,126.169649020937,17.279296431076
$GPGGA,040416.00,3425.3474,N,12107.4621,W,1,10,0.8,6.0,M,-33.8,M,,*53
$PYRTM,2024,126.169661740428,17.279309150567
$GPGGA,040417.00,3425.3457,N,12107.4598,W,1,10,0.8,3.0,M,-33.8,M,,*57
$PYRTM,2024,126.169673330139,17.279320740278
$GPGGA,040418.00,3425.3439,N,12107.4576,W,1,10,0.8,3.8,M,-33.8,M,,*58
$PYRTM,2024,126.169684887894,17.279332298032
$GPGGA,040419.00,3425.3419,N,12107.4553,W,1,10,0.8,6.0,M,-33.8,M,,*51
$PYRTM,2024,126.169696476447,17.279343886586
$GPGGA,040420.00,3425.3401,N,12107.4529,W,1,10,0.8,3.5,M,-33.8,M,,*5F
$PYRTM,2024,126.169708036215,17.279355446354
$GPGGA,040421.00,3425.3385,N,12107.4503,W,1,10,0.8,2.0,M,-33.8,M,,*59
$PYRTM,2024,126.169720072488,17.279367482627
$GPGGA,040422.00,3425.3367,N,12107.4479,W,1,10,0.8,3.1,M,-33.8,M,,*5A
$PYRTM,2024,126.169731184190,17.279378594329
$GPGGA,040423.00,3425.3348,N,12107.4457,W,1,10,0.8,3.0,M,-33.8,M,,*5B
$PYRTM,2024,126.169742771308,17.279390181447
$GPGGA,040424.00,3425.3330,N,12107.4436,W,1,10,0.8,4.8,M,-33.8,M,,*5B
$PYRTM,2024,126.169754332558,17.279401742697
$GPGGA,040425.00,3425.3314,N,12107.4415,W,1,10,0.8,2.4,M,-33.8,M,,*57
$PYRTM,2024,126.169765920509,17.279413330648
$GPGGA,040426.00,3425.3299,N,12107.4393,W,1,10,0.8,3.7,M,-33.8,M,,*5B
$PYRTM,2024,126.169777480231,17.279424890370
$GPGGA,040427.00,3425.3284,N,12107.4372,W,1,10,0.8,3.3,M,-33.8,M,,*5D
$PYRTM,2024,126.169789071181,17.279436481319
$GPGGA,040428.00,3425.3267,N,12107.4353,W,1,10,0.8,2.2,M,-33.8,M,,*5C
$PYRTM,2024,126.169800629769,17.279448039907
$GPGGA,040429.00,3425.3250,N,12107.4333,W,1,10,0.8,4.1,M,-33.8,M,,*5A
$PYRTM,2024,126.169812221019,17.279459631157
$GPGGA,040430.00,3425.3232,N,12107.4311,W,1,10,0.8,3.4,M,-33.8,M,,*54
$PYRTM,2024,126.169823777500,17.279471187639
$GPGGA,040431.00,3425.3214,N,12107.4289,W,1,10,0.8,5.2,M,-33.8,M,,*51
$PYRTM,2024,126.169835367697,17.279482777836
$GPGGA,040432.00,3425.3197,N,12107.4267,W,1,10,0.8,4.5,M,-33.8,M,,*5C
$PYRTM,2024,126.169846926597,17.279494336736
$GPGGA,040433.00,3425.3180,N,12107.4243,W,1,10,0.8,2.8,M,-33.8,M,,*56
$PYRTM,2024,126.169858518009,17.279505928148
$GPGGA,040434.00,3425.3163,N,12107.4220,W,1,10,0.8,1.7,M,-33.8,M,,*55
$PYRTM,2024,126.169870073877,17.279517484016
$GPGGA,040435.00,3425.3145,N,12107.4198,W,1,10,0.8,2.5,M,-33.8,M,,*51
$PYRTM,2024,126.169881662199,17.279529072338
$GPGGA,040436.00,3425.3126,N,12107.4178,W,1,10,0.8,1.0,M,-33.8,M,,*5F
$PYRTM,2024,126.169893223056,17.279540633194
$GPGGA,040437.00,3425.3109,N,12107.4158,W,1,10,0.8,2.9,M,-33.8,M,,*5B
$PYRTM,2024,126.169904810000,17.279552220139
$GPGGA,040438.00,3425.3094,N,12107.4137,W,1,10,0.8,1.0,M,-33.8,M,,*52
$PYRTM,2024,126.169916373322,17.279563783461
$GPGGA,040439.00,3425.3079,N,12107.4116,W,1,10,0.8,1.9,M,-33.8,M,,*5A
$PYRTM,2024,126.169927957546,17.279575367685
$GPGGA,040440.00,3425.3059,N,12107.4098,W,1,10,0.8,2.5,M,-33.8,M,,*5E
$PYRTM,2024,126.169939519664,17.279586929815
$GPGGA,040441.00,3425.3037,N,12107.4083,W,1,10,0.8,3.6,M,-33.8,M,,*5F
$PYRTM,2024,126.169951101296,17.279598511435
$GPGGA,040442.00,3425.3019,N,12107.4064,W,1,10,0.8,1.8,M,-33.8,M,,*55
$PYRTM,2024,126.169962668553,17.279610078692
$GPGGA,040443.00,3425.3006,N,12107.4041,W,1,10,0.8,3.9,M,-33.8,M,,*5E
$PYRTM,2024,126.169974254850,17.279621664988
$GPGGA,040444.00,3425.2991,N,12107.4016,W,1,10,0.8,3.6,M,-33.8,M,,*52
$PYRTM,2024,126.169984440150,17.279631850289
$GPGGA,040445.00,3425.2973,N,12107.3993,W,1,10,0.8,4.7,M,-33.8,M,,*5A
$PYRTM,2024,126.169996264826,17.279643674965
$GPGGA,040446.00,3425.2952,N,12107.3972,W,1,10,0.8,5.7,M,-33.8,M,,*54
$PYRTM,2024,126.170008038333,17.279655448472
$GPGGA,040447.00,3425.2934,N,12107.3951,W,1,10,0.8,6.7,M,-33.8,M,,*57
$PYRTM,2024,126.170019961250,17.279667371389
$GPGGA,040448.00,3425.2919,N,12107.3929,W,1,10,0.8,6.9,M,-33.8,M,,*56
$PYRTM,2024,126.170030737685,17.279678147824
$GPGGA,040449.00,3425.2904,N,12107.3907,W,1,10,0.8,5.1,M,-33.8,M,,*5C
$PYRTM,2024,126.170041847720,17.279689257859
$GPGGA,040450.00,3425.2888,N,12107.3889,W,1,10,0.8,4.9,M,-33.8,M,,*5F
$PYRTM,2024,126.170052962257,17.279700372407
$GPGGA,040451.00,3425.2871,N,12107.3871,W,1,10,0.8,4.0,M,-33.8,M,,*56
$PYRTM,2024,126.170064069722,17.279711479861
$GPGGA,040452.00,3425.2854,N,12107.3851,W,1,10,0.8,2.8,M,-33.8,M,,*5E
$PYRTM,2024,126.170075195648,17.279722605799
$GPGGA,040453.00,3425.2839,N,12107.3829,W,1,10,0.8,3.0,M,-33.8,M,,*52
$PYRTM,2024,126.170086742245,17.279734152396
$GPGGA,040454.00,3425.2824,N,12107.3806,W,1,10,0.8,5.3,M,-33.8,M,,*51
$PYRTM,2024,126.170097853762,17.279745263912
$GPGGA,040455.00,3425.2807,N,12107.3782,W,1,10,0.8,5.0,M,-33.8,M,,*51
$PYRTM,2024,126.170108964410,17.279756374549
$GPGGA,040456.00,3425.2789,N,12107.3759,W,1,10,0.8,7.0,M,-33.8,M,,*5F
$PYRTM,2024,126.170120075208,17.279767485359
$GPGGA,040457.00,3425.2771,N,12107.3739,W,1,10,0.8,7.3,M,-33.8,M,,*5C
$PYRTM,2024,126.170137913333,17.279785323472
$GPGGA,040458.00,3425.2753,N,12107.3720,W,1,10,0.8,5.4,M,-33.8,M,,*5E
$PYRTM,2024,126.170149130104,17.279796540243
$GPGGA,040459.00,3425.2735,N,12107.3700,W,1,10,0.8,3.2,M,-33.8,M,,*5D
$PYRTM,2024,126.170160264907,17.279807675046
$GPGGA,040500.00,3425.2717,N,12107.3679,W,1,10,0.8,2.4,M,-33.8,M,,*58
$PYRTM,2024,126.170171363229,17.279818773368
$GPGGA,040501.00,3425.2699,N,12107.3659,W,1,10,0.8,3.1,M,-33.8,M,,*58
$PYRTM,2024,126.170182476458,17.279829886609
$GPGGA,040502.00,3425.2683,N,12107.3638,W,1,10,0.8,1.9,M,-33.8,M,,*5D
$PYRTM,2024,126.170193585313,17.279840995451
$GPGGA,040503.00,3425.2668,N,12107.3614,W,1,10,0.8,1.9,M,-33.8,M,,*57
$PYRTM,2024,126.170204696736,17.279852106875
$GPGGA,040504.00,3425.2653,N,12107.3590,W,1,10,0.8,6.7,M,-33.8,M,,*5E
$PYRTM,2024,126.170216257442,17.279863667581
$GPGGA,040505.00,3425.2638,N,12107.3566,W,1,10,0.8,4.6,M,-33.8,M,,*58
$PYRTM,2024,126.170227368704,17.279874778843
$GPGGA,040506.00,3425.2621,N,12107.3545,W,1,10,0.8,7.0,M,-33.8,M,,*57
$PYRTM,2024,126.170238479398,17.279885889537
$GPGGA,040507.00,3425.2603,N,12107.3526,W,1,10,0.8,5.9,M,-33.8,M,,*58
$PYRTM,2024,126.170249591875,17.279897002014
$GPGGA,040508.00,3425.2586,N,12107.3508,W,1,10,0.8,6.8,M,-33.8,M,,*57
$PYRTM,2024,126.170260702419,17.279908112558
$GPGGA,040509.00,3425.2571,N,12107.3487,W,1,10,0.8,5.4,M,-33.8,M,,*57
$PYRTM,2024,126.170271813785,17.279919223924
$GPGGA,040510.00,3425.2557,N,12107.3466,W,1,10,0.8,5.0,M,-33.8,M,,*50
$PYRTM,2024,126.170282923507,17.279930333646
$GPGGA,040511.00,3425.2542,N,12107.3444,W,1,10,0.8,5.3,M,-33.8,M,,*56
$PYRTM,2024,126.170294036944,17.279941447083
$GPGGA,040512.00,3425.2525,N,12107.3423,W,1,10,0.8,6.1,M,-33.8,M,,*54
$PYRTM,2024,126.170305147014,17.279952557153
$GPGGA,040513.00,3425.2505,N,12107.3404,W,1,10,0.8,6.6,M,-33.8,M,,*55
$PYRTM,2024,126.170316257975,17.279963668113
$GPGGA,040514.00,3425.2488,N,12107.3383,W,1,10,0.8,5.8,M,-33.8,M,,*53
$PYRTM,2024,126.170333039826,17.279980449965
$GPGGA,040515.00,3425.2475,N,12107.3360,W,1,10,0.8,4.7,M,-33.8,M,,*53
$PYRTM,2024,126.170344641713,17.279992051852
$GPGGA,040516.00,3425.2461,N,12107.3338,W,1,10,0.8,6.5,M,-33.8,M,,*58
$PYRTM,2024,126.170356190868,17.280003601007
$GPGGA,040517.00,3425.2443,N,12107.3319,W,1,10,0.8,4.4,M,-33.8,M,,*59
$PYRTM,2024,126.170367776343,17.280015186481
$GPGGA,040518.00,3425.2424,N,12107.3301,W,1,10,0.8,5.8,M,-33.8,M,,*53
$PYRTM,2024,126.170379337928,17.280026748079
$GPGGA,040519.00,3425.2406,N,12107.3282,W,1,10,0.8,2.4,M,-33.8,M,,*53
$PYRTM,2024,126.170390925313,17.280038335463
$GPGGA,040520.00,3425.2391,N,12107.3260,W,1,10,0.8,2.1,M,-33.8,M,,*59
$PYRTM,2024,126.170402486655,17.280049896794
$GPGGA,040521.00,3425.2377,N,12107.3238,W,1,10,0.8,1.4,M,-33.8,M,,*5B
$PYRTM,2024,126.170414072801,17.280061482940
$GPGGA,040522.00,3425.2363,N,12107.3216,W,1,10,0.8,5.7,M,-33.8,M,,*56
$PYRTM,2024,126.170425634086,17.280073044225
$GPGGA,040523.00,3425.2346,N,12107.3197,W,1,10,0.8,9.3,M,-33.8,M,,*52
$PYRTM,2024,126.170437216771,17.280084626910
$GPGGA,040524.00,3425.2327,N,12107.3179,W,1,10,0.8,7.2,M,-33.8,M,,*5D
$PYRTM,2024,126.170448783183,17.280096193322
$GPGGA,040525.00,3425.2308,N,12107.3163,W,1,10,0.8,5.7,M,-33.8,M,,*5D
$PYRTM,2024,126.170460370174,17.280107780312
$GPGGA,040526.00,3425.2293,N,12107.3144,W,1,10,0.8,4.0,M,-33.8,M,,*5E
$PYRTM,2024,126.170471930243,17.280119340394
$GPGGA,040527.00,3425.2279,N,12107.3123,W,1,10,0.8,4.0,M,-33.8,M,,*5A
$PYRTM,2024,126.170483520741,17.280130930880
$GPGGA,040528.00,3425.2265,N,12107.3102,W,1,10,0.8,4.0,M,-33.8,M,,*5B
$PYRTM,2024,126.170495079560,17.280142489711
$GPGGA,040529.00,3425.2248,N,12107.3082,W,1,10,0.8,4.7,M,-33.8,M,,*5B
$PYRTM,2024,126.170506668819,17.280154078958
$GPGGA,040530.00,3425.2230,N,12107.3060,W,1,10,0.8,5.9,M,-33.8,M,,*5F
$PYRTM,2024,126.170518227789,17.280165637928
$GPGGA,040531.00,3425.2211,N,12107.3039,W,1,10,0.8,6.7,M,-33.8,M,,*5C
$PYRTM,2024,126.170529818056,17.280177228206
$GPGGA,040532.00,3425.2193,N,12107.3017,W,1,10,0.8,6.3,M,-33.8,M,,*5E
$PYRTM,2024,126.170541375428,17.280188785567
$GPGGA,040533.00,3425.2175,N,12107.2996,W,1,10,0.8,8.5,M,-33.8,M,,*5E
$PYRTM,2024,126.170552964213,17.280200374352
$GPGGA,040534.00,3425.2157,N,12107.2976,W,1,10,0.8,8.8,M,-33.8,M,,*5A
$PYRTM,2024,126.170564523843,17.280211933981
$GPGGA,040535.00,3425.2142,N,12107.2955,W,1,10,0.8,7.8,M,-33.8,M,,*51
$PYRTM,2024,126.170576111088,17.280223521227
$GPGGA,040536.00,3425.2126,N,12107.2934,W,1,10,0.8,5.0,M,-33.8,M,,*5D
$PYRTM,2024,126.170587672465,17.280235082616
$GPGGA,040537.00,3425.2110,N,12107.2914,W,1,10,0.8,7.7,M,-33.8,M,,*5E
$PYRTM,2024,126.170599255799,17.280246665937
$GPGGA,040538.00,3425.2091,N,12107.2895,W,1,10,0.8,7.5,M,-33.8,M,,*53
$PYRTM,2024,126.170610822512,17.280258232650
$GPGGA,040539.00,3425.2072,N,12107.2875,W,1,10,0.8,4.8,M,-33.8,M,,*5F
$PYRTM,2024,126.170622404259,17.280269814410
$GPGGA,040540.00,3425.2056,N,12107.2853,W,1,10,0.8,3.7,M,-33.8,M,,*5B
$PYRTM,2024,126.170633969606,17.280281379745
$GPGGA,040541.00,3425.2041,N,12107.2831,W,1,10,0.8,6.1,M,-33.8,M,,*5B
$PYRTM,2024,126.170645558877,17.280292969016
$GPGGA,040542.00,3425.2023,N,12107.2813,W,1,10,0.8,5.5,M,-33.8,M,,*5B
$PYRTM,2024,126.170657117454,17.280304527593
$GPGGA,040543.00,3425.2002,N,12107.2797,W,1,10,0.8,4.9,M,-33.8,M,,*57
$PYRTM,2024,126.170668718449,17.280316128588
$GPGGA,040544.00,3425.1985,N,12107.2779,W,1,10,0.8,1.3,M,-33.8,M,,*5A
$PYRTM,2024,126.170678889884,17.280326300023
$GPGGA,040545.00,3425.1969,N,12107.2760,W,1,10,0.8,0.3,M,-33.8,M,,*50
$PYRTM,2024,126.170690695637,17.280338105764
$GPGGA,040546.00,3425.1954,N,12107.2739,W,1,10,0.8,0.3,M,-33.8,M,,*51
$PYRTM,2024,126.170703413310,17.280350823449
$GPGGA,040547.00,3425.1939,N,12107.2720,W,1,10,0.8,-0.5,M,-33.8,M,,*78
$PYRTM,2024,126.170715000926,17.280362411065
$GPGGA,040548.00,3425.1920,N,12107.2702,W,1,10,0.8,-2.1,M,-33.8,M,,*79
$PYRTM,2024,126.170726562720,17.280373972859
$GPGGA,040549.00,3425.1901,N,12107.2685,W,1,10,0.8,-2.5,M,-33.8,M,,*71
$PYRTM,2024,126.170738150058,17.280385560197
$GPGGA,040550.00,3425.1885,N,12107.2666,W,1,10,0.8,-3.6,M,-33.8,M,,*7B
$PYRTM,2024,126.170749711424,17.280397121563
$GPGGA,040551.00,3425.1869,N,12107.2642,W,1,10,0.8,-1.4,M,-33.8,M,,*7E
$PYRTM,2024,126.170761297523,17.280408707662
$GPGGA,040552.00,3425.1854,N,12107.2619,W,1,10,0.8,-0.3,M,-33.8,M,,*7B
$PYRTM,2024,126.170772860868,17.280420271007
$GPGGA,040553.00,3425.1836,N,12107.2597,W,1,10,0.8,1.3,M,-33.8,M,,*57
$PYRTM,2024,126.170784446262,17.280431856400
$GPGGA,040554.00,3425.1818,N,12107.2577,W,1,10,0.8,0.3,M,-33.8,M,,*53
$PYRTM,2024,126.170796010289,17.280443420428
$GPGGA,040555.00,3425.1802,N,12107.2557,W,1,10,0.8,2.9,M,-33.8,M,,*53
$PYRTM,2024,126.170807594537,17.280455004676
$GPGGA,040556.00,3425.1785,N,12107.2537,W,1,10,0.8,3.5,M,-33.8,M,,*5B
$PYRTM,2024,126.170819157025,17.280466567164
$GPGGA,040557.00,3425.1767,N,12107.2517,W,1,10,0.8,2.2,M,-33.8,M,,*52
$PYRTM,2024,126.170830746586,17.280478156725
$GPGGA,040558.00,3425.1748,N,12107.2498,W,1,10,0.8,0.4,M,-33.8,M,,*52
$PYRTM,2024,126.170842303912,17.280489714051
$GPGGA,040559.00,3425.1731,N,12107.2479,W,1,10,0.8,0.1,M,-33.8,M,,*57
$PYRTM,2024,126.170853894005,17.280501304155
$GPGGA,040600.00,3425.1716,N,12107.2457,W,1,10,0.8,1.7,M,-33.8,M,,*56
$PYRTM,2024,126.170865451493,17.280512861632
$GPGGA,040601.00,3425.1702,N,12107.2434,W,1,10,0.8,0.3,M,-33.8,M,,*52
$PYRTM,2024,126.170877035891,17.280524446030
$GPGGA,040602.00,3425.1686,N,12107.2411,W,1,10,0.8,2.3,M,-33.8,M,,*59
$PYRTM,2024,126.170888600914,17.280536011053
$GPGGA,040603.00,3425.1669,N,12107.2392,W,1,10,0.8,1.4,M,-33.8,M,,*51
$PYRTM,2024,126.170900188125,17.280547598264
$GPGGA,040604.00,3425.1650,N,12107.2374,W,1,10,0.8,3.6,M,-33.8,M,,*54
$PYRTM,2024,126.170911749028,17.280559159167
$GPGGA,040605.00,3425.1631,N,12107.2356,W,1,10,0.8,4.7,M,-33.8,M,,*54
$PYRTM,2024,126.170923336435,17.280570746574
$GPGGA,040606.00,3425.1614,N,12107.2339,W,1,10,0.8,2.9,M,-33.8,M,,*51
$PYRTM,2024,126.170934898113,17.280582308264
$GPGGA,040607.00,3425.1597,N,12107.2320,W,1,10,0.8,3.2,M,-33.8,M,,*5A
$PYRTM,2024,126.170946481227,17.280593891366
$GPGGA,040608.00,3425.1581,N,12107.2301,W,1,10,0.8,1.3,M,-33.8,M,,*52
$PYRTM,2024,126.170958046285,17.280605456424
$GPGGA,040609.00,3425.1565,N,12107.2283,W,1,10,0.8,1.4,M,-33.8,M,,*55
$PYRTM,2024,126.170969631759,17.280617041898
$GPGGA,040610.00,3425.1549,N,12107.2263,W,1,10,0.8,4.2,M,-33.8,M,,*5E
$PYRTM,2024,126.170981194641,17.280628604780
$GPGGA,040611.00,3425.1533,N,12107.2241,W,1,10,0.8,5.4,M,-33.8,M,,*55
$PYRTM,2024,126.170992784329,17.280640194468
$GPGGA,040612.00,3425.1514,N,12107.2219,W,1,10,0.8,6.7,M,-33.8,M,,*5E
$PYRTM,2024,126.171004341713,17.280651751852
$GPGGA,040613.00,3425.1495,N,12107.2198,W,1,10,0.8,7.7,M,-33.8,M,,*5C
$PYRTM,2024,126.171015933021,17.280663343160
$GPGGA,040614.00,3425.1476,N,12107.2178,W,1,10,0.8,8.2,M,-33.8,M,,*52
$PYRTM,2024,126.171026109630,17.280673519769
$GPGGA,040615.00,3425.1458,N,12107.2160,W,1,10,0.8,5.6,M,-33.8,M,,*5F
$PYRTM,2024,126.171037921343,17.280685331493
$GPGGA,040616.00,3425.1439,N,12107.2142,W,1,10,0.8,3.0,M,-33.8,M,,*5B
$PYRTM,2024,126.171050639282,17.280698049421
$GPGGA,040617.00,3425.1422,N,12107.2123,W,1,10,0.8,2.9,M,-33.8,M,,*5F
$PYRTM,2024,126.171062225799,17.280709635938
$GPGGA,040618.00,3425.1406,N,12107.2105,W,1,10,0.8,4.0,M,-33.8,M,,*5D
$PYRTM,2024,126.171073787720,17.280721197859
$GPGGA,040619.00,3425.1392,N,12107.2084,W,1,10,0.8,2.8,M,-33.8,M,,*50
$PYRTM,2024,126.171085375069,17.280732785220
$GPGGA,040620.00,3425.1377,N,12107.2064,W,1,10,0.8,3.6,M,-33.8,M,,*50
$PYRTM,2024,126.171096936424,17.280744346551
$GPGGA,040621.00,3425.1361,N,12107.2044,W,1,10,0.8,3.9,M,-33.8,M,,*5B
$PYRTM,2024,126.171108518125,17.280755928264
$GPGGA,040622.00,3425.1344,N,12107.2024,W,1,10,0.8,7.1,M,-33.8,M,,*55
$PYRTM,2024,126.171120082998,17.280767493148
$GPGGA,040623.00,3425.1328,N,12107.2004,W,1,10,0.8,4.1,M,-33.8,M,,*5F
$PYRTM,2024,126.171131670822,17.280779080961
$GPGGA,040624.00,3425.1311,N,12107.1983,W,1,10,0.8,3.5,M,-33.8,M,,*54
$PYRTM,2024,126.171143232627,17.280790642766
$GPGGA,040625.00,3425.1293,N,12107.1965,W,1,10,0.8,2.1,M,-33.8,M,,*53
$PYRTM,2024,126.171154822292,17.280802232431
$GPGGA,040626.00,3425.1276,N,12107.1947,W,1,10,0.8,1.8,M,-33.8,M,,*51
$PYRTM,2024,126.171166380220,17.280813790359
$GPGGA,040627.00,3425.1259,N,12107.1928,W,1,10,0.8,3.0,M,-33.8,M,,*5E
$PYRTM,2024,126.171177966493,17.280825376632
$GPGGA,040628.00,3425.1242,N,12107.1907,W,1,10,0.8,3.5,M,-33.8,M,,*53
$PYRTM,2024,126.171189528889,17.280836939028
$GPGGA,040629.00,3425.1226,N,12107.1884,W,1,10,0.8,6.0,M,-33.8,M,,*5A
$PYRTM,2024,126.171201117234,17.280848527384
$GPGGA,040630.00,3425.1210,N,12107.1861,W,1,10,0.8,4.8,M,-33.8,M,,*56
$PYRTM,2024,126.171212675498,17.280860085637
$GPGGA,040631.00,3425.1193,N,12107.1842,W,1,10,0.8,6.4,M,-33.8,M,,*50
$PYRTM,2024,126.171224259421,17.280871669560
$GPGGA,040632.00,3425.1173,N,12107.1824,W,1,10,0.8,5.6,M,-33.8,M,,*5C
$PYRTM,2024,126.171235825231,17.280883235382
$GPGGA,040633.00,3425.1152,N,12107.1807,W,1,10,0.8,3.1,M,-33.8,M,,*5E
$PYRTM,2024,126.171247411863,17.280894822002
$GPGGA,040634.00,3425.1135,N,12107.1789,W,1,10,0.8,2.2,M,-33.8,M,,*53
$PYRTM,2024,126.171258973484,17.280906383623
$GPGGA,040635.00,3425.1121,N,12107.1768,W,1,10,0.8,0.8,M,-33.8,M,,*50
$PYRTM,2024,126.171270561273,17.280917971412
$GPGGA,040636.00,3425.1105,N,12107.1747,W,1,10,0.8,-0.9,M,-33.8,M,,*74
$PYRTM,2024,126.171282122812,17.280929532951
$GPGGA,040637.00,3425.1087,N,12107.1727,W,1,10,0.8,1.5,M,-33.8,M,,*58
$PYRTM,2024,126.171293709340,17.280941119491
$GPGGA,040638.00,3425.1069,N,12107.1705,W,1,10,0.8,3.5,M,-33.8,M,,*55
$PYRTM,2024,126.171305270208,17.280952680347
$GPGGA,040639.00,3425.1053,N,12107.1682,W,1,10,0.8,4.0,M,-33.8,M,,*51
$PYRTM,2024,126.171316859444,17.280964269583
$GPGGA,040640.00,3425.1035,N,12107.1661,W,1,10,0.8,6.0,M,-33.8,M,,*50
$PYRTM,2024,126.171328418241,17.280975828380
$GPGGA,040641.00,3425.1015,N,12107.1642,W,1,10,0.8,4.6,M,-33.8,M,,*56
$PYRTM,2024,126.171340020000,17.280987430139
$GPGGA,040642.00,3425.0995,N,12107.1626,W,1,10,0.8,3.3,M,-33.8,M,,*55
$PYRTM,2024,126.171351567106,17.280998977257
$GPGGA,040643.00,3425.0975,N,12107.1611,W,1,10,0.8,1.9,M,-33.8,M,,*56
$PYRTM,2024,126.171363148981,17.281010559120
$GPGGA,040644.00,3425.0959,N,12107.1593,W,1,10,0.8,4.8,M,-33.8,M,,*52
$PYRTM,2024,126.171373789942,17.281021200081
$GPGGA,040645.00,3425.0946,N,12107.1574,W,1,10,0.8,1.6,M,-33.8,M,,*5F
$PYRTM,2024,126.171385143935,17.281032554074
$GPGGA,040646.00,3425.0932,N,12107.1554,W,1,10,0.8,4.2,M,-33.8,M,,*5C
$PYRTM,2024,126.171397863056,17.281045273194
$GPGGA,040647.00,3425.0915,N,12107.1535,W,1,10,0.8,2.6,M,-33.8,M,,*5D
$PYRTM,2024,126.171409451562,17.281056861701
$GPGGA,040648.00,3425.0897,N,12107.1516,W,1,10,0.8,5.8,M,-33.8,M,,*51
$PYRTM,2024,126.171421012106,17.281068422245
$GPGGA,040649.00,3425.0881,N,12107.1495,W,1,10,0.8,4.4,M,-33.8,M,,*50
$PYRTM,2024,126.171432598912,17.281080009051
$GPGGA,040650.00,3425.0864,N,12107.1474,W,1,10,0.8,3.6,M,-33.8,M,,*59
$PYRTM,2024,126.171444159664,17.281091569803
$GPGGA,040651.00,3425.0844,N,12107.1452,W,1,10,0.8,5.5,M,-33.8,M,,*5B
$PYRTM,2024,126.171454821100,17.281102231238
$GPGGA,040652.00,3425.0822,N,12107.1434,W,1,10,0.8,4.0,M,-33.8,M,,*5C
$PYRTM,2024,126.171466742407,17.281114152546
$GPGGA,040653.00,3425.0801,N,12107.1415,W,1,10,0.8,5.4,M,-33.8,M,,*5A
$PYRTM,2024,126.171477867488,17.281125277627
$GPGGA,040654.00,3425.0785,N,12107.1393,W,1,10,0.8,6.8,M,-33.8,M,,*58
$PYRTM,2024,126.171488965937,17.281136376076
$GPGGA,040655.00,3425.0770,N,12107.1371,W,1,10,0.8,6.3,M,-33.8,M,,*54
$PYRTM,2024,126.171500076701,17.281147486840
$GPGGA,040656.00,3425.0755,N,12107.1350,W,1,10,0.8,5.5,M,-33.8,M,,*56
$PYRTM,2024,126.171511187153,17.281158597292
$GPGGA,040657.00,3425.0740,N,12107.1331,W,1,10,0.8,4.4,M,-33.8,M,,*54
$PYRTM,2024,126.171522298090,17.281169708229
$GPGGA,040658.00,3425.0725,N,12107.1314,W,1,10,0.8,5.7,M,-33.8,M,,*5D
$PYRTM,2024,126.171533411713,17.281180821852
$GPGGA,040659.00,3425.0710,N,12107.1295,W,1,10,0.8,4.4,M,-33.8,M,,*50
$PYRTM,2024,126.171544637153,17.281192047292
$GPGGA,040700.00,3425.0694,N,12107.1275,W,1,10,0.8,6.0,M,-33.8,M,,*58
$PYRTM,2024,126.171555743275,17.281203153414
$GPGGA,040701.00,3425.0678,N,12107.1255,W,1,10,0.8,7.6,M,-33.8,M,,*5E
$PYRTM,2024,126.171566873125,17.281214283275
$GPGGA,040702.00,3425.0659,N,12107.1236,W,1,10,0.8,2.7,M,-33.8,M,,*5F
$PYRTM,2024,126.171584683600,17.281232093738
$GPGGA,040703.00,3425.0639,N,12107.1217,W,1,10,0.8,2.5,M,-33.8,M,,*59
$PYRTM,2024,126.171595781875,17.281243192014
$GPGGA,040704.00,3425.0622,N,12107.1195,W,1,10,0.8,3.2,M,-33.8,M,,*5B
$PYRTM,2024,126.171606901250,17.281254311389
$GPGGA,040705.00,3425.0607,N,12107.1173,W,1,10,0.8,3.2,M,-33.8,M,,*55
$PYRTM,2024,126.171618119618,17.281265529769
$GPGGA,040706.00,3425.0591,N,12107.1151,W,1,10,0.8,3.3,M,-33.8,M,,*5B
$PYRTM,2024,126.171629230509,17.281276640648
$GPGGA,040707.00,3425.0573,N,12107.1131,W,1,10,0.8,0.7,M,-33.8,M,,*57
$PYRTM,2024,126.171640343102,17.281287753241
$GPGGA,040708.00,3425.0554,N,12107.1113,W,1,10,0.8,1.0,M,-33.8,M,,*5B
$PYRTM,2024,126.171651453866,17.281298864005
$GPGGA,040709.00,3425.0537,N,12107.1094,W,1,10,0.8,2.6,M,-33.8,M,,*54
$PYRTM,2024,126.171662565220,17.281309975359
$GPGGA,040710.00,3425.0521,N,12107.1073,W,1,10,0.8,3.4,M,-33.8,M,,*51
$PYRTM,2024,126.171673676042,17.281321086192
$GPGGA,040711.00,3425.0507,N,12107.1052,W,1,10,0.8,5.5,M,-33.8,M,,*50
$PYRTM,2024,126.171684787639,17.281332197778
$GPGGA,040712.00,3425.0492,N,12107.1030,W,1,10,0.8,5.2,M,-33.8,M,,*5D
$PYRTM,2024,126.171695898380,17.281343308519
$GPGGA,040713.00,3425.0475,N,12107.1010,W,1,10,0.8,4.8,M,-33.8,M,,*5C
$PYRTM,2024,126.171707008021,17.281354418160
$GPGGA,040714.00,3425.0457,N,12107.0991,W,1,10,0.8,6.3,M,-33.8,M,,*53
$PYRTM,2024,126.171722647546,17.281370057685
$GPGGA,040715.00,3425.0438,N,12107.0973,W,1,10,0.8,5.0,M,-33.8,M,,*57
$PYRTM,2024,126.171733861470,17.281381271609
$GPGGA,040716.00,3425.0421,N,12107.0952,W,1,10,0.8,3.6,M,-33.8,M,,*5F
$PYRTM,2024,126.171745088576,17.281392498727
$GPGGA,040717.00,3425.0406,N,12107.0929,W,1,10,0.8,3.5,M,-33.8,M,,*54
$PYRTM,2024,126.171756689039,17.281404099178
$GPGGA,040718.00,3425.0393,N,12107.0907,W,1,10,0.8,2.3,M,-33.8,M,,*5B
$PYRTM,2024,126.171768236285,17.281415646424
$GPGGA,040719.00,3425.0379,N,12107.0884,W,1,10,0.8,4.5,M,-33.8,M,,*54
$PYRTM,2024,126.171779826493,17.281427236632
$GPGGA,040720.00,3425.0361,N,12107.0864,W,1,10,0.8,5.5,M,-33.8,M,,*58
$PYRTM,2024,126.171791384525,17.281438794664
$GPGGA,040721.00,3425.0343,N,12107.0845,W,1,10,0.8,3.8,M,-33.8,M,,*51
$PYRTM,2024,126.171802972558,17.281450382697
$GPGGA,040722.00,3425.0330,N,12107.0824,W,1,10,0.8,4.2,M,-33.8,M,,*5C
$PYRTM,2024,126.171814532789,17.281461942928
$GPGGA,040723.00,3425.0317,N,12107.0802,W,1,10,0.8,3.6,M,-33.8,M,,*5F
$PYRTM,2024,126.171826120243,17.281473530382
$GPGGA,040724.00,3425.0302,N,12107.0781,W,1,10,0.8,4.5,M,-33.8,M,,*5C
$PYRTM,2024,126.171837681562,17.281485091701
$GPGGA,040725.00,3425.0284,N,12107.0760,W,1,10,0.8,6.5,M,-33.8,M,,*5F
$PYRTM,2024,126.171849264734,17.281496674873
$GPGGA,040726.00,3425.0266,N,12107.0741,W,1,10,0.8,6.3,M,-33.8,M,,*55
$PYRTM,2024,126.171860831076,17.281508241215
$GPGGA,040727.00,3425.0248,N,12107.0720,W,1,10,0.8,4.3,M,-33.8,M,,*5D
$PYRTM,2024,126.171872418449,17.281519828588
$GPGGA,040728.00,3425.0233,N,12107.0697,W,1,10,0.8,3.2,M,-33.8,M,,*55
$PYRTM,2024,126.171883977616,17.281531387766
$GPGGA,040729.00,3425.0218,N,12107.0674,W,1,10,0.8,3.1,M,-33.8,M,,*53
$PYRTM,2024,126.171895561944,17.281542972083
$GPGGA,040730.00,3425.0202,N,12107.0653,W,1,10,0.8,4.6,M,-33.8,M,,*55
$PYRTM,2024,126.171907126262,17.281554536400
$GPGGA,040731.00,3425.0185,N,12107.0634,W,1,10,0.8,3.8,M,-33.8,M,,*50
$PYRTM,2024,126.171918716435,17.281566126574
$GPGGA,040732.00,3425.0169,N,12107.0614,W,1,10,0.8,2.3,M,-33.8,M,,*59
$PYRTM,2024,126.171930274120,17.281577684271
$GPGGA,040733.00,3425.0153,N,12107.0593,W,1,10,0.8,2.2,M,-33.8,M,,*5C
$PYRTM,2024,126.171941862662,17.281589272801
$GPGGA,040734.00,3425.0135,N,12107.0572,W,1,10,0.8,1.8,M,-33.8,M,,*5D
$PYRTM,2024,126.171953422708,17.281600832847
$GPGGA,040735.00,3425.0117,N,12107.0551,W,1,10,0.8,3.8,M,-33.8,M,,*5F
$PYRTM,2024,126.171965009954,17.281612420104
$GPGGA,040736.00,3425.0101,N,12107.0528,W,1,10,0.8,3.8,M,-33.8,M,,*55
$PYRTM,2024,126.171976571933,17.281623982072
$GPGGA,040737.00,3425.0088,N,12107.0502,W,1,10,0.8,5.6,M,-33.8,M,,*54
$PYRTM,2024,126.171988154329,17.281635564468
$GPGGA,040738.00,3425.0076,N,12107.0475,W,1,10,0.8,5.1,M,-33.8,M,,*5C
$PYRTM,2024,126.171999721192,17.281647131331
$GPGGA,040739.00,3425.0063,N,12107.0452,W,1,10,0.8,1.9,M,-33.8,M,,*50
$PYRTM,2024,126.172011303623,17.281658713773
$GPGGA,040740.00,3425.0047,N,12107.0434,W,1,10,0.8,0.5,M,-33.8,M,,*55
$PYRTM,2024,126.172022867234,17.281670277373
$GPGGA,040741.00,3425.0029,N,12107.0417,W,1,10,0.8,2.5,M,-33.8,M,,*5F
$PYRTM,2024,126.172034450046,17.281681860185
$GPGGA,040742.00,3425.0015,N,12107.0399,W,1,10,0.8,1.8,M,-33.8,M,,*5C
$PYRTM,2024,126.172046016412,17.281693426551
$GPGGA,040743.00,3425.0003,N,12107.0378,W,1,10,0.8,2.8,M,-33.8,M,,*56
$PYRTM,2024,126.172057604282,17.281705014433
$GPGGA,040744.00,3424.9988,N,12107.0358,W,1,10,0.8,2.3,M,-33.8,M,,*5A
$PYRTM,2024,126.172067788148,17.281715198287
$GPGGA,040745.00,3424.9970,N,12107.0338,W,1,10,0.8,4.1,M,-33.8,M,,*5E
$PYRTM,2024,126.172079597326,17.281727007465
$GPGGA,040746.00,3424.9952,N,12107.0316,W,1,10,0.8,4.6,M,-33.8,M,,*56
$PYRTM,2024,126.172092312523,17.281739722662
$GPGGA,040747.00,3424.9937,N,12107.0292,W,1,10,0.8,5.8,M,-33.8,M,,*56
$PYRTM,2024,126.172103902975,17.281751313113
$GPGGA,040748.00,3424.9923,N,12107.0267,W,1,10,0.8,3.6,M,-33.8,M,,*5E
$PYRTM,2024,126.172115461169,17.281762871308
$GPGGA,040749.00,3424.9906,N,12107.0243,W,1,10,0.8,3.0,M,-33.8,M,,*58
$PYRTM,2024,126.172127047662,17.281774457801
$GPGGA,040750.00,3424.9886,N,12107.0220,W,1,10,0.8,3.2,M,-33.8,M,,*5E
$PYRTM,2024,126.172138609977,17.281786020116
$GPGGA,040751.00,3424.9866,N,12107.0199,W,1,10,0.8,1.5,M,-33.8,M,,*55
$PYRTM,2024,126.172150191366,17.281797601505
$GPGGA,040752.00,3424.9852,N,12107.0176,W,1,10,0.8,4.9,M,-33.8,M,,*59
$PYRTM,2024,126.172161757778,17.281809167917
$GPGGA,040753.00,3424.9839,N,12107.0152,W,1,10,0.8,2.4,M,-33.8,M,,*58
$PYRTM,2024,126.172173344606,17.281820754745
$GPGGA,040754.00,3424.9824,N,12107.0132,W,1,10,0.8,5.4,M,-33.8,M,,*52
$PYRTM,2024,126.172184906458,17.281832316597
$GPGGA,040755.00,3424.9805,N,12107.0114,W,1,10,0.8,3.1,M,-33.8,M,,*57
$PYRTM,2024,126.172196492662,17.281843902801
$GPGGA,040756.00,3424.9786,N,12107.0095,W,1,10,0.8,1.3,M,-33.8,M,,*58
$PYRTM,2024,126.172208054144,17.281855464282
$GPGGA,040757.00,3424.9771,N,12107.0073,W,1,10,0.8,0.4,M,-33.8,M,,*5F
$PYRTM,2024,126.172219636285,17.281867046424
$GPGGA,040758.00,3424.9758,N,12107.0049,W,1,10,0.8,0.3,M,-33.8,M,,*55
$PYRTM,2024,126.172231203044,17.281878613183
$GPGGA,040759.00,3424.9744,N,12107.0027,W,1,10,0.8,1.1,M,-33.8,M,,*52
$PYRTM,2024,126.172242792361,17.281890202500
$GPGGA,040800.00,3424.9726,N,12107.0007,W,1,10,0.8,1.8,M,-33.8,M,,*5E
$PYRTM,2024,126.172254351030,17.281901761169
$GPGGA,040801.00,3424.9706,N,12106.9988,W,1,10,0.8,0.1,M,-33.8,M,,*53
$PYRTM,2024,126.172265940856,17.281913350995
$GPGGA,040802.00,3424.9689,N,12106.9967,W,1,10,0.8,-0.7,M,-33.8,M,,*7C
$PYRTM,2024,126.172277498900,17.281924909039
$GPGGA,040803.00,3424.9676,N,12106.9944,W,1,10,0.8,-1.2,M,-33.8,M,,*78
$PYRTM,2024,126.172289088495,17.281936498634
$GPGGA,040804.00,3424.9663,N,12106.9919,W,1,10,0.8,-0.5,M,-33.8,M,,*75
$PYRTM,2024,126.172300647731,17.281948057870
$GPGGA,040805.00,3424.9647,N,12106.9898,W,1,10,0.8,2.8,M,-33.8,M,,*58
$PYRTM,2024,126.172312234317,17.281959644468
$GPGGA,040806.00,3424.9627,N,12106.9881,W,1,10,0.8,-0.9,M,-33.8,M,,*7B
$PYRTM,2024,126.172323795359,17.281971205486
$GPGGA,040807.00,3424.9609,N,12106.9863,W,1,10,0.8,-1.1,M,-33.8,M,,*73
$PYRTM,2024,126.172335383056,17.281982793194
$GPGGA,040808.00,3424.9592,N,12106.9843,W,1,10,0.8,-0.3,M,-33.8,M,,*7C
$PYRTM,2024,126.172346943553,17.281994353692
$GPGGA,040809.00,3424.9576,N,12106.9822,W,1,10,0.8,0.5,M,-33.8,M,,*5B
$PYRTM,2024,126.172358531400,17.282005941539
$GPGGA,040810.00,3424.9559,N,12106.9803,W,1,10,0.8,-2.1,M,-33.8,M,,*76
$PYRTM,2024,126.172370093426,17.282017503565
$GPGGA,040811.00,3424.9544,N,12106.9783,W,1,10,0.8,2.4,M,-33.8,M,,*54
$PYRTM,2024,126.172381680278,17.282029090417
$GPGGA,040812.00,3424.9530,N,12106.9762,W,1,10,0.8,0.8,M,-33.8,M,,*55
$PYRTM,2024,126.172393242350,17.282040652488
$GPGGA,040813.00,3424.9515,N,12106.9739,W,1,10,0.8,2.5,M,-33.8,M,,*52
$PYRTM,2024,126.172404826875,17.282052237014
$GPGGA,040814.00,3424.9498,N,12106.9718,W,1,10,0.8,0.7,M,-33.8,M,,*52
$PYRTM,2024,126.172415012824,17.282062422963
$GPGGA,040815.00,3424.9480,N,12106.9697,W,1,10,0.8,0.9,M,-33.8,M,,*52
$PYRTM,2024,126.172426822245,17.282074232384
$GPGGA,040816.00,3424.9462,N,12106.9675,W,1,10,0.8,0.7,M,-33.8,M,,*5F
$PYRTM,2024,126.172439538113,17.282086948264
$GPGGA,040817.00,3424.9442,N,12106.9654,W,1,10,0.8,3.2,M,-33.8,M,,*59
$PYRTM,2024,126.172451128056,17.282098538194
$GPGGA,040818.00,3424.9425,N,12106.9632,W,1,10,0.8,2.5,M,-33.8,M,,*51
$PYRTM,2024,126.172462687002,17.282110097153
$GPGGA,040819.00,3424.9409,N,12106.9607,W,1,10,0.8,0.3,M,-33.8,M,,*5C
$PYRTM,2024,126.172474273009,17.282121683148
$GPGGA,040820.00,3424.9394,N,12106.9584,W,1,10,0.8,0.5,M,-33.8,M,,*5B
$PYRTM,2024,126.172485835023,17.282133245162
$GPGGA,040821.00,3424.9376,N,12106.9563,W,1,10,0.8,0.9,M,-33.8,M,,*53
$PYRTM,2024,126.172497421088,17.282144831227
$GPGGA,040822.00,3424.9358,N,12106.9542,W,1,10,0.8,4.6,M,-33.8,M,,*54
$PYRTM,2024,126.172508983773,17.282156393912
$GPGGA,040823.00,3424.9342,N,12106.9522,W,1,10,0.8,4.0,M,-33.8,M,,*5E
$PYRTM,2024,126.172520570069,17.282167980220
$GPGGA,040824.00,3424.9328,N,12106.9500,W,1,10,0.8,7.0,M,-33.8,M,,*56
$PYRTM,2024,126.172532130579,17.282179540729
$GPGGA,040825.00,3424.9314,N,12106.9477,W,1,10,0.8,6.9,M,-33.8,M,,*51
$PYRTM,2024,126.172543717836,17.282191127986
$GPGGA,040826.00,3424.9298,N,12106.9455,W,1,10,0.8,2.7,M,-33.8,M,,*5D
$PYRTM,2024,126.172555279757,17.282202689896
$GPGGA,040827.00,3424.9279,N,12106.9433,W,1,10,0.8,3.2,M,-33.8,M,,*57
$PYRTM,2024,126.172566868854,17.282214278993
$GPGGA,040828.00,3424.9260,N,12106.9412,W,1,10,0.8,5.5,M,-33.8,M,,*52
$PYRTM,2024,126.172578429560,17.282225839711
$GPGGA,040829.00,3424.9245,N,12106.9389,W,1,10,0.8,5.0,M,-33.8,M,,*54
$PYRTM,2024,126.172590016898,17.282237427037
$GPGGA,040830.00,3424.9231,N,12106.9364,W,1,10,0.8,3.1,M,-33.8,M,,*5B
$PYRTM,2024,126.172601575243,17.282248985394
$GPGGA,040831.00,3424.9216,N,12106.9342,W,1,10,0.8,4.5,M,-33.8,M,,*58
$PYRTM,2024,126.172613162639,17.282260572789
$GPGGA,040832.00,3424.9199,N,12106.9320,W,1,10,0.8,3.3,M,-33.8,M,,*5A
$PYRTM,2024,126.172624723819,17.282272133958
$GPGGA,040833.00,3424.9182,N,12106.9301,W,1,10,0.8,2.2,M,-33.8,M,,*52
$PYRTM,2024,126.172636310880,17.282283721019
$GPGGA,040834.00,3424.9165,N,12106.9282,W,1,10,0.8,1.7,M,-33.8,M,,*50
$PYRTM,2024,126.172647872535,17.282295282674
$GPGGA,040835.00,3424.9151,N,12106.9261,W,1,10,0.8,2.3,M,-33.8,M,,*5C
$PYRTM,2024,126.172659459583,17.282306869722
$GPGGA,040836.00,3424.9138,N,12106.9238,W,1,10,0.8,3.6,M,-33.8,M,,*58
$PYRTM,2024,126.172671021076,17.282318431227
$GPGGA,040837.00,3424.9123,N,12106.9214,W,1,10,0.8,2.1,M,-33.8,M,,*5B
$PYRTM,2024,126.172682607697,17.282330017836
$GPGGA,040838.00,3424.9106,N,12106.9191,W,1,10,0.8,0.5,M,-33.8,M,,*5B
$PYRTM,2024,126.172694168831,17.282341578970
$GPGGA,040839.00,3424.9087,N,12106.9169,W,1,10,0.8,3.1,M,-33.8,M,,*52
$PYRTM,2024,126.172705756134,17.282353166273
