$PYRTM,2024,125.916676086632,17.026323496771
$GPGGA,215959.00,3451.1766,N,12142.4042,W,1,10,0.8,10.2,M,-33.3,M,,*6A
$PYRTM,2024,125.916687642905,17.026335053044
$GPGGA,220000.00,3451.1755,N,12142.4023,W,1,10,0.8,11.3,M,-33.3,M,,*6E
$PYRTM,2024,125.916699234340,17.026346644479
$GPGGA,220001.00,3451.1745,N,12142.4005,W,1,10,0.8,11.5,M,-33.3,M,,*6C
$PYRTM,2024,125.916710791030,17.026358201169
$GPGGA,220002.00,3451.1733,N,12142.3987,W,1,10,0.8,9.3,M,-33.3,M,,*55
$PYRTM,2024,125.916722378866,17.026369789016
$GPGGA,220003.00,3451.1720,N,12142.3968,W,1,10,0.8,10.9,M,-33.3,M,,*65
$PYRTM,2024,125.916733940880,17.026381351019
$GPGGA,220004.00,3451.1708,N,12142.3945,W,1,10,0.8,13.7,M,-33.3,M,,*6A
$PYRTM,2024,125.916745527697,17.026392937836
$GPGGA,220005.00,3451.1698,N,12142.3920,W,1,10,0.8,13.4,M,-33.3,M,,*63
$PYRTM,2024,125.916755828843,17.026403238981
$GPGGA,220006.00,3451.1684,N,12142.3896,W,1,10,0.8,12.2,M,-33.3,M,,*66
$PYRTM,2024,125.916767042396,17.026414452535
$GPGGA,220007.00,3451.1669,N,12142.3875,W,1,10,0.8,11.6,M,-33.3,M,,*6E
$PYRTM,2024,125.916779786042,17.026427196181
$GPGGA,220008.00,3451.1655,N,12142.3857,W,1,10,0.8,10.5,M,-33.3,M,,*6C
$PYRTM,2024,125.916791346435,17.026438756574
$GPGGA,220009.00,3451.1642,N,12142.3838,W,1,10,0.8,10.1,M,-33.3,M,,*66
$PYRTM,2024,125.916802935069,17.026450345208
$GPGGA,220010.00,3451.1631,N,12142.3818,W,1,10,0.8,10.6,M,-33.3,M,,*6F
$PYRTM,2024,125.916814971100,17.026462381238
$GPGGA,220011.00,3451.1622,N,12142.3798,W,1,10,0.8,9.1,M,-33.3,M,,*54
$PYRTM,2024,125.916826532639,17.026473942789
$GPGGA,220012.00,3451.1613,N,12142.3779,W,1,10,0.8,9.3,M,-33.3,M,,*58
$PYRTM,2024,125.916838236609,17.026485646748
$GPGGA,220013.00,3451.1603,N,12142.3757,W,1,10,0.8,12.0,M,-33.3,M,,*6D
$PYRTM,2024,125.916849811759,17.026497221898
$GPGGA,220014.00,3451.1592,N,12142.3736,W,1,10,0.8,11.2,M,-33.3,M,,*67
$PYRTM,2024,125.916861380116,17.026508790255
$GPGGA,220015.00,3451.1579,N,12142.3714,W,1,10,0.8,11.9,M,-33.3,M,,*68
$PYRTM,2024,125.916872959502,17.026520369641
$GPGGA,220016.00,3451.1567,N,12142.3693,W,1,10,0.8,10.6,M,-33.3,M,,*64
$PYRTM,2024,125.916884532708,17.026531942847
$GPGGA,220017.00,3451.1553,N,12142.3674,W,1,10,0.8,14.1,M,-33.3,M,,*68
$PYRTM,2024,125.916896121262,17.026543531400
$GPGGA,220018.00,3451.1540,N,12142.3654,W,1,10,0.8,12.4,M,-33.3,M,,*64
$PYRTM,2024,125.916907681748,17.026555091887
$GPGGA,220019.00,3451.1529,N,12142.3635,W,1,10,0.8,14.7,M,-33.3,M,,*68
$PYRTM,2024,125.916919269433,17.026566679572
$GPGGA,220020.00,3451.1521,N,12142.3614,W,1,10,0.8,13.4,M,-33.3,M,,*6D
$PYRTM,2024,125.916930828565,17.026578238704
$GPGGA,220021.00,3451.1514,N,12142.3594,W,1,10,0.8,11.8,M,-33.3,M,,*6F
$PYRTM,2024,125.916942404074,17.026589814213
$GPGGA,220022.00,3451.1504,N,12142.3574,W,1,10,0.8,12.8,M,-33.3,M,,*60
$PYRTM,2024,125.916959996863,17.026607407014
$GPGGA,220023.00,3451.1492,N,12142.3553,W,1,10,0.8,12.2,M,-33.3,M,,*60
$PYRTM,2024,125.916971902384,17.026619312523
$GPGGA,220024.00,3451.1481,N,12142.3531,W,1,10,0.8,13.3,M,-33.3,M,,*61
$PYRTM,2024,125.916980830046,17.026628240185
$GPGGA,220025.00,3451.1469,N,12142.3510,W,1,10,0.8,14.8,M,-33.3,M,,*69
$PYRTM,2024,125.916998525718,17.026645935868
$GPGGA,220026.00,3451.1458,N,12142.3488,W,1,10,0.8,15.5,M,-33.3,M,,*64
$PYRTM,2024,125.917009637963,17.026657048102
$GPGGA,220027.00,3451.1447,N,12142.3466,W,1,10,0.8,13.4,M,-33.3,M,,*6C
$PYRTM,2024,125.917020750081,17.026668160220
$GPGGA,220028.00,3451.1434,N,12142.3445,W,1,10,0.8,13.2,M,-33.3,M,,*60
$PYRTM,2024,125.917031975035,17.026679385174
$GPGGA,220029.00,3451.1422,N,12142.3425,W,1,10,0.8,15.1,M,-33.3,M,,*65
$PYRTM,2024,125.917043084931,17.026690495069
$GPGGA,220030.00,3451.1412,N,12142.3406,W,1,10,0.8,13.3,M,-33.3,M,,*6B
$PYRTM,2024,125.917054197512,17.026701607662
$GPGGA,220031.00,3451.1402,N,12142.3387,W,1,10,0.8,12.1,M,-33.3,M,,*66
$PYRTM,2024,125.917065308449,17.026712718600
$GPGGA,220032.00,3451.1392,N,12142.3367,W,1,10,0.8,13.5,M,-33.3,M,,*60
$PYRTM,2024,125.917076533889,17.026723944028
$GPGGA,220033.00,3451.1381,N,12142.3347,W,1,10,0.8,14.1,M,-33.3,M,,*62
$PYRTM,2024,125.917087645035,17.026735055174
$GPGGA,220034.00,3451.1370,N,12142.3327,W,1,10,0.8,15.7,M,-33.3,M,,*6A
$PYRTM,2024,125.917098759005,17.026746169144
$GPGGA,220035.00,3451.1358,N,12142.3306,W,1,10,0.8,15.1,M,-33.3,M,,*64
$PYRTM,2024,125.917109867697,17.026757277847
$GPGGA,220036.00,3451.1347,N,12142.3285,W,1,10,0.8,11.8,M,-33.3,M,,*6E
$PYRTM,2024,125.917120977917,17.026768388056
$GPGGA,220037.00,3451.1335,N,12142.3264,W,1,10,0.8,12.3,M,-33.3,M,,*6D
$PYRTM,2024,125.917132089676,17.026779499815
$GPGGA,220038.00,3451.1324,N,12142.3242,W,1,10,0.8,13.5,M,-33.3,M,,*61
$PYRTM,2024,125.917143201586,17.026790611725
$GPGGA,220039.00,3451.1312,N,12142.3220,W,1,10,0.8,11.9,M,-33.3,M,,*6F
$PYRTM,2024,125.917154437975,17.026801848113
$GPGGA,220040.00,3451.1300,N,12142.3200,W,1,10,0.8,11.0,M,-33.3,M,,*69
$PYRTM,2024,125.917166010775,17.026813420914
$GPGGA,220041.00,3451.1288,N,12142.3179,W,1,10,0.8,10.6,M,-33.3,M,,*63
$PYRTM,2024,125.917177127975,17.026824538125
$GPGGA,220042.00,3451.1277,N,12142.3158,W,1,10,0.8,11.2,M,-33.3,M,,*66
$PYRTM,2024,125.917188239444,17.026835649583
$GPGGA,220043.00,3451.1266,N,12142.3137,W,1,10,0.8,9.9,M,-33.3,M,,*5C
$PYRTM,2024,125.917199348866,17.026846759005
$GPGGA,220044.00,3451.1255,N,12142.3116,W,1,10,0.8,10.8,M,-33.3,M,,*61
$PYRTM,2024,125.917210448044,17.026857858183
$GPGGA,220045.00,3451.1242,N,12142.3096,W,1,10,0.8,11.3,M,-33.3,M,,*65
$PYRTM,2024,125.917222020810,17.026869430949
$GPGGA,220046.00,3451.1228,N,12142.3078,W,1,10,0.8,12.0,M,-33.3,M,,*6A
$PYRTM,2024,125.917233249398,17.026880659537
$GPGGA,220047.00,3451.1215,N,12142.3059,W,1,10,0.8,13.6,M,-33.3,M,,*61
$PYRTM,2024,125.917244375602,17.026891785741
$GPGGA,220048.00,3451.1205,N,12142.3037,W,1,10,0.8,13.2,M,-33.3,M,,*63
$PYRTM,2024,125.917255471516,17.026902881644
$GPGGA,220049.00,3451.1195,N,12142.3013,W,1,10,0.8,15.4,M,-33.3,M,,*6E
$PYRTM,2024,125.917266593843,17.026914003981
$GPGGA,220050.00,3451.1185,N,12142.2989,W,1,10,0.8,15.1,M,-33.3,M,,*69
$PYRTM,2024,125.917277821620,17.026925231759
$GPGGA,220051.00,3451.1171,N,12142.2967,W,1,10,0.8,17.5,M,-33.3,M,,*65
$PYRTM,2024,125.917289048912,17.026936459051
$GPGGA,220052.00,3451.1157,N,12142.2944,W,1,10,0.8,18.9,M,-33.3,M,,*60
$PYRTM,2024,125.917300608252,17.026948018391
$GPGGA,220053.00,3451.1144,N,12142.2923,W,1,10,0.8,18.9,M,-33.3,M,,*62
$PYRTM,2024,125.917312196435,17.026959606562
$GPGGA,220054.00,3451.1131,N,12142.2902,W,1,10,0.8,19.3,M,-33.3,M,,*6F
$PYRTM,2024,125.917323756898,17.026971167037
$GPGGA,220055.00,3451.1120,N,12142.2882,W,1,10,0.8,17.9,M,-33.3,M,,*63
$PYRTM,2024,125.917335345243,17.026982755382
$GPGGA,220056.00,3451.1108,N,12142.2862,W,1,10,0.8,17.1,M,-33.3,M,,*6C
$PYRTM,2024,125.917346906620,17.026994316771
$GPGGA,220057.00,3451.1097,N,12142.2842,W,1,10,0.8,18.1,M,-33.3,M,,*67
$PYRTM,2024,125.917358493044,17.027005903183
$GPGGA,220058.00,3451.1086,N,12142.2822,W,1,10,0.8,18.5,M,-33.3,M,,*6A
$PYRTM,2024,125.917370053981,17.027017464120
$GPGGA,220059.00,3451.1074,N,12142.2800,W,1,10,0.8,17.6,M,-33.3,M,,*6A
$PYRTM,2024,125.917381641806,17.027029051944
$GPGGA,220100.00,3451.1061,N,12142.2778,W,1,10,0.8,18.2,M,-33.3,M,,*68
$PYRTM,2024,125.917393202801,17.027040612940
$GPGGA,220101.00,3451.1048,N,12142.2755,W,1,10,0.8,17.1,M,-33.3,M,,*61
$PYRTM,2024,125.917404790475,17.027052200613
$GPGGA,220102.00,3451.1036,N,12142.2731,W,1,10,0.8,16.6,M,-33.3,M,,*6F
$PYRTM,2024,125.917416350567,17.027063760706
$GPGGA,220103.00,3451.1025,N,12142.2707,W,1,10,0.8,17.9,M,-33.3,M,,*67
$PYRTM,2024,125.917427932975,17.027075343113
$GPGGA,220104.00,3451.1012,N,12142.2686,W,1,10,0.8,16.6,M,-33.3,M,,*62
$PYRTM,2024,125.917438343125,17.027085753275
$GPGGA,220105.00,3451.0999,N,12142.2666,W,1,10,0.8,17.4,M,-33.3,M,,*65
$PYRTM,2024,125.917449683565,17.027097093704
$GPGGA,220106.00,3451.0987,N,12142.2647,W,1,10,0.8,17.4,M,-33.3,M,,*6A
$PYRTM,2024,125.917461491481,17.027108901632
$GPGGA,220107.00,3451.0978,N,12142.2627,W,1,10,0.8,15.3,M,-33.3,M,,*68
$PYRTM,2024,125.917474235035,17.027121645174
$GPGGA,220108.00,3451.0969,N,12142.2605,W,1,10,0.8,15.4,M,-33.3,M,,*60
$PYRTM,2024,125.917485795938,17.027133206076
$GPGGA,220109.00,3451.0959,N,12142.2583,W,1,10,0.8,14.2,M,-33.3,M,,*68
$PYRTM,2024,125.917497379051,17.027144789190
$GPGGA,220110.00,3451.0947,N,12142.2561,W,1,10,0.8,15.8,M,-33.3,M,,*68
$PYRTM,2024,125.917509192153,17.027156602303
$GPGGA,220111.00,3451.0934,N,12142.2539,W,1,10,0.8,18.7,M,-33.3,M,,*62
$PYRTM,2024,125.917520532836,17.027167942975
$GPGGA,220112.00,3451.0921,N,12142.2515,W,1,10,0.8,15.7,M,-33.3,M,,*66
$PYRTM,2024,125.917532090856,17.027179500995
$GPGGA,220113.00,3451.0909,N,12142.2492,W,1,10,0.8,16.9,M,-33.3,M,,*6E
$PYRTM,2024,125.917543680289,17.027191090428
$GPGGA,220114.00,3451.0896,N,12142.2470,W,1,10,0.8,16.6,M,-33.3,M,,*6D
$PYRTM,2024,125.917555240984,17.027202651123
$GPGGA,220115.00,3451.0885,N,12142.2450,W,1,10,0.8,15.6,M,-33.3,M,,*6F
$PYRTM,2024,125.917566829028,17.027214239167
$GPGGA,220116.00,3451.0875,N,12142.2431,W,1,10,0.8,16.3,M,-33.3,M,,*62
$PYRTM,2024,125.917578390012,17.027225800150
$GPGGA,220117.00,3451.0863,N,12142.2413,W,1,10,0.8,15.6,M,-33.3,M,,*62
$PYRTM,2024,125.917589979583,17.027237389734
$GPGGA,220118.00,3451.0852,N,12142.2393,W,1,10,0.8,15.5,M,-33.3,M,,*63
$PYRTM,2024,125.917601539907,17.027248950046
$GPGGA,220119.00,3451.0840,N,12142.2372,W,1,10,0.8,13.8,M,-33.3,M,,*65
$PYRTM,2024,125.917613128090,17.027260538229
$GPGGA,220120.00,3451.0829,N,12142.2349,W,1,10,0.8,16.0,M,-33.3,M,,*65
$PYRTM,2024,125.917624688299,17.027272098437
$GPGGA,220121.00,3451.0818,N,12142.2326,W,1,10,0.8,15.1,M,-33.3,M,,*6D
$PYRTM,2024,125.917636272917,17.027283683056
$GPGGA,220122.00,3451.0804,N,12142.2303,W,1,10,0.8,15.1,M,-33.3,M,,*64
$PYRTM,2024,125.917647835000,17.027295245139
$GPGGA,220123.00,3451.0789,N,12142.2281,W,1,10,0.8,13.9,M,-33.3,M,,*6A
$PYRTM,2024,125.917659422176,17.027306832315
$GPGGA,220124.00,3451.0775,N,12142.2260,W,1,10,0.8,12.1,M,-33.3,M,,*68
$PYRTM,2024,125.917670983461,17.027318393600
$GPGGA,220125.00,3451.0764,N,12142.2238,W,1,10,0.8,11.3,M,-33.3,M,,*65
$PYRTM,2024,125.917682569363,17.027329979514
$GPGGA,220126.00,3451.0754,N,12142.2215,W,1,10,0.8,10.4,M,-33.3,M,,*6C
$PYRTM,2024,125.917694132303,17.027341542442
$GPGGA,220127.00,3451.0744,N,12142.2194,W,1,10,0.8,11.0,M,-33.3,M,,*63
$PYRTM,2024,125.917705718356,17.027353128495
$GPGGA,220128.00,3451.0734,N,12142.2174,W,1,10,0.8,12.0,M,-33.3,M,,*66
$PYRTM,2024,125.917717280266,17.027364690417
$GPGGA,220129.00,3451.0723,N,12142.2152,W,1,10,0.8,13.7,M,-33.3,M,,*63
$PYRTM,2024,125.917728865463,17.027376275602
$GPGGA,220130.00,3451.0712,N,12142.2128,W,1,10,0.8,11.6,M,-33.3,M,,*67
$PYRTM,2024,125.917740427535,17.027387837685
$GPGGA,220131.00,3451.0701,N,12142.2105,W,1,10,0.8,14.7,M,-33.3,M,,*6F
$PYRTM,2024,125.917752019537,17.027399429687
$GPGGA,220132.00,3451.0689,N,12142.2081,W,1,10,0.8,15.2,M,-33.3,M,,*64
$PYRTM,2024,125.917763575405,17.027410985556
$GPGGA,220133.00,3451.0678,N,12142.2057,W,1,10,0.8,15.2,M,-33.3,M,,*60
$PYRTM,2024,125.917775166944,17.027422577083
$GPGGA,220134.00,3451.0667,N,12142.2033,W,1,10,0.8,16.3,M,-33.3,M,,*69
$PYRTM,2024,125.917786725116,17.027434135255
$GPGGA,220135.00,3451.0655,N,12142.2011,W,1,10,0.8,15.1,M,-33.3,M,,*68
$PYRTM,2024,125.917797385035,17.027444795185
$GPGGA,220136.00,3451.0642,N,12142.1991,W,1,10,0.8,14.5,M,-33.3,M,,*6A
$PYRTM,2024,125.917808727708,17.027456137847
$GPGGA,220137.00,3451.0629,N,12142.1971,W,1,10,0.8,13.1,M,-33.3,M,,*6B
$PYRTM,2024,125.917821454444,17.027468864583
$GPGGA,220138.00,3451.0617,N,12142.1951,W,1,10,0.8,15.0,M,-33.3,M,,*6C
$PYRTM,2024,125.917833021574,17.027480431713
$GPGGA,220139.00,3451.0605,N,12142.1930,W,1,10,0.8,15.8,M,-33.3,M,,*61
$PYRTM,2024,125.917844609039,17.027492019178
$GPGGA,220140.00,3451.0596,N,12142.1907,W,1,10,0.8,16.7,M,-33.3,M,,*6E
$PYRTM,2024,125.917856532396,17.027503942546
$GPGGA,220141.00,3451.0586,N,12142.1882,W,1,10,0.8,16.8,M,-33.3,M,,*6D
$PYRTM,2024,125.917867756620,17.027515166759
$GPGGA,220142.00,3451.0575,N,12142.1859,W,1,10,0.8,15.9,M,-33.3,M,,*66
$PYRTM,2024,125.917879318634,17.027526728773
$GPGGA,220143.00,3451.0561,N,12142.1838,W,1,10,0.8,14.6,M,-33.3,M,,*6B
$PYRTM,2024,125.917890904433,17.027538314572
$GPGGA,220144.00,3451.0546,N,12142.1817,W,1,10,0.8,17.3,M,-33.3,M,,*62
$PYRTM,2024,125.917902467454,17.027549877593
$GPGGA,220145.00,3451.0532,N,12142.1796,W,1,10,0.8,18.5,M,-33.3,M,,*6F
$PYRTM,2024,125.917914055914,17.027561466053
$GPGGA,220146.00,3451.0521,N,12142.1774,W,1,10,0.8,18.9,M,-33.3,M,,*6E
$PYRTM,2024,125.917925613287,17.027573023426
$GPGGA,220147.00,3451.0510,N,12142.1752,W,1,10,0.8,17.9,M,-33.3,M,,*66
$PYRTM,2024,125.917937215336,17.027584625475
$GPGGA,220148.00,3451.0499,N,12142.1730,W,1,10,0.8,15.6,M,-33.3,M,,*60
$PYRTM,2024,125.917948762662,17.027596172801
$GPGGA,220149.00,3451.0487,N,12142.1709,W,1,10,0.8,15.2,M,-33.3,M,,*60
$PYRTM,2024,125.917960350891,17.027607761030
$GPGGA,220150.00,3451.0475,N,12142.1688,W,1,10,0.8,16.8,M,-33.3,M,,*64
$PYRTM,2024,125.917971912384,17.027619322523
$GPGGA,220151.00,3451.0465,N,12142.1667,W,1,10,0.8,14.9,M,-33.3,M,,*66
$PYRTM,2024,125.917983493252,17.027630903403
$GPGGA,220152.00,3451.0454,N,12142.1644,W,1,10,0.8,13.7,M,-33.3,M,,*6F
$PYRTM,2024,125.917995057523,17.027642467662
$GPGGA,220153.00,3451.0443,N,12142.1622,W,1,10,0.8,13.5,M,-33.3,M,,*6A
$PYRTM,2024,125.918006646331,17.027654056470
$GPGGA,220154.00,3451.0432,N,12142.1601,W,1,10,0.8,12.8,M,-33.3,M,,*66
$PYRTM,2024,125.918018206563,17.027665616713
$GPGGA,220155.00,3451.0420,N,12142.1579,W,1,10,0.8,16.2,M,-33.3,M,,*66
$PYRTM,2024,125.918029795405,17.027677205544
$GPGGA,220156.00,3451.0409,N,12142.1558,W,1,10,0.8,14.1,M,-33.3,M,,*6C
$PYRTM,2024,125.918041355255,17.027688765394
$GPGGA,220157.00,3451.0398,N,12142.1536,W,1,10,0.8,16.3,M,-33.3,M,,*6A
$PYRTM,2024,125.918052939340,17.027700349491
$GPGGA,220158.00,3451.0387,N,12142.1513,W,1,10,0.8,17.5,M,-33.3,M,,*6B
$PYRTM,2024,125.918064503993,17.027711914132
$GPGGA,220159.00,3451.0374,N,12142.1489,W,1,10,0.8,17.1,M,-33.3,M,,*60
$PYRTM,2024,125.918076093495,17.027723503634
$GPGGA,220200.00,3451.0360,N,12142.1467,W,1,10,0.8,15.4,M,-33.3,M,,*6D
$PYRTM,2024,125.918087652662,17.027735062812
$GPGGA,220201.00,3451.0346,N,12142.1444,W,1,10,0.8,16.3,M,-33.3,M,,*6D
$PYRTM,2024,125.918099243125,17.027746653275
$GPGGA,220202.00,3451.0335,N,12142.1420,W,1,10,0.8,17.0,M,-33.3,M,,*6A
$PYRTM,2024,125.918110801204,17.027758211343
$GPGGA,220203.00,3451.0325,N,12142.1396,W,1,10,0.8,15.9,M,-33.3,M,,*6B
$PYRTM,2024,125.918122382731,17.027769792870
$GPGGA,220204.00,3451.0314,N,12142.1373,W,1,10,0.8,15.3,M,-33.3,M,,*6F
$PYRTM,2024,125.918133948553,17.027781358704
$GPGGA,220205.00,3451.0301,N,12142.1352,W,1,10,0.8,15.7,M,-33.3,M,,*6D
$PYRTM,2024,125.918144134850,17.027791545000
$GPGGA,220206.00,3451.0289,N,12142.1332,W,1,10,0.8,16.7,M,-33.3,M,,*6A
$PYRTM,2024,125.918155952917,17.027803363056
$GPGGA,220207.00,3451.0278,N,12142.1311,W,1,10,0.8,17.0,M,-33.3,M,,*62
$PYRTM,2024,125.918168683657,17.027816093796
$GPGGA,220208.00,3451.0267,N,12142.1288,W,1,10,0.8,17.7,M,-33.3,M,,*65
$PYRTM,2024,125.918180246655,17.027827656794
$GPGGA,220209.00,3451.0254,N,12142.1267,W,1,10,0.8,15.4,M,-33.3,M,,*64
$PYRTM,2024,125.918191827014,17.027839237153
$GPGGA,220210.00,3451.0239,N,12142.1245,W,1,10,0.8,16.0,M,-33.3,M,,*60
$PYRTM,2024,125.918203864410,17.027851274549
$GPGGA,220211.00,3451.0226,N,12142.1223,W,1,10,0.8,16.8,M,-33.3,M,,*67
$PYRTM,2024,125.918215430081,17.027862840220
$GPGGA,220212.00,3451.0216,N,12142.1199,W,1,10,0.8,15.8,M,-33.3,M,,*66
$PYRTM,2024,125.918227018009,17.027874428148
$GPGGA,220213.00,3451.0205,N,12142.1176,W,1,10,0.8,14.8,M,-33.3,M,,*65
$PYRTM,2024,125.918238579757,17.027885989896
$GPGGA,220214.00,3451.0191,N,12142.1156,W,1,10,0.8,13.7,M,-33.3,M,,*66
$PYRTM,2024,125.918250166516,17.027897576655
$GPGGA,220215.00,3451.0178,N,12142.1136,W,1,10,0.8,14.1,M,-33.3,M,,*67
$PYRTM,2024,125.918261841296,17.027909251447
$GPGGA,220216.00,3451.0167,N,12142.1116,W,1,10,0.8,13.3,M,-33.3,M,,*6D
$PYRTM,2024,125.918273430046,17.027920840197
$GPGGA,220217.00,3451.0157,N,12142.1095,W,1,10,0.8,12.8,M,-33.3,M,,*6F
$PYRTM,2024,125.918284989977,17.027932400116
$GPGGA,220218.00,3451.0146,N,12142.1074,W,1,10,0.8,12.8,M,-33.3,M,,*6F
$PYRTM,2024,125.918296579884,17.027943990035
$GPGGA,220219.00,3451.0133,N,12142.1055,W,1,10,0.8,11.3,M,-33.3,M,,*67
$PYRTM,2024,125.918308139780,17.027955549919
$GPGGA,220220.00,3451.0121,N,12142.1035,W,1,10,0.8,10.8,M,-33.3,M,,*62
$PYRTM,2024,125.918319725648,17.027967135787
$GPGGA,220221.00,3451.0108,N,12142.1013,W,1,10,0.8,11.7,M,-33.3,M,,*62
$PYRTM,2024,125.918331286412,17.027978696551
$GPGGA,220222.00,3451.0097,N,12142.0990,W,1,10,0.8,12.2,M,-33.3,M,,*63
$PYRTM,2024,125.918342875961,17.027990286111
$GPGGA,220223.00,3451.0085,N,12142.0967,W,1,10,0.8,13.0,M,-33.3,M,,*6A
$PYRTM,2024,125.918354434479,17.028001844618
$GPGGA,220224.00,3451.0073,N,12142.0944,W,1,10,0.8,13.7,M,-33.3,M,,*62
$PYRTM,2024,125.918366024769,17.028013434907
$GPGGA,220225.00,3451.0060,N,12142.0922,W,1,10,0.8,12.3,M,-33.3,M,,*64
$PYRTM,2024,125.918377585301,17.028024995440
$GPGGA,220226.00,3451.0048,N,12142.0900,W,1,10,0.8,11.0,M,-33.3,M,,*6D
$PYRTM,2024,125.918396234826,17.028043644965
$GPGGA,220227.00,3451.0036,N,12142.0880,W,1,10,0.8,10.6,M,-33.3,M,,*6B
$PYRTM,2024,125.918406288009,17.028053698148
$GPGGA,220228.00,3451.0025,N,12142.0860,W,1,10,0.8,8.6,M,-33.3,M,,*51
$PYRTM,2024,125.918417990532,17.028065400671
$GPGGA,220229.00,3451.0014,N,12142.0839,W,1,10,0.8,10.6,M,-33.3,M,,*67
$PYRTM,2024,125.918430131725,17.028077541863
$GPGGA,220230.00,3451.0003,N,12142.0818,W,1,10,0.8,11.2,M,-33.3,M,,*6F
$PYRTM,2024,125.918441241887,17.028088652037
$GPGGA,220231.00,3450.9992,N,12142.0795,W,1,10,0.8,12.3,M,-33.3,M,,*6F
$PYRTM,2024,125.918452354317,17.028099764456
$GPGGA,220232.00,3450.9979,N,12142.0773,W,1,10,0.8,13.3,M,-33.3,M,,*60
$PYRTM,2024,125.918463580359,17.028110990498
$GPGGA,220233.00,3450.9967,N,12142.0750,W,1,10,0.8,14.0,M,-33.3,M,,*6B
$PYRTM,2024,125.918474691597,17.028122101736
$GPGGA,220234.00,3450.9955,N,12142.0726,W,1,10,0.8,13.9,M,-33.3,M,,*62
$PYRTM,2024,125.918485815729,17.028133225868
$GPGGA,220235.00,3450.9944,N,12142.0703,W,1,10,0.8,12.5,M,-33.3,M,,*69
$PYRTM,2024,125.918501543426,17.028148953565
$GPGGA,220236.00,3450.9931,N,12142.0680,W,1,10,0.8,12.8,M,-33.3,M,,*6F
$PYRTM,2024,125.918512655023,17.028160065162
$GPGGA,220237.00,3450.9918,N,12142.0659,W,1,10,0.8,13.2,M,-33.3,M,,*6A
$PYRTM,2024,125.918523880266,17.028171290405
$GPGGA,220238.00,3450.9904,N,12142.0638,W,1,10,0.8,14.0,M,-33.3,M,,*6A
$PYRTM,2024,125.918534989282,17.028182399421
$GPGGA,220239.00,3450.9891,N,12142.0617,W,1,10,0.8,15.0,M,-33.3,M,,*6A
$PYRTM,2024,125.918546103137,17.028193513275
$GPGGA,220240.00,3450.9881,N,12142.0595,W,1,10,0.8,15.1,M,-33.3,M,,*6D
$PYRTM,2024,125.918557691562,17.028205101701
$GPGGA,220241.00,3450.9873,N,12142.0571,W,1,10,0.8,15.4,M,-33.3,M,,*6E
$PYRTM,2024,125.918568803218,17.028216213368
$GPGGA,220242.00,3450.9863,N,12142.0546,W,1,10,0.8,17.1,M,-33.3,M,,*6F
$PYRTM,2024,125.918580023866,17.028227434005
$GPGGA,220243.00,3450.9850,N,12142.0524,W,1,10,0.8,14.8,M,-33.3,M,,*60
$PYRTM,2024,125.918591137338,17.028238547477
$GPGGA,220244.00,3450.9837,N,12142.0502,W,1,10,0.8,17.0,M,-33.3,M,,*69
$PYRTM,2024,125.918602246505,17.028249656644
$GPGGA,220245.00,3450.9823,N,12142.0479,W,1,10,0.8,14.6,M,-33.3,M,,*65
$PYRTM,2024,125.918613358229,17.028260768368
$GPGGA,220246.00,3450.9811,N,12142.0456,W,1,10,0.8,13.8,M,-33.3,M,,*63
$PYRTM,2024,125.918624577222,17.028271987361
$GPGGA,220247.00,3450.9800,N,12142.0434,W,1,10,0.8,12.5,M,-33.3,M,,*6A
$PYRTM,2024,125.918635688576,17.028283098715
$GPGGA,220248.00,3450.9788,N,12142.0412,W,1,10,0.8,12.3,M,-33.3,M,,*68
$PYRTM,2024,125.918646799769,17.028294209907
$GPGGA,220249.00,3450.9776,N,12142.0394,W,1,10,0.8,11.2,M,-33.3,M,,*63
$PYRTM,2024,125.918657910579,17.028305320729
$GPGGA,220250.00,3450.9764,N,12142.0374,W,1,10,0.8,12.7,M,-33.3,M,,*60
$PYRTM,2024,125.918669136991,17.028316547130
$GPGGA,220251.00,3450.9754,N,12142.0353,W,1,10,0.8,11.5,M,-33.3,M,,*66
$PYRTM,2024,125.918680246285,17.028327656435
$GPGGA,220252.00,3450.9744,N,12142.0331,W,1,10,0.8,11.9,M,-33.3,M,,*6C
$PYRTM,2024,125.918691359271,17.028338769421
$GPGGA,220253.00,3450.9732,N,12142.0308,W,1,10,0.8,9.2,M,-33.3,M,,*54
$PYRTM,2024,125.918702473067,17.028349883218
$GPGGA,220254.00,3450.9717,N,12142.0286,W,1,10,0.8,9.1,M,-33.3,M,,*50
$PYRTM,2024,125.918713581887,17.028360992025
$GPGGA,220255.00,3450.9702,N,12142.0262,W,1,10,0.8,10.5,M,-33.3,M,,*63
$PYRTM,2024,125.918724696343,17.028372106481
$GPGGA,220256.00,3450.9689,N,12142.0238,W,1,10,0.8,14.1,M,-33.3,M,,*6D
$PYRTM,2024,125.918735919340,17.028383329491
$GPGGA,220257.00,3450.9678,N,12142.0214,W,1,10,0.8,11.4,M,-33.3,M,,*6C
$PYRTM,2024,125.918747394711,17.028394804850
$GPGGA,220258.00,3450.9666,N,12142.0189,W,1,10,0.8,12.8,M,-33.3,M,,*64
$PYRTM,2024,125.918758953993,17.028406364132
$GPGGA,220259.00,3450.9653,N,12142.0168,W,1,10,0.8,10.6,M,-33.3,M,,*60
$PYRTM,2024,125.918770553056,17.028417963194
$GPGGA,220300.00,3450.9641,N,12142.0148,W,1,10,0.8,10.8,M,-33.3,M,,*62
$PYRTM,2024,125.918782102060,17.028429512211
$GPGGA,220301.00,3450.9630,N,12142.0130,W,1,10,0.8,10.9,M,-33.3,M,,*6B
$PYRTM,2024,125.918793687917,17.028441098056
$GPGGA,220302.00,3450.9620,N,12142.0110,W,1,10,0.8,11.5,M,-33.3,M,,*66
$PYRTM,2024,125.918805250220,17.028452660359
$GPGGA,220303.00,3450.9611,N,12142.0090,W,1,10,0.8,11.4,M,-33.3,M,,*6D
$PYRTM,2024,125.918816836644,17.028464246794
$GPGGA,220304.00,3450.9600,N,12142.0068,W,1,10,0.8,12.2,M,-33.3,M,,*68
$PYRTM,2024,125.918828398183,17.028475808322
$GPGGA,220305.00,3450.9587,N,12142.0045,W,1,10,0.8,12.7,M,-33.3,M,,*6F
$PYRTM,2024,125.918838581759,17.028485991898
$GPGGA,220306.00,3450.9572,N,12142.0018,W,1,10,0.8,11.8,M,-33.3,M,,*62
$PYRTM,2024,125.918850395752,17.028497805891
$GPGGA,220307.00,3450.9558,N,12141.9991,W,1,10,0.8,13.7,M,-33.3,M,,*64
$PYRTM,2024,125.918863127072,17.028510537211
$GPGGA,220308.00,3450.9547,N,12141.9967,W,1,10,0.8,14.2,M,-33.3,M,,*6E
$PYRTM,2024,125.918874694688,17.028522104826
$GPGGA,220309.00,3450.9535,N,12141.9943,W,1,10,0.8,13.2,M,-33.3,M,,*6B
$PYRTM,2024,125.918886275590,17.028533685729
$GPGGA,220310.00,3450.9523,N,12141.9922,W,1,10,0.8,13.0,M,-33.3,M,,*61
$PYRTM,2024,125.918898087384,17.028545497523
$GPGGA,220311.00,3450.9509,N,12141.9903,W,1,10,0.8,12.3,M,-33.3,M,,*69
$PYRTM,2024,125.918909427928,17.028556838067
$GPGGA,220312.00,3450.9495,N,12141.9884,W,1,10,0.8,12.8,M,-33.3,M,,*6B
$PYRTM,2024,125.918920991505,17.028568401644
$GPGGA,220313.00,3450.9486,N,12141.9861,W,1,10,0.8,11.7,M,-33.3,M,,*6F
$PYRTM,2024,125.918932581042,17.028579991181
$GPGGA,220314.00,3450.9476,N,12141.9839,W,1,10,0.8,12.8,M,-33.3,M,,*66
$PYRTM,2024,125.918944137824,17.028591547963
$GPGGA,220315.00,3450.9465,N,12141.9817,W,1,10,0.8,13.0,M,-33.3,M,,*60
$PYRTM,2024,125.918955945243,17.028603355382
$GPGGA,220316.00,3450.9452,N,12141.9796,W,1,10,0.8,12.1,M,-33.3,M,,*61
$PYRTM,2024,125.918967286319,17.028614696458
$GPGGA,220317.00,3450.9440,N,12141.9773,W,1,10,0.8,11.6,M,-33.3,M,,*6C
$PYRTM,2024,125.918978875174,17.028626285312
$GPGGA,220318.00,3450.9428,N,12141.9751,W,1,10,0.8,13.3,M,-33.3,M,,*6A
$PYRTM,2024,125.918990436389,17.028637846528
$GPGGA,220319.00,3450.9415,N,12141.9728,W,1,10,0.8,11.7,M,-33.3,M,,*6D
$PYRTM,2024,125.919002022558,17.028649432697
$GPGGA,220320.00,3450.9403,N,12141.9706,W,1,10,0.8,13.6,M,-33.3,M,,*6F
$PYRTM,2024,125.919013584248,17.028660994387
$GPGGA,220321.00,3450.9392,N,12141.9683,W,1,10,0.8,13.8,M,-33.3,M,,*63
$PYRTM,2024,125.919025170683,17.028672580822
$GPGGA,220322.00,3450.9382,N,12141.9660,W,1,10,0.8,13.5,M,-33.3,M,,*61
$PYRTM,2024,125.919036731910,17.028684142049
$GPGGA,220323.00,3450.9371,N,12141.9639,W,1,10,0.8,10.8,M,-33.3,M,,*6E
$PYRTM,2024,125.919048318692,17.028695728831
$GPGGA,220324.00,3450.9359,N,12141.9619,W,1,10,0.8,9.8,M,-33.3,M,,*59
$PYRTM,2024,125.919059880937,17.028707291076
$GPGGA,220325.00,3450.9348,N,12141.9600,W,1,10,0.8,10.7,M,-33.3,M,,*67
$PYRTM,2024,125.919071470937,17.028718881076
$GPGGA,220326.00,3450.9337,N,12141.9580,W,1,10,0.8,11.8,M,-33.3,M,,*69
$PYRTM,2024,125.919083028681,17.028730438831
$GPGGA,220327.00,3450.9326,N,12141.9560,W,1,10,0.8,12.9,M,-33.3,M,,*64
$PYRTM,2024,125.919094618426,17.028742028565
$GPGGA,220328.00,3450.9315,N,12141.9540,W,1,10,0.8,12.5,M,-33.3,M,,*65
$PYRTM,2024,125.919106176424,17.028753586563
$GPGGA,220329.00,3450.9303,N,12141.9518,W,1,10,0.8,13.0,M,-33.3,M,,*6A
$PYRTM,2024,125.919117763194,17.028765173333
$GPGGA,220330.00,3450.9291,N,12141.9494,W,1,10,0.8,15.7,M,-33.3,M,,*6C
$PYRTM,2024,125.919129325197,17.028776735336
$GPGGA,220331.00,3450.9278,N,12141.9471,W,1,10,0.8,15.9,M,-33.3,M,,*6F
$PYRTM,2024,125.919140912419,17.028788322558
$GPGGA,220332.00,3450.9265,N,12141.9448,W,1,10,0.8,15.1,M,-33.3,M,,*62
$PYRTM,2024,125.919152473727,17.028799883866
$GPGGA,220333.00,3450.9252,N,12141.9424,W,1,10,0.8,16.6,M,-33.3,M,,*69
$PYRTM,2024,125.919164059630,17.028811469780
$GPGGA,220334.00,3450.9240,N,12141.9399,W,1,10,0.8,15.1,M,-33.3,M,,*68
$PYRTM,2024,125.919175622882,17.028823033021
$GPGGA,220335.00,3450.9229,N,12141.9375,W,1,10,0.8,13.5,M,-33.3,M,,*66
$PYRTM,2024,125.919185807407,17.028833217546
$GPGGA,220336.00,3450.9219,N,12141.9350,W,1,10,0.8,14.9,M,-33.3,M,,*6A
$PYRTM,2024,125.919197621238,17.028845031389
$GPGGA,220337.00,3450.9206,N,12141.9329,W,1,10,0.8,17.7,M,-33.3,M,,*66
$PYRTM,2024,125.919210356134,17.028857766273
$GPGGA,220338.00,3450.9192,N,12141.9309,W,1,10,0.8,15.6,M,-33.3,M,,*66
$PYRTM,2024,125.919221918634,17.028869328785
$GPGGA,220339.00,3450.9176,N,12141.9289,W,1,10,0.8,13.4,M,-33.3,M,,*60
$PYRTM,2024,125.919233506528,17.028880916667
$GPGGA,220340.00,3450.9165,N,12141.9268,W,1,10,0.8,13.3,M,-33.3,M,,*64
$PYRTM,2024,125.919245425949,17.028892836100
$GPGGA,220341.00,3450.9156,N,12141.9245,W,1,10,0.8,12.4,M,-33.3,M,,*6C
$PYRTM,2024,125.919256656238,17.028904066389
$GPGGA,220342.00,3450.9145,N,12141.9222,W,1,10,0.8,10.7,M,-33.3,M,,*6D
$PYRTM,2024,125.919268214595,17.028915624734
$GPGGA,220343.00,3450.9131,N,12141.9201,W,1,10,0.8,12.9,M,-33.3,M,,*62
$PYRTM,2024,125.919279796574,17.028927206713
$GPGGA,220344.00,3450.9117,N,12141.9179,W,1,10,0.8,13.1,M,-33.3,M,,*64
$PYRTM,2024,125.919291364583,17.028938774722
$GPGGA,220345.00,3450.9105,N,12141.9156,W,1,10,0.8,12.8,M,-33.3,M,,*63
$PYRTM,2024,125.919302950023,17.028950360162
$GPGGA,220346.00,3450.9097,N,12141.9133,W,1,10,0.8,14.3,M,-33.3,M,,*64
$PYRTM,2024,125.919314512199,17.028961922338
$GPGGA,220347.00,3450.9090,N,12141.9109,W,1,10,0.8,12.5,M,-33.3,M,,*6B
$PYRTM,2024,125.919326098322,17.028973508461
$GPGGA,220348.00,3450.9079,N,12141.9089,W,1,10,0.8,11.5,M,-33.3,M,,*69
$PYRTM,2024,125.919337658993,17.028985069132
$GPGGA,220349.00,3450.9066,N,12141.9069,W,1,10,0.8,11.6,M,-33.3,M,,*6B
$PYRTM,2024,125.919349245255,17.028996655394
$GPGGA,220350.00,3450.9051,N,12141.9050,W,1,10,0.8,11.8,M,-33.3,M,,*63
$PYRTM,2024,125.919360806968,17.029008217118
$GPGGA,220351.00,3450.9037,N,12141.9029,W,1,10,0.8,11.4,M,-33.3,M,,*60
$PYRTM,2024,125.919372394479,17.029019804618
$GPGGA,220352.00,3450.9026,N,12141.9007,W,1,10,0.8,12.5,M,-33.3,M,,*6D
$PYRTM,2024,125.919383956748,17.029031366887
$GPGGA,220353.00,3450.9016,N,12141.8983,W,1,10,0.8,14.4,M,-33.3,M,,*6C
$PYRTM,2024,125.919395541806,17.029042951944
$GPGGA,220354.00,3450.9004,N,12141.8959,W,1,10,0.8,14.4,M,-33.3,M,,*6F
$PYRTM,2024,125.919407103947,17.029054514086
$GPGGA,220355.00,3450.8992,N,12141.8937,W,1,10,0.8,14.3,M,-33.3,M,,*66
$PYRTM,2024,125.919418694676,17.029066104815
$GPGGA,220356.00,3450.8978,N,12141.8916,W,1,10,0.8,11.9,M,-33.3,M,,*6D
$PYRTM,2024,125.919430254352,17.029077664491
$GPGGA,220357.00,3450.8967,N,12141.8895,W,1,10,0.8,11.4,M,-33.3,M,,*65
$PYRTM,2024,125.919441845683,17.029089255822
$GPGGA,220358.00,3450.8957,N,12141.8873,W,1,10,0.8,14.7,M,-33.3,M,,*67
$PYRTM,2024,125.919453401331,17.029100811470
$GPGGA,220359.00,3450.8948,N,12141.8849,W,1,10,0.8,12.8,M,-33.3,M,,*68
$PYRTM,2024,125.919464987303,17.029112397454
$GPGGA,220400.00,3450.8939,N,12141.8827,W,1,10,0.8,12.8,M,-33.3,M,,*6D
$PYRTM,2024,125.919476550023,17.029123960174
$GPGGA,220401.00,3450.8929,N,12141.8806,W,1,10,0.8,12.8,M,-33.3,M,,*6E
$PYRTM,2024,125.919488137373,17.029135547512
$GPGGA,220402.00,3450.8918,N,12141.8784,W,1,10,0.8,11.4,M,-33.3,M,,*65
$PYRTM,2024,125.919499698877,17.029147109016
$GPGGA,220403.00,3450.8905,N,12141.8762,W,1,10,0.8,10.0,M,-33.3,M,,*65
$PYRTM,2024,125.919511280718,17.029158690856
$GPGGA,220404.00,3450.8892,N,12141.8740,W,1,10,0.8,12.6,M,-33.3,M,,*69
$PYRTM,2024,125.919522845498,17.029170255637
$GPGGA,220405.00,3450.8880,N,12141.8718,W,1,10,0.8,12.2,M,-33.3,M,,*62
$PYRTM,2024,125.919533506725,17.029180916875
$GPGGA,220406.00,3450.8872,N,12141.8696,W,1,10,0.8,10.8,M,-33.3,M,,*63
$PYRTM,2024,125.919544853241,17.029192263380
$GPGGA,220407.00,3450.8862,N,12141.8674,W,1,10,0.8,9.5,M,-33.3,M,,*5A
$PYRTM,2024,125.919557581551,17.029204991690
$GPGGA,220408.00,3450.8850,N,12141.8653,W,1,10,0.8,9.3,M,-33.3,M,,*57
$PYRTM,2024,125.919569143310,17.029216553449
$GPGGA,220409.00,3450.8836,N,12141.8632,W,1,10,0.8,12.0,M,-33.3,M,,*68
$PYRTM,2024,125.919580733970,17.029228144109
$GPGGA,220410.00,3450.8824,N,12141.8611,W,1,10,0.8,12.2,M,-33.3,M,,*60
$PYRTM,2024,125.919592767905,17.029240178044
$GPGGA,220411.00,3450.8815,N,12141.8589,W,1,10,0.8,11.3,M,-33.3,M,,*63
$PYRTM,2024,125.919604329595,17.029251739745
$GPGGA,220412.00,3450.8806,N,12141.8565,W,1,10,0.8,8.9,M,-33.3,M,,*52
$PYRTM,2024,125.919615910324,17.029263320463
$GPGGA,220413.00,3450.8796,N,12141.8542,W,1,10,0.8,9.9,M,-33.3,M,,*51
$PYRTM,2024,125.919627475405,17.029274885544
$GPGGA,220414.00,3450.8784,N,12141.8521,W,1,10,0.8,10.0,M,-33.3,M,,*61
$PYRTM,2024,125.919639058229,17.029286468368
$GPGGA,220415.00,3450.8773,N,12141.8500,W,1,10,0.8,10.1,M,-33.3,M,,*6A
$PYRTM,2024,125.919650626481,17.029298036620
$GPGGA,220416.00,3450.8762,N,12141.8478,W,1,10,0.8,10.0,M,-33.3,M,,*66
$PYRTM,2024,125.919662216204,17.029309626343
$GPGGA,220417.00,3450.8753,N,12141.8454,W,1,10,0.8,8.5,M,-33.3,M,,*57
$PYRTM,2024,125.919673772245,17.029321182384
$GPGGA,220418.00,3450.8744,N,12141.8429,W,1,10,0.8,7.8,M,-33.3,M,,*56
$PYRTM,2024,125.919685362928,17.029332773079
$GPGGA,220419.00,3450.8735,N,12141.8405,W,1,10,0.8,8.9,M,-33.3,M,,*51
$PYRTM,2024,125.919696920833,17.029344330972
$GPGGA,220420.00,3450.8727,N,12141.8380,W,1,10,0.8,8.7,M,-33.3,M,,*5C
$PYRTM,2024,125.919708509919,17.029355920058
$GPGGA,220421.00,3450.8721,N,12141.8356,W,1,10,0.8,12.6,M,-33.3,M,,*6A
$PYRTM,2024,125.919720068356,17.029367478484
$GPGGA,220422.00,3450.8715,N,12141.8331,W,1,10,0.8,11.3,M,-33.3,M,,*69
$PYRTM,2024,125.919731771181,17.029379181331
$GPGGA,220423.00,3450.8708,N,12141.8309,W,1,10,0.8,10.5,M,-33.3,M,,*68
$PYRTM,2024,125.919743330868,17.029390741007
$GPGGA,220424.00,3450.8701,N,12141.8287,W,1,10,0.8,11.1,M,-33.3,M,,*64
$PYRTM,2024,125.919754803981,17.029402214120
$GPGGA,220425.00,3450.8694,N,12141.8266,W,1,10,0.8,9.5,M,-33.3,M,,*5A
$PYRTM,2024,125.919766366088,17.029413776227
$GPGGA,220426.00,3450.8687,N,12141.8244,W,1,10,0.8,8.8,M,-33.3,M,,*57
$PYRTM,2024,125.919777952187,17.029425362326
$GPGGA,220427.00,3450.8679,N,12141.8222,W,1,10,0.8,5.2,M,-33.3,M,,*50
$PYRTM,2024,125.919789627894,17.029437038032
$GPGGA,220428.00,3450.8670,N,12141.8200,W,1,10,0.8,5.8,M,-33.3,M,,*5C
$PYRTM,2024,125.919801217072,17.029448627199
$GPGGA,220429.00,3450.8663,N,12141.8176,W,1,10,0.8,8.0,M,-33.3,M,,*58
$PYRTM,2024,125.919812776192,17.029460186331
$GPGGA,220430.00,3450.8654,N,12141.8150,W,1,10,0.8,8.9,M,-33.3,M,,*59
$PYRTM,2024,125.919824364132,17.029471774271
$GPGGA,220431.00,3450.8644,N,12141.8127,W,1,10,0.8,9.5,M,-33.3,M,,*54
$PYRTM,2024,125.919835924352,17.029483334491
$GPGGA,220432.00,3450.8633,N,12141.8105,W,1,10,0.8,8.4,M,-33.3,M,,*57
$PYRTM,2024,125.919852952569,17.029500362708
$GPGGA,220433.00,3450.8622,N,12141.8082,W,1,10,0.8,9.7,M,-33.3,M,,*5A
$PYRTM,2024,125.919864874317,17.029512284456
$GPGGA,220434.00,3450.8615,N,12141.8061,W,1,10,0.8,10.2,M,-33.3,M,,*69
$PYRTM,2024,125.919875624572,17.029523034711
$GPGGA,220435.00,3450.8609,N,12141.8041,W,1,10,0.8,9.8,M,-33.3,M,,*55
$PYRTM,2024,125.919891251713,17.029538661852
$GPGGA,220436.00,3450.8602,N,12141.8020,W,1,10,0.8,8.5,M,-33.3,M,,*56
$PYRTM,2024,125.919902361262,17.029549771400
$GPGGA,220437.00,3450.8593,N,12141.7999,W,1,10,0.8,7.0,M,-33.3,M,,*52
$PYRTM,2024,125.919913473495,17.029560883634
$GPGGA,220438.00,3450.8585,N,12141.7978,W,1,10,0.8,7.7,M,-33.3,M,,*52
$PYRTM,2024,125.919924583854,17.029571993993
$GPGGA,220439.00,3450.8577,N,12141.7956,W,1,10,0.8,6.8,M,-33.3,M,,*5C
$PYRTM,2024,125.919935694618,17.029583104757
$GPGGA,220440.00,3450.8568,N,12141.7934,W,1,10,0.8,8.1,M,-33.3,M,,*5F
$PYRTM,2024,125.919947282106,17.029594692245
$GPGGA,220441.00,3450.8560,N,12141.7909,W,1,10,0.8,10.5,M,-33.3,M,,*65
$PYRTM,2024,125.919958407535,17.029605817685
$GPGGA,220442.00,3450.8552,N,12141.7883,W,1,10,0.8,9.3,M,-33.3,M,,*5A
$PYRTM,2024,125.919969619560,17.029617029699
$GPGGA,220443.00,3450.8543,N,12141.7858,W,1,10,0.8,8.2,M,-33.3,M,,*5D
$PYRTM,2024,125.919980746319,17.029628156458
$GPGGA,220444.00,3450.8533,N,12141.7834,W,1,10,0.8,9.1,M,-33.3,M,,*55
$PYRTM,2024,125.919991842905,17.029639253044
$GPGGA,220445.00,3450.8522,N,12141.7810,W,1,10,0.8,9.6,M,-33.3,M,,*55
$PYRTM,2024,125.920002953831,17.029650363970
$GPGGA,220446.00,3450.8516,N,12141.7785,W,1,10,0.8,9.6,M,-33.3,M,,*52
$PYRTM,2024,125.920013949780,17.029661359919
$GPGGA,220447.00,3450.8511,N,12141.7760,W,1,10,0.8,8.7,M,-33.3,M,,*5F
$PYRTM,2024,125.920025061354,17.029672471493
$GPGGA,220448.00,3450.8505,N,12141.7738,W,1,10,0.8,9.3,M,-33.3,M,,*5D
$PYRTM,2024,125.920036185382,17.029683595521
$GPGGA,220449.00,3450.8497,N,12141.7716,W,1,10,0.8,6.6,M,-33.3,M,,*50
$PYRTM,2024,125.920047282812,17.029694692951
$GPGGA,220450.00,3450.8488,N,12141.7695,W,1,10,0.8,6.8,M,-33.3,M,,*52
$PYRTM,2024,125.920058399421,17.029705809560
$GPGGA,220451.00,3450.8477,N,12141.7673,W,1,10,0.8,8.3,M,-33.3,M,,*5E
$PYRTM,2024,125.920069504965,17.029716915104
$GPGGA,220452.00,3450.8468,N,12141.7653,W,1,10,0.8,6.9,M,-33.3,M,,*55
$PYRTM,2024,125.920080719850,17.029728129988
$GPGGA,220453.00,3450.8462,N,12141.7632,W,1,10,0.8,4.8,M,-33.3,M,,*5A
$PYRTM,2024,125.920091846794,17.029739256933
$GPGGA,220454.00,3450.8454,N,12141.7610,W,1,10,0.8,2.6,M,-33.3,M,,*50
$PYRTM,2024,125.920102944306,17.029750354444
$GPGGA,220455.00,3450.8443,N,12141.7588,W,1,10,0.8,1.6,M,-33.3,M,,*56
$PYRTM,2024,125.920114399340,17.029761809479
$GPGGA,220456.00,3450.8433,N,12141.7564,W,1,10,0.8,4.2,M,-33.3,M,,*51
$PYRTM,2024,125.920125511354,17.029772921493
$GPGGA,220457.00,3450.8426,N,12141.7539,W,1,10,0.8,7.8,M,-33.3,M,,*55
$PYRTM,2024,125.920136621493,17.029784031632
$GPGGA,220458.00,3450.8420,N,12141.7513,W,1,10,0.8,8.1,M,-33.3,M,,*52
$PYRTM,2024,125.920147732662,17.029795142801
$GPGGA,220459.00,3450.8414,N,12141.7486,W,1,10,0.8,9.2,M,-33.3,M,,*5B
$PYRTM,2024,125.920159437118,17.029806847257
$GPGGA,220500.00,3450.8406,N,12141.7460,W,1,10,0.8,10.3,M,-33.3,M,,*64
$PYRTM,2024,125.920170997222,17.029818407361
$GPGGA,220501.00,3450.8396,N,12141.7436,W,1,10,0.8,9.2,M,-33.3,M,,*51
$PYRTM,2024,125.920182585671,17.029829995810
$GPGGA,220502.00,3450.8387,N,12141.7413,W,1,10,0.8,7.6,M,-33.3,M,,*5F
$PYRTM,2024,125.920194145359,17.029841555498
$GPGGA,220503.00,3450.8378,N,12141.7391,W,1,10,0.8,8.6,M,-33.3,M,,*5C
$PYRTM,2024,125.920205732894,17.029853143032
$GPGGA,220504.00,3450.8370,N,12141.7371,W,1,10,0.8,6.1,M,-33.3,M,,*54
$PYRTM,2024,125.920217295590,17.029864705729
$GPGGA,220505.00,3450.8364,N,12141.7350,W,1,10,0.8,5.8,M,-33.3,M,,*59
$PYRTM,2024,125.920227479745,17.029874889884
$GPGGA,220506.00,3450.8358,N,12141.7327,W,1,10,0.8,7.9,M,-33.3,M,,*56
$PYRTM,2024,125.920239298877,17.029886709016
$GPGGA,220507.00,3450.8351,N,12141.7304,W,1,10,0.8,9.1,M,-33.3,M,,*59
$PYRTM,2024,125.920252033160,17.029899443310
$GPGGA,220508.00,3450.8341,N,12141.7280,W,1,10,0.8,7.6,M,-33.3,M,,*53
$PYRTM,2024,125.920263592049,17.029911002199
$GPGGA,220509.00,3450.8330,N,12141.7256,W,1,10,0.8,8.4,M,-33.3,M,,*52
$PYRTM,2024,125.920275181505,17.029922591644
$GPGGA,220510.00,3450.8321,N,12141.7230,W,1,10,0.8,9.3,M,-33.3,M,,*5C
$PYRTM,2024,125.920286739722,17.029934149861
$GPGGA,220511.00,3450.8311,N,12141.7204,W,1,10,0.8,8.2,M,-33.3,M,,*59
$PYRTM,2024,125.920298325532,17.029945735671
$GPGGA,220512.00,3450.8302,N,12141.7178,W,1,10,0.8,7.8,M,-33.3,M,,*55
$PYRTM,2024,125.920309886817,17.029957296956
$GPGGA,220513.00,3450.8292,N,12141.7152,W,1,10,0.8,6.1,M,-33.3,M,,*5C
$PYRTM,2024,125.920321474664,17.029968884803
$GPGGA,220514.00,3450.8283,N,12141.7128,W,1,10,0.8,7.0,M,-33.3,M,,*56
$PYRTM,2024,125.920331899560,17.029979309699
$GPGGA,220515.00,3450.8275,N,12141.7108,W,1,10,0.8,7.4,M,-33.3,M,,*58
$PYRTM,2024,125.920344624271,17.029992034410
$GPGGA,220516.00,3450.8269,N,12141.7086,W,1,10,0.8,6.3,M,-33.3,M,,*57
$PYRTM,2024,125.920356185359,17.030003595498
$GPGGA,220517.00,3450.8262,N,12141.7065,W,1,10,0.8,6.2,M,-33.3,M,,*51
$PYRTM,2024,125.920367765984,17.030015176123
$GPGGA,220518.00,3450.8253,N,12141.7043,W,1,10,0.8,6.9,M,-33.3,M,,*53
$PYRTM,2024,125.920379333750,17.030026743900
$GPGGA,220519.00,3450.8245,N,12141.7020,W,1,10,0.8,6.6,M,-33.3,M,,*5F
$PYRTM,2024,125.920390920197,17.030038330347
$GPGGA,220520.00,3450.8236,N,12141.6996,W,1,10,0.8,7.4,M,-33.3,M,,*57
$PYRTM,2024,125.920402482338,17.030049892477
$GPGGA,220521.00,3450.8227,N,12141.6971,W,1,10,0.8,6.6,M,-33.3,M,,*5C
$PYRTM,2024,125.920414082975,17.030061493125
$GPGGA,220522.00,3450.8219,N,12141.6945,W,1,10,0.8,5.4,M,-33.3,M,,*54
$PYRTM,2024,125.920425629421,17.030073039560
$GPGGA,220523.00,3450.8208,N,12141.6920,W,1,10,0.8,5.1,M,-33.3,M,,*53
$PYRTM,2024,125.920437230127,17.030084640266
$GPGGA,220524.00,3450.8197,N,12141.6896,W,1,10,0.8,7.7,M,-33.3,M,,*59
$PYRTM,2024,125.920448777639,17.030096187789
$GPGGA,220525.00,3450.8189,N,12141.6874,W,1,10,0.8,9.0,M,-33.3,M,,*52
$PYRTM,2024,125.920460365046,17.030107775185
$GPGGA,220526.00,3450.8184,N,12141.6852,W,1,10,0.8,8.9,M,-33.3,M,,*50
$PYRTM,2024,125.920471925729,17.030119335880
$GPGGA,220527.00,3450.8179,N,12141.6832,W,1,10,0.8,7.8,M,-33.3,M,,*5B
$PYRTM,2024,125.920483507894,17.030130918044
$GPGGA,220528.00,3450.8172,N,12141.6812,W,1,10,0.8,8.0,M,-33.3,M,,*5A
$PYRTM,2024,125.920495072940,17.030142483090
$GPGGA,220529.00,3450.8165,N,12141.6791,W,1,10,0.8,9.2,M,-33.3,M,,*5A
$PYRTM,2024,125.920506543866,17.030153954005
$GPGGA,220530.00,3450.8158,N,12141.6769,W,1,10,0.8,9.5,M,-33.3,M,,*5C
$PYRTM,2024,125.920518107130,17.030165517269
$GPGGA,220531.00,3450.8151,N,12141.6745,W,1,10,0.8,9.4,M,-33.3,M,,*5B
$PYRTM,2024,125.920529804178,17.030177214317
$GPGGA,220532.00,3450.8143,N,12141.6721,W,1,10,0.8,9.6,M,-33.3,M,,*5B
$PYRTM,2024,125.920541371632,17.030188781782
$GPGGA,220533.00,3450.8132,N,12141.6695,W,1,10,0.8,9.3,M,-33.3,M,,*57
$PYRTM,2024,125.920552952072,17.030200362222
$GPGGA,220534.00,3450.8122,N,12141.6669,W,1,10,0.8,8.1,M,-33.3,M,,*51
$PYRTM,2024,125.920564519479,17.030211929618
$GPGGA,220535.00,3450.8113,N,12141.6643,W,1,10,0.8,11.3,M,-33.3,M,,*60
$PYRTM,2024,125.920574703264,17.030222113403
$GPGGA,220536.00,3450.8105,N,12141.6620,W,1,10,0.8,8.3,M,-33.3,M,,*59
$PYRTM,2024,125.920586516748,17.030233926887
$GPGGA,220537.00,3450.8097,N,12141.6598,W,1,10,0.8,7.1,M,-33.3,M,,*5F
$PYRTM,2024,125.920599268958,17.030246679097
$GPGGA,220538.00,3450.8090,N,12141.6576,W,1,10,0.8,5.9,M,-33.3,M,,*5D
$PYRTM,2024,125.920610814259,17.030258224398
$GPGGA,220539.00,3450.8083,N,12141.6555,W,1,10,0.8,5.0,M,-33.3,M,,*56
$PYRTM,2024,125.920622285718,17.030269695845
$GPGGA,220540.00,3450.8077,N,12141.6534,W,1,10,0.8,6.2,M,-33.3,M,,*55
$PYRTM,2024,125.920633846806,17.030281256944
$GPGGA,220541.00,3450.8071,N,12141.6510,W,1,10,0.8,9.6,M,-33.3,M,,*5F
$PYRTM,2024,125.920645436042,17.030292846192
$GPGGA,220542.00,3450.8065,N,12141.6486,W,1,10,0.8,8.3,M,-33.3,M,,*53
$PYRTM,2024,125.920656996319,17.030304406458
$GPGGA,220543.00,3450.8057,N,12141.6460,W,1,10,0.8,8.4,M,-33.3,M,,*5C
$PYRTM,2024,125.920668697650,17.030316107789
$GPGGA,220544.00,3450.8046,N,12141.6435,W,1,10,0.8,8.7,M,-33.3,M,,*58
$PYRTM,2024,125.920680260139,17.030327670289
$GPGGA,220545.00,3450.8034,N,12141.6411,W,1,10,0.8,7.1,M,-33.3,M,,*53
$PYRTM,2024,125.920691852326,17.030339262465
$GPGGA,220546.00,3450.8024,N,12141.6386,W,1,10,0.8,5.1,M,-33.3,M,,*5A
$PYRTM,2024,125.920703409954,17.030350820093
$GPGGA,220547.00,3450.8015,N,12141.6360,W,1,10,0.8,6.5,M,-33.3,M,,*56
$PYRTM,2024,125.920714880197,17.030362290336
$GPGGA,220548.00,3450.8009,N,12141.6336,W,1,10,0.8,5.7,M,-33.3,M,,*56
$PYRTM,2024,125.920726555451,17.030373965590
$GPGGA,220549.00,3450.8001,N,12141.6313,W,1,10,0.8,6.3,M,-33.3,M,,*5F
$PYRTM,2024,125.920738146169,17.030385556319
$GPGGA,220550.00,3450.7993,N,12141.6291,W,1,10,0.8,6.7,M,-33.3,M,,*55
$PYRTM,2024,125.920749704803,17.030397114942
$GPGGA,220551.00,3450.7983,N,12141.6271,W,1,10,0.8,6.4,M,-33.3,M,,*58
$PYRTM,2024,125.920761306331,17.030408716470
$GPGGA,220552.00,3450.7973,N,12141.6252,W,1,10,0.8,6.8,M,-33.3,M,,*59
$PYRTM,2024,125.920772854063,17.030420264201
$GPGGA,220553.00,3450.7966,N,12141.6231,W,1,10,0.8,8.0,M,-33.3,M,,*5F
$PYRTM,2024,125.920784325127,17.030431735266
$GPGGA,220554.00,3450.7959,N,12141.6208,W,1,10,0.8,9.3,M,-33.3,M,,*5C
$PYRTM,2024,125.920795886192,17.030443296331
$GPGGA,220555.00,3450.7952,N,12141.6185,W,1,10,0.8,7.4,M,-33.3,M,,*59
$PYRTM,2024,125.920807588079,17.030454998218
$GPGGA,220556.00,3450.7942,N,12141.6160,W,1,10,0.8,8.3,M,-33.3,M,,*58
$PYRTM,2024,125.920819151435,17.030466561574
$GPGGA,220557.00,3450.7931,N,12141.6135,W,1,10,0.8,8.6,M,-33.3,M,,*58
$PYRTM,2024,125.920830738183,17.030478148322
$GPGGA,220558.00,3450.7918,N,12141.6109,W,1,10,0.8,7.4,M,-33.3,M,,*5E
$PYRTM,2024,125.920842299444,17.030489709583
$GPGGA,220559.00,3450.7908,N,12141.6084,W,1,10,0.8,6.5,M,-33.3,M,,*5A
$PYRTM,2024,125.920853885602,17.030501295741
$GPGGA,220600.00,3450.7900,N,12141.6059,W,1,10,0.8,10.9,M,-33.3,M,,*66
$PYRTM,2024,125.920865446910,17.030512857049
$GPGGA,220601.00,3450.7894,N,12141.6037,W,1,10,0.8,7.8,M,-33.3,M,,*54
$PYRTM,2024,125.920877034178,17.030524444317
$GPGGA,220602.00,3450.7890,N,12141.6016,W,1,10,0.8,7.5,M,-33.3,M,,*5D
$PYRTM,2024,125.920888593542,17.030536003681
$GPGGA,220603.00,3450.7884,N,12141.5996,W,1,10,0.8,6.1,M,-33.3,M,,*5E
$PYRTM,2024,125.920900181157,17.030547591296
$GPGGA,220604.00,3450.7876,N,12141.5975,W,1,10,0.8,5.0,M,-33.3,M,,*5B
$PYRTM,2024,125.920911742882,17.030559153021
$GPGGA,220605.00,3450.7869,N,12141.5952,W,1,10,0.8,5.8,M,-33.3,M,,*59
$PYRTM,2024,125.920921928692,17.030569338831
$GPGGA,220606.00,3450.7863,N,12141.5928,W,1,10,0.8,6.6,M,-33.3,M,,*50
$PYRTM,2024,125.920933746620,17.030581156759
$GPGGA,220607.00,3450.7858,N,12141.5903,W,1,10,0.8,5.6,M,-33.3,M,,*53
$PYRTM,2024,125.920946365451,17.030593775590
$GPGGA,220608.00,3450.7850,N,12141.5875,W,1,10,0.8,5.9,M,-33.3,M,,*5B
$PYRTM,2024,125.920958039468,17.030605449606
$GPGGA,220609.00,3450.7838,N,12141.5846,W,1,10,0.8,2.0,M,-33.3,M,,*5A
$PYRTM,2024,125.920969626794,17.030617036933
$GPGGA,220610.00,3450.7825,N,12141.5820,W,1,10,0.8,1.3,M,-33.3,M,,*5E
$PYRTM,2024,125.920981187743,17.030628597882
$GPGGA,220611.00,3450.7816,N,12141.5797,W,1,10,0.8,5.1,M,-33.3,M,,*5A
$PYRTM,2024,125.920992659375,17.030640069514
$GPGGA,220612.00,3450.7812,N,12141.5773,W,1,10,0.8,5.0,M,-33.3,M,,*56
$PYRTM,2024,125.921004221759,17.030651631898
$GPGGA,220613.00,3450.7808,N,12141.5750,W,1,10,0.8,5.6,M,-33.3,M,,*5B
$PYRTM,2024,125.921015807072,17.030663217211
$GPGGA,220614.00,3450.7801,N,12141.5728,W,1,10,0.8,6.6,M,-33.3,M,,*59
$PYRTM,2024,125.921027485139,17.030674895278
$GPGGA,220615.00,3450.7791,N,12141.5707,W,1,10,0.8,6.5,M,-33.3,M,,*50
$PYRTM,2024,125.921039066007,17.030686476146
$GPGGA,220616.00,3450.7782,N,12141.5684,W,1,10,0.8,7.1,M,-33.3,M,,*5E
$PYRTM,2024,125.921050516678,17.030697926817
$GPGGA,220617.00,3450.7777,N,12141.5658,W,1,10,0.8,8.5,M,-33.3,M,,*5F
$PYRTM,2024,125.921062109190,17.030709519329
$GPGGA,220618.00,3450.7772,N,12141.5631,W,1,10,0.8,5.2,M,-33.3,M,,*50
$PYRTM,2024,125.921073665139,17.030721075278
$GPGGA,220619.00,3450.7762,N,12141.5603,W,1,10,0.8,6.0,M,-33.3,M,,*50
$PYRTM,2024,125.921085373009,17.030732783148
$GPGGA,220620.00,3450.7747,N,12141.5579,W,1,10,0.8,9.0,M,-33.3,M,,*5C
$PYRTM,2024,125.921096930556,17.030744340694
$GPGGA,220621.00,3450.7733,N,12141.5555,W,1,10,0.8,11.1,M,-33.3,M,,*68
$PYRTM,2024,125.921108505243,17.030755915382
$GPGGA,220622.00,3450.7724,N,12141.5532,W,1,10,0.8,11.7,M,-33.3,M,,*6A
$PYRTM,2024,125.921120077130,17.030767487269
$GPGGA,220623.00,3450.7719,N,12141.5509,W,1,10,0.8,13.1,M,-33.3,M,,*69
$PYRTM,2024,125.921131549826,17.030778959965
$GPGGA,220624.00,3450.7714,N,12141.5487,W,1,10,0.8,9.1,M,-33.3,M,,*5F
$PYRTM,2024,125.921143224722,17.030790634861
$GPGGA,220625.00,3450.7706,N,12141.5466,W,1,10,0.8,5.9,M,-33.3,M,,*56
$PYRTM,2024,125.921154813148,17.030802223299
$GPGGA,220626.00,3450.7695,N,12141.5448,W,1,10,0.8,4.7,M,-33.3,M,,*5D
$PYRTM,2024,125.921166373530,17.030813783669
$GPGGA,220627.00,3450.7684,N,12141.5426,W,1,10,0.8,4.9,M,-33.3,M,,*5A
$PYRTM,2024,125.921177961296,17.030825371435
$GPGGA,220628.00,3450.7677,N,12141.5402,W,1,10,0.8,7.0,M,-33.3,M,,*55
$PYRTM,2024,125.921189406586,17.030836816725
$GPGGA,220629.00,3450.7673,N,12141.5376,W,1,10,0.8,8.3,M,-33.3,M,,*58
$PYRTM,2024,125.921200993299,17.030848403438
$GPGGA,220630.00,3450.7667,N,12141.5349,W,1,10,0.8,8.4,M,-33.3,M,,*5E
$PYRTM,2024,125.921212554363,17.030859964502
$GPGGA,220631.00,3450.7659,N,12141.5323,W,1,10,0.8,7.2,M,-33.3,M,,*57
$PYRTM,2024,125.921224257384,17.030871667523
$GPGGA,220632.00,3450.7650,N,12141.5297,W,1,10,0.8,4.4,M,-33.3,M,,*56
$PYRTM,2024,125.921235818831,17.030883228970
$GPGGA,220633.00,3450.7640,N,12141.5273,W,1,10,0.8,5.9,M,-33.3,M,,*50
$PYRTM,2024,125.921247408866,17.030894819005
$GPGGA,220634.00,3450.7631,N,12141.5249,W,1,10,0.8,7.9,M,-33.3,M,,*5A
$PYRTM,2024,125.921258854514,17.030906264653
$GPGGA,220635.00,3450.7624,N,12141.5226,W,1,10,0.8,6.5,M,-33.3,M,,*5B
$PYRTM,2024,125.921269642951,17.030917053102
$GPGGA,220636.00,3450.7619,N,12141.5203,W,1,10,0.8,4.0,M,-33.3,M,,*56
$PYRTM,2024,125.921280971400,17.030928381539
$GPGGA,220637.00,3450.7612,N,12141.5181,W,1,10,0.8,5.2,M,-33.3,M,,*56
$PYRTM,2024,125.921291619896,17.030939030035
$GPGGA,220638.00,3450.7603,N,12141.5159,W,1,10,0.8,5.7,M,-33.3,M,,*59
$PYRTM,2024,125.921304582535,17.030951992674
$GPGGA,220639.00,3450.7593,N,12141.5137,W,1,10,0.8,9.2,M,-33.3,M,,*53
$PYRTM,2024,125.921315333634,17.030962743773
$GPGGA,220640.00,3450.7583,N,12141.5113,W,1,10,0.8,11.0,M,-33.3,M,,*61
$PYRTM,2024,125.921326924005,17.030974334155
$GPGGA,220641.00,3450.7574,N,12141.5088,W,1,10,0.8,9.9,M,-33.3,M,,*5B
$PYRTM,2024,125.921338031528,17.030985441678
$GPGGA,220642.00,3450.7565,N,12141.5065,W,1,10,0.8,10.1,M,-33.3,M,,*6B
$PYRTM,2024,125.921349254178,17.030996664317
$GPGGA,220643.00,3450.7555,N,12141.5042,W,1,10,0.8,10.7,M,-33.3,M,,*6A
$PYRTM,2024,125.921360369896,17.031007780035
$GPGGA,220644.00,3450.7546,N,12141.5021,W,1,10,0.8,9.1,M,-33.3,M,,*54
$PYRTM,2024,125.921371482338,17.031018892477
$GPGGA,220645.00,3450.7540,N,12141.4998,W,1,10,0.8,7.4,M,-33.3,M,,*52
$PYRTM,2024,125.921382607002,17.031030017141
$GPGGA,220646.00,3450.7533,N,12141.4975,W,1,10,0.8,6.9,M,-33.3,M,,*5A
$PYRTM,2024,125.921393703241,17.031041113380
$GPGGA,220647.00,3450.7526,N,12141.4953,W,1,10,0.8,5.9,M,-33.3,M,,*58
$PYRTM,2024,125.921404828160,17.031052238299
$GPGGA,220648.00,3450.7519,N,12141.4932,W,1,10,0.8,6.7,M,-33.3,M,,*51
$PYRTM,2024,125.921416258981,17.031063669120
$GPGGA,220649.00,3450.7510,N,12141.4909,W,1,10,0.8,8.7,M,-33.3,M,,*5F
$PYRTM,2024,125.921427849433,17.031075259572
$GPGGA,220650.00,3450.7500,N,12141.4885,W,1,10,0.8,7.5,M,-33.3,M,,*5E
$PYRTM,2024,125.921439407894,17.031086818032
$GPGGA,220651.00,3450.7491,N,12141.4862,W,1,10,0.8,5.6,M,-33.3,M,,*5E
$PYRTM,2024,125.921450994676,17.031098404815
$GPGGA,220652.00,3450.7481,N,12141.4839,W,1,10,0.8,7.3,M,-33.3,M,,*55
$PYRTM,2024,125.921462555231,17.031109965370
$GPGGA,220653.00,3450.7471,N,12141.4816,W,1,10,0.8,6.8,M,-33.3,M,,*5C
$PYRTM,2024,125.921474142176,17.031121552315
$GPGGA,220654.00,3450.7464,N,12141.4790,W,1,10,0.8,7.3,M,-33.3,M,,*54
$PYRTM,2024,125.921485703993,17.031133114132
$GPGGA,220655.00,3450.7456,N,12141.4766,W,1,10,0.8,9.1,M,-33.3,M,,*51
$PYRTM,2024,125.921497412685,17.031144822824
$GPGGA,220656.00,3450.7447,N,12141.4745,W,1,10,0.8,7.9,M,-33.3,M,,*55
$PYRTM,2024,125.921508968669,17.031156378808
$GPGGA,220657.00,3450.7436,N,12141.4723,W,1,10,0.8,10.6,M,-33.3,M,,*6B
$PYRTM,2024,125.921520551250,17.031167961389
$GPGGA,220658.00,3450.7427,N,12141.4700,W,1,10,0.8,11.3,M,-33.3,M,,*61
$PYRTM,2024,125.921532116412,17.031179526551
$GPGGA,220659.00,3450.7421,N,12141.4677,W,1,10,0.8,9.2,M,-33.3,M,,*5F
$PYRTM,2024,125.921543709190,17.031191119329
$GPGGA,220700.00,3450.7415,N,12141.4655,W,1,10,0.8,10.6,M,-33.3,M,,*69
$PYRTM,2024,125.921555264479,17.031202674630
$GPGGA,220701.00,3450.7408,N,12141.4632,W,1,10,0.8,10.1,M,-33.3,M,,*62
$PYRTM,2024,125.921566868090,17.031214278229
$GPGGA,220702.00,3450.7398,N,12141.4610,W,1,10,0.8,10.3,M,-33.3,M,,*6D
$PYRTM,2024,125.921578413472,17.031225823611
$GPGGA,220703.00,3450.7388,N,12141.4587,W,1,10,0.8,11.8,M,-33.3,M,,*6A
$PYRTM,2024,125.921590003113,17.031237413252
$GPGGA,220704.00,3450.7380,N,12141.4563,W,1,10,0.8,11.4,M,-33.3,M,,*63
$PYRTM,2024,125.921601561204,17.031248971343
$GPGGA,220705.00,3450.7374,N,12141.4538,W,1,10,0.8,10.3,M,-33.3,M,,*61
$PYRTM,2024,125.921616621146,17.031264031285
$GPGGA,220706.00,3450.7367,N,12141.4512,W,1,10,0.8,11.0,M,-33.3,M,,*6A
$PYRTM,2024,125.921628194664,17.031275604803
$GPGGA,220707.00,3450.7359,N,12141.4488,W,1,10,0.8,7.2,M,-33.3,M,,*51
$PYRTM,2024,125.921639772697,17.031287182836
$GPGGA,220708.00,3450.7349,N,12141.4465,W,1,10,0.8,3.5,M,-33.3,M,,*5F
$PYRTM,2024,125.921651343657,17.031298753796
$GPGGA,220709.00,3450.7340,N,12141.4441,W,1,10,0.8,5.2,M,-33.3,M,,*50
$PYRTM,2024,125.921662920706,17.031310330845
$GPGGA,220710.00,3450.7332,N,12141.4417,W,1,10,0.8,8.0,M,-33.3,M,,*51
$PYRTM,2024,125.921674491146,17.031321901296
$GPGGA,220711.00,3450.7323,N,12141.4393,W,1,10,0.8,12.0,M,-33.3,M,,*60
$PYRTM,2024,125.921686066586,17.031333476736
$GPGGA,220712.00,3450.7315,N,12141.4369,W,1,10,0.8,10.5,M,-33.3,M,,*64
$PYRTM,2024,125.921697639537,17.031345049687
$GPGGA,220713.00,3450.7306,N,12141.4343,W,1,10,0.8,9.5,M,-33.3,M,,*57
$PYRTM,2024,125.921709215972,17.031356626111
$GPGGA,220714.00,3450.7298,N,12141.4317,W,1,10,0.8,11.9,M,-33.3,M,,*62
$PYRTM,2024,125.921720788750,17.031368198889
$GPGGA,220715.00,3450.7290,N,12141.4293,W,1,10,0.8,10.9,M,-33.3,M,,*67
$PYRTM,2024,125.921732366285,17.031379776424
$GPGGA,220716.00,3450.7284,N,12141.4268,W,1,10,0.8,9.1,M,-33.3,M,,*55
$PYRTM,2024,125.921743936910,17.031391347049
$GPGGA,220717.00,3450.7277,N,12141.4244,W,1,10,0.8,10.5,M,-33.3,M,,*6A
$PYRTM,2024,125.921755513472,17.031402923611
$GPGGA,220718.00,3450.7270,N,12141.4221,W,1,10,0.8,9.4,M,-33.3,M,,*58
$PYRTM,2024,125.921767085127,17.031414495266
$GPGGA,220719.00,3450.7262,N,12141.4197,W,1,10,0.8,8.3,M,-33.3,M,,*52
$PYRTM,2024,125.921778659375,17.031426069514
$GPGGA,220720.00,3450.7253,N,12141.4173,W,1,10,0.8,6.5,M,-33.3,M,,*58
$PYRTM,2024,125.921790232905,17.031437643044
$GPGGA,220721.00,3450.7244,N,12141.4148,W,1,10,0.8,8.0,M,-33.3,M,,*5C
$PYRTM,2024,125.921801806667,17.031449216817
$GPGGA,220722.00,3450.7236,N,12141.4124,W,1,10,0.8,9.0,M,-33.3,M,,*51
$PYRTM,2024,125.921813377106,17.031460787257
$GPGGA,220723.00,3450.7229,N,12141.4099,W,1,10,0.8,8.4,M,-33.3,M,,*5C
$PYRTM,2024,125.921824949687,17.031472359826
$GPGGA,220724.00,3450.7221,N,12141.4075,W,1,10,0.8,10.3,M,-33.3,M,,*6F
$PYRTM,2024,125.921836530706,17.031483940845
$GPGGA,220725.00,3450.7212,N,12141.4051,W,1,10,0.8,10.3,M,-33.3,M,,*68
$PYRTM,2024,125.921848335208,17.031495745347
$GPGGA,220726.00,3450.7204,N,12141.4027,W,1,10,0.8,11.5,M,-33.3,M,,*6A
$PYRTM,2024,125.921859673148,17.031507083287
$GPGGA,220727.00,3450.7197,N,12141.4004,W,1,10,0.8,11.9,M,-33.3,M,,*6F
$PYRTM,2024,125.921871252604,17.031518662743
$GPGGA,220728.00,3450.7191,N,12141.3981,W,1,10,0.8,9.2,M,-33.3,M,,*57
$PYRTM,2024,125.921882825185,17.031530235324
$GPGGA,220729.00,3450.7184,N,12141.3957,W,1,10,0.8,9.5,M,-33.3,M,,*5E
$PYRTM,2024,125.921894402338,17.031541812477
$GPGGA,220730.00,3450.7175,N,12141.3932,W,1,10,0.8,6.5,M,-33.3,M,,*54
$PYRTM,2024,125.921905974190,17.031553384340
$GPGGA,220731.00,3450.7167,N,12141.3906,W,1,10,0.8,9.8,M,-33.3,M,,*53
$PYRTM,2024,125.921917551806,17.031564961944
$GPGGA,220732.00,3450.7157,N,12141.3879,W,1,10,0.8,9.8,M,-33.3,M,,*5A
$PYRTM,2024,125.921929122558,17.031576532697
$GPGGA,220733.00,3450.7148,N,12141.3854,W,1,10,0.8,12.5,M,-33.3,M,,*6D
$PYRTM,2024,125.921940697303,17.031588107442
$GPGGA,220734.00,3450.7139,N,12141.3828,W,1,10,0.8,11.5,M,-33.3,M,,*64
$PYRTM,2024,125.921952272095,17.031599682234
$GPGGA,220735.00,3450.7131,N,12141.3803,W,1,10,0.8,10.9,M,-33.3,M,,*69
$PYRTM,2024,125.921963602141,17.031611012280
$GPGGA,220736.00,3450.7125,N,12141.3778,W,1,10,0.8,8.9,M,-33.3,M,,*55
$PYRTM,2024,125.921976565370,17.031623975509
$GPGGA,220737.00,3450.7117,N,12141.3756,W,1,10,0.8,8.3,M,-33.3,M,,*53
$PYRTM,2024,125.921988152350,17.031635562488
$GPGGA,220738.00,3450.7108,N,12141.3735,W,1,10,0.8,8.4,M,-33.3,M,,*50
$PYRTM,2024,125.921999711933,17.031647122072
$GPGGA,220739.00,3450.7099,N,12141.3714,W,1,10,0.8,8.9,M,-33.3,M,,*56
$PYRTM,2024,125.922011299144,17.031658709282
$GPGGA,220740.00,3450.7091,N,12141.3692,W,1,10,0.8,7.6,M,-33.3,M,,*5F
$PYRTM,2024,125.922023215544,17.031670625683
$GPGGA,220741.00,3450.7086,N,12141.3667,W,1,10,0.8,7.1,M,-33.3,M,,*55
$PYRTM,2024,125.922034332245,17.031681742384
$GPGGA,220742.00,3450.7080,N,12141.3641,W,1,10,0.8,6.4,M,-33.3,M,,*50
$PYRTM,2024,125.922045892789,17.031693302928
$GPGGA,220743.00,3450.7072,N,12141.3616,W,1,10,0.8,7.3,M,-33.3,M,,*58
$PYRTM,2024,125.922057595359,17.031705005498
$GPGGA,220744.00,3450.7062,N,12141.3591,W,1,10,0.8,8.6,M,-33.3,M,,*58
$PYRTM,2024,125.922069157384,17.031716567535
$GPGGA,220745.00,3450.7052,N,12141.3565,W,1,10,0.8,8.0,M,-33.3,M,,*57
$PYRTM,2024,125.922080632083,17.031728042222
$GPGGA,220746.00,3450.7044,N,12141.3540,W,1,10,0.8,8.7,M,-33.3,M,,*53
$PYRTM,2024,125.922092189711,17.031739599861
$GPGGA,220747.00,3450.7038,N,12141.3515,W,1,10,0.8,8.1,M,-33.3,M,,*5F
$PYRTM,2024,125.922103895185,17.031751305324
$GPGGA,220748.00,3450.7030,N,12141.3491,W,1,10,0.8,8.9,M,-33.3,M,,*5D
$PYRTM,2024,125.922115454086,17.031762864225
$GPGGA,220749.00,3450.7022,N,12141.3469,W,1,10,0.8,10.1,M,-33.3,M,,*69
$PYRTM,2024,125.922127041123,17.031774451262
$GPGGA,220750.00,3450.7015,N,12141.3446,W,1,10,0.8,10.7,M,-33.3,M,,*6E
$PYRTM,2024,125.922138486725,17.031785896863
$GPGGA,220751.00,3450.7009,N,12141.3423,W,1,10,0.8,7.1,M,-33.3,M,,*51
$PYRTM,2024,125.922150073113,17.031797483252
$GPGGA,220752.00,3450.7001,N,12141.3399,W,1,10,0.8,5.1,M,-33.3,M,,*5E
$PYRTM,2024,125.922161749942,17.031809160081
$GPGGA,220753.00,3450.6991,N,12141.3378,W,1,10,0.8,4.6,M,-33.3,M,,*57
$PYRTM,2024,125.922173337141,17.031820747280
$GPGGA,220754.00,3450.6980,N,12141.3355,W,1,10,0.8,5.9,M,-33.3,M,,*51
$PYRTM,2024,125.922184897998,17.031832308148
$GPGGA,220755.00,3450.6971,N,12141.3330,W,1,10,0.8,7.8,M,-33.3,M,,*5E
$PYRTM,2024,125.922196485845,17.031843895984
$GPGGA,220756.00,3450.6963,N,12141.3305,W,1,10,0.8,10.5,M,-33.3,M,,*63
$PYRTM,2024,125.922208047500,17.031855457639
$GPGGA,220757.00,3450.6955,N,12141.3282,W,1,10,0.8,11.8,M,-33.3,M,,*65
$PYRTM,2024,125.922219629641,17.031867039780
$GPGGA,220758.00,3450.6945,N,12141.3260,W,1,10,0.8,10.5,M,-33.3,M,,*6B
$PYRTM,2024,125.922231195903,17.031878606042
$GPGGA,220759.00,3450.6935,N,12141.3237,W,1,10,0.8,10.9,M,-33.3,M,,*63
$PYRTM,2024,125.922242785289,17.031890195428
$GPGGA,220800.00,3450.6926,N,12141.3213,W,1,10,0.8,10.6,M,-33.3,M,,*6B
$PYRTM,2024,125.922254342326,17.031901752465
$GPGGA,220801.00,3450.6918,N,12141.3190,W,1,10,0.8,7.8,M,-33.3,M,,*57
$PYRTM,2024,125.922265929641,17.031913339780
$GPGGA,220802.00,3450.6909,N,12141.3169,W,1,10,0.8,8.0,M,-33.3,M,,*55
$PYRTM,2024,125.922277491597,17.031924901736
$GPGGA,220803.00,3450.6902,N,12141.3146,W,1,10,0.8,9.5,M,-33.3,M,,*56
$PYRTM,2024,125.922289079676,17.031936489815
$GPGGA,220804.00,3450.6895,N,12141.3121,W,1,10,0.8,10.2,M,-33.3,M,,*60
$PYRTM,2024,125.922300639780,17.031948049931
$GPGGA,220805.00,3450.6887,N,12141.3098,W,1,10,0.8,12.3,M,-33.3,M,,*62
$PYRTM,2024,125.922313255845,17.031960665984
$GPGGA,220806.00,3450.6877,N,12141.3075,W,1,10,0.8,11.2,M,-33.3,M,,*6F
$PYRTM,2024,125.922325999502,17.031973409641
$GPGGA,220807.00,3450.6867,N,12141.3051,W,1,10,0.8,11.1,M,-33.3,M,,*6A
$PYRTM,2024,125.922335370625,17.031982780764
$GPGGA,220808.00,3450.6858,N,12141.3027,W,1,10,0.8,9.9,M,-33.3,M,,*59
$PYRTM,2024,125.922346936447,17.031994346586
$GPGGA,220809.00,3450.6851,N,12141.3004,W,1,10,0.8,11.1,M,-33.3,M,,*61
$PYRTM,2024,125.922358523426,17.032005933565
$GPGGA,220810.00,3450.6845,N,12141.2981,W,1,10,0.8,11.2,M,-33.3,M,,*6A
$PYRTM,2024,125.922370444248,17.032017854387
$GPGGA,220811.00,3450.6836,N,12141.2959,W,1,10,0.8,10.9,M,-33.3,M,,*60
$PYRTM,2024,125.922382120926,17.032029531065
$GPGGA,220812.00,3450.6827,N,12141.2936,W,1,10,0.8,10.9,M,-33.3,M,,*6A
$PYRTM,2024,125.922393588310,17.032040998461
$GPGGA,220813.00,3450.6820,N,12141.2912,W,1,10,0.8,7.2,M,-33.3,M,,*57
$PYRTM,2024,125.922404821863,17.032052232002
$GPGGA,220814.00,3450.6813,N,12141.2889,W,1,10,0.8,6.2,M,-33.3,M,,*52
$PYRTM,2024,125.922416381076,17.032063791227
$GPGGA,220815.00,3450.6804,N,12141.2867,W,1,10,0.8,7.3,M,-33.3,M,,*55
$PYRTM,2024,125.922428303160,17.032075713310
$GPGGA,220816.00,3450.6795,N,12141.2844,W,1,10,0.8,9.5,M,-33.3,M,,*58
$PYRTM,2024,125.922439529028,17.032086939167
$GPGGA,220817.00,3450.6788,N,12141.2822,W,1,10,0.8,9.8,M,-33.3,M,,*58
$PYRTM,2024,125.922451119711,17.032098529850
$GPGGA,220818.00,3450.6780,N,12141.2799,W,1,10,0.8,10.1,M,-33.3,M,,*61
$PYRTM,2024,125.922462677720,17.032110087859
$GPGGA,220819.00,3450.6772,N,12141.2778,W,1,10,0.8,7.1,M,-33.3,M,,*54
$PYRTM,2024,125.922474264734,17.032121674873
$GPGGA,220820.00,3450.6764,N,12141.2756,W,1,10,0.8,9.5,M,-33.3,M,,*5F
$PYRTM,2024,125.922485825961,17.032133236100
$GPGGA,220821.00,3450.6759,N,12141.2733,W,1,10,0.8,10.2,M,-33.3,M,,*6C
$PYRTM,2024,125.922497414306,17.032144824444
$GPGGA,220822.00,3450.6754,N,12141.2709,W,1,10,0.8,10.1,M,-33.3,M,,*68
$PYRTM,2024,125.922508859387,17.032156269525
$GPGGA,220823.00,3450.6747,N,12141.2684,W,1,10,0.8,8.9,M,-33.3,M,,*5E
$PYRTM,2024,125.922520556377,17.032167966516
$GPGGA,220824.00,3450.6736,N,12141.2659,W,1,10,0.8,7.6,M,-33.3,M,,*5F
$PYRTM,2024,125.922532121354,17.032179531493
$GPGGA,220825.00,3450.6725,N,12141.2637,W,1,10,0.8,7.6,M,-33.3,M,,*54
$PYRTM,2024,125.922543709745,17.032191119884
$GPGGA,220826.00,3450.6715,N,12141.2615,W,1,10,0.8,6.9,M,-33.3,M,,*5A
$PYRTM,2024,125.922555272187,17.032202682338
$GPGGA,220827.00,3450.6708,N,12141.2591,W,1,10,0.8,5.0,M,-33.3,M,,*52
$PYRTM,2024,125.922566746238,17.032214156377
$GPGGA,220828.00,3450.6702,N,12141.2569,W,1,10,0.8,5.1,M,-33.3,M,,*51
$PYRTM,2024,125.922578418877,17.032225829016
$GPGGA,220829.00,3450.6696,N,12141.2548,W,1,10,0.8,8.3,M,-33.3,M,,*50
$PYRTM,2024,125.922590010567,17.032237420706
$GPGGA,220830.00,3450.6687,N,12141.2528,W,1,10,0.8,8.7,M,-33.3,M,,*5A
$PYRTM,2024,125.922601452141,17.032248862292
$GPGGA,220831.00,3450.6680,N,12141.2508,W,1,10,0.8,8.0,M,-33.3,M,,*59
$PYRTM,2024,125.922613038310,17.032260448461
$GPGGA,220832.00,3450.6674,N,12141.2486,W,1,10,0.8,6.9,M,-33.3,M,,*51
$PYRTM,2024,125.922624718542,17.032272128692
$GPGGA,220833.00,3450.6666,N,12141.2464,W,1,10,0.8,6.1,M,-33.3,M,,*57
$PYRTM,2024,125.922636302616,17.032283712755
$GPGGA,220834.00,3450.6657,N,12141.2441,W,1,10,0.8,6.7,M,-33.3,M,,*53
$PYRTM,2024,125.922647865475,17.032295275613
$GPGGA,220835.00,3450.6649,N,12141.2417,W,1,10,0.8,7.5,M,-33.3,M,,*5D
$PYRTM,2024,125.922660480035,17.032307890174
$GPGGA,220836.00,3450.6641,N,12141.2392,W,1,10,0.8,9.7,M,-33.3,M,,*50
$PYRTM,2024,125.922673111563,17.032320521701
$GPGGA,220837.00,3450.6633,N,12141.2368,W,1,10,0.8,6.2,M,-33.3,M,,*5B
