$PYRTM,2024,123.083344341076,14.192991751215
$GPGGA,015959.00,3404.0551,N,11931.4555,W,1,08,1.0,2.1,M,-33.5,M,,*55
$PYRTM,2024,123.083353715104,14.193001125243
$GPGGA,020000.00,3404.0561,N,11931.4582,W,1,08,1.0,2.5,M,-33.5,M,,*5B
$PYRTM,2024,123.083365303137,14.193012713275
$GPGGA,020001.00,3404.0570,N,11931.4610,W,1,08,1.0,2.3,M,-33.5,M,,*54
$PYRTM,2024,123.083376865231,14.193024275370
$GPGGA,020002.00,3404.0581,N,11931.4638,W,1,08,1.0,0.2,M,-33.5,M,,*50
$PYRTM,2024,123.083388455301,14.193035865451
$GPGGA,020003.00,3404.0591,N,11931.4664,W,1,08,1.0,2.0,M,-33.5,M,,*59
$PYRTM,2024,123.083400015741,14.193047425880
$GPGGA,020004.00,3404.0601,N,11931.4690,W,1,08,1.0,1.3,M,-33.5,M,,*5F
$PYRTM,2024,123.083410689919,14.193058100058
$GPGGA,020005.00,3404.0612,N,11931.4718,W,1,08,1.0,2.1,M,-33.5,M,,*5C
$PYRTM,2024,123.083421785729,14.193069195868
$GPGGA,020006.00,3404.0622,N,11931.4747,W,1,08,1.0,-0.1,M,-33.5,M,,*79
$PYRTM,2024,123.083433709734,14.193081119884
$GPGGA,020007.00,3404.0631,N,11931.4775,W,1,08,1.0,-0.2,M,-33.5,M,,*78
$PYRTM,2024,123.083444457755,14.193091867905
$GPGGA,020008.00,3404.0641,N,11931.4801,W,1,08,1.0,-1.9,M,-33.5,M,,*76
$PYRTM,2024,123.083455567778,14.193102977928
$GPGGA,020009.00,3404.0651,N,11931.4827,W,1,08,1.0,1.3,M,-33.5,M,,*55
$PYRTM,2024,123.083466794074,14.193114204213
$GPGGA,020010.00,3404.0662,N,11931.4852,W,1,07,1.0,-0.3,M,-33.5,M,,*7C
$PYRTM,2024,123.083477908657,14.193125318796
$GPGGA,020011.00,3404.0671,N,11931.4879,W,1,08,1.0,-0.3,M,-33.5,M,,*79
$PYRTM,2024,123.083489018021,14.193136428160
$GPGGA,020012.00,3404.0680,N,11931.4909,W,1,08,1.0,-1.8,M,-33.5,M,,*78
$PYRTM,2024,123.083500127917,14.193147538056
$GPGGA,020013.00,3404.0688,N,11931.4939,W,1,08,1.0,-2.3,M,-33.5,M,,*7A
$PYRTM,2024,123.083511373056,14.193158783183
$GPGGA,020014.00,3404.0696,N,11931.4964,W,1,08,1.0,-2.0,M,-33.5,M,,*79
$PYRTM,2024,123.083522481227,14.193169891377
$GPGGA,020015.00,3404.0705,N,11931.4988,W,1,08,1.0,-0.9,M,-33.5,M,,*7A
$PYRTM,2024,123.083533592535,14.193181002674
$GPGGA,020016.00,3404.0713,N,11931.5015,W,1,08,1.0,-0.5,M,-33.5,M,,*7E
$PYRTM,2024,123.083545166215,14.193192576354
$GPGGA,020017.00,3404.0722,N,11931.5047,W,1,08,1.0,0.6,M,-33.5,M,,*54
$PYRTM,2024,123.083556741863,14.193204152002
$GPGGA,020018.00,3404.0732,N,11931.5076,W,1,08,1.0,-0.1,M,-33.5,M,,*72
$PYRTM,2024,123.083568314687,14.193215724826
$GPGGA,020019.00,3404.0740,N,11931.5101,W,1,08,1.0,0.4,M,-33.5,M,,*5F
$PYRTM,2024,123.083579889433,14.193227299572
$GPGGA,020020.00,3404.0751,N,11931.5127,W,1,08,1.0,1.3,M,-33.5,M,,*57
$PYRTM,2024,123.083591462581,14.193238872720
$GPGGA,020021.00,3404.0762,N,11931.5155,W,1,08,1.0,-0.6,M,-33.5,M,,*7A
$PYRTM,2024,123.083603039352,14.193250449491
$GPGGA,020022.00,3404.0772,N,11931.5184,W,1,08,1.0,-0.8,M,-33.5,M,,*7A
$PYRTM,2024,123.083614606852,14.193262016991
$GPGGA,020023.00,3404.0779,N,11931.5211,W,1,08,1.0,0.1,M,-33.5,M,,*5B
$PYRTM,2024,123.083626188762,14.193273598900
$GPGGA,020024.00,3404.0788,N,11931.5238,W,1,08,1.0,3.0,M,-33.5,M,,*5B
$PYRTM,2024,123.083637759780,14.193285169919
$GPGGA,020025.00,3404.0798,N,11931.5266,W,1,08,1.0,0.1,M,-33.5,M,,*52
$PYRTM,2024,123.083649347847,14.193296757986
$GPGGA,020026.00,3404.0807,N,11931.5293,W,1,08,1.0,-1.3,M,-33.5,M,,*7C
$PYRTM,2024,123.083660908796,14.193308318935
$GPGGA,020027.00,3404.0816,N,11931.5320,W,1,08,1.0,1.6,M,-33.5,M,,*5C
$PYRTM,2024,123.083672496759,14.193319906910
$GPGGA,020028.00,3404.0825,N,11931.5349,W,1,08,1.0,-0.3,M,-33.5,M,,*75
$PYRTM,2024,123.083689381887,14.193336792037
$GPGGA,020029.00,3404.0834,N,11931.5379,W,1,08,1.0,-1.0,M,-33.5,M,,*75
$PYRTM,2024,123.083700942986,14.193348353125
$GPGGA,020030.00,3404.0842,N,11931.5405,W,1,08,1.0,1.2,M,-33.5,M,,*5F
$PYRTM,2024,123.083712529780,14.193359939919
$GPGGA,020031.00,3404.0851,N,11931.5430,W,1,08,1.0,1.4,M,-33.5,M,,*5C
$PYRTM,2024,123.083724090625,14.193371500764
$GPGGA,020032.00,3404.0861,N,11931.5459,W,1,08,1.0,-0.1,M,-33.5,M,,*7A
$PYRTM,2024,123.083735673287,14.193383083426
$GPGGA,020033.00,3404.0870,N,11931.5488,W,1,08,1.0,0.9,M,-33.5,M,,*52
$PYRTM,2024,123.083747238750,14.193394648900
$GPGGA,020034.00,3404.0877,N,11931.5513,W,1,08,1.0,2.3,M,-33.5,M,,*59
$PYRTM,2024,123.083758829190,14.193406239329
$GPGGA,020035.00,3404.0886,N,11931.5541,W,1,08,1.0,1.3,M,-33.5,M,,*52
$PYRTM,2024,123.083770390868,14.193417801007
$GPGGA,020036.00,3404.0897,N,11931.5570,W,1,08,1.0,1.0,M,-33.5,M,,*50
$PYRTM,2024,123.083781978090,14.193429388241
$GPGGA,020037.00,3404.0906,N,11931.5598,W,1,08,1.0,0.9,M,-33.5,M,,*56
$PYRTM,2024,123.083793535336,14.193440945475
$GPGGA,020038.00,3404.0914,N,11931.5624,W,1,07,1.3,1.1,M,-33.5,M,,*5B
$PYRTM,2024,123.083805127593,14.193452537731
$GPGGA,020039.00,3404.0922,N,11931.5650,W,1,07,1.3,-0.1,M,-33.5,M,,*70
$PYRTM,2024,123.083816689514,14.193464099653
$GPGGA,020040.00,3404.0931,N,11931.5679,W,1,07,1.3,-1.7,M,-33.5,M,,*70
$PYRTM,2024,123.083828277303,14.193475687442
$GPGGA,020041.00,3404.0941,N,11931.5707,W,1,07,1.3,-2.0,M,-33.5,M,,*7A
$PYRTM,2024,123.083839835185,14.193487245324
$GPGGA,020042.00,3404.0948,N,11931.5733,W,1,07,1.3,-1.9,M,-33.5,M,,*7D
$PYRTM,2024,123.083851420671,14.193498830822
$GPGGA,020043.00,3404.0956,N,11931.5759,W,1,07,1.3,-0.7,M,-33.5,M,,*70
$PYRTM,2024,123.083862980579,14.193510390718
$GPGGA,020044.00,3404.0966,N,11931.5785,W,1,07,1.3,-1.1,M,-33.5,M,,*72
$PYRTM,2024,123.083874567731,14.193521977870
$GPGGA,020045.00,3404.0976,N,11931.5812,W,1,07,1.3,-0.5,M,-33.5,M,,*76
$PYRTM,2024,123.083886130660,14.193533540799
$GPGGA,020046.00,3404.0985,N,11931.5838,W,1,07,1.3,2.1,M,-33.5,M,,*5A
$PYRTM,2024,123.083898168380,14.193545578530
$GPGGA,020047.00,3404.0994,N,11931.5865,W,1,07,1.3,1.7,M,-33.5,M,,*56
$PYRTM,2024,123.083909277222,14.193556687361
$GPGGA,020048.00,3404.1003,N,11931.5894,W,1,07,1.3,3.5,M,-33.5,M,,*51
$PYRTM,2024,123.083920863484,14.193568273623
$GPGGA,020049.00,3404.1012,N,11931.5921,W,1,07,1.3,2.1,M,-33.5,M,,*5A
$PYRTM,2024,123.083932425162,14.193579835301
$GPGGA,020050.00,3404.1020,N,11931.5947,W,1,07,1.3,4.2,M,-33.5,M,,*56
$PYRTM,2024,123.083944016690,14.193591426829
$GPGGA,020051.00,3404.1029,N,11931.5974,W,1,07,1.3,3.0,M,-33.5,M,,*5B
$PYRTM,2024,123.083955574711,14.193602984850
$GPGGA,020052.00,3404.1039,N,11931.6001,W,1,07,1.3,3.2,M,-33.5,M,,*53
$PYRTM,2024,123.083967177801,14.193614587951
$GPGGA,020053.00,3404.1048,N,11931.6029,W,1,07,1.3,2.0,M,-33.5,M,,*5D
$PYRTM,2024,123.083978723785,14.193626133924
$GPGGA,020054.00,3404.1057,N,11931.6055,W,1,07,1.3,3.5,M,-33.5,M,,*5B
$PYRTM,2024,123.083990313484,14.193637723623
$GPGGA,020055.00,3404.1066,N,11931.6082,W,1,07,1.3,1.9,M,-33.5,M,,*5C
$PYRTM,2024,123.084001872546,14.193649282685
$GPGGA,020056.00,3404.1076,N,11931.6109,W,1,07,1.3,2.3,M,-33.5,M,,*55
$PYRTM,2024,123.084013453611,14.193660863750
$GPGGA,020057.00,3404.1085,N,11931.6135,W,1,07,1.3,0.5,M,-33.5,M,,*53
$PYRTM,2024,123.084025019572,14.193672429711
$GPGGA,020058.00,3404.1094,N,11931.6163,W,1,07,1.3,2.4,M,-33.5,M,,*5C
$PYRTM,2024,123.084035203947,14.193682614086
$GPGGA,020059.00,3404.1103,N,11931.6191,W,1,07,1.3,1.9,M,-33.5,M,,*51
$PYRTM,2024,123.084047023287,14.193694433426
$GPGGA,020100.00,3404.1111,N,11931.6218,W,1,07,1.3,2.4,M,-33.5,M,,*53
$PYRTM,2024,123.084059756644,14.193707166782
$GPGGA,020101.00,3404.1121,N,11931.6246,W,1,07,1.3,1.0,M,-33.5,M,,*5D
$PYRTM,2024,123.084071317477,14.193718727616
$GPGGA,020102.00,3404.1130,N,11931.6273,W,1,07,1.3,0.5,M,-33.5,M,,*5C
$PYRTM,2024,123.084082898692,14.193730308843
$GPGGA,020103.00,3404.1140,N,11931.6301,W,1,07,1.3,-0.8,M,-33.5,M,,*7E
$PYRTM,2024,123.084094467477,14.193741877616
$GPGGA,020104.00,3404.1151,N,11931.6329,W,1,07,1.3,1.7,M,-33.5,M,,*50
$PYRTM,2024,123.084106051910,14.193753462049
$GPGGA,020105.00,3404.1160,N,11931.6357,W,1,07,1.3,1.5,M,-33.5,M,,*58
$PYRTM,2024,123.084117615579,14.193765025729
$GPGGA,020106.00,3404.1170,N,11931.6384,W,1,07,1.3,4.0,M,-33.5,M,,*54
$PYRTM,2024,123.084129195683,14.193776605822
$GPGGA,020107.00,3404.1179,N,11931.6410,W,1,07,1.3,1.4,M,-33.5,M,,*57
$PYRTM,2024,123.084140762153,14.193788172292
$GPGGA,020108.00,3404.1189,N,11931.6439,W,1,07,1.3,0.1,M,-33.5,M,,*58
$PYRTM,2024,123.084152363472,14.193799773611
$GPGGA,020109.00,3404.1199,N,11931.6468,W,1,07,1.3,2.5,M,-33.5,M,,*5A
$PYRTM,2024,123.084163910521,14.193811320671
$GPGGA,020110.00,3404.1209,N,11931.6497,W,1,07,1.3,3.9,M,-33.5,M,,*55
$PYRTM,2024,123.084175500961,14.193822911100
$GPGGA,020111.00,3404.1219,N,11931.6525,W,1,07,1.3,4.1,M,-33.5,M,,*52
$PYRTM,2024,123.084187059502,14.193834469653
$GPGGA,020112.00,3404.1229,N,11931.6551,W,1,07,1.3,7.7,M,-33.5,M,,*54
$PYRTM,2024,123.084198641215,14.193846051354
$GPGGA,020113.00,3404.1240,N,11931.6580,W,1,07,1.3,7.6,M,-33.5,M,,*57
$PYRTM,2024,123.084210206586,14.193857616725
$GPGGA,020114.00,3404.1250,N,11931.6610,W,1,07,1.3,7.3,M,-33.5,M,,*5E
$PYRTM,2024,123.084221797697,14.193869207836
$GPGGA,020115.00,3404.1258,N,11931.6637,W,1,07,1.3,9.5,M,-33.5,M,,*5A
$PYRTM,2024,123.084233356250,14.193880766389
$GPGGA,020116.00,3404.1265,N,11931.6665,W,1,07,1.3,12.3,M,-33.5,M,,*6C
$PYRTM,2024,123.084244937604,14.193892347743
$GPGGA,020117.00,3404.1273,N,11931.6694,W,1,07,1.3,10.2,M,-33.5,M,,*67
$PYRTM,2024,123.084256983102,14.193904393241
$GPGGA,020118.00,3404.1283,N,11931.6722,W,1,07,1.3,7.9,M,-33.5,M,,*56
$PYRTM,2024,123.084266008750,14.193913418889
$GPGGA,020119.00,3404.1292,N,11931.6749,W,1,07,1.3,5.5,M,-33.5,M,,*54
$PYRTM,2024,123.084279653970,14.193927064109
$GPGGA,020120.00,3404.1301,N,11931.6777,W,1,07,1.3,6.1,M,-33.5,M,,*5F
$PYRTM,2024,123.084291239491,14.193938649630
$GPGGA,020121.00,3404.1309,N,11931.6806,W,1,07,1.3,2.4,M,-33.5,M,,*5E
$PYRTM,2024,123.084302800799,14.193950210937
$GPGGA,020122.00,3404.1316,N,11931.6834,W,1,07,1.3,3.5,M,-33.5,M,,*52
$PYRTM,2024,123.084314383194,14.193961793333
$GPGGA,020123.00,3404.1324,N,11931.6861,W,1,07,1.3,3.3,M,-33.5,M,,*54
$PYRTM,2024,123.084325950394,14.193973360532
$GPGGA,020124.00,3404.1334,N,11931.6890,W,1,07,1.3,2.4,M,-33.5,M,,*5A
$PYRTM,2024,123.084337550694,14.193984960845
$GPGGA,020125.00,3404.1341,N,11931.6920,W,1,07,1.3,1.2,M,-33.5,M,,*56
$PYRTM,2024,123.084349099444,14.193996509595
$GPGGA,020126.00,3404.1348,N,11931.6947,W,1,07,1.3,2.1,M,-33.5,M,,*5D
$PYRTM,2024,123.084360698750,14.194008108889
$GPGGA,020127.00,3404.1357,N,11931.6973,W,1,07,1.3,3.8,M,-33.5,M,,*5D
$PYRTM,2024,123.084372246262,14.194019656400
$GPGGA,020128.00,3404.1366,N,11931.7002,W,1,07,1.3,2.5,M,-33.5,M,,*52
$PYRTM,2024,123.084382439433,14.194029849572
$GPGGA,020129.00,3404.1376,N,11931.7033,W,1,07,1.3,2.8,M,-33.5,M,,*5D
$PYRTM,2024,123.084394250509,14.194041660648
$GPGGA,020130.00,3404.1384,N,11931.7061,W,1,07,1.3,1.2,M,-33.5,M,,*56
$PYRTM,2024,123.084406982153,14.194054392292
$GPGGA,020131.00,3404.1391,N,11931.7090,W,1,07,1.3,1.3,M,-33.5,M,,*5C
$PYRTM,2024,123.084418543785,14.194065953935
$GPGGA,020132.00,3404.1400,N,11931.7120,W,1,07,1.3,2.7,M,-33.5,M,,*5D
$PYRTM,2024,123.084430129606,14.194077539745
$GPGGA,020133.00,3404.1410,N,11931.7149,W,1,07,1.3,-0.5,M,-33.5,M,,*7F
$PYRTM,2024,123.084441691782,14.194089101921
$GPGGA,020134.00,3404.1419,N,11931.7177,W,1,07,1.3,0.8,M,-33.5,M,,*5C
$PYRTM,2024,123.084453279074,14.194100689213
$GPGGA,020135.00,3404.1429,N,11931.7204,W,1,07,1.3,1.2,M,-33.5,M,,*52
$PYRTM,2024,123.084464841100,14.194112251238
$GPGGA,020136.00,3404.1439,N,11931.7231,W,1,07,1.3,3.7,M,-33.5,M,,*51
$PYRTM,2024,123.084476429769,14.194123839907
$GPGGA,020137.00,3404.1449,N,11931.7258,W,1,07,1.3,-0.1,M,-33.5,M,,*70
$PYRTM,2024,123.084487988519,14.194135398657
$GPGGA,020138.00,3404.1460,N,11931.7284,W,1,07,1.3,-1.7,M,-33.5,M,,*72
$PYRTM,2024,123.084499570810,14.194146980949
$GPGGA,020139.00,3404.1470,N,11931.7311,W,1,07,1.3,-1.0,M,-33.5,M,,*78
$PYRTM,2024,123.084511137257,14.194158547396
$GPGGA,020140.00,3404.1478,N,11931.7338,W,1,07,1.3,0.3,M,-33.5,M,,*5A
$PYRTM,2024,123.084522727650,14.194170137789
$GPGGA,020141.00,3404.1487,N,11931.7365,W,1,07,1.3,2.9,M,-33.5,M,,*5B
$PYRTM,2024,123.084534285440,14.194181695590
$GPGGA,020142.00,3404.1497,N,11931.7394,W,1,07,1.3,1.8,M,-33.5,M,,*55
$PYRTM,2024,123.084545885914,14.194193296053
$GPGGA,020143.00,3404.1507,N,11931.7423,W,1,07,1.3,2.0,M,-33.5,M,,*5C
$PYRTM,2024,123.084557434178,14.194204844317
$GPGGA,020144.00,3404.1516,N,11931.7450,W,1,07,1.3,1.8,M,-33.5,M,,*54
$PYRTM,2024,123.084569016424,14.194216426562
$GPGGA,020145.00,3404.1524,N,11931.7478,W,1,07,1.3,2.4,M,-33.5,M,,*51
$PYRTM,2024,123.084580582847,14.194227992986
$GPGGA,020146.00,3404.1533,N,11931.7507,W,1,07,1.3,3.1,M,-33.5,M,,*59
$PYRTM,2024,123.084592164306,14.194239574456
$GPGGA,020147.00,3404.1543,N,11931.7535,W,1,07,1.3,-0.1,M,-33.5,M,,*70
$PYRTM,2024,123.084603729676,14.194251139815
$GPGGA,020148.00,3404.1552,N,11931.7561,W,1,07,1.3,0.8,M,-33.5,M,,*5A
$PYRTM,2024,123.084615768299,14.194263178438
$GPGGA,020149.00,3404.1561,N,11931.7589,W,1,07,1.3,1.5,M,-33.5,M,,*51
$PYRTM,2024,123.084626879063,14.194274289201
$GPGGA,020150.00,3404.1571,N,11931.7616,W,1,07,1.3,2.5,M,-33.5,M,,*5E
$PYRTM,2024,123.084638461019,14.194285871157
$GPGGA,020151.00,3404.1581,N,11931.7645,W,1,07,1.3,-0.3,M,-33.5,M,,*7F
$PYRTM,2024,123.084650027650,14.194297437801
$GPGGA,020152.00,3404.1591,N,11931.7672,W,1,07,1.3,0.5,M,-33.5,M,,*52
$PYRTM,2024,123.084661613912,14.194309024051
$GPGGA,020153.00,3404.1600,N,11931.7700,W,1,07,1.3,1.7,M,-33.5,M,,*5F
$PYRTM,2024,123.084673174769,14.194320584907
$GPGGA,020154.00,3404.1610,N,11931.7729,W,1,07,1.3,0.5,M,-33.5,M,,*51
$PYRTM,2024,123.084684761991,14.194332172130
$GPGGA,020155.00,3404.1619,N,11931.7758,W,1,07,1.3,-0.2,M,-33.5,M,,*75
$PYRTM,2024,123.084696324711,14.194343734850
$GPGGA,020156.00,3404.1628,N,11931.7785,W,1,07,1.3,1.0,M,-33.5,M,,*5A
$PYRTM,2024,123.084707914468,14.194355324606
$GPGGA,020157.00,3404.1638,N,11931.7812,W,1,07,1.3,2.9,M,-33.5,M,,*51
$PYRTM,2024,123.084719473507,14.194366883646
$GPGGA,020158.00,3404.1648,N,11931.7841,W,1,07,1.3,4.5,M,-33.5,M,,*55
$PYRTM,2024,123.084729657350,14.194377067488
$GPGGA,020159.00,3404.1657,N,11931.7870,W,1,07,1.3,2.8,M,-33.5,M,,*53
$PYRTM,2024,123.084741471111,14.194388881250
$GPGGA,020200.00,3404.1666,N,11931.7899,W,1,07,1.3,3.5,M,-33.5,M,,*55
$PYRTM,2024,123.084754207199,14.194401617338
$GPGGA,020201.00,3404.1674,N,11931.7924,W,1,07,1.3,2.3,M,-33.5,M,,*57
$PYRTM,2024,123.084765768981,14.194413179120
$GPGGA,020202.00,3404.1683,N,11931.7951,W,1,07,1.3,2.5,M,-33.5,M,,*58
$PYRTM,2024,123.084777356516,14.194424766655
$GPGGA,020203.00,3404.1693,N,11931.7979,W,1,07,1.3,2.1,M,-33.5,M,,*56
$PYRTM,2024,123.084788916956,14.194436327095
$GPGGA,020204.00,3404.1702,N,11931.8007,W,1,07,1.3,5.0,M,-33.5,M,,*51
$PYRTM,2024,123.084800499583,14.194447909722
$GPGGA,020205.00,3404.1710,N,11931.8035,W,1,07,1.3,1.3,M,-33.5,M,,*55
$PYRTM,2024,123.084812067060,14.194459477199
$GPGGA,020206.00,3404.1720,N,11931.8064,W,1,07,1.3,1.8,M,-33.5,M,,*5A
$PYRTM,2024,123.084823649606,14.194471059745
$GPGGA,020207.00,3404.1730,N,11931.8092,W,1,07,1.3,3.5,M,-33.5,M,,*5C
$PYRTM,2024,123.084835214306,14.194482624444
$GPGGA,020208.00,3404.1739,N,11931.8118,W,1,07,1.3,5.3,M,-33.5,M,,*59
$PYRTM,2024,123.084846798495,14.194494208634
$GPGGA,020209.00,3404.1748,N,11931.8143,W,1,06,1.3,7.8,M,-33.5,M,,*58
$PYRTM,2024,123.084858363576,14.194505773715
$GPGGA,020210.00,3404.1758,N,11931.8172,W,1,07,1.3,6.5,M,-33.5,M,,*5E
$PYRTM,2024,123.084869024051,14.194516434190
$GPGGA,020211.00,3404.1768,N,11931.8203,W,1,07,1.3,4.0,M,-33.5,M,,*5E
$PYRTM,2024,123.084880946053,14.194528356192
$GPGGA,020212.00,3404.1776,N,11931.8231,W,1,07,1.3,5.9,M,-33.5,M,,*5B
$PYRTM,2024,123.084891695984,14.194539106123
$GPGGA,020213.00,3404.1785,N,11931.8259,W,1,07,1.3,7.0,M,-33.5,M,,*53
$PYRTM,2024,123.084902807245,14.194550217384
$GPGGA,020214.00,3404.1794,N,11931.8287,W,1,07,1.3,8.2,M,-33.5,M,,*5A
$PYRTM,2024,123.084913918669,14.194561328819
$GPGGA,020215.00,3404.1802,N,11931.8316,W,1,07,1.3,6.4,M,-33.5,M,,*5A
$PYRTM,2024,123.084925030440,14.194572440579
$GPGGA,020216.00,3404.1809,N,11931.8344,W,1,07,1.3,6.3,M,-33.5,M,,*52
$PYRTM,2024,123.084936141435,14.194583551574
$GPGGA,020217.00,3404.1818,N,11931.8371,W,1,07,1.3,8.5,M,-33.5,M,,*5D
$PYRTM,2024,123.084947253183,14.194594663322
$GPGGA,020218.00,3404.1826,N,11931.8399,W,1,07,1.3,7.8,M,-33.5,M,,*5B
$PYRTM,2024,123.084958364549,14.194605774699
$GPGGA,020219.00,3404.1835,N,11931.8428,W,1,07,1.3,6.9,M,-33.5,M,,*55
$PYRTM,2024,123.084969476053,14.194616886192
$GPGGA,020220.00,3404.1844,N,11931.8456,W,1,07,1.3,6.4,M,-33.5,M,,*5D
$PYRTM,2024,123.084981057280,14.194628467419
$GPGGA,020221.00,3404.1852,N,11931.8482,W,1,07,1.3,4.8,M,-33.5,M,,*5C
$PYRTM,2024,123.084999576470,14.194646986609
$GPGGA,020222.00,3404.1862,N,11931.8508,W,1,07,1.3,6.8,M,-33.5,M,,*5D
$PYRTM,2024,123.085010687431,14.194658097569
$GPGGA,020223.00,3404.1872,N,11931.8536,W,1,07,1.3,6.8,M,-33.5,M,,*50
$PYRTM,2024,123.085021803206,14.194669213345
$GPGGA,020224.00,3404.1883,N,11931.8565,W,1,07,1.3,5.6,M,-33.5,M,,*52
$PYRTM,2024,123.085032903461,14.194680313600
$GPGGA,020225.00,3404.1891,N,11931.8595,W,1,07,1.3,5.0,M,-33.5,M,,*59
$PYRTM,2024,123.085044020880,14.194691431019
$GPGGA,020226.00,3404.1898,N,11931.8624,W,1,07,1.3,5.5,M,-33.5,M,,*5F
$PYRTM,2024,123.085055132882,14.194702543056
$GPGGA,020227.00,3404.1907,N,11931.8650,W,1,07,1.3,6.8,M,-33.5,M,,*54
$PYRTM,2024,123.085066248194,14.194713658345
$GPGGA,020228.00,3404.1917,N,11931.8679,W,1,07,1.3,6.5,M,-33.5,M,,*5C
$PYRTM,2024,123.085081869248,14.194729279387
$GPGGA,020229.00,3404.1926,N,11931.8708,W,1,07,1.3,7.3,M,-33.5,M,,*5F
$PYRTM,2024,123.085092984931,14.194740395069
$GPGGA,020230.00,3404.1934,N,11931.8737,W,1,07,1.3,7.5,M,-33.5,M,,*5E
$PYRTM,2024,123.085104226701,14.194751636840
$GPGGA,020231.00,3404.1942,N,11931.8767,W,1,07,1.3,6.9,M,-33.5,M,,*56
$PYRTM,2024,123.085115312616,14.194762722755
$GPGGA,020232.00,3404.1951,N,11931.8797,W,1,07,1.3,7.5,M,-33.5,M,,*55
$PYRTM,2024,123.085126436991,14.194773847141
$GPGGA,020233.00,3404.1959,N,11931.8825,W,1,07,1.3,7.2,M,-33.5,M,,*5D
$PYRTM,2024,123.085137534005,14.194784944144
$GPGGA,020234.00,3404.1968,N,11931.8853,W,1,07,1.3,6.0,M,-33.5,M,,*5A
$PYRTM,2024,123.085148646030,14.194796056169
$GPGGA,020235.00,3404.1977,N,11931.8882,W,1,07,1.3,3.8,M,-33.5,M,,*54
$PYRTM,2024,123.085159769062,14.194807179201
$GPGGA,020236.00,3404.1985,N,11931.8912,W,1,07,1.3,3.2,M,-33.5,M,,*58
$PYRTM,2024,123.085170880197,14.194818290336
$GPGGA,020237.00,3404.1994,N,11931.8940,W,1,07,1.3,-2.4,M,-33.5,M,,*74
$PYRTM,2024,123.085182443889,14.194829854028
$GPGGA,020238.00,3404.2003,N,11931.8967,W,1,07,1.3,-1.5,M,-33.5,M,,*78
$PYRTM,2024,123.085194027593,14.194841437743
$GPGGA,020239.00,3404.2012,N,11931.8994,W,1,07,1.3,-0.4,M,-33.5,M,,*75
$PYRTM,2024,123.085205590475,14.194853000613
$GPGGA,020240.00,3404.2022,N,11931.9023,W,1,07,1.3,0.4,M,-33.5,M,,*51
$PYRTM,2024,123.085217175914,14.194864586053
$GPGGA,020241.00,3404.2032,N,11931.9053,W,1,07,1.3,-0.5,M,-33.5,M,,*7A
$PYRTM,2024,123.085228736921,14.194876147060
$GPGGA,020242.00,3404.2042,N,11931.9082,W,1,07,1.3,-2.0,M,-33.5,M,,*75
$PYRTM,2024,123.085240326910,14.194887737049
$GPGGA,020243.00,3404.2051,N,11931.9109,W,1,07,1.3,-2.4,M,-33.5,M,,*70
$PYRTM,2024,123.085251887778,14.194899297917
$GPGGA,020244.00,3404.2060,N,11931.9134,W,1,07,1.3,1.0,M,-33.5,M,,*51
$PYRTM,2024,123.085263475926,14.194910886065
$GPGGA,020245.00,3404.2069,N,11931.9162,W,1,07,1.3,0.4,M,-33.5,M,,*5F
$PYRTM,2024,123.085275034711,14.194922444850
$GPGGA,020246.00,3404.2079,N,11931.9191,W,1,07,1.3,0.3,M,-33.5,M,,*56
$PYRTM,2024,123.085286630093,14.194934040231
$GPGGA,020247.00,3404.2087,N,11931.9220,W,1,07,1.3,2.1,M,-33.5,M,,*5F
$PYRTM,2024,123.085298185035,14.194945595185
$GPGGA,020248.00,3404.2095,N,11931.9246,W,1,07,1.3,4.0,M,-33.5,M,,*54
$PYRTM,2024,123.085309773218,14.194957183356
$GPGGA,020249.00,3404.2103,N,11931.9274,W,1,07,1.3,0.2,M,-33.5,M,,*5C
$PYRTM,2024,123.085321330660,14.194968740810
$GPGGA,020250.00,3404.2112,N,11931.9302,W,1,06,1.3,-0.3,M,-33.5,M,,*79
$PYRTM,2024,123.085333137338,14.194980547477
$GPGGA,020251.00,3404.2121,N,11931.9330,W,1,07,1.3,2.6,M,-33.5,M,,*52
$PYRTM,2024,123.085344479028,14.194991889167
$GPGGA,020252.00,3404.2129,N,11931.9357,W,1,07,1.3,3.6,M,-33.5,M,,*59
$PYRTM,2024,123.085356062488,14.195003472639
$GPGGA,020253.00,3404.2138,N,11931.9386,W,1,07,1.3,2.9,M,-33.5,M,,*5A
$PYRTM,2024,123.085367628796,14.195015038935
$GPGGA,020254.00,3404.2146,N,11931.9416,W,1,07,1.3,-3.5,M,-33.5,M,,*7A
$PYRTM,2024,123.085378057106,14.195025467245
$GPGGA,020255.00,3404.2153,N,11931.9444,W,1,07,1.3,1.2,M,-33.5,M,,*50
$PYRTM,2024,123.085390777905,14.195038188056
$GPGGA,020256.00,3404.2160,N,11931.9470,W,1,07,1.3,3.9,M,-33.5,M,,*5D
$PYRTM,2024,123.085402358287,14.195049768426
$GPGGA,020257.00,3404.2170,N,11931.9499,W,1,07,1.3,4.5,M,-33.5,M,,*51
$PYRTM,2024,123.085413925139,14.195061335278
$GPGGA,020258.00,3404.2181,N,11931.9529,W,1,07,1.3,4.6,M,-33.5,M,,*59
$PYRTM,2024,123.085424583067,14.195071993206
$GPGGA,020259.00,3404.2190,N,11931.9557,W,1,07,1.3,4.7,M,-33.5,M,,*50
$PYRTM,2024,123.085435924016,14.195083334167
$GPGGA,020300.00,3404.2198,N,11931.9583,W,1,07,1.3,5.7,M,-33.5,M,,*5D
$PYRTM,2024,123.085448665833,14.195096075984
$GPGGA,020301.00,3404.2208,N,11931.9609,W,1,07,1.3,5.8,M,-33.5,M,,*58
$PYRTM,2024,123.085460222072,14.195107632211
$GPGGA,020302.00,3404.2218,N,11931.9637,W,1,07,1.3,4.2,M,-33.5,M,,*5C
$PYRTM,2024,123.085471811481,14.195119221620
$GPGGA,020303.00,3404.2227,N,11931.9665,W,1,07,1.3,5.9,M,-33.5,M,,*5C
$PYRTM,2024,123.085483369468,14.195130779606
$GPGGA,020304.00,3404.2236,N,11931.9693,W,1,07,1.3,5.5,M,-33.5,M,,*5E
$PYRTM,2024,123.085494971481,14.195142381620
$GPGGA,020305.00,3404.2245,N,11931.9720,W,1,07,1.3,5.1,M,-33.5,M,,*56
$PYRTM,2024,123.085506518403,14.195153928542
$GPGGA,020306.00,3404.2254,N,11931.9747,W,1,07,1.3,6.4,M,-33.5,M,,*52
$PYRTM,2024,123.085518100868,14.195165511007
$GPGGA,020307.00,3404.2263,N,11931.9776,W,1,07,1.3,5.6,M,-33.5,M,,*54
$PYRTM,2024,123.085529666285,14.195177076424
$GPGGA,020308.00,3404.2271,N,11931.9804,W,1,07,1.3,3.2,M,-33.5,M,,*50
$PYRTM,2024,123.085541249826,14.195188659965
$GPGGA,020309.00,3404.2279,N,11931.9831,W,1,07,1.3,0.5,M,-33.5,M,,*5B
$PYRTM,2024,123.085552814016,14.195200224155
$GPGGA,020310.00,3404.2287,N,11931.9859,W,1,07,1.3,2.6,M,-33.5,M,,*5D
$PYRTM,2024,123.085564397824,14.195211807963
$GPGGA,020311.00,3404.2296,N,11931.9886,W,1,07,1.3,1.7,M,-33.5,M,,*5C
$PYRTM,2024,123.085575963727,14.195223373866
$GPGGA,020312.00,3404.2306,N,11931.9913,W,1,07,1.3,-2.7,M,-33.5,M,,*74
$PYRTM,2024,123.085587545625,14.195234955764
$GPGGA,020313.00,3404.2315,N,11931.9939,W,1,07,1.3,-1.4,M,-33.5,M,,*7F
$PYRTM,2024,123.085599111748,14.195246521887
$GPGGA,020314.00,3404.2324,N,11931.9965,W,1,07,1.3,-0.8,M,-33.5,M,,*7E
$PYRTM,2024,123.085610700162,14.195258110301
$GPGGA,020315.00,3404.2333,N,11931.9991,W,1,07,1.3,1.7,M,-33.5,M,,*51
$PYRTM,2024,123.085622260590,14.195269670729
$GPGGA,020316.00,3404.2343,N,11932.0020,W,1,07,1.3,-0.3,M,-33.5,M,,*74
$PYRTM,2024,123.085633851019,14.195281261157
$GPGGA,020317.00,3404.2352,N,11932.0049,W,1,07,1.3,0.6,M,-33.5,M,,*52
$PYRTM,2024,123.085645408762,14.195292818900
$GPGGA,020318.00,3404.2359,N,11932.0076,W,1,07,1.3,2.6,M,-33.5,M,,*58
$PYRTM,2024,123.085656999375,14.195304409514
$GPGGA,020319.00,3404.2368,N,11932.0103,W,1,07,1.3,3.7,M,-33.5,M,,*58
$PYRTM,2024,123.085668556597,14.195315966736
$GPGGA,020320.00,3404.2378,N,11932.0134,W,1,07,1.3,2.2,M,-33.5,M,,*53
$PYRTM,2024,123.085680147720,14.195327557859
$GPGGA,020321.00,3404.2385,N,11932.0166,W,1,07,1.3,2.5,M,-33.5,M,,*50
$PYRTM,2024,123.085691706192,14.195339116331
$GPGGA,020322.00,3404.2390,N,11932.0194,W,1,07,1.3,5.0,M,-33.5,M,,*58
$PYRTM,2024,123.085703293125,14.195350703264
$GPGGA,020323.00,3404.2397,N,11932.0222,W,1,07,1.3,5.2,M,-33.5,M,,*52
$PYRTM,2024,123.085714855637,14.195362265775
$GPGGA,020324.00,3404.2406,N,11932.0251,W,1,07,1.3,4.3,M,-33.5,M,,*5E
$PYRTM,2024,123.085726441366,14.195373851505
$GPGGA,020325.00,3404.2415,N,11932.0281,W,1,07,1.3,4.4,M,-33.5,M,,*57
$PYRTM,2024,123.085738003785,14.195385413924
$GPGGA,020326.00,3404.2424,N,11932.0311,W,1,07,1.3,7.7,M,-33.5,M,,*5E
$PYRTM,2024,123.085749593993,14.195397004132
$GPGGA,020327.00,3404.2433,N,11932.0340,W,1,07,1.3,6.1,M,-33.5,M,,*5A
$PYRTM,2024,123.085761152627,14.195408562766
$GPGGA,020328.00,3404.2443,N,11932.0368,W,1,07,1.3,5.4,M,-33.5,M,,*5E
$PYRTM,2024,123.085771338252,14.195418748391
$GPGGA,020329.00,3404.2453,N,11932.0396,W,1,07,1.3,8.2,M,-33.5,M,,*54
$PYRTM,2024,123.085783155394,14.195430565532
$GPGGA,020330.00,3404.2462,N,11932.0425,W,1,07,1.3,7.9,M,-33.5,M,,*55
$PYRTM,2024,123.085795887072,14.195443297211
$GPGGA,020331.00,3404.2470,N,11932.0455,W,1,07,1.3,7.6,M,-33.5,M,,*5F
$PYRTM,2024,123.085807446817,14.195454856956
$GPGGA,020332.00,3404.2479,N,11932.0484,W,1,07,1.3,7.6,M,-33.5,M,,*59
$PYRTM,2024,123.085819037905,14.195466448056
$GPGGA,020333.00,3404.2488,N,11932.0511,W,1,07,1.3,8.0,M,-33.5,M,,*52
$PYRTM,2024,123.085830596690,14.195478006840
$GPGGA,020334.00,3404.2498,N,11932.0538,W,1,07,1.3,5.3,M,-33.5,M,,*51
$PYRTM,2024,123.085842187257,14.195489597396
$GPGGA,020335.00,3404.2508,N,11932.0567,W,1,07,1.3,4.5,M,-33.5,M,,*55
$PYRTM,2024,123.085853745984,14.195501156123
$GPGGA,020336.00,3404.2516,N,11932.0595,W,1,07,1.3,3.4,M,-33.5,M,,*52
$PYRTM,2024,123.085865335150,14.195512745289
$GPGGA,020337.00,3404.2524,N,11932.0621,W,1,07,1.3,3.5,M,-33.5,M,,*5F
$PYRTM,2024,123.085876895150,14.195524305289
$GPGGA,020338.00,3404.2532,N,11932.0647,W,1,07,1.3,5.8,M,-33.5,M,,*5C
$PYRTM,2024,123.085888480938,14.195535891088
$GPGGA,020339.00,3404.2541,N,11932.0675,W,1,07,1.3,5.5,M,-33.5,M,,*55
$PYRTM,2024,123.085900041968,14.195547452106
$GPGGA,020340.00,3404.2549,N,11932.0703,W,1,07,1.3,7.4,M,-33.5,M,,*50
$PYRTM,2024,123.085911623738,14.195559033877
$GPGGA,020341.00,3404.2555,N,11932.0732,W,1,07,1.3,8.6,M,-33.5,M,,*53
$PYRTM,2024,123.085923191296,14.195570601435
$GPGGA,020342.00,3404.2560,N,11932.0761,W,1,07,1.3,9.4,M,-33.5,M,,*53
$PYRTM,2024,123.085934779317,14.195582189468
$GPGGA,020343.00,3404.2567,N,11932.0788,W,1,07,1.3,7.7,M,-33.5,M,,*5F
$PYRTM,2024,123.085946338900,14.195593749039
$GPGGA,020344.00,3404.2575,N,11932.0815,W,1,07,1.3,7.3,M,-33.5,M,,*54
$PYRTM,2024,123.085957925162,14.195605335301
$GPGGA,020345.00,3404.2583,N,11932.0843,W,1,07,1.3,5.4,M,-33.5,M,,*5A
$PYRTM,2024,123.085969487164,14.195616897315
$GPGGA,020346.00,3404.2590,N,11932.0872,W,1,07,1.3,3.0,M,-33.5,M,,*5B
$PYRTM,2024,123.085981074398,14.195628484537
$GPGGA,020347.00,3404.2596,N,11932.0899,W,1,07,1.3,3.3,M,-33.5,M,,*5A
$PYRTM,2024,123.085992635150,14.195640045289
$GPGGA,020348.00,3404.2603,N,11932.0925,W,1,07,1.3,3.3,M,-33.5,M,,*5C
$PYRTM,2024,123.086004225926,14.195651636065
$GPGGA,020349.00,3404.2610,N,11932.0952,W,1,07,1.3,5.9,M,-33.5,M,,*53
$PYRTM,2024,123.086015784826,14.195663194965
$GPGGA,020350.00,3404.2618,N,11932.0979,W,1,07,1.3,7.3,M,-33.5,M,,*52
$PYRTM,2024,123.086027384630,14.195674794769
$GPGGA,020351.00,3404.2626,N,11932.1008,W,1,07,1.3,6.9,M,-33.5,M,,*5B
$PYRTM,2024,123.086038932083,14.195686342222
$GPGGA,020352.00,3404.2634,N,11932.1037,W,1,07,1.3,6.8,M,-33.5,M,,*56
$PYRTM,2024,123.086050531898,14.195697942037
$GPGGA,020353.00,3404.2640,N,11932.1066,W,1,07,1.3,6.2,M,-33.5,M,,*5A
$PYRTM,2024,123.086062080509,14.195709490648
$GPGGA,020354.00,3404.2646,N,11932.1095,W,1,07,1.3,6.7,M,-33.5,M,,*52
$PYRTM,2024,123.086073668449,14.195721078588
$GPGGA,020355.00,3404.2653,N,11932.1121,W,1,07,1.3,6.5,M,-33.5,M,,*5B
$PYRTM,2024,123.086085227882,14.195732638021
$GPGGA,020356.00,3404.2662,N,11932.1147,W,1,07,1.3,6.7,M,-33.5,M,,*58
$PYRTM,2024,123.086096814977,14.195744225116
$GPGGA,020357.00,3404.2669,N,11932.1175,W,1,07,1.3,6.0,M,-33.5,M,,*54
$PYRTM,2024,123.086108375729,14.195755785868
$GPGGA,020358.00,3404.2675,N,11932.1203,W,1,07,1.3,5.7,M,-33.5,M,,*50
$PYRTM,2024,123.086118561644,14.195765971782
$GPGGA,020359.00,3404.2682,N,11932.1231,W,1,07,1.3,4.4,M,-33.5,M,,*5A
$PYRTM,2024,123.086130390972,14.195777801111
$GPGGA,020400.00,3404.2689,N,11932.1259,W,1,07,1.3,3.3,M,-33.5,M,,*54
$PYRTM,2024,123.086143112639,14.195790522778
$GPGGA,020401.00,3404.2696,N,11932.1286,W,1,07,1.3,2.9,M,-33.5,M,,*52
$PYRTM,2024,123.086154673218,14.195802083356
$GPGGA,020402.00,3404.2704,N,11932.1313,W,1,07,1.3,3.4,M,-33.5,M,,*5A
$PYRTM,2024,123.086166260822,14.195813670961
$GPGGA,020403.00,3404.2713,N,11932.1339,W,1,07,1.3,3.4,M,-33.5,M,,*55
$PYRTM,2024,123.086177821667,14.195825231806
$GPGGA,020404.00,3404.2719,N,11932.1368,W,1,07,1.3,3.4,M,-33.5,M,,*5C
$PYRTM,2024,123.086189404722,14.195836814873
$GPGGA,020405.00,3404.2725,N,11932.1397,W,1,07,1.3,3.0,M,-33.5,M,,*56
$PYRTM,2024,123.086200970741,14.195848380880
$GPGGA,020406.00,3404.2731,N,11932.1426,W,1,07,1.3,2.6,M,-33.5,M,,*5A
$PYRTM,2024,123.086212571296,14.195859981435
$GPGGA,020407.00,3404.2737,N,11932.1454,W,1,07,1.3,4.8,M,-33.5,M,,*50
$PYRTM,2024,123.086224119838,14.195871529977
$GPGGA,020408.00,3404.2744,N,11932.1484,W,1,07,1.3,5.8,M,-33.5,M,,*57
$PYRTM,2024,123.086235709259,14.195883119398
$GPGGA,020409.00,3404.2749,N,11932.1513,W,1,07,1.3,4.7,M,-33.5,M,,*5A
$PYRTM,2024,123.086247266493,14.195894676632
$GPGGA,020410.00,3404.2755,N,11932.1541,W,1,07,1.3,2.7,M,-33.5,M,,*5E
$PYRTM,2024,123.086258858171,14.195906268322
$GPGGA,020411.00,3404.2760,N,11932.1571,W,1,07,1.3,1.2,M,-33.5,M,,*5C
$PYRTM,2024,123.086270415255,14.195917825394
$GPGGA,020412.00,3404.2765,N,11932.1601,W,1,07,1.3,0.7,M,-33.5,M,,*5A
$PYRTM,2024,123.086281997905,14.195929408044
$GPGGA,020413.00,3404.2770,N,11932.1632,W,1,07,1.3,1.7,M,-33.5,M,,*5E
$PYRTM,2024,123.086293565405,14.195940975544
$GPGGA,020414.00,3404.2775,N,11932.1662,W,1,07,1.3,3.3,M,-33.5,M,,*5F
$PYRTM,2024,123.086305146562,14.195952556701
$GPGGA,020415.00,3404.2780,N,11932.1691,W,1,07,1.3,5.3,M,-33.5,M,,*5E
$PYRTM,2024,123.086315786829,14.195963196968
$GPGGA,020416.00,3404.2785,N,11932.1719,W,1,07,1.3,4.6,M,-33.5,M,,*5D
$PYRTM,2024,123.086327708206,14.195975118345
$GPGGA,020417.00,3404.2792,N,11932.1748,W,1,07,1.3,2.4,M,-33.5,M,,*5A
$PYRTM,2024,123.086338485104,14.195985895243
$GPGGA,020418.00,3404.2798,N,11932.1779,W,1,07,1.3,1.9,M,-33.5,M,,*53
$PYRTM,2024,123.086349591053,14.195997001192
$GPGGA,020419.00,3404.2804,N,11932.1809,W,1,07,1.3,3.7,M,-33.5,M,,*5C
$PYRTM,2024,123.086360711528,14.196008121667
$GPGGA,020420.00,3404.2809,N,11932.1837,W,1,07,1.3,4.5,M,-33.5,M,,*53
$PYRTM,2024,123.086372153067,14.196019563206
$GPGGA,020421.00,3404.2814,N,11932.1866,W,1,07,1.3,2.0,M,-33.5,M,,*59
$PYRTM,2024,123.086383263449,14.196030673588
$GPGGA,020422.00,3404.2820,N,11932.1896,W,1,07,1.3,3.0,M,-33.5,M,,*53
$PYRTM,2024,123.086394492141,14.196041902280
$GPGGA,020423.00,3404.2825,N,11932.1925,W,1,07,1.3,5.2,M,-33.5,M,,*5A
$PYRTM,2024,123.086405603056,14.196053013194
$GPGGA,020424.00,3404.2829,N,11932.1954,W,1,07,1.3,5.6,M,-33.5,M,,*53
$PYRTM,2024,123.086416715637,14.196064125775
$GPGGA,020425.00,3404.2834,N,11932.1985,W,1,07,1.3,2.6,M,-33.5,M,,*55
$PYRTM,2024,123.086427825880,14.196075236019
$GPGGA,020426.00,3404.2839,N,11932.2014,W,1,07,1.3,1.8,M,-33.5,M,,*54
$PYRTM,2024,123.086446228738,14.196093638877
$GPGGA,020427.00,3404.2845,N,11932.2043,W,1,07,1.3,3.6,M,-33.5,M,,*50
$PYRTM,2024,123.086457455139,14.196104865289
$GPGGA,020428.00,3404.2851,N,11932.2072,W,1,07,1.3,2.0,M,-33.5,M,,*5F
$PYRTM,2024,123.086473082639,14.196120492778
$GPGGA,020429.00,3404.2856,N,11932.2102,W,1,07,1.3,1.5,M,-33.5,M,,*59
$PYRTM,2024,123.086484191898,14.196131602037
$GPGGA,020430.00,3404.2861,N,11932.2131,W,1,07,1.3,1.8,M,-33.5,M,,*58
$PYRTM,2024,123.086495302292,14.196142712431
$GPGGA,020431.00,3404.2867,N,11932.2159,W,1,07,1.3,1.5,M,-33.5,M,,*5C
$PYRTM,2024,123.086506413970,14.196153824109
$GPGGA,020432.00,3404.2874,N,11932.2188,W,1,07,1.3,-0.3,M,-33.5,M,,*7B
$PYRTM,2024,123.086517640370,14.196165050509
$GPGGA,020433.00,3404.2880,N,11932.2218,W,1,07,1.3,3.8,M,-33.5,M,,*5E
$PYRTM,2024,123.086528752535,14.196176162674
$GPGGA,020434.00,3404.2886,N,11932.2248,W,1,07,1.3,5.8,M,-33.5,M,,*5C
$PYRTM,2024,123.086539862095,14.196187272234
$GPGGA,020435.00,3404.2889,N,11932.2278,W,1,07,1.3,6.0,M,-33.5,M,,*5A
$PYRTM,2024,123.086550974954,14.196198385093
$GPGGA,020436.00,3404.2893,N,11932.2307,W,1,07,1.3,5.6,M,-33.5,M,,*5E
$PYRTM,2024,123.086562085069,14.196209495208
$GPGGA,020437.00,3404.2900,N,11932.2337,W,1,07,1.3,3.7,M,-33.5,M,,*50
$PYRTM,2024,123.086573196331,14.196220606458
$GPGGA,020438.00,3404.2908,N,11932.2366,W,1,07,1.3,2.4,M,-33.5,M,,*51
$PYRTM,2024,123.086584799479,14.196232209618
$GPGGA,020439.00,3404.2913,N,11932.2396,W,1,07,1.3,3.8,M,-33.5,M,,*58
$PYRTM,2024,123.086595882905,14.196243293044
$GPGGA,020440.00,3404.2917,N,11932.2425,W,1,07,1.3,3.6,M,-33.5,M,,*53
$PYRTM,2024,123.086607009317,14.196254419456
$GPGGA,020441.00,3404.2922,N,11932.2453,W,1,07,1.3,2.1,M,-33.5,M,,*53
$PYRTM,2024,123.086618118819,14.196265528958
$GPGGA,020442.00,3404.2928,N,11932.2482,W,1,07,1.3,1.1,M,-33.5,M,,*55
$PYRTM,2024,123.086629345579,14.196276755729
$GPGGA,020443.00,3404.2935,N,11932.2511,W,1,07,1.3,0.3,M,-33.5,M,,*50
$PYRTM,2024,123.086640790451,14.196288200590
$GPGGA,020444.00,3404.2941,N,11932.2542,W,1,07,1.3,0.3,M,-33.5,M,,*52
$PYRTM,2024,123.086652378079,14.196299788229
$GPGGA,020445.00,3404.2947,N,11932.2572,W,1,07,1.3,2.7,M,-33.5,M,,*50
$PYRTM,2024,123.086663938912,14.196311349051
$GPGGA,020446.00,3404.2954,N,11932.2602,W,1,07,1.3,2.7,M,-33.5,M,,*55
$PYRTM,2024,123.086675526528,14.196322936667
$GPGGA,020447.00,3404.2961,N,11932.2631,W,1,07,1.3,4.2,M,-33.5,M,,*51
$PYRTM,2024,123.086687088727,14.196334498866
$GPGGA,020448.00,3404.2967,N,11932.2661,W,1,07,1.3,2.1,M,-33.5,M,,*58
$PYRTM,2024,123.086698675845,14.196346085972
$GPGGA,020449.00,3404.2974,N,11932.2692,W,1,07,1.3,1.1,M,-33.5,M,,*54
$PYRTM,2024,123.086710235938,14.196357646076
$GPGGA,020450.00,3404.2980,N,11932.2723,W,1,07,1.3,3.4,M,-33.5,M,,*5B
$PYRTM,2024,123.086721822951,14.196369233090
$GPGGA,020451.00,3404.2984,N,11932.2752,W,1,07,1.3,1.8,M,-33.5,M,,*56
$PYRTM,2024,123.086733384144,14.196380794282
$GPGGA,020452.00,3404.2990,N,11932.2779,W,1,07,1.3,1.6,M,-33.5,M,,*57
$PYRTM,2024,123.086744971053,14.196392381192
$GPGGA,020453.00,3404.2997,N,11932.2809,W,1,07,1.3,2.8,M,-33.5,M,,*54
$PYRTM,2024,123.086756532118,14.196403942257
$GPGGA,020454.00,3404.3004,N,11932.2839,W,1,07,1.3,2.8,M,-33.5,M,,*52
$PYRTM,2024,123.086768123391,14.196415533530
$GPGGA,020455.00,3404.3008,N,11932.2870,W,1,07,1.3,3.8,M,-33.5,M,,*53
$PYRTM,2024,123.086779681678,14.196427091817
$GPGGA,020456.00,3404.3013,N,11932.2902,W,1,07,1.3,3.8,M,-33.5,M,,*5E
$PYRTM,2024,123.086791272060,14.196438682199
$GPGGA,020457.00,3404.3019,N,11932.2931,W,1,07,1.3,3.7,M,-33.5,M,,*5A
$PYRTM,2024,123.086802830613,14.196450240752
$GPGGA,020458.00,3404.3025,N,11932.2960,W,1,07,1.3,3.0,M,-33.5,M,,*59
$PYRTM,2024,123.086813015810,14.196460425949
$GPGGA,020459.00,3404.3031,N,11932.2990,W,1,07,1.3,2.4,M,-33.5,M,,*57
$PYRTM,2024,123.086824833194,14.196472243333
$GPGGA,020500.00,3404.3036,N,11932.3023,W,1,07,1.3,1.7,M,-33.5,M,,*5D
$PYRTM,2024,123.086837565255,14.196484975394
$GPGGA,020501.00,3404.3041,N,11932.3053,W,1,07,1.3,1.5,M,-33.5,M,,*59
$PYRTM,2024,123.086849126875,14.196496537014
$GPGGA,020502.00,3404.3046,N,11932.3082,W,1,07,1.3,3.8,M,-33.5,M,,*5E
$PYRTM,2024,123.086860714074,14.196508124213
$GPGGA,020503.00,3404.3051,N,11932.3113,W,1,07,1.3,4.7,M,-33.5,M,,*58
$PYRTM,2024,123.086872277072,14.196519687211
$GPGGA,020504.00,3404.3056,N,11932.3142,W,1,07,1.3,6.0,M,-33.5,M,,*59
$PYRTM,2024,123.086883857002,14.196531267141
$GPGGA,020505.00,3404.3062,N,11932.3172,W,1,07,1.3,5.2,M,-33.5,M,,*5D
$PYRTM,2024,123.086895422986,14.196542833125
$GPGGA,020506.00,3404.3067,N,11932.3201,W,1,07,1.3,4.3,M,-33.5,M,,*5C
$PYRTM,2024,123.086907011215,14.196554421354
$GPGGA,020507.00,3404.3074,N,11932.3230,W,1,07,1.3,4.6,M,-33.5,M,,*58
$PYRTM,2024,123.086918571759,14.196565981898
$GPGGA,020508.00,3404.3081,N,11932.3258,W,1,07,1.3,2.6,M,-33.5,M,,*55
$PYRTM,2024,123.086930158750,14.196577568900
$GPGGA,020509.00,3404.3087,N,11932.3289,W,1,07,1.3,1.3,M,-33.5,M,,*58
$PYRTM,2024,123.086941720521,14.196589130660
$GPGGA,020510.00,3404.3093,N,11932.3320,W,1,07,1.3,1.5,M,-33.5,M,,*51
$PYRTM,2024,123.086953310891,14.196600721030
$GPGGA,020511.00,3404.3098,N,11932.3349,W,1,07,1.3,2.2,M,-33.5,M,,*50
$PYRTM,2024,123.086964869514,14.196612279664
$GPGGA,020512.00,3404.3105,N,11932.3378,W,1,07,1.3,1.5,M,-33.5,M,,*50
$PYRTM,2024,123.086976458356,14.196623868495
$GPGGA,020513.00,3404.3111,N,11932.3406,W,1,07,1.3,-0.5,M,-33.5,M,,*76
$PYRTM,2024,123.086988017141,14.196635427280
$GPGGA,020514.00,3404.3117,N,11932.3434,W,1,07,1.3,1.4,M,-33.5,M,,*5B
$PYRTM,2024,123.086999606458,14.196647016609
$GPGGA,020515.00,3404.3122,N,11932.3463,W,1,07,1.3,1.4,M,-33.5,M,,*5E
$PYRTM,2024,123.087011164074,14.196658574213
$GPGGA,020516.00,3404.3127,N,11932.3493,W,1,07,1.3,-0.2,M,-33.5,M,,*7D
$PYRTM,2024,123.087022756377,14.196670166516
$GPGGA,020517.00,3404.3134,N,11932.3523,W,1,07,1.3,0.4,M,-33.5,M,,*5F
$PYRTM,2024,123.087034315787,14.196681725926
$GPGGA,020518.00,3404.3140,N,11932.3551,W,1,07,1.3,-0.5,M,-33.5,M,,*7A
$PYRTM,2024,123.087045895984,14.196693306134
$GPGGA,020519.00,3404.3146,N,11932.3578,W,1,07,1.3,1.1,M,-33.5,M,,*5E
$PYRTM,2024,123.087057463333,14.196704873472
$GPGGA,020520.00,3404.3152,N,11932.3607,W,1,07,1.3,1.5,M,-33.5,M,,*5E
$PYRTM,2024,123.087069049375,14.196716459514
$GPGGA,020521.00,3404.3158,N,11932.3639,W,1,07,1.3,2.0,M,-33.5,M,,*5E
$PYRTM,2024,123.087080612639,14.196728022778
$GPGGA,020522.00,3404.3163,N,11932.3669,W,1,07,1.3,3.5,M,-33.5,M,,*54
$PYRTM,2024,123.087092192882,14.196739603021
$GPGGA,020523.00,3404.3170,N,11932.3696,W,1,07,1.3,3.5,M,-33.5,M,,*57
$PYRTM,2024,123.087103759977,14.196751170127
$GPGGA,020524.00,3404.3179,N,11932.3725,W,1,07,1.3,2.6,M,-33.5,M,,*52
$PYRTM,2024,123.087115346157,14.196762756296
$GPGGA,020525.00,3404.3187,N,11932.3756,W,1,07,1.3,3.3,M,-33.5,M,,*52
$PYRTM,2024,123.087126909456,14.196774319595
$GPGGA,020526.00,3404.3193,N,11932.3786,W,1,07,1.3,2.7,M,-33.5,M,,*5C
$PYRTM,2024,123.087138498310,14.196785908449
$GPGGA,020527.00,3404.3200,N,11932.3815,W,1,07,1.3,3.0,M,-33.5,M,,*57
$PYRTM,2024,123.087150056863,14.196797467002
$GPGGA,020528.00,3404.3207,N,11932.3844,W,1,07,1.3,3.5,M,-33.5,M,,*5E
$PYRTM,2024,123.087160720081,14.196808130231
$GPGGA,020529.00,3404.3214,N,11932.3874,W,1,07,1.3,3.2,M,-33.5,M,,*59
$PYRTM,2024,123.087172059560,14.196819469699
$GPGGA,020530.00,3404.3221,N,11932.3902,W,1,07,1.3,3.6,M,-33.5,M,,*53
$PYRTM,2024,123.087184790475,14.196832200613
$GPGGA,020531.00,3404.3227,N,11932.3929,W,1,07,1.3,5.1,M,-33.5,M,,*5C
$PYRTM,2024,123.087196352650,14.196843762789
$GPGGA,020532.00,3404.3233,N,11932.3960,W,1,07,1.3,2.5,M,-33.5,M,,*54
$PYRTM,2024,123.087207940475,14.196855350613
$GPGGA,020533.00,3404.3240,N,11932.3991,W,1,07,1.3,4.3,M,-33.5,M,,*5F
$PYRTM,2024,123.087219501771,14.196866911910
$GPGGA,020534.00,3404.3248,N,11932.4020,W,1,07,1.3,4.2,M,-33.5,M,,*55
$PYRTM,2024,123.087231089016,14.196878499155
$GPGGA,020535.00,3404.3256,N,11932.4049,W,1,07,1.3,3.2,M,-33.5,M,,*53
$PYRTM,2024,123.087242649514,14.196890059653
$GPGGA,020536.00,3404.3262,N,11932.4076,W,1,07,1.3,5.8,M,-33.5,M,,*57
$PYRTM,2024,123.087254233194,14.196901643333
$GPGGA,020537.00,3404.3269,N,11932.4104,W,1,07,1.3,3.9,M,-33.5,M,,*5E
$PYRTM,2024,123.087265798831,14.196913208970
$GPGGA,020538.00,3404.3277,N,11932.4134,W,1,07,1.3,2.7,M,-33.5,M,,*52
$PYRTM,2024,123.087277387697,14.196924797836
$GPGGA,020539.00,3404.3284,N,11932.4163,W,1,07,1.3,3.2,M,-33.5,M,,*59
$PYRTM,2024,123.087288946748,14.196936356887
$GPGGA,020540.00,3404.3289,N,11932.4191,W,1,07,1.3,2.2,M,-33.5,M,,*56
$PYRTM,2024,123.087300534988,14.196947945127
$GPGGA,020541.00,3404.3295,N,11932.4217,W,1,07,1.3,4.1,M,-33.5,M,,*52
$PYRTM,2024,123.087312094468,14.196959504606
$GPGGA,020542.00,3404.3301,N,11932.4245,W,1,07,1.3,2.4,M,-33.5,M,,*59
$PYRTM,2024,123.087323697512,14.196971107650
$GPGGA,020543.00,3404.3307,N,11932.4275,W,1,07,1.3,1.9,M,-33.5,M,,*53
$PYRTM,2024,123.087335243113,14.196982653241
$GPGGA,020544.00,3404.3313,N,11932.4306,W,1,07,1.3,1.7,M,-33.5,M,,*5A
$PYRTM,2024,123.087346832986,14.196994243125
$GPGGA,020545.00,3404.3317,N,11932.4334,W,1,07,1.3,0.6,M,-33.5,M,,*5E
$PYRTM,2024,123.087358391528,14.197005801667
$GPGGA,020546.00,3404.3321,N,11932.4361,W,1,07,1.3,-2.3,M,-33.5,M,,*72
$PYRTM,2024,123.087369978252,14.197017388391
$GPGGA,020547.00,3404.3326,N,11932.4391,W,1,07,1.3,-0.8,M,-33.5,M,,*72
$PYRTM,2024,123.087381540266,14.197028950405
$GPGGA,020548.00,3404.3332,N,11932.4422,W,1,07,1.3,-2.1,M,-33.5,M,,*7C
$PYRTM,2024,123.087393121505,14.197040531644
$GPGGA,020549.00,3404.3337,N,11932.4451,W,1,07,1.3,-1.5,M,-33.5,M,,*7B
$PYRTM,2024,123.087404688808,14.197052098947
$GPGGA,020550.00,3404.3343,N,11932.4480,W,1,07,1.3,1.6,M,-33.5,M,,*52
$PYRTM,2024,123.087416279421,14.197063689560
$GPGGA,020551.00,3404.3348,N,11932.4511,W,1,07,1.3,2.0,M,-33.5,M,,*54
$PYRTM,2024,123.087427837153,14.197075247292
$GPGGA,020552.00,3404.3354,N,11932.4541,W,1,07,1.3,2.5,M,-33.5,M,,*5A
$PYRTM,2024,123.087439424201,14.197086834340
$GPGGA,020553.00,3404.3359,N,11932.4570,W,1,07,1.3,3.3,M,-33.5,M,,*53
$PYRTM,2024,123.087450986354,14.197098396493
$GPGGA,020554.00,3404.3364,N,11932.4597,W,1,07,1.3,3.9,M,-33.5,M,,*59
$PYRTM,2024,123.087462572894,14.197109983032
$GPGGA,020555.00,3404.3369,N,11932.4627,W,1,07,1.3,3.8,M,-33.5,M,,*5C
$PYRTM,2024,123.087474133287,14.197121543426
$GPGGA,020556.00,3404.3374,N,11932.4657,W,1,07,1.3,4.1,M,-33.5,M,,*5A
$PYRTM,2024,123.087485721377,14.197133131516
$GPGGA,020557.00,3404.3380,N,11932.4686,W,1,07,1.3,3.2,M,-33.5,M,,*58
$PYRTM,2024,123.087497281875,14.197144692014
$GPGGA,020558.00,3404.3386,N,11932.4716,W,1,07,1.3,5.0,M,-33.5,M,,*5D
$PYRTM,2024,123.087507467512,14.197154877650
$GPGGA,020559.00,3404.3393,N,11932.4745,W,1,07,1.3,2.3,M,-33.5,M,,*5A
$PYRTM,2024,123.087519286377,14.197166696516
$GPGGA,020600.00,3404.3401,N,11932.4774,W,1,07,1.3,0.7,M,-33.5,M,,*5D
$PYRTM,2024,123.087532021134,14.197179431273
$GPGGA,020601.00,3404.3407,N,11932.4805,W,1,07,1.3,2.4,M,-33.5,M,,*52
$PYRTM,2024,123.087543580012,14.197190990150
$GPGGA,020602.00,3404.3412,N,11932.4835,W,1,07,1.3,3.8,M,-33.5,M,,*5B
$PYRTM,2024,123.087555180266,14.197202590405
$GPGGA,020603.00,3404.3419,N,11932.4865,W,1,07,1.3,5.4,M,-33.5,M,,*5E
$PYRTM,2024,123.087566727083,14.197214137222
$GPGGA,020604.00,3404.3427,N,11932.4894,W,1,07,1.3,4.5,M,-33.5,M,,*5A
$PYRTM,2024,123.087578314086,14.197225724236
$GPGGA,020605.00,3404.3434,N,11932.4923,W,1,07,1.3,4.4,M,-33.5,M,,*55
$PYRTM,2024,123.087589877292,14.197237287431
$GPGGA,020606.00,3404.3439,N,11932.4953,W,1,07,1.3,6.3,M,-33.5,M,,*59
$PYRTM,2024,123.087601459051,14.197248869190
$GPGGA,020607.00,3404.3446,N,11932.4984,W,1,07,1.3,5.0,M,-33.5,M,,*5A
$PYRTM,2024,123.087613023495,14.197260433646
$GPGGA,020608.00,3404.3453,N,11932.5015,W,1,07,1.3,5.1,M,-33.5,M,,*50
$PYRTM,2024,123.087624607674,14.197272017824
$GPGGA,020609.00,3404.3459,N,11932.5046,W,1,07,1.3,4.2,M,-33.5,M,,*5F
$PYRTM,2024,123.087636173322,14.197283583461
$GPGGA,020610.00,3404.3464,N,11932.5077,W,1,07,1.3,4.8,M,-33.5,M,,*51
$PYRTM,2024,123.087647758970,14.197295169109
$GPGGA,020611.00,3404.3468,N,11932.5105,W,1,07,1.3,4.1,M,-33.5,M,,*51
$PYRTM,2024,123.087659321366,14.197306731505
$GPGGA,020612.00,3404.3472,N,11932.5133,W,1,07,1.3,2.2,M,-33.5,M,,*59
$PYRTM,2024,123.087670908368,14.197318318507
$GPGGA,020613.00,3404.3477,N,11932.5164,W,1,07,1.3,0.3,M,-33.5,M,,*5C
$PYRTM,2024,123.087682469560,14.197329879699
$GPGGA,020614.00,3404.3483,N,11932.5195,W,1,07,1.3,2.5,M,-33.5,M,,*5A
$PYRTM,2024,123.087694056238,14.197341466377
$GPGGA,020615.00,3404.3489,N,11932.5223,W,1,07,1.3,0.2,M,-33.5,M,,*5A
$PYRTM,2024,123.087705617315,14.197353027454
$GPGGA,020616.00,3404.3495,N,11932.5252,W,1,07,1.3,2.9,M,-33.5,M,,*5B
$PYRTM,2024,123.087717207222,14.197364617361
$GPGGA,020617.00,3404.3501,N,11932.5283,W,1,07,1.3,1.5,M,-33.5,M,,*55
$PYRTM,2024,123.087728766400,14.197376176539
$GPGGA,020618.00,3404.3507,N,11932.5313,W,1,07,1.3,3.4,M,-33.5,M,,*57
$PYRTM,2024,123.087740356250,14.197387766389
$GPGGA,020619.00,3404.3513,N,11932.5342,W,1,07,1.3,5.3,M,-33.5,M,,*56
$PYRTM,2024,123.087750989375,14.197398399514
$GPGGA,020620.00,3404.3520,N,11932.5372,W,1,07,1.3,4.2,M,-33.5,M,,*5F
$PYRTM,2024,123.087762461921,14.197409872060
$GPGGA,020621.00,3404.3526,N,11932.5402,W,1,07,1.3,2.2,M,-33.5,M,,*5E
$PYRTM,2024,123.087774021806,14.197421431944
$GPGGA,020622.00,3404.3532,N,11932.5431,W,1,07,1.3,5.2,M,-33.5,M,,*5F
$PYRTM,2024,123.087785133831,14.197432543970
$GPGGA,020623.00,3404.3539,N,11932.5460,W,1,07,1.3,3.0,M,-33.5,M,,*55
$PYRTM,2024,123.087796244479,14.197443654630
$GPGGA,020624.00,3404.3545,N,11932.5490,W,1,07,1.3,5.9,M,-33.5,M,,*59
$PYRTM,2024,123.087807355486,14.197454765625
$GPGGA,020625.00,3404.3551,N,11932.5519,W,1,07,1.3,5.0,M,-33.5,M,,*54
$PYRTM,2024,123.087818466887,14.197465877025
$GPGGA,020626.00,3404.3557,N,11932.5550,W,1,07,1.3,3.0,M,-33.5,M,,*5A
$PYRTM,2024,123.087829586331,14.197476996470
$GPGGA,020627.00,3404.3565,N,11932.5582,W,1,07,1.3,1.9,M,-33.5,M,,*5E
$PYRTM,2024,123.087840688472,14.197488098611
$GPGGA,020628.00,3404.3574,N,11932.5609,W,1,07,1.3,1.3,M,-33.5,M,,*5B
$PYRTM,2024,123.087856430556,14.197503840694
$GPGGA,020629.00,3404.3579,N,11932.5634,W,1,07,1.3,2.5,M,-33.5,M,,*5C
$PYRTM,2024,123.087867656192,14.197515066331
$GPGGA,020630.00,3404.3583,N,11932.5662,W,1,07,1.3,-0.4,M,-33.5,M,,*7C
$PYRTM,2024,123.087879243530,14.197526653669
$GPGGA,020631.00,3404.3587,N,11932.5693,W,1,07,1.3,0.2,M,-33.5,M,,*5C
$PYRTM,2024,123.087890804329,14.197538214468
$GPGGA,020632.00,3404.3590,N,11932.5723,W,1,07,1.3,3.2,M,-33.5,M,,*50
$PYRTM,2024,123.087902395058,14.197549805197
$GPGGA,020633.00,3404.3595,N,11932.5750,W,1,07,1.3,4.0,M,-33.5,M,,*55
$PYRTM,2024,123.087913952789,14.197561362928
$GPGGA,020634.00,3404.3600,N,11932.5779,W,1,07,1.3,2.2,M,-33.5,M,,*52
$PYRTM,2024,123.087925544664,14.197572954815
$GPGGA,020635.00,3404.3605,N,11932.5810,W,1,07,1.3,1.6,M,-33.5,M,,*51
$PYRTM,2024,123.087937101968,14.197584512106
$GPGGA,020636.00,3404.3610,N,11932.5841,W,1,07,1.3,2.8,M,-33.5,M,,*5F
$PYRTM,2024,123.087948683993,14.197596094132
$GPGGA,020637.00,3404.3614,N,11932.5870,W,1,07,1.3,3.4,M,-33.5,M,,*55
$PYRTM,2024,123.087960250856,14.197607660995
$GPGGA,020638.00,3404.3619,N,11932.5900,W,1,07,1.3,1.4,M,-33.5,M,,*53
$PYRTM,2024,123.087971833009,14.197619243148
$GPGGA,020639.00,3404.3625,N,11932.5930,W,1,07,1.3,3.7,M,-33.5,M,,*5F
$PYRTM,2024,123.087983399444,14.197630809583
$GPGGA,020640.00,3404.3631,N,11932.5959,W,1,07,1.3,2.2,M,-33.5,M,,*5F
$PYRTM,2024,123.087994982662,14.197642392801
$GPGGA,020641.00,3404.3637,N,11932.5987,W,1,07,1.3,2.7,M,-33.5,M,,*5E
$PYRTM,2024,123.088006547847,14.197653957986
$GPGGA,020642.00,3404.3643,N,11932.6018,W,1,07,1.3,2.1,M,-33.5,M,,*54
$PYRTM,2024,123.088018133854,14.197665544005
$GPGGA,020643.00,3404.3648,N,11932.6047,W,1,07,1.3,1.7,M,-33.5,M,,*51
$PYRTM,2024,123.088029695150,14.197677105289
$GPGGA,020644.00,3404.3653,N,11932.6075,W,1,07,1.3,2.3,M,-33.5,M,,*5A
$PYRTM,2024,123.088041285498,14.197688695637
$GPGGA,020645.00,3404.3658,N,11932.6104,W,1,07,1.3,-2.4,M,-33.5,M,,*7D
$PYRTM,2024,123.088052842720,14.197700252859
$GPGGA,020646.00,3404.3665,N,11932.6135,W,1,07,1.3,-0.9,M,-33.5,M,,*7D
$PYRTM,2024,123.088064426019,14.197711836157
$GPGGA,020647.00,3404.3671,N,11932.6165,W,1,07,1.3,2.8,M,-33.5,M,,*52
$PYRTM,2024,123.088075992870,14.197723403009
$GPGGA,020648.00,3404.3676,N,11932.6194,W,1,07,1.3,4.0,M,-33.5,M,,*5A
$PYRTM,2024,123.088087592639,14.197735002778
$GPGGA,020649.00,3404.3679,N,11932.6222,W,1,07,1.3,1.8,M,-33.5,M,,*57
$PYRTM,2024,123.088099139340,14.197746549479
$GPGGA,020650.00,3404.3685,N,11932.6251,W,1,07,1.3,3.3,M,-33.5,M,,*51
$PYRTM,2024,123.088110730845,14.197758140984
$GPGGA,020651.00,3404.3691,N,11932.6281,W,1,07,1.3,4.7,M,-33.5,M,,*5B
$PYRTM,2024,123.088122289144,14.197769699282
$GPGGA,020652.00,3404.3697,N,11932.6311,W,1,07,1.3,4.3,M,-33.5,M,,*52
$PYRTM,2024,123.088133876690,14.197781286829
$GPGGA,020653.00,3404.3702,N,11932.6340,W,1,07,1.3,3.1,M,-33.5,M,,*5F
$PYRTM,2024,123.088145437546,14.197792847685
$GPGGA,020654.00,3404.3708,N,11932.6369,W,1,07,1.3,2.4,M,-33.5,M,,*5D
$PYRTM,2024,123.088157024977,14.197804435116
$GPGGA,020655.00,3404.3716,N,11932.6399,W,1,07,1.3,3.3,M,-33.5,M,,*5A
$PYRTM,2024,123.088168586435,14.197815996574
$GPGGA,020656.00,3404.3723,N,11932.6431,W,1,07,1.3,3.3,M,-33.5,M,,*5A
$PYRTM,2024,123.088180172407,14.197827582546
$GPGGA,020657.00,3404.3728,N,11932.6462,W,1,07,1.3,2.5,M,-33.5,M,,*51
$PYRTM,2024,123.088191733704,14.197839143843
$GPGGA,020658.00,3404.3733,N,11932.6489,W,1,07,1.3,2.8,M,-33.5,M,,*5C
$PYRTM,2024,123.088201919525,14.197849329664
$GPGGA,020659.00,3404.3738,N,11932.6517,W,1,07,1.3,0.9,M,-33.5,M,,*53
$PYRTM,2024,123.088213738090,14.197861148229
$GPGGA,020700.00,3404.3745,N,11932.6548,W,1,07,1.3,1.6,M,-33.5,M,,*50
$PYRTM,2024,123.088226470972,14.197873881123
$GPGGA,020701.00,3404.3752,N,11932.6579,W,1,07,1.3,1.0,M,-33.5,M,,*53
$PYRTM,2024,123.088238033125,14.197885443264
$GPGGA,020702.00,3404.3757,N,11932.6609,W,1,07,1.3,2.0,M,-33.5,M,,*52
$PYRTM,2024,123.088249619306,14.197897029861
$GPGGA,020703.00,3404.3763,N,11932.6639,W,1,07,1.3,3.9,M,-33.5,M,,*5F
$PYRTM,2024,123.088261180880,14.197908591019
$GPGGA,020704.00,3404.3769,N,11932.6668,W,1,07,1.3,2.5,M,-33.5,M,,*5B
$PYRTM,2024,123.088272769711,14.197920179850
$GPGGA,020705.00,3404.3777,N,11932.6698,W,1,07,1.3,8.1,M,-33.5,M,,*54
$PYRTM,2024,123.088284329306,14.197931739444
$GPGGA,020706.00,3404.3783,N,11932.6730,W,1,07,1.3,5.9,M,-33.5,M,,*5A
$PYRTM,2024,123.088295918021,14.197943328160
$GPGGA,020707.00,3404.3790,N,11932.6761,W,1,07,1.3,5.3,M,-33.5,M,,*57
$PYRTM,2024,123.088307476609,14.197954886748
$GPGGA,020708.00,3404.3797,N,11932.6789,W,1,07,1.3,5.0,M,-33.5,M,,*5A
$PYRTM,2024,123.088319296377,14.197966706516
$GPGGA,020709.00,3404.3802,N,11932.6817,W,1,07,1.3,2.1,M,-33.5,M,,*56
$PYRTM,2024,123.088330625671,14.197978035845
$GPGGA,020710.00,3404.3808,N,11932.6847,W,1,07,1.3,1.9,M,-33.5,M,,*5A
$PYRTM,2024,123.088342212616,14.197989622755
$GPGGA,020711.00,3404.3813,N,11932.6877,W,1,07,1.3,3.7,M,-33.5,M,,*5E
$PYRTM,2024,123.088353773600,14.198001183738
$GPGGA,020712.00,3404.3817,N,11932.6906,W,1,07,1.3,3.9,M,-33.5,M,,*50
$PYRTM,2024,123.088365360266,14.198012770405
$GPGGA,020713.00,3404.3823,N,11932.6934,W,1,07,1.3,3.3,M,-33.5,M,,*5D
$PYRTM,2024,123.088376922257,14.198024332396
$GPGGA,020714.00,3404.3828,N,11932.6962,W,1,07,1.3,5.7,M,-33.5,M,,*50
$PYRTM,2024,123.088388509155,14.198035919294
$GPGGA,020715.00,3404.3834,N,11932.6987,W,1,07,1.3,10.4,M,-33.5,M,,*60
$PYRTM,2024,123.088400069271,14.198047479421
$GPGGA,020716.00,3404.3838,N,11932.7015,W,1,07,1.3,12.2,M,-33.5,M,,*68
$PYRTM,2024,123.088411651285,14.198059061424
$GPGGA,020717.00,3404.3842,N,11932.7045,W,1,07,1.3,10.5,M,-33.5,M,,*64
$PYRTM,2024,123.088423219398,14.198070629537
$GPGGA,020718.00,3404.3846,N,11932.7074,W,1,07,1.3,10.3,M,-33.5,M,,*6B
$PYRTM,2024,123.088434806794,14.198082216933
$GPGGA,020719.00,3404.3851,N,11932.7101,W,1,07,1.3,9.6,M,-33.5,M,,*52
$PYRTM,2024,123.088446366852,14.198093776991
$GPGGA,020720.00,3404.3856,N,11932.7128,W,1,07,1.3,8.9,M,-33.5,M,,*5A
$PYRTM,2024,123.088457957037,14.198105367176
$GPGGA,020721.00,3404.3862,N,11932.7156,W,1,07,1.3,8.8,M,-33.5,M,,*54
$PYRTM,2024,123.088469516447,14.198116926586
$GPGGA,020722.00,3404.3866,N,11932.7186,W,1,07,1.3,7.6,M,-33.5,M,,*5F
$PYRTM,2024,123.088481107303,14.198128517442
$GPGGA,020723.00,3404.3871,N,11932.7216,W,1,07,1.3,7.8,M,-33.5,M,,*5C
$PYRTM,2024,123.088492663681,14.198140073819
$GPGGA,020724.00,3404.3877,N,11932.7244,W,1,07,1.3,5.3,M,-33.5,M,,*53
$PYRTM,2024,123.088504255671,14.198151665810
$GPGGA,020725.00,3404.3882,N,11932.7272,W,1,07,1.3,4.1,M,-33.5,M,,*5E
$PYRTM,2024,123.088515811308,14.198163221447
$GPGGA,020726.00,3404.3888,N,11932.7300,W,1,07,1.3,6.0,M,-33.5,M,,*50
$PYRTM,2024,123.088527394560,14.198174804711
$GPGGA,020727.00,3404.3893,N,11932.7330,W,1,07,1.3,5.4,M,-33.5,M,,*5F
$PYRTM,2024,123.088538963426,14.198186373565
$GPGGA,020728.00,3404.3898,N,11932.7361,W,1,07,1.3,3.8,M,-33.5,M,,*55
$PYRTM,2024,123.088549146227,14.198196556366
$GPGGA,020729.00,3404.3903,N,11932.7392,W,1,07,1.3,3.1,M,-33.5,M,,*52
$PYRTM,2024,123.088560965648,14.198208375787
$GPGGA,020730.00,3404.3907,N,11932.7422,W,1,07,1.3,4.9,M,-33.5,M,,*5D
$PYRTM,2024,123.088573697523,14.198221107662
$GPGGA,020731.00,3404.3914,N,11932.7449,W,1,07,1.3,4.9,M,-33.5,M,,*53
$PYRTM,2024,123.088585257523,14.198232667662
$GPGGA,020732.00,3404.3921,N,11932.7478,W,1,07,1.3,4.5,M,-33.5,M,,*58
$PYRTM,2024,123.088596838993,14.198244249132
$GPGGA,020733.00,3404.3926,N,11932.7510,W,1,07,1.3,5.1,M,-33.5,M,,*54
$PYRTM,2024,123.088608405961,14.198255816111
$GPGGA,020734.00,3404.3930,N,11932.7541,W,1,07,1.3,6.4,M,-33.5,M,,*56
$PYRTM,2024,123.088619992859,14.198267402998
$GPGGA,020735.00,3404.3934,N,11932.7571,W,1,07,1.3,5.4,M,-33.5,M,,*53
$PYRTM,2024,123.088631553935,14.198278964074
$GPGGA,020736.00,3404.3939,N,11932.7599,W,1,07,1.3,3.8,M,-33.5,M,,*51
$PYRTM,2024,123.088643144491,14.198290554630
$GPGGA,020737.00,3404.3946,N,11932.7629,W,1,07,1.3,4.8,M,-33.5,M,,*57
$PYRTM,2024,123.088654703611,14.198302113750
$GPGGA,020738.00,3404.3951,N,11932.7660,W,1,07,1.3,5.9,M,-33.5,M,,*53
$PYRTM,2024,123.088666293310,14.198313703449
$GPGGA,020739.00,3404.3956,N,11932.7690,W,1,07,1.3,5.8,M,-33.5,M,,*5B
$PYRTM,2024,123.088677853576,14.198325263715
$GPGGA,020740.00,3404.3961,N,11932.7719,W,1,07,1.3,7.3,M,-33.5,M,,*58
$PYRTM,2024,123.088689453611,14.198336863750
$GPGGA,020741.00,3404.3965,N,11932.7748,W,1,07,1.3,5.8,M,-33.5,M,,*50
$PYRTM,2024,123.088700999398,14.198348409549
$GPGGA,020742.00,3404.3971,N,11932.7777,W,1,07,1.3,8.2,M,-33.5,M,,*5D
$PYRTM,2024,123.088712586933,14.198359997072
$GPGGA,020743.00,3404.3978,N,11932.7805,W,1,07,1.3,6.8,M,-33.5,M,,*5B
$PYRTM,2024,123.088724148438,14.198371558576
$GPGGA,020744.00,3404.3984,N,11932.7834,W,1,07,1.3,8.4,M,-33.5,M,,*5F
$PYRTM,2024,123.088735736678,14.198383146817
$GPGGA,020745.00,3404.3989,N,11932.7862,W,1,07,1.3,8.7,M,-33.5,M,,*53
$PYRTM,2024,123.088747296597,14.198394706736
$GPGGA,020746.00,3404.3994,N,11932.7891,W,1,07,1.3,12.6,M,-33.5,M,,*6A
$PYRTM,2024,123.088758883333,14.198406293472
$GPGGA,020747.00,3404.3999,N,11932.7920,W,1,07,1.3,11.6,M,-33.5,M,,*6E
$PYRTM,2024,123.088770444491,14.198417854630
$GPGGA,020748.00,3404.4006,N,11932.7948,W,1,07,1.3,10.8,M,-33.5,M,,*68
$PYRTM,2024,123.088782032905,14.198429443044
$GPGGA,020749.00,3404.4012,N,11932.7975,W,1,07,1.3,14.2,M,-33.5,M,,*6C
$PYRTM,2024,123.088793593947,14.198441004086
$GPGGA,020750.00,3404.4018,N,11932.8003,W,1,07,1.3,12.3,M,-33.5,M,,*6E
$PYRTM,2024,123.088805632975,14.198453043113
$GPGGA,020751.00,3404.4024,N,11932.8032,W,1,07,1.3,11.8,M,-33.5,M,,*6A
$PYRTM,2024,123.088816741632,14.198464151771
$GPGGA,020752.00,3404.4030,N,11932.8060,W,1,07,1.3,13.0,M,-33.5,M,,*61
$PYRTM,2024,123.088828331713,14.198475741852
$GPGGA,020753.00,3404.4035,N,11932.8086,W,1,07,1.3,12.6,M,-33.5,M,,*6A
$PYRTM,2024,123.088839889433,14.198487299572
$GPGGA,020754.00,3404.4039,N,11932.8114,W,1,07,1.3,10.8,M,-33.5,M,,*67
$PYRTM,2024,123.088851480856,14.198498890995
$GPGGA,020755.00,3404.4044,N,11932.8142,W,1,07,1.3,10.2,M,-33.5,M,,*65
$PYRTM,2024,123.088863039016,14.198510449155
$GPGGA,020756.00,3404.4050,N,11932.8170,W,1,07,1.3,13.5,M,-33.5,M,,*66
$PYRTM,2024,123.088874628310,14.198522038449
$GPGGA,020757.00,3404.4055,N,11932.8198,W,1,07,1.3,12.7,M,-33.5,M,,*67
$PYRTM,2024,123.088886185637,14.198533595775
$GPGGA,020758.00,3404.4060,N,11932.8229,W,1,07,1.3,10.5,M,-33.5,M,,*67
$PYRTM,2024,123.088896849769,14.198544259907
$GPGGA,020759.00,3404.4066,N,11932.8260,W,1,07,1.3,9.0,M,-33.5,M,,*50
$PYRTM,2024,123.088908190914,14.198555601053
$GPGGA,020800.00,3404.4071,N,11932.8292,W,1,07,1.3,11.3,M,-33.5,M,,*62
$PYRTM,2024,123.088920917188,14.198568327338
$GPGGA,020801.00,3404.4077,N,11932.8321,W,1,07,1.3,10.8,M,-33.5,M,,*66
$PYRTM,2024,123.088932482847,14.198579892986
$GPGGA,020802.00,3404.4084,N,11932.8353,W,1,07,1.3,8.6,M,-33.5,M,,*5B
$PYRTM,2024,123.088944071424,14.198591481563
$GPGGA,020803.00,3404.4091,N,11932.8385,W,1,07,1.3,6.8,M,-33.5,M,,*55
$PYRTM,2024,123.088955632419,14.198603042558
$GPGGA,020804.00,3404.4098,N,11932.8417,W,1,07,1.3,8.0,M,-33.5,M,,*51
$PYRTM,2024,123.088967213900,14.198614624039
$GPGGA,020805.00,3404.4103,N,11932.8446,W,1,07,1.3,12.0,M,-33.5,M,,*6C
$PYRTM,2024,123.088978779375,14.198626189514
$GPGGA,020806.00,3404.4107,N,11932.8475,W,1,07,1.3,10.5,M,-33.5,M,,*6C
$PYRTM,2024,123.088990367836,14.198637777975
$GPGGA,020807.00,3404.4112,N,11932.8506,W,1,07,1.3,8.1,M,-33.5,M,,*51
$PYRTM,2024,123.089001928588,14.198649338727
$GPGGA,020808.00,3404.4117,N,11932.8535,W,1,07,1.3,7.0,M,-33.5,M,,*55
$PYRTM,2024,123.089013516771,14.198660926921
$GPGGA,020809.00,3404.4123,N,11932.8563,W,1,07,1.3,4.0,M,-33.5,M,,*53
$PYRTM,2024,123.089025075706,14.198672485845
$GPGGA,020810.00,3404.4131,N,11932.8591,W,1,07,1.3,4.2,M,-33.5,M,,*57
$PYRTM,2024,123.089036667500,14.198684077650
$GPGGA,020811.00,3404.4139,N,11932.8620,W,1,07,1.3,6.0,M,-33.5,M,,*57
$PYRTM,2024,123.089048225729,14.198695635868
$GPGGA,020812.00,3404.4146,N,11932.8650,W,1,07,1.3,8.6,M,-33.5,M,,*53
$PYRTM,2024,123.089059816759,14.198707226898
$GPGGA,020813.00,3404.4152,N,11932.8678,W,1,07,1.3,8.2,M,-33.5,M,,*59
$PYRTM,2024,123.089071373391,14.198718783530
$GPGGA,020814.00,3404.4159,N,11932.8707,W,1,07,1.3,8.7,M,-33.5,M,,*59
$PYRTM,2024,123.089082960961,14.198730371111
$GPGGA,020815.00,3404.4164,N,11932.8737,W,1,07,1.3,9.0,M,-33.5,M,,*53
$PYRTM,2024,123.089094522361,14.198741932500
$GPGGA,020816.00,3404.4171,N,11932.8767,W,1,07,1.3,11.1,M,-33.5,M,,*69
$PYRTM,2024,123.089106105625,14.198753515775
$GPGGA,020817.00,3404.4178,N,11932.8797,W,1,07,1.3,9.7,M,-33.5,M,,*51
$PYRTM,2024,123.089117670451,14.198765080590
$GPGGA,020818.00,3404.4185,N,11932.8826,W,1,07,1.3,8.4,M,-33.5,M,,*5B
$PYRTM,2024,123.089129253912,14.198776664051
$GPGGA,020819.00,3404.4190,N,11932.8855,W,1,07,1.3,7.5,M,-33.5,M,,*54
$PYRTM,2024,123.089140821343,14.198788231481
$GPGGA,020820.00,3404.4195,N,11932.8884,W,1,07,1.3,6.9,M,-33.5,M,,*5A
$PYRTM,2024,123.089152406655,14.198799816794
$GPGGA,020821.00,3404.4200,N,11932.8913,W,1,07,1.3,6.5,M,-33.5,M,,*57
$PYRTM,2024,123.089163966481,14.198811376620
$GPGGA,020822.00,3404.4207,N,11932.8943,W,1,07,1.3,5.1,M,-33.5,M,,*51
$PYRTM,2024,123.089175554248,14.198822964387
$GPGGA,020823.00,3404.4214,N,11932.8974,W,1,07,1.3,7.5,M,-33.5,M,,*50
$PYRTM,2024,123.089187118519,14.198834528657
$GPGGA,020824.00,3404.4219,N,11932.9000,W,1,07,1.3,8.7,M,-33.5,M,,*5C
$PYRTM,2024,123.089197782326,14.198845192465
$GPGGA,020825.00,3404.4224,N,11932.9027,W,1,07,1.3,8.9,M,-33.5,M,,*58
$PYRTM,2024,123.089208774606,14.198856184745
$GPGGA,020826.00,3404.4229,N,11932.9057,W,1,07,1.3,8.9,M,-33.5,M,,*51
$PYRTM,2024,123.089220334780,14.198867744919
$GPGGA,020827.00,3404.4236,N,11932.9089,W,1,07,1.3,9.5,M,-33.5,M,,*50
$PYRTM,2024,123.089231561794,14.198878971933
$GPGGA,020828.00,3404.4241,N,11932.9119,W,1,07,1.3,12.3,M,-33.5,M,,*6B
$PYRTM,2024,123.089247300405,14.198894710556
$GPGGA,020829.00,3404.4247,N,11932.9149,W,1,07,1.3,7.9,M,-33.5,M,,*57
$PYRTM,2024,123.089258412593,14.198905822731
$GPGGA,020830.00,3404.4251,N,11932.9179,W,1,07,1.3,8.6,M,-33.5,M,,*5B
$PYRTM,2024,123.089269525324,14.198916935475
$GPGGA,020831.00,3404.4256,N,11932.9211,W,1,07,1.3,8.0,M,-33.5,M,,*56
$PYRTM,2024,123.089280635359,14.198928045498
$GPGGA,020832.00,3404.4260,N,11932.9242,W,1,07,1.3,11.0,M,-33.5,M,,*6E
$PYRTM,2024,123.089291747951,14.198939158090
$GPGGA,020833.00,3404.4266,N,11932.9271,W,1,07,1.3,12.8,M,-33.5,M,,*62
$PYRTM,2024,123.089314445185,14.198961855324
$GPGGA,020834.00,3404.4272,N,11932.9300,W,1,07,1.3,13.7,M,-33.5,M,,*69
$PYRTM,2024,123.089325559688,14.198972969826
$GPGGA,020835.00,3404.4278,N,11932.9331,W,1,07,1.3,9.7,M,-33.5,M,,*5B
$PYRTM,2024,123.089336668044,14.198984078183
$GPGGA,020836.00,3404.4284,N,11932.9361,W,1,07,1.3,7.1,M,-33.5,M,,*56
$PYRTM,2024,123.089347774178,14.198995184317
$GPGGA,020837.00,3404.4289,N,11932.9390,W,1,07,1.3,8.3,M,-33.5,M,,*59
$PYRTM,2024,123.089358890428,14.199006300567
$GPGGA,020838.00,3404.4295,N,11932.9420,W,1,07,1.3,7.8,M,-33.5,M,,*53
$PYRTM,2024,123.089370001678,14.199017411829
$GPGGA,020839.00,3404.4303,N,11932.9451,W,1,07,1.3,7.6,M,-33.5,M,,*54
