$PYRTM,2024,122.416676189942,13.526323600093
$GPGGA,095959.00,3334.9312,N,11950.7889,W,1,08,1.0,13.5,M,-34.9,M,,*66
$PYRTM,2024,122.416687764641,13.526335174780
$GPGGA,100000.00,3334.9321,N,11950.7915,W,1,08,1.0,11.0,M,-34.9,M,,*6D
$PYRTM,2024,122.416699332917,13.526346743056
$GPGGA,100001.00,3334.9331,N,11950.7942,W,1,08,1.0,9.5,M,-34.9,M,,*53
$PYRTM,2024,122.416710912141,13.526358322280
$GPGGA,100002.00,3334.9340,N,11950.7971,W,1,08,1.0,10.4,M,-34.9,M,,*6F
$PYRTM,2024,122.416727911840,13.526375321979
$GPGGA,100003.00,3334.9348,N,11950.7998,W,1,08,1.0,9.2,M,-34.9,M,,*5F
$PYRTM,2024,122.416739949572,13.526387359711
$GPGGA,100004.00,3334.9354,N,11950.8022,W,1,08,1.0,8.5,M,-34.9,M,,*54
$PYRTM,2024,122.416750726667,13.526398136806
$GPGGA,100005.00,3334.9362,N,11950.8047,W,1,08,1.0,12.8,M,-34.9,M,,*65
$PYRTM,2024,122.416761838438,13.526409248576
$GPGGA,100006.00,3334.9370,N,11950.8076,W,1,08,1.0,13.3,M,-34.9,M,,*6D
$PYRTM,2024,122.416772949676,13.526420359815
$GPGGA,100007.00,3334.9379,N,11950.8104,W,1,08,1.0,13.5,M,-34.9,M,,*67
$PYRTM,2024,122.416784167164,13.526431577303
$GPGGA,100008.00,3334.9387,N,11950.8131,W,1,08,1.0,11.9,M,-34.9,M,,*61
$PYRTM,2024,122.416795170579,13.526442580718
$GPGGA,100009.00,3334.9395,N,11950.8157,W,1,08,1.0,13.6,M,-34.9,M,,*6E
$PYRTM,2024,122.416809755752,13.526457165891
$GPGGA,100010.00,3334.9403,N,11950.8186,W,1,08,1.0,14.1,M,-34.9,M,,*62
$PYRTM,2024,122.416820861088,13.526468271227
$GPGGA,100011.00,3334.9410,N,11950.8215,W,1,08,1.0,12.0,M,-34.9,M,,*6F
$PYRTM,2024,122.416831981157,13.526479391296
$GPGGA,100012.00,3334.9418,N,11950.8243,W,1,08,1.0,11.4,M,-34.9,M,,*60
$PYRTM,2024,122.416843199456,13.526490609595
$GPGGA,100013.00,3334.9427,N,11950.8270,W,1,08,1.0,10.0,M,-34.9,M,,*68
$PYRTM,2024,122.416854316586,13.526501726725
$GPGGA,100014.00,3334.9434,N,11950.8297,W,1,08,1.0,9.9,M,-34.9,M,,*55
$PYRTM,2024,122.416865429919,13.526512840058
$GPGGA,100015.00,3334.9439,N,11950.8322,W,1,08,1.0,10.0,M,-34.9,M,,*67
$PYRTM,2024,122.416876539988,13.526523950127
$GPGGA,100016.00,3334.9445,N,11950.8349,W,1,08,1.0,10.0,M,-34.9,M,,*62
$PYRTM,2024,122.416887657384,13.526535067535
$GPGGA,100017.00,3334.9454,N,11950.8379,W,1,08,1.0,8.9,M,-34.9,M,,*50
$PYRTM,2024,122.416899801794,13.526547211933
$GPGGA,100018.00,3334.9464,N,11950.8406,W,1,08,1.0,8.5,M,-34.9,M,,*5F
$PYRTM,2024,122.416909988530,13.526557398669
$GPGGA,100019.00,3334.9471,N,11950.8427,W,1,08,1.0,9.0,M,-34.9,M,,*5D
$PYRTM,2024,122.416921086285,13.526568496424
$GPGGA,100020.00,3334.9478,N,11950.8452,W,1,08,1.0,10.5,M,-34.9,M,,*61
$PYRTM,2024,122.416933353889,13.526580764028
$GPGGA,100021.00,3334.9487,N,11950.8483,W,1,08,1.0,11.4,M,-34.9,M,,*6C
$PYRTM,2024,122.416944466493,13.526591876632
$GPGGA,100022.00,3334.9494,N,11950.8512,W,1,08,1.0,11.6,M,-34.9,M,,*66
$PYRTM,2024,122.416955577326,13.526602987465
$GPGGA,100023.00,3334.9501,N,11950.8537,W,1,08,1.0,12.4,M,-34.9,M,,*6C
$PYRTM,2024,122.416966803808,13.526614213947
$GPGGA,100024.00,3334.9508,N,11950.8560,W,1,08,1.0,13.2,M,-34.9,M,,*67
$PYRTM,2024,122.416977915718,13.526625325856
$GPGGA,100025.00,3334.9517,N,11950.8587,W,1,08,1.0,17.0,M,-34.9,M,,*67
$PYRTM,2024,122.416989025405,13.526636435556
$GPGGA,100026.00,3334.9527,N,11950.8614,W,1,08,1.0,14.0,M,-34.9,M,,*6D
$PYRTM,2024,122.417000599907,13.526648010046
$GPGGA,100027.00,3334.9534,N,11950.8640,W,1,08,1.0,17.8,M,-34.9,M,,*64
$PYRTM,2024,122.417011726065,13.526659136204
$GPGGA,100028.00,3334.9542,N,11950.8667,W,1,08,1.0,15.2,M,-34.9,M,,*67
$PYRTM,2024,122.417022939676,13.526670349815
$GPGGA,100029.00,3334.9548,N,11950.8695,W,1,08,1.0,14.9,M,-34.9,M,,*6B
$PYRTM,2024,122.417034398275,13.526681808414
$GPGGA,100030.00,3334.9556,N,11950.8722,W,1,08,1.0,14.1,M,-34.9,M,,*69
$PYRTM,2024,122.417045983507,13.526693393646
$GPGGA,100031.00,3334.9564,N,11950.8747,W,1,08,1.0,14.3,M,-34.9,M,,*68
$PYRTM,2024,122.417057544711,13.526704954850
$GPGGA,100032.00,3334.9574,N,11950.8772,W,1,08,1.0,13.9,M,-34.9,M,,*61
$PYRTM,2024,122.417069126921,13.526716537060
$GPGGA,100033.00,3334.9583,N,11950.8798,W,1,08,1.0,15.9,M,-34.9,M,,*6A
$PYRTM,2024,122.417080691887,13.526728102025
$GPGGA,100034.00,3334.9592,N,11950.8828,W,1,08,1.0,14.4,M,-34.9,M,,*65
$PYRTM,2024,122.417092279248,13.526739689387
$GPGGA,100035.00,3334.9599,N,11950.8856,W,1,08,1.0,12.1,M,-34.9,M,,*65
$PYRTM,2024,122.417103841389,13.526751251528
$GPGGA,100036.00,3334.9603,N,11950.8881,W,1,08,1.0,12.8,M,-34.9,M,,*65
$PYRTM,2024,122.417115430613,13.526762840752
$GPGGA,100037.00,3334.9610,N,11950.8906,W,1,08,1.0,11.9,M,-34.9,M,,*6A
$PYRTM,2024,122.417126991458,13.526774401597
$GPGGA,100038.00,3334.9620,N,11950.8931,W,1,08,1.0,10.0,M,-34.9,M,,*6A
$PYRTM,2024,122.417138579306,13.526785989444
$GPGGA,100039.00,3334.9629,N,11950.8957,W,1,08,1.0,10.3,M,-34.9,M,,*61
$PYRTM,2024,122.417150137824,13.526797547963
$GPGGA,100040.00,3334.9636,N,11950.8987,W,1,08,1.0,13.0,M,-34.9,M,,*6C
$PYRTM,2024,122.417161728588,13.526809138727
$GPGGA,100041.00,3334.9641,N,11950.9017,W,1,08,1.0,10.1,M,-34.9,M,,*6E
$PYRTM,2024,122.417173285903,13.526820696042
$GPGGA,100042.00,3334.9648,N,11950.9043,W,1,08,1.0,11.4,M,-34.9,M,,*61
$PYRTM,2024,122.417184869028,13.526832279178
$GPGGA,100043.00,3334.9657,N,11950.9068,W,1,08,1.0,13.2,M,-34.9,M,,*63
$PYRTM,2024,122.417196435405,13.526843845544
$GPGGA,100044.00,3334.9667,N,11950.9094,W,1,08,1.0,11.0,M,-34.9,M,,*64
$PYRTM,2024,122.417208021262,13.526855431400
$GPGGA,100045.00,3334.9675,N,11950.9122,W,1,08,1.0,11.7,M,-34.9,M,,*6D
$PYRTM,2024,122.417219582743,13.526866992882
$GPGGA,100046.00,3334.9679,N,11950.9151,W,1,08,1.0,14.4,M,-34.9,M,,*60
$PYRTM,2024,122.417231169896,13.526878580035
$GPGGA,100047.00,3334.9686,N,11950.9176,W,1,08,1.0,13.8,M,-34.9,M,,*6F
$PYRTM,2024,122.417242730266,13.526890140405
$GPGGA,100048.00,3334.9696,N,11950.9201,W,1,08,1.0,14.6,M,-34.9,M,,*6B
$PYRTM,2024,122.417252915671,13.526900325810
$GPGGA,100049.00,3334.9706,N,11950.9227,W,1,08,1.0,13.3,M,-34.9,M,,*64
$PYRTM,2024,122.417264733657,13.526912143796
$GPGGA,100050.00,3334.9714,N,11950.9256,W,1,08,1.0,15.4,M,-34.9,M,,*68
$PYRTM,2024,122.417277468750,13.526924878889
$GPGGA,100051.00,3334.9721,N,11950.9285,W,1,08,1.0,15.4,M,-34.9,M,,*61
$PYRTM,2024,122.417289027465,13.526936437604
$GPGGA,100052.00,3334.9728,N,11950.9313,W,1,08,1.0,18.0,M,-34.9,M,,*6C
$PYRTM,2024,122.417300617419,13.526948027558
$GPGGA,100053.00,3334.9736,N,11950.9340,W,1,08,1.0,18.1,M,-34.9,M,,*65
$PYRTM,2024,122.417312175556,13.526959585694
$GPGGA,100054.00,3334.9747,N,11950.9368,W,1,08,1.0,18.8,M,-34.9,M,,*67
$PYRTM,2024,122.417323781806,13.526971191944
$GPGGA,100055.00,3334.9756,N,11950.9393,W,1,08,1.0,17.0,M,-34.9,M,,*65
$PYRTM,2024,122.417335324167,13.526982734306
$GPGGA,100056.00,3334.9763,N,11950.9421,W,1,08,1.0,17.5,M,-34.9,M,,*6B
$PYRTM,2024,122.417347131273,13.526994541412
$GPGGA,100057.00,3334.9770,N,11950.9451,W,1,08,1.0,17.8,M,-34.9,M,,*62
$PYRTM,2024,122.417358473438,13.527005883576
$GPGGA,100058.00,3334.9776,N,11950.9481,W,1,08,1.0,12.8,M,-34.9,M,,*63
$PYRTM,2024,122.417370054178,13.527017464317
$GPGGA,100059.00,3334.9784,N,11950.9507,W,1,08,1.0,11.9,M,-34.9,M,,*62
$PYRTM,2024,122.417381619525,13.527029029664
$GPGGA,100100.00,3334.9794,N,11950.9529,W,1,08,1.0,16.3,M,-34.9,M,,*6F
$PYRTM,2024,122.417393210185,13.527040620324
$GPGGA,100101.00,3334.9803,N,11950.9554,W,1,08,1.0,15.9,M,-34.9,M,,*6C
$PYRTM,2024,122.417404768692,13.527052178831
$GPGGA,100102.00,3334.9812,N,11950.9585,W,1,08,1.0,13.3,M,-34.9,M,,*6F
$PYRTM,2024,122.417416359676,13.527063769815
$GPGGA,100103.00,3334.9818,N,11950.9614,W,1,08,1.0,17.5,M,-34.9,M,,*6D
$PYRTM,2024,122.417427916771,13.527075326910
$GPGGA,100104.00,3334.9825,N,11950.9640,W,1,08,1.0,16.9,M,-34.9,M,,*68
$PYRTM,2024,122.417439503102,13.527086913241
$GPGGA,100105.00,3334.9832,N,11950.9664,W,1,08,1.0,15.8,M,-34.9,M,,*6B
$PYRTM,2024,122.417451065301,13.527098475440
$GPGGA,100106.00,3334.9841,N,11950.9689,W,1,08,1.0,16.8,M,-34.9,M,,*6C
$PYRTM,2024,122.417462651424,13.527110061562
$GPGGA,100107.00,3334.9850,N,11950.9718,W,1,08,1.0,15.2,M,-34.9,M,,*6D
$PYRTM,2024,122.417474213600,13.527121623738
$GPGGA,100108.00,3334.9858,N,11950.9747,W,1,08,1.0,15.2,M,-34.9,M,,*60
$PYRTM,2024,122.417486134641,13.527133544780
$GPGGA,100109.00,3334.9866,N,11950.9776,W,1,08,1.0,13.4,M,-34.9,M,,*6E
$PYRTM,2024,122.417497360289,13.527144770428
$GPGGA,100110.00,3334.9873,N,11950.9803,W,1,08,1.0,17.5,M,-34.9,M,,*6A
$PYRTM,2024,122.417508962361,13.527156372500
$GPGGA,100111.00,3334.9879,N,11950.9828,W,1,08,1.0,17.9,M,-34.9,M,,*64
$PYRTM,2024,122.417520509410,13.527167919549
$GPGGA,100112.00,3334.9887,N,11950.9856,W,1,08,1.0,17.8,M,-34.9,M,,*6E
$PYRTM,2024,122.417532095961,13.527179506100
$GPGGA,100113.00,3334.9895,N,11950.9888,W,1,08,1.0,13.6,M,-34.9,M,,*65
$PYRTM,2024,122.417543657824,13.527191067963
$GPGGA,100114.00,3334.9902,N,11950.9915,W,1,08,1.0,13.2,M,-34.9,M,,*6C
$PYRTM,2024,122.417555245440,13.527202655579
$GPGGA,100115.00,3334.9906,N,11950.9937,W,1,08,1.0,13.9,M,-34.9,M,,*62
$PYRTM,2024,122.417566806192,13.527214216343
$GPGGA,100116.00,3334.9912,N,11950.9960,W,1,08,1.0,9.9,M,-34.9,M,,*5D
$PYRTM,2024,122.417578387454,13.527225797593
$GPGGA,100117.00,3334.9923,N,11950.9987,W,1,08,1.0,11.6,M,-34.9,M,,*61
$PYRTM,2024,122.417589954653,13.527237364792
$GPGGA,100118.00,3334.9931,N,11951.0015,W,1,08,1.0,12.0,M,-34.9,M,,*62
$PYRTM,2024,122.417600139259,13.527247549398
$GPGGA,100119.00,3334.9935,N,11951.0040,W,1,08,1.0,13.5,M,-34.9,M,,*63
$PYRTM,2024,122.417611957743,13.527259367882
$GPGGA,100120.00,3334.9939,N,11951.0065,W,1,08,1.0,13.6,M,-34.9,M,,*61
$PYRTM,2024,122.417624703009,13.527272113148
$GPGGA,100121.00,3334.9945,N,11951.0089,W,1,08,1.0,15.7,M,-34.9,M,,*6E
$PYRTM,2024,122.417636250810,13.527283660949
$GPGGA,100122.00,3334.9955,N,11951.0113,W,1,08,1.0,14.6,M,-34.9,M,,*6E
$PYRTM,2024,122.417647833345,13.527295243484
$GPGGA,100123.00,3334.9964,N,11951.0139,W,1,08,1.0,14.0,M,-34.9,M,,*63
$PYRTM,2024,122.417659401134,13.527306811273
$GPGGA,100124.00,3334.9970,N,11951.0168,W,1,08,1.0,10.8,M,-34.9,M,,*69
$PYRTM,2024,122.417670988727,13.527318398866
$GPGGA,100125.00,3334.9975,N,11951.0194,W,1,08,1.0,11.7,M,-34.9,M,,*60
$PYRTM,2024,122.417682548495,13.527329958634
$GPGGA,100126.00,3334.9981,N,11951.0216,W,1,08,1.0,12.2,M,-34.9,M,,*67
$PYRTM,2024,122.417694469363,13.527341879502
$GPGGA,100127.00,3334.9992,N,11951.0242,W,1,08,1.0,11.7,M,-34.9,M,,*63
$PYRTM,2024,122.417705696076,13.527353106215
$GPGGA,100128.00,3335.0003,N,11951.0269,W,1,08,1.0,13.6,M,-34.9,M,,*6F
$PYRTM,2024,122.417717289514,13.527364699653
$GPGGA,100129.00,3335.0010,N,11951.0296,W,1,08,1.0,13.5,M,-34.9,M,,*6F
$PYRTM,2024,122.417728853160,13.527376263299
$GPGGA,100130.00,3335.0015,N,11951.0322,W,1,08,1.0,14.0,M,-34.9,M,,*6E
$PYRTM,2024,122.417740430995,13.527387841134
$GPGGA,100131.00,3335.0023,N,11951.0350,W,1,08,1.0,13.0,M,-34.9,M,,*68
$PYRTM,2024,122.417751994433,13.527399404583
$GPGGA,100132.00,3335.0033,N,11951.0377,W,1,09,0.8,12.9,M,-34.9,M,,*6F
$PYRTM,2024,122.417763574850,13.527410984988
$GPGGA,100133.00,3335.0041,N,11951.0399,W,1,09,0.8,12.3,M,-34.9,M,,*61
$PYRTM,2024,122.417775141782,13.527422551921
$GPGGA,100134.00,3335.0047,N,11951.0422,W,1,09,0.8,11.1,M,-34.9,M,,*66
$PYRTM,2024,122.417786730428,13.527434140567
$GPGGA,100135.00,3335.0054,N,11951.0451,W,1,09,0.8,9.8,M,-34.9,M,,*51
$PYRTM,2024,122.417798289051,13.527445699190
$GPGGA,100136.00,3335.0061,N,11951.0480,W,1,09,0.8,9.8,M,-34.9,M,,*58
$PYRTM,2024,122.417809879803,13.527457289942
$GPGGA,100137.00,3335.0069,N,11951.0504,W,1,09,0.8,11.1,M,-34.9,M,,*6C
$PYRTM,2024,122.417821438322,13.527468848461
$GPGGA,100138.00,3335.0076,N,11951.0526,W,1,09,0.8,13.2,M,-34.9,M,,*6C
$PYRTM,2024,122.417833026551,13.527480436690
$GPGGA,100139.00,3335.0084,N,11951.0552,W,1,09,0.8,13.7,M,-34.9,M,,*66
$PYRTM,2024,122.417844584792,13.527491994931
$GPGGA,100140.00,3335.0092,N,11951.0578,W,1,09,0.8,13.6,M,-34.9,M,,*66
$PYRTM,2024,122.417856174838,13.527503584977
$GPGGA,100141.00,3335.0100,N,11951.0603,W,1,09,0.8,11.0,M,-34.9,M,,*66
$PYRTM,2024,122.417867733287,13.527515143426
$GPGGA,100142.00,3335.0106,N,11951.0629,W,1,09,0.8,10.8,M,-34.9,M,,*62
$PYRTM,2024,122.417879320521,13.527526730660
$GPGGA,100143.00,3335.0113,N,11951.0655,W,1,09,0.8,12.0,M,-34.9,M,,*66
$PYRTM,2024,122.417890881493,13.527538291632
$GPGGA,100144.00,3335.0121,N,11951.0680,W,1,09,0.8,12.6,M,-34.9,M,,*6E
$PYRTM,2024,122.417902468426,13.527549878565
$GPGGA,100145.00,3335.0131,N,11951.0707,W,1,09,0.8,12.5,M,-34.9,M,,*63
$PYRTM,2024,122.417914031007,13.527561441146
$GPGGA,100146.00,3335.0140,N,11951.0734,W,1,09,0.8,7.3,M,-34.9,M,,*54
$PYRTM,2024,122.417925619340,13.527573029479
$GPGGA,100147.00,3335.0145,N,11951.0760,W,1,09,0.8,7.7,M,-34.9,M,,*55
$PYRTM,2024,122.417937178669,13.527584588808
$GPGGA,100148.00,3335.0151,N,11951.0782,W,1,09,0.8,7.9,M,-34.9,M,,*5D
$PYRTM,2024,122.417947363866,13.527594774016
$GPGGA,100149.00,3335.0159,N,11951.0807,W,1,09,0.8,6.7,M,-34.9,M,,*59
$PYRTM,2024,122.417959181366,13.527606591505
$GPGGA,100150.00,3335.0170,N,11951.0834,W,1,09,0.8,4.3,M,-34.9,M,,*5C
$PYRTM,2024,122.417971912674,13.527619322812
$GPGGA,100151.00,3335.0177,N,11951.0857,W,1,09,0.8,1.9,M,-34.9,M,,*50
$PYRTM,2024,122.417983474988,13.527630885127
$GPGGA,100152.00,3335.0183,N,11951.0880,W,1,09,0.8,9.4,M,-34.9,M,,*57
$PYRTM,2024,122.417995070579,13.527642480718
$GPGGA,100153.00,3335.0191,N,11951.0907,W,1,09,0.8,6.3,M,-34.9,M,,*53
$PYRTM,2024,122.418006623565,13.527654033704
$GPGGA,100154.00,3335.0201,N,11951.0934,W,1,09,0.8,5.5,M,-34.9,M,,*5B
$PYRTM,2024,122.418018206181,13.527665616319
$GPGGA,100155.00,3335.0210,N,11951.0961,W,1,09,0.8,7.0,M,-34.9,M,,*5D
$PYRTM,2024,122.418029772269,13.527677182407
$GPGGA,100156.00,3335.0217,N,11951.0989,W,1,09,0.8,6.1,M,-34.9,M,,*5F
$PYRTM,2024,122.418041355336,13.527688765486
$GPGGA,100157.00,3335.0223,N,11951.1017,W,1,09,0.8,4.8,M,-34.9,M,,*5D
$PYRTM,2024,122.418052921227,13.527700331377
$GPGGA,100158.00,3335.0229,N,11951.1046,W,1,09,0.8,9.1,M,-34.9,M,,*58
$PYRTM,2024,122.418064510197,13.527711920347
$GPGGA,100159.00,3335.0237,N,11951.1073,W,1,09,0.8,9.8,M,-34.9,M,,*59
$PYRTM,2024,122.418076070301,13.527723480451
$GPGGA,100200.00,3335.0247,N,11951.1097,W,1,09,0.8,11.7,M,-34.9,M,,*6D
$PYRTM,2024,122.418087654757,13.527735064896
$GPGGA,100201.00,3335.0257,N,11951.1121,W,1,09,0.8,11.9,M,-34.9,M,,*6F
$PYRTM,2024,122.418099216146,13.527746626285
$GPGGA,100202.00,3335.0265,N,11951.1150,W,1,09,0.8,11.1,M,-34.9,M,,*63
$PYRTM,2024,122.418110799097,13.527758209236
$GPGGA,100203.00,3335.0271,N,11951.1181,W,1,09,0.8,9.4,M,-34.9,M,,*57
$PYRTM,2024,122.418122365208,13.527769775347
$GPGGA,100204.00,3335.0276,N,11951.1206,W,1,09,0.8,11.4,M,-34.9,M,,*62
$PYRTM,2024,122.418133947731,13.527781357870
$GPGGA,100205.00,3335.0283,N,11951.1229,W,1,09,0.8,11.5,M,-34.9,M,,*65
$PYRTM,2024,122.418145513079,13.527792923229
$GPGGA,100206.00,3335.0293,N,11951.1257,W,1,09,0.8,9.9,M,-34.9,M,,*5B
$PYRTM,2024,122.418157095648,13.527804505787
$GPGGA,100207.00,3335.0302,N,11951.1286,W,1,09,0.8,9.8,M,-34.9,M,,*5E
$PYRTM,2024,122.418167735451,13.527815145590
$GPGGA,100208.00,3335.0309,N,11951.1311,W,1,09,0.8,8.8,M,-34.9,M,,*54
$PYRTM,2024,122.418179772940,13.527827183079
$GPGGA,100209.00,3335.0313,N,11951.1333,W,1,09,0.8,10.1,M,-34.9,M,,*6E
$PYRTM,2024,122.418190767407,13.527838177546
$GPGGA,100210.00,3335.0320,N,11951.1358,W,1,09,0.8,11.4,M,-34.9,M,,*6F
$PYRTM,2024,122.418201540706,13.527848950845
$GPGGA,100211.00,3335.0331,N,11951.1387,W,1,09,0.8,7.8,M,-34.9,M,,*57
$PYRTM,2024,122.418212669664,13.527860079803
$GPGGA,100212.00,3335.0340,N,11951.1415,W,1,09,0.8,5.1,M,-34.9,M,,*55
$PYRTM,2024,122.418223767384,13.527871177523
$GPGGA,100213.00,3335.0345,N,11951.1438,W,1,09,0.8,7.4,M,-34.9,M,,*59
$PYRTM,2024,122.418234877963,13.527882288102
$GPGGA,100214.00,3335.0351,N,11951.1459,W,1,09,0.8,8.3,M,-34.9,M,,*54
$PYRTM,2024,122.418245990683,13.527893400822
$GPGGA,100215.00,3335.0358,N,11951.1487,W,1,09,0.8,8.0,M,-34.9,M,,*5C
$PYRTM,2024,122.418260574606,13.527907984745
$GPGGA,100216.00,3335.0365,N,11951.1519,W,1,09,0.8,6.0,M,-34.9,M,,*59
$PYRTM,2024,122.418272842604,13.527920252743
$GPGGA,100217.00,3335.0372,N,11951.1546,W,1,09,0.8,6.7,M,-34.9,M,,*53
$PYRTM,2024,122.418284403773,13.527931813912
$GPGGA,100218.00,3335.0378,N,11951.1569,W,1,09,0.8,9.9,M,-34.9,M,,*5A
$PYRTM,2024,122.418294588044,13.527941998183
$GPGGA,100219.00,3335.0383,N,11951.1592,W,1,09,0.8,9.4,M,-34.9,M,,*56
$PYRTM,2024,122.418306405718,13.527953815856
$GPGGA,100220.00,3335.0390,N,11951.1620,W,1,09,0.8,8.0,M,-34.9,M,,*51
$PYRTM,2024,122.418319139988,13.527966550127
$GPGGA,100221.00,3335.0398,N,11951.1649,W,1,09,0.8,6.2,M,-34.9,M,,*5B
$PYRTM,2024,122.418330699063,13.527978109201
$GPGGA,100222.00,3335.0405,N,11951.1673,W,1,09,0.8,8.1,M,-34.9,M,,*5F
$PYRTM,2024,122.418342285880,13.527989696019
$GPGGA,100223.00,3335.0410,N,11951.1697,W,1,09,0.8,10.9,M,-34.9,M,,*61
$PYRTM,2024,122.418353847130,13.528001257269
$GPGGA,100224.00,3335.0416,N,11951.1723,W,1,09,0.8,10.0,M,-34.9,M,,*67
$PYRTM,2024,122.418365430058,13.528012840197
$GPGGA,100225.00,3335.0424,N,11951.1751,W,1,09,0.8,9.1,M,-34.9,M,,*5B
$PYRTM,2024,122.418376995567,13.528024405706
$GPGGA,100226.00,3335.0434,N,11951.1776,W,1,09,0.8,9.5,M,-34.9,M,,*58
$PYRTM,2024,122.418388577350,13.528035987488
$GPGGA,100227.00,3335.0440,N,11951.1799,W,1,09,0.8,10.6,M,-34.9,M,,*60
$PYRTM,2024,122.418400143218,13.528047553356
$GPGGA,100228.00,3335.0446,N,11951.1824,W,1,09,0.8,11.5,M,-34.9,M,,*62
$PYRTM,2024,122.418411731632,13.528059141771
$GPGGA,100229.00,3335.0454,N,11951.1851,W,1,09,0.8,8.2,M,-34.9,M,,*5D
$PYRTM,2024,122.418423292477,13.528070702616
$GPGGA,100230.00,3335.0463,N,11951.1877,W,1,09,0.8,6.9,M,-34.9,M,,*50
$PYRTM,2024,122.418434881806,13.528082291956
$GPGGA,100231.00,3335.0471,N,11951.1901,W,1,09,0.8,7.4,M,-34.9,M,,*5E
$PYRTM,2024,122.418446441748,13.528093851887
$GPGGA,100232.00,3335.0478,N,11951.1927,W,1,09,0.8,7.1,M,-34.9,M,,*55
$PYRTM,2024,122.418458029815,13.528105439965
$GPGGA,100233.00,3335.0484,N,11951.1954,W,1,09,0.8,8.1,M,-34.9,M,,*5C
$PYRTM,2024,122.418469591123,13.528117001262
$GPGGA,100234.00,3335.0490,N,11951.1980,W,1,09,0.8,6.5,M,-34.9,M,,*5D
$PYRTM,2024,122.418481190174,13.528128600313
$GPGGA,100235.00,3335.0499,N,11951.2003,W,1,09,0.8,11.7,M,-34.9,M,,*60
$PYRTM,2024,122.418492736840,13.528140146979
$GPGGA,100236.00,3335.0509,N,11951.2031,W,1,09,0.8,7.0,M,-34.9,M,,*5A
$PYRTM,2024,122.418504325336,13.528151735475
$GPGGA,100237.00,3335.0519,N,11951.2060,W,1,09,0.8,8.3,M,-34.9,M,,*52
$PYRTM,2024,122.418515885162,13.528163295313
$GPGGA,100238.00,3335.0525,N,11951.2085,W,1,09,0.8,6.6,M,-34.9,M,,*52
$PYRTM,2024,122.418527472373,13.528174882512
$GPGGA,100239.00,3335.0531,N,11951.2106,W,1,09,0.8,6.1,M,-34.9,M,,*5B
$PYRTM,2024,122.418539032836,13.528186442975
$GPGGA,100240.00,3335.0539,N,11951.2134,W,1,09,0.8,7.8,M,-34.9,M,,*54
$PYRTM,2024,122.418550620220,13.528198030359
$GPGGA,100241.00,3335.0549,N,11951.2167,W,1,09,0.8,5.9,M,-34.9,M,,*57
$PYRTM,2024,122.418562183310,13.528209593449
$GPGGA,100242.00,3335.0555,N,11951.2192,W,1,09,0.8,4.3,M,-34.9,M,,*58
$PYRTM,2024,122.418573768611,13.528221178750
$GPGGA,100243.00,3335.0560,N,11951.2211,W,1,09,0.8,5.8,M,-34.9,M,,*5D
$PYRTM,2024,122.418585330336,13.528232740475
$GPGGA,100244.00,3335.0567,N,11951.2232,W,1,09,0.8,6.7,M,-34.9,M,,*50
$PYRTM,2024,122.418596917894,13.528244328032
$GPGGA,100245.00,3335.0578,N,11951.2259,W,1,09,0.8,3.4,M,-34.9,M,,*54
$PYRTM,2024,122.418608479329,13.528255889479
$GPGGA,100246.00,3335.0584,N,11951.2287,W,1,09,0.8,3.0,M,-34.9,M,,*53
$PYRTM,2024,122.418620069271,13.528267479410
$GPGGA,100247.00,3335.0590,N,11951.2311,W,1,09,0.8,6.4,M,-34.9,M,,*58
$PYRTM,2024,122.418631626644,13.528279036782
$GPGGA,100248.00,3335.0597,N,11951.2333,W,1,09,0.8,5.9,M,-34.9,M,,*5E
$PYRTM,2024,122.418642290243,13.528289700382
$GPGGA,100249.00,3335.0605,N,11951.2356,W,1,09,0.8,8.8,M,-34.9,M,,*58
$PYRTM,2024,122.418653629711,13.528301039850
$GPGGA,100250.00,3335.0613,N,11951.2382,W,1,09,0.8,6.5,M,-34.9,M,,*5D
$PYRTM,2024,122.418666357072,13.528313767211
$GPGGA,100251.00,3335.0620,N,11951.2410,W,1,09,0.8,5.1,M,-34.9,M,,*57
$PYRTM,2024,122.418677922824,13.528325332963
$GPGGA,100252.00,3335.0626,N,11951.2438,W,1,09,0.8,8.1,M,-34.9,M,,*55
$PYRTM,2024,122.418689513461,13.528336923600
$GPGGA,100253.00,3335.0632,N,11951.2461,W,1,09,0.8,7.4,M,-34.9,M,,*57
$PYRTM,2024,122.418701074745,13.528348484884
$GPGGA,100254.00,3335.0641,N,11951.2484,W,1,09,0.8,7.1,M,-34.9,M,,*5A
$PYRTM,2024,122.418712658877,13.528360069016
$GPGGA,100255.00,3335.0650,N,11951.2512,W,1,09,0.8,7.9,M,-34.9,M,,*5D
$PYRTM,2024,122.418724220382,13.528371630521
$GPGGA,100256.00,3335.0658,N,11951.2541,W,1,09,0.8,6.5,M,-34.9,M,,*5D
$PYRTM,2024,122.418735806806,13.528383216944
$GPGGA,100257.00,3335.0663,N,11951.2567,W,1,09,0.8,6.6,M,-34.9,M,,*53
$PYRTM,2024,122.418747369549,13.528394779699
$GPGGA,100258.00,3335.0671,N,11951.2591,W,1,09,0.8,8.5,M,-34.9,M,,*5B
$PYRTM,2024,122.418758955718,13.528406365856
$GPGGA,100259.00,3335.0680,N,11951.2617,W,1,09,0.8,9.2,M,-34.9,M,,*5F
$PYRTM,2024,122.418770516817,13.528417926956
$GPGGA,100300.00,3335.0688,N,11951.2642,W,1,09,0.8,8.7,M,-34.9,M,,*5E
$PYRTM,2024,122.418782098090,13.528429508229
$GPGGA,100301.00,3335.0694,N,11951.2668,W,1,09,0.8,8.8,M,-34.9,M,,*55
$PYRTM,2024,122.418793664144,13.528441074282
$GPGGA,100302.00,3335.0701,N,11951.2696,W,1,09,0.8,10.1,M,-34.9,M,,*6A
$PYRTM,2024,122.418805253750,13.528452663900
$GPGGA,100303.00,3335.0708,N,11951.2724,W,1,09,0.8,11.2,M,-34.9,M,,*68
$PYRTM,2024,122.418816813449,13.528464223588
$GPGGA,100304.00,3335.0716,N,11951.2748,W,1,09,0.8,12.0,M,-34.9,M,,*6B
$PYRTM,2024,122.418828414051,13.528475824190
$GPGGA,100305.00,3335.0723,N,11951.2773,W,1,09,0.8,13.2,M,-34.9,M,,*67
$PYRTM,2024,122.418839963657,13.528487373796
$GPGGA,100306.00,3335.0730,N,11951.2804,W,1,09,0.8,13.0,M,-34.9,M,,*6B
$PYRTM,2024,122.418851546944,13.528498957083
$GPGGA,100307.00,3335.0736,N,11951.2835,W,1,09,0.8,13.5,M,-34.9,M,,*6B
$PYRTM,2024,122.418863107928,13.528510518067
$GPGGA,100308.00,3335.0742,N,11951.2861,W,1,09,0.8,13.8,M,-34.9,M,,*6B
$PYRTM,2024,122.418874696331,13.528522106470
$GPGGA,100309.00,3335.0750,N,11951.2886,W,1,09,0.8,15.5,M,-34.9,M,,*6B
$PYRTM,2024,122.418886257951,13.528533668090
$GPGGA,100310.00,3335.0759,N,11951.2912,W,1,09,0.8,15.7,M,-34.9,M,,*64
$PYRTM,2024,122.418897843611,13.528545253750
$GPGGA,100311.00,3335.0766,N,11951.2940,W,1,09,0.8,14.4,M,-34.9,M,,*6C
$PYRTM,2024,122.418909406319,13.528556816458
$GPGGA,100312.00,3335.0771,N,11951.2967,W,1,09,0.8,12.5,M,-34.9,M,,*6B
$PYRTM,2024,122.418920992604,13.528568402743
$GPGGA,100313.00,3335.0776,N,11951.2993,W,1,09,0.8,12.4,M,-34.9,M,,*67
$PYRTM,2024,122.418931409572,13.528578819711
$GPGGA,100314.00,3335.0783,N,11951.3018,W,1,09,0.8,12.3,M,-34.9,M,,*66
$PYRTM,2024,122.418944144387,13.528591554525
$GPGGA,100315.00,3335.0791,N,11951.3045,W,1,09,0.8,10.4,M,-34.9,M,,*69
$PYRTM,2024,122.418955703206,13.528603113345
$GPGGA,100316.00,3335.0799,N,11951.3071,W,1,09,0.8,10.2,M,-34.9,M,,*63
$PYRTM,2024,122.418967292963,13.528614703102
$GPGGA,100317.00,3335.0808,N,11951.3097,W,1,09,0.8,9.7,M,-34.9,M,,*50
$PYRTM,2024,122.418978850023,13.528626260162
$GPGGA,100318.00,3335.0817,N,11951.3124,W,1,09,0.8,8.7,M,-34.9,M,,*59
$PYRTM,2024,122.418989035243,13.528636445394
$GPGGA,100319.00,3335.0824,N,11951.3152,W,1,09,0.8,7.7,M,-34.9,M,,*56
$PYRTM,2024,122.419000855590,13.528648265729
$GPGGA,100320.00,3335.0833,N,11951.3178,W,1,09,0.8,7.6,M,-34.9,M,,*53
$PYRTM,2024,122.419013586019,13.528660996157
$GPGGA,100321.00,3335.0843,N,11951.3203,W,1,09,0.8,9.0,M,-34.9,M,,*52
$PYRTM,2024,122.419025148484,13.528672558623
$GPGGA,100322.00,3335.0852,N,11951.3229,W,1,09,0.8,12.5,M,-34.9,M,,*66
$PYRTM,2024,122.419036734410,13.528684144549
$GPGGA,100323.00,3335.0860,N,11951.3259,W,1,09,0.8,9.2,M,-34.9,M,,*5C
$PYRTM,2024,122.419048296620,13.528695706759
$GPGGA,100324.00,3335.0866,N,11951.3286,W,1,09,0.8,9.0,M,-34.9,M,,*5D
$PYRTM,2024,122.419059876840,13.528707286979
$GPGGA,100325.00,3335.0873,N,11951.3309,W,1,09,0.8,9.8,M,-34.9,M,,*56
$PYRTM,2024,122.419071445880,13.528718856019
$GPGGA,100326.00,3335.0882,N,11951.3334,W,1,09,0.8,9.4,M,-34.9,M,,*59
$PYRTM,2024,122.419083030567,13.528730440706
$GPGGA,100327.00,3335.0892,N,11951.3363,W,1,09,0.8,7.5,M,-34.9,M,,*54
$PYRTM,2024,122.419094592326,13.528742002465
$GPGGA,100328.00,3335.0899,N,11951.3391,W,1,09,0.8,7.0,M,-34.9,M,,*58
$PYRTM,2024,122.419106180683,13.528753590822
$GPGGA,100329.00,3335.0903,N,11951.3415,W,1,09,0.8,8.6,M,-34.9,M,,*59
$PYRTM,2024,122.419117741076,13.528765151215
$GPGGA,100330.00,3335.0909,N,11951.3441,W,1,09,0.8,9.1,M,-34.9,M,,*5C
$PYRTM,2024,122.419129329630,13.528776739769
$GPGGA,100331.00,3335.0918,N,11951.3471,W,1,09,0.8,6.2,M,-34.9,M,,*52
$PYRTM,2024,122.419140889537,13.528788299676
$GPGGA,100332.00,3335.0927,N,11951.3498,W,1,09,0.8,3.2,M,-34.9,M,,*5F
$PYRTM,2024,122.419152489363,13.528799899514
$GPGGA,100333.00,3335.0932,N,11951.3520,W,1,09,0.8,7.1,M,-34.9,M,,*5F
$PYRTM,2024,122.419164038877,13.528811449016
$GPGGA,100334.00,3335.0938,N,11951.3544,W,1,09,0.8,10.8,M,-34.9,M,,*6F
$PYRTM,2024,122.419175618808,13.528823028947
$GPGGA,100335.00,3335.0947,N,11951.3570,W,1,09,0.8,8.8,M,-34.9,M,,*58
$PYRTM,2024,122.419187186134,13.528834596273
$GPGGA,100336.00,3335.0956,N,11951.3597,W,1,09,0.8,5.7,M,-34.9,M,,*50
$PYRTM,2024,122.419198774155,13.528846184306
$GPGGA,100337.00,3335.0963,N,11951.3623,W,1,09,0.8,4.4,M,-34.9,M,,*59
$PYRTM,2024,122.419210334549,13.528857744687
$GPGGA,100338.00,3335.0968,N,11951.3648,W,1,09,0.8,6.3,M,-34.9,M,,*55
$PYRTM,2024,122.419221915266,13.528869325405
$GPGGA,100339.00,3335.0974,N,11951.3672,W,1,09,0.8,7.9,M,-34.9,M,,*5B
$PYRTM,2024,122.419233482998,13.528880893137
$GPGGA,100340.00,3335.0981,N,11951.3696,W,1,09,0.8,9.6,M,-34.9,M,,*54
$PYRTM,2024,122.419245063090,13.528892473229
$GPGGA,100341.00,3335.0989,N,11951.3724,W,1,09,0.8,3.1,M,-34.9,M,,*58
$PYRTM,2024,122.419256630150,13.528904040289
$GPGGA,100342.00,3335.0997,N,11951.3751,W,1,09,0.8,2.9,M,-34.9,M,,*5F
$PYRTM,2024,122.419268217245,13.528915627384
$GPGGA,100343.00,3335.1003,N,11951.3777,W,1,09,0.8,6.3,M,-34.9,M,,*51
$PYRTM,2024,122.419279778947,13.528927189097
$GPGGA,100344.00,3335.1010,N,11951.3802,W,1,09,0.8,4.3,M,-34.9,M,,*5B
$PYRTM,2024,122.419291369525,13.528938779664
$GPGGA,100345.00,3335.1017,N,11951.3829,W,1,09,0.8,6.6,M,-34.9,M,,*53
$PYRTM,2024,122.419302926377,13.528950336516
$GPGGA,100346.00,3335.1025,N,11951.3856,W,1,09,0.8,7.0,M,-34.9,M,,*5E
$PYRTM,2024,122.419314516470,13.528961926609
$GPGGA,100347.00,3335.1032,N,11951.3882,W,1,09,0.8,12.4,M,-34.9,M,,*60
$PYRTM,2024,122.419326075903,13.528973486042
$GPGGA,100348.00,3335.1040,N,11951.3909,W,1,09,0.8,11.6,M,-34.9,M,,*69
$PYRTM,2024,122.419336260278,13.528983670417
$GPGGA,100349.00,3335.1047,N,11951.3940,W,1,09,0.8,12.3,M,-34.9,M,,*64
$PYRTM,2024,122.419348089988,13.528995500127
$GPGGA,100350.00,3335.1054,N,11951.3969,W,1,09,0.8,12.6,M,-34.9,M,,*60
$PYRTM,2024,122.419360804769,13.529008214907
$GPGGA,100351.00,3335.1062,N,11951.3996,W,1,09,0.8,11.9,M,-34.9,M,,*68
$PYRTM,2024,122.419372371551,13.529019781690
$GPGGA,100352.00,3335.1072,N,11951.4023,W,1,09,0.8,14.2,M,-34.9,M,,*64
$PYRTM,2024,122.419383952731,13.529031362870
$GPGGA,100353.00,3335.1082,N,11951.4053,W,1,09,0.8,14.4,M,-34.9,M,,*6B
$PYRTM,2024,122.419395519190,13.529042929340
$GPGGA,100354.00,3335.1090,N,11951.4081,W,1,09,0.8,12.5,M,-34.9,M,,*67
$PYRTM,2024,122.419407106412,13.529054516551
$GPGGA,100355.00,3335.1097,N,11951.4106,W,1,09,0.8,12.0,M,-34.9,M,,*6A
$PYRTM,2024,122.419418668519,13.529066078657
$GPGGA,100356.00,3335.1105,N,11951.4131,W,1,09,0.8,10.0,M,-34.9,M,,*65
$PYRTM,2024,122.419430705220,13.529078115359
$GPGGA,100357.00,3335.1115,N,11951.4157,W,1,09,0.8,12.2,M,-34.9,M,,*65
$PYRTM,2024,122.419442287569,13.529089697708
$GPGGA,100358.00,3335.1124,N,11951.4184,W,1,09,0.8,8.8,M,-34.9,M,,*57
$PYRTM,2024,122.419453852766,13.529101262905
$GPGGA,100359.00,3335.1132,N,11951.4210,W,1,09,0.8,7.7,M,-34.9,M,,*5F
$PYRTM,2024,122.419465435914,13.529112846053
$GPGGA,100400.00,3335.1138,N,11951.4235,W,1,09,0.8,9.4,M,-34.9,M,,*54
$PYRTM,2024,122.419477004132,13.529124414271
$GPGGA,100401.00,3335.1147,N,11951.4264,W,1,09,0.8,11.6,M,-34.9,M,,*62
$PYRTM,2024,122.419488587812,13.529135997951
$GPGGA,100402.00,3335.1157,N,11951.4293,W,1,09,0.8,14.3,M,-34.9,M,,*68
$PYRTM,2024,122.419500149838,13.529147559977
$GPGGA,100403.00,3335.1165,N,11951.4321,W,1,09,0.8,12.0,M,-34.9,M,,*65
$PYRTM,2024,122.419511852188,13.529159262326
$GPGGA,100404.00,3335.1171,N,11951.4349,W,1,09,0.8,10.7,M,-34.9,M,,*6C
$PYRTM,2024,122.419523411898,13.529170822037
$GPGGA,100405.00,3335.1176,N,11951.4378,W,1,09,0.8,10.1,M,-34.9,M,,*6E
$PYRTM,2024,122.419534995324,13.529182405463
$GPGGA,100406.00,3335.1183,N,11951.4405,W,1,09,0.8,10.3,M,-34.9,M,,*68
$PYRTM,2024,122.419546559282,13.529193969421
$GPGGA,100407.00,3335.1191,N,11951.4430,W,1,09,0.8,12.1,M,-34.9,M,,*6C
$PYRTM,2024,122.419558143808,13.529205553958
$GPGGA,100408.00,3335.1201,N,11951.4457,W,1,09,0.8,11.9,M,-34.9,M,,*63
$PYRTM,2024,122.419569709005,13.529217119144
$GPGGA,100409.00,3335.1209,N,11951.4485,W,1,09,0.8,13.7,M,-34.9,M,,*69
$PYRTM,2024,122.419581297014,13.529228707153
$GPGGA,100410.00,3335.1214,N,11951.4516,W,1,09,0.8,8.3,M,-34.9,M,,*58
$PYRTM,2024,122.419592856354,13.529240266493
$GPGGA,100411.00,3335.1219,N,11951.4547,W,1,09,0.8,10.7,M,-34.9,M,,*6D
$PYRTM,2024,122.419604446308,13.529251856447
$GPGGA,100412.00,3335.1227,N,11951.4574,W,1,09,0.8,8.1,M,-34.9,M,,*5C
$PYRTM,2024,122.419622152789,13.529269562928
$GPGGA,100413.00,3335.1237,N,11951.4598,W,1,09,0.8,11.0,M,-34.9,M,,*67
$PYRTM,2024,122.419634074873,13.529281485012
$GPGGA,100414.00,3335.1246,N,11951.4621,W,1,09,0.8,11.1,M,-34.9,M,,*66
$PYRTM,2024,122.419644824525,13.529292234664
$GPGGA,100415.00,3335.1252,N,11951.4650,W,1,09,0.8,13.5,M,-34.9,M,,*62
$PYRTM,2024,122.419655935637,13.529303345775
$GPGGA,100416.00,3335.1257,N,11951.4683,W,1,09,0.8,9.9,M,-34.9,M,,*5D
$PYRTM,2024,122.419667047743,13.529314457882
$GPGGA,100417.00,3335.1262,N,11951.4712,W,1,09,0.8,9.4,M,-34.9,M,,*5E
$PYRTM,2024,122.419678159803,13.529325569942
$GPGGA,100418.00,3335.1270,N,11951.4734,W,1,09,0.8,7.6,M,-34.9,M,,*5A
$PYRTM,2024,122.419693899954,13.529341310104
$GPGGA,100419.00,3335.1280,N,11951.4756,W,1,09,0.8,11.6,M,-34.9,M,,*67
$PYRTM,2024,122.419705010556,13.529352420694
$GPGGA,100420.00,3335.1288,N,11951.4785,W,1,09,0.8,16.2,M,-34.9,M,,*68
$PYRTM,2024,122.419716250764,13.529363660903
$GPGGA,100421.00,3335.1295,N,11951.4816,W,1,09,0.8,14.5,M,-34.9,M,,*65
$PYRTM,2024,122.419727362859,13.529374772998
$GPGGA,100422.00,3335.1302,N,11951.4844,W,1,09,0.8,14.7,M,-34.9,M,,*6C
$PYRTM,2024,122.419738487998,13.529385898137
$GPGGA,100423.00,3335.1308,N,11951.4869,W,1,09,0.8,13.3,M,-34.9,M,,*6B
$PYRTM,2024,122.419749585463,13.529396995602
$GPGGA,100424.00,3335.1316,N,11951.4891,W,1,09,0.8,12.4,M,-34.9,M,,*62
$PYRTM,2024,122.419760812141,13.529408222280
$GPGGA,100425.00,3335.1324,N,11951.4917,W,1,09,0.8,11.7,M,-34.9,M,,*6D
$PYRTM,2024,122.419771925660,13.529419335799
$GPGGA,100426.00,3335.1331,N,11951.4946,W,1,09,0.8,12.1,M,-34.9,M,,*6B
$PYRTM,2024,122.419783484306,13.529430894444
$GPGGA,100427.00,3335.1337,N,11951.4968,W,1,09,0.8,12.1,M,-34.9,M,,*60
$PYRTM,2024,122.419794595023,13.529442005174
$GPGGA,100428.00,3335.1345,N,11951.4989,W,1,09,0.8,12.3,M,-34.9,M,,*67
$PYRTM,2024,122.419806184282,13.529453594421
$GPGGA,100429.00,3335.1354,N,11951.5016,W,1,09,0.8,8.9,M,-34.9,M,,*59
$PYRTM,2024,122.419817292581,13.529464702720
$GPGGA,100430.00,3335.1362,N,11951.5045,W,1,09,0.8,7.8,M,-34.9,M,,*5C
$PYRTM,2024,122.419828408194,13.529475818345
$GPGGA,100431.00,3335.1367,N,11951.5071,W,1,09,0.8,9.8,M,-34.9,M,,*51
$PYRTM,2024,122.419839515405,13.529486925544
$GPGGA,100432.00,3335.1373,N,11951.5094,W,1,09,0.8,9.8,M,-34.9,M,,*5C
$PYRTM,2024,122.419850626817,13.529498036968
$GPGGA,100433.00,3335.1382,N,11951.5118,W,1,09,0.8,11.2,M,-34.9,M,,*65
$PYRTM,2024,122.419861732442,13.529509142581
$GPGGA,100434.00,3335.1391,N,11951.5144,W,1,09,0.8,9.5,M,-34.9,M,,*57
$PYRTM,2024,122.419872965532,13.529520375683
$GPGGA,100435.00,3335.1399,N,11951.5171,W,1,09,0.8,10.4,M,-34.9,M,,*61
$PYRTM,2024,122.419884075428,13.529531485567
$GPGGA,100436.00,3335.1407,N,11951.5200,W,1,09,0.8,11.0,M,-34.9,M,,*62
$PYRTM,2024,122.419895186632,13.529542596771
$GPGGA,100437.00,3335.1414,N,11951.5226,W,1,09,0.8,12.9,M,-34.9,M,,*6F
$PYRTM,2024,122.419906297951,13.529553708090
$GPGGA,100438.00,3335.1420,N,11951.5251,W,1,09,0.8,9.2,M,-34.9,M,,*56
$PYRTM,2024,122.419917409699,13.529564819838
$GPGGA,100439.00,3335.1427,N,11951.5276,W,1,09,0.8,11.0,M,-34.9,M,,*6E
$PYRTM,2024,122.419928636181,13.529576046319
$GPGGA,100440.00,3335.1436,N,11951.5302,W,1,09,0.8,12.3,M,-34.9,M,,*62
$PYRTM,2024,122.419951077870,13.529598488009
$GPGGA,100441.00,3335.1445,N,11951.5330,W,1,09,0.8,10.7,M,-34.9,M,,*60
$PYRTM,2024,122.419962189282,13.529609599421
$GPGGA,100442.00,3335.1453,N,11951.5358,W,1,09,0.8,11.7,M,-34.9,M,,*6B
$PYRTM,2024,122.419973299329,13.529620709468
$GPGGA,100443.00,3335.1460,N,11951.5384,W,1,09,0.8,12.3,M,-34.9,M,,*6C
$PYRTM,2024,122.419984412685,13.529631822824
$GPGGA,100444.00,3335.1469,N,11951.5408,W,1,09,0.8,9.6,M,-34.9,M,,*5E
$PYRTM,2024,122.419995638530,13.529643048669
$GPGGA,100445.00,3335.1481,N,11951.5435,W,1,09,0.8,10.7,M,-34.9,M,,*6E
$PYRTM,2024,122.420006749537,13.529654159676
$GPGGA,100446.00,3335.1491,N,11951.5463,W,1,09,0.8,8.2,M,-34.9,M,,*53
$PYRTM,2024,122.420017859491,13.529665269630
$GPGGA,100447.00,3335.1498,N,11951.5489,W,1,09,0.8,7.3,M,-34.9,M,,*51
$PYRTM,2024,122.420028971736,13.529676381887
$GPGGA,100448.00,3335.1504,N,11951.5513,W,1,09,0.8,6.3,M,-34.9,M,,*59
$PYRTM,2024,122.420038705810,13.529686115961
$GPGGA,100449.00,3335.1512,N,11951.5540,W,1,09,0.8,10.1,M,-34.9,M,,*6C
$PYRTM,2024,122.420049817361,13.529697227500
$GPGGA,100450.00,3335.1522,N,11951.5567,W,1,09,0.8,8.3,M,-34.9,M,,*59
$PYRTM,2024,122.420062087604,13.529709497743
$GPGGA,100451.00,3335.1531,N,11951.5592,W,1,09,0.8,6.0,M,-34.9,M,,*5D
$PYRTM,2024,122.420073193519,13.529720603657
$GPGGA,100452.00,3335.1539,N,11951.5618,W,1,09,0.8,5.8,M,-34.9,M,,*5C
$PYRTM,2024,122.420084308380,13.529731718519
$GPGGA,100453.00,3335.1545,N,11951.5646,W,1,09,0.8,4.7,M,-34.9,M,,*53
$PYRTM,2024,122.420095419132,13.529742829271
$GPGGA,100454.00,3335.1553,N,11951.5675,W,1,09,0.8,6.2,M,-34.9,M,,*54
$PYRTM,2024,122.420106530417,13.529753940556
$GPGGA,100455.00,3335.1561,N,11951.5702,W,1,09,0.8,5.0,M,-34.9,M,,*54
$PYRTM,2024,122.420117637153,13.529765047292
$GPGGA,100456.00,3335.1570,N,11951.5728,W,1,09,0.8,6.1,M,-34.9,M,,*5D
$PYRTM,2024,122.420129216597,13.529776626736
$GPGGA,100457.00,3335.1579,N,11951.5756,W,1,09,0.8,6.2,M,-34.9,M,,*5F
$PYRTM,2024,122.420140327060,13.529787737199
$GPGGA,100458.00,3335.1587,N,11951.5784,W,1,09,0.8,7.2,M,-34.9,M,,*5F
$PYRTM,2024,122.420151452315,13.529798862454
$GPGGA,100459.00,3335.1595,N,11951.5812,W,1,09,0.8,7.8,M,-34.9,M,,*57
$PYRTM,2024,122.420162549815,13.529809959954
$GPGGA,100500.00,3335.1603,N,11951.5837,W,1,09,0.8,8.8,M,-34.9,M,,*5E
$PYRTM,2024,122.420173656632,13.529821066771
$GPGGA,100501.00,3335.1611,N,11951.5863,W,1,09,0.8,5.2,M,-34.9,M,,*5A
$PYRTM,2024,122.420184758750,13.529832168900
$GPGGA,100502.00,3335.1620,N,11951.5890,W,1,09,0.8,9.4,M,-34.9,M,,*5D
$PYRTM,2024,122.420195882650,13.529843292789
$GPGGA,100503.00,3335.1628,N,11951.5916,W,1,09,0.8,6.5,M,-34.9,M,,*55
$PYRTM,2024,122.420206994884,13.529854405023
$GPGGA,100504.00,3335.1635,N,11951.5942,W,1,09,0.8,6.7,M,-34.9,M,,*5D
$PYRTM,2024,122.420218093704,13.529865503843
$GPGGA,100505.00,3335.1644,N,11951.5969,W,1,09,0.8,7.8,M,-34.9,M,,*5D
$PYRTM,2024,122.420229214086,13.529876624236
$GPGGA,100506.00,3335.1652,N,11951.5996,W,1,09,0.8,4.3,M,-34.9,M,,*51
$PYRTM,2024,122.420240445301,13.529887855440
$GPGGA,100507.00,3335.1659,N,11951.6022,W,1,09,0.8,8.1,M,-34.9,M,,*50
$PYRTM,2024,122.420252005208,13.529899415347
$GPGGA,100508.00,3335.1668,N,11951.6048,W,1,09,0.8,10.4,M,-34.9,M,,*6D
$PYRTM,2024,122.420263594769,13.529911004907
$GPGGA,100509.00,3335.1676,N,11951.6075,W,1,09,0.8,9.2,M,-34.9,M,,*53
$PYRTM,2024,122.420275151979,13.529922562118
$GPGGA,100510.00,3335.1684,N,11951.6104,W,1,09,0.8,8.3,M,-34.9,M,,*51
$PYRTM,2024,122.420286734583,13.529934144722
$GPGGA,100511.00,3335.1690,N,11951.6131,W,1,09,0.8,8.1,M,-34.9,M,,*51
$PYRTM,2024,122.420298301192,13.529945711331
$GPGGA,100512.00,3335.1697,N,11951.6155,W,1,09,0.8,7.3,M,-34.9,M,,*5A
$PYRTM,2024,122.420309888819,13.529957298958
$GPGGA,100513.00,3335.1706,N,11951.6182,W,1,09,0.8,7.0,M,-34.9,M,,*5B
$PYRTM,2024,122.420321450266,13.529968860417
$GPGGA,100514.00,3335.1716,N,11951.6210,W,1,09,0.8,7.4,M,-34.9,M,,*51
$PYRTM,2024,122.420333032500,13.529980442627
$GPGGA,100515.00,3335.1722,N,11951.6237,W,1,09,0.8,9.5,M,-34.9,M,,*5D
$PYRTM,2024,122.420344598912,13.529992009051
$GPGGA,100516.00,3335.1729,N,11951.6264,W,1,09,0.8,9.7,M,-34.9,M,,*51
$PYRTM,2024,122.420356189375,13.530003599525
$GPGGA,100517.00,3335.1738,N,11951.6293,W,1,09,0.8,10.0,M,-34.9,M,,*67
$PYRTM,2024,122.420367746748,13.530015156898
$GPGGA,100518.00,3335.1746,N,11951.6318,W,1,09,0.8,8.1,M,-34.9,M,,*5B
$PYRTM,2024,122.420378409931,13.530025820069
$GPGGA,100519.00,3335.1755,N,11951.6344,W,1,09,0.8,10.1,M,-34.9,M,,*68
$PYRTM,2024,122.420389749051,13.530037159190
$GPGGA,100520.00,3335.1762,N,11951.6376,W,1,09,0.8,7.3,M,-34.9,M,,*53
$PYRTM,2024,122.420402476227,13.530049886366
$GPGGA,100521.00,3335.1767,N,11951.6404,W,1,09,0.8,9.8,M,-34.9,M,,*50
$PYRTM,2024,122.420414042118,13.530061452257
$GPGGA,100522.00,3335.1770,N,11951.6423,W,1,09,0.8,10.6,M,-34.9,M,,*66
$PYRTM,2024,122.420425632431,13.530073042581
$GPGGA,100523.00,3335.1778,N,11951.6445,W,1,09,0.8,13.3,M,-34.9,M,,*69
$PYRTM,2024,122.420437191817,13.530084601956
$GPGGA,100524.00,3335.1789,N,11951.6473,W,1,09,0.8,1.8,M,-34.9,M,,*5D
$PYRTM,2024,122.420448773634,13.530096183773
$GPGGA,100525.00,3335.1796,N,11951.6502,W,1,09,0.8,2.9,M,-34.9,M,,*57
$PYRTM,2024,122.420460339340,13.530107749479
$GPGGA,100526.00,3335.1799,N,11951.6525,W,1,09,0.8,3.6,M,-34.9,M,,*50
$PYRTM,2024,122.420471921412,13.530119331551
$GPGGA,100527.00,3335.1806,N,11951.6545,W,1,09,0.8,3.0,M,-34.9,M,,*58
$PYRTM,2024,122.420483489491,13.530130899630
$GPGGA,100528.00,3335.1816,N,11951.6572,W,1,09,0.8,1.6,M,-34.9,M,,*56
$PYRTM,2024,122.420495074190,13.530142484329
$GPGGA,100529.00,3335.1825,N,11951.6600,W,1,09,0.8,2.1,M,-34.9,M,,*55
$PYRTM,2024,122.420506634757,13.530154044907
$GPGGA,100530.00,3335.1831,N,11951.6626,W,1,09,0.8,2.5,M,-34.9,M,,*58
$PYRTM,2024,122.420518225428,13.530165635567
$GPGGA,100531.00,3335.1836,N,11951.6649,W,1,09,0.8,4.0,M,-34.9,M,,*54
$PYRTM,2024,122.420529784780,13.530177194919
$GPGGA,100532.00,3335.1843,N,11951.6674,W,1,09,0.8,4.2,M,-34.9,M,,*59
$PYRTM,2024,122.420541374421,13.530188784560
$GPGGA,100533.00,3335.1852,N,11951.6701,W,1,09,0.8,3.7,M,-34.9,M,,*59
$PYRTM,2024,122.420552932755,13.530200342894
$GPGGA,100534.00,3335.1859,N,11951.6726,W,1,09,0.8,3.9,M,-34.9,M,,*5E
$PYRTM,2024,122.420564519595,13.530211929734
$GPGGA,100535.00,3335.1866,N,11951.6748,W,1,09,0.8,5.6,M,-34.9,M,,*52
$PYRTM,2024,122.420576080336,13.530223490475
$GPGGA,100536.00,3335.1872,N,11951.6767,W,1,09,0.8,9.0,M,-34.9,M,,*53
$PYRTM,2024,122.420587662338,13.530235072477
$GPGGA,100537.00,3335.1879,N,11951.6792,W,1,09,0.8,7.7,M,-34.9,M,,*5A
$PYRTM,2024,122.420599229201,13.530246639340
$GPGGA,100538.00,3335.1888,N,11951.6823,W,1,09,0.8,4.7,M,-34.9,M,,*5D
$PYRTM,2024,122.420610819248,13.530258229387
$GPGGA,100539.00,3335.1894,N,11951.6851,W,1,09,0.8,3.0,M,-34.9,M,,*54
$PYRTM,2024,122.420622376690,13.530269786829
$GPGGA,100540.00,3335.1898,N,11951.6871,W,1,09,0.8,5.6,M,-34.9,M,,*54
$PYRTM,2024,122.420633964109,13.530281374248
$GPGGA,100541.00,3335.1904,N,11951.6891,W,1,09,0.8,6.7,M,-34.9,M,,*5D
$PYRTM,2024,122.420645527650,13.530292937789
$GPGGA,100542.00,3335.1912,N,11951.6918,W,1,09,0.8,5.0,M,-34.9,M,,*5D
$PYRTM,2024,122.420657112604,13.530304522743
$GPGGA,100543.00,3335.1922,N,11951.6948,W,1,09,0.8,1.7,M,-34.9,M,,*59
$PYRTM,2024,122.420668675891,13.530316086030
$GPGGA,100544.00,3335.1929,N,11951.6974,W,1,09,0.8,2.4,M,-34.9,M,,*5A
$PYRTM,2024,122.420680263958,13.530327674109
$GPGGA,100545.00,3335.1934,N,11951.6998,W,1,09,0.8,4.8,M,-34.9,M,,*5F
$PYRTM,2024,122.420691821586,13.530339231725
$GPGGA,100546.00,3335.1941,N,11951.7021,W,1,09,0.8,4.3,M,-34.9,M,,*5F
$PYRTM,2024,122.420703412037,13.530350822176
$GPGGA,100547.00,3335.1950,N,11951.7045,W,1,09,0.8,5.5,M,-34.9,M,,*5B
$PYRTM,2024,122.420714970637,13.530362380775
$GPGGA,100548.00,3335.1958,N,11951.7072,W,1,09,0.8,6.1,M,-34.9,M,,*5F
$PYRTM,2024,122.420725157280,13.530372567419
$GPGGA,100549.00,3335.1964,N,11951.7098,W,1,09,0.8,9.1,M,-34.9,M,,*5A
$PYRTM,2024,122.420736974109,13.530384384248
$GPGGA,100550.00,3335.1969,N,11951.7123,W,1,09,0.8,9.2,M,-34.9,M,,*5D
$PYRTM,2024,122.420749706053,13.530397116192
$GPGGA,100551.00,3335.1976,N,11951.7147,W,1,09,0.8,9.3,M,-34.9,M,,*51
$PYRTM,2024,122.420761265845,13.530408675995
$GPGGA,100552.00,3335.1984,N,11951.7173,W,1,09,0.8,9.1,M,-34.9,M,,*5A
$PYRTM,2024,122.420772848947,13.530420259086
$GPGGA,100553.00,3335.1992,N,11951.7199,W,1,09,0.8,6.5,M,-34.9,M,,*53
$PYRTM,2024,122.420784417153,13.530431827292
$GPGGA,100554.00,3335.1998,N,11951.7221,W,1,09,0.8,6.6,M,-34.9,M,,*5D
$PYRTM,2024,122.420796001667,13.530443411806
$GPGGA,100555.00,3335.2004,N,11951.7245,W,1,09,0.8,7.3,M,-34.9,M,,*55
$PYRTM,2024,122.420807563345,13.530454973484
$GPGGA,100556.00,3335.2012,N,11951.7274,W,1,09,0.8,7.3,M,-34.9,M,,*53
$PYRTM,2024,122.420819150081,13.530466560220
$GPGGA,100557.00,3335.2020,N,11951.7302,W,1,09,0.8,6.8,M,-34.9,M,,*59
$PYRTM,2024,122.420830711539,13.530478121678
$GPGGA,100558.00,3335.2027,N,11951.7323,W,1,09,0.8,8.3,M,-34.9,M,,*57
$PYRTM,2024,122.420842300937,13.530489711076
$GPGGA,100559.00,3335.2034,N,11951.7344,W,1,09,0.8,9.3,M,-34.9,M,,*54
$PYRTM,2024,122.420853859086,13.530501269225
$GPGGA,100600.00,3335.2042,N,11951.7372,W,1,09,0.8,8.5,M,-34.9,M,,*58
$PYRTM,2024,122.420865451377,13.530512861516
$GPGGA,100601.00,3335.2049,N,11951.7401,W,1,09,0.8,2.7,M,-34.9,M,,*59
$PYRTM,2024,122.420877008958,13.530524419097
$GPGGA,100602.00,3335.2056,N,11951.7424,W,1,09,0.8,4.2,M,-34.9,M,,*50
$PYRTM,2024,122.420888597812,13.530536007951
$GPGGA,100603.00,3335.2063,N,11951.7443,W,1,09,0.8,6.0,M,-34.9,M,,*56
$PYRTM,2024,122.420900156227,13.530547566366
$GPGGA,100604.00,3335.2071,N,11951.7467,W,1,09,0.8,5.0,M,-34.9,M,,*57
$PYRTM,2024,122.420911742766,13.530559152905
$GPGGA,100605.00,3335.2079,N,11951.7494,W,1,09,0.8,2.6,M,-34.9,M,,*53
$PYRTM,2024,122.420923304722,13.530570714861
$GPGGA,100606.00,3335.2086,N,11951.7522,W,1,09,0.8,0.5,M,-34.9,M,,*5D
$PYRTM,2024,122.420934890949,13.530582301088
$GPGGA,100607.00,3335.2091,N,11951.7545,W,1,09,0.8,1.9,M,-34.9,M,,*56
$PYRTM,2024,122.420946453565,13.530593863704
$GPGGA,100608.00,3335.2097,N,11951.7565,W,1,09,0.8,3.2,M,-34.9,M,,*54
$PYRTM,2024,122.420958034051,13.530605444190
$GPGGA,100609.00,3335.2107,N,11951.7585,W,1,09,0.8,4.5,M,-34.9,M,,*53
$PYRTM,2024,122.420969601204,13.530617011343
$GPGGA,100610.00,3335.2117,N,11951.7611,W,1,09,0.8,0.5,M,-34.9,M,,*50
$PYRTM,2024,122.420981187095,13.530628597234
$GPGGA,100611.00,3335.2124,N,11951.7641,W,1,09,0.8,1.4,M,-34.9,M,,*54
$PYRTM,2024,122.420992749803,13.530640159942
$GPGGA,100612.00,3335.2126,N,11951.7670,W,1,09,0.8,1.1,M,-34.9,M,,*52
$PYRTM,2024,122.421004350660,13.530651760799
$GPGGA,100613.00,3335.2132,N,11951.7689,W,1,09,0.8,3.2,M,-34.9,M,,*51
$PYRTM,2024,122.421015909271,13.530663319410
$GPGGA,100614.00,3335.2143,N,11951.7709,W,1,09,0.8,3.3,M,-34.9,M,,*58
$PYRTM,2024,122.421027483646,13.530674893785
$GPGGA,100615.00,3335.2156,N,11951.7737,W,1,09,0.8,3.5,M,-34.9,M,,*56
$PYRTM,2024,122.421039057859,13.530686467998
$GPGGA,100616.00,3335.2162,N,11951.7767,W,1,09,0.8,3.2,M,-34.9,M,,*50
$PYRTM,2024,122.421050632500,13.530698042639
$GPGGA,100617.00,3335.2165,N,11951.7790,W,1,09,0.8,4.1,M,-34.9,M,,*5A
$PYRTM,2024,122.421061280660,13.530708690799
$GPGGA,100618.00,3335.2169,N,11951.7807,W,1,09,0.8,5.4,M,-34.9,M,,*5C
$PYRTM,2024,122.421074245324,13.530721655475
$GPGGA,100619.00,3335.2180,N,11951.7828,W,1,09,0.8,3.4,M,-34.9,M,,*51
$PYRTM,2024,122.421085007211,13.530732417361
$GPGGA,100620.00,3335.2191,N,11951.7854,W,1,09,0.8,0.1,M,-34.9,M,,*56
$PYRTM,2024,122.421096119294,13.530743529433
$GPGGA,100621.00,3335.2197,N,11951.7878,W,1,09,0.8,0.6,M,-34.9,M,,*58
$PYRTM,2024,122.421107230208,13.530754640347
$GPGGA,100622.00,3335.2200,N,11951.7901,W,1,09,0.8,3.0,M,-34.9,M,,*5C
$PYRTM,2024,122.421118344792,13.530765754931
$GPGGA,100623.00,3335.2206,N,11951.7923,W,1,09,0.8,4.0,M,-34.9,M,,*5C
$PYRTM,2024,122.421129447164,13.530776857303
$GPGGA,100624.00,3335.2214,N,11951.7946,W,1,09,0.8,8.4,M,-34.9,M,,*53
$PYRTM,2024,122.421140566146,13.530787976285
$GPGGA,100625.00,3335.2222,N,11951.7971,W,1,09,0.8,9.2,M,-34.9,M,,*54
$PYRTM,2024,122.421151678171,13.530799088310
$GPGGA,100626.00,3335.2227,N,11951.7999,W,1,09,0.8,8.1,M,-34.9,M,,*56
$PYRTM,2024,122.421163239884,13.530810650023
$GPGGA,100627.00,3335.2231,N,11951.8028,W,1,09,0.8,4.6,M,-34.9,M,,*57
$PYRTM,2024,122.421174347604,13.530821757743
$GPGGA,100628.00,3335.2235,N,11951.8051,W,1,09,0.8,3.4,M,-34.9,M,,*57
$PYRTM,2024,122.421185457512,13.530832867650
$GPGGA,100629.00,3335.2240,N,11951.8071,W,1,09,0.8,5.3,M,-34.9,M,,*57
$PYRTM,2024,122.421196569456,13.530843979606
$GPGGA,100630.00,3335.2250,N,11951.8095,W,1,09,0.8,5.1,M,-34.9,M,,*56
$PYRTM,2024,122.421207680845,13.530855090972
$GPGGA,100631.00,3335.2259,N,11951.8121,W,1,09,0.8,5.6,M,-34.9,M,,*57
$PYRTM,2024,122.421218913056,13.530866323194
$GPGGA,100632.00,3335.2265,N,11951.8145,W,1,09,0.8,6.9,M,-34.9,M,,*55
$PYRTM,2024,122.421230495382,13.530877905521
$GPGGA,100633.00,3335.2270,N,11951.8172,W,1,09,0.8,6.6,M,-34.9,M,,*5B
$PYRTM,2024,122.421242055208,13.530889465347
$GPGGA,100634.00,3335.2275,N,11951.8198,W,1,09,0.8,6.3,M,-34.9,M,,*58
$PYRTM,2024,122.421253642604,13.530901052743
$GPGGA,100635.00,3335.2280,N,11951.8218,W,1,09,0.8,7.8,M,-34.9,M,,*52
$PYRTM,2024,122.421265203530,13.530912613669
$GPGGA,100636.00,3335.2286,N,11951.8239,W,1,09,0.8,11.1,M,-34.9,M,,*6A
$PYRTM,2024,122.421276795359,13.530924205498
$GPGGA,100637.00,3335.2294,N,11951.8266,W,1,09,0.8,9.7,M,-34.9,M,,*5D
$PYRTM,2024,122.421288352824,13.530935762963
$GPGGA,100638.00,3335.2301,N,11951.8295,W,1,09,0.8,7.8,M,-34.9,M,,*52
$PYRTM,2024,122.421299933970,13.530947344109
$GPGGA,100639.00,3335.2307,N,11951.8318,W,1,09,0.8,9.1,M,-34.9,M,,*56
$PYRTM,2024,122.421311502477,13.530958912616
$GPGGA,100640.00,3335.2312,N,11951.8335,W,1,09,0.8,11.0,M,-34.9,M,,*6B
$PYRTM,2024,122.421323090718,13.530970500856
$GPGGA,100641.00,3335.2319,N,11951.8356,W,1,09,0.8,11.5,M,-34.9,M,,*61
$PYRTM,2024,122.421334650301,13.530982060440
$GPGGA,100642.00,3335.2329,N,11951.8383,W,1,09,0.8,4.6,M,-34.9,M,,*5E
$PYRTM,2024,122.421346240012,13.530993650150
$GPGGA,100643.00,3335.2337,N,11951.8411,W,1,09,0.8,3.4,M,-34.9,M,,*59
$PYRTM,2024,122.421357799039,13.531005209190
$GPGGA,100644.00,3335.2341,N,11951.8433,W,1,09,0.8,8.6,M,-34.9,M,,*56
$PYRTM,2024,122.421369383484,13.531016793623
$GPGGA,100645.00,3335.2347,N,11951.8455,W,1,09,0.8,8.8,M,-34.9,M,,*5F
$PYRTM,2024,122.421380944641,13.531028354780
$GPGGA,100646.00,3335.2355,N,11951.8479,W,1,09,0.8,7.1,M,-34.9,M,,*57
$PYRTM,2024,122.421392527477,13.531039937616
$GPGGA,100647.00,3335.2364,N,11951.8506,W,1,09,0.8,6.3,M,-34.9,M,,*5E
$PYRTM,2024,122.421404094363,13.531051504502
$GPGGA,100648.00,3335.2372,N,11951.8532,W,1,09,0.8,4.5,M,-34.9,M,,*55
$PYRTM,2024,122.421421000081,13.531068410220
$GPGGA,100649.00,3335.2376,N,11951.8555,W,1,09,0.8,5.5,M,-34.9,M,,*50
$PYRTM,2024,122.421432578958,13.531079989097
$GPGGA,100650.00,3335.2381,N,11951.8578,W,1,09,0.8,5.0,M,-34.9,M,,*5A
$PYRTM,2024,122.421444162546,13.531091572685
$GPGGA,100651.00,3335.2389,N,11951.8602,W,1,09,0.8,3.5,M,-34.9,M,,*5E
$PYRTM,2024,122.421455727211,13.531103137350
$GPGGA,100652.00,3335.2399,N,11951.8629,W,1,09,0.8,2.8,M,-34.9,M,,*59
$PYRTM,2024,122.421467304560,13.531114714699
$GPGGA,100653.00,3335.2405,N,11951.8656,W,1,09,0.8,1.9,M,-34.9,M,,*50
$PYRTM,2024,122.421478875336,13.531126285475
$GPGGA,100654.00,3335.2410,N,11951.8681,W,1,09,0.8,4.1,M,-34.9,M,,*54
$PYRTM,2024,122.421490449792,13.531137859931
$GPGGA,100655.00,3335.2418,N,11951.8703,W,1,09,0.8,6.8,M,-34.9,M,,*5D
$PYRTM,2024,122.421502023090,13.531149433229
$GPGGA,100656.00,3335.2428,N,11951.8728,W,1,09,0.8,9.7,M,-34.9,M,,*54
$PYRTM,2024,122.421513614525,13.531161024664
$GPGGA,100657.00,3335.2436,N,11951.8753,W,1,09,0.8,7.6,M,-34.9,M,,*59
$PYRTM,2024,122.421525171644,13.531172581782
$GPGGA,100658.00,3335.2441,N,11951.8777,W,1,09,0.8,8.1,M,-34.9,M,,*58
$PYRTM,2024,122.421536741100,13.531184151238
$GPGGA,100659.00,3335.2445,N,11951.8802,W,1,09,0.8,8.7,M,-34.9,M,,*56
$PYRTM,2024,122.421548319745,13.531195729884
$GPGGA,100700.00,3335.2452,N,11951.8828,W,1,09,0.8,7.8,M,-34.9,M,,*55
$PYRTM,2024,122.421559890266,13.531207300405
$GPGGA,100701.00,3335.2462,N,11951.8853,W,1,09,0.8,9.0,M,-34.9,M,,*5D
$PYRTM,2024,122.421571470486,13.531218880625
$GPGGA,100702.00,3335.2470,N,11951.8878,W,1,09,0.8,8.9,M,-34.9,M,,*5C
$PYRTM,2024,122.421583043368,13.531230453519
$GPGGA,100703.00,3335.2476,N,11951.8904,W,1,09,0.8,7.6,M,-34.9,M,,*51
$PYRTM,2024,122.421594611690,13.531242021829
$GPGGA,100704.00,3335.2482,N,11951.8933,W,1,09,0.8,8.5,M,-34.9,M,,*55
$PYRTM,2024,122.421606190498,13.531253600637
$GPGGA,100705.00,3335.2491,N,11951.8960,W,1,09,0.8,8.1,M,-34.9,M,,*54
$PYRTM,2024,122.421617764803,13.531265174942
$GPGGA,100706.00,3335.2502,N,11951.8985,W,1,09,0.8,6.9,M,-34.9,M,,*51
$PYRTM,2024,122.421629339907,13.531276750046
$GPGGA,100707.00,3335.2512,N,11951.9008,W,1,09,0.8,8.4,M,-34.9,M,,*5F
$PYRTM,2024,122.421640914074,13.531288324213
$GPGGA,100708.00,3335.2517,N,11951.9032,W,1,09,0.8,10.8,M,-34.9,M,,*69
$PYRTM,2024,122.421652487616,13.531299897755
$GPGGA,100709.00,3335.2522,N,11951.9058,W,1,09,0.8,10.3,M,-34.9,M,,*69
$PYRTM,2024,122.421664062500,13.531311472639
$GPGGA,100710.00,3335.2530,N,11951.9088,W,1,09,0.8,8.5,M,-34.9,M,,*50
$PYRTM,2024,122.421675635938,13.531323046076
$GPGGA,100711.00,3335.2540,N,11951.9115,W,1,09,0.8,7.7,M,-34.9,M,,*5E
$PYRTM,2024,122.421687204028,13.531334614178
$GPGGA,100712.00,3335.2548,N,11951.9138,W,1,09,0.8,8.6,M,-34.9,M,,*54
$PYRTM,2024,122.421698786609,13.531346196748
$GPGGA,100713.00,3335.2553,N,11951.9163,W,1,09,0.8,10.7,M,-34.9,M,,*69
$PYRTM,2024,122.421710360174,13.531357770312
$GPGGA,100714.00,3335.2560,N,11951.9189,W,1,09,0.8,12.5,M,-34.9,M,,*6A
$PYRTM,2024,122.421721932292,13.531369342442
$GPGGA,100715.00,3335.2567,N,11951.9216,W,1,09,0.8,9.8,M,-34.9,M,,*5E
$PYRTM,2024,122.421733507072,13.531380917211
$GPGGA,100716.00,3335.2575,N,11951.9243,W,1,09,0.8,8.6,M,-34.9,M,,*51
$PYRTM,2024,122.421745080313,13.531392490451
$GPGGA,100717.00,3335.2581,N,11951.9270,W,1,09,0.8,8.6,M,-34.9,M,,*5B
$PYRTM,2024,122.421756653970,13.531404064109
$GPGGA,100718.00,3335.2587,N,11951.9295,W,1,09,0.8,10.3,M,-34.9,M,,*65
$PYRTM,2024,122.421766840394,13.531414250532
$GPGGA,100719.00,3335.2594,N,11951.9320,W,1,09,0.8,9.4,M,-34.9,M,,*56
$PYRTM,2024,122.421778639907,13.531426050046
$GPGGA,100720.00,3335.2603,N,11951.9347,W,1,09,0.8,12.4,M,-34.9,M,,*6A
$PYRTM,2024,122.421791379988,13.531438790127
$GPGGA,100721.00,3335.2611,N,11951.9374,W,1,09,0.8,10.2,M,-34.9,M,,*6C
$PYRTM,2024,122.421802945706,13.531450355845
$GPGGA,100722.00,3335.2616,N,11951.9402,W,1,09,0.8,10.3,M,-34.9,M,,*6F
$PYRTM,2024,122.421814528275,13.531461938414
$GPGGA,100723.00,3335.2622,N,11951.9433,W,1,09,0.8,9.2,M,-34.9,M,,*52
$PYRTM,2024,122.421826099109,13.531473509248
$GPGGA,100724.00,3335.2629,N,11951.9459,W,1,09,0.8,11.1,M,-34.9,M,,*68
$PYRTM,2024,122.421837674259,13.531485084398
$GPGGA,100725.00,3335.2638,N,11951.9482,W,1,09,0.8,12.0,M,-34.9,M,,*6D
$PYRTM,2024,122.421849245058,13.531496655197
$GPGGA,100726.00,3335.2648,N,11951.9508,W,1,09,0.8,11.7,M,-34.9,M,,*6E
$PYRTM,2024,122.421861041273,13.531508451424
$GPGGA,100727.00,3335.2657,N,11951.9539,W,1,09,0.8,8.3,M,-34.9,M,,*5F
$PYRTM,2024,122.421872392940,13.531519803079
$GPGGA,100728.00,3335.2663,N,11951.9568,W,1,09,0.8,9.4,M,-34.9,M,,*55
$PYRTM,2024,122.421882799792,13.531530209931
$GPGGA,100729.00,3335.2668,N,11951.9590,W,1,09,0.8,11.0,M,-34.9,M,,*65
$PYRTM,2024,122.421895544641,13.531542954792
$GPGGA,100730.00,3335.2677,N,11951.9611,W,1,09,0.8,11.8,M,-34.9,M,,*61
$PYRTM,2024,122.421907133275,13.531554543414
$GPGGA,100731.00,3335.2688,N,11951.9638,W,1,09,0.8,9.6,M,-34.9,M,,*5C
$PYRTM,2024,122.421918691238,13.531566101377
$GPGGA,100732.00,3335.2696,N,11951.9665,W,1,09,0.8,6.0,M,-34.9,M,,*51
$PYRTM,2024,122.421930268634,13.531577678773
$GPGGA,100733.00,3335.2701,N,11951.9690,W,1,09,0.8,7.1,M,-34.9,M,,*55
$PYRTM,2024,122.421941841030,13.531589251169
$GPGGA,100734.00,3335.2706,N,11951.9715,W,1,09,0.8,11.0,M,-34.9,M,,*6F
$PYRTM,2024,122.421953414850,13.531600824988
$GPGGA,100735.00,3335.2714,N,11951.9741,W,1,09,0.8,8.7,M,-34.9,M,,*53
$PYRTM,2024,122.421964990903,13.531612401042
$GPGGA,100736.00,3335.2723,N,11951.9765,W,1,09,0.8,8.7,M,-34.9,M,,*52
$PYRTM,2024,122.421976558669,13.531623968808
$GPGGA,100737.00,3335.2731,N,11951.9788,W,1,09,0.8,10.2,M,-34.9,M,,*6F
$PYRTM,2024,122.421988125428,13.531635535567
$GPGGA,100738.00,3335.2739,N,11951.9816,W,1,09,0.8,8.2,M,-34.9,M,,*59
$PYRTM,2024,122.421999706887,13.531647117025
$GPGGA,100739.00,3335.2746,N,11951.9844,W,1,09,0.8,7.3,M,-34.9,M,,*59
$PYRTM,2024,122.422011285660,13.531658695799
$GPGGA,100740.00,3335.2753,N,11951.9869,W,1,09,0.8,8.8,M,-34.9,M,,*58
$PYRTM,2024,122.422022863796,13.531670273935
$GPGGA,100741.00,3335.2761,N,11951.9892,W,1,09,0.8,9.4,M,-34.9,M,,*51
$PYRTM,2024,122.422034421725,13.531681831863
$GPGGA,100742.00,3335.2771,N,11951.9918,W,1,09,0.8,9.6,M,-34.9,M,,*52
$PYRTM,2024,122.422046003403,13.531693413553
$GPGGA,100743.00,3335.2781,N,11951.9946,W,1,09,0.8,6.9,M,-34.9,M,,*57
$PYRTM,2024,122.422057581366,13.531704991505
$GPGGA,100744.00,3335.2787,N,11951.9972,W,1,09,0.8,10.1,M,-34.9,M,,*6E
$PYRTM,2024,122.422069152431,13.531716562569
$GPGGA,100745.00,3335.2794,N,11951.9999,W,1,09,0.8,9.9,M,-34.9,M,,*58
$PYRTM,2024,122.422080731042,13.531728141181
$GPGGA,100746.00,3335.2801,N,11952.0027,W,1,09,0.8,10.0,M,-34.9,M,,*6F
$PYRTM,2024,122.422092305521,13.531739715660
$GPGGA,100747.00,3335.2809,N,11952.0055,W,1,09,0.8,10.2,M,-34.9,M,,*61
$PYRTM,2024,122.422103878171,13.531751288310
$GPGGA,100748.00,3335.2814,N,11952.0081,W,1,09,0.8,12.1,M,-34.9,M,,*6A
$PYRTM,2024,122.422114528484,13.531761938623
$GPGGA,100749.00,3335.2821,N,11952.0108,W,1,09,0.8,12.0,M,-34.9,M,,*6C
$PYRTM,2024,122.422125869433,13.531773279572
$GPGGA,100750.00,3335.2828,N,11952.0135,W,1,09,0.8,14.8,M,-34.9,M,,*6D
$PYRTM,2024,122.422138603472,13.531786013623
$GPGGA,100751.00,3335.2836,N,11952.0161,W,1,09,0.8,13.9,M,-34.9,M,,*64
$PYRTM,2024,122.422150175116,13.531797585266
$GPGGA,100752.00,3335.2845,N,11952.0188,W,1,09,0.8,10.0,M,-34.9,M,,*6E
$PYRTM,2024,122.422161752361,13.531809162500
$GPGGA,100753.00,3335.2852,N,11952.0213,W,1,09,0.8,11.9,M,-34.9,M,,*60
$PYRTM,2024,122.422173322454,13.531820732593
$GPGGA,100754.00,3335.2858,N,11952.0238,W,1,09,0.8,11.8,M,-34.9,M,,*65
$PYRTM,2024,122.422184886632,13.531832296771
$GPGGA,100755.00,3335.2865,N,11952.0267,W,1,09,0.8,7.6,M,-34.9,M,,*59
$PYRTM,2024,122.422196472083,13.531843882222
$GPGGA,100756.00,3335.2874,N,11952.0296,W,1,09,0.8,6.9,M,-34.9,M,,*5A
$PYRTM,2024,122.422208048808,13.531855458947
$GPGGA,100757.00,3335.2881,N,11952.0321,W,1,09,0.8,9.0,M,-34.9,M,,*5A
$PYRTM,2024,122.422219621435,13.531867031574
$GPGGA,100758.00,3335.2888,N,11952.0344,W,1,09,0.8,8.2,M,-34.9,M,,*5C
$PYRTM,2024,122.422231193692,13.531878603831
$GPGGA,100759.00,3335.2896,N,11952.0371,W,1,09,0.8,6.8,M,-34.9,M,,*50
$PYRTM,2024,122.422242767951,13.531890178090
$GPGGA,100800.00,3335.2904,N,11952.0400,W,1,09,0.8,6.2,M,-34.9,M,,*52
$PYRTM,2024,122.422254341366,13.531901751505
$GPGGA,100801.00,3335.2910,N,11952.0426,W,1,09,0.8,6.8,M,-34.9,M,,*58
$PYRTM,2024,122.422265915949,13.531913326088
$GPGGA,100802.00,3335.2917,N,11952.0451,W,1,09,0.8,10.1,M,-34.9,M,,*62
$PYRTM,2024,122.422277494398,13.531924904537
$GPGGA,100803.00,3335.2926,N,11952.0476,W,1,09,0.8,12.5,M,-34.9,M,,*62
$PYRTM,2024,122.422289064051,13.531936474190
$GPGGA,100804.00,3335.2937,N,11952.0502,W,1,09,0.8,8.9,M,-34.9,M,,*50
$PYRTM,2024,122.422300626088,13.531948036227
$GPGGA,100805.00,3335.2945,N,11952.0529,W,1,09,0.8,7.7,M,-34.9,M,,*5C
$PYRTM,2024,122.422312206505,13.531959616644
$GPGGA,100806.00,3335.2952,N,11952.0556,W,1,09,0.8,8.0,M,-34.9,M,,*59
$PYRTM,2024,122.422323785984,13.531971196123
$GPGGA,100807.00,3335.2958,N,11952.0581,W,1,09,0.8,8.4,M,-34.9,M,,*5C
$PYRTM,2024,122.422335356134,13.531982766273
$GPGGA,100808.00,3335.2966,N,11952.0604,W,1,09,0.8,12.5,M,-34.9,M,,*6A
$PYRTM,2024,122.422346935984,13.531994346134
$GPGGA,100809.00,3335.2976,N,11952.0630,W,1,09,0.8,10.4,M,-34.9,M,,*6E
$PYRTM,2024,122.422358509340,13.532005919479
$GPGGA,100810.00,3335.2985,N,11952.0658,W,1,09,0.8,7.4,M,-34.9,M,,*52
$PYRTM,2024,122.422370086759,13.532017496898
$GPGGA,100811.00,3335.2992,N,11952.0683,W,1,09,0.8,8.0,M,-34.9,M,,*58
$PYRTM,2024,122.422381652280,13.532029062431
$GPGGA,100812.00,3335.2998,N,11952.0708,W,1,09,0.8,9.1,M,-34.9,M,,*53
$PYRTM,2024,122.422393233241,13.532040643391
$GPGGA,100813.00,3335.3003,N,11952.0733,W,1,09,0.8,8.7,M,-34.9,M,,*57
$PYRTM,2024,122.422404806539,13.532052216678
$GPGGA,100814.00,3335.3012,N,11952.0760,W,1,09,0.8,7.2,M,-34.9,M,,*5C
$PYRTM,2024,122.422416368160,13.532063778299
$GPGGA,100815.00,3335.3024,N,11952.0788,W,1,09,0.8,6.6,M,-34.9,M,,*5B
$PYRTM,2024,122.422427948900,13.532075359039
$GPGGA,100816.00,3335.3033,N,11952.0816,W,1,09,0.8,4.6,M,-34.9,M,,*54
$PYRTM,2024,122.422439528299,13.532086938437
$GPGGA,100817.00,3335.3038,N,11952.0841,W,1,09,0.8,6.9,M,-34.9,M,,*51
$PYRTM,2024,122.422451102292,13.532098512431
$GPGGA,100818.00,3335.3041,N,11952.0866,W,1,09,0.8,5.8,M,-34.9,M,,*57
$PYRTM,2024,122.422461287604,13.532108697743
$GPGGA,100819.00,3335.3049,N,11952.0895,W,1,09,0.8,6.0,M,-34.9,M,,*59
$PYRTM,2024,122.422473094572,13.532120504711
$GPGGA,100820.00,3335.3060,N,11952.0920,W,1,09,0.8,5.7,M,-34.9,M,,*53
$PYRTM,2024,122.422485838750,13.532133248889
$GPGGA,100821.00,3335.3068,N,11952.0941,W,1,09,0.8,9.0,M,-34.9,M,,*56
$PYRTM,2024,122.422497386238,13.532144796377
$GPGGA,100822.00,3335.3074,N,11952.0967,W,1,09,0.8,8.2,M,-34.9,M,,*5F
$PYRTM,2024,122.422507468380,13.532154878519
$GPGGA,100823.00,3335.3079,N,11952.0999,W,1,09,0.8,7.3,M,-34.9,M,,*5C
$PYRTM,2024,122.422519030544,13.532166440683
$GPGGA,100824.00,3335.3086,N,11952.1028,W,1,09,0.8,6.0,M,-34.9,M,,*5B
$PYRTM,2024,122.422530139097,13.532177549236
$GPGGA,100825.00,3335.3093,N,11952.1052,W,1,09,0.8,6.0,M,-34.9,M,,*53
$PYRTM,2024,122.422541256782,13.532188666921
$GPGGA,100826.00,3335.3100,N,11952.1072,W,1,09,0.8,6.8,M,-34.9,M,,*51
$PYRTM,2024,122.422552834132,13.532200244271
$GPGGA,100827.00,3335.3107,N,11952.1095,W,1,09,0.8,8.9,M,-34.9,M,,*51
$PYRTM,2024,122.422563951238,13.532211361377
$GPGGA,100828.00,3335.3114,N,11952.1125,W,1,09,0.8,6.1,M,-34.9,M,,*50
$PYRTM,2024,122.422575061667,13.532222471806
$GPGGA,100829.00,3335.3120,N,11952.1155,W,1,09,0.8,4.6,M,-34.9,M,,*54
$PYRTM,2024,122.422586172072,13.532233582211
$GPGGA,100830.00,3335.3124,N,11952.1181,W,1,09,0.8,5.5,M,-34.9,M,,*53
$PYRTM,2024,122.422597289942,13.532244700081
$GPGGA,100831.00,3335.3130,N,11952.1203,W,1,09,0.8,6.1,M,-34.9,M,,*59
$PYRTM,2024,122.422608510914,13.532255921053
$GPGGA,100832.00,3335.3139,N,11952.1226,W,1,09,0.8,10.6,M,-34.9,M,,*64
$PYRTM,2024,122.422626899375,13.532274309514
$GPGGA,100833.00,3335.3149,N,11952.1253,W,1,09,0.8,8.5,M,-34.9,M,,*5A
$PYRTM,2024,122.422638024965,13.532285435093
$GPGGA,100834.00,3335.3155,N,11952.1282,W,1,09,0.8,4.4,M,-34.9,M,,*51
$PYRTM,2024,122.422649124387,13.532296534525
$GPGGA,100835.00,3335.3159,N,11952.1308,W,1,09,0.8,5.2,M,-34.9,M,,*58
$PYRTM,2024,122.422660246701,13.532307656840
$GPGGA,100836.00,3335.3166,N,11952.1331,W,1,09,0.8,7.0,M,-34.9,M,,*5D
$PYRTM,2024,122.422671354016,13.532318764155
$GPGGA,100837.00,3335.3177,N,11952.1355,W,1,09,0.8,5.4,M,-34.9,M,,*58
$PYRTM,2024,122.422682468831,13.532329878970
