$PYRTM,2024,123.833344631042,14.942992041181
$GPGGA,195959.00,3443.3682,N,12111.4314,W,1,10,0.8,10.7,M,-33.2,M,,*69
$PYRTM,2024,123.833354005231,14.943001415370
$GPGGA,200000.00,3443.3695,N,12111.4330,W,1,10,0.8,8.0,M,-33.2,M,,*5D
$PYRTM,2024,123.833365593252,14.943013003391
$GPGGA,200001.00,3443.3706,N,12111.4345,W,1,10,0.8,7.6,M,-33.2,M,,*5C
$PYRTM,2024,123.833377155185,14.943024565324
$GPGGA,200002.00,3443.3715,N,12111.4354,W,1,10,0.8,7.9,M,-33.2,M,,*52
$PYRTM,2024,123.833388743669,14.943036153808
$GPGGA,200003.00,3443.3729,N,12111.4359,W,1,10,0.8,10.2,M,-33.2,M,,*6C
$PYRTM,2024,123.833400302604,14.943047712743
$GPGGA,200004.00,3443.3745,N,12111.4368,W,1,10,0.8,6.6,M,-33.2,M,,*50
$PYRTM,2024,123.833411893252,14.943059303391
$GPGGA,200005.00,3443.3759,N,12111.4380,W,1,10,0.8,8.2,M,-33.2,M,,*50
$PYRTM,2024,123.833423449861,14.943070860000
$GPGGA,200006.00,3443.3767,N,12111.4393,W,1,10,0.8,9.0,M,-33.2,M,,*5F
$PYRTM,2024,123.833435037604,14.943082447743
$GPGGA,200007.00,3443.3776,N,12111.4405,W,1,10,0.8,9.4,M,-33.2,M,,*52
$PYRTM,2024,123.833446600613,14.943094010752
$GPGGA,200008.00,3443.3790,N,12111.4416,W,1,10,0.8,7.3,M,-33.2,M,,*5E
$PYRTM,2024,123.833458181632,14.943105591771
$GPGGA,200009.00,3443.3805,N,12111.4426,W,1,10,0.8,9.2,M,-33.2,M,,*50
$PYRTM,2024,123.833470227546,14.943117637685
$GPGGA,200010.00,3443.3817,N,12111.4434,W,1,10,0.8,10.2,M,-33.2,M,,*60
$PYRTM,2024,123.833481668206,14.943129078345
$GPGGA,200011.00,3443.3829,N,12111.4442,W,1,10,0.8,10.0,M,-33.2,M,,*6F
$PYRTM,2024,123.833492896701,14.943140306840
$GPGGA,200012.00,3443.3843,N,12111.4453,W,1,10,0.8,11.2,M,-33.2,M,,*63
$PYRTM,2024,123.833504486262,14.943151896400
$GPGGA,200013.00,3443.3857,N,12111.4467,W,1,10,0.8,10.5,M,-33.2,M,,*66
$PYRTM,2024,123.833516045451,14.943163455590
$GPGGA,200014.00,3443.3869,N,12111.4477,W,1,10,0.8,9.0,M,-33.2,M,,*50
$PYRTM,2024,123.833527631169,14.943175041308
$GPGGA,200015.00,3443.3882,N,12111.4483,W,1,10,0.8,9.5,M,-33.2,M,,*5A
$PYRTM,2024,123.833539194132,14.943186604282
$GPGGA,200016.00,3443.3896,N,12111.4491,W,1,10,0.8,11.0,M,-33.2,M,,*63
$PYRTM,2024,123.833550795868,14.943198206007
$GPGGA,200017.00,3443.3911,N,12111.4501,W,1,10,0.8,10.6,M,-33.2,M,,*63
$PYRTM,2024,123.833562341806,14.943209751944
$GPGGA,200018.00,3443.3924,N,12111.4515,W,1,10,0.8,6.5,M,-33.2,M,,*5B
$PYRTM,2024,123.833573930833,14.943221340972
$GPGGA,200019.00,3443.3936,N,12111.4527,W,1,10,0.8,6.5,M,-33.2,M,,*58
$PYRTM,2024,123.833585488669,14.943232898819
$GPGGA,200020.00,3443.3949,N,12111.4532,W,1,10,0.8,8.0,M,-33.2,M,,*55
$PYRTM,2024,123.833597090671,14.943244500810
$GPGGA,200021.00,3443.3964,N,12111.4537,W,1,10,0.8,9.0,M,-33.2,M,,*5F
$PYRTM,2024,123.833608638669,14.943256048808
$GPGGA,200022.00,3443.3980,N,12111.4547,W,1,10,0.8,10.2,M,-33.2,M,,*6B
$PYRTM,2024,123.833620219618,14.943267629757
$GPGGA,200023.00,3443.3995,N,12111.4563,W,1,10,0.8,7.1,M,-33.2,M,,*5D
$PYRTM,2024,123.833631785972,14.943279196111
$GPGGA,200024.00,3443.4007,N,12111.4576,W,1,10,0.8,6.2,M,-33.2,M,,*59
$PYRTM,2024,123.833643374213,14.943290784352
$GPGGA,200025.00,3443.4018,N,12111.4581,W,1,10,0.8,6.1,M,-33.2,M,,*5D
$PYRTM,2024,123.833654935023,14.943302345162
$GPGGA,200026.00,3443.4034,N,12111.4586,W,1,10,0.8,7.3,M,-33.2,M,,*54
$PYRTM,2024,123.833666521574,14.943313931713
$GPGGA,200027.00,3443.4051,N,12111.4597,W,1,10,0.8,7.3,M,-33.2,M,,*56
$PYRTM,2024,123.833679123241,14.943326533380
$GPGGA,200028.00,3443.4065,N,12111.4610,W,1,10,0.8,5.5,M,-33.2,M,,*56
$PYRTM,2024,123.833691855602,14.943339265741
$GPGGA,200029.00,3443.4078,N,12111.4621,W,1,10,0.8,6.4,M,-33.2,M,,*5B
$PYRTM,2024,123.833701231215,14.943348641354
$GPGGA,200030.00,3443.4091,N,12111.4629,W,1,10,0.8,8.5,M,-33.2,M,,*53
$PYRTM,2024,123.833712821435,14.943360231574
$GPGGA,200031.00,3443.4107,N,12111.4638,W,1,10,0.8,6.7,M,-33.2,M,,*50
$PYRTM,2024,123.833724382326,14.943371792465
$GPGGA,200032.00,3443.4122,N,12111.4648,W,1,10,0.8,6.5,M,-33.2,M,,*51
$PYRTM,2024,123.833735961875,14.943383372014
$GPGGA,200033.00,3443.4135,N,12111.4657,W,1,10,0.8,6.6,M,-33.2,M,,*5B
$PYRTM,2024,123.833747526701,14.943394936840
$GPGGA,200034.00,3443.4146,N,12111.4665,W,1,10,0.8,8.4,M,-33.2,M,,*55
$PYRTM,2024,123.833759117488,14.943406527627
$GPGGA,200035.00,3443.4160,N,12111.4675,W,1,10,0.8,10.6,M,-33.2,M,,*6A
$PYRTM,2024,123.833770675822,14.943418085961
$GPGGA,200036.00,3443.4177,N,12111.4689,W,1,10,0.8,7.4,M,-33.2,M,,*58
$PYRTM,2024,123.833782266898,14.943429677037
$GPGGA,200037.00,3443.4192,N,12111.4700,W,1,10,0.8,7.0,M,-33.2,M,,*56
$PYRTM,2024,123.833794299792,14.943441709931
$GPGGA,200038.00,3443.4205,N,12111.4709,W,1,10,0.8,6.7,M,-33.2,M,,*5B
$PYRTM,2024,123.833805412141,14.943452822280
$GPGGA,200039.00,3443.4219,N,12111.4718,W,1,10,0.8,8.3,M,-33.2,M,,*5D
$PYRTM,2024,123.833817448611,14.943464858762
$GPGGA,200040.00,3443.4234,N,12111.4728,W,1,10,0.8,9.5,M,-33.2,M,,*58
$PYRTM,2024,123.833828562674,14.943475972813
$GPGGA,200041.00,3443.4249,N,12111.4739,W,1,10,0.8,10.5,M,-33.2,M,,*6B
$PYRTM,2024,123.833840122130,14.943487532269
$GPGGA,200042.00,3443.4263,N,12111.4750,W,1,10,0.8,9.3,M,-33.2,M,,*51
$PYRTM,2024,123.833851708542,14.943499118681
$GPGGA,200043.00,3443.4279,N,12111.4761,W,1,10,0.8,8.1,M,-33.2,M,,*5A
$PYRTM,2024,123.833863270463,14.943510680602
$GPGGA,200044.00,3443.4293,N,12111.4770,W,1,10,0.8,7.0,M,-33.2,M,,*57
$PYRTM,2024,123.833874855567,14.943522265706
$GPGGA,200045.00,3443.4306,N,12111.4779,W,1,10,0.8,7.7,M,-33.2,M,,*55
$PYRTM,2024,123.833886416933,14.943533827072
$GPGGA,200046.00,3443.4319,N,12111.4794,W,1,10,0.8,6.2,M,-33.2,M,,*5F
$PYRTM,2024,123.833898004294,14.943545414444
$GPGGA,200047.00,3443.4333,N,12111.4810,W,1,10,0.8,5.2,M,-33.2,M,,*56
$PYRTM,2024,123.833909565150,14.943556975289
$GPGGA,200048.00,3443.4348,N,12111.4820,W,1,10,0.8,5.1,M,-33.2,M,,*55
$PYRTM,2024,123.833921152338,14.943568562477
$GPGGA,200049.00,3443.4360,N,12111.4825,W,1,10,0.8,6.2,M,-33.2,M,,*5B
$PYRTM,2024,123.833932713519,14.943580123657
$GPGGA,200050.00,3443.4373,N,12111.4835,W,1,10,0.8,7.7,M,-33.2,M,,*54
$PYRTM,2024,123.833944315521,14.943591725660
$GPGGA,200051.00,3443.4388,N,12111.4851,W,1,10,0.8,4.8,M,-33.2,M,,*5F
$PYRTM,2024,123.833954936181,14.943602346319
$GPGGA,200052.00,3443.4399,N,12111.4864,W,1,10,0.8,3.6,M,-33.2,M,,*53
$PYRTM,2024,123.833967900104,14.943615310243
$GPGGA,200053.00,3443.4408,N,12111.4870,W,1,10,0.8,6.3,M,-33.2,M,,*58
$PYRTM,2024,123.833978676632,14.943626086771
$GPGGA,200054.00,3443.4422,N,12111.4878,W,1,10,0.8,9.8,M,-33.2,M,,*5B
$PYRTM,2024,123.833989788287,14.943637198426
$GPGGA,200055.00,3443.4438,N,12111.4890,W,1,10,0.8,7.0,M,-33.2,M,,*51
$PYRTM,2024,123.834000899525,14.943648309664
$GPGGA,200056.00,3443.4448,N,12111.4903,W,1,10,0.8,5.3,M,-33.2,M,,*5F
$PYRTM,2024,123.834012014074,14.943659424213
$GPGGA,200057.00,3443.4456,N,12111.4914,W,1,10,0.8,5.1,M,-33.2,M,,*55
$PYRTM,2024,123.834023121447,14.943670531597
$GPGGA,200058.00,3443.4469,N,12111.4923,W,1,10,0.8,6.4,M,-33.2,M,,*54
$PYRTM,2024,123.834037704479,14.943685114618
$GPGGA,200059.00,3443.4488,N,12111.4934,W,1,10,0.8,6.5,M,-33.2,M,,*5D
$PYRTM,2024,123.834048811794,14.943696221933
$GPGGA,200100.00,3443.4502,N,12111.4944,W,1,10,0.8,6.5,M,-33.2,M,,*54
$PYRTM,2024,123.834059930127,14.943707340266
$GPGGA,200101.00,3443.4509,N,12111.4954,W,1,10,0.8,8.2,M,-33.2,M,,*56
$PYRTM,2024,123.834071155394,14.943718565532
$GPGGA,200102.00,3443.4520,N,12111.4965,W,1,10,0.8,7.2,M,-33.2,M,,*53
$PYRTM,2024,123.834085607106,14.943733017245
$GPGGA,200103.00,3443.4536,N,12111.4978,W,1,10,0.8,8.3,M,-33.2,M,,*57
$PYRTM,2024,123.834096719826,14.943744129965
$GPGGA,200104.00,3443.4550,N,12111.4988,W,1,10,0.8,8.0,M,-33.2,M,,*5C
$PYRTM,2024,123.834107831447,14.943755241597
$GPGGA,200105.00,3443.4559,N,12111.4996,W,1,10,0.8,8.4,M,-33.2,M,,*5F
$PYRTM,2024,123.834118943171,14.943766353322
$GPGGA,200106.00,3443.4568,N,12111.5006,W,1,10,0.8,9.4,M,-33.2,M,,*5E
$PYRTM,2024,123.834130053900,14.943777464039
$GPGGA,200107.00,3443.4583,N,12111.5017,W,1,10,0.8,9.0,M,-33.2,M,,*5E
$PYRTM,2024,123.834141164398,14.943788574537
$GPGGA,200108.00,3443.4599,N,12111.5027,W,1,10,0.8,7.8,M,-33.2,M,,*5F
$PYRTM,2024,123.834152276354,14.943799686493
$GPGGA,200109.00,3443.4609,N,12111.5037,W,1,10,0.8,7.3,M,-33.2,M,,*5E
$PYRTM,2024,123.834163863634,14.943811273773
$GPGGA,200110.00,3443.4617,N,12111.5046,W,1,10,0.8,7.3,M,-33.2,M,,*5F
$PYRTM,2024,123.834174977685,14.943822387824
$GPGGA,200111.00,3443.4628,N,12111.5054,W,1,10,0.8,7.8,M,-33.2,M,,*5A
$PYRTM,2024,123.834186204155,14.943833614294
$GPGGA,200112.00,3443.4645,N,12111.5065,W,1,10,0.8,6.4,M,-33.2,M,,*5D
$PYRTM,2024,123.834197761424,14.943845171574
$GPGGA,200113.00,3443.4660,N,12111.5074,W,1,10,0.8,6.5,M,-33.2,M,,*5A
$PYRTM,2024,123.834209351493,14.943856761632
$GPGGA,200114.00,3443.4669,N,12111.5082,W,1,10,0.8,8.1,M,-33.2,M,,*57
$PYRTM,2024,123.834220909653,14.943868319803
$GPGGA,200115.00,3443.4677,N,12111.5091,W,1,10,0.8,9.3,M,-33.2,M,,*58
$PYRTM,2024,123.834232497778,14.943879907917
$GPGGA,200116.00,3443.4690,N,12111.5102,W,1,10,0.8,9.3,M,-33.2,M,,*59
$PYRTM,2024,123.834244058310,14.943891468449
$GPGGA,200117.00,3443.4705,N,12111.5112,W,1,10,0.8,8.3,M,-33.2,M,,*55
$PYRTM,2024,123.834255645718,14.943903055856
$GPGGA,200118.00,3443.4721,N,12111.5121,W,1,10,0.8,7.3,M,-33.2,M,,*53
$PYRTM,2024,123.834267207708,14.943914617847
$GPGGA,200119.00,3443.4735,N,12111.5131,W,1,10,0.8,5.2,M,-33.2,M,,*55
$PYRTM,2024,123.834278790764,14.943926200903
$GPGGA,200120.00,3443.4747,N,12111.5144,W,1,10,0.8,4.5,M,-33.2,M,,*5E
$PYRTM,2024,123.834290353843,14.943937763981
$GPGGA,200121.00,3443.4758,N,12111.5152,W,1,10,0.8,6.3,M,-33.2,M,,*52
$PYRTM,2024,123.834301938333,14.943949348484
$GPGGA,200122.00,3443.4771,N,12111.5157,W,1,10,0.8,9.3,M,-33.2,M,,*50
$PYRTM,2024,123.834313503229,14.943960913368
$GPGGA,200123.00,3443.4788,N,12111.5165,W,1,10,0.8,8.6,M,-33.2,M,,*52
$PYRTM,2024,123.834325092882,14.943972503021
$GPGGA,200124.00,3443.4802,N,12111.5178,W,1,10,0.8,8.4,M,-33.2,M,,*56
$PYRTM,2024,123.834336650463,14.943984060602
$GPGGA,200125.00,3443.4811,N,12111.5190,W,1,10,0.8,8.9,M,-33.2,M,,*5E
$PYRTM,2024,123.834348239479,14.943995649618
$GPGGA,200126.00,3443.4823,N,12111.5201,W,1,10,0.8,6.3,M,-33.2,M,,*53
$PYRTM,2024,123.834359799433,14.944007209572
$GPGGA,200127.00,3443.4840,N,12111.5209,W,1,10,0.8,6.0,M,-33.2,M,,*5C
$PYRTM,2024,123.834373009919,14.944020420069
$GPGGA,200128.00,3443.4852,N,12111.5213,W,1,10,0.8,7.3,M,-33.2,M,,*59
$PYRTM,2024,123.834384134248,14.944031544387
$GPGGA,200129.00,3443.4857,N,12111.5218,W,1,10,0.8,10.0,M,-33.2,M,,*63
$PYRTM,2024,123.834395681181,14.944043091319
$GPGGA,200130.00,3443.4867,N,12111.5231,W,1,10,0.8,8.5,M,-33.2,M,,*5F
$PYRTM,2024,123.834407270509,14.944054680648
$GPGGA,200131.00,3443.4885,N,12111.5248,W,1,10,0.8,5.8,M,-33.2,M,,*5C
$PYRTM,2024,123.834418831250,14.944066241389
$GPGGA,200132.00,3443.4902,N,12111.5260,W,1,10,0.8,5.8,M,-33.2,M,,*5B
$PYRTM,2024,123.834430416794,14.944077826933
$GPGGA,200133.00,3443.4911,N,12111.5264,W,1,10,0.8,7.1,M,-33.2,M,,*57
$PYRTM,2024,123.834441978437,14.944089388576
$GPGGA,200134.00,3443.4921,N,12111.5267,W,1,10,0.8,8.9,M,-33.2,M,,*57
$PYRTM,2024,123.834453559618,14.944100969757
$GPGGA,200135.00,3443.4934,N,12111.5276,W,1,10,0.8,8.9,M,-33.2,M,,*52
$PYRTM,2024,123.834465126505,14.944112536644
$GPGGA,200136.00,3443.4948,N,12111.5289,W,1,10,0.8,9.9,M,-33.2,M,,*5B
$PYRTM,2024,123.834476714028,14.944124124167
$GPGGA,200137.00,3443.4959,N,12111.5299,W,1,10,0.8,9.5,M,-33.2,M,,*57
$PYRTM,2024,123.834488277002,14.944135687153
$GPGGA,200138.00,3443.4968,N,12111.5308,W,1,10,0.8,9.2,M,-33.2,M,,*54
$PYRTM,2024,123.834499864722,14.944147274861
$GPGGA,200139.00,3443.4980,N,12111.5317,W,1,10,0.8,9.8,M,-33.2,M,,*57
$PYRTM,2024,123.834511784572,14.944159194722
$GPGGA,200140.00,3443.4993,N,12111.5326,W,1,10,0.8,9.9,M,-33.2,M,,*58
$PYRTM,2024,123.834523010093,14.944170420231
$GPGGA,200141.00,3443.5004,N,12111.5335,W,1,10,0.8,10.2,M,-33.2,M,,*6E
$PYRTM,2024,123.834534572234,14.944181982373
$GPGGA,200142.00,3443.5014,N,12111.5343,W,1,10,0.8,10.6,M,-33.2,M,,*69
$PYRTM,2024,123.834546160718,14.944193570868
$GPGGA,200143.00,3443.5027,N,12111.5354,W,1,10,0.8,10.7,M,-33.2,M,,*6F
$PYRTM,2024,123.834557718900,14.944205129039
$GPGGA,200144.00,3443.5040,N,12111.5364,W,1,10,0.8,8.7,M,-33.2,M,,*53
$PYRTM,2024,123.834569307824,14.944216717963
$GPGGA,200145.00,3443.5054,N,12111.5375,W,1,10,0.8,8.1,M,-33.2,M,,*51
$PYRTM,2024,123.834580867755,14.944228277894
$GPGGA,200146.00,3443.5066,N,12111.5384,W,1,10,0.8,7.7,M,-33.2,M,,*54
$PYRTM,2024,123.834592455718,14.944239865856
$GPGGA,200147.00,3443.5077,N,12111.5391,W,1,10,0.8,8.0,M,-33.2,M,,*59
$PYRTM,2024,123.834604017245,14.944251427384
$GPGGA,200148.00,3443.5089,N,12111.5398,W,1,10,0.8,8.2,M,-33.2,M,,*5C
$PYRTM,2024,123.834615603067,14.944263013206
$GPGGA,200149.00,3443.5104,N,12111.5408,W,1,10,0.8,7.9,M,-33.2,M,,*53
$PYRTM,2024,123.834627164606,14.944274574745
$GPGGA,200150.00,3443.5119,N,12111.5420,W,1,10,0.8,6.5,M,-33.2,M,,*50
$PYRTM,2024,123.834638752222,14.944286162361
$GPGGA,200151.00,3443.5130,N,12111.5431,W,1,10,0.8,6.6,M,-33.2,M,,*59
$PYRTM,2024,123.834650312859,14.944297722998
$GPGGA,200152.00,3443.5141,N,12111.5441,W,1,10,0.8,6.5,M,-33.2,M,,*58
$PYRTM,2024,123.834661903287,14.944309313426
$GPGGA,200153.00,3443.5156,N,12111.5452,W,1,10,0.8,6.9,M,-33.2,M,,*51
$PYRTM,2024,123.834673462188,14.944320872326
$GPGGA,200154.00,3443.5171,N,12111.5460,W,1,10,0.8,7.8,M,-33.2,M,,*52
$PYRTM,2024,123.834685052951,14.944332463090
$GPGGA,200155.00,3443.5183,N,12111.5466,W,1,10,0.8,9.2,M,-33.2,M,,*5C
$PYRTM,2024,123.834696609815,14.944344019954
$GPGGA,200156.00,3443.5195,N,12111.5474,W,1,10,0.8,9.5,M,-33.2,M,,*5C
$PYRTM,2024,123.834708196910,14.944355607049
$GPGGA,200157.00,3443.5208,N,12111.5487,W,1,10,0.8,7.4,M,-33.2,M,,*59
$PYRTM,2024,123.834720800660,14.944368210799
$GPGGA,200158.00,3443.5223,N,12111.5502,W,1,10,0.8,5.6,M,-33.2,M,,*53
$PYRTM,2024,123.834733531007,14.944380941146
$GPGGA,200159.00,3443.5236,N,12111.5513,W,1,10,0.8,5.0,M,-33.2,M,,*50
$PYRTM,2024,123.834742907130,14.944390317269
$GPGGA,200200.00,3443.5248,N,12111.5520,W,1,10,0.8,4.9,M,-33.2,M,,*5E
$PYRTM,2024,123.834754494063,14.944401904201
$GPGGA,200201.00,3443.5262,N,12111.5527,W,1,10,0.8,7.1,M,-33.2,M,,*5B
$PYRTM,2024,123.834766057778,14.944413467917
$GPGGA,200202.00,3443.5278,N,12111.5535,W,1,10,0.8,8.0,M,-33.2,M,,*5E
$PYRTM,2024,123.834777643160,14.944425053310
$GPGGA,200203.00,3443.5291,N,12111.5548,W,1,10,0.8,7.0,M,-33.2,M,,*5D
$PYRTM,2024,123.834789204560,14.944436614699
$GPGGA,200204.00,3443.5302,N,12111.5563,W,1,10,0.8,8.3,M,-33.2,M,,*54
$PYRTM,2024,123.834800805613,14.944448215752
$GPGGA,200205.00,3443.5314,N,12111.5576,W,1,10,0.8,6.8,M,-33.2,M,,*53
$PYRTM,2024,123.834812351331,14.944459761470
$GPGGA,200206.00,3443.5328,N,12111.5585,W,1,10,0.8,5.6,M,-33.2,M,,*5E
$PYRTM,2024,123.834823942095,14.944471352245
$GPGGA,200207.00,3443.5342,N,12111.5590,W,1,10,0.8,6.1,M,-33.2,M,,*53
$PYRTM,2024,123.834835499225,14.944482909363
$GPGGA,200208.00,3443.5355,N,12111.5598,W,1,10,0.8,6.9,M,-33.2,M,,*5A
$PYRTM,2024,123.834847088600,14.944494498738
$GPGGA,200209.00,3443.5366,N,12111.5613,W,1,10,0.8,7.9,M,-33.2,M,,*5A
$PYRTM,2024,123.834859128461,14.944506538600
$GPGGA,200210.00,3443.5377,N,12111.5629,W,1,10,0.8,8.0,M,-33.2,M,,*5D
$PYRTM,2024,123.834870235394,14.944517645532
$GPGGA,200211.00,3443.5392,N,12111.5640,W,1,10,0.8,5.3,M,-33.2,M,,*56
$PYRTM,2024,123.834881796771,14.944529206910
$GPGGA,200212.00,3443.5407,N,12111.5647,W,1,10,0.8,4.5,M,-33.2,M,,*5E
$PYRTM,2024,123.834893380127,14.944540790266
$GPGGA,200213.00,3443.5421,N,12111.5655,W,1,10,0.8,6.8,M,-33.2,M,,*57
$PYRTM,2024,123.834904945023,14.944552355162
$GPGGA,200214.00,3443.5433,N,12111.5666,W,1,10,0.8,8.3,M,-33.2,M,,*56
$PYRTM,2024,123.834916537153,14.944563947303
$GPGGA,200215.00,3443.5446,N,12111.5677,W,1,10,0.8,8.4,M,-33.2,M,,*52
$PYRTM,2024,123.834928094664,14.944575504803
$GPGGA,200216.00,3443.5462,N,12111.5689,W,1,10,0.8,6.7,M,-33.2,M,,*5B
$PYRTM,2024,123.834939680440,14.944587090579
$GPGGA,200217.00,3443.5481,N,12111.5700,W,1,10,0.8,4.5,M,-33.2,M,,*57
$PYRTM,2024,123.834951718565,14.944599128704
$GPGGA,200218.00,3443.5497,N,12111.5708,W,1,10,0.8,5.1,M,-33.2,M,,*52
$PYRTM,2024,123.834962828032,14.944610238171
$GPGGA,200219.00,3443.5507,N,12111.5715,W,1,10,0.8,6.5,M,-33.2,M,,*50
$PYRTM,2024,123.834974390775,14.944621800926
$GPGGA,200220.00,3443.5516,N,12111.5725,W,1,10,0.8,7.3,M,-33.2,M,,*5E
$PYRTM,2024,123.834985977106,14.944633387245
$GPGGA,200221.00,3443.5529,N,12111.5737,W,1,10,0.8,6.2,M,-33.2,M,,*50
$PYRTM,2024,123.834997538773,14.944644948912
$GPGGA,200222.00,3443.5548,N,12111.5747,W,1,10,0.8,3.6,M,-33.2,M,,*52
$PYRTM,2024,123.835009127674,14.944656537813
$GPGGA,200223.00,3443.5565,N,12111.5754,W,1,10,0.8,3.4,M,-33.2,M,,*5C
$PYRTM,2024,123.835020686632,14.944668096771
$GPGGA,200224.00,3443.5572,N,12111.5760,W,1,10,0.8,5.0,M,-33.2,M,,*58
$PYRTM,2024,123.835032277373,14.944679687523
$GPGGA,200225.00,3443.5578,N,12111.5773,W,1,10,0.8,6.5,M,-33.2,M,,*57
$PYRTM,2024,123.835043835498,14.944691245637
$GPGGA,200226.00,3443.5590,N,12111.5788,W,1,10,0.8,5.1,M,-33.2,M,,*51
$PYRTM,2024,123.835055421736,14.944702831875
$GPGGA,200227.00,3443.5607,N,12111.5797,W,1,10,0.8,6.5,M,-33.2,M,,*54
$PYRTM,2024,123.835068025961,14.944715436100
$GPGGA,200228.00,3443.5621,N,12111.5799,W,1,10,0.8,6.6,M,-33.2,M,,*52
$PYRTM,2024,123.835080755370,14.944728165509
$GPGGA,200229.00,3443.5634,N,12111.5807,W,1,10,0.8,5.5,M,-33.2,M,,*5F
$PYRTM,2024,123.835090132014,14.944737542153
$GPGGA,200230.00,3443.5649,N,12111.5824,W,1,10,0.8,5.9,M,-33.2,M,,*50
$PYRTM,2024,123.835101719039,14.944749129178
$GPGGA,200231.00,3443.5661,N,12111.5839,W,1,10,0.8,6.7,M,-33.2,M,,*5A
$PYRTM,2024,123.835113281076,14.944760691215
$GPGGA,200232.00,3443.5669,N,12111.5847,W,1,10,0.8,8.2,M,-33.2,M,,*53
$PYRTM,2024,123.835124867512,14.944772277650
$GPGGA,200233.00,3443.5680,N,12111.5853,W,1,10,0.8,7.3,M,-33.2,M,,*5E
$PYRTM,2024,123.835136428530,14.944783838669
$GPGGA,200234.00,3443.5698,N,12111.5863,W,1,10,0.8,7.8,M,-33.2,M,,*58
$PYRTM,2024,123.835148016053,14.944795426204
$GPGGA,200235.00,3443.5714,N,12111.5874,W,1,10,0.8,6.6,M,-33.2,M,,*55
$PYRTM,2024,123.835159575995,14.944806986134
$GPGGA,200236.00,3443.5723,N,12111.5881,W,1,10,0.8,6.8,M,-33.2,M,,*56
$PYRTM,2024,123.835171178218,14.944818588356
$GPGGA,200237.00,3443.5731,N,12111.5886,W,1,10,0.8,6.4,M,-33.2,M,,*5F
$PYRTM,2024,123.835182726725,14.944830136863
$GPGGA,200238.00,3443.5742,N,12111.5895,W,1,10,0.8,5.3,M,-33.2,M,,*52
$PYRTM,2024,123.835194315637,14.944841725775
$GPGGA,200239.00,3443.5755,N,12111.5905,W,1,10,0.8,5.3,M,-33.2,M,,*5D
$PYRTM,2024,123.835206229178,14.944853639317
$GPGGA,200240.00,3443.5769,N,12111.5911,W,1,10,0.8,4.9,M,-33.2,M,,*52
$PYRTM,2024,123.835217449352,14.944864859491
$GPGGA,200241.00,3443.5782,N,12111.5916,W,1,10,0.8,4.5,M,-33.2,M,,*5D
$PYRTM,2024,123.835229020914,14.944876431053
$GPGGA,200242.00,3443.5793,N,12111.5923,W,1,10,0.8,5.4,M,-33.2,M,,*58
$PYRTM,2024,123.835240610162,14.944888020313
$GPGGA,200243.00,3443.5803,N,12111.5932,W,1,10,0.8,5.5,M,-33.2,M,,*5E
$PYRTM,2024,123.835252171586,14.944899581725
$GPGGA,200244.00,3443.5815,N,12111.5942,W,1,10,0.8,4.0,M,-33.2,M,,*5D
$PYRTM,2024,123.835263752512,14.944911162650
$GPGGA,200245.00,3443.5829,N,12111.5948,W,1,10,0.8,3.8,M,-33.2,M,,*56
$PYRTM,2024,123.835275319028,14.944922729167
$GPGGA,200246.00,3443.5842,N,12111.5955,W,1,10,0.8,4.0,M,-33.2,M,,*5B
$PYRTM,2024,123.835286906481,14.944934316620
$GPGGA,200247.00,3443.5854,N,12111.5964,W,1,10,0.8,3.8,M,-33.2,M,,*50
$PYRTM,2024,123.835298467998,14.944945878137
$GPGGA,200248.00,3443.5865,N,12111.5973,W,1,10,0.8,3.3,M,-33.2,M,,*50
$PYRTM,2024,123.835310054931,14.944957465069
$GPGGA,200249.00,3443.5876,N,12111.5980,W,1,10,0.8,3.4,M,-33.2,M,,*58
$PYRTM,2024,123.835321616123,14.944969026262
$GPGGA,200250.00,3443.5887,N,12111.5987,W,1,10,0.8,3.7,M,-33.2,M,,*5A
$PYRTM,2024,123.835333198206,14.944980608345
$GPGGA,200251.00,3443.5900,N,12111.5998,W,1,10,0.8,4.9,M,-33.2,M,,*52
$PYRTM,2024,123.835344764051,14.944992174190
$GPGGA,200252.00,3443.5913,N,12111.6011,W,1,10,0.8,3.9,M,-33.2,M,,*5F
$PYRTM,2024,123.835356354491,14.945003764630
$GPGGA,200253.00,3443.5926,N,12111.6022,W,1,10,0.8,3.5,M,-33.2,M,,*54
$PYRTM,2024,123.835367913796,14.945015323935
$GPGGA,200254.00,3443.5937,N,12111.6031,W,1,10,0.8,3.1,M,-33.2,M,,*55
$PYRTM,2024,123.835379499155,14.945026909294
$GPGGA,200255.00,3443.5947,N,12111.6036,W,1,10,0.8,4.5,M,-33.2,M,,*57
$PYRTM,2024,123.835391061088,14.945038471227
$GPGGA,200256.00,3443.5957,N,12111.6042,W,1,10,0.8,4.9,M,-33.2,M,,*5A
$PYRTM,2024,123.835401721019,14.945049131157
$GPGGA,200257.00,3443.5971,N,12111.6056,W,1,10,0.8,4.2,M,-33.2,M,,*51
$PYRTM,2024,123.835414687303,14.945062097442
$GPGGA,200258.00,3443.5984,N,12111.6071,W,1,10,0.8,3.5,M,-33.2,M,,*51
$PYRTM,2024,123.835426606157,14.945074016308
$GPGGA,200259.00,3443.5994,N,12111.6077,W,1,10,0.8,4.5,M,-33.2,M,,*50
$PYRTM,2024,123.835437717072,14.945085127211
$GPGGA,200300.00,3443.6004,N,12111.6080,W,1,10,0.8,5.5,M,-33.2,M,,*57
$PYRTM,2024,123.835448697720,14.945096107859
$GPGGA,200301.00,3443.6019,N,12111.6089,W,1,10,0.8,6.5,M,-33.2,M,,*50
$PYRTM,2024,123.835459810243,14.945107220382
$GPGGA,200302.00,3443.6033,N,12111.6102,W,1,10,0.8,5.2,M,-33.2,M,,*5D
$PYRTM,2024,123.835470922095,14.945118332234
$GPGGA,200303.00,3443.6043,N,12111.6111,W,1,10,0.8,5.3,M,-33.2,M,,*58
$PYRTM,2024,123.835482031088,14.945129441227
$GPGGA,200304.00,3443.6051,N,12111.6117,W,1,10,0.8,5.5,M,-33.2,M,,*5C
$PYRTM,2024,123.835493144074,14.945140554213
$GPGGA,200305.00,3443.6063,N,12111.6127,W,1,10,0.8,6.6,M,-33.2,M,,*5F
$PYRTM,2024,123.835504253785,14.945151663935
$GPGGA,200306.00,3443.6080,N,12111.6139,W,1,10,0.8,2.2,M,-33.2,M,,*5E
$PYRTM,2024,123.835515257222,14.945162667361
$GPGGA,200307.00,3443.6095,N,12111.6148,W,1,10,0.8,2.0,M,-33.2,M,,*5F
$PYRTM,2024,123.835526362789,14.945173772928
$GPGGA,200308.00,3443.6105,N,12111.6153,W,1,10,0.8,4.6,M,-33.2,M,,*52
$PYRTM,2024,123.835537949375,14.945185359514
$GPGGA,200309.00,3443.6114,N,12111.6160,W,1,10,0.8,6.7,M,-33.2,M,,*50
$PYRTM,2024,123.835549061481,14.945196471620
$GPGGA,200310.00,3443.6125,N,12111.6171,W,1,10,0.8,7.4,M,-33.2,M,,*58
$PYRTM,2024,123.835560506898,14.945207917037
$GPGGA,200311.00,3443.6139,N,12111.6182,W,1,10,0.8,7.4,M,-33.2,M,,*58
$PYRTM,2024,123.835571617176,14.945219027315
$GPGGA,200312.00,3443.6155,N,12111.6190,W,1,10,0.8,3.7,M,-33.2,M,,*55
$PYRTM,2024,123.835586661516,14.945234071655
$GPGGA,200313.00,3443.6170,N,12111.6198,W,1,10,0.8,3.2,M,-33.2,M,,*5E
$PYRTM,2024,123.835597660243,14.945245070382
$GPGGA,200314.00,3443.6180,N,12111.6205,W,1,10,0.8,3.7,M,-33.2,M,,*54
$PYRTM,2024,123.835608771991,14.945256182130
$GPGGA,200315.00,3443.6187,N,12111.6217,W,1,10,0.8,5.8,M,-33.2,M,,*58
$PYRTM,2024,123.835619883056,14.945267293194
$GPGGA,200316.00,3443.6198,N,12111.6229,W,1,10,0.8,7.9,M,-33.2,M,,*5B
$PYRTM,2024,123.835630997627,14.945278407766
$GPGGA,200317.00,3443.6215,N,12111.6239,W,1,10,0.8,7.8,M,-33.2,M,,*5C
$PYRTM,2024,123.835642103843,14.945289513981
$GPGGA,200318.00,3443.6229,N,12111.6250,W,1,10,0.8,6.3,M,-33.2,M,,*59
$PYRTM,2024,123.835653216343,14.945300626493
$GPGGA,200319.00,3443.6239,N,12111.6259,W,1,10,0.8,6.4,M,-33.2,M,,*57
$PYRTM,2024,123.835664209398,14.945311619537
$GPGGA,200320.00,3443.6249,N,12111.6267,W,1,10,0.8,6.3,M,-33.2,M,,*50
$PYRTM,2024,123.835675323900,14.945322734039
$GPGGA,200321.00,3443.6262,N,12111.6275,W,1,10,0.8,6.9,M,-33.2,M,,*51
$PYRTM,2024,123.835686663507,14.945334073646
$GPGGA,200322.00,3443.6276,N,12111.6284,W,1,10,0.8,7.7,M,-33.2,M,,*56
$PYRTM,2024,123.835698253495,14.945345663634
$GPGGA,200323.00,3443.6288,N,12111.6294,W,1,10,0.8,8.1,M,-33.2,M,,*5E
$PYRTM,2024,123.835709812072,14.945357222211
$GPGGA,200324.00,3443.6301,N,12111.6305,W,1,10,0.8,7.6,M,-33.2,M,,*58
$PYRTM,2024,123.835721395417,14.945368805556
$GPGGA,200325.00,3443.6316,N,12111.6314,W,1,10,0.8,6.2,M,-33.2,M,,*5A
$PYRTM,2024,123.835732961481,14.945380371620
$GPGGA,200326.00,3443.6331,N,12111.6322,W,1,10,0.8,7.8,M,-33.2,M,,*52
$PYRTM,2024,123.835744548044,14.945391958183
$GPGGA,200327.00,3443.6343,N,12111.6329,W,1,10,0.8,8.0,M,-33.2,M,,*5A
$PYRTM,2024,123.835756107188,14.945403517326
$GPGGA,200328.00,3443.6353,N,12111.6338,W,1,10,0.8,7.8,M,-33.2,M,,*53
$PYRTM,2024,123.835771849954,14.945419260093
$GPGGA,200329.00,3443.6364,N,12111.6349,W,1,10,0.8,7.0,M,-33.2,M,,*58
$PYRTM,2024,123.835783437396,14.945430847535
$GPGGA,200330.00,3443.6379,N,12111.6358,W,1,10,0.8,8.1,M,-33.2,M,,*52
$PYRTM,2024,123.835794998160,14.945442408299
$GPGGA,200331.00,3443.6395,N,12111.6367,W,1,10,0.8,6.7,M,-33.2,M,,*55
$PYRTM,2024,123.835806586192,14.945453996331
$GPGGA,200332.00,3443.6407,N,12111.6376,W,1,10,0.8,7.2,M,-33.2,M,,*5E
$PYRTM,2024,123.835818146192,14.945465556331
$GPGGA,200333.00,3443.6415,N,12111.6387,W,1,10,0.8,7.3,M,-33.2,M,,*53
$PYRTM,2024,123.835829733704,14.945477143843
$GPGGA,200334.00,3443.6424,N,12111.6400,W,1,10,0.8,7.4,M,-33.2,M,,*59
$PYRTM,2024,123.835841293194,14.945488703333
$GPGGA,200335.00,3443.6437,N,12111.6410,W,1,10,0.8,8.8,M,-33.2,M,,*58
$PYRTM,2024,123.835852883935,14.945500294074
$GPGGA,200336.00,3443.6454,N,12111.6418,W,1,10,0.8,9.0,M,-33.2,M,,*5F
$PYRTM,2024,123.835864443067,14.945511853206
$GPGGA,200337.00,3443.6469,N,12111.6426,W,1,10,0.8,9.3,M,-33.2,M,,*5E
$PYRTM,2024,123.835876030694,14.945523440833
$GPGGA,200338.00,3443.6478,N,12111.6435,W,1,10,0.8,10.0,M,-33.2,M,,*68
$PYRTM,2024,123.835887590139,14.945535000278
$GPGGA,200339.00,3443.6488,N,12111.6445,W,1,10,0.8,7.7,M,-33.2,M,,*50
$PYRTM,2024,123.835899628958,14.945547039097
$GPGGA,200340.00,3443.6505,N,12111.6458,W,1,10,0.8,5.0,M,-33.2,M,,*53
$PYRTM,2024,123.835910738530,14.945558148669
$GPGGA,200341.00,3443.6522,N,12111.6469,W,1,10,0.8,5.1,M,-33.2,M,,*54
$PYRTM,2024,123.835922337708,14.945569747847
$GPGGA,200342.00,3443.6534,N,12111.6477,W,1,10,0.8,7.1,M,-33.2,M,,*5D
$PYRTM,2024,123.835933890463,14.945581300602
$GPGGA,200343.00,3443.6545,N,12111.6487,W,1,10,0.8,12.0,M,-33.2,M,,*60
$PYRTM,2024,123.835945475324,14.945592885463
$GPGGA,200344.00,3443.6559,N,12111.6501,W,1,10,0.8,8.0,M,-33.2,M,,*5E
$PYRTM,2024,123.835957035139,14.945604445278
$GPGGA,200345.00,3443.6574,N,12111.6513,W,1,10,0.8,6.7,M,-33.2,M,,*5A
$PYRTM,2024,123.835968634792,14.945616044931
$GPGGA,200346.00,3443.6586,N,12111.6521,W,1,10,0.8,6.9,M,-33.2,M,,*5B
$PYRTM,2024,123.835980183646,14.945627593785
$GPGGA,200347.00,3443.6597,N,12111.6530,W,1,10,0.8,8.0,M,-33.2,M,,*5D
$PYRTM,2024,123.835991772037,14.945639182176
$GPGGA,200348.00,3443.6611,N,12111.6541,W,1,10,0.8,6.9,M,-33.2,M,,*5E
$PYRTM,2024,123.836003332257,14.945650742396
$GPGGA,200349.00,3443.6625,N,12111.6550,W,1,10,0.8,9.0,M,-33.2,M,,*5E
$PYRTM,2024,123.836014915718,14.945662325856
$GPGGA,200350.00,3443.6636,N,12111.6557,W,1,10,0.8,9.2,M,-33.2,M,,*51
$PYRTM,2024,123.836026480139,14.945673890278
$GPGGA,200351.00,3443.6648,N,12111.6569,W,1,10,0.8,6.5,M,-33.2,M,,*5C
$PYRTM,2024,123.836038068970,14.945685479109
$GPGGA,200352.00,3443.6661,N,12111.6582,W,1,10,0.8,6.2,M,-33.2,M,,*56
$PYRTM,2024,123.836049628773,14.945697038912
$GPGGA,200353.00,3443.6673,N,12111.6590,W,1,10,0.8,7.7,M,-33.2,M,,*53
$PYRTM,2024,123.836061218796,14.945708628935
$GPGGA,200354.00,3443.6686,N,12111.6596,W,1,10,0.8,9.0,M,-33.2,M,,*51
$PYRTM,2024,123.836072777419,14.945720187558
$GPGGA,200355.00,3443.6700,N,12111.6605,W,1,10,0.8,7.9,M,-33.2,M,,*51
$PYRTM,2024,123.836084364884,14.945731775023
$GPGGA,200356.00,3443.6714,N,12111.6617,W,1,10,0.8,5.6,M,-33.2,M,,*59
$PYRTM,2024,123.836095925266,14.945743335405
$GPGGA,200357.00,3443.6727,N,12111.6628,W,1,10,0.8,5.3,M,-33.2,M,,*51
$PYRTM,2024,123.836109135347,14.945756545486
$GPGGA,200358.00,3443.6739,N,12111.6638,W,1,10,0.8,5.0,M,-33.2,M,,*53
$PYRTM,2024,123.836120260891,14.945767671030
$GPGGA,200359.00,3443.6754,N,12111.6648,W,1,10,0.8,3.3,M,-33.2,M,,*5B
$PYRTM,2024,123.836131807106,14.945779217245
$GPGGA,200400.00,3443.6768,N,12111.6656,W,1,10,0.8,4.7,M,-33.2,M,,*53
$PYRTM,2024,123.836143394850,14.945790804988
$GPGGA,200401.00,3443.6779,N,12111.6661,W,1,10,0.8,5.4,M,-33.2,M,,*54
$PYRTM,2024,123.836154955625,14.945802365764
$GPGGA,200402.00,3443.6790,N,12111.6668,W,1,10,0.8,6.4,M,-33.2,M,,*5A
$PYRTM,2024,123.836166542569,14.945813952708
$GPGGA,200403.00,3443.6804,N,12111.6680,W,1,10,0.8,5.4,M,-33.2,M,,*5C
$PYRTM,2024,123.836178103299,14.945825513437
$GPGGA,200404.00,3443.6819,N,12111.6696,W,1,10,0.8,1.5,M,-33.2,M,,*55
$PYRTM,2024,123.836189692454,14.945837102593
$GPGGA,200405.00,3443.6832,N,12111.6704,W,1,10,0.8,0.5,M,-33.2,M,,*56
$PYRTM,2024,123.836201252338,14.945848662477
$GPGGA,200406.00,3443.6842,N,12111.6705,W,1,10,0.8,3.1,M,-33.2,M,,*54
$PYRTM,2024,123.836212839109,14.945860249248
$GPGGA,200407.00,3443.6854,N,12111.6708,W,1,10,0.8,6.0,M,-33.2,M,,*5B
$PYRTM,2024,123.836224400243,14.945871810382
$GPGGA,200408.00,3443.6871,N,12111.6719,W,1,10,0.8,7.5,M,-33.2,M,,*57
$PYRTM,2024,123.836235990891,14.945883401030
$GPGGA,200409.00,3443.6888,N,12111.6734,W,1,10,0.8,4.6,M,-33.2,M,,*5F
$PYRTM,2024,123.836247908461,14.945895318600
$GPGGA,200410.00,3443.6898,N,12111.6743,W,1,10,0.8,4.3,M,-33.2,M,,*53
$PYRTM,2024,123.836259136366,14.945906546493
$GPGGA,200411.00,3443.6905,N,12111.6745,W,1,10,0.8,4.9,M,-33.2,M,,*5B
$PYRTM,2024,123.836270696597,14.945918106725
$GPGGA,200412.00,3443.6914,N,12111.6748,W,1,10,0.8,6.1,M,-33.2,M,,*5F
$PYRTM,2024,123.836282284491,14.945929694630
$GPGGA,200413.00,3443.6930,N,12111.6757,W,1,10,0.8,6.5,M,-33.2,M,,*52
$PYRTM,2024,123.836293846424,14.945941256562
$GPGGA,200414.00,3443.6946,N,12111.6769,W,1,10,0.8,6.1,M,-33.2,M,,*5D
$PYRTM,2024,123.836305432731,14.945952842870
$GPGGA,200415.00,3443.6956,N,12111.6775,W,1,10,0.8,5.8,M,-33.2,M,,*5A
$PYRTM,2024,123.836316995451,14.945964405590
$GPGGA,200416.00,3443.6965,N,12111.6780,W,1,10,0.8,5.7,M,-33.2,M,,*5C
$PYRTM,2024,123.836328581215,14.945975991354
$GPGGA,200417.00,3443.6976,N,12111.6789,W,1,10,0.8,4.6,M,-33.2,M,,*56
$PYRTM,2024,123.836340143056,14.945987553194
$GPGGA,200418.00,3443.6992,N,12111.6800,W,1,10,0.8,2.9,M,-33.2,M,,*54
$PYRTM,2024,123.836351724676,14.945999134815
$GPGGA,200419.00,3443.7006,N,12111.6806,W,1,10,0.8,1.8,M,-33.2,M,,*54
$PYRTM,2024,123.836363290451,14.946010700590
$GPGGA,200420.00,3443.7014,N,12111.6812,W,1,10,0.8,2.8,M,-33.2,M,,*5B
$PYRTM,2024,123.836374892303,14.946022302442
$GPGGA,200421.00,3443.7020,N,12111.6819,W,1,10,0.8,3.6,M,-33.2,M,,*59
$PYRTM,2024,123.836386437859,14.946033847998
$GPGGA,200422.00,3443.7030,N,12111.6828,W,1,10,0.8,7.3,M,-33.2,M,,*58
$PYRTM,2024,123.836398041215,14.946045451354
$GPGGA,200423.00,3443.7045,N,12111.6839,W,1,10,0.8,5.1,M,-33.2,M,,*5B
$PYRTM,2024,123.836409587049,14.946056997188
$GPGGA,200424.00,3443.7057,N,12111.6847,W,1,10,0.8,3.9,M,-33.2,M,,*58
$PYRTM,2024,123.836421174456,14.946068584595
$GPGGA,200425.00,3443.7065,N,12111.6853,W,1,10,0.8,4.8,M,-33.2,M,,*5B
$PYRTM,2024,123.836432737743,14.946080147882
$GPGGA,200426.00,3443.7074,N,12111.6861,W,1,10,0.8,4.9,M,-33.2,M,,*58
$PYRTM,2024,123.836444326262,14.946091736400
$GPGGA,200427.00,3443.7085,N,12111.6870,W,1,10,0.8,4.5,M,-33.2,M,,*5B
$PYRTM,2024,123.836456927049,14.946104337199
$GPGGA,200428.00,3443.7097,N,12111.6878,W,1,10,0.8,4.5,M,-33.2,M,,*5F
$PYRTM,2024,123.836469542407,14.946116952546
$GPGGA,200429.00,3443.7109,N,12111.6886,W,1,10,0.8,4.4,M,-33.2,M,,*58
$PYRTM,2024,123.836479032315,14.946126442454
$GPGGA,200430.00,3443.7121,N,12111.6896,W,1,10,0.8,3.8,M,-33.2,M,,*50
$PYRTM,2024,123.836490619363,14.946138029502
$GPGGA,200431.00,3443.7132,N,12111.6908,W,1,10,0.8,3.3,M,-33.2,M,,*5E
$PYRTM,2024,123.836502180324,14.946149590463
$GPGGA,200432.00,3443.7143,N,12111.6917,W,1,10,0.8,4.1,M,-33.2,M,,*50
$PYRTM,2024,123.836513767708,14.946161177847
$GPGGA,200433.00,3443.7157,N,12111.6924,W,1,10,0.8,4.8,M,-33.2,M,,*5D
$PYRTM,2024,123.836525329931,14.946172740081
$GPGGA,200434.00,3443.7172,N,12111.6933,W,1,10,0.8,6.5,M,-33.2,M,,*54
$PYRTM,2024,123.836536922685,14.946184332824
$GPGGA,200435.00,3443.7183,N,12111.6942,W,1,10,0.8,7.0,M,-33.2,M,,*59
$PYRTM,2024,123.836548476910,14.946195887049
$GPGGA,200436.00,3443.7190,N,12111.6951,W,1,10,0.8,7.0,M,-33.2,M,,*5A
$PYRTM,2024,123.836560077917,14.946207488056
$GPGGA,200437.00,3443.7202,N,12111.6961,W,1,10,0.8,6.7,M,-33.2,M,,*56
$PYRTM,2024,123.836571624641,14.946219034780
$GPGGA,200438.00,3443.7218,N,12111.6971,W,1,10,0.8,3.3,M,-33.2,M,,*52
$PYRTM,2024,123.836583200116,14.946230610255
$GPGGA,200439.00,3443.7233,N,12111.6979,W,1,10,0.8,3.1,M,-33.2,M,,*50
$PYRTM,2024,123.836595149583,14.946242559722
$GPGGA,200440.00,3443.7241,N,12111.6985,W,1,10,0.8,4.5,M,-33.2,M,,*5B
$PYRTM,2024,123.836606356748,14.946253766887
$GPGGA,200441.00,3443.7248,N,12111.6992,W,1,10,0.8,6.2,M,-33.2,M,,*50
$PYRTM,2024,123.836617922373,14.946265332512
$GPGGA,200442.00,3443.7261,N,12111.7003,W,1,10,0.8,6.5,M,-33.2,M,,*5F
$PYRTM,2024,123.836629511204,14.946276921343
$GPGGA,200443.00,3443.7277,N,12111.7014,W,1,10,0.8,6.6,M,-33.2,M,,*5C
$PYRTM,2024,123.836641070312,14.946288480451
$GPGGA,200444.00,3443.7289,N,12111.7022,W,1,10,0.8,7.0,M,-33.2,M,,*58
$PYRTM,2024,123.836652661273,14.946300071424
$GPGGA,200445.00,3443.7301,N,12111.7030,W,1,10,0.8,6.5,M,-33.2,M,,*5F
$PYRTM,2024,123.836664219248,14.946311629398
$GPGGA,200446.00,3443.7313,N,12111.7042,W,1,10,0.8,5.0,M,-33.2,M,,*5C
$PYRTM,2024,123.836675809745,14.946323219884
$GPGGA,200447.00,3443.7326,N,12111.7052,W,1,10,0.8,4.9,M,-33.2,M,,*52
$PYRTM,2024,123.836687728646,14.946335138785
$GPGGA,200448.00,3443.7338,N,12111.7059,W,1,10,0.8,5.5,M,-33.2,M,,*54
$PYRTM,2024,123.836698957951,14.946346368090
$GPGGA,200449.00,3443.7352,N,12111.7065,W,1,10,0.8,6.1,M,-33.2,M,,*51
$PYRTM,2024,123.836710518900,14.946357929039
$GPGGA,200450.00,3443.7367,N,12111.7076,W,1,10,0.8,6.2,M,-33.2,M,,*5E
$PYRTM,2024,123.836722103889,14.946369514028
$GPGGA,200451.00,3443.7381,N,12111.7088,W,1,10,0.8,4.8,M,-33.2,M,,*5E
$PYRTM,2024,123.836733665475,14.946381075613
$GPGGA,200452.00,3443.7394,N,12111.7100,W,1,10,0.8,4.2,M,-33.2,M,,*52
$PYRTM,2024,123.836745253090,14.946392663229
$GPGGA,200453.00,3443.7405,N,12111.7110,W,1,10,0.8,4.8,M,-33.2,M,,*57
$PYRTM,2024,123.836756814213,14.946404224363
$GPGGA,200454.00,3443.7417,N,12111.7117,W,1,10,0.8,5.9,M,-33.2,M,,*54
$PYRTM,2024,123.836768401042,14.946415811181
$GPGGA,200455.00,3443.7430,N,12111.7127,W,1,10,0.8,5.9,M,-33.2,M,,*53
$PYRTM,2024,123.836779960521,14.946427370660
$GPGGA,200456.00,3443.7447,N,12111.7140,W,1,10,0.8,6.6,M,-33.2,M,,*5D
$PYRTM,2024,123.836791548530,14.946438958669
$GPGGA,200457.00,3443.7463,N,12111.7150,W,1,10,0.8,5.8,M,-33.2,M,,*56
$PYRTM,2024,123.836804152442,14.946451562593
$GPGGA,200458.00,3443.7474,N,12111.7158,W,1,10,0.8,5.7,M,-33.2,M,,*58
$PYRTM,2024,123.836816767627,14.946464177778
$GPGGA,200459.00,3443.7483,N,12111.7168,W,1,10,0.8,5.5,M,-33.2,M,,*50
$PYRTM,2024,123.836826259711,14.946473669850
$GPGGA,200500.00,3443.7496,N,12111.7182,W,1,10,0.8,5.3,M,-33.2,M,,*5B
$PYRTM,2024,123.836837848183,14.946485258322
$GPGGA,200501.00,3443.7508,N,12111.7192,W,1,10,0.8,5.1,M,-33.2,M,,*5F
$PYRTM,2024,123.836848481146,14.946495891296
$GPGGA,200502.00,3443.7521,N,12111.7198,W,1,10,0.8,5.8,M,-33.2,M,,*54
$PYRTM,2024,123.836861443738,14.946508853889
$GPGGA,200503.00,3443.7535,N,12111.7205,W,1,10,0.8,4.5,M,-33.2,M,,*5B
$PYRTM,2024,123.836870252199,14.946517662350
$GPGGA,200504.00,3443.7550,N,12111.7215,W,1,09,1.0,6.0,M,-33.2,M,,*58
$PYRTM,2024,123.836886803206,14.946534213345
$GPGGA,200505.00,3443.7560,N,12111.7225,W,1,09,1.0,6.2,M,-33.2,M,,*5B
$PYRTM,2024,123.836898019317,14.946545429456
$GPGGA,200506.00,3443.7569,N,12111.7236,W,1,09,1.0,7.0,M,-33.2,M,,*50
$PYRTM,2024,123.836909011898,14.946556422037
$GPGGA,200507.00,3443.7583,N,12111.7249,W,1,09,1.0,4.7,M,-33.2,M,,*59
$PYRTM,2024,123.836920122535,14.946567532674
$GPGGA,200508.00,3443.7599,N,12111.7259,W,1,09,1.0,2.3,M,-33.2,M,,*5E
$PYRTM,2024,123.836931233646,14.946578643785
$GPGGA,200509.00,3443.7610,N,12111.7266,W,1,09,1.0,2.1,M,-33.2,M,,*53
$PYRTM,2024,123.836942822130,14.946590232269
$GPGGA,200510.00,3443.7619,N,12111.7271,W,1,09,1.0,4.3,M,-33.2,M,,*50
$PYRTM,2024,123.836953933125,14.946601343264
$GPGGA,200511.00,3443.7632,N,12111.7282,W,1,09,1.0,5.9,M,-33.2,M,,*5F
$PYRTM,2024,123.836965045556,14.946612455694
$GPGGA,200512.00,3443.7647,N,12111.7295,W,1,09,1.0,2.8,M,-33.2,M,,*5E
$PYRTM,2024,123.836976155451,14.946623565590
$GPGGA,200513.00,3443.7658,N,12111.7307,W,1,09,1.0,2.4,M,-33.2,M,,*57
$PYRTM,2024,123.836987266910,14.946634677049
$GPGGA,200514.00,3443.7669,N,12111.7316,W,1,09,1.0,3.5,M,-33.2,M,,*52
$PYRTM,2024,123.837002791146,14.946650201285
$GPGGA,200515.00,3443.7682,N,12111.7323,W,1,09,1.0,5.3,M,-33.2,M,,*50
$PYRTM,2024,123.837013875637,14.946661285775
$GPGGA,200516.00,3443.7696,N,12111.7330,W,1,09,1.0,6.6,M,-33.2,M,,*52
$PYRTM,2024,123.837025002755,14.946672412894
$GPGGA,200517.00,3443.7710,N,12111.7340,W,1,09,1.0,8.1,M,-33.2,M,,*52
$PYRTM,2024,123.837036110475,14.946683520613
$GPGGA,200518.00,3443.7724,N,12111.7353,W,1,09,1.0,8.5,M,-33.2,M,,*5C
$PYRTM,2024,123.837047209919,14.946694620058
$GPGGA,200519.00,3443.7741,N,12111.7366,W,1,09,1.0,6.1,M,-33.2,M,,*52
$PYRTM,2024,123.837058346725,14.946705756863
$GPGGA,200520.00,3443.7757,N,12111.7379,W,1,09,1.0,6.6,M,-33.2,M,,*56
$PYRTM,2024,123.837069548819,14.946716958958
$GPGGA,200521.00,3443.7771,N,12111.7389,W,1,09,1.0,6.3,M,-33.2,M,,*59
$PYRTM,2024,123.837080675093,14.946728085231
$GPGGA,200522.00,3443.7782,N,12111.7395,W,1,09,1.0,6.3,M,-33.2,M,,*5B
$PYRTM,2024,123.837091783600,14.946739193738
$GPGGA,200523.00,3443.7793,N,12111.7402,W,1,09,1.0,7.8,M,-33.2,M,,*59
$PYRTM,2024,123.837102778507,14.946750188646
$GPGGA,200524.00,3443.7805,N,12111.7411,W,1,09,1.0,9.2,M,-33.2,M,,*58
$PYRTM,2024,123.837113891354,14.946761301493
$GPGGA,200525.00,3443.7821,N,12111.7423,W,1,09,1.0,7.5,M,-33.2,M,,*57
$PYRTM,2024,123.837125451539,14.946772861678
$GPGGA,200526.00,3443.7840,N,12111.7436,W,1,09,1.0,6.3,M,-33.2,M,,*50
$PYRTM,2024,123.837137042523,14.946784452662
$GPGGA,200527.00,3443.7856,N,12111.7448,W,1,09,1.0,6.1,M,-33.2,M,,*5D
$PYRTM,2024,123.837149642211,14.946797052350
$GPGGA,200528.00,3443.7866,N,12111.7457,W,1,09,1.0,6.6,M,-33.2,M,,*58
$PYRTM,2024,123.837160752975,14.946808163113
$GPGGA,200529.00,3443.7873,N,12111.7463,W,1,09,1.0,7.1,M,-33.2,M,,*5C
$PYRTM,2024,123.837172338542,14.946819748681
$GPGGA,200530.00,3443.7886,N,12111.7471,W,1,09,1.0,9.6,M,-33.2,M,,*54
$PYRTM,2024,123.837183901655,14.946831311806
$GPGGA,200531.00,3443.7905,N,12111.7484,W,1,09,1.0,7.8,M,-33.2,M,,*55
$PYRTM,2024,123.837195486227,14.946842896366
$GPGGA,200532.00,3443.7922,N,12111.7493,W,1,09,1.0,8.4,M,-33.2,M,,*56
$PYRTM,2024,123.837207048137,14.946854458275
$GPGGA,200533.00,3443.7933,N,12111.7497,W,1,09,1.0,8.3,M,-33.2,M,,*54
$PYRTM,2024,123.837218635417,14.946866045556
$GPGGA,200534.00,3443.7947,N,12111.7505,W,1,09,1.0,7.7,M,-33.2,M,,*51
$PYRTM,2024,123.837230196157,14.946877606296
$GPGGA,200535.00,3443.7964,N,12111.7518,W,1,09,1.0,5.5,M,-33.2,M,,*5D
$PYRTM,2024,123.837241787639,14.946889197778
$GPGGA,200536.00,3443.7979,N,12111.7530,W,1,09,1.0,4.6,M,-33.2,M,,*5A
$PYRTM,2024,123.837253345174,14.946900755312
$GPGGA,200537.00,3443.7991,N,12111.7534,W,1,09,1.0,5.5,M,-33.2,M,,*5B
$PYRTM,2024,123.837265382627,14.946912792766
$GPGGA,200538.00,3443.8002,N,12111.7535,W,1,09,1.0,7.2,M,-33.2,M,,*5C
$PYRTM,2024,123.837276494398,14.946923904537
$GPGGA,200539.00,3443.8015,N,12111.7542,W,1,09,1.0,6.6,M,-33.2,M,,*5E
$PYRTM,2024,123.837288530278,14.946935940417
$GPGGA,200540.00,3443.8030,N,12111.7558,W,1,09,1.0,4.8,M,-33.2,M,,*50
$PYRTM,2024,123.837299641042,14.946947051181
$GPGGA,200541.00,3443.8041,N,12111.7570,W,1,09,1.0,3.4,M,-33.2,M,,*56
$PYRTM,2024,123.837311228438,14.946958638576
$GPGGA,200542.00,3443.8050,N,12111.7576,W,1,09,1.0,4.0,M,-33.2,M,,*50
$PYRTM,2024,123.837322790961,14.946970201100
$GPGGA,200543.00,3443.8064,N,12111.7580,W,1,09,1.0,6.3,M,-33.2,M,,*5E
$PYRTM,2024,123.837334379711,14.946981789850
$GPGGA,200544.00,3443.8078,N,12111.7588,W,1,09,1.0,7.0,M,-33.2,M,,*5E
$PYRTM,2024,123.837345940046,14.946993350197
$GPGGA,200545.00,3443.8085,N,12111.7597,W,1,09,1.0,8.7,M,-33.2,M,,*5B
$PYRTM,2024,123.837357525058,14.947004935197
$GPGGA,200546.00,3443.8093,N,12111.7607,W,1,09,1.0,10.0,M,-33.2,M,,*6B
$PYRTM,2024,123.837369088530,14.947016498681
$GPGGA,200547.00,3443.8111,N,12111.7618,W,1,09,1.0,8.6,M,-33.2,M,,*50
$PYRTM,2024,123.837380676748,14.947028086887
$GPGGA,200548.00,3443.8128,N,12111.7626,W,1,09,1.0,7.5,M,-33.2,M,,*54
$PYRTM,2024,123.837392235683,14.947039645822
$GPGGA,200549.00,3443.8138,N,12111.7629,W,1,09,1.0,8.6,M,-33.2,M,,*57
$PYRTM,2024,123.837403826273,14.947051236412
$GPGGA,200550.00,3443.8146,N,12111.7637,W,1,09,1.0,10.1,M,-33.2,M,,*67
$PYRTM,2024,123.837415383148,14.947062793287
$GPGGA,200551.00,3443.8159,N,12111.7652,W,1,09,1.0,9.0,M,-33.2,M,,*52
$PYRTM,2024,123.837426975671,14.947074385822
$GPGGA,200552.00,3443.8176,N,12111.7664,W,1,09,1.0,6.8,M,-33.2,M,,*5E
$PYRTM,2024,123.837438532303,14.947085942442
$GPGGA,200553.00,3443.8189,N,12111.7666,W,1,09,1.0,7.5,M,-33.2,M,,*51
$PYRTM,2024,123.837450118958,14.947097529109
$GPGGA,200554.00,3443.8199,N,12111.7668,W,1,09,1.0,8.2,M,-33.2,M,,*51
$PYRTM,2024,123.837461680891,14.947109091030
$GPGGA,200555.00,3443.8211,N,12111.7677,W,1,09,1.0,7.4,M,-33.2,M,,*54
$PYRTM,2024,123.837473269005,14.947120679144
$GPGGA,200556.00,3443.8224,N,12111.7692,W,1,09,1.0,5.8,M,-33.2,M,,*54
$PYRTM,2024,123.837484828600,14.947132238738
$GPGGA,200557.00,3443.8234,N,12111.7704,W,1,09,1.0,5.6,M,-33.2,M,,*54
$PYRTM,2024,123.837497572951,14.947144983090
$GPGGA,200558.00,3443.8244,N,12111.7707,W,1,09,1.0,5.2,M,-33.2,M,,*5B
$PYRTM,2024,123.837509016505,14.947156426644
$GPGGA,200559.00,3443.8254,N,12111.7709,W,1,09,1.0,5.8,M,-33.2,M,,*5F
$PYRTM,2024,123.837520605637,14.947168015775
$GPGGA,200600.00,3443.8265,N,12111.7714,W,1,09,1.0,6.4,M,-33.2,M,,*51
$PYRTM,2024,123.837532164942,14.947179575081
$GPGGA,200601.00,3443.8274,N,12111.7721,W,1,09,1.0,6.9,M,-33.2,M,,*5B
$PYRTM,2024,123.837543754225,14.947191164363
$GPGGA,200602.00,3443.8286,N,12111.7732,W,1,09,1.0,7.2,M,-33.2,M,,*5D
$PYRTM,2024,123.837555315081,14.947202725231
$GPGGA,200603.00,3443.8300,N,12111.7745,W,1,09,1.0,5.6,M,-33.2,M,,*55
$PYRTM,2024,123.837566897731,14.947214307870
$GPGGA,200604.00,3443.8311,N,12111.7754,W,1,09,1.0,4.8,M,-33.2,M,,*5D
$PYRTM,2024,123.837578461817,14.947225871956
$GPGGA,200605.00,3443.8319,N,12111.7758,W,1,09,1.0,5.7,M,-33.2,M,,*56
$PYRTM,2024,123.837590050475,14.947237460613
$GPGGA,200606.00,3443.8329,N,12111.7759,W,1,09,1.0,7.5,M,-33.2,M,,*57
$PYRTM,2024,123.837601612234,14.947249022373
$GPGGA,200607.00,3443.8345,N,12111.7764,W,1,09,1.0,8.4,M,-33.2,M,,*5C
$PYRTM,2024,123.837613193484,14.947260603623
$GPGGA,200608.00,3443.8361,N,12111.7777,W,1,09,1.0,6.5,M,-33.2,M,,*58
$PYRTM,2024,123.837624760463,14.947272170602
$GPGGA,200609.00,3443.8374,N,12111.7792,W,1,09,1.0,3.8,M,-33.2,M,,*5E
$PYRTM,2024,123.837636798194,14.947284208333
$GPGGA,200610.00,3443.8383,N,12111.7799,W,1,09,1.0,3.2,M,-33.2,M,,*5F
$PYRTM,2024,123.837647909248,14.947295319387
$GPGGA,200611.00,3443.8392,N,12111.7800,W,1,09,1.0,3.0,M,-33.2,M,,*53
$PYRTM,2024,123.837659498738,14.947306908877
$GPGGA,200612.00,3443.8405,N,12111.7804,W,1,09,1.0,5.2,M,-33.2,M,,*59
$PYRTM,2024,123.837671057373,14.947318467523
$GPGGA,200613.00,3443.8419,N,12111.7814,W,1,09,1.0,4.5,M,-33.2,M,,*52
$PYRTM,2024,123.837682647535,14.947330057674
$GPGGA,200614.00,3443.8429,N,12111.7824,W,1,09,1.0,4.3,M,-33.2,M,,*53
$PYRTM,2024,123.837694205012,14.947341615150
$GPGGA,200615.00,3443.8440,N,12111.7829,W,1,09,1.0,4.7,M,-33.2,M,,*54
$PYRTM,2024,123.837705793345,14.947353203484
$GPGGA,200616.00,3443.8457,N,12111.7833,W,1,09,1.0,6.5,M,-33.2,M,,*5A
$PYRTM,2024,123.837717352824,14.947364762963
$GPGGA,200617.00,3443.8472,N,12111.7842,W,1,09,1.0,5.4,M,-33.2,M,,*58
$PYRTM,2024,123.837728941030,14.947376351169
$GPGGA,200618.00,3443.8481,N,12111.7853,W,1,09,1.0,5.1,M,-33.2,M,,*5E
$PYRTM,2024,123.837740502662,14.947387912812
$GPGGA,200619.00,3443.8487,N,12111.7863,W,1,09,1.0,6.0,M,-33.2,M,,*58
$PYRTM,2024,123.837752093715,14.947399503866
$GPGGA,200620.00,3443.8502,N,12111.7871,W,1,09,1.0,6.7,M,-33.2,M,,*5A
$PYRTM,2024,123.837763651887,14.947411062025
$GPGGA,200621.00,3443.8518,N,12111.7877,W,1,09,1.0,5.8,M,-33.2,M,,*5A
$PYRTM,2024,123.837775240509,14.947422650648
$GPGGA,200622.00,3443.8529,N,12111.7883,W,1,09,1.0,4.9,M,-33.2,M,,*50
$PYRTM,2024,123.837786798588,14.947434208727
$GPGGA,200623.00,3443.8538,N,12111.7893,W,1,09,1.0,5.2,M,-33.2,M,,*5A
$PYRTM,2024,123.837798385301,14.947445795440
$GPGGA,200624.00,3443.8550,N,12111.7902,W,1,09,1.0,5.2,M,-33.2,M,,*5A
$PYRTM,2024,123.837809947442,14.947457357581
$GPGGA,200625.00,3443.8564,N,12111.7908,W,1,09,1.0,5.7,M,-33.2,M,,*53
$PYRTM,2024,123.837821650035,14.947469060174
$GPGGA,200626.00,3443.8580,N,12111.7916,W,1,09,1.0,4.5,M,-33.2,M,,*56
$PYRTM,2024,123.837833095683,14.947480505822
$GPGGA,200627.00,3443.8594,N,12111.7926,W,1,09,1.0,3.1,M,-33.2,M,,*52
$PYRTM,2024,123.837846305903,14.947493716042
$GPGGA,200628.00,3443.8603,N,12111.7934,W,1,09,1.0,3.2,M,-33.2,M,,*50
$PYRTM,2024,123.837858458715,14.947505868866
$GPGGA,200629.00,3443.8612,N,12111.7939,W,1,09,1.0,4.6,M,-33.2,M,,*5F
$PYRTM,2024,123.837867827442,14.947515237581
$GPGGA,200630.00,3443.8625,N,12111.7944,W,1,09,1.0,5.3,M,-33.2,M,,*5D
$PYRTM,2024,123.837879507720,14.947526917859
$GPGGA,200631.00,3443.8644,N,12111.7955,W,1,09,1.0,4.9,M,-33.2,M,,*50
$PYRTM,2024,123.837891091215,14.947538501354
$GPGGA,200632.00,3443.8660,N,12111.7970,W,1,09,1.0,0.6,M,-33.2,M,,*59
$PYRTM,2024,123.837902539711,14.947549949850
$GPGGA,200633.00,3443.8667,N,12111.7978,W,1,09,1.0,0.0,M,-33.2,M,,*51
$PYRTM,2024,123.837914128125,14.947561538264
$GPGGA,200634.00,3443.8672,N,12111.7979,W,1,09,1.0,3.1,M,-33.2,M,,*51
$PYRTM,2024,123.837925688183,14.947573098322
$GPGGA,200635.00,3443.8683,N,12111.7984,W,1,09,1.0,5.1,M,-33.2,M,,*5A
$PYRTM,2024,123.837937276759,14.947584686898
$GPGGA,200636.00,3443.8698,N,12111.7996,W,1,09,1.0,6.2,M,-33.2,M,,*50
$PYRTM,2024,123.837948838322,14.947596248461
$GPGGA,200637.00,3443.8710,N,12111.8009,W,1,09,1.0,5.5,M,-33.2,M,,*54
$PYRTM,2024,123.837960424086,14.947607834225
$GPGGA,200638.00,3443.8720,N,12111.8018,W,1,09,1.0,6.3,M,-33.2,M,,*5D
$PYRTM,2024,123.837971985012,14.947619395162
$GPGGA,200639.00,3443.8731,N,12111.8024,W,1,09,1.0,6.4,M,-33.2,M,,*54
$PYRTM,2024,123.837984023866,14.947631434005
$GPGGA,200640.00,3443.8743,N,12111.8035,W,1,09,1.0,6.8,M,-33.2,M,,*53
$PYRTM,2024,123.837995134780,14.947642544919
$GPGGA,200641.00,3443.8756,N,12111.8047,W,1,09,1.0,6.2,M,-33.2,M,,*59
$PYRTM,2024,123.838006735648,14.947654145787
$GPGGA,200642.00,3443.8767,N,12111.8054,W,1,09,1.0,6.2,M,-33.2,M,,*5A
$PYRTM,2024,123.838018282153,14.947665692292
$GPGGA,200643.00,3443.8779,N,12111.8060,W,1,09,1.0,6.3,M,-33.2,M,,*52
$PYRTM,2024,123.838029865486,14.947677275625
$GPGGA,200644.00,3443.8794,N,12111.8068,W,1,09,1.0,6.4,M,-33.2,M,,*59
$PYRTM,2024,123.838041431817,14.947688841956
$GPGGA,200645.00,3443.8809,N,12111.8078,W,1,09,1.0,6.2,M,-33.2,M,,*54
$PYRTM,2024,123.838053018183,14.947700428322
$GPGGA,200646.00,3443.8820,N,12111.8087,W,1,09,1.0,5.3,M,-33.2,M,,*5E
$PYRTM,2024,123.838064578553,14.947711988692
$GPGGA,200647.00,3443.8832,N,12111.8095,W,1,09,1.0,4.7,M,-33.2,M,,*5A
$PYRTM,2024,123.838076282384,14.947723692523
$GPGGA,200648.00,3443.8848,N,12111.8103,W,1,09,1.0,6.3,M,-33.2,M,,*50
$PYRTM,2024,123.838087840359,14.947735250498
$GPGGA,200649.00,3443.8863,N,12111.8113,W,1,09,1.0,6.9,M,-33.2,M,,*53
$PYRTM,2024,123.838099313113,14.947746723252
$GPGGA,200650.00,3443.8874,N,12111.8123,W,1,09,1.0,6.0,M,-33.2,M,,*57
$PYRTM,2024,123.838110874977,14.947758285116
$GPGGA,200651.00,3443.8885,N,12111.8133,W,1,09,1.0,5.0,M,-33.2,M,,*5A
$PYRTM,2024,123.838122578819,14.947769988958
$GPGGA,200652.00,3443.8899,N,12111.8143,W,1,09,1.0,4.6,M,-33.2,M,,*54
$PYRTM,2024,123.838134023681,14.947781433819
$GPGGA,200653.00,3443.8913,N,12111.8150,W,1,09,1.0,5.6,M,-33.2,M,,*55
$PYRTM,2024,123.838145610694,14.947793020833
$GPGGA,200654.00,3443.8925,N,12111.8157,W,1,09,1.0,5.9,M,-33.2,M,,*5F
$PYRTM,2024,123.838157171273,14.947804581412
$GPGGA,200655.00,3443.8939,N,12111.8166,W,1,09,1.0,6.0,M,-33.2,M,,*5B
$PYRTM,2024,123.838168874491,14.947816284630
$GPGGA,200656.00,3443.8953,N,12111.8177,W,1,09,1.0,7.1,M,-33.2,M,,*54
$PYRTM,2024,123.838180435822,14.947827845961
$GPGGA,200657.00,3443.8966,N,12111.8190,W,1,09,1.0,5.7,M,-33.2,M,,*5E
$PYRTM,2024,123.838193051389,14.947840461528
$GPGGA,200658.00,3443.8979,N,12111.8199,W,1,09,1.0,4.8,M,-33.2,M,,*58
$PYRTM,2024,123.838205668507,14.947853078657
$GPGGA,200659.00,3443.8992,N,12111.8204,W,1,09,1.0,5.3,M,-33.2,M,,*51
$PYRTM,2024,123.838215172627,14.947862582766
$GPGGA,200700.00,3443.9007,N,12111.8209,W,1,09,1.0,7.5,M,-33.2,M,,*51
$PYRTM,2024,123.838226730532,14.947874140671
$GPGGA,200701.00,3443.9025,N,12111.8220,W,1,09,1.0,5.8,M,-33.2,M,,*54
$PYRTM,2024,123.838238320729,14.947885730868
$GPGGA,200702.00,3443.9038,N,12111.8235,W,1,09,1.0,5.5,M,-33.2,M,,*52
$PYRTM,2024,123.838249880174,14.947897290312
$GPGGA,200703.00,3443.9046,N,12111.8248,W,1,09,1.0,5.3,M,-33.2,M,,*56
$PYRTM,2024,123.838261463333,14.947908873472
$GPGGA,200704.00,3443.9058,N,12111.8257,W,1,09,1.0,6.4,M,-33.2,M,,*54
$PYRTM,2024,123.838273028380,14.947920438519
$GPGGA,200705.00,3443.9076,N,12111.8263,W,1,09,1.0,6.0,M,-33.2,M,,*5A
$PYRTM,2024,123.838284616678,14.947932026817
$GPGGA,200706.00,3443.9092,N,12111.8271,W,1,09,1.0,5.9,M,-33.2,M,,*5A
$PYRTM,2024,123.838295250903,14.947942661042
$GPGGA,200707.00,3443.9104,N,12111.8280,W,1,09,1.0,5.6,M,-33.2,M,,*54
$PYRTM,2024,123.838308214676,14.947955624815
$GPGGA,200708.00,3443.9115,N,12111.8292,W,1,09,1.0,3.1,M,-33.2,M,,*59
$PYRTM,2024,123.838318990787,14.947966400926
$GPGGA,200709.00,3443.9127,N,12111.8305,W,1,09,1.0,3.0,M,-33.2,M,,*57
$PYRTM,2024,123.838330103924,14.947977514062
$GPGGA,200710.00,3443.9140,N,12111.8314,W,1,09,1.0,3.4,M,-33.2,M,,*5A
$PYRTM,2024,123.838341678113,14.947989088252
$GPGGA,200711.00,3443.9153,N,12111.8321,W,1,09,1.0,3.5,M,-33.2,M,,*5E
$PYRTM,2024,123.838352789687,14.948000199826
$GPGGA,200712.00,3443.9169,N,12111.8329,W,1,09,1.0,3.5,M,-33.2,M,,*5C
$PYRTM,2024,123.838363899595,14.948011309734
$GPGGA,200713.00,3443.9182,N,12111.8340,W,1,09,1.0,4.5,M,-33.2,M,,*50
$PYRTM,2024,123.838375011424,14.948022421574
$GPGGA,200714.00,3443.9193,N,12111.8350,W,1,09,1.0,4.3,M,-33.2,M,,*50
$PYRTM,2024,123.838386137882,14.948033548021
$GPGGA,200715.00,3443.9204,N,12111.8358,W,1,09,1.0,4.5,M,-33.2,M,,*52
$PYRTM,2024,123.838397234074,14.948044644213
$GPGGA,200716.00,3443.9219,N,12111.8369,W,1,09,1.0,3.0,M,-33.2,M,,*5D
$PYRTM,2024,123.838408348889,14.948055759028
$GPGGA,200717.00,3443.9234,N,12111.8380,W,1,09,1.0,2.1,M,-33.2,M,,*54
$PYRTM,2024,123.838419458958,14.948066869097
$GPGGA,200718.00,3443.9243,N,12111.8387,W,1,09,1.0,3.6,M,-33.2,M,,*5A
$PYRTM,2024,123.838431025255,14.948078435394
$GPGGA,200719.00,3443.9254,N,12111.8392,W,1,09,1.0,5.1,M,-33.2,M,,*58
$PYRTM,2024,123.838442137095,14.948089547234
$GPGGA,200720.00,3443.9269,N,12111.8403,W,1,09,1.0,5.2,M,-33.2,M,,*50
$PYRTM,2024,123.838458101030,14.948105511169
$GPGGA,200721.00,3443.9283,N,12111.8416,W,1,09,1.0,4.9,M,-33.1,M,,*58
$PYRTM,2024,123.838469212546,14.948116622685
$GPGGA,200722.00,3443.9293,N,12111.8428,W,1,09,1.0,5.2,M,-33.1,M,,*5D
$PYRTM,2024,123.838480437801,14.948127847951
$GPGGA,200723.00,3443.9306,N,12111.8439,W,1,09,1.0,8.0,M,-33.1,M,,*5E
$PYRTM,2024,123.838491548067,14.948138958206
$GPGGA,200724.00,3443.9322,N,12111.8448,W,1,09,1.0,8.3,M,-33.1,M,,*5A
$PYRTM,2024,123.838502659919,14.948150070058
$GPGGA,200725.00,3443.9336,N,12111.8454,W,1,09,1.0,7.9,M,-33.1,M,,*56
$PYRTM,2024,123.838513771667,14.948161181806
$GPGGA,200726.00,3443.9349,N,12111.8465,W,1,09,1.0,9.2,M,-33.1,M,,*5A
$PYRTM,2024,123.838524882720,14.948172292859
$GPGGA,200727.00,3443.9364,N,12111.8480,W,1,09,1.0,6.4,M,-33.1,M,,*56
$PYRTM,2024,123.838535994051,14.948183404190
$GPGGA,200728.00,3443.9377,N,12111.8491,W,1,09,1.0,6.3,M,-33.1,M,,*5C
$PYRTM,2024,123.838550578519,14.948197988657
$GPGGA,200729.00,3443.9387,N,12111.8496,W,1,09,1.0,6.3,M,-33.1,M,,*55
$PYRTM,2024,123.838561690799,14.948209100949
$GPGGA,200730.00,3443.9398,N,12111.8501,W,1,09,1.0,7.1,M,-33.1,M,,*5F
$PYRTM,2024,123.838572802616,14.948220212755
$GPGGA,200731.00,3443.9413,N,12111.8513,W,1,09,1.0,5.6,M,-33.1,M,,*5C
$PYRTM,2024,123.838584387963,14.948231798102
$GPGGA,200732.00,3443.9430,N,12111.8530,W,1,09,1.0,3.0,M,-33.1,M,,*5F
$PYRTM,2024,123.838595950706,14.948243360856
$GPGGA,200733.00,3443.9444,N,12111.8543,W,1,09,1.0,1.0,M,-33.1,M,,*5B
$PYRTM,2024,123.838607537894,14.948254948032
$GPGGA,200734.00,3443.9456,N,12111.8547,W,1,09,1.0,2.4,M,-33.1,M,,*5C
$PYRTM,2024,123.838619098218,14.948266508356
$GPGGA,200735.00,3443.9469,N,12111.8551,W,1,09,1.0,3.6,M,-33.1,M,,*55
$PYRTM,2024,123.838630686574,14.948278096713
$GPGGA,200736.00,3443.9484,N,12111.8562,W,1,09,1.0,4.7,M,-33.1,M,,*53
$PYRTM,2024,123.838642247500,14.948289657639
$GPGGA,200737.00,3443.9499,N,12111.8578,W,1,09,1.0,4.2,M,-33.1,M,,*50
$PYRTM,2024,123.838653848484,14.948301258623
$GPGGA,200738.00,3443.9511,N,12111.8586,W,1,09,1.0,5.3,M,-33.1,M,,*5F
$PYRTM,2024,123.838665393970,14.948312804120
$GPGGA,200739.00,3443.9523,N,12111.8590,W,1,09,1.0,5.1,M,-33.1,M,,*5A
$PYRTM,2024,123.838677430961,14.948324841100
$GPGGA,200740.00,3443.9540,N,12111.8597,W,1,09,1.0,5.2,M,-33.1,M,,*55
$PYRTM,2024,123.838688544468,14.948335954618
$GPGGA,200741.00,3443.9554,N,12111.8609,W,1,09,1.0,4.4,M,-33.1,M,,*52
$PYRTM,2024,123.838700129421,14.948347539560
$GPGGA,200742.00,3443.9562,N,12111.8620,W,1,09,1.0,4.6,M,-33.1,M,,*5D
$PYRTM,2024,123.838711691343,14.948359101481
$GPGGA,200743.00,3443.9570,N,12111.8627,W,1,09,1.0,5.6,M,-33.1,M,,*59
$PYRTM,2024,123.838723279074,14.948370689213
$GPGGA,200744.00,3443.9585,N,12111.8635,W,1,09,1.0,6.4,M,-33.1,M,,*56
$PYRTM,2024,123.838734838854,14.948382248993
$GPGGA,200745.00,3443.9606,N,12111.8645,W,1,09,1.0,4.9,M,-33.1,M,,*57
$PYRTM,2024,123.838746429363,14.948393839502
$GPGGA,200746.00,3443.9621,N,12111.8656,W,1,09,1.0,4.5,M,-33.1,M,,*5F
$PYRTM,2024,123.838757989387,14.948405399525
$GPGGA,200747.00,3443.9628,N,12111.8664,W,1,09,1.0,4.8,M,-33.1,M,,*5B
$PYRTM,2024,123.838769578866,14.948416989005
$GPGGA,200748.00,3443.9636,N,12111.8673,W,1,09,1.0,5.4,M,-33.1,M,,*50
$PYRTM,2024,123.838781136852,14.948428546991
$GPGGA,200749.00,3443.9650,N,12111.8683,W,1,09,1.0,6.1,M,-33.1,M,,*58
$PYRTM,2024,123.838792723241,14.948440133380
$GPGGA,200750.00,3443.9668,N,12111.8696,W,1,09,1.0,5.2,M,-33.1,M,,*5F
$PYRTM,2024,123.838804285162,14.948451695301
$GPGGA,200751.00,3443.9684,N,12111.8705,W,1,09,1.0,4.6,M,-33.1,M,,*52
$PYRTM,2024,123.838815870613,14.948463280752
$GPGGA,200752.00,3443.9690,N,12111.8709,W,1,09,1.0,4.4,M,-33.1,M,,*5A
$PYRTM,2024,123.838827433322,14.948474843461
$GPGGA,200753.00,3443.9692,N,12111.8712,W,1,09,1.0,5.5,M,-33.1,M,,*53
$PYRTM,2024,123.838839019954,14.948486430093
$GPGGA,200754.00,3443.9706,N,12111.8724,W,1,09,1.0,6.2,M,-33.1,M,,*59
$PYRTM,2024,123.838850580926,14.948497991065
$GPGGA,200755.00,3443.9727,N,12111.8742,W,1,09,1.0,2.0,M,-33.1,M,,*5D
$PYRTM,2024,123.838862167766,14.948509577917
$GPGGA,200756.00,3443.9740,N,12111.8753,W,1,09,1.0,2.1,M,-33.1,M,,*5E
$PYRTM,2024,123.838873729734,14.948521139873
$GPGGA,200757.00,3443.9748,N,12111.8756,W,1,08,1.0,4.1,M,-33.1,M,,*55
$PYRTM,2024,123.838886476007,14.948533886146
$GPGGA,200758.00,3443.9754,N,12111.8759,W,1,08,1.0,5.4,M,-33.1,M,,*5C
$PYRTM,2024,123.838897919826,14.948545329965
$GPGGA,200759.00,3443.9763,N,12111.8768,W,1,08,1.0,8.0,M,-33.1,M,,*52
$PYRTM,2024,123.838909506470,14.948556916620
$GPGGA,200800.00,3443.9775,N,12111.8782,W,1,08,1.0,5.6,M,-33.1,M,,*59
$PYRTM,2024,123.838921067870,14.948568478009
$GPGGA,200801.00,3443.9789,N,12111.8792,W,1,08,1.0,3.1,M,-33.1,M,,*5B
$PYRTM,2024,123.838932657361,14.948580067500
$GPGGA,200802.00,3443.9799,N,12111.8794,W,1,08,1.0,3.4,M,-33.1,M,,*5A
$PYRTM,2024,123.838944216389,14.948591626528
$GPGGA,200803.00,3443.9802,N,12111.8796,W,1,08,1.0,4.5,M,-33.1,M,,*52
$PYRTM,2024,123.838955818310,14.948603228449
$GPGGA,200804.00,3443.9806,N,12111.8806,W,1,08,1.0,5.5,M,-33.1,M,,*56
$PYRTM,2024,123.838967366458,14.948614776597
$GPGGA,200805.00,3443.9815,N,12111.8820,W,1,08,1.0,4.8,M,-33.1,M,,*5D
$PYRTM,2024,123.838978954433,14.948626364572
$GPGGA,200806.00,3443.9829,N,12111.8829,W,1,08,1.0,0.6,M,-33.1,M,,*52
$PYRTM,2024,123.838990512315,14.948637922454
$GPGGA,200807.00,3443.9841,N,12111.8833,W,1,08,1.0,2.9,M,-33.1,M,,*5B
$PYRTM,2024,123.839002549699,14.948649959838
$GPGGA,200808.00,3443.9849,N,12111.8836,W,1,08,1.0,3.5,M,-33.1,M,,*54
$PYRTM,2024,123.839013661817,14.948661071956
$GPGGA,200809.00,3443.9856,N,12111.8848,W,1,08,1.0,3.5,M,-33.1,M,,*52
$PYRTM,2024,123.839025697338,14.948673107477
$GPGGA,200810.00,3443.9866,N,12111.8862,W,1,08,1.0,3.6,M,-33.1,M,,*52
$PYRTM,2024,123.839036810463,14.948684220602
$GPGGA,200811.00,3443.9879,N,12111.8871,W,1,08,1.0,3.7,M,-33.1,M,,*5E
$PYRTM,2024,123.839048398519,14.948695808657
$GPGGA,200812.00,3443.9892,N,12111.8874,W,1,08,1.0,3.2,M,-33.1,M,,*58
$PYRTM,2024,123.839059957674,14.948707367813
$GPGGA,200813.00,3443.9904,N,12111.8881,W,1,08,1.0,3.0,M,-33.1,M,,*5F
$PYRTM,2024,123.839071545590,14.948718955741
$GPGGA,200814.00,3443.9914,N,12111.8893,W,1,08,1.0,4.0,M,-33.1,M,,*5D
$PYRTM,2024,123.839083105475,14.948730515613
$GPGGA,200815.00,3443.9926,N,12111.8903,W,1,08,1.0,3.8,M,-33.1,M,,*5A
$PYRTM,2024,123.839094697280,14.948742107431
$GPGGA,200816.00,3443.9939,N,12111.8912,W,1,08,1.0,3.7,M,-33.1,M,,*58
$PYRTM,2024,123.839106254352,14.948753664491
$GPGGA,200817.00,3443.9953,N,12111.8921,W,1,08,1.0,3.4,M,-33.1,M,,*56
$PYRTM,2024,123.839117842847,14.948765252998
$GPGGA,200818.00,3443.9965,N,12111.8931,W,1,08,1.0,3.4,M,-33.1,M,,*5D
$PYRTM,2024,123.839129403935,14.948776814086
$GPGGA,200819.00,3443.9976,N,12111.8942,W,1,08,1.0,3.0,M,-33.1,M,,*5E
$PYRTM,2024,123.839140990162,14.948788400301
$GPGGA,200820.00,3443.9988,N,12111.8952,W,1,08,1.0,3.2,M,-33.1,M,,*56
$PYRTM,2024,123.839152552384,14.948799962523
$GPGGA,200821.00,3444.0000,N,12111.8958,W,1,08,1.0,3.1,M,-33.1,M,,*59
$PYRTM,2024,123.839164138889,14.948811549039
$GPGGA,200822.00,3444.0014,N,12111.8967,W,1,08,1.0,2.9,M,-33.1,M,,*5A
$PYRTM,2024,123.839175700000,14.948823110139
$GPGGA,200823.00,3444.0030,N,12111.8979,W,1,08,1.0,2.9,M,-33.1,M,,*52
$PYRTM,2024,123.839187402882,14.948834813021
$GPGGA,200824.00,3444.0045,N,12111.8993,W,1,08,1.0,2.5,M,-33.1,M,,*5F
$PYRTM,2024,123.839198848368,14.948846258507
$GPGGA,200825.00,3444.0055,N,12111.9003,W,1,08,1.0,3.7,M,-33.1,M,,*5D
$PYRTM,2024,123.839210449653,14.948857859792
$GPGGA,200826.00,3444.0064,N,12111.9005,W,1,08,1.0,5.8,M,-33.1,M,,*53
$PYRTM,2024,123.839221997905,14.948869408044
$GPGGA,200827.00,3444.0082,N,12111.9009,W,1,08,1.0,7.7,M,-33.1,M,,*5B
$PYRTM,2024,123.839234728808,14.948882138958
$GPGGA,200828.00,3444.0101,N,12111.9021,W,1,08,1.0,8.1,M,-33.1,M,,*5D
$PYRTM,2024,123.839247459178,14.948894869317
$GPGGA,200829.00,3444.0114,N,12111.9038,W,1,08,1.0,7.1,M,-33.1,M,,*5F
$PYRTM,2024,123.839256726875,14.948904137014
$GPGGA,200830.00,3444.0122,N,12111.9050,W,1,08,1.0,7.1,M,-33.1,M,,*5C
$PYRTM,2024,123.839268293704,14.948915703843
$GPGGA,200831.00,3444.0134,N,12111.9053,W,1,08,1.0,7.4,M,-33.1,M,,*5C
$PYRTM,2024,123.839279996505,14.948927406644
$GPGGA,200832.00,3444.0151,N,12111.9056,W,1,08,1.0,9.3,M,-33.1,M,,*50
$PYRTM,2024,123.839291556609,14.948938966759
$GPGGA,200833.00,3444.0166,N,12111.9065,W,1,08,1.0,9.1,M,-33.1,M,,*57
$PYRTM,2024,123.839303143553,14.948950553692
$GPGGA,200834.00,3444.0178,N,12111.9079,W,1,08,1.0,6.7,M,-33.1,M,,*5B
$PYRTM,2024,123.839314704595,14.948962114734
$GPGGA,200835.00,3444.0191,N,12111.9088,W,1,08,1.0,7.5,M,-33.1,M,,*50
$PYRTM,2024,123.839326190613,14.948973600752
$GPGGA,200836.00,3444.0204,N,12111.9090,W,1,08,1.0,7.2,M,-33.1,M,,*52
$PYRTM,2024,123.839337737164,14.948985147292
$GPGGA,200837.00,3444.0216,N,12111.9091,W,1,08,1.0,7.9,M,-33.1,M,,*5A
$PYRTM,2024,123.839349440637,14.948996850775
$GPGGA,200838.00,3444.0229,N,12111.9104,W,1,08,1.0,8.2,M,-33.1,M,,*50
$PYRTM,2024,123.839361001551,14.949008411690
$GPGGA,200839.00,3444.0243,N,12111.9123,W,1,08,1.0,6.8,M,-33.1,M,,*5C
$PYRTM,2024,123.839372924514,14.949020334653
