$PYRTM,2024,123.333341882118,14.442989292257
$GPGGA,075959.00,3413.1027,N,12018.5071,W,1,09,0.8,4.0,M,-33.7,M,,*5E
$PYRTM,2024,123.333353442326,14.443000852465
$GPGGA,080000.00,3413.1024,N,12018.5081,W,1,09,0.8,2.3,M,-33.7,M,,*58
$PYRTM,2024,123.333365028657,14.443012438796
$GPGGA,080001.00,3413.1020,N,12018.5098,W,1,09,0.8,4.6,M,-33.7,M,,*56
$PYRTM,2024,123.333376590139,14.443024000278
$GPGGA,080002.00,3413.1018,N,12018.5118,W,1,09,0.8,5.0,M,-33.7,M,,*50
$PYRTM,2024,123.333388177095,14.443035587245
$GPGGA,080003.00,3413.1021,N,12018.5136,W,1,09,0.8,2.9,M,-33.7,M,,*59
$PYRTM,2024,123.333399737882,14.443047148032
$GPGGA,080004.00,3413.1023,N,12018.5151,W,1,09,0.8,2.8,M,-33.7,M,,*5C
$PYRTM,2024,123.333411319919,14.443058730058
$GPGGA,080005.00,3413.1020,N,12018.5163,W,1,09,0.8,5.5,M,-33.7,M,,*55
$PYRTM,2024,123.333423000914,14.443070411053
$GPGGA,080006.00,3413.1014,N,12018.5177,W,1,09,0.8,10.1,M,-33.7,M,,*64
$PYRTM,2024,123.333435620660,14.443083030799
$GPGGA,080007.00,3413.1012,N,12018.5196,W,1,09,0.8,8.9,M,-33.7,M,,*5D
$PYRTM,2024,123.333448234664,14.443095644803
$GPGGA,080008.00,3413.1013,N,12018.5213,W,1,09,0.8,8.6,M,-33.7,M,,*52
$PYRTM,2024,123.333456710116,14.443104120255
$GPGGA,080009.00,3413.1014,N,12018.5227,W,1,09,0.8,7.3,M,-33.7,M,,*59
$PYRTM,2024,123.333469774340,14.443117184479
$GPGGA,080010.00,3413.1013,N,12018.5241,W,1,09,0.8,7.6,M,-33.7,M,,*53
$PYRTM,2024,123.333478557488,14.443125967627
$GPGGA,080011.00,3413.1012,N,12018.5257,W,1,09,0.8,7.2,M,-33.7,M,,*50
$PYRTM,2024,123.333495111192,14.443142521331
$GPGGA,080012.00,3413.1012,N,12018.5271,W,1,09,0.8,6.3,M,-33.7,M,,*57
$PYRTM,2024,123.333506219583,14.443153629722
$GPGGA,080013.00,3413.1010,N,12018.5284,W,1,09,0.8,6.3,M,-33.7,M,,*5E
$PYRTM,2024,123.333517332130,14.443164742269
$GPGGA,080014.00,3413.1009,N,12018.5300,W,1,09,0.8,7.4,M,-33.7,M,,*5A
$PYRTM,2024,123.333528328090,14.443175738229
$GPGGA,080015.00,3413.1009,N,12018.5317,W,1,09,0.8,7.2,M,-33.7,M,,*5B
$PYRTM,2024,123.333539437813,14.443186847951
$GPGGA,080016.00,3413.1010,N,12018.5329,W,1,09,0.8,6.8,M,-33.7,M,,*56
$PYRTM,2024,123.333550549688,14.443197959826
$GPGGA,080017.00,3413.1007,N,12018.5340,W,1,09,0.8,6.4,M,-33.7,M,,*52
$PYRTM,2024,123.333561659259,14.443209069398
$GPGGA,080018.00,3413.1008,N,12018.5355,W,1,09,0.8,6.5,M,-33.7,M,,*57
$PYRTM,2024,123.333572772917,14.443220183056
$GPGGA,080019.00,3413.1008,N,12018.5371,W,1,09,0.8,6.4,M,-33.7,M,,*51
$PYRTM,2024,123.333583882431,14.443231292569
$GPGGA,080020.00,3413.1007,N,12018.5385,W,1,09,0.8,6.1,M,-33.7,M,,*5A
$PYRTM,2024,123.333598362616,14.443245772755
$GPGGA,080021.00,3413.1006,N,12018.5397,W,1,09,0.8,6.6,M,-33.7,M,,*5E
$PYRTM,2024,123.333609461933,14.443256872072
$GPGGA,080022.00,3413.1005,N,12018.5411,W,1,09,0.8,7.1,M,-33.7,M,,*51
$PYRTM,2024,123.333620919965,14.443268330104
$GPGGA,080023.00,3413.1006,N,12018.5424,W,1,09,0.8,6.7,M,-33.7,M,,*52
$PYRTM,2024,123.333632030856,14.443279440995
$GPGGA,080024.00,3413.1007,N,12018.5440,W,1,09,0.8,6.3,M,-33.7,M,,*52
$PYRTM,2024,123.333643142072,14.443290552211
$GPGGA,080025.00,3413.1008,N,12018.5456,W,1,09,0.8,6.0,M,-33.7,M,,*58
$PYRTM,2024,123.333654252928,14.443301663067
$GPGGA,080026.00,3413.1007,N,12018.5472,W,1,09,0.8,6.3,M,-33.7,M,,*51
$PYRTM,2024,123.333665364676,14.443312774815
$GPGGA,080027.00,3413.1005,N,12018.5488,W,1,09,0.8,5.8,M,-33.7,M,,*5F
$PYRTM,2024,123.333676475729,14.443323885868
$GPGGA,080028.00,3413.1003,N,12018.5505,W,1,09,0.8,7.1,M,-33.7,M,,*59
$PYRTM,2024,123.333687483993,14.443334894144
$GPGGA,080029.00,3413.1006,N,12018.5523,W,1,09,0.8,6.0,M,-33.7,M,,*59
$PYRTM,2024,123.333698926817,14.443346336956
$GPGGA,080030.00,3413.1008,N,12018.5540,W,1,09,0.8,5.6,M,-33.7,M,,*5F
$PYRTM,2024,123.333710514583,14.443357924722
$GPGGA,080031.00,3413.1005,N,12018.5557,W,1,09,0.8,5.8,M,-33.7,M,,*5B
$PYRTM,2024,123.333722075949,14.443369486088
$GPGGA,080032.00,3413.1002,N,12018.5574,W,1,09,0.8,6.3,M,-33.7,M,,*56
$PYRTM,2024,123.333733663715,14.443381073854
$GPGGA,080033.00,3413.1001,N,12018.5590,W,1,09,0.8,5.0,M,-33.7,M,,*5E
$PYRTM,2024,123.333745223692,14.443392633831
$GPGGA,080034.00,3413.1004,N,12018.5603,W,1,09,0.8,4.0,M,-33.7,M,,*54
$PYRTM,2024,123.333756807465,14.443404217604
$GPGGA,080035.00,3413.1006,N,12018.5617,W,1,09,0.8,4.8,M,-33.7,M,,*5A
$PYRTM,2024,123.333768373322,14.443415783472
$GPGGA,080036.00,3413.1004,N,12018.5636,W,1,09,0.8,4.6,M,-33.7,M,,*56
$PYRTM,2024,123.333781594873,14.443429005012
$GPGGA,080037.00,3413.1002,N,12018.5654,W,1,09,0.8,3.5,M,-33.7,M,,*51
$PYRTM,2024,123.333792216169,14.443439626308
$GPGGA,080038.00,3413.1002,N,12018.5665,W,1,09,0.8,4.7,M,-33.7,M,,*59
$PYRTM,2024,123.333803818056,14.443451228206
$GPGGA,080039.00,3413.1003,N,12018.5674,W,1,09,0.8,5.8,M,-33.7,M,,*57
$PYRTM,2024,123.333815365174,14.443462775312
$GPGGA,080040.00,3413.1002,N,12018.5691,W,1,09,0.8,5.9,M,-33.7,M,,*52
$PYRTM,2024,123.333826951424,14.443474361562
$GPGGA,080041.00,3413.1000,N,12018.5713,W,1,09,0.8,4.5,M,-33.7,M,,*57
$PYRTM,2024,123.333838513519,14.443485923657
$GPGGA,080042.00,3413.1000,N,12018.5729,W,1,09,0.8,5.1,M,-33.7,M,,*58
$PYRTM,2024,123.333850100046,14.443497510185
$GPGGA,080043.00,3413.1001,N,12018.5739,W,1,09,0.8,5.0,M,-33.7,M,,*58
$PYRTM,2024,123.333861660405,14.443509070544
$GPGGA,080044.00,3413.1003,N,12018.5749,W,1,09,0.8,4.5,M,-33.7,M,,*5E
$PYRTM,2024,123.333873251076,14.443520661215
$GPGGA,080045.00,3413.1004,N,12018.5767,W,1,09,0.8,4.2,M,-33.7,M,,*53
$PYRTM,2024,123.333884808565,14.443532218704
$GPGGA,080046.00,3413.1002,N,12018.5784,W,1,09,0.8,4.2,M,-33.7,M,,*5B
$PYRTM,2024,123.333896396736,14.443543806875
$GPGGA,080047.00,3413.0999,N,12018.5798,W,1,09,0.8,3.8,M,-33.7,M,,*50
$PYRTM,2024,123.333907956632,14.443555366771
$GPGGA,080048.00,3413.1001,N,12018.5808,W,1,09,0.8,4.1,M,-33.7,M,,*5E
$PYRTM,2024,123.333919558669,14.443566968808
$GPGGA,080049.00,3413.1005,N,12018.5824,W,1,09,0.8,3.5,M,-33.7,M,,*56
$PYRTM,2024,123.333931105313,14.443578515451
$GPGGA,080050.00,3413.1006,N,12018.5839,W,1,09,0.8,4.0,M,-33.7,M,,*53
$PYRTM,2024,123.333942705741,14.443590115880
$GPGGA,080051.00,3413.1004,N,12018.5852,W,1,09,0.8,3.2,M,-33.7,M,,*58
$PYRTM,2024,123.333954252963,14.443601663102
$GPGGA,080052.00,3413.0999,N,12018.5866,W,1,09,0.8,3.2,M,-33.7,M,,*50
$PYRTM,2024,123.333966288773,14.443613698912
$GPGGA,080053.00,3413.0998,N,12018.5885,W,1,09,0.8,3.5,M,-33.7,M,,*5A
$PYRTM,2024,123.333977401713,14.443624811852
$GPGGA,080054.00,3413.1000,N,12018.5903,W,1,09,0.8,2.6,M,-33.7,M,,*59
$PYRTM,2024,123.333988988681,14.443636398819
$GPGGA,080055.00,3413.1000,N,12018.5917,W,1,09,0.8,2.0,M,-33.7,M,,*5B
$PYRTM,2024,123.334000550162,14.443647960313
$GPGGA,080056.00,3413.0998,N,12018.5928,W,1,09,0.8,1.8,M,-33.7,M,,*56
$PYRTM,2024,123.334012136887,14.443659547037
$GPGGA,080057.00,3413.0996,N,12018.5941,W,1,09,0.8,1.3,M,-33.7,M,,*5D
$PYRTM,2024,123.334023698519,14.443671108657
$GPGGA,080058.00,3413.0995,N,12018.5957,W,1,09,0.8,1.1,M,-33.7,M,,*54
$PYRTM,2024,123.334035286481,14.443682696620
$GPGGA,080059.00,3413.0997,N,12018.5975,W,1,09,0.8,0.3,M,-33.7,M,,*54
$PYRTM,2024,123.334046847257,14.443694257396
$GPGGA,080100.00,3413.0998,N,12018.5990,W,1,09,0.8,0.1,M,-33.7,M,,*5F
$PYRTM,2024,123.334058434271,14.443705844410
$GPGGA,080101.00,3413.0997,N,12018.6003,W,1,09,0.8,0.3,M,-33.7,M,,*53
$PYRTM,2024,123.334069994306,14.443717404444
$GPGGA,080102.00,3413.0997,N,12018.6019,W,1,09,0.8,0.4,M,-33.7,M,,*5C
$PYRTM,2024,123.334081581505,14.443728991644
$GPGGA,080103.00,3413.0996,N,12018.6035,W,1,09,0.8,0.7,M,-33.7,M,,*51
$PYRTM,2024,123.334093141910,14.443740552049
$GPGGA,080104.00,3413.0995,N,12018.6053,W,1,09,0.8,1.3,M,-33.7,M,,*50
$PYRTM,2024,123.334104729491,14.443752139630
$GPGGA,080105.00,3413.0995,N,12018.6073,W,1,09,0.8,0.3,M,-33.7,M,,*52
$PYRTM,2024,123.334116291563,14.443763701701
$GPGGA,080106.00,3413.0994,N,12018.6093,W,1,09,0.8,2.1,M,-33.7,M,,*5E
$PYRTM,2024,123.334128922789,14.443776332928
$GPGGA,080107.00,3413.0994,N,12018.6109,W,1,09,0.8,3.4,M,-33.7,M,,*59
$PYRTM,2024,123.334140481921,14.443787892060
$GPGGA,080108.00,3413.0993,N,12018.6122,W,1,09,0.8,4.1,M,-33.7,M,,*5A
$PYRTM,2024,123.334152081887,14.443799492014
$GPGGA,080109.00,3413.0993,N,12018.6135,W,1,09,0.8,3.9,M,-33.7,M,,*52
$PYRTM,2024,123.334163628704,14.443811038843
$GPGGA,080110.00,3413.0994,N,12018.6155,W,1,09,0.8,3.6,M,-33.7,M,,*54
$PYRTM,2024,123.334175215602,14.443822625741
$GPGGA,080111.00,3413.0993,N,12018.6174,W,1,09,0.8,2.7,M,-33.7,M,,*51
$PYRTM,2024,123.334186778090,14.443834188229
$GPGGA,080112.00,3413.0992,N,12018.6190,W,1,09,0.8,2.8,M,-33.7,M,,*56
$PYRTM,2024,123.334198367477,14.443845777616
$GPGGA,080113.00,3413.0993,N,12018.6207,W,1,09,0.8,2.5,M,-33.7,M,,*56
$PYRTM,2024,123.334209926088,14.443857336227
$GPGGA,080114.00,3413.0994,N,12018.6226,W,1,09,0.8,2.8,M,-33.7,M,,*58
$PYRTM,2024,123.334221507130,14.443868917269
$GPGGA,080115.00,3413.0995,N,12018.6244,W,1,09,0.8,3.4,M,-33.7,M,,*51
$PYRTM,2024,123.334233075243,14.443880485394
$GPGGA,080116.00,3413.0993,N,12018.6257,W,1,09,0.8,3.4,M,-33.7,M,,*56
$PYRTM,2024,123.334244656030,14.443892066169
$GPGGA,080117.00,3413.0990,N,12018.6273,W,1,09,0.8,3.8,M,-33.7,M,,*5E
$PYRTM,2024,123.334256223183,14.443903633322
$GPGGA,080118.00,3413.0988,N,12018.6293,W,1,09,0.8,3.9,M,-33.7,M,,*57
$PYRTM,2024,123.334267808565,14.443915218715
$GPGGA,080119.00,3413.0991,N,12018.6312,W,1,09,0.8,2.1,M,-33.7,M,,*5F
$PYRTM,2024,123.334279371505,14.443926781644
$GPGGA,080120.00,3413.0994,N,12018.6330,W,1,09,0.8,1.3,M,-33.7,M,,*51
$PYRTM,2024,123.334290970498,14.443938380637
$GPGGA,080121.00,3413.0994,N,12018.6344,W,1,09,0.8,1.8,M,-33.7,M,,*58
$PYRTM,2024,123.334302519282,14.443949929421
$GPGGA,080122.00,3413.0992,N,12018.6359,W,1,09,0.8,2.0,M,-33.7,M,,*5A
$PYRTM,2024,123.334314557396,14.443961967546
$GPGGA,080123.00,3413.0989,N,12018.6377,W,1,09,0.8,2.3,M,-33.7,M,,*5E
$PYRTM,2024,123.334325668137,14.443973078275
$GPGGA,080124.00,3413.0990,N,12018.6396,W,1,09,0.8,1.7,M,-33.7,M,,*59
$PYRTM,2024,123.334337256389,14.443984666528
$GPGGA,080125.00,3413.0993,N,12018.6410,W,1,09,0.8,1.2,M,-33.7,M,,*57
$PYRTM,2024,123.334348814977,14.443996225116
$GPGGA,080126.00,3413.0994,N,12018.6422,W,1,09,0.8,1.5,M,-33.7,M,,*55
$PYRTM,2024,123.334360853588,14.444008263727
$GPGGA,080127.00,3413.0992,N,12018.6437,W,1,09,0.8,1.4,M,-33.7,M,,*57
$PYRTM,2024,123.334371963090,14.444019373229
$GPGGA,080128.00,3413.0990,N,12018.6454,W,1,09,0.8,1.4,M,-33.7,M,,*5F
$PYRTM,2024,123.334383550613,14.444030960752
$GPGGA,080129.00,3413.0989,N,12018.6467,W,1,09,0.8,2.1,M,-33.7,M,,*50
$PYRTM,2024,123.334395110856,14.444042520995
$GPGGA,080130.00,3413.0990,N,12018.6480,W,1,09,0.8,2.3,M,-33.7,M,,*5B
$PYRTM,2024,123.334406697465,14.444054107604
$GPGGA,080131.00,3413.0992,N,12018.6499,W,1,09,0.8,0.7,M,-33.7,M,,*56
$PYRTM,2024,123.334418260370,14.444065670509
$GPGGA,080132.00,3413.0992,N,12018.6518,W,1,09,0.8,0.3,M,-33.7,M,,*59
$PYRTM,2024,123.334429846285,14.444077256424
$GPGGA,080133.00,3413.0990,N,12018.6533,W,1,09,0.8,1.0,M,-33.7,M,,*51
$PYRTM,2024,123.334441407488,14.444088817627
$GPGGA,080134.00,3413.0989,N,12018.6546,W,1,09,0.8,2.6,M,-33.7,M,,*59
$PYRTM,2024,123.334452997303,14.444100407454
$GPGGA,080135.00,3413.0990,N,12018.6563,W,1,09,0.8,3.5,M,-33.7,M,,*55
$PYRTM,2024,123.334464556493,14.444111966632
$GPGGA,080136.00,3413.0992,N,12018.6580,W,1,09,0.8,3.2,M,-33.7,M,,*5E
$PYRTM,2024,123.334477290116,14.444124700255
$GPGGA,080137.00,3413.0991,N,12018.6595,W,1,09,0.8,2.8,M,-33.7,M,,*53
$PYRTM,2024,123.334489905081,14.444137315220
$GPGGA,080138.00,3413.0989,N,12018.6610,W,1,09,0.8,3.3,M,-33.7,M,,*51
$PYRTM,2024,123.334499285336,14.444146695486
$GPGGA,080139.00,3413.0988,N,12018.6626,W,1,09,0.8,3.2,M,-33.7,M,,*55
$PYRTM,2024,123.334510852546,14.444158262685
$GPGGA,080140.00,3413.0986,N,12018.6642,W,1,09,0.8,4.1,M,-33.7,M,,*53
$PYRTM,2024,123.334522434896,14.444169845035
$GPGGA,080141.00,3413.0988,N,12018.6658,W,1,09,0.8,4.0,M,-33.7,M,,*56
$PYRTM,2024,123.334534002002,14.444181412141
$GPGGA,080142.00,3413.0992,N,12018.6676,W,1,09,0.8,4.7,M,-33.7,M,,*55
$PYRTM,2024,123.334545592164,14.444193002303
$GPGGA,080143.00,3413.0994,N,12018.6694,W,1,09,0.8,4.5,M,-33.7,M,,*5C
$PYRTM,2024,123.334557154201,14.444204564340
$GPGGA,080144.00,3413.0992,N,12018.6707,W,1,09,0.8,4.9,M,-33.7,M,,*5A
$PYRTM,2024,123.334568738264,14.444216148403
$GPGGA,080145.00,3413.0990,N,12018.6721,W,1,09,0.8,5.4,M,-33.7,M,,*51
$PYRTM,2024,123.334580306713,14.444227716863
$GPGGA,080146.00,3413.0991,N,12018.6739,W,1,09,0.8,7.7,M,-33.7,M,,*5B
$PYRTM,2024,123.334591895185,14.444239305324
$GPGGA,080147.00,3413.0993,N,12018.6759,W,1,09,0.8,6.9,M,-33.7,M,,*51
$PYRTM,2024,123.334603445463,14.444250855602
$GPGGA,080148.00,3413.0993,N,12018.6776,W,1,09,0.8,5.7,M,-33.7,M,,*5E
$PYRTM,2024,123.334615044988,14.444262455127
$GPGGA,080149.00,3413.0994,N,12018.6792,W,1,09,0.8,5.3,M,-33.7,M,,*56
$PYRTM,2024,123.334626594468,14.444274004606
$GPGGA,080150.00,3413.0996,N,12018.6810,W,1,09,0.8,5.5,M,-33.7,M,,*5F
$PYRTM,2024,123.334638201308,14.444285611458
$GPGGA,080151.00,3413.0999,N,12018.6826,W,1,09,0.8,5.9,M,-33.7,M,,*58
$PYRTM,2024,123.334649741701,14.444297151852
$GPGGA,080152.00,3413.0999,N,12018.6840,W,1,09,0.8,6.2,M,-33.7,M,,*53
$PYRTM,2024,123.334661778912,14.444309189051
$GPGGA,080153.00,3413.0997,N,12018.6857,W,1,09,0.8,5.8,M,-33.7,M,,*53
$PYRTM,2024,123.334672888796,14.444320298935
$GPGGA,080154.00,3413.0996,N,12018.6878,W,1,09,0.8,4.2,M,-33.7,M,,*53
$PYRTM,2024,123.334684473461,14.444331883600
$GPGGA,080155.00,3413.0996,N,12018.6895,W,1,09,0.8,3.0,M,-33.7,M,,*54
$PYRTM,2024,123.334696036389,14.444343446528
$GPGGA,080156.00,3413.0998,N,12018.6907,W,1,09,0.8,3.0,M,-33.7,M,,*53
$PYRTM,2024,123.334707626748,14.444355036887
$GPGGA,080157.00,3413.1000,N,12018.6920,W,1,09,0.8,4.0,M,-33.7,M,,*59
$PYRTM,2024,123.334719185961,14.444366596100
$GPGGA,080158.00,3413.1000,N,12018.6940,W,1,09,0.8,4.9,M,-33.7,M,,*59
$PYRTM,2024,123.334730772222,14.444378182361
$GPGGA,080159.00,3413.0999,N,12018.6961,W,1,09,0.8,4.2,M,-33.7,M,,*58
$PYRTM,2024,123.334742333669,14.444389743808
$GPGGA,080200.00,3413.0999,N,12018.6976,W,1,09,0.8,6.0,M,-33.7,M,,*51
$PYRTM,2024,123.334753921296,14.444401331435
$GPGGA,080201.00,3413.0999,N,12018.6990,W,1,09,0.8,6.5,M,-33.7,M,,*5D
$PYRTM,2024,123.334765481655,14.444412891794
$GPGGA,080202.00,3413.0999,N,12018.7006,W,1,09,0.8,6.8,M,-33.7,M,,*54
$PYRTM,2024,123.334777069792,14.444424479931
$GPGGA,080203.00,3413.0999,N,12018.7023,W,1,09,0.8,6.3,M,-33.7,M,,*59
$PYRTM,2024,123.334788631597,14.444436041736
$GPGGA,080204.00,3413.0996,N,12018.7038,W,1,09,0.8,7.3,M,-33.7,M,,*5A
$PYRTM,2024,123.334800221331,14.444447631470
$GPGGA,080205.00,3413.0995,N,12018.7053,W,1,09,0.8,7.2,M,-33.7,M,,*54
$PYRTM,2024,123.334811779340,14.444459189479
$GPGGA,080206.00,3413.0996,N,12018.7067,W,1,09,0.8,6.5,M,-33.7,M,,*55
$PYRTM,2024,123.334824511632,14.444471921782
$GPGGA,080207.00,3413.0999,N,12018.7083,W,1,09,0.8,6.0,M,-33.7,M,,*54
$PYRTM,2024,123.334837126852,14.444484536991
$GPGGA,080208.00,3413.0999,N,12018.7101,W,1,09,0.8,5.6,M,-33.7,M,,*55
$PYRTM,2024,123.334846514375,14.444493924514
$GPGGA,080209.00,3413.0995,N,12018.7119,W,1,09,0.8,6.2,M,-33.7,M,,*56
$PYRTM,2024,123.334858076019,14.444505486157
$GPGGA,080210.00,3413.0993,N,12018.7135,W,1,09,0.8,6.8,M,-33.7,M,,*5C
$PYRTM,2024,123.334869662245,14.444517072384
$GPGGA,080211.00,3413.0993,N,12018.7151,W,1,09,0.8,7.2,M,-33.7,M,,*54
$PYRTM,2024,123.334881222454,14.444528632593
$GPGGA,080212.00,3413.0994,N,12018.7171,W,1,09,0.8,7.0,M,-33.7,M,,*50
$PYRTM,2024,123.334892810475,14.444540220613
$GPGGA,080213.00,3413.0995,N,12018.7190,W,1,09,0.8,6.9,M,-33.7,M,,*57
$PYRTM,2024,123.334903447500,14.444550857639
$GPGGA,080214.00,3413.0994,N,12018.7207,W,1,09,0.8,6.5,M,-33.7,M,,*50
$PYRTM,2024,123.334916524699,14.444563934850
$GPGGA,080215.00,3413.0992,N,12018.7222,W,1,09,0.8,6.5,M,-33.7,M,,*50
$PYRTM,2024,123.334925333623,14.444572743762
$GPGGA,080216.00,3413.0991,N,12018.7237,W,1,09,0.8,6.2,M,-33.7,M,,*53
$PYRTM,2024,123.334942334444,14.444589744583
$GPGGA,080217.00,3413.0993,N,12018.7254,W,1,09,0.8,5.5,M,-33.7,M,,*51
$PYRTM,2024,123.334953331100,14.444600741238
$GPGGA,080218.00,3413.0996,N,12018.7273,W,1,09,0.8,7.1,M,-33.7,M,,*58
$PYRTM,2024,123.334964440012,14.444611850150
$GPGGA,080219.00,3413.0997,N,12018.7289,W,1,09,0.8,7.0,M,-33.7,M,,*5C
$PYRTM,2024,123.334975566354,14.444622976493
$GPGGA,080220.00,3413.0995,N,12018.7303,W,1,09,0.8,6.5,M,-33.7,M,,*53
$PYRTM,2024,123.334986665197,14.444634075347
$GPGGA,080221.00,3413.0993,N,12018.7321,W,1,09,0.8,6.6,M,-33.7,M,,*57
$PYRTM,2024,123.334997787292,14.444645197431
$GPGGA,080222.00,3413.0995,N,12018.7340,W,1,09,0.8,5.9,M,-33.7,M,,*59
$PYRTM,2024,123.335009232546,14.444656642685
$GPGGA,080223.00,3413.0996,N,12018.7355,W,1,09,0.8,5.3,M,-33.7,M,,*55
$PYRTM,2024,123.335020343611,14.444667753750
$GPGGA,080224.00,3413.0997,N,12018.7370,W,1,09,0.8,5.2,M,-33.7,M,,*55
$PYRTM,2024,123.335031454352,14.444678864491
$GPGGA,080225.00,3413.0997,N,12018.7389,W,1,09,0.8,5.2,M,-33.7,M,,*52
$PYRTM,2024,123.335042565648,14.444689975787
$GPGGA,080226.00,3413.0998,N,12018.7408,W,1,09,0.8,5.1,M,-33.7,M,,*53
$PYRTM,2024,123.335053677454,14.444701087593
$GPGGA,080227.00,3413.0995,N,12018.7423,W,1,09,0.8,6.1,M,-33.7,M,,*55
$PYRTM,2024,123.335064789653,14.444712199792
$GPGGA,080228.00,3413.0993,N,12018.7437,W,1,09,0.8,7.3,M,-33.7,M,,*5A
$PYRTM,2024,123.335076260023,14.444723670162
$GPGGA,080229.00,3413.0992,N,12018.7457,W,1,09,0.8,7.2,M,-33.7,M,,*5D
$PYRTM,2024,123.335087821319,14.444735231458
$GPGGA,080230.00,3413.0992,N,12018.7479,W,1,09,0.8,8.8,M,-33.7,M,,*5C
$PYRTM,2024,123.335099411100,14.444746821238
$GPGGA,080231.00,3413.0992,N,12018.7496,W,1,09,0.8,8.5,M,-33.7,M,,*51
$PYRTM,2024,123.335110969444,14.444758379583
$GPGGA,080232.00,3413.0991,N,12018.7510,W,1,09,0.8,7.8,M,-33.7,M,,*5C
$PYRTM,2024,123.335122560336,14.444769970475
$GPGGA,080233.00,3413.0990,N,12018.7527,W,1,09,0.8,7.8,M,-33.7,M,,*58
$PYRTM,2024,123.335134116991,14.444781527130
$GPGGA,080234.00,3413.0991,N,12018.7543,W,1,09,0.8,8.2,M,-33.7,M,,*59
$PYRTM,2024,123.335145706667,14.444793116806
$GPGGA,080235.00,3413.0991,N,12018.7558,W,1,09,0.8,8.2,M,-33.7,M,,*52
$PYRTM,2024,123.335157268368,14.444804678507
$GPGGA,080236.00,3413.0991,N,12018.7575,W,1,09,0.8,8.1,M,-33.7,M,,*5D
$PYRTM,2024,123.335170010903,14.444817421042
$GPGGA,080237.00,3413.0990,N,12018.7593,W,1,09,0.8,7.2,M,-33.7,M,,*59
$PYRTM,2024,123.335181123519,14.444828533657
$GPGGA,080238.00,3413.0990,N,12018.7609,W,1,09,0.8,7.6,M,-33.7,M,,*52
$PYRTM,2024,123.335192699653,14.444840109803
$GPGGA,080239.00,3413.0992,N,12018.7624,W,1,09,0.8,8.1,M,-33.7,M,,*56
$PYRTM,2024,123.335204270475,14.444851680613
$GPGGA,080240.00,3413.0992,N,12018.7640,W,1,09,0.8,8.5,M,-33.7,M,,*5E
$PYRTM,2024,123.335215843866,14.444863254005
$GPGGA,080241.00,3413.0991,N,12018.7656,W,1,09,0.8,8.2,M,-33.7,M,,*5C
$PYRTM,2024,123.335227417986,14.444874828137
$GPGGA,080242.00,3413.0992,N,12018.7674,W,1,09,0.8,4.8,M,-33.7,M,,*5A
$PYRTM,2024,123.335238992303,14.444886402442
$GPGGA,080243.00,3413.0994,N,12018.7692,W,1,09,0.8,3.6,M,-33.7,M,,*5C
$PYRTM,2024,123.335250565729,14.444897975868
$GPGGA,080244.00,3413.0995,N,12018.7706,W,1,09,0.8,3.2,M,-33.7,M,,*52
$PYRTM,2024,123.335262140486,14.444909550637
$GPGGA,080245.00,3413.0993,N,12018.7718,W,1,09,0.8,3.1,M,-33.7,M,,*59
$PYRTM,2024,123.335273714769,14.444921124907
$GPGGA,080246.00,3413.0992,N,12018.7734,W,1,09,0.8,2.9,M,-33.7,M,,*5C
$PYRTM,2024,123.335285291053,14.444932701192
$GPGGA,080247.00,3413.0993,N,12018.7752,W,1,09,0.8,2.5,M,-33.7,M,,*50
$PYRTM,2024,123.335296857500,14.444944267639
$GPGGA,080248.00,3413.0994,N,12018.7770,W,1,09,0.8,2.1,M,-33.7,M,,*5C
$PYRTM,2024,123.335308440255,14.444955850394
$GPGGA,080249.00,3413.0994,N,12018.7784,W,1,09,0.8,1.7,M,-33.7,M,,*53
$PYRTM,2024,123.335320010116,14.444967420255
$GPGGA,080250.00,3413.0994,N,12018.7798,W,1,09,0.8,2.3,M,-33.7,M,,*51
$PYRTM,2024,123.335331588750,14.444978998889
$GPGGA,080251.00,3413.0995,N,12018.7815,W,1,09,0.8,0.6,M,-33.7,M,,*5C
$PYRTM,2024,123.335343158449,14.444990568588
$GPGGA,080252.00,3413.0996,N,12018.7835,W,1,09,0.8,-0.3,M,-33.7,M,,*76
$PYRTM,2024,123.335355195197,14.445002605336
$GPGGA,080253.00,3413.0997,N,12018.7854,W,1,09,0.8,0.9,M,-33.7,M,,*56
$PYRTM,2024,123.335366311597,14.445013721748
$GPGGA,080254.00,3413.0995,N,12018.7871,W,1,09,0.8,2.7,M,-33.7,M,,*58
$PYRTM,2024,123.335377876262,14.445025286412
$GPGGA,080255.00,3413.0993,N,12018.7885,W,1,09,0.8,3.8,M,-33.7,M,,*5A
$PYRTM,2024,123.335389456644,14.445036866782
$GPGGA,080256.00,3413.0992,N,12018.7901,W,1,09,0.8,4.5,M,-33.7,M,,*5F
$PYRTM,2024,123.335401024086,14.445048434225
$GPGGA,080257.00,3413.0993,N,12018.7920,W,1,09,0.8,3.9,M,-33.7,M,,*57
$PYRTM,2024,123.335412603322,14.445060013461
$GPGGA,080258.00,3413.0993,N,12018.7940,W,1,09,0.8,3.6,M,-33.7,M,,*51
$PYRTM,2024,123.335424176435,14.445071586574
$GPGGA,080259.00,3413.0992,N,12018.7956,W,1,09,0.8,3.5,M,-33.7,M,,*55
$PYRTM,2024,123.335435746157,14.445083156296
$GPGGA,080300.00,3413.0992,N,12018.7970,W,1,09,0.8,3.2,M,-33.7,M,,*5B
$PYRTM,2024,123.335447328437,14.445094738576
$GPGGA,080301.00,3413.0993,N,12018.7988,W,1,09,0.8,-0.9,M,-33.7,M,,*79
$PYRTM,2024,123.335458900567,14.445106310706
$GPGGA,080302.00,3413.0994,N,12018.8009,W,1,09,0.8,1.5,M,-33.7,M,,*52
$PYRTM,2024,123.335470479410,14.445117889549
$GPGGA,080303.00,3413.0995,N,12018.8027,W,1,09,0.8,2.0,M,-33.7,M,,*58
$PYRTM,2024,123.335482047373,14.445129457512
$GPGGA,080304.00,3413.0995,N,12018.8040,W,1,09,0.8,2.8,M,-33.7,M,,*56
$PYRTM,2024,123.335493622674,14.445141032812
$GPGGA,080305.00,3413.0995,N,12018.8054,W,1,09,0.8,3.4,M,-33.7,M,,*5F
$PYRTM,2024,123.335505190174,14.445152600313
$GPGGA,080306.00,3413.0995,N,12018.8072,W,1,09,0.8,4.4,M,-33.7,M,,*5F
$PYRTM,2024,123.335518263600,14.445165673750
$GPGGA,080307.00,3413.0994,N,12018.8091,W,1,09,0.8,4.9,M,-33.7,M,,*5F
$PYRTM,2024,123.335529373484,14.445176783623
$GPGGA,080308.00,3413.0993,N,12018.8108,W,1,09,0.8,4.3,M,-33.7,M,,*5C
$PYRTM,2024,123.335540960590,14.445188370729
$GPGGA,080309.00,3413.0994,N,12018.8123,W,1,09,0.8,4.9,M,-33.7,M,,*59
$PYRTM,2024,123.335552520451,14.445199930579
$GPGGA,080310.00,3413.0994,N,12018.8138,W,1,09,0.8,4.3,M,-33.7,M,,*51
$PYRTM,2024,123.335564109514,14.445211519664
$GPGGA,080311.00,3413.0995,N,12018.8156,W,1,09,0.8,4.1,M,-33.7,M,,*5B
$PYRTM,2024,123.335575669896,14.445223080035
$GPGGA,080312.00,3413.0996,N,12018.8176,W,1,09,0.8,3.0,M,-33.7,M,,*5F
$PYRTM,2024,123.335587257569,14.445234667708
$GPGGA,080313.00,3413.0997,N,12018.8192,W,1,09,0.8,3.5,M,-33.7,M,,*50
$PYRTM,2024,123.335598819641,14.445246229780
$GPGGA,080314.00,3413.0995,N,12018.8201,W,1,09,0.8,3.4,M,-33.7,M,,*5D
$PYRTM,2024,123.335610407627,14.445257817766
$GPGGA,080315.00,3413.0991,N,12018.8209,W,1,09,0.8,3.7,M,-33.7,M,,*53
$PYRTM,2024,123.335621970637,14.445269380775
$GPGGA,080316.00,3413.0991,N,12018.8228,W,1,09,0.8,2.5,M,-33.7,M,,*50
$PYRTM,2024,123.335633555613,14.445280965752
$GPGGA,080317.00,3413.0992,N,12018.8251,W,1,09,0.8,1.6,M,-33.7,M,,*5C
$PYRTM,2024,123.335645114456,14.445292524595
$GPGGA,080318.00,3413.0991,N,12018.8264,W,1,09,0.8,0.9,M,-33.7,M,,*58
$PYRTM,2024,123.335656704583,14.445304114722
$GPGGA,080319.00,3413.0989,N,12018.8268,W,1,09,0.8,0.9,M,-33.7,M,,*5C
$PYRTM,2024,123.335668262303,14.445315672442
$GPGGA,080320.00,3413.0987,N,12018.8275,W,1,09,0.8,0.7,M,-33.7,M,,*5A
$PYRTM,2024,123.335679848345,14.445327258484
$GPGGA,080321.00,3413.0987,N,12018.8291,W,1,09,0.8,1.1,M,-33.7,M,,*56
$PYRTM,2024,123.335691410220,14.445338820359
$GPGGA,080322.00,3413.0988,N,12018.8305,W,1,09,0.8,1.5,M,-33.7,M,,*52
$PYRTM,2024,123.335703449595,14.445350859734
$GPGGA,080323.00,3413.0988,N,12018.8312,W,1,09,0.8,1.0,M,-33.7,M,,*50
$PYRTM,2024,123.335714558657,14.445361968796
$GPGGA,080324.00,3413.0984,N,12018.8320,W,1,09,0.8,1.0,M,-33.7,M,,*5A
$PYRTM,2024,123.335726140301,14.445373550440
$GPGGA,080325.00,3413.0980,N,12018.8334,W,1,09,0.8,1.1,M,-33.7,M,,*5B
$PYRTM,2024,123.335737707130,14.445385117269
$GPGGA,080326.00,3413.0978,N,12018.8346,W,1,09,0.8,1.2,M,-33.7,M,,*59
$PYRTM,2024,123.335749294167,14.445396704306
$GPGGA,080327.00,3413.0979,N,12018.8358,W,1,09,0.8,1.2,M,-33.7,M,,*56
$PYRTM,2024,123.335760857500,14.445408267650
$GPGGA,080328.00,3413.0980,N,12018.8373,W,1,09,0.8,1.5,M,-33.7,M,,*51
$PYRTM,2024,123.335772441771,14.445419851921
$GPGGA,080329.00,3413.0979,N,12018.8391,W,1,09,0.8,0.8,M,-33.7,M,,*56
$PYRTM,2024,123.335784003021,14.445431413160
$GPGGA,080330.00,3413.0978,N,12018.8406,W,1,09,0.8,1.4,M,-33.7,M,,*5B
$PYRTM,2024,123.335795605081,14.445443015220
$GPGGA,080331.00,3413.0976,N,12018.8414,W,1,09,0.8,1.6,M,-33.7,M,,*55
$PYRTM,2024,123.335807153438,14.445454563576
$GPGGA,080332.00,3413.0974,N,12018.8421,W,1,09,0.8,1.7,M,-33.7,M,,*53
$PYRTM,2024,123.335818752535,14.445466162685
$GPGGA,080333.00,3413.0974,N,12018.8434,W,1,09,0.8,1.5,M,-33.7,M,,*54
$PYRTM,2024,123.335830299225,14.445477709363
$GPGGA,080334.00,3413.0974,N,12018.8451,W,1,09,0.8,0.4,M,-33.7,M,,*50
$PYRTM,2024,123.335841887512,14.445489297662
$GPGGA,080335.00,3413.0972,N,12018.8465,W,1,09,0.8,-0.1,M,-33.7,M,,*78
$PYRTM,2024,123.335853449711,14.445500859850
$GPGGA,080336.00,3413.0969,N,12018.8476,W,1,09,0.8,0.0,M,-33.7,M,,*5F
$PYRTM,2024,123.335866181875,14.445513592014
$GPGGA,080337.00,3413.0970,N,12018.8487,W,1,09,0.8,0.1,M,-33.7,M,,*59
$PYRTM,2024,123.335878794942,14.445526205081
$GPGGA,080338.00,3413.0973,N,12018.8501,W,1,09,0.8,0.6,M,-33.7,M,,*5D
$PYRTM,2024,123.335888183067,14.445535593206
$GPGGA,080339.00,3413.0974,N,12018.8518,W,1,09,0.8,0.7,M,-33.7,M,,*52
$PYRTM,2024,123.335899744294,14.445547154433
$GPGGA,080340.00,3413.0971,N,12018.8533,W,1,09,0.8,1.0,M,-33.7,M,,*56
$PYRTM,2024,123.335911331655,14.445558741794
$GPGGA,080341.00,3413.0967,N,12018.8545,W,1,09,0.8,0.9,M,-33.7,M,,*59
$PYRTM,2024,123.335922894769,14.445570304907
$GPGGA,080342.00,3413.0967,N,12018.8557,W,1,09,0.8,2.5,M,-33.7,M,,*57
$PYRTM,2024,123.335934479884,14.445581890023
$GPGGA,080343.00,3413.0970,N,12018.8572,W,1,09,0.8,1.8,M,-33.7,M,,*59
$PYRTM,2024,123.335946041019,14.445593451169
$GPGGA,080344.00,3413.0970,N,12018.8587,W,1,09,0.8,3.0,M,-33.7,M,,*5E
$PYRTM,2024,123.335957641400,14.445605051539
$GPGGA,080345.00,3413.0969,N,12018.8605,W,1,09,0.8,3.4,M,-33.7,M,,*5A
$PYRTM,2024,123.335969188704,14.445616598831
$GPGGA,080346.00,3413.0967,N,12018.8622,W,1,09,0.8,3.7,M,-33.7,M,,*51
$PYRTM,2024,123.335980789028,14.445628199167
$GPGGA,080347.00,3413.0968,N,12018.8634,W,1,09,0.8,-0.5,M,-33.7,M,,*74
$PYRTM,2024,123.335992337928,14.445639748067
$GPGGA,080348.00,3413.0968,N,12018.8646,W,1,09,0.8,-1.1,M,-33.7,M,,*7B
$PYRTM,2024,123.336003923391,14.445651333530
$GPGGA,080349.00,3413.0968,N,12018.8663,W,1,09,0.8,-0.6,M,-33.7,M,,*7B
$PYRTM,2024,123.336015485093,14.445662895231
$GPGGA,080350.00,3413.0966,N,12018.8683,W,1,09,0.8,0.5,M,-33.7,M,,*5D
$PYRTM,2024,123.336027071273,14.445674481412
$GPGGA,080351.00,3413.0965,N,12018.8698,W,1,09,0.8,1.5,M,-33.7,M,,*54
$PYRTM,2024,123.336038636319,14.445686046458
$GPGGA,080352.00,3413.0964,N,12018.8711,W,1,09,0.8,1.3,M,-33.7,M,,*50
$PYRTM,2024,123.336050671678,14.445698081817
$GPGGA,080353.00,3413.0962,N,12018.8726,W,1,09,0.8,1.8,M,-33.7,M,,*58
$PYRTM,2024,123.336061782049,14.445709192187
$GPGGA,080354.00,3413.0961,N,12018.8743,W,1,09,0.8,3.1,M,-33.7,M,,*54
$PYRTM,2024,123.336073382674,14.445720792812
$GPGGA,080355.00,3413.0962,N,12018.8760,W,1,09,0.8,3.8,M,-33.7,M,,*5E
$PYRTM,2024,123.336084928449,14.445732338588
$GPGGA,080356.00,3413.0963,N,12018.8778,W,1,09,0.8,3.2,M,-33.7,M,,*5F
$PYRTM,2024,123.336096966262,14.445744376400
$GPGGA,080357.00,3413.0962,N,12018.8797,W,1,09,0.8,3.6,M,-33.7,M,,*5A
$PYRTM,2024,123.336108078461,14.445755488600
$GPGGA,080358.00,3413.0960,N,12018.8812,W,1,09,0.8,3.4,M,-33.7,M,,*57
$PYRTM,2024,123.336119661574,14.445767071713
$GPGGA,080359.00,3413.0959,N,12018.8824,W,1,09,0.8,3.2,M,-33.7,M,,*5F
$PYRTM,2024,123.336131226586,14.445778636725
$GPGGA,080400.00,3413.0962,N,12018.8839,W,1,09,0.8,4.5,M,-33.7,M,,*50
$PYRTM,2024,123.336142813715,14.445790223854
$GPGGA,080401.00,3413.0965,N,12018.8858,W,1,09,0.8,2.6,M,-33.7,M,,*54
$PYRTM,2024,123.336154374456,14.445801784606
$GPGGA,080402.00,3413.0963,N,12018.8874,W,1,09,0.8,3.5,M,-33.7,M,,*5D
$PYRTM,2024,123.336165961447,14.445813371586
$GPGGA,080403.00,3413.0958,N,12018.8886,W,1,09,0.8,5.1,M,-33.7,M,,*5B
$PYRTM,2024,123.336177521516,14.445824931655
$GPGGA,080404.00,3413.0956,N,12018.8900,W,1,09,0.8,5.7,M,-33.7,M,,*5B
$PYRTM,2024,123.336189124178,14.445836534317
$GPGGA,080405.00,3413.0959,N,12018.8918,W,1,09,0.8,5.6,M,-33.7,M,,*5D
$PYRTM,2024,123.336200670729,14.445848080868
$GPGGA,080406.00,3413.0963,N,12018.8935,W,1,09,0.8,6.4,M,-33.7,M,,*59
$PYRTM,2024,123.336213402500,14.445860812639
$GPGGA,080407.00,3413.0962,N,12018.8948,W,1,09,0.8,7.1,M,-33.7,M,,*57
$PYRTM,2024,123.336226018542,14.445873428681
$GPGGA,080408.00,3413.0957,N,12018.8962,W,1,09,0.8,7.2,M,-33.7,M,,*55
$PYRTM,2024,123.336235420509,14.445882830648
$GPGGA,080409.00,3413.0952,N,12018.8980,W,1,09,0.8,7.9,M,-33.7,M,,*56
$PYRTM,2024,123.336246967257,14.445894377396
$GPGGA,080410.00,3413.0953,N,12018.8999,W,1,09,0.8,7.1,M,-33.7,M,,*5F
$PYRTM,2024,123.336258554201,14.445905964340
$GPGGA,080411.00,3413.0957,N,12018.9016,W,1,09,0.8,7.3,M,-33.7,M,,*57
$PYRTM,2024,123.336270114988,14.445917525127
$GPGGA,080412.00,3413.0957,N,12018.9030,W,1,09,0.8,8.3,M,-33.7,M,,*5F
$PYRTM,2024,123.336281702211,14.445929112350
$GPGGA,080413.00,3413.0951,N,12018.9044,W,1,09,0.8,9.7,M,-33.7,M,,*5E
$PYRTM,2024,123.336293263437,14.445940673576
$GPGGA,080414.00,3413.0945,N,12018.9058,W,1,09,0.8,10.5,M,-33.7,M,,*6B
$PYRTM,2024,123.336304851238,14.445952261377
$GPGGA,080415.00,3413.0943,N,12018.9075,W,1,09,0.8,9.3,M,-33.7,M,,*5D
$PYRTM,2024,123.336316411123,14.445963821262
$GPGGA,080416.00,3413.0945,N,12018.9092,W,1,09,0.8,8.7,M,-33.7,M,,*54
$PYRTM,2024,123.336327998461,14.445975408600
$GPGGA,080417.00,3413.0946,N,12018.9108,W,1,09,0.8,7.7,M,-33.7,M,,*5B
$PYRTM,2024,123.336339560289,14.445986970428
$GPGGA,080418.00,3413.0946,N,12018.9122,W,1,09,0.8,7.7,M,-33.7,M,,*5C
$PYRTM,2024,123.336350221019,14.445997631157
$GPGGA,080419.00,3413.0944,N,12018.9137,W,1,09,0.8,7.8,M,-33.7,M,,*54
$PYRTM,2024,123.336362258206,14.446009668345
$GPGGA,080420.00,3413.0941,N,12018.9151,W,1,09,0.8,7.8,M,-33.7,M,,*5B
$PYRTM,2024,123.336372893194,14.446020303333
$GPGGA,080421.00,3413.0941,N,12018.9170,W,1,09,0.8,7.8,M,-33.7,M,,*59
$PYRTM,2024,123.336384003981,14.446031414120
$GPGGA,080422.00,3413.0943,N,12018.9186,W,1,09,0.8,7.5,M,-33.7,M,,*5C
$PYRTM,2024,123.336395114687,14.446042524826
$GPGGA,080423.00,3413.0945,N,12018.9197,W,1,09,0.8,7.4,M,-33.7,M,,*5A
$PYRTM,2024,123.336406702824,14.446054112963
$GPGGA,080424.00,3413.0944,N,12018.9210,W,1,09,0.8,7.5,M,-33.7,M,,*51
$PYRTM,2024,123.336417815370,14.446065225509
$GPGGA,080425.00,3413.0941,N,12018.9229,W,1,09,0.8,6.7,M,-33.7,M,,*5C
$PYRTM,2024,123.336428811991,14.446076222141
$GPGGA,080426.00,3413.0939,N,12018.9250,W,1,09,0.8,4.8,M,-33.7,M,,*53
$PYRTM,2024,123.336439921389,14.446087331528
$GPGGA,080427.00,3413.0941,N,12018.9267,W,1,09,0.8,4.3,M,-33.7,M,,*52
$PYRTM,2024,123.336451032106,14.446098442245
$GPGGA,080428.00,3413.0944,N,12018.9278,W,1,09,0.8,5.3,M,-33.7,M,,*57
$PYRTM,2024,123.336462145671,14.446109555810
$GPGGA,080429.00,3413.0944,N,12018.9292,W,1,09,0.8,6.3,M,-33.7,M,,*51
$PYRTM,2024,123.336473253854,14.446120663993
$GPGGA,080430.00,3413.0941,N,12018.9310,W,1,09,0.8,6.2,M,-33.7,M,,*56
$PYRTM,2024,123.336484712685,14.446132122824
$GPGGA,080431.00,3413.0939,N,12018.9329,W,1,09,0.8,6.4,M,-33.7,M,,*54
$PYRTM,2024,123.336496402350,14.446143812488
$GPGGA,080432.00,3413.0943,N,12018.9345,W,1,09,0.8,4.9,M,-33.7,M,,*5F
$PYRTM,2024,123.336507861366,14.446155271505
$GPGGA,080433.00,3413.0946,N,12018.9358,W,1,09,0.8,5.6,M,-33.7,M,,*59
$PYRTM,2024,123.336519551539,14.446166961678
$GPGGA,080434.00,3413.0946,N,12018.9370,W,1,09,0.8,5.9,M,-33.7,M,,*5B
$PYRTM,2024,123.336531124225,14.446178534363
$GPGGA,080435.00,3413.0944,N,12018.9387,W,1,09,0.8,7.4,M,-33.7,M,,*5F
$PYRTM,2024,123.336542699537,14.446190109676
$GPGGA,080436.00,3413.0943,N,12018.9408,W,1,09,0.8,5.7,M,-33.7,M,,*5A
$PYRTM,2024,123.336554272315,14.446201682454
$GPGGA,080437.00,3413.0945,N,12018.9425,W,1,09,0.8,7.5,M,-33.7,M,,*52
$PYRTM,2024,123.336570012535,14.446217422674
$GPGGA,080438.00,3413.0946,N,12018.9438,W,1,09,0.8,8.5,M,-33.7,M,,*5D
$PYRTM,2024,123.336581596852,14.446229007002
$GPGGA,080439.00,3413.0945,N,12018.9453,W,1,09,0.8,9.0,M,-33.7,M,,*56
$PYRTM,2024,123.336593160961,14.446240571100
$GPGGA,080440.00,3413.0941,N,12018.9471,W,1,09,0.8,9.0,M,-33.7,M,,*5C
$PYRTM,2024,123.336604738275,14.446252148414
$GPGGA,080441.00,3413.0940,N,12018.9488,W,1,09,0.8,8.9,M,-33.7,M,,*52
$PYRTM,2024,123.336616316829,14.446263726968
$GPGGA,080442.00,3413.0942,N,12018.9502,W,1,09,0.8,8.9,M,-33.7,M,,*50
$PYRTM,2024,123.336627893727,14.446275303866
$GPGGA,080443.00,3413.0945,N,12018.9516,W,1,09,0.8,8.2,M,-33.7,M,,*58
$PYRTM,2024,123.336639457512,14.446286867650
$GPGGA,080444.00,3413.0945,N,12018.9534,W,1,09,0.8,7.6,M,-33.7,M,,*54
$PYRTM,2024,123.336651034363,14.446298444514
$GPGGA,080445.00,3413.0943,N,12018.9550,W,1,09,0.8,7.7,M,-33.7,M,,*50
$PYRTM,2024,123.336662613056,14.446310023194
$GPGGA,080446.00,3413.0942,N,12018.9563,W,1,09,0.8,8.0,M,-33.7,M,,*5A
$PYRTM,2024,123.336674527095,14.446321937234
$GPGGA,080447.00,3413.0945,N,12018.9574,W,1,09,0.8,8.5,M,-33.7,M,,*5F
$PYRTM,2024,123.336685748924,14.446333159063
$GPGGA,080448.00,3413.0949,N,12018.9592,W,1,09,0.8,8.6,M,-33.7,M,,*57
$PYRTM,2024,123.336697331539,14.446344741678
$GPGGA,080449.00,3413.0953,N,12018.9613,W,1,09,0.8,4.8,M,-33.7,M,,*55
$PYRTM,2024,123.336708901979,14.446356312118
$GPGGA,080450.00,3413.0952,N,12018.9631,W,1,09,0.8,5.0,M,-33.7,M,,*55
$PYRTM,2024,123.336720479850,14.446367889988
$GPGGA,080451.00,3413.0950,N,12018.9642,W,1,09,0.8,4.9,M,-33.7,M,,*5A
$PYRTM,2024,123.336732050509,14.446379460648
$GPGGA,080452.00,3413.0952,N,12018.9655,W,1,09,0.8,4.8,M,-33.7,M,,*5C
$PYRTM,2024,123.336743971273,14.446391381412
$GPGGA,080453.00,3413.0956,N,12018.9673,W,1,09,0.8,4.9,M,-33.7,M,,*5C
$PYRTM,2024,123.336755200081,14.446402610231
$GPGGA,080454.00,3413.0958,N,12018.9688,W,1,09,0.8,5.9,M,-33.7,M,,*50
$PYRTM,2024,123.336766773461,14.446414183600
$GPGGA,080455.00,3413.0956,N,12018.9700,W,1,09,0.8,5.8,M,-33.7,M,,*5F
$PYRTM,2024,123.336778347847,14.446425757986
$GPGGA,080456.00,3413.0953,N,12018.9715,W,1,09,0.8,5.6,M,-33.7,M,,*53
$PYRTM,2024,123.336789922257,14.446437332396
$GPGGA,080457.00,3413.0953,N,12018.9733,W,1,09,0.8,5.0,M,-33.7,M,,*50
$PYRTM,2024,123.336801490440,14.446448900579
$GPGGA,080458.00,3413.0956,N,12018.9750,W,1,09,0.8,3.6,M,-33.7,M,,*5F
$PYRTM,2024,123.336813069201,14.446460479340
$GPGGA,080459.00,3413.0958,N,12018.9765,W,1,09,0.8,3.6,M,-33.7,M,,*56
$PYRTM,2024,123.336824639306,14.446472049444
$GPGGA,080500.00,3413.0958,N,12018.9778,W,1,09,0.8,4.7,M,-33.7,M,,*51
$PYRTM,2024,123.336836219387,14.446483629525
$GPGGA,080501.00,3413.0954,N,12018.9791,W,1,09,0.8,4.5,M,-33.7,M,,*59
$PYRTM,2024,123.336847786863,14.446495197002
$GPGGA,080502.00,3413.0951,N,12018.9808,W,1,09,0.8,6.0,M,-33.7,M,,*57
$PYRTM,2024,123.336859370694,14.446506780845
$GPGGA,080503.00,3413.0951,N,12018.9829,W,1,09,0.8,6.1,M,-33.7,M,,*54
$PYRTM,2024,123.336870942083,14.446518352222
$GPGGA,080504.00,3413.0952,N,12018.9845,W,1,09,0.8,5.4,M,-33.7,M,,*5C
$PYRTM,2024,123.336882514942,14.446529925093
$GPGGA,080505.00,3413.0952,N,12018.9855,W,1,09,0.8,5.5,M,-33.7,M,,*5D
$PYRTM,2024,123.336894087326,14.446541497465
$GPGGA,080506.00,3413.0949,N,12018.9868,W,1,09,0.8,5.7,M,-33.7,M,,*58
$PYRTM,2024,123.336906708900,14.446554119039
$GPGGA,080507.00,3413.0948,N,12018.9889,W,1,09,0.8,7.6,M,-33.7,M,,*54
$PYRTM,2024,123.336918266690,14.446565676829
$GPGGA,080508.00,3413.0948,N,12018.9911,W,1,09,0.8,7.4,M,-33.7,M,,*59
$PYRTM,2024,123.336929855729,14.446577265868
$GPGGA,080509.00,3413.0948,N,12018.9925,W,1,09,0.8,6.7,M,-33.7,M,,*5D
$PYRTM,2024,123.336941413843,14.446588823993
$GPGGA,080510.00,3413.0949,N,12018.9935,W,1,09,0.8,6.6,M,-33.7,M,,*54
$PYRTM,2024,123.336953004988,14.446600415127
$GPGGA,080511.00,3413.0951,N,12018.9946,W,1,09,0.8,6.9,M,-33.7,M,,*57
$PYRTM,2024,123.336964562269,14.446611972407
$GPGGA,080512.00,3413.0953,N,12018.9963,W,1,09,0.8,5.0,M,-33.7,M,,*5B
$PYRTM,2024,123.336976147928,14.446623558067
$GPGGA,080513.00,3413.0952,N,12018.9982,W,1,09,0.8,5.9,M,-33.7,M,,*5D
$PYRTM,2024,123.336987710301,14.446635120440
$GPGGA,080514.00,3413.0948,N,12018.9996,W,1,09,0.8,5.6,M,-33.7,M,,*5B
$PYRTM,2024,123.336999296250,14.446646706389
$GPGGA,080515.00,3413.0948,N,12019.0007,W,1,09,0.8,5.2,M,-33.7,M,,*57
$PYRTM,2024,123.337010858067,14.446658268218
$GPGGA,080516.00,3413.0951,N,12019.0021,W,1,09,0.8,4.7,M,-33.7,M,,*5C
$PYRTM,2024,123.337022444988,14.446669855127
$GPGGA,080517.00,3413.0954,N,12019.0041,W,1,09,0.8,5.2,M,-33.7,M,,*5A
$PYRTM,2024,123.337034005729,14.446681415868
$GPGGA,080518.00,3413.0954,N,12019.0060,W,1,09,0.8,6.6,M,-33.7,M,,*51
$PYRTM,2024,123.337045594722,14.446693004873
$GPGGA,080519.00,3413.0950,N,12019.0075,W,1,09,0.8,7.3,M,-33.7,M,,*54
$PYRTM,2024,123.337057154954,14.446704565093
$GPGGA,080520.00,3413.0948,N,12019.0088,W,1,09,0.8,8.7,M,-33.7,M,,*5E
$PYRTM,2024,123.337068744549,14.446716154687
$GPGGA,080521.00,3413.0950,N,12019.0103,W,1,09,0.8,9.9,M,-33.7,M,,*5B
$PYRTM,2024,123.337080304387,14.446727714525
$GPGGA,080522.00,3413.0949,N,12019.0119,W,1,09,0.8,9.5,M,-33.7,M,,*57
$PYRTM,2024,123.337092340185,14.446739750324
$GPGGA,080523.00,3413.0946,N,12019.0138,W,1,09,0.8,8.6,M,-33.7,M,,*58
$PYRTM,2024,123.337103451100,14.446750861238
$GPGGA,080524.00,3413.0946,N,12019.0157,W,1,09,0.8,8.9,M,-33.7,M,,*59
$PYRTM,2024,123.337115033056,14.446762443194
$GPGGA,080525.00,3413.0947,N,12019.0171,W,1,09,0.8,8.8,M,-33.7,M,,*5C
$PYRTM,2024,123.337126599502,14.446774009641
$GPGGA,080526.00,3413.0947,N,12019.0181,W,1,09,0.8,9.5,M,-33.7,M,,*5C
$PYRTM,2024,123.337138188356,14.446785598495
$GPGGA,080527.00,3413.0945,N,12019.0197,W,1,09,0.8,9.2,M,-33.7,M,,*5F
$PYRTM,2024,123.337149747708,14.446797157847
$GPGGA,080528.00,3413.0945,N,12019.0218,W,1,09,0.8,10.8,M,-33.7,M,,*66
$PYRTM,2024,123.337161335625,14.446808745764
$GPGGA,080529.00,3413.0942,N,12019.0238,W,1,09,0.8,10.1,M,-33.7,M,,*6B
$PYRTM,2024,123.337172896100,14.446820306238
$GPGGA,080530.00,3413.0939,N,12019.0254,W,1,09,0.8,9.7,M,-33.7,M,,*5B
$PYRTM,2024,123.337184482488,14.446831892627
$GPGGA,080531.00,3413.0938,N,12019.0267,W,1,09,0.8,9.5,M,-33.7,M,,*59
$PYRTM,2024,123.337196043519,14.446843453657
$GPGGA,080532.00,3413.0938,N,12019.0282,W,1,09,0.8,10.2,M,-33.7,M,,*6E
$PYRTM,2024,123.337207630394,14.446855040532
$GPGGA,080533.00,3413.0941,N,12019.0300,W,1,09,0.8,9.2,M,-33.7,M,,*52
$PYRTM,2024,123.337219193403,14.446866603542
$GPGGA,080534.00,3413.0943,N,12019.0320,W,1,09,0.8,7.0,M,-33.7,M,,*59
$PYRTM,2024,123.337230780046,14.446878190197
$GPGGA,080535.00,3413.0943,N,12019.0339,W,1,09,0.8,6.5,M,-33.7,M,,*54
$PYRTM,2024,123.337242340046,14.446889750185
$GPGGA,080536.00,3413.0942,N,12019.0352,W,1,09,0.8,6.3,M,-33.7,M,,*5D
$PYRTM,2024,123.337255419988,14.446902830127
$GPGGA,080537.00,3413.0941,N,12019.0363,W,1,09,0.8,6.2,M,-33.7,M,,*5C
$PYRTM,2024,123.337267689005,14.446915099144
$GPGGA,080538.00,3413.0938,N,12019.0379,W,1,09,0.8,7.9,M,-33.7,M,,*5C
$PYRTM,2024,123.337277079086,14.446924489225
$GPGGA,080539.00,3413.0940,N,12019.0401,W,1,09,0.8,6.1,M,-33.7,M,,*53
$PYRTM,2024,123.337288636273,14.446936046412
$GPGGA,080540.00,3413.0942,N,12019.0418,W,1,09,0.8,4.3,M,-33.7,M,,*57
$PYRTM,2024,123.337300223924,14.446947634062
$GPGGA,080541.00,3413.0941,N,12019.0428,W,1,09,0.8,4.0,M,-33.7,M,,*55
$PYRTM,2024,123.337311786111,14.446959196250
$GPGGA,080542.00,3413.0939,N,12019.0438,W,1,09,0.8,4.5,M,-33.7,M,,*5D
$PYRTM,2024,123.337323373021,14.446970783160
$GPGGA,080543.00,3413.0936,N,12019.0455,W,1,09,0.8,3.8,M,-33.7,M,,*52
$PYRTM,2024,123.337334932373,14.446982342523
$GPGGA,080544.00,3413.0933,N,12019.0473,W,1,09,0.8,3.4,M,-33.7,M,,*58
$PYRTM,2024,123.337346520150,14.446993930289
$GPGGA,080545.00,3413.0931,N,12019.0491,W,1,09,0.8,3.6,M,-33.7,M,,*55
$PYRTM,2024,123.337358081227,14.447005491366
$GPGGA,080546.00,3413.0933,N,12019.0505,W,1,09,0.8,3.0,M,-33.7,M,,*5E
$PYRTM,2024,123.337369668947,14.447017079086
$GPGGA,080547.00,3413.0934,N,12019.0518,W,1,09,0.8,2.6,M,-33.7,M,,*53
$PYRTM,2024,123.337381229734,14.447028639884
$GPGGA,080548.00,3413.0930,N,12019.0534,W,1,09,0.8,4.0,M,-33.7,M,,*56
$PYRTM,2024,123.337392820289,14.447040230428
$GPGGA,080549.00,3413.0925,N,12019.0552,W,1,09,0.8,4.4,M,-33.7,M,,*57
$PYRTM,2024,123.337404377639,14.447051787778
$GPGGA,080550.00,3413.0920,N,12019.0568,W,1,09,0.8,5.0,M,-33.7,M,,*56
$PYRTM,2024,123.337415969213,14.447063379363
$GPGGA,080551.00,3413.0920,N,12019.0580,W,1,09,0.8,5.8,M,-33.7,M,,*59
$PYRTM,2024,123.337427525255,14.447074935394
$GPGGA,080552.00,3413.0923,N,12019.0594,W,1,09,0.8,6.4,M,-33.7,M,,*53
$PYRTM,2024,123.337439563067,14.447086973206
$GPGGA,080553.00,3413.0925,N,12019.0613,W,1,09,0.8,5.8,M,-33.7,M,,*57
$PYRTM,2024,123.337450674016,14.447098084155
$GPGGA,080554.00,3413.0923,N,12019.0632,W,1,09,0.8,5.0,M,-33.7,M,,*5D
$PYRTM,2024,123.337462260498,14.447109670648
$GPGGA,080555.00,3413.0920,N,12019.0649,W,1,09,0.8,7.0,M,-33.7,M,,*51
$PYRTM,2024,123.337473822708,14.447121232847
$GPGGA,080556.00,3413.0919,N,12019.0663,W,1,09,0.8,6.8,M,-33.7,M,,*59
$PYRTM,2024,123.337485408727,14.447132818866
$GPGGA,080557.00,3413.0919,N,12019.0676,W,1,09,0.8,7.0,M,-33.7,M,,*55
$PYRTM,2024,123.337496970856,14.447144380995
$GPGGA,080558.00,3413.0919,N,12019.0694,W,1,09,0.8,7.6,M,-33.7,M,,*50
$PYRTM,2024,123.337508557917,14.447155968056
$GPGGA,080559.00,3413.0920,N,12019.0713,W,1,09,0.8,6.6,M,-33.7,M,,*54
$PYRTM,2024,123.337520118819,14.447167528958
$GPGGA,080600.00,3413.0918,N,12019.0727,W,1,09,0.8,7.0,M,-33.7,M,,*50
$PYRTM,2024,123.337531705718,14.447179115856
$GPGGA,080601.00,3413.0915,N,12019.0739,W,1,09,0.8,7.0,M,-33.7,M,,*53
$PYRTM,2024,123.337543266308,14.447190676447
$GPGGA,080602.00,3413.0914,N,12019.0753,W,1,09,0.8,6.7,M,-33.7,M,,*5B
$PYRTM,2024,123.337554854630,14.447202264769
$GPGGA,080603.00,3413.0919,N,12019.0773,W,1,09,0.8,6.6,M,-33.7,M,,*54
$PYRTM,2024,123.337566416736,14.447213826875
$GPGGA,080604.00,3413.0921,N,12019.0791,W,1,09,0.8,6.2,M,-33.7,M,,*50
$PYRTM,2024,123.337578002604,14.447225412743
$GPGGA,080605.00,3413.0919,N,12019.0806,W,1,09,0.8,7.3,M,-33.7,M,,*5B
$PYRTM,2024,123.337589562326,14.447236972465
$GPGGA,080606.00,3413.0916,N,12019.0820,W,1,09,0.8,7.9,M,-33.7,M,,*59
$PYRTM,2024,123.337602294016,14.447249704155
$GPGGA,080607.00,3413.0917,N,12019.0837,W,1,09,0.8,7.7,M,-33.7,M,,*51
$PYRTM,2024,123.337614909213,14.447262319352
$GPGGA,080608.00,3413.0919,N,12019.0856,W,1,09,0.8,8.7,M,-33.7,M,,*58
$PYRTM,2024,123.337624299352,14.447271709491
$GPGGA,080609.00,3413.0919,N,12019.0871,W,1,09,0.8,9.2,M,-33.7,M,,*58
$PYRTM,2024,123.337635859016,14.447283269144
$GPGGA,080610.00,3413.0917,N,12019.0885,W,1,09,0.8,9.8,M,-33.7,M,,*5F
$PYRTM,2024,123.337647449769,14.447294859907
$GPGGA,080611.00,3413.0916,N,12019.0904,W,1,09,0.8,10.1,M,-33.7,M,,*66
$PYRTM,2024,123.337659008113,14.447306418252
$GPGGA,080612.00,3413.0916,N,12019.0924,W,1,09,0.8,9.4,M,-33.7,M,,*5A
$PYRTM,2024,123.337670595394,14.447318005532
$GPGGA,080613.00,3413.0915,N,12019.0936,W,1,09,0.8,9.2,M,-33.7,M,,*5D
$PYRTM,2024,123.337682157801,14.447329567940
$GPGGA,080614.00,3413.0915,N,12019.0946,W,1,09,0.8,9.6,M,-33.7,M,,*59
$PYRTM,2024,123.337693743738,14.447341153877
$GPGGA,080615.00,3413.0915,N,12019.0964,W,1,09,0.8,11.0,M,-33.7,M,,*67
$PYRTM,2024,123.337705318704,14.447352728854
$GPGGA,080616.00,3413.0914,N,12019.0986,W,1,09,0.8,10.7,M,-33.7,M,,*6F
$PYRTM,2024,123.337716893681,14.447364303819
$GPGGA,080617.00,3413.0913,N,12019.0999,W,1,09,0.8,10.2,M,-33.7,M,,*62
$PYRTM,2024,123.337728464491,14.447375874630
$GPGGA,080618.00,3413.0912,N,12019.1004,W,1,09,0.8,10.2,M,-33.7,M,,*60
$PYRTM,2024,123.337740053600,14.447387463750
$GPGGA,080619.00,3413.0911,N,12019.1012,W,1,09,0.8,10.1,M,-33.7,M,,*66
$PYRTM,2024,123.337751612986,14.447399023125
$GPGGA,080620.00,3413.0911,N,12019.1029,W,1,09,0.8,10.0,M,-33.7,M,,*65
$PYRTM,2024,123.337763202315,14.447410612465
$GPGGA,080621.00,3413.0911,N,12019.1046,W,1,09,0.8,8.7,M,-33.7,M,,*53
$PYRTM,2024,123.337774764757,14.447422174896
$GPGGA,080622.00,3413.0909,N,12019.1056,W,1,09,0.8,7.9,M,-33.7,M,,*59
$PYRTM,2024,123.337786798831,14.447434208970
$GPGGA,080623.00,3413.0905,N,12019.1061,W,1,09,0.8,8.3,M,-33.7,M,,*55
$PYRTM,2024,123.337796983391,14.447444393530
$GPGGA,080624.00,3413.0903,N,12019.1070,W,1,09,0.8,7.6,M,-33.7,M,,*5E
$PYRTM,2024,123.337809947685,14.447457357824
$GPGGA,080625.00,3413.0904,N,12019.1091,W,1,09,0.8,7.8,M,-33.7,M,,*59
$PYRTM,2024,123.337820713866,14.447468124005
$GPGGA,080626.00,3413.0903,N,12019.1107,W,1,09,0.8,7.0,M,-33.7,M,,*5B
$PYRTM,2024,123.337831821817,14.447479231956
$GPGGA,080627.00,3413.0900,N,12019.1113,W,1,09,0.8,6.9,M,-33.7,M,,*54
$PYRTM,2024,123.337843276262,14.447490686400
$GPGGA,080628.00,3413.0898,N,12019.1116,W,1,09,0.8,7.0,M,-33.7,M,,*56
$PYRTM,2024,123.337854391343,14.447501801481
$GPGGA,080629.00,3413.0898,N,12019.1129,W,1,09,0.8,6.7,M,-33.7,M,,*5D
$PYRTM,2024,123.337865501551,14.447512911690
$GPGGA,080630.00,3413.0900,N,12019.1145,W,1,09,0.8,5.9,M,-33.7,M,,*52
$PYRTM,2024,123.337876614711,14.447524024850
$GPGGA,080631.00,3413.0899,N,12019.1155,W,1,09,0.8,5.9,M,-33.7,M,,*53
$PYRTM,2024,123.337887725880,14.447535136019
$GPGGA,080632.00,3413.0895,N,12019.1161,W,1,09,0.8,5.4,M,-33.7,M,,*56
$PYRTM,2024,123.337898836343,14.447546246481
$GPGGA,080633.00,3413.0891,N,12019.1171,W,1,09,0.8,5.8,M,-33.7,M,,*5E
$PYRTM,2024,123.337909831354,14.447557241493
$GPGGA,080634.00,3413.0892,N,12019.1187,W,1,09,0.8,5.3,M,-33.7,M,,*58
$PYRTM,2024,123.337920937384,14.447568347535
$GPGGA,080635.00,3413.0893,N,12019.1202,W,1,09,0.8,4.9,M,-33.7,M,,*5D
$PYRTM,2024,123.337932052975,14.447579463113
$GPGGA,080636.00,3413.0890,N,12019.1210,W,1,09,0.8,5.5,M,-33.7,M,,*53
$PYRTM,2024,123.337943159363,14.447590569502
$GPGGA,080637.00,3413.0884,N,12019.1217,W,1,09,0.8,6.8,M,-33.7,M,,*5E
$PYRTM,2024,123.337958908125,14.447606318264
$GPGGA,080638.00,3413.0879,N,12019.1227,W,1,09,0.8,7.3,M,-33.7,M,,*5A
$PYRTM,2024,123.337970465532,14.447617875671
$GPGGA,080639.00,3413.0878,N,12019.1240,W,1,09,0.8,7.5,M,-33.7,M,,*5D
$PYRTM,2024,123.337982054144,14.447629464282
$GPGGA,080640.00,3413.0876,N,12019.1252,W,1,09,0.8,7.0,M,-33.7,M,,*5B
$PYRTM,2024,123.337993612836,14.447641022963
$GPGGA,080641.00,3413.0873,N,12019.1264,W,1,09,0.8,6.4,M,-33.7,M,,*5F
$PYRTM,2024,123.338005202199,14.447652612338
$GPGGA,080642.00,3413.0870,N,12019.1278,W,1,09,0.8,5.8,M,-33.7,M,,*5D
$PYRTM,2024,123.338016761979,14.447664172130
$GPGGA,080643.00,3413.0869,N,12019.1291,W,1,09,0.8,6.0,M,-33.7,M,,*58
$PYRTM,2024,123.338028350648,14.447675760787
$GPGGA,080644.00,3413.0866,N,12019.1304,W,1,09,0.8,6.9,M,-33.7,M,,*54
$PYRTM,2024,123.338039909248,14.447687319387
$GPGGA,080645.00,3413.0862,N,12019.1317,W,1,09,0.8,7.6,M,-33.7,M,,*5D
$PYRTM,2024,123.338051498044,14.447698908183
$GPGGA,080646.00,3413.0860,N,12019.1333,W,1,09,0.8,7.1,M,-33.7,M,,*5D
$PYRTM,2024,123.338063058380,14.447710468519
$GPGGA,080647.00,3413.0859,N,12019.1349,W,1,09,0.8,6.2,M,-33.7,M,,*59
$PYRTM,2024,123.338074641979,14.447722052118
$GPGGA,080648.00,3413.0860,N,12019.1364,W,1,09,0.8,3.9,M,-33.7,M,,*5D
$PYRTM,2024,123.338086205799,14.447733615937
$GPGGA,080649.00,3413.0859,N,12019.1377,W,1,09,0.8,5.1,M,-33.7,M,,*5A
$PYRTM,2024,123.338097793993,14.447745204132
$GPGGA,080650.00,3413.0856,N,12019.1388,W,1,09,0.8,5.9,M,-33.7,M,,*55
$PYRTM,2024,123.338109353495,14.447756763634
$GPGGA,080651.00,3413.0854,N,12019.1403,W,1,09,0.8,5.7,M,-33.7,M,,*5C
$PYRTM,2024,123.338120943044,14.447768353183
$GPGGA,080652.00,3413.0852,N,12019.1421,W,1,09,0.8,5.6,M,-33.7,M,,*58
$PYRTM,2024,123.338132864248,14.447780274387
$GPGGA,080653.00,3413.0852,N,12019.1435,W,1,09,0.8,5.9,M,-33.7,M,,*53
$PYRTM,2024,123.338144091319,14.447791501447
$GPGGA,080654.00,3413.0851,N,12019.1445,W,1,09,0.8,6.6,M,-33.7,M,,*5C
$PYRTM,2024,123.338155651169,14.447803061319
$GPGGA,080655.00,3413.0850,N,12019.1458,W,1,09,0.8,8.2,M,-33.7,M,,*5A
$PYRTM,2024,123.338167235671,14.447814645810
$GPGGA,080656.00,3413.0849,N,12019.1478,W,1,09,0.8,7.1,M,-33.7,M,,*5F
$PYRTM,2024,123.338178798241,14.447826208380
$GPGGA,080657.00,3413.0848,N,12019.1494,W,1,09,0.8,7.8,M,-33.7,M,,*54
$PYRTM,2024,123.338190383831,14.447837793970
$GPGGA,080658.00,3413.0847,N,12019.1506,W,1,09,0.8,7.7,M,-33.7,M,,*51
$PYRTM,2024,123.338201948912,14.447849359051
$GPGGA,080659.00,3413.0848,N,12019.1517,W,1,09,0.8,8.4,M,-33.7,M,,*53
$PYRTM,2024,123.338213535972,14.447860946111
$GPGGA,080700.00,3413.0848,N,12019.1532,W,1,09,0.8,8.8,M,-33.7,M,,*55
$PYRTM,2024,123.338225095567,14.447872505706
$GPGGA,080701.00,3413.0846,N,12019.1547,W,1,09,0.8,9.0,M,-33.7,M,,*51
$PYRTM,2024,123.338236684363,14.447884094514
$GPGGA,080702.00,3413.0843,N,12019.1564,W,1,09,0.8,8.2,M,-33.7,M,,*55
$PYRTM,2024,123.338248244525,14.447895654676
$GPGGA,080703.00,3413.0841,N,12019.1582,W,1,09,0.8,8.5,M,-33.7,M,,*59
$PYRTM,2024,123.338259832176,14.447907242315
$GPGGA,080704.00,3413.0841,N,12019.1597,W,1,09,0.8,8.8,M,-33.7,M,,*57
$PYRTM,2024,123.338271392650,14.447918802789
$GPGGA,080705.00,3413.0841,N,12019.1608,W,1,09,0.8,9.8,M,-33.7,M,,*52
$PYRTM,2024,123.338282981736,14.447930391875
$GPGGA,080706.00,3413.0840,N,12019.1622,W,1,09,0.8,10.4,M,-33.7,M,,*6C
$PYRTM,2024,123.338295599329,14.447943009468
$GPGGA,080707.00,3413.0837,N,12019.1640,W,1,09,0.8,10.6,M,-33.7,M,,*6B
$PYRTM,2024,123.338307171157,14.447954581296
$GPGGA,080708.00,3413.0834,N,12019.1656,W,1,09,0.8,10.0,M,-33.7,M,,*66
$PYRTM,2024,123.338318738854,14.447966148993
$GPGGA,080709.00,3413.0833,N,12019.1666,W,1,09,0.8,10.3,M,-33.7,M,,*60
$PYRTM,2024,123.338330317616,14.447977727755
$GPGGA,080710.00,3413.0836,N,12019.1675,W,1,09,0.8,10.1,M,-33.7,M,,*6D
$PYRTM,2024,123.338341892859,14.447989302998
$GPGGA,080711.00,3413.0840,N,12019.1689,W,1,09,0.8,9.8,M,-33.7,M,,*5F
$PYRTM,2024,123.338353466539,14.448000876678
$GPGGA,080712.00,3413.0840,N,12019.1702,W,1,09,0.8,9.5,M,-33.7,M,,*53
$PYRTM,2024,123.338365040787,14.448012450926
$GPGGA,080713.00,3413.0836,N,12019.1716,W,1,09,0.8,9.3,M,-33.7,M,,*50
$PYRTM,2024,123.338376614468,14.448024024606
$GPGGA,080714.00,3413.0836,N,12019.1732,W,1,09,0.8,8.4,M,-33.7,M,,*57
$PYRTM,2024,123.338388189826,14.448035599965
$GPGGA,080715.00,3413.0838,N,12019.1747,W,1,09,0.8,8.7,M,-33.7,M,,*59
$PYRTM,2024,123.338399762975,14.448047173125
$GPGGA,080716.00,3413.0841,N,12019.1758,W,1,09,0.8,9.6,M,-33.7,M,,*5A
$PYRTM,2024,123.338411795613,14.448059205764
$GPGGA,080717.00,3413.0842,N,12019.1770,W,1,09,0.8,10.0,M,-33.7,M,,*6C
$PYRTM,2024,123.338422911910,14.448070322049
$GPGGA,080718.00,3413.0843,N,12019.1788,W,1,09,0.8,11.3,M,-33.7,M,,*67
$PYRTM,2024,123.338434488819,14.448081898958
$GPGGA,080719.00,3413.0841,N,12019.1808,W,1,09,0.8,8.2,M,-33.7,M,,*5A
$PYRTM,2024,123.338446054421,14.448093464560
$GPGGA,080720.00,3413.0839,N,12019.1819,W,1,09,0.8,9.0,M,-33.7,M,,*5C
$PYRTM,2024,123.338457634769,14.448105044907
$GPGGA,080721.00,3413.0838,N,12019.1827,W,1,09,0.8,10.9,M,-33.7,M,,*60
$PYRTM,2024,123.338469202442,14.448116612581
$GPGGA,080722.00,3413.0841,N,12019.1841,W,1,09,0.8,10.8,M,-33.7,M,,*6C
$PYRTM,2024,123.338481244653,14.448128654792
$GPGGA,080723.00,3413.0845,N,12019.1860,W,1,09,0.8,10.1,M,-33.7,M,,*63
$PYRTM,2024,123.338492356400,14.448139766539
$GPGGA,080724.00,3413.0844,N,12019.1874,W,1,09,0.8,8.9,M,-33.7,M,,*51
$PYRTM,2024,123.338503930081,14.448151340220
$GPGGA,080725.00,3413.0840,N,12019.1884,W,1,09,0.8,8.9,M,-33.7,M,,*5B
$PYRTM,2024,123.338515499097,14.448162909236
$GPGGA,080726.00,3413.0838,N,12019.1897,W,1,09,0.8,9.4,M,-33.7,M,,*59
$PYRTM,2024,123.338527075312,14.448174485451
$GPGGA,080727.00,3413.0843,N,12019.1915,W,1,09,0.8,9.5,M,-33.7,M,,*5E
$PYRTM,2024,123.338538652720,14.448186062859
$GPGGA,080728.00,3413.0848,N,12019.1931,W,1,09,0.8,9.4,M,-33.7,M,,*5D
$PYRTM,2024,123.338550229769,14.448197639907
$GPGGA,080729.00,3413.0846,N,12019.1941,W,1,09,0.8,10.4,M,-33.7,M,,*6D
$PYRTM,2024,123.338561801574,14.448209211713
$GPGGA,080730.00,3413.0839,N,12019.1951,W,1,09,0.8,11.0,M,-33.7,M,,*69
$PYRTM,2024,123.338573377674,14.448220787813
$GPGGA,080731.00,3413.0834,N,12019.1962,W,1,09,0.8,11.5,M,-33.7,M,,*60
$PYRTM,2024,123.338584949375,14.448232359514
$GPGGA,080732.00,3413.0836,N,12019.1978,W,1,09,0.8,10.8,M,-33.7,M,,*66
$PYRTM,2024,123.338596526493,14.448243936632
$GPGGA,080733.00,3413.0840,N,12019.1994,W,1,09,0.8,9.2,M,-33.7,M,,*56
$PYRTM,2024,123.338608096539,14.448255506678
$GPGGA,080734.00,3413.0841,N,12019.2011,W,1,09,0.8,8.1,M,-33.7,M,,*55
$PYRTM,2024,123.338619670822,14.448267080961
$GPGGA,080735.00,3413.0838,N,12019.2027,W,1,09,0.8,7.9,M,-33.7,M,,*58
$PYRTM,2024,123.338631244225,14.448278654375
$GPGGA,080736.00,3413.0836,N,12019.2039,W,1,09,0.8,8.4,M,-33.7,M,,*58
$PYRTM,2024,123.338643963947,14.448291374086
$GPGGA,080737.00,3413.0836,N,12019.2052,W,1,09,0.8,9.4,M,-33.7,M,,*55
$PYRTM,2024,123.338656578009,14.448303988148
$GPGGA,080738.00,3413.0838,N,12019.2064,W,1,09,0.8,10.1,M,-33.7,M,,*6C
$PYRTM,2024,123.338665968044,14.448313378183
$GPGGA,080739.00,3413.0838,N,12019.2077,W,1,09,0.8,10.0,M,-33.7,M,,*6E
$PYRTM,2024,123.338677541655,14.448324951794
$GPGGA,080740.00,3413.0836,N,12019.2092,W,1,09,0.8,8.5,M,-33.7,M,,*59
$PYRTM,2024,123.338689116157,14.448336526296
$GPGGA,080741.00,3413.0833,N,12019.2106,W,1,09,0.8,6.5,M,-33.7,M,,*5F
$PYRTM,2024,123.338700690289,14.448348100440
$GPGGA,080742.00,3413.0834,N,12019.2121,W,1,09,0.8,5.2,M,-33.7,M,,*5A
$PYRTM,2024,123.338712262917,14.448359673056
$GPGGA,080743.00,3413.0835,N,12019.2135,W,1,09,0.8,5.0,M,-33.7,M,,*5D
$PYRTM,2024,123.338723837778,14.448371247917
$GPGGA,080744.00,3413.0834,N,12019.2150,W,1,09,0.8,5.8,M,-33.7,M,,*50
$PYRTM,2024,123.338735412488,14.448382822627
$GPGGA,080745.00,3413.0832,N,12019.2169,W,1,09,0.8,5.9,M,-33.7,M,,*5C
$PYRTM,2024,123.338746987002,14.448394397141
$GPGGA,080746.00,3413.0830,N,12019.2187,W,1,09,0.8,6.2,M,-33.7,M,,*55
$PYRTM,2024,123.338758563773,14.448405973912
$GPGGA,080747.00,3413.0830,N,12019.2198,W,1,09,0.8,6.2,M,-33.7,M,,*5A
$PYRTM,2024,123.338770134109,14.448417544248
$GPGGA,080748.00,3413.0831,N,12019.2210,W,1,09,0.8,5.8,M,-33.7,M,,*5E
$PYRTM,2024,123.338781708426,14.448429118565
$GPGGA,080749.00,3413.0831,N,12019.2225,W,1,09,0.8,5.3,M,-33.7,M,,*52
$PYRTM,2024,123.338793284491,14.448440694630
$GPGGA,080750.00,3413.0828,N,12019.2242,W,1,09,0.8,5.2,M,-33.7,M,,*52
$PYRTM,2024,123.338804859282,14.448452269421
$GPGGA,080751.00,3413.0826,N,12019.2258,W,1,09,0.8,4.8,M,-33.7,M,,*5D
$PYRTM,2024,123.338816431308,14.448463841447
$GPGGA,080752.00,3413.0828,N,12019.2272,W,1,09,0.8,4.7,M,-33.7,M,,*57
$PYRTM,2024,123.338828462812,14.448475872963
$GPGGA,080753.00,3413.0830,N,12019.2286,W,1,09,0.8,5.0,M,-33.7,M,,*52
$PYRTM,2024,123.338839578993,14.448486989144
$GPGGA,080754.00,3413.0829,N,12019.2301,W,1,09,0.8,5.8,M,-33.7,M,,*5B
$PYRTM,2024,123.338851153542,14.448498563681
$GPGGA,080755.00,3413.0825,N,12019.2316,W,1,09,0.8,6.2,M,-33.7,M,,*59
$PYRTM,2024,123.338862726921,14.448510137060
$GPGGA,080756.00,3413.0823,N,12019.2331,W,1,09,0.8,6.5,M,-33.7,M,,*5E
$PYRTM,2024,123.338874314815,14.448521724954
$GPGGA,080757.00,3413.0823,N,12019.2345,W,1,09,0.8,6.5,M,-33.7,M,,*5C
$PYRTM,2024,123.338885874201,14.448533284340
$GPGGA,080758.00,3413.0823,N,12019.2361,W,1,09,0.8,6.6,M,-33.7,M,,*56
$PYRTM,2024,123.338897449757,14.448544859896
$GPGGA,080759.00,3413.0823,N,12019.2376,W,1,09,0.8,6.8,M,-33.7,M,,*5F
$PYRTM,2024,123.338909018102,14.448556428241
$GPGGA,080800.00,3413.0823,N,12019.2392,W,1,09,0.8,6.5,M,-33.7,M,,*5B
$PYRTM,2024,123.338920598889,14.448568009028
$GPGGA,080801.00,3413.0824,N,12019.2410,W,1,09,0.8,7.5,M,-33.7,M,,*51
$PYRTM,2024,123.338932167187,14.448579577326
$GPGGA,080802.00,3413.0822,N,12019.2428,W,1,09,0.8,7.5,M,-33.7,M,,*5F
$PYRTM,2024,123.338943751817,14.448591161956
$GPGGA,080803.00,3413.0821,N,12019.2442,W,1,09,0.8,7.4,M,-33.7,M,,*50
$PYRTM,2024,123.338955319560,14.448602729711
$GPGGA,080804.00,3413.0820,N,12019.2457,W,1,09,0.8,7.4,M,-33.7,M,,*52
$PYRTM,2024,123.338966893935,14.448614304074
$GPGGA,080805.00,3413.0821,N,12019.2475,W,1,09,0.8,10.5,M,-33.7,M,,*65
$PYRTM,2024,123.338978469248,14.448625879387
$GPGGA,080806.00,3413.0823,N,12019.2493,W,1,09,0.8,7.7,M,-33.7,M,,*58
$PYRTM,2024,123.338991535012,14.448638945150
$GPGGA,080807.00,3413.0824,N,12019.2511,W,1,09,0.8,7.0,M,-33.7,M,,*52
$PYRTM,2024,123.339003801111,14.448651211262
$GPGGA,080808.00,3413.0823,N,12019.2526,W,1,09,0.8,8.0,M,-33.7,M,,*51
$PYRTM,2024,123.339013191030,14.448660601169
$GPGGA,080809.00,3413.0821,N,12019.2541,W,1,09,0.8,8.2,M,-33.7,M,,*51
$PYRTM,2024,123.339024764502,14.448672174641
$GPGGA,080810.00,3413.0822,N,12019.2557,W,1,09,0.8,9.0,M,-33.7,M,,*5E
$PYRTM,2024,123.339036338877,14.448683749016
$GPGGA,080811.00,3413.0823,N,12019.2572,W,1,09,0.8,9.8,M,-33.7,M,,*51
$PYRTM,2024,123.339047912697,14.448695322836
$GPGGA,080812.00,3413.0826,N,12019.2588,W,1,09,0.8,9.5,M,-33.7,M,,*5F
$PYRTM,2024,123.339059489699,14.448706899838
$GPGGA,080813.00,3413.0827,N,12019.2606,W,1,09,0.8,6.3,M,-33.7,M,,*53
$PYRTM,2024,123.339071062465,14.448718472604
$GPGGA,080814.00,3413.0827,N,12019.2625,W,1,09,0.8,7.1,M,-33.7,M,,*56
$PYRTM,2024,123.339082631377,14.448730041516
$GPGGA,080815.00,3413.0827,N,12019.2642,W,1,09,0.8,5.4,M,-33.7,M,,*51
$PYRTM,2024,123.339094208229,14.448741618368
$GPGGA,080816.00,3413.0829,N,12019.2656,W,1,09,0.8,6.0,M,-33.7,M,,*5E
$PYRTM,2024,123.339105771343,14.448753181481
$GPGGA,080817.00,3413.0830,N,12019.2670,W,1,09,0.8,6.5,M,-33.7,M,,*56
$PYRTM,2024,123.339117357569,14.448764767708
$GPGGA,080818.00,3413.0830,N,12019.2689,W,1,09,0.8,8.5,M,-33.7,M,,*51
$PYRTM,2024,123.339128918067,14.448776328206
$GPGGA,080819.00,3413.0829,N,12019.2710,W,1,09,0.8,8.1,M,-33.7,M,,*5D
$PYRTM,2024,123.339140505914,14.448787916053
$GPGGA,080820.00,3413.0827,N,12019.2728,W,1,09,0.8,7.5,M,-33.7,M,,*59
$PYRTM,2024,123.339152065856,14.448799476007
$GPGGA,080821.00,3413.0829,N,12019.2744,W,1,09,0.8,7.1,M,-33.7,M,,*58
$PYRTM,2024,123.339163653484,14.448811063623
$GPGGA,080822.00,3413.0835,N,12019.2763,W,1,09,0.8,6.9,M,-33.7,M,,*5A
$PYRTM,2024,123.339175692616,14.448823102766
$GPGGA,080823.00,3413.0836,N,12019.2782,W,1,09,0.8,8.5,M,-33.7,M,,*55
$PYRTM,2024,123.339186802581,14.448834212720
$GPGGA,080824.00,3413.0829,N,12019.2798,W,1,09,0.8,9.5,M,-33.7,M,,*56
$PYRTM,2024,123.339198362650,14.448845772789
$GPGGA,080825.00,3413.0825,N,12019.2817,W,1,09,0.8,8.8,M,-33.7,M,,*5F
$PYRTM,2024,123.339209950775,14.448857360914
$GPGGA,080826.00,3413.0827,N,12019.2838,W,1,09,0.8,11.3,M,-33.7,M,,*60
$PYRTM,2024,123.339221509803,14.448868919942
$GPGGA,080827.00,3413.0831,N,12019.2857,W,1,09,0.8,9.8,M,-33.7,M,,*5D
$PYRTM,2024,123.339233097234,14.448880507373
$GPGGA,080828.00,3413.0831,N,12019.2873,W,1,09,0.8,10.2,M,-33.7,M,,*66
$PYRTM,2024,123.339243732604,14.448891142743
$GPGGA,080829.00,3413.0828,N,12019.2889,W,1,09,0.8,10.9,M,-33.7,M,,*61
$PYRTM,2024,123.339256825324,14.448904235475
$GPGGA,080830.00,3413.0827,N,12019.2909,W,1,09,0.8,10.6,M,-33.7,M,,*60
$PYRTM,2024,123.339267577130,14.448914987269
$GPGGA,080831.00,3413.0828,N,12019.2930,W,1,09,0.8,11.6,M,-33.7,M,,*65
$PYRTM,2024,123.339278688345,14.448926098484
$GPGGA,080832.00,3413.0830,N,12019.2949,W,1,09,0.8,11.5,M,-33.7,M,,*62
$PYRTM,2024,123.339289801042,14.448937211181
$GPGGA,080833.00,3413.0829,N,12019.2966,W,1,09,0.8,12.8,M,-33.7,M,,*68
$PYRTM,2024,123.339300909259,14.448948319398
$GPGGA,080834.00,3413.0826,N,12019.2984,W,1,09,0.8,12.1,M,-33.7,M,,*65
$PYRTM,2024,123.339312020683,14.448959430822
$GPGGA,080835.00,3413.0825,N,12019.3003,W,1,09,0.8,11.6,M,-33.7,M,,*64
$PYRTM,2024,123.339323132975,14.448970543113
$GPGGA,080836.00,3413.0827,N,12019.3021,W,1,09,0.8,11.1,M,-33.7,M,,*62
$PYRTM,2024,123.339334243333,14.448981653484
$GPGGA,080837.00,3413.0828,N,12019.3035,W,1,09,0.8,10.4,M,-33.7,M,,*6D
$PYRTM,2024,123.339348840995,14.448996251146
$GPGGA,080838.00,3413.0827,N,12019.3049,W,1,09,0.8,10.0,M,-33.7,M,,*62
$PYRTM,2024,123.339359951655,14.449007361806
$GPGGA,080839.00,3413.0826,N,12019.3068,W,1,09,0.8,10.6,M,-33.7,M,,*67
