$PYRTM,2024,125.083341229572,16.192988639711
$GPGGA,015959.00,3510.4689,N,12138.3912,W,1,08,1.3,8.7,M,-32.5,M,,*57
$PYRTM,2024,125.083352796273,16.193000206412
$GPGGA,020000.00,3510.4687,N,12138.3934,W,1,08,1.3,10.0,M,-32.5,M,,*60
$PYRTM,2024,125.083364388843,16.193011798981
$GPGGA,020001.00,3510.4683,N,12138.3958,W,1,08,1.3,9.7,M,-32.5,M,,*50
$PYRTM,2024,125.083375944618,16.193023354757
$GPGGA,020002.00,3510.4681,N,12138.3983,W,1,08,1.3,10.6,M,-32.5,M,,*6E
$PYRTM,2024,125.083387533623,16.193034943762
$GPGGA,020003.00,3510.4686,N,12138.4007,W,1,08,1.3,8.2,M,-32.5,M,,*57
$PYRTM,2024,125.083399093090,16.193046503229
$GPGGA,020004.00,3510.4688,N,12138.4030,W,1,08,1.3,7.7,M,-32.5,M,,*50
$PYRTM,2024,125.083410683079,16.193058093218
$GPGGA,020005.00,3510.4683,N,12138.4055,W,1,08,1.3,5.6,M,-32.5,M,,*5A
$PYRTM,2024,125.083422242315,16.193069652454
$GPGGA,020006.00,3510.4676,N,12138.4081,W,1,08,1.3,7.3,M,-32.5,M,,*5D
$PYRTM,2024,125.083433829514,16.193081239653
$GPGGA,020007.00,3510.4673,N,12138.4105,W,1,08,1.3,8.0,M,-32.5,M,,*58
$PYRTM,2024,125.083445391690,16.193092801829
$GPGGA,020008.00,3510.4674,N,12138.4128,W,1,08,1.3,7.6,M,-32.5,M,,*56
$PYRTM,2024,125.083456976366,16.193104386505
$GPGGA,020009.00,3510.4675,N,12138.4155,W,1,08,1.3,8.2,M,-32.5,M,,*57
$PYRTM,2024,125.083468537211,16.193115947350
$GPGGA,020010.00,3510.4672,N,12138.4181,W,1,08,1.3,6.3,M,-32.5,M,,*5E
$PYRTM,2024,125.083481165359,16.193128575498
$GPGGA,020011.00,3510.4667,N,12138.4203,W,1,08,1.3,8.1,M,-32.5,M,,*5E
$PYRTM,2024,125.083492726505,16.193140136655
$GPGGA,020012.00,3510.4665,N,12138.4225,W,1,08,1.3,9.4,M,-32.5,M,,*5F
$PYRTM,2024,125.083504314352,16.193151724491
$GPGGA,020013.00,3510.4666,N,12138.4249,W,1,08,1.3,9.8,M,-32.5,M,,*5B
$PYRTM,2024,125.083515874954,16.193163285093
$GPGGA,020014.00,3510.4666,N,12138.4276,W,1,08,1.3,11.1,M,-32.5,M,,*60
$PYRTM,2024,125.083527461470,16.193174871609
$GPGGA,020015.00,3510.4665,N,12138.4301,W,1,08,1.3,7.3,M,-32.5,M,,*56
$PYRTM,2024,125.083539021597,16.193186431736
$GPGGA,020016.00,3510.4663,N,12138.4323,W,1,08,1.3,9.0,M,-32.5,M,,*5E
$PYRTM,2024,125.083551062894,16.193198473032
$GPGGA,020017.00,3510.4664,N,12138.4347,W,1,08,1.3,8.1,M,-32.5,M,,*5A
$PYRTM,2024,125.083562173137,16.193209583275
$GPGGA,020018.00,3510.4664,N,12138.4371,W,1,08,1.3,8.9,M,-32.5,M,,*58
$PYRTM,2024,125.083573769583,16.193221179722
$GPGGA,020019.00,3510.4663,N,12138.4394,W,1,08,1.3,10.7,M,-32.5,M,,*62
$PYRTM,2024,125.083585321412,16.193232731551
$GPGGA,020020.00,3510.4662,N,12138.4419,W,1,08,1.3,9.1,M,-32.5,M,,*55
$PYRTM,2024,125.083596911296,16.193244321435
$GPGGA,020021.00,3510.4662,N,12138.4445,W,1,08,1.3,6.2,M,-32.5,M,,*51
$PYRTM,2024,125.083608468009,16.193255878148
$GPGGA,020022.00,3510.4661,N,12138.4470,W,1,08,1.3,6.0,M,-32.5,M,,*55
$PYRTM,2024,125.083620055220,16.193267465359
$GPGGA,020023.00,3510.4659,N,12138.4494,W,1,08,1.3,5.8,M,-32.5,M,,*5E
$PYRTM,2024,125.083631617373,16.193279027512
$GPGGA,020024.00,3510.4658,N,12138.4517,W,1,08,1.3,7.6,M,-32.5,M,,*5E
$PYRTM,2024,125.083643204456,16.193290614595
$GPGGA,020025.00,3510.4657,N,12138.4542,W,1,08,1.3,7.7,M,-32.5,M,,*51
$PYRTM,2024,125.083654766146,16.193302176285
$GPGGA,020026.00,3510.4657,N,12138.4572,W,1,08,1.3,7.0,M,-32.5,M,,*56
$PYRTM,2024,125.083666353831,16.193313763981
$GPGGA,020027.00,3510.4658,N,12138.4599,W,1,08,1.3,7.3,M,-32.5,M,,*5E
$PYRTM,2024,125.083677914838,16.193325324977
$GPGGA,020028.00,3510.4656,N,12138.4621,W,1,08,1.3,10.5,M,-32.5,M,,*6F
$PYRTM,2024,125.083689499873,16.193336910012
$GPGGA,020029.00,3510.4649,N,12138.4644,W,1,08,1.3,7.9,M,-32.5,M,,*59
$PYRTM,2024,125.083701060359,16.193348470486
$GPGGA,020030.00,3510.4645,N,12138.4672,W,1,08,1.3,7.7,M,-32.5,M,,*56
$PYRTM,2024,125.083713098727,16.193360508866
$GPGGA,020031.00,3510.4647,N,12138.4699,W,1,08,1.3,6.8,M,-32.5,M,,*5E
$PYRTM,2024,125.083724211377,16.193371621516
$GPGGA,020032.00,3510.4650,N,12138.4723,W,1,08,1.3,6.2,M,-32.5,M,,*51
$PYRTM,2024,125.083735799780,16.193383209919
$GPGGA,020033.00,3510.4648,N,12138.4746,W,1,08,1.3,8.4,M,-32.5,M,,*52
$PYRTM,2024,125.083747357442,16.193394767581
$GPGGA,020034.00,3510.4640,N,12138.4769,W,1,08,1.3,10.9,M,-32.5,M,,*64
$PYRTM,2024,125.083758948044,16.193406358183
$GPGGA,020035.00,3510.4635,N,12138.4792,W,1,08,1.3,8.5,M,-32.5,M,,*56
$PYRTM,2024,125.083770506377,16.193417916516
$GPGGA,020036.00,3510.4637,N,12138.4818,W,1,08,1.3,6.5,M,-32.5,M,,*54
$PYRTM,2024,125.083782097905,16.193429508044
$GPGGA,020037.00,3510.4642,N,12138.4843,W,1,08,1.3,6.8,M,-32.5,M,,*54
$PYRTM,2024,125.083793656215,16.193441066366
$GPGGA,020038.00,3510.4641,N,12138.4864,W,1,08,1.3,7.5,M,-32.5,M,,*51
$PYRTM,2024,125.083805241447,16.193452651586
$GPGGA,020039.00,3510.4632,N,12138.4886,W,1,08,1.3,5.2,M,-32.5,M,,*5D
$PYRTM,2024,125.083816803958,16.193464214097
$GPGGA,020040.00,3510.4622,N,12138.4912,W,1,08,1.3,6.3,M,-32.5,M,,*5C
$PYRTM,2024,125.083829533970,16.193476944109
$GPGGA,020041.00,3510.4622,N,12138.4940,W,1,08,1.3,7.6,M,-32.5,M,,*5E
$PYRTM,2024,125.083842156377,16.193489566516
$GPGGA,020042.00,3510.4626,N,12138.4963,W,1,08,1.3,6.0,M,-32.5,M,,*5F
$PYRTM,2024,125.083851540394,16.193498950532
$GPGGA,020043.00,3510.4625,N,12138.4983,W,1,08,1.3,8.3,M,-32.5,M,,*5E
$PYRTM,2024,125.083863098889,16.193510509028
$GPGGA,020044.00,3510.4620,N,12138.5007,W,1,08,1.3,6.8,M,-32.5,M,,*5D
$PYRTM,2024,125.083874688171,16.193522098310
$GPGGA,020045.00,3510.4614,N,12138.5034,W,1,08,1.3,7.1,M,-32.5,M,,*53
$PYRTM,2024,125.083886247211,16.193533657350
$GPGGA,020046.00,3510.4612,N,12138.5061,W,1,08,1.3,5.5,M,-32.5,M,,*50
$PYRTM,2024,125.083898284792,16.193545694931
$GPGGA,020047.00,3510.4612,N,12138.5084,W,1,08,1.3,5.3,M,-32.5,M,,*5C
$PYRTM,2024,125.083909395683,16.193556805822
$GPGGA,020048.00,3510.4612,N,12138.5108,W,1,08,1.3,6.1,M,-32.5,M,,*57
$PYRTM,2024,125.083920984757,16.193568394896
$GPGGA,020049.00,3510.4608,N,12138.5134,W,1,08,1.3,5.5,M,-32.5,M,,*55
$PYRTM,2024,125.083932542338,16.193579952477
$GPGGA,020050.00,3510.4604,N,12138.5160,W,1,08,1.3,7.0,M,-32.5,M,,*57
$PYRTM,2024,125.083944125312,16.193591535451
$GPGGA,020051.00,3510.4604,N,12138.5183,W,1,08,1.3,8.0,M,-32.5,M,,*54
$PYRTM,2024,125.083955692986,16.193603103125
$GPGGA,020052.00,3510.4606,N,12138.5205,W,1,08,1.3,7.8,M,-32.5,M,,*5F
$PYRTM,2024,125.083967273831,16.193614683970
$GPGGA,020053.00,3510.4605,N,12138.5230,W,1,08,1.3,10.1,M,-32.5,M,,*64
$PYRTM,2024,125.083978840694,16.193626250833
$GPGGA,020054.00,3510.4604,N,12138.5256,W,1,08,1.3,6.7,M,-32.5,M,,*53
$PYRTM,2024,125.083990427083,16.193637837222
$GPGGA,020055.00,3510.4603,N,12138.5281,W,1,08,1.3,6.5,M,-32.5,M,,*5D
$PYRTM,2024,125.084001988194,16.193649398333
$GPGGA,020056.00,3510.4604,N,12138.5305,W,1,08,1.3,9.7,M,-32.5,M,,*59
$PYRTM,2024,125.084013575278,16.193660985417
$GPGGA,020057.00,3510.4602,N,12138.5327,W,1,08,1.3,8.3,M,-32.5,M,,*5B
$PYRTM,2024,125.084025138681,16.193672548819
$GPGGA,020058.00,3510.4599,N,12138.5353,W,1,08,1.3,7.8,M,-32.5,M,,*52
$PYRTM,2024,125.084036727581,16.193684137720
$GPGGA,020059.00,3510.4598,N,12138.5379,W,1,08,1.3,6.8,M,-32.5,M,,*5B
$PYRTM,2024,125.084048285579,16.193695695718
$GPGGA,020100.00,3510.4601,N,12138.5402,W,1,08,1.3,4.4,M,-32.5,M,,*50
$PYRTM,2024,125.084059875984,16.193707286123
$GPGGA,020101.00,3510.4602,N,12138.5425,W,1,08,1.3,7.1,M,-32.5,M,,*51
$PYRTM,2024,125.084071433935,16.193718844074
$GPGGA,020102.00,3510.4598,N,12138.5451,W,1,08,1.3,7.4,M,-32.5,M,,*54
$PYRTM,2024,125.084083023611,16.193730433750
$GPGGA,020103.00,3510.4594,N,12138.5479,W,1,08,1.3,6.4,M,-32.5,M,,*52
$PYRTM,2024,125.084094582164,16.193741992303
$GPGGA,020104.00,3510.4595,N,12138.5504,W,1,08,1.3,6.0,M,-32.5,M,,*5B
$PYRTM,2024,125.084106171933,16.193753582072
$GPGGA,020105.00,3510.4597,N,12138.5528,W,1,08,1.3,8.3,M,-32.5,M,,*5B
$PYRTM,2024,125.084117733032,16.193765143171
$GPGGA,020106.00,3510.4598,N,12138.5552,W,1,08,1.3,9.5,M,-32.5,M,,*5D
$PYRTM,2024,125.084129317014,16.193776727153
$GPGGA,020107.00,3510.4597,N,12138.5576,W,1,08,1.3,8.7,M,-32.5,M,,*56
$PYRTM,2024,125.084140880139,16.193788290278
$GPGGA,020108.00,3510.4595,N,12138.5602,W,1,08,1.3,8.5,M,-32.5,M,,*59
$PYRTM,2024,125.084152465347,16.193799875486
$GPGGA,020109.00,3510.4597,N,12138.5628,W,1,08,1.3,7.8,M,-32.5,M,,*50
$PYRTM,2024,125.084164027951,16.193811438090
$GPGGA,020110.00,3510.4601,N,12138.5652,W,1,08,1.3,7.2,M,-32.5,M,,*53
$PYRTM,2024,125.084176758414,16.193824168565
$GPGGA,020111.00,3510.4601,N,12138.5673,W,1,08,1.3,8.6,M,-32.5,M,,*5A
$PYRTM,2024,125.084189387106,16.193836797245
$GPGGA,020112.00,3510.4597,N,12138.5697,W,1,08,1.3,6.8,M,-32.5,M,,*5F
$PYRTM,2024,125.084198756528,16.193846166667
$GPGGA,020113.00,3510.4594,N,12138.5724,W,1,08,1.3,8.6,M,-32.5,M,,*54
$PYRTM,2024,125.084209396898,16.193856807037
$GPGGA,020114.00,3510.4593,N,12138.5750,W,1,08,1.3,6.5,M,-32.5,M,,*5A
$PYRTM,2024,125.084221549028,16.193868959167
$GPGGA,020115.00,3510.4594,N,12138.5774,W,1,08,1.3,8.7,M,-32.5,M,,*56
$PYRTM,2024,125.084233135741,16.193880545880
$GPGGA,020116.00,3510.4594,N,12138.5797,W,1,08,1.3,9.9,M,-32.5,M,,*57
$PYRTM,2024,125.084244247593,16.193891657731
$GPGGA,020117.00,3510.4590,N,12138.5823,W,1,08,1.3,9.1,M,-32.5,M,,*5A
$PYRTM,2024,125.084255810590,16.193903220729
$GPGGA,020118.00,3510.4586,N,12138.5851,W,1,08,1.3,6.7,M,-32.5,M,,*5E
$PYRTM,2024,125.084266921343,16.193914331493
$GPGGA,020119.00,3510.4584,N,12138.5874,W,1,08,1.3,8.4,M,-32.5,M,,*57
$PYRTM,2024,125.084278033009,16.193925443148
$GPGGA,020120.00,3510.4581,N,12138.5897,W,1,08,1.3,9.1,M,-32.5,M,,*51
$PYRTM,2024,125.084289143565,16.193936553704
$GPGGA,020121.00,3510.4576,N,12138.5925,W,1,08,1.3,8.7,M,-32.5,M,,*57
$PYRTM,2024,125.084300743299,16.193948153437
$GPGGA,020122.00,3510.4576,N,12138.5955,W,1,08,1.3,6.5,M,-32.5,M,,*5F
$PYRTM,2024,125.084311841065,16.193959251204
$GPGGA,020123.00,3510.4577,N,12138.5978,W,1,08,1.3,6.2,M,-32.5,M,,*57
$PYRTM,2024,125.084322952720,16.193970362859
$GPGGA,020124.00,3510.4571,N,12138.5998,W,1,08,1.3,7.5,M,-32.5,M,,*5E
$PYRTM,2024,125.084334063519,16.193981473657
$GPGGA,020125.00,3510.4561,N,12138.6025,W,1,08,1.3,9.3,M,-32.5,M,,*5A
$PYRTM,2024,125.084347590995,16.193995001134
$GPGGA,020126.00,3510.4554,N,12138.6055,W,1,08,1.3,9.0,M,-32.5,M,,*5B
$PYRTM,2024,125.084359760231,16.194007170370
$GPGGA,020127.00,3510.4554,N,12138.6080,W,1,08,1.3,7.4,M,-32.5,M,,*58
$PYRTM,2024,125.084371330868,16.194018741007
$GPGGA,020128.00,3510.4555,N,12138.6100,W,1,08,1.3,8.6,M,-32.5,M,,*52
$PYRTM,2024,125.084382909259,16.194030319398
$GPGGA,020129.00,3510.4553,N,12138.6122,W,1,08,1.3,8.2,M,-32.5,M,,*51
$PYRTM,2024,125.084394475023,16.194041885162
$GPGGA,020130.00,3510.4548,N,12138.6147,W,1,08,1.3,4.9,M,-32.5,M,,*57
$PYRTM,2024,125.084406057685,16.194053467824
$GPGGA,020131.00,3510.4544,N,12138.6172,W,1,08,1.3,6.5,M,-32.5,M,,*52
$PYRTM,2024,125.084417628484,16.194065038623
$GPGGA,020132.00,3510.4543,N,12138.6193,W,1,08,1.3,9.0,M,-32.5,M,,*53
$PYRTM,2024,125.084429197500,16.194076607639
$GPGGA,020133.00,3510.4543,N,12138.6216,W,1,08,1.3,9.6,M,-32.5,M,,*5A
$PYRTM,2024,125.084440771447,16.194088181586
$GPGGA,020134.00,3510.4543,N,12138.6243,W,1,08,1.3,4.1,M,-32.5,M,,*57
$PYRTM,2024,125.084452351481,16.194099761632
$GPGGA,020135.00,3510.4541,N,12138.6267,W,1,08,1.3,6.5,M,-32.5,M,,*54
$PYRTM,2024,125.084463924502,16.194111334641
$GPGGA,020136.00,3510.4536,N,12138.6286,W,1,08,1.3,9.1,M,-32.5,M,,*53
$PYRTM,2024,125.084475369491,16.194122779630
$GPGGA,020137.00,3510.4529,N,12138.6310,W,1,08,1.3,8.5,M,-32.5,M,,*57
$PYRTM,2024,125.084487074363,16.194134484502
$GPGGA,020138.00,3510.4529,N,12138.6337,W,1,08,1.3,8.3,M,-32.5,M,,*5B
$PYRTM,2024,125.084498642847,16.194146052986
$GPGGA,020139.00,3510.4531,N,12138.6361,W,1,08,1.3,7.3,M,-32.5,M,,*5F
$PYRTM,2024,125.084510221227,16.194157631377
$GPGGA,020140.00,3510.4528,N,12138.6383,W,1,08,1.3,7.8,M,-32.5,M,,*5E
$PYRTM,2024,125.084522837755,16.194170247894
$GPGGA,020141.00,3510.4522,N,12138.6408,W,1,08,1.3,10.7,M,-32.5,M,,*68
$PYRTM,2024,125.084534400556,16.194181810694
$GPGGA,020142.00,3510.4518,N,12138.6434,W,1,08,1.3,8.7,M,-32.5,M,,*54
$PYRTM,2024,125.084545985405,16.194193395556
$GPGGA,020143.00,3510.4516,N,12138.6459,W,1,08,1.3,9.6,M,-32.5,M,,*50
$PYRTM,2024,125.084557546019,16.194204956157
$GPGGA,020144.00,3510.4516,N,12138.6482,W,1,08,1.3,8.1,M,-32.5,M,,*57
$PYRTM,2024,125.084569148600,16.194216558750
$GPGGA,020145.00,3510.4514,N,12138.6505,W,1,08,1.3,7.9,M,-32.5,M,,*5D
$PYRTM,2024,125.084580694954,16.194228105093
$GPGGA,020146.00,3510.4513,N,12138.6530,W,1,08,1.3,10.9,M,-32.5,M,,*69
$PYRTM,2024,125.084592733866,16.194240144016
$GPGGA,020147.00,3510.4510,N,12138.6555,W,1,08,1.3,9.6,M,-32.5,M,,*5F
$PYRTM,2024,125.084603844225,16.194251254375
$GPGGA,020148.00,3510.4506,N,12138.6579,W,1,08,1.3,10.0,M,-32.5,M,,*67
$PYRTM,2024,125.084615425637,16.194262835775
$GPGGA,020149.00,3510.4503,N,12138.6605,W,1,08,1.3,9.7,M,-32.5,M,,*54
$PYRTM,2024,125.084626991701,16.194274401840
$GPGGA,020150.00,3510.4503,N,12138.6630,W,1,08,1.3,7.3,M,-32.5,M,,*50
$PYRTM,2024,125.084638578137,16.194285988275
$GPGGA,020151.00,3510.4506,N,12138.6655,W,1,08,1.3,7.3,M,-32.5,M,,*57
$PYRTM,2024,125.084650140764,16.194297550903
$GPGGA,020152.00,3510.4506,N,12138.6677,W,1,08,1.3,6.9,M,-32.5,M,,*5F
$PYRTM,2024,125.084661727905,16.194309138056
$GPGGA,020153.00,3510.4501,N,12138.6700,W,1,08,1.3,10.1,M,-32.5,M,,*67
$PYRTM,2024,125.084673289410,16.194320699549
$GPGGA,020154.00,3510.4496,N,12138.6724,W,1,08,1.3,11.0,M,-32.5,M,,*69
$PYRTM,2024,125.084684876111,16.194332286250
$GPGGA,020155.00,3510.4494,N,12138.6748,W,1,08,1.3,10.3,M,-32.5,M,,*62
$PYRTM,2024,125.084696436921,16.194343847060
$GPGGA,020156.00,3510.4497,N,12138.6771,W,1,08,1.3,8.5,M,-32.5,M,,*57
$PYRTM,2024,125.084708023565,16.194355433704
$GPGGA,020157.00,3510.4496,N,12138.6792,W,1,08,1.3,9.5,M,-32.5,M,,*5B
$PYRTM,2024,125.084719585312,16.194366995451
$GPGGA,020158.00,3510.4493,N,12138.6816,W,1,08,1.3,8.7,M,-32.5,M,,*51
$PYRTM,2024,125.084731186505,16.194378596644
$GPGGA,020159.00,3510.4488,N,12138.6844,W,1,08,1.3,7.9,M,-32.5,M,,*5C
$PYRTM,2024,125.084742734965,16.194390145104
$GPGGA,020200.00,3510.4488,N,12138.6869,W,1,08,1.3,8.0,M,-32.5,M,,*5A
$PYRTM,2024,125.084754324468,16.194401734606
$GPGGA,020201.00,3510.4490,N,12138.6891,W,1,08,1.3,8.8,M,-32.5,M,,*5D
$PYRTM,2024,125.084765882396,16.194413292535
$GPGGA,020202.00,3510.4488,N,12138.6916,W,1,08,1.3,6.5,M,-32.5,M,,*5A
$PYRTM,2024,125.084777467639,16.194424877778
$GPGGA,020203.00,3510.4486,N,12138.6941,W,1,08,1.3,8.2,M,-32.5,M,,*5E
$PYRTM,2024,125.084789029745,16.194436439884
$GPGGA,020204.00,3510.4485,N,12138.6965,W,1,08,1.3,9.8,M,-32.5,M,,*57
$PYRTM,2024,125.084800611944,16.194448022083
$GPGGA,020205.00,3510.4485,N,12138.6987,W,1,08,1.0,6.4,M,-32.5,M,,*5A
$PYRTM,2024,125.084812178785,16.194459588924
$GPGGA,020206.00,3510.4486,N,12138.7010,W,1,08,1.0,6.3,M,-32.5,M,,*5B
$PYRTM,2024,125.084823759792,16.194471169931
$GPGGA,020207.00,3510.4487,N,12138.7035,W,1,08,1.0,6.2,M,-32.5,M,,*5D
$PYRTM,2024,125.084835328021,16.194482738160
$GPGGA,020208.00,3510.4487,N,12138.7059,W,1,08,1.0,8.0,M,-32.5,M,,*54
$PYRTM,2024,125.084846907222,16.194494317361
$GPGGA,020209.00,3510.4488,N,12138.7083,W,1,08,1.0,3.5,M,-32.5,M,,*53
$PYRTM,2024,125.084858474340,16.194505884479
$GPGGA,020210.00,3510.4488,N,12138.7108,W,1,08,1.0,5.6,M,-32.5,M,,*5C
$PYRTM,2024,125.084871554340,16.194518964479
$GPGGA,020211.00,3510.4488,N,12138.7132,W,1,08,1.0,6.0,M,-32.5,M,,*51
$PYRTM,2024,125.084883821667,16.194531231806
$GPGGA,020212.00,3510.4490,N,12138.7156,W,1,08,1.0,7.2,M,-32.5,M,,*5A
$PYRTM,2024,125.084893213495,16.194540623646
$GPGGA,020213.00,3510.4490,N,12138.7183,W,1,08,1.0,7.6,M,-32.5,M,,*57
$PYRTM,2024,125.084904770961,16.194552181100
$GPGGA,020214.00,3510.4489,N,12138.7212,W,1,08,1.0,3.8,M,-32.5,M,,*59
$PYRTM,2024,125.084916360880,16.194563771019
$GPGGA,020215.00,3510.4491,N,12138.7238,W,1,08,1.0,6.3,M,-32.5,M,,*57
$PYRTM,2024,125.084927918241,16.194575328380
$GPGGA,020216.00,3510.4492,N,12138.7260,W,1,08,1.0,6.7,M,-32.5,M,,*5E
$PYRTM,2024,125.084939956794,16.194587366933
$GPGGA,020217.00,3510.4489,N,12138.7284,W,1,08,1.0,9.5,M,-32.5,M,,*52
$PYRTM,2024,125.084951067905,16.194598478044
$GPGGA,020218.00,3510.4486,N,12138.7313,W,1,08,1.0,9.0,M,-32.5,M,,*58
$PYRTM,2024,125.084962657593,16.194610067743
$GPGGA,020219.00,3510.4487,N,12138.7340,W,1,08,1.0,8.5,M,-32.5,M,,*5A
$PYRTM,2024,125.084974216840,16.194621626991
$GPGGA,020220.00,3510.4487,N,12138.7364,W,1,08,1.0,9.3,M,-32.5,M,,*51
$PYRTM,2024,125.084985802407,16.194633212546
$GPGGA,020221.00,3510.4486,N,12138.7386,W,1,08,1.0,10.7,M,-32.5,M,,*61
$PYRTM,2024,125.084997364259,16.194644774398
$GPGGA,020222.00,3510.4485,N,12138.7412,W,1,08,1.0,11.3,M,-32.5,M,,*6E
$PYRTM,2024,125.085008954039,16.194656364178
$GPGGA,020223.00,3510.4484,N,12138.7440,W,1,08,1.0,11.3,M,-32.5,M,,*69
$PYRTM,2024,125.085020512141,16.194667922280
$GPGGA,020224.00,3510.4482,N,12138.7465,W,1,08,1.0,9.8,M,-32.5,M,,*5D
$PYRTM,2024,125.085032094583,16.194679504722
$GPGGA,020225.00,3510.4480,N,12138.7490,W,1,08,1.0,9.7,M,-32.5,M,,*5B
$PYRTM,2024,125.085043661493,16.194691071632
$GPGGA,020226.00,3510.4478,N,12138.7515,W,1,08,1.0,9.6,M,-32.5,M,,*52
$PYRTM,2024,125.085055251181,16.194702661319
$GPGGA,020227.00,3510.4476,N,12138.7541,W,1,08,1.0,8.2,M,-32.5,M,,*59
$PYRTM,2024,125.085066809062,16.194714219201
$GPGGA,020228.00,3510.4474,N,12138.7568,W,1,08,1.0,6.6,M,-32.5,M,,*55
$PYRTM,2024,125.085078399144,16.194725809282
$GPGGA,020229.00,3510.4471,N,12138.7594,W,1,08,1.0,9.8,M,-32.5,M,,*53
$PYRTM,2024,125.085089957685,16.194737367824
$GPGGA,020230.00,3510.4472,N,12138.7618,W,1,08,1.0,10.6,M,-32.5,M,,*69
$PYRTM,2024,125.085101546759,16.194748956898
$GPGGA,020231.00,3510.4470,N,12138.7643,W,1,08,1.0,9.4,M,-32.5,M,,*5E
$PYRTM,2024,125.085113105741,16.194760515891
$GPGGA,020232.00,3510.4466,N,12138.7671,W,1,08,1.0,8.1,M,-32.5,M,,*5F
$PYRTM,2024,125.085124691748,16.194772101887
$GPGGA,020233.00,3510.4463,N,12138.7699,W,1,08,1.0,7.8,M,-32.5,M,,*5B
$PYRTM,2024,125.085136255706,16.194783665845
$GPGGA,020234.00,3510.4464,N,12138.7722,W,1,08,1.0,8.9,M,-32.5,M,,*54
$PYRTM,2024,125.085147841817,16.194795251956
$GPGGA,020235.00,3510.4464,N,12138.7745,W,1,08,1.0,7.9,M,-32.5,M,,*5B
$PYRTM,2024,125.085159400891,16.194806811030
$GPGGA,020236.00,3510.4458,N,12138.7771,W,1,08,1.0,8.1,M,-32.5,M,,*57
$PYRTM,2024,125.085170989120,16.194818399271
$GPGGA,020237.00,3510.4454,N,12138.7799,W,1,08,1.0,9.5,M,-32.5,M,,*59
$PYRTM,2024,125.085182549329,16.194829959468
$GPGGA,020238.00,3510.4456,N,12138.7823,W,1,08,1.0,8.4,M,-32.5,M,,*5A
$PYRTM,2024,125.085194136817,16.194841546956
$GPGGA,020239.00,3510.4458,N,12138.7845,W,1,08,1.0,7.3,M,-32.5,M,,*5D
$PYRTM,2024,125.085205698218,16.194853108356
$GPGGA,020240.00,3510.4454,N,12138.7869,W,1,08,1.0,8.5,M,-32.5,M,,*58
$PYRTM,2024,125.085218430104,16.194865840243
$GPGGA,020241.00,3510.4449,N,12138.7897,W,1,08,1.0,9.0,M,-32.5,M,,*50
$PYRTM,2024,125.085231047164,16.194878457303
$GPGGA,020242.00,3510.4449,N,12138.7923,W,1,08,1.0,9.0,M,-32.5,M,,*5D
$PYRTM,2024,125.085240436470,16.194887846609
$GPGGA,020243.00,3510.4452,N,12138.7946,W,1,08,1.0,8.5,M,-32.5,M,,*51
$PYRTM,2024,125.085251994919,16.194899405069
$GPGGA,020244.00,3510.4452,N,12138.7968,W,1,08,1.0,8.8,M,-32.5,M,,*57
$PYRTM,2024,125.085263585278,16.194910995417
$GPGGA,020245.00,3510.4447,N,12138.7992,W,1,08,1.0,8.7,M,-32.5,M,,*58
$PYRTM,2024,125.085275143576,16.194922553727
$GPGGA,020246.00,3510.4443,N,12138.8022,W,1,08,1.0,10.3,M,-32.5,M,,*6F
$PYRTM,2024,125.085287180243,16.194934590382
$GPGGA,020247.00,3510.4445,N,12138.8051,W,1,08,1.0,9.9,M,-32.5,M,,*5E
$PYRTM,2024,125.085298291308,16.194945701458
$GPGGA,020248.00,3510.4449,N,12138.8074,W,1,08,1.0,10.0,M,-32.5,M,,*6B
$PYRTM,2024,125.085309877627,16.194957287766
$GPGGA,020249.00,3510.4446,N,12138.8097,W,1,08,1.0,9.8,M,-32.5,M,,*58
$PYRTM,2024,125.085321441053,16.194968851192
$GPGGA,020250.00,3510.4440,N,12138.8122,W,1,08,1.0,8.2,M,-32.5,M,,*52
$PYRTM,2024,125.085333026481,16.194980436620
$GPGGA,020251.00,3510.4436,N,12138.8148,W,1,08,1.0,8.7,M,-32.5,M,,*5B
$PYRTM,2024,125.085344587697,16.194991997836
$GPGGA,020252.00,3510.4436,N,12138.8174,W,1,08,1.0,7.0,M,-32.5,M,,*5F
$PYRTM,2024,125.085356175197,16.195003585336
$GPGGA,020253.00,3510.4435,N,12138.8199,W,1,08,1.0,5.4,M,-32.5,M,,*58
$PYRTM,2024,125.085367735000,16.195015145139
$GPGGA,020254.00,3510.4431,N,12138.8224,W,1,08,1.0,6.6,M,-32.5,M,,*5F
$PYRTM,2024,125.085379323345,16.195026733495
$GPGGA,020255.00,3510.4426,N,12138.8250,W,1,08,1.0,8.3,M,-32.5,M,,*50
$PYRTM,2024,125.085390886389,16.195038296528
$GPGGA,020256.00,3510.4425,N,12138.8275,W,1,08,1.0,5.8,M,-32.5,M,,*51
$PYRTM,2024,125.085402474965,16.195049885104
$GPGGA,020257.00,3510.4427,N,12138.8302,W,1,08,1.0,6.5,M,-32.5,M,,*5D
$PYRTM,2024,125.085414033426,16.195061443565
$GPGGA,020258.00,3510.4425,N,12138.8327,W,1,08,1.0,4.8,M,-32.5,M,,*58
$PYRTM,2024,125.085425633449,16.195073043600
$GPGGA,020259.00,3510.4420,N,12138.8350,W,1,08,1.0,6.4,M,-32.5,M,,*52
$PYRTM,2024,125.085437180394,16.195084590532
$GPGGA,020300.00,3510.4416,N,12138.8376,W,1,08,1.0,7.8,M,-32.5,M,,*53
$PYRTM,2024,125.085449218345,16.195096628484
$GPGGA,020301.00,3510.4418,N,12138.8401,W,1,08,1.0,7.6,M,-32.5,M,,*55
$PYRTM,2024,125.085460329757,16.195107739896
$GPGGA,020302.00,3510.4419,N,12138.8426,W,1,08,1.0,5.0,M,-32.5,M,,*56
$PYRTM,2024,125.085471915278,16.195119325417
$GPGGA,020303.00,3510.4416,N,12138.8452,W,1,08,1.0,4.5,M,-32.5,M,,*5F
$PYRTM,2024,125.085483476296,16.195130886435
$GPGGA,020304.00,3510.4413,N,12138.8478,W,1,08,1.0,6.5,M,-32.5,M,,*57
$PYRTM,2024,125.085495065718,16.195142475856
$GPGGA,020305.00,3510.4412,N,12138.8504,W,1,08,1.0,11.2,M,-32.5,M,,*6C
$PYRTM,2024,125.085506624896,16.195154035035
$GPGGA,020306.00,3510.4413,N,12138.8529,W,1,08,1.0,9.5,M,-32.5,M,,*5F
$PYRTM,2024,125.085518215741,16.195165625880
$GPGGA,020307.00,3510.4415,N,12138.8556,W,1,08,1.0,6.3,M,-32.5,M,,*59
$PYRTM,2024,125.085529775521,16.195177185660
$GPGGA,020308.00,3510.4415,N,12138.8581,W,1,08,1.0,5.8,M,-32.5,M,,*54
$PYRTM,2024,125.085541365012,16.195188775150
$GPGGA,020309.00,3510.4413,N,12138.8605,W,1,08,1.0,7.7,M,-32.5,M,,*51
$PYRTM,2024,125.085552930012,16.195200340150
$GPGGA,020310.00,3510.4409,N,12138.8630,W,1,08,1.0,10.7,M,-32.5,M,,*62
$PYRTM,2024,125.085565654549,16.195213064688
$GPGGA,020311.00,3510.4405,N,12138.8657,W,1,08,1.0,8.8,M,-32.5,M,,*58
$PYRTM,2024,125.085578268634,16.195225678773
$GPGGA,020312.00,3510.4406,N,12138.8685,W,1,08,1.0,8.8,M,-32.5,M,,*57
$PYRTM,2024,125.085587660370,16.195235070509
$GPGGA,020313.00,3510.4408,N,12138.8712,W,1,08,1.0,5.9,M,-32.5,M,,*5B
$PYRTM,2024,125.085599219340,16.195246629479
$GPGGA,020314.00,3510.4406,N,12138.8737,W,1,08,1.0,7.0,M,-32.5,M,,*5E
$PYRTM,2024,125.085610806042,16.195258216181
$GPGGA,020315.00,3510.4400,N,12138.8762,W,1,08,1.0,8.5,M,-32.5,M,,*53
$PYRTM,2024,125.085622365289,16.195269775428
$GPGGA,020316.00,3510.4395,N,12138.8791,W,1,08,1.0,7.4,M,-32.5,M,,*59
$PYRTM,2024,125.085634403576,16.195281813715
$GPGGA,020317.00,3510.4396,N,12138.8818,W,1,08,1.0,7.0,M,-32.5,M,,*51
$PYRTM,2024,125.085645515093,16.195292925243
$GPGGA,020318.00,3510.4398,N,12138.8843,W,1,08,1.0,6.4,M,-32.5,M,,*5B
$PYRTM,2024,125.085656176863,16.195303587002
$GPGGA,020319.00,3510.4395,N,12138.8868,W,1,08,1.0,8.4,M,-32.5,M,,*50
$PYRTM,2024,125.085668332187,16.195315742326
$GPGGA,020320.00,3510.4389,N,12138.8896,W,1,08,1.0,8.5,M,-32.5,M,,*57
$PYRTM,2024,125.085679892176,16.195327302315
$GPGGA,020321.00,3510.4386,N,12138.8925,W,1,08,1.0,8.6,M,-32.5,M,,*53
$PYRTM,2024,125.085691115833,16.195338525984
$GPGGA,020322.00,3510.4386,N,12138.8950,W,1,08,1.0,10.0,M,-32.5,M,,*6D
$PYRTM,2024,125.085702227755,16.195349637894
$GPGGA,020323.00,3510.4385,N,12138.8976,W,1,08,1.0,10.6,M,-32.5,M,,*6D
$PYRTM,2024,125.085713338981,16.195360749120
$GPGGA,020324.00,3510.4384,N,12138.9007,W,1,08,1.0,8.8,M,-32.5,M,,*52
$PYRTM,2024,125.085724450347,16.195371860486
$GPGGA,020325.00,3510.4383,N,12138.9036,W,1,08,1.0,5.3,M,-32.5,M,,*50
$PYRTM,2024,125.085735561829,16.195382971979
$GPGGA,020326.00,3510.4382,N,12138.9057,W,1,08,1.0,6.5,M,-32.5,M,,*50
$PYRTM,2024,125.085746672894,16.195394083032
$GPGGA,020327.00,3510.4380,N,12138.9079,W,1,08,1.0,10.5,M,-32.5,M,,*68
$PYRTM,2024,125.085757783738,16.195405193877
$GPGGA,020328.00,3510.4379,N,12138.9105,W,1,08,1.0,9.6,M,-32.5,M,,*50
$PYRTM,2024,125.085768894340,16.195416304479
$GPGGA,020329.00,3510.4377,N,12138.9133,W,1,08,1.0,7.8,M,-32.5,M,,*5A
$PYRTM,2024,125.085780005000,16.195427415139
$GPGGA,020330.00,3510.4377,N,12138.9157,W,1,08,1.0,6.1,M,-32.5,M,,*58
$PYRTM,2024,125.085791116481,16.195438526632
$GPGGA,020331.00,3510.4378,N,12138.9177,W,1,08,1.0,8.2,M,-32.5,M,,*59
$PYRTM,2024,125.085802358692,16.195449768831
$GPGGA,020332.00,3510.4378,N,12138.9198,W,1,08,1.0,10.1,M,-32.5,M,,*61
$PYRTM,2024,125.085813817025,16.195461227164
$GPGGA,020333.00,3510.4378,N,12138.9224,W,1,08,1.0,7.9,M,-32.5,M,,*5A
$PYRTM,2024,125.085825376308,16.195472786447
$GPGGA,020334.00,3510.4377,N,12138.9249,W,1,08,1.0,6.5,M,-32.5,M,,*54
$PYRTM,2024,125.085836964190,16.195484374329
$GPGGA,020335.00,3510.4377,N,12138.9271,W,1,08,1.0,6.4,M,-32.5,M,,*5F
$PYRTM,2024,125.085848526157,16.195495936296
$GPGGA,020336.00,3510.4376,N,12138.9291,W,1,08,1.0,6.9,M,-32.5,M,,*5E
$PYRTM,2024,125.085860107292,16.195507517431
$GPGGA,020337.00,3510.4377,N,12138.9315,W,1,08,1.0,8.1,M,-32.5,M,,*55
$PYRTM,2024,125.085871672025,16.195519082164
$GPGGA,020338.00,3510.4376,N,12138.9341,W,1,08,1.0,8.5,M,-32.5,M,,*5E
$PYRTM,2024,125.085883260961,16.195530671100
$GPGGA,020339.00,3510.4373,N,12138.9366,W,1,08,1.0,8.8,M,-32.5,M,,*52
$PYRTM,2024,125.085897730741,16.195545140880
$GPGGA,020340.00,3510.4370,N,12138.9390,W,1,08,1.0,9.8,M,-32.5,M,,*57
$PYRTM,2024,125.085910562315,16.195557972454
$GPGGA,020341.00,3510.4369,N,12138.9415,W,1,08,1.0,8.1,M,-32.5,M,,*5C
$PYRTM,2024,125.085923294375,16.195570704502
$GPGGA,020342.00,3510.4372,N,12138.9442,W,1,08,1.0,6.3,M,-32.5,M,,*5B
$PYRTM,2024,125.085934881586,16.195582291725
$GPGGA,020343.00,3510.4373,N,12138.9465,W,1,08,1.0,6.9,M,-32.5,M,,*54
$PYRTM,2024,125.085946443194,16.195593853333
$GPGGA,020344.00,3510.4370,N,12138.9487,W,1,08,1.0,9.0,M,-32.5,M,,*5A
$PYRTM,2024,125.085958029549,16.195605439688
$GPGGA,020345.00,3510.4363,N,12138.9513,W,1,08,1.0,7.1,M,-32.5,M,,*5A
$PYRTM,2024,125.085969590382,16.195617000521
$GPGGA,020346.00,3510.4361,N,12138.9541,W,1,08,1.0,6.5,M,-32.5,M,,*59
$PYRTM,2024,125.085981628079,16.195629038218
$GPGGA,020347.00,3510.4363,N,12138.9563,W,1,08,1.0,6.2,M,-32.5,M,,*5D
$PYRTM,2024,125.085992738264,16.195640148403
$GPGGA,020348.00,3510.4362,N,12138.9583,W,1,08,1.0,6.8,M,-32.5,M,,*57
$PYRTM,2024,125.086004327118,16.195651737245
$GPGGA,020349.00,3510.4358,N,12138.9607,W,1,08,1.0,6.6,M,-32.5,M,,*5E
$PYRTM,2024,125.086015887465,16.195663297604
$GPGGA,020350.00,3510.4353,N,12138.9634,W,1,08,1.0,5.6,M,-32.5,M,,*5E
$PYRTM,2024,125.086027477535,16.195674887662
$GPGGA,020351.00,3510.4353,N,12138.9659,W,1,08,1.0,8.1,M,-32.5,M,,*5E
$PYRTM,2024,125.086039035417,16.195686445556
$GPGGA,020352.00,3510.4355,N,12138.9681,W,1,08,1.0,8.5,M,-32.5,M,,*5A
$PYRTM,2024,125.086050622350,16.195698032488
$GPGGA,020353.00,3510.4354,N,12138.9704,W,1,08,1.0,8.0,M,-32.5,M,,*53
$PYRTM,2024,125.086062184977,16.195709595116
$GPGGA,020354.00,3510.4350,N,12138.9730,W,1,08,1.0,9.3,M,-32.5,M,,*55
$PYRTM,2024,125.086073774120,16.195721184259
$GPGGA,020355.00,3510.4347,N,12138.9757,W,1,08,1.0,8.7,M,-32.5,M,,*56
$PYRTM,2024,125.086085331655,16.195732741794
$GPGGA,020356.00,3510.4350,N,12138.9783,W,1,08,1.0,6.8,M,-32.5,M,,*5B
$PYRTM,2024,125.086096913727,16.195744323866
$GPGGA,020357.00,3510.4353,N,12138.9803,W,1,08,1.0,8.3,M,-32.5,M,,*5B
$PYRTM,2024,125.086108479074,16.195755889213
$GPGGA,020358.00,3510.4350,N,12138.9824,W,1,08,1.0,9.1,M,-32.5,M,,*51
$PYRTM,2024,125.086120067442,16.195767477581
$GPGGA,020359.00,3510.4345,N,12138.9851,W,1,08,1.0,8.2,M,-32.5,M,,*54
$PYRTM,2024,125.086131628449,16.195779038588
$GPGGA,020400.00,3510.4346,N,12138.9878,W,1,08,1.0,9.1,M,-32.5,M,,*55
$PYRTM,2024,125.086143214988,16.195790625127
$GPGGA,020401.00,3510.4348,N,12138.9900,W,1,08,1.0,9.5,M,-32.5,M,,*50
$PYRTM,2024,125.086154776435,16.195802186574
$GPGGA,020402.00,3510.4344,N,12138.9919,W,1,08,1.0,10.4,M,-32.5,M,,*6E
$PYRTM,2024,125.086166363981,16.195813774120
$GPGGA,020403.00,3510.4338,N,12138.9942,W,1,08,1.0,8.1,M,-32.5,M,,*56
$PYRTM,2024,125.086177925428,16.195825335567
$GPGGA,020404.00,3510.4336,N,12138.9968,W,1,08,1.0,9.4,M,-32.5,M,,*53
$PYRTM,2024,125.086189512025,16.195836922164
$GPGGA,020405.00,3510.4339,N,12138.9991,W,1,08,1.0,9.5,M,-32.5,M,,*5A
$PYRTM,2024,125.086201073299,16.195848483437
$GPGGA,020406.00,3510.4336,N,12139.0013,W,1,08,1.0,13.2,M,-32.5,M,,*61
$PYRTM,2024,125.086212660498,16.195860070637
$GPGGA,020407.00,3510.4332,N,12139.0035,W,1,08,1.0,12.9,M,-32.5,M,,*6A
$PYRTM,2024,125.086224221331,16.195871631470
$GPGGA,020408.00,3510.4330,N,12139.0060,W,1,08,1.0,10.8,M,-32.5,M,,*64
$PYRTM,2024,125.086235811875,16.195883222014
$GPGGA,020409.00,3510.4330,N,12139.0085,W,1,08,1.0,9.4,M,-32.5,M,,*5A
$PYRTM,2024,125.086247369306,16.195894779444
$GPGGA,020410.00,3510.4329,N,12139.0109,W,1,08,1.0,8.3,M,-32.5,M,,*59
$PYRTM,2024,125.086258971516,16.195906381667
$GPGGA,020411.00,3510.4329,N,12139.0131,W,1,08,1.0,9.3,M,-32.5,M,,*52
$PYRTM,2024,125.086269141215,16.195916551354
$GPGGA,020412.00,3510.4330,N,12139.0154,W,1,08,1.0,9.6,M,-32.5,M,,*5F
$PYRTM,2024,125.086281063484,16.195928473623
$GPGGA,020413.00,3510.4328,N,12139.0178,W,1,08,1.0,11.2,M,-32.5,M,,*64
$PYRTM,2024,125.086293666551,16.195941076690
$GPGGA,020414.00,3510.4325,N,12139.0204,W,1,08,1.0,8.3,M,-32.5,M,,*5F
$PYRTM,2024,125.086305252685,16.195952662824
$GPGGA,020415.00,3510.4323,N,12139.0228,W,1,08,1.0,11.6,M,-32.5,M,,*6B
$PYRTM,2024,125.086316814444,16.195964224583
$GPGGA,020416.00,3510.4324,N,12139.0251,W,1,08,1.0,8.5,M,-32.5,M,,*5A
$PYRTM,2024,125.086328400613,16.195975810752
$GPGGA,020417.00,3510.4323,N,12139.0274,W,1,08,1.0,8.0,M,-32.5,M,,*5E
$PYRTM,2024,125.086340441470,16.195987851609
$GPGGA,020418.00,3510.4320,N,12139.0301,W,1,08,1.0,9.1,M,-32.5,M,,*51
$PYRTM,2024,125.086351549850,16.195998959988
$GPGGA,020419.00,3510.4317,N,12139.0325,W,1,08,1.0,11.9,M,-32.5,M,,*63
$PYRTM,2024,125.086363110995,16.196010521134
$GPGGA,020420.00,3510.4316,N,12139.0349,W,1,08,1.0,10.4,M,-32.5,M,,*6E
$PYRTM,2024,125.086374698345,16.196022108484
$GPGGA,020421.00,3510.4319,N,12139.0374,W,1,08,1.0,7.3,M,-32.5,M,,*5F
$PYRTM,2024,125.086386258854,16.196033668993
$GPGGA,020422.00,3510.4322,N,12139.0400,W,1,08,1.0,7.5,M,-32.5,M,,*56
$PYRTM,2024,125.086397848808,16.196045258947
$GPGGA,020423.00,3510.4323,N,12139.0425,W,1,08,1.0,7.9,M,-32.5,M,,*5D
$PYRTM,2024,125.086409406644,16.196056816782
$GPGGA,020424.00,3510.4320,N,12139.0448,W,1,08,1.0,7.8,M,-32.5,M,,*53
$PYRTM,2024,125.086421009525,16.196068419664
$GPGGA,020425.00,3510.4318,N,12139.0472,W,1,08,1.0,8.9,M,-32.5,M,,*5E
$PYRTM,2024,125.086432554873,16.196079965012
$GPGGA,020426.00,3510.4320,N,12139.0498,W,1,08,1.0,9.0,M,-32.5,M,,*5A
$PYRTM,2024,125.086444145139,16.196091555278
$GPGGA,020427.00,3510.4322,N,12139.0524,W,1,08,1.0,9.3,M,-32.5,M,,*5C
$PYRTM,2024,125.086455705440,16.196103115579
$GPGGA,020428.00,3510.4321,N,12139.0549,W,1,08,1.0,7.9,M,-32.5,M,,*5F
$PYRTM,2024,125.086467292037,16.196114702188
$GPGGA,020429.00,3510.4318,N,12139.0574,W,1,08,1.0,9.3,M,-32.5,M,,*5E
$PYRTM,2024,125.086478852951,16.196126263090
$GPGGA,020430.00,3510.4312,N,12139.0599,W,1,08,1.0,9.7,M,-32.5,M,,*5B
$PYRTM,2024,125.086490435231,16.196137845370
$GPGGA,020431.00,3510.4308,N,12139.0627,W,1,08,1.0,9.5,M,-32.5,M,,*55
$PYRTM,2024,125.086502001678,16.196149411817
$GPGGA,020432.00,3510.4310,N,12139.0655,W,1,08,1.0,7.6,M,-32.5,M,,*57
$PYRTM,2024,125.086513586991,16.196160997130
$GPGGA,020433.00,3510.4315,N,12139.0677,W,1,08,1.0,7.5,M,-32.5,M,,*50
$PYRTM,2024,125.086525148970,16.196172559097
$GPGGA,020434.00,3510.4310,N,12139.0697,W,1,08,1.0,9.0,M,-32.5,M,,*57
$PYRTM,2024,125.086536738322,16.196184148461
$GPGGA,020435.00,3510.4300,N,12139.0721,W,1,08,1.0,8.3,M,-32.5,M,,*59
$PYRTM,2024,125.086548297523,16.196195707662
$GPGGA,020436.00,3510.4299,N,12139.0748,W,1,08,1.0,9.8,M,-32.5,M,,*5E
$PYRTM,2024,125.086559897940,16.196207308079
$GPGGA,020437.00,3510.4306,N,12139.0772,W,1,08,1.0,8.6,M,-32.5,M,,*5E
$PYRTM,2024,125.086571445868,16.196218856007
$GPGGA,020438.00,3510.4309,N,12139.0793,W,1,08,1.0,9.3,M,-32.5,M,,*55
$PYRTM,2024,125.086583035440,16.196230445579
$GPGGA,020439.00,3510.4301,N,12139.0818,W,1,08,1.0,9.9,M,-32.5,M,,*5A
$PYRTM,2024,125.086594593218,16.196242003345
$GPGGA,020440.00,3510.4292,N,12139.0845,W,1,08,1.0,10.6,M,-32.5,M,,*60
$PYRTM,2024,125.086606183958,16.196253594097
$GPGGA,020441.00,3510.4293,N,12139.0870,W,1,08,1.0,8.3,M,-32.5,M,,*5A
$PYRTM,2024,125.086616817106,16.196264227257
$GPGGA,020442.00,3510.4300,N,12139.0892,W,1,08,1.0,6.3,M,-32.5,M,,*50
$PYRTM,2024,125.086628157373,16.196275567512
$GPGGA,020443.00,3510.4303,N,12139.0913,W,1,08,1.0,6.1,M,-32.5,M,,*58
$PYRTM,2024,125.086640890174,16.196288300312
$GPGGA,020444.00,3510.4295,N,12139.0937,W,1,08,1.0,5.3,M,-32.5,M,,*56
$PYRTM,2024,125.086652477245,16.196299887384
$GPGGA,020445.00,3510.4285,N,12139.0962,W,1,08,1.0,5.1,M,-32.5,M,,*54
$PYRTM,2024,125.086664040556,16.196311450694
$GPGGA,020446.00,3510.4284,N,12139.0988,W,1,08,1.0,4.9,M,-32.5,M,,*5B
$PYRTM,2024,125.086675627234,16.196323037373
$GPGGA,020447.00,3510.4291,N,12139.1010,W,1,08,1.0,6.3,M,-32.5,M,,*5F
$PYRTM,2024,125.086687188171,16.196334598310
$GPGGA,020448.00,3510.4292,N,12139.1031,W,1,08,1.0,6.3,M,-32.5,M,,*50
$PYRTM,2024,125.086699222766,16.196346632905
$GPGGA,020449.00,3510.4287,N,12139.1054,W,1,08,1.0,4.1,M,-32.5,M,,*56
$PYRTM,2024,125.086710336030,16.196357746169
$GPGGA,020450.00,3510.4282,N,12139.1077,W,1,08,1.0,4.6,M,-32.5,M,,*5D
$PYRTM,2024,125.086721922512,16.196369332650
$GPGGA,020451.00,3510.4281,N,12139.1102,W,1,08,1.0,6.1,M,-32.5,M,,*59
$PYRTM,2024,125.086733482292,16.196380892431
$GPGGA,020452.00,3510.4284,N,12139.1126,W,1,08,1.0,6.8,M,-32.5,M,,*50
$PYRTM,2024,125.086745073449,16.196392483588
$GPGGA,020453.00,3510.4286,N,12139.1149,W,1,08,1.0,5.0,M,-32.5,M,,*51
$PYRTM,2024,125.086756632338,16.196404042488
$GPGGA,020454.00,3510.4285,N,12139.1170,W,1,08,1.0,6.4,M,-32.5,M,,*58
$PYRTM,2024,125.086768221655,16.196415631794
$GPGGA,020455.00,3510.4283,N,12139.1194,W,1,08,1.0,8.6,M,-32.5,M,,*59
$PYRTM,2024,125.086779780590,16.196427190729
$GPGGA,020456.00,3510.4282,N,12139.1220,W,1,08,1.0,9.6,M,-32.5,M,,*56
$PYRTM,2024,125.086791369051,16.196438779190
$GPGGA,020457.00,3510.4283,N,12139.1244,W,1,08,1.0,8.5,M,-32.5,M,,*56
$PYRTM,2024,125.086802929595,16.196450339734
$GPGGA,020458.00,3510.4283,N,12139.1268,W,1,08,1.0,8.5,M,-32.5,M,,*57
$PYRTM,2024,125.086814514965,16.196461925104
$GPGGA,020459.00,3510.4282,N,12139.1292,W,1,08,1.0,6.9,M,-32.5,M,,*50
$PYRTM,2024,125.086826075961,16.196473486100
$GPGGA,020500.00,3510.4281,N,12139.1316,W,1,08,1.0,7.5,M,-32.5,M,,*5E
$PYRTM,2024,125.086837658449,16.196485068588
$GPGGA,020501.00,3510.4283,N,12139.1340,W,1,08,1.0,9.1,M,-32.5,M,,*54
$PYRTM,2024,125.086849234838,16.196496644977
$GPGGA,020502.00,3510.4282,N,12139.1365,W,1,08,1.0,8.9,M,-32.5,M,,*58
$PYRTM,2024,125.086860812083,16.196508222234
$GPGGA,020503.00,3510.4279,N,12139.1391,W,1,08,1.0,9.0,M,-32.5,M,,*5E
$PYRTM,2024,125.086872373877,16.196519784016
$GPGGA,020504.00,3510.4278,N,12139.1415,W,1,08,1.0,7.8,M,-32.5,M,,*55
$PYRTM,2024,125.086883955463,16.196531365602
$GPGGA,020505.00,3510.4279,N,12139.1441,W,1,08,1.0,5.6,M,-32.5,M,,*58
$PYRTM,2024,125.086895522975,16.196542933113
$GPGGA,020506.00,3510.4281,N,12139.1466,W,1,08,1.0,5.4,M,-32.5,M,,*5B
$PYRTM,2024,125.086907104583,16.196554514722
$GPGGA,020507.00,3510.4281,N,12139.1490,W,1,08,1.0,8.8,M,-32.5,M,,*52
$PYRTM,2024,125.086918670301,16.196566080440
$GPGGA,020508.00,3510.4279,N,12139.1514,W,1,08,1.0,7.9,M,-32.5,M,,*59
$PYRTM,2024,125.086930259491,16.196577669630
$GPGGA,020509.00,3510.4279,N,12139.1541,W,1,08,1.0,9.0,M,-32.5,M,,*5F
$PYRTM,2024,125.086941819595,16.196589229734
$GPGGA,020510.00,3510.4280,N,12139.1571,W,1,08,1.0,9.0,M,-32.5,M,,*52
$PYRTM,2024,125.086953404225,16.196600814363
$GPGGA,020511.00,3510.4283,N,12139.1595,W,1,08,1.0,7.7,M,-32.5,M,,*53
$PYRTM,2024,125.086963594572,16.196611004711
$GPGGA,020512.00,3510.4283,N,12139.1617,W,1,08,1.0,7.6,M,-32.5,M,,*58
$PYRTM,2024,125.086975381817,16.196622791968
$GPGGA,020513.00,3510.4280,N,12139.1644,W,1,08,1.0,8.0,M,-32.5,M,,*55
$PYRTM,2024,125.086988112940,16.196635523079
$GPGGA,020514.00,3510.4276,N,12139.1671,W,1,08,1.0,9.2,M,-32.5,M,,*5E
$PYRTM,2024,125.086999701597,16.196647111736
$GPGGA,020515.00,3510.4275,N,12139.1694,W,1,08,1.3,7.4,M,-32.5,M,,*5C
$PYRTM,2024,125.087011263368,16.196658673507
$GPGGA,020516.00,3510.4276,N,12139.1715,W,1,08,1.0,9.9,M,-32.5,M,,*54
$PYRTM,2024,125.087022851331,16.196670261481
$GPGGA,020517.00,3510.4276,N,12139.1740,W,1,08,1.3,7.3,M,-32.5,M,,*52
$PYRTM,2024,125.087034412407,16.196681822546
$GPGGA,020518.00,3510.4275,N,12139.1767,W,1,08,1.3,5.1,M,-32.5,M,,*5B
$PYRTM,2024,125.087045999931,16.196693410069
$GPGGA,020519.00,3510.4276,N,12139.1792,W,1,08,1.3,5.0,M,-32.5,M,,*52
$PYRTM,2024,125.087058037569,16.196705447720
$GPGGA,020520.00,3510.4277,N,12139.1815,W,1,08,1.3,8.5,M,-32.5,M,,*51
$PYRTM,2024,125.087069149514,16.196716559653
$GPGGA,020521.00,3510.4277,N,12139.1841,W,1,08,1.3,8.4,M,-32.5,M,,*50
$PYRTM,2024,125.087080706563,16.196728116701
$GPGGA,020522.00,3510.4276,N,12139.1869,W,1,08,1.3,7.0,M,-32.5,M,,*53
$PYRTM,2024,125.087092297593,16.196739707743
$GPGGA,020523.00,3510.4277,N,12139.1893,W,1,08,1.3,7.2,M,-32.5,M,,*54
$PYRTM,2024,125.087103855579,16.196751265718
$GPGGA,020524.00,3510.4276,N,12139.1915,W,1,08,1.3,10.3,M,-32.5,M,,*6A
$PYRTM,2024,125.087114517396,16.196761927535
$GPGGA,020525.00,3510.4274,N,12139.1941,W,1,08,1.3,9.5,M,-32.5,M,,*56
$PYRTM,2024,125.087127596887,16.196775007025
$GPGGA,020526.00,3510.4272,N,12139.1971,W,1,08,1.0,11.2,M,-32.5,M,,*6D
$PYRTM,2024,125.087138349560,16.196785759699
$GPGGA,020527.00,3510.4272,N,12139.1997,W,1,08,1.3,7.9,M,-32.5,M,,*5B
$PYRTM,2024,125.087149457292,16.196796867431
$GPGGA,020528.00,3510.4272,N,12139.2020,W,1,08,1.3,7.7,M,-32.5,M,,*5C
$PYRTM,2024,125.087160568044,16.196807978194
$GPGGA,020529.00,3510.4271,N,12139.2043,W,1,08,1.3,9.5,M,-32.5,M,,*57
$PYRTM,2024,125.087171677720,16.196819087859
$GPGGA,020530.00,3510.4269,N,12139.2070,W,1,08,1.3,7.0,M,-32.5,M,,*5D
$PYRTM,2024,125.087182791157,16.196830201296
$GPGGA,020531.00,3510.4269,N,12139.2097,W,1,08,1.3,9.4,M,-32.5,M,,*5F
$PYRTM,2024,125.087194265579,16.196841675729
$GPGGA,020532.00,3510.4267,N,12139.2122,W,1,08,1.3,9.9,M,-32.5,M,,*50
$PYRTM,2024,125.087205489803,16.196852899954
$GPGGA,020533.00,3510.4262,N,12139.2145,W,1,08,1.3,11.7,M,-32.5,M,,*62
$PYRTM,2024,125.087216600428,16.196864010567
$GPGGA,020534.00,3510.4258,N,12139.2171,W,1,08,1.3,10.3,M,-32.5,M,,*6E
$PYRTM,2024,125.087227707303,16.196875117442
$GPGGA,020535.00,3510.4257,N,12139.2199,W,1,08,1.3,8.0,M,-32.5,M,,*5C
$PYRTM,2024,125.087238823148,16.196886233299
$GPGGA,020536.00,3510.4258,N,12139.2224,W,1,08,1.3,8.3,M,-32.5,M,,*56
$PYRTM,2024,125.087249931181,16.196897341319
$GPGGA,020537.00,3510.4255,N,12139.2246,W,1,08,1.3,10.0,M,-32.5,M,,*64
$PYRTM,2024,125.087261160544,16.196908570683
$GPGGA,020538.00,3510.4250,N,12139.2269,W,1,08,1.3,10.0,M,-32.5,M,,*63
$PYRTM,2024,125.087272272350,16.196919682488
$GPGGA,020539.00,3510.4250,N,12139.2294,W,1,08,1.3,7.7,M,-32.5,M,,*51
$PYRTM,2024,125.087283717442,16.196931127581
$GPGGA,020540.00,3510.4254,N,12139.2319,W,1,08,1.3,7.0,M,-32.5,M,,*58
$PYRTM,2024,125.087295305509,16.196942715648
$GPGGA,020541.00,3510.4257,N,12139.2343,W,1,08,1.3,9.3,M,-32.5,M,,*58
$PYRTM,2024,125.087311161806,16.196958571944
$GPGGA,020542.00,3510.4252,N,12139.2365,W,1,08,1.3,12.5,M,-32.5,M,,*66
$PYRTM,2024,125.087322606088,16.196970016238
$GPGGA,020543.00,3510.4247,N,12139.2390,W,1,08,1.3,8.9,M,-32.5,M,,*5E
$PYRTM,2024,125.087334188981,16.196981599120
$GPGGA,020544.00,3510.4246,N,12139.2417,W,1,08,1.3,9.4,M,-32.5,M,,*5C
$PYRTM,2024,125.087345883565,16.196993293704
$GPGGA,020545.00,3510.4247,N,12139.2439,W,1,08,1.3,11.3,M,-32.5,M,,*6E
$PYRTM,2024,125.087357453611,16.197004863750
$GPGGA,020546.00,3510.4246,N,12139.2460,W,1,08,1.3,11.8,M,-32.5,M,,*6B
$PYRTM,2024,125.087369032222,16.197016442361
$GPGGA,020547.00,3510.4241,N,12139.2486,W,1,08,1.3,11.4,M,-32.5,M,,*69
$PYRTM,2024,125.087380490312,16.197027900451
$GPGGA,020548.00,3510.4239,N,12139.2514,W,1,08,1.3,9.4,M,-32.5,M,,*5A
$PYRTM,2024,125.087392051678,16.197039461817
$GPGGA,020549.00,3510.4241,N,12139.2534,W,1,08,1.3,9.1,M,-32.5,M,,*53
$PYRTM,2024,125.087403755220,16.197051165359
$GPGGA,020550.00,3510.4240,N,12139.2552,W,1,08,1.3,10.6,M,-32.5,M,,*65
$PYRTM,2024,125.087415447766,16.197062857905
$GPGGA,020551.00,3510.4233,N,12139.2574,W,1,08,1.3,10.1,M,-32.5,M,,*63
$PYRTM,2024,125.087426787025,16.197074197164
$GPGGA,020552.00,3510.4230,N,12139.2602,W,1,08,1.3,8.5,M,-32.5,M,,*5C
$PYRTM,2024,125.087438348183,16.197085758322
$GPGGA,020553.00,3510.4232,N,12139.2625,W,1,08,1.3,8.5,M,-32.5,M,,*5A
$PYRTM,2024,125.087449929595,16.197097339734
$GPGGA,020554.00,3510.4232,N,12139.2645,W,1,08,1.3,9.8,M,-32.5,M,,*57
$PYRTM,2024,125.087461494468,16.197108904606
$GPGGA,020555.00,3510.4229,N,12139.2667,W,1,08,1.3,8.7,M,-32.5,M,,*52
$PYRTM,2024,125.087473205266,16.197120615405
$GPGGA,020556.00,3510.4226,N,12139.2693,W,1,08,1.3,11.0,M,-32.5,M,,*6A
$PYRTM,2024,125.087484642546,16.197132052685
$GPGGA,020557.00,3510.4225,N,12139.2718,W,1,08,1.3,9.8,M,-32.5,M,,*5B
$PYRTM,2024,125.087496346424,16.197143756563
$GPGGA,020558.00,3510.4224,N,12139.2740,W,1,08,1.3,10.4,M,-32.5,M,,*6C
$PYRTM,2024,125.087507920914,16.197155331042
$GPGGA,020559.00,3510.4223,N,12139.2763,W,1,08,1.3,13.3,M,-32.5,M,,*6F
$PYRTM,2024,125.087519495752,16.197166905903
$GPGGA,020600.00,3510.4221,N,12139.2787,W,1,08,1.3,10.9,M,-32.5,M,,*61
$PYRTM,2024,125.087530939421,16.197178349560
$GPGGA,020601.00,3510.4220,N,12139.2814,W,1,08,1.3,8.3,M,-32.5,M,,*57
$PYRTM,2024,125.087542531759,16.197189941898
$GPGGA,020602.00,3510.4220,N,12139.2841,W,1,08,1.3,8.4,M,-32.5,M,,*53
$PYRTM,2024,125.087554092836,16.197201502975
$GPGGA,020603.00,3510.4218,N,12139.2863,W,1,08,1.3,9.2,M,-32.5,M,,*5E
$PYRTM,2024,125.087565793183,16.197213203322
$GPGGA,020604.00,3510.4214,N,12139.2882,W,1,08,1.3,10.2,M,-32.5,M,,*62
$PYRTM,2024,125.087577369109,16.197224779248
$GPGGA,020605.00,3510.4210,N,12139.2907,W,1,08,1.3,10.0,M,-32.5,M,,*69
$PYRTM,2024,125.087588828692,16.197236238831
$GPGGA,020606.00,3510.4209,N,12139.2934,W,1,08,1.3,7.3,M,-32.5,M,,*57
$PYRTM,2024,125.087600383935,16.197247794074
$GPGGA,020607.00,3510.4211,N,12139.2958,W,1,08,1.3,6.5,M,-32.5,M,,*52
$PYRTM,2024,125.087611970428,16.197259380567
$GPGGA,020608.00,3510.4210,N,12139.2978,W,1,08,1.3,7.4,M,-32.5,M,,*5E
$PYRTM,2024,125.087623532616,16.197270942755
$GPGGA,020609.00,3510.4206,N,12139.2999,W,1,08,1.3,8.4,M,-32.5,M,,*58
$PYRTM,2024,125.087635121227,16.197282531377
$GPGGA,020610.00,3510.4202,N,12139.3025,W,1,08,1.3,7.8,M,-32.5,M,,*58
$PYRTM,2024,125.087646806470,16.197294216609
$GPGGA,020611.00,3510.4203,N,12139.3050,W,1,08,1.3,10.0,M,-32.5,M,,*64
$PYRTM,2024,125.087659413611,16.197306823750
$GPGGA,020612.00,3510.4204,N,12139.3073,W,1,08,1.3,9.5,M,-32.5,M,,*5C
$PYRTM,2024,125.087671001725,16.197318411863
$GPGGA,020613.00,3510.4200,N,12139.3094,W,1,08,1.3,10.6,M,-32.5,M,,*6B
$PYRTM,2024,125.087682561782,16.197329971921
$GPGGA,020614.00,3510.4197,N,12139.3119,W,1,08,1.3,9.6,M,-32.5,M,,*5D
$PYRTM,2024,125.087694152072,16.197341562211
$GPGGA,020615.00,3510.4196,N,12139.3144,W,1,08,1.3,10.1,M,-32.5,M,,*6A
$PYRTM,2024,125.087705711343,16.197353121481
$GPGGA,020616.00,3510.4194,N,12139.3168,W,1,08,1.3,10.5,M,-32.5,M,,*61
$PYRTM,2024,125.087717297280,16.197364707419
$GPGGA,020617.00,3510.4191,N,12139.3192,W,1,08,1.3,10.7,M,-32.5,M,,*62
$PYRTM,2024,125.087728859630,16.197376269769
$GPGGA,020618.00,3510.4188,N,12139.3217,W,1,08,1.3,11.0,M,-32.5,M,,*6D
$PYRTM,2024,125.087740446238,16.197387856377
$GPGGA,020619.00,3510.4186,N,12139.3241,W,1,08,1.3,8.6,M,-32.5,M,,*5F
$PYRTM,2024,125.087752008519,16.197399418657
$GPGGA,020620.00,3510.4187,N,12139.3264,W,1,08,1.3,6.6,M,-32.5,M,,*5D
$PYRTM,2024,125.087763594734,16.197411004873
$GPGGA,020621.00,3510.4188,N,12139.3288,W,1,08,1.3,5.9,M,-32.5,M,,*5D
$PYRTM,2024,125.087775155255,16.197422565394
$GPGGA,020622.00,3510.4185,N,12139.3312,W,1,08,1.3,7.3,M,-32.5,M,,*59
$PYRTM,2024,125.087786747269,16.197434157407
$GPGGA,020623.00,3510.4181,N,12139.3336,W,1,08,1.3,8.3,M,-32.5,M,,*55
$PYRTM,2024,125.087798303681,16.197445713819
$GPGGA,020624.00,3510.4183,N,12139.3361,W,1,08,1.3,7.6,M,-32.5,M,,*58
$PYRTM,2024,125.087809906134,16.197457316273
$GPGGA,020625.00,3510.4188,N,12139.3384,W,1,08,1.3,4.7,M,-32.5,M,,*5B
$PYRTM,2024,125.087821452917,16.197468863056
$GPGGA,020626.00,3510.4189,N,12139.3404,W,1,08,1.3,7.0,M,-32.5,M,,*52
$PYRTM,2024,125.087833039387,16.197480449525
$GPGGA,020627.00,3510.4185,N,12139.3428,W,1,08,1.3,5.4,M,-32.5,M,,*57
$PYRTM,2024,125.087844601157,16.197492011296
$GPGGA,020628.00,3510.4184,N,12139.3455,W,1,08,1.3,6.6,M,-32.5,M,,*52
$PYRTM,2024,125.087856186875,16.197503597025
$GPGGA,020629.00,3510.4188,N,12139.3477,W,1,08,1.3,6.2,M,-32.5,M,,*5B
$PYRTM,2024,125.087867748229,16.197515158368
$GPGGA,020630.00,3510.4192,N,12139.3497,W,1,08,1.3,5.7,M,-32.5,M,,*50
$PYRTM,2024,125.087879335694,16.197526745833
$GPGGA,020631.00,3510.4191,N,12139.3520,W,1,08,1.3,7.7,M,-32.5,M,,*5D
$PYRTM,2024,125.087890897581,16.197538307720
$GPGGA,020632.00,3510.4185,N,12139.3547,W,1,08,1.3,7.2,M,-32.5,M,,*5F
$PYRTM,2024,125.087902485625,16.197549895764
$GPGGA,020633.00,3510.4181,N,12139.3572,W,1,08,1.3,6.0,M,-32.5,M,,*5F
$PYRTM,2024,125.087914046667,16.197561456806
$GPGGA,020634.00,3510.4181,N,12139.3595,W,1,08,1.3,6.0,M,-32.5,M,,*51
$PYRTM,2024,125.087925635984,16.197573046123
$GPGGA,020635.00,3510.4185,N,12139.3618,W,1,08,1.3,5.1,M,-32.5,M,,*50
$PYRTM,2024,125.087937194595,16.197584604734
$GPGGA,020636.00,3510.4186,N,12139.3641,W,1,08,1.3,7.0,M,-32.5,M,,*5F
$PYRTM,2024,125.087948783218,16.197596193356
$GPGGA,020637.00,3510.4182,N,12139.3664,W,1,08,1.3,8.1,M,-32.5,M,,*53
$PYRTM,2024,125.087960343970,16.197607754109
$GPGGA,020638.00,3510.4177,N,12139.3691,W,1,08,1.3,7.5,M,-32.5,M,,*57
$PYRTM,2024,125.087971942720,16.197619352859
$GPGGA,020639.00,3510.4177,N,12139.3718,W,1,08,1.3,7.3,M,-32.5,M,,*50
$PYRTM,2024,125.087983490984,16.197630901123
$GPGGA,020640.00,3510.4180,N,12139.3740,W,1,08,1.3,7.4,M,-32.5,M,,*5C
$PYRTM,2024,125.087995077951,16.197642488090
$GPGGA,020641.00,3510.4181,N,12139.3761,W,1,08,1.3,8.0,M,-32.5,M,,*54
$PYRTM,2024,125.088005277338,16.197652687477
$GPGGA,020642.00,3510.4178,N,12139.3785,W,1,08,1.3,6.2,M,-32.5,M,,*57
$PYRTM,2024,125.088017053657,16.197664463796
$GPGGA,020643.00,3510.4174,N,12139.3811,W,1,08,1.3,6.4,M,-32.5,M,,*5E
$PYRTM,2024,125.088029786991,16.197677197130
$GPGGA,020644.00,3510.4173,N,12139.3835,W,1,08,1.3,6.3,M,-32.5,M,,*5F
$PYRTM,2024,125.088041369433,16.197688779572
$GPGGA,020645.00,3510.4175,N,12139.3857,W,1,08,1.3,9.2,M,-32.5,M,,*52
$PYRTM,2024,125.088052934630,16.197700344769
$GPGGA,020646.00,3510.4176,N,12139.3881,W,1,08,1.3,7.4,M,-32.5,M,,*51
$PYRTM,2024,125.088064524074,16.197711934213
$GPGGA,020647.00,3510.4174,N,12139.3910,W,1,08,1.3,8.7,M,-32.5,M,,*57
$PYRTM,2024,125.088076082095,16.197723492234
$GPGGA,020648.00,3510.4169,N,12139.3934,W,1,08,1.3,10.0,M,-32.5,M,,*6C
$PYRTM,2024,125.088087669803,16.197735079942
$GPGGA,020649.00,3510.4165,N,12139.3952,W,1,08,1.3,10.3,M,-32.5,M,,*62
$PYRTM,2024,125.088099230486,16.197746640625
$GPGGA,020650.00,3510.4164,N,12139.3974,W,1,08,1.3,10.4,M,-32.5,M,,*68
$PYRTM,2024,125.088111165903,16.197758576042
$GPGGA,020651.00,3510.4167,N,12139.4001,W,1,08,1.3,8.0,M,-32.5,M,,*5B
$PYRTM,2024,125.088122380451,16.197769790590
$GPGGA,020652.00,3510.4170,N,12139.4026,W,1,08,1.3,5.8,M,-32.5,M,,*5E
$PYRTM,2024,125.088133976470,16.197781386609
$GPGGA,020653.00,3510.4167,N,12139.4046,W,1,08,1.3,9.4,M,-32.5,M,,*5F
$PYRTM,2024,125.088145528380,16.197792938519
$GPGGA,020654.00,3510.4161,N,12139.4067,W,1,08,1.3,10.2,M,-32.5,M,,*63
$PYRTM,2024,125.088157116620,16.197804526759
$GPGGA,020655.00,3510.4158,N,12139.4093,W,1,08,1.3,9.2,M,-32.5,M,,*5B
$PYRTM,2024,125.088168676470,16.197816086609
$GPGGA,020656.00,3510.4157,N,12139.4119,W,1,08,1.3,8.5,M,-32.5,M,,*52
$PYRTM,2024,125.088180262801,16.197827672940
$GPGGA,020657.00,3510.4158,N,12139.4143,W,1,08,1.3,8.4,M,-32.5,M,,*52
$PYRTM,2024,125.088191825012,16.197839235150
$GPGGA,020658.00,3510.4158,N,12139.4165,W,1,08,1.3,11.0,M,-32.5,M,,*65
$PYRTM,2024,125.088203410799,16.197850820938
$GPGGA,020659.00,3510.4155,N,12139.4189,W,1,08,1.3,10.3,M,-32.5,M,,*69
$PYRTM,2024,125.088214971921,16.197862382060
$GPGGA,020700.00,3510.4150,N,12139.4215,W,1,08,1.3,8.9,M,-32.5,M,,*54
$PYRTM,2024,125.088226559572,16.197873969711
$GPGGA,020701.00,3510.4148,N,12139.4240,W,1,08,1.3,9.8,M,-32.5,M,,*5C
$PYRTM,2024,125.088238121667,16.197885531806
$GPGGA,020702.00,3510.4147,N,12139.4261,W,1,08,1.3,8.1,M,-32.5,M,,*5B
$PYRTM,2024,125.088249708171,16.197897118310
$GPGGA,020703.00,3510.4146,N,12139.4284,W,1,08,1.3,5.8,M,-32.5,M,,*54
$PYRTM,2024,125.088261269722,16.197908679861
$GPGGA,020704.00,3510.4145,N,12139.4310,W,1,08,1.3,9.1,M,-32.5,M,,*59
$PYRTM,2024,125.088272858727,16.197920268866
$GPGGA,020705.00,3510.4144,N,12139.4333,W,1,08,1.3,11.1,M,-32.5,M,,*61
$PYRTM,2024,125.088284417477,16.197931827616
$GPGGA,020706.00,3510.4145,N,12139.4354,W,1,08,1.3,11.7,M,-32.5,M,,*64
$PYRTM,2024,125.088296008484,16.197943418634
$GPGGA,020707.00,3510.4146,N,12139.4376,W,1,08,1.3,11.9,M,-32.5,M,,*68
$PYRTM,2024,125.088307566331,16.197954976470
$GPGGA,020708.00,3510.4146,N,12139.4400,W,1,08,1.3,10.7,M,-32.5,M,,*6E
$PYRTM,2024,125.088319154560,16.197966564699
$GPGGA,020709.00,3510.4144,N,12139.4424,W,1,08,1.3,10.0,M,-32.5,M,,*6C
$PYRTM,2024,125.088330713900,16.197978124039
$GPGGA,020710.00,3510.4143,N,12139.4447,W,1,08,1.3,10.6,M,-32.5,M,,*60
$PYRTM,2024,125.088342300301,16.197989710440
$GPGGA,020711.00,3510.4141,N,12139.4471,W,1,08,1.3,11.1,M,-32.5,M,,*60
$PYRTM,2024,125.088352936898,16.198000347037
$GPGGA,020712.00,3510.4138,N,12139.4497,W,1,08,1.3,13.1,M,-32.5,M,,*67
$PYRTM,2024,125.088364407118,16.198011817269
$GPGGA,020713.00,3510.4137,N,12139.4522,W,1,08,1.3,12.2,M,-32.5,M,,*64
$PYRTM,2024,125.088377011053,16.198024421192
$GPGGA,020714.00,3510.4139,N,12139.4546,W,1,08,1.3,9.8,M,-32.5,M,,*5F
$PYRTM,2024,125.088388592257,16.198036002407
$GPGGA,020715.00,3510.4138,N,12139.4569,W,1,08,1.3,9.4,M,-32.5,M,,*5E
$PYRTM,2024,125.088400158912,16.198047569051
$GPGGA,020716.00,3510.4133,N,12139.4595,W,1,08,1.3,10.0,M,-32.5,M,,*69
$PYRTM,2024,125.088411744502,16.198059154641
$GPGGA,020717.00,3510.4129,N,12139.4623,W,1,08,1.3,9.1,M,-32.5,M,,*54
$PYRTM,2024,125.088423307222,16.198070717361
$GPGGA,020718.00,3510.4129,N,12139.4650,W,1,08,1.3,9.0,M,-32.5,M,,*5E
$PYRTM,2024,125.088434897083,16.198082307222
$GPGGA,020719.00,3510.4129,N,12139.4671,W,1,08,1.3,9.7,M,-32.5,M,,*5B
$PYRTM,2024,125.088446456644,16.198093866782
$GPGGA,020720.00,3510.4126,N,12139.4694,W,1,08,1.3,9.9,M,-32.5,M,,*5B
$PYRTM,2024,125.088458045660,16.198105455799
$GPGGA,020721.00,3510.4123,N,12139.4723,W,1,08,1.3,8.2,M,-32.5,M,,*58
$PYRTM,2024,125.088469604306,16.198117014444
$GPGGA,020722.00,3510.4122,N,12139.4750,W,1,08,1.3,8.6,M,-32.5,M,,*5A
$PYRTM,2024,125.088481190428,16.198128600579
$GPGGA,020723.00,3510.4121,N,12139.4774,W,1,08,1.3,7.3,M,-32.5,M,,*54
$PYRTM,2024,125.088492751898,16.198140162037
$GPGGA,020724.00,3510.4119,N,12139.4799,W,1,08,1.3,10.1,M,-32.5,M,,*6F
$PYRTM,2024,125.088504340127,16.198151750266
$GPGGA,020725.00,3510.4117,N,12139.4824,W,1,08,1.3,10.5,M,-32.5,M,,*6D
$PYRTM,2024,125.088515901875,16.198163312014
$GPGGA,020726.00,3510.4115,N,12139.4850,W,1,08,1.3,10.2,M,-32.5,M,,*68
$PYRTM,2024,125.088527486944,16.198174897083
$GPGGA,020727.00,3510.4115,N,12139.4876,W,1,08,1.3,8.6,M,-32.5,M,,*50
$PYRTM,2024,125.088539049676,16.198186459815
$GPGGA,020728.00,3510.4115,N,12139.4901,W,1,08,1.3,9.7,M,-32.5,M,,*5E
$PYRTM,2024,125.088549710150,16.198197120289
$GPGGA,020729.00,3510.4115,N,12139.4924,W,1,08,1.3,10.6,M,-32.5,M,,*61
$PYRTM,2024,125.088561856806,16.198209266944
$GPGGA,020730.00,3510.4113,N,12139.4949,W,1,08,1.3,8.7,M,-32.5,M,,*5C
$PYRTM,2024,125.088573424965,16.198220835116
$GPGGA,020731.00,3510.4111,N,12139.4977,W,1,08,1.3,8.8,M,-32.5,M,,*5D
$PYRTM,2024,125.088584536458,16.198231946609
$GPGGA,020732.00,3510.4111,N,12139.5002,W,1,08,1.3,8.3,M,-32.5,M,,*5F
$PYRTM,2024,125.088595646759,16.198243056898
$GPGGA,020733.00,3510.4112,N,12139.5027,W,1,08,1.3,8.3,M,-32.5,M,,*5A
$PYRTM,2024,125.088606872072,16.198254282211
$GPGGA,020734.00,3510.4112,N,12139.5050,W,1,08,1.3,8.1,M,-32.5,M,,*5F
$PYRTM,2024,125.088617983530,16.198265393669
$GPGGA,020735.00,3510.4111,N,12139.5075,W,1,08,1.3,9.8,M,-32.5,M,,*52
$PYRTM,2024,125.088629095718,16.198276505856
$GPGGA,020736.00,3510.4110,N,12139.5101,W,1,08,1.3,10.4,M,-32.5,M,,*66
$PYRTM,2024,125.088640205035,16.198287615174
$GPGGA,020737.00,3510.4109,N,12139.5127,W,1,08,1.3,8.8,M,-32.5,M,,*5E
$PYRTM,2024,125.088651316759,16.198298726898
$GPGGA,020738.00,3510.4108,N,12139.5153,W,1,08,1.3,9.2,M,-32.5,M,,*58
$PYRTM,2024,125.088662428426,16.198309838565
$GPGGA,020739.00,3510.4106,N,12139.5178,W,1,08,1.3,10.8,M,-32.5,M,,*6C
$PYRTM,2024,125.088673537766,16.198320947905
$GPGGA,020740.00,3510.4105,N,12139.5203,W,1,08,1.3,10.1,M,-32.5,M,,*67
$PYRTM,2024,125.088684780949,16.198332191088
$GPGGA,020741.00,3510.4102,N,12139.5229,W,1,08,1.3,11.0,M,-32.5,M,,*69
$PYRTM,2024,125.088699943113,16.198347353252
$GPGGA,020742.00,3510.4101,N,12139.5256,W,1,08,1.3,11.4,M,-32.5,M,,*65
$PYRTM,2024,125.088711633310,16.198359043449
$GPGGA,020743.00,3510.4102,N,12139.5277,W,1,08,1.3,10.8,M,-32.5,M,,*69
$PYRTM,2024,125.088723089167,16.198370499306
$GPGGA,020744.00,3510.4102,N,12139.5301,W,1,08,1.3,9.2,M,-32.5,M,,*5C
$PYRTM,2024,125.088734649549,16.198382059687
$GPGGA,020745.00,3510.4100,N,12139.5327,W,1,08,1.3,10.6,M,-32.5,M,,*67
$PYRTM,2024,125.088746234086,16.198393644225
$GPGGA,020746.00,3510.4100,N,12139.5354,W,1,08,1.3,10.6,M,-32.5,M,,*60
$PYRTM,2024,125.088757798900,16.198405209039
$GPGGA,020747.00,3510.4102,N,12139.5378,W,1,08,1.0,8.7,M,-32.5,M,,*56
$PYRTM,2024,125.088769386539,16.198416796678
$GPGGA,020748.00,3510.4104,N,12139.5401,W,1,08,1.3,10.3,M,-32.5,M,,*68
$PYRTM,2024,125.088780946227,16.198428356366
$GPGGA,020749.00,3510.4103,N,12139.5429,W,1,08,1.0,11.4,M,-32.5,M,,*61
$PYRTM,2024,125.088792528542,16.198439938681
$GPGGA,020750.00,3510.4102,N,12139.5456,W,1,08,1.0,9.6,M,-32.5,M,,*5B
$PYRTM,2024,125.088804096597,16.198451506736
$GPGGA,020751.00,3510.4103,N,12139.5480,W,1,08,1.0,9.7,M,-32.5,M,,*51
$PYRTM,2024,125.088815682812,16.198463092951
$GPGGA,020752.00,3510.4106,N,12139.5505,W,1,08,1.0,7.3,M,-32.5,M,,*51
$PYRTM,2024,125.088827241840,16.198474652014
$GPGGA,020753.00,3510.4107,N,12139.5531,W,1,08,1.0,7.2,M,-32.5,M,,*57
$PYRTM,2024,125.088838831759,16.198486241898
$GPGGA,020754.00,3510.4104,N,12139.5556,W,1,08,1.0,9.6,M,-32.5,M,,*58
$PYRTM,2024,125.088850391227,16.198497801366
$GPGGA,020755.00,3510.4100,N,12139.5581,W,1,08,1.0,6.8,M,-32.5,M,,*56
$PYRTM,2024,125.088861975486,16.198509385625
$GPGGA,020756.00,3510.4100,N,12139.5609,W,1,08,1.0,7.0,M,-32.5,M,,*5F
$PYRTM,2024,125.088873540023,16.198520950162
$GPGGA,020757.00,3510.4102,N,12139.5634,W,1,08,1.0,8.0,M,-32.5,M,,*5D
$PYRTM,2024,125.088885123137,16.198532533275
$GPGGA,020758.00,3510.4101,N,12139.5657,W,1,08,1.0,8.2,M,-32.5,M,,*56
$PYRTM,2024,125.088896687824,16.198544097975
$GPGGA,020759.00,3510.4097,N,12139.5683,W,1,08,1.0,10.6,M,-32.5,M,,*6D
$PYRTM,2024,125.088908275683,16.198555685822
$GPGGA,020800.00,3510.4094,N,12139.5711,W,1,08,1.0,10.4,M,-32.5,M,,*65
$PYRTM,2024,125.088919835995,16.198567246134
$GPGGA,020801.00,3510.4096,N,12139.5740,W,1,08,1.0,10.2,M,-32.5,M,,*64
$PYRTM,2024,125.088931643819,16.198579053970
$GPGGA,020802.00,3510.4100,N,12139.5765,W,1,08,1.0,10.2,M,-32.5,M,,*6E
$PYRTM,2024,125.088942986620,16.198590396771
$GPGGA,020803.00,3510.4102,N,12139.5787,W,1,08,1.0,9.5,M,-32.5,M,,*5E
$PYRTM,2024,125.088954572824,16.198601982963
$GPGGA,020804.00,3510.4099,N,12139.5810,W,1,08,1.0,8.9,M,-32.5,M,,*56
$PYRTM,2024,125.088966132569,16.198613542708
$GPGGA,020805.00,3510.4098,N,12139.5835,W,1,08,1.0,8.5,M,-32.5,M,,*5D
$PYRTM,2024,125.088977720532,16.198625130671
$GPGGA,020806.00,3510.4097,N,12139.5862,W,1,08,1.0,7.5,M,-32.5,M,,*5C
$PYRTM,2024,125.088989280625,16.198636690764
$GPGGA,020807.00,3510.4094,N,12139.5886,W,1,08,1.0,9.6,M,-32.5,M,,*59
$PYRTM,2024,125.089000868461,16.198648278600
$GPGGA,020808.00,3510.4090,N,12139.5909,W,1,08,1.0,9.0,M,-32.5,M,,*52
$PYRTM,2024,125.089012428785,16.198659838935
$GPGGA,020809.00,3510.4089,N,12139.5932,W,1,08,1.0,8.6,M,-32.5,M,,*54
$PYRTM,2024,125.089024017245,16.198671427384
$GPGGA,020810.00,3510.4090,N,12139.5958,W,1,08,1.0,9.9,M,-32.5,M,,*56
$PYRTM,2024,125.089035578241,16.198682988380
$GPGGA,020811.00,3510.4089,N,12139.5985,W,1,08,1.0,8.9,M,-32.5,M,,*5E
$PYRTM,2024,125.089048311921,16.198695722060
$GPGGA,020812.00,3510.4085,N,12139.6012,W,1,08,1.0,8.2,M,-32.5,M,,*5E
$PYRTM,2024,125.089059898009,16.198707308148
$GPGGA,020813.00,3510.4083,N,12139.6035,W,1,08,1.0,10.8,M,-32.5,M,,*6F
$PYRTM,2024,125.089071459271,16.198718869410
$GPGGA,020814.00,3510.4083,N,12139.6058,W,1,08,1.0,9.7,M,-32.5,M,,*54
$PYRTM,2024,125.089083048206,16.198730458345
$GPGGA,020815.00,3510.4082,N,12139.6083,W,1,08,1.0,8.6,M,-32.5,M,,*52
$PYRTM,2024,125.089094607025,16.198742017176
$GPGGA,020816.00,3510.4082,N,12139.6112,W,1,08,1.0,8.1,M,-32.5,M,,*5F
$PYRTM,2024,125.089106196725,16.198753606863
$GPGGA,020817.00,3510.4083,N,12139.6139,W,1,08,1.0,10.0,M,-32.5,M,,*6E
$PYRTM,2024,125.089117767836,16.198765177986
$GPGGA,020818.00,3510.4079,N,12139.6161,W,1,08,1.0,12.9,M,-32.5,M,,*62
$PYRTM,2024,125.089129345289,16.198776755428
$GPGGA,020819.00,3510.4075,N,12139.6185,W,1,08,1.0,13.0,M,-32.5,M,,*6D
$PYRTM,2024,125.089140915718,16.198788325856
$GPGGA,020820.00,3510.4075,N,12139.6214,W,1,08,1.0,10.3,M,-32.5,M,,*6C
$PYRTM,2024,125.089152709514,16.198800119664
$GPGGA,020821.00,3510.4078,N,12139.6241,W,1,08,1.0,8.4,M,-32.5,M,,*5E
$PYRTM,2024,125.089164058553,16.198811468704
$GPGGA,020822.00,3510.4077,N,12139.6261,W,1,08,1.0,10.6,M,-32.5,M,,*6B
$PYRTM,2024,125.089175638426,16.198823048553
$GPGGA,020823.00,3510.4070,N,12139.6282,W,1,08,1.0,10.8,M,-32.5,M,,*6E
$PYRTM,2024,125.089187212049,16.198834622187
$GPGGA,020824.00,3510.4065,N,12139.6309,W,1,08,1.0,12.5,M,-32.5,M,,*60
$PYRTM,2024,125.089198787072,16.198846197211
$GPGGA,020825.00,3510.4065,N,12139.6335,W,1,08,1.0,12.0,M,-32.5,M,,*6B
$PYRTM,2024,125.089210360440,16.198857770579
$GPGGA,020826.00,3510.4066,N,12139.6356,W,1,08,1.0,8.8,M,-32.5,M,,*5D
$PYRTM,2024,125.089221938727,16.198869348866
$GPGGA,020827.00,3510.4064,N,12139.6379,W,1,08,1.0,9.1,M,-32.5,M,,*5B
$PYRTM,2024,125.089233511169,16.198880921308
$GPGGA,020828.00,3510.4060,N,12139.6405,W,1,08,1.0,10.1,M,-32.5,M,,*64
$PYRTM,2024,125.089245084375,16.198892494514
$GPGGA,020829.00,3510.4058,N,12139.6431,W,1,08,1.0,9.8,M,-32.5,M,,*58
$PYRTM,2024,125.089256657917,16.198904068056
$GPGGA,020830.00,3510.4056,N,12139.6454,W,1,08,1.0,11.6,M,-32.5,M,,*6A
$PYRTM,2024,125.089268230660,16.198915640799
$GPGGA,020831.00,3510.4054,N,12139.6475,W,1,08,1.0,10.8,M,-32.5,M,,*65
$PYRTM,2024,125.089279805127,16.198927215278
$GPGGA,020832.00,3510.4052,N,12139.6501,W,1,08,1.0,9.3,M,-32.5,M,,*51
$PYRTM,2024,125.089291383333,16.198938793472
$GPGGA,020833.00,3510.4048,N,12139.6527,W,1,08,1.0,9.2,M,-32.5,M,,*5E
$PYRTM,2024,125.089302953183,16.198950363322
$GPGGA,020834.00,3510.4044,N,12139.6551,W,1,08,1.0,9.0,M,-32.5,M,,*56
$PYRTM,2024,125.089314542350,16.198961952488
$GPGGA,020835.00,3510.4041,N,12139.6573,W,1,08,1.0,10.8,M,-32.5,M,,*62
$PYRTM,2024,125.089326104792,16.198973514931
$GPGGA,020836.00,3510.4040,N,12139.6598,W,1,08,1.0,9.8,M,-32.5,M,,*5D
$PYRTM,2024,125.089337676308,16.198985086447
$GPGGA,020837.00,3510.4042,N,12139.6624,W,1,08,1.0,10.2,M,-32.5,M,,*68
$PYRTM,2024,125.089349250775,16.198996660914
$GPGGA,020838.00,3510.4041,N,12139.6647,W,1,08,1.0,13.0,M,-32.5,M,,*60
$PYRTM,2024,125.089360825359,16.199008235498
