$PYRTM,2024,123.916670510590,15.026317920729
$GPGGA,215959.00,3450.0558,N,12120.3944,W,1,10,0.8,8.2,M,-33.0,M,,*53
$PYRTM,2024,123.916682095868,15.026329506007
$GPGGA,220000.00,3450.0565,N,12120.3960,W,1,10,0.8,10.8,M,-33.0,M,,*6B
$PYRTM,2024,123.916698994653,15.026346404792
$GPGGA,220001.00,3450.0573,N,12120.3977,W,1,10,0.8,10.2,M,-33.0,M,,*61
$PYRTM,2024,123.916710439028,15.026357849167
$GPGGA,220002.00,3450.0581,N,12120.3992,W,1,10,0.8,9.1,M,-33.0,M,,*5F
$PYRTM,2024,123.916722026620,15.026369436759
$GPGGA,220003.00,3450.0588,N,12120.4005,W,1,10,0.8,8.0,M,-33.0,M,,*57
$PYRTM,2024,123.916733586736,15.026380996875
$GPGGA,220004.00,3450.0595,N,12120.4016,W,1,10,0.8,7.8,M,-33.0,M,,*59
$PYRTM,2024,123.916745176053,15.026392586192
$GPGGA,220005.00,3450.0601,N,12120.4030,W,1,10,0.8,7.8,M,-33.0,M,,*52
$PYRTM,2024,123.916756735984,15.026404146123
$GPGGA,220006.00,3450.0606,N,12120.4048,W,1,10,0.8,8.2,M,-33.0,M,,*5C
$PYRTM,2024,123.916768326204,15.026415736354
$GPGGA,220007.00,3450.0613,N,12120.4065,W,1,10,0.8,8.4,M,-33.0,M,,*50
$PYRTM,2024,123.916779882847,15.026427292998
$GPGGA,220008.00,3450.0620,N,12120.4074,W,1,10,0.8,9.0,M,-33.0,M,,*5A
$PYRTM,2024,123.916791471331,15.026438881470
$GPGGA,220009.00,3450.0628,N,12120.4083,W,1,10,0.8,8.8,M,-33.0,M,,*52
$PYRTM,2024,123.916803033021,15.026450443160
$GPGGA,220010.00,3450.0635,N,12120.4098,W,1,10,0.8,8.0,M,-33.0,M,,*54
$PYRTM,2024,123.916814624954,15.026462035093
$GPGGA,220011.00,3450.0642,N,12120.4119,W,1,10,0.8,8.1,M,-33.0,M,,*5C
$PYRTM,2024,123.916826183426,15.026473593565
$GPGGA,220012.00,3450.0648,N,12120.4136,W,1,10,0.8,8.5,M,-33.0,M,,*5C
$PYRTM,2024,123.916837771065,15.026485181204
$GPGGA,220013.00,3450.0654,N,12120.4146,W,1,10,0.8,9.3,M,-33.0,M,,*50
$PYRTM,2024,123.916849328958,15.026496739097
$GPGGA,220014.00,3450.0662,N,12120.4156,W,1,10,0.8,9.5,M,-33.0,M,,*55
$PYRTM,2024,123.916860918576,15.026508328715
$GPGGA,220015.00,3450.0670,N,12120.4172,W,1,10,0.8,8.6,M,-33.0,M,,*53
$PYRTM,2024,123.916872476910,15.026519887049
$GPGGA,220016.00,3450.0676,N,12120.4191,W,1,10,0.8,9.3,M,-33.0,M,,*5F
$PYRTM,2024,123.916884067465,15.026531477604
$GPGGA,220017.00,3450.0678,N,12120.4205,W,1,10,0.8,9.9,M,-33.0,M,,*54
$PYRTM,2024,123.916895750590,15.026543160741
$GPGGA,220018.00,3450.0683,N,12120.4217,W,1,10,0.8,10.2,M,-33.0,M,,*6F
$PYRTM,2024,123.916907208831,15.026554618970
$GPGGA,220019.00,3450.0692,N,12120.4232,W,1,10,0.8,9.2,M,-33.0,M,,*51
$PYRTM,2024,123.916918775775,15.026566185914
$GPGGA,220020.00,3450.0702,N,12120.4246,W,1,10,0.8,8.6,M,-33.0,M,,*55
$PYRTM,2024,123.916930364514,15.026577774653
$GPGGA,220021.00,3450.0708,N,12120.4259,W,1,10,0.8,8.5,M,-33.0,M,,*53
$PYRTM,2024,123.916941922662,15.026589332801
$GPGGA,220022.00,3450.0712,N,12120.4273,W,1,10,0.8,9.0,M,-33.0,M,,*57
$PYRTM,2024,123.916953625313,15.026601035451
$GPGGA,220023.00,3450.0718,N,12120.4290,W,1,10,0.8,10.8,M,-33.0,M,,*61
$PYRTM,2024,123.916965199988,15.026612610139
$GPGGA,220024.00,3450.0725,N,12120.4306,W,1,10,0.8,10.3,M,-33.0,M,,*6D
$PYRTM,2024,123.916976660567,15.026624070706
$GPGGA,220025.00,3450.0730,N,12120.4318,W,1,10,0.8,9.5,M,-33.0,M,,*59
$PYRTM,2024,123.916988218241,15.026635628380
$GPGGA,220026.00,3450.0735,N,12120.4331,W,1,10,0.8,9.1,M,-33.0,M,,*50
$PYRTM,2024,123.916999805486,15.026647215625
$GPGGA,220027.00,3450.0741,N,12120.4347,W,1,10,0.8,8.3,M,-33.0,M,,*50
$PYRTM,2024,123.917011366505,15.026658776644
$GPGGA,220028.00,3450.0750,N,12120.4361,W,1,10,0.8,8.0,M,-33.0,M,,*58
$PYRTM,2024,123.917022954340,15.026670364479
$GPGGA,220029.00,3450.0757,N,12120.4373,W,1,10,0.8,7.8,M,-33.0,M,,*5A
$PYRTM,2024,123.917034514931,15.026681925069
$GPGGA,220030.00,3450.0762,N,12120.4387,W,1,10,0.8,7.4,M,-33.0,M,,*53
$PYRTM,2024,123.917044830336,15.026692240475
$GPGGA,220031.00,3450.0766,N,12120.4406,W,1,10,0.8,7.5,M,-33.0,M,,*59
$PYRTM,2024,123.917056621655,15.026704031794
$GPGGA,220032.00,3450.0772,N,12120.4424,W,1,10,0.8,7.0,M,-33.0,M,,*5A
$PYRTM,2024,123.917069246204,15.026716656343
$GPGGA,220033.00,3450.0780,N,12120.4435,W,1,10,0.8,7.3,M,-33.0,M,,*55
$PYRTM,2024,123.917080809630,15.026728219769
$GPGGA,220034.00,3450.0788,N,12120.4444,W,1,10,0.8,7.5,M,-33.0,M,,*5A
$PYRTM,2024,123.917092399144,15.026739809282
$GPGGA,220035.00,3450.0795,N,12120.4459,W,1,10,0.8,5.6,M,-33.0,M,,*5A
$PYRTM,2024,123.917103958762,15.026751368900
$GPGGA,220036.00,3450.0801,N,12120.4480,W,1,10,0.8,8.5,M,-33.0,M,,*51
$PYRTM,2024,123.917115549201,15.026762959340
$GPGGA,220037.00,3450.0805,N,12120.4497,W,1,10,0.8,9.1,M,-33.0,M,,*57
$PYRTM,2024,123.917127239884,15.026774650023
$GPGGA,220038.00,3450.0812,N,12120.4509,W,1,10,0.8,10.4,M,-33.0,M,,*65
$PYRTM,2024,123.917138689780,15.026786099919
$GPGGA,220039.00,3450.0822,N,12120.4522,W,1,10,0.8,9.2,M,-33.0,M,,*50
$PYRTM,2024,123.917150255694,15.026797665833
$GPGGA,220040.00,3450.0830,N,12120.4537,W,1,10,0.8,8.3,M,-33.0,M,,*59
$PYRTM,2024,123.917162292199,15.026809702350
$GPGGA,220041.00,3450.0835,N,12120.4552,W,1,10,0.8,8.0,M,-33.0,M,,*5D
$PYRTM,2024,123.917173403368,15.026820813507
$GPGGA,220042.00,3450.0840,N,12120.4567,W,1,10,0.8,8.9,M,-33.0,M,,*53
$PYRTM,2024,123.917184992488,15.026832402627
$GPGGA,220043.00,3450.0846,N,12120.4582,W,1,10,0.8,9.2,M,-33.0,M,,*55
$PYRTM,2024,123.917196552234,15.026843962373
$GPGGA,220044.00,3450.0852,N,12120.4597,W,1,10,0.8,9.5,M,-33.0,M,,*54
$PYRTM,2024,123.917208134838,15.026855544988
$GPGGA,220045.00,3450.0858,N,12120.4614,W,1,10,0.8,8.7,M,-33.0,M,,*54
$PYRTM,2024,123.917219700556,15.026867110694
$GPGGA,220046.00,3450.0866,N,12120.4627,W,1,10,0.8,7.6,M,-33.0,M,,*54
$PYRTM,2024,123.917231288704,15.026878698843
$GPGGA,220047.00,3450.0872,N,12120.4637,W,1,10,0.8,7.0,M,-33.0,M,,*57
$PYRTM,2024,123.917242847442,15.026890257581
$GPGGA,220048.00,3450.0876,N,12120.4650,W,1,10,0.8,7.3,M,-33.0,M,,*5E
$PYRTM,2024,123.917254439525,15.026901849664
$GPGGA,220049.00,3450.0880,N,12120.4668,W,1,10,0.8,7.6,M,-33.0,M,,*58
$PYRTM,2024,123.917265995544,15.026913405683
$GPGGA,220050.00,3450.0887,N,12120.4685,W,1,10,0.8,9.5,M,-33.0,M,,*59
$PYRTM,2024,123.917277583773,15.026924993912
$GPGGA,220051.00,3450.0898,N,12120.4695,W,1,10,0.8,9.0,M,-33.0,M,,*52
$PYRTM,2024,123.917289143657,15.026936553796
$GPGGA,220052.00,3450.0907,N,12120.4703,W,1,10,0.8,7.9,M,-33.0,M,,*5F
$PYRTM,2024,123.917300731725,15.026948141863
$GPGGA,220053.00,3450.0913,N,12120.4716,W,1,10,0.8,7.8,M,-33.0,M,,*5E
$PYRTM,2024,123.917312292095,15.026959702234
$GPGGA,220054.00,3450.0915,N,12120.4733,W,1,10,0.8,7.8,M,-33.0,M,,*58
$PYRTM,2024,123.917323881539,15.026971291678
$GPGGA,220055.00,3450.0919,N,12120.4750,W,1,10,0.8,7.5,M,-33.0,M,,*5D
$PYRTM,2024,123.917335440498,15.026982850637
$GPGGA,220056.00,3450.0929,N,12120.4767,W,1,10,0.8,7.3,M,-33.0,M,,*5F
$PYRTM,2024,123.917347029213,15.026994439352
$GPGGA,220057.00,3450.0941,N,12120.4778,W,1,10,0.8,5.9,M,-33.0,M,,*56
$PYRTM,2024,123.917358588345,15.027005998484
$GPGGA,220058.00,3450.0948,N,12120.4788,W,1,10,0.8,6.2,M,-33.0,M,,*57
$PYRTM,2024,123.917370176956,15.027017587095
$GPGGA,220059.00,3450.0950,N,12120.4802,W,1,10,0.8,7.5,M,-33.0,M,,*54
$PYRTM,2024,123.917381737789,15.027029147928
$GPGGA,220100.00,3450.0953,N,12120.4822,W,1,10,0.8,9.9,M,-33.0,M,,*5A
$PYRTM,2024,123.917394471053,15.027041881192
$GPGGA,220101.00,3450.0961,N,12120.4840,W,1,10,0.8,9.1,M,-33.0,M,,*56
$PYRTM,2024,123.917407088831,15.027054498981
$GPGGA,220102.00,3450.0970,N,12120.4850,W,1,10,0.8,8.6,M,-33.0,M,,*52
$PYRTM,2024,123.917416474687,15.027063884826
$GPGGA,220103.00,3450.0975,N,12120.4857,W,1,10,0.8,9.0,M,-33.0,M,,*56
$PYRTM,2024,123.917428034988,15.027075445127
$GPGGA,220104.00,3450.0980,N,12120.4872,W,1,10,0.8,9.0,M,-33.0,M,,*5C
$PYRTM,2024,123.917439617616,15.027087027766
$GPGGA,220105.00,3450.0984,N,12120.4890,W,1,10,0.8,8.2,M,-33.0,M,,*56
$PYRTM,2024,123.917451182674,15.027098592812
$GPGGA,220106.00,3450.0992,N,12120.4908,W,1,10,0.8,8.4,M,-33.0,M,,*54
$PYRTM,2024,123.917462770833,15.027110180972
$GPGGA,220107.00,3450.1001,N,12120.4921,W,1,10,0.8,7.7,M,-33.0,M,,*50
$PYRTM,2024,123.917474329931,15.027121740069
$GPGGA,220108.00,3450.1007,N,12120.4932,W,1,10,0.8,7.3,M,-33.0,M,,*5F
$PYRTM,2024,123.917485919769,15.027133329907
$GPGGA,220109.00,3450.1012,N,12120.4946,W,1,10,0.8,7.7,M,-33.0,M,,*5D
$PYRTM,2024,123.917497477963,15.027144888102
$GPGGA,220110.00,3450.1019,N,12120.4963,W,1,10,0.8,7.4,M,-33.0,M,,*5A
$PYRTM,2024,123.917509061771,15.027156471910
$GPGGA,220111.00,3450.1027,N,12120.4981,W,1,10,0.8,6.7,M,-33.0,M,,*58
$PYRTM,2024,123.917520628079,15.027168038218
$GPGGA,220112.00,3450.1032,N,12120.4997,W,1,10,0.8,7.2,M,-33.0,M,,*5C
$PYRTM,2024,123.917532211944,15.027179622083
$GPGGA,220113.00,3450.1038,N,12120.5012,W,1,10,0.8,7.6,M,-33.0,M,,*56
$PYRTM,2024,123.917543775174,15.027191185313
$GPGGA,220114.00,3450.1044,N,12120.5029,W,1,10,0.8,7.2,M,-33.0,M,,*56
$PYRTM,2024,123.917555363715,15.027202773854
$GPGGA,220115.00,3450.1052,N,12120.5047,W,1,10,0.8,6.7,M,-33.0,M,,*5C
$PYRTM,2024,123.917566924097,15.027214334236
$GPGGA,220116.00,3450.1060,N,12120.5060,W,1,10,0.8,6.6,M,-33.0,M,,*5A
$PYRTM,2024,123.917578510741,15.027225920880
$GPGGA,220117.00,3450.1065,N,12120.5072,W,1,10,0.8,7.0,M,-33.0,M,,*5A
$PYRTM,2024,123.917590071007,15.027237481146
$GPGGA,220118.00,3450.1070,N,12120.5085,W,1,10,0.8,7.5,M,-33.0,M,,*5C
$PYRTM,2024,123.917601660139,15.027249070278
$GPGGA,220119.00,3450.1076,N,12120.5102,W,1,10,0.8,6.6,M,-33.0,M,,*57
$PYRTM,2024,123.917613219919,15.027260630058
$GPGGA,220120.00,3450.1085,N,12120.5119,W,1,10,0.8,5.8,M,-33.0,M,,*56
$PYRTM,2024,123.917624808472,15.027272218611
$GPGGA,220121.00,3450.1093,N,12120.5132,W,1,10,0.8,5.9,M,-33.0,M,,*58
$PYRTM,2024,123.917636368148,15.027283778287
$GPGGA,220122.00,3450.1100,N,12120.5143,W,1,10,0.8,6.5,M,-33.0,M,,*59
$PYRTM,2024,123.917647952454,15.027295362593
$GPGGA,220123.00,3450.1106,N,12120.5156,W,1,10,0.8,6.9,M,-33.0,M,,*56
$PYRTM,2024,123.917659520845,15.027306930984
$GPGGA,220124.00,3450.1114,N,12120.5172,W,1,10,0.8,6.8,M,-33.0,M,,*55
$PYRTM,2024,123.917671105972,15.027318516111
$GPGGA,220125.00,3450.1121,N,12120.5186,W,1,10,0.8,7.0,M,-33.0,M,,*50
$PYRTM,2024,123.917682666620,15.027330076771
$GPGGA,220126.00,3450.1126,N,12120.5198,W,1,10,0.8,7.5,M,-33.0,M,,*5E
$PYRTM,2024,123.917694247882,15.027341658021
$GPGGA,220127.00,3450.1131,N,12120.5212,W,1,10,0.8,7.2,M,-33.0,M,,*5F
$PYRTM,2024,123.917705814329,15.027353224468
$GPGGA,220128.00,3450.1137,N,12120.5227,W,1,10,0.8,6.7,M,-33.0,M,,*54
$PYRTM,2024,123.917717401030,15.027364811169
$GPGGA,220129.00,3450.1144,N,12120.5240,W,1,10,0.8,6.9,M,-33.0,M,,*5E
$PYRTM,2024,123.917728962442,15.027376372581
$GPGGA,220130.00,3450.1150,N,12120.5251,W,1,10,0.8,7.2,M,-33.0,M,,*59
$PYRTM,2024,123.917742164583,15.027389574722
$GPGGA,220131.00,3450.1156,N,12120.5265,W,1,10,0.8,7.1,M,-33.0,M,,*5A
$PYRTM,2024,123.917754309722,15.027401719861
$GPGGA,220132.00,3450.1163,N,12120.5280,W,1,10,0.8,7.6,M,-33.0,M,,*53
$PYRTM,2024,123.917763700671,15.027411110810
$GPGGA,220133.00,3450.1169,N,12120.5294,W,1,10,0.8,7.9,M,-33.0,M,,*52
$PYRTM,2024,123.917775260891,15.027422671030
$GPGGA,220134.00,3450.1176,N,12120.5308,W,1,10,0.8,7.9,M,-33.0,M,,*5F
$PYRTM,2024,123.917786860984,15.027434271134
$GPGGA,220135.00,3450.1183,N,12120.5325,W,1,10,0.8,7.6,M,-33.0,M,,*54
$PYRTM,2024,123.917798410162,15.027445820301
$GPGGA,220136.00,3450.1191,N,12120.5339,W,1,10,0.8,7.5,M,-33.0,M,,*5A
$PYRTM,2024,123.917809989444,15.027457399583
$GPGGA,220137.00,3450.1198,N,12120.5351,W,1,10,0.8,8.2,M,-33.0,M,,*54
$PYRTM,2024,123.917821556030,15.027468966169
$GPGGA,220138.00,3450.1205,N,12120.5365,W,1,10,0.8,8.6,M,-33.0,M,,*5F
$PYRTM,2024,123.917833138530,15.027480548669
$GPGGA,220139.00,3450.1213,N,12120.5381,W,1,10,0.8,8.9,M,-33.0,M,,*5C
$PYRTM,2024,123.917844704977,15.027492115116
$GPGGA,220140.00,3450.1222,N,12120.5398,W,1,10,0.8,8.5,M,-33.0,M,,*54
$PYRTM,2024,123.917856285613,15.027503695752
$GPGGA,220141.00,3450.1228,N,12120.5411,W,1,10,0.8,8.3,M,-33.0,M,,*5F
$PYRTM,2024,123.917867852280,15.027515262419
$GPGGA,220142.00,3450.1232,N,12120.5422,W,1,10,0.8,9.0,M,-33.0,M,,*55
$PYRTM,2024,123.917879438993,15.027526849132
$GPGGA,220143.00,3450.1240,N,12120.5437,W,1,10,0.8,6.1,M,-33.0,M,,*5B
$PYRTM,2024,123.917890999213,15.027538409352
$GPGGA,220144.00,3450.1250,N,12120.5453,W,1,10,0.8,4.4,M,-33.0,M,,*58
$PYRTM,2024,123.917902582153,15.027549992303
$GPGGA,220145.00,3450.1258,N,12120.5467,W,1,10,0.8,5.7,M,-33.0,M,,*54
$PYRTM,2024,123.917913222257,15.027560632396
$GPGGA,220146.00,3450.1261,N,12120.5477,W,1,10,0.8,6.4,M,-33.0,M,,*5C
$PYRTM,2024,123.917925145463,15.027572555602
$GPGGA,220147.00,3450.1265,N,12120.5490,W,1,10,0.8,7.3,M,-33.0,M,,*56
$PYRTM,2024,123.917935921539,15.027583331678
$GPGGA,220148.00,3450.1273,N,12120.5505,W,1,10,0.8,7.3,M,-33.0,M,,*53
$PYRTM,2024,123.917947034826,15.027594444965
$GPGGA,220149.00,3450.1282,N,12120.5520,W,1,10,0.8,7.0,M,-33.0,M,,*58
$PYRTM,2024,123.917958143160,15.027605553299
$GPGGA,220150.00,3450.1288,N,12120.5533,W,1,10,0.8,6.8,M,-33.0,M,,*51
$PYRTM,2024,123.917969139988,15.027616550139
$GPGGA,220151.00,3450.1295,N,12120.5546,W,1,10,0.8,6.8,M,-33.0,M,,*5E
$PYRTM,2024,123.917980253426,15.027627663565
$GPGGA,220152.00,3450.1301,N,12120.5561,W,1,10,0.8,8.1,M,-33.0,M,,*53
$PYRTM,2024,123.917991364120,15.027638774271
$GPGGA,220153.00,3450.1307,N,12120.5577,W,1,10,0.8,8.8,M,-33.0,M,,*5A
$PYRTM,2024,123.918002467222,15.027649877361
$GPGGA,220154.00,3450.1316,N,12120.5593,W,1,10,0.8,8.9,M,-33.0,M,,*56
$PYRTM,2024,123.918013583808,15.027660993958
$GPGGA,220155.00,3450.1324,N,12120.5608,W,1,10,0.8,8.4,M,-33.0,M,,*5A
$PYRTM,2024,123.918024689502,15.027672099653
$GPGGA,220156.00,3450.1330,N,12120.5623,W,1,10,0.8,7.9,M,-33.0,M,,*57
$PYRTM,2024,123.918036256690,15.027683666829
$GPGGA,220157.00,3450.1335,N,12120.5639,W,1,10,0.8,7.3,M,-33.0,M,,*52
$PYRTM,2024,123.918047844410,15.027695254549
$GPGGA,220158.00,3450.1342,N,12120.5655,W,1,10,0.8,6.8,M,-33.0,M,,*5D
$PYRTM,2024,123.918059403843,15.027706813981
$GPGGA,220159.00,3450.1350,N,12120.5669,W,1,10,0.8,7.0,M,-33.0,M,,*59
$PYRTM,2024,123.918070991111,15.027718401250
$GPGGA,220200.00,3450.1357,N,12120.5681,W,1,10,0.8,7.7,M,-33.0,M,,*50
$PYRTM,2024,123.918082551991,15.027729962130
$GPGGA,220201.00,3450.1360,N,12120.5696,W,1,10,0.8,8.3,M,-33.0,M,,*58
$PYRTM,2024,123.918099334606,15.027746744745
$GPGGA,220202.00,3450.1363,N,12120.5716,W,1,10,0.8,9.3,M,-33.0,M,,*50
$PYRTM,2024,123.918110923669,15.027758333808
$GPGGA,220203.00,3450.1369,N,12120.5734,W,1,10,0.8,9.2,M,-33.0,M,,*5A
$PYRTM,2024,123.918122482766,15.027769892905
$GPGGA,220204.00,3450.1377,N,12120.5746,W,1,10,0.8,9.3,M,-33.0,M,,*56
$PYRTM,2024,123.918134070081,15.027781480220
$GPGGA,220205.00,3450.1385,N,12120.5758,W,1,10,0.8,9.5,M,-33.0,M,,*53
$PYRTM,2024,123.918145631435,15.027793041574
$GPGGA,220206.00,3450.1392,N,12120.5774,W,1,10,0.8,9.0,M,-33.0,M,,*5D
$PYRTM,2024,123.918157219907,15.027804630046
$GPGGA,220207.00,3450.1398,N,12120.5791,W,1,10,0.8,8.7,M,-33.0,M,,*5B
$PYRTM,2024,123.918168779062,15.027816189201
$GPGGA,220208.00,3450.1405,N,12120.5806,W,1,10,0.8,9.2,M,-33.0,M,,*52
$PYRTM,2024,123.918180366319,15.027827776458
$GPGGA,220209.00,3450.1412,N,12120.5820,W,1,10,0.8,9.7,M,-33.0,M,,*54
$PYRTM,2024,123.918191926609,15.027839336748
$GPGGA,220210.00,3450.1419,N,12120.5833,W,1,10,0.8,9.4,M,-33.0,M,,*56
$PYRTM,2024,123.918203514259,15.027850924398
$GPGGA,220211.00,3450.1427,N,12120.5849,W,1,10,0.8,8.7,M,-33.0,M,,*55
$PYRTM,2024,123.918215075903,15.027862486042
$GPGGA,220212.00,3450.1432,N,12120.5863,W,1,10,0.8,8.4,M,-33.0,M,,*59
$PYRTM,2024,123.918226657153,15.027874067292
$GPGGA,220213.00,3450.1436,N,12120.5878,W,1,10,0.8,8.4,M,-33.0,M,,*56
$PYRTM,2024,123.918238224491,15.027885634630
$GPGGA,220214.00,3450.1443,N,12120.5894,W,1,10,0.8,8.8,M,-33.0,M,,*5D
$PYRTM,2024,123.918250261979,15.027897672118
$GPGGA,220215.00,3450.1454,N,12120.5910,W,1,10,0.8,8.6,M,-33.0,M,,*59
$PYRTM,2024,123.918261374780,15.027908784919
$GPGGA,220216.00,3450.1465,N,12120.5920,W,1,10,0.8,7.4,M,-33.0,M,,*56
$PYRTM,2024,123.918272962083,15.027920372222
$GPGGA,220217.00,3450.1472,N,12120.5931,W,1,10,0.8,8.6,M,-33.0,M,,*5C
$PYRTM,2024,123.918284520995,15.027931931134
$GPGGA,220218.00,3450.1475,N,12120.5949,W,1,10,0.8,7.2,M,-33.0,M,,*50
$PYRTM,2024,123.918296106944,15.027943517083
$GPGGA,220219.00,3450.1480,N,12120.5970,W,1,10,0.8,7.3,M,-33.0,M,,*50
$PYRTM,2024,123.918307670116,15.027955080255
$GPGGA,220220.00,3450.1489,N,12120.5981,W,1,10,0.8,8.4,M,-33.0,M,,*55
$PYRTM,2024,123.918319706435,15.027967116586
$GPGGA,220221.00,3450.1499,N,12120.5990,W,1,10,0.8,8.1,M,-33.0,M,,*50
$PYRTM,2024,123.918330817326,15.027978227465
$GPGGA,220222.00,3450.1508,N,12120.6003,W,1,10,0.8,8.2,M,-33.0,M,,*59
$PYRTM,2024,123.918342400127,15.027989810266
$GPGGA,220223.00,3450.1514,N,12120.6021,W,1,10,0.8,9.6,M,-33.0,M,,*50
$PYRTM,2024,123.918353966111,15.028001376250
$GPGGA,220224.00,3450.1519,N,12120.6039,W,1,10,0.8,9.9,M,-33.0,M,,*5C
$PYRTM,2024,123.918365553287,15.028012963426
$GPGGA,220225.00,3450.1525,N,12120.6054,W,1,10,0.8,9.6,M,-33.0,M,,*56
$PYRTM,2024,123.918377113958,15.028024524097
$GPGGA,220226.00,3450.1532,N,12120.6064,W,1,10,0.8,9.4,M,-33.0,M,,*52
$PYRTM,2024,123.918388701956,15.028036112095
$GPGGA,220227.00,3450.1541,N,12120.6076,W,1,10,0.8,8.8,M,-33.0,M,,*59
$PYRTM,2024,123.918400261829,15.028047671968
$GPGGA,220228.00,3450.1549,N,12120.6091,W,1,10,0.8,7.8,M,-33.0,M,,*58
$PYRTM,2024,123.918411852488,15.028059262627
$GPGGA,220229.00,3450.1555,N,12120.6108,W,1,10,0.8,7.0,M,-33.0,M,,*5D
$PYRTM,2024,123.918423410995,15.028070821134
$GPGGA,220230.00,3450.1559,N,12120.6123,W,1,10,0.8,7.5,M,-33.0,M,,*55
$PYRTM,2024,123.918436142465,15.028083552604
$GPGGA,220231.00,3450.1567,N,12120.6135,W,1,10,0.8,7.9,M,-33.0,M,,*52
$PYRTM,2024,123.918448756505,15.028096166644
$GPGGA,220232.00,3450.1577,N,12120.6146,W,1,10,0.8,8.3,M,-33.0,M,,*51
$PYRTM,2024,123.918458148322,15.028105558461
$GPGGA,220233.00,3450.1583,N,12120.6160,W,1,10,0.8,8.7,M,-33.0,M,,*5B
$PYRTM,2024,123.918469706713,15.028117116852
$GPGGA,220234.00,3450.1588,N,12120.6180,W,1,10,0.8,8.0,M,-33.0,M,,*5E
$PYRTM,2024,123.918481293727,15.028128703866
$GPGGA,220235.00,3450.1595,N,12120.6199,W,1,10,0.8,7.8,M,-33.0,M,,*5C
$PYRTM,2024,123.918492854815,15.028140264954
$GPGGA,220236.00,3450.1606,N,12120.6210,W,1,10,0.8,8.2,M,-33.0,M,,*51
$PYRTM,2024,123.918504445775,15.028151855914
$GPGGA,220237.00,3450.1616,N,12120.6219,W,1,10,0.8,7.8,M,-33.0,M,,*5D
$PYRTM,2024,123.918516003808,15.028163413947
$GPGGA,220238.00,3450.1623,N,12120.6234,W,1,10,0.8,7.9,M,-33.0,M,,*5A
$PYRTM,2024,123.918527589838,15.028174999977
$GPGGA,220239.00,3450.1629,N,12120.6255,W,1,10,0.8,9.6,M,-33.0,M,,*57
$PYRTM,2024,123.918539152257,15.028186562396
$GPGGA,220240.00,3450.1636,N,12120.6271,W,1,10,0.8,8.4,M,-33.0,M,,*52
$PYRTM,2024,123.918550738947,15.028198149086
$GPGGA,220241.00,3450.1646,N,12120.6281,W,1,10,0.8,7.8,M,-33.0,M,,*58
$PYRTM,2024,123.918562299931,15.028209710069
$GPGGA,220242.00,3450.1657,N,12120.6292,W,1,10,0.8,7.1,M,-33.0,M,,*50
$PYRTM,2024,123.918573900752,15.028221310891
$GPGGA,220243.00,3450.1665,N,12120.6306,W,1,10,0.8,7.2,M,-33.0,M,,*5F
$PYRTM,2024,123.918585447743,15.028232857882
$GPGGA,220244.00,3450.1669,N,12120.6322,W,1,10,0.8,7.3,M,-33.0,M,,*53
$PYRTM,2024,123.918597484687,15.028244894826
$GPGGA,220245.00,3450.1674,N,12120.6339,W,1,10,0.8,7.5,M,-33.0,M,,*52
$PYRTM,2024,123.918608597188,15.028256007326
$GPGGA,220246.00,3450.1683,N,12120.6353,W,1,10,0.8,6.4,M,-33.0,M,,*55
$PYRTM,2024,123.918620179468,15.028267589606
$GPGGA,220247.00,3450.1694,N,12120.6365,W,1,10,0.8,6.1,M,-33.0,M,,*52
$PYRTM,2024,123.918631746759,15.028279156898
$GPGGA,220248.00,3450.1703,N,12120.6377,W,1,10,0.8,5.4,M,-33.0,M,,*57
$PYRTM,2024,123.918643332708,15.028290742847
$GPGGA,220249.00,3450.1710,N,12120.6389,W,1,10,0.8,5.7,M,-33.0,M,,*56
$PYRTM,2024,123.918654896088,15.028302306227
$GPGGA,220250.00,3450.1713,N,12120.6409,W,1,10,0.8,5.3,M,-33.0,M,,*56
$PYRTM,2024,123.918666595810,15.028314005949
$GPGGA,220251.00,3450.1719,N,12120.6428,W,1,10,0.8,4.8,M,-33.0,M,,*54
$PYRTM,2024,123.918678156644,15.028325566782
$GPGGA,220252.00,3450.1729,N,12120.6441,W,1,10,0.8,4.6,M,-33.0,M,,*55
$PYRTM,2024,123.918689627627,15.028337037766
$GPGGA,220253.00,3450.1739,N,12120.6452,W,1,10,0.8,4.6,M,-33.0,M,,*57
$PYRTM,2024,123.918701190370,15.028348600509
$GPGGA,220254.00,3450.1745,N,12120.6464,W,1,10,0.8,5.3,M,-33.0,M,,*5A
$PYRTM,2024,123.918712777199,15.028360187338
$GPGGA,220255.00,3450.1748,N,12120.6481,W,1,10,0.8,6.3,M,-33.0,M,,*5E
$PYRTM,2024,123.918724452303,15.028371862454
$GPGGA,220256.00,3450.1754,N,12120.6501,W,1,10,0.8,7.0,M,-33.0,M,,*5B
$PYRTM,2024,123.918736040035,15.028383450174
$GPGGA,220257.00,3450.1763,N,12120.6517,W,1,10,0.8,8.3,M,-33.0,M,,*55
$PYRTM,2024,123.918747486400,15.028394896539
$GPGGA,220258.00,3450.1771,N,12120.6530,W,1,10,0.8,8.5,M,-33.0,M,,*5A
$PYRTM,2024,123.918759088380,15.028406498519
$GPGGA,220259.00,3450.1777,N,12120.6543,W,1,10,0.8,8.9,M,-33.0,M,,*55
$PYRTM,2024,123.918770748866,15.028418159005
$GPGGA,220300.00,3450.1783,N,12120.6562,W,1,10,0.8,9.3,M,-33.0,M,,*5B
$PYRTM,2024,123.918783366435,15.028430776574
$GPGGA,220301.00,3450.1792,N,12120.6581,W,1,10,0.8,8.5,M,-33.0,M,,*50
$PYRTM,2024,123.918795983495,15.028443393634
$GPGGA,220302.00,3450.1800,N,12120.6597,W,1,10,0.8,7.5,M,-33.0,M,,*5F
$PYRTM,2024,123.918805368669,15.028452778808
$GPGGA,220303.00,3450.1807,N,12120.6610,W,1,10,0.8,7.2,M,-33.0,M,,*52
$PYRTM,2024,123.918816930359,15.028464340498
$GPGGA,220304.00,3450.1815,N,12120.6624,W,1,10,0.8,7.4,M,-33.0,M,,*57
$PYRTM,2024,123.918828517836,15.028475927975
$GPGGA,220305.00,3450.1823,N,12120.6639,W,1,10,0.8,7.9,M,-33.0,M,,*52
$PYRTM,2024,123.918840078715,15.028487488854
$GPGGA,220306.00,3450.1827,N,12120.6655,W,1,10,0.8,8.1,M,-33.0,M,,*58
$PYRTM,2024,123.918851661343,15.028499071481
$GPGGA,220307.00,3450.1833,N,12120.6674,W,1,10,0.8,7.0,M,-33.0,M,,*51
$PYRTM,2024,123.918863227650,15.028510637789
$GPGGA,220308.00,3450.1841,N,12120.6690,W,1,10,0.8,7.0,M,-33.0,M,,*51
$PYRTM,2024,123.918874813623,15.028522223762
$GPGGA,220309.00,3450.1852,N,12120.6702,W,1,10,0.8,6.6,M,-33.0,M,,*5F
$PYRTM,2024,123.918886376493,15.028533786632
$GPGGA,220310.00,3450.1859,N,12120.6712,W,1,10,0.8,6.9,M,-33.0,M,,*52
$PYRTM,2024,123.918898411979,15.028545822118
$GPGGA,220311.00,3450.1863,N,12120.6729,W,1,10,0.8,4.0,M,-33.0,M,,*59
$PYRTM,2024,123.918909523113,15.028556933264
$GPGGA,220312.00,3450.1869,N,12120.6750,W,1,10,0.8,7.4,M,-33.0,M,,*59
$PYRTM,2024,123.918921124861,15.028568535000
$GPGGA,220313.00,3450.1875,N,12120.6766,W,1,10,0.8,8.5,M,-33.0,M,,*5E
$PYRTM,2024,123.918932670995,15.028580081134
$GPGGA,220314.00,3450.1883,N,12120.6776,W,1,10,0.8,7.8,M,-33.0,M,,*53
$PYRTM,2024,123.918944708067,15.028592118206
$GPGGA,220315.00,3450.1893,N,12120.6788,W,1,10,0.8,6.8,M,-33.0,M,,*53
$PYRTM,2024,123.918955819907,15.028603230046
$GPGGA,220316.00,3450.1899,N,12120.6801,W,1,10,0.8,7.5,M,-33.0,M,,*58
$PYRTM,2024,123.918967406435,15.028614816586
$GPGGA,220317.00,3450.1902,N,12120.6817,W,1,10,0.8,8.8,M,-33.0,M,,*5F
$PYRTM,2024,123.918978967407,15.028626377546
$GPGGA,220318.00,3450.1905,N,12120.6835,W,1,10,0.8,9.5,M,-33.0,M,,*5B
$PYRTM,2024,123.918990558889,15.028637969028
$GPGGA,220319.00,3450.1913,N,12120.6850,W,1,10,0.8,9.3,M,-33.0,M,,*58
$PYRTM,2024,123.919002117037,15.028649527176
$GPGGA,220320.00,3450.1923,N,12120.6859,W,1,10,0.8,9.3,M,-33.0,M,,*58
$PYRTM,2024,123.919013706655,15.028661116794
$GPGGA,220321.00,3450.1931,N,12120.6869,W,1,10,0.8,9.0,M,-33.0,M,,*5A
$PYRTM,2024,123.919025265880,15.028672676019
$GPGGA,220322.00,3450.1938,N,12120.6886,W,1,10,0.8,7.0,M,-33.0,M,,*5F
$PYRTM,2024,123.919036848958,15.028684259109
$GPGGA,220323.00,3450.1943,N,12120.6902,W,1,10,0.8,7.2,M,-33.0,M,,*5D
$PYRTM,2024,123.919048412662,15.028695822801
$GPGGA,220324.00,3450.1949,N,12120.6913,W,1,10,0.8,7.1,M,-33.0,M,,*53
$PYRTM,2024,123.919059999896,15.028707410035
$GPGGA,220325.00,3450.1955,N,12120.6922,W,1,10,0.8,7.2,M,-33.0,M,,*5E
$PYRTM,2024,123.919071562072,15.028718972211
$GPGGA,220326.00,3450.1963,N,12120.6936,W,1,10,0.8,6.4,M,-33.0,M,,*5A
$PYRTM,2024,123.919083152685,15.028730562824
$GPGGA,220327.00,3450.1970,N,12120.6953,W,1,10,0.8,5.1,M,-33.0,M,,*5C
$PYRTM,2024,123.919094710799,15.028742120937
$GPGGA,220328.00,3450.1976,N,12120.6967,W,1,10,0.8,6.0,M,-33.0,M,,*50
$PYRTM,2024,123.919106299838,15.028753709988
$GPGGA,220329.00,3450.1980,N,12120.6980,W,1,10,0.8,6.7,M,-33.0,M,,*56
$PYRTM,2024,123.919117858866,15.028765269005
$GPGGA,220330.00,3450.1987,N,12120.6993,W,1,10,0.8,7.1,M,-33.0,M,,*5C
$PYRTM,2024,123.919130590208,15.028778000347
$GPGGA,220331.00,3450.1995,N,12120.7007,W,1,10,0.8,7.0,M,-33.0,M,,*5A
$PYRTM,2024,123.919143206782,15.028790616921
$GPGGA,220332.00,3450.2003,N,12120.7022,W,1,10,0.8,7.1,M,-33.0,M,,*5A
$PYRTM,2024,123.919152592720,15.028800002859
$GPGGA,220333.00,3450.2011,N,12120.7035,W,1,10,0.8,7.1,M,-33.0,M,,*5E
$PYRTM,2024,123.919164154745,15.028811564884
$GPGGA,220334.00,3450.2018,N,12120.7048,W,1,10,0.8,7.3,M,-33.0,M,,*58
$PYRTM,2024,123.919175743183,15.028823153322
$GPGGA,220335.00,3450.2025,N,12120.7061,W,1,10,0.8,6.3,M,-33.0,M,,*5D
$PYRTM,2024,123.919187304039,15.028834714178
$GPGGA,220336.00,3450.2036,N,12120.7076,W,1,10,0.8,6.1,M,-33.0,M,,*58
$PYRTM,2024,123.919198889977,15.028846300116
$GPGGA,220337.00,3450.2045,N,12120.7088,W,1,10,0.8,6.2,M,-33.0,M,,*5F
$PYRTM,2024,123.919210451713,15.028857861863
$GPGGA,220338.00,3450.2053,N,12120.7099,W,1,10,0.8,6.5,M,-33.0,M,,*50
$PYRTM,2024,123.919222039039,15.028869449178
$GPGGA,220339.00,3450.2061,N,12120.7113,W,1,10,0.8,6.3,M,-33.0,M,,*55
$PYRTM,2024,123.919233600486,15.028881010625
$GPGGA,220340.00,3450.2069,N,12120.7128,W,1,10,0.8,6.3,M,-33.0,M,,*5B
$PYRTM,2024,123.919245189190,15.028892599329
$GPGGA,220341.00,3450.2073,N,12120.7144,W,1,10,0.8,6.6,M,-33.0,M,,*5E
$PYRTM,2024,123.919256746586,15.028904156725
$GPGGA,220342.00,3450.2078,N,12120.7159,W,1,10,0.8,6.4,M,-33.0,M,,*58
$PYRTM,2024,123.919268338125,15.028915748264
$GPGGA,220343.00,3450.2086,N,12120.7171,W,1,10,0.8,6.3,M,-33.0,M,,*55
$PYRTM,2024,123.919279894306,15.028927304444
$GPGGA,220344.00,3450.2094,N,12120.7182,W,1,10,0.8,6.0,M,-33.0,M,,*5E
$PYRTM,2024,123.919291933275,15.028939343414
$GPGGA,220345.00,3450.2100,N,12120.7198,W,1,10,0.8,7.0,M,-33.0,M,,*59
$PYRTM,2024,123.919303042917,15.028950453044
$GPGGA,220346.00,3450.2105,N,12120.7216,W,1,10,0.8,6.3,M,-33.0,M,,*58
$PYRTM,2024,123.919314629560,15.028962039699
$GPGGA,220347.00,3450.2110,N,12120.7229,W,1,10,0.8,7.6,M,-33.0,M,,*55
$PYRTM,2024,123.919326192049,15.028973602176
$GPGGA,220348.00,3450.2115,N,12120.7240,W,1,10,0.8,8.1,M,-33.0,M,,*58
$PYRTM,2024,123.919337779444,15.028985189583
$GPGGA,220349.00,3450.2123,N,12120.7257,W,1,10,0.8,8.0,M,-33.0,M,,*5B
$PYRTM,2024,123.919349340069,15.028996750208
$GPGGA,220350.00,3450.2131,N,12120.7274,W,1,10,0.8,5.8,M,-33.0,M,,*54
$PYRTM,2024,123.919360002894,15.029007413032
$GPGGA,220351.00,3450.2136,N,12120.7285,W,1,10,0.8,6.2,M,-33.0,M,,*55
$PYRTM,2024,123.919371923299,15.029019333438
$GPGGA,220352.00,3450.2139,N,12120.7298,W,1,10,0.8,7.0,M,-33.0,M,,*56
$PYRTM,2024,123.919382673160,15.029030083299
$GPGGA,220353.00,3450.2144,N,12120.7316,W,1,10,0.8,8.0,M,-33.0,M,,*55
$PYRTM,2024,123.919393784479,15.029041194618
$GPGGA,220354.00,3450.2151,N,12120.7332,W,1,10,0.8,8.1,M,-33.0,M,,*51
$PYRTM,2024,123.919404779630,15.029052189769
$GPGGA,220355.00,3450.2158,N,12120.7343,W,1,10,0.8,8.3,M,-33.0,M,,*5D
$PYRTM,2024,123.919415890602,15.029063300741
$GPGGA,220356.00,3450.2164,N,12120.7356,W,1,10,0.8,7.3,M,-33.0,M,,*5A
$PYRTM,2024,123.919427001458,15.029074411597
$GPGGA,220357.00,3450.2169,N,12120.7371,W,1,10,0.8,6.4,M,-33.0,M,,*55
$PYRTM,2024,123.919438112755,15.029085522894
$GPGGA,220358.00,3450.2173,N,12120.7387,W,1,10,0.8,6.5,M,-33.0,M,,*59
$PYRTM,2024,123.919449226400,15.029096636539
$GPGGA,220359.00,3450.2179,N,12120.7401,W,1,10,0.8,7.2,M,-33.0,M,,*5D
$PYRTM,2024,123.919460335417,15.029107745556
$GPGGA,220400.00,3450.2187,N,12120.7413,W,1,10,0.8,7.5,M,-33.0,M,,*53
$PYRTM,2024,123.919471447280,15.029118857419
$GPGGA,220401.00,3450.2195,N,12120.7426,W,1,10,0.8,7.8,M,-33.0,M,,*5A
$PYRTM,2024,123.919488228831,15.029135638981
$GPGGA,220402.00,3450.2200,N,12120.7440,W,1,10,0.8,7.7,M,-33.0,M,,*59
$PYRTM,2024,123.919499816111,15.029147226250
$GPGGA,220403.00,3450.2204,N,12120.7456,W,1,10,0.8,7.9,M,-33.0,M,,*55
$PYRTM,2024,123.919511378044,15.029158788183
$GPGGA,220404.00,3450.2210,N,12120.7470,W,1,10,0.8,8.2,M,-33.0,M,,*57
$PYRTM,2024,123.919522968542,15.029170378681
$GPGGA,220405.00,3450.2218,N,12120.7481,W,1,10,0.8,8.5,M,-33.0,M,,*57
$PYRTM,2024,123.919534525810,15.029181935949
$GPGGA,220406.00,3450.2227,N,12120.7494,W,1,10,0.8,8.4,M,-33.0,M,,*5D
$PYRTM,2024,123.919546112975,15.029193523113
$GPGGA,220407.00,3450.2234,N,12120.7509,W,1,10,0.8,8.7,M,-33.0,M,,*58
$PYRTM,2024,123.919557674178,15.029205084317
$GPGGA,220408.00,3450.2238,N,12120.7526,W,1,10,0.8,8.7,M,-33.0,M,,*56
$PYRTM,2024,123.919569263843,15.029216673981
$GPGGA,220409.00,3450.2245,N,12120.7540,W,1,10,0.8,8.6,M,-33.0,M,,*5C
$PYRTM,2024,123.919580822257,15.029228232396
$GPGGA,220410.00,3450.2255,N,12120.7552,W,1,10,0.8,8.1,M,-33.0,M,,*51
$PYRTM,2024,123.919592414919,15.029239825058
$GPGGA,220411.00,3450.2264,N,12120.7566,W,1,10,0.8,8.0,M,-33.0,M,,*54
$PYRTM,2024,123.919603970255,15.029251380394
$GPGGA,220412.00,3450.2268,N,12120.7581,W,1,10,0.8,7.9,M,-33.0,M,,*54
$PYRTM,2024,123.919615557523,15.029262967662
$GPGGA,220413.00,3450.2272,N,12120.7598,W,1,10,0.8,8.9,M,-33.0,M,,*59
$PYRTM,2024,123.919627119641,15.029274529780
$GPGGA,220414.00,3450.2278,N,12120.7614,W,1,10,0.8,9.2,M,-33.0,M,,*59
$PYRTM,2024,123.919639155590,15.029286565741
$GPGGA,220415.00,3450.2288,N,12120.7626,W,1,10,0.8,8.7,M,-33.0,M,,*52
$PYRTM,2024,123.919650266435,15.029297676574
$GPGGA,220416.00,3450.2295,N,12120.7639,W,1,10,0.8,6.9,M,-33.0,M,,*53
$PYRTM,2024,123.919661853762,15.029309263900
$GPGGA,220417.00,3450.2301,N,12120.7653,W,1,10,0.8,5.3,M,-33.0,M,,*5B
$PYRTM,2024,123.919673415208,15.029320825347
$GPGGA,220418.00,3450.2306,N,12120.7670,W,1,10,0.8,7.4,M,-33.0,M,,*57
$PYRTM,2024,123.919685001829,15.029332411968
$GPGGA,220419.00,3450.2313,N,12120.7685,W,1,10,0.8,7.6,M,-33.0,M,,*5A
$PYRTM,2024,123.919696562315,15.029343972454
$GPGGA,220420.00,3450.2321,N,12120.7699,W,1,10,0.8,7.8,M,-33.0,M,,*52
$PYRTM,2024,123.919708150856,15.029355560995
$GPGGA,220421.00,3450.2331,N,12120.7713,W,1,10,0.8,7.3,M,-33.0,M,,*5A
$PYRTM,2024,123.919719711285,15.029367121424
$GPGGA,220422.00,3450.2339,N,12120.7727,W,1,10,0.8,9.2,M,-33.0,M,,*59
$PYRTM,2024,123.919731313183,15.029378723322
$GPGGA,220423.00,3450.2344,N,12120.7741,W,1,10,0.8,9.5,M,-33.0,M,,*55
$PYRTM,2024,123.919742859618,15.029390269757
$GPGGA,220424.00,3450.2351,N,12120.7758,W,1,10,0.8,9.0,M,-33.0,M,,*5B
$PYRTM,2024,123.919754461366,15.029401871505
$GPGGA,220425.00,3450.2359,N,12120.7775,W,1,10,0.8,7.8,M,-33.0,M,,*5B
$PYRTM,2024,123.919766011157,15.029413421296
$GPGGA,220426.00,3450.2366,N,12120.7787,W,1,10,0.8,7.6,M,-33.0,M,,*57
$PYRTM,2024,123.919777591042,15.029425001181
$GPGGA,220427.00,3450.2371,N,12120.7798,W,1,10,0.8,8.2,M,-33.0,M,,*55
$PYRTM,2024,123.919789158831,15.029436568970
$GPGGA,220428.00,3450.2376,N,12120.7815,W,1,10,0.8,8.6,M,-33.0,M,,*53
$PYRTM,2024,123.919800745382,15.029448155521
$GPGGA,220429.00,3450.2383,N,12120.7831,W,1,10,0.8,9.2,M,-33.0,M,,*5B
$PYRTM,2024,123.919812305961,15.029459716100
$GPGGA,220430.00,3450.2388,N,12120.7845,W,1,10,0.8,9.6,M,-33.0,M,,*5F
$PYRTM,2024,123.919825036319,15.029472446458
$GPGGA,220431.00,3450.2394,N,12120.7858,W,1,10,0.8,9.2,M,-33.0,M,,*5B
$PYRTM,2024,123.919837667407,15.029485077546
$GPGGA,220432.00,3450.2403,N,12120.7872,W,1,10,0.8,8.7,M,-33.0,M,,*5D
$PYRTM,2024,123.919847039792,15.029494449931
$GPGGA,220433.00,3450.2412,N,12120.7888,W,1,10,0.8,8.3,M,-33.0,M,,*5D
$PYRTM,2024,123.919858600451,15.029506010590
$GPGGA,220434.00,3450.2419,N,12120.7906,W,1,10,0.8,7.8,M,-33.0,M,,*52
$PYRTM,2024,123.919870187396,15.029517597535
$GPGGA,220435.00,3450.2424,N,12120.7921,W,1,10,0.8,8.7,M,-33.0,M,,*58
$PYRTM,2024,123.919881748785,15.029529158924
$GPGGA,220436.00,3450.2430,N,12120.7932,W,1,10,0.8,9.6,M,-33.0,M,,*5C
$PYRTM,2024,123.919893335995,15.029540746134
$GPGGA,220437.00,3450.2438,N,12120.7947,W,1,10,0.8,6.4,M,-33.0,M,,*5A
$PYRTM,2024,123.919904897986,15.029552308125
$GPGGA,220438.00,3450.2448,N,12120.7965,W,1,10,0.8,4.9,M,-33.0,M,,*5D
$PYRTM,2024,123.919916500220,15.029563910359
$GPGGA,220439.00,3450.2455,N,12120.7981,W,1,10,0.8,4.9,M,-33.0,M,,*5A
$PYRTM,2024,123.919928047593,15.029575457731
$GPGGA,220440.00,3450.2460,N,12120.7993,W,1,10,0.8,5.8,M,-33.0,M,,*51
$PYRTM,2024,123.919939636134,15.029587046273
$GPGGA,220441.00,3450.2467,N,12120.8004,W,1,10,0.8,6.5,M,-33.0,M,,*51
$PYRTM,2024,123.919951194097,15.029598604236
$GPGGA,220442.00,3450.2476,N,12120.8020,W,1,10,0.8,8.1,M,-33.0,M,,*5E
$PYRTM,2024,123.919962781609,15.029610191748
$GPGGA,220443.00,3450.2484,N,12120.8036,W,1,10,0.8,8.3,M,-33.0,M,,*57
$PYRTM,2024,123.919974342407,15.029621752546
$GPGGA,220444.00,3450.2487,N,12120.8053,W,1,10,0.8,9.2,M,-33.0,M,,*50
$PYRTM,2024,123.919986379630,15.029633789769
$GPGGA,220445.00,3450.2494,N,12120.8067,W,1,10,0.8,9.1,M,-33.0,M,,*57
$PYRTM,2024,123.919997494398,15.029644904537
$GPGGA,220446.00,3450.2504,N,12120.8078,W,1,10,0.8,8.2,M,-33.0,M,,*50
$PYRTM,2024,123.920009078252,15.029656488391
$GPGGA,220447.00,3450.2514,N,12120.8090,W,1,10,0.8,7.6,M,-33.0,M,,*5D
$PYRTM,2024,123.920020639086,15.029668049225
$GPGGA,220448.00,3450.2521,N,12120.8108,W,1,10,0.8,7.4,M,-33.0,M,,*56
$PYRTM,2024,123.920032225995,15.029679636134
$GPGGA,220449.00,3450.2525,N,12120.8126,W,1,10,0.8,8.2,M,-33.0,M,,*56
$PYRTM,2024,123.920043788056,15.029691198194
$GPGGA,220450.00,3450.2529,N,12120.8141,W,1,10,0.8,9.8,M,-33.0,M,,*58
$PYRTM,2024,123.920055826366,15.029703236505
$GPGGA,220451.00,3450.2538,N,12120.8155,W,1,10,0.8,9.4,M,-33.0,M,,*50
$PYRTM,2024,123.920066936424,15.029714346563
$GPGGA,220452.00,3450.2549,N,12120.8170,W,1,10,0.8,9.0,M,-33.0,M,,*56
$PYRTM,2024,123.920078525972,15.029725936111
$GPGGA,220453.00,3450.2557,N,12120.8187,W,1,10,0.8,6.8,M,-33.0,M,,*57
$PYRTM,2024,123.920090085266,15.029737495405
$GPGGA,220454.00,3450.2561,N,12120.8201,W,1,10,0.8,7.1,M,-33.0,M,,*50
$PYRTM,2024,123.920101671053,15.029749081192
$GPGGA,220455.00,3450.2565,N,12120.8217,W,1,10,0.8,8.4,M,-33.0,M,,*58
$PYRTM,2024,123.920113233843,15.029760643981
$GPGGA,220456.00,3450.2572,N,12120.8234,W,1,10,0.8,8.1,M,-33.0,M,,*59
$PYRTM,2024,123.920124814329,15.029772224479
$GPGGA,220457.00,3450.2583,N,12120.8251,W,1,10,0.8,7.8,M,-33.0,M,,*53
$PYRTM,2024,123.920136380660,15.029783790799
$GPGGA,220458.00,3450.2594,N,12120.8266,W,1,10,0.8,7.1,M,-33.0,M,,*57
$PYRTM,2024,123.920147967477,15.029795377627
$GPGGA,220459.00,3450.2602,N,12120.8279,W,1,10,0.8,7.3,M,-33.0,M,,*56
$PYRTM,2024,123.920159530139,15.029806940278
$GPGGA,220500.00,3450.2607,N,12120.8296,W,1,10,0.8,7.0,M,-33.0,M,,*5C
$PYRTM,2024,123.920171120856,15.029818531007
$GPGGA,220501.00,3450.2614,N,12120.8314,W,1,10,0.8,6.4,M,-33.0,M,,*51
$PYRTM,2024,123.920182677975,15.029830088125
$GPGGA,220502.00,3450.2621,N,12120.8329,W,1,10,0.8,8.8,M,-33.0,M,,*58
$PYRTM,2024,123.920194269525,15.029841679664
$GPGGA,220503.00,3450.2631,N,12120.8339,W,1,10,0.8,8.6,M,-33.0,M,,*57
$PYRTM,2024,123.920205827303,15.029853237442
$GPGGA,220504.00,3450.2640,N,12120.8351,W,1,10,0.8,8.2,M,-33.0,M,,*5C
$PYRTM,2024,123.920217408218,15.029864818356
$GPGGA,220505.00,3450.2647,N,12120.8369,W,1,10,0.8,7.1,M,-33.0,M,,*5D
$PYRTM,2024,123.920228974537,15.029876384676
$GPGGA,220506.00,3450.2654,N,12120.8386,W,1,10,0.8,6.9,M,-33.0,M,,*54
$PYRTM,2024,123.920240563970,15.029887974109
$GPGGA,220507.00,3450.2661,N,12120.8400,W,1,10,0.8,7.1,M,-33.0,M,,*53
$PYRTM,2024,123.920252121574,15.029899531725
$GPGGA,220508.00,3450.2671,N,12120.8413,W,1,10,0.8,7.8,M,-33.0,M,,*56
$PYRTM,2024,123.920263714769,15.029911124907
$GPGGA,220509.00,3450.2681,N,12120.8427,W,1,10,0.8,7.5,M,-33.0,M,,*52
$PYRTM,2024,123.920275271019,15.029922681157
$GPGGA,220510.00,3450.2688,N,12120.8443,W,1,10,0.8,7.1,M,-33.0,M,,*55
$PYRTM,2024,123.920286852546,15.029934262685
$GPGGA,220511.00,3450.2694,N,12120.8460,W,1,10,0.8,7.8,M,-33.0,M,,*51
$PYRTM,2024,123.920298418553,15.029945828692
$GPGGA,220512.00,3450.2704,N,12120.8477,W,1,10,0.8,7.0,M,-33.0,M,,*54
$PYRTM,2024,123.920310005914,15.029957416053
$GPGGA,220513.00,3450.2713,N,12120.8490,W,1,10,0.8,5.9,M,-33.0,M,,*51
$PYRTM,2024,123.920321566829,15.029968976968
$GPGGA,220514.00,3450.2721,N,12120.8503,W,1,10,0.8,6.3,M,-33.0,M,,*55
$PYRTM,2024,123.920333604352,15.029981014491
$GPGGA,220515.00,3450.2728,N,12120.8520,W,1,10,0.8,5.8,M,-33.0,M,,*54
$PYRTM,2024,123.920344715428,15.029992125567
$GPGGA,220516.00,3450.2735,N,12120.8539,W,1,10,0.8,7.5,M,-33.0,M,,*5C
$PYRTM,2024,123.920356301377,15.030003711516
$GPGGA,220517.00,3450.2742,N,12120.8556,W,1,10,0.8,8.1,M,-33.0,M,,*5F
$PYRTM,2024,123.920367863935,15.030015274086
$GPGGA,220518.00,3450.2747,N,12120.8568,W,1,10,0.8,7.9,M,-33.0,M,,*5F
$PYRTM,2024,123.920379450394,15.030026860544
$GPGGA,220519.00,3450.2752,N,12120.8581,W,1,10,0.8,8.0,M,-33.0,M,,*5B
$PYRTM,2024,123.920391010799,15.030038420938
$GPGGA,220520.00,3450.2761,N,12120.8597,W,1,10,0.8,7.2,M,-33.0,M,,*5B
$PYRTM,2024,123.920402602141,15.030050012280
$GPGGA,220521.00,3450.2770,N,12120.8614,W,1,10,0.8,6.8,M,-33.0,M,,*59
$PYRTM,2024,123.920414159421,15.030061569572
$GPGGA,220522.00,3450.2777,N,12120.8629,W,1,10,0.8,6.8,M,-33.0,M,,*53
$PYRTM,2024,123.920425761701,15.030073171840
$GPGGA,220523.00,3450.2781,N,12120.8643,W,1,10,0.8,7.5,M,-33.0,M,,*5B
$PYRTM,2024,123.920437308704,15.030084718843
$GPGGA,220524.00,3450.2788,N,12120.8659,W,1,10,0.8,8.2,M,-33.0,M,,*56
$PYRTM,2024,123.920448895394,15.030096305532
$GPGGA,220525.00,3450.2798,N,12120.8677,W,1,10,0.8,6.8,M,-33.0,M,,*5E
$PYRTM,2024,123.920460456968,15.030107867106
$GPGGA,220526.00,3450.2805,N,12120.8690,W,1,10,0.8,7.0,M,-33.0,M,,*56
$PYRTM,2024,123.920472042650,15.030119452789
$GPGGA,220527.00,3450.2811,N,12120.8702,W,1,10,0.8,7.6,M,-33.0,M,,*5E
$PYRTM,2024,123.920483605185,15.030131015324
$GPGGA,220528.00,3450.2817,N,12120.8716,W,1,10,0.8,8.0,M,-33.0,M,,*5B
$PYRTM,2024,123.920495191366,15.030142601505
$GPGGA,220529.00,3450.2823,N,12120.8734,W,1,10,0.8,7.9,M,-33.0,M,,*5B
$PYRTM,2024,123.920506752975,15.030154163113
$GPGGA,220530.00,3450.2831,N,12120.8749,W,1,10,0.8,7.4,M,-33.0,M,,*57
$PYRTM,2024,123.920519484097,15.030166894236
$GPGGA,220531.00,3450.2839,N,12120.8761,W,1,10,0.8,7.7,M,-33.0,M,,*57
$PYRTM,2024,123.920532113843,15.030179523993
$GPGGA,220532.00,3450.2848,N,12120.8773,W,1,10,0.8,7.4,M,-33.0,M,,*52
$PYRTM,2024,123.920541487002,15.030188897141
$GPGGA,220533.00,3450.2857,N,12120.8788,W,1,10,0.8,7.0,M,-33.0,M,,*5D
$PYRTM,2024,123.920553050185,15.030200460336
$GPGGA,220534.00,3450.2863,N,12120.8805,W,1,10,0.8,6.9,M,-33.0,M,,*5F
$PYRTM,2024,123.920564636262,15.030212046400
$GPGGA,220535.00,3450.2867,N,12120.8820,W,1,10,0.8,7.5,M,-33.0,M,,*50
$PYRTM,2024,123.920576196458,15.030223606597
$GPGGA,220536.00,3450.2873,N,12120.8834,W,1,10,0.8,7.7,M,-33.0,M,,*51
$PYRTM,2024,123.920587788194,15.030235198333
$GPGGA,220537.00,3450.2881,N,12120.8849,W,1,10,0.8,7.2,M,-33.0,M,,*52
$PYRTM,2024,123.920599347037,15.030246757176
$GPGGA,220538.00,3450.2891,N,12120.8864,W,1,10,0.8,4.7,M,-33.0,M,,*55
$PYRTM,2024,123.920610933125,15.030258343275
$GPGGA,220539.00,3450.2898,N,12120.8876,W,1,10,0.8,4.5,M,-33.0,M,,*5C
$PYRTM,2024,123.920622494491,15.030269904630
$GPGGA,220540.00,3450.2903,N,12120.8889,W,1,10,0.8,5.7,M,-33.0,M,,*52
$PYRTM,2024,123.920634531331,15.030281941470
$GPGGA,220541.00,3450.2909,N,12120.8903,W,1,10,0.8,7.0,M,-33.0,M,,*5F
$PYRTM,2024,123.920645642292,15.030293052431
$GPGGA,220542.00,3450.2916,N,12120.8919,W,1,10,0.8,7.4,M,-33.0,M,,*5D
$PYRTM,2024,123.920657229132,15.030304639271
$GPGGA,220543.00,3450.2925,N,12120.8934,W,1,10,0.8,7.4,M,-33.0,M,,*53
$PYRTM,2024,123.920668790162,15.030316200301
$GPGGA,220544.00,3450.2936,N,12120.8948,W,1,10,0.8,6.8,M,-33.0,M,,*50
$PYRTM,2024,123.920680826713,15.030328236863
$GPGGA,220545.00,3450.2946,N,12120.8963,W,1,10,0.8,5.8,M,-33.0,M,,*5C
$PYRTM,2024,123.920691940405,15.030339350544
$GPGGA,220546.00,3450.2953,N,12120.8979,W,1,10,0.8,6.0,M,-33.0,M,,*5B
$PYRTM,2024,123.920703526933,15.030350937072
$GPGGA,220547.00,3450.2958,N,12120.8994,W,1,10,0.8,6.8,M,-33.0,M,,*5A
$PYRTM,2024,123.920715086748,15.030362496887
$GPGGA,220548.00,3450.2966,N,12120.9009,W,1,10,0.8,7.6,M,-33.0,M,,*5B
$PYRTM,2024,123.920726688715,15.030374098854
$GPGGA,220549.00,3450.2976,N,12120.9026,W,1,10,0.8,7.6,M,-33.0,M,,*56
$PYRTM,2024,123.920738235833,15.030385645984
$GPGGA,220550.00,3450.2985,N,12120.9043,W,1,10,0.8,6.4,M,-33.0,M,,*52
$PYRTM,2024,123.920749825498,15.030397235637
$GPGGA,220551.00,3450.2990,N,12120.9059,W,1,10,0.8,6.5,M,-33.0,M,,*5D
$PYRTM,2024,123.920761382813,15.030408792951
$GPGGA,220552.00,3450.2996,N,12120.9073,W,1,10,0.8,6.5,M,-33.0,M,,*50
$PYRTM,2024,123.920772971100,15.030420381238
$GPGGA,220553.00,3450.3006,N,12120.9087,W,1,10,0.8,5.3,M,-33.0,M,,*5E
$PYRTM,2024,123.920784532627,15.030431942766
$GPGGA,220554.00,3450.3017,N,12120.9103,W,1,10,0.8,5.3,M,-33.0,M,,*54
$PYRTM,2024,123.920796120370,15.030443530521
$GPGGA,220555.00,3450.3024,N,12120.9120,W,1,10,0.8,4.8,M,-33.0,M,,*5E
$PYRTM,2024,123.920805725336,15.030453135486
$GPGGA,220556.00,3450.3027,N,12120.9134,W,1,10,0.8,6.6,M,-33.0,M,,*57
$PYRTM,2024,123.920818687928,15.030466098067
$GPGGA,220557.00,3450.3032,N,12120.9149,W,1,10,0.8,7.6,M,-33.0,M,,*59
$PYRTM,2024,123.920829465961,15.030476876100
$GPGGA,220558.00,3450.3042,N,12120.9164,W,1,10,0.8,7.2,M,-33.0,M,,*5A
$PYRTM,2024,123.920840563275,15.030487973414
$GPGGA,220559.00,3450.3052,N,12120.9177,W,1,10,0.8,6.4,M,-33.0,M,,*5F
$PYRTM,2024,123.920851559502,15.030498969641
$GPGGA,220600.00,3450.3061,N,12120.9190,W,1,10,0.8,6.1,M,-33.0,M,,*5C
$PYRTM,2024,123.920862669977,15.030510080127
$GPGGA,220601.00,3450.3066,N,12120.9207,W,1,10,0.8,4.6,M,-33.0,M,,*52
$PYRTM,2024,123.920877240787,15.030524650938
$GPGGA,220602.00,3450.3071,N,12120.9225,W,1,10,0.8,5.8,M,-33.0,M,,*58
$PYRTM,2024,123.920888351806,15.030535761956
$GPGGA,220603.00,3450.3080,N,12120.9240,W,1,10,0.8,6.2,M,-33.0,M,,*5D
$PYRTM,2024,123.920899823183,15.030547233322
$GPGGA,220604.00,3450.3089,N,12120.9252,W,1,10,0.8,7.7,M,-33.0,M,,*54
$PYRTM,2024,123.920911384190,15.030558794329
$GPGGA,220605.00,3450.3098,N,12120.9267,W,1,10,0.8,6.7,M,-33.0,M,,*52
$PYRTM,2024,123.920922973125,15.030570383264
$GPGGA,220606.00,3450.3105,N,12120.9283,W,1,10,0.8,6.2,M,-33.0,M,,*5B
$PYRTM,2024,123.920934533275,15.030581943414
$GPGGA,220607.00,3450.3110,N,12120.9301,W,1,10,0.8,5.8,M,-33.0,M,,*5C
$PYRTM,2024,123.920946118669,15.030593528808
$GPGGA,220608.00,3450.3115,N,12120.9315,W,1,10,0.8,6.2,M,-33.0,M,,*5A
$PYRTM,2024,123.920957679907,15.030605090046
$GPGGA,220609.00,3450.3123,N,12120.9328,W,1,10,0.8,7.1,M,-33.0,M,,*52
$PYRTM,2024,123.920969281933,15.030616692083
$GPGGA,220610.00,3450.3133,N,12120.9342,W,1,10,0.8,4.8,M,-33.0,M,,*5D
$PYRTM,2024,123.920980829630,15.030628239769
$GPGGA,220611.00,3450.3142,N,12120.9358,W,1,10,0.8,4.9,M,-33.0,M,,*50
$PYRTM,2024,123.920992418785,15.030639828924
$GPGGA,220612.00,3450.3148,N,12120.9372,W,1,10,0.8,5.4,M,-33.0,M,,*5D
$PYRTM,2024,123.921003977083,15.030651387222
$GPGGA,220613.00,3450.3153,N,12120.9388,W,1,10,0.8,6.4,M,-33.0,M,,*50
$PYRTM,2024,123.921015674988,15.030663085139
$GPGGA,220614.00,3450.3162,N,12120.9402,W,1,10,0.8,5.8,M,-33.0,M,,*5F
$PYRTM,2024,123.921027597512,15.030675007650
$GPGGA,220615.00,3450.3173,N,12120.9417,W,1,10,0.8,5.7,M,-33.0,M,,*55
$PYRTM,2024,123.921038712280,15.030686122419
$GPGGA,220616.00,3450.3183,N,12120.9431,W,1,10,0.8,6.0,M,-33.0,M,,*59
$PYRTM,2024,123.921050389873,15.030697800023
$GPGGA,220617.00,3450.3191,N,12120.9444,W,1,10,0.8,6.5,M,-33.0,M,,*5C
$PYRTM,2024,123.921061971806,15.030709381944
$GPGGA,220618.00,3450.3198,N,12120.9459,W,1,10,0.8,6.7,M,-33.0,M,,*54
$PYRTM,2024,123.921073538380,15.030720948519
$GPGGA,220619.00,3450.3207,N,12120.9475,W,1,10,0.8,7.2,M,-33.0,M,,*5A
$PYRTM,2024,123.921085125139,15.030732535278
$GPGGA,220620.00,3450.3215,N,12120.9491,W,1,10,0.8,7.1,M,-33.0,M,,*5A
$PYRTM,2024,123.921096686817,15.030744096956
$GPGGA,220621.00,3450.3224,N,12120.9506,W,1,10,0.8,6.8,M,-33.0,M,,*5E
$PYRTM,2024,123.921108273113,15.030755683252
$GPGGA,220622.00,3450.3234,N,12120.9521,W,1,10,0.8,6.6,M,-33.0,M,,*57
$PYRTM,2024,123.921119834884,15.030767245023
$GPGGA,220623.00,3450.3241,N,12120.9533,W,1,10,0.8,7.1,M,-33.0,M,,*51
$PYRTM,2024,123.921131420961,15.030778831100
$GPGGA,220624.00,3450.3246,N,12120.9549,W,1,10,0.8,6.3,M,-33.0,M,,*5F
$PYRTM,2024,123.921142984039,15.030790394178
$GPGGA,220625.00,3450.3252,N,12120.9568,W,1,10,0.8,7.8,M,-33.0,M,,*52
$PYRTM,2024,123.921154582870,15.030801993009
$GPGGA,220626.00,3450.3259,N,12120.9583,W,1,10,0.8,8.0,M,-33.0,M,,*58
$PYRTM,2024,123.921166130428,15.030813540567
$GPGGA,220627.00,3450.3267,N,12120.9595,W,1,10,0.8,8.9,M,-33.0,M,,*5A
$PYRTM,2024,123.921177719549,15.030825129687
$GPGGA,220628.00,3450.3273,N,12120.9610,W,1,10,0.8,8.3,M,-33.0,M,,*54
$PYRTM,2024,123.921189279954,15.030836690093
$GPGGA,220629.00,3450.3279,N,12120.9627,W,1,10,0.8,9.3,M,-33.0,M,,*5A
$PYRTM,2024,123.921200867106,15.030848277245
$GPGGA,220630.00,3450.3286,N,12120.9640,W,1,10,0.8,8.7,M,-33.0,M,,*56
$PYRTM,2024,123.921224824711,15.030872234850
$GPGGA,220631.00,3450.3291,N,12120.9653,W,1,10,0.8,9.2,M,-33.0,M,,*57
$PYRTM,2024,123.921235938021,15.030883348160
$GPGGA,220632.00,3450.3298,N,12120.9669,W,1,10,0.8,9.7,M,-33.0,M,,*51
$PYRTM,2024,123.921247048553,15.030894458692
$GPGGA,220633.00,3450.3307,N,12120.9685,W,1,10,0.8,9.2,M,-33.0,M,,*50
$PYRTM,2024,123.921258157616,15.030905567755
$GPGGA,220634.00,3450.3316,N,12120.9698,W,1,10,0.8,8.5,M,-33.0,M,,*5D
$PYRTM,2024,123.921269138912,15.030916549051
$GPGGA,220635.00,3450.3322,N,12120.9709,W,1,10,0.8,8.6,M,-33.0,M,,*51
$PYRTM,2024,123.921280251725,15.030927661863
$GPGGA,220636.00,3450.3326,N,12120.9725,W,1,10,0.8,9.8,M,-33.0,M,,*57
$PYRTM,2024,123.921291361782,15.030938771921
$GPGGA,220637.00,3450.3330,N,12120.9741,W,1,10,0.8,10.3,M,-33.0,M,,*60
$PYRTM,2024,123.921302472350,15.030949882500
$GPGGA,220638.00,3450.3338,N,12120.9754,W,1,10,0.8,10.5,M,-33.0,M,,*65
$PYRTM,2024,123.921313584201,15.030960994340
$GPGGA,220639.00,3450.3348,N,12120.9765,W,1,10,0.8,10.6,M,-33.0,M,,*62
$PYRTM,2024,123.921324694734,15.030972104873
$GPGGA,220640.00,3450.3354,N,12120.9778,W,1,10,0.8,10.6,M,-33.0,M,,*6D
$PYRTM,2024,123.921335931354,15.030983341493
$GPGGA,220641.00,3450.3356,N,12120.9796,W,1,10,0.8,10.0,M,-33.0,M,,*68
$PYRTM,2024,123.921347049780,15.030994459919
$GPGGA,220642.00,3450.3361,N,12120.9814,W,1,10,0.8,10.4,M,-33.0,M,,*6E
$PYRTM,2024,123.921358029016,15.031005439155
$GPGGA,220643.00,3450.3371,N,12120.9827,W,1,10,0.8,9.4,M,-33.0,M,,*56
$PYRTM,2024,123.921369140000,15.031016550139
$GPGGA,220644.00,3450.3382,N,12120.9837,W,1,10,0.8,8.4,M,-33.0,M,,*5D
$PYRTM,2024,123.921380727257,15.031028137396
$GPGGA,220645.00,3450.3389,N,12120.9850,W,1,10,0.8,8.1,M,-33.0,M,,*53
$PYRTM,2024,123.921391837558,15.031039247697
$GPGGA,220646.00,3450.3392,N,12120.9866,W,1,10,0.8,8.8,M,-33.0,M,,*56
$PYRTM,2024,123.921402833565,15.031050243704
$GPGGA,220647.00,3450.3397,N,12120.9880,W,1,10,0.8,9.2,M,-33.0,M,,*51
$PYRTM,2024,123.921413940556,15.031061350694
$GPGGA,220648.00,3450.3406,N,12120.9895,W,1,10,0.8,8.3,M,-33.0,M,,*55
$PYRTM,2024,123.921425059051,15.031072469190
$GPGGA,220649.00,3450.3417,N,12120.9910,W,1,10,0.8,6.2,M,-33.0,M,,*57
$PYRTM,2024,123.921436167627,15.031083577766
$GPGGA,220650.00,3450.3425,N,12120.9923,W,1,10,0.8,6.0,M,-33.0,M,,*5C
$PYRTM,2024,123.921447292141,15.031094702280
$GPGGA,220651.00,3450.3432,N,12120.9934,W,1,10,0.8,6.3,M,-33.0,M,,*5E
$PYRTM,2024,123.921458379988,15.031105790127
$GPGGA,220652.00,3450.3438,N,12120.9945,W,1,10,0.8,6.9,M,-33.0,M,,*5B
$PYRTM,2024,123.921469384606,15.031116794745
$GPGGA,220653.00,3450.3446,N,12120.9960,W,1,10,0.8,7.5,M,-33.0,M,,*59
$PYRTM,2024,123.921480496806,15.031127906944
$GPGGA,220654.00,3450.3454,N,12120.9977,W,1,10,0.8,6.6,M,-33.0,M,,*59
$PYRTM,2024,123.921491595185,15.031139005324
$GPGGA,220655.00,3450.3460,N,12120.9995,W,1,10,0.8,6.4,M,-33.0,M,,*51
$PYRTM,2024,123.921502718021,15.031150128160
$GPGGA,220656.00,3450.3466,N,12121.0008,W,1,10,0.8,6.8,M,-33.0,M,,*5D
$PYRTM,2024,123.921514050069,15.031161460208
$GPGGA,220657.00,3450.3474,N,12121.0018,W,1,10,0.8,7.1,M,-33.0,M,,*56
$PYRTM,2024,123.921525288553,15.031172698704
$GPGGA,220658.00,3450.3482,N,12121.0032,W,1,10,0.8,7.8,M,-33.0,M,,*51
$PYRTM,2024,123.921536876829,15.031184286968
$GPGGA,220659.00,3450.3490,N,12121.0050,W,1,10,0.8,8.8,M,-33.0,M,,*58
$PYRTM,2024,123.921548432072,15.031195842211
$GPGGA,220700.00,3450.3496,N,12121.0066,W,1,10,0.8,8.5,M,-33.0,M,,*5B
$PYRTM,2024,123.921561168843,15.031208578981
$GPGGA,220701.00,3450.3502,N,12121.0078,W,1,10,0.8,9.0,M,-33.0,M,,*5D
$PYRTM,2024,123.921573770174,15.031221180313
$GPGGA,220702.00,3450.3508,N,12121.0090,W,1,10,0.8,9.3,M,-33.0,M,,*51
$PYRTM,2024,123.921583164016,15.031230574155
$GPGGA,220703.00,3450.3516,N,12121.0107,W,1,10,0.8,6.9,M,-33.0,M,,*55
$PYRTM,2024,123.921594732847,15.031242142986
$GPGGA,220704.00,3450.3523,N,12121.0123,W,1,10,0.8,6.7,M,-33.0,M,,*5C
$PYRTM,2024,123.921606307025,15.031253717164
$GPGGA,220705.00,3450.3530,N,12121.0135,W,1,10,0.8,6.8,M,-33.0,M,,*57
$PYRTM,2024,123.921617880856,15.031265290995
$GPGGA,220706.00,3450.3537,N,12121.0149,W,1,10,0.8,7.0,M,-33.0,M,,*51
$PYRTM,2024,123.921629455810,15.031276865949
$GPGGA,220707.00,3450.3543,N,12121.0163,W,1,10,0.8,7.3,M,-33.0,M,,*58
$PYRTM,2024,123.921641029271,15.031288439410
$GPGGA,220708.00,3450.3549,N,12121.0178,W,1,10,0.8,7.7,M,-33.0,M,,*53
$PYRTM,2024,123.921652603356,15.031300013495
$GPGGA,220709.00,3450.3557,N,12121.0191,W,1,10,0.8,7.7,M,-33.0,M,,*5A
$PYRTM,2024,123.921664178472,15.031311588623
$GPGGA,220710.00,3450.3565,N,12121.0203,W,1,10,0.8,7.4,M,-33.0,M,,*58
$PYRTM,2024,123.921675751620,15.031323161759
$GPGGA,220711.00,3450.3573,N,12121.0215,W,1,10,0.8,7.3,M,-33.0,M,,*5E
$PYRTM,2024,123.921687325799,15.031334735938
$GPGGA,220712.00,3450.3579,N,12121.0228,W,1,10,0.8,7.8,M,-33.0,M,,*52
$PYRTM,2024,123.921698901157,15.031346311296
$GPGGA,220713.00,3450.3585,N,12121.0242,W,1,10,0.8,7.7,M,-33.0,M,,*53
$PYRTM,2024,123.921710473762,15.031357883912
$GPGGA,220714.00,3450.3592,N,12121.0255,W,1,10,0.8,7.7,M,-33.0,M,,*54
$PYRTM,2024,123.921722511134,15.031369921273
$GPGGA,220715.00,3450.3602,N,12121.0268,W,1,10,0.8,7.4,M,-33.0,M,,*52
$PYRTM,2024,123.921733617743,15.031381027882
$GPGGA,220716.00,3450.3612,N,12121.0285,W,1,10,0.8,6.2,M,-33.0,M,,*54
$PYRTM,2024,123.921745200058,15.031392610197
$GPGGA,220717.00,3450.3619,N,12121.0302,W,1,10,0.8,6.2,M,-33.0,M,,*50
$PYRTM,2024,123.921756770336,15.031404180475
$GPGGA,220718.00,3450.3624,N,12121.0318,W,1,10,0.8,6.7,M,-33.0,M,,*5F
$PYRTM,2024,123.921768344873,15.031415755012
$GPGGA,220719.00,3450.3632,N,12121.0333,W,1,10,0.8,7.1,M,-33.0,M,,*57
$PYRTM,2024,123.921779913947,15.031427324086
$GPGGA,220720.00,3450.3643,N,12121.0348,W,1,10,0.8,7.1,M,-33.0,M,,*57
$PYRTM,2024,123.921791957338,15.031439367477
$GPGGA,220721.00,3450.3654,N,12121.0362,W,1,10,0.8,6.9,M,-33.0,M,,*51
$PYRTM,2024,123.921803067269,15.031450477407
$GPGGA,220722.00,3450.3662,N,12121.0376,W,1,10,0.8,6.3,M,-33.0,M,,*58
$PYRTM,2024,123.921814636667,15.031462046806
$GPGGA,220723.00,3450.3669,N,12121.0392,W,1,10,0.8,6.7,M,-33.0,M,,*5C
$PYRTM,2024,123.921826216204,15.031473626343
$GPGGA,220724.00,3450.3675,N,12121.0407,W,1,10,0.8,8.1,M,-33.0,M,,*55
$PYRTM,2024,123.921837793275,15.031485203414
$GPGGA,220725.00,3450.3682,N,12121.0422,W,1,10,0.8,6.7,M,-33.0,M,,*53
$PYRTM,2024,123.921849363785,15.031496773935
$GPGGA,220726.00,3450.3692,N,12121.0436,W,1,10,0.8,7.3,M,-33.0,M,,*51
$PYRTM,2024,123.921860938414,15.031508348553
$GPGGA,220727.00,3450.3702,N,12121.0450,W,1,10,0.8,4.4,M,-33.0,M,,*5C
$PYRTM,2024,123.921872512917,15.031519923056
$GPGGA,220728.00,3450.3707,N,12121.0466,W,1,10,0.8,5.5,M,-33.0,M,,*53
$PYRTM,2024,123.921884089306,15.031531499456
$GPGGA,220729.00,3450.3710,N,12121.0482,W,1,10,0.8,6.8,M,-33.0,M,,*50
$PYRTM,2024,123.921895660868,15.031543071007
$GPGGA,220730.00,3450.3716,N,12121.0497,W,1,10,0.8,7.6,M,-33.0,M,,*55
$PYRTM,2024,123.921908395405,15.031555805544
$GPGGA,220731.00,3450.3727,N,12121.0509,W,1,10,0.8,5.7,M,-33.0,M,,*53
$PYRTM,2024,123.921920993449,15.031568403588
$GPGGA,220732.00,3450.3740,N,12121.0521,W,1,10,0.8,4.3,M,-33.0,M,,*5E
$PYRTM,2024,123.921930378611,15.031577788750
$GPGGA,220733.00,3450.3746,N,12121.0536,W,1,10,0.8,4.0,M,-33.0,M,,*5C
$PYRTM,2024,123.921941957269,15.031589367407
$GPGGA,220734.00,3450.3747,N,12121.0554,W,1,10,0.8,4.4,M,-33.0,M,,*5A
$PYRTM,2024,123.921953531794,15.031600941933
$GPGGA,220735.00,3450.3752,N,12121.0572,W,1,10,0.8,4.6,M,-33.0,M,,*59
$PYRTM,2024,123.921965106609,15.031612516748
$GPGGA,220736.00,3450.3762,N,12121.0587,W,1,10,0.8,4.8,M,-33.0,M,,*5D
$PYRTM,2024,123.921976680451,15.031624090590
$GPGGA,220737.00,3450.3773,N,12121.0600,W,1,10,0.8,4.5,M,-33.0,M,,*5D
$PYRTM,2024,123.921988253368,15.031635663507
$GPGGA,220738.00,3450.3779,N,12121.0615,W,1,10,0.8,4.8,M,-33.0,M,,*51
$PYRTM,2024,123.921999828113,15.031647238252
$GPGGA,220739.00,3450.3782,N,12121.0630,W,1,10,0.8,5.8,M,-33.0,M,,*52
$PYRTM,2024,123.922011400683,15.031658810822
$GPGGA,220740.00,3450.3787,N,12121.0645,W,1,10,0.8,6.6,M,-33.0,M,,*56
$PYRTM,2024,123.922022976481,15.031670386609
$GPGGA,220741.00,3450.3795,N,12121.0663,W,1,10,0.8,6.2,M,-33.0,M,,*54
$PYRTM,2024,123.922034550509,15.031681960660
$GPGGA,220742.00,3450.3803,N,12121.0681,W,1,10,0.8,5.1,M,-33.0,M,,*5B
$PYRTM,2024,123.922046128009,15.031693538148
$GPGGA,220743.00,3450.3811,N,12121.0692,W,1,10,0.8,5.3,M,-33.0,M,,*59
$PYRTM,2024,123.922057695012,15.031705105150
$GPGGA,220744.00,3450.3815,N,12121.0700,W,1,10,0.8,6.1,M,-33.0,M,,*51
$PYRTM,2024,123.922069731968,15.031717142118
$GPGGA,220745.00,3450.3818,N,12121.0716,W,1,10,0.8,7.6,M,-33.0,M,,*5C
$PYRTM,2024,123.922080851806,15.031728261944
$GPGGA,220746.00,3450.3825,N,12121.0736,W,1,10,0.8,7.7,M,-33.0,M,,*52
$PYRTM,2024,123.922092426169,15.031739836308
$GPGGA,220747.00,3450.3835,N,12121.0751,W,1,10,0.8,8.6,M,-33.0,M,,*5D
$PYRTM,2024,123.922103999421,15.031751409560
$GPGGA,220748.00,3450.3842,N,12121.0760,W,1,10,0.8,8.2,M,-33.0,M,,*54
$PYRTM,2024,123.922115573438,15.031762983576
$GPGGA,220749.00,3450.3849,N,12121.0773,W,1,10,0.8,8.2,M,-33.0,M,,*5C
$PYRTM,2024,123.922127146794,15.031774556933
$GPGGA,220750.00,3450.3854,N,12121.0790,W,1,10,0.8,7.9,M,-33.0,M,,*51
$PYRTM,2024,123.922138720799,15.031786130938
$GPGGA,220751.00,3450.3859,N,12121.0806,W,1,10,0.8,7.8,M,-33.0,M,,*5C
$PYRTM,2024,123.922150287558,15.031797697697
$GPGGA,220752.00,3450.3866,N,12121.0818,W,1,10,0.8,7.6,M,-33.0,M,,*52
$PYRTM,2024,123.922161860509,15.031809270648
$GPGGA,220753.00,3450.3875,N,12121.0832,W,1,10,0.8,5.0,M,-33.0,M,,*5D
$PYRTM,2024,123.922173440278,15.031820850417
$GPGGA,220754.00,3450.3882,N,12121.0845,W,1,10,0.8,5.7,M,-33.0,M,,*55
$PYRTM,2024,123.922185013715,15.031832423854
$GPGGA,220755.00,3450.3886,N,12121.0855,W,1,10,0.8,7.0,M,-33.0,M,,*54
$PYRTM,2024,123.922196587141,15.031843997280
$GPGGA,220756.00,3450.3890,N,12121.0866,W,1,10,0.8,8.0,M,-33.0,M,,*5F
$PYRTM,2024,123.922208164190,15.031855574329
$GPGGA,220757.00,3450.3897,N,12121.0881,W,1,10,0.8,7.5,M,-33.0,M,,*5A
$PYRTM,2024,123.922219736574,15.031867146725
$GPGGA,220758.00,3450.3906,N,12121.0897,W,1,10,0.8,6.4,M,-33.0,M,,*5B
$PYRTM,2024,123.922231316678,15.031878726817
$GPGGA,220759.00,3450.3914,N,12121.0910,W,1,10,0.8,6.7,M,-33.0,M,,*54
$PYRTM,2024,123.922242884317,15.031890294456
$GPGGA,220800.00,3450.3921,N,12121.0920,W,1,10,0.8,7.2,M,-33.0,M,,*56
$PYRTM,2024,123.922254098565,15.031901508704
$GPGGA,220801.00,3450.3928,N,12121.0932,W,1,10,0.8,7.9,M,-33.0,M,,*56
$PYRTM,2024,123.922266842928,15.031914253067
$GPGGA,220802.00,3450.3936,N,12121.0946,W,1,10,0.8,8.3,M,-33.0,M,,*5C
$PYRTM,2024,123.922278867014,15.031926277153
$GPGGA,220803.00,3450.3946,N,12121.0963,W,1,10,0.8,7.3,M,-33.0,M,,*52
$PYRTM,2024,123.922289989965,15.031937400104
$GPGGA,220804.00,3450.3954,N,12121.0978,W,1,10,0.8,6.7,M,-33.0,M,,*59
$PYRTM,2024,123.922301089769,15.031948499907
$GPGGA,220805.00,3450.3960,N,12121.0989,W,1,10,0.8,6.5,M,-33.0,M,,*53
$PYRTM,2024,123.922312212940,15.031959623079
$GPGGA,220806.00,3450.3965,N,12121.1000,W,1,10,0.8,7.0,M,-33.0,M,,*58
$PYRTM,2024,123.922323209144,15.031970619294
$GPGGA,220807.00,3450.3972,N,12121.1013,W,1,10,0.8,7.7,M,-33.0,M,,*5A
$PYRTM,2024,123.922334323530,15.031981733669
$GPGGA,220808.00,3450.3981,N,12121.1026,W,1,10,0.8,7.4,M,-33.0,M,,*5C
$PYRTM,2024,123.922345430625,15.031992840764
$GPGGA,220809.00,3450.3987,N,12121.1040,W,1,10,0.8,7.0,M,-33.0,M,,*5F
$PYRTM,2024,123.922356542662,15.032003952813
$GPGGA,220810.00,3450.3991,N,12121.1057,W,1,10,0.8,6.5,M,-33.0,M,,*52
$PYRTM,2024,123.922367655810,15.032015065961
$GPGGA,220811.00,3450.3997,N,12121.1071,W,1,10,0.8,5.7,M,-33.0,M,,*50
$PYRTM,2024,123.922379099583,15.032026509722
$GPGGA,220812.00,3450.4005,N,12121.1079,W,1,10,0.8,6.0,M,-33.0,M,,*5A
$PYRTM,2024,123.922390210046,15.032037620185
$GPGGA,220813.00,3450.4015,N,12121.1087,W,1,10,0.8,6.2,M,-33.0,M,,*59
$PYRTM,2024,123.922401321609,15.032048731748
$GPGGA,220814.00,3450.4022,N,12121.1101,W,1,10,0.8,6.3,M,-33.0,M,,*54
$PYRTM,2024,123.922412432662,15.032059842801
$GPGGA,220815.00,3450.4024,N,12121.1118,W,1,10,0.8,6.5,M,-33.0,M,,*5D
$PYRTM,2024,123.922423917095,15.032071327234
$GPGGA,220816.00,3450.4027,N,12121.1132,W,1,10,0.8,6.7,M,-33.0,M,,*57
$PYRTM,2024,123.922435014641,15.032082424780
$GPGGA,220817.00,3450.4035,N,12121.1144,W,1,10,0.8,5.4,M,-33.0,M,,*54
$PYRTM,2024,123.922447171678,15.032094581817
$GPGGA,220818.00,3450.4046,N,12121.1157,W,1,10,0.8,4.8,M,-33.0,M,,*50
$PYRTM,2024,123.922458279977,15.032105690116
$GPGGA,220819.00,3450.4055,N,12121.1169,W,1,10,0.8,4.3,M,-33.0,M,,*55
$PYRTM,2024,123.922469390810,15.032116800949
$GPGGA,220820.00,3450.4057,N,12121.1183,W,1,10,0.8,6.7,M,-33.0,M,,*5F
$PYRTM,2024,123.922480616366,15.032128026505
$GPGGA,220821.00,3450.4061,N,12121.1201,W,1,10,0.8,8.8,M,-33.0,M,,*53
$PYRTM,2024,123.922492176308,15.032139586447
$GPGGA,220822.00,3450.4069,N,12121.1216,W,1,10,0.8,9.1,M,-33.0,M,,*56
$PYRTM,2024,123.922503767824,15.032151177963
$GPGGA,220823.00,3450.4078,N,12121.1229,W,1,10,0.8,8.4,M,-33.0,M,,*5F
$PYRTM,2024,123.922515337836,15.032162747975
$GPGGA,220824.00,3450.4085,N,12121.1242,W,1,10,0.8,6.9,M,-33.0,M,,*54
$PYRTM,2024,123.922526916597,15.032174326736
$GPGGA,220825.00,3450.4090,N,12121.1258,W,1,10,0.8,7.3,M,-33.0,M,,*51
$PYRTM,2024,123.922538475787,15.032185885926
$GPGGA,220826.00,3450.4094,N,12121.1273,W,1,10,0.8,8.8,M,-33.0,M,,*5B
$PYRTM,2024,123.922550191030,15.032197601169
$GPGGA,220827.00,3450.4102,N,12121.1287,W,1,10,0.8,9.2,M,-33.0,M,,*54
$PYRTM,2024,123.922561738889,15.032209149028
$GPGGA,220828.00,3450.4113,N,12121.1300,W,1,10,0.8,5.4,M,-33.0,M,,*5F
$PYRTM,2024,123.922573210081,15.032220620231
$GPGGA,220829.00,3450.4120,N,12121.1314,W,1,10,0.8,7.3,M,-33.0,M,,*5E
$PYRTM,2024,123.922584886308,15.032232296458
$GPGGA,220830.00,3450.4123,N,12121.1329,W,1,10,0.8,11.0,M,-33.0,M,,*6F
$PYRTM,2024,123.922596353032,15.032243763171
$GPGGA,220831.00,3450.4129,N,12121.1344,W,1,10,0.8,7.6,M,-33.0,M,,*5E
$PYRTM,2024,123.922612209213,15.032259619363
$GPGGA,220832.00,3450.4137,N,12121.1357,W,1,10,0.8,9.1,M,-33.0,M,,*59
$PYRTM,2024,123.922623775648,15.032271185787
$GPGGA,220833.00,3450.4145,N,12121.1369,W,1,10,0.8,7.1,M,-33.0,M,,*5E
$PYRTM,2024,123.922635376192,15.032282786331
$GPGGA,220834.00,3450.4151,N,12121.1382,W,1,10,0.8,8.7,M,-33.0,M,,*50
$PYRTM,2024,123.922646923947,15.032294334086
$GPGGA,220835.00,3450.4157,N,12121.1398,W,1,10,0.8,8.5,M,-33.0,M,,*5E
$PYRTM,2024,123.922658514549,15.032305924687
$GPGGA,220836.00,3450.4166,N,12121.1413,W,1,10,0.8,9.3,M,-33.0,M,,*5C
$PYRTM,2024,123.922670073449,15.032317483588
$GPGGA,220837.00,3450.4175,N,12121.1426,W,1,10,0.8,8.4,M,-33.0,M,,*5F
$PYRTM,2024,123.922681659525,15.032329069664
$GPGGA,220838.00,3450.4181,N,12121.1440,W,1,10,0.8,6.9,M,-33.0,M,,*58
$PYRTM,2024,123.922693220382,15.032340630521
$GPGGA,220839.00,3450.4187,N,12121.1456,W,1,10,0.8,8.4,M,-33.0,M,,*5B
$PYRTM,2024,123.922704802442,15.032352212581
