$PYRTM,2024,122.916675457326,14.026322867465
$GPGGA,215959.00,3353.8293,N,11931.6134,W,1,10,0.8,5.6,M,-33.9,M,,*5E
$PYRTM,2024,122.916687020382,14.026334430521
$GPGGA,220000.00,3353.8291,N,11931.6136,W,1,10,0.8,5.6,M,-33.9,M,,*5D
$PYRTM,2024,122.916698605162,14.026346015301
$GPGGA,220001.00,3353.8289,N,11931.6139,W,1,10,0.8,5.6,M,-33.9,M,,*5A
$PYRTM,2024,122.916710171447,14.026357581586
$GPGGA,220002.00,3353.8286,N,11931.6143,W,1,10,0.8,5.6,M,-33.9,M,,*5B
$PYRTM,2024,122.916721760185,14.026369170324
$GPGGA,220003.00,3353.8283,N,11931.6145,W,1,10,0.8,5.6,M,-33.9,M,,*59
$PYRTM,2024,122.916733318287,14.026380728426
$GPGGA,220004.00,3353.8282,N,11931.6148,W,1,10,0.8,5.5,M,-33.9,M,,*51
$PYRTM,2024,122.916744905185,14.026392315324
$GPGGA,220005.00,3353.8280,N,11931.6151,W,1,10,0.8,5.5,M,-33.9,M,,*5A
$PYRTM,2024,122.916756465949,14.026403876088
$GPGGA,220006.00,3353.8278,N,11931.6154,W,1,10,0.8,5.5,M,-33.9,M,,*5B
$PYRTM,2024,122.916768054144,14.026415464282
$GPGGA,220007.00,3353.8275,N,11931.6157,W,1,10,0.8,5.5,M,-33.9,M,,*54
$PYRTM,2024,122.916779614595,14.026427024734
$GPGGA,220008.00,3353.8274,N,11931.6160,W,1,10,0.8,5.4,M,-33.9,M,,*5F
$PYRTM,2024,122.916791201713,14.026438611852
$GPGGA,220009.00,3353.8273,N,11931.6162,W,1,10,0.8,5.4,M,-33.9,M,,*5B
$PYRTM,2024,122.916802762627,14.026450172766
$GPGGA,220010.00,3353.8271,N,11931.6164,W,1,10,0.8,5.4,M,-33.9,M,,*57
$PYRTM,2024,122.916814345914,14.026461756053
$GPGGA,220011.00,3353.8268,N,11931.6168,W,1,10,0.8,5.4,M,-33.9,M,,*52
$PYRTM,2024,122.916825910868,14.026473321007
$GPGGA,220012.00,3353.8265,N,11931.6172,W,1,10,0.8,5.3,M,-33.9,M,,*50
$PYRTM,2024,122.916837493958,14.026484904097
$GPGGA,220013.00,3353.8263,N,11931.6174,W,1,10,0.8,5.3,M,-33.9,M,,*51
$PYRTM,2024,122.916849058634,14.026496468773
$GPGGA,220014.00,3353.8262,N,11931.6176,W,1,10,0.8,5.3,M,-33.9,M,,*55
$PYRTM,2024,122.916860647049,14.026508057188
$GPGGA,220015.00,3353.8260,N,11931.6178,W,1,10,0.8,5.3,M,-33.9,M,,*58
$PYRTM,2024,122.916872207917,14.026519618056
$GPGGA,220016.00,3353.8257,N,11931.6182,W,1,10,0.8,5.3,M,-33.9,M,,*5A
$PYRTM,2024,122.916883795035,14.026531205174
$GPGGA,220017.00,3353.8255,N,11931.6185,W,1,10,0.8,5.2,M,-33.9,M,,*5F
$PYRTM,2024,122.916895356238,14.026542766377
$GPGGA,220018.00,3353.8253,N,11931.6186,W,1,10,0.8,5.3,M,-33.9,M,,*54
$PYRTM,2024,122.916906943692,14.026554353831
$GPGGA,220019.00,3353.8252,N,11931.6188,W,1,10,0.8,5.2,M,-33.9,M,,*5B
$PYRTM,2024,122.916918502870,14.026565913009
$GPGGA,220020.00,3353.8249,N,11931.6192,W,1,10,0.8,5.2,M,-33.9,M,,*50
$PYRTM,2024,122.916930091597,14.026577501736
$GPGGA,220021.00,3353.8246,N,11931.6195,W,1,10,0.8,5.2,M,-33.9,M,,*59
$PYRTM,2024,122.916941651794,14.026589061933
$GPGGA,220022.00,3353.8244,N,11931.6198,W,1,10,0.8,5.2,M,-33.9,M,,*55
$PYRTM,2024,122.916952313391,14.026599723530
$GPGGA,220023.00,3353.8242,N,11931.6200,W,1,10,0.8,5.1,M,-33.9,M,,*53
$PYRTM,2024,122.916963760069,14.026611170208
$GPGGA,220024.00,3353.8240,N,11931.6203,W,1,10,0.8,5.1,M,-33.9,M,,*55
$PYRTM,2024,122.916976383171,14.026623793310
$GPGGA,220025.00,3353.8238,N,11931.6206,W,1,10,0.8,5.0,M,-33.9,M,,*5F
$PYRTM,2024,122.916987948322,14.026635358461
$GPGGA,220026.00,3353.8235,N,11931.6209,W,1,10,0.8,5.0,M,-33.9,M,,*5E
$PYRTM,2024,122.916999531227,14.026646941366
$GPGGA,220027.00,3353.8233,N,11931.6212,W,1,10,0.8,5.0,M,-33.9,M,,*53
$PYRTM,2024,122.917010169931,14.026657580069
$GPGGA,220028.00,3353.8231,N,11931.6214,W,1,10,0.8,5.0,M,-33.9,M,,*58
$PYRTM,2024,122.917022093947,14.026669504086
$GPGGA,220029.00,3353.8228,N,11931.6217,W,1,10,0.8,5.0,M,-33.9,M,,*52
$PYRTM,2024,122.917032870150,14.026680280289
$GPGGA,220030.00,3353.8226,N,11931.6220,W,1,10,0.8,5.0,M,-33.9,M,,*50
$PYRTM,2024,122.917043975729,14.026691385880
$GPGGA,220031.00,3353.8224,N,11931.6224,W,1,10,0.8,5.0,M,-33.9,M,,*57
$PYRTM,2024,122.917054991898,14.026702402037
$GPGGA,220032.00,3353.8221,N,11931.6227,W,1,10,0.8,4.9,M,-33.9,M,,*5A
$PYRTM,2024,122.917066086991,14.026713497130
$GPGGA,220033.00,3353.8218,N,11931.6230,W,1,10,0.8,4.9,M,-33.9,M,,*57
$PYRTM,2024,122.917077212720,14.026724622870
$GPGGA,220034.00,3353.8215,N,11931.6233,W,1,10,0.8,4.8,M,-33.9,M,,*5F
$PYRTM,2024,122.917088310012,14.026735720150
$GPGGA,220035.00,3353.8214,N,11931.6236,W,1,10,0.8,4.8,M,-33.9,M,,*5A
$PYRTM,2024,122.917099415914,14.026746826053
$GPGGA,220036.00,3353.8212,N,11931.6239,W,1,10,0.8,4.8,M,-33.9,M,,*50
$PYRTM,2024,122.917110535498,14.026757945637
$GPGGA,220037.00,3353.8210,N,11931.6242,W,1,10,0.8,4.8,M,-33.9,M,,*5F
$PYRTM,2024,122.917121642859,14.026769052998
$GPGGA,220038.00,3353.8207,N,11931.6244,W,1,10,0.8,4.8,M,-33.9,M,,*50
$PYRTM,2024,122.917133204977,14.026780615127
$GPGGA,220039.00,3353.8204,N,11931.6247,W,1,10,0.8,4.7,M,-33.9,M,,*5E
$PYRTM,2024,122.917144795093,14.026792205231
$GPGGA,220040.00,3353.8202,N,11931.6250,W,1,10,0.8,4.7,M,-33.9,M,,*50
$PYRTM,2024,122.917156353021,14.026803763160
$GPGGA,220041.00,3353.8200,N,11931.6254,W,1,10,0.8,4.7,M,-33.9,M,,*57
$PYRTM,2024,122.917167939410,14.026815349549
$GPGGA,220042.00,3353.8198,N,11931.6257,W,1,10,0.8,4.7,M,-33.9,M,,*55
$PYRTM,2024,122.917179501215,14.026826911354
$GPGGA,220043.00,3353.8195,N,11931.6258,W,1,10,0.8,4.7,M,-33.9,M,,*56
$PYRTM,2024,122.917191090729,14.026838500868
$GPGGA,220044.00,3353.8193,N,11931.6261,W,1,10,0.8,4.7,M,-33.9,M,,*5D
$PYRTM,2024,122.917202649699,14.026850059838
$GPGGA,220045.00,3353.8191,N,11931.6264,W,1,10,0.8,4.7,M,-33.9,M,,*5B
$PYRTM,2024,122.917214250162,14.026861660301
$GPGGA,220046.00,3353.8188,N,11931.6268,W,1,10,0.8,4.7,M,-33.9,M,,*5C
$PYRTM,2024,122.917225796285,14.026873206424
$GPGGA,220047.00,3353.8186,N,11931.6271,W,1,10,0.8,4.7,M,-33.9,M,,*5B
$PYRTM,2024,122.917237382975,14.026884793194
$GPGGA,220048.00,3353.8184,N,11931.6273,W,1,10,0.8,4.7,M,-33.9,M,,*54
$PYRTM,2024,122.917248943889,14.026896354028
$GPGGA,220049.00,3353.8183,N,11931.6274,W,1,10,0.8,4.7,M,-33.9,M,,*55
$PYRTM,2024,122.917260528437,14.026907938576
$GPGGA,220050.00,3353.8180,N,11931.6276,W,1,10,0.8,4.7,M,-33.9,M,,*5C
$PYRTM,2024,122.917272094468,14.026919504606
$GPGGA,220051.00,3353.8177,N,11931.6282,W,1,10,0.8,4.0,M,-33.9,M,,*59
$PYRTM,2024,122.917283679965,14.026931090104
$GPGGA,220052.00,3353.8175,N,11931.6287,W,1,10,0.8,4.0,M,-33.9,M,,*5D
$PYRTM,2024,122.917300461933,14.026947872072
$GPGGA,220053.00,3353.8174,N,11931.6290,W,1,10,0.8,4.1,M,-33.9,M,,*5A
$PYRTM,2024,122.917312021771,14.026959431910
$GPGGA,220054.00,3353.8172,N,11931.6293,W,1,10,0.8,4.1,M,-33.9,M,,*58
$PYRTM,2024,122.917323611146,14.026971021285
$GPGGA,220055.00,3353.8170,N,11931.6296,W,1,10,0.8,4.1,M,-33.9,M,,*5E
$PYRTM,2024,122.917335169977,14.026982580116
$GPGGA,220056.00,3353.8167,N,11931.6299,W,1,10,0.8,4.1,M,-33.9,M,,*54
$PYRTM,2024,122.917346759039,14.026994169178
$GPGGA,220057.00,3353.8164,N,11931.6302,W,1,10,0.8,4.2,M,-33.9,M,,*56
$PYRTM,2024,122.917358318056,14.027005728194
$GPGGA,220058.00,3353.8163,N,11931.6305,W,1,10,0.8,4.1,M,-33.9,M,,*5A
$PYRTM,2024,122.917369906979,14.027017317118
$GPGGA,220059.00,3353.8161,N,11931.6307,W,1,10,0.8,4.1,M,-33.9,M,,*5B
$PYRTM,2024,122.917381466863,14.027028877002
$GPGGA,220100.00,3353.8159,N,11931.6310,W,1,10,0.8,4.1,M,-33.9,M,,*5B
$PYRTM,2024,122.917393056759,14.027040466898
$GPGGA,220101.00,3353.8156,N,11931.6312,W,1,10,0.8,4.1,M,-33.9,M,,*57
$PYRTM,2024,122.917404614826,14.027052024965
$GPGGA,220102.00,3353.8154,N,11931.6315,W,1,10,0.8,4.1,M,-33.9,M,,*51
$PYRTM,2024,122.917416202778,14.027063612917
$GPGGA,220103.00,3353.8151,N,11931.6317,W,1,10,0.8,4.0,M,-33.9,M,,*56
$PYRTM,2024,122.917427763275,14.027075173414
$GPGGA,220104.00,3353.8149,N,11931.6320,W,1,10,0.8,4.0,M,-33.9,M,,*5C
$PYRTM,2024,122.917439348391,14.027086758530
$GPGGA,220105.00,3353.8147,N,11931.6322,W,1,10,0.8,4.0,M,-33.9,M,,*51
$PYRTM,2024,122.917450911956,14.027098322095
$GPGGA,220106.00,3353.8144,N,11931.6324,W,1,10,0.8,4.0,M,-33.9,M,,*57
$PYRTM,2024,122.917462494583,14.027109904722
$GPGGA,220107.00,3353.8141,N,11931.6327,W,1,10,0.8,4.0,M,-33.9,M,,*50
$PYRTM,2024,122.917474059965,14.027121470104
$GPGGA,220108.00,3353.8138,N,11931.6330,W,1,10,0.8,3.9,M,-33.9,M,,*59
$PYRTM,2024,122.917485647859,14.027133057998
$GPGGA,220109.00,3353.8137,N,11931.6333,W,1,10,0.8,3.9,M,-33.9,M,,*54
$PYRTM,2024,122.917497209340,14.027144619479
$GPGGA,220110.00,3353.8137,N,11931.6336,W,1,10,0.8,3.9,M,-33.9,M,,*59
$PYRTM,2024,122.917508792211,14.027156202350
$GPGGA,220111.00,3353.8135,N,11931.6339,W,1,10,0.8,3.9,M,-33.9,M,,*55
$PYRTM,2024,122.917520357106,14.027167767245
$GPGGA,220112.00,3353.8131,N,11931.6341,W,1,10,0.8,3.9,M,-33.9,M,,*5D
$PYRTM,2024,122.917531943831,14.027179353970
$GPGGA,220113.00,3353.8128,N,11931.6343,W,1,10,0.8,3.9,M,-33.9,M,,*56
$PYRTM,2024,122.917543503762,14.027190913900
$GPGGA,220114.00,3353.8125,N,11931.6345,W,1,10,0.8,3.9,M,-33.9,M,,*5A
$PYRTM,2024,122.917555092303,14.027202502442
$GPGGA,220115.00,3353.8124,N,11931.6348,W,1,10,0.8,3.9,M,-33.9,M,,*57
$PYRTM,2024,122.917566652720,14.027214062859
$GPGGA,220116.00,3353.8122,N,11931.6351,W,1,10,0.8,3.9,M,-33.9,M,,*5A
$PYRTM,2024,122.917578240347,14.027225650486
$GPGGA,220117.00,3353.8119,N,11931.6354,W,1,10,0.8,3.9,M,-33.9,M,,*56
$PYRTM,2024,122.917589801019,14.027237211157
$GPGGA,220118.00,3353.8115,N,11931.6355,W,1,10,0.8,3.9,M,-33.9,M,,*54
$PYRTM,2024,122.917601389236,14.027248799375
$GPGGA,220119.00,3353.8112,N,11931.6357,W,1,10,0.8,3.9,M,-33.9,M,,*50
$PYRTM,2024,122.917612950243,14.027260360382
$GPGGA,220120.00,3353.8109,N,11931.6360,W,1,10,0.8,3.9,M,-33.9,M,,*54
$PYRTM,2024,122.917624538519,14.027271948657
$GPGGA,220121.00,3353.8109,N,11931.6363,W,1,10,0.8,3.9,M,-33.9,M,,*56
$PYRTM,2024,122.917636097940,14.027283508079
$GPGGA,220122.00,3353.8107,N,11931.6366,W,1,10,0.8,3.9,M,-33.9,M,,*5E
$PYRTM,2024,122.917646282199,14.027293692338
$GPGGA,220123.00,3353.8104,N,11931.6368,W,1,10,0.8,3.9,M,-33.9,M,,*52
$PYRTM,2024,122.917658205278,14.027305615417
$GPGGA,220124.00,3353.8101,N,11931.6370,W,1,10,0.8,4.0,M,-33.9,M,,*57
$PYRTM,2024,122.917670833715,14.027318243854
$GPGGA,220125.00,3353.8098,N,11931.6373,W,1,10,0.8,4.0,M,-33.9,M,,*54
$PYRTM,2024,122.917682393738,14.027329803877
$GPGGA,220126.00,3353.8097,N,11931.6376,W,1,10,0.8,4.1,M,-33.9,M,,*5C
$PYRTM,2024,122.917693982951,14.027341393090
$GPGGA,220127.00,3353.8096,N,11931.6380,W,1,10,0.8,4.1,M,-33.9,M,,*55
$PYRTM,2024,122.917705542812,14.027352952951
$GPGGA,220128.00,3353.8094,N,11931.6382,W,1,10,0.8,4.1,M,-33.9,M,,*5A
$PYRTM,2024,122.917717129954,14.027364540093
$GPGGA,220129.00,3353.8090,N,11931.6384,W,1,10,0.8,4.1,M,-33.9,M,,*59
$PYRTM,2024,122.917728692708,14.027376102847
$GPGGA,220130.00,3353.8086,N,11931.6385,W,1,10,0.8,4.0,M,-33.9,M,,*56
$PYRTM,2024,122.917740278380,14.027387688530
$GPGGA,220131.00,3353.8084,N,11931.6389,W,1,10,0.8,4.0,M,-33.9,M,,*59
$PYRTM,2024,122.917751838889,14.027399249028
$GPGGA,220132.00,3353.8081,N,11931.6393,W,1,10,0.8,4.0,M,-33.9,M,,*54
$PYRTM,2024,122.917763427072,14.027410837211
$GPGGA,220133.00,3353.8080,N,11931.6396,W,1,10,0.8,4.0,M,-33.9,M,,*51
$PYRTM,2024,122.917774987130,14.027422397280
$GPGGA,220134.00,3353.8078,N,11931.6396,W,1,10,0.8,4.0,M,-33.9,M,,*51
$PYRTM,2024,122.917786575243,14.027433985382
$GPGGA,220135.00,3353.8076,N,11931.6398,W,1,10,0.8,4.1,M,-33.9,M,,*51
$PYRTM,2024,122.917798134734,14.027445544873
$GPGGA,220136.00,3353.8073,N,11931.6402,W,1,10,0.8,4.8,M,-33.9,M,,*5A
$PYRTM,2024,122.917809718900,14.027457129039
$GPGGA,220137.00,3353.8071,N,11931.6406,W,1,10,0.8,4.8,M,-33.9,M,,*5D
$PYRTM,2024,122.917821281528,14.027468691667
$GPGGA,220138.00,3353.8070,N,11931.6409,W,1,10,0.8,4.8,M,-33.9,M,,*5C
$PYRTM,2024,122.917832871725,14.027480281863
$GPGGA,220139.00,3353.8070,N,11931.6412,W,1,10,0.8,4.8,M,-33.9,M,,*57
$PYRTM,2024,122.917844431435,14.027491841574
$GPGGA,220140.00,3353.8068,N,11931.6414,W,1,10,0.8,4.8,M,-33.9,M,,*56
$PYRTM,2024,122.917856015868,14.027503426007
$GPGGA,220141.00,3353.8063,N,11931.6416,W,1,10,0.8,5.2,M,-33.9,M,,*55
$PYRTM,2024,122.917867579745,14.027514989884
$GPGGA,220142.00,3353.8059,N,11931.6419,W,1,10,0.8,5.2,M,-33.9,M,,*50
$PYRTM,2024,122.917879167963,14.027526578102
$GPGGA,220143.00,3353.8057,N,11931.6422,W,1,10,0.8,5.2,M,-33.9,M,,*57
$PYRTM,2024,122.917890728796,14.027538138935
$GPGGA,220144.00,3353.8056,N,11931.6424,W,1,10,0.8,5.2,M,-33.9,M,,*57
$PYRTM,2024,122.917902316134,14.027549726273
$GPGGA,220145.00,3353.8055,N,11931.6426,W,1,10,0.8,5.2,M,-33.9,M,,*57
$PYRTM,2024,122.917913875035,14.027561285174
$GPGGA,220146.00,3353.8051,N,11931.6427,W,1,10,0.8,5.2,M,-33.9,M,,*51
$PYRTM,2024,122.917925464028,14.027572874167
$GPGGA,220147.00,3353.8047,N,11931.6431,W,1,10,0.8,5.3,M,-33.9,M,,*51
$PYRTM,2024,122.917937024653,14.027584434792
$GPGGA,220148.00,3353.8045,N,11931.6434,W,1,10,0.8,5.3,M,-33.9,M,,*59
$PYRTM,2024,122.917948612083,14.027596022222
$GPGGA,220149.00,3353.8044,N,11931.6437,W,1,10,0.8,5.3,M,-33.9,M,,*5A
$PYRTM,2024,122.917960174769,14.027607584919
$GPGGA,220150.00,3353.8044,N,11931.6439,W,1,10,0.8,5.3,M,-33.9,M,,*5C
$PYRTM,2024,122.917971760521,14.027619170660
$GPGGA,220151.00,3353.8041,N,11931.6441,W,1,10,0.8,5.3,M,-33.9,M,,*57
$PYRTM,2024,122.917983320382,14.027630730521
$GPGGA,220152.00,3353.8037,N,11931.6444,W,1,10,0.8,5.3,M,-33.9,M,,*50
$PYRTM,2024,122.917993506725,14.027640916863
$GPGGA,220153.00,3353.8034,N,11931.6446,W,1,10,0.8,5.3,M,-33.9,M,,*50
$PYRTM,2024,122.918005427986,14.027652838125
$GPGGA,220154.00,3353.8033,N,11931.6449,W,1,10,0.8,5.3,M,-33.9,M,,*5F
$PYRTM,2024,122.918018056863,14.027665467002
$GPGGA,220155.00,3353.8032,N,11931.6452,W,1,10,0.8,5.3,M,-33.9,M,,*55
$PYRTM,2024,122.918029617894,14.027677028032
$GPGGA,220156.00,3353.8030,N,11931.6456,W,1,10,0.8,5.3,M,-33.9,M,,*50
$PYRTM,2024,122.918041205093,14.027688615231
$GPGGA,220157.00,3353.8027,N,11931.6457,W,1,10,0.8,5.3,M,-33.9,M,,*56
$PYRTM,2024,122.918052764931,14.027700175069
$GPGGA,220158.00,3353.8024,N,11931.6458,W,1,10,0.8,5.3,M,-33.9,M,,*55
$PYRTM,2024,122.918064352812,14.027711762963
$GPGGA,220159.00,3353.8022,N,11931.6461,W,1,10,0.8,5.3,M,-33.9,M,,*58
$PYRTM,2024,122.918074873032,14.027722283171
$GPGGA,220200.00,3353.8020,N,11931.6464,W,1,10,0.8,5.3,M,-33.9,M,,*50
$PYRTM,2024,122.918087501701,14.027734911840
$GPGGA,220201.00,3353.8019,N,11931.6467,W,1,10,0.8,5.4,M,-33.9,M,,*5F
$PYRTM,2024,122.918099061481,14.027746471620
$GPGGA,220202.00,3353.8017,N,11931.6468,W,1,10,0.8,5.4,M,-33.9,M,,*5D
$PYRTM,2024,122.918110649618,14.027758059757
$GPGGA,220203.00,3353.8014,N,11931.6470,W,1,10,0.8,5.4,M,-33.9,M,,*56
$PYRTM,2024,122.918122210660,14.027769620799
$GPGGA,220204.00,3353.8011,N,11931.6474,W,1,10,0.8,5.4,M,-33.9,M,,*50
$PYRTM,2024,122.918133797535,14.027781207674
$GPGGA,220205.00,3353.8008,N,11931.6477,W,1,10,0.8,5.3,M,-33.9,M,,*5D
$PYRTM,2024,122.918145358912,14.027792769051
$GPGGA,220206.00,3353.8008,N,11931.6480,W,1,10,0.8,5.3,M,-33.9,M,,*56
$PYRTM,2024,122.918156941713,14.027804351852
$GPGGA,220207.00,3353.8006,N,11931.6482,W,1,10,0.8,5.3,M,-33.9,M,,*5B
$PYRTM,2024,122.918168505694,14.027815915833
$GPGGA,220208.00,3353.8004,N,11931.6485,W,1,10,0.8,5.3,M,-33.9,M,,*51
$PYRTM,2024,122.918180094190,14.027827504329
$GPGGA,220209.00,3353.8001,N,11931.6487,W,1,10,0.8,5.3,M,-33.9,M,,*57
$PYRTM,2024,122.918191655000,14.027839065139
$GPGGA,220210.00,3353.7998,N,11931.6490,W,1,10,0.8,5.2,M,-33.9,M,,*5E
$PYRTM,2024,122.918203242917,14.027850653056
$GPGGA,220211.00,3353.7996,N,11931.6492,W,1,10,0.8,5.2,M,-33.9,M,,*53
$PYRTM,2024,122.918214801470,14.027862211609
$GPGGA,220212.00,3353.7994,N,11931.6495,W,1,10,0.8,5.2,M,-33.9,M,,*55
$PYRTM,2024,122.918226390475,14.027873800613
$GPGGA,220213.00,3353.7992,N,11931.6497,W,1,10,0.8,5.2,M,-33.9,M,,*50
$PYRTM,2024,122.918237951157,14.027885361296
$GPGGA,220214.00,3353.7989,N,11931.6500,W,1,10,0.8,5.1,M,-33.9,M,,*51
$PYRTM,2024,122.918249538553,14.027896948692
$GPGGA,220215.00,3353.7986,N,11931.6503,W,1,10,0.8,5.1,M,-33.9,M,,*5C
$PYRTM,2024,122.918261099641,14.027908509780
$GPGGA,220216.00,3353.7985,N,11931.6505,W,1,10,0.8,5.1,M,-33.9,M,,*5A
$PYRTM,2024,122.918272681817,14.027920091956
$GPGGA,220217.00,3353.7984,N,11931.6507,W,1,10,0.8,5.1,M,-33.9,M,,*58
$PYRTM,2024,122.918284249734,14.027931659884
$GPGGA,220218.00,3353.7982,N,11931.6510,W,1,10,0.8,5.1,M,-33.9,M,,*57
$PYRTM,2024,122.918295836181,14.027943246319
$GPGGA,220219.00,3353.7979,N,11931.6512,W,1,10,0.8,5.0,M,-33.9,M,,*51
$PYRTM,2024,122.918307394653,14.027954804803
$GPGGA,220220.00,3353.7977,N,11931.6514,W,1,10,0.8,5.0,M,-33.9,M,,*53
$PYRTM,2024,122.918318978576,14.027966388727
$GPGGA,220221.00,3353.7975,N,11931.6516,W,1,10,0.8,5.0,M,-33.9,M,,*52
$PYRTM,2024,122.918330544097,14.027977954236
$GPGGA,220222.00,3353.7973,N,11931.6519,W,1,10,0.8,5.1,M,-33.9,M,,*59
$PYRTM,2024,122.918340728692,14.027988138831
$GPGGA,220223.00,3353.7971,N,11931.6522,W,1,10,0.8,5.0,M,-33.9,M,,*53
$PYRTM,2024,122.918352651377,14.028000061516
$GPGGA,220224.00,3353.7968,N,11931.6525,W,1,10,0.8,5.0,M,-33.9,M,,*5B
$PYRTM,2024,122.918365279595,14.028012689734
$GPGGA,220225.00,3353.7965,N,11931.6527,W,1,10,0.8,5.0,M,-33.9,M,,*55
$PYRTM,2024,122.918376839942,14.028024250081
$GPGGA,220226.00,3353.7963,N,11931.6529,W,1,10,0.8,5.0,M,-33.9,M,,*5E
$PYRTM,2024,122.918388427245,14.028035837384
$GPGGA,220227.00,3353.7961,N,11931.6532,W,1,10,0.8,5.0,M,-33.9,M,,*57
$PYRTM,2024,122.918399988715,14.028047398866
$GPGGA,220228.00,3353.7958,N,11931.6534,W,1,10,0.8,5.0,M,-33.9,M,,*54
$PYRTM,2024,122.918411576551,14.028058986690
$GPGGA,220229.00,3353.7956,N,11931.6537,W,1,10,0.8,4.9,M,-33.9,M,,*50
$PYRTM,2024,122.918423136574,14.028070546713
$GPGGA,220230.00,3353.7954,N,11931.6539,W,1,10,0.8,4.9,M,-33.9,M,,*54
$PYRTM,2024,122.918434723866,14.028082134005
$GPGGA,220231.00,3353.7953,N,11931.6542,W,1,10,0.8,4.9,M,-33.9,M,,*5E
$PYRTM,2024,122.918446283935,14.028093694074
$GPGGA,220232.00,3353.7951,N,11931.6545,W,1,10,0.8,5.0,M,-33.9,M,,*50
$PYRTM,2024,122.918456946887,14.028104357037
$GPGGA,220233.00,3353.7949,N,11931.6547,W,1,10,0.8,5.0,M,-33.9,M,,*5A
$PYRTM,2024,122.918468871296,14.028116281435
$GPGGA,220234.00,3353.7947,N,11931.6549,W,1,10,0.8,5.0,M,-33.9,M,,*5D
$PYRTM,2024,122.918479619074,14.028127029213
$GPGGA,220235.00,3353.7945,N,11931.6552,W,1,10,0.8,5.0,M,-33.9,M,,*54
$PYRTM,2024,122.918490613970,14.028138024109
$GPGGA,220236.00,3353.7943,N,11931.6555,W,1,10,0.8,5.0,M,-33.9,M,,*56
$PYRTM,2024,122.918501725625,14.028149135764
$GPGGA,220237.00,3353.7941,N,11931.6557,W,1,10,0.8,5.0,M,-33.9,M,,*57
$PYRTM,2024,122.918512836123,14.028160246262
$GPGGA,220238.00,3353.7939,N,11931.6560,W,1,10,0.8,5.0,M,-33.9,M,,*53
$PYRTM,2024,122.918523949201,14.028171359340
$GPGGA,220239.00,3353.7935,N,11931.6563,W,1,10,0.8,5.0,M,-33.9,M,,*5D
$PYRTM,2024,122.918535059687,14.028182469826
$GPGGA,220240.00,3353.7933,N,11931.6565,W,1,10,0.8,5.0,M,-33.9,M,,*53
$PYRTM,2024,122.918546170174,14.028193580313
$GPGGA,220241.00,3353.7931,N,11931.6568,W,1,10,0.8,4.9,M,-33.9,M,,*55
$PYRTM,2024,122.918557165336,14.028204575475
$GPGGA,220242.00,3353.7930,N,11931.6571,W,1,10,0.8,4.8,M,-33.9,M,,*5E
$PYRTM,2024,122.918568278472,14.028215688611
$GPGGA,220243.00,3353.7928,N,11931.6574,W,1,10,0.8,4.9,M,-33.9,M,,*52
$PYRTM,2024,122.918579864745,14.028227274884
$GPGGA,220244.00,3353.7925,N,11931.6576,W,1,10,0.8,4.9,M,-33.9,M,,*5A
$PYRTM,2024,122.918591425208,14.028238835347
$GPGGA,220245.00,3353.7922,N,11931.6578,W,1,10,0.8,4.9,M,-33.9,M,,*52
$PYRTM,2024,122.918603012951,14.028250423090
$GPGGA,220246.00,3353.7920,N,11931.6580,W,1,10,0.8,5.1,M,-33.9,M,,*5D
$PYRTM,2024,122.918614574039,14.028261984178
$GPGGA,220247.00,3353.7919,N,11931.6584,W,1,10,0.8,5.1,M,-33.9,M,,*52
$PYRTM,2024,122.918626160150,14.028273570289
$GPGGA,220248.00,3353.7917,N,11931.6587,W,1,10,0.8,5.1,M,-33.9,M,,*50
$PYRTM,2024,122.918637721829,14.028285131968
$GPGGA,220249.00,3353.7915,N,11931.6591,W,1,10,0.8,5.1,M,-33.9,M,,*54
$PYRTM,2024,122.918649308079,14.028296718218
$GPGGA,220250.00,3353.7912,N,11931.6593,W,1,10,0.8,5.1,M,-33.9,M,,*59
$PYRTM,2024,122.918660868542,14.028308278681
$GPGGA,220251.00,3353.7909,N,11931.6596,W,1,10,0.8,5.0,M,-33.9,M,,*56
$PYRTM,2024,122.918672470752,14.028319880903
$GPGGA,220252.00,3353.7908,N,11931.6598,W,1,10,0.8,5.0,M,-33.9,M,,*5A
$PYRTM,2024,122.918689349850,14.028336759988
$GPGGA,220253.00,3353.7906,N,11931.6601,W,1,10,0.8,5.0,M,-33.9,M,,*56
$PYRTM,2024,122.918700915660,14.028348325799
$GPGGA,220254.00,3353.7904,N,11931.6603,W,1,10,0.8,5.1,M,-33.9,M,,*50
$PYRTM,2024,122.918712499190,14.028359909329
$GPGGA,220255.00,3353.7900,N,11931.6604,W,1,10,0.8,5.0,M,-33.9,M,,*53
$PYRTM,2024,122.918724064630,14.028371474769
$GPGGA,220256.00,3353.7896,N,11931.6606,W,1,10,0.8,4.9,M,-33.9,M,,*54
$PYRTM,2024,122.918735652176,14.028383062315
$GPGGA,220257.00,3353.7895,N,11931.6609,W,1,10,0.8,4.9,M,-33.9,M,,*59
$PYRTM,2024,122.918747212477,14.028394622616
$GPGGA,220258.00,3353.7894,N,11931.6612,W,1,10,0.8,4.8,M,-33.9,M,,*5C
$PYRTM,2024,122.918758799838,14.028406209977
$GPGGA,220259.00,3353.7893,N,11931.6615,W,1,10,0.8,4.9,M,-33.9,M,,*5C
$PYRTM,2024,122.918770360405,14.028417770544
$GPGGA,220300.00,3353.7889,N,11931.6617,W,1,10,0.8,4.9,M,-33.9,M,,*58
$PYRTM,2024,122.918781948264,14.028429358403
$GPGGA,220301.00,3353.7885,N,11931.6619,W,1,10,0.8,5.1,M,-33.9,M,,*52
$PYRTM,2024,122.918793508067,14.028440918206
$GPGGA,220302.00,3353.7883,N,11931.6621,W,1,10,0.8,5.1,M,-33.9,M,,*5C
$PYRTM,2024,122.918805110440,14.028452520579
$GPGGA,220303.00,3353.7882,N,11931.6623,W,1,10,0.8,5.1,M,-33.9,M,,*5E
$PYRTM,2024,122.918816657002,14.028464067141
$GPGGA,220304.00,3353.7881,N,11931.6626,W,1,10,0.8,5.2,M,-33.9,M,,*5C
$PYRTM,2024,122.918828247025,14.028475657176
$GPGGA,220305.00,3353.7878,N,11931.6629,W,1,10,0.8,5.3,M,-33.9,M,,*55
$PYRTM,2024,122.918839805660,14.028487215799
$GPGGA,220306.00,3353.7874,N,11931.6630,W,1,10,0.8,5.3,M,-33.9,M,,*52
$PYRTM,2024,122.918851395266,14.028498805405
$GPGGA,220307.00,3353.7872,N,11931.6633,W,1,10,0.8,5.3,M,-33.9,M,,*56
$PYRTM,2024,122.918862953322,14.028510363461
$GPGGA,220308.00,3353.7871,N,11931.6636,W,1,10,0.8,5.3,M,-33.9,M,,*5F
$PYRTM,2024,122.918874540220,14.028521950359
$GPGGA,220309.00,3353.7870,N,11931.6639,W,1,10,0.8,5.3,M,-33.9,M,,*50
$PYRTM,2024,122.918886100995,14.028533511134
$GPGGA,220310.00,3353.7867,N,11931.6642,W,1,10,0.8,5.2,M,-33.9,M,,*53
$PYRTM,2024,122.918897689063,14.028545099201
$GPGGA,220311.00,3353.7863,N,11931.6644,W,1,10,0.8,5.3,M,-33.9,M,,*51
$PYRTM,2024,122.918909251169,14.028556661308
$GPGGA,220312.00,3353.7860,N,11931.6647,W,1,10,0.8,5.3,M,-33.9,M,,*52
$PYRTM,2024,122.918920838414,14.028568248553
$GPGGA,220313.00,3353.7859,N,11931.6650,W,1,10,0.8,5.3,M,-33.9,M,,*5F
$PYRTM,2024,122.918932398681,14.028579808831
$GPGGA,220314.00,3353.7858,N,11931.6653,W,1,10,0.8,5.3,M,-33.9,M,,*5A
$PYRTM,2024,122.918943985532,14.028591395683
$GPGGA,220315.00,3353.7857,N,11931.6655,W,1,10,0.8,5.3,M,-33.9,M,,*52
$PYRTM,2024,122.918955546377,14.028602956516
$GPGGA,220316.00,3353.7853,N,11931.6658,W,1,10,0.8,5.3,M,-33.9,M,,*58
$PYRTM,2024,122.918967136632,14.028614546771
$GPGGA,220317.00,3353.7849,N,11931.6660,W,1,10,0.8,5.3,M,-33.9,M,,*59
$PYRTM,2024,122.918978696215,14.028626106354
$GPGGA,220318.00,3353.7848,N,11931.6663,W,1,10,0.8,5.3,M,-33.9,M,,*54
$PYRTM,2024,122.918990285243,14.028637695382
$GPGGA,220319.00,3353.7847,N,11931.6665,W,1,10,0.8,5.3,M,-33.9,M,,*5C
$PYRTM,2024,122.919001843495,14.028649253634
$GPGGA,220320.00,3353.7846,N,11931.6668,W,1,10,0.8,5.3,M,-33.9,M,,*5A
$PYRTM,2024,122.919013424630,14.028660834780
$GPGGA,220321.00,3353.7844,N,11931.6670,W,1,10,0.8,5.3,M,-33.9,M,,*50
$PYRTM,2024,122.919024990775,14.028672400914
$GPGGA,220322.00,3353.7841,N,11931.6672,W,1,10,0.8,5.3,M,-33.9,M,,*54
$PYRTM,2024,122.919035175625,14.028682585764
$GPGGA,220323.00,3353.7839,N,11931.6675,W,1,10,0.8,5.2,M,-33.9,M,,*5C
$PYRTM,2024,122.919047096713,14.028694506852
$GPGGA,220324.00,3353.7837,N,11931.6680,W,1,10,0.8,5.2,M,-33.9,M,,*5F
$PYRTM,2024,122.919059728438,14.028707138576
$GPGGA,220325.00,3353.7836,N,11931.6684,W,1,10,0.8,5.2,M,-33.9,M,,*5B
$PYRTM,2024,122.919071289734,14.028718699873
$GPGGA,220326.00,3353.7834,N,11931.6686,W,1,10,0.8,5.2,M,-33.9,M,,*58
$PYRTM,2024,122.919082873970,14.028730284109
$GPGGA,220327.00,3353.7831,N,11931.6688,W,1,10,0.8,5.2,M,-33.9,M,,*52
$PYRTM,2024,122.919094435347,14.028741845498
$GPGGA,220328.00,3353.7830,N,11931.6691,W,1,10,0.8,5.1,M,-33.9,M,,*57
$PYRTM,2024,122.919106022326,14.028753432465
$GPGGA,220329.00,3353.7828,N,11931.6695,W,1,10,0.8,5.2,M,-33.9,M,,*58
$PYRTM,2024,122.919117584074,14.028764994213
$GPGGA,220330.00,3353.7826,N,11931.6698,W,1,10,0.8,5.2,M,-33.9,M,,*53
$PYRTM,2024,122.919129170683,14.028776580833
$GPGGA,220331.00,3353.7823,N,11931.6700,W,1,10,0.8,5.1,M,-33.9,M,,*54
$PYRTM,2024,122.919140731076,14.028788141215
$GPGGA,220332.00,3353.7821,N,11931.6703,W,1,10,0.8,5.1,M,-33.9,M,,*56
$PYRTM,2024,122.919152334155,14.028799744294
$GPGGA,220333.00,3353.7819,N,11931.6706,W,1,10,0.8,5.0,M,-33.9,M,,*58
$PYRTM,2024,122.919163879225,14.028811289363
$GPGGA,220334.00,3353.7816,N,11931.6709,W,1,10,0.8,5.1,M,-33.9,M,,*5E
$PYRTM,2024,122.919175470394,14.028822880532
$GPGGA,220335.00,3353.7815,N,11931.6711,W,1,10,0.8,5.1,M,-33.9,M,,*55
$PYRTM,2024,122.919185988356,14.028833398495
$GPGGA,220336.00,3353.7813,N,11931.6712,W,1,10,0.8,5.1,M,-33.9,M,,*53
$PYRTM,2024,122.919198615451,14.028846025590
$GPGGA,220337.00,3353.7811,N,11931.6715,W,1,10,0.8,5.0,M,-33.9,M,,*56
$PYRTM,2024,122.919210175926,14.028857586065
$GPGGA,220338.00,3353.7809,N,11931.6718,W,1,10,0.8,5.0,M,-33.9,M,,*5D
$PYRTM,2024,122.919221764155,14.028869174294
$GPGGA,220339.00,3353.7806,N,11931.6721,W,1,10,0.8,5.0,M,-33.9,M,,*59
$PYRTM,2024,122.919233325243,14.028880735382
$GPGGA,220340.00,3353.7804,N,11931.6723,W,1,10,0.8,5.0,M,-33.9,M,,*57
$PYRTM,2024,122.919243866192,14.028891276331
$GPGGA,220341.00,3353.7802,N,11931.6724,W,1,10,0.8,5.0,M,-33.9,M,,*57
$PYRTM,2024,122.919256472523,14.028903882662
$GPGGA,220342.00,3353.7799,N,11931.6727,W,1,10,0.8,5.0,M,-33.9,M,,*5A
$PYRTM,2024,122.919268058634,14.028915468773
$GPGGA,220343.00,3353.7797,N,11931.6731,W,1,10,0.8,5.0,M,-33.9,M,,*52
$PYRTM,2024,122.919279620509,14.028927030648
$GPGGA,220344.00,3353.7795,N,11931.6734,W,1,10,0.8,5.0,M,-33.9,M,,*52
$PYRTM,2024,122.919291210556,14.028938620694
$GPGGA,220345.00,3353.7794,N,11931.6736,W,1,10,0.8,5.0,M,-33.9,M,,*50
$PYRTM,2024,122.919302770845,14.028950180984
$GPGGA,220346.00,3353.7791,N,11931.6738,W,1,10,0.8,5.0,M,-33.9,M,,*58
$PYRTM,2024,122.919314359468,14.028961769606
$GPGGA,220347.00,3353.7789,N,11931.6740,W,1,10,0.8,5.0,M,-33.9,M,,*5F
$PYRTM,2024,122.919325917361,14.028973327500
$GPGGA,220348.00,3353.7787,N,11931.6743,W,1,10,0.8,5.0,M,-33.9,M,,*5D
$PYRTM,2024,122.919337506690,14.028984916829
$GPGGA,220349.00,3353.7785,N,11931.6746,W,1,10,0.8,5.0,M,-33.9,M,,*5B
$PYRTM,2024,122.919349064491,14.028996474630
$GPGGA,220350.00,3353.7783,N,11931.6748,W,1,10,0.8,5.0,M,-33.9,M,,*5B
$PYRTM,2024,122.919360651713,14.029008061852
$GPGGA,220351.00,3353.7781,N,11931.6750,W,1,10,0.8,5.0,M,-33.9,M,,*51
$PYRTM,2024,122.919372213877,14.029019624016
$GPGGA,220352.00,3353.7779,N,11931.6753,W,1,10,0.8,5.0,M,-33.9,M,,*56
$PYRTM,2024,122.919382398611,14.029029808750
$GPGGA,220353.00,3353.7777,N,11931.6756,W,1,10,0.8,5.0,M,-33.9,M,,*5C
$PYRTM,2024,122.919394319850,14.029041729988
$GPGGA,220354.00,3353.7774,N,11931.6759,W,1,10,0.8,5.1,M,-33.9,M,,*56
$PYRTM,2024,122.919406948484,14.029054358623
$GPGGA,220355.00,3353.7772,N,11931.6761,W,1,10,0.8,5.2,M,-33.9,M,,*59
$PYRTM,2024,122.919418510208,14.029065920347
$GPGGA,220356.00,3353.7769,N,11931.6764,W,1,10,0.8,5.2,M,-33.9,M,,*55
$PYRTM,2024,122.919430096400,14.029077506539
$GPGGA,220357.00,3353.7769,N,11931.6768,W,1,10,0.8,5.2,M,-33.9,M,,*58
$PYRTM,2024,122.919441657616,14.029089067755
$GPGGA,220358.00,3353.7768,N,11931.6770,W,1,10,0.8,5.3,M,-33.9,M,,*5E
$PYRTM,2024,122.919453247211,14.029100657350
$GPGGA,220359.00,3353.7766,N,11931.6773,W,1,10,0.8,5.3,M,-33.9,M,,*52
$PYRTM,2024,122.919464806296,14.029112216435
$GPGGA,220400.00,3353.7764,N,11931.6775,W,1,10,0.8,5.3,M,-33.9,M,,*5D
$PYRTM,2024,122.919476396632,14.029123806771
$GPGGA,220401.00,3353.7761,N,11931.6777,W,1,10,0.8,5.3,M,-33.9,M,,*5B
$PYRTM,2024,122.919487955671,14.029135365810
$GPGGA,220402.00,3353.7758,N,11931.6780,W,1,10,0.8,5.3,M,-33.9,M,,*5A
$PYRTM,2024,122.919499541944,14.029146952083
$GPGGA,220403.00,3353.7757,N,11931.6782,W,1,10,0.8,5.4,M,-33.9,M,,*51
$PYRTM,2024,122.919511101563,14.029158511701
$GPGGA,220404.00,3353.7756,N,11931.6785,W,1,10,0.8,5.4,M,-33.9,M,,*50
$PYRTM,2024,122.919522684479,14.029170094618
$GPGGA,220405.00,3353.7753,N,11931.6787,W,1,10,0.8,5.4,M,-33.9,M,,*56
$PYRTM,2024,122.919534250845,14.029181660984
$GPGGA,220406.00,3353.7750,N,11931.6790,W,1,10,0.8,5.4,M,-33.9,M,,*50
$PYRTM,2024,122.919545837650,14.029193247789
$GPGGA,220407.00,3353.7748,N,11931.6794,W,1,10,0.8,5.3,M,-33.9,M,,*5B
$PYRTM,2024,122.919557399317,14.029204809456
$GPGGA,220408.00,3353.7747,N,11931.6797,W,1,10,0.8,5.4,M,-33.9,M,,*5F
$PYRTM,2024,122.919568985081,14.029216395220
$GPGGA,220409.00,3353.7745,N,11931.6799,W,1,10,0.8,5.4,M,-33.9,M,,*52
$PYRTM,2024,122.919580548345,14.029227958484
$GPGGA,220410.00,3353.7743,N,11931.6801,W,1,10,0.8,5.4,M,-33.9,M,,*52
$PYRTM,2024,122.919592138183,14.029239548322
$GPGGA,220411.00,3353.7740,N,11931.6803,W,1,10,0.8,5.4,M,-33.9,M,,*52
$PYRTM,2024,122.919603696354,14.029251106493
$GPGGA,220412.00,3353.7737,N,11931.6806,W,1,10,0.8,5.4,M,-33.9,M,,*54
$PYRTM,2024,122.919615282188,14.029262692326
$GPGGA,220413.00,3353.7736,N,11931.6809,W,1,10,0.8,5.3,M,-33.9,M,,*5C
$PYRTM,2024,122.919626843333,14.029274253472
$GPGGA,220414.00,3353.7735,N,11931.6811,W,1,10,0.8,5.4,M,-33.9,M,,*56
$PYRTM,2024,122.919638445093,14.029285855231
$GPGGA,220415.00,3353.7733,N,11931.6814,W,1,10,0.8,5.4,M,-33.9,M,,*54
$PYRTM,2024,122.919649991586,14.029297401725
$GPGGA,220416.00,3353.7731,N,11931.6816,W,1,10,0.8,5.5,M,-33.9,M,,*56
$PYRTM,2024,122.919661581505,14.029308991644
$GPGGA,220417.00,3353.7727,N,11931.6818,W,1,10,0.8,5.5,M,-33.9,M,,*5E
$PYRTM,2024,122.919673139167,14.029320549306
$GPGGA,220418.00,3353.7725,N,11931.6821,W,1,10,0.8,5.4,M,-33.9,M,,*58
$PYRTM,2024,122.919684727269,14.029332137407
$GPGGA,220419.00,3353.7724,N,11931.6824,W,1,10,0.8,5.5,M,-33.9,M,,*5C
$PYRTM,2024,122.919696288299,14.029343698437
$GPGGA,220420.00,3353.7722,N,11931.6827,W,1,10,0.8,5.5,M,-33.9,M,,*53
$PYRTM,2024,122.919707877269,14.029355287407
$GPGGA,220421.00,3353.7719,N,11931.6830,W,1,10,0.8,5.5,M,-33.9,M,,*5C
$PYRTM,2024,122.919719436007,14.029366846146
$GPGGA,220422.00,3353.7717,N,11931.6832,W,1,10,0.8,5.5,M,-33.9,M,,*53
$PYRTM,2024,122.919729620718,14.029377030856
$GPGGA,220423.00,3353.7715,N,11931.6834,W,1,10,0.8,5.4,M,-33.9,M,,*57
$PYRTM,2024,122.919741556088,14.029388966227
$GPGGA,220424.00,3353.7713,N,11931.6837,W,1,10,0.8,5.5,M,-33.9,M,,*54
$PYRTM,2024,122.919754167303,14.029401577454
$GPGGA,220425.00,3353.7712,N,11931.6840,W,1,10,0.8,5.5,M,-33.9,M,,*54
$PYRTM,2024,122.919765734676,14.029413144815
$GPGGA,220426.00,3353.7709,N,11931.6843,W,1,10,0.8,5.5,M,-33.9,M,,*5E
$PYRTM,2024,122.919777320868,14.029424731007
$GPGGA,220427.00,3353.7707,N,11931.6845,W,1,10,0.8,5.6,M,-33.9,M,,*54
$PYRTM,2024,122.919788880961,14.029436291100
$GPGGA,220428.00,3353.7704,N,11931.6847,W,1,10,0.8,5.6,M,-33.9,M,,*5A
$PYRTM,2024,122.919800471285,14.029447881424
$GPGGA,220429.00,3353.7702,N,11931.6850,W,1,10,0.8,5.5,M,-33.9,M,,*58
$PYRTM,2024,122.919812029016,14.029459439155
$GPGGA,220430.00,3353.7700,N,11931.6854,W,1,10,0.8,5.6,M,-33.9,M,,*55
$PYRTM,2024,122.919823630532,14.029471040671
$GPGGA,220431.00,3353.7697,N,11931.6857,W,1,10,0.8,5.6,M,-33.9,M,,*58
$PYRTM,2024,122.919835178796,14.029482588935
$GPGGA,220432.00,3353.7694,N,11931.6858,W,1,10,0.8,5.5,M,-33.9,M,,*54
$PYRTM,2024,122.919846766713,14.029494176852
$GPGGA,220433.00,3353.7692,N,11931.6861,W,1,10,0.8,5.5,M,-33.9,M,,*59
$PYRTM,2024,122.919858325498,14.029505735625
$GPGGA,220434.00,3353.7689,N,11931.6864,W,1,10,0.8,5.6,M,-33.9,M,,*52
$PYRTM,2024,122.919869913299,14.029517323437
$GPGGA,220435.00,3353.7687,N,11931.6868,W,1,10,0.8,5.7,M,-33.9,M,,*50
$PYRTM,2024,122.919881473519,14.029528883657
$GPGGA,220436.00,3353.7686,N,11931.6869,W,1,10,0.8,5.7,M,-33.9,M,,*53
$PYRTM,2024,122.919893061667,14.029540471806
$GPGGA,220437.00,3353.7683,N,11931.6871,W,1,10,0.8,5.8,M,-33.9,M,,*51
$PYRTM,2024,122.919903695058,14.029551105197
$GPGGA,220438.00,3353.7681,N,11931.6874,W,1,10,0.8,5.7,M,-33.9,M,,*56
$PYRTM,2024,122.919915629282,14.029563039421
$GPGGA,220439.00,3353.7678,N,11931.6877,W,1,10,0.8,5.7,M,-33.9,M,,*52
$PYRTM,2024,122.919926394201,14.029573804340
$GPGGA,220440.00,3353.7676,N,11931.6880,W,1,10,0.8,5.7,M,-33.9,M,,*5A
$PYRTM,2024,122.919937396493,14.029584806632
$GPGGA,220441.00,3353.7675,N,11931.6882,W,1,10,0.8,5.7,M,-33.9,M,,*5A
$PYRTM,2024,122.919948504097,14.029595914236
$GPGGA,220442.00,3353.7672,N,11931.6885,W,1,10,0.8,5.7,M,-33.9,M,,*59
$PYRTM,2024,122.919959626771,14.029607036910
$GPGGA,220443.00,3353.7668,N,11931.6887,W,1,10,0.8,5.7,M,-33.9,M,,*51
$PYRTM,2024,122.919970725613,14.029618135752
$GPGGA,220444.00,3353.7665,N,11931.6890,W,1,10,0.8,5.7,M,-33.9,M,,*5D
$PYRTM,2024,122.919981834687,14.029629244826
$GPGGA,220445.00,3353.7664,N,11931.6894,W,1,10,0.8,5.8,M,-33.9,M,,*56
$PYRTM,2024,122.919992948368,14.029640358507
$GPGGA,220446.00,3353.7663,N,11931.6897,W,1,10,0.8,5.8,M,-33.9,M,,*51
$PYRTM,2024,122.920003926852,14.029651336991
$GPGGA,220447.00,3353.7661,N,11931.6899,W,1,10,0.8,5.8,M,-33.9,M,,*5C
$PYRTM,2024,122.920015037431,14.029662447569
$GPGGA,220448.00,3353.7658,N,11931.6902,W,1,10,0.8,5.8,M,-33.9,M,,*5A
$PYRTM,2024,122.920026621481,14.029674031620
$GPGGA,220449.00,3353.7655,N,11931.6905,W,1,10,0.8,5.7,M,-33.9,M,,*5E
$PYRTM,2024,122.920038187014,14.029685597153
$GPGGA,220450.00,3353.7653,N,11931.6908,W,1,10,0.8,5.8,M,-33.9,M,,*52
$PYRTM,2024,122.920049773981,14.029697184120
$GPGGA,220451.00,3353.7652,N,11931.6911,W,1,10,0.8,5.8,M,-33.9,M,,*5A
$PYRTM,2024,122.920061334653,14.029708744792
$GPGGA,220452.00,3353.7650,N,11931.6912,W,1,10,0.8,5.9,M,-33.9,M,,*59
$PYRTM,2024,122.920078247037,14.029725657176
$GPGGA,220453.00,3353.7647,N,11931.6915,W,1,10,0.8,5.8,M,-33.9,M,,*58
$PYRTM,2024,122.920089807975,14.029737218113
$GPGGA,220454.00,3353.7644,N,11931.6917,W,1,10,0.8,5.8,M,-33.9,M,,*5E
$PYRTM,2024,122.920101394664,14.029748804803
$GPGGA,220455.00,3353.7641,N,11931.6920,W,1,10,0.8,5.8,M,-33.9,M,,*5E
$PYRTM,2024,122.920112956539,14.029760366678
$GPGGA,220456.00,3353.7639,N,11931.6922,W,1,10,0.8,5.8,M,-33.9,M,,*50
$PYRTM,2024,122.920124545949,14.029771956088
$GPGGA,220457.00,3353.7638,N,11931.6926,W,1,10,0.8,5.8,M,-33.9,M,,*54
$PYRTM,2024,122.920136103877,14.029783514016
$GPGGA,220458.00,3353.7635,N,11931.6928,W,1,10,0.8,5.9,M,-33.9,M,,*59
$PYRTM,2024,122.920147695069,14.029795105208
$GPGGA,220459.00,3353.7633,N,11931.6930,W,1,10,0.8,5.9,M,-33.9,M,,*57
$PYRTM,2024,122.920159252118,14.029806662269
$GPGGA,220500.00,3353.7630,N,11931.6933,W,1,10,0.8,5.8,M,-33.9,M,,*5B
$PYRTM,2024,122.920170834664,14.029818244803
$GPGGA,220501.00,3353.7627,N,11931.6936,W,1,10,0.8,5.9,M,-33.9,M,,*58
$PYRTM,2024,122.920182401181,14.029829811319
$GPGGA,220502.00,3353.7626,N,11931.6939,W,1,10,0.8,5.9,M,-33.9,M,,*55
$PYRTM,2024,122.920193987569,14.029841397720
$GPGGA,220503.00,3353.7624,N,11931.6941,W,1,10,0.8,5.9,M,-33.9,M,,*59
$PYRTM,2024,122.920205551481,14.029852961609
$GPGGA,220504.00,3353.7623,N,11931.6942,W,1,10,0.8,5.9,M,-33.9,M,,*5A
$PYRTM,2024,122.920217138692,14.029864548831
$GPGGA,220505.00,3353.7621,N,11931.6944,W,1,10,0.8,5.9,M,-33.9,M,,*5F
$PYRTM,2024,122.920228698241,14.029876108380
$GPGGA,220506.00,3353.7617,N,11931.6946,W,1,10,0.8,5.8,M,-33.9,M,,*5A
$PYRTM,2024,122.920240284699,14.029887694838
$GPGGA,220507.00,3353.7613,N,11931.6948,W,1,10,0.8,5.9,M,-33.9,M,,*50
$PYRTM,2024,122.920251844572,14.029899254711
$GPGGA,220508.00,3353.7612,N,11931.6951,W,1,10,0.8,5.9,M,-33.9,M,,*56
$PYRTM,2024,122.920263432697,14.029910842836
$GPGGA,220509.00,3353.7611,N,11931.6952,W,1,10,0.8,5.9,M,-33.9,M,,*57
$PYRTM,2024,122.920274994653,14.029922404792
$GPGGA,220510.00,3353.7608,N,11931.6955,W,1,10,0.8,5.9,M,-33.9,M,,*50
$PYRTM,2024,122.920286583426,14.029933993565
$GPGGA,220511.00,3353.7604,N,11931.6957,W,1,10,0.8,5.9,M,-33.9,M,,*5F
$PYRTM,2024,122.920298142731,14.029945552882
$GPGGA,220512.00,3353.7601,N,11931.6960,W,1,10,0.8,5.9,M,-33.9,M,,*5D
$PYRTM,2024,122.920309731956,14.029957142095
$GPGGA,220513.00,3353.7599,N,11931.6963,W,1,10,0.8,6.0,M,-33.9,M,,*57
$PYRTM,2024,122.920321289711,14.029968699850
$GPGGA,220514.00,3353.7597,N,11931.6966,W,1,10,0.8,5.9,M,-33.9,M,,*51
$PYRTM,2024,122.920332880139,14.029980290289
$GPGGA,220515.00,3353.7594,N,11931.6969,W,1,10,0.8,6.0,M,-33.9,M,,*56
$PYRTM,2024,122.920344438021,14.029991848160
$GPGGA,220516.00,3353.7591,N,11931.6971,W,1,10,0.8,6.0,M,-33.9,M,,*59
$PYRTM,2024,122.920356027488,14.030003437627
$GPGGA,220517.00,3353.7589,N,11931.6973,W,1,10,0.8,6.0,M,-33.9,M,,*53
$PYRTM,2024,122.920367586516,14.030014996655
$GPGGA,220518.00,3353.7587,N,11931.6976,W,1,10,0.8,6.0,M,-33.9,M,,*57
$PYRTM,2024,122.920379173727,14.030026583877
$GPGGA,220519.00,3353.7586,N,11931.6979,W,1,10,0.8,5.9,M,-33.9,M,,*52
$PYRTM,2024,122.920390734329,14.030038144468
$GPGGA,220520.00,3353.7584,N,11931.6982,W,1,10,0.8,6.0,M,-33.9,M,,*54
$PYRTM,2024,122.920402323889,14.030049734028
$GPGGA,220521.00,3353.7581,N,11931.6985,W,1,10,0.8,6.0,M,-33.9,M,,*57
$PYRTM,2024,122.920413882095,14.030061292245
$GPGGA,220522.00,3353.7579,N,11931.6987,W,1,10,0.8,6.0,M,-33.9,M,,*51
$PYRTM,2024,122.920424545556,14.030071955694
$GPGGA,220523.00,3353.7577,N,11931.6989,W,1,10,0.8,6.0,M,-33.9,M,,*50
$PYRTM,2024,122.920436002269,14.030083412407
$GPGGA,220524.00,3353.7574,N,11931.6992,W,1,10,0.8,6.0,M,-33.9,M,,*5E
$PYRTM,2024,122.920448632350,14.030096042488
$GPGGA,220525.00,3353.7572,N,11931.6995,W,1,10,0.8,6.0,M,-33.9,M,,*5E
$PYRTM,2024,122.920460179062,14.030107589201
$GPGGA,220526.00,3353.7570,N,11931.6998,W,1,10,0.8,6.1,M,-33.9,M,,*53
$PYRTM,2024,122.920471770440,14.030119180579
$GPGGA,220527.00,3353.7568,N,11931.7000,W,1,10,0.8,6.2,M,-33.9,M,,*51
$PYRTM,2024,122.920483327708,14.030130737847
$GPGGA,220528.00,3353.7566,N,11931.7002,W,1,10,0.8,6.2,M,-33.9,M,,*52
$PYRTM,2024,122.920494909340,14.030142319479
$GPGGA,220529.00,3353.7563,N,11931.7005,W,1,10,0.8,6.2,M,-33.9,M,,*51
$PYRTM,2024,122.920506475706,14.030153885845
$GPGGA,220530.00,3353.7559,N,11931.7006,W,1,10,0.8,6.2,M,-33.9,M,,*53
$PYRTM,2024,122.920517020833,14.030164430972
$GPGGA,220531.00,3353.7556,N,11931.7009,W,1,10,0.8,6.3,M,-33.9,M,,*53
$PYRTM,2024,122.920529624641,14.030177034780
$GPGGA,220532.00,3353.7554,N,11931.7012,W,1,10,0.8,6.4,M,-33.9,M,,*5F
$PYRTM,2024,122.920541211204,14.030188621343
$GPGGA,220533.00,3353.7553,N,11931.7015,W,1,10,0.8,6.4,M,-33.9,M,,*5E
$PYRTM,2024,122.920552771644,14.030200181782
$GPGGA,220534.00,3353.7551,N,11931.7018,W,1,10,0.8,6.4,M,-33.9,M,,*56
$PYRTM,2024,122.920564359919,14.030211770058
$GPGGA,220535.00,3353.7548,N,11931.7020,W,1,10,0.8,6.4,M,-33.9,M,,*54
$PYRTM,2024,122.920575919780,14.030223329919
$GPGGA,220536.00,3353.7545,N,11931.7023,W,1,10,0.8,6.4,M,-33.9,M,,*59
$PYRTM,2024,122.920587502928,14.030234913067
$GPGGA,220537.00,3353.7542,N,11931.7025,W,1,10,0.8,6.4,M,-33.9,M,,*59
$PYRTM,2024,122.920599068785,14.030246478924
$GPGGA,220538.00,3353.7541,N,11931.7028,W,1,10,0.8,6.4,M,-33.9,M,,*58
$PYRTM,2024,122.920610655995,14.030258066134
$GPGGA,220539.00,3353.7539,N,11931.7030,W,1,10,0.8,6.4,M,-33.9,M,,*5F
$PYRTM,2024,122.920622216852,14.030269626991
$GPGGA,220540.00,3353.7536,N,11931.7031,W,1,10,0.8,6.5,M,-33.9,M,,*5E
$PYRTM,2024,122.920633817257,14.030281227396
$GPGGA,220541.00,3353.7532,N,11931.7033,W,1,10,0.8,6.4,M,-33.9,M,,*58
$PYRTM,2024,122.920645364433,14.030292774572
$GPGGA,220542.00,3353.7530,N,11931.7036,W,1,10,0.8,6.4,M,-33.9,M,,*5C
$PYRTM,2024,122.920656957095,14.030304367245
$GPGGA,220543.00,3353.7530,N,11931.7039,W,1,10,0.8,6.4,M,-33.9,M,,*52
$PYRTM,2024,122.920668512789,14.030315922928
$GPGGA,220544.00,3353.7528,N,11931.7042,W,1,10,0.8,6.4,M,-33.9,M,,*50
$PYRTM,2024,122.920680101377,14.030327511516
$GPGGA,220545.00,3353.7526,N,11931.7044,W,1,10,0.8,6.4,M,-33.9,M,,*59
$PYRTM,2024,122.920691660660,14.030339070799
$GPGGA,220546.00,3353.7523,N,11931.7046,W,1,10,0.8,6.5,M,-33.9,M,,*5C
$PYRTM,2024,122.920703247419,14.030350657558
$GPGGA,220547.00,3353.7521,N,11931.7048,W,1,10,0.8,6.5,M,-33.9,M,,*51
$PYRTM,2024,122.920714809479,14.030362219618
$GPGGA,220548.00,3353.7519,N,11931.7051,W,1,10,0.8,6.5,M,-33.9,M,,*5D
$PYRTM,2024,122.920726398553,14.030373808692
$GPGGA,220549.00,3353.7517,N,11931.7053,W,1,10,0.8,6.5,M,-33.9,M,,*50
$PYRTM,2024,122.920737957824,14.030385367963
$GPGGA,220550.00,3353.7516,N,11931.7056,W,1,10,0.8,6.5,M,-33.9,M,,*5C
$PYRTM,2024,122.920749539780,14.030396949919
$GPGGA,220551.00,3353.7514,N,11931.7058,W,1,10,0.8,6.5,M,-33.9,M,,*51
$PYRTM,2024,122.920761105694,14.030408515833
$GPGGA,220552.00,3353.7512,N,11931.7060,W,1,10,0.8,6.6,M,-33.9,M,,*5C
$PYRTM,2024,122.920771291586,14.030418701725
$GPGGA,220553.00,3353.7509,N,11931.7062,W,1,10,0.8,6.6,M,-33.9,M,,*55
$PYRTM,2024,122.920783220567,14.030430630706
$GPGGA,220554.00,3353.7507,N,11931.7065,W,1,10,0.8,6.6,M,-33.9,M,,*5B
$PYRTM,2024,122.920795843611,14.030443253750
$GPGGA,220555.00,3353.7506,N,11931.7068,W,1,10,0.8,6.6,M,-33.9,M,,*56
$PYRTM,2024,122.920807401620,14.030454811759
$GPGGA,220556.00,3353.7504,N,11931.7071,W,1,10,0.8,6.6,M,-33.9,M,,*5F
$PYRTM,2024,122.920818998785,14.030466408935
$GPGGA,220557.00,3353.7502,N,11931.7073,W,1,10,0.8,6.7,M,-33.9,M,,*5B
$PYRTM,2024,122.920830551169,14.030477961308
$GPGGA,220558.00,3353.7500,N,11931.7075,W,1,10,0.8,6.7,M,-33.9,M,,*50
$PYRTM,2024,122.920842138021,14.030489548160
$GPGGA,220559.00,3353.7497,N,11931.7078,W,1,10,0.8,6.7,M,-33.9,M,,*53
$PYRTM,2024,122.920853699780,14.030501109919
$GPGGA,220600.00,3353.7495,N,11931.7081,W,1,10,0.8,6.7,M,-33.9,M,,*58
$PYRTM,2024,122.920865287419,14.030512697558
$GPGGA,220601.00,3353.7494,N,11931.7083,W,1,10,0.8,6.7,M,-33.9,M,,*5A
$PYRTM,2024,122.920876847106,14.030524257257
$GPGGA,220602.00,3353.7492,N,11931.7085,W,1,10,0.8,6.7,M,-33.9,M,,*59
$PYRTM,2024,122.920888436215,14.030535846354
$GPGGA,220603.00,3353.7489,N,11931.7088,W,1,10,0.8,6.8,M,-33.9,M,,*50
$PYRTM,2024,122.920899994769,14.030547404907
$GPGGA,220604.00,3353.7486,N,11931.7090,W,1,10,0.8,6.9,M,-33.9,M,,*50
$PYRTM,2024,122.920911582442,14.030558992581
$GPGGA,220605.00,3353.7484,N,11931.7093,W,1,10,0.8,6.9,M,-33.9,M,,*50
$PYRTM,2024,122.920923143727,14.030570553866
$GPGGA,220606.00,3353.7482,N,11931.7095,W,1,10,0.8,7.0,M,-33.9,M,,*5B
$PYRTM,2024,122.920934729525,14.030582139664
$GPGGA,220607.00,3353.7480,N,11931.7098,W,1,10,0.8,7.0,M,-33.9,M,,*55
$PYRTM,2024,122.920946291782,14.030593701933
$GPGGA,220608.00,3353.7478,N,11931.7100,W,1,10,0.8,7.1,M,-33.9,M,,*5C
$PYRTM,2024,122.920957881146,14.030605291285
$GPGGA,220609.00,3353.7475,N,11931.7103,W,1,10,0.8,7.1,M,-33.9,M,,*53
$PYRTM,2024,122.920969439560,14.030616849699
$GPGGA,220610.00,3353.7473,N,11931.7105,W,1,10,0.8,7.1,M,-33.9,M,,*5B
$PYRTM,2024,122.920981029514,14.030628439653
$GPGGA,220611.00,3353.7471,N,11931.7107,W,1,10,0.8,7.1,M,-33.9,M,,*5A
$PYRTM,2024,122.920992591690,14.030640001829
$GPGGA,220612.00,3353.7469,N,11931.7110,W,1,10,0.8,7.1,M,-33.9,M,,*56
$PYRTM,2024,122.921004175278,14.030651585417
$GPGGA,220613.00,3353.7468,N,11931.7112,W,1,10,0.8,7.2,M,-33.9,M,,*57
$PYRTM,2024,122.921015735868,14.030663146007
$GPGGA,220614.00,3353.7466,N,11931.7114,W,1,10,0.8,7.2,M,-33.9,M,,*58
$PYRTM,2024,122.921027323310,14.030674733449
$GPGGA,220615.00,3353.7463,N,11931.7117,W,1,10,0.8,7.3,M,-33.9,M,,*5E
$PYRTM,2024,122.921038884062,14.030686294201
$GPGGA,220616.00,3353.7460,N,11931.7120,W,1,10,0.8,7.3,M,-33.9,M,,*5A
$PYRTM,2024,122.921050466736,14.030697876875
$GPGGA,220617.00,3353.7458,N,11931.7123,W,1,10,0.8,7.3,M,-33.9,M,,*53
$PYRTM,2024,122.921062034028,14.030709444167
$GPGGA,220618.00,3353.7457,N,11931.7125,W,1,10,0.8,7.3,M,-33.9,M,,*55
$PYRTM,2024,122.921073619375,14.030721029514
$GPGGA,220619.00,3353.7455,N,11931.7127,W,1,10,0.8,7.3,M,-33.9,M,,*54
$PYRTM,2024,122.921085181713,14.030732591852
$GPGGA,220620.00,3353.7453,N,11931.7128,W,1,10,0.8,7.3,M,-33.9,M,,*57
$PYRTM,2024,122.921096767593,14.030744177731
$GPGGA,220621.00,3353.7449,N,11931.7132,W,1,10,0.8,7.3,M,-33.9,M,,*56
$PYRTM,2024,122.921108329317,14.030755739456
$GPGGA,220622.00,3353.7446,N,11931.7135,W,1,10,0.8,7.3,M,-33.9,M,,*5D
$PYRTM,2024,122.921118514306,14.030765924444
$GPGGA,220623.00,3353.7445,N,11931.7138,W,1,10,0.8,7.4,M,-33.9,M,,*55
$PYRTM,2024,122.921130448345,14.030777858484
$GPGGA,220624.00,3353.7444,N,11931.7139,W,1,10,0.8,7.3,M,-33.9,M,,*55
$PYRTM,2024,122.921143067199,14.030790477338
$GPGGA,220625.00,3353.7442,N,11931.7141,W,1,10,0.8,7.3,M,-33.9,M,,*5D
$PYRTM,2024,122.921154626181,14.030802036319
$GPGGA,220626.00,3353.7439,N,11931.7144,W,1,10,0.8,7.3,M,-33.9,M,,*57
$PYRTM,2024,122.921166212187,14.030813622326
$GPGGA,220627.00,3353.7436,N,11931.7147,W,1,10,0.8,7.3,M,-33.9,M,,*5A
$PYRTM,2024,122.921177773576,14.030825183715
$GPGGA,220628.00,3353.7434,N,11931.7150,W,1,10,0.8,7.2,M,-33.9,M,,*50
$PYRTM,2024,122.921189362211,14.030836772350
$GPGGA,220629.00,3353.7433,N,11931.7152,W,1,10,0.8,7.3,M,-33.9,M,,*55
$PYRTM,2024,122.921200921030,14.030848331169
$GPGGA,220630.00,3353.7431,N,11931.7154,W,1,10,0.8,7.3,M,-33.9,M,,*59
$PYRTM,2024,122.921212510347,14.030859920486
$GPGGA,220631.00,3353.7429,N,11931.7156,W,1,10,0.8,7.3,M,-33.9,M,,*53
$PYRTM,2024,122.921224069896,14.030871480035
$GPGGA,220632.00,3353.7426,N,11931.7158,W,1,10,0.8,7.2,M,-33.9,M,,*50
$PYRTM,2024,122.921235659734,14.030883069873
$GPGGA,220633.00,3353.7423,N,11931.7161,W,1,10,0.8,7.3,M,-33.9,M,,*5F
$PYRTM,2024,122.921247219907,14.030894630046
$GPGGA,220634.00,3353.7422,N,11931.7164,W,1,10,0.8,7.3,M,-33.9,M,,*5C
$PYRTM,2024,122.921258809109,14.030906219248
$GPGGA,220635.00,3353.7421,N,11931.7166,W,1,10,0.8,7.3,M,-33.9,M,,*5C
$PYRTM,2024,122.921270368970,14.030917779109
$GPGGA,220636.00,3353.7419,N,11931.7168,W,1,10,0.8,7.2,M,-33.9,M,,*5B
$PYRTM,2024,122.921281959537,14.030929369676
$GPGGA,220637.00,3353.7416,N,11931.7171,W,1,10,0.8,7.3,M,-33.9,M,,*5C
$PYRTM,2024,122.921293517801,14.030940927940
$GPGGA,220638.00,3353.7412,N,11931.7174,W,1,10,0.8,7.3,M,-33.9,M,,*52
$PYRTM,2024,122.921305118160,14.030952528299
$GPGGA,220639.00,3353.7411,N,11931.7176,W,1,10,0.8,7.3,M,-33.9,M,,*52
$PYRTM,2024,122.921316663947,14.030964074086
$GPGGA,220640.00,3353.7410,N,11931.7178,W,1,10,0.8,7.3,M,-33.9,M,,*53
$PYRTM,2024,122.921328244583,14.030975654722
$GPGGA,220641.00,3353.7408,N,11931.7180,W,1,10,0.8,7.3,M,-33.9,M,,*5C
$PYRTM,2024,122.921339811308,14.030987221447
$GPGGA,220642.00,3353.7405,N,11931.7182,W,1,10,0.8,7.4,M,-33.9,M,,*57
$PYRTM,2024,122.921349430104,14.030996840243
$GPGGA,220643.00,3353.7402,N,11931.7183,W,1,10,0.8,7.4,M,-33.9,M,,*50
$PYRTM,2024,122.921362407766,14.031009817905
$GPGGA,220644.00,3353.7401,N,11931.7186,W,1,10,0.8,7.4,M,-33.9,M,,*51
$PYRTM,2024,122.921373039954,14.031020450093
$GPGGA,220645.00,3353.7401,N,11931.7189,W,1,10,0.8,7.4,M,-33.9,M,,*5F
$PYRTM,2024,122.921384151910,14.031031562049
$GPGGA,220646.00,3353.7399,N,11931.7191,W,1,10,0.8,7.4,M,-33.9,M,,*53
$PYRTM,2024,122.921395263137,14.031042673275
$GPGGA,220647.00,3353.7395,N,11931.7194,W,1,10,0.8,7.5,M,-33.9,M,,*5A
$PYRTM,2024,122.921406369514,14.031053779653
$GPGGA,220648.00,3353.7391,N,11931.7196,W,1,10,0.8,7.4,M,-33.9,M,,*52
$PYRTM,2024,122.921417485822,14.031064895961
$GPGGA,220649.00,3353.7389,N,11931.7199,W,1,10,0.8,7.4,M,-33.9,M,,*55
$PYRTM,2024,122.921428596424,14.031076006562
$GPGGA,220650.00,3353.7388,N,11931.7203,W,1,10,0.8,7.4,M,-33.9,M,,*5C
$PYRTM,2024,122.921439591262,14.031087001400
$GPGGA,220651.00,3353.7387,N,11931.7205,W,1,10,0.8,7.4,M,-33.9,M,,*54
$PYRTM,2024,122.921450703438,14.031098113576
$GPGGA,220652.00,3353.7383,N,11931.7207,W,1,10,0.8,7.4,M,-33.9,M,,*51
$PYRTM,2024,122.921466100706,14.031113510845
$GPGGA,220653.00,3353.7379,N,11931.7208,W,1,10,0.8,7.5,M,-33.9,M,,*5B
$PYRTM,2024,122.921477671493,14.031125081632
$GPGGA,220654.00,3353.7376,N,11931.7210,W,1,10,0.8,7.5,M,-33.9,M,,*5A
$PYRTM,2024,122.921489240544,14.031136650683
$GPGGA,220655.00,3353.7376,N,11931.7213,W,1,10,0.8,7.5,M,-33.9,M,,*58
$PYRTM,2024,122.921500819780,14.031148229919
$GPGGA,220656.00,3353.7376,N,11931.7217,W,1,10,0.8,7.5,M,-33.9,M,,*5F
$PYRTM,2024,122.921512381273,14.031159791412
$GPGGA,220657.00,3353.7374,N,11931.7219,W,1,10,0.8,7.5,M,-33.9,M,,*52
$PYRTM,2024,122.921523967685,14.031171377836
$GPGGA,220658.00,3353.7370,N,11931.7221,W,1,10,0.8,7.6,M,-33.9,M,,*51
$PYRTM,2024,122.921535528461,14.031182938600
$GPGGA,220659.00,3353.7367,N,11931.7222,W,1,10,0.8,7.6,M,-33.9,M,,*55
$PYRTM,2024,122.921547115914,14.031194526053
$GPGGA,220700.00,3353.7365,N,11931.7225,W,1,10,0.8,7.6,M,-33.9,M,,*5D
$PYRTM,2024,122.921558677060,14.031206087199
$GPGGA,220701.00,3353.7365,N,11931.7229,W,1,10,0.8,7.5,M,-33.9,M,,*53
$PYRTM,2024,122.921570263924,14.031217674062
$GPGGA,220702.00,3353.7363,N,11931.7233,W,1,10,0.8,7.5,M,-33.9,M,,*5D
$PYRTM,2024,122.921581823079,14.031229233229
$GPGGA,220703.00,3353.7359,N,11931.7234,W,1,10,0.8,7.5,M,-33.9,M,,*52
$PYRTM,2024,122.921593411898,14.031240822037
$GPGGA,220704.00,3353.7355,N,11931.7236,W,1,10,0.8,7.5,M,-33.9,M,,*5B
$PYRTM,2024,122.921604972535,14.031252382674
$GPGGA,220705.00,3353.7351,N,11931.7238,W,1,10,0.8,7.4,M,-33.9,M,,*51
$PYRTM,2024,122.921616560972,14.031263971111
$GPGGA,220706.00,3353.7350,N,11931.7242,W,1,10,0.8,7.5,M,-33.9,M,,*5F
$PYRTM,2024,122.921628119687,14.031275529826
$GPGGA,220707.00,3353.7350,N,11931.7245,W,1,10,0.8,7.5,M,-33.9,M,,*59
$PYRTM,2024,122.921639704387,14.031287114537
$GPGGA,220708.00,3353.7349,N,11931.7247,W,1,10,0.8,7.5,M,-33.9,M,,*5C
$PYRTM,2024,122.921651269769,14.031298679907
$GPGGA,220709.00,3353.7345,N,11931.7249,W,1,10,0.8,7.5,M,-33.9,M,,*5F
$PYRTM,2024,122.921662857187,14.031310267326
$GPGGA,220710.00,3353.7341,N,11931.7251,W,1,10,0.8,7.5,M,-33.9,M,,*5A
$PYRTM,2024,122.921674418241,14.031321828380
$GPGGA,220711.00,3353.7339,N,11931.7254,W,1,10,0.8,7.6,M,-33.9,M,,*52
$PYRTM,2024,122.921686005440,14.031333415579
$GPGGA,220712.00,3353.7339,N,11931.7257,W,1,10,0.8,7.6,M,-33.9,M,,*52
$PYRTM,2024,122.921697566921,14.031344977060
$GPGGA,220713.00,3353.7338,N,11931.7258,W,1,10,0.8,7.6,M,-33.9,M,,*5D
$PYRTM,2024,122.921709152720,14.031356562859
$GPGGA,220714.00,3353.7335,N,11931.7259,W,1,10,0.8,7.7,M,-33.9,M,,*57
$PYRTM,2024,122.921720714144,14.031368124294
$GPGGA,220715.00,3353.7331,N,11931.7260,W,1,10,0.8,7.7,M,-33.9,M,,*58
$PYRTM,2024,122.921732301424,14.031379711563
$GPGGA,220716.00,3353.7327,N,11931.7262,W,1,10,0.8,7.7,M,-33.9,M,,*5E
$PYRTM,2024,122.921743863623,14.031391273762
$GPGGA,220717.00,3353.7325,N,11931.7265,W,1,10,0.8,7.7,M,-33.9,M,,*5A
$PYRTM,2024,122.921755450567,14.031402860706
$GPGGA,220718.00,3353.7326,N,11931.7269,W,1,10,0.8,7.7,M,-33.9,M,,*5A
$PYRTM,2024,122.921767010289,14.031414420428
$GPGGA,220719.00,3353.7325,N,11931.7272,W,1,10,0.8,7.7,M,-33.9,M,,*52
$PYRTM,2024,122.921778597419,14.031426007558
$GPGGA,220720.00,3353.7322,N,11931.7273,W,1,10,0.8,7.7,M,-33.9,M,,*5E
$PYRTM,2024,122.921790157593,14.031437567743
$GPGGA,220721.00,3353.7318,N,11931.7276,W,1,10,0.8,7.7,M,-33.9,M,,*53
$PYRTM,2024,122.921801740718,14.031449150856
$GPGGA,220722.00,3353.7315,N,11931.7280,W,1,10,0.8,7.6,M,-33.9,M,,*55
$PYRTM,2024,122.921812972662,14.031460382801
$GPGGA,220723.00,3353.7314,N,11931.7282,W,1,10,0.8,7.6,M,-33.9,M,,*57
$PYRTM,2024,122.921825930556,14.031473340694
$GPGGA,220724.00,3353.7313,N,11931.7283,W,1,10,0.8,7.6,M,-33.9,M,,*56
$PYRTM,2024,122.921837505185,14.031484915324
$GPGGA,220725.00,3353.7310,N,11931.7285,W,1,10,0.8,7.6,M,-33.9,M,,*52
$PYRTM,2024,122.921849550856,14.031496960995
$GPGGA,220726.00,3353.7306,N,11931.7287,W,1,10,0.8,7.6,M,-33.9,M,,*54
$PYRTM,2024,122.921860658194,14.031508068333
$GPGGA,220727.00,3353.7303,N,11931.7290,W,1,10,0.8,7.6,M,-33.9,M,,*56
$PYRTM,2024,122.921872232477,14.031519642616
$GPGGA,220728.00,3353.7302,N,11931.7292,W,1,10,0.8,7.6,M,-33.9,M,,*5A
$PYRTM,2024,122.921883809491,14.031531219630
$GPGGA,220729.00,3353.7301,N,11931.7294,W,1,10,0.8,7.6,M,-33.9,M,,*5E
$PYRTM,2024,122.921895380683,14.031542790822
$GPGGA,220730.00,3353.7299,N,11931.7295,W,1,10,0.8,7.6,M,-33.9,M,,*57
$PYRTM,2024,122.921906956354,14.031554366493
$GPGGA,220731.00,3353.7296,N,11931.7297,W,1,10,0.8,7.7,M,-33.9,M,,*5A
$PYRTM,2024,122.921918530567,14.031565940706
$GPGGA,220732.00,3353.7293,N,11931.7298,W,1,10,0.8,7.6,M,-33.9,M,,*52
$PYRTM,2024,122.921930106007,14.031577516146
$GPGGA,220733.00,3353.7291,N,11931.7301,W,1,10,0.8,7.7,M,-33.9,M,,*51
$PYRTM,2024,122.921941679259,14.031589089398
$GPGGA,220734.00,3353.7291,N,11931.7304,W,1,10,0.8,7.6,M,-33.9,M,,*52
$PYRTM,2024,122.921953254734,14.031600664873
$GPGGA,220735.00,3353.7289,N,11931.7306,W,1,10,0.8,7.7,M,-33.9,M,,*59
$PYRTM,2024,122.921964826296,14.031612236435
$GPGGA,220736.00,3353.7286,N,11931.7308,W,1,10,0.8,7.7,M,-33.9,M,,*5B
$PYRTM,2024,122.921976398981,14.031623809120
$GPGGA,220737.00,3353.7282,N,11931.7310,W,1,10,0.8,7.7,M,-33.9,M,,*57
$PYRTM,2024,122.921987968403,14.031635378542
$GPGGA,220738.00,3353.7280,N,11931.7312,W,1,10,0.8,7.7,M,-33.9,M,,*58
$PYRTM,2024,122.921999548171,14.031646958310
$GPGGA,220739.00,3353.7279,N,11931.7315,W,1,10,0.8,7.7,M,-33.9,M,,*58
$PYRTM,2024,122.922011122731,14.031658532882
$GPGGA,220740.00,3353.7278,N,11931.7317,W,1,10,0.8,7.7,M,-33.9,M,,*55
$PYRTM,2024,122.922022697940,14.031670108079
$GPGGA,220741.00,3353.7275,N,11931.7319,W,1,10,0.8,7.7,M,-33.9,M,,*57
$PYRTM,2024,122.922034265845,14.031681675984
$GPGGA,220742.00,3353.7271,N,11931.7321,W,1,10,0.8,7.7,M,-33.9,M,,*5B
$PYRTM,2024,122.922045844248,14.031693254387
$GPGGA,220743.00,3353.7269,N,11931.7324,W,1,10,0.8,7.7,M,-33.9,M,,*56
$PYRTM,2024,122.922057418461,14.031704828600
$GPGGA,220744.00,3353.7268,N,11931.7327,W,1,10,0.8,7.8,M,-33.9,M,,*5C
$PYRTM,2024,122.922068992292,14.031716402431
$GPGGA,220745.00,3353.7267,N,11931.7330,W,1,10,0.8,7.7,M,-33.9,M,,*5B
$PYRTM,2024,122.922080565949,14.031727976088
$GPGGA,220746.00,3353.7265,N,11931.7331,W,1,10,0.8,7.7,M,-33.9,M,,*5B
$PYRTM,2024,122.922092141019,14.031739551169
$GPGGA,220747.00,3353.7261,N,11931.7334,W,1,10,0.8,7.8,M,-33.9,M,,*54
$PYRTM,2024,122.922103709664,14.031751119815
$GPGGA,220748.00,3353.7258,N,11931.7337,W,1,10,0.8,7.8,M,-33.9,M,,*52
$PYRTM,2024,122.922115291921,14.031762702060
$GPGGA,220749.00,3353.7257,N,11931.7339,W,1,10,0.8,7.8,M,-33.9,M,,*52
$PYRTM,2024,122.922126857523,14.031774267674
$GPGGA,220750.00,3353.7256,N,11931.7341,W,1,10,0.8,7.8,M,-33.9,M,,*54
$PYRTM,2024,122.922138440301,14.031785850440
$GPGGA,220751.00,3353.7255,N,11931.7342,W,1,10,0.8,7.8,M,-33.9,M,,*55
$PYRTM,2024,122.922150011782,14.031797421921
$GPGGA,220752.00,3353.7251,N,11931.7344,W,1,10,0.8,7.8,M,-33.9,M,,*54
$PYRTM,2024,122.922163080243,14.031810490382
$GPGGA,220753.00,3353.7247,N,11931.7347,W,1,10,0.8,7.8,M,-33.9,M,,*51
$PYRTM,2024,122.922175345463,14.031822755602
$GPGGA,220754.00,3353.7244,N,11931.7350,W,1,10,0.8,7.8,M,-33.9,M,,*53
$PYRTM,2024,122.922184733715,14.031832143854
$GPGGA,220755.00,3353.7243,N,11931.7352,W,1,10,0.8,7.8,M,-33.9,M,,*57
$PYRTM,2024,122.922196755394,14.031844165532
$GPGGA,220756.00,3353.7242,N,11931.7353,W,1,10,0.8,7.7,M,-33.9,M,,*5B
$PYRTM,2024,122.922207866678,14.031855276817
$GPGGA,220757.00,3353.7238,N,11931.7355,W,1,10,0.8,7.7,M,-33.9,M,,*51
$PYRTM,2024,122.922219455185,14.031866865324
$GPGGA,220758.00,3353.7234,N,11931.7356,W,1,10,0.8,7.8,M,-33.9,M,,*5E
$PYRTM,2024,122.922231015000,14.031878425139
$GPGGA,220759.00,3353.7231,N,11931.7358,W,1,10,0.8,7.9,M,-33.9,M,,*55
$PYRTM,2024,122.922242603032,14.031890013171
$GPGGA,220800.00,3353.7230,N,11931.7361,W,1,10,0.8,7.8,M,-33.9,M,,*5C
$PYRTM,2024,122.922254162766,14.031901572917
$GPGGA,220801.00,3353.7228,N,11931.7364,W,1,10,0.8,7.8,M,-33.9,M,,*51
$PYRTM,2024,122.922265753009,14.031913163148
$GPGGA,220802.00,3353.7226,N,11931.7366,W,1,10,0.8,7.9,M,-33.9,M,,*5F
$PYRTM,2024,122.922277311262,14.031924721400
$GPGGA,220803.00,3353.7223,N,11931.7367,W,1,10,0.8,7.9,M,-33.9,M,,*5A
$PYRTM,2024,122.922288900613,14.031936310752
$GPGGA,220804.00,3353.7220,N,11931.7369,W,1,10,0.8,7.9,M,-33.9,M,,*50
$PYRTM,2024,122.922300460417,14.031947870556
$GPGGA,220805.00,3353.7218,N,11931.7371,W,1,10,0.8,7.9,M,-33.9,M,,*53
$PYRTM,2024,122.922312048750,14.031959458900
$GPGGA,220806.00,3353.7217,N,11931.7374,W,1,10,0.8,7.8,M,-33.9,M,,*5B
$PYRTM,2024,122.922323607535,14.031971017685
$GPGGA,220807.00,3353.7215,N,11931.7376,W,1,10,0.8,7.8,M,-33.9,M,,*5A
$PYRTM,2024,122.922335196933,14.031982607072
$GPGGA,220808.00,3353.7211,N,11931.7377,W,1,10,0.8,7.9,M,-33.9,M,,*51
$PYRTM,2024,122.922346755637,14.031994165787
$GPGGA,220809.00,3353.7208,N,11931.7378,W,1,10,0.8,7.8,M,-33.9,M,,*56
$PYRTM,2024,122.922358344190,14.032005754329
$GPGGA,220810.00,3353.7207,N,11931.7380,W,1,10,0.8,7.8,M,-33.9,M,,*56
$PYRTM,2024,122.922369906169,14.032017316308
$GPGGA,220811.00,3353.7206,N,11931.7381,W,1,10,0.8,7.8,M,-33.9,M,,*57
$PYRTM,2024,122.922381488206,14.032028898345
$GPGGA,220812.00,3353.7204,N,11931.7383,W,1,10,0.8,7.8,M,-33.9,M,,*54
$PYRTM,2024,122.922393054352,14.032040464502
$GPGGA,220813.00,3353.7201,N,11931.7385,W,1,10,0.8,7.9,M,-33.9,M,,*57
$PYRTM,2024,122.922404641817,14.032052051956
$GPGGA,220814.00,3353.7198,N,11931.7386,W,1,10,0.8,7.9,M,-33.9,M,,*50
$PYRTM,2024,122.922416201181,14.032063611319
$GPGGA,220815.00,3353.7196,N,11931.7387,W,1,10,0.8,7.8,M,-33.9,M,,*5F
$PYRTM,2024,122.922427788877,14.032075199016
$GPGGA,220816.00,3353.7195,N,11931.7389,W,1,10,0.8,7.8,M,-33.9,M,,*51
$PYRTM,2024,122.922439348947,14.032086759086
$GPGGA,220817.00,3353.7193,N,11931.7392,W,1,10,0.8,7.9,M,-33.9,M,,*5D
$PYRTM,2024,122.922450932164,14.032098342303
$GPGGA,220818.00,3353.7189,N,11931.7393,W,1,10,0.8,7.8,M,-33.9,M,,*59
$PYRTM,2024,122.922462498125,14.032109908264
$GPGGA,220819.00,3353.7186,N,11931.7394,W,1,10,0.8,7.9,M,-33.9,M,,*51
$PYRTM,2024,122.922474081030,14.032121491169
$GPGGA,220820.00,3353.7184,N,11931.7396,W,1,10,0.8,8.0,M,-33.9,M,,*5D
$PYRTM,2024,122.922485645255,14.032133055394
$GPGGA,220821.00,3353.7185,N,11931.7398,W,1,10,0.8,8.0,M,-33.9,M,,*53
$PYRTM,2024,122.922497233437,14.032144643588
$GPGGA,220822.00,3353.7184,N,11931.7400,W,1,10,0.8,8.0,M,-33.9,M,,*57
$PYRTM,2024,122.922509837616,14.032157247755
$GPGGA,220823.00,3353.7182,N,11931.7402,W,1,10,0.8,8.0,M,-33.9,M,,*52
$PYRTM,2024,122.922522569074,14.032169979213
$GPGGA,220824.00,3353.7179,N,11931.7403,W,1,10,0.8,8.0,M,-33.9,M,,*50
$PYRTM,2024,122.922531942650,14.032179352789
$GPGGA,220825.00,3353.7177,N,11931.7404,W,1,10,0.8,8.0,M,-33.9,M,,*58
$PYRTM,2024,122.922543978750,14.032191388889
$GPGGA,220826.00,3353.7175,N,11931.7405,W,1,10,0.8,8.0,M,-33.9,M,,*58
$PYRTM,2024,122.922555088935,14.032202499074
$GPGGA,220827.00,3353.7174,N,11931.7408,W,1,10,0.8,8.0,M,-33.9,M,,*55
$PYRTM,2024,122.922566678380,14.032214088519
$GPGGA,220828.00,3353.7171,N,11931.7410,W,1,10,0.8,7.9,M,-33.9,M,,*50
$PYRTM,2024,122.922578238275,14.032225648414
$GPGGA,220829.00,3353.7168,N,11931.7411,W,1,10,0.8,8.0,M,-33.9,M,,*5E
$PYRTM,2024,122.922589825880,14.032237236019
$GPGGA,220830.00,3353.7165,N,11931.7410,W,1,10,0.8,7.9,M,-33.9,M,,*5C
$PYRTM,2024,122.922601387616,14.032248797755
$GPGGA,220831.00,3353.7163,N,11931.7412,W,1,10,0.8,7.9,M,-33.9,M,,*59
$PYRTM,2024,122.922612975683,14.032260385822
$GPGGA,220832.00,3353.7160,N,11931.7414,W,1,10,0.8,7.8,M,-33.9,M,,*5E
$PYRTM,2024,122.922624534190,14.032271944340
$GPGGA,220833.00,3353.7158,N,11931.7416,W,1,10,0.8,7.8,M,-33.9,M,,*56
$PYRTM,2024,122.922636117627,14.032283527766
$GPGGA,220834.00,3353.7156,N,11931.7416,W,1,10,0.8,7.8,M,-33.9,M,,*5F
$PYRTM,2024,122.922647682859,14.032295092998
$GPGGA,220835.00,3353.7155,N,11931.7417,W,1,10,0.8,7.8,M,-33.9,M,,*5C
$PYRTM,2024,122.922659271725,14.032306681863
$GPGGA,220836.00,3353.7152,N,11931.7418,W,1,10,0.8,7.7,M,-33.9,M,,*58
$PYRTM,2024,122.922670831192,14.032318241331
$GPGGA,220837.00,3353.7149,N,11931.7419,W,1,10,0.8,7.7,M,-33.9,M,,*52
$PYRTM,2024,122.922682419583,14.032329829722
$GPGGA,220838.00,3353.7146,N,11931.7421,W,1,10,0.8,7.8,M,-33.9,M,,*56
$PYRTM,2024,122.922693978877,14.032341389016
$GPGGA,220839.00,3353.7144,N,11931.7422,W,1,10,0.8,7.8,M,-33.9,M,,*56
$PYRTM,2024,122.922705567512,14.032352977650
