$PYRTM,2024,122.333342315822,13.442989725961
$GPGGA,075959.00,3329.9010,N,11932.5792,W,1,10,0.8,10.7,M,-34.9,M,,*67
$PYRTM,2024,122.333353904213,13.443001314352
$GPGGA,080000.00,3329.9022,N,11932.5818,W,1,10,0.8,9.2,M,-34.9,M,,*59
$PYRTM,2024,122.333365463924,13.443012874063
$GPGGA,080001.00,3329.9028,N,11932.5844,W,1,10,0.8,8.2,M,-34.9,M,,*5A
$PYRTM,2024,122.333377044120,13.443024454259
$GPGGA,080002.00,3329.9032,N,11932.5866,W,1,10,0.8,8.8,M,-34.9,M,,*58
$PYRTM,2024,122.333388610069,13.443036020208
$GPGGA,080003.00,3329.9041,N,11932.5885,W,1,10,0.8,10.9,M,-34.9,M,,*68
$PYRTM,2024,122.333400198241,13.443047608380
$GPGGA,080004.00,3329.9053,N,11932.5907,W,1,10,0.8,9.6,M,-34.9,M,,*50
$PYRTM,2024,122.333411758542,13.443059168681
$GPGGA,080005.00,3329.9063,N,11932.5935,W,1,10,0.8,8.3,M,-34.9,M,,*57
$PYRTM,2024,122.333423347407,13.443070757546
$GPGGA,080006.00,3329.9069,N,11932.5963,W,1,10,0.8,11.4,M,-34.9,M,,*62
$PYRTM,2024,122.333434905625,13.443082315752
$GPGGA,080007.00,3329.9073,N,11932.5987,W,1,10,0.8,13.0,M,-34.9,M,,*64
$PYRTM,2024,122.333446488993,13.443093899132
$GPGGA,080008.00,3329.9081,N,11932.6012,W,1,10,0.8,13.4,M,-34.9,M,,*64
$PYRTM,2024,122.333458053553,13.443105463692
$GPGGA,080009.00,3329.9091,N,11932.6037,W,1,10,0.8,12.9,M,-34.9,M,,*6F
$PYRTM,2024,122.333469644688,13.443117054826
$GPGGA,080010.00,3329.9099,N,11932.6062,W,1,10,0.8,11.8,M,-34.9,M,,*6D
$PYRTM,2024,122.333481201424,13.443128611562
$GPGGA,080011.00,3329.9105,N,11932.6086,W,1,10,0.8,13.6,M,-34.9,M,,*6E
$PYRTM,2024,122.333492790313,13.443140200451
$GPGGA,080012.00,3329.9111,N,11932.6113,W,1,10,0.8,13.8,M,-34.9,M,,*6B
$PYRTM,2024,122.333504351829,13.443151761968
$GPGGA,080013.00,3329.9119,N,11932.6138,W,1,10,0.8,15.3,M,-34.9,M,,*66
$PYRTM,2024,122.333515941123,13.443163351262
$GPGGA,080014.00,3329.9128,N,11932.6160,W,1,10,0.8,13.7,M,-34.9,M,,*6C
$PYRTM,2024,122.333527500185,13.443174910324
$GPGGA,080015.00,3329.9137,N,11932.6185,W,1,10,0.8,12.5,M,-34.9,M,,*6B
$PYRTM,2024,122.333538164664,13.443185574803
$GPGGA,080016.00,3329.9145,N,11932.6213,W,1,10,0.8,11.8,M,-34.9,M,,*6F
$PYRTM,2024,122.333549606308,13.443197016447
$GPGGA,080017.00,3329.9151,N,11932.6240,W,1,10,0.8,15.2,M,-34.9,M,,*63
$PYRTM,2024,122.333562570752,13.443209980891
$GPGGA,080018.00,3329.9156,N,11932.6263,W,1,10,0.8,15.3,M,-34.9,M,,*6B
$PYRTM,2024,122.333573797419,13.443221207558
$GPGGA,080019.00,3329.9164,N,11932.6287,W,1,10,0.8,14.5,M,-34.9,M,,*66
$PYRTM,2024,122.333585383218,13.443232793356
$GPGGA,080020.00,3329.9174,N,11932.6313,W,1,10,0.8,15.0,M,-34.9,M,,*65
$PYRTM,2024,122.333596943900,13.443244354039
$GPGGA,080021.00,3329.9182,N,11932.6338,W,1,10,0.8,14.2,M,-34.9,M,,*67
$PYRTM,2024,122.333608532072,13.443255942211
$GPGGA,080022.00,3329.9187,N,11932.6365,W,1,10,0.8,13.9,M,-34.9,M,,*65
$PYRTM,2024,122.333620092488,13.443267502627
$GPGGA,080023.00,3329.9194,N,11932.6391,W,1,10,0.8,17.8,M,-34.9,M,,*68
$PYRTM,2024,122.333631681609,13.443279091748
$GPGGA,080024.00,3329.9202,N,11932.6417,W,1,10,0.8,18.8,M,-34.9,M,,*65
$PYRTM,2024,122.333643240845,13.443290650984
$GPGGA,080025.00,3329.9211,N,11932.6442,W,1,10,0.8,17.8,M,-34.9,M,,*69
$PYRTM,2024,122.333654828507,13.443302238657
$GPGGA,080026.00,3329.9220,N,11932.6467,W,1,10,0.8,18.5,M,-34.9,M,,*6D
$PYRTM,2024,122.333666389491,13.443313799630
$GPGGA,080027.00,3329.9228,N,11932.6490,W,1,10,0.8,17.9,M,-34.9,M,,*6F
$PYRTM,2024,122.333677976863,13.443325387002
$GPGGA,080028.00,3329.9236,N,11932.6515,W,1,10,0.8,16.6,M,-34.9,M,,*6D
$PYRTM,2024,122.333689536574,13.443336946713
$GPGGA,080029.00,3329.9244,N,11932.6541,W,1,10,0.8,16.0,M,-34.9,M,,*6E
$PYRTM,2024,122.333701125463,13.443348535602
$GPGGA,080030.00,3329.9252,N,11932.6566,W,1,10,0.8,14.4,M,-34.9,M,,*62
$PYRTM,2024,122.333712684861,13.443360095000
$GPGGA,080031.00,3329.9261,N,11932.6589,W,1,10,0.8,13.6,M,-34.9,M,,*67
$PYRTM,2024,122.333724273495,13.443371683646
$GPGGA,080032.00,3329.9271,N,11932.6614,W,1,10,0.8,11.1,M,-34.9,M,,*67
$PYRTM,2024,122.333735833183,13.443383243322
$GPGGA,080033.00,3329.9280,N,11932.6641,W,1,10,0.8,11.4,M,-34.9,M,,*6D
$PYRTM,2024,122.333747417940,13.443394828079
$GPGGA,080034.00,3329.9287,N,11932.6667,W,1,10,0.8,11.6,M,-34.9,M,,*6B
$PYRTM,2024,122.333758982662,13.443406392801
$GPGGA,080035.00,3329.9293,N,11932.6692,W,1,10,0.8,13.2,M,-34.9,M,,*63
$PYRTM,2024,122.333770570602,13.443417980741
$GPGGA,080036.00,3329.9300,N,11932.6717,W,1,10,0.8,12.5,M,-34.9,M,,*61
$PYRTM,2024,122.333782129850,13.443429539988
$GPGGA,080037.00,3329.9309,N,11932.6743,W,1,10,0.8,12.0,M,-34.9,M,,*6D
$PYRTM,2024,122.333793713519,13.443441123657
$GPGGA,080038.00,3329.9317,N,11932.6767,W,1,10,0.8,12.3,M,-34.9,M,,*68
$PYRTM,2024,122.333805278646,13.443452688785
$GPGGA,080039.00,3329.9324,N,11932.6791,W,1,10,0.8,12.8,M,-34.9,M,,*6B
$PYRTM,2024,122.333816866910,13.443464277049
$GPGGA,080040.00,3329.9332,N,11932.6820,W,1,10,0.8,12.2,M,-34.9,M,,*6D
$PYRTM,2024,122.333828426840,13.443475836979
$GPGGA,080041.00,3329.9341,N,11932.6849,W,1,10,0.8,13.6,M,-34.9,M,,*62
$PYRTM,2024,122.333840014410,13.443487424549
$GPGGA,080042.00,3329.9349,N,11932.6873,W,1,10,0.8,13.0,M,-34.9,M,,*66
$PYRTM,2024,122.333851575417,13.443498985556
$GPGGA,080043.00,3329.9356,N,11932.6895,W,1,10,0.8,10.6,M,-34.9,M,,*64
$PYRTM,2024,122.333863164618,13.443510574757
$GPGGA,080044.00,3329.9363,N,11932.6921,W,1,10,0.8,13.5,M,-34.9,M,,*6B
$PYRTM,2024,122.333874723646,13.443522133796
$GPGGA,080045.00,3329.9370,N,11932.6950,W,1,10,0.8,12.9,M,-34.9,M,,*63
$PYRTM,2024,122.333884908461,13.443532318600
$GPGGA,080046.00,3329.9379,N,11932.6975,W,1,10,0.8,11.0,M,-34.9,M,,*64
$PYRTM,2024,122.333896831319,13.443544241458
$GPGGA,080047.00,3329.9389,N,11932.6998,W,1,10,0.8,11.0,M,-34.9,M,,*69
$PYRTM,2024,122.333909910347,13.443557320498
$GPGGA,080048.00,3329.9399,N,11932.7021,W,1,10,0.8,11.3,M,-34.9,M,,*6E
$PYRTM,2024,122.333921021412,13.443568431551
$GPGGA,080049.00,3329.9407,N,11932.7047,W,1,10,0.8,13.0,M,-34.9,M,,*6E
$PYRTM,2024,122.333932607836,13.443580017975
$GPGGA,080050.00,3329.9416,N,11932.7076,W,1,10,0.8,12.3,M,-34.9,M,,*66
$PYRTM,2024,122.333944169340,13.443591579479
$GPGGA,080051.00,3329.9426,N,11932.7104,W,1,10,0.8,11.1,M,-34.9,M,,*61
$PYRTM,2024,122.333955756400,13.443603166539
$GPGGA,080052.00,3329.9435,N,11932.7127,W,1,10,0.8,9.4,M,-34.9,M,,*5D
$PYRTM,2024,122.333967316157,13.443614726296
$GPGGA,080053.00,3329.9444,N,11932.7148,W,1,10,0.8,10.6,M,-34.9,M,,*69
$PYRTM,2024,122.333978905683,13.443626315822
$GPGGA,080054.00,3329.9454,N,11932.7175,W,1,10,0.8,10.7,M,-34.9,M,,*60
$PYRTM,2024,122.333990463947,13.443637874086
$GPGGA,080055.00,3329.9464,N,11932.7204,W,1,10,0.8,10.1,M,-34.9,M,,*61
$PYRTM,2024,122.334002053032,13.443649463171
$GPGGA,080056.00,3329.9471,N,11932.7230,W,1,10,0.8,12.9,M,-34.9,M,,*6B
$PYRTM,2024,122.334013613368,13.443661023519
$GPGGA,080057.00,3329.9476,N,11932.7254,W,1,10,0.8,13.2,M,-34.9,M,,*65
$PYRTM,2024,122.334025201481,13.443672611620
$GPGGA,080058.00,3329.9485,N,11932.7280,W,1,10,0.8,11.8,M,-34.9,M,,*67
$PYRTM,2024,122.334036761551,13.443684171690
$GPGGA,080059.00,3329.9495,N,11932.7309,W,1,10,0.8,13.1,M,-34.9,M,,*6C
$PYRTM,2024,122.334048349502,13.443695759653
$GPGGA,080100.00,3329.9505,N,11932.7334,W,1,10,0.8,11.8,M,-34.9,M,,*6C
$PYRTM,2024,122.334059909352,13.443707319502
$GPGGA,080101.00,3329.9513,N,11932.7355,W,1,10,0.8,11.3,M,-34.9,M,,*66
$PYRTM,2024,122.334071497488,13.443718907627
$GPGGA,080102.00,3329.9522,N,11932.7378,W,1,10,0.8,11.7,M,-34.9,M,,*6C
$PYRTM,2024,122.334083057164,13.443730467303
$GPGGA,080103.00,3329.9530,N,11932.7406,W,1,10,0.8,10.8,M,-34.9,M,,*6E
$PYRTM,2024,122.334094644699,13.443742054838
$GPGGA,080104.00,3329.9538,N,11932.7433,W,1,10,0.8,11.5,M,-34.9,M,,*6B
$PYRTM,2024,122.334106205231,13.443753615370
$GPGGA,080105.00,3329.9546,N,11932.7456,W,1,10,0.8,13.5,M,-34.9,M,,*62
$PYRTM,2024,122.334118242708,13.443765652836
$GPGGA,080106.00,3329.9556,N,11932.7479,W,1,10,0.8,11.5,M,-34.9,M,,*6F
$PYRTM,2024,122.334129832488,13.443777242627
$GPGGA,080107.00,3329.9566,N,11932.7506,W,1,10,0.8,13.4,M,-34.9,M,,*67
$PYRTM,2024,122.334141535035,13.443788945174
$GPGGA,080108.00,3329.9572,N,11932.7534,W,1,10,0.8,14.0,M,-34.9,M,,*6F
$PYRTM,2024,122.334153095845,13.443800505984
$GPGGA,080109.00,3329.9577,N,11932.7558,W,1,10,0.8,15.3,M,-34.9,M,,*63
$PYRTM,2024,122.334164670602,13.443812080741
$GPGGA,080110.00,3329.9586,N,11932.7581,W,1,10,0.8,14.2,M,-34.9,M,,*61
$PYRTM,2024,122.334176242998,13.443823653125
$GPGGA,080111.00,3329.9596,N,11932.7607,W,1,10,0.8,15.1,M,-34.9,M,,*6E
$PYRTM,2024,122.334187818275,13.443835228414
$GPGGA,080112.00,3329.9604,N,11932.7634,W,1,10,0.8,12.3,M,-34.9,M,,*60
$PYRTM,2024,122.334199389699,13.443846799838
$GPGGA,080113.00,3329.9610,N,11932.7659,W,1,10,0.8,13.0,M,-34.9,M,,*6D
$PYRTM,2024,122.334210966528,13.443858376678
$GPGGA,080114.00,3329.9616,N,11932.7682,W,1,10,0.8,12.5,M,-34.9,M,,*6E
$PYRTM,2024,122.334222536979,13.443869947118
$GPGGA,080115.00,3329.9624,N,11932.7704,W,1,10,0.8,11.5,M,-34.9,M,,*62
$PYRTM,2024,122.334232721204,13.443880131343
$GPGGA,080116.00,3329.9633,N,11932.7731,W,1,10,0.8,13.0,M,-34.9,M,,*66
$PYRTM,2024,122.334244055694,13.443891465833
$GPGGA,080117.00,3329.9642,N,11932.7760,W,1,10,0.8,11.2,M,-34.9,M,,*65
$PYRTM,2024,122.334257262361,13.443904672512
$GPGGA,080118.00,3329.9650,N,11932.7787,W,1,10,0.8,13.0,M,-34.9,M,,*60
$PYRTM,2024,122.334268831169,13.443916241308
$GPGGA,080119.00,3329.9657,N,11932.7808,W,1,10,0.8,14.3,M,-34.9,M,,*6A
$PYRTM,2024,122.334280414190,13.443927824329
$GPGGA,080120.00,3329.9667,N,11932.7829,W,1,10,0.8,14.3,M,-34.9,M,,*60
$PYRTM,2024,122.334291984965,13.443939395104
$GPGGA,080121.00,3329.9678,N,11932.7855,W,1,10,0.8,14.4,M,-34.9,M,,*63
$PYRTM,2024,122.334303574572,13.443950984711
$GPGGA,080122.00,3329.9686,N,11932.7885,W,1,10,0.8,11.6,M,-34.9,M,,*6B
$PYRTM,2024,122.334315133414,13.443962543553
$GPGGA,080123.00,3329.9693,N,11932.7911,W,1,10,0.8,11.4,M,-34.9,M,,*60
$PYRTM,2024,122.334326708391,13.443974118530
$GPGGA,080124.00,3329.9701,N,11932.7935,W,1,10,0.8,12.3,M,-34.9,M,,*6F
$PYRTM,2024,122.334338281748,13.443985691887
$GPGGA,080125.00,3329.9710,N,11932.7958,W,1,10,0.8,11.6,M,-34.9,M,,*63
$PYRTM,2024,122.334355874016,13.444003284155
$GPGGA,080126.00,3329.9718,N,11932.7982,W,1,10,0.8,11.3,M,-34.9,M,,*6A
$PYRTM,2024,122.334367796470,13.444015206609
$GPGGA,080127.00,3329.9727,N,11932.8006,W,1,10,0.8,12.5,M,-34.9,M,,*68
$PYRTM,2024,122.334378559271,13.444025969421
$GPGGA,080128.00,3329.9736,N,11932.8028,W,1,10,0.8,13.2,M,-34.9,M,,*6D
$PYRTM,2024,122.334389787627,13.444037197766
$GPGGA,080129.00,3329.9745,N,11932.8053,W,1,10,0.8,11.2,M,-34.9,M,,*66
$PYRTM,2024,122.334400898924,13.444048309062
$GPGGA,080130.00,3329.9753,N,11932.8081,W,1,10,0.8,10.7,M,-34.9,M,,*62
$PYRTM,2024,122.334412013009,13.444059423160
$GPGGA,080131.00,3329.9761,N,11932.8105,W,1,10,0.8,10.7,M,-34.9,M,,*6F
$PYRTM,2024,122.334423120382,13.444070530521
$GPGGA,080132.00,3329.9771,N,11932.8126,W,1,10,0.8,8.6,M,-34.9,M,,*54
$PYRTM,2024,122.334434235174,13.444081645313
$GPGGA,080133.00,3329.9782,N,11932.8148,W,1,10,0.8,9.4,M,-34.9,M,,*52
$PYRTM,2024,122.334445342720,13.444092752859
$GPGGA,080134.00,3329.9793,N,11932.8175,W,1,10,0.8,9.3,M,-34.9,M,,*5C
$PYRTM,2024,122.334456453843,13.444103863981
$GPGGA,080135.00,3329.9799,N,11932.8205,W,1,10,0.8,7.9,M,-34.9,M,,*57
$PYRTM,2024,122.334467682998,13.444115093137
$GPGGA,080136.00,3329.9804,N,11932.8232,W,1,10,0.8,10.3,M,-34.9,M,,*67
$PYRTM,2024,122.334478779271,13.444126189410
$GPGGA,080137.00,3329.9812,N,11932.8253,W,1,10,0.8,10.7,M,-34.9,M,,*62
$PYRTM,2024,122.334489917593,13.444137327731
$GPGGA,080138.00,3329.9823,N,11932.8273,W,1,10,0.8,10.6,M,-34.9,M,,*6C
$PYRTM,2024,122.334501001366,13.444148411505
$GPGGA,080139.00,3329.9834,N,11932.8299,W,1,10,0.8,8.1,M,-34.9,M,,*51
$PYRTM,2024,122.334512120683,13.444159530822
$GPGGA,080140.00,3329.9839,N,11932.8329,W,1,10,0.8,9.2,M,-34.9,M,,*5A
$PYRTM,2024,122.334523236898,13.444170647037
$GPGGA,080141.00,3329.9842,N,11932.8357,W,1,10,0.8,11.8,M,-34.9,M,,*6D
$PYRTM,2024,122.334534464063,13.444181874201
$GPGGA,080142.00,3329.9850,N,11932.8382,W,1,10,0.8,13.0,M,-34.9,M,,*6F
$PYRTM,2024,122.334545574850,13.444192984988
$GPGGA,080143.00,3329.9862,N,11932.8404,W,1,10,0.8,14.2,M,-34.9,M,,*63
$PYRTM,2024,122.334556686076,13.444204096215
$GPGGA,080144.00,3329.9873,N,11932.8429,W,1,10,0.8,15.2,M,-34.9,M,,*6A
$PYRTM,2024,122.334567796898,13.444215207037
$GPGGA,080145.00,3329.9879,N,11932.8457,W,1,10,0.8,12.0,M,-34.9,M,,*6D
$PYRTM,2024,122.334583538241,13.444230948380
$GPGGA,080146.00,3329.9884,N,11932.8487,W,1,10,0.8,12.6,M,-34.9,M,,*67
$PYRTM,2024,122.334594636157,13.444242046296
$GPGGA,080147.00,3329.9889,N,11932.8514,W,1,10,0.8,14.9,M,-34.9,M,,*69
$PYRTM,2024,122.334606209225,13.444253619363
$GPGGA,080148.00,3329.9899,N,11932.8534,W,1,10,0.8,13.5,M,-34.9,M,,*6E
$PYRTM,2024,122.334617451528,13.444264861667
$GPGGA,080149.00,3329.9908,N,11932.8556,W,1,10,0.8,13.4,M,-34.9,M,,*63
$PYRTM,2024,122.334628564410,13.444275974549
$GPGGA,080150.00,3329.9917,N,11932.8584,W,1,10,0.8,12.4,M,-34.9,M,,*6B
$PYRTM,2024,122.334639661771,13.444287071910
$GPGGA,080151.00,3329.9923,N,11932.8613,W,1,10,0.8,11.5,M,-34.9,M,,*62
$PYRTM,2024,122.334650786655,13.444298196794
$GPGGA,080152.00,3329.9928,N,11932.8639,W,1,10,0.8,12.8,M,-34.9,M,,*6C
$PYRTM,2024,122.334673354722,13.444320764861
$GPGGA,080153.00,3329.9936,N,11932.8663,W,1,10,0.8,12.2,M,-34.9,M,,*67
$PYRTM,2024,122.334684459676,13.444331869815
$GPGGA,080154.00,3329.9947,N,11932.8690,W,1,10,0.8,13.7,M,-34.9,M,,*6E
$PYRTM,2024,122.334695691308,13.444343101447
$GPGGA,080155.00,3329.9957,N,11932.8718,W,1,10,0.8,11.6,M,-34.9,M,,*6C
$PYRTM,2024,122.334707279850,13.444354689988
$GPGGA,080156.00,3329.9964,N,11932.8745,W,1,09,0.8,14.2,M,-34.9,M,,*6E
$PYRTM,2024,122.334718376968,13.444365787106
$GPGGA,080157.00,3329.9970,N,11932.8771,W,1,09,0.8,14.9,M,-34.9,M,,*66
$PYRTM,2024,122.334729490903,13.444376901042
$GPGGA,080158.00,3329.9978,N,11932.8797,W,1,09,0.8,10.2,M,-34.9,M,,*66
$PYRTM,2024,122.334740594178,13.444388004329
$GPGGA,080159.00,3329.9987,N,11932.8820,W,1,09,0.8,13.1,M,-34.9,M,,*64
$PYRTM,2024,122.334751826817,13.444399236956
$GPGGA,080200.00,3329.9997,N,11932.8842,W,1,09,0.8,12.8,M,-34.9,M,,*66
$PYRTM,2024,122.334762940069,13.444410350208
$GPGGA,080201.00,3330.0005,N,11932.8867,W,1,09,0.8,12.8,M,-34.9,M,,*63
$PYRTM,2024,122.334774048970,13.444421459120
$GPGGA,080202.00,3330.0013,N,11932.8895,W,1,09,0.8,9.5,M,-34.9,M,,*5D
$PYRTM,2024,122.334785162257,13.444432572396
$GPGGA,080203.00,3330.0021,N,11932.8920,W,1,09,0.8,11.6,M,-34.9,M,,*68
$PYRTM,2024,122.334796275012,13.444443685150
$GPGGA,080204.00,3330.0028,N,11932.8941,W,1,09,0.8,12.0,M,-34.9,M,,*64
$PYRTM,2024,122.334807498970,13.444454909109
$GPGGA,080205.00,3330.0036,N,11932.8964,W,1,09,0.8,10.9,M,-34.9,M,,*66
$PYRTM,2024,122.334818609398,13.444466019537
$GPGGA,080206.00,3330.0047,N,11932.8994,W,1,09,0.8,11.0,M,-34.9,M,,*64
$PYRTM,2024,122.334829714780,13.444477124919
$GPGGA,080207.00,3330.0056,N,11932.9022,W,1,09,0.8,9.1,M,-34.9,M,,*58
$PYRTM,2024,122.334840846285,13.444488256424
$GPGGA,080208.00,3330.0061,N,11932.9040,W,1,09,0.8,9.7,M,-34.9,M,,*51
$PYRTM,2024,122.334851942060,13.444499352211
$GPGGA,080209.00,3330.0067,N,11932.9056,W,1,09,0.8,10.2,M,-34.9,M,,*6C
$PYRTM,2024,122.334863047998,13.444510458148
$GPGGA,080210.00,3330.0077,N,11932.9078,W,1,09,0.8,9.7,M,-34.9,M,,*54
$PYRTM,2024,122.334874164595,13.444521574745
$GPGGA,080211.00,3330.0087,N,11932.9105,W,1,09,0.8,9.1,M,-34.9,M,,*57
$PYRTM,2024,122.334885270706,13.444532680845
$GPGGA,080212.00,3330.0093,N,11932.9128,W,1,09,0.8,8.0,M,-34.9,M,,*5E
$PYRTM,2024,122.334896389630,13.444543799769
$GPGGA,080213.00,3330.0098,N,11932.9150,W,1,09,0.8,8.9,M,-34.9,M,,*52
$PYRTM,2024,122.334907613218,13.444555023356
$GPGGA,080214.00,3330.0106,N,11932.9174,W,1,09,0.8,9.2,M,-34.9,M,,*5F
$PYRTM,2024,122.334918712384,13.444566122523
$GPGGA,080215.00,3330.0115,N,11932.9198,W,1,09,0.8,8.0,M,-34.9,M,,*5D
$PYRTM,2024,122.334928433657,13.444575843796
$GPGGA,080216.00,3330.0122,N,11932.9220,W,1,09,0.8,8.2,M,-34.9,M,,*58
$PYRTM,2024,122.334939544086,13.444586954236
$GPGGA,080217.00,3330.0128,N,11932.9242,W,1,09,0.8,10.5,M,-34.9,M,,*69
$PYRTM,2024,122.334952276968,13.444599687106
$GPGGA,080218.00,3330.0135,N,11932.9263,W,1,09,0.8,10.4,M,-34.9,M,,*68
$PYRTM,2024,122.334963387569,13.444610797708
$GPGGA,080219.00,3330.0145,N,11932.9285,W,1,09,0.8,12.2,M,-34.9,M,,*62
$PYRTM,2024,122.334974499005,13.444621909144
$GPGGA,080220.00,3330.0153,N,11932.9309,W,1,09,0.8,11.5,M,-34.9,M,,*6E
$PYRTM,2024,122.334984684653,13.444632094792
$GPGGA,080221.00,3330.0157,N,11932.9333,W,1,09,0.8,9.8,M,-34.9,M,,*56
$PYRTM,2024,122.334997429248,13.444644839387
$GPGGA,080222.00,3330.0162,N,11932.9361,W,1,09,0.8,10.0,M,-34.9,M,,*64
$PYRTM,2024,122.335008988727,13.444656398866
$GPGGA,080223.00,3330.0171,N,11932.9390,W,1,09,0.8,8.6,M,-34.9,M,,*56
$PYRTM,2024,122.335020577882,13.444667988021
$GPGGA,080224.00,3330.0180,N,11932.9412,W,1,09,0.8,9.2,M,-34.9,M,,*57
$PYRTM,2024,122.335032136493,13.444679546632
$GPGGA,080225.00,3330.0189,N,11932.9431,W,1,09,0.8,9.8,M,-34.9,M,,*54
$PYRTM,2024,122.335043724572,13.444691134722
$GPGGA,080226.00,3330.0198,N,11932.9457,W,1,09,0.8,6.4,M,-34.9,M,,*54
$PYRTM,2024,122.335055285845,13.444702695984
$GPGGA,080227.00,3330.0206,N,11932.9487,W,1,09,0.8,7.5,M,-34.9,M,,*5C
$PYRTM,2024,122.335066873808,13.444714283947
$GPGGA,080228.00,3330.0213,N,11932.9509,W,1,09,0.8,7.0,M,-34.9,M,,*55
$PYRTM,2024,122.335078432801,13.444725842940
$GPGGA,080229.00,3330.0220,N,11932.9525,W,1,09,0.8,6.6,M,-34.9,M,,*5D
$PYRTM,2024,122.335090016632,13.444737426771
$GPGGA,080230.00,3330.0230,N,11932.9544,W,1,09,0.8,8.4,M,-34.9,M,,*5F
$PYRTM,2024,122.335101581921,13.444748992060
$GPGGA,080231.00,3330.0241,N,11932.9570,W,1,09,0.8,5.3,M,-34.9,M,,*55
$PYRTM,2024,122.335113164734,13.444760574873
$GPGGA,080232.00,3330.0248,N,11932.9597,W,1,09,0.8,4.9,M,-34.9,M,,*5D
$PYRTM,2024,122.335124729711,13.444772139850
$GPGGA,080233.00,3330.0252,N,11932.9620,W,1,09,0.8,5.2,M,-34.9,M,,*52
$PYRTM,2024,122.335136315556,13.444783725694
$GPGGA,080234.00,3330.0259,N,11932.9643,W,1,09,0.8,5.3,M,-34.9,M,,*5A
$PYRTM,2024,122.335147878634,13.444795288785
$GPGGA,080235.00,3330.0269,N,11932.9665,W,1,09,0.8,5.3,M,-34.9,M,,*5C
$PYRTM,2024,122.335159467350,13.444806877488
$GPGGA,080236.00,3330.0279,N,11932.9685,W,1,09,0.8,6.0,M,-34.9,M,,*50
$PYRTM,2024,122.335171026829,13.444818436979
$GPGGA,080237.00,3330.0284,N,11932.9708,W,1,09,0.8,2.3,M,-34.9,M,,*50
$PYRTM,2024,122.335182614931,13.444830025069
$GPGGA,080238.00,3330.0289,N,11932.9735,W,1,09,0.8,5.0,M,-34.9,M,,*58
$PYRTM,2024,122.335194174907,13.444841585046
$GPGGA,080239.00,3330.0296,N,11932.9762,W,1,09,0.8,6.0,M,-34.9,M,,*56
$PYRTM,2024,122.335205764225,13.444853174363
$GPGGA,080240.00,3330.0303,N,11932.9785,W,1,09,0.8,9.0,M,-34.9,M,,*53
$PYRTM,2024,122.335217323912,13.444864734063
$GPGGA,080241.00,3330.0311,N,11932.9806,W,1,09,0.8,9.8,M,-34.9,M,,*5D
$PYRTM,2024,122.335228911528,13.444876321667
$GPGGA,080242.00,3330.0321,N,11932.9831,W,1,09,0.8,11.9,M,-34.9,M,,*61
$PYRTM,2024,122.335240471539,13.444887881678
$GPGGA,080243.00,3330.0330,N,11932.9860,W,1,09,0.8,9.5,M,-34.9,M,,*51
$PYRTM,2024,122.335252063299,13.444899473437
$GPGGA,080244.00,3330.0336,N,11932.9890,W,1,09,0.8,8.6,M,-34.9,M,,*5D
$PYRTM,2024,122.335263619653,13.444911029803
$GPGGA,080245.00,3330.0340,N,11932.9912,W,1,09,0.8,10.1,M,-34.9,M,,*68
$PYRTM,2024,122.335274282083,13.444921692222
$GPGGA,080246.00,3330.0349,N,11932.9930,W,1,09,0.8,10.1,M,-34.9,M,,*62
$PYRTM,2024,122.335285727292,13.444933137431
$GPGGA,080247.00,3330.0361,N,11932.9952,W,1,09,0.8,10.3,M,-34.9,M,,*6F
$PYRTM,2024,122.335298690926,13.444946101065
$GPGGA,080248.00,3330.0372,N,11932.9977,W,1,09,0.8,9.7,M,-34.9,M,,*59
$PYRTM,2024,122.335309916319,13.444957326458
$GPGGA,080249.00,3330.0377,N,11933.0002,W,1,09,0.8,10.8,M,-34.9,M,,*69
$PYRTM,2024,122.335321504549,13.444968914687
$GPGGA,080250.00,3330.0381,N,11933.0025,W,1,09,0.8,10.5,M,-34.9,M,,*60
$PYRTM,2024,122.335333063727,13.444980473866
$GPGGA,080251.00,3330.0389,N,11933.0047,W,1,09,0.8,10.3,M,-34.9,M,,*6B
$PYRTM,2024,122.335344652002,13.444992062141
$GPGGA,080252.00,3330.0401,N,11933.0072,W,1,09,0.8,8.9,M,-34.9,M,,*5A
$PYRTM,2024,122.335356213692,13.445003623831
$GPGGA,080253.00,3330.0410,N,11933.0095,W,1,09,0.8,9.6,M,-34.9,M,,*5C
$PYRTM,2024,122.335367801678,13.445015211817
$GPGGA,080254.00,3330.0416,N,11933.0117,W,1,09,0.8,10.7,M,-34.9,M,,*6F
$PYRTM,2024,122.335379361898,13.445026772037
$GPGGA,080255.00,3330.0421,N,11933.0143,W,1,09,0.8,12.1,M,-34.9,M,,*6F
$PYRTM,2024,122.335390949884,13.445038360035
$GPGGA,080256.00,3330.0428,N,11933.0171,W,1,09,0.8,11.1,M,-34.9,M,,*67
$PYRTM,2024,122.335402508565,13.445049918715
$GPGGA,080257.00,3330.0435,N,11933.0196,W,1,09,0.8,10.9,M,-34.9,M,,*6A
$PYRTM,2024,122.335414099306,13.445061509444
$GPGGA,080258.00,3330.0441,N,11933.0216,W,1,09,0.8,11.8,M,-34.9,M,,*6D
$PYRTM,2024,122.335425656863,13.445073067002
$GPGGA,080259.00,3330.0448,N,11933.0237,W,1,09,0.8,10.2,M,-34.9,M,,*6D
$PYRTM,2024,122.335437245289,13.445084655428
$GPGGA,080300.00,3330.0457,N,11933.0263,W,1,09,0.8,7.3,M,-34.9,M,,*58
$PYRTM,2024,122.335448806169,13.445096216308
$GPGGA,080301.00,3330.0464,N,11933.0291,W,1,09,0.8,7.7,M,-34.9,M,,*50
$PYRTM,2024,122.335460390648,13.445107800787
$GPGGA,080302.00,3330.0467,N,11933.0314,W,1,09,0.8,9.6,M,-34.9,M,,*53
$PYRTM,2024,122.335471952755,13.445119362882
$GPGGA,080303.00,3330.0473,N,11933.0334,W,1,09,0.8,10.8,M,-34.9,M,,*63
$PYRTM,2024,122.335483541620,13.445130951759
$GPGGA,080304.00,3330.0485,N,11933.0357,W,1,09,0.8,10.2,M,-34.9,M,,*62
$PYRTM,2024,122.335495102049,13.445142512188
$GPGGA,080305.00,3330.0496,N,11933.0382,W,1,09,0.8,9.9,M,-34.9,M,,*5A
$PYRTM,2024,122.335506691366,13.445154101505
$GPGGA,080306.00,3330.0503,N,11933.0407,W,1,09,0.8,10.0,M,-34.9,M,,*6F
$PYRTM,2024,122.335518254595,13.445165664734
$GPGGA,080307.00,3330.0507,N,11933.0431,W,1,09,0.8,11.2,M,-34.9,M,,*6C
$PYRTM,2024,122.335529837917,13.445177248056
$GPGGA,080308.00,3330.0513,N,11933.0456,W,1,09,0.8,10.8,M,-34.9,M,,*6C
$PYRTM,2024,122.335541398738,13.445188808877
$GPGGA,080309.00,3330.0523,N,11933.0482,W,1,09,0.8,9.3,M,-34.9,M,,*54
$PYRTM,2024,122.335552986933,13.445200397072
$GPGGA,080310.00,3330.0533,N,11933.0505,W,1,09,0.8,9.2,M,-34.9,M,,*52
$PYRTM,2024,122.335564547153,13.445211957292
$GPGGA,080311.00,3330.0541,N,11933.0524,W,1,09,0.8,8.3,M,-34.9,M,,*55
$PYRTM,2024,122.335576137095,13.445223547234
$GPGGA,080312.00,3330.0548,N,11933.0544,W,1,09,0.8,7.5,M,-34.9,M,,*50
$PYRTM,2024,122.335587696157,13.445235106308
$GPGGA,080313.00,3330.0555,N,11933.0571,W,1,09,0.8,7.3,M,-34.9,M,,*5D
$PYRTM,2024,122.335599283750,13.445246693889
$GPGGA,080314.00,3330.0563,N,11933.0600,W,1,09,0.8,6.7,M,-34.9,M,,*5F
$PYRTM,2024,122.335610843287,13.445258253426
$GPGGA,080315.00,3330.0570,N,11933.0621,W,1,09,0.8,5.4,M,-34.9,M,,*5F
$PYRTM,2024,122.335621028947,13.445268439086
$GPGGA,080316.00,3330.0578,N,11933.0639,W,1,09,0.8,4.2,M,-34.9,M,,*5A
$PYRTM,2024,122.335632952176,13.445280362315
$GPGGA,080317.00,3330.0589,N,11933.0665,W,1,09,0.8,5.6,M,-34.9,M,,*59
$PYRTM,2024,122.335646030104,13.445293440243
$GPGGA,080318.00,3330.0598,N,11933.0695,W,1,09,0.8,5.0,M,-34.9,M,,*5F
$PYRTM,2024,122.335657617917,13.445305028067
$GPGGA,080319.00,3330.0603,N,11933.0721,W,1,09,0.8,5.0,M,-34.9,M,,*51
$PYRTM,2024,122.335669310394,13.445316720532
$GPGGA,080320.00,3330.0607,N,11933.0738,W,1,09,0.8,7.2,M,-34.9,M,,*57
$PYRTM,2024,122.335680880752,13.445328290891
$GPGGA,080321.00,3330.0617,N,11933.0756,W,1,09,0.8,9.3,M,-34.9,M,,*50
$PYRTM,2024,122.335692456181,13.445339866331
$GPGGA,080322.00,3330.0629,N,11933.0778,W,1,09,0.8,8.6,M,-34.9,M,,*56
$PYRTM,2024,122.335704029988,13.445351440127
$GPGGA,080323.00,3330.0636,N,11933.0802,W,1,09,0.8,7.9,M,-34.9,M,,*5B
$PYRTM,2024,122.335715605000,13.445363015139
$GPGGA,080324.00,3330.0641,N,11933.0827,W,1,09,0.8,7.9,M,-34.9,M,,*5B
$PYRTM,2024,122.335727177211,13.445374587350
$GPGGA,080325.00,3330.0649,N,11933.0850,W,1,09,0.8,8.5,M,-34.9,M,,*51
$PYRTM,2024,122.335738752072,13.445386162211
$GPGGA,080326.00,3330.0659,N,11933.0873,W,1,09,0.8,10.1,M,-34.9,M,,*6F
$PYRTM,2024,122.335750325822,13.445397735961
$GPGGA,080327.00,3330.0668,N,11933.0895,W,1,09,0.8,9.8,M,-34.9,M,,*55
$PYRTM,2024,122.335761895799,13.445409305938
$GPGGA,080328.00,3330.0673,N,11933.0918,W,1,09,0.8,11.5,M,-34.9,M,,*60
$PYRTM,2024,122.335773474537,13.445420884676
$GPGGA,080329.00,3330.0679,N,11933.0943,W,1,09,0.8,11.9,M,-34.9,M,,*69
$PYRTM,2024,122.335785051771,13.445432461921
$GPGGA,080330.00,3330.0687,N,11933.0966,W,1,09,0.8,10.9,M,-34.9,M,,*66
$PYRTM,2024,122.335803677407,13.445451087546
$GPGGA,080331.00,3330.0694,N,11933.0988,W,1,09,0.8,9.9,M,-34.9,M,,*5D
$PYRTM,2024,122.335814677674,13.445462087813
$GPGGA,080332.00,3330.0699,N,11933.1013,W,1,09,0.8,9.1,M,-34.9,M,,*51
$PYRTM,2024,122.335825430197,13.445472840336
$GPGGA,080333.00,3330.0706,N,11933.1040,W,1,09,0.8,11.5,M,-34.9,M,,*6C
$PYRTM,2024,122.335836541782,13.445483951921
$GPGGA,080334.00,3330.0714,N,11933.1064,W,1,09,0.8,9.7,M,-34.9,M,,*55
$PYRTM,2024,122.335847654907,13.445495065046
$GPGGA,080335.00,3330.0721,N,11933.1085,W,1,09,0.8,11.2,M,-34.9,M,,*61
$PYRTM,2024,122.335859242824,13.445506652963
$GPGGA,080336.00,3330.0728,N,11933.1109,W,1,09,0.8,11.8,M,-34.9,M,,*64
$PYRTM,2024,122.335870350914,13.445517761053
$GPGGA,080337.00,3330.0736,N,11933.1138,W,1,09,0.8,11.0,M,-34.9,M,,*60
$PYRTM,2024,122.335881577465,13.445528987604
$GPGGA,080338.00,3330.0744,N,11933.1163,W,1,09,0.8,12.8,M,-34.9,M,,*6F
$PYRTM,2024,122.335892688102,13.445540098241
$GPGGA,080339.00,3330.0752,N,11933.1183,W,1,09,0.8,13.3,M,-34.9,M,,*6D
$PYRTM,2024,122.335903794306,13.445551204456
$GPGGA,080340.00,3330.0761,N,11933.1204,W,1,09,0.8,13.4,M,-34.9,M,,*68
$PYRTM,2024,122.335914913449,13.445562323588
$GPGGA,080341.00,3330.0770,N,11933.1230,W,1,09,0.8,9.4,M,-34.9,M,,*55
$PYRTM,2024,122.335926021644,13.445573431794
$GPGGA,080342.00,3330.0777,N,11933.1256,W,1,09,0.8,9.7,M,-34.9,M,,*52
$PYRTM,2024,122.335937135521,13.445584545660
$GPGGA,080343.00,3330.0783,N,11933.1276,W,1,09,0.8,10.0,M,-34.9,M,,*65
$PYRTM,2024,122.335948360405,13.445595770544
$GPGGA,080344.00,3330.0793,N,11933.1296,W,1,09,0.8,10.0,M,-34.9,M,,*6D
$PYRTM,2024,122.335959458275,13.445606868414
$GPGGA,080345.00,3330.0804,N,11933.1321,W,1,09,0.8,8.5,M,-34.9,M,,*5C
$PYRTM,2024,122.335975096829,13.445622506968
$GPGGA,080346.00,3330.0811,N,11933.1348,W,1,09,0.8,8.0,M,-34.9,M,,*51
$PYRTM,2024,122.335986208472,13.445633618623
$GPGGA,080347.00,3330.0818,N,11933.1372,W,1,09,0.8,9.2,M,-34.9,M,,*53
$PYRTM,2024,122.335997769016,13.445645179167
$GPGGA,080348.00,3330.0828,N,11933.1395,W,1,09,0.8,7.9,M,-34.9,M,,*53
$PYRTM,2024,122.336008880197,13.445656290336
$GPGGA,080349.00,3330.0840,N,11933.1417,W,1,09,0.8,8.8,M,-34.9,M,,*5F
$PYRTM,2024,122.336019992002,13.445667402141
$GPGGA,080350.00,3330.0849,N,11933.1443,W,1,09,0.8,10.0,M,-34.9,M,,*6E
$PYRTM,2024,122.336031215660,13.445678625799
$GPGGA,080351.00,3330.0857,N,11933.1473,W,1,09,0.8,9.5,M,-34.9,M,,*5E
$PYRTM,2024,122.336042328391,13.445689738530
$GPGGA,080352.00,3330.0865,N,11933.1501,W,1,09,0.8,10.0,M,-34.9,M,,*65
$PYRTM,2024,122.336053438264,13.445700848403
$GPGGA,080353.00,3330.0874,N,11933.1521,W,1,09,0.8,10.8,M,-34.9,M,,*6E
$PYRTM,2024,122.336064552593,13.445711962731
$GPGGA,080354.00,3330.0885,N,11933.1540,W,1,09,0.8,11.2,M,-34.9,M,,*6B
$PYRTM,2024,122.336075777118,13.445723187257
$GPGGA,080355.00,3330.0895,N,11933.1564,W,1,09,0.8,10.0,M,-34.9,M,,*6E
$PYRTM,2024,122.336086889456,13.445734299595
$GPGGA,080356.00,3330.0903,N,11933.1591,W,1,09,0.8,8.6,M,-34.9,M,,*56
$PYRTM,2024,122.336098000266,13.445745410417
$GPGGA,080357.00,3330.0909,N,11933.1615,W,1,09,0.8,7.5,M,-34.9,M,,*5E
$PYRTM,2024,122.336109111748,13.445756521887
$GPGGA,080358.00,3330.0915,N,11933.1637,W,1,09,0.8,6.2,M,-34.9,M,,*5A
$PYRTM,2024,122.336120220683,13.445767630822
$GPGGA,080359.00,3330.0924,N,11933.1659,W,1,09,0.8,4.6,M,-34.9,M,,*57
$PYRTM,2024,122.336131697454,13.445779107604
$GPGGA,080400.00,3330.0936,N,11933.1683,W,1,09,0.8,10.1,M,-34.9,M,,*6A
$PYRTM,2024,122.336143258044,13.445790668183
$GPGGA,080401.00,3330.0945,N,11933.1710,W,1,09,0.8,7.5,M,-34.9,M,,*56
$PYRTM,2024,122.336154845833,13.445802255972
$GPGGA,080402.00,3330.0950,N,11933.1737,W,1,09,0.8,6.5,M,-34.9,M,,*55
$PYRTM,2024,122.336166404259,13.445813814398
$GPGGA,080403.00,3330.0955,N,11933.1762,W,1,09,0.8,9.2,M,-34.9,M,,*59
$PYRTM,2024,122.336177990764,13.445825400903
$GPGGA,080404.00,3330.0964,N,11933.1786,W,1,09,0.8,12.2,M,-34.9,M,,*6C
$PYRTM,2024,122.336189552465,13.445836962604
$GPGGA,080405.00,3330.0974,N,11933.1810,W,1,09,0.8,8.7,M,-34.9,M,,*52
$PYRTM,2024,122.336201135880,13.445848546019
$GPGGA,080406.00,3330.0984,N,11933.1836,W,1,09,0.8,8.5,M,-34.9,M,,*58
$PYRTM,2024,122.336212700208,13.445860110347
$GPGGA,080407.00,3330.0992,N,11933.1861,W,1,09,0.8,8.3,M,-34.9,M,,*5A
$PYRTM,2024,122.336224287975,13.445871698113
$GPGGA,080408.00,3330.0997,N,11933.1886,W,1,09,0.8,10.9,M,-34.9,M,,*6A
$PYRTM,2024,122.336235848715,13.445883258854
$GPGGA,080409.00,3330.1005,N,11933.1913,W,1,09,0.8,9.1,M,-34.9,M,,*55
$PYRTM,2024,122.336247430266,13.445894840405
$GPGGA,080410.00,3330.1016,N,11933.1944,W,1,09,0.8,7.7,M,-34.9,M,,*55
$PYRTM,2024,122.336258998102,13.445906408241
$GPGGA,080411.00,3330.1026,N,11933.1968,W,1,09,0.8,7.9,M,-34.9,M,,*57
$PYRTM,2024,122.336270579063,13.445917989201
$GPGGA,080412.00,3330.1033,N,11933.1988,W,1,09,0.8,7.1,M,-34.9,M,,*56
$PYRTM,2024,122.336282145984,13.445929556123
$GPGGA,080413.00,3330.1040,N,11933.2012,W,1,09,0.8,7.2,M,-34.9,M,,*59
$PYRTM,2024,122.336293732106,13.445941142245
$GPGGA,080414.00,3330.1049,N,11933.2042,W,1,09,0.8,8.5,M,-34.9,M,,*5A
$PYRTM,2024,122.336305292731,13.445952702870
$GPGGA,080415.00,3330.1055,N,11933.2068,W,1,09,0.8,8.5,M,-34.9,M,,*5E
$PYRTM,2024,122.336315478565,13.445962888704
$GPGGA,080416.00,3330.1061,N,11933.2088,W,1,09,0.8,10.4,M,-34.9,M,,*6C
$PYRTM,2024,122.336327399259,13.445974809398
$GPGGA,080417.00,3330.1070,N,11933.2109,W,1,09,0.8,10.5,M,-34.9,M,,*64
$PYRTM,2024,122.336340247789,13.445987657928
$GPGGA,080418.00,3330.1081,N,11933.2136,W,1,09,0.8,10.3,M,-34.9,M,,*6F
$PYRTM,2024,122.336351590556,13.445999000694
$GPGGA,080419.00,3330.1088,N,11933.2162,W,1,09,0.8,10.7,M,-34.9,M,,*62
$PYRTM,2024,122.336363176516,13.446010586655
$GPGGA,080420.00,3330.1093,N,11933.2185,W,1,09,0.8,10.1,M,-34.9,M,,*6D
$PYRTM,2024,122.336374739757,13.446022149907
$GPGGA,080421.00,3330.1099,N,11933.2207,W,1,09,0.8,10.3,M,-34.9,M,,*6D
$PYRTM,2024,122.336386320428,13.446033730567
$GPGGA,080422.00,3330.1110,N,11933.2232,W,1,09,0.8,9.0,M,-34.9,M,,*53
$PYRTM,2024,122.336397886829,13.446045296968
$GPGGA,080423.00,3330.1120,N,11933.2256,W,1,09,0.8,8.9,M,-34.9,M,,*5B
$PYRTM,2024,122.336409476447,13.446056886586
$GPGGA,080424.00,3330.1128,N,11933.2278,W,1,09,0.8,7.2,M,-34.9,M,,*5C
$PYRTM,2024,122.336421037870,13.446068448021
$GPGGA,080425.00,3330.1132,N,11933.2300,W,1,09,0.8,7.5,M,-34.9,M,,*5F
$PYRTM,2024,122.336432621725,13.446080031863
$GPGGA,080426.00,3330.1138,N,11933.2324,W,1,09,0.8,8.5,M,-34.9,M,,*5F
$PYRTM,2024,122.336444184190,13.446091594340
$GPGGA,080427.00,3330.1145,N,11933.2348,W,1,09,0.8,10.3,M,-34.9,M,,*61
$PYRTM,2024,122.336455771215,13.446103181354
$GPGGA,080428.00,3330.1153,N,11933.2371,W,1,09,0.8,9.3,M,-34.9,M,,*5B
$PYRTM,2024,122.336467331609,13.446114741759
$GPGGA,080429.00,3330.1163,N,11933.2394,W,1,09,0.8,7.8,M,-34.9,M,,*57
$PYRTM,2024,122.336478922454,13.446126332593
$GPGGA,080430.00,3330.1171,N,11933.2421,W,1,09,0.8,6.7,M,-34.9,M,,*5B
$PYRTM,2024,122.336490480613,13.446137890752
$GPGGA,080431.00,3330.1176,N,11933.2448,W,1,09,0.8,8.9,M,-34.9,M,,*52
$PYRTM,2024,122.336502080347,13.446149490486
$GPGGA,080432.00,3330.1182,N,11933.2471,W,1,09,0.8,9.1,M,-34.9,M,,*59
$PYRTM,2024,122.336513628021,13.446161038160
$GPGGA,080433.00,3330.1190,N,11933.2495,W,1,09,0.8,9.3,M,-34.9,M,,*53
$PYRTM,2024,122.336525209815,13.446172619954
$GPGGA,080434.00,3330.1199,N,11933.2519,W,1,09,0.8,7.7,M,-34.9,M,,*52
$PYRTM,2024,122.336536778924,13.446184189062
$GPGGA,080435.00,3330.1205,N,11933.2542,W,1,09,0.8,7.8,M,-34.9,M,,*54
$PYRTM,2024,122.336548364502,13.446195774653
$GPGGA,080436.00,3330.1210,N,11933.2564,W,1,09,0.8,9.2,M,-34.9,M,,*53
$PYRTM,2024,122.336559924144,13.446207334282
$GPGGA,080437.00,3330.1215,N,11933.2590,W,1,09,0.8,6.2,M,-34.9,M,,*53
$PYRTM,2024,122.336571512824,13.446218922963
$GPGGA,080438.00,3330.1225,N,11933.2619,W,1,09,0.8,5.6,M,-34.9,M,,*5A
$PYRTM,2024,122.336583075023,13.446230485162
$GPGGA,080439.00,3330.1235,N,11933.2646,W,1,09,0.8,5.8,M,-34.9,M,,*5E
$PYRTM,2024,122.336594661285,13.446242071424
$GPGGA,080440.00,3330.1243,N,11933.2670,W,1,09,0.8,5.1,M,-34.9,M,,*5D
$PYRTM,2024,122.336606223090,13.446253633241
$GPGGA,080441.00,3330.1251,N,11933.2694,W,1,09,0.8,7.7,M,-34.9,M,,*51
$PYRTM,2024,122.336617807847,13.446265217986
$GPGGA,080442.00,3330.1258,N,11933.2718,W,1,09,0.8,8.4,M,-34.9,M,,*52
$PYRTM,2024,122.336629369271,13.446276779410
$GPGGA,080443.00,3330.1265,N,11933.2744,W,1,09,0.8,10.3,M,-34.9,M,,*6A
$PYRTM,2024,122.336640960359,13.446288370498
$GPGGA,080444.00,3330.1274,N,11933.2771,W,1,09,0.8,9.6,M,-34.9,M,,*56
$PYRTM,2024,122.336652519005,13.446299929144
$GPGGA,080445.00,3330.1283,N,11933.2798,W,1,09,0.8,7.4,M,-34.9,M,,*54
$PYRTM,2024,122.336662704178,13.446310114317
$GPGGA,080446.00,3330.1289,N,11933.2823,W,1,09,0.8,7.5,M,-34.9,M,,*53
$PYRTM,2024,122.336674521481,13.446321931620
$GPGGA,080447.00,3330.1296,N,11933.2850,W,1,09,0.8,5.0,M,-34.9,M,,*5F
$PYRTM,2024,122.336687247778,13.446334657928
$GPGGA,080448.00,3330.1305,N,11933.2878,W,1,09,0.8,5.2,M,-34.9,M,,*53
$PYRTM,2024,122.336698814896,13.446346225035
$GPGGA,080449.00,3330.1313,N,11933.2904,W,1,09,0.8,8.0,M,-34.9,M,,*50
$PYRTM,2024,122.336710401852,13.446357811991
$GPGGA,080450.00,3330.1320,N,11933.2929,W,1,09,0.8,10.1,M,-34.9,M,,*6F
$PYRTM,2024,122.336721962188,13.446369372338
$GPGGA,080451.00,3330.1327,N,11933.2955,W,1,09,0.8,10.2,M,-34.9,M,,*61
$PYRTM,2024,122.336733552257,13.446380962396
$GPGGA,080452.00,3330.1334,N,11933.2981,W,1,09,0.8,10.6,M,-34.9,M,,*6D
$PYRTM,2024,122.336745112188,13.446392522326
$GPGGA,080453.00,3330.1342,N,11933.3004,W,1,09,0.8,10.3,M,-34.9,M,,*6D
$PYRTM,2024,122.336756697234,13.446404107373
$GPGGA,080454.00,3330.1351,N,11933.3030,W,1,09,0.8,9.3,M,-34.9,M,,*57
$PYRTM,2024,122.336768258241,13.446415668380
$GPGGA,080455.00,3330.1359,N,11933.3056,W,1,09,0.8,6.5,M,-34.9,M,,*57
$PYRTM,2024,122.336779840856,13.446427250995
$GPGGA,080456.00,3330.1365,N,11933.3079,W,1,09,0.8,8.6,M,-34.9,M,,*5B
$PYRTM,2024,122.336791408252,13.446438818391
$GPGGA,080457.00,3330.1372,N,11933.3102,W,1,09,0.8,8.7,M,-34.9,M,,*50
$PYRTM,2024,122.336802995799,13.446450405938
$GPGGA,080458.00,3330.1380,N,11933.3129,W,1,09,0.8,10.4,M,-34.9,M,,*61
$PYRTM,2024,122.336814555787,13.446461965926
$GPGGA,080459.00,3330.1389,N,11933.3153,W,1,09,0.8,9.7,M,-34.9,M,,*5F
$PYRTM,2024,122.336826145613,13.446473555752
$GPGGA,080500.00,3330.1398,N,11933.3173,W,1,09,0.8,7.0,M,-34.9,M,,*59
$PYRTM,2024,122.336837704039,13.446485114178
$GPGGA,080501.00,3330.1405,N,11933.3196,W,1,09,0.8,7.1,M,-34.9,M,,*51
$PYRTM,2024,122.336849293715,13.446496703866
$GPGGA,080502.00,3330.1411,N,11933.3222,W,1,09,0.8,7.3,M,-34.9,M,,*59
$PYRTM,2024,122.336860852407,13.446508262546
$GPGGA,080503.00,3330.1418,N,11933.3245,W,1,09,0.8,7.8,M,-34.9,M,,*5B
$PYRTM,2024,122.336872433831,13.446519843970
$GPGGA,080504.00,3330.1427,N,11933.3268,W,1,09,0.8,8.6,M,-34.9,M,,*5E
$PYRTM,2024,122.336884001146,13.446531411285
$GPGGA,080505.00,3330.1437,N,11933.3292,W,1,09,0.8,10.6,M,-34.9,M,,*62
$PYRTM,2024,122.336895582234,13.446542992373
$GPGGA,080506.00,3330.1445,N,11933.3319,W,1,09,0.8,10.5,M,-34.9,M,,*65
$PYRTM,2024,122.336907149178,13.446554559317
$GPGGA,080507.00,3330.1450,N,11933.3345,W,1,09,0.8,11.5,M,-34.9,M,,*68
$PYRTM,2024,122.336918738275,13.446566148414
$GPGGA,080508.00,3330.1456,N,11933.3369,W,1,09,0.8,9.8,M,-34.9,M,,*5B
$PYRTM,2024,122.336930297546,13.446577707685
$GPGGA,080509.00,3330.1464,N,11933.3392,W,1,09,0.8,11.1,M,-34.9,M,,*6F
$PYRTM,2024,122.336941885602,13.446589295741
$GPGGA,080510.00,3330.1475,N,11933.3418,W,1,09,0.8,10.3,M,-34.9,M,,*61
$PYRTM,2024,122.336953446424,13.446600856563
$GPGGA,080511.00,3330.1485,N,11933.3445,W,1,09,0.8,9.2,M,-34.9,M,,*5E
$PYRTM,2024,122.336965035208,13.446612445347
$GPGGA,080512.00,3330.1492,N,11933.3472,W,1,09,0.8,10.1,M,-34.9,M,,*64
$PYRTM,2024,122.336976595926,13.446624006065
$GPGGA,080513.00,3330.1496,N,11933.3497,W,1,09,0.8,10.0,M,-34.9,M,,*6B
$PYRTM,2024,122.336988184549,13.446635594687
$GPGGA,080514.00,3330.1503,N,11933.3521,W,1,09,0.8,12.5,M,-34.9,M,,*6A
$PYRTM,2024,122.336999742431,13.446647152569
$GPGGA,080515.00,3330.1513,N,11933.3548,W,1,09,0.8,13.4,M,-34.9,M,,*65
$PYRTM,2024,122.337010409120,13.446657819271
$GPGGA,080516.00,3330.1524,N,11933.3575,W,1,09,0.8,11.5,M,-34.9,M,,*6F
$PYRTM,2024,122.337021745463,13.446669155602
$GPGGA,080517.00,3330.1530,N,11933.3602,W,1,09,1.0,11.1,M,-34.9,M,,*65
$PYRTM,2024,122.337034926505,13.446682336655
$GPGGA,080518.00,3330.1534,N,11933.3626,W,1,09,0.8,11.3,M,-34.9,M,,*63
$PYRTM,2024,122.337046631065,13.446694041204
$GPGGA,080519.00,3330.1542,N,11933.3651,W,1,09,1.0,11.5,M,-34.9,M,,*6C
$PYRTM,2024,122.337058076574,13.446705486713
$GPGGA,080520.00,3330.1553,N,11933.3677,W,1,09,1.0,9.6,M,-34.9,M,,*58
$PYRTM,2024,122.337069665995,13.446717076134
$GPGGA,080521.00,3330.1564,N,11933.3702,W,1,09,1.0,9.6,M,-34.9,M,,*5E
$PYRTM,2024,122.337081223750,13.446728633889
$GPGGA,080522.00,3330.1572,N,11933.3728,W,1,09,1.0,9.2,M,-34.9,M,,*56
$PYRTM,2024,122.337092921690,13.446740331829
$GPGGA,080523.00,3330.1577,N,11933.3753,W,1,09,1.0,11.9,M,-34.9,M,,*6C
$PYRTM,2024,122.337104488032,13.446751898171
$GPGGA,080524.00,3330.1584,N,11933.3777,W,1,09,1.0,13.3,M,-34.9,M,,*69
$PYRTM,2024,122.337116074965,13.446763485104
$GPGGA,080525.00,3330.1595,N,11933.3801,W,1,09,1.0,10.9,M,-34.9,M,,*6F
$PYRTM,2024,122.337127519988,13.446774930127
$GPGGA,080526.00,3330.1606,N,11933.3826,W,1,09,1.0,9.7,M,-34.9,M,,*56
$PYRTM,2024,122.337139222905,13.446786633044
$GPGGA,080527.00,3330.1612,N,11933.3850,W,1,09,1.0,9.5,M,-34.9,M,,*51
$PYRTM,2024,122.337150782326,13.446798192465
$GPGGA,080528.00,3330.1618,N,11933.3877,W,1,09,1.0,11.2,M,-34.9,M,,*6F
$PYRTM,2024,122.337162372141,13.446809782280
$GPGGA,080529.00,3330.1626,N,11933.3904,W,1,09,1.0,11.8,M,-34.9,M,,*6C
$PYRTM,2024,122.337173931875,13.446821342014
$GPGGA,080530.00,3330.1635,N,11933.3925,W,1,09,1.0,11.5,M,-34.9,M,,*68
$PYRTM,2024,122.337185519699,13.446832929838
$GPGGA,080531.00,3330.1646,N,11933.3949,W,1,09,1.0,10.6,M,-34.9,M,,*65
$PYRTM,2024,122.337197083206,13.446844493345
$GPGGA,080532.00,3330.1655,N,11933.3976,W,1,09,1.0,8.6,M,-34.9,M,,*51
$PYRTM,2024,122.337208668611,13.446856078750
$GPGGA,080533.00,3330.1659,N,11933.4000,W,1,09,1.0,11.0,M,-34.9,M,,*6D
$PYRTM,2024,122.337220228472,13.446867638611
$GPGGA,080534.00,3330.1663,N,11933.4023,W,1,09,1.0,12.0,M,-34.9,M,,*61
$PYRTM,2024,122.337237819931,13.446885230069
$GPGGA,080535.00,3330.1673,N,11933.4050,W,1,09,1.0,10.8,M,-34.9,M,,*6F
$PYRTM,2024,122.337248816863,13.446896227002
$GPGGA,080536.00,3330.1683,N,11933.4075,W,1,09,1.0,11.9,M,-34.9,M,,*64
$PYRTM,2024,122.337258670637,13.446906080775
$GPGGA,080537.00,3330.1689,N,11933.4097,W,1,09,1.0,12.8,M,-34.9,M,,*61
$PYRTM,2024,122.337276378322,13.446923788461
$GPGGA,080538.00,3330.1693,N,11933.4120,W,1,09,1.0,10.9,M,-34.9,M,,*6B
$PYRTM,2024,122.337287483924,13.446934894074
$GPGGA,080539.00,3330.1699,N,11933.4147,W,1,09,1.0,8.5,M,-34.9,M,,*54
$PYRTM,2024,122.337298593623,13.446946003762
$GPGGA,080540.00,3330.1709,N,11933.4173,W,1,09,1.0,7.8,M,-34.9,M,,*57
$PYRTM,2024,122.337309704907,13.446957115058
$GPGGA,080541.00,3330.1720,N,11933.4195,W,1,09,1.0,8.1,M,-34.9,M,,*53
$PYRTM,2024,122.337320821250,13.446968231389
$GPGGA,080542.00,3330.1729,N,11933.4219,W,1,09,1.0,7.2,M,-34.9,M,,*52
$PYRTM,2024,122.337331932465,13.446979342604
$GPGGA,080543.00,3330.1734,N,11933.4246,W,1,09,1.0,7.6,M,-34.9,M,,*51
$PYRTM,2024,122.337343043657,13.446990453796
$GPGGA,080544.00,3330.1739,N,11933.4269,W,1,09,1.0,8.8,M,-34.9,M,,*57
$PYRTM,2024,122.337354155451,13.447001565590
$GPGGA,080545.00,3330.1747,N,11933.4290,W,1,09,1.0,10.5,M,-34.9,M,,*6D
$PYRTM,2024,122.337365265394,13.447012675532
$GPGGA,080546.00,3330.1756,N,11933.4314,W,1,09,0.8,10.0,M,-34.9,M,,*6F
$PYRTM,2024,122.337376371875,13.447023782014
$GPGGA,080547.00,3330.1763,N,11933.4341,W,1,09,0.8,9.9,M,-34.9,M,,*59
$PYRTM,2024,122.337387965532,13.447035375671
$GPGGA,080548.00,3330.1770,N,11933.4368,W,1,09,0.8,10.0,M,-34.9,M,,*6E
$PYRTM,2024,122.337399061933,13.447046472072
$GPGGA,080549.00,3330.1775,N,11933.4390,W,1,09,0.8,10.3,M,-34.9,M,,*6E
$PYRTM,2024,122.337410176389,13.447057586528
$GPGGA,080550.00,3330.1782,N,11933.4414,W,1,09,0.8,12.0,M,-34.9,M,,*64
$PYRTM,2024,122.337421400521,13.447068810660
$GPGGA,080551.00,3330.1793,N,11933.4442,W,1,09,0.8,10.5,M,-34.9,M,,*61
$PYRTM,2024,122.337432512269,13.447079922407
$GPGGA,080552.00,3330.1801,N,11933.4470,W,1,09,0.8,10.0,M,-34.9,M,,*62
$PYRTM,2024,122.337443625764,13.447091035903
$GPGGA,080553.00,3330.1807,N,11933.4494,W,1,09,0.8,10.7,M,-34.9,M,,*68
$PYRTM,2024,122.337454735810,13.447102145949
$GPGGA,080554.00,3330.1815,N,11933.4516,W,1,09,0.8,9.8,M,-34.9,M,,*50
$PYRTM,2024,122.337465867431,13.447113277569
$GPGGA,080555.00,3330.1825,N,11933.4539,W,1,09,0.8,9.5,M,-34.9,M,,*52
$PYRTM,2024,122.337476950556,13.447124360694
$GPGGA,080556.00,3330.1833,N,11933.4563,W,1,09,0.8,7.8,M,-34.9,M,,*5A
$PYRTM,2024,122.337488054016,13.447135464155
$GPGGA,080557.00,3330.1839,N,11933.4584,W,1,09,0.8,9.3,M,-34.9,M,,*5D
$PYRTM,2024,122.337499180440,13.447146590579
$GPGGA,080558.00,3330.1846,N,11933.4607,W,1,09,0.8,8.2,M,-34.9,M,,*52
$PYRTM,2024,122.337510277442,13.447157687581
$GPGGA,080559.00,3330.1854,N,11933.4634,W,1,09,0.8,5.9,M,-34.9,M,,*56
$PYRTM,2024,122.337521400556,13.447168810694
$GPGGA,080600.00,3330.1861,N,11933.4657,W,1,09,0.8,5.8,M,-34.9,M,,*5B
$PYRTM,2024,122.337532512361,13.447179922500
$GPGGA,080601.00,3330.1868,N,11933.4677,W,1,09,0.8,6.3,M,-34.9,M,,*59
$PYRTM,2024,122.337543747211,13.447191157350
$GPGGA,080602.00,3330.1879,N,11933.4701,W,1,09,0.8,9.2,M,-34.9,M,,*54
$PYRTM,2024,122.337555301829,13.447202711968
$GPGGA,080603.00,3330.1890,N,11933.4729,W,1,09,0.8,9.6,M,-34.9,M,,*5C
$PYRTM,2024,122.337565729873,13.447213140012
$GPGGA,080604.00,3330.1897,N,11933.4754,W,1,09,0.8,9.5,M,-34.9,M,,*55
$PYRTM,2024,122.337578447940,13.447225858079
$GPGGA,080605.00,3330.1902,N,11933.4776,W,1,09,0.8,10.6,M,-34.9,M,,*62
$PYRTM,2024,122.337590145648,13.447237555787
$GPGGA,080606.00,3330.1910,N,11933.4798,W,1,09,0.8,10.4,M,-34.9,M,,*60
$PYRTM,2024,122.337601596308,13.447249006447
$GPGGA,080607.00,3330.1922,N,11933.4825,W,1,09,0.8,7.3,M,-34.9,M,,*58
$PYRTM,2024,122.337613183611,13.447260593750
$GPGGA,080608.00,3330.1930,N,11933.4850,W,1,09,0.8,6.8,M,-34.9,M,,*5C
$PYRTM,2024,122.337624744884,13.447272155023
$GPGGA,080609.00,3330.1935,N,11933.4870,W,1,09,0.8,7.0,M,-34.9,M,,*53
$PYRTM,2024,122.337636332535,13.447283742674
$GPGGA,080610.00,3330.1940,N,11933.4891,W,1,09,0.8,6.9,M,-34.9,M,,*5E
$PYRTM,2024,122.337646748345,13.447294158484
$GPGGA,080611.00,3330.1948,N,11933.4917,W,1,09,0.8,7.1,M,-34.9,M,,*51
$PYRTM,2024,122.337659494051,13.447306904190
$GPGGA,080612.00,3330.1957,N,11933.4945,W,1,09,0.8,7.6,M,-34.9,M,,*5C
$PYRTM,2024,122.337671041296,13.447318451435
$GPGGA,080613.00,3330.1965,N,11933.4970,W,1,09,0.8,6.9,M,-34.9,M,,*54
$PYRTM,2024,122.337682645243,13.447330055394
$GPGGA,080614.00,3330.1972,N,11933.4993,W,1,09,0.8,5.0,M,-34.9,M,,*52
$PYRTM,2024,122.337694189907,13.447341600046
$GPGGA,080615.00,3330.1979,N,11933.5018,W,1,09,0.8,5.5,M,-34.9,M,,*56
$PYRTM,2024,122.337704375394,13.447351785532
$GPGGA,080616.00,3330.1987,N,11933.5043,W,1,09,0.8,7.2,M,-34.9,M,,*5F
$PYRTM,2024,122.337716194086,13.447363604225
$GPGGA,080617.00,3330.1995,N,11933.5068,W,1,09,0.8,6.8,M,-34.9,M,,*5F
$PYRTM,2024,122.337728923935,13.447376334074
$GPGGA,080618.00,3330.2004,N,11933.5094,W,1,09,0.8,7.0,M,-34.9,M,,*58
$PYRTM,2024,122.337740486563,13.447387896701
$GPGGA,080619.00,3330.2012,N,11933.5120,W,1,09,0.8,5.4,M,-34.9,M,,*56
$PYRTM,2024,122.337752073854,13.447399483993
$GPGGA,080620.00,3330.2019,N,11933.5144,W,1,09,0.8,7.5,M,-34.9,M,,*56
$PYRTM,2024,122.337763634363,13.447411044502
$GPGGA,080621.00,3330.2025,N,11933.5165,W,1,09,0.8,5.7,M,-34.9,M,,*5B
$PYRTM,2024,122.337775221400,13.447422631528
$GPGGA,080622.00,3330.2033,N,11933.5191,W,1,09,0.8,5.6,M,-34.9,M,,*55
$PYRTM,2024,122.337786782627,13.447434192766
$GPGGA,080623.00,3330.2042,N,11933.5219,W,1,09,0.8,2.5,M,-34.9,M,,*55
$PYRTM,2024,122.337798370035,13.447445780174
$GPGGA,080624.00,3330.2051,N,11933.5243,W,1,09,0.8,4.1,M,-34.9,M,,*5D
$PYRTM,2024,122.337809931285,13.447457341424
$GPGGA,080625.00,3330.2058,N,11933.5263,W,1,09,0.8,5.3,M,-34.9,M,,*54
$PYRTM,2024,122.337821521574,13.447468931713
$GPGGA,080626.00,3330.2066,N,11933.5285,W,1,09,0.8,5.3,M,-34.9,M,,*52
$PYRTM,2024,122.337833079502,13.447480489641
$GPGGA,080627.00,3330.2074,N,11933.5313,W,1,09,0.8,5.1,M,-34.9,M,,*5C
$PYRTM,2024,122.337844680532,13.447492090671
$GPGGA,080628.00,3330.2082,N,11933.5341,W,1,09,0.8,5.1,M,-34.9,M,,*5D
$PYRTM,2024,122.337856226528,13.447503636667
$GPGGA,080629.00,3330.2091,N,11933.5364,W,1,09,0.8,8.1,M,-34.9,M,,*54
$PYRTM,2024,122.337867814086,13.447515224236
$GPGGA,080630.00,3330.2099,N,11933.5384,W,1,09,0.8,7.9,M,-34.9,M,,*5D
$PYRTM,2024,122.337879375706,13.447526785845
$GPGGA,080631.00,3330.2107,N,11933.5409,W,1,09,0.8,9.8,M,-34.9,M,,*57
$PYRTM,2024,122.337890962650,13.447538372789
$GPGGA,080632.00,3330.2117,N,11933.5435,W,1,09,0.8,7.7,M,-34.9,M,,*5B
$PYRTM,2024,122.337902523113,13.447549933252
$GPGGA,080633.00,3330.2123,N,11933.5461,W,1,09,0.8,10.5,M,-34.9,M,,*68
$PYRTM,2024,122.337914110521,13.447561520660
$GPGGA,080634.00,3330.2127,N,11933.5485,W,1,09,0.8,10.2,M,-34.9,M,,*66
$PYRTM,2024,122.337925672859,13.447573083009
$GPGGA,080635.00,3330.2135,N,11933.5510,W,1,09,0.8,10.0,M,-34.9,M,,*6B
$PYRTM,2024,122.337937260822,13.447584670961
$GPGGA,080636.00,3330.2144,N,11933.5534,W,1,09,0.8,8.3,M,-34.9,M,,*52
$PYRTM,2024,122.337948820185,13.447596230324
$GPGGA,080637.00,3330.2152,N,11933.5559,W,1,09,0.8,7.2,M,-34.9,M,,*51
$PYRTM,2024,122.337960405463,13.447607815602
$GPGGA,080638.00,3330.2160,N,11933.5585,W,1,09,0.8,7.4,M,-34.9,M,,*58
$PYRTM,2024,122.337971969329,13.447619379479
$GPGGA,080639.00,3330.2167,N,11933.5611,W,1,09,0.8,8.1,M,-34.9,M,,*5A
$PYRTM,2024,122.337983555891,13.447630966030
$GPGGA,080640.00,3330.2173,N,11933.5636,W,1,09,0.8,7.4,M,-34.9,M,,*5E
$PYRTM,2024,122.337995116910,13.447642527049
$GPGGA,080641.00,3330.2180,N,11933.5659,W,1,09,0.8,9.4,M,-34.9,M,,*54
$PYRTM,2024,122.338006718993,13.447654129132
$GPGGA,080642.00,3330.2188,N,11933.5681,W,1,09,0.8,10.5,M,-34.9,M,,*63
$PYRTM,2024,122.338018264653,13.447665674792
$GPGGA,080643.00,3330.2199,N,11933.5705,W,1,09,0.8,10.4,M,-34.9,M,,*6E
$PYRTM,2024,122.338029855081,13.447677265220
$GPGGA,080644.00,3330.2207,N,11933.5735,W,1,09,0.8,8.1,M,-34.9,M,,*52
$PYRTM,2024,122.338041413495,13.447688823634
$GPGGA,080645.00,3330.2213,N,11933.5762,W,1,09,0.8,9.3,M,-34.9,M,,*57
$PYRTM,2024,122.338051599641,13.447699009780
$GPGGA,080646.00,3330.2220,N,11933.5784,W,1,09,0.8,10.5,M,-34.9,M,,*62
$PYRTM,2024,122.338063423032,13.447710833171
$GPGGA,080647.00,3330.2230,N,11933.5807,W,1,09,0.8,9.1,M,-34.9,M,,*5A
$PYRTM,2024,122.338076149016,13.447723559155
$GPGGA,080648.00,3330.2241,N,11933.5834,W,1,09,0.8,9.7,M,-34.9,M,,*55
$PYRTM,2024,122.338087710683,13.447735120822
$GPGGA,080649.00,3330.2247,N,11933.5858,W,1,09,0.8,10.0,M,-34.9,M,,*67
$PYRTM,2024,122.338099297558,13.447746707697
$GPGGA,080650.00,3330.2252,N,11933.5879,W,1,09,0.8,11.4,M,-34.9,M,,*6D
$PYRTM,2024,122.338110858484,13.447758268623
$GPGGA,080651.00,3330.2260,N,11933.5903,W,1,09,0.8,9.5,M,-34.9,M,,*59
$PYRTM,2024,122.338122441563,13.447769851701
$GPGGA,080652.00,3330.2270,N,11933.5930,W,1,09,0.8,8.0,M,-34.9,M,,*5F
$PYRTM,2024,122.338134008299,13.447781418438
$GPGGA,080653.00,3330.2277,N,11933.5956,W,1,09,0.8,6.8,M,-34.9,M,,*5F
$PYRTM,2024,122.338145598345,13.447793008484
$GPGGA,080654.00,3330.2283,N,11933.5980,W,1,09,0.8,6.9,M,-34.9,M,,*59
$PYRTM,2024,122.338157155278,13.447804565417
$GPGGA,080655.00,3330.2290,N,11933.6004,W,1,09,0.8,7.4,M,-34.9,M,,*50
$PYRTM,2024,122.338168745926,13.447816156065
$GPGGA,080656.00,3330.2300,N,11933.6029,W,1,09,0.8,11.3,M,-34.9,M,,*64
$PYRTM,2024,122.338180304479,13.447827714618
$GPGGA,080657.00,3330.2309,N,11933.6055,W,1,09,0.8,9.3,M,-34.9,M,,*5E
$PYRTM,2024,122.338191894873,13.447839305012
$GPGGA,080658.00,3330.2316,N,11933.6083,W,1,09,0.8,7.4,M,-34.9,M,,*5D
$PYRTM,2024,122.338203453530,13.447850863669
$GPGGA,080659.00,3330.2319,N,11933.6108,W,1,09,0.8,8.1,M,-34.9,M,,*5B
$PYRTM,2024,122.338215039086,13.447862449225
$GPGGA,080700.00,3330.2323,N,11933.6129,W,1,09,0.8,9.2,M,-34.9,M,,*5E
$PYRTM,2024,122.338226601690,13.447874011829
$GPGGA,080701.00,3330.2333,N,11933.6151,W,1,09,0.8,10.9,M,-34.9,M,,*62
$PYRTM,2024,122.338238182778,13.447885592917
$GPGGA,080702.00,3330.2342,N,11933.6179,W,1,09,0.8,10.2,M,-34.9,M,,*66
$PYRTM,2024,122.338249749329,13.447897159468
$GPGGA,080703.00,3330.2348,N,11933.6210,W,1,09,0.8,11.0,M,-34.9,M,,*62
$PYRTM,2024,122.338261336655,13.447908746794
$GPGGA,080704.00,3330.2351,N,11933.6236,W,1,09,0.8,9.9,M,-34.9,M,,*59
$PYRTM,2024,122.338272898507,13.447920308657
$GPGGA,080705.00,3330.2357,N,11933.6256,W,1,09,0.8,9.6,M,-34.9,M,,*57
$PYRTM,2024,122.338284478819,13.447931888958
$GPGGA,080706.00,3330.2369,N,11933.6281,W,1,09,0.8,9.4,M,-34.9,M,,*51
$PYRTM,2024,122.338296048576,13.447943458715
$GPGGA,080707.00,3330.2381,N,11933.6310,W,1,09,0.8,11.1,M,-34.9,M,,*63
$PYRTM,2024,122.338307630000,13.447955040139
$GPGGA,080708.00,3330.2387,N,11933.6336,W,1,09,0.8,10.7,M,-34.9,M,,*69
$PYRTM,2024,122.338319195208,13.447966605347
$GPGGA,080709.00,3330.2389,N,11933.6357,W,1,09,0.8,11.9,M,-34.9,M,,*6E
$PYRTM,2024,122.338330784097,13.447978194236
$GPGGA,080710.00,3330.2397,N,11933.6380,W,1,09,0.8,11.4,M,-34.9,M,,*6E
$PYRTM,2024,122.338342342847,13.447989752986
$GPGGA,080711.00,3330.2408,N,11933.6406,W,1,09,0.8,10.3,M,-34.9,M,,*61
$PYRTM,2024,122.338353946354,13.448001356493
$GPGGA,080712.00,3330.2416,N,11933.6430,W,1,09,0.8,9.1,M,-34.9,M,,*52
$PYRTM,2024,122.338365489954,13.448012900104
$GPGGA,080713.00,3330.2420,N,11933.6452,W,1,09,0.8,10.3,M,-34.9,M,,*68
$PYRTM,2024,122.338377072662,13.448024482801
$GPGGA,080714.00,3330.2424,N,11933.6474,W,1,09,0.8,9.9,M,-34.9,M,,*5D
$PYRTM,2024,122.338388638287,13.448036048426
$GPGGA,080715.00,3330.2431,N,11933.6499,W,1,09,0.8,11.2,M,-34.9,M,,*69
$PYRTM,2024,122.338398824907,13.448046235046
$GPGGA,080716.00,3330.2440,N,11933.6525,W,1,09,0.8,8.9,M,-34.9,M,,*59
$PYRTM,2024,122.338410641898,13.448058052049
$GPGGA,080717.00,3330.2447,N,11933.6550,W,1,09,0.8,8.6,M,-34.9,M,,*52
$PYRTM,2024,122.338423369340,13.448070779479
$GPGGA,080718.00,3330.2452,N,11933.6574,W,1,09,0.8,7.8,M,-34.9,M,,*5E
$PYRTM,2024,122.338434936308,13.448082346447
$GPGGA,080719.00,3330.2456,N,11933.6597,W,1,09,0.8,10.2,M,-34.9,M,,*6A
$PYRTM,2024,122.338446525231,13.448093935370
$GPGGA,080720.00,3330.2462,N,11933.6621,W,1,09,0.8,11.6,M,-34.9,M,,*6C
$PYRTM,2024,122.338458082766,13.448105492905
$GPGGA,080721.00,3330.2470,N,11933.6645,W,1,09,0.8,9.3,M,-34.9,M,,*50
$PYRTM,2024,122.338469670382,13.448117080521
$GPGGA,080722.00,3330.2477,N,11933.6673,W,1,09,0.8,7.1,M,-34.9,M,,*5D
$PYRTM,2024,122.338481230081,13.448128640220
$GPGGA,080723.00,3330.2484,N,11933.6698,W,1,09,0.8,6.7,M,-34.9,M,,*52
$PYRTM,2024,122.338492833669,13.448140243808
$GPGGA,080724.00,3330.2491,N,11933.6717,W,1,09,0.8,7.2,M,-34.9,M,,*53
$PYRTM,2024,122.338504379919,13.448151790058
$GPGGA,080725.00,3330.2498,N,11933.6737,W,1,09,0.8,6.7,M,-34.9,M,,*5D
$PYRTM,2024,122.338515970868,13.448163381007
$GPGGA,080726.00,3330.2507,N,11933.6764,W,1,09,0.8,6.1,M,-34.9,M,,*59
$PYRTM,2024,122.338527528484,13.448174938623
$GPGGA,080727.00,3330.2514,N,11933.6793,W,1,09,0.8,6.8,M,-34.9,M,,*5B
$PYRTM,2024,122.338539117188,13.448186527326
$GPGGA,080728.00,3330.2521,N,11933.6817,W,1,09,0.8,7.6,M,-34.9,M,,*5E
$PYRTM,2024,122.338550675984,13.448198086123
$GPGGA,080729.00,3330.2530,N,11933.6837,W,1,09,0.8,9.8,M,-34.9,M,,*5D
$PYRTM,2024,122.338562267199,13.448209677338
$GPGGA,080730.00,3330.2540,N,11933.6857,W,1,09,0.8,10.7,M,-34.9,M,,*63
$PYRTM,2024,122.338573825359,13.448221235498
$GPGGA,080731.00,3330.2548,N,11933.6882,W,1,09,0.8,11.8,M,-34.9,M,,*6C
$PYRTM,2024,122.338585411632,13.448232821771
$GPGGA,080732.00,3330.2555,N,11933.6910,W,1,09,0.8,7.2,M,-34.9,M,,*54
$PYRTM,2024,122.338596973368,13.448244383507
$GPGGA,080733.00,3330.2561,N,11933.6936,W,1,09,0.8,7.3,M,-34.9,M,,*57
$PYRTM,2024,122.338608561331,13.448255971470
$GPGGA,080734.00,3330.2569,N,11933.6960,W,1,09,0.8,8.5,M,-34.9,M,,*52
$PYRTM,2024,122.338620121192,13.448267531331
$GPGGA,080735.00,3330.2578,N,11933.6981,W,1,09,0.8,11.3,M,-34.9,M,,*62
$PYRTM,2024,122.338631701887,13.448279112025
$GPGGA,080736.00,3330.2589,N,11933.7005,W,1,09,0.8,11.2,M,-34.9,M,,*6A
$PYRTM,2024,122.338643269641,13.448290679780
$GPGGA,080737.00,3330.2598,N,11933.7034,W,1,09,0.8,10.7,M,-34.9,M,,*6D
$PYRTM,2024,122.338654872431,13.448302282569
$GPGGA,080738.00,3330.2604,N,11933.7064,W,1,09,0.8,9.0,M,-34.9,M,,*5E
$PYRTM,2024,122.338666418275,13.448313828414
$GPGGA,080739.00,3330.2608,N,11933.7089,W,1,09,0.8,9.2,M,-34.9,M,,*52
$PYRTM,2024,122.338677092373,13.448324502512
$GPGGA,080740.00,3330.2615,N,11933.7107,W,1,09,0.8,10.3,M,-34.9,M,,*6E
$PYRTM,2024,122.338689001296,13.448336411435
$GPGGA,080741.00,3330.2627,N,11933.7127,W,1,09,0.8,12.0,M,-34.9,M,,*6D
$PYRTM,2024,122.338699751146,13.448347161285
$GPGGA,080742.00,3330.2638,N,11933.7155,W,1,09,0.8,12.7,M,-34.9,M,,*62
$PYRTM,2024,122.338710863762,13.448358273900
$GPGGA,080743.00,3330.2645,N,11933.7185,W,1,09,0.8,10.2,M,-34.9,M,,*63
$PYRTM,2024,122.338721974097,13.448369384236
$GPGGA,080744.00,3330.2649,N,11933.7209,W,1,09,0.8,9.7,M,-34.9,M,,*52
$PYRTM,2024,122.338733197940,13.448380608079
$GPGGA,080745.00,3330.2657,N,11933.7225,W,1,09,0.8,10.2,M,-34.9,M,,*6F
$PYRTM,2024,122.338749296088,13.448396706227
$GPGGA,080746.00,3330.2670,N,11933.7245,W,1,09,0.8,11.2,M,-34.9,M,,*6E
$PYRTM,2024,122.338760415012,13.448407825162
$GPGGA,080747.00,3330.2681,N,11933.7273,W,1,09,0.8,9.5,M,-34.9,M,,*5A
$PYRTM,2024,122.338771973808,13.448419383947
$GPGGA,080748.00,3330.2688,N,11933.7300,W,1,09,0.8,8.1,M,-34.9,M,,*5C
$PYRTM,2024,122.338783084641,13.448430494780
$GPGGA,080749.00,3330.2693,N,11933.7321,W,1,09,0.8,10.2,M,-34.9,M,,*6E
$PYRTM,2024,122.338794311181,13.448441721319
$GPGGA,080750.00,3330.2701,N,11933.7340,W,1,09,0.8,12.1,M,-34.9,M,,*6A
$PYRTM,2024,122.338816890428,13.448464300567
$GPGGA,080751.00,3330.2711,N,11933.7363,W,1,09,0.8,11.5,M,-34.9,M,,*6C
$PYRTM,2024,122.338828005718,13.448475415856
$GPGGA,080752.00,3330.2721,N,11933.7391,W,1,09,0.8,12.3,M,-34.9,M,,*64
$PYRTM,2024,122.338839119306,13.448486529444
$GPGGA,080753.00,3330.2727,N,11933.7418,W,1,09,0.8,11.7,M,-34.9,M,,*62
$PYRTM,2024,122.338850344722,13.448497754861
$GPGGA,080754.00,3330.2732,N,11933.7440,W,1,09,0.8,12.5,M,-34.9,M,,*6D
$PYRTM,2024,122.338861455266,13.448508865417
$GPGGA,080755.00,3330.2740,N,11933.7460,W,1,09,0.8,11.9,M,-34.9,M,,*64
$PYRTM,2024,122.338872566076,13.448519976215
$GPGGA,080756.00,3330.2751,N,11933.7486,W,1,09,0.8,14.0,M,-34.9,M,,*63
$PYRTM,2024,122.338883677106,13.448531087245
$GPGGA,080757.00,3330.2762,N,11933.7514,W,1,09,0.8,10.7,M,-34.9,M,,*6B
$PYRTM,2024,122.338894903380,13.448542313519
$GPGGA,080758.00,3330.2767,N,11933.7543,W,1,09,0.8,11.3,M,-34.9,M,,*66
$PYRTM,2024,122.338906013935,13.448553424074
$GPGGA,080759.00,3330.2770,N,11933.7568,W,1,09,0.8,10.2,M,-34.9,M,,*68
$PYRTM,2024,122.338917125718,13.448564535856
$GPGGA,080800.00,3330.2776,N,11933.7590,W,1,09,0.8,9.8,M,-34.9,M,,*58
$PYRTM,2024,122.338928237604,13.448575647743
$GPGGA,080801.00,3330.2786,N,11933.7613,W,1,09,0.8,12.0,M,-34.9,M,,*6C
$PYRTM,2024,122.338939349132,13.448586759271
$GPGGA,080802.00,3330.2796,N,11933.7640,W,1,09,0.8,9.8,M,-34.9,M,,*5A
$PYRTM,2024,122.338950455058,13.448597865197
$GPGGA,080803.00,3330.2802,N,11933.7667,W,1,09,0.8,7.4,M,-34.9,M,,*5E
$PYRTM,2024,122.338961572859,13.448608982998
$GPGGA,080804.00,3330.2805,N,11933.7691,W,1,09,0.8,6.4,M,-34.9,M,,*56
$PYRTM,2024,122.338972677836,13.448620087986
$GPGGA,080805.00,3330.2810,N,11933.7714,W,1,09,0.8,7.8,M,-34.9,M,,*52
$PYRTM,2024,122.338983793079,13.448631203218
$GPGGA,080806.00,3330.2819,N,11933.7736,W,1,09,0.8,8.2,M,-34.9,M,,*5D
$PYRTM,2024,122.338995007153,13.448642417303
$GPGGA,080807.00,3330.2831,N,11933.7759,W,1,09,0.8,7.9,M,-34.9,M,,*5B
$PYRTM,2024,122.339006119352,13.448653529491
$GPGGA,080808.00,3330.2840,N,11933.7782,W,1,09,0.8,11.0,M,-34.9,M,,*6A
$PYRTM,2024,122.339017231181,13.448664641319
$GPGGA,080809.00,3330.2847,N,11933.7810,W,1,09,0.8,10.3,M,-34.9,M,,*6A
$PYRTM,2024,122.339028341215,13.448675751354
$GPGGA,080810.00,3330.2853,N,11933.7838,W,1,09,0.8,9.4,M,-34.9,M,,*52
$PYRTM,2024,122.339039451725,13.448686861863
$GPGGA,080811.00,3330.2858,N,11933.7861,W,1,09,0.8,9.5,M,-34.9,M,,*55
$PYRTM,2024,122.339050563322,13.448697973461
$GPGGA,080812.00,3330.2868,N,11933.7882,W,1,09,0.8,7.5,M,-34.9,M,,*56
$PYRTM,2024,122.339061675185,13.448709085324
$GPGGA,080813.00,3330.2879,N,11933.7908,W,1,09,0.8,6.8,M,-34.9,M,,*58
$PYRTM,2024,122.339072786609,13.448720196748
$GPGGA,080814.00,3330.2885,N,11933.7934,W,1,09,0.8,7.7,M,-34.9,M,,*5D
$PYRTM,2024,122.339083896366,13.448731306505
$GPGGA,080815.00,3330.2887,N,11933.7957,W,1,09,0.8,10.1,M,-34.9,M,,*6B
$PYRTM,2024,122.339093747928,13.448741158067
$GPGGA,080816.00,3330.2892,N,11933.7978,W,1,09,0.8,10.0,M,-34.9,M,,*60
$PYRTM,2024,122.339105090023,13.448752500162
$GPGGA,080817.00,3330.2903,N,11933.8002,W,1,09,0.8,10.9,M,-34.9,M,,*6A
$PYRTM,2024,122.339117925775,13.448765335914
$GPGGA,080818.00,3330.2913,N,11933.8026,W,1,09,0.8,9.9,M,-34.9,M,,*5A
$PYRTM,2024,122.339129382280,13.448776792419
$GPGGA,080819.00,3330.2919,N,11933.8050,W,1,09,0.8,10.5,M,-34.9,M,,*64
$PYRTM,2024,122.339140970370,13.448788380509
$GPGGA,080820.00,3330.2925,N,11933.8076,W,1,09,0.8,9.3,M,-34.9,M,,*5B
$PYRTM,2024,122.339152532164,13.448799942303
$GPGGA,080821.00,3330.2930,N,11933.8100,W,1,09,0.8,9.0,M,-34.9,M,,*5D
$PYRTM,2024,122.339164118785,13.448811528924
$GPGGA,080822.00,3330.2937,N,11933.8120,W,1,09,0.8,10.0,M,-34.9,M,,*63
$PYRTM,2024,122.339175680347,13.448823090486
$GPGGA,080823.00,3330.2948,N,11933.8143,W,1,09,0.8,11.5,M,-34.9,M,,*6B
$PYRTM,2024,122.339187269560,13.448834679699
$GPGGA,080824.00,3330.2957,N,11933.8170,W,1,09,0.8,10.3,M,-34.9,M,,*65
$PYRTM,2024,122.339198827812,13.448846237951
$GPGGA,080825.00,3330.2962,N,11933.8198,W,1,09,0.8,9.2,M,-34.9,M,,*5D
$PYRTM,2024,122.339210433704,13.448857843843
$GPGGA,080826.00,3330.2966,N,11933.8219,W,1,09,0.8,9.7,M,-34.9,M,,*55
$PYRTM,2024,122.339221975752,13.448869385891
$GPGGA,080827.00,3330.2974,N,11933.8237,W,1,09,0.8,10.6,M,-34.9,M,,*62
$PYRTM,2024,122.339233563391,13.448880973542
$GPGGA,080828.00,3330.2986,N,11933.8262,W,1,09,0.8,9.7,M,-34.9,M,,*59
$PYRTM,2024,122.339245123981,13.448892534120
$GPGGA,080829.00,3330.2995,N,11933.8290,W,1,09,0.8,8.2,M,-34.9,M,,*53
$PYRTM,2024,122.339256711088,13.448904121227
$GPGGA,080830.00,3330.2999,N,11933.8317,W,1,09,0.8,8.5,M,-34.9,M,,*5E
$PYRTM,2024,122.339268273437,13.448915683576
$GPGGA,080831.00,3330.3000,N,11933.8340,W,1,09,0.8,9.7,M,-34.9,M,,*56
$PYRTM,2024,122.339279860243,13.448927270382
$GPGGA,080832.00,3330.3007,N,11933.8361,W,1,09,0.8,11.6,M,-34.9,M,,*69
$PYRTM,2024,122.339291423287,13.448938833426
$GPGGA,080833.00,3330.3019,N,11933.8384,W,1,09,0.8,11.6,M,-34.9,M,,*6C
$PYRTM,2024,122.339303007847,13.448950417986
$GPGGA,080834.00,3330.3028,N,11933.8413,W,1,09,0.8,12.2,M,-34.9,M,,*67
$PYRTM,2024,122.339314569317,13.448961979456
$GPGGA,080835.00,3330.3032,N,11933.8441,W,1,09,0.8,11.0,M,-34.9,M,,*6B
$PYRTM,2024,122.339326387697,13.448973797836
$GPGGA,080836.00,3330.3035,N,11933.8461,W,1,09,0.8,11.3,M,-34.9,M,,*6E
$PYRTM,2024,122.339337717882,13.448985128021
$GPGGA,080837.00,3330.3042,N,11933.8478,W,1,09,0.8,15.7,M,-34.9,M,,*67
$PYRTM,2024,122.339349308252,13.448996718391
