$PYRTM,2024,126.250009063935,17.359656474074
$GPGGA,055959.00,3419.7919,N,12049.4446,W,1,09,1.0,-3.0,M,-33.8,M,,*7D
$PYRTM,2024,126.250020637650,17.359668047789
$GPGGA,060000.00,3419.7908,N,12049.4420,W,1,09,1.0,-4.1,M,-33.8,M,,*78
$PYRTM,2024,126.250032207176,17.359679617315
$GPGGA,060001.00,3419.7897,N,12049.4395,W,1,09,1.0,-3.3,M,-33.8,M,,*72
$PYRTM,2024,126.250043785764,17.359691195903
$GPGGA,060002.00,3419.7890,N,12049.4369,W,1,09,1.0,-3.5,M,-33.8,M,,*73
$PYRTM,2024,126.250055360012,17.359702770150
$GPGGA,060003.00,3419.7886,N,12049.4342,W,1,09,1.0,-4.4,M,-33.8,M,,*7A
$PYRTM,2024,126.250067282755,17.359714692894
$GPGGA,060004.00,3419.7880,N,12049.4315,W,1,09,1.0,-1.9,M,-33.8,M,,*71
$PYRTM,2024,126.250078509178,17.359725919317
$GPGGA,060005.00,3419.7869,N,12049.4288,W,1,09,1.0,-3.9,M,-33.8,M,,*70
$PYRTM,2024,126.250090078819,17.359737488958
$GPGGA,060006.00,3419.7858,N,12049.4262,W,1,09,1.0,-2.7,M,-33.8,M,,*7A
$PYRTM,2024,126.250101990556,17.359749400694
$GPGGA,060007.00,3419.7848,N,12049.4236,W,1,09,1.0,-5.6,M,-33.8,M,,*7D
$PYRTM,2024,126.250113234444,17.359760644595
$GPGGA,060008.00,3419.7840,N,12049.4207,W,1,09,1.0,-4.3,M,-33.8,M,,*7C
$PYRTM,2024,126.250124805127,17.359772215266
$GPGGA,060009.00,3419.7832,N,12049.4179,W,1,08,1.0,-6.2,M,-33.8,M,,*70
$PYRTM,2024,126.250136382650,17.359783792789
$GPGGA,060010.00,3419.7824,N,12049.4153,W,1,09,1.0,-6.1,M,-33.8,M,,*75
$PYRTM,2024,126.250147953403,17.359795363542
$GPGGA,060011.00,3419.7815,N,12049.4127,W,1,09,1.0,-3.4,M,-33.8,M,,*75
$PYRTM,2024,126.250159522813,17.359806932951
$GPGGA,060012.00,3419.7807,N,12049.4101,W,1,09,1.0,-5.0,M,-33.8,M,,*73
$PYRTM,2024,126.250171101169,17.359818511319
$GPGGA,060013.00,3419.7798,N,12049.4075,W,1,09,1.0,-6.1,M,-33.8,M,,*7B
$PYRTM,2024,126.250182676898,17.359830087037
$GPGGA,060014.00,3419.7789,N,12049.4049,W,1,09,1.0,-4.8,M,-33.8,M,,*78
$PYRTM,2024,126.250194251181,17.359841661319
$GPGGA,060015.00,3419.7780,N,12049.4024,W,1,09,1.0,-4.8,M,-33.8,M,,*7B
$PYRTM,2024,126.250205823924,17.359853234063
$GPGGA,060016.00,3419.7774,N,12049.3999,W,1,09,1.0,-5.2,M,-33.8,M,,*70
$PYRTM,2024,126.250218429375,17.359865839525
$GPGGA,060017.00,3419.7767,N,12049.3972,W,1,09,1.0,-1.5,M,-33.8,M,,*75
$PYRTM,2024,126.250231045185,17.359878455324
$GPGGA,060018.00,3419.7760,N,12049.3944,W,1,09,1.0,1.4,M,-33.8,M,,*54
$PYRTM,2024,126.250240548009,17.359887958148
$GPGGA,060019.00,3419.7751,N,12049.3918,W,1,09,1.0,-3.4,M,-33.8,M,,*71
$PYRTM,2024,126.250252121319,17.359899531458
$GPGGA,060020.00,3419.7739,N,12049.3892,W,1,09,1.0,-4.8,M,-33.8,M,,*7D
$PYRTM,2024,126.250263694248,17.359911104387
$GPGGA,060021.00,3419.7729,N,12049.3866,W,1,09,1.0,-5.1,M,-33.8,M,,*7E
$PYRTM,2024,126.250275283391,17.359922693530
$GPGGA,060022.00,3419.7723,N,12049.3838,W,1,09,1.0,-4.8,M,-33.8,M,,*74
$PYRTM,2024,126.250286843947,17.359934254086
$GPGGA,060023.00,3419.7718,N,12049.3812,W,1,09,1.0,-6.6,M,-33.8,M,,*79
$PYRTM,2024,126.250298420694,17.359945830833
$GPGGA,060024.00,3419.7710,N,12049.3785,W,1,09,1.0,-2.7,M,-33.8,M,,*72
$PYRTM,2024,126.250309990949,17.359957401088
$GPGGA,060025.00,3419.7700,N,12049.3757,W,1,09,1.0,-2.6,M,-33.8,M,,*7C
$PYRTM,2024,126.250321566215,17.359968976354
$GPGGA,060026.00,3419.7688,N,12049.3728,W,1,09,1.0,-4.1,M,-33.8,M,,*77
$PYRTM,2024,126.250333141030,17.359980551169
$GPGGA,060027.00,3419.7674,N,12049.3701,W,1,09,1.0,-4.6,M,-33.8,M,,*79
$PYRTM,2024,126.250344715648,17.359992125787
$GPGGA,060028.00,3419.7664,N,12049.3674,W,1,09,1.0,-5.2,M,-33.8,M,,*71
$PYRTM,2024,126.250356289468,17.360003699606
$GPGGA,060029.00,3419.7659,N,12049.3646,W,1,09,1.0,-6.7,M,-33.8,M,,*79
$PYRTM,2024,126.250367863461,17.360015273600
$GPGGA,060030.00,3419.7655,N,12049.3619,W,1,09,1.0,-6.6,M,-33.8,M,,*76
$PYRTM,2024,126.250379437245,17.360026847384
$GPGGA,060031.00,3419.7648,N,12049.3592,W,1,09,1.0,-5.3,M,-33.8,M,,*7D
$PYRTM,2024,126.250391011771,17.360038421910
$GPGGA,060032.00,3419.7636,N,12049.3567,W,1,09,1.0,-3.8,M,-33.8,M,,*70
$PYRTM,2024,126.250402585799,17.360049995937
$GPGGA,060033.00,3419.7622,N,12049.3541,W,1,09,1.0,-5.4,M,-33.8,M,,*7A
$PYRTM,2024,126.250414505775,17.360061915914
$GPGGA,060034.00,3419.7611,N,12049.3515,W,1,09,1.0,-5.5,M,-33.8,M,,*7D
$PYRTM,2024,126.250425732593,17.360073142731
$GPGGA,060035.00,3419.7603,N,12049.3488,W,1,09,1.0,-9.4,M,-33.8,M,,*77
$PYRTM,2024,126.250437310556,17.360084720694
$GPGGA,060036.00,3419.7596,N,12049.3463,W,1,09,1.0,-8.3,M,-33.8,M,,*78
$PYRTM,2024,126.250448881111,17.360096291250
$GPGGA,060037.00,3419.7587,N,12049.3437,W,1,09,1.0,-7.9,M,-33.8,M,,*7D
$PYRTM,2024,126.250460459514,17.360107869653
$GPGGA,060038.00,3419.7576,N,12049.3412,W,1,09,1.0,-4.8,M,-33.8,M,,*79
$PYRTM,2024,126.250472029213,17.360119439352
$GPGGA,060039.00,3419.7566,N,12049.3388,W,1,09,1.0,-7.1,M,-33.8,M,,*77
$PYRTM,2024,126.250483618102,17.360131028241
$GPGGA,060040.00,3419.7558,N,12049.3363,W,1,09,1.0,-7.9,M,-33.8,M,,*79
$PYRTM,2024,126.250495178553,17.360142588692
$GPGGA,060041.00,3419.7551,N,12049.3336,W,1,09,1.0,-6.8,M,-33.8,M,,*71
$PYRTM,2024,126.250506753021,17.360154163160
$GPGGA,060042.00,3419.7541,N,12049.3309,W,1,09,1.0,-6.3,M,-33.8,M,,*74
$PYRTM,2024,126.250518327604,17.360165737743
$GPGGA,060043.00,3419.7528,N,12049.3283,W,1,09,1.0,-9.1,M,-33.8,M,,*74
$PYRTM,2024,126.250529900602,17.360177310741
$GPGGA,060044.00,3419.7515,N,12049.3257,W,1,09,1.0,-8.7,M,-33.8,M,,*73
$PYRTM,2024,126.250541475150,17.360188885289
$GPGGA,060045.00,3419.7504,N,12049.3229,W,1,09,1.0,-6.2,M,-33.8,M,,*70
$PYRTM,2024,126.250553048831,17.360200458970
$GPGGA,060046.00,3419.7498,N,12049.3201,W,1,09,1.0,-6.4,M,-33.8,M,,*7B
$PYRTM,2024,126.250565651944,17.360213062083
$GPGGA,060047.00,3419.7494,N,12049.3172,W,1,09,1.0,-6.5,M,-33.8,M,,*70
$PYRTM,2024,126.250578383044,17.360225793183
$GPGGA,060048.00,3419.7484,N,12049.3144,W,1,09,1.0,-5.8,M,-33.8,M,,*75
$PYRTM,2024,126.250587770370,17.360235180509
$GPGGA,060049.00,3419.7471,N,12049.3118,W,1,09,1.0,-4.1,M,-33.8,M,,*7F
$PYRTM,2024,126.250599359595,17.360246769734
$GPGGA,060050.00,3419.7459,N,12049.3093,W,1,09,1.0,-3.6,M,-33.8,M,,*7F
$PYRTM,2024,126.250610918067,17.360258328206
$GPGGA,060051.00,3419.7453,N,12049.3067,W,1,09,1.0,-4.3,M,-33.8,M,,*7D
$PYRTM,2024,126.250622507535,17.360269917674
$GPGGA,060052.00,3419.7447,N,12049.3042,W,1,09,1.0,-3.3,M,-33.8,M,,*7B
$PYRTM,2024,126.250634067361,17.360281477500
$GPGGA,060053.00,3419.7439,N,12049.3018,W,1,09,1.0,-2.2,M,-33.8,M,,*7C
$PYRTM,2024,126.250645641134,17.360293051273
$GPGGA,060054.00,3419.7429,N,12049.2993,W,1,09,1.0,-2.5,M,-33.8,M,,*76
$PYRTM,2024,126.250657214850,17.360304624988
$GPGGA,060055.00,3419.7421,N,12049.2966,W,1,09,1.0,-4.0,M,-33.8,M,,*76
$PYRTM,2024,126.250668786134,17.360316196273
$GPGGA,060056.00,3419.7412,N,12049.2939,W,1,09,1.0,-3.4,M,-33.8,M,,*7C
$PYRTM,2024,126.250680827905,17.360328238044
$GPGGA,060057.00,3419.7402,N,12049.2911,W,1,09,1.0,-4.6,M,-33.8,M,,*73
$PYRTM,2024,126.250692397326,17.360339807465
$GPGGA,060058.00,3419.7395,N,12049.2885,W,1,09,1.0,-3.8,M,-33.8,M,,*70
$PYRTM,2024,126.250703983391,17.360351393530
$GPGGA,060059.00,3419.7390,N,12049.2858,W,1,09,1.0,-5.0,M,-33.8,M,,*7A
$PYRTM,2024,126.250715549711,17.360362959850
$GPGGA,060100.00,3419.7383,N,12049.2831,W,1,09,1.0,-5.5,M,-33.8,M,,*7F
$PYRTM,2024,126.250727127882,17.360374538021
$GPGGA,060101.00,3419.7374,N,12049.2804,W,1,09,1.0,-3.3,M,-33.8,M,,*70
$PYRTM,2024,126.250738692650,17.360386102789
$GPGGA,060102.00,3419.7366,N,12049.2778,W,1,09,1.0,-1.6,M,-33.8,M,,*73
$PYRTM,2024,126.250750272801,17.360397682940
$GPGGA,060103.00,3419.7360,N,12049.2752,W,1,09,1.0,-3.5,M,-33.8,M,,*7D
$PYRTM,2024,126.250762299086,17.360409709225
$GPGGA,060104.00,3419.7353,N,12049.2727,W,1,09,1.0,-4.1,M,-33.8,M,,*7B
$PYRTM,2024,126.250773420660,17.360420830799
$GPGGA,060105.00,3419.7346,N,12049.2700,W,1,09,1.0,-4.5,M,-33.8,M,,*7F
$PYRTM,2024,126.250784994780,17.360432404919
$GPGGA,060106.00,3419.7337,N,12049.2674,W,1,09,1.0,-4.3,M,-33.8,M,,*7E
$PYRTM,2024,126.250796568646,17.360443978785
$GPGGA,060107.00,3419.7327,N,12049.2648,W,1,09,1.0,-6.3,M,-33.8,M,,*73
$PYRTM,2024,126.250808143044,17.360455553183
$GPGGA,060108.00,3419.7320,N,12049.2624,W,1,09,1.0,-6.0,M,-33.8,M,,*72
$PYRTM,2024,126.250819717269,17.360467127407
$GPGGA,060109.00,3419.7314,N,12049.2600,W,1,09,1.0,-5.7,M,-33.8,M,,*76
$PYRTM,2024,126.250831291343,17.360478701481
$GPGGA,060110.00,3419.7308,N,12049.2573,W,1,09,1.0,-3.8,M,-33.8,M,,*7D
$PYRTM,2024,126.250842866447,17.360490276586
$GPGGA,060111.00,3419.7301,N,12049.2544,W,1,09,1.0,-2.1,M,-33.8,M,,*79
$PYRTM,2024,126.250854440162,17.360501850301
$GPGGA,060112.00,3419.7291,N,12049.2517,W,1,09,1.0,-3.7,M,-33.8,M,,*73
$PYRTM,2024,126.250866028194,17.360513438333
$GPGGA,060113.00,3419.7282,N,12049.2490,W,1,09,1.0,-4.8,M,-33.8,M,,*76
$PYRTM,2024,126.250877690961,17.360525101100
$GPGGA,060114.00,3419.7275,N,12049.2464,W,1,09,1.0,-4.3,M,-33.8,M,,*79
$PYRTM,2024,126.250889281447,17.360536691586
$GPGGA,060115.00,3419.7267,N,12049.2438,W,1,09,1.0,-5.4,M,-33.8,M,,*74
$PYRTM,2024,126.250900839491,17.360548249630
$GPGGA,060116.00,3419.7258,N,12049.2411,W,1,09,1.0,-8.0,M,-33.8,M,,*79
$PYRTM,2024,126.250913467535,17.360560877685
$GPGGA,060117.00,3419.7250,N,12049.2385,W,1,09,1.0,-7.1,M,-33.8,M,,*74
$PYRTM,2024,126.250924684005,17.360572094144
$GPGGA,060118.00,3419.7242,N,12049.2358,W,1,09,1.0,-8.9,M,-33.8,M,,*7F
$PYRTM,2024,126.250936731933,17.360584142072
$GPGGA,060119.00,3419.7231,N,12049.2332,W,1,09,1.0,-8.8,M,-33.8,M,,*77
$PYRTM,2024,126.250946689421,17.360594099560
$GPGGA,060120.00,3419.7218,N,12049.2307,W,1,09,1.0,-9.3,M,-33.8,M,,*7A
$PYRTM,2024,126.250957321400,17.360604731539
$GPGGA,060121.00,3419.7206,N,12049.2283,W,1,09,1.0,-9.0,M,-33.8,M,,*7A
$PYRTM,2024,126.250968548437,17.360615958576
$GPGGA,060122.00,3419.7199,N,12049.2256,W,1,09,1.0,-8.8,M,-33.8,M,,*7D
$PYRTM,2024,126.250979659167,17.360627069306
$GPGGA,060123.00,3419.7194,N,12049.2229,W,1,09,1.0,-7.4,M,-33.8,M,,*7A
$PYRTM,2024,126.250990772616,17.360638182766
$GPGGA,060124.00,3419.7187,N,12049.2201,W,1,09,1.0,-6.8,M,-33.8,M,,*78
$PYRTM,2024,126.251001880926,17.360649291065
$GPGGA,060125.00,3419.7177,N,12049.2174,W,1,09,1.0,-6.0,M,-33.8,M,,*7F
$PYRTM,2024,126.251012994433,17.360660404572
$GPGGA,060126.00,3419.7166,N,12049.2149,W,1,09,1.0,-5.5,M,-33.8,M,,*74
$PYRTM,2024,126.251024104155,17.360671514294
$GPGGA,060127.00,3419.7157,N,12049.2124,W,1,09,1.0,-7.0,M,-33.8,M,,*7B
$PYRTM,2024,126.251035215324,17.360682625463
$GPGGA,060128.00,3419.7150,N,12049.2099,W,1,09,1.0,-4.1,M,-33.8,M,,*76
$PYRTM,2024,126.251046326123,17.360693736262
$GPGGA,060129.00,3419.7145,N,12049.2073,W,1,09,1.0,-7.7,M,-33.8,M,,*72
$PYRTM,2024,126.251057437535,17.360704847674
$GPGGA,060130.00,3419.7138,N,12049.2045,W,1,09,1.0,-5.7,M,-33.8,M,,*77
$PYRTM,2024,126.251068662176,17.360716072315
$GPGGA,060131.00,3419.7128,N,12049.2018,W,1,09,1.0,-5.7,M,-33.8,M,,*7F
$PYRTM,2024,126.251080139132,17.360727549282
$GPGGA,060132.00,3419.7118,N,12049.1991,W,1,09,1.0,-6.3,M,-33.8,M,,*73
$PYRTM,2024,126.251091697396,17.360739107535
$GPGGA,060133.00,3419.7109,N,12049.1963,W,1,09,1.0,-5.1,M,-33.8,M,,*7E
$PYRTM,2024,126.251103288287,17.360750698426
$GPGGA,060134.00,3419.7102,N,12049.1935,W,1,09,1.0,-7.0,M,-33.8,M,,*72
$PYRTM,2024,126.251114845544,17.360762255683
$GPGGA,060135.00,3419.7098,N,12049.1907,W,1,09,1.0,-6.1,M,-33.8,M,,*70
$PYRTM,2024,126.251126432199,17.360773842338
$GPGGA,060136.00,3419.7091,N,12049.1879,W,1,09,1.0,-4.6,M,-33.8,M,,*77
$PYRTM,2024,126.251137995336,17.360785405475
$GPGGA,060137.00,3419.7081,N,12049.1853,W,1,09,1.0,-4.8,M,-33.8,M,,*71
$PYRTM,2024,126.251149582234,17.360796992373
$GPGGA,060138.00,3419.7069,N,12049.1827,W,1,09,1.0,-5.6,M,-33.8,M,,*74
$PYRTM,2024,126.251161144201,17.360808554340
$GPGGA,060139.00,3419.7059,N,12049.1801,W,1,09,1.0,-5.1,M,-33.8,M,,*75
$PYRTM,2024,126.251172732106,17.360820142257
$GPGGA,060140.00,3419.7052,N,12049.1776,W,1,09,1.0,-5.8,M,-33.8,M,,*76
$PYRTM,2024,126.251184289769,17.360831699907
$GPGGA,060141.00,3419.7045,N,12049.1750,W,1,08,1.0,-7.6,M,-33.8,M,,*78
$PYRTM,2024,126.251195877292,17.360843287431
$GPGGA,060142.00,3419.7036,N,12049.1722,W,1,09,1.0,-7.4,M,-33.8,M,,*79
$PYRTM,2024,126.251207438472,17.360854848611
$GPGGA,060143.00,3419.7027,N,12049.1693,W,1,09,1.0,-5.4,M,-33.8,M,,*71
$PYRTM,2024,126.251219039931,17.360866450069
$GPGGA,060144.00,3419.7017,N,12049.1665,W,1,09,1.0,-3.5,M,-33.8,M,,*7B
$PYRTM,2024,126.251230587546,17.360877997685
$GPGGA,060145.00,3419.7006,N,12049.1636,W,1,09,1.0,-2.5,M,-33.8,M,,*7D
$PYRTM,2024,126.251242177465,17.360889587604
$GPGGA,060146.00,3419.6994,N,12049.1607,W,1,09,1.0,-3.0,M,-33.8,M,,*7B
$PYRTM,2024,126.251253734931,17.360901145069
$GPGGA,060147.00,3419.6984,N,12049.1578,W,1,09,1.0,-2.6,M,-33.8,M,,*77
$PYRTM,2024,126.251269475856,17.360916885995
$GPGGA,060148.00,3419.6975,N,12049.1552,W,1,09,1.0,-5.2,M,-33.8,M,,*7D
$PYRTM,2024,126.251281062720,17.360928472859
$GPGGA,060149.00,3419.6967,N,12049.1528,W,1,09,1.0,-5.6,M,-33.8,M,,*76
$PYRTM,2024,126.251292624259,17.360940034398
$GPGGA,060150.00,3419.6957,N,12049.1506,W,1,09,1.0,-3.7,M,-33.8,M,,*76
$PYRTM,2024,126.251304210440,17.360951620579
$GPGGA,060151.00,3419.6947,N,12049.1482,W,1,09,1.0,-4.5,M,-33.8,M,,*7E
$PYRTM,2024,126.251315771748,17.360963181887
$GPGGA,060152.00,3419.6940,N,12049.1456,W,1,09,1.0,-4.7,M,-33.8,M,,*71
$PYRTM,2024,126.251327360694,17.360974770845
$GPGGA,060153.00,3419.6933,N,12049.1428,W,1,09,1.0,-4.7,M,-33.8,M,,*7D
$PYRTM,2024,126.251338921319,17.360986331458
$GPGGA,060154.00,3419.6923,N,12049.1401,W,1,09,1.0,-5.0,M,-33.8,M,,*76
$PYRTM,2024,126.251350510903,17.360997921042
$GPGGA,060155.00,3419.6909,N,12049.1374,W,1,09,1.0,-4.6,M,-33.8,M,,*7D
$PYRTM,2024,126.251362069722,17.361009479861
$GPGGA,060156.00,3419.6897,N,12049.1344,W,1,09,1.0,-2.6,M,-33.8,M,,*7D
$PYRTM,2024,126.251373658634,17.361021068773
$GPGGA,060157.00,3419.6888,N,12049.1315,W,1,09,1.0,-0.4,M,-33.8,M,,*76
$PYRTM,2024,126.251385217141,17.361032627280
$GPGGA,060158.00,3419.6879,N,12049.1286,W,1,09,1.0,-1.3,M,-33.8,M,,*7A
$PYRTM,2024,126.251396818912,17.361044229051
$GPGGA,060159.00,3419.6867,N,12049.1259,W,1,09,1.0,-0.5,M,-33.8,M,,*71
$PYRTM,2024,126.251408365637,17.361055775775
$GPGGA,060200.00,3419.6857,N,12049.1236,W,1,09,1.0,-1.2,M,-33.8,M,,*72
$PYRTM,2024,126.251419952685,17.361067362824
$GPGGA,060201.00,3419.6850,N,12049.1213,W,1,09,1.0,-2.5,M,-33.8,M,,*77
$PYRTM,2024,126.251431514606,17.361078924745
$GPGGA,060202.00,3419.6844,N,12049.1190,W,1,09,1.0,-5.3,M,-33.8,M,,*78
$PYRTM,2024,126.251443100289,17.361090510428
$GPGGA,060203.00,3419.6838,N,12049.1167,W,1,09,1.0,-4.7,M,-33.8,M,,*7F
$PYRTM,2024,126.251455151840,17.361102561979
$GPGGA,060204.00,3419.6829,N,12049.1143,W,1,09,1.0,-6.9,M,-33.8,M,,*72
$PYRTM,2024,126.251466248565,17.361113658704
$GPGGA,060205.00,3419.6817,N,12049.1116,W,1,09,1.0,-4.5,M,-33.8,M,,*70
$PYRTM,2024,126.251477810741,17.361125220891
$GPGGA,060206.00,3419.6806,N,12049.1087,W,1,09,1.0,-3.5,M,-33.8,M,,*7D
$PYRTM,2024,126.251489397072,17.361136807211
$GPGGA,060207.00,3419.6797,N,12049.1058,W,1,09,1.0,-2.9,M,-33.8,M,,*74
$PYRTM,2024,126.251500959225,17.361148369363
$GPGGA,060208.00,3419.6788,N,12049.1030,W,1,09,1.0,-2.3,M,-33.8,M,,*71
$PYRTM,2024,126.251512548854,17.361159958993
$GPGGA,060209.00,3419.6778,N,12049.1003,W,1,09,1.0,-1.6,M,-33.8,M,,*79
$PYRTM,2024,126.251524106319,17.361171516458
$GPGGA,060210.00,3419.6769,N,12049.0976,W,1,09,1.0,-2.1,M,-33.8,M,,*7F
$PYRTM,2024,126.251535696586,17.361183106725
$GPGGA,060211.00,3419.6760,N,12049.0950,W,1,09,1.0,-1.9,M,-33.8,M,,*78
$PYRTM,2024,126.251547255660,17.361194665799
$GPGGA,060212.00,3419.6753,N,12049.0926,W,1,09,1.0,-3.8,M,-33.8,M,,*79
$PYRTM,2024,126.251558841956,17.361206252095
$GPGGA,060213.00,3419.6747,N,12049.0902,W,1,09,1.0,-2.2,M,-33.8,M,,*70
$PYRTM,2024,126.251570405127,17.361217815266
$GPGGA,060214.00,3419.6740,N,12049.0877,W,1,09,1.0,-4.9,M,-33.8,M,,*7E
$PYRTM,2024,126.251581989850,17.361229399988
$GPGGA,060215.00,3419.6731,N,12049.0852,W,1,09,1.0,-7.3,M,-33.8,M,,*77
$PYRTM,2024,126.251593552002,17.361240962141
$GPGGA,060216.00,3419.6720,N,12049.0827,W,1,09,1.0,-7.0,M,-33.8,M,,*75
$PYRTM,2024,126.251606295660,17.361253705810
$GPGGA,060217.00,3419.6708,N,12049.0800,W,1,09,1.0,-6.9,M,-33.8,M,,*73
$PYRTM,2024,126.251617855567,17.361265265706
$GPGGA,060218.00,3419.6697,N,12049.0774,W,1,09,1.0,-6.4,M,-33.8,M,,*7A
$PYRTM,2024,126.251629440891,17.361276851042
$GPGGA,060219.00,3419.6689,N,12049.0748,W,1,09,1.0,-5.5,M,-33.8,M,,*79
$PYRTM,2024,126.251641004201,17.361288414352
$GPGGA,060220.00,3419.6681,N,12049.0721,W,1,09,1.0,-6.1,M,-33.8,M,,*73
$PYRTM,2024,126.251652592465,17.361300002604
$GPGGA,060221.00,3419.6672,N,12049.0694,W,1,09,1.0,-5.0,M,-33.8,M,,*73
$PYRTM,2024,126.251664152639,17.361311562778
$GPGGA,060222.00,3419.6659,N,12049.0669,W,1,09,1.0,-4.6,M,-33.8,M,,*7C
$PYRTM,2024,126.251675735868,17.361323146007
$GPGGA,060223.00,3419.6650,N,12049.0646,W,1,09,1.0,-6.5,M,-33.8,M,,*78
$PYRTM,2024,126.251687300810,17.361334710949
$GPGGA,060224.00,3419.6644,N,12049.0619,W,1,09,1.0,-5.6,M,-33.8,M,,*70
$PYRTM,2024,126.251698890648,17.361346300787
$GPGGA,060225.00,3419.6636,N,12049.0592,W,1,09,1.0,-5.1,M,-33.8,M,,*73
$PYRTM,2024,126.251710450451,17.361357860590
$GPGGA,060226.00,3419.6625,N,12049.0566,W,1,09,1.0,-7.6,M,-33.8,M,,*7C
$PYRTM,2024,126.251722033368,17.361369443507
$GPGGA,060227.00,3419.6610,N,12049.0542,W,1,09,1.0,-5.6,M,-33.8,M,,*7F
$PYRTM,2024,126.251733597940,17.361381008079
$GPGGA,060228.00,3419.6598,N,12049.0518,W,1,09,1.0,-6.5,M,-33.8,M,,*7C
$PYRTM,2024,126.251745187593,17.361392597731
$GPGGA,060229.00,3419.6590,N,12049.0491,W,1,09,1.0,-5.5,M,-33.8,M,,*76
$PYRTM,2024,126.251756745984,17.361404156123
$GPGGA,060230.00,3419.6585,N,12049.0462,W,1,09,1.0,-4.0,M,-33.8,M,,*72
$PYRTM,2024,126.251768334444,17.361415744583
$GPGGA,060231.00,3419.6578,N,12049.0434,W,1,09,1.0,-4.6,M,-33.8,M,,*74
$PYRTM,2024,126.251779894363,17.361427304514
$GPGGA,060232.00,3419.6568,N,12049.0408,W,1,09,1.0,-5.2,M,-33.8,M,,*7C
$PYRTM,2024,126.251791482685,17.361438892824
$GPGGA,060233.00,3419.6557,N,12049.0382,W,1,09,1.0,-5.5,M,-33.8,M,,*73
$PYRTM,2024,126.251803515926,17.361450926065
$GPGGA,060234.00,3419.6548,N,12049.0356,W,1,09,1.0,-4.9,M,-33.8,M,,*7E
$PYRTM,2024,126.251814966829,17.361462376968
$GPGGA,060235.00,3419.6541,N,12049.0330,W,1,09,1.0,-4.0,M,-33.8,M,,*7F
$PYRTM,2024,126.251826191644,17.361473601782
$GPGGA,060236.00,3419.6535,N,12049.0306,W,1,09,1.0,-4.2,M,-33.8,M,,*78
$PYRTM,2024,126.251838227176,17.361485637326
$GPGGA,060237.00,3419.6526,N,12049.0283,W,1,09,1.0,-4.2,M,-33.8,M,,*77
$PYRTM,2024,126.251849703241,17.361497113391
$GPGGA,060238.00,3419.6517,N,12049.0260,W,1,09,1.0,-5.0,M,-33.8,M,,*74
$PYRTM,2024,126.251860927928,17.361508338079
$GPGGA,060239.00,3419.6507,N,12049.0236,W,1,09,1.0,-4.9,M,-33.8,M,,*7F
$PYRTM,2024,126.251872487546,17.361519897685
$GPGGA,060240.00,3419.6498,N,12049.0213,W,1,09,1.0,-8.5,M,-33.8,M,,*71
$PYRTM,2024,126.251884062697,17.361531472836
$GPGGA,060241.00,3419.6491,N,12049.0189,W,1,09,1.0,-8.7,M,-33.8,M,,*7B
$PYRTM,2024,126.251895636667,17.361543046806
$GPGGA,060242.00,3419.6485,N,12049.0163,W,1,09,1.0,-9.8,M,-33.8,M,,*77
$PYRTM,2024,126.251907224919,17.361554635058
$GPGGA,060243.00,3419.6477,N,12049.0136,W,1,09,1.0,-8.3,M,-33.8,M,,*71
$PYRTM,2024,126.251918783264,17.361566193403
$GPGGA,060244.00,3419.6465,N,12049.0109,W,1,09,1.0,-9.0,M,-33.8,M,,*7B
$PYRTM,2024,126.251930372141,17.361577782280
$GPGGA,060245.00,3419.6452,N,12049.0083,W,1,09,1.0,-7.5,M,-33.8,M,,*76
$PYRTM,2024,126.251941933090,17.361589343229
$GPGGA,060246.00,3419.6443,N,12049.0055,W,1,09,1.0,-7.4,M,-33.8,M,,*7F
$PYRTM,2024,126.251954551852,17.361601961991
$GPGGA,060247.00,3419.6436,N,12049.0027,W,1,09,1.0,-6.8,M,-33.8,M,,*74
$PYRTM,2024,126.251967294352,17.361614704502
$GPGGA,060248.00,3419.6427,N,12049.0001,W,1,09,1.0,-5.8,M,-33.8,M,,*7C
$PYRTM,2024,126.251976669676,17.361624079815
$GPGGA,060249.00,3419.6416,N,12048.9975,W,1,09,1.0,-8.4,M,-33.8,M,,*7C
$PYRTM,2024,126.251988229699,17.361635639838
$GPGGA,060250.00,3419.6406,N,12048.9951,W,1,09,1.0,-9.3,M,-33.8,M,,*75
$PYRTM,2024,126.251999812141,17.361647222280
$GPGGA,060251.00,3419.6399,N,12048.9927,W,1,09,1.0,-9.2,M,-33.8,M,,*75
$PYRTM,2024,126.252011378021,17.361658788160
$GPGGA,060252.00,3419.6394,N,12048.9902,W,1,09,1.0,-8.9,M,-33.8,M,,*76
$PYRTM,2024,126.252022966123,17.361670376262
$GPGGA,060253.00,3419.6389,N,12048.9877,W,1,09,1.0,-8.9,M,-33.8,M,,*78
$PYRTM,2024,126.252034524734,17.361681934873
$GPGGA,060254.00,3419.6381,N,12048.9853,W,1,09,1.0,-5.9,M,-33.8,M,,*7C
$PYRTM,2024,126.252046114167,17.361693524306
$GPGGA,060255.00,3419.6372,N,12048.9829,W,1,09,1.0,-6.7,M,-33.8,M,,*71
$PYRTM,2024,126.252057674815,17.361705084954
$GPGGA,060256.00,3419.6363,N,12048.9804,W,1,09,1.0,-8.4,M,-33.8,M,,*70
$PYRTM,2024,126.252069249294,17.361716659433
$GPGGA,060257.00,3419.6356,N,12048.9779,W,1,09,1.0,-2.7,M,-33.8,M,,*7B
$PYRTM,2024,126.252080822928,17.361728233067
$GPGGA,060258.00,3419.6350,N,12048.9753,W,1,09,1.0,-4.1,M,-33.8,M,,*7A
$PYRTM,2024,126.252092411076,17.361739821215
$GPGGA,060259.00,3419.6340,N,12048.9726,W,1,09,1.0,-4.5,M,-33.8,M,,*7C
$PYRTM,2024,126.252103969653,17.361751379792
$GPGGA,060300.00,3419.6328,N,12048.9698,W,1,09,1.0,-3.5,M,-33.8,M,,*7C
$PYRTM,2024,126.252115559167,17.361762969306
$GPGGA,060301.00,3419.6315,N,12048.9671,W,1,09,1.0,-6.1,M,-33.8,M,,*75
$PYRTM,2024,126.252127119294,17.361774529444
$GPGGA,060302.00,3419.6305,N,12048.9646,W,1,09,1.0,-5.1,M,-33.8,M,,*70
$PYRTM,2024,126.252138707072,17.361786117211
$GPGGA,060303.00,3419.6299,N,12048.9619,W,1,09,1.0,-4.8,M,-33.8,M,,*77
$PYRTM,2024,126.252150628148,17.361798038287
$GPGGA,060304.00,3419.6292,N,12048.9593,W,1,09,1.0,-3.2,M,-33.8,M,,*77
$PYRTM,2024,126.252161855197,17.361809265347
$GPGGA,060305.00,3419.6280,N,12048.9567,W,1,09,1.0,-2.8,M,-33.8,M,,*75
$PYRTM,2024,126.252173416458,17.361820826597
$GPGGA,060306.00,3419.6268,N,12048.9543,W,1,09,1.0,-4.8,M,-33.8,M,,*70
$PYRTM,2024,126.252185003148,17.361832413287
$GPGGA,060307.00,3419.6260,N,12048.9519,W,1,09,1.0,-6.4,M,-33.8,M,,*78
$PYRTM,2024,126.252196563206,17.361843973345
$GPGGA,060308.00,3419.6256,N,12048.9494,W,1,09,1.0,-7.4,M,-33.8,M,,*77
$PYRTM,2024,126.252208152812,17.361855562951
$GPGGA,060309.00,3419.6251,N,12048.9469,W,1,09,1.0,-7.3,M,-33.8,M,,*74
$PYRTM,2024,126.252219710914,17.361867121042
$GPGGA,060310.00,3419.6243,N,12048.9442,W,1,09,1.0,-5.8,M,-33.8,M,,*7F
$PYRTM,2024,126.252231299977,17.361878710116
$GPGGA,060311.00,3419.6232,N,12048.9415,W,1,09,1.0,-5.0,M,-33.8,M,,*72
$PYRTM,2024,126.252242862037,17.361890272176
$GPGGA,060312.00,3419.6221,N,12048.9388,W,1,09,1.0,-2.2,M,-33.8,M,,*75
$PYRTM,2024,126.252254449676,17.361901859826
$GPGGA,060313.00,3419.6211,N,12048.9362,W,1,09,1.0,-4.9,M,-33.8,M,,*7E
$PYRTM,2024,126.252266009178,17.361913419317
$GPGGA,060314.00,3419.6203,N,12048.9335,W,1,09,1.0,-3.5,M,-33.8,M,,*73
$PYRTM,2024,126.252277597535,17.361925007685
$GPGGA,060315.00,3419.6195,N,12048.9307,W,1,09,1.0,-3.3,M,-33.8,M,,*79
$PYRTM,2024,126.252289155544,17.361936565683
$GPGGA,060316.00,3419.6186,N,12048.9280,W,1,09,1.0,-2.6,M,-33.8,M,,*72
$PYRTM,2024,126.252301774363,17.361949184502
$GPGGA,060317.00,3419.6175,N,12048.9254,W,1,09,1.0,-2.7,M,-33.8,M,,*77
$PYRTM,2024,126.252314507350,17.361961917488
$GPGGA,060318.00,3419.6166,N,12048.9230,W,1,09,1.0,-2.6,M,-33.8,M,,*79
$PYRTM,2024,126.252323893924,17.361971304063
$GPGGA,060319.00,3419.6159,N,12048.9204,W,1,09,1.0,-2.2,M,-33.8,M,,*77
$PYRTM,2024,126.252335453681,17.361982863819
$GPGGA,060320.00,3419.6153,N,12048.9176,W,1,09,1.0,-1.3,M,-33.8,M,,*73
$PYRTM,2024,126.252347042697,17.361994452836
$GPGGA,060321.00,3419.6145,N,12048.9149,W,1,09,1.0,-0.5,M,-33.8,M,,*7E
$PYRTM,2024,126.252358601563,17.362006011701
$GPGGA,060322.00,3419.6135,N,12048.9123,W,1,09,1.0,-1.8,M,-33.8,M,,*7A
$PYRTM,2024,126.252369264329,17.362016674468
$GPGGA,060323.00,3419.6124,N,12048.9096,W,1,09,1.0,-6.0,M,-33.8,M,,*7B
$PYRTM,2024,126.252382338264,17.362029748414
$GPGGA,060324.00,3419.6114,N,12048.9070,W,1,09,1.0,-1.3,M,-33.8,M,,*73
$PYRTM,2024,126.252393107060,17.362040517199
$GPGGA,060325.00,3419.6106,N,12048.9043,W,1,09,1.0,-0.4,M,-33.8,M,,*77
$PYRTM,2024,126.252404221134,17.362051631273
$GPGGA,060326.00,3419.6098,N,12048.9017,W,1,09,1.0,-1.5,M,-33.8,M,,*73
$PYRTM,2024,126.252415329711,17.362062739861
$GPGGA,060327.00,3419.6088,N,12048.8992,W,1,08,1.0,-3.6,M,-33.8,M,,*76
$PYRTM,2024,126.252426891562,17.362074301701
$GPGGA,060328.00,3419.6078,N,12048.8967,W,1,09,1.0,-4.4,M,-33.8,M,,*78
$PYRTM,2024,126.252438002049,17.362085412188
$GPGGA,060329.00,3419.6069,N,12048.8941,W,1,09,1.0,-5.6,M,-33.8,M,,*7E
$PYRTM,2024,126.252449229583,17.362096639722
$GPGGA,060330.00,3419.6063,N,12048.8915,W,1,09,1.0,-3.0,M,-33.8,M,,*7D
$PYRTM,2024,126.252460340660,17.362107750799
$GPGGA,060331.00,3419.6055,N,12048.8891,W,1,09,1.0,-3.5,M,-33.8,M,,*71
$PYRTM,2024,126.252471451042,17.362118861181
$GPGGA,060332.00,3419.6045,N,12048.8866,W,1,09,1.0,-4.0,M,-33.8,M,,*79
$PYRTM,2024,126.252482565255,17.362129975394
$GPGGA,060333.00,3419.6036,N,12048.8841,W,1,09,1.0,-3.9,M,-33.8,M,,*77
$PYRTM,2024,126.252493673889,17.362141084028
$GPGGA,060334.00,3419.6027,N,12048.8816,W,1,09,1.0,-4.5,M,-33.8,M,,*79
$PYRTM,2024,126.252505261262,17.362152671412
$GPGGA,060335.00,3419.6018,N,12048.8792,W,1,09,1.0,-4.6,M,-33.8,M,,*74
$PYRTM,2024,126.252516374387,17.362163784525
$GPGGA,060336.00,3419.6010,N,12048.8767,W,1,10,1.0,-3.0,M,-33.8,M,,*7C
$PYRTM,2024,126.252527602222,17.362175012361
$GPGGA,060337.00,3419.6001,N,12048.8741,W,1,10,1.0,-3.4,M,-33.8,M,,*7D
$PYRTM,2024,126.252544379931,17.362191790069
$GPGGA,060338.00,3419.5990,N,12048.8713,W,1,10,1.0,-3.6,M,-33.8,M,,*75
$PYRTM,2024,126.252555480880,17.362202891019
$GPGGA,060339.00,3419.5981,N,12048.8685,W,1,10,1.0,-4.1,M,-33.8,M,,*7A
$PYRTM,2024,126.252566602975,17.362214013113
$GPGGA,060340.00,3419.5972,N,12048.8657,W,1,10,1.0,-5.8,M,-33.8,M,,*7F
$PYRTM,2024,126.252577710417,17.362225120567
$GPGGA,060341.00,3419.5964,N,12048.8631,W,1,10,1.0,-5.3,M,-33.8,M,,*72
$PYRTM,2024,126.252588825532,17.362236235671
$GPGGA,060342.00,3419.5956,N,12048.8605,W,1,10,1.0,0.2,M,-33.8,M,,*5E
$PYRTM,2024,126.252599937014,17.362247347153
$GPGGA,060343.00,3419.5949,N,12048.8579,W,1,09,1.0,-1.2,M,-33.8,M,,*7D
$PYRTM,2024,126.252611043877,17.362258454016
$GPGGA,060344.00,3419.5941,N,12048.8553,W,1,09,1.0,-1.2,M,-33.8,M,,*7A
$PYRTM,2024,126.252622160556,17.362269570706
$GPGGA,060345.00,3419.5932,N,12048.8528,W,1,10,1.0,-2.7,M,-33.8,M,,*7D
$PYRTM,2024,126.252633374988,17.362280785127
$GPGGA,060346.00,3419.5922,N,12048.8502,W,1,10,1.0,-3.4,M,-33.8,M,,*75
$PYRTM,2024,126.252644484444,17.362291894583
$GPGGA,060347.00,3419.5912,N,12048.8475,W,1,10,1.0,-3.3,M,-33.8,M,,*71
$PYRTM,2024,126.252659079722,17.362306489861
$GPGGA,060348.00,3419.5903,N,12048.8447,W,1,10,1.0,-1.4,M,-33.8,M,,*7A
$PYRTM,2024,126.252670186701,17.362317596840
$GPGGA,060349.00,3419.5893,N,12048.8421,W,1,10,1.0,-1.9,M,-33.8,M,,*7E
$PYRTM,2024,126.252681521111,17.362328931250
$GPGGA,060350.00,3419.5883,N,12048.8394,W,1,10,1.0,-0.8,M,-33.8,M,,*7E
$PYRTM,2024,126.252693123264,17.362340533414
$GPGGA,060351.00,3419.5875,N,12048.8367,W,1,10,1.0,-0.7,M,-33.8,M,,*75
$PYRTM,2024,126.252704668981,17.362352079120
$GPGGA,060352.00,3419.5868,N,12048.8340,W,1,10,1.0,0.1,M,-33.8,M,,*54
$PYRTM,2024,126.252716265440,17.362363675590
$GPGGA,060353.00,3419.5860,N,12048.8313,W,1,10,1.0,-2.0,M,-33.8,M,,*75
$PYRTM,2024,126.252727819329,17.362375229468
$GPGGA,060354.00,3419.5850,N,12048.8288,W,1,10,1.0,-1.9,M,-33.8,M,,*78
$PYRTM,2024,126.252739405706,17.362386815845
$GPGGA,060355.00,3419.5841,N,12048.8264,W,1,10,1.0,-2.3,M,-33.8,M,,*72
$PYRTM,2024,126.252750965938,17.362398376076
$GPGGA,060356.00,3419.5833,N,12048.8239,W,1,10,1.0,-2.8,M,-33.8,M,,*77
$PYRTM,2024,126.252762553495,17.362409963634
$GPGGA,060357.00,3419.5825,N,12048.8213,W,1,10,1.0,-1.8,M,-33.8,M,,*7A
$PYRTM,2024,126.252774116296,17.362421526435
$GPGGA,060358.00,3419.5816,N,12048.8186,W,1,10,1.0,-2.4,M,-33.8,M,,*75
$PYRTM,2024,126.252785714977,17.362433125116
$GPGGA,060359.00,3419.5808,N,12048.8159,W,1,10,1.0,-3.1,M,-33.8,M,,*7D
$PYRTM,2024,126.252797263275,17.362444673414
$GPGGA,060400.00,3419.5800,N,12048.8133,W,1,10,1.0,-1.1,M,-33.8,M,,*70
$PYRTM,2024,126.252808850671,17.362456260810
$GPGGA,060401.00,3419.5792,N,12048.8106,W,1,10,1.0,-2.6,M,-33.8,M,,*77
$PYRTM,2024,126.252820411736,17.362467821875
$GPGGA,060402.00,3419.5783,N,12048.8081,W,1,10,1.0,-4.1,M,-33.8,M,,*7B
$PYRTM,2024,126.252831999248,17.362479409387
$GPGGA,060403.00,3419.5775,N,12048.8054,W,1,10,1.0,-3.8,M,-33.8,M,,*75
$PYRTM,2024,126.252844036181,17.362491446319
$GPGGA,060404.00,3419.5765,N,12048.8029,W,1,10,1.0,-3.8,M,-33.8,M,,*79
$PYRTM,2024,126.252855379086,17.362502789236
$GPGGA,060405.00,3419.5754,N,12048.8005,W,1,10,1.0,1.1,M,-33.8,M,,*52
$PYRTM,2024,126.252866709248,17.362514119387
$GPGGA,060406.00,3419.5744,N,12048.7980,W,1,10,1.0,-0.3,M,-33.8,M,,*75
$PYRTM,2024,126.252878309294,17.362525719433
$GPGGA,060407.00,3419.5739,N,12048.7954,W,1,10,1.0,-1.3,M,-33.8,M,,*76
$PYRTM,2024,126.252889856262,17.362537266400
$GPGGA,060408.00,3419.5733,N,12048.7926,W,1,10,1.0,-1.5,M,-33.8,M,,*70
$PYRTM,2024,126.252901447211,17.362548857350
$GPGGA,060409.00,3419.5726,N,12048.7898,W,1,10,1.0,-2.0,M,-33.8,M,,*77
$PYRTM,2024,126.252913004965,17.362560415116
$GPGGA,060410.00,3419.5716,N,12048.7872,W,1,10,1.0,-1.2,M,-33.8,M,,*79
$PYRTM,2024,126.252924593727,17.362572003866
$GPGGA,060411.00,3419.5705,N,12048.7846,W,1,10,1.0,-3.2,M,-33.8,M,,*7F
$PYRTM,2024,126.252936154306,17.362583564444
$GPGGA,060412.00,3419.5696,N,12048.7819,W,1,10,1.0,-2.8,M,-33.8,M,,*76
$PYRTM,2024,126.252947740579,17.362595150718
$GPGGA,060413.00,3419.5688,N,12048.7792,W,1,10,1.0,-3.0,M,-33.8,M,,*7D
$PYRTM,2024,126.252959302106,17.362606712245
$GPGGA,060414.00,3419.5683,N,12048.7764,W,1,10,1.0,-0.3,M,-33.8,M,,*78
$PYRTM,2024,126.252970888345,17.362618298484
$GPGGA,060415.00,3419.5676,N,12048.7737,W,1,10,1.0,0.9,M,-33.8,M,,*52
$PYRTM,2024,126.252982449757,17.362629859896
$GPGGA,060416.00,3419.5666,N,12048.7711,W,1,10,1.0,-1.6,M,-33.8,M,,*77
$PYRTM,2024,126.252995643206,17.362643053356
$GPGGA,060417.00,3419.5655,N,12048.7684,W,1,10,1.0,-3.1,M,-33.8,M,,*7E
$PYRTM,2024,126.253006987616,17.362654397755
$GPGGA,060418.00,3419.5645,N,12048.7656,W,1,10,1.0,-3.5,M,-33.8,M,,*7B
$PYRTM,2024,126.253018342118,17.362665752257
$GPGGA,060419.00,3419.5639,N,12048.7630,W,1,10,1.0,-0.9,M,-33.8,M,,*7E
$PYRTM,2024,126.253029790463,17.362677200602
$GPGGA,060420.00,3419.5633,N,12048.7604,W,1,10,1.0,0.3,M,-33.8,M,,*5E
$PYRTM,2024,126.253041489780,17.362688899919
$GPGGA,060421.00,3419.5626,N,12048.7577,W,1,10,1.0,-0.6,M,-33.8,M,,*74
$PYRTM,2024,126.253052936169,17.362700346308
$GPGGA,060422.00,3419.5616,N,12048.7548,W,1,10,1.0,2.1,M,-33.8,M,,*50
$PYRTM,2024,126.253064638600,17.362712048738
$GPGGA,060423.00,3419.5604,N,12048.7520,W,1,10,1.0,3.0,M,-33.8,M,,*5C
$PYRTM,2024,126.253076084572,17.362723494711
$GPGGA,060424.00,3419.5596,N,12048.7493,W,1,10,1.0,1.4,M,-33.8,M,,*5C
$PYRTM,2024,126.253087671354,17.362735081493
$GPGGA,060425.00,3419.5589,N,12048.7466,W,1,10,1.0,1.1,M,-33.8,M,,*5C
$PYRTM,2024,126.253099233079,17.362746643218
$GPGGA,060426.00,3419.5582,N,12048.7438,W,1,10,1.0,2.0,M,-33.8,M,,*5D
$PYRTM,2024,126.253110819873,17.362758230023
$GPGGA,060427.00,3419.5573,N,12048.7411,W,1,10,1.0,1.4,M,-33.8,M,,*5E
$PYRTM,2024,126.253122380660,17.362769790799
$GPGGA,060428.00,3419.5563,N,12048.7386,W,1,10,1.0,0.3,M,-33.8,M,,*5F
$PYRTM,2024,126.253134083900,17.362781494039
$GPGGA,060429.00,3419.5554,N,12048.7361,W,1,10,1.0,-0.2,M,-33.8,M,,*7F
$PYRTM,2024,126.253145529317,17.362792939456
$GPGGA,060430.00,3419.5545,N,12048.7336,W,1,10,1.0,0.6,M,-33.8,M,,*5C
$PYRTM,2024,126.253157116157,17.362804526296
$GPGGA,060431.00,3419.5537,N,12048.7309,W,1,10,1.0,0.5,M,-33.8,M,,*57
$PYRTM,2024,126.253168676991,17.362816087130
$GPGGA,060432.00,3419.5530,N,12048.7282,W,1,10,1.0,1.7,M,-33.8,M,,*52
$PYRTM,2024,126.253180264630,17.362827674780
$GPGGA,060433.00,3419.5523,N,12048.7253,W,1,10,1.0,1.6,M,-33.8,M,,*5C
$PYRTM,2024,126.253192301632,17.362839711771
$GPGGA,060434.00,3419.5514,N,12048.7226,W,1,09,1.0,3.1,M,-33.8,M,,*50
$PYRTM,2024,126.253203413646,17.362850823785
$GPGGA,060435.00,3419.5504,N,12048.7199,W,1,10,1.0,2.0,M,-33.8,M,,*5F
$PYRTM,2024,126.253214973507,17.362862383646
$GPGGA,060436.00,3419.5493,N,12048.7172,W,1,10,1.0,0.1,M,-33.8,M,,*55
$PYRTM,2024,126.253226676470,17.362874086609
$GPGGA,060437.00,3419.5484,N,12048.7146,W,1,10,1.0,-0.1,M,-33.8,M,,*78
$PYRTM,2024,126.253238122292,17.362885532431
$GPGGA,060438.00,3419.5477,N,12048.7121,W,1,10,1.0,3.3,M,-33.8,M,,*56
$PYRTM,2024,126.253249709444,17.362897119583
$GPGGA,060439.00,3419.5471,N,12048.7095,W,1,10,1.0,2.4,M,-33.8,M,,*59
$PYRTM,2024,126.253261271551,17.362908681690
$GPGGA,060440.00,3419.5463,N,12048.7070,W,1,10,1.0,2.0,M,-33.8,M,,*5B
$PYRTM,2024,126.253272977442,17.362920387593
$GPGGA,060441.00,3419.5453,N,12048.7044,W,1,10,1.0,-0.3,M,-33.8,M,,*72
$PYRTM,2024,126.253284421481,17.362931831620
$GPGGA,060442.00,3419.5443,N,12048.7018,W,1,10,1.0,0.3,M,-33.8,M,,*54
$PYRTM,2024,126.253296010706,17.362943420845
$GPGGA,060443.00,3419.5432,N,12048.6992,W,1,10,1.0,1.1,M,-33.8,M,,*5A
$PYRTM,2024,126.253307566991,17.362954977141
$GPGGA,060444.00,3419.5423,N,12048.6966,W,1,10,1.0,2.8,M,-33.8,M,,*5C
$PYRTM,2024,126.253319270856,17.362966680995
$GPGGA,060445.00,3419.5415,N,12048.6939,W,1,10,1.0,-0.2,M,-33.8,M,,*77
$PYRTM,2024,126.253330714595,17.362978124734
$GPGGA,060446.00,3419.5406,N,12048.6912,W,1,10,1.0,1.8,M,-33.8,M,,*59
$PYRTM,2024,126.253343447419,17.362990857558
$GPGGA,060447.00,3419.5394,N,12048.6887,W,1,10,1.0,2.5,M,-33.8,M,,*57
$PYRTM,2024,126.253356180266,17.363003590394
$GPGGA,060448.00,3419.5381,N,12048.6865,W,1,10,1.0,-1.4,M,-33.8,M,,*7F
$PYRTM,2024,126.253365566319,17.363012976458
$GPGGA,060449.00,3419.5372,N,12048.6842,W,1,10,1.0,-1.1,M,-33.8,M,,*72
$PYRTM,2024,126.253377127083,17.363024537222
$GPGGA,060450.00,3419.5367,N,12048.6816,W,1,10,1.0,-1.4,M,-33.8,M,,*7A
$PYRTM,2024,126.253388715486,17.363036125625
$GPGGA,060451.00,3419.5361,N,12048.6790,W,1,10,1.0,-1.3,M,-33.8,M,,*7B
$PYRTM,2024,126.253400274144,17.363047684282
$GPGGA,060452.00,3419.5350,N,12048.6766,W,1,10,1.0,-3.2,M,-33.8,M,,*70
$PYRTM,2024,126.253411862905,17.363059273044
$GPGGA,060453.00,3419.5337,N,12048.6741,W,1,10,1.0,-2.7,M,-33.8,M,,*71
$PYRTM,2024,126.253423423079,17.363070833206
$GPGGA,060454.00,3419.5326,N,12048.6715,W,1,10,1.0,-2.5,M,-33.8,M,,*75
$PYRTM,2024,126.253435010810,17.363082420949
$GPGGA,060455.00,3419.5318,N,12048.6688,W,1,10,1.0,0.2,M,-33.8,M,,*54
$PYRTM,2024,126.253446459595,17.363093869734
$GPGGA,060456.00,3419.5310,N,12048.6660,W,1,10,1.0,0.6,M,-33.8,M,,*5D
$PYRTM,2024,126.253458160046,17.363105570185
$GPGGA,060457.00,3419.5300,N,12048.6633,W,1,10,1.0,-0.9,M,-33.8,M,,*79
$PYRTM,2024,126.253469722164,17.363117132303
$GPGGA,060458.00,3419.5287,N,12048.6608,W,1,10,1.0,-1.9,M,-33.8,M,,*71
$PYRTM,2024,126.253481307743,17.363128717882
$GPGGA,060459.00,3419.5274,N,12048.6584,W,1,10,1.0,-1.3,M,-33.8,M,,*71
$PYRTM,2024,126.253492867350,17.363140277488
$GPGGA,060500.00,3419.5266,N,12048.6560,W,1,10,1.0,-1.2,M,-33.8,M,,*74
$PYRTM,2024,126.253504456238,17.363151866377
$GPGGA,060501.00,3419.5263,N,12048.6535,W,1,10,1.0,-2.9,M,-33.8,M,,*78
$PYRTM,2024,126.253516016852,17.363163426991
$GPGGA,060502.00,3419.5260,N,12048.6509,W,1,09,1.0,-5.0,M,-33.8,M,,*71
$PYRTM,2024,126.253527604711,17.363175014850
$GPGGA,060503.00,3419.5250,N,12048.6482,W,1,09,1.0,-4.1,M,-33.8,M,,*71
$PYRTM,2024,126.253539643704,17.363187053843
$GPGGA,060504.00,3419.5236,N,12048.6456,W,1,09,1.0,-1.3,M,-33.8,M,,*78
$PYRTM,2024,126.253551201493,17.363198611632
$GPGGA,060505.00,3419.5223,N,12048.6432,W,1,09,1.0,-0.7,M,-33.8,M,,*7A
$PYRTM,2024,126.253562790231,17.363210200382
$GPGGA,060506.00,3419.5213,N,12048.6405,W,1,09,1.0,1.1,M,-33.8,M,,*54
$PYRTM,2024,126.253574716713,17.363222126852
$GPGGA,060507.00,3419.5208,N,12048.6376,W,1,09,1.0,2.4,M,-33.8,M,,*5A
$PYRTM,2024,126.253585823113,17.363233233252
$GPGGA,060508.00,3419.5201,N,12048.6348,W,1,09,1.0,0.3,M,-33.8,M,,*54
$PYRTM,2024,126.253597049826,17.363244459965
$GPGGA,060509.00,3419.5189,N,12048.6322,W,1,09,1.0,-2.4,M,-33.8,M,,*72
$PYRTM,2024,126.253608609201,17.363256019340
$GPGGA,060510.00,3419.5178,N,12048.6297,W,1,09,1.0,-3.4,M,-33.8,M,,*7A
$PYRTM,2024,126.253620197731,17.363267607870
$GPGGA,060511.00,3419.5170,N,12048.6271,W,1,09,1.0,-0.7,M,-33.8,M,,*7B
$PYRTM,2024,126.253631758831,17.363279168970
$GPGGA,060512.00,3419.5164,N,12048.6244,W,1,09,1.0,-0.8,M,-33.8,M,,*74
$PYRTM,2024,126.253643230058,17.363290640197
$GPGGA,060513.00,3419.5158,N,12048.6217,W,1,09,1.0,1.0,M,-33.8,M,,*58
$PYRTM,2024,126.253654905116,17.363302315255
$GPGGA,060514.00,3419.5147,N,12048.6191,W,1,09,1.0,0.7,M,-33.8,M,,*5A
$PYRTM,2024,126.253666494537,17.363313904687
$GPGGA,060515.00,3419.5135,N,12048.6166,W,1,09,1.0,-1.1,M,-33.8,M,,*7C
$PYRTM,2024,126.253678055706,17.363325465856
$GPGGA,060516.00,3419.5124,N,12048.6142,W,1,09,1.0,2.8,M,-33.8,M,,*5E
$PYRTM,2024,126.253690674769,17.363338084907
$GPGGA,060517.00,3419.5115,N,12048.6119,W,1,09,1.0,1.6,M,-33.8,M,,*5E
$PYRTM,2024,126.253703405301,17.363350815440
$GPGGA,060518.00,3419.5106,N,12048.6095,W,1,09,1.0,1.2,M,-33.8,M,,*52
$PYRTM,2024,126.253712787905,17.363360198044
$GPGGA,060519.00,3419.5099,N,12048.6070,W,1,09,1.0,-0.8,M,-33.8,M,,*79
$PYRTM,2024,126.253724351759,17.363371761898
$GPGGA,060520.00,3419.5092,N,12048.6044,W,1,09,1.0,-0.8,M,-33.8,M,,*7F
$PYRTM,2024,126.253735938796,17.363383348935
$GPGGA,060521.00,3419.5083,N,12048.6019,W,1,09,1.0,-0.4,M,-33.8,M,,*7A
$PYRTM,2024,126.253747500718,17.363394910856
$GPGGA,060522.00,3419.5072,N,12048.5992,W,1,09,1.0,0.8,M,-33.8,M,,*5F
$PYRTM,2024,126.253759086863,17.363406497002
$GPGGA,060523.00,3419.5062,N,12048.5964,W,1,09,1.0,0.2,M,-33.8,M,,*5C
$PYRTM,2024,126.253770648032,17.363418058171
$GPGGA,060524.00,3419.5053,N,12048.5936,W,1,09,1.0,0.3,M,-33.8,M,,*5F
$PYRTM,2024,126.253782121100,17.363429531238
$GPGGA,060525.00,3419.5046,N,12048.5910,W,1,09,1.0,0.5,M,-33.8,M,,*58
$PYRTM,2024,126.253793681308,17.363441091447
$GPGGA,060526.00,3419.5040,N,12048.5882,W,1,09,1.0,0.5,M,-33.8,M,,*57
$PYRTM,2024,126.253805384387,17.363452794537
$GPGGA,060527.00,3419.5033,N,12048.5855,W,1,09,1.0,-0.4,M,-33.8,M,,*74
$PYRTM,2024,126.253816019572,17.363463429711
$GPGGA,060528.00,3419.5024,N,12048.5828,W,1,09,1.0,-1.2,M,-33.8,M,,*70
$PYRTM,2024,126.253829112755,17.363476522894
$GPGGA,060529.00,3419.5014,N,12048.5802,W,1,09,1.0,-1.3,M,-33.8,M,,*7B
$PYRTM,2024,126.253839754525,17.363487164664
$GPGGA,060530.00,3419.5007,N,12048.5775,W,1,09,1.0,-2.3,M,-33.8,M,,*7D
$PYRTM,2024,126.253850974468,17.363498384606
$GPGGA,060531.00,3419.5000,N,12048.5747,W,1,09,1.0,-1.6,M,-33.8,M,,*7C
$PYRTM,2024,126.253861983507,17.363509393646
$GPGGA,060532.00,3419.4993,N,12048.5720,W,1,09,1.0,0.3,M,-33.8,M,,*55
$PYRTM,2024,126.253873093738,17.363520503877
$GPGGA,060533.00,3419.4985,N,12048.5693,W,1,09,1.0,2.0,M,-33.8,M,,*5B
$PYRTM,2024,126.253884203611,17.363531613750
$GPGGA,060534.00,3419.4975,N,12048.5665,W,1,09,1.0,3.5,M,-33.8,M,,*5E
$PYRTM,2024,126.253895779016,17.363543189155
$GPGGA,060535.00,3419.4966,N,12048.5639,W,1,09,1.0,1.3,M,-33.8,M,,*50
$PYRTM,2024,126.253906759595,17.363554169734
$GPGGA,060536.00,3419.4959,N,12048.5614,W,1,09,1.0,0.6,M,-33.8,M,,*54
$PYRTM,2024,126.253917870903,17.363565281042
$GPGGA,060537.00,3419.4951,N,12048.5589,W,1,09,1.0,0.5,M,-33.8,M,,*59
$PYRTM,2024,126.253928983102,17.363576393241
$GPGGA,060538.00,3419.4943,N,12048.5563,W,1,09,1.0,-0.3,M,-33.8,M,,*7A
$PYRTM,2024,126.253940094699,17.363587504838
$GPGGA,060539.00,3419.4935,N,12048.5539,W,1,09,1.0,1.8,M,-33.8,M,,*52
$PYRTM,2024,126.253951206296,17.363598616447
$GPGGA,060540.00,3419.4927,N,12048.5514,W,1,09,1.0,1.4,M,-33.8,M,,*5C
$PYRTM,2024,126.253968452431,17.363615862569
$GPGGA,060541.00,3419.4920,N,12048.5488,W,1,09,1.0,1.0,M,-33.8,M,,*5A
$PYRTM,2024,126.253979575174,17.363626985313
$GPGGA,060542.00,3419.4912,N,12048.5461,W,1,09,1.0,0.3,M,-33.8,M,,*5D
$PYRTM,2024,126.253990685984,17.363638096123
$GPGGA,060543.00,3419.4904,N,12048.5433,W,1,09,1.0,0.0,M,-33.8,M,,*5F
$PYRTM,2024,126.254001798970,17.363649209109
$GPGGA,060544.00,3419.4895,N,12048.5406,W,1,09,1.0,-2.4,M,-33.8,M,,*7C
$PYRTM,2024,126.254012904688,17.363660314826
$GPGGA,060545.00,3419.4886,N,12048.5381,W,1,09,1.0,-3.3,M,-33.8,M,,*71
$PYRTM,2024,126.254024020486,17.363671430625
$GPGGA,060546.00,3419.4877,N,12048.5357,W,1,09,1.0,-2.3,M,-33.8,M,,*76
$PYRTM,2024,126.254035131806,17.363682541944
$GPGGA,060547.00,3419.4871,N,12048.5332,W,1,09,1.0,-0.3,M,-33.8,M,,*70
$PYRTM,2024,126.254049703958,17.363697114097
$GPGGA,060548.00,3419.4865,N,12048.5307,W,1,09,1.0,-0.7,M,-33.8,M,,*78
$PYRTM,2024,126.254060826759,17.363708236898
$GPGGA,060549.00,3419.4853,N,12048.5282,W,1,09,1.0,-1.3,M,-33.8,M,,*75
$PYRTM,2024,126.254071937616,17.363719347755
$GPGGA,060550.00,3419.4840,N,12048.5258,W,1,09,1.0,-0.2,M,-33.8,M,,*78
$PYRTM,2024,126.254083164757,17.363730574896
$GPGGA,060551.00,3419.4829,N,12048.5233,W,1,09,1.0,-0.2,M,-33.8,M,,*7B
$PYRTM,2024,126.254094274676,17.363741684815
$GPGGA,060552.00,3419.4821,N,12048.5204,W,1,09,1.0,1.7,M,-33.8,M,,*5D
$PYRTM,2024,126.254111639769,17.363759049907
$GPGGA,060553.00,3419.4812,N,12048.5175,W,1,09,1.0,-1.2,M,-33.8,M,,*71
$PYRTM,2024,126.254122748912,17.363770159051
$GPGGA,060554.00,3419.4801,N,12048.5148,W,1,09,1.0,-1.0,M,-33.8,M,,*78
$PYRTM,2024,126.254133859248,17.363781269398
$GPGGA,060555.00,3419.4787,N,12048.5122,W,1,09,1.0,-2.5,M,-33.8,M,,*72
$PYRTM,2024,126.254145089074,17.363792499213
$GPGGA,060556.00,3419.4776,N,12048.5097,W,1,09,1.0,-1.8,M,-33.8,M,,*7E
$PYRTM,2024,126.254156647118,17.363804057257
$GPGGA,060557.00,3419.4771,N,12048.5070,W,1,09,1.0,-1.8,M,-33.8,M,,*71
$PYRTM,2024,126.254167758333,17.363815168484
$GPGGA,060558.00,3419.4765,N,12048.5044,W,1,09,1.0,-2.3,M,-33.8,M,,*74
$PYRTM,2024,126.254178871389,17.363826281539
$GPGGA,060559.00,3419.4755,N,12048.5020,W,1,09,1.0,-2.0,M,-33.8,M,,*77
$PYRTM,2024,126.254189980741,17.363837390880
$GPGGA,060600.00,3419.4743,N,12048.4996,W,1,09,1.0,-2.4,M,-33.8,M,,*7E
$PYRTM,2024,126.254201092697,17.363848502836
$GPGGA,060601.00,3419.4733,N,12048.4969,W,1,09,1.0,-3.9,M,-33.8,M,,*74
$PYRTM,2024,126.254212316794,17.363859726933
$GPGGA,060602.00,3419.4726,N,12048.4942,W,1,09,1.0,-2.9,M,-33.8,M,,*7B
$PYRTM,2024,126.254223428299,17.363870838437
$GPGGA,060603.00,3419.4719,N,12048.4915,W,1,09,1.0,-0.6,M,-33.8,M,,*79
$PYRTM,2024,126.254235007431,17.363882417569
$GPGGA,060604.00,3419.4711,N,12048.4888,W,1,09,1.0,1.4,M,-33.8,M,,*5D
$PYRTM,2024,126.254246116157,17.363893526296
$GPGGA,060605.00,3419.4699,N,12048.4860,W,1,09,1.0,0.5,M,-33.8,M,,*5B
$PYRTM,2024,126.254257239479,17.363904649618
$GPGGA,060606.00,3419.4685,N,12048.4835,W,1,09,1.0,1.8,M,-33.8,M,,*59
$PYRTM,2024,126.254268344711,17.363915754850
$GPGGA,060607.00,3419.4674,N,12048.4812,W,1,09,1.0,0.8,M,-33.8,M,,*52
$PYRTM,2024,126.254279456227,17.363926866366
$GPGGA,060608.00,3419.4667,N,12048.4787,W,1,09,1.0,-2.7,M,-33.8,M,,*7C
$PYRTM,2024,126.254296934028,17.363944344167
$GPGGA,060609.00,3419.4661,N,12048.4761,W,1,09,1.0,-2.4,M,-33.8,M,,*70
$PYRTM,2024,126.254308049931,17.363955460069
$GPGGA,060610.00,3419.4652,N,12048.4735,W,1,09,1.0,-0.3,M,-33.8,M,,*7C
$PYRTM,2024,126.254319155914,17.363966566053
$GPGGA,060611.00,3419.4639,N,12048.4711,W,1,09,1.0,-0.9,M,-33.8,M,,*7C
$PYRTM,2024,126.254330387604,17.363977797743
$GPGGA,060612.00,3419.4630,N,12048.4686,W,1,09,1.0,-0.4,M,-33.8,M,,*74
$PYRTM,2024,126.254341501447,17.363988911586
$GPGGA,060613.00,3419.4622,N,12048.4660,W,1,09,1.0,-2.5,M,-33.8,M,,*7D
$PYRTM,2024,126.254352610486,17.364000020625
$GPGGA,060614.00,3419.4615,N,12048.4633,W,1,09,1.0,-2.1,M,-33.8,M,,*7C
$PYRTM,2024,126.254363721447,17.364011131586
$GPGGA,060615.00,3419.4606,N,12048.4607,W,1,09,1.0,-4.2,M,-33.8,M,,*7D
$PYRTM,2024,126.254374935336,17.364022345475
$GPGGA,060616.00,3419.4594,N,12048.4582,W,1,09,1.0,-6.1,M,-33.8,M,,*79
$PYRTM,2024,126.254387087801,17.364034497940
$GPGGA,060617.00,3419.4584,N,12048.4555,W,1,09,1.0,-4.3,M,-33.8,M,,*73
$PYRTM,2024,126.254398315116,17.364045725255
$GPGGA,060618.00,3419.4577,N,12048.4527,W,1,09,1.0,-4.3,M,-33.8,M,,*75
$PYRTM,2024,126.254409426597,17.364056836736
$GPGGA,060619.00,3419.4569,N,12048.4500,W,1,09,1.0,-1.6,M,-33.8,M,,*7E
$PYRTM,2024,126.254420538299,17.364067948438
$GPGGA,060620.00,3419.4558,N,12048.4473,W,1,09,1.0,-1.9,M,-33.8,M,,*7C
$PYRTM,2024,126.254431649039,17.364079059178
$GPGGA,060621.00,3419.4547,N,12048.4447,W,1,09,1.0,-4.6,M,-33.8,M,,*7E
$PYRTM,2024,126.254442874525,17.364090284676
$GPGGA,060622.00,3419.4536,N,12048.4420,W,1,09,1.0,-4.3,M,-33.8,M,,*7F
$PYRTM,2024,126.254453987338,17.364101397477
$GPGGA,060623.00,3419.4525,N,12048.4392,W,1,09,1.0,-1.1,M,-33.8,M,,*75
$PYRTM,2024,126.254465343819,17.364112753958
$GPGGA,060624.00,3419.4515,N,12048.4363,W,1,09,1.0,-1.0,M,-33.8,M,,*7E
$PYRTM,2024,126.254476570926,17.364123981065
$GPGGA,060625.00,3419.4507,N,12048.4333,W,1,09,1.0,1.8,M,-33.8,M,,*5C
$PYRTM,2024,126.254488244236,17.364135654375
$GPGGA,060626.00,3419.4497,N,12048.4303,W,1,09,1.0,1.0,M,-33.8,M,,*5C
$PYRTM,2024,126.254499835243,17.364147245382
$GPGGA,060627.00,3419.4485,N,12048.4276,W,1,09,1.0,0.3,M,-33.8,M,,*5F
$PYRTM,2024,126.254511393356,17.364158803495
$GPGGA,060628.00,3419.4470,N,12048.4250,W,1,09,1.0,-1.8,M,-33.8,M,,*79
$PYRTM,2024,126.254522977106,17.364170387245
$GPGGA,060629.00,3419.4458,N,12048.4223,W,1,09,1.0,-1.4,M,-33.8,M,,*7A
$PYRTM,2024,126.254534543438,17.364181953576
$GPGGA,060630.00,3419.4451,N,12048.4194,W,1,09,1.0,-0.4,M,-33.8,M,,*75
$PYRTM,2024,126.254546117755,17.364193527894
$GPGGA,060631.00,3419.4445,N,12048.4168,W,1,09,1.0,-0.8,M,-33.8,M,,*7E
$PYRTM,2024,126.254557690903,17.364205101042
$GPGGA,060632.00,3419.4436,N,12048.4144,W,1,09,1.0,-1.4,M,-33.8,M,,*7A
$PYRTM,2024,126.254569274306,17.364216684444
$GPGGA,060633.00,3419.4427,N,12048.4121,W,1,09,1.0,-1.0,M,-33.8,M,,*7C
$PYRTM,2024,126.254581194907,17.364228605046
$GPGGA,060634.00,3419.4418,N,12048.4096,W,1,09,1.0,-2.2,M,-33.8,M,,*7B
$PYRTM,2024,126.254592645764,17.364240055903
$GPGGA,060635.00,3419.4407,N,12048.4071,W,1,09,1.0,-3.3,M,-33.8,M,,*7D
$PYRTM,2024,126.254603987292,17.364251397431
$GPGGA,060636.00,3419.4399,N,12048.4046,W,1,09,1.0,-3.5,M,-33.8,M,,*7C
$PYRTM,2024,126.254615576146,17.364262986285
$GPGGA,060637.00,3419.4391,N,12048.4021,W,1,09,1.0,-1.9,M,-33.8,M,,*7A
$PYRTM,2024,126.254627135417,17.364274545556
$GPGGA,060638.00,3419.4382,N,12048.3995,W,1,09,1.0,-3.6,M,-33.8,M,,*7B
$PYRTM,2024,126.254638723495,17.364286133634
$GPGGA,060639.00,3419.4368,N,12048.3968,W,1,09,1.0,-3.6,M,-33.8,M,,*7C
$PYRTM,2024,126.254650284144,17.364297694294
$GPGGA,060640.00,3419.4356,N,12048.3940,W,1,09,1.0,-3.9,M,-33.8,M,,*7A
$PYRTM,2024,126.254661871562,17.364309281701
$GPGGA,060641.00,3419.4349,N,12048.3913,W,1,09,1.0,-3.5,M,-33.8,M,,*7F
$PYRTM,2024,126.254673431620,17.364320841759
$GPGGA,060642.00,3419.4344,N,12048.3884,W,1,09,1.0,-1.7,M,-33.8,M,,*7E
$PYRTM,2024,126.254685014699,17.364332424838
$GPGGA,060643.00,3419.4337,N,12048.3857,W,1,09,1.0,-0.3,M,-33.8,M,,*70
$PYRTM,2024,126.254696466076,17.364343876215
$GPGGA,060644.00,3419.4327,N,12048.3831,W,1,09,1.0,2.1,M,-33.8,M,,*5B
$PYRTM,2024,126.254708055775,17.364355465914
$GPGGA,060645.00,3419.4315,N,12048.3807,W,1,09,1.0,1.0,M,-33.8,M,,*5C
$PYRTM,2024,126.254719727199,17.364367137338
$GPGGA,060646.00,3419.4303,N,12048.3783,W,1,09,1.0,-0.1,M,-33.8,M,,*76
$PYRTM,2024,126.254732835069,17.364380245208
$GPGGA,060647.00,3419.4295,N,12048.3758,W,1,09,1.0,-0.1,M,-33.8,M,,*7F
$PYRTM,2024,126.254744960556,17.364392370694
$GPGGA,060648.00,3419.4289,N,12048.3733,W,1,09,1.0,-1.0,M,-33.8,M,,*70
$PYRTM,2024,126.254754464398,17.364401874537
$GPGGA,060649.00,3419.4281,N,12048.3707,W,1,09,1.0,-3.6,M,-33.8,M,,*7A
$PYRTM,2024,126.254766023391,17.364413433530
$GPGGA,060650.00,3419.4270,N,12048.3680,W,1,09,1.0,-3.9,M,-33.8,M,,*7D
$PYRTM,2024,126.254777612326,17.364425022465
$GPGGA,060651.00,3419.4258,N,12048.3653,W,1,09,1.0,-2.2,M,-33.8,M,,*72
$PYRTM,2024,126.254789172975,17.364436583113
$GPGGA,060652.00,3419.4250,N,12048.3626,W,1,09,1.0,-2.3,M,-33.8,M,,*7A
$PYRTM,2024,126.254800645498,17.364448055637
$GPGGA,060653.00,3419.4244,N,12048.3597,W,1,09,1.0,-0.5,M,-33.8,M,,*73
$PYRTM,2024,126.254812206991,17.364459617130
$GPGGA,060654.00,3419.4234,N,12048.3569,W,1,09,1.0,0.2,M,-33.8,M,,*58
$PYRTM,2024,126.254823910972,17.364471321111
$GPGGA,060655.00,3419.4221,N,12048.3545,W,1,09,1.0,-0.4,M,-33.8,M,,*78
$PYRTM,2024,126.254835471065,17.364482881204
$GPGGA,060656.00,3419.4208,N,12048.3522,W,1,09,1.0,-0.5,M,-33.8,M,,*70
$PYRTM,2024,126.254847057928,17.364494468067
$GPGGA,060657.00,3419.4197,N,12048.3498,W,1,09,1.0,-3.0,M,-33.8,M,,*72
$PYRTM,2024,126.254858618808,17.364506028958
$GPGGA,060658.00,3419.4191,N,12048.3472,W,1,09,1.0,-3.3,M,-33.8,M,,*7C
$PYRTM,2024,126.254870093796,17.364517503935
$GPGGA,060659.00,3419.4184,N,12048.3446,W,1,09,1.0,-2.1,M,-33.8,M,,*7D
$PYRTM,2024,126.254881766157,17.364529176296
$GPGGA,060700.00,3419.4173,N,12048.3419,W,1,09,1.0,-0.8,M,-33.8,M,,*79
$PYRTM,2024,126.254893354919,17.364540765058
$GPGGA,060701.00,3419.4161,N,12048.3392,W,1,09,1.0,-2.2,M,-33.8,M,,*77
$PYRTM,2024,126.254904915370,17.364552325509
$GPGGA,060702.00,3419.4149,N,12048.3364,W,1,09,1.0,-1.0,M,-33.8,M,,*76
$PYRTM,2024,126.254916498287,17.364563908426
$GPGGA,060703.00,3419.4139,N,12048.3336,W,1,09,1.0,-1.2,M,-33.8,M,,*75
$PYRTM,2024,126.254928419502,17.364575829641
$GPGGA,060704.00,3419.4130,N,12048.3310,W,1,09,1.0,-3.4,M,-33.8,M,,*7B
$PYRTM,2024,126.254940099815,17.364587509954
$GPGGA,060705.00,3419.4121,N,12048.3284,W,1,09,1.0,-3.2,M,-33.8,M,,*70
$PYRTM,2024,126.254951682812,17.364599092951
$GPGGA,060706.00,3419.4111,N,12048.3259,W,1,09,1.0,-2.8,M,-33.8,M,,*7B
$PYRTM,2024,126.254963248113,17.364610658252
$GPGGA,060707.00,3419.4100,N,12048.3235,W,1,09,1.0,-2.0,M,-33.8,M,,*78
$PYRTM,2024,126.254974832500,17.364622242639
$GPGGA,060708.00,3419.4091,N,12048.3211,W,1,09,1.0,-1.3,M,-33.8,M,,*78
$PYRTM,2024,126.254986397720,17.364633807859
$GPGGA,060709.00,3419.4082,N,12048.3184,W,1,09,1.0,-0.6,M,-33.8,M,,*70
$PYRTM,2024,126.254997984815,17.364645394954
$GPGGA,060710.00,3419.4070,N,12048.3159,W,1,09,1.0,-2.3,M,-33.8,M,,*72
$PYRTM,2024,126.255009546238,17.364656956377
$GPGGA,060711.00,3419.4060,N,12048.3134,W,1,09,1.0,-2.7,M,-33.8,M,,*7D
$PYRTM,2024,126.255021128449,17.364668538588
$GPGGA,060712.00,3419.4052,N,12048.3109,W,1,09,1.0,-2.5,M,-33.8,M,,*73
$PYRTM,2024,126.255032693843,17.364680103981
$GPGGA,060713.00,3419.4045,N,12048.3082,W,1,09,1.0,-3.0,M,-33.8,M,,*72
$PYRTM,2024,126.255044280637,17.364691690775
$GPGGA,060714.00,3419.4034,N,12048.3057,W,1,09,1.0,-2.9,M,-33.8,M,,*73
$PYRTM,2024,126.255055841285,17.364703251424
$GPGGA,060715.00,3419.4023,N,12048.3032,W,1,09,1.0,-3.8,M,-33.8,M,,*77
$PYRTM,2024,126.255067431007,17.364714841146
$GPGGA,060716.00,3419.4014,N,12048.3005,W,1,09,1.0,-1.0,M,-33.8,M,,*7E
$PYRTM,2024,126.255080164468,17.364727574606
$GPGGA,060717.00,3419.4007,N,12048.2978,W,1,09,1.0,-2.4,M,-33.8,M,,*78
$PYRTM,2024,126.255092303171,17.364739713310
$GPGGA,060718.00,3419.3997,N,12048.2952,W,1,09,1.0,-1.8,M,-33.8,M,,*77
$PYRTM,2024,126.255101690139,17.364749100278
$GPGGA,060719.00,3419.3983,N,12048.2926,W,1,09,1.0,-0.7,M,-33.8,M,,*7E
$PYRTM,2024,126.255113249410,17.364760659549
$GPGGA,060720.00,3419.3970,N,12048.2901,W,1,09,1.0,-3.6,M,-33.8,M,,*7F
$PYRTM,2024,126.255124837708,17.364772247859
$GPGGA,060721.00,3419.3959,N,12048.2876,W,1,09,1.0,-4.3,M,-33.8,M,,*76
$PYRTM,2024,126.255136399271,17.364783809410
$GPGGA,060722.00,3419.3949,N,12048.2852,W,1,09,1.0,-5.1,M,-33.8,M,,*71
$PYRTM,2024,126.255147986644,17.364795396782
$GPGGA,060723.00,3419.3939,N,12048.2827,W,1,09,1.0,-5.8,M,-33.8,M,,*7C
$PYRTM,2024,126.255159545926,17.364806956076
$GPGGA,060724.00,3419.3930,N,12048.2802,W,1,09,1.0,-6.5,M,-33.8,M,,*7B
$PYRTM,2024,126.255171124977,17.364818535116
$GPGGA,060725.00,3419.3922,N,12048.2778,W,1,09,1.0,-6.0,M,-33.8,M,,*7E
$PYRTM,2024,126.255182695255,17.364830105394
$GPGGA,060726.00,3419.3913,N,12048.2753,W,1,09,1.0,-7.7,M,-33.8,M,,*70
$PYRTM,2024,126.255194277187,17.364841687326
$GPGGA,060727.00,3419.3902,N,12048.2727,W,1,09,1.0,-8.7,M,-33.8,M,,*7D
$PYRTM,2024,126.255205843414,17.364853253565
$GPGGA,060728.00,3419.3893,N,12048.2702,W,1,09,1.0,-8.5,M,-33.8,M,,*7E
$PYRTM,2024,126.255217426204,17.364864836343
$GPGGA,060729.00,3419.3884,N,12048.2677,W,1,09,1.0,-7.1,M,-33.8,M,,*71
$PYRTM,2024,126.255228990683,17.364876400833
$GPGGA,060730.00,3419.3874,N,12048.2652,W,1,09,1.0,-5.2,M,-33.8,M,,*70
$PYRTM,2024,126.255240580231,17.364887990370
$GPGGA,060731.00,3419.3867,N,12048.2625,W,1,09,1.0,-4.7,M,-33.8,M,,*77
$PYRTM,2024,126.255252138229,17.364899548368
$GPGGA,060732.00,3419.3858,N,12048.2598,W,1,09,1.0,-4.3,M,-33.8,M,,*79
$PYRTM,2024,126.255262801435,17.364910211574
$GPGGA,060733.00,3419.3847,N,12048.2572,W,1,09,1.0,-4.5,M,-33.8,M,,*74
$PYRTM,2024,126.255274833623,17.364922243762
$GPGGA,060734.00,3419.3833,N,12048.2545,W,1,09,1.0,-2.9,M,-33.8,M,,*7E
$PYRTM,2024,126.255284908530,17.364932318681
$GPGGA,060735.00,3419.3822,N,12048.2518,W,1,09,1.0,-4.5,M,-33.8,M,,*7D
$PYRTM,2024,126.255299492326,17.364946902465
$GPGGA,060736.00,3419.3813,N,12048.2491,W,1,09,1.0,-2.6,M,-33.8,M,,*79
$PYRTM,2024,126.255310713067,17.364958123206
$GPGGA,060737.00,3419.3807,N,12048.2464,W,1,09,1.0,-3.9,M,-33.8,M,,*79
$PYRTM,2024,126.255322281042,17.364969691192
$GPGGA,060738.00,3419.3800,N,12048.2437,W,1,09,1.0,-3.9,M,-33.8,M,,*77
$PYRTM,2024,126.255333391620,17.364980801759
$GPGGA,060739.00,3419.3789,N,12048.2412,W,1,09,1.0,-4.5,M,-33.8,M,,*74
$PYRTM,2024,126.255345544016,17.364992954155
$GPGGA,060740.00,3419.3778,N,12048.2387,W,1,09,1.0,-2.7,M,-33.8,M,,*7B
$PYRTM,2024,126.255367880961,17.365015291100
$GPGGA,060741.00,3419.3767,N,12048.2361,W,1,09,1.0,-7.0,M,-33.8,M,,*7E
$PYRTM,2024,126.255378992512,17.365026402650
$GPGGA,060742.00,3419.3759,N,12048.2335,W,1,09,1.0,-7.9,M,-33.8,M,,*78
$PYRTM,2024,126.255390103623,17.365037513773
$GPGGA,060743.00,3419.3753,N,12048.2307,W,1,09,1.0,-7.8,M,-33.8,M,,*73
$PYRTM,2024,126.255401213588,17.365048623727
$GPGGA,060744.00,3419.3744,N,12048.2279,W,1,09,1.0,-8.0,M,-33.8,M,,*7D
$PYRTM,2024,126.255412455023,17.365059865162
$GPGGA,060745.00,3419.3732,N,12048.2251,W,1,09,1.0,-5.0,M,-33.8,M,,*7A
$PYRTM,2024,126.255423567488,17.365070977627
$GPGGA,060746.00,3419.3721,N,12048.2223,W,1,09,1.0,-3.0,M,-33.8,M,,*78
$PYRTM,2024,126.255434680764,17.365082090903
$GPGGA,060747.00,3419.3712,N,12048.2194,W,1,09,1.0,-0.8,M,-33.8,M,,*7D
$PYRTM,2024,126.255444399861,17.365091810000
$GPGGA,060748.00,3419.3704,N,12048.2166,W,1,09,1.0,1.1,M,-33.8,M,,*5D
$PYRTM,2024,126.255455613646,17.365103023796
$GPGGA,060749.00,3419.3693,N,12048.2139,W,1,09,1.0,-0.5,M,-33.8,M,,*71
$PYRTM,2024,126.255467767373,17.365115177512
$GPGGA,060750.00,3419.3681,N,12048.2113,W,1,09,1.0,-0.4,M,-33.8,M,,*73
$PYRTM,2024,126.255478994977,17.365126405116
$GPGGA,060751.00,3419.3673,N,12048.2088,W,1,09,1.0,-2.1,M,-33.8,M,,*7B
$PYRTM,2024,126.255490107176,17.365137517326
$GPGGA,060752.00,3419.3667,N,12048.2064,W,1,09,1.0,-2.3,M,-33.8,M,,*7D
$PYRTM,2024,126.255501216123,17.365148626262
$GPGGA,060753.00,3419.3657,N,12048.2040,W,1,09,1.0,-3.5,M,-33.8,M,,*7E
$PYRTM,2024,126.255512330093,17.365159740231
$GPGGA,060754.00,3419.3646,N,12048.2015,W,1,09,1.0,-0.1,M,-33.8,M,,*7E
$PYRTM,2024,126.255523553113,17.365170963252
$GPGGA,060755.00,3419.3634,N,12048.1988,W,1,09,1.0,-2.3,M,-33.8,M,,*74
$PYRTM,2024,126.255534664977,17.365182075116
$GPGGA,060756.00,3419.3621,N,12048.1960,W,1,09,1.0,0.3,M,-33.8,M,,*5A
$PYRTM,2024,126.255545776065,17.365193186204
$GPGGA,060757.00,3419.3609,N,12048.1932,W,1,09,1.0,-0.6,M,-33.8,M,,*7E
$PYRTM,2024,126.255556885440,17.365204295579
$GPGGA,060758.00,3419.3599,N,12048.1903,W,1,09,1.0,0.6,M,-33.8,M,,*54
$PYRTM,2024,126.255567997014,17.365215407153
$GPGGA,060759.00,3419.3591,N,12048.1874,W,1,09,1.0,-0.7,M,-33.8,M,,*70
$PYRTM,2024,126.255579109444,17.365226519595
$GPGGA,060800.00,3419.3581,N,12048.1847,W,1,09,1.0,1.3,M,-33.8,M,,*5A
$PYRTM,2024,126.255590220278,17.365237630417
$GPGGA,060801.00,3419.3569,N,12048.1821,W,1,09,1.0,1.7,M,-33.8,M,,*59
$PYRTM,2024,126.255601330764,17.365248740903
$GPGGA,060802.00,3419.3556,N,12048.1796,W,1,09,1.0,-0.5,M,-33.8,M,,*7B
$PYRTM,2024,126.255612572176,17.365259982315
$GPGGA,060803.00,3419.3544,N,12048.1772,W,1,09,1.0,-1.5,M,-33.8,M,,*72
$PYRTM,2024,126.255623683669,17.365271093808
$GPGGA,060804.00,3419.3534,N,12048.1748,W,1,09,1.0,-0.2,M,-33.8,M,,*7D
$PYRTM,2024,126.255635246296,17.365282656435
$GPGGA,060805.00,3419.3525,N,12048.1724,W,1,09,1.0,-0.9,M,-33.8,M,,*7D
$PYRTM,2024,126.255646365845,17.365293775984
$GPGGA,060806.00,3419.3515,N,12048.1697,W,1,09,1.0,-1.7,M,-33.8,M,,*7B
$PYRTM,2024,126.255668810359,17.365316220509
$GPGGA,060807.00,3419.3505,N,12048.1670,W,1,09,1.0,-2.5,M,-33.8,M,,*73
$PYRTM,2024,126.255679921100,17.365327331238
$GPGGA,060808.00,3419.3494,N,12048.1644,W,1,09,1.0,-2.2,M,-33.8,M,,*75
$PYRTM,2024,126.255691032558,17.365338442708
$GPGGA,060809.00,3419.3485,N,12048.1617,W,1,09,1.0,-1.9,M,-33.8,M,,*7A
$PYRTM,2024,126.255702144109,17.365349554248
$GPGGA,060810.00,3419.3478,N,12048.1590,W,1,09,1.0,0.0,M,-33.8,M,,*59
$PYRTM,2024,126.255713255486,17.365360665625
$GPGGA,060811.00,3419.3471,N,12048.1563,W,1,09,1.0,-2.3,M,-33.8,M,,*71
$PYRTM,2024,126.255724480799,17.365371890937
$GPGGA,060812.00,3419.3462,N,12048.1535,W,1,09,1.0,-5.2,M,-33.8,M,,*75
$PYRTM,2024,126.255735592083,17.365383002222
$GPGGA,060813.00,3419.3451,N,12048.1508,W,1,09,1.0,-4.8,M,-33.8,M,,*71
$PYRTM,2024,126.255746701620,17.365394111759
$GPGGA,060814.00,3419.3440,N,12048.1483,W,1,09,1.0,-3.9,M,-33.8,M,,*72
$PYRTM,2024,126.255757814479,17.365405224618
$GPGGA,060815.00,3419.3430,N,12048.1456,W,1,09,1.0,-2.4,M,-33.8,M,,*70
$PYRTM,2024,126.255769055556,17.365416465694
$GPGGA,060816.00,3419.3421,N,12048.1429,W,1,09,1.0,-4.1,M,-33.8,M,,*78
$PYRTM,2024,126.255780168889,17.365427579028
$GPGGA,060817.00,3419.3410,N,12048.1403,W,1,09,1.0,-4.4,M,-33.8,M,,*76
$PYRTM,2024,126.255789887616,17.365437297755
$GPGGA,060818.00,3419.3398,N,12048.1378,W,1,09,1.0,-5.9,M,-33.8,M,,*79
$PYRTM,2024,126.255801102176,17.365448512315
$GPGGA,060819.00,3419.3388,N,12048.1353,W,1,09,1.0,-5.5,M,-33.8,M,,*7C
$PYRTM,2024,126.255813254803,17.365460664942
$GPGGA,060820.00,3419.3379,N,12048.1326,W,1,09,1.0,-7.3,M,-33.8,M,,*7E
$PYRTM,2024,126.255824479838,17.365471889977
$GPGGA,060821.00,3419.3371,N,12048.1297,W,1,09,1.0,-6.6,M,-33.8,M,,*78
$PYRTM,2024,126.255835592326,17.365483002465
$GPGGA,060822.00,3419.3362,N,12048.1270,W,1,09,1.0,-2.7,M,-33.8,M,,*75
$PYRTM,2024,126.255846704618,17.365494114769
$GPGGA,060823.00,3419.3352,N,12048.1242,W,1,09,1.0,-1.2,M,-33.8,M,,*70
$PYRTM,2024,126.255857815579,17.365505225718
$GPGGA,060824.00,3419.3341,N,12048.1214,W,1,09,1.0,-1.8,M,-33.8,M,,*7C
$PYRTM,2024,126.255869055486,17.365516465625
$GPGGA,060825.00,3419.3328,N,12048.1184,W,1,09,1.0,-2.0,M,-33.8,M,,*73
$PYRTM,2024,126.255880165903,17.365527576042
$GPGGA,060826.00,3419.3315,N,12048.1156,W,1,09,1.0,-4.1,M,-33.8,M,,*76
$PYRTM,2024,126.255891272014,17.365538682153
$GPGGA,060827.00,3419.3301,N,12048.1130,W,1,09,1.0,-3.5,M,-33.8,M,,*71
$PYRTM,2024,126.255902839074,17.365550249213
$GPGGA,060828.00,3419.3290,N,12048.1105,W,1,09,1.0,-1.2,M,-33.8,M,,*74
$PYRTM,2024,126.255913950995,17.365561361134
$GPGGA,060829.00,3419.3281,N,12048.1080,W,1,09,1.0,-3.0,M,-33.8,M,,*79
$PYRTM,2024,126.255925177269,17.365572587407
$GPGGA,060830.00,3419.3273,N,12048.1052,W,1,09,1.0,-2.1,M,-33.8,M,,*73
$PYRTM,2024,126.255936290683,17.365583700822
$GPGGA,060831.00,3419.3264,N,12048.1024,W,1,09,1.0,-2.3,M,-33.8,M,,*77
$PYRTM,2024,126.255947401863,17.365594812014
$GPGGA,060832.00,3419.3253,N,12048.0998,W,1,09,1.0,-5.2,M,-33.8,M,,*79
$PYRTM,2024,126.255958513391,17.365605923530
$GPGGA,060833.00,3419.3241,N,12048.0971,W,1,09,1.0,-4.0,M,-33.8,M,,*7F
$PYRTM,2024,126.255969984456,17.365617394595
$GPGGA,060834.00,3419.3231,N,12048.0943,W,1,09,1.0,-1.1,M,-33.8,M,,*7A
$PYRTM,2024,126.255981311690,17.365628721829
$GPGGA,060835.00,3419.3223,N,12048.0915,W,1,09,1.0,-3.3,M,-33.8,M,,*7B
$PYRTM,2024,126.255993240775,17.365640650914
