$PYRTM,2024,122.750008849433,13.859656259572
$GPGGA,175959.00,3356.6240,N,11944.0330,W,1,09,0.8,6.0,M,-33.9,M,,*51
$PYRTM,2024,122.750020436319,13.859667846458
$GPGGA,180000.00,3356.6240,N,11944.0300,W,1,09,0.8,4.1,M,-33.9,M,,*5E
$PYRTM,2024,122.750031997581,13.859679407720
$GPGGA,180001.00,3356.6242,N,11944.0271,W,1,09,0.8,4.9,M,-33.9,M,,*52
$PYRTM,2024,122.750044034861,13.859691445000
$GPGGA,180002.00,3356.6244,N,11944.0242,W,1,09,0.8,8.8,M,-33.9,M,,*5A
$PYRTM,2024,122.750055145313,13.859702555451
$GPGGA,180003.00,3356.6246,N,11944.0212,W,1,09,0.8,9.7,M,-33.9,M,,*52
$PYRTM,2024,122.750066733785,13.859714143924
$GPGGA,180004.00,3356.6248,N,11944.0183,W,1,09,0.8,10.9,M,-33.9,M,,*66
$PYRTM,2024,122.750078294190,13.859725704329
$GPGGA,180005.00,3356.6249,N,11944.0154,W,1,09,0.8,11.4,M,-33.9,M,,*60
$PYRTM,2024,122.750089877801,13.859737287951
$GPGGA,180006.00,3356.6251,N,11944.0125,W,1,09,0.8,10.4,M,-33.9,M,,*6D
$PYRTM,2024,122.750101443345,13.859748853484
$GPGGA,180007.00,3356.6254,N,11944.0097,W,1,09,0.8,10.6,M,-33.9,M,,*63
$PYRTM,2024,122.750113028484,13.859760438623
$GPGGA,180008.00,3356.6256,N,11944.0068,W,1,09,0.8,11.1,M,-33.9,M,,*68
$PYRTM,2024,122.750124592222,13.859772002361
$GPGGA,180009.00,3356.6259,N,11944.0039,W,1,09,0.8,9.5,M,-33.9,M,,*5F
$PYRTM,2024,122.750136180556,13.859783590694
$GPGGA,180010.00,3356.6262,N,11944.0010,W,1,09,0.8,11.2,M,-33.9,M,,*6A
$PYRTM,2024,122.750147739537,13.859795149676
$GPGGA,180011.00,3356.6263,N,11943.9980,W,1,09,0.8,9.6,M,-33.9,M,,*59
$PYRTM,2024,122.750159339259,13.859806749398
$GPGGA,180012.00,3356.6265,N,11943.9949,W,1,09,0.8,8.0,M,-33.9,M,,*5E
$PYRTM,2024,122.750170887720,13.859818297859
$GPGGA,180013.00,3356.6267,N,11943.9919,W,1,09,0.8,7.6,M,-33.9,M,,*51
$PYRTM,2024,122.750182476921,13.859829887060
$GPGGA,180014.00,3356.6271,N,11943.9888,W,1,09,0.8,8.6,M,-33.9,M,,*57
$PYRTM,2024,122.750194036921,13.859841447060
$GPGGA,180015.00,3356.6273,N,11943.9858,W,1,09,0.8,9.4,M,-33.9,M,,*5A
$PYRTM,2024,122.750205617882,13.859853028021
$GPGGA,180016.00,3356.6275,N,11943.9828,W,1,09,0.8,12.3,M,-33.9,M,,*65
$PYRTM,2024,122.750218690417,13.859866100556
$GPGGA,180017.00,3356.6277,N,11943.9798,W,1,09,0.8,9.6,M,-33.9,M,,*5D
$PYRTM,2024,122.750230957778,13.859878367928
$GPGGA,180018.00,3356.6281,N,11943.9768,W,1,09,0.8,7.6,M,-33.9,M,,*5A
$PYRTM,2024,122.750240332778,13.859887742917
$GPGGA,180019.00,3356.6284,N,11943.9739,W,1,09,0.8,8.9,M,-33.9,M,,*5A
$PYRTM,2024,122.750251918692,13.859899328831
$GPGGA,180020.00,3356.6288,N,11943.9709,W,1,09,0.8,9.0,M,-33.9,M,,*57
$PYRTM,2024,122.750263481713,13.859910891852
$GPGGA,180021.00,3356.6291,N,11943.9679,W,1,09,0.8,8.6,M,-33.9,M,,*5F
$PYRTM,2024,122.750275067836,13.859922477975
$GPGGA,180022.00,3356.6294,N,11943.9649,W,1,09,0.8,6.9,M,-33.9,M,,*5B
$PYRTM,2024,122.750286628079,13.859934038218
$GPGGA,180023.00,3356.6295,N,11943.9620,W,1,09,0.8,6.8,M,-33.9,M,,*55
$PYRTM,2024,122.750298222697,13.859945632836
$GPGGA,180024.00,3356.6297,N,11943.9590,W,1,09,0.8,8.0,M,-33.9,M,,*5E
$PYRTM,2024,122.750309782095,13.859957192234
$GPGGA,180025.00,3356.6300,N,11943.9560,W,1,09,0.8,9.8,M,-33.9,M,,*56
$PYRTM,2024,122.750321365775,13.859968775926
$GPGGA,180026.00,3356.6304,N,11943.9529,W,1,09,0.8,9.7,M,-33.9,M,,*53
$PYRTM,2024,122.750332925139,13.859980335289
$GPGGA,180027.00,3356.6307,N,11943.9498,W,1,09,0.8,9.8,M,-33.9,M,,*55
$PYRTM,2024,122.750344515197,13.859991925347
$GPGGA,180028.00,3356.6310,N,11943.9467,W,1,09,0.8,10.6,M,-33.9,M,,*6A
$PYRTM,2024,122.750356073299,13.860003483438
$GPGGA,180029.00,3356.6314,N,11943.9437,W,1,09,0.8,11.1,M,-33.9,M,,*6C
$PYRTM,2024,122.750367662894,13.860015073032
$GPGGA,180030.00,3356.6317,N,11943.9408,W,1,09,0.8,10.2,M,-33.9,M,,*69
$PYRTM,2024,122.750379221042,13.860026631181
$GPGGA,180031.00,3356.6321,N,11943.9377,W,1,09,0.8,9.7,M,-33.9,M,,*5F
$PYRTM,2024,122.750391259931,13.860038670069
$GPGGA,180032.00,3356.6323,N,11943.9347,W,1,09,0.8,7.7,M,-33.9,M,,*53
$PYRTM,2024,122.750402370359,13.860049780509
$GPGGA,180033.00,3356.6324,N,11943.9318,W,1,09,0.8,8.9,M,-33.9,M,,*5E
$PYRTM,2024,122.750413957280,13.860061367419
$GPGGA,180034.00,3356.6326,N,11943.9288,W,1,09,0.8,10.0,M,-33.9,M,,*63
$PYRTM,2024,122.750425517431,13.860072927569
$GPGGA,180035.00,3356.6328,N,11943.9259,W,1,09,0.8,10.7,M,-33.9,M,,*67
$PYRTM,2024,122.750437100451,13.860084510590
$GPGGA,180036.00,3356.6331,N,11943.9231,W,1,09,0.8,12.7,M,-33.9,M,,*60
$PYRTM,2024,122.750448667720,13.860096077870
$GPGGA,180037.00,3356.6334,N,11943.9203,W,1,09,0.8,11.9,M,-33.9,M,,*68
$PYRTM,2024,122.750460253773,13.860107663912
$GPGGA,180038.00,3356.6336,N,11943.9175,W,1,09,0.8,12.2,M,-33.9,M,,*6F
$PYRTM,2024,122.750471814618,13.860119224757
$GPGGA,180039.00,3356.6340,N,11943.9147,W,1,09,0.8,11.2,M,-33.9,M,,*6D
$PYRTM,2024,122.750483401076,13.860130811215
$GPGGA,180040.00,3356.6343,N,11943.9118,W,1,09,0.8,12.8,M,-33.9,M,,*63
$PYRTM,2024,122.750494962558,13.860142372697
$GPGGA,180041.00,3356.6346,N,11943.9090,W,1,09,0.8,12.0,M,-33.9,M,,*6E
$PYRTM,2024,122.750506550162,13.860153960301
$GPGGA,180042.00,3356.6348,N,11943.9061,W,1,09,0.8,11.8,M,-33.9,M,,*66
$PYRTM,2024,122.750518111539,13.860165521678
$GPGGA,180043.00,3356.6348,N,11943.9032,W,1,09,0.8,11.9,M,-33.9,M,,*60
$PYRTM,2024,122.750529712245,13.860177122396
$GPGGA,180044.00,3356.6350,N,11943.9002,W,1,09,0.8,12.3,M,-33.9,M,,*64
$PYRTM,2024,122.750541260648,13.860188670787
$GPGGA,180045.00,3356.6352,N,11943.8971,W,1,09,0.8,11.3,M,-33.9,M,,*68
$PYRTM,2024,122.750552848044,13.860200258183
$GPGGA,180046.00,3356.6355,N,11943.8940,W,1,09,0.8,10.2,M,-33.9,M,,*6E
$PYRTM,2024,122.750565563044,13.860212973183
$GPGGA,180047.00,3356.6359,N,11943.8911,W,1,09,0.8,10.6,M,-33.9,M,,*63
$PYRTM,2024,122.750578179178,13.860225589317
$GPGGA,180048.00,3356.6362,N,11943.8881,W,1,09,0.8,10.1,M,-33.9,M,,*6B
$PYRTM,2024,122.750587554039,13.860234964178
$GPGGA,180049.00,3356.6364,N,11943.8851,W,1,09,0.8,9.8,M,-33.9,M,,*50
$PYRTM,2024,122.750599142407,13.860246552546
$GPGGA,180050.00,3356.6367,N,11943.8822,W,1,09,0.8,10.3,M,-33.9,M,,*6C
$PYRTM,2024,122.750609777616,13.860257187755
$GPGGA,180051.00,3356.6370,N,11943.8792,W,1,09,0.8,10.2,M,-33.9,M,,*6E
$PYRTM,2024,122.750622855544,13.860270265683
$GPGGA,180052.00,3356.6374,N,11943.8762,W,1,09,0.8,12.4,M,-33.9,M,,*62
$PYRTM,2024,122.750633521968,13.860280932118
$GPGGA,180053.00,3356.6378,N,11943.8731,W,1,09,0.8,14.1,M,-33.9,M,,*6A
$PYRTM,2024,122.750644510012,13.860291920150
$GPGGA,180054.00,3356.6381,N,11943.8700,W,1,09,0.8,14.8,M,-33.9,M,,*60
$PYRTM,2024,122.750655628657,13.860303038796
$GPGGA,180055.00,3356.6385,N,11943.8669,W,1,09,0.8,12.5,M,-33.9,M,,*60
$PYRTM,2024,122.750666735984,13.860314146123
$GPGGA,180056.00,3356.6389,N,11943.8638,W,1,09,0.8,12.0,M,-33.9,M,,*6E
$PYRTM,2024,122.750677733981,13.860325144120
$GPGGA,180057.00,3356.6394,N,11943.8607,W,1,09,0.8,11.8,M,-33.9,M,,*64
$PYRTM,2024,122.750688857407,13.860336267546
$GPGGA,180058.00,3356.6398,N,11943.8578,W,1,09,0.8,12.2,M,-33.9,M,,*65
$PYRTM,2024,122.750699823241,13.860347233380
$GPGGA,180059.00,3356.6401,N,11943.8549,W,1,09,0.8,7.0,M,-33.9,M,,*57
$PYRTM,2024,122.750710934028,13.860358344167
$GPGGA,180100.00,3356.6404,N,11943.8521,W,1,09,0.8,8.0,M,-33.9,M,,*5E
$PYRTM,2024,122.750721931840,13.860369341991
$GPGGA,180101.00,3356.6407,N,11943.8493,W,1,09,0.8,10.3,M,-33.9,M,,*6E
$PYRTM,2024,122.750733520637,13.860380930775
$GPGGA,180102.00,3356.6411,N,11943.8466,W,1,09,0.8,10.7,M,-33.9,M,,*64
$PYRTM,2024,122.750746252303,13.860393662442
$GPGGA,180103.00,3356.6415,N,11943.8438,W,1,09,0.8,11.9,M,-33.9,M,,*65
$PYRTM,2024,122.750757232199,13.860404642338
$GPGGA,180104.00,3356.6418,N,11943.8409,W,1,09,0.8,13.2,M,-33.9,M,,*64
$PYRTM,2024,122.750768343484,13.860415753623
$GPGGA,180105.00,3356.6422,N,11943.8380,W,1,09,0.8,14.4,M,-33.9,M,,*6B
$PYRTM,2024,122.750779454213,13.860426864352
$GPGGA,180106.00,3356.6426,N,11943.8351,W,1,09,0.8,13.9,M,-33.9,M,,*6A
$PYRTM,2024,122.750792554468,13.860439964606
$GPGGA,180107.00,3356.6430,N,11943.8322,W,1,09,0.8,12.4,M,-33.9,M,,*64
$PYRTM,2024,122.750803527963,13.860450938102
$GPGGA,180108.00,3356.6434,N,11943.8291,W,1,09,0.8,12.3,M,-33.9,M,,*61
$PYRTM,2024,122.750814639745,13.860462049884
$GPGGA,180109.00,3356.6438,N,11943.8259,W,1,09,0.8,11.2,M,-33.9,M,,*6A
$PYRTM,2024,122.750825750961,13.860473161100
$GPGGA,180110.00,3356.6441,N,11943.8229,W,1,09,0.8,13.1,M,-33.9,M,,*6A
$PYRTM,2024,122.750836991481,13.860484401620
$GPGGA,180111.00,3356.6445,N,11943.8199,W,1,09,0.8,12.3,M,-33.9,M,,*64
$PYRTM,2024,122.750848566609,13.860495976748
$GPGGA,180112.00,3356.6449,N,11943.8168,W,1,09,0.8,13.7,M,-33.9,M,,*60
$PYRTM,2024,122.750860141204,13.860507551343
$GPGGA,180113.00,3356.6452,N,11943.8139,W,1,09,0.8,12.9,M,-33.9,M,,*60
$PYRTM,2024,122.750871713310,13.860519123449
$GPGGA,180114.00,3356.6455,N,11943.8111,W,1,09,0.8,11.8,M,-33.9,M,,*68
$PYRTM,2024,122.750883287523,13.860530697662
$GPGGA,180115.00,3356.6458,N,11943.8082,W,1,09,0.8,11.8,M,-33.9,M,,*6F
$PYRTM,2024,122.750894858113,13.860542268252
$GPGGA,180116.00,3356.6462,N,11943.8055,W,1,09,0.8,12.3,M,-33.9,M,,*67
$PYRTM,2024,122.750910604155,13.860558014294
$GPGGA,180117.00,3356.6466,N,11943.8027,W,1,09,0.8,14.2,M,-33.9,M,,*60
$PYRTM,2024,122.750922180509,13.860569590648
$GPGGA,180118.00,3356.6470,N,11943.7997,W,1,09,0.8,14.3,M,-33.9,M,,*64
$PYRTM,2024,122.750933752292,13.860581162431
$GPGGA,180119.00,3356.6474,N,11943.7967,W,1,09,0.8,12.1,M,-33.9,M,,*6A
$PYRTM,2024,122.750945325891,13.860592736030
$GPGGA,180120.00,3356.6477,N,11943.7936,W,1,09,0.8,12.3,M,-33.9,M,,*65
$PYRTM,2024,122.750956899687,13.860604309826
$GPGGA,180121.00,3356.6482,N,11943.7904,W,1,09,0.8,14.1,M,-33.9,M,,*6B
$PYRTM,2024,122.750968468588,13.860615878727
$GPGGA,180122.00,3356.6487,N,11943.7872,W,1,09,0.8,12.7,M,-33.9,M,,*6D
$PYRTM,2024,122.750980047523,13.860627457662
$GPGGA,180123.00,3356.6491,N,11943.7842,W,1,09,0.8,12.3,M,-33.9,M,,*6C
$PYRTM,2024,122.750991621794,13.860639031933
$GPGGA,180124.00,3356.6494,N,11943.7813,W,1,09,0.8,13.8,M,-33.9,M,,*60
$PYRTM,2024,122.751003196609,13.860650606748
$GPGGA,180125.00,3356.6498,N,11943.7785,W,1,09,0.8,14.1,M,-33.9,M,,*63
$PYRTM,2024,122.751014771863,13.860662182002
$GPGGA,180126.00,3356.6501,N,11943.7757,W,1,09,0.8,11.3,M,-33.9,M,,*69
$PYRTM,2024,122.751026338484,13.860673748623
$GPGGA,180127.00,3356.6506,N,11943.7728,W,1,09,0.8,11.3,M,-33.9,M,,*67
$PYRTM,2024,122.751037918912,13.860685329051
$GPGGA,180128.00,3356.6511,N,11943.7698,W,1,09,0.8,13.4,M,-33.9,M,,*61
$PYRTM,2024,122.751049487025,13.860696897164
$GPGGA,180129.00,3356.6515,N,11943.7670,W,1,09,0.8,13.7,M,-33.9,M,,*61
$PYRTM,2024,122.751061067569,13.860708477708
$GPGGA,180130.00,3356.6518,N,11943.7641,W,1,09,0.8,14.7,M,-33.9,M,,*61
$PYRTM,2024,122.751072640035,13.860720050174
$GPGGA,180131.00,3356.6520,N,11943.7611,W,1,09,0.8,13.3,M,-33.9,M,,*6D
$PYRTM,2024,122.751084217650,13.860731627801
$GPGGA,180132.00,3356.6524,N,11943.7580,W,1,09,0.8,12.1,M,-33.9,M,,*62
$PYRTM,2024,122.751095789421,13.860743199560
$GPGGA,180133.00,3356.6528,N,11943.7550,W,1,09,0.8,13.6,M,-33.9,M,,*64
$PYRTM,2024,122.751107368600,13.860754778738
$GPGGA,180134.00,3356.6530,N,11943.7519,W,1,09,0.8,8.5,M,-33.9,M,,*5E
$PYRTM,2024,122.751118936192,13.860766346331
$GPGGA,180135.00,3356.6533,N,11943.7489,W,1,09,0.8,12.0,M,-33.9,M,,*6A
$PYRTM,2024,122.751130514722,13.860777924873
$GPGGA,180136.00,3356.6536,N,11943.7459,W,1,09,0.8,13.8,M,-33.9,M,,*68
$PYRTM,2024,122.751142085336,13.860789495475
$GPGGA,180137.00,3356.6539,N,11943.7430,W,1,09,0.8,12.4,M,-33.9,M,,*64
$PYRTM,2024,122.751153660000,13.860801070139
$GPGGA,180138.00,3356.6543,N,11943.7401,W,1,09,0.8,11.0,M,-33.9,M,,*63
$PYRTM,2024,122.751165228588,13.860812638727
$GPGGA,180139.00,3356.6547,N,11943.7373,W,1,09,0.8,11.4,M,-33.9,M,,*60
$PYRTM,2024,122.751176807870,13.860824218021
$GPGGA,180140.00,3356.6551,N,11943.7344,W,1,09,0.8,12.3,M,-33.9,M,,*69
$PYRTM,2024,122.751188381678,13.860835791829
$GPGGA,180141.00,3356.6554,N,11943.7316,W,1,09,0.8,12.4,M,-33.9,M,,*6D
$PYRTM,2024,122.751199958657,13.860847368796
$GPGGA,180142.00,3356.6558,N,11943.7286,W,1,09,0.8,12.2,M,-33.9,M,,*6C
$PYRTM,2024,122.751211530289,13.860858940428
$GPGGA,180143.00,3356.6563,N,11943.7257,W,1,09,0.8,12.8,M,-33.9,M,,*63
$PYRTM,2024,122.751223104375,13.860870514514
$GPGGA,180144.00,3356.6567,N,11943.7229,W,1,09,0.8,11.8,M,-33.9,M,,*6A
$PYRTM,2024,122.751234677766,13.860882087917
$GPGGA,180145.00,3356.6572,N,11943.7199,W,1,09,0.8,10.5,M,-33.9,M,,*6B
$PYRTM,2024,122.751246252465,13.860893662604
$GPGGA,180146.00,3356.6577,N,11943.7169,W,1,09,0.8,11.5,M,-33.9,M,,*63
$PYRTM,2024,122.751257594769,13.860905004907
$GPGGA,180147.00,3356.6583,N,11943.7138,W,1,09,0.8,13.8,M,-33.9,M,,*62
$PYRTM,2024,122.751270445451,13.860917855602
$GPGGA,180148.00,3356.6587,N,11943.7109,W,1,09,0.8,14.5,M,-33.9,M,,*61
$PYRTM,2024,122.751282005104,13.860929415255
$GPGGA,180149.00,3356.6592,N,11943.7080,W,1,09,0.8,12.4,M,-33.9,M,,*63
$PYRTM,2024,122.751293597454,13.860941007593
$GPGGA,180150.00,3356.6595,N,11943.7052,W,1,09,0.8,11.3,M,-33.9,M,,*67
$PYRTM,2024,122.751305152731,13.860952562870
$GPGGA,180151.00,3356.6599,N,11943.7023,W,1,09,0.8,9.8,M,-33.9,M,,*5E
$PYRTM,2024,122.751316738819,13.860964148958
$GPGGA,180152.00,3356.6603,N,11943.6994,W,1,09,0.8,10.6,M,-33.9,M,,*6F
$PYRTM,2024,122.751328301678,13.860975711817
$GPGGA,180153.00,3356.6608,N,11943.6965,W,1,09,0.8,12.0,M,-33.9,M,,*6F
$PYRTM,2024,122.751339888553,13.860987298692
$GPGGA,180154.00,3356.6612,N,11943.6936,W,1,09,0.8,12.7,M,-33.9,M,,*62
$PYRTM,2024,122.751351447708,13.860998857847
$GPGGA,180155.00,3356.6615,N,11943.6907,W,1,09,0.8,12.1,M,-33.9,M,,*60
$PYRTM,2024,122.751363035486,13.861010445625
$GPGGA,180156.00,3356.6618,N,11943.6878,W,1,09,0.8,12.9,M,-33.9,M,,*6F
$PYRTM,2024,122.751375075856,13.861022485995
$GPGGA,180157.00,3356.6623,N,11943.6849,W,1,09,0.8,12.1,M,-33.9,M,,*6C
$PYRTM,2024,122.751386179109,13.861033589248
$GPGGA,180158.00,3356.6627,N,11943.6820,W,1,09,0.8,12.2,M,-33.9,M,,*6B
$PYRTM,2024,122.751397745301,13.861045155440
$GPGGA,180159.00,3356.6631,N,11943.6791,W,1,09,0.8,10.9,M,-33.9,M,,*61
$PYRTM,2024,122.751409335509,13.861056745648
$GPGGA,180200.00,3356.6634,N,11943.6762,W,1,09,0.8,11.2,M,-33.9,M,,*6D
$PYRTM,2024,122.751420894711,13.861068304850
$GPGGA,180201.00,3356.6637,N,11943.6734,W,1,09,0.8,9.3,M,-33.9,M,,*54
$PYRTM,2024,122.751432930509,13.861080340660
$GPGGA,180202.00,3356.6641,N,11943.6705,W,1,09,0.8,9.3,M,-33.9,M,,*54
$PYRTM,2024,122.751444041123,13.861091451262
$GPGGA,180203.00,3356.6643,N,11943.6678,W,1,09,0.8,11.3,M,-33.9,M,,*65
$PYRTM,2024,122.751455633565,13.861103043704
$GPGGA,180204.00,3356.6647,N,11943.6649,W,1,09,0.8,11.9,M,-33.9,M,,*6E
$PYRTM,2024,122.751467191134,13.861114601273
$GPGGA,180205.00,3356.6649,N,11943.6618,W,1,09,0.8,11.6,M,-33.9,M,,*6A
$PYRTM,2024,122.751478779861,13.861126190000
$GPGGA,180206.00,3356.6653,N,11943.6588,W,1,09,0.8,10.2,M,-33.9,M,,*6D
$PYRTM,2024,122.751490339907,13.861137750046
$GPGGA,180207.00,3356.6656,N,11943.6557,W,1,09,0.8,9.6,M,-33.9,M,,*57
$PYRTM,2024,122.751501926076,13.861149336215
$GPGGA,180208.00,3356.6660,N,11943.6526,W,1,09,0.8,8.9,M,-33.9,M,,*55
$PYRTM,2024,122.751513490637,13.861160900787
$GPGGA,180209.00,3356.6664,N,11943.6496,W,1,09,0.8,8.7,M,-33.9,M,,*54
$PYRTM,2024,122.751525075185,13.861172485324
$GPGGA,180210.00,3356.6667,N,11943.6467,W,1,09,0.8,7.7,M,-33.9,M,,*5E
$PYRTM,2024,122.751536635405,13.861184045544
$GPGGA,180211.00,3356.6670,N,11943.6438,W,1,09,0.8,7.0,M,-33.9,M,,*54
$PYRTM,2024,122.751548223484,13.861195633623
$GPGGA,180212.00,3356.6673,N,11943.6410,W,1,09,0.8,9.2,M,-33.9,M,,*52
$PYRTM,2024,122.751559784630,13.861207194769
$GPGGA,180213.00,3356.6677,N,11943.6382,W,1,09,0.8,10.8,M,-33.9,M,,*69
$PYRTM,2024,122.751571370891,13.861218781030
$GPGGA,180214.00,3356.6682,N,11943.6354,W,1,09,0.8,10.7,M,-33.9,M,,*60
$PYRTM,2024,122.751582932465,13.861230342616
$GPGGA,180215.00,3356.6685,N,11943.6324,W,1,09,0.8,11.6,M,-33.9,M,,*61
$PYRTM,2024,122.751594520012,13.861241930150
$GPGGA,180216.00,3356.6689,N,11943.6293,W,1,09,0.8,14.2,M,-33.9,M,,*62
$PYRTM,2024,122.751607235208,13.861254645347
$GPGGA,180217.00,3356.6693,N,11943.6261,W,1,09,0.8,13.0,M,-33.9,M,,*60
$PYRTM,2024,122.751619854051,13.861267264190
$GPGGA,180218.00,3356.6696,N,11943.6230,W,1,09,0.8,12.2,M,-33.9,M,,*6D
$PYRTM,2024,122.751629229479,13.861276639618
$GPGGA,180219.00,3356.6699,N,11943.6199,W,1,09,0.8,12.8,M,-33.9,M,,*69
$PYRTM,2024,122.751640818426,13.861288228576
$GPGGA,180220.00,3356.6703,N,11943.6171,W,1,09,0.8,10.7,M,-33.9,M,,*6A
$PYRTM,2024,122.751652377639,13.861299787778
$GPGGA,180221.00,3356.6707,N,11943.6142,W,1,09,0.8,8.9,M,-33.9,M,,*58
$PYRTM,2024,122.751663969155,13.861311379294
$GPGGA,180222.00,3356.6713,N,11943.6113,W,1,09,0.8,9.5,M,-33.9,M,,*57
$PYRTM,2024,122.751675526516,13.861322936655
$GPGGA,180223.00,3356.6718,N,11943.6084,W,1,09,0.8,8.8,M,-33.9,M,,*5E
$PYRTM,2024,122.751687113958,13.861334524097
$GPGGA,180224.00,3356.6723,N,11943.6056,W,1,09,0.8,10.9,M,-33.9,M,,*66
$PYRTM,2024,122.751698686690,13.861346096840
$GPGGA,180225.00,3356.6726,N,11943.6028,W,1,09,0.8,9.7,M,-33.9,M,,*5D
$PYRTM,2024,122.751710261181,13.861357671319
$GPGGA,180226.00,3356.6731,N,11943.6000,W,1,09,0.8,9.4,M,-33.9,M,,*51
$PYRTM,2024,122.751721834340,13.861369244479
$GPGGA,180227.00,3356.6735,N,11943.5970,W,1,09,0.8,8.9,M,-33.9,M,,*55
$PYRTM,2024,122.751733409583,13.861380819722
$GPGGA,180228.00,3356.6738,N,11943.5941,W,1,09,0.8,9.2,M,-33.9,M,,*5F
$PYRTM,2024,122.751744978241,13.861392388380
$GPGGA,180229.00,3356.6741,N,11943.5912,W,1,09,0.8,10.8,M,-33.9,M,,*64
$PYRTM,2024,122.751756555486,13.861403965625
$GPGGA,180230.00,3356.6745,N,11943.5883,W,1,09,0.8,11.4,M,-33.9,M,,*6C
$PYRTM,2024,122.751768125799,13.861415535949
$GPGGA,180231.00,3356.6748,N,11943.5854,W,1,09,0.8,10.3,M,-33.9,M,,*6C
$PYRTM,2024,122.751780168495,13.861427578634
$GPGGA,180232.00,3356.6752,N,11943.5826,W,1,09,0.8,10.0,M,-33.9,M,,*62
$PYRTM,2024,122.751791279039,13.861438689190
$GPGGA,180233.00,3356.6755,N,11943.5798,W,1,09,0.8,10.7,M,-33.9,M,,*69
$PYRTM,2024,122.751802855613,13.861450265752
$GPGGA,180234.00,3356.6759,N,11943.5771,W,1,09,0.8,9.3,M,-33.9,M,,*59
$PYRTM,2024,122.751814426933,13.861461837072
$GPGGA,180235.00,3356.6762,N,11943.5743,W,1,09,0.8,9.5,M,-33.9,M,,*57
$PYRTM,2024,122.751826004178,13.861473414317
$GPGGA,180236.00,3356.6765,N,11943.5714,W,1,09,0.8,7.3,M,-33.9,M,,*59
$PYRTM,2024,122.751837575012,13.861484985150
$GPGGA,180237.00,3356.6769,N,11943.5684,W,1,09,0.8,9.4,M,-33.9,M,,*55
$PYRTM,2024,122.751849152384,13.861496562523
$GPGGA,180238.00,3356.6772,N,11943.5655,W,1,09,0.8,9.4,M,-33.9,M,,*5C
$PYRTM,2024,122.751860724630,13.861508134769
$GPGGA,180239.00,3356.6776,N,11943.5626,W,1,09,0.8,11.3,M,-33.9,M,,*63
$PYRTM,2024,122.751872300613,13.861519710752
$GPGGA,180240.00,3356.6779,N,11943.5597,W,1,09,0.8,10.7,M,-33.9,M,,*6E
$PYRTM,2024,122.751883871748,13.861531281887
$GPGGA,180241.00,3356.6782,N,11943.5567,W,1,09,0.8,9.0,M,-33.9,M,,*5B
$PYRTM,2024,122.751895445775,13.861542855914
$GPGGA,180242.00,3356.6785,N,11943.5538,W,1,09,0.8,9.1,M,-33.9,M,,*54
$PYRTM,2024,122.751907019653,13.861554429792
$GPGGA,180243.00,3356.6788,N,11943.5509,W,1,09,0.8,10.6,M,-33.9,M,,*65
$PYRTM,2024,122.751918593785,13.861566003924
$GPGGA,180244.00,3356.6791,N,11943.5480,W,1,09,0.8,8.8,M,-33.9,M,,*5D
$PYRTM,2024,122.751930170498,13.861577580637
$GPGGA,180245.00,3356.6794,N,11943.5451,W,1,09,0.8,8.5,M,-33.9,M,,*58
$PYRTM,2024,122.751941743588,13.861589153727
$GPGGA,180246.00,3356.6797,N,11943.5421,W,1,09,0.8,11.0,M,-33.9,M,,*62
$PYRTM,2024,122.751954940347,13.861602350486
$GPGGA,180247.00,3356.6802,N,11943.5393,W,1,09,0.8,11.3,M,-33.9,M,,*6D
$PYRTM,2024,122.751967079167,13.861614489306
$GPGGA,180248.00,3356.6807,N,11943.5365,W,1,09,0.8,10.9,M,-33.9,M,,*65
$PYRTM,2024,122.751976464572,13.861623874711
$GPGGA,180249.00,3356.6812,N,11943.5335,W,1,09,0.8,11.8,M,-33.9,M,,*65
$PYRTM,2024,122.751988043252,13.861635453391
$GPGGA,180250.00,3356.6817,N,11943.5304,W,1,09,0.8,12.1,M,-33.9,M,,*60
$PYRTM,2024,122.751999613553,13.861647023692
$GPGGA,180251.00,3356.6822,N,11943.5275,W,1,09,0.8,11.6,M,-33.9,M,,*64
$PYRTM,2024,122.752011190301,13.861658600440
$GPGGA,180252.00,3356.6826,N,11943.5246,W,1,09,0.8,14.5,M,-33.9,M,,*65
$PYRTM,2024,122.752022760937,13.861670171076
$GPGGA,180253.00,3356.6831,N,11943.5219,W,1,09,0.8,14.4,M,-33.9,M,,*69
$PYRTM,2024,122.752034340312,13.861681750451
$GPGGA,180254.00,3356.6836,N,11943.5191,W,1,09,0.8,11.4,M,-33.9,M,,*6F
$PYRTM,2024,122.752045905822,13.861693315972
$GPGGA,180255.00,3356.6841,N,11943.5163,W,1,09,0.8,8.5,M,-33.9,M,,*5A
$PYRTM,2024,122.752056558171,13.861703968310
$GPGGA,180256.00,3356.6844,N,11943.5134,W,1,09,0.8,7.4,M,-33.9,M,,*50
$PYRTM,2024,122.752069522153,13.861716932303
$GPGGA,180257.00,3356.6847,N,11943.5105,W,1,09,0.8,11.0,M,-33.9,M,,*63
$PYRTM,2024,122.752080271424,13.861727681563
$GPGGA,180258.00,3356.6851,N,11943.5076,W,1,09,0.8,11.4,M,-33.9,M,,*6A
$PYRTM,2024,122.752091280185,13.861738690324
$GPGGA,180259.00,3356.6855,N,11943.5045,W,1,09,0.8,10.8,M,-33.9,M,,*62
$PYRTM,2024,122.752102391262,13.861749801400
$GPGGA,180300.00,3356.6858,N,11943.5017,W,1,09,0.8,9.8,M,-33.9,M,,*5D
$PYRTM,2024,122.752113387153,13.861760797292
$GPGGA,180301.00,3356.6862,N,11943.4987,W,1,09,0.8,12.5,M,-33.9,M,,*63
$PYRTM,2024,122.752124946887,13.861772357025
$GPGGA,180302.00,3356.6866,N,11943.4957,W,1,09,0.8,11.3,M,-33.9,M,,*6C
$PYRTM,2024,122.752135943299,13.861783353438
$GPGGA,180303.00,3356.6870,N,11943.4927,W,1,09,0.8,12.8,M,-33.9,M,,*65
$PYRTM,2024,122.752147055706,13.861794465845
$GPGGA,180304.00,3356.6874,N,11943.4897,W,1,09,0.8,11.8,M,-33.9,M,,*6F
$PYRTM,2024,122.752158050729,13.861805460868
$GPGGA,180305.00,3356.6878,N,11943.4868,W,1,09,0.8,9.5,M,-33.9,M,,*56
$PYRTM,2024,122.752169161447,13.861816571586
$GPGGA,180306.00,3356.6882,N,11943.4840,W,1,09,0.8,8.0,M,-33.9,M,,*5E
$PYRTM,2024,122.752180169525,13.861827579664
$GPGGA,180307.00,3356.6886,N,11943.4811,W,1,09,0.8,9.5,M,-33.9,M,,*5B
$PYRTM,2024,122.752193466840,13.861840876979
$GPGGA,180308.00,3356.6889,N,11943.4782,W,1,09,0.8,7.8,M,-33.9,M,,*5D
$PYRTM,2024,122.752204580532,13.861851990671
$GPGGA,180309.00,3356.6894,N,11943.4754,W,1,09,0.8,9.9,M,-33.9,M,,*54
$PYRTM,2024,122.752215573947,13.861862984086
$GPGGA,180310.00,3356.6899,N,11943.4725,W,1,09,0.8,13.7,M,-33.9,M,,*62
$PYRTM,2024,122.752226685069,13.861874095208
$GPGGA,180311.00,3356.6904,N,11943.4696,W,1,09,0.8,10.6,M,-33.9,M,,*6D
$PYRTM,2024,122.752237681597,13.861885091736
$GPGGA,180312.00,3356.6908,N,11943.4667,W,1,09,0.8,7.8,M,-33.9,M,,*54
$PYRTM,2024,122.752249022106,13.861896432245
$GPGGA,180313.00,3356.6911,N,11943.4638,W,1,09,0.8,6.2,M,-33.9,M,,*5C
$PYRTM,2024,122.752260605266,13.861908015405
$GPGGA,180314.00,3356.6914,N,11943.4610,W,1,09,0.8,9.4,M,-33.9,M,,*5D
$PYRTM,2024,122.752272169549,13.861919579699
$GPGGA,180315.00,3356.6917,N,11943.4582,W,1,09,0.8,7.5,M,-33.9,M,,*58
$PYRTM,2024,122.752283753750,13.861931163889
$GPGGA,180316.00,3356.6921,N,11943.4554,W,1,09,0.8,9.8,M,-33.9,M,,*56
$PYRTM,2024,122.752295318646,13.861942728785
$GPGGA,180317.00,3356.6924,N,11943.4525,W,1,09,0.8,9.3,M,-33.9,M,,*5F
$PYRTM,2024,122.752311062199,13.861958472338
$GPGGA,180318.00,3356.6926,N,11943.4496,W,1,09,0.8,10.6,M,-33.9,M,,*66
$PYRTM,2024,122.752322643576,13.861970053715
$GPGGA,180319.00,3356.6930,N,11943.4468,W,1,09,0.8,10.2,M,-33.9,M,,*65
$PYRTM,2024,122.752334207350,13.861981617488
$GPGGA,180320.00,3356.6933,N,11943.4439,W,1,09,0.8,10.4,M,-33.9,M,,*6E
$PYRTM,2024,122.752345797604,13.861993207755
$GPGGA,180321.00,3356.6938,N,11943.4409,W,1,09,0.8,9.3,M,-33.9,M,,*58
$PYRTM,2024,122.752357354977,13.862004765127
$GPGGA,180322.00,3356.6942,N,11943.4380,W,1,09,0.8,7.7,M,-33.9,M,,*5A
$PYRTM,2024,122.752368943519,13.862016353657
$GPGGA,180323.00,3356.6946,N,11943.4351,W,1,09,0.8,8.5,M,-33.9,M,,*5E
$PYRTM,2024,122.752380503600,13.862027913738
$GPGGA,180324.00,3356.6950,N,11943.4321,W,1,09,0.8,9.5,M,-33.9,M,,*58
$PYRTM,2024,122.752392092465,13.862039502604
$GPGGA,180325.00,3356.6954,N,11943.4293,W,1,09,0.8,10.8,M,-33.9,M,,*60
$PYRTM,2024,122.752403652188,13.862051062326
$GPGGA,180326.00,3356.6958,N,11943.4264,W,1,09,0.8,12.5,M,-33.9,M,,*68
$PYRTM,2024,122.752415240394,13.862062650532
$GPGGA,180327.00,3356.6962,N,11943.4236,W,1,09,0.8,12.8,M,-33.9,M,,*6A
$PYRTM,2024,122.752426801285,13.862074211424
$GPGGA,180328.00,3356.6966,N,11943.4207,W,1,09,0.8,12.7,M,-33.9,M,,*6C
$PYRTM,2024,122.752438387963,13.862085798102
$GPGGA,180329.00,3356.6969,N,11943.4179,W,1,09,0.8,12.3,M,-33.9,M,,*6C
$PYRTM,2024,122.752449948414,13.862097358553
$GPGGA,180330.00,3356.6971,N,11943.4151,W,1,09,0.8,12.5,M,-33.9,M,,*61
$PYRTM,2024,122.752461531748,13.862108941887
$GPGGA,180331.00,3356.6974,N,11943.4123,W,1,09,0.8,13.4,M,-33.9,M,,*60
$PYRTM,2024,122.752473097454,13.862120507604
$GPGGA,180332.00,3356.6978,N,11943.4094,W,1,09,0.8,14.1,M,-33.9,M,,*60
$PYRTM,2024,122.752484681505,13.862132091644
$GPGGA,180333.00,3356.6982,N,11943.4066,W,1,09,0.8,14.8,M,-33.9,M,,*60
$PYRTM,2024,122.752496244421,13.862143654572
$GPGGA,180334.00,3356.6986,N,11943.4037,W,1,09,0.8,15.3,M,-33.9,M,,*6D
$PYRTM,2024,122.752507833275,13.862155243414
$GPGGA,180335.00,3356.6991,N,11943.4007,W,1,09,0.8,15.3,M,-33.9,M,,*69
$PYRTM,2024,122.752519393831,13.862166803970
$GPGGA,180336.00,3356.6995,N,11943.3978,W,1,09,0.8,14.8,M,-33.9,M,,*62
$PYRTM,2024,122.752531430683,13.862178840822
$GPGGA,180337.00,3356.6999,N,11943.3949,W,1,09,0.8,14.3,M,-33.9,M,,*66
$PYRTM,2024,122.752542541713,13.862189951852
$GPGGA,180338.00,3356.7003,N,11943.3920,W,1,09,0.8,12.3,M,-33.9,M,,*6B
$PYRTM,2024,122.752554130440,13.862201540579
$GPGGA,180339.00,3356.7007,N,11943.3890,W,1,09,0.8,12.7,M,-33.9,M,,*60
$PYRTM,2024,122.752565690220,13.862213100359
$GPGGA,180340.00,3356.7011,N,11943.3860,W,1,09,0.8,12.5,M,-33.9,M,,*64
$PYRTM,2024,122.752577277870,13.862224688009
$GPGGA,180341.00,3356.7015,N,11943.3832,W,1,09,0.8,11.3,M,-33.9,M,,*63
$PYRTM,2024,122.752588837662,13.862236247801
$GPGGA,180342.00,3356.7018,N,11943.3804,W,1,09,0.8,10.8,M,-33.9,M,,*62
$PYRTM,2024,122.752600427338,13.862247837477
$GPGGA,180343.00,3356.7021,N,11943.3776,W,1,09,0.8,10.3,M,-33.9,M,,*68
$PYRTM,2024,122.752611985231,13.862259395370
$GPGGA,180344.00,3356.7025,N,11943.3747,W,1,09,0.8,10.4,M,-33.9,M,,*6E
$PYRTM,2024,122.752623574572,13.862270984722
$GPGGA,180345.00,3356.7028,N,11943.3719,W,1,09,0.8,9.6,M,-33.9,M,,*53
$PYRTM,2024,122.752635133912,13.862282544051
$GPGGA,180346.00,3356.7032,N,11943.3689,W,1,09,0.8,10.9,M,-33.9,M,,*64
$PYRTM,2024,122.752647867269,13.862295277407
$GPGGA,180347.00,3356.7036,N,11943.3659,W,1,09,0.8,11.7,M,-33.9,M,,*63
$PYRTM,2024,122.752659338935,13.862306749074
$GPGGA,180348.00,3356.7040,N,11943.3629,W,1,09,0.8,12.0,M,-33.9,M,,*6E
$PYRTM,2024,122.752670907431,13.862318317569
$GPGGA,180349.00,3356.7045,N,11943.3600,W,1,09,0.8,14.0,M,-33.9,M,,*67
$PYRTM,2024,122.752682486400,13.862329896539
$GPGGA,180350.00,3356.7050,N,11943.3570,W,1,09,0.8,12.3,M,-33.9,M,,*6A
$PYRTM,2024,122.752694060706,13.862341470856
$GPGGA,180351.00,3356.7054,N,11943.3540,W,1,09,0.8,10.7,M,-33.9,M,,*6A
$PYRTM,2024,122.752705636956,13.862353047095
$GPGGA,180352.00,3356.7058,N,11943.3512,W,1,09,0.8,12.2,M,-33.9,M,,*65
$PYRTM,2024,122.752717208900,13.862364619039
$GPGGA,180353.00,3356.7063,N,11943.3483,W,1,09,0.8,12.6,M,-33.9,M,,*61
$PYRTM,2024,122.752728783958,13.862376194097
$GPGGA,180354.00,3356.7067,N,11943.3455,W,1,09,0.8,12.8,M,-33.9,M,,*67
$PYRTM,2024,122.752740357755,13.862387767894
$GPGGA,180355.00,3356.7072,N,11943.3427,W,1,09,0.8,13.1,M,-33.9,M,,*6F
$PYRTM,2024,122.752751935336,13.862399345475
$GPGGA,180356.00,3356.7077,N,11943.3398,W,1,09,0.8,12.8,M,-33.9,M,,*62
$PYRTM,2024,122.752763505220,13.862410915370
$GPGGA,180357.00,3356.7081,N,11943.3370,W,1,09,0.8,14.4,M,-33.9,M,,*66
$PYRTM,2024,122.752775082708,13.862422492847
$GPGGA,180358.00,3356.7085,N,11943.3341,W,1,09,0.8,13.4,M,-33.9,M,,*68
$PYRTM,2024,122.752786654294,13.862434064433
$GPGGA,180359.00,3356.7090,N,11943.3312,W,1,09,0.8,12.8,M,-33.9,M,,*66
$PYRTM,2024,122.752798242350,13.862445652488
$GPGGA,180400.00,3356.7094,N,11943.3284,W,1,09,0.8,11.8,M,-33.9,M,,*64
$PYRTM,2024,122.752809802118,13.862457212257
$GPGGA,180401.00,3356.7098,N,11943.3256,W,1,09,0.8,12.8,M,-33.9,M,,*65
$PYRTM,2024,122.752821833576,13.862469243715
$GPGGA,180402.00,3356.7102,N,11943.3227,W,1,09,0.8,10.8,M,-33.9,M,,*60
$PYRTM,2024,122.752832950417,13.862480360556
$GPGGA,180403.00,3356.7107,N,11943.3199,W,1,09,0.8,12.2,M,-33.9,M,,*6A
$PYRTM,2024,122.752844525174,13.862491935312
$GPGGA,180404.00,3356.7111,N,11943.3171,W,1,09,0.8,12.5,M,-33.9,M,,*6B
$PYRTM,2024,122.752856098403,13.862503508542
$GPGGA,180405.00,3356.7114,N,11943.3144,W,1,09,0.8,12.1,M,-33.9,M,,*6D
$PYRTM,2024,122.752867672894,13.862515083032
$GPGGA,180406.00,3356.7117,N,11943.3116,W,1,09,0.8,11.5,M,-33.9,M,,*6D
$PYRTM,2024,122.752879248206,13.862526658345
$GPGGA,180407.00,3356.7120,N,11943.3089,W,1,09,0.8,12.6,M,-33.9,M,,*6F
$PYRTM,2024,122.752890822153,13.862538232303
$GPGGA,180408.00,3356.7124,N,11943.3061,W,1,09,0.8,13.8,M,-33.9,M,,*6D
$PYRTM,2024,122.752902395081,13.862549805220
$GPGGA,180409.00,3356.7128,N,11943.3032,W,1,09,0.8,13.4,M,-33.9,M,,*6A
$PYRTM,2024,122.752913969722,13.862561379861
$GPGGA,180410.00,3356.7131,N,11943.3002,W,1,09,0.8,14.5,M,-33.9,M,,*6F
$PYRTM,2024,122.752925542963,13.862572953102
$GPGGA,180411.00,3356.7135,N,11943.2973,W,1,09,0.8,14.9,M,-33.9,M,,*68
$PYRTM,2024,122.752937133310,13.862584543449
$GPGGA,180412.00,3356.7139,N,11943.2943,W,1,09,0.8,16.2,M,-33.9,M,,*6D
$PYRTM,2024,122.752948691910,13.862596102049
$GPGGA,180413.00,3356.7144,N,11943.2914,W,1,09,0.8,12.5,M,-33.9,M,,*67
$PYRTM,2024,122.752960269109,13.862607679248
$GPGGA,180414.00,3356.7148,N,11943.2884,W,1,09,0.8,12.5,M,-33.9,M,,*64
$PYRTM,2024,122.752971840301,13.862619250440
$GPGGA,180415.00,3356.7151,N,11943.2854,W,1,09,0.8,10.2,M,-33.9,M,,*65
$PYRTM,2024,122.752983417361,13.862630827500
$GPGGA,180416.00,3356.7155,N,11943.2826,W,1,09,0.8,11.4,M,-33.9,M,,*60
$PYRTM,2024,122.752996132986,13.862643543125
$GPGGA,180417.00,3356.7158,N,11943.2797,W,1,09,0.8,12.5,M,-33.9,M,,*6B
$PYRTM,2024,122.753008749016,13.862656159155
$GPGGA,180418.00,3356.7162,N,11943.2768,W,1,09,0.8,15.4,M,-33.9,M,,*6B
$PYRTM,2024,122.753018136377,13.862665546516
$GPGGA,180419.00,3356.7166,N,11943.2740,W,1,09,0.8,13.0,M,-33.9,M,,*66
$PYRTM,2024,122.753029711759,13.862677121898
$GPGGA,180420.00,3356.7169,N,11943.2712,W,1,09,0.8,12.8,M,-33.9,M,,*6D
$PYRTM,2024,122.753041286192,13.862688696331
$GPGGA,180421.00,3356.7172,N,11943.2684,W,1,09,0.8,11.8,M,-33.9,M,,*6B
$PYRTM,2024,122.753052864873,13.862700275012
$GPGGA,180422.00,3356.7176,N,11943.2655,W,1,09,0.8,13.5,M,-33.9,M,,*6F
$PYRTM,2024,122.753064432975,13.862711843113
$GPGGA,180423.00,3356.7180,N,11943.2626,W,1,09,0.8,14.0,M,-33.9,M,,*61
$PYRTM,2024,122.753076011331,13.862723421470
$GPGGA,180424.00,3356.7184,N,11943.2598,W,1,09,0.8,14.0,M,-33.9,M,,*64
$PYRTM,2024,122.753087581968,13.862734992106
$GPGGA,180425.00,3356.7189,N,11943.2570,W,1,09,0.8,13.9,M,-33.9,M,,*60
$PYRTM,2024,122.753099157164,13.862746567315
$GPGGA,180426.00,3356.7194,N,11943.2542,W,1,09,0.8,13.8,M,-33.9,M,,*6F
$PYRTM,2024,122.753111188148,13.862758598287
$GPGGA,180427.00,3356.7197,N,11943.2515,W,1,09,0.8,13.0,M,-33.9,M,,*67
$PYRTM,2024,122.753122306620,13.862769716759
$GPGGA,180428.00,3356.7201,N,11943.2487,W,1,09,0.8,11.4,M,-33.9,M,,*68
$PYRTM,2024,122.753133878981,13.862781289120
$GPGGA,180429.00,3356.7205,N,11943.2459,W,1,09,0.8,12.5,M,-33.9,M,,*6C
$PYRTM,2024,122.753145466551,13.862792876690
$GPGGA,180430.00,3356.7209,N,11943.2429,W,1,09,0.8,14.2,M,-33.9,M,,*6E
$PYRTM,2024,122.753157028009,13.862804438148
$GPGGA,180431.00,3356.7212,N,11943.2400,W,1,09,0.8,14.5,M,-33.9,M,,*69
$PYRTM,2024,122.753169063310,13.862816473449
$GPGGA,180432.00,3356.7215,N,11943.2371,W,1,09,0.8,15.2,M,-33.9,M,,*6A
$PYRTM,2024,122.753180173229,13.862827583368
$GPGGA,180433.00,3356.7219,N,11943.2342,W,1,09,0.8,13.1,M,-33.9,M,,*62
$PYRTM,2024,122.753191748912,13.862839159051
$GPGGA,180434.00,3356.7222,N,11943.2314,W,1,09,0.8,11.4,M,-33.9,M,,*69
$PYRTM,2024,122.753203324884,13.862850735023
$GPGGA,180435.00,3356.7224,N,11943.2285,W,1,09,0.8,9.8,M,-33.9,M,,*52
$PYRTM,2024,122.753214897245,13.862862307396
$GPGGA,180436.00,3356.7227,N,11943.2258,W,1,09,0.8,7.8,M,-33.9,M,,*5C
$PYRTM,2024,122.753226470752,13.862873880891
$GPGGA,180437.00,3356.7229,N,11943.2231,W,1,09,0.8,7.9,M,-33.9,M,,*5D
$PYRTM,2024,122.753238045417,13.862885455556
$GPGGA,180438.00,3356.7233,N,11943.2204,W,1,09,0.8,7.4,M,-33.9,M,,*52
$PYRTM,2024,122.753249619641,13.862897029780
$GPGGA,180439.00,3356.7237,N,11943.2177,W,1,09,0.8,8.3,M,-33.9,M,,*58
$PYRTM,2024,122.753261193935,13.862908604074
$GPGGA,180440.00,3356.7240,N,11943.2148,W,1,09,0.8,7.2,M,-33.9,M,,*54
$PYRTM,2024,122.753272767500,13.862920177639
$GPGGA,180441.00,3356.7243,N,11943.2119,W,1,09,0.8,8.0,M,-33.9,M,,*5F
$PYRTM,2024,122.753284342905,13.862931753044
$GPGGA,180442.00,3356.7246,N,11943.2089,W,1,09,0.8,9.8,M,-33.9,M,,*58
$PYRTM,2024,122.753295917708,13.862943327847
$GPGGA,180443.00,3356.7250,N,11943.2059,W,1,09,0.8,11.6,M,-33.9,M,,*64
$PYRTM,2024,122.753307495741,13.862954905891
$GPGGA,180444.00,3356.7254,N,11943.2030,W,1,09,0.8,13.5,M,-33.9,M,,*69
$PYRTM,2024,122.753319064688,13.862966474826
$GPGGA,180445.00,3356.7257,N,11943.2001,W,1,09,0.8,11.3,M,-33.9,M,,*6D
$PYRTM,2024,122.753330642442,13.862978052581
$GPGGA,180446.00,3356.7260,N,11943.1974,W,1,09,0.8,8.2,M,-33.9,M,,*5B
$PYRTM,2024,122.753343357060,13.862990767199
$GPGGA,180447.00,3356.7264,N,11943.1946,W,1,09,0.8,7.8,M,-33.9,M,,*5A
$PYRTM,2024,122.753355974537,13.863003384676
$GPGGA,180448.00,3356.7269,N,11943.1918,W,1,09,0.8,8.5,M,-33.9,M,,*51
$PYRTM,2024,122.753365360625,13.863012770764
$GPGGA,180449.00,3356.7274,N,11943.1890,W,1,09,0.8,9.5,M,-33.9,M,,*5C
$PYRTM,2024,122.753376935012,13.863024345150
$GPGGA,180450.00,3356.7278,N,11943.1863,W,1,09,0.8,10.5,M,-33.9,M,,*6C
$PYRTM,2024,122.753388510139,13.863035920278
$GPGGA,180451.00,3356.7282,N,11943.1835,W,1,09,0.8,9.7,M,-33.9,M,,*51
$PYRTM,2024,122.753400078738,13.863047488877
$GPGGA,180452.00,3356.7285,N,11943.1807,W,1,09,0.8,7.8,M,-33.9,M,,*55
$PYRTM,2024,122.753411657940,13.863059068079
$GPGGA,180453.00,3356.7289,N,11943.1778,W,1,09,0.8,6.4,M,-33.9,M,,*52
$PYRTM,2024,122.753423232106,13.863070642245
$GPGGA,180454.00,3356.7294,N,11943.1748,W,1,09,0.8,7.5,M,-33.9,M,,*5A
$PYRTM,2024,122.753434806076,13.863082216215
$GPGGA,180455.00,3356.7299,N,11943.1718,W,1,09,0.8,7.9,M,-33.9,M,,*5F
$PYRTM,2024,122.753446379595,13.863093789734
$GPGGA,180456.00,3356.7303,N,11943.1689,W,1,09,0.8,6.6,M,-33.9,M,,*59
$PYRTM,2024,122.753457954757,13.863105364896
$GPGGA,180457.00,3356.7307,N,11943.1662,W,1,09,0.8,5.9,M,-33.9,M,,*55
$PYRTM,2024,122.753469528947,13.863116939086
$GPGGA,180458.00,3356.7311,N,11943.1634,W,1,09,0.8,7.4,M,-33.9,M,,*51
$PYRTM,2024,122.753481102951,13.863128513090
$GPGGA,180459.00,3356.7314,N,11943.1607,W,1,09,0.8,8.4,M,-33.9,M,,*5A
$PYRTM,2024,122.753492691238,13.863140101377
$GPGGA,180500.00,3356.7318,N,11943.1579,W,1,09,0.8,10.4,M,-33.9,M,,*68
$PYRTM,2024,122.753503320220,13.863150730359
$GPGGA,180501.00,3356.7322,N,11943.1552,W,1,09,0.8,9.7,M,-33.9,M,,*52
$PYRTM,2024,122.753516755312,13.863164165451
$GPGGA,180502.00,3356.7326,N,11943.1524,W,1,09,0.8,8.8,M,-33.9,M,,*5A
$PYRTM,2024,122.753527394086,13.863174804225
$GPGGA,180503.00,3356.7331,N,11943.1495,W,1,09,0.8,11.2,M,-33.9,M,,*64
$PYRTM,2024,122.753538506354,13.863185916493
$GPGGA,180504.00,3356.7336,N,11943.1467,W,1,09,0.8,11.4,M,-33.9,M,,*6F
$PYRTM,2024,122.753549505532,13.863196915671
$GPGGA,180505.00,3356.7339,N,11943.1438,W,1,09,0.8,12.0,M,-33.9,M,,*6C
$PYRTM,2024,122.753560617731,13.863208027870
$GPGGA,180506.00,3356.7343,N,11943.1409,W,1,09,0.8,12.9,M,-33.9,M,,*69
$PYRTM,2024,122.753571727569,13.863219137708
$GPGGA,180507.00,3356.7347,N,11943.1380,W,1,09,0.8,12.3,M,-33.9,M,,*60
$PYRTM,2024,122.753582726123,13.863230136262
$GPGGA,180508.00,3356.7351,N,11943.1350,W,1,09,0.8,9.8,M,-33.9,M,,*54
$PYRTM,2024,122.753593721424,13.863241131563
$GPGGA,180509.00,3356.7355,N,11943.1321,W,1,09,0.8,9.4,M,-33.9,M,,*5B
$PYRTM,2024,122.753604824687,13.863252234826
$GPGGA,180510.00,3356.7359,N,11943.1291,W,1,09,0.8,6.4,M,-33.9,M,,*5A
$PYRTM,2024,122.753615827442,13.863263237581
$GPGGA,180511.00,3356.7363,N,11943.1261,W,1,09,0.8,8.6,M,-33.9,M,,*51
$PYRTM,2024,122.753626936250,13.863274346389
$GPGGA,180512.00,3356.7367,N,11943.1232,W,1,09,0.8,10.6,M,-33.9,M,,*69
$PYRTM,2024,122.753638047477,13.863285457616
$GPGGA,180513.00,3356.7372,N,11943.1202,W,1,09,0.8,10.2,M,-33.9,M,,*6B
$PYRTM,2024,122.753649506065,13.863296916204
$GPGGA,180514.00,3356.7377,N,11943.1173,W,1,09,0.8,9.5,M,-33.9,M,,*53
$PYRTM,2024,122.753661066759,13.863308476898
$GPGGA,180515.00,3356.7381,N,11943.1143,W,1,09,0.8,11.4,M,-33.9,M,,*60
$PYRTM,2024,122.753672655162,13.863320065301
$GPGGA,180516.00,3356.7386,N,11943.1114,W,1,09,0.8,11.3,M,-33.9,M,,*61
$PYRTM,2024,122.753684214051,13.863331624190
$GPGGA,180517.00,3356.7390,N,11943.1085,W,1,09,0.8,9.5,M,-33.9,M,,*51
$PYRTM,2024,122.753699955486,13.863347365625
$GPGGA,180518.00,3356.7393,N,11943.1057,W,1,09,0.8,5.1,M,-33.9,M,,*5A
$PYRTM,2024,122.753711542859,13.863358952998
$GPGGA,180519.00,3356.7397,N,11943.1029,W,1,09,0.8,4.8,M,-33.9,M,,*5E
$PYRTM,2024,122.753723103588,13.863370513727
$GPGGA,180520.00,3356.7401,N,11943.1001,W,1,09,0.8,0.7,M,-33.9,M,,*5D
$PYRTM,2024,122.753734691863,13.863382102002
$GPGGA,180521.00,3356.7403,N,11943.0973,W,1,09,0.8,-0.1,M,-33.9,M,,*78
$PYRTM,2024,122.753746251354,13.863393661493
$GPGGA,180522.00,3356.7406,N,11943.0945,W,1,09,0.8,1.5,M,-33.9,M,,*53
$PYRTM,2024,122.753757839560,13.863405249699
$GPGGA,180523.00,3356.7410,N,11943.0917,W,1,09,0.8,5.1,M,-33.9,M,,*52
$PYRTM,2024,122.753769398634,13.863416808773
$GPGGA,180524.00,3356.7415,N,11943.0889,W,1,09,0.8,10.0,M,-33.9,M,,*63
$PYRTM,2024,122.753780983113,13.863428393252
$GPGGA,180525.00,3356.7419,N,11943.0859,W,1,09,0.8,12.6,M,-33.9,M,,*67
$PYRTM,2024,122.753792549051,13.863439959190
$GPGGA,180526.00,3356.7422,N,11943.0831,W,1,09,0.8,13.6,M,-33.9,M,,*63
$PYRTM,2024,122.753804137199,13.863451547338
$GPGGA,180527.00,3356.7426,N,11943.0802,W,1,09,0.8,13.0,M,-33.9,M,,*60
$PYRTM,2024,122.753815696759,13.863463106898
$GPGGA,180528.00,3356.7432,N,11943.0773,W,1,09,0.8,13.8,M,-33.9,M,,*6B
$PYRTM,2024,122.753827287141,13.863474697280
$GPGGA,180529.00,3356.7436,N,11943.0743,W,1,09,0.8,13.4,M,-33.9,M,,*61
$PYRTM,2024,122.753838844294,13.863486254433
$GPGGA,180530.00,3356.7440,N,11943.0713,W,1,09,0.8,13.5,M,-33.9,M,,*6C
$PYRTM,2024,122.753850432662,13.863497842801
$GPGGA,180531.00,3356.7443,N,11943.0685,W,1,09,0.8,13.7,M,-33.9,M,,*62
$PYRTM,2024,122.753861993958,13.863509404109
$GPGGA,180532.00,3356.7447,N,11943.0656,W,1,09,0.8,13.4,M,-33.9,M,,*68
$PYRTM,2024,122.753873581539,13.863520991678
$GPGGA,180533.00,3356.7450,N,11943.0628,W,1,09,0.8,14.2,M,-33.9,M,,*67
$PYRTM,2024,122.753885140231,13.863532550382
$GPGGA,180534.00,3356.7453,N,11943.0600,W,1,09,0.8,11.7,M,-33.9,M,,*69
$PYRTM,2024,122.753896729572,13.863544139722
$GPGGA,180535.00,3356.7455,N,11943.0573,W,1,09,0.8,10.9,M,-33.9,M,,*66
$PYRTM,2024,122.753908288854,13.863555698993
$GPGGA,180536.00,3356.7457,N,11943.0545,W,1,09,0.8,8.0,M,-33.9,M,,*52
$PYRTM,2024,122.753919873264,13.863567283403
$GPGGA,180537.00,3356.7461,N,11943.0517,W,1,09,0.8,8.0,M,-33.9,M,,*51
$PYRTM,2024,122.753931437743,13.863578847882
$GPGGA,180538.00,3356.7465,N,11943.0489,W,1,09,0.8,9.8,M,-33.9,M,,*55
$PYRTM,2024,122.753943025822,13.863590435961
$GPGGA,180539.00,3356.7469,N,11943.0460,W,1,09,0.8,9.1,M,-33.9,M,,*56
$PYRTM,2024,122.753954586956,13.863601997106
$GPGGA,180540.00,3356.7473,N,11943.0430,W,1,09,0.8,11.7,M,-33.9,M,,*69
$PYRTM,2024,122.753966174618,13.863613584757
$GPGGA,180541.00,3356.7477,N,11943.0400,W,1,09,0.8,12.6,M,-33.9,M,,*6D
$PYRTM,2024,122.753977733912,13.863625144051
$GPGGA,180542.00,3356.7481,N,11943.0370,W,1,09,0.8,11.1,M,-33.9,M,,*63
$PYRTM,2024,122.753989320949,13.863636731088
$GPGGA,180543.00,3356.7487,N,11943.0341,W,1,09,0.8,10.4,M,-33.9,M,,*62
$PYRTM,2024,122.754000882373,13.863648292512
$GPGGA,180544.00,3356.7491,N,11943.0313,W,1,09,0.8,10.6,M,-33.9,M,,*67
$PYRTM,2024,122.754012471076,13.863659881215
$GPGGA,180545.00,3356.7494,N,11943.0285,W,1,09,0.8,11.8,M,-33.9,M,,*62
$PYRTM,2024,122.754024031470,13.863671441609
$GPGGA,180546.00,3356.7496,N,11943.0257,W,1,09,0.8,13.9,M,-33.9,M,,*6F
$PYRTM,2024,122.754036764525,13.863684174664
$GPGGA,180547.00,3356.7499,N,11943.0231,W,1,09,0.8,14.9,M,-33.9,M,,*66
$PYRTM,2024,122.754048240405,13.863695650556
$GPGGA,180548.00,3356.7503,N,11943.0204,W,1,09,0.8,14.0,M,-33.9,M,,*64
$PYRTM,2024,122.754059808981,13.863707219120
$GPGGA,180549.00,3356.7507,N,11943.0176,W,1,09,0.8,14.3,M,-33.9,M,,*64
$PYRTM,2024,122.754071397315,13.863718807454
$GPGGA,180550.00,3356.7510,N,11943.0149,W,1,09,0.8,13.5,M,-33.9,M,,*67
$PYRTM,2024,122.754082957755,13.863730367894
$GPGGA,180551.00,3356.7512,N,11943.0120,W,1,09,0.8,15.6,M,-33.9,M,,*6E
$PYRTM,2024,122.754094546713,13.863741956863
$GPGGA,180552.00,3356.7515,N,11943.0093,W,1,09,0.8,14.5,M,-33.9,M,,*61
$PYRTM,2024,122.754106108032,13.863753518171
$GPGGA,180553.00,3356.7519,N,11943.0065,W,1,09,0.8,12.2,M,-33.9,M,,*64
$PYRTM,2024,122.754117679884,13.863765090023
$GPGGA,180554.00,3356.7523,N,11943.0036,W,1,09,0.8,13.3,M,-33.9,M,,*6C
$PYRTM,2024,122.754129252963,13.863776663102
$GPGGA,180555.00,3356.7527,N,11943.0008,W,1,09,0.8,11.9,M,-33.9,M,,*6C
$PYRTM,2024,122.754140823275,13.863788233426
$GPGGA,180556.00,3356.7530,N,11942.9980,W,1,09,0.8,11.0,M,-33.9,M,,*61
$PYRTM,2024,122.754152403264,13.863799813403
$GPGGA,180557.00,3356.7534,N,11942.9951,W,1,09,0.8,9.5,M,-33.9,M,,*54
$PYRTM,2024,122.754163972998,13.863811383137
$GPGGA,180558.00,3356.7537,N,11942.9922,W,1,09,0.8,11.6,M,-33.9,M,,*66
$PYRTM,2024,122.754175552292,13.863822962431
$GPGGA,180559.00,3356.7542,N,11942.9893,W,1,09,0.8,12.3,M,-33.9,M,,*68
$PYRTM,2024,122.754187123854,13.863834533993
$GPGGA,180600.00,3356.7545,N,11942.9865,W,1,09,0.8,10.1,M,-33.9,M,,*69
$PYRTM,2024,122.754198698333,13.863846108484
$GPGGA,180601.00,3356.7549,N,11942.9837,W,1,09,0.8,13.1,M,-33.9,M,,*60
$PYRTM,2024,122.754210735961,13.863858146100
$GPGGA,180602.00,3356.7552,N,11942.9808,W,1,09,0.8,11.8,M,-33.9,M,,*6E
$PYRTM,2024,122.754221843796,13.863869253935
$GPGGA,180603.00,3356.7555,N,11942.9780,W,1,09,0.8,14.1,M,-33.9,M,,*6B
$PYRTM,2024,122.754233436285,13.863880846435
$GPGGA,180604.00,3356.7559,N,11942.9750,W,1,09,0.8,13.8,M,-33.9,M,,*63
$PYRTM,2024,122.754244989630,13.863892399769
$GPGGA,180605.00,3356.7563,N,11942.9722,W,1,09,0.8,15.2,M,-33.9,M,,*62
$PYRTM,2024,122.754256572685,13.863903982824
$GPGGA,180606.00,3356.7567,N,11942.9694,W,1,09,0.8,14.4,M,-33.9,M,,*6E
$PYRTM,2024,122.754268606748,13.863916016887
$GPGGA,180607.00,3356.7570,N,11942.9666,W,1,09,0.8,13.3,M,-33.9,M,,*64
$PYRTM,2024,122.754279732639,13.863927142789
$GPGGA,180608.00,3356.7572,N,11942.9639,W,1,09,0.8,13.3,M,-33.9,M,,*63
$PYRTM,2024,122.754291291863,13.863938702002
$GPGGA,180609.00,3356.7574,N,11942.9611,W,1,09,0.8,12.4,M,-33.9,M,,*68
$PYRTM,2024,122.754302862199,13.863950272338
$GPGGA,180610.00,3356.7577,N,11942.9584,W,1,09,0.8,11.1,M,-33.9,M,,*6A
$PYRTM,2024,122.754314440856,13.863961850995
$GPGGA,180611.00,3356.7580,N,11942.9556,W,1,09,0.8,10.6,M,-33.9,M,,*6A
$PYRTM,2024,122.754326009965,13.863973420104
$GPGGA,180612.00,3356.7583,N,11942.9527,W,1,09,0.8,12.1,M,-33.9,M,,*69
$PYRTM,2024,122.754337585035,13.863984995174
$GPGGA,180613.00,3356.7585,N,11942.9499,W,1,09,0.8,11.2,M,-33.9,M,,*6A
$PYRTM,2024,122.754349165150,13.863996575289
$GPGGA,180614.00,3356.7588,N,11942.9471,W,1,09,0.8,10.5,M,-33.9,M,,*60
$PYRTM,2024,122.754360731725,13.864008141863
$GPGGA,180615.00,3356.7593,N,11942.9442,W,1,09,0.8,11.2,M,-33.9,M,,*6D
$PYRTM,2024,122.754372307153,13.864019717292
$GPGGA,180616.00,3356.7598,N,11942.9412,W,1,09,0.8,11.4,M,-33.9,M,,*66
$PYRTM,2024,122.754385029745,13.864032439884
$GPGGA,180617.00,3356.7603,N,11942.9382,W,1,09,0.8,6.8,M,-33.9,M,,*52
$PYRTM,2024,122.754397648171,13.864045058310
$GPGGA,180618.00,3356.7607,N,11942.9353,W,1,09,0.8,7.1,M,-33.9,M,,*5D
$PYRTM,2024,122.754407034873,13.864054445012
$GPGGA,180619.00,3356.7611,N,11942.9325,W,1,09,0.8,10.1,M,-33.9,M,,*6C
$PYRTM,2024,122.754418611181,13.864066021319
$GPGGA,180620.00,3356.7615,N,11942.9297,W,1,09,0.8,8.4,M,-33.9,M,,*56
$PYRTM,2024,122.754430182801,13.864077592940
$GPGGA,180621.00,3356.7619,N,11942.9268,W,1,09,0.8,5.6,M,-33.9,M,,*54
$PYRTM,2024,122.754441759005,13.864089169155
$GPGGA,180622.00,3356.7621,N,11942.9240,W,1,09,0.8,4.3,M,-33.9,M,,*52
$PYRTM,2024,122.754453329595,13.864100739745
$GPGGA,180623.00,3356.7625,N,11942.9211,W,1,09,0.8,9.8,M,-33.9,M,,*55
$PYRTM,2024,122.754464906944,13.864112317083
$GPGGA,180624.00,3356.7629,N,11942.9181,W,1,09,0.8,11.3,M,-33.9,M,,*66
$PYRTM,2024,122.754476478299,13.864123888437
$GPGGA,180625.00,3356.7634,N,11942.9152,W,1,09,0.8,9.0,M,-33.9,M,,*5F
$PYRTM,2024,122.754488053183,13.864135463322
$GPGGA,180626.00,3356.7638,N,11942.9123,W,1,09,0.8,10.8,M,-33.9,M,,*66
$PYRTM,2024,122.754499627569,13.864147037708
$GPGGA,180627.00,3356.7642,N,11942.9094,W,1,09,0.8,12.3,M,-33.9,M,,*6E
$PYRTM,2024,122.754511201470,13.864158611620
$GPGGA,180628.00,3356.7646,N,11942.9065,W,1,09,0.8,10.6,M,-33.9,M,,*6C
$PYRTM,2024,122.754522770208,13.864170180347
$GPGGA,180629.00,3356.7650,N,11942.9036,W,1,09,0.8,10.3,M,-33.9,M,,*69
$PYRTM,2024,122.754534345197,13.864181755347
$GPGGA,180630.00,3356.7655,N,11942.9007,W,1,09,0.8,10.1,M,-33.9,M,,*64
$PYRTM,2024,122.754545917963,13.864193328102
$GPGGA,180631.00,3356.7659,N,11942.8979,W,1,09,0.8,12.1,M,-33.9,M,,*6A
$PYRTM,2024,122.754557959907,13.864205370046
$GPGGA,180632.00,3356.7663,N,11942.8951,W,1,09,0.8,12.3,M,-33.9,M,,*68
$PYRTM,2024,122.754569070648,13.864216480787
$GPGGA,180633.00,3356.7666,N,11942.8922,W,1,09,0.8,12.6,M,-33.9,M,,*6D
$PYRTM,2024,122.754580647755,13.864228057894
$GPGGA,180634.00,3356.7670,N,11942.8894,W,1,09,0.8,13.6,M,-33.9,M,,*60
$PYRTM,2024,122.754592219340,13.864239629479
$GPGGA,180635.00,3356.7675,N,11942.8866,W,1,09,0.8,12.4,M,-33.9,M,,*6A
$PYRTM,2024,122.754603797280,13.864251207431
$GPGGA,180636.00,3356.7679,N,11942.8837,W,1,09,0.8,13.7,M,-33.9,M,,*63
$PYRTM,2024,122.754615368854,13.864262779005
$GPGGA,180637.00,3356.7683,N,11942.8808,W,1,09,0.8,12.9,M,-33.9,M,,*64
$PYRTM,2024,122.754626945683,13.864274355822
$GPGGA,180638.00,3356.7687,N,11942.8780,W,1,09,0.8,14.5,M,-33.9,M,,*6A
$PYRTM,2024,122.754638517326,13.864285927465
$GPGGA,180639.00,3356.7691,N,11942.8752,W,1,09,0.8,15.2,M,-33.9,M,,*65
$PYRTM,2024,122.754650103565,13.864297513704
$GPGGA,180640.00,3356.7694,N,11942.8724,W,1,09,0.8,13.2,M,-33.9,M,,*69
$PYRTM,2024,122.754661663634,13.864309073773
$GPGGA,180641.00,3356.7697,N,11942.8695,W,1,09,0.8,13.2,M,-33.9,M,,*60
$PYRTM,2024,122.754673234213,13.864320644352
$GPGGA,180642.00,3356.7698,N,11942.8667,W,1,09,0.8,13.6,M,-33.9,M,,*65
$PYRTM,2024,122.754684811898,13.864332222037
$GPGGA,180643.00,3356.7701,N,11942.8639,W,1,09,0.8,14.0,M,-33.9,M,,*6F
$PYRTM,2024,122.754696387569,13.864343797708
$GPGGA,180644.00,3356.7703,N,11942.8612,W,1,09,0.8,14.6,M,-33.9,M,,*65
$PYRTM,2024,122.754707955694,13.864355365833
$GPGGA,180645.00,3356.7706,N,11942.8584,W,1,09,0.8,14.2,M,-33.9,M,,*69
$PYRTM,2024,122.754719534282,13.864366944410
$GPGGA,180646.00,3356.7709,N,11942.8556,W,1,09,0.8,12.5,M,-33.9,M,,*6B
$PYRTM,2024,122.754732253368,13.864379663507
$GPGGA,180647.00,3356.7712,N,11942.8528,W,1,09,0.8,13.7,M,-33.9,M,,*6A
$PYRTM,2024,122.754744868750,13.864392278900
$GPGGA,180648.00,3356.7714,N,11942.8500,W,1,09,0.8,14.3,M,-33.9,M,,*6A
$PYRTM,2024,122.754754256759,13.864401666910
$GPGGA,180649.00,3356.7716,N,11942.8471,W,1,09,0.8,15.2,M,-33.9,M,,*6E
$PYRTM,2024,122.754765831435,13.864413241574
$GPGGA,180650.00,3356.7720,N,11942.8443,W,1,09,0.8,12.9,M,-33.9,M,,*6E
$PYRTM,2024,122.754777404236,13.864424814375
$GPGGA,180651.00,3356.7724,N,11942.8414,W,1,09,0.8,15.4,M,-33.9,M,,*63
$PYRTM,2024,122.754788983356,13.864436393495
$GPGGA,180652.00,3356.7729,N,11942.8384,W,1,09,0.8,14.3,M,-33.9,M,,*65
$PYRTM,2024,122.754800554132,13.864447964271
$GPGGA,180653.00,3356.7733,N,11942.8354,W,1,09,0.8,15.2,M,-33.9,M,,*62
$PYRTM,2024,122.754812130602,13.864459540741
$GPGGA,180654.00,3356.7737,N,11942.8324,W,1,09,0.8,13.9,M,-33.9,M,,*6B
$PYRTM,2024,122.754823702465,13.864471112616
$GPGGA,180655.00,3356.7740,N,11942.8295,W,1,09,0.8,12.4,M,-33.9,M,,*6D
$PYRTM,2024,122.754835279502,13.864482689653
$GPGGA,180656.00,3356.7745,N,11942.8267,W,1,09,0.8,10.2,M,-33.9,M,,*62
$PYRTM,2024,122.754847308669,13.864494718808
$GPGGA,180657.00,3356.7750,N,11942.8238,W,1,09,0.8,10.4,M,-33.9,M,,*6B
$PYRTM,2024,122.754858427280,13.864505837419
$GPGGA,180658.00,3356.7754,N,11942.8209,W,1,09,0.8,10.4,M,-33.9,M,,*62
$PYRTM,2024,122.754869999097,13.864517409236
$GPGGA,180659.00,3356.7758,N,11942.8179,W,1,09,0.8,10.9,M,-33.9,M,,*66
$PYRTM,2024,122.754881572801,13.864528982940
$GPGGA,180700.00,3356.7762,N,11942.8150,W,1,09,0.8,9.0,M,-33.9,M,,*58
$PYRTM,2024,122.754893142373,13.864540552512
$GPGGA,180701.00,3356.7765,N,11942.8121,W,1,09,0.8,7.9,M,-33.9,M,,*5F
$PYRTM,2024,122.754905184502,13.864552594641
$GPGGA,180702.00,3356.7769,N,11942.8091,W,1,09,0.8,7.0,M,-33.9,M,,*53
$PYRTM,2024,122.754916294896,13.864563705035
$GPGGA,180703.00,3356.7773,N,11942.8062,W,1,09,0.8,8.5,M,-33.9,M,,*5F
$PYRTM,2024,122.754927864549,13.864575274688
$GPGGA,180704.00,3356.7777,N,11942.8033,W,1,09,0.8,10.0,M,-33.9,M,,*64
$PYRTM,2024,122.754939444016,13.864586854155
$GPGGA,180705.00,3356.7780,N,11942.8005,W,1,09,0.8,12.4,M,-33.9,M,,*6E
$PYRTM,2024,122.754950095532,13.864597505671
$GPGGA,180706.00,3356.7783,N,11942.7977,W,1,09,0.8,12.8,M,-33.9,M,,*61
$PYRTM,2024,122.754963049502,13.864610459653
$GPGGA,180707.00,3356.7787,N,11942.7948,W,1,09,0.8,11.8,M,-33.9,M,,*6B
$PYRTM,2024,122.754973807095,13.864621217234
$GPGGA,180708.00,3356.7791,N,11942.7920,W,1,09,0.8,12.6,M,-33.9,M,,*60
$PYRTM,2024,122.754984813438,13.864632223576
$GPGGA,180709.00,3356.7794,N,11942.7890,W,1,09,0.8,12.7,M,-33.9,M,,*6F
$PYRTM,2024,122.754995925833,13.864643335972
$GPGGA,180710.00,3356.7798,N,11942.7860,W,1,09,0.8,11.0,M,-33.9,M,,*60
$PYRTM,2024,122.755006915451,13.864654325602
$GPGGA,180711.00,3356.7802,N,11942.7831,W,1,09,0.8,15.8,M,-33.9,M,,*65
$PYRTM,2024,122.755018030845,13.864665440995
$GPGGA,180712.00,3356.7807,N,11942.7802,W,1,09,0.8,13.0,M,-33.9,M,,*6D
$PYRTM,2024,122.755029142940,13.864676553079
$GPGGA,180713.00,3356.7810,N,11942.7774,W,1,09,0.8,11.6,M,-33.9,M,,*60
$PYRTM,2024,122.755040133796,13.864687543947
$GPGGA,180714.00,3356.7814,N,11942.7746,W,1,09,0.8,10.4,M,-33.9,M,,*61
$PYRTM,2024,122.755051252743,13.864698662894
$GPGGA,180715.00,3356.7819,N,11942.7718,W,1,09,0.8,10.2,M,-33.9,M,,*60
$PYRTM,2024,122.755062355625,13.864709765764
$GPGGA,180716.00,3356.7823,N,11942.7690,W,1,09,0.8,12.4,M,-33.9,M,,*6F
$PYRTM,2024,122.755076584769,13.864723994919
$GPGGA,180717.00,3356.7827,N,11942.7662,W,1,09,0.8,12.5,M,-33.9,M,,*66
$PYRTM,2024,122.755091168877,13.864738579016
$GPGGA,180718.00,3356.7831,N,11942.7634,W,1,09,0.8,14.1,M,-33.9,M,,*6F
$PYRTM,2024,122.755102292917,13.864749703056
$GPGGA,180719.00,3356.7835,N,11942.7604,W,1,09,0.8,13.0,M,-33.9,M,,*6F
$PYRTM,2024,122.755113287199,13.864760697338
$GPGGA,180720.00,3356.7840,N,11942.7574,W,1,09,0.8,15.4,M,-33.9,M,,*61
$PYRTM,2024,122.755124392836,13.864771802975
$GPGGA,180721.00,3356.7845,N,11942.7544,W,1,09,0.8,13.5,M,-33.9,M,,*61
$PYRTM,2024,122.755135504271,13.864782914410
$GPGGA,180722.00,3356.7848,N,11942.7514,W,1,09,0.8,12.4,M,-33.9,M,,*6A
$PYRTM,2024,122.755146735347,13.864794145486
$GPGGA,180723.00,3356.7852,N,11942.7485,W,1,09,0.8,11.8,M,-33.9,M,,*66
$PYRTM,2024,122.755158295752,13.864805705891
$GPGGA,180724.00,3356.7856,N,11942.7455,W,1,09,0.8,11.9,M,-33.9,M,,*69
$PYRTM,2024,122.755169880139,13.864817290278
$GPGGA,180725.00,3356.7861,N,11942.7426,W,1,09,0.8,13.7,M,-33.9,M,,*64
$PYRTM,2024,122.755181444861,13.864828855000
$GPGGA,180726.00,3356.7864,N,11942.7397,W,1,09,0.8,14.1,M,-33.9,M,,*6E
$PYRTM,2024,122.755193032141,13.864840442280
$GPGGA,180727.00,3356.7866,N,11942.7368,W,1,09,0.8,13.9,M,-33.9,M,,*62
$PYRTM,2024,122.755204593738,13.864852003877
$GPGGA,180728.00,3356.7868,N,11942.7339,W,1,09,0.8,11.6,M,-33.9,M,,*6A
$PYRTM,2024,122.755216176690,13.864863586829
$GPGGA,180729.00,3356.7870,N,11942.7310,W,1,09,0.8,11.0,M,-33.9,M,,*6F
$PYRTM,2024,122.755227741991,13.864875152130
$GPGGA,180730.00,3356.7874,N,11942.7282,W,1,09,0.8,12.9,M,-33.9,M,,*63
$PYRTM,2024,122.755239333194,13.864886743333
$GPGGA,180731.00,3356.7878,N,11942.7253,W,1,09,0.8,13.1,M,-33.9,M,,*6B
$PYRTM,2024,122.755251365984,13.864898776123
$GPGGA,180732.00,3356.7881,N,11942.7223,W,1,09,0.8,12.5,M,-33.9,M,,*6C
$PYRTM,2024,122.755262477512,13.864909887650
$GPGGA,180733.00,3356.7886,N,11942.7194,W,1,09,0.8,12.4,M,-33.9,M,,*64
$PYRTM,2024,122.755274038160,13.864921448299
$GPGGA,180734.00,3356.7891,N,11942.7165,W,1,09,0.8,12.1,M,-33.9,M,,*6E
$PYRTM,2024,122.755285621285,13.864933031424
$GPGGA,180735.00,3356.7895,N,11942.7136,W,1,09,0.8,10.5,M,-33.9,M,,*6B
$PYRTM,2024,122.755297186088,13.864944596227
$GPGGA,180736.00,3356.7899,N,11942.7108,W,1,09,0.8,9.3,M,-33.9,M,,*57
$PYRTM,2024,122.755308774456,13.864956184606
$GPGGA,180737.00,3356.7903,N,11942.7079,W,1,09,0.8,9.1,M,-33.9,M,,*51
$PYRTM,2024,122.755320335787,13.864967745926
$GPGGA,180738.00,3356.7906,N,11942.7052,W,1,09,0.8,11.1,M,-33.9,M,,*6B
$PYRTM,2024,122.755331921655,13.864979331794
$GPGGA,180739.00,3356.7910,N,11942.7024,W,1,09,0.8,9.8,M,-33.9,M,,*5C
$PYRTM,2024,122.755343482720,13.864990892859
$GPGGA,180740.00,3356.7913,N,11942.6995,W,1,09,0.8,8.9,M,-33.9,M,,*53
$PYRTM,2024,122.755355066528,13.865002476667
$GPGGA,180741.00,3356.7917,N,11942.6966,W,1,09,0.8,10.4,M,-33.9,M,,*6E
$PYRTM,2024,122.755366631771,13.865014041921
$GPGGA,180742.00,3356.7920,N,11942.6936,W,1,09,0.8,12.5,M,-33.9,M,,*6F
$PYRTM,2024,122.755378220069,13.865025630220
$GPGGA,180743.00,3356.7923,N,11942.6906,W,1,09,0.8,12.2,M,-33.9,M,,*69
$PYRTM,2024,122.755389778762,13.865037188900
$GPGGA,180744.00,3356.7926,N,11942.6877,W,1,09,0.8,9.9,M,-33.9,M,,*5D
$PYRTM,2024,122.755401367141,13.865048777280
$GPGGA,180745.00,3356.7929,N,11942.6848,W,1,09,0.8,9.0,M,-33.9,M,,*56
$PYRTM,2024,122.755412926667,13.865060336806
$GPGGA,180746.00,3356.7933,N,11942.6819,W,1,09,0.8,10.9,M,-33.9,M,,*6B
$PYRTM,2024,122.755426019896,13.865073430035
$GPGGA,180747.00,3356.7938,N,11942.6789,W,1,09,0.8,13.2,M,-33.9,M,,*6F
$PYRTM,2024,122.755437131875,13.865084542014
$GPGGA,180748.00,3356.7941,N,11942.6760,W,1,09,0.8,13.1,M,-33.9,M,,*6A
$PYRTM,2024,122.755448700231,13.865096110370
$GPGGA,180749.00,3356.7945,N,11942.6731,W,1,09,0.8,12.8,M,-33.9,M,,*63
$PYRTM,2024,122.755460275023,13.865107685162
$GPGGA,180750.00,3356.7948,N,11942.6702,W,1,09,0.8,13.0,M,-33.9,M,,*6F
$PYRTM,2024,122.755471853715,13.865119263854
$GPGGA,180751.00,3356.7952,N,11942.6672,W,1,09,0.8,13.6,M,-33.9,M,,*65
$PYRTM,2024,122.755483424468,13.865130834606
$GPGGA,180752.00,3356.7955,N,11942.6644,W,1,09,0.8,13.1,M,-33.9,M,,*63
$PYRTM,2024,122.755495002199,13.865142412338
$GPGGA,180753.00,3356.7959,N,11942.6615,W,1,09,0.8,12.4,M,-33.9,M,,*6E
$PYRTM,2024,122.755506576597,13.865153986736
$GPGGA,180754.00,3356.7962,N,11942.6586,W,1,09,0.8,11.3,M,-33.9,M,,*6C
$PYRTM,2024,122.755518150926,13.865165561065
$GPGGA,180755.00,3356.7965,N,11942.6556,W,1,09,0.8,10.2,M,-33.9,M,,*67
$PYRTM,2024,122.755529728507,13.865177138646
$GPGGA,180756.00,3356.7968,N,11942.6527,W,1,09,0.8,8.7,M,-33.9,M,,*53
$PYRTM,2024,122.755541298623,13.865188708762
$GPGGA,180757.00,3356.7970,N,11942.6499,W,1,09,0.8,9.6,M,-33.9,M,,*5F
$PYRTM,2024,122.755552875903,13.865200286042
$GPGGA,180758.00,3356.7972,N,11942.6470,W,1,09,0.8,10.5,M,-33.9,M,,*6E
$PYRTM,2024,122.755564441933,13.865211852072
$GPGGA,180759.00,3356.7975,N,11942.6441,W,1,09,0.8,9.8,M,-33.9,M,,*5F
$PYRTM,2024,122.755576024016,13.865223434155
$GPGGA,180800.00,3356.7978,N,11942.6412,W,1,09,0.8,10.7,M,-33.9,M,,*60
$PYRTM,2024,122.755587595185,13.865235005324
$GPGGA,180801.00,3356.7981,N,11942.6382,W,1,09,0.8,10.2,M,-33.9,M,,*6C
$PYRTM,2024,122.755599632211,13.865247042350
$GPGGA,180802.00,3356.7984,N,11942.6353,W,1,09,0.8,10.9,M,-33.9,M,,*6D
$PYRTM,2024,122.755610743484,13.865258153623
$GPGGA,180803.00,3356.7988,N,11942.6323,W,1,09,0.8,12.3,M,-33.9,M,,*6F
$PYRTM,2024,122.755622320104,13.865269730243
$GPGGA,180804.00,3356.7992,N,11942.6294,W,1,09,0.8,12.9,M,-33.9,M,,*64
$PYRTM,2024,122.755633892801,13.865281302940
$GPGGA,180805.00,3356.7996,N,11942.6265,W,1,09,0.8,11.0,M,-33.9,M,,*65
$PYRTM,2024,122.755645461042,13.865292871181
$GPGGA,180806.00,3356.7999,N,11942.6237,W,1,09,0.8,10.7,M,-33.9,M,,*68
$PYRTM,2024,122.755657041019,13.865304451157
$GPGGA,180807.00,3356.8003,N,11942.6208,W,1,09,0.8,10.3,M,-33.9,M,,*64
$PYRTM,2024,122.755668615914,13.865316026053
$GPGGA,180808.00,3356.8007,N,11942.6180,W,1,09,0.8,9.7,M,-33.9,M,,*50
$PYRTM,2024,122.755680189525,13.865327599664
$GPGGA,180809.00,3356.8012,N,11942.6151,W,1,09,0.8,11.9,M,-33.9,M,,*6E
$PYRTM,2024,122.755691762905,13.865339173044
$GPGGA,180810.00,3356.8017,N,11942.6122,W,1,09,0.8,12.7,M,-33.9,M,,*6A
$PYRTM,2024,122.755703335752,13.865350745891
$GPGGA,180811.00,3356.8020,N,11942.6094,W,1,09,0.8,12.0,M,-33.9,M,,*64
$PYRTM,2024,122.755714915498,13.865362325648
$GPGGA,180812.00,3356.8024,N,11942.6064,W,1,09,0.8,9.9,M,-33.9,M,,*5F
$PYRTM,2024,122.755726484850,13.865373894988
$GPGGA,180813.00,3356.8028,N,11942.6035,W,1,09,0.8,9.5,M,-33.9,M,,*5A
$PYRTM,2024,122.755738074514,13.865385484653
$GPGGA,180814.00,3356.8033,N,11942.6005,W,1,09,0.8,9.8,M,-33.9,M,,*59
$PYRTM,2024,122.755749633160,13.865397043299
$GPGGA,180815.00,3356.8038,N,11942.5977,W,1,09,0.8,9.8,M,-33.9,M,,*5C
$PYRTM,2024,122.755761210382,13.865408620521
$GPGGA,180816.00,3356.8042,N,11942.5948,W,1,09,0.8,8.3,M,-33.9,M,,*54
$PYRTM,2024,122.755773811748,13.865421221898
$GPGGA,180817.00,3356.8046,N,11942.5919,W,1,09,0.8,8.8,M,-33.9,M,,*5E
$PYRTM,2024,122.755786541898,13.865433952037
$GPGGA,180818.00,3356.8050,N,11942.5889,W,1,09,0.8,8.0,M,-33.9,M,,*56
$PYRTM,2024,122.755795929398,13.865443339537
$GPGGA,180819.00,3356.8054,N,11942.5860,W,1,09,0.8,7.8,M,-33.9,M,,*53
$PYRTM,2024,122.755807504850,13.865454915000
$GPGGA,180820.00,3356.8057,N,11942.5832,W,1,09,0.8,9.5,M,-33.9,M,,*5E
$PYRTM,2024,122.755819077627,13.865466487778
$GPGGA,180821.00,3356.8059,N,11942.5804,W,1,09,0.8,10.2,M,-33.9,M,,*6B
$PYRTM,2024,122.755830652234,13.865478062373
$GPGGA,180822.00,3356.8062,N,11942.5775,W,1,09,0.8,9.8,M,-33.9,M,,*5B
$PYRTM,2024,122.755842226319,13.865489636470
$GPGGA,180823.00,3356.8065,N,11942.5746,W,1,09,0.8,7.8,M,-33.9,M,,*53
$PYRTM,2024,122.755853800660,13.865501210799
$GPGGA,180824.00,3356.8070,N,11942.5717,W,1,09,0.8,9.9,M,-33.9,M,,*5B
$PYRTM,2024,122.755865375174,13.865512785313
$GPGGA,180825.00,3356.8074,N,11942.5688,W,1,09,0.8,9.2,M,-33.9,M,,*52
$PYRTM,2024,122.755876934016,13.865524344155
$GPGGA,180826.00,3356.8079,N,11942.5659,W,1,09,0.8,11.5,M,-33.9,M,,*6E
$PYRTM,2024,122.755888522951,13.865535933090
$GPGGA,180827.00,3356.8083,N,11942.5630,W,1,09,0.8,9.8,M,-33.9,M,,*51
$PYRTM,2024,122.755900083808,13.865547493947
$GPGGA,180828.00,3356.8087,N,11942.5600,W,1,09,0.8,10.4,M,-33.9,M,,*6D
$PYRTM,2024,122.755911665752,13.865559075891
$GPGGA,180829.00,3356.8093,N,11942.5571,W,1,09,0.8,10.6,M,-33.9,M,,*6E
$PYRTM,2024,122.755923231192,13.865570641331
$GPGGA,180830.00,3356.8098,N,11942.5542,W,1,09,0.8,9.8,M,-33.9,M,,*5B
$PYRTM,2024,122.755934819433,13.865582229572
$GPGGA,180831.00,3356.8103,N,11942.5513,W,1,09,0.8,11.2,M,-33.9,M,,*6E
$PYRTM,2024,122.755946856944,13.865594267095
$GPGGA,180832.00,3356.8107,N,11942.5483,W,1,09,0.8,12.2,M,-33.9,M,,*62
$PYRTM,2024,122.755957966968,13.865605377500
$GPGGA,180833.00,3356.8112,N,11942.5453,W,1,09,0.8,11.1,M,-33.9,M,,*6A
$PYRTM,2024,122.755969526343,13.865616936481
$GPGGA,180834.00,3356.8116,N,11942.5422,W,1,09,0.8,9.9,M,-33.9,M,,*5E
$PYRTM,2024,122.755981116875,13.865628527014
$GPGGA,180835.00,3356.8120,N,11942.5391,W,1,09,0.8,9.2,M,-33.9,M,,*5E
$PYRTM,2024,122.755992677083,13.865640087234
$GPGGA,180836.00,3356.8123,N,11942.5361,W,1,09,0.8,10.2,M,-33.9,M,,*69
$PYRTM,2024,122.756004712975,13.865652123113
