$PYRTM,2024,125.833338320116,16.942985730255
$GPGGA,195959.00,3454.2417,N,12154.9523,W,1,08,1.0,17.1,M,-33.4,M,,*69
$PYRTM,2024,125.833349430069,16.942996840208
$GPGGA,200000.00,3454.2419,N,12154.9495,W,1,08,1.0,16.8,M,-33.4,M,,*69
$PYRTM,2024,125.833360425556,16.943007835706
$GPGGA,200001.00,3454.2420,N,12154.9466,W,1,08,1.0,17.9,M,-33.4,M,,*6E
$PYRTM,2024,125.833371652488,16.943019062627
$GPGGA,200002.00,3454.2421,N,12154.9437,W,1,08,1.0,17.5,M,-33.4,M,,*64
$PYRTM,2024,125.833388567002,16.943035977141
$GPGGA,200003.00,3454.2423,N,12154.9408,W,1,08,1.0,16.2,M,-33.4,M,,*6D
$PYRTM,2024,125.833400138958,16.943047549097
$GPGGA,200004.00,3454.2424,N,12154.9381,W,1,08,1.0,16.1,M,-33.4,M,,*68
$PYRTM,2024,125.833411726806,16.943059136944
$GPGGA,200005.00,3454.2425,N,12154.9353,W,1,08,1.0,15.3,M,-33.4,M,,*66
$PYRTM,2024,125.833423285833,16.943070695984
$GPGGA,200006.00,3454.2426,N,12154.9323,W,1,08,1.0,15.6,M,-33.4,M,,*64
$PYRTM,2024,125.833434859664,16.943082269803
$GPGGA,200007.00,3454.2431,N,12154.9294,W,1,08,1.0,13.4,M,-33.4,M,,*6A
$PYRTM,2024,125.833446422199,16.943093832338
$GPGGA,200008.00,3454.2435,N,12154.9266,W,1,08,1.0,14.8,M,-33.4,M,,*67
$PYRTM,2024,125.833458005208,16.943105415359
$GPGGA,200009.00,3454.2434,N,12154.9238,W,1,08,1.0,15.0,M,-33.4,M,,*65
$PYRTM,2024,125.833469578843,16.943116988981
$GPGGA,200010.00,3454.2431,N,12154.9208,W,1,08,1.0,15.1,M,-33.4,M,,*6A
$PYRTM,2024,125.833481157766,16.943128567905
$GPGGA,200011.00,3454.2434,N,12154.9179,W,1,08,1.0,16.0,M,-33.4,M,,*69
$PYRTM,2024,125.833492730729,16.943140140868
$GPGGA,200012.00,3454.2441,N,12154.9153,W,1,08,1.0,16.2,M,-33.4,M,,*62
$PYRTM,2024,125.833504304560,16.943151714699
$GPGGA,200013.00,3454.2444,N,12154.9127,W,1,08,1.0,16.1,M,-33.4,M,,*66
$PYRTM,2024,125.833515879873,16.943163290012
$GPGGA,200014.00,3454.2442,N,12154.9100,W,1,08,1.0,17.2,M,-33.4,M,,*60
$PYRTM,2024,125.833527456042,16.943174866181
$GPGGA,200015.00,3454.2441,N,12154.9072,W,1,08,1.0,14.1,M,-33.4,M,,*66
$PYRTM,2024,125.833539023889,16.943186434028
$GPGGA,200016.00,3454.2444,N,12154.9046,W,1,08,1.0,14.7,M,-33.4,M,,*61
$PYRTM,2024,125.833550615637,16.943198025775
$GPGGA,200017.00,3454.2450,N,12154.9020,W,1,08,1.0,14.8,M,-33.4,M,,*6A
$PYRTM,2024,125.833562176840,16.943209586979
$GPGGA,200018.00,3454.2455,N,12154.8993,W,1,08,1.0,15.9,M,-33.4,M,,*60
$PYRTM,2024,125.833573752465,16.943221162604
$GPGGA,200019.00,3454.2457,N,12154.8965,W,1,08,1.0,16.3,M,-33.4,M,,*63
$PYRTM,2024,125.833585324896,16.943232735035
$GPGGA,200020.00,3454.2456,N,12154.8937,W,1,08,1.0,19.0,M,-33.4,M,,*63
$PYRTM,2024,125.833596897326,16.943244307465
$GPGGA,200021.00,3454.2456,N,12154.8907,W,1,08,1.0,16.8,M,-33.4,M,,*66
$PYRTM,2024,125.833608471736,16.943255881875
$GPGGA,200022.00,3454.2460,N,12154.8875,W,1,08,1.0,17.5,M,-33.4,M,,*68
$PYRTM,2024,125.833620046076,16.943267456215
$GPGGA,200023.00,3454.2464,N,12154.8845,W,1,08,1.0,16.7,M,-33.4,M,,*6D
$PYRTM,2024,125.833631615035,16.943279025185
$GPGGA,200024.00,3454.2463,N,12154.8818,W,1,08,1.0,14.0,M,-33.4,M,,*60
$PYRTM,2024,125.833643195347,16.943290605486
$GPGGA,200025.00,3454.2463,N,12154.8790,W,1,08,1.0,14.8,M,-33.4,M,,*66
$PYRTM,2024,125.833654770023,16.943302180174
$GPGGA,200026.00,3454.2466,N,12154.8763,W,1,08,1.0,11.9,M,-33.4,M,,*68
$PYRTM,2024,125.833666342998,16.943313753137
$GPGGA,200027.00,3454.2471,N,12154.8738,W,1,08,1.0,11.4,M,-33.4,M,,*6C
$PYRTM,2024,125.833677917801,16.943325327940
$GPGGA,200028.00,3454.2472,N,12154.8713,W,1,08,1.0,14.1,M,-33.4,M,,*69
$PYRTM,2024,125.833689491979,16.943336902118
$GPGGA,200029.00,3454.2472,N,12154.8686,W,1,08,1.0,15.9,M,-33.4,M,,*6C
$PYRTM,2024,125.833701064641,16.943348474780
$GPGGA,200030.00,3454.2476,N,12154.8660,W,1,08,1.0,16.4,M,-33.4,M,,*66
$PYRTM,2024,125.833712654294,16.943360064433
$GPGGA,200031.00,3454.2480,N,12154.8634,W,1,08,1.0,18.8,M,-33.4,M,,*6D
$PYRTM,2024,125.833724214306,16.943371624444
$GPGGA,200032.00,3454.2482,N,12154.8606,W,1,08,1.0,18.9,M,-33.4,M,,*6C
$PYRTM,2024,125.833734401076,16.943381811215
$GPGGA,200033.00,3454.2483,N,12154.8574,W,1,08,1.0,18.3,M,-33.4,M,,*60
$PYRTM,2024,125.833746204421,16.943393614572
$GPGGA,200034.00,3454.2484,N,12154.8543,W,1,08,1.0,18.3,M,-33.4,M,,*64
$PYRTM,2024,125.833758940880,16.943406351019
$GPGGA,200035.00,3454.2483,N,12154.8513,W,1,08,1.0,19.7,M,-33.4,M,,*62
$PYRTM,2024,125.833770510058,16.943417920197
$GPGGA,200036.00,3454.2483,N,12154.8485,W,1,08,1.0,18.0,M,-33.4,M,,*69
$PYRTM,2024,125.833782084132,16.943429494271
$GPGGA,200037.00,3454.2485,N,12154.8457,W,1,08,1.0,17.1,M,-33.4,M,,*6F
$PYRTM,2024,125.833793658241,16.943441068380
$GPGGA,200038.00,3454.2490,N,12154.8432,W,1,08,1.0,18.5,M,-33.4,M,,*6C
$PYRTM,2024,125.833805232060,16.943452642199
$GPGGA,200039.00,3454.2494,N,12154.8406,W,1,08,1.0,17.3,M,-33.4,M,,*67
$PYRTM,2024,125.833816806887,16.943464217025
$GPGGA,200040.00,3454.2493,N,12154.8379,W,1,08,1.0,17.9,M,-33.4,M,,*6B
$PYRTM,2024,125.833828380903,16.943475791042
$GPGGA,200041.00,3454.2490,N,12154.8351,W,1,08,1.0,17.4,M,-33.4,M,,*6E
$PYRTM,2024,125.833839955683,16.943487365822
$GPGGA,200042.00,3454.2489,N,12154.8321,W,1,08,1.0,14.9,M,-33.4,M,,*6C
$PYRTM,2024,125.833851523750,16.943498933889
$GPGGA,200043.00,3454.2494,N,12154.8293,W,1,08,1.0,16.5,M,-33.4,M,,*67
$PYRTM,2024,125.833863102141,16.943510512280
$GPGGA,200044.00,3454.2501,N,12154.8264,W,1,08,1.0,15.5,M,-33.4,M,,*66
$PYRTM,2024,125.833874679757,16.943522089896
$GPGGA,200045.00,3454.2504,N,12154.8233,W,1,08,1.0,15.9,M,-33.4,M,,*6C
$PYRTM,2024,125.833886250370,16.943533660509
$GPGGA,200046.00,3454.2502,N,12154.8203,W,1,08,1.0,14.2,M,-33.4,M,,*60
$PYRTM,2024,125.833897839479,16.943545249618
$GPGGA,200047.00,3454.2503,N,12154.8174,W,1,08,1.0,14.3,M,-33.4,M,,*62
$PYRTM,2024,125.833909399537,16.943556809676
$GPGGA,200048.00,3454.2507,N,12154.8146,W,1,08,1.0,15.3,M,-33.4,M,,*69
$PYRTM,2024,125.833920974039,16.943568384178
$GPGGA,200049.00,3454.2512,N,12154.8119,W,1,08,1.0,15.8,M,-33.4,M,,*6D
$PYRTM,2024,125.833932546887,16.943579957025
$GPGGA,200050.00,3454.2515,N,12154.8092,W,1,08,1.0,18.6,M,-33.4,M,,*63
$PYRTM,2024,125.833944122222,16.943591532361
$GPGGA,200051.00,3454.2515,N,12154.8065,W,1,08,1.0,18.7,M,-33.4,M,,*6B
$PYRTM,2024,125.833955696088,16.943603106227
$GPGGA,200052.00,3454.2516,N,12154.8037,W,1,08,1.0,18.3,M,-33.4,M,,*68
$PYRTM,2024,125.833967266447,16.943614676586
$GPGGA,200053.00,3454.2518,N,12154.8009,W,1,08,1.0,19.4,M,-33.4,M,,*6C
$PYRTM,2024,125.833977701065,16.943625111204
$GPGGA,200054.00,3454.2520,N,12154.7981,W,1,08,1.0,17.8,M,-33.4,M,,*64
$PYRTM,2024,125.833990418044,16.943637828183
$GPGGA,200055.00,3454.2522,N,12154.7954,W,1,08,1.0,17.9,M,-33.4,M,,*6E
$PYRTM,2024,125.834001988368,16.943649398519
$GPGGA,200056.00,3454.2522,N,12154.7926,W,1,08,1.0,15.9,M,-33.4,M,,*6A
$PYRTM,2024,125.834013566921,16.943660977072
$GPGGA,200057.00,3454.2525,N,12154.7897,W,1,08,1.0,16.4,M,-33.4,M,,*69
$PYRTM,2024,125.834025142106,16.943672552257
$GPGGA,200058.00,3454.2531,N,12154.7868,W,1,08,1.0,18.7,M,-33.4,M,,*6E
$PYRTM,2024,125.834036719907,16.943684130046
$GPGGA,200059.00,3454.2535,N,12154.7840,W,1,08,1.0,18.1,M,-33.4,M,,*67
$PYRTM,2024,125.834048290822,16.943695700961
$GPGGA,200100.00,3454.2534,N,12154.7811,W,1,08,1.0,18.4,M,-33.4,M,,*6A
$PYRTM,2024,125.834059866296,16.943707276435
$GPGGA,200101.00,3454.2533,N,12154.7781,W,1,08,1.0,17.4,M,-33.4,M,,*65
$PYRTM,2024,125.834071438032,16.943718848171
$GPGGA,200102.00,3454.2537,N,12154.7753,W,1,08,1.0,17.8,M,-33.4,M,,*61
$PYRTM,2024,125.834081618252,16.943729028391
$GPGGA,200103.00,3454.2543,N,12154.7727,W,1,08,1.0,15.3,M,-33.4,M,,*69
$PYRTM,2024,125.834093428657,16.943740838785
$GPGGA,200104.00,3454.2546,N,12154.7701,W,1,08,1.0,15.3,M,-33.4,M,,*6F
$PYRTM,2024,125.834106160613,16.943753570752
$GPGGA,200105.00,3454.2544,N,12154.7673,W,1,08,1.0,18.3,M,-33.4,M,,*65
$PYRTM,2024,125.834117733576,16.943765143715
$GPGGA,200106.00,3454.2542,N,12154.7644,W,1,08,1.0,18.5,M,-33.4,M,,*62
$PYRTM,2024,125.834129308056,16.943776718194
$GPGGA,200107.00,3454.2544,N,12154.7616,W,1,08,1.0,20.2,M,-33.4,M,,*6E
$PYRTM,2024,125.834140877095,16.943788287234
$GPGGA,200108.00,3454.2550,N,12154.7588,W,1,08,1.0,18.5,M,-33.4,M,,*6C
$PYRTM,2024,125.834152456887,16.943799867037
$GPGGA,200109.00,3454.2554,N,12154.7561,W,1,08,1.0,19.1,M,-33.4,M,,*6B
$PYRTM,2024,125.834164031829,16.943811441968
$GPGGA,200110.00,3454.2551,N,12154.7533,W,1,08,1.0,18.3,M,-33.4,M,,*62
$PYRTM,2024,125.834175605995,16.943823016134
$GPGGA,200111.00,3454.2549,N,12154.7506,W,1,08,1.0,17.2,M,-33.4,M,,*62
$PYRTM,2024,125.834187173090,16.943834583229
$GPGGA,200112.00,3454.2553,N,12154.7480,W,1,08,1.0,18.4,M,-33.4,M,,*6C
$PYRTM,2024,125.834198757083,16.943846167222
$GPGGA,200113.00,3454.2560,N,12154.7451,W,1,08,1.0,17.6,M,-33.4,M,,*6C
$PYRTM,2024,125.834210326921,16.943857737060
$GPGGA,200114.00,3454.2564,N,12154.7421,W,1,08,1.0,18.4,M,-33.4,M,,*65
$PYRTM,2024,125.834221905150,16.943869315289
$GPGGA,200115.00,3454.2562,N,12154.7389,W,1,08,1.0,16.3,M,-33.4,M,,*6E
$PYRTM,2024,125.834233474699,16.943880884838
$GPGGA,200116.00,3454.2560,N,12154.7357,W,1,08,1.0,17.7,M,-33.4,M,,*69
$PYRTM,2024,125.834245052998,16.943892463137
$GPGGA,200117.00,3454.2562,N,12154.7327,W,1,08,1.0,17.1,M,-33.4,M,,*6B
$PYRTM,2024,125.834256624850,16.943904034988
$GPGGA,200118.00,3454.2565,N,12154.7299,W,1,08,1.0,16.4,M,-33.4,M,,*63
$PYRTM,2024,125.834268197812,16.943915607951
$GPGGA,200119.00,3454.2565,N,12154.7272,W,1,08,1.0,15.0,M,-33.4,M,,*60
$PYRTM,2024,125.834279771794,16.943927181933
$GPGGA,200120.00,3454.2562,N,12154.7247,W,1,08,1.0,14.3,M,-33.4,M,,*69
$PYRTM,2024,125.834291347488,16.943938757627
$GPGGA,200121.00,3454.2563,N,12154.7223,W,1,08,1.0,15.0,M,-33.4,M,,*69
$PYRTM,2024,125.834302915382,16.943950325521
$GPGGA,200122.00,3454.2566,N,12154.7201,W,1,08,1.0,14.9,M,-33.4,M,,*67
$PYRTM,2024,125.834314494896,16.943961905035
$GPGGA,200123.00,3454.2570,N,12154.7178,W,1,08,1.0,16.3,M,-33.4,M,,*64
$PYRTM,2024,125.834326068704,16.943973478854
$GPGGA,200124.00,3454.2572,N,12154.7150,W,1,08,1.0,15.9,M,-33.4,M,,*62
$PYRTM,2024,125.834337643623,16.943985053773
$GPGGA,200125.00,3454.2572,N,12154.7120,W,1,08,1.0,17.0,M,-33.4,M,,*6F
$PYRTM,2024,125.834349216516,16.943996626655
$GPGGA,200126.00,3454.2573,N,12154.7090,W,1,08,1.0,17.5,M,-33.4,M,,*62
$PYRTM,2024,125.834360791713,16.944008201852
$GPGGA,200127.00,3454.2574,N,12154.7062,W,1,08,1.0,16.1,M,-33.4,M,,*6C
$PYRTM,2024,125.834372364907,16.944019775046
$GPGGA,200128.00,3454.2576,N,12154.7032,W,1,08,1.0,15.4,M,-33.4,M,,*62
$PYRTM,2024,125.834383954086,16.944031364225
$GPGGA,200129.00,3454.2577,N,12154.7003,W,1,08,1.0,13.9,M,-33.4,M,,*6B
$PYRTM,2024,125.834395513866,16.944042924005
$GPGGA,200130.00,3454.2577,N,12154.6977,W,1,08,1.0,13.9,M,-33.4,M,,*68
$PYRTM,2024,125.834407091539,16.944054501678
$GPGGA,200131.00,3454.2581,N,12154.6951,W,1,08,1.0,14.9,M,-33.4,M,,*63
$PYRTM,2024,125.834418649653,16.944066059803
$GPGGA,200132.00,3454.2586,N,12154.6925,W,1,08,1.0,14.7,M,-33.4,M,,*6A
$PYRTM,2024,125.834429310521,16.944076720660
$GPGGA,200133.00,3454.2589,N,12154.6898,W,1,08,1.0,12.0,M,-33.4,M,,*62
$PYRTM,2024,125.834440656574,16.944088066713
$GPGGA,200134.00,3454.2588,N,12154.6870,W,1,08,1.0,11.5,M,-33.4,M,,*64
$PYRTM,2024,125.834453380174,16.944100790324
$GPGGA,200135.00,3454.2585,N,12154.6841,W,1,08,1.0,12.7,M,-33.4,M,,*6B
$PYRTM,2024,125.834464958449,16.944112368600
$GPGGA,200136.00,3454.2587,N,12154.6810,W,1,08,1.0,15.4,M,-33.4,M,,*6A
$PYRTM,2024,125.834476534016,16.944123944155
$GPGGA,200137.00,3454.2594,N,12154.6780,W,1,08,1.0,16.8,M,-33.4,M,,*60
$PYRTM,2024,125.834488106516,16.944135516655
$GPGGA,200138.00,3454.2599,N,12154.6750,W,1,08,1.0,17.1,M,-33.4,M,,*67
$PYRTM,2024,125.834499676991,16.944147087130
$GPGGA,200139.00,3454.2599,N,12154.6720,W,1,08,1.0,14.6,M,-33.4,M,,*65
$PYRTM,2024,125.834511256308,16.944158666447
$GPGGA,200140.00,3454.2597,N,12154.6690,W,1,08,1.0,14.6,M,-33.4,M,,*6F
$PYRTM,2024,125.834520847697,16.944168257836
$GPGGA,200141.00,3454.2599,N,12154.6662,W,1,08,1.0,15.6,M,-33.4,M,,*6C
$PYRTM,2024,125.834532884896,16.944180295035
$GPGGA,200142.00,3454.2604,N,12154.6635,W,1,08,1.0,17.1,M,-33.4,M,,*6F
$PYRTM,2024,125.834544473495,16.944191883634
$GPGGA,200143.00,3454.2608,N,12154.6609,W,1,08,1.0,15.6,M,-33.4,M,,*68
$PYRTM,2024,125.834555579028,16.944202989167
$GPGGA,200144.00,3454.2610,N,12154.6584,W,1,08,1.0,14.4,M,-33.4,M,,*63
$PYRTM,2024,125.834566578958,16.944213989109
$GPGGA,200145.00,3454.2611,N,12154.6559,W,1,08,1.0,15.8,M,-33.4,M,,*6E
$PYRTM,2024,125.834577691238,16.944225101377
$GPGGA,200146.00,3454.2613,N,12154.6533,W,1,08,1.0,16.4,M,-33.4,M,,*6C
$PYRTM,2024,125.834588686829,16.944236096968
$GPGGA,200147.00,3454.2617,N,12154.6506,W,1,08,1.0,18.3,M,-33.4,M,,*66
$PYRTM,2024,125.834599800220,16.944247210359
$GPGGA,200148.00,3454.2621,N,12154.6477,W,1,08,1.0,18.1,M,-33.4,M,,*69
$PYRTM,2024,125.834610910035,16.944258320174
$GPGGA,200149.00,3454.2620,N,12154.6446,W,1,08,1.0,16.9,M,-33.3,M,,*6A
$PYRTM,2024,125.834622366562,16.944269776701
$GPGGA,200150.00,3454.2616,N,12154.6416,W,1,08,1.0,16.9,M,-33.3,M,,*62
$PYRTM,2024,125.834633941875,16.944281352014
$GPGGA,200151.00,3454.2616,N,12154.6386,W,1,08,1.0,15.3,M,-33.3,M,,*64
$PYRTM,2024,125.834645515810,16.944292925961
$GPGGA,200152.00,3454.2618,N,12154.6358,W,1,08,1.0,13.8,M,-33.3,M,,*67
$PYRTM,2024,125.834657088831,16.944304498970
$GPGGA,200153.00,3454.2620,N,12154.6329,W,1,08,1.0,13.6,M,-33.3,M,,*65
$PYRTM,2024,125.834668663565,16.944316073704
$GPGGA,200154.00,3454.2621,N,12154.6301,W,1,08,1.0,15.2,M,-33.3,M,,*6B
$PYRTM,2024,125.834680239850,16.944327649988
$GPGGA,200155.00,3454.2622,N,12154.6273,W,1,08,1.0,15.9,M,-33.3,M,,*66
$PYRTM,2024,125.834691696343,16.944339106481
$GPGGA,200156.00,3454.2624,N,12154.6244,W,1,08,1.0,15.7,M,-33.3,M,,*69
$PYRTM,2024,125.834702806250,16.944350216389
$GPGGA,200157.00,3454.2630,N,12154.6216,W,1,08,1.0,15.3,M,-33.3,M,,*6E
$PYRTM,2024,125.834714253206,16.944361663345
$GPGGA,200158.00,3454.2634,N,12154.6187,W,1,08,1.0,14.7,M,-33.3,M,,*6B
$PYRTM,2024,125.834725835972,16.944373246111
$GPGGA,200159.00,3454.2635,N,12154.6158,W,1,08,1.0,15.0,M,-33.3,M,,*6F
$PYRTM,2024,125.834737400694,16.944384810833
$GPGGA,200200.00,3454.2634,N,12154.6129,W,1,08,1.0,14.7,M,-33.3,M,,*61
$PYRTM,2024,125.834748987639,16.944396397778
$GPGGA,200201.00,3454.2635,N,12154.6100,W,1,08,1.0,15.7,M,-33.3,M,,*6B
$PYRTM,2024,125.834760549398,16.944407959537
$GPGGA,200202.00,3454.2639,N,12154.6072,W,1,08,1.0,15.2,M,-33.3,M,,*65
$PYRTM,2024,125.834776290174,16.944423700312
$GPGGA,200203.00,3454.2644,N,12154.6044,W,1,08,1.0,14.3,M,-33.3,M,,*6B
$PYRTM,2024,125.834787879734,16.944435289873
$GPGGA,200204.00,3454.2646,N,12154.6017,W,1,08,1.0,16.2,M,-33.3,M,,*6B
$PYRTM,2024,125.834799437824,16.944446847963
$GPGGA,200205.00,3454.2648,N,12154.5987,W,1,08,1.0,15.4,M,-33.3,M,,*62
$PYRTM,2024,125.834811028229,16.944458438380
$GPGGA,200206.00,3454.2650,N,12154.5956,W,1,08,1.0,17.1,M,-33.3,M,,*63
$PYRTM,2024,125.834822586285,16.944469996424
$GPGGA,200207.00,3454.2653,N,12154.5925,W,1,08,1.0,14.6,M,-33.3,M,,*61
$PYRTM,2024,125.834834173275,16.944481583414
$GPGGA,200208.00,3454.2655,N,12154.5896,W,1,08,1.0,12.7,M,-33.3,M,,*66
$PYRTM,2024,125.834845734734,16.944493144873
$GPGGA,200209.00,3454.2657,N,12154.5868,W,1,08,1.0,15.4,M,-33.3,M,,*60
$PYRTM,2024,125.834857322766,16.944504732905
$GPGGA,200210.00,3454.2657,N,12154.5840,W,1,08,1.0,15.9,M,-33.3,M,,*6F
$PYRTM,2024,125.834868884213,16.944516294352
$GPGGA,200211.00,3454.2656,N,12154.5813,W,1,08,1.0,15.7,M,-33.3,M,,*67
$PYRTM,2024,125.834880465012,16.944527875150
$GPGGA,200212.00,3454.2656,N,12154.5786,W,1,08,1.0,16.4,M,-33.3,M,,*67
$PYRTM,2024,125.834892030995,16.944539441134
$GPGGA,200213.00,3454.2661,N,12154.5758,W,1,08,1.0,15.1,M,-33.3,M,,*67
$PYRTM,2024,125.834903618137,16.944551028287
$GPGGA,200214.00,3454.2667,N,12154.5729,W,1,08,1.0,14.5,M,-33.3,M,,*65
$PYRTM,2024,125.834915180752,16.944562590891
$GPGGA,200215.00,3454.2668,N,12154.5699,W,1,08,1.0,17.1,M,-33.3,M,,*66
$PYRTM,2024,125.834926766481,16.944574176620
$GPGGA,200216.00,3454.2664,N,12154.5670,W,1,08,1.0,15.7,M,-33.3,M,,*6A
$PYRTM,2024,125.834938329155,16.944585739306
$GPGGA,200217.00,3454.2662,N,12154.5640,W,1,08,1.0,14.4,M,-33.3,M,,*6C
$PYRTM,2024,125.834949909792,16.944597319931
$GPGGA,200218.00,3454.2666,N,12154.5610,W,1,08,1.0,14.5,M,-33.3,M,,*63
$PYRTM,2024,125.834961475648,16.944608885787
$GPGGA,200219.00,3454.2673,N,12154.5580,W,1,08,1.0,13.0,M,-33.3,M,,*6E
$PYRTM,2024,125.834973065660,16.944620475799
$GPGGA,200220.00,3454.2676,N,12154.5551,W,1,08,1.0,13.8,M,-33.3,M,,*65
$PYRTM,2024,125.834984624306,16.944632034444
$GPGGA,200221.00,3454.2675,N,12154.5523,W,1,08,1.0,12.4,M,-33.3,M,,*6F
$PYRTM,2024,125.834996211076,16.944643621215
$GPGGA,200222.00,3454.2675,N,12154.5495,W,1,08,1.0,12.1,M,-33.3,M,,*65
$PYRTM,2024,125.835007773507,16.944655183657
$GPGGA,200223.00,3454.2677,N,12154.5468,W,1,08,1.0,16.4,M,-33.3,M,,*65
$PYRTM,2024,125.835019359583,16.944666769722
$GPGGA,200224.00,3454.2683,N,12154.5442,W,1,08,1.0,14.7,M,-33.3,M,,*60
$PYRTM,2024,125.835030920868,16.944678331019
$GPGGA,200225.00,3454.2687,N,12154.5414,W,1,08,1.0,13.7,M,-33.3,M,,*61
$PYRTM,2024,125.835042508414,16.944689918565
$GPGGA,200226.00,3454.2688,N,12154.5384,W,1,08,1.0,16.3,M,-33.3,M,,*62
$PYRTM,2024,125.835054068194,16.944701478333
$GPGGA,200227.00,3454.2688,N,12154.5353,W,1,08,1.0,17.6,M,-33.3,M,,*6D
$PYRTM,2024,125.835065657257,16.944713067396
$GPGGA,200228.00,3454.2689,N,12154.5323,W,1,08,1.0,16.8,M,-33.3,M,,*6B
$PYRTM,2024,125.835077218067,16.944724628218
$GPGGA,200229.00,3454.2693,N,12154.5293,W,1,08,1.0,14.8,M,-33.3,M,,*69
$PYRTM,2024,125.835088805972,16.944736216111
$GPGGA,200230.00,3454.2697,N,12154.5263,W,1,08,1.0,14.6,M,-33.3,M,,*64
$PYRTM,2024,125.835100366435,16.944747776574
$GPGGA,200231.00,3454.2698,N,12154.5233,W,1,08,1.0,15.9,M,-33.3,M,,*61
$PYRTM,2024,125.835111955880,16.944759366030
$GPGGA,200232.00,3454.2698,N,12154.5203,W,1,08,1.0,17.6,M,-33.3,M,,*6C
$PYRTM,2024,125.835123296470,16.944770706609
$GPGGA,200233.00,3454.2699,N,12154.5176,W,1,08,1.0,16.2,M,-33.3,M,,*68
$PYRTM,2024,125.835136255093,16.944783665231
$GPGGA,200234.00,3454.2702,N,12154.5151,W,1,08,1.0,14.7,M,-33.3,M,,*6E
$PYRTM,2024,125.835147834028,16.944795244167
$GPGGA,200235.00,3454.2705,N,12154.5125,W,1,08,1.0,13.6,M,-33.3,M,,*6D
$PYRTM,2024,125.835159406759,16.944806816898
$GPGGA,200236.00,3454.2709,N,12154.5097,W,1,08,1.0,15.4,M,-33.3,M,,*6E
$PYRTM,2024,125.835170982234,16.944818392373
$GPGGA,200237.00,3454.2712,N,12154.5068,W,1,08,1.0,14.4,M,-33.3,M,,*64
$PYRTM,2024,125.835182555799,16.944829965938
$GPGGA,200238.00,3454.2710,N,12154.5040,W,1,08,1.0,13.5,M,-33.3,M,,*65
$PYRTM,2024,125.835194117315,16.944841527454
$GPGGA,200239.00,3454.2710,N,12154.5013,W,1,08,1.0,12.0,M,-33.3,M,,*66
$PYRTM,2024,125.835205703623,16.944853113762
$GPGGA,200240.00,3454.2714,N,12154.4984,W,1,08,1.0,13.0,M,-33.3,M,,*6B
$PYRTM,2024,125.835217279988,16.944864690127
$GPGGA,200241.00,3454.2720,N,12154.4955,W,1,08,1.0,15.2,M,-33.3,M,,*65
$PYRTM,2024,125.835228847280,16.944876257431
$GPGGA,200242.00,3454.2720,N,12154.4926,W,1,08,1.0,17.6,M,-33.3,M,,*64
$PYRTM,2024,125.835240440764,16.944887850903
$GPGGA,200243.00,3454.2720,N,12154.4894,W,1,08,1.0,19.5,M,-33.3,M,,*60
$PYRTM,2024,125.835251999988,16.944899410139
$GPGGA,200244.00,3454.2722,N,12154.4863,W,1,08,1.0,18.1,M,-33.3,M,,*68
$PYRTM,2024,125.835263573380,16.944910983519
$GPGGA,200245.00,3454.2726,N,12154.4833,W,1,08,1.0,15.8,M,-33.3,M,,*6C
$PYRTM,2024,125.835275148414,16.944922558553
$GPGGA,200246.00,3454.2727,N,12154.4805,W,1,08,1.0,16.0,M,-33.3,M,,*60
$PYRTM,2024,125.835286723171,16.944934133310
$GPGGA,200247.00,3454.2726,N,12154.4776,W,1,08,1.0,15.4,M,-33.3,M,,*6C
$PYRTM,2024,125.835298297419,16.944945707558
$GPGGA,200248.00,3454.2727,N,12154.4748,W,1,08,1.0,17.1,M,-33.3,M,,*68
$PYRTM,2024,125.835309872188,16.944957282326
$GPGGA,200249.00,3454.2730,N,12154.4721,W,1,08,1.0,18.2,M,-33.3,M,,*6C
$PYRTM,2024,125.835321444711,16.944968854861
$GPGGA,200250.00,3454.2734,N,12154.4694,W,1,08,1.0,18.1,M,-33.3,M,,*6C
$PYRTM,2024,125.835333013565,16.944980423704
$GPGGA,200251.00,3454.2737,N,12154.4668,W,1,08,1.0,16.2,M,-33.3,M,,*60
$PYRTM,2024,125.835344625775,16.944992035914
$GPGGA,200252.00,3454.2740,N,12154.4641,W,1,08,1.0,15.9,M,-33.3,M,,*60
$PYRTM,2024,125.835356166539,16.945003576690
$GPGGA,200253.00,3454.2740,N,12154.4613,W,1,08,1.0,16.7,M,-33.3,M,,*6B
$PYRTM,2024,125.835367741481,16.945015151620
$GPGGA,200254.00,3454.2740,N,12154.4583,W,1,08,1.0,18.3,M,-33.3,M,,*6C
$PYRTM,2024,125.835379317604,16.945026727743
$GPGGA,200255.00,3454.2741,N,12154.4553,W,1,08,1.0,17.1,M,-33.3,M,,*6C
$PYRTM,2024,125.835391222870,16.945038633021
$GPGGA,200256.00,3454.2742,N,12154.4523,W,1,08,1.0,18.4,M,-33.3,M,,*61
$PYRTM,2024,125.835402467477,16.945049877616
$GPGGA,200257.00,3454.2741,N,12154.4494,W,1,08,1.0,18.3,M,-33.3,M,,*69
$PYRTM,2024,125.835414037199,16.945061447338
$GPGGA,200258.00,3454.2740,N,12154.4464,W,1,08,1.0,18.7,M,-33.3,M,,*6C
$PYRTM,2024,125.835425612176,16.945073022315
$GPGGA,200259.00,3454.2745,N,12154.4435,W,1,08,1.0,16.8,M,-33.3,M,,*6D
$PYRTM,2024,125.835437186273,16.945084596412
$GPGGA,200300.00,3454.2750,N,12154.4408,W,1,08,1.0,15.6,M,-33.3,M,,*67
$PYRTM,2024,125.835448761817,16.945096171968
$GPGGA,200301.00,3454.2753,N,12154.4380,W,1,08,1.0,15.3,M,-33.3,M,,*67
$PYRTM,2024,125.835460333970,16.945107744109
$GPGGA,200302.00,3454.2754,N,12154.4351,W,1,08,1.0,15.1,M,-33.3,M,,*6D
$PYRTM,2024,125.835472938993,16.945120349132
$GPGGA,200303.00,3454.2753,N,12154.4324,W,1,08,1.0,14.8,M,-33.3,M,,*61
$PYRTM,2024,125.835485666725,16.945133076863
$GPGGA,200304.00,3454.2756,N,12154.4296,W,1,08,1.0,17.6,M,-33.3,M,,*66
$PYRTM,2024,125.835495058044,16.945142468183
$GPGGA,200305.00,3454.2759,N,12154.4268,W,1,08,1.0,15.1,M,-33.3,M,,*6C
$PYRTM,2024,125.835506630255,16.945154040405
$GPGGA,200306.00,3454.2760,N,12154.4239,W,1,08,1.0,12.5,M,-33.3,M,,*62
$PYRTM,2024,125.835518205116,16.945165615255
$GPGGA,200307.00,3454.2760,N,12154.4209,W,1,08,1.0,15.0,M,-33.3,M,,*62
$PYRTM,2024,125.835529778773,16.945177188924
$GPGGA,200308.00,3454.2763,N,12154.4180,W,1,08,1.0,15.5,M,-33.3,M,,*69
$PYRTM,2024,125.835541342373,16.945188752512
$GPGGA,200309.00,3454.2767,N,12154.4152,W,1,08,1.0,15.8,M,-33.3,M,,*6E
$PYRTM,2024,125.835552926991,16.945200337130
$GPGGA,200310.00,3454.2771,N,12154.4123,W,1,08,1.0,17.8,M,-33.3,M,,*65
$PYRTM,2024,125.835564505347,16.945211915486
$GPGGA,200311.00,3454.2773,N,12154.4095,W,1,08,1.0,19.7,M,-33.3,M,,*6B
$PYRTM,2024,125.835576075174,16.945223485312
$GPGGA,200312.00,3454.2774,N,12154.4067,W,1,08,1.0,19.7,M,-33.3,M,,*62
$PYRTM,2024,125.835587991424,16.945235401562
$GPGGA,200313.00,3454.2775,N,12154.4038,W,1,08,1.0,19.0,M,-33.3,M,,*6F
$PYRTM,2024,125.835599224259,16.945246634398
$GPGGA,200314.00,3454.2778,N,12154.4011,W,1,08,1.0,19.3,M,-33.3,M,,*6D
$PYRTM,2024,125.835610793403,16.945258203542
$GPGGA,200315.00,3454.2780,N,12154.3984,W,1,08,1.0,17.8,M,-33.3,M,,*6C
$PYRTM,2024,125.835622371481,16.945269781620
$GPGGA,200316.00,3454.2781,N,12154.3957,W,1,08,1.0,17.3,M,-33.3,M,,*6B
$PYRTM,2024,125.835633947836,16.945281357975
$GPGGA,200317.00,3454.2780,N,12154.3930,W,1,08,1.0,19.3,M,-33.3,M,,*64
$PYRTM,2024,125.835645515683,16.945292925822
$GPGGA,200318.00,3454.2782,N,12154.3903,W,1,08,1.0,17.6,M,-33.3,M,,*62
$PYRTM,2024,125.835657089884,16.945304500023
$GPGGA,200319.00,3454.2789,N,12154.3875,W,1,08,1.0,17.3,M,-33.3,M,,*6D
$PYRTM,2024,125.835668669780,16.945316079919
$GPGGA,200320.00,3454.2796,N,12154.3847,W,1,08,1.0,19.1,M,-33.3,M,,*64
$PYRTM,2024,125.835680243241,16.945327653380
$GPGGA,200321.00,3454.2800,N,12154.3817,W,1,08,1.0,17.2,M,-33.3,M,,*6D
$PYRTM,2024,125.835691816852,16.945339226991
$GPGGA,200322.00,3454.2798,N,12154.3787,W,1,08,1.0,16.0,M,-33.3,M,,*65
$PYRTM,2024,125.835703406285,16.945350816424
$GPGGA,200323.00,3454.2797,N,12154.3759,W,1,08,1.0,14.3,M,-33.3,M,,*69
$PYRTM,2024,125.835714964838,16.945362374977
$GPGGA,200324.00,3454.2800,N,12154.3733,W,1,08,1.0,14.9,M,-33.3,M,,*69
$PYRTM,2024,125.835726543206,16.945373953345
$GPGGA,200325.00,3454.2807,N,12154.3706,W,1,08,1.0,18.0,M,-33.3,M,,*6C
$PYRTM,2024,125.835738447431,16.945385857569
$GPGGA,200326.00,3454.2812,N,12154.3678,W,1,08,1.0,18.1,M,-33.3,M,,*62
$PYRTM,2024,125.835749687859,16.945397097998
$GPGGA,200327.00,3454.2811,N,12154.3649,W,1,08,1.0,17.4,M,-33.3,M,,*68
$PYRTM,2024,125.835761262130,16.945408672269
$GPGGA,200328.00,3454.2809,N,12154.3620,W,1,08,1.0,17.2,M,-33.3,M,,*67
$PYRTM,2024,125.835772836123,16.945420246262
$GPGGA,200329.00,3454.2811,N,12154.3592,W,1,08,1.0,17.7,M,-33.3,M,,*60
$PYRTM,2024,125.835784408750,16.945431818889
$GPGGA,200330.00,3454.2816,N,12154.3566,W,1,08,1.0,15.8,M,-33.3,M,,*69
$PYRTM,2024,125.835795984919,16.945443395058
$GPGGA,200331.00,3454.2817,N,12154.3538,W,1,08,1.0,15.5,M,-33.3,M,,*6F
$PYRTM,2024,125.835807559456,16.945454969606
$GPGGA,200332.00,3454.2815,N,12154.3510,W,1,08,1.0,15.2,M,-33.3,M,,*63
$PYRTM,2024,125.835820162176,16.945467572315
$GPGGA,200333.00,3454.2816,N,12154.3482,W,1,08,1.0,15.9,M,-33.3,M,,*60
$PYRTM,2024,125.835832892025,16.945480302164
$GPGGA,200334.00,3454.2819,N,12154.3454,W,1,08,1.0,17.0,M,-33.3,M,,*68
$PYRTM,2024,125.835842281319,16.945489691458
$GPGGA,200335.00,3454.2822,N,12154.3425,W,1,08,1.0,17.7,M,-33.3,M,,*60
$PYRTM,2024,125.835853855347,16.945501265486
$GPGGA,200336.00,3454.2824,N,12154.3395,W,1,08,1.0,17.3,M,-33.3,M,,*6D
$PYRTM,2024,125.835865431782,16.945512841921
$GPGGA,200337.00,3454.2825,N,12154.3366,W,1,08,1.0,14.6,M,-33.3,M,,*67
$PYRTM,2024,125.835876990972,16.945524401111
$GPGGA,200338.00,3454.2826,N,12154.3337,W,1,08,1.0,15.3,M,-33.3,M,,*6B
$PYRTM,2024,125.835888580220,16.945535990359
$GPGGA,200339.00,3454.2829,N,12154.3308,W,1,08,1.0,14.3,M,-33.3,M,,*68
$PYRTM,2024,125.835900146620,16.945547556759
$GPGGA,200340.00,3454.2831,N,12154.3280,W,1,08,1.0,13.9,M,-33.3,M,,*63
$PYRTM,2024,125.835911725069,16.945559135208
$GPGGA,200341.00,3454.2832,N,12154.3252,W,1,08,1.0,14.7,M,-33.3,M,,*67
$PYRTM,2024,125.835923300208,16.945570710347
$GPGGA,200342.00,3454.2834,N,12154.3224,W,1,08,1.0,15.0,M,-33.3,M,,*65
$PYRTM,2024,125.835934875301,16.945582285451
$GPGGA,200343.00,3454.2839,N,12154.3197,W,1,08,1.0,17.2,M,-33.3,M,,*62
$PYRTM,2024,125.835946449398,16.945593859549
$GPGGA,200344.00,3454.2843,N,12154.3169,W,1,08,1.0,14.7,M,-33.3,M,,*6F
$PYRTM,2024,125.835958021655,16.945605431794
$GPGGA,200345.00,3454.2844,N,12154.3140,W,1,08,1.0,12.9,M,-33.3,M,,*6A
$PYRTM,2024,125.835968670509,16.945616080648
$GPGGA,200346.00,3454.2845,N,12154.3112,W,1,08,1.0,14.2,M,-33.3,M,,*62
$PYRTM,2024,125.835980707870,16.945628118021
$GPGGA,200347.00,3454.2845,N,12154.3084,W,1,08,1.0,12.6,M,-33.3,M,,*6F
$PYRTM,2024,125.835992281644,16.945639691782
$GPGGA,200348.00,3454.2846,N,12154.3056,W,1,08,1.0,14.5,M,-33.3,M,,*69
$PYRTM,2024,125.836003392442,16.945650802581
$GPGGA,200349.00,3454.2850,N,12154.3027,W,1,08,1.0,15.5,M,-33.3,M,,*68
$PYRTM,2024,125.836014372060,16.945661782199
$GPGGA,200350.00,3454.2854,N,12154.2996,W,1,08,1.0,13.0,M,-33.3,M,,*65
$PYRTM,2024,125.836025486539,16.945672896678
$GPGGA,200351.00,3454.2854,N,12154.2967,W,1,08,1.0,14.6,M,-33.3,M,,*6B
$PYRTM,2024,125.836036595694,16.945684005833
$GPGGA,200352.00,3454.2854,N,12154.2940,W,1,08,1.0,17.0,M,-33.3,M,,*68
$PYRTM,2024,125.836047592917,16.945695003056
$GPGGA,200353.00,3454.2854,N,12154.2915,W,1,08,1.0,17.9,M,-33.3,M,,*60
$PYRTM,2024,125.836058705440,16.945706115579
$GPGGA,200354.00,3454.2856,N,12154.2889,W,1,08,1.0,17.2,M,-33.3,M,,*6A
$PYRTM,2024,125.836069702049,16.945717112187
$GPGGA,200355.00,3454.2857,N,12154.2861,W,1,08,1.0,17.7,M,-33.3,M,,*69
$PYRTM,2024,125.836081289977,16.945728700127
$GPGGA,200356.00,3454.2857,N,12154.2832,W,1,08,1.0,18.5,M,-33.3,M,,*61
$PYRTM,2024,125.836092282616,16.945739692766
$GPGGA,200357.00,3454.2856,N,12154.2803,W,1,08,1.0,20.3,M,-33.3,M,,*6E
$PYRTM,2024,125.836104450012,16.945751860150
$GPGGA,200358.00,3454.2856,N,12154.2775,W,1,08,1.0,18.5,M,-33.3,M,,*62
$PYRTM,2024,125.836115430567,16.945762840706
$GPGGA,200359.00,3454.2858,N,12154.2744,W,1,08,1.0,19.2,M,-33.3,M,,*69
$PYRTM,2024,125.836126545150,16.945773955289
$GPGGA,200400.00,3454.2863,N,12154.2713,W,1,08,1.0,18.6,M,-33.3,M,,*6D
$PYRTM,2024,125.836137884421,16.945785294560
$GPGGA,200401.00,3454.2865,N,12154.2681,W,1,08,1.0,18.4,M,-33.3,M,,*62
$PYRTM,2024,125.836149445370,16.945796855509
$GPGGA,200402.00,3454.2865,N,12154.2651,W,1,08,1.0,16.4,M,-33.3,M,,*62
$PYRTM,2024,125.836165187431,16.945812597569
$GPGGA,200403.00,3454.2865,N,12154.2623,W,1,08,1.0,16.2,M,-33.3,M,,*60
$PYRTM,2024,125.836176776412,16.945824186551
$GPGGA,200404.00,3454.2869,N,12154.2596,W,1,08,1.0,17.1,M,-33.3,M,,*64
$PYRTM,2024,125.836188334780,16.945835744919
$GPGGA,200405.00,3454.2873,N,12154.2570,W,1,08,1.0,16.6,M,-33.3,M,,*60
$PYRTM,2024,125.836199922396,16.945847332535
$GPGGA,200406.00,3454.2874,N,12154.2545,W,1,08,1.0,17.2,M,-33.3,M,,*67
$PYRTM,2024,125.836211483333,16.945858893472
$GPGGA,200407.00,3454.2876,N,12154.2518,W,1,08,1.0,14.9,M,-33.3,M,,*64
$PYRTM,2024,125.836223071655,16.945870481806
$GPGGA,200408.00,3454.2879,N,12154.2492,W,1,08,1.0,15.9,M,-33.3,M,,*66
$PYRTM,2024,125.836234631435,16.945882041574
$GPGGA,200409.00,3454.2882,N,12154.2463,W,1,08,1.0,15.3,M,-33.3,M,,*67
$PYRTM,2024,125.836246213380,16.945893623519
$GPGGA,200410.00,3454.2883,N,12154.2432,W,1,08,1.0,16.0,M,-33.3,M,,*6A
$PYRTM,2024,125.836257779433,16.945905189572
$GPGGA,200411.00,3454.2885,N,12154.2401,W,1,08,1.0,15.5,M,-33.3,M,,*6B
$PYRTM,2024,125.836269380278,16.945916790417
$GPGGA,200412.00,3454.2886,N,12154.2370,W,1,08,1.0,14.4,M,-33.3,M,,*6A
$PYRTM,2024,125.836280930556,16.945928340694
$GPGGA,200413.00,3454.2889,N,12154.2341,W,1,08,1.0,15.7,M,-33.3,M,,*64
$PYRTM,2024,125.836292518368,16.945939928519
$GPGGA,200414.00,3454.2892,N,12154.2314,W,1,08,1.0,13.3,M,-33.3,M,,*6B
$PYRTM,2024,125.836304076713,16.945951486852
$GPGGA,200415.00,3454.2895,N,12154.2285,W,1,08,1.0,15.3,M,-33.3,M,,*62
$PYRTM,2024,125.836315667025,16.945963077164
$GPGGA,200416.00,3454.2896,N,12154.2257,W,1,08,1.0,14.8,M,-33.3,M,,*67
$PYRTM,2024,125.836327224294,16.945974634444
$GPGGA,200417.00,3454.2898,N,12154.2232,W,1,08,1.0,15.0,M,-33.3,M,,*62
$PYRTM,2024,125.836338810926,16.945986221076
$GPGGA,200418.00,3454.2899,N,12154.2207,W,1,08,1.0,15.6,M,-33.3,M,,*6C
$PYRTM,2024,125.836350372037,16.945997782176
$GPGGA,200419.00,3454.2899,N,12154.2179,W,1,08,1.0,15.3,M,-33.3,M,,*62
$PYRTM,2024,125.836361960486,16.946009370637
$GPGGA,200420.00,3454.2902,N,12154.2151,W,1,08,1.0,17.9,M,-33.3,M,,*69
$PYRTM,2024,125.836373520405,16.946020930544
$GPGGA,200421.00,3454.2905,N,12154.2122,W,1,08,1.0,19.5,M,-33.3,M,,*69
$PYRTM,2024,125.836385108924,16.946032519063
$GPGGA,200422.00,3454.2908,N,12154.2092,W,1,08,1.0,21.7,M,-33.3,M,,*64
$PYRTM,2024,125.836396669514,16.946044079653
$GPGGA,200423.00,3454.2910,N,12154.2061,W,1,08,1.0,20.6,M,-33.3,M,,*60
$PYRTM,2024,125.836408256528,16.946055666667
$GPGGA,200424.00,3454.2911,N,12154.2031,W,1,08,1.0,20.8,M,-33.3,M,,*6D
$PYRTM,2024,125.836419816817,16.946067226956
$GPGGA,200425.00,3454.2912,N,12154.2003,W,1,08,1.0,20.4,M,-33.3,M,,*62
$PYRTM,2024,125.836431404502,16.946078814653
$GPGGA,200426.00,3454.2915,N,12154.1975,W,1,08,1.0,19.4,M,-33.3,M,,*67
$PYRTM,2024,125.836442965023,16.946090375162
$GPGGA,200427.00,3454.2919,N,12154.1947,W,1,08,1.0,18.4,M,-33.3,M,,*6A
$PYRTM,2024,125.836454555833,16.946101965972
$GPGGA,200428.00,3454.2921,N,12154.1920,W,1,08,1.0,18.1,M,-33.3,M,,*6A
$PYRTM,2024,125.836466113032,16.946113523171
$GPGGA,200429.00,3454.2920,N,12154.1893,W,1,08,1.0,17.2,M,-33.3,M,,*6F
$PYRTM,2024,125.836477711644,16.946125121782
$GPGGA,200430.00,3454.2923,N,12154.1864,W,1,08,1.0,17.6,M,-33.3,M,,*68
$PYRTM,2024,125.836489262546,16.946136672685
$GPGGA,200431.00,3454.2927,N,12154.1835,W,1,08,1.0,17.8,M,-33.3,M,,*67
$PYRTM,2024,125.836500848461,16.946148258600
$GPGGA,200432.00,3454.2930,N,12154.1803,W,1,08,1.0,18.3,M,-33.3,M,,*63
$PYRTM,2024,125.836512191887,16.946159602025
$GPGGA,200433.00,3454.2930,N,12154.1771,W,1,08,1.0,17.8,M,-33.3,M,,*6C
$PYRTM,2024,125.836525149456,16.946172559595
$GPGGA,200434.00,3454.2927,N,12154.1741,W,1,08,1.0,16.9,M,-33.3,M,,*6E
$PYRTM,2024,125.836536743310,16.946184153449
$GPGGA,200435.00,3454.2926,N,12154.1710,W,1,08,1.0,17.0,M,-33.3,M,,*62
$PYRTM,2024,125.836548302431,16.946195712569
$GPGGA,200436.00,3454.2930,N,12154.1680,W,1,08,1.0,14.9,M,-33.3,M,,*64
$PYRTM,2024,125.836559891632,16.946207301771
$GPGGA,200437.00,3454.2934,N,12154.1650,W,1,08,1.0,16.7,M,-33.3,M,,*60
$PYRTM,2024,125.836571446019,16.946218856157
$GPGGA,200438.00,3454.2937,N,12154.1622,W,1,08,1.0,16.5,M,-33.3,M,,*6B
$PYRTM,2024,125.836583019236,16.946230429375
$GPGGA,200439.00,3454.2939,N,12154.1593,W,1,08,1.0,16.7,M,-33.3,M,,*6F
$PYRTM,2024,125.836594599618,16.946242009757
$GPGGA,200440.00,3454.2942,N,12154.1564,W,1,08,1.0,15.5,M,-33.3,M,,*64
$PYRTM,2024,125.836606160949,16.946253571088
$GPGGA,200441.00,3454.2941,N,12154.1536,W,1,08,1.0,14.8,M,-33.3,M,,*6D
$PYRTM,2024,125.836617748044,16.946265158183
$GPGGA,200442.00,3454.2939,N,12154.1508,W,1,08,1.0,13.4,M,-33.3,M,,*67
$PYRTM,2024,125.836629323750,16.946276733889
$GPGGA,200443.00,3454.2940,N,12154.1481,W,1,08,1.0,14.3,M,-33.3,M,,*68
$PYRTM,2024,125.836640896157,16.946288306296
$GPGGA,200444.00,3454.2945,N,12154.1454,W,1,08,1.0,15.0,M,-33.3,M,,*60
$PYRTM,2024,125.836652470891,16.946299881030
$GPGGA,200445.00,3454.2949,N,12154.1427,W,1,08,1.0,15.1,M,-33.3,M,,*68
$PYRTM,2024,125.836664044491,16.946311454630
$GPGGA,200446.00,3454.2948,N,12154.1397,W,1,08,1.0,14.6,M,-33.3,M,,*60
$PYRTM,2024,125.836675620625,16.946323030764
$GPGGA,200447.00,3454.2947,N,12154.1367,W,1,08,1.0,16.1,M,-33.3,M,,*64
$PYRTM,2024,125.836687187280,16.946334597419
$GPGGA,200448.00,3454.2949,N,12154.1338,W,1,08,1.0,15.3,M,-33.3,M,,*6E
$PYRTM,2024,125.836698769062,16.946346179201
$GPGGA,200449.00,3454.2956,N,12154.1308,W,1,08,1.0,15.3,M,-33.3,M,,*62
$PYRTM,2024,125.836710345243,16.946357755382
$GPGGA,200450.00,3454.2962,N,12154.1279,W,1,08,1.0,16.8,M,-33.3,M,,*62
$PYRTM,2024,125.836721935961,16.946369346100
$GPGGA,200451.00,3454.2962,N,12154.1249,W,1,08,1.0,17.0,M,-33.3,M,,*69
$PYRTM,2024,125.836733490914,16.946380901065
$GPGGA,200452.00,3454.2959,N,12154.1219,W,1,08,1.0,14.6,M,-33.3,M,,*62
$PYRTM,2024,125.836745417211,16.946392827350
$GPGGA,200453.00,3454.2957,N,12154.1192,W,1,08,1.0,14.8,M,-33.3,M,,*63
$PYRTM,2024,125.836756637616,16.946404047755
$GPGGA,200454.00,3454.2961,N,12154.1167,W,1,08,1.0,15.8,M,-33.3,M,,*6A
$PYRTM,2024,125.836768211053,16.946415621192
$GPGGA,200455.00,3454.2966,N,12154.1142,W,1,08,1.0,16.8,M,-33.3,M,,*68
$PYRTM,2024,125.836780117234,16.946427527373
$GPGGA,200456.00,3454.2970,N,12154.1117,W,1,08,1.0,17.1,M,-33.3,M,,*64
$PYRTM,2024,125.836791364051,16.946438774190
$GPGGA,200457.00,3454.2969,N,12154.1091,W,1,08,1.0,14.9,M,-33.3,M,,*69
$PYRTM,2024,125.836802928588,16.946450338727
$GPGGA,200458.00,3454.2969,N,12154.1063,W,1,08,1.0,16.8,M,-33.3,M,,*68
$PYRTM,2024,125.836814508449,16.946461918600
$GPGGA,200459.00,3454.2971,N,12154.1035,W,1,08,1.0,18.8,M,-33.3,M,,*6D
$PYRTM,2024,125.836826083704,16.946473493843
$GPGGA,200500.00,3454.2975,N,12154.1005,W,1,08,1.0,18.1,M,-33.3,M,,*6E
$PYRTM,2024,125.836837657593,16.946485067743
$GPGGA,200501.00,3454.2977,N,12154.0975,W,1,08,1.0,17.8,M,-33.3,M,,*64
$PYRTM,2024,125.836849225694,16.946496635833
$GPGGA,200502.00,3454.2977,N,12154.0944,W,1,08,1.0,17.7,M,-33.3,M,,*6A
$PYRTM,2024,125.836861834329,16.946509244468
$GPGGA,200503.00,3454.2978,N,12154.0913,W,1,08,1.0,16.0,M,-33.3,M,,*60
$PYRTM,2024,125.836874447940,16.946521858079
$GPGGA,200504.00,3454.2981,N,12154.0884,W,1,08,1.0,13.8,M,-33.3,M,,*63
$PYRTM,2024,125.836883823148,16.946531233287
$GPGGA,200505.00,3454.2986,N,12154.0857,W,1,08,1.0,13.8,M,-33.3,M,,*6B
$PYRTM,2024,125.836895530243,16.946542940382
$GPGGA,200506.00,3454.2990,N,12154.0830,W,1,08,1.0,12.5,M,-33.3,M,,*62
$PYRTM,2024,125.836907101111,16.946554511250
$GPGGA,200507.00,3454.2993,N,12154.0803,W,1,08,1.0,13.8,M,-33.3,M,,*6C
$PYRTM,2024,125.836918684745,16.946566094884
$GPGGA,200508.00,3454.2993,N,12154.0775,W,1,08,1.0,14.1,M,-33.3,M,,*63
$PYRTM,2024,125.836930119525,16.946577529664
$GPGGA,200509.00,3454.2993,N,12154.0748,W,1,08,1.0,14.6,M,-33.3,M,,*6B
$PYRTM,2024,125.836941826493,16.946589236644
$GPGGA,200510.00,3454.2994,N,12154.0719,W,1,08,1.0,17.7,M,-33.3,M,,*62
$PYRTM,2024,125.836953268484,16.946600678623
$GPGGA,200511.00,3454.2998,N,12154.0688,W,1,08,1.0,19.9,M,-33.3,M,,*66
$PYRTM,2024,125.836964856829,16.946612266979
$GPGGA,200512.00,3454.3001,N,12154.0655,W,1,08,1.0,17.7,M,-33.3,M,,*6D
$PYRTM,2024,125.836976415764,16.946623825903
$GPGGA,200513.00,3454.3000,N,12154.0623,W,1,08,1.0,18.5,M,-33.3,M,,*61
$PYRTM,2024,125.836988120532,16.946635530671
$GPGGA,200514.00,3454.2998,N,12154.0592,W,1,08,1.0,18.5,M,-33.3,M,,*66
$PYRTM,2024,125.836999694838,16.946647104977
$GPGGA,200515.00,3454.2998,N,12154.0562,W,1,08,1.0,16.9,M,-33.3,M,,*6A
$PYRTM,2024,125.837011270961,16.946658681111
$GPGGA,200516.00,3454.2999,N,12154.0533,W,1,08,1.0,14.3,M,-33.3,M,,*64
$PYRTM,2024,125.837022844421,16.946670254560
$GPGGA,200517.00,3454.3000,N,12154.0505,W,1,08,1.0,12.5,M,-33.3,M,,*68
$PYRTM,2024,125.837034301505,16.946681711644
$GPGGA,200518.00,3454.3000,N,12154.0479,W,1,08,1.0,13.5,M,-33.3,M,,*6C
$PYRTM,2024,125.837045860648,16.946693270787
$GPGGA,200519.00,3454.3002,N,12154.0452,W,1,08,1.0,14.8,M,-33.3,M,,*6C
$PYRTM,2024,125.837057564942,16.946704975081
$GPGGA,200520.00,3454.3005,N,12154.0426,W,1,08,1.0,14.9,M,-33.3,M,,*63
$PYRTM,2024,125.837069127269,16.946716537407
$GPGGA,200521.00,3454.3007,N,12154.0399,W,1,08,1.0,17.0,M,-33.3,M,,*69
$PYRTM,2024,125.837080599132,16.946728009271
$GPGGA,200522.00,3454.3008,N,12154.0371,W,1,08,1.0,15.2,M,-33.3,M,,*63
$PYRTM,2024,125.837092161331,16.946739571481
$GPGGA,200523.00,3454.3009,N,12154.0341,W,1,08,1.0,12.7,M,-33.3,M,,*62
$PYRTM,2024,125.837103746701,16.946751156840
$GPGGA,200524.00,3454.3010,N,12154.0311,W,1,08,1.0,14.6,M,-33.3,M,,*6F
$PYRTM,2024,125.837115306713,16.946762716852
$GPGGA,200525.00,3454.3011,N,12154.0281,W,1,08,1.0,15.0,M,-33.3,M,,*60
$PYRTM,2024,125.837127343854,16.946774754005
$GPGGA,200526.00,3454.3013,N,12154.0253,W,1,08,1.0,14.7,M,-33.3,M,,*68
$PYRTM,2024,125.837138453762,16.946785863912
$GPGGA,200527.00,3454.3016,N,12154.0224,W,1,08,1.0,13.9,M,-33.3,M,,*65
$PYRTM,2024,125.837150039803,16.946797449942
$GPGGA,200528.00,3454.3021,N,12154.0194,W,1,08,1.0,13.5,M,-33.3,M,,*6A
$PYRTM,2024,125.837161601817,16.946809011956
$GPGGA,200529.00,3454.3024,N,12154.0164,W,1,08,1.0,14.7,M,-33.3,M,,*64
$PYRTM,2024,125.837173189942,16.946820600081
$GPGGA,200530.00,3454.3022,N,12154.0134,W,1,08,1.0,15.2,M,-33.3,M,,*6B
$PYRTM,2024,125.837184752257,16.946832162396
$GPGGA,200531.00,3454.3019,N,12154.0105,W,1,08,1.0,14.4,M,-33.3,M,,*67
$PYRTM,2024,125.837196339306,16.946843749444
$GPGGA,200532.00,3454.3021,N,12154.0078,W,1,08,1.0,15.1,M,-33.3,M,,*60
$PYRTM,2024,125.837209058958,16.946856469097
$GPGGA,200533.00,3454.3026,N,12154.0052,W,1,08,1.0,14.9,M,-33.3,M,,*67
$PYRTM,2024,125.837221674988,16.946869085127
$GPGGA,200534.00,3454.3033,N,12154.0024,W,1,08,1.0,13.9,M,-33.3,M,,*62
$PYRTM,2024,125.837231048009,16.946878458148
$GPGGA,200535.00,3454.3034,N,12153.9995,W,1,08,1.0,17.0,M,-33.3,M,,*64
$PYRTM,2024,125.837242635637,16.946890045775
$GPGGA,200536.00,3454.3031,N,12153.9966,W,1,08,1.0,17.5,M,-33.3,M,,*6B
$PYRTM,2024,125.837254196377,16.946901606516
$GPGGA,200537.00,3454.3030,N,12153.9937,W,1,08,1.0,17.3,M,-33.3,M,,*69
$PYRTM,2024,125.837265784965,16.946913195116
$GPGGA,200538.00,3454.3032,N,12153.9908,W,1,08,1.0,17.7,M,-33.3,M,,*6C
$PYRTM,2024,125.837277343356,16.946924753484
$GPGGA,200539.00,3454.3036,N,12153.9877,W,1,08,1.0,16.0,M,-33.3,M,,*66
$PYRTM,2024,125.837288932847,16.946936342986
$GPGGA,200540.00,3454.3037,N,12153.9848,W,1,08,1.0,15.0,M,-33.3,M,,*66
$PYRTM,2024,125.837300492917,16.946947903056
$GPGGA,200541.00,3454.3035,N,12153.9818,W,1,08,1.0,14.7,M,-33.3,M,,*66
$PYRTM,2024,125.837312080880,16.946959491019
$GPGGA,200542.00,3454.3033,N,12153.9789,W,1,08,1.0,15.7,M,-33.3,M,,*65
$PYRTM,2024,125.837324116667,16.946971526806
$GPGGA,200543.00,3454.3036,N,12153.9761,W,1,08,1.0,15.6,M,-33.3,M,,*66
$PYRTM,2024,125.837335229155,16.946982639294
$GPGGA,200544.00,3454.3041,N,12153.9733,W,1,08,1.0,14.5,M,-33.3,M,,*64
$PYRTM,2024,125.837346789005,16.946994199144
$GPGGA,200545.00,3454.3045,N,12153.9705,W,1,08,1.0,14.0,M,-33.3,M,,*61
$PYRTM,2024,125.837358378669,16.947005788808
$GPGGA,200546.00,3454.3044,N,12153.9677,W,1,08,1.0,14.0,M,-33.3,M,,*67
$PYRTM,2024,125.837369937002,16.947017347153
$GPGGA,200547.00,3454.3042,N,12153.9648,W,1,08,1.0,13.9,M,-33.3,M,,*62
$PYRTM,2024,125.837381520729,16.947028930868
$GPGGA,200548.00,3454.3042,N,12153.9618,W,1,08,1.0,13.5,M,-33.3,M,,*64
$PYRTM,2024,125.837393216979,16.947040627118
$GPGGA,200549.00,3454.3047,N,12153.9588,W,1,08,1.0,13.9,M,-33.3,M,,*66
$PYRTM,2024,125.837404784109,16.947052194248
$GPGGA,200550.00,3454.3053,N,12153.9559,W,1,08,1.0,13.5,M,-33.3,M,,*6B
$PYRTM,2024,125.837415440683,16.947062850822
$GPGGA,200551.00,3454.3055,N,12153.9530,W,1,08,1.0,13.3,M,-33.3,M,,*65
$PYRTM,2024,125.837427475185,16.947074885324
$GPGGA,200552.00,3454.3054,N,12153.9500,W,1,08,1.0,13.3,M,-33.3,M,,*64
$PYRTM,2024,125.837439049178,16.947086459317
$GPGGA,200553.00,3454.3054,N,12153.9471,W,1,08,1.0,12.9,M,-33.3,M,,*69
$PYRTM,2024,125.837450158935,16.947097569074
$GPGGA,200554.00,3454.3058,N,12153.9443,W,1,08,1.0,11.0,M,-33.3,M,,*69
$PYRTM,2024,125.837461155324,16.947108565463
$GPGGA,200555.00,3454.3062,N,12153.9415,W,1,08,1.0,11.3,M,-33.3,M,,*61
$PYRTM,2024,125.837472716493,16.947120126632
$GPGGA,200556.00,3454.3064,N,12153.9387,W,1,08,1.0,10.5,M,-33.3,M,,*6F
$PYRTM,2024,125.837483713044,16.947131123194
$GPGGA,200557.00,3454.3064,N,12153.9357,W,1,08,1.0,10.9,M,-33.3,M,,*6F
$PYRTM,2024,125.837494824444,16.947142234583
$GPGGA,200558.00,3454.3065,N,12153.9329,W,1,08,1.0,11.5,M,-33.3,M,,*65
$PYRTM,2024,125.837505820475,16.947153230613
$GPGGA,200559.00,3454.3067,N,12153.9301,W,1,08,1.0,10.9,M,-33.3,M,,*61
$PYRTM,2024,125.837516930081,16.947164340220
$GPGGA,200600.00,3454.3071,N,12153.9272,W,1,08,1.0,11.9,M,-33.3,M,,*6D
$PYRTM,2024,125.837528040451,16.947175450590
$GPGGA,200601.00,3454.3074,N,12153.9243,W,1,08,1.0,13.9,M,-33.3,M,,*69
$PYRTM,2024,125.837539049329,16.947186459468
$GPGGA,200602.00,3454.3077,N,12153.9213,W,1,08,1.0,12.3,M,-33.3,M,,*67
$PYRTM,2024,125.837554084363,16.947201494502
$GPGGA,200603.00,3454.3078,N,12153.9183,W,1,08,1.0,11.6,M,-33.3,M,,*65
$PYRTM,2024,125.837565670914,16.947213081053
$GPGGA,200604.00,3454.3078,N,12153.9154,W,1,08,1.0,14.9,M,-33.3,M,,*62
$PYRTM,2024,125.837577231968,16.947224642106
$GPGGA,200605.00,3454.3079,N,12153.9125,W,1,08,1.0,14.5,M,-33.3,M,,*68
$PYRTM,2024,125.837588819514,16.947236229653
$GPGGA,200606.00,3454.3082,N,12153.9096,W,1,08,1.0,17.2,M,-33.3,M,,*62
$PYRTM,2024,125.837600380162,16.947247790301
$GPGGA,200607.00,3454.3084,N,12153.9068,W,1,08,1.0,16.0,M,-33.3,M,,*67
$PYRTM,2024,125.837611961794,16.947259371944
$GPGGA,200608.00,3454.3087,N,12153.9038,W,1,08,1.0,16.3,M,-33.3,M,,*6D
$PYRTM,2024,125.837623528287,16.947270938437
$GPGGA,200609.00,3454.3089,N,12153.9009,W,1,08,1.0,16.6,M,-33.3,M,,*65
$PYRTM,2024,125.837635115903,16.947282526042
$GPGGA,200610.00,3454.3090,N,12153.8979,W,1,08,1.0,17.5,M,-33.3,M,,*68
$PYRTM,2024,125.837646677037,16.947294087176
$GPGGA,200611.00,3454.3089,N,12153.8949,W,1,08,1.0,16.7,M,-33.3,M,,*61
$PYRTM,2024,125.837658263565,16.947305673704
$GPGGA,200612.00,3454.3090,N,12153.8918,W,1,08,1.0,16.1,M,-33.3,M,,*68
$PYRTM,2024,125.837669824039,16.947317234178
$GPGGA,200613.00,3454.3092,N,12153.8889,W,1,08,1.0,15.8,M,-33.3,M,,*68
$PYRTM,2024,125.837681415718,16.947328825856
$GPGGA,200614.00,3454.3096,N,12153.8859,W,1,08,1.0,16.0,M,-33.3,M,,*6D
$PYRTM,2024,125.837692973090,16.947340383229
$GPGGA,200615.00,3454.3099,N,12153.8830,W,1,08,1.0,13.7,M,-33.3,M,,*6E
$PYRTM,2024,125.837704560324,16.947351970475
$GPGGA,200616.00,3454.3101,N,12153.8801,W,1,08,1.0,14.0,M,-33.3,M,,*6F
$PYRTM,2024,125.837716120278,16.947363530417
$GPGGA,200617.00,3454.3101,N,12153.8771,W,1,08,1.0,15.0,M,-33.3,M,,*67
$PYRTM,2024,125.837727707477,16.947375117616
$GPGGA,200618.00,3454.3103,N,12153.8743,W,1,08,1.0,15.1,M,-33.3,M,,*6A
$PYRTM,2024,125.837739269722,16.947386679861
$GPGGA,200619.00,3454.3106,N,12153.8714,W,1,08,1.0,16.4,M,-33.3,M,,*6A
$PYRTM,2024,125.837750858854,16.947398268993
$GPGGA,200620.00,3454.3108,N,12153.8685,W,1,08,1.0,15.1,M,-33.3,M,,*61
$PYRTM,2024,125.837762418657,16.947409828796
$GPGGA,200621.00,3454.3109,N,12153.8654,W,1,08,1.0,15.6,M,-33.3,M,,*6A
$PYRTM,2024,125.837774003646,16.947421413785
$GPGGA,200622.00,3454.3111,N,12153.8623,W,1,08,1.0,15.0,M,-33.3,M,,*66
$PYRTM,2024,125.837785564792,16.947432974931
$GPGGA,200623.00,3454.3111,N,12153.8594,W,1,08,1.0,16.0,M,-33.3,M,,*6B
$PYRTM,2024,125.837797153345,16.947444563495
$GPGGA,200624.00,3454.3112,N,12153.8564,W,1,08,1.0,15.2,M,-33.3,M,,*61
$PYRTM,2024,125.837808715035,16.947456125174
$GPGGA,200625.00,3454.3117,N,12153.8534,W,1,08,1.0,15.3,M,-33.3,M,,*61
$PYRTM,2024,125.837820296146,16.947467706285
$GPGGA,200626.00,3454.3123,N,12153.8504,W,1,08,1.0,14.6,M,-33.3,M,,*62
$PYRTM,2024,125.837831861817,16.947479271956
$GPGGA,200627.00,3454.3124,N,12153.8476,W,1,08,1.0,15.6,M,-33.3,M,,*61
$PYRTM,2024,125.837843452720,16.947490862870
$GPGGA,200628.00,3454.3122,N,12153.8447,W,1,08,1.0,16.7,M,-33.3,M,,*68
$PYRTM,2024,125.837855009815,16.947502419954
$GPGGA,200629.00,3454.3122,N,12153.8418,W,1,08,1.0,16.1,M,-33.3,M,,*65
$PYRTM,2024,125.837866600440,16.947514010590
$GPGGA,200630.00,3454.3126,N,12153.8389,W,1,08,1.0,15.9,M,-33.3,M,,*6D
$PYRTM,2024,125.837878159549,16.947525569687
$GPGGA,200631.00,3454.3131,N,12153.8362,W,1,08,1.0,14.9,M,-33.3,M,,*6E
$PYRTM,2024,125.837889745706,16.947537155856
$GPGGA,200632.00,3454.3132,N,12153.8334,W,1,08,1.0,13.5,M,-33.3,M,,*66
$PYRTM,2024,125.837901553275,16.947548963426
$GPGGA,200633.00,3454.3132,N,12153.8305,W,1,08,1.0,12.0,M,-33.3,M,,*61
$PYRTM,2024,125.837913935613,16.947561345752
$GPGGA,200634.00,3454.3134,N,12153.8274,W,1,08,1.0,13.8,M,-33.3,M,,*6E
$PYRTM,2024,125.837925497477,16.947572907616
$GPGGA,200635.00,3454.3135,N,12153.8245,W,1,08,1.0,15.5,M,-33.3,M,,*67
$PYRTM,2024,125.837937084398,16.947584494537
$GPGGA,200636.00,3454.3135,N,12153.8217,W,1,08,1.0,14.3,M,-33.3,M,,*64
$PYRTM,2024,125.837948643727,16.947596053866
$GPGGA,200637.00,3454.3136,N,12153.8190,W,1,08,1.0,13.9,M,-33.3,M,,*67
$PYRTM,2024,125.837960231898,16.947607642049
$GPGGA,200638.00,3454.3138,N,12153.8161,W,1,08,1.0,12.5,M,-33.3,M,,*65
$PYRTM,2024,125.837971792060,16.947619202199
$GPGGA,200639.00,3454.3139,N,12153.8132,W,1,08,1.0,14.5,M,-33.3,M,,*65
$PYRTM,2024,125.837983381146,16.947630791285
$GPGGA,200640.00,3454.3138,N,12153.8104,W,1,08,1.0,13.8,M,-33.3,M,,*65
$PYRTM,2024,125.837994941308,16.947642351458
$GPGGA,200641.00,3454.3137,N,12153.8074,W,1,08,1.0,12.1,M,-33.3,M,,*65
$PYRTM,2024,125.838006529248,16.947653939387
$GPGGA,200642.00,3454.3139,N,12153.8044,W,1,08,1.0,13.6,M,-33.3,M,,*6D
$PYRTM,2024,125.838018089248,16.947665499387
$GPGGA,200643.00,3454.3142,N,12153.8014,W,1,08,1.0,15.3,M,-33.3,M,,*66
$PYRTM,2024,125.838029672650,16.947677082801
$GPGGA,200644.00,3454.3146,N,12153.7983,W,1,08,1.0,18.7,M,-33.3,M,,*64
$PYRTM,2024,125.838041236944,16.947688647083
$GPGGA,200645.00,3454.3148,N,12153.7952,W,1,08,1.0,18.7,M,-33.3,M,,*67
$PYRTM,2024,125.838052825405,16.947700235544
$GPGGA,200646.00,3454.3149,N,12153.7923,W,1,08,1.0,15.8,M,-33.3,M,,*61
$PYRTM,2024,125.838064386169,16.947711796308
$GPGGA,200647.00,3454.3149,N,12153.7894,W,1,08,1.0,15.1,M,-33.3,M,,*64
$PYRTM,2024,125.838075973125,16.947723383275
$GPGGA,200648.00,3454.3149,N,12153.7865,W,1,08,1.0,13.6,M,-33.3,M,,*64
$PYRTM,2024,125.838087533912,16.947734944051
$GPGGA,200649.00,3454.3151,N,12153.7839,W,1,08,1.0,14.3,M,-33.3,M,,*67
$PYRTM,2024,125.838099121771,16.947746531910
$GPGGA,200650.00,3454.3154,N,12153.7813,W,1,08,1.0,15.3,M,-33.3,M,,*63
$PYRTM,2024,125.838110680833,16.947758090984
$GPGGA,200651.00,3454.3156,N,12153.7785,W,1,08,1.0,14.0,M,-33.3,M,,*62
$PYRTM,2024,125.838122269954,16.947769680093
$GPGGA,200652.00,3454.3158,N,12153.7756,W,1,08,1.0,14.4,M,-33.3,M,,*65
$PYRTM,2024,125.838133830718,16.947781240856
$GPGGA,200653.00,3454.3160,N,12153.7728,W,1,08,1.0,15.6,M,-33.3,M,,*65
$PYRTM,2024,125.838145418183,16.947792828322
$GPGGA,200654.00,3454.3161,N,12153.7700,W,1,08,1.0,17.1,M,-33.3,M,,*6C
$PYRTM,2024,125.838156977384,16.947804387523
$GPGGA,200655.00,3454.3161,N,12153.7671,W,1,08,1.0,18.0,M,-33.3,M,,*64
$PYRTM,2024,125.838169014734,16.947816424873
$GPGGA,200656.00,3454.3161,N,12153.7641,W,1,08,1.0,19.0,M,-33.3,M,,*65
$PYRTM,2024,125.838180125972,16.947827536111
$GPGGA,200657.00,3454.3163,N,12153.7611,W,1,08,1.0,18.9,M,-33.3,M,,*6B
$PYRTM,2024,125.838191715127,16.947839125266
$GPGGA,200658.00,3454.3165,N,12153.7582,W,1,08,1.0,15.6,M,-33.3,M,,*69
$PYRTM,2024,125.838203274803,16.947850684954
$GPGGA,200659.00,3454.3168,N,12153.7553,W,1,08,1.0,15.1,M,-33.3,M,,*6E
$PYRTM,2024,125.838214863194,16.947862273333
$GPGGA,200700.00,3454.3170,N,12153.7525,W,1,08,1.0,13.8,M,-33.3,M,,*64
$PYRTM,2024,125.838226423715,16.947873833854
$GPGGA,200701.00,3454.3171,N,12153.7495,W,1,08,1.0,14.3,M,-33.3,M,,*62
$PYRTM,2024,125.838238012662,16.947885422801
$GPGGA,200702.00,3454.3172,N,12153.7466,W,1,08,1.0,15.1,M,-33.3,M,,*6D
$PYRTM,2024,125.838250734144,16.947898144282
$GPGGA,200703.00,3454.3175,N,12153.7436,W,1,08,1.0,17.0,M,-33.3,M,,*6D
$PYRTM,2024,125.838263346794,16.947910756933
$GPGGA,200704.00,3454.3177,N,12153.7407,W,1,08,1.0,18.7,M,-33.3,M,,*62
$PYRTM,2024,125.838272719560,16.947920129699
$GPGGA,200705.00,3454.3178,N,12153.7376,W,1,08,1.0,17.4,M,-33.3,M,,*61
$PYRTM,2024,125.838284307442,16.947931717593
$GPGGA,200706.00,3454.3178,N,12153.7347,W,1,08,1.0,17.1,M,-33.3,M,,*65
$PYRTM,2024,125.838295869063,16.947943279201
$GPGGA,200707.00,3454.3179,N,12153.7318,W,1,08,1.0,14.9,M,-33.3,M,,*64
$PYRTM,2024,125.838307457824,16.947954867963
$GPGGA,200708.00,3454.3179,N,12153.7292,W,1,08,1.0,13.8,M,-33.3,M,,*6E
$PYRTM,2024,125.838319017708,16.947966427847
$GPGGA,200709.00,3454.3178,N,12153.7265,W,1,08,1.0,15.6,M,-33.3,M,,*6E
$PYRTM,2024,125.838330600637,16.947978010775
$GPGGA,200710.00,3454.3181,N,12153.7237,W,1,08,1.0,15.9,M,-33.3,M,,*68
$PYRTM,2024,125.838342166146,16.947989576285
$GPGGA,200711.00,3454.3186,N,12153.7208,W,1,08,1.0,16.8,M,-33.3,M,,*60
$PYRTM,2024,125.838353748032,16.948001158171
$GPGGA,200712.00,3454.3191,N,12153.7178,W,1,08,1.0,13.6,M,-33.3,M,,*6A
$PYRTM,2024,125.838365314815,16.948012724954
$GPGGA,200713.00,3454.3191,N,12153.7147,W,1,08,1.0,14.0,M,-33.3,M,,*66
$PYRTM,2024,125.838376902766,16.948024312917
$GPGGA,200714.00,3454.3189,N,12153.7115,W,1,08,1.0,12.4,M,-33.3,M,,*6D
$PYRTM,2024,125.838388460463,16.948035870613
$GPGGA,200715.00,3454.3189,N,12153.7084,W,1,08,1.0,13.4,M,-33.3,M,,*64
$PYRTM,2024,125.838400049722,16.948047459861
$GPGGA,200716.00,3454.3193,N,12153.7055,W,1,08,1.0,12.8,M,-33.3,M,,*6D
$PYRTM,2024,125.838411608218,16.948059018368
$GPGGA,200717.00,3454.3197,N,12153.7027,W,1,08,1.0,12.6,M,-33.3,M,,*63
$PYRTM,2024,125.838423198113,16.948070608252
$GPGGA,200718.00,3454.3200,N,12153.7000,W,1,08,1.0,11.7,M,-33.3,M,,*66
$PYRTM,2024,125.838434757870,16.948082168009
$GPGGA,200719.00,3454.3200,N,12153.6972,W,1,08,1.0,12.0,M,-33.3,M,,*6E
$PYRTM,2024,125.838446346088,16.948093756238
$GPGGA,200720.00,3454.3200,N,12153.6942,W,1,08,1.0,12.1,M,-33.3,M,,*66
$PYRTM,2024,125.838457910741,16.948105320880
$GPGGA,200721.00,3454.3202,N,12153.6914,W,1,08,1.0,13.2,M,-33.3,M,,*64
$PYRTM,2024,125.838469488750,16.948116898900
$GPGGA,200722.00,3454.3205,N,12153.6885,W,1,08,1.0,16.8,M,-33.3,M,,*66
$PYRTM,2024,125.838481526528,16.948128936667
$GPGGA,200723.00,3454.3208,N,12153.6854,W,1,08,1.0,15.9,M,-33.3,M,,*64
$PYRTM,2024,125.838492642627,16.948140052778
$GPGGA,200724.00,3454.3210,N,12153.6822,W,1,08,1.0,14.4,M,-33.3,M,,*67
$PYRTM,2024,125.838504201447,16.948151611586
$GPGGA,200725.00,3454.3212,N,12153.6791,W,1,08,1.0,12.7,M,-33.3,M,,*66
$PYRTM,2024,125.838516239340,16.948163649491
$GPGGA,200726.00,3454.3213,N,12153.6761,W,1,08,1.0,12.2,M,-33.3,M,,*6E
$PYRTM,2024,125.838527350197,16.948174760336
$GPGGA,200727.00,3454.3214,N,12153.6732,W,1,08,1.0,11.7,M,-33.3,M,,*68
$PYRTM,2024,125.838538935694,16.948186345833
$GPGGA,200728.00,3454.3215,N,12153.6702,W,1,08,1.0,11.9,M,-33.3,M,,*6B
$PYRTM,2024,125.838550500000,16.948197910139
$GPGGA,200729.00,3454.3218,N,12153.6674,W,1,08,1.0,11.7,M,-33.3,M,,*69
$PYRTM,2024,125.838562088148,16.948209498287
$GPGGA,200730.00,3454.3219,N,12153.6648,W,1,08,1.0,10.5,M,-33.3,M,,*6C
$PYRTM,2024,125.838573647697,16.948221057836
$GPGGA,200731.00,3454.3221,N,12153.6620,W,1,08,1.0,12.4,M,-33.3,M,,*6B
$PYRTM,2024,125.838585235868,16.948232646007
$GPGGA,200732.00,3454.3224,N,12153.6591,W,1,08,1.0,12.5,M,-33.3,M,,*65
$PYRTM,2024,125.838597967778,16.948245377917
$GPGGA,200733.00,3454.3226,N,12153.6563,W,1,08,1.0,12.5,M,-33.3,M,,*6B
$PYRTM,2024,125.838610569491,16.948257979630
$GPGGA,200734.00,3454.3225,N,12153.6533,W,1,08,1.0,10.6,M,-33.3,M,,*6B
$PYRTM,2024,125.838619943565,16.948267353704
$GPGGA,200735.00,3454.3226,N,12153.6503,W,1,08,1.0,10.6,M,-33.3,M,,*6A
$PYRTM,2024,125.838631532917,16.948278943067
$GPGGA,200736.00,3454.3229,N,12153.6470,W,1,08,1.0,11.6,M,-33.3,M,,*62
$PYRTM,2024,125.838643095880,16.948290506019
$GPGGA,200737.00,3454.3234,N,12153.6440,W,1,08,1.0,16.3,M,-33.3,M,,*6E
$PYRTM,2024,125.838654679977,16.948302090116
$GPGGA,200738.00,3454.3237,N,12153.6412,W,1,08,1.0,16.4,M,-33.3,M,,*62
$PYRTM,2024,125.838666240833,16.948313650984
$GPGGA,200739.00,3454.3234,N,12153.6384,W,1,08,1.0,15.8,M,-33.3,M,,*67
$PYRTM,2024,125.838677829039,16.948325239178
$GPGGA,200740.00,3454.3232,N,12153.6356,W,1,08,1.0,14.7,M,-33.3,M,,*6E
$PYRTM,2024,125.838689388067,16.948336798206
$GPGGA,200741.00,3454.3233,N,12153.6329,W,1,08,1.0,14.0,M,-33.3,M,,*61
$PYRTM,2024,125.838700973090,16.948348383229
$GPGGA,200742.00,3454.3239,N,12153.6304,W,1,08,1.0,15.3,M,-33.3,M,,*65
$PYRTM,2024,125.838712537488,16.948359947639
$GPGGA,200743.00,3454.3244,N,12153.6278,W,1,08,1.0,15.9,M,-33.3,M,,*6E
$PYRTM,2024,125.838724125301,16.948371535440
$GPGGA,200744.00,3454.3246,N,12153.6248,W,1,08,1.0,15.9,M,-33.3,M,,*68
$PYRTM,2024,125.838735685880,16.948383096019
$GPGGA,200745.00,3454.3245,N,12153.6218,W,1,08,1.0,16.2,M,-33.3,M,,*67
$PYRTM,2024,125.838747273553,16.948394683692
$GPGGA,200746.00,3454.3245,N,12153.6190,W,1,08,1.0,14.7,M,-33.3,M,,*60
$PYRTM,2024,125.838758833218,16.948406243356
$GPGGA,200747.00,3454.3248,N,12153.6161,W,1,08,1.0,11.9,M,-33.3,M,,*69
$PYRTM,2024,125.838770421979,16.948417832118
$GPGGA,200748.00,3454.3253,N,12153.6132,W,1,08,1.0,15.0,M,-33.3,M,,*67
$PYRTM,2024,125.838781981065,16.948429391204
$GPGGA,200749.00,3454.3258,N,12153.6104,W,1,08,1.0,15.0,M,-33.3,M,,*68
$PYRTM,2024,125.838793564664,16.948440974803
$GPGGA,200750.00,3454.3261,N,12153.6076,W,1,08,1.0,15.5,M,-33.3,M,,*6B
$PYRTM,2024,125.838805130741,16.948452540880
$GPGGA,200751.00,3454.3263,N,12153.6047,W,1,08,1.0,16.0,M,-33.3,M,,*6C
$PYRTM,2024,125.838816718287,16.948464128438
$GPGGA,200752.00,3454.3265,N,12153.6017,W,1,08,1.0,15.6,M,-33.3,M,,*69
$PYRTM,2024,125.838828278275,16.948475688414
$GPGGA,200753.00,3454.3267,N,12153.5989,W,1,08,1.0,16.0,M,-33.3,M,,*62
$PYRTM,2024,125.838839862303,16.948487272442
$GPGGA,200754.00,3454.3269,N,12153.5959,W,1,08,1.0,19.1,M,-33.3,M,,*68
$PYRTM,2024,125.838851428588,16.948498838727
$GPGGA,200755.00,3454.3271,N,12153.5929,W,1,08,1.0,16.4,M,-33.3,M,,*6D
$PYRTM,2024,125.838862537813,16.948509947951
$GPGGA,200756.00,3454.3273,N,12153.5898,W,1,08,1.0,16.9,M,-33.3,M,,*6A
$PYRTM,2024,125.838874575486,16.948521985625
$GPGGA,200757.00,3454.3273,N,12153.5868,W,1,08,1.0,14.5,M,-33.3,M,,*6A
$PYRTM,2024,125.838886278958,16.948533689109
$GPGGA,200758.00,3454.3274,N,12153.5838,W,1,08,1.0,16.6,M,-33.3,M,,*66
$PYRTM,2024,125.838897274965,16.948544685104
$GPGGA,200759.00,3454.3277,N,12153.5809,W,1,08,1.0,16.6,M,-33.3,M,,*66
$PYRTM,2024,125.838908387130,16.948555797269
$GPGGA,200800.00,3454.3280,N,12153.5782,W,1,08,1.0,14.3,M,-33.3,M,,*66
$PYRTM,2024,125.838919384225,16.948566794363
$GPGGA,200801.00,3454.3280,N,12153.5755,W,1,08,1.0,14.5,M,-33.3,M,,*6B
$PYRTM,2024,125.838930491806,16.948577901944
$GPGGA,200802.00,3454.3281,N,12153.5726,W,1,08,1.0,16.9,M,-33.3,M,,*63
$PYRTM,2024,125.838941606991,16.948589017130
$GPGGA,200803.00,3454.3284,N,12153.5698,W,1,08,1.0,15.3,M,-33.3,M,,*6A
$PYRTM,2024,125.838956057153,16.948603467292
$GPGGA,200804.00,3454.3287,N,12153.5668,W,1,08,1.0,17.9,M,-33.3,M,,*69
$PYRTM,2024,125.838967169190,16.948614579329
$GPGGA,200805.00,3454.3288,N,12153.5638,W,1,08,1.0,17.8,M,-33.3,M,,*63
$PYRTM,2024,125.838978280544,16.948625690683
$GPGGA,200806.00,3454.3289,N,12153.5608,W,1,08,1.0,20.5,M,-33.3,M,,*6B
$PYRTM,2024,125.838989391840,16.948636801979
$GPGGA,200807.00,3454.3291,N,12153.5578,W,1,08,1.0,20.9,M,-33.3,M,,*6B
$PYRTM,2024,125.839000878241,16.948648288380
$GPGGA,200808.00,3454.3295,N,12153.5548,W,1,08,1.0,20.3,M,-33.3,M,,*69
$PYRTM,2024,125.839012425116,16.948659835266
$GPGGA,200809.00,3454.3298,N,12153.5519,W,1,08,1.0,20.2,M,-33.3,M,,*60
$PYRTM,2024,125.839024026863,16.948671437002
$GPGGA,200810.00,3454.3298,N,12153.5490,W,1,08,1.0,18.6,M,-33.3,M,,*67
$PYRTM,2024,125.839035572523,16.948682982674
$GPGGA,200811.00,3454.3298,N,12153.5462,W,1,08,1.0,18.0,M,-33.3,M,,*6D
$PYRTM,2024,125.839047174502,16.948694584641
$GPGGA,200812.00,3454.3300,N,12153.5434,W,1,08,1.0,15.3,M,-33.3,M,,*63
$PYRTM,2024,125.839059196759,16.948706606898
$GPGGA,200813.00,3454.3305,N,12153.5406,W,1,08,1.0,14.9,M,-33.3,M,,*6D
$PYRTM,2024,125.839070307720,16.948717717870
$GPGGA,200814.00,3454.3308,N,12153.5378,W,1,08,1.0,15.0,M,-33.3,M,,*61
$PYRTM,2024,125.839081868738,16.948729278877
$GPGGA,200815.00,3454.3309,N,12153.5349,W,1,08,1.0,14.8,M,-33.3,M,,*6A
$PYRTM,2024,125.839093457222,16.948740867361
$GPGGA,200816.00,3454.3310,N,12153.5319,W,1,08,1.0,17.0,M,-33.3,M,,*6F
$PYRTM,2024,125.839105017766,16.948752427905
$GPGGA,200817.00,3454.3313,N,12153.5288,W,1,08,1.0,19.5,M,-33.3,M,,*6F
$PYRTM,2024,125.839116605440,16.948764015579
$GPGGA,200818.00,3454.3318,N,12153.5257,W,1,08,1.0,18.9,M,-33.3,M,,*64
$PYRTM,2024,125.839128166979,16.948775577130
$GPGGA,200819.00,3454.3322,N,12153.5228,W,1,08,1.0,19.3,M,-33.3,M,,*6F
$PYRTM,2024,125.839139752280,16.948787162419
$GPGGA,200820.00,3454.3324,N,12153.5201,W,1,08,1.0,18.1,M,-33.3,M,,*6B
$PYRTM,2024,125.839151313924,16.948798724062
$GPGGA,200821.00,3454.3325,N,12153.5175,W,1,08,1.0,20.9,M,-33.3,M,,*68
$PYRTM,2024,125.839162904375,16.948810314514
$GPGGA,200822.00,3454.3329,N,12153.5149,W,1,08,1.0,21.4,M,-33.3,M,,*64
$PYRTM,2024,125.839174461701,16.948821871840
$GPGGA,200823.00,3454.3333,N,12153.5121,W,1,08,1.0,17.0,M,-33.3,M,,*61
$PYRTM,2024,125.839186053102,16.948833463241
$GPGGA,200824.00,3454.3335,N,12153.5094,W,1,08,1.0,17.5,M,-33.3,M,,*6A
$PYRTM,2024,125.839197611609,16.948845021748
$GPGGA,200825.00,3454.3333,N,12153.5066,W,1,08,1.0,17.5,M,-33.3,M,,*60
$PYRTM,2024,125.839209648657,16.948857058796
$GPGGA,200826.00,3454.3332,N,12153.5037,W,1,08,1.0,17.5,M,-33.3,M,,*66
$PYRTM,2024,125.839220759410,16.948868169560
$GPGGA,200827.00,3454.3335,N,12153.5006,W,1,08,1.0,16.5,M,-33.3,M,,*63
$PYRTM,2024,125.839232345498,16.948879755637
$GPGGA,200828.00,3454.3339,N,12153.4977,W,1,08,1.0,17.3,M,-33.3,M,,*69
$PYRTM,2024,125.839243907731,16.948891317870
$GPGGA,200829.00,3454.3341,N,12153.4949,W,1,08,1.0,17.2,M,-33.3,M,,*6B
$PYRTM,2024,125.839255494016,16.948902904155
$GPGGA,200830.00,3454.3341,N,12153.4920,W,1,08,1.0,19.2,M,-33.3,M,,*62
$PYRTM,2024,125.839267054803,16.948914464942
$GPGGA,200831.00,3454.3342,N,12153.4890,W,1,08,1.0,18.3,M,-33.3,M,,*6A
$PYRTM,2024,125.839278636852,16.948926046991
$GPGGA,200832.00,3454.3343,N,12153.4861,W,1,08,1.0,18.4,M,-33.3,M,,*61
$PYRTM,2024,125.839291358854,16.948938768993
$GPGGA,200833.00,3454.3345,N,12153.4834,W,1,08,1.0,17.1,M,-33.3,M,,*6C
$PYRTM,2024,125.839302832130,16.948950242269
$GPGGA,200834.00,3454.3348,N,12153.4806,W,1,08,1.0,16.5,M,-33.3,M,,*62
$PYRTM,2024,125.839314393194,16.948961803333
$GPGGA,200835.00,3454.3350,N,12153.4778,W,1,08,1.0,17.9,M,-33.3,M,,*61
