$PYRTM,2024,124.750008954063,15.859656364201
$GPGGA,175959.00,3521.4816,N,12053.8257,W,1,09,0.8,7.8,M,-31.4,M,,*5E
$PYRTM,2024,124.750019154317,15.859666564456
$GPGGA,180000.00,3521.4817,N,12053.8262,W,1,09,0.8,7.8,M,-31.4,M,,*56
$PYRTM,2024,124.750030933368,15.859678343507
$GPGGA,180001.00,3521.4817,N,12053.8267,W,1,09,0.8,7.9,M,-31.4,M,,*53
$PYRTM,2024,124.750043678368,15.859691088507
$GPGGA,180002.00,3521.4815,N,12053.8270,W,1,09,0.8,7.8,M,-31.4,M,,*55
$PYRTM,2024,124.750055250625,15.859702660764
$GPGGA,180003.00,3521.4814,N,12053.8273,W,1,09,0.8,7.5,M,-31.4,M,,*5B
$PYRTM,2024,124.750066822569,15.859714232708
$GPGGA,180004.00,3521.4813,N,12053.8278,W,1,09,0.8,7.2,M,-31.4,M,,*57
$PYRTM,2024,124.750078396620,15.859725806759
$GPGGA,180005.00,3521.4814,N,12053.8283,W,1,09,0.8,7.2,M,-31.4,M,,*55
$PYRTM,2024,124.750089968218,15.859737378356
$GPGGA,180006.00,3521.4815,N,12053.8288,W,1,09,0.8,7.4,M,-31.4,M,,*5A
$PYRTM,2024,124.750101547280,15.859748957419
$GPGGA,180007.00,3521.4814,N,12053.8291,W,1,09,0.8,7.8,M,-31.4,M,,*5E
$PYRTM,2024,124.750113122269,15.859760532407
$GPGGA,180008.00,3521.4813,N,12053.8294,W,1,09,0.8,7.4,M,-31.4,M,,*5F
$PYRTM,2024,124.750124710972,15.859772121111
$GPGGA,180009.00,3521.4811,N,12053.8298,W,1,09,0.8,7.4,M,-31.4,M,,*50
$PYRTM,2024,124.750136269479,15.859783679618
$GPGGA,180010.00,3521.4812,N,12053.8303,W,1,09,0.8,7.8,M,-31.4,M,,*54
$PYRTM,2024,124.750147846852,15.859795256991
$GPGGA,180011.00,3521.4813,N,12053.8308,W,1,09,0.8,7.6,M,-31.4,M,,*51
$PYRTM,2024,124.750159413299,15.859806823438
$GPGGA,180012.00,3521.4812,N,12053.8312,W,1,09,0.8,8.0,M,-31.4,M,,*51
$PYRTM,2024,124.750170994907,15.859818405046
$GPGGA,180013.00,3521.4810,N,12053.8315,W,1,09,0.8,7.7,M,-31.4,M,,*5D
$PYRTM,2024,124.750182567350,15.859829977488
$GPGGA,180014.00,3521.4809,N,12053.8319,W,1,09,0.8,7.2,M,-31.4,M,,*5B
$PYRTM,2024,124.750194140509,15.859841550648
$GPGGA,180015.00,3521.4808,N,12053.8323,W,1,09,0.8,7.2,M,-31.4,M,,*52
$PYRTM,2024,124.750205714630,15.859853124780
$GPGGA,180016.00,3521.4810,N,12053.8328,W,1,09,0.8,7.5,M,-31.4,M,,*54
$PYRTM,2024,124.750217288704,15.859864698843
$GPGGA,180017.00,3521.4811,N,12053.8333,W,1,09,0.8,7.1,M,-31.4,M,,*5A
$PYRTM,2024,124.750228860544,15.859876270683
$GPGGA,180018.00,3521.4810,N,12053.8336,W,1,09,0.8,7.0,M,-31.4,M,,*50
$PYRTM,2024,124.750240436910,15.859887847176
$GPGGA,180019.00,3521.4807,N,12053.8340,W,1,09,0.8,7.2,M,-31.4,M,,*54
$PYRTM,2024,124.750252011829,15.859899421968
$GPGGA,180020.00,3521.4806,N,12053.8344,W,1,09,0.8,7.6,M,-31.4,M,,*5F
$PYRTM,2024,124.750263586817,15.859910996956
$GPGGA,180021.00,3521.4808,N,12053.8349,W,1,09,0.8,7.9,M,-31.4,M,,*52
$PYRTM,2024,124.750275154688,15.859922564826
$GPGGA,180022.00,3521.4810,N,12053.8354,W,1,09,0.8,7.6,M,-31.4,M,,*5B
$PYRTM,2024,124.750286734213,15.859934144352
$GPGGA,180023.00,3521.4810,N,12053.8358,W,1,09,0.8,7.5,M,-31.4,M,,*55
$PYRTM,2024,124.750298310000,15.859945720139
$GPGGA,180024.00,3521.4807,N,12053.8360,W,1,09,0.8,7.4,M,-31.4,M,,*5E
$PYRTM,2024,124.750309897014,15.859957307153
$GPGGA,180025.00,3521.4805,N,12053.8363,W,1,09,0.8,7.5,M,-31.4,M,,*5F
$PYRTM,2024,124.750321456725,15.859968866863
$GPGGA,180026.00,3521.4805,N,12053.8367,W,1,09,0.8,8.1,M,-31.4,M,,*53
$PYRTM,2024,124.750333033611,15.859980443750
$GPGGA,180027.00,3521.4807,N,12053.8373,W,1,09,0.8,7.7,M,-31.4,M,,*5C
$PYRTM,2024,124.750344605127,15.859992015266
$GPGGA,180028.00,3521.4808,N,12053.8378,W,1,09,0.8,7.4,M,-31.4,M,,*54
$PYRTM,2024,124.750356178947,15.860003589086
$GPGGA,180029.00,3521.4806,N,12053.8381,W,1,09,0.8,8.0,M,-31.4,M,,*56
$PYRTM,2024,124.750366364826,15.860013774965
$GPGGA,180030.00,3521.4804,N,12053.8384,W,1,09,0.8,8.1,M,-31.4,M,,*58
$PYRTM,2024,124.750378157002,15.860025567153
$GPGGA,180031.00,3521.4803,N,12053.8388,W,1,09,0.8,8.1,M,-31.4,M,,*52
$PYRTM,2024,124.750390895637,15.860038305764
$GPGGA,180032.00,3521.4805,N,12053.8394,W,1,09,0.8,8.1,M,-31.4,M,,*5A
$PYRTM,2024,124.750402475428,15.860049885567
$GPGGA,180033.00,3521.4805,N,12053.8398,W,1,09,0.8,8.4,M,-31.4,M,,*52
$PYRTM,2024,124.750414050382,15.860061460532
$GPGGA,180034.00,3521.4805,N,12053.8403,W,1,09,0.8,8.4,M,-31.4,M,,*50
$PYRTM,2024,124.750424697558,15.860072107697
$GPGGA,180035.00,3521.4803,N,12053.8406,W,1,09,0.8,8.2,M,-31.4,M,,*54
$PYRTM,2024,124.750436603738,15.860084013877
$GPGGA,180036.00,3521.4801,N,12053.8410,W,1,09,0.8,8.3,M,-31.4,M,,*53
$PYRTM,2024,124.750445414491,15.860092824630
$GPGGA,180037.00,3521.4801,N,12053.8415,W,1,09,0.8,8.2,M,-31.4,M,,*56
$PYRTM,2024,124.750463123738,15.860110533889
$GPGGA,180038.00,3521.4802,N,12053.8419,W,1,09,0.8,7.9,M,-31.4,M,,*52
$PYRTM,2024,124.750474221516,15.860121631667
$GPGGA,180039.00,3521.4801,N,12053.8423,W,1,09,0.8,7.6,M,-31.4,M,,*56
$PYRTM,2024,124.750485345880,15.860132756019
$GPGGA,180040.00,3521.4799,N,12053.8427,W,1,09,0.8,7.5,M,-31.4,M,,*51
$PYRTM,2024,124.750496443391,15.860143853530
$GPGGA,180041.00,3521.4798,N,12053.8430,W,1,09,0.8,7.3,M,-31.4,M,,*51
$PYRTM,2024,124.750507556042,15.860154966181
$GPGGA,180042.00,3521.4797,N,12053.8434,W,1,09,0.8,7.5,M,-31.4,M,,*5F
$PYRTM,2024,124.750519145579,15.860166555718
$GPGGA,180043.00,3521.4798,N,12053.8438,W,1,09,0.8,7.5,M,-31.4,M,,*5D
$PYRTM,2024,124.750530254711,15.860177664861
$GPGGA,180044.00,3521.4799,N,12053.8442,W,1,09,0.8,7.7,M,-31.4,M,,*54
$PYRTM,2024,124.750541364884,15.860188775023
$GPGGA,180045.00,3521.4797,N,12053.8446,W,1,09,0.8,7.9,M,-31.4,M,,*51
$PYRTM,2024,124.750559305590,15.860206715729
$GPGGA,180046.00,3521.4796,N,12053.8449,W,1,09,0.8,8.0,M,-31.4,M,,*5A
$PYRTM,2024,124.750570413472,15.860217823611
$GPGGA,180047.00,3521.4795,N,12053.8452,W,1,09,0.8,8.0,M,-31.4,M,,*52
$PYRTM,2024,124.750581528148,15.860228938299
$GPGGA,180048.00,3521.4796,N,12053.8457,W,1,09,0.8,8.1,M,-31.4,M,,*5A
$PYRTM,2024,124.750592637650,15.860240047789
$GPGGA,180049.00,3521.4796,N,12053.8461,W,1,09,0.8,8.0,M,-31.4,M,,*5F
$PYRTM,2024,124.750603748738,15.860251158877
$GPGGA,180050.00,3521.4796,N,12053.8463,W,1,09,0.8,8.0,M,-31.4,M,,*55
$PYRTM,2024,124.750614744375,15.860262154514
$GPGGA,180051.00,3521.4795,N,12053.8465,W,1,09,0.8,8.1,M,-31.4,M,,*50
$PYRTM,2024,124.750625858785,15.860273268924
$GPGGA,180052.00,3521.4794,N,12053.8469,W,1,09,0.8,8.2,M,-31.4,M,,*5D
$PYRTM,2024,124.750636969942,15.860284380081
$GPGGA,180053.00,3521.4793,N,12053.8474,W,1,09,0.8,8.2,M,-31.4,M,,*57
$PYRTM,2024,124.750648063970,15.860295474109
$GPGGA,180054.00,3521.4793,N,12053.8479,W,1,09,0.8,8.2,M,-31.4,M,,*5D
$PYRTM,2024,124.750659177141,15.860306587280
$GPGGA,180055.00,3521.4793,N,12053.8482,W,1,09,0.8,8.2,M,-31.4,M,,*58
$PYRTM,2024,124.750670300243,15.860317710382
$GPGGA,180056.00,3521.4792,N,12053.8484,W,1,09,0.8,8.2,M,-31.4,M,,*5C
$PYRTM,2024,124.750681297836,15.860328707975
$GPGGA,180057.00,3521.4792,N,12053.8488,W,1,09,0.8,8.2,M,-31.4,M,,*51
$PYRTM,2024,124.750692407708,15.860339817847
$GPGGA,180058.00,3521.4791,N,12053.8492,W,1,09,0.8,8.2,M,-31.4,M,,*56
$PYRTM,2024,124.750703521019,15.860350931157
$GPGGA,180059.00,3521.4790,N,12053.8496,W,1,09,0.8,8.3,M,-31.4,M,,*53
$PYRTM,2024,124.750714976424,15.860362386562
$GPGGA,180100.00,3521.4789,N,12053.8499,W,1,09,0.8,8.3,M,-31.4,M,,*59
$PYRTM,2024,124.750726552130,15.860373962269
$GPGGA,180101.00,3521.4789,N,12053.8503,W,1,09,0.8,8.2,M,-31.4,M,,*5B
$PYRTM,2024,124.750738125093,15.860385535231
$GPGGA,180102.00,3521.4789,N,12053.8507,W,1,09,0.8,8.3,M,-31.4,M,,*5D
$PYRTM,2024,124.750749694769,15.860397104907
$GPGGA,180103.00,3521.4788,N,12053.8510,W,1,09,0.8,8.4,M,-31.4,M,,*5C
$PYRTM,2024,124.750761269155,15.860408679294
$GPGGA,180104.00,3521.4787,N,12053.8514,W,1,09,0.8,8.3,M,-31.4,M,,*57
$PYRTM,2024,124.750772847940,15.860420258079
$GPGGA,180105.00,3521.4786,N,12053.8517,W,1,09,0.8,8.4,M,-31.4,M,,*53
$PYRTM,2024,124.750784418669,15.860431828808
$GPGGA,180106.00,3521.4785,N,12053.8521,W,1,09,0.8,8.4,M,-31.4,M,,*56
$PYRTM,2024,124.750795996458,15.860443406597
$GPGGA,180107.00,3521.4785,N,12053.8524,W,1,09,0.8,8.4,M,-31.4,M,,*52
$PYRTM,2024,124.750807571771,15.860454981921
$GPGGA,180108.00,3521.4785,N,12053.8528,W,1,09,0.8,8.5,M,-31.4,M,,*50
$PYRTM,2024,124.750819144850,15.860466554988
$GPGGA,180109.00,3521.4785,N,12053.8532,W,1,09,0.8,8.7,M,-31.4,M,,*58
$PYRTM,2024,124.750830715718,15.860478125856
$GPGGA,180110.00,3521.4784,N,12053.8535,W,1,09,0.8,8.7,M,-31.4,M,,*56
$PYRTM,2024,124.750842306505,15.860489716644
$GPGGA,180111.00,3521.4783,N,12053.8537,W,1,09,0.8,8.7,M,-31.4,M,,*52
$PYRTM,2024,124.750853868171,15.860501278310
$GPGGA,180112.00,3521.4783,N,12053.8540,W,1,09,0.8,8.7,M,-31.4,M,,*51
$PYRTM,2024,124.750865425255,15.860512835394
$GPGGA,180113.00,3521.4783,N,12053.8545,W,1,09,0.8,8.7,M,-31.4,M,,*55
$PYRTM,2024,124.750877015567,15.860524425706
$GPGGA,180114.00,3521.4782,N,12053.8549,W,1,09,0.8,8.7,M,-31.4,M,,*5F
$PYRTM,2024,124.750888574063,15.860535984201
$GPGGA,180115.00,3521.4781,N,12053.8552,W,1,09,0.8,8.8,M,-31.4,M,,*58
$PYRTM,2024,124.750900163171,15.860547573322
$GPGGA,180116.00,3521.4780,N,12053.8556,W,1,09,0.8,8.7,M,-31.4,M,,*51
$PYRTM,2024,124.750911722442,15.860559132581
$GPGGA,180117.00,3521.4780,N,12053.8559,W,1,09,0.8,8.8,M,-31.4,M,,*50
$PYRTM,2024,124.750923311123,15.860570721262
$GPGGA,180118.00,3521.4781,N,12053.8562,W,1,09,0.8,8.8,M,-31.4,M,,*56
$PYRTM,2024,124.750934870949,15.860582281088
$GPGGA,180119.00,3521.4780,N,12053.8566,W,1,09,0.8,8.9,M,-31.4,M,,*53
$PYRTM,2024,124.750946456979,15.860593867118
$GPGGA,180120.00,3521.4778,N,12053.8570,W,1,09,0.8,8.9,M,-31.4,M,,*59
$PYRTM,2024,124.750958019120,15.860605429259
$GPGGA,180121.00,3521.4776,N,12053.8572,W,1,09,0.8,8.8,M,-31.4,M,,*55
$PYRTM,2024,124.750969607836,15.860617017986
$GPGGA,180122.00,3521.4775,N,12053.8575,W,1,09,0.8,8.8,M,-31.4,M,,*52
$PYRTM,2024,124.750981167454,15.860628577593
$GPGGA,180123.00,3521.4776,N,12053.8579,W,1,09,0.8,8.8,M,-31.4,M,,*5C
$PYRTM,2024,124.750992756771,15.860640166910
$GPGGA,180124.00,3521.4777,N,12053.8583,W,1,10,0.8,8.9,M,-31.4,M,,*56
$PYRTM,2024,124.751004316354,15.860651726493
$GPGGA,180125.00,3521.4776,N,12053.8586,W,1,10,0.8,9.0,M,-31.4,M,,*5B
$PYRTM,2024,124.751015899306,15.860663309456
$GPGGA,180126.00,3521.4774,N,12053.8588,W,1,10,0.8,9.1,M,-31.4,M,,*55
$PYRTM,2024,124.751027465289,15.860674875428
$GPGGA,180127.00,3521.4773,N,12053.8590,W,1,10,0.8,9.2,M,-31.4,M,,*59
$PYRTM,2024,124.751039052245,15.860686462384
$GPGGA,180128.00,3521.4774,N,12053.8594,W,1,10,0.8,9.3,M,-31.4,M,,*54
$PYRTM,2024,124.751050613530,15.860698023681
$GPGGA,180129.00,3521.4773,N,12053.8597,W,1,10,0.8,9.3,M,-31.4,M,,*51
$PYRTM,2024,124.751060797650,15.860708207789
$GPGGA,180130.00,3521.4772,N,12053.8600,W,1,10,0.8,9.3,M,-31.4,M,,*55
$PYRTM,2024,124.751072604213,15.860720014352
$GPGGA,180131.00,3521.4771,N,12053.8602,W,1,10,0.8,9.3,M,-31.4,M,,*55
$PYRTM,2024,124.751085348970,15.860732759109
$GPGGA,180132.00,3521.4771,N,12053.8605,W,1,10,0.8,9.5,M,-31.4,M,,*57
$PYRTM,2024,124.751096908970,15.860744319109
$GPGGA,180133.00,3521.4771,N,12053.8608,W,1,10,0.8,9.4,M,-31.4,M,,*5A
$PYRTM,2024,124.751108497558,15.860755907708
$GPGGA,180134.00,3521.4770,N,12053.8611,W,1,10,0.8,9.3,M,-31.4,M,,*53
$PYRTM,2024,124.751120058519,15.860767468657
$GPGGA,180135.00,3521.4770,N,12053.8614,W,1,10,0.8,9.3,M,-31.4,M,,*57
$PYRTM,2024,124.751131646887,15.860779057025
$GPGGA,180136.00,3521.4771,N,12053.8618,W,1,10,0.8,9.3,M,-31.4,M,,*59
$PYRTM,2024,124.751143205336,15.860790615475
$GPGGA,180137.00,3521.4770,N,12053.8622,W,1,10,0.8,9.3,M,-31.4,M,,*50
$PYRTM,2024,124.751154796007,15.860802206146
$GPGGA,180138.00,3521.4769,N,12053.8625,W,1,10,0.8,9.4,M,-31.4,M,,*57
$PYRTM,2024,124.751166354282,15.860813764421
$GPGGA,180139.00,3521.4768,N,12053.8627,W,1,10,0.8,9.3,M,-31.4,M,,*52
$PYRTM,2024,124.751177937292,15.860825347431
$GPGGA,180140.00,3521.4768,N,12053.8629,W,1,10,0.8,9.3,M,-31.4,M,,*52
$PYRTM,2024,124.751189502095,15.860836912245
$GPGGA,180141.00,3521.4768,N,12053.8633,W,1,10,0.8,9.3,M,-31.4,M,,*58
$PYRTM,2024,124.751201092014,15.860848502153
$GPGGA,180142.00,3521.4769,N,12053.8637,W,1,10,0.8,9.3,M,-31.4,M,,*5E
$PYRTM,2024,124.751212651134,15.860860061273
$GPGGA,180143.00,3521.4769,N,12053.8640,W,1,10,0.8,9.4,M,-31.4,M,,*58
$PYRTM,2024,124.751224238634,15.860871648773
$GPGGA,180144.00,3521.4767,N,12053.8643,W,1,10,0.8,9.4,M,-31.4,M,,*52
$PYRTM,2024,124.751235800521,15.860883210660
$GPGGA,180145.00,3521.4766,N,12053.8645,W,1,10,0.8,9.4,M,-31.4,M,,*54
$PYRTM,2024,124.751247388264,15.860894798403
$GPGGA,180146.00,3521.4766,N,12053.8649,W,1,10,0.8,9.4,M,-31.4,M,,*5B
$PYRTM,2024,124.751258947697,15.860906357836
$GPGGA,180147.00,3521.4767,N,12053.8652,W,1,10,0.8,9.4,M,-31.4,M,,*51
$PYRTM,2024,124.751270535625,15.860917945764
$GPGGA,180148.00,3521.4767,N,12053.8655,W,1,10,0.8,9.4,M,-31.4,M,,*59
$PYRTM,2024,124.751282096331,15.860929506470
$GPGGA,180149.00,3521.4766,N,12053.8658,W,1,10,0.8,9.4,M,-31.4,M,,*54
$PYRTM,2024,124.751293682384,15.860941092523
$GPGGA,180150.00,3521.4765,N,12053.8662,W,1,10,0.8,9.5,M,-31.4,M,,*57
$PYRTM,2024,124.751305242616,15.860952652755
$GPGGA,180151.00,3521.4764,N,12053.8665,W,1,10,0.8,9.5,M,-31.4,M,,*50
$PYRTM,2024,124.751316826933,15.860964237072
$GPGGA,180152.00,3521.4764,N,12053.8669,W,1,10,0.8,9.5,M,-31.4,M,,*5F
$PYRTM,2024,124.751328392049,15.860975802187
$GPGGA,180153.00,3521.4763,N,12053.8672,W,1,10,0.8,9.5,M,-31.4,M,,*53
$PYRTM,2024,124.751339981065,15.860987391215
$GPGGA,180154.00,3521.4763,N,12053.8675,W,1,10,0.8,9.5,M,-31.4,M,,*53
$PYRTM,2024,124.751351538553,15.860998948692
$GPGGA,180155.00,3521.4763,N,12053.8677,W,1,10,0.8,9.5,M,-31.4,M,,*50
$PYRTM,2024,124.751363128322,15.861010538461
$GPGGA,180156.00,3521.4763,N,12053.8680,W,1,10,0.8,9.5,M,-31.4,M,,*5B
$PYRTM,2024,124.751374687905,15.861022098056
$GPGGA,180157.00,3521.4763,N,12053.8684,W,1,10,0.8,9.5,M,-31.4,M,,*5E
$PYRTM,2024,124.751386276551,15.861033686690
$GPGGA,180158.00,3521.4761,N,12053.8688,W,1,10,0.8,9.5,M,-31.4,M,,*5F
$PYRTM,2024,124.751397837650,15.861045247789
$GPGGA,180159.00,3521.4760,N,12053.8691,W,1,10,0.8,9.5,M,-31.4,M,,*57
$PYRTM,2024,124.751408493796,15.861055903947
$GPGGA,180200.00,3521.4759,N,12053.8694,W,1,10,0.8,9.4,M,-31.4,M,,*56
$PYRTM,2024,124.751419829444,15.861067239583
$GPGGA,180201.00,3521.4759,N,12053.8697,W,1,10,0.8,9.4,M,-31.4,M,,*54
$PYRTM,2024,124.751432572708,15.861079982859
$GPGGA,180202.00,3521.4760,N,12053.8700,W,1,10,0.8,9.4,M,-31.4,M,,*52
$PYRTM,2024,124.751444133113,15.861091543252
$GPGGA,180203.00,3521.4761,N,12053.8701,W,1,10,0.8,9.4,M,-31.4,M,,*53
$PYRTM,2024,124.751455722870,15.861103133009
$GPGGA,180204.00,3521.4760,N,12053.8702,W,1,10,0.8,9.3,M,-31.4,M,,*51
$PYRTM,2024,124.751467282257,15.861114692396
$GPGGA,180205.00,3521.4757,N,12053.8703,W,1,10,0.8,9.4,M,-31.4,M,,*52
$PYRTM,2024,124.751478869780,15.861126279919
$GPGGA,180206.00,3521.4756,N,12053.8704,W,1,10,0.8,9.3,M,-31.4,M,,*50
$PYRTM,2024,124.751490431563,15.861137841701
$GPGGA,180207.00,3521.4756,N,12053.8705,W,1,10,0.8,9.4,M,-31.4,M,,*57
$PYRTM,2024,124.751502006007,15.861149416146
$GPGGA,180208.00,3521.4757,N,12053.8708,W,1,10,0.8,9.3,M,-31.4,M,,*53
$PYRTM,2024,124.751513579132,15.861160989271
$GPGGA,180209.00,3521.4756,N,12053.8711,W,1,10,0.8,9.4,M,-31.4,M,,*5C
$PYRTM,2024,124.751525161782,15.861172571921
$GPGGA,180210.00,3521.4754,N,12053.8714,W,1,10,0.8,9.4,M,-31.4,M,,*53
$PYRTM,2024,124.751536726412,15.861184136551
$GPGGA,180211.00,3521.4752,N,12053.8718,W,1,10,0.8,9.4,M,-31.4,M,,*58
$PYRTM,2024,124.751548302014,15.861195712153
$GPGGA,180212.00,3521.4751,N,12053.8721,W,1,10,0.8,9.5,M,-31.4,M,,*53
$PYRTM,2024,124.751559875463,15.861207285602
$GPGGA,180213.00,3521.4752,N,12053.8725,W,1,10,0.8,9.5,M,-31.4,M,,*55
$PYRTM,2024,124.751571462338,15.861218872477
$GPGGA,180214.00,3521.4752,N,12053.8728,W,1,10,0.8,9.5,M,-31.4,M,,*5F
$PYRTM,2024,124.751583023368,15.861230433507
$GPGGA,180215.00,3521.4751,N,12053.8732,W,1,10,0.8,9.5,M,-31.4,M,,*56
$PYRTM,2024,124.751594598866,15.861242009005
$GPGGA,180216.00,3521.4749,N,12053.8734,W,1,10,0.8,9.6,M,-31.4,M,,*59
$PYRTM,2024,124.751606171053,15.861253581192
$GPGGA,180217.00,3521.4747,N,12053.8736,W,1,10,0.8,9.6,M,-31.4,M,,*54
$PYRTM,2024,124.751617759803,15.861265169954
$GPGGA,180218.00,3521.4748,N,12053.8738,W,1,10,0.8,9.6,M,-31.4,M,,*5A
$PYRTM,2024,124.751629320972,15.861276731111
$GPGGA,180219.00,3521.4749,N,12053.8741,W,1,10,0.8,9.7,M,-31.4,M,,*55
$PYRTM,2024,124.751640896944,15.861288307083
$GPGGA,180220.00,3521.4750,N,12053.8745,W,1,10,0.8,9.7,M,-31.4,M,,*53
$PYRTM,2024,124.751652467847,15.861299877986
$GPGGA,180221.00,3521.4749,N,12053.8748,W,1,10,0.8,9.6,M,-31.4,M,,*56
$PYRTM,2024,124.751664052153,15.861311462303
$GPGGA,180222.00,3521.4747,N,12053.8750,W,1,10,0.8,9.7,M,-31.4,M,,*53
$PYRTM,2024,124.751675617512,15.861323027650
$GPGGA,180223.00,3521.4746,N,12053.8753,W,1,10,0.8,9.6,M,-31.4,M,,*51
$PYRTM,2024,124.751687192025,15.861334602164
$GPGGA,180224.00,3521.4746,N,12053.8756,W,1,10,0.8,9.7,M,-31.4,M,,*52
$PYRTM,2024,124.751698764271,15.861346174410
$GPGGA,180225.00,3521.4747,N,12053.8761,W,1,10,0.8,9.7,M,-31.4,M,,*56
$PYRTM,2024,124.751710340405,15.861357750544
$GPGGA,180226.00,3521.4746,N,12053.8764,W,1,10,0.8,9.7,M,-31.4,M,,*51
$PYRTM,2024,124.751721913287,15.861369323426
$GPGGA,180227.00,3521.4744,N,12053.8766,W,1,09,0.8,9.7,M,-31.4,M,,*58
$PYRTM,2024,124.751733501771,15.861380911910
$GPGGA,180228.00,3521.4743,N,12053.8769,W,1,10,0.8,9.7,M,-31.4,M,,*57
$PYRTM,2024,124.751745060891,15.861392471030
$GPGGA,180229.00,3521.4742,N,12053.8773,W,1,10,0.8,9.7,M,-31.4,M,,*5C
$PYRTM,2024,124.751755246400,15.861402656551
$GPGGA,180230.00,3521.4743,N,12053.8777,W,1,10,0.8,9.6,M,-31.4,M,,*50
$PYRTM,2024,124.751767053449,15.861414463588
$GPGGA,180231.00,3521.4744,N,12053.8781,W,1,10,0.8,9.6,M,-31.4,M,,*5F
$PYRTM,2024,124.751779797894,15.861427208044
$GPGGA,180232.00,3521.4742,N,12053.8785,W,1,10,0.8,9.6,M,-31.4,M,,*5E
$PYRTM,2024,124.751791358032,15.861438768171
$GPGGA,180233.00,3521.4741,N,12053.8788,W,1,10,0.8,9.7,M,-31.4,M,,*50
$PYRTM,2024,124.751802945486,15.861450355625
$GPGGA,180234.00,3521.4739,N,12053.8790,W,1,10,0.8,9.7,M,-31.4,M,,*51
$PYRTM,2024,124.751814505463,15.861461915602
$GPGGA,180235.00,3521.4740,N,12053.8793,W,1,10,0.8,9.7,M,-31.4,M,,*5D
$PYRTM,2024,124.751826094444,15.861473504583
$GPGGA,180236.00,3521.4741,N,12053.8796,W,1,10,0.8,9.6,M,-31.4,M,,*5B
$PYRTM,2024,124.751837653704,15.861485063843
$GPGGA,180237.00,3521.4740,N,12053.8800,W,1,10,0.8,9.7,M,-31.4,M,,*5A
$PYRTM,2024,124.751849243437,15.861496653576
$GPGGA,180238.00,3521.4737,N,12053.8802,W,1,10,0.8,9.7,M,-31.4,M,,*57
$PYRTM,2024,124.751860803449,15.861508213588
$GPGGA,180239.00,3521.4734,N,12053.8805,W,1,10,0.8,9.8,M,-31.4,M,,*5D
$PYRTM,2024,124.751871464306,15.861518874444
$GPGGA,180240.00,3521.4734,N,12053.8806,W,1,10,0.8,9.8,M,-31.4,M,,*50
$PYRTM,2024,124.751883385914,15.861530796053
$GPGGA,180241.00,3521.4734,N,12053.8809,W,1,10,0.8,9.8,M,-31.4,M,,*5E
$PYRTM,2024,124.751894021435,15.861541431574
$GPGGA,180242.00,3521.4736,N,12053.8811,W,1,10,0.8,9.8,M,-31.4,M,,*56
$PYRTM,2024,124.751905603738,15.861553013877
$GPGGA,180243.00,3521.4734,N,12053.8813,W,1,10,0.8,9.8,M,-31.4,M,,*57
$PYRTM,2024,124.751916720706,15.861564130845
$GPGGA,180244.00,3521.4731,N,12053.8816,W,1,10,0.8,9.8,M,-31.4,M,,*50
$PYRTM,2024,124.751927717755,15.861575127894
$GPGGA,180245.00,3521.4730,N,12053.8819,W,1,10,0.8,9.9,M,-31.4,M,,*5E
$PYRTM,2024,124.751938826100,15.861586236238
$GPGGA,180246.00,3521.4732,N,12053.8823,W,1,10,0.8,9.9,M,-31.4,M,,*56
$PYRTM,2024,124.751949953113,15.861597363252
$GPGGA,180247.00,3521.4734,N,12053.8826,W,1,10,0.8,9.8,M,-31.4,M,,*55
$PYRTM,2024,124.751961048148,15.861608458287
$GPGGA,180248.00,3521.4734,N,12053.8828,W,1,10,0.8,9.9,M,-31.4,M,,*55
$PYRTM,2024,124.751972154375,15.861619564514
$GPGGA,180249.00,3521.4732,N,12053.8831,W,1,10,0.8,9.9,M,-31.4,M,,*5A
$PYRTM,2024,124.751983619132,15.861631029271
$GPGGA,180250.00,3521.4730,N,12053.8834,W,1,10,0.8,9.9,M,-31.4,M,,*55
$PYRTM,2024,124.752001313727,15.861648723866
$GPGGA,180251.00,3521.4729,N,12053.8837,W,1,10,0.8,9.9,M,-31.4,M,,*5F
$PYRTM,2024,124.752012426285,15.861659836435
$GPGGA,180252.00,3521.4731,N,12053.8841,W,1,10,0.8,10.0,M,-31.4,M,,*65
$PYRTM,2024,124.752023539167,15.861670949306
$GPGGA,180253.00,3521.4732,N,12053.8845,W,1,10,0.8,10.0,M,-31.4,M,,*63
$PYRTM,2024,124.752034763241,15.861682173391
$GPGGA,180254.00,3521.4732,N,12053.8849,W,1,10,0.8,10.0,M,-31.4,M,,*68
$PYRTM,2024,124.752045874572,15.861693284722
$GPGGA,180255.00,3521.4729,N,12053.8851,W,1,10,0.8,10.0,M,-31.4,M,,*6A
$PYRTM,2024,124.752056984931,15.861704395069
$GPGGA,180256.00,3521.4727,N,12053.8853,W,1,10,0.8,10.0,M,-31.4,M,,*65
$PYRTM,2024,124.752068098148,15.861715508299
$GPGGA,180257.00,3521.4727,N,12053.8857,W,1,10,0.8,10.0,M,-31.4,M,,*60
$PYRTM,2024,124.752079208831,15.861726618970
$GPGGA,180258.00,3521.4730,N,12053.8862,W,1,10,0.8,10.1,M,-31.4,M,,*6E
$PYRTM,2024,124.752090318762,15.861737728912
$GPGGA,180259.00,3521.4731,N,12053.8867,W,1,10,0.8,10.0,M,-31.4,M,,*6A
$PYRTM,2024,124.752105943565,15.861753353704
$GPGGA,180300.00,3521.4729,N,12053.8870,W,1,10,0.8,10.0,M,-31.4,M,,*68
$PYRTM,2024,124.752117054711,15.861764464850
$GPGGA,180301.00,3521.4726,N,12053.8871,W,1,10,0.8,9.9,M,-31.4,M,,*56
$PYRTM,2024,124.752128167558,15.861775577697
$GPGGA,180302.00,3521.4723,N,12053.8874,W,1,10,0.8,9.9,M,-31.4,M,,*55
$PYRTM,2024,124.752139278148,15.861786688287
$GPGGA,180303.00,3521.4723,N,12053.8877,W,1,10,0.8,9.9,M,-31.4,M,,*57
$PYRTM,2024,124.752150388067,15.861797798206
$GPGGA,180304.00,3521.4725,N,12053.8880,W,1,10,0.8,10.0,M,-31.4,M,,*6F
$PYRTM,2024,124.752161729236,15.861809139375
$GPGGA,180305.00,3521.4726,N,12053.8884,W,1,10,0.8,10.0,M,-31.4,M,,*69
$PYRTM,2024,124.752173314444,15.861820724583
$GPGGA,180306.00,3521.4725,N,12053.8888,W,1,10,0.8,10.0,M,-31.4,M,,*65
$PYRTM,2024,124.752184878565,15.861832288704
$GPGGA,180307.00,3521.4722,N,12053.8891,W,1,10,0.8,10.0,M,-31.4,M,,*6B
$PYRTM,2024,124.752196453900,15.861843864039
$GPGGA,180308.00,3521.4720,N,12053.8894,W,1,10,0.8,10.0,M,-31.4,M,,*63
$PYRTM,2024,124.752208025833,15.861855435972
$GPGGA,180309.00,3521.4721,N,12053.8898,W,1,10,0.8,10.0,M,-31.4,M,,*6F
$PYRTM,2024,124.752219615613,15.861867025752
$GPGGA,180310.00,3521.4723,N,12053.8903,W,1,10,0.8,10.1,M,-31.4,M,,*67
$PYRTM,2024,124.752231175139,15.861878585278
$GPGGA,180311.00,3521.4724,N,12053.8906,W,1,10,0.8,10.0,M,-31.4,M,,*65
$PYRTM,2024,124.752242766377,15.861890176516
$GPGGA,180312.00,3521.4723,N,12053.8907,W,1,10,0.8,10.0,M,-31.4,M,,*60
$PYRTM,2024,124.752254324051,15.861901734190
$GPGGA,180313.00,3521.4720,N,12053.8910,W,1,10,0.8,10.0,M,-31.4,M,,*64
$PYRTM,2024,124.752265899687,15.861913309826
$GPGGA,180314.00,3521.4719,N,12053.8913,W,1,10,0.8,10.0,M,-31.4,M,,*6A
$PYRTM,2024,124.752277473611,15.861924883750
$GPGGA,180315.00,3521.4718,N,12053.8917,W,1,10,0.8,10.0,M,-31.4,M,,*6E
$PYRTM,2024,124.752289060139,15.861936470278
$GPGGA,180316.00,3521.4720,N,12053.8920,W,1,10,0.8,10.0,M,-31.4,M,,*62
$PYRTM,2024,124.752300620799,15.861948030949
$GPGGA,180317.00,3521.4720,N,12053.8924,W,1,10,0.8,9.9,M,-31.4,M,,*56
$PYRTM,2024,124.752312207917,15.861959618056
$GPGGA,180318.00,3521.4719,N,12053.8927,W,1,10,0.8,9.9,M,-31.4,M,,*50
$PYRTM,2024,124.752323769306,15.861971179444
$GPGGA,180319.00,3521.4717,N,12053.8929,W,1,10,0.8,10.0,M,-31.4,M,,*60
$PYRTM,2024,124.752335344375,15.861982754514
$GPGGA,180320.00,3521.4716,N,12053.8933,W,1,10,0.8,9.9,M,-31.4,M,,*51
$PYRTM,2024,124.752346918056,15.861994328194
$GPGGA,180321.00,3521.4716,N,12053.8936,W,1,10,0.8,9.9,M,-31.4,M,,*55
$PYRTM,2024,124.752358507303,15.862005917442
$GPGGA,180322.00,3521.4716,N,12053.8939,W,1,10,0.8,9.9,M,-31.4,M,,*59
$PYRTM,2024,124.752370067442,15.862017477581
$GPGGA,180323.00,3521.4716,N,12053.8943,W,1,10,0.8,9.9,M,-31.4,M,,*55
$PYRTM,2024,124.752381652222,15.862029062361
$GPGGA,180324.00,3521.4716,N,12053.8946,W,1,10,0.8,9.9,M,-31.4,M,,*57
$PYRTM,2024,124.752393214954,15.862040625093
$GPGGA,180325.00,3521.4715,N,12053.8950,W,1,10,0.8,9.9,M,-31.4,M,,*52
$PYRTM,2024,124.752404803970,15.862052214109
$GPGGA,180326.00,3521.4715,N,12053.8953,W,1,10,0.8,9.9,M,-31.4,M,,*52
$PYRTM,2024,124.752416362361,15.862063772512
$GPGGA,180327.00,3521.4714,N,12053.8956,W,1,10,0.8,10.0,M,-31.4,M,,*66
$PYRTM,2024,124.752427951551,15.862075361690
$GPGGA,180328.00,3521.4713,N,12053.8959,W,1,10,0.8,10.0,M,-31.4,M,,*61
$PYRTM,2024,124.752439511227,15.862086921366
$GPGGA,180329.00,3521.4713,N,12053.8963,W,1,10,0.8,10.0,M,-31.4,M,,*69
$PYRTM,2024,124.752449696551,15.862097106690
$GPGGA,180330.00,3521.4714,N,12053.8968,W,1,10,0.8,10.1,M,-31.4,M,,*6C
$PYRTM,2024,124.752461513738,15.862108923877
$GPGGA,180331.00,3521.4714,N,12053.8972,W,1,10,0.8,10.1,M,-31.4,M,,*66
$PYRTM,2024,124.752474243148,15.862121653299
$GPGGA,180332.00,3521.4713,N,12053.8975,W,1,10,0.8,10.1,M,-31.4,M,,*65
$PYRTM,2024,124.752485808866,15.862133219005
$GPGGA,180333.00,3521.4712,N,12053.8978,W,1,10,0.8,10.1,M,-31.4,M,,*68
$PYRTM,2024,124.752497394410,15.862144804549
$GPGGA,180334.00,3521.4711,N,12053.8982,W,1,10,0.8,10.1,M,-31.4,M,,*69
$PYRTM,2024,124.752508957164,15.862156367303
$GPGGA,180335.00,3521.4711,N,12053.8984,W,1,10,0.8,10.2,M,-31.4,M,,*6D
$PYRTM,2024,124.752520542199,15.862167952338
$GPGGA,180336.00,3521.4712,N,12053.8987,W,1,10,0.8,10.2,M,-31.4,M,,*6E
$PYRTM,2024,124.752532103727,15.862179513866
$GPGGA,180337.00,3521.4711,N,12053.8991,W,1,10,0.8,10.3,M,-31.4,M,,*6A
$PYRTM,2024,124.752543691447,15.862191101586
$GPGGA,180338.00,3521.4710,N,12053.8994,W,1,10,0.8,10.3,M,-31.4,M,,*61
$PYRTM,2024,124.752555251782,15.862202661921
$GPGGA,180339.00,3521.4709,N,12053.8996,W,1,10,0.8,10.2,M,-31.4,M,,*6B
$PYRTM,2024,124.752566834086,15.862214244225
$GPGGA,180340.00,3521.4709,N,12053.8999,W,1,10,0.8,10.3,M,-31.4,M,,*6B
$PYRTM,2024,124.752578402454,15.862225812593
$GPGGA,180341.00,3521.4710,N,12053.9002,W,1,10,0.8,10.3,M,-31.4,M,,*68
$PYRTM,2024,124.752590001100,15.862237411238
$GPGGA,180342.00,3521.4710,N,12053.9006,W,1,10,0.8,10.3,M,-31.4,M,,*6F
$PYRTM,2024,124.752601547373,15.862248957512
$GPGGA,180343.00,3521.4710,N,12053.9010,W,1,10,0.8,10.3,M,-31.4,M,,*69
$PYRTM,2024,124.752613138623,15.862260548762
$GPGGA,180344.00,3521.4710,N,12053.9012,W,1,10,0.8,10.4,M,-31.4,M,,*6B
$PYRTM,2024,124.752624696019,15.862272106157
$GPGGA,180345.00,3521.4710,N,12053.9015,W,1,10,0.8,10.5,M,-31.4,M,,*6C
$PYRTM,2024,124.752636282951,15.862283693090
$GPGGA,180346.00,3521.4710,N,12053.9017,W,1,10,0.8,10.5,M,-31.4,M,,*6D
$PYRTM,2024,124.752647844178,15.862295254317
$GPGGA,180347.00,3521.4710,N,12053.9020,W,1,10,0.8,10.4,M,-31.4,M,,*69
$PYRTM,2024,124.752659431088,15.862306841227
$GPGGA,180348.00,3521.4710,N,12053.9024,W,1,10,0.8,10.4,M,-31.4,M,,*62
$PYRTM,2024,124.752670992118,15.862318402257
$GPGGA,180349.00,3521.4711,N,12053.9028,W,1,10,0.8,10.5,M,-31.4,M,,*6F
$PYRTM,2024,124.752682580127,15.862329990266
$GPGGA,180350.00,3521.4711,N,12053.9032,W,1,10,0.8,10.5,M,-31.4,M,,*6C
$PYRTM,2024,124.752694144410,15.862341554549
$GPGGA,180351.00,3521.4712,N,12053.9036,W,1,10,0.8,10.5,M,-31.4,M,,*6A
$PYRTM,2024,124.752705722928,15.862353133067
$GPGGA,180352.00,3521.4711,N,12053.9038,W,1,10,0.8,10.5,M,-31.4,M,,*64
$PYRTM,2024,124.752717289502,15.862364699641
$GPGGA,180353.00,3521.4711,N,12053.9040,W,1,10,0.8,10.6,M,-31.4,M,,*69
$PYRTM,2024,124.752728877975,15.862376288113
$GPGGA,180354.00,3521.4712,N,12053.9043,W,1,10,0.8,10.6,M,-31.4,M,,*6E
$PYRTM,2024,124.752740438924,15.862387849063
$GPGGA,180355.00,3521.4713,N,12053.9046,W,1,10,0.8,10.6,M,-31.4,M,,*6B
$PYRTM,2024,124.752752013704,15.862399423843
$GPGGA,180356.00,3521.4713,N,12053.9050,W,1,10,0.8,10.7,M,-31.4,M,,*6E
$PYRTM,2024,124.752763585035,15.862410995174
$GPGGA,180357.00,3521.4711,N,12053.9052,W,1,10,0.8,10.7,M,-31.4,M,,*6F
$PYRTM,2024,124.752775173067,15.862422583194
$GPGGA,180358.00,3521.4710,N,12053.9055,W,1,10,0.8,10.7,M,-31.4,M,,*66
$PYRTM,2024,124.752786733924,15.862434144062
$GPGGA,180359.00,3521.4710,N,12053.9057,W,1,10,0.8,10.8,M,-31.4,M,,*6A
$PYRTM,2024,124.752796919433,15.862444329583
$GPGGA,180400.00,3521.4712,N,12053.9061,W,1,10,0.8,10.8,M,-31.4,M,,*66
$PYRTM,2024,124.752808738345,15.862456148495
$GPGGA,180401.00,3521.4713,N,12053.9065,W,1,10,0.8,10.8,M,-31.4,M,,*62
$PYRTM,2024,124.752821456979,15.862468867130
$GPGGA,180402.00,3521.4712,N,12053.9069,W,1,10,0.8,10.8,M,-31.4,M,,*6C
$PYRTM,2024,124.752833030556,15.862480440694
$GPGGA,180403.00,3521.4710,N,12053.9072,W,1,10,0.8,10.9,M,-31.4,M,,*64
$PYRTM,2024,124.752844604340,15.862492014479
$GPGGA,180404.00,3521.4709,N,12053.9075,W,1,10,0.8,10.9,M,-31.4,M,,*6C
$PYRTM,2024,124.752856177998,15.862503588137
$GPGGA,180405.00,3521.4710,N,12053.9078,W,1,10,0.8,10.9,M,-31.4,M,,*68
$PYRTM,2024,124.752867753843,15.862515163981
$GPGGA,180406.00,3521.4713,N,12053.9082,W,1,10,0.8,10.9,M,-31.4,M,,*6D
$PYRTM,2024,124.752879327269,15.862526737407
$GPGGA,180407.00,3521.4714,N,12053.9085,W,1,10,0.8,11.0,M,-31.4,M,,*64
$PYRTM,2024,124.752890902662,15.862538312801
$GPGGA,180408.00,3521.4713,N,12053.9088,W,1,10,0.8,11.0,M,-31.4,M,,*61
$PYRTM,2024,124.752902476123,15.862549886262
$GPGGA,180409.00,3521.4711,N,12053.9091,W,1,10,0.8,11.0,M,-31.4,M,,*6A
$PYRTM,2024,124.752914063426,15.862561473565
$GPGGA,180410.00,3521.4712,N,12053.9095,W,1,10,0.8,11.0,M,-31.4,M,,*65
$PYRTM,2024,124.752925623924,15.862573034062
$GPGGA,180411.00,3521.4713,N,12053.9099,W,1,10,0.8,11.0,M,-31.4,M,,*69
$PYRTM,2024,124.752937210405,15.862584620544
$GPGGA,180412.00,3521.4714,N,12053.9103,W,1,10,0.8,11.1,M,-31.4,M,,*6E
$PYRTM,2024,124.752948773646,15.862596183785
$GPGGA,180413.00,3521.4713,N,12053.9106,W,1,10,0.8,11.1,M,-31.4,M,,*6D
$PYRTM,2024,124.752960373287,15.862607783426
$GPGGA,180414.00,3521.4712,N,12053.9109,W,1,10,0.8,11.1,M,-31.4,M,,*64
$PYRTM,2024,124.752971919965,15.862619330104
$GPGGA,180415.00,3521.4712,N,12053.9112,W,1,10,0.8,11.2,M,-31.4,M,,*6C
$PYRTM,2024,124.752983521562,15.862630931701
$GPGGA,180416.00,3521.4713,N,12053.9115,W,1,10,0.8,11.2,M,-31.4,M,,*69
$PYRTM,2024,124.752995067789,15.862642477917
$GPGGA,180417.00,3521.4715,N,12053.9120,W,1,10,0.8,11.2,M,-31.4,M,,*68
$PYRTM,2024,124.753006655891,15.862654066030
$GPGGA,180418.00,3521.4715,N,12053.9124,W,1,10,0.8,11.3,M,-31.4,M,,*62
$PYRTM,2024,124.753018217118,15.862665627269
$GPGGA,180419.00,3521.4714,N,12053.9129,W,1,10,0.8,11.3,M,-31.4,M,,*6F
$PYRTM,2024,124.753029805266,15.862677215394
$GPGGA,180420.00,3521.4714,N,12053.9133,W,1,10,0.8,11.4,M,-31.4,M,,*69
$PYRTM,2024,124.753041364873,15.862688775012
$GPGGA,180421.00,3521.4715,N,12053.9137,W,1,09,0.8,11.4,M,-31.4,M,,*65
$PYRTM,2024,124.753052951505,15.862700361644
$GPGGA,180422.00,3521.4716,N,12053.9140,W,1,10,0.8,11.4,M,-31.4,M,,*6D
$PYRTM,2024,124.753064512998,15.862711923137
$GPGGA,180423.00,3521.4717,N,12053.9143,W,1,10,0.8,11.5,M,-31.4,M,,*6F
$PYRTM,2024,124.753076100509,15.862723510648
$GPGGA,180424.00,3521.4717,N,12053.9148,W,1,10,0.8,11.5,M,-31.4,M,,*63
$PYRTM,2024,124.753087661840,15.862735071979
$GPGGA,180425.00,3521.4716,N,12053.9152,W,1,10,0.8,11.5,M,-31.4,M,,*68
$PYRTM,2024,124.753099243924,15.862746654062
$GPGGA,180426.00,3521.4716,N,12053.9156,W,1,10,0.8,11.5,M,-31.4,M,,*6F
$PYRTM,2024,124.753110810810,15.862758220949
$GPGGA,180427.00,3521.4716,N,12053.9159,W,1,10,0.8,11.6,M,-31.4,M,,*62
$PYRTM,2024,124.753122399352,15.862769809491
$GPGGA,180428.00,3521.4716,N,12053.9161,W,1,10,0.8,11.6,M,-31.4,M,,*66
$PYRTM,2024,124.753133959838,15.862781369977
$GPGGA,180429.00,3521.4716,N,12053.9164,W,1,10,0.8,11.6,M,-31.4,M,,*62
$PYRTM,2024,124.753144634387,15.862792044537
$GPGGA,180430.00,3521.4716,N,12053.9167,W,1,10,0.8,11.6,M,-31.4,M,,*69
$PYRTM,2024,124.753155961933,15.862803372072
$GPGGA,180431.00,3521.4717,N,12053.9170,W,1,10,0.8,11.7,M,-31.4,M,,*6E
$PYRTM,2024,124.753168707361,15.862816117500
$GPGGA,180432.00,3521.4717,N,12053.9174,W,1,10,0.8,11.7,M,-31.4,M,,*69
$PYRTM,2024,124.753180253738,15.862827663877
$GPGGA,180433.00,3521.4716,N,12053.9178,W,1,10,0.8,11.8,M,-31.4,M,,*6A
$PYRTM,2024,124.753191847697,15.862839257836
$GPGGA,180434.00,3521.4716,N,12053.9182,W,1,10,0.8,11.8,M,-31.4,M,,*68
$PYRTM,2024,124.753203402373,15.862850812512
$GPGGA,180435.00,3521.4717,N,12053.9186,W,1,10,0.8,11.8,M,-31.4,M,,*6C
$PYRTM,2024,124.753214989722,15.862862399861
$GPGGA,180436.00,3521.4718,N,12053.9190,W,1,10,0.8,11.8,M,-31.4,M,,*67
$PYRTM,2024,124.753226551331,15.862873961470
$GPGGA,180437.00,3521.4719,N,12053.9195,W,1,10,0.8,11.8,M,-31.4,M,,*62
$PYRTM,2024,124.753238137986,15.862885548125
$GPGGA,180438.00,3521.4720,N,12053.9199,W,1,10,0.8,11.7,M,-31.4,M,,*64
$PYRTM,2024,124.753249699086,15.862897109225
$GPGGA,180439.00,3521.4719,N,12053.9201,W,1,10,0.8,11.8,M,-31.4,M,,*62
$PYRTM,2024,124.753261287708,15.862908697847
$GPGGA,180440.00,3521.4718,N,12053.9203,W,1,10,0.8,11.7,M,-31.4,M,,*60
$PYRTM,2024,124.753272849884,15.862920260023
$GPGGA,180441.00,3521.4720,N,12053.9207,W,1,10,0.8,11.8,M,-31.4,M,,*61
$PYRTM,2024,124.753284433727,15.862931843866
$GPGGA,180442.00,3521.4721,N,12053.9211,W,1,10,0.8,11.7,M,-31.4,M,,*6B
$PYRTM,2024,124.753295996424,15.862943406574
$GPGGA,180443.00,3521.4723,N,12053.9214,W,1,10,0.8,11.8,M,-31.4,M,,*62
$PYRTM,2024,124.753306670984,15.862954081123
$GPGGA,180444.00,3521.4721,N,12053.9216,W,1,10,0.8,11.8,M,-31.4,M,,*65
$PYRTM,2024,124.753317652049,15.862965062187
$GPGGA,180445.00,3521.4720,N,12053.9218,W,1,10,0.8,11.8,M,-31.4,M,,*6B
$PYRTM,2024,124.753327362049,15.862974772188
$GPGGA,180446.00,3521.4720,N,12053.9221,W,1,10,0.8,11.7,M,-31.4,M,,*6D
$PYRTM,2024,124.753345071470,15.862992481609
$GPGGA,180447.00,3521.4721,N,12053.9226,W,1,10,0.8,11.8,M,-31.4,M,,*65
$PYRTM,2024,124.753356183380,15.863003593519
$GPGGA,180448.00,3521.4723,N,12053.9229,W,1,10,0.8,11.8,M,-31.4,M,,*67
$PYRTM,2024,124.753367293403,15.863014703542
$GPGGA,180449.00,3521.4724,N,12053.9231,W,1,10,0.8,11.8,M,-31.4,M,,*68
$PYRTM,2024,124.753378405139,15.863025815278
$GPGGA,180450.00,3521.4723,N,12053.9233,W,1,10,0.8,11.8,M,-31.4,M,,*65
$PYRTM,2024,124.753389515394,15.863036925544
$GPGGA,180451.00,3521.4722,N,12053.9236,W,1,10,0.8,11.8,M,-31.4,M,,*60
$PYRTM,2024,124.753400626840,15.863048036979
$GPGGA,180452.00,3521.4722,N,12053.9240,W,1,10,0.8,11.8,M,-31.4,M,,*62
$PYRTM,2024,124.753411738032,15.863059148171
$GPGGA,180453.00,3521.4722,N,12053.9243,W,1,10,0.8,11.8,M,-31.4,M,,*60
$PYRTM,2024,124.753429689664,15.863077099803
$GPGGA,180454.00,3521.4723,N,12053.9246,W,1,10,0.8,11.8,M,-31.4,M,,*63
$PYRTM,2024,124.753440801979,15.863088212118
$GPGGA,180455.00,3521.4724,N,12053.9248,W,1,10,0.8,11.8,M,-31.4,M,,*6B
$PYRTM,2024,124.753451912905,15.863099323044
$GPGGA,180456.00,3521.4723,N,12053.9250,W,1,10,0.8,11.8,M,-31.4,M,,*66
$PYRTM,2024,124.753463038380,15.863110448519
$GPGGA,180457.00,3521.4722,N,12053.9253,W,1,10,0.8,11.7,M,-31.4,M,,*6A
$PYRTM,2024,124.753474135706,15.863121545845
$GPGGA,180458.00,3521.4722,N,12053.9257,W,1,10,0.8,11.7,M,-31.4,M,,*61
$PYRTM,2024,124.753485248912,15.863132659051
$GPGGA,180459.00,3521.4722,N,12053.9261,W,1,10,0.8,11.8,M,-31.4,M,,*6A
$PYRTM,2024,124.753496241493,15.863143651632
$GPGGA,180500.00,3521.4722,N,12053.9264,W,1,10,0.8,11.7,M,-31.4,M,,*6D
$PYRTM,2024,124.753507353229,15.863154763368
$GPGGA,180501.00,3521.4721,N,12053.9266,W,1,10,0.8,11.7,M,-31.4,M,,*6D
$PYRTM,2024,124.753518464097,15.863165874236
$GPGGA,180502.00,3521.4719,N,12053.9269,W,1,10,0.8,11.7,M,-31.4,M,,*6A
$PYRTM,2024,124.753529563681,15.863176973831
$GPGGA,180503.00,3521.4719,N,12053.9273,W,1,10,0.8,11.7,M,-31.4,M,,*60
$PYRTM,2024,124.753540702431,15.863188112569
$GPGGA,180504.00,3521.4720,N,12053.9278,W,1,10,0.8,11.6,M,-31.4,M,,*67
$PYRTM,2024,124.753551786134,15.863199196273
$GPGGA,180505.00,3521.4720,N,12053.9284,W,1,10,0.8,11.7,M,-31.4,M,,*64
$PYRTM,2024,124.753562911574,15.863210321713
$GPGGA,180506.00,3521.4718,N,12053.9287,W,1,10,0.8,11.7,M,-31.4,M,,*6F
$PYRTM,2024,124.753574008229,15.863221418368
$GPGGA,180507.00,3521.4716,N,12053.9289,W,1,10,0.8,11.7,M,-31.4,M,,*6E
$PYRTM,2024,124.753585357674,15.863232767813
$GPGGA,180508.00,3521.4715,N,12053.9291,W,1,10,0.8,11.6,M,-31.4,M,,*6A
$PYRTM,2024,124.753596924190,15.863244334329
$GPGGA,180509.00,3521.4716,N,12053.9295,W,1,10,0.8,11.6,M,-31.4,M,,*6C
$PYRTM,2024,124.753608506481,15.863255916620
$GPGGA,180510.00,3521.4718,N,12053.9298,W,1,10,0.8,11.7,M,-31.4,M,,*66
$PYRTM,2024,124.753620072662,15.863267482801
$GPGGA,180511.00,3521.4718,N,12053.9302,W,1,10,0.8,11.7,M,-31.4,M,,*65
$PYRTM,2024,124.753631662813,15.863279072951
$GPGGA,180512.00,3521.4717,N,12053.9305,W,1,10,0.8,11.7,M,-31.4,M,,*6E
$PYRTM,2024,124.753643222083,15.863290632222
$GPGGA,180513.00,3521.4715,N,12053.9308,W,1,10,0.8,11.7,M,-31.4,M,,*60
$PYRTM,2024,124.753654806840,15.863302216979
$GPGGA,180514.00,3521.4716,N,12053.9312,W,1,10,0.8,11.7,M,-31.4,M,,*6F
$PYRTM,2024,124.753666368356,15.863313778495
$GPGGA,180515.00,3521.4717,N,12053.9316,W,1,10,0.8,11.6,M,-31.4,M,,*6A
$PYRTM,2024,124.753677970220,15.863325380359
$GPGGA,180516.00,3521.4718,N,12053.9321,W,1,10,0.8,11.6,M,-31.4,M,,*62
$PYRTM,2024,124.753689516481,15.863336926620
$GPGGA,180517.00,3521.4716,N,12053.9325,W,1,10,0.8,11.6,M,-31.4,M,,*69
$PYRTM,2024,124.753701107407,15.863348517546
$GPGGA,180518.00,3521.4715,N,12053.9328,W,1,10,0.8,11.6,M,-31.4,M,,*68
$PYRTM,2024,124.753712666169,15.863360076308
$GPGGA,180519.00,3521.4716,N,12053.9331,W,1,10,0.8,11.6,M,-31.4,M,,*62
$PYRTM,2024,124.753724255613,15.863371665752
$GPGGA,180520.00,3521.4717,N,12053.9334,W,1,10,0.8,11.6,M,-31.4,M,,*6C
$PYRTM,2024,124.753735813611,15.863383223750
$GPGGA,180521.00,3521.4718,N,12053.9337,W,1,10,0.8,11.5,M,-31.4,M,,*62
$PYRTM,2024,124.753747400625,15.863394810764
$GPGGA,180522.00,3521.4717,N,12053.9341,W,1,10,0.8,11.5,M,-31.4,M,,*6F
$PYRTM,2024,124.753758963438,15.863406373576
$GPGGA,180523.00,3521.4716,N,12053.9345,W,1,10,0.8,11.4,M,-31.4,M,,*6A
$PYRTM,2024,124.753770549525,15.863417959664
$GPGGA,180524.00,3521.4716,N,12053.9349,W,1,10,0.8,11.4,M,-31.4,M,,*61
$PYRTM,2024,124.753782110440,15.863429520579
$GPGGA,180525.00,3521.4718,N,12053.9352,W,1,10,0.8,11.5,M,-31.4,M,,*65
$PYRTM,2024,124.753793692558,15.863441102697
$GPGGA,180526.00,3521.4719,N,12053.9355,W,1,10,0.8,11.5,M,-31.4,M,,*60
$PYRTM,2024,124.753805260058,15.863452670197
$GPGGA,180527.00,3521.4718,N,12053.9359,W,1,10,0.8,11.5,M,-31.4,M,,*6C
$PYRTM,2024,124.753816845440,15.863464255579
$GPGGA,180528.00,3521.4716,N,12053.9362,W,1,10,0.8,11.6,M,-31.4,M,,*66
$PYRTM,2024,124.753828406875,15.863475817014
$GPGGA,180529.00,3521.4716,N,12053.9366,W,1,10,0.8,11.6,M,-31.4,M,,*63
$PYRTM,2024,124.753838593032,15.863486003171
$GPGGA,180530.00,3521.4718,N,12053.9370,W,1,10,0.8,11.6,M,-31.4,M,,*62
$PYRTM,2024,124.753850409039,15.863497819178
$GPGGA,180531.00,3521.4720,N,12053.9375,W,1,10,0.8,11.6,M,-31.4,M,,*6D
$PYRTM,2024,124.753863145718,15.863510555856
$GPGGA,180532.00,3521.4720,N,12053.9379,W,1,10,0.8,11.6,M,-31.4,M,,*62
$PYRTM,2024,124.753874703345,15.863522113484
$GPGGA,180533.00,3521.4717,N,12053.9382,W,1,10,0.8,11.6,M,-31.4,M,,*63
$PYRTM,2024,124.753886294769,15.863533704907
$GPGGA,180534.00,3521.4716,N,12053.9385,W,1,10,0.8,11.6,M,-31.4,M,,*62
$PYRTM,2024,124.753897850579,15.863545260718
$GPGGA,180535.00,3521.4716,N,12053.9388,W,1,10,0.8,11.6,M,-31.4,M,,*6E
$PYRTM,2024,124.753909438935,15.863556849074
$GPGGA,180536.00,3521.4720,N,12053.9392,W,1,10,0.8,11.6,M,-31.4,M,,*63
$PYRTM,2024,124.753921000093,15.863568410231
$GPGGA,180537.00,3521.4722,N,12053.9396,W,1,10,0.8,11.6,M,-31.4,M,,*64
$PYRTM,2024,124.753932581921,15.863579992060
$GPGGA,180538.00,3521.4720,N,12053.9400,W,1,10,0.8,11.7,M,-31.4,M,,*60
$PYRTM,2024,124.753944147419,15.863591557558
$GPGGA,180539.00,3521.4717,N,12053.9403,W,1,10,0.8,11.7,M,-31.4,M,,*66
$PYRTM,2024,124.753955736181,15.863603146319
$GPGGA,180540.00,3521.4716,N,12053.9406,W,1,10,0.8,11.7,M,-31.4,M,,*6C
$PYRTM,2024,124.753967296192,15.863614706331
$GPGGA,180541.00,3521.4717,N,12053.9409,W,1,10,0.8,11.7,M,-31.4,M,,*63
$PYRTM,2024,124.753978886088,15.863626296227
$GPGGA,180542.00,3521.4719,N,12053.9413,W,1,10,0.8,11.7,M,-31.4,M,,*65
$PYRTM,2024,124.753990444167,15.863637854306
$GPGGA,180543.00,3521.4719,N,12053.9416,W,1,10,0.8,11.8,M,-31.4,M,,*6E
$PYRTM,2024,124.754002034896,15.863649445035
$GPGGA,180544.00,3521.4716,N,12053.9419,W,1,10,0.8,11.8,M,-31.4,M,,*69
$PYRTM,2024,124.754013593588,15.863661003727
$GPGGA,180545.00,3521.4714,N,12053.9422,W,1,10,0.8,11.8,M,-31.4,M,,*62
$PYRTM,2024,124.754025181285,15.863672591424
$GPGGA,180546.00,3521.4715,N,12053.9426,W,1,10,0.8,11.8,M,-31.4,M,,*64
$PYRTM,2024,124.754036741204,15.863684151343
$GPGGA,180547.00,3521.4717,N,12053.9431,W,1,10,0.8,11.8,M,-31.4,M,,*61
$PYRTM,2024,124.754048331412,15.863695741551
$GPGGA,180548.00,3521.4719,N,12053.9435,W,1,10,0.8,11.8,M,-31.4,M,,*64
$PYRTM,2024,124.754059889190,15.863707299329
$GPGGA,180549.00,3521.4718,N,12053.9438,W,1,10,0.8,11.8,M,-31.4,M,,*69
$PYRTM,2024,124.754071491944,15.863718902083
$GPGGA,180550.00,3521.4716,N,12053.9441,W,1,10,0.8,11.8,M,-31.4,M,,*61
$PYRTM,2024,124.754083038958,15.863730449097
$GPGGA,180551.00,3521.4715,N,12053.9443,W,1,10,0.8,11.8,M,-31.4,M,,*61
$PYRTM,2024,124.754094625486,15.863742035637
$GPGGA,180552.00,3521.4717,N,12053.9445,W,1,10,0.8,11.9,M,-31.4,M,,*67
$PYRTM,2024,124.754106185787,15.863753595926
$GPGGA,180553.00,3521.4719,N,12053.9450,W,1,10,0.8,12.0,M,-31.4,M,,*66
$PYRTM,2024,124.754117772662,15.863765182801
$GPGGA,180554.00,3521.4720,N,12053.9454,W,1,10,0.8,12.0,M,-31.4,M,,*6F
$PYRTM,2024,124.754129333762,15.863776743900
$GPGGA,180555.00,3521.4719,N,12053.9459,W,1,10,0.8,12.1,M,-31.4,M,,*68
$PYRTM,2024,124.754140909734,15.863788319873
$GPGGA,180556.00,3521.4718,N,12053.9462,W,1,10,0.8,12.1,M,-31.4,M,,*62
$PYRTM,2024,124.754152482407,15.863799892546
$GPGGA,180557.00,3521.4718,N,12053.9466,W,1,10,0.8,12.1,M,-31.4,M,,*67
$PYRTM,2024,124.754164064213,15.863811474352
$GPGGA,180558.00,3521.4719,N,12053.9470,W,1,10,0.8,12.1,M,-31.4,M,,*6E
$PYRTM,2024,124.754175630405,15.863823040544
$GPGGA,180559.00,3521.4720,N,12053.9474,W,1,10,0.8,12.1,M,-31.4,M,,*61
$PYRTM,2024,124.754185817025,15.863833227164
$GPGGA,180600.00,3521.4720,N,12053.9479,W,1,10,0.8,12.1,M,-31.4,M,,*63
$PYRTM,2024,124.754197633079,15.863845043218
$GPGGA,180601.00,3521.4720,N,12053.9484,W,1,10,0.8,12.1,M,-31.4,M,,*60
$PYRTM,2024,124.754210353438,15.863857763576
$GPGGA,180602.00,3521.4720,N,12053.9489,W,1,10,0.8,12.1,M,-31.4,M,,*6E
$PYRTM,2024,124.754221926690,15.863869336829
$GPGGA,180603.00,3521.4720,N,12053.9492,W,1,10,0.8,12.1,M,-31.4,M,,*65
$PYRTM,2024,124.754233516412,15.863880926563
$GPGGA,180604.00,3521.4719,N,12053.9495,W,1,10,0.8,12.1,M,-31.4,M,,*6F
$PYRTM,2024,124.754245075046,15.863892485185
$GPGGA,180605.00,3521.4720,N,12053.9497,W,1,10,0.8,12.1,M,-31.4,M,,*66
$PYRTM,2024,124.754256665845,15.863904075984
$GPGGA,180606.00,3521.4721,N,12053.9500,W,1,10,0.8,12.1,M,-31.4,M,,*6B
$PYRTM,2024,124.754268225093,15.863915635231
$GPGGA,180607.00,3521.4723,N,12053.9504,W,1,10,0.8,12.1,M,-31.4,M,,*6C
$PYRTM,2024,124.754279798437,15.863927208576
$GPGGA,180608.00,3521.4724,N,12053.9508,W,1,10,0.8,12.1,M,-31.4,M,,*68
$PYRTM,2024,124.754291372072,15.863938782211
$GPGGA,180609.00,3521.4725,N,12053.9511,W,1,10,0.8,12.1,M,-31.4,M,,*60
$PYRTM,2024,124.754302945949,15.863950356088
$GPGGA,180610.00,3521.4724,N,12053.9514,W,1,10,0.8,12.0,M,-31.4,M,,*6D
$PYRTM,2024,124.754314519549,15.863961929688
$GPGGA,180611.00,3521.4724,N,12053.9519,W,1,10,0.8,12.0,M,-31.4,M,,*61
$PYRTM,2024,124.754326095382,15.863973505521
$GPGGA,180612.00,3521.4724,N,12053.9524,W,1,10,0.8,12.0,M,-31.4,M,,*6C
$PYRTM,2024,124.754337667928,15.863985078067
$GPGGA,180613.00,3521.4725,N,12053.9529,W,1,10,0.8,12.0,M,-31.4,M,,*61
$PYRTM,2024,124.754349244201,15.863996654340
$GPGGA,180614.00,3521.4724,N,12053.9533,W,1,10,0.8,12.1,M,-31.4,M,,*6D
$PYRTM,2024,124.754360816481,15.864008226620
$GPGGA,180615.00,3521.4724,N,12053.9537,W,1,10,0.8,12.1,M,-31.4,M,,*68
$PYRTM,2024,124.754372391817,15.864019801956
$GPGGA,180616.00,3521.4725,N,12053.9541,W,1,10,0.8,12.1,M,-31.4,M,,*6B
$PYRTM,2024,124.754383965243,15.864031375382
$GPGGA,180617.00,3521.4725,N,12053.9545,W,1,10,0.8,12.1,M,-31.4,M,,*6E
$PYRTM,2024,124.754395540104,15.864042950243
$GPGGA,180618.00,3521.4725,N,12053.9548,W,1,10,0.8,12.1,M,-31.4,M,,*6C
$PYRTM,2024,124.754407114653,15.864054524792
$GPGGA,180619.00,3521.4725,N,12053.9551,W,1,10,0.8,12.1,M,-31.4,M,,*65
$PYRTM,2024,124.754418700972,15.864066111111
$GPGGA,180620.00,3521.4725,N,12053.9555,W,1,10,0.8,12.1,M,-31.4,M,,*6B
$PYRTM,2024,124.754430260880,15.864077671019
$GPGGA,180621.00,3521.4725,N,12053.9559,W,1,10,0.8,12.1,M,-31.4,M,,*66
$PYRTM,2024,124.754441852106,15.864089262245
$GPGGA,180622.00,3521.4725,N,12053.9562,W,1,10,0.8,12.1,M,-31.4,M,,*6D
$PYRTM,2024,124.754453410417,15.864100820556
$GPGGA,180623.00,3521.4726,N,12053.9565,W,1,10,0.8,12.0,M,-31.4,M,,*69
$PYRTM,2024,124.754464991875,15.864112402014
$GPGGA,180624.00,3521.4726,N,12053.9568,W,1,10,0.8,12.0,M,-31.4,M,,*63
$PYRTM,2024,124.754476557674,15.864123967812
$GPGGA,180625.00,3521.4725,N,12053.9571,W,1,10,0.8,12.0,M,-31.4,M,,*69
$PYRTM,2024,124.754488132801,15.864135542940
$GPGGA,180626.00,3521.4725,N,12053.9576,W,1,09,0.8,12.0,M,-31.4,M,,*65
$PYRTM,2024,124.754498561875,15.864145972025
$GPGGA,180627.00,3521.4725,N,12053.9580,W,1,10,0.8,12.0,M,-31.4,M,,*65
$PYRTM,2024,124.754511283090,15.864158693229
$GPGGA,180628.00,3521.4724,N,12053.9584,W,1,10,0.8,12.0,M,-31.4,M,,*6F
$PYRTM,2024,124.754522856366,15.864170266516
$GPGGA,180629.00,3521.4723,N,12053.9586,W,1,10,0.8,12.0,M,-31.4,M,,*6B
$PYRTM,2024,124.754533041181,15.864180451319
$GPGGA,180630.00,3521.4722,N,12053.9589,W,1,10,0.8,12.0,M,-31.4,M,,*6D
$PYRTM,2024,124.754544858970,15.864192269109
$GPGGA,180631.00,3521.4722,N,12053.9593,W,1,10,0.8,12.0,M,-31.4,M,,*67
$PYRTM,2024,124.754557590671,15.864205000810
$GPGGA,180632.00,3521.4724,N,12053.9597,W,1,10,0.8,12.1,M,-31.4,M,,*67
$PYRTM,2024,124.754569151771,15.864216561910
$GPGGA,180633.00,3521.4725,N,12053.9602,W,1,10,0.8,12.1,M,-31.4,M,,*68
$PYRTM,2024,124.754580726134,15.864228136273
$GPGGA,180634.00,3521.4724,N,12053.9607,W,1,10,0.8,12.1,M,-31.4,M,,*6B
$PYRTM,2024,124.754592299363,15.864239709502
$GPGGA,180635.00,3521.4723,N,12053.9610,W,1,10,0.8,12.1,M,-31.4,M,,*6B
$PYRTM,2024,124.754603891481,15.864251301620
$GPGGA,180636.00,3521.4723,N,12053.9613,W,1,10,0.8,12.1,M,-31.4,M,,*6B
$PYRTM,2024,124.754615446852,15.864262856991
$GPGGA,180637.00,3521.4725,N,12053.9619,W,1,10,0.8,12.0,M,-31.4,M,,*67
$PYRTM,2024,124.754627036667,15.864274446817
$GPGGA,180638.00,3521.4727,N,12053.9624,W,1,10,0.8,12.1,M,-31.4,M,,*65
$PYRTM,2024,124.754638597338,15.864286007488
$GPGGA,180639.00,3521.4727,N,12053.9627,W,1,10,0.8,12.1,M,-31.4,M,,*67
$PYRTM,2024,124.754650171424,15.864297581563
$GPGGA,180640.00,3521.4726,N,12053.9629,W,1,10,0.8,12.2,M,-31.4,M,,*65
$PYRTM,2024,124.754661747442,15.864309157581
$GPGGA,180641.00,3521.4724,N,12053.9631,W,1,10,0.8,12.2,M,-31.4,M,,*6F
$PYRTM,2024,124.754673318009,15.864320728148
$GPGGA,180642.00,3521.4725,N,12053.9634,W,1,10,0.8,12.2,M,-31.4,M,,*68
$PYRTM,2024,124.754684892789,15.864332302928
$GPGGA,180643.00,3521.4727,N,12053.9638,W,1,10,0.8,12.2,M,-31.4,M,,*67
$PYRTM,2024,124.754696467546,15.864343877685
$GPGGA,180644.00,3521.4727,N,12053.9643,W,1,10,0.8,12.2,M,-31.4,M,,*6C
$PYRTM,2024,124.754708041181,15.864355451331
$GPGGA,180645.00,3521.4726,N,12053.9648,W,1,10,0.8,12.2,M,-31.4,M,,*67
$PYRTM,2024,124.754719623009,15.864367033148
$GPGGA,180646.00,3521.4725,N,12053.9651,W,1,10,0.8,12.2,M,-31.4,M,,*6F
$PYRTM,2024,124.754731188750,15.864378598889
$GPGGA,180647.00,3521.4725,N,12053.9655,W,1,10,0.8,12.2,M,-31.4,M,,*6A
$PYRTM,2024,124.754742762384,15.864390172523
$GPGGA,180648.00,3521.4726,N,12053.9659,W,1,10,0.8,12.2,M,-31.4,M,,*6A
$PYRTM,2024,124.754753410984,15.864400821123
$GPGGA,180649.00,3521.4727,N,12053.9663,W,1,10,0.8,12.2,M,-31.4,M,,*63
$PYRTM,2024,124.754764406736,15.864411816875
$GPGGA,180650.00,3521.4725,N,12053.9669,W,1,10,0.8,12.2,M,-31.4,M,,*63
$PYRTM,2024,124.754776110347,15.864423520498
$GPGGA,180651.00,3521.4725,N,12053.9673,W,1,10,0.8,12.2,M,-31.4,M,,*69
$PYRTM,2024,124.754787234896,15.864434645035
$GPGGA,180652.00,3521.4725,N,12053.9677,W,1,10,0.8,12.2,M,-31.4,M,,*6E
$PYRTM,2024,124.754798331528,15.864445741667
$GPGGA,180653.00,3521.4727,N,12053.9680,W,1,10,0.8,12.2,M,-31.4,M,,*65
$PYRTM,2024,124.754809443426,15.864456853565
$GPGGA,180654.00,3521.4727,N,12053.9683,W,1,10,0.8,12.2,M,-31.4,M,,*61
$PYRTM,2024,124.754820553750,15.864467963900
$GPGGA,180655.00,3521.4726,N,12053.9687,W,1,10,0.8,12.2,M,-31.4,M,,*65
$PYRTM,2024,124.754831665521,15.864479075660
$GPGGA,180656.00,3521.4724,N,12053.9691,W,1,10,0.8,12.2,M,-31.4,M,,*63
$PYRTM,2024,124.754842779468,15.864490189618
$GPGGA,180657.00,3521.4723,N,12053.9695,W,1,10,0.8,12.1,M,-31.4,M,,*62
$PYRTM,2024,124.754853890891,15.864501301030
$GPGGA,180658.00,3521.4724,N,12053.9699,W,1,10,0.8,12.1,M,-31.4,M,,*66
$PYRTM,2024,124.754871815035,15.864519225185
$GPGGA,180659.00,3521.4725,N,12053.9702,W,1,10,0.8,12.1,M,-31.4,M,,*65
$PYRTM,2024,124.754887916632,15.864535326771
$GPGGA,180700.00,3521.4724,N,12053.9705,W,1,10,0.8,12.1,M,-31.4,M,,*6E
$PYRTM,2024,124.754899022905,15.864546433056
$GPGGA,180701.00,3521.4722,N,12053.9707,W,1,10,0.8,12.0,M,-31.4,M,,*6A
$PYRTM,2024,124.754910139363,15.864557549502
$GPGGA,180702.00,3521.4721,N,12053.9710,W,1,10,0.8,12.1,M,-31.4,M,,*6D
$PYRTM,2024,124.754921253287,15.864568663426
$GPGGA,180703.00,3521.4721,N,12053.9713,W,1,10,0.8,12.1,M,-31.4,M,,*6F
$PYRTM,2024,124.754932360637,15.864579770775
$GPGGA,180704.00,3521.4722,N,12053.9717,W,1,10,0.8,12.1,M,-31.4,M,,*6F
$PYRTM,2024,124.754943486181,15.864590896319
$GPGGA,180705.00,3521.4724,N,12053.9722,W,1,10,0.8,12.1,M,-31.4,M,,*6E
$PYRTM,2024,124.754954584433,15.864601994572
$GPGGA,180706.00,3521.4724,N,12053.9725,W,1,10,0.8,12.1,M,-31.4,M,,*6A
$PYRTM,2024,124.754965694537,15.864613104676
$GPGGA,180707.00,3521.4722,N,12053.9727,W,1,10,0.8,12.1,M,-31.4,M,,*6F
$PYRTM,2024,124.754976801181,15.864624211319
$GPGGA,180708.00,3521.4720,N,12053.9729,W,1,10,0.8,12.1,M,-31.4,M,,*6C
$PYRTM,2024,124.754987902882,15.864635313021
$GPGGA,180709.00,3521.4721,N,12053.9734,W,1,10,0.8,12.1,M,-31.4,M,,*60
$PYRTM,2024,124.754999042465,15.864646452604
$GPGGA,180710.00,3521.4723,N,12053.9739,W,1,10,0.8,12.1,M,-31.4,M,,*67
$PYRTM,2024,124.755010125984,15.864657536123
$GPGGA,180711.00,3521.4724,N,12053.9743,W,1,10,0.8,12.0,M,-31.4,M,,*6D
$PYRTM,2024,124.755021235556,15.864668645694
$GPGGA,180712.00,3521.4723,N,12053.9746,W,1,10,0.8,12.0,M,-31.4,M,,*6C
$PYRTM,2024,124.755032823785,15.864680233924
$GPGGA,180713.00,3521.4721,N,12053.9749,W,1,10,0.8,11.9,M,-31.4,M,,*6A
$PYRTM,2024,124.755043922836,15.864691332975
$GPGGA,180714.00,3521.4720,N,12053.9752,W,1,10,0.8,11.9,M,-31.4,M,,*66
$PYRTM,2024,124.755055265880,15.864702676019
$GPGGA,180715.00,3521.4720,N,12053.9756,W,1,10,0.8,11.9,M,-31.4,M,,*63
$PYRTM,2024,124.755066851956,15.864714262095
$GPGGA,180716.00,3521.4722,N,12053.9761,W,1,10,0.8,11.9,M,-31.4,M,,*66
$PYRTM,2024,124.755078414769,15.864725824907
$GPGGA,180717.00,3521.4722,N,12053.9765,W,1,10,0.8,11.9,M,-31.4,M,,*63
$PYRTM,2024,124.755090000486,15.864737410625
$GPGGA,180718.00,3521.4721,N,12053.9769,W,1,10,0.8,11.9,M,-31.4,M,,*63
$PYRTM,2024,124.755101562905,15.864748973044
$GPGGA,180719.00,3521.4720,N,12053.9772,W,1,10,0.8,12.0,M,-31.4,M,,*63
$PYRTM,2024,124.755113148183,15.864760558322
$GPGGA,180720.00,3521.4719,N,12053.9776,W,1,10,0.8,12.0,M,-31.4,M,,*67
$PYRTM,2024,124.755124710579,15.864772120718
$GPGGA,180721.00,3521.4720,N,12053.9780,W,1,10,0.8,11.9,M,-31.4,M,,*6F
$PYRTM,2024,124.755136299815,15.864783709954
$GPGGA,180722.00,3521.4720,N,12053.9784,W,1,10,0.8,11.8,M,-31.4,M,,*69
$PYRTM,2024,124.755147857755,15.864795267894
$GPGGA,180723.00,3521.4720,N,12053.9788,W,1,10,0.8,11.9,M,-31.4,M,,*65
$PYRTM,2024,124.755159459479,15.864806869618
$GPGGA,180724.00,3521.4720,N,12053.9791,W,1,10,0.8,11.9,M,-31.4,M,,*6A
$PYRTM,2024,124.755171006713,15.864818416852
$GPGGA,180725.00,3521.4719,N,12053.9795,W,1,10,0.8,11.8,M,-31.4,M,,*64
$PYRTM,2024,124.755182597778,15.864830007917
$GPGGA,180726.00,3521.4718,N,12053.9799,W,1,10,0.8,11.8,M,-31.4,M,,*6A
$PYRTM,2024,124.755193009630,15.864840419769
$GPGGA,180727.00,3521.4717,N,12053.9803,W,1,10,0.8,11.9,M,-31.4,M,,*69
$PYRTM,2024,124.755205742454,15.864853152593
$GPGGA,180728.00,3521.4718,N,12053.9806,W,1,10,0.8,11.8,M,-31.4,M,,*6D
$PYRTM,2024,124.755217302882,15.864864713021
$GPGGA,180729.00,3521.4718,N,12053.9810,W,1,10,0.8,11.8,M,-31.4,M,,*6B
$PYRTM,2024,124.755229919109,15.864877329248
$GPGGA,180730.00,3521.4717,N,12053.9814,W,1,10,0.8,11.8,M,-31.4,M,,*68
$PYRTM,2024,124.755242651701,15.864890061840
$GPGGA,180731.00,3521.4716,N,12053.9818,W,1,10,0.8,11.6,M,-31.4,M,,*6A
$PYRTM,2024,124.755252039479,15.864899449618
$GPGGA,180732.00,3521.4715,N,12053.9821,W,1,10,0.8,11.5,M,-31.4,M,,*63
$PYRTM,2024,124.755263600336,15.864911010475
$GPGGA,180733.00,3521.4715,N,12053.9825,W,1,10,0.8,11.5,M,-31.4,M,,*66
$PYRTM,2024,124.755275187685,15.864922597824
$GPGGA,180734.00,3521.4716,N,12053.9828,W,1,10,0.8,11.4,M,-31.4,M,,*6E
$PYRTM,2024,124.755286748507,15.864934158646
$GPGGA,180735.00,3521.4716,N,12053.9832,W,1,10,0.8,11.2,M,-31.4,M,,*62
$PYRTM,2024,124.755298340359,15.864945750509
$GPGGA,180736.00,3521.4715,N,12053.9836,W,1,10,0.8,11.3,M,-31.4,M,,*67
$PYRTM,2024,124.755309898461,15.864957308600
$GPGGA,180737.00,3521.4713,N,12053.9839,W,1,10,0.8,11.3,M,-31.4,M,,*6F
$PYRTM,2024,124.755321486157,15.864968896296
$GPGGA,180738.00,3521.4713,N,12053.9843,W,1,10,0.8,11.2,M,-31.4,M,,*6C
$PYRTM,2024,124.755333045752,15.864980455891
$GPGGA,180739.00,3521.4714,N,12053.9846,W,1,10,0.8,11.1,M,-31.4,M,,*6C
$PYRTM,2024,124.755344633924,15.864992044063
$GPGGA,180740.00,3521.4715,N,12053.9850,W,1,10,0.8,10.9,M,-31.4,M,,*6D
$PYRTM,2024,124.755356192384,15.865003602523
$GPGGA,180741.00,3521.4714,N,12053.9855,W,1,10,0.8,11.0,M,-31.4,M,,*60
$PYRTM,2024,124.755367784213,15.865015194352
$GPGGA,180742.00,3521.4712,N,12053.9859,W,1,10,0.8,10.9,M,-31.4,M,,*61
$PYRTM,2024,124.755379341690,15.865026751829
$GPGGA,180743.00,3521.4711,N,12053.9863,W,1,10,0.8,11.0,M,-31.4,M,,*62
$PYRTM,2024,124.755390927940,15.865038338079
$GPGGA,180744.00,3521.4712,N,12053.9868,W,1,10,0.8,11.0,M,-31.4,M,,*6D
$PYRTM,2024,124.755402488588,15.865049898727
$GPGGA,180745.00,3521.4713,N,12053.9873,W,1,10,0.8,10.9,M,-31.4,M,,*6F
$PYRTM,2024,124.755414071620,15.865061481771
$GPGGA,180746.00,3521.4712,N,12053.9877,W,1,10,0.8,10.8,M,-31.4,M,,*68
$PYRTM,2024,124.755425636956,15.865073047095
$GPGGA,180747.00,3521.4712,N,12053.9880,W,1,10,0.8,10.8,M,-31.4,M,,*61
$PYRTM,2024,124.755437225116,15.865084635266
$GPGGA,180748.00,3521.4711,N,12053.9883,W,1,10,0.8,10.8,M,-31.4,M,,*6E
$PYRTM,2024,124.755448784780,15.865096194919
$GPGGA,180749.00,3521.4711,N,12053.9886,W,1,10,0.8,10.8,M,-31.4,M,,*6A
$PYRTM,2024,124.755460721088,15.865108131227
$GPGGA,180750.00,3521.4710,N,12053.9890,W,1,10,0.8,10.8,M,-31.4,M,,*64
$PYRTM,2024,124.755471934491,15.865119344630
$GPGGA,180751.00,3521.4709,N,12053.9893,W,1,10,0.8,10.7,M,-31.4,M,,*61
$PYRTM,2024,124.755483521806,15.865130931944
$GPGGA,180752.00,3521.4708,N,12053.9897,W,1,10,0.8,10.8,M,-31.4,M,,*68
$PYRTM,2024,124.755495082222,15.865142492373
$GPGGA,180753.00,3521.4709,N,12053.9902,W,1,10,0.8,10.8,M,-31.4,M,,*65
$PYRTM,2024,124.755506673414,15.865154083553
$GPGGA,180754.00,3521.4709,N,12053.9907,W,1,10,0.8,10.8,M,-31.4,M,,*67
$PYRTM,2024,124.755518229826,15.865165639965
$GPGGA,180755.00,3521.4708,N,12053.9911,W,1,10,0.8,10.7,M,-31.4,M,,*6F
$PYRTM,2024,124.755529832049,15.865177242187
$GPGGA,180756.00,3521.4706,N,12053.9913,W,1,10,0.8,10.8,M,-31.4,M,,*6F
$PYRTM,2024,124.755541379826,15.865188789965
$GPGGA,180757.00,3521.4706,N,12053.9915,W,1,10,0.8,10.8,M,-31.4,M,,*68
$PYRTM,2024,124.755552970185,15.865200380324
$GPGGA,180758.00,3521.4708,N,12053.9919,W,1,10,0.8,10.8,M,-31.4,M,,*65
$PYRTM,2024,124.755564526400,15.865211936539
$GPGGA,180759.00,3521.4709,N,12053.9924,W,1,10,0.8,10.8,M,-31.4,M,,*6B
$PYRTM,2024,124.755577143391,15.865224553530
$GPGGA,180800.00,3521.4707,N,12053.9928,W,1,10,0.8,10.8,M,-31.4,M,,*6A
$PYRTM,2024,124.755589874977,15.865237285127
$GPGGA,180801.00,3521.4704,N,12053.9932,W,1,10,0.8,10.7,M,-31.4,M,,*6C
$PYRTM,2024,124.755599262454,15.865246672593
$GPGGA,180802.00,3521.4703,N,12053.9936,W,1,10,0.8,10.7,M,-31.4,M,,*6C
$PYRTM,2024,124.755610824780,15.865258234919
$GPGGA,180803.00,3521.4704,N,12053.9940,W,1,10,0.8,10.6,M,-31.4,M,,*6A
$PYRTM,2024,124.755622410243,15.865269820382
$GPGGA,180804.00,3521.4706,N,12053.9945,W,1,10,0.8,10.6,M,-31.4,M,,*6A
$PYRTM,2024,124.755633972639,15.865281382789
$GPGGA,180805.00,3521.4705,N,12053.9949,W,1,10,0.8,10.6,M,-31.4,M,,*64
$PYRTM,2024,124.755645559433,15.865292969583
$GPGGA,180806.00,3521.4702,N,12053.9953,W,1,10,0.8,10.7,M,-31.4,M,,*6A
$PYRTM,2024,124.755657120694,15.865304530833
$GPGGA,180807.00,3521.4701,N,12053.9956,W,1,10,0.8,10.7,M,-31.4,M,,*6D
$PYRTM,2024,124.755668707419,15.865316117569
$GPGGA,180808.00,3521.4702,N,12053.9961,W,1,10,0.8,10.7,M,-31.4,M,,*65
$PYRTM,2024,124.755680268495,15.865327678646
$GPGGA,180809.00,3521.4704,N,12053.9965,W,1,10,0.8,10.7,M,-31.4,M,,*66
$PYRTM,2024,124.755691859387,15.865339269525
$GPGGA,180810.00,3521.4704,N,12053.9968,W,1,10,0.8,10.8,M,-31.4,M,,*6C
$PYRTM,2024,124.755703416042,15.865350826192
$GPGGA,180811.00,3521.4703,N,12053.9972,W,1,10,0.8,10.9,M,-31.4,M,,*60
$PYRTM,2024,124.755715007558,15.865362417697
$GPGGA,180812.00,3521.4701,N,12053.9975,W,1,10,0.8,10.9,M,-31.4,M,,*66
$PYRTM,2024,124.755726578681,15.865373988819
$GPGGA,180813.00,3521.4701,N,12053.9979,W,1,10,0.8,10.8,M,-31.4,M,,*6A
$PYRTM,2024,124.755738152951,15.865385563090
$GPGGA,180814.00,3521.4703,N,12053.9984,W,1,10,0.8,10.8,M,-31.4,M,,*6D
$PYRTM,2024,124.755749714850,15.865397124988
$GPGGA,180815.00,3521.4704,N,12053.9988,W,1,10,0.8,10.7,M,-31.4,M,,*68
$PYRTM,2024,124.755761289363,15.865408699502
$GPGGA,180816.00,3521.4703,N,12053.9991,W,1,10,0.8,10.7,M,-31.4,M,,*64
$PYRTM,2024,124.755772874259,15.865420284398
$GPGGA,180817.00,3521.4702,N,12053.9993,W,1,10,0.8,10.8,M,-31.4,M,,*69
$PYRTM,2024,124.755784450289,15.865431860440
$GPGGA,180818.00,3521.4700,N,12053.9997,W,1,10,0.8,10.6,M,-31.4,M,,*6E
$PYRTM,2024,124.755796023252,15.865443433391
$GPGGA,180819.00,3521.4702,N,12054.0001,W,1,10,0.8,10.8,M,-31.4,M,,*6B
$PYRTM,2024,124.755807597569,15.865455007708
$GPGGA,180820.00,3521.4704,N,12054.0005,W,1,10,0.8,11.3,M,-31.4,M,,*69
$PYRTM,2024,124.755819172546,15.865466582685
$GPGGA,180821.00,3521.4706,N,12054.0008,W,1,10,0.8,11.2,M,-31.4,M,,*66
$PYRTM,2024,124.755830733854,15.865478143993
$GPGGA,180822.00,3521.4706,N,12054.0010,W,1,10,0.8,11.3,M,-31.4,M,,*6D
$PYRTM,2024,124.755842307396,15.865489717535
$GPGGA,180823.00,3521.4704,N,12054.0012,W,1,10,0.8,10.9,M,-31.4,M,,*67
$PYRTM,2024,124.755853880961,15.865501291111
$GPGGA,180824.00,3521.4704,N,12054.0015,W,1,10,0.8,10.7,M,-31.4,M,,*69
$PYRTM,2024,124.755865467813,15.865512877951
$GPGGA,180825.00,3521.4705,N,12054.0020,W,1,10,0.8,10.8,M,-31.4,M,,*60
$PYRTM,2024,124.755877045775,15.865524455914
$GPGGA,180826.00,3521.4706,N,12054.0024,W,1,10,0.8,10.8,M,-31.4,M,,*64
$PYRTM,2024,124.755888603171,15.865536013322
$GPGGA,180827.00,3521.4705,N,12054.0027,W,1,10,0.8,11.0,M,-31.4,M,,*6C
$PYRTM,2024,124.755900193310,15.865547603449
$GPGGA,180828.00,3521.4702,N,12054.0030,W,1,10,0.8,10.9,M,-31.4,M,,*6A
$PYRTM,2024,124.755911751169,15.865559161308
$GPGGA,180829.00,3521.4701,N,12054.0034,W,1,10,0.8,11.0,M,-31.4,M,,*64
$PYRTM,2024,124.755924382928,15.865571793079
$GPGGA,180830.00,3521.4701,N,12054.0038,W,1,10,0.8,11.0,M,-31.4,M,,*60
$PYRTM,2024,124.755937098102,15.865584508241
$GPGGA,180831.00,3521.4702,N,12054.0043,W,1,10,0.8,11.0,M,-31.4,M,,*6E
$PYRTM,2024,124.755946475856,15.865593886007
$GPGGA,180832.00,3521.4702,N,12054.0048,W,1,10,0.8,11.1,M,-31.4,M,,*67
$PYRTM,2024,124.755958049271,15.865605459410
$GPGGA,180833.00,3521.4700,N,12054.0052,W,1,10,0.8,11.2,M,-31.4,M,,*6C
$PYRTM,2024,124.755969623738,15.865617033877
$GPGGA,180834.00,3521.4698,N,12054.0057,W,1,10,0.8,11.3,M,-31.4,M,,*6F
$PYRTM,2024,124.755981197269,15.865628607407
$GPGGA,180835.00,3521.4698,N,12054.0062,W,1,10,0.8,11.3,M,-31.4,M,,*68
$PYRTM,2024,124.755992770336,15.865640180486
$GPGGA,180836.00,3521.4698,N,12054.0067,W,1,10,0.8,11.4,M,-31.4,M,,*69
$PYRTM,2024,124.756004359028,15.865651769167
