$PYRTM,2024,124.500008994711,15.609656404850
$GPGGA,115959.00,3535.3829,N,12143.5372,W,1,12,0.8,0.1,M,-31.6,M,,*5B
$PYRTM,2024,124.500020584074,15.609667994213
$GPGGA,120000.00,3535.3849,N,12143.5377,W,1,12,0.8,-1.1,M,-31.6,M,,*77
$PYRTM,2024,124.500032145081,15.609679555220
$GPGGA,120001.00,3535.3869,N,12143.5380,W,1,12,0.8,-1.6,M,-31.6,M,,*7B
$PYRTM,2024,124.500043734120,15.609691144259
$GPGGA,120002.00,3535.3889,N,12143.5379,W,1,12,0.8,-3.5,M,-31.6,M,,*71
$PYRTM,2024,124.500055294595,15.609702704734
$GPGGA,120003.00,3535.3908,N,12143.5377,W,1,12,0.8,-2.7,M,-31.6,M,,*75
$PYRTM,2024,124.500066875625,15.609714285764
$GPGGA,120004.00,3535.3927,N,12143.5378,W,1,12,0.8,-1.4,M,-31.6,M,,*70
$PYRTM,2024,124.500078440775,15.609725850914
$GPGGA,120005.00,3535.3948,N,12143.5378,W,1,12,0.8,-2.0,M,-31.6,M,,*7F
$PYRTM,2024,124.500090028287,15.609737438426
$GPGGA,120006.00,3535.3971,N,12143.5381,W,1,12,0.8,-2.9,M,-31.6,M,,*79
$PYRTM,2024,124.500101589282,15.609748999421
$GPGGA,120007.00,3535.3991,N,12143.5385,W,1,12,0.8,-4.3,M,-31.6,M,,*7E
$PYRTM,2024,124.500113176505,15.609760586644
$GPGGA,120008.00,3535.4008,N,12143.5386,W,1,12,0.8,-2.3,M,-31.6,M,,*7A
$PYRTM,2024,124.500124634225,15.609772044363
$GPGGA,120009.00,3535.4026,N,12143.5379,W,1,12,0.8,-1.2,M,-31.6,M,,*75
$PYRTM,2024,124.500136209109,15.609783619248
$GPGGA,120010.00,3535.4050,N,12143.5375,W,1,12,0.8,-3.6,M,-31.6,M,,*76
$PYRTM,2024,124.500148361053,15.609795771192
$GPGGA,120011.00,3535.4073,N,12143.5381,W,1,12,0.8,-3.9,M,-31.6,M,,*72
$PYRTM,2024,124.500159922014,15.609807332153
$GPGGA,120012.00,3535.4090,N,12143.5391,W,1,12,0.8,-3.7,M,-31.6,M,,*73
$PYRTM,2024,124.500171509537,15.609818919676
$GPGGA,120013.00,3535.4105,N,12143.5394,W,1,12,0.8,-1.4,M,-31.6,M,,*7B
$PYRTM,2024,124.500183070845,15.609830480984
$GPGGA,120014.00,3535.4124,N,12143.5389,W,1,12,0.8,-1.2,M,-31.6,M,,*75
$PYRTM,2024,124.500194660833,15.609842070972
$GPGGA,120015.00,3535.4145,N,12143.5387,W,1,12,0.8,-1.5,M,-31.6,M,,*7A
$PYRTM,2024,124.500206697789,15.609854107928
$GPGGA,120016.00,3535.4164,N,12143.5391,W,1,12,0.8,-1.0,M,-31.6,M,,*78
$PYRTM,2024,124.500217806563,15.609865216701
$GPGGA,120017.00,3535.4180,N,12143.5399,W,1,12,0.8,-0.1,M,-31.6,M,,*7B
$PYRTM,2024,124.500229366192,15.609876776331
$GPGGA,120018.00,3535.4196,N,12143.5405,W,1,12,0.8,0.5,M,-31.6,M,,*58
$PYRTM,2024,124.500240954236,15.609888364375
$GPGGA,120019.00,3535.4216,N,12143.5404,W,1,12,0.8,-1.2,M,-31.6,M,,*78
$PYRTM,2024,124.500252516134,15.609899926273
$GPGGA,120020.00,3535.4237,N,12143.5401,W,1,12,0.8,-1.9,M,-31.6,M,,*7F
$PYRTM,2024,124.500265260475,15.609912670613
$GPGGA,120021.00,3535.4258,N,12143.5402,W,1,12,0.8,-1.7,M,-31.6,M,,*7A
$PYRTM,2024,124.500277401713,15.609924811852
$GPGGA,120022.00,3535.4278,N,12143.5409,W,1,12,0.8,-3.3,M,-31.6,M,,*76
$PYRTM,2024,124.500286777106,15.609934187245
$GPGGA,120023.00,3535.4297,N,12143.5414,W,1,12,0.8,1.8,M,-31.6,M,,*5E
$PYRTM,2024,124.500298366736,15.609945776875
$GPGGA,120024.00,3535.4316,N,12143.5412,W,1,12,0.8,-1.9,M,-31.6,M,,*7B
$PYRTM,2024,124.500309923935,15.609957334074
$GPGGA,120025.00,3535.4336,N,12143.5409,W,1,12,0.8,-2.1,M,-31.6,M,,*79
$PYRTM,2024,124.500321513113,15.609968923252
$GPGGA,120026.00,3535.4359,N,12143.5411,W,1,12,0.8,-3.1,M,-31.6,M,,*7B
$PYRTM,2024,124.500333072060,15.609980482199
$GPGGA,120027.00,3535.4380,N,12143.5417,W,1,12,0.8,-3.2,M,-31.6,M,,*7B
$PYRTM,2024,124.500344659306,15.609992069444
$GPGGA,120028.00,3535.4397,N,12143.5422,W,1,12,0.8,-1.7,M,-31.6,M,,*73
$PYRTM,2024,124.500356219965,15.610003630104
$GPGGA,120029.00,3535.4414,N,12143.5421,W,1,12,0.8,-0.6,M,-31.6,M,,*7D
$PYRTM,2024,124.500367821516,15.610015231655
$GPGGA,120030.00,3535.4435,N,12143.5414,W,1,12,0.8,-1.7,M,-31.6,M,,*70
$PYRTM,2024,124.500379370984,15.610026781134
$GPGGA,120031.00,3535.4457,N,12143.5414,W,1,12,0.8,-4.9,M,-31.6,M,,*7E
$PYRTM,2024,124.500390955903,15.610038366042
$GPGGA,120032.00,3535.4475,N,12143.5421,W,1,12,0.8,-3.4,M,-31.6,M,,*71
$PYRTM,2024,124.500402517569,15.610049927708
$GPGGA,120033.00,3535.4491,N,12143.5427,W,1,12,0.8,-0.2,M,-31.6,M,,*79
$PYRTM,2024,124.500413177870,15.610060588009
$GPGGA,120034.00,3535.4510,N,12143.5427,W,1,12,0.8,-1.1,M,-31.6,M,,*74
$PYRTM,2024,124.500426272222,15.610073682361
$GPGGA,120035.00,3535.4530,N,12143.5423,W,1,12,0.8,-5.5,M,-31.6,M,,*73
$PYRTM,2024,124.500437006181,15.610084416319
$GPGGA,120036.00,3535.4548,N,12143.5421,W,1,12,0.8,-4.4,M,-31.6,M,,*7D
$PYRTM,2024,124.500448117870,15.610095528009
$GPGGA,120037.00,3535.4566,N,12143.5423,W,1,12,0.8,-4.8,M,-31.6,M,,*7E
$PYRTM,2024,124.500459228160,15.610106638299
$GPGGA,120038.00,3535.4585,N,12143.5428,W,1,12,0.8,-3.5,M,-31.6,M,,*7D
$PYRTM,2024,124.500470339201,15.610117749340
$GPGGA,120039.00,3535.4604,N,12143.5431,W,1,12,0.8,-3.6,M,-31.6,M,,*7D
$PYRTM,2024,124.500481581690,15.610128991829
$GPGGA,120040.00,3535.4623,N,12143.5429,W,1,12,0.8,-2.9,M,-31.6,M,,*71
$PYRTM,2024,124.500492693715,15.610140103854
$GPGGA,120041.00,3535.4641,N,12143.5427,W,1,12,0.8,-1.8,M,-31.6,M,,*78
$PYRTM,2024,124.500503806667,15.610151216806
$GPGGA,120042.00,3535.4663,N,12143.5427,W,1,12,0.8,-2.0,M,-31.6,M,,*70
$PYRTM,2024,124.500514916435,15.610162326574
$GPGGA,120043.00,3535.4685,N,12143.5431,W,1,12,0.8,-1.6,M,-31.6,M,,*7B
$PYRTM,2024,124.500526155972,15.610173566111
$GPGGA,120044.00,3535.4705,N,12143.5435,W,1,12,0.8,-0.7,M,-31.6,M,,*71
$PYRTM,2024,124.500537252662,15.610184662789
$GPGGA,120045.00,3535.4722,N,12143.5436,W,1,12,0.8,1.3,M,-31.6,M,,*5E
$PYRTM,2024,124.500548363032,15.610195773171
$GPGGA,120046.00,3535.4742,N,12143.5433,W,1,12,0.8,-1.0,M,-31.6,M,,*70
$PYRTM,2024,124.500559924572,15.610207334711
$GPGGA,120047.00,3535.4763,N,12143.5431,W,1,12,0.8,0.1,M,-31.6,M,,*5D
$PYRTM,2024,124.500572670035,15.610220080174
$GPGGA,120048.00,3535.4784,N,12143.5436,W,1,12,0.8,-0.6,M,-31.6,M,,*76
$PYRTM,2024,124.500583775706,15.610231185845
$GPGGA,120049.00,3535.4804,N,12143.5443,W,1,12,0.8,0.7,M,-31.6,M,,*5E
$PYRTM,2024,124.500594891620,15.610242301759
$GPGGA,120050.00,3535.4823,N,12143.5446,W,1,12,0.8,1.4,M,-31.6,M,,*54
$PYRTM,2024,124.500606003252,15.610253413391
$GPGGA,120051.00,3535.4843,N,12143.5441,W,1,12,0.8,0.1,M,-31.6,M,,*50
$PYRTM,2024,124.500621267697,15.610268677836
$GPGGA,120052.00,3535.4863,N,12143.5437,W,1,12,0.8,-1.6,M,-31.6,M,,*7B
$PYRTM,2024,124.500632854734,15.610280264873
$GPGGA,120053.00,3535.4884,N,12143.5440,W,1,12,0.8,-2.8,M,-31.6,M,,*7E
$PYRTM,2024,124.500644415150,15.610291825289
$GPGGA,120054.00,3535.4901,N,12143.5448,W,1,12,0.8,0.3,M,-31.6,M,,*59
$PYRTM,2024,124.500656004051,15.610303414201
$GPGGA,120055.00,3535.4916,N,12143.5450,W,1,12,0.8,0.6,M,-31.6,M,,*52
$PYRTM,2024,124.500667563773,15.610314973912
$GPGGA,120056.00,3535.4934,N,12143.5445,W,1,12,0.8,-2.4,M,-31.6,M,,*78
$PYRTM,2024,124.500679151806,15.610326561944
$GPGGA,120057.00,3535.4955,N,12143.5440,W,1,12,0.8,-2.2,M,-31.6,M,,*7D
$PYRTM,2024,124.500690711701,15.610338121840
$GPGGA,120058.00,3535.4975,N,12143.5444,W,1,12,0.8,-3.8,M,-31.6,M,,*7F
$PYRTM,2024,124.500702299653,15.610349709792
$GPGGA,120059.00,3535.4991,N,12143.5453,W,1,12,0.8,-2.3,M,-31.6,M,,*78
$PYRTM,2024,124.500713860556,15.610361271539
$GPGGA,120100.00,3535.5009,N,12143.5455,W,1,12,0.8,1.3,M,-31.6,M,,*54
$PYRTM,2024,124.500725898681,15.610373308819
$GPGGA,120101.00,3535.5030,N,12143.5449,W,1,12,0.8,-2.1,M,-31.6,M,,*7E
$PYRTM,2024,124.500737139016,15.610384549167
$GPGGA,120102.00,3535.5052,N,12143.5447,W,1,12,0.8,-3.0,M,-31.6,M,,*77
$PYRTM,2024,124.500748594398,15.610396004537
$GPGGA,120103.00,3535.5070,N,12143.5452,W,1,12,0.8,-2.1,M,-31.6,M,,*72
$PYRTM,2024,124.500760157187,15.610407567326
$GPGGA,120104.00,3535.5087,N,12143.5458,W,1,12,0.8,-2.2,M,-31.6,M,,*74
$PYRTM,2024,124.500771740602,15.610419150741
$GPGGA,120105.00,3535.5107,N,12143.5458,W,1,12,0.8,-2.5,M,-31.6,M,,*7B
$PYRTM,2024,124.500783305405,15.610430715544
$GPGGA,120106.00,3535.5129,N,12143.5455,W,1,12,0.8,-3.3,M,-31.6,M,,*7E
$PYRTM,2024,124.500794893310,15.610442303449
$GPGGA,120107.00,3535.5150,N,12143.5457,W,1,12,0.8,-4.0,M,-31.6,M,,*77
$PYRTM,2024,124.500806454259,15.610453864398
$GPGGA,120108.00,3535.5168,N,12143.5462,W,1,12,0.8,-0.7,M,-31.6,M,,*76
$PYRTM,2024,124.500818042523,15.610465452674
$GPGGA,120109.00,3535.5187,N,12143.5465,W,1,12,0.8,2.0,M,-31.6,M,,*59
$PYRTM,2024,124.500829602789,15.610477012928
$GPGGA,120110.00,3535.5208,N,12143.5467,W,1,12,0.8,1.7,M,-31.6,M,,*53
$PYRTM,2024,124.500841191563,15.610488601701
$GPGGA,120111.00,3535.5227,N,12143.5467,W,1,12,0.8,0.7,M,-31.6,M,,*5E
$PYRTM,2024,124.500852750544,15.610500160683
$GPGGA,120112.00,3535.5247,N,12143.5466,W,1,12,0.8,-0.2,M,-31.6,M,,*72
$PYRTM,2024,124.500864338866,15.610511749005
$GPGGA,120113.00,3535.5268,N,12143.5467,W,1,12,0.8,-0.3,M,-31.6,M,,*7E
$PYRTM,2024,124.500875898414,15.610523308553
$GPGGA,120114.00,3535.5288,N,12143.5471,W,1,12,0.8,1.7,M,-31.6,M,,*58
$PYRTM,2024,124.500887487407,15.610534897546
$GPGGA,120115.00,3535.5307,N,12143.5473,W,1,12,0.8,0.7,M,-31.6,M,,*5C
$PYRTM,2024,124.500899524329,15.610546934468
$GPGGA,120116.00,3535.5328,N,12143.5474,W,1,12,0.8,-0.2,M,-31.6,M,,*7D
$PYRTM,2024,124.500910854549,15.610558264687
$GPGGA,120117.00,3535.5349,N,12143.5473,W,1,12,0.8,-1.4,M,-31.6,M,,*7B
$PYRTM,2024,124.500922195220,15.610569605359
$GPGGA,120118.00,3535.5368,N,12143.5474,W,1,12,0.8,1.1,M,-31.6,M,,*58
$PYRTM,2024,124.500933784757,15.610581194896
$GPGGA,120119.00,3535.5387,N,12143.5475,W,1,12,0.8,0.3,M,-31.6,M,,*5A
$PYRTM,2024,124.500945344028,15.610592754167
$GPGGA,120120.00,3535.5408,N,12143.5475,W,1,12,0.8,-1.9,M,-31.6,M,,*76
$PYRTM,2024,124.500958076736,15.610605486875
$GPGGA,120121.00,3535.5428,N,12143.5478,W,1,12,0.8,-1.8,M,-31.6,M,,*79
$PYRTM,2024,124.500969651759,15.610617061898
$GPGGA,120122.00,3535.5446,N,12143.5481,W,1,12,0.8,1.1,M,-31.6,M,,*50
$PYRTM,2024,124.500981227407,15.610628637546
$GPGGA,120123.00,3535.5466,N,12143.5483,W,1,12,0.8,-0.6,M,-31.6,M,,*7A
$PYRTM,2024,124.500992803403,15.610640213542
$GPGGA,120124.00,3535.5487,N,12143.5481,W,1,12,0.8,-3.6,M,-31.6,M,,*73
$PYRTM,2024,124.501004372731,15.610651782870
$GPGGA,120125.00,3535.5508,N,12143.5479,W,1,12,0.8,-3.9,M,-31.6,M,,*7C
$PYRTM,2024,124.501015964005,15.610663374144
$GPGGA,120126.00,3535.5528,N,12143.5480,W,1,12,0.8,-2.4,M,-31.6,M,,*77
$PYRTM,2024,124.501027521586,15.610674931725
$GPGGA,120127.00,3535.5548,N,12143.5483,W,1,12,0.8,1.2,M,-31.6,M,,*5B
$PYRTM,2024,124.501039112569,15.610686522708
$GPGGA,120128.00,3535.5568,N,12143.5487,W,1,12,0.8,2.5,M,-31.6,M,,*56
$PYRTM,2024,124.501050671551,15.610698081690
$GPGGA,120129.00,3535.5589,N,12143.5489,W,1,12,0.8,0.3,M,-31.6,M,,*52
$PYRTM,2024,124.501062262095,15.610709672245
$GPGGA,120130.00,3535.5608,N,12143.5487,W,1,12,0.8,-0.7,M,-31.6,M,,*77
$PYRTM,2024,124.501073820255,15.610721230394
$GPGGA,120131.00,3535.5627,N,12143.5486,W,1,12,0.8,1.3,M,-31.6,M,,*52
$PYRTM,2024,124.501085405752,15.610732815891
$GPGGA,120132.00,3535.5647,N,12143.5487,W,1,12,0.8,1.1,M,-31.6,M,,*54
$PYRTM,2024,124.501096966794,15.610744376933
$GPGGA,120133.00,3535.5668,N,12143.5491,W,1,12,0.8,1.4,M,-31.6,M,,*5A
$PYRTM,2024,124.501108554630,15.610755964769
$GPGGA,120134.00,3535.5688,N,12143.5495,W,1,12,0.8,1.7,M,-31.6,M,,*54
$PYRTM,2024,124.501120115023,15.610767525162
$GPGGA,120135.00,3535.5705,N,12143.5495,W,1,12,0.8,2.5,M,-31.6,M,,*50
$PYRTM,2024,124.501131702951,15.610779113090
$GPGGA,120136.00,3535.5722,N,12143.5491,W,1,12,0.8,1.5,M,-31.6,M,,*51
$PYRTM,2024,124.501143264560,15.610790674699
$GPGGA,120137.00,3535.5742,N,12143.5489,W,1,12,0.8,0.7,M,-31.6,M,,*5C
$PYRTM,2024,124.501154845787,15.610802255926
$GPGGA,120138.00,3535.5764,N,12143.5491,W,1,12,0.8,-1.4,M,-31.6,M,,*71
$PYRTM,2024,124.501166414190,15.610813824329
$GPGGA,120139.00,3535.5783,N,12143.5498,W,1,12,0.8,-0.5,M,-31.6,M,,*70
$PYRTM,2024,124.501177999086,15.610825409225
$GPGGA,120140.00,3535.5800,N,12143.5501,W,1,12,0.8,1.5,M,-31.6,M,,*57
$PYRTM,2024,124.501189561956,15.610836972095
$GPGGA,120141.00,3535.5818,N,12143.5498,W,1,12,0.8,0.5,M,-31.6,M,,*5F
$PYRTM,2024,124.501201150567,15.610848560706
$GPGGA,120142.00,3535.5839,N,12143.5497,W,1,12,0.8,-3.0,M,-31.6,M,,*7B
$PYRTM,2024,124.501212708900,15.610860119039
$GPGGA,120143.00,3535.5860,N,12143.5499,W,1,12,0.8,-4.1,M,-31.6,M,,*7E
$PYRTM,2024,124.501224298773,15.610871708912
$GPGGA,120144.00,3535.5879,N,12143.5503,W,1,12,0.8,-4.0,M,-31.6,M,,*72
$PYRTM,2024,124.501235858264,15.610883268403
$GPGGA,120145.00,3535.5899,N,12143.5503,W,1,12,0.8,-1.5,M,-31.6,M,,*7D
$PYRTM,2024,124.501247894757,15.610895304896
$GPGGA,120146.00,3535.5921,N,12143.5502,W,1,12,0.8,-3.0,M,-31.6,M,,*7A
$PYRTM,2024,124.501259361088,15.610906771227
$GPGGA,120147.00,3535.5943,N,12143.5503,W,1,12,0.8,-3.4,M,-31.6,M,,*7A
$PYRTM,2024,124.501270592697,15.610918002836
$GPGGA,120148.00,3535.5961,N,12143.5504,W,1,12,0.8,-3.3,M,-31.6,M,,*75
$PYRTM,2024,124.501282154769,15.610929564907
$GPGGA,120149.00,3535.5979,N,12143.5502,W,1,12,0.8,-0.9,M,-31.6,M,,*72
$PYRTM,2024,124.501293739734,15.610941149873
$GPGGA,120150.00,3535.6001,N,12143.5500,W,1,12,0.8,-1.7,M,-31.6,M,,*72
$PYRTM,2024,124.501306821840,15.610954231979
$GPGGA,120151.00,3535.6023,N,12143.5502,W,1,12,0.8,-1.7,M,-31.6,M,,*71
$PYRTM,2024,124.501319076146,15.610966486285
$GPGGA,120152.00,3535.6042,N,12143.5505,W,1,12,0.8,-0.1,M,-31.6,M,,*75
$PYRTM,2024,124.501328452361,15.610975862500
$GPGGA,120153.00,3535.6059,N,12143.5506,W,1,12,0.8,0.1,M,-31.6,M,,*50
$PYRTM,2024,124.501340051331,15.610987461470
$GPGGA,120154.00,3535.6078,N,12143.5504,W,1,12,0.8,-1.7,M,-31.6,M,,*7C
$PYRTM,2024,124.501351597998,15.610999008137
$GPGGA,120155.00,3535.6099,N,12143.5504,W,1,12,0.8,-3.3,M,-31.6,M,,*74
$PYRTM,2024,124.501363198877,15.611010609016
$GPGGA,120156.00,3535.6117,N,12143.5506,W,1,12,0.8,-3.3,M,-31.6,M,,*72
$PYRTM,2024,124.501374746296,15.611022156435
$GPGGA,120157.00,3535.6135,N,12143.5509,W,1,12,0.8,-2.0,M,-31.6,M,,*7E
$PYRTM,2024,124.501386338183,15.611033748322
$GPGGA,120158.00,3535.6155,N,12143.5510,W,1,12,0.8,-2.0,M,-31.6,M,,*7F
$PYRTM,2024,124.501397896829,15.611045306979
$GPGGA,120159.00,3535.6175,N,12143.5509,W,1,12,0.8,-2.2,M,-31.6,M,,*76
$PYRTM,2024,124.501409484109,15.611056894248
$GPGGA,120200.00,3535.6194,N,12143.5507,W,1,12,0.8,-2.0,M,-31.6,M,,*7A
$PYRTM,2024,124.501421044271,15.611068454410
$GPGGA,120201.00,3535.6216,N,12143.5508,W,1,12,0.8,-3.1,M,-31.6,M,,*7D
$PYRTM,2024,124.501432630370,15.611080040509
$GPGGA,120202.00,3535.6236,N,12143.5511,W,1,12,0.8,-1.7,M,-31.6,M,,*70
$PYRTM,2024,124.501444191620,15.611091601759
$GPGGA,120203.00,3535.6253,N,12143.5513,W,1,12,0.8,0.7,M,-31.6,M,,*5C
$PYRTM,2024,124.501455781817,15.611103191944
$GPGGA,120204.00,3535.6270,N,12143.5511,W,1,12,0.8,3.0,M,-31.6,M,,*5C
$PYRTM,2024,124.501467340104,15.611114750243
$GPGGA,120205.00,3535.6289,N,12143.5507,W,1,12,0.8,-0.3,M,-31.6,M,,*71
$PYRTM,2024,124.501478927407,15.611126337546
$GPGGA,120206.00,3535.6311,N,12143.5505,W,1,12,0.8,-2.5,M,-31.6,M,,*74
$PYRTM,2024,124.501490487199,15.611137897338
$GPGGA,120207.00,3535.6331,N,12143.5508,W,1,12,0.8,-3.4,M,-31.6,M,,*7A
$PYRTM,2024,124.501502064352,15.611149474491
$GPGGA,120208.00,3535.6350,N,12143.5512,W,1,12,0.8,-2.8,M,-31.6,M,,*74
$PYRTM,2024,124.501513638229,15.611161048368
$GPGGA,120209.00,3535.6371,N,12143.5515,W,1,12,0.8,-1.1,M,-31.6,M,,*7B
$PYRTM,2024,124.501525227153,15.611172637292
$GPGGA,120210.00,3535.6391,N,12143.5513,W,1,12,0.8,-3.1,M,-31.6,M,,*79
$PYRTM,2024,124.501536785602,15.611184195741
$GPGGA,120211.00,3535.6412,N,12143.5512,W,1,12,0.8,-4.4,M,-31.6,M,,*77
$PYRTM,2024,124.501548376111,15.611195786250
$GPGGA,120212.00,3535.6432,N,12143.5515,W,1,12,0.8,-2.9,M,-31.6,M,,*7A
$PYRTM,2024,124.501559933808,15.611207343947
$GPGGA,120213.00,3535.6451,N,12143.5522,W,1,12,0.8,-2.5,M,-31.6,M,,*76
$PYRTM,2024,124.501571524005,15.611218934144
$GPGGA,120214.00,3535.6469,N,12143.5525,W,1,12,0.8,-0.6,M,-31.6,M,,*7C
$PYRTM,2024,124.501582978796,15.611230388947
$GPGGA,120215.00,3535.6487,N,12143.5520,W,1,12,0.8,-3.8,M,-31.6,M,,*75
$PYRTM,2024,124.501595015937,15.611242426076
$GPGGA,120216.00,3535.6508,N,12143.5515,W,1,12,0.8,-4.1,M,-31.6,M,,*78
$PYRTM,2024,124.501606229468,15.611253639618
$GPGGA,120217.00,3535.6529,N,12143.5516,W,1,12,0.8,-2.1,M,-31.6,M,,*7F
$PYRTM,2024,124.501617817535,15.611265227674
$GPGGA,120218.00,3535.6547,N,12143.5521,W,1,12,0.8,-2.1,M,-31.6,M,,*7C
$PYRTM,2024,124.501629378819,15.611276788958
$GPGGA,120219.00,3535.6566,N,12143.5524,W,1,12,0.8,-1.4,M,-31.6,M,,*7D
$PYRTM,2024,124.501640965810,15.611288375949
$GPGGA,120220.00,3535.6588,N,12143.5522,W,1,12,0.8,-2.3,M,-31.6,M,,*75
$PYRTM,2024,124.501653569352,15.611300979491
$GPGGA,120221.00,3535.6610,N,12143.5518,W,1,12,0.8,-4.4,M,-31.6,M,,*7E
$PYRTM,2024,124.501666300880,15.611313711019
$GPGGA,120222.00,3535.6628,N,12143.5516,W,1,12,0.8,-2.0,M,-31.6,M,,*7A
$PYRTM,2024,124.501675675856,15.611323085995
$GPGGA,120223.00,3535.6646,N,12143.5520,W,1,12,0.8,-0.9,M,-31.6,M,,*7D
$PYRTM,2024,124.501687276690,15.611334686829
$GPGGA,120224.00,3535.6667,N,12143.5525,W,1,12,0.8,-0.8,M,-31.6,M,,*7D
$PYRTM,2024,124.501698824201,15.611346234340
$GPGGA,120225.00,3535.6686,N,12143.5527,W,1,12,0.8,-0.7,M,-31.6,M,,*7E
$PYRTM,2024,124.501710414271,15.611357824410
$GPGGA,120226.00,3535.6702,N,12143.5525,W,1,12,0.8,-2.1,M,-31.6,M,,*76
$PYRTM,2024,124.501721873090,15.611369283241
$GPGGA,120227.00,3535.6719,N,12143.5522,W,1,12,0.8,-3.2,M,-31.6,M,,*78
$PYRTM,2024,124.501733562222,15.611380972361
$GPGGA,120228.00,3535.6739,N,12143.5522,W,1,12,0.8,-2.1,M,-31.6,M,,*77
$PYRTM,2024,124.501745119109,15.611392529248
$GPGGA,120229.00,3535.6759,N,12143.5528,W,1,12,0.8,-2.3,M,-31.6,M,,*78
$PYRTM,2024,124.501756707211,15.611404117350
$GPGGA,120230.00,3535.6777,N,12143.5531,W,1,12,0.8,-0.6,M,-31.6,M,,*73
$PYRTM,2024,124.501768281400,15.611415691539
$GPGGA,120231.00,3535.6798,N,12143.5529,W,1,12,0.8,-5.2,M,-31.6,M,,*7B
$PYRTM,2024,124.501779855660,15.611427265810
$GPGGA,120232.00,3535.6819,N,12143.5526,W,1,12,0.8,-4.9,M,-31.6,M,,*7B
$PYRTM,2024,124.501791430000,15.611438840139
$GPGGA,120233.00,3535.6837,N,12143.5526,W,1,12,0.8,-4.3,M,-31.6,M,,*7C
$PYRTM,2024,124.501803003831,15.611450413970
$GPGGA,120234.00,3535.6856,N,12143.5527,W,1,12,0.8,-2.4,M,-31.6,M,,*7C
$PYRTM,2024,124.501814579005,15.611461989144
$GPGGA,120235.00,3535.6878,N,12143.5528,W,1,12,0.8,-3.3,M,-31.6,M,,*78
$PYRTM,2024,124.501826151991,15.611473562130
$GPGGA,120236.00,3535.6898,N,12143.5531,W,1,12,0.8,-0.3,M,-31.6,M,,*7E
$PYRTM,2024,124.501837713947,15.611485124086
$GPGGA,120237.00,3535.6916,N,12143.5535,W,1,12,0.8,0.1,M,-31.6,M,,*53
$PYRTM,2024,124.501849289132,15.611496699271
$GPGGA,120238.00,3535.6933,N,12143.5535,W,1,12,0.8,-2.3,M,-31.6,M,,*76
$PYRTM,2024,124.501859832639,15.611507242778
$GPGGA,120239.00,3535.6952,N,12143.5530,W,1,12,0.8,-1.1,M,-31.6,M,,*74
$PYRTM,2024,124.501872791470,15.611520201609
$GPGGA,120240.00,3535.6973,N,12143.5529,W,1,12,0.8,-3.0,M,-31.6,M,,*72
$PYRTM,2024,124.501883562199,15.611530972338
$GPGGA,120241.00,3535.6993,N,12143.5538,W,1,12,0.8,-1.8,M,-31.6,M,,*77
$PYRTM,2024,124.501895134213,15.611542544352
$GPGGA,120242.00,3535.7012,N,12143.5545,W,1,12,0.8,-2.5,M,-31.6,M,,*71
$PYRTM,2024,124.501906241204,15.611553651354
$GPGGA,120243.00,3535.7031,N,12143.5543,W,1,12,0.8,-1.1,M,-31.6,M,,*70
$PYRTM,2024,124.501917355648,15.611564765787
$GPGGA,120244.00,3535.7049,N,12143.5533,W,1,12,0.8,-1.2,M,-31.6,M,,*7C
$PYRTM,2024,124.501928461910,15.611575872049
$GPGGA,120245.00,3535.7071,N,12143.5526,W,1,12,0.8,-5.9,M,-31.6,M,,*7D
$PYRTM,2024,124.501939463565,15.611586873704
$GPGGA,120246.00,3535.7093,N,12143.5531,W,1,12,0.8,-2.2,M,-31.6,M,,*78
$PYRTM,2024,124.501951024387,15.611598434525
$GPGGA,120247.00,3535.7113,N,12143.5540,W,1,12,0.8,-2.6,M,-31.6,M,,*72
$PYRTM,2024,124.501962133032,15.611609543171
$GPGGA,120248.00,3535.7130,N,12143.5541,W,1,12,0.8,-0.5,M,-31.6,M,,*7C
$PYRTM,2024,124.501973375880,15.611620786019
$GPGGA,120249.00,3535.7149,N,12143.5533,W,1,12,0.8,-3.1,M,-31.6,M,,*71
$PYRTM,2024,124.501984357755,15.611631767894
$GPGGA,120250.00,3535.7171,N,12143.5526,W,1,12,0.8,-2.9,M,-31.6,M,,*7F
$PYRTM,2024,124.501995467789,15.611642877928
$GPGGA,120251.00,3535.7191,N,12143.5528,W,1,12,0.8,-2.4,M,-31.6,M,,*73
$PYRTM,2024,124.502010168877,15.611657579016
$GPGGA,120252.00,3535.7210,N,12143.5534,W,1,12,0.8,1.0,M,-31.6,M,,*5D
$PYRTM,2024,124.502021755498,15.611669165637
$GPGGA,120253.00,3535.7231,N,12143.5539,W,1,12,0.8,-0.8,M,-31.6,M,,*76
$PYRTM,2024,124.502033316192,15.611680726343
$GPGGA,120254.00,3535.7252,N,12143.5540,W,1,12,0.8,-2.1,M,-31.6,M,,*71
$PYRTM,2024,124.502044903738,15.611692313889
$GPGGA,120255.00,3535.7269,N,12143.5536,W,1,12,0.8,-1.8,M,-31.6,M,,*73
$PYRTM,2024,124.502056465671,15.611703875810
$GPGGA,120256.00,3535.7286,N,12143.5530,W,1,12,0.8,-1.5,M,-31.6,M,,*7A
$PYRTM,2024,124.502068054757,15.611715464896
$GPGGA,120257.00,3535.7307,N,12143.5529,W,1,12,0.8,-0.5,M,-31.6,M,,*7A
$PYRTM,2024,124.502079614850,15.611727024988
$GPGGA,120258.00,3535.7327,N,12143.5534,W,1,12,0.8,2.2,M,-31.6,M,,*53
$PYRTM,2024,124.502091202500,15.611738612639
$GPGGA,120259.00,3535.7345,N,12143.5539,W,1,12,0.8,2.9,M,-31.6,M,,*50
$PYRTM,2024,124.502102762269,15.611750172407
$GPGGA,120300.00,3535.7364,N,12143.5538,W,1,12,0.8,2.7,M,-31.6,M,,*51
$PYRTM,2024,124.502114363206,15.611761773345
$GPGGA,120301.00,3535.7385,N,12143.5533,W,1,12,0.8,0.6,M,-31.6,M,,*57
$PYRTM,2024,124.502125910347,15.611773320486
$GPGGA,120302.00,3535.7404,N,12143.5531,W,1,12,0.8,-0.4,M,-31.6,M,,*77
$PYRTM,2024,124.502137500949,15.611784911088
$GPGGA,120303.00,3535.7422,N,12143.5536,W,1,12,0.8,-0.9,M,-31.6,M,,*78
$PYRTM,2024,124.502149057558,15.611796467697
$GPGGA,120304.00,3535.7441,N,12143.5543,W,1,12,0.8,1.0,M,-31.6,M,,*5D
$PYRTM,2024,124.502160646157,15.611808056308
$GPGGA,120305.00,3535.7461,N,12143.5546,W,1,12,0.8,2.0,M,-31.6,M,,*58
$PYRTM,2024,124.502172208380,15.611819618519
$GPGGA,120306.00,3535.7481,N,12143.5544,W,1,12,0.8,0.4,M,-31.6,M,,*51
$PYRTM,2024,124.502183788854,15.611831198993
$GPGGA,120307.00,3535.7501,N,12143.5542,W,1,12,0.8,-1.0,M,-31.6,M,,*77
$PYRTM,2024,124.502195354803,15.611842764942
$GPGGA,120308.00,3535.7521,N,12143.5545,W,1,12,0.8,-3.2,M,-31.6,M,,*7D
$PYRTM,2024,124.502206945023,15.611854355162
$GPGGA,120309.00,3535.7542,N,12143.5550,W,1,12,0.8,-0.9,M,-31.6,M,,*75
$PYRTM,2024,124.502218503877,15.611865914016
$GPGGA,120310.00,3535.7560,N,12143.5554,W,1,12,0.8,-2.0,M,-31.6,M,,*72
$PYRTM,2024,124.502230090764,15.611877500903
$GPGGA,120311.00,3535.7580,N,12143.5554,W,1,12,0.8,-0.6,M,-31.6,M,,*79
$PYRTM,2024,124.502241650764,15.611889060903
$GPGGA,120312.00,3535.7599,N,12143.5551,W,1,12,0.8,0.3,M,-31.6,M,,*5F
$PYRTM,2024,124.502253241586,15.611900651725
$GPGGA,120313.00,3535.7621,N,12143.5548,W,1,12,0.8,-0.3,M,-31.6,M,,*7B
$PYRTM,2024,124.502264800301,15.611912210440
$GPGGA,120314.00,3535.7641,N,12143.5550,W,1,12,0.8,-0.7,M,-31.6,M,,*77
$PYRTM,2024,124.502276391736,15.611923801875
$GPGGA,120315.00,3535.7661,N,12143.5555,W,1,12,0.8,-1.1,M,-31.6,M,,*76
$PYRTM,2024,124.502288426331,15.611935836470
$GPGGA,120316.00,3535.7681,N,12143.5557,W,1,12,0.8,1.6,M,-31.6,M,,*53
$PYRTM,2024,124.502299538299,15.611946948438
$GPGGA,120317.00,3535.7702,N,12143.5553,W,1,12,0.8,-0.8,M,-31.6,M,,*7E
$PYRTM,2024,124.502311098935,15.611958509086
$GPGGA,120318.00,3535.7722,N,12143.5550,W,1,12,0.8,-3.0,M,-31.6,M,,*7B
$PYRTM,2024,124.502322679028,15.611970089167
$GPGGA,120319.00,3535.7741,N,12143.5554,W,1,12,0.8,-2.2,M,-31.6,M,,*78
$PYRTM,2024,124.502334246782,15.611981656921
$GPGGA,120320.00,3535.7762,N,12143.5560,W,1,12,0.8,-3.5,M,-31.6,M,,*72
$PYRTM,2024,124.502346993079,15.611994403218
$GPGGA,120321.00,3535.7783,N,12143.5563,W,1,12,0.8,-0.4,M,-31.6,M,,*7D
$PYRTM,2024,124.502358580382,15.612005990532
$GPGGA,120322.00,3535.7804,N,12143.5562,W,1,12,0.8,-2.3,M,-31.6,M,,*7A
$PYRTM,2024,124.502370142049,15.612017552188
$GPGGA,120323.00,3535.7823,N,12143.5560,W,1,12,0.8,-2.5,M,-31.6,M,,*7A
$PYRTM,2024,124.502381728981,15.612029139120
$GPGGA,120324.00,3535.7844,N,12143.5560,W,1,12,0.8,-5.9,M,-31.6,M,,*77
$PYRTM,2024,124.502393289931,15.612040700069
$GPGGA,120325.00,3535.7865,N,12143.5561,W,1,12,0.8,-1.9,M,-31.6,M,,*70
$PYRTM,2024,124.502404876516,15.612052286655
$GPGGA,120326.00,3535.7886,N,12143.5564,W,1,12,0.8,-0.7,M,-31.6,M,,*74
$PYRTM,2024,124.502416434792,15.612063844931
$GPGGA,120327.00,3535.7906,N,12143.5569,W,1,12,0.8,1.3,M,-31.6,M,,*59
$PYRTM,2024,124.502427995648,15.612075405787
$GPGGA,120328.00,3535.7922,N,12143.5569,W,1,12,0.8,1.1,M,-31.6,M,,*52
$PYRTM,2024,124.502439581933,15.612086992083
$GPGGA,120329.00,3535.7940,N,12143.5564,W,1,12,0.8,1.0,M,-31.6,M,,*5B
$PYRTM,2024,124.502451029282,15.612098439421
$GPGGA,120330.00,3535.7961,N,12143.5560,W,1,12,0.8,-0.8,M,-31.6,M,,*70
$PYRTM,2024,124.502463180729,15.612110590880
$GPGGA,120331.00,3535.7982,N,12143.5562,W,1,12,0.8,-0.1,M,-31.6,M,,*77
$PYRTM,2024,124.502474524375,15.612121934514
$GPGGA,120332.00,3535.8001,N,12143.5568,W,1,12,0.8,2.2,M,-31.6,M,,*5F
$PYRTM,2024,124.502485880764,15.612133290903
$GPGGA,120333.00,3535.8019,N,12143.5573,W,1,12,0.8,2.4,M,-31.6,M,,*5B
$PYRTM,2024,124.502497439039,15.612144849178
$GPGGA,120334.00,3535.8037,N,12143.5573,W,1,12,0.8,1.4,M,-31.6,M,,*53
$PYRTM,2024,124.502508912164,15.612156322303
$GPGGA,120335.00,3535.8059,N,12143.5568,W,1,12,0.8,2.0,M,-31.6,M,,*57
$PYRTM,2024,124.502520587569,15.612167997708
$GPGGA,120336.00,3535.8082,N,12143.5566,W,1,12,0.8,-0.4,M,-31.6,M,,*77
$PYRTM,2024,124.502532176609,15.612179586748
$GPGGA,120337.00,3535.8102,N,12143.5572,W,1,12,0.8,-0.8,M,-31.6,M,,*76
$PYRTM,2024,124.502543736065,15.612191146204
$GPGGA,120338.00,3535.8120,N,12143.5579,W,1,12,0.8,-0.3,M,-31.6,M,,*79
$PYRTM,2024,124.502555318831,15.612202728970
$GPGGA,120339.00,3535.8140,N,12143.5581,W,1,12,0.8,-1.5,M,-31.6,M,,*7E
$PYRTM,2024,124.502566884201,15.612214294340
$GPGGA,120340.00,3535.8161,N,12143.5577,W,1,12,0.8,-4.1,M,-31.6,M,,*7B
$PYRTM,2024,124.502578472188,15.612225882326
$GPGGA,120341.00,3535.8181,N,12143.5573,W,1,12,0.8,-4.0,M,-31.6,M,,*71
$PYRTM,2024,124.502590033993,15.612237444132
$GPGGA,120342.00,3535.8201,N,12143.5575,W,1,12,0.8,-2.7,M,-31.6,M,,*7E
$PYRTM,2024,124.502601621111,15.612249031250
$GPGGA,120343.00,3535.8222,N,12143.5580,W,1,12,0.8,-1.3,M,-31.6,M,,*73
$PYRTM,2024,124.502613180602,15.612260590741
$GPGGA,120344.00,3535.8241,N,12143.5585,W,1,12,0.8,1.5,M,-31.6,M,,*5F
$PYRTM,2024,124.502624769664,15.612272179803
$GPGGA,120345.00,3535.8258,N,12143.5587,W,1,12,0.8,1.2,M,-31.6,M,,*53
$PYRTM,2024,124.502636691065,15.612284101215
$GPGGA,120346.00,3535.8277,N,12143.5585,W,1,12,0.8,0.9,M,-31.6,M,,*55
$PYRTM,2024,124.502647917245,15.612295327384
$GPGGA,120347.00,3535.8297,N,12143.5581,W,1,12,0.8,-0.8,M,-31.6,M,,*72
$PYRTM,2024,124.502659477234,15.612306887373
$GPGGA,120348.00,3535.8318,N,12143.5582,W,1,12,0.8,-2.7,M,-31.6,M,,*75
$PYRTM,2024,124.502671065787,15.612318475926
$GPGGA,120349.00,3535.8338,N,12143.5587,W,1,12,0.8,1.5,M,-31.6,M,,*5F
$PYRTM,2024,124.502682625486,15.612330035625
$GPGGA,120350.00,3535.8358,N,12143.5591,W,1,12,0.8,3.2,M,-31.6,M,,*53
$PYRTM,2024,124.502695243287,15.612342653426
$GPGGA,120351.00,3535.8379,N,12143.5588,W,1,12,0.8,2.9,M,-31.6,M,,*53
$PYRTM,2024,124.502707987894,15.612355398032
$GPGGA,120352.00,3535.8399,N,12143.5584,W,1,12,0.8,0.6,M,-31.6,M,,*5F
$PYRTM,2024,124.502717357593,15.612364767731
$GPGGA,120353.00,3535.8418,N,12143.5583,W,1,12,0.8,-1.2,M,-31.6,M,,*7F
$PYRTM,2024,124.502728922141,15.612376332280
$GPGGA,120354.00,3535.8438,N,12143.5587,W,1,12,0.8,1.2,M,-31.6,M,,*53
$PYRTM,2024,124.502740510741,15.612387920880
$GPGGA,120355.00,3535.8457,N,12143.5590,W,1,12,0.8,0.6,M,-31.6,M,,*58
$PYRTM,2024,124.502752070301,15.612399480440
$GPGGA,120356.00,3535.8477,N,12143.5591,W,1,12,0.8,-0.7,M,-31.6,M,,*74
$PYRTM,2024,124.502763646933,15.612411057072
$GPGGA,120357.00,3535.8499,N,12143.5592,W,1,12,0.8,-2.9,M,-31.6,M,,*7A
$PYRTM,2024,124.502775218113,15.612422628252
$GPGGA,120358.00,3535.8520,N,12143.5592,W,1,12,0.8,-2.7,M,-31.6,M,,*78
$PYRTM,2024,124.502786807245,15.612434217384
$GPGGA,120359.00,3535.8539,N,12143.5593,W,1,12,0.8,-1.9,M,-31.6,M,,*7D
$PYRTM,2024,124.502798367708,15.612445777847
$GPGGA,120400.00,3535.8560,N,12143.5595,W,1,12,0.8,-3.0,M,-31.6,M,,*77
$PYRTM,2024,124.502809956192,15.612457366331
$GPGGA,120401.00,3535.8580,N,12143.5598,W,1,12,0.8,-2.6,M,-31.6,M,,*72
$PYRTM,2024,124.502821517106,15.612468927245
$GPGGA,120402.00,3535.8600,N,12143.5598,W,1,12,0.8,-0.1,M,-31.6,M,,*7F
$PYRTM,2024,124.502833103715,15.612480513854
$GPGGA,120403.00,3535.8620,N,12143.5597,W,1,12,0.8,-3.1,M,-31.6,M,,*70
$PYRTM,2024,124.502844663762,15.612492073900
$GPGGA,120404.00,3535.8640,N,12143.5597,W,1,12,0.8,-3.1,M,-31.6,M,,*71
$PYRTM,2024,124.502856252465,15.612503662604
$GPGGA,120405.00,3535.8660,N,12143.5599,W,1,12,0.8,-3.3,M,-31.6,M,,*7E
$PYRTM,2024,124.502867812350,15.612515222488
$GPGGA,120406.00,3535.8680,N,12143.5602,W,1,12,0.8,-1.0,M,-31.6,M,,*73
$PYRTM,2024,124.502879388229,15.612526798368
$GPGGA,120407.00,3535.8701,N,12143.5603,W,1,12,0.8,-1.6,M,-31.6,M,,*7D
$PYRTM,2024,124.502890959838,15.612538369977
$GPGGA,120408.00,3535.8722,N,12143.5603,W,1,12,0.8,-0.7,M,-31.6,M,,*73
$PYRTM,2024,124.502902536285,15.612549946424
$GPGGA,120409.00,3535.8744,N,12143.5602,W,1,12,0.8,-0.2,M,-31.6,M,,*76
$PYRTM,2024,124.502914109595,15.612561519734
$GPGGA,120410.00,3535.8763,N,12143.5605,W,1,12,0.8,0.9,M,-31.6,M,,*5A
$PYRTM,2024,124.502925685949,15.612573096088
$GPGGA,120411.00,3535.8783,N,12143.5607,W,1,12,0.8,1.8,M,-31.6,M,,*57
$PYRTM,2024,124.502937256817,15.612584666956
$GPGGA,120412.00,3535.8804,N,12143.5607,W,1,12,0.8,2.6,M,-31.6,M,,*59
$PYRTM,2024,124.502948840544,15.612596250683
$GPGGA,120413.00,3535.8825,N,12143.5606,W,1,12,0.8,2.9,M,-31.6,M,,*55
$PYRTM,2024,124.502960406586,15.612607816725
$GPGGA,120414.00,3535.8846,N,12143.5605,W,1,12,0.8,2.6,M,-31.6,M,,*5B
$PYRTM,2024,124.502971993449,15.612619403588
$GPGGA,120415.00,3535.8867,N,12143.5606,W,1,12,0.8,1.8,M,-31.6,M,,*57
$PYRTM,2024,124.502983914954,15.612631325093
$GPGGA,120416.00,3535.8889,N,12143.5607,W,1,12,0.8,2.2,M,-31.6,M,,*5C
$PYRTM,2024,124.502995128727,15.612642538866
$GPGGA,120417.00,3535.8910,N,12143.5608,W,1,12,0.8,2.6,M,-31.6,M,,*57
$PYRTM,2024,124.503006701933,15.612654112072
$GPGGA,120418.00,3535.8931,N,12143.5608,W,1,12,0.8,0.2,M,-31.6,M,,*5D
$PYRTM,2024,124.503018278056,15.612665688194
$GPGGA,120419.00,3535.8951,N,12143.5605,W,1,12,0.8,-1.3,M,-31.6,M,,*7A
$PYRTM,2024,124.503029852187,15.612677262326
$GPGGA,120420.00,3535.8973,N,12143.5604,W,1,12,0.8,-1.0,M,-31.6,M,,*72
$PYRTM,2024,124.503042944155,15.612690354294
$GPGGA,120421.00,3535.8994,N,12143.5605,W,1,12,0.8,0.8,M,-31.6,M,,*5F
$PYRTM,2024,124.503055210938,15.612702621076
$GPGGA,120422.00,3535.9014,N,12143.5608,W,1,12,0.8,0.6,M,-31.6,M,,*5F
$PYRTM,2024,124.503064586238,15.612711996377
$GPGGA,120423.00,3535.9034,N,12143.5608,W,1,12,0.8,2.3,M,-31.6,M,,*5B
$PYRTM,2024,124.503076146863,15.612723557002
$GPGGA,120424.00,3535.9053,N,12143.5607,W,1,12,0.8,-0.7,M,-31.6,M,,*79
$PYRTM,2024,124.503087725012,15.612735135150
$GPGGA,120425.00,3535.9073,N,12143.5605,W,1,12,0.8,-4.6,M,-31.6,M,,*7D
$PYRTM,2024,124.503099295058,15.612746705197
$GPGGA,120426.00,3535.9094,N,12143.5605,W,1,12,0.8,-4.0,M,-31.6,M,,*71
$PYRTM,2024,124.503110884479,15.612758294618
$GPGGA,120427.00,3535.9115,N,12143.5608,W,1,12,0.5,-2.4,M,-31.6,M,,*7A
$PYRTM,2024,124.503122445671,15.612769855810
$GPGGA,120428.00,3535.9136,N,12143.5611,W,1,12,0.8,-0.3,M,-31.6,M,,*74
$PYRTM,2024,124.503134034444,15.612781444583
$GPGGA,120429.00,3535.9156,N,12143.5614,W,1,12,0.8,1.2,M,-31.6,M,,*5B
$PYRTM,2024,124.503145591713,15.612793001852
$GPGGA,120430.00,3535.9176,N,12143.5613,W,1,12,0.5,1.6,M,-31.6,M,,*5F
$PYRTM,2024,124.503157064745,15.612804474884
$GPGGA,120431.00,3535.9196,N,12143.5609,W,1,12,0.5,1.3,M,-31.6,M,,*5E
$PYRTM,2024,124.503168740579,15.612816150718
$GPGGA,120432.00,3535.9219,N,12143.5606,W,1,12,0.8,-1.4,M,-31.6,M,,*71
$PYRTM,2024,124.503180330648,15.612827740787
$GPGGA,120433.00,3535.9242,N,12143.5611,W,1,12,0.5,0.3,M,-31.6,M,,*5E
$PYRTM,2024,124.503191889051,15.612839299201
$GPGGA,120434.00,3535.9262,N,12143.5619,W,1,12,0.5,1.4,M,-31.6,M,,*55
$PYRTM,2024,124.503203476597,15.612850886736
$GPGGA,120435.00,3535.9282,N,12143.5622,W,1,12,0.5,0.4,M,-31.6,M,,*53
$PYRTM,2024,124.503214922373,15.612862332512
$GPGGA,120436.00,3535.9300,N,12143.5615,W,1,12,0.5,1.3,M,-31.6,M,,*59
$PYRTM,2024,124.503226509549,15.612873919676
$GPGGA,120437.00,3535.9321,N,12143.5609,W,1,12,0.5,1.3,M,-31.6,M,,*56
$PYRTM,2024,124.503238185903,15.612885596042
$GPGGA,120438.00,3535.9343,N,12143.5612,W,1,12,0.8,-0.4,M,-31.6,M,,*71
$PYRTM,2024,124.503249770266,15.612897180405
$GPGGA,120439.00,3535.9363,N,12143.5621,W,1,12,0.5,0.3,M,-31.6,M,,*55
$PYRTM,2024,124.503261333727,15.612908743866
$GPGGA,120440.00,3535.9381,N,12143.5626,W,1,12,0.5,2.1,M,-31.6,M,,*50
$PYRTM,2024,124.503272921898,15.612920332037
$GPGGA,120441.00,3535.9399,N,12143.5623,W,1,12,0.5,1.7,M,-31.6,M,,*58
$PYRTM,2024,124.503284366725,15.612931776863
$GPGGA,120442.00,3535.9421,N,12143.5616,W,1,12,0.5,-1.4,M,-31.6,M,,*77
$PYRTM,2024,124.503296057500,15.612943467639
$GPGGA,120443.00,3535.9443,N,12143.5615,W,1,12,0.5,0.5,M,-31.6,M,,*5C
$PYRTM,2024,124.503306704977,15.612954115116
$GPGGA,120444.00,3535.9462,N,12143.5623,W,1,12,0.5,2.2,M,-31.6,M,,*58
$PYRTM,2024,124.503319668044,15.612967078183
$GPGGA,120445.00,3535.9480,N,12143.5630,W,1,12,0.5,4.3,M,-31.6,M,,*50
$PYRTM,2024,124.503330446771,15.612977856910
$GPGGA,120446.00,3535.9501,N,12143.5631,W,1,12,0.5,3.2,M,-31.6,M,,*5C
$PYRTM,2024,124.503342021979,15.612989432118
$GPGGA,120447.00,3535.9521,N,12143.5630,W,1,12,0.5,-0.5,M,-31.6,M,,*77
$PYRTM,2024,124.503353135544,15.613000545683
$GPGGA,120448.00,3535.9541,N,12143.5628,W,1,12,0.5,-2.2,M,-31.6,M,,*72
$PYRTM,2024,124.503364246123,15.613011656262
$GPGGA,120449.00,3535.9561,N,12143.5628,W,1,12,0.5,-3.5,M,-31.6,M,,*77
$PYRTM,2024,124.503375355590,15.613022765729
$GPGGA,120450.00,3535.9581,N,12143.5632,W,1,12,0.5,1.0,M,-31.6,M,,*50
$PYRTM,2024,124.503386465312,15.613033875451
$GPGGA,120451.00,3535.9602,N,12143.5636,W,1,12,0.5,2.4,M,-31.6,M,,*5A
$PYRTM,2024,124.503401035579,15.613048445718
$GPGGA,120452.00,3535.9623,N,12143.5637,W,1,12,0.5,0.3,M,-31.6,M,,*5E
$PYRTM,2024,124.503412261632,15.613059671771
$GPGGA,120453.00,3535.9643,N,12143.5633,W,1,12,0.5,-0.7,M,-31.6,M,,*74
$PYRTM,2024,124.503423371979,15.613070782130
$GPGGA,120454.00,3535.9666,N,12143.5630,W,1,12,0.5,-2.6,M,-31.6,M,,*74
$PYRTM,2024,124.503434482697,15.613081892836
$GPGGA,120455.00,3535.9687,N,12143.5633,W,1,12,0.5,-0.6,M,-31.6,M,,*7B
$PYRTM,2024,124.503448257488,15.613095667627
$GPGGA,120456.00,3535.9705,N,12143.5635,W,1,12,0.5,0.4,M,-31.6,M,,*5A
$PYRTM,2024,124.503459484120,15.613106894259
$GPGGA,120457.00,3535.9723,N,12143.5636,W,1,12,0.5,1.8,M,-31.6,M,,*51
$PYRTM,2024,124.503470594583,15.613118004722
$GPGGA,120458.00,3535.9743,N,12143.5635,W,1,12,0.5,-0.3,M,-31.6,M,,*7C
$PYRTM,2024,124.503481706458,15.613129116597
$GPGGA,120459.00,3535.9764,N,12143.5636,W,1,12,0.5,-1.1,M,-31.6,M,,*78
$PYRTM,2024,124.503492817581,15.613140227720
$GPGGA,120500.00,3535.9784,N,12143.5638,W,1,12,0.5,-1.3,M,-31.6,M,,*77
$PYRTM,2024,124.503503929456,15.613151339595
$GPGGA,120501.00,3535.9803,N,12143.5640,W,1,12,0.5,1.1,M,-31.6,M,,*56
$PYRTM,2024,124.503515040347,15.613162450486
$GPGGA,120502.00,3535.9823,N,12143.5640,W,1,12,0.5,3.1,M,-31.6,M,,*55
$PYRTM,2024,124.503526397188,15.613173807326
$GPGGA,120503.00,3535.9844,N,12143.5638,W,1,12,0.5,4.1,M,-31.6,M,,*5D
$PYRTM,2024,124.503537958727,15.613185368866
$GPGGA,120504.00,3535.9865,N,12143.5639,W,1,12,0.5,3.6,M,-31.6,M,,*58
$PYRTM,2024,124.503549547986,15.613196958137
$GPGGA,120505.00,3535.9886,N,12143.5641,W,1,12,0.5,0.6,M,-31.6,M,,*58
$PYRTM,2024,124.503561106308,15.613208516447
$GPGGA,120506.00,3535.9907,N,12143.5641,W,1,12,0.5,0.7,M,-31.6,M,,*52
$PYRTM,2024,124.503572694248,15.613220104387
$GPGGA,120507.00,3535.9923,N,12143.5639,W,1,12,0.5,1.1,M,-31.6,M,,*5D
$PYRTM,2024,124.503584254387,15.613231664525
$GPGGA,120508.00,3535.9942,N,12143.5633,W,1,12,0.5,1.5,M,-31.6,M,,*5B
$PYRTM,2024,124.503595842743,15.613243252894
$GPGGA,120509.00,3535.9965,N,12143.5631,W,1,12,0.5,-0.1,M,-31.6,M,,*75
$PYRTM,2024,124.503607402975,15.613254813113
$GPGGA,120510.00,3535.9988,N,12143.5636,W,1,12,0.5,0.5,M,-31.6,M,,*50
$PYRTM,2024,124.503619440926,15.613266851065
$GPGGA,120511.00,3536.0006,N,12143.5641,W,1,12,0.5,1.6,M,-31.6,M,,*56
$PYRTM,2024,124.503630550949,15.613277961088
$GPGGA,120512.00,3536.0023,N,12143.5637,W,1,12,0.5,4.6,M,-31.6,M,,*56
$PYRTM,2024,124.503642138148,15.613289548287
$GPGGA,120513.00,3536.0045,N,12143.5627,W,1,12,0.5,2.5,M,-31.6,M,,*53
$PYRTM,2024,124.503653699363,15.613301109502
$GPGGA,120514.00,3536.0066,N,12143.5624,W,1,12,0.5,2.0,M,-31.6,M,,*53
$PYRTM,2024,124.503665286435,15.613312696574
$GPGGA,120515.00,3536.0085,N,12143.5630,W,1,12,0.5,-0.5,M,-31.6,M,,*70
$PYRTM,2024,124.503677327836,15.613324737986
$GPGGA,120516.00,3536.0103,N,12143.5634,W,1,12,0.5,1.6,M,-31.6,M,,*57
$PYRTM,2024,124.503688430428,15.613335840567
$GPGGA,120517.00,3536.0122,N,12143.5630,W,1,12,0.5,2.0,M,-31.6,M,,*54
$PYRTM,2024,124.503699996285,15.613347406424
$GPGGA,120518.00,3536.0141,N,12143.5625,W,1,12,0.5,0.7,M,-31.6,M,,*5F
$PYRTM,2024,124.503711582373,15.613358992512
$GPGGA,120519.00,3536.0161,N,12143.5625,W,1,12,0.5,-0.3,M,-31.6,M,,*75
$PYRTM,2024,124.503723145660,15.613370555799
$GPGGA,120520.00,3536.0180,N,12143.5630,W,1,12,0.5,1.6,M,-31.6,M,,*5D
$PYRTM,2024,124.503735887975,15.613383298113
$GPGGA,120521.00,3536.0198,N,12143.5635,W,1,12,0.5,3.2,M,-31.6,M,,*56
$PYRTM,2024,124.503747334016,15.613394744155
$GPGGA,120522.00,3536.0218,N,12143.5634,W,1,12,0.5,3.4,M,-31.6,M,,*59
$PYRTM,2024,124.503758920544,15.613406330683
$GPGGA,120523.00,3536.0239,N,12143.5629,W,1,12,0.5,1.9,M,-31.6,M,,*58
$PYRTM,2024,124.503770484051,15.613417894190
$GPGGA,120524.00,3536.0260,N,12143.5628,W,1,12,0.5,-0.2,M,-31.6,M,,*75
$PYRTM,2024,124.503782173715,15.613429583854
$GPGGA,120525.00,3536.0280,N,12143.5633,W,1,12,0.5,0.5,M,-31.6,M,,*5A
$PYRTM,2024,124.503793745417,15.613441155556
$GPGGA,120526.00,3536.0298,N,12143.5637,W,1,12,0.5,1.2,M,-31.6,M,,*52
$PYRTM,2024,124.503805221516,15.613452631655
$GPGGA,120527.00,3536.0317,N,12143.5633,W,1,12,0.5,-1.6,M,-31.6,M,,*78
$PYRTM,2024,124.503816780347,15.613464190486
$GPGGA,120528.00,3536.0339,N,12143.5627,W,1,12,0.5,-0.1,M,-31.6,M,,*78
$PYRTM,2024,124.503828478333,15.613475888472
$GPGGA,120529.00,3536.0359,N,12143.5628,W,1,12,0.5,-0.6,M,-31.6,M,,*77
$PYRTM,2024,124.503840043669,15.613487453808
$GPGGA,120530.00,3536.0379,N,12143.5635,W,1,12,0.5,-0.5,M,-31.6,M,,*72
$PYRTM,2024,124.503851617986,15.613499028125
$GPGGA,120531.00,3536.0399,N,12143.5641,W,1,12,0.5,0.9,M,-31.6,M,,*5F
$PYRTM,2024,124.503863190995,15.613510601134
$GPGGA,120532.00,3536.0420,N,12143.5639,W,1,12,0.5,1.3,M,-31.6,M,,*5D
$PYRTM,2024,124.503874658657,15.613522068796
$GPGGA,120533.00,3536.0440,N,12143.5634,W,1,12,0.5,0.1,M,-31.6,M,,*54
$PYRTM,2024,124.503886341285,15.613533751435
$GPGGA,120534.00,3536.0460,N,12143.5634,W,1,12,0.5,-0.6,M,-31.6,M,,*7B
$PYRTM,2024,124.503897915995,15.613545326134
$GPGGA,120535.00,3536.0479,N,12143.5640,W,1,12,0.5,0.6,M,-31.6,M,,*5C
$PYRTM,2024,124.503909489225,15.613556899363
$GPGGA,120536.00,3536.0498,N,12143.5645,W,1,12,0.5,2.0,M,-31.6,M,,*51
$PYRTM,2024,124.503921063021,15.613568473160
$GPGGA,120537.00,3536.0517,N,12143.5646,W,1,12,0.5,5.1,M,-31.6,M,,*53
$PYRTM,2024,124.503932637894,15.613580048032
$GPGGA,120538.00,3536.0538,N,12143.5645,W,1,12,0.5,2.7,M,-31.6,M,,*53
$PYRTM,2024,124.503944227766,15.613591637905
$GPGGA,120539.00,3536.0558,N,12143.5644,W,1,12,0.5,1.4,M,-31.6,M,,*55
$PYRTM,2024,124.503955786956,15.613603197095
$GPGGA,120540.00,3536.0577,N,12143.5645,W,1,12,0.5,1.5,M,-31.6,M,,*56
$PYRTM,2024,124.503967373310,15.613614783449
$GPGGA,120541.00,3536.0596,N,12143.5648,W,1,12,0.5,2.5,M,-31.6,M,,*56
$PYRTM,2024,124.503978935150,15.613626345289
$GPGGA,120542.00,3536.0617,N,12143.5651,W,1,12,0.5,2.8,M,-31.6,M,,*5A
$PYRTM,2024,124.503990510255,15.613637920394
$GPGGA,120543.00,3536.0638,N,12143.5650,W,1,12,0.5,1.0,M,-31.6,M,,*5C
$PYRTM,2024,124.504002082650,15.613649492789
$GPGGA,120544.00,3536.0658,N,12143.5649,W,1,12,0.5,0.8,M,-31.6,M,,*5C
$PYRTM,2024,124.504013664375,15.613661074514
$GPGGA,120545.00,3536.0677,N,12143.5651,W,1,12,0.5,-0.2,M,-31.6,M,,*7E
$PYRTM,2024,124.504025605532,15.613673015671
$GPGGA,120546.00,3536.0695,N,12143.5655,W,1,12,0.5,0.1,M,-31.6,M,,*5B
$PYRTM,2024,124.504036817616,15.613684227755
$GPGGA,120547.00,3536.0715,N,12143.5656,W,1,12,0.5,0.7,M,-31.6,M,,*56
$PYRTM,2024,124.504048378368,15.613695788507
$GPGGA,120548.00,3536.0737,N,12143.5655,W,1,12,0.5,0.5,M,-31.6,M,,*58
$PYRTM,2024,124.504059961215,15.613707371354
$GPGGA,120549.00,3536.0758,N,12143.5655,W,1,12,0.5,-0.9,M,-31.6,M,,*71
$PYRTM,2024,124.504071527222,15.613718937373
$GPGGA,120550.00,3536.0777,N,12143.5659,W,1,12,0.5,0.8,M,-31.6,M,,*54
$PYRTM,2024,124.504084144178,15.613731554317
$GPGGA,120551.00,3536.0795,N,12143.5663,W,1,12,0.5,1.3,M,-31.6,M,,*5A
$PYRTM,2024,124.504096760440,15.613744170579
$GPGGA,120552.00,3536.0817,N,12143.5661,W,1,12,0.5,1.5,M,-31.6,M,,*58
$PYRTM,2024,124.504106266088,15.613753676227
$GPGGA,120553.00,3536.0840,N,12143.5658,W,1,12,0.5,-1.0,M,-31.6,M,,*79
$PYRTM,2024,124.504117823715,15.613765233866
$GPGGA,120554.00,3536.0862,N,12143.5657,W,1,12,0.5,0.7,M,-31.6,M,,*5A
$PYRTM,2024,124.504129415035,15.613776825174
$GPGGA,120555.00,3536.0881,N,12143.5658,W,1,12,0.5,1.7,M,-31.6,M,,*58
$PYRTM,2024,124.504140973206,15.613788383345
$GPGGA,120556.00,3536.0899,N,12143.5658,W,1,12,0.5,0.3,M,-31.6,M,,*57
$PYRTM,2024,124.504152561181,15.613799971319
$GPGGA,120557.00,3536.0919,N,12143.5658,W,1,12,0.5,0.3,M,-31.6,M,,*5F
$PYRTM,2024,124.504164119722,15.613811529861
$GPGGA,120558.00,3536.0940,N,12143.5659,W,1,12,0.5,0.2,M,-31.6,M,,*5C
$PYRTM,2024,124.504175702465,15.613823112604
$GPGGA,120559.00,3536.0959,N,12143.5663,W,1,12,0.5,2.8,M,-31.6,M,,*54
$PYRTM,2024,124.504187268414,15.613834678553
$GPGGA,120600.00,3536.0978,N,12143.5664,W,1,12,0.5,3.3,M,-31.6,M,,*55
$PYRTM,2024,124.504199191019,15.613846601157
$GPGGA,120601.00,3536.0997,N,12143.5662,W,1,12,0.5,2.7,M,-31.6,M,,*56
$PYRTM,2024,124.504210301667,15.613857711817
$GPGGA,120602.00,3536.1017,N,12143.5661,W,1,12,0.5,3.6,M,-31.6,M,,*56
$PYRTM,2024,124.504221999421,15.613869409572
$GPGGA,120603.00,3536.1038,N,12143.5663,W,1,12,0.5,3.5,M,-31.6,M,,*5B
$PYRTM,2024,124.504233565313,15.613880975451
$GPGGA,120604.00,3536.1057,N,12143.5668,W,1,12,0.5,4.0,M,-31.6,M,,*5C
$PYRTM,2024,124.504245140926,15.613892551076
$GPGGA,120605.00,3536.1075,N,12143.5672,W,1,12,0.5,1.8,M,-31.6,M,,*5B
$PYRTM,2024,124.504256713322,15.613904123461
$GPGGA,120606.00,3536.1095,N,12143.5672,W,1,12,0.5,0.5,M,-31.6,M,,*5A
$PYRTM,2024,124.504268189086,15.613915599225
$GPGGA,120607.00,3536.1115,N,12143.5670,W,1,12,0.5,0.8,M,-31.6,M,,*5D
$PYRTM,2024,124.504279861574,15.613927271713
$GPGGA,120608.00,3536.1136,N,12143.5669,W,1,12,0.5,0.0,M,-31.6,M,,*53
$PYRTM,2024,124.504291452141,15.613938862280
$GPGGA,120609.00,3536.1157,N,12143.5674,W,1,12,0.5,-0.5,M,-31.6,M,,*71
$PYRTM,2024,124.504303010081,15.613950420231
$GPGGA,120610.00,3536.1179,N,12143.5679,W,1,12,0.5,-0.1,M,-31.6,M,,*7C
$PYRTM,2024,124.504314592801,15.613962002951
$GPGGA,120611.00,3536.1198,N,12143.5678,W,1,12,0.5,-1.4,M,-31.6,M,,*77
$PYRTM,2024,124.504326159653,15.613973569792
$GPGGA,120612.00,3536.1217,N,12143.5674,W,1,12,0.5,-1.6,M,-31.6,M,,*7E
$PYRTM,2024,124.504337747257,15.613985157396
$GPGGA,120613.00,3536.1238,N,12143.5670,W,1,12,0.5,-1.2,M,-31.6,M,,*72
$PYRTM,2024,124.504349307581,15.613996717720
$GPGGA,120614.00,3536.1259,N,12143.5673,W,1,12,0.5,-1.4,M,-31.6,M,,*77
$PYRTM,2024,124.504360778831,15.614008188970
$GPGGA,120615.00,3536.1279,N,12143.5678,W,1,12,0.5,1.0,M,-31.6,M,,*56
$PYRTM,2024,124.504372818380,15.614020228519
$GPGGA,120616.00,3536.1297,N,12143.5681,W,1,12,0.5,0.8,M,-31.6,M,,*5A
$PYRTM,2024,124.504384043958,15.614031454097
$GPGGA,120617.00,3536.1317,N,12143.5678,W,1,12,0.5,-0.3,M,-31.6,M,,*72
$PYRTM,2024,124.504395605671,15.614043015810
$GPGGA,120618.00,3536.1338,N,12143.5674,W,1,12,0.5,-1.3,M,-31.6,M,,*7D
$PYRTM,2024,124.504407075856,15.614054485995
$GPGGA,120619.00,3536.1360,N,12143.5676,W,1,12,0.5,0.1,M,-31.6,M,,*5D
$PYRTM,2024,124.504418635949,15.614066046088
$GPGGA,120620.00,3536.1382,N,12143.5683,W,1,12,0.5,2.4,M,-31.6,M,,*56
$PYRTM,2024,124.504431370567,15.614078780718
$GPGGA,120621.00,3536.1400,N,12143.5688,W,1,12,0.5,3.9,M,-31.6,M,,*5D
$PYRTM,2024,124.504443985243,15.614091395382
$GPGGA,120622.00,3536.1420,N,12143.5684,W,1,12,0.5,3.6,M,-31.6,M,,*5F
$PYRTM,2024,124.504453386238,15.614100796377
$GPGGA,120623.00,3536.1443,N,12143.5677,W,1,12,0.5,2.3,M,-31.6,M,,*53
$PYRTM,2024,124.504464933657,15.614112343796
$GPGGA,120624.00,3536.1466,N,12143.5675,W,1,12,0.5,0.6,M,-31.6,M,,*56
$PYRTM,2024,124.504476534641,15.614123944780
$GPGGA,120625.00,3536.1484,N,12143.5682,W,1,12,0.5,2.0,M,-31.6,M,,*57
$PYRTM,2024,124.504488196632,15.614135606771
$GPGGA,120626.00,3536.1501,N,12143.5688,W,1,12,0.5,3.7,M,-31.6,M,,*54
$PYRTM,2024,124.504499669294,15.614147079433
$GPGGA,120627.00,3536.1522,N,12143.5690,W,1,12,0.5,1.0,M,-31.6,M,,*58
$PYRTM,2024,124.504511241817,15.614158651956
$GPGGA,120628.00,3536.1542,N,12143.5687,W,1,12,0.5,1.9,M,-31.6,M,,*5E
$PYRTM,2024,124.504522817581,15.614170227720
$GPGGA,120629.00,3536.1561,N,12143.5686,W,1,12,0.5,1.7,M,-31.6,M,,*51
$PYRTM,2024,124.504534391134,15.614181801273
$GPGGA,120630.00,3536.1581,N,12143.5689,W,1,12,0.5,1.5,M,-31.6,M,,*5A
$PYRTM,2024,124.504545965741,15.614193375891
$GPGGA,120631.00,3536.1601,N,12143.5694,W,1,12,0.5,2.5,M,-31.6,M,,*5F
$PYRTM,2024,124.504557538808,15.614204948947
$GPGGA,120632.00,3536.1620,N,12143.5697,W,1,12,0.5,1.5,M,-31.6,M,,*5F
$PYRTM,2024,124.504569218206,15.614216628345
$GPGGA,120633.00,3536.1640,N,12143.5697,W,1,12,0.5,-0.8,M,-31.6,M,,*79
$PYRTM,2024,124.504580791053,15.614228201192
$GPGGA,120634.00,3536.1660,N,12143.5696,W,1,12,0.5,-1.1,M,-31.6,M,,*75
$PYRTM,2024,124.504592264456,15.614239674595
$GPGGA,120635.00,3536.1680,N,12143.5697,W,1,12,0.5,0.0,M,-31.6,M,,*56
$PYRTM,2024,124.504603831759,15.614251241898
$GPGGA,120636.00,3536.1700,N,12143.5700,W,1,12,0.5,2.0,M,-31.6,M,,*51
$PYRTM,2024,124.504615412836,15.614262822975
$GPGGA,120637.00,3536.1721,N,12143.5703,W,1,12,0.5,2.1,M,-31.6,M,,*51
$PYRTM,2024,124.504626987616,15.614274397755
$GPGGA,120638.00,3536.1743,N,12143.5705,W,1,12,0.5,2.6,M,-31.6,M,,*5B
$PYRTM,2024,124.504638561007,15.614285971146
$GPGGA,120639.00,3536.1763,N,12143.5706,W,1,12,0.5,0.8,M,-31.6,M,,*57
$PYRTM,2024,124.504650235590,15.614297645729
$GPGGA,120640.00,3536.1783,N,12143.5706,W,1,12,0.5,-0.8,M,-31.6,M,,*7A
$PYRTM,2024,124.504661707361,15.614309117488
$GPGGA,120641.00,3536.1803,N,12143.5704,W,1,12,0.5,1.3,M,-31.6,M,,*59
$PYRTM,2024,124.504673279919,15.614320690058
$GPGGA,120642.00,3536.1823,N,12143.5705,W,1,12,0.5,2.5,M,-31.6,M,,*5C
$PYRTM,2024,124.504684858623,15.614332268773
$GPGGA,120643.00,3536.1844,N,12143.5710,W,1,12,0.5,1.5,M,-31.6,M,,*5B
$PYRTM,2024,124.504696429965,15.614343840104
$GPGGA,120644.00,3536.1863,N,12143.5713,W,1,12,0.5,2.1,M,-31.6,M,,*5D
$PYRTM,2024,124.504708107211,15.614355517350
$GPGGA,120645.00,3536.1883,N,12143.5710,W,1,12,0.5,-1.0,M,-31.6,M,,*7E
$PYRTM,2024,124.504720045648,15.614367455787
$GPGGA,120646.00,3536.1902,N,12143.5707,W,1,12,0.5,-0.7,M,-31.6,M,,*75
$PYRTM,2024,124.504731262558,15.614378672697
$GPGGA,120647.00,3536.1921,N,12143.5708,W,1,12,0.5,0.3,M,-31.6,M,,*53
$PYRTM,2024,124.504741901447,15.614389311586
$GPGGA,120648.00,3536.1942,N,12143.5712,W,1,12,0.5,1.9,M,-31.6,M,,*59
$PYRTM,2024,124.504754866875,15.614402277014
$GPGGA,120649.00,3536.1961,N,12143.5717,W,1,12,0.5,1.7,M,-31.6,M,,*52
$PYRTM,2024,124.504765644549,15.614413054688
$GPGGA,120650.00,3536.1980,N,12143.5717,W,1,12,0.5,2.2,M,-31.6,M,,*53
$PYRTM,2024,124.504776768484,15.614424178623
$GPGGA,120651.00,3536.2000,N,12143.5711,W,1,12,0.5,1.8,M,-31.6,M,,*5F
$PYRTM,2024,124.504791826331,15.614439236470
$GPGGA,120652.00,3536.2021,N,12143.5708,W,1,12,0.5,0.5,M,-31.6,M,,*5B
$PYRTM,2024,124.504802899954,15.614450310093
$GPGGA,120653.00,3536.2042,N,12143.5713,W,1,12,0.5,0.3,M,-31.6,M,,*53
$PYRTM,2024,124.504814022199,15.614461432338
$GPGGA,120654.00,3536.2061,N,12143.5721,W,1,12,0.5,1.7,M,-31.6,M,,*51
$PYRTM,2024,124.504825120417,15.614472530556
$GPGGA,120655.00,3536.2079,N,12143.5724,W,1,12,0.5,1.7,M,-31.6,M,,*5C
$PYRTM,2024,124.504836231042,15.614483641181
$GPGGA,120656.00,3536.2101,N,12143.5719,W,1,12,0.5,-1.0,M,-31.6,M,,*75
$PYRTM,2024,124.504847356400,15.614494766539
$GPGGA,120657.00,3536.2124,N,12143.5714,W,1,12,0.5,-1.6,M,-31.6,M,,*78
$PYRTM,2024,124.504858467407,15.614505877546
$GPGGA,120658.00,3536.2145,N,12143.5717,W,1,12,0.5,0.2,M,-31.6,M,,*5B
$PYRTM,2024,124.504869578785,15.614516988924
$GPGGA,120659.00,3536.2163,N,12143.5725,W,1,12,0.5,2.0,M,-31.6,M,,*5F
$PYRTM,2024,124.504884046690,15.614531456840
$GPGGA,120700.00,3536.2183,N,12143.5729,W,1,12,0.5,0.8,M,-31.6,M,,*5A
$PYRTM,2024,124.504895151771,15.614542561910
$GPGGA,120701.00,3536.2204,N,12143.5725,W,1,12,0.5,0.6,M,-31.6,M,,*55
$PYRTM,2024,124.504906388623,15.614553798773
$GPGGA,120702.00,3536.2224,N,12143.5719,W,1,12,0.5,-1.3,M,-31.6,M,,*72
$PYRTM,2024,124.504917483762,15.614564893900
$GPGGA,120703.00,3536.2242,N,12143.5718,W,1,12,0.5,-1.9,M,-31.6,M,,*78
$PYRTM,2024,124.504928607396,15.614576017535
$GPGGA,120704.00,3536.2262,N,12143.5723,W,1,12,0.5,-1.0,M,-31.6,M,,*7C
$PYRTM,2024,124.504939719028,15.614587129167
$GPGGA,120705.00,3536.2282,N,12143.5729,W,1,12,0.5,0.9,M,-31.6,M,,*5C
$PYRTM,2024,124.504950829190,15.614598239340
$GPGGA,120706.00,3536.2299,N,12143.5732,W,1,12,0.5,-0.3,M,-31.6,M,,*78
$PYRTM,2024,124.504961943623,15.614609353762
$GPGGA,120707.00,3536.2318,N,12143.5729,W,1,12,0.5,0.6,M,-31.6,M,,*53
$PYRTM,2024,124.504973168079,15.614620578229
$GPGGA,120708.00,3536.2339,N,12143.5725,W,1,12,0.5,-0.9,M,-31.6,M,,*71
$PYRTM,2024,124.504984726863,15.614632137002
$GPGGA,120709.00,3536.2358,N,12143.5727,W,1,12,0.5,0.7,M,-31.6,M,,*56
$PYRTM,2024,124.504996316296,15.614643726435
$GPGGA,120710.00,3536.2375,N,12143.5731,W,1,12,0.5,1.2,M,-31.6,M,,*52
$PYRTM,2024,124.505007875486,15.614655285625
$GPGGA,120711.00,3536.2396,N,12143.5735,W,1,12,0.5,1.5,M,-31.6,M,,*5D
$PYRTM,2024,124.505019459120,15.614666869259
$GPGGA,120712.00,3536.2415,N,12143.5737,W,1,12,0.5,1.7,M,-31.6,M,,*52
$PYRTM,2024,124.505031022593,15.614678432731
$GPGGA,120713.00,3536.2431,N,12143.5736,W,1,12,0.5,3.0,M,-31.6,M,,*51
$PYRTM,2024,124.505042611829,15.614690021968
$GPGGA,120714.00,3536.2448,N,12143.5733,W,1,12,0.5,3.4,M,-31.6,M,,*59
$PYRTM,2024,124.505054173044,15.614701583183
$GPGGA,120715.00,3536.2467,N,12143.5732,W,1,12,0.5,2.8,M,-31.6,M,,*59
$PYRTM,2024,124.505066209502,15.614713619641
$GPGGA,120716.00,3536.2486,N,12143.5736,W,1,12,0.5,2.2,M,-31.6,M,,*5B
$PYRTM,2024,124.505077321030,15.614724731169
$GPGGA,120717.00,3536.2502,N,12143.5741,W,1,12,0.5,2.3,M,-31.6,M,,*56
$PYRTM,2024,124.505088903565,15.614736313715
$GPGGA,120718.00,3536.2516,N,12143.5740,W,1,12,0.5,2.2,M,-31.6,M,,*5C
$PYRTM,2024,124.505100467859,15.614747877998
$GPGGA,120719.00,3536.2532,N,12143.5734,W,1,12,0.5,0.1,M,-31.6,M,,*59
$PYRTM,2024,124.505112057454,15.614759467593
$GPGGA,120720.00,3536.2549,N,12143.5731,W,1,12,0.5,-0.4,M,-31.6,M,,*72
$PYRTM,2024,124.505124688241,15.614772098380
$GPGGA,120721.00,3536.2566,N,12143.5735,W,1,12,0.5,1.7,M,-31.6,M,,*55
$PYRTM,2024,124.505136247187,15.614783657326
$GPGGA,120722.00,3536.2580,N,12143.5741,W,1,12,0.5,2.6,M,-31.6,M,,*5F
$PYRTM,2024,124.505147816944,15.614795227095
$GPGGA,120723.00,3536.2596,N,12143.5744,W,1,12,0.5,1.8,M,-31.6,M,,*51
$PYRTM,2024,124.505159396782,15.614806806933
$GPGGA,120724.00,3536.2613,N,12143.5741,W,1,12,0.5,2.0,M,-31.6,M,,*56
$PYRTM,2024,124.505170966343,15.614818376481
$GPGGA,120725.00,3536.2628,N,12143.5738,W,1,12,0.5,2.3,M,-31.6,M,,*52
$PYRTM,2024,124.505182544016,15.614829954155
$GPGGA,120726.00,3536.2643,N,12143.5737,W,1,12,0.5,2.7,M,-31.6,M,,*57
$PYRTM,2024,124.505194120729,15.614841530868
$GPGGA,120727.00,3536.2660,N,12143.5741,W,1,12,0.5,4.8,M,-31.6,M,,*5F
$PYRTM,2024,124.505205692269,15.614853102419
$GPGGA,120728.00,3536.2676,N,12143.5745,W,1,12,0.5,5.2,M,-31.6,M,,*58
$PYRTM,2024,124.505217268970,15.614864679109
$GPGGA,120729.00,3536.2692,N,12143.5744,W,1,12,0.5,5.2,M,-31.6,M,,*52
$PYRTM,2024,124.505228840752,15.614876250903
$GPGGA,120730.00,3536.2708,N,12143.5742,W,1,12,0.5,4.8,M,-31.6,M,,*55
$PYRTM,2024,124.505240414595,15.614887824745
$GPGGA,120731.00,3536.2724,N,12143.5741,W,1,12,0.5,4.6,M,-31.6,M,,*57
$PYRTM,2024,124.505251989491,15.614899399630
$GPGGA,120732.00,3536.2740,N,12143.5743,W,1,12,0.5,4.5,M,-31.6,M,,*57
$PYRTM,2024,124.505263559213,15.614910969352
$GPGGA,120733.00,3536.2754,N,12143.5746,W,1,12,0.5,4.6,M,-31.6,M,,*55
$PYRTM,2024,124.505275137998,15.614922548148
$GPGGA,120734.00,3536.2769,N,12143.5747,W,1,12,0.5,4.5,M,-31.6,M,,*5E
$PYRTM,2024,124.505286715475,15.614934125613
$GPGGA,120735.00,3536.2784,N,12143.5745,W,1,12,0.5,4.1,M,-31.6,M,,*5A
$PYRTM,2024,124.505298285625,15.614945695764
$GPGGA,120736.00,3536.2798,N,12143.5743,W,1,12,0.5,3.6,M,-31.6,M,,*52
$PYRTM,2024,124.505309863090,15.614957273241
$GPGGA,120737.00,3536.2811,N,12143.5744,W,1,12,0.5,3.8,M,-31.6,M,,*54
$PYRTM,2024,124.505321435093,15.614968845243
$GPGGA,120738.00,3536.2826,N,12143.5746,W,1,12,0.5,4.0,M,-31.6,M,,*52
$PYRTM,2024,124.505333009282,15.614980419421
$GPGGA,120739.00,3536.2840,N,12143.5748,W,1,12,0.5,3.9,M,-31.6,M,,*53
$PYRTM,2024,124.505344582049,15.614991992199
$GPGGA,120740.00,3536.2852,N,12143.5749,W,1,12,0.5,3.8,M,-31.6,M,,*5E
$PYRTM,2024,124.505356620139,15.615004030278
$GPGGA,120741.00,3536.2867,N,12143.5747,W,1,12,0.5,3.6,M,-31.6,M,,*59
$PYRTM,2024,124.505367725637,15.615015135787
$GPGGA,120742.00,3536.2881,N,12143.5745,W,1,12,0.5,3.7,M,-31.6,M,,*51
$PYRTM,2024,124.505379307407,15.615026717546
$GPGGA,120743.00,3536.2894,N,12143.5746,W,1,12,0.5,3.9,M,-31.6,M,,*59
$PYRTM,2024,124.505390878715,15.615038288854
$GPGGA,120744.00,3536.2907,N,12143.5748,W,1,12,0.5,3.7,M,-31.6,M,,*55
$PYRTM,2024,124.505402452975,15.615049863113
$GPGGA,120745.00,3536.2921,N,12143.5751,W,1,12,0.5,3.0,M,-31.6,M,,*5F
$PYRTM,2024,124.505414491042,15.615061901181
$GPGGA,120746.00,3536.2933,N,12143.5752,W,1,12,0.5,3.4,M,-31.6,M,,*58
$PYRTM,2024,124.505425601192,15.615073011331
$GPGGA,120747.00,3536.2945,N,12143.5750,W,1,12,0.5,3.1,M,-31.6,M,,*5F
$PYRTM,2024,124.505437170289,15.615084580428
$GPGGA,120748.00,3536.2958,N,12143.5748,W,1,12,0.5,3.6,M,-31.6,M,,*52
$PYRTM,2024,124.505448765266,15.615096175405
$GPGGA,120749.00,3536.2973,N,12143.5748,W,1,12,0.5,4.1,M,-31.6,M,,*5A
$PYRTM,2024,124.505460324225,15.615107734363
$GPGGA,120750.00,3536.2986,N,12143.5752,W,1,12,0.5,3.5,M,-31.6,M,,*50
$PYRTM,2024,124.505473058148,15.615120468287
$GPGGA,120751.00,3536.2997,N,12143.5755,W,1,12,0.5,3.7,M,-31.6,M,,*54
$PYRTM,2024,124.505485657558,15.615133067697
$GPGGA,120752.00,3536.3008,N,12143.5754,W,1,12,0.5,3.0,M,-31.6,M,,*5F
$PYRTM,2024,124.505495046829,15.615142456968
$GPGGA,120753.00,3536.3020,N,12143.5750,W,1,12,0.5,4.0,M,-31.6,M,,*57
$PYRTM,2024,124.505506640035,15.615154050185
$GPGGA,120754.00,3536.3033,N,12143.5749,W,1,12,0.5,1.8,M,-31.6,M,,*57
$PYRTM,2024,124.505518195729,15.615165605868
$GPGGA,120755.00,3536.3044,N,12143.5750,W,1,12,0.5,3.3,M,-31.6,M,,*57
$PYRTM,2024,124.505529768611,15.615177178750
$GPGGA,120756.00,3536.3055,N,12143.5753,W,1,12,0.5,4.8,M,-31.6,M,,*5B
$PYRTM,2024,124.505541337859,15.615188747998
$GPGGA,120757.00,3536.3066,N,12143.5753,W,1,12,0.5,4.8,M,-31.6,M,,*5A
$PYRTM,2024,124.505552913565,15.615200323704
$GPGGA,120758.00,3536.3078,N,12143.5752,W,1,12,0.5,3.6,M,-31.6,M,,*52
$PYRTM,2024,124.505564491609,15.615211901748
$GPGGA,120759.00,3536.3092,N,12143.5751,W,1,12,0.5,3.3,M,-31.6,M,,*51
$PYRTM,2024,124.505576065104,15.615223475243
$GPGGA,120800.00,3536.3104,N,12143.5752,W,1,12,0.5,4.5,M,-31.6,M,,*5E
$PYRTM,2024,124.505587639757,15.615235049896
$GPGGA,120801.00,3536.3113,N,12143.5751,W,1,12,0.5,5.8,M,-31.6,M,,*56
$PYRTM,2024,124.505599213808,15.615246623947
$GPGGA,120802.00,3536.3125,N,12143.5749,W,1,12,0.5,5.2,M,-31.6,M,,*53
$PYRTM,2024,124.505610791921,15.615258202060
$GPGGA,120803.00,3536.3139,N,12143.5749,W,1,12,0.5,7.0,M,-31.6,M,,*5F
$PYRTM,2024,124.505622362674,15.615269772812
$GPGGA,120804.00,3536.3152,N,12143.5753,W,1,12,0.5,4.2,M,-31.6,M,,*5F
$PYRTM,2024,124.505633952257,15.615281362396
$GPGGA,120805.00,3536.3163,N,12143.5759,W,1,12,0.5,3.9,M,-31.6,M,,*5A
$PYRTM,2024,124.505645513229,15.615292923368
$GPGGA,120806.00,3536.3173,N,12143.5761,W,1,12,0.5,4.4,M,-31.6,M,,*59
$PYRTM,2024,124.505657084583,15.615304494722
$GPGGA,120807.00,3536.3183,N,12143.5759,W,1,12,0.5,3.7,M,-31.6,M,,*58
$PYRTM,2024,124.505668658044,15.615316068183
$GPGGA,120808.00,3536.3194,N,12143.5755,W,1,12,0.5,2.1,M,-31.6,M,,*5A
$PYRTM,2024,124.505680232685,15.615327642824
$GPGGA,120809.00,3536.3205,N,12143.5754,W,1,12,0.5,3.2,M,-31.6,M,,*53
$PYRTM,2024,124.505691807049,15.615339217187
$GPGGA,120810.00,3536.3216,N,12143.5760,W,1,12,0.5,5.5,M,-31.6,M,,*5F
$PYRTM,2024,124.505703383843,15.615350793981
$GPGGA,120811.00,3536.3228,N,12143.5768,W,1,12,0.5,3.9,M,-31.6,M,,*51
$PYRTM,2024,124.505714955787,15.615362365926
$GPGGA,120812.00,3536.3237,N,12143.5772,W,1,12,0.5,2.9,M,-31.6,M,,*56
$PYRTM,2024,124.505726529097,15.615373939236
$GPGGA,120813.00,3536.3247,N,12143.5771,W,1,12,0.5,2.7,M,-31.6,M,,*5D
$PYRTM,2024,124.505738103762,15.615385513912
$GPGGA,120814.00,3536.3259,N,12143.5766,W,1,12,0.5,6.4,M,-31.6,M,,*54
$PYRTM,2024,124.505749681597,15.615397091736
$GPGGA,120815.00,3536.3272,N,12143.5765,W,1,12,0.5,6.6,M,-31.6,M,,*5D
$PYRTM,2024,124.505761712060,15.615409122199
$GPGGA,120816.00,3536.3284,N,12143.5771,W,1,12,0.5,6.6,M,-31.6,M,,*52
$PYRTM,2024,124.505772833461,15.615420243611
$GPGGA,120817.00,3536.3293,N,12143.5781,W,1,12,0.5,4.6,M,-31.6,M,,*58
$PYRTM,2024,124.505784405185,15.615431815324
$GPGGA,120818.00,3536.3302,N,12143.5786,W,1,12,0.5,5.2,M,-31.6,M,,*5C
$PYRTM,2024,124.505795996574,15.615443406713
$GPGGA,120819.00,3536.3311,N,12143.5784,W,1,12,0.5,4.6,M,-31.6,M,,*58
$PYRTM,2024,124.505807547697,15.615454957836
$GPGGA,120820.00,3536.3322,N,12143.5779,W,1,12,0.5,6.2,M,-31.6,M,,*56
$PYRTM,2024,124.505820269468,15.615467679606
$GPGGA,120821.00,3536.3333,N,12143.5780,W,1,12,0.5,6.2,M,-31.6,M,,*51
$PYRTM,2024,124.505832881644,15.615480291782
$GPGGA,120822.00,3536.3344,N,12143.5788,W,1,12,0.5,6.6,M,-31.6,M,,*5E
$PYRTM,2024,124.505842277373,15.615489687512
$GPGGA,120823.00,3536.3351,N,12143.5794,W,1,12,0.5,5.3,M,-31.6,M,,*50
$PYRTM,2024,124.505853853773,15.615501263912
$GPGGA,120824.00,3536.3359,N,12143.5794,W,1,12,0.5,5.3,M,-31.6,M,,*5F
$PYRTM,2024,124.505865422789,15.615512832928
$GPGGA,120825.00,3536.3371,N,12143.5793,W,1,12,0.5,6.3,M,-31.6,M,,*50
$PYRTM,2024,124.505876989977,15.615524400116
$GPGGA,120826.00,3536.3382,N,12143.5797,W,1,12,0.5,8.0,M,-31.6,M,,*56
$PYRTM,2024,124.505888569097,15.615535979236
$GPGGA,120827.00,3536.3392,N,12143.5803,W,1,12,0.5,7.4,M,-31.6,M,,*5F
$PYRTM,2024,124.505900141609,15.615547551748
$GPGGA,120828.00,3536.3401,N,12143.5805,W,1,12,0.5,7.2,M,-31.6,M,,*5D
$PYRTM,2024,124.505911715799,15.615559125937
$GPGGA,120829.00,3536.3411,N,12143.5806,W,1,12,0.5,10.2,M,-31.6,M,,*68
$PYRTM,2024,124.505923289884,15.615570700023
$GPGGA,120830.00,3536.3421,N,12143.5808,W,1,12,0.5,7.7,M,-31.6,M,,*5E
$PYRTM,2024,124.505935322604,15.615582732743
$GPGGA,120831.00,3536.3430,N,12143.5814,W,1,12,0.5,7.6,M,-31.6,M,,*53
$PYRTM,2024,124.505946438681,15.615593848819
$GPGGA,120832.00,3536.3438,N,12143.5818,W,1,12,0.5,8.3,M,-31.6,M,,*5E
$PYRTM,2024,124.505958029653,15.615605439792
$GPGGA,120833.00,3536.3448,N,12143.5819,W,1,12,0.5,9.2,M,-31.6,M,,*59
$PYRTM,2024,124.505969587245,15.615616997384
$GPGGA,120834.00,3536.3459,N,12143.5819,W,1,12,0.5,8.6,M,-31.6,M,,*5B
$PYRTM,2024,124.505981176528,15.615628586667
$GPGGA,120835.00,3536.3470,N,12143.5823,W,1,12,0.5,6.5,M,-31.6,M,,*55
$PYRTM,2024,124.505992730498,15.615640140637
$GPGGA,120836.00,3536.3477,N,12143.5830,W,1,12,0.5,6.7,M,-31.6,M,,*51
$PYRTM,2024,124.506004309896,15.615651720046
$GPGGA,120837.00,3536.3486,N,12143.5836,W,1,12,0.5,6.4,M,-31.6,M,,*5B
$PYRTM,2024,124.506015884421,15.615663294560
