$PYRTM,2024,121.750008994826,12.859656405648
$GPGGA,175959.00,3246.0189,N,11732.0954,W,1,09,0.8,17.1,M,-34.5,M,,*6C
$PYRTM,2024,121.750020582535,12.859667992674
$GPGGA,180000.00,3246.0200,N,11732.0979,W,1,09,0.8,15.0,M,-34.5,M,,*6D
$PYRTM,2024,121.750032140532,12.859679550671
$GPGGA,180001.00,3246.0211,N,11732.1002,W,1,09,0.8,14.9,M,-34.5,M,,*60
$PYRTM,2024,121.750043726586,12.859691136725
$GPGGA,180002.00,3246.0220,N,11732.1025,W,1,09,0.8,17.1,M,-34.5,M,,*6F
$PYRTM,2024,121.750055289363,12.859702699502
$GPGGA,180003.00,3246.0228,N,11732.1050,W,1,09,0.8,18.8,M,-34.5,M,,*62
$PYRTM,2024,121.750066875625,12.859714285775
$GPGGA,180004.00,3246.0238,N,11732.1073,W,1,09,0.8,18.8,M,-34.5,M,,*65
$PYRTM,2024,121.750077511505,12.859724921644
$GPGGA,180005.00,3246.0249,N,11732.1097,W,1,09,0.8,19.6,M,-34.5,M,,*67
$PYRTM,2024,121.750090588125,12.859737998264
$GPGGA,180006.00,3246.0261,N,11732.1123,W,1,09,0.8,17.3,M,-34.5,M,,*6B
$PYRTM,2024,121.750101366447,12.859748776574
$GPGGA,180007.00,3246.0271,N,11732.1147,W,1,09,0.8,15.7,M,-34.5,M,,*6F
$PYRTM,2024,121.750112473044,12.859759883183
$GPGGA,180008.00,3246.0280,N,11732.1168,W,1,09,0.8,16.5,M,-34.5,M,,*62
$PYRTM,2024,121.750123589306,12.859770999444
$GPGGA,180009.00,3246.0289,N,11732.1190,W,1,09,0.8,19.6,M,-34.5,M,,*61
$PYRTM,2024,121.750134701238,12.859782111389
$GPGGA,180010.00,3246.0300,N,11732.1214,W,1,09,0.8,18.4,M,-34.5,M,,*65
$PYRTM,2024,121.750145915174,12.859793325324
$GPGGA,180011.00,3246.0311,N,11732.1240,W,1,09,0.8,17.5,M,-34.5,M,,*6B
$PYRTM,2024,121.750157025833,12.859804435972
$GPGGA,180012.00,3246.0320,N,11732.1264,W,1,09,0.8,14.9,M,-34.5,M,,*63
$PYRTM,2024,121.750168136979,12.859815547118
$GPGGA,180013.00,3246.0328,N,11732.1289,W,1,09,0.8,16.7,M,-34.5,M,,*65
$PYRTM,2024,121.750179249167,12.859826659306
$GPGGA,180014.00,3246.0338,N,11732.1312,W,1,09,0.8,19.3,M,-34.5,M,,*6B
$PYRTM,2024,121.750190475347,12.859837885486
$GPGGA,180015.00,3246.0349,N,11732.1334,W,1,09,0.8,17.4,M,-34.5,M,,*61
$PYRTM,2024,121.750201587928,12.859848998067
$GPGGA,180016.00,3246.0359,N,11732.1358,W,1,09,0.8,16.7,M,-34.5,M,,*6B
$PYRTM,2024,121.750213176123,12.859860586262
$GPGGA,180017.00,3246.0369,N,11732.1384,W,1,09,0.8,16.4,M,-34.5,M,,*6B
$PYRTM,2024,121.750224281007,12.859871691146
$GPGGA,180018.00,3246.0379,N,11732.1408,W,1,09,0.8,19.4,M,-34.5,M,,*69
$PYRTM,2024,121.750241633391,12.859889043530
$GPGGA,180019.00,3246.0389,N,11732.1428,W,1,09,0.8,19.3,M,-34.5,M,,*62
$PYRTM,2024,121.750252750822,12.859900160961
$GPGGA,180020.00,3246.0401,N,11732.1449,W,1,09,0.8,18.4,M,-34.5,M,,*6E
$PYRTM,2024,121.750263871238,12.859911281377
$GPGGA,180021.00,3246.0414,N,11732.1472,W,1,09,0.8,17.9,M,-34.5,M,,*61
$PYRTM,2024,121.750274979248,12.859922389387
$GPGGA,180022.00,3246.0425,N,11732.1498,W,1,09,0.8,16.1,M,-34.5,M,,*6D
$PYRTM,2024,121.750286206088,12.859933616227
$GPGGA,180023.00,3246.0434,N,11732.1520,W,1,09,0.8,17.7,M,-34.5,M,,*69
$PYRTM,2024,121.750297316991,12.859944727130
$GPGGA,180024.00,3246.0444,N,11732.1539,W,1,09,0.8,17.4,M,-34.5,M,,*62
$PYRTM,2024,121.750308429502,12.859955839641
$GPGGA,180025.00,3246.0458,N,11732.1562,W,1,09,0.8,15.6,M,-34.5,M,,*60
$PYRTM,2024,121.750322998299,12.859970408438
$GPGGA,180026.00,3246.0470,N,11732.1586,W,1,09,0.8,14.8,M,-34.5,M,,*6C
$PYRTM,2024,121.750334226111,12.859981636250
$GPGGA,180027.00,3246.0479,N,11732.1609,W,1,09,0.8,16.8,M,-34.5,M,,*62
$PYRTM,2024,121.750345353391,12.859992763530
$GPGGA,180028.00,3246.0488,N,11732.1630,W,1,09,0.8,14.2,M,-34.5,M,,*61
$PYRTM,2024,121.750356450579,12.860003860718
$GPGGA,180029.00,3246.0498,N,11732.1653,W,1,09,0.8,13.6,M,-34.5,M,,*67
$PYRTM,2024,121.750367574919,12.860014985058
$GPGGA,180030.00,3246.0509,N,11732.1677,W,1,09,0.8,13.1,M,-34.5,M,,*67
$PYRTM,2024,121.750378794329,12.860026204468
$GPGGA,180031.00,3246.0519,N,11732.1701,W,1,09,0.8,16.2,M,-34.5,M,,*61
$PYRTM,2024,121.750389911169,12.860037321308
$GPGGA,180032.00,3246.0529,N,11732.1723,W,1,09,0.8,20.1,M,-34.5,M,,*67
$PYRTM,2024,121.750401368785,12.860048778924
$GPGGA,180033.00,3246.0540,N,11732.1746,W,1,09,0.8,21.2,M,-34.5,M,,*68
$PYRTM,2024,121.750412943194,12.860060353333
$GPGGA,180034.00,3246.0551,N,11732.1771,W,1,09,0.8,19.4,M,-34.5,M,,*66
$PYRTM,2024,121.750424516736,12.860071926875
$GPGGA,180035.00,3246.0561,N,11732.1796,W,1,09,0.8,17.1,M,-34.5,M,,*66
$PYRTM,2024,121.750436091250,12.860083501389
$GPGGA,180036.00,3246.0571,N,11732.1820,W,1,09,0.8,19.4,M,-34.5,M,,*6D
$PYRTM,2024,121.750447664907,12.860095075046
$GPGGA,180037.00,3246.0581,N,11732.1842,W,1,09,0.8,18.4,M,-34.5,M,,*66
$PYRTM,2024,121.750459241690,12.860106651829
$GPGGA,180038.00,3246.0591,N,11732.1865,W,1,09,0.8,19.0,M,-34.5,M,,*68
$PYRTM,2024,121.750470813519,12.860118223657
$GPGGA,180039.00,3246.0603,N,11732.1889,W,1,09,0.8,15.1,M,-34.5,M,,*6E
$PYRTM,2024,121.750482390637,12.860129800787
$GPGGA,180040.00,3246.0614,N,11732.1914,W,1,09,0.8,14.9,M,-34.5,M,,*6A
$PYRTM,2024,121.750493961111,12.860141371250
$GPGGA,180041.00,3246.0622,N,11732.1938,W,1,09,0.8,14.7,M,-34.5,M,,*6E
$PYRTM,2024,121.750505539005,12.860152949144
$GPGGA,180042.00,3246.0630,N,11732.1962,W,1,09,0.8,12.9,M,-34.5,M,,*69
$PYRTM,2024,121.750517109502,12.860164519653
$GPGGA,180043.00,3246.0641,N,11732.1985,W,1,09,0.8,15.6,M,-34.5,M,,*6F
$PYRTM,2024,121.750528698414,12.860176108553
$GPGGA,180044.00,3246.0654,N,11732.2006,W,1,09,0.8,15.9,M,-34.5,M,,*62
$PYRTM,2024,121.750540258958,12.860187669097
$GPGGA,180045.00,3246.0664,N,11732.2029,W,1,09,0.8,15.2,M,-34.5,M,,*66
$PYRTM,2024,121.750552063715,12.860199473854
$GPGGA,180046.00,3246.0672,N,11732.2054,W,1,09,0.8,12.7,M,-34.5,M,,*6A
$PYRTM,2024,121.750563626181,12.860211036319
$GPGGA,180047.00,3246.0681,N,11732.2079,W,1,09,0.8,14.2,M,-34.5,M,,*6B
$PYRTM,2024,121.750574975463,12.860222385602
$GPGGA,180048.00,3246.0693,N,11732.2102,W,1,09,0.8,15.2,M,-34.5,M,,*6B
$PYRTM,2024,121.750586557176,12.860233967315
$GPGGA,180049.00,3246.0704,N,11732.2123,W,1,09,0.8,15.7,M,-34.5,M,,*63
$PYRTM,2024,121.750598129051,12.860245539190
$GPGGA,180050.00,3246.0714,N,11732.2146,W,1,09,0.8,17.7,M,-34.5,M,,*6B
$PYRTM,2024,121.750609702894,12.860257113032
$GPGGA,180051.00,3246.0723,N,11732.2171,W,1,09,0.8,18.8,M,-34.5,M,,*6A
$PYRTM,2024,121.750621274502,12.860268684641
$GPGGA,180052.00,3246.0731,N,11732.2196,W,1,09,0.8,17.6,M,-34.5,M,,*62
$PYRTM,2024,121.750632846563,12.860280256701
$GPGGA,180053.00,3246.0742,N,11732.2219,W,1,09,0.8,18.8,M,-34.5,M,,*62
$PYRTM,2024,121.750644428067,12.860291838206
$GPGGA,180054.00,3246.0754,N,11732.2244,W,1,09,0.8,17.7,M,-34.5,M,,*6A
$PYRTM,2024,121.750656000046,12.860303410185
$GPGGA,180055.00,3246.0765,N,11732.2270,W,1,09,0.8,17.1,M,-34.5,M,,*68
$PYRTM,2024,121.750668733808,12.860316143947
$GPGGA,180056.00,3246.0773,N,11732.2294,W,1,09,0.8,18.0,M,-34.5,M,,*68
$PYRTM,2024,121.750680292998,12.860327703137
$GPGGA,180057.00,3246.0780,N,11732.2317,W,1,09,0.8,18.2,M,-34.5,M,,*6D
$PYRTM,2024,121.750691878241,12.860339288380
$GPGGA,180058.00,3246.0791,N,11732.2340,W,1,09,0.8,17.2,M,-34.5,M,,*6F
$PYRTM,2024,121.750703440822,12.860350850961
$GPGGA,180059.00,3246.0802,N,11732.2363,W,1,09,0.8,15.6,M,-34.5,M,,*6C
$PYRTM,2024,121.750715028021,12.860362438160
$GPGGA,180100.00,3246.0812,N,11732.2386,W,1,09,0.8,17.1,M,-34.5,M,,*6E
$PYRTM,2024,121.750726592627,12.860374002766
$GPGGA,180101.00,3246.0822,N,11732.2409,W,1,09,0.8,16.5,M,-34.5,M,,*69
$PYRTM,2024,121.750738178032,12.860385588183
$GPGGA,180102.00,3246.0832,N,11732.2432,W,1,09,0.8,16.2,M,-34.5,M,,*64
$PYRTM,2024,121.750749737025,12.860397147164
$GPGGA,180103.00,3246.0844,N,11732.2454,W,1,09,0.8,18.7,M,-34.5,M,,*6F
$PYRTM,2024,121.750761313519,12.860408723657
$GPGGA,180104.00,3246.0855,N,11732.2478,W,1,09,0.8,20.1,M,-34.5,M,,*6B
$PYRTM,2024,121.750772886088,12.860420296227
$GPGGA,180105.00,3246.0865,N,11732.2502,W,1,09,0.8,20.1,M,-34.5,M,,*65
$PYRTM,2024,121.750784472095,12.860431882234
$GPGGA,180106.00,3246.0875,N,11732.2527,W,1,09,0.8,21.2,M,-34.5,M,,*62
$PYRTM,2024,121.750796033183,12.860443443322
$GPGGA,180107.00,3246.0885,N,11732.2552,W,1,09,0.8,22.6,M,-34.5,M,,*69
$PYRTM,2024,121.750807619734,12.860455029873
$GPGGA,180108.00,3246.0896,N,11732.2574,W,1,09,0.8,21.5,M,-34.5,M,,*60
$PYRTM,2024,121.750819180336,12.860466590475
$GPGGA,180109.00,3246.0905,N,11732.2596,W,1,09,0.8,20.8,M,-34.5,M,,*6A
$PYRTM,2024,121.750830773553,12.860478183692
$GPGGA,180110.00,3246.0915,N,11732.2619,W,1,09,0.8,20.4,M,-34.5,M,,*6B
$PYRTM,2024,121.750842331516,12.860489741655
$GPGGA,180111.00,3246.0927,N,11732.2645,W,1,09,0.8,17.7,M,-34.5,M,,*65
$PYRTM,2024,121.750853920810,12.860501330949
$GPGGA,180112.00,3246.0937,N,11732.2669,W,1,09,0.8,17.6,M,-34.5,M,,*68
$PYRTM,2024,121.750865478299,12.860512888437
$GPGGA,180113.00,3246.0946,N,11732.2689,W,1,09,0.8,17.8,M,-34.5,M,,*6F
$PYRTM,2024,121.750877066250,12.860524476389
$GPGGA,180114.00,3246.0956,N,11732.2710,W,1,09,0.8,18.2,M,-34.5,M,,*6D
$PYRTM,2024,121.750888628437,12.860536038576
$GPGGA,180115.00,3246.0968,N,11732.2735,W,1,09,0.8,16.7,M,-34.5,M,,*6D
$PYRTM,2024,121.750900208681,12.860547618819
$GPGGA,180116.00,3246.0978,N,11732.2761,W,1,09,0.8,15.8,M,-34.5,M,,*62
$PYRTM,2024,121.750912137917,12.860559548056
$GPGGA,180117.00,3246.0987,N,11732.2783,W,1,09,0.8,16.4,M,-34.5,M,,*60
$PYRTM,2024,121.750923351146,12.860570761285
$GPGGA,180118.00,3246.0998,N,11732.2803,W,1,09,0.8,17.6,M,-34.5,M,,*65
$PYRTM,2024,121.750934923669,12.860582333808
$GPGGA,180119.00,3246.1011,N,11732.2827,W,1,09,0.8,15.7,M,-34.5,M,,*68
$PYRTM,2024,121.750946504884,12.860593915023
$GPGGA,180120.00,3246.1020,N,11732.2851,W,1,09,0.8,17.2,M,-34.5,M,,*66
$PYRTM,2024,121.750958073125,12.860605483264
$GPGGA,180121.00,3246.1029,N,11732.2876,W,1,09,0.8,18.6,M,-34.5,M,,*60
$PYRTM,2024,121.750969653773,12.860617063912
$GPGGA,180122.00,3246.1039,N,11732.2898,W,1,09,0.8,19.5,M,-34.5,M,,*60
$PYRTM,2024,121.750981219965,12.860628630104
$GPGGA,180123.00,3246.1051,N,11732.2920,W,1,09,0.8,17.5,M,-34.5,M,,*63
$PYRTM,2024,121.750992810266,12.860640220405
$GPGGA,180124.00,3246.1062,N,11732.2942,W,1,09,0.8,17.5,M,-34.5,M,,*60
$PYRTM,2024,121.751004368079,12.860651778218
$GPGGA,180125.00,3246.1071,N,11732.2966,W,1,09,0.8,18.9,M,-34.5,M,,*66
$PYRTM,2024,121.751014553565,12.860661963704
$GPGGA,180126.00,3246.1081,N,11732.2991,W,1,09,0.8,17.6,M,-34.5,M,,*62
$PYRTM,2024,121.751026373889,12.860673784028
$GPGGA,180127.00,3246.1091,N,11732.3014,W,1,09,0.8,16.8,M,-34.5,M,,*68
$PYRTM,2024,121.751039093160,12.860686503310
$GPGGA,180128.00,3246.1102,N,11732.3035,W,1,09,0.8,17.3,M,-34.5,M,,*65
$PYRTM,2024,121.751050664873,12.860698075012
$GPGGA,180129.00,3246.1114,N,11732.3059,W,1,09,0.8,16.8,M,-34.5,M,,*63
$PYRTM,2024,121.751062252477,12.860709662616
$GPGGA,180130.00,3246.1123,N,11732.3085,W,1,09,0.8,16.7,M,-34.5,M,,*61
$PYRTM,2024,121.751073813079,12.860721223218
$GPGGA,180131.00,3246.1131,N,11732.3109,W,1,09,0.8,18.2,M,-34.5,M,,*6D
$PYRTM,2024,121.751085396030,12.860732806169
$GPGGA,180132.00,3246.1141,N,11732.3130,W,1,09,0.8,17.0,M,-34.5,M,,*6E
$PYRTM,2024,121.751096961539,12.860744371678
$GPGGA,180133.00,3246.1152,N,11732.3151,W,1,09,0.8,17.5,M,-34.5,M,,*6F
$PYRTM,2024,121.751108537060,12.860755947199
$GPGGA,180134.00,3246.1164,N,11732.3173,W,1,09,0.8,17.5,M,-34.5,M,,*6D
$PYRTM,2024,121.751120109954,12.860767520093
$GPGGA,180135.00,3246.1174,N,11732.3196,W,1,09,0.8,18.6,M,-34.5,M,,*6A
$PYRTM,2024,121.751132030787,12.860779440926
$GPGGA,180136.00,3246.1183,N,11732.3220,W,1,09,0.8,19.0,M,-34.5,M,,*68
$PYRTM,2024,121.751143257049,12.860790667188
$GPGGA,180137.00,3246.1193,N,11732.3244,W,1,09,0.8,19.4,M,-34.5,M,,*6E
$PYRTM,2024,121.751154831782,12.860802241921
$GPGGA,180138.00,3246.1204,N,11732.3269,W,1,09,0.8,20.0,M,-34.5,M,,*6D
$PYRTM,2024,121.751166406146,12.860813816285
$GPGGA,180139.00,3246.1217,N,11732.3291,W,1,09,0.8,17.3,M,-34.5,M,,*6E
$PYRTM,2024,121.751177996088,12.860825406238
$GPGGA,180140.00,3246.1227,N,11732.3313,W,1,09,0.8,17.7,M,-34.5,M,,*6C
$PYRTM,2024,121.751189554757,12.860836964907
$GPGGA,180141.00,3246.1236,N,11732.3338,W,1,09,0.8,17.2,M,-34.5,M,,*61
$PYRTM,2024,121.751201145914,12.860848556053
$GPGGA,180142.00,3246.1244,N,11732.3364,W,1,09,0.8,15.9,M,-34.5,M,,*67
$PYRTM,2024,121.751212704120,12.860860114259
$GPGGA,180143.00,3246.1254,N,11732.3386,W,1,09,0.8,16.8,M,-34.5,M,,*69
$PYRTM,2024,121.751224284815,12.860871694954
$GPGGA,180144.00,3246.1267,N,11732.3407,W,1,09,0.8,16.9,M,-34.5,M,,*61
$PYRTM,2024,121.751235852280,12.860883262419
$GPGGA,180145.00,3246.1279,N,11732.3429,W,1,09,0.8,15.4,M,-34.5,M,,*6D
$PYRTM,2024,121.751247439988,12.860894850127
$GPGGA,180146.00,3246.1289,N,11732.3454,W,1,09,0.8,16.1,M,-34.5,M,,*6D
$PYRTM,2024,121.751259478299,12.860906888438
$GPGGA,180147.00,3246.1298,N,11732.3478,W,1,09,0.8,17.4,M,-34.5,M,,*66
$PYRTM,2024,121.751271038218,12.860918448368
$GPGGA,180148.00,3246.1309,N,11732.3501,W,1,09,0.8,17.7,M,-34.5,M,,*6C
$PYRTM,2024,121.751282626470,12.860930036609
$GPGGA,180149.00,3246.1321,N,11732.3522,W,1,09,0.8,18.5,M,-34.5,M,,*6B
$PYRTM,2024,121.751294185243,12.860941595382
$GPGGA,180150.00,3246.1332,N,11732.3546,W,1,09,0.8,17.2,M,-34.5,M,,*6B
$PYRTM,2024,121.751305772396,12.860953182535
$GPGGA,180151.00,3246.1341,N,11732.3571,W,1,09,0.8,18.7,M,-34.5,M,,*60
$PYRTM,2024,121.751317332245,12.860964742384
$GPGGA,180152.00,3246.1350,N,11732.3596,W,1,09,0.8,19.1,M,-34.5,M,,*6D
$PYRTM,2024,121.751328922454,12.860976332593
$GPGGA,180153.00,3246.1360,N,11732.3619,W,1,09,0.8,19.2,M,-34.5,M,,*68
$PYRTM,2024,121.751340481759,12.860987891898
$GPGGA,180154.00,3246.1372,N,11732.3644,W,1,09,0.8,17.4,M,-34.5,M,,*6C
$PYRTM,2024,121.751352065208,12.860999475347
$GPGGA,180155.00,3246.1382,N,11732.3669,W,1,09,0.8,19.7,M,-34.5,M,,*60
$PYRTM,2024,121.751362267431,12.861009677569
$GPGGA,180156.00,3246.1392,N,11732.3692,W,1,09,0.8,17.9,M,-34.5,M,,*66
$PYRTM,2024,121.751373595174,12.861021005312
$GPGGA,180157.00,3246.1402,N,11732.3715,W,1,09,0.8,18.3,M,-34.5,M,,*62
$PYRTM,2024,121.751386316412,12.861033726551
$GPGGA,180158.00,3246.1412,N,11732.3741,W,1,09,0.8,17.9,M,-34.5,M,,*68
$PYRTM,2024,121.751397889144,12.861045299282
$GPGGA,180159.00,3246.1421,N,11732.3767,W,1,09,0.8,16.2,M,-34.5,M,,*67
$PYRTM,2024,121.751409480764,12.861056890903
$GPGGA,180200.00,3246.1431,N,11732.3790,W,1,09,0.8,17.7,M,-34.5,M,,*65
$PYRTM,2024,121.751421037454,12.861068447593
$GPGGA,180201.00,3246.1442,N,11732.3813,W,1,09,0.8,16.1,M,-34.5,M,,*63
$PYRTM,2024,121.751432627118,12.861080037257
$GPGGA,180202.00,3246.1453,N,11732.3837,W,1,09,0.8,16.6,M,-34.5,M,,*61
$PYRTM,2024,121.751444187396,12.861091597535
$GPGGA,180203.00,3246.1465,N,11732.3861,W,1,09,0.8,16.6,M,-34.5,M,,*66
$PYRTM,2024,121.751455766782,12.861103176921
$GPGGA,180204.00,3246.1474,N,11732.3886,W,1,09,0.8,16.9,M,-34.5,M,,*67
$PYRTM,2024,121.751467335012,12.861114745162
$GPGGA,180205.00,3246.1483,N,11732.3908,W,1,09,0.8,17.5,M,-34.5,M,,*64
$PYRTM,2024,121.751478921123,12.861126331262
$GPGGA,180206.00,3246.1492,N,11732.3929,W,1,09,0.8,18.4,M,-34.5,M,,*6A
$PYRTM,2024,121.751490481968,12.861137892118
$GPGGA,180207.00,3246.1503,N,11732.3952,W,1,09,0.8,17.2,M,-34.5,M,,*67
$PYRTM,2024,121.751502071875,12.861149482014
$GPGGA,180208.00,3246.1514,N,11732.3978,W,1,09,0.8,15.1,M,-34.5,M,,*67
$PYRTM,2024,121.751513630741,12.861161040880
$GPGGA,180209.00,3246.1522,N,11732.4003,W,1,09,0.8,17.1,M,-34.5,M,,*63
$PYRTM,2024,121.751524290822,12.861171700961
$GPGGA,180210.00,3246.1532,N,11732.4025,W,1,09,0.8,17.3,M,-34.5,M,,*6C
$PYRTM,2024,121.751536328264,12.861183738403
$GPGGA,180211.00,3246.1545,N,11732.4046,W,1,09,0.8,17.7,M,-34.5,M,,*6C
$PYRTM,2024,121.751546040162,12.861193450301
$GPGGA,180212.00,3246.1559,N,11732.4072,W,1,09,0.8,13.8,M,-34.5,M,,*6E
$PYRTM,2024,121.751557264711,12.861204674850
$GPGGA,180213.00,3246.1568,N,11732.4097,W,1,09,0.8,16.3,M,-34.5,M,,*68
$PYRTM,2024,121.751568375718,12.861215785856
$GPGGA,180214.00,3246.1576,N,11732.4121,W,1,09,0.8,15.9,M,-34.5,M,,*65
$PYRTM,2024,121.751579487720,12.861226897859
$GPGGA,180215.00,3246.1586,N,11732.4144,W,1,09,0.8,16.4,M,-34.5,M,,*66
$PYRTM,2024,121.751590483576,12.861237893750
$GPGGA,180216.00,3246.1598,N,11732.4167,W,1,09,0.8,16.8,M,-34.5,M,,*67
$PYRTM,2024,121.751602069606,12.861249479745
$GPGGA,180217.00,3246.1609,N,11732.4189,W,1,09,0.8,16.7,M,-34.5,M,,*62
$PYRTM,2024,121.751616768507,12.861264178646
$GPGGA,180218.00,3246.1619,N,11732.4212,W,1,09,0.8,15.7,M,-34.5,M,,*6E
$PYRTM,2024,121.751628221574,12.861275631713
$GPGGA,180219.00,3246.1630,N,11732.4238,W,1,09,0.8,14.0,M,-34.5,M,,*6A
$PYRTM,2024,121.751639787546,12.861287197685
$GPGGA,180220.00,3246.1638,N,11732.4262,W,1,09,0.8,15.2,M,-34.5,M,,*64
$PYRTM,2024,121.751652520775,12.861299930914
$GPGGA,180221.00,3246.1647,N,11732.4285,W,1,09,0.8,13.5,M,-34.5,M,,*65
$PYRTM,2024,121.751664095197,12.861311505336
$GPGGA,180222.00,3246.1658,N,11732.4307,W,1,09,0.8,15.2,M,-34.5,M,,*62
$PYRTM,2024,121.751675669248,12.861323079398
$GPGGA,180223.00,3246.1671,N,11732.4332,W,1,09,0.8,14.7,M,-34.5,M,,*6A
$PYRTM,2024,121.751687243681,12.861334653819
$GPGGA,180224.00,3246.1682,N,11732.4356,W,1,09,0.8,12.6,M,-34.5,M,,*64
$PYRTM,2024,121.751698817326,12.861346227465
$GPGGA,180225.00,3246.1690,N,11732.4380,W,1,09,0.8,12.7,M,-34.5,M,,*6C
$PYRTM,2024,121.751709472801,12.861356882940
$GPGGA,180226.00,3246.1698,N,11732.4401,W,1,09,0.8,11.5,M,-34.5,M,,*68
$PYRTM,2024,121.751720819884,12.861368230023
$GPGGA,180227.00,3246.1709,N,11732.4422,W,1,09,0.8,13.5,M,-34.5,M,,*63
$PYRTM,2024,121.751733554167,12.861380964306
$GPGGA,180228.00,3246.1722,N,11732.4446,W,1,09,0.8,12.9,M,-34.5,M,,*6A
$PYRTM,2024,121.751745113900,12.861392524039
$GPGGA,180229.00,3246.1733,N,11732.4471,W,1,09,0.8,12.5,M,-34.5,M,,*63
$PYRTM,2024,121.751756703993,12.861404114132
$GPGGA,180230.00,3246.1742,N,11732.4495,W,1,09,0.8,13.2,M,-34.5,M,,*61
$PYRTM,2024,121.751768263530,12.861415673669
$GPGGA,180231.00,3246.1753,N,11732.4519,W,1,09,0.8,12.8,M,-34.5,M,,*6E
$PYRTM,2024,121.751779850949,12.861427261088
$GPGGA,180232.00,3246.1764,N,11732.4542,W,1,09,0.8,14.8,M,-34.5,M,,*61
$PYRTM,2024,121.751791409583,12.861438819722
$GPGGA,180233.00,3246.1776,N,11732.4565,W,1,09,0.8,15.8,M,-34.5,M,,*67
$PYRTM,2024,121.751802996343,12.861450406481
$GPGGA,180234.00,3246.1787,N,11732.4589,W,1,09,0.8,15.2,M,-34.5,M,,*66
$PYRTM,2024,121.751814558565,12.861461968715
$GPGGA,180235.00,3246.1797,N,11732.4614,W,1,09,0.8,13.9,M,-34.5,M,,*6C
$PYRTM,2024,121.751826145208,12.861473555347
$GPGGA,180236.00,3246.1806,N,11732.4638,W,1,09,0.8,17.1,M,-34.5,M,,*6A
$PYRTM,2024,121.751837706042,12.861485116181
$GPGGA,180237.00,3246.1816,N,11732.4659,W,1,09,0.8,17.1,M,-34.5,M,,*6D
$PYRTM,2024,121.751849288310,12.861496698449
$GPGGA,180238.00,3246.1827,N,11732.4683,W,1,09,0.8,17.4,M,-34.5,M,,*62
$PYRTM,2024,121.751860855336,12.861508265475
$GPGGA,180239.00,3246.1837,N,11732.4708,W,1,09,0.8,18.0,M,-34.5,M,,*6B
$PYRTM,2024,121.751872436076,12.861519846215
$GPGGA,180240.00,3246.1846,N,11732.4731,W,1,09,0.8,18.4,M,-34.5,M,,*6D
$PYRTM,2024,121.751884003322,12.861531413461
$GPGGA,180241.00,3246.1855,N,11732.4754,W,1,09,0.8,17.6,M,-34.5,M,,*60
$PYRTM,2024,121.751895589306,12.861542999444
$GPGGA,180242.00,3246.1867,N,11732.4777,W,1,09,0.8,19.8,M,-34.5,M,,*63
$PYRTM,2024,121.751907151076,12.861554561215
$GPGGA,180243.00,3246.1879,N,11732.4800,W,1,09,0.8,20.6,M,-34.5,M,,*66
$PYRTM,2024,121.751918739988,12.861566150127
$GPGGA,180244.00,3246.1889,N,11732.4824,W,1,09,0.8,17.7,M,-34.5,M,,*6D
$PYRTM,2024,121.751930300231,12.861577710370
$GPGGA,180245.00,3246.1899,N,11732.4848,W,1,09,0.8,16.8,M,-34.5,M,,*69
$PYRTM,2024,121.751941889410,12.861589299549
$GPGGA,180246.00,3246.1908,N,11732.4872,W,1,09,0.8,18.1,M,-34.5,M,,*6D
$PYRTM,2024,121.751953563785,12.861600973935
$GPGGA,180247.00,3246.1919,N,11732.4895,W,1,09,0.8,17.6,M,-34.5,M,,*6D
$PYRTM,2024,121.751965021285,12.861612431424
$GPGGA,180248.00,3246.1929,N,11732.4919,W,1,09,0.8,18.3,M,-34.5,M,,*6E
$PYRTM,2024,121.751976596493,12.861624006632
$GPGGA,180249.00,3246.1939,N,11732.4943,W,1,09,0.8,19.9,M,-34.5,M,,*6A
$PYRTM,2024,121.751988178160,12.861635588299
$GPGGA,180250.00,3246.1947,N,11732.4965,W,1,09,0.8,19.6,M,-34.5,M,,*60
$PYRTM,2024,121.751999743252,12.861647153391
$GPGGA,180251.00,3246.1957,N,11732.4986,W,1,09,0.8,19.3,M,-34.5,M,,*68
$PYRTM,2024,121.752011333252,12.861658743391
$GPGGA,180252.00,3246.1969,N,11732.5010,W,1,09,0.8,20.2,M,-34.5,M,,*6A
$PYRTM,2024,121.752022891898,12.861670302037
$GPGGA,180253.00,3246.1981,N,11732.5034,W,1,09,0.8,17.1,M,-34.5,M,,*6C
$PYRTM,2024,121.752034468738,12.861681878877
$GPGGA,180254.00,3246.1990,N,11732.5058,W,1,09,0.8,18.4,M,-34.5,M,,*6B
$PYRTM,2024,121.752046040289,12.861693450428
$GPGGA,180255.00,3246.1999,N,11732.5080,W,1,09,0.8,16.1,M,-34.5,M,,*6D
$PYRTM,2024,121.752056226123,12.861703636262
$GPGGA,180256.00,3246.2009,N,11732.5103,W,1,09,0.8,16.9,M,-34.5,M,,*6F
$PYRTM,2024,121.752068044259,12.861715454398
$GPGGA,180257.00,3246.2021,N,11732.5128,W,1,09,0.8,17.9,M,-34.5,M,,*6C
$PYRTM,2024,121.752080763993,12.861728174132
$GPGGA,180258.00,3246.2032,N,11732.5152,W,1,09,0.8,19.1,M,-34.5,M,,*6A
$PYRTM,2024,121.752092336667,12.861739746806
$GPGGA,180259.00,3246.2041,N,11732.5177,W,1,09,0.8,19.3,M,-34.5,M,,*6A
$PYRTM,2024,121.752103928310,12.861751338449
$GPGGA,180300.00,3246.2050,N,11732.5200,W,1,09,0.8,18.3,M,-34.5,M,,*65
$PYRTM,2024,121.752115486308,12.861762896447
$GPGGA,180301.00,3246.2060,N,11732.5221,W,1,09,0.8,16.5,M,-34.5,M,,*6C
$PYRTM,2024,121.752127075150,12.861774485289
$GPGGA,180302.00,3246.2072,N,11732.5242,W,1,09,0.8,16.5,M,-34.5,M,,*69
$PYRTM,2024,121.752138633310,12.861786043449
$GPGGA,180303.00,3246.2084,N,11732.5266,W,1,09,0.8,14.6,M,-34.5,M,,*66
$PYRTM,2024,121.752150220000,12.861797630139
$GPGGA,180304.00,3246.2094,N,11732.5291,W,1,09,0.8,15.2,M,-34.5,M,,*6D
$PYRTM,2024,121.752161782407,12.861809192546
$GPGGA,180305.00,3246.2102,N,11732.5311,W,1,09,0.8,15.3,M,-34.5,M,,*6A
$PYRTM,2024,121.752173367882,12.861820778021
$GPGGA,180306.00,3246.2111,N,11732.5330,W,1,09,0.8,16.7,M,-34.5,M,,*6F
$PYRTM,2024,121.752184930799,12.861832340938
$GPGGA,180307.00,3246.2122,N,11732.5353,W,1,09,0.8,16.8,M,-34.5,M,,*64
$PYRTM,2024,121.752196516435,12.861843926586
$GPGGA,180308.00,3246.2134,N,11732.5377,W,1,09,0.8,14.9,M,-34.5,M,,*69
$PYRTM,2024,121.752208079340,12.861855489479
$GPGGA,180309.00,3246.2143,N,11732.5401,W,1,09,0.8,15.9,M,-34.5,M,,*6F
$PYRTM,2024,121.752219665185,12.861867075324
$GPGGA,180310.00,3246.2150,N,11732.5424,W,1,09,0.8,16.3,M,-34.5,M,,*6B
$PYRTM,2024,121.752231227662,12.861878637801
$GPGGA,180311.00,3246.2160,N,11732.5446,W,1,09,0.8,16.8,M,-34.5,M,,*66
$PYRTM,2024,121.752242817095,12.861890227234
$GPGGA,180312.00,3246.2172,N,11732.5470,W,1,09,0.8,17.0,M,-34.5,M,,*6A
$PYRTM,2024,121.752254375336,12.861901785475
$GPGGA,180313.00,3246.2184,N,11732.5494,W,1,09,0.8,15.6,M,-34.5,M,,*6C
$PYRTM,2024,121.752265966435,12.861913376574
$GPGGA,180314.00,3246.2193,N,11732.5517,W,1,09,0.8,16.0,M,-34.5,M,,*62
$PYRTM,2024,121.752277523032,12.861924933171
$GPGGA,180315.00,3246.2200,N,11732.5539,W,1,09,0.8,17.0,M,-34.5,M,,*67
$PYRTM,2024,121.752289330255,12.861936740394
$GPGGA,180316.00,3246.2210,N,11732.5563,W,1,09,0.8,19.6,M,-34.5,M,,*62
$PYRTM,2024,121.752300900868,12.861948311007
$GPGGA,180317.00,3246.2222,N,11732.5587,W,1,09,0.8,18.1,M,-34.5,M,,*6E
$PYRTM,2024,121.752312245845,12.861959655984
$GPGGA,180318.00,3246.2233,N,11732.5610,W,1,09,0.8,16.4,M,-34.5,M,,*67
$PYRTM,2024,121.752323820359,12.861971230498
$GPGGA,180319.00,3246.2242,N,11732.5634,W,1,09,0.8,13.8,M,-34.5,M,,*6F
$PYRTM,2024,121.752335407396,12.861982817546
$GPGGA,180320.00,3246.2252,N,11732.5657,W,1,09,0.8,13.5,M,-34.5,M,,*6C
$PYRTM,2024,121.752346968218,12.861994378356
$GPGGA,180321.00,3246.2261,N,11732.5681,W,1,09,0.8,14.4,M,-34.5,M,,*60
$PYRTM,2024,121.752358549340,12.862005959479
$GPGGA,180322.00,3246.2272,N,11732.5705,W,1,09,0.8,16.9,M,-34.5,M,,*63
$PYRTM,2024,121.752370116088,12.862017526227
$GPGGA,180323.00,3246.2283,N,11732.5727,W,1,09,0.8,17.2,M,-34.5,M,,*66
$PYRTM,2024,121.752381698738,12.862029108877
$GPGGA,180324.00,3246.2295,N,11732.5751,W,1,09,0.8,13.4,M,-34.5,M,,*65
$PYRTM,2024,121.752393267130,12.862040677269
$GPGGA,180325.00,3246.2306,N,11732.5774,W,1,09,0.8,13.5,M,-34.5,M,,*69
$PYRTM,2024,121.752403449977,12.862050860116
$GPGGA,180326.00,3246.2317,N,11732.5797,W,1,09,0.8,14.3,M,-34.5,M,,*66
$PYRTM,2024,121.752415267477,12.862062677616
$GPGGA,180327.00,3246.2327,N,11732.5820,W,1,09,0.8,12.2,M,-34.5,M,,*60
$PYRTM,2024,121.752428003009,12.862075413160
$GPGGA,180328.00,3246.2337,N,11732.5843,W,1,09,0.8,14.4,M,-34.5,M,,*6B
$PYRTM,2024,121.752439561574,12.862086971713
$GPGGA,180329.00,3246.2347,N,11732.5866,W,1,09,0.8,13.6,M,-34.5,M,,*6F
$PYRTM,2024,121.752451151204,12.862098561354
$GPGGA,180330.00,3246.2357,N,11732.5889,W,1,09,0.8,12.0,M,-34.5,M,,*60
$PYRTM,2024,121.752462709225,12.862110119363
$GPGGA,180331.00,3246.2367,N,11732.5913,W,1,09,0.8,11.7,M,-34.5,M,,*64
$PYRTM,2024,121.752474296968,12.862121707106
$GPGGA,180332.00,3246.2377,N,11732.5936,W,1,09,0.8,11.5,M,-34.5,M,,*63
$PYRTM,2024,121.752485857813,12.862133267951
$GPGGA,180333.00,3246.2388,N,11732.5960,W,1,09,0.8,13.3,M,-34.5,M,,*65
$PYRTM,2024,121.752497444699,12.862144854838
$GPGGA,180334.00,3246.2398,N,11732.5983,W,1,09,0.8,14.1,M,-34.5,M,,*6B
$PYRTM,2024,121.752509005625,12.862156415764
$GPGGA,180335.00,3246.2408,N,11732.6006,W,1,09,0.8,12.8,M,-34.5,M,,*6C
$PYRTM,2024,121.752520595984,12.862168006134
$GPGGA,180336.00,3246.2419,N,11732.6028,W,1,09,0.8,17.3,M,-34.5,M,,*6D
$PYRTM,2024,121.752532154062,12.862179564201
$GPGGA,180337.00,3246.2430,N,11732.6054,W,1,09,0.8,17.9,M,-34.5,M,,*66
$PYRTM,2024,121.752543742836,12.862191152975
$GPGGA,180338.00,3246.2440,N,11732.6080,W,1,09,0.8,17.7,M,-34.5,M,,*69
$PYRTM,2024,121.752555302257,12.862202712407
$GPGGA,180339.00,3246.2450,N,11732.6103,W,1,09,0.8,17.0,M,-34.5,M,,*64
$PYRTM,2024,121.752566889282,12.862214299421
$GPGGA,180340.00,3246.2460,N,11732.6125,W,1,09,0.8,16.5,M,-34.5,M,,*69
$PYRTM,2024,121.752578451852,12.862225861991
$GPGGA,180341.00,3246.2471,N,11732.6148,W,1,09,0.8,13.9,M,-34.5,M,,*6A
$PYRTM,2024,121.752590040995,12.862237451134
$GPGGA,180342.00,3246.2483,N,11732.6171,W,1,09,0.8,14.5,M,-34.5,M,,*65
$PYRTM,2024,121.752601598171,12.862249008310
$GPGGA,180343.00,3246.2494,N,11732.6195,W,1,09,0.8,14.7,M,-34.5,M,,*6A
$PYRTM,2024,121.752613185880,12.862260596019
$GPGGA,180344.00,3246.2504,N,11732.6221,W,1,09,0.8,13.5,M,-34.5,M,,*6C
$PYRTM,2024,121.752624746609,12.862272156748
$GPGGA,180345.00,3246.2515,N,11732.6245,W,1,09,0.8,14.5,M,-34.5,M,,*68
$PYRTM,2024,121.752636329005,12.862283739144
$GPGGA,180346.00,3246.2525,N,11732.6267,W,1,09,0.8,13.7,M,-34.5,M,,*6D
$PYRTM,2024,121.752648372697,12.862295782836
$GPGGA,180347.00,3246.2536,N,11732.6290,W,1,09,0.8,14.1,M,-34.5,M,,*67
$PYRTM,2024,121.752659932731,12.862307342870
$GPGGA,180348.00,3246.2547,N,11732.6312,W,1,09,0.8,15.4,M,-34.5,M,,*61
$PYRTM,2024,121.752671520903,12.862318931042
$GPGGA,180349.00,3246.2558,N,11732.6337,W,1,09,0.8,15.2,M,-34.5,M,,*6F
$PYRTM,2024,121.752683080301,12.862330490440
$GPGGA,180350.00,3246.2568,N,11732.6362,W,1,09,0.8,16.1,M,-34.5,M,,*64
$PYRTM,2024,121.752694682650,12.862342092789
$GPGGA,180351.00,3246.2576,N,11732.6384,W,1,09,0.8,18.3,M,-34.5,M,,*6E
$PYRTM,2024,121.752706230660,12.862353640799
$GPGGA,180352.00,3246.2587,N,11732.6405,W,1,09,0.8,16.8,M,-34.5,M,,*68
$PYRTM,2024,121.752717819132,12.862365229271
$GPGGA,180353.00,3246.2600,N,11732.6431,W,1,09,0.8,16.9,M,-34.5,M,,*63
$PYRTM,2024,121.752729379086,12.862376789225
$GPGGA,180354.00,3246.2611,N,11732.6455,W,1,09,0.8,15.8,M,-34.5,M,,*64
$PYRTM,2024,121.752740965000,12.862388375139
$GPGGA,180355.00,3246.2619,N,11732.6476,W,1,09,0.8,15.9,M,-34.5,M,,*6D
$PYRTM,2024,121.752751149502,12.862398559641
$GPGGA,180356.00,3246.2628,N,11732.6497,W,1,09,0.8,15.7,M,-34.5,M,,*6D
$PYRTM,2024,121.752762492188,12.862409902326
$GPGGA,180357.00,3246.2638,N,11732.6522,W,1,09,0.8,18.2,M,-34.5,M,,*6A
$PYRTM,2024,121.752775228229,12.862422638368
$GPGGA,180358.00,3246.2649,N,11732.6546,W,1,09,0.8,16.8,M,-34.5,M,,*65
$PYRTM,2024,121.752786785116,12.862434195255
$GPGGA,180359.00,3246.2660,N,11732.6567,W,1,09,0.8,16.1,M,-34.5,M,,*65
$PYRTM,2024,121.752798376262,12.862445786400
$GPGGA,180400.00,3246.2672,N,11732.6589,W,1,09,0.8,15.9,M,-34.5,M,,*66
$PYRTM,2024,121.752809933715,12.862457343866
$GPGGA,180401.00,3246.2682,N,11732.6613,W,1,09,0.8,13.3,M,-34.5,M,,*64
$PYRTM,2024,121.752821522813,12.862468932951
$GPGGA,180402.00,3246.2690,N,11732.6637,W,1,09,0.8,16.0,M,-34.5,M,,*64
$PYRTM,2024,121.752833082060,12.862480492199
$GPGGA,180403.00,3246.2700,N,11732.6660,W,1,09,0.8,14.0,M,-34.5,M,,*6D
$PYRTM,2024,121.752844669618,12.862492079757
$GPGGA,180404.00,3246.2712,N,11732.6683,W,1,09,0.8,15.4,M,-34.5,M,,*61
$PYRTM,2024,121.752856230255,12.862503640394
$GPGGA,180405.00,3246.2724,N,11732.6708,W,1,09,0.8,14.7,M,-34.5,M,,*65
$PYRTM,2024,121.752868267130,12.862515677269
$GPGGA,180406.00,3246.2732,N,11732.6733,W,1,09,0.8,17.1,M,-34.5,M,,*6C
$PYRTM,2024,121.752879856435,12.862527266574
$GPGGA,180407.00,3246.2739,N,11732.6754,W,1,09,0.8,16.5,M,-34.5,M,,*62
$PYRTM,2024,121.752891414525,12.862538824664
$GPGGA,180408.00,3246.2750,N,11732.6776,W,1,09,0.8,15.2,M,-34.5,M,,*66
$PYRTM,2024,121.752902997731,12.862550407870
$GPGGA,180409.00,3246.2762,N,11732.6800,W,1,09,0.8,15.9,M,-34.5,M,,*63
$PYRTM,2024,121.752914564340,12.862561974479
$GPGGA,180410.00,3246.2772,N,11732.6824,W,1,09,0.8,14.0,M,-34.5,M,,*64
$PYRTM,2024,121.752926152512,12.862573562650
$GPGGA,180411.00,3246.2780,N,11732.6847,W,1,09,0.8,14.4,M,-34.5,M,,*69
$PYRTM,2024,121.752937826991,12.862585237141
$GPGGA,180412.00,3246.2790,N,11732.6870,W,1,09,0.8,15.3,M,-34.5,M,,*69
$PYRTM,2024,121.752949410498,12.862596820637
$GPGGA,180413.00,3246.2802,N,11732.6895,W,1,09,0.8,16.1,M,-34.5,M,,*66
$PYRTM,2024,121.752960978009,12.862608388148
$GPGGA,180414.00,3246.2814,N,11732.6918,W,1,09,0.8,14.8,M,-34.5,M,,*69
$PYRTM,2024,121.752978569120,12.862625979259
$GPGGA,180415.00,3246.2823,N,11732.6941,W,1,09,0.8,14.6,M,-34.5,M,,*6E
$PYRTM,2024,121.752990607569,12.862638017708
$GPGGA,180416.00,3246.2831,N,11732.6965,W,1,09,0.8,11.0,M,-34.5,M,,*6B
$PYRTM,2024,121.753001035255,12.862648445394
$GPGGA,180417.00,3246.2840,N,11732.6990,W,1,09,0.8,12.2,M,-34.5,M,,*67
$PYRTM,2024,121.753012264861,12.862659675000
$GPGGA,180418.00,3246.2850,N,11732.7012,W,1,09,0.8,15.4,M,-34.5,M,,*6A
$PYRTM,2024,121.753023373519,12.862670783657
$GPGGA,180419.00,3246.2860,N,11732.7034,W,1,09,0.8,16.7,M,-34.5,M,,*6C
$PYRTM,2024,121.753034479769,12.862681889907
$GPGGA,180420.00,3246.2869,N,11732.7058,W,1,09,0.8,17.8,M,-34.5,M,,*6B
$PYRTM,2024,121.753045599884,12.862693010023
$GPGGA,180421.00,3246.2877,N,11732.7083,W,1,09,0.8,17.8,M,-34.5,M,,*63
$PYRTM,2024,121.753056822338,12.862704232477
$GPGGA,180422.00,3246.2886,N,11732.7106,W,1,09,0.8,15.7,M,-34.5,M,,*6F
$PYRTM,2024,121.753067937234,12.862715347373
$GPGGA,180423.00,3246.2896,N,11732.7130,W,1,09,0.8,14.1,M,-34.5,M,,*6D
$PYRTM,2024,121.753079043738,12.862726453877
$GPGGA,180424.00,3246.2907,N,11732.7153,W,1,09,0.8,15.7,M,-34.5,M,,*61
$PYRTM,2024,121.753090143657,12.862737553808
$GPGGA,180425.00,3246.2918,N,11732.7177,W,1,09,0.8,17.6,M,-34.5,M,,*6B
$PYRTM,2024,121.753104494873,12.862751905012
$GPGGA,180426.00,3246.2926,N,11732.7201,W,1,09,0.8,17.0,M,-34.5,M,,*61
$PYRTM,2024,121.753115719769,12.862763129907
$GPGGA,180427.00,3246.2935,N,11732.7224,W,1,09,0.8,16.8,M,-34.5,M,,*6C
$PYRTM,2024,121.753126832153,12.862774242292
$GPGGA,180428.00,3246.2946,N,11732.7246,W,1,09,0.8,19.2,M,-34.5,M,,*66
$PYRTM,2024,121.753137944861,12.862785355000
$GPGGA,180429.00,3246.2958,N,11732.7270,W,1,09,0.8,18.9,M,-34.5,M,,*67
$PYRTM,2024,121.753149053773,12.862796463912
$GPGGA,180430.00,3246.2970,N,11732.7294,W,1,09,0.8,18.9,M,-34.5,M,,*6F
$PYRTM,2024,121.753160295579,12.862807705718
$GPGGA,180431.00,3246.2980,N,11732.7313,W,1,09,0.8,18.6,M,-34.5,M,,*60
$PYRTM,2024,121.753171402211,12.862818812350
$GPGGA,180432.00,3246.2991,N,11732.7331,W,1,09,0.8,18.4,M,-34.5,M,,*61
$PYRTM,2024,121.753182503993,12.862829914132
$GPGGA,180433.00,3246.3002,N,11732.7354,W,1,09,0.8,17.4,M,-34.5,M,,*6E
$PYRTM,2024,121.753193629699,12.862841039838
$GPGGA,180434.00,3246.3012,N,11732.7381,W,1,09,0.8,17.2,M,-34.5,M,,*66
$PYRTM,2024,121.753204855891,12.862852266030
$GPGGA,180435.00,3246.3021,N,11732.7404,W,1,09,0.8,18.6,M,-34.5,M,,*66
$PYRTM,2024,121.753215954931,12.862863365069
$GPGGA,180436.00,3246.3032,N,11732.7425,W,1,09,0.8,16.5,M,-34.5,M,,*69
$PYRTM,2024,121.753227081227,12.862874491366
$GPGGA,180437.00,3246.3043,N,11732.7446,W,1,09,0.8,15.1,M,-34.5,M,,*6C
$PYRTM,2024,121.753238294421,12.862885704560
$GPGGA,180438.00,3246.3053,N,11732.7471,W,1,09,0.8,14.4,M,-34.5,M,,*62
$PYRTM,2024,121.753249752106,12.862897162245
$GPGGA,180439.00,3246.3062,N,11732.7494,W,1,09,0.8,14.4,M,-34.5,M,,*6A
$PYRTM,2024,121.753261324225,12.862908734375
$GPGGA,180440.00,3246.3073,N,11732.7517,W,1,09,0.8,14.0,M,-34.5,M,,*6A
$PYRTM,2024,121.753272898993,12.862920309132
$GPGGA,180441.00,3246.3086,N,11732.7540,W,1,09,0.8,14.5,M,-34.5,M,,*66
$PYRTM,2024,121.753284489873,12.862931900012
$GPGGA,180442.00,3246.3097,N,11732.7563,W,1,09,0.8,13.1,M,-34.5,M,,*67
$PYRTM,2024,121.753296047350,12.862943457488
$GPGGA,180443.00,3246.3106,N,11732.7584,W,1,09,0.8,13.1,M,-34.5,M,,*66
$PYRTM,2024,121.753307636956,12.862955047095
$GPGGA,180444.00,3246.3116,N,11732.7606,W,1,09,0.8,13.8,M,-34.5,M,,*60
$PYRTM,2024,121.753319195370,12.862966605521
$GPGGA,180445.00,3246.3128,N,11732.7630,W,1,09,0.8,14.1,M,-34.5,M,,*67
$PYRTM,2024,121.753330777164,12.862978187303
$GPGGA,180446.00,3246.3141,N,11732.7654,W,1,09,0.8,14.4,M,-34.5,M,,*6C
$PYRTM,2024,121.753342460521,12.862989870660
$GPGGA,180447.00,3246.3152,N,11732.7678,W,1,09,0.8,12.7,M,-34.5,M,,*64
$PYRTM,2024,121.753353932130,12.863001342269
$GPGGA,180448.00,3246.3160,N,11732.7700,W,1,09,0.8,14.6,M,-34.5,M,,*63
$PYRTM,2024,121.753365491528,12.863012901678
$GPGGA,180449.00,3246.3169,N,11732.7721,W,1,09,0.8,14.7,M,-34.5,M,,*69
$PYRTM,2024,121.753377075023,12.863024485162
$GPGGA,180450.00,3246.3180,N,11732.7744,W,1,09,0.8,14.4,M,-34.5,M,,*66
$PYRTM,2024,121.753388648299,12.863036058438
$GPGGA,180451.00,3246.3192,N,11732.7769,W,1,09,0.8,12.7,M,-34.5,M,,*6E
$PYRTM,2024,121.753400227488,12.863047637639
$GPGGA,180452.00,3246.3202,N,11732.7792,W,1,09,0.8,12.2,M,-34.5,M,,*66
$PYRTM,2024,121.753411800521,12.863059210660
$GPGGA,180453.00,3246.3210,N,11732.7813,W,1,09,0.8,10.6,M,-34.5,M,,*64
$PYRTM,2024,121.753423377396,12.863070787535
$GPGGA,180454.00,3246.3219,N,11732.7835,W,1,09,0.8,11.8,M,-34.5,M,,*61
$PYRTM,2024,121.753434937164,12.863082347303
$GPGGA,180455.00,3246.3230,N,11732.7861,W,1,09,0.8,12.5,M,-34.5,M,,*64
$PYRTM,2024,121.753445468090,12.863092878229
$GPGGA,180456.00,3246.3240,N,11732.7884,W,1,09,0.8,13.2,M,-34.5,M,,*6D
$PYRTM,2024,121.753456935231,12.863104345370
$GPGGA,180457.00,3246.3251,N,11732.7905,W,1,09,0.8,13.0,M,-34.5,M,,*66
$PYRTM,2024,121.753469674942,12.863117085081
$GPGGA,180458.00,3246.3261,N,11732.7928,W,1,09,0.8,13.0,M,-34.5,M,,*65
$PYRTM,2024,121.753481245741,12.863128655891
$GPGGA,180459.00,3246.3270,N,11732.7953,W,1,09,0.8,14.2,M,-34.5,M,,*6D
$PYRTM,2024,121.753492821701,12.863140231840
$GPGGA,180500.00,3246.3280,N,11732.7974,W,1,09,0.8,11.0,M,-34.5,M,,*6D
$PYRTM,2024,121.753504278600,12.863151688738
$GPGGA,180501.00,3246.3290,N,11732.7996,W,1,09,0.8,9.5,M,-34.5,M,,*5D
$PYRTM,2024,121.753515967488,12.863163377627
$GPGGA,180502.00,3246.3300,N,11732.8019,W,1,09,0.8,13.8,M,-34.5,M,,*61
$PYRTM,2024,121.753527544965,12.863174955104
$GPGGA,180503.00,3246.3310,N,11732.8043,W,1,09,0.8,13.5,M,-34.5,M,,*63
$PYRTM,2024,121.753539118380,12.863186528519
$GPGGA,180504.00,3246.3320,N,11732.8068,W,1,09,0.8,13.9,M,-34.5,M,,*62
$PYRTM,2024,121.753550694329,12.863198104468
$GPGGA,180505.00,3246.3331,N,11732.8090,W,1,09,0.8,12.6,M,-34.5,M,,*6A
$PYRTM,2024,121.753562266343,12.863209676493
$GPGGA,180506.00,3246.3340,N,11732.8108,W,1,09,0.8,14.6,M,-34.5,M,,*69
$PYRTM,2024,121.753573839306,12.863221249444
$GPGGA,180507.00,3246.3351,N,11732.8128,W,1,09,0.8,17.1,M,-34.5,M,,*6E
$PYRTM,2024,121.753585408102,12.863232818252
$GPGGA,180508.00,3246.3363,N,11732.8153,W,1,09,0.8,16.2,M,-34.5,M,,*6E
$PYRTM,2024,121.753596974433,12.863244384583
$GPGGA,180509.00,3246.3373,N,11732.8180,W,1,09,0.8,13.9,M,-34.5,M,,*6E
$PYRTM,2024,121.753608564826,12.863255974965
$GPGGA,180510.00,3246.3381,N,11732.8202,W,1,09,0.8,15.6,M,-34.5,M,,*6B
$PYRTM,2024,121.753620136609,12.863267546748
$GPGGA,180511.00,3246.3392,N,11732.8220,W,1,09,0.8,15.0,M,-34.5,M,,*6E
$PYRTM,2024,121.753631713032,12.863279123171
$GPGGA,180512.00,3246.3404,N,11732.8240,W,1,09,0.8,18.0,M,-34.5,M,,*6E
$PYRTM,2024,121.753643271134,12.863290681273
$GPGGA,180513.00,3246.3414,N,11732.8264,W,1,09,0.8,16.3,M,-34.5,M,,*65
$PYRTM,2024,121.753654862662,12.863302272801
$GPGGA,180514.00,3246.3421,N,11732.8290,W,1,09,0.8,16.7,M,-34.5,M,,*6B
$PYRTM,2024,121.753666431609,12.863313841748
$GPGGA,180515.00,3246.3429,N,11732.8313,W,1,09,0.8,16.5,M,-34.5,M,,*6A
$PYRTM,2024,121.753678009363,12.863325419514
$GPGGA,180516.00,3246.3440,N,11732.8333,W,1,09,0.8,16.3,M,-34.5,M,,*62
$PYRTM,2024,121.753689799676,12.863337209815
$GPGGA,180517.00,3246.3453,N,11732.8353,W,1,09,0.8,16.9,M,-34.5,M,,*6D
$PYRTM,2024,121.753701154745,12.863348564884
$GPGGA,180518.00,3246.3464,N,11732.8377,W,1,09,0.8,15.4,M,-34.5,M,,*6E
$PYRTM,2024,121.753712716979,12.863360127118
$GPGGA,180519.00,3246.3471,N,11732.8402,W,1,09,0.8,16.5,M,-34.5,M,,*6C
$PYRTM,2024,121.753724304525,12.863371714664
$GPGGA,180520.00,3246.3477,N,11732.8426,W,1,09,0.8,15.5,M,-34.5,M,,*65
$PYRTM,2024,121.753735881204,12.863383291354
$GPGGA,180521.00,3246.3487,N,11732.8448,W,1,09,0.8,16.8,M,-34.5,M,,*6D
$PYRTM,2024,121.753747450405,12.863394860544
$GPGGA,180522.00,3246.3500,N,11732.8468,W,1,09,0.8,14.6,M,-34.5,M,,*6E
$PYRTM,2024,121.753759024398,12.863406434537
$GPGGA,180523.00,3246.3512,N,11732.8491,W,1,09,0.8,14.5,M,-34.5,M,,*69
$PYRTM,2024,121.753770601968,12.863418012106
$GPGGA,180524.00,3246.3521,N,11732.8515,W,1,09,0.8,14.2,M,-34.5,M,,*64
$PYRTM,2024,121.753782173924,12.863429584062
$GPGGA,180525.00,3246.3529,N,11732.8539,W,1,09,0.8,13.1,M,-34.5,M,,*67
$PYRTM,2024,121.753792354757,12.863439764896
$GPGGA,180526.00,3246.3538,N,11732.8561,W,1,09,0.8,13.6,M,-34.5,M,,*6E
$PYRTM,2024,121.753804164884,12.863451575023
$GPGGA,180527.00,3246.3551,N,11732.8583,W,1,09,0.8,14.5,M,-34.5,M,,*68
$PYRTM,2024,121.753816897211,12.863464307350
$GPGGA,180528.00,3246.3562,N,11732.8606,W,1,09,0.8,15.7,M,-34.5,M,,*6A
$PYRTM,2024,121.753828470451,12.863475880590
$GPGGA,180529.00,3246.3572,N,11732.8630,W,1,09,0.8,14.8,M,-34.5,M,,*61
$PYRTM,2024,121.753840030810,12.863487440949
$GPGGA,180530.00,3246.3581,N,11732.8653,W,1,09,0.8,14.2,M,-34.5,M,,*6A
$PYRTM,2024,121.753851605197,12.863499015336
$GPGGA,180531.00,3246.3591,N,11732.8678,W,1,09,0.8,11.9,M,-34.5,M,,*6D
$PYRTM,2024,121.753863193495,12.863510603634
$GPGGA,180532.00,3246.3600,N,11732.8703,W,1,09,0.8,11.9,M,-34.5,M,,*68
$PYRTM,2024,121.753874766771,12.863522176910
$GPGGA,180533.00,3246.3610,N,11732.8725,W,1,09,0.8,12.2,M,-34.5,M,,*64
$PYRTM,2024,121.753886335116,12.863533745255
$GPGGA,180534.00,3246.3622,N,11732.8747,W,1,09,0.8,12.9,M,-34.5,M,,*6D
$PYRTM,2024,121.753897915347,12.863545325486
$GPGGA,180535.00,3246.3633,N,11732.8770,W,1,09,0.8,12.0,M,-34.5,M,,*61
$PYRTM,2024,121.753909491331,12.863556901470
$GPGGA,180536.00,3246.3643,N,11732.8796,W,1,09,0.8,11.7,M,-34.5,M,,*69
$PYRTM,2024,121.753921051250,12.863568461389
$GPGGA,180537.00,3246.3651,N,11732.8821,W,1,09,0.8,14.3,M,-34.5,M,,*69
$PYRTM,2024,121.753932625475,12.863580035613
$GPGGA,180538.00,3246.3661,N,11732.8845,W,1,09,0.8,13.1,M,-34.5,M,,*62
$PYRTM,2024,121.753944198958,12.863591609097
$GPGGA,180539.00,3246.3672,N,11732.8868,W,1,09,0.8,11.8,M,-34.5,M,,*65
$PYRTM,2024,121.753955800139,12.863603210278
$GPGGA,180540.00,3246.3684,N,11732.8891,W,1,09,0.8,11.9,M,-34.5,M,,*65
$PYRTM,2024,121.753967359896,12.863614770035
$GPGGA,180541.00,3246.3694,N,11732.8916,W,1,09,0.8,13.7,M,-34.5,M,,*67
$PYRTM,2024,121.753978936586,12.863626346736
$GPGGA,180542.00,3246.3703,N,11732.8939,W,1,09,0.8,13.6,M,-34.5,M,,*67
$PYRTM,2024,121.753990493889,12.863637904028
$GPGGA,180543.00,3246.3713,N,11732.8963,W,1,09,0.8,15.5,M,-34.5,M,,*6D
$PYRTM,2024,121.754002082940,12.863649493079
$GPGGA,180544.00,3246.3723,N,11732.8988,W,1,09,0.8,15.2,M,-34.5,M,,*6B
$PYRTM,2024,121.754013656620,12.863661066759
$GPGGA,180545.00,3246.3735,N,11732.9012,W,1,09,0.8,13.6,M,-34.5,M,,*64
$PYRTM,2024,121.754025577755,12.863672987894
$GPGGA,180546.00,3246.3746,N,11732.9037,W,1,09,0.8,13.6,M,-34.5,M,,*64
$PYRTM,2024,121.754037137037,12.863684547176
$GPGGA,180547.00,3246.3756,N,11732.9062,W,1,09,0.8,17.4,M,-34.5,M,,*62
$PYRTM,2024,121.754048378553,12.863695788692
$GPGGA,180548.00,3246.3765,N,11732.9085,W,1,09,0.8,14.6,M,-34.5,M,,*65
$PYRTM,2024,121.754059955741,12.863707365880
$GPGGA,180549.00,3246.3775,N,11732.9106,W,1,09,0.8,17.8,M,-34.5,M,,*62
$PYRTM,2024,121.754071515417,12.863718925556
$GPGGA,180550.00,3246.3787,N,11732.9131,W,1,09,0.8,16.5,M,-34.5,M,,*6F
$PYRTM,2024,121.754083089271,12.863730499410
$GPGGA,180551.00,3246.3798,N,11732.9156,W,1,09,0.8,16.8,M,-34.5,M,,*6C
$PYRTM,2024,121.754094661863,12.863742072002
$GPGGA,180552.00,3246.3806,N,11732.9180,W,1,09,0.8,16.9,M,-34.5,M,,*6D
$PYRTM,2024,121.754106248623,12.863753658762
$GPGGA,180553.00,3246.3815,N,11732.9201,W,1,09,0.8,17.2,M,-34.5,M,,*6E
$PYRTM,2024,121.754117838044,12.863765248183
$GPGGA,180554.00,3246.3827,N,11732.9223,W,1,09,0.8,15.7,M,-34.5,M,,*6F
$PYRTM,2024,121.754129397002,12.863776807141
$GPGGA,180555.00,3246.3840,N,11732.9247,W,1,09,0.8,15.6,M,-34.5,M,,*6C
$PYRTM,2024,121.754139584317,12.863786994456
$GPGGA,180556.00,3246.3850,N,11732.9272,W,1,09,0.8,14.4,M,-34.5,M,,*6B
$PYRTM,2024,121.754151383056,12.863798793194
$GPGGA,180557.00,3246.3858,N,11732.9294,W,1,09,0.8,13.6,M,-34.5,M,,*6F
$PYRTM,2024,121.754164107708,12.863811517847
$GPGGA,180558.00,3246.3868,N,11732.9316,W,1,09,0.8,14.9,M,-34.5,M,,*60
$PYRTM,2024,121.754175681794,12.863823091933
$GPGGA,180559.00,3246.3880,N,11732.9341,W,1,09,0.8,15.6,M,-34.5,M,,*6B
$PYRTM,2024,121.754187271736,12.863834681875
$GPGGA,180600.00,3246.3891,N,11732.9365,W,1,09,0.8,16.2,M,-34.5,M,,*65
$PYRTM,2024,121.754198840764,12.863846250903
$GPGGA,180601.00,3246.3900,N,11732.9387,W,1,09,0.8,16.4,M,-34.5,M,,*67
$PYRTM,2024,121.754210418044,12.863857828183
$GPGGA,180602.00,3246.3909,N,11732.9410,W,1,09,0.8,14.6,M,-34.5,M,,*64
$PYRTM,2024,121.754221989745,12.863869399884
$GPGGA,180603.00,3246.3919,N,11732.9434,W,1,09,0.8,17.0,M,-34.5,M,,*67
$PYRTM,2024,121.754233563877,12.863880974016
$GPGGA,180604.00,3246.3930,N,11732.9458,W,1,09,0.8,16.6,M,-34.5,M,,*66
$PYRTM,2024,121.754245126088,12.863892536227
$GPGGA,180605.00,3246.3941,N,11732.9482,W,1,09,0.8,15.8,M,-34.5,M,,*6B
$PYRTM,2024,121.754256712720,12.863904122859
$GPGGA,180606.00,3246.3950,N,11732.9506,W,1,09,0.8,16.0,M,-34.5,M,,*6E
$PYRTM,2024,121.754268286343,12.863915696481
$GPGGA,180607.00,3246.3959,N,11732.9528,W,1,09,0.8,16.7,M,-34.5,M,,*6D
$PYRTM,2024,121.754279860532,12.863927270671
$GPGGA,180608.00,3246.3971,N,11732.9549,W,1,09,0.8,16.0,M,-34.5,M,,*68
$PYRTM,2024,121.754291434201,12.863938844329
$GPGGA,180609.00,3246.3983,N,11732.9574,W,1,09,0.8,16.2,M,-34.5,M,,*68
$PYRTM,2024,121.754303008032,12.863950418171
$GPGGA,180610.00,3246.3992,N,11732.9599,W,1,09,0.8,15.2,M,-34.5,M,,*60
$PYRTM,2024,121.754314571620,12.863961981759
$GPGGA,180611.00,3246.4000,N,11732.9621,W,1,09,0.8,14.7,M,-34.5,M,,*60
$PYRTM,2024,121.754326160394,12.863973570532
$GPGGA,180612.00,3246.4011,N,11732.9644,W,1,09,0.8,12.7,M,-34.5,M,,*66
$PYRTM,2024,121.754337718287,12.863985128426
$GPGGA,180613.00,3246.4023,N,11732.9668,W,1,09,0.8,14.0,M,-34.5,M,,*69
$PYRTM,2024,121.754349320972,12.863996731111
$GPGGA,180614.00,3246.4033,N,11732.9691,W,1,09,0.8,13.9,M,-34.5,M,,*67
$PYRTM,2024,121.754360879792,12.864008289931
$GPGGA,180615.00,3246.4043,N,11732.9715,W,1,09,0.8,15.0,M,-34.5,M,,*63
$PYRTM,2024,121.754372468264,12.864019878403
$GPGGA,180616.00,3246.4053,N,11732.9740,W,1,09,0.8,15.9,M,-34.5,M,,*68
$PYRTM,2024,121.754384492917,12.864031903067
$GPGGA,180617.00,3246.4063,N,11732.9762,W,1,09,0.8,14.5,M,-34.5,M,,*67
$PYRTM,2024,121.754396167905,12.864043578044
$GPGGA,180618.00,3246.4072,N,11732.9783,W,1,09,0.8,15.1,M,-34.5,M,,*62
$PYRTM,2024,121.754407754780,12.864055164919
$GPGGA,180619.00,3246.4082,N,11732.9805,W,1,09,0.8,14.3,M,-34.5,M,,*6E
$PYRTM,2024,121.754425363056,12.864072773194
$GPGGA,180620.00,3246.4093,N,11732.9830,W,1,09,0.8,16.4,M,-34.5,M,,*67
$PYRTM,2024,121.754437269329,12.864084679468
$GPGGA,180621.00,3246.4102,N,11732.9855,W,1,09,0.8,14.7,M,-34.5,M,,*6D
$PYRTM,2024,121.754448018958,12.864095429086
$GPGGA,180622.00,3246.4110,N,11732.9877,W,1,09,0.8,15.6,M,-34.5,M,,*6D
$PYRTM,2024,121.754459130463,12.864106540602
$GPGGA,180623.00,3246.4119,N,11732.9898,W,1,09,0.8,16.2,M,-34.5,M,,*63
$PYRTM,2024,121.754470243287,12.864117653426
$GPGGA,180624.00,3246.4130,N,11732.9921,W,1,09,0.8,13.7,M,-34.5,M,,*6C
$PYRTM,2024,121.754481354549,12.864128764687
$GPGGA,180625.00,3246.4141,N,11732.9946,W,1,09,0.8,15.3,M,-34.5,M,,*68
$PYRTM,2024,121.754497102975,12.864144513113
$GPGGA,180626.00,3246.4152,N,11732.9969,W,1,09,0.8,13.6,M,-34.5,M,,*67
$PYRTM,2024,121.754508322245,12.864155732384
$GPGGA,180627.00,3246.4161,N,11732.9991,W,1,09,0.8,13.7,M,-34.5,M,,*60
$PYRTM,2024,121.754519433738,12.864166843877
$GPGGA,180628.00,3246.4170,N,11733.0014,W,1,09,0.8,12.3,M,-34.5,M,,*66
$PYRTM,2024,121.754530546794,12.864177956933
$GPGGA,180629.00,3246.4180,N,11733.0037,W,1,09,0.8,15.4,M,-34.5,M,,*69
$PYRTM,2024,121.754541654271,12.864189064410
$GPGGA,180630.00,3246.4190,N,11733.0059,W,1,09,0.8,12.3,M,-34.5,M,,*68
$PYRTM,2024,121.754552880347,12.864200290486
$GPGGA,180631.00,3246.4200,N,11733.0083,W,1,09,0.8,14.3,M,-34.5,M,,*62
$PYRTM,2024,121.754563991296,12.864211401435
$GPGGA,180632.00,3246.4209,N,11733.0109,W,1,09,0.8,14.6,M,-34.5,M,,*6E
$PYRTM,2024,121.754575102234,12.864222512373
$GPGGA,180633.00,3246.4218,N,11733.0130,W,1,09,0.8,15.8,M,-34.5,M,,*6A
$PYRTM,2024,121.754586213380,12.864233623519
$GPGGA,180634.00,3246.4230,N,11733.0151,W,1,09,0.8,17.1,M,-34.5,M,,*6B
$PYRTM,2024,121.754597454595,12.864244864734
$GPGGA,180635.00,3246.4241,N,11733.0175,W,1,09,0.8,15.3,M,-34.5,M,,*6A
$PYRTM,2024,121.754609028854,12.864256438993
$GPGGA,180636.00,3246.4252,N,11733.0199,W,1,09,0.8,15.6,M,-34.5,M,,*6C
$PYRTM,2024,121.754620140394,12.864267550532
$GPGGA,180637.00,3246.4261,N,11733.0222,W,1,09,0.8,16.3,M,-34.5,M,,*68
$PYRTM,2024,121.754631251169,12.864278661308
$GPGGA,180638.00,3246.4270,N,11733.0245,W,1,09,0.8,18.3,M,-34.5,M,,*68
$PYRTM,2024,121.754642357778,12.864289767917
$GPGGA,180639.00,3246.4281,N,11733.0270,W,1,09,0.8,17.9,M,-34.5,M,,*64
$PYRTM,2024,121.754653577373,12.864300987512
$GPGGA,180640.00,3246.4292,N,11733.0294,W,1,09,0.8,17.5,M,-34.5,M,,*6E
$PYRTM,2024,121.754664687963,12.864312098102
$GPGGA,180641.00,3246.4301,N,11733.0317,W,1,09,0.8,16.8,M,-34.5,M,,*62
$PYRTM,2024,121.754675799583,12.864323209734
$GPGGA,180642.00,3246.4310,N,11733.0340,W,1,09,0.8,17.3,M,-34.5,M,,*69
$PYRTM,2024,121.754686910729,12.864334320868
$GPGGA,180643.00,3246.4321,N,11733.0364,W,1,09,0.8,17.9,M,-34.5,M,,*66
$PYRTM,2024,121.754698137801,12.864345547940
$GPGGA,180644.00,3246.4332,N,11733.0390,W,1,09,0.8,17.5,M,-34.5,M,,*64
$PYRTM,2024,121.754709250000,12.864356660150
$GPGGA,180645.00,3246.4342,N,11733.0411,W,1,09,0.8,14.9,M,-34.5,M,,*63
$PYRTM,2024,121.754720360012,12.864367770162
$GPGGA,180646.00,3246.4349,N,11733.0430,W,1,09,0.8,17.4,M,-34.5,M,,*66
$PYRTM,2024,121.754731947315,12.864379357454
$GPGGA,180647.00,3246.4358,N,11733.0454,W,1,09,0.8,16.8,M,-34.5,M,,*68
$PYRTM,2024,121.754743048032,12.864390458171
$GPGGA,180648.00,3246.4369,N,11733.0479,W,1,09,0.8,17.4,M,-34.5,M,,*67
$PYRTM,2024,121.754754388646,12.864401798796
$GPGGA,180649.00,3246.4381,N,11733.0503,W,1,09,0.8,17.7,M,-34.5,M,,*6F
$PYRTM,2024,121.754765983079,12.864413393206
$GPGGA,180650.00,3246.4391,N,11733.0524,W,1,09,0.8,14.3,M,-34.5,M,,*64
$PYRTM,2024,121.754777549155,12.864424959294
$GPGGA,180651.00,3246.4400,N,11733.0545,W,1,09,0.8,12.9,M,-34.5,M,,*61
$PYRTM,2024,121.754789111111,12.864436521250
$GPGGA,180652.00,3246.4410,N,11733.0569,W,1,09,0.8,17.8,M,-34.5,M,,*69
$PYRTM,2024,121.754800697303,12.864448107442
$GPGGA,180653.00,3246.4420,N,11733.0595,W,1,09,0.8,16.5,M,-34.5,M,,*64
$PYRTM,2024,121.754812275486,12.864459685625
$GPGGA,180654.00,3246.4431,N,11733.0617,W,1,09,0.8,16.5,M,-34.5,M,,*6A
$PYRTM,2024,121.754823847199,12.864471257338
$GPGGA,180655.00,3246.4443,N,11733.0638,W,1,09,0.8,13.5,M,-34.5,M,,*66
$PYRTM,2024,121.754834031319,12.864481441458
$GPGGA,180656.00,3246.4454,N,11733.0663,W,1,09,0.8,12.6,M,-34.5,M,,*6F
$PYRTM,2024,121.754845838808,12.864493248947
$GPGGA,180657.00,3246.4462,N,11733.0689,W,1,09,0.8,15.8,M,-34.5,M,,*66
$PYRTM,2024,121.754858572465,12.864505982604
$GPGGA,180658.00,3246.4472,N,11733.0712,W,1,09,0.8,16.4,M,-34.5,M,,*64
$PYRTM,2024,121.754870136840,12.864517546991
$GPGGA,180659.00,3246.4483,N,11733.0733,W,1,09,0.8,14.9,M,-34.5,M,,*67
$PYRTM,2024,121.754881703252,12.864529113391
$GPGGA,180700.00,3246.4494,N,11733.0757,W,1,09,0.8,14.7,M,-34.5,M,,*60
$PYRTM,2024,121.754893277303,12.864540687442
$GPGGA,180701.00,3246.4503,N,11733.0782,W,1,09,0.8,15.3,M,-34.5,M,,*63
$PYRTM,2024,121.754904852500,12.864552262639
$GPGGA,180702.00,3246.4512,N,11733.0805,W,1,09,0.8,16.0,M,-34.5,M,,*60
$PYRTM,2024,121.754916426701,12.864563836840
$GPGGA,180703.00,3246.4523,N,11733.0827,W,1,09,0.8,14.5,M,-34.5,M,,*64
$PYRTM,2024,121.754928000961,12.864575411100
$GPGGA,180704.00,3246.4534,N,11733.0850,W,1,09,0.8,15.6,M,-34.5,M,,*67
$PYRTM,2024,121.754939574664,12.864586984803
$GPGGA,180705.00,3246.4545,N,11733.0873,W,1,09,0.8,13.8,M,-34.5,M,,*69
$PYRTM,2024,121.754951150486,12.864598560625
$GPGGA,180706.00,3246.4554,N,11733.0898,W,1,09,0.8,12.3,M,-34.5,M,,*65
$PYRTM,2024,121.754962722546,12.864610132685
$GPGGA,180707.00,3246.4563,N,11733.0923,W,1,09,0.8,13.2,M,-34.5,M,,*61
$PYRTM,2024,121.754974296921,12.864621707060
$GPGGA,180708.00,3246.4573,N,11733.0947,W,1,09,0.8,13.7,M,-34.5,M,,*68
$PYRTM,2024,121.754985871053,12.864633281192
$GPGGA,180709.00,3246.4584,N,11733.0970,W,1,09,0.8,11.9,M,-34.5,M,,*69
$PYRTM,2024,121.754997445810,12.864644855961
$GPGGA,180710.00,3246.4594,N,11733.0995,W,1,09,0.8,12.8,M,-34.5,M,,*69
$PYRTM,2024,121.755009030486,12.864656440625
$GPGGA,180711.00,3246.4604,N,11733.1019,W,1,09,0.8,12.2,M,-34.5,M,,*64
$PYRTM,2024,121.755020609144,12.864668019282
$GPGGA,180712.00,3246.4614,N,11733.1044,W,1,09,0.8,11.5,M,-34.5,M,,*6A
$PYRTM,2024,121.755032175521,12.864679585660
$GPGGA,180713.00,3246.4623,N,11733.1067,W,1,09,0.8,12.2,M,-34.5,M,,*6A
$PYRTM,2024,121.755043756736,12.864691166887
$GPGGA,180714.00,3246.4633,N,11733.1089,W,1,09,0.8,13.9,M,-34.5,M,,*66
$PYRTM,2024,121.755055328090,12.864702738229
$GPGGA,180715.00,3246.4642,N,11733.1112,W,1,09,0.8,11.6,M,-34.5,M,,*6F
$PYRTM,2024,121.755066902870,12.864714313009
$GPGGA,180716.00,3246.4653,N,11733.1138,W,1,09,0.8,14.3,M,-34.5,M,,*64
$PYRTM,2024,121.755078694942,12.864726105081
$GPGGA,180717.00,3246.4664,N,11733.1164,W,1,09,0.8,14.4,M,-34.5,M,,*6F
$PYRTM,2024,121.755090051192,12.864737461343
$GPGGA,180718.00,3246.4673,N,11733.1188,W,1,09,0.8,12.8,M,-34.5,M,,*6E
$PYRTM,2024,121.755101618854,12.864749028993
$GPGGA,180719.00,3246.4683,N,11733.1210,W,1,09,0.8,13.4,M,-34.5,M,,*6F
$PYRTM,2024,121.755113198831,12.864760608970
$GPGGA,180720.00,3246.4693,N,11733.1234,W,1,09,0.8,14.8,M,-34.5,M,,*69
$PYRTM,2024,121.755124768102,12.864772178241
$GPGGA,180721.00,3246.4704,N,11733.1258,W,1,09,0.8,14.6,M,-34.5,M,,*63
$PYRTM,2024,121.755136347454,12.864783757593
$GPGGA,180722.00,3246.4714,N,11733.1284,W,1,09,0.8,13.9,M,-34.5,M,,*68
$PYRTM,2024,121.755147921609,12.864795331748
$GPGGA,180723.00,3246.4724,N,11733.1310,W,1,09,0.8,12.9,M,-34.5,M,,*67
$PYRTM,2024,121.755159482824,12.864806892963
$GPGGA,180724.00,3246.4733,N,11733.1332,W,1,09,0.8,14.3,M,-34.5,M,,*6A
$PYRTM,2024,121.755171056296,12.864818466435
$GPGGA,180725.00,3246.4743,N,11733.1352,W,1,09,0.8,13.3,M,-34.5,M,,*6D
$PYRTM,2024,121.755181587662,12.864828997801
$GPGGA,180726.00,3246.4755,N,11733.1376,W,1,09,0.8,15.6,M,-34.5,M,,*6C
$PYRTM,2024,121.755193063600,12.864840473738
$GPGGA,180727.00,3246.4766,N,11733.1402,W,1,09,0.8,15.3,M,-34.5,M,,*6C
$PYRTM,2024,121.755205807454,12.864853217604
$GPGGA,180728.00,3246.4775,N,11733.1425,W,1,09,0.8,15.4,M,-34.5,M,,*63
$PYRTM,2024,121.755217367141,12.864864777280
$GPGGA,180729.00,3246.4785,N,11733.1445,W,1,09,0.8,18.1,M,-34.5,M,,*63
$PYRTM,2024,121.755228939757,12.864876349896
$GPGGA,180730.00,3246.4796,N,11733.1469,W,1,09,0.8,16.7,M,-34.5,M,,*6F
$PYRTM,2024,121.755240501285,12.864887911424
$GPGGA,180731.00,3246.4808,N,11733.1495,W,1,09,0.8,15.3,M,-34.5,M,,*62
$PYRTM,2024,121.755252088206,12.864899498345
$GPGGA,180732.00,3246.4818,N,11733.1520,W,1,09,0.8,15.4,M,-34.5,M,,*68
$PYRTM,2024,121.755263649965,12.864911060104
$GPGGA,180733.00,3246.4827,N,11733.1542,W,1,09,0.8,17.0,M,-34.5,M,,*67
$PYRTM,2024,121.755275237049,12.864922647188
$GPGGA,180734.00,3246.4837,N,11733.1564,W,1,09,0.8,18.0,M,-34.5,M,,*6A
$PYRTM,2024,121.755286694896,12.864934105035
$GPGGA,180735.00,3246.4848,N,11733.1588,W,1,09,0.8,15.9,M,-34.5,M,,*65
$PYRTM,2024,121.755298385000,12.864945795139
$GPGGA,180736.00,3246.4858,N,11733.1611,W,1,09,0.8,17.7,M,-34.5,M,,*68
$PYRTM,2024,121.755309945694,12.864957355833
$GPGGA,180737.00,3246.4868,N,11733.1634,W,1,09,0.8,15.4,M,-34.5,M,,*6C
$PYRTM,2024,121.755321533287,12.864968943426
$GPGGA,180738.00,3246.4878,N,11733.1660,W,1,09,0.8,13.7,M,-34.5,M,,*66
$PYRTM,2024,121.755332992812,12.864980402951
$GPGGA,180739.00,3246.4888,N,11733.1685,W,1,09,0.8,13.4,M,-34.5,M,,*60
$PYRTM,2024,121.755344682280,12.864992092419
$GPGGA,180740.00,3246.4897,N,11733.1707,W,1,09,0.8,15.3,M,-34.5,M,,*6A
$PYRTM,2024,121.755356242477,12.865003652616
$GPGGA,180741.00,3246.4908,N,11733.1728,W,1,09,0.8,13.7,M,-34.5,M,,*63
$PYRTM,2024,121.755367699444,12.865015109583
$GPGGA,180742.00,3246.4919,N,11733.1752,W,1,09,0.8,13.8,M,-34.5,M,,*62
$PYRTM,2024,121.755379391806,12.865026801944
$GPGGA,180743.00,3246.4929,N,11733.1778,W,1,09,0.8,16.3,M,-34.5,M,,*66
$PYRTM,2024,121.755390980683,12.865038390822
$GPGGA,180744.00,3246.4938,N,11733.1802,W,1,09,0.8,16.3,M,-34.5,M,,*63
$PYRTM,2024,121.755402438403,12.865049848542
$GPGGA,180745.00,3246.4948,N,11733.1824,W,1,09,0.8,15.2,M,-34.5,M,,*63
$PYRTM,2024,121.755413997917,12.865061408056
$GPGGA,180746.00,3246.4960,N,11733.1846,W,1,09,0.8,14.7,M,-34.5,M,,*6A
$PYRTM,2024,121.755426034039,12.865073444178
$GPGGA,180747.00,3246.4971,N,11733.1870,W,1,09,0.8,12.7,M,-34.5,M,,*68
$PYRTM,2024,121.755437262951,12.865084673090
$GPGGA,180748.00,3246.4979,N,11733.1894,W,1,09,0.8,13.8,M,-34.5,M,,*6B
$PYRTM,2024,121.755448837616,12.865096247755
$GPGGA,180749.00,3246.4988,N,11733.1920,W,1,09,0.8,14.1,M,-34.5,M,,*64
$PYRTM,2024,121.755460328750,12.865107738889
$GPGGA,180750.00,3246.4998,N,11733.1946,W,1,09,0.8,15.5,M,-34.5,M,,*68
$PYRTM,2024,121.755471882500,12.865119292639
$GPGGA,180751.00,3246.5008,N,11733.1969,W,1,09,0.8,12.9,M,-34.5,M,,*6E
$PYRTM,2024,121.755483441667,12.865130851817
$GPGGA,180752.00,3246.5015,N,11733.1990,W,1,09,0.8,15.6,M,-34.5,M,,*6F
$PYRTM,2024,121.755495030046,12.865142440185
$GPGGA,180753.00,3246.5023,N,11733.2012,W,1,09,0.8,16.4,M,-34.5,M,,*6A
$PYRTM,2024,121.755506588715,12.865153998854
$GPGGA,180754.00,3246.5033,N,11733.2036,W,1,09,0.8,15.2,M,-34.5,M,,*6F
$PYRTM,2024,121.755518178692,12.865165588831
$GPGGA,180755.00,3246.5043,N,11733.2062,W,1,09,0.8,16.4,M,-34.5,M,,*6D
$PYRTM,2024,121.755528478773,12.865175888912
$GPGGA,180756.00,3246.5051,N,11733.2085,W,1,09,0.8,15.3,M,-34.5,M,,*60
$PYRTM,2024,121.755540279144,12.865187689282
$GPGGA,180757.00,3246.5059,N,11733.2107,W,1,09,0.8,18.9,M,-34.5,M,,*65
$PYRTM,2024,121.755552885938,12.865200296076
$GPGGA,180758.00,3246.5069,N,11733.2128,W,1,09,0.8,19.3,M,-34.5,M,,*6F
$PYRTM,2024,121.755564474711,12.865211884850
$GPGGA,180759.00,3246.5080,N,11733.2153,W,1,09,0.8,16.1,M,-34.5,M,,*68
$PYRTM,2024,121.755576034850,12.865223445000
$GPGGA,180800.00,3246.5089,N,11733.2179,W,1,09,0.8,15.3,M,-34.5,M,,*6B
$PYRTM,2024,121.755587621968,12.865235032106
$GPGGA,180801.00,3246.5099,N,11733.2203,W,1,09,0.8,16.3,M,-34.5,M,,*66
$PYRTM,2024,121.755599182396,12.865246592535
$GPGGA,180802.00,3246.5109,N,11733.2225,W,1,09,0.8,16.5,M,-34.5,M,,*6F
$PYRTM,2024,121.755610772454,12.865258182593
$GPGGA,180803.00,3246.5121,N,11733.2248,W,1,09,0.8,14.3,M,-34.5,M,,*6B
$PYRTM,2024,121.755622331377,12.865269741516
$GPGGA,180804.00,3246.5132,N,11733.2275,W,1,09,0.8,12.9,M,-34.5,M,,*6C
$PYRTM,2024,121.755633918993,12.865281329132
$GPGGA,180805.00,3246.5140,N,11733.2300,W,1,09,0.8,13.6,M,-34.5,M,,*65
$PYRTM,2024,121.755645479838,12.865292889977
$GPGGA,180806.00,3246.5149,N,11733.2323,W,1,09,0.8,11.8,M,-34.5,M,,*62
$PYRTM,2024,121.755657067905,12.865304478044
$GPGGA,180807.00,3246.5161,N,11733.2344,W,1,09,0.8,14.4,M,-34.5,M,,*61
$PYRTM,2024,121.755668627477,12.865316037616
$GPGGA,180808.00,3246.5172,N,11733.2367,W,1,09,0.8,11.8,M,-34.5,M,,*64
$PYRTM,2024,121.755680217083,12.865327627222
$GPGGA,180809.00,3246.5181,N,11733.2393,W,1,09,0.8,11.7,M,-34.5,M,,*6D
$PYRTM,2024,121.755691774815,12.865339184954
$GPGGA,180810.00,3246.5190,N,11733.2419,W,1,09,0.8,13.8,M,-34.5,M,,*6D
$PYRTM,2024,121.755703363275,12.865350773414
$GPGGA,180811.00,3246.5199,N,11733.2440,W,1,09,0.8,14.3,M,-34.5,M,,*65
$PYRTM,2024,121.755714925278,12.865362335417
$GPGGA,180812.00,3246.5209,N,11733.2462,W,1,09,0.8,14.2,M,-34.5,M,,*6D
$PYRTM,2024,121.755726512431,12.865373922581
$GPGGA,180813.00,3246.5221,N,11733.2486,W,1,09,0.8,14.4,M,-34.5,M,,*6A
$PYRTM,2024,121.755738071412,12.865385481551
$GPGGA,180814.00,3246.5232,N,11733.2512,W,1,09,0.8,15.4,M,-34.5,M,,*62
$PYRTM,2024,121.755749660220,12.865397070359
$GPGGA,180815.00,3246.5240,N,11733.2537,W,1,09,0.8,15.7,M,-34.5,M,,*62
$PYRTM,2024,121.755761807859,12.865409217998
$GPGGA,180816.00,3246.5248,N,11733.2558,W,1,09,0.8,14.1,M,-34.5,M,,*67
$PYRTM,2024,121.755773389606,12.865420799745
$GPGGA,180817.00,3246.5257,N,11733.2580,W,1,09,0.8,17.7,M,-34.5,M,,*68
$PYRTM,2024,121.755784960799,12.865432370938
$GPGGA,180818.00,3246.5269,N,11733.2605,W,1,09,0.8,14.7,M,-34.5,M,,*67
$PYRTM,2024,121.755796551794,12.865443961944
$GPGGA,180819.00,3246.5279,N,11733.2630,W,1,09,0.8,14.7,M,-34.5,M,,*61
$PYRTM,2024,121.755808110301,12.865455520440
$GPGGA,180820.00,3246.5287,N,11733.2654,W,1,09,0.8,16.2,M,-34.5,M,,*6F
$PYRTM,2024,121.755819684120,12.865467094259
$GPGGA,180821.00,3246.5296,N,11733.2677,W,1,09,0.8,13.8,M,-34.5,M,,*60
$PYRTM,2024,121.755831257558,12.865478667697
$GPGGA,180822.00,3246.5306,N,11733.2701,W,1,09,0.8,16.5,M,-34.5,M,,*63
$PYRTM,2024,121.755842832280,12.865490242419
$GPGGA,180823.00,3246.5315,N,11733.2726,W,1,09,0.8,14.4,M,-34.5,M,,*66
$PYRTM,2024,121.755854401887,12.865501812025
$GPGGA,180824.00,3246.5325,N,11733.2750,W,1,09,0.8,14.9,M,-34.5,M,,*6E
$PYRTM,2024,121.755868628275,12.865516038414
$GPGGA,180825.00,3246.5333,N,11733.2774,W,1,09,0.8,13.8,M,-34.5,M,,*68
$PYRTM,2024,121.755881590509,12.865529000648
$GPGGA,180826.00,3246.5342,N,11733.2798,W,1,09,0.8,11.9,M,-34.5,M,,*6C
$PYRTM,2024,121.755892364271,12.865539774410
$GPGGA,180827.00,3246.5351,N,11733.2823,W,1,09,0.8,13.7,M,-34.5,M,,*6C
$PYRTM,2024,121.755903583472,12.865550993611
$GPGGA,180828.00,3246.5361,N,11733.2848,W,1,09,0.8,12.9,M,-34.5,M,,*62
$PYRTM,2024,121.755914696285,12.865562106435
$GPGGA,180829.00,3246.5370,N,11733.2873,W,1,09,0.8,12.4,M,-34.5,M,,*66
$PYRTM,2024,121.755925806007,12.865573216146
$GPGGA,180830.00,3246.5379,N,11733.2898,W,1,09,0.8,14.1,M,-34.5,M,,*61
$PYRTM,2024,121.755936918021,12.865584328160
$GPGGA,180831.00,3246.5389,N,11733.2922,W,1,09,0.8,13.6,M,-34.5,M,,*6F
$PYRTM,2024,121.755948142546,12.865595552685
$GPGGA,180832.00,3246.5399,N,11733.2946,W,1,09,0.8,13.2,M,-34.5,M,,*6B
$PYRTM,2024,121.755959254896,12.865606665035
$GPGGA,180833.00,3246.5408,N,11733.2972,W,1,09,0.8,13.6,M,-34.5,M,,*66
$PYRTM,2024,121.755970367141,12.865617777280
$GPGGA,180834.00,3246.5417,N,11733.2997,W,1,09,0.8,14.3,M,-34.5,M,,*66
$PYRTM,2024,121.755981477419,12.865628887569
$GPGGA,180835.00,3246.5426,N,11733.3019,W,1,09,0.8,14.7,M,-34.5,M,,*6F
