$PYRTM,2024,123.416675473264,14.526322883403
$GPGGA,095959.00,3413.4210,N,12029.3862,W,1,09,0.8,4.2,M,-33.8,M,,*50
$PYRTM,2024,123.416687056701,14.526334466840
$GPGGA,100000.00,3413.4213,N,12029.3873,W,1,09,0.8,6.8,M,-33.8,M,,*53
$PYRTM,2024,123.416698621157,14.526346031296
$GPGGA,100001.00,3413.4219,N,12029.3886,W,1,09,0.8,9.3,M,-33.8,M,,*56
$PYRTM,2024,123.416710205127,14.526357615266
$GPGGA,100002.00,3413.4225,N,12029.3900,W,1,09,0.8,9.3,M,-33.8,M,,*55
$PYRTM,2024,123.416721776516,14.526369186655
$GPGGA,100003.00,3413.4228,N,12029.3911,W,1,09,0.8,9.0,M,-33.8,M,,*5A
$PYRTM,2024,123.416733350208,14.526380760347
$GPGGA,100004.00,3413.4228,N,12029.3924,W,1,09,0.8,6.4,M,-33.8,M,,*50
$PYRTM,2024,123.416745387350,14.526392797488
$GPGGA,100005.00,3413.4230,N,12029.3940,W,1,09,0.8,3.3,M,-33.8,M,,*58
$PYRTM,2024,123.416756500058,14.526403910197
$GPGGA,100006.00,3413.4237,N,12029.3957,W,1,09,0.8,3.5,M,-33.8,M,,*5C
$PYRTM,2024,123.416768068565,14.526415478704
$GPGGA,100007.00,3413.4243,N,12029.3970,W,1,09,0.8,0.6,M,-33.8,M,,*5B
$PYRTM,2024,123.416779648148,14.526427058287
$GPGGA,100008.00,3413.4248,N,12029.3979,W,1,09,0.8,4.6,M,-33.8,M,,*52
$PYRTM,2024,123.416791217442,14.526438627581
$GPGGA,100009.00,3413.4250,N,12029.3990,W,1,09,0.8,7.5,M,-33.8,M,,*5D
$PYRTM,2024,123.416803941701,14.526451351840
$GPGGA,100010.00,3413.4254,N,12029.4008,W,1,09,0.8,7.4,M,-33.8,M,,*5F
$PYRTM,2024,123.416816554433,14.526463964583
$GPGGA,100011.00,3413.4260,N,12029.4024,W,1,09,0.8,6.8,M,-33.8,M,,*5A
$PYRTM,2024,123.416825943808,14.526473353947
$GPGGA,100012.00,3413.4263,N,12029.4032,W,1,09,0.8,6.6,M,-33.8,M,,*53
$PYRTM,2024,123.416837517477,14.526484927616
$GPGGA,100013.00,3413.4264,N,12029.4042,W,1,09,0.8,6.7,M,-33.8,M,,*53
$PYRTM,2024,123.416849099201,14.526496509340
$GPGGA,100014.00,3413.4266,N,12029.4059,W,1,09,0.8,5.5,M,-33.8,M,,*5D
$PYRTM,2024,123.416860667373,14.526508077523
$GPGGA,100015.00,3413.4271,N,12029.4074,W,1,09,0.8,4.5,M,-33.8,M,,*54
$PYRTM,2024,123.416872243912,14.526519654051
$GPGGA,100016.00,3413.4276,N,12029.4083,W,1,09,0.8,4.7,M,-33.8,M,,*5A
$PYRTM,2024,123.416883815208,14.526531225347
$GPGGA,100017.00,3413.4281,N,12029.4095,W,1,09,0.8,5.3,M,-33.8,M,,*51
$PYRTM,2024,123.416895403275,14.526542813414
$GPGGA,100018.00,3413.4285,N,12029.4111,W,1,09,0.8,6.1,M,-33.8,M,,*56
$PYRTM,2024,123.416906964641,14.526554374780
$GPGGA,100019.00,3413.4288,N,12029.4126,W,1,09,0.8,6.9,M,-33.8,M,,*56
$PYRTM,2024,123.416918537824,14.526565947963
$GPGGA,100020.00,3413.4292,N,12029.4138,W,1,09,0.8,6.3,M,-33.8,M,,*52
$PYRTM,2024,123.416930106250,14.526577516389
$GPGGA,100021.00,3413.4299,N,12029.4151,W,1,09,0.8,5.3,M,-33.8,M,,*54
$PYRTM,2024,123.416941686690,14.526589096829
$GPGGA,100022.00,3413.4305,N,12029.4166,W,1,09,0.8,4.4,M,-33.8,M,,*51
$PYRTM,2024,123.416953261030,14.526600671169
$GPGGA,100023.00,3413.4308,N,12029.4181,W,1,09,0.8,4.3,M,-33.8,M,,*53
$PYRTM,2024,123.416964835394,14.526612245544
$GPGGA,100024.00,3413.4311,N,12029.4195,W,1,09,0.8,5.3,M,-33.8,M,,*58
$PYRTM,2024,123.416976409641,14.526623819780
$GPGGA,100025.00,3413.4316,N,12029.4208,W,1,09,0.8,5.9,M,-33.8,M,,*53
$PYRTM,2024,123.416987983310,14.526635393449
$GPGGA,100026.00,3413.4322,N,12029.4225,W,1,09,0.8,5.8,M,-33.8,M,,*59
$PYRTM,2024,123.416999556030,14.526646966169
$GPGGA,100027.00,3413.4325,N,12029.4245,W,1,09,0.8,5.0,M,-33.8,M,,*51
$PYRTM,2024,123.417011131424,14.526658541563
$GPGGA,100028.00,3413.4329,N,12029.4263,W,1,09,0.8,4.6,M,-33.8,M,,*51
$PYRTM,2024,123.417022705648,14.526670115787
$GPGGA,100029.00,3413.4333,N,12029.4275,W,1,09,0.8,5.3,M,-33.8,M,,*58
$PYRTM,2024,123.417034265926,14.526681676065
$GPGGA,100030.00,3413.4339,N,12029.4282,W,1,09,0.8,6.4,M,-33.8,M,,*56
$PYRTM,2024,123.417045853623,14.526693263762
$GPGGA,100031.00,3413.4344,N,12029.4297,W,1,09,0.8,8.8,M,-33.8,M,,*5B
$PYRTM,2024,123.417057413912,14.526704824051
$GPGGA,100032.00,3413.4349,N,12029.4319,W,1,09,0.8,4.2,M,-33.8,M,,*54
$PYRTM,2024,123.417069002535,14.526716412674
$GPGGA,100033.00,3413.4354,N,12029.4339,W,1,09,0.8,2.7,M,-33.8,M,,*58
$PYRTM,2024,123.417080562245,14.526727972384
$GPGGA,100034.00,3413.4359,N,12029.4348,W,1,09,0.8,2.3,M,-33.8,M,,*50
$PYRTM,2024,123.417092604583,14.526740014722
$GPGGA,100035.00,3413.4363,N,12029.4353,W,1,09,0.8,0.8,M,-33.8,M,,*5B
$PYRTM,2024,123.417103711366,14.526751121505
$GPGGA,100036.00,3413.4366,N,12029.4367,W,1,09,0.8,-0.2,M,-33.8,M,,*7D
$PYRTM,2024,123.417115299977,14.526762710127
$GPGGA,100037.00,3413.4370,N,12029.4391,W,1,09,0.8,-1.8,M,-33.8,M,,*79
$PYRTM,2024,123.417126860648,14.526774270787
$GPGGA,100038.00,3413.4373,N,12029.4411,W,1,09,0.8,-2.8,M,-33.8,M,,*79
$PYRTM,2024,123.417138449051,14.526785859190
$GPGGA,100039.00,3413.4375,N,12029.4416,W,1,09,0.8,-3.3,M,-33.8,M,,*73
$PYRTM,2024,123.417151630185,14.526799040324
$GPGGA,100040.00,3413.4377,N,12029.4418,W,1,09,0.8,-0.9,M,-33.8,M,,*78
$PYRTM,2024,123.417163783009,14.526811193148
$GPGGA,100041.00,3413.4378,N,12029.4432,W,1,09,0.8,2.1,M,-33.8,M,,*59
$PYRTM,2024,123.417173156458,14.526820566597
$GPGGA,100042.00,3413.4380,N,12029.4451,W,1,09,0.8,1.5,M,-33.8,M,,*5F
$PYRTM,2024,123.417184744549,14.526832154688
$GPGGA,100043.00,3413.4379,N,12029.4462,W,1,09,0.8,1.5,M,-33.8,M,,*58
$PYRTM,2024,123.417196303958,14.526843714097
$GPGGA,100044.00,3413.4380,N,12029.4465,W,1,09,0.8,2.4,M,-33.8,M,,*5C
$PYRTM,2024,123.417207894109,14.526855304248
$GPGGA,100045.00,3413.4387,N,12029.4469,W,1,09,0.8,4.1,M,-33.8,M,,*55
$PYRTM,2024,123.417219453310,14.526866863449
$GPGGA,100046.00,3413.4394,N,12029.4478,W,1,09,0.8,4.8,M,-33.8,M,,*5D
$PYRTM,2024,123.417231042546,14.526878452697
$GPGGA,100047.00,3413.4397,N,12029.4492,W,1,09,0.8,6.2,M,-33.8,M,,*53
$PYRTM,2024,123.417242601678,14.526890011817
$GPGGA,100048.00,3413.4398,N,12029.4507,W,1,09,0.8,6.1,M,-33.8,M,,*5D
$PYRTM,2024,123.417254189248,14.526901599387
$GPGGA,100049.00,3413.4401,N,12029.4519,W,1,09,0.8,6.5,M,-33.8,M,,*50
$PYRTM,2024,123.417265749329,14.526913159479
$GPGGA,100050.00,3413.4406,N,12029.4526,W,1,09,0.8,6.9,M,-33.8,M,,*5F
$PYRTM,2024,123.417276412465,14.526923822604
$GPGGA,100051.00,3413.4411,N,12029.4534,W,1,09,0.8,7.8,M,-33.8,M,,*5B
$PYRTM,2024,123.417289374896,14.526936785035
$GPGGA,100052.00,3413.4415,N,12029.4545,W,1,09,0.8,7.7,M,-33.8,M,,*55
$PYRTM,2024,123.417300154410,14.526947564549
$GPGGA,100053.00,3413.4417,N,12029.4559,W,1,09,0.8,7.3,M,-33.8,M,,*5F
$PYRTM,2024,123.417311250972,14.526958661111
$GPGGA,100054.00,3413.4419,N,12029.4574,W,1,09,0.8,6.3,M,-33.8,M,,*58
$PYRTM,2024,123.417322365220,14.526969775359
$GPGGA,100055.00,3413.4424,N,12029.4588,W,1,09,0.8,6.5,M,-33.8,M,,*52
$PYRTM,2024,123.417333344039,14.526980754178
$GPGGA,100056.00,3413.4431,N,12029.4597,W,1,09,0.8,7.1,M,-33.8,M,,*5E
$PYRTM,2024,123.417344455417,14.526991865556
$GPGGA,100057.00,3413.4435,N,12029.4606,W,1,09,0.8,7.4,M,-33.8,M,,*55
$PYRTM,2024,123.417355569132,14.527002979271
$GPGGA,100058.00,3413.4439,N,12029.4620,W,1,09,0.8,7.6,M,-33.8,M,,*50
$PYRTM,2024,123.417366675880,14.527014086019
$GPGGA,100059.00,3413.4442,N,12029.4639,W,1,09,0.8,6.7,M,-33.8,M,,*55
$PYRTM,2024,123.417377788241,14.527025198380
$GPGGA,100100.00,3413.4446,N,12029.4656,W,1,09,0.8,5.4,M,-33.8,M,,*55
$PYRTM,2024,123.417388898634,14.527036308773
$GPGGA,100101.00,3413.4452,N,12029.4665,W,1,09,0.8,6.3,M,-33.8,M,,*55
$PYRTM,2024,123.417399897025,14.527047307164
$GPGGA,100102.00,3413.4458,N,12029.4676,W,1,09,0.8,6.6,M,-33.8,M,,*5B
$PYRTM,2024,123.417413335718,14.527060745856
$GPGGA,100103.00,3413.4464,N,12029.4694,W,1,09,0.8,6.0,M,-33.8,M,,*5F
$PYRTM,2024,123.417424441736,14.527071851875
$GPGGA,100104.00,3413.4467,N,12029.4711,W,1,09,0.8,9.6,M,-33.8,M,,*5E
$PYRTM,2024,123.417436008692,14.527083418831
$GPGGA,100105.00,3413.4469,N,12029.4721,W,1,09,0.8,11.0,M,-33.8,M,,*6D
$PYRTM,2024,123.417447118704,14.527094528843
$GPGGA,100106.00,3413.4472,N,12029.4730,W,1,09,0.8,12.0,M,-33.8,M,,*67
$PYRTM,2024,123.417458231007,14.527105641146
$GPGGA,100107.00,3413.4478,N,12029.4745,W,1,09,0.8,10.9,M,-33.8,M,,*65
$PYRTM,2024,123.417469226505,14.527116636655
$GPGGA,100108.00,3413.4484,N,12029.4762,W,1,09,0.8,8.5,M,-33.8,M,,*59
$PYRTM,2024,123.417480336100,14.527127746238
$GPGGA,100109.00,3413.4485,N,12029.4775,W,1,09,0.8,7.6,M,-33.8,M,,*53
$PYRTM,2024,123.417496194352,14.527143604491
$GPGGA,100110.00,3413.4487,N,12029.4786,W,1,09,0.8,6.7,M,-33.8,M,,*55
$PYRTM,2024,123.417507783831,14.527155193970
$GPGGA,100111.00,3413.4495,N,12029.4799,W,1,09,0.8,5.6,M,-33.8,M,,*5B
$PYRTM,2024,123.417519342049,14.527166752199
$GPGGA,100112.00,3413.4503,N,12029.4811,W,1,09,0.8,6.0,M,-33.8,M,,*5C
$PYRTM,2024,123.417530930312,14.527178340451
$GPGGA,100113.00,3413.4507,N,12029.4823,W,1,09,0.8,6.7,M,-33.8,M,,*5F
$PYRTM,2024,123.417542490787,14.527189900938
$GPGGA,100114.00,3413.4508,N,12029.4836,W,1,09,0.8,8.2,M,-33.8,M,,*58
$PYRTM,2024,123.417554073669,14.527201483808
$GPGGA,100115.00,3413.4512,N,12029.4846,W,1,09,0.8,8.1,M,-33.8,M,,*56
$PYRTM,2024,123.417565639387,14.527213049525
$GPGGA,100116.00,3413.4519,N,12029.4857,W,1,09,0.8,7.1,M,-33.8,M,,*51
$PYRTM,2024,123.417577227685,14.527224637836
$GPGGA,100117.00,3413.4525,N,12029.4872,W,1,09,0.8,5.5,M,-33.8,M,,*5E
$PYRTM,2024,123.417588796088,14.527236206227
$GPGGA,100118.00,3413.4529,N,12029.4890,W,1,09,0.8,3.4,M,-33.8,M,,*56
$PYRTM,2024,123.417600377384,14.527247787535
$GPGGA,100119.00,3413.4532,N,12029.4908,W,1,09,0.8,3.0,M,-33.8,M,,*59
$PYRTM,2024,123.417611938056,14.527259348194
$GPGGA,100120.00,3413.4537,N,12029.4918,W,1,09,0.8,5.5,M,-33.8,M,,*54
$PYRTM,2024,123.417623523970,14.527270934109
$GPGGA,100121.00,3413.4543,N,12029.4923,W,1,09,0.8,8.1,M,-33.8,M,,*57
$PYRTM,2024,123.417635088241,14.527282498380
$GPGGA,100122.00,3413.4548,N,12029.4935,W,1,09,0.8,9.7,M,-33.8,M,,*5F
$PYRTM,2024,123.417646674074,14.527294084213
$GPGGA,100123.00,3413.4551,N,12029.4956,W,1,09,0.8,4.1,M,-33.8,M,,*58
$PYRTM,2024,123.417658233113,14.527305643252
$GPGGA,100124.00,3413.4554,N,12029.4977,W,1,09,0.8,1.9,M,-33.8,M,,*54
$PYRTM,2024,123.417669822593,14.527317232731
$GPGGA,100125.00,3413.4558,N,12029.4988,W,1,09,0.8,1.8,M,-33.8,M,,*58
$PYRTM,2024,123.417681382280,14.527328792419
$GPGGA,100126.00,3413.4564,N,12029.4994,W,1,09,0.8,3.0,M,-33.8,M,,*53
$PYRTM,2024,123.417692971933,14.527340382072
$GPGGA,100127.00,3413.4571,N,12029.5004,W,1,09,0.8,3.5,M,-33.8,M,,*52
$PYRTM,2024,123.417704530394,14.527351940532
$GPGGA,100128.00,3413.4576,N,12029.5020,W,1,09,0.8,4.6,M,-33.8,M,,*58
$PYRTM,2024,123.417716118588,14.527363528727
$GPGGA,100129.00,3413.4577,N,12029.5039,W,1,09,0.8,6.4,M,-33.8,M,,*50
$PYRTM,2024,123.417727678634,14.527375088773
$GPGGA,100130.00,3413.4579,N,12029.5054,W,1,09,0.8,5.7,M,-33.8,M,,*5D
$PYRTM,2024,123.417739267593,14.527386677731
$GPGGA,100131.00,3413.4582,N,12029.5066,W,1,09,0.8,4.3,M,-33.8,M,,*5C
$PYRTM,2024,123.417750827060,14.527398237199
$GPGGA,100132.00,3413.4589,N,12029.5073,W,1,09,0.8,3.8,M,-33.8,M,,*5C
$PYRTM,2024,123.417762413727,14.527409823866
$GPGGA,100133.00,3413.4596,N,12029.5081,W,1,09,0.8,4.4,M,-33.8,M,,*55
$PYRTM,2024,123.417773974803,14.527421384942
$GPGGA,100134.00,3413.4601,N,12029.5095,W,1,09,0.8,4.1,M,-33.8,M,,*5F
$PYRTM,2024,123.417785563310,14.527432973449
$GPGGA,100135.00,3413.4604,N,12029.5112,W,1,09,0.8,4.2,M,-33.8,M,,*56
$PYRTM,2024,123.417797122708,14.527444532847
$GPGGA,100136.00,3413.4605,N,12029.5126,W,1,09,0.8,4.9,M,-33.8,M,,*58
$PYRTM,2024,123.417808711771,14.527456121910
$GPGGA,100137.00,3413.4612,N,12029.5136,W,1,09,0.8,5.3,M,-33.8,M,,*55
$PYRTM,2024,123.417820272106,14.527467682245
$GPGGA,100138.00,3413.4621,N,12029.5145,W,1,09,0.8,5.4,M,-33.8,M,,*59
$PYRTM,2024,123.417831863009,14.527479273160
$GPGGA,100139.00,3413.4627,N,12029.5156,W,1,09,0.8,6.0,M,-33.8,M,,*5B
$PYRTM,2024,123.417843087731,14.527490497870
$GPGGA,100140.00,3413.4628,N,12029.5173,W,1,09,0.8,4.9,M,-33.8,M,,*56
$PYRTM,2024,123.417856052523,14.527503462662
$GPGGA,100141.00,3413.4629,N,12029.5191,W,1,09,0.8,4.0,M,-33.8,M,,*53
$PYRTM,2024,123.417867611806,14.527515021944
$GPGGA,100142.00,3413.4635,N,12029.5208,W,1,09,0.8,3.6,M,-33.8,M,,*5F
$PYRTM,2024,123.417879206146,14.527526616296
$GPGGA,100143.00,3413.4646,N,12029.5218,W,1,09,0.8,3.5,M,-33.8,M,,*58
$PYRTM,2024,123.417890760093,14.527538170231
$GPGGA,100144.00,3413.4655,N,12029.5227,W,1,09,0.8,4.5,M,-33.8,M,,*56
$PYRTM,2024,123.417902346782,14.527549756921
$GPGGA,100145.00,3413.4656,N,12029.5241,W,1,09,0.8,5.7,M,-33.8,M,,*57
$PYRTM,2024,123.417913913495,14.527561323634
$GPGGA,100146.00,3413.4657,N,12029.5257,W,1,09,0.8,6.5,M,-33.8,M,,*53
$PYRTM,2024,123.417925495637,14.527572905787
$GPGGA,100147.00,3413.4663,N,12029.5275,W,1,09,0.8,5.3,M,-33.8,M,,*50
$PYRTM,2024,123.417937057245,14.527584467384
$GPGGA,100148.00,3413.4673,N,12029.5289,W,1,09,0.8,3.3,M,-33.8,M,,*5B
$PYRTM,2024,123.417948644676,14.527596054815
$GPGGA,100149.00,3413.4679,N,12029.5297,W,1,09,0.8,2.7,M,-33.8,M,,*5A
$PYRTM,2024,123.417960204225,14.527607614375
$GPGGA,100150.00,3413.4679,N,12029.5305,W,1,09,0.8,4.7,M,-33.8,M,,*5E
$PYRTM,2024,123.417971791597,14.527619201736
$GPGGA,100151.00,3413.4680,N,12029.5322,W,1,09,0.8,4.3,M,-33.8,M,,*58
$PYRTM,2024,123.417983353889,14.527630764028
$GPGGA,100152.00,3413.4684,N,12029.5343,W,1,09,0.8,2.0,M,-33.8,M,,*5D
$PYRTM,2024,123.417994939155,14.527642349294
$GPGGA,100153.00,3413.4692,N,12029.5358,W,1,09,0.8,0.2,M,-33.8,M,,*51
$PYRTM,2024,123.418006502419,14.527653912558
$GPGGA,100154.00,3413.4697,N,12029.5367,W,1,09,0.8,-0.3,M,-33.8,M,,*73
$PYRTM,2024,123.418018092407,14.527665502546
$GPGGA,100155.00,3413.4699,N,12029.5375,W,1,09,0.8,1.0,M,-33.8,M,,*50
$PYRTM,2024,123.418029650891,14.527677061030
$GPGGA,100156.00,3413.4701,N,12029.5391,W,1,09,0.8,2.9,M,-33.8,M,,*53
$PYRTM,2024,123.418041240810,14.527688650949
$GPGGA,100157.00,3413.4703,N,12029.5410,W,1,09,0.8,2.3,M,-33.8,M,,*54
$PYRTM,2024,123.418052797454,14.527700207593
$GPGGA,100158.00,3413.4706,N,12029.5423,W,1,09,0.8,2.3,M,-33.8,M,,*5E
$PYRTM,2024,123.418064389317,14.527711799456
$GPGGA,100159.00,3413.4711,N,12029.5432,W,1,09,0.8,2.0,M,-33.8,M,,*5A
$PYRTM,2024,123.418075946539,14.527723356678
$GPGGA,100200.00,3413.4715,N,12029.5443,W,1,09,0.8,1.2,M,-33.8,M,,*56
$PYRTM,2024,123.418087529375,14.527734939514
$GPGGA,100201.00,3413.4717,N,12029.5459,W,1,09,0.8,1.5,M,-33.8,M,,*59
$PYRTM,2024,123.418099095440,14.527746505579
$GPGGA,100202.00,3413.4719,N,12029.5476,W,1,09,0.8,1.6,M,-33.8,M,,*5A
$PYRTM,2024,123.418110682350,14.527758092488
$GPGGA,100203.00,3413.4722,N,12029.5489,W,1,09,0.8,2.0,M,-33.8,M,,*56
$PYRTM,2024,123.418122245347,14.527769655486
$GPGGA,100204.00,3413.4727,N,12029.5499,W,1,09,0.8,2.2,M,-33.8,M,,*57
$PYRTM,2024,123.418134282257,14.527781692396
$GPGGA,100205.00,3413.4731,N,12029.5510,W,1,09,0.8,3.6,M,-33.8,M,,*54
$PYRTM,2024,123.418145394525,14.527792804664
$GPGGA,100206.00,3413.4734,N,12029.5524,W,1,09,0.8,3.5,M,-33.8,M,,*56
$PYRTM,2024,123.418156979144,14.527804389282
$GPGGA,100207.00,3413.4738,N,12029.5538,W,1,09,0.8,3.4,M,-33.8,M,,*57
$PYRTM,2024,123.418168541921,14.527815952060
$GPGGA,100208.00,3413.4742,N,12029.5550,W,1,09,0.8,3.8,M,-33.8,M,,*57
$PYRTM,2024,123.418180128194,14.527827538333
$GPGGA,100209.00,3413.4746,N,12029.5562,W,1,09,0.8,3.8,M,-33.8,M,,*53
$PYRTM,2024,123.418192846551,14.527840256701
$GPGGA,100210.00,3413.4748,N,12029.5575,W,1,09,0.8,4.1,M,-33.8,M,,*5D
$PYRTM,2024,123.418205463264,14.527852873403
$GPGGA,100211.00,3413.4750,N,12029.5591,W,1,09,0.8,4.4,M,-33.8,M,,*5A
$PYRTM,2024,123.418214837060,14.527862247199
$GPGGA,100212.00,3413.4754,N,12029.5605,W,1,09,0.8,3.7,M,-33.8,M,,*57
$PYRTM,2024,123.418226439155,14.527873849294
$GPGGA,100213.00,3413.4761,N,12029.5618,W,1,09,0.8,2.8,M,-33.8,M,,*52
$PYRTM,2024,123.418237986343,14.527885396481
$GPGGA,100214.00,3413.4769,N,12029.5633,W,1,09,0.8,2.8,M,-33.8,M,,*54
$PYRTM,2024,123.418249573171,14.527896983310
$GPGGA,100215.00,3413.4772,N,12029.5646,W,1,09,0.8,3.7,M,-33.8,M,,*53
$PYRTM,2024,123.418261133831,14.527908543970
$GPGGA,100216.00,3413.4773,N,12029.5656,W,1,09,0.8,7.2,M,-33.8,M,,*51
$PYRTM,2024,123.418272724063,14.527920134213
$GPGGA,100217.00,3413.4778,N,12029.5668,W,1,09,0.8,7.9,M,-33.8,M,,*5D
$PYRTM,2024,123.418284281956,14.527931692095
$GPGGA,100218.00,3413.4788,N,12029.5685,W,1,09,0.8,1.8,M,-33.8,M,,*59
$PYRTM,2024,123.418295870544,14.527943280683
$GPGGA,100219.00,3413.4793,N,12029.5699,W,1,09,0.8,0.8,M,-33.8,M,,*5E
$PYRTM,2024,123.418307910185,14.527955320324
$GPGGA,100220.00,3413.4794,N,12029.5708,W,1,09,0.8,-0.2,M,-33.8,M,,*7D
$PYRTM,2024,123.418319019225,14.527966429363
$GPGGA,100221.00,3413.4797,N,12029.5720,W,1,09,0.8,-0.3,M,-33.8,M,,*74
$PYRTM,2024,123.418330579491,14.527977989641
$GPGGA,100222.00,3413.4804,N,12029.5737,W,1,09,0.8,-1.4,M,-33.8,M,,*72
$PYRTM,2024,123.418342168067,14.527989578206
$GPGGA,100223.00,3413.4811,N,12029.5750,W,1,09,0.8,-0.4,M,-33.8,M,,*77
$PYRTM,2024,123.418353729583,14.528001139722
$GPGGA,100224.00,3413.4814,N,12029.5759,W,1,09,0.8,1.3,M,-33.8,M,,*57
$PYRTM,2024,123.418365310255,14.528012720394
$GPGGA,100225.00,3413.4817,N,12029.5770,W,1,09,0.8,1.9,M,-33.8,M,,*54
$PYRTM,2024,123.418376876285,14.528024286424
$GPGGA,100226.00,3413.4821,N,12029.5784,W,1,09,0.8,2.7,M,-33.8,M,,*54
$PYRTM,2024,123.418388480579,14.528035890718
$GPGGA,100227.00,3413.4826,N,12029.5797,W,1,09,0.8,2.9,M,-33.8,M,,*5E
$PYRTM,2024,123.418400025440,14.528047435579
$GPGGA,100228.00,3413.4828,N,12029.5806,W,1,09,0.8,2.4,M,-33.8,M,,*55
$PYRTM,2024,123.418411616076,14.528059026215
$GPGGA,100229.00,3413.4829,N,12029.5817,W,1,09,0.8,2.9,M,-33.8,M,,*58
$PYRTM,2024,123.418423175845,14.528070585984
$GPGGA,100230.00,3413.4832,N,12029.5832,W,1,09,0.8,3.1,M,-33.8,M,,*54
$PYRTM,2024,123.418434756146,14.528082166285
$GPGGA,100231.00,3413.4838,N,12029.5847,W,1,09,0.8,2.5,M,-33.8,M,,*58
$PYRTM,2024,123.418446321887,14.528093732025
$GPGGA,100232.00,3413.4843,N,12029.5860,W,1,09,0.8,2.2,M,-33.8,M,,*55
$PYRTM,2024,123.418457910069,14.528105320208
$GPGGA,100233.00,3413.4848,N,12029.5871,W,1,09,0.8,3.0,M,-33.8,M,,*5C
$PYRTM,2024,123.418469471551,14.528116881690
$GPGGA,100234.00,3413.4852,N,12029.5884,W,1,09,0.8,4.5,M,-33.8,M,,*58
$PYRTM,2024,123.418481508333,14.528128918472
$GPGGA,100235.00,3413.4855,N,12029.5898,W,1,09,0.8,5.3,M,-33.8,M,,*54
$PYRTM,2024,123.418492618044,14.528140028183
$GPGGA,100236.00,3413.4858,N,12029.5916,W,1,09,0.8,4.3,M,-33.8,M,,*5C
$PYRTM,2024,123.418504200995,14.528151611134
$GPGGA,100237.00,3413.4863,N,12029.5936,W,1,09,0.8,2.7,M,-33.8,M,,*55
$PYRTM,2024,123.418515767257,14.528163177407
$GPGGA,100238.00,3413.4866,N,12029.5949,W,1,09,0.8,2.5,M,-33.8,M,,*55
$PYRTM,2024,123.418527356944,14.528174767083
$GPGGA,100239.00,3413.4868,N,12029.5958,W,1,09,0.8,3.7,M,-33.8,M,,*59
$PYRTM,2024,123.418540074861,14.528187485000
$GPGGA,100240.00,3413.4873,N,12029.5969,W,1,09,0.8,4.4,M,-33.8,M,,*5B
$PYRTM,2024,123.418552689560,14.528200099711
$GPGGA,100241.00,3413.4880,N,12029.5986,W,1,09,0.8,3.8,M,-33.8,M,,*5C
$PYRTM,2024,123.418562063912,14.528209474051
$GPGGA,100242.00,3413.4885,N,12029.5999,W,1,09,0.8,4.0,M,-33.8,M,,*5B
$PYRTM,2024,123.418573654525,14.528221064664
$GPGGA,100243.00,3413.4884,N,12029.6011,W,1,09,0.8,4.6,M,-33.8,M,,*57
$PYRTM,2024,123.418585213333,14.528232623472
$GPGGA,100244.00,3413.4885,N,12029.6026,W,1,09,0.8,4.3,M,-33.8,M,,*50
$PYRTM,2024,123.418596803333,14.528244213472
$GPGGA,100245.00,3413.4891,N,12029.6041,W,1,09,0.8,3.5,M,-33.8,M,,*54
$PYRTM,2024,123.418608362419,14.528255772569
$GPGGA,100246.00,3413.4897,N,12029.6053,W,1,09,0.8,3.5,M,-33.8,M,,*52
$PYRTM,2024,123.418619943241,14.528267353380
$GPGGA,100247.00,3413.4897,N,12029.6064,W,1,09,0.8,4.3,M,-33.8,M,,*56
$PYRTM,2024,123.418631509282,14.528278919421
$GPGGA,100248.00,3413.4896,N,12029.6081,W,1,09,0.8,4.2,M,-33.8,M,,*52
$PYRTM,2024,123.418643091840,14.528290501979
$GPGGA,100249.00,3413.4898,N,12029.6095,W,1,09,0.8,3.9,M,-33.8,M,,*54
$PYRTM,2024,123.418654659352,14.528302069502
$GPGGA,100250.00,3413.4904,N,12029.6104,W,1,09,0.8,4.7,M,-33.8,M,,*58
$PYRTM,2024,123.418666245845,14.528313655984
$GPGGA,100251.00,3413.4907,N,12029.6115,W,1,09,0.8,4.4,M,-33.8,M,,*59
$PYRTM,2024,123.418677806817,14.528325216956
$GPGGA,100252.00,3413.4905,N,12029.6133,W,1,09,0.8,2.1,M,-33.8,M,,*5F
$PYRTM,2024,123.418689392431,14.528336802569
$GPGGA,100253.00,3413.4907,N,12029.6152,W,1,09,0.8,2.1,M,-33.8,M,,*5B
$PYRTM,2024,123.418700955787,14.528348365926
$GPGGA,100254.00,3413.4914,N,12029.6165,W,1,09,0.8,1.4,M,-33.8,M,,*5C
$PYRTM,2024,123.418712542604,14.528359952743
$GPGGA,100255.00,3413.4923,N,12029.6174,W,1,09,0.8,3.1,M,-33.8,M,,*5E
$PYRTM,2024,123.418723177199,14.528370587338
$GPGGA,100256.00,3413.4928,N,12029.6188,W,1,09,0.8,4.2,M,-33.8,M,,*51
$PYRTM,2024,123.418736140463,14.528383550602
$GPGGA,100257.00,3413.4930,N,12029.6206,W,1,09,0.8,4.0,M,-33.8,M,,*5E
$PYRTM,2024,123.418746917338,14.528394327477
$GPGGA,100258.00,3413.4934,N,12029.6221,W,1,09,0.8,4.3,M,-33.8,M,,*53
$PYRTM,2024,123.418758028102,14.528405438241
$GPGGA,100259.00,3413.4939,N,12029.6233,W,1,09,0.8,4.0,M,-33.8,M,,*5F
$PYRTM,2024,123.418769139676,14.528416549815
$GPGGA,100300.00,3413.4943,N,12029.6245,W,1,09,0.8,4.6,M,-33.8,M,,*58
$PYRTM,2024,123.418780134537,14.528427544676
$GPGGA,100301.00,3413.4946,N,12029.6260,W,1,09,0.8,4.1,M,-33.8,M,,*5C
$PYRTM,2024,123.418791246725,14.528438656863
$GPGGA,100302.00,3413.4949,N,12029.6276,W,1,09,0.8,3.6,M,-33.8,M,,*57
$PYRTM,2024,123.418802362037,14.528449772176
$GPGGA,100303.00,3413.4954,N,12029.6291,W,1,09,0.8,3.8,M,-33.8,M,,*5D
$PYRTM,2024,123.418813483252,14.528460893391
$GPGGA,100304.00,3413.4960,N,12029.6305,W,1,09,0.8,3.4,M,-33.8,M,,*5D
$PYRTM,2024,123.418824917153,14.528472327303
$GPGGA,100305.00,3413.4967,N,12029.6320,W,1,09,0.8,3.0,M,-33.8,M,,*58
$PYRTM,2024,123.418836026748,14.528483436898
$GPGGA,100306.00,3413.4972,N,12029.6333,W,1,09,0.8,3.2,M,-33.8,M,,*5F
$PYRTM,2024,123.418847138530,14.528494548669
$GPGGA,100307.00,3413.4975,N,12029.6345,W,1,09,0.8,3.3,M,-33.8,M,,*59
$PYRTM,2024,123.418858248414,14.528505658553
$GPGGA,100308.00,3413.4978,N,12029.6360,W,1,09,0.8,3.8,M,-33.8,M,,*57
$PYRTM,2024,123.418869359873,14.528516770012
$GPGGA,100309.00,3413.4983,N,12029.6378,W,1,09,0.8,-1.2,M,-33.8,M,,*7E
$PYRTM,2024,123.418880946806,14.528528356944
$GPGGA,100310.00,3413.4989,N,12029.6395,W,1,09,0.8,-2.0,M,-33.8,M,,*7E
$PYRTM,2024,123.418896688796,14.528544098935
$GPGGA,100311.00,3413.4992,N,12029.6404,W,1,09,0.8,-2.4,M,-33.8,M,,*7E
$PYRTM,2024,123.418908250787,14.528555660926
$GPGGA,100312.00,3413.4994,N,12029.6412,W,1,09,0.8,-2.5,M,-33.8,M,,*7D
$PYRTM,2024,123.418919850984,14.528567261123
$GPGGA,100313.00,3413.4997,N,12029.6427,W,1,09,0.8,-3.7,M,-33.8,M,,*7A
$PYRTM,2024,123.418931397187,14.528578807326
$GPGGA,100314.00,3413.5002,N,12029.6448,W,1,09,0.8,-4.3,M,-33.8,M,,*73
$PYRTM,2024,123.418943010891,14.528590421030
$GPGGA,100315.00,3413.5008,N,12029.6465,W,1,09,0.8,-3.3,M,-33.8,M,,*70
$PYRTM,2024,123.418954547361,14.528601957500
$GPGGA,100316.00,3413.5011,N,12029.6474,W,1,09,0.8,-3.6,M,-33.8,M,,*7E
$PYRTM,2024,123.418966134132,14.528613544282
$GPGGA,100317.00,3413.5014,N,12029.6483,W,1,09,0.8,-1.8,M,-33.8,M,,*7E
$PYRTM,2024,123.418977695602,14.528625105741
$GPGGA,100318.00,3413.5016,N,12029.6498,W,1,09,0.8,1.0,M,-33.8,M,,*5C
$PYRTM,2024,123.418989283194,14.528636693345
$GPGGA,100319.00,3413.5019,N,12029.6519,W,1,09,0.8,-2.6,M,-33.8,M,,*72
$PYRTM,2024,123.419000843264,14.528648253403
$GPGGA,100320.00,3413.5023,N,12029.6535,W,1,09,0.8,-3.3,M,-33.8,M,,*7B
$PYRTM,2024,123.419012432269,14.528659842407
$GPGGA,100321.00,3413.5027,N,12029.6545,W,1,09,0.8,-2.4,M,-33.8,M,,*7F
$PYRTM,2024,123.419023992731,14.528671402882
$GPGGA,100322.00,3413.5029,N,12029.6553,W,1,09,0.8,-1.0,M,-33.8,M,,*72
$PYRTM,2024,123.419035578287,14.528682988426
$GPGGA,100323.00,3413.5031,N,12029.6567,W,1,09,0.8,-1.0,M,-33.8,M,,*7D
$PYRTM,2024,123.419047140359,14.528694550498
$GPGGA,100324.00,3413.5034,N,12029.6582,W,1,09,0.8,-0.8,M,-33.8,M,,*7D
$PYRTM,2024,123.419058728160,14.528706138299
$GPGGA,100325.00,3413.5035,N,12029.6595,W,1,09,0.8,-1.0,M,-33.8,M,,*72
$PYRTM,2024,123.419070287616,14.528717697755
$GPGGA,100326.00,3413.5036,N,12029.6609,W,1,09,0.8,-2.6,M,-33.8,M,,*71
$PYRTM,2024,123.419081877894,14.528729288032
$GPGGA,100327.00,3413.5041,N,12029.6626,W,1,09,0.8,-4.1,M,-33.8,M,,*7C
$PYRTM,2024,123.419093438310,14.528740848449
$GPGGA,100328.00,3413.5047,N,12029.6639,W,1,09,0.8,-5.6,M,-33.8,M,,*7D
$PYRTM,2024,123.419105028333,14.528752438472
$GPGGA,100329.00,3413.5047,N,12029.6647,W,1,09,0.8,-5.6,M,-33.8,M,,*75
$PYRTM,2024,123.419116587245,14.528763997384
$GPGGA,100330.00,3413.5044,N,12029.6659,W,1,09,0.8,-5.5,M,-33.8,M,,*72
$PYRTM,2024,123.419128175556,14.528775585694
$GPGGA,100331.00,3413.5045,N,12029.6676,W,1,09,0.8,-5.1,M,-33.8,M,,*7B
$PYRTM,2024,123.419139735058,14.528787145208
$GPGGA,100332.00,3413.5051,N,12029.6694,W,1,09,0.8,-4.2,M,-33.8,M,,*73
$PYRTM,2024,123.419151321366,14.528798731505
$GPGGA,100333.00,3413.5059,N,12029.6705,W,1,09,0.8,-3.5,M,-33.8,M,,*73
$PYRTM,2024,123.419162883171,14.528810293310
$GPGGA,100334.00,3413.5063,N,12029.6712,W,1,09,0.8,-3.4,M,-33.8,M,,*7A
$PYRTM,2024,123.419174469988,14.528821880127
$GPGGA,100335.00,3413.5063,N,12029.6719,W,1,09,0.8,-1.6,M,-33.8,M,,*70
$PYRTM,2024,123.419186031088,14.528833441227
$GPGGA,100336.00,3413.5065,N,12029.6733,W,1,09,0.8,-2.0,M,-33.8,M,,*78
$PYRTM,2024,123.419197618692,14.528845028843
$GPGGA,100337.00,3413.5069,N,12029.6751,W,1,09,0.8,-2.1,M,-33.8,M,,*70
$PYRTM,2024,123.419209181424,14.528856591562
$GPGGA,100338.00,3413.5074,N,12029.6764,W,1,09,0.8,-2.5,M,-33.8,M,,*71
$PYRTM,2024,123.419220767975,14.528868178113
$GPGGA,100339.00,3413.5077,N,12029.6771,W,1,09,0.8,-2.6,M,-33.8,M,,*74
$PYRTM,2024,123.419233368819,14.528880778958
$GPGGA,100340.00,3413.5080,N,12029.6780,W,1,09,0.8,-1.9,M,-33.8,M,,*70
$PYRTM,2024,123.419244956782,14.528892366921
$GPGGA,100341.00,3413.5084,N,12029.6794,W,1,09,0.8,-1.7,M,-33.8,M,,*7E
$PYRTM,2024,123.419256516794,14.528903926933
$GPGGA,100342.00,3413.5088,N,12029.6810,W,1,09,0.8,-1.5,M,-33.8,M,,*70
$PYRTM,2024,123.419268099919,14.528915510058
$GPGGA,100343.00,3413.5089,N,12029.6822,W,1,09,0.8,-1.1,M,-33.8,M,,*75
$PYRTM,2024,123.419279666296,14.528927076424
$GPGGA,100344.00,3413.5088,N,12029.6836,W,1,09,0.8,-0.5,M,-33.8,M,,*73
$PYRTM,2024,123.419291257245,14.528938667384
$GPGGA,100345.00,3413.5091,N,12029.6848,W,1,09,0.8,-0.1,M,-33.8,M,,*77
$PYRTM,2024,123.419302814977,14.528950225116
$GPGGA,100346.00,3413.5099,N,12029.6857,W,1,09,0.8,0.2,M,-33.8,M,,*5C
$PYRTM,2024,123.419314403889,14.528961814028
$GPGGA,100347.00,3413.5108,N,12029.6867,W,1,09,0.8,0.2,M,-33.8,M,,*57
$PYRTM,2024,123.419325962789,14.528973372928
$GPGGA,100348.00,3413.5112,N,12029.6882,W,1,09,0.8,0.0,M,-33.8,M,,*5A
$PYRTM,2024,123.419337549502,14.528984959641
$GPGGA,100349.00,3413.5113,N,12029.6903,W,1,09,0.8,-0.3,M,-33.8,M,,*7C
$PYRTM,2024,123.419349112037,14.528996522176
$GPGGA,100350.00,3413.5115,N,12029.6919,W,1,09,0.8,-0.2,M,-33.8,M,,*78
$PYRTM,2024,123.419360698970,14.529008109097
$GPGGA,100351.00,3413.5122,N,12029.6931,W,1,09,0.8,3.6,M,-33.8,M,,*5D
$PYRTM,2024,123.419372259178,14.529019669317
$GPGGA,100352.00,3413.5132,N,12029.6942,W,1,09,0.8,1.1,M,-33.8,M,,*5E
$PYRTM,2024,123.419383845787,14.529031255926
$GPGGA,100353.00,3413.5139,N,12029.6954,W,1,09,0.8,0.5,M,-33.8,M,,*56
$PYRTM,2024,123.419395408322,14.529042818461
$GPGGA,100354.00,3413.5140,N,12029.6968,W,1,09,0.8,0.4,M,-33.8,M,,*51
$PYRTM,2024,123.419406995104,14.529054405243
$GPGGA,100355.00,3413.5140,N,12029.6983,W,1,09,0.8,0.3,M,-33.8,M,,*52
$PYRTM,2024,123.419418555903,14.529065966042
$GPGGA,100356.00,3413.5141,N,12029.6999,W,1,09,0.8,0.8,M,-33.8,M,,*50
$PYRTM,2024,123.419430143657,14.529077553796
$GPGGA,100357.00,3413.5147,N,12029.7018,W,1,09,0.8,-1.8,M,-33.8,M,,*7A
$PYRTM,2024,123.419441705278,14.529089115417
$GPGGA,100358.00,3413.5157,N,12029.7033,W,1,09,0.8,-4.1,M,-33.8,M,,*71
$PYRTM,2024,123.419453292130,14.529100702269
$GPGGA,100359.00,3413.5167,N,12029.7042,W,1,09,0.8,-4.2,M,-33.8,M,,*76
$PYRTM,2024,123.419465329178,14.529112739317
$GPGGA,100400.00,3413.5173,N,12029.7050,W,1,09,0.8,-2.7,M,-33.8,M,,*78
$PYRTM,2024,123.419476455012,14.529123865150
$GPGGA,100401.00,3413.5175,N,12029.7063,W,1,09,0.8,-1.1,M,-33.8,M,,*7A
$PYRTM,2024,123.419488001169,14.529135411308
$GPGGA,100402.00,3413.5178,N,12029.7081,W,1,09,0.8,-3.5,M,-33.8,M,,*7E
$PYRTM,2024,123.419499603102,14.529147013241
$GPGGA,100403.00,3413.5184,N,12029.7098,W,1,09,0.8,-1.6,M,-33.8,M,,*75
$PYRTM,2024,123.419511150058,14.529158560197
$GPGGA,100404.00,3413.5190,N,12029.7107,W,1,09,0.8,-1.4,M,-33.8,M,,*72
$PYRTM,2024,123.419523195058,14.529170605197
$GPGGA,100405.00,3413.5195,N,12029.7112,W,1,09,0.8,-1.5,M,-33.8,M,,*73
$PYRTM,2024,123.419534298692,14.529181708831
$GPGGA,100406.00,3413.5201,N,12029.7122,W,1,09,0.8,-2.1,M,-33.8,M,,*7A
$PYRTM,2024,123.419545886516,14.529193296655
$GPGGA,100407.00,3413.5208,N,12029.7140,W,1,09,0.8,0.0,M,-33.8,M,,*58
$PYRTM,2024,123.419557447616,14.529204857755
$GPGGA,100408.00,3413.5214,N,12029.7158,W,1,09,0.8,-0.5,M,-33.8,M,,*7B
$PYRTM,2024,123.419569033426,14.529216443565
$GPGGA,100409.00,3413.5219,N,12029.7170,W,1,09,0.8,0.5,M,-33.8,M,,*50
$PYRTM,2024,123.419581635914,14.529229046053
$GPGGA,100410.00,3413.5220,N,12029.7178,W,1,09,0.8,2.7,M,-33.8,M,,*5A
$PYRTM,2024,123.419594368681,14.529241778819
$GPGGA,100411.00,3413.5222,N,12029.7189,W,1,09,0.8,4.2,M,-33.8,M,,*54
$PYRTM,2024,123.419603744190,14.529251154329
$GPGGA,100412.00,3413.5224,N,12029.7204,W,1,09,0.8,3.6,M,-33.8,M,,*54
$PYRTM,2024,123.419615330937,14.529262741076
$GPGGA,100413.00,3413.5227,N,12029.7217,W,1,09,0.8,2.8,M,-33.8,M,,*5B
$PYRTM,2024,123.419626893252,14.529274303391
$GPGGA,100414.00,3413.5229,N,12029.7232,W,1,09,0.8,2.2,M,-33.8,M,,*5F
$PYRTM,2024,123.419638481944,14.529285892083
$GPGGA,100415.00,3413.5234,N,12029.7248,W,1,09,0.8,1.2,M,-33.8,M,,*5C
$PYRTM,2024,123.419650042373,14.529297452512
$GPGGA,100416.00,3413.5240,N,12029.7264,W,1,09,0.8,0.7,M,-33.8,M,,*56
$PYRTM,2024,123.419661632141,14.529309042280
$GPGGA,100417.00,3413.5244,N,12029.7275,W,1,09,0.8,1.9,M,-33.8,M,,*5C
$PYRTM,2024,123.419673189595,14.529320599745
$GPGGA,100418.00,3413.5247,N,12029.7284,W,1,09,0.8,3.9,M,-33.8,M,,*5C
$PYRTM,2024,123.419684779572,14.529332189722
$GPGGA,100419.00,3413.5250,N,12029.7301,W,1,09,0.8,4.5,M,-33.8,M,,*5C
$PYRTM,2024,123.419696337338,14.529343747477
$GPGGA,100420.00,3413.5256,N,12029.7322,W,1,09,0.8,4.1,M,-33.8,M,,*55
$PYRTM,2024,123.419707924641,14.529355334780
$GPGGA,100421.00,3413.5260,N,12029.7336,W,1,09,0.8,1.8,M,-33.8,M,,*58
$PYRTM,2024,123.419719486273,14.529366896412
$GPGGA,100422.00,3413.5260,N,12029.7343,W,1,09,0.8,1.5,M,-33.8,M,,*54
$PYRTM,2024,123.419731073912,14.529378484051
$GPGGA,100423.00,3413.5259,N,12029.7352,W,1,09,0.8,0.4,M,-33.8,M,,*5F
$PYRTM,2024,123.419742635185,14.529390045324
$GPGGA,100424.00,3413.5261,N,12029.7367,W,1,09,0.8,-0.4,M,-33.8,M,,*78
$PYRTM,2024,123.419754217674,14.529401627824
$GPGGA,100425.00,3413.5266,N,12029.7382,W,1,09,0.8,-0.9,M,-33.8,M,,*78
$PYRTM,2024,123.419765783275,14.529413193414
$GPGGA,100426.00,3413.5273,N,12029.7394,W,1,09,0.8,-1.3,M,-33.8,M,,*73
$PYRTM,2024,123.419777370903,14.529424781042
$GPGGA,100427.00,3413.5277,N,12029.7406,W,1,09,0.8,-1.0,M,-33.8,M,,*79
$PYRTM,2024,123.419788931840,14.529436341979
$GPGGA,100428.00,3413.5275,N,12029.7418,W,1,09,0.8,-0.3,M,-33.8,M,,*79
$PYRTM,2024,123.419800520567,14.529447930706
$GPGGA,100429.00,3413.5275,N,12029.7433,W,1,09,0.8,-0.4,M,-33.8,M,,*76
$PYRTM,2024,123.419812079155,14.529459489294
$GPGGA,100430.00,3413.5279,N,12029.7448,W,1,09,0.8,-1.0,M,-33.8,M,,*7B
$PYRTM,2024,123.419823682060,14.529471092199
$GPGGA,100431.00,3413.5285,N,12029.7456,W,1,09,0.8,-1.3,M,-33.8,M,,*75
$PYRTM,2024,123.419835227685,14.529482637824
$GPGGA,100432.00,3413.5289,N,12029.7465,W,1,09,0.8,-1.5,M,-33.8,M,,*7C
$PYRTM,2024,123.419846818773,14.529494228912
$GPGGA,100433.00,3413.5291,N,12029.7481,W,1,09,0.8,-0.6,M,-33.8,M,,*7C
$PYRTM,2024,123.419858377118,14.529505787257
$GPGGA,100434.00,3413.5291,N,12029.7497,W,1,09,0.8,-0.4,M,-33.8,M,,*7E
$PYRTM,2024,123.419870413275,14.529517823414
$GPGGA,100435.00,3413.5293,N,12029.7507,W,1,09,0.8,1.1,M,-33.8,M,,*5C
$PYRTM,2024,123.419881525301,14.529528935440
$GPGGA,100436.00,3413.5299,N,12029.7516,W,1,09,0.8,1.2,M,-33.8,M,,*56
$PYRTM,2024,123.419893113345,14.529540523495
$GPGGA,100437.00,3413.5306,N,12029.7529,W,1,09,0.8,1.4,M,-33.8,M,,*5A
$PYRTM,2024,123.419904673935,14.529552084074
$GPGGA,100438.00,3413.5308,N,12029.7541,W,1,09,0.8,1.5,M,-33.8,M,,*54
$PYRTM,2024,123.419916262361,14.529563672488
$GPGGA,100439.00,3413.5309,N,12029.7552,W,1,09,0.8,1.8,M,-33.8,M,,*5B
$PYRTM,2024,123.419928864016,14.529576274155
$GPGGA,100440.00,3413.5311,N,12029.7563,W,1,09,0.8,1.1,M,-33.8,M,,*57
$PYRTM,2024,123.419941595301,14.529589005440
$GPGGA,100441.00,3413.5319,N,12029.7575,W,1,09,0.8,3.7,M,-33.8,M,,*5D
$PYRTM,2024,123.419950970775,14.529598380914
$GPGGA,100442.00,3413.5326,N,12029.7586,W,1,09,0.8,3.1,M,-33.8,M,,*58
$PYRTM,2024,123.419962558484,14.529609968623
$GPGGA,100443.00,3413.5330,N,12029.7598,W,1,09,0.8,2.7,M,-33.8,M,,*56
$PYRTM,2024,123.419974120266,14.529621530405
$GPGGA,100444.00,3413.5331,N,12029.7611,W,1,09,0.8,6.4,M,-33.8,M,,*55
$PYRTM,2024,123.419985707905,14.529633118044
$GPGGA,100445.00,3413.5333,N,12029.7626,W,1,09,0.8,3.6,M,-33.8,M,,*55
$PYRTM,2024,123.419997268958,14.529644679097
$GPGGA,100446.00,3413.5341,N,12029.7640,W,1,09,0.8,3.5,M,-33.8,M,,*50
$PYRTM,2024,123.420008857928,14.529656268067
$GPGGA,100447.00,3413.5346,N,12029.7651,W,1,09,0.8,5.1,M,-33.8,M,,*54
$PYRTM,2024,123.420020417083,14.529667827222
$GPGGA,100448.00,3413.5345,N,12029.7663,W,1,09,0.8,7.2,M,-33.8,M,,*58
$PYRTM,2024,123.420032007535,14.529679417674
$GPGGA,100449.00,3413.5343,N,12029.7680,W,1,09,0.8,2.2,M,-33.8,M,,*57
$PYRTM,2024,123.420044041979,14.529691452118
$GPGGA,100450.00,3413.5347,N,12029.7699,W,1,09,0.8,0.7,M,-33.8,M,,*54
$PYRTM,2024,123.420055156644,14.529702566794
$GPGGA,100451.00,3413.5355,N,12029.7714,W,1,09,0.8,0.3,M,-33.8,M,,*56
$PYRTM,2024,123.420066713854,14.529714123993
$GPGGA,100452.00,3413.5360,N,12029.7721,W,1,09,0.8,-0.1,M,-33.8,M,,*7A
$PYRTM,2024,123.420078301146,14.529725711296
$GPGGA,100453.00,3413.5363,N,12029.7731,W,1,09,0.8,0.5,M,-33.8,M,,*50
$PYRTM,2024,123.420089862824,14.529737272963
$GPGGA,100454.00,3413.5365,N,12029.7747,W,1,09,0.8,0.5,M,-33.8,M,,*50
$PYRTM,2024,123.420101448669,14.529748858808
$GPGGA,100455.00,3413.5368,N,12029.7764,W,1,09,0.8,1.0,M,-33.8,M,,*59
$PYRTM,2024,123.420113010579,14.529760420718
$GPGGA,100456.00,3413.5370,N,12029.7778,W,1,09,0.8,0.0,M,-33.8,M,,*5F
$PYRTM,2024,123.420124597766,14.529772007905
$GPGGA,100457.00,3413.5373,N,12029.7792,W,1,09,0.8,-0.7,M,-33.8,M,,*73
$PYRTM,2024,123.420136159016,14.529783569155
$GPGGA,100458.00,3413.5379,N,12029.7807,W,1,09,0.8,-2.0,M,-33.8,M,,*70
$PYRTM,2024,123.420147747234,14.529795157373
$GPGGA,100459.00,3413.5385,N,12029.7817,W,1,09,0.8,-1.1,M,-33.8,M,,*71
$PYRTM,2024,123.420159306806,14.529806716944
$GPGGA,100500.00,3413.5388,N,12029.7827,W,1,09,0.8,-0.7,M,-33.8,M,,*75
$PYRTM,2024,123.420169967326,14.529817377465
$GPGGA,100501.00,3413.5390,N,12029.7843,W,1,09,0.8,0.1,M,-33.8,M,,*54
$PYRTM,2024,123.420182931157,14.529830341308
$GPGGA,100502.00,3413.5394,N,12029.7860,W,1,09,0.8,0.7,M,-33.8,M,,*54
$PYRTM,2024,123.420193680544,14.529841090683
$GPGGA,100503.00,3413.5398,N,12029.7872,W,1,09,0.8,0.6,M,-33.8,M,,*5B
$PYRTM,2024,123.420204792708,14.529852202847
$GPGGA,100504.00,3413.5401,N,12029.7885,W,1,09,0.8,0.8,M,-33.8,M,,*5D
$PYRTM,2024,123.420215789109,14.529863199248
$GPGGA,100505.00,3413.5405,N,12029.7897,W,1,09,0.8,0.3,M,-33.8,M,,*50
$PYRTM,2024,123.420227375648,14.529874785787
$GPGGA,100506.00,3413.5408,N,12029.7908,W,1,09,0.8,0.5,M,-33.8,M,,*5F
$PYRTM,2024,123.420238494387,14.529885904525
$GPGGA,100507.00,3413.5412,N,12029.7919,W,1,09,0.8,1.3,M,-33.8,M,,*52
$PYRTM,2024,123.420249599711,14.529897009850
$GPGGA,100508.00,3413.5415,N,12029.7933,W,1,09,0.8,2.6,M,-33.8,M,,*54
$PYRTM,2024,123.420260710602,14.529908120741
$GPGGA,100509.00,3413.5418,N,12029.7948,W,1,09,0.8,3.8,M,-33.8,M,,*5B
$PYRTM,2024,123.420271709363,14.529919119502
$GPGGA,100510.00,3413.5421,N,12029.7962,W,1,09,0.8,3.3,M,-33.8,M,,*5A
$PYRTM,2024,123.420286277095,14.529933687234
$GPGGA,100511.00,3413.5425,N,12029.7973,W,1,09,0.8,3.1,M,-33.8,M,,*5D
$PYRTM,2024,123.420300626782,14.529948036921
$GPGGA,100512.00,3413.5428,N,12029.7984,W,1,09,0.8,3.8,M,-33.8,M,,*52
$PYRTM,2024,123.420311747373,14.529959157512
$GPGGA,100513.00,3413.5430,N,12029.7999,W,1,09,0.8,4.4,M,-33.8,M,,*5D
$PYRTM,2024,123.420322863461,14.529970273600
$GPGGA,100514.00,3413.5432,N,12029.8013,W,1,09,0.8,5.4,M,-33.8,M,,*5D
$PYRTM,2024,123.420333847465,14.529981257604
$GPGGA,100515.00,3413.5437,N,12029.8030,W,1,09,0.8,3.7,M,-33.8,M,,*5D
$PYRTM,2024,123.420344966157,14.529992376296
$GPGGA,100516.00,3413.5443,N,12029.8045,W,1,09,0.8,2.8,M,-33.8,M,,*51
$PYRTM,2024,123.420356081690,14.530003491829
$GPGGA,100517.00,3413.5446,N,12029.8053,W,1,09,0.8,3.0,M,-33.8,M,,*5B
$PYRTM,2024,123.420367193125,14.530014603264
$GPGGA,100518.00,3413.5450,N,12029.8060,W,1,09,0.8,5.6,M,-33.8,M,,*53
$PYRTM,2024,123.420378308426,14.530025718565
$GPGGA,100519.00,3413.5455,N,12029.8074,W,1,09,0.8,3.6,M,-33.8,M,,*54
$PYRTM,2024,123.420389648310,14.530037058449
$GPGGA,100520.00,3413.5460,N,12029.8094,W,1,09,0.8,1.9,M,-33.8,M,,*5B
$PYRTM,2024,123.420401339977,14.530048750116
$GPGGA,100521.00,3413.5464,N,12029.8111,W,1,09,0.8,-0.4,M,-33.8,M,,*73
$PYRTM,2024,123.420412898935,14.530060309074
$GPGGA,100522.00,3413.5467,N,12029.8120,W,1,09,0.8,-0.8,M,-33.8,M,,*7D
$PYRTM,2024,123.420424373090,14.530071783229
$GPGGA,100523.00,3413.5471,N,12029.8131,W,1,09,0.8,0.2,M,-33.8,M,,*5C
$PYRTM,2024,123.420436046111,14.530083456250
$GPGGA,100524.00,3413.5476,N,12029.8144,W,1,09,0.8,-0.7,M,-33.8,M,,*76
$PYRTM,2024,123.420447634120,14.530095044259
$GPGGA,100525.00,3413.5479,N,12029.8156,W,1,09,0.8,-0.3,M,-33.8,M,,*7F
$PYRTM,2024,123.420459195359,14.530106605509
$GPGGA,100526.00,3413.5482,N,12029.8170,W,1,09,0.8,-0.7,M,-33.8,M,,*78
$PYRTM,2024,123.420470783171,14.530118193310
$GPGGA,100527.00,3413.5486,N,12029.8186,W,1,09,0.8,-1.3,M,-33.8,M,,*71
$PYRTM,2024,123.420482344433,14.530129754572
$GPGGA,100528.00,3413.5489,N,12029.8197,W,1,09,0.8,-0.9,M,-33.8,M,,*7A
$PYRTM,2024,123.420493816609,14.530141226748
$GPGGA,100529.00,3413.5492,N,12029.8202,W,1,09,0.8,0.4,M,-33.8,M,,*5E
$PYRTM,2024,123.420505389572,14.530152799711
$GPGGA,100530.00,3413.5498,N,12029.8212,W,1,09,0.8,1.6,M,-33.8,M,,*5E
$PYRTM,2024,123.420517079838,14.530164489977
$GPGGA,100531.00,3413.5506,N,12029.8228,W,1,09,0.8,-2.5,M,-33.8,M,,*7D
$PYRTM,2024,123.420528640451,14.530176050602
$GPGGA,100532.00,3413.5510,N,12029.8244,W,1,09,0.8,-1.8,M,-33.8,M,,*7D
$PYRTM,2024,123.420540114340,14.530187524479
$GPGGA,100533.00,3413.5510,N,12029.8255,W,1,09,0.8,1.3,M,-33.8,M,,*5A
$PYRTM,2024,123.420551688461,14.530199098600
$GPGGA,100534.00,3413.5512,N,12029.8264,W,1,09,0.8,2.9,M,-33.8,M,,*54
$PYRTM,2024,123.420563723935,14.530211134086
$GPGGA,100535.00,3413.5521,N,12029.8275,W,1,09,0.8,1.4,M,-33.8,M,,*5B
$PYRTM,2024,123.420574834132,14.530222244271
$GPGGA,100536.00,3413.5528,N,12029.8290,W,1,09,0.8,0.4,M,-33.8,M,,*5B
$PYRTM,2024,123.420586524919,14.530233935069
$GPGGA,100537.00,3413.5529,N,12029.8303,W,1,09,0.8,-0.3,M,-33.8,M,,*7A
$PYRTM,2024,123.420597986285,14.530245396424
$GPGGA,100538.00,3413.5527,N,12029.8315,W,1,09,0.8,0.4,M,-33.8,M,,*56
$PYRTM,2024,123.420609558519,14.530256968657
$GPGGA,100539.00,3413.5529,N,12029.8328,W,1,09,0.8,0.8,M,-33.8,M,,*5B
$PYRTM,2024,123.420622753137,14.530270163275
$GPGGA,100540.00,3413.5537,N,12029.8342,W,1,09,0.8,1.8,M,-33.8,M,,*57
$PYRTM,2024,123.420633863681,14.530281273819
$GPGGA,100541.00,3413.5544,N,12029.8353,W,1,09,0.8,-2.4,M,-33.8,M,,*70
$PYRTM,2024,123.420645426169,14.530292836308
$GPGGA,100542.00,3413.5546,N,12029.8364,W,1,09,0.8,-2.2,M,-33.8,M,,*73
$PYRTM,2024,123.420657012523,14.530304422662
$GPGGA,100543.00,3413.5546,N,12029.8376,W,1,09,0.8,-3.8,M,-33.8,M,,*7A
$PYRTM,2024,123.420668574317,14.530315984468
$GPGGA,100544.00,3413.5550,N,12029.8392,W,1,09,0.8,-2.2,M,-33.8,M,,*7B
$PYRTM,2024,123.420680155150,14.530327565289
$GPGGA,100545.00,3413.5555,N,12029.8409,W,1,09,0.8,-0.8,M,-33.8,M,,*72
$PYRTM,2024,123.420691723542,14.530339133681
$GPGGA,100546.00,3413.5554,N,12029.8421,W,1,09,0.8,-0.2,M,-33.8,M,,*70
$PYRTM,2024,123.420703310312,14.530350720451
$GPGGA,100547.00,3413.5551,N,12029.8429,W,1,09,0.8,3.0,M,-33.8,M,,*50
$PYRTM,2024,123.420714870972,14.530362281111
$GPGGA,100548.00,3413.5553,N,12029.8439,W,1,09,0.8,3.7,M,-33.8,M,,*5B
$PYRTM,2024,123.420726460382,14.530373870521
$GPGGA,100549.00,3413.5559,N,12029.8456,W,1,09,0.8,1.7,M,-33.8,M,,*5B
$PYRTM,2024,123.420738019248,14.530385429387
$GPGGA,100550.00,3413.5565,N,12029.8470,W,1,09,0.8,-0.5,M,-33.8,M,,*76
$PYRTM,2024,123.420749608715,14.530397018854
$GPGGA,100551.00,3413.5565,N,12029.8479,W,1,09,0.8,0.0,M,-33.8,M,,*56
$PYRTM,2024,123.420761166644,14.530408576782
$GPGGA,100552.00,3413.5565,N,12029.8489,W,1,09,0.8,0.2,M,-33.8,M,,*58
$PYRTM,2024,123.420772756586,14.530420166736
$GPGGA,100553.00,3413.5570,N,12029.8504,W,1,09,0.8,0.4,M,-33.8,M,,*5F
$PYRTM,2024,123.420784315313,14.530431725440
$GPGGA,100554.00,3413.5575,N,12029.8519,W,1,09,0.8,1.0,M,-33.8,M,,*54
$PYRTM,2024,123.420795902720,14.530443312859
$GPGGA,100555.00,3413.5576,N,12029.8530,W,1,09,0.8,0.8,M,-33.8,M,,*54
$PYRTM,2024,123.420807464074,14.530454874213
$GPGGA,100556.00,3413.5576,N,12029.8537,W,1,09,0.8,1.0,M,-33.8,M,,*59
$PYRTM,2024,123.420819053484,14.530466463634
$GPGGA,100557.00,3413.5581,N,12029.8546,W,1,09,0.8,0.6,M,-33.8,M,,*51
$PYRTM,2024,123.420830613461,14.530478023600
$GPGGA,100558.00,3413.5587,N,12029.8561,W,1,09,0.8,-0.7,M,-33.8,M,,*71
$PYRTM,2024,123.420842195590,14.530489605729
$GPGGA,100559.00,3413.5588,N,12029.8575,W,1,09,0.8,-0.5,M,-33.8,M,,*78
$PYRTM,2024,123.420853761551,14.530501171701
$GPGGA,100600.00,3413.5586,N,12029.8585,W,1,09,0.8,0.5,M,-33.8,M,,*5B
$PYRTM,2024,123.420865348067,14.530512758206
$GPGGA,100601.00,3413.5588,N,12029.8596,W,1,09,0.8,1.5,M,-33.8,M,,*57
$PYRTM,2024,123.420876911701,14.530524321840
$GPGGA,100602.00,3413.5595,N,12029.8608,W,1,09,0.8,1.7,M,-33.8,M,,*5E
$PYRTM,2024,123.420888495764,14.530535905903
$GPGGA,100603.00,3413.5599,N,12029.8619,W,1,09,0.8,0.9,M,-33.8,M,,*5C
$PYRTM,2024,123.420900057222,14.530547467361
$GPGGA,100604.00,3413.5596,N,12029.8630,W,1,09,0.8,1.8,M,-33.8,M,,*5F
$PYRTM,2024,123.420912094421,14.530559504560
$GPGGA,100605.00,3413.5593,N,12029.8644,W,1,09,0.8,1.4,M,-33.8,M,,*54
$PYRTM,2024,123.420923205648,14.530570615787
$GPGGA,100606.00,3413.5596,N,12029.8659,W,1,09,0.8,-0.9,M,-33.8,M,,*7F
$PYRTM,2024,123.420934795949,14.530582206088
$GPGGA,100607.00,3413.5604,N,12029.8668,W,1,09,0.8,3.9,M,-33.8,M,,*5A
$PYRTM,2024,123.420946354699,14.530593764838
$GPGGA,100608.00,3413.5612,N,12029.8675,W,1,09,0.8,7.4,M,-33.8,M,,*57
$PYRTM,2024,123.420957942187,14.530605352338
$GPGGA,100609.00,3413.5613,N,12029.8687,W,1,09,0.8,8.9,M,-33.8,M,,*58
$PYRTM,2024,123.420970544595,14.530617954734
$GPGGA,100610.00,3413.5612,N,12029.8707,W,1,09,0.8,6.7,M,-33.8,M,,*58
$PYRTM,2024,123.420983275856,14.530630685995
$GPGGA,100611.00,3413.5612,N,12029.8724,W,1,09,0.8,7.0,M,-33.8,M,,*5E
$PYRTM,2024,123.420992651238,14.530640061377
$GPGGA,100612.00,3413.5616,N,12029.8734,W,1,09,0.8,6.3,M,-33.8,M,,*5A
$PYRTM,2024,123.421004238657,14.530651648796
$GPGGA,100613.00,3413.5622,N,12029.8743,W,1,09,0.8,6.8,M,-33.8,M,,*57
$PYRTM,2024,123.421015800637,14.530663210775
$GPGGA,100614.00,3413.5630,N,12029.8756,W,1,09,0.8,7.3,M,-33.8,M,,*5D
$PYRTM,2024,123.421027388137,14.530674798275
$GPGGA,100615.00,3413.5633,N,12029.8771,W,1,09,0.8,6.5,M,-33.8,M,,*5D
$PYRTM,2024,123.421038951146,14.530686361285
$GPGGA,100616.00,3413.5634,N,12029.8787,W,1,09,0.8,5.1,M,-33.8,M,,*57
$PYRTM,2024,123.421050535289,14.530697945428
$GPGGA,100617.00,3413.5634,N,12029.8802,W,1,09,0.8,5.1,M,-33.8,M,,*54
$PYRTM,2024,123.421062096690,14.530709506829
$GPGGA,100618.00,3413.5639,N,12029.8812,W,1,09,0.8,6.6,M,-33.8,M,,*53
$PYRTM,2024,123.421073689410,14.530721099549
$GPGGA,100619.00,3413.5645,N,12029.8821,W,1,09,0.8,7.6,M,-33.8,M,,*58
$PYRTM,2024,123.421085244606,14.530732654745
$GPGGA,100620.00,3413.5650,N,12029.8835,W,1,09,0.8,7.8,M,-33.8,M,,*5D
$PYRTM,2024,123.421096846123,14.530744256273
$GPGGA,100621.00,3413.5654,N,12029.8852,W,1,09,0.8,7.2,M,-33.8,M,,*53
$PYRTM,2024,123.421108394502,14.530755804641
$GPGGA,100622.00,3413.5658,N,12029.8869,W,1,09,0.8,6.1,M,-33.8,M,,*56
$PYRTM,2024,123.421119982963,14.530767393102
$GPGGA,100623.00,3413.5661,N,12029.8880,W,1,09,0.8,5.5,M,-33.8,M,,*5D
$PYRTM,2024,123.421131542546,14.530778952685
$GPGGA,100624.00,3413.5664,N,12029.8891,W,1,09,0.8,5.8,M,-33.8,M,,*52
$PYRTM,2024,123.421143131088,14.530790541227
$GPGGA,100625.00,3413.5667,N,12029.8905,W,1,09,0.8,5.7,M,-33.8,M,,*53
$PYRTM,2024,123.421154689109,14.530802099248
$GPGGA,100626.00,3413.5671,N,12029.8921,W,1,09,0.8,4.8,M,-33.8,M,,*5F
$PYRTM,2024,123.421166278287,14.530813688426
$GPGGA,100627.00,3413.5676,N,12029.8938,W,1,09,0.8,4.0,M,-33.8,M,,*59
$PYRTM,2024,123.421177838958,14.530825249097
$GPGGA,100628.00,3413.5681,N,12029.8950,W,1,09,0.8,3.4,M,-33.8,M,,*53
$PYRTM,2024,123.421189426065,14.530836836204
$GPGGA,100629.00,3413.5684,N,12029.8958,W,1,09,0.8,3.8,M,-33.8,M,,*53
$PYRTM,2024,123.421201467755,14.530848877894
$GPGGA,100630.00,3413.5685,N,12029.8970,W,1,09,0.8,5.3,M,-33.8,M,,*5D
$PYRTM,2024,123.421212574931,14.530859985069
$GPGGA,100631.00,3413.5687,N,12029.8990,W,1,09,0.8,0.8,M,-33.8,M,,*5E
$PYRTM,2024,123.421224136910,14.530871547049
$GPGGA,100632.00,3413.5694,N,12029.9010,W,1,09,0.8,0.3,M,-33.8,M,,*54
$PYRTM,2024,123.421235723542,14.530883133681
$GPGGA,100633.00,3413.5703,N,12029.9018,W,1,09,0.8,-0.7,M,-33.8,M,,*7B
$PYRTM,2024,123.421247284051,14.530894694190
$GPGGA,100634.00,3413.5708,N,12029.9025,W,1,09,0.8,0.1,M,-33.8,M,,*52
$PYRTM,2024,123.421259321748,14.530906731887
$GPGGA,100635.00,3413.5708,N,12029.9039,W,1,09,0.8,0.9,M,-33.8,M,,*56
$PYRTM,2024,123.421270432813,14.530917842951
$GPGGA,100636.00,3413.5709,N,12029.9060,W,1,09,0.8,0.4,M,-33.8,M,,*55
$PYRTM,2024,123.421282024387,14.530929434525
$GPGGA,100637.00,3413.5711,N,12029.9079,W,1,09,0.8,1.1,M,-33.8,M,,*51
$PYRTM,2024,123.421293579977,14.530940990116
$GPGGA,100638.00,3413.5717,N,12029.9090,W,1,09,0.8,1.0,M,-33.8,M,,*5E
$PYRTM,2024,123.421305183461,14.530952593600
$GPGGA,100639.00,3413.5725,N,12029.9097,W,1,09,0.8,2.0,M,-33.8,M,,*5A
$PYRTM,2024,123.421317771412,14.530965181551
$GPGGA,100640.00,3413.5731,N,12029.9108,W,1,09,0.8,2.5,M,-33.8,M,,*53
$PYRTM,2024,123.421330503785,14.530977913935
$GPGGA,100641.00,3413.5734,N,12029.9126,W,1,09,0.8,2.8,M,-33.8,M,,*56
$PYRTM,2024,123.421339878553,14.530987288704
$GPGGA,100642.00,3413.5735,N,12029.9145,W,1,09,0.8,4.0,M,-33.8,M,,*5F
$PYRTM,2024,123.421351466620,14.530998876759
$GPGGA,100643.00,3413.5739,N,12029.9159,W,1,09,0.8,4.3,M,-33.8,M,,*5C
$PYRTM,2024,123.421363026354,14.531010436493
$GPGGA,100644.00,3413.5749,N,12029.9169,W,1,09,0.8,4.9,M,-33.8,M,,*55
$PYRTM,2024,123.421374613437,14.531022023576
$GPGGA,100645.00,3413.5758,N,12029.9178,W,1,09,0.8,4.7,M,-33.8,M,,*5A
$PYRTM,2024,123.421386177407,14.531033587546
$GPGGA,100646.00,3413.5759,N,12029.9191,W,1,09,0.8,5.6,M,-33.8,M,,*5F
$PYRTM,2024,123.421397762361,14.531045172500
$GPGGA,100647.00,3413.5757,N,12029.9207,W,1,09,0.8,5.6,M,-33.8,M,,*5C
$PYRTM,2024,123.421409323194,14.531056733333
$GPGGA,100648.00,3413.5761,N,12029.9222,W,1,09,0.8,5.1,M,-33.8,M,,*56
$PYRTM,2024,123.421420910243,14.531068320382
$GPGGA,100649.00,3413.5772,N,12029.9232,W,1,09,0.8,3.2,M,-33.8,M,,*51
$PYRTM,2024,123.421432471366,14.531079881505
$GPGGA,100650.00,3413.5783,N,12029.9242,W,1,09,0.8,2.7,M,-33.8,M,,*54
$PYRTM,2024,123.421444073414,14.531091483553
$GPGGA,100651.00,3413.5786,N,12029.9257,W,1,09,0.8,4.0,M,-33.8,M,,*55
$PYRTM,2024,123.421455618762,14.531103028900
$GPGGA,100652.00,3413.5785,N,12029.9274,W,1,09,0.8,4.1,M,-33.8,M,,*55
$PYRTM,2024,123.421467222384,14.531114632523
$GPGGA,100653.00,3413.5789,N,12029.9289,W,1,09,0.8,4.6,M,-33.8,M,,*5D
$PYRTM,2024,123.421478768553,14.531126178692
$GPGGA,100654.00,3413.5798,N,12029.9297,W,1,09,0.8,5.4,M,-33.8,M,,*56
$PYRTM,2024,123.421490358634,14.531137768773
$GPGGA,100655.00,3413.5805,N,12029.9306,W,1,09,0.8,6.3,M,-33.8,M,,*51
$PYRTM,2024,123.421501917662,14.531149327812
$GPGGA,100656.00,3413.5807,N,12029.9322,W,1,09,0.8,0.5,M,-33.8,M,,*56
$PYRTM,2024,123.421513506956,14.531160917095
$GPGGA,100657.00,3413.5808,N,12029.9342,W,1,09,0.8,-2.0,M,-33.8,M,,*74
$PYRTM,2024,123.421525066250,14.531172476389
$GPGGA,100658.00,3413.5813,N,12029.9362,W,1,09,0.8,-3.1,M,-33.8,M,,*73
$PYRTM,2024,123.421536651944,14.531184062083
$GPGGA,100659.00,3413.5821,N,12029.9374,W,1,09,0.8,-3.3,M,-33.8,M,,*76
$PYRTM,2024,123.421548213414,14.531195623553
$GPGGA,100700.00,3413.5828,N,12029.9381,W,1,09,0.8,-1.4,M,-33.8,M,,*7D
$PYRTM,2024,123.421559802234,14.531207212373
$GPGGA,100701.00,3413.5831,N,12029.9394,W,1,09,0.8,-1.2,M,-33.8,M,,*76
$PYRTM,2024,123.421571366308,14.531218776447
$GPGGA,100702.00,3413.5835,N,12029.9415,W,1,09,0.8,-4.3,M,-33.8,M,,*7B
$PYRTM,2024,123.421582949549,14.531230359688
$GPGGA,100703.00,3413.5841,N,12029.9434,W,1,09,0.8,-0.9,M,-33.8,M,,*74
$PYRTM,2024,123.421594513600,14.531241923738
$GPGGA,100704.00,3413.5844,N,12029.9446,W,1,09,0.8,-1.1,M,-33.8,M,,*7A
$PYRTM,2024,123.421605621319,14.531253031458
$GPGGA,100705.00,3413.5846,N,12029.9456,W,1,09,0.8,-3.4,M,-33.8,M,,*7F
$PYRTM,2024,123.421617660590,14.531265070729
$GPGGA,100706.00,3413.5851,N,12029.9472,W,1,09,0.8,-0.5,M,-33.8,M,,*7E
$PYRTM,2024,123.421628440000,14.531275850139
$GPGGA,100707.00,3413.5856,N,12029.9488,W,1,09,0.8,-0.5,M,-33.8,M,,*7D
$PYRTM,2024,123.421639431493,14.531286841632
$GPGGA,100708.00,3413.5860,N,12029.9498,W,1,09,0.8,0.2,M,-33.8,M,,*5C
$PYRTM,2024,123.421650558032,14.531297968171
$GPGGA,100709.00,3413.5863,N,12029.9510,W,1,09,0.8,0.2,M,-33.8,M,,*5F
$PYRTM,2024,123.421661655370,14.531309065509
$GPGGA,100710.00,3413.5865,N,12029.9528,W,1,09,0.8,0.2,M,-33.8,M,,*5A
$PYRTM,2024,123.421676223981,14.531323634120
$GPGGA,100711.00,3413.5868,N,12029.9543,W,1,09,0.8,-0.4,M,-33.8,M,,*70
$PYRTM,2024,123.421687335370,14.531334745509
$GPGGA,100712.00,3413.5871,N,12029.9554,W,1,09,0.8,-1.2,M,-33.8,M,,*7A
$PYRTM,2024,123.421698446597,14.531345856736
$GPGGA,100713.00,3413.5878,N,12029.9564,W,1,09,0.8,-0.7,M,-33.8,M,,*75
$PYRTM,2024,123.421709558160,14.531356968299
$GPGGA,100714.00,3413.5883,N,12029.9578,W,1,09,0.8,-0.1,M,-33.8,M,,*7D
$PYRTM,2024,123.421720669144,14.531368079282
$GPGGA,100715.00,3413.5885,N,12029.9594,W,1,09,0.8,0.3,M,-33.8,M,,*57
$PYRTM,2024,123.421732256551,14.531379666690
$GPGGA,100716.00,3413.5887,N,12029.9610,W,1,09,0.8,0.8,M,-33.8,M,,*52
$PYRTM,2024,123.421743816956,14.531391227106
$GPGGA,100717.00,3413.5893,N,12029.9624,W,1,09,0.8,1.8,M,-33.8,M,,*50
$PYRTM,2024,123.421755404340,14.531402814479
$GPGGA,100718.00,3413.5901,N,12029.9635,W,1,09,0.8,3.2,M,-33.8,M,,*5D
$PYRTM,2024,123.421766966354,14.531414376493
$GPGGA,100719.00,3413.5905,N,12029.9646,W,1,09,0.8,4.2,M,-33.8,M,,*5B
$PYRTM,2024,123.421779003414,14.531426413553
$GPGGA,100720.00,3413.5905,N,12029.9664,W,1,09,0.8,1.1,M,-33.8,M,,*57
$PYRTM,2024,123.421790243993,14.531437654132
$GPGGA,100721.00,3413.5910,N,12029.9683,W,1,09,0.8,-2.0,M,-33.8,M,,*74
$PYRTM,2024,123.421801817847,14.531449227986
$GPGGA,100722.00,3413.5916,N,12029.9697,W,1,09,0.8,-1.5,M,-33.8,M,,*72
$PYRTM,2024,123.421813395509,14.531460805648
$GPGGA,100723.00,3413.5921,N,12029.9705,W,1,09,0.8,-2.0,M,-33.8,M,,*7B
$PYRTM,2024,123.421824966991,14.531472377130
$GPGGA,100724.00,3413.5924,N,12029.9719,W,1,09,0.8,-1.9,M,-33.8,M,,*7E
$PYRTM,2024,123.421836544329,14.531483954468
$GPGGA,100725.00,3413.5928,N,12029.9739,W,1,09,0.8,-2.2,M,-33.8,M,,*79
$PYRTM,2024,123.421848114826,14.531495524965
$GPGGA,100726.00,3413.5934,N,12029.9755,W,1,09,0.8,-3.0,M,-33.8,M,,*7E
$PYRTM,2024,123.421859688970,14.531507099120
$GPGGA,100727.00,3413.5939,N,12029.9766,W,1,09,0.8,-3.2,M,-33.8,M,,*70
$PYRTM,2024,123.421871262569,14.531518672708
$GPGGA,100728.00,3413.5942,N,12029.9780,W,1,09,0.8,-3.1,M,-33.8,M,,*78
$PYRTM,2024,123.421882838368,14.531530248507
$GPGGA,100729.00,3413.5943,N,12029.9798,W,1,09,0.8,-2.6,M,-33.8,M,,*77
$PYRTM,2024,123.421894412407,14.531541822546
$GPGGA,100730.00,3413.5946,N,12029.9812,W,1,09,0.8,-2.9,M,-33.8,M,,*78
$PYRTM,2024,123.421905986111,14.531553396250
$GPGGA,100731.00,3413.5951,N,12029.9824,W,1,09,0.8,-2.7,M,-33.8,M,,*74
$PYRTM,2024,123.421917560324,14.531564970463
$GPGGA,100732.00,3413.5956,N,12029.9839,W,1,09,0.8,-3.3,M,-33.8,M,,*79
$PYRTM,2024,123.421929134815,14.531576544954
$GPGGA,100733.00,3413.5962,N,12029.9855,W,1,09,0.8,-3.9,M,-33.8,M,,*7F
$PYRTM,2024,123.421940708252,14.531588118391
$GPGGA,100734.00,3413.5965,N,12029.9870,W,1,09,0.8,-4.0,M,-33.8,M,,*76
$PYRTM,2024,123.421952631100,14.531600041238
$GPGGA,100735.00,3413.5964,N,12029.9882,W,1,09,0.8,-3.3,M,-33.8,M,,*7F
$PYRTM,2024,123.421963856296,14.531611266435
$GPGGA,100736.00,3413.5964,N,12029.9897,W,1,09,0.8,-3.1,M,-33.8,M,,*7A
$PYRTM,2024,123.421975445069,14.531622855208
$GPGGA,100737.00,3413.5968,N,12029.9913,W,1,09,0.8,-2.9,M,-33.8,M,,*73
$PYRTM,2024,123.421987004514,14.531634414653
$GPGGA,100738.00,3413.5975,N,12029.9927,W,1,09,0.8,-3.3,M,-33.8,M,,*7C
$PYRTM,2024,123.421998583900,14.531645994039
$GPGGA,100739.00,3413.5980,N,12029.9941,W,1,09,0.8,-4.1,M,-33.8,M,,*72
$PYRTM,2024,123.422011183646,14.531658593785
$GPGGA,100740.00,3413.5981,N,12029.9958,W,1,09,0.8,-4.5,M,-33.8,M,,*71
$PYRTM,2024,123.422022773322,14.531670183461
$GPGGA,100741.00,3413.5982,N,12029.9974,W,1,09,0.8,-3.6,M,-33.8,M,,*79
$PYRTM,2024,123.422034331898,14.531681742037
$GPGGA,100742.00,3413.5987,N,12029.9985,W,1,09,0.8,-1.4,M,-33.8,M,,*71
$PYRTM,2024,123.422045918889,14.531693329028
$GPGGA,100743.00,3413.5993,N,12029.9996,W,1,09,0.8,0.2,M,-33.8,M,,*5D
$PYRTM,2024,123.422057479931,14.531704890069
$GPGGA,100744.00,3413.5997,N,12030.0013,W,1,09,0.8,1.8,M,-33.8,M,,*50
$PYRTM,2024,123.422069062569,14.531716472720
$GPGGA,100745.00,3413.6000,N,12030.0033,W,1,09,0.8,0.1,M,-33.8,M,,*5F
$PYRTM,2024,123.422080629769,14.531728039907
$GPGGA,100746.00,3413.6004,N,12030.0051,W,1,09,0.8,-1.1,M,-33.8,M,,*70
$PYRTM,2024,123.422092217407,14.531739627546
$GPGGA,100747.00,3413.6007,N,12030.0065,W,1,09,0.8,-0.1,M,-33.8,M,,*74
$PYRTM,2024,123.422103778935,14.531751189074
$GPGGA,100748.00,3413.6011,N,12030.0079,W,1,09,0.8,0.4,M,-33.8,M,,*59
$PYRTM,2024,123.422115364583,14.531762774722
$GPGGA,100749.00,3413.6018,N,12030.0095,W,1,09,0.8,0.7,M,-33.8,M,,*50
$PYRTM,2024,123.422126927326,14.531774337465
$GPGGA,100750.00,3413.6026,N,12030.0110,W,1,09,0.8,2.5,M,-33.8,M,,*59
$PYRTM,2024,123.422138512928,14.531785923067
$GPGGA,100751.00,3413.6031,N,12030.0124,W,1,09,0.8,3.1,M,-33.8,M,,*5C
$PYRTM,2024,123.422150075289,14.531797485428
$GPGGA,100752.00,3413.6030,N,12030.0139,W,1,09,0.8,4.4,M,-33.8,M,,*50
$PYRTM,2024,123.422161674421,14.531809084549
$GPGGA,100753.00,3413.6032,N,12030.0158,W,1,09,0.8,0.8,M,-33.8,M,,*5C
$PYRTM,2024,123.422173223634,14.531820633773
$GPGGA,100754.00,3413.6040,N,12030.0180,W,1,09,0.8,-0.9,M,-33.8,M,,*77
$PYRTM,2024,123.422184815150,14.531832225289
$GPGGA,100755.00,3413.6049,N,12030.0192,W,1,09,0.8,-1.5,M,-33.8,M,,*71
$PYRTM,2024,123.422196372176,14.531843782315
$GPGGA,100756.00,3413.6056,N,12030.0200,W,1,09,0.8,-1.7,M,-33.8,M,,*76
$PYRTM,2024,123.422207960822,14.531855370972
$GPGGA,100757.00,3413.6061,N,12030.0214,W,1,09,0.8,-2.9,M,-33.8,M,,*7B
$PYRTM,2024,123.422219519630,14.531866929780
$GPGGA,100758.00,3413.6067,N,12030.0233,W,1,09,0.8,-3.0,M,-33.8,M,,*7F
$PYRTM,2024,123.422231108183,14.531878518333
$GPGGA,100759.00,3413.6069,N,12030.0250,W,1,09,0.8,-1.0,M,-33.8,M,,*77
$PYRTM,2024,123.422242669653,14.531890079792
$GPGGA,100800.00,3413.6072,N,12030.0261,W,1,09,0.8,-1.0,M,-33.8,M,,*7C
$PYRTM,2024,123.422254249109,14.531901659248
$GPGGA,100801.00,3413.6078,N,12030.0271,W,1,09,0.8,-0.4,M,-33.8,M,,*73
$PYRTM,2024,123.422265816771,14.531913226910
$GPGGA,100802.00,3413.6085,N,12030.0282,W,1,09,0.8,-0.1,M,-33.8,M,,*7B
$PYRTM,2024,123.422277403877,14.531924814016
$GPGGA,100803.00,3413.6090,N,12030.0292,W,1,09,0.8,-0.4,M,-33.8,M,,*7A
$PYRTM,2024,123.422288965451,14.531936375590
$GPGGA,100804.00,3413.6091,N,12030.0304,W,1,09,0.8,1.0,M,-33.8,M,,*5A
$PYRTM,2024,123.422301001273,14.531948411412
$GPGGA,100805.00,3413.6093,N,12030.0319,W,1,09,0.8,1.3,M,-33.8,M,,*56
$PYRTM,2024,123.422312113194,14.531959523333
$GPGGA,100806.00,3413.6096,N,12030.0334,W,1,09,0.8,1.6,M,-33.8,M,,*5A
$PYRTM,2024,123.422323699583,14.531971109722
$GPGGA,100807.00,3413.6100,N,12030.0347,W,1,09,0.8,1.0,M,-33.8,M,,*57
$PYRTM,2024,123.422335260752,14.531982670891
$GPGGA,100808.00,3413.6107,N,12030.0361,W,1,09,0.8,0.2,M,-33.8,M,,*58
$PYRTM,2024,123.422346851933,14.531994262083
$GPGGA,100809.00,3413.6112,N,12030.0375,W,1,09,0.8,0.7,M,-33.8,M,,*5D
$PYRTM,2024,123.422359926354,14.532007336493
$GPGGA,100810.00,3413.6117,N,12030.0385,W,1,09,0.8,1.6,M,-33.8,M,,*5F
$PYRTM,2024,123.422372183877,14.532019594028
$GPGGA,100811.00,3413.6122,N,12030.0396,W,1,09,0.8,2.3,M,-33.8,M,,*5C
$PYRTM,2024,123.422381559375,14.532028969514
$GPGGA,100812.00,3413.6127,N,12030.0412,W,1,09,0.8,-1.7,M,-33.8,M,,*7B
$PYRTM,2024,123.422393143935,14.532040554074
$GPGGA,100813.00,3413.6133,N,12030.0428,W,1,09,0.8,-1.8,M,-33.8,M,,*79
$PYRTM,2024,123.422404707870,14.532052118009
$GPGGA,100814.00,3413.6135,N,12030.0439,W,1,09,0.8,-1.6,M,-33.8,M,,*76
$PYRTM,2024,123.422416295069,14.532063705220
$GPGGA,100815.00,3413.6136,N,12030.0447,W,1,09,0.8,-1.6,M,-33.8,M,,*7D
$PYRTM,2024,123.422427855162,14.532075265301
$GPGGA,100816.00,3413.6141,N,12030.0460,W,1,09,0.8,-1.2,M,-33.8,M,,*7F
$PYRTM,2024,123.422439441898,14.532086852037
$GPGGA,100817.00,3413.6152,N,12030.0478,W,1,09,0.8,-3.2,M,-33.8,M,,*77
$PYRTM,2024,123.422451003333,14.532098413472
$GPGGA,100818.00,3413.6162,N,12030.0492,W,1,09,0.8,-3.0,M,-33.8,M,,*7D
$PYRTM,2024,123.422462591956,14.532110002095
$GPGGA,100819.00,3413.6165,N,12030.0502,W,1,09,0.8,-2.8,M,-33.8,M,,*7A
$PYRTM,2024,123.422474153368,14.532121563507
$GPGGA,100820.00,3413.6166,N,12030.0516,W,1,09,0.8,-0.9,M,-33.8,M,,*75
$PYRTM,2024,123.422485741377,14.532133151516
$GPGGA,100821.00,3413.6170,N,12030.0531,W,1,09,0.8,-1.5,M,-33.8,M,,*7B
$PYRTM,2024,123.422497300579,14.532144710718
$GPGGA,100822.00,3413.6176,N,12030.0547,W,1,09,0.8,-1.8,M,-33.8,M,,*72
$PYRTM,2024,123.422508887801,14.532156297940
$GPGGA,100823.00,3413.6182,N,12030.0558,W,1,09,0.8,-2.6,M,-33.8,M,,*7B
$PYRTM,2024,123.422520448750,14.532167858889
$GPGGA,100824.00,3413.6186,N,12030.0567,W,1,09,0.8,-3.4,M,-33.8,M,,*77
$PYRTM,2024,123.422532039317,14.532179449456
$GPGGA,100825.00,3413.6188,N,12030.0579,W,1,09,0.8,-3.4,M,-33.8,M,,*77
$PYRTM,2024,123.422543596481,14.532191006632
$GPGGA,100826.00,3413.6192,N,12030.0591,W,1,09,0.8,-2.7,M,-33.8,M,,*7B
$PYRTM,2024,123.422555187894,14.532202598044
$GPGGA,100827.00,3413.6198,N,12030.0607,W,1,09,0.8,-1.6,M,-33.8,M,,*7E
$PYRTM,2024,123.422566745208,14.532214155347
$GPGGA,100828.00,3413.6204,N,12030.0622,W,1,09,0.8,-1.2,M,-33.8,M,,*74
$PYRTM,2024,123.422578333160,14.532225743299
$GPGGA,100829.00,3413.6205,N,12030.0633,W,1,09,0.8,1.7,M,-33.8,M,,*5C
$PYRTM,2024,123.422589896505,14.532237306644
$GPGGA,100830.00,3413.6205,N,12030.0642,W,1,09,0.8,2.8,M,-33.8,M,,*5E
$PYRTM,2024,123.422601484097,14.532248894236
$GPGGA,100831.00,3413.6206,N,12030.0656,W,1,09,0.8,2.3,M,-33.8,M,,*52
$PYRTM,2024,123.422613043808,14.532260453947
$GPGGA,100832.00,3413.6211,N,12030.0672,W,1,09,0.8,0.9,M,-33.8,M,,*59
$PYRTM,2024,123.422624630255,14.532272040394
$GPGGA,100833.00,3413.6218,N,12030.0685,W,1,09,0.8,-0.1,M,-33.8,M,,*7C
$PYRTM,2024,123.422636191817,14.532283601956
$GPGGA,100834.00,3413.6222,N,12030.0695,W,1,09,0.8,-0.8,M,-33.8,M,,*7A
$PYRTM,2024,123.422648228345,14.532295638484
$GPGGA,100835.00,3413.6227,N,12030.0709,W,1,09,0.8,-0.8,M,-33.8,M,,*7A
$PYRTM,2024,123.422659340312,14.532306750451
$GPGGA,100836.00,3413.6232,N,12030.0727,W,1,09,0.8,-0.7,M,-33.8,M,,*7E
$PYRTM,2024,123.422670932072,14.532318342222
$GPGGA,100837.00,3413.6235,N,12030.0740,W,1,09,0.8,0.8,M,-33.8,M,,*5B
$PYRTM,2024,123.422682488576,14.532329898715
$GPGGA,100838.00,3413.6238,N,12030.0750,W,1,09,0.8,2.0,M,-33.8,M,,*52
