$PYRTM,2024,121.639534437766,12.749181847905
$GPGGA,152054.00,3240.8365,N,11713.8659,W,1,11,0.8,6.5,M,-34.4,M,,*56
$PYRTM,2024,121.639546024630,12.749193434757
$GPGGA,152055.00,3240.8339,N,11713.8657,W,1,11,0.8,5.0,M,-34.4,M,,*56
$PYRTM,2024,121.639557586852,12.749204996991
$GPGGA,152056.00,3240.8313,N,11713.8655,W,1,11,0.8,5.2,M,-34.4,M,,*5D
$PYRTM,2024,121.639569173704,12.749216583843
$GPGGA,152057.00,3240.8288,N,11713.8652,W,1,11,0.8,5.7,M,-34.4,M,,*5D
$PYRTM,2024,121.639580734769,12.749228144919
$GPGGA,152058.00,3240.8262,N,11713.8650,W,1,11,0.8,5.6,M,-34.4,M,,*55
$PYRTM,2024,121.639592317778,12.749239727917
$GPGGA,152059.00,3240.8235,N,11713.8649,W,1,11,0.8,5.6,M,-34.4,M,,*5E
$PYRTM,2024,121.639603882095,12.749251292234
$GPGGA,152100.00,3240.8209,N,11713.8648,W,1,11,0.8,6.3,M,-34.4,M,,*5B
$PYRTM,2024,121.639615470185,12.749262880324
$GPGGA,152101.00,3240.8183,N,11713.8647,W,1,11,0.8,6.2,M,-34.4,M,,*55
$PYRTM,2024,121.639627031574,12.749274441713
$GPGGA,152102.00,3240.8156,N,11713.8646,W,1,11,0.8,5.7,M,-34.4,M,,*59
$PYRTM,2024,121.639638620324,12.749286030463
$GPGGA,152103.00,3240.8129,N,11713.8644,W,1,11,0.8,5.8,M,-34.4,M,,*5D
$PYRTM,2024,121.639650178449,12.749297588588
$GPGGA,152104.00,3240.8102,N,11713.8643,W,1,11,0.8,5.4,M,-34.4,M,,*58
$PYRTM,2024,121.639661767581,12.749309177720
$GPGGA,152105.00,3240.8074,N,11713.8641,W,1,11,0.8,6.8,M,-34.4,M,,*54
$PYRTM,2024,121.639673327801,12.749320737940
$GPGGA,152106.00,3240.8046,N,11713.8640,W,1,11,0.8,6.1,M,-34.4,M,,*5E
$PYRTM,2024,121.639684915023,12.749332325162
$GPGGA,152107.00,3240.8019,N,11713.8638,W,1,11,0.8,7.2,M,-34.4,M,,*58
$PYRTM,2024,121.639696476447,12.749343886586
$GPGGA,152108.00,3240.7992,N,11713.8635,W,1,11,0.8,5.9,M,-34.4,M,,*56
$PYRTM,2024,121.639708064109,12.749355474248
$GPGGA,152109.00,3240.7965,N,11713.8633,W,1,11,0.8,6.5,M,-34.4,M,,*56
$PYRTM,2024,121.639719623854,12.749367033993
$GPGGA,152110.00,3240.7938,N,11713.8631,W,1,11,0.8,4.7,M,-34.4,M,,*54
$PYRTM,2024,121.639731212303,12.749378622442
$GPGGA,152111.00,3240.7912,N,11713.8627,W,1,11,0.8,5.5,M,-34.4,M,,*59
$PYRTM,2024,121.639742772130,12.749390182269
$GPGGA,152112.00,3240.7886,N,11713.8625,W,1,11,0.8,6.0,M,-34.4,M,,*52
$PYRTM,2024,121.639754360567,12.749401770706
$GPGGA,152113.00,3240.7860,N,11713.8621,W,1,11,0.8,4.9,M,-34.4,M,,*54
$PYRTM,2024,121.639765920104,12.749413330255
$GPGGA,152114.00,3240.7834,N,11713.8618,W,1,11,0.8,4.9,M,-34.4,M,,*58
$PYRTM,2024,121.639777509271,12.749424919410
$GPGGA,152115.00,3240.7807,N,11713.8616,W,1,11,0.8,6.5,M,-34.4,M,,*59
$PYRTM,2024,121.639789070613,12.749436480752
$GPGGA,152116.00,3240.7781,N,11713.8614,W,1,11,0.8,7.4,M,-34.4,M,,*59
$PYRTM,2024,121.639800656701,12.749448066840
$GPGGA,152117.00,3240.7754,N,11713.8612,W,1,11,0.8,6.8,M,-34.4,M,,*5B
$PYRTM,2024,121.639812218044,12.749459628183
$GPGGA,152118.00,3240.7727,N,11713.8610,W,1,11,0.8,5.9,M,-34.4,M,,*50
$PYRTM,2024,121.639823805359,12.749471215498
$GPGGA,152119.00,3240.7700,N,11713.8609,W,1,11,0.8,6.0,M,-34.4,M,,*56
$PYRTM,2024,121.639835365278,12.749482775417
$GPGGA,152120.00,3240.7672,N,11713.8607,W,1,11,0.8,6.2,M,-34.4,M,,*54
$PYRTM,2024,121.639846952905,12.749494363044
$GPGGA,152121.00,3240.7645,N,11713.8607,W,1,11,0.8,8.5,M,-34.4,M,,*58
$PYRTM,2024,121.639857138438,12.749504548576
$GPGGA,152122.00,3240.7618,N,11713.8606,W,1,11,0.8,7.9,M,-34.4,M,,*51
$PYRTM,2024,121.639869063935,12.749516474074
$GPGGA,152123.00,3240.7590,N,11713.8605,W,1,11,0.8,6.8,M,-34.4,M,,*50
$PYRTM,2024,121.639881664734,12.749529074873
$GPGGA,152124.00,3240.7563,N,11713.8604,W,1,11,0.8,8.0,M,-34.4,M,,*5C
$PYRTM,2024,121.639893253565,12.749540663704
$GPGGA,152125.00,3240.7536,N,11713.8603,W,1,11,0.8,7.5,M,-34.4,M,,*50
$PYRTM,2024,121.639904810752,12.749552220891
$GPGGA,152126.00,3240.7508,N,11713.8601,W,1,11,0.8,7.2,M,-34.4,M,,*5B
$PYRTM,2024,121.639916393414,12.749563803553
$GPGGA,152127.00,3240.7482,N,11713.8600,W,1,11,0.8,7.2,M,-34.4,M,,*58
$PYRTM,2024,121.639927960104,12.749575370243
$GPGGA,152128.00,3240.7455,N,11713.8599,W,1,11,0.8,9.0,M,-34.4,M,,*52
$PYRTM,2024,121.639939546690,12.749586956829
$GPGGA,152129.00,3240.7429,N,11713.8598,W,1,11,0.8,8.0,M,-34.4,M,,*58
$PYRTM,2024,121.639951110058,12.749598520197
$GPGGA,152130.00,3240.7403,N,11713.8597,W,1,11,0.8,6.2,M,-34.4,M,,*5B
$PYRTM,2024,121.639962695012,12.749610105150
$GPGGA,152131.00,3240.7376,N,11713.8596,W,1,11,0.8,7.1,M,-34.4,M,,*5C
$PYRTM,2024,121.639974257523,12.749621667674
$GPGGA,152132.00,3240.7349,N,11713.8595,W,1,11,0.8,6.2,M,-34.4,M,,*52
$PYRTM,2024,121.639985838611,12.749633248762
$GPGGA,152133.00,3240.7323,N,11713.8595,W,1,11,0.8,5.5,M,-34.4,M,,*5B
$PYRTM,2024,121.639997406528,12.749644816667
$GPGGA,152134.00,3240.7296,N,11713.8594,W,1,11,0.8,6.2,M,-34.4,M,,*56
$PYRTM,2024,121.640008991412,12.749656401551
$GPGGA,152135.00,3240.7269,N,11713.8594,W,1,11,0.8,6.5,M,-34.4,M,,*50
$PYRTM,2024,121.640020552778,12.749667962917
$GPGGA,152136.00,3240.7242,N,11713.8593,W,1,11,0.8,6.2,M,-34.4,M,,*5A
$PYRTM,2024,121.640032144051,12.749679554190
$GPGGA,152137.00,3240.7215,N,11713.8593,W,1,11,0.8,6.0,M,-34.4,M,,*5B
$PYRTM,2024,121.640043701701,12.749691111852
$GPGGA,152138.00,3240.7188,N,11713.8592,W,1,11,0.8,6.9,M,-34.4,M,,*5B
$PYRTM,2024,121.640055291377,12.749702701516
$GPGGA,152139.00,3240.7162,N,11713.8592,W,1,11,0.8,5.0,M,-34.4,M,,*54
$PYRTM,2024,121.640066848819,12.749714258958
$GPGGA,152140.00,3240.7135,N,11713.8591,W,1,11,0.8,6.5,M,-34.4,M,,*5D
$PYRTM,2024,121.640078439838,12.749725849977
$GPGGA,152141.00,3240.7107,N,11713.8590,W,1,11,0.8,6.8,M,-34.4,M,,*51
$PYRTM,2024,121.640089998970,12.749737409109
$GPGGA,152142.00,3240.7081,N,11713.8588,W,1,11,0.8,6.7,M,-34.4,M,,*5B
$PYRTM,2024,121.640101584965,12.749748995104
$GPGGA,152143.00,3240.7054,N,11713.8586,W,1,11,0.8,7.0,M,-34.4,M,,*5A
$PYRTM,2024,121.640113147083,12.749760557222
$GPGGA,152144.00,3240.7028,N,11713.8585,W,1,11,0.8,7.8,M,-34.4,M,,*5D
$PYRTM,2024,121.640124734028,12.749772144167
$GPGGA,152145.00,3240.7001,N,11713.8584,W,1,11,0.8,7.3,M,-34.4,M,,*5D
$PYRTM,2024,121.640135369282,12.749782779421
$GPGGA,152146.00,3240.6975,N,11713.8582,W,1,11,0.8,7.9,M,-34.4,M,,*59
$PYRTM,2024,121.640147290058,12.749794700197
$GPGGA,152147.00,3240.6948,N,11713.8579,W,1,11,0.8,7.4,M,-34.4,M,,*5F
$PYRTM,2024,121.640158069676,12.749805479815
$GPGGA,152148.00,3240.6922,N,11713.8577,W,1,11,0.8,7.5,M,-34.4,M,,*53
$PYRTM,2024,121.640169173831,12.749816583970
$GPGGA,152149.00,3240.6894,N,11713.8575,W,1,11,0.8,8.1,M,-34.4,M,,*57
$PYRTM,2024,121.640180288819,12.749827698958
$GPGGA,152150.00,3240.6868,N,11713.8573,W,1,11,0.8,7.8,M,-34.4,M,,*5C
$PYRTM,2024,121.640191401157,12.749838811296
$GPGGA,152151.00,3240.6842,N,11713.8571,W,1,11,0.8,9.9,M,-34.4,M,,*58
$PYRTM,2024,121.640207128750,12.749854538900
$GPGGA,152152.00,3240.6816,N,11713.8569,W,1,11,0.8,8.6,M,-34.4,M,,*5D
$PYRTM,2024,121.640218241308,12.749865651447
$GPGGA,152153.00,3240.6791,N,11713.8566,W,1,11,0.8,7.8,M,-34.4,M,,*52
$PYRTM,2024,121.640229365463,12.749876775602
$GPGGA,152154.00,3240.6765,N,11713.8563,W,1,11,0.8,7.2,M,-34.4,M,,*51
$PYRTM,2024,121.640240477627,12.749887887766
$GPGGA,152155.00,3240.6740,N,11713.8560,W,1,11,0.8,7.8,M,-34.4,M,,*5E
$PYRTM,2024,121.640252035961,12.749899446100
$GPGGA,152156.00,3240.6714,N,11713.8557,W,1,11,0.8,8.2,M,-34.4,M,,*5D
$PYRTM,2024,121.640263626505,12.749911036644
$GPGGA,152157.00,3240.6688,N,11713.8556,W,1,11,0.8,9.3,M,-34.4,M,,*59
$PYRTM,2024,121.640275185139,12.749922595278
$GPGGA,152158.00,3240.6662,N,11713.8553,W,1,11,0.8,8.1,M,-34.4,M,,*54
$PYRTM,2024,121.640286775938,12.749934186076
$GPGGA,152159.00,3240.6636,N,11713.8550,W,1,11,0.8,7.6,M,-34.4,M,,*5F
$PYRTM,2024,121.640298332801,12.749945742940
$GPGGA,152200.00,3240.6610,N,11713.8548,W,1,11,0.8,6.1,M,-34.4,M,,*5B
$PYRTM,2024,121.640309920208,12.749957330347
$GPGGA,152201.00,3240.6584,N,11713.8546,W,1,11,0.8,6.1,M,-34.4,M,,*5A
$PYRTM,2024,121.640321480799,12.749968890938
$GPGGA,152202.00,3240.6557,N,11713.8544,W,1,11,0.8,7.0,M,-34.4,M,,*55
$PYRTM,2024,121.640333067477,12.749980477616
$GPGGA,152203.00,3240.6530,N,11713.8542,W,1,11,0.8,8.8,M,-34.4,M,,*54
$PYRTM,2024,121.640344629340,12.749992039479
$GPGGA,152204.00,3240.6503,N,11713.8540,W,1,11,0.8,7.1,M,-34.4,M,,*57
$PYRTM,2024,121.640356216574,12.750003626713
$GPGGA,152205.00,3240.6475,N,11713.8538,W,1,11,0.8,5.2,M,-34.4,M,,*58
$PYRTM,2024,121.640367777431,12.750015187569
$GPGGA,152206.00,3240.6448,N,11713.8536,W,1,11,0.8,7.4,M,-34.4,M,,*5F
$PYRTM,2024,121.640379364120,12.750026774259
$GPGGA,152207.00,3240.6420,N,11713.8533,W,1,11,0.8,6.5,M,-34.4,M,,*55
$PYRTM,2024,121.640390924780,12.750038334919
$GPGGA,152208.00,3240.6394,N,11713.8530,W,1,11,0.8,9.4,M,-34.4,M,,*5F
$PYRTM,2024,121.640402512674,12.750049922813
$GPGGA,152209.00,3240.6366,N,11713.8528,W,1,11,0.8,8.9,M,-34.4,M,,*56
$PYRTM,2024,121.640414077153,12.750061487292
$GPGGA,152210.00,3240.6338,N,11713.8525,W,1,11,0.8,6.8,M,-34.4,M,,*57
$PYRTM,2024,121.640425664433,12.750073074572
$GPGGA,152211.00,3240.6311,N,11713.8522,W,1,11,0.8,4.6,M,-34.4,M,,*56
$PYRTM,2024,121.640437224132,12.750084634271
$GPGGA,152212.00,3240.6285,N,11713.8518,W,1,11,0.8,6.0,M,-34.4,M,,*54
$PYRTM,2024,121.640448812569,12.750096222708
$GPGGA,152213.00,3240.6258,N,11713.8515,W,1,11,0.8,7.4,M,-34.4,M,,*5D
$PYRTM,2024,121.640460370984,12.750107781123
$GPGGA,152214.00,3240.6232,N,11713.8512,W,1,11,0.8,7.7,M,-34.4,M,,*52
$PYRTM,2024,121.640471961169,12.750119371319
$GPGGA,152215.00,3240.6205,N,11713.8509,W,1,11,0.8,6.4,M,-34.4,M,,*5F
$PYRTM,2024,121.640483518773,12.750130928912
$GPGGA,152216.00,3240.6179,N,11713.8505,W,1,11,0.8,4.7,M,-34.4,M,,*59
$PYRTM,2024,121.640495101620,12.750142511759
$GPGGA,152217.00,3240.6152,N,11713.8502,W,1,11,0.8,3.6,M,-34.4,M,,*50
$PYRTM,2024,121.640506667778,12.750154077917
$GPGGA,152218.00,3240.6125,N,11713.8498,W,1,11,0.8,7.9,M,-34.4,M,,*56
$PYRTM,2024,121.640518253866,12.750165664005
$GPGGA,152219.00,3240.6099,N,11713.8495,W,1,11,0.8,7.4,M,-34.4,M,,*51
$PYRTM,2024,121.640529814965,12.750177225104
$GPGGA,152220.00,3240.6073,N,11713.8491,W,1,11,0.8,8.1,M,-34.4,M,,*51
$PYRTM,2024,121.640541406806,12.750188816944
$GPGGA,152221.00,3240.6047,N,11713.8488,W,1,11,0.8,9.8,M,-34.4,M,,*57
$PYRTM,2024,121.640552037720,12.750199447859
$GPGGA,152222.00,3240.6021,N,11713.8485,W,1,11,0.8,8.8,M,-34.4,M,,*58
$PYRTM,2024,121.640563508958,12.750210919097
$GPGGA,152223.00,3240.5994,N,11713.8480,W,1,11,0.8,11.5,M,-34.4,M,,*6D
$PYRTM,2024,121.640576112836,12.750223522975
$GPGGA,152224.00,3240.5967,N,11713.8476,W,1,11,0.8,11.1,M,-34.4,M,,*6B
$PYRTM,2024,121.640587694363,12.750235104502
$GPGGA,152225.00,3240.5941,N,11713.8472,W,1,11,0.8,9.0,M,-34.4,M,,*52
$PYRTM,2024,121.640599261968,12.750246672106
$GPGGA,152226.00,3240.5914,N,11713.8468,W,1,11,0.8,10.6,M,-34.4,M,,*64
$PYRTM,2024,121.640610862743,12.750258272882
$GPGGA,152227.00,3240.5887,N,11713.8465,W,1,11,0.8,10.1,M,-34.4,M,,*64
$PYRTM,2024,121.640622410116,12.750269820255
$GPGGA,152228.00,3240.5860,N,11713.8461,W,1,11,0.8,11.8,M,-34.4,M,,*6E
$PYRTM,2024,121.640633998704,12.750281408843
$GPGGA,152229.00,3240.5833,N,11713.8458,W,1,11,0.8,11.3,M,-34.4,M,,*68
$PYRTM,2024,121.640645558634,12.750292968773
$GPGGA,152230.00,3240.5806,N,11713.8455,W,1,11,0.8,14.6,M,-34.4,M,,*6B
$PYRTM,2024,121.640657148356,12.750304558507
$GPGGA,152231.00,3240.5779,N,11713.8451,W,1,11,0.8,14.3,M,-34.4,M,,*6C
$PYRTM,2024,121.640668705984,12.750316116134
$GPGGA,152232.00,3240.5753,N,11713.8449,W,1,11,0.8,13.9,M,-34.4,M,,*63
$PYRTM,2024,121.640680292986,12.750327703125
$GPGGA,152233.00,3240.5726,N,11713.8447,W,1,11,0.8,13.0,M,-34.4,M,,*67
$PYRTM,2024,121.640691854132,12.750339264271
$GPGGA,152234.00,3240.5700,N,11713.8445,W,1,11,0.8,12.5,M,-34.4,M,,*62
$PYRTM,2024,121.640703674537,12.750351084676
$GPGGA,152235.00,3240.5674,N,11713.8443,W,1,11,0.8,11.2,M,-34.4,M,,*63
$PYRTM,2024,121.640715002569,12.750362412708
$GPGGA,152236.00,3240.5647,N,11713.8441,W,1,11,0.8,11.2,M,-34.4,M,,*62
$PYRTM,2024,121.640726588877,12.750373999016
$GPGGA,152237.00,3240.5621,N,11713.8438,W,1,11,0.8,10.2,M,-34.4,M,,*6C
$PYRTM,2024,121.640738151088,12.750385561238
$GPGGA,152238.00,3240.5596,N,11713.8436,W,1,11,0.8,10.1,M,-34.4,M,,*61
$PYRTM,2024,121.640749732049,12.750397142188
$GPGGA,152239.00,3240.5570,N,11713.8433,W,1,11,0.8,10.8,M,-34.4,M,,*64
$PYRTM,2024,121.640761299178,12.750408709317
$GPGGA,152240.00,3240.5544,N,11713.8430,W,1,11,0.8,12.4,M,-34.4,M,,*60
$PYRTM,2024,121.640772885405,12.750420295544
$GPGGA,152241.00,3240.5518,N,11713.8427,W,1,11,0.8,12.2,M,-34.4,M,,*68
$PYRTM,2024,121.640784446551,12.750431856701
$GPGGA,152242.00,3240.5492,N,11713.8424,W,1,11,0.8,12.0,M,-34.4,M,,*69
$PYRTM,2024,121.640796048657,12.750443458796
$GPGGA,152243.00,3240.5465,N,11713.8422,W,1,11,0.8,12.6,M,-34.4,M,,*60
$PYRTM,2024,121.640807597187,12.750455007326
$GPGGA,152244.00,3240.5438,N,11713.8419,W,1,11,0.8,13.3,M,-34.4,M,,*63
$PYRTM,2024,121.640819185255,12.750466595394
$GPGGA,152245.00,3240.5410,N,11713.8418,W,1,11,0.8,14.4,M,-34.4,M,,*69
$PYRTM,2024,121.640830743287,12.750478153426
$GPGGA,152246.00,3240.5383,N,11713.8417,W,1,11,0.8,11.2,M,-34.4,M,,*6B
$PYRTM,2024,121.640842334282,12.750489744421
$GPGGA,152247.00,3240.5356,N,11713.8416,W,1,11,0.8,11.1,M,-34.4,M,,*60
$PYRTM,2024,121.640853892025,12.750501302164
$GPGGA,152248.00,3240.5328,N,11713.8415,W,1,11,0.8,12.5,M,-34.4,M,,*62
$PYRTM,2024,121.640865480498,12.750512890637
$GPGGA,152249.00,3240.5300,N,11713.8414,W,1,11,0.8,13.7,M,-34.4,M,,*6B
$PYRTM,2024,121.640877040208,12.750524450359
$GPGGA,152250.00,3240.5272,N,11713.8412,W,1,11,0.8,15.0,M,-34.4,M,,*60
$PYRTM,2024,121.640888626655,12.750536036794
$GPGGA,152251.00,3240.5245,N,11713.8411,W,1,11,0.8,13.3,M,-34.4,M,,*63
$PYRTM,2024,121.640898815579,12.750546225718
$GPGGA,152252.00,3240.5218,N,11713.8410,W,1,11,0.8,14.9,M,-34.4,M,,*64
$PYRTM,2024,121.640910733704,12.750558143843
$GPGGA,152253.00,3240.5192,N,11713.8408,W,1,11,0.8,14.8,M,-34.4,M,,*6C
$PYRTM,2024,121.640923337535,12.750570747674
$GPGGA,152254.00,3240.5166,N,11713.8407,W,1,11,0.8,16.3,M,-34.4,M,,*66
$PYRTM,2024,121.640934923831,12.750582333970
$GPGGA,152255.00,3240.5138,N,11713.8406,W,1,11,0.8,13.7,M,-34.4,M,,*6C
$PYRTM,2024,121.640946485706,12.750593895845
$GPGGA,152256.00,3240.5112,N,11713.8403,W,1,11,0.8,10.5,M,-34.4,M,,*63
$PYRTM,2024,121.640958072211,12.750605482350
$GPGGA,152257.00,3240.5084,N,11713.8401,W,1,11,0.8,11.3,M,-34.4,M,,*69
$PYRTM,2024,121.640969633727,12.750617043877
$GPGGA,152258.00,3240.5057,N,11713.8399,W,1,11,0.8,9.9,M,-34.4,M,,*5D
$PYRTM,2024,121.640981219190,12.750628629329
$GPGGA,152259.00,3240.5031,N,11713.8397,W,1,11,0.8,9.9,M,-34.4,M,,*52
$PYRTM,2024,121.640992781458,12.750640191597
$GPGGA,152300.00,3240.5005,N,11713.8396,W,1,11,0.8,9.4,M,-34.4,M,,*54
$PYRTM,2024,121.641004371424,12.750651781562
$GPGGA,152301.00,3240.4979,N,11713.8396,W,1,11,0.8,7.8,M,-34.4,M,,*54
$PYRTM,2024,121.641015929838,12.750663339988
$GPGGA,152302.00,3240.4953,N,11713.8395,W,1,11,0.8,9.8,M,-34.4,M,,*52
$PYRTM,2024,121.641027520035,12.750674930185
$GPGGA,152303.00,3240.4926,N,11713.8392,W,1,11,0.8,8.2,M,-34.4,M,,*5D
$PYRTM,2024,121.641039078414,12.750686488553
$GPGGA,152304.00,3240.4900,N,11713.8389,W,1,11,0.8,8.5,M,-34.4,M,,*53
$PYRTM,2024,121.641050666898,12.750698077037
$GPGGA,152305.00,3240.4873,N,11713.8387,W,1,11,0.8,11.4,M,-34.4,M,,*60
$PYRTM,2024,121.641062227593,12.750709637731
$GPGGA,152306.00,3240.4846,N,11713.8386,W,1,11,0.8,12.8,M,-34.4,M,,*6B
$PYRTM,2024,121.641073808704,12.750721218843
$GPGGA,152307.00,3240.4820,N,11713.8384,W,1,11,0.8,14.3,M,-34.4,M,,*65
$PYRTM,2024,121.641085375266,12.750732785405
$GPGGA,152308.00,3240.4794,N,11713.8381,W,1,11,0.8,14.0,M,-34.4,M,,*6C
$PYRTM,2024,121.641096962315,12.750744372454
$GPGGA,152309.00,3240.4767,N,11713.8378,W,1,11,0.8,14.3,M,-34.4,M,,*64
$PYRTM,2024,121.641108523426,12.750755933565
$GPGGA,152310.00,3240.4740,N,11713.8375,W,1,11,0.8,13.6,M,-34.4,M,,*66
$PYRTM,2024,121.641120110324,12.750767520475
$GPGGA,152311.00,3240.4714,N,11713.8373,W,1,11,0.8,13.8,M,-34.4,M,,*6E
$PYRTM,2024,121.641132150741,12.750779560880
$GPGGA,152312.00,3240.4687,N,11713.8371,W,1,11,0.8,14.9,M,-34.4,M,,*62
$PYRTM,2024,121.641143253437,12.750790663576
$GPGGA,152313.00,3240.4659,N,11713.8369,W,1,11,0.8,13.9,M,-34.4,M,,*6E
$PYRTM,2024,121.641154820567,12.750802230706
$GPGGA,152314.00,3240.4632,N,11713.8367,W,1,11,0.8,15.2,M,-34.4,M,,*67
$PYRTM,2024,121.641166408160,12.750813818299
$GPGGA,152315.00,3240.4605,N,11713.8365,W,1,11,0.8,13.6,M,-34.4,M,,*62
$PYRTM,2024,121.641177968333,12.750825378472
$GPGGA,152316.00,3240.4579,N,11713.8363,W,1,11,0.8,10.4,M,-34.4,M,,*6E
$PYRTM,2024,121.641189558981,12.750836969120
$GPGGA,152317.00,3240.4552,N,11713.8361,W,1,11,0.8,11.1,M,-34.4,M,,*60
$PYRTM,2024,121.641201116470,12.750848526609
$GPGGA,152318.00,3240.4525,N,11713.8360,W,1,11,0.8,12.9,M,-34.4,M,,*65
$PYRTM,2024,121.641212706470,12.750860116609
$GPGGA,152319.00,3240.4498,N,11713.8358,W,1,11,0.8,12.0,M,-34.4,M,,*61
$PYRTM,2024,121.641224266458,12.750871676597
$GPGGA,152320.00,3240.4471,N,11713.8356,W,1,11,0.8,16.3,M,-34.4,M,,*65
$PYRTM,2024,121.641235846586,12.750883256725
$GPGGA,152321.00,3240.4445,N,11713.8353,W,1,11,0.8,13.6,M,-34.4,M,,*66
$PYRTM,2024,121.641246037674,12.750893447812
$GPGGA,152322.00,3240.4419,N,11713.8350,W,1,11,0.8,14.5,M,-34.4,M,,*6B
$PYRTM,2024,121.641257952894,12.750905363032
$GPGGA,152323.00,3240.4393,N,11713.8348,W,1,11,0.8,11.9,M,-34.4,M,,*6F
$PYRTM,2024,121.641270561956,12.750917972095
$GPGGA,152324.00,3240.4368,N,11713.8345,W,1,11,0.8,13.5,M,-34.4,M,,*6F
$PYRTM,2024,121.641282142975,12.750929553113
$GPGGA,152325.00,3240.4341,N,11713.8342,W,1,11,0.8,13.8,M,-34.4,M,,*6F
$PYRTM,2024,121.641293709907,12.750941120046
$GPGGA,152326.00,3240.4315,N,11713.8339,W,1,11,0.8,11.9,M,-34.4,M,,*62
$PYRTM,2024,121.641305299120,12.750952709259
$GPGGA,152327.00,3240.4290,N,11713.8337,W,1,11,0.8,10.6,M,-34.4,M,,*6F
$PYRTM,2024,121.641316859236,12.750964269375
$GPGGA,152328.00,3240.4265,N,11713.8335,W,1,11,0.8,13.2,M,-34.4,M,,*6F
$PYRTM,2024,121.641328440521,12.750975850660
$GPGGA,152329.00,3240.4238,N,11713.8334,W,1,11,0.8,10.2,M,-34.4,M,,*64
$PYRTM,2024,121.641340006019,12.750987416157
$GPGGA,152330.00,3240.4211,N,11713.8331,W,1,11,0.8,12.5,M,-34.4,M,,*67
$PYRTM,2024,121.641351593426,12.750999003565
$GPGGA,152331.00,3240.4186,N,11713.8328,W,1,11,0.8,12.4,M,-34.4,M,,*62
$PYRTM,2024,121.641363154850,12.751010564988
$GPGGA,152332.00,3240.4160,N,11713.8327,W,1,11,0.8,11.9,M,-34.4,M,,*68
$PYRTM,2024,121.641374744676,12.751022154815
$GPGGA,152333.00,3240.4133,N,11713.8326,W,1,11,0.8,11.5,M,-34.4,M,,*62
$PYRTM,2024,121.641386304491,12.751033714630
$GPGGA,152334.00,3240.4107,N,11713.8325,W,1,11,0.8,9.5,M,-34.4,M,,*58
$PYRTM,2024,121.641397892766,12.751045302905
$GPGGA,152335.00,3240.4081,N,11713.8323,W,1,11,0.8,10.2,M,-34.4,M,,*6F
$PYRTM,2024,121.641409451852,12.751056861991
$GPGGA,152336.00,3240.4054,N,11713.8320,W,1,11,0.8,13.5,M,-34.4,M,,*63
$PYRTM,2024,121.641421034363,12.751068444502
$GPGGA,152337.00,3240.4027,N,11713.8318,W,1,11,0.8,13.7,M,-34.4,M,,*6F
$PYRTM,2024,121.641432599132,12.751080009282
$GPGGA,152338.00,3240.4001,N,11713.8315,W,1,11,0.8,15.2,M,-34.4,M,,*6A
$PYRTM,2024,121.641444186157,12.751091596296
$GPGGA,152339.00,3240.3977,N,11713.8312,W,1,11,0.8,17.4,M,-34.4,M,,*67
$PYRTM,2024,121.641455747442,12.751103157581
$GPGGA,152340.00,3240.3952,N,11713.8308,W,1,11,0.8,16.4,M,-34.4,M,,*64
$PYRTM,2024,121.641467335058,12.751114745197
$GPGGA,152341.00,3240.3927,N,11713.8304,W,1,11,0.8,14.0,M,-34.4,M,,*6D
$PYRTM,2024,121.641478895394,12.751126305532
$GPGGA,152342.00,3240.3901,N,11713.8301,W,1,11,0.8,15.0,M,-34.4,M,,*6E
$PYRTM,2024,121.641490477882,12.751137888032
$GPGGA,152343.00,3240.3876,N,11713.8298,W,1,11,0.8,15.1,M,-34.4,M,,*6E
$PYRTM,2024,121.641502043461,12.751149453600
$GPGGA,152344.00,3240.3851,N,11713.8296,W,1,11,0.8,17.5,M,-34.4,M,,*64
$PYRTM,2024,121.641513625833,12.751161035972
$GPGGA,152345.00,3240.3826,N,11713.8295,W,1,11,0.8,17.4,M,-34.4,M,,*67
$PYRTM,2024,121.641525191458,12.751172601597
$GPGGA,152346.00,3240.3801,N,11713.8292,W,1,11,0.8,15.4,M,-34.4,M,,*64
$PYRTM,2024,121.641536774363,12.751184184502
$GPGGA,152347.00,3240.3775,N,11713.8289,W,1,11,0.8,18.6,M,-34.4,M,,*6C
$PYRTM,2024,121.641548341667,12.751195751806
$GPGGA,152348.00,3240.3749,N,11713.8286,W,1,11,0.8,16.0,M,-34.4,M,,*6B
$PYRTM,2024,121.641559932106,12.751207342257
$GPGGA,152349.00,3240.3724,N,11713.8284,W,1,11,0.8,18.5,M,-34.4,M,,*68
$PYRTM,2024,121.641571488831,12.751218898981
$GPGGA,152350.00,3240.3698,N,11713.8282,W,1,11,0.8,17.8,M,-34.4,M,,*62
$PYRTM,2024,121.641582152905,12.751229563056
$GPGGA,152351.00,3240.3671,N,11713.8281,W,1,11,0.8,14.4,M,-34.4,M,,*68
$PYRTM,2024,121.641595228310,12.751242638449
$GPGGA,152352.00,3240.3644,N,11713.8280,W,1,11,0.8,14.6,M,-34.4,M,,*6E
$PYRTM,2024,121.641605988056,12.751253398194
$GPGGA,152353.00,3240.3617,N,11713.8277,W,1,11,0.8,13.6,M,-34.4,M,,*66
$PYRTM,2024,121.641617099942,12.751264510081
$GPGGA,152354.00,3240.3592,N,11713.8275,W,1,11,0.8,16.0,M,-34.4,M,,*6E
$PYRTM,2024,121.641628325625,12.751275735764
$GPGGA,152355.00,3240.3566,N,11713.8274,W,1,11,0.8,16.4,M,-34.4,M,,*61
$PYRTM,2024,121.641639456343,12.751286866481
$GPGGA,152356.00,3240.3540,N,11713.8273,W,1,11,0.8,15.0,M,-34.4,M,,*66
$PYRTM,2024,121.641650548356,12.751297958495
$GPGGA,152357.00,3240.3514,N,11713.8271,W,1,11,0.8,13.7,M,-34.4,M,,*65
$PYRTM,2024,121.641661667245,12.751309077384
$GPGGA,152358.00,3240.3488,N,11713.8269,W,1,11,0.8,14.9,M,-34.4,M,,*6E
$PYRTM,2024,121.641672892870,12.751320303009
$GPGGA,152359.00,3240.3462,N,11713.8265,W,1,11,0.8,14.8,M,-34.4,M,,*66
$PYRTM,2024,121.641683997176,12.751331407315
$GPGGA,152400.00,3240.3435,N,11713.8263,W,1,11,0.8,12.5,M,-34.4,M,,*62
$PYRTM,2024,121.641695113252,12.751342523391
$GPGGA,152401.00,3240.3409,N,11713.8260,W,1,11,0.8,8.6,M,-34.4,M,,*57
$PYRTM,2024,121.641706675417,12.751354085556
$GPGGA,152402.00,3240.3383,N,11713.8258,W,1,11,0.8,8.0,M,-34.4,M,,*5C
$PYRTM,2024,121.641717786725,12.751365196863
$GPGGA,152403.00,3240.3357,N,11713.8253,W,1,11,0.8,7.3,M,-34.4,M,,*53
$PYRTM,2024,121.641728896632,12.751376306771
$GPGGA,152404.00,3240.3332,N,11713.8248,W,1,11,0.8,9.7,M,-34.4,M,,*57
$PYRTM,2024,121.641740487072,12.751387897211
$GPGGA,152405.00,3240.3308,N,11713.8244,W,1,11,0.8,11.5,M,-34.4,M,,*68
$PYRTM,2024,121.641758989907,12.751406400046
$GPGGA,152406.00,3240.3283,N,11713.8240,W,1,11,0.8,11.4,M,-34.4,M,,*6C
$PYRTM,2024,121.641770118333,12.751417528472
$GPGGA,152407.00,3240.3258,N,11713.8235,W,1,11,0.8,10.2,M,-34.4,M,,*6E
$PYRTM,2024,121.641781216713,12.751428626852
$GPGGA,152408.00,3240.3232,N,11713.8232,W,1,11,0.8,9.0,M,-34.4,M,,*50
$PYRTM,2024,121.641792338461,12.751439748600
$GPGGA,152409.00,3240.3207,N,11713.8228,W,1,11,0.8,8.1,M,-34.4,M,,*5C
$PYRTM,2024,121.641803563252,12.751450973391
$GPGGA,152410.00,3240.3182,N,11713.8224,W,1,11,0.8,11.0,M,-34.4,M,,*6F
$PYRTM,2024,121.641814673831,12.751462083970
$GPGGA,152411.00,3240.3155,N,11713.8221,W,1,11,0.8,10.6,M,-34.4,M,,*66
$PYRTM,2024,121.641825785255,12.751473195394
$GPGGA,152412.00,3240.3127,N,11713.8218,W,1,11,0.8,12.4,M,-34.4,M,,*6A
$PYRTM,2024,121.641836897199,12.751484307338
$GPGGA,152413.00,3240.3100,N,11713.8215,W,1,11,0.8,14.0,M,-34.4,M,,*61
$PYRTM,2024,121.641848119387,12.751495529525
$GPGGA,152414.00,3240.3074,N,11713.8212,W,1,11,0.8,13.5,M,-34.4,M,,*61
$PYRTM,2024,121.641859235243,12.751506645382
$GPGGA,152415.00,3240.3047,N,11713.8210,W,1,11,0.8,13.0,M,-34.4,M,,*67
$PYRTM,2024,121.641870341181,12.751517751319
$GPGGA,152416.00,3240.3020,N,11713.8207,W,1,11,0.8,11.1,M,-34.4,M,,*60
$PYRTM,2024,121.641881457801,12.751528867951
$GPGGA,152417.00,3240.2994,N,11713.8204,W,1,11,0.8,10.9,M,-34.4,M,,*6C
$PYRTM,2024,121.641892671215,12.751540081354
$GPGGA,152418.00,3240.2969,N,11713.8201,W,1,11,0.8,10.1,M,-34.4,M,,*6C
$PYRTM,2024,121.641903782616,12.751551192755
$GPGGA,152419.00,3240.2942,N,11713.8198,W,1,11,0.8,13.4,M,-34.4,M,,*61
$PYRTM,2024,121.641914894039,12.751562304178
$GPGGA,152420.00,3240.2915,N,11713.8196,W,1,11,0.8,15.6,M,-34.4,M,,*63
$PYRTM,2024,121.641926005995,12.751573416134
$GPGGA,152421.00,3240.2887,N,11713.8195,W,1,11,0.8,17.3,M,-34.4,M,,*6C
$PYRTM,2024,121.641941865938,12.751589276076
$GPGGA,152422.00,3240.2861,N,11713.8193,W,1,11,0.8,14.3,M,-34.4,M,,*62
$PYRTM,2024,121.641953452257,12.751600862396
$GPGGA,152423.00,3240.2834,N,11713.8191,W,1,11,0.8,14.7,M,-34.4,M,,*65
$PYRTM,2024,121.641965011470,12.751612421609
$GPGGA,152424.00,3240.2808,N,11713.8188,W,1,11,0.8,12.2,M,-34.4,M,,*66
$PYRTM,2024,121.641976601042,12.751624011181
$GPGGA,152425.00,3240.2781,N,11713.8186,W,1,11,0.8,13.8,M,-34.4,M,,*6C
$PYRTM,2024,121.641988159433,12.751635569572
$GPGGA,152426.00,3240.2755,N,11713.8183,W,1,11,0.8,15.2,M,-34.4,M,,*6F
$PYRTM,2024,121.641999739931,12.751647150069
$GPGGA,152427.00,3240.2728,N,11713.8181,W,1,11,0.8,14.7,M,-34.4,M,,*62
$PYRTM,2024,121.642011307975,12.751658718113
$GPGGA,152428.00,3240.2700,N,11713.8181,W,1,11,0.8,12.7,M,-34.4,M,,*61
$PYRTM,2024,121.642022889398,12.751670299537
$GPGGA,152429.00,3240.2673,N,11713.8180,W,1,11,0.8,10.2,M,-34.4,M,,*63
$PYRTM,2024,121.642034457407,12.751681867546
$GPGGA,152430.00,3240.2648,N,11713.8179,W,1,11,0.8,9.7,M,-34.4,M,,*58
$PYRTM,2024,121.642046041979,12.751693452118
$GPGGA,152431.00,3240.2621,N,11713.8176,W,1,11,0.8,11.4,M,-34.4,M,,*63
$PYRTM,2024,121.642057603426,12.751705013565
$GPGGA,152432.00,3240.2594,N,11713.8175,W,1,11,0.8,8.3,M,-34.4,M,,*51
$PYRTM,2024,121.642069190023,12.751716600162
$GPGGA,152433.00,3240.2567,N,11713.8173,W,1,11,0.8,8.6,M,-34.4,M,,*5F
$PYRTM,2024,121.642080750752,12.751728160891
$GPGGA,152434.00,3240.2541,N,11713.8171,W,1,11,0.8,10.1,M,-34.4,M,,*60
$PYRTM,2024,121.642092569282,12.751739979421
$GPGGA,152435.00,3240.2515,N,11713.8168,W,1,11,0.8,8.0,M,-34.4,M,,*50
$PYRTM,2024,121.642103899549,12.751751309688
$GPGGA,152436.00,3240.2489,N,11713.8164,W,1,11,0.8,6.8,M,-34.4,M,,*5D
$PYRTM,2024,121.642115489421,12.751762899560
$GPGGA,152437.00,3240.2462,N,11713.8161,W,1,11,0.8,6.3,M,-34.4,M,,*57
$PYRTM,2024,121.642127048819,12.751774458958
$GPGGA,152438.00,3240.2436,N,11713.8158,W,1,11,0.8,5.0,M,-34.4,M,,*53
$PYRTM,2024,121.642138638021,12.751786048160
$GPGGA,152439.00,3240.2411,N,11713.8155,W,1,11,0.8,9.5,M,-34.4,M,,*53
$PYRTM,2024,121.642150196782,12.751797606921
$GPGGA,152440.00,3240.2385,N,11713.8152,W,1,11,0.8,7.9,M,-34.4,M,,*52
$PYRTM,2024,121.642161786609,12.751809196748
$GPGGA,152441.00,3240.2359,N,11713.8149,W,1,11,0.8,9.2,M,-34.4,M,,*5D
$PYRTM,2024,121.642173346227,12.751820756377
$GPGGA,152442.00,3240.2333,N,11713.8146,W,1,11,0.8,7.5,M,-34.4,M,,*54
$PYRTM,2024,121.642184932674,12.751832342812
$GPGGA,152443.00,3240.2308,N,11713.8143,W,1,11,0.8,6.3,M,-34.4,M,,*5F
$PYRTM,2024,121.642196492650,12.751843902789
$GPGGA,152444.00,3240.2281,N,11713.8140,W,1,11,0.8,5.2,M,-34.4,M,,*59
$PYRTM,2024,121.642208083762,12.751855493900
$GPGGA,152445.00,3240.2255,N,11713.8137,W,1,11,0.8,6.0,M,-34.4,M,,*50
$PYRTM,2024,121.642219641725,12.751867051863
$GPGGA,152446.00,3240.2230,N,11713.8133,W,1,11,0.8,10.9,M,-34.4,M,,*6A
$PYRTM,2024,121.642231223241,12.751878633391
$GPGGA,152447.00,3240.2205,N,11713.8128,W,1,11,0.8,6.8,M,-34.4,M,,*51
$PYRTM,2024,121.642242789306,12.751890199444
$GPGGA,152448.00,3240.2180,N,11713.8124,W,1,11,0.8,6.5,M,-34.4,M,,*51
$PYRTM,2024,121.642254371771,12.751901781921
$GPGGA,152449.00,3240.2155,N,11713.8121,W,1,11,0.8,5.6,M,-34.4,M,,*5D
$PYRTM,2024,121.642265938380,12.751913348519
$GPGGA,152450.00,3240.2130,N,11713.8118,W,1,11,0.8,7.4,M,-34.4,M,,*5C
$PYRTM,2024,121.642277525266,12.751924935405
$GPGGA,152451.00,3240.2105,N,11713.8115,W,1,11,0.8,5.1,M,-34.4,M,,*51
$PYRTM,2024,121.642288161991,12.751935572130
$GPGGA,152452.00,3240.2081,N,11713.8111,W,1,11,0.8,5.7,M,-34.4,M,,*5D
$PYRTM,2024,121.642299501898,12.751946912037
$GPGGA,152453.00,3240.2055,N,11713.8107,W,1,11,0.8,6.6,M,-34.4,M,,*50
$PYRTM,2024,121.642312236400,12.751959646539
$GPGGA,152454.00,3240.2029,N,11713.8104,W,1,11,0.8,4.8,M,-34.4,M,,*53
$PYRTM,2024,121.642323824815,12.751971234954
$GPGGA,152455.00,3240.2002,N,11713.8101,W,1,11,0.8,4.0,M,-34.4,M,,*56
$PYRTM,2024,121.642335383565,12.751982793704
$GPGGA,152456.00,3240.1977,N,11713.8098,W,1,11,0.8,4.8,M,-34.4,M,,*54
$PYRTM,2024,121.642346973391,12.751994383530
$GPGGA,152457.00,3240.1953,N,11713.8093,W,1,11,0.8,5.1,M,-34.4,M,,*50
$PYRTM,2024,121.642358531296,12.752005941435
$GPGGA,152458.00,3240.1928,N,11713.8089,W,1,11,0.8,6.6,M,-34.4,M,,*5C
$PYRTM,2024,121.642370118044,12.752017528183
$GPGGA,152459.00,3240.1901,N,11713.8085,W,1,11,0.8,7.1,M,-34.4,M,,*5C
$PYRTM,2024,121.642381679051,12.752029089190
$GPGGA,152500.00,3240.1875,N,11713.8083,W,1,11,0.8,5.7,M,-34.4,M,,*51
$PYRTM,2024,121.642393266435,12.752040676574
$GPGGA,152501.00,3240.1849,N,11713.8081,W,1,11,0.8,4.5,M,-34.4,M,,*5E
$PYRTM,2024,121.642404828495,12.752052238634
$GPGGA,152502.00,3240.1823,N,11713.8079,W,1,11,0.8,3.5,M,-34.4,M,,*51
$PYRTM,2024,121.642416415162,12.752063825301
$GPGGA,152503.00,3240.1796,N,11713.8077,W,1,11,0.8,5.8,M,-34.4,M,,*54
$PYRTM,2024,121.642427976782,12.752075386921
$GPGGA,152504.00,3240.1768,N,11713.8075,W,1,11,0.8,9.0,M,-34.4,M,,*54
$PYRTM,2024,121.642439557789,12.752086967928
$GPGGA,152505.00,3240.1741,N,11713.8074,W,1,11,0.8,8.7,M,-34.4,M,,*59
$PYRTM,2024,121.642451125706,12.752098535845
$GPGGA,152506.00,3240.1715,N,11713.8073,W,1,11,0.8,8.8,M,-34.4,M,,*53
$PYRTM,2024,121.642462714375,12.752110124514
$GPGGA,152507.00,3240.1689,N,11713.8071,W,1,11,0.8,5.7,M,-34.4,M,,*56
$PYRTM,2024,121.642474273403,12.752121683542
$GPGGA,152508.00,3240.1662,N,11713.8069,W,1,11,0.8,6.2,M,-34.4,M,,*53
$PYRTM,2024,121.642485859340,12.752133269479
$GPGGA,152509.00,3240.1635,N,11713.8067,W,1,11,0.8,5.0,M,-34.4,M,,*5F
$PYRTM,2024,121.642497422211,12.752144832350
$GPGGA,152510.00,3240.1609,N,11713.8065,W,1,11,0.8,6.9,M,-34.4,M,,*50
$PYRTM,2024,121.642509011065,12.752156421204
$GPGGA,152511.00,3240.1583,N,11713.8064,W,1,11,0.8,7.8,M,-34.4,M,,*51
$PYRTM,2024,121.642520568715,12.752167978866
$GPGGA,152512.00,3240.1556,N,11713.8063,W,1,11,0.8,5.5,M,-34.4,M,,*52
$PYRTM,2024,121.642532170185,12.752179580324
$GPGGA,152513.00,3240.1530,N,11713.8061,W,1,11,0.8,6.1,M,-34.4,M,,*56
$PYRTM,2024,121.642543717824,12.752191127975
$GPGGA,152514.00,3240.1503,N,11713.8058,W,1,11,0.8,5.6,M,-34.4,M,,*5F
$PYRTM,2024,121.642555304421,12.752202714560
$GPGGA,152515.00,3240.1477,N,11713.8056,W,1,11,0.8,4.7,M,-34.4,M,,*52
$PYRTM,2024,121.642566865405,12.752214275544
$GPGGA,152516.00,3240.1451,N,11713.8053,W,1,11,0.8,8.6,M,-34.4,M,,*5D
$PYRTM,2024,121.642578453391,12.752225863542
$GPGGA,152517.00,3240.1424,N,11713.8050,W,1,11,0.8,8.1,M,-34.4,M,,*5A
$PYRTM,2024,121.642590014525,12.752237424664
$GPGGA,152518.00,3240.1398,N,11713.8049,W,1,11,0.8,6.0,M,-34.4,M,,*52
$PYRTM,2024,121.642601600799,12.752249010937
$GPGGA,152519.00,3240.1371,N,11713.8047,W,1,11,0.8,6.7,M,-34.4,M,,*5D
$PYRTM,2024,121.642613162419,12.752260572558
$GPGGA,152520.00,3240.1346,N,11713.8043,W,1,11,0.8,8.3,M,-34.4,M,,*5D
$PYRTM,2024,121.642624750394,12.752272160544
$GPGGA,152521.00,3240.1321,N,11713.8039,W,1,11,0.8,7.8,M,-34.4,M,,*54
$PYRTM,2024,121.642634929606,12.752282339745
$GPGGA,152522.00,3240.1295,N,11713.8036,W,1,11,0.8,7.5,M,-34.4,M,,*5B
$PYRTM,2024,121.642646726250,12.752294136389
$GPGGA,152523.00,3240.1271,N,11713.8032,W,1,11,0.8,6.2,M,-34.4,M,,*52
$PYRTM,2024,121.642659460521,12.752306870660
$GPGGA,152524.00,3240.1245,N,11713.8028,W,1,11,0.8,6.4,M,-34.4,M,,*5F
$PYRTM,2024,121.642671041215,12.752318451366
$GPGGA,152525.00,3240.1220,N,11713.8023,W,1,11,0.8,5.3,M,-34.4,M,,*52
$PYRTM,2024,121.642682607442,12.752330017593
$GPGGA,152526.00,3240.1194,N,11713.8019,W,1,11,0.8,6.1,M,-34.4,M,,*55
$PYRTM,2024,121.642694197407,12.752341607546
$GPGGA,152527.00,3240.1169,N,11713.8015,W,1,11,0.8,6.5,M,-34.4,M,,*5E
$PYRTM,2024,121.642705756065,12.752353166204
$GPGGA,152528.00,3240.1145,N,11713.8010,W,1,11,0.8,6.8,M,-34.4,M,,*57
$PYRTM,2024,121.642717346771,12.752364756910
$GPGGA,152529.00,3240.1121,N,11713.8005,W,1,11,0.8,7.7,M,-34.4,M,,*5E
$PYRTM,2024,121.642728905556,12.752376315694
$GPGGA,152530.00,3240.1095,N,11713.8000,W,1,11,0.8,7.4,M,-34.4,M,,*5E
$PYRTM,2024,121.642740485845,12.752387895984
$GPGGA,152531.00,3240.1070,N,11713.7995,W,1,11,0.8,7.3,M,-34.4,M,,*59
$PYRTM,2024,121.642752053229,12.752399463368
$GPGGA,152532.00,3240.1045,N,11713.7991,W,1,11,0.8,7.8,M,-34.4,M,,*53
$PYRTM,2024,121.642763638924,12.752411049063
$GPGGA,152533.00,3240.1019,N,11713.7989,W,1,11,0.8,6.6,M,-34.4,M,,*5D
$PYRTM,2024,121.642775201123,12.752422611262
$GPGGA,152534.00,3240.0993,N,11713.7986,W,1,11,0.8,4.7,M,-34.4,M,,*5C
$PYRTM,2024,121.642786788808,12.752434198947
$GPGGA,152535.00,3240.0967,N,11713.7984,W,1,11,0.8,5.1,M,-34.4,M,,*53
$PYRTM,2024,121.642798348322,12.752445758461
$GPGGA,152536.00,3240.0941,N,11713.7981,W,1,11,0.8,5.8,M,-34.4,M,,*58
$PYRTM,2024,121.642809930671,12.752457340810
$GPGGA,152537.00,3240.0915,N,11713.7977,W,1,11,0.8,6.3,M,-34.4,M,,*59
$PYRTM,2024,121.642821498206,12.752468908345
$GPGGA,152538.00,3240.0889,N,11713.7973,W,1,11,0.8,5.1,M,-34.4,M,,*57
$PYRTM,2024,121.642833080532,12.752480490683
$GPGGA,152539.00,3240.0864,N,11713.7970,W,1,11,0.8,5.3,M,-34.4,M,,*54
$PYRTM,2024,121.642844644838,12.752492054977
$GPGGA,152540.00,3240.0838,N,11713.7967,W,1,11,0.8,4.7,M,-34.4,M,,*50
$PYRTM,2024,121.642856232350,12.752503642500
$GPGGA,152541.00,3240.0812,N,11713.7963,W,1,11,0.8,5.6,M,-34.4,M,,*5D
$PYRTM,2024,121.642867793900,12.752515204039
$GPGGA,152542.00,3240.0786,N,11713.7960,W,1,11,0.8,6.7,M,-34.4,M,,*5D
$PYRTM,2024,121.642879385197,12.752526795336
$GPGGA,152543.00,3240.0760,N,11713.7956,W,1,11,0.8,4.8,M,-34.4,M,,*5C
$PYRTM,2024,121.642890942211,12.752538352350
$GPGGA,152544.00,3240.0735,N,11713.7952,W,1,11,0.8,4.5,M,-34.4,M,,*52
$PYRTM,2024,121.642902531806,12.752549941944
$GPGGA,152545.00,3240.0709,N,11713.7948,W,1,11,0.8,5.1,M,-34.4,M,,*52
$PYRTM,2024,121.642914090613,12.752561500752
$GPGGA,152546.00,3240.0683,N,11713.7944,W,1,11,0.8,4.2,M,-34.4,M,,*5C
$PYRTM,2024,121.642925680289,12.752573090428
$GPGGA,152547.00,3240.0657,N,11713.7941,W,1,11,0.8,4.9,M,-34.4,M,,*5A
$PYRTM,2024,121.642937239491,12.752584649630
$GPGGA,152548.00,3240.0632,N,11713.7936,W,1,11,0.8,6.6,M,-34.4,M,,*5B
$PYRTM,2024,121.642948828044,12.752596238183
$GPGGA,152549.00,3240.0606,N,11713.7931,W,1,11,0.8,7.7,M,-34.4,M,,*5A
$PYRTM,2024,121.642960386632,12.752607796771
$GPGGA,152550.00,3240.0581,N,11713.7926,W,1,11,0.8,8.7,M,-34.4,M,,*57
$PYRTM,2024,121.642971976285,12.752619386424
$GPGGA,152551.00,3240.0554,N,11713.7922,W,1,11,0.8,6.9,M,-34.4,M,,*5A
$PYRTM,2024,121.642982162778,12.752629572917
$GPGGA,152552.00,3240.0527,N,11713.7919,W,1,11,0.8,6.1,M,-34.4,M,,*5D
$PYRTM,2024,121.642993949873,12.752641360012
$GPGGA,152553.00,3240.0502,N,11713.7915,W,1,11,0.8,5.6,M,-34.4,M,,*53
$PYRTM,2024,121.643006683414,12.752654093553
$GPGGA,152554.00,3240.0475,N,11713.7911,W,1,11,0.8,3.3,M,-34.4,M,,*52
$PYRTM,2024,121.643017345671,12.752664755810
$GPGGA,152555.00,3240.0449,N,11713.7906,W,1,11,0.8,3.8,M,-34.4,M,,*51
$PYRTM,2024,121.643028334965,12.752675745104
$GPGGA,152556.00,3240.0423,N,11713.7902,W,1,11,0.8,6.6,M,-34.4,M,,*51
$PYRTM,2024,121.643040017917,12.752687428056
$GPGGA,152557.00,3240.0396,N,11713.7897,W,1,11,0.8,6.9,M,-34.4,M,,*5B
$PYRTM,2024,121.643051127963,12.752698538102
$GPGGA,152558.00,3240.0369,N,11713.7894,W,1,11,0.8,6.6,M,-34.4,M,,*58
$PYRTM,2024,121.643062241319,12.752709651458
$GPGGA,152559.00,3240.0342,N,11713.7891,W,1,11,0.8,8.2,M,-34.4,M,,*5F
$PYRTM,2024,121.643073352280,12.752720762419
$GPGGA,152600.00,3240.0317,N,11713.7888,W,1,11,0.8,6.4,M,-34.4,M,,*50
$PYRTM,2024,121.643084463727,12.752731873866
$GPGGA,152601.00,3240.0292,N,11713.7883,W,1,11,0.8,6.3,M,-34.4,M,,*51
$PYRTM,2024,121.643095572176,12.752742982315
$GPGGA,152602.00,3240.0267,N,11713.7878,W,1,11,0.8,5.9,M,-34.4,M,,*55
$PYRTM,2024,121.643106686296,12.752754096435
$GPGGA,152603.00,3240.0241,N,11713.7875,W,1,11,0.8,6.8,M,-34.4,M,,*5F
$PYRTM,2024,121.643117795660,12.752765205799
$GPGGA,152604.00,3240.0215,N,11713.7872,W,1,11,0.8,6.9,M,-34.4,M,,*5F
$PYRTM,2024,121.643129385185,12.752776795324
$GPGGA,152605.00,3240.0189,N,11713.7868,W,1,11,0.8,5.8,M,-34.4,M,,*51
$PYRTM,2024,121.643147889525,12.752795299664
$GPGGA,152606.00,3240.0162,N,11713.7865,W,1,11,0.8,6.8,M,-34.4,M,,*59
$PYRTM,2024,121.643159007431,12.752806417569
$GPGGA,152607.00,3240.0136,N,11713.7861,W,1,11,0.8,6.3,M,-34.4,M,,*56
$PYRTM,2024,121.643170124178,12.752817534317
$GPGGA,152608.00,3240.0110,N,11713.7857,W,1,11,0.8,6.5,M,-34.4,M,,*5E
$PYRTM,2024,121.643181223935,12.752828634074
$GPGGA,152609.00,3240.0085,N,11713.7852,W,1,11,0.8,5.5,M,-34.4,M,,*54
$PYRTM,2024,121.643192348993,12.752839759132
$GPGGA,152610.00,3240.0058,N,11713.7849,W,1,11,0.8,6.8,M,-34.4,M,,*58
$PYRTM,2024,121.643203456192,12.752850866331
$GPGGA,152611.00,3240.0031,N,11713.7847,W,1,11,0.8,9.1,M,-34.4,M,,*5E
$PYRTM,2024,121.643214568866,12.752861979005
$GPGGA,152612.00,3240.0003,N,11713.7845,W,1,11,0.8,7.8,M,-34.4,M,,*59
$PYRTM,2024,121.643225680000,12.752873090150
$GPGGA,152613.00,3239.9976,N,11713.7841,W,1,11,0.8,7.1,M,-34.4,M,,*59
$PYRTM,2024,121.643236793345,12.752884203484
$GPGGA,152614.00,3239.9950,N,11713.7837,W,1,11,0.8,7.4,M,-34.4,M,,*5E
$PYRTM,2024,121.643247904896,12.752895315035
$GPGGA,152615.00,3239.9924,N,11713.7834,W,1,11,0.8,7.1,M,-34.4,M,,*5A
$PYRTM,2024,121.643259007859,12.752906417998
$GPGGA,152616.00,3239.9898,N,11713.7832,W,1,11,0.8,5.9,M,-34.4,M,,*53
$PYRTM,2024,121.643270127211,12.752917537350
$GPGGA,152617.00,3239.9872,N,11713.7831,W,1,11,0.8,6.3,M,-34.4,M,,*5C
$PYRTM,2024,121.643281230637,12.752928640775
$GPGGA,152618.00,3239.9845,N,11713.7827,W,1,11,0.8,4.9,M,-34.4,M,,*58
$PYRTM,2024,121.643292341632,12.752939751771
$GPGGA,152619.00,3239.9818,N,11713.7822,W,1,11,0.8,5.0,M,-34.4,M,,*5C
$PYRTM,2024,121.643303453611,12.752950863750
$GPGGA,152620.00,3239.9792,N,11713.7817,W,1,11,0.8,7.9,M,-34.4,M,,*56
$PYRTM,2024,121.643314569016,12.752961979155
$GPGGA,152621.00,3239.9766,N,11713.7813,W,1,11,0.8,7.3,M,-34.4,M,,*52
$PYRTM,2024,121.643330761088,12.752978171227
$GPGGA,152622.00,3239.9740,N,11713.7811,W,1,11,0.8,8.7,M,-34.4,M,,*5C
$PYRTM,2024,121.643342341806,12.752989751944
$GPGGA,152623.00,3239.9713,N,11713.7807,W,1,11,0.8,8.7,M,-34.4,M,,*5C
$PYRTM,2024,121.643353908866,12.753001319005
$GPGGA,152624.00,3239.9687,N,11713.7802,W,1,11,0.8,4.9,M,-34.4,M,,*50
$PYRTM,2024,121.643365495938,12.753012906076
$GPGGA,152625.00,3239.9660,N,11713.7798,W,1,11,0.8,4.9,M,-34.4,M,,*54
$PYRTM,2024,121.643377057488,12.753024467627
$GPGGA,152626.00,3239.9635,N,11713.7794,W,1,11,0.8,4.1,M,-34.4,M,,*53
$PYRTM,2024,121.643388640289,12.753036050428
$GPGGA,152627.00,3239.9610,N,11713.7790,W,1,11,0.8,2.3,M,-34.4,M,,*55
$PYRTM,2024,121.643400203819,12.753047613958
$GPGGA,152628.00,3239.9583,N,11713.7787,W,1,11,0.8,4.1,M,-34.4,M,,*51
$PYRTM,2024,121.643411792581,12.753059202720
$GPGGA,152629.00,3239.9557,N,11713.7785,W,1,11,0.8,3.9,M,-34.4,M,,*54
$PYRTM,2024,121.643423353356,12.753070763495
$GPGGA,152630.00,3239.9530,N,11713.7782,W,1,11,0.8,3.7,M,-34.4,M,,*54
$PYRTM,2024,121.643434943889,12.753082354028
$GPGGA,152631.00,3239.9503,N,11713.7779,W,1,11,0.8,1.3,M,-34.4,M,,*57
$PYRTM,2024,121.643446502245,12.753093912384
$GPGGA,152632.00,3239.9475,N,11713.7775,W,1,11,0.8,1.0,M,-34.4,M,,*5B
$PYRTM,2024,121.643458091100,12.753105501238
$GPGGA,152633.00,3239.9448,N,11713.7772,W,1,11,0.8,1.3,M,-34.4,M,,*50
$PYRTM,2024,121.643469650903,12.753117061042
$GPGGA,152634.00,3239.9421,N,11713.7770,W,1,11,0.8,4.5,M,-34.4,M,,*59
$PYRTM,2024,121.643481240486,12.753128650625
$GPGGA,152635.00,3239.9394,N,11713.7768,W,1,11,0.8,3.6,M,-34.4,M,,*5C
$PYRTM,2024,121.643492798889,12.753140209028
$GPGGA,152636.00,3239.9367,N,11713.7766,W,1,11,0.8,4.9,M,-34.4,M,,*55
$PYRTM,2024,121.643504380035,12.753151790174
$GPGGA,152637.00,3239.9341,N,11713.7762,W,1,11,0.8,2.4,M,-34.4,M,,*5F
$PYRTM,2024,121.643515946759,12.753163356898
$GPGGA,152638.00,3239.9314,N,11713.7759,W,1,11,0.8,7.1,M,-34.4,M,,*58
$PYRTM,2024,121.643527533773,12.753174943912
$GPGGA,152639.00,3239.9287,N,11713.7756,W,1,11,0.8,7.6,M,-34.4,M,,*5A
$PYRTM,2024,121.643539096319,12.753186506458
$GPGGA,152640.00,3239.9261,N,11713.7755,W,1,11,0.8,9.0,M,-34.4,M,,*57
$PYRTM,2024,121.643550681794,12.753198091933
$GPGGA,152641.00,3239.9235,N,11713.7753,W,1,11,0.8,8.8,M,-34.4,M,,*58
$PYRTM,2024,121.643562243519,12.753209653669
$GPGGA,152642.00,3239.9209,N,11713.7751,W,1,11,0.8,8.0,M,-34.4,M,,*5E
$PYRTM,2024,121.643573829363,12.753221239502
$GPGGA,152643.00,3239.9182,N,11713.7749,W,1,11,0.8,7.2,M,-34.4,M,,*5B
$PYRTM,2024,121.643585392789,12.753232802928
$GPGGA,152644.00,3239.9155,N,11713.7748,W,1,11,0.8,6.1,M,-34.4,M,,*55
$PYRTM,2024,121.643596977616,12.753244387755
$GPGGA,152645.00,3239.9130,N,11713.7747,W,1,11,0.8,5.7,M,-34.4,M,,*5D
$PYRTM,2024,121.643608539097,12.753255949248
$GPGGA,152646.00,3239.9104,N,11713.7745,W,1,11,0.8,4.7,M,-34.4,M,,*5A
$PYRTM,2024,121.643620126204,12.753267536343
$GPGGA,152647.00,3239.9078,N,11713.7742,W,1,11,0.8,5.5,M,-34.4,M,,*55
$PYRTM,2024,121.643631687442,12.753279097581
$GPGGA,152648.00,3239.9052,N,11713.7739,W,1,11,0.8,6.9,M,-34.4,M,,*51
$PYRTM,2024,121.643643287905,12.753290698044
$GPGGA,152649.00,3239.9026,N,11713.7738,W,1,11,0.8,7.2,M,-34.4,M,,*58
$PYRTM,2024,121.643654835984,12.753302246123
$GPGGA,152650.00,3239.8999,N,11713.7737,W,1,11,0.8,7.1,M,-34.4,M,,*50
$PYRTM,2024,121.643666427442,12.753313837593
$GPGGA,152651.00,3239.8972,N,11713.7735,W,1,11,0.8,7.2,M,-34.4,M,,*55
$PYRTM,2024,121.643676607836,12.753324017975
$GPGGA,152652.00,3239.8947,N,11713.7731,W,1,11,0.8,8.8,M,-34.4,M,,*51
$PYRTM,2024,121.643688399931,12.753335810069
$GPGGA,152653.00,3239.8921,N,11713.7728,W,1,11,0.8,8.7,M,-34.4,M,,*57
$PYRTM,2024,121.643701132153,12.753348542303
$GPGGA,152654.00,3239.8894,N,11713.7726,W,1,11,0.8,8.3,M,-34.4,M,,*55
$PYRTM,2024,121.643712719838,12.753360129977
$GPGGA,152655.00,3239.8870,N,11713.7724,W,1,11,0.8,8.3,M,-34.4,M,,*5C
$PYRTM,2024,121.643723138947,12.753370549086
$GPGGA,152656.00,3239.8846,N,11713.7722,W,1,11,0.8,8.4,M,-34.4,M,,*5B
$PYRTM,2024,121.643735870324,12.753383280463
$GPGGA,152657.00,3239.8821,N,11713.7719,W,1,11,0.8,8.2,M,-34.4,M,,*55
$PYRTM,2024,121.643747429236,12.753394839375
$GPGGA,152658.00,3239.8795,N,11713.7717,W,1,11,0.8,8.3,M,-34.4,M,,*55
$PYRTM,2024,121.643759010845,12.753406420984
$GPGGA,152659.00,3239.8770,N,11713.7714,W,1,11,0.8,7.7,M,-34.4,M,,*57
$PYRTM,2024,121.643770577500,12.753417987639
$GPGGA,152700.00,3239.8745,N,11713.7712,W,1,11,0.8,7.0,M,-34.4,M,,*5D
$PYRTM,2024,121.643782159340,12.753429569479
$GPGGA,152701.00,3239.8717,N,11713.7710,W,1,11,0.8,7.4,M,-34.4,M,,*5D
$PYRTM,2024,121.643793724907,12.753441135046
$GPGGA,152702.00,3239.8690,N,11713.7708,W,1,11,0.8,6.4,M,-34.4,M,,*58
$PYRTM,2024,121.643805312940,12.753452723079
$GPGGA,152703.00,3239.8664,N,11713.7709,W,1,11,0.8,4.8,M,-34.4,M,,*5D
$PYRTM,2024,121.643816872766,12.753464282905
$GPGGA,152704.00,3239.8638,N,11713.7710,W,1,11,0.8,5.1,M,-34.4,M,,*53
$PYRTM,2024,121.643828474583,12.753475884722
$GPGGA,152705.00,3239.8613,N,11713.7708,W,1,11,0.8,5.0,M,-34.4,M,,*53
$PYRTM,2024,121.643840020775,12.753487430914
$GPGGA,152706.00,3239.8588,N,11713.7705,W,1,11,0.8,3.7,M,-34.4,M,,*5D
$PYRTM,2024,121.643851619595,12.753499029734
$GPGGA,152707.00,3239.8562,N,11713.7702,W,1,11,0.8,3.8,M,-34.4,M,,*50
$PYRTM,2024,121.643863169282,12.753510579410
$GPGGA,152708.00,3239.8534,N,11713.7701,W,1,11,0.8,4.3,M,-34.4,M,,*53
$PYRTM,2024,121.643874758472,12.753522168611
$GPGGA,152709.00,3239.8508,N,11713.7701,W,1,11,0.8,5.1,M,-34.4,M,,*5E
$PYRTM,2024,121.643886319086,12.753533729225
$GPGGA,152710.00,3239.8483,N,11713.7699,W,1,11,0.8,5.3,M,-34.4,M,,*56
$PYRTM,2024,121.643897905463,12.753545315602
$GPGGA,152711.00,3239.8457,N,11713.7695,W,1,11,0.8,6.2,M,-34.4,M,,*50
$PYRTM,2024,121.643909466782,12.753556876921
$GPGGA,152712.00,3239.8430,N,11713.7692,W,1,11,0.8,5.8,M,-34.4,M,,*5C
$PYRTM,2024,121.643921054178,12.753568464329
$GPGGA,152713.00,3239.8403,N,11713.7689,W,1,11,0.8,4.8,M,-34.4,M,,*56
$PYRTM,2024,121.643932616447,12.753580026586
$GPGGA,152714.00,3239.8377,N,11713.7686,W,1,11,0.8,4.5,M,-34.4,M,,*57
$PYRTM,2024,121.643944203762,12.753591613900
$GPGGA,152715.00,3239.8350,N,11713.7683,W,1,11,0.8,4.8,M,-34.4,M,,*5B
$PYRTM,2024,121.643955764340,12.753603174479
$GPGGA,152716.00,3239.8325,N,11713.7680,W,1,11,0.8,4.9,M,-34.4,M,,*58
$PYRTM,2024,121.643967346458,12.753614756597
$GPGGA,152717.00,3239.8299,N,11713.7677,W,1,11,0.8,4.6,M,-34.4,M,,*58
$PYRTM,2024,121.643978911933,12.753626322072
$GPGGA,152718.00,3239.8273,N,11713.7674,W,1,11,0.8,5.1,M,-34.4,M,,*56
$PYRTM,2024,121.643990502326,12.753637912465
$GPGGA,152719.00,3239.8247,N,11713.7671,W,1,11,0.8,5.7,M,-34.4,M,,*53
$PYRTM,2024,121.644002060509,12.753649470648
$GPGGA,152720.00,3239.8221,N,11713.7669,W,1,11,0.8,4.1,M,-34.4,M,,*57
$PYRTM,2024,121.644013650139,12.753661060278
$GPGGA,152721.00,3239.8195,N,11713.7667,W,1,11,0.8,4.3,M,-34.4,M,,*56
$PYRTM,2024,121.644024282674,12.753671692813
$GPGGA,152722.00,3239.8168,N,11713.7666,W,1,11,0.8,4.2,M,-34.4,M,,*57
$PYRTM,2024,121.644035623368,12.753683033507
$GPGGA,152723.00,3239.8142,N,11713.7665,W,1,11,0.8,4.7,M,-34.4,M,,*58
$PYRTM,2024,121.644048356273,12.753695766412
$GPGGA,152724.00,3239.8115,N,11713.7664,W,1,11,0.8,2.4,M,-34.4,M,,*59
$PYRTM,2024,121.644059944491,12.753707354630
$GPGGA,152725.00,3239.8089,N,11713.7662,W,1,11,0.8,2.2,M,-34.4,M,,*5C
$PYRTM,2024,121.644071504282,12.753718914421
$GPGGA,152726.00,3239.8063,N,11713.7659,W,1,11,0.8,-0.1,M,-34.4,M,,*7F
$PYRTM,2024,121.644083092431,12.753730502569
$GPGGA,152727.00,3239.8037,N,11713.7657,W,1,11,0.8,4.0,M,-34.4,M,,*59
$PYRTM,2024,121.644094653947,12.753742064086
$GPGGA,152728.00,3239.8009,N,11713.7658,W,1,11,0.8,5.6,M,-34.4,M,,*53
$PYRTM,2024,121.644106240197,12.753753650347
$GPGGA,152729.00,3239.7983,N,11713.7659,W,1,11,0.8,5.3,M,-34.4,M,,*52
$PYRTM,2024,121.644117802025,12.753765212164
$GPGGA,152730.00,3239.7958,N,11713.7658,W,1,11,0.8,7.2,M,-34.4,M,,*5E
$PYRTM,2024,121.644129391111,12.753776801250
$GPGGA,152731.00,3239.7931,N,11713.7654,W,1,11,0.8,5.2,M,-34.4,M,,*5E
$PYRTM,2024,121.644140958981,12.753788369120
$GPGGA,152732.00,3239.7905,N,11713.7649,W,1,11,0.8,4.3,M,-34.4,M,,*56
$PYRTM,2024,121.644152542616,12.753799952755
$GPGGA,152733.00,3239.7879,N,11713.7647,W,1,11,0.8,5.2,M,-34.4,M,,*53
$PYRTM,2024,121.644164111481,12.753811521620
$GPGGA,152734.00,3239.7854,N,11713.7647,W,1,11,0.8,7.5,M,-34.4,M,,*5E
$PYRTM,2024,121.644175680521,12.753823090660
$GPGGA,152735.00,3239.7828,N,11713.7646,W,1,11,0.8,8.6,M,-34.4,M,,*59
$PYRTM,2024,121.644187259016,12.753834669167
$GPGGA,152736.00,3239.7803,N,11713.7644,W,1,11,0.8,8.2,M,-34.4,M,,*55
$PYRTM,2024,121.644198836377,12.753846246516
$GPGGA,152737.00,3239.7777,N,11713.7640,W,1,11,0.8,8.1,M,-34.4,M,,*5F
$PYRTM,2024,121.644210403148,12.753857813287
$GPGGA,152738.00,3239.7752,N,11713.7635,W,1,11,0.8,8.5,M,-34.4,M,,*51
$PYRTM,2024,121.644221984757,12.753869394896
$GPGGA,152739.00,3239.7727,N,11713.7632,W,1,11,0.8,10.2,M,-34.4,M,,*6B
$PYRTM,2024,121.644233551377,12.753880961516
$GPGGA,152740.00,3239.7701,N,11713.7632,W,1,11,0.8,9.7,M,-34.4,M,,*5C
$PYRTM,2024,121.644245130139,12.753892540278
$GPGGA,152741.00,3239.7675,N,11713.7633,W,1,11,0.8,10.3,M,-34.4,M,,*62
$PYRTM,2024,121.644256705185,12.753904115336
$GPGGA,152742.00,3239.7649,N,11713.7633,W,1,11,0.8,11.8,M,-34.4,M,,*64
$PYRTM,2024,121.644268279572,12.753915689711
$GPGGA,152743.00,3239.7624,N,11713.7628,W,1,11,0.8,11.6,M,-34.4,M,,*6A
$PYRTM,2024,121.644279852269,12.753927262419
$GPGGA,152744.00,3239.7598,N,11713.7623,W,1,11,0.8,11.8,M,-34.4,M,,*6C
$PYRTM,2024,121.644291421539,12.753938831678
$GPGGA,152745.00,3239.7572,N,11713.7619,W,1,11,0.8,11.5,M,-34.4,M,,*6D
$PYRTM,2024,121.644303000394,12.753950410532
$GPGGA,152746.00,3239.7546,N,11713.7621,W,1,11,0.8,14.5,M,-34.4,M,,*67
$PYRTM,2024,121.644314574780,12.753961984919
$GPGGA,152747.00,3239.7520,N,11713.7624,W,1,11,0.8,13.3,M,-34.4,M,,*62
$PYRTM,2024,121.644326149051,12.753973559190
$GPGGA,152748.00,3239.7495,N,11713.7621,W,1,11,0.8,15.9,M,-34.4,M,,*6B
$PYRTM,2024,121.644337723588,12.753985133727
$GPGGA,152749.00,3239.7469,N,11713.7616,W,1,11,0.8,14.1,M,-34.4,M,,*64
$PYRTM,2024,121.644349298843,12.753996708981
$GPGGA,152750.00,3239.7444,N,11713.7615,W,1,11,0.8,10.5,M,-34.4,M,,*60
$PYRTM,2024,121.644360866562,12.754008276701
$GPGGA,152751.00,3239.7418,N,11713.7615,W,1,11,0.8,9.5,M,-34.4,M,,*50
$PYRTM,2024,121.644371061447,12.754018471586
$GPGGA,152752.00,3239.7392,N,11713.7616,W,1,11,0.8,10.0,M,-34.4,M,,*68
$PYRTM,2024,121.644382851389,12.754030261528
$GPGGA,152753.00,3239.7366,N,11713.7616,W,1,11,0.8,8.9,M,-34.4,M,,*52
$PYRTM,2024,121.644395593079,12.754043003218
$GPGGA,152754.00,3239.7342,N,11713.7614,W,1,11,0.8,7.0,M,-34.4,M,,*57
$PYRTM,2024,121.644407182060,12.754054592199
$GPGGA,152755.00,3239.7317,N,11713.7612,W,1,11,0.8,6.8,M,-34.4,M,,*59
$PYRTM,2024,121.644418742060,12.754066152199
$GPGGA,152756.00,3239.7290,N,11713.7613,W,1,11,0.8,8.5,M,-34.4,M,,*56
$PYRTM,2024,121.644430330579,12.754077740718
$GPGGA,152757.00,3239.7263,N,11713.7617,W,1,11,0.8,7.6,M,-34.4,M,,*53
$PYRTM,2024,121.644441890521,12.754089300660
$GPGGA,152758.00,3239.7236,N,11713.7619,W,1,11,0.8,6.0,M,-34.4,M,,*55
$PYRTM,2024,121.644453466019,12.754100876157
$GPGGA,152759.00,3239.7209,N,11713.7617,W,1,11,0.8,4.4,M,-34.4,M,,*50
$PYRTM,2024,121.644465038472,12.754112448611
$GPGGA,152800.00,3239.7183,N,11713.7615,W,1,11,0.8,5.7,M,-34.4,M,,*52
$PYRTM,2024,121.644475690012,12.754123100150
$GPGGA,152801.00,3239.7156,N,11713.7615,W,1,11,0.8,3.9,M,-34.4,M,,*53
$PYRTM,2024,121.644487593981,12.754135004120
$GPGGA,152802.00,3239.7131,N,11713.7617,W,1,11,0.8,5.5,M,-34.4,M,,*59
$PYRTM,2024,121.644498372222,12.754145782361
$GPGGA,152803.00,3239.7104,N,11713.7618,W,1,11,0.8,3.4,M,-34.4,M,,*56
$PYRTM,2024,121.644509478831,12.754156888970
$GPGGA,152804.00,3239.7077,N,11713.7617,W,1,11,0.8,3.6,M,-34.4,M,,*59
$PYRTM,2024,121.644521058056,12.754168468194
$GPGGA,152805.00,3239.7051,N,11713.7616,W,1,11,0.8,3.3,M,-34.4,M,,*58
$PYRTM,2024,121.644532169387,12.754179579525
$GPGGA,152806.00,3239.7025,N,11713.7616,W,1,11,0.8,4.4,M,-34.4,M,,*58
$PYRTM,2024,121.644543283669,12.754190693808
$GPGGA,152807.00,3239.6999,N,11713.7616,W,1,11,0.8,5.2,M,-34.4,M,,*51
$PYRTM,2024,121.644554386215,12.754201796354
$GPGGA,152808.00,3239.6973,N,11713.7616,W,1,11,0.8,5.6,M,-34.4,M,,*5E
$PYRTM,2024,121.644565506447,12.754212916586
$GPGGA,152809.00,3239.6947,N,11713.7615,W,1,11,0.8,6.0,M,-34.4,M,,*5E
$PYRTM,2024,121.644576613449,12.754224023588
$GPGGA,152810.00,3239.6920,N,11713.7616,W,1,11,0.8,4.8,M,-34.4,M,,*5E
$PYRTM,2024,121.644587727338,12.754235137477
$GPGGA,152811.00,3239.6895,N,11713.7617,W,1,11,0.8,5.5,M,-34.4,M,,*5D
$PYRTM,2024,121.644599298090,12.754246708229
$GPGGA,152812.00,3239.6870,N,11713.7616,W,1,11,0.8,4.3,M,-34.4,M,,*53
$PYRTM,2024,121.644617225197,12.754264635336
$GPGGA,152813.00,3239.6844,N,11713.7613,W,1,11,0.8,6.2,M,-34.4,M,,*53
$PYRTM,2024,121.644628335868,12.754275746007
$GPGGA,152814.00,3239.6818,N,11713.7611,W,1,11,0.8,6.8,M,-34.4,M,,*55
$PYRTM,2024,121.644639447535,12.754286857674
$GPGGA,152815.00,3239.6791,N,11713.7610,W,1,11,0.8,7.0,M,-34.4,M,,*52
$PYRTM,2024,121.644650557975,12.754297968113
$GPGGA,152816.00,3239.6764,N,11713.7610,W,1,11,0.8,5.9,M,-34.4,M,,*50
$PYRTM,2024,121.644661670405,12.754309080544
$GPGGA,152817.00,3239.6738,N,11713.7610,W,1,11,0.8,7.6,M,-34.4,M,,*55
$PYRTM,2024,121.644672779965,12.754320190104
$GPGGA,152818.00,3239.6712,N,11713.7609,W,1,11,0.8,8.1,M,-34.4,M,,*52
$PYRTM,2024,121.644683891748,12.754331301898
$GPGGA,152819.00,3239.6687,N,11713.7607,W,1,11,0.8,8.0,M,-34.4,M,,*51
$PYRTM,2024,121.644695002639,12.754342412789
$GPGGA,152820.00,3239.6661,N,11713.7604,W,1,11,0.8,6.3,M,-34.4,M,,*5D
$PYRTM,2024,121.644706113021,12.754353523160
$GPGGA,152821.00,3239.6635,N,11713.7601,W,1,11,0.8,6.1,M,-34.4,M,,*5A
$PYRTM,2024,121.644721854039,12.754369264178
$GPGGA,152822.00,3239.6610,N,11713.7599,W,1,11,0.8,6.7,M,-34.4,M,,*5A
$PYRTM,2024,121.644732967789,12.754380377940
$GPGGA,152823.00,3239.6583,N,11713.7599,W,1,11,0.8,8.5,M,-34.4,M,,*5E
$PYRTM,2024,121.644744078981,12.754391489120
$GPGGA,152824.00,3239.6557,N,11713.7598,W,1,11,0.8,8.1,M,-34.4,M,,*55
$PYRTM,2024,121.644755189606,12.754402599745
$GPGGA,152825.00,3239.6531,N,11713.7597,W,1,11,0.8,9.1,M,-34.4,M,,*5A
$PYRTM,2024,121.644766298889,12.754413709028
$GPGGA,152826.00,3239.6505,N,11713.7593,W,1,11,0.8,9.7,M,-34.4,M,,*5C
$PYRTM,2024,121.644777544028,12.754424954167
$GPGGA,152827.00,3239.6479,N,11713.7589,W,1,11,0.8,7.5,M,-34.4,M,,*50
$PYRTM,2024,121.644789109595,12.754436519734
$GPGGA,152828.00,3239.6454,N,11713.7586,W,1,11,0.8,11.3,M,-34.4,M,,*6E
$PYRTM,2024,121.644800691481,12.754448101620
$GPGGA,152829.00,3239.6429,N,11713.7583,W,1,11,0.8,11.5,M,-34.4,M,,*66
$PYRTM,2024,121.644812263148,12.754459673287
$GPGGA,152830.00,3239.6403,N,11713.7582,W,1,11,0.8,12.2,M,-34.4,M,,*63
$PYRTM,2024,121.644823836447,12.754471246586
$GPGGA,152831.00,3239.6377,N,11713.7579,W,1,11,0.8,13.0,M,-34.4,M,,*61
$PYRTM,2024,121.644835410799,12.754482820937
$GPGGA,152832.00,3239.6351,N,11713.7576,W,1,11,0.8,12.0,M,-34.4,M,,*68
$PYRTM,2024,121.644846985243,12.754494395382
$GPGGA,152833.00,3239.6326,N,11713.7573,W,1,11,0.8,12.0,M,-34.4,M,,*6C
$PYRTM,2024,121.644858560590,12.754505970729
$GPGGA,152834.00,3239.6300,N,11713.7572,W,1,11,0.8,10.5,M,-34.4,M,,*69
$PYRTM,2024,121.644870250556,12.754517660694
$GPGGA,152835.00,3239.6274,N,11713.7569,W,1,11,0.8,8.2,M,-34.4,M,,*5E
$PYRTM,2024,121.644881703299,12.754529113437
$GPGGA,152836.00,3239.6249,N,11713.7565,W,1,11,0.8,9.0,M,-34.4,M,,*5C
$PYRTM,2024,121.644893285625,12.754540695764
$GPGGA,152837.00,3239.6224,N,11713.7562,W,1,11,0.8,11.0,M,-34.4,M,,*68
$PYRTM,2024,121.644904855579,12.754552265718
$GPGGA,152838.00,3239.6198,N,11713.7561,W,1,11,0.8,9.8,M,-34.4,M,,*51
$PYRTM,2024,121.644916425312,12.754563835451
$GPGGA,152839.00,3239.6173,N,11713.7561,W,1,11,0.8,10.8,M,-34.4,M,,*6D
$PYRTM,2024,121.644928003681,12.754575413819
$GPGGA,152840.00,3239.6150,N,11713.7558,W,1,11,0.8,13.4,M,-34.4,M,,*67
$PYRTM,2024,121.644939573762,12.754586983900
$GPGGA,152841.00,3239.6125,N,11713.7554,W,1,11,0.8,11.3,M,-34.4,M,,*6D
$PYRTM,2024,121.644951153032,12.754598563171
$GPGGA,152842.00,3239.6098,N,11713.7553,W,1,11,0.8,12.8,M,-34.4,M,,*66
$PYRTM,2024,121.644962729988,12.754610140127
$GPGGA,152843.00,3239.6072,N,11713.7553,W,1,11,0.8,14.0,M,-34.4,M,,*6D
$PYRTM,2024,121.644974301933,12.754621712072
$GPGGA,152844.00,3239.6047,N,11713.7554,W,1,11,0.8,13.0,M,-34.4,M,,*6C
$PYRTM,2024,121.644985879039,12.754633289178
$GPGGA,152845.00,3239.6021,N,11713.7553,W,1,11,0.8,11.8,M,-34.4,M,,*60
$PYRTM,2024,121.644997449190,12.754644859329
$GPGGA,152846.00,3239.5994,N,11713.7552,W,1,11,0.8,10.4,M,-34.4,M,,*6B
$PYRTM,2024,121.645009017581,12.754656427720
$GPGGA,152847.00,3239.5968,N,11713.7551,W,1,11,0.8,9.5,M,-34.4,M,,*53
$PYRTM,2024,121.645020599595,12.754668009734
$GPGGA,152848.00,3239.5942,N,11713.7548,W,1,11,0.8,8.1,M,-34.4,M,,*59
$PYRTM,2024,121.645032172095,12.754679582234
$GPGGA,152849.00,3239.5917,N,11713.7543,W,1,11,0.8,9.7,M,-34.4,M,,*54
$PYRTM,2024,121.645043745521,12.754691155660
$GPGGA,152850.00,3239.5889,N,11713.7540,W,1,11,0.8,10.7,M,-34.4,M,,*61
$PYRTM,2024,121.645055321157,12.754702731308
$GPGGA,152851.00,3239.5863,N,11713.7541,W,1,11,0.8,9.9,M,-34.4,M,,*53
$PYRTM,2024,121.645065509225,12.754712919375
$GPGGA,152852.00,3239.5835,N,11713.7542,W,1,11,0.8,9.8,M,-34.4,M,,*51
$PYRTM,2024,121.645077298229,12.754724708380
$GPGGA,152853.00,3239.5809,N,11713.7536,W,1,11,0.8,7.8,M,-34.4,M,,*52
$PYRTM,2024,121.645090038542,12.754737448681
$GPGGA,152854.00,3239.5783,N,11713.7529,W,1,11,0.8,7.4,M,-34.4,M,,*5A
$PYRTM,2024,121.645101616019,12.754749026157
$GPGGA,152855.00,3239.5758,N,11713.7525,W,1,11,0.8,9.4,M,-34.4,M,,*5F
$PYRTM,2024,121.645113190023,12.754760600162
$GPGGA,152856.00,3239.5731,N,11713.7527,W,1,11,0.8,10.4,M,-34.4,M,,*69
$PYRTM,2024,121.645124761262,12.754772171400
$GPGGA,152857.00,3239.5704,N,11713.7528,W,1,11,0.8,8.6,M,-34.4,M,,*5A
$PYRTM,2024,121.645136338727,12.754783748866
$GPGGA,152858.00,3239.5678,N,11713.7524,W,1,11,0.8,8.7,M,-34.4,M,,*52
$PYRTM,2024,121.645147917361,12.754795327500
$GPGGA,152859.00,3239.5653,N,11713.7517,W,1,11,0.8,12.6,M,-34.4,M,,*60
$PYRTM,2024,121.645159487755,12.754806897894
$GPGGA,152900.00,3239.5627,N,11713.7513,W,1,11,0.8,12.0,M,-34.4,M,,*6C
$PYRTM,2024,121.645171065289,12.754818475428
$GPGGA,152901.00,3239.5601,N,11713.7513,W,1,11,0.8,11.0,M,-34.4,M,,*6A
$PYRTM,2024,121.645182968414,12.754830378553
$GPGGA,152902.00,3239.5575,N,11713.7513,W,1,11,0.8,11.8,M,-34.4,M,,*61
$PYRTM,2024,121.645194205486,12.754841615637
$GPGGA,152903.00,3239.5550,N,11713.7511,W,1,11,0.8,10.4,M,-34.4,M,,*68
$PYRTM,2024,121.645205778241,12.754853188391
$GPGGA,152904.00,3239.5524,N,11713.7508,W,1,11,0.8,8.5,M,-34.4,M,,*5C
$PYRTM,2024,121.645217353079,12.754864763218
$GPGGA,152905.00,3239.5499,N,11713.7505,W,1,11,0.8,7.9,M,-34.4,M,,*54
$PYRTM,2024,121.645228931516,12.754876341667
$GPGGA,152906.00,3239.5473,N,11713.7502,W,1,11,0.8,8.8,M,-34.4,M,,*5A
$PYRTM,2024,121.645240506840,12.754887916979
$GPGGA,152907.00,3239.5447,N,11713.7499,W,1,11,0.8,10.0,M,-34.4,M,,*6E
$PYRTM,2024,121.645252080671,12.754899490810
$GPGGA,152908.00,3239.5421,N,11713.7497,W,1,11,0.8,10.9,M,-34.4,M,,*66
$PYRTM,2024,121.645263650069,12.754911060208
$GPGGA,152909.00,3239.5396,N,11713.7497,W,1,11,0.8,9.0,M,-34.4,M,,*5D
$PYRTM,2024,121.645275228889,12.754922639028
$GPGGA,152910.00,3239.5370,N,11713.7493,W,1,11,0.8,8.6,M,-34.4,M,,*5E
$PYRTM,2024,121.645286802986,12.754934213125
$GPGGA,152911.00,3239.5345,N,11713.7488,W,1,11,0.8,12.7,M,-34.4,M,,*69
$PYRTM,2024,121.645298372928,12.754945783067
$GPGGA,152912.00,3239.5320,N,11713.7483,W,1,11,0.8,8.7,M,-34.4,M,,*59
$PYRTM,2024,121.645309951238,12.754957361377
$GPGGA,152913.00,3239.5295,N,11713.7480,W,1,11,0.8,9.4,M,-34.4,M,,*56
$PYRTM,2024,121.645321520243,12.754968930382
$GPGGA,152914.00,3239.5270,N,11713.7477,W,1,11,0.8,12.9,M,-34.4,M,,*65
$PYRTM,2024,121.645333102361,12.754980512500
$GPGGA,152915.00,3239.5245,N,11713.7474,W,1,11,0.8,11.7,M,-34.4,M,,*6C
$PYRTM,2024,121.645344672569,12.754992082708
$GPGGA,152916.00,3239.5220,N,11713.7471,W,1,11,0.8,10.6,M,-34.4,M,,*69
$PYRTM,2024,121.645356250255,12.755003660394
$GPGGA,152917.00,3239.5194,N,11713.7468,W,1,11,0.8,11.2,M,-34.4,M,,*69
$PYRTM,2024,121.645367821725,12.755015231875
$GPGGA,152918.00,3239.5170,N,11713.7465,W,1,11,0.8,10.8,M,-34.4,M,,*6A
$PYRTM,2024,121.645379395324,12.755026805475
$GPGGA,152919.00,3239.5145,N,11713.7460,W,1,11,0.8,11.0,M,-34.4,M,,*61
$PYRTM,2024,121.645390966493,12.755038376632
$GPGGA,152920.00,3239.5119,N,11713.7454,W,1,11,0.8,12.7,M,-34.4,M,,*61
$PYRTM,2024,121.645402546435,12.755049956597
$GPGGA,152921.00,3239.5093,N,11713.7451,W,1,11,0.8,13.4,M,-34.4,M,,*64
$PYRTM,2024,121.645412733275,12.755060143414
$GPGGA,152922.00,3239.5067,N,11713.7451,W,1,11,0.8,12.7,M,-34.4,M,,*6E
$PYRTM,2024,121.645424637014,12.755072047153
$GPGGA,152923.00,3239.5042,N,11713.7448,W,1,11,0.8,10.8,M,-34.4,M,,*6D
$PYRTM,2024,121.645437262627,12.755084672766
$GPGGA,152924.00,3239.5016,N,11713.7443,W,1,11,0.8,12.3,M,-34.4,M,,*69
$PYRTM,2024,121.645448836667,12.755096246806
$GPGGA,152925.00,3239.4991,N,11713.7437,W,1,11,0.8,10.4,M,-34.4,M,,*69
$PYRTM,2024,121.645460415891,12.755107826030
$GPGGA,152926.00,3239.4966,N,11713.7434,W,1,11,0.8,8.8,M,-34.4,M,,*54
$PYRTM,2024,121.645471989387,12.755119399525
$GPGGA,152927.00,3239.4939,N,11713.7437,W,1,11,0.8,8.1,M,-34.4,M,,*55
$PYRTM,2024,121.645483558403,12.755130968542
$GPGGA,152928.00,3239.4913,N,11713.7437,W,1,11,0.8,10.4,M,-34.4,M,,*6E
$PYRTM,2024,121.645495132859,12.755142543009
$GPGGA,152929.00,3239.4890,N,11713.7433,W,1,11,0.8,11.1,M,-34.4,M,,*65
$PYRTM,2024,121.645506712431,12.755154122581
$GPGGA,152930.00,3239.4866,N,11713.7425,W,1,11,0.8,10.4,M,-34.4,M,,*67
$PYRTM,2024,121.645518271574,12.755165681713
$GPGGA,152931.00,3239.4840,N,11713.7419,W,1,11,0.8,9.9,M,-34.4,M,,*58
$PYRTM,2024,121.645529855810,12.755177265961
$GPGGA,152932.00,3239.4814,N,11713.7417,W,1,11,0.8,11.0,M,-34.4,M,,*64
$PYRTM,2024,121.645541420243,12.755188830382
$GPGGA,152933.00,3239.4789,N,11713.7418,W,1,11,0.8,10.6,M,-34.4,M,,*66
