$PYRTM,2024,123.166676380706,14.276323790856
$GPGGA,035959.00,3408.0065,N,11950.8729,W,1,09,0.8,15.9,M,-33.5,M,,*6D
$PYRTM,2024,123.166687868079,14.276335278218
$GPGGA,040000.00,3408.0071,N,11950.8753,W,1,09,0.8,16.0,M,-33.5,M,,*68
$PYRTM,2024,123.166700224595,14.276347634722
$GPGGA,040001.00,3408.0078,N,11950.8772,W,1,09,0.8,17.8,M,-33.5,M,,*6A
$PYRTM,2024,123.166712854780,14.276360264919
$GPGGA,040002.00,3408.0084,N,11950.8792,W,1,09,0.8,20.1,M,-33.5,M,,*69
$PYRTM,2024,123.166722228194,14.276369638333
$GPGGA,040003.00,3408.0088,N,11950.8820,W,1,09,0.8,20.2,M,-33.5,M,,*61
$PYRTM,2024,123.166733788704,14.276381198843
$GPGGA,040004.00,3408.0092,N,11950.8850,W,1,09,0.8,17.6,M,-33.5,M,,*6A
$PYRTM,2024,123.166745375694,14.276392785833
$GPGGA,040005.00,3408.0098,N,11950.8875,W,1,09,0.8,17.6,M,-33.5,M,,*66
$PYRTM,2024,123.166756938044,14.276404348194
$GPGGA,040006.00,3408.0105,N,11950.8893,W,1,09,0.8,17.6,M,-33.5,M,,*68
$PYRTM,2024,123.166768525787,14.276415935926
$GPGGA,040007.00,3408.0112,N,11950.8912,W,1,09,0.8,18.5,M,-33.5,M,,*6B
$PYRTM,2024,123.166780085150,14.276427495289
$GPGGA,040008.00,3408.0120,N,11950.8939,W,1,09,0.8,20.4,M,-33.5,M,,*66
$PYRTM,2024,123.166791673542,14.276439083681
$GPGGA,040009.00,3408.0127,N,11950.8968,W,1,09,0.8,19.3,M,-33.5,M,,*69
$PYRTM,2024,123.166803234317,14.276450644456
$GPGGA,040010.00,3408.0131,N,11950.8992,W,1,09,0.8,21.0,M,-33.5,M,,*6B
$PYRTM,2024,123.166814822164,14.276462232303
$GPGGA,040011.00,3408.0136,N,11950.9010,W,1,09,0.8,20.7,M,-33.5,M,,*69
$PYRTM,2024,123.166826383356,14.276473793507
$GPGGA,040012.00,3408.0143,N,11950.9030,W,1,09,0.8,21.0,M,-33.5,M,,*6C
$PYRTM,2024,123.166837966377,14.276485376516
$GPGGA,040013.00,3408.0150,N,11950.9054,W,1,09,0.8,23.4,M,-33.5,M,,*6B
$PYRTM,2024,123.166849529780,14.276496939919
$GPGGA,040014.00,3408.0156,N,11950.9077,W,1,09,0.8,23.6,M,-33.5,M,,*69
$PYRTM,2024,123.166861118507,14.276508528646
$GPGGA,040015.00,3408.0161,N,11950.9099,W,1,09,0.8,21.7,M,-33.5,M,,*6F
$PYRTM,2024,123.166872678333,14.276520088472
$GPGGA,040016.00,3408.0166,N,11950.9122,W,1,09,0.8,19.8,M,-33.5,M,,*6E
$PYRTM,2024,123.166884267025,14.276531677164
$GPGGA,040017.00,3408.0172,N,11950.9146,W,1,09,0.8,18.2,M,-33.5,M,,*63
$PYRTM,2024,123.166895826806,14.276543236944
$GPGGA,040018.00,3408.0178,N,11950.9169,W,1,09,0.8,19.2,M,-33.5,M,,*6A
$PYRTM,2024,123.166907412199,14.276554822338
$GPGGA,040019.00,3408.0185,N,11950.9191,W,1,09,0.8,20.8,M,-33.5,M,,*6E
$PYRTM,2024,123.166918974641,14.276566384780
$GPGGA,040020.00,3408.0190,N,11950.9216,W,1,09,0.8,20.7,M,-33.5,M,,*63
$PYRTM,2024,123.166930558831,14.276577968970
$GPGGA,040021.00,3408.0195,N,11950.9243,W,1,09,0.8,18.7,M,-33.5,M,,*6C
$PYRTM,2024,123.166942123241,14.276589533380
$GPGGA,040022.00,3408.0200,N,11950.9270,W,1,09,0.8,15.0,M,-33.5,M,,*6A
$PYRTM,2024,123.166953713079,14.276601123218
$GPGGA,040023.00,3408.0207,N,11950.9294,W,1,09,0.8,16.5,M,-33.5,M,,*60
$PYRTM,2024,123.166965272280,14.276612682419
$GPGGA,040024.00,3408.0213,N,11950.9316,W,1,09,0.8,19.8,M,-33.5,M,,*6B
$PYRTM,2024,123.166976859850,14.276624269988
$GPGGA,040025.00,3408.0219,N,11950.9339,W,1,09,0.8,20.9,M,-33.5,M,,*66
$PYRTM,2024,123.166988419271,14.276635829410
$GPGGA,040026.00,3408.0223,N,11950.9367,W,1,09,0.8,20.8,M,-33.5,M,,*66
$PYRTM,2024,123.167000003958,14.276647414097
$GPGGA,040027.00,3408.0228,N,11950.9396,W,1,09,0.8,16.5,M,-33.5,M,,*6A
$PYRTM,2024,123.167011568009,14.276658978148
$GPGGA,040028.00,3408.0233,N,11950.9420,W,1,09,0.8,17.0,M,-33.5,M,,*61
$PYRTM,2024,123.167023605081,14.276671015231
$GPGGA,040029.00,3408.0237,N,11950.9442,W,1,09,0.8,18.6,M,-33.5,M,,*69
$PYRTM,2024,123.167035193796,14.276682603935
$GPGGA,040030.00,3408.0243,N,11950.9464,W,1,09,0.8,19.9,M,-33.5,M,,*68
$PYRTM,2024,123.167048375799,14.276695785938
$GPGGA,040031.00,3408.0250,N,11950.9490,W,1,09,0.8,22.5,M,-33.5,M,,*64
$PYRTM,2024,123.167060411435,14.276707821574
$GPGGA,040032.00,3408.0257,N,11950.9518,W,1,09,0.8,20.7,M,-33.5,M,,*61
$PYRTM,2024,123.167069452662,14.276716862801
$GPGGA,040033.00,3408.0263,N,11950.9545,W,1,09,0.8,20.5,M,-33.5,M,,*6D
$PYRTM,2024,123.167081013924,14.276728424063
$GPGGA,040034.00,3408.0270,N,11950.9570,W,1,09,0.8,20.2,M,-33.5,M,,*69
$PYRTM,2024,123.167092604259,14.276740014398
$GPGGA,040035.00,3408.0277,N,11950.9593,W,1,09,0.8,19.3,M,-33.5,M,,*69
$PYRTM,2024,123.167104160949,14.276751571088
$GPGGA,040036.00,3408.0285,N,11950.9617,W,1,09,0.8,21.2,M,-33.5,M,,*62
$PYRTM,2024,123.167115751065,14.276763161204
$GPGGA,040037.00,3408.0290,N,11950.9641,W,1,09,0.8,23.8,M,-33.5,M,,*6C
$PYRTM,2024,123.167127310891,14.276774721030
$GPGGA,040038.00,3408.0293,N,11950.9666,W,1,09,0.8,22.9,M,-33.5,M,,*65
$PYRTM,2024,123.167138898160,14.276786308299
$GPGGA,040039.00,3408.0297,N,11950.9692,W,1,09,0.8,21.0,M,-33.5,M,,*61
$PYRTM,2024,123.167150459491,14.276797869630
$GPGGA,040040.00,3408.0302,N,11950.9717,W,1,09,0.8,21.4,M,-33.5,M,,*6A
$PYRTM,2024,123.167162046285,14.276809456424
$GPGGA,040041.00,3408.0308,N,11950.9737,W,1,09,0.8,21.3,M,-33.5,M,,*64
$PYRTM,2024,123.167173606609,14.276821016759
$GPGGA,040042.00,3408.0313,N,11950.9759,W,1,09,0.8,23.1,M,-33.5,M,,*65
$PYRTM,2024,123.167185196100,14.276832606238
$GPGGA,040043.00,3408.0319,N,11950.9785,W,1,09,0.8,25.0,M,-33.5,M,,*68
$PYRTM,2024,123.167196754907,14.276844165046
$GPGGA,040044.00,3408.0327,N,11950.9813,W,1,09,0.8,25.1,M,-33.5,M,,*63
$PYRTM,2024,123.167208343750,14.276855753889
$GPGGA,040045.00,3408.0334,N,11950.9839,W,1,09,0.8,26.3,M,-33.5,M,,*69
$PYRTM,2024,123.167219904259,14.276867314398
$GPGGA,040046.00,3408.0340,N,11950.9860,W,1,09,0.8,25.1,M,-33.5,M,,*64
$PYRTM,2024,123.167231492002,14.276878902141
$GPGGA,040047.00,3408.0346,N,11950.9882,W,1,09,0.8,23.3,M,-33.5,M,,*6B
$PYRTM,2024,123.167243050579,14.276890460718
$GPGGA,040048.00,3408.0352,N,11950.9909,W,1,09,0.8,23.1,M,-33.5,M,,*61
$PYRTM,2024,123.167254634988,14.276902045127
$GPGGA,040049.00,3408.0360,N,11950.9936,W,1,09,0.8,20.5,M,-33.5,M,,*6A
$PYRTM,2024,123.167266199456,14.276913609595
$GPGGA,040050.00,3408.0367,N,11950.9960,W,1,09,0.8,21.6,M,-33.5,M,,*64
$PYRTM,2024,123.167277788634,14.276925198773
$GPGGA,040051.00,3408.0371,N,11950.9982,W,1,09,0.8,22.5,M,-33.5,M,,*6E
$PYRTM,2024,123.167288421227,14.276935831366
$GPGGA,040052.00,3408.0376,N,11951.0008,W,1,09,0.8,20.5,M,-33.5,M,,*6B
$PYRTM,2024,123.167301529248,14.276948939398
$GPGGA,040053.00,3408.0382,N,11951.0038,W,1,09,0.8,19.0,M,-33.5,M,,*6D
$PYRTM,2024,123.167312265313,14.276959675451
$GPGGA,040054.00,3408.0388,N,11951.0063,W,1,09,0.8,17.7,M,-33.5,M,,*67
$PYRTM,2024,123.167323377882,14.276970788021
$GPGGA,040055.00,3408.0392,N,11951.0085,W,1,09,0.8,18.7,M,-33.5,M,,*6A
$PYRTM,2024,123.167334488148,14.276981898287
$GPGGA,040056.00,3408.0396,N,11951.0108,W,1,09,0.8,20.5,M,-33.5,M,,*60
$PYRTM,2024,123.167345599063,14.276993009201
$GPGGA,040057.00,3408.0402,N,11951.0137,W,1,09,0.8,21.4,M,-33.5,M,,*67
$PYRTM,2024,123.167356826875,14.277004237014
$GPGGA,040058.00,3408.0407,N,11951.0165,W,1,09,0.8,20.6,M,-33.5,M,,*69
$PYRTM,2024,123.167367938461,14.277015348600
$GPGGA,040059.00,3408.0412,N,11951.0185,W,1,09,0.8,19.9,M,-33.5,M,,*67
$PYRTM,2024,123.167379524294,14.277026934433
$GPGGA,040100.00,3408.0417,N,11951.0204,W,1,09,0.8,19.1,M,-33.5,M,,*6D
$PYRTM,2024,123.167390649884,14.277038060023
$GPGGA,040101.00,3408.0421,N,11951.0229,W,1,09,0.8,21.8,M,-33.5,M,,*64
$PYRTM,2024,123.167405219016,14.277052629155
$GPGGA,040102.00,3408.0428,N,11951.0257,W,1,09,0.8,20.5,M,-33.5,M,,*6B
$PYRTM,2024,123.167416460845,14.277063870984
$GPGGA,040103.00,3408.0435,N,11951.0284,W,1,09,0.8,19.5,M,-33.5,M,,*62
$PYRTM,2024,123.167427557153,14.277074967292
$GPGGA,040104.00,3408.0439,N,11951.0306,W,1,09,0.8,17.3,M,-33.5,M,,*6A
$PYRTM,2024,123.167438671516,14.277086081655
$GPGGA,040105.00,3408.0443,N,11951.0326,W,1,09,0.8,18.1,M,-33.5,M,,*69
$PYRTM,2024,123.167450229896,14.277097640035
$GPGGA,040106.00,3408.0449,N,11951.0350,W,1,09,0.8,20.1,M,-33.5,M,,*6A
$PYRTM,2024,123.167461818137,14.277109228275
$GPGGA,040107.00,3408.0457,N,11951.0377,W,1,09,0.8,20.6,M,-33.5,M,,*66
$PYRTM,2024,123.167473378171,14.277120788322
$GPGGA,040108.00,3408.0463,N,11951.0403,W,1,09,0.8,22.2,M,-33.5,M,,*6C
$PYRTM,2024,123.167484966586,14.277132376725
$GPGGA,040109.00,3408.0468,N,11951.0426,W,1,09,0.8,19.1,M,-33.5,M,,*6A
$PYRTM,2024,123.167496525787,14.277143935926
$GPGGA,040110.00,3408.0472,N,11951.0448,W,1,09,0.8,21.7,M,-33.5,M,,*6C
$PYRTM,2024,123.167508113056,14.277155523194
$GPGGA,040111.00,3408.0477,N,11951.0472,W,1,09,0.8,20.7,M,-33.5,M,,*60
$PYRTM,2024,123.167519675069,14.277167085208
$GPGGA,040112.00,3408.0483,N,11951.0497,W,1,09,0.8,19.4,M,-33.5,M,,*6A
$PYRTM,2024,123.167531261829,14.277178671968
$GPGGA,040113.00,3408.0489,N,11951.0523,W,1,09,0.8,19.1,M,-33.5,M,,*6A
$PYRTM,2024,123.167542825023,14.277190235162
$GPGGA,040114.00,3408.0495,N,11951.0549,W,1,09,0.8,17.8,M,-33.5,M,,*6B
$PYRTM,2024,123.167554410660,14.277201820799
$GPGGA,040115.00,3408.0501,N,11951.0573,W,1,09,0.8,18.2,M,-33.5,M,,*6A
$PYRTM,2024,123.167565971586,14.277213381725
$GPGGA,040116.00,3408.0508,N,11951.0595,W,1,09,0.8,21.8,M,-33.5,M,,*68
$PYRTM,2024,123.167577569734,14.277224979873
$GPGGA,040117.00,3408.0514,N,11951.0619,W,1,09,0.8,18.8,M,-33.5,M,,*69
$PYRTM,2024,123.167589120243,14.277236530382
$GPGGA,040118.00,3408.0521,N,11951.0645,W,1,09,0.8,18.7,M,-33.5,M,,*66
$PYRTM,2024,123.167600710197,14.277248120336
$GPGGA,040119.00,3408.0528,N,11951.0671,W,1,09,0.8,17.4,M,-33.5,M,,*65
$PYRTM,2024,123.167612268032,14.277259678171
$GPGGA,040120.00,3408.0536,N,11951.0697,W,1,09,0.8,13.6,M,-33.5,M,,*6E
$PYRTM,2024,123.167624306678,14.277271716817
$GPGGA,040121.00,3408.0544,N,11951.0722,W,1,09,0.8,16.8,M,-33.5,M,,*6E
$PYRTM,2024,123.167635647685,14.277283057824
$GPGGA,040122.00,3408.0551,N,11951.0745,W,1,09,0.8,15.3,M,-33.5,M,,*60
$PYRTM,2024,123.167647003380,14.277294413519
$GPGGA,040123.00,3408.0557,N,11951.0771,W,1,09,0.8,15.5,M,-33.5,M,,*66
$PYRTM,2024,123.167658563762,14.277305973900
$GPGGA,040124.00,3408.0562,N,11951.0798,W,1,09,0.8,17.1,M,-33.5,M,,*66
$PYRTM,2024,123.167670146181,14.277317556319
$GPGGA,040125.00,3408.0568,N,11951.0823,W,1,09,0.8,16.5,M,-33.5,M,,*67
$PYRTM,2024,123.167681711817,14.277329121956
$GPGGA,040126.00,3408.0574,N,11951.0848,W,1,09,0.8,16.0,M,-33.5,M,,*61
$PYRTM,2024,123.167693300370,14.277340710509
$GPGGA,040127.00,3408.0581,N,11951.0874,W,1,09,0.8,15.1,M,-33.5,M,,*67
$PYRTM,2024,123.167704862037,14.277352272176
$GPGGA,040128.00,3408.0587,N,11951.0900,W,1,09,0.8,14.1,M,-33.5,M,,*6D
$PYRTM,2024,123.167716898958,14.277364309097
$GPGGA,040129.00,3408.0592,N,11951.0924,W,1,09,0.8,16.9,M,-33.5,M,,*64
$PYRTM,2024,123.167728240104,14.277375650243
$GPGGA,040130.00,3408.0596,N,11951.0949,W,1,09,0.8,16.3,M,-33.5,M,,*69
$PYRTM,2024,123.167740752627,14.277388162766
$GPGGA,040131.00,3408.0602,N,11951.0979,W,1,09,0.8,15.7,M,-33.5,M,,*62
$PYRTM,2024,123.167752314896,14.277399725035
$GPGGA,040132.00,3408.0609,N,11951.1008,W,1,09,0.8,16.5,M,-33.5,M,,*65
$PYRTM,2024,123.167763897176,14.277411307315
$GPGGA,040133.00,3408.0616,N,11951.1030,W,1,09,0.8,16.9,M,-33.5,M,,*6D
$PYRTM,2024,123.167775462546,14.277422872685
$GPGGA,040134.00,3408.0622,N,11951.1051,W,1,09,0.8,17.7,M,-33.5,M,,*65
$PYRTM,2024,123.167787049722,14.277434459861
$GPGGA,040135.00,3408.0627,N,11951.1077,W,1,09,0.8,18.5,M,-33.5,M,,*68
$PYRTM,2024,123.167798611574,14.277446021713
$GPGGA,040136.00,3408.0632,N,11951.1104,W,1,09,0.8,20.4,M,-33.5,M,,*60
$PYRTM,2024,123.167810199097,14.277457609236
$GPGGA,040137.00,3408.0636,N,11951.1125,W,1,09,0.8,19.0,M,-33.5,M,,*68
$PYRTM,2024,123.167821759213,14.277469169363
$GPGGA,040138.00,3408.0641,N,11951.1148,W,1,09,0.8,17.7,M,-33.5,M,,*65
$PYRTM,2024,123.167833347257,14.277480757396
$GPGGA,040139.00,3408.0647,N,11951.1175,W,1,09,0.8,17.4,M,-33.5,M,,*6F
$PYRTM,2024,123.167844909375,14.277492319514
$GPGGA,040140.00,3408.0652,N,11951.1200,W,1,09,0.8,16.3,M,-33.5,M,,*62
$PYRTM,2024,123.167856494826,14.277503904965
$GPGGA,040141.00,3408.0658,N,11951.1221,W,1,09,0.8,19.6,M,-33.5,M,,*60
$PYRTM,2024,123.167868056100,14.277515466238
$GPGGA,040142.00,3408.0664,N,11951.1246,W,1,09,0.8,20.0,M,-33.5,M,,*61
$PYRTM,2024,123.167879643808,14.277527053958
$GPGGA,040143.00,3408.0670,N,11951.1273,W,1,09,0.8,22.6,M,-33.5,M,,*67
$PYRTM,2024,123.167891203287,14.277538613426
$GPGGA,040144.00,3408.0677,N,11951.1299,W,1,09,0.8,21.2,M,-33.5,M,,*64
$PYRTM,2024,123.167902786817,14.277550196956
$GPGGA,040145.00,3408.0683,N,11951.1323,W,1,09,0.8,19.6,M,-33.5,M,,*61
$PYRTM,2024,123.167914351655,14.277561761794
$GPGGA,040146.00,3408.0689,N,11951.1348,W,1,09,0.8,17.0,M,-33.5,M,,*6D
$PYRTM,2024,123.167925939907,14.277573350046
$GPGGA,040147.00,3408.0695,N,11951.1373,W,1,09,0.8,18.7,M,-33.5,M,,*61
$PYRTM,2024,123.167937501319,14.277584911458
$GPGGA,040148.00,3408.0703,N,11951.1398,W,1,09,0.8,17.5,M,-33.5,M,,*68
$PYRTM,2024,123.167949089444,14.277596499583
$GPGGA,040149.00,3408.0711,N,11951.1421,W,1,09,0.8,16.7,M,-33.5,M,,*6C
$PYRTM,2024,123.167960647905,14.277608058044
$GPGGA,040150.00,3408.0718,N,11951.1444,W,1,09,0.8,17.4,M,-33.5,M,,*6C
$PYRTM,2024,123.167972238032,14.277619648171
$GPGGA,040151.00,3408.0725,N,11951.1470,W,1,09,0.8,19.3,M,-33.5,M,,*6D
$PYRTM,2024,123.167983798403,14.277631208542
$GPGGA,040152.00,3408.0733,N,11951.1497,W,1,09,0.8,17.5,M,-33.5,M,,*68
$PYRTM,2024,123.167995384063,14.277642794213
$GPGGA,040153.00,3408.0738,N,11951.1521,W,1,09,0.8,17.5,M,-33.5,M,,*6E
$PYRTM,2024,123.168006944595,14.277654354734
$GPGGA,040154.00,3408.0743,N,11951.1543,W,1,09,0.8,17.4,M,-33.5,M,,*60
$PYRTM,2024,123.168018533866,14.277665944005
$GPGGA,040155.00,3408.0750,N,11951.1568,W,1,09,0.8,16.1,M,-33.5,M,,*6E
$PYRTM,2024,123.168030094028,14.277677504167
$GPGGA,040156.00,3408.0757,N,11951.1595,W,1,09,0.8,13.9,M,-33.5,M,,*65
$PYRTM,2024,123.168041682060,14.277689092211
$GPGGA,040157.00,3408.0764,N,11951.1620,W,1,09,0.8,15.9,M,-33.5,M,,*6F
$PYRTM,2024,123.168053241528,14.277700651667
$GPGGA,040158.00,3408.0771,N,11951.1644,W,1,09,0.8,16.8,M,-33.5,M,,*64
$PYRTM,2024,123.168065279016,14.277712689155
$GPGGA,040159.00,3408.0776,N,11951.1669,W,1,09,0.8,16.8,M,-33.5,M,,*6D
$PYRTM,2024,123.168076751678,14.277724161817
$GPGGA,040200.00,3408.0781,N,11951.1697,W,1,09,0.8,16.3,M,-33.5,M,,*60
$PYRTM,2024,123.168089122859,14.277736532998
$GPGGA,040201.00,3408.0787,N,11951.1723,W,1,09,0.8,16.9,M,-33.5,M,,*63
$PYRTM,2024,123.168101740556,14.277749150694
$GPGGA,040202.00,3408.0793,N,11951.1747,W,1,09,0.8,16.9,M,-33.5,M,,*67
$PYRTM,2024,123.168111125590,14.277758535729
$GPGGA,040203.00,3408.0800,N,11951.1772,W,1,09,0.8,19.7,M,-33.5,M,,*64
$PYRTM,2024,123.168122685451,14.277770095590
$GPGGA,040204.00,3408.0806,N,11951.1799,W,1,09,0.8,17.5,M,-33.5,M,,*6C
$PYRTM,2024,123.168134274641,14.277781684780
$GPGGA,040205.00,3408.0812,N,11951.1826,W,1,09,0.8,19.8,M,-33.5,M,,*60
$PYRTM,2024,123.168145835451,14.277793245590
$GPGGA,040206.00,3408.0819,N,11951.1852,W,1,09,0.8,19.5,M,-33.5,M,,*66
$PYRTM,2024,123.168157418438,14.277804828576
$GPGGA,040207.00,3408.0826,N,11951.1876,W,1,09,0.8,22.0,M,-33.5,M,,*60
$PYRTM,2024,123.168168983113,14.277816393252
$GPGGA,040208.00,3408.0833,N,11951.1900,W,1,09,0.8,23.1,M,-33.5,M,,*6B
$PYRTM,2024,123.168180571424,14.277827981563
$GPGGA,040209.00,3408.0836,N,11951.1925,W,1,09,0.8,21.8,M,-33.5,M,,*63
$PYRTM,2024,123.168192131956,14.277839542095
$GPGGA,040210.00,3408.0841,N,11951.1954,W,1,09,0.8,22.7,M,-33.5,M,,*61
$PYRTM,2024,123.168204167581,14.277851577720
$GPGGA,040211.00,3408.0847,N,11951.1983,W,1,09,0.8,20.8,M,-33.5,M,,*61
$PYRTM,2024,123.168215644271,14.277863054410
$GPGGA,040212.00,3408.0855,N,11951.2007,W,1,09,0.8,20.3,M,-33.5,M,,*6C
$PYRTM,2024,123.168226863171,14.277874273310
$GPGGA,040213.00,3408.0861,N,11951.2028,W,1,09,0.8,23.1,M,-33.5,M,,*66
$PYRTM,2024,123.168238428796,14.277885838935
$GPGGA,040214.00,3408.0865,N,11951.2054,W,1,09,0.8,22.9,M,-33.5,M,,*67
$PYRTM,2024,123.168250018611,14.277897428750
$GPGGA,040215.00,3408.0870,N,11951.2081,W,1,09,0.8,20.0,M,-33.5,M,,*61
$PYRTM,2024,123.168261576238,14.277908986377
$GPGGA,040216.00,3408.0875,N,11951.2109,W,1,09,0.8,18.8,M,-33.5,M,,*65
$PYRTM,2024,123.168273160359,14.277920570498
$GPGGA,040217.00,3408.0880,N,11951.2134,W,1,09,0.8,16.8,M,-33.5,M,,*6E
$PYRTM,2024,123.168284723345,14.277932133484
$GPGGA,040218.00,3408.0887,N,11951.2158,W,1,09,0.8,17.3,M,-33.5,M,,*66
$PYRTM,2024,123.168296312604,14.277943722743
$GPGGA,040219.00,3408.0893,N,11951.2181,W,1,09,0.8,18.5,M,-33.5,M,,*6F
$PYRTM,2024,123.168307873970,14.277955284109
$GPGGA,040220.00,3408.0898,N,11951.2205,W,1,09,0.8,18.7,M,-33.5,M,,*63
$PYRTM,2024,123.168319461493,14.277966871644
$GPGGA,040221.00,3408.0903,N,11951.2234,W,1,09,0.8,17.4,M,-33.5,M,,*6F
$PYRTM,2024,123.168331022512,14.277978432650
$GPGGA,040222.00,3408.0909,N,11951.2264,W,1,09,0.8,17.4,M,-33.5,M,,*63
$PYRTM,2024,123.168342608704,14.277990018843
$GPGGA,040223.00,3408.0915,N,11951.2286,W,1,09,0.8,17.4,M,-33.5,M,,*63
$PYRTM,2024,123.168354169167,14.278001579306
$GPGGA,040224.00,3408.0920,N,11951.2305,W,1,09,0.8,18.8,M,-33.5,M,,*6B
$PYRTM,2024,123.168365757095,14.278013167234
$GPGGA,040225.00,3408.0928,N,11951.2331,W,1,09,0.8,18.5,M,-33.5,M,,*68
$PYRTM,2024,123.168377317627,14.278024727766
$GPGGA,040226.00,3408.0935,N,11951.2359,W,1,09,0.8,17.1,M,-33.5,M,,*62
$PYRTM,2024,123.168388905845,14.278036315984
$GPGGA,040227.00,3408.0940,N,11951.2385,W,1,09,0.8,17.5,M,-33.5,M,,*64
$PYRTM,2024,123.168400464618,14.278047874757
$GPGGA,040228.00,3408.0946,N,11951.2408,W,1,09,0.8,20.3,M,-33.5,M,,*6D
$PYRTM,2024,123.168412506042,14.278059916181
$GPGGA,040229.00,3408.0953,N,11951.2430,W,1,09,0.8,20.2,M,-33.5,M,,*62
$PYRTM,2024,123.168424094780,14.278071504919
$GPGGA,040230.00,3408.0960,N,11951.2455,W,1,09,0.8,19.0,M,-33.5,M,,*61
$PYRTM,2024,123.168436825810,14.278084235961
$GPGGA,040231.00,3408.0966,N,11951.2480,W,1,09,0.8,19.0,M,-33.5,M,,*6E
$PYRTM,2024,123.168448964363,14.278096374502
$GPGGA,040232.00,3408.0970,N,11951.2503,W,1,09,0.8,20.0,M,-33.5,M,,*6A
$PYRTM,2024,123.168458350775,14.278105760914
$GPGGA,040233.00,3408.0976,N,11951.2527,W,1,09,0.8,20.0,M,-33.5,M,,*6B
$PYRTM,2024,123.168469910787,14.278117320926
$GPGGA,040234.00,3408.0981,N,11951.2553,W,1,09,0.8,19.2,M,-33.5,M,,*6F
$PYRTM,2024,123.168481502025,14.278128912164
$GPGGA,040235.00,3408.0986,N,11951.2576,W,1,09,0.8,18.3,M,-33.5,M,,*6E
$PYRTM,2024,123.168493060833,14.278140470984
$GPGGA,040236.00,3408.0990,N,11951.2598,W,1,09,0.8,16.6,M,-33.5,M,,*61
$PYRTM,2024,123.168504642095,14.278152052234
$GPGGA,040237.00,3408.0995,N,11951.2625,W,1,09,0.8,15.5,M,-33.5,M,,*60
$PYRTM,2024,123.168516207685,14.278163617836
$GPGGA,040238.00,3408.1001,N,11951.2653,W,1,09,0.8,14.3,M,-33.5,M,,*6C
$PYRTM,2024,123.168527795046,14.278175205185
$GPGGA,040239.00,3408.1006,N,11951.2675,W,1,09,0.8,14.3,M,-33.5,M,,*6E
$PYRTM,2024,123.168539357118,14.278186767269
$GPGGA,040240.00,3408.1011,N,11951.2697,W,1,09,0.8,18.5,M,-33.5,M,,*60
$PYRTM,2024,123.168550944815,14.278198354954
$GPGGA,040241.00,3408.1017,N,11951.2724,W,1,09,0.8,17.5,M,-33.5,M,,*61
$PYRTM,2024,123.168562504664,14.278209914803
$GPGGA,040242.00,3408.1023,N,11951.2750,W,1,09,0.8,15.5,M,-33.5,M,,*64
$PYRTM,2024,123.168574091123,14.278221501262
$GPGGA,040243.00,3408.1028,N,11951.2772,W,1,09,0.8,14.3,M,-33.5,M,,*69
$PYRTM,2024,123.168585652917,14.278233063056
$GPGGA,040244.00,3408.1034,N,11951.2793,W,1,09,0.8,15.3,M,-33.5,M,,*6D
$PYRTM,2024,123.168597236146,14.278244646285
$GPGGA,040245.00,3408.1041,N,11951.2818,W,1,09,0.8,15.4,M,-33.5,M,,*65
$PYRTM,2024,123.168608800926,14.278256211065
$GPGGA,040246.00,3408.1048,N,11951.2846,W,1,09,0.8,17.1,M,-33.5,M,,*63
$PYRTM,2024,123.168620392454,14.278267802593
$GPGGA,040247.00,3408.1054,N,11951.2873,W,1,09,0.8,16.7,M,-33.5,M,,*6E
$PYRTM,2024,123.168631952292,14.278279362431
$GPGGA,040248.00,3408.1061,N,11951.2895,W,1,09,0.8,20.2,M,-33.5,M,,*6F
$PYRTM,2024,123.168643539225,14.278290949352
$GPGGA,040249.00,3408.1068,N,11951.2915,W,1,09,0.8,20.8,M,-33.5,M,,*64
$PYRTM,2024,123.168655097639,14.278302507778
$GPGGA,040250.00,3408.1075,N,11951.2941,W,1,09,0.8,20.2,M,-33.5,M,,*6B
$PYRTM,2024,123.168666688796,14.278314098935
$GPGGA,040251.00,3408.1081,N,11951.2969,W,1,09,0.8,19.0,M,-33.5,M,,*63
$PYRTM,2024,123.168678246852,14.278325656991
$GPGGA,040252.00,3408.1086,N,11951.2993,W,1,09,0.8,19.2,M,-33.5,M,,*60
$PYRTM,2024,123.168689833009,14.278337243148
$GPGGA,040253.00,3408.1090,N,11951.3014,W,1,09,0.8,18.8,M,-33.5,M,,*6A
$PYRTM,2024,123.168701394954,14.278348805104
$GPGGA,040254.00,3408.1097,N,11951.3037,W,1,09,0.8,20.7,M,-33.5,M,,*6F
$PYRTM,2024,123.168712978079,14.278360388218
$GPGGA,040255.00,3408.1104,N,11951.3063,W,1,09,0.8,18.7,M,-33.5,M,,*6F
$PYRTM,2024,123.168724543079,14.278371953218
$GPGGA,040256.00,3408.1108,N,11951.3088,W,1,09,0.8,18.8,M,-33.5,M,,*6A
$PYRTM,2024,123.168735199062,14.278382609201
$GPGGA,040257.00,3408.1113,N,11951.3112,W,1,09,0.8,16.3,M,-33.5,M,,*66
$PYRTM,2024,123.168747244398,14.278394654537
$GPGGA,040258.00,3408.1120,N,11951.3136,W,1,09,0.8,17.8,M,-33.5,M,,*65
$PYRTM,2024,123.168754983958,14.278402394097
$GPGGA,040259.00,3408.1127,N,11951.3159,W,1,09,0.8,17.5,M,-33.5,M,,*67
$PYRTM,2024,123.168772115174,14.278419525313
$GPGGA,040300.00,3408.1133,N,11951.3182,W,1,09,0.8,16.5,M,-33.5,M,,*68
$PYRTM,2024,123.168784841586,14.278432251725
$GPGGA,040301.00,3408.1139,N,11951.3210,W,1,09,0.8,17.5,M,-33.5,M,,*6A
$PYRTM,2024,123.168794798044,14.278442208183
$GPGGA,040302.00,3408.1146,N,11951.3239,W,1,09,0.8,17.7,M,-33.5,M,,*68
$PYRTM,2024,123.168805911076,14.278453321215
$GPGGA,040303.00,3408.1152,N,11951.3263,W,1,09,0.8,18.2,M,-33.5,M,,*69
$PYRTM,2024,123.168818061146,14.278465471285
$GPGGA,040304.00,3408.1158,N,11951.3285,W,1,09,0.8,20.1,M,-33.5,M,,*64
$PYRTM,2024,123.168829174097,14.278476584236
$GPGGA,040305.00,3408.1164,N,11951.3313,W,1,09,0.8,16.5,M,-33.5,M,,*65
$PYRTM,2024,123.168840283750,14.278487693889
$GPGGA,040306.00,3408.1170,N,11951.3340,W,1,09,0.8,14.5,M,-33.5,M,,*67
$PYRTM,2024,123.168851874896,14.278499285035
$GPGGA,040307.00,3408.1175,N,11951.3362,W,1,09,0.8,16.5,M,-33.5,M,,*61
$PYRTM,2024,123.168863433264,14.278510843403
$GPGGA,040308.00,3408.1179,N,11951.3382,W,1,09,0.8,19.1,M,-33.5,M,,*67
$PYRTM,2024,123.168875022523,14.278522432662
$GPGGA,040309.00,3408.1185,N,11951.3406,W,1,09,0.8,17.4,M,-33.5,M,,*65
$PYRTM,2024,123.168886581968,14.278533992106
$GPGGA,040310.00,3408.1191,N,11951.3432,W,1,09,0.8,16.5,M,-33.5,M,,*6F
$PYRTM,2024,123.168898169086,14.278545579225
$GPGGA,040311.00,3408.1196,N,11951.3457,W,1,09,0.8,16.0,M,-33.5,M,,*6F
$PYRTM,2024,123.168909729572,14.278557139711
$GPGGA,040312.00,3408.1200,N,11951.3478,W,1,09,0.8,17.6,M,-33.5,M,,*6A
$PYRTM,2024,123.168921316632,14.278568726771
$GPGGA,040313.00,3408.1204,N,11951.3502,W,1,09,0.8,20.9,M,-33.5,M,,*68
$PYRTM,2024,123.168932877106,14.278580287245
$GPGGA,040314.00,3408.1210,N,11951.3528,W,1,09,0.8,19.1,M,-33.5,M,,*60
$PYRTM,2024,123.168944460694,14.278591870845
$GPGGA,040315.00,3408.1216,N,11951.3555,W,1,09,0.8,19.1,M,-33.5,M,,*6D
$PYRTM,2024,123.168956026725,14.278603436863
$GPGGA,040316.00,3408.1222,N,11951.3580,W,1,09,0.8,20.2,M,-33.5,M,,*68
$PYRTM,2024,123.168967627477,14.278615037616
$GPGGA,040317.00,3408.1227,N,11951.3606,W,1,09,0.8,20.8,M,-33.5,M,,*6B
$PYRTM,2024,123.168979173738,14.278626583889
$GPGGA,040318.00,3408.1233,N,11951.3633,W,1,09,0.8,21.8,M,-33.5,M,,*66
$PYRTM,2024,123.168990765787,14.278638175926
$GPGGA,040319.00,3408.1240,N,11951.3657,W,1,09,0.8,22.5,M,-33.5,M,,*6F
$PYRTM,2024,123.169002323738,14.278649733877
$GPGGA,040320.00,3408.1247,N,11951.3681,W,1,09,0.8,22.5,M,-33.5,M,,*69
$PYRTM,2024,123.169013912998,14.278661323137
$GPGGA,040321.00,3408.1254,N,11951.3706,W,1,09,0.8,20.8,M,-33.5,M,,*6B
$PYRTM,2024,123.169025470799,14.278672880938
$GPGGA,040322.00,3408.1260,N,11951.3732,W,1,09,0.8,18.3,M,-33.5,M,,*68
$PYRTM,2024,123.169037054028,14.278684464167
$GPGGA,040323.00,3408.1264,N,11951.3757,W,1,09,0.8,17.4,M,-33.5,M,,*66
$PYRTM,2024,123.169048619271,14.278696029410
$GPGGA,040324.00,3408.1269,N,11951.3781,W,1,09,0.8,18.7,M,-33.5,M,,*6B
$PYRTM,2024,123.169060206458,14.278707616597
$GPGGA,040325.00,3408.1276,N,11951.3805,W,1,09,0.8,18.5,M,-33.5,M,,*65
$PYRTM,2024,123.169071768461,14.278719178600
$GPGGA,040326.00,3408.1285,N,11951.3832,W,1,09,0.8,17.9,M,-33.5,M,,*6D
$PYRTM,2024,123.169083350822,14.278730760961
$GPGGA,040327.00,3408.1294,N,11951.3858,W,1,09,0.8,17.9,M,-33.5,M,,*60
$PYRTM,2024,123.169094917523,14.278742327662
$GPGGA,040328.00,3408.1300,N,11951.3881,W,1,09,0.8,20.0,M,-33.5,M,,*6A
$PYRTM,2024,123.169106952292,14.278754362431
$GPGGA,040329.00,3408.1305,N,11951.3905,W,1,09,0.8,22.6,M,-33.5,M,,*67
$PYRTM,2024,123.169118179421,14.278765589572
$GPGGA,040330.00,3408.1311,N,11951.3931,W,1,09,0.8,19.8,M,-33.5,M,,*6B
$PYRTM,2024,123.169130796794,14.278778206933
$GPGGA,040331.00,3408.1319,N,11951.3956,W,1,09,0.8,18.9,M,-33.5,M,,*63
$PYRTM,2024,123.169143412662,14.278790822812
$GPGGA,040332.00,3408.1328,N,11951.3980,W,1,09,0.8,15.8,M,-33.5,M,,*65
$PYRTM,2024,123.169152802477,14.278800212616
$GPGGA,040333.00,3408.1335,N,11951.4005,W,1,09,0.8,17.0,M,-33.5,M,,*61
$PYRTM,2024,123.169164360382,14.278811770521
$GPGGA,040334.00,3408.1341,N,11951.4032,W,1,09,0.8,17.6,M,-33.5,M,,*67
$PYRTM,2024,123.169175951794,14.278823361933
$GPGGA,040335.00,3408.1346,N,11951.4059,W,1,09,0.8,16.3,M,-33.5,M,,*68
$PYRTM,2024,123.169187510938,14.278834921076
$GPGGA,040336.00,3408.1353,N,11951.4081,W,1,09,0.8,18.2,M,-33.5,M,,*65
$PYRTM,2024,123.169199099340,14.278846509491
$GPGGA,040337.00,3408.1362,N,11951.4105,W,1,09,0.8,19.4,M,-33.5,M,,*6C
$PYRTM,2024,123.169210657720,14.278858067859
$GPGGA,040338.00,3408.1370,N,11951.4131,W,1,09,0.8,17.4,M,-33.5,M,,*69
$PYRTM,2024,123.169222241609,14.278869651748
$GPGGA,040339.00,3408.1376,N,11951.4158,W,1,09,0.8,16.2,M,-33.5,M,,*66
$PYRTM,2024,123.169233806007,14.278881216146
$GPGGA,040340.00,3408.1381,N,11951.4184,W,1,09,0.8,16.7,M,-33.5,M,,*64
$PYRTM,2024,123.169245392431,14.278892802569
$GPGGA,040341.00,3408.1388,N,11951.4209,W,1,09,0.8,17.7,M,-33.5,M,,*6B
$PYRTM,2024,123.169256953935,14.278904364074
$GPGGA,040342.00,3408.1396,N,11951.4231,W,1,09,0.8,20.4,M,-33.5,M,,*6B
$PYRTM,2024,123.169268540532,14.278915950671
$GPGGA,040343.00,3408.1403,N,11951.4257,W,1,09,0.8,18.1,M,-33.5,M,,*6F
$PYRTM,2024,123.169280101574,14.278927511713
$GPGGA,040344.00,3408.1408,N,11951.4287,W,1,09,0.8,18.4,M,-33.5,M,,*6B
$PYRTM,2024,123.169291689630,14.278939099769
$GPGGA,040345.00,3408.1412,N,11951.4312,W,1,09,0.8,19.9,M,-33.5,M,,*60
$PYRTM,2024,123.169303250116,14.278950660255
$GPGGA,040346.00,3408.1418,N,11951.4333,W,1,09,0.8,21.5,M,-33.5,M,,*6D
$PYRTM,2024,123.169314837812,14.278962247951
$GPGGA,040347.00,3408.1424,N,11951.4358,W,1,09,0.8,20.8,M,-33.5,M,,*62
$PYRTM,2024,123.169326398727,14.278973808866
$GPGGA,040348.00,3408.1431,N,11951.4387,W,1,09,0.8,17.9,M,-33.5,M,,*6E
$PYRTM,2024,123.169337988495,14.278985398646
$GPGGA,040349.00,3408.1436,N,11951.4412,W,1,09,0.8,16.1,M,-33.5,M,,*6A
$PYRTM,2024,123.169349547199,14.278996957338
$GPGGA,040350.00,3408.1439,N,11951.4434,W,1,09,0.8,17.1,M,-33.5,M,,*68
$PYRTM,2024,123.169361584387,14.279008994525
$GPGGA,040351.00,3408.1445,N,11951.4459,W,1,09,0.8,15.7,M,-33.5,M,,*6D
$PYRTM,2024,123.169372926215,14.279020336354
$GPGGA,040352.00,3408.1452,N,11951.4486,W,1,09,0.8,16.5,M,-33.5,M,,*6B
$PYRTM,2024,123.169384297269,14.279031707407
$GPGGA,040353.00,3408.1459,N,11951.4510,W,1,09,0.8,17.5,M,-33.5,M,,*6E
$PYRTM,2024,123.169395843275,14.279043253426
$GPGGA,040354.00,3408.1464,N,11951.4532,W,1,09,0.8,18.3,M,-33.5,M,,*6E
$PYRTM,2024,123.169407429572,14.279054839711
$GPGGA,040355.00,3408.1467,N,11951.4559,W,1,09,0.8,19.6,M,-33.5,M,,*65
$PYRTM,2024,123.169418992512,14.279066402650
$GPGGA,040356.00,3408.1472,N,11951.4586,W,1,09,0.8,19.4,M,-33.5,M,,*62
$PYRTM,2024,123.169430578704,14.279077988843
$GPGGA,040357.00,3408.1477,N,11951.4608,W,1,09,0.8,19.8,M,-33.5,M,,*6F
$PYRTM,2024,123.169442139468,14.279089549606
$GPGGA,040358.00,3408.1482,N,11951.4631,W,1,09,0.8,18.6,M,-33.5,M,,*6F
$PYRTM,2024,123.169454176921,14.279101587060
$GPGGA,040359.00,3408.1487,N,11951.4656,W,1,09,0.8,18.3,M,-33.5,M,,*6F
$PYRTM,2024,123.169465528681,14.279112938819
$GPGGA,040400.00,3408.1492,N,11951.4682,W,1,09,0.8,16.1,M,-33.5,M,,*65
$PYRTM,2024,123.169478019826,14.279125429965
$GPGGA,040401.00,3408.1496,N,11951.4705,W,1,09,0.8,17.5,M,-33.5,M,,*6B
$PYRTM,2024,123.169490635428,14.279138045567
$GPGGA,040402.00,3408.1501,N,11951.4725,W,1,09,0.8,19.5,M,-33.5,M,,*6B
$PYRTM,2024,123.169500025405,14.279147435544
$GPGGA,040403.00,3408.1508,N,11951.4751,W,1,09,0.8,18.4,M,-33.5,M,,*60
$PYRTM,2024,123.169511584190,14.279158994329
$GPGGA,040404.00,3408.1515,N,11951.4778,W,1,09,0.8,18.5,M,-33.5,M,,*61
$PYRTM,2024,123.169523175428,14.279170585567
$GPGGA,040405.00,3408.1521,N,11951.4803,W,1,09,0.8,20.7,M,-33.5,M,,*6D
$PYRTM,2024,123.169534732431,14.279182142569
$GPGGA,040406.00,3408.1526,N,11951.4826,W,1,09,0.8,23.4,M,-33.5,M,,*6E
$PYRTM,2024,123.169546335926,14.279193746065
$GPGGA,040407.00,3408.1531,N,11951.4849,W,1,09,0.8,22.9,M,-33.5,M,,*6C
$PYRTM,2024,123.169557882269,14.279205292407
$GPGGA,040408.00,3408.1537,N,11951.4875,W,1,09,0.8,21.8,M,-33.5,M,,*68
$PYRTM,2024,123.169569468600,14.279216878738
$GPGGA,040409.00,3408.1544,N,11951.4902,W,1,09,0.8,19.6,M,-33.5,M,,*69
$PYRTM,2024,123.169581029942,14.279228440081
$GPGGA,040410.00,3408.1552,N,11951.4926,W,1,09,0.8,20.0,M,-33.5,M,,*6C
$PYRTM,2024,123.169592616250,14.279240026389
$GPGGA,040411.00,3408.1558,N,11951.4949,W,1,09,0.8,20.0,M,-33.5,M,,*6E
$PYRTM,2024,123.169604177396,14.279251587535
$GPGGA,040412.00,3408.1563,N,11951.4973,W,1,09,0.8,20.2,M,-33.5,M,,*6E
$PYRTM,2024,123.169615765208,14.279263175347
$GPGGA,040413.00,3408.1567,N,11951.4997,W,1,09,0.8,20.4,M,-33.5,M,,*67
$PYRTM,2024,123.169627326759,14.279274736898
$GPGGA,040414.00,3408.1572,N,11951.5022,W,1,09,0.8,18.1,M,-33.5,M,,*6C
$PYRTM,2024,123.169638915961,14.279286326100
$GPGGA,040415.00,3408.1577,N,11951.5048,W,1,09,0.8,17.7,M,-33.5,M,,*6D
$PYRTM,2024,123.169650475150,14.279297885289
$GPGGA,040416.00,3408.1583,N,11951.5075,W,1,09,0.8,19.5,M,-33.5,M,,*67
$PYRTM,2024,123.169662062326,14.279309472465
$GPGGA,040417.00,3408.1588,N,11951.5099,W,1,09,0.8,19.5,M,-33.5,M,,*6F
$PYRTM,2024,123.169673623368,14.279321033507
$GPGGA,040418.00,3408.1595,N,11951.5121,W,1,09,0.8,20.5,M,-33.5,M,,*64
$PYRTM,2024,123.169685212685,14.279332622824
$GPGGA,040419.00,3408.1602,N,11951.5145,W,1,09,0.8,22.0,M,-33.5,M,,*6D
$PYRTM,2024,123.169696770590,14.279344180729
$GPGGA,040420.00,3408.1609,N,11951.5173,W,1,09,0.8,24.6,M,-33.5,M,,*69
$PYRTM,2024,123.169708372037,14.279355782176
$GPGGA,040421.00,3408.1616,N,11951.5204,W,1,09,0.8,20.0,M,-33.5,M,,*67
$PYRTM,2024,123.169719919942,14.279367330081
$GPGGA,040422.00,3408.1620,N,11951.5228,W,1,09,0.8,19.8,M,-33.5,M,,*6D
$PYRTM,2024,123.169731506829,14.279378916968
$GPGGA,040423.00,3408.1624,N,11951.5248,W,1,09,0.8,21.6,M,-33.5,M,,*6B
$PYRTM,2024,123.169743069109,14.279390479259
$GPGGA,040424.00,3408.1632,N,11951.5273,W,1,09,0.8,22.2,M,-33.5,M,,*64
$PYRTM,2024,123.169754649792,14.279402059931
$GPGGA,040425.00,3408.1642,N,11951.5303,W,1,09,0.8,20.8,M,-33.5,M,,*6C
$PYRTM,2024,123.169766217350,14.279413627488
$GPGGA,040426.00,3408.1648,N,11951.5329,W,1,09,0.8,19.9,M,-33.5,M,,*66
$PYRTM,2024,123.169777803912,14.279425214051
$GPGGA,040427.00,3408.1652,N,11951.5348,W,1,09,0.8,21.4,M,-33.5,M,,*6D
$PYRTM,2024,123.169789364271,14.279436774410
$GPGGA,040428.00,3408.1658,N,11951.5369,W,1,09,0.8,23.2,M,-33.5,M,,*6F
$PYRTM,2024,123.169801402569,14.279448812708
$GPGGA,040429.00,3408.1666,N,11951.5397,W,1,09,0.8,19.0,M,-33.5,M,,*69
$PYRTM,2024,123.169812988530,14.279460398669
$GPGGA,040430.00,3408.1672,N,11951.5422,W,1,09,0.8,18.8,M,-33.5,M,,*64
$PYRTM,2024,123.169825589722,14.279472999861
$GPGGA,040431.00,3408.1677,N,11951.5439,W,1,09,0.8,18.4,M,-33.5,M,,*66
$PYRTM,2024,123.169837858785,14.279485268924
$GPGGA,040432.00,3408.1683,N,11951.5458,W,1,09,0.8,20.3,M,-33.5,M,,*65
$PYRTM,2024,123.169847251111,14.279494661262
$GPGGA,040433.00,3408.1688,N,11951.5484,W,1,09,0.8,20.8,M,-33.5,M,,*65
$PYRTM,2024,123.169858808611,14.279506218750
$GPGGA,040434.00,3408.1693,N,11951.5511,W,1,09,0.8,23.9,M,-33.5,M,,*67
$PYRTM,2024,123.169870399178,14.279517809317
$GPGGA,040435.00,3408.1696,N,11951.5534,W,1,09,0.8,25.5,M,-33.5,M,,*6E
$PYRTM,2024,123.169881957558,14.279529367697
$GPGGA,040436.00,3408.1702,N,11951.5555,W,1,09,0.8,23.7,M,-33.5,M,,*62
$PYRTM,2024,123.169893547257,14.279540957396
$GPGGA,040437.00,3408.1707,N,11951.5576,W,1,09,0.8,23.4,M,-33.5,M,,*64
$PYRTM,2024,123.169905106424,14.279552516563
$GPGGA,040438.00,3408.1713,N,11951.5597,W,1,09,0.8,21.1,M,-33.5,M,,*66
$PYRTM,2024,123.169916688206,14.279564098356
$GPGGA,040439.00,3408.1717,N,11951.5620,W,1,09,0.8,20.7,M,-33.5,M,,*6B
$PYRTM,2024,123.169928254653,14.279575664792
$GPGGA,040440.00,3408.1721,N,11951.5646,W,1,09,0.8,21.1,M,-33.5,M,,*67
$PYRTM,2024,123.169940292616,14.279587702755
$GPGGA,040441.00,3408.1725,N,11951.5670,W,1,09,0.8,21.0,M,-33.5,M,,*66
$PYRTM,2024,123.169951882014,14.279599292153
$GPGGA,040442.00,3408.1731,N,11951.5694,W,1,09,0.8,21.6,M,-33.5,M,,*6C
$PYRTM,2024,123.169963439097,14.279610849236
$GPGGA,040443.00,3408.1739,N,11951.5719,W,1,09,0.8,21.6,M,-33.5,M,,*61
$PYRTM,2024,123.169975030937,14.279622441076
$GPGGA,040444.00,3408.1746,N,11951.5743,W,1,09,0.8,23.3,M,-33.5,M,,*66
$PYRTM,2024,123.169986589039,14.279633999178
$GPGGA,040445.00,3408.1750,N,11951.5767,W,1,09,0.8,22.0,M,-33.5,M,,*64
$PYRTM,2024,123.169998170602,14.279645580741
$GPGGA,040446.00,3408.1754,N,11951.5791,W,1,09,0.8,21.1,M,-33.5,M,,*68
$PYRTM,2024,123.170009736852,14.279657147002
$GPGGA,040447.00,3408.1759,N,11951.5816,W,1,09,0.8,20.0,M,-33.5,M,,*64
$PYRTM,2024,123.170021318391,14.279668728542
$GPGGA,040448.00,3408.1766,N,11951.5837,W,1,09,0.8,21.4,M,-33.5,M,,*61
$PYRTM,2024,123.170032884549,14.279680294699
$GPGGA,040449.00,3408.1774,N,11951.5856,W,1,09,0.8,20.8,M,-33.5,M,,*69
$PYRTM,2024,123.170044466991,14.279691877130
$GPGGA,040450.00,3408.1778,N,11951.5878,W,1,09,0.8,21.2,M,-33.5,M,,*6A
$PYRTM,2024,123.170056032269,14.279703442407
$GPGGA,040451.00,3408.1781,N,11951.5905,W,1,09,0.8,21.1,M,-33.5,M,,*65
$PYRTM,2024,123.170067736227,14.279715146366
$GPGGA,040452.00,3408.1784,N,11951.5932,W,1,09,0.8,21.7,M,-33.5,M,,*61
$PYRTM,2024,123.170079295660,14.279726705799
$GPGGA,040453.00,3408.1791,N,11951.5953,W,1,09,0.8,24.0,M,-33.5,M,,*61
$PYRTM,2024,123.170090885532,14.279738295671
$GPGGA,040454.00,3408.1801,N,11951.5975,W,1,09,0.8,26.9,M,-33.5,M,,*6F
$PYRTM,2024,123.170102443738,14.279749853877
$GPGGA,040455.00,3408.1808,N,11951.5998,W,1,09,0.8,23.8,M,-33.5,M,,*60
$PYRTM,2024,123.170114027211,14.279761437350
$GPGGA,040456.00,3408.1812,N,11951.6021,W,1,09,0.8,23.8,M,-33.5,M,,*60
$PYRTM,2024,123.170125593113,14.279773003252
$GPGGA,040457.00,3408.1818,N,11951.6046,W,1,09,0.8,20.8,M,-33.5,M,,*69
$PYRTM,2024,123.170137181690,14.279784591829
$GPGGA,040458.00,3408.1826,N,11951.6074,W,1,09,0.8,20.8,M,-33.5,M,,*6A
$PYRTM,2024,123.170149205417,14.279796615556
$GPGGA,040459.00,3408.1835,N,11951.6099,W,1,09,0.8,20.5,M,-33.5,M,,*67
$PYRTM,2024,123.170160328264,14.279807738403
$GPGGA,040500.00,3408.1841,N,11951.6121,W,1,09,0.8,19.6,M,-33.5,M,,*62
$PYRTM,2024,123.170172937859,14.279820347998
$GPGGA,040501.00,3408.1847,N,11951.6144,W,1,09,0.8,22.0,M,-33.5,M,,*68
$PYRTM,2024,123.170191102766,14.279838512905
$GPGGA,040502.00,3408.1854,N,11951.6171,W,1,09,0.8,18.9,M,-33.5,M,,*6F
$PYRTM,2024,123.170202106227,14.279849516366
$GPGGA,040503.00,3408.1862,N,11951.6199,W,1,09,0.8,18.2,M,-33.5,M,,*66
$PYRTM,2024,123.170211018484,14.279858428623
$GPGGA,040504.00,3408.1869,N,11951.6220,W,1,09,0.8,18.5,M,-33.5,M,,*6C
$PYRTM,2024,123.170221774769,14.279869184907
$GPGGA,040505.00,3408.1874,N,11951.6239,W,1,09,0.8,20.7,M,-33.5,M,,*60
$PYRTM,2024,123.170232885949,14.279880296088
$GPGGA,040506.00,3408.1880,N,11951.6264,W,1,09,0.8,18.7,M,-33.5,M,,*6B
$PYRTM,2024,123.170243998750,14.279891408900
$GPGGA,040507.00,3408.1887,N,11951.6292,W,1,09,0.8,17.1,M,-33.5,M,,*6D
$PYRTM,2024,123.170255221933,14.279902632072
$GPGGA,040508.00,3408.1895,N,11951.6318,W,1,09,0.8,16.7,M,-33.5,M,,*65
$PYRTM,2024,123.170266333530,14.279913743681
$GPGGA,040509.00,3408.1902,N,11951.6340,W,1,09,0.8,19.1,M,-33.5,M,,*6F
$PYRTM,2024,123.170277444178,14.279924854306
$GPGGA,040510.00,3408.1907,N,11951.6362,W,1,09,0.8,19.5,M,-33.5,M,,*66
$PYRTM,2024,123.170288555417,14.279935965556
$GPGGA,040511.00,3408.1913,N,11951.6387,W,1,09,0.8,18.5,M,-33.5,M,,*68
$PYRTM,2024,123.170299799421,14.279947209560
$GPGGA,040512.00,3408.1917,N,11951.6413,W,1,09,0.8,15.1,M,-33.5,M,,*6C
$PYRTM,2024,123.170310907743,14.279958317882
$GPGGA,040513.00,3408.1922,N,11951.6437,W,1,09,0.8,14.4,M,-33.5,M,,*69
$PYRTM,2024,123.170322007164,14.279969417303
$GPGGA,040514.00,3408.1929,N,11951.6460,W,1,09,0.8,13.7,M,-33.5,M,,*63
$PYRTM,2024,123.170333131852,14.279980541991
$GPGGA,040515.00,3408.1936,N,11951.6482,W,1,09,0.8,15.4,M,-33.5,M,,*65
$PYRTM,2024,123.170344358009,14.279991768148
$GPGGA,040516.00,3408.1941,N,11951.6505,W,1,09,0.8,17.7,M,-33.5,M,,*69
$PYRTM,2024,123.170355482488,14.280002892627
$GPGGA,040517.00,3408.1945,N,11951.6531,W,1,09,0.8,19.4,M,-33.5,M,,*66
$PYRTM,2024,123.170366575231,14.280013985370
$GPGGA,040518.00,3408.1952,N,11951.6560,W,1,09,0.8,19.9,M,-33.5,M,,*66
$PYRTM,2024,123.170377694421,14.280025104560
$GPGGA,040519.00,3408.1960,N,11951.6583,W,1,09,0.8,19.1,M,-33.5,M,,*63
$PYRTM,2024,123.170388919155,14.280036329294
$GPGGA,040520.00,3408.1966,N,11951.6602,W,1,09,0.8,18.8,M,-33.5,M,,*6D
$PYRTM,2024,123.170400028981,14.280047439120
$GPGGA,040521.00,3408.1970,N,11951.6624,W,1,09,0.8,22.0,M,-33.5,M,,*6E
$PYRTM,2024,123.170411143206,14.280058553345
$GPGGA,040522.00,3408.1974,N,11951.6652,W,1,09,0.8,18.5,M,-33.5,M,,*64
$PYRTM,2024,123.170422246933,14.280069657072
$GPGGA,040523.00,3408.1981,N,11951.6680,W,1,09,0.8,18.3,M,-33.5,M,,*66
$PYRTM,2024,123.170433478981,14.280080889120
$GPGGA,040524.00,3408.1988,N,11951.6702,W,1,09,0.8,19.0,M,-33.5,M,,*61
$PYRTM,2024,123.170444589954,14.280092000104
$GPGGA,040525.00,3408.1994,N,11951.6721,W,1,09,0.8,21.0,M,-33.5,M,,*67
$PYRTM,2024,123.170462400602,14.280109810741
$GPGGA,040526.00,3408.1999,N,11951.6744,W,1,09,0.8,20.8,M,-33.5,M,,*63
$PYRTM,2024,123.170473513750,14.280120923889
$GPGGA,040527.00,3408.2003,N,11951.6770,W,1,09,0.8,20.7,M,-33.5,M,,*63
$PYRTM,2024,123.170484739063,14.280132149201
$GPGGA,040528.00,3408.2008,N,11951.6793,W,1,09,0.8,21.5,M,-33.5,M,,*69
$PYRTM,2024,123.170495850093,14.280143260231
$GPGGA,040529.00,3408.2013,N,11951.6814,W,1,09,0.8,19.6,M,-33.5,M,,*6A
$PYRTM,2024,123.170507432847,14.280154842986
$GPGGA,040530.00,3408.2019,N,11951.6840,W,1,09,0.8,19.2,M,-33.5,M,,*6D
$PYRTM,2024,123.170518551840,14.280165961979
$GPGGA,040531.00,3408.2025,N,11951.6865,W,1,09,0.8,21.9,M,-33.5,M,,*64
$PYRTM,2024,123.170534740035,14.280182150174
$GPGGA,040532.00,3408.2029,N,11951.6887,W,1,09,0.8,21.7,M,-33.5,M,,*69
$PYRTM,2024,123.170545850938,14.280193261076
$GPGGA,040533.00,3408.2033,N,11951.6910,W,1,09,0.8,21.3,M,-33.5,M,,*68
$PYRTM,2024,123.170556960694,14.280204370833
$GPGGA,040534.00,3408.2040,N,11951.6938,W,1,09,0.8,20.2,M,-33.5,M,,*61
$PYRTM,2024,123.170568072315,14.280215482454
$GPGGA,040535.00,3408.2048,N,11951.6966,W,1,09,0.8,18.0,M,-33.5,M,,*6A
$PYRTM,2024,123.170579299063,14.280226709213
$GPGGA,040536.00,3408.2054,N,11951.6989,W,1,09,0.8,18.6,M,-33.5,M,,*63
$PYRTM,2024,123.170590410127,14.280237820266
$GPGGA,040537.00,3408.2060,N,11951.7009,W,1,09,0.8,21.9,M,-33.5,M,,*60
$PYRTM,2024,123.170601521169,14.280248931308
$GPGGA,040538.00,3408.2067,N,11951.7033,W,1,09,0.8,20.7,M,-33.5,M,,*6E
$PYRTM,2024,123.170612632847,14.280260042986
$GPGGA,040539.00,3408.2074,N,11951.7061,W,1,09,0.8,21.2,M,-33.5,M,,*6E
$PYRTM,2024,123.170623875660,14.280271285799
$GPGGA,040540.00,3408.2080,N,11951.7087,W,1,09,0.8,19.4,M,-33.5,M,,*6E
$PYRTM,2024,123.170634979525,14.280282389664
$GPGGA,040541.00,3408.2086,N,11951.7109,W,1,09,0.8,21.7,M,-33.5,M,,*66
$PYRTM,2024,123.170646099317,14.280293509456
$GPGGA,040542.00,3408.2092,N,11951.7133,W,1,09,0.8,22.5,M,-33.5,M,,*68
$PYRTM,2024,123.170657443391,14.280304853530
$GPGGA,040543.00,3408.2099,N,11951.7162,W,1,09,0.8,20.1,M,-33.5,M,,*60
$PYRTM,2024,123.170669000972,14.280316411111
$GPGGA,040544.00,3408.2106,N,11951.7191,W,1,09,0.8,18.5,M,-33.5,M,,*63
$PYRTM,2024,123.170680588345,14.280327998484
$GPGGA,040545.00,3408.2111,N,11951.7215,W,1,09,0.8,16.5,M,-33.5,M,,*65
$PYRTM,2024,123.170692149815,14.280339559954
$GPGGA,040546.00,3408.2115,N,11951.7235,W,1,09,0.8,17.3,M,-33.5,M,,*67
$PYRTM,2024,123.170703738183,14.280351148322
$GPGGA,040547.00,3408.2120,N,11951.7256,W,1,09,0.8,17.3,M,-33.5,M,,*65
$PYRTM,2024,123.170715297326,14.280362707465
$GPGGA,040548.00,3408.2125,N,11951.7281,W,1,09,0.8,16.4,M,-33.5,M,,*63
$PYRTM,2024,123.170726883148,14.280374293287
$GPGGA,040549.00,3408.2132,N,11951.7306,W,1,09,0.8,15.8,M,-33.5,M,,*65
$PYRTM,2024,123.170738444375,14.280385854514
$GPGGA,040550.00,3408.2138,N,11951.7330,W,1,09,0.8,16.0,M,-33.5,M,,*69
$PYRTM,2024,123.170750026551,14.280397436690
$GPGGA,040551.00,3408.2143,N,11951.7352,W,1,09,0.8,17.5,M,-33.5,M,,*64
$PYRTM,2024,123.170761593970,14.280409004109
$GPGGA,040552.00,3408.2148,N,11951.7374,W,1,09,0.8,18.9,M,-33.5,M,,*6B
$PYRTM,2024,123.170773174884,14.280420585035
$GPGGA,040553.00,3408.2152,N,11951.7398,W,1,09,0.8,19.6,M,-33.5,M,,*6D
$PYRTM,2024,123.170784741250,14.280432151400
$GPGGA,040554.00,3408.2159,N,11951.7423,W,1,09,0.8,19.0,M,-33.5,M,,*60
$PYRTM,2024,123.170796330729,14.280443740868
$GPGGA,040555.00,3408.2164,N,11951.7447,W,1,09,0.8,19.6,M,-33.5,M,,*6B
$PYRTM,2024,123.170807888704,14.280455298843
$GPGGA,040556.00,3408.2169,N,11951.7467,W,1,09,0.8,22.5,M,-33.5,M,,*6C
$PYRTM,2024,123.170819472083,14.280466882234
$GPGGA,040557.00,3408.2177,N,11951.7488,W,1,09,0.8,22.9,M,-33.5,M,,*6F
$PYRTM,2024,123.170831039375,14.280478449514
$GPGGA,040558.00,3408.2184,N,11951.7516,W,1,09,0.8,20.0,M,-33.5,M,,*61
$PYRTM,2024,123.170843074433,14.280490484572
$GPGGA,040559.00,3408.2191,N,11951.7543,W,1,09,0.8,20.0,M,-33.5,M,,*64
$PYRTM,2024,123.170854416667,14.280501826806
$GPGGA,040600.00,3408.2195,N,11951.7564,W,1,09,0.8,21.2,M,-33.5,M,,*69
$PYRTM,2024,123.170865767789,14.280513177928
$GPGGA,040601.00,3408.2199,N,11951.7585,W,1,09,0.8,24.8,M,-33.5,M,,*64
$PYRTM,2024,123.170875958356,14.280523368495
$GPGGA,040602.00,3408.2205,N,11951.7613,W,1,09,0.8,23.6,M,-33.5,M,,*64
$PYRTM,2024,123.170887750058,14.280535160197
$GPGGA,040603.00,3408.2211,N,11951.7645,W,1,09,0.8,21.7,M,-33.5,M,,*60
$PYRTM,2024,123.170899338299,14.280546748438
$GPGGA,040604.00,3408.2216,N,11951.7667,W,1,09,0.8,21.9,M,-33.5,M,,*6E
$PYRTM,2024,123.170912072847,14.280559482986
$GPGGA,040605.00,3408.2220,N,11951.7685,W,1,09,0.8,22.2,M,-33.5,M,,*6E
$PYRTM,2024,123.170923631887,14.280571042025
$GPGGA,040606.00,3408.2225,N,11951.7710,W,1,09,0.8,19.9,M,-33.5,M,,*66
$PYRTM,2024,123.170935218495,14.280582628634
$GPGGA,040607.00,3408.2232,N,11951.7738,W,1,09,0.8,19.8,M,-33.5,M,,*6A
$PYRTM,2024,123.170946778785,14.280594188935
$GPGGA,040608.00,3408.2237,N,11951.7761,W,1,09,0.8,20.5,M,-33.5,M,,*6B
$PYRTM,2024,123.170958361007,14.280605771146
$GPGGA,040609.00,3408.2242,N,11951.7781,W,1,09,0.8,22.4,M,-33.5,M,,*65
$PYRTM,2024,123.170969927882,14.280617338021
$GPGGA,040610.00,3408.2247,N,11951.7806,W,1,09,0.8,19.4,M,-33.5,M,,*60
$PYRTM,2024,123.170981514201,14.280628924340
$GPGGA,040611.00,3408.2253,N,11951.7835,W,1,09,0.8,17.9,M,-33.5,M,,*67
$PYRTM,2024,123.170993076227,14.280640486366
$GPGGA,040612.00,3408.2260,N,11951.7858,W,1,09,0.8,17.7,M,-33.5,M,,*61
$PYRTM,2024,123.171004657315,14.280652067454
$GPGGA,040613.00,3408.2266,N,11951.7876,W,1,09,0.8,20.5,M,-33.5,M,,*6C
$PYRTM,2024,123.171016224317,14.280663634456
$GPGGA,040614.00,3408.2273,N,11951.7900,W,1,09,0.8,22.2,M,-33.5,M,,*6A
$PYRTM,2024,123.171027807106,14.280675217245
$GPGGA,040615.00,3408.2280,N,11951.7927,W,1,09,0.8,22.7,M,-33.5,M,,*67
$PYRTM,2024,123.171039372245,14.280686782384
$GPGGA,040616.00,3408.2286,N,11951.7951,W,1,09,0.8,22.4,M,-33.5,M,,*60
$PYRTM,2024,123.171050962928,14.280698373067
$GPGGA,040617.00,3408.2292,N,11951.7969,W,1,09,0.8,22.2,M,-33.5,M,,*69
$PYRTM,2024,123.171062520891,14.280709931030
$GPGGA,040618.00,3408.2297,N,11951.7986,W,1,09,0.8,23.3,M,-33.5,M,,*62
$PYRTM,2024,123.171074110463,14.280721520602
$GPGGA,040619.00,3408.2303,N,11951.8008,W,1,09,0.8,21.0,M,-33.5,M,,*6E
$PYRTM,2024,123.171085669028,14.280733079178
$GPGGA,040620.00,3408.2309,N,11951.8033,W,1,09,0.8,19.0,M,-33.5,M,,*6D
$PYRTM,2024,123.171097255382,14.280744665521
$GPGGA,040621.00,3408.2314,N,11951.8058,W,1,09,0.8,18.0,M,-33.5,M,,*6C
$PYRTM,2024,123.171109178808,14.280756588947
$GPGGA,040622.00,3408.2318,N,11951.8080,W,1,09,0.8,20.4,M,-33.5,M,,*69
$PYRTM,2024,123.171120399039,14.280767809178
$GPGGA,040623.00,3408.2324,N,11951.8101,W,1,09,0.8,23.0,M,-33.5,M,,*68
$PYRTM,2024,123.171131964988,14.280779375127
$GPGGA,040624.00,3408.2330,N,11951.8125,W,1,09,0.8,24.2,M,-33.5,M,,*69
$PYRTM,2024,123.171143547442,14.280790957581
$GPGGA,040625.00,3408.2336,N,11951.8151,W,1,09,0.8,21.5,M,-33.5,M,,*6F
$PYRTM,2024,123.171155114387,14.280802524525
$GPGGA,040626.00,3408.2340,N,11951.8174,W,1,09,0.8,20.9,M,-33.5,M,,*67
$PYRTM,2024,123.171166696551,14.280814106690
$GPGGA,040627.00,3408.2344,N,11951.8194,W,1,09,0.8,20.9,M,-33.5,M,,*6C
$PYRTM,2024,123.171178262558,14.280825672697
$GPGGA,040628.00,3408.2349,N,11951.8218,W,1,09,0.8,20.2,M,-33.5,M,,*62
$PYRTM,2024,123.171189848681,14.280837258819
$GPGGA,040629.00,3408.2356,N,11951.8244,W,1,09,0.8,21.9,M,-33.5,M,,*6E
$PYRTM,2024,123.171201886632,14.280849296771
$GPGGA,040630.00,3408.2362,N,11951.8270,W,1,09,0.8,18.3,M,-33.5,M,,*66
$PYRTM,2024,123.171213343993,14.280860754132
$GPGGA,040631.00,3408.2367,N,11951.8294,W,1,09,0.8,19.9,M,-33.5,M,,*63
$PYRTM,2024,123.171223177315,14.280870587454
$GPGGA,040632.00,3408.2373,N,11951.8316,W,1,09,0.8,20.2,M,-33.5,M,,*6F
$PYRTM,2024,123.171234974687,14.280882384826
$GPGGA,040633.00,3408.2378,N,11951.8340,W,1,09,0.8,20.3,M,-33.5,M,,*67
$PYRTM,2024,123.171247707859,14.280895117998
$GPGGA,040634.00,3408.2385,N,11951.8367,W,1,09,0.8,18.0,M,-33.5,M,,*6F
$PYRTM,2024,123.171259307650,14.280906717789
$GPGGA,040635.00,3408.2392,N,11951.8392,W,1,09,0.8,18.8,M,-33.5,M,,*6A
$PYRTM,2024,123.171270854884,14.280918265023
$GPGGA,040636.00,3408.2397,N,11951.8413,W,1,09,0.8,20.5,M,-33.5,M,,*64
$PYRTM,2024,123.171282443009,14.280929853160
$GPGGA,040637.00,3408.2405,N,11951.8433,W,1,09,0.8,20.3,M,-33.5,M,,*6D
$PYRTM,2024,123.171294003252,14.280941413403
$GPGGA,040638.00,3408.2412,N,11951.8458,W,1,09,0.8,19.3,M,-33.5,M,,*63
$PYRTM,2024,123.171305594190,14.280953004340
$GPGGA,040639.00,3408.2419,N,11951.8487,W,1,09,0.8,17.1,M,-33.5,M,,*67
$PYRTM,2024,123.171317151204,14.280964561343
$GPGGA,040640.00,3408.2424,N,11951.8514,W,1,09,0.8,16.5,M,-33.5,M,,*69
$PYRTM,2024,123.171328738530,14.280976148669
$GPGGA,040641.00,3408.2430,N,11951.8534,W,1,09,0.8,18.2,M,-33.5,M,,*66
$PYRTM,2024,123.171340299722,14.280987709861
$GPGGA,040642.00,3408.2438,N,11951.8554,W,1,09,0.8,20.7,M,-33.5,M,,*65
$PYRTM,2024,123.171351882106,14.280999292257
$GPGGA,040643.00,3408.2445,N,11951.8580,W,1,09,0.8,18.9,M,-33.5,M,,*62
$PYRTM,2024,123.171363448530,14.281010858669
$GPGGA,040644.00,3408.2450,N,11951.8606,W,1,09,0.8,17.7,M,-33.5,M,,*6D
$PYRTM,2024,123.171375034525,14.281022444664
$GPGGA,040645.00,3408.2454,N,11951.8631,W,1,09,0.8,17.2,M,-33.5,M,,*69
$PYRTM,2024,123.171386597188,14.281034007326
$GPGGA,040646.00,3408.2458,N,11951.8653,W,1,09,0.8,17.4,M,-33.5,M,,*64
$PYRTM,2024,123.171398185405,14.281045595544
$GPGGA,040647.00,3408.2463,N,11951.8677,W,1,09,0.8,20.1,M,-33.5,M,,*6A
$PYRTM,2024,123.171409745613,14.281057155752
$GPGGA,040648.00,3408.2470,N,11951.8702,W,1,09,0.8,19.4,M,-33.5,M,,*6B
$PYRTM,2024,123.171421346887,14.281068757025
$GPGGA,040649.00,3408.2476,N,11951.8725,W,1,09,0.8,19.6,M,-33.5,M,,*6B
$PYRTM,2024,123.171432891921,14.281080302060
$GPGGA,040650.00,3408.2481,N,11951.8749,W,1,09,0.8,17.9,M,-33.5,M,,*60
$PYRTM,2024,123.171444480185,14.281091890324
$GPGGA,040651.00,3408.2487,N,11951.8772,W,1,09,0.8,19.5,M,-33.5,M,,*6D
$PYRTM,2024,123.171456041759,14.281103451898
$GPGGA,040652.00,3408.2493,N,11951.8796,W,1,09,0.8,20.5,M,-33.5,M,,*6B
$PYRTM,2024,123.171467627859,14.281115037998
$GPGGA,040653.00,3408.2499,N,11951.8818,W,1,09,0.8,21.5,M,-33.5,M,,*68
$PYRTM,2024,123.171479189213,14.281126599352
$GPGGA,040654.00,3408.2505,N,11951.8841,W,1,09,0.8,19.9,M,-33.5,M,,*60
$PYRTM,2024,123.171490777488,14.281138187627
$GPGGA,040655.00,3408.2512,N,11951.8866,W,1,09,0.8,17.7,M,-33.5,M,,*62
$PYRTM,2024,123.171502337292,14.281149747442
$GPGGA,040656.00,3408.2520,N,11951.8892,W,1,09,0.8,18.5,M,-33.5,M,,*66
$PYRTM,2024,123.171513925255,14.281161335394
$GPGGA,040657.00,3408.2525,N,11951.8914,W,1,09,1.0,19.3,M,-33.5,M,,*63
$PYRTM,2024,123.171525486574,14.281172896713
$GPGGA,040658.00,3408.2529,N,11951.8935,W,1,09,1.0,20.5,M,-33.5,M,,*6F
$PYRTM,2024,123.171537067905,14.281184478044
$GPGGA,040659.00,3408.2534,N,11951.8962,W,1,09,1.0,20.4,M,-33.5,M,,*61
$PYRTM,2024,123.171548634907,14.281196045046
$GPGGA,040700.00,3408.2541,N,11951.8991,W,1,09,1.0,20.9,M,-33.5,M,,*6F
$PYRTM,2024,123.171560672766,14.281208082905
$GPGGA,040701.00,3408.2548,N,11951.9014,W,1,09,1.0,21.3,M,-33.5,M,,*69
$PYRTM,2024,123.171570972257,14.281218382384
$GPGGA,040702.00,3408.2554,N,11951.9034,W,1,09,1.0,21.4,M,-33.5,M,,*62
$PYRTM,2024,123.171582198264,14.281229608403
$GPGGA,040703.00,3408.2560,N,11951.9057,W,1,09,1.0,21.1,M,-33.5,M,,*64
$PYRTM,2024,123.171594930787,14.281242340926
$GPGGA,040704.00,3408.2567,N,11951.9085,W,1,09,1.0,19.3,M,-33.5,M,,*62
$PYRTM,2024,123.171606514317,14.281253924456
$GPGGA,040705.00,3408.2574,N,11951.9111,W,1,09,1.0,20.4,M,-33.5,M,,*60
$PYRTM,2024,123.171618079167,14.281265489306
$GPGGA,040706.00,3408.2581,N,11951.9135,W,1,09,1.0,19.8,M,-33.5,M,,*69
$PYRTM,2024,123.171628736481,14.281276146620
$GPGGA,040707.00,3408.2586,N,11951.9157,W,1,09,1.0,21.6,M,-33.5,M,,*6E
$PYRTM,2024,123.171640664525,14.281288074664
$GPGGA,040708.00,3408.2592,N,11951.9180,W,1,09,1.0,19.4,M,-33.5,M,,*67
$PYRTM,2024,123.171651413623,14.281298823762
$GPGGA,040709.00,3408.2599,N,11951.9206,W,1,09,1.0,19.0,M,-33.5,M,,*64
$PYRTM,2024,123.171662523704,14.281309933843
$GPGGA,040710.00,3408.2605,N,11951.9233,W,1,09,1.0,18.6,M,-33.5,M,,*6B
$PYRTM,2024,123.171673636725,14.281321046863
$GPGGA,040711.00,3408.2611,N,11951.9258,W,1,09,1.0,20.9,M,-33.5,M,,*66
$PYRTM,2024,123.171685222558,14.281332632697
$GPGGA,040712.00,3408.2616,N,11951.9282,W,1,09,1.0,20.0,M,-33.5,M,,*6C
$PYRTM,2024,123.171696464294,14.281343874433
$GPGGA,040713.00,3408.2622,N,11951.9304,W,1,09,1.0,20.2,M,-33.5,M,,*67
$PYRTM,2024,123.171707559838,14.281354969977
$GPGGA,040714.00,3408.2629,N,11951.9328,W,1,09,1.0,18.1,M,-33.5,M,,*6D
$PYRTM,2024,123.171718675289,14.281366085428
$GPGGA,040715.00,3408.2635,N,11951.9353,W,1,09,1.0,19.9,M,-33.5,M,,*64
$PYRTM,2024,123.171729784132,14.281377194306
$GPGGA,040716.00,3408.2641,N,11951.9381,W,1,09,1.0,17.5,M,-33.5,M,,*69
$PYRTM,2024,123.171741010417,14.281388420556
$GPGGA,040717.00,3408.2647,N,11951.9405,W,1,09,1.0,18.4,M,-33.5,M,,*6B
$PYRTM,2024,123.171752123808,14.281399533947
$GPGGA,040718.00,3408.2652,N,11951.9427,W,1,09,1.0,19.0,M,-33.5,M,,*65
$PYRTM,2024,123.171763234954,14.281410645093
$GPGGA,040719.00,3408.2658,N,11951.9451,W,1,09,1.0,18.6,M,-33.5,M,,*68
$PYRTM,2024,123.171774793507,14.281422203646
$GPGGA,040720.00,3408.2663,N,11951.9481,W,1,09,1.0,17.6,M,-33.5,M,,*68
$PYRTM,2024,123.171786380567,14.281433790718
$GPGGA,040721.00,3408.2668,N,11951.9509,W,1,09,1.0,17.3,M,-33.5,M,,*66
$PYRTM,2024,123.171797940961,14.281445351100
$GPGGA,040722.00,3408.2673,N,11951.9532,W,1,09,1.0,20.4,M,-33.5,M,,*64
$PYRTM,2024,123.171809529144,14.281456939282
$GPGGA,040723.00,3408.2678,N,11951.9553,W,1,09,1.0,21.1,M,-33.5,M,,*6D
$PYRTM,2024,123.171821088553,14.281468498692
$GPGGA,040724.00,3408.2685,N,11951.9578,W,1,09,1.0,21.1,M,-33.5,M,,*61
$PYRTM,2024,123.171832678299,14.281480088437
$GPGGA,040725.00,3408.2692,N,11951.9606,W,1,09,1.0,21.2,M,-33.5,M,,*6F
$PYRTM,2024,123.171844237106,14.281491647245
$GPGGA,040726.00,3408.2698,N,11951.9633,W,1,09,1.0,18.5,M,-33.5,M,,*6D
$PYRTM,2024,123.171855826713,14.281503236852
$GPGGA,040727.00,3408.2703,N,11951.9657,W,1,09,1.0,20.4,M,-33.5,M,,*67
$PYRTM,2024,123.171867386586,14.281514796725
$GPGGA,040728.00,3408.2705,N,11951.9679,W,1,09,1.0,21.9,M,-33.5,M,,*6E
$PYRTM,2024,123.171878972778,14.281526382917
$GPGGA,040729.00,3408.2710,N,11951.9706,W,1,09,1.0,22.6,M,-33.5,M,,*6E
$PYRTM,2024,123.171890532859,14.281537942998
$GPGGA,040730.00,3408.2716,N,11951.9734,W,1,09,1.0,22.5,M,-33.5,M,,*62
$PYRTM,2024,123.171902120984,14.281549531123
$GPGGA,040731.00,3408.2722,N,11951.9759,W,1,09,1.0,22.3,M,-33.5,M,,*69
$PYRTM,2024,123.171919007836,14.281566417975
$GPGGA,040732.00,3408.2727,N,11951.9784,W,1,09,1.0,19.9,M,-33.5,M,,*6D
$PYRTM,2024,123.171930712627,14.281578122766
$GPGGA,040733.00,3408.2733,N,11951.9810,W,1,09,1.0,22.5,M,-33.5,M,,*6F
$PYRTM,2024,123.171942158715,14.281589568854
$GPGGA,040734.00,3408.2740,N,11951.9835,W,1,09,1.0,22.8,M,-33.5,M,,*66
$PYRTM,2024,123.171953747801,14.281601157940
$GPGGA,040735.00,3408.2748,N,11951.9860,W,1,09,1.0,21.5,M,-33.5,M,,*61
$PYRTM,2024,123.171965304259,14.281612714398
$GPGGA,040736.00,3408.2755,N,11951.9886,W,1,09,1.0,20.9,M,-33.5,M,,*6B
$PYRTM,2024,123.171976890637,14.281624300775
$GPGGA,040737.00,3408.2758,N,11951.9910,W,1,09,1.0,20.3,M,-33.5,M,,*63
$PYRTM,2024,123.171988452234,14.281635862373
$GPGGA,040738.00,3408.2761,N,11951.9930,W,1,09,1.0,22.0,M,-33.5,M,,*65
$PYRTM,2024,123.172000038935,14.281647449074
$GPGGA,040739.00,3408.2766,N,11951.9955,W,1,09,1.0,22.8,M,-33.5,M,,*68
$PYRTM,2024,123.172011601609,14.281659011748
$GPGGA,040740.00,3408.2774,N,11951.9984,W,1,09,1.0,21.2,M,-33.5,M,,*60
$PYRTM,2024,123.172023187975,14.281670598113
$GPGGA,040741.00,3408.2781,N,11952.0012,W,1,09,1.0,20.3,M,-33.5,M,,*67
$PYRTM,2024,123.172034750926,14.281682161076
$GPGGA,040742.00,3408.2787,N,11952.0036,W,1,09,1.0,20.3,M,-33.5,M,,*64
$PYRTM,2024,123.172046331516,14.281693741655
$GPGGA,040743.00,3408.2793,N,11952.0059,W,1,09,1.0,22.6,M,-33.5,M,,*6E
$PYRTM,2024,123.172057896736,14.281705306875
$GPGGA,040744.00,3408.2799,N,11952.0083,W,1,09,1.0,24.4,M,-33.5,M,,*60
$PYRTM,2024,123.172069488287,14.281716898426
$GPGGA,040745.00,3408.2806,N,11952.0108,W,1,09,1.0,21.9,M,-33.5,M,,*62
$PYRTM,2024,123.172081046076,14.281728456215
$GPGGA,040746.00,3408.2811,N,11952.0132,W,1,09,1.0,21.5,M,-33.5,M,,*62
$PYRTM,2024,123.172092635509,14.281740045648
$GPGGA,040747.00,3408.2817,N,11952.0157,W,1,09,1.0,21.5,M,-33.5,M,,*66
$PYRTM,2024,123.172104195880,14.281751606030
$GPGGA,040748.00,3408.2823,N,11952.0181,W,1,09,0.8,19.3,M,-33.5,M,,*61
$PYRTM,2024,123.172115775880,14.281763186019
$GPGGA,040749.00,3408.2828,N,11952.0205,W,1,09,1.0,20.3,M,-33.5,M,,*67
$PYRTM,2024,123.172127341701,14.281774751840
$GPGGA,040750.00,3408.2834,N,11952.0231,W,1,09,1.0,19.3,M,-33.5,M,,*6F
$PYRTM,2024,123.172138929317,14.281786339456
$GPGGA,040751.00,3408.2839,N,11952.0257,W,1,09,0.8,18.4,M,-33.5,M,,*6C
$PYRTM,2024,123.172150489988,14.281797900127
$GPGGA,040752.00,3408.2845,N,11952.0283,W,1,09,0.8,17.5,M,-33.5,M,,*63
$PYRTM,2024,123.172162071887,14.281809482025
$GPGGA,040753.00,3408.2849,N,11952.0308,W,1,09,0.8,16.8,M,-33.5,M,,*60
$PYRTM,2024,123.172173638565,14.281821048704
$GPGGA,040754.00,3408.2853,N,11952.0335,W,1,09,0.8,18.9,M,-33.5,M,,*6D
$PYRTM,2024,123.172185220602,14.281832630741
$GPGGA,040755.00,3408.2860,N,11952.0362,W,1,09,0.8,19.6,M,-33.5,M,,*60
$PYRTM,2024,123.172196788380,14.281844198519
$GPGGA,040756.00,3408.2869,N,11952.0390,W,1,09,0.8,17.2,M,-33.5,M,,*6D
$PYRTM,2024,123.172208374097,14.281855784236
$GPGGA,040757.00,3408.2877,N,11952.0414,W,1,09,0.8,16.4,M,-33.5,M,,*6F
$PYRTM,2024,123.172219935127,14.281867345266
$GPGGA,040758.00,3408.2882,N,11952.0438,W,1,09,0.8,18.7,M,-33.5,M,,*69
$PYRTM,2024,123.172231525058,14.281878935197
$GPGGA,040759.00,3408.2888,N,11952.0465,W,1,09,0.8,18.6,M,-33.5,M,,*6B
$PYRTM,2024,123.172243083600,14.281890493738
$GPGGA,040800.00,3408.2896,N,11952.0494,W,1,09,0.8,17.1,M,-33.5,M,,*61
$PYRTM,2024,123.172254671053,14.281902081192
$GPGGA,040801.00,3408.2905,N,11952.0521,W,1,09,0.8,17.8,M,-33.5,M,,*6D
$PYRTM,2024,123.172265307257,14.281912717396
$GPGGA,040802.00,3408.2911,N,11952.0544,W,1,09,0.8,15.1,M,-33.5,M,,*63
$PYRTM,2024,123.172277124699,14.281924534838
$GPGGA,040803.00,3408.2916,N,11952.0568,W,1,09,0.8,15.9,M,-33.5,M,,*63
$PYRTM,2024,123.172289609664,14.281937019803
$GPGGA,040804.00,3408.2924,N,11952.0596,W,1,09,0.8,17.6,M,-33.5,M,,*69
$PYRTM,2024,123.172300963796,14.281948373935
$GPGGA,040805.00,3408.2933,N,11952.0624,W,1,09,0.8,17.1,M,-33.5,M,,*63
$PYRTM,2024,123.172312528634,14.281959938773
$GPGGA,040806.00,3408.2940,N,11952.0646,W,1,09,0.8,15.9,M,-33.5,M,,*6A
$PYRTM,2024,123.172324131204,14.281971541343
$GPGGA,040807.00,3408.2945,N,11952.0668,W,1,09,0.8,16.8,M,-33.5,M,,*60
$PYRTM,2024,123.172335675845,14.281983085984
$GPGGA,040808.00,3408.2950,N,11952.0697,W,1,09,0.8,16.8,M,-33.5,M,,*6B
$PYRTM,2024,123.172347266238,14.281994676377
$GPGGA,040809.00,3408.2957,N,11952.0726,W,1,09,0.8,16.0,M,-33.5,M,,*6E
$PYRTM,2024,123.172358824236,14.282006234375
$GPGGA,040810.00,3408.2963,N,11952.0748,W,1,09,0.8,17.4,M,-33.5,M,,*6C
$PYRTM,2024,123.172370411609,14.282017821748
$GPGGA,040811.00,3408.2969,N,11952.0767,W,1,09,0.8,18.0,M,-33.5,M,,*61
$PYRTM,2024,123.172381977419,14.282029387558
$GPGGA,040812.00,3408.2974,N,11952.0791,W,1,09,0.8,17.0,M,-33.5,M,,*68
$PYRTM,2024,123.172393554618,14.282040964757
$GPGGA,040813.00,3408.2977,N,11952.0820,W,1,09,0.8,15.8,M,-33.5,M,,*65
$PYRTM,2024,123.172405120764,14.282052530903
$GPGGA,040814.00,3408.2982,N,11952.0849,W,1,09,0.8,13.9,M,-33.5,M,,*60
$PYRTM,2024,123.172416708137,14.282064118275
$GPGGA,040815.00,3408.2988,N,11952.0870,W,1,09,0.8,16.2,M,-33.5,M,,*6F
$PYRTM,2024,123.172428268877,14.282075679016
$GPGGA,040816.00,3408.2994,N,11952.0886,W,1,09,0.8,18.3,M,-33.5,M,,*67
$PYRTM,2024,123.172439857292,14.282087267431
$GPGGA,040817.00,3408.2998,N,11952.0910,W,1,09,0.8,17.0,M,-33.5,M,,*68
$PYRTM,2024,123.172451417789,14.282098827940
$GPGGA,040818.00,3408.3004,N,11952.0940,W,1,09,0.8,16.7,M,-33.5,M,,*69
$PYRTM,2024,123.172463004942,14.282110415081
$GPGGA,040819.00,3408.3010,N,11952.0966,W,1,09,0.8,16.9,M,-33.5,M,,*67
$PYRTM,2024,123.172474567951,14.282121978090
$GPGGA,040820.00,3408.3017,N,11952.0988,W,1,09,0.8,19.5,M,-33.5,M,,*69
$PYRTM,2024,123.172486148600,14.282133558738
$GPGGA,040821.00,3408.3023,N,11952.1011,W,1,09,0.8,17.2,M,-33.5,M,,*6E
$PYRTM,2024,123.172497714560,14.282145124699
$GPGGA,040822.00,3408.3029,N,11952.1038,W,1,09,0.8,15.8,M,-33.5,M,,*64
$PYRTM,2024,123.172509305428,14.282156715567
$GPGGA,040823.00,3408.3034,N,11952.1066,W,1,09,0.8,18.1,M,-33.5,M,,*66
$PYRTM,2024,123.172520862928,14.282168273079
$GPGGA,040824.00,3408.3040,N,11952.1091,W,1,09,0.8,18.8,M,-33.5,M,,*63
$PYRTM,2024,123.172532452164,14.282179862303
$GPGGA,040825.00,3408.3047,N,11952.1116,W,1,09,0.8,22.6,M,-33.5,M,,*6C
$PYRTM,2024,123.172544010579,14.282191420718
$GPGGA,040826.00,3408.3054,N,11952.1140,W,1,09,0.8,21.1,M,-33.5,M,,*6A
$PYRTM,2024,123.172555599514,14.282203009664
$GPGGA,040827.00,3408.3058,N,11952.1165,W,1,09,0.8,19.9,M,-33.5,M,,*63
$PYRTM,2024,123.172567158669,14.282214568808
$GPGGA,040828.00,3408.3063,N,11952.1190,W,1,09,0.8,20.3,M,-33.5,M,,*6E
$PYRTM,2024,123.172578748808,14.282226158947
$GPGGA,040829.00,3408.3069,N,11952.1214,W,1,09,0.8,19.1,M,-33.5,M,,*62
$PYRTM,2024,123.172590308264,14.282237718403
$GPGGA,040830.00,3408.3076,N,11952.1238,W,1,09,0.8,21.4,M,-33.5,M,,*64
$PYRTM,2024,123.172601894977,14.282249305116
$GPGGA,040831.00,3408.3082,N,11952.1262,W,1,09,0.8,19.8,M,-33.5,M,,*66
$PYRTM,2024,123.172612074977,14.282259485127
$GPGGA,040832.00,3408.3087,N,11952.1288,W,1,09,0.8,18.3,M,-33.5,M,,*6E
$PYRTM,2024,123.172624348113,14.282271758252
$GPGGA,040833.00,3408.3092,N,11952.1313,W,1,09,0.8,19.1,M,-33.5,M,,*6B
$PYRTM,2024,123.172636959618,14.282284369757
$GPGGA,040834.00,3408.3098,N,11952.1338,W,1,09,0.8,19.6,M,-33.5,M,,*68
$PYRTM,2024,123.172648194919,14.282295605058
$GPGGA,040835.00,3408.3106,N,11952.1366,W,1,09,0.8,20.7,M,-33.5,M,,*6F
