$PYRTM,2024,126.000009195428,17.109656605579
$GPGGA,235959.00,3447.6913,N,12139.0213,W,1,10,0.8,16.7,M,-33.4,M,,*6E
$PYRTM,2024,126.000020549931,17.109667960069
$GPGGA,000000.00,3447.6896,N,12139.0192,W,1,10,0.8,15.6,M,-33.4,M,,*6B
$PYRTM,2024,126.000032124907,17.109679535058
$GPGGA,000001.00,3447.6878,N,12139.0177,W,1,10,0.8,14.7,M,-33.4,M,,*61
$PYRTM,2024,126.000043699525,17.109691109664
$GPGGA,000002.00,3447.6862,N,12139.0163,W,1,10,0.8,13.2,M,-33.4,M,,*6E
$PYRTM,2024,126.000055272697,17.109702682836
$GPGGA,000003.00,3447.6846,N,12139.0147,W,1,10,0.8,13.3,M,-33.4,M,,*6E
$PYRTM,2024,126.000066850081,17.109714260231
$GPGGA,000004.00,3447.6830,N,12139.0132,W,1,10,0.8,8.5,M,-33.4,M,,*56
$PYRTM,2024,126.000078421620,17.109725831759
$GPGGA,000005.00,3447.6812,N,12139.0119,W,1,10,0.8,9.6,M,-33.4,M,,*5C
$PYRTM,2024,126.000090011285,17.109737421435
$GPGGA,000006.00,3447.6794,N,12139.0105,W,1,10,0.8,13.0,M,-33.4,M,,*6E
$PYRTM,2024,126.000101569618,17.109748979769
$GPGGA,000007.00,3447.6776,N,12139.0090,W,1,10,0.8,14.6,M,-33.4,M,,*6F
$PYRTM,2024,126.000113142824,17.109760552963
$GPGGA,000008.00,3447.6760,N,12139.0072,W,1,10,0.8,14.3,M,-33.4,M,,*6E
$PYRTM,2024,126.000123328634,17.109770738773
$GPGGA,000009.00,3447.6744,N,12139.0054,W,1,10,0.8,14.7,M,-33.4,M,,*69
$PYRTM,2024,126.000135120509,17.109782530648
$GPGGA,000010.00,3447.6727,N,12139.0035,W,1,10,0.8,15.5,M,-33.4,M,,*60
$PYRTM,2024,126.000147865475,17.109795275613
$GPGGA,000011.00,3447.6709,N,12139.0019,W,1,10,0.8,14.7,M,-33.4,M,,*60
$PYRTM,2024,126.000159441829,17.109806851968
$GPGGA,000012.00,3447.6690,N,12139.0003,W,1,10,0.8,13.4,M,-33.4,M,,*6D
$PYRTM,2024,126.000171013866,17.109818424005
$GPGGA,000013.00,3447.6674,N,12138.9987,W,1,10,0.8,12.5,M,-33.4,M,,*6B
$PYRTM,2024,126.000182589317,17.109829999468
$GPGGA,000014.00,3447.6660,N,12138.9970,W,1,10,0.8,12.8,M,-33.4,M,,*6C
$PYRTM,2024,126.000194163461,17.109841573600
$GPGGA,000015.00,3447.6645,N,12138.9953,W,1,10,0.8,14.4,M,-33.4,M,,*61
$PYRTM,2024,126.000205737708,17.109853147847
$GPGGA,000016.00,3447.6629,N,12138.9935,W,1,10,0.8,12.4,M,-33.4,M,,*6E
$PYRTM,2024,126.000217310984,17.109864721123
$GPGGA,000017.00,3447.6612,N,12138.9917,W,1,10,0.8,14.5,M,-33.4,M,,*60
$PYRTM,2024,126.000228898461,17.109876308600
$GPGGA,000018.00,3447.6596,N,12138.9901,W,1,10,0.8,13.9,M,-33.4,M,,*6C
$PYRTM,2024,126.000240453461,17.109887863600
$GPGGA,000019.00,3447.6580,N,12138.9882,W,1,10,0.8,14.6,M,-33.4,M,,*68
$PYRTM,2024,126.000252036806,17.109899446944
$GPGGA,000020.00,3447.6564,N,12138.9862,W,1,10,0.8,14.8,M,-33.4,M,,*68
$PYRTM,2024,126.000263607234,17.109911017373
$GPGGA,000021.00,3447.6546,N,12138.9844,W,1,10,0.8,12.6,M,-33.4,M,,*65
$PYRTM,2024,126.000275182650,17.109922592789
$GPGGA,000022.00,3447.6528,N,12138.9827,W,1,10,0.8,13.2,M,-33.4,M,,*6E
$PYRTM,2024,126.000286743449,17.109934153588
$GPGGA,000023.00,3447.6511,N,12138.9810,W,1,10,0.8,12.5,M,-33.4,M,,*67
$PYRTM,2024,126.000298330637,17.109945740775
$GPGGA,000024.00,3447.6496,N,12138.9791,W,1,10,0.8,9.8,M,-33.4,M,,*5F
$PYRTM,2024,126.000309903715,17.109957313854
$GPGGA,000025.00,3447.6481,N,12138.9771,W,1,10,0.8,11.3,M,-33.4,M,,*64
$PYRTM,2024,126.000321477755,17.109968887905
$GPGGA,000026.00,3447.6466,N,12138.9751,W,1,10,0.8,12.7,M,-33.4,M,,*6B
$PYRTM,2024,126.000333052141,17.109980462280
$GPGGA,000027.00,3447.6449,N,12138.9734,W,1,10,0.8,11.1,M,-33.4,M,,*61
$PYRTM,2024,126.000344626435,17.109992036574
$GPGGA,000028.00,3447.6431,N,12138.9718,W,1,10,0.8,11.3,M,-33.4,M,,*6D
$PYRTM,2024,126.000356201366,17.110003611505
$GPGGA,000029.00,3447.6413,N,12138.9702,W,1,10,0.8,11.2,M,-33.4,M,,*66
$PYRTM,2024,126.000367776829,17.110015186968
$GPGGA,000030.00,3447.6398,N,12138.9682,W,1,10,0.8,12.0,M,-33.4,M,,*62
$PYRTM,2024,126.000379348900,17.110026759039
$GPGGA,000031.00,3447.6382,N,12138.9660,W,1,10,0.8,10.8,M,-33.4,M,,*6E
$PYRTM,2024,126.000390925150,17.110038335289
$GPGGA,000032.00,3447.6366,N,12138.9640,W,1,10,0.8,8.4,M,-33.4,M,,*50
$PYRTM,2024,126.000402492037,17.110049902187
$GPGGA,000033.00,3447.6348,N,12138.9620,W,1,10,0.8,10.1,M,-33.4,M,,*67
$PYRTM,2024,126.000414074699,17.110061484838
$GPGGA,000034.00,3447.6329,N,12138.9602,W,1,10,0.8,9.8,M,-33.4,M,,*56
$PYRTM,2024,126.000425645463,17.110073055602
$GPGGA,000035.00,3447.6312,N,12138.9585,W,1,10,0.8,12.6,M,-33.4,M,,*67
$PYRTM,2024,126.000437222303,17.110084632454
$GPGGA,000036.00,3447.6296,N,12138.9567,W,1,10,0.8,10.3,M,-33.4,M,,*62
$PYRTM,2024,126.000448792488,17.110096202627
$GPGGA,000037.00,3447.6280,N,12138.9551,W,1,10,0.8,11.4,M,-33.4,M,,*67
$PYRTM,2024,126.000460367975,17.110107778113
$GPGGA,000038.00,3447.6265,N,12138.9534,W,1,10,0.8,13.0,M,-33.4,M,,*66
$PYRTM,2024,126.000470557141,17.110117967280
$GPGGA,000039.00,3447.6250,N,12138.9519,W,1,10,0.8,11.5,M,-33.4,M,,*69
$PYRTM,2024,126.000482345208,17.110129755359
$GPGGA,000040.00,3447.6235,N,12138.9502,W,1,10,0.8,13.0,M,-33.4,M,,*69
$PYRTM,2024,126.000495089803,17.110142499942
$GPGGA,000041.00,3447.6219,N,12138.9484,W,1,10,0.8,12.4,M,-33.4,M,,*6C
$PYRTM,2024,126.000506663322,17.110154073461
$GPGGA,000042.00,3447.6203,N,12138.9465,W,1,10,0.8,13.0,M,-33.4,M,,*6E
$PYRTM,2024,126.000518238426,17.110165648565
$GPGGA,000043.00,3447.6187,N,12138.9446,W,1,10,0.8,12.2,M,-33.4,M,,*62
$PYRTM,2024,126.000529812963,17.110177223102
$GPGGA,000044.00,3447.6171,N,12138.9427,W,1,10,0.8,12.1,M,-33.4,M,,*68
$PYRTM,2024,126.000541389178,17.110188799317
$GPGGA,000045.00,3447.6154,N,12138.9409,W,1,10,0.8,12.5,M,-33.4,M,,*66
$PYRTM,2024,126.000552963611,17.110200373750
$GPGGA,000046.00,3447.6136,N,12138.9393,W,1,10,0.8,13.7,M,-33.4,M,,*66
$PYRTM,2024,126.000564534109,17.110211944248
$GPGGA,000047.00,3447.6119,N,12138.9376,W,1,10,0.8,10.8,M,-33.4,M,,*6D
$PYRTM,2024,126.000576122975,17.110223533113
$GPGGA,000048.00,3447.6102,N,12138.9358,W,1,10,0.8,13.8,M,-33.4,M,,*67
$PYRTM,2024,126.000588145162,17.110235555301
$GPGGA,000049.00,3447.6086,N,12138.9338,W,1,10,0.8,12.5,M,-33.4,M,,*61
$PYRTM,2024,126.000599720000,17.110247130139
$GPGGA,000050.00,3447.6071,N,12138.9318,W,1,10,0.8,11.8,M,-33.4,M,,*6D
$PYRTM,2024,126.000611289491,17.110258699630
$GPGGA,000051.00,3447.6056,N,12138.9298,W,1,10,0.8,10.4,M,-33.4,M,,*6D
$PYRTM,2024,126.000622868495,17.110270278634
$GPGGA,000052.00,3447.6040,N,12138.9278,W,1,10,0.8,12.9,M,-33.4,M,,*68
$PYRTM,2024,126.000634459294,17.110281869433
$GPGGA,000053.00,3447.6022,N,12138.9260,W,1,10,0.8,11.8,M,-33.4,M,,*66
$PYRTM,2024,126.000646016447,17.110293426586
$GPGGA,000054.00,3447.6006,N,12138.9243,W,1,10,0.8,14.6,M,-33.4,M,,*6D
$PYRTM,2024,126.000657593530,17.110305003669
$GPGGA,000055.00,3447.5991,N,12138.9226,W,1,10,0.8,16.0,M,-33.4,M,,*6F
$PYRTM,2024,126.000669166562,17.110316576701
$GPGGA,000056.00,3447.5975,N,12138.9208,W,1,10,0.8,14.8,M,-33.4,M,,*60
$PYRTM,2024,126.000680743194,17.110328153333
$GPGGA,000057.00,3447.5957,N,12138.9191,W,1,10,0.8,13.0,M,-33.4,M,,*6D
$PYRTM,2024,126.000692313924,17.110339724062
$GPGGA,000058.00,3447.5940,N,12138.9173,W,1,10,0.8,10.8,M,-33.4,M,,*63
$PYRTM,2024,126.000703888866,17.110351299005
$GPGGA,000059.00,3447.5926,N,12138.9154,W,1,10,0.8,10.2,M,-33.4,M,,*6D
$PYRTM,2024,126.000715461852,17.110362871991
$GPGGA,000100.00,3447.5915,N,12138.9134,W,1,10,0.8,11.3,M,-33.4,M,,*66
$PYRTM,2024,126.000727036829,17.110374446968
$GPGGA,000101.00,3447.5901,N,12138.9114,W,1,10,0.8,11.3,M,-33.4,M,,*60
$PYRTM,2024,126.000738713542,17.110386123692
$GPGGA,000102.00,3447.5884,N,12138.9096,W,1,10,0.8,10.1,M,-33.4,M,,*67
$PYRTM,2024,126.000750185093,17.110397595231
$GPGGA,000103.00,3447.5866,N,12138.9081,W,1,10,0.8,8.8,M,-33.4,M,,*5C
$PYRTM,2024,126.000761758924,17.110409169074
$GPGGA,000104.00,3447.5850,N,12138.9064,W,1,10,0.8,9.5,M,-33.4,M,,*59
$PYRTM,2024,126.000773448623,17.110420858762
$GPGGA,000105.00,3447.5837,N,12138.9043,W,1,10,0.8,11.6,M,-33.4,M,,*66
$PYRTM,2024,126.000785010127,17.110432420266
$GPGGA,000106.00,3447.5824,N,12138.9020,W,1,10,0.8,11.1,M,-33.4,M,,*65
$PYRTM,2024,126.000796601053,17.110444011192
$GPGGA,000107.00,3447.5809,N,12138.9000,W,1,10,0.8,12.3,M,-33.4,M,,*68
$PYRTM,2024,126.000809556574,17.110456966713
$GPGGA,000108.00,3447.5794,N,12138.8980,W,1,10,0.8,11.0,M,-33.4,M,,*6C
$PYRTM,2024,126.000822633877,17.110470044016
$GPGGA,000109.00,3447.5777,N,12138.8960,W,1,10,0.8,11.2,M,-33.4,M,,*6C
$PYRTM,2024,126.000833389444,17.110480799595
$GPGGA,000110.00,3447.5760,N,12138.8940,W,1,10,0.8,11.6,M,-33.4,M,,*64
$PYRTM,2024,126.000844498727,17.110491908866
$GPGGA,000111.00,3447.5743,N,12138.8922,W,1,10,0.8,12.3,M,-33.4,M,,*66
$PYRTM,2024,126.000855610336,17.110503020475
$GPGGA,000112.00,3447.5729,N,12138.8904,W,1,10,0.8,12.8,M,-33.4,M,,*66
$PYRTM,2024,126.000866721944,17.110514132083
$GPGGA,000113.00,3447.5716,N,12138.8888,W,1,10,0.8,11.3,M,-33.4,M,,*66
$PYRTM,2024,126.000877951169,17.110525361308
$GPGGA,000114.00,3447.5702,N,12138.8870,W,1,10,0.8,13.5,M,-33.4,M,,*67
$PYRTM,2024,126.000889074271,17.110536484410
$GPGGA,000115.00,3447.5687,N,12138.8850,W,1,10,0.8,9.4,M,-33.4,M,,*52
$PYRTM,2024,126.000900187963,17.110547598102
$GPGGA,000116.00,3447.5672,N,12138.8829,W,1,10,0.8,11.0,M,-33.4,M,,*68
$PYRTM,2024,126.000911307326,17.110558717465
$GPGGA,000117.00,3447.5656,N,12138.8809,W,1,10,0.8,11.8,M,-33.4,M,,*65
$PYRTM,2024,126.000922407674,17.110569817813
$GPGGA,000118.00,3447.5637,N,12138.8788,W,1,10,0.8,12.9,M,-33.4,M,,*69
$PYRTM,2024,126.000933635046,17.110581045185
$GPGGA,000119.00,3447.5618,N,12138.8768,W,1,10,0.8,13.6,M,-33.4,M,,*65
$PYRTM,2024,126.000944745417,17.110592155567
$GPGGA,000120.00,3447.5599,N,12138.8747,W,1,10,0.8,15.7,M,-33.4,M,,*6F
$PYRTM,2024,126.000955871296,17.110603281447
$GPGGA,000121.00,3447.5583,N,12138.8726,W,1,10,0.8,16.8,M,-33.4,M,,*6E
$PYRTM,2024,126.000966972604,17.110614382743
$GPGGA,000122.00,3447.5569,N,12138.8706,W,1,10,0.8,15.4,M,-33.4,M,,*64
$PYRTM,2024,126.000978208808,17.110625618947
$GPGGA,000123.00,3447.5555,N,12138.8687,W,1,10,0.8,13.4,M,-33.4,M,,*64
$PYRTM,2024,126.000989306794,17.110636716933
$GPGGA,000124.00,3447.5540,N,12138.8671,W,1,10,0.8,11.1,M,-33.4,M,,*69
$PYRTM,2024,126.001000867674,17.110648277813
$GPGGA,000125.00,3447.5525,N,12138.8654,W,1,10,0.8,11.0,M,-33.4,M,,*6D
$PYRTM,2024,126.001011978310,17.110659388449
$GPGGA,000126.00,3447.5509,N,12138.8637,W,1,10,0.8,11.2,M,-33.4,M,,*67
$PYRTM,2024,126.001023088854,17.110670498993
$GPGGA,000127.00,3447.5493,N,12138.8619,W,1,10,0.8,11.0,M,-33.4,M,,*6A
$PYRTM,2024,126.001034315000,17.110681725139
$GPGGA,000128.00,3447.5477,N,12138.8598,W,1,10,0.8,12.3,M,-33.4,M,,*65
$PYRTM,2024,126.001045425532,17.110692835671
$GPGGA,000129.00,3447.5462,N,12138.8577,W,1,10,0.8,11.3,M,-33.4,M,,*62
$PYRTM,2024,126.001056903947,17.110704314086
$GPGGA,000130.00,3447.5448,N,12138.8555,W,1,10,0.8,10.3,M,-33.4,M,,*63
$PYRTM,2024,126.001068462350,17.110715872488
$GPGGA,000131.00,3447.5434,N,12138.8533,W,1,10,0.8,12.7,M,-33.4,M,,*6F
$PYRTM,2024,126.001080047731,17.110727457870
$GPGGA,000132.00,3447.5419,N,12138.8512,W,1,10,0.8,12.7,M,-33.4,M,,*60
$PYRTM,2024,126.001091609664,17.110739019815
$GPGGA,000133.00,3447.5404,N,12138.8495,W,1,10,0.8,13.9,M,-33.4,M,,*6C
$PYRTM,2024,126.001103195231,17.110750605370
$GPGGA,000134.00,3447.5390,N,12138.8478,W,1,10,0.8,13.0,M,-33.4,M,,*6B
$PYRTM,2024,126.001114756690,17.110762166829
$GPGGA,000135.00,3447.5376,N,12138.8461,W,1,10,0.8,10.1,M,-33.4,M,,*68
$PYRTM,2024,126.001126345255,17.110773755394
$GPGGA,000136.00,3447.5364,N,12138.8443,W,1,10,0.8,11.5,M,-33.4,M,,*6D
$PYRTM,2024,126.001137905891,17.110785316042
$GPGGA,000137.00,3447.5349,N,12138.8426,W,1,10,0.8,12.1,M,-33.4,M,,*67
$PYRTM,2024,126.001149492025,17.110796902164
$GPGGA,000138.00,3447.5334,N,12138.8408,W,1,10,0.8,15.8,M,-33.4,M,,*60
$PYRTM,2024,126.001166391262,17.110813801400
$GPGGA,000139.00,3447.5320,N,12138.8389,W,1,10,0.8,14.0,M,-33.4,M,,*63
$PYRTM,2024,126.001177964838,17.110825374977
$GPGGA,000140.00,3447.5307,N,12138.8369,W,1,10,0.8,17.0,M,-33.4,M,,*65
$PYRTM,2024,126.001189534120,17.110836944259
$GPGGA,000141.00,3447.5295,N,12138.8348,W,1,10,0.8,15.1,M,-33.4,M,,*6E
$PYRTM,2024,126.001201113530,17.110848523669
$GPGGA,000142.00,3447.5280,N,12138.8328,W,1,10,0.8,15.3,M,-33.4,M,,*6D
$PYRTM,2024,126.001212686632,17.110860096771
$GPGGA,000143.00,3447.5264,N,12138.8311,W,1,10,0.8,17.1,M,-33.4,M,,*6C
$PYRTM,2024,126.001224275162,17.110871685301
$GPGGA,000144.00,3447.5248,N,12138.8293,W,1,10,0.8,17.1,M,-33.4,M,,*6E
$PYRTM,2024,126.001235835417,17.110883245556
$GPGGA,000145.00,3447.5234,N,12138.8275,W,1,10,0.8,14.3,M,-33.4,M,,*6D
$PYRTM,2024,126.001247414329,17.110894824468
$GPGGA,000146.00,3447.5220,N,12138.8255,W,1,10,0.8,13.8,M,-33.4,M,,*65
$PYRTM,2024,126.001258983229,17.110906393368
$GPGGA,000147.00,3447.5205,N,12138.8235,W,1,10,0.8,15.2,M,-33.4,M,,*69
$PYRTM,2024,126.001270546551,17.110917956690
$GPGGA,000148.00,3447.5190,N,12138.8215,W,1,10,0.8,15.1,M,-33.4,M,,*68
$PYRTM,2024,126.001282131400,17.110929541539
$GPGGA,000149.00,3447.5176,N,12138.8196,W,1,10,0.8,15.0,M,-33.4,M,,*68
$PYRTM,2024,126.001293706354,17.110941116493
$GPGGA,000150.00,3447.5162,N,12138.8175,W,1,10,0.8,16.6,M,-33.4,M,,*6D
$PYRTM,2024,126.001305280359,17.110952690498
$GPGGA,000151.00,3447.5146,N,12138.8152,W,1,10,0.8,15.0,M,-33.4,M,,*6A
$PYRTM,2024,126.001316855243,17.110964265382
$GPGGA,000152.00,3447.5130,N,12138.8131,W,1,10,0.8,12.6,M,-33.4,M,,*6C
$PYRTM,2024,126.001328424016,17.110975834155
$GPGGA,000153.00,3447.5116,N,12138.8112,W,1,10,0.8,13.4,M,-33.4,M,,*6B
$PYRTM,2024,126.001340003414,17.110987413553
$GPGGA,000154.00,3447.5101,N,12138.8095,W,1,10,0.8,13.9,M,-33.4,M,,*69
$PYRTM,2024,126.001351796343,17.110999206493
$GPGGA,000155.00,3447.5087,N,12138.8076,W,1,10,0.8,14.2,M,-33.4,M,,*66
$PYRTM,2024,126.001363151979,17.111010562118
$GPGGA,000156.00,3447.5072,N,12138.8057,W,1,10,0.8,15.3,M,-33.4,M,,*6C
$PYRTM,2024,126.001374725903,17.111022136053
$GPGGA,000157.00,3447.5056,N,12138.8041,W,1,10,0.8,16.8,M,-33.4,M,,*64
$PYRTM,2024,126.001386294375,17.111033704514
$GPGGA,000158.00,3447.5042,N,12138.8021,W,1,10,0.8,16.3,M,-33.4,M,,*63
$PYRTM,2024,126.001397860139,17.111045270278
$GPGGA,000159.00,3447.5028,N,12138.8000,W,1,10,0.8,15.6,M,-33.4,M,,*6B
$PYRTM,2024,126.001409450266,17.111056860405
$GPGGA,000200.00,3447.5014,N,12138.7978,W,1,10,0.8,13.2,M,-33.4,M,,*60
$PYRTM,2024,126.001421009641,17.111068419780
$GPGGA,000201.00,3447.5001,N,12138.7956,W,1,10,0.8,11.0,M,-33.4,M,,*69
$PYRTM,2024,126.001432596458,17.111080006597
$GPGGA,000202.00,3447.4986,N,12138.7935,W,1,10,0.8,10.5,M,-33.4,M,,*6C
$PYRTM,2024,126.001444171065,17.111091581204
$GPGGA,000203.00,3447.4969,N,12138.7916,W,1,10,0.8,10.0,M,-33.4,M,,*68
$PYRTM,2024,126.001455745602,17.111103155741
$GPGGA,000204.00,3447.4952,N,12138.7898,W,1,10,0.8,11.3,M,-33.4,M,,*62
$PYRTM,2024,126.001467318009,17.111114728160
$GPGGA,000205.00,3447.4938,N,12138.7881,W,1,10,0.8,10.2,M,-33.4,M,,*67
$PYRTM,2024,126.001478886782,17.111126296921
$GPGGA,000206.00,3447.4925,N,12138.7864,W,1,10,0.8,11.1,M,-33.4,M,,*61
$PYRTM,2024,126.001490345185,17.111137755324
$GPGGA,000207.00,3447.4912,N,12138.7847,W,1,10,0.8,9.5,M,-33.4,M,,*58
$PYRTM,2024,126.001502035741,17.111149445880
$GPGGA,000208.00,3447.4898,N,12138.7831,W,1,10,0.8,11.0,M,-33.4,M,,*69
$PYRTM,2024,126.001512226262,17.111159636412
$GPGGA,000209.00,3447.4885,N,12138.7813,W,1,10,0.8,12.4,M,-33.4,M,,*63
$PYRTM,2024,126.001524019201,17.111171429352
$GPGGA,000210.00,3447.4871,N,12138.7793,W,1,10,0.8,14.6,M,-33.4,M,,*63
$PYRTM,2024,126.001536762523,17.111184172674
$GPGGA,000211.00,3447.4855,N,12138.7772,W,1,10,0.8,15.4,M,-33.4,M,,*68
$PYRTM,2024,126.001548339838,17.111195749977
$GPGGA,000212.00,3447.4838,N,12138.7749,W,1,10,0.8,13.7,M,-33.4,M,,*6D
$PYRTM,2024,126.001559911273,17.111207321412
$GPGGA,000213.00,3447.4822,N,12138.7726,W,1,10,0.8,13.5,M,-33.4,M,,*6C
$PYRTM,2024,126.001571488866,17.111218899005
$GPGGA,000214.00,3447.4806,N,12138.7702,W,1,10,0.8,12.8,M,-33.4,M,,*67
$PYRTM,2024,126.001583060104,17.111230470243
$GPGGA,000215.00,3447.4790,N,12138.7681,W,1,10,0.8,15.0,M,-33.4,M,,*63
$PYRTM,2024,126.001594636250,17.111242046400
$GPGGA,000216.00,3447.4773,N,12138.7663,W,1,10,0.8,13.2,M,-33.4,M,,*65
$PYRTM,2024,126.001606195093,17.111253605231
$GPGGA,000217.00,3447.4759,N,12138.7645,W,1,10,0.8,12.2,M,-33.4,M,,*69
$PYRTM,2024,126.001617782176,17.111265192326
$GPGGA,000218.00,3447.4746,N,12138.7626,W,1,10,0.8,12.6,M,-33.4,M,,*69
$PYRTM,2024,126.001629356817,17.111276766956
$GPGGA,000219.00,3447.4734,N,12138.7609,W,1,10,0.8,12.8,M,-33.4,M,,*6E
$PYRTM,2024,126.001640930104,17.111288340243
$GPGGA,000220.00,3447.4720,N,12138.7592,W,1,10,0.8,13.2,M,-33.4,M,,*6B
$PYRTM,2024,126.001652491771,17.111299901921
$GPGGA,000221.00,3447.4704,N,12138.7575,W,1,10,0.8,13.1,M,-33.4,M,,*66
$PYRTM,2024,126.001664079155,17.111311489294
$GPGGA,000222.00,3447.4689,N,12138.7553,W,1,10,0.8,13.9,M,-33.4,M,,*6D
$PYRTM,2024,126.001675653611,17.111323063750
$GPGGA,000223.00,3447.4674,N,12138.7528,W,1,10,0.8,15.2,M,-33.4,M,,*6F
$PYRTM,2024,126.001687226887,17.111334637037
$GPGGA,000224.00,3447.4657,N,12138.7503,W,1,10,0.8,15.9,M,-33.4,M,,*6B
$PYRTM,2024,126.001699133924,17.111346544063
$GPGGA,000225.00,3447.4638,N,12138.7479,W,1,10,0.8,16.8,M,-33.4,M,,*6D
$PYRTM,2024,126.001710374977,17.111357785116
$GPGGA,000226.00,3447.4618,N,12138.7457,W,1,10,0.8,15.1,M,-33.4,M,,*6A
$PYRTM,2024,126.001721949132,17.111369359271
$GPGGA,000227.00,3447.4601,N,12138.7436,W,1,10,0.8,13.3,M,-33.4,M,,*60
$PYRTM,2024,126.001733537176,17.111380947315
$GPGGA,000228.00,3447.4586,N,12138.7414,W,1,10,0.8,16.3,M,-33.4,M,,*66
$PYRTM,2024,126.001745431030,17.111392841181
$GPGGA,000229.00,3447.4573,N,12138.7394,W,1,10,0.8,16.6,M,-33.4,M,,*67
$PYRTM,2024,126.001756671458,17.111404081597
$GPGGA,000230.00,3447.4559,N,12138.7377,W,1,10,0.8,14.5,M,-33.4,M,,*6B
$PYRTM,2024,126.001768245775,17.111415655914
$GPGGA,000231.00,3447.4544,N,12138.7363,W,1,10,0.8,12.5,M,-33.4,M,,*65
$PYRTM,2024,126.001779814884,17.111427225035
$GPGGA,000232.00,3447.4530,N,12138.7347,W,1,10,0.8,14.5,M,-33.4,M,,*65
$PYRTM,2024,126.001791388924,17.111438799063
$GPGGA,000233.00,3447.4515,N,12138.7327,W,1,10,0.8,12.4,M,-33.4,M,,*62
$PYRTM,2024,126.001802967789,17.111450377928
$GPGGA,000234.00,3447.4501,N,12138.7306,W,1,10,0.8,10.9,M,-33.4,M,,*6C
$PYRTM,2024,126.001814538310,17.111461948461
$GPGGA,000235.00,3447.4486,N,12138.7283,W,1,10,0.8,14.0,M,-33.4,M,,*62
$PYRTM,2024,126.001826116539,17.111473526678
$GPGGA,000236.00,3447.4469,N,12138.7259,W,1,10,0.8,13.6,M,-33.4,M,,*66
$PYRTM,2024,126.001837678461,17.111485088611
$GPGGA,000237.00,3447.4452,N,12138.7237,W,1,10,0.8,12.9,M,-33.4,M,,*69
$PYRTM,2024,126.001849252049,17.111496662187
$GPGGA,000238.00,3447.4435,N,12138.7215,W,1,10,0.8,10.8,M,-33.4,M,,*64
$PYRTM,2024,126.001859451100,17.111506861238
$GPGGA,000239.00,3447.4420,N,12138.7194,W,1,10,0.8,13.5,M,-33.4,M,,*65
$PYRTM,2024,126.001871243704,17.111518653843
$GPGGA,000240.00,3447.4407,N,12138.7174,W,1,10,0.8,11.2,M,-33.4,M,,*65
$PYRTM,2024,126.001883986817,17.111531396956
$GPGGA,000241.00,3447.4394,N,12138.7155,W,1,10,0.8,12.2,M,-33.4,M,,*69
$PYRTM,2024,126.001895563877,17.111542974028
$GPGGA,000242.00,3447.4379,N,12138.7137,W,1,10,0.8,11.4,M,-33.4,M,,*68
$PYRTM,2024,126.001907135590,17.111554545729
$GPGGA,000243.00,3447.4363,N,12138.7120,W,1,10,0.8,11.3,M,-33.4,M,,*63
$PYRTM,2024,126.001918712766,17.111566122905
$GPGGA,000244.00,3447.4350,N,12138.7103,W,1,10,0.8,12.9,M,-33.4,M,,*6C
$PYRTM,2024,126.001930283160,17.111577693299
$GPGGA,000245.00,3447.4338,N,12138.7082,W,1,10,0.8,11.3,M,-33.4,M,,*62
$PYRTM,2024,126.001941858056,17.111589268194
$GPGGA,000246.00,3447.4323,N,12138.7061,W,1,10,0.8,10.6,M,-33.4,M,,*62
$PYRTM,2024,126.001953316088,17.111600726227
$GPGGA,000247.00,3447.4306,N,12138.7041,W,1,10,0.8,9.6,M,-33.4,M,,*5E
$PYRTM,2024,126.001964876644,17.111612286782
$GPGGA,000248.00,3447.4289,N,12138.7022,W,1,10,0.8,9.7,M,-33.4,M,,*53
$PYRTM,2024,126.001976580197,17.111623990347
$GPGGA,000249.00,3447.4275,N,12138.7001,W,1,10,0.8,10.2,M,-33.4,M,,*6D
$PYRTM,2024,126.001988024606,17.111635434745
$GPGGA,000250.00,3447.4262,N,12138.6977,W,1,10,0.8,9.7,M,-33.4,M,,*57
$PYRTM,2024,126.001999728808,17.111647138958
$GPGGA,000251.00,3447.4248,N,12138.6953,W,1,10,0.8,10.8,M,-33.4,M,,*6F
$PYRTM,2024,126.002011303160,17.111658713299
$GPGGA,000252.00,3447.4233,N,12138.6931,W,1,10,0.8,13.5,M,-33.4,M,,*6A
$PYRTM,2024,126.002022875880,17.111670286019
$GPGGA,000253.00,3447.4217,N,12138.6912,W,1,10,0.8,14.8,M,-33.4,M,,*66
$PYRTM,2024,126.002034453854,17.111681863993
$GPGGA,000254.00,3447.4201,N,12138.6894,W,1,10,0.8,16.5,M,-33.4,M,,*66
$PYRTM,2024,126.002046489271,17.111693899410
$GPGGA,000255.00,3447.4185,N,12138.6875,W,1,10,0.8,14.5,M,-33.4,M,,*65
$PYRTM,2024,126.002058062083,17.111705472234
$GPGGA,000256.00,3447.4172,N,12138.6856,W,1,10,0.8,14.7,M,-33.4,M,,*6D
$PYRTM,2024,126.002069636215,17.111717046354
$GPGGA,000257.00,3447.4158,N,12138.6835,W,1,10,0.8,12.5,M,-33.4,M,,*65
$PYRTM,2024,126.002081205810,17.111728615949
$GPGGA,000258.00,3447.4144,N,12138.6815,W,1,10,0.8,12.8,M,-33.4,M,,*68
$PYRTM,2024,126.002092785289,17.111740195428
$GPGGA,000259.00,3447.4129,N,12138.6796,W,1,10,0.8,10.9,M,-33.4,M,,*65
$PYRTM,2024,126.002104358264,17.111751768403
$GPGGA,000300.00,3447.4115,N,12138.6777,W,1,10,0.8,11.3,M,-33.4,M,,*63
$PYRTM,2024,126.002115933472,17.111763343611
$GPGGA,000301.00,3447.4099,N,12138.6757,W,1,10,0.8,8.7,M,-33.4,M,,*59
$PYRTM,2024,126.002127508345,17.111774918484
$GPGGA,000302.00,3447.4083,N,12138.6738,W,1,10,0.8,7.9,M,-33.4,M,,*59
$PYRTM,2024,126.002139083206,17.111786493345
$GPGGA,000303.00,3447.4068,N,12138.6719,W,1,10,0.8,9.0,M,-33.4,M,,*59
$PYRTM,2024,126.002150655370,17.111798065509
$GPGGA,000304.00,3447.4053,N,12138.6701,W,1,10,0.8,5.2,M,-33.4,M,,*51
$PYRTM,2024,126.002162232581,17.111809642731
$GPGGA,000305.00,3447.4039,N,12138.6682,W,1,10,0.8,4.9,M,-33.4,M,,*5C
$PYRTM,2024,126.002173804803,17.111821214942
$GPGGA,000306.00,3447.4025,N,12138.6662,W,1,10,0.8,6.0,M,-33.4,M,,*57
$PYRTM,2024,126.002185379051,17.111832789190
$GPGGA,000307.00,3447.4010,N,12138.6641,W,1,10,0.8,9.2,M,-33.4,M,,*5C
$PYRTM,2024,126.002196951123,17.111844361262
$GPGGA,000308.00,3447.3994,N,12138.6621,W,1,10,0.8,10.1,M,-33.4,M,,*6C
$PYRTM,2024,126.002207137639,17.111854547778
$GPGGA,000309.00,3447.3979,N,12138.6599,W,1,10,0.8,7.0,M,-33.4,M,,*59
$PYRTM,2024,126.002218467465,17.111865877604
$GPGGA,000310.00,3447.3964,N,12138.6574,W,1,10,0.8,9.2,M,-33.4,M,,*52
$PYRTM,2024,126.002231094965,17.111878505116
$GPGGA,000311.00,3447.3949,N,12138.6548,W,1,10,0.8,8.8,M,-33.4,M,,*58
$PYRTM,2024,126.002242788171,17.111890198310
$GPGGA,000312.00,3447.3934,N,12138.6527,W,1,10,0.8,13.7,M,-33.4,M,,*6D
$PYRTM,2024,126.002253428171,17.111900838310
$GPGGA,000313.00,3447.3919,N,12138.6508,W,1,10,0.8,13.3,M,-33.4,M,,*6A
$PYRTM,2024,126.002265354618,17.111912764757
$GPGGA,000314.00,3447.3905,N,12138.6493,W,1,10,0.8,11.2,M,-33.4,M,,*60
$PYRTM,2024,126.002276119479,17.111923529630
$GPGGA,000315.00,3447.3891,N,12138.6478,W,1,10,0.8,6.6,M,-33.4,M,,*5A
$PYRTM,2024,126.002287229919,17.111934640058
$GPGGA,000316.00,3447.3876,N,12138.6461,W,1,10,0.8,9.1,M,-33.4,M,,*50
$PYRTM,2024,126.002298355532,17.111945765683
$GPGGA,000317.00,3447.3859,N,12138.6443,W,1,10,0.8,12.1,M,-33.4,M,,*66
$PYRTM,2024,126.002309446840,17.111956856979
$GPGGA,000318.00,3447.3843,N,12138.6424,W,1,10,0.8,14.7,M,-33.4,M,,*63
$PYRTM,2024,126.002321026817,17.111968436956
$GPGGA,000319.00,3447.3827,N,12138.6403,W,1,10,0.8,12.7,M,-33.4,M,,*63
$PYRTM,2024,126.002332137685,17.111979547824
$GPGGA,000320.00,3447.3813,N,12138.6379,W,1,10,0.8,13.1,M,-33.4,M,,*63
$PYRTM,2024,126.002343352188,17.111990762338
$GPGGA,000321.00,3447.3800,N,12138.6354,W,1,10,0.8,17.0,M,-33.4,M,,*6A
$PYRTM,2024,126.002354464664,17.112001874803
$GPGGA,000322.00,3447.3786,N,12138.6331,W,1,10,0.8,14.9,M,-33.4,M,,*61
$PYRTM,2024,126.002365576586,17.112012986725
$GPGGA,000323.00,3447.3771,N,12138.6311,W,1,10,0.8,16.3,M,-33.4,M,,*62
$PYRTM,2024,126.002376685787,17.112024095926
$GPGGA,000324.00,3447.3754,N,12138.6293,W,1,10,0.8,12.7,M,-33.4,M,,*69
$PYRTM,2024,126.002388272986,17.112035683125
$GPGGA,000325.00,3447.3739,N,12138.6276,W,1,10,0.8,12.3,M,-33.4,M,,*6C
$PYRTM,2024,126.002399500590,17.112046910729
$GPGGA,000326.00,3447.3724,N,12138.6258,W,1,10,0.8,10.3,M,-33.4,M,,*6D
$PYRTM,2024,126.002411059687,17.112058469826
$GPGGA,000327.00,3447.3709,N,12138.6239,W,1,10,0.8,10.8,M,-33.4,M,,*6F
$PYRTM,2024,126.002422648727,17.112070058866
$GPGGA,000328.00,3447.3696,N,12138.6220,W,1,10,0.8,10.5,M,-33.4,M,,*62
$PYRTM,2024,126.002434210023,17.112081620162
$GPGGA,000329.00,3447.3681,N,12138.6200,W,1,10,0.8,11.1,M,-33.4,M,,*62
$PYRTM,2024,126.002445797396,17.112093207535
$GPGGA,000330.00,3447.3666,N,12138.6180,W,1,10,0.8,14.3,M,-33.4,M,,*6F
$PYRTM,2024,126.002457356343,17.112104766493
$GPGGA,000331.00,3447.3652,N,12138.6158,W,1,10,0.8,12.4,M,-33.4,M,,*6D
$PYRTM,2024,126.002468943958,17.112116354097
$GPGGA,000332.00,3447.3638,N,12138.6135,W,1,10,0.8,14.3,M,-33.4,M,,*68
$PYRTM,2024,126.002480507743,17.112127917882
$GPGGA,000333.00,3447.3624,N,12138.6113,W,1,10,0.8,13.0,M,-33.4,M,,*64
$PYRTM,2024,126.002492092743,17.112139502882
$GPGGA,000334.00,3447.3608,N,12138.6093,W,1,10,0.8,10.2,M,-33.4,M,,*65
$PYRTM,2024,126.002503653727,17.112151063866
$GPGGA,000335.00,3447.3594,N,12138.6074,W,1,10,0.8,10.7,M,-33.4,M,,*6E
$PYRTM,2024,126.002515244676,17.112162654815
$GPGGA,000336.00,3447.3580,N,12138.6057,W,1,10,0.8,9.9,M,-33.4,M,,*5F
$PYRTM,2024,126.002526801181,17.112174211319
$GPGGA,000337.00,3447.3565,N,12138.6040,W,1,10,0.8,11.6,M,-33.4,M,,*65
$PYRTM,2024,126.002538392072,17.112185802211
$GPGGA,000338.00,3447.3550,N,12138.6022,W,1,10,0.8,11.2,M,-33.4,M,,*6C
$PYRTM,2024,126.002555281412,17.112202691551
$GPGGA,000339.00,3447.3536,N,12138.6004,W,1,10,0.8,12.9,M,-33.4,M,,*61
$PYRTM,2024,126.002566864363,17.112214274502
$GPGGA,000340.00,3447.3522,N,12138.5984,W,1,10,0.8,12.8,M,-33.4,M,,*69
$PYRTM,2024,126.002578435822,17.112225845961
$GPGGA,000341.00,3447.3508,N,12138.5963,W,1,10,0.8,13.8,M,-33.4,M,,*68
$PYRTM,2024,126.002590010058,17.112237420197
$GPGGA,000342.00,3447.3493,N,12138.5943,W,1,10,0.8,12.3,M,-33.4,M,,*60
$PYRTM,2024,126.002601583900,17.112248994039
$GPGGA,000343.00,3447.3479,N,12138.5924,W,1,10,0.8,13.5,M,-33.4,M,,*63
$PYRTM,2024,126.002613158299,17.112260568437
$GPGGA,000344.00,3447.3465,N,12138.5903,W,1,10,0.8,13.9,M,-33.4,M,,*60
$PYRTM,2024,126.002624728484,17.112272138623
$GPGGA,000345.00,3447.3450,N,12138.5881,W,1,10,0.8,15.8,M,-33.4,M,,*6B
$PYRTM,2024,126.002636307442,17.112283717581
$GPGGA,000346.00,3447.3433,N,12138.5860,W,1,10,0.8,18.0,M,-33.4,M,,*67
$PYRTM,2024,126.002647879363,17.112295289502
$GPGGA,000347.00,3447.3414,N,12138.5842,W,1,10,0.8,18.1,M,-33.4,M,,*62
$PYRTM,2024,126.002659439537,17.112306849676
$GPGGA,000348.00,3447.3397,N,12138.5824,W,1,10,0.8,19.0,M,-33.4,M,,*61
$PYRTM,2024,126.002671027025,17.112318437164
$GPGGA,000349.00,3447.3383,N,12138.5806,W,1,10,0.8,16.4,M,-33.4,M,,*6E
$PYRTM,2024,126.002682590255,17.112330000394
$GPGGA,000350.00,3447.3370,N,12138.5786,W,1,10,0.8,16.0,M,-33.4,M,,*69
$PYRTM,2024,126.002694177176,17.112341587315
$GPGGA,000351.00,3447.3357,N,12138.5766,W,1,10,0.8,16.3,M,-33.4,M,,*60
$PYRTM,2024,126.002705734931,17.112353145069
$GPGGA,000352.00,3447.3345,N,12138.5746,W,1,10,0.8,15.1,M,-33.4,M,,*63
$PYRTM,2024,126.002717324722,17.112364734861
$GPGGA,000353.00,3447.3331,N,12138.5727,W,1,10,0.8,15.6,M,-33.4,M,,*61
$PYRTM,2024,126.002728884051,17.112376294190
$GPGGA,000354.00,3447.3316,N,12138.5708,W,1,10,0.8,15.5,M,-33.4,M,,*6D
$PYRTM,2024,126.002740588333,17.112387998472
$GPGGA,000355.00,3447.3301,N,12138.5690,W,1,10,0.8,15.8,M,-33.4,M,,*67
$PYRTM,2024,126.002752032558,17.112399442697
$GPGGA,000356.00,3447.3285,N,12138.5672,W,1,10,0.8,18.0,M,-33.4,M,,*60
$PYRTM,2024,126.002763624722,17.112411034873
$GPGGA,000357.00,3447.3269,N,12138.5654,W,1,10,0.8,17.6,M,-33.4,M,,*6E
$PYRTM,2024,126.002775183854,17.112422593993
$GPGGA,000358.00,3447.3254,N,12138.5636,W,1,10,0.8,14.7,M,-33.4,M,,*69
$PYRTM,2024,126.002786767928,17.112434178067
$GPGGA,000359.00,3447.3238,N,12138.5618,W,1,10,0.8,13.9,M,-33.4,M,,*67
$PYRTM,2024,126.002798337292,17.112445747431
$GPGGA,000400.00,3447.3224,N,12138.5600,W,1,10,0.8,13.8,M,-33.4,M,,*69
$PYRTM,2024,126.002809927280,17.112457337419
$GPGGA,000401.00,3447.3210,N,12138.5582,W,1,10,0.8,13.5,M,-33.4,M,,*6B
$PYRTM,2024,126.002821484271,17.112468894410
$GPGGA,000402.00,3447.3196,N,12138.5564,W,1,10,0.8,10.4,M,-33.4,M,,*6F
$PYRTM,2024,126.002833063403,17.112480473553
$GPGGA,000403.00,3447.3181,N,12138.5546,W,1,10,0.8,13.6,M,-33.4,M,,*69
$PYRTM,2024,126.002844627153,17.112492037292
$GPGGA,000404.00,3447.3167,N,12138.5527,W,1,10,0.8,14.6,M,-33.4,M,,*66
$PYRTM,2024,126.002856203218,17.112503613368
$GPGGA,000405.00,3447.3152,N,12138.5509,W,1,10,0.8,15.3,M,-33.4,M,,*69
$PYRTM,2024,126.002867775220,17.112515185359
$GPGGA,000406.00,3447.3136,N,12138.5492,W,1,10,0.8,14.7,M,-33.4,M,,*6E
$PYRTM,2024,126.002879372257,17.112526782396
$GPGGA,000407.00,3447.3121,N,12138.5474,W,1,10,0.8,11.4,M,-33.4,M,,*67
$PYRTM,2024,126.002890924815,17.112538334954
$GPGGA,000408.00,3447.3105,N,12138.5454,W,1,10,0.8,11.4,M,-33.4,M,,*6C
$PYRTM,2024,126.002901470428,17.112548880579
$GPGGA,000409.00,3447.3090,N,12138.5434,W,1,10,0.8,10.6,M,-33.4,M,,*65
$PYRTM,2024,126.002912918102,17.112560328241
$GPGGA,000410.00,3447.3075,N,12138.5415,W,1,10,0.8,11.3,M,-33.4,M,,*61
$PYRTM,2024,126.002925659329,17.112573069468
$GPGGA,000411.00,3447.3060,N,12138.5396,W,1,10,0.8,12.0,M,-33.4,M,,*68
$PYRTM,2024,126.002937219734,17.112584629884
$GPGGA,000412.00,3447.3045,N,12138.5376,W,1,10,0.8,12.4,M,-33.4,M,,*66
$PYRTM,2024,126.002948803900,17.112596214051
$GPGGA,000413.00,3447.3031,N,12138.5356,W,1,10,0.8,15.2,M,-33.4,M,,*67
$PYRTM,2024,126.002960368715,17.112607778854
$GPGGA,000414.00,3447.3017,N,12138.5338,W,1,10,0.8,11.4,M,-33.4,M,,*6E
$PYRTM,2024,126.002971843785,17.112619253935
$GPGGA,000415.00,3447.3002,N,12138.5320,W,1,10,0.8,9.8,M,-33.4,M,,*57
$PYRTM,2024,126.002983403218,17.112630813356
$GPGGA,000416.00,3447.2986,N,12138.5301,W,1,10,0.8,7.5,M,-33.4,M,,*50
$PYRTM,2024,126.002995003067,17.112642413206
$GPGGA,000417.00,3447.2971,N,12138.5283,W,1,10,0.8,5.7,M,-33.4,M,,*52
$PYRTM,2024,126.003006551204,17.112653961343
$GPGGA,000418.00,3447.2955,N,12138.5266,W,1,10,0.8,6.8,M,-33.4,M,,*5C
$PYRTM,2024,126.003018136910,17.112665547049
$GPGGA,000419.00,3447.2940,N,12138.5249,W,1,10,0.8,7.8,M,-33.4,M,,*55
$PYRTM,2024,126.003029699201,17.112677109352
$GPGGA,000420.00,3447.2923,N,12138.5229,W,1,10,0.8,9.3,M,-33.4,M,,*59
$PYRTM,2024,126.003041285625,17.112688695764
$GPGGA,000421.00,3447.2908,N,12138.5209,W,1,10,0.8,7.5,M,-33.4,M,,*5B
$PYRTM,2024,126.003052845104,17.112700255243
$GPGGA,000422.00,3447.2892,N,12138.5188,W,1,10,0.8,8.5,M,-33.4,M,,*5F
$PYRTM,2024,126.003064432303,17.112711842454
$GPGGA,000423.00,3447.2876,N,12138.5168,W,1,10,0.8,9.3,M,-33.4,M,,*5D
$PYRTM,2024,126.003075993669,17.112723403808
$GPGGA,000424.00,3447.2861,N,12138.5149,W,1,10,0.8,6.6,M,-33.4,M,,*55
$PYRTM,2024,126.003087581470,17.112734991620
$GPGGA,000425.00,3447.2846,N,12138.5130,W,1,10,0.8,8.5,M,-33.4,M,,*52
$PYRTM,2024,126.003099257269,17.112746667407
$GPGGA,000426.00,3447.2831,N,12138.5113,W,1,10,0.8,12.2,M,-33.4,M,,*6C
$PYRTM,2024,126.003110845162,17.112758255301
$GPGGA,000427.00,3447.2818,N,12138.5095,W,1,10,0.8,11.9,M,-33.4,M,,*61
$PYRTM,2024,126.003122404479,17.112769814618
$GPGGA,000428.00,3447.2805,N,12138.5076,W,1,10,0.8,10.8,M,-33.4,M,,*6F
$PYRTM,2024,126.003133881609,17.112781291748
$GPGGA,000429.00,3447.2791,N,12138.5057,W,1,10,0.8,9.7,M,-33.4,M,,*58
$PYRTM,2024,126.003145553044,17.112792963183
$GPGGA,000430.00,3447.2778,N,12138.5038,W,1,10,0.8,11.9,M,-33.4,M,,*69
$PYRTM,2024,126.003157142083,17.112804552222
$GPGGA,000431.00,3447.2763,N,12138.5018,W,1,10,0.8,13.7,M,-33.4,M,,*6C
$PYRTM,2024,126.003168701898,17.112816112037
$GPGGA,000432.00,3447.2748,N,12138.4998,W,1,10,0.8,11.3,M,-33.4,M,,*60
$PYRTM,2024,126.003180290266,17.112827700405
$GPGGA,000433.00,3447.2731,N,12138.4978,W,1,10,0.8,12.2,M,-33.4,M,,*63
$PYRTM,2024,126.003191851435,17.112839261574
$GPGGA,000434.00,3447.2715,N,12138.4959,W,1,10,0.8,11.9,M,-33.4,M,,*69
$PYRTM,2024,126.003203437951,17.112850848090
$GPGGA,000435.00,3447.2699,N,12138.4939,W,1,10,0.8,14.4,M,-33.4,M,,*63
$PYRTM,2024,126.003214998576,17.112862408715
$GPGGA,000436.00,3447.2685,N,12138.4921,W,1,10,0.8,14.1,M,-33.4,M,,*61
$PYRTM,2024,126.003226586655,17.112873996794
$GPGGA,000437.00,3447.2674,N,12138.4902,W,1,10,0.8,12.1,M,-33.4,M,,*69
$PYRTM,2024,126.003238146725,17.112885556875
$GPGGA,000438.00,3447.2663,N,12138.4879,W,1,10,0.8,11.4,M,-33.4,M,,*6B
$PYRTM,2024,126.003248332060,17.112895742211
$GPGGA,000439.00,3447.2652,N,12138.4856,W,1,10,0.8,11.5,M,-33.4,M,,*64
$PYRTM,2024,126.003260140150,17.112907550289
$GPGGA,000440.00,3447.2637,N,12138.4834,W,1,10,0.8,10.2,M,-33.4,M,,*6B
$PYRTM,2024,126.003272768993,17.112920179132
$GPGGA,000441.00,3447.2621,N,12138.4814,W,1,10,0.8,9.4,M,-33.4,M,,*51
$PYRTM,2024,126.003284328218,17.112931738356
$GPGGA,000442.00,3447.2604,N,12138.4795,W,1,10,0.8,9.2,M,-33.4,M,,*55
$PYRTM,2024,126.003296030683,17.112943440822
$GPGGA,000443.00,3447.2588,N,12138.4776,W,1,10,0.8,10.8,M,-33.4,M,,*6C
$PYRTM,2024,126.003307592002,17.112955002141
$GPGGA,000444.00,3447.2573,N,12138.4756,W,1,10,0.8,10.9,M,-33.4,M,,*6C
$PYRTM,2024,126.003319180127,17.112966590266
$GPGGA,000445.00,3447.2557,N,12138.4737,W,1,10,0.8,12.2,M,-33.4,M,,*65
$PYRTM,2024,126.003330739977,17.112978150116
$GPGGA,000446.00,3447.2542,N,12138.4720,W,1,10,0.8,10.1,M,-33.4,M,,*65
$PYRTM,2024,126.003342264213,17.112989674352
$GPGGA,000447.00,3447.2529,N,12138.4703,W,1,10,0.8,8.9,M,-33.4,M,,*59
$PYRTM,2024,126.003353886968,17.113001297106
$GPGGA,000448.00,3447.2515,N,12138.4685,W,1,10,0.8,10.4,M,-33.4,M,,*62
$PYRTM,2024,126.003365477396,17.113012887535
$GPGGA,000449.00,3447.2503,N,12138.4666,W,1,10,0.8,10.3,M,-33.4,M,,*6E
$PYRTM,2024,126.003377037049,17.113024447188
$GPGGA,000450.00,3447.2489,N,12138.4646,W,1,10,0.8,12.0,M,-33.4,M,,*66
$PYRTM,2024,126.003388508727,17.113035918866
$GPGGA,000451.00,3447.2473,N,12138.4628,W,1,10,0.8,9.1,M,-33.4,M,,*51
$PYRTM,2024,126.003400070197,17.113047480347
$GPGGA,000452.00,3447.2457,N,12138.4609,W,1,10,0.8,9.4,M,-33.4,M,,*52
$PYRTM,2024,126.003411772292,17.113059182431
$GPGGA,000453.00,3447.2440,N,12138.4588,W,1,10,0.8,12.3,M,-33.4,M,,*62
$PYRTM,2024,126.003423335174,17.113070745312
$GPGGA,000454.00,3447.2424,N,12138.4566,W,1,10,0.8,15.4,M,-33.4,M,,*67
$PYRTM,2024,126.003435371979,17.113082782118
$GPGGA,000455.00,3447.2409,N,12138.4545,W,1,10,0.8,11.2,M,-33.4,M,,*6A
$PYRTM,2024,126.003446958657,17.113094368796
$GPGGA,000456.00,3447.2395,N,12138.4525,W,1,10,0.8,10.5,M,-33.4,M,,*6B
$PYRTM,2024,126.003458518530,17.113105928669
$GPGGA,000457.00,3447.2381,N,12138.4505,W,1,10,0.8,11.0,M,-33.4,M,,*69
$PYRTM,2024,126.003470106447,17.113117516586
$GPGGA,000458.00,3447.2367,N,12138.4485,W,1,10,0.8,8.0,M,-33.4,M,,*5F
$PYRTM,2024,126.003481555810,17.113128965961
$GPGGA,000459.00,3447.2353,N,12138.4466,W,1,10,0.8,8.4,M,-33.4,M,,*50
$PYRTM,2024,126.003493254329,17.113140664468
$GPGGA,000500.00,3447.2338,N,12138.4447,W,1,10,0.8,8.3,M,-33.4,M,,*54
$PYRTM,2024,126.003504814838,17.113152224977
$GPGGA,000501.00,3447.2323,N,12138.4427,W,1,10,0.8,7.9,M,-33.4,M,,*5C
$PYRTM,2024,126.003516402164,17.113163812303
$GPGGA,000502.00,3447.2310,N,12138.4405,W,1,10,0.8,5.5,M,-33.4,M,,*51
$PYRTM,2024,126.003527963438,17.113175373576
$GPGGA,000503.00,3447.2296,N,12138.4383,W,1,10,0.8,7.9,M,-33.4,M,,*58
$PYRTM,2024,126.003539551146,17.113186961285
$GPGGA,000504.00,3447.2281,N,12138.4362,W,1,10,0.8,9.9,M,-33.4,M,,*58
$PYRTM,2024,126.003551111852,17.113198521991
$GPGGA,000505.00,3447.2266,N,12138.4342,W,1,10,0.8,11.5,M,-33.4,M,,*67
$PYRTM,2024,126.003562699421,17.113210109560
$GPGGA,000506.00,3447.2251,N,12138.4324,W,1,10,0.8,9.7,M,-33.4,M,,*5B
$PYRTM,2024,126.003574259086,17.113221669225
$GPGGA,000507.00,3447.2237,N,12138.4306,W,1,10,0.8,7.4,M,-33.4,M,,*57
$PYRTM,2024,126.003585851100,17.113233261238
$GPGGA,000508.00,3447.2225,N,12138.4289,W,1,10,0.8,8.7,M,-33.4,M,,*51
$PYRTM,2024,126.003596033252,17.113243443391
$GPGGA,000509.00,3447.2214,N,12138.4270,W,1,10,0.8,7.5,M,-33.4,M,,*59
$PYRTM,2024,126.003607365938,17.113254776076
$GPGGA,000510.00,3447.2201,N,12138.4252,W,1,10,0.8,7.4,M,-33.4,M,,*54
$PYRTM,2024,126.003619995729,17.113267405868
$GPGGA,000511.00,3447.2187,N,12138.4235,W,1,10,0.8,6.4,M,-33.4,M,,*58
$PYRTM,2024,126.003631554884,17.113278965023
$GPGGA,000512.00,3447.2174,N,12138.4218,W,1,10,0.8,6.7,M,-33.4,M,,*5B
$PYRTM,2024,126.003643144201,17.113290554340
$GPGGA,000513.00,3447.2161,N,12138.4198,W,1,10,0.8,5.6,M,-33.4,M,,*57
$PYRTM,2024,126.003654703692,17.113302113831
$GPGGA,000514.00,3447.2148,N,12138.4175,W,1,10,0.8,5.9,M,-33.4,M,,*57
$PYRTM,2024,126.003666292789,17.113313702928
$GPGGA,000515.00,3447.2133,N,12138.4152,W,1,10,0.8,4.7,M,-33.4,M,,*50
$PYRTM,2024,126.003677850660,17.113325260799
$GPGGA,000516.00,3447.2118,N,12138.4131,W,1,10,0.8,3.6,M,-33.4,M,,*59
$PYRTM,2024,126.003689432488,17.113336842639
$GPGGA,000517.00,3447.2103,N,12138.4111,W,1,10,0.8,6.3,M,-33.4,M,,*50
$PYRTM,2024,126.003700072778,17.113347482917
$GPGGA,000518.00,3447.2087,N,12138.4092,W,1,10,0.8,6.4,M,-33.4,M,,*5F
$PYRTM,2024,126.003711993438,17.113359403576
$GPGGA,000519.00,3447.2073,N,12138.4072,W,1,10,0.8,6.9,M,-33.4,M,,*56
$PYRTM,2024,126.003722773310,17.113370183449
$GPGGA,000520.00,3447.2060,N,12138.4054,W,1,10,0.8,7.4,M,-33.4,M,,*56
$PYRTM,2024,126.003733882176,17.113381292315
$GPGGA,000521.00,3447.2047,N,12138.4037,W,1,10,0.8,6.2,M,-33.4,M,,*50
$PYRTM,2024,126.003744994167,17.113392404306
$GPGGA,000522.00,3447.2034,N,12138.4019,W,1,10,0.8,5.5,M,-33.4,M,,*5F
$PYRTM,2024,126.003756103576,17.113403513715
$GPGGA,000523.00,3447.2023,N,12138.4002,W,1,10,0.8,4.7,M,-33.4,M,,*51
$PYRTM,2024,126.003767210937,17.113414621076
$GPGGA,000524.00,3447.2012,N,12138.3983,W,1,10,0.8,4.7,M,-33.4,M,,*53
$PYRTM,2024,126.003778778021,17.113426188171
$GPGGA,000525.00,3447.1998,N,12138.3963,W,1,10,0.8,4.3,M,-33.4,M,,*50
$PYRTM,2024,126.003789888704,17.113437298843
$GPGGA,000526.00,3447.1984,N,12138.3944,W,1,10,0.8,3.9,M,-33.4,M,,*56
$PYRTM,2024,126.003800999907,17.113448410046
$GPGGA,000527.00,3447.1969,N,12138.3926,W,1,10,0.8,5.1,M,-33.4,M,,*5E
$PYRTM,2024,126.003812110903,17.113459521042
$GPGGA,000528.00,3447.1955,N,12138.3906,W,1,10,0.8,5.4,M,-33.4,M,,*59
$PYRTM,2024,126.003830626852,17.113478036991
$GPGGA,000529.00,3447.1940,N,12138.3885,W,1,10,0.8,6.3,M,-33.4,M,,*52
$PYRTM,2024,126.003841739074,17.113489149213
$GPGGA,000530.00,3447.1926,N,12138.3863,W,1,10,0.8,7.7,M,-33.4,M,,*57
$PYRTM,2024,126.003852851667,17.113500261806
$GPGGA,000531.00,3447.1912,N,12138.3840,W,1,10,0.8,7.1,M,-33.4,M,,*56
$PYRTM,2024,126.003863961887,17.113511372025
$GPGGA,000532.00,3447.1898,N,12138.3817,W,1,10,0.8,7.7,M,-33.4,M,,*52
$PYRTM,2024,126.003875075417,17.113522485556
$GPGGA,000533.00,3447.1884,N,12138.3794,W,1,10,0.8,6.2,M,-33.4,M,,*5E
$PYRTM,2024,126.003886185394,17.113533595532
$GPGGA,000534.00,3447.1868,N,12138.3773,W,1,10,0.8,6.1,M,-33.4,M,,*51
$PYRTM,2024,126.003897295394,17.113544705532
$GPGGA,000535.00,3447.1854,N,12138.3754,W,1,10,0.8,5.8,M,-33.4,M,,*50
$PYRTM,2024,126.003908406493,17.113555816632
$GPGGA,000536.00,3447.1840,N,12138.3736,W,1,10,0.8,4.5,M,-33.4,M,,*5E
$PYRTM,2024,126.003919519815,17.113566929954
$GPGGA,000537.00,3447.1826,N,12138.3720,W,1,10,0.8,5.8,M,-33.4,M,,*54
$PYRTM,2024,126.003930743623,17.113578153762
$GPGGA,000538.00,3447.1813,N,12138.3704,W,1,10,0.8,10.3,M,-33.4,M,,*64
$PYRTM,2024,126.003946369595,17.113593779745
$GPGGA,000539.00,3447.1799,N,12138.3687,W,1,10,0.8,11.4,M,-33.4,M,,*64
$PYRTM,2024,126.003957595521,17.113605005660
$GPGGA,000540.00,3447.1784,N,12138.3667,W,1,10,0.8,12.0,M,-33.4,M,,*6F
$PYRTM,2024,126.003968709178,17.113616119317
$GPGGA,000541.00,3447.1769,N,12138.3645,W,1,10,0.8,14.8,M,-33.4,M,,*63
$PYRTM,2024,126.003979819097,17.113627229236
$GPGGA,000542.00,3447.1755,N,12138.3622,W,1,10,0.8,13.7,M,-33.4,M,,*66
$PYRTM,2024,126.003990930093,17.113638340231
$GPGGA,000543.00,3447.1741,N,12138.3598,W,1,10,0.8,14.7,M,-33.4,M,,*67
$PYRTM,2024,126.004002159005,17.113649569144
$GPGGA,000544.00,3447.1727,N,12138.3572,W,1,10,0.8,11.9,M,-33.4,M,,*6F
$PYRTM,2024,126.004013615972,17.113661026111
$GPGGA,000545.00,3447.1713,N,12138.3550,W,1,10,0.8,10.7,M,-33.4,M,,*66
$PYRTM,2024,126.004025075741,17.113672485891
$GPGGA,000546.00,3447.1699,N,12138.3529,W,1,10,0.8,8.7,M,-33.4,M,,*51
$PYRTM,2024,126.004036661771,17.113684071910
$GPGGA,000547.00,3447.1685,N,12138.3510,W,1,10,0.8,7.2,M,-33.4,M,,*5D
$PYRTM,2024,126.004048336400,17.113695746539
$GPGGA,000548.00,3447.1672,N,12138.3492,W,1,10,0.8,10.7,M,-33.4,M,,*62
$PYRTM,2024,126.004060041528,17.113707451678
$GPGGA,000549.00,3447.1658,N,12138.3474,W,1,10,0.8,13.4,M,-33.4,M,,*63
$PYRTM,2024,126.004071490116,17.113718900255
$GPGGA,000550.00,3447.1645,N,12138.3455,W,1,10,0.8,13.6,M,-33.4,M,,*66
$PYRTM,2024,126.004083074479,17.113730484618
$GPGGA,000551.00,3447.1632,N,12138.3434,W,1,10,0.8,13.5,M,-33.4,M,,*63
$PYRTM,2024,126.004094634236,17.113742044375
$GPGGA,000552.00,3447.1619,N,12138.3413,W,1,10,0.8,13.9,M,-33.4,M,,*60
$PYRTM,2024,126.004106236065,17.113753646215
$GPGGA,000553.00,3447.1604,N,12138.3391,W,1,10,0.8,17.0,M,-33.4,M,,*6D
$PYRTM,2024,126.004117782731,17.113765192870
$GPGGA,000554.00,3447.1590,N,12138.3369,W,1,10,0.8,16.7,M,-33.4,M,,*65
$PYRTM,2024,126.004129486435,17.113776896574
$GPGGA,000555.00,3447.1578,N,12138.3346,W,1,10,0.8,17.3,M,-33.4,M,,*6A
$PYRTM,2024,126.004140931898,17.113788342049
$GPGGA,000556.00,3447.1565,N,12138.3325,W,1,10,0.8,18.3,M,-33.4,M,,*6F
$PYRTM,2024,126.004152532326,17.113799942465
$GPGGA,000557.00,3447.1552,N,12138.3306,W,1,10,0.8,17.7,M,-33.4,M,,*60
$PYRTM,2024,126.004164079884,17.113811490023
$GPGGA,000558.00,3447.1537,N,12138.3288,W,1,10,0.8,17.4,M,-33.4,M,,*68
$PYRTM,2024,126.004175666806,17.113823076944
$GPGGA,000559.00,3447.1522,N,12138.3272,W,1,10,0.8,14.3,M,-33.4,M,,*6C
$PYRTM,2024,126.004187227882,17.113834638021
$GPGGA,000600.00,3447.1509,N,12138.3255,W,1,10,0.8,15.8,M,-33.4,M,,*65
$PYRTM,2024,126.004198814931,17.113846225069
$GPGGA,000601.00,3447.1497,N,12138.3235,W,1,10,0.8,16.2,M,-33.4,M,,*6D
$PYRTM,2024,126.004210376736,17.113857786875
$GPGGA,000602.00,3447.1486,N,12138.3214,W,1,10,0.8,14.5,M,-33.4,M,,*68
$PYRTM,2024,126.004221962373,17.113869372512
$GPGGA,000603.00,3447.1473,N,12138.3192,W,1,10,0.8,17.2,M,-33.4,M,,*6A
$PYRTM,2024,126.004233524387,17.113880934537
$GPGGA,000604.00,3447.1457,N,12138.3171,W,1,10,0.8,14.3,M,-33.4,M,,*64
$PYRTM,2024,126.004245110475,17.113892520613
$GPGGA,000605.00,3447.1440,N,12138.3150,W,1,10,0.8,18.4,M,-33.4,M,,*6B
$PYRTM,2024,126.004256673021,17.113904083160
$GPGGA,000606.00,3447.1425,N,12138.3130,W,1,10,0.8,16.2,M,-33.4,M,,*65
$PYRTM,2024,126.004268260000,17.113915670139
$GPGGA,000607.00,3447.1412,N,12138.3110,W,1,10,0.8,16.0,M,-33.4,M,,*60
$PYRTM,2024,126.004279820104,17.113927230243
$GPGGA,000608.00,3447.1399,N,12138.3089,W,1,10,0.8,15.0,M,-33.4,M,,*69
$PYRTM,2024,126.004290007130,17.113937417269
$GPGGA,000609.00,3447.1384,N,12138.3070,W,1,10,0.8,15.2,M,-33.4,M,,*60
$PYRTM,2024,126.004301825336,17.113949235475
$GPGGA,000610.00,3447.1369,N,12138.3053,W,1,10,0.8,13.0,M,-33.4,M,,*6E
$PYRTM,2024,126.004314560903,17.113961971042
$GPGGA,000611.00,3447.1355,N,12138.3035,W,1,10,0.8,15.9,M,-33.4,M,,*6F
$PYRTM,2024,126.004326117106,17.113973527245
$GPGGA,000612.00,3447.1344,N,12138.3015,W,1,10,0.8,14.8,M,-33.4,M,,*6E
$PYRTM,2024,126.004337707662,17.113985117801
$GPGGA,000613.00,3447.1334,N,12138.2993,W,1,10,0.8,14.2,M,-33.4,M,,*64
$PYRTM,2024,126.004349265683,17.113996675822
$GPGGA,000614.00,3447.1321,N,12138.2972,W,1,10,0.8,17.4,M,-33.4,M,,*6D
$PYRTM,2024,126.004360854294,17.114008264444
$GPGGA,000615.00,3447.1308,N,12138.2954,W,1,10,0.8,14.8,M,-33.4,M,,*6C
$PYRTM,2024,126.004372414051,17.114019824190
$GPGGA,000616.00,3447.1294,N,12138.2936,W,1,10,0.8,17.2,M,-33.4,M,,*66
$PYRTM,2024,126.004382843229,17.114030253368
$GPGGA,000617.00,3447.1282,N,12138.2918,W,1,10,0.8,15.0,M,-33.4,M,,*6C
$PYRTM,2024,126.004395563657,17.114042973796
$GPGGA,000618.00,3447.1270,N,12138.2901,W,1,10,0.8,15.8,M,-33.4,M,,*6E
$PYRTM,2024,126.004407149977,17.114054560116
$GPGGA,000619.00,3447.1257,N,12138.2884,W,1,10,0.8,14.2,M,-33.4,M,,*6D
$PYRTM,2024,126.004418710637,17.114066120775
$GPGGA,000620.00,3447.1245,N,12138.2866,W,1,10,0.8,12.7,M,-33.4,M,,*6B
$PYRTM,2024,126.004430298194,17.114077708333
$GPGGA,000621.00,3447.1234,N,12138.2846,W,1,10,0.8,12.8,M,-33.4,M,,*61
$PYRTM,2024,126.004441858507,17.114089268646
$GPGGA,000622.00,3447.1222,N,12138.2824,W,1,10,0.8,12.5,M,-33.4,M,,*6C
$PYRTM,2024,126.004453448924,17.114100859062
$GPGGA,000623.00,3447.1210,N,12138.2803,W,1,10,0.8,13.3,M,-33.4,M,,*6E
$PYRTM,2024,126.004465007373,17.114112417523
$GPGGA,000624.00,3447.1194,N,12138.2785,W,1,10,0.8,17.2,M,-33.4,M,,*62
$PYRTM,2024,126.004476821458,17.114124231597
$GPGGA,000625.00,3447.1176,N,12138.2769,W,1,10,0.8,16.4,M,-33.4,M,,*6A
$PYRTM,2024,126.004488156505,17.114135566644
$GPGGA,000626.00,3447.1160,N,12138.2753,W,1,10,0.8,19.6,M,-33.4,M,,*6A
$PYRTM,2024,126.004499742859,17.114147153009
$GPGGA,000627.00,3447.1145,N,12138.2735,W,1,10,0.8,18.2,M,-33.4,M,,*69
$PYRTM,2024,126.004511303738,17.114158713877
$GPGGA,000628.00,3447.1132,N,12138.2715,W,1,10,0.8,18.3,M,-33.4,M,,*65
$PYRTM,2024,126.004522890498,17.114170300637
$GPGGA,000629.00,3447.1121,N,12138.2695,W,1,10,0.8,19.0,M,-33.4,M,,*6D
$PYRTM,2024,126.004534452963,17.114181863102
$GPGGA,000630.00,3447.1110,N,12138.2676,W,1,10,0.8,18.8,M,-33.4,M,,*63
$PYRTM,2024,126.004546040417,17.114193450556
$GPGGA,000631.00,3447.1097,N,12138.2659,W,1,10,0.8,17.7,M,-33.4,M,,*61
$PYRTM,2024,126.004557600579,17.114205010718
$GPGGA,000632.00,3447.1084,N,12138.2642,W,1,10,0.8,17.2,M,-33.4,M,,*6F
$PYRTM,2024,126.004569188507,17.114216598646
$GPGGA,000633.00,3447.1071,N,12138.2624,W,1,10,0.8,16.9,M,-33.4,M,,*6E
$PYRTM,2024,126.004580750023,17.114228160162
$GPGGA,000634.00,3447.1058,N,12138.2605,W,1,10,0.8,15.1,M,-33.4,M,,*6A
$PYRTM,2024,126.004592330394,17.114239740532
$GPGGA,000635.00,3447.1045,N,12138.2586,W,1,10,0.8,14.0,M,-33.4,M,,*6F
$PYRTM,2024,126.004603896262,17.114251306400
$GPGGA,000636.00,3447.1033,N,12138.2566,W,1,10,0.8,16.5,M,-33.4,M,,*64
$PYRTM,2024,126.004615480023,17.114262890162
$GPGGA,000637.00,3447.1021,N,12138.2546,W,1,10,0.8,17.0,M,-33.4,M,,*60
$PYRTM,2024,126.004627045961,17.114274456100
$GPGGA,000638.00,3447.1008,N,12138.2524,W,1,10,0.8,17.4,M,-33.4,M,,*64
$PYRTM,2024,126.004637595509,17.114285005648
$GPGGA,000639.00,3447.0996,N,12138.2503,W,1,10,0.8,17.6,M,-33.4,M,,*6D
$PYRTM,2024,126.004649043981,17.114296454120
$GPGGA,000640.00,3447.0982,N,12138.2483,W,1,10,0.8,17.5,M,-33.4,M,,*6C
$PYRTM,2024,126.004661794664,17.114309204803
$GPGGA,000641.00,3447.0969,N,12138.2464,W,1,10,0.8,14.5,M,-33.4,M,,*62
$PYRTM,2024,126.004673341285,17.114320751424
$GPGGA,000642.00,3447.0957,N,12138.2443,W,1,10,0.8,15.9,M,-33.4,M,,*64
$PYRTM,2024,126.004684928125,17.114332338264
$GPGGA,000643.00,3447.0946,N,12138.2421,W,1,10,0.8,16.1,M,-33.4,M,,*6A
$PYRTM,2024,126.004696490347,17.114343900498
$GPGGA,000644.00,3447.0932,N,12138.2401,W,1,10,0.8,14.3,M,-33.4,M,,*6C
$PYRTM,2024,126.004708076852,17.114355486991
$GPGGA,000645.00,3447.0918,N,12138.2383,W,1,10,0.8,16.7,M,-33.4,M,,*6E
$PYRTM,2024,126.004719637824,17.114367047963
$GPGGA,000646.00,3447.0905,N,12138.2364,W,1,10,0.8,17.6,M,-33.4,M,,*68
$PYRTM,2024,126.004731225012,17.114378635150
$GPGGA,000647.00,3447.0890,N,12138.2342,W,1,10,0.8,14.5,M,-33.4,M,,*60
$PYRTM,2024,126.004742785926,17.114390196065
$GPGGA,000648.00,3447.0877,N,12138.2321,W,1,10,0.8,14.1,M,-33.4,M,,*67
$PYRTM,2024,126.004754372396,17.114401782535
$GPGGA,000649.00,3447.0863,N,12138.2301,W,1,10,0.8,12.1,M,-33.4,M,,*67
$PYRTM,2024,126.004765933403,17.114413343542
$GPGGA,000650.00,3447.0850,N,12138.2281,W,1,10,0.8,14.9,M,-33.4,M,,*68
$PYRTM,2024,126.004777520914,17.114424931053
$GPGGA,000651.00,3447.0836,N,12138.2263,W,1,10,0.8,13.2,M,-33.4,M,,*69
$PYRTM,2024,126.004789082824,17.114436492963
$GPGGA,000652.00,3447.0824,N,12138.2245,W,1,10,0.8,13.9,M,-33.4,M,,*66
$PYRTM,2024,126.004800672650,17.114448082789
$GPGGA,000653.00,3447.0812,N,12138.2227,W,1,10,0.8,12.5,M,-33.4,M,,*6B
$PYRTM,2024,126.004812230382,17.114459640521
$GPGGA,000654.00,3447.0799,N,12138.2208,W,1,10,0.8,11.3,M,-33.4,M,,*68
$PYRTM,2024,126.004824152176,17.114471562315
$GPGGA,000655.00,3447.0784,N,12138.2190,W,1,10,0.8,10.8,M,-33.4,M,,*6D
$PYRTM,2024,126.004835738600,17.114483148738
$GPGGA,000656.00,3447.0769,N,12138.2172,W,1,10,0.8,10.4,M,-33.4,M,,*6D
$PYRTM,2024,126.004847415995,17.114494826134
$GPGGA,000657.00,3447.0754,N,12138.2152,W,1,10,0.8,11.4,M,-33.4,M,,*61
$PYRTM,2024,126.004859003958,17.114506414097
$GPGGA,000658.00,3447.0740,N,12138.2132,W,1,10,0.8,12.0,M,-33.4,M,,*6A
$PYRTM,2024,126.004870564259,17.114517974410
$GPGGA,000659.00,3447.0727,N,12138.2112,W,1,10,0.8,11.4,M,-33.4,M,,*6F
$PYRTM,2024,126.004882155023,17.114529565162
$GPGGA,000700.00,3447.0714,N,12138.2090,W,1,10,0.8,11.9,M,-33.4,M,,*64
$PYRTM,2024,126.004893713750,17.114541123889
$GPGGA,000701.00,3447.0700,N,12138.2070,W,1,10,0.8,10.5,M,-33.4,M,,*63
$PYRTM,2024,126.004905303484,17.114552713634
$GPGGA,000702.00,3447.0686,N,12138.2050,W,1,10,0.8,11.4,M,-33.4,M,,*6D
$PYRTM,2024,126.004916861019,17.114564271157
$GPGGA,000703.00,3447.0672,N,12138.2031,W,1,10,0.8,12.1,M,-33.4,M,,*66
$PYRTM,2024,126.004928452500,17.114575862639
$GPGGA,000704.00,3447.0658,N,12138.2012,W,1,10,0.8,10.5,M,-33.4,M,,*6E
$PYRTM,2024,126.004940009653,17.114587419792
$GPGGA,000705.00,3447.0645,N,12138.1994,W,1,10,0.8,9.3,M,-33.4,M,,*59
$PYRTM,2024,126.004951596447,17.114599006586
$GPGGA,000706.00,3447.0630,N,12138.1975,W,1,10,0.8,9.5,M,-33.4,M,,*51
$PYRTM,2024,126.004963158484,17.114610568623
$GPGGA,000707.00,3447.0615,N,12138.1956,W,1,10,0.8,8.2,M,-33.4,M,,*50
$PYRTM,2024,126.004974746725,17.114622156863
$GPGGA,000708.00,3447.0602,N,12138.1936,W,1,10,0.8,7.0,M,-33.4,M,,*52
$PYRTM,2024,126.004984931123,17.114632341262
$GPGGA,000709.00,3447.0589,N,12138.1914,W,1,10,0.8,7.0,M,-33.4,M,,*53
$PYRTM,2024,126.004996269838,17.114643679988
$GPGGA,000710.00,3447.0577,N,12138.1892,W,1,10,0.8,9.6,M,-33.4,M,,*5D
$PYRTM,2024,126.005008883368,17.114656293519
$GPGGA,000711.00,3447.0564,N,12138.1870,W,1,10,0.8,9.5,M,-33.4,M,,*51
$PYRTM,2024,126.005020566898,17.114667977037
$GPGGA,000712.00,3447.0549,N,12138.1851,W,1,10,0.8,11.2,M,-33.4,M,,*60
$PYRTM,2024,126.005032153137,17.114679563275
$GPGGA,000713.00,3447.0535,N,12138.1832,W,1,10,0.8,10.8,M,-33.4,M,,*64
$PYRTM,2024,126.005043599687,17.114691009826
$GPGGA,000714.00,3447.0521,N,12138.1812,W,1,10,0.8,9.3,M,-33.4,M,,*57
$PYRTM,2024,126.005055185486,17.114702595625
$GPGGA,000715.00,3447.0507,N,12138.1793,W,1,10,0.8,9.6,M,-33.4,M,,*51
$PYRTM,2024,126.005066748345,17.114714158484
$GPGGA,000716.00,3447.0492,N,12138.1773,W,1,10,0.8,7.9,M,-33.4,M,,*50
$PYRTM,2024,126.005078329363,17.114725739502
$GPGGA,000717.00,3447.0478,N,12138.1752,W,1,10,0.8,8.6,M,-33.4,M,,*56
$PYRTM,2024,126.005089894132,17.114737304271
$GPGGA,000718.00,3447.0466,N,12138.1730,W,1,10,0.8,9.7,M,-33.4,M,,*52
$PYRTM,2024,126.005101481817,17.114748891956
$GPGGA,000719.00,3447.0455,N,12138.1707,W,1,10,0.8,11.2,M,-33.4,M,,*6B
$PYRTM,2024,126.005113157604,17.114760567743
$GPGGA,000720.00,3447.0441,N,12138.1685,W,1,10,0.8,13.4,M,-33.4,M,,*6B
$PYRTM,2024,126.005124750370,17.114772160509
$GPGGA,000721.00,3447.0425,N,12138.1665,W,1,10,0.8,13.8,M,-33.4,M,,*6A
$PYRTM,2024,126.005136306979,17.114783717118
$GPGGA,000722.00,3447.0408,N,12138.1644,W,1,10,0.8,11.3,M,-33.4,M,,*6C
$PYRTM,2024,126.005146981620,17.114794391759
$GPGGA,000723.00,3447.0392,N,12138.1622,W,1,10,0.8,11.0,M,-33.4,M,,*6A
$PYRTM,2024,126.005158890625,17.114806300764
$GPGGA,000724.00,3447.0380,N,12138.1599,W,1,10,0.8,11.3,M,-33.4,M,,*6E
$PYRTM,2024,126.005170001134,17.114817411273
$GPGGA,000725.00,3447.0370,N,12138.1575,W,1,10,0.8,14.7,M,-33.4,M,,*63
$PYRTM,2024,126.005181228009,17.114828638148
$GPGGA,000726.00,3447.0358,N,12138.1553,W,1,10,0.8,15.3,M,-33.4,M,,*6B
$PYRTM,2024,126.005192338947,17.114839749086
$GPGGA,000727.00,3447.0343,N,12138.1534,W,1,10,0.8,16.1,M,-33.4,M,,*60
$PYRTM,2024,126.005203453021,17.114850863160
$GPGGA,000728.00,3447.0326,N,12138.1517,W,1,10,0.8,14.1,M,-33.4,M,,*6F
$PYRTM,2024,126.005215011134,17.114862421273
$GPGGA,000729.00,3447.0311,N,12138.1500,W,1,10,0.8,17.8,M,-33.4,M,,*66
$PYRTM,2024,126.005226121644,17.114873531782
$GPGGA,000730.00,3447.0299,N,12138.1481,W,1,10,0.8,16.0,M,-33.4,M,,*6E
$PYRTM,2024,126.005237348125,17.114884758264
$GPGGA,000731.00,3447.0287,N,12138.1461,W,1,10,0.8,14.0,M,-33.4,M,,*6C
$PYRTM,2024,126.005248459572,17.114895869711
$GPGGA,000732.00,3447.0274,N,12138.1442,W,1,10,0.8,15.1,M,-33.4,M,,*62
$PYRTM,2024,126.005259570741,17.114906980880
$GPGGA,000733.00,3447.0259,N,12138.1425,W,1,10,0.8,15.5,M,-33.4,M,,*69
$PYRTM,2024,126.005270684190,17.114918094329
$GPGGA,000734.00,3447.0243,N,12138.1405,W,1,10,0.8,14.5,M,-33.4,M,,*66
$PYRTM,2024,126.005281925382,17.114929335532
$GPGGA,000735.00,3447.0229,N,12138.1383,W,1,10,0.8,13.3,M,-33.4,M,,*63
$PYRTM,2024,126.005293034734,17.114940444884
$GPGGA,000736.00,3447.0215,N,12138.1360,W,1,10,0.8,19.4,M,-33.4,M,,*6F
$PYRTM,2024,126.005304608333,17.114952018484
$GPGGA,000737.00,3447.0200,N,12138.1339,W,1,10,0.8,18.0,M,-33.4,M,,*63
$PYRTM,2024,126.005316185602,17.114963595752
$GPGGA,000738.00,3447.0184,N,12138.1319,W,1,10,0.8,15.8,M,-33.4,M,,*64
$PYRTM,2024,126.005332959178,17.114980369329
$GPGGA,000739.00,3447.0169,N,12138.1299,W,1,10,0.8,16.5,M,-33.4,M,,*61
$PYRTM,2024,126.005344525440,17.114991935579
$GPGGA,000740.00,3447.0156,N,12138.1279,W,1,10,0.8,15.5,M,-33.4,M,,*6E
$PYRTM,2024,126.005356112789,17.115003522928
$GPGGA,000741.00,3447.0143,N,12138.1259,W,1,10,0.8,14.4,M,-33.4,M,,*69
$PYRTM,2024,126.005367675799,17.115015085938
$GPGGA,000742.00,3447.0130,N,12138.1241,W,1,10,0.8,14.9,M,-33.4,M,,*6A
$PYRTM,2024,126.005379260590,17.115026670729
$GPGGA,000743.00,3447.0116,N,12138.1223,W,1,10,0.8,14.6,M,-33.4,M,,*64
$PYRTM,2024,126.005390823935,17.115038234074
$GPGGA,000744.00,3447.0103,N,12138.1205,W,1,10,0.8,11.9,M,-33.4,M,,*69
$PYRTM,2024,126.005402404410,17.115049814549
$GPGGA,000745.00,3447.0089,N,12138.1185,W,1,10,0.8,11.0,M,-33.4,M,,*69
$PYRTM,2024,126.005413971319,17.115061381458
$GPGGA,000746.00,3447.0076,N,12138.1164,W,1,10,0.8,11.5,M,-33.4,M,,*60
$PYRTM,2024,126.005425552569,17.115072962708
$GPGGA,000747.00,3447.0063,N,12138.1143,W,1,10,0.8,11.0,M,-33.4,M,,*65
$PYRTM,2024,126.005437120521,17.115084530660
$GPGGA,000748.00,3447.0050,N,12138.1124,W,1,10,0.8,10.7,M,-33.4,M,,*6D
$PYRTM,2024,126.005448826667,17.115096236806
$GPGGA,000749.00,3447.0037,N,12138.1105,W,1,10,0.8,12.0,M,-33.4,M,,*6B
$PYRTM,2024,126.005460383009,17.115107793148
$GPGGA,000750.00,3447.0025,N,12138.1086,W,1,10,0.8,17.0,M,-33.4,M,,*6F
$PYRTM,2024,126.005471857500,17.115119267650
$GPGGA,000751.00,3447.0011,N,12138.1066,W,1,10,0.8,19.0,M,-33.4,M,,*69
$PYRTM,2024,126.005483414931,17.115130825069
$GPGGA,000752.00,3446.9997,N,12138.1045,W,1,10,0.8,16.2,M,-33.4,M,,*69
$PYRTM,2024,126.005495005174,17.115142415313
$GPGGA,000753.00,3446.9982,N,12138.1025,W,1,10,0.8,14.9,M,-33.4,M,,*63
$PYRTM,2024,126.005506564919,17.115153975058
$GPGGA,000754.00,3446.9968,N,12138.1005,W,1,10,0.8,13.7,M,-33.4,M,,*6B
$PYRTM,2024,126.005518382303,17.115165792442
$GPGGA,000755.00,3446.9954,N,12138.0984,W,1,10,0.8,15.5,M,-33.4,M,,*60
$PYRTM,2024,126.005529713472,17.115177123611
$GPGGA,000756.00,3446.9941,N,12138.0963,W,1,10,0.8,17.9,M,-33.4,M,,*60
$PYRTM,2024,126.005541299711,17.115188709850
$GPGGA,000757.00,3446.9928,N,12138.0942,W,1,10,0.8,18.9,M,-33.4,M,,*62
$PYRTM,2024,126.005552860764,17.115200270903
$GPGGA,000758.00,3446.9913,N,12138.0923,W,1,10,0.8,18.9,M,-33.4,M,,*62
$PYRTM,2024,126.005564447697,17.115211857836
$GPGGA,000759.00,3446.9897,N,12138.0903,W,1,10,0.8,19.2,M,-33.4,M,,*66
$PYRTM,2024,126.005576009711,17.115223419850
$GPGGA,000800.00,3446.9882,N,12138.0885,W,1,10,0.8,17.9,M,-33.4,M,,*6B
$PYRTM,2024,126.005587596076,17.115235006227
$GPGGA,000801.00,3446.9868,N,12138.0867,W,1,10,0.8,18.7,M,-33.4,M,,*63
$PYRTM,2024,126.005599156505,17.115246566644
$GPGGA,000802.00,3446.9855,N,12138.0846,W,1,10,0.8,18.3,M,-33.4,M,,*69
$PYRTM,2024,126.005610747836,17.115258157975
$GPGGA,000803.00,3446.9842,N,12138.0825,W,1,10,0.8,19.7,M,-33.4,M,,*6E
$PYRTM,2024,126.005622306227,17.115269716366
$GPGGA,000804.00,3446.9829,N,12138.0805,W,1,10,0.8,19.1,M,-33.4,M,,*60
$PYRTM,2024,126.005633892986,17.115281303137
$GPGGA,000805.00,3446.9815,N,12138.0785,W,1,10,0.8,18.1,M,-33.4,M,,*68
$PYRTM,2024,126.005645455313,17.115292865451
$GPGGA,000806.00,3446.9801,N,12138.0764,W,1,10,0.8,17.7,M,-33.4,M,,*68
$PYRTM,2024,126.005657041539,17.115304451678
$GPGGA,000807.00,3446.9785,N,12138.0745,W,1,10,0.8,18.9,M,-33.4,M,,*68
$PYRTM,2024,126.005668602442,17.115316012581
$GPGGA,000808.00,3446.9770,N,12138.0727,W,1,10,0.8,16.4,M,-33.4,M,,*6A
$PYRTM,2024,126.005678903924,17.115326314063
$GPGGA,000809.00,3446.9756,N,12138.0709,W,1,10,0.8,18.4,M,-33.4,M,,*6D
$PYRTM,2024,126.005690720706,17.115338130845
$GPGGA,000810.00,3446.9743,N,12138.0691,W,1,10,0.8,17.6,M,-33.4,M,,*6C
$PYRTM,2024,126.005703338102,17.115350748252
$GPGGA,000811.00,3446.9729,N,12138.0672,W,1,10,0.8,18.4,M,-33.4,M,,*61
$PYRTM,2024,126.005714898553,17.115362308704
$GPGGA,000812.00,3446.9713,N,12138.0652,W,1,10,0.8,19.2,M,-33.4,M,,*6E
$PYRTM,2024,126.005726500139,17.115373910278
$GPGGA,000813.00,3446.9697,N,12138.0633,W,1,10,0.8,17.1,M,-33.4,M,,*68
$PYRTM,2024,126.005738048819,17.115385458958
$GPGGA,000814.00,3446.9683,N,12138.0613,W,1,10,0.8,15.5,M,-33.4,M,,*6E
$PYRTM,2024,126.005749636505,17.115397046644
$GPGGA,000815.00,3446.9671,N,12138.0592,W,1,10,0.8,14.7,M,-33.4,M,,*6B
$PYRTM,2024,126.005761194178,17.115408604317
$GPGGA,000816.00,3446.9659,N,12138.0570,W,1,10,0.8,14.6,M,-33.4,M,,*6F
$PYRTM,2024,126.005772782755,17.115420192894
$GPGGA,000817.00,3446.9646,N,12138.0549,W,1,10,0.8,14.0,M,-33.4,M,,*6C
$PYRTM,2024,126.005783315729,17.115430725868
$GPGGA,000818.00,3446.9631,N,12138.0529,W,1,10,0.8,16.5,M,-33.4,M,,*62
$PYRTM,2024,126.005796277083,17.115443687222
$GPGGA,000819.00,3446.9614,N,12138.0510,W,1,10,0.8,17.2,M,-33.4,M,,*68
$PYRTM,2024,126.005807492014,17.115454902153
$GPGGA,000820.00,3446.9599,N,12138.0490,W,1,10,0.8,18.6,M,-33.4,M,,*66
$PYRTM,2024,126.005819078808,17.115466488947
$GPGGA,000821.00,3446.9588,N,12138.0470,W,1,10,0.8,15.5,M,-33.4,M,,*67
$PYRTM,2024,126.005830640694,17.115478050833
$GPGGA,000822.00,3446.9576,N,12138.0451,W,1,10,0.8,13.2,M,-33.4,M,,*67
$PYRTM,2024,126.005842225914,17.115489636053
$GPGGA,000823.00,3446.9562,N,12138.0431,W,1,10,0.8,15.2,M,-33.4,M,,*63
$PYRTM,2024,126.005853789352,17.115501199491
$GPGGA,000824.00,3446.9548,N,12138.0412,W,1,10,0.8,17.4,M,-33.4,M,,*69
$PYRTM,2024,126.005865711921,17.115513122072
$GPGGA,000825.00,3446.9534,N,12138.0393,W,1,10,0.8,16.0,M,-33.4,M,,*68
$PYRTM,2024,126.005876937141,17.115524347280
$GPGGA,000826.00,3446.9520,N,12138.0372,W,1,10,0.8,15.6,M,-33.4,M,,*64
$PYRTM,2024,126.005888522986,17.115535933137
$GPGGA,000827.00,3446.9507,N,12138.0351,W,1,10,0.8,17.1,M,-33.4,M,,*64
$PYRTM,2024,126.005900084248,17.115547494387
$GPGGA,000828.00,3446.9493,N,12138.0330,W,1,10,0.8,17.1,M,-33.4,M,,*60
$PYRTM,2024,126.005911673970,17.115559084109
$GPGGA,000829.00,3446.9478,N,12138.0311,W,1,10,0.8,14.6,M,-33.4,M,,*63
$PYRTM,2024,126.005923233090,17.115570643241
$GPGGA,000830.00,3446.9463,N,12138.0292,W,1,10,0.8,15.7,M,-33.4,M,,*6B
$PYRTM,2024,126.005934822801,17.115582232940
$GPGGA,000831.00,3446.9447,N,12138.0272,W,1,10,0.8,15.4,M,-33.4,M,,*61
$PYRTM,2024,126.005946380532,17.115593790671
$GPGGA,000832.00,3446.9432,N,12138.0251,W,1,10,0.8,15.7,M,-33.4,M,,*62
$PYRTM,2024,126.005957969618,17.115605379757
$GPGGA,000833.00,3446.9417,N,12138.0230,W,1,10,0.8,15.1,M,-33.4,M,,*65
$PYRTM,2024,126.005969529248,17.115616939387
$GPGGA,000834.00,3446.9403,N,12138.0208,W,1,10,0.8,16.6,M,-33.4,M,,*68
$PYRTM,2024,126.005981117500,17.115628527639
$GPGGA,000835.00,3446.9388,N,12138.0186,W,1,10,0.8,17.8,M,-33.4,M,,*67
$PYRTM,2024,126.005992677905,17.115640088044
$GPGGA,000836.00,3446.9373,N,12138.0164,W,1,10,0.8,20.4,M,-33.4,M,,*64
