$PYRTM,2024,128.083342323773,19.192989733912
$GPGGA,015959.00,3304.9240,N,11812.3276,W,1,09,0.8,12.5,M,-34.6,M,,*64
$PYRTM,2024,128.083353883414,19.193001293553
$GPGGA,020000.00,3304.9238,N,11812.3266,W,1,09,0.8,12.0,M,-34.6,M,,*6C
$PYRTM,2024,128.083365472037,19.193012882176
$GPGGA,020001.00,3304.9235,N,11812.3256,W,1,09,0.8,12.7,M,-34.6,M,,*64
$PYRTM,2024,128.083377032326,19.193024442477
$GPGGA,020002.00,3304.9231,N,11812.3247,W,1,09,0.8,12.1,M,-34.6,M,,*65
$PYRTM,2024,128.083388609086,19.193036019225
$GPGGA,020003.00,3304.9228,N,11812.3238,W,1,09,0.8,12.3,M,-34.6,M,,*66
$PYRTM,2024,128.083400181296,19.193047591435
$GPGGA,020004.00,3304.9226,N,11812.3230,W,1,09,0.8,11.1,M,-34.6,M,,*66
$PYRTM,2024,128.083411769086,19.193059179236
$GPGGA,020005.00,3304.9224,N,11812.3219,W,1,09,0.8,8.9,M,-34.6,M,,*5E
$PYRTM,2024,128.083423330926,19.193070741065
$GPGGA,020006.00,3304.9222,N,11812.3208,W,1,09,0.8,7.6,M,-34.6,M,,*5B
$PYRTM,2024,128.083434918194,19.193082328333
$GPGGA,020007.00,3304.9218,N,11812.3199,W,1,09,0.8,9.8,M,-34.6,M,,*58
$PYRTM,2024,128.083446478414,19.193093888553
$GPGGA,020008.00,3304.9213,N,11812.3191,W,1,09,0.8,9.5,M,-34.6,M,,*59
$PYRTM,2024,128.083458060556,19.193105470694
$GPGGA,020009.00,3304.9211,N,11812.3181,W,1,09,0.8,10.0,M,-34.6,M,,*66
$PYRTM,2024,128.083469626782,19.193117036921
$GPGGA,020010.00,3304.9209,N,11812.3171,W,1,09,0.8,8.8,M,-34.6,M,,*59
$PYRTM,2024,128.083481215093,19.193128625231
$GPGGA,020011.00,3304.9207,N,11812.3161,W,1,09,0.8,8.0,M,-34.6,M,,*5F
$PYRTM,2024,128.083492776100,19.193140186238
$GPGGA,020012.00,3304.9204,N,11812.3153,W,1,09,0.8,6.3,M,-34.6,M,,*53
$PYRTM,2024,128.083504363206,19.193151773345
$GPGGA,020013.00,3304.9200,N,11812.3146,W,1,09,0.8,7.2,M,-34.6,M,,*52
$PYRTM,2024,128.083515922639,19.193163332778
$GPGGA,020014.00,3304.9197,N,11812.3139,W,1,09,0.8,9.5,M,-34.6,M,,*59
$PYRTM,2024,128.083527505185,19.193174915324
$GPGGA,020015.00,3304.9196,N,11812.3133,W,1,09,0.8,9.4,M,-34.6,M,,*52
$PYRTM,2024,128.083539073530,19.193186483669
$GPGGA,020016.00,3304.9195,N,11812.3126,W,1,09,0.8,9.7,M,-34.6,M,,*55
$PYRTM,2024,128.083550659294,19.193198069433
$GPGGA,020017.00,3304.9192,N,11812.3117,W,1,09,0.8,12.1,M,-34.6,M,,*6D
$PYRTM,2024,128.083562220104,19.193209630243
$GPGGA,020018.00,3304.9188,N,11812.3107,W,1,09,0.8,12.0,M,-34.6,M,,*69
$PYRTM,2024,128.083573807280,19.193221217419
$GPGGA,020019.00,3304.9185,N,11812.3098,W,1,09,0.8,10.4,M,-34.6,M,,*64
$PYRTM,2024,128.083585367940,19.193232778079
$GPGGA,020020.00,3304.9184,N,11812.3088,W,1,09,0.8,9.1,M,-34.6,M,,*53
$PYRTM,2024,128.083596033808,19.193243443947
$GPGGA,020021.00,3304.9183,N,11812.3080,W,1,09,0.8,10.1,M,-34.6,M,,*65
$PYRTM,2024,128.083607474595,19.193254884734
$GPGGA,020022.00,3304.9181,N,11812.3071,W,1,09,0.8,10.8,M,-34.6,M,,*63
$PYRTM,2024,128.083620106644,19.193267516782
$GPGGA,020023.00,3304.9177,N,11812.3063,W,1,09,0.8,11.1,M,-34.6,M,,*60
$PYRTM,2024,128.083631665845,19.193279075984
$GPGGA,020024.00,3304.9174,N,11812.3055,W,1,09,0.8,10.2,M,-34.6,M,,*63
$PYRTM,2024,128.083643255868,19.193290666019
$GPGGA,020025.00,3304.9171,N,11812.3047,W,1,09,0.8,10.4,M,-34.6,M,,*62
$PYRTM,2024,128.083654812488,19.193302222639
$GPGGA,020026.00,3304.9170,N,11812.3037,W,1,09,0.8,12.1,M,-34.6,M,,*60
$PYRTM,2024,128.083666400498,19.193313810637
$GPGGA,020027.00,3304.9168,N,11812.3027,W,1,09,0.8,11.6,M,-34.6,M,,*6D
$PYRTM,2024,128.083677961701,19.193325371840
$GPGGA,020028.00,3304.9165,N,11812.3018,W,1,09,0.8,9.1,M,-34.6,M,,*5D
$PYRTM,2024,128.083689547940,19.193336958079
$GPGGA,020029.00,3304.9161,N,11812.3008,W,1,09,0.8,10.2,M,-34.6,M,,*62
$PYRTM,2024,128.083701109676,19.193348519815
$GPGGA,020030.00,3304.9158,N,11812.2998,W,1,09,0.8,10.5,M,-34.6,M,,*66
$PYRTM,2024,128.083712697755,19.193360107894
$GPGGA,020031.00,3304.9156,N,11812.2989,W,1,09,0.8,9.2,M,-34.6,M,,*56
$PYRTM,2024,128.083724259421,19.193371669560
$GPGGA,020032.00,3304.9153,N,11812.2980,W,1,09,0.8,10.8,M,-34.6,M,,*6B
$PYRTM,2024,128.083735845313,19.193383255451
$GPGGA,020033.00,3304.9149,N,11812.2970,W,1,09,0.8,11.5,M,-34.6,M,,*62
$PYRTM,2024,128.083747404931,19.193394815069
$GPGGA,020034.00,3304.9145,N,11812.2961,W,1,09,0.8,10.3,M,-34.6,M,,*6E
$PYRTM,2024,128.083758993900,19.193406404039
$GPGGA,020035.00,3304.9142,N,11812.2951,W,1,09,0.8,9.0,M,-34.6,M,,*50
$PYRTM,2024,128.083770554850,19.193417965000
$GPGGA,020036.00,3304.9140,N,11812.2942,W,1,09,0.8,10.7,M,-34.6,M,,*6C
$PYRTM,2024,128.083782145440,19.193429555579
$GPGGA,020037.00,3304.9137,N,11812.2933,W,1,09,0.8,8.8,M,-34.6,M,,*5D
$PYRTM,2024,128.083793703704,19.193441113854
$GPGGA,020038.00,3304.9134,N,11812.2924,W,1,09,0.8,10.4,M,-34.6,M,,*62
$PYRTM,2024,128.083805289444,19.193452699595
$GPGGA,020039.00,3304.9133,N,11812.2916,W,1,09,0.8,10.5,M,-34.6,M,,*64
$PYRTM,2024,128.083816851574,19.193464261713
$GPGGA,020040.00,3304.9130,N,11812.2907,W,1,09,0.8,10.1,M,-34.6,M,,*6D
$PYRTM,2024,128.083828438299,19.193475848438
$GPGGA,020041.00,3304.9128,N,11812.2898,W,1,09,0.8,9.5,M,-34.6,M,,*5E
$PYRTM,2024,128.083839998576,19.193487408727
$GPGGA,020042.00,3304.9126,N,11812.2889,W,1,09,0.8,8.5,M,-34.6,M,,*52
$PYRTM,2024,128.083851589410,19.193498999549
$GPGGA,020043.00,3304.9122,N,11812.2881,W,1,09,0.8,11.3,M,-34.6,M,,*61
$PYRTM,2024,128.083863149641,19.193510559780
$GPGGA,020044.00,3304.9119,N,11812.2872,W,1,09,0.8,10.2,M,-34.6,M,,*62
$PYRTM,2024,128.083874730718,19.193522140868
$GPGGA,020045.00,3304.9116,N,11812.2865,W,1,09,0.8,10.0,M,-34.6,M,,*68
$PYRTM,2024,128.083886297813,19.193533707951
$GPGGA,020046.00,3304.9114,N,11812.2856,W,1,09,0.8,8.2,M,-34.6,M,,*52
$PYRTM,2024,128.083897877373,19.193545287512
$GPGGA,020047.00,3304.9110,N,11812.2847,W,1,09,0.8,9.0,M,-34.6,M,,*54
$PYRTM,2024,128.083909445150,19.193556855289
$GPGGA,020048.00,3304.9105,N,11812.2838,W,1,09,0.8,10.0,M,-34.6,M,,*6F
$PYRTM,2024,128.083921031412,19.193568441551
$GPGGA,020049.00,3304.9100,N,11812.2830,W,1,09,0.8,8.4,M,-34.6,M,,*5E
$PYRTM,2024,128.083932591991,19.193580002141
$GPGGA,020050.00,3304.9096,N,11812.2823,W,1,09,0.8,10.3,M,-34.6,M,,*64
$PYRTM,2024,128.083942778345,19.193590188484
$GPGGA,020051.00,3304.9093,N,11812.2815,W,1,09,0.8,11.3,M,-34.6,M,,*64
$PYRTM,2024,128.083954697350,19.193602107488
$GPGGA,020052.00,3304.9091,N,11812.2807,W,1,09,0.8,11.1,M,-34.6,M,,*64
$PYRTM,2024,128.083967330197,19.193614740336
$GPGGA,020053.00,3304.9088,N,11812.2798,W,1,09,0.8,12.7,M,-34.6,M,,*61
$PYRTM,2024,128.083978890660,19.193626300810
$GPGGA,020054.00,3304.9085,N,11812.2789,W,1,09,0.8,10.1,M,-34.6,M,,*6F
$PYRTM,2024,128.083990471690,19.193637881829
$GPGGA,020055.00,3304.9083,N,11812.2780,W,1,09,0.8,10.7,M,-34.6,M,,*67
$PYRTM,2024,128.084002036563,19.193649446701
$GPGGA,020056.00,3304.9082,N,11812.2771,W,1,09,0.8,8.5,M,-34.6,M,,*50
$PYRTM,2024,128.084013624005,19.193661034144
$GPGGA,020057.00,3304.9080,N,11812.2763,W,1,09,0.8,9.6,M,-34.6,M,,*52
$PYRTM,2024,128.084025185370,19.193672595509
$GPGGA,020058.00,3304.9077,N,11812.2754,W,1,09,0.8,9.7,M,-34.6,M,,*50
$PYRTM,2024,128.084036772315,19.193684182454
$GPGGA,020059.00,3304.9074,N,11812.2746,W,1,09,0.8,12.0,M,-34.6,M,,*6C
$PYRTM,2024,128.084048333310,19.193695743449
$GPGGA,020100.00,3304.9072,N,11812.2736,W,1,09,0.8,10.3,M,-34.6,M,,*61
$PYRTM,2024,128.084059919850,19.193707329988
$GPGGA,020101.00,3304.9069,N,11812.2727,W,1,09,0.8,10.9,M,-34.6,M,,*60
$PYRTM,2024,128.084071482049,19.193718892188
$GPGGA,020102.00,3304.9067,N,11812.2718,W,1,09,0.8,9.6,M,-34.6,M,,*56
$PYRTM,2024,128.084083071991,19.193730482130
$GPGGA,020103.00,3304.9065,N,11812.2710,W,1,09,0.8,8.3,M,-34.6,M,,*59
$PYRTM,2024,128.084094630428,19.193742040567
$GPGGA,020104.00,3304.9061,N,11812.2702,W,1,09,0.8,8.0,M,-34.6,M,,*5A
$PYRTM,2024,128.084106219340,19.193753629479
$GPGGA,020105.00,3304.9057,N,11812.2695,W,1,09,0.8,6.9,M,-34.6,M,,*56
$PYRTM,2024,128.084117778715,19.193765188854
$GPGGA,020106.00,3304.9055,N,11812.2686,W,1,09,0.8,7.9,M,-34.6,M,,*54
$PYRTM,2024,128.084129368785,19.193776778924
$GPGGA,020107.00,3304.9052,N,11812.2677,W,1,09,0.8,9.7,M,-34.6,M,,*5C
$PYRTM,2024,128.084140925752,19.193788335891
$GPGGA,020108.00,3304.9049,N,11812.2668,W,1,09,0.8,8.6,M,-34.6,M,,*57
$PYRTM,2024,128.084152513345,19.193799923484
$GPGGA,020109.00,3304.9045,N,11812.2660,W,1,09,0.8,7.8,M,-34.6,M,,*53
$PYRTM,2024,128.084164074225,19.193811484375
$GPGGA,020110.00,3304.9041,N,11812.2651,W,1,09,0.8,7.9,M,-34.6,M,,*5C
$PYRTM,2024,128.084175662465,19.193823072604
$GPGGA,020111.00,3304.9037,N,11812.2643,W,1,09,0.8,10.2,M,-34.6,M,,*62
$PYRTM,2024,128.084187222072,19.193834632211
$GPGGA,020112.00,3304.9033,N,11812.2635,W,1,09,0.8,9.7,M,-34.6,M,,*59
$PYRTM,2024,128.084198810486,19.193846220637
$GPGGA,020113.00,3304.9029,N,11812.2628,W,1,09,0.8,11.0,M,-34.6,M,,*61
$PYRTM,2024,128.084210371076,19.193857781215
$GPGGA,020114.00,3304.9025,N,11812.2621,W,1,09,0.8,7.8,M,-34.6,M,,*5C
$PYRTM,2024,128.084221958600,19.193869368750
$GPGGA,020115.00,3304.9022,N,11812.2612,W,1,09,0.8,8.6,M,-34.6,M,,*5B
$PYRTM,2024,128.084233519190,19.193880929329
$GPGGA,020116.00,3304.9020,N,11812.2603,W,1,09,0.8,10.1,M,-34.6,M,,*64
$PYRTM,2024,128.084245107326,19.193892517477
$GPGGA,020117.00,3304.9018,N,11812.2594,W,1,09,0.8,10.5,M,-34.6,M,,*67
$PYRTM,2024,128.084256667847,19.193904077986
$GPGGA,020118.00,3304.9016,N,11812.2586,W,1,09,0.8,7.7,M,-34.6,M,,*51
$PYRTM,2024,128.084268257025,19.193915667164
$GPGGA,020119.00,3304.9014,N,11812.2576,W,1,09,0.8,10.3,M,-34.6,M,,*6F
$PYRTM,2024,128.084279815394,19.193927225532
$GPGGA,020120.00,3304.9013,N,11812.2567,W,1,09,0.8,9.3,M,-34.6,M,,*5A
$PYRTM,2024,128.084290000694,19.193937410833
$GPGGA,020121.00,3304.9011,N,11812.2558,W,1,09,0.8,7.3,M,-34.6,M,,*5B
$PYRTM,2024,128.084301819514,19.193949229653
$GPGGA,020122.00,3304.9008,N,11812.2548,W,1,09,0.8,7.4,M,-34.6,M,,*56
$PYRTM,2024,128.084314552326,19.193961962477
$GPGGA,020123.00,3304.9004,N,11812.2539,W,1,09,0.8,7.1,M,-34.6,M,,*58
$PYRTM,2024,128.084326112025,19.193973522164
$GPGGA,020124.00,3304.9001,N,11812.2529,W,1,09,0.8,6.9,M,-34.6,M,,*52
$PYRTM,2024,128.084337698218,19.193985108356
$GPGGA,020125.00,3304.8999,N,11812.2519,W,1,09,0.8,6.4,M,-34.6,M,,*54
$PYRTM,2024,128.084349260833,19.193996670972
$GPGGA,020126.00,3304.8997,N,11812.2510,W,1,09,0.8,11.4,M,-34.6,M,,*66
$PYRTM,2024,128.084360850000,19.194008260139
$GPGGA,020127.00,3304.8994,N,11812.2501,W,1,09,0.8,10.0,M,-34.6,M,,*61
$PYRTM,2024,128.084372408808,19.194019818947
$GPGGA,020128.00,3304.8991,N,11812.2492,W,1,09,0.8,9.5,M,-34.6,M,,*5D
$PYRTM,2024,128.084383985243,19.194031395382
$GPGGA,020129.00,3304.8990,N,11812.2483,W,1,09,0.8,8.2,M,-34.6,M,,*5B
$PYRTM,2024,128.084395556296,19.194042966435
$GPGGA,020130.00,3304.8989,N,11812.2475,W,1,09,0.8,9.6,M,-34.6,M,,*57
$PYRTM,2024,128.084407145150,19.194054555301
$GPGGA,020131.00,3304.8987,N,11812.2467,W,1,09,0.8,10.3,M,-34.6,M,,*66
$PYRTM,2024,128.084418706123,19.194066116262
$GPGGA,020132.00,3304.8985,N,11812.2459,W,1,09,0.8,8.7,M,-34.6,M,,*57
$PYRTM,2024,128.084429370995,19.194076781134
$GPGGA,020133.00,3304.8981,N,11812.2452,W,1,09,0.8,11.8,M,-34.6,M,,*6E
$PYRTM,2024,128.084441288310,19.194088698449
$GPGGA,020134.00,3304.8980,N,11812.2443,W,1,09,0.8,12.1,M,-34.6,M,,*62
$PYRTM,2024,128.084450084329,19.194097494479
$GPGGA,020135.00,3304.8977,N,11812.2434,W,1,09,0.8,12.7,M,-34.6,M,,*6D
$PYRTM,2024,128.084467778646,19.194115188785
$GPGGA,020136.00,3304.8974,N,11812.2426,W,1,09,0.8,12.6,M,-34.6,M,,*6F
$PYRTM,2024,128.084479265301,19.194126675440
$GPGGA,020137.00,3304.8969,N,11812.2417,W,1,09,0.8,11.4,M,-34.6,M,,*61
$PYRTM,2024,128.084490351389,19.194137761528
$GPGGA,020138.00,3304.8966,N,11812.2407,W,1,09,0.8,12.0,M,-34.6,M,,*67
$PYRTM,2024,128.084501473484,19.194148883634
$GPGGA,020139.00,3304.8964,N,11812.2396,W,1,09,0.8,10.7,M,-34.6,M,,*6E
$PYRTM,2024,128.084512586053,19.194159996192
$GPGGA,020140.00,3304.8962,N,11812.2385,W,1,09,0.8,12.7,M,-34.6,M,,*66
$PYRTM,2024,128.084523695903,19.194171106053
$GPGGA,020141.00,3304.8959,N,11812.2376,W,1,09,0.8,11.2,M,-34.6,M,,*65
$PYRTM,2024,128.084534809294,19.194182219433
$GPGGA,020142.00,3304.8956,N,11812.2368,W,1,09,0.8,10.3,M,-34.6,M,,*66
$PYRTM,2024,128.084545917419,19.194193327558
$GPGGA,020143.00,3304.8953,N,11812.2360,W,1,09,0.8,11.0,M,-34.6,M,,*68
$PYRTM,2024,128.084557030289,19.194204440428
$GPGGA,020144.00,3304.8951,N,11812.2351,W,1,09,0.8,8.7,M,-34.6,M,,*50
$PYRTM,2024,128.084568486516,19.194215896655
$GPGGA,020145.00,3304.8948,N,11812.2342,W,1,09,0.8,10.1,M,-34.6,M,,*64
$PYRTM,2024,128.084580046250,19.194227456400
$GPGGA,020146.00,3304.8946,N,11812.2334,W,1,09,0.8,8.7,M,-34.6,M,,*57
$PYRTM,2024,128.084591752072,19.194239162211
$GPGGA,020147.00,3304.8943,N,11812.2326,W,1,09,0.8,12.3,M,-34.6,M,,*6F
$PYRTM,2024,128.084603326574,19.194250736725
$GPGGA,020148.00,3304.8941,N,11812.2317,W,1,09,0.8,11.1,M,-34.6,M,,*61
$PYRTM,2024,128.084614902060,19.194262312199
$GPGGA,020149.00,3304.8938,N,11812.2309,W,1,09,0.8,12.4,M,-34.6,M,,*67
$PYRTM,2024,128.084626342512,19.194273752650
$GPGGA,020150.00,3304.8937,N,11812.2300,W,1,09,0.8,11.9,M,-34.6,M,,*67
$PYRTM,2024,128.084638625613,19.194286035752
$GPGGA,020151.00,3304.8934,N,11812.2290,W,1,09,0.8,8.9,M,-34.6,M,,*55
$PYRTM,2024,128.084650186771,19.194297596910
$GPGGA,020152.00,3304.8932,N,11812.2282,W,1,09,0.8,10.3,M,-34.6,M,,*60
$PYRTM,2024,128.084661773542,19.194309183681
$GPGGA,020153.00,3304.8929,N,11812.2275,W,1,09,0.8,11.3,M,-34.6,M,,*62
$PYRTM,2024,128.084673335833,19.194320745972
$GPGGA,020154.00,3304.8927,N,11812.2267,W,1,09,0.8,11.3,M,-34.6,M,,*68
$PYRTM,2024,128.084684924688,19.194332334826
$GPGGA,020155.00,3304.8924,N,11812.2259,W,1,09,0.8,13.8,M,-34.6,M,,*6E
$PYRTM,2024,128.084696485648,19.194343895787
$GPGGA,020156.00,3304.8922,N,11812.2250,W,1,09,0.8,11.2,M,-34.6,M,,*6A
$PYRTM,2024,128.084708072743,19.194355482882
$GPGGA,020157.00,3304.8919,N,11812.2240,W,1,09,0.8,11.2,M,-34.6,M,,*62
$PYRTM,2024,128.084719632442,19.194367042581
$GPGGA,020158.00,3304.8916,N,11812.2231,W,1,09,0.8,10.6,M,-34.6,M,,*61
$PYRTM,2024,128.084731214861,19.194378625000
$GPGGA,020159.00,3304.8913,N,11812.2222,W,1,09,0.8,11.2,M,-34.6,M,,*62
$PYRTM,2024,128.084742779086,19.194390189225
$GPGGA,020200.00,3304.8910,N,11812.2214,W,1,09,0.8,10.7,M,-34.6,M,,*6F
$PYRTM,2024,128.084754370787,19.194401780926
$GPGGA,020201.00,3304.8907,N,11812.2205,W,1,09,0.8,10.8,M,-34.6,M,,*67
$PYRTM,2024,128.084765928935,19.194413339074
$GPGGA,020202.00,3304.8904,N,11812.2196,W,1,09,0.8,9.8,M,-34.6,M,,*56
$PYRTM,2024,128.084777519699,19.194424929850
$GPGGA,020203.00,3304.8901,N,11812.2187,W,1,09,0.8,11.0,M,-34.6,M,,*63
$PYRTM,2024,128.084789077650,19.194436487789
$GPGGA,020204.00,3304.8898,N,11812.2180,W,1,09,0.8,9.9,M,-34.6,M,,*52
$PYRTM,2024,128.084800664687,19.194448074826
$GPGGA,020205.00,3304.8895,N,11812.2172,W,1,09,0.8,10.2,M,-34.6,M,,*60
$PYRTM,2024,128.084812226400,19.194459636539
$GPGGA,020206.00,3304.8893,N,11812.2163,W,1,09,0.8,10.6,M,-34.6,M,,*61
$PYRTM,2024,128.084823813044,19.194471223183
$GPGGA,020207.00,3304.8890,N,11812.2153,W,1,09,0.8,11.9,M,-34.6,M,,*6E
$PYRTM,2024,128.084835373785,19.194482783924
$GPGGA,020208.00,3304.8887,N,11812.2143,W,1,09,0.8,9.7,M,-34.6,M,,*51
$PYRTM,2024,128.084846960532,19.194494370671
$GPGGA,020209.00,3304.8884,N,11812.2133,W,1,09,0.8,8.4,M,-34.6,M,,*56
$PYRTM,2024,128.084858522326,19.194505932465
$GPGGA,020210.00,3304.8881,N,11812.2123,W,1,09,0.8,9.3,M,-34.6,M,,*5C
$PYRTM,2024,128.084870108762,19.194517518900
$GPGGA,020211.00,3304.8879,N,11812.2114,W,1,09,0.8,9.2,M,-34.6,M,,*5F
$PYRTM,2024,128.084881671076,19.194529081215
$GPGGA,020212.00,3304.8876,N,11812.2106,W,1,09,0.8,10.4,M,-34.6,M,,*6E
$PYRTM,2024,128.084893252141,19.194540662292
$GPGGA,020213.00,3304.8873,N,11812.2097,W,1,09,0.8,7.8,M,-34.6,M,,*59
$PYRTM,2024,128.084904819387,19.194552229525
$GPGGA,020214.00,3304.8871,N,11812.2088,W,1,09,0.8,8.8,M,-34.6,M,,*5D
$PYRTM,2024,128.084916405475,19.194563815613
$GPGGA,020215.00,3304.8868,N,11812.2081,W,1,09,0.8,9.2,M,-34.6,M,,*56
$PYRTM,2024,128.084927978808,19.194575388947
$GPGGA,020216.00,3304.8865,N,11812.2073,W,1,09,0.8,9.1,M,-34.6,M,,*56
$PYRTM,2024,128.084939556539,19.194586966678
$GPGGA,020217.00,3304.8862,N,11812.2065,W,1,09,0.8,7.2,M,-34.6,M,,*5A
$PYRTM,2024,128.084951128947,19.194598539086
$GPGGA,020218.00,3304.8859,N,11812.2055,W,1,09,0.8,6.4,M,-34.6,M,,*59
$PYRTM,2024,128.084962702477,19.194610112616
$GPGGA,020219.00,3304.8857,N,11812.2046,W,1,09,0.8,6.7,M,-34.6,M,,*57
$PYRTM,2024,128.084974278958,19.194621689097
$GPGGA,020220.00,3304.8855,N,11812.2036,W,1,09,0.8,9.0,M,-34.6,M,,*50
$PYRTM,2024,128.084984464259,19.194631874398
$GPGGA,020221.00,3304.8852,N,11812.2027,W,1,09,0.8,7.5,M,-34.6,M,,*5D
$PYRTM,2024,128.084996282014,19.194643692153
$GPGGA,020222.00,3304.8849,N,11812.2018,W,1,09,0.8,8.1,M,-34.6,M,,*53
$PYRTM,2024,128.085008999248,19.194656409398
$GPGGA,020223.00,3304.8847,N,11812.2010,W,1,09,0.8,7.4,M,-34.6,M,,*5E
$PYRTM,2024,128.085020567685,19.194667977836
$GPGGA,020224.00,3304.8843,N,11812.2002,W,1,09,0.8,9.6,M,-34.6,M,,*52
$PYRTM,2024,128.085032146875,19.194679557025
$GPGGA,020225.00,3304.8841,N,11812.1992,W,1,09,0.8,7.8,M,-34.6,M,,*52
$PYRTM,2024,128.085043720185,19.194691130324
$GPGGA,020226.00,3304.8838,N,11812.1983,W,1,09,0.8,8.0,M,-34.6,M,,*58
$PYRTM,2024,128.085055295058,19.194702705197
$GPGGA,020227.00,3304.8836,N,11812.1974,W,1,09,0.8,7.0,M,-34.6,M,,*50
$PYRTM,2024,128.085066869294,19.194714279444
$GPGGA,020228.00,3304.8833,N,11812.1965,W,1,09,0.8,8.7,M,-34.6,M,,*52
$PYRTM,2024,128.085078445961,19.194725856100
$GPGGA,020229.00,3304.8830,N,11812.1956,W,1,09,0.8,7.7,M,-34.6,M,,*5F
$PYRTM,2024,128.085090016609,19.194737426748
$GPGGA,020230.00,3304.8827,N,11812.1948,W,1,09,0.8,7.5,M,-34.6,M,,*5C
$PYRTM,2024,128.085101594329,19.194749004479
$GPGGA,020231.00,3304.8824,N,11812.1940,W,1,09,0.8,8.8,M,-34.6,M,,*54
$PYRTM,2024,128.085113165613,19.194760575752
$GPGGA,020232.00,3304.8821,N,11812.1931,W,1,09,0.8,9.5,M,-34.6,M,,*58
$PYRTM,2024,128.085123569954,19.194770980093
$GPGGA,020233.00,3304.8816,N,11812.1922,W,1,09,0.8,7.5,M,-34.6,M,,*51
$PYRTM,2024,128.085136315104,19.194783725243
$GPGGA,020234.00,3304.8812,N,11812.1912,W,1,09,0.8,6.8,M,-34.6,M,,*5D
$PYRTM,2024,128.085147888333,19.194795298472
$GPGGA,020235.00,3304.8809,N,11812.1904,W,1,09,0.8,5.9,M,-34.6,M,,*53
$PYRTM,2024,128.085159461898,19.194806872037
$GPGGA,020236.00,3304.8806,N,11812.1897,W,1,09,0.8,8.1,M,-34.6,M,,*51
$PYRTM,2024,128.085171036354,19.194818446493
$GPGGA,020237.00,3304.8803,N,11812.1889,W,1,09,0.8,7.0,M,-34.6,M,,*54
$PYRTM,2024,128.085182605729,19.194830015868
$GPGGA,020238.00,3304.8801,N,11812.1880,W,1,09,0.8,6.0,M,-34.6,M,,*51
$PYRTM,2024,128.085194179664,19.194841589803
$GPGGA,020239.00,3304.8798,N,11812.1872,W,1,09,0.8,7.0,M,-34.6,M,,*53
$PYRTM,2024,128.085205759664,19.194853169815
$GPGGA,020240.00,3304.8794,N,11812.1864,W,1,09,0.8,7.8,M,-34.6,M,,*5E
$PYRTM,2024,128.085217334502,19.194864744641
$GPGGA,020241.00,3304.8792,N,11812.1856,W,1,09,0.8,7.5,M,-34.6,M,,*55
$PYRTM,2024,128.085228906667,19.194876316806
$GPGGA,020242.00,3304.8789,N,11812.1848,W,1,09,0.8,7.2,M,-34.6,M,,*54
$PYRTM,2024,128.085240482523,19.194887892662
$GPGGA,020243.00,3304.8787,N,11812.1841,W,1,09,0.8,8.9,M,-34.6,M,,*56
$PYRTM,2024,128.085252049572,19.194899459711
$GPGGA,020244.00,3304.8785,N,11812.1832,W,1,09,0.8,9.7,M,-34.6,M,,*58
$PYRTM,2024,128.085263632303,19.194911042454
$GPGGA,020245.00,3304.8782,N,11812.1823,W,1,09,0.8,8.4,M,-34.6,M,,*5C
$PYRTM,2024,128.085275203507,19.194922613646
$GPGGA,020246.00,3304.8778,N,11812.1814,W,1,09,0.8,6.5,M,-34.6,M,,*51
$PYRTM,2024,128.085286778600,19.194934188738
$GPGGA,020247.00,3304.8776,N,11812.1805,W,1,09,0.8,6.4,M,-34.6,M,,*5F
$PYRTM,2024,128.085298352095,19.194945762234
$GPGGA,020248.00,3304.8774,N,11812.1797,W,1,09,0.8,5.9,M,-34.6,M,,*58
$PYRTM,2024,128.085309926111,19.194957336250
$GPGGA,020249.00,3304.8772,N,11812.1790,W,1,09,0.8,7.3,M,-34.6,M,,*50
$PYRTM,2024,128.085321499618,19.194968909757
$GPGGA,020250.00,3304.8769,N,11812.1783,W,1,09,0.8,8.9,M,-34.6,M,,*55
$PYRTM,2024,128.085332148449,19.194979558588
$GPGGA,020251.00,3304.8768,N,11812.1775,W,1,09,0.8,10.6,M,-34.6,M,,*6A
$PYRTM,2024,128.085343507627,19.194990917778
$GPGGA,020252.00,3304.8767,N,11812.1766,W,1,09,0.8,9.2,M,-34.6,M,,*58
$PYRTM,2024,128.085356217095,19.195003627234
$GPGGA,020253.00,3304.8766,N,11812.1756,W,1,09,0.8,9.3,M,-34.6,M,,*5A
$PYRTM,2024,128.085367795625,19.195015205752
$GPGGA,020254.00,3304.8763,N,11812.1747,W,1,09,0.8,10.6,M,-34.6,M,,*65
$PYRTM,2024,128.085379371053,19.195026781192
$GPGGA,020255.00,3304.8759,N,11812.1738,W,1,09,0.8,13.1,M,-34.6,M,,*61
$PYRTM,2024,128.085390932708,19.195038342847
$GPGGA,020256.00,3304.8757,N,11812.1728,W,1,09,0.8,11.9,M,-34.6,M,,*67
$PYRTM,2024,128.085402517951,19.195049928090
$GPGGA,020257.00,3304.8755,N,11812.1719,W,1,09,0.8,11.5,M,-34.6,M,,*6A
$PYRTM,2024,128.085414091308,19.195061501447
$GPGGA,020258.00,3304.8754,N,11812.1709,W,1,09,0.8,11.3,M,-34.6,M,,*63
$PYRTM,2024,128.085425679988,19.195073090127
$GPGGA,020259.00,3304.8751,N,11812.1701,W,1,09,0.8,9.2,M,-34.6,M,,*57
$PYRTM,2024,128.085437240961,19.195084651100
$GPGGA,020300.00,3304.8748,N,11812.1693,W,1,09,0.8,8.9,M,-34.6,M,,*52
$PYRTM,2024,128.085448818264,19.195096228403
$GPGGA,020301.00,3304.8745,N,11812.1685,W,1,09,0.8,9.9,M,-34.6,M,,*58
$PYRTM,2024,128.085460389271,19.195107799410
$GPGGA,020302.00,3304.8743,N,11812.1677,W,1,09,0.8,10.7,M,-34.6,M,,*66
$PYRTM,2024,128.085471964711,19.195119374850
$GPGGA,020303.00,3304.8740,N,11812.1670,W,1,09,0.8,10.3,M,-34.6,M,,*67
$PYRTM,2024,128.085483539063,19.195130949201
$GPGGA,020304.00,3304.8738,N,11812.1662,W,1,09,0.8,9.7,M,-34.6,M,,*50
$PYRTM,2024,128.085495099919,19.195142510069
$GPGGA,020305.00,3304.8735,N,11812.1653,W,1,09,0.8,8.9,M,-34.6,M,,*51
$PYRTM,2024,128.085506673449,19.195154083600
$GPGGA,020306.00,3304.8732,N,11812.1644,W,1,09,0.8,10.5,M,-34.6,M,,*66
$PYRTM,2024,128.085518260405,19.195165670544
$GPGGA,020307.00,3304.8729,N,11812.1634,W,1,09,0.8,9.4,M,-34.6,M,,*53
$PYRTM,2024,128.085529718264,19.195177128403
$GPGGA,020308.00,3304.8726,N,11812.1626,W,1,09,0.8,7.6,M,-34.6,M,,*5C
$PYRTM,2024,128.085541409329,19.195188819479
$GPGGA,020309.00,3304.8723,N,11812.1619,W,1,09,0.8,9.5,M,-34.6,M,,*59
$PYRTM,2024,128.085552982153,19.195200392303
$GPGGA,020310.00,3304.8720,N,11812.1611,W,1,09,0.8,8.8,M,-34.6,M,,*56
$PYRTM,2024,128.085564559120,19.195211969259
$GPGGA,020311.00,3304.8716,N,11812.1603,W,1,09,0.8,10.1,M,-34.6,M,,*61
$PYRTM,2024,128.085576130324,19.195223540463
$GPGGA,020312.00,3304.8714,N,11812.1594,W,1,09,0.8,10.8,M,-34.6,M,,*64
$PYRTM,2024,128.085587573819,19.195234983958
$GPGGA,020313.00,3304.8711,N,11812.1585,W,1,09,0.8,9.7,M,-34.6,M,,*57
$PYRTM,2024,128.085599162639,19.195246572778
$GPGGA,020314.00,3304.8708,N,11812.1576,W,1,09,0.8,8.7,M,-34.6,M,,*55
$PYRTM,2024,128.085610723183,19.195258133322
$GPGGA,020315.00,3304.8705,N,11812.1568,W,1,09,0.8,8.2,M,-34.6,M,,*53
$PYRTM,2024,128.085622311065,19.195269721204
$GPGGA,020316.00,3304.8702,N,11812.1560,W,1,09,0.8,8.3,M,-34.6,M,,*5E
$PYRTM,2024,128.085633987025,19.195281397164
$GPGGA,020317.00,3304.8699,N,11812.1553,W,1,09,0.8,11.8,M,-34.6,M,,*6F
$PYRTM,2024,128.085645574525,19.195292984676
$GPGGA,020318.00,3304.8696,N,11812.1545,W,1,09,0.8,12.2,M,-34.6,M,,*61
$PYRTM,2024,128.085657135347,19.195304545486
$GPGGA,020319.00,3304.8693,N,11812.1537,W,1,09,0.8,13.1,M,-34.6,M,,*62
$PYRTM,2024,128.085668724259,19.195316134410
$GPGGA,020320.00,3304.8691,N,11812.1529,W,1,09,0.8,12.8,M,-34.6,M,,*6D
$PYRTM,2024,128.085678909699,19.195326319838
$GPGGA,020321.00,3304.8687,N,11812.1522,W,1,09,0.8,11.8,M,-34.6,M,,*63
$PYRTM,2024,128.085690717847,19.195338127986
$GPGGA,020322.00,3304.8683,N,11812.1515,W,1,09,0.8,9.8,M,-34.6,M,,*59
$PYRTM,2024,128.085703430752,19.195350840891
$GPGGA,020323.00,3304.8680,N,11812.1507,W,1,09,0.8,11.6,M,-34.6,M,,*6F
$PYRTM,2024,128.085714904294,19.195362314433
$GPGGA,020324.00,3304.8677,N,11812.1499,W,1,09,0.8,9.7,M,-34.6,M,,*5E
$PYRTM,2024,128.085726467222,19.195373877361
$GPGGA,020325.00,3304.8674,N,11812.1490,W,1,09,0.8,9.2,M,-34.6,M,,*50
$PYRTM,2024,128.085738052940,19.195385463079
$GPGGA,020326.00,3304.8672,N,11812.1481,W,1,09,0.8,8.5,M,-34.6,M,,*53
$PYRTM,2024,128.085749615255,19.195397025394
$GPGGA,020327.00,3304.8670,N,11812.1473,W,1,09,0.8,7.8,M,-34.6,M,,*5F
$PYRTM,2024,128.085761315775,19.195408725926
$GPGGA,020328.00,3304.8668,N,11812.1465,W,1,09,0.8,10.5,M,-34.6,M,,*65
$PYRTM,2024,128.085772879757,19.195420289896
$GPGGA,020329.00,3304.8665,N,11812.1459,W,1,09,0.8,10.7,M,-34.6,M,,*64
$PYRTM,2024,128.085784464398,19.195431874549
$GPGGA,020330.00,3304.8662,N,11812.1451,W,1,09,0.8,11.8,M,-34.6,M,,*6D
$PYRTM,2024,128.085796024977,19.195443435116
$GPGGA,020331.00,3304.8658,N,11812.1443,W,1,09,0.8,11.9,M,-34.6,M,,*67
$PYRTM,2024,128.085807600880,19.195455011019
$GPGGA,020332.00,3304.8656,N,11812.1433,W,1,09,0.8,11.0,M,-34.6,M,,*64
$PYRTM,2024,128.085819172593,19.195466582731
$GPGGA,020333.00,3304.8655,N,11812.1423,W,1,09,0.8,11.8,M,-34.6,M,,*6F
$PYRTM,2024,128.085830761481,19.195478171620
$GPGGA,020334.00,3304.8652,N,11812.1414,W,1,09,0.8,13.4,M,-34.6,M,,*65
$PYRTM,2024,128.085842321389,19.195489731528
$GPGGA,020335.00,3304.8649,N,11812.1405,W,1,09,0.8,12.5,M,-34.6,M,,*6E
$PYRTM,2024,128.085853909560,19.195501319699
$GPGGA,020336.00,3304.8646,N,11812.1397,W,1,09,0.8,12.3,M,-34.6,M,,*68
$PYRTM,2024,128.085865471262,19.195512881400
$GPGGA,020337.00,3304.8642,N,11812.1389,W,1,09,0.8,13.3,M,-34.6,M,,*63
$PYRTM,2024,128.085876132616,19.195523542755
$GPGGA,020338.00,3304.8638,N,11812.1381,W,1,09,0.8,14.4,M,-34.6,M,,*69
$PYRTM,2024,128.085888052569,19.195535462708
$GPGGA,020339.00,3304.8635,N,11812.1373,W,1,09,0.8,12.5,M,-34.6,M,,*6F
$PYRTM,2024,128.085898688970,19.195546099109
$GPGGA,020340.00,3304.8632,N,11812.1365,W,1,09,0.8,11.1,M,-34.6,M,,*66
$PYRTM,2024,128.085910278414,19.195557688553
$GPGGA,020341.00,3304.8627,N,11812.1358,W,1,09,0.8,11.8,M,-34.6,M,,*64
$PYRTM,2024,128.085921386771,19.195568796910
$GPGGA,020342.00,3304.8624,N,11812.1351,W,1,09,0.8,11.1,M,-34.6,M,,*64
$PYRTM,2024,128.085932492801,19.195579902940
$GPGGA,020343.00,3304.8622,N,11812.1343,W,1,09,0.8,9.8,M,-34.6,M,,*50
$PYRTM,2024,128.085943617407,19.195591027546
$GPGGA,020344.00,3304.8620,N,11812.1335,W,1,09,0.8,10.8,M,-34.6,M,,*6C
$PYRTM,2024,128.085954604722,19.195602014861
$GPGGA,020345.00,3304.8617,N,11812.1327,W,1,09,0.8,13.1,M,-34.6,M,,*60
$PYRTM,2024,128.085965717963,19.195613128102
$GPGGA,020346.00,3304.8613,N,11812.1319,W,1,09,0.8,10.1,M,-34.6,M,,*69
$PYRTM,2024,128.085976826863,19.195624237002
$GPGGA,020347.00,3304.8610,N,11812.1311,W,1,09,0.8,9.3,M,-34.6,M,,*59
$PYRTM,2024,128.085987940856,19.195635350995
$GPGGA,020348.00,3304.8608,N,11812.1301,W,1,09,0.8,9.2,M,-34.6,M,,*5F
$PYRTM,2024,128.085999049896,19.195646460035
$GPGGA,020349.00,3304.8607,N,11812.1289,W,1,09,0.8,6.6,M,-34.6,M,,*5B
$PYRTM,2024,128.086010610382,19.195658020521
$GPGGA,020350.00,3304.8606,N,11812.1278,W,1,09,0.8,6.2,M,-34.6,M,,*58
$PYRTM,2024,128.086027392558,19.195674802697
$GPGGA,020351.00,3304.8604,N,11812.1268,W,1,09,0.8,6.9,M,-34.6,M,,*51
$PYRTM,2024,128.086039096019,19.195686506157
$GPGGA,020352.00,3304.8600,N,11812.1260,W,1,09,0.8,10.5,M,-34.6,M,,*65
$PYRTM,2024,128.086050655405,19.195698065544
$GPGGA,020353.00,3304.8598,N,11812.1252,W,1,09,0.8,11.9,M,-34.6,M,,*6A
$PYRTM,2024,128.086062232512,19.195709642650
$GPGGA,020354.00,3304.8596,N,11812.1243,W,1,09,0.8,10.2,M,-34.6,M,,*69
$PYRTM,2024,128.086073688403,19.195721098542
$GPGGA,020355.00,3304.8595,N,11812.1232,W,1,09,0.8,9.8,M,-34.6,M,,*5F
$PYRTM,2024,128.086085386424,19.195732796562
$GPGGA,020356.00,3304.8593,N,11812.1223,W,1,09,0.8,10.2,M,-34.6,M,,*68
$PYRTM,2024,128.086096837118,19.195744247257
$GPGGA,020357.00,3304.8589,N,11812.1215,W,1,09,0.8,7.6,M,-34.6,M,,*55
$PYRTM,2024,128.086108425231,19.195755835370
$GPGGA,020358.00,3304.8585,N,11812.1207,W,1,09,0.8,8.4,M,-34.6,M,,*58
$PYRTM,2024,128.086120100069,19.195767510208
$GPGGA,020359.00,3304.8582,N,11812.1199,W,1,09,0.8,11.8,M,-34.6,M,,*6E
$PYRTM,2024,128.086131687662,19.195779097801
$GPGGA,020400.00,3304.8580,N,11812.1189,W,1,09,0.8,10.0,M,-34.6,M,,*6F
$PYRTM,2024,128.086143247373,19.195790657512
$GPGGA,020401.00,3304.8579,N,11812.1179,W,1,09,0.8,10.8,M,-34.6,M,,*6F
$PYRTM,2024,128.086154838611,19.195802248762
$GPGGA,020402.00,3304.8577,N,11812.1170,W,1,09,0.8,11.7,M,-34.6,M,,*65
$PYRTM,2024,128.086166398519,19.195813808657
$GPGGA,020403.00,3304.8573,N,11812.1163,W,1,09,0.8,13.2,M,-34.6,M,,*65
$PYRTM,2024,128.086177979676,19.195825389815
$GPGGA,020404.00,3304.8569,N,11812.1155,W,1,09,0.8,12.7,M,-34.6,M,,*68
$PYRTM,2024,128.086189545289,19.195836955440
$GPGGA,020405.00,3304.8567,N,11812.1146,W,1,09,0.8,10.6,M,-34.6,M,,*66
$PYRTM,2024,128.086201017824,19.195848427963
$GPGGA,020406.00,3304.8565,N,11812.1137,W,1,09,0.8,9.9,M,-34.6,M,,*56
$PYRTM,2024,128.086212579178,19.195859989317
$GPGGA,020407.00,3304.8563,N,11812.1128,W,1,09,0.8,7.5,M,-34.6,M,,*5D
$PYRTM,2024,128.086224159931,19.195871570069
$GPGGA,020408.00,3304.8558,N,11812.1119,W,1,09,0.8,8.3,M,-34.6,M,,*51
$PYRTM,2024,128.086235841736,19.195883251875
$GPGGA,020409.00,3304.8554,N,11812.1110,W,1,09,0.8,11.4,M,-34.6,M,,*6A
$PYRTM,2024,128.086247418449,19.195894828588
$GPGGA,020410.00,3304.8552,N,11812.1100,W,1,09,0.8,10.3,M,-34.6,M,,*63
$PYRTM,2024,128.086258876644,19.195906286782
$GPGGA,020411.00,3304.8551,N,11812.1091,W,1,09,0.8,7.7,M,-34.6,M,,*5A
$PYRTM,2024,128.086270457303,19.195917867442
$GPGGA,020412.00,3304.8549,N,11812.1082,W,1,09,0.8,6.9,M,-34.6,M,,*5D
$PYRTM,2024,128.086282024294,19.195929434433
$GPGGA,020413.00,3304.8545,N,11812.1077,W,1,09,0.8,3.7,M,-34.6,M,,*51
$PYRTM,2024,128.086293726157,19.195941136296
$GPGGA,020414.00,3304.8540,N,11812.1071,W,1,09,0.8,6.7,M,-34.6,M,,*50
$PYRTM,2024,128.086305172743,19.195952582882
$GPGGA,020415.00,3304.8536,N,11812.1063,W,1,09,0.8,9.2,M,-34.6,M,,*59
$PYRTM,2024,128.086316772512,19.195964182650
$GPGGA,020416.00,3304.8533,N,11812.1053,W,1,09,0.8,9.6,M,-34.6,M,,*58
$PYRTM,2024,128.086328435486,19.195975845625
$GPGGA,020417.00,3304.8530,N,11812.1044,W,1,09,0.8,10.6,M,-34.6,M,,*64
$PYRTM,2024,128.086340022870,19.195987433021
$GPGGA,020418.00,3304.8526,N,11812.1036,W,1,09,0.8,11.1,M,-34.6,M,,*6F
$PYRTM,2024,128.086351467755,19.195998877894
$GPGGA,020419.00,3304.8522,N,11812.1028,W,1,09,0.8,9.7,M,-34.6,M,,*5A
$PYRTM,2024,128.086363058507,19.196010468646
$GPGGA,020420.00,3304.8518,N,11812.1020,W,1,09,0.8,8.0,M,-34.6,M,,*57
$PYRTM,2024,128.086373356319,19.196020766458
$GPGGA,020421.00,3304.8517,N,11812.1008,W,1,09,0.8,10.9,M,-34.6,M,,*63
$PYRTM,2024,128.086385278762,19.196032688900
$GPGGA,020422.00,3304.8517,N,11812.0998,W,1,09,0.8,11.2,M,-34.6,M,,*6B
$PYRTM,2024,128.086397765231,19.196045175370
$GPGGA,020423.00,3304.8516,N,11812.0990,W,1,09,0.8,9.2,M,-34.6,M,,*5A
$PYRTM,2024,128.086409467685,19.196056877824
$GPGGA,020424.00,3304.8512,N,11812.0982,W,1,09,0.8,11.5,M,-34.6,M,,*64
$PYRTM,2024,128.086421028299,19.196068438449
$GPGGA,020425.00,3304.8508,N,11812.0974,W,1,09,0.8,10.9,M,-34.6,M,,*6A
$PYRTM,2024,128.086432615208,19.196080025347
$GPGGA,020426.00,3304.8505,N,11812.0965,W,1,09,0.8,11.2,M,-34.6,M,,*6E
$PYRTM,2024,128.086444176146,19.196091586285
$GPGGA,020427.00,3304.8503,N,11812.0956,W,1,09,0.8,10.7,M,-34.6,M,,*6D
$PYRTM,2024,128.086455649259,19.196103059398
$GPGGA,020428.00,3304.8501,N,11812.0947,W,1,09,0.8,9.5,M,-34.6,M,,*5A
$PYRTM,2024,128.086467323021,19.196114733171
$GPGGA,020429.00,3304.8497,N,11812.0938,W,1,09,0.8,12.5,M,-34.6,M,,*67
$PYRTM,2024,128.086478907245,19.196126317384
$GPGGA,020430.00,3304.8494,N,11812.0929,W,1,09,0.8,11.0,M,-34.6,M,,*6A
$PYRTM,2024,128.086490471134,19.196137881273
$GPGGA,020431.00,3304.8491,N,11812.0921,W,1,09,0.8,11.4,M,-34.6,M,,*62
$PYRTM,2024,128.086502059329,19.196149469468
$GPGGA,020432.00,3304.8489,N,11812.0913,W,1,09,0.8,10.7,M,-34.6,M,,*6B
$PYRTM,2024,128.086513506111,19.196160916250
$GPGGA,020433.00,3304.8486,N,11812.0905,W,1,09,0.8,8.2,M,-34.6,M,,*5E
$PYRTM,2024,128.086525095243,19.196172505382
$GPGGA,020434.00,3304.8483,N,11812.0898,W,1,09,0.8,7.3,M,-34.6,M,,*57
$PYRTM,2024,128.086535614190,19.196183024329
$GPGGA,020435.00,3304.8480,N,11812.0891,W,1,09,0.8,11.2,M,-34.6,M,,*6A
$PYRTM,2024,128.086548357465,19.196195767604
$GPGGA,020436.00,3304.8476,N,11812.0883,W,1,09,0.8,12.3,M,-34.6,M,,*61
$PYRTM,2024,128.086559916505,19.196207326644
$GPGGA,020437.00,3304.8473,N,11812.0873,W,1,09,0.8,11.6,M,-34.6,M,,*6C
$PYRTM,2024,128.086571389456,19.196218799595
$GPGGA,020438.00,3304.8471,N,11812.0863,W,1,09,0.8,9.4,M,-34.6,M,,*5B
$PYRTM,2024,128.086582950660,19.196230360799
$GPGGA,020439.00,3304.8468,N,11812.0855,W,1,09,0.8,8.5,M,-34.6,M,,*57
$PYRTM,2024,128.086594652836,19.196242062975
$GPGGA,020440.00,3304.8465,N,11812.0847,W,1,09,0.8,10.0,M,-34.6,M,,*6B
$PYRTM,2024,128.086606213322,19.196253623461
$GPGGA,020441.00,3304.8463,N,11812.0839,W,1,09,0.8,10.2,M,-34.6,M,,*67
$PYRTM,2024,128.086617802002,19.196265212141
$GPGGA,020442.00,3304.8461,N,11812.0831,W,1,09,0.8,8.5,M,-34.6,M,,*50
$PYRTM,2024,128.086629247569,19.196276657720
$GPGGA,020443.00,3304.8460,N,11812.0822,W,1,09,0.8,7.3,M,-34.6,M,,*5B
$PYRTM,2024,128.086640949965,19.196288360104
$GPGGA,020444.00,3304.8458,N,11812.0814,W,1,09,0.8,6.7,M,-34.6,M,,*57
$PYRTM,2024,128.086652512454,19.196299922604
$GPGGA,020445.00,3304.8456,N,11812.0806,W,1,09,0.8,7.4,M,-34.6,M,,*59
$PYRTM,2024,128.086664098692,19.196311508831
$GPGGA,020446.00,3304.8454,N,11812.0797,W,1,09,0.8,6.6,M,-34.6,M,,*5C
$PYRTM,2024,128.086675544826,19.196322954965
$GPGGA,020447.00,3304.8452,N,11812.0788,W,1,09,0.8,9.7,M,-34.6,M,,*5B
$PYRTM,2024,128.086687144572,19.196334554711
$GPGGA,020448.00,3304.8450,N,11812.0779,W,1,09,0.8,9.3,M,-34.6,M,,*5C
$PYRTM,2024,128.086698691412,19.196346101551
$GPGGA,020449.00,3304.8447,N,11812.0771,W,1,09,0.8,6.3,M,-34.6,M,,*5C
$PYRTM,2024,128.086710277789,19.196357687928
$GPGGA,020450.00,3304.8444,N,11812.0763,W,1,09,0.8,8.2,M,-34.6,M,,*5B
$PYRTM,2024,128.086720579329,19.196367989479
$GPGGA,020451.00,3304.8442,N,11812.0755,W,1,09,0.8,7.5,M,-34.6,M,,*51
$PYRTM,2024,128.086732385613,19.196379795752
$GPGGA,020452.00,3304.8440,N,11812.0746,W,1,09,0.8,5.3,M,-34.6,M,,*56
$PYRTM,2024,128.086744988854,19.196392399005
$GPGGA,020453.00,3304.8437,N,11812.0737,W,1,09,0.8,7.4,M,-34.6,M,,*54
$PYRTM,2024,128.086756575752,19.196403985891
$GPGGA,020454.00,3304.8434,N,11812.0727,W,1,09,0.8,9.7,M,-34.6,M,,*5C
$PYRTM,2024,128.086768135856,19.196415545995
$GPGGA,020455.00,3304.8430,N,11812.0719,W,1,09,0.8,7.3,M,-34.6,M,,*5E
$PYRTM,2024,128.086779838738,19.196427248889
$GPGGA,020456.00,3304.8427,N,11812.0710,W,1,09,0.8,8.8,M,-34.6,M,,*56
$PYRTM,2024,128.086791398785,19.196438808924
$GPGGA,020457.00,3304.8424,N,11812.0700,W,1,09,0.8,11.1,M,-34.6,M,,*64
$PYRTM,2024,128.086802982512,19.196450392650
$GPGGA,020458.00,3304.8422,N,11812.0690,W,1,09,0.8,10.6,M,-34.6,M,,*63
$PYRTM,2024,128.086814432569,19.196461842708
$GPGGA,020459.00,3304.8421,N,11812.0681,W,1,09,0.8,9.9,M,-34.6,M,,*56
$PYRTM,2024,128.086826137315,19.196473547454
$GPGGA,020500.00,3304.8418,N,11812.0672,W,1,09,0.8,10.6,M,-34.6,M,,*6A
$PYRTM,2024,128.086837696215,19.196485106354
$GPGGA,020501.00,3304.8414,N,11812.0665,W,1,09,0.8,10.8,M,-34.6,M,,*6F
$PYRTM,2024,128.086849279711,19.196496689861
$GPGGA,020502.00,3304.8410,N,11812.0657,W,1,09,0.8,13.7,M,-34.6,M,,*65
$PYRTM,2024,128.086860842245,19.196508252384
$GPGGA,020503.00,3304.8407,N,11812.0650,W,1,09,0.8,11.3,M,-34.6,M,,*63
$PYRTM,2024,128.086872432292,19.196519842431
$GPGGA,020504.00,3304.8404,N,11812.0641,W,1,09,0.8,11.6,M,-34.6,M,,*62
$PYRTM,2024,128.086883991782,19.196531401921
$GPGGA,020505.00,3304.8401,N,11812.0632,W,1,09,0.8,13.5,M,-34.6,M,,*63
$PYRTM,2024,128.086895579525,19.196542989664
$GPGGA,020506.00,3304.8398,N,11812.0623,W,1,09,0.8,10.8,M,-34.6,M,,*69
$PYRTM,2024,128.086907142130,19.196554552269
$GPGGA,020507.00,3304.8395,N,11812.0614,W,1,09,0.8,10.5,M,-34.6,M,,*6C
$PYRTM,2024,128.086918728900,19.196566139051
$GPGGA,020508.00,3304.8392,N,11812.0606,W,1,09,0.8,11.5,M,-34.6,M,,*66
$PYRTM,2024,128.086930175370,19.196577585509
$GPGGA,020509.00,3304.8389,N,11812.0598,W,1,09,0.8,9.7,M,-34.6,M,,*52
$PYRTM,2024,128.086941865000,19.196589275139
$GPGGA,020510.00,3304.8387,N,11812.0589,W,1,09,0.8,12.0,M,-34.6,M,,*69
$PYRTM,2024,128.086953437778,19.196600847917
$GPGGA,020511.00,3304.8385,N,11812.0581,W,1,09,0.8,13.6,M,-34.6,M,,*65
$PYRTM,2024,128.086965024896,19.196612435035
$GPGGA,020512.00,3304.8382,N,11812.0572,W,1,09,0.8,12.5,M,-34.6,M,,*6F
$PYRTM,2024,128.086976470579,19.196623880718
$GPGGA,020513.00,3304.8379,N,11812.0563,W,1,09,0.8,9.3,M,-34.6,M,,*56
$PYRTM,2024,128.086988057662,19.196635467801
$GPGGA,020514.00,3304.8376,N,11812.0553,W,1,09,0.8,8.0,M,-34.6,M,,*5F
$PYRTM,2024,128.086999735752,19.196647145891
$GPGGA,020515.00,3304.8374,N,11812.0544,W,1,09,0.8,10.1,M,-34.6,M,,*62
$PYRTM,2024,128.087011210532,19.196658620671
$GPGGA,020516.00,3304.8371,N,11812.0535,W,1,09,0.8,9.3,M,-34.6,M,,*58
$PYRTM,2024,128.087022882060,19.196670292199
$GPGGA,020517.00,3304.8367,N,11812.0525,W,1,09,0.8,13.0,M,-34.6,M,,*67
$PYRTM,2024,128.087034469884,19.196681880023
$GPGGA,020518.00,3304.8364,N,11812.0516,W,1,09,0.8,12.1,M,-34.6,M,,*6B
$PYRTM,2024,128.087046030486,19.196693440637
$GPGGA,020519.00,3304.8362,N,11812.0506,W,1,09,0.8,11.5,M,-34.6,M,,*6A
$PYRTM,2024,128.087056460729,19.196703870868
$GPGGA,020520.00,3304.8359,N,11812.0496,W,1,09,0.8,11.9,M,-34.6,M,,*6C
$PYRTM,2024,128.087068252928,19.196715663067
$GPGGA,020521.00,3304.8357,N,11812.0486,W,1,09,0.8,10.3,M,-34.6,M,,*69
$PYRTM,2024,128.087079609352,19.196727019502
$GPGGA,020522.00,3304.8355,N,11812.0478,W,1,09,0.8,7.2,M,-34.6,M,,*5E
$PYRTM,2024,128.087092326829,19.196739736968
$GPGGA,020523.00,3304.8353,N,11812.0469,W,1,09,0.8,11.4,M,-34.6,M,,*68
$PYRTM,2024,128.087103798461,19.196751208600
$GPGGA,020524.00,3304.8349,N,11812.0461,W,1,09,0.8,9.6,M,-34.6,M,,*57
$PYRTM,2024,128.087115360382,19.196762770521
$GPGGA,020525.00,3304.8346,N,11812.0452,W,1,09,0.8,8.2,M,-34.6,M,,*5C
$PYRTM,2024,128.087126947928,19.196774358067
$GPGGA,020526.00,3304.8343,N,11812.0442,W,1,09,0.8,9.4,M,-34.6,M,,*5C
$PYRTM,2024,128.087138507674,19.196785917813
$GPGGA,020527.00,3304.8342,N,11812.0432,W,1,09,0.8,9.8,M,-34.6,M,,*57
$PYRTM,2024,128.087150205995,19.196797616134
$GPGGA,020528.00,3304.8339,N,11812.0423,W,1,09,0.8,11.0,M,-34.6,M,,*65
$PYRTM,2024,128.087161770278,19.196809180417
$GPGGA,020529.00,3304.8336,N,11812.0415,W,1,09,0.8,12.0,M,-34.6,M,,*6D
$PYRTM,2024,128.087173358935,19.196820769074
$GPGGA,020530.00,3304.8332,N,11812.0407,W,1,09,0.8,10.8,M,-34.6,M,,*68
$PYRTM,2024,128.087184806447,19.196832216597
$GPGGA,020531.00,3304.8329,N,11812.0400,W,1,09,0.8,8.1,M,-34.6,M,,*54
$PYRTM,2024,128.087196391817,19.196843801956
$GPGGA,020532.00,3304.8326,N,11812.0392,W,1,09,0.8,8.1,M,-34.6,M,,*54
$PYRTM,2024,128.087207953113,19.196855363252
$GPGGA,020533.00,3304.8322,N,11812.0383,W,1,09,0.8,7.0,M,-34.6,M,,*5F
$PYRTM,2024,128.087219656262,19.196867066400
$GPGGA,020534.00,3304.8318,N,11812.0374,W,1,09,0.8,10.4,M,-34.6,M,,*6B
$PYRTM,2024,128.087231102118,19.196878512257
$GPGGA,020535.00,3304.8316,N,11812.0364,W,1,09,0.8,8.0,M,-34.6,M,,*58
$PYRTM,2024,128.087242803669,19.196890213819
$GPGGA,020536.00,3304.8314,N,11812.0356,W,1,09,0.8,10.6,M,-34.6,M,,*67
$PYRTM,2024,128.087254364919,19.196901775058
$GPGGA,020537.00,3304.8312,N,11812.0346,W,1,09,0.8,12.0,M,-34.6,M,,*65
$PYRTM,2024,128.087265952558,19.196913362697
$GPGGA,020538.00,3304.8308,N,11812.0336,W,1,09,0.8,11.5,M,-34.6,M,,*60
$PYRTM,2024,128.087277512986,19.196924923125
$GPGGA,020539.00,3304.8302,N,11812.0328,W,1,09,0.8,12.1,M,-34.6,M,,*63
$PYRTM,2024,128.087289100845,19.196936510984
$GPGGA,020540.00,3304.8298,N,11812.0319,W,1,09,0.8,12.3,M,-34.6,M,,*6F
$PYRTM,2024,128.087300659954,19.196948070104
$GPGGA,020541.00,3304.8294,N,11812.0311,W,1,09,0.8,11.7,M,-34.6,M,,*6D
$PYRTM,2024,128.087312249039,19.196959659190
$GPGGA,020542.00,3304.8290,N,11812.0302,W,1,09,0.8,13.4,M,-34.6,M,,*69
$PYRTM,2024,128.087322883056,19.196970293194
$GPGGA,020543.00,3304.8286,N,11812.0293,W,1,09,0.8,14.8,M,-34.6,M,,*6D
$PYRTM,2024,128.087334805359,19.196982215498
$GPGGA,020544.00,3304.8283,N,11812.0285,W,1,09,0.8,11.1,M,-34.6,M,,*64
$PYRTM,2024,128.087345582755,19.196992992894
$GPGGA,020545.00,3304.8280,N,11812.0277,W,1,09,0.8,8.8,M,-34.6,M,,*5A
$PYRTM,2024,128.087356688414,19.197004098553
$GPGGA,020546.00,3304.8280,N,11812.0269,W,1,09,0.8,11.7,M,-34.6,M,,*61
$PYRTM,2024,128.087367691933,19.197015102072
$GPGGA,020547.00,3304.8278,N,11812.0261,W,1,09,0.8,11.3,M,-34.6,M,,*6B
$PYRTM,2024,128.087378794271,19.197026204410
$GPGGA,020548.00,3304.8276,N,11812.0253,W,1,09,0.8,8.9,M,-34.6,M,,*59
$PYRTM,2024,128.087389924965,19.197037335104
$GPGGA,020549.00,3304.8273,N,11812.0244,W,1,09,0.8,9.3,M,-34.6,M,,*50
$PYRTM,2024,128.087401021493,19.197048431632
$GPGGA,020550.00,3304.8269,N,11812.0235,W,1,09,0.8,12.1,M,-34.6,M,,*6D
$PYRTM,2024,128.087427989919,19.197075400058
$GPGGA,020551.00,3304.8266,N,11812.0225,W,1,09,0.8,12.3,M,-34.6,M,,*60
$PYRTM,2024,128.087439095243,19.197086505382
$GPGGA,020552.00,3304.8264,N,11812.0216,W,1,09,0.8,10.6,M,-34.6,M,,*66
$PYRTM,2024,128.087450211447,19.197097621586
$GPGGA,020553.00,3304.8261,N,11812.0206,W,1,09,0.8,13.2,M,-34.6,M,,*64
$PYRTM,2024,128.087461323102,19.197108733241
$GPGGA,020554.00,3304.8259,N,11812.0196,W,1,09,0.8,14.3,M,-34.6,M,,*64
$PYRTM,2024,128.087472429861,19.197119840000
$GPGGA,020555.00,3304.8257,N,11812.0187,W,1,09,0.8,11.9,M,-34.6,M,,*64
$PYRTM,2024,128.087483540428,19.197130950567
$GPGGA,020556.00,3304.8255,N,11812.0178,W,1,09,0.8,13.8,M,-34.6,M,,*66
$PYRTM,2024,128.087494656921,19.197142067060
$GPGGA,020557.00,3304.8253,N,11812.0170,W,1,09,0.8,12.8,M,-34.6,M,,*68
$PYRTM,2024,128.087505767384,19.197153177523
$GPGGA,020558.00,3304.8250,N,11812.0163,W,1,09,0.8,13.7,M,-34.6,M,,*68
$PYRTM,2024,128.087516879919,19.197164290058
$GPGGA,020559.00,3304.8248,N,11812.0155,W,1,09,0.8,15.6,M,-34.6,M,,*62
$PYRTM,2024,128.087527876366,19.197175286505
$GPGGA,020600.00,3304.8246,N,11812.0146,W,1,09,0.8,12.8,M,-34.6,M,,*68
$PYRTM,2024,128.087538984815,19.197186394954
$GPGGA,020601.00,3304.8244,N,11812.0136,W,1,09,0.8,12.3,M,-34.6,M,,*67
$PYRTM,2024,128.087550100255,19.197197510405
$GPGGA,020602.00,3304.8242,N,11812.0127,W,1,09,0.8,14.9,M,-34.6,M,,*6E
$PYRTM,2024,128.087561209259,19.197208619398
$GPGGA,020603.00,3304.8239,N,11812.0119,W,1,09,0.8,12.3,M,-34.6,M,,*62
$PYRTM,2024,128.087572204352,19.197219614491
$GPGGA,020604.00,3304.8237,N,11812.0110,W,1,09,0.8,9.9,M,-34.6,M,,*52
$PYRTM,2024,128.087583316238,19.197230726377
$GPGGA,020605.00,3304.8236,N,11812.0101,W,1,09,0.8,9.9,M,-34.6,M,,*52
$PYRTM,2024,128.087594421262,19.197241831400
$GPGGA,020606.00,3304.8233,N,11812.0092,W,1,09,0.8,13.2,M,-34.6,M,,*6F
$PYRTM,2024,128.087605988796,19.197253398935
$GPGGA,020607.00,3304.8229,N,11812.0084,W,1,09,0.8,14.7,M,-34.6,M,,*60
$PYRTM,2024,128.087617100428,19.197264510567
$GPGGA,020608.00,3304.8225,N,11812.0077,W,1,09,0.8,11.9,M,-34.6,M,,*64
$PYRTM,2024,128.087628209711,19.197275619850
$GPGGA,020609.00,3304.8221,N,11812.0070,W,1,09,0.8,11.9,M,-34.6,M,,*66
$PYRTM,2024,128.087639320301,19.197286730440
$GPGGA,020610.00,3304.8217,N,11812.0062,W,1,09,0.8,12.4,M,-34.6,M,,*66
$PYRTM,2024,128.087650792060,19.197298202211
$GPGGA,020611.00,3304.8215,N,11812.0054,W,1,09,0.8,9.8,M,-34.6,M,,*56
$PYRTM,2024,128.087661902350,19.197309312488
$GPGGA,020612.00,3304.8213,N,11812.0047,W,1,09,0.8,10.3,M,-34.6,M,,*62
$PYRTM,2024,128.087672885856,19.197320295995
$GPGGA,020613.00,3304.8210,N,11812.0039,W,1,09,0.8,9.8,M,-34.6,M,,*5A
$PYRTM,2024,128.087683995324,19.197331405463
$GPGGA,020614.00,3304.8208,N,11812.0031,W,1,09,0.8,9.1,M,-34.6,M,,*55
$PYRTM,2024,128.087695106667,19.197342516806
$GPGGA,020615.00,3304.8206,N,11812.0022,W,1,09,0.8,10.5,M,-34.6,M,,*64
$PYRTM,2024,128.087706218912,19.197353629051
$GPGGA,020616.00,3304.8203,N,11812.0011,W,1,09,0.8,10.0,M,-34.6,M,,*67
$PYRTM,2024,128.087717458762,19.197364868900
$GPGGA,020617.00,3304.8199,N,11812.0002,W,1,09,0.8,11.3,M,-34.6,M,,*66
$PYRTM,2024,128.087728918426,19.197376328565
$GPGGA,020618.00,3304.8195,N,11811.9992,W,1,09,0.8,11.4,M,-34.6,M,,*68
$PYRTM,2024,128.087740477859,19.197387887998
$GPGGA,020619.00,3304.8192,N,11811.9983,W,1,09,0.8,10.2,M,-34.6,M,,*69
$PYRTM,2024,128.087751950498,19.197399360637
$GPGGA,020620.00,3304.8190,N,11811.9973,W,1,09,0.8,8.1,M,-34.6,M,,*54
$PYRTM,2024,128.087762245197,19.197409655336
$GPGGA,020621.00,3304.8188,N,11811.9963,W,1,09,0.8,9.0,M,-34.6,M,,*5D
$PYRTM,2024,128.087774056273,19.197421466424
$GPGGA,020622.00,3304.8185,N,11811.9954,W,1,09,0.8,10.7,M,-34.6,M,,*68
$PYRTM,2024,128.087786658854,19.197434068993
$GPGGA,020623.00,3304.8181,N,11811.9947,W,1,09,0.8,9.7,M,-34.6,M,,*57
$PYRTM,2024,128.087798245706,19.197445655845
$GPGGA,020624.00,3304.8176,N,11811.9939,W,1,09,0.8,9.0,M,-34.6,M,,*56
$PYRTM,2024,128.087809923241,19.197457333380
$GPGGA,020625.00,3304.8174,N,11811.9931,W,1,09,0.8,10.4,M,-34.6,M,,*61
$PYRTM,2024,128.087821510324,19.197468920463
$GPGGA,020626.00,3304.8171,N,11811.9922,W,1,09,0.8,10.2,M,-34.6,M,,*63
$PYRTM,2024,128.087832955069,19.197480365208
$GPGGA,020627.00,3304.8168,N,11811.9913,W,1,09,0.8,8.4,M,-34.6,M,,*57
$PYRTM,2024,128.087844646250,19.197492056389
$GPGGA,020628.00,3304.8165,N,11811.9905,W,1,09,0.8,10.5,M,-34.6,M,,*6A
$PYRTM,2024,128.087856105058,19.197503515197
$GPGGA,020629.00,3304.8162,N,11811.9896,W,1,09,0.8,8.4,M,-34.6,M,,*5F
$PYRTM,2024,128.087867691632,19.197515101771
$GPGGA,020630.00,3304.8160,N,11811.9890,W,1,09,0.8,8.2,M,-34.6,M,,*55
$PYRTM,2024,128.087879368773,19.197526778912
$GPGGA,020631.00,3304.8158,N,11811.9882,W,1,09,0.8,11.4,M,-34.6,M,,*62
$PYRTM,2024,128.087890955208,19.197538365347
$GPGGA,020632.00,3304.8155,N,11811.9873,W,1,09,0.8,11.4,M,-34.6,M,,*62
$PYRTM,2024,128.087902516319,19.197549926458
$GPGGA,020633.00,3304.8152,N,11811.9865,W,1,09,0.8,10.2,M,-34.6,M,,*64
$PYRTM,2024,128.087913989942,19.197561400081
$GPGGA,020634.00,3304.8149,N,11811.9857,W,1,09,0.8,9.7,M,-34.6,M,,*55
$PYRTM,2024,128.087925550590,19.197572960741
$GPGGA,020635.00,3304.8145,N,11811.9848,W,1,09,0.8,8.8,M,-34.6,M,,*58
$PYRTM,2024,128.087937251192,19.197584661331
$GPGGA,020636.00,3304.8143,N,11811.9838,W,1,09,0.8,11.0,M,-34.6,M,,*6A
$PYRTM,2024,128.087948697512,19.197596107650
$GPGGA,020637.00,3304.8140,N,11811.9829,W,1,09,0.8,8.6,M,-34.6,M,,*56
$PYRTM,2024,128.087960298785,19.197607708924
$GPGGA,020638.00,3304.8136,N,11811.9820,W,1,09,0.8,8.4,M,-34.6,M,,*53
$PYRTM,2024,128.087971844664,19.197619254803
$GPGGA,020639.00,3304.8132,N,11811.9810,W,1,09,0.8,9.3,M,-34.6,M,,*53
$PYRTM,2024,128.087983542697,19.197630952836
$GPGGA,020640.00,3304.8129,N,11811.9802,W,1,09,0.8,11.9,M,-34.6,M,,*67
$PYRTM,2024,128.087995107859,19.197642517998
$GPGGA,020641.00,3304.8126,N,11811.9794,W,1,09,0.8,10.1,M,-34.6,M,,*60
$PYRTM,2024,128.088006583021,19.197653993160
$GPGGA,020642.00,3304.8124,N,11811.9785,W,1,09,0.8,8.6,M,-34.6,M,,*5F
$PYRTM,2024,128.088018142014,19.197665552164
$GPGGA,020643.00,3304.8122,N,11811.9776,W,1,09,0.8,8.4,M,-34.6,M,,*56
$PYRTM,2024,128.088029844155,19.197677254306
$GPGGA,020644.00,3304.8119,N,11811.9768,W,1,09,0.8,6.5,M,-34.6,M,,*59
$PYRTM,2024,128.088041404988,19.197688815139
$GPGGA,020645.00,3304.8115,N,11811.9761,W,1,09,0.8,8.8,M,-34.6,M,,*5E
$PYRTM,2024,128.088052992245,19.197700402384
$GPGGA,020646.00,3304.8111,N,11811.9754,W,1,09,0.8,8.2,M,-34.6,M,,*55
$PYRTM,2024,128.088064553391,19.197711963542
$GPGGA,020647.00,3304.8109,N,11811.9746,W,1,09,0.8,8.1,M,-34.6,M,,*5D
$PYRTM,2024,128.088076136088,19.197723546238
$GPGGA,020648.00,3304.8108,N,11811.9737,W,1,09,0.8,11.7,M,-34.6,M,,*6B
$PYRTM,2024,128.088087702523,19.197735112662
$GPGGA,020649.00,3304.8105,N,11811.9729,W,1,09,0.8,10.5,M,-34.6,M,,*6B
$PYRTM,2024,128.088099288553,19.197746698692
$GPGGA,020650.00,3304.8102,N,11811.9722,W,1,09,0.8,12.1,M,-34.6,M,,*69
$PYRTM,2024,128.088109473600,19.197756883738
$GPGGA,020651.00,3304.8098,N,11811.9714,W,1,09,0.8,9.2,M,-34.6,M,,*56
$PYRTM,2024,128.088121279213,19.197768689352
$GPGGA,020652.00,3304.8096,N,11811.9704,W,1,09,0.8,9.2,M,-34.6,M,,*5A
$PYRTM,2024,128.088133883519,19.197781293657
$GPGGA,020653.00,3304.8095,N,11811.9695,W,1,09,0.8,8.8,M,-34.6,M,,*5A
$PYRTM,2024,128.088145484745,19.197792894884
$GPGGA,020654.00,3304.8092,N,11811.9685,W,1,09,0.8,8.5,M,-34.6,M,,*56
$PYRTM,2024,128.088157032685,19.197804442824
$GPGGA,020655.00,3304.8089,N,11811.9677,W,1,09,0.8,9.4,M,-34.6,M,,*50
$PYRTM,2024,128.088168633438,19.197816043576
$GPGGA,020656.00,3304.8084,N,11811.9668,W,1,09,0.8,9.9,M,-34.6,M,,*5D
$PYRTM,2024,128.088180292257,19.197827702396
$GPGGA,020657.00,3304.8079,N,11811.9661,W,1,09,0.8,8.9,M,-34.6,M,,*56
$PYRTM,2024,128.088191877060,19.197839287199
$GPGGA,020658.00,3304.8076,N,11811.9654,W,1,09,0.8,9.9,M,-34.6,M,,*51
$PYRTM,2024,128.088203442199,19.197850852338
$GPGGA,020659.00,3304.8073,N,11811.9648,W,1,09,0.8,9.5,M,-34.6,M,,*54
$PYRTM,2024,128.088215030231,19.197862440382
$GPGGA,020700.00,3304.8070,N,11811.9640,W,1,09,0.8,9.3,M,-34.6,M,,*54
$PYRTM,2024,128.088226589861,19.197874000000
$GPGGA,020701.00,3304.8066,N,11811.9632,W,1,09,0.8,8.8,M,-34.6,M,,*5D
$PYRTM,2024,128.088238177917,19.197885588056
$GPGGA,020702.00,3304.8062,N,11811.9624,W,1,09,0.8,10.4,M,-34.6,M,,*68
$PYRTM,2024,128.088249739606,19.197897149757
$GPGGA,020703.00,3304.8058,N,11811.9614,W,1,09,0.8,10.6,M,-34.6,M,,*61
$PYRTM,2024,128.088261326736,19.197908736875
$GPGGA,020704.00,3304.8054,N,11811.9605,W,1,09,0.8,10.1,M,-34.6,M,,*6D
$PYRTM,2024,128.088272887130,19.197920297280
$GPGGA,020705.00,3304.8051,N,11811.9596,W,1,09,0.8,12.5,M,-34.6,M,,*66
$PYRTM,2024,128.088284474931,19.197931885069
$GPGGA,020706.00,3304.8047,N,11811.9587,W,1,09,0.8,12.1,M,-34.6,M,,*66
$PYRTM,2024,128.088296035069,19.197943445208
$GPGGA,020707.00,3304.8043,N,11811.9577,W,1,09,0.8,12.4,M,-34.6,M,,*69
$PYRTM,2024,128.088307618148,19.197955028299
$GPGGA,020708.00,3304.8038,N,11811.9568,W,1,09,0.8,10.8,M,-34.6,M,,*6A
$PYRTM,2024,128.088319185058,19.197966595197
$GPGGA,020709.00,3304.8035,N,11811.9560,W,1,09,0.8,9.4,M,-34.6,M,,*5A
$PYRTM,2024,128.088330771690,19.197978181829
$GPGGA,020710.00,3304.8032,N,11811.9552,W,1,09,0.8,10.3,M,-34.6,M,,*6B
$PYRTM,2024,128.088342333623,19.197989743773
$GPGGA,020711.00,3304.8030,N,11811.9543,W,1,09,0.8,11.1,M,-34.6,M,,*6B
$PYRTM,2024,128.088353919525,19.198001329676
$GPGGA,020712.00,3304.8026,N,11811.9535,W,1,09,0.8,9.9,M,-34.6,M,,*5F
$PYRTM,2024,128.088365480891,19.198012891030
$GPGGA,020713.00,3304.8022,N,11811.9527,W,1,09,0.8,9.1,M,-34.6,M,,*51
$PYRTM,2024,128.088377069630,19.198024479769
$GPGGA,020714.00,3304.8016,N,11811.9520,W,1,09,0.8,8.8,M,-34.6,M,,*5E
$PYRTM,2024,128.088388629826,19.198036039965
$GPGGA,020715.00,3304.8011,N,11811.9512,W,1,09,0.8,10.8,M,-34.6,M,,*60
$PYRTM,2024,128.088400216921,19.198047627060
$GPGGA,020716.00,3304.8008,N,11811.9503,W,1,09,0.8,10.6,M,-34.6,M,,*65
$PYRTM,2024,128.088411776042,19.198059186192
$GPGGA,020717.00,3304.8004,N,11811.9494,W,1,09,0.8,11.3,M,-34.6,M,,*63
$PYRTM,2024,128.088423365995,19.198070776146
$GPGGA,020718.00,3304.8000,N,11811.9485,W,1,09,0.8,11.5,M,-34.6,M,,*6E
$PYRTM,2024,128.088434924641,19.198082334780
$GPGGA,020719.00,3304.7995,N,11811.9478,W,1,09,0.8,9.7,M,-34.6,M,,*5C
$PYRTM,2024,128.088446512477,19.198093922616
$GPGGA,020720.00,3304.7992,N,11811.9471,W,1,09,0.8,8.8,M,-34.6,M,,*56
$PYRTM,2024,128.088456693414,19.198104103553
$GPGGA,020721.00,3304.7989,N,11811.9464,W,1,09,0.8,9.6,M,-34.6,M,,*56
$PYRTM,2024,128.088468507176,19.198115917315
$GPGGA,020722.00,3304.7987,N,11811.9455,W,1,09,0.8,7.9,M,-34.6,M,,*58
$PYRTM,2024,128.088481220683,19.198128630822
$GPGGA,020723.00,3304.7984,N,11811.9446,W,1,09,0.8,10.4,M,-34.6,M,,*63
$PYRTM,2024,128.088492804236,19.198140214375
$GPGGA,020724.00,3304.7979,N,11811.9438,W,1,09,0.8,11.2,M,-34.6,M,,*68
$PYRTM,2024,128.088504369410,19.198151779549
$GPGGA,020725.00,3304.7975,N,11811.9429,W,1,09,0.8,11.3,M,-34.6,M,,*64
$PYRTM,2024,128.088515958206,19.198163368345
$GPGGA,020726.00,3304.7971,N,11811.9418,W,1,09,0.8,12.4,M,-34.6,M,,*65
$PYRTM,2024,128.088527517639,19.198174927789
$GPGGA,020727.00,3304.7969,N,11811.9408,W,1,09,0.8,9.0,M,-34.6,M,,*52
$PYRTM,2024,128.088539105718,19.198186515856
$GPGGA,020728.00,3304.7967,N,11811.9398,W,1,09,0.8,8.6,M,-34.6,M,,*5A
$PYRTM,2024,128.088550667442,19.198198077593
$GPGGA,020729.00,3304.7965,N,11811.9389,W,1,09,0.8,8.6,M,-34.6,M,,*59
$PYRTM,2024,128.088562253414,19.198209663565
$GPGGA,020730.00,3304.7962,N,11811.9381,W,1,09,0.8,7.1,M,-34.6,M,,*56
$PYRTM,2024,128.088573814907,19.198221225046
$GPGGA,020731.00,3304.7960,N,11811.9373,W,1,09,0.8,8.4,M,-34.6,M,,*52
$PYRTM,2024,128.088585402141,19.198232812280
$GPGGA,020732.00,3304.7957,N,11811.9367,W,1,09,0.8,9.3,M,-34.6,M,,*56
$PYRTM,2024,128.088596963183,19.198244373322
$GPGGA,020733.00,3304.7953,N,11811.9360,W,1,09,0.8,9.5,M,-34.6,M,,*52
$PYRTM,2024,128.088608551632,19.198255961771
$GPGGA,020734.00,3304.7949,N,11811.9353,W,1,09,0.8,9.6,M,-34.6,M,,*5D
$PYRTM,2024,128.088620110359,19.198267520498
$GPGGA,020735.00,3304.7944,N,11811.9345,W,1,09,0.8,10.1,M,-34.6,M,,*69
$PYRTM,2024,128.088631687106,19.198279097245
$GPGGA,020736.00,3304.7940,N,11811.9336,W,1,09,0.8,11.1,M,-34.6,M,,*6B
$PYRTM,2024,128.088643259757,19.198290669896
$GPGGA,020737.00,3304.7936,N,11811.9328,W,1,09,0.8,9.4,M,-34.6,M,,*58
$PYRTM,2024,128.088654847778,19.198302257917
$GPGGA,020738.00,3304.7932,N,11811.9321,W,1,09,0.8,9.4,M,-34.6,M,,*5A
$PYRTM,2024,128.088666406852,19.198313816991
$GPGGA,020739.00,3304.7928,N,11811.9314,W,1,09,0.8,8.6,M,-34.6,M,,*55
$PYRTM,2024,128.088677994306,19.198325404444
$GPGGA,020740.00,3304.7925,N,11811.9309,W,1,09,0.8,8.9,M,-34.6,M,,*55
$PYRTM,2024,128.088689555625,19.198336965764
$GPGGA,020741.00,3304.7922,N,11811.9301,W,1,09,0.8,5.6,M,-34.6,M,,*59
$PYRTM,2024,128.088701131238,19.198348541377
$GPGGA,020742.00,3304.7920,N,11811.9293,W,1,09,0.8,6.7,M,-34.6,M,,*50
$PYRTM,2024,128.088712703067,19.198360113206
$GPGGA,020743.00,3304.7917,N,11811.9285,W,1,09,0.8,7.2,M,-34.6,M,,*56
$PYRTM,2024,128.088724292245,19.198371702384
$GPGGA,020744.00,3304.7913,N,11811.9277,W,1,09,0.8,11.9,M,-34.6,M,,*64
$PYRTM,2024,128.088735852234,19.198383262373
$GPGGA,020745.00,3304.7909,N,11811.9268,W,1,09,0.8,12.1,M,-34.6,M,,*6B
$PYRTM,2024,128.088747434340,19.198394844479
$GPGGA,020746.00,3304.7905,N,11811.9259,W,1,09,0.8,11.8,M,-34.6,M,,*6C
$PYRTM,2024,128.088759000949,19.198406411088
$GPGGA,020747.00,3304.7901,N,11811.9249,W,1,09,0.8,11.1,M,-34.6,M,,*61
$PYRTM,2024,128.088769656852,19.198417066991
$GPGGA,020748.00,3304.7898,N,11811.9241,W,1,09,0.8,10.4,M,-34.6,M,,*63
$PYRTM,2024,128.088781583843,19.198428993981
$GPGGA,020749.00,3304.7894,N,11811.9233,W,1,09,0.8,11.0,M,-34.6,M,,*6E
$PYRTM,2024,128.088792219340,19.198439629491
$GPGGA,020750.00,3304.7891,N,11811.9226,W,1,09,0.8,8.2,M,-34.6,M,,*5D
$PYRTM,2024,128.088808321921,19.198455732072
$GPGGA,020751.00,3304.7889,N,11811.9220,W,1,09,0.8,8.8,M,-34.6,M,,*59
$PYRTM,2024,128.088819430775,19.198466840914
$GPGGA,020752.00,3304.7887,N,11811.9213,W,1,09,0.8,9.7,M,-34.6,M,,*5A
$PYRTM,2024,128.088830530417,19.198477940556
$GPGGA,020753.00,3304.7884,N,11811.9205,W,1,09,0.8,10.4,M,-34.6,M,,*64
$PYRTM,2024,128.088841656424,19.198489066562
$GPGGA,020754.00,3304.7881,N,11811.9195,W,1,09,0.8,8.6,M,-34.6,M,,*57
$PYRTM,2024,128.088852751667,19.198500161806
$GPGGA,020755.00,3304.7878,N,11811.9187,W,1,09,0.8,7.9,M,-34.6,M,,*53
$PYRTM,2024,128.088863877859,19.198511287998
$GPGGA,020756.00,3304.7875,N,11811.9178,W,1,09,0.8,8.7,M,-34.6,M,,*5C
$PYRTM,2024,128.088886333970,19.198533744109
$GPGGA,020757.00,3304.7873,N,11811.9169,W,1,09,0.8,8.6,M,-34.6,M,,*5A
$PYRTM,2024,128.088897340139,19.198544750278
$GPGGA,020758.00,3304.7870,N,11811.9160,W,1,09,0.8,7.8,M,-34.6,M,,*5E
$PYRTM,2024,128.088908435880,19.198555846030
$GPGGA,020759.00,3304.7868,N,11811.9151,W,1,09,0.8,7.5,M,-34.6,M,,*59
$PYRTM,2024,128.088919547164,19.198566957303
$GPGGA,020800.00,3304.7864,N,11811.9143,W,1,09,0.8,8.0,M,-34.6,M,,*5F
$PYRTM,2024,128.088930657940,19.198578068090
$GPGGA,020801.00,3304.7861,N,11811.9135,W,1,09,0.8,10.8,M,-34.6,M,,*6B
$PYRTM,2024,128.088941772072,19.198589182211
$GPGGA,020802.00,3304.7857,N,11811.9127,W,1,09,0.8,9.2,M,-34.6,M,,*5C
$PYRTM,2024,128.088952904942,19.198600315081
$GPGGA,020803.00,3304.7853,N,11811.9120,W,1,09,0.8,8.3,M,-34.6,M,,*5E
$PYRTM,2024,128.088963991806,19.198611401944
$GPGGA,020804.00,3304.7849,N,11811.9111,W,1,09,0.8,7.2,M,-34.6,M,,*5E
$PYRTM,2024,128.088975003472,19.198622413611
$GPGGA,020805.00,3304.7847,N,11811.9103,W,1,09,0.8,8.1,M,-34.6,M,,*5E
$PYRTM,2024,128.088986099688,19.198633509826
$GPGGA,020806.00,3304.7844,N,11811.9095,W,1,09,0.8,9.9,M,-34.6,M,,*59
$PYRTM,2024,128.088997660127,19.198645070266
$GPGGA,020807.00,3304.7840,N,11811.9088,W,1,09,0.8,9.1,M,-34.6,M,,*58
$PYRTM,2024,128.089008771701,19.198656181840
$GPGGA,020808.00,3304.7835,N,11811.9081,W,1,09,0.8,7.7,M,-34.6,M,,*54
$PYRTM,2024,128.089019778866,19.198667189005
$GPGGA,020809.00,3304.7832,N,11811.9073,W,1,09,0.8,7.1,M,-34.6,M,,*59
$PYRTM,2024,128.089030891840,19.198678301979
$GPGGA,020810.00,3304.7829,N,11811.9065,W,1,09,0.8,6.5,M,-34.6,M,,*59
$PYRTM,2024,128.089042001042,19.198689411181
$GPGGA,020811.00,3304.7827,N,11811.9057,W,1,09,0.8,8.2,M,-34.6,M,,*5E
$PYRTM,2024,128.089053113148,19.198700523287
$GPGGA,020812.00,3304.7825,N,11811.9049,W,1,09,0.8,10.0,M,-34.6,M,,*6B
$PYRTM,2024,128.089064224306,19.198711634444
$GPGGA,020813.00,3304.7823,N,11811.9041,W,1,09,0.8,8.8,M,-34.6,M,,*55
$PYRTM,2024,128.089075335208,19.198722745347
$GPGGA,020814.00,3304.7820,N,11811.9032,W,1,09,0.8,6.3,M,-34.6,M,,*50
$PYRTM,2024,128.089086445810,19.198733855949
$GPGGA,020815.00,3304.7817,N,11811.9022,W,1,09,0.8,7.9,M,-34.6,M,,*5F
$PYRTM,2024,128.089097559155,19.198744969306
$GPGGA,020816.00,3304.7814,N,11811.9014,W,1,09,0.8,6.9,M,-34.6,M,,*5B
$PYRTM,2024,128.089108541505,19.198755951644
$GPGGA,020817.00,3304.7809,N,11811.9006,W,1,09,0.8,6.4,M,-34.6,M,,*58
$PYRTM,2024,128.089119663924,19.198767074062
$GPGGA,020818.00,3304.7805,N,11811.8998,W,1,09,0.8,7.3,M,-34.6,M,,*52
$PYRTM,2024,128.089130764225,19.198778174363
$GPGGA,020819.00,3304.7802,N,11811.8989,W,1,09,0.8,7.4,M,-34.6,M,,*53
$PYRTM,2024,128.089141872975,19.198789283125
$GPGGA,020820.00,3304.7799,N,11811.8981,W,1,09,0.8,6.6,M,-34.6,M,,*5F
$PYRTM,2024,128.089151595231,19.198799005370
$GPGGA,020821.00,3304.7797,N,11811.8972,W,1,09,0.8,6.8,M,-34.6,M,,*52
$PYRTM,2024,128.089162952396,19.198810362546
$GPGGA,020822.00,3304.7794,N,11811.8963,W,1,09,0.8,8.1,M,-34.6,M,,*55
$PYRTM,2024,128.089175668727,19.198823078866
$GPGGA,020823.00,3304.7791,N,11811.8956,W,1,09,0.8,7.4,M,-34.6,M,,*5D
$PYRTM,2024,128.089187252049,19.198834662187
$GPGGA,020824.00,3304.7786,N,11811.8950,W,1,09,0.8,9.0,M,-34.6,M,,*50
$PYRTM,2024,128.089198817025,19.198846227164
$GPGGA,020825.00,3304.7782,N,11811.8944,W,1,09,0.8,11.5,M,-34.6,M,,*6C
$PYRTM,2024,128.089210394641,19.198857804780
$GPGGA,020826.00,3304.7779,N,11811.8937,W,1,09,0.8,10.9,M,-34.6,M,,*62
$PYRTM,2024,128.089221967199,19.198869377338
$GPGGA,020827.00,3304.7776,N,11811.8928,W,1,09,0.8,12.2,M,-34.6,M,,*6B
$PYRTM,2024,128.089233553299,19.198880963437
$GPGGA,020828.00,3304.7774,N,11811.8919,W,1,09,0.8,10.1,M,-34.6,M,,*65
$PYRTM,2024,128.089245114225,19.198892524363
$GPGGA,020829.00,3304.7770,N,11811.8910,W,1,09,0.8,9.7,M,-34.6,M,,*57
$PYRTM,2024,128.089256701493,19.198904111632
$GPGGA,020830.00,3304.7766,N,11811.8902,W,1,09,0.8,10.1,M,-34.6,M,,*65
$PYRTM,2024,128.089268262303,19.198915672442
$GPGGA,020831.00,3304.7762,N,11811.8895,W,1,09,0.8,11.6,M,-34.6,M,,*69
$PYRTM,2024,128.089279839352,19.198927249491
$GPGGA,020832.00,3304.7760,N,11811.8887,W,1,09,0.8,10.4,M,-34.6,M,,*68
$PYRTM,2024,128.089291412361,19.198938822500
$GPGGA,020833.00,3304.7758,N,11811.8877,W,1,09,0.8,8.3,M,-34.6,M,,*53
$PYRTM,2024,128.089302985625,19.198950395764
$GPGGA,020834.00,3304.7755,N,11811.8869,W,1,09,0.8,7.8,M,-34.6,M,,*52
$PYRTM,2024,128.089314558947,19.198961969086
$GPGGA,020835.00,3304.7751,N,11811.8862,W,1,09,0.8,6.1,M,-34.6,M,,*54
$PYRTM,2024,128.089326141736,19.198973551875
$GPGGA,020836.00,3304.7747,N,11811.8855,W,1,09,0.8,9.1,M,-34.6,M,,*5B
$PYRTM,2024,128.089337707373,19.198985117512
$GPGGA,020837.00,3304.7744,N,11811.8847,W,1,09,0.8,9.4,M,-34.6,M,,*5F
$PYRTM,2024,128.089349295081,19.198996705231
