$PYRTM,2024,122.166675648322,13.276323058461
$GPGGA,035959.00,3318.5238,N,11856.6434,W,1,09,0.8,15.0,M,-34.8,M,,*61
$PYRTM,2024,122.166687205000,13.276334615139
$GPGGA,040000.00,3318.5242,N,11856.6458,W,1,09,0.8,14.6,M,-34.8,M,,*66
$PYRTM,2024,122.166697870718,13.276345280856
$GPGGA,040001.00,3318.5246,N,11856.6482,W,1,09,0.8,13.3,M,-34.8,M,,*66
$PYRTM,2024,122.166709788993,13.276357199132
$GPGGA,040002.00,3318.5252,N,11856.6511,W,1,09,0.8,12.9,M,-34.8,M,,*60
$PYRTM,2024,122.166718584954,13.276365995093
$GPGGA,040003.00,3318.5259,N,11856.6543,W,1,09,0.8,12.7,M,-34.8,M,,*63
$PYRTM,2024,122.166736396551,13.276383806690
$GPGGA,040004.00,3318.5265,N,11856.6571,W,1,09,0.8,13.3,M,-34.8,M,,*6F
$PYRTM,2024,122.166747507801,13.276394917940
$GPGGA,040005.00,3318.5269,N,11856.6597,W,1,09,0.8,14.5,M,-34.8,M,,*6B
$PYRTM,2024,122.166758619201,13.276406029340
$GPGGA,040006.00,3318.5274,N,11856.6622,W,1,09,0.8,16.2,M,-34.8,M,,*6C
$PYRTM,2024,122.166769731215,13.276417141354
$GPGGA,040007.00,3318.5280,N,11856.6651,W,1,09,0.8,16.2,M,-34.8,M,,*62
$PYRTM,2024,122.166780956088,13.276428366238
$GPGGA,040008.00,3318.5285,N,11856.6678,W,1,09,0.8,14.1,M,-34.8,M,,*62
$PYRTM,2024,122.166792068866,13.276439479016
$GPGGA,040009.00,3318.5288,N,11856.6705,W,1,09,0.8,12.8,M,-34.8,M,,*6A
$PYRTM,2024,122.166803544039,13.276450954178
$GPGGA,040010.00,3318.5292,N,11856.6731,W,1,09,0.8,13.9,M,-34.8,M,,*6E
$PYRTM,2024,122.166826096852,13.276473507002
$GPGGA,040011.00,3318.5298,N,11856.6756,W,1,09,0.8,15.5,M,-34.8,M,,*6E
$PYRTM,2024,122.166837208981,13.276484619120
$GPGGA,040012.00,3318.5304,N,11856.6783,W,1,09,0.8,14.1,M,-34.8,M,,*64
$PYRTM,2024,122.166848318218,13.276495728356
$GPGGA,040013.00,3318.5310,N,11856.6811,W,1,09,0.8,14.2,M,-34.8,M,,*67
$PYRTM,2024,122.166859431053,13.276506841204
$GPGGA,040014.00,3318.5315,N,11856.6840,W,1,09,0.8,14.8,M,-34.8,M,,*6B
$PYRTM,2024,122.166870659051,13.276518069201
$GPGGA,040015.00,3318.5321,N,11856.6868,W,1,09,0.8,13.3,M,-34.8,M,,*6B
$PYRTM,2024,122.166881770139,13.276529180278
$GPGGA,040016.00,3318.5326,N,11856.6894,W,1,09,0.8,14.6,M,-34.8,M,,*6E
$PYRTM,2024,122.166892879745,13.276540289884
$GPGGA,040017.00,3318.5332,N,11856.6922,W,1,09,0.8,12.7,M,-34.8,M,,*61
$PYRTM,2024,122.166903990868,13.276551401007
$GPGGA,040018.00,3318.5338,N,11856.6951,W,1,09,0.8,13.2,M,-34.8,M,,*64
$PYRTM,2024,122.166915219433,13.276562629572
$GPGGA,040019.00,3318.5343,N,11856.6976,W,1,09,0.8,12.3,M,-34.8,M,,*6C
$PYRTM,2024,122.166926330116,13.276573740266
$GPGGA,040020.00,3318.5349,N,11856.7000,W,1,09,0.8,13.5,M,-34.8,M,,*62
$PYRTM,2024,122.166937440394,13.276584850532
$GPGGA,040021.00,3318.5356,N,11856.7027,W,1,09,0.8,15.9,M,-34.8,M,,*62
$PYRTM,2024,122.166948550741,13.276595960880
$GPGGA,040022.00,3318.5361,N,11856.7057,W,1,09,0.8,16.9,M,-34.8,M,,*61
$PYRTM,2024,122.166959776806,13.276607186944
$GPGGA,040023.00,3318.5366,N,11856.7087,W,1,09,0.8,12.2,M,-34.8,M,,*65
$PYRTM,2024,122.166970888495,13.276618298634
$GPGGA,040024.00,3318.5373,N,11856.7112,W,1,09,0.8,15.1,M,-34.8,M,,*6F
$PYRTM,2024,122.166981999213,13.276629409352
$GPGGA,040025.00,3318.5380,N,11856.7136,W,1,09,0.8,16.9,M,-34.8,M,,*6F
$PYRTM,2024,122.166993111667,13.276640521806
$GPGGA,040026.00,3318.5386,N,11856.7164,W,1,09,0.8,15.0,M,-34.8,M,,*67
$PYRTM,2024,122.167004351910,13.276651762049
$GPGGA,040027.00,3318.5390,N,11856.7195,W,1,09,0.8,15.8,M,-34.8,M,,*67
$PYRTM,2024,122.167015462975,13.276662873113
$GPGGA,040028.00,3318.5394,N,11856.7222,W,1,09,0.8,12.6,M,-34.8,M,,*6A
$PYRTM,2024,122.167027036725,13.276674446875
$GPGGA,040029.00,3318.5400,N,11856.7246,W,1,09,0.8,13.9,M,-34.8,M,,*6D
$PYRTM,2024,122.167038151111,13.276685561250
$GPGGA,040030.00,3318.5407,N,11856.7273,W,1,09,0.8,14.8,M,-34.8,M,,*62
$PYRTM,2024,122.167049259838,13.276696669977
$GPGGA,040031.00,3318.5414,N,11856.7303,W,1,09,0.8,15.3,M,-34.8,M,,*6D
$PYRTM,2024,122.167060474988,13.276707885127
$GPGGA,040032.00,3318.5420,N,11856.7332,W,1,09,0.8,13.3,M,-34.8,M,,*6D
$PYRTM,2024,122.167071586655,13.276718996794
$GPGGA,040033.00,3318.5424,N,11856.7359,W,1,09,0.8,13.2,M,-34.8,M,,*64
$PYRTM,2024,122.167082695995,13.276730106134
$GPGGA,040034.00,3318.5428,N,11856.7385,W,1,09,0.8,13.2,M,-34.8,M,,*6E
$PYRTM,2024,122.167093807153,13.276741217292
$GPGGA,040035.00,3318.5434,N,11856.7412,W,1,09,0.8,13.7,M,-34.8,M,,*6E
$PYRTM,2024,122.167105034861,13.276752445000
$GPGGA,040036.00,3318.5441,N,11856.7439,W,1,09,0.8,13.1,M,-34.8,M,,*60
$PYRTM,2024,122.167116147500,13.276763557639
$GPGGA,040037.00,3318.5447,N,11856.7468,W,1,09,0.8,15.5,M,-34.8,M,,*61
$PYRTM,2024,122.167138607488,13.276786017627
$GPGGA,040038.00,3318.5452,N,11856.7496,W,1,09,0.8,16.9,M,-34.8,M,,*64
$PYRTM,2024,122.167149723530,13.276797133669
$GPGGA,040039.00,3318.5458,N,11856.7522,W,1,09,0.8,14.1,M,-34.8,M,,*6B
$PYRTM,2024,122.167159445926,13.276806856065
$GPGGA,040040.00,3318.5464,N,11856.7549,W,1,09,0.8,14.9,M,-34.8,M,,*6F
$PYRTM,2024,122.167170661898,13.276818072037
$GPGGA,040041.00,3318.5469,N,11856.7577,W,1,09,0.8,14.9,M,-34.8,M,,*6E
$PYRTM,2024,122.167182812465,13.276830222604
$GPGGA,040042.00,3318.5474,N,11856.7606,W,1,09,0.8,17.2,M,-34.8,M,,*6C
$PYRTM,2024,122.167194038287,13.276841448426
$GPGGA,040043.00,3318.5479,N,11856.7633,W,1,09,0.8,18.5,M,-34.8,M,,*6E
$PYRTM,2024,122.167205149896,13.276852560035
$GPGGA,040044.00,3318.5485,N,11856.7660,W,1,09,0.8,18.3,M,-34.8,M,,*6A
$PYRTM,2024,122.167216261042,13.276863671181
$GPGGA,040045.00,3318.5492,N,11856.7688,W,1,09,0.8,16.7,M,-34.8,M,,*61
$PYRTM,2024,122.167227372164,13.276874782303
$GPGGA,040046.00,3318.5497,N,11856.7713,W,1,09,0.8,18.8,M,-34.8,M,,*65
$PYRTM,2024,122.167238617407,13.276886027546
$GPGGA,040047.00,3318.5500,N,11856.7740,W,1,09,0.8,20.3,M,-34.8,M,,*6D
$PYRTM,2024,122.167249723854,13.276897133993
$GPGGA,040048.00,3318.5505,N,11856.7770,W,1,09,0.8,20.7,M,-34.8,M,,*60
$PYRTM,2024,122.167260838970,13.276908249109
$GPGGA,040049.00,3318.5511,N,11856.7800,W,1,09,0.8,17.3,M,-34.8,M,,*6C
$PYRTM,2024,122.167271946921,13.276919357060
$GPGGA,040050.00,3318.5517,N,11856.7828,W,1,09,0.8,16.7,M,-34.8,M,,*6D
$PYRTM,2024,122.167283168912,13.276930579051
$GPGGA,040051.00,3318.5519,N,11856.7854,W,1,09,0.8,16.0,M,-34.8,M,,*6E
$PYRTM,2024,122.167294284884,13.276941695023
$GPGGA,040052.00,3318.5521,N,11856.7882,W,1,09,0.8,15.1,M,-34.8,M,,*6F
$PYRTM,2024,122.167305391979,13.276952802118
$GPGGA,040053.00,3318.5527,N,11856.7913,W,1,09,0.8,15.0,M,-34.8,M,,*60
$PYRTM,2024,122.167316511273,13.276963921412
$GPGGA,040054.00,3318.5533,N,11856.7943,W,1,09,0.8,14.4,M,-34.8,M,,*62
$PYRTM,2024,122.167327729201,13.276975139340
$GPGGA,040055.00,3318.5538,N,11856.7967,W,1,09,0.8,15.5,M,-34.8,M,,*6E
$PYRTM,2024,122.167338847581,13.276986257720
$GPGGA,040056.00,3318.5542,N,11856.7993,W,1,09,0.8,15.5,M,-34.8,M,,*6B
$PYRTM,2024,122.167349956481,13.276997366620
$GPGGA,040057.00,3318.5547,N,11856.8021,W,1,09,0.8,16.2,M,-34.8,M,,*64
$PYRTM,2024,122.167361063542,13.277008473681
$GPGGA,040058.00,3318.5553,N,11856.8049,W,1,09,0.8,17.5,M,-34.8,M,,*66
$PYRTM,2024,122.167372627384,13.277020037523
$GPGGA,040059.00,3318.5560,N,11856.8078,W,1,09,0.8,17.0,M,-34.8,M,,*60
$PYRTM,2024,122.167384214086,13.277031624225
$GPGGA,040100.00,3318.5567,N,11856.8104,W,1,09,0.8,17.4,M,-34.8,M,,*64
$PYRTM,2024,122.167395429641,13.277042839780
$GPGGA,040101.00,3318.5571,N,11856.8128,W,1,09,0.8,18.9,M,-34.8,M,,*6E
$PYRTM,2024,122.167406554873,13.277053965012
$GPGGA,040102.00,3318.5575,N,11856.8156,W,1,09,0.8,17.7,M,-34.8,M,,*61
$PYRTM,2024,122.167417652072,13.277065062211
$GPGGA,040103.00,3318.5580,N,11856.8186,W,1,09,0.8,17.4,M,-34.8,M,,*64
$PYRTM,2024,122.167428766887,13.277076177025
$GPGGA,040104.00,3318.5586,N,11856.8211,W,1,09,0.8,17.7,M,-34.8,M,,*6B
$PYRTM,2024,122.167440002546,13.277087412685
$GPGGA,040105.00,3318.5592,N,11856.8235,W,1,09,0.8,17.3,M,-34.8,M,,*6D
$PYRTM,2024,122.167451332535,13.277098742674
$GPGGA,040106.00,3318.5598,N,11856.8260,W,1,09,0.8,17.1,M,-34.8,M,,*66
$PYRTM,2024,122.167462688565,13.277110098704
$GPGGA,040107.00,3318.5604,N,11856.8287,W,1,09,0.8,14.7,M,-34.8,M,,*6D
$PYRTM,2024,122.167474250069,13.277121660208
$GPGGA,040108.00,3318.5610,N,11856.8313,W,1,09,0.8,15.6,M,-34.8,M,,*6B
$PYRTM,2024,122.167485831991,13.277133242130
$GPGGA,040109.00,3318.5617,N,11856.8339,W,1,09,0.8,14.6,M,-34.8,M,,*64
$PYRTM,2024,122.167496037928,13.277143448067
$GPGGA,040110.00,3318.5623,N,11856.8365,W,1,09,0.8,16.3,M,-34.8,M,,*65
$PYRTM,2024,122.167507814016,13.277155224155
$GPGGA,040111.00,3318.5629,N,11856.8389,W,1,09,0.8,19.3,M,-34.8,M,,*63
$PYRTM,2024,122.167520558021,13.277167968160
$GPGGA,040112.00,3318.5633,N,11856.8417,W,1,09,0.8,19.6,M,-34.8,M,,*6E
$PYRTM,2024,122.167532135532,13.277179545671
$GPGGA,040113.00,3318.5638,N,11856.8448,W,1,09,0.8,17.3,M,-34.8,M,,*65
$PYRTM,2024,122.167543707535,13.277191117674
$GPGGA,040114.00,3318.5643,N,11856.8476,W,1,09,0.8,17.1,M,-34.8,M,,*61
$PYRTM,2024,122.167555276991,13.277202687130
$GPGGA,040115.00,3318.5648,N,11856.8500,W,1,09,0.8,17.6,M,-34.8,M,,*6C
$PYRTM,2024,122.167566856400,13.277214266551
$GPGGA,040116.00,3318.5654,N,11856.8526,W,1,09,0.8,19.4,M,-34.8,M,,*6A
$PYRTM,2024,122.167578433588,13.277225843727
$GPGGA,040117.00,3318.5659,N,11856.8557,W,1,09,0.8,20.1,M,-34.8,M,,*6F
$PYRTM,2024,122.167590005162,13.277237415301
$GPGGA,040118.00,3318.5666,N,11856.8586,W,1,09,0.8,20.0,M,-34.8,M,,*61
$PYRTM,2024,122.167601582616,13.277248992766
$GPGGA,040119.00,3318.5672,N,11856.8611,W,1,09,0.8,18.3,M,-34.8,M,,*60
$PYRTM,2024,122.167613152743,13.277260562894
$GPGGA,040120.00,3318.5678,N,11856.8636,W,1,09,0.8,18.8,M,-34.8,M,,*6E
$PYRTM,2024,122.167624727894,13.277272138032
$GPGGA,040121.00,3318.5683,N,11856.8662,W,1,09,0.8,17.3,M,-34.8,M,,*6E
$PYRTM,2024,122.167636301806,13.277283711944
$GPGGA,040122.00,3318.5688,N,11856.8689,W,1,09,0.8,14.8,M,-34.8,M,,*6B
$PYRTM,2024,122.167647869803,13.277295279942
$GPGGA,040123.00,3318.5694,N,11856.8714,W,1,09,0.8,15.4,M,-34.8,M,,*6F
$PYRTM,2024,122.167659449722,13.277306859861
$GPGGA,040124.00,3318.5700,N,11856.8740,W,1,09,0.8,17.4,M,-34.8,M,,*67
$PYRTM,2024,122.167671010023,13.277318420162
$GPGGA,040125.00,3318.5703,N,11856.8766,W,1,09,0.8,19.4,M,-34.8,M,,*6F
$PYRTM,2024,122.167682584606,13.277329994757
$GPGGA,040126.00,3318.5706,N,11856.8794,W,1,09,0.8,15.3,M,-34.8,M,,*6F
$PYRTM,2024,122.167694166562,13.277341576701
$GPGGA,040127.00,3318.5712,N,11856.8821,W,1,09,0.8,14.0,M,-34.8,M,,*68
$PYRTM,2024,122.167705745162,13.277353155301
$GPGGA,040128.00,3318.5718,N,11856.8847,W,1,09,0.8,15.9,M,-34.8,M,,*65
$PYRTM,2024,122.167717668102,13.277365078241
$GPGGA,040129.00,3318.5725,N,11856.8874,W,1,09,0.8,16.8,M,-34.8,M,,*68
$PYRTM,2024,122.167728894051,13.277376304190
$GPGGA,040130.00,3318.5731,N,11856.8902,W,1,09,0.8,17.5,M,-34.8,M,,*69
$PYRTM,2024,122.167740482662,13.277387892801
$GPGGA,040131.00,3318.5736,N,11856.8931,W,1,09,0.8,18.1,M,-34.8,M,,*64
$PYRTM,2024,122.167752041505,13.277399451644
$GPGGA,040132.00,3318.5741,N,11856.8960,W,1,09,0.8,16.3,M,-34.8,M,,*6F
$PYRTM,2024,122.167763619664,13.277411029815
$GPGGA,040133.00,3318.5747,N,11856.8988,W,1,09,0.8,15.6,M,-34.8,M,,*68
$PYRTM,2024,122.167775192326,13.277422602465
$GPGGA,040134.00,3318.5754,N,11856.9013,W,1,09,0.8,16.8,M,-34.8,M,,*6A
$PYRTM,2024,122.167786768079,13.277434178218
$GPGGA,040135.00,3318.5761,N,11856.9039,W,1,09,0.8,19.5,M,-34.8,M,,*67
$PYRTM,2024,122.167798338623,13.277445748773
$GPGGA,040136.00,3318.5766,N,11856.9069,W,1,09,0.8,16.4,M,-34.8,M,,*68
$PYRTM,2024,122.167809912789,13.277457322928
$GPGGA,040137.00,3318.5771,N,11856.9098,W,1,09,0.8,13.1,M,-34.8,M,,*61
$PYRTM,2024,122.167821486551,13.277468896690
$GPGGA,040138.00,3318.5775,N,11856.9125,W,1,09,0.8,11.6,M,-34.8,M,,*68
$PYRTM,2024,122.167833062431,13.277480472569
$GPGGA,040139.00,3318.5782,N,11856.9151,W,1,09,0.8,13.0,M,-34.8,M,,*66
$PYRTM,2024,122.167843261007,13.277490671146
$GPGGA,040140.00,3318.5788,N,11856.9180,W,1,09,0.8,13.9,M,-34.8,M,,*67
$PYRTM,2024,122.167855039931,13.277502450069
$GPGGA,040141.00,3318.5793,N,11856.9209,W,1,09,0.8,15.3,M,-34.8,M,,*62
$PYRTM,2024,122.167867783322,13.277515193461
$GPGGA,040142.00,3318.5796,N,11856.9235,W,1,09,0.8,17.2,M,-34.8,M,,*68
$PYRTM,2024,122.167879358796,13.277526768947
$GPGGA,040143.00,3318.5801,N,11856.9261,W,1,09,0.8,18.8,M,-34.8,M,,*6C
$PYRTM,2024,122.167890926725,13.277538336863
$GPGGA,040144.00,3318.5808,N,11856.9290,W,1,09,0.8,18.7,M,-34.8,M,,*63
$PYRTM,2024,122.167902509097,13.277549919236
$GPGGA,040145.00,3318.5815,N,11856.9318,W,1,09,0.8,17.1,M,-34.8,M,,*66
$PYRTM,2024,122.167914080718,13.277561490856
$GPGGA,040146.00,3318.5822,N,11856.9344,W,1,09,0.8,16.9,M,-34.8,M,,*61
$PYRTM,2024,122.167925657674,13.277573067813
$GPGGA,040147.00,3318.5828,N,11856.9370,W,1,09,0.8,17.0,M,-34.8,M,,*65
$PYRTM,2024,122.167937229734,13.277584639873
$GPGGA,040148.00,3318.5835,N,11856.9400,W,1,09,0.8,18.5,M,-34.8,M,,*6C
$PYRTM,2024,122.167948807245,13.277596217384
$GPGGA,040149.00,3318.5841,N,11856.9428,W,1,09,0.8,19.7,M,-34.8,M,,*67
$PYRTM,2024,122.167960841227,13.277608251366
$GPGGA,040150.00,3318.5845,N,11856.9453,W,1,09,0.8,18.9,M,-34.8,M,,*68
$PYRTM,2024,122.167972414155,13.277619824294
$GPGGA,040151.00,3318.5851,N,11856.9480,W,1,09,0.8,17.2,M,-34.8,M,,*66
$PYRTM,2024,122.167983988646,13.277631398796
$GPGGA,040152.00,3318.5856,N,11856.9507,W,1,09,0.8,16.3,M,-34.8,M,,*6C
$PYRTM,2024,122.167995565486,13.277642975625
$GPGGA,040153.00,3318.5863,N,11856.9535,W,1,09,0.8,14.6,M,-34.8,M,,*6D
$PYRTM,2024,122.168007139884,13.277654550035
$GPGGA,040154.00,3318.5868,N,11856.9560,W,1,09,0.8,15.0,M,-34.8,M,,*66
$PYRTM,2024,122.168018712014,13.277666122153
$GPGGA,040155.00,3318.5872,N,11856.9584,W,1,09,0.8,13.9,M,-34.8,M,,*69
$PYRTM,2024,122.168030280174,13.277677690324
$GPGGA,040156.00,3318.5875,N,11856.9612,W,1,09,0.8,14.0,M,-34.8,M,,*6F
$PYRTM,2024,122.168041858623,13.277689268762
$GPGGA,040157.00,3318.5880,N,11856.9642,W,1,09,0.8,12.2,M,-34.8,M,,*65
$PYRTM,2024,122.168053429572,13.277700839711
$GPGGA,040158.00,3318.5887,N,11856.9669,W,1,09,0.8,15.1,M,-34.8,M,,*60
$PYRTM,2024,122.168065002477,13.277712412616
$GPGGA,040159.00,3318.5894,N,11856.9695,W,1,09,0.8,15.3,M,-34.8,M,,*62
$PYRTM,2024,122.168076581296,13.277723991435
$GPGGA,040200.00,3318.5900,N,11856.9722,W,1,09,0.8,15.3,M,-34.8,M,,*6C
$PYRTM,2024,122.168088156447,13.277735566586
$GPGGA,040201.00,3318.5904,N,11856.9748,W,1,09,0.8,16.1,M,-34.8,M,,*64
$PYRTM,2024,122.168099726331,13.277747136470
$GPGGA,040202.00,3318.5909,N,11856.9774,W,1,09,0.8,15.8,M,-34.8,M,,*6F
$PYRTM,2024,122.168111408067,13.277758818206
$GPGGA,040203.00,3318.5916,N,11856.9802,W,1,09,0.8,14.4,M,-34.8,M,,*63
$PYRTM,2024,122.168122994815,13.277770404954
$GPGGA,040204.00,3318.5923,N,11856.9829,W,1,09,0.8,15.6,M,-34.8,M,,*68
$PYRTM,2024,122.168134555683,13.277781965822
$GPGGA,040205.00,3318.5929,N,11856.9855,W,1,09,0.8,17.3,M,-34.8,M,,*6F
$PYRTM,2024,122.168152149097,13.277799559236
$GPGGA,040206.00,3318.5935,N,11856.9882,W,1,09,0.8,17.3,M,-34.8,M,,*6B
$PYRTM,2024,122.168164079583,13.277811489722
$GPGGA,040207.00,3318.5941,N,11856.9908,W,1,09,0.8,16.9,M,-34.8,M,,*61
$PYRTM,2024,122.168174841528,13.277822251667
$GPGGA,040208.00,3318.5945,N,11856.9935,W,1,09,0.8,17.6,M,-34.8,M,,*6A
$PYRTM,2024,122.168185958414,13.277833368553
$GPGGA,040209.00,3318.5950,N,11856.9964,W,1,09,0.8,14.3,M,-34.8,M,,*6D
$PYRTM,2024,122.168197082917,13.277844493056
$GPGGA,040210.00,3318.5956,N,11856.9993,W,1,09,0.8,13.4,M,-34.8,M,,*6B
$PYRTM,2024,122.168212804769,13.277860214919
$GPGGA,040211.00,3318.5963,N,11857.0022,W,1,09,0.8,14.0,M,-34.8,M,,*64
$PYRTM,2024,122.168223925613,13.277871335752
$GPGGA,040212.00,3318.5968,N,11857.0048,W,1,09,0.8,16.7,M,-34.8,M,,*65
$PYRTM,2024,122.168235148056,13.277882558194
$GPGGA,040213.00,3318.5970,N,11857.0075,W,1,09,0.8,18.4,M,-34.8,M,,*6E
$PYRTM,2024,122.168246261655,13.277893671794
$GPGGA,040214.00,3318.5974,N,11857.0105,W,1,09,0.8,17.2,M,-34.8,M,,*62
$PYRTM,2024,122.168257370451,13.277904780590
$GPGGA,040215.00,3318.5979,N,11857.0137,W,1,09,0.8,14.6,M,-34.8,M,,*68
$PYRTM,2024,122.168268476574,13.277915886713
$GPGGA,040216.00,3318.5984,N,11857.0164,W,1,09,0.8,15.5,M,-34.8,M,,*6D
$PYRTM,2024,122.168279708785,13.277927118924
$GPGGA,040217.00,3318.5988,N,11857.0191,W,1,09,0.8,15.4,M,-34.8,M,,*6B
$PYRTM,2024,122.168290818461,13.277938228611
$GPGGA,040218.00,3318.5993,N,11857.0218,W,1,09,0.8,13.8,M,-34.8,M,,*66
$PYRTM,2024,122.168301925810,13.277949335949
$GPGGA,040219.00,3318.6000,N,11857.0246,W,1,09,0.8,16.0,M,-34.8,M,,*61
$PYRTM,2024,122.168313042049,13.277960452188
$GPGGA,040220.00,3318.6005,N,11857.0274,W,1,09,0.8,16.0,M,-34.8,M,,*6F
$PYRTM,2024,122.168324269514,13.277971679664
$GPGGA,040221.00,3318.6009,N,11857.0301,W,1,09,0.8,12.9,M,-34.8,M,,*6C
$PYRTM,2024,122.168335380012,13.277982790150
$GPGGA,040222.00,3318.6015,N,11857.0328,W,1,09,0.8,15.2,M,-34.8,M,,*65
$PYRTM,2024,122.168346491539,13.277993901678
$GPGGA,040223.00,3318.6023,N,11857.0354,W,1,09,0.8,15.7,M,-34.8,M,,*6F
$PYRTM,2024,122.168357597928,13.278005008079
$GPGGA,040224.00,3318.6029,N,11857.0381,W,1,09,0.8,15.9,M,-34.8,M,,*64
$PYRTM,2024,122.168368816667,13.278016226806
$GPGGA,040225.00,3318.6033,N,11857.0410,W,1,09,0.8,14.7,M,-34.8,M,,*6E
$PYRTM,2024,122.168379929502,13.278027339641
$GPGGA,040226.00,3318.6037,N,11857.0438,W,1,09,0.8,13.7,M,-34.8,M,,*64
$PYRTM,2024,122.168391039468,13.278038449606
$GPGGA,040227.00,3318.6042,N,11857.0464,W,1,09,0.8,13.9,M,-34.8,M,,*60
$PYRTM,2024,122.168402150023,13.278049560162
$GPGGA,040228.00,3318.6048,N,11857.0491,W,1,09,0.8,15.5,M,-34.8,M,,*65
$PYRTM,2024,122.168413750926,13.278061161065
$GPGGA,040229.00,3318.6053,N,11857.0522,W,1,09,0.8,16.5,M,-34.8,M,,*64
$PYRTM,2024,122.168424959954,13.278072370093
$GPGGA,040230.00,3318.6059,N,11857.0555,W,1,09,0.8,17.0,M,-34.8,M,,*62
$PYRTM,2024,122.168436078206,13.278083488345
$GPGGA,040231.00,3318.6065,N,11857.0581,W,1,09,0.8,18.4,M,-34.8,M,,*6E
$PYRTM,2024,122.168447186007,13.278094596146
$GPGGA,040232.00,3318.6070,N,11857.0603,W,1,09,0.8,18.9,M,-34.8,M,,*6D
$PYRTM,2024,122.168458285532,13.278105695671
$GPGGA,040233.00,3318.6077,N,11857.0632,W,1,09,0.8,21.5,M,-34.8,M,,*6F
$PYRTM,2024,122.168469639977,13.278117050116
$GPGGA,040234.00,3318.6084,N,11857.0664,W,1,09,0.8,17.3,M,-34.8,M,,*64
$PYRTM,2024,122.168481215637,13.278128625775
$GPGGA,040235.00,3318.6090,N,11857.0695,W,1,09,0.8,14.8,M,-34.8,M,,*66
$PYRTM,2024,122.168492789410,13.278140199549
$GPGGA,040236.00,3318.6095,N,11857.0719,W,1,09,0.8,16.3,M,-34.8,M,,*6C
$PYRTM,2024,122.168504358021,13.278151768160
$GPGGA,040237.00,3318.6100,N,11857.0741,W,1,09,0.8,18.8,M,-34.8,M,,*68
$PYRTM,2024,122.168515936574,13.278163346725
$GPGGA,040238.00,3318.6103,N,11857.0769,W,1,09,0.8,18.5,M,-34.8,M,,*63
$PYRTM,2024,122.168527511065,13.278174921204
$GPGGA,040239.00,3318.6108,N,11857.0802,W,1,09,0.8,17.6,M,-34.8,M,,*67
$PYRTM,2024,122.168540594826,13.278188004965
$GPGGA,040240.00,3318.6113,N,11857.0832,W,1,09,0.8,15.5,M,-34.8,M,,*61
$PYRTM,2024,122.168552846157,13.278200256296
$GPGGA,040241.00,3318.6120,N,11857.0853,W,1,09,0.8,15.2,M,-34.8,M,,*60
$PYRTM,2024,122.168562233704,13.278209643854
$GPGGA,040242.00,3318.6127,N,11857.0876,W,1,09,0.8,15.0,M,-34.8,M,,*61
$PYRTM,2024,122.168573809236,13.278221219375
$GPGGA,040243.00,3318.6134,N,11857.0906,W,1,09,0.8,12.5,M,-34.8,M,,*66
$PYRTM,2024,122.168585383368,13.278232793507
$GPGGA,040244.00,3318.6140,N,11857.0937,W,1,09,0.8,10.0,M,-34.8,M,,*67
$PYRTM,2024,122.168596958843,13.278244368981
$GPGGA,040245.00,3318.6145,N,11857.0962,W,1,09,0.8,10.7,M,-34.8,M,,*64
$PYRTM,2024,122.168608530637,13.278255940775
$GPGGA,040246.00,3318.6149,N,11857.0984,W,1,09,0.8,11.6,M,-34.8,M,,*63
$PYRTM,2024,122.168620092523,13.278267502662
$GPGGA,040247.00,3318.6155,N,11857.1008,W,1,09,0.8,11.0,M,-34.8,M,,*65
$PYRTM,2024,122.168631678229,13.278279088368
$GPGGA,040248.00,3318.6159,N,11857.1034,W,1,09,0.8,12.3,M,-34.8,M,,*69
$PYRTM,2024,122.168643253600,13.278290663738
$GPGGA,040249.00,3318.6163,N,11857.1061,W,1,09,0.8,12.4,M,-34.8,M,,*66
$PYRTM,2024,122.168654826447,13.278302236586
$GPGGA,040250.00,3318.6168,N,11857.1085,W,1,09,0.8,15.5,M,-34.8,M,,*69
$PYRTM,2024,122.168666396007,13.278313806146
$GPGGA,040251.00,3318.6173,N,11857.1109,W,1,09,0.8,16.2,M,-34.8,M,,*63
$PYRTM,2024,122.168677962963,13.278325373102
$GPGGA,040252.00,3318.6179,N,11857.1134,W,1,09,0.8,16.0,M,-34.8,M,,*66
$PYRTM,2024,122.168689549954,13.278336960093
$GPGGA,040253.00,3318.6184,N,11857.1158,W,1,09,0.8,11.5,M,-34.8,M,,*6D
$PYRTM,2024,122.168701111458,13.278348521597
$GPGGA,040254.00,3318.6189,N,11857.1183,W,1,09,0.8,11.9,M,-34.8,M,,*6D
$PYRTM,2024,122.168712692836,13.278360102975
$GPGGA,040255.00,3318.6194,N,11857.1207,W,1,09,0.8,14.1,M,-34.8,M,,*62
$PYRTM,2024,122.168724266782,13.278371676921
$GPGGA,040256.00,3318.6200,N,11857.1233,W,1,09,0.8,14.2,M,-34.8,M,,*6B
$PYRTM,2024,122.168735847014,13.278383257153
$GPGGA,040257.00,3318.6205,N,11857.1260,W,1,09,0.8,14.8,M,-34.8,M,,*63
$PYRTM,2024,122.168747415671,13.278394825810
$GPGGA,040258.00,3318.6209,N,11857.1286,W,1,09,0.8,16.1,M,-34.8,M,,*63
$PYRTM,2024,122.168759226319,13.278406636458
$GPGGA,040259.00,3318.6213,N,11857.1310,W,1,09,0.8,17.2,M,-34.8,M,,*65
$PYRTM,2024,122.168770567951,13.278417978090
$GPGGA,040300.00,3318.6219,N,11857.1338,W,1,09,0.8,14.2,M,-34.8,M,,*6B
$PYRTM,2024,122.168782157581,13.278429567720
$GPGGA,040301.00,3318.6225,N,11857.1363,W,1,09,0.8,14.3,M,-34.8,M,,*6A
$PYRTM,2024,122.168793717350,13.278441127488
$GPGGA,040302.00,3318.6231,N,11857.1386,W,1,09,0.8,17.6,M,-34.8,M,,*61
$PYRTM,2024,122.168805293681,13.278452703819
$GPGGA,040303.00,3318.6238,N,11857.1412,W,1,09,0.8,17.3,M,-34.8,M,,*66
$PYRTM,2024,122.168816864282,13.278464274421
$GPGGA,040304.00,3318.6245,N,11857.1442,W,1,09,0.8,17.5,M,-34.8,M,,*68
$PYRTM,2024,122.168828439850,13.278475849988
$GPGGA,040305.00,3318.6250,N,11857.1471,W,1,09,0.8,15.4,M,-34.8,M,,*6E
$PYRTM,2024,122.168840015289,13.278487425428
$GPGGA,040306.00,3318.6254,N,11857.1495,W,1,09,0.8,16.8,M,-34.8,M,,*6C
$PYRTM,2024,122.168851587025,13.278498997164
$GPGGA,040307.00,3318.6261,N,11857.1519,W,1,09,0.8,16.2,M,-34.8,M,,*64
$PYRTM,2024,122.168863149236,13.278510559375
$GPGGA,040308.00,3318.6269,N,11857.1546,W,1,09,0.8,17.0,M,-34.8,M,,*6A
$PYRTM,2024,122.168874723090,13.278522133229
$GPGGA,040309.00,3318.6277,N,11857.1575,W,1,09,0.8,15.1,M,-34.8,M,,*67
$PYRTM,2024,122.168887339815,13.278534749954
$GPGGA,040310.00,3318.6281,N,11857.1598,W,1,09,0.8,16.2,M,-34.8,M,,*65
$PYRTM,2024,122.168900071562,13.278547481713
$GPGGA,040311.00,3318.6285,N,11857.1621,W,1,09,0.8,17.2,M,-34.8,M,,*60
$PYRTM,2024,122.168909445718,13.278556855856
$GPGGA,040312.00,3318.6290,N,11857.1645,W,1,09,0.8,18.5,M,-34.8,M,,*6D
$PYRTM,2024,122.168921035023,13.278568445174
$GPGGA,040313.00,3318.6297,N,11857.1672,W,1,09,0.8,18.2,M,-34.8,M,,*68
$PYRTM,2024,122.168932595289,13.278580005428
$GPGGA,040314.00,3318.6304,N,11857.1699,W,1,09,0.8,15.8,M,-34.8,M,,*66
$PYRTM,2024,122.168943010729,13.278590420868
$GPGGA,040315.00,3318.6309,N,11857.1726,W,1,09,0.8,14.0,M,-34.8,M,,*66
$PYRTM,2024,122.168955755463,13.278603165602
$GPGGA,040316.00,3318.6312,N,11857.1750,W,1,09,0.8,14.0,M,-34.8,M,,*6E
$PYRTM,2024,122.168967329016,13.278614739155
$GPGGA,040317.00,3318.6315,N,11857.1776,W,1,09,0.8,16.2,M,-34.8,M,,*6C
$PYRTM,2024,122.168978891597,13.278626301736
$GPGGA,040318.00,3318.6320,N,11857.1805,W,1,09,0.8,16.8,M,-34.8,M,,*64
$PYRTM,2024,122.168990465799,13.278637875949
$GPGGA,040319.00,3318.6327,N,11857.1834,W,1,09,0.8,16.1,M,-34.8,M,,*69
$PYRTM,2024,122.169002052431,13.278649462581
$GPGGA,040320.00,3318.6332,N,11857.1860,W,1,09,0.8,18.3,M,-34.8,M,,*6A
$PYRTM,2024,122.169013612894,13.278661023032
$GPGGA,040321.00,3318.6335,N,11857.1882,W,1,09,0.8,19.0,M,-34.8,M,,*62
$PYRTM,2024,122.169025199838,13.278672609977
$GPGGA,040322.00,3318.6339,N,11857.1907,W,1,09,0.8,19.8,M,-34.8,M,,*69
$PYRTM,2024,122.169036775475,13.278684185613
$GPGGA,040323.00,3318.6345,N,11857.1934,W,1,09,0.8,17.3,M,-34.8,M,,*66
$PYRTM,2024,122.169048348588,13.278695758727
$GPGGA,040324.00,3318.6353,N,11857.1960,W,1,09,0.8,17.7,M,-34.8,M,,*63
$PYRTM,2024,122.169059925914,13.278707336053
$GPGGA,040325.00,3318.6359,N,11857.1986,W,1,09,0.8,15.7,M,-34.8,M,,*62
$PYRTM,2024,122.169071485949,13.278718896100
$GPGGA,040326.00,3318.6363,N,11857.2012,W,1,09,0.8,16.1,M,-34.8,M,,*6A
$PYRTM,2024,122.169083085891,13.278730496030
$GPGGA,040327.00,3318.6367,N,11857.2040,W,1,09,0.8,16.5,M,-34.8,M,,*6C
$PYRTM,2024,122.169094633889,13.278742044028
$GPGGA,040328.00,3318.6373,N,11857.2065,W,1,09,0.8,14.9,M,-34.8,M,,*6F
$PYRTM,2024,122.169106566400,13.278753976539
$GPGGA,040329.00,3318.6380,N,11857.2090,W,1,09,0.8,17.3,M,-34.8,M,,*61
$PYRTM,2024,122.169118127407,13.278765537546
$GPGGA,040330.00,3318.6386,N,11857.2117,W,1,09,0.8,15.2,M,-34.8,M,,*62
$PYRTM,2024,122.169129710440,13.278777120579
$GPGGA,040331.00,3318.6391,N,11857.2146,W,1,09,0.8,14.4,M,-34.8,M,,*66
$PYRTM,2024,122.169140941400,13.278788351539
$GPGGA,040332.00,3318.6395,N,11857.2174,W,1,09,0.8,13.8,M,-34.8,M,,*6B
$PYRTM,2024,122.169152515579,13.278799925718
$GPGGA,040333.00,3318.6400,N,11857.2200,W,1,09,0.8,17.6,M,-34.8,M,,*6B
$PYRTM,2024,122.169164077789,13.278811487928
$GPGGA,040334.00,3318.6407,N,11857.2226,W,1,09,0.8,17.6,M,-34.8,M,,*6F
$PYRTM,2024,122.169175653160,13.278823063310
$GPGGA,040335.00,3318.6413,N,11857.2254,W,1,09,0.8,17.9,M,-34.8,M,,*61
$PYRTM,2024,122.169187242731,13.278834652870
$GPGGA,040336.00,3318.6417,N,11857.2281,W,1,09,0.8,16.9,M,-34.8,M,,*6F
$PYRTM,2024,122.169198814144,13.278846224282
$GPGGA,040337.00,3318.6422,N,11857.2306,W,1,09,0.8,16.4,M,-34.8,M,,*6B
$PYRTM,2024,122.169210386435,13.278857796574
$GPGGA,040338.00,3318.6428,N,11857.2331,W,1,09,0.8,17.7,M,-34.8,M,,*68
$PYRTM,2024,122.169221955810,13.278869365949
$GPGGA,040339.00,3318.6434,N,11857.2359,W,1,09,0.8,19.2,M,-34.8,M,,*61
$PYRTM,2024,122.169234563414,13.278881973553
$GPGGA,040340.00,3318.6440,N,11857.2387,W,1,09,0.8,16.3,M,-34.8,M,,*61
$PYRTM,2024,122.169247296042,13.278894706181
$GPGGA,040341.00,3318.6445,N,11857.2415,W,1,09,0.8,15.8,M,-34.8,M,,*61
$PYRTM,2024,122.169256684086,13.278904094225
$GPGGA,040342.00,3318.6450,N,11857.2443,W,1,09,0.8,18.9,M,-34.8,M,,*69
$PYRTM,2024,122.169268259641,13.278915669780
$GPGGA,040343.00,3318.6458,N,11857.2471,W,1,09,0.8,17.8,M,-34.8,M,,*6F
$PYRTM,2024,122.169279826458,13.278927236597
$GPGGA,040344.00,3318.6465,N,11857.2498,W,1,09,0.8,18.8,M,-34.8,M,,*6E
$PYRTM,2024,122.169291391863,13.278938802002
$GPGGA,040345.00,3318.6470,N,11857.2527,W,1,09,0.8,18.3,M,-34.8,M,,*65
$PYRTM,2024,122.169302967662,13.278950377801
$GPGGA,040346.00,3318.6473,N,11857.2556,W,1,09,0.8,19.9,M,-34.8,M,,*68
$PYRTM,2024,122.169314543576,13.278961953727
$GPGGA,040347.00,3318.6478,N,11857.2583,W,1,09,0.8,20.0,M,-34.8,M,,*69
$PYRTM,2024,122.169326115347,13.278973525486
$GPGGA,040348.00,3318.6486,N,11857.2609,W,1,09,0.8,19.9,M,-34.8,M,,*65
$PYRTM,2024,122.169337690787,13.278985100926
$GPGGA,040349.00,3318.6495,N,11857.2639,W,1,09,0.8,22.3,M,-34.8,M,,*67
$PYRTM,2024,122.169349264919,13.278996675069
$GPGGA,040350.00,3318.6500,N,11857.2666,W,1,09,0.8,21.4,M,-34.8,M,,*6C
$PYRTM,2024,122.169360838900,13.279008249051
$GPGGA,040351.00,3318.6504,N,11857.2690,W,1,09,0.8,21.4,M,-34.8,M,,*60
$PYRTM,2024,122.169372413287,13.279019823426
$GPGGA,040352.00,3318.6509,N,11857.2717,W,1,09,0.8,22.3,M,-34.8,M,,*64
$PYRTM,2024,122.169383999456,13.279031410093
$GPGGA,040353.00,3318.6516,N,11857.2746,W,1,09,0.8,19.3,M,-34.8,M,,*67
$PYRTM,2024,122.169395567616,13.279042977755
$GPGGA,040354.00,3318.6522,N,11857.2773,W,1,09,0.8,18.6,M,-34.8,M,,*65
$PYRTM,2024,122.169407136551,13.279054546690
$GPGGA,040355.00,3318.6525,N,11857.2800,W,1,09,0.8,19.3,M,-34.8,M,,*6C
$PYRTM,2024,122.169418722373,13.279066132512
$GPGGA,040356.00,3318.6528,N,11857.2829,W,1,09,0.8,18.8,M,-34.8,M,,*63
$PYRTM,2024,122.169430298947,13.279077709086
$GPGGA,040357.00,3318.6534,N,11857.2858,W,1,09,0.8,17.4,M,-34.8,M,,*6A
$PYRTM,2024,122.169441857870,13.279089268021
$GPGGA,040358.00,3318.6542,N,11857.2887,W,1,09,0.8,20.1,M,-34.8,M,,*67
$PYRTM,2024,122.169453902766,13.279101312905
$GPGGA,040359.00,3318.6549,N,11857.2913,W,1,09,0.8,18.7,M,-34.8,M,,*6C
$PYRTM,2024,122.169465481806,13.279112891956
$GPGGA,040400.00,3318.6553,N,11857.2940,W,1,09,0.8,18.9,M,-34.8,M,,*64
$PYRTM,2024,122.169477050104,13.279124460255
$GPGGA,040401.00,3318.6557,N,11857.2968,W,1,09,0.8,16.9,M,-34.8,M,,*65
$PYRTM,2024,122.169488630706,13.279136040845
$GPGGA,040402.00,3318.6564,N,11857.2996,W,1,09,0.8,16.3,M,-34.8,M,,*6D
$PYRTM,2024,122.169500202708,13.279147612847
$GPGGA,040403.00,3318.6572,N,11857.3023,W,1,09,0.8,17.6,M,-34.8,M,,*69
$PYRTM,2024,122.169511780405,13.279159190544
$GPGGA,040404.00,3318.6578,N,11857.3051,W,1,09,0.8,14.7,M,-34.8,M,,*63
$PYRTM,2024,122.169523353507,13.279170763646
$GPGGA,040405.00,3318.6582,N,11857.3081,W,1,09,0.8,15.2,M,-34.8,M,,*6E
$PYRTM,2024,122.169534941713,13.279182351863
$GPGGA,040406.00,3318.6587,N,11857.3109,W,1,09,0.8,17.0,M,-34.8,M,,*69
$PYRTM,2024,122.169546494884,13.279193905023
$GPGGA,040407.00,3318.6593,N,11857.3135,W,1,09,0.8,17.2,M,-34.8,M,,*60
$PYRTM,2024,122.169558070602,13.279205480752
$GPGGA,040408.00,3318.6600,N,11857.3163,W,1,09,0.8,17.5,M,-34.8,M,,*62
$PYRTM,2024,122.169569648507,13.279217058646
$GPGGA,040409.00,3318.6607,N,11857.3192,W,1,09,0.8,18.3,M,-34.8,M,,*63
$PYRTM,2024,122.169582375255,13.279229785394
$GPGGA,040410.00,3318.6611,N,11857.3219,W,1,09,0.8,17.3,M,-34.8,M,,*63
$PYRTM,2024,122.169593016030,13.279240426169
$GPGGA,040411.00,3318.6615,N,11857.3248,W,1,09,0.8,16.9,M,-34.8,M,,*69
$PYRTM,2024,122.169605053495,13.279252463634
$GPGGA,040412.00,3318.6620,N,11857.3274,W,1,09,0.8,17.3,M,-34.8,M,,*68
$PYRTM,2024,122.169613977986,13.279261388125
$GPGGA,040413.00,3318.6627,N,11857.3298,W,1,09,0.8,17.8,M,-34.8,M,,*67
$PYRTM,2024,122.169625204722,13.279272614861
$GPGGA,040414.00,3318.6634,N,11857.3326,W,1,09,0.8,17.6,M,-34.8,M,,*68
$PYRTM,2024,122.169636315648,13.279283725787
$GPGGA,040415.00,3318.6639,N,11857.3355,W,1,09,0.8,17.5,M,-34.8,M,,*63
$PYRTM,2024,122.169647427581,13.279294837720
$GPGGA,040416.00,3318.6644,N,11857.3381,W,1,09,0.8,17.5,M,-34.8,M,,*63
$PYRTM,2024,122.169658538796,13.279305948935
$GPGGA,040417.00,3318.6651,N,11857.3407,W,1,09,0.8,18.2,M,-34.8,M,,*67
$PYRTM,2024,122.169669753900,13.279317164039
$GPGGA,040418.00,3318.6658,N,11857.3434,W,1,09,0.8,17.9,M,-34.8,M,,*65
$PYRTM,2024,122.169680980162,13.279328390301
$GPGGA,040419.00,3318.6664,N,11857.3461,W,1,09,0.8,19.3,M,-34.8,M,,*6F
$PYRTM,2024,122.169692900255,13.279340310394
$GPGGA,040420.00,3318.6668,N,11857.3485,W,1,09,0.8,19.7,M,-34.8,M,,*67
$PYRTM,2024,122.169704130069,13.279351540208
$GPGGA,040421.00,3318.6672,N,11857.3512,W,1,09,0.8,22.7,M,-34.8,M,,*6A
$PYRTM,2024,122.169715714502,13.279363124641
$GPGGA,040422.00,3318.6677,N,11857.3543,W,1,09,0.8,19.2,M,-34.8,M,,*65
$PYRTM,2024,122.169727275868,13.279374686007
$GPGGA,040423.00,3318.6683,N,11857.3570,W,1,09,0.8,19.6,M,-34.8,M,,*6B
$PYRTM,2024,122.169738862604,13.279386272743
$GPGGA,040424.00,3318.6689,N,11857.3593,W,1,09,0.8,20.1,M,-34.8,M,,*66
$PYRTM,2024,122.169750425104,13.279397835243
$GPGGA,040425.00,3318.6694,N,11857.3620,W,1,09,0.8,20.7,M,-34.8,M,,*66
$PYRTM,2024,122.169762010451,13.279409420590
$GPGGA,040426.00,3318.6699,N,11857.3651,W,1,09,0.8,20.5,M,-34.8,M,,*6C
$PYRTM,2024,122.169773572940,13.279420983079
$GPGGA,040427.00,3318.6704,N,11857.3679,W,1,09,0.8,19.4,M,-34.8,M,,*69
$PYRTM,2024,122.169786536181,13.279433946319
$GPGGA,040428.00,3318.6709,N,11857.3703,W,1,09,0.8,22.7,M,-34.8,M,,*6C
$PYRTM,2024,122.169799497951,13.279446908090
$GPGGA,040429.00,3318.6717,N,11857.3729,W,1,09,0.8,22.5,M,-34.8,M,,*68
$PYRTM,2024,122.169811087789,13.279458497928
$GPGGA,040430.00,3318.6724,N,11857.3758,W,1,09,0.8,21.1,M,-34.8,M,,*61
$PYRTM,2024,122.169822646215,13.279470056354
$GPGGA,040431.00,3318.6730,N,11857.3787,W,1,09,0.8,18.5,M,-34.8,M,,*69
$PYRTM,2024,122.169834236609,13.279481646748
$GPGGA,040432.00,3318.6734,N,11857.3813,W,1,09,0.8,19.0,M,-34.8,M,,*68
$PYRTM,2024,122.169845794722,13.279493204861
$GPGGA,040433.00,3318.6738,N,11857.3838,W,1,09,0.8,17.4,M,-34.8,M,,*66
$PYRTM,2024,122.169857384514,13.279504794653
$GPGGA,040434.00,3318.6744,N,11857.3866,W,1,09,0.8,20.4,M,-34.8,M,,*65
$PYRTM,2024,122.169868944236,13.279516354375
$GPGGA,040435.00,3318.6752,N,11857.3895,W,1,09,0.8,19.3,M,-34.8,M,,*62
$PYRTM,2024,122.169880530775,13.279527940914
$GPGGA,040436.00,3318.6758,N,11857.3924,W,1,09,0.8,20.3,M,-34.8,M,,*6A
$PYRTM,2024,122.169892092025,13.279539502164
$GPGGA,040437.00,3318.6761,N,11857.3949,W,1,09,0.8,17.8,M,-34.8,M,,*65
$PYRTM,2024,122.169903674387,13.279551084525
$GPGGA,040438.00,3318.6765,N,11857.3975,W,1,09,0.8,18.5,M,-34.8,M,,*63
$PYRTM,2024,122.169915241111,13.279562651250
$GPGGA,040439.00,3318.6773,N,11857.4003,W,1,09,0.8,16.5,M,-34.8,M,,*64
$PYRTM,2024,122.169927983356,13.279575393507
$GPGGA,040440.00,3318.6782,N,11857.4030,W,1,09,0.8,19.3,M,-34.8,M,,*6D
$PYRTM,2024,122.169939561539,13.279586971678
$GPGGA,040441.00,3318.6788,N,11857.4057,W,1,09,0.8,17.0,M,-34.8,M,,*6A
$PYRTM,2024,122.169951133646,13.279598543796
$GPGGA,040442.00,3318.6792,N,11857.4086,W,1,09,0.8,16.6,M,-34.8,M,,*69
$PYRTM,2024,122.169962709919,13.279610120058
$GPGGA,040443.00,3318.6796,N,11857.4112,W,1,09,0.8,16.0,M,-34.8,M,,*66
$PYRTM,2024,122.169974268299,13.279621678438
$GPGGA,040444.00,3318.6800,N,11857.4138,W,1,09,0.8,19.2,M,-34.8,M,,*64
$PYRTM,2024,122.169985854630,13.279633264769
$GPGGA,040445.00,3318.6806,N,11857.4165,W,1,09,0.8,19.4,M,-34.8,M,,*6D
$PYRTM,2024,122.169997423912,13.279644834051
$GPGGA,040446.00,3318.6811,N,11857.4193,W,1,09,0.8,20.1,M,-34.8,M,,*6E
$PYRTM,2024,122.170009000428,13.279656410567
$GPGGA,040447.00,3318.6815,N,11857.4220,W,1,09,0.8,18.5,M,-34.8,M,,*6F
$PYRTM,2024,122.170020578194,13.279667988333
$GPGGA,040448.00,3318.6821,N,11857.4246,W,1,09,0.8,17.2,M,-34.8,M,,*6F
$PYRTM,2024,122.170032148241,13.279679558380
$GPGGA,040449.00,3318.6826,N,11857.4273,W,1,09,0.8,17.5,M,-34.8,M,,*68
$PYRTM,2024,122.170043720081,13.279691130220
$GPGGA,040450.00,3318.6832,N,11857.4302,W,1,09,0.8,17.8,M,-34.8,M,,*6F
$PYRTM,2024,122.170055300220,13.279702710359
$GPGGA,040451.00,3318.6839,N,11857.4333,W,1,09,0.8,17.6,M,-34.8,M,,*69
$PYRTM,2024,122.170066875683,13.279714285833
$GPGGA,040452.00,3318.6846,N,11857.4361,W,1,09,0.8,17.2,M,-34.8,M,,*61
$PYRTM,2024,122.170078451852,13.279725862002
$GPGGA,040453.00,3318.6853,N,11857.4386,W,1,09,0.8,18.3,M,-34.8,M,,*63
$PYRTM,2024,122.170090023356,13.279737433495
$GPGGA,040454.00,3318.6858,N,11857.4414,W,1,09,0.8,17.9,M,-34.8,M,,*66
$PYRTM,2024,122.170101601308,13.279749011447
$GPGGA,040455.00,3318.6864,N,11857.4442,W,1,09,0.8,17.5,M,-34.8,M,,*67
$PYRTM,2024,122.170113171308,13.279760581447
$GPGGA,040456.00,3318.6869,N,11857.4469,W,1,09,0.8,18.6,M,-34.8,M,,*6C
$PYRTM,2024,122.170124747708,13.279772157859
$GPGGA,040457.00,3318.6875,N,11857.4495,W,1,09,0.8,16.4,M,-34.8,M,,*6F
$PYRTM,2024,122.170136319016,13.279783729167
$GPGGA,040458.00,3318.6881,N,11857.4523,W,1,09,0.8,14.8,M,-34.8,M,,*69
$PYRTM,2024,122.170148235579,13.279795645718
$GPGGA,040459.00,3318.6889,N,11857.4550,W,1,09,0.8,14.8,M,-34.8,M,,*64
$PYRTM,2024,122.170159570243,13.279806980382
$GPGGA,040500.00,3318.6894,N,11857.4576,W,1,09,0.8,17.1,M,-34.8,M,,*6B
$PYRTM,2024,122.170171037106,13.279818447245
$GPGGA,040501.00,3318.6899,N,11857.4603,W,1,09,0.8,19.6,M,-34.8,M,,*6F
$PYRTM,2024,122.170182611933,13.279830022072
$GPGGA,040502.00,3318.6904,N,11857.4635,W,1,09,0.8,19.2,M,-34.8,M,,*68
$PYRTM,2024,122.170194189560,13.279841599699
$GPGGA,040503.00,3318.6911,N,11857.4665,W,1,09,0.8,18.3,M,-34.8,M,,*68
$PYRTM,2024,122.170205764769,13.279853174907
$GPGGA,040504.00,3318.6917,N,11857.4690,W,1,09,0.8,21.4,M,-34.8,M,,*6E
$PYRTM,2024,122.170217339491,13.279864749630
$GPGGA,040505.00,3318.6923,N,11857.4715,W,1,09,0.8,22.8,M,-34.8,M,,*6B
$PYRTM,2024,122.170228912998,13.279876323137
$GPGGA,040506.00,3318.6930,N,11857.4743,W,1,09,0.8,24.1,M,-34.8,M,,*66
$PYRTM,2024,122.170240483218,13.279887893356
$GPGGA,040507.00,3318.6936,N,11857.4771,W,1,09,0.8,21.6,M,-34.8,M,,*62
$PYRTM,2024,122.170252048403,13.279899458542
$GPGGA,040508.00,3318.6941,N,11857.4801,W,1,09,0.8,19.2,M,-34.8,M,,*6A
$PYRTM,2024,122.170263638113,13.279911048252
$GPGGA,040509.00,3318.6947,N,11857.4828,W,1,09,0.8,19.6,M,-34.8,M,,*62
$PYRTM,2024,122.170276708715,13.279924118854
$GPGGA,040510.00,3318.6955,N,11857.4853,W,1,09,0.8,21.6,M,-34.8,M,,*6E
$PYRTM,2024,122.170288867060,13.279936277199
$GPGGA,040511.00,3318.6962,N,11857.4877,W,1,09,0.8,22.2,M,-34.8,M,,*6A
$PYRTM,2024,122.170298344375,13.279945754514
$GPGGA,040512.00,3318.6968,N,11857.4907,W,1,09,0.8,20.3,M,-34.8,M,,*66
$PYRTM,2024,122.170309933958,13.279957344097
$GPGGA,040513.00,3318.6972,N,11857.4939,W,1,09,0.8,18.3,M,-34.8,M,,*6A
$PYRTM,2024,122.170321494062,13.279968904201
$GPGGA,040514.00,3318.6977,N,11857.4966,W,1,09,0.8,19.5,M,-34.8,M,,*65
$PYRTM,2024,122.170333068102,13.279980478241
$GPGGA,040515.00,3318.6983,N,11857.4989,W,1,09,0.8,19.7,M,-34.8,M,,*6C
$PYRTM,2024,122.170344643171,13.279992053310
$GPGGA,040516.00,3318.6989,N,11857.5015,W,1,09,0.8,19.5,M,-34.8,M,,*6A
$PYRTM,2024,122.170356216562,13.280003626701
$GPGGA,040517.00,3318.6994,N,11857.5045,W,1,09,0.8,18.5,M,-34.8,M,,*63
$PYRTM,2024,122.170367789664,13.280015199803
$GPGGA,040518.00,3318.7000,N,11857.5076,W,1,09,0.8,16.5,M,-34.8,M,,*67
$PYRTM,2024,122.170379365775,13.280026775914
$GPGGA,040519.00,3318.7006,N,11857.5102,W,1,09,0.8,19.1,M,-34.8,M,,*69
$PYRTM,2024,122.170390950822,13.280038360961
$GPGGA,040520.00,3318.7012,N,11857.5126,W,1,09,0.8,20.2,M,-34.8,M,,*69
$PYRTM,2024,122.170402525995,13.280049936146
$GPGGA,040521.00,3318.7019,N,11857.5153,W,1,09,0.8,19.4,M,-34.8,M,,*6D
$PYRTM,2024,122.170414093796,13.280061503935
$GPGGA,040522.00,3318.7025,N,11857.5181,W,1,09,0.8,20.6,M,-34.8,M,,*66
$PYRTM,2024,122.170425675648,13.280073085787
$GPGGA,040523.00,3318.7032,N,11857.5208,W,1,09,0.8,19.5,M,-34.8,M,,*6A
$PYRTM,2024,122.170437243275,13.280084653414
$GPGGA,040524.00,3318.7038,N,11857.5233,W,1,09,0.8,18.0,M,-34.8,M,,*6B
$PYRTM,2024,122.170448825139,13.280096235278
$GPGGA,040525.00,3318.7045,N,11857.5259,W,1,09,0.8,17.2,M,-34.8,M,,*61
$PYRTM,2024,122.170460383727,13.280107793866
$GPGGA,040526.00,3318.7050,N,11857.5285,W,1,09,0.8,16.6,M,-34.8,M,,*62
$PYRTM,2024,122.170471957766,13.280119367905
$GPGGA,040527.00,3318.7055,N,11857.5313,W,1,09,0.8,18.5,M,-34.8,M,,*65
$PYRTM,2024,122.170483530741,13.280130940880
$GPGGA,040528.00,3318.7061,N,11857.5340,W,1,09,0.8,17.5,M,-34.8,M,,*64
$PYRTM,2024,122.170495465035,13.280142875174
$GPGGA,040529.00,3318.7067,N,11857.5368,W,1,09,0.8,18.0,M,-34.8,M,,*63
$PYRTM,2024,122.170507026759,13.280154436898
$GPGGA,040530.00,3318.7074,N,11857.5396,W,1,09,0.8,18.2,M,-34.8,M,,*6A
$PYRTM,2024,122.170518255810,13.280165665949
$GPGGA,040531.00,3318.7081,N,11857.5425,W,1,09,0.8,17.5,M,-34.8,M,,*66
$PYRTM,2024,122.170529830104,13.280177240243
$GPGGA,040532.00,3318.7087,N,11857.5451,W,1,09,0.8,19.6,M,-34.8,M,,*6D
$PYRTM,2024,122.170541414433,13.280188824572
$GPGGA,040533.00,3318.7092,N,11857.5478,W,1,09,0.8,20.8,M,-34.8,M,,*67
$PYRTM,2024,122.170552989745,13.280200399884
$GPGGA,040534.00,3318.7098,N,11857.5506,W,1,09,0.8,20.3,M,-34.8,M,,*69
$PYRTM,2024,122.170564551528,13.280211961667
$GPGGA,040535.00,3318.7104,N,11857.5535,W,1,09,0.8,16.4,M,-34.8,M,,*6E
$PYRTM,2024,122.170576136088,13.280223546227
$GPGGA,040536.00,3318.7113,N,11857.5564,W,1,09,0.8,15.8,M,-34.8,M,,*60
$PYRTM,2024,122.170587713646,13.280235123785
$GPGGA,040537.00,3318.7121,N,11857.5589,W,1,09,0.8,15.8,M,-34.8,M,,*63
$PYRTM,2024,122.170599272014,13.280246682153
$GPGGA,040538.00,3318.7127,N,11857.5613,W,1,09,0.8,18.8,M,-34.8,M,,*67
$PYRTM,2024,122.170610860428,13.280258270567
$GPGGA,040539.00,3318.7132,N,11857.5641,W,1,09,0.8,16.2,M,-34.8,M,,*61
$PYRTM,2024,122.170623462257,13.280270872396
$GPGGA,040540.00,3318.7135,N,11857.5671,W,1,09,0.8,14.8,M,-34.8,M,,*63
$PYRTM,2024,122.170636094248,13.280283504387
$GPGGA,040541.00,3318.7139,N,11857.5700,W,1,09,0.8,12.8,M,-34.8,M,,*6F
$PYRTM,2024,122.170645582697,13.280292992836
$GPGGA,040542.00,3318.7146,N,11857.5726,W,1,09,0.8,12.4,M,-34.8,M,,*6C
$PYRTM,2024,122.170657157060,13.280304567199
$GPGGA,040543.00,3318.7153,N,11857.5753,W,1,09,0.8,13.6,M,-34.8,M,,*68
$PYRTM,2024,122.170668718090,13.280316128229
$GPGGA,040544.00,3318.7159,N,11857.5780,W,1,09,0.8,15.5,M,-34.8,M,,*6E
$PYRTM,2024,122.170680304468,13.280327714606
$GPGGA,040545.00,3318.7163,N,11857.5809,W,1,09,0.8,16.8,M,-34.8,M,,*66
$PYRTM,2024,122.170691873808,13.280339283947
$GPGGA,040546.00,3318.7168,N,11857.5840,W,1,09,0.8,16.2,M,-34.8,M,,*69
$PYRTM,2024,122.170703322870,13.280350733009
$GPGGA,040547.00,3318.7175,N,11857.5870,W,1,09,0.8,16.2,M,-34.8,M,,*67
$PYRTM,2024,122.170715015972,13.280362426111
$GPGGA,040548.00,3318.7182,N,11857.5895,W,1,09,0.8,17.3,M,-34.8,M,,*6B
$PYRTM,2024,122.170726601481,13.280374011620
$GPGGA,040549.00,3318.7188,N,11857.5920,W,1,09,0.8,18.6,M,-34.8,M,,*65
$PYRTM,2024,122.170738175035,13.280385585174
$GPGGA,040550.00,3318.7192,N,11857.5948,W,1,09,0.8,18.3,M,-34.8,M,,*6D
$PYRTM,2024,122.170749620648,13.280397030787
$GPGGA,040551.00,3318.7198,N,11857.5979,W,1,09,0.8,16.3,M,-34.8,M,,*6A
$PYRTM,2024,122.170761311238,13.280408721377
$GPGGA,040552.00,3318.7205,N,11857.6008,W,1,09,0.8,14.7,M,-34.8,M,,*64
$PYRTM,2024,122.170772898333,13.280420308472
$GPGGA,040553.00,3318.7212,N,11857.6035,W,1,09,0.8,16.4,M,-34.8,M,,*6C
$PYRTM,2024,122.170784350949,13.280431761088
$GPGGA,040554.00,3318.7216,N,11857.6062,W,1,09,0.8,18.4,M,-34.8,M,,*63
$PYRTM,2024,122.170795917546,13.280443327685
$GPGGA,040555.00,3318.7222,N,11857.6091,W,1,09,0.8,18.2,M,-34.8,M,,*6F
$PYRTM,2024,122.170807607951,13.280455018090
$GPGGA,040556.00,3318.7228,N,11857.6118,W,1,09,0.8,18.1,M,-34.8,M,,*65
$PYRTM,2024,122.170819182315,13.280466592454
$GPGGA,040557.00,3318.7235,N,11857.6146,W,1,09,0.8,15.9,M,-34.8,M,,*66
$PYRTM,2024,122.170830651979,13.280478062118
$GPGGA,040558.00,3318.7239,N,11857.6175,W,1,09,0.8,16.3,M,-34.8,M,,*6C
$PYRTM,2024,122.170842689352,13.280490099491
$GPGGA,040559.00,3318.7242,N,11857.6203,W,1,09,0.8,16.4,M,-34.8,M,,*64
$PYRTM,2024,122.170854829653,13.280502239792
$GPGGA,040600.00,3318.7247,N,11857.6228,W,1,09,0.8,15.6,M,-34.8,M,,*66
$PYRTM,2024,122.170865953171,13.280513363310
$GPGGA,040601.00,3318.7254,N,11857.6255,W,1,09,0.8,15.5,M,-34.8,M,,*6C
$PYRTM,2024,122.170877531215,13.280524941354
$GPGGA,040602.00,3318.7263,N,11857.6283,W,1,09,0.8,17.0,M,-34.8,M,,*67
$PYRTM,2024,122.170889101551,13.280536511690
$GPGGA,040603.00,3318.7269,N,11857.6312,W,1,09,0.8,15.3,M,-34.8,M,,*64
$PYRTM,2024,122.170900690590,13.280548100729
$GPGGA,040604.00,3318.7274,N,11857.6339,W,1,09,0.8,16.9,M,-34.8,M,,*6F
$PYRTM,2024,122.170912250359,13.280559660498
$GPGGA,040605.00,3318.7278,N,11857.6366,W,1,09,0.8,18.1,M,-34.8,M,,*6E
$PYRTM,2024,122.170923826157,13.280571236296
$GPGGA,040606.00,3318.7285,N,11857.6394,W,1,09,0.8,19.3,M,-34.8,M,,*61
$PYRTM,2024,122.170935398194,13.280582808333
$GPGGA,040607.00,3318.7294,N,11857.6422,W,1,09,0.8,21.7,M,-34.8,M,,*65
$PYRTM,2024,122.170946968125,13.280594378264
$GPGGA,040608.00,3318.7300,N,11857.6447,W,1,09,0.8,23.2,M,-34.8,M,,*62
$PYRTM,2024,122.170958547477,13.280605957616
$GPGGA,040609.00,3318.7304,N,11857.6475,W,1,09,0.8,22.0,M,-34.8,M,,*65
$PYRTM,2024,122.170971279051,13.280618689190
$GPGGA,040610.00,3318.7309,N,11857.6507,W,1,09,0.8,18.3,M,-34.8,M,,*6E
$PYRTM,2024,122.170983890359,13.280631300498
$GPGGA,040611.00,3318.7314,N,11857.6534,W,1,09,0.8,19.3,M,-34.8,M,,*62
$PYRTM,2024,122.170993273704,13.280640683843
$GPGGA,040612.00,3318.7321,N,11857.6558,W,1,09,0.8,20.4,M,-34.8,M,,*60
$PYRTM,2024,122.171004843819,13.280652253958
$GPGGA,040613.00,3318.7327,N,11857.6586,W,1,09,0.8,22.4,M,-34.8,M,,*66
$PYRTM,2024,122.171016432824,13.280663842963
$GPGGA,040614.00,3318.7333,N,11857.6617,W,1,09,0.8,19.3,M,-34.8,M,,*60
$PYRTM,2024,122.171027991493,13.280675401632
$GPGGA,040615.00,3318.7336,N,11857.6648,W,1,09,0.8,17.4,M,-34.8,M,,*67
$PYRTM,2024,122.171039322523,13.280686732662
$GPGGA,040616.00,3318.7340,N,11857.6673,W,1,09,0.8,19.2,M,-34.8,M,,*65
$PYRTM,2024,122.171052284641,13.280699694769
$GPGGA,040617.00,3318.7345,N,11857.6696,W,1,09,0.8,20.0,M,-34.8,M,,*62
$PYRTM,2024,122.171063049144,13.280710459271
$GPGGA,040618.00,3318.7352,N,11857.6724,W,1,09,0.8,20.4,M,-34.8,M,,*67
$PYRTM,2024,122.171074175556,13.280721585694
$GPGGA,040619.00,3318.7359,N,11857.6755,W,1,09,0.8,20.1,M,-34.8,M,,*6E
$PYRTM,2024,122.171085399063,13.280732809201
$GPGGA,040620.00,3318.7364,N,11857.6782,W,1,09,0.8,18.6,M,-34.8,M,,*6C
$PYRTM,2024,122.171096512419,13.280743922558
$GPGGA,040621.00,3318.7370,N,11857.6805,W,1,09,0.8,20.3,M,-34.8,M,,*66
$PYRTM,2024,122.171107622894,13.280755033032
$GPGGA,040622.00,3318.7377,N,11857.6831,W,1,09,0.8,20.3,M,-34.8,M,,*65
$PYRTM,2024,122.171118735359,13.280766145498
$GPGGA,040623.00,3318.7385,N,11857.6858,W,1,09,0.8,18.7,M,-34.8,M,,*69
$PYRTM,2024,122.171129960417,13.280777370556
$GPGGA,040624.00,3318.7391,N,11857.6885,W,1,09,0.8,19.2,M,-34.8,M,,*6F
$PYRTM,2024,122.171141071574,13.280788481713
$GPGGA,040625.00,3318.7396,N,11857.6909,W,1,09,0.8,16.6,M,-34.8,M,,*67
$PYRTM,2024,122.171152181968,13.280799592106
$GPGGA,040626.00,3318.7402,N,11857.6936,W,1,09,0.8,16.3,M,-34.8,M,,*67
$PYRTM,2024,122.171163294074,13.280810704213
$GPGGA,040627.00,3318.7409,N,11857.6965,W,1,09,0.8,14.3,M,-34.8,M,,*69
$PYRTM,2024,122.171174508889,13.280821919016
$GPGGA,040628.00,3318.7417,N,11857.6994,W,1,09,0.8,13.4,M,-34.8,M,,*67
$PYRTM,2024,122.171185619803,13.280833029942
$GPGGA,040629.00,3318.7421,N,11857.7017,W,1,09,0.8,16.1,M,-34.8,M,,*60
$PYRTM,2024,122.171197220660,13.280844630799
$GPGGA,040630.00,3318.7425,N,11857.7040,W,1,09,0.8,18.0,M,-34.8,M,,*61
$PYRTM,2024,122.171208318484,13.280855728623
$GPGGA,040631.00,3318.7430,N,11857.7071,W,1,09,0.8,15.2,M,-34.8,M,,*69
$PYRTM,2024,122.171219430451,13.280866840602
$GPGGA,040632.00,3318.7436,N,11857.7103,W,1,09,0.8,12.8,M,-34.8,M,,*65
$PYRTM,2024,122.171231697674,13.280879107812
$GPGGA,040633.00,3318.7442,N,11857.7127,W,1,09,0.8,16.5,M,-34.8,M,,*68
$PYRTM,2024,122.171242924630,13.280890334769
$GPGGA,040634.00,3318.7446,N,11857.7147,W,1,09,0.8,18.3,M,-34.8,M,,*65
$PYRTM,2024,122.171254035995,13.280901446134
$GPGGA,040635.00,3318.7450,N,11857.7173,W,1,09,0.8,19.3,M,-34.8,M,,*65
$PYRTM,2024,122.171265248519,13.280912658657
$GPGGA,040636.00,3318.7457,N,11857.7203,W,1,09,0.8,17.7,M,-34.8,M,,*6F
$PYRTM,2024,122.171276836644,13.280924246782
$GPGGA,040637.00,3318.7464,N,11857.7229,W,1,09,0.8,19.1,M,-34.8,M,,*6E
$PYRTM,2024,122.171288397222,13.280935807361
$GPGGA,040638.00,3318.7472,N,11857.7252,W,1,09,0.8,20.0,M,-34.8,M,,*61
$PYRTM,2024,122.171299984317,13.280947394456
$GPGGA,040639.00,3318.7478,N,11857.7280,W,1,09,0.8,18.8,M,-34.8,M,,*66
$PYRTM,2024,122.171311546204,13.280958956354
$GPGGA,040640.00,3318.7485,N,11857.7307,W,1,09,0.8,19.8,M,-34.8,M,,*65
$PYRTM,2024,122.171327286887,13.280974697037
$GPGGA,040641.00,3318.7490,N,11857.7333,W,1,09,0.8,19.2,M,-34.8,M,,*6D
$PYRTM,2024,122.171338876690,13.280986286829
$GPGGA,040642.00,3318.7497,N,11857.7357,W,1,09,0.8,20.5,M,-34.8,M,,*66
$PYRTM,2024,122.171350435150,13.280997845289
$GPGGA,040643.00,3318.7506,N,11857.7383,W,1,09,0.8,16.6,M,-34.8,M,,*61
$PYRTM,2024,122.171362036586,13.281009446725
$GPGGA,040644.00,3318.7513,N,11857.7409,W,1,09,0.8,18.0,M,-34.8,M,,*6F
$PYRTM,2024,122.171373584086,13.281020994225
$GPGGA,040645.00,3318.7518,N,11857.7435,W,1,09,0.8,16.2,M,-34.8,M,,*66
$PYRTM,2024,122.171385185023,13.281032595162
$GPGGA,040646.00,3318.7522,N,11857.7458,W,1,09,0.8,13.8,M,-34.8,M,,*68
$PYRTM,2024,122.171396733079,13.281044143218
$GPGGA,040647.00,3318.7525,N,11857.7484,W,1,09,0.8,14.0,M,-34.8,M,,*60
$PYRTM,2024,122.171408320312,13.281055730451
$GPGGA,040648.00,3318.7532,N,11857.7511,W,1,09,0.8,14.9,M,-34.8,M,,*6D
$PYRTM,2024,122.171419881204,13.281067291343
$GPGGA,040649.00,3318.7540,N,11857.7538,W,1,09,0.8,14.5,M,-34.8,M,,*6E
$PYRTM,2024,122.171431918229,13.281079328368
$GPGGA,040650.00,3318.7547,N,11857.7565,W,1,09,0.8,16.4,M,-34.8,M,,*6A
$PYRTM,2024,122.171443143819,13.281090553958
$GPGGA,040651.00,3318.7551,N,11857.7591,W,1,09,0.8,16.9,M,-34.8,M,,*6A
$PYRTM,2024,122.171454615231,13.281102025370
$GPGGA,040652.00,3318.7555,N,11857.7618,W,1,09,0.8,18.5,M,-34.8,M,,*6D
$PYRTM,2024,122.171466177083,13.281113587222
$GPGGA,040653.00,3318.7563,N,11857.7644,W,1,09,0.8,17.7,M,-34.8,M,,*6D
$PYRTM,2024,122.171477767141,13.281125177280
$GPGGA,040654.00,3318.7571,N,11857.7672,W,1,09,0.8,16.6,M,-34.8,M,,*6C
$PYRTM,2024,122.171489326898,13.281136737037
$GPGGA,040655.00,3318.7577,N,11857.7699,W,1,09,0.8,14.8,M,-34.8,M,,*62
$PYRTM,2024,122.171500911713,13.281148321863
$GPGGA,040656.00,3318.7581,N,11857.7726,W,1,09,0.8,14.9,M,-34.8,M,,*6C
$PYRTM,2024,122.171512474421,13.281159884560
$GPGGA,040657.00,3318.7585,N,11857.7753,W,1,09,0.8,14.3,M,-34.8,M,,*61
$PYRTM,2024,122.171524063495,13.281171473634
$GPGGA,040658.00,3318.7591,N,11857.7781,W,1,09,0.8,15.0,M,-34.8,M,,*66
$PYRTM,2024,122.171536099178,13.281183509317
$GPGGA,040659.00,3318.7597,N,11857.7809,W,1,09,0.8,16.4,M,-34.8,M,,*69
$PYRTM,2024,122.171547440174,13.281194850312
$GPGGA,040700.00,3318.7602,N,11857.7837,W,1,09,0.8,17.5,M,-34.8,M,,*66
$PYRTM,2024,122.171558770648,13.281206180787
$GPGGA,040701.00,3318.7607,N,11857.7863,W,1,09,0.8,18.3,M,-34.8,M,,*6A
$PYRTM,2024,122.171570358113,13.281217768252
$GPGGA,040702.00,3318.7613,N,11857.7887,W,1,09,0.8,19.8,M,-34.8,M,,*6C
$PYRTM,2024,122.171581919387,13.281229329525
$GPGGA,040703.00,3318.7619,N,11857.7914,W,1,09,0.8,18.2,M,-34.8,M,,*67
$PYRTM,2024,122.171593505880,13.281240916019
$GPGGA,040704.00,3318.7624,N,11857.7943,W,1,09,0.8,17.4,M,-34.8,M,,*65
$PYRTM,2024,122.171605067778,13.281252477917
$GPGGA,040705.00,3318.7630,N,11857.7971,W,1,09,0.8,17.7,M,-34.8,M,,*63
$PYRTM,2024,122.171616655012,13.281264065150
$GPGGA,040706.00,3318.7636,N,11857.7994,W,1,09,0.8,20.0,M,-34.8,M,,*6E
$PYRTM,2024,122.171628217025,13.281275627164
$GPGGA,040707.00,3318.7643,N,11857.8016,W,1,09,0.8,19.5,M,-34.8,M,,*6E
$PYRTM,2024,122.171639797384,13.281287207523
$GPGGA,040708.00,3318.7649,N,11857.8046,W,1,09,0.8,18.3,M,-34.8,M,,*69
$PYRTM,2024,122.171651364259,13.281298774398
$GPGGA,040709.00,3318.7655,N,11857.8077,W,1,09,0.8,17.0,M,-34.8,M,,*6B
$PYRTM,2024,122.171663987164,13.281311397303
$GPGGA,040710.00,3318.7659,N,11857.8101,W,1,09,0.8,19.4,M,-34.8,M,,*65
$PYRTM,2024,122.171675554051,13.281322964190
$GPGGA,040711.00,3318.7665,N,11857.8125,W,1,09,0.8,19.5,M,-34.8,M,,*6C
$PYRTM,2024,122.171687140868,13.281334551007
$GPGGA,040712.00,3318.7672,N,11857.8154,W,1,09,0.8,20.6,M,-34.8,M,,*66
$PYRTM,2024,122.171698701968,13.281346112106
$GPGGA,040713.00,3318.7677,N,11857.8183,W,1,09,0.8,20.0,M,-34.8,M,,*6E
$PYRTM,2024,122.171710291840,13.281357701979
$GPGGA,040714.00,3318.7683,N,11857.8208,W,1,09,0.8,21.2,M,-34.8,M,,*61
$PYRTM,2024,122.171721850104,13.281369260243
$GPGGA,040715.00,3318.7688,N,11857.8230,W,1,09,0.8,23.2,M,-34.8,M,,*62
$PYRTM,2024,122.171733442153,13.281380852292
$GPGGA,040716.00,3318.7693,N,11857.8256,W,1,09,0.8,21.4,M,-34.8,M,,*6F
$PYRTM,2024,122.171744998900,13.281392409039
$GPGGA,040717.00,3318.7699,N,11857.8284,W,1,09,0.8,20.0,M,-34.8,M,,*6E
$PYRTM,2024,122.171756588067,13.281403998206
$GPGGA,040718.00,3318.7704,N,11857.8311,W,1,09,0.8,18.3,M,-34.8,M,,*61
$PYRTM,2024,122.171768146979,13.281415557118
$GPGGA,040719.00,3318.7710,N,11857.8335,W,1,09,0.8,19.0,M,-34.8,M,,*61
$PYRTM,2024,122.171779734028,13.281427144178
$GPGGA,040720.00,3318.7715,N,11857.8361,W,1,09,0.8,19.8,M,-34.8,M,,*67
$PYRTM,2024,122.171791296019,13.281438706157
$GPGGA,040721.00,3318.7722,N,11857.8391,W,1,09,0.8,17.6,M,-34.8,M,,*6D
$PYRTM,2024,122.171802882407,13.281450292546
$GPGGA,040722.00,3318.7728,N,11857.8419,W,1,09,0.8,17.7,M,-34.8,M,,*62
$PYRTM,2024,122.171814443333,13.281461853472
$GPGGA,040723.00,3318.7733,N,11857.8443,W,1,09,0.8,20.5,M,-34.8,M,,*60
$PYRTM,2024,122.171826030150,13.281473440289
$GPGGA,040724.00,3318.7738,N,11857.8470,W,1,09,0.8,19.2,M,-34.8,M,,*61
$PYRTM,2024,122.171837591991,13.281485002130
$GPGGA,040725.00,3318.7745,N,11857.8501,W,1,09,0.8,20.7,M,-34.8,M,,*62
$PYRTM,2024,122.171849179167,13.281496589306
$GPGGA,040726.00,3318.7750,N,11857.8528,W,1,09,0.8,18.6,M,-34.8,M,,*64
$PYRTM,2024,122.171860740220,13.281508150370
$GPGGA,040727.00,3318.7755,N,11857.8553,W,1,09,0.8,20.8,M,-34.8,M,,*69
$PYRTM,2024,122.171872330208,13.281519740347
$GPGGA,040728.00,3318.7761,N,11857.8577,W,1,09,0.8,22.5,M,-34.8,M,,*68
$PYRTM,2024,122.171884364850,13.281531774988
$GPGGA,040729.00,3318.7767,N,11857.8604,W,1,09,0.8,24.1,M,-34.8,M,,*6A
$PYRTM,2024,122.171895810394,13.281543220532
$GPGGA,040730.00,3318.7774,N,11857.8632,W,1,09,0.8,21.3,M,-34.8,M,,*62
$PYRTM,2024,122.171907037199,13.281554447338
$GPGGA,040731.00,3318.7780,N,11857.8659,W,1,09,0.8,19.1,M,-34.8,M,,*6C
$PYRTM,2024,122.171918623472,13.281566033611
$GPGGA,040732.00,3318.7786,N,11857.8685,W,1,09,0.8,18.8,M,-34.8,M,,*60
$PYRTM,2024,122.171930185822,13.281577595961
$GPGGA,040733.00,3318.7793,N,11857.8711,W,1,09,0.8,18.6,M,-34.8,M,,*67
$PYRTM,2024,122.171941771586,13.281589181736
$GPGGA,040734.00,3318.7800,N,11857.8740,W,1,09,0.8,16.9,M,-34.8,M,,*60
$PYRTM,2024,122.171953332743,13.281600742882
$GPGGA,040735.00,3318.7806,N,11857.8766,W,1,09,0.8,17.3,M,-34.8,M,,*68
$PYRTM,2024,122.171964922095,13.281612332234
$GPGGA,040736.00,3318.7811,N,11857.8788,W,1,09,0.8,19.9,M,-34.8,M,,*69
$PYRTM,2024,122.171976481713,13.281623891852
$GPGGA,040737.00,3318.7816,N,11857.8815,W,1,09,0.8,19.7,M,-34.8,M,,*6A
$PYRTM,2024,122.171988069028,13.281635479167
$GPGGA,040738.00,3318.7822,N,11857.8845,W,1,09,0.8,18.8,M,-34.8,M,,*69
$PYRTM,2024,122.171999631308,13.281647041435
$GPGGA,040739.00,3318.7825,N,11857.8874,W,1,09,0.8,19.0,M,-34.8,M,,*64
$PYRTM,2024,122.172012823854,13.281660233993
$GPGGA,040740.00,3318.7828,N,11857.8899,W,1,09,0.8,16.5,M,-34.8,M,,*6E
$PYRTM,2024,122.172024979514,13.281672389653
$GPGGA,040741.00,3318.7833,N,11857.8924,W,1,09,0.8,19.7,M,-34.8,M,,*6F
$PYRTM,2024,122.172034380729,13.281681790868
$GPGGA,040742.00,3318.7839,N,11857.8950,W,1,09,0.8,21.0,M,-34.8,M,,*69
$PYRTM,2024,122.172045927234,13.281693337373
$GPGGA,040743.00,3318.7844,N,11857.8978,W,1,09,0.8,17.7,M,-34.8,M,,*6A
$PYRTM,2024,122.172057516609,13.281704926759
$GPGGA,040744.00,3318.7850,N,11857.9005,W,1,09,0.8,18.7,M,-34.8,M,,*65
$PYRTM,2024,122.172069074861,13.281716485000
$GPGGA,040745.00,3318.7856,N,11857.9030,W,1,09,0.8,20.8,M,-34.8,M,,*60
$PYRTM,2024,122.172080665995,13.281728076134
$GPGGA,040746.00,3318.7864,N,11857.9054,W,1,09,0.8,20.3,M,-34.8,M,,*6B
$PYRTM,2024,122.172092223067,13.281739633206
$GPGGA,040747.00,3318.7871,N,11857.9080,W,1,09,0.8,19.0,M,-34.8,M,,*6E
$PYRTM,2024,122.172103805359,13.281751215498
$GPGGA,040748.00,3318.7876,N,11857.9107,W,1,09,0.8,18.9,M,-34.8,M,,*60
$PYRTM,2024,122.172115374213,13.281762784352
$GPGGA,040749.00,3318.7880,N,11857.9133,W,1,09,0.8,19.8,M,-34.8,M,,*6F
$PYRTM,2024,122.172126953472,13.281774363623
$GPGGA,040750.00,3318.7885,N,11857.9159,W,1,09,0.8,17.9,M,-34.8,M,,*61
$PYRTM,2024,122.172138520359,13.281785930509
$GPGGA,040751.00,3318.7891,N,11857.9184,W,1,09,0.8,15.8,M,-34.8,M,,*66
$PYRTM,2024,122.172150111007,13.281797521146
$GPGGA,040752.00,3318.7897,N,11857.9212,W,1,09,0.8,16.5,M,-34.8,M,,*61
$PYRTM,2024,122.172161667778,13.281809077928
$GPGGA,040753.00,3318.7904,N,11857.9239,W,1,09,0.8,17.2,M,-34.8,M,,*64
$PYRTM,2024,122.172173251412,13.281820661551
$GPGGA,040754.00,3318.7910,N,11857.9266,W,1,09,0.8,19.7,M,-34.8,M,,*67
$PYRTM,2024,122.172184816065,13.281832226204
$GPGGA,040755.00,3318.7917,N,11857.9292,W,1,09,0.8,20.3,M,-34.8,M,,*64
$PYRTM,2024,122.172196407280,13.281843817419
$GPGGA,040756.00,3318.7923,N,11857.9320,W,1,09,0.8,20.3,M,-34.8,M,,*68
$PYRTM,2024,122.172207966238,13.281855376377
$GPGGA,040757.00,3318.7929,N,11857.9347,W,1,09,0.8,19.3,M,-34.8,M,,*68
$PYRTM,2024,122.172219556910,13.281866967049
$GPGGA,040758.00,3318.7936,N,11857.9375,W,1,09,0.8,18.9,M,-34.8,M,,*63
$PYRTM,2024,122.172231590718,13.281879000856
$GPGGA,040759.00,3318.7943,N,11857.9400,W,1,09,0.8,16.1,M,-34.8,M,,*63
$PYRTM,2024,122.172243266262,13.281890676400
$GPGGA,040800.00,3318.7949,N,11857.9422,W,1,09,0.8,18.7,M,-34.8,M,,*62
$PYRTM,2024,122.172254848090,13.281902258241
$GPGGA,040801.00,3318.7955,N,11857.9447,W,1,09,0.8,18.5,M,-34.8,M,,*6F
$PYRTM,2024,122.172266413947,13.281913824086
$GPGGA,040802.00,3318.7960,N,11857.9478,W,1,09,0.8,16.3,M,-34.8,M,,*6E
$PYRTM,2024,122.172278001111,13.281925411250
$GPGGA,040803.00,3318.7966,N,11857.9507,W,1,09,0.8,17.5,M,-34.8,M,,*67
$PYRTM,2024,122.172289563148,13.281936973287
$GPGGA,040804.00,3318.7972,N,11857.9533,W,1,09,0.8,20.8,M,-34.8,M,,*6B
$PYRTM,2024,122.172301153079,13.281948563218
$GPGGA,040805.00,3318.7977,N,11857.9556,W,1,09,0.8,21.6,M,-34.8,M,,*63
$PYRTM,2024,122.172312712002,13.281960122153
$GPGGA,040806.00,3318.7984,N,11857.9583,W,1,09,0.8,21.7,M,-34.8,M,,*65
$PYRTM,2024,122.172324311910,13.281971722060
$GPGGA,040807.00,3318.7990,N,11857.9614,W,1,09,0.8,19.0,M,-34.8,M,,*60
$PYRTM,2024,122.172335858588,13.281983268727
$GPGGA,040808.00,3318.7994,N,11857.9642,W,1,09,0.8,18.4,M,-34.8,M,,*6D
$PYRTM,2024,122.172347449144,13.281994859294
$GPGGA,040809.00,3318.7998,N,11857.9664,W,1,09,0.8,19.1,M,-34.8,M,,*60
$PYRTM,2024,122.172360180058,13.282007590197
$GPGGA,040810.00,3318.8004,N,11857.9689,W,1,09,0.8,19.0,M,-34.8,M,,*69
$PYRTM,2024,122.172372788484,13.282020198623
$GPGGA,040811.00,3318.8012,N,11857.9718,W,1,09,0.8,19.6,M,-34.8,M,,*60
$PYRTM,2024,122.172382155903,13.282029566042
$GPGGA,040812.00,3318.8018,N,11857.9747,W,1,09,0.8,18.2,M,-34.8,M,,*66
$PYRTM,2024,122.172393740116,13.282041150255
$GPGGA,040813.00,3318.8024,N,11857.9772,W,1,09,0.8,21.0,M,-34.8,M,,*66
$PYRTM,2024,122.172405304028,13.282052714167
$GPGGA,040814.00,3318.8029,N,11857.9798,W,1,09,0.8,22.5,M,-34.8,M,,*6E
$PYRTM,2024,122.172416893229,13.282064303368
$GPGGA,040815.00,3318.8036,N,11857.9825,W,1,09,0.8,19.7,M,-34.8,M,,*62
$PYRTM,2024,122.172428453426,13.282075863576
$GPGGA,040816.00,3318.8043,N,11857.9852,W,1,09,0.8,18.4,M,-34.8,M,,*61
$PYRTM,2024,122.172440034630,13.282087444780
$GPGGA,040817.00,3318.8050,N,11857.9881,W,1,09,0.8,16.7,M,-34.8,M,,*61
$PYRTM,2024,122.172451602025,13.282099012164
$GPGGA,040818.00,3318.8057,N,11857.9910,W,1,09,0.8,14.8,M,-34.8,M,,*6D
$PYRTM,2024,122.172463190671,13.282110600810
$GPGGA,040819.00,3318.8064,N,11857.9937,W,1,09,0.8,16.2,M,-34.8,M,,*61
$PYRTM,2024,122.172474750347,13.282122160486
$GPGGA,040820.00,3318.8070,N,11857.9963,W,1,09,0.8,18.0,M,-34.8,M,,*63
$PYRTM,2024,122.172486670475,13.282134080613
$GPGGA,040821.00,3318.8075,N,11857.9990,W,1,09,0.8,17.5,M,-34.8,M,,*61
$PYRTM,2024,122.172499634641,13.282147044780
$GPGGA,040822.00,3318.8081,N,11858.0019,W,1,09,0.8,17.7,M,-34.8,M,,*65
$PYRTM,2024,122.172510400243,13.282157810382
$GPGGA,040823.00,3318.8088,N,11858.0047,W,1,09,0.8,17.7,M,-34.8,M,,*66
$PYRTM,2024,122.172521510012,13.282168920150
$GPGGA,040824.00,3318.8094,N,11858.0073,W,1,09,0.8,18.4,M,-34.8,M,,*67
$PYRTM,2024,122.172532748438,13.282180158576
$GPGGA,040825.00,3318.8099,N,11858.0099,W,1,09,0.8,17.0,M,-34.8,M,,*64
$PYRTM,2024,122.172543859282,13.282191269421
$GPGGA,040826.00,3318.8103,N,11858.0125,W,1,09,0.8,19.0,M,-34.8,M,,*6D
$PYRTM,2024,122.172554971308,13.282202381447
$GPGGA,040827.00,3318.8108,N,11858.0153,W,1,09,0.8,19.5,M,-34.8,M,,*63
$PYRTM,2024,122.172566077789,13.282213487928
$GPGGA,040828.00,3318.8116,N,11858.0181,W,1,09,0.8,17.6,M,-34.8,M,,*61
$PYRTM,2024,122.172577304745,13.282224714896
$GPGGA,040829.00,3318.8123,N,11858.0208,W,1,09,0.8,19.3,M,-34.8,M,,*6F
$PYRTM,2024,122.172588884687,13.282236294826
$GPGGA,040830.00,3318.8130,N,11858.0234,W,1,09,0.8,19.6,M,-34.8,M,,*6F
$PYRTM,2024,122.172600457477,13.282247867616
$GPGGA,040831.00,3318.8136,N,11858.0261,W,1,09,0.8,21.8,M,-34.8,M,,*6D
$PYRTM,2024,122.172611563287,13.282258973426
$GPGGA,040832.00,3318.8143,N,11858.0289,W,1,09,0.8,22.8,M,-34.8,M,,*69
$PYRTM,2024,122.172622680359,13.282270090498
$GPGGA,040833.00,3318.8149,N,11858.0318,W,1,09,0.8,20.6,M,-34.8,M,,*67
$PYRTM,2024,122.172633790683,13.282281200833
$GPGGA,040834.00,3318.8155,N,11858.0347,W,1,09,0.8,18.8,M,-34.8,M,,*62
$PYRTM,2024,122.172645004606,13.282292414757
$GPGGA,040835.00,3318.8160,N,11858.0375,W,1,09,0.8,20.7,M,-34.8,M,,*60
