$PYRTM,2024,127.083342087697,18.192989497836
$GPGGA,015959.00,3359.9093,N,11921.4758,W,1,08,1.3,1.2,M,-33.5,M,,*55
$PYRTM,2024,127.083353661574,18.193001071713
$GPGGA,020000.00,3359.9094,N,11921.4754,W,1,08,1.3,1.2,M,-33.5,M,,*5D
$PYRTM,2024,127.083365236863,18.193012647002
$GPGGA,020001.00,3359.9096,N,11921.4751,W,1,08,1.3,1.3,M,-33.5,M,,*5A
$PYRTM,2024,127.083376810185,18.193024220324
$GPGGA,020002.00,3359.9097,N,11921.4746,W,1,08,1.3,1.2,M,-33.5,M,,*5F
$PYRTM,2024,127.083388387905,18.193035798044
$GPGGA,020003.00,3359.9098,N,11921.4740,W,1,08,1.3,1.3,M,-33.5,M,,*56
$PYRTM,2024,127.083399958438,18.193047368588
$GPGGA,020004.00,3359.9098,N,11921.4736,W,1,08,1.3,1.3,M,-33.5,M,,*50
$PYRTM,2024,127.083411535961,18.193058946100
$GPGGA,020005.00,3359.9099,N,11921.4732,W,1,08,1.3,1.2,M,-33.5,M,,*55
$PYRTM,2024,127.083423101933,18.193070512072
$GPGGA,020006.00,3359.9101,N,11921.4728,W,1,08,1.3,1.2,M,-33.5,M,,*5D
$PYRTM,2024,127.083434684688,18.193082094826
$GPGGA,020007.00,3359.9104,N,11921.4724,W,1,08,1.3,1.0,M,-33.5,M,,*57
$PYRTM,2024,127.083446254896,18.193093665035
$GPGGA,020008.00,3359.9105,N,11921.4719,W,1,08,1.3,1.0,M,-33.5,M,,*57
$PYRTM,2024,127.083457829688,18.193105239838
$GPGGA,020009.00,3359.9104,N,11921.4715,W,1,08,1.3,1.0,M,-33.5,M,,*5B
$PYRTM,2024,127.083469398507,18.193116808646
$GPGGA,020010.00,3359.9105,N,11921.4712,W,1,08,1.3,1.0,M,-33.5,M,,*55
$PYRTM,2024,127.083480977662,18.193128387801
$GPGGA,020011.00,3359.9106,N,11921.4709,W,1,08,1.3,1.0,M,-33.5,M,,*5D
$PYRTM,2024,127.083492551852,18.193139962002
$GPGGA,020012.00,3359.9107,N,11921.4705,W,1,08,1.3,1.0,M,-33.5,M,,*53
$PYRTM,2024,127.083504125903,18.193151536042
$GPGGA,020013.00,3359.9108,N,11921.4700,W,1,08,1.3,1.0,M,-33.5,M,,*58
$PYRTM,2024,127.083515694699,18.193163104838
$GPGGA,020014.00,3359.9109,N,11921.4697,W,1,08,1.3,1.1,M,-33.5,M,,*50
$PYRTM,2024,127.083527275671,18.193174685810
$GPGGA,020015.00,3359.9110,N,11921.4693,W,1,08,1.3,1.1,M,-33.5,M,,*5D
$PYRTM,2024,127.083539876076,18.193187286215
$GPGGA,020016.00,3359.9110,N,11921.4689,W,1,08,1.3,1.1,M,-33.5,M,,*55
$PYRTM,2024,127.083552607407,18.193200017546
$GPGGA,020017.00,3359.9112,N,11921.4685,W,1,08,1.3,1.1,M,-33.5,M,,*5A
$PYRTM,2024,127.083561996956,18.193209407095
$GPGGA,020018.00,3359.9114,N,11921.4681,W,1,08,1.3,1.1,M,-33.5,M,,*57
$PYRTM,2024,127.083573585463,18.193220995613
$GPGGA,020019.00,3359.9115,N,11921.4678,W,1,08,1.3,1.1,M,-33.5,M,,*51
$PYRTM,2024,127.083585478044,18.193232888183
$GPGGA,020020.00,3359.9116,N,11921.4673,W,1,08,1.3,1.1,M,-33.5,M,,*53
$PYRTM,2024,127.083596721481,18.193244131620
$GPGGA,020021.00,3359.9118,N,11921.4669,W,1,08,1.3,1.2,M,-33.5,M,,*54
$PYRTM,2024,127.083608293380,18.193255703519
$GPGGA,020022.00,3359.9120,N,11921.4665,W,1,08,1.3,1.2,M,-33.5,M,,*50
$PYRTM,2024,127.083619871563,18.193267281701
$GPGGA,020023.00,3359.9122,N,11921.4660,W,1,08,1.3,1.0,M,-33.5,M,,*54
$PYRTM,2024,127.083631436771,18.193278846921
$GPGGA,020024.00,3359.9123,N,11921.4656,W,1,08,1.3,0.9,M,-33.5,M,,*5F
$PYRTM,2024,127.083643016285,18.193290426424
$GPGGA,020025.00,3359.9126,N,11921.4651,W,1,08,1.3,0.6,M,-33.5,M,,*53
$PYRTM,2024,127.083654589282,18.193301999421
$GPGGA,020026.00,3359.9131,N,11921.4645,W,1,08,1.3,0.9,M,-33.5,M,,*5C
$PYRTM,2024,127.083666164444,18.193313574583
$GPGGA,020027.00,3359.9135,N,11921.4640,W,1,08,1.3,0.9,M,-33.5,M,,*5C
$PYRTM,2024,127.083677733681,18.193325143819
$GPGGA,020028.00,3359.9138,N,11921.4636,W,1,08,1.3,0.9,M,-33.5,M,,*5F
$PYRTM,2024,127.083689315394,18.193336725532
$GPGGA,020029.00,3359.9140,N,11921.4632,W,1,08,1.3,1.0,M,-33.5,M,,*5D
$PYRTM,2024,127.083700885972,18.193348296111
$GPGGA,020030.00,3359.9140,N,11921.4627,W,1,08,1.3,1.1,M,-33.5,M,,*50
$PYRTM,2024,127.083712460914,18.193359871053
$GPGGA,020031.00,3359.9140,N,11921.4623,W,1,08,1.3,0.9,M,-33.5,M,,*5C
$PYRTM,2024,127.083724033958,18.193371444097
$GPGGA,020032.00,3359.9142,N,11921.4618,W,1,08,1.3,1.1,M,-33.5,M,,*5C
$PYRTM,2024,127.083735612396,18.193383022535
$GPGGA,020033.00,3359.9144,N,11921.4614,W,1,08,1.3,1.3,M,-33.5,M,,*55
$PYRTM,2024,127.083747178588,18.193394588727
$GPGGA,020034.00,3359.9145,N,11921.4610,W,1,08,1.3,1.3,M,-33.5,M,,*57
$PYRTM,2024,127.083758760139,18.193406170278
$GPGGA,020035.00,3359.9145,N,11921.4606,W,1,08,1.3,1.8,M,-33.5,M,,*5A
$PYRTM,2024,127.083770795995,18.193418206134
$GPGGA,020036.00,3359.9145,N,11921.4603,W,1,08,1.3,1.5,M,-33.5,M,,*51
$PYRTM,2024,127.083781908519,18.193429318657
$GPGGA,020037.00,3359.9147,N,11921.4599,W,1,08,1.3,0.8,M,-33.5,M,,*5E
$PYRTM,2024,127.083792553738,18.193439963877
$GPGGA,020038.00,3359.9148,N,11921.4595,W,1,08,1.3,1.0,M,-33.5,M,,*5B
$PYRTM,2024,127.083805512037,18.193452922176
$GPGGA,020039.00,3359.9148,N,11921.4590,W,1,08,1.3,1.7,M,-33.5,M,,*58
$PYRTM,2024,127.083814182164,18.193461592303
$GPGGA,020040.00,3359.9148,N,11921.4584,W,1,08,1.3,1.9,M,-33.5,M,,*5D
$PYRTM,2024,127.083830733877,18.193478144016
$GPGGA,020041.00,3359.9149,N,11921.4578,W,1,08,1.3,1.7,M,-33.5,M,,*50
$PYRTM,2024,127.083841845822,18.193489255972
$GPGGA,020042.00,3359.9151,N,11921.4572,W,1,08,1.3,1.2,M,-33.5,M,,*55
$PYRTM,2024,127.083852843252,18.193500253391
$GPGGA,020043.00,3359.9153,N,11921.4567,W,1,08,1.3,1.0,M,-33.5,M,,*50
$PYRTM,2024,127.083863839375,18.193511249514
$GPGGA,020044.00,3359.9154,N,11921.4562,W,1,08,1.3,0.7,M,-33.5,M,,*53
$PYRTM,2024,127.083874956829,18.193522366968
$GPGGA,020045.00,3359.9155,N,11921.4557,W,1,08,1.3,0.5,M,-33.5,M,,*57
$PYRTM,2024,127.083887100914,18.193534511053
$GPGGA,020046.00,3359.9156,N,11921.4552,W,1,08,1.3,0.5,M,-33.5,M,,*52
$PYRTM,2024,127.083899497720,18.193546907859
$GPGGA,020047.00,3359.9158,N,11921.4548,W,1,08,1.3,0.3,M,-33.5,M,,*50
$PYRTM,2024,127.083910598287,18.193558008426
$GPGGA,020048.00,3359.9159,N,11921.4543,W,1,08,1.3,0.7,M,-33.5,M,,*51
$PYRTM,2024,127.083921591701,18.193569001840
$GPGGA,020049.00,3359.9159,N,11921.4538,W,1,08,1.3,1.0,M,-33.5,M,,*5A
$PYRTM,2024,127.083933063322,18.193580473461
$GPGGA,020050.00,3359.9159,N,11921.4534,W,1,08,1.3,0.7,M,-33.5,M,,*58
$PYRTM,2024,127.083944189201,18.193591599340
$GPGGA,020051.00,3359.9160,N,11921.4529,W,1,08,1.3,0.4,M,-33.5,M,,*5C
$PYRTM,2024,127.083955168044,18.193602578183
$GPGGA,020052.00,3359.9161,N,11921.4524,W,1,08,1.3,0.4,M,-33.5,M,,*53
$PYRTM,2024,127.083969061690,18.193616471829
$GPGGA,020053.00,3359.9162,N,11921.4520,W,1,08,1.3,0.3,M,-33.5,M,,*52
$PYRTM,2024,127.083980042639,18.193627452789
$GPGGA,020054.00,3359.9162,N,11921.4515,W,1,08,1.3,0.4,M,-33.5,M,,*54
$PYRTM,2024,127.083991036019,18.193638446157
$GPGGA,020055.00,3359.9162,N,11921.4510,W,1,08,1.3,0.3,M,-33.5,M,,*57
$PYRTM,2024,127.084002149109,18.193649559248
$GPGGA,020056.00,3359.9162,N,11921.4506,W,1,08,1.3,0.2,M,-33.5,M,,*52
$PYRTM,2024,127.084013144433,18.193660554572
$GPGGA,020057.00,3359.9161,N,11921.4503,W,1,08,1.3,0.2,M,-33.5,M,,*55
$PYRTM,2024,127.084024255451,18.193671665590
$GPGGA,020058.00,3359.9161,N,11921.4498,W,1,08,1.3,0.2,M,-33.5,M,,*59
$PYRTM,2024,127.084035480602,18.193682890741
$GPGGA,020059.00,3359.9162,N,11921.4493,W,1,08,1.3,0.7,M,-33.5,M,,*55
$PYRTM,2024,127.084047066817,18.193694476956
$GPGGA,020100.00,3359.9164,N,11921.4487,W,1,08,1.3,0.7,M,-33.5,M,,*5B
$PYRTM,2024,127.084058630069,18.193706040208
$GPGGA,020101.00,3359.9164,N,11921.4482,W,1,08,1.3,1.0,M,-33.5,M,,*59
$PYRTM,2024,127.084070211493,18.193717621632
$GPGGA,020102.00,3359.9164,N,11921.4476,W,1,08,1.3,1.1,M,-33.5,M,,*50
$PYRTM,2024,127.084081776389,18.193729186528
$GPGGA,020103.00,3359.9164,N,11921.4472,W,1,08,1.3,1.2,M,-33.5,M,,*56
$PYRTM,2024,127.084093365787,18.193740775926
$GPGGA,020104.00,3359.9165,N,11921.4467,W,1,08,1.3,1.1,M,-33.5,M,,*57
$PYRTM,2024,127.084104924618,18.193752334757
$GPGGA,020105.00,3359.9169,N,11921.4460,W,1,08,1.3,0.1,M,-33.5,M,,*5C
$PYRTM,2024,127.084116514225,18.193763924363
$GPGGA,020106.00,3359.9172,N,11921.4454,W,1,08,1.3,0.2,M,-33.5,M,,*51
$PYRTM,2024,127.084128074606,18.193775484745
$GPGGA,020107.00,3359.9173,N,11921.4449,W,1,08,1.3,0.3,M,-33.5,M,,*5C
$PYRTM,2024,127.084139662951,18.193787073090
$GPGGA,020108.00,3359.9173,N,11921.4445,W,1,08,1.3,0.3,M,-33.5,M,,*5F
$PYRTM,2024,127.084151222234,18.193798632373
$GPGGA,020109.00,3359.9174,N,11921.4441,W,1,08,1.3,0.3,M,-33.5,M,,*5D
$PYRTM,2024,127.084162811481,18.193810221620
$GPGGA,020110.00,3359.9175,N,11921.4435,W,1,08,1.3,0.3,M,-33.5,M,,*57
$PYRTM,2024,127.084174370764,18.193821780903
$GPGGA,020111.00,3359.9176,N,11921.4429,W,1,08,1.3,0.3,M,-33.5,M,,*58
$PYRTM,2024,127.084185959387,18.193833369525
$GPGGA,020112.00,3359.9177,N,11921.4424,W,1,07,1.5,0.2,M,-33.5,M,,*5F
$PYRTM,2024,127.084197520000,18.193844930139
$GPGGA,020113.00,3359.9176,N,11921.4419,W,1,08,1.3,0.1,M,-33.5,M,,*5B
$PYRTM,2024,127.084209102662,18.193856512801
$GPGGA,020114.00,3359.9175,N,11921.4414,W,1,08,1.3,0.1,M,-33.5,M,,*52
$PYRTM,2024,127.084220667280,18.193868077431
$GPGGA,020115.00,3359.9175,N,11921.4409,W,1,08,1.3,0.3,M,-33.5,M,,*5D
$PYRTM,2024,127.084233298808,18.193880708958
$GPGGA,020116.00,3359.9174,N,11921.4404,W,1,08,1.3,0.3,M,-33.5,M,,*52
$PYRTM,2024,127.084244871771,18.193892281910
$GPGGA,020117.00,3359.9173,N,11921.4400,W,1,08,1.3,0.3,M,-33.5,M,,*50
$PYRTM,2024,127.084256440637,18.193903850787
$GPGGA,020118.00,3359.9173,N,11921.4395,W,1,08,1.3,0.3,M,-33.5,M,,*54
$PYRTM,2024,127.084268019537,18.193915429688
$GPGGA,020119.00,3359.9172,N,11921.4390,W,1,08,1.3,0.4,M,-33.5,M,,*56
$PYRTM,2024,127.084279927025,18.193927337164
$GPGGA,020120.00,3359.9173,N,11921.4386,W,1,08,1.3,0.4,M,-33.5,M,,*5A
$PYRTM,2024,127.084291168495,18.193938578634
$GPGGA,020121.00,3359.9175,N,11921.4382,W,1,08,1.3,0.5,M,-33.5,M,,*58
$PYRTM,2024,127.084302741551,18.193950151690
$GPGGA,020122.00,3359.9176,N,11921.4378,W,1,08,1.3,0.5,M,-33.5,M,,*5D
$PYRTM,2024,127.084314330799,18.193961740937
$GPGGA,020123.00,3359.9179,N,11921.4372,W,1,08,1.3,0.9,M,-33.5,M,,*55
$PYRTM,2024,127.084325885486,18.193973295625
$GPGGA,020124.00,3359.9180,N,11921.4366,W,1,08,1.3,0.9,M,-33.5,M,,*51
$PYRTM,2024,127.084337479479,18.193984889630
$GPGGA,020125.00,3359.9182,N,11921.4362,W,1,08,1.3,1.0,M,-33.5,M,,*5E
$PYRTM,2024,127.084349372211,18.193996782350
$GPGGA,020126.00,3359.9185,N,11921.4358,W,1,08,1.3,1.0,M,-33.5,M,,*53
$PYRTM,2024,127.084360608588,18.194008018727
$GPGGA,020127.00,3359.9187,N,11921.4353,W,1,08,1.3,1.0,M,-33.5,M,,*5B
$PYRTM,2024,127.084372187558,18.194019597697
$GPGGA,020128.00,3359.9188,N,11921.4346,W,1,08,1.3,0.9,M,-33.5,M,,*57
$PYRTM,2024,127.084383761250,18.194031171389
$GPGGA,020129.00,3359.9189,N,11921.4341,W,1,08,1.3,1.0,M,-33.5,M,,*58
$PYRTM,2024,127.084395334931,18.194042745081
$GPGGA,020130.00,3359.9188,N,11921.4338,W,1,08,1.3,1.0,M,-33.5,M,,*5F
$PYRTM,2024,127.084406908912,18.194054319062
$GPGGA,020131.00,3359.9189,N,11921.4333,W,1,08,1.3,1.0,M,-33.5,M,,*54
$PYRTM,2024,127.084418477951,18.194065888102
$GPGGA,020132.00,3359.9189,N,11921.4329,W,1,08,1.3,1.0,M,-33.5,M,,*5C
$PYRTM,2024,127.084430060729,18.194077470868
$GPGGA,020133.00,3359.9189,N,11921.4326,W,1,08,1.3,1.0,M,-33.5,M,,*52
$PYRTM,2024,127.084441631921,18.194089042060
$GPGGA,020134.00,3359.9188,N,11921.4322,W,1,08,1.3,1.0,M,-33.5,M,,*50
$PYRTM,2024,127.084453206493,18.194100616632
$GPGGA,020135.00,3359.9187,N,11921.4317,W,1,08,1.3,1.0,M,-33.5,M,,*58
$PYRTM,2024,127.084464780023,18.194112190174
$GPGGA,020136.00,3359.9186,N,11921.4313,W,1,08,1.3,1.0,M,-33.5,M,,*5E
$PYRTM,2024,127.084476350046,18.194123760197
$GPGGA,020137.00,3359.9185,N,11921.4310,W,1,08,1.3,1.1,M,-33.5,M,,*5E
$PYRTM,2024,127.084487928785,18.194135338924
$GPGGA,020138.00,3359.9183,N,11921.4308,W,1,08,1.3,1.1,M,-33.5,M,,*5E
$PYRTM,2024,127.084499506030,18.194146916169
$GPGGA,020139.00,3359.9185,N,11921.4302,W,1,08,1.3,4.5,M,-33.5,M,,*52
$PYRTM,2024,127.084511077535,18.194158487674
$GPGGA,020140.00,3359.9191,N,11921.4293,W,1,08,1.3,4.9,M,-33.5,M,,*5C
$PYRTM,2024,127.084522654074,18.194170064225
$GPGGA,020141.00,3359.9194,N,11921.4287,W,1,08,1.3,5.0,M,-33.5,M,,*55
$PYRTM,2024,127.084534224873,18.194181635012
$GPGGA,020142.00,3359.9194,N,11921.4285,W,1,08,1.3,5.0,M,-33.5,M,,*54
$PYRTM,2024,127.084545799769,18.194193209907
$GPGGA,020143.00,3359.9192,N,11921.4283,W,1,08,1.3,5.0,M,-33.5,M,,*55
$PYRTM,2024,127.084557368924,18.194204779063
$GPGGA,020144.00,3359.9193,N,11921.4278,W,1,08,1.3,5.4,M,-33.5,M,,*53
$PYRTM,2024,127.084568947836,18.194216357975
$GPGGA,020145.00,3359.9194,N,11921.4270,W,1,08,1.3,5.2,M,-33.5,M,,*5B
$PYRTM,2024,127.084581552303,18.194228962442
$GPGGA,020146.00,3359.9195,N,11921.4261,W,1,08,1.3,5.2,M,-33.5,M,,*59
$PYRTM,2024,127.084594280764,18.194241690903
$GPGGA,020147.00,3359.9194,N,11921.4256,W,1,08,1.0,5.1,M,-33.5,M,,*5D
$PYRTM,2024,127.084603665648,18.194251075787
$GPGGA,020148.00,3359.9192,N,11921.4254,W,1,08,1.3,5.1,M,-33.5,M,,*55
$PYRTM,2024,127.084615242836,18.194262652975
$GPGGA,020149.00,3359.9190,N,11921.4252,W,1,08,1.3,5.1,M,-33.5,M,,*50
$PYRTM,2024,127.084627151470,18.194274561609
$GPGGA,020150.00,3359.9190,N,11921.4245,W,1,08,1.0,5.5,M,-33.5,M,,*59
$PYRTM,2024,127.084638392627,18.194285802766
$GPGGA,020151.00,3359.9194,N,11921.4235,W,1,08,1.0,5.9,M,-33.5,M,,*57
$PYRTM,2024,127.084649966273,18.194297376412
$GPGGA,020152.00,3359.9195,N,11921.4227,W,1,08,1.0,6.1,M,-33.5,M,,*5D
$PYRTM,2024,127.084661539988,18.194308950127
$GPGGA,020153.00,3359.9196,N,11921.4223,W,1,08,1.0,6.1,M,-33.5,M,,*5B
$PYRTM,2024,127.084673115347,18.194320525486
$GPGGA,020154.00,3359.9195,N,11921.4222,W,1,08,1.0,6.1,M,-33.5,M,,*5E
$PYRTM,2024,127.084684692454,18.194332102593
$GPGGA,020155.00,3359.9194,N,11921.4219,W,1,08,1.0,6.1,M,-33.5,M,,*56
$PYRTM,2024,127.084696264722,18.194343674861
$GPGGA,020156.00,3359.9197,N,11921.4212,W,1,08,1.0,6.0,M,-33.5,M,,*5C
$PYRTM,2024,127.084707840556,18.194355250694
$GPGGA,020157.00,3359.9199,N,11921.4205,W,1,08,1.0,6.2,M,-33.5,M,,*57
$PYRTM,2024,127.084719410868,18.194366821007
$GPGGA,020158.00,3359.9201,N,11921.4201,W,1,08,1.0,6.4,M,-33.5,M,,*58
$PYRTM,2024,127.084730981065,18.194378391204
$GPGGA,020159.00,3359.9200,N,11921.4199,W,1,08,1.0,6.4,M,-33.5,M,,*5A
$PYRTM,2024,127.084742559005,18.194389969144
$GPGGA,020200.00,3359.9199,N,11921.4198,W,1,08,1.0,6.4,M,-33.5,M,,*57
$PYRTM,2024,127.084754136644,18.194401546782
$GPGGA,020201.00,3359.9199,N,11921.4197,W,1,08,1.0,6.4,M,-33.5,M,,*59
$PYRTM,2024,127.084765703333,18.194413113472
$GPGGA,020202.00,3359.9202,N,11921.4192,W,1,08,1.0,6.4,M,-33.5,M,,*5E
$PYRTM,2024,127.084777278681,18.194424688819
$GPGGA,020203.00,3359.9204,N,11921.4185,W,1,08,1.0,6.5,M,-33.5,M,,*5E
$PYRTM,2024,127.084788851748,18.194436261887
$GPGGA,020204.00,3359.9205,N,11921.4180,W,1,08,1.0,6.5,M,-33.5,M,,*5D
$PYRTM,2024,127.084800430336,18.194447840475
$GPGGA,020205.00,3359.9203,N,11921.4179,W,1,08,1.0,6.5,M,-33.5,M,,*5C
$PYRTM,2024,127.084812005428,18.194459415567
$GPGGA,020206.00,3359.9201,N,11921.4180,W,1,09,0.8,6.5,M,-33.5,M,,*53
$PYRTM,2024,127.084823581296,18.194470991435
$GPGGA,020207.00,3359.9202,N,11921.4177,W,1,09,0.8,6.5,M,-33.5,M,,*59
$PYRTM,2024,127.084835148935,18.194482559074
$GPGGA,020208.00,3359.9204,N,11921.4169,W,1,09,0.8,6.3,M,-33.5,M,,*59
$PYRTM,2024,127.084846727303,18.194494137442
$GPGGA,020209.00,3359.9204,N,11921.4161,W,1,09,0.8,6.3,M,-33.5,M,,*50
$PYRTM,2024,127.084858302905,18.194505713044
$GPGGA,020210.00,3359.9202,N,11921.4157,W,1,09,0.8,6.3,M,-33.5,M,,*5B
$PYRTM,2024,127.084869878600,18.194517288738
$GPGGA,020211.00,3359.9201,N,11921.4155,W,1,09,0.8,6.3,M,-33.5,M,,*5B
$PYRTM,2024,127.084881449063,18.194528859201
$GPGGA,020212.00,3359.9201,N,11921.4150,W,1,09,0.8,6.3,M,-33.5,M,,*5D
$PYRTM,2024,127.084893027095,18.194540437234
$GPGGA,020213.00,3359.9201,N,11921.4144,W,1,09,0.8,6.3,M,-33.5,M,,*59
$PYRTM,2024,127.084904599421,18.194552009560
$GPGGA,020214.00,3359.9199,N,11921.4139,W,1,09,0.8,6.3,M,-33.5,M,,*56
$PYRTM,2024,127.084916169074,18.194563579225
$GPGGA,020215.00,3359.9197,N,11921.4137,W,1,09,0.8,6.3,M,-33.5,M,,*57
$PYRTM,2024,127.084929240394,18.194576650532
$GPGGA,020216.00,3359.9194,N,11921.4135,W,1,09,0.8,6.3,M,-33.5,M,,*55
$PYRTM,2024,127.084941505532,18.194588915671
$GPGGA,020217.00,3359.9191,N,11921.4128,W,1,09,0.8,6.5,M,-33.5,M,,*5B
$PYRTM,2024,127.084950894850,18.194598304988
$GPGGA,020218.00,3359.9190,N,11921.4121,W,1,09,0.8,6.7,M,-33.5,M,,*5E
$PYRTM,2024,127.084962469676,18.194609879815
$GPGGA,020219.00,3359.9187,N,11921.4117,W,1,09,0.8,6.8,M,-33.5,M,,*53
$PYRTM,2024,127.084974378137,18.194621788275
$GPGGA,020220.00,3359.9184,N,11921.4116,W,1,09,0.8,6.9,M,-33.5,M,,*5A
$PYRTM,2024,127.084985617535,18.194633027685
$GPGGA,020221.00,3359.9182,N,11921.4115,W,1,09,0.8,6.9,M,-33.5,M,,*5E
$PYRTM,2024,127.084997186100,18.194644596238
$GPGGA,020222.00,3359.9181,N,11921.4110,W,1,09,0.8,7.1,M,-33.5,M,,*52
$PYRTM,2024,127.085008766447,18.194656176586
$GPGGA,020223.00,3359.9181,N,11921.4103,W,1,09,0.8,7.1,M,-33.5,M,,*51
$PYRTM,2024,127.085020340440,18.194667750590
$GPGGA,020224.00,3359.9182,N,11921.4098,W,1,09,0.8,7.1,M,-33.5,M,,*56
$PYRTM,2024,127.085031917118,18.194679327269
$GPGGA,020225.00,3359.9181,N,11921.4094,W,1,09,0.8,7.1,M,-33.5,M,,*58
$PYRTM,2024,127.085043488252,18.194690898403
$GPGGA,020226.00,3359.9180,N,11921.4091,W,1,09,0.8,7.1,M,-33.5,M,,*5F
$PYRTM,2024,127.085055065405,18.194702475544
$GPGGA,020227.00,3359.9178,N,11921.4089,W,1,09,0.8,7.1,M,-33.5,M,,*50
$PYRTM,2024,127.085066636412,18.194714046551
$GPGGA,020228.00,3359.9177,N,11921.4085,W,1,09,0.8,7.1,M,-33.5,M,,*5C
$PYRTM,2024,127.085078213738,18.194725623877
$GPGGA,020229.00,3359.9177,N,11921.4080,W,1,09,0.8,7.1,M,-33.5,M,,*58
$PYRTM,2024,127.085089784815,18.194737194954
$GPGGA,020230.00,3359.9176,N,11921.4075,W,1,09,0.8,7.1,M,-33.5,M,,*5B
$PYRTM,2024,127.085101361296,18.194748771447
$GPGGA,020231.00,3359.9174,N,11921.4072,W,1,09,0.8,7.2,M,-33.5,M,,*5C
$PYRTM,2024,127.085112935370,18.194760345509
$GPGGA,020232.00,3359.9172,N,11921.4071,W,1,09,0.8,7.2,M,-33.5,M,,*5A
$PYRTM,2024,127.085124506528,18.194771916667
$GPGGA,020233.00,3359.9171,N,11921.4069,W,1,09,0.8,7.2,M,-33.5,M,,*51
$PYRTM,2024,127.085136081887,18.194783492025
$GPGGA,020234.00,3359.9170,N,11921.4064,W,1,09,0.8,8.0,M,-33.5,M,,*57
$PYRTM,2024,127.085147657523,18.194795067662
$GPGGA,020235.00,3359.9169,N,11921.4057,W,1,09,0.8,8.7,M,-33.5,M,,*59
$PYRTM,2024,127.085159230613,18.194806640764
$GPGGA,020236.00,3359.9165,N,11921.4052,W,1,09,0.8,8.6,M,-33.5,M,,*52
$PYRTM,2024,127.085170804363,18.194818214502
$GPGGA,020237.00,3359.9162,N,11921.4052,W,1,09,0.8,8.6,M,-33.5,M,,*54
$PYRTM,2024,127.085182378299,18.194829788437
$GPGGA,020238.00,3359.9160,N,11921.4053,W,1,09,0.8,8.7,M,-33.5,M,,*59
$PYRTM,2024,127.085193948218,18.194841358368
$GPGGA,020239.00,3359.9160,N,11921.4048,W,1,09,0.8,8.2,M,-33.5,M,,*57
$PYRTM,2024,127.085205525336,18.194852935475
$GPGGA,020240.00,3359.9162,N,11921.4040,W,1,09,0.8,8.7,M,-33.5,M,,*56
$PYRTM,2024,127.085217103993,18.194864514132
$GPGGA,020241.00,3359.9161,N,11921.4035,W,1,09,0.8,8.7,M,-33.5,M,,*56
$PYRTM,2024,127.085228674306,18.194876084444
$GPGGA,020242.00,3359.9160,N,11921.4035,W,1,09,0.8,8.7,M,-33.5,M,,*54
$PYRTM,2024,127.085239337454,18.194886747604
$GPGGA,020243.00,3359.9160,N,11921.4035,W,1,09,0.8,8.7,M,-33.5,M,,*55
$PYRTM,2024,127.085252280799,18.194899690938
$GPGGA,020244.00,3359.9160,N,11921.4032,W,1,09,0.8,8.7,M,-33.5,M,,*55
$PYRTM,2024,127.085262933704,18.194910343843
$GPGGA,020245.00,3359.9160,N,11921.4027,W,1,09,0.8,8.7,M,-33.5,M,,*50
$PYRTM,2024,127.085274044352,18.194921454491
$GPGGA,020246.00,3359.9160,N,11921.4022,W,1,09,0.8,8.7,M,-33.5,M,,*56
$PYRTM,2024,127.085288615891,18.194936026030
$GPGGA,020247.00,3359.9159,N,11921.4020,W,1,09,0.8,8.7,M,-33.5,M,,*5F
$PYRTM,2024,127.085299611991,18.194947022130
$GPGGA,020248.00,3359.9159,N,11921.4017,W,1,09,0.8,8.7,M,-33.5,M,,*54
$PYRTM,2024,127.085310722801,18.194958132940
$GPGGA,020249.00,3359.9158,N,11921.4014,W,1,09,0.8,8.7,M,-33.5,M,,*57
$PYRTM,2024,127.085322180579,18.194969590718
$GPGGA,020250.00,3359.9158,N,11921.4013,W,1,09,0.8,8.7,M,-33.5,M,,*58
$PYRTM,2024,127.085333303171,18.194980713310
$GPGGA,020251.00,3359.9158,N,11921.4010,W,1,09,0.8,8.7,M,-33.5,M,,*5A
$PYRTM,2024,127.085344414977,18.194991825116
$GPGGA,020252.00,3359.9159,N,11921.4006,W,1,09,0.8,8.7,M,-33.5,M,,*5F
$PYRTM,2024,127.085355409884,18.195002820012
$GPGGA,020253.00,3359.9158,N,11921.4001,W,1,09,0.8,8.7,M,-33.5,M,,*58
$PYRTM,2024,127.085366530359,18.195013940498
$GPGGA,020254.00,3359.9157,N,11921.3998,W,1,09,0.8,8.7,M,-33.5,M,,*5E
$PYRTM,2024,127.085378082292,18.195025492431
$GPGGA,020255.00,3359.9155,N,11921.3997,W,1,09,0.8,8.7,M,-33.5,M,,*52
$PYRTM,2024,127.085389671794,18.195037081933
$GPGGA,020256.00,3359.9155,N,11921.3994,W,1,09,0.8,8.7,M,-33.5,M,,*52
$PYRTM,2024,127.085401230289,18.195048640428
$GPGGA,020257.00,3359.9154,N,11921.3990,W,1,09,0.8,8.7,M,-33.5,M,,*56
$PYRTM,2024,127.085412818750,18.195060228889
$GPGGA,020258.00,3359.9153,N,11921.3986,W,1,09,0.8,8.6,M,-33.5,M,,*58
$PYRTM,2024,127.085424378484,18.195071788623
$GPGGA,020259.00,3359.9153,N,11921.3983,W,1,09,0.8,8.7,M,-33.5,M,,*5D
$PYRTM,2024,127.085435961817,18.195083371956
$GPGGA,020300.00,3359.9153,N,11921.3981,W,1,09,0.8,8.7,M,-33.5,M,,*52
$PYRTM,2024,127.085447527998,18.195094938137
$GPGGA,020301.00,3359.9153,N,11921.3978,W,1,09,0.8,8.7,M,-33.5,M,,*55
$PYRTM,2024,127.085459116192,18.195106526331
$GPGGA,020302.00,3359.9152,N,11921.3974,W,1,09,0.8,8.7,M,-33.5,M,,*5B
$PYRTM,2024,127.085470675394,18.195118085532
$GPGGA,020303.00,3359.9151,N,11921.3972,W,1,09,0.8,8.6,M,-33.5,M,,*5E
$PYRTM,2024,127.085482263588,18.195129673727
$GPGGA,020304.00,3359.9151,N,11921.3969,W,1,09,0.8,8.6,M,-33.5,M,,*53
$PYRTM,2024,127.085493823171,18.195141233310
$GPGGA,020305.00,3359.9151,N,11921.3966,W,1,09,0.8,8.6,M,-33.5,M,,*5D
$PYRTM,2024,127.085505746262,18.195153156400
$GPGGA,020306.00,3359.9150,N,11921.3963,W,1,09,0.8,8.6,M,-33.5,M,,*5A
$PYRTM,2024,127.085516971956,18.195164382095
$GPGGA,020307.00,3359.9149,N,11921.3960,W,1,09,0.8,8.5,M,-33.5,M,,*53
$PYRTM,2024,127.085528555648,18.195175965787
$GPGGA,020308.00,3359.9149,N,11921.3956,W,1,09,0.8,8.6,M,-33.5,M,,*5A
$PYRTM,2024,127.085540121620,18.195187531759
$GPGGA,020309.00,3359.9148,N,11921.3953,W,1,09,0.8,8.5,M,-33.5,M,,*5C
$PYRTM,2024,127.085551708287,18.195199118426
$GPGGA,020310.00,3359.9147,N,11921.3952,W,1,09,0.8,8.6,M,-33.5,M,,*59
$PYRTM,2024,127.085563269190,18.195210679329
$GPGGA,020311.00,3359.9147,N,11921.3950,W,1,09,0.8,8.5,M,-33.5,M,,*59
$PYRTM,2024,127.085574857384,18.195222267535
$GPGGA,020312.00,3359.9147,N,11921.3947,W,1,09,0.8,8.5,M,-33.5,M,,*5C
$PYRTM,2024,127.085586416794,18.195233826944
$GPGGA,020313.00,3359.9146,N,11921.3942,W,1,09,0.8,8.5,M,-33.5,M,,*59
$PYRTM,2024,127.085598000521,18.195245410671
$GPGGA,020314.00,3359.9145,N,11921.3938,W,1,09,0.8,8.5,M,-33.5,M,,*50
$PYRTM,2024,127.085609566400,18.195256976539
$GPGGA,020315.00,3359.9144,N,11921.3936,W,1,09,0.8,8.5,M,-33.5,M,,*5E
$PYRTM,2024,127.085622197280,18.195269607419
$GPGGA,020316.00,3359.9143,N,11921.3937,W,1,09,0.8,8.5,M,-33.5,M,,*5B
$PYRTM,2024,127.085633771609,18.195281181748
$GPGGA,020317.00,3359.9143,N,11921.3935,W,1,09,0.8,8.5,M,-33.5,M,,*58
$PYRTM,2024,127.085645345556,18.195292755694
$GPGGA,020318.00,3359.9143,N,11921.3931,W,1,09,0.8,8.5,M,-33.5,M,,*53
$PYRTM,2024,127.085656919317,18.195304329456
$GPGGA,020319.00,3359.9140,N,11921.3926,W,1,09,0.8,8.5,M,-33.5,M,,*57
$PYRTM,2024,127.085668955093,18.195316365231
$GPGGA,020320.00,3359.9137,N,11921.3923,W,1,09,0.8,8.5,M,-33.5,M,,*58
$PYRTM,2024,127.085680061678,18.195327471817
$GPGGA,020321.00,3359.9136,N,11921.3923,W,1,09,0.8,8.5,M,-33.5,M,,*58
$PYRTM,2024,127.085691635243,18.195339045382
$GPGGA,020322.00,3359.9137,N,11921.3921,W,1,09,0.8,8.6,M,-33.5,M,,*5B
$PYRTM,2024,127.085703216111,18.195350626285
$GPGGA,020323.00,3359.9137,N,11921.3918,W,1,09,0.8,8.5,M,-33.5,M,,*53
$PYRTM,2024,127.085714788403,18.195362198542
$GPGGA,020324.00,3359.9135,N,11921.3910,W,1,09,0.8,8.0,M,-33.5,M,,*5B
$PYRTM,2024,127.085726363819,18.195373773958
$GPGGA,020325.00,3359.9132,N,11921.3904,W,1,09,0.8,8.0,M,-33.5,M,,*58
$PYRTM,2024,127.085737932222,18.195385342361
$GPGGA,020326.00,3359.9131,N,11921.3901,W,1,08,1.0,8.0,M,-33.5,M,,*55
$PYRTM,2024,127.085749511771,18.195396921921
$GPGGA,020327.00,3359.9131,N,11921.3900,W,1,09,0.8,8.0,M,-33.5,M,,*5D
$PYRTM,2024,127.085761085903,18.195408496053
$GPGGA,020328.00,3359.9131,N,11921.3898,W,1,09,0.8,8.0,M,-33.5,M,,*52
$PYRTM,2024,127.085772663356,18.195420073495
$GPGGA,020329.00,3359.9129,N,11921.3893,W,1,09,0.8,8.0,M,-33.5,M,,*51
$PYRTM,2024,127.085784234618,18.195431644757
$GPGGA,020330.00,3359.9127,N,11921.3889,W,1,09,0.8,8.0,M,-33.5,M,,*5C
$PYRTM,2024,127.085795810775,18.195443220914
$GPGGA,020331.00,3359.9126,N,11921.3888,W,1,09,0.8,8.0,M,-33.5,M,,*5D
$PYRTM,2024,127.085807376655,18.195454786794
$GPGGA,020332.00,3359.9126,N,11921.3889,W,1,09,0.8,8.1,M,-33.5,M,,*5E
$PYRTM,2024,127.085818956516,18.195466366655
$GPGGA,020333.00,3359.9127,N,11921.3888,W,1,09,0.8,8.1,M,-33.5,M,,*5F
$PYRTM,2024,127.085830532627,18.195477942766
$GPGGA,020334.00,3359.9127,N,11921.3886,W,1,09,0.8,8.1,M,-33.5,M,,*56
$PYRTM,2024,127.085842105035,18.195489515174
$GPGGA,020335.00,3359.9126,N,11921.3882,W,1,09,0.8,8.1,M,-33.5,M,,*52
$PYRTM,2024,127.085853678495,18.195501088634
$GPGGA,020336.00,3359.9125,N,11921.3881,W,1,09,0.8,8.1,M,-33.5,M,,*51
$PYRTM,2024,127.085865253611,18.195512663750
$GPGGA,020337.00,3359.9125,N,11921.3882,W,1,09,0.8,8.1,M,-33.5,M,,*53
$PYRTM,2024,127.085876826898,18.195524237037
$GPGGA,020338.00,3359.9126,N,11921.3881,W,1,09,0.8,8.0,M,-33.5,M,,*5D
$PYRTM,2024,127.085888402303,18.195535812442
$GPGGA,020339.00,3359.9125,N,11921.3877,W,1,09,0.8,8.0,M,-33.5,M,,*56
$PYRTM,2024,127.085899971065,18.195547381204
$GPGGA,020340.00,3359.9125,N,11921.3873,W,1,09,0.8,8.0,M,-33.5,M,,*5C
$PYRTM,2024,127.085911552292,18.195558962431
$GPGGA,020341.00,3359.9126,N,11921.3871,W,1,09,0.8,8.0,M,-33.5,M,,*5C
$PYRTM,2024,127.085923118843,18.195570528993
$GPGGA,020342.00,3359.9126,N,11921.3872,W,1,09,0.8,8.0,M,-33.5,M,,*5C
$PYRTM,2024,127.085934699028,18.195582109167
$GPGGA,020343.00,3359.9128,N,11921.3871,W,1,09,0.8,8.0,M,-33.5,M,,*50
$PYRTM,2024,127.085946271817,18.195593681956
$GPGGA,020344.00,3359.9128,N,11921.3868,W,1,09,0.8,8.0,M,-33.5,M,,*5F
$PYRTM,2024,127.085957849340,18.195605259479
$GPGGA,020345.00,3359.9128,N,11921.3864,W,1,09,0.8,8.0,M,-33.5,M,,*52
$PYRTM,2024,127.085970451458,18.195617861597
$GPGGA,020346.00,3359.9129,N,11921.3861,W,1,09,0.8,8.0,M,-33.5,M,,*55
$PYRTM,2024,127.085983181701,18.195630591840
$GPGGA,020347.00,3359.9129,N,11921.3861,W,1,09,0.8,8.0,M,-33.5,M,,*54
$PYRTM,2024,127.085992568507,18.195639978646
$GPGGA,020348.00,3359.9130,N,11921.3859,W,1,09,0.8,8.0,M,-33.5,M,,*58
$PYRTM,2024,127.086004138785,18.195651548935
$GPGGA,020349.00,3359.9130,N,11921.3857,W,1,09,0.8,7.9,M,-33.5,M,,*51
$PYRTM,2024,127.086016050914,18.195663461053
$GPGGA,020350.00,3359.9129,N,11921.3853,W,1,09,0.8,7.9,M,-33.5,M,,*55
$PYRTM,2024,127.086027291400,18.195674701539
$GPGGA,020351.00,3359.9129,N,11921.3851,W,1,09,0.8,7.9,M,-33.5,M,,*56
$PYRTM,2024,127.086038867616,18.195686277755
$GPGGA,020352.00,3359.9130,N,11921.3851,W,1,09,0.8,7.9,M,-33.5,M,,*5D
$PYRTM,2024,127.086050439919,18.195697850069
$GPGGA,020353.00,3359.9133,N,11921.3852,W,1,09,0.8,8.0,M,-33.5,M,,*5A
$PYRTM,2024,127.086062009398,18.195709419537
$GPGGA,020354.00,3359.9134,N,11921.3850,W,1,09,0.8,8.0,M,-33.5,M,,*58
$PYRTM,2024,127.086073588287,18.195720998426
$GPGGA,020355.00,3359.9135,N,11921.3845,W,1,09,0.8,7.9,M,-33.5,M,,*5A
$PYRTM,2024,127.086085496157,18.195732906296
$GPGGA,020356.00,3359.9133,N,11921.3840,W,1,09,0.8,7.9,M,-33.5,M,,*5A
$PYRTM,2024,127.086096735810,18.195744145949
$GPGGA,020357.00,3359.9132,N,11921.3838,W,1,09,0.8,7.8,M,-33.5,M,,*54
$PYRTM,2024,127.086108310058,18.195755720197
$GPGGA,020358.00,3359.9134,N,11921.3838,W,1,09,0.8,7.9,M,-33.5,M,,*5C
$PYRTM,2024,127.086119884444,18.195767294583
$GPGGA,020359.00,3359.9137,N,11921.3837,W,1,09,0.8,7.9,M,-33.5,M,,*51
$PYRTM,2024,127.086131458009,18.195778868148
$GPGGA,020400.00,3359.9138,N,11921.3833,W,1,09,0.8,7.9,M,-33.5,M,,*51
$PYRTM,2024,127.086143035799,18.195790445938
$GPGGA,020401.00,3359.9137,N,11921.3829,W,1,09,0.8,7.8,M,-33.5,M,,*55
$PYRTM,2024,127.086154608993,18.195802019144
$GPGGA,020402.00,3359.9135,N,11921.3827,W,1,09,0.8,7.8,M,-33.5,M,,*5A
$PYRTM,2024,127.086166184502,18.195813594641
$GPGGA,020403.00,3359.9136,N,11921.3826,W,1,09,0.8,7.8,M,-33.5,M,,*59
$PYRTM,2024,127.086177754873,18.195825165012
$GPGGA,020404.00,3359.9138,N,11921.3827,W,1,09,0.8,7.8,M,-33.5,M,,*51
$PYRTM,2024,127.086189329595,18.195836739734
$GPGGA,020405.00,3359.9140,N,11921.3826,W,1,09,0.8,7.8,M,-33.5,M,,*5E
$PYRTM,2024,127.086200899583,18.195848309722
$GPGGA,020406.00,3359.9140,N,11921.3823,W,1,09,0.8,7.8,M,-33.5,M,,*58
$PYRTM,2024,127.086212478553,18.195859888704
$GPGGA,020407.00,3359.9139,N,11921.3820,W,1,09,0.8,7.9,M,-33.5,M,,*55
$PYRTM,2024,127.086224052106,18.195871462245
$GPGGA,020408.00,3359.9139,N,11921.3819,W,1,09,0.8,7.9,M,-33.5,M,,*50
$PYRTM,2024,127.086235627095,18.195883037234
$GPGGA,020409.00,3359.9140,N,11921.3818,W,1,09,0.8,7.9,M,-33.5,M,,*5E
$PYRTM,2024,127.086247195486,18.195894605625
$GPGGA,020410.00,3359.9141,N,11921.3819,W,1,09,0.8,7.8,M,-33.5,M,,*57
$PYRTM,2024,127.086258775521,18.195906185660
$GPGGA,020411.00,3359.9141,N,11921.3818,W,1,09,0.8,7.8,M,-33.5,M,,*57
$PYRTM,2024,127.086270348229,18.195917758368
$GPGGA,020412.00,3359.9139,N,11921.3816,W,1,09,0.8,7.9,M,-33.5,M,,*54
$PYRTM,2024,127.086281924734,18.195929334873
$GPGGA,020413.00,3359.9137,N,11921.3815,W,1,09,0.8,7.9,M,-33.5,M,,*58
$PYRTM,2024,127.086293496551,18.195940906690
$GPGGA,020414.00,3359.9137,N,11921.3813,W,1,09,0.8,7.9,M,-33.5,M,,*59
$PYRTM,2024,127.086305070451,18.195952480590
$GPGGA,020415.00,3359.9138,N,11921.3812,W,1,09,0.8,7.9,M,-33.5,M,,*56
$PYRTM,2024,127.086317674329,18.195965084468
$GPGGA,020416.00,3359.9138,N,11921.3811,W,1,09,0.8,7.9,M,-33.5,M,,*56
$PYRTM,2024,127.086330298889,18.195977709028
$GPGGA,020417.00,3359.9137,N,11921.3809,W,1,09,0.8,7.9,M,-33.5,M,,*51
$PYRTM,2024,127.086339794317,18.195987204456
$GPGGA,020418.00,3359.9135,N,11921.3807,W,1,09,0.8,8.0,M,-33.5,M,,*54
$PYRTM,2024,127.086351370718,18.195998780856
$GPGGA,020419.00,3359.9135,N,11921.3806,W,1,09,0.8,8.0,M,-33.5,M,,*54
$PYRTM,2024,127.086363278044,18.196010688183
$GPGGA,020420.00,3359.9137,N,11921.3797,W,1,09,0.8,8.0,M,-33.5,M,,*5B
$PYRTM,2024,127.086374516481,18.196021926620
$GPGGA,020421.00,3359.9139,N,11921.3801,W,1,09,0.8,8.0,M,-33.5,M,,*54
$PYRTM,2024,127.086386090787,18.196033500926
$GPGGA,020422.00,3359.9138,N,11921.3801,W,1,09,0.8,8.0,M,-33.5,M,,*56
$PYRTM,2024,127.086397660081,18.196045070220
$GPGGA,020423.00,3359.9141,N,11921.3803,W,1,09,0.8,8.0,M,-33.5,M,,*5B
$PYRTM,2024,127.086409239988,18.196056650127
$GPGGA,020424.00,3359.9136,N,11921.3802,W,1,09,0.8,7.8,M,-33.5,M,,*5A
$PYRTM,2024,127.086420812234,18.196068222384
$GPGGA,020425.00,3359.9135,N,11921.3798,W,1,09,0.8,7.7,M,-33.5,M,,*5B
$PYRTM,2024,127.086432382419,18.196079792569
$GPGGA,020426.00,3359.9134,N,11921.3799,W,1,09,0.8,7.9,M,-33.5,M,,*56
$PYRTM,2024,127.086443960602,18.196091370741
$GPGGA,020427.00,3359.9135,N,11921.3798,W,1,09,0.8,7.8,M,-33.5,M,,*56
$PYRTM,2024,127.086455534803,18.196102944942
$GPGGA,020428.00,3359.9133,N,11921.3798,W,1,09,0.8,7.8,M,-33.5,M,,*5F
$PYRTM,2024,127.086467111053,18.196114521192
$GPGGA,020429.00,3359.9133,N,11921.3798,W,1,09,0.8,7.4,M,-33.5,M,,*52
$PYRTM,2024,127.086478683484,18.196126093623
$GPGGA,020430.00,3359.9133,N,11921.3798,W,1,09,0.8,7.4,M,-33.5,M,,*5A
$PYRTM,2024,127.086490258206,18.196137668345
$GPGGA,020431.00,3359.9133,N,11921.3799,W,1,09,0.8,7.5,M,-33.5,M,,*5B
$PYRTM,2024,127.086501831551,18.196149241690
$GPGGA,020432.00,3359.9133,N,11921.3799,W,1,09,0.8,7.5,M,-33.5,M,,*58
$PYRTM,2024,127.086513408519,18.196160818669
$GPGGA,020433.00,3359.9132,N,11921.3798,W,1,09,0.8,7.5,M,-33.5,M,,*59
$PYRTM,2024,127.086524979988,18.196172390139
$GPGGA,020434.00,3359.9133,N,11921.3798,W,1,09,0.8,7.2,M,-33.5,M,,*58
$PYRTM,2024,127.086536557361,18.196183967500
$GPGGA,020435.00,3359.9133,N,11921.3799,W,1,09,0.8,7.0,M,-33.5,M,,*5A
$PYRTM,2024,127.086548128843,18.196195538981
$GPGGA,020436.00,3359.9134,N,11921.3800,W,1,09,0.8,7.0,M,-33.5,M,,*51
$PYRTM,2024,127.086559702419,18.196207112558
$GPGGA,020437.00,3359.9132,N,11921.3800,W,1,09,0.8,7.0,M,-33.5,M,,*56
$PYRTM,2024,127.086571270833,18.196218680972
$GPGGA,020438.00,3359.9133,N,11921.3799,W,1,09,0.8,6.9,M,-33.5,M,,*5F
$PYRTM,2024,127.086582719884,18.196230130023
$GPGGA,020439.00,3359.9132,N,11921.3799,W,1,09,0.8,7.0,M,-33.5,M,,*57
$PYRTM,2024,127.086594419780,18.196241829919
$GPGGA,020440.00,3359.9133,N,11921.3797,W,1,09,0.8,7.1,M,-33.5,M,,*57
$PYRTM,2024,127.086605998646,18.196253408785
$GPGGA,020441.00,3359.9133,N,11921.3797,W,1,09,0.8,7.1,M,-33.5,M,,*56
$PYRTM,2024,127.086617573981,18.196264984132
$GPGGA,020442.00,3359.9134,N,11921.3797,W,1,09,0.8,7.0,M,-33.5,M,,*53
$PYRTM,2024,127.086629148160,18.196276558310
$GPGGA,020443.00,3359.9135,N,11921.3796,W,1,09,0.8,7.1,M,-33.5,M,,*53
$PYRTM,2024,127.086640721400,18.196288131539
$GPGGA,020444.00,3359.9133,N,11921.3797,W,1,09,0.8,6.9,M,-33.5,M,,*5A
$PYRTM,2024,127.086652297303,18.196299707442
$GPGGA,020445.00,3359.9133,N,11921.3798,W,1,09,0.8,6.9,M,-33.5,M,,*54
$PYRTM,2024,127.086665368472,18.196312778611
$GPGGA,020446.00,3359.9134,N,11921.3799,W,1,09,0.8,7.0,M,-33.5,M,,*59
$PYRTM,2024,127.086677630868,18.196325041007
$GPGGA,020447.00,3359.9134,N,11921.3799,W,1,09,0.8,6.9,M,-33.5,M,,*50
$PYRTM,2024,127.086686091875,18.196333502014
$GPGGA,020448.00,3359.9133,N,11921.3801,W,1,09,0.8,6.9,M,-33.5,M,,*56
$PYRTM,2024,127.086698927928,18.196346338067
$GPGGA,020449.00,3359.9133,N,11921.3802,W,1,09,0.8,7.0,M,-33.5,M,,*5C
$PYRTM,2024,127.086709574225,18.196356984363
$GPGGA,020450.00,3359.9132,N,11921.3801,W,1,09,0.8,7.1,M,-33.5,M,,*57
$PYRTM,2024,127.086721050440,18.196368460579
$GPGGA,020451.00,3359.9130,N,11921.3802,W,1,09,0.8,7.0,M,-33.5,M,,*56
$PYRTM,2024,127.086732036968,18.196379447106
$GPGGA,020452.00,3359.9128,N,11921.3801,W,1,09,0.8,7.0,M,-33.5,M,,*5F
$PYRTM,2024,127.086743153634,18.196390563773
$GPGGA,020453.00,3359.9127,N,11921.3801,W,1,09,0.8,7.0,M,-33.5,M,,*51
$PYRTM,2024,127.086754162002,18.196401572141
$GPGGA,020454.00,3359.9126,N,11921.3802,W,1,09,0.8,7.1,M,-33.5,M,,*55
$PYRTM,2024,127.086765128299,18.196412538437
$GPGGA,020455.00,3359.9127,N,11921.3803,W,1,09,0.8,7.1,M,-33.5,M,,*54
$PYRTM,2024,127.086776125532,18.196423535671
$GPGGA,020456.00,3359.9127,N,11921.3804,W,1,09,0.8,7.2,M,-33.5,M,,*53
$PYRTM,2024,127.086787121956,18.196434532095
$GPGGA,020457.00,3359.9126,N,11921.3806,W,1,09,0.8,7.2,M,-33.5,M,,*51
$PYRTM,2024,127.086798232801,18.196445642951
$GPGGA,020458.00,3359.9126,N,11921.3808,W,1,09,0.8,7.2,M,-33.5,M,,*50
$PYRTM,2024,127.086813164144,18.196460574282
$GPGGA,020459.00,3359.9126,N,11921.3809,W,1,09,0.8,7.2,M,-33.5,M,,*50
$PYRTM,2024,127.086824158437,18.196471568576
$GPGGA,020500.00,3359.9126,N,11921.3811,W,1,09,0.8,7.2,M,-33.5,M,,*54
$PYRTM,2024,127.086835167431,18.196482577569
$GPGGA,020501.00,3359.9125,N,11921.3810,W,1,09,0.8,7.2,M,-33.5,M,,*57
$PYRTM,2024,127.086846278287,18.196493688426
$GPGGA,020502.00,3359.9125,N,11921.3811,W,1,09,0.8,7.3,M,-33.5,M,,*54
$PYRTM,2024,127.086857273611,18.196504683750
$GPGGA,020503.00,3359.9125,N,11921.3812,W,1,09,0.8,7.3,M,-33.5,M,,*56
$PYRTM,2024,127.086868269387,18.196515679525
$GPGGA,020504.00,3359.9123,N,11921.3813,W,1,09,0.8,7.2,M,-33.5,M,,*57
$PYRTM,2024,127.086879265683,18.196526675833
$GPGGA,020505.00,3359.9122,N,11921.3815,W,1,09,0.8,7.3,M,-33.5,M,,*50
$PYRTM,2024,127.086894191539,18.196541601678
$GPGGA,020506.00,3359.9125,N,11921.3815,W,1,09,0.8,7.3,M,-33.5,M,,*54
$PYRTM,2024,127.086905191493,18.196552601644
$GPGGA,020507.00,3359.9126,N,11921.3815,W,1,09,0.8,7.3,M,-33.5,M,,*56
$PYRTM,2024,127.086916302500,18.196563712650
$GPGGA,020508.00,3359.9126,N,11921.3815,W,1,09,0.8,7.5,M,-33.5,M,,*5F
$PYRTM,2024,127.086927297998,18.196574708137
$GPGGA,020509.00,3359.9128,N,11921.3817,W,1,09,0.8,7.4,M,-33.5,M,,*53
$PYRTM,2024,127.086938279688,18.196585689826
$GPGGA,020510.00,3359.9128,N,11921.3819,W,1,09,0.8,7.5,M,-33.5,M,,*54
$PYRTM,2024,127.086949276424,18.196596686574
$GPGGA,020511.00,3359.9129,N,11921.3819,W,1,09,0.8,7.4,M,-33.5,M,,*55
$PYRTM,2024,127.086960271019,18.196607681157
$GPGGA,020512.00,3359.9128,N,11921.3819,W,1,09,0.8,7.3,M,-33.5,M,,*50
$PYRTM,2024,127.086975316597,18.196622726736
$GPGGA,020513.00,3359.9127,N,11921.3821,W,1,09,0.8,7.3,M,-33.5,M,,*55
$PYRTM,2024,127.086986313947,18.196633724086
$GPGGA,020514.00,3359.9125,N,11921.3822,W,1,09,0.8,7.4,M,-33.5,M,,*54
$PYRTM,2024,127.086997424421,18.196644834560
$GPGGA,020515.00,3359.9124,N,11921.3824,W,1,09,0.8,7.3,M,-33.5,M,,*55
$PYRTM,2024,127.087008420544,18.196655830683
$GPGGA,020516.00,3359.9123,N,11921.3824,W,1,09,0.8,7.2,M,-33.5,M,,*50
$PYRTM,2024,127.087023003403,18.196670413542
$GPGGA,020517.00,3359.9121,N,11921.3827,W,1,09,0.8,7.1,M,-33.5,M,,*53
$PYRTM,2024,127.087034127454,18.196681537593
$GPGGA,020518.00,3359.9121,N,11921.3829,W,1,09,0.8,7.1,M,-33.5,M,,*52
$PYRTM,2024,127.087045238414,18.196692648565
$GPGGA,020519.00,3359.9119,N,11921.3833,W,1,09,0.8,7.1,M,-33.5,M,,*53
$PYRTM,2024,127.087056929456,18.196704339595
$GPGGA,020520.00,3359.9117,N,11921.3835,W,1,09,0.8,7.1,M,-33.5,M,,*51
$PYRTM,2024,127.087068042674,18.196715452813
$GPGGA,020521.00,3359.9115,N,11921.3835,W,1,09,0.8,7.1,M,-33.5,M,,*52
$PYRTM,2024,127.087079498669,18.196726908808
$GPGGA,020522.00,3359.9115,N,11921.3837,W,1,09,0.8,7.2,M,-33.5,M,,*50
$PYRTM,2024,127.087091058125,18.196738468275
$GPGGA,020523.00,3359.9116,N,11921.3840,W,1,09,0.8,7.2,M,-33.5,M,,*52
$PYRTM,2024,127.087102646806,18.196750056944
$GPGGA,020524.00,3359.9116,N,11921.3843,W,1,09,0.8,7.2,M,-33.5,M,,*56
$PYRTM,2024,127.087114205961,18.196761616100
$GPGGA,020525.00,3359.9114,N,11921.3844,W,1,09,0.8,7.2,M,-33.5,M,,*52
$PYRTM,2024,127.087125789120,18.196773199259
$GPGGA,020526.00,3359.9112,N,11921.3846,W,1,09,0.8,7.2,M,-33.5,M,,*55
$PYRTM,2024,127.087137355521,18.196784765660
$GPGGA,020527.00,3359.9111,N,11921.3848,W,1,09,0.8,7.2,M,-33.5,M,,*59
$PYRTM,2024,127.087148943576,18.196796353715
$GPGGA,020528.00,3359.9112,N,11921.3851,W,1,09,0.8,7.2,M,-33.5,M,,*5D
$PYRTM,2024,127.087160502465,18.196807912604
$GPGGA,020529.00,3359.9113,N,11921.3855,W,1,09,0.8,7.2,M,-33.5,M,,*59
$PYRTM,2024,127.087172091435,18.196819501574
$GPGGA,020530.00,3359.9112,N,11921.3857,W,1,09,0.8,7.2,M,-33.5,M,,*52
$PYRTM,2024,127.087183651771,18.196831061910
$GPGGA,020531.00,3359.9109,N,11921.3858,W,1,09,0.8,7.2,M,-33.5,M,,*56
$PYRTM,2024,127.087195239757,18.196842649907
$GPGGA,020532.00,3359.9107,N,11921.3860,W,1,09,0.8,7.2,M,-33.5,M,,*50
$PYRTM,2024,127.087206801759,18.196854211898
$GPGGA,020533.00,3359.9108,N,11921.3863,W,1,09,0.8,7.2,M,-33.5,M,,*5D
$PYRTM,2024,127.087218388611,18.196865798762
$GPGGA,020534.00,3359.9108,N,11921.3867,W,1,09,0.8,7.2,M,-33.5,M,,*5E
$PYRTM,2024,127.087229947535,18.196877357674
$GPGGA,020535.00,3359.9108,N,11921.3869,W,1,09,0.8,7.2,M,-33.5,M,,*51
$PYRTM,2024,127.087241870671,18.196889280810
$GPGGA,020536.00,3359.9106,N,11921.3872,W,1,09,0.8,7.2,M,-33.5,M,,*56
$PYRTM,2024,127.087253096968,18.196900507118
$GPGGA,020537.00,3359.9104,N,11921.3874,W,1,09,0.8,7.2,M,-33.5,M,,*53
$PYRTM,2024,127.087264684687,18.196912094826
$GPGGA,020538.00,3359.9103,N,11921.3877,W,1,09,0.8,7.2,M,-33.5,M,,*58
$PYRTM,2024,127.087276247280,18.196923657419
$GPGGA,020539.00,3359.9104,N,11921.3880,W,1,09,0.8,7.2,M,-33.5,M,,*56
$PYRTM,2024,127.087287832488,18.196935242627
$GPGGA,020540.00,3359.9103,N,11921.3884,W,1,09,0.8,7.3,M,-33.5,M,,*5A
$PYRTM,2024,127.087299392523,18.196946802662
$GPGGA,020541.00,3359.9102,N,11921.3886,W,1,09,0.8,7.3,M,-33.5,M,,*58
$PYRTM,2024,127.087310982535,18.196958392674
$GPGGA,020542.00,3359.9100,N,11921.3889,W,1,09,0.8,7.3,M,-33.5,M,,*56
$PYRTM,2024,127.087322540880,18.196969951030
$GPGGA,020543.00,3359.9098,N,11921.3892,W,1,09,0.8,7.3,M,-33.5,M,,*5D
$PYRTM,2024,127.087334129317,18.196981539468
$GPGGA,020544.00,3359.9097,N,11921.3896,W,1,09,0.8,7.3,M,-33.5,M,,*51
$PYRTM,2024,127.087345688461,18.196993098600
$GPGGA,020545.00,3359.9098,N,11921.3898,W,1,09,0.8,7.3,M,-33.5,M,,*51
$PYRTM,2024,127.087358314491,18.197005724630
$GPGGA,020546.00,3359.9098,N,11921.3901,W,1,09,0.8,7.3,M,-33.5,M,,*53
$PYRTM,2024,127.087369893565,18.197017303704
$GPGGA,020547.00,3359.9096,N,11921.3905,W,1,09,0.8,7.3,M,-33.5,M,,*58
$PYRTM,2024,127.087381467697,18.197028877836
$GPGGA,020548.00,3359.9093,N,11921.3910,W,1,09,0.8,7.3,M,-33.5,M,,*56
$PYRTM,2024,127.087393041632,18.197040451771
$GPGGA,020549.00,3359.9092,N,11921.3915,W,1,09,0.8,7.4,M,-33.5,M,,*54
$PYRTM,2024,127.087405078160,18.197052488299
$GPGGA,020550.00,3359.9093,N,11921.3916,W,1,09,0.8,7.4,M,-33.5,M,,*5E
$PYRTM,2024,127.087416193264,18.197063603403
$GPGGA,020551.00,3359.9094,N,11921.3918,W,1,09,0.8,7.4,M,-33.5,M,,*56
$PYRTM,2024,127.087427763345,18.197075173484
$GPGGA,020552.00,3359.9094,N,11921.3922,W,1,09,0.8,7.4,M,-33.5,M,,*5C
$PYRTM,2024,127.087439353322,18.197086763472
$GPGGA,020553.00,3359.9093,N,11921.3926,W,1,09,0.8,7.4,M,-33.5,M,,*5E
$PYRTM,2024,127.087450906933,18.197098317072
$GPGGA,020554.00,3359.9092,N,11921.3928,W,1,09,0.8,7.4,M,-33.5,M,,*56
$PYRTM,2024,127.087462486169,18.197109896308
$GPGGA,020555.00,3359.9093,N,11921.3929,W,1,09,0.8,7.4,M,-33.5,M,,*57
$PYRTM,2024,127.087474060486,18.197121470637
$GPGGA,020556.00,3359.9093,N,11921.3933,W,1,09,0.8,7.4,M,-33.5,M,,*5F
$PYRTM,2024,127.087485634479,18.197133044618
$GPGGA,020557.00,3359.9092,N,11921.3937,W,1,09,0.8,7.4,M,-33.5,M,,*5B
$PYRTM,2024,127.087497207905,18.197144618044
$GPGGA,020558.00,3359.9090,N,11921.3941,W,1,09,0.8,7.4,M,-33.5,M,,*57
$PYRTM,2024,127.087508784745,18.197156194884
$GPGGA,020559.00,3359.9087,N,11921.3944,W,1,09,0.8,7.5,M,-33.5,M,,*54
$PYRTM,2024,127.087520352512,18.197167762650
$GPGGA,020600.00,3359.9087,N,11921.3947,W,1,09,0.8,7.5,M,-33.5,M,,*58
$PYRTM,2024,127.087531927442,18.197179337581
$GPGGA,020601.00,3359.9087,N,11921.3951,W,1,09,0.8,7.5,M,-33.5,M,,*5E
$PYRTM,2024,127.087543507535,18.197190917674
$GPGGA,020602.00,3359.9087,N,11921.3955,W,1,09,0.8,7.5,M,-33.5,M,,*59
$PYRTM,2024,127.087555080208,18.197202490347
$GPGGA,020603.00,3359.9085,N,11921.3958,W,1,09,0.8,7.5,M,-33.5,M,,*57
$PYRTM,2024,127.087566656007,18.197214066146
$GPGGA,020604.00,3359.9082,N,11921.3961,W,1,09,0.8,7.5,M,-33.5,M,,*5D
$PYRTM,2024,127.087578228183,18.197225638322
$GPGGA,020605.00,3359.9081,N,11921.3964,W,1,09,0.8,7.5,M,-33.5,M,,*5A
$PYRTM,2024,127.087589803287,18.197237213426
$GPGGA,020606.00,3359.9082,N,11921.3968,W,1,09,0.8,7.5,M,-33.5,M,,*56
$PYRTM,2024,127.087601379502,18.197248789641
$GPGGA,020607.00,3359.9084,N,11921.3971,W,1,09,0.8,7.5,M,-33.5,M,,*59
$PYRTM,2024,127.087612951562,18.197260361701
$GPGGA,020608.00,3359.9083,N,11921.3974,W,1,09,0.8,7.5,M,-33.5,M,,*54
$PYRTM,2024,127.087624528264,18.197271938403
$GPGGA,020609.00,3359.9081,N,11921.3977,W,1,09,0.8,7.5,M,-33.5,M,,*54
$PYRTM,2024,127.087636099931,18.197283510069
$GPGGA,020610.00,3359.9078,N,11921.3980,W,1,09,0.8,7.5,M,-33.5,M,,*52
$PYRTM,2024,127.087647673889,18.197295084028
$GPGGA,020611.00,3359.9077,N,11921.3985,W,1,09,0.8,7.6,M,-33.5,M,,*5A
$PYRTM,2024,127.087659246956,18.197306657095
$GPGGA,020612.00,3359.9078,N,11921.3988,W,1,09,0.8,7.7,M,-33.5,M,,*5A
$PYRTM,2024,127.087670823160,18.197318233310
$GPGGA,020613.00,3359.9078,N,11921.3991,W,1,09,0.8,7.7,M,-33.5,M,,*53
$PYRTM,2024,127.087682395799,18.197329805949
$GPGGA,020614.00,3359.9076,N,11921.3993,W,1,09,0.8,7.8,M,-33.5,M,,*57
$PYRTM,2024,127.087693971100,18.197341381250
$GPGGA,020615.00,3359.9074,N,11921.3996,W,1,09,0.8,7.8,M,-33.5,M,,*51
$PYRTM,2024,127.087706689410,18.197354099549
$GPGGA,020616.00,3359.9071,N,11921.4000,W,1,09,0.8,7.8,M,-33.5,M,,*56
$PYRTM,2024,127.087719305891,18.197366716030
$GPGGA,020617.00,3359.9070,N,11921.4003,W,1,09,0.8,7.8,M,-33.5,M,,*55
$PYRTM,2024,127.087728687153,18.197376097292
$GPGGA,020618.00,3359.9071,N,11921.4006,W,1,09,0.8,7.8,M,-33.5,M,,*5E
$PYRTM,2024,127.087740267118,18.197387677257
$GPGGA,020619.00,3359.9071,N,11921.4008,W,1,09,0.8,7.8,M,-33.5,M,,*51
$PYRTM,2024,127.087752304549,18.197399714687
$GPGGA,020620.00,3359.9069,N,11921.4011,W,1,09,0.8,7.8,M,-33.5,M,,*5A
$PYRTM,2024,127.087763415637,18.197410825775
$GPGGA,020621.00,3359.9067,N,11921.4015,W,1,09,0.8,7.8,M,-33.5,M,,*51
$PYRTM,2024,127.087774989688,18.197422399826
$GPGGA,020622.00,3359.9065,N,11921.4019,W,1,09,0.8,7.8,M,-33.5,M,,*5C
$PYRTM,2024,127.087786567975,18.197433978113
$GPGGA,020623.00,3359.9065,N,11921.4021,W,1,09,0.8,7.8,M,-33.5,M,,*56
$PYRTM,2024,127.087798137095,18.197445547234
$GPGGA,020624.00,3359.9066,N,11921.4024,W,1,09,0.8,7.9,M,-33.5,M,,*56
$PYRTM,2024,127.087809715231,18.197457125370
$GPGGA,020625.00,3359.9066,N,11921.4028,W,1,09,0.8,7.9,M,-33.5,M,,*5B
$PYRTM,2024,127.087821749560,18.197469159699
$GPGGA,020626.00,3359.9065,N,11921.4030,W,1,09,0.8,7.9,M,-33.5,M,,*52
$PYRTM,2024,127.087832859687,18.197480269826
$GPGGA,020627.00,3359.9064,N,11921.4032,W,1,09,0.8,8.0,M,-33.5,M,,*56
$PYRTM,2024,127.087844434271,18.197491844410
$GPGGA,020628.00,3359.9063,N,11921.4035,W,1,09,0.8,7.9,M,-33.5,M,,*5F
$PYRTM,2024,127.087856008264,18.197503418403
$GPGGA,020629.00,3359.9063,N,11921.4038,W,1,09,0.8,8.0,M,-33.5,M,,*55
$PYRTM,2024,127.087867583322,18.197514993461
$GPGGA,020630.00,3359.9064,N,11921.4040,W,1,09,0.8,8.0,M,-33.5,M,,*55
$PYRTM,2024,127.087879151319,18.197526561458
$GPGGA,020631.00,3359.9063,N,11921.4041,W,1,09,0.8,8.0,M,-33.5,M,,*52
$PYRTM,2024,127.087890731852,18.197538141991
$GPGGA,020632.00,3359.9062,N,11921.4043,W,1,09,0.8,8.1,M,-33.5,M,,*53
$PYRTM,2024,127.087902307500,18.197549717650
$GPGGA,020633.00,3359.9060,N,11921.4046,W,1,09,0.8,8.0,M,-33.5,M,,*54
$PYRTM,2024,127.087913873958,18.197561284097
$GPGGA,020634.00,3359.9060,N,11921.4048,W,1,09,0.8,8.0,M,-33.5,M,,*5D
$PYRTM,2024,127.087925452650,18.197572862789
$GPGGA,020635.00,3359.9061,N,11921.4050,W,1,09,0.8,8.0,M,-33.5,M,,*54
$PYRTM,2024,127.087937027130,18.197584437269
$GPGGA,020636.00,3359.9060,N,11921.4053,W,1,09,0.8,8.1,M,-33.5,M,,*54
$PYRTM,2024,127.087948601389,18.197596011528
$GPGGA,020637.00,3359.9058,N,11921.4056,W,1,09,0.8,8.1,M,-33.5,M,,*5B
$PYRTM,2024,127.087960174977,18.197607585116
$GPGGA,020638.00,3359.9056,N,11921.4058,W,1,09,0.8,8.1,M,-33.5,M,,*54
$PYRTM,2024,127.087971764896,18.197619175035
$GPGGA,020639.00,3359.9055,N,11921.4058,W,1,09,0.8,8.1,M,-33.5,M,,*56
$PYRTM,2024,127.087983323426,18.197630733576
$GPGGA,020640.00,3359.9055,N,11921.4061,W,1,09,0.8,8.1,M,-33.5,M,,*52
$PYRTM,2024,127.087994901019,18.197642311169
$GPGGA,020641.00,3359.9056,N,11921.4065,W,1,09,0.8,8.2,M,-33.5,M,,*57
$PYRTM,2024,127.088006471620,18.197653881759
$GPGGA,020642.00,3359.9055,N,11921.4068,W,1,09,0.8,8.2,M,-33.5,M,,*5A
$PYRTM,2024,127.088018047894,18.197665458032
$GPGGA,020643.00,3359.9054,N,11921.4068,W,1,09,0.8,8.3,M,-33.5,M,,*5B
$PYRTM,2024,127.088029621435,18.197677031574
$GPGGA,020644.00,3359.9053,N,11921.4068,W,1,09,0.8,8.2,M,-33.5,M,,*5A
$PYRTM,2024,127.088041189734,18.197688599884
$GPGGA,020645.00,3359.9053,N,11921.4070,W,1,09,0.8,8.3,M,-33.5,M,,*53
$PYRTM,2024,127.088053913009,18.197701323148
$GPGGA,020646.00,3359.9053,N,11921.4075,W,1,09,0.8,8.3,M,-33.5,M,,*55
$PYRTM,2024,127.088066529687,18.197713939826
$GPGGA,020647.00,3359.9053,N,11921.4078,W,1,09,0.8,8.3,M,-33.5,M,,*59
$PYRTM,2024,127.088075913125,18.197723323275
$GPGGA,020648.00,3359.9051,N,11921.4079,W,1,09,0.8,8.3,M,-33.5,M,,*55
$PYRTM,2024,127.088087491400,18.197734901539
$GPGGA,020649.00,3359.9049,N,11921.4080,W,1,09,0.8,8.3,M,-33.5,M,,*5B
$PYRTM,2024,127.088099531250,18.197746941389
$GPGGA,020650.00,3359.9048,N,11921.4083,W,1,09,0.8,8.3,M,-33.5,M,,*51
$PYRTM,2024,127.088110639387,18.197758049525
$GPGGA,020651.00,3359.9049,N,11921.4087,W,1,09,0.8,8.3,M,-33.5,M,,*55
$PYRTM,2024,127.088122212975,18.197769623113
$GPGGA,020652.00,3359.9050,N,11921.4090,W,1,09,0.8,8.3,M,-33.5,M,,*58
$PYRTM,2024,127.088132864514,18.197780274653
$GPGGA,020653.00,3359.9048,N,11921.4092,W,1,09,0.8,8.3,M,-33.5,M,,*52
$PYRTM,2024,127.088145826007,18.197793236146
$GPGGA,020654.00,3359.9045,N,11921.4093,W,1,09,0.8,8.3,M,-33.5,M,,*59
$PYRTM,2024,127.088156575069,18.197803985208
$GPGGA,020655.00,3359.9043,N,11921.4096,W,1,09,0.8,8.3,M,-33.5,M,,*5B
$PYRTM,2024,127.088167686898,18.197815097037
$GPGGA,020656.00,3359.9043,N,11921.4098,W,1,09,0.8,8.3,M,-33.5,M,,*56
$PYRTM,2024,127.088178798900,18.197826209039
$GPGGA,020657.00,3359.9045,N,11921.4100,W,1,09,0.8,8.3,M,-33.5,M,,*51
$PYRTM,2024,127.088189806238,18.197837216377
$GPGGA,020658.00,3359.9044,N,11921.4102,W,1,09,0.8,8.3,M,-33.5,M,,*5D
$PYRTM,2024,127.088200919086,18.197848329225
$GPGGA,020659.00,3359.9041,N,11921.4104,W,1,09,0.8,8.3,M,-33.5,M,,*5F
$PYRTM,2024,127.088212029641,18.197859439780
$GPGGA,020700.00,3359.9039,N,11921.4105,W,1,09,0.8,8.3,M,-33.5,M,,*5C
$PYRTM,2024,127.088223139514,18.197870549653
$GPGGA,020701.00,3359.9039,N,11921.4108,W,1,09,0.8,8.3,M,-33.5,M,,*50
$PYRTM,2024,127.088234250775,18.197881660914
$GPGGA,020702.00,3359.9041,N,11921.4110,W,1,09,0.8,8.3,M,-33.5,M,,*55
$PYRTM,2024,127.088245362442,18.197892772581
$GPGGA,020703.00,3359.9041,N,11921.4113,W,1,09,0.8,8.3,M,-33.5,M,,*57
$PYRTM,2024,127.088256357465,18.197903767604
$GPGGA,020704.00,3359.9039,N,11921.4114,W,1,09,0.8,8.3,M,-33.5,M,,*58
$PYRTM,2024,127.088272099155,18.197919509306
$GPGGA,020705.00,3359.9037,N,11921.4115,W,1,09,0.8,8.3,M,-33.5,M,,*56
$PYRTM,2024,127.088283211389,18.197930621528
$GPGGA,020706.00,3359.9037,N,11921.4115,W,1,09,0.8,8.3,M,-33.5,M,,*55
$PYRTM,2024,127.088294321597,18.197941731736
$GPGGA,020707.00,3359.9038,N,11921.4118,W,1,09,0.8,8.3,M,-33.5,M,,*56
$PYRTM,2024,127.088305311736,18.197952721887
$GPGGA,020708.00,3359.9039,N,11921.4121,W,1,09,0.8,8.3,M,-33.5,M,,*52
$PYRTM,2024,127.088316431238,18.197963841389
$GPGGA,020709.00,3359.9037,N,11921.4122,W,1,09,0.8,8.4,M,-33.5,M,,*59
$PYRTM,2024,127.088327540475,18.197974950625
$GPGGA,020710.00,3359.9034,N,11921.4122,W,1,09,0.8,8.4,M,-33.5,M,,*52
$PYRTM,2024,127.088338654363,18.197986064502
$GPGGA,020711.00,3359.9033,N,11921.4123,W,1,09,0.8,8.3,M,-33.5,M,,*52
$PYRTM,2024,127.088349761586,18.197997171725
$GPGGA,020712.00,3359.9033,N,11921.4126,W,1,09,0.8,8.2,M,-33.5,M,,*55
$PYRTM,2024,127.088360876944,18.198008287083
$GPGGA,020713.00,3359.9034,N,11921.4129,W,1,09,0.8,8.3,M,-33.5,M,,*5D
$PYRTM,2024,127.088371867512,18.198019277650
$GPGGA,020714.00,3359.9033,N,11921.4132,W,1,09,0.8,8.3,M,-33.5,M,,*57
$PYRTM,2024,127.088383090868,18.198030501007
$GPGGA,020715.00,3359.9031,N,11921.4133,W,1,09,0.8,8.2,M,-33.5,M,,*54
$PYRTM,2024,127.088394656343,18.198042066481
$GPGGA,020716.00,3359.9029,N,11921.4134,W,1,09,0.8,8.2,M,-33.5,M,,*59
$PYRTM,2024,127.088410511794,18.198057921933
$GPGGA,020717.00,3359.9029,N,11921.4137,W,1,09,0.8,8.2,M,-33.5,M,,*5B
$PYRTM,2024,127.088422100509,18.198069510648
$GPGGA,020718.00,3359.9030,N,11921.4140,W,1,09,0.8,8.2,M,-33.5,M,,*5C
$PYRTM,2024,127.088433659560,18.198081069699
$GPGGA,020719.00,3359.9030,N,11921.4142,W,1,09,0.8,8.3,M,-33.5,M,,*5E
$PYRTM,2024,127.088445582037,18.198092992176
$GPGGA,020720.00,3359.9029,N,11921.4144,W,1,09,0.8,8.3,M,-33.5,M,,*5A
$PYRTM,2024,127.088456807789,18.198104217940
$GPGGA,020721.00,3359.9027,N,11921.4145,W,1,09,0.8,8.2,M,-33.5,M,,*55
$PYRTM,2024,127.088468396829,18.198115806968
$GPGGA,020722.00,3359.9027,N,11921.4147,W,1,09,0.8,8.2,M,-33.5,M,,*54
$PYRTM,2024,127.088479956053,18.198127366192
$GPGGA,020723.00,3359.9028,N,11921.4150,W,1,09,0.8,8.2,M,-33.5,M,,*5C
$PYRTM,2024,127.088491540116,18.198138950255
$GPGGA,020724.00,3359.9027,N,11921.4153,W,1,09,0.8,8.2,M,-33.5,M,,*57
$PYRTM,2024,127.088503105799,18.198150515949
$GPGGA,020725.00,3359.9027,N,11921.4154,W,1,09,0.8,8.2,M,-33.5,M,,*51
$PYRTM,2024,127.088514692928,18.198162103067
$GPGGA,020726.00,3359.9026,N,11921.4155,W,1,09,0.8,8.2,M,-33.5,M,,*52
$PYRTM,2024,127.088526254028,18.198173664167
$GPGGA,020727.00,3359.9025,N,11921.4158,W,1,09,0.8,8.2,M,-33.5,M,,*5D
$PYRTM,2024,127.088537843299,18.198185253438
$GPGGA,020728.00,3359.9024,N,11921.4161,W,1,09,0.8,8.2,M,-33.5,M,,*59
$PYRTM,2024,127.088549401169,18.198196811319
$GPGGA,020729.00,3359.9024,N,11921.4163,W,1,09,0.8,8.1,M,-33.5,M,,*59
$PYRTM,2024,127.088560984907,18.198208395046
$GPGGA,020730.00,3359.9024,N,11921.4165,W,1,09,0.8,8.1,M,-33.5,M,,*57
$PYRTM,2024,127.088572548900,18.198219959051
$GPGGA,020731.00,3359.9023,N,11921.4166,W,1,09,0.8,8.1,M,-33.5,M,,*52
$PYRTM,2024,127.088584138113,18.198231548252
$GPGGA,020732.00,3359.9023,N,11921.4165,W,1,09,0.8,8.4,M,-33.5,M,,*57
$PYRTM,2024,127.088595698715,18.198243108854
$GPGGA,020733.00,3359.9023,N,11921.4165,W,1,09,0.8,8.4,M,-33.5,M,,*56
$PYRTM,2024,127.088607287095,18.198254697234
$GPGGA,020734.00,3359.9023,N,11921.4164,W,1,09,0.8,8.1,M,-33.5,M,,*55
$PYRTM,2024,127.088618847280,18.198266257419
$GPGGA,020735.00,3359.9025,N,11921.4165,W,1,09,0.8,8.5,M,-33.5,M,,*57
$PYRTM,2024,127.088630435544,18.198277845683
$GPGGA,020736.00,3359.9026,N,11921.4167,W,1,09,0.8,8.5,M,-33.5,M,,*55
$PYRTM,2024,127.088641996285,18.198289406424
$GPGGA,020737.00,3359.9026,N,11921.4169,W,1,09,0.8,8.5,M,-33.5,M,,*5A
$PYRTM,2024,127.088653586539,18.198300996678
$GPGGA,020738.00,3359.9025,N,11921.4171,W,1,09,0.8,8.5,M,-33.5,M,,*5F
$PYRTM,2024,127.088665143715,18.198312553854
$GPGGA,020739.00,3359.9025,N,11921.4172,W,1,09,0.8,8.5,M,-33.5,M,,*5D
$PYRTM,2024,127.088676732014,18.198324142153
$GPGGA,020740.00,3359.9025,N,11921.4174,W,1,09,0.8,8.5,M,-33.5,M,,*55
$PYRTM,2024,127.088688290521,18.198335700660
$GPGGA,020741.00,3359.9025,N,11921.4177,W,1,09,0.8,8.5,M,-33.5,M,,*57
$PYRTM,2024,127.088699880301,18.198347290440
$GPGGA,020742.00,3359.9026,N,11921.4180,W,1,09,0.8,8.5,M,-33.5,M,,*5F
$PYRTM,2024,127.088711440243,18.198358850382
$GPGGA,020743.00,3359.9025,N,11921.4182,W,1,09,0.8,8.5,M,-33.5,M,,*5F
$PYRTM,2024,127.088723027963,18.198370438102
$GPGGA,020744.00,3359.9024,N,11921.4183,W,1,09,0.8,8.5,M,-33.5,M,,*58
$PYRTM,2024,127.088734589016,18.198381999155
$GPGGA,020745.00,3359.9022,N,11921.4184,W,1,09,0.8,8.5,M,-33.5,M,,*58
$PYRTM,2024,127.088747212569,18.198394622720
$GPGGA,020746.00,3359.9022,N,11921.4186,W,1,09,0.8,8.5,M,-33.5,M,,*59
$PYRTM,2024,127.088758793090,18.198406203229
$GPGGA,020747.00,3359.9023,N,11921.4189,W,1,09,0.8,8.6,M,-33.5,M,,*55
$PYRTM,2024,127.088770361319,18.198417771458
$GPGGA,020748.00,3359.9023,N,11921.4192,W,1,09,0.8,8.6,M,-33.5,M,,*50
$PYRTM,2024,127.088781940926,18.198429351065
$GPGGA,020749.00,3359.9021,N,11921.4194,W,1,09,0.8,8.6,M,-33.5,M,,*55
$PYRTM,2024,127.088793992731,18.198441402870
$GPGGA,020750.00,3359.9020,N,11921.4194,W,1,09,0.8,8.5,M,-33.5,M,,*5F
$PYRTM,2024,127.088805088762,18.198452498900
$GPGGA,020751.00,3359.9018,N,11921.4197,W,1,09,0.8,8.5,M,-33.5,M,,*56
$PYRTM,2024,127.088816659919,18.198464070058
$GPGGA,020752.00,3359.9019,N,11921.4200,W,1,09,0.8,8.5,M,-33.5,M,,*59
$PYRTM,2024,127.088828238692,18.198475648831
$GPGGA,020753.00,3359.9019,N,11921.4203,W,1,09,0.8,8.5,M,-33.5,M,,*5B
$PYRTM,2024,127.088839811343,18.198487221481
$GPGGA,020754.00,3359.9018,N,11921.4204,W,1,09,0.8,8.5,M,-33.5,M,,*5A
$PYRTM,2024,127.088851381146,18.198498791285
$GPGGA,020755.00,3359.9016,N,11921.4205,W,1,09,0.8,8.5,M,-33.5,M,,*54
$PYRTM,2024,127.088862960023,18.198510370174
$GPGGA,020756.00,3359.9014,N,11921.4209,W,1,09,0.8,8.5,M,-33.5,M,,*59
$PYRTM,2024,127.088874537234,18.198521947384
$GPGGA,020757.00,3359.9013,N,11921.4212,W,1,09,0.8,8.5,M,-33.5,M,,*55
$PYRTM,2024,127.088886107500,18.198533517639
$GPGGA,020758.00,3359.9012,N,11921.4214,W,1,09,0.8,8.5,M,-33.5,M,,*5D
$PYRTM,2024,127.088897696898,18.198545107037
$GPGGA,020759.00,3359.9013,N,11921.4215,W,1,09,0.8,8.5,M,-33.5,M,,*5C
$PYRTM,2024,127.088909256088,18.198556666238
$GPGGA,020800.00,3359.9012,N,11921.4216,W,1,09,0.8,8.6,M,-33.5,M,,*5E
$PYRTM,2024,127.088920834120,18.198568244259
$GPGGA,020801.00,3359.9010,N,11921.4219,W,1,09,0.8,8.6,M,-33.5,M,,*52
$PYRTM,2024,127.088932404039,18.198579814178
$GPGGA,020802.00,3359.9008,N,11921.4222,W,1,09,0.8,8.6,M,-33.5,M,,*50
$PYRTM,2024,127.088943973704,18.198591383843
$GPGGA,020803.00,3359.9008,N,11921.4224,W,1,09,0.8,8.6,M,-33.5,M,,*57
$PYRTM,2024,127.088955553160,18.198602963310
$GPGGA,020804.00,3359.9009,N,11921.4226,W,1,09,0.8,8.6,M,-33.5,M,,*53
$PYRTM,2024,127.088967129086,18.198614539236
$GPGGA,020805.00,3359.9009,N,11921.4228,W,1,09,0.8,8.6,M,-33.5,M,,*5C
$PYRTM,2024,127.088979167442,18.198626577581
$GPGGA,020806.00,3359.9008,N,11921.4230,W,1,09,0.8,8.6,M,-33.5,M,,*57
$PYRTM,2024,127.088990277338,18.198637687477
$GPGGA,020807.00,3359.9007,N,11921.4232,W,1,09,0.8,8.6,M,-33.5,M,,*5B
$PYRTM,2024,127.089001844398,18.198649254537
$GPGGA,020808.00,3359.9007,N,11921.4233,W,1,09,0.8,8.6,M,-33.5,M,,*55
$PYRTM,2024,127.089013423900,18.198660834039
$GPGGA,020809.00,3359.9007,N,11921.4234,W,1,09,0.8,8.7,M,-33.5,M,,*52
$PYRTM,2024,127.089024998924,18.198672409062
$GPGGA,020810.00,3359.9008,N,11921.4237,W,1,09,0.8,8.7,M,-33.5,M,,*56
$PYRTM,2024,127.089036572442,18.198683982581
$GPGGA,020811.00,3359.9007,N,11921.4241,W,1,09,0.8,8.7,M,-33.5,M,,*59
$PYRTM,2024,127.089048146007,18.198695556146
$GPGGA,020812.00,3359.9004,N,11921.4242,W,1,09,0.8,8.7,M,-33.5,M,,*5A
$PYRTM,2024,127.089059723252,18.198707133391
$GPGGA,020813.00,3359.9003,N,11921.4243,W,1,09,0.8,8.7,M,-33.5,M,,*5D
$PYRTM,2024,127.089071294167,18.198718704306
$GPGGA,020814.00,3359.9003,N,11921.4245,W,1,09,0.8,8.7,M,-33.5,M,,*5C
$PYRTM,2024,127.089082869942,18.198730280093
$GPGGA,020815.00,3359.9003,N,11921.4248,W,1,09,0.8,8.7,M,-33.5,M,,*50
$PYRTM,2024,127.089095587546,18.198742997685
$GPGGA,020816.00,3359.9002,N,11921.4251,W,1,09,0.8,8.7,M,-33.5,M,,*5A
$PYRTM,2024,127.089108201944,18.198755612095
$GPGGA,020817.00,3359.9000,N,11921.4252,W,1,09,0.8,8.7,M,-33.5,M,,*5A
$PYRTM,2024,127.089117590220,18.198765000359
$GPGGA,020818.00,3359.9000,N,11921.4254,W,1,09,0.8,8.7,M,-33.5,M,,*53
$PYRTM,2024,127.089129159421,18.198776569560
$GPGGA,020819.00,3359.9000,N,11921.4256,W,1,09,0.8,8.7,M,-33.5,M,,*50
$PYRTM,2024,127.089141203461,18.198788613600
$GPGGA,020820.00,3359.9001,N,11921.4259,W,1,09,0.8,8.7,M,-33.5,M,,*54
$PYRTM,2024,127.089152313681,18.198799723819
$GPGGA,020821.00,3359.9000,N,11921.4261,W,1,09,0.8,8.7,M,-33.5,M,,*5F
$PYRTM,2024,127.089163889444,18.198811299595
$GPGGA,020822.00,3359.8999,N,11921.4263,W,1,09,0.8,8.7,M,-33.5,M,,*56
$PYRTM,2024,127.089175462419,18.198822872558
$GPGGA,020823.00,3359.8998,N,11921.4263,W,1,09,0.8,8.7,M,-33.5,M,,*56
$PYRTM,2024,127.089187032118,18.198834442257
$GPGGA,020824.00,3359.8998,N,11921.4265,W,1,09,0.8,8.7,M,-33.5,M,,*57
$PYRTM,2024,127.089198610521,18.198846020660
$GPGGA,020825.00,3359.8998,N,11921.4267,W,1,09,0.8,8.7,M,-33.5,M,,*54
$PYRTM,2024,127.089210184549,18.198857594687
$GPGGA,020826.00,3359.8998,N,11921.4269,W,1,09,0.8,8.6,M,-33.5,M,,*58
$PYRTM,2024,127.089221759907,18.198869170046
$GPGGA,020827.00,3359.8997,N,11921.4271,W,1,09,0.8,8.6,M,-33.5,M,,*5F
$PYRTM,2024,127.089233332234,18.198880742373
$GPGGA,020828.00,3359.8996,N,11921.4272,W,1,09,0.8,8.6,M,-33.5,M,,*52
$PYRTM,2024,127.089244921053,18.198892331204
$GPGGA,020829.00,3359.8995,N,11921.4274,W,1,09,0.8,8.6,M,-33.5,M,,*56
$PYRTM,2024,127.089256480868,18.198903891007
$GPGGA,020830.00,3359.8994,N,11921.4276,W,1,09,0.8,8.6,M,-33.5,M,,*5D
$PYRTM,2024,127.089268058206,18.198915468345
$GPGGA,020831.00,3359.8994,N,11921.4278,W,1,09,0.8,8.6,M,-33.5,M,,*52
$PYRTM,2024,127.089279628669,18.198927038808
$GPGGA,020832.00,3359.8993,N,11921.4279,W,1,09,0.8,8.6,M,-33.5,M,,*57
$PYRTM,2024,127.089291203391,18.198938613530
$GPGGA,020833.00,3359.8991,N,11921.4281,W,1,09,0.8,8.6,M,-33.5,M,,*53
$PYRTM,2024,127.089302777488,18.198950187627
$GPGGA,020834.00,3359.8989,N,11921.4283,W,1,09,0.8,8.6,M,-33.5,M,,*5F
$PYRTM,2024,127.089314352326,18.198961762465
$GPGGA,020835.00,3359.8988,N,11921.4285,W,1,09,0.8,8.6,M,-33.5,M,,*59
$PYRTM,2024,127.089325925845,18.198973335984
$GPGGA,020836.00,3359.8988,N,11921.4287,W,1,09,0.8,8.6,M,-33.5,M,,*58
$PYRTM,2024,127.089337500752,18.198984910903
$GPGGA,020837.00,3359.8988,N,11921.4290,W,1,09,0.8,8.6,M,-33.5,M,,*5F
$PYRTM,2024,127.089349074086,18.198996484225
$GPGGA,020838.00,3359.8986,N,11921.4292,W,1,09,0.8,8.6,M,-33.5,M,,*5C
$PYRTM,2024,127.089360648819,18.199008058958
$GPGGA,020839.00,3359.8985,N,11921.4294,W,1,09,0.8,8.6,M,-33.5,M,,*58
$PYRTM,2024,127.089372217975,18.199019628113
