$PYRTM,2024,124.833342352431,15.942989762569
$GPGGA,195959.00,3516.0670,N,12111.6013,W,1,09,1.0,7.3,M,-31.9,M,,*5A
$PYRTM,2024,124.833353922731,15.943001332870
$GPGGA,200000.00,3516.0663,N,12111.6041,W,1,09,1.0,6.6,M,-31.9,M,,*51
$PYRTM,2024,124.833365500521,15.943012910660
$GPGGA,200001.00,3516.0657,N,12111.6070,W,1,09,1.0,7.0,M,-31.9,M,,*52
$PYRTM,2024,124.833377066968,15.943024477106
$GPGGA,200002.00,3516.0652,N,12111.6099,W,1,09,1.0,8.5,M,-31.9,M,,*59
$PYRTM,2024,124.833387257604,15.943034667743
$GPGGA,200003.00,3516.0645,N,12111.6127,W,1,09,1.0,9.3,M,-31.9,M,,*5D
$PYRTM,2024,124.833399058032,15.943046468171
$GPGGA,200004.00,3516.0637,N,12111.6154,W,1,09,1.0,11.0,M,-31.9,M,,*61
$PYRTM,2024,124.833411799803,15.943059209942
$GPGGA,200005.00,3516.0629,N,12111.6180,W,1,09,1.0,12.9,M,-31.9,M,,*6C
$PYRTM,2024,124.833423369028,15.943070779167
$GPGGA,200006.00,3516.0621,N,12111.6207,W,1,09,1.0,11.8,M,-31.9,M,,*69
$PYRTM,2024,124.833434950498,15.943082360637
$GPGGA,200007.00,3516.0615,N,12111.6234,W,1,09,1.0,9.6,M,-31.9,M,,*58
$PYRTM,2024,124.833446518009,15.943093928148
$GPGGA,200008.00,3516.0609,N,12111.6261,W,1,09,1.0,7.9,M,-31.9,M,,*5B
$PYRTM,2024,124.833458092234,15.943105502373
$GPGGA,200009.00,3516.0600,N,12111.6286,W,1,09,1.0,6.8,M,-31.9,M,,*5A
$PYRTM,2024,124.833469665613,15.943117075752
$GPGGA,200010.00,3516.0591,N,12111.6311,W,1,09,1.0,6.3,M,-31.9,M,,*5D
$PYRTM,2024,124.833481240683,15.943128650822
$GPGGA,200011.00,3516.0583,N,12111.6337,W,1,09,1.0,5.3,M,-31.9,M,,*58
$PYRTM,2024,124.833492814491,15.943140224630
$GPGGA,200012.00,3516.0575,N,12111.6364,W,1,09,1.0,5.7,M,-31.9,M,,*50
$PYRTM,2024,124.833504388634,15.943151798773
$GPGGA,200013.00,3516.0567,N,12111.6391,W,1,09,1.0,6.0,M,-31.9,M,,*5C
$PYRTM,2024,124.833515961655,15.943163371794
$GPGGA,200014.00,3516.0558,N,12111.6416,W,1,09,1.0,7.2,M,-31.9,M,,*5C
$PYRTM,2024,124.833527538437,15.943174948576
$GPGGA,200015.00,3516.0548,N,12111.6440,W,1,09,1.0,8.5,M,-31.9,M,,*57
$PYRTM,2024,124.833539111921,15.943186522060
$GPGGA,200016.00,3516.0540,N,12111.6466,W,1,09,1.0,9.6,M,-31.9,M,,*5A
$PYRTM,2024,124.833550689259,15.943198099398
$GPGGA,200017.00,3516.0535,N,12111.6494,W,1,09,1.0,9.7,M,-31.9,M,,*55
$PYRTM,2024,124.833562253634,15.943209663773
$GPGGA,200018.00,3516.0529,N,12111.6521,W,1,09,1.0,8.5,M,-31.9,M,,*5B
$PYRTM,2024,124.833573837685,15.943221247824
$GPGGA,200019.00,3516.0521,N,12111.6545,W,1,09,1.0,7.1,M,-31.9,M,,*5B
$PYRTM,2024,124.833585402257,15.943232812407
$GPGGA,200020.00,3516.0513,N,12111.6570,W,1,09,1.0,8.0,M,-31.9,M,,*58
$PYRTM,2024,124.833596982870,15.943244393021
$GPGGA,200021.00,3516.0505,N,12111.6598,W,1,09,1.0,10.4,M,-31.9,M,,*65
$PYRTM,2024,124.833608775694,15.943256185833
$GPGGA,200022.00,3516.0500,N,12111.6628,W,1,09,1.0,8.0,M,-31.9,M,,*56
$PYRTM,2024,124.833620477095,15.943267887234
$GPGGA,200023.00,3516.0492,N,12111.6656,W,1,09,1.0,6.5,M,-31.9,M,,*5F
$PYRTM,2024,124.833631703021,15.943279113160
$GPGGA,200024.00,3516.0483,N,12111.6683,W,1,09,1.0,6.0,M,-31.9,M,,*55
$PYRTM,2024,124.833643279803,15.943290689942
$GPGGA,200025.00,3516.0472,N,12111.6707,W,1,09,1.0,6.7,M,-31.9,M,,*50
$PYRTM,2024,124.833654853322,15.943302263461
$GPGGA,200026.00,3516.0461,N,12111.6734,W,1,09,1.0,6.3,M,-31.9,M,,*55
$PYRTM,2024,124.833666425822,15.943313835961
$GPGGA,200027.00,3516.0453,N,12111.6765,W,1,09,1.0,5.5,M,-31.9,M,,*54
$PYRTM,2024,124.833678000081,15.943325410220
$GPGGA,200028.00,3516.0446,N,12111.6793,W,1,09,1.0,6.5,M,-31.9,M,,*55
$PYRTM,2024,124.833689573981,15.943336984120
$GPGGA,200029.00,3516.0437,N,12111.6818,W,1,09,1.0,6.0,M,-31.9,M,,*5B
$PYRTM,2024,124.833701136285,15.943348546424
$GPGGA,200030.00,3516.0427,N,12111.6844,W,1,09,1.0,6.9,M,-31.9,M,,*52
$PYRTM,2024,124.833712725012,15.943360135150
$GPGGA,200031.00,3516.0417,N,12111.6872,W,1,09,1.0,5.9,M,-31.9,M,,*56
$PYRTM,2024,124.833724283715,15.943371693854
$GPGGA,200032.00,3516.0410,N,12111.6898,W,1,09,1.0,4.6,M,-31.9,M,,*58
$PYRTM,2024,124.833734481840,15.943381891979
$GPGGA,200033.00,3516.0403,N,12111.6924,W,1,09,1.0,3.9,M,-31.9,M,,*55
$PYRTM,2024,124.833746288738,15.943393698877
$GPGGA,200034.00,3516.0395,N,12111.6950,W,1,09,1.0,2.5,M,-31.9,M,,*54
$PYRTM,2024,124.833759020822,15.943406430961
$GPGGA,200035.00,3516.0386,N,12111.6975,W,1,09,1.0,1.1,M,-31.9,M,,*57
$PYRTM,2024,124.833770594491,15.943418004630
$GPGGA,200036.00,3516.0376,N,12111.7000,W,1,09,1.0,3.8,M,-31.9,M,,*5A
$PYRTM,2024,124.833782155116,15.943429565255
$GPGGA,200037.00,3516.0366,N,12111.7027,W,1,09,1.0,2.1,M,-31.9,M,,*57
$PYRTM,2024,124.833793729977,15.943441140116
$GPGGA,200038.00,3516.0359,N,12111.7054,W,1,09,1.0,2.8,M,-31.9,M,,*59
$PYRTM,2024,124.833805317002,15.943452727141
$GPGGA,200039.00,3516.0351,N,12111.7079,W,1,09,1.0,5.1,M,-31.9,M,,*51
$PYRTM,2024,124.833816889815,15.943464299954
$GPGGA,200040.00,3516.0342,N,12111.7104,W,1,09,1.0,5.8,M,-31.9,M,,*5F
$PYRTM,2024,124.833828465544,15.943475875683
$GPGGA,200041.00,3516.0333,N,12111.7131,W,1,09,1.0,5.3,M,-31.9,M,,*55
$PYRTM,2024,124.833840034410,15.943487444549
$GPGGA,200042.00,3516.0324,N,12111.7159,W,1,09,1.0,3.7,M,-31.9,M,,*5C
$PYRTM,2024,124.833851611933,15.943499022072
$GPGGA,200043.00,3516.0317,N,12111.7184,W,1,09,1.0,2.5,M,-31.9,M,,*5E
$PYRTM,2024,124.833863186169,15.943510596308
$GPGGA,200044.00,3516.0310,N,12111.7208,W,1,09,1.0,2.3,M,-31.9,M,,*5F
$PYRTM,2024,124.833874761030,15.943522171169
$GPGGA,200045.00,3516.0302,N,12111.7233,W,1,09,1.0,0.9,M,-31.9,M,,*5D
$PYRTM,2024,124.833886333681,15.943533743819
$GPGGA,200046.00,3516.0295,N,12111.7260,W,1,09,1.0,1.2,M,-31.9,M,,*5D
$PYRTM,2024,124.833897924062,15.943545334201
$GPGGA,200047.00,3516.0287,N,12111.7286,W,1,09,1.0,0.9,M,-31.9,M,,*5D
$PYRTM,2024,124.833909470081,15.943556880220
$GPGGA,200048.00,3516.0278,N,12111.7314,W,1,09,1.0,-0.6,M,-31.9,M,,*7A
$PYRTM,2024,124.833921071308,15.943568481447
$GPGGA,200049.00,3516.0267,N,12111.7342,W,1,09,1.0,-1.1,M,-31.9,M,,*70
$PYRTM,2024,124.833932630382,15.943580040521
$GPGGA,200050.00,3516.0255,N,12111.7369,W,1,09,1.0,-0.8,M,-31.9,M,,*78
$PYRTM,2024,124.833944206007,15.943591616146
$GPGGA,200051.00,3516.0244,N,12111.7396,W,1,09,1.0,-0.8,M,-31.9,M,,*79
$PYRTM,2024,124.833956244398,15.943603654537
$GPGGA,200052.00,3516.0236,N,12111.7423,W,1,09,1.0,-3.3,M,-31.9,M,,*7E
$PYRTM,2024,124.833967811470,15.943615221609
$GPGGA,200053.00,3516.0228,N,12111.7450,W,1,09,1.0,-2.5,M,-31.9,M,,*73
$PYRTM,2024,124.833979406134,15.943626816273
$GPGGA,200054.00,3516.0218,N,12111.7473,W,1,09,1.0,-1.8,M,-31.9,M,,*78
$PYRTM,2024,124.833990965382,15.943638375521
$GPGGA,200055.00,3516.0207,N,12111.7497,W,1,09,1.0,0.8,M,-31.9,M,,*51
$PYRTM,2024,124.834002540394,15.943649950532
$GPGGA,200056.00,3516.0198,N,12111.7524,W,1,09,1.0,-1.0,M,-31.9,M,,*7A
$PYRTM,2024,124.834014113264,15.943661523414
$GPGGA,200057.00,3516.0193,N,12111.7554,W,1,09,1.0,-1.1,M,-31.9,M,,*76
$PYRTM,2024,124.834025689213,15.943673099352
$GPGGA,200058.00,3516.0186,N,12111.7581,W,1,09,1.0,-0.8,M,-31.9,M,,*7D
$PYRTM,2024,124.834037261887,15.943684672025
$GPGGA,200059.00,3516.0175,N,12111.7606,W,1,09,1.0,-1.3,M,-31.9,M,,*76
$PYRTM,2024,124.834048836655,15.943696246794
$GPGGA,200100.00,3516.0164,N,12111.7631,W,1,09,1.0,-0.3,M,-31.9,M,,*7E
$PYRTM,2024,124.834060409838,15.943707819965
$GPGGA,200101.00,3516.0154,N,12111.7658,W,1,09,1.0,0.2,M,-31.9,M,,*5F
$PYRTM,2024,124.834071985162,15.943719395312
$GPGGA,200102.00,3516.0147,N,12111.7686,W,1,09,1.0,0.5,M,-31.9,M,,*5A
$PYRTM,2024,124.834082170498,15.943729580637
$GPGGA,200103.00,3516.0143,N,12111.7714,W,1,09,1.0,-0.8,M,-31.9,M,,*75
$PYRTM,2024,124.834093512257,15.943740922396
$GPGGA,200104.00,3516.0138,N,12111.7742,W,1,09,1.0,1.2,M,-31.9,M,,*5B
$PYRTM,2024,124.834106243796,15.943753653947
$GPGGA,200105.00,3516.0130,N,12111.7768,W,1,09,1.0,1.9,M,-31.9,M,,*51
$PYRTM,2024,124.834117819086,15.943765229225
$GPGGA,200106.00,3516.0120,N,12111.7794,W,1,09,1.0,3.0,M,-31.9,M,,*5B
$PYRTM,2024,124.834129393090,15.943776803229
$GPGGA,200107.00,3516.0111,N,12111.7820,W,1,09,1.0,4.3,M,-31.9,M,,*5C
$PYRTM,2024,124.834140960625,15.943788370764
$GPGGA,200108.00,3516.0105,N,12111.7848,W,1,09,1.0,4.7,M,-31.9,M,,*5C
$PYRTM,2024,124.834152544213,15.943799954352
$GPGGA,200109.00,3516.0099,N,12111.7878,W,1,09,1.0,4.8,M,-31.9,M,,*55
$PYRTM,2024,124.834164116250,15.943811526389
$GPGGA,200110.00,3516.0090,N,12111.7905,W,1,09,1.0,4.7,M,-31.9,M,,*50
$PYRTM,2024,124.834175690799,15.943823100938
$GPGGA,200111.00,3516.0079,N,12111.7928,W,1,09,1.0,3.6,M,-31.9,M,,*5F
$PYRTM,2024,124.834187261806,15.943834671944
$GPGGA,200112.00,3516.0069,N,12111.7952,W,1,09,1.0,3.3,M,-31.9,M,,*55
$PYRTM,2024,124.834198836991,15.943846247141
$GPGGA,200113.00,3516.0061,N,12111.7980,W,1,09,1.0,1.5,M,-31.9,M,,*57
$PYRTM,2024,124.834209484653,15.943856894792
$GPGGA,200114.00,3516.0055,N,12111.8008,W,1,09,1.0,2.0,M,-31.9,M,,*57
$PYRTM,2024,124.834221407616,15.943868817755
$GPGGA,200115.00,3516.0045,N,12111.8033,W,1,09,1.0,3.3,M,-31.9,M,,*5D
$PYRTM,2024,124.834232041296,15.943879451435
$GPGGA,200116.00,3516.0035,N,12111.8058,W,1,09,1.0,3.6,M,-31.9,M,,*51
$PYRTM,2024,124.834243151933,15.943890562072
$GPGGA,200117.00,3516.0026,N,12111.8083,W,1,09,1.0,3.2,M,-31.9,M,,*50
$PYRTM,2024,124.834254263067,15.943901673206
$GPGGA,200118.00,3516.0017,N,12111.8109,W,1,09,1.0,6.1,M,-31.9,M,,*58
$PYRTM,2024,124.834265373785,15.943912783924
$GPGGA,200119.00,3516.0008,N,12111.8135,W,1,09,1.0,4.3,M,-31.9,M,,*58
$PYRTM,2024,124.834276484931,15.943923895069
$GPGGA,200120.00,3515.9999,N,12111.8162,W,1,09,1.0,1.5,M,-31.9,M,,*58
$PYRTM,2024,124.834287596146,15.943935006285
$GPGGA,200121.00,3515.9992,N,12111.8188,W,1,09,1.0,2.0,M,-31.9,M,,*50
$PYRTM,2024,124.834299185938,15.943946596088
$GPGGA,200122.00,3515.9983,N,12111.8215,W,1,09,1.0,1.2,M,-31.9,M,,*55
$PYRTM,2024,124.834310296100,15.943957706238
$GPGGA,200123.00,3515.9973,N,12111.8239,W,1,09,1.0,1.8,M,-31.9,M,,*5F
$PYRTM,2024,124.834321406586,15.943968816725
$GPGGA,200124.00,3515.9963,N,12111.8262,W,1,09,1.0,4.6,M,-31.9,M,,*5C
$PYRTM,2024,124.834339334873,15.943986745012
$GPGGA,200125.00,3515.9957,N,12111.8290,W,1,09,1.0,2.1,M,-31.9,M,,*56
$PYRTM,2024,124.834350445567,15.943997855706
$GPGGA,200126.00,3515.9952,N,12111.8317,W,1,09,1.0,2.1,M,-31.9,M,,*5E
$PYRTM,2024,124.834361563241,15.944008973380
$GPGGA,200127.00,3515.9944,N,12111.8340,W,1,09,1.0,3.6,M,-31.9,M,,*5C
$PYRTM,2024,124.834372668843,15.944020078981
$GPGGA,200128.00,3515.9933,N,12111.8363,W,1,09,1.0,4.2,M,-31.9,M,,*51
$PYRTM,2024,124.834383779630,15.944031189769
$GPGGA,200129.00,3515.9923,N,12111.8390,W,1,09,1.0,5.1,M,-31.9,M,,*5F
$PYRTM,2024,124.834394892512,15.944042302650
$GPGGA,200130.00,3515.9915,N,12111.8416,W,1,09,1.0,3.3,M,-31.9,M,,*5F
$PYRTM,2024,124.834406003148,15.944053413287
$GPGGA,200131.00,3515.9908,N,12111.8442,W,1,09,1.0,3.6,M,-31.9,M,,*56
$PYRTM,2024,124.834417112454,15.944064522593
$GPGGA,200132.00,3515.9901,N,12111.8467,W,1,09,1.0,5.6,M,-31.9,M,,*5D
$PYRTM,2024,124.834432852847,15.944080262986
$GPGGA,200133.00,3515.9891,N,12111.8492,W,1,09,1.0,4.9,M,-31.9,M,,*50
$PYRTM,2024,124.834443964398,15.944091374537
$GPGGA,200134.00,3515.9881,N,12111.8519,W,1,09,1.0,3.2,M,-31.9,M,,*58
$PYRTM,2024,124.834455074711,15.944102484850
$GPGGA,200135.00,3515.9873,N,12111.8546,W,1,09,1.0,2.0,M,-31.9,M,,*5D
$PYRTM,2024,124.834466187072,15.944113597211
$GPGGA,200136.00,3515.9866,N,12111.8572,W,1,09,1.0,1.8,M,-31.9,M,,*56
$PYRTM,2024,124.834477298148,15.944124708287
$GPGGA,200137.00,3515.9858,N,12111.8598,W,1,09,1.0,2.4,M,-31.9,M,,*51
$PYRTM,2024,124.834488408831,15.944135818970
$GPGGA,200138.00,3515.9849,N,12111.8623,W,1,09,1.0,-0.3,M,-31.9,M,,*75
$PYRTM,2024,124.834499766447,15.944147176586
$GPGGA,200139.00,3515.9840,N,12111.8647,W,1,09,1.0,-0.5,M,-31.9,M,,*79
$PYRTM,2024,124.834511327940,15.944158738090
$GPGGA,200140.00,3515.9833,N,12111.8674,W,1,09,1.0,1.0,M,-31.9,M,,*5A
$PYRTM,2024,124.834522900903,15.944170311042
$GPGGA,200141.00,3515.9825,N,12111.8700,W,1,09,1.0,1.1,M,-31.9,M,,*5F
$PYRTM,2024,124.834534475602,15.944181885741
$GPGGA,200142.00,3515.9817,N,12111.8725,W,1,09,1.0,3.1,M,-31.9,M,,*58
$PYRTM,2024,124.834546076655,15.944193486794
$GPGGA,200143.00,3515.9809,N,12111.8752,W,1,09,1.0,4.3,M,-31.9,M,,*53
$PYRTM,2024,124.834557622986,15.944205033125
$GPGGA,200144.00,3515.9801,N,12111.8777,W,1,09,1.0,3.7,M,-31.9,M,,*58
$PYRTM,2024,124.834569213912,15.944216624051
$GPGGA,200145.00,3515.9794,N,12111.8802,W,1,09,1.0,2.9,M,-31.9,M,,*58
$PYRTM,2024,124.834580780104,15.944228190243
$GPGGA,200146.00,3515.9786,N,12111.8828,W,1,09,1.0,1.7,M,-31.9,M,,*5D
$PYRTM,2024,124.834592358715,15.944239768854
$GPGGA,200147.00,3515.9776,N,12111.8854,W,1,09,1.0,2.5,M,-31.9,M,,*59
$PYRTM,2024,124.834603921400,15.944251331539
$GPGGA,200148.00,3515.9767,N,12111.8878,W,1,09,1.0,6.5,M,-31.9,M,,*5C
$PYRTM,2024,124.834615507998,15.944262918137
$GPGGA,200149.00,3515.9759,N,12111.8906,W,1,09,1.0,4.9,M,-31.9,M,,*56
$PYRTM,2024,124.834627082222,15.944274492361
$GPGGA,200150.00,3515.9751,N,12111.8934,W,1,09,1.0,1.9,M,-31.9,M,,*52
$PYRTM,2024,124.834638655463,15.944286065602
$GPGGA,200151.00,3515.9740,N,12111.8959,W,1,09,1.0,1.3,M,-31.9,M,,*52
$PYRTM,2024,124.834650229687,15.944297639826
$GPGGA,200152.00,3515.9729,N,12111.8984,W,1,09,1.0,2.8,M,-31.9,M,,*56
$PYRTM,2024,124.834661806088,15.944309216227
$GPGGA,200153.00,3515.9720,N,12111.9012,W,1,09,1.0,2.4,M,-31.9,M,,*55
$PYRTM,2024,124.834673379236,15.944320789387
$GPGGA,200154.00,3515.9712,N,12111.9041,W,1,09,1.0,2.5,M,-31.9,M,,*54
$PYRTM,2024,124.834684951377,15.944332361516
$GPGGA,200155.00,3515.9702,N,12111.9068,W,1,09,1.0,3.2,M,-31.9,M,,*59
$PYRTM,2024,124.834696525208,15.944343935347
$GPGGA,200156.00,3515.9691,N,12111.9094,W,1,09,1.0,3.7,M,-31.9,M,,*57
$PYRTM,2024,124.834707970301,15.944355380451
$GPGGA,200157.00,3515.9680,N,12111.9120,W,1,09,1.0,1.7,M,-31.9,M,,*5A
$PYRTM,2024,124.834719661690,15.944367071829
$GPGGA,200158.00,3515.9669,N,12111.9146,W,1,09,1.0,-0.6,M,-31.9,M,,*7F
$PYRTM,2024,124.834731250174,15.944378660312
$GPGGA,200159.00,3515.9661,N,12111.9172,W,1,09,1.0,-0.4,M,-31.9,M,,*73
$PYRTM,2024,124.834742707569,15.944390117708
$GPGGA,200200.00,3515.9652,N,12111.9198,W,1,09,1.0,2.0,M,-31.9,M,,*53
$PYRTM,2024,124.834754266030,15.944401676181
$GPGGA,200201.00,3515.9644,N,12111.9224,W,1,09,1.0,3.5,M,-31.9,M,,*55
$PYRTM,2024,124.834765855116,15.944413265255
$GPGGA,200202.00,3515.9634,N,12111.9250,W,1,09,1.0,3.4,M,-31.9,M,,*53
$PYRTM,2024,124.834776489514,15.944423899653
$GPGGA,200203.00,3515.9624,N,12111.9276,W,1,09,1.0,3.4,M,-31.9,M,,*57
$PYRTM,2024,124.834787971991,15.944435382130
$GPGGA,200204.00,3515.9614,N,12111.9302,W,1,09,1.0,3.2,M,-31.9,M,,*57
$PYRTM,2024,124.834800564225,15.944447974363
$GPGGA,200205.00,3515.9605,N,12111.9330,W,1,09,1.0,4.8,M,-31.9,M,,*5A
$PYRTM,2024,124.834812262211,15.944459672350
$GPGGA,200206.00,3515.9597,N,12111.9357,W,1,09,1.0,6.1,M,-31.9,M,,*5B
$PYRTM,2024,124.834823711412,15.944471121551
$GPGGA,200207.00,3515.9589,N,12111.9383,W,1,09,1.0,6.4,M,-31.9,M,,*59
$PYRTM,2024,124.834835300035,15.944482710174
$GPGGA,200208.00,3515.9581,N,12111.9409,W,1,09,1.0,5.3,M,-31.9,M,,*5F
$PYRTM,2024,124.834846860058,15.944494270197
$GPGGA,200209.00,3515.9571,N,12111.9436,W,1,09,1.0,3.8,M,-31.9,M,,*50
$PYRTM,2024,124.834858449734,15.944505859873
$GPGGA,200210.00,3515.9560,N,12111.9459,W,1,09,1.0,7.4,M,-31.9,M,,*59
$PYRTM,2024,124.834870009549,15.944517419687
$GPGGA,200211.00,3515.9549,N,12111.9484,W,1,09,1.0,5.2,M,-31.9,M,,*57
$PYRTM,2024,124.834881596377,15.944529006516
$GPGGA,200212.00,3515.9543,N,12111.9512,W,1,09,1.0,3.8,M,-31.9,M,,*5C
$PYRTM,2024,124.834893157338,15.944540567477
$GPGGA,200213.00,3515.9536,N,12111.9539,W,1,09,1.0,4.3,M,-31.9,M,,*5A
$PYRTM,2024,124.834904745961,15.944552156100
$GPGGA,200214.00,3515.9525,N,12111.9561,W,1,09,1.0,4.5,M,-31.9,M,,*54
$PYRTM,2024,124.834916304421,15.944563714560
$GPGGA,200215.00,3515.9513,N,12111.9582,W,1,09,1.0,4.7,M,-31.9,M,,*5F
$PYRTM,2024,124.834927893484,15.944575303623
$GPGGA,200216.00,3515.9502,N,12111.9609,W,1,09,1.0,4.6,M,-31.9,M,,*5D
$PYRTM,2024,124.834939454155,15.944586864294
$GPGGA,200217.00,3515.9492,N,12111.9637,W,1,09,1.0,4.7,M,-31.9,M,,*58
$PYRTM,2024,124.834951037049,15.944598447188
$GPGGA,200218.00,3515.9485,N,12111.9661,W,1,09,1.0,5.9,M,-31.9,M,,*5D
$PYRTM,2024,124.834962731308,15.944610141458
$GPGGA,200219.00,3515.9477,N,12111.9685,W,1,09,1.0,9.0,M,-31.9,M,,*5E
$PYRTM,2024,124.834974185370,15.944621595521
$GPGGA,200220.00,3515.9467,N,12111.9711,W,1,09,1.0,7.2,M,-31.9,M,,*55
$PYRTM,2024,124.834985750093,15.944633160231
$GPGGA,200221.00,3515.9456,N,12111.9737,W,1,09,1.0,7.5,M,-31.9,M,,*55
$PYRTM,2024,124.834997333854,15.944644743993
$GPGGA,200222.00,3515.9446,N,12111.9762,W,1,09,1.0,7.6,M,-31.9,M,,*54
$PYRTM,2024,124.835008898738,15.944656308877
$GPGGA,200223.00,3515.9438,N,12111.9788,W,1,09,1.0,4.3,M,-31.9,M,,*5E
$PYRTM,2024,124.835020483125,15.944667893264
$GPGGA,200224.00,3515.9429,N,12111.9814,W,1,09,1.0,5.7,M,-31.9,M,,*56
$PYRTM,2024,124.835032045880,15.944679456019
$GPGGA,200225.00,3515.9418,N,12111.9838,W,1,09,1.0,6.8,M,-31.9,M,,*57
$PYRTM,2024,124.835043635833,15.944691045972
$GPGGA,200226.00,3515.9406,N,12111.9862,W,1,09,1.0,4.1,M,-31.9,M,,*5F
$PYRTM,2024,124.835055196898,15.944702607037
$GPGGA,200227.00,3515.9395,N,12111.9887,W,1,09,1.0,1.0,M,-31.9,M,,*5C
$PYRTM,2024,124.835066779988,15.944714190127
$GPGGA,200228.00,3515.9386,N,12111.9913,W,1,09,1.0,1.9,M,-31.9,M,,*54
$PYRTM,2024,124.835078344120,15.944725754259
$GPGGA,200229.00,3515.9374,N,12111.9938,W,1,09,1.0,5.3,M,-31.9,M,,*5F
$PYRTM,2024,124.835089930440,15.944737340567
$GPGGA,200230.00,3515.9362,N,12111.9962,W,1,09,1.0,2.8,M,-31.9,M,,*53
$PYRTM,2024,124.835101491366,15.944748901505
$GPGGA,200231.00,3515.9350,N,12111.9989,W,1,09,1.0,1.2,M,-31.9,M,,*5F
$PYRTM,2024,124.835113081123,15.944760491262
$GPGGA,200232.00,3515.9341,N,12112.0015,W,1,09,1.0,1.8,M,-31.9,M,,*50
$PYRTM,2024,124.835123381678,15.944770791817
$GPGGA,200233.00,3515.9332,N,12112.0039,W,1,09,1.0,3.7,M,-31.9,M,,*56
$PYRTM,2024,124.835135200359,15.944782610498
$GPGGA,200234.00,3515.9321,N,12112.0063,W,1,09,1.0,4.4,M,-31.9,M,,*58
$PYRTM,2024,124.835147788762,15.944795198900
$GPGGA,200235.00,3515.9310,N,12112.0089,W,1,09,1.0,1.5,M,-31.9,M,,*5B
$PYRTM,2024,124.835159492106,15.944806902257
$GPGGA,200236.00,3515.9300,N,12112.0116,W,1,09,1.0,-1.3,M,-31.9,M,,*75
$PYRTM,2024,124.835171069317,15.944818479456
$GPGGA,200237.00,3515.9290,N,12112.0141,W,1,09,1.0,-0.5,M,-31.9,M,,*79
$PYRTM,2024,124.835182524965,15.944829935104
$GPGGA,200238.00,3515.9280,N,12112.0165,W,1,09,1.0,0.9,M,-31.9,M,,*50
$PYRTM,2024,124.835194202998,15.944841613137
$GPGGA,200239.00,3515.9271,N,12112.0190,W,1,09,1.0,-1.3,M,-31.9,M,,*73
$PYRTM,2024,124.835205788981,15.944853199120
$GPGGA,200240.00,3515.9262,N,12112.0215,W,1,09,1.0,-0.3,M,-31.9,M,,*70
$PYRTM,2024,124.835217232384,15.944864642523
$GPGGA,200241.00,3515.9253,N,12112.0241,W,1,09,1.0,3.7,M,-31.9,M,,*58
$PYRTM,2024,124.835228820752,15.944876230891
$GPGGA,200242.00,3515.9244,N,12112.0267,W,1,09,1.0,2.0,M,-31.9,M,,*5F
$PYRTM,2024,124.835240514664,15.944887924803
$GPGGA,200243.00,3515.9234,N,12112.0292,W,1,09,1.0,-0.8,M,-31.9,M,,*74
$PYRTM,2024,124.835251970174,15.944899380313
$GPGGA,200244.00,3515.9222,N,12112.0316,W,1,09,1.0,2.3,M,-31.9,M,,*5D
$PYRTM,2024,124.835263529803,15.944910939942
$GPGGA,200245.00,3515.9211,N,12112.0338,W,1,09,1.0,4.6,M,-31.9,M,,*53
$PYRTM,2024,124.835275118704,15.944922528854
$GPGGA,200246.00,3515.9201,N,12112.0364,W,1,09,1.0,1.4,M,-31.9,M,,*5F
$PYRTM,2024,124.835286677442,15.944934087581
$GPGGA,200247.00,3515.9191,N,12112.0392,W,1,09,1.0,4.1,M,-31.9,M,,*5D
$PYRTM,2024,124.835298261146,15.944945671285
$GPGGA,200248.00,3515.9179,N,12112.0414,W,1,09,1.0,3.4,M,-31.9,M,,*5F
$PYRTM,2024,124.835309826806,15.944957236944
$GPGGA,200249.00,3515.9164,N,12112.0435,W,1,09,1.0,2.6,M,-31.9,M,,*52
$PYRTM,2024,124.835321414711,15.944968824850
$GPGGA,200250.00,3515.9152,N,12112.0459,W,1,09,1.0,1.5,M,-31.9,M,,*55
$PYRTM,2024,124.835332975961,15.944980386100
$GPGGA,200251.00,3515.9144,N,12112.0485,W,1,09,1.0,1.0,M,-31.9,M,,*57
$PYRTM,2024,124.835344562361,15.944991972512
$GPGGA,200252.00,3515.9135,N,12112.0510,W,1,09,1.0,1.4,M,-31.9,M,,*5B
$PYRTM,2024,124.835356125243,15.945003535382
$GPGGA,200253.00,3515.9124,N,12112.0533,W,1,09,1.0,2.3,M,-31.9,M,,*5F
$PYRTM,2024,124.835367713252,15.945015123391
$GPGGA,200254.00,3515.9113,N,12112.0558,W,1,09,1.0,1.9,M,-31.9,M,,*58
$PYRTM,2024,124.835379271701,15.945026681840
$GPGGA,200255.00,3515.9103,N,12112.0583,W,1,09,1.0,0.2,M,-31.9,M,,*54
$PYRTM,2024,124.835390975764,15.945038385914
$GPGGA,200256.00,3515.9093,N,12112.0608,W,1,09,1.0,-0.8,M,-31.9,M,,*78
$PYRTM,2024,124.835402549664,15.945049959803
$GPGGA,200257.00,3515.9083,N,12112.0633,W,1,09,1.0,-0.5,M,-31.9,M,,*7D
$PYRTM,2024,124.835414008194,15.945061418333
$GPGGA,200258.00,3515.9075,N,12112.0658,W,1,09,1.0,2.1,M,-31.9,M,,*5D
$PYRTM,2024,124.835425568692,15.945072978831
$GPGGA,200259.00,3515.9066,N,12112.0686,W,1,09,1.0,0.5,M,-31.9,M,,*5B
$PYRTM,2024,124.835437155567,15.945084565706
$GPGGA,200300.00,3515.9056,N,12112.0712,W,1,09,1.0,0.5,M,-31.9,M,,*59
$PYRTM,2024,124.835448716331,15.945096126470
$GPGGA,200301.00,3515.9045,N,12112.0735,W,1,09,1.0,2.8,M,-31.9,M,,*50
$PYRTM,2024,124.835460305185,15.945107715324
$GPGGA,200302.00,3515.9034,N,12112.0759,W,1,09,1.0,2.8,M,-31.9,M,,*5F
$PYRTM,2024,124.835470605116,15.945118015255
$GPGGA,200303.00,3515.9025,N,12112.0786,W,1,09,1.0,2.6,M,-31.9,M,,*52
$PYRTM,2024,124.835482410660,15.945129820799
$GPGGA,200304.00,3515.9015,N,12112.0813,W,1,09,1.0,2.7,M,-31.9,M,,*54
$PYRTM,2024,124.835495013993,15.945142424132
$GPGGA,200305.00,3515.9006,N,12112.0837,W,1,09,1.0,6.3,M,-31.9,M,,*51
$PYRTM,2024,124.835506602361,15.945154012500
$GPGGA,200306.00,3515.8996,N,12112.0862,W,1,09,1.0,4.5,M,-31.9,M,,*57
$PYRTM,2024,124.835518161366,15.945165571505
$GPGGA,200307.00,3515.8985,N,12112.0887,W,1,09,1.0,5.5,M,-31.9,M,,*5E
$PYRTM,2024,124.835529750231,15.945177160370
$GPGGA,200308.00,3515.8973,N,12112.0910,W,1,09,1.0,3.7,M,-31.9,M,,*53
$PYRTM,2024,124.835541309039,15.945188719178
$GPGGA,200309.00,3515.8963,N,12112.0934,W,1,09,1.0,4.0,M,-31.9,M,,*55
$PYRTM,2024,124.835552892975,15.945200303113
$GPGGA,200310.00,3515.8956,N,12112.0960,W,1,09,1.0,3.0,M,-31.9,M,,*5D
$PYRTM,2024,124.835564459016,15.945211869155
$GPGGA,200311.00,3515.8950,N,12112.0986,W,1,09,1.0,3.8,M,-31.9,M,,*5A
$PYRTM,2024,124.835576041470,15.945223451609
$GPGGA,200312.00,3515.8937,N,12112.1011,W,1,09,1.0,3.2,M,-31.9,M,,*54
$PYRTM,2024,124.835587607037,15.945235017176
$GPGGA,200313.00,3515.8922,N,12112.1035,W,1,09,1.0,4.0,M,-31.9,M,,*52
$PYRTM,2024,124.835599194155,15.945246604294
$GPGGA,200314.00,3515.8908,N,12112.1058,W,1,09,1.0,4.3,M,-31.9,M,,*55
$PYRTM,2024,124.835610755266,15.945258165405
$GPGGA,200315.00,3515.8899,N,12112.1085,W,1,09,1.0,1.4,M,-31.9,M,,*5F
$PYRTM,2024,124.835622339745,15.945269749884
$GPGGA,200316.00,3515.8893,N,12112.1111,W,1,09,1.0,1.5,M,-31.9,M,,*5B
$PYRTM,2024,124.835633901412,15.945281311551
$GPGGA,200317.00,3515.8884,N,12112.1136,W,1,09,1.0,2.2,M,-31.9,M,,*5D
$PYRTM,2024,124.835645593519,15.945293003657
$GPGGA,200318.00,3515.8873,N,12112.1160,W,1,09,1.0,2.4,M,-31.9,M,,*5F
$PYRTM,2024,124.835656257338,15.945303667477
$GPGGA,200319.00,3515.8862,N,12112.1184,W,1,09,1.0,2.7,M,-31.9,M,,*57
$PYRTM,2024,124.835668048079,15.945315458218
$GPGGA,200320.00,3515.8853,N,12112.1210,W,1,09,1.0,2.1,M,-31.9,M,,*57
$PYRTM,2024,124.835678824757,15.945326234896
$GPGGA,200321.00,3515.8846,N,12112.1236,W,1,09,1.0,1.5,M,-31.9,M,,*51
$PYRTM,2024,124.835690384144,15.945337794282
$GPGGA,200322.00,3515.8838,N,12112.1260,W,1,09,1.0,3.1,M,-31.9,M,,*5E
$PYRTM,2024,124.835701496088,15.945348906227
$GPGGA,200323.00,3515.8827,N,12112.1284,W,1,09,1.0,4.2,M,-31.9,M,,*5F
$PYRTM,2024,124.835712607778,15.945360017917
$GPGGA,200324.00,3515.8816,N,12112.1309,W,1,09,1.0,0.0,M,-31.9,M,,*58
$PYRTM,2024,124.835723718553,15.945371128692
$GPGGA,200325.00,3515.8806,N,12112.1334,W,1,09,1.0,-2.5,M,-31.9,M,,*7C
$PYRTM,2024,124.835734959352,15.945382369491
$GPGGA,200326.00,3515.8796,N,12112.1357,W,1,09,1.0,-2.1,M,-31.9,M,,*78
$PYRTM,2024,124.835746073912,15.945393484051
$GPGGA,200327.00,3515.8786,N,12112.1381,W,1,09,1.0,-2.8,M,-31.9,M,,*7A
$PYRTM,2024,124.835757182083,15.945404592222
$GPGGA,200328.00,3515.8776,N,12112.1406,W,1,09,1.0,1.7,M,-31.9,M,,*53
$PYRTM,2024,124.835768292431,15.945415702569
$GPGGA,200329.00,3515.8766,N,12112.1431,W,1,09,1.0,1.7,M,-31.9,M,,*57
$PYRTM,2024,124.835786118600,15.945433528738
$GPGGA,200330.00,3515.8756,N,12112.1456,W,1,09,1.0,2.3,M,-31.9,M,,*5A
$PYRTM,2024,124.835797229896,15.945444640035
$GPGGA,200331.00,3515.8746,N,12112.1480,W,1,09,1.0,1.5,M,-31.9,M,,*54
$PYRTM,2024,124.835808335694,15.945455745845
$GPGGA,200332.00,3515.8737,N,12112.1505,W,1,09,1.0,0.9,M,-31.9,M,,*50
$PYRTM,2024,124.835824083912,15.945471494051
$GPGGA,200333.00,3515.8730,N,12112.1530,W,1,09,1.0,1.4,M,-31.9,M,,*5C
$PYRTM,2024,124.835835199595,15.945482609734
$GPGGA,200334.00,3515.8722,N,12112.1555,W,1,09,1.0,2.2,M,-31.9,M,,*5E
$PYRTM,2024,124.835846302338,15.945493712477
$GPGGA,200335.00,3515.8713,N,12112.1581,W,1,09,1.0,2.4,M,-31.9,M,,*52
$PYRTM,2024,124.835857414086,15.945504824225
$GPGGA,200336.00,3515.8704,N,12112.1606,W,1,09,1.0,2.9,M,-31.9,M,,*56
$PYRTM,2024,124.835868525845,15.945515935984
$GPGGA,200337.00,3515.8694,N,12112.1631,W,1,09,1.0,2.1,M,-31.9,M,,*53
$PYRTM,2024,124.835879637106,15.945527047245
$GPGGA,200338.00,3515.8682,N,12112.1654,W,1,09,1.0,3.9,M,-31.9,M,,*51
$PYRTM,2024,124.835890733900,15.945538144039
$GPGGA,200339.00,3515.8672,N,12112.1680,W,1,09,1.0,3.4,M,-31.9,M,,*5B
$PYRTM,2024,124.835901873183,15.945549283322
$GPGGA,200340.00,3515.8662,N,12112.1708,W,1,09,1.0,2.0,M,-31.9,M,,*50
$PYRTM,2024,124.835912956759,15.945560366898
$GPGGA,200341.00,3515.8652,N,12112.1734,W,1,09,1.0,2.1,M,-31.9,M,,*5C
$PYRTM,2024,124.835924080625,15.945571490764
$GPGGA,200342.00,3515.8640,N,12112.1757,W,1,09,1.0,3.3,M,-31.9,M,,*5A
$PYRTM,2024,124.835935641725,15.945583051863
$GPGGA,200343.00,3515.8628,N,12112.1782,W,1,09,1.0,2.4,M,-31.9,M,,*5B
$PYRTM,2024,124.835946756192,15.945594166331
$GPGGA,200344.00,3515.8617,N,12112.1808,W,1,09,1.0,3.3,M,-31.9,M,,*5B
$PYRTM,2024,124.835957977639,15.945605387778
$GPGGA,200345.00,3515.8606,N,12112.1833,W,1,09,1.0,1.7,M,-31.9,M,,*54
$PYRTM,2024,124.835969568866,15.945616979005
$GPGGA,200346.00,3515.8595,N,12112.1858,W,1,09,1.0,2.6,M,-31.9,M,,*51
$PYRTM,2024,124.835981127708,15.945628537847
$GPGGA,200347.00,3515.8586,N,12112.1883,W,1,09,1.0,3.3,M,-31.9,M,,*50
$PYRTM,2024,124.835992714780,15.945640124919
$GPGGA,200348.00,3515.8577,N,12112.1910,W,1,09,1.0,1.6,M,-31.9,M,,*5D
$PYRTM,2024,124.836004275104,15.945651685243
$GPGGA,200349.00,3515.8567,N,12112.1935,W,1,09,1.0,1.7,M,-31.9,M,,*5B
$PYRTM,2024,124.836015864248,15.945663274387
$GPGGA,200350.00,3515.8556,N,12112.1958,W,1,09,1.0,1.3,M,-31.9,M,,*5E
$PYRTM,2024,124.836027423218,15.945674833356
$GPGGA,200351.00,3515.8545,N,12112.1982,W,1,09,1.0,1.5,M,-31.9,M,,*5C
$PYRTM,2024,124.836039012431,15.945686422569
$GPGGA,200352.00,3515.8536,N,12112.2008,W,1,09,1.0,1.6,M,-31.9,M,,*50
$PYRTM,2024,124.836050572037,15.945697982176
$GPGGA,200353.00,3515.8526,N,12112.2035,W,1,09,1.0,2.0,M,-31.9,M,,*5B
$PYRTM,2024,124.836062160602,15.945709570741
$GPGGA,200354.00,3515.8515,N,12112.2060,W,1,09,1.0,5.3,M,-31.9,M,,*58
$PYRTM,2024,124.836073719769,15.945721129919
$GPGGA,200355.00,3515.8502,N,12112.2085,W,1,09,1.0,4.5,M,-31.9,M,,*53
$PYRTM,2024,124.836085310185,15.945732720313
$GPGGA,200356.00,3515.8490,N,12112.2110,W,1,09,1.0,0.9,M,-31.9,M,,*5F
$PYRTM,2024,124.836096868102,15.945744278241
$GPGGA,200357.00,3515.8480,N,12112.2136,W,1,09,1.0,2.5,M,-31.9,M,,*55
$PYRTM,2024,124.836108456863,15.945755867002
$GPGGA,200358.00,3515.8470,N,12112.2163,W,1,09,1.0,3.0,M,-31.9,M,,*51
$PYRTM,2024,124.836120016019,15.945767426157
$GPGGA,200359.00,3515.8460,N,12112.2189,W,1,09,1.0,3.5,M,-31.9,M,,*50
$PYRTM,2024,124.836131607477,15.945779017616
$GPGGA,200400.00,3515.8450,N,12112.2216,W,1,09,1.0,4.8,M,-31.9,M,,*57
$PYRTM,2024,124.836143164641,15.945790574780
$GPGGA,200401.00,3515.8440,N,12112.2243,W,1,09,1.0,6.6,M,-31.9,M,,*5B
$PYRTM,2024,124.836154753877,15.945802164016
$GPGGA,200402.00,3515.8429,N,12112.2268,W,1,09,1.0,4.8,M,-31.9,M,,*52
$PYRTM,2024,124.836165054213,15.945812464352
$GPGGA,200403.00,3515.8420,N,12112.2294,W,1,09,1.0,5.2,M,-31.9,M,,*52
$PYRTM,2024,124.836176875301,15.945824285440
$GPGGA,200404.00,3515.8411,N,12112.2320,W,1,09,1.0,5.3,M,-31.9,M,,*58
$PYRTM,2024,124.836189462234,15.945836872373
$GPGGA,200405.00,3515.8402,N,12112.2346,W,1,09,1.0,4.1,M,-31.9,M,,*58
$PYRTM,2024,124.836201052153,15.945848462292
$GPGGA,200406.00,3515.8392,N,12112.2372,W,1,09,1.0,3.8,M,-31.9,M,,*5C
$PYRTM,2024,124.836212609630,15.945860019769
$GPGGA,200407.00,3515.8381,N,12112.2395,W,1,09,1.0,1.5,M,-31.9,M,,*59
$PYRTM,2024,124.836224197951,15.945871608090
$GPGGA,200408.00,3515.8372,N,12112.2419,W,1,09,1.0,2.8,M,-31.9,M,,*57
$PYRTM,2024,124.836235757523,15.945883167662
$GPGGA,200409.00,3515.8363,N,12112.2447,W,1,09,1.0,2.7,M,-31.9,M,,*52
$PYRTM,2024,124.836247346308,15.945894756447
$GPGGA,200410.00,3515.8353,N,12112.2473,W,1,09,1.0,2.8,M,-31.9,M,,*51
$PYRTM,2024,124.836258906794,15.945906316933
$GPGGA,200411.00,3515.8342,N,12112.2497,W,1,09,1.0,3.7,M,-31.9,M,,*54
$PYRTM,2024,124.836270495035,15.945917905174
$GPGGA,200412.00,3515.8330,N,12112.2520,W,1,09,1.0,2.8,M,-31.9,M,,*51
$PYRTM,2024,124.836282054838,15.945929464977
$GPGGA,200413.00,3515.8320,N,12112.2546,W,1,09,1.0,2.2,M,-31.9,M,,*5B
$PYRTM,2024,124.836293643438,15.945941053576
$GPGGA,200414.00,3515.8312,N,12112.2571,W,1,09,1.0,2.4,M,-31.9,M,,*5F
$PYRTM,2024,124.836305203623,15.945952613762
$GPGGA,200415.00,3515.8304,N,12112.2596,W,1,09,1.0,3.5,M,-31.9,M,,*50
$PYRTM,2024,124.836316791771,15.945964201910
$GPGGA,200416.00,3515.8293,N,12112.2619,W,1,09,1.0,2.7,M,-31.9,M,,*5B
$PYRTM,2024,124.836328351065,15.945975761204
$GPGGA,200417.00,3515.8281,N,12112.2643,W,1,09,1.0,1.9,M,-31.9,M,,*5B
$PYRTM,2024,124.836339940509,15.945987350648
$GPGGA,200418.00,3515.8271,N,12112.2668,W,1,09,1.0,1.2,M,-31.9,M,,*59
$PYRTM,2024,124.836351501609,15.945998911748
$GPGGA,200419.00,3515.8264,N,12112.2694,W,1,09,1.0,3.3,M,-31.9,M,,*5C
$PYRTM,2024,124.836363087975,15.946010498113
$GPGGA,200420.00,3515.8256,N,12112.2720,W,1,09,1.0,3.4,M,-31.9,M,,*5E
$PYRTM,2024,124.836374648102,15.946022058241
$GPGGA,200421.00,3515.8246,N,12112.2747,W,1,09,1.0,3.3,M,-31.9,M,,*58
$PYRTM,2024,124.836386236111,15.946033646250
$GPGGA,200422.00,3515.8236,N,12112.2773,W,1,09,1.0,3.1,M,-31.9,M,,*59
$PYRTM,2024,124.836397796563,15.946045206701
$GPGGA,200423.00,3515.8227,N,12112.2799,W,1,09,1.0,3.2,M,-31.9,M,,*5F
$PYRTM,2024,124.836409385590,15.946056795741
$GPGGA,200424.00,3515.8218,N,12112.2827,W,1,09,1.0,1.8,M,-31.9,M,,*56
$PYRTM,2024,124.836420944838,15.946068354977
$GPGGA,200425.00,3515.8209,N,12112.2854,W,1,09,1.0,1.9,M,-31.9,M,,*52
$PYRTM,2024,124.836432533252,15.946079943391
$GPGGA,200426.00,3515.8199,N,12112.2880,W,1,09,1.0,1.4,M,-31.9,M,,*5F
$PYRTM,2024,124.836444104826,15.946091514965
$GPGGA,200427.00,3515.8190,N,12112.2904,W,1,09,1.0,2.7,M,-31.9,M,,*5A
$PYRTM,2024,124.836455681458,15.946103091597
$GPGGA,200428.00,3515.8181,N,12112.2928,W,1,09,1.0,4.3,M,-31.9,M,,*59
$PYRTM,2024,124.836467243310,15.946114653449
$GPGGA,200429.00,3515.8170,N,12112.2955,W,1,09,1.0,3.2,M,-31.9,M,,*5A
$PYRTM,2024,124.836478830394,15.946126240532
$GPGGA,200430.00,3515.8159,N,12112.2981,W,1,09,1.0,0.8,M,-31.9,M,,*59
$PYRTM,2024,124.836490390116,15.946137800255
$GPGGA,200431.00,3515.8146,N,12112.3006,W,1,09,1.0,3.3,M,-31.9,M,,*59
$PYRTM,2024,124.836501977106,15.946149387245
$GPGGA,200432.00,3515.8136,N,12112.3031,W,1,09,1.0,3.7,M,-31.9,M,,*5D
$PYRTM,2024,124.836512614051,15.946160024190
$GPGGA,200433.00,3515.8126,N,12112.3058,W,1,09,1.0,4.8,M,-31.9,M,,*5A
$PYRTM,2024,124.836524087731,15.946171497870
$GPGGA,200434.00,3515.8115,N,12112.3085,W,1,08,1.0,4.3,M,-31.9,M,,*57
$PYRTM,2024,124.836536687685,15.946184097824
$GPGGA,200435.00,3515.8104,N,12112.3109,W,1,08,1.0,4.2,M,-31.9,M,,*52
$PYRTM,2024,124.836548288588,15.946195698727
$GPGGA,200436.00,3515.8093,N,12112.3132,W,1,08,1.0,5.5,M,-31.9,M,,*50
$PYRTM,2024,124.836559834907,15.946207245046
$GPGGA,200437.00,3515.8081,N,12112.3157,W,1,08,1.0,3.2,M,-31.9,M,,*50
$PYRTM,2024,124.836571424074,15.946218834225
$GPGGA,200438.00,3515.8072,N,12112.3182,W,1,08,1.0,2.5,M,-31.9,M,,*5D
$PYRTM,2024,124.836582985208,15.946230395347
$GPGGA,200439.00,3515.8063,N,12112.3208,W,1,08,1.0,3.3,M,-31.9,M,,*5A
$PYRTM,2024,124.836594574213,15.946241984352
$GPGGA,200440.00,3515.8055,N,12112.3235,W,1,08,1.0,3.8,M,-31.9,M,,*54
$PYRTM,2024,124.836606132940,15.946253543090
$GPGGA,200441.00,3515.8043,N,12112.3260,W,1,08,1.0,3.4,M,-31.9,M,,*5E
$PYRTM,2024,124.836617720069,15.946265130208
$GPGGA,200442.00,3515.8031,N,12112.3284,W,1,08,1.0,2.3,M,-31.9,M,,*54
$PYRTM,2024,124.836629396262,15.946276806400
$GPGGA,200443.00,3515.8022,N,12112.3310,W,1,08,1.0,-0.5,M,-31.9,M,,*72
$PYRTM,2024,124.836640863611,15.946288273750
$GPGGA,200444.00,3515.8014,N,12112.3335,W,1,08,1.0,1.0,M,-31.9,M,,*5E
$PYRTM,2024,124.836652428854,15.946299838993
$GPGGA,200445.00,3515.8004,N,12112.3361,W,1,08,1.0,2.6,M,-31.9,M,,*5A
$PYRTM,2024,124.836664012685,15.946311422836
$GPGGA,200446.00,3515.7990,N,12112.3387,W,1,08,1.0,3.8,M,-31.9,M,,*55
$PYRTM,2024,124.836675578831,15.946322988981
$GPGGA,200447.00,3515.7978,N,12112.3412,W,1,08,1.0,5.1,M,-31.9,M,,*56
$PYRTM,2024,124.836687178715,15.946334588854
$GPGGA,200448.00,3515.7969,N,12112.3440,W,1,08,1.0,3.0,M,-31.9,M,,*59
$PYRTM,2024,124.836698727025,15.946346137164
$GPGGA,200449.00,3515.7962,N,12112.3467,W,1,08,1.0,4.6,M,-31.9,M,,*57
$PYRTM,2024,124.836710316829,15.946357726979
$GPGGA,200450.00,3515.7954,N,12112.3492,W,1,08,1.0,7.0,M,-31.9,M,,*55
$PYRTM,2024,124.836721875359,15.946369285498
$GPGGA,200451.00,3515.7944,N,12112.3515,W,1,08,1.0,8.2,M,-31.9,M,,*56
$PYRTM,2024,124.836733462118,15.946380872257
$GPGGA,200452.00,3515.7933,N,12112.3541,W,1,08,1.0,6.6,M,-31.9,M,,*5E
$PYRTM,2024,124.836745024630,15.946392434780
$GPGGA,200453.00,3515.7924,N,12112.3567,W,1,08,1.0,4.5,M,-31.9,M,,*5C
$PYRTM,2024,124.836756609884,15.946404020023
$GPGGA,200454.00,3515.7916,N,12112.3592,W,1,08,1.0,2.7,M,-31.9,M,,*54
$PYRTM,2024,124.836768171076,15.946415581215
$GPGGA,200455.00,3515.7908,N,12112.3616,W,1,08,1.0,2.5,M,-31.9,M,,*57
$PYRTM,2024,124.836779758843,15.946427168981
$GPGGA,200456.00,3515.7897,N,12112.3640,W,1,08,1.0,2.7,M,-31.9,M,,*52
$PYRTM,2024,124.836791319907,15.946438730046
$GPGGA,200457.00,3515.7885,N,12112.3664,W,1,08,1.0,1.1,M,-31.9,M,,*53
$PYRTM,2024,124.836802907454,15.946450317593
$GPGGA,200458.00,3515.7874,N,12112.3688,W,1,08,1.0,0.0,M,-31.9,M,,*50
$PYRTM,2024,124.836814467431,15.946461877558
$GPGGA,200459.00,3515.7866,N,12112.3713,W,1,08,1.0,1.0,M,-31.9,M,,*50
$PYRTM,2024,124.836826055567,15.946473465706
$GPGGA,200500.00,3515.7858,N,12112.3738,W,1,08,1.0,1.2,M,-31.9,M,,*5B
$PYRTM,2024,124.836837616771,15.946485026910
$GPGGA,200501.00,3515.7849,N,12112.3763,W,1,08,1.0,3.8,M,-31.9,M,,*5C
$PYRTM,2024,124.836849205590,15.946496615741
$GPGGA,200502.00,3515.7838,N,12112.3788,W,1,08,1.0,2.8,M,-31.9,M,,*5D
$PYRTM,2024,124.836859499051,15.946506909190
$GPGGA,200503.00,3515.7827,N,12112.3813,W,1,08,1.0,-1.0,M,-31.9,M,,*79
$PYRTM,2024,124.836871325313,15.946518735451
$GPGGA,200504.00,3515.7818,N,12112.3838,W,1,08,1.0,-1.3,M,-31.9,M,,*78
$PYRTM,2024,124.836883912639,15.946531322789
$GPGGA,200505.00,3515.7809,N,12112.3862,W,1,08,1.0,1.3,M,-31.9,M,,*5B
$PYRTM,2024,124.836895500949,15.946542911088
$GPGGA,200506.00,3515.7800,N,12112.3887,W,1,08,1.0,2.5,M,-31.9,M,,*5F
$PYRTM,2024,124.836907061956,15.946554472095
$GPGGA,200507.00,3515.7790,N,12112.3914,W,1,08,1.0,1.3,M,-31.9,M,,*56
$PYRTM,2024,124.836918647211,15.946566057350
$GPGGA,200508.00,3515.7781,N,12112.3942,W,1,08,1.0,1.7,M,-31.9,M,,*5E
$PYRTM,2024,124.836930209282,15.946577619433
$GPGGA,200509.00,3515.7770,N,12112.3968,W,1,08,1.0,3.1,M,-31.9,M,,*5D
$PYRTM,2024,124.836941796447,15.946589206586
$GPGGA,200510.00,3515.7758,N,12112.3992,W,1,08,1.0,5.8,M,-31.9,M,,*55
$PYRTM,2024,124.836953357766,15.946600767905
$GPGGA,200511.00,3515.7746,N,12112.4019,W,1,08,1.0,3.5,M,-31.9,M,,*5D
$PYRTM,2024,124.836964940127,15.946612350266
$GPGGA,200512.00,3515.7737,N,12112.4046,W,1,08,1.0,2.8,M,-31.9,M,,*5E
$PYRTM,2024,124.836976506505,15.946623916655
$GPGGA,200513.00,3515.7729,N,12112.4071,W,1,08,1.0,2.4,M,-31.9,M,,*58
$PYRTM,2024,124.836988093657,15.946635503808
$GPGGA,200514.00,3515.7719,N,12112.4094,W,1,08,1.0,1.2,M,-31.9,M,,*52
$PYRTM,2024,124.836999655312,15.946647065451
$GPGGA,200515.00,3515.7708,N,12112.4119,W,1,08,1.0,3.1,M,-31.9,M,,*56
$PYRTM,2024,124.837011244039,15.946658654178
$GPGGA,200516.00,3515.7698,N,12112.4144,W,1,08,1.0,1.1,M,-31.9,M,,*57
$PYRTM,2024,124.837022803495,15.946670213634
$GPGGA,200517.00,3515.7690,N,12112.4169,W,1,08,1.0,1.2,M,-31.9,M,,*52
$PYRTM,2024,124.837034500706,15.946681910856
$GPGGA,200518.00,3515.7680,N,12112.4194,W,1,08,1.0,-0.3,M,-31.9,M,,*73
$PYRTM,2024,124.837045950590,15.946693360729
$GPGGA,200519.00,3515.7670,N,12112.4221,W,1,08,1.0,1.9,M,-31.9,M,,*56
$PYRTM,2024,124.837057540856,15.946704950995
$GPGGA,200520.00,3515.7660,N,12112.4246,W,1,08,1.0,3.0,M,-31.9,M,,*57
$PYRTM,2024,124.837069099144,15.946716509282
$GPGGA,200521.00,3515.7650,N,12112.4272,W,1,08,1.0,2.4,M,-31.9,M,,*57
$PYRTM,2024,124.837080686343,15.946728096481
$GPGGA,200522.00,3515.7640,N,12112.4300,W,1,08,1.0,0.3,M,-31.9,M,,*54
$PYRTM,2024,124.837092247141,15.946739657280
$GPGGA,200523.00,3515.7630,N,12112.4327,W,1,08,1.0,2.4,M,-31.9,M,,*52
$PYRTM,2024,124.837102908391,15.946750318530
$GPGGA,200524.00,3515.7620,N,12112.4353,W,1,08,1.0,5.3,M,-31.9,M,,*57
$PYRTM,2024,124.837114833519,15.946762243657
$GPGGA,200525.00,3515.7610,N,12112.4379,W,1,08,1.0,3.5,M,-31.9,M,,*5D
$PYRTM,2024,124.837125582234,15.946772992373
$GPGGA,200526.00,3515.7599,N,12112.4405,W,1,08,1.0,2.3,M,-31.9,M,,*57
$PYRTM,2024,124.837136691852,15.946784101991
$GPGGA,200527.00,3515.7589,N,12112.4432,W,1,08,1.0,2.7,M,-31.9,M,,*57
$PYRTM,2024,124.837147802836,15.946795212986
$GPGGA,200528.00,3515.7582,N,12112.4457,W,1,08,1.0,3.1,M,-31.9,M,,*57
$PYRTM,2024,124.837158914086,15.946806324225
$GPGGA,200529.00,3515.7575,N,12112.4482,W,1,08,1.0,4.0,M,-31.9,M,,*50
$PYRTM,2024,124.837170025266,15.946817435405
$GPGGA,200530.00,3515.7565,N,12112.4507,W,1,08,1.0,4.6,M,-31.9,M,,*53
$PYRTM,2024,124.837181136725,15.946828546863
$GPGGA,200531.00,3515.7555,N,12112.4533,W,1,08,1.0,5.2,M,-31.9,M,,*53
$PYRTM,2024,124.837192247870,15.946839658009
$GPGGA,200532.00,3515.7545,N,12112.4558,W,1,08,1.0,4.9,M,-31.9,M,,*56
$PYRTM,2024,124.837207988600,15.946855398738
$GPGGA,200533.00,3515.7537,N,12112.4584,W,1,08,1.0,3.6,M,-31.9,M,,*5B
$PYRTM,2024,124.837219576146,15.946866986285
$GPGGA,200534.00,3515.7528,N,12112.4610,W,1,08,1.0,3.8,M,-31.9,M,,*52
$PYRTM,2024,124.837231138623,15.946878548762
$GPGGA,200535.00,3515.7518,N,12112.4636,W,1,08,1.0,3.4,M,-31.9,M,,*58
$PYRTM,2024,124.837242723877,15.946890134016
$GPGGA,200536.00,3515.7508,N,12112.4661,W,1,08,1.0,3.5,M,-31.9,M,,*59
$PYRTM,2024,124.837254285810,15.946901695949
$GPGGA,200537.00,3515.7499,N,12112.4688,W,1,08,1.0,4.7,M,-31.9,M,,*53
$PYRTM,2024,124.837265876053,15.946913286192
$GPGGA,200538.00,3515.7491,N,12112.4716,W,1,08,1.0,4.7,M,-31.9,M,,*52
$PYRTM,2024,124.837277433299,15.946924843438
$GPGGA,200539.00,3515.7481,N,12112.4741,W,1,08,1.0,4.8,M,-31.9,M,,*5F
$PYRTM,2024,124.837289021400,15.946936431539
$GPGGA,200540.00,3515.7471,N,12112.4767,W,1,08,1.0,4.4,M,-31.9,M,,*56
$PYRTM,2024,124.837300583021,15.946947993171
$GPGGA,200541.00,3515.7461,N,12112.4792,W,1,08,1.0,3.7,M,-31.9,M,,*58
$PYRTM,2024,124.837312168113,15.946959578252
$GPGGA,200542.00,3515.7452,N,12112.4818,W,1,08,1.0,5.0,M,-31.9,M,,*57
$PYRTM,2024,124.837323730359,15.946971140498
$GPGGA,200543.00,3515.7443,N,12112.4844,W,1,08,1.0,5.8,M,-31.9,M,,*57
$PYRTM,2024,124.837335312951,15.946982723090
$GPGGA,200544.00,3515.7433,N,12112.4870,W,1,08,1.0,3.5,M,-31.9,M,,*5B
$PYRTM,2024,124.837346878912,15.946994289051
$GPGGA,200545.00,3515.7422,N,12112.4895,W,1,08,1.0,3.9,M,-31.9,M,,*5D
$PYRTM,2024,124.837358469896,15.947005880035
$GPGGA,200546.00,3515.7411,N,12112.4920,W,1,08,1.0,5.9,M,-31.9,M,,*57
$PYRTM,2024,124.837370027037,15.947017437176
$GPGGA,200547.00,3515.7402,N,12112.4945,W,1,08,1.0,6.4,M,-31.9,M,,*59
$PYRTM,2024,124.837381617141,15.947029027280
$GPGGA,200548.00,3515.7393,N,12112.4971,W,1,08,1.0,6.3,M,-31.9,M,,*59
$PYRTM,2024,124.837393176655,15.947040586794
$GPGGA,200549.00,3515.7385,N,12112.4998,W,1,08,1.0,4.2,M,-31.9,M,,*5B
$PYRTM,2024,124.837404763368,15.947052173507
$GPGGA,200550.00,3515.7376,N,12112.5024,W,1,08,1.0,5.6,M,-31.9,M,,*55
$PYRTM,2024,124.837416323125,15.947063733264
$GPGGA,200551.00,3515.7367,N,12112.5049,W,1,08,1.0,4.3,M,-31.9,M,,*5B
$PYRTM,2024,124.837427910475,15.947075320613
$GPGGA,200552.00,3515.7357,N,12112.5074,W,1,08,1.0,6.6,M,-31.9,M,,*52
$PYRTM,2024,124.837439472569,15.947086882708
$GPGGA,200553.00,3515.7346,N,12112.5099,W,1,08,1.0,5.8,M,-31.9,M,,*5D
$PYRTM,2024,124.837451059687,15.947098469838
$GPGGA,200554.00,3515.7336,N,12112.5127,W,1,08,1.0,5.6,M,-31.9,M,,*57
$PYRTM,2024,124.837462620417,15.947110030556
$GPGGA,200555.00,3515.7328,N,12112.5153,W,1,08,1.0,4.4,M,-31.9,M,,*59
$PYRTM,2024,124.837474208692,15.947121618831
$GPGGA,200556.00,3515.7321,N,12112.5179,W,1,08,1.0,7.1,M,-31.9,M,,*5D
$PYRTM,2024,124.837485770174,15.947133180313
$GPGGA,200557.00,3515.7311,N,12112.5205,W,1,08,1.0,4.2,M,-31.9,M,,*57
$PYRTM,2024,124.837497358785,15.947144768924
$GPGGA,200558.00,3515.7299,N,12112.5229,W,1,08,1.0,4.9,M,-31.9,M,,*5C
$PYRTM,2024,124.837508917269,15.947156327407
$GPGGA,200559.00,3515.7288,N,12112.5256,W,1,08,1.0,4.0,M,-31.9,M,,*5C
$PYRTM,2024,124.837520518032,15.947167928171
$GPGGA,200600.00,3515.7280,N,12112.5284,W,1,08,1.0,5.4,M,-31.9,M,,*51
$PYRTM,2024,124.837532067211,15.947179477350
$GPGGA,200601.00,3515.7273,N,12112.5310,W,1,08,1.0,6.2,M,-31.9,M,,*55
$PYRTM,2024,124.837543666991,15.947191077130
$GPGGA,200602.00,3515.7264,N,12112.5336,W,1,08,1.0,3.9,M,-31.9,M,,*5A
$PYRTM,2024,124.837553837859,15.947201247998
$GPGGA,200603.00,3515.7254,N,12112.5362,W,1,08,1.0,4.6,M,-31.9,M,,*51
$PYRTM,2024,124.837565759525,15.947213169664
$GPGGA,200604.00,3515.7243,N,12112.5386,W,1,08,1.0,5.4,M,-31.9,M,,*59
$PYRTM,2024,124.837578361759,15.947225771898
$GPGGA,200605.00,3515.7233,N,12112.5410,W,1,08,1.0,5.9,M,-31.9,M,,*5A
$PYRTM,2024,124.837589948692,15.947237358819
$GPGGA,200606.00,3515.7224,N,12112.5436,W,1,08,1.0,4.1,M,-31.9,M,,*52
$PYRTM,2024,124.837601510093,15.947248920231
$GPGGA,200607.00,3515.7214,N,12112.5461,W,1,08,1.0,7.5,M,-31.9,M,,*55
$PYRTM,2024,124.837613100127,15.947260510278
$GPGGA,200608.00,3515.7205,N,12112.5487,W,1,08,1.0,5.0,M,-31.9,M,,*55
$PYRTM,2024,124.837624659039,15.947272069178
$GPGGA,200609.00,3515.7195,N,12112.5514,W,1,08,1.0,6.1,M,-31.9,M,,*57
$PYRTM,2024,124.837636245880,15.947283656019
$GPGGA,200610.00,3515.7184,N,12112.5540,W,1,08,1.0,5.4,M,-31.9,M,,*58
$PYRTM,2024,124.837647807083,15.947295217222
$GPGGA,200611.00,3515.7171,N,12112.5562,W,1,08,1.0,5.8,M,-31.9,M,,*5F
$PYRTM,2024,124.837659394479,15.947306804618
$GPGGA,200612.00,3515.7160,N,12112.5585,W,1,08,1.0,4.5,M,-31.9,M,,*59
$PYRTM,2024,124.837670954942,15.947318365093
$GPGGA,200613.00,3515.7150,N,12112.5610,W,1,08,1.0,2.9,M,-31.9,M,,*5E
$PYRTM,2024,124.837682545486,15.947329955625
$GPGGA,200614.00,3515.7143,N,12112.5636,W,1,08,1.0,1.5,M,-31.9,M,,*50
$PYRTM,2024,124.837694103403,15.947341513542
$GPGGA,200615.00,3515.7133,N,12112.5659,W,1,08,1.0,3.5,M,-31.9,M,,*5D
$PYRTM,2024,124.837705704688,15.947353114826
$GPGGA,200616.00,3515.7119,N,12112.5681,W,1,08,1.0,4.9,M,-31.9,M,,*58
$PYRTM,2024,124.837717251887,15.947364662025
$GPGGA,200617.00,3515.7106,N,12112.5706,W,1,08,1.0,1.0,M,-31.9,M,,*55
$PYRTM,2024,124.837728956933,15.947376367072
$GPGGA,200618.00,3515.7096,N,12112.5731,W,1,08,1.0,-0.3,M,-31.9,M,,*79
$PYRTM,2024,124.837740515451,15.947387925590
$GPGGA,200619.00,3515.7088,N,12112.5756,W,1,08,1.0,-0.5,M,-31.9,M,,*70
$PYRTM,2024,124.837752104491,15.947399514630
$GPGGA,200620.00,3515.7079,N,12112.5780,W,1,08,1.0,-0.3,M,-31.9,M,,*79
$PYRTM,2024,124.837763663194,15.947411073333
$GPGGA,200621.00,3515.7069,N,12112.5806,W,1,08,1.0,-1.3,M,-31.9,M,,*79
$PYRTM,2024,124.837775469086,15.947422879225
$GPGGA,200622.00,3515.7059,N,12112.5833,W,1,08,1.0,-1.6,M,-31.9,M,,*7A
$PYRTM,2024,124.837786698241,15.947434108380
$GPGGA,200623.00,3515.7049,N,12112.5859,W,1,08,1.0,0.7,M,-31.9,M,,*5B
$PYRTM,2024,124.837798387049,15.947445797188
$GPGGA,200624.00,3515.7040,N,12112.5883,W,1,08,1.0,-1.4,M,-31.9,M,,*7D
$PYRTM,2024,124.837809846516,15.947457256655
$GPGGA,200625.00,3515.7032,N,12112.5907,W,1,08,1.0,0.0,M,-31.9,M,,*5C
$PYRTM,2024,124.837821432326,15.947468842465
$GPGGA,200626.00,3515.7023,N,12112.5934,W,1,08,1.0,0.1,M,-31.9,M,,*5E
$PYRTM,2024,124.837833108102,15.947480518241
$GPGGA,200627.00,3515.7013,N,12112.5960,W,1,08,1.0,-0.7,M,-31.9,M,,*76
$PYRTM,2024,124.837844699919,15.947492110058
$GPGGA,200628.00,3515.7003,N,12112.5985,W,1,08,1.0,-2.2,M,-31.9,M,,*74
$PYRTM,2024,124.837856141771,15.947503551910
$GPGGA,200629.00,3515.6993,N,12112.6009,W,1,08,1.0,0.4,M,-31.9,M,,*53
$PYRTM,2024,124.837867848310,15.947515258449
$GPGGA,200630.00,3515.6983,N,12112.6035,W,1,08,1.0,-0.4,M,-31.9,M,,*78
$PYRTM,2024,124.837879291400,15.947526701539
$GPGGA,200631.00,3515.6974,N,12112.6063,W,1,08,1.0,1.3,M,-31.9,M,,*59
$PYRTM,2024,124.837890980822,15.947538390961
$GPGGA,200632.00,3515.6966,N,12112.6089,W,1,08,1.0,-1.3,M,-31.9,M,,*70
$PYRTM,2024,124.837901177731,15.947548587870
$GPGGA,200633.00,3515.6957,N,12112.6114,W,1,08,1.0,-1.6,M,-31.9,M,,*73
$PYRTM,2024,124.837912983877,15.947560394016
$GPGGA,200634.00,3515.6948,N,12112.6140,W,1,08,1.0,1.2,M,-31.9,M,,*52
$PYRTM,2024,124.837925586632,15.947572996771
$GPGGA,200635.00,3515.6935,N,12112.6164,W,1,08,1.0,1.7,M,-31.9,M,,*5A
$PYRTM,2024,124.837937174063,15.947584584201
$GPGGA,200636.00,3515.6924,N,12112.6190,W,1,08,1.0,1.9,M,-31.9,M,,*5C
$PYRTM,2024,124.837948734410,15.947596144549
$GPGGA,200637.00,3515.6917,N,12112.6218,W,1,08,1.0,1.0,M,-31.9,M,,*57
$PYRTM,2024,124.837960438148,15.947607848287
$GPGGA,200638.00,3515.6908,N,12112.6244,W,1,08,1.0,-1.0,M,-31.9,M,,*72
$PYRTM,2024,124.837972000197,15.947619410336
$GPGGA,200639.00,3515.6897,N,12112.6268,W,1,08,1.0,-2.3,M,-31.9,M,,*7A
$PYRTM,2024,124.837983470255,15.947630880394
$GPGGA,200640.00,3515.6886,N,12112.6293,W,1,08,1.0,1.1,M,-31.9,M,,*5C
$PYRTM,2024,124.837995032998,15.947642443148
$GPGGA,200641.00,3515.6876,N,12112.6319,W,1,08,1.0,0.6,M,-31.9,M,,*57
$PYRTM,2024,124.838006621273,15.947654031412
$GPGGA,200642.00,3515.6867,N,12112.6346,W,1,08,1.0,0.1,M,-31.9,M,,*59
$PYRTM,2024,124.838018296991,15.947665707130
$GPGGA,200643.00,3515.6858,N,12112.6373,W,1,08,1.0,-1.4,M,-31.9,M,,*7B
$PYRTM,2024,124.838029770093,15.947677180231
$GPGGA,200644.00,3515.6848,N,12112.6398,W,1,08,1.0,0.8,M,-31.9,M,,*58
$PYRTM,2024,124.838041327789,15.947688737928
$GPGGA,200645.00,3515.6836,N,12112.6424,W,1,08,1.0,0.7,M,-31.9,M,,*5F
$PYRTM,2024,124.838052918403,15.947700328542
$GPGGA,200646.00,3515.6826,N,12112.6449,W,1,08,1.0,0.0,M,-31.9,M,,*51
$PYRTM,2024,124.838064593484,15.947712003623
$GPGGA,200647.00,3515.6816,N,12112.6473,W,1,08,1.0,-0.5,M,-31.9,M,,*72
$PYRTM,2024,124.838076179306,15.947723589444
$GPGGA,200648.00,3515.6808,N,12112.6499,W,1,08,1.0,-0.5,M,-31.9,M,,*76
$PYRTM,2024,124.838087740093,15.947735150231
$GPGGA,200649.00,3515.6799,N,12112.6527,W,1,08,1.0,-1.4,M,-31.9,M,,*74
$PYRTM,2024,124.838099326597,15.947746736736
$GPGGA,200650.00,3515.6789,N,12112.6553,W,1,08,1.0,-0.1,M,-31.9,M,,*7A
$PYRTM,2024,124.838110772037,15.947758182176
$GPGGA,200651.00,3515.6779,N,12112.6577,W,1,08,1.0,2.8,M,-31.9,M,,*54
$PYRTM,2024,124.838122359433,15.947769769572
$GPGGA,200652.00,3515.6771,N,12112.6602,W,1,08,1.0,2.5,M,-31.9,M,,*53
$PYRTM,2024,124.838133921354,15.947781331493
$GPGGA,200653.00,3515.6764,N,12112.6630,W,1,08,1.0,0.5,M,-31.9,M,,*55
$PYRTM,2024,124.838145508380,15.947792918530
$GPGGA,200654.00,3515.6754,N,12112.6656,W,1,08,1.0,2.0,M,-31.9,M,,*56
$PYRTM,2024,124.838157069421,15.947804479560
$GPGGA,200655.00,3515.6744,N,12112.6680,W,1,08,1.0,3.7,M,-31.9,M,,*5B
$PYRTM,2024,124.838168671169,15.947816081308
$GPGGA,200656.00,3515.6734,N,12112.6706,W,1,08,1.0,3.3,M,-31.9,M,,*54
$PYRTM,2024,124.838180216875,15.947827627014
$GPGGA,200657.00,3515.6726,N,12112.6731,W,1,08,1.0,2.8,M,-31.9,M,,*58
$PYRTM,2024,124.838191818958,15.947839229097
$GPGGA,200658.00,3515.6717,N,12112.6757,W,1,08,1.0,4.0,M,-31.9,M,,*5B
$PYRTM,2024,124.838203366644,15.947850776782
$GPGGA,200659.00,3515.6706,N,12112.6783,W,1,08,1.0,4.0,M,-31.9,M,,*53
$PYRTM,2024,124.838214956493,15.947862366632
$GPGGA,200700.00,3515.6696,N,12112.6807,W,1,08,1.0,3.0,M,-31.9,M,,*52
$PYRTM,2024,124.838226629919,15.947874040058
$GPGGA,200701.00,3515.6686,N,12112.6831,W,1,08,1.0,-0.6,M,-31.9,M,,*7F
$PYRTM,2024,124.838238102199,15.947885512338
$GPGGA,200702.00,3515.6676,N,12112.6856,W,1,08,1.0,0.8,M,-31.9,M,,*51
$PYRTM,2024,124.838248736852,15.947896147002
$GPGGA,200703.00,3515.6666,N,12112.6883,W,1,08,1.0,1.2,M,-31.9,M,,*52
$PYRTM,2024,124.838260208090,15.947907618229
$GPGGA,200704.00,3515.6657,N,12112.6910,W,1,08,1.0,-1.9,M,-31.9,M,,*7A
$PYRTM,2024,124.838272812813,15.947920222951
$GPGGA,200705.00,3515.6646,N,12112.6935,W,1,08,1.0,0.5,M,-31.9,M,,*5C
$PYRTM,2024,124.838284398762,15.947931808900
$GPGGA,200706.00,3515.6635,N,12112.6959,W,1,08,1.0,2.1,M,-31.9,M,,*57
$PYRTM,2024,124.838295959919,15.947943370058
$GPGGA,200707.00,3515.6625,N,12112.6986,W,1,08,1.0,2.4,M,-31.9,M,,*50
$PYRTM,2024,124.838307662303,15.947955072442
$GPGGA,200708.00,3515.6617,N,12112.7014,W,1,08,1.0,-1.9,M,-31.9,M,,*7E
$PYRTM,2024,124.838319223970,15.947966634109
$GPGGA,200709.00,3515.6607,N,12112.7040,W,1,08,1.0,-0.4,M,-31.9,M,,*73
$PYRTM,2024,124.838330811655,15.947978221794
$GPGGA,200710.00,3515.6597,N,12112.7067,W,1,08,1.0,-1.3,M,-31.9,M,,*72
$PYRTM,2024,124.838342257303,15.947989667442
$GPGGA,200711.00,3515.6586,N,12112.7093,W,1,08,1.0,0.6,M,-31.9,M,,*51
$PYRTM,2024,124.838353847153,15.948001257292
$GPGGA,200712.00,3515.6577,N,12112.7118,W,1,08,1.0,1.9,M,-31.9,M,,*50
$PYRTM,2024,124.838365406065,15.948012816204
$GPGGA,200713.00,3515.6568,N,12112.7144,W,1,08,1.0,3.0,M,-31.9,M,,*5D
$PYRTM,2024,124.838377111250,15.948024521389
$GPGGA,200714.00,3515.6559,N,12112.7171,W,1,08,1.0,-0.3,M,-31.9,M,,*73
$PYRTM,2024,124.838388670197,15.948036080336
$GPGGA,200715.00,3515.6551,N,12112.7198,W,1,08,1.0,-1.5,M,-31.9,M,,*7A
$PYRTM,2024,124.838400141505,15.948047551644
$GPGGA,200716.00,3515.6541,N,12112.7224,W,1,08,1.0,0.2,M,-31.9,M,,*57
$PYRTM,2024,124.838411701794,15.948059111933
$GPGGA,200717.00,3515.6530,N,12112.7248,W,1,08,1.0,2.2,M,-31.9,M,,*58
$PYRTM,2024,124.838423289641,15.948070699780
$GPGGA,200718.00,3515.6521,N,12112.7274,W,1,08,1.0,2.5,M,-31.9,M,,*5F
$PYRTM,2024,124.838434849815,15.948082259954
$GPGGA,200719.00,3515.6513,N,12112.7302,W,1,08,1.0,3.3,M,-31.9,M,,*58
$PYRTM,2024,124.838446540116,15.948093950266
$GPGGA,200720.00,3515.6505,N,12112.7329,W,1,08,1.0,-0.4,M,-31.9,M,,*75
$PYRTM,2024,124.838457998866,15.948105409005
$GPGGA,200721.00,3515.6496,N,12112.7354,W,1,08,1.0,1.4,M,-31.9,M,,*59
$PYRTM,2024,124.838469586898,15.948116997037
$GPGGA,200722.00,3515.6484,N,12112.7379,W,1,08,1.0,1.5,M,-31.9,M,,*57
$PYRTM,2024,124.838481145255,15.948128555394
$GPGGA,200723.00,3515.6472,N,12112.7405,W,1,08,1.0,1.8,M,-31.9,M,,*5E
$PYRTM,2024,124.838492732963,15.948140143102
$GPGGA,200724.00,3515.6463,N,12112.7434,W,1,08,1.0,1.5,M,-31.9,M,,*56
$PYRTM,2024,124.838504295509,15.948151705648
$GPGGA,200725.00,3515.6457,N,12112.7461,W,1,08,1.0,0.2,M,-31.9,M,,*56
$PYRTM,2024,124.838516000278,15.948163410428
$GPGGA,200726.00,3515.6451,N,12112.7484,W,1,08,1.0,-0.5,M,-31.9,M,,*72
$PYRTM,2024,124.838527444375,15.948174854514
$GPGGA,200727.00,3515.6440,N,12112.7506,W,1,08,1.0,1.6,M,-31.9,M,,*57
$PYRTM,2024,124.838539033380,15.948186443519
$GPGGA,200728.00,3515.6428,N,12112.7530,W,1,08,1.0,2.4,M,-31.9,M,,*52
$PYRTM,2024,124.838549665625,15.948197075764
$GPGGA,200729.00,3515.6419,N,12112.7558,W,1,08,1.0,2.4,M,-31.9,M,,*5F
$PYRTM,2024,124.838561599606,15.948209009745
$GPGGA,200730.00,3515.6413,N,12112.7586,W,1,08,1.0,1.4,M,-31.9,M,,*5D
$PYRTM,2024,124.838572363692,15.948219773831
$GPGGA,200731.00,3515.6407,N,12112.7611,W,1,08,1.0,0.6,M,-31.9,M,,*57
$PYRTM,2024,124.838583475602,15.948230885741
$GPGGA,200732.00,3515.6397,N,12112.7635,W,1,08,1.0,2.9,M,-31.9,M,,*51
$PYRTM,2024,124.838599205544,15.948246615683
$GPGGA,200733.00,3515.6385,N,12112.7660,W,1,08,1.0,1.2,M,-31.9,M,,*5B
$PYRTM,2024,124.838610333519,15.948257743657
$GPGGA,200734.00,3515.6375,N,12112.7684,W,1,08,1.0,0.2,M,-31.9,M,,*58
$PYRTM,2024,124.838621440822,15.948268850961
$GPGGA,200735.00,3515.6370,N,12112.7710,W,1,08,1.0,2.0,M,-31.9,M,,*50
$PYRTM,2024,124.838632536840,15.948279946979
$GPGGA,200736.00,3515.6365,N,12112.7736,W,1,08,1.0,-0.4,M,-31.9,M,,*78
$PYRTM,2024,124.838643663796,15.948291073935
$GPGGA,200737.00,3515.6358,N,12112.7761,W,1,08,1.0,-1.0,M,-31.9,M,,*70
$PYRTM,2024,124.838654874688,15.948302284826
$GPGGA,200738.00,3515.6345,N,12112.7785,W,1,08,1.0,1.4,M,-31.9,M,,*50
$PYRTM,2024,124.838666333796,15.948313743947
$GPGGA,200739.00,3515.6335,N,12112.7811,W,1,08,1.0,1.3,M,-31.9,M,,*53
$PYRTM,2024,124.838677922998,15.948325333137
$GPGGA,200740.00,3515.6327,N,12112.7838,W,1,08,1.0,3.3,M,-31.9,M,,*57
$PYRTM,2024,124.838689481875,15.948336892014
$GPGGA,200741.00,3515.6321,N,12112.7864,W,1,08,1.0,2.8,M,-31.9,M,,*53
$PYRTM,2024,124.838701084259,15.948348494410
$GPGGA,200742.00,3515.6312,N,12112.7892,W,1,08,1.0,3.6,M,-31.9,M,,*56
$PYRTM,2024,124.838712629329,15.948360039479
$GPGGA,200743.00,3515.6300,N,12112.7917,W,1,08,1.0,1.9,M,-31.9,M,,*55
$PYRTM,2024,124.838724216470,15.948371626609
$GPGGA,200744.00,3515.6288,N,12112.7942,W,1,08,1.0,3.8,M,-31.9,M,,*50
$PYRTM,2024,124.838735778437,15.948383188576
$GPGGA,200745.00,3515.6278,N,12112.7967,W,1,08,1.0,4.5,M,-31.9,M,,*53
$PYRTM,2024,124.838747364630,15.948394774769
$GPGGA,200746.00,3515.6269,N,12112.7992,W,1,08,1.0,1.8,M,-31.9,M,,*52
$PYRTM,2024,124.838758925937,15.948406336076
$GPGGA,200747.00,3515.6260,N,12112.8018,W,1,08,1.0,4.1,M,-31.9,M,,*52
$PYRTM,2024,124.838770515509,15.948417925660
$GPGGA,200748.00,3515.6252,N,12112.8044,W,1,08,1.0,5.8,M,-31.9,M,,*5D
$PYRTM,2024,124.838782075046,15.948429485197
$GPGGA,200749.00,3515.6242,N,12112.8069,W,1,08,1.0,4.6,M,-31.9,M,,*5D
$PYRTM,2024,124.838793662153,15.948441072292
$GPGGA,200750.00,3515.6231,N,12112.8094,W,1,08,1.0,4.0,M,-31.9,M,,*55
$PYRTM,2024,124.838805222963,15.948452633102
$GPGGA,200751.00,3515.6222,N,12112.8122,W,1,08,1.0,4.6,M,-31.9,M,,*5C
$PYRTM,2024,124.838816804896,15.948464215035
$GPGGA,200752.00,3515.6213,N,12112.8147,W,1,08,1.0,3.7,M,-31.9,M,,*58
$PYRTM,2024,124.838828371910,15.948475782049
$GPGGA,200753.00,3515.6203,N,12112.8170,W,1,08,1.0,6.6,M,-31.9,M,,*58
$PYRTM,2024,124.838839960845,15.948487370984
$GPGGA,200754.00,3515.6192,N,12112.8195,W,1,08,1.0,5.7,M,-31.9,M,,*5D
$PYRTM,2024,124.838851517836,15.948498927975
$GPGGA,200755.00,3515.6181,N,12112.8222,W,1,08,1.0,3.8,M,-31.9,M,,*58
$PYRTM,2024,124.838863109259,15.948510519398
$GPGGA,200756.00,3515.6172,N,12112.8247,W,1,08,1.0,5.1,M,-31.9,M,,*5B
$PYRTM,2024,124.838874667431,15.948522077569
$GPGGA,200757.00,3515.6164,N,12112.8270,W,1,08,1.0,5.5,M,-31.9,M,,*5D
$PYRTM,2024,124.838886270428,15.948533680567
$GPGGA,200758.00,3515.6155,N,12112.8293,W,1,08,1.0,3.0,M,-31.9,M,,*5E
$PYRTM,2024,124.838897816516,15.948545226655
$GPGGA,200759.00,3515.6145,N,12112.8319,W,1,08,1.0,3.8,M,-31.9,M,,*55
$PYRTM,2024,124.838909403646,15.948556813785
$GPGGA,200800.00,3515.6135,N,12112.8344,W,1,08,1.0,2.0,M,-31.9,M,,*50
$PYRTM,2024,124.838921081273,15.948568491412
$GPGGA,200801.00,3515.6126,N,12112.8369,W,1,08,1.0,-0.1,M,-31.9,M,,*72
$PYRTM,2024,124.838932546447,15.948579956586
$GPGGA,200802.00,3515.6116,N,12112.8393,W,1,08,1.0,2.1,M,-31.9,M,,*58
$PYRTM,2024,124.838942750914,15.948590161053
$GPGGA,200803.00,3515.6107,N,12112.8417,W,1,08,1.0,2.0,M,-31.9,M,,*53
$PYRTM,2024,124.838954657176,15.948602067315
$GPGGA,200804.00,3515.6098,N,12112.8442,W,1,08,1.0,0.4,M,-31.9,M,,*55
$PYRTM,2024,124.838967260475,15.948614670613
$GPGGA,200805.00,3515.6089,N,12112.8467,W,1,08,1.0,0.2,M,-31.9,M,,*55
$PYRTM,2024,124.838978847315,15.948626257454
$GPGGA,200806.00,3515.6079,N,12112.8491,W,1,08,1.0,-0.5,M,-31.9,M,,*7A
$PYRTM,2024,124.838990408472,15.948637818611
$GPGGA,200807.00,3515.6068,N,12112.8515,W,1,08,1.0,1.4,M,-31.9,M,,*5B
$PYRTM,2024,124.839002009699,15.948649419838
$GPGGA,200808.00,3515.6057,N,12112.8540,W,1,08,1.0,2.6,M,-31.9,M,,*59
$PYRTM,2024,124.839013556528,15.948660966678
$GPGGA,200809.00,3515.6047,N,12112.8567,W,1,08,1.0,0.1,M,-31.9,M,,*59
$PYRTM,2024,124.839025159803,15.948672569942
$GPGGA,200810.00,3515.6039,N,12112.8592,W,1,08,1.0,-3.5,M,-31.9,M,,*78
$PYRTM,2024,124.839036707315,15.948684117454
$GPGGA,200811.00,3515.6029,N,12112.8616,W,1,08,1.0,-1.4,M,-31.9,M,,*74
$PYRTM,2024,124.839048287917,15.948695698056
$GPGGA,200812.00,3515.6018,N,12112.8640,W,1,08,1.0,-1.2,M,-31.9,M,,*70
$PYRTM,2024,124.839059853657,15.948707263796
$GPGGA,200813.00,3515.6007,N,12112.8665,W,1,08,1.0,-0.5,M,-31.9,M,,*7E
$PYRTM,2024,124.839071442465,15.948718852604
$GPGGA,200814.00,3515.5996,N,12112.8691,W,1,08,1.0,-1.0,M,-31.9,M,,*74
$PYRTM,2024,124.839083001551,15.948730411701
$GPGGA,200815.00,3515.5986,N,12112.8717,W,1,08,1.0,-1.8,M,-31.9,M,,*73
$PYRTM,2024,124.839094589514,15.948741999653
$GPGGA,200816.00,3515.5976,N,12112.8741,W,1,08,1.0,-1.0,M,-31.9,M,,*74
$PYRTM,2024,124.839106150116,15.948753560255
$GPGGA,200817.00,3515.5965,N,12112.8766,W,1,08,1.0,0.7,M,-31.9,M,,*59
$PYRTM,2024,124.839117737500,15.948765147650
$GPGGA,200818.00,3515.5953,N,12112.8792,W,1,08,1.0,-0.5,M,-31.9,M,,*77
$PYRTM,2024,124.839129300752,15.948776710903
$GPGGA,200819.00,3515.5944,N,12112.8819,W,1,08,1.0,-2.0,M,-31.9,M,,*7B
$PYRTM,2024,124.839139844711,15.948787254861
$GPGGA,200820.00,3515.5936,N,12112.8846,W,1,08,1.0,-3.1,M,-31.9,M,,*7E
$PYRTM,2024,124.839152563900,15.948799974039
$GPGGA,200821.00,3515.5928,N,12112.8871,W,1,08,1.0,-2.2,M,-31.9,M,,*76
$PYRTM,2024,124.839164369259,15.948811779410
$GPGGA,200822.00,3515.5918,N,12112.8895,W,1,08,1.0,-2.2,M,-31.9,M,,*7C
$PYRTM,2024,124.839175596308,15.948823006447
$GPGGA,200823.00,3515.5908,N,12112.8920,W,1,08,1.0,-3.2,M,-31.9,M,,*72
$PYRTM,2024,124.839187185914,15.948834596053
$GPGGA,200824.00,3515.5901,N,12112.8945,W,1,08,1.0,-2.1,M,-31.9,M,,*7D
$PYRTM,2024,124.839198744051,15.948846154190
$GPGGA,200825.00,3515.5894,N,12112.8971,W,1,08,1.0,-2.0,M,-31.9,M,,*77
$PYRTM,2024,124.839210334884,15.948857745023
$GPGGA,200826.00,3515.5887,N,12112.8995,W,1,08,1.0,-0.2,M,-31.9,M,,*7C
$PYRTM,2024,124.839221892130,15.948869302269
$GPGGA,200827.00,3515.5878,N,12112.9019,W,1,08,1.0,0.7,M,-31.9,M,,*59
$PYRTM,2024,124.839233483391,15.948880893530
$GPGGA,200828.00,3515.5868,N,12112.9043,W,1,08,1.0,2.9,M,-31.9,M,,*54
$PYRTM,2024,124.839245052581,15.948892462720
$GPGGA,200829.00,3515.5860,N,12112.9068,W,1,08,1.0,-0.1,M,-31.9,M,,*73
$PYRTM,2024,124.839256627245,15.948904037384
$GPGGA,200830.00,3515.5852,N,12112.9092,W,1,08,1.0,1.6,M,-31.9,M,,*54
$PYRTM,2024,124.839268196667,15.948915606817
$GPGGA,200831.00,3515.5845,N,12112.9117,W,1,08,1.0,0.6,M,-31.9,M,,*5E
$PYRTM,2024,124.839279776053,15.948927186192
$GPGGA,200832.00,3515.5837,N,12112.9141,W,1,08,1.0,0.4,M,-31.9,M,,*59
$PYRTM,2024,124.839289961539,15.948937371678
$GPGGA,200833.00,3515.5827,N,12112.9164,W,1,08,1.0,1.8,M,-31.9,M,,*53
$PYRTM,2024,124.839301868310,15.948949278449
$GPGGA,200834.00,3515.5816,N,12112.9189,W,1,08,1.0,0.6,M,-31.9,M,,*5A
$PYRTM,2024,124.839314499028,15.948961909178
$GPGGA,200835.00,3515.5807,N,12112.9215,W,1,08,1.0,-1.1,M,-31.9,M,,*76
$PYRTM,2024,124.839326072407,15.948973482546
$GPGGA,200836.00,3515.5800,N,12112.9241,W,1,08,1.0,0.3,M,-31.9,M,,*5D
$PYRTM,2024,124.839337647164,15.948985057303
$GPGGA,200837.00,3515.5789,N,12112.9265,W,1,08,1.0,0.6,M,-31.9,M,,*51
$PYRTM,2024,124.839349223970,15.948996634109
$GPGGA,200838.00,3515.5777,N,12112.9288,W,1,08,1.0,-2.3,M,-31.9,M,,*76
$PYRTM,2024,124.839360795590,15.949008205729
