$PYRTM,2024,127.000007155127,18.109654565278
$GPGGA,235959.00,3357.6927,N,11922.5637,W,1,10,0.8,6.4,M,-33.6,M,,*59
$PYRTM,2024,127.000018265648,18.109665675787
$GPGGA,000000.00,3357.6925,N,11922.5640,W,1,10,0.8,6.4,M,-33.6,M,,*5A
$PYRTM,2024,127.000029377384,18.109676787523
$GPGGA,000001.00,3357.6922,N,11922.5644,W,1,10,0.8,6.4,M,-33.6,M,,*58
$PYRTM,2024,127.000040487951,18.109687898090
$GPGGA,000002.00,3357.6917,N,11922.5646,W,1,10,0.8,6.2,M,-33.6,M,,*59
$PYRTM,2024,127.000051483310,18.109698893449
$GPGGA,000003.00,3357.6911,N,11922.5647,W,1,10,0.8,6.7,M,-33.6,M,,*5A
$PYRTM,2024,127.000062596053,18.109710006204
$GPGGA,000004.00,3357.6905,N,11922.5648,W,1,10,0.8,6.6,M,-33.6,M,,*56
$PYRTM,2024,127.000073706551,18.109721116690
$GPGGA,000005.00,3357.6902,N,11922.5652,W,1,10,0.8,6.8,M,-33.6,M,,*55
$PYRTM,2024,127.000085293542,18.109732703681
$GPGGA,000006.00,3357.6900,N,11922.5655,W,1,10,0.8,7.3,M,-33.6,M,,*59
$PYRTM,2024,127.000100339155,18.109747749294
$GPGGA,000007.00,3357.6896,N,11922.5661,W,1,10,0.8,8.3,M,-33.6,M,,*5E
$PYRTM,2024,127.000111334653,18.109758744792
$GPGGA,000008.00,3357.6889,N,11922.5665,W,1,10,0.8,7.1,M,-33.6,M,,*56
$PYRTM,2024,127.000122449549,18.109769859699
$GPGGA,000009.00,3357.6885,N,11922.5668,W,1,10,0.8,7.1,M,-33.6,M,,*56
$PYRTM,2024,127.000133556620,18.109780966759
$GPGGA,000010.00,3357.6883,N,11922.5671,W,1,10,0.8,7.1,M,-33.6,M,,*50
$PYRTM,2024,127.000144683299,18.109792093437
$GPGGA,000011.00,3357.6880,N,11922.5674,W,1,10,0.8,8.1,M,-33.6,M,,*58
$PYRTM,2024,127.000155779502,18.109803189641
$GPGGA,000012.00,3357.6874,N,11922.5678,W,1,10,0.8,9.2,M,-33.6,M,,*5E
$PYRTM,2024,127.000166890220,18.109814300359
$GPGGA,000013.00,3357.6867,N,11922.5679,W,1,10,0.8,7.7,M,-33.6,M,,*57
$PYRTM,2024,127.000181475833,18.109828885972
$GPGGA,000014.00,3357.6863,N,11922.5680,W,1,10,0.8,7.7,M,-33.6,M,,*52
$PYRTM,2024,127.000192932766,18.109840342905
$GPGGA,000015.00,3357.6859,N,11922.5683,W,1,10,0.8,7.7,M,-33.6,M,,*59
$PYRTM,2024,127.000204492269,18.109851902407
$GPGGA,000016.00,3357.6855,N,11922.5684,W,1,10,0.8,6.5,M,-33.6,M,,*52
$PYRTM,2024,127.000216080556,18.109863490694
$GPGGA,000017.00,3357.6850,N,11922.5686,W,1,10,0.8,6.6,M,-33.6,M,,*57
$PYRTM,2024,127.000227641123,18.109875051262
$GPGGA,000018.00,3357.6846,N,11922.5688,W,1,10,0.8,6.5,M,-33.6,M,,*52
$PYRTM,2024,127.000239228183,18.109886638322
$GPGGA,000019.00,3357.6842,N,11922.5691,W,1,10,0.8,6.5,M,-33.6,M,,*5F
$PYRTM,2024,127.000250788044,18.109898198183
$GPGGA,000020.00,3357.6839,N,11922.5694,W,1,10,0.8,6.5,M,-33.6,M,,*5C
$PYRTM,2024,127.000262372500,18.109909782639
$GPGGA,000021.00,3357.6835,N,11922.5695,W,1,10,0.8,6.5,M,-33.6,M,,*50
$PYRTM,2024,127.000273938021,18.109921348160
$GPGGA,000022.00,3357.6831,N,11922.5695,W,1,10,0.8,6.5,M,-33.6,M,,*57
$PYRTM,2024,127.000285520220,18.109932930359
$GPGGA,000023.00,3357.6827,N,11922.5695,W,1,10,0.8,6.2,M,-33.6,M,,*56
$PYRTM,2024,127.000297084468,18.109944494606
$GPGGA,000024.00,3357.6824,N,11922.5698,W,1,10,0.8,5.8,M,-33.6,M,,*56
$PYRTM,2024,127.000308670544,18.109956080694
$GPGGA,000025.00,3357.6822,N,11922.5702,W,1,10,0.8,5.5,M,-33.6,M,,*5E
$PYRTM,2024,127.000320233310,18.109967643449
$GPGGA,000026.00,3357.6821,N,11922.5703,W,1,10,0.8,5.5,M,-33.6,M,,*5F
$PYRTM,2024,127.000331821887,18.109979232025
$GPGGA,000027.00,3357.6817,N,11922.5705,W,1,10,0.8,4.8,M,-33.6,M,,*51
$PYRTM,2024,127.000343383495,18.109990793634
$GPGGA,000028.00,3357.6811,N,11922.5708,W,1,10,0.8,4.8,M,-33.6,M,,*55
$PYRTM,2024,127.000354970463,18.110002380602
$GPGGA,000029.00,3357.6803,N,11922.5712,W,1,10,0.8,4.9,M,-33.6,M,,*5D
$PYRTM,2024,127.000366530185,18.110013940324
$GPGGA,000030.00,3357.6797,N,11922.5717,W,1,10,0.8,4.9,M,-33.6,M,,*52
$PYRTM,2024,127.000378117650,18.110025527801
$GPGGA,000031.00,3357.6794,N,11922.5723,W,1,10,0.8,4.8,M,-33.6,M,,*56
$PYRTM,2024,127.000389680359,18.110037090498
$GPGGA,000032.00,3357.6792,N,11922.5724,W,1,10,0.8,4.8,M,-33.6,M,,*54
$PYRTM,2024,127.000401715058,18.110049125197
$GPGGA,000033.00,3357.6786,N,11922.5724,W,1,10,0.8,4.8,M,-33.6,M,,*50
$PYRTM,2024,127.000412826968,18.110060237118
$GPGGA,000034.00,3357.6777,N,11922.5726,W,1,10,0.8,4.5,M,-33.6,M,,*56
$PYRTM,2024,127.000424866030,18.110072276169
$GPGGA,000035.00,3357.6768,N,11922.5731,W,1,10,0.8,3.7,M,-33.6,M,,*5A
$PYRTM,2024,127.000435975833,18.110083385972
$GPGGA,000036.00,3357.6763,N,11922.5737,W,1,10,0.8,3.4,M,-33.6,M,,*57
$PYRTM,2024,127.000447564097,18.110094974236
$GPGGA,000037.00,3357.6760,N,11922.5739,W,1,10,0.8,3.5,M,-33.6,M,,*5A
$PYRTM,2024,127.000459122118,18.110106532257
$GPGGA,000038.00,3357.6755,N,11922.5738,W,1,10,0.8,3.6,M,-33.6,M,,*51
$PYRTM,2024,127.000470713333,18.110118123472
$GPGGA,000039.00,3357.6746,N,11922.5737,W,1,10,0.8,3.9,M,-33.6,M,,*52
$PYRTM,2024,127.000482271493,18.110129681632
$GPGGA,000040.00,3357.6738,N,11922.5739,W,1,10,0.8,3.6,M,-33.6,M,,*54
$PYRTM,2024,127.000493860139,18.110141270278
$GPGGA,000041.00,3357.6736,N,11922.5743,W,1,10,0.8,3.5,M,-33.6,M,,*55
$PYRTM,2024,127.000505420405,18.110152830544
$GPGGA,000042.00,3357.6737,N,11922.5747,W,1,10,0.8,3.4,M,-33.6,M,,*52
$PYRTM,2024,127.000518153958,18.110165564097
$GPGGA,000043.00,3357.6734,N,11922.5750,W,1,10,0.8,3.0,M,-33.6,M,,*52
$PYRTM,2024,127.000529627245,18.110177037384
$GPGGA,000044.00,3357.6728,N,11922.5753,W,1,10,0.8,3.7,M,-33.6,M,,*5C
$PYRTM,2024,127.000541197373,18.110188607512
$GPGGA,000045.00,3357.6723,N,11922.5754,W,1,10,0.8,3.8,M,-33.6,M,,*5E
$PYRTM,2024,127.000552776030,18.110200186169
$GPGGA,000046.00,3357.6719,N,11922.5755,W,1,10,0.8,4.3,M,-33.6,M,,*59
$PYRTM,2024,127.000564345868,18.110211756007
$GPGGA,000047.00,3357.6715,N,11922.5759,W,1,10,0.8,4.1,M,-33.6,M,,*5A
$PYRTM,2024,127.000575935174,18.110223345313
$GPGGA,000048.00,3357.6711,N,11922.5764,W,1,10,0.8,3.9,M,-33.6,M,,*50
$PYRTM,2024,127.000587494097,18.110234904248
$GPGGA,000049.00,3357.6708,N,11922.5767,W,1,10,0.8,3.9,M,-33.6,M,,*5A
$PYRTM,2024,127.000599069167,18.110246479306
$GPGGA,000050.00,3357.6705,N,11922.5768,W,1,10,0.8,3.9,M,-33.6,M,,*50
$PYRTM,2024,127.000610642488,18.110258052627
$GPGGA,000051.00,3357.6701,N,11922.5768,W,1,10,0.8,3.9,M,-33.6,M,,*55
$PYRTM,2024,127.000622216863,18.110269627002
$GPGGA,000052.00,3357.6693,N,11922.5770,W,1,10,0.8,3.6,M,-33.6,M,,*5A
$PYRTM,2024,127.000633791030,18.110281201169
$GPGGA,000053.00,3357.6688,N,11922.5771,W,1,10,0.8,3.5,M,-33.6,M,,*53
$PYRTM,2024,127.000645364942,18.110292775081
$GPGGA,000054.00,3357.6686,N,11922.5774,W,1,10,0.8,3.5,M,-33.6,M,,*5F
$PYRTM,2024,127.000656934190,18.110304344329
$GPGGA,000055.00,3357.6683,N,11922.5777,W,1,10,0.8,3.5,M,-33.6,M,,*58
$PYRTM,2024,127.000668512859,18.110315922998
$GPGGA,000056.00,3357.6677,N,11922.5775,W,1,10,0.8,3.6,M,-33.6,M,,*51
$PYRTM,2024,127.000680088194,18.110327498333
$GPGGA,000057.00,3357.6672,N,11922.5773,W,1,10,0.8,3.6,M,-33.6,M,,*53
$PYRTM,2024,127.000691648009,18.110339058160
$GPGGA,000058.00,3357.6668,N,11922.5775,W,1,10,0.8,3.6,M,-33.6,M,,*51
$PYRTM,2024,127.000703235509,18.110350645648
$GPGGA,000059.00,3357.6665,N,11922.5778,W,1,10,0.8,3.4,M,-33.6,M,,*52
$PYRTM,2024,127.000714795081,18.110362205220
$GPGGA,000100.00,3357.6661,N,11922.5780,W,1,10,0.8,2.8,M,-33.6,M,,*51
$PYRTM,2024,127.000726383715,18.110373793854
$GPGGA,000101.00,3357.6657,N,11922.5780,W,1,10,0.8,4.9,M,-33.6,M,,*52
$PYRTM,2024,127.000737942778,18.110385352917
$GPGGA,000102.00,3357.6652,N,11922.5780,W,1,10,0.8,2.7,M,-33.6,M,,*5C
$PYRTM,2024,127.000749531678,18.110396941817
$GPGGA,000103.00,3357.6647,N,11922.5782,W,1,10,0.8,2.5,M,-33.6,M,,*59
$PYRTM,2024,127.000761092373,18.110408502523
$GPGGA,000104.00,3357.6644,N,11922.5786,W,1,10,0.8,2.3,M,-33.6,M,,*5F
$PYRTM,2024,127.000773131366,18.110420541505
$GPGGA,000105.00,3357.6643,N,11922.5790,W,1,10,0.8,2.0,M,-33.6,M,,*5D
$PYRTM,2024,127.000784366250,18.110431776389
$GPGGA,000106.00,3357.6639,N,11922.5793,W,1,10,0.8,1.5,M,-33.6,M,,*56
$PYRTM,2024,127.000795828472,18.110443238611
$GPGGA,000107.00,3357.6633,N,11922.5794,W,1,10,0.8,5.1,M,-33.6,M,,*5A
$PYRTM,2024,127.000807388576,18.110454798715
$GPGGA,000108.00,3357.6627,N,11922.5796,W,1,10,0.8,5.1,M,-33.6,M,,*52
$PYRTM,2024,127.000818978079,18.110466388218
$GPGGA,000109.00,3357.6624,N,11922.5799,W,1,10,0.8,4.9,M,-33.6,M,,*56
$PYRTM,2024,127.000830667396,18.110478077535
$GPGGA,000110.00,3357.6621,N,11922.5802,W,1,10,0.8,4.1,M,-33.6,M,,*5E
$PYRTM,2024,127.000842125428,18.110489535567
$GPGGA,000111.00,3357.6616,N,11922.5806,W,1,10,0.8,2.5,M,-33.6,M,,*5D
$PYRTM,2024,127.000853684745,18.110501094884
$GPGGA,000112.00,3357.6611,N,11922.5808,W,1,10,0.8,3.0,M,-33.6,M,,*53
$PYRTM,2024,127.000866419410,18.110513829549
$GPGGA,000113.00,3357.6607,N,11922.5807,W,1,10,0.8,3.2,M,-33.6,M,,*58
$PYRTM,2024,127.000879047616,18.110526457755
$GPGGA,000114.00,3357.6603,N,11922.5808,W,1,10,0.8,3.2,M,-33.6,M,,*54
$PYRTM,2024,127.000888423021,18.110535833160
$GPGGA,000115.00,3357.6599,N,11922.5812,W,1,10,0.8,3.6,M,-33.6,M,,*5A
$PYRTM,2024,127.000899981505,18.110547391644
$GPGGA,000116.00,3357.6594,N,11922.5816,W,1,10,0.8,3.7,M,-33.6,M,,*51
$PYRTM,2024,127.000911565509,18.110558975648
$GPGGA,000117.00,3357.6589,N,11922.5816,W,1,10,0.8,3.6,M,-33.6,M,,*5D
$PYRTM,2024,127.000923246933,18.110570657060
$GPGGA,000118.00,3357.6583,N,11922.5815,W,1,10,0.8,3.5,M,-33.6,M,,*58
$PYRTM,2024,127.000934717731,18.110582127870
$GPGGA,000119.00,3357.6577,N,11922.5817,W,1,10,0.8,6.4,M,-33.6,M,,*54
$PYRTM,2024,127.000946277743,18.110593687882
$GPGGA,000120.00,3357.6572,N,11922.5820,W,1,10,0.8,6.3,M,-33.6,M,,*58
$PYRTM,2024,127.000957866389,18.110605276528
$GPGGA,000121.00,3357.6568,N,11922.5821,W,1,10,0.8,6.1,M,-33.6,M,,*51
$PYRTM,2024,127.000969426782,18.110616836921
$GPGGA,000122.00,3357.6562,N,11922.5824,W,1,10,0.8,6.0,M,-33.6,M,,*5C
$PYRTM,2024,127.000981463345,18.110628873495
$GPGGA,000123.00,3357.6557,N,11922.5827,W,1,10,0.8,5.7,M,-33.6,M,,*5C
$PYRTM,2024,127.000992575012,18.110639985150
$GPGGA,000124.00,3357.6552,N,11922.5828,W,1,10,0.8,5.5,M,-33.6,M,,*53
$PYRTM,2024,127.001004279722,18.110651689861
$GPGGA,000125.00,3357.6547,N,11922.5829,W,1,10,0.8,5.7,M,-33.6,M,,*55
$PYRTM,2024,127.001015723414,18.110663133553
$GPGGA,000126.00,3357.6542,N,11922.5831,W,1,10,0.8,6.8,M,-33.6,M,,*56
$PYRTM,2024,127.001027311157,18.110674721296
$GPGGA,000127.00,3357.6538,N,11922.5835,W,1,10,0.8,7.0,M,-33.6,M,,*57
$PYRTM,2024,127.001038871134,18.110686281273
$GPGGA,000128.00,3357.6534,N,11922.5837,W,1,10,0.8,6.4,M,-33.6,M,,*53
$PYRTM,2024,127.001050458947,18.110697869074
$GPGGA,000129.00,3357.6529,N,11922.5838,W,1,10,0.8,4.1,M,-33.6,M,,*56
$PYRTM,2024,127.001062020093,18.110709430231
$GPGGA,000130.00,3357.6524,N,11922.5839,W,1,10,0.8,5.6,M,-33.6,M,,*54
$PYRTM,2024,127.001073609132,18.110721019282
$GPGGA,000131.00,3357.6520,N,11922.5839,W,1,10,0.8,5.5,M,-33.6,M,,*52
$PYRTM,2024,127.001085166759,18.110732576898
$GPGGA,000132.00,3357.6516,N,11922.5840,W,1,10,0.8,5.4,M,-33.6,M,,*5B
$PYRTM,2024,127.001096756528,18.110744166667
$GPGGA,000133.00,3357.6512,N,11922.5842,W,1,10,0.8,2.2,M,-33.6,M,,*5D
$PYRTM,2024,127.001108315926,18.110755726065
$GPGGA,000134.00,3357.6506,N,11922.5845,W,1,10,0.8,3.4,M,-33.6,M,,*5F
$PYRTM,2024,127.001120352940,18.110767763079
$GPGGA,000135.00,3357.6501,N,11922.5846,W,1,10,0.8,3.3,M,-33.6,M,,*5D
$PYRTM,2024,127.001131464213,18.110778874352
$GPGGA,000136.00,3357.6497,N,11922.5846,W,1,10,0.8,3.3,M,-33.6,M,,*50
$PYRTM,2024,127.001143049051,18.110790459201
$GPGGA,000137.00,3357.6492,N,11922.5848,W,1,10,0.8,1.8,M,-33.6,M,,*53
$PYRTM,2024,127.001154612222,18.110802022361
$GPGGA,000138.00,3357.6487,N,11922.5851,W,1,10,0.8,0.8,M,-33.6,M,,*51
$PYRTM,2024,127.001166197176,18.110813607315
$GPGGA,000139.00,3357.6482,N,11922.5853,W,1,10,0.8,0.7,M,-33.6,M,,*58
$PYRTM,2024,127.001177760937,18.110825171076
$GPGGA,000140.00,3357.6479,N,11922.5855,W,1,10,0.8,0.7,M,-33.6,M,,*54
$PYRTM,2024,127.001189348843,18.110836758981
$GPGGA,000141.00,3357.6475,N,11922.5856,W,1,10,0.8,0.8,M,-33.6,M,,*55
$PYRTM,2024,127.001200908854,18.110848318993
$GPGGA,000142.00,3357.6471,N,11922.5856,W,1,10,0.8,4.0,M,-33.6,M,,*5E
$PYRTM,2024,127.001213643449,18.110861053588
$GPGGA,000143.00,3357.6465,N,11922.5857,W,1,10,0.8,4.1,M,-33.6,M,,*5A
$PYRTM,2024,127.001226270463,18.110873680602
$GPGGA,000144.00,3357.6460,N,11922.5860,W,1,10,0.8,3.7,M,-33.6,M,,*5D
$PYRTM,2024,127.001235646470,18.110883056609
$GPGGA,000145.00,3357.6457,N,11922.5864,W,1,10,0.8,3.8,M,-33.6,M,,*53
$PYRTM,2024,127.001247206053,18.110894616204
$GPGGA,000146.00,3357.6455,N,11922.5866,W,1,10,0.8,4.1,M,-33.6,M,,*5E
$PYRTM,2024,127.001258789664,18.110906199803
$GPGGA,000147.00,3357.6449,N,11922.5864,W,1,10,0.8,4.8,M,-33.6,M,,*59
$PYRTM,2024,127.001270352859,18.110917762998
$GPGGA,000148.00,3357.6440,N,11922.5864,W,1,10,0.8,5.4,M,-33.6,M,,*52
$PYRTM,2024,127.001281943912,18.110929354051
$GPGGA,000149.00,3357.6433,N,11922.5867,W,1,10,0.8,4.1,M,-33.6,M,,*50
$PYRTM,2024,127.001293501366,18.110940911505
$GPGGA,000150.00,3357.6430,N,11922.5873,W,1,10,0.8,3.8,M,-33.6,M,,*50
$PYRTM,2024,127.001304164271,18.110951574410
$GPGGA,000151.00,3357.6428,N,11922.5874,W,1,10,0.8,3.4,M,-33.6,M,,*53
$PYRTM,2024,127.001317243866,18.110964654005
$GPGGA,000152.00,3357.6423,N,11922.5872,W,1,10,0.8,1.4,M,-33.6,M,,*5F
$PYRTM,2024,127.001327893275,18.110975303414
$GPGGA,000153.00,3357.6415,N,11922.5872,W,1,10,0.8,2.5,M,-33.6,M,,*59
$PYRTM,2024,127.001339003079,18.110986413218
$GPGGA,000154.00,3357.6409,N,11922.5876,W,1,10,0.8,2.1,M,-33.6,M,,*53
$PYRTM,2024,127.001350114259,18.110997524398
$GPGGA,000155.00,3357.6405,N,11922.5879,W,1,10,0.8,1.7,M,-33.6,M,,*54
$PYRTM,2024,127.001361228032,18.111008638171
$GPGGA,000156.00,3357.6404,N,11922.5881,W,1,10,0.8,1.7,M,-33.6,M,,*51
$PYRTM,2024,127.001372336759,18.111019746898
$GPGGA,000157.00,3357.6400,N,11922.5882,W,1,10,0.8,1.7,M,-33.6,M,,*57
$PYRTM,2024,127.001383318380,18.111030728519
$GPGGA,000158.00,3357.6394,N,11922.5883,W,1,10,0.8,1.7,M,-33.6,M,,*53
$PYRTM,2024,127.001394429850,18.111041839988
$GPGGA,000159.00,3357.6387,N,11922.5884,W,1,10,0.8,1.8,M,-33.6,M,,*58
$PYRTM,2024,127.001405542106,18.111052952257
$GPGGA,000200.00,3357.6383,N,11922.5885,W,1,10,0.8,1.8,M,-33.6,M,,*52
$PYRTM,2024,127.001416653796,18.111064063935
$GPGGA,000201.00,3357.6380,N,11922.5888,W,1,10,0.8,1.8,M,-33.6,M,,*5D
$PYRTM,2024,127.001427763218,18.111075173356
$GPGGA,000202.00,3357.6377,N,11922.5889,W,1,10,0.8,1.8,M,-33.6,M,,*57
$PYRTM,2024,127.001443389734,18.111090799873
$GPGGA,000203.00,3357.6372,N,11922.5887,W,1,10,0.8,2.9,M,-33.6,M,,*5F
$PYRTM,2024,127.001454500162,18.111101910301
$GPGGA,000204.00,3357.6367,N,11922.5885,W,1,10,0.8,3.0,M,-33.6,M,,*56
$PYRTM,2024,127.001465612269,18.111113022407
$GPGGA,000205.00,3357.6363,N,11922.5886,W,1,10,0.8,3.0,M,-33.6,M,,*50
$PYRTM,2024,127.001477082512,18.111124492662
$GPGGA,000206.00,3357.6359,N,11922.5888,W,1,10,0.8,3.0,M,-33.6,M,,*54
$PYRTM,2024,127.001488193704,18.111135603843
$GPGGA,000207.00,3357.6355,N,11922.5889,W,1,10,0.8,3.0,M,-33.6,M,,*58
$PYRTM,2024,127.001499306910,18.111146717049
$GPGGA,000208.00,3357.6350,N,11922.5889,W,1,10,0.8,3.0,M,-33.6,M,,*52
$PYRTM,2024,127.001510416250,18.111157826389
$GPGGA,000209.00,3357.6345,N,11922.5890,W,1,10,0.8,3.0,M,-33.6,M,,*5F
$PYRTM,2024,127.001521529410,18.111168939549
$GPGGA,000210.00,3357.6341,N,11922.5891,W,1,10,0.8,3.0,M,-33.6,M,,*52
$PYRTM,2024,127.001532638391,18.111180048530
$GPGGA,000211.00,3357.6338,N,11922.5895,W,1,10,0.8,2.9,M,-33.6,M,,*51
$PYRTM,2024,127.001543621481,18.111191031620
$GPGGA,000212.00,3357.6334,N,11922.5899,W,1,10,0.8,2.4,M,-33.6,M,,*5F
$PYRTM,2024,127.001554730590,18.111202140729
$GPGGA,000213.00,3357.6329,N,11922.5903,W,1,10,0.8,2.8,M,-33.6,M,,*5C
$PYRTM,2024,127.001570241146,18.111217651285
$GPGGA,000214.00,3357.6325,N,11922.5903,W,1,10,0.8,3.1,M,-33.6,M,,*5F
$PYRTM,2024,127.001581828183,18.111229238322
$GPGGA,000215.00,3357.6320,N,11922.5903,W,1,10,0.8,3.1,M,-33.6,M,,*5B
$PYRTM,2024,127.001593390266,18.111240800405
$GPGGA,000216.00,3357.6316,N,11922.5906,W,1,10,0.8,3.1,M,-33.6,M,,*58
$PYRTM,2024,127.001604978681,18.111252388819
$GPGGA,000217.00,3357.6312,N,11922.5908,W,1,10,0.8,3.0,M,-33.6,M,,*52
$PYRTM,2024,127.001616538611,18.111263948750
$GPGGA,000218.00,3357.6307,N,11922.5910,W,1,10,0.8,3.1,M,-33.6,M,,*51
$PYRTM,2024,127.001628139097,18.111275549236
$GPGGA,000219.00,3357.6303,N,11922.5910,W,1,10,0.8,3.2,M,-33.6,M,,*57
$PYRTM,2024,127.001639688611,18.111287098762
$GPGGA,000220.00,3357.6298,N,11922.5908,W,1,10,0.8,3.8,M,-33.6,M,,*5D
$PYRTM,2024,127.001651273727,18.111298683866
$GPGGA,000221.00,3357.6292,N,11922.5908,W,1,10,0.8,3.5,M,-33.6,M,,*5B
$PYRTM,2024,127.001662833495,18.111310243634
$GPGGA,000222.00,3357.6286,N,11922.5911,W,1,10,0.8,5.4,M,-33.6,M,,*52
$PYRTM,2024,127.001674420729,18.111321830868
$GPGGA,000223.00,3357.6281,N,11922.5914,W,1,10,0.8,5.1,M,-33.6,M,,*54
$PYRTM,2024,127.001685983229,18.111333393368
$GPGGA,000224.00,3357.6277,N,11922.5915,W,1,10,0.8,5.2,M,-33.6,M,,*58
$PYRTM,2024,127.001697569259,18.111344979410
$GPGGA,000225.00,3357.6272,N,11922.5914,W,1,10,0.8,2.9,M,-33.6,M,,*51
$PYRTM,2024,127.001709130208,18.111356540347
$GPGGA,000226.00,3357.6267,N,11922.5914,W,1,10,0.8,0.8,M,-33.6,M,,*55
$PYRTM,2024,127.001720713472,18.111368123611
$GPGGA,000227.00,3357.6261,N,11922.5915,W,1,10,0.8,1.5,M,-33.6,M,,*5F
$PYRTM,2024,127.001732279456,18.111379689595
$GPGGA,000228.00,3357.6256,N,11922.5918,W,1,10,0.8,1.1,M,-33.6,M,,*5D
$PYRTM,2024,127.001743865845,18.111391275984
$GPGGA,000229.00,3357.6251,N,11922.5921,W,1,10,0.8,1.1,M,-33.6,M,,*51
$PYRTM,2024,127.001755428032,18.111402838171
$GPGGA,000230.00,3357.6248,N,11922.5922,W,1,10,0.8,1.0,M,-33.6,M,,*53
$PYRTM,2024,127.001767016481,18.111414426620
$GPGGA,000231.00,3357.6243,N,11922.5921,W,1,10,0.8,6.1,M,-33.6,M,,*5C
$PYRTM,2024,127.001778580671,18.111425990810
$GPGGA,000232.00,3357.6236,N,11922.5921,W,1,10,0.8,5.5,M,-33.6,M,,*5A
$PYRTM,2024,127.001790164479,18.111437574618
$GPGGA,000233.00,3357.6230,N,11922.5921,W,1,10,0.8,3.2,M,-33.6,M,,*5C
$PYRTM,2024,127.001801723287,18.111449133426
$GPGGA,000234.00,3357.6226,N,11922.5921,W,1,10,0.8,2.7,M,-33.6,M,,*58
$PYRTM,2024,127.001813761771,18.111461171910
$GPGGA,000235.00,3357.6223,N,11922.5924,W,1,10,0.8,2.6,M,-33.6,M,,*58
$PYRTM,2024,127.001824872431,18.111472282569
$GPGGA,000236.00,3357.6219,N,11922.5924,W,1,10,0.8,3.5,M,-33.6,M,,*50
$PYRTM,2024,127.001836459225,18.111483869363
$GPGGA,000237.00,3357.6211,N,11922.5923,W,1,10,0.8,3.3,M,-33.6,M,,*58
$PYRTM,2024,127.001848021296,18.111495431435
$GPGGA,000238.00,3357.6203,N,11922.5923,W,1,10,0.8,3.9,M,-33.6,M,,*5E
$PYRTM,2024,127.001859607766,18.111507017905
$GPGGA,000239.00,3357.6201,N,11922.5927,W,1,10,0.8,3.7,M,-33.6,M,,*57
$PYRTM,2024,127.001871169421,18.111518579560
$GPGGA,000240.00,3357.6200,N,11922.5930,W,1,10,0.8,3.7,M,-33.6,M,,*5E
$PYRTM,2024,127.001882759097,18.111530169236
$GPGGA,000241.00,3357.6196,N,11922.5929,W,1,10,0.8,4.8,M,-33.6,M,,*53
$PYRTM,2024,127.001894316493,18.111541726632
$GPGGA,000242.00,3357.6188,N,11922.5926,W,1,10,0.8,5.2,M,-33.6,M,,*5B
$PYRTM,2024,127.001906945058,18.111554355197
$GPGGA,000243.00,3357.6180,N,11922.5925,W,1,10,0.8,4.6,M,-33.6,M,,*54
$PYRTM,2024,127.001918507176,18.111565917315
$GPGGA,000244.00,3357.6176,N,11922.5927,W,1,10,0.8,4.5,M,-33.6,M,,*5B
$PYRTM,2024,127.001930096736,18.111577506875
$GPGGA,000245.00,3357.6174,N,11922.5931,W,1,10,0.8,4.5,M,-33.6,M,,*5F
$PYRTM,2024,127.001941654132,18.111589064271
$GPGGA,000246.00,3357.6171,N,11922.5933,W,1,10,0.8,4.6,M,-33.6,M,,*58
$PYRTM,2024,127.001953244086,18.111600654236
$GPGGA,000247.00,3357.6165,N,11922.5932,W,1,10,0.8,4.6,M,-33.6,M,,*5D
$PYRTM,2024,127.001964802095,18.111612212245
$GPGGA,000248.00,3357.6158,N,11922.5930,W,1,10,0.8,4.5,M,-33.6,M,,*5D
$PYRTM,2024,127.001976389595,18.111623799734
$GPGGA,000249.00,3357.6153,N,11922.5933,W,1,10,0.8,4.2,M,-33.6,M,,*53
$PYRTM,2024,127.001987950718,18.111635360856
$GPGGA,000250.00,3357.6150,N,11922.5939,W,1,10,0.8,3.9,M,-33.6,M,,*5E
$PYRTM,2024,127.001999538322,18.111646948461
$GPGGA,000251.00,3357.6146,N,11922.5943,W,1,10,0.8,3.8,M,-33.6,M,,*54
$PYRTM,2024,127.002011099340,18.111658509479
$GPGGA,000252.00,3357.6141,N,11922.5941,W,1,10,0.8,3.5,M,-33.6,M,,*5F
$PYRTM,2024,127.002022686539,18.111670096678
$GPGGA,000253.00,3357.6133,N,11922.5940,W,1,10,0.8,3.6,M,-33.6,M,,*59
$PYRTM,2024,127.002034246539,18.111681656678
$GPGGA,000254.00,3357.6126,N,11922.5941,W,1,10,0.8,3.7,M,-33.6,M,,*5A
$PYRTM,2024,127.002045834225,18.111693244363
$GPGGA,000255.00,3357.6122,N,11922.5945,W,1,10,0.8,3.7,M,-33.6,M,,*5B
$PYRTM,2024,127.002057394884,18.111704805023
$GPGGA,000256.00,3357.6119,N,11922.5951,W,1,10,0.8,3.7,M,-33.6,M,,*55
$PYRTM,2024,127.002068982442,18.111716392581
$GPGGA,000257.00,3357.6114,N,11922.5954,W,1,10,0.8,3.5,M,-33.6,M,,*5E
$PYRTM,2024,127.002080544144,18.111727954282
$GPGGA,000258.00,3357.6106,N,11922.5952,W,1,10,0.8,3.5,M,-33.6,M,,*54
$PYRTM,2024,127.002092133669,18.111739543808
$GPGGA,000259.00,3357.6098,N,11922.5950,W,1,10,0.8,3.9,M,-33.6,M,,*5D
$PYRTM,2024,127.002103692037,18.111751102176
$GPGGA,000300.00,3357.6094,N,11922.5953,W,1,10,0.8,4.2,M,-33.6,M,,*53
$PYRTM,2024,127.002115294421,18.111762704560
$GPGGA,000301.00,3357.6091,N,11922.5958,W,1,10,0.8,4.1,M,-33.6,M,,*5F
$PYRTM,2024,127.002126842269,18.111774252407
$GPGGA,000302.00,3357.6086,N,11922.5961,W,1,10,0.8,5.9,M,-33.6,M,,*59
$PYRTM,2024,127.002138877917,18.111786288056
$GPGGA,000303.00,3357.6080,N,11922.5960,W,1,10,0.8,3.3,M,-33.6,M,,*53
$PYRTM,2024,127.002149988102,18.111797398241
$GPGGA,000304.00,3357.6074,N,11922.5958,W,1,10,0.8,2.5,M,-33.6,M,,*53
$PYRTM,2024,127.002162027130,18.111809437280
$GPGGA,000305.00,3357.6069,N,11922.5960,W,1,10,0.8,2.5,M,-33.6,M,,*55
$PYRTM,2024,127.002173137604,18.111820547743
$GPGGA,000306.00,3357.6066,N,11922.5965,W,1,10,0.8,2.5,M,-33.6,M,,*5C
$PYRTM,2024,127.002184724444,18.111832134583
$GPGGA,000307.00,3357.6062,N,11922.5968,W,1,10,0.8,2.2,M,-33.6,M,,*53
$PYRTM,2024,127.002196285903,18.111843696042
$GPGGA,000308.00,3357.6056,N,11922.5969,W,1,10,0.8,2.6,M,-33.6,M,,*5E
$PYRTM,2024,127.002207872593,18.111855282731
$GPGGA,000309.00,3357.6048,N,11922.5969,W,1,10,0.8,2.1,M,-33.6,M,,*57
$PYRTM,2024,127.002219432963,18.111866843102
$GPGGA,000310.00,3357.6041,N,11922.5970,W,1,10,0.8,2.1,M,-33.6,M,,*5E
$PYRTM,2024,127.002231023553,18.111878433692
$GPGGA,000311.00,3357.6037,N,11922.5972,W,1,10,0.8,1.9,M,-33.6,M,,*57
$PYRTM,2024,127.002242581551,18.111889991690
$GPGGA,000312.00,3357.6034,N,11922.5975,W,1,10,0.8,1.8,M,-33.6,M,,*51
$PYRTM,2024,127.002255316030,18.111902726169
$GPGGA,000313.00,3357.6029,N,11922.5975,W,1,10,0.8,0.9,M,-33.6,M,,*5C
$PYRTM,2024,127.002267931053,18.111915341192
$GPGGA,000314.00,3357.6021,N,11922.5975,W,1,10,0.8,4.3,M,-33.6,M,,*5D
$PYRTM,2024,127.002277320197,18.111924730336
$GPGGA,000315.00,3357.6015,N,11922.5974,W,1,10,0.8,4.1,M,-33.6,M,,*58
$PYRTM,2024,127.002288880104,18.111936290243
$GPGGA,000316.00,3357.6011,N,11922.5975,W,1,10,0.8,4.1,M,-33.6,M,,*5E
$PYRTM,2024,127.002300466377,18.111947876516
$GPGGA,000317.00,3357.6008,N,11922.5976,W,1,10,0.8,3.4,M,-33.6,M,,*56
$PYRTM,2024,127.002312028484,18.111959438623
$GPGGA,000318.00,3357.6003,N,11922.5977,W,1,10,0.8,2.4,M,-33.6,M,,*52
$PYRTM,2024,127.002323613866,18.111971024005
$GPGGA,000319.00,3357.5997,N,11922.5978,W,1,10,0.8,2.4,M,-33.6,M,,*5B
$PYRTM,2024,127.002335175058,18.111982585208
$GPGGA,000320.00,3357.5994,N,11922.5977,W,1,10,0.8,2.8,M,-33.6,M,,*51
$PYRTM,2024,127.002346761863,18.111994172014
$GPGGA,000321.00,3357.5990,N,11922.5978,W,1,10,0.8,2.8,M,-33.6,M,,*5B
$PYRTM,2024,127.002358323403,18.112005733542
$GPGGA,000322.00,3357.5985,N,11922.5979,W,1,10,0.8,4.3,M,-33.6,M,,*50
$PYRTM,2024,127.002369910243,18.112017320382
$GPGGA,000323.00,3357.5979,N,11922.5980,W,1,10,0.8,4.8,M,-33.6,M,,*5F
$PYRTM,2024,127.002381471829,18.112028881968
$GPGGA,000324.00,3357.5974,N,11922.5980,W,1,10,0.8,4.8,M,-33.6,M,,*55
$PYRTM,2024,127.002393057801,18.112040467940
$GPGGA,000325.00,3357.5970,N,11922.5982,W,1,10,0.8,4.5,M,-33.6,M,,*5F
$PYRTM,2024,127.002404621030,18.112052031169
$GPGGA,000326.00,3357.5965,N,11922.5986,W,1,10,0.8,1.2,M,-33.6,M,,*5E
$PYRTM,2024,127.002416207928,18.112063618079
$GPGGA,000327.00,3357.5957,N,11922.5988,W,1,10,0.8,1.8,M,-33.6,M,,*5A
$PYRTM,2024,127.002427768519,18.112075178657
$GPGGA,000328.00,3357.5951,N,11922.5988,W,1,10,0.8,1.8,M,-33.6,M,,*53
$PYRTM,2024,127.002439357546,18.112086767685
$GPGGA,000329.00,3357.5946,N,11922.5988,W,1,10,0.8,2.3,M,-33.6,M,,*5C
$PYRTM,2024,127.002450916863,18.112098327002
$GPGGA,000330.00,3357.5940,N,11922.5990,W,1,10,0.8,4.8,M,-33.6,M,,*56
$PYRTM,2024,127.002462506632,18.112109916771
$GPGGA,000331.00,3357.5934,N,11922.5993,W,1,10,0.8,4.0,M,-33.6,M,,*5F
$PYRTM,2024,127.002474065220,18.112121475359
$GPGGA,000332.00,3357.5928,N,11922.5995,W,1,10,0.8,4.0,M,-33.6,M,,*57
$PYRTM,2024,127.002485650810,18.112133060949
$GPGGA,000333.00,3357.5923,N,11922.5997,W,1,10,0.8,3.6,M,-33.6,M,,*5E
$PYRTM,2024,127.002497213866,18.112144624005
$GPGGA,000334.00,3357.5919,N,11922.5998,W,1,10,0.8,3.5,M,-33.6,M,,*5C
$PYRTM,2024,127.002509250405,18.112156660544
$GPGGA,000335.00,3357.5914,N,11922.5997,W,1,10,0.8,4.3,M,-33.6,M,,*5E
$PYRTM,2024,127.002520362639,18.112167772789
$GPGGA,000336.00,3357.5907,N,11922.5998,W,1,10,0.8,4.8,M,-33.6,M,,*5B
$PYRTM,2024,127.002531949769,18.112179359907
$GPGGA,000337.00,3357.5902,N,11922.5999,W,1,10,0.8,4.8,M,-33.6,M,,*5E
$PYRTM,2024,127.002543510972,18.112190921111
$GPGGA,000338.00,3357.5897,N,11922.5999,W,1,10,0.8,5.0,M,-33.6,M,,*55
$PYRTM,2024,127.002555096701,18.112202506840
$GPGGA,000339.00,3357.5891,N,11922.6000,W,1,10,0.8,2.4,M,-33.6,M,,*5B
$PYRTM,2024,127.002566659062,18.112214069201
$GPGGA,000340.00,3357.5885,N,11922.6002,W,1,10,0.8,5.1,M,-33.6,M,,*50
$PYRTM,2024,127.002578247303,18.112225657442
$GPGGA,000341.00,3357.5881,N,11922.6002,W,1,10,0.8,5.2,M,-33.6,M,,*56
$PYRTM,2024,127.002589805347,18.112237215486
$GPGGA,000342.00,3357.5878,N,11922.6000,W,1,10,0.8,5.4,M,-33.6,M,,*57
$PYRTM,2024,127.002602538345,18.112249948495
$GPGGA,000343.00,3357.5872,N,11922.5999,W,1,10,0.8,6.2,M,-33.6,M,,*53
$PYRTM,2024,127.002615152928,18.112262563067
$GPGGA,000344.00,3357.5864,N,11922.6001,W,1,10,0.8,4.9,M,-33.6,M,,*51
$PYRTM,2024,127.002624545069,18.112271955220
$GPGGA,000345.00,3357.5860,N,11922.6004,W,1,10,0.8,4.7,M,-33.6,M,,*5F
$PYRTM,2024,127.002636103588,18.112283513727
$GPGGA,000346.00,3357.5856,N,11922.6004,W,1,10,0.8,4.8,M,-33.6,M,,*56
$PYRTM,2024,127.002647689838,18.112295099977
$GPGGA,000347.00,3357.5852,N,11922.6002,W,1,10,0.8,5.6,M,-33.6,M,,*5A
$PYRTM,2024,127.002659251887,18.112306662037
$GPGGA,000348.00,3357.5844,N,11922.6001,W,1,10,0.8,5.6,M,-33.6,M,,*51
$PYRTM,2024,127.002670838681,18.112318248819
$GPGGA,000349.00,3357.5836,N,11922.6005,W,1,10,0.8,5.5,M,-33.6,M,,*52
$PYRTM,2024,127.002682399097,18.112329809236
$GPGGA,000350.00,3357.5831,N,11922.6008,W,1,10,0.8,5.2,M,-33.6,M,,*57
$PYRTM,2024,127.002693985972,18.112341396111
$GPGGA,000351.00,3357.5829,N,11922.6008,W,1,10,0.8,5.2,M,-33.6,M,,*5F
$PYRTM,2024,127.002705546713,18.112352956852
$GPGGA,000352.00,3357.5824,N,11922.6004,W,1,10,0.8,7.1,M,-33.6,M,,*5C
$PYRTM,2024,127.002717585255,18.112364995394
$GPGGA,000353.00,3357.5815,N,11922.6004,W,1,10,0.8,7.2,M,-33.6,M,,*5C
$PYRTM,2024,127.002728694838,18.112376104988
$GPGGA,000354.00,3357.5808,N,11922.6006,W,1,10,0.8,7.0,M,-33.6,M,,*57
$PYRTM,2024,127.002740281644,18.112387691782
$GPGGA,000355.00,3357.5805,N,11922.6009,W,1,10,0.8,6.9,M,-33.6,M,,*5C
$PYRTM,2024,127.002751844236,18.112399254375
$GPGGA,000356.00,3357.5805,N,11922.6012,W,1,10,0.8,6.9,M,-33.6,M,,*55
$PYRTM,2024,127.002763446933,18.112410857072
$GPGGA,000357.00,3357.5802,N,11922.6013,W,1,10,0.8,7.1,M,-33.6,M,,*5B
$PYRTM,2024,127.002775578090,18.112422988229
$GPGGA,000358.00,3357.5795,N,11922.6009,W,1,10,0.8,7.7,M,-33.6,M,,*58
$PYRTM,2024,127.002786220475,18.112433630613
$GPGGA,000359.00,3357.5788,N,11922.6007,W,1,10,0.8,7.4,M,-33.6,M,,*58
$PYRTM,2024,127.002797329398,18.112444739537
$GPGGA,000400.00,3357.5784,N,11922.6009,W,1,10,0.8,7.5,M,-33.6,M,,*50
$PYRTM,2024,127.002808440856,18.112455850995
$GPGGA,000401.00,3357.5782,N,11922.6013,W,1,10,0.8,7.5,M,-33.6,M,,*5C
$PYRTM,2024,127.002819552049,18.112466962187
$GPGGA,000402.00,3357.5780,N,11922.6015,W,1,10,0.8,7.5,M,-33.6,M,,*5B
$PYRTM,2024,127.002830547569,18.112477957720
$GPGGA,000403.00,3357.5773,N,11922.6013,W,1,10,0.8,7.0,M,-33.6,M,,*55
$PYRTM,2024,127.002841658889,18.112489069028
$GPGGA,000404.00,3357.5766,N,11922.6010,W,1,10,0.8,6.9,M,-33.6,M,,*5D
$PYRTM,2024,127.002852769861,18.112500180000
$GPGGA,000405.00,3357.5760,N,11922.6009,W,1,10,0.8,6.5,M,-33.6,M,,*5E
$PYRTM,2024,127.002864356597,18.112511766736
$GPGGA,000406.00,3357.5756,N,11922.6012,W,1,10,0.8,6.5,M,-33.6,M,,*52
$PYRTM,2024,127.002875475127,18.112522885266
$GPGGA,000407.00,3357.5754,N,11922.6017,W,1,10,0.8,6.5,M,-33.6,M,,*54
$PYRTM,2024,127.002886463738,18.112533873889
$GPGGA,000408.00,3357.5749,N,11922.6016,W,1,10,0.8,6.2,M,-33.6,M,,*51
$PYRTM,2024,127.002897588924,18.112544999063
$GPGGA,000409.00,3357.5741,N,11922.6013,W,1,10,0.8,5.8,M,-33.6,M,,*54
$PYRTM,2024,127.002908686238,18.112556096389
$GPGGA,000410.00,3357.5732,N,11922.6010,W,1,10,0.8,5.5,M,-33.6,M,,*56
$PYRTM,2024,127.002920259016,18.112567669155
$GPGGA,000411.00,3357.5726,N,11922.6013,W,1,10,0.8,5.5,M,-33.6,M,,*51
$PYRTM,2024,127.002931836609,18.112579246748
$GPGGA,000412.00,3357.5722,N,11922.6019,W,1,10,0.8,5.4,M,-33.6,M,,*5D
$PYRTM,2024,127.002943409873,18.112590820012
$GPGGA,000413.00,3357.5719,N,11922.6022,W,1,10,0.8,5.5,M,-33.6,M,,*5D
$PYRTM,2024,127.002959148553,18.112606558692
$GPGGA,000414.00,3357.5716,N,11922.6019,W,1,10,0.8,5.5,M,-33.6,M,,*5D
$PYRTM,2024,127.002970723333,18.112618133472
$GPGGA,000415.00,3357.5709,N,11922.6014,W,1,10,0.8,5.8,M,-33.6,M,,*52
$PYRTM,2024,127.002982297720,18.112629707859
$GPGGA,000416.00,3357.5700,N,11922.6013,W,1,10,0.8,5.8,M,-33.6,M,,*5F
$PYRTM,2024,127.002993872002,18.112641282141
$GPGGA,000417.00,3357.5695,N,11922.6017,W,1,10,0.8,5.5,M,-33.6,M,,*5A
$PYRTM,2024,127.003005441146,18.112652851285
$GPGGA,000418.00,3357.5693,N,11922.6021,W,1,10,0.8,5.5,M,-33.6,M,,*56
$PYRTM,2024,127.003017019491,18.112664429630
$GPGGA,000419.00,3357.5687,N,11922.6018,W,1,10,0.8,5.0,M,-33.6,M,,*5D
$PYRTM,2024,127.003028594248,18.112676004387
$GPGGA,000420.00,3357.5678,N,11922.6014,W,1,10,0.8,4.9,M,-33.6,M,,*53
$PYRTM,2024,127.003040168935,18.112687579074
$GPGGA,000421.00,3357.5668,N,11922.6011,W,1,10,0.8,5.0,M,-33.6,M,,*5E
$PYRTM,2024,127.003051741319,18.112699151458
$GPGGA,000422.00,3357.5662,N,11922.6012,W,1,10,0.8,4.9,M,-33.6,M,,*5C
$PYRTM,2024,127.003063311516,18.112710721655
$GPGGA,000423.00,3357.5660,N,11922.6015,W,1,10,0.8,4.9,M,-33.6,M,,*58
$PYRTM,2024,127.003074891100,18.112722301238
$GPGGA,000424.00,3357.5657,N,11922.6018,W,1,10,0.8,5.0,M,-33.6,M,,*5E
$PYRTM,2024,127.003086468113,18.112733878252
$GPGGA,000425.00,3357.5650,N,11922.6015,W,1,10,0.8,4.8,M,-33.6,M,,*5C
$PYRTM,2024,127.003098039213,18.112745449352
$GPGGA,000426.00,3357.5643,N,11922.6012,W,1,10,0.8,5.5,M,-33.6,M,,*56
$PYRTM,2024,127.003109616447,18.112757026597
$GPGGA,000427.00,3357.5636,N,11922.6011,W,1,10,0.8,5.9,M,-33.6,M,,*5A
$PYRTM,2024,127.003121187014,18.112768597153
$GPGGA,000428.00,3357.5632,N,11922.6015,W,1,10,0.8,5.8,M,-33.6,M,,*54
$PYRTM,2024,127.003132761192,18.112780171331
$GPGGA,000429.00,3357.5629,N,11922.6019,W,1,10,0.8,5.8,M,-33.6,M,,*53
$PYRTM,2024,127.003144329745,18.112791739884
$GPGGA,000430.00,3357.5626,N,11922.6017,W,1,10,0.8,5.5,M,-33.6,M,,*57
$PYRTM,2024,127.003155909722,18.112803319861
$GPGGA,000431.00,3357.5619,N,11922.6012,W,1,10,0.8,5.5,M,-33.6,M,,*5F
$PYRTM,2024,127.003167483102,18.112814893252
$GPGGA,000432.00,3357.5611,N,11922.6010,W,1,10,0.8,5.9,M,-33.6,M,,*5A
$PYRTM,2024,127.003179057581,18.112826467720
$GPGGA,000433.00,3357.5607,N,11922.6013,W,1,10,0.8,5.7,M,-33.6,M,,*51
$PYRTM,2024,127.003190626690,18.112838036829
$GPGGA,000434.00,3357.5605,N,11922.6018,W,1,10,0.8,5.8,M,-33.6,M,,*50
$PYRTM,2024,127.003202668750,18.112850078889
$GPGGA,000435.00,3357.5600,N,11922.6017,W,1,10,0.8,5.7,M,-33.6,M,,*54
$PYRTM,2024,127.003213779803,18.112861189942
$GPGGA,000436.00,3357.5592,N,11922.6012,W,1,10,0.8,5.8,M,-33.6,M,,*55
$PYRTM,2024,127.003225348032,18.112872758171
$GPGGA,000437.00,3357.5586,N,11922.6008,W,1,10,0.8,6.3,M,-33.6,M,,*52
$PYRTM,2024,127.003236927917,18.112884338056
$GPGGA,000438.00,3357.5581,N,11922.6010,W,1,10,0.8,7.5,M,-33.6,M,,*54
$PYRTM,2024,127.003248516863,18.112895927002
$GPGGA,000439.00,3357.5578,N,11922.6014,W,1,10,0.8,7.4,M,-33.6,M,,*56
$PYRTM,2024,127.003260076007,18.112907486146
$GPGGA,000440.00,3357.5574,N,11922.6016,W,1,10,0.8,6.9,M,-33.6,M,,*5A
$PYRTM,2024,127.003271653750,18.112919063889
$GPGGA,000441.00,3357.5569,N,11922.6015,W,1,10,0.8,6.3,M,-33.6,M,,*5E
$PYRTM,2024,127.003283224595,18.112930634734
$GPGGA,000442.00,3357.5564,N,11922.6011,W,1,10,0.8,8.8,M,-33.6,M,,*51
$PYRTM,2024,127.003296291019,18.112943701157
$GPGGA,000443.00,3357.5558,N,11922.6009,W,1,10,0.8,8.9,M,-33.6,M,,*57
$PYRTM,2024,127.003307401725,18.112954811863
$GPGGA,000444.00,3357.5554,N,11922.6010,W,1,10,0.8,8.9,M,-33.6,M,,*54
$PYRTM,2024,127.003318988542,18.112966398681
$GPGGA,000445.00,3357.5550,N,11922.6013,W,1,10,0.8,7.0,M,-33.6,M,,*54
$PYRTM,2024,127.003330551655,18.112977961794
$GPGGA,000446.00,3357.5544,N,11922.6013,W,1,10,0.8,5.3,M,-33.6,M,,*53
$PYRTM,2024,127.003342136632,18.112989546771
$GPGGA,000447.00,3357.5537,N,11922.6009,W,1,10,0.8,6.6,M,-33.6,M,,*5B
$PYRTM,2024,127.003353699942,18.113001110093
$GPGGA,000448.00,3357.5531,N,11922.6007,W,1,10,0.8,9.1,M,-33.6,M,,*54
$PYRTM,2024,127.003365285197,18.113012695336
$GPGGA,000449.00,3357.5525,N,11922.6009,W,1,10,0.8,10.6,M,-33.6,M,,*61
$PYRTM,2024,127.003376846690,18.113024256829
$GPGGA,000450.00,3357.5519,N,11922.6012,W,1,10,0.8,10.5,M,-33.6,M,,*6F
$PYRTM,2024,127.003388433113,18.113035843252
$GPGGA,000451.00,3357.5514,N,11922.6014,W,1,10,0.8,10.2,M,-33.6,M,,*62
$PYRTM,2024,127.003399994340,18.113047404479
$GPGGA,000452.00,3357.5507,N,11922.6013,W,1,10,0.8,7.7,M,-33.6,M,,*57
$PYRTM,2024,127.003411584479,18.113058994618
$GPGGA,000453.00,3357.5499,N,11922.6013,W,1,10,0.8,6.5,M,-33.6,M,,*53
$PYRTM,2024,127.003423143264,18.113070553403
$GPGGA,000454.00,3357.5493,N,11922.6014,W,1,10,0.8,6.5,M,-33.6,M,,*59
$PYRTM,2024,127.003434733287,18.113082143426
$GPGGA,000455.00,3357.5489,N,11922.6015,W,1,10,0.8,6.8,M,-33.6,M,,*5F
$PYRTM,2024,127.003446290648,18.113093700787
$GPGGA,000456.00,3357.5486,N,11922.6014,W,1,10,0.8,11.4,M,-33.6,M,,*68
$PYRTM,2024,127.003457873067,18.113105283218
$GPGGA,000457.00,3357.5479,N,11922.6013,W,1,10,0.8,10.2,M,-33.6,M,,*69
$PYRTM,2024,127.003469446435,18.113116856574
$GPGGA,000458.00,3357.5472,N,11922.6013,W,1,10,0.8,8.0,M,-33.6,M,,*56
$PYRTM,2024,127.003481027442,18.113128437581
$GPGGA,000459.00,3357.5468,N,11922.6014,W,1,10,0.8,7.8,M,-33.6,M,,*5C
$PYRTM,2024,127.003492594595,18.113140004734
$GPGGA,000500.00,3357.5466,N,11922.6015,W,1,10,0.8,7.8,M,-33.6,M,,*5E
$PYRTM,2024,127.003504169942,18.113151580081
$GPGGA,000501.00,3357.5462,N,11922.6015,W,1,10,0.8,7.5,M,-33.6,M,,*56
$PYRTM,2024,127.003515748160,18.113163158299
$GPGGA,000502.00,3357.5454,N,11922.6014,W,1,10,0.8,7.2,M,-33.6,M,,*56
$PYRTM,2024,127.003527322442,18.113174732581
$GPGGA,000503.00,3357.5447,N,11922.6013,W,1,10,0.8,7.4,M,-33.6,M,,*54
$PYRTM,2024,127.003538896308,18.113186306458
$GPGGA,000504.00,3357.5444,N,11922.6015,W,1,10,0.8,7.5,M,-33.6,M,,*57
$PYRTM,2024,127.003550933032,18.113198343171
$GPGGA,000505.00,3357.5441,N,11922.6017,W,1,10,0.8,7.5,M,-33.6,M,,*51
$PYRTM,2024,127.003562045197,18.113209455336
$GPGGA,000506.00,3357.5435,N,11922.6016,W,1,10,0.8,7.9,M,-33.6,M,,*5C
$PYRTM,2024,127.003573633692,18.113221043831
$GPGGA,000507.00,3357.5427,N,11922.6014,W,1,10,0.8,8.6,M,-33.6,M,,*5C
$PYRTM,2024,127.003585192604,18.113232602743
$GPGGA,000508.00,3357.5420,N,11922.6013,W,1,10,0.8,8.6,M,-33.6,M,,*53
$PYRTM,2024,127.003596771562,18.113244181701
$GPGGA,000509.00,3357.5415,N,11922.6015,W,1,10,0.8,8.6,M,-33.6,M,,*52
$PYRTM,2024,127.003608342546,18.113255752685
$GPGGA,000510.00,3357.5410,N,11922.6017,W,1,10,0.8,8.8,M,-33.6,M,,*53
$PYRTM,2024,127.003619919178,18.113267329317
$GPGGA,000511.00,3357.5403,N,11922.6017,W,1,10,0.8,9.2,M,-33.6,M,,*5B
$PYRTM,2024,127.003631490394,18.113278900532
$GPGGA,000512.00,3357.5395,N,11922.6015,W,1,10,0.8,9.4,M,-33.6,M,,*54
$PYRTM,2024,127.003644209097,18.113291619236
$GPGGA,000513.00,3357.5389,N,11922.6014,W,1,10,0.8,10.6,M,-33.6,M,,*63
$PYRTM,2024,127.003656823252,18.113304233403
$GPGGA,000514.00,3357.5385,N,11922.6018,W,1,10,0.8,10.4,M,-33.6,M,,*66
$PYRTM,2024,127.003666212141,18.113313622280
$GPGGA,000515.00,3357.5380,N,11922.6022,W,1,10,0.8,10.4,M,-33.6,M,,*6B
$PYRTM,2024,127.003677781887,18.113325192025
$GPGGA,000516.00,3357.5376,N,11922.6023,W,1,10,0.8,10.0,M,-33.6,M,,*64
$PYRTM,2024,127.003689360671,18.113336770810
$GPGGA,000517.00,3357.5371,N,11922.6021,W,1,10,0.8,10.1,M,-33.6,M,,*61
$PYRTM,2024,127.003700934618,18.113348344757
$GPGGA,000518.00,3357.5365,N,11922.6019,W,1,10,0.8,10.8,M,-33.6,M,,*69
$PYRTM,2024,127.003712509884,18.113359920023
$GPGGA,000519.00,3357.5361,N,11922.6021,W,1,10,0.8,10.8,M,-33.6,M,,*67
$PYRTM,2024,127.003724079271,18.113371489410
$GPGGA,000520.00,3357.5356,N,11922.6023,W,1,10,0.8,10.8,M,-33.6,M,,*6B
$PYRTM,2024,127.003735660509,18.113383070648
$GPGGA,000521.00,3357.5351,N,11922.6025,W,1,10,0.8,10.8,M,-33.6,M,,*6B
$PYRTM,2024,127.003747231759,18.113394641898
$GPGGA,000522.00,3357.5347,N,11922.6023,W,1,10,0.8,10.4,M,-33.6,M,,*65
$PYRTM,2024,127.003758808843,18.113406218993
$GPGGA,000523.00,3357.5342,N,11922.6023,W,1,10,0.8,10.5,M,-33.6,M,,*60
$PYRTM,2024,127.003770379387,18.113417789537
$GPGGA,000524.00,3357.5337,N,11922.6023,W,1,10,0.8,7.8,M,-33.6,M,,*5E
$PYRTM,2024,127.003781954167,18.113429364317
$GPGGA,000525.00,3357.5332,N,11922.6022,W,1,10,0.8,8.9,M,-33.6,M,,*55
$PYRTM,2024,127.003793528125,18.113440938264
$GPGGA,000526.00,3357.5326,N,11922.6021,W,1,10,0.8,8.1,M,-33.6,M,,*58
$PYRTM,2024,127.003805102894,18.113452513032
$GPGGA,000527.00,3357.5321,N,11922.6022,W,1,10,0.8,8.2,M,-33.6,M,,*5E
$PYRTM,2024,127.003816675637,18.113464085775
$GPGGA,000528.00,3357.5317,N,11922.6023,W,1,10,0.8,8.2,M,-33.6,M,,*55
$PYRTM,2024,127.003828251169,18.113475661308
$GPGGA,000529.00,3357.5313,N,11922.6024,W,1,10,0.8,7.9,M,-33.6,M,,*53
$PYRTM,2024,127.003839824931,18.113487235069
$GPGGA,000530.00,3357.5308,N,11922.6023,W,1,10,0.8,5.9,M,-33.6,M,,*54
$PYRTM,2024,127.003851394086,18.113498804225
$GPGGA,000531.00,3357.5301,N,11922.6022,W,1,10,0.8,6.4,M,-33.6,M,,*53
$PYRTM,2024,127.003862967546,18.113510377685
$GPGGA,000532.00,3357.5296,N,11922.6022,W,1,10,0.8,9.9,M,-33.6,M,,*5D
$PYRTM,2024,127.003875008785,18.113522418924
$GPGGA,000533.00,3357.5292,N,11922.6024,W,1,10,0.8,9.4,M,-33.6,M,,*53
$PYRTM,2024,127.003886121331,18.113533531470
$GPGGA,000534.00,3357.5289,N,11922.6027,W,1,10,0.8,8.8,M,-33.6,M,,*50
$PYRTM,2024,127.003898157211,18.113545567350
$GPGGA,000535.00,3357.5285,N,11922.6024,W,1,10,0.8,5.8,M,-33.6,M,,*53
$PYRTM,2024,127.003909268449,18.113556678588
$GPGGA,000536.00,3357.5278,N,11922.6020,W,1,10,0.8,6.7,M,-33.6,M,,*5A
$PYRTM,2024,127.003920858576,18.113568268715
$GPGGA,000537.00,3357.5272,N,11922.6019,W,1,10,0.8,5.7,M,-33.6,M,,*58
$PYRTM,2024,127.003932412338,18.113579822477
$GPGGA,000538.00,3357.5267,N,11922.6020,W,1,10,0.8,5.5,M,-33.6,M,,*5B
$PYRTM,2024,127.003943994306,18.113591404444
$GPGGA,000539.00,3357.5264,N,11922.6023,W,1,10,0.8,5.6,M,-33.6,M,,*59
$PYRTM,2024,127.003955565440,18.113602975579
$GPGGA,000540.00,3357.5259,N,11922.6024,W,1,10,0.8,5.6,M,-33.6,M,,*5E
$PYRTM,2024,127.003967140278,18.113614550417
$GPGGA,000541.00,3357.5252,N,11922.6022,W,1,10,0.8,5.7,M,-33.6,M,,*53
$PYRTM,2024,127.003978713588,18.113626123727
$GPGGA,000542.00,3357.5243,N,11922.6020,W,1,10,0.8,6.2,M,-33.6,M,,*54
$PYRTM,2024,127.003991433021,18.113638843160
$GPGGA,000543.00,3357.5237,N,11922.6022,W,1,10,0.8,6.2,M,-33.6,M,,*54
$PYRTM,2024,127.004004048356,18.113651458495
$GPGGA,000544.00,3357.5233,N,11922.6026,W,1,10,0.8,6.3,M,-33.6,M,,*52
$PYRTM,2024,127.004013436921,18.113660847060
$GPGGA,000545.00,3357.5229,N,11922.6028,W,1,10,0.8,6.3,M,-33.6,M,,*56
$PYRTM,2024,127.004025009977,18.113672420127
$GPGGA,000546.00,3357.5223,N,11922.6026,W,1,10,0.8,8.8,M,-33.6,M,,*54
$PYRTM,2024,127.004036585185,18.113683995336
$GPGGA,000547.00,3357.5215,N,11922.6024,W,1,10,0.8,10.3,M,-33.6,M,,*60
$PYRTM,2024,127.004048158576,18.113695568715
$GPGGA,000548.00,3357.5209,N,11922.6024,W,1,10,0.8,9.9,M,-33.6,M,,*50
$PYRTM,2024,127.004059746910,18.113707157049
$GPGGA,000549.00,3357.5205,N,11922.6027,W,1,10,0.8,9.8,M,-33.6,M,,*5F
$PYRTM,2024,127.004071305984,18.113718716123
$GPGGA,000550.00,3357.5201,N,11922.6030,W,1,10,0.8,9.7,M,-33.6,M,,*5A
$PYRTM,2024,127.004082883900,18.113730294051
$GPGGA,000551.00,3357.5194,N,11922.6030,W,1,10,0.8,7.3,M,-33.6,M,,*5E
$PYRTM,2024,127.004094454398,18.113741864537
$GPGGA,000552.00,3357.5187,N,11922.6028,W,1,10,0.8,8.0,M,-33.6,M,,*5A
$PYRTM,2024,127.004106028125,18.113753438264
$GPGGA,000553.00,3357.5182,N,11922.6027,W,1,10,0.8,8.1,M,-33.6,M,,*50
$PYRTM,2024,127.004117604120,18.113765014259
$GPGGA,000554.00,3357.5178,N,11922.6026,W,1,10,0.8,8.1,M,-33.6,M,,*53
$PYRTM,2024,127.004129177257,18.113776587396
$GPGGA,000555.00,3357.5173,N,11922.6028,W,1,10,0.8,8.9,M,-33.6,M,,*5F
$PYRTM,2024,127.004140746956,18.113788157095
$GPGGA,000556.00,3357.5167,N,11922.6030,W,1,10,0.8,10.0,M,-33.6,M,,*60
$PYRTM,2024,127.004152325301,18.113799735440
$GPGGA,000557.00,3357.5163,N,11922.6032,W,1,10,0.8,10.1,M,-33.6,M,,*66
$PYRTM,2024,127.004163899838,18.113811309988
$GPGGA,000558.00,3357.5158,N,11922.6033,W,1,10,0.8,10.0,M,-33.6,M,,*61
$PYRTM,2024,127.004175460683,18.113822870822
$GPGGA,000559.00,3357.5153,N,11922.6032,W,1,10,0.8,10.0,M,-33.6,M,,*6A
$PYRTM,2024,127.004187043530,18.113834453669
$GPGGA,000600.00,3357.5147,N,11922.6030,W,1,10,0.8,9.8,M,-33.6,M,,*52
$PYRTM,2024,127.004197681701,18.113845091840
$GPGGA,000601.00,3357.5142,N,11922.6028,W,1,10,0.8,9.9,M,-33.6,M,,*5E
$PYRTM,2024,127.004209849109,18.113857259248
$GPGGA,000602.00,3357.5137,N,11922.6030,W,1,10,0.8,8.4,M,-33.6,M,,*5A
$PYRTM,2024,127.004219571007,18.113866981146
$GPGGA,000603.00,3357.5133,N,11922.6033,W,1,10,0.8,8.4,M,-33.6,M,,*5C
$PYRTM,2024,127.004236117697,18.113883527836
$GPGGA,000604.00,3357.5128,N,11922.6035,W,1,10,0.8,8.5,M,-33.6,M,,*56
$PYRTM,2024,127.004247565810,18.113894975937
$GPGGA,000605.00,3357.5123,N,11922.6033,W,1,10,0.8,8.6,M,-33.6,M,,*59
$PYRTM,2024,127.004258682280,18.113906092419
$GPGGA,000606.00,3357.5116,N,11922.6031,W,1,10,0.8,6.9,M,-33.6,M,,*5F
$PYRTM,2024,127.004269798472,18.113917208611
$GPGGA,000607.00,3357.5109,N,11922.6031,W,1,10,0.8,8.5,M,-33.6,M,,*52
$PYRTM,2024,127.004280903299,18.113928313438
$GPGGA,000608.00,3357.5105,N,11922.6035,W,1,10,0.8,8.4,M,-33.6,M,,*54
$PYRTM,2024,127.004292012662,18.113939422801
$GPGGA,000609.00,3357.5102,N,11922.6038,W,1,10,0.8,8.3,M,-33.6,M,,*58
$PYRTM,2024,127.004303008368,18.113950418507
$GPGGA,000610.00,3357.5097,N,11922.6037,W,1,10,0.8,6.7,M,-33.6,M,,*58
$PYRTM,2024,127.004314119769,18.113961529907
$GPGGA,000611.00,3357.5089,N,11922.6035,W,1,10,0.8,7.5,M,-33.6,M,,*57
$PYRTM,2024,127.004325231204,18.113972641343
$GPGGA,000612.00,3357.5083,N,11922.6035,W,1,10,0.8,10.5,M,-33.6,M,,*68
$PYRTM,2024,127.004337497870,18.113984908009
$GPGGA,000613.00,3357.5078,N,11922.6037,W,1,10,0.8,10.4,M,-33.6,M,,*6E
$PYRTM,2024,127.004346644109,18.113994054248
$GPGGA,000614.00,3357.5075,N,11922.6039,W,1,10,0.8,10.3,M,-33.6,M,,*6D
$PYRTM,2024,127.004359605301,18.114007015440
$GPGGA,000615.00,3357.5070,N,11922.6041,W,1,10,0.8,9.0,M,-33.6,M,,*5D
$PYRTM,2024,127.004371192037,18.114018602176
$GPGGA,000616.00,3357.5063,N,11922.6042,W,1,10,0.8,9.5,M,-33.6,M,,*5A
$PYRTM,2024,127.004382753738,18.114030163877
$GPGGA,000617.00,3357.5057,N,11922.6041,W,1,10,0.8,9.2,M,-33.6,M,,*58
$PYRTM,2024,127.004394340891,18.114041751030
$GPGGA,000618.00,3357.5054,N,11922.6040,W,1,10,0.8,9.1,M,-33.6,M,,*56
$PYRTM,2024,127.004405901840,18.114053311979
$GPGGA,000619.00,3357.5050,N,11922.6039,W,1,10,0.8,9.2,M,-33.6,M,,*5E
$PYRTM,2024,127.004417490324,18.114064900475
$GPGGA,000620.00,3357.5044,N,11922.6040,W,1,10,0.8,7.3,M,-33.6,M,,*50
$PYRTM,2024,127.004429049699,18.114076459838
$GPGGA,000621.00,3357.5038,N,11922.6041,W,1,10,0.8,7.1,M,-33.6,M,,*59
$PYRTM,2024,127.004440636586,18.114088046725
$GPGGA,000622.00,3357.5034,N,11922.6039,W,1,10,0.8,7.0,M,-33.6,M,,*58
$PYRTM,2024,127.004452558067,18.114099968206
$GPGGA,000623.00,3357.5030,N,11922.6036,W,1,10,0.8,6.8,M,-33.6,M,,*5B
$PYRTM,2024,127.004463785880,18.114111196019
$GPGGA,000624.00,3357.5025,N,11922.6034,W,1,10,0.8,8.0,M,-33.6,M,,*5C
$PYRTM,2024,127.004475347176,18.114122757315
$GPGGA,000625.00,3357.5019,N,11922.6036,W,1,10,0.8,8.2,M,-33.6,M,,*52
$PYRTM,2024,127.004486936563,18.114134346701
$GPGGA,000626.00,3357.5014,N,11922.6038,W,1,10,0.8,8.2,M,-33.6,M,,*52
$PYRTM,2024,127.004498495081,18.114145905220
$GPGGA,000627.00,3357.5011,N,11922.6037,W,1,10,0.8,8.3,M,-33.6,M,,*58
$PYRTM,2024,127.004510085000,18.114157495150
$GPGGA,000628.00,3357.5007,N,11922.6035,W,1,10,0.8,6.5,M,-33.6,M,,*5A
$PYRTM,2024,127.004521644294,18.114169054444
$GPGGA,000629.00,3357.5000,N,11922.6035,W,1,10,0.8,8.1,M,-33.6,M,,*56
$PYRTM,2024,127.004533230428,18.114180640567
$GPGGA,000630.00,3357.4993,N,11922.6037,W,1,10,0.8,7.6,M,-33.6,M,,*56
$PYRTM,2024,127.004544793044,18.114192203183
$GPGGA,000631.00,3357.4989,N,11922.6038,W,1,10,0.8,7.5,M,-33.6,M,,*50
$PYRTM,2024,127.004556377986,18.114203788125
$GPGGA,000632.00,3357.4986,N,11922.6036,W,1,10,0.8,7.5,M,-33.6,M,,*52
$PYRTM,2024,127.004567939630,18.114215349769
$GPGGA,000633.00,3357.4981,N,11922.6033,W,1,10,0.8,9.8,M,-33.6,M,,*52
$PYRTM,2024,127.004579527836,18.114226937975
$GPGGA,000634.00,3357.4973,N,11922.6031,W,1,10,0.8,7.9,M,-33.6,M,,*55
$PYRTM,2024,127.004591451169,18.114238861308
$GPGGA,000635.00,3357.4967,N,11922.6033,W,1,10,0.8,7.8,M,-33.6,M,,*52
$PYRTM,2024,127.004602675127,18.114250085266
$GPGGA,000636.00,3357.4964,N,11922.6036,W,1,10,0.8,7.6,M,-33.6,M,,*59
$PYRTM,2024,127.004614237650,18.114261647789
$GPGGA,000637.00,3357.4961,N,11922.6037,W,1,10,0.8,7.5,M,-33.6,M,,*5F
$PYRTM,2024,127.004625826725,18.114273236863
$GPGGA,000638.00,3357.4955,N,11922.6033,W,1,10,0.8,8.8,M,-33.6,M,,*51
$PYRTM,2024,127.004637385903,18.114284796042
$GPGGA,000639.00,3357.4947,N,11922.6029,W,1,10,0.8,11.0,M,-33.6,M,,*68
$PYRTM,2024,127.004648975810,18.114296385949
$GPGGA,000640.00,3357.4939,N,11922.6030,W,1,10,0.8,8.7,M,-33.6,M,,*58
$PYRTM,2024,127.004660532616,18.114307942755
$GPGGA,000641.00,3357.4935,N,11922.6033,W,1,10,0.8,8.5,M,-33.6,M,,*54
$PYRTM,2024,127.004672119988,18.114319530127
$GPGGA,000642.00,3357.4932,N,11922.6035,W,1,10,0.8,8.5,M,-33.6,M,,*56
$PYRTM,2024,127.004684722431,18.114332132569
$GPGGA,000643.00,3357.4929,N,11922.6032,W,1,10,0.8,8.5,M,-33.6,M,,*5A
$PYRTM,2024,127.004696310231,18.114343720370
$GPGGA,000644.00,3357.4923,N,11922.6029,W,1,10,0.8,8.6,M,-33.6,M,,*5E
$PYRTM,2024,127.004707870463,18.114355280602
$GPGGA,000645.00,3357.4915,N,11922.6027,W,1,10,0.8,8.1,M,-33.6,M,,*53
$PYRTM,2024,127.004719457037,18.114366867176
$GPGGA,000646.00,3357.4910,N,11922.6031,W,1,10,0.8,7.9,M,-33.6,M,,*55
$PYRTM,2024,127.004731017465,18.114378427604
$GPGGA,000647.00,3357.4908,N,11922.6034,W,1,10,0.8,7.9,M,-33.6,M,,*58
$PYRTM,2024,127.004742606817,18.114390016968
$GPGGA,000648.00,3357.4906,N,11922.6036,W,1,10,0.8,7.9,M,-33.6,M,,*5B
$PYRTM,2024,127.004754165475,18.114401575613
$GPGGA,000649.00,3357.4900,N,11922.6034,W,1,10,0.8,8.2,M,-33.6,M,,*5A
$PYRTM,2024,127.004765760440,18.114413170579
$GPGGA,000650.00,3357.4891,N,11922.6032,W,1,10,0.8,8.6,M,-33.6,M,,*59
$PYRTM,2024,127.004777312581,18.114424722720
$GPGGA,000651.00,3357.4885,N,11922.6033,W,1,10,0.8,8.5,M,-33.6,M,,*5F
$PYRTM,2024,127.004788902164,18.114436312303
$GPGGA,000652.00,3357.4882,N,11922.6037,W,1,10,0.8,8.4,M,-33.6,M,,*5E
$PYRTM,2024,127.004800462153,18.114447872292
$GPGGA,000653.00,3357.4878,N,11922.6040,W,1,10,0.8,8.4,M,-33.6,M,,*5A
$PYRTM,2024,127.004812050301,18.114459460440
$GPGGA,000654.00,3357.4873,N,11922.6038,W,1,10,0.8,7.9,M,-33.6,M,,*5B
$PYRTM,2024,127.004823610451,18.114471020590
$GPGGA,000655.00,3357.4868,N,11922.6033,W,1,10,0.8,7.9,M,-33.6,M,,*5B
$PYRTM,2024,127.004835198600,18.114482608738
$GPGGA,000656.00,3357.4863,N,11922.6031,W,1,10,0.8,8.0,M,-33.6,M,,*57
$PYRTM,2024,127.004846759549,18.114494169688
$GPGGA,000657.00,3357.4861,N,11922.6032,W,1,10,0.8,8.1,M,-33.6,M,,*56
$PYRTM,2024,127.004858353958,18.114505764097
$GPGGA,000658.00,3357.4857,N,11922.6035,W,1,10,0.8,8.1,M,-33.6,M,,*5B
$PYRTM,2024,127.004869909792,18.114517319931
$GPGGA,000659.00,3357.4853,N,11922.6036,W,1,10,0.8,8.1,M,-33.6,M,,*5D
$PYRTM,2024,127.004881496030,18.114528906169
$GPGGA,000700.00,3357.4847,N,11922.6034,W,1,10,0.8,8.3,M,-33.6,M,,*55
$PYRTM,2024,127.004893059167,18.114540469306
$GPGGA,000701.00,3357.4842,N,11922.6033,W,1,10,0.8,8.3,M,-33.6,M,,*56
$PYRTM,2024,127.004904643565,18.114552053704
$GPGGA,000702.00,3357.4837,N,11922.6033,W,1,10,0.8,8.3,M,-33.6,M,,*57
$PYRTM,2024,127.004916205197,18.114563615347
$GPGGA,000703.00,3357.4831,N,11922.6033,W,1,10,0.8,8.1,M,-33.6,M,,*52
$PYRTM,2024,127.004927792176,18.114575202315
$GPGGA,000704.00,3357.4826,N,11922.6034,W,1,10,0.8,8.2,M,-33.6,M,,*57
$PYRTM,2024,127.004939825509,18.114587235648
$GPGGA,000705.00,3357.4822,N,11922.6033,W,1,10,0.8,8.1,M,-33.6,M,,*56
$PYRTM,2024,127.004950940347,18.114598350486
$GPGGA,000706.00,3357.4818,N,11922.6030,W,1,10,0.8,8.0,M,-33.6,M,,*5E
$PYRTM,2024,127.004962501389,18.114609911528
$GPGGA,000707.00,3357.4813,N,11922.6028,W,1,10,0.8,7.5,M,-33.6,M,,*57
$PYRTM,2024,127.004974103900,18.114621514039
$GPGGA,000708.00,3357.4806,N,11922.6029,W,1,10,0.8,9.0,M,-33.6,M,,*56
$PYRTM,2024,127.004985650613,18.114633060764
$GPGGA,000709.00,3357.4800,N,11922.6033,W,1,10,0.8,9.1,M,-33.6,M,,*5B
$PYRTM,2024,127.004997242338,18.114644652477
$GPGGA,000710.00,3357.4796,N,11922.6037,W,1,10,0.8,8.7,M,-33.6,M,,*50
$PYRTM,2024,127.005008797500,18.114656207639
$GPGGA,000711.00,3357.4794,N,11922.6036,W,1,10,0.8,8.6,M,-33.6,M,,*53
$PYRTM,2024,127.005020379965,18.114667790104
$GPGGA,000712.00,3357.4790,N,11922.6033,W,1,10,0.8,7.0,M,-33.6,M,,*58
$PYRTM,2024,127.005033451887,18.114680862025
$GPGGA,000713.00,3357.4783,N,11922.6032,W,1,10,0.8,7.4,M,-33.6,M,,*5E
$PYRTM,2024,127.005045720324,18.114693130463
$GPGGA,000714.00,3357.4777,N,11922.6034,W,1,10,0.8,7.5,M,-33.6,M,,*55
$PYRTM,2024,127.005055095012,18.114702505150
$GPGGA,000715.00,3357.4773,N,11922.6038,W,1,10,0.8,7.1,M,-33.6,M,,*58
$PYRTM,2024,127.005066677535,18.114714087674
$GPGGA,000716.00,3357.4771,N,11922.6039,W,1,10,0.8,7.1,M,-33.6,M,,*58
$PYRTM,2024,127.005078243715,18.114725653854
$GPGGA,000717.00,3357.4767,N,11922.6035,W,1,10,0.8,6.8,M,-33.6,M,,*5A
$PYRTM,2024,127.005089830035,18.114737240185
$GPGGA,000718.00,3357.4761,N,11922.6030,W,1,10,0.8,7.4,M,-33.6,M,,*5B
$PYRTM,2024,127.005101392257,18.114748802396
$GPGGA,000719.00,3357.4753,N,11922.6029,W,1,10,0.8,6.6,M,-33.6,M,,*50
$PYRTM,2024,127.005112977755,18.114760387894
$GPGGA,000720.00,3357.4749,N,11922.6032,W,1,10,0.8,6.4,M,-33.6,M,,*59
$PYRTM,2024,127.005124540336,18.114771950475
$GPGGA,000721.00,3357.4747,N,11922.6034,W,1,10,0.8,6.5,M,-33.6,M,,*51
$PYRTM,2024,127.005136126852,18.114783536991
$GPGGA,000722.00,3357.4743,N,11922.6033,W,1,10,0.8,6.9,M,-33.6,M,,*5D
$PYRTM,2024,127.005147688345,18.114795098495
$GPGGA,000723.00,3357.4738,N,11922.6030,W,1,10,0.8,7.0,M,-33.6,M,,*5B
$PYRTM,2024,127.005159278310,18.114806688449
$GPGGA,000724.00,3357.4732,N,11922.6028,W,1,10,0.8,7.3,M,-33.6,M,,*5C
$PYRTM,2024,127.005170835914,18.114818246053
$GPGGA,000725.00,3357.4729,N,11922.6031,W,1,10,0.8,7.4,M,-33.6,M,,*58
$PYRTM,2024,127.005182422789,18.114829832928
$GPGGA,000726.00,3357.4727,N,11922.6034,W,1,10,0.8,7.4,M,-33.6,M,,*50
$PYRTM,2024,127.005193984595,18.114841394745
$GPGGA,000727.00,3357.4722,N,11922.6035,W,1,10,0.8,6.9,M,-33.6,M,,*59
$PYRTM,2024,127.005205571042,18.114852981181
$GPGGA,000728.00,3357.4715,N,11922.6032,W,1,10,0.8,7.6,M,-33.6,M,,*5B
$PYRTM,2024,127.005217132720,18.114864542859
$GPGGA,000729.00,3357.4711,N,11922.6030,W,1,10,0.8,8.1,M,-33.6,M,,*54
$PYRTM,2024,127.005228719734,18.114876129873
$GPGGA,000730.00,3357.4706,N,11922.6031,W,1,10,0.8,8.4,M,-33.6,M,,*5E
$PYRTM,2024,127.005240281424,18.114887691563
$GPGGA,000731.00,3357.4702,N,11922.6033,W,1,10,0.8,8.4,M,-33.6,M,,*59
$PYRTM,2024,127.005251868600,18.114899278738
$GPGGA,000732.00,3357.4698,N,11922.6036,W,1,10,0.8,8.4,M,-33.6,M,,*5D
$PYRTM,2024,127.005263428958,18.114910839097
$GPGGA,000733.00,3357.4694,N,11922.6036,W,1,10,0.8,8.4,M,-33.6,M,,*50
$PYRTM,2024,127.005275020394,18.114922430532
$GPGGA,000734.00,3357.4689,N,11922.6034,W,1,10,0.8,8.6,M,-33.6,M,,*5B
$PYRTM,2024,127.005287052755,18.114934462894
$GPGGA,000735.00,3357.4684,N,11922.6032,W,1,10,0.8,7.7,M,-33.6,M,,*5F
$PYRTM,2024,127.005298168113,18.114945578252
$GPGGA,000736.00,3357.4678,N,11922.6033,W,1,10,0.8,7.1,M,-33.6,M,,*58
$PYRTM,2024,127.005309725995,18.114957136134
$GPGGA,000737.00,3357.4674,N,11922.6035,W,1,10,0.8,7.1,M,-33.6,M,,*53
$PYRTM,2024,127.005321327813,18.114968737951
$GPGGA,000738.00,3357.4671,N,11922.6037,W,1,10,0.8,7.1,M,-33.6,M,,*5B
$PYRTM,2024,127.005332873565,18.114980283704
$GPGGA,000739.00,3357.4665,N,11922.6037,W,1,10,0.8,6.9,M,-33.6,M,,*56
$PYRTM,2024,127.005344460937,18.114991871076
$GPGGA,000740.00,3357.4659,N,11922.6036,W,1,10,0.8,7.3,M,-33.6,M,,*5D
$PYRTM,2024,127.005356025104,18.115003435243
$GPGGA,000741.00,3357.4654,N,11922.6035,W,1,10,0.8,7.5,M,-33.6,M,,*54
$PYRTM,2024,127.005367609051,18.115015019190
$GPGGA,000742.00,3357.4650,N,11922.6037,W,1,10,0.8,7.5,M,-33.6,M,,*51
$PYRTM,2024,127.005380327569,18.115027737697
$GPGGA,000743.00,3357.4647,N,11922.6040,W,1,10,0.8,7.4,M,-33.6,M,,*57
$PYRTM,2024,127.005392943576,18.115040353715
$GPGGA,000744.00,3357.4643,N,11922.6041,W,1,10,0.8,7.7,M,-33.6,M,,*56
$PYRTM,2024,127.005402318229,18.115049728368
$GPGGA,000745.00,3357.4637,N,11922.6039,W,1,10,0.8,6.8,M,-33.6,M,,*55
$PYRTM,2024,127.005413904838,18.115061314977
$GPGGA,000746.00,3357.4629,N,11922.6038,W,1,10,0.8,7.4,M,-33.6,M,,*55
$PYRTM,2024,127.005425466655,18.115072876806
$GPGGA,000747.00,3357.4623,N,11922.6038,W,1,10,0.8,8.3,M,-33.6,M,,*56
$PYRTM,2024,127.005437049109,18.115084459248
$GPGGA,000748.00,3357.4617,N,11922.6044,W,1,10,0.8,7.8,M,-33.6,M,,*51
$PYRTM,2024,127.005448614757,18.115096024896
$GPGGA,000749.00,3357.4614,N,11922.6050,W,1,10,0.8,7.7,M,-33.6,M,,*59
$PYRTM,2024,127.005460204132,18.115107614271
$GPGGA,000750.00,3357.4612,N,11922.6051,W,1,10,0.8,7.8,M,-33.6,M,,*59
$PYRTM,2024,127.005471763634,18.115119173785
$GPGGA,000751.00,3357.4608,N,11922.6047,W,1,10,0.8,8.2,M,-33.6,M,,*51
$PYRTM,2024,127.005483353472,18.115130763611
$GPGGA,000752.00,3357.4600,N,11922.6044,W,1,10,0.8,8.1,M,-33.6,M,,*5A
$PYRTM,2024,127.005494912315,18.115142322454
$GPGGA,000753.00,3357.4594,N,11922.6045,W,1,10,0.8,5.8,M,-33.6,M,,*50
$PYRTM,2024,127.005506498657,18.115153908796
$GPGGA,000754.00,3357.4591,N,11922.6049,W,1,10,0.8,5.7,M,-33.6,M,,*51
$PYRTM,2024,127.005518061458,18.115165471597
$GPGGA,000755.00,3357.4589,N,11922.6051,W,1,10,0.8,5.7,M,-33.6,M,,*50
$PYRTM,2024,127.005529647025,18.115177057176
$GPGGA,000756.00,3357.4583,N,11922.6048,W,1,10,0.8,6.5,M,-33.6,M,,*50
$PYRTM,2024,127.005541208704,18.115188618843
$GPGGA,000757.00,3357.4574,N,11922.6044,W,1,10,0.8,7.3,M,-33.6,M,,*52
$PYRTM,2024,127.005552795417,18.115200205556
$GPGGA,000758.00,3357.4567,N,11922.6044,W,1,10,0.8,6.2,M,-33.6,M,,*5F
$PYRTM,2024,127.005564357650,18.115211767789
$GPGGA,000759.00,3357.4563,N,11922.6048,W,1,10,0.8,6.2,M,-33.6,M,,*56
$PYRTM,2024,127.005575942778,18.115223352917
$GPGGA,000800.00,3357.4560,N,11922.6051,W,1,10,0.8,6.2,M,-33.6,M,,*5E
$PYRTM,2024,127.005587505868,18.115234916007
$GPGGA,000801.00,3357.4555,N,11922.6049,W,1,10,0.8,6.3,M,-33.6,M,,*51
$PYRTM,2024,127.005599094433,18.115246504572
$GPGGA,000802.00,3357.4549,N,11922.6044,W,1,10,0.8,6.4,M,-33.6,M,,*55
$PYRTM,2024,127.005611128600,18.115258538738
$GPGGA,000803.00,3357.4545,N,11922.6042,W,1,10,0.8,6.3,M,-33.6,M,,*59
$PYRTM,2024,127.005622235521,18.115269645660
$GPGGA,000804.00,3357.4541,N,11922.6043,W,1,10,0.8,6.4,M,-33.6,M,,*5C
$PYRTM,2024,127.005634276852,18.115281686991
$GPGGA,000805.00,3357.4537,N,11922.6045,W,1,10,0.8,6.4,M,-33.6,M,,*5A
$PYRTM,2024,127.005644465093,18.115291875231
$GPGGA,000806.00,3357.4532,N,11922.6045,W,1,10,0.8,6.3,M,-33.6,M,,*5B
$PYRTM,2024,127.005656614965,18.115304025104
$GPGGA,000807.00,3357.4527,N,11922.6044,W,1,10,0.8,6.4,M,-33.6,M,,*58
$PYRTM,2024,127.005668175463,18.115315585602
$GPGGA,000808.00,3357.4523,N,11922.6042,W,1,10,0.8,6.2,M,-33.6,M,,*53
$PYRTM,2024,127.005679285972,18.115326696111
$GPGGA,000809.00,3357.4518,N,11922.6042,W,1,10,0.8,6.4,M,-33.6,M,,*5C
$PYRTM,2024,127.005690396632,18.115337806771
$GPGGA,000810.00,3357.4514,N,11922.6043,W,1,10,0.8,6.4,M,-33.6,M,,*59
$PYRTM,2024,127.005701393056,18.115348803194
$GPGGA,000811.00,3357.4511,N,11922.6042,W,1,10,0.8,6.4,M,-33.6,M,,*5C
$PYRTM,2024,127.005712506424,18.115359916563
$GPGGA,000812.00,3357.4508,N,11922.6041,W,1,10,0.8,6.5,M,-33.6,M,,*55
$PYRTM,2024,127.005723616262,18.115371026412
$GPGGA,000813.00,3357.4501,N,11922.6042,W,1,10,0.8,6.7,M,-33.6,M,,*5C
$PYRTM,2024,127.005738214132,18.115385624271
$GPGGA,000814.00,3357.4496,N,11922.6044,W,1,10,0.8,6.8,M,-33.6,M,,*5D
$PYRTM,2024,127.005749318484,18.115396728623
$GPGGA,000815.00,3357.4492,N,11922.6049,W,1,10,0.8,6.5,M,-33.6,M,,*58
$PYRTM,2024,127.005766453113,18.115413863252
$GPGGA,000816.00,3357.4490,N,11922.6052,W,1,10,0.8,6.5,M,-33.6,M,,*53
$PYRTM,2024,127.005777568102,18.115424978252
$GPGGA,000817.00,3357.4488,N,11922.6053,W,1,10,0.8,6.6,M,-33.6,M,,*59
$PYRTM,2024,127.005788677234,18.115436087373
$GPGGA,000818.00,3357.4484,N,11922.6050,W,1,10,0.8,7.1,M,-33.6,M,,*5F
$PYRTM,2024,127.005799787234,18.115447197373
$GPGGA,000819.00,3357.4477,N,11922.6049,W,1,10,0.8,7.5,M,-33.6,M,,*5E
$PYRTM,2024,127.005810767060,18.115458177199
$GPGGA,000820.00,3357.4471,N,11922.6053,W,1,10,0.8,7.2,M,-33.6,M,,*5E
$PYRTM,2024,127.005821878380,18.115469288519
$GPGGA,000821.00,3357.4468,N,11922.6060,W,1,10,0.8,6.9,M,-33.6,M,,*5D
$PYRTM,2024,127.005832992037,18.115480402176
$GPGGA,000822.00,3357.4467,N,11922.6063,W,1,10,0.8,6.9,M,-33.6,M,,*52
$PYRTM,2024,127.005844100741,18.115491510880
$GPGGA,000823.00,3357.4464,N,11922.6060,W,1,10,0.8,7.2,M,-33.6,M,,*59
$PYRTM,2024,127.005855212569,18.115502622708
$GPGGA,000824.00,3357.4456,N,11922.6055,W,1,10,0.8,7.3,M,-33.6,M,,*58
$PYRTM,2024,127.005866324028,18.115513734167
$GPGGA,000825.00,3357.4449,N,11922.6054,W,1,10,0.8,6.9,M,-33.6,M,,*5D
$PYRTM,2024,127.005877320729,18.115524730868
$GPGGA,000826.00,3357.4446,N,11922.6058,W,1,10,0.8,6.8,M,-33.6,M,,*5C
$PYRTM,2024,127.005888433044,18.115535843183
$GPGGA,000827.00,3357.4444,N,11922.6063,W,1,10,0.8,6.8,M,-33.6,M,,*57
$PYRTM,2024,127.005899543704,18.115546953843
$GPGGA,000828.00,3357.4441,N,11922.6067,W,1,10,0.8,6.8,M,-33.6,M,,*59
$PYRTM,2024,127.005917020463,18.115564430602
$GPGGA,000829.00,3357.4435,N,11922.6067,W,1,10,0.8,6.8,M,-33.6,M,,*5B
$PYRTM,2024,127.005928029977,18.115575440116
$GPGGA,000830.00,3357.4429,N,11922.6064,W,1,10,0.8,7.4,M,-33.6,M,,*50
$PYRTM,2024,127.005939139213,18.115586549352
$GPGGA,000831.00,3357.4424,N,11922.6063,W,1,10,0.8,7.6,M,-33.6,M,,*59
$PYRTM,2024,127.005950250521,18.115597660660
$GPGGA,000832.00,3357.4419,N,11922.6066,W,1,10,0.8,7.5,M,-33.6,M,,*52
$PYRTM,2024,127.005961361597,18.115608771748
$GPGGA,000833.00,3357.4415,N,11922.6073,W,1,10,0.8,7.2,M,-33.6,M,,*5C
$PYRTM,2024,127.005972473646,18.115619883796
$GPGGA,000834.00,3357.4410,N,11922.6074,W,1,10,0.8,7.4,M,-33.6,M,,*5F
$PYRTM,2024,127.005983916817,18.115631326968
$GPGGA,000835.00,3357.4405,N,11922.6067,W,1,10,0.8,7.9,M,-33.6,M,,*55
$PYRTM,2024,127.005995029873,18.115642440012
$GPGGA,000836.00,3357.4398,N,11922.6060,W,1,10,0.8,8.6,M,-33.6,M,,*52
$PYRTM,2024,127.006006138981,18.115653549120
$GPGGA,000837.00,3357.4391,N,11922.6059,W,1,10,0.8,8.4,M,-33.6,M,,*52
$PYRTM,2024,127.006017250891,18.115664661042
$GPGGA,000838.00,3357.4387,N,11922.6063,W,1,10,0.8,7.6,M,-33.6,M,,*5E
$PYRTM,2024,127.006028363021,18.115675773160
$GPGGA,000839.00,3357.4385,N,11922.6066,W,1,10,0.8,7.2,M,-33.6,M,,*5C
$PYRTM,2024,127.006039474248,18.115686884387
