$PYRTM,2024,125.750008923958,16.859656334097
$GPGGA,175959.00,3501.5856,N,12208.4508,W,1,10,0.8,7.3,M,-33.3,M,,*52
$PYRTM,2024,125.750021657731,16.859669067870
$GPGGA,180000.00,3501.5828,N,12208.4509,W,1,10,0.8,3.8,M,-33.3,M,,*5A
$PYRTM,2024,125.750034275394,16.859681685532
$GPGGA,180001.00,3501.5801,N,12208.4515,W,1,10,0.8,2.9,M,-33.3,M,,*5D
$PYRTM,2024,125.750043661227,16.859691071366
$GPGGA,180002.00,3501.5775,N,12208.4512,W,1,10,0.8,4.4,M,-33.3,M,,*5E
$PYRTM,2024,125.750055222604,16.859702632743
$GPGGA,180003.00,3501.5749,N,12208.4501,W,1,10,0.8,4.3,M,-33.3,M,,*55
$PYRTM,2024,125.750066809410,16.859714219549
$GPGGA,180004.00,3501.5722,N,12208.4494,W,1,10,0.8,8.0,M,-33.3,M,,*5D
$PYRTM,2024,125.750078369225,16.859725779375
$GPGGA,180005.00,3501.5693,N,12208.4493,W,1,10,0.8,7.1,M,-33.3,M,,*5E
$PYRTM,2024,125.750089958715,16.859737368854
$GPGGA,180006.00,3501.5665,N,12208.4494,W,1,10,0.8,7.3,M,-33.3,M,,*51
$PYRTM,2024,125.750101517072,16.859748927211
$GPGGA,180007.00,3501.5638,N,12208.4490,W,1,10,0.8,7.4,M,-33.3,M,,*5B
$PYRTM,2024,125.750113105914,16.859760516053
$GPGGA,180008.00,3501.5612,N,12208.4480,W,1,10,0.8,6.3,M,-33.3,M,,*5B
$PYRTM,2024,125.750124666528,16.859772076667
$GPGGA,180009.00,3501.5585,N,12208.4476,W,1,10,0.8,8.2,M,-33.3,M,,*51
$PYRTM,2024,125.750136254606,16.859783664745
$GPGGA,180010.00,3501.5559,N,12208.4478,W,1,10,0.8,8.5,M,-33.3,M,,*51
$PYRTM,2024,125.750147813785,16.859795223924
$GPGGA,180011.00,3501.5533,N,12208.4482,W,1,10,0.8,7.3,M,-33.3,M,,*50
$PYRTM,2024,125.750159851667,16.859807261806
$GPGGA,180012.00,3501.5507,N,12208.4479,W,1,10,0.8,6.2,M,-33.3,M,,*50
$PYRTM,2024,125.750170964410,16.859818374549
$GPGGA,180013.00,3501.5481,N,12208.4469,W,1,10,0.8,5.1,M,-33.3,M,,*5F
$PYRTM,2024,125.750182550868,16.859829961019
$GPGGA,180014.00,3501.5454,N,12208.4461,W,1,10,0.8,5.8,M,-33.3,M,,*51
$PYRTM,2024,125.750194111632,16.859841521782
$GPGGA,180015.00,3501.5427,N,12208.4460,W,1,10,0.8,4.1,M,-33.3,M,,*5D
$PYRTM,2024,125.750205699213,16.859853109352
$GPGGA,180016.00,3501.5400,N,12208.4464,W,1,10,0.8,4.6,M,-33.3,M,,*58
$PYRTM,2024,125.750217259178,16.859864669317
$GPGGA,180017.00,3501.5374,N,12208.4462,W,1,10,0.8,4.1,M,-33.3,M,,*5C
$PYRTM,2024,125.750228843588,16.859876253727
$GPGGA,180018.00,3501.5347,N,12208.4457,W,1,10,0.8,5.0,M,-33.3,M,,*55
$PYRTM,2024,125.750240408704,16.859887818843
$GPGGA,180019.00,3501.5319,N,12208.4450,W,1,10,0.8,4.5,M,-33.3,M,,*5C
$PYRTM,2024,125.750251990185,16.859899400324
$GPGGA,180020.00,3501.5292,N,12208.4446,W,1,10,0.8,5.8,M,-33.3,M,,*5F
$PYRTM,2024,125.750263556227,16.859910966366
$GPGGA,180021.00,3501.5265,N,12208.4443,W,1,10,0.8,3.9,M,-33.3,M,,*54
$PYRTM,2024,125.750275143391,16.859922553530
$GPGGA,180022.00,3501.5236,N,12208.4444,W,1,10,0.8,4.3,M,-33.3,M,,*5B
$PYRTM,2024,125.750286703958,16.859934114097
$GPGGA,180023.00,3501.5208,N,12208.4444,W,1,10,0.8,6.9,M,-33.3,M,,*5F
$PYRTM,2024,125.750298290891,16.859945701030
$GPGGA,180024.00,3501.5181,N,12208.4440,W,1,10,0.8,8.0,M,-33.3,M,,*59
$PYRTM,2024,125.750309852801,16.859957262951
$GPGGA,180025.00,3501.5155,N,12208.4431,W,1,10,0.8,7.7,M,-33.3,M,,*5F
$PYRTM,2024,125.750321437188,16.859968847326
$GPGGA,180026.00,3501.5129,N,12208.4425,W,1,10,0.8,6.4,M,-33.3,M,,*50
$PYRTM,2024,125.750333000764,16.859980410903
$GPGGA,180027.00,3501.5102,N,12208.4423,W,1,10,0.8,5.4,M,-33.3,M,,*5D
$PYRTM,2024,125.750344587778,16.859991997928
$GPGGA,180028.00,3501.5074,N,12208.4422,W,1,10,0.8,5.9,M,-33.3,M,,*5E
$PYRTM,2024,125.750356148310,16.860003558449
$GPGGA,180029.00,3501.5047,N,12208.4422,W,1,10,0.8,7.8,M,-33.3,M,,*5C
$PYRTM,2024,125.750368882442,16.860016292581
$GPGGA,180030.00,3501.5020,N,12208.4419,W,1,10,0.8,8.7,M,-33.3,M,,*5D
$PYRTM,2024,125.750381497986,16.860028908137
$GPGGA,180031.00,3501.4993,N,12208.4413,W,1,10,0.8,7.0,M,-33.3,M,,*5E
$PYRTM,2024,125.750390880833,16.860038290972
$GPGGA,180032.00,3501.4967,N,12208.4407,W,1,10,0.8,6.4,M,-33.3,M,,*56
$PYRTM,2024,125.750402574896,16.860049985035
$GPGGA,180033.00,3501.4940,N,12208.4404,W,1,10,0.8,10.3,M,-33.3,M,,*61
$PYRTM,2024,125.750414032859,16.860061442998
$GPGGA,180034.00,3501.4912,N,12208.4403,W,1,10,0.8,8.8,M,-33.3,M,,*54
$PYRTM,2024,125.750425593623,16.860073003762
$GPGGA,180035.00,3501.4884,N,12208.4400,W,1,10,0.8,6.8,M,-33.3,M,,*56
$PYRTM,2024,125.750437181701,16.860084591840
$GPGGA,180036.00,3501.4857,N,12208.4395,W,1,10,0.8,5.3,M,-33.3,M,,*58
$PYRTM,2024,125.750448741794,16.860096151944
$GPGGA,180037.00,3501.4830,N,12208.4389,W,1,10,0.8,6.8,M,-33.3,M,,*5D
$PYRTM,2024,125.750460329549,16.860107739687
$GPGGA,180038.00,3501.4803,N,12208.4386,W,1,10,0.8,9.7,M,-33.3,M,,*5D
$PYRTM,2024,125.750471889977,16.860119300116
$GPGGA,180039.00,3501.4775,N,12208.4383,W,1,10,0.8,7.8,M,-33.3,M,,*56
$PYRTM,2024,125.750483927153,16.860131337292
$GPGGA,180040.00,3501.4747,N,12208.4381,W,1,10,0.8,9.2,M,-33.3,M,,*5F
$PYRTM,2024,125.750495038241,16.860142448391
$GPGGA,180041.00,3501.4721,N,12208.4377,W,1,10,0.8,8.3,M,-33.3,M,,*57
$PYRTM,2024,125.750507075822,16.860154485961
$GPGGA,180042.00,3501.4694,N,12208.4372,W,1,10,0.8,7.4,M,-33.3,M,,*56
$PYRTM,2024,125.750518186991,16.860165597130
$GPGGA,180043.00,3501.4667,N,12208.4366,W,1,10,0.8,9.7,M,-33.3,M,,*53
$PYRTM,2024,125.750529775313,16.860177185451
$GPGGA,180044.00,3501.4640,N,12208.4362,W,1,10,0.8,9.6,M,-33.3,M,,*54
$PYRTM,2024,125.750541461343,16.860188871481
$GPGGA,180045.00,3501.4614,N,12208.4359,W,1,10,0.8,11.6,M,-33.3,M,,*65
$PYRTM,2024,125.750553038588,16.860200448727
$GPGGA,180046.00,3501.4588,N,12208.4356,W,1,10,0.8,11.3,M,-33.3,M,,*6A
$PYRTM,2024,125.750564485127,16.860211895266
$GPGGA,180047.00,3501.4560,N,12208.4353,W,1,10,0.8,9.5,M,-33.3,M,,*57
$PYRTM,2024,125.750576072743,16.860223482894
$GPGGA,180048.00,3501.4532,N,12208.4348,W,1,10,0.8,9.5,M,-33.3,M,,*55
$PYRTM,2024,125.750587632870,16.860235043009
$GPGGA,180049.00,3501.4506,N,12208.4343,W,1,10,0.8,8.2,M,-33.3,M,,*5E
$PYRTM,2024,125.750599215104,16.860246625255
$GPGGA,180050.00,3501.4481,N,12208.4339,W,1,10,0.8,8.9,M,-33.3,M,,*5E
$PYRTM,2024,125.750610779410,16.860258189549
$GPGGA,180051.00,3501.4455,N,12208.4334,W,1,10,0.8,8.1,M,-33.3,M,,*53
$PYRTM,2024,125.750621442350,16.860268852488
$GPGGA,180052.00,3501.4429,N,12208.4331,W,1,10,0.8,8.7,M,-33.3,M,,*58
$PYRTM,2024,125.750634522731,16.860281932870
$GPGGA,180053.00,3501.4402,N,12208.4327,W,1,10,0.8,8.1,M,-33.3,M,,*51
$PYRTM,2024,125.750645285370,16.860292695509
$GPGGA,180054.00,3501.4377,N,12208.4322,W,1,10,0.8,8.1,M,-33.3,M,,*56
$PYRTM,2024,125.750656399456,16.860303809595
$GPGGA,180055.00,3501.4350,N,12208.4318,W,1,10,0.8,10.7,M,-33.3,M,,*64
$PYRTM,2024,125.750667506458,16.860314916597
$GPGGA,180056.00,3501.4321,N,12208.4315,W,1,10,0.8,8.8,M,-33.3,M,,*5A
$PYRTM,2024,125.750678620046,16.860326030185
$GPGGA,180057.00,3501.4293,N,12208.4314,W,1,10,0.8,8.5,M,-33.3,M,,*5F
$PYRTM,2024,125.750689724398,16.860337134537
$GPGGA,180058.00,3501.4266,N,12208.4307,W,1,10,0.8,10.4,M,-33.3,M,,*60
$PYRTM,2024,125.750700837986,16.860348248125
$GPGGA,180059.00,3501.4237,N,12208.4298,W,1,10,0.8,9.8,M,-33.3,M,,*56
$PYRTM,2024,125.750715543438,16.860362953576
$GPGGA,180100.00,3501.4207,N,12208.4292,W,1,10,0.8,8.4,M,-33.3,M,,*5F
$PYRTM,2024,125.750726652025,16.860374062164
$GPGGA,180101.00,3501.4177,N,12208.4291,W,1,10,0.8,8.1,M,-33.3,M,,*5C
$PYRTM,2024,125.750737881204,16.860385291343
$GPGGA,180102.00,3501.4149,N,12208.4290,W,1,10,0.8,10.0,M,-33.3,M,,*6B
$PYRTM,2024,125.750750366678,16.860397776817
$GPGGA,180103.00,3501.4125,N,12208.4285,W,1,10,0.8,9.8,M,-33.3,M,,*54
$PYRTM,2024,125.750761478449,16.860408888588
$GPGGA,180104.00,3501.4101,N,12208.4276,W,1,10,0.8,9.3,M,-33.3,M,,*52
$PYRTM,2024,125.750772587558,16.860419997697
$GPGGA,180105.00,3501.4076,N,12208.4272,W,1,10,0.8,6.6,M,-33.3,M,,*5C
$PYRTM,2024,125.750783699769,16.860431109907
$GPGGA,180106.00,3501.4050,N,12208.4276,W,1,10,0.8,4.3,M,-33.3,M,,*58
$PYRTM,2024,125.750794925556,16.860442335694
$GPGGA,180107.00,3501.4025,N,12208.4278,W,1,10,0.8,6.4,M,-33.3,M,,*50
$PYRTM,2024,125.750806511817,16.860453921956
$GPGGA,180108.00,3501.3999,N,12208.4273,W,1,10,0.8,8.1,M,-33.3,M,,*56
$PYRTM,2024,125.750818074664,16.860465484803
$GPGGA,180109.00,3501.3973,N,12208.4264,W,1,10,0.8,8.0,M,-33.3,M,,*54
$PYRTM,2024,125.750829663900,16.860477074039
$GPGGA,180110.00,3501.3946,N,12208.4261,W,1,10,0.8,7.2,M,-33.3,M,,*52
$PYRTM,2024,125.750841223067,16.860488633206
$GPGGA,180111.00,3501.3918,N,12208.4262,W,1,10,0.8,5.6,M,-33.3,M,,*5D
$PYRTM,2024,125.750852808403,16.860500218542
$GPGGA,180112.00,3501.3891,N,12208.4261,W,1,10,0.8,6.8,M,-33.3,M,,*50
$PYRTM,2024,125.750864369583,16.860511779722
$GPGGA,180113.00,3501.3865,N,12208.4255,W,1,10,0.8,8.5,M,-33.3,M,,*5E
$PYRTM,2024,125.750875956817,16.860523366956
$GPGGA,180114.00,3501.3837,N,12208.4249,W,1,10,0.8,8.5,M,-33.3,M,,*53
$PYRTM,2024,125.750887518773,16.860534928912
$GPGGA,180115.00,3501.3810,N,12208.4248,W,1,10,0.8,11.2,M,-33.3,M,,*69
$PYRTM,2024,125.750899108773,16.860546518912
$GPGGA,180116.00,3501.3783,N,12208.4249,W,1,10,0.8,12.1,M,-33.3,M,,*6E
$PYRTM,2024,125.750910667326,16.860558077465
$GPGGA,180117.00,3501.3755,N,12208.4249,W,1,10,0.8,11.2,M,-33.3,M,,*64
$PYRTM,2024,125.750922257373,16.860569667523
$GPGGA,180118.00,3501.3728,N,12208.4244,W,1,10,0.8,10.0,M,-33.3,M,,*6F
$PYRTM,2024,125.750933815312,16.860581225451
$GPGGA,180119.00,3501.3700,N,12208.4238,W,1,10,0.8,11.7,M,-33.3,M,,*69
$PYRTM,2024,125.750945402303,16.860592812454
$GPGGA,180120.00,3501.3672,N,12208.4234,W,1,10,0.8,11.1,M,-33.3,M,,*6D
$PYRTM,2024,125.750956964549,16.860604374687
$GPGGA,180121.00,3501.3645,N,12208.4232,W,1,10,0.8,8.0,M,-33.3,M,,*57
$PYRTM,2024,125.750968551123,16.860615961262
$GPGGA,180122.00,3501.3617,N,12208.4229,W,1,10,0.8,10.4,M,-33.3,M,,*64
$PYRTM,2024,125.750980112199,16.860627522338
$GPGGA,180123.00,3501.3589,N,12208.4224,W,1,10,0.8,8.1,M,-33.3,M,,*50
$PYRTM,2024,125.750991698067,16.860639108206
$GPGGA,180124.00,3501.3562,N,12208.4218,W,1,10,0.8,7.5,M,-33.3,M,,*56
$PYRTM,2024,125.751003260139,16.860650670278
$GPGGA,180125.00,3501.3533,N,12208.4216,W,1,10,0.8,7.4,M,-33.3,M,,*5C
$PYRTM,2024,125.751014846863,16.860662257002
$GPGGA,180126.00,3501.3507,N,12208.4218,W,1,10,0.8,9.3,M,-33.3,M,,*5F
$PYRTM,2024,125.751026408634,16.860673818773
$GPGGA,180127.00,3501.3479,N,12208.4216,W,1,10,0.8,10.0,M,-33.3,M,,*63
$PYRTM,2024,125.751037998738,16.860685408889
$GPGGA,180128.00,3501.3454,N,12208.4209,W,1,10,0.8,11.2,M,-33.3,M,,*6E
$PYRTM,2024,125.751049556076,16.860696966215
$GPGGA,180129.00,3501.3428,N,12208.4201,W,1,10,0.8,11.0,M,-33.3,M,,*6E
$PYRTM,2024,125.751062635347,16.860710045486
$GPGGA,180130.00,3501.3402,N,12208.4197,W,1,10,0.8,6.6,M,-33.3,M,,*52
$PYRTM,2024,125.751073745150,16.860721155289
$GPGGA,180131.00,3501.3378,N,12208.4195,W,1,10,0.8,4.8,M,-33.3,M,,*57
$PYRTM,2024,125.751085334063,16.860732744201
$GPGGA,180132.00,3501.3354,N,12208.4192,W,1,10,0.8,6.5,M,-33.3,M,,*52
$PYRTM,2024,125.751096892627,16.860744302766
$GPGGA,180133.00,3501.3329,N,12208.4186,W,1,10,0.8,6.0,M,-33.3,M,,*59
$PYRTM,2024,125.751108481042,16.860755891181
$GPGGA,180134.00,3501.3304,N,12208.4180,W,1,10,0.8,8.3,M,-33.3,M,,*5A
$PYRTM,2024,125.751120041157,16.860767451296
$GPGGA,180135.00,3501.3279,N,12208.4175,W,1,10,0.8,9.2,M,-33.3,M,,*5A
$PYRTM,2024,125.751131626296,16.860779036435
$GPGGA,180136.00,3501.3250,N,12208.4171,W,1,10,0.8,9.7,M,-33.3,M,,*53
$PYRTM,2024,125.751143190683,16.860790600833
$GPGGA,180137.00,3501.3220,N,12208.4168,W,1,10,0.8,7.4,M,-33.3,M,,*50
$PYRTM,2024,125.751154778044,16.860802188183
$GPGGA,180138.00,3501.3192,N,12208.4165,W,1,10,0.8,6.8,M,-33.3,M,,*55
$PYRTM,2024,125.751166337998,16.860813748137
$GPGGA,180139.00,3501.3165,N,12208.4158,W,1,10,0.8,8.0,M,-33.3,M,,*54
$PYRTM,2024,125.751178042963,16.860825453102
$GPGGA,180140.00,3501.3139,N,12208.4151,W,1,10,0.8,10.6,M,-33.3,M,,*65
$PYRTM,2024,125.751189487164,16.860836897303
$GPGGA,180141.00,3501.3111,N,12208.4146,W,1,10,0.8,9.5,M,-33.3,M,,*53
$PYRTM,2024,125.751201523438,16.860848933576
$GPGGA,180142.00,3501.3083,N,12208.4144,W,1,10,0.8,8.0,M,-33.3,M,,*5C
$PYRTM,2024,125.751212634028,16.860860044167
$GPGGA,180143.00,3501.3057,N,12208.4143,W,1,10,0.8,5.3,M,-33.3,M,,*5D
$PYRTM,2024,125.751224219398,16.860871629537
$GPGGA,180144.00,3501.3032,N,12208.4140,W,1,10,0.8,3.7,M,-33.3,M,,*58
$PYRTM,2024,125.751235783507,16.860883193657
$GPGGA,180145.00,3501.3007,N,12208.4135,W,1,10,0.8,3.9,M,-33.3,M,,*53
$PYRTM,2024,125.751247371470,16.860894781609
$GPGGA,180146.00,3501.2980,N,12208.4132,W,1,10,0.8,2.4,M,-33.3,M,,*5C
$PYRTM,2024,125.751258931574,16.860906341713
$GPGGA,180147.00,3501.2954,N,12208.4131,W,1,10,0.8,2.8,M,-33.3,M,,*5B
$PYRTM,2024,125.751270519734,16.860917929873
$GPGGA,180148.00,3501.2927,N,12208.4129,W,1,10,0.8,3.2,M,-33.3,M,,*52
$PYRTM,2024,125.751282081331,16.860929491470
$GPGGA,180149.00,3501.2899,N,12208.4126,W,1,10,0.8,3.3,M,-33.3,M,,*59
$PYRTM,2024,125.751293667269,16.860941077407
$GPGGA,180150.00,3501.2870,N,12208.4121,W,1,10,0.8,4.3,M,-33.3,M,,*56
$PYRTM,2024,125.751305228750,16.860952638889
$GPGGA,180151.00,3501.2841,N,12208.4115,W,1,10,0.8,6.4,M,-33.3,M,,*57
$PYRTM,2024,125.751316816701,16.860964226840
$GPGGA,180152.00,3501.2813,N,12208.4111,W,1,10,0.8,5.6,M,-33.3,M,,*56
$PYRTM,2024,125.751328376250,16.860975786389
$GPGGA,180153.00,3501.2786,N,12208.4109,W,1,10,0.8,6.5,M,-33.3,M,,*5D
$PYRTM,2024,125.751339966088,16.860987376227
$GPGGA,180154.00,3501.2759,N,12208.4108,W,1,10,0.8,7.5,M,-33.3,M,,*58
$PYRTM,2024,125.751351524259,16.860998934398
$GPGGA,180155.00,3501.2732,N,12208.4104,W,1,10,0.8,6.4,M,-33.3,M,,*58
$PYRTM,2024,125.751363112106,16.861010522245
$GPGGA,180156.00,3501.2707,N,12208.4097,W,1,10,0.8,8.3,M,-33.3,M,,*5F
$PYRTM,2024,125.751374672569,16.861022082708
$GPGGA,180157.00,3501.2681,N,12208.4092,W,1,10,0.8,5.9,M,-33.3,M,,*53
$PYRTM,2024,125.751386262280,16.861033672419
$GPGGA,180158.00,3501.2656,N,12208.4092,W,1,10,0.8,5.9,M,-33.3,M,,*56
$PYRTM,2024,125.751397820880,16.861045231019
$GPGGA,180159.00,3501.2629,N,12208.4092,W,1,10,0.8,7.1,M,-33.3,M,,*55
$PYRTM,2024,125.751410553600,16.861057963738
$GPGGA,180200.00,3501.2602,N,12208.4087,W,1,10,0.8,7.6,M,-33.3,M,,*50
$PYRTM,2024,125.751423170845,16.861070580984
$GPGGA,180201.00,3501.2576,N,12208.4080,W,1,10,0.8,7.6,M,-33.3,M,,*56
$PYRTM,2024,125.751432558310,16.861079968449
$GPGGA,180202.00,3501.2549,N,12208.4075,W,1,10,0.8,8.1,M,-33.3,M,,*5B
$PYRTM,2024,125.751444117581,16.861091527731
$GPGGA,180203.00,3501.2522,N,12208.4073,W,1,10,0.8,7.7,M,-33.3,M,,*58
$PYRTM,2024,125.751455822095,16.861103232234
$GPGGA,180204.00,3501.2495,N,12208.4073,W,1,10,0.8,10.0,M,-33.3,M,,*63
$PYRTM,2024,125.751467267894,16.861114678032
$GPGGA,180205.00,3501.2467,N,12208.4071,W,1,10,0.8,5.3,M,-33.3,M,,*5A
$PYRTM,2024,125.751478855266,16.861126265417
$GPGGA,180206.00,3501.2440,N,12208.4065,W,1,10,0.8,7.8,M,-33.3,M,,*50
$PYRTM,2024,125.751490414456,16.861137824595
$GPGGA,180207.00,3501.2415,N,12208.4057,W,1,10,0.8,7.9,M,-33.3,M,,*51
$PYRTM,2024,125.751502001944,16.861149412083
$GPGGA,180208.00,3501.2388,N,12208.4054,W,1,10,0.8,9.4,M,-33.3,M,,*5D
$PYRTM,2024,125.751513562512,16.861160972650
$GPGGA,180209.00,3501.2360,N,12208.4055,W,1,10,0.8,7.3,M,-33.3,M,,*52
$PYRTM,2024,125.751525151030,16.861172561169
$GPGGA,180210.00,3501.2336,N,12208.4055,W,1,10,0.8,6.8,M,-33.3,M,,*53
$PYRTM,2024,125.751536710208,16.861184120347
$GPGGA,180211.00,3501.2311,N,12208.4050,W,1,10,0.8,5.3,M,-33.3,M,,*5A
$PYRTM,2024,125.751548748287,16.861196158426
$GPGGA,180212.00,3501.2284,N,12208.4042,W,1,10,0.8,4.9,M,-33.3,M,,*5C
$PYRTM,2024,125.751559858322,16.861207268472
$GPGGA,180213.00,3501.2257,N,12208.4038,W,1,10,0.8,6.7,M,-33.3,M,,*52
$PYRTM,2024,125.751571442569,16.861218852720
$GPGGA,180214.00,3501.2229,N,12208.4039,W,1,10,0.8,7.6,M,-33.3,M,,*5D
$PYRTM,2024,125.751583007187,16.861230417326
$GPGGA,180215.00,3501.2200,N,12208.4041,W,1,10,0.8,9.4,M,-33.3,M,,*54
$PYRTM,2024,125.751594711331,16.861242121470
$GPGGA,180216.00,3501.2170,N,12208.4039,W,1,10,0.8,7.0,M,-33.3,M,,*56
$PYRTM,2024,125.751606285787,16.861253695926
$GPGGA,180217.00,3501.2141,N,12208.4034,W,1,10,0.8,7.5,M,-33.3,M,,*5D
$PYRTM,2024,125.751617860023,16.861265270162
$GPGGA,180218.00,3501.2113,N,12208.4027,W,1,10,0.8,8.3,M,-33.3,M,,*5E
$PYRTM,2024,125.751629450104,16.861276860243
$GPGGA,180219.00,3501.2085,N,12208.4022,W,1,10,0.8,9.7,M,-33.3,M,,*51
$PYRTM,2024,125.751641470394,16.861288880532
$GPGGA,180220.00,3501.2057,N,12208.4021,W,1,10,0.8,10.9,M,-33.3,M,,*61
$PYRTM,2024,125.751654666759,16.861302076898
$GPGGA,180221.00,3501.2030,N,12208.4020,W,1,10,0.8,9.9,M,-33.3,M,,*58
$PYRTM,2024,125.751664040926,16.861311451065
$GPGGA,180222.00,3501.2005,N,12208.4017,W,1,10,0.8,7.8,M,-33.3,M,,*56
$PYRTM,2024,125.751675599815,16.861323009954
$GPGGA,180223.00,3501.1980,N,12208.4011,W,1,10,0.8,9.4,M,-33.3,M,,*54
$PYRTM,2024,125.751687183229,16.861334593368
$GPGGA,180224.00,3501.1956,N,12208.4004,W,1,10,0.8,9.8,M,-33.3,M,,*50
$PYRTM,2024,125.751698747998,16.861346158137
$GPGGA,180225.00,3501.1930,N,12208.4000,W,1,10,0.8,7.7,M,-33.3,M,,*54
$PYRTM,2024,125.751710337824,16.861357747963
$GPGGA,180226.00,3501.1904,N,12208.3998,W,1,10,0.8,9.4,M,-33.3,M,,*52
$PYRTM,2024,125.751721896424,16.861369306562
$GPGGA,180227.00,3501.1877,N,12208.3992,W,1,10,0.8,7.5,M,-33.3,M,,*53
$PYRTM,2024,125.751733479977,16.861380890116
$GPGGA,180228.00,3501.1850,N,12208.3985,W,1,10,0.8,7.8,M,-33.3,M,,*52
$PYRTM,2024,125.751745044722,16.861392454861
$GPGGA,180229.00,3501.1823,N,12208.3980,W,1,10,0.8,8.0,M,-33.3,M,,*55
$PYRTM,2024,125.751757777581,16.861405187720
$GPGGA,180230.00,3501.1796,N,12208.3977,W,1,10,0.8,9.1,M,-33.3,M,,*54
$PYRTM,2024,125.751770395324,16.861417805463
$GPGGA,180231.00,3501.1770,N,12208.3972,W,1,10,0.8,6.7,M,-33.3,M,,*51
$PYRTM,2024,125.751779782697,16.861427192836
$GPGGA,180232.00,3501.1743,N,12208.3966,W,1,10,0.8,5.6,M,-33.3,M,,*55
$PYRTM,2024,125.751791343588,16.861438753727
$GPGGA,180233.00,3501.1716,N,12208.3963,W,1,10,0.8,7.0,M,-33.3,M,,*55
$PYRTM,2024,125.751802929572,16.861450339711
$GPGGA,180234.00,3501.1690,N,12208.3963,W,1,10,0.8,6.8,M,-33.3,M,,*54
$PYRTM,2024,125.751814491007,16.861461901157
$GPGGA,180235.00,3501.1665,N,12208.3961,W,1,10,0.8,4.9,M,-33.3,M,,*5E
$PYRTM,2024,125.751826078762,16.861473488900
$GPGGA,180236.00,3501.1640,N,12208.3957,W,1,10,0.8,5.9,M,-33.3,M,,*5E
$PYRTM,2024,125.751837639282,16.861485049421
$GPGGA,180237.00,3501.1614,N,12208.3953,W,1,10,0.8,5.5,M,-33.3,M,,*56
$PYRTM,2024,125.751849226377,16.861496636516
$GPGGA,180238.00,3501.1588,N,12208.3947,W,1,10,0.8,6.5,M,-33.3,M,,*59
$PYRTM,2024,125.751860787905,16.861508198044
$GPGGA,180239.00,3501.1561,N,12208.3940,W,1,10,0.8,6.5,M,-33.3,M,,*58
$PYRTM,2024,125.751872390498,16.861519800637
$GPGGA,180240.00,3501.1532,N,12208.3936,W,1,10,0.8,8.9,M,-33.3,M,,*53
$PYRTM,2024,125.751884054248,16.861531464398
$GPGGA,180241.00,3501.1501,N,12208.3935,W,1,10,0.8,9.4,M,-33.3,M,,*5D
$PYRTM,2024,125.751895972859,16.861543382998
$GPGGA,180242.00,3501.1472,N,12208.3935,W,1,10,0.8,9.5,M,-33.3,M,,*5A
$PYRTM,2024,125.751907084213,16.861554494352
$GPGGA,180243.00,3501.1446,N,12208.3930,W,1,10,0.8,9.5,M,-33.3,M,,*59
$PYRTM,2024,125.751918673912,16.861566084051
$GPGGA,180244.00,3501.1420,N,12208.3924,W,1,10,0.8,10.4,M,-33.3,M,,*62
$PYRTM,2024,125.751930232500,16.861577642639
$GPGGA,180245.00,3501.1393,N,12208.3921,W,1,10,0.8,8.8,M,-33.3,M,,*5C
$PYRTM,2024,125.751941820417,16.861589230556
$GPGGA,180246.00,3501.1368,N,12208.3919,W,1,10,0.8,8.0,M,-33.3,M,,*58
$PYRTM,2024,125.751953380694,16.861600790833
$GPGGA,180247.00,3501.1343,N,12208.3917,W,1,10,0.8,6.5,M,-33.3,M,,*55
$PYRTM,2024,125.751964963877,16.861612374016
$GPGGA,180248.00,3501.1316,N,12208.3914,W,1,10,0.8,5.5,M,-33.3,M,,*5A
$PYRTM,2024,125.751976540243,16.861623950382
$GPGGA,180249.00,3501.1288,N,12208.3909,W,1,10,0.8,4.2,M,-33.3,M,,*57
$PYRTM,2024,125.751988116748,16.861635526887
$GPGGA,180250.00,3501.1260,N,12208.3902,W,1,10,0.8,5.4,M,-33.3,M,,*55
$PYRTM,2024,125.751999679838,16.861647089977
$GPGGA,180251.00,3501.1231,N,12208.3894,W,1,10,0.8,5.9,M,-33.3,M,,*53
$PYRTM,2024,125.752011259062,16.861658669201
$GPGGA,180252.00,3501.1203,N,12208.3891,W,1,10,0.8,6.0,M,-33.3,M,,*5E
$PYRTM,2024,125.752022939792,16.861670349931
$GPGGA,180253.00,3501.1174,N,12208.3888,W,1,10,0.8,4.9,M,-33.3,M,,*5F
$PYRTM,2024,125.752034528958,16.861681939097
$GPGGA,180254.00,3501.1147,N,12208.3884,W,1,10,0.8,6.3,M,-33.3,M,,*5C
$PYRTM,2024,125.752045974549,16.861693384687
$GPGGA,180255.00,3501.1121,N,12208.3877,W,1,10,0.8,5.7,M,-33.3,M,,*56
$PYRTM,2024,125.752057565231,16.861704975370
$GPGGA,180256.00,3501.1096,N,12208.3873,W,1,10,0.8,5.4,M,-33.3,M,,*5F
$PYRTM,2024,125.752068196030,16.861715606169
$GPGGA,180257.00,3501.1071,N,12208.3871,W,1,10,0.8,2.4,M,-33.3,M,,*52
$PYRTM,2024,125.752081273218,16.861728683356
$GPGGA,180258.00,3501.1045,N,12208.3868,W,1,10,0.8,2.8,M,-33.3,M,,*5E
$PYRTM,2024,125.752092051609,16.861739461748
$GPGGA,180259.00,3501.1019,N,12208.3863,W,1,10,0.8,4.1,M,-33.3,M,,*52
$PYRTM,2024,125.752103163414,16.861750573553
$GPGGA,180300.00,3501.0992,N,12208.3859,W,1,10,0.8,4.8,M,-33.3,M,,*54
$PYRTM,2024,125.752117733368,16.861765143507
$GPGGA,180301.00,3501.0964,N,12208.3858,W,1,10,0.8,5.1,M,-33.3,M,,*55
$PYRTM,2024,125.752128852569,16.861776262720
$GPGGA,180302.00,3501.0934,N,12208.3860,W,1,10,0.8,6.0,M,-33.3,M,,*5A
$PYRTM,2024,125.752139969329,16.861787379468
$GPGGA,180303.00,3501.0905,N,12208.3859,W,1,10,0.8,6.1,M,-33.3,M,,*52
$PYRTM,2024,125.752151070058,16.861798480197
$GPGGA,180304.00,3501.0878,N,12208.3853,W,1,10,0.8,6.0,M,-33.3,M,,*55
$PYRTM,2024,125.752162194942,16.861809605081
$GPGGA,180305.00,3501.0853,N,12208.3846,W,1,10,0.8,8.2,M,-33.3,M,,*55
$PYRTM,2024,125.752173302326,16.861820712465
$GPGGA,180306.00,3501.0827,N,12208.3843,W,1,10,0.8,6.8,M,-33.3,M,,*54
$PYRTM,2024,125.752184414213,16.861831824352
$GPGGA,180307.00,3501.0799,N,12208.3846,W,1,10,0.8,7.1,M,-33.3,M,,*52
$PYRTM,2024,125.752197711458,16.861845121597
$GPGGA,180308.00,3501.0772,N,12208.3849,W,1,10,0.8,7.1,M,-33.3,M,,*57
$PYRTM,2024,125.752208822407,16.861856232546
$GPGGA,180309.00,3501.0747,N,12208.3845,W,1,10,0.8,5.8,M,-33.3,M,,*57
$PYRTM,2024,125.752220423461,16.861867833600
$GPGGA,180310.00,3501.0723,N,12208.3834,W,1,10,0.8,8.1,M,-33.3,M,,*5F
$PYRTM,2024,125.752231508241,16.861878918380
$GPGGA,180311.00,3501.0697,N,12208.3826,W,1,10,0.8,5.8,M,-33.3,M,,*57
$PYRTM,2024,125.752243082477,16.861890492616
$GPGGA,180312.00,3501.0671,N,12208.3825,W,1,10,0.8,4.6,M,-33.3,M,,*50
$PYRTM,2024,125.752254192940,16.861901603079
$GPGGA,180313.00,3501.0645,N,12208.3826,W,1,10,0.8,5.9,M,-33.3,M,,*5B
$PYRTM,2024,125.752265305694,16.861912715833
$GPGGA,180314.00,3501.0621,N,12208.3820,W,1,10,0.8,7.0,M,-33.3,M,,*53
$PYRTM,2024,125.752276416389,16.861923826528
$GPGGA,180315.00,3501.0593,N,12208.3813,W,1,10,0.8,8.4,M,-33.3,M,,*53
$PYRTM,2024,125.752288002720,16.861935412859
$GPGGA,180316.00,3501.0566,N,12208.3808,W,1,10,0.8,8.0,M,-33.3,M,,*54
$PYRTM,2024,125.752299562801,16.861946972940
$GPGGA,180317.00,3501.0539,N,12208.3804,W,1,10,0.8,6.5,M,-33.3,M,,*58
$PYRTM,2024,125.752311151597,16.861958561736
$GPGGA,180318.00,3501.0513,N,12208.3802,W,1,10,0.8,7.3,M,-33.3,M,,*5E
$PYRTM,2024,125.752322711076,16.861970121215
$GPGGA,180319.00,3501.0487,N,12208.3798,W,1,10,0.8,5.0,M,-33.3,M,,*5E
$PYRTM,2024,125.752334299282,16.861981709421
$GPGGA,180320.00,3501.0462,N,12208.3794,W,1,10,0.8,5.7,M,-33.3,M,,*54
$PYRTM,2024,125.752345860891,16.861993271042
$GPGGA,180321.00,3501.0436,N,12208.3790,W,1,10,0.8,6.1,M,-33.3,M,,*55
$PYRTM,2024,125.752357442836,16.862004852975
$GPGGA,180322.00,3501.0410,N,12208.3788,W,1,10,0.8,5.6,M,-33.3,M,,*5F
$PYRTM,2024,125.752369007419,16.862016417558
$GPGGA,180323.00,3501.0384,N,12208.3787,W,1,10,0.8,3.7,M,-33.3,M,,*5C
$PYRTM,2024,125.752380595718,16.862028005856
$GPGGA,180324.00,3501.0357,N,12208.3784,W,1,10,0.8,4.2,M,-33.3,M,,*54
$PYRTM,2024,125.752392156759,16.862039566898
$GPGGA,180325.00,3501.0329,N,12208.3780,W,1,10,0.8,1.8,M,-33.3,M,,*57
$PYRTM,2024,125.752403757523,16.862051167662
$GPGGA,180326.00,3501.0301,N,12208.3776,W,1,10,0.8,3.1,M,-33.3,M,,*5C
$PYRTM,2024,125.752415305231,16.862062715370
$GPGGA,180327.00,3501.0274,N,12208.3773,W,1,10,0.8,4.3,M,-33.3,M,,*5E
$PYRTM,2024,125.752426891979,16.862074302118
$GPGGA,180328.00,3501.0246,N,12208.3770,W,1,10,0.8,7.0,M,-33.3,M,,*53
$PYRTM,2024,125.752438454167,16.862085864306
$GPGGA,180329.00,3501.0217,N,12208.3766,W,1,10,0.8,7.7,M,-33.3,M,,*56
$PYRTM,2024,125.752451081759,16.862098491898
$GPGGA,180330.00,3501.0191,N,12208.3761,W,1,10,0.8,8.4,M,-33.3,M,,*58
$PYRTM,2024,125.752462644769,16.862110054907
$GPGGA,180331.00,3501.0164,N,12208.3755,W,1,10,0.8,8.6,M,-33.3,M,,*56
$PYRTM,2024,125.752474225347,16.862121635486
$GPGGA,180332.00,3501.0138,N,12208.3749,W,1,10,0.8,8.4,M,-33.3,M,,*53
$PYRTM,2024,125.752485791852,16.862133201991
$GPGGA,180333.00,3501.0112,N,12208.3746,W,1,10,0.8,6.0,M,-33.3,M,,*5F
$PYRTM,2024,125.752497378877,16.862144789016
$GPGGA,180334.00,3501.0086,N,12208.3745,W,1,10,0.8,3.4,M,-33.3,M,,*56
$PYRTM,2024,125.752508940127,16.862156350266
$GPGGA,180335.00,3501.0060,N,12208.3743,W,1,10,0.8,6.1,M,-33.3,M,,*59
$PYRTM,2024,125.752520526539,16.862167936678
$GPGGA,180336.00,3501.0033,N,12208.3738,W,1,10,0.8,7.9,M,-33.3,M,,*59
$PYRTM,2024,125.752532088681,16.862179498831
$GPGGA,180337.00,3501.0007,N,12208.3732,W,1,10,0.8,6.8,M,-33.3,M,,*55
$PYRTM,2024,125.752543689560,16.862191099711
$GPGGA,180338.00,3500.9980,N,12208.3728,W,1,10,0.8,8.0,M,-33.3,M,,*59
$PYRTM,2024,125.752555235914,16.862202646053
$GPGGA,180339.00,3500.9951,N,12208.3724,W,1,10,0.8,7.3,M,-33.3,M,,*54
$PYRTM,2024,125.752566825926,16.862214236076
$GPGGA,180340.00,3500.9923,N,12208.3721,W,1,10,0.8,9.4,M,-33.3,M,,*53
$PYRTM,2024,125.752578385428,16.862225795567
$GPGGA,180341.00,3500.9895,N,12208.3717,W,1,10,0.8,9.1,M,-33.3,M,,*5E
$PYRTM,2024,125.752590421690,16.862237831829
$GPGGA,180342.00,3500.9867,N,12208.3713,W,1,10,0.8,6.7,M,-33.3,M,,*5D
$PYRTM,2024,125.752601533403,16.862248943553
$GPGGA,180343.00,3500.9838,N,12208.3711,W,1,10,0.8,7.5,M,-33.3,M,,*57
$PYRTM,2024,125.752613120475,16.862260530625
$GPGGA,180344.00,3500.9810,N,12208.3709,W,1,10,0.8,6.7,M,-33.3,M,,*50
$PYRTM,2024,125.752624680775,16.862272090914
$GPGGA,180345.00,3500.9784,N,12208.3706,W,1,10,0.8,7.1,M,-33.3,M,,*5B
$PYRTM,2024,125.752636268542,16.862283678669
$GPGGA,180346.00,3500.9759,N,12208.3702,W,1,10,0.8,7.6,M,-33.3,M,,*5B
$PYRTM,2024,125.752647828495,16.862295238646
$GPGGA,180347.00,3500.9733,N,12208.3699,W,1,10,0.8,5.3,M,-33.3,M,,*52
$PYRTM,2024,125.752659410613,16.862306820752
$GPGGA,180348.00,3500.9707,N,12208.3697,W,1,10,0.8,2.8,M,-33.3,M,,*58
$PYRTM,2024,125.752670976863,16.862318387002
$GPGGA,180349.00,3500.9681,N,12208.3693,W,1,10,0.8,2.1,M,-33.3,M,,*5B
$PYRTM,2024,125.752682564606,16.862329974745
$GPGGA,180350.00,3500.9656,N,12208.3687,W,1,10,0.8,1.5,M,-33.3,M,,*5B
$PYRTM,2024,125.752694126574,16.862341536725
$GPGGA,180351.00,3500.9628,N,12208.3684,W,1,10,0.8,3.5,M,-33.3,M,,*52
$PYRTM,2024,125.752705713067,16.862353123206
$GPGGA,180352.00,3500.9599,N,12208.3683,W,1,10,0.8,3.1,M,-33.3,M,,*5B
$PYRTM,2024,125.752717274977,16.862364685116
$GPGGA,180353.00,3500.9570,N,12208.3683,W,1,10,0.8,2.7,M,-33.3,M,,*5A
$PYRTM,2024,125.752728863461,16.862376273600
$GPGGA,180354.00,3500.9543,N,12208.3678,W,1,10,0.8,6.3,M,-33.3,M,,*59
$PYRTM,2024,125.752740423102,16.862387833241
$GPGGA,180355.00,3500.9516,N,12208.3670,W,1,10,0.8,8.4,M,-33.3,M,,*59
$PYRTM,2024,125.752752011343,16.862399421493
$GPGGA,180356.00,3500.9490,N,12208.3663,W,1,10,0.8,6.3,M,-33.3,M,,*5E
$PYRTM,2024,125.752763571470,16.862410981609
$GPGGA,180357.00,3500.9464,N,12208.3662,W,1,10,0.8,4.8,M,-33.3,M,,*5C
$PYRTM,2024,125.752775152986,16.862422563125
$GPGGA,180358.00,3500.9439,N,12208.3663,W,1,10,0.8,3.7,M,-33.3,M,,*52
$PYRTM,2024,125.752786720336,16.862434130475
$GPGGA,180359.00,3500.9413,N,12208.3661,W,1,10,0.8,4.7,M,-33.3,M,,*5E
$PYRTM,2024,125.752799941343,16.862447351481
$GPGGA,180400.00,3500.9388,N,12208.3657,W,1,10,0.8,2.8,M,-33.3,M,,*5C
$PYRTM,2024,125.752812066458,16.862459476597
$GPGGA,180401.00,3500.9361,N,12208.3653,W,1,10,0.8,2.8,M,-33.3,M,,*5E
$PYRTM,2024,125.752821468484,16.862468878623
$GPGGA,180402.00,3500.9333,N,12208.3650,W,1,10,0.8,2.5,M,-33.3,M,,*54
$PYRTM,2024,125.752833015706,16.862480425845
$GPGGA,180403.00,3500.9306,N,12208.3648,W,1,10,0.8,2.6,M,-33.3,M,,*59
$PYRTM,2024,125.752844597222,16.862492007361
$GPGGA,180404.00,3500.9276,N,12208.3645,W,1,10,0.8,4.5,M,-33.3,M,,*50
$PYRTM,2024,125.752856163345,16.862503573495
$GPGGA,180405.00,3500.9248,N,12208.3642,W,1,10,0.8,5.1,M,-33.3,M,,*5E
$PYRTM,2024,125.752867750810,16.862515160949
$GPGGA,180406.00,3500.9221,N,12208.3636,W,1,10,0.8,3.5,M,-33.3,M,,*53
$PYRTM,2024,125.752879312199,16.862526722338
$GPGGA,180407.00,3500.9195,N,12208.3630,W,1,10,0.8,4.0,M,-33.3,M,,*5A
$PYRTM,2024,125.752890899086,16.862538309236
$GPGGA,180408.00,3500.9169,N,12208.3624,W,1,10,0.8,3.3,M,-33.3,M,,*57
$PYRTM,2024,125.752902460012,16.862549870150
$GPGGA,180409.00,3500.9144,N,12208.3619,W,1,10,0.8,2.1,M,-33.3,M,,*54
$PYRTM,2024,125.752914048646,16.862561458785
$GPGGA,180410.00,3500.9120,N,12208.3616,W,1,10,0.8,4.6,M,-33.3,M,,*50
$PYRTM,2024,125.752925610787,16.862573020937
$GPGGA,180411.00,3500.9095,N,12208.3614,W,1,10,0.8,4.6,M,-33.3,M,,*5C
$PYRTM,2024,125.752937645856,16.862585055995
$GPGGA,180412.00,3500.9068,N,12208.3611,W,1,10,0.8,5.2,M,-33.3,M,,*5D
$PYRTM,2024,125.752948758079,16.862596168218
$GPGGA,180413.00,3500.9042,N,12208.3605,W,1,10,0.8,6.2,M,-33.3,M,,*52
$PYRTM,2024,125.752960343530,16.862607753669
$GPGGA,180414.00,3500.9014,N,12208.3598,W,1,10,0.8,6.0,M,-33.3,M,,*53
$PYRTM,2024,125.752971906262,16.862619316400
$GPGGA,180415.00,3500.8987,N,12208.3592,W,1,10,0.8,5.4,M,-33.3,M,,*5D
$PYRTM,2024,125.752983494896,16.862630905035
$GPGGA,180416.00,3500.8960,N,12208.3587,W,1,10,0.8,4.0,M,-33.3,M,,*56
$PYRTM,2024,125.752995054549,16.862642464699
$GPGGA,180417.00,3500.8933,N,12208.3585,W,1,10,0.8,5.4,M,-33.3,M,,*56
$PYRTM,2024,125.753006642188,16.862654052326
$GPGGA,180418.00,3500.8906,N,12208.3583,W,1,10,0.8,6.3,M,-33.3,M,,*5D
$PYRTM,2024,125.753018202685,16.862665612824
$GPGGA,180419.00,3500.8881,N,12208.3579,W,1,10,0.8,7.2,M,-33.3,M,,*57
$PYRTM,2024,125.753029788727,16.862677198866
$GPGGA,180420.00,3500.8855,N,12208.3573,W,1,10,0.8,5.1,M,-33.3,M,,*5F
$PYRTM,2024,125.753041350787,16.862688760926
$GPGGA,180421.00,3500.8830,N,12208.3569,W,1,10,0.8,5.1,M,-33.3,M,,*56
$PYRTM,2024,125.753052937847,16.862700347986
$GPGGA,180422.00,3500.8804,N,12208.3567,W,1,10,0.8,4.1,M,-33.3,M,,*5D
$PYRTM,2024,125.753064498368,16.862711908507
$GPGGA,180423.00,3500.8775,N,12208.3567,W,1,10,0.8,3.8,M,-33.3,M,,*5B
$PYRTM,2024,125.753076085023,16.862723495162
$GPGGA,180424.00,3500.8747,N,12208.3564,W,1,10,0.8,7.2,M,-33.3,M,,*50
$PYRTM,2024,125.753087646296,16.862735056435
$GPGGA,180425.00,3500.8720,N,12208.3560,W,1,10,0.8,5.8,M,-33.3,M,,*5C
$PYRTM,2024,125.753099232546,16.862746642685
$GPGGA,180426.00,3500.8692,N,12208.3558,W,1,10,0.8,3.9,M,-33.3,M,,*5B
$PYRTM,2024,125.753110794757,16.862758204896
$GPGGA,180427.00,3500.8663,N,12208.3555,W,1,10,0.8,4.7,M,-33.3,M,,*50
$PYRTM,2024,125.753122384572,16.862769794722
$GPGGA,180428.00,3500.8636,N,12208.3550,W,1,10,0.8,4.8,M,-33.3,M,,*55
$PYRTM,2024,125.753133943426,16.862781353565
$GPGGA,180429.00,3500.8611,N,12208.3546,W,1,10,0.8,4.8,M,-33.3,M,,*56
$PYRTM,2024,125.753146676389,16.862794086528
$GPGGA,180430.00,3500.8586,N,12208.3544,W,1,10,0.8,2.1,M,-33.3,M,,*5E
$PYRTM,2024,125.753159289769,16.862806699907
$GPGGA,180431.00,3500.8558,N,12208.3542,W,1,10,0.8,0.7,M,-33.3,M,,*5E
$PYRTM,2024,125.753168680475,16.862816090613
$GPGGA,180432.00,3500.8530,N,12208.3538,W,1,10,0.8,-0.1,M,-33.3,M,,*75
$PYRTM,2024,125.753180239236,16.862827649375
$GPGGA,180433.00,3500.8503,N,12208.3532,W,1,10,0.8,-0.5,M,-33.3,M,,*7A
$PYRTM,2024,125.753191826493,16.862839236632
$GPGGA,180434.00,3500.8477,N,12208.3526,W,1,10,0.8,2.2,M,-33.3,M,,*52
$PYRTM,2024,125.753203386597,16.862850796736
$GPGGA,180435.00,3500.8448,N,12208.3521,W,1,10,0.8,2.1,M,-33.3,M,,*5B
$PYRTM,2024,125.753214975590,16.862862385729
$GPGGA,180436.00,3500.8418,N,12208.3518,W,1,10,0.8,1.5,M,-33.3,M,,*50
$PYRTM,2024,125.753226535069,16.862873945208
$GPGGA,180437.00,3500.8390,N,12208.3516,W,1,10,0.8,1.3,M,-33.3,M,,*5E
$PYRTM,2024,125.753238122338,16.862885532477
$GPGGA,180438.00,3500.8364,N,12208.3514,W,1,10,0.8,4.4,M,-33.3,M,,*5A
$PYRTM,2024,125.753249685926,16.862897096065
$GPGGA,180439.00,3500.8339,N,12208.3508,W,1,10,0.8,6.9,M,-33.3,M,,*51
$PYRTM,2024,125.753261267731,16.862908677870
$GPGGA,180440.00,3500.8313,N,12208.3503,W,1,10,0.8,6.9,M,-33.3,M,,*5C
$PYRTM,2024,125.753272832789,16.862920242928
$GPGGA,180441.00,3500.8285,N,12208.3501,W,1,10,0.8,8.8,M,-33.3,M,,*5E
$PYRTM,2024,125.753284868102,16.862932278241
$GPGGA,180442.00,3500.8259,N,12208.3501,W,1,10,0.8,9.4,M,-33.3,M,,*51
$PYRTM,2024,125.753295983634,16.862943393773
$GPGGA,180443.00,3500.8232,N,12208.3500,W,1,10,0.8,5.7,M,-33.3,M,,*53
$PYRTM,2024,125.753307582500,16.862954992639
$GPGGA,180444.00,3500.8205,N,12208.3495,W,1,10,0.8,4.2,M,-33.3,M,,*59
$PYRTM,2024,125.753319128542,16.862966538681
$GPGGA,180445.00,3500.8178,N,12208.3489,W,1,10,0.8,6.4,M,-33.3,M,,*58
$PYRTM,2024,125.753330710972,16.862978121111
$GPGGA,180446.00,3500.8153,N,12208.3483,W,1,10,0.8,7.0,M,-33.3,M,,*5D
$PYRTM,2024,125.753342275937,16.862989686076
$GPGGA,180447.00,3500.8126,N,12208.3480,W,1,10,0.8,9.5,M,-33.3,M,,*56
$PYRTM,2024,125.753353864514,16.863001274664
$GPGGA,180448.00,3500.8098,N,12208.3477,W,1,10,0.8,7.6,M,-33.3,M,,*58
$PYRTM,2024,125.753365425347,16.863012835486
$GPGGA,180449.00,3500.8071,N,12208.3474,W,1,10,0.8,6.9,M,-33.3,M,,*53
$PYRTM,2024,125.753377465312,16.863024875451
$GPGGA,180450.00,3500.8046,N,12208.3470,W,1,10,0.8,4.6,M,-33.3,M,,*56
$PYRTM,2024,125.753388574988,16.863035985127
$GPGGA,180451.00,3500.8020,N,12208.3466,W,1,10,0.8,5.2,M,-33.3,M,,*55
$PYRTM,2024,125.753400160000,16.863047570127
$GPGGA,180452.00,3500.7994,N,12208.3461,W,1,10,0.8,4.6,M,-33.3,M,,*5D
$PYRTM,2024,125.753411722488,16.863059132627
$GPGGA,180453.00,3500.7967,N,12208.3455,W,1,10,0.8,5.8,M,-33.3,M,,*58
$PYRTM,2024,125.753423308970,16.863070719190
$GPGGA,180454.00,3500.7941,N,12208.3452,W,1,10,0.8,6.5,M,-33.3,M,,*52
$PYRTM,2024,125.753434870451,16.863082280590
$GPGGA,180455.00,3500.7915,N,12208.3451,W,1,10,0.8,8.1,M,-33.3,M,,*5B
$PYRTM,2024,125.753446456227,16.863093866366
$GPGGA,180456.00,3500.7889,N,12208.3449,W,1,10,0.8,6.7,M,-33.3,M,,*5D
$PYRTM,2024,125.753458018750,16.863105428889
$GPGGA,180457.00,3500.7862,N,12208.3443,W,1,10,0.8,4.4,M,-33.3,M,,*52
$PYRTM,2024,125.753469619641,16.863117029780
$GPGGA,180458.00,3500.7837,N,12208.3436,W,1,09,0.8,4.2,M,-33.3,M,,*51
$PYRTM,2024,125.753481165567,16.863128575706
$GPGGA,180459.00,3500.7813,N,12208.3431,W,1,09,0.8,6.3,M,-33.3,M,,*52
$PYRTM,2024,125.753493901181,16.863141311319
$GPGGA,180500.00,3500.7785,N,12208.3431,W,1,09,0.8,7.9,M,-33.3,M,,*54
$PYRTM,2024,125.753506514919,16.863153925058
$GPGGA,180501.00,3500.7755,N,12208.3434,W,1,09,0.8,6.6,M,-33.3,M,,*53
$PYRTM,2024,125.753514975093,16.863162385231
$GPGGA,180502.00,3500.7727,N,12208.3433,W,1,09,0.8,8.4,M,-33.3,M,,*5E
$PYRTM,2024,125.753528056215,16.863175466366
$GPGGA,180503.00,3500.7702,N,12208.3428,W,1,09,0.8,8.0,M,-33.3,M,,*56
$PYRTM,2024,125.753538818530,16.863186228669
$GPGGA,180504.00,3500.7676,N,12208.3420,W,1,09,0.8,6.0,M,-33.3,M,,*55
$PYRTM,2024,125.753549933229,16.863197343368
$GPGGA,180505.00,3500.7650,N,12208.3418,W,1,09,0.8,3.8,M,-33.3,M,,*56
$PYRTM,2024,125.753561037373,16.863208447512
$GPGGA,180506.00,3500.7624,N,12208.3421,W,1,09,0.8,5.2,M,-33.3,M,,*50
$PYRTM,2024,125.753572160625,16.863219570775
$GPGGA,180507.00,3500.7600,N,12208.3423,W,1,09,0.8,4.7,M,-33.3,M,,*51
$PYRTM,2024,125.753583264919,16.863230675046
$GPGGA,180508.00,3500.7574,N,12208.3417,W,1,09,0.8,4.7,M,-33.3,M,,*59
$PYRTM,2024,125.753594375370,16.863241785509
$GPGGA,180509.00,3500.7548,N,12208.3409,W,1,09,0.8,7.1,M,-33.3,M,,*5D
$PYRTM,2024,125.753605500914,16.863252911053
$GPGGA,180510.00,3500.7521,N,12208.3406,W,1,09,0.8,6.1,M,-33.3,M,,*54
$PYRTM,2024,125.753616599653,16.863264009792
$GPGGA,180511.00,3500.7494,N,12208.3405,W,1,09,0.8,5.8,M,-33.3,M,,*53
$PYRTM,2024,125.753628175220,16.863275585359
$GPGGA,180512.00,3500.7466,N,12208.3403,W,1,09,0.8,5.7,M,-33.3,M,,*54
$PYRTM,2024,125.753639284213,16.863286694363
$GPGGA,180513.00,3500.7439,N,12208.3395,W,1,09,0.8,6.9,M,-33.3,M,,*5A
$PYRTM,2024,125.753650394618,16.863297804769
$GPGGA,180514.00,3500.7411,N,12208.3388,W,1,09,0.8,6.9,M,-33.3,M,,*5B
$PYRTM,2024,125.753661504884,16.863308915023
$GPGGA,180515.00,3500.7383,N,12208.3386,W,1,09,0.8,8.1,M,-33.3,M,,*5E
$PYRTM,2024,125.753672619502,16.863320029641
$GPGGA,180516.00,3500.7357,N,12208.3388,W,1,09,0.8,9.3,M,-33.3,M,,*59
$PYRTM,2024,125.753684205949,16.863331616088
$GPGGA,180517.00,3500.7329,N,12208.3388,W,1,09,0.8,8.3,M,-33.3,M,,*50
$PYRTM,2024,125.753695764919,16.863343175058
$GPGGA,180518.00,3500.7301,N,12208.3384,W,1,09,0.8,7.0,M,-33.3,M,,*55
$PYRTM,2024,125.753707339433,16.863354749572
$GPGGA,180519.00,3500.7275,N,12208.3376,W,1,09,0.8,6.4,M,-33.3,M,,*5E
$PYRTM,2024,125.753718912581,16.863366322720
$GPGGA,180520.00,3500.7252,N,12208.3367,W,1,09,0.8,5.4,M,-33.3,M,,*52
$PYRTM,2024,125.753730487153,16.863377897292
$GPGGA,180521.00,3500.7228,N,12208.3363,W,1,09,0.8,4.9,M,-33.3,M,,*56
$PYRTM,2024,125.753742059838,16.863389469977
$GPGGA,180522.00,3500.7202,N,12208.3364,W,1,09,0.8,6.4,M,-33.3,M,,*55
$PYRTM,2024,125.753753635220,16.863401045359
$GPGGA,180523.00,3500.7173,N,12208.3364,W,1,09,0.8,7.4,M,-33.3,M,,*50
$PYRTM,2024,125.753765204190,16.863412614340
$GPGGA,180524.00,3500.7145,N,12208.3362,W,1,09,0.8,8.3,M,-33.3,M,,*5C
$PYRTM,2024,125.753776784317,16.863424194456
$GPGGA,180525.00,3500.7117,N,12208.3358,W,1,09,0.8,9.6,M,-33.3,M,,*57
$PYRTM,2024,125.753788460069,16.863435870220
$GPGGA,180526.00,3500.7089,N,12208.3352,W,1,09,0.8,10.4,M,-33.3,M,,*62
$PYRTM,2024,125.753800047396,16.863447457535
$GPGGA,180527.00,3500.7061,N,12208.3348,W,1,09,0.8,10.8,M,-33.3,M,,*62
$PYRTM,2024,125.753811506701,16.863458916840
$GPGGA,180528.00,3500.7034,N,12208.3348,W,1,09,0.8,8.0,M,-33.3,M,,*5C
$PYRTM,2024,125.753823080359,16.863470490509
$GPGGA,180529.00,3500.7008,N,12208.3346,W,1,09,0.8,3.8,M,-33.3,M,,*5F
$PYRTM,2024,125.753834657037,16.863482067176
$GPGGA,180530.00,3500.6982,N,12208.3342,W,1,09,0.8,2.6,M,-33.3,M,,*56
$PYRTM,2024,125.753850498102,16.863497908252
$GPGGA,180531.00,3500.6957,N,12208.3335,W,1,09,0.8,4.0,M,-33.3,M,,*5F
$PYRTM,2024,125.753862085359,16.863509495498
$GPGGA,180532.00,3500.6932,N,12208.3327,W,1,09,0.8,7.1,M,-33.3,M,,*5E
$PYRTM,2024,125.753873646343,16.863521056481
$GPGGA,180533.00,3500.6906,N,12208.3325,W,1,09,0.8,7.3,M,-33.3,M,,*58
$PYRTM,2024,125.753885233773,16.863532643912
$GPGGA,180534.00,3500.6879,N,12208.3325,W,1,09,0.8,8.3,M,-33.3,M,,*59
$PYRTM,2024,125.753896807373,16.863544217512
$GPGGA,180535.00,3500.6853,N,12208.3323,W,1,09,0.8,6.8,M,-33.3,M,,*53
$PYRTM,2024,125.753908381377,16.863555791516
$GPGGA,180536.00,3500.6826,N,12208.3316,W,1,09,0.8,9.4,M,-33.3,M,,*57
$PYRTM,2024,125.753919955741,16.863567365880
$GPGGA,180537.00,3500.6798,N,12208.3306,W,1,09,0.8,7.9,M,-33.3,M,,*5E
$PYRTM,2024,125.753931544792,16.863578954931
$GPGGA,180538.00,3500.6771,N,12208.3301,W,1,09,0.8,7.7,M,-33.3,M,,*5F
$PYRTM,2024,125.753943103553,16.863590513692
$GPGGA,180539.00,3500.6744,N,12208.3299,W,1,09,0.8,6.3,M,-33.3,M,,*5D
$PYRTM,2024,125.753955025405,16.863602435544
$GPGGA,180540.00,3500.6718,N,12208.3297,W,1,09,0.8,7.5,M,-33.3,M,,*53
$PYRTM,2024,125.753966252350,16.863613662488
$GPGGA,180541.00,3500.6691,N,12208.3292,W,1,09,0.8,9.1,M,-33.3,M,,*5D
$PYRTM,2024,125.753977829745,16.863625239884
$GPGGA,180542.00,3500.6665,N,12208.3286,W,1,09,0.8,8.3,M,-33.3,M,,*53
$PYRTM,2024,125.753989401759,16.863636811898
$GPGGA,180543.00,3500.6638,N,12208.3284,W,1,09,0.8,7.7,M,-33.3,M,,*53
$PYRTM,2024,125.754000977245,16.863648387384
$GPGGA,180544.00,3500.6611,N,12208.3286,W,1,09,0.8,7.4,M,-33.3,M,,*5E
$PYRTM,2024,125.754012549456,16.863659959595
$GPGGA,180545.00,3500.6584,N,12208.3286,W,1,09,0.8,9.3,M,-33.3,M,,*59
$PYRTM,2024,125.754024123484,16.863671533634
$GPGGA,180546.00,3500.6557,N,12208.3282,W,1,09,0.8,10.3,M,-33.3,M,,*68
$PYRTM,2024,125.754035699039,16.863683109178
$GPGGA,180547.00,3500.6531,N,12208.3274,W,1,09,0.8,11.1,M,-33.3,M,,*63
$PYRTM,2024,125.754047272072,16.863694682211
$GPGGA,180548.00,3500.6504,N,12208.3270,W,1,09,0.8,8.0,M,-33.3,M,,*57
$PYRTM,2024,125.754058846840,16.863706256979
$GPGGA,180549.00,3500.6478,N,12208.3270,W,1,09,0.8,8.3,M,-33.3,M,,*5F
$PYRTM,2024,125.754070419838,16.863717829977
$GPGGA,180550.00,3500.6450,N,12208.3273,W,1,09,0.8,5.5,M,-33.3,M,,*55
$PYRTM,2024,125.754081996296,16.863729406435
$GPGGA,180551.00,3500.6423,N,12208.3272,W,1,09,0.8,3.7,M,-33.3,M,,*55
$PYRTM,2024,125.754093569028,16.863740979167
$GPGGA,180552.00,3500.6397,N,12208.3266,W,1,09,0.8,5.1,M,-33.3,M,,*5B
$PYRTM,2024,125.754105141910,16.863752552060
$GPGGA,180553.00,3500.6371,N,12208.3261,W,1,09,0.8,4.2,M,-33.3,M,,*57
$PYRTM,2024,125.754116730104,16.863764140243
$GPGGA,180554.00,3500.6344,N,12208.3256,W,1,09,0.8,4.9,M,-33.3,M,,*59
$PYRTM,2024,125.754128289919,16.863775700058
$GPGGA,180555.00,3500.6318,N,12208.3253,W,1,09,0.8,5.7,M,-33.3,M,,*5B
$PYRTM,2024,125.754139867396,16.863787277546
$GPGGA,180556.00,3500.6291,N,12208.3251,W,1,09,0.8,5.0,M,-33.3,M,,*5D
$PYRTM,2024,125.754151433009,16.863798843160
$GPGGA,180557.00,3500.6264,N,12208.3249,W,1,09,0.8,6.2,M,-33.3,M,,*5E
$PYRTM,2024,125.754163013032,16.863810423171
$GPGGA,180558.00,3500.6239,N,12208.3244,W,1,09,0.8,6.1,M,-33.3,M,,*57
$PYRTM,2024,125.754174587141,16.863821997292
$GPGGA,180559.00,3500.6216,N,12208.3235,W,1,09,0.8,5.6,M,-33.3,M,,*59
$PYRTM,2024,125.754187202373,16.863834612512
$GPGGA,180600.00,3500.6192,N,12208.3229,W,1,09,0.8,7.7,M,-33.3,M,,*57
$PYRTM,2024,125.754198763310,16.863846173449
$GPGGA,180601.00,3500.6165,N,12208.3225,W,1,09,0.8,6.9,M,-33.3,M,,*5D
$PYRTM,2024,125.754210351157,16.863857761296
$GPGGA,180602.00,3500.6137,N,12208.3223,W,1,09,0.8,8.1,M,-33.3,M,,*59
$PYRTM,2024,125.754221911053,16.863869321192
$GPGGA,180603.00,3500.6108,N,12208.3223,W,1,09,0.8,6.1,M,-33.3,M,,*5A
$PYRTM,2024,125.754233499676,16.863880909815
$GPGGA,180604.00,3500.6082,N,12208.3219,W,1,09,0.8,6.2,M,-33.3,M,,*54
$PYRTM,2024,125.754245060637,16.863892470775
$GPGGA,180605.00,3500.6059,N,12208.3211,W,1,09,0.8,6.6,M,-33.3,M,,*5F
$PYRTM,2024,125.754256643472,16.863904053611
$GPGGA,180606.00,3500.6034,N,12208.3206,W,1,09,0.8,7.6,M,-33.3,M,,*50
$PYRTM,2024,125.754268209711,16.863915619850
$GPGGA,180607.00,3500.6008,N,12208.3204,W,1,09,0.8,6.1,M,-33.3,M,,*5A
$PYRTM,2024,125.754279798738,16.863927208877
$GPGGA,180608.00,3500.5982,N,12208.3205,W,1,09,0.8,5.0,M,-33.3,M,,*5E
$PYRTM,2024,125.754291359039,16.863938769178
$GPGGA,180609.00,3500.5956,N,12208.3204,W,1,09,0.8,8.0,M,-33.3,M,,*5A
$PYRTM,2024,125.754302947523,16.863950357662
$GPGGA,180610.00,3500.5928,N,12208.3201,W,1,09,0.8,8.4,M,-33.3,M,,*5A
$PYRTM,2024,125.754314504965,16.863961915116
$GPGGA,180611.00,3500.5900,N,12208.3196,W,1,09,0.8,7.2,M,-33.3,M,,*55
$PYRTM,2024,125.754326543530,16.863973953669
$GPGGA,180612.00,3500.5872,N,12208.3193,W,1,09,0.8,9.1,M,-33.3,M,,*5A
$PYRTM,2024,125.754337654155,16.863985064294
$GPGGA,180613.00,3500.5845,N,12208.3190,W,1,09,0.8,9.2,M,-33.3,M,,*5F
$PYRTM,2024,125.754349243125,16.863996653275
$GPGGA,180614.00,3500.5819,N,12208.3187,W,1,09,0.8,10.0,M,-33.3,M,,*6D
$PYRTM,2024,125.754360802789,16.864008212928
$GPGGA,180615.00,3500.5791,N,12208.3183,W,1,09,0.8,9.6,M,-33.3,M,,*59
$PYRTM,2024,125.754372389838,16.864019799977
$GPGGA,180616.00,3500.5764,N,12208.3181,W,1,09,0.8,8.4,M,-33.3,M,,*51
$PYRTM,2024,125.754383950127,16.864031360266
$GPGGA,180617.00,3500.5737,N,12208.3179,W,1,09,0.8,6.2,M,-33.3,M,,*59
$PYRTM,2024,125.754395533576,16.864042943727
$GPGGA,180618.00,3500.5712,N,12208.3175,W,1,09,0.8,6.8,M,-33.3,M,,*57
$PYRTM,2024,125.754407099155,16.864054509306
$GPGGA,180619.00,3500.5687,N,12208.3168,W,1,09,0.8,7.3,M,-33.3,M,,*5D
$PYRTM,2024,125.754418687025,16.864066097164
$GPGGA,180620.00,3500.5658,N,12208.3164,W,1,09,0.8,7.2,M,-33.3,M,,*58
$PYRTM,2024,125.754430246782,16.864077656921
$GPGGA,180621.00,3500.5630,N,12208.3165,W,1,09,0.8,6.1,M,-33.3,M,,*54
$PYRTM,2024,125.754441828391,16.864089238542
$GPGGA,180622.00,3500.5603,N,12208.3164,W,1,09,0.8,5.7,M,-33.3,M,,*53
$PYRTM,2024,125.754453394537,16.864100804676
$GPGGA,180623.00,3500.5578,N,12208.3158,W,1,09,0.8,7.2,M,-33.3,M,,*55
$PYRTM,2024,125.754464984769,16.864112394907
$GPGGA,180624.00,3500.5551,N,12208.3148,W,1,09,0.8,9.6,M,-33.3,M,,*52
$PYRTM,2024,125.754476543785,16.864123953924
$GPGGA,180625.00,3500.5523,N,12208.3143,W,1,09,0.8,8.6,M,-33.3,M,,*5C
$PYRTM,2024,125.754488129780,16.864135539919
$GPGGA,180626.00,3500.5495,N,12208.3144,W,1,09,0.8,8.0,M,-33.3,M,,*52
$PYRTM,2024,125.754499692963,16.864147103102
$GPGGA,180627.00,3500.5468,N,12208.3145,W,1,09,0.8,6.3,M,-33.3,M,,*5D
$PYRTM,2024,125.754511278252,16.864158688403
$GPGGA,180628.00,3500.5442,N,12208.3140,W,1,09,0.8,6.8,M,-33.3,M,,*54
$PYRTM,2024,125.754522841100,16.864170251238
$GPGGA,180629.00,3500.5417,N,12208.3133,W,1,09,0.8,7.3,M,-33.3,M,,*5B
$PYRTM,2024,125.754535919537,16.864183329676
$GPGGA,180630.00,3500.5391,N,12208.3128,W,1,09,0.8,8.3,M,-33.3,M,,*5F
$PYRTM,2024,125.754548203241,16.864195613391
$GPGGA,180631.00,3500.5365,N,12208.3126,W,1,09,0.8,9.9,M,-33.3,M,,*50
$PYRTM,2024,125.754557576528,16.864204986667
$GPGGA,180632.00,3500.5337,N,12208.3126,W,1,09,0.8,10.7,M,-33.3,M,,*62
$PYRTM,2024,125.754569137037,16.864216547176
$GPGGA,180633.00,3500.5311,N,12208.3123,W,1,09,0.8,9.3,M,-33.3,M,,*5E
$PYRTM,2024,125.754580722905,16.864228133044
$GPGGA,180634.00,3500.5284,N,12208.3118,W,1,09,0.8,9.6,M,-33.3,M,,*59
$PYRTM,2024,125.754592285961,16.864239696100
$GPGGA,180635.00,3500.5255,N,12208.3114,W,1,09,0.8,10.8,M,-33.3,M,,*6E
$PYRTM,2024,125.754603866354,16.864251276493
$GPGGA,180636.00,3500.5226,N,12208.3111,W,1,09,0.8,10.0,M,-33.3,M,,*64
$PYRTM,2024,125.754615433137,16.864262843275
$GPGGA,180637.00,3500.5199,N,12208.3108,W,1,09,0.8,8.5,M,-33.3,M,,*56
$PYRTM,2024,125.754627022720,16.864274432859
$GPGGA,180638.00,3500.5174,N,12208.3102,W,1,09,0.8,10.0,M,-33.3,M,,*6C
$PYRTM,2024,125.754638581493,16.864285991644
$GPGGA,180639.00,3500.5147,N,12208.3095,W,1,09,0.8,7.9,M,-33.3,M,,*5D
$PYRTM,2024,125.754650171019,16.864297581157
$GPGGA,180640.00,3500.5121,N,12208.3092,W,1,09,0.8,6.9,M,-33.3,M,,*55
$PYRTM,2024,125.754661730718,16.864309140856
$GPGGA,180641.00,3500.5097,N,12208.3091,W,1,09,0.8,7.2,M,-33.3,M,,*51
$PYRTM,2024,125.754673767407,16.864321177546
$GPGGA,180642.00,3500.5073,N,12208.3089,W,1,09,0.8,7.1,M,-33.3,M,,*52
$PYRTM,2024,125.754684876782,16.864332286921
$GPGGA,180643.00,3500.5047,N,12208.3086,W,1,09,0.8,7.1,M,-33.3,M,,*5B
$PYRTM,2024,125.754696465266,16.864343875405
$GPGGA,180644.00,3500.5020,N,12208.3083,W,1,09,0.8,9.6,M,-33.3,M,,*51
$PYRTM,2024,125.754708026146,16.864355436285
$GPGGA,180645.00,3500.4992,N,12208.3081,W,1,09,0.8,9.7,M,-33.3,M,,*52
$PYRTM,2024,125.754719613623,16.864367023762
$GPGGA,180646.00,3500.4964,N,12208.3076,W,1,09,0.8,11.6,M,-33.3,M,,*68
$PYRTM,2024,125.754731174653,16.864378584792
$GPGGA,180647.00,3500.4936,N,12208.3069,W,1,09,0.8,9.8,M,-33.3,M,,*57
$PYRTM,2024,125.754742761296,16.864390171435
$GPGGA,180648.00,3500.4909,N,12208.3061,W,1,09,0.8,12.7,M,-33.3,M,,*69
$PYRTM,2024,125.754754322280,16.864401732419
$GPGGA,180649.00,3500.4882,N,12208.3056,W,1,09,0.8,9.2,M,-33.3,M,,*51
$PYRTM,2024,125.754765910475,16.864413320613
$GPGGA,180650.00,3500.4857,N,12208.3052,W,1,09,0.8,6.5,M,-33.3,M,,*5D
$PYRTM,2024,125.754777469502,16.864424879641
$GPGGA,180651.00,3500.4834,N,12208.3050,W,1,09,0.8,5.0,M,-33.3,M,,*5D
$PYRTM,2024,125.754789071227,16.864436481366
$GPGGA,180652.00,3500.4810,N,12208.3046,W,1,09,0.8,4.8,M,-33.3,M,,*56
$PYRTM,2024,125.754800619051,16.864448029190
$GPGGA,180653.00,3500.4785,N,12208.3042,W,1,09,0.8,4.7,M,-33.3,M,,*5F
$PYRTM,2024,125.754812208692,16.864459618831
$GPGGA,180654.00,3500.4758,N,12208.3040,W,1,09,0.8,3.5,M,-33.3,M,,*5F
$PYRTM,2024,125.754823767118,16.864471177257
$GPGGA,180655.00,3500.4730,N,12208.3039,W,1,09,0.8,7.6,M,-33.3,M,,*59
$PYRTM,2024,125.754835354120,16.864482764259
$GPGGA,180656.00,3500.4704,N,12208.3038,W,1,09,0.8,7.9,M,-33.3,M,,*53
$PYRTM,2024,125.754846915208,16.864494325347
$GPGGA,180657.00,3500.4677,N,12208.3032,W,1,09,0.8,5.8,M,-33.3,M,,*5E
$PYRTM,2024,125.754858502245,16.864505912384
$GPGGA,180658.00,3500.4649,N,12208.3028,W,1,09,0.8,7.1,M,-33.3,M,,*5C
$PYRTM,2024,125.754870063391,16.864517473530
$GPGGA,180659.00,3500.4621,N,12208.3026,W,1,09,0.8,6.3,M,-33.3,M,,*5E
$PYRTM,2024,125.754882796516,16.864530206655
$GPGGA,180700.00,3500.4595,N,12208.3024,W,1,09,0.8,8.6,M,-33.3,M,,*56
$PYRTM,2024,125.754895426840,16.864542836979
$GPGGA,180701.00,3500.4569,N,12208.3021,W,1,09,0.8,8.9,M,-33.3,M,,*5E
$PYRTM,2024,125.754904800220,16.864552210359
$GPGGA,180702.00,3500.4543,N,12208.3018,W,1,09,0.8,8.1,M,-33.3,M,,*57
$PYRTM,2024,125.754916361157,16.864563771308
$GPGGA,180703.00,3500.4517,N,12208.3015,W,1,09,0.8,8.1,M,-33.3,M,,*5A
$PYRTM,2024,125.754927948576,16.864575358727
$GPGGA,180704.00,3500.4491,N,12208.3013,W,1,09,0.8,7.7,M,-33.3,M,,*5D
$PYRTM,2024,125.754939509815,16.864586919965
$GPGGA,180705.00,3500.4464,N,12208.3009,W,1,09,0.8,11.5,M,-33.3,M,,*68
$PYRTM,2024,125.754951099630,16.864598509769
$GPGGA,180706.00,3500.4437,N,12208.3005,W,1,09,0.8,10.5,M,-33.3,M,,*60
$PYRTM,2024,125.754961731910,16.864609142049
$GPGGA,180707.00,3500.4411,N,12208.3002,W,1,09,0.8,10.4,M,-33.3,M,,*63
$PYRTM,2024,125.754974812569,16.864622222708
$GPGGA,180708.00,3500.4383,N,12208.2999,W,1,09,0.8,9.2,M,-33.3,M,,*54
$PYRTM,2024,125.754985587326,16.864632997465
$GPGGA,180709.00,3500.4356,N,12208.2994,W,1,09,0.8,8.0,M,-33.3,M,,*53
$PYRTM,2024,125.754996699745,16.864644109884
$GPGGA,180710.00,3500.4329,N,12208.2987,W,1,09,0.8,7.7,M,-33.3,M,,*59
$PYRTM,2024,125.755007808900,16.864655219039
$GPGGA,180711.00,3500.4302,N,12208.2981,W,1,09,0.8,7.6,M,-33.3,M,,*56
$PYRTM,2024,125.755019368681,16.864666778831
$GPGGA,180712.00,3500.4275,N,12208.2977,W,1,09,0.8,9.3,M,-33.3,M,,*56
$PYRTM,2024,125.755030479988,16.864677890127
$GPGGA,180713.00,3500.4249,N,12208.2976,W,1,09,0.8,9.9,M,-33.3,M,,*53
$PYRTM,2024,125.755041592616,16.864689002755
$GPGGA,180714.00,3500.4223,N,12208.2977,W,1,09,0.8,9.2,M,-33.3,M,,*52
$PYRTM,2024,125.755052702870,16.864700113009
$GPGGA,180715.00,3500.4197,N,12208.2974,W,1,09,0.8,9.1,M,-33.3,M,,*5F
$PYRTM,2024,125.755063813634,16.864711223773
$GPGGA,180716.00,3500.4171,N,12208.2969,W,1,09,0.8,10.9,M,-33.3,M,,*68
$PYRTM,2024,125.755074926690,16.864722336829
$GPGGA,180717.00,3500.4146,N,12208.2963,W,1,09,0.8,11.8,M,-33.3,M,,*67
$PYRTM,2024,125.755086035833,16.864733445972
$GPGGA,180718.00,3500.4122,N,12208.2960,W,1,09,0.8,11.7,M,-33.3,M,,*66
$PYRTM,2024,125.755097278287,16.864744688426
$GPGGA,180719.00,3500.4097,N,12208.2958,W,1,09,0.8,10.2,M,-33.3,M,,*67
$PYRTM,2024,125.755108392014,16.864755802153
$GPGGA,180720.00,3500.4071,N,12208.2957,W,1,09,0.8,8.2,M,-33.3,M,,*53
$PYRTM,2024,125.755119845706,16.864767255845
$GPGGA,180721.00,3500.4045,N,12208.2953,W,1,09,0.8,8.9,M,-33.3,M,,*5A
$PYRTM,2024,125.755131073507,16.864778483646
$GPGGA,180722.00,3500.4019,N,12208.2946,W,1,09,0.8,8.5,M,-33.3,M,,*58
$PYRTM,2024,125.755142519942,16.864789930081
$GPGGA,180723.00,3500.3992,N,12208.2941,W,1,09,0.8,10.9,M,-33.3,M,,*66
$PYRTM,2024,125.755154107500,16.864801517639
$GPGGA,180724.00,3500.3963,N,12208.2939,W,1,09,0.8,10.6,M,-33.3,M,,*6F
$PYRTM,2024,125.755165668113,16.864813078252
$GPGGA,180725.00,3500.3935,N,12208.2939,W,1,09,0.8,9.9,M,-33.3,M,,*5A
$PYRTM,2024,125.755177254132,16.864824664271
$GPGGA,180726.00,3500.3909,N,12208.2936,W,1,09,0.8,11.4,M,-33.3,M,,*6D
$PYRTM,2024,125.755188815937,16.864836226076
$GPGGA,180727.00,3500.3881,N,12208.2931,W,1,09,0.8,9.8,M,-33.3,M,,*5F
$PYRTM,2024,125.755200404352,16.864847814491
$GPGGA,180728.00,3500.3854,N,12208.2927,W,1,09,0.8,8.0,M,-33.3,M,,*56
$PYRTM,2024,125.755211962315,16.864859372465
$GPGGA,180729.00,3500.3829,N,12208.2924,W,1,09,0.8,6.5,M,-33.3,M,,*55
$PYRTM,2024,125.755223550012,16.864870960150
$GPGGA,180730.00,3500.3803,N,12208.2923,W,1,09,0.8,5.6,M,-33.3,M,,*52
$PYRTM,2024,125.755239408009,16.864886818160
$GPGGA,180731.00,3500.3777,N,12208.2920,W,1,09,0.8,8.2,M,-33.3,M,,*55
$PYRTM,2024,125.755250981204,16.864898391343
$GPGGA,180732.00,3500.3751,N,12208.2917,W,1,09,0.8,8.8,M,-33.3,M,,*5C
$PYRTM,2024,125.755262555903,16.864909966042
$GPGGA,180733.00,3500.3725,N,12208.2913,W,1,09,0.8,9.6,M,-33.3,M,,*55
$PYRTM,2024,125.755274133137,16.864921543275
$GPGGA,180734.00,3500.3697,N,12208.2910,W,1,09,0.8,7.0,M,-33.3,M,,*51
$PYRTM,2024,125.755285703287,16.864933113426
$GPGGA,180735.00,3500.3669,N,12208.2908,W,1,09,0.8,6.1,M,-33.3,M,,*58
$PYRTM,2024,125.755297292801,16.864944702940
$GPGGA,180736.00,3500.3641,N,12208.2907,W,1,09,0.8,7.9,M,-33.3,M,,*57
$PYRTM,2024,125.755308851030,16.864956261169
$GPGGA,180737.00,3500.3614,N,12208.2901,W,1,09,0.8,10.4,M,-33.3,M,,*6B
$PYRTM,2024,125.755320428889,16.864967839028
$GPGGA,180738.00,3500.3588,N,12208.2896,W,1,09,0.8,10.2,M,-33.3,M,,*6B
$PYRTM,2024,125.755332000602,16.864979410741
$GPGGA,180739.00,3500.3561,N,12208.2892,W,1,09,0.8,10.9,M,-33.3,M,,*62
$PYRTM,2024,125.755343575799,16.864990985949
$GPGGA,180740.00,3500.3535,N,12208.2891,W,1,09,0.8,7.8,M,-33.3,M,,*59
$PYRTM,2024,125.755355148634,16.865002558773
$GPGGA,180741.00,3500.3510,N,12208.2889,W,1,09,0.8,4.9,M,-33.3,M,,*54
$PYRTM,2024,125.755366723692,16.865014133843
$GPGGA,180742.00,3500.3486,N,12208.2883,W,1,09,0.8,4.6,M,-33.3,M,,*5C
$PYRTM,2024,125.755378292303,16.865025702454
$GPGGA,180743.00,3500.3462,N,12208.2873,W,1,09,0.8,3.5,M,-33.3,M,,*5C
$PYRTM,2024,125.755389868380,16.865037278519
$GPGGA,180744.00,3500.3436,N,12208.2869,W,1,09,0.8,5.3,M,-33.3,M,,*51
$PYRTM,2024,125.755401445613,16.865048855752
$GPGGA,180745.00,3500.3408,N,12208.2870,W,1,09,0.8,5.8,M,-33.3,M,,*5E
$PYRTM,2024,125.755413020752,16.865060430891
$GPGGA,180746.00,3500.3379,N,12208.2874,W,1,09,0.8,5.5,M,-33.3,M,,*55
$PYRTM,2024,125.755424594861,16.865072005000
$GPGGA,180747.00,3500.3351,N,12208.2872,W,1,09,0.8,6.0,M,-33.3,M,,*5E
$PYRTM,2024,125.755436171539,16.865083581678
$GPGGA,180748.00,3500.3324,N,12208.2862,W,1,09,0.8,7.7,M,-33.3,M,,*54
$PYRTM,2024,125.755447745046,16.865095155197
$GPGGA,180749.00,3500.3298,N,12208.2851,W,1,09,0.8,8.6,M,-33.3,M,,*5D
$PYRTM,2024,125.755459330266,16.865106740405
$GPGGA,180750.00,3500.3272,N,12208.2848,W,1,09,0.8,10.5,M,-33.3,M,,*63
$PYRTM,2024,125.755470884502,16.865118294653
$GPGGA,180751.00,3500.3246,N,12208.2850,W,1,09,0.8,7.6,M,-33.3,M,,*59
$PYRTM,2024,125.755482464398,16.865129874537
$GPGGA,180752.00,3500.3221,N,12208.2850,W,1,09,0.8,7.0,M,-33.3,M,,*5D
$PYRTM,2024,125.755494038403,16.865141448542
$GPGGA,180753.00,3500.3199,N,12208.2844,W,1,09,0.8,4.0,M,-33.3,M,,*5A
$PYRTM,2024,125.755505613056,16.865153023194
$GPGGA,180754.00,3500.3177,N,12208.2833,W,1,09,0.8,3.1,M,-33.3,M,,*5B
$PYRTM,2024,125.755517187060,16.865164597211
$GPGGA,180755.00,3500.3152,N,12208.2828,W,1,09,0.8,4.7,M,-33.3,M,,*56
$PYRTM,2024,125.755528761748,16.865176171898
$GPGGA,180756.00,3500.3124,N,12208.2829,W,1,09,0.8,4.6,M,-33.3,M,,*54
$PYRTM,2024,125.755540330278,16.865187740417
$GPGGA,180757.00,3500.3095,N,12208.2832,W,1,09,0.8,6.3,M,-33.3,M,,*53
$PYRTM,2024,125.755551909734,16.865199319873
$GPGGA,180758.00,3500.3068,N,12208.2827,W,1,09,0.8,5.7,M,-33.3,M,,*5D
$PYRTM,2024,125.755563482674,16.865210892812
$GPGGA,180759.00,3500.3043,N,12208.2816,W,1,09,0.8,7.0,M,-33.3,M,,*52
$PYRTM,2024,125.755576099456,16.865223509595
$GPGGA,180800.00,3500.3017,N,12208.2809,W,1,09,0.8,8.7,M,-33.3,M,,*56
$PYRTM,2024,125.755587662199,16.865235072338
$GPGGA,180801.00,3500.2990,N,12208.2807,W,1,09,0.8,9.6,M,-33.3,M,,*5E
$PYRTM,2024,125.755599242523,16.865246652662
$GPGGA,180802.00,3500.2964,N,12208.2811,W,1,09,0.8,9.8,M,-33.3,M,,*5F
$PYRTM,2024,125.755610808148,16.865258218287
$GPGGA,180803.00,3500.2941,N,12208.2809,W,1,09,0.8,7.8,M,-33.3,M,,*5E
$PYRTM,2024,125.755622399711,16.865269809850
$GPGGA,180804.00,3500.2919,N,12208.2804,W,1,09,0.8,6.8,M,-33.3,M,,*58
$PYRTM,2024,125.755633956319,16.865281366458
$GPGGA,180805.00,3500.2893,N,12208.2798,W,1,09,0.8,7.3,M,-33.3,M,,*5A
$PYRTM,2024,125.755645546655,16.865292956794
$GPGGA,180806.00,3500.2866,N,12208.2794,W,1,09,0.8,10.3,M,-33.3,M,,*69
$PYRTM,2024,125.755657106030,16.865304516169
$GPGGA,180807.00,3500.2839,N,12208.2793,W,1,09,0.8,11.0,M,-33.3,M,,*67
$PYRTM,2024,125.755668686782,16.865316096921
$GPGGA,180808.00,3500.2812,N,12208.2792,W,1,09,0.8,7.9,M,-33.3,M,,*5E
$PYRTM,2024,125.755680253310,16.865327663449
$GPGGA,180809.00,3500.2786,N,12208.2786,W,1,09,0.8,7.9,M,-33.3,M,,*58
$PYRTM,2024,125.755692292361,16.865339702500
$GPGGA,180810.00,3500.2762,N,12208.2776,W,1,09,0.8,7.4,M,-33.3,M,,*58
$PYRTM,2024,125.755703401887,16.865350812037
$GPGGA,180811.00,3500.2738,N,12208.2768,W,1,09,0.8,7.8,M,-33.3,M,,*55
$PYRTM,2024,125.755715439734,16.865362849884
$GPGGA,180812.00,3500.2713,N,12208.2767,W,1,09,0.8,6.9,M,-33.3,M,,*50
$PYRTM,2024,125.755726551505,16.865373961644
$GPGGA,180813.00,3500.2688,N,12208.2770,W,1,09,0.8,7.4,M,-33.3,M,,*58
$PYRTM,2024,125.755738137141,16.865385547280
$GPGGA,180814.00,3500.2663,N,12208.2768,W,1,09,0.8,11.4,M,-33.3,M,,*64
$PYRTM,2024,125.755749698437,16.865397108576
$GPGGA,180815.00,3500.2638,N,12208.2761,W,1,09,0.8,11.7,M,-33.3,M,,*61
$PYRTM,2024,125.755761281157,16.865408691296
$GPGGA,180816.00,3500.2613,N,12208.2753,W,1,09,0.8,13.3,M,-33.3,M,,*6C
$PYRTM,2024,125.755772846898,16.865420257037
$GPGGA,180817.00,3500.2587,N,12208.2748,W,1,09,0.8,11.5,M,-33.3,M,,*6D
$PYRTM,2024,125.755784436192,16.865431846331
$GPGGA,180818.00,3500.2560,N,12208.2747,W,1,09,0.8,11.6,M,-33.3,M,,*67
$PYRTM,2024,125.755795994201,16.865443404340
$GPGGA,180819.00,3500.2534,N,12208.2747,W,1,09,0.8,8.3,M,-33.3,M,,*5A
$PYRTM,2024,125.755807584780,16.865454994919
$GPGGA,180820.00,3500.2510,N,12208.2743,W,1,09,0.8,8.1,M,-33.3,M,,*50
$PYRTM,2024,125.755819144225,16.865466554363
$GPGGA,180821.00,3500.2485,N,12208.2735,W,1,09,0.8,8.9,M,-33.3,M,,*55
$PYRTM,2024,125.755830730891,16.865478141030
$GPGGA,180822.00,3500.2460,N,12208.2728,W,1,09,0.8,10.2,M,-33.3,M,,*63
$PYRTM,2024,125.755842292662,16.865489702801
$GPGGA,180823.00,3500.2434,N,12208.2724,W,1,09,0.8,9.4,M,-33.3,M,,*51
$PYRTM,2024,125.755853878495,16.865501288634
$GPGGA,180824.00,3500.2407,N,12208.2724,W,1,09,0.8,8.0,M,-33.3,M,,*53
$PYRTM,2024,125.755865440069,16.865512850208
$GPGGA,180825.00,3500.2381,N,12208.2722,W,1,09,0.8,6.1,M,-33.3,M,,*52
$PYRTM,2024,125.755877023194,16.865524433333
$GPGGA,180826.00,3500.2356,N,12208.2717,W,1,09,0.8,6.1,M,-33.3,M,,*5D
$PYRTM,2024,125.755888587998,16.865535998137
$GPGGA,180827.00,3500.2330,N,12208.2711,W,1,09,0.8,6.0,M,-33.3,M,,*5B
$PYRTM,2024,125.755900170845,16.865547580995
$GPGGA,180828.00,3500.2303,N,12208.2708,W,1,09,0.8,7.0,M,-33.3,M,,*5D
$PYRTM,2024,125.755911736366,16.865559146505
$GPGGA,180829.00,3500.2276,N,12208.2710,W,1,09,0.8,9.1,M,-33.3,M,,*59
$PYRTM,2024,125.755924468044,16.865571878183
$GPGGA,180830.00,3500.2251,N,12208.2710,W,1,09,0.8,11.7,M,-33.3,M,,*6B
$PYRTM,2024,125.755937084329,16.865584494468
$GPGGA,180831.00,3500.2225,N,12208.2704,W,1,09,0.8,12.0,M,-33.3,M,,*68
$PYRTM,2024,125.755946477130,16.865593887269
$GPGGA,180832.00,3500.2199,N,12208.2697,W,1,09,0.8,14.5,M,-33.3,M,,*67
$PYRTM,2024,125.755958031701,16.865605441840
$GPGGA,180833.00,3500.2172,N,12208.2693,W,1,09,0.8,13.5,M,-33.3,M,,*60
$PYRTM,2024,125.755969620220,16.865617030359
$GPGGA,180834.00,3500.2145,N,12208.2694,W,1,09,0.8,12.2,M,-33.3,M,,*62
$PYRTM,2024,125.755981181435,16.865628591574
$GPGGA,180835.00,3500.2119,N,12208.2695,W,1,09,0.8,11.2,M,-33.3,M,,*68
$PYRTM,2024,125.755992768264,16.865640178403
$GPGGA,180836.00,3500.2095,N,12208.2692,W,1,09,0.8,10.9,M,-33.3,M,,*63
$PYRTM,2024,125.756004329074,16.865651739213
$GPGGA,180837.00,3500.2070,N,12208.2683,W,1,09,0.8,9.9,M,-33.3,M,,*51
$PYRTM,2024,125.756015916400,16.865663326539
$GPGGA,180838.00,3500.2044,N,12208.2677,W,1,09,0.8,7.6,M,-33.3,M,,*53
$PYRTM,2024,125.756027478819,16.865674888958
$GPGGA,180839.00,3500.2018,N,12208.2678,W,1,09,0.8,6.4,M,-33.3,M,,*57
