$PYRTM,2024,124.333342194722,15.442989604861
$GPGGA,075959.00,3519.7875,N,12137.7591,W,1,09,0.8,13.6,M,-32.1,M,,*6E
$PYRTM,2024,124.333353754988,15.443001165127
$GPGGA,080000.00,3519.7885,N,12137.7596,W,1,09,0.8,14.3,M,-32.1,M,,*6B
$PYRTM,2024,124.333365338808,15.443012748947
$GPGGA,080001.00,3519.7892,N,12137.7598,W,1,09,0.8,17.2,M,-32.1,M,,*60
$PYRTM,2024,124.333376903310,15.443024313449
$GPGGA,080002.00,3519.7899,N,12137.7598,W,1,09,0.8,16.1,M,-32.1,M,,*6A
$PYRTM,2024,124.333388495671,15.443035905810
$GPGGA,080003.00,3519.7909,N,12137.7599,W,1,09,0.8,15.7,M,-32.1,M,,*67
$PYRTM,2024,124.333400052616,15.443047462755
$GPGGA,080004.00,3519.7919,N,12137.7602,W,1,09,0.8,13.8,M,-32.1,M,,*69
$PYRTM,2024,124.333412088021,15.443059498160
$GPGGA,080005.00,3519.7928,N,12137.7607,W,1,09,0.8,13.5,M,-32.1,M,,*62
$PYRTM,2024,124.333423201690,15.443070611829
$GPGGA,080006.00,3519.7936,N,12137.7613,W,1,09,0.8,13.8,M,-32.1,M,,*66
$PYRTM,2024,124.333434788692,15.443082198831
$GPGGA,080007.00,3519.7945,N,12137.7616,W,1,09,0.8,13.1,M,-32.1,M,,*6F
$PYRTM,2024,124.333446348009,15.443093758148
$GPGGA,080008.00,3519.7956,N,12137.7617,W,1,09,0.8,15.4,M,-32.1,M,,*60
$PYRTM,2024,124.333457940810,15.443105350961
$GPGGA,080009.00,3519.7964,N,12137.7619,W,1,09,0.8,18.7,M,-32.1,M,,*60
$PYRTM,2024,124.333469499236,15.443116909375
$GPGGA,080010.00,3519.7972,N,12137.7621,W,1,09,0.8,16.8,M,-32.1,M,,*65
$PYRTM,2024,124.333481079468,15.443128489618
$GPGGA,080011.00,3519.7982,N,12137.7627,W,1,09,0.8,16.6,M,-32.1,M,,*63
$PYRTM,2024,124.333492644294,15.443140054433
$GPGGA,080012.00,3519.7992,N,12137.7631,W,1,09,0.8,14.9,M,-32.1,M,,*6B
$PYRTM,2024,124.333504233854,15.443151643993
$GPGGA,080013.00,3519.8001,N,12137.7632,W,1,09,0.8,15.1,M,-32.1,M,,*6C
$PYRTM,2024,124.333515793530,15.443163203669
$GPGGA,080014.00,3519.8010,N,12137.7633,W,1,09,0.8,13.9,M,-32.1,M,,*64
$PYRTM,2024,124.333528526262,15.443175936400
$GPGGA,080015.00,3519.8017,N,12137.7637,W,1,09,0.8,16.1,M,-32.1,M,,*6B
$PYRTM,2024,124.333541142130,15.443188552269
$GPGGA,080016.00,3519.8026,N,12137.7640,W,1,09,0.8,14.7,M,-32.1,M,,*6E
$PYRTM,2024,124.333550529803,15.443197939942
$GPGGA,080017.00,3519.8038,N,12137.7643,W,1,09,0.8,16.7,M,-32.1,M,,*61
$PYRTM,2024,124.333562089502,15.443209499641
$GPGGA,080018.00,3519.8050,N,12137.7646,W,1,09,0.8,17.3,M,-32.1,M,,*60
$PYRTM,2024,124.333573678264,15.443221088403
$GPGGA,080019.00,3519.8057,N,12137.7650,W,1,09,0.8,16.6,M,-32.1,M,,*65
$PYRTM,2024,124.333585238611,15.443232648750
$GPGGA,080020.00,3519.8063,N,12137.7654,W,1,09,0.8,16.7,M,-32.1,M,,*6D
$PYRTM,2024,124.333596826134,15.443244236273
$GPGGA,080021.00,3519.8073,N,12137.7658,W,1,09,0.8,16.7,M,-32.1,M,,*61
$PYRTM,2024,124.333608387118,15.443255797257
$GPGGA,080022.00,3519.8084,N,12137.7662,W,1,09,0.8,18.4,M,-32.1,M,,*6E
$PYRTM,2024,124.333619974433,15.443267384572
$GPGGA,080023.00,3519.8094,N,12137.7664,W,1,09,0.8,18.0,M,-32.1,M,,*6C
$PYRTM,2024,124.333631534734,15.443278944884
$GPGGA,080024.00,3519.8101,N,12137.7666,W,1,09,0.8,17.3,M,-32.1,M,,*68
$PYRTM,2024,124.333643123681,15.443290533819
$GPGGA,080025.00,3519.8108,N,12137.7669,W,1,09,0.8,17.3,M,-32.1,M,,*6F
$PYRTM,2024,124.333654681979,15.443302092118
$GPGGA,080026.00,3519.8119,N,12137.7673,W,1,09,0.8,18.6,M,-32.1,M,,*6D
$PYRTM,2024,124.333666266806,15.443313676944
$GPGGA,080027.00,3519.8128,N,12137.7676,W,1,09,0.8,17.4,M,-32.1,M,,*66
$PYRTM,2024,124.333678308067,15.443325718206
$GPGGA,080028.00,3519.8135,N,12137.7677,W,1,09,0.8,19.0,M,-32.1,M,,*6E
$PYRTM,2024,124.333689420405,15.443336830556
$GPGGA,080029.00,3519.8144,N,12137.7679,W,1,09,0.8,18.0,M,-32.1,M,,*66
$PYRTM,2024,124.333700979340,15.443348389479
$GPGGA,080030.00,3519.8153,N,12137.7682,W,1,09,0.8,16.8,M,-32.1,M,,*6A
$PYRTM,2024,124.333712567685,15.443359977824
$GPGGA,080031.00,3519.8161,N,12137.7690,W,1,09,0.8,13.8,M,-32.1,M,,*6C
$PYRTM,2024,124.333724127604,15.443371537743
$GPGGA,080032.00,3519.8169,N,12137.7694,W,1,09,0.8,16.9,M,-32.1,M,,*67
$PYRTM,2024,124.333735715104,15.443383125243
$GPGGA,080033.00,3519.8180,N,12137.7695,W,1,09,0.8,16.3,M,-32.1,M,,*6A
$PYRTM,2024,124.333747276389,15.443394686528
$GPGGA,080034.00,3519.8192,N,12137.7693,W,1,09,0.8,14.6,M,-32.1,M,,*6F
$PYRTM,2024,124.333758863692,15.443406273831
$GPGGA,080035.00,3519.8201,N,12137.7694,W,1,09,0.8,13.9,M,-32.1,M,,*68
$PYRTM,2024,124.333770424016,15.443417834155
$GPGGA,080036.00,3519.8209,N,12137.7697,W,1,09,0.8,14.5,M,-32.1,M,,*6B
$PYRTM,2024,124.333782011481,15.443429421620
$GPGGA,080037.00,3519.8218,N,12137.7702,W,1,09,0.8,16.0,M,-32.1,M,,*60
$PYRTM,2024,124.333793570891,15.443440981030
$GPGGA,080038.00,3519.8228,N,12137.7705,W,1,09,0.8,16.6,M,-32.1,M,,*6D
$PYRTM,2024,124.333805160613,15.443452570752
$GPGGA,080039.00,3519.8238,N,12137.7705,W,1,09,0.8,16.2,M,-32.1,M,,*69
$PYRTM,2024,124.333816720150,15.443464130301
$GPGGA,080040.00,3519.8246,N,12137.7705,W,1,09,0.8,19.4,M,-32.1,M,,*67
$PYRTM,2024,124.333828304329,15.443475714468
$GPGGA,080041.00,3519.8255,N,12137.7708,W,1,09,0.8,17.3,M,-32.1,M,,*60
$PYRTM,2024,124.333839869456,15.443487279595
$GPGGA,080042.00,3519.8265,N,12137.7713,W,1,09,0.8,15.8,M,-32.1,M,,*63
$PYRTM,2024,124.333851452569,15.443498862708
$GPGGA,080043.00,3519.8275,N,12137.7718,W,1,09,0.8,16.1,M,-32.1,M,,*62
$PYRTM,2024,124.333863017187,15.443510427326
$GPGGA,080044.00,3519.8285,N,12137.7720,W,1,09,0.8,14.9,M,-32.1,M,,*6B
$PYRTM,2024,124.333875749282,15.443523159421
$GPGGA,080045.00,3519.8296,N,12137.7720,W,1,09,0.8,12.5,M,-32.1,M,,*62
$PYRTM,2024,124.333888366551,15.443535776690
$GPGGA,080046.00,3519.8305,N,12137.7721,W,1,09,0.8,13.1,M,-32.1,M,,*6E
$PYRTM,2024,124.333897754005,15.443545164144
$GPGGA,080047.00,3519.8313,N,12137.7726,W,1,09,0.8,15.7,M,-32.1,M,,*6F
$PYRTM,2024,124.333909314838,15.443556724977
$GPGGA,080048.00,3519.8321,N,12137.7731,W,1,09,0.8,13.8,M,-32.1,M,,*6E
$PYRTM,2024,124.333920900856,15.443568310995
$GPGGA,080049.00,3519.8332,N,12137.7733,W,1,09,0.8,14.3,M,-32.1,M,,*63
$PYRTM,2024,124.333932463484,15.443579873623
$GPGGA,080050.00,3519.8344,N,12137.7733,W,1,09,0.8,13.9,M,-32.1,M,,*67
$PYRTM,2024,124.333944050255,15.443591460394
$GPGGA,080051.00,3519.8353,N,12137.7735,W,1,09,0.8,13.0,M,-32.1,M,,*6F
$PYRTM,2024,124.333955610741,15.443603020880
$GPGGA,080052.00,3519.8359,N,12137.7739,W,1,09,0.8,13.0,M,-32.1,M,,*6A
$PYRTM,2024,124.333967197188,15.443614607326
$GPGGA,080053.00,3519.8368,N,12137.7743,W,1,09,0.8,17.1,M,-32.1,M,,*61
$PYRTM,2024,124.333978756609,15.443626166748
$GPGGA,080054.00,3519.8380,N,12137.7745,W,1,09,0.8,18.3,M,-32.1,M,,*6B
$PYRTM,2024,124.333990794792,15.443638204931
$GPGGA,080055.00,3519.8391,N,12137.7745,W,1,09,0.8,20.8,M,-32.1,M,,*6A
$PYRTM,2024,124.334001905440,15.443649315579
$GPGGA,080056.00,3519.8400,N,12137.7748,W,1,09,0.8,19.0,M,-32.1,M,,*69
$PYRTM,2024,124.334013493704,15.443660903843
$GPGGA,080057.00,3519.8409,N,12137.7754,W,1,09,0.8,15.9,M,-32.1,M,,*69
$PYRTM,2024,124.334025531586,15.443672941725
$GPGGA,080058.00,3519.8414,N,12137.7760,W,1,09,0.8,14.5,M,-32.1,M,,*60
$PYRTM,2024,124.334036638206,15.443684048345
$GPGGA,080059.00,3519.8422,N,12137.7762,W,1,09,0.8,17.1,M,-32.1,M,,*61
$PYRTM,2024,124.334048202650,15.443695612789
$GPGGA,080100.00,3519.8434,N,12137.7760,W,1,09,0.8,16.8,M,-32.1,M,,*61
$PYRTM,2024,124.334059787037,15.443707197176
$GPGGA,080101.00,3519.8447,N,12137.7760,W,1,09,0.8,15.8,M,-32.1,M,,*67
$PYRTM,2024,124.334071350255,15.443718760394
$GPGGA,080102.00,3519.8456,N,12137.7766,W,1,09,0.8,16.9,M,-32.1,M,,*60
$PYRTM,2024,124.334082938993,15.443730349132
$GPGGA,080103.00,3519.8461,N,12137.7772,W,1,09,0.8,16.4,M,-32.1,M,,*6D
$PYRTM,2024,124.334094499873,15.443741910012
$GPGGA,080104.00,3519.8467,N,12137.7771,W,1,09,0.8,18.1,M,-32.1,M,,*64
$PYRTM,2024,124.334106087731,15.443753497870
$GPGGA,080105.00,3519.8478,N,12137.7768,W,1,09,0.8,17.2,M,-32.1,M,,*6F
$PYRTM,2024,124.334117648843,15.443765058981
$GPGGA,080106.00,3519.8492,N,12137.7768,W,1,09,0.8,16.5,M,-32.1,M,,*6E
$PYRTM,2024,124.334129235799,15.443776645938
$GPGGA,080107.00,3519.8499,N,12137.7774,W,1,09,0.8,14.5,M,-32.1,M,,*6B
$PYRTM,2024,124.334140795648,15.443788205787
$GPGGA,080108.00,3519.8503,N,12137.7780,W,1,09,0.8,14.9,M,-32.1,M,,*61
$PYRTM,2024,124.334152384444,15.443799794583
$GPGGA,080109.00,3519.8509,N,12137.7781,W,1,09,0.8,15.6,M,-32.1,M,,*65
$PYRTM,2024,124.334163944803,15.443811354942
$GPGGA,080110.00,3519.8518,N,12137.7779,W,1,09,0.8,15.1,M,-32.1,M,,*6D
$PYRTM,2024,124.334175532546,15.443822942685
$GPGGA,080111.00,3519.8529,N,12137.7778,W,1,09,0.8,14.9,M,-32.1,M,,*66
$PYRTM,2024,124.334187094954,15.443834505093
$GPGGA,080112.00,3519.8539,N,12137.7780,W,1,09,0.8,13.5,M,-32.1,M,,*68
$PYRTM,2024,124.334198681852,15.443846091991
$GPGGA,080113.00,3519.8545,N,12137.7785,W,1,09,0.8,10.6,M,-32.1,M,,*67
$PYRTM,2024,124.334210240475,15.443857650613
$GPGGA,080114.00,3519.8552,N,12137.7790,W,1,09,0.8,12.3,M,-32.1,M,,*65
$PYRTM,2024,124.334222973264,15.443870383403
$GPGGA,080115.00,3519.8561,N,12137.7791,W,1,09,0.8,12.0,M,-32.1,M,,*66
$PYRTM,2024,124.334235590428,15.443883000567
$GPGGA,080116.00,3519.8570,N,12137.7791,W,1,09,0.8,12.9,M,-32.1,M,,*6C
$PYRTM,2024,124.334244051863,15.443891462002
$GPGGA,080117.00,3519.8577,N,12137.7788,W,1,09,0.8,14.2,M,-32.1,M,,*6F
$PYRTM,2024,124.334257129745,15.443904539884
$GPGGA,080118.00,3519.8585,N,12137.7787,W,1,09,0.8,15.2,M,-32.1,M,,*63
$PYRTM,2024,124.334267893924,15.443915304063
$GPGGA,080119.00,3519.8594,N,12137.7792,W,1,09,0.8,15.9,M,-32.1,M,,*6D
$PYRTM,2024,124.334279004803,15.443926414942
$GPGGA,080120.00,3519.8602,N,12137.7797,W,1,09,0.8,13.0,M,-32.1,M,,*61
$PYRTM,2024,124.334290116181,15.443937526319
$GPGGA,080121.00,3519.8607,N,12137.7799,W,1,09,0.8,15.6,M,-32.1,M,,*6B
$PYRTM,2024,124.334301231042,15.443948641181
$GPGGA,080122.00,3519.8615,N,12137.7799,W,1,09,0.8,15.2,M,-32.1,M,,*6F
$PYRTM,2024,124.334312352755,15.443959762894
$GPGGA,080123.00,3519.8627,N,12137.7801,W,1,09,0.8,14.1,M,-32.1,M,,*63
$PYRTM,2024,124.334323450243,15.443970860394
$GPGGA,080124.00,3519.8637,N,12137.7805,W,1,09,0.8,14.0,M,-32.1,M,,*60
$PYRTM,2024,124.334334575093,15.443981985231
$GPGGA,080125.00,3519.8643,N,12137.7808,W,1,09,0.8,13.9,M,-32.1,M,,*61
$PYRTM,2024,124.334345674062,15.443993084201
$GPGGA,080126.00,3519.8650,N,12137.7807,W,1,09,0.8,15.1,M,-32.1,M,,*61
$PYRTM,2024,124.334356783819,15.444004193958
$GPGGA,080127.00,3519.8659,N,12137.7804,W,1,09,0.8,17.8,M,-32.1,M,,*61
$PYRTM,2024,124.334367897616,15.444015307755
$GPGGA,080128.00,3519.8667,N,12137.7804,W,1,09,0.8,16.9,M,-32.1,M,,*63
$PYRTM,2024,124.334379455463,15.444026865602
$GPGGA,080129.00,3519.8672,N,12137.7805,W,1,09,0.8,15.9,M,-32.1,M,,*64
$PYRTM,2024,124.334394271458,15.444041681597
$GPGGA,080130.00,3519.8677,N,12137.7807,W,1,09,0.8,13.7,M,-32.1,M,,*63
$PYRTM,2024,124.334405382824,15.444052792963
$GPGGA,080131.00,3519.8685,N,12137.7807,W,1,09,0.8,16.9,M,-32.1,M,,*64
$PYRTM,2024,124.334416492338,15.444063902488
$GPGGA,080132.00,3519.8692,N,12137.7806,W,1,09,0.8,18.5,M,-32.1,M,,*62
$PYRTM,2024,124.334427604549,15.444075014687
$GPGGA,080133.00,3519.8698,N,12137.7807,W,1,09,0.8,19.9,M,-32.1,M,,*65
$PYRTM,2024,124.334438715012,15.444086125150
$GPGGA,080134.00,3519.8704,N,12137.7808,W,1,09,0.8,17.6,M,-32.1,M,,*68
$PYRTM,2024,124.334449826192,15.444097236343
$GPGGA,080135.00,3519.8712,N,12137.7807,W,1,09,0.8,15.8,M,-32.1,M,,*6D
$PYRTM,2024,124.334460937153,15.444108347292
$GPGGA,080136.00,3519.8721,N,12137.7807,W,1,09,0.8,15.6,M,-32.1,M,,*60
$PYRTM,2024,124.334472049942,15.444119460093
$GPGGA,080137.00,3519.8727,N,12137.7809,W,1,09,0.8,15.9,M,-32.1,M,,*66
$PYRTM,2024,124.334483160382,15.444130570532
$GPGGA,080138.00,3519.8734,N,12137.7812,W,1,09,0.8,13.7,M,-32.1,M,,*69
$PYRTM,2024,124.334494386354,15.444141796493
$GPGGA,080139.00,3519.8741,N,12137.7813,W,1,09,0.8,13.1,M,-32.1,M,,*6D
$PYRTM,2024,124.334505974051,15.444153384190
$GPGGA,080140.00,3519.8752,N,12137.7812,W,1,09,0.8,12.4,M,-32.1,M,,*64
$PYRTM,2024,124.334517534537,15.444164944676
$GPGGA,080141.00,3519.8762,N,12137.7813,W,1,09,0.8,14.3,M,-32.1,M,,*66
$PYRTM,2024,124.334529125972,15.444176536111
$GPGGA,080142.00,3519.8769,N,12137.7818,W,1,09,0.8,12.9,M,-32.1,M,,*69
$PYRTM,2024,124.334540683507,15.444188093657
$GPGGA,080143.00,3519.8777,N,12137.7819,W,1,09,0.8,10.8,M,-32.1,M,,*65
$PYRTM,2024,124.334552273611,15.444199683750
$GPGGA,080144.00,3519.8788,N,12137.7816,W,1,09,0.8,11.2,M,-32.1,M,,*66
$PYRTM,2024,124.334563831030,15.444211241169
$GPGGA,080145.00,3519.8800,N,12137.7815,W,1,09,0.8,11.1,M,-32.1,M,,*68
$PYRTM,2024,124.334579456701,15.444226866840
$GPGGA,080146.00,3519.8807,N,12137.7819,W,1,09,0.8,11.8,M,-32.1,M,,*69
$PYRTM,2024,124.334591160255,15.444238570394
$GPGGA,080147.00,3519.8813,N,12137.7826,W,1,09,0.8,10.6,M,-32.1,M,,*6E
$PYRTM,2024,124.334602720139,15.444250130278
$GPGGA,080148.00,3519.8821,N,12137.7828,W,1,09,0.8,9.1,M,-32.1,M,,*51
$PYRTM,2024,124.334614308125,15.444261718275
$GPGGA,080149.00,3519.8832,N,12137.7826,W,1,09,0.8,9.0,M,-32.1,M,,*5D
$PYRTM,2024,124.334625868044,15.444273278183
$GPGGA,080150.00,3519.8842,N,12137.7826,W,1,09,0.8,9.3,M,-32.1,M,,*51
$PYRTM,2024,124.334637459838,15.444284869988
$GPGGA,080151.00,3519.8847,N,12137.7827,W,1,09,0.8,9.5,M,-32.1,M,,*52
$PYRTM,2024,124.334649017963,15.444296428113
$GPGGA,080152.00,3519.8853,N,12137.7832,W,1,09,0.8,11.5,M,-32.1,M,,*69
$PYRTM,2024,124.334660607604,15.444308017743
$GPGGA,080153.00,3519.8862,N,12137.7836,W,1,09,0.8,11.8,M,-32.1,M,,*63
$PYRTM,2024,124.334672165498,15.444319575637
$GPGGA,080154.00,3519.8871,N,12137.7837,W,1,09,0.8,15.1,M,-32.1,M,,*6A
$PYRTM,2024,124.334683754039,15.444331164178
$GPGGA,080155.00,3519.8879,N,12137.7838,W,1,09,0.8,13.4,M,-32.1,M,,*6F
$PYRTM,2024,124.334695314120,15.444342724259
$GPGGA,080156.00,3519.8887,N,12137.7841,W,1,09,0.8,12.7,M,-32.1,M,,*61
$PYRTM,2024,124.334706901551,15.444354311690
$GPGGA,080157.00,3519.8896,N,12137.7845,W,1,09,0.8,13.0,M,-32.1,M,,*62
$PYRTM,2024,124.334718942373,15.444366352512
$GPGGA,080158.00,3519.8905,N,12137.7848,W,1,09,0.8,13.3,M,-32.1,M,,*68
$PYRTM,2024,124.334730049479,15.444377459630
$GPGGA,080159.00,3519.8912,N,12137.7849,W,1,09,0.8,13.6,M,-32.1,M,,*6B
$PYRTM,2024,124.334741609039,15.444389019178
$GPGGA,080200.00,3519.8920,N,12137.7849,W,1,09,0.8,16.5,M,-32.1,M,,*63
$PYRTM,2024,124.334753199583,15.444400609722
$GPGGA,080201.00,3519.8930,N,12137.7851,W,1,09,0.8,15.6,M,-32.1,M,,*6A
$PYRTM,2024,124.334764758345,15.444412168484
$GPGGA,080202.00,3519.8941,N,12137.7852,W,1,09,0.8,12.7,M,-32.1,M,,*6A
$PYRTM,2024,124.334776345046,15.444423755185
$GPGGA,080203.00,3519.8950,N,12137.7855,W,1,09,0.8,12.3,M,-32.1,M,,*68
$PYRTM,2024,124.334787906088,15.444435316227
$GPGGA,080204.00,3519.8955,N,12137.7859,W,1,09,0.8,15.2,M,-32.1,M,,*60
$PYRTM,2024,124.334799497326,15.444446907477
$GPGGA,080205.00,3519.8961,N,12137.7863,W,1,09,0.8,16.3,M,-32.1,M,,*6D
$PYRTM,2024,124.334811054398,15.444458464537
$GPGGA,080206.00,3519.8969,N,12137.7866,W,1,09,0.8,17.5,M,-32.1,M,,*64
$PYRTM,2024,124.334822644769,15.444470054907
$GPGGA,080207.00,3519.8978,N,12137.7866,W,1,09,0.8,15.9,M,-32.1,M,,*6B
$PYRTM,2024,124.334834202338,15.444481612477
$GPGGA,080208.00,3519.8988,N,12137.7867,W,1,09,0.8,16.4,M,-32.1,M,,*64
$PYRTM,2024,124.334845789954,15.444493200093
$GPGGA,080209.00,3519.8996,N,12137.7870,W,1,09,0.8,14.3,M,-32.1,M,,*69
$PYRTM,2024,124.334857350509,15.444504760648
$GPGGA,080210.00,3519.9001,N,12137.7875,W,1,09,0.8,14.0,M,-32.1,M,,*61
$PYRTM,2024,124.334868938715,15.444516348866
$GPGGA,080211.00,3519.9006,N,12137.7876,W,1,09,0.8,15.1,M,-32.1,M,,*64
$PYRTM,2024,124.334880499988,15.444527910127
$GPGGA,080212.00,3519.9016,N,12137.7874,W,1,09,0.8,14.1,M,-32.1,M,,*65
$PYRTM,2024,124.334892086921,15.444539497060
$GPGGA,080213.00,3519.9029,N,12137.7874,W,1,09,0.8,12.9,M,-32.1,M,,*66
$PYRTM,2024,124.334903647512,15.444551057650
$GPGGA,080214.00,3519.9039,N,12137.7876,W,1,09,0.8,13.7,M,-32.1,M,,*6D
$PYRTM,2024,124.334915235162,15.444562645301
$GPGGA,080215.00,3519.9044,N,12137.7880,W,1,09,0.8,13.6,M,-32.1,M,,*6E
$PYRTM,2024,124.334927836875,15.444575247014
$GPGGA,080216.00,3519.9049,N,12137.7883,W,1,09,0.8,16.9,M,-32.1,M,,*69
$PYRTM,2024,124.334939420498,15.444586830648
$GPGGA,080217.00,3519.9059,N,12137.7886,W,1,09,0.8,16.4,M,-32.1,M,,*61
$PYRTM,2024,124.334950987928,15.444598398079
$GPGGA,080218.00,3519.9070,N,12137.7889,W,1,09,0.8,16.1,M,-32.1,M,,*6F
$PYRTM,2024,124.334962568762,15.444609978912
$GPGGA,080219.00,3519.9079,N,12137.7893,W,1,09,0.8,16.0,M,-32.1,M,,*6D
$PYRTM,2024,124.334974132674,15.444621542812
$GPGGA,080220.00,3519.9084,N,12137.7898,W,1,09,0.8,14.1,M,-32.1,M,,*6D
$PYRTM,2024,124.334985716887,15.444633127025
$GPGGA,080221.00,3519.9089,N,12137.7901,W,1,09,0.8,14.7,M,-32.1,M,,*66
$PYRTM,2024,124.334997280532,15.444644690671
$GPGGA,080222.00,3519.9098,N,12137.7903,W,1,09,0.8,15.3,M,-32.1,M,,*62
$PYRTM,2024,124.335008869398,15.444656279537
$GPGGA,080223.00,3519.9109,N,12137.7906,W,1,09,0.8,15.3,M,-32.1,M,,*6F
$PYRTM,2024,124.335020428831,15.444667838981
$GPGGA,080224.00,3519.9117,N,12137.7911,W,1,09,0.8,15.1,M,-32.1,M,,*63
$PYRTM,2024,124.335032017049,15.444679427188
$GPGGA,080225.00,3519.9121,N,12137.7914,W,1,09,0.8,15.1,M,-32.1,M,,*62
$PYRTM,2024,124.335043578218,15.444690988356
$GPGGA,080226.00,3519.9128,N,12137.7913,W,1,09,0.8,16.3,M,-32.1,M,,*6E
$PYRTM,2024,124.335055165197,15.444702575336
$GPGGA,080227.00,3519.9137,N,12137.7911,W,1,09,0.8,17.7,M,-32.1,M,,*66
$PYRTM,2024,124.335067199595,15.444714609734
$GPGGA,080228.00,3519.9147,N,12137.7914,W,1,09,0.8,16.0,M,-32.1,M,,*6D
$PYRTM,2024,124.335078309491,15.444725719630
$GPGGA,080229.00,3519.9151,N,12137.7917,W,1,09,0.8,15.6,M,-32.1,M,,*6D
$PYRTM,2024,124.335089873808,15.444737283947
$GPGGA,080230.00,3519.9156,N,12137.7918,W,1,09,0.8,12.7,M,-32.1,M,,*6B
$PYRTM,2024,124.335101463044,15.444748873183
$GPGGA,080231.00,3519.9166,N,12137.7917,W,1,09,0.8,13.9,M,-32.1,M,,*69
$PYRTM,2024,124.335113022373,15.444760432512
$GPGGA,080232.00,3519.9176,N,12137.7916,W,1,09,0.8,10.9,M,-32.1,M,,*69
$PYRTM,2024,124.335124610694,15.444772020833
$GPGGA,080233.00,3519.9182,N,12137.7917,W,1,09,0.8,10.6,M,-32.1,M,,*6D
$PYRTM,2024,124.335136170475,15.444783580613
$GPGGA,080234.00,3519.9187,N,12137.7921,W,1,09,0.8,15.5,M,-32.1,M,,*6C
$PYRTM,2024,124.335147754595,15.444795164734
$GPGGA,080235.00,3519.9194,N,12137.7926,W,1,09,0.8,17.9,M,-32.1,M,,*66
$PYRTM,2024,124.335159321586,15.444806731725
$GPGGA,080236.00,3519.9203,N,12137.7930,W,1,09,0.8,13.7,M,-32.1,M,,*65
$PYRTM,2024,124.335170907234,15.444818317373
$GPGGA,080237.00,3519.9211,N,12137.7930,W,1,09,0.8,16.1,M,-32.1,M,,*64
$PYRTM,2024,124.335182467766,15.444829877905
$GPGGA,080238.00,3519.9218,N,12137.7928,W,1,09,0.8,15.4,M,-32.1,M,,*6D
$PYRTM,2024,124.335194056319,15.444841466458
$GPGGA,080239.00,3519.9225,N,12137.7928,W,1,09,0.8,16.8,M,-32.1,M,,*6D
$PYRTM,2024,124.335205615764,15.444853025903
$GPGGA,080240.00,3519.9232,N,12137.7933,W,1,09,0.8,14.7,M,-32.1,M,,*62
$PYRTM,2024,124.335217191655,15.444864601794
$GPGGA,080241.00,3519.9239,N,12137.7941,W,1,09,0.8,12.5,M,-32.1,M,,*69
$PYRTM,2024,124.335228764028,15.444876174167
$GPGGA,080242.00,3519.9246,N,12137.7943,W,1,09,0.8,11.6,M,-32.1,M,,*60
$PYRTM,2024,124.335240353021,15.444887763160
$GPGGA,080243.00,3519.9254,N,12137.7941,W,1,09,0.8,13.6,M,-32.1,M,,*62
$PYRTM,2024,124.335251912049,15.444899322188
$GPGGA,080244.00,3519.9261,N,12137.7940,W,1,09,0.8,12.5,M,-32.1,M,,*60
$PYRTM,2024,124.335263499734,15.444910909884
$GPGGA,080245.00,3519.9266,N,12137.7945,W,1,09,0.8,12.4,M,-32.1,M,,*62
$PYRTM,2024,124.335273801806,15.444921211944
$GPGGA,080246.00,3519.9272,N,12137.7950,W,1,09,0.8,11.9,M,-32.1,M,,*6E
$PYRTM,2024,124.335285610382,15.444933020532
$GPGGA,080247.00,3519.9282,N,12137.7951,W,1,09,0.8,15.4,M,-32.1,M,,*68
$PYRTM,2024,124.335298209907,15.444945620046
$GPGGA,080248.00,3519.9292,N,12137.7952,W,1,09,0.8,13.2,M,-32.1,M,,*65
$PYRTM,2024,124.335309795938,15.444957206076
$GPGGA,080249.00,3519.9300,N,12137.7954,W,1,09,0.8,13.3,M,-32.1,M,,*69
$PYRTM,2024,124.335321358264,15.444968768403
$GPGGA,080250.00,3519.9304,N,12137.7958,W,1,09,0.8,15.5,M,-32.1,M,,*69
$PYRTM,2024,124.335332945602,15.444980355741
$GPGGA,080251.00,3519.9310,N,12137.7962,W,1,09,0.8,15.0,M,-32.1,M,,*61
$PYRTM,2024,124.335344505810,15.444991915949
$GPGGA,080252.00,3519.9319,N,12137.7965,W,1,09,0.8,16.7,M,-32.1,M,,*68
$PYRTM,2024,124.335356093519,15.445003503657
$GPGGA,080253.00,3519.9329,N,12137.7966,W,1,09,0.8,17.5,M,-32.1,M,,*6A
$PYRTM,2024,124.335367654491,15.445015064630
$GPGGA,080254.00,3519.9338,N,12137.7968,W,1,09,0.8,16.7,M,-32.1,M,,*60
$PYRTM,2024,124.335379241817,15.445026651956
$GPGGA,080255.00,3519.9344,N,12137.7971,W,1,09,0.8,18.5,M,-32.1,M,,*6E
$PYRTM,2024,124.335390803148,15.445038213287
$GPGGA,080256.00,3519.9349,N,12137.7975,W,1,09,0.8,19.3,M,-32.1,M,,*63
$PYRTM,2024,124.335402390729,15.445049800880
$GPGGA,080257.00,3519.9356,N,12137.7979,W,1,09,0.8,17.2,M,-32.1,M,,*6F
$PYRTM,2024,124.335413950810,15.445061360949
$GPGGA,080258.00,3519.9365,N,12137.7981,W,1,09,0.8,15.0,M,-32.1,M,,*67
$PYRTM,2024,124.335425988924,15.445073399063
$GPGGA,080259.00,3519.9375,N,12137.7982,W,1,09,0.8,16.4,M,-32.1,M,,*63
$PYRTM,2024,124.335437099352,15.445084509491
$GPGGA,080300.00,3519.9384,N,12137.7981,W,1,09,0.8,16.3,M,-32.1,M,,*64
$PYRTM,2024,124.335448686042,15.445096096192
$GPGGA,080301.00,3519.9393,N,12137.7983,W,1,09,0.8,15.3,M,-32.1,M,,*62
$PYRTM,2024,124.335460247442,15.445107657581
$GPGGA,080302.00,3519.9400,N,12137.7989,W,1,09,0.8,16.1,M,-32.1,M,,*67
$PYRTM,2024,124.335471837558,15.445119247697
$GPGGA,080303.00,3519.9405,N,12137.7995,W,1,09,0.8,15.4,M,-32.1,M,,*68
$PYRTM,2024,124.335483395799,15.445130805937
$GPGGA,080304.00,3519.9412,N,12137.7995,W,1,09,0.8,16.5,M,-32.1,M,,*6B
$PYRTM,2024,124.335494985903,15.445142396042
$GPGGA,080305.00,3519.9425,N,12137.7993,W,1,09,0.8,16.3,M,-32.1,M,,*6E
$PYRTM,2024,124.335506544757,15.445153954896
$GPGGA,080306.00,3519.9438,N,12137.7993,W,1,09,0.8,14.6,M,-32.1,M,,*66
$PYRTM,2024,124.335518130567,15.445165540706
$GPGGA,080307.00,3519.9446,N,12137.7999,W,1,09,0.8,13.9,M,-32.1,M,,*6C
$PYRTM,2024,124.335529692662,15.445177102801
$GPGGA,080308.00,3519.9449,N,12137.8007,W,1,09,0.8,11.6,M,-32.1,M,,*60
$PYRTM,2024,124.335541279722,15.445188689861
$GPGGA,080309.00,3519.9453,N,12137.8011,W,1,09,0.8,12.0,M,-32.1,M,,*68
$PYRTM,2024,124.335552841111,15.445200251250
$GPGGA,080310.00,3519.9464,N,12137.8011,W,1,09,0.8,12.7,M,-32.1,M,,*63
$PYRTM,2024,124.335564427905,15.445211838056
$GPGGA,080311.00,3519.9475,N,12137.8009,W,1,09,0.8,15.9,M,-32.1,M,,*62
$PYRTM,2024,124.335575989734,15.445223399873
$GPGGA,080312.00,3519.9484,N,12137.8011,W,1,09,0.8,15.5,M,-32.1,M,,*6A
$PYRTM,2024,124.335587575880,15.445234986019
$GPGGA,080313.00,3519.9487,N,12137.8019,W,1,09,0.8,14.8,M,-32.1,M,,*6C
$PYRTM,2024,124.335599136782,15.445246546921
$GPGGA,080314.00,3519.9490,N,12137.8027,W,1,09,0.8,12.0,M,-32.1,M,,*6E
$PYRTM,2024,124.335610726366,15.445258136505
$GPGGA,080315.00,3519.9499,N,12137.8031,W,1,09,0.8,13.4,M,-32.1,M,,*64
$PYRTM,2024,124.335620911933,15.445268322072
$GPGGA,080316.00,3519.9510,N,12137.8030,W,1,09,0.8,14.1,M,-32.1,M,,*64
$PYRTM,2024,124.335632834097,15.445280244236
$GPGGA,080317.00,3519.9518,N,12137.8030,W,1,09,0.8,13.5,M,-32.1,M,,*6E
$PYRTM,2024,124.335645434363,15.445292844514
$GPGGA,080318.00,3519.9525,N,12137.8034,W,1,09,0.8,14.0,M,-32.1,M,,*69
$PYRTM,2024,124.335657035174,15.445304445313
$GPGGA,080319.00,3519.9533,N,12137.8041,W,1,09,0.8,13.5,M,-32.1,M,,*6F
$PYRTM,2024,124.335668582222,15.445315992361
$GPGGA,080320.00,3519.9543,N,12137.8047,W,1,09,0.8,13.5,M,-32.1,M,,*64
$PYRTM,2024,124.335680170637,15.445327580775
$GPGGA,080321.00,3519.9551,N,12137.8050,W,1,09,0.8,13.3,M,-32.1,M,,*66
$PYRTM,2024,124.335690803438,15.445338213576
$GPGGA,080322.00,3519.9560,N,12137.8052,W,1,09,0.8,13.8,M,-32.1,M,,*6E
$PYRTM,2024,124.335703882454,15.445351292593
$GPGGA,080323.00,3519.9569,N,12137.8054,W,1,09,0.8,14.6,M,-32.1,M,,*69
$PYRTM,2024,124.335714544375,15.445361954525
$GPGGA,080324.00,3519.9579,N,12137.8057,W,1,09,0.8,14.2,M,-32.1,M,,*68
$PYRTM,2024,124.335725770255,15.445373180394
$GPGGA,080325.00,3519.9590,N,12137.8061,W,1,09,0.8,14.6,M,-32.1,M,,*6F
$PYRTM,2024,124.335737216088,15.445384626227
$GPGGA,080326.00,3519.9599,N,12137.8068,W,1,09,0.8,13.9,M,-32.1,M,,*64
$PYRTM,2024,124.335748325938,15.445395736076
$GPGGA,080327.00,3519.9605,N,12137.8076,W,1,09,0.8,14.2,M,-32.1,M,,*60
$PYRTM,2024,124.335759436447,15.445406846597
$GPGGA,080328.00,3519.9613,N,12137.8081,W,1,09,0.8,12.7,M,-32.1,M,,*63
$PYRTM,2024,124.335770548021,15.445417958160
$GPGGA,080329.00,3519.9624,N,12137.8082,W,1,09,0.8,12.8,M,-32.1,M,,*6A
$PYRTM,2024,124.335781659884,15.445429070023
$GPGGA,080330.00,3519.9636,N,12137.8084,W,1,09,0.8,14.4,M,-32.1,M,,*6D
$PYRTM,2024,124.335793247407,15.445440657546
$GPGGA,080331.00,3519.9644,N,12137.8088,W,1,09,0.8,16.2,M,-32.1,M,,*61
$PYRTM,2024,124.335804358738,15.445451768877
$GPGGA,080332.00,3519.9649,N,12137.8096,W,1,09,0.8,15.1,M,-32.1,M,,*60
$PYRTM,2024,124.335815470544,15.445462880683
$GPGGA,080333.00,3519.9657,N,12137.8103,W,1,09,0.8,15.0,M,-32.1,M,,*62
$PYRTM,2024,124.335826576840,15.445473986979
$GPGGA,080334.00,3519.9667,N,12137.8105,W,1,09,0.8,13.3,M,-32.1,M,,*65
$PYRTM,2024,124.335837693553,15.445485103692
$GPGGA,080335.00,3519.9676,N,12137.8103,W,1,09,0.8,13.2,M,-32.1,M,,*63
$PYRTM,2024,124.335853198206,15.445500608345
$GPGGA,080336.00,3519.9684,N,12137.8105,W,1,09,0.8,11.3,M,-32.1,M,,*68
$PYRTM,2024,124.335864312998,15.445511723137
$GPGGA,080337.00,3519.9693,N,12137.8113,W,1,09,0.8,10.5,M,-32.1,M,,*6F
$PYRTM,2024,124.335875428773,15.445522838912
$GPGGA,080338.00,3519.9703,N,12137.8120,W,1,09,0.8,11.6,M,-32.1,M,,*6A
$PYRTM,2024,124.335886536157,15.445533946296
$GPGGA,080339.00,3519.9712,N,12137.8122,W,1,09,0.8,13.3,M,-32.1,M,,*6E
$PYRTM,2024,124.335897646528,15.445545056667
$GPGGA,080340.00,3519.9720,N,12137.8120,W,1,09,0.8,15.8,M,-32.1,M,,*6E
$PYRTM,2024,124.335908757454,15.445556167604
$GPGGA,080341.00,3519.9729,N,12137.8123,W,1,09,0.8,15.9,M,-32.1,M,,*64
$PYRTM,2024,124.335919880833,15.445567290972
$GPGGA,080342.00,3519.9740,N,12137.8132,W,1,09,0.8,14.9,M,-32.1,M,,*69
$PYRTM,2024,124.335930984676,15.445578394826
$GPGGA,080343.00,3519.9749,N,12137.8141,W,1,09,0.8,14.1,M,-32.1,M,,*6D
$PYRTM,2024,124.335942092326,15.445589502465
$GPGGA,080344.00,3519.9756,N,12137.8145,W,1,09,0.8,14.8,M,-32.1,M,,*69
$PYRTM,2024,124.335953216238,15.445600626377
$GPGGA,080345.00,3519.9763,N,12137.8142,W,1,09,0.8,17.5,M,-32.1,M,,*67
$PYRTM,2024,124.335968467512,15.445615877650
$GPGGA,080346.00,3519.9774,N,12137.8142,W,1,09,0.8,17.8,M,-32.1,M,,*6F
$PYRTM,2024,124.335980058461,15.445627468600
$GPGGA,080347.00,3519.9785,N,12137.8147,W,1,09,0.8,13.2,M,-32.1,M,,*6B
$PYRTM,2024,124.335991615590,15.445639025729
$GPGGA,080348.00,3519.9791,N,12137.8154,W,1,09,0.8,13.9,M,-32.1,M,,*68
$PYRTM,2024,124.336003202269,15.445650612407
$GPGGA,080349.00,3519.9796,N,12137.8158,W,1,09,0.8,14.1,M,-32.1,M,,*6D
$PYRTM,2024,124.336014775394,15.445662185532
$GPGGA,080350.00,3519.9803,N,12137.8157,W,1,09,0.8,14.8,M,-32.1,M,,*60
$PYRTM,2024,124.336026350660,15.445673760799
$GPGGA,080351.00,3519.9812,N,12137.8156,W,1,09,0.8,14.8,M,-32.1,M,,*60
$PYRTM,2024,124.336037924294,15.445685334433
$GPGGA,080352.00,3519.9824,N,12137.8159,W,1,09,0.8,11.5,M,-32.1,M,,*61
$PYRTM,2024,124.336049500613,15.445696910752
$GPGGA,080353.00,3519.9832,N,12137.8165,W,1,09,0.8,14.0,M,-32.1,M,,*68
$PYRTM,2024,124.336061073044,15.445708483183
$GPGGA,080354.00,3519.9837,N,12137.8170,W,1,09,0.8,13.0,M,-32.1,M,,*69
$PYRTM,2024,124.336072649757,15.445720059907
$GPGGA,080355.00,3519.9843,N,12137.8171,W,1,09,0.8,16.0,M,-32.1,M,,*6F
$PYRTM,2024,124.336084222049,15.445731632187
$GPGGA,080356.00,3519.9853,N,12137.8172,W,1,09,0.8,15.6,M,-32.1,M,,*6B
$PYRTM,2024,124.336095795764,15.445743205891
$GPGGA,080357.00,3519.9864,N,12137.8173,W,1,09,0.8,14.2,M,-32.1,M,,*6A
$PYRTM,2024,124.336107369016,15.445754779155
$GPGGA,080358.00,3519.9872,N,12137.8178,W,1,09,0.8,15.1,M,-32.1,M,,*6B
$PYRTM,2024,124.336118958183,15.445766368322
$GPGGA,080359.00,3519.9878,N,12137.8186,W,1,09,0.8,14.4,M,-32.1,M,,*65
$PYRTM,2024,124.336130529838,15.445777939977
$GPGGA,080400.00,3519.9884,N,12137.8190,W,1,09,0.8,15.9,M,-32.1,M,,*66
$PYRTM,2024,124.336142095752,15.445789505891
$GPGGA,080401.00,3519.9894,N,12137.8190,W,1,09,0.8,14.1,M,-32.1,M,,*6F
$PYRTM,2024,124.336153665856,15.445801075995
$GPGGA,080402.00,3519.9907,N,12137.8190,W,1,09,0.8,15.0,M,-32.1,M,,*67
$PYRTM,2024,124.336165240347,15.445812650486
$GPGGA,080403.00,3519.9916,N,12137.8193,W,1,09,0.8,13.5,M,-32.1,M,,*66
$PYRTM,2024,124.336176814444,15.445824224583
$GPGGA,080404.00,3519.9922,N,12137.8198,W,1,09,0.8,14.2,M,-32.1,M,,*6D
$PYRTM,2024,124.336188389074,15.445835799201
$GPGGA,080405.00,3519.9928,N,12137.8202,W,1,09,0.8,13.4,M,-32.1,M,,*67
$PYRTM,2024,124.336199963507,15.445847373646
$GPGGA,080406.00,3519.9938,N,12137.8206,W,1,09,0.8,16.3,M,-32.1,M,,*63
$PYRTM,2024,124.336211547812,15.445858957951
$GPGGA,080407.00,3519.9947,N,12137.8207,W,1,09,0.8,17.3,M,-32.1,M,,*6A
$PYRTM,2024,124.336223110220,15.445870520359
$GPGGA,080408.00,3519.9953,N,12137.8207,W,1,09,0.8,16.5,M,-32.1,M,,*67
$PYRTM,2024,124.336234687060,15.445882097199
$GPGGA,080409.00,3519.9962,N,12137.8208,W,1,09,0.8,16.0,M,-32.1,M,,*6E
$PYRTM,2024,124.336246258808,15.445893668947
$GPGGA,080410.00,3519.9974,N,12137.8212,W,1,09,0.8,17.1,M,-32.1,M,,*6A
$PYRTM,2024,124.336257833565,15.445905243704
$GPGGA,080411.00,3519.9982,N,12137.8217,W,1,09,0.8,18.0,M,-32.1,M,,*69
$PYRTM,2024,124.336269407141,15.445916817292
$GPGGA,080412.00,3519.9987,N,12137.8220,W,1,09,0.8,16.6,M,-32.1,M,,*63
$PYRTM,2024,124.336280984525,15.445928394676
$GPGGA,080413.00,3519.9994,N,12137.8223,W,1,09,0.8,17.7,M,-32.1,M,,*63
$PYRTM,2024,124.336292555023,15.445939965162
$GPGGA,080414.00,3520.0005,N,12137.8225,W,1,09,0.8,18.4,M,-32.1,M,,*6C
$PYRTM,2024,124.336304133287,15.445951543426
$GPGGA,080415.00,3520.0015,N,12137.8228,W,1,09,0.8,18.4,M,-32.1,M,,*61
$PYRTM,2024,124.336316963437,15.445964373576
$GPGGA,080416.00,3520.0022,N,12137.8229,W,1,09,0.8,18.5,M,-32.1,M,,*66
$PYRTM,2024,124.336328323391,15.445975733530
$GPGGA,080417.00,3520.0030,N,12137.8232,W,1,09,0.8,17.8,M,-32.1,M,,*6C
$PYRTM,2024,124.336339881910,15.445987292060
$GPGGA,080418.00,3520.0040,N,12137.8238,W,1,09,0.8,14.3,M,-32.1,M,,*66
$PYRTM,2024,124.336351467998,15.445998878137
$GPGGA,080419.00,3520.0048,N,12137.8240,W,1,09,0.8,14.3,M,-32.1,M,,*60
$PYRTM,2024,124.336363028356,15.446010438495
$GPGGA,080420.00,3520.0053,N,12137.8240,W,1,09,0.8,17.0,M,-32.1,M,,*60
$PYRTM,2024,124.336374616933,15.446022027072
$GPGGA,080421.00,3520.0061,N,12137.8240,W,1,09,0.8,17.9,M,-32.1,M,,*69
$PYRTM,2024,124.336386177176,15.446033587315
$GPGGA,080422.00,3520.0072,N,12137.8242,W,1,09,0.8,16.4,M,-32.1,M,,*66
$PYRTM,2024,124.336397763715,15.446045173854
$GPGGA,080423.00,3520.0080,N,12137.8243,W,1,09,0.8,15.2,M,-32.1,M,,*6E
$PYRTM,2024,124.336409326134,15.446056736273
$GPGGA,080424.00,3520.0086,N,12137.8245,W,1,09,0.8,14.1,M,-32.1,M,,*6B
$PYRTM,2024,124.336420913981,15.446068324120
$GPGGA,080425.00,3520.0093,N,12137.8246,W,1,09,0.8,14.8,M,-32.1,M,,*64
$PYRTM,2024,124.336432473472,15.446079883611
$GPGGA,080426.00,3520.0103,N,12137.8247,W,1,09,0.8,15.1,M,-32.1,M,,*66
$PYRTM,2024,124.336444074676,15.446091484815
$GPGGA,080427.00,3520.0110,N,12137.8248,W,1,09,0.8,14.4,M,-32.1,M,,*6E
$PYRTM,2024,124.336455622928,15.446103033067
$GPGGA,080428.00,3520.0117,N,12137.8249,W,1,09,0.8,14.4,M,-32.1,M,,*67
$PYRTM,2024,124.336467212662,15.446114622801
$GPGGA,080429.00,3520.0127,N,12137.8252,W,1,09,0.8,13.0,M,-32.1,M,,*6C
$PYRTM,2024,124.336478771204,15.446126181343
$GPGGA,080430.00,3520.0136,N,12137.8256,W,1,09,0.8,11.4,M,-32.1,M,,*66
$PYRTM,2024,124.336490356806,15.446137766944
$GPGGA,080431.00,3520.0143,N,12137.8259,W,1,09,0.8,12.0,M,-32.1,M,,*6D
$PYRTM,2024,124.336501919410,15.446149329549
$GPGGA,080432.00,3520.0150,N,12137.8261,W,1,09,0.8,10.5,M,-32.1,M,,*60
$PYRTM,2024,124.336513507164,15.446160917303
$GPGGA,080433.00,3520.0158,N,12137.8263,W,1,09,0.8,9.2,M,-32.1,M,,*54
$PYRTM,2024,124.336525066435,15.446172476586
$GPGGA,080434.00,3520.0169,N,12137.8264,W,1,09,0.8,11.2,M,-32.1,M,,*6F
$PYRTM,2024,124.336536653148,15.446184063287
$GPGGA,080435.00,3520.0179,N,12137.8264,W,1,09,0.8,11.9,M,-32.1,M,,*64
$PYRTM,2024,124.336548214769,15.446195624907
$GPGGA,080436.00,3520.0187,N,12137.8266,W,1,09,0.8,12.3,M,-32.1,M,,*6D
$PYRTM,2024,124.336559803287,15.446207213426
$GPGGA,080437.00,3520.0194,N,12137.8270,W,1,09,0.8,13.5,M,-32.1,M,,*6E
$PYRTM,2024,124.336571364294,15.446218774433
$GPGGA,080438.00,3520.0203,N,12137.8274,W,1,09,0.8,12.2,M,-32.1,M,,*6E
$PYRTM,2024,124.336582953495,15.446230363634
$GPGGA,080439.00,3520.0212,N,12137.8276,W,1,09,0.8,15.7,M,-32.1,M,,*6F
$PYRTM,2024,124.336594511204,15.446241921343
$GPGGA,080440.00,3520.0219,N,12137.8277,W,1,09,0.8,14.6,M,-32.1,M,,*6B
$PYRTM,2024,124.336606104259,15.446253514398
$GPGGA,080441.00,3520.0226,N,12137.8276,W,1,09,0.8,13.9,M,-32.1,M,,*6F
$PYRTM,2024,124.336617659398,15.446265069525
$GPGGA,080442.00,3520.0236,N,12137.8279,W,1,09,0.8,13.7,M,-32.1,M,,*6C
$PYRTM,2024,124.336629251493,15.446276661632
$GPGGA,080443.00,3520.0246,N,12137.8285,W,1,09,0.8,9.4,M,-32.1,M,,*51
$PYRTM,2024,124.336640808762,15.446288218900
$GPGGA,080444.00,3520.0254,N,12137.8292,W,1,09,0.8,8.5,M,-32.1,M,,*53
$PYRTM,2024,124.336652408866,15.446299819005
$GPGGA,080445.00,3520.0260,N,12137.8296,W,1,09,0.8,12.3,M,-32.1,M,,*6C
$PYRTM,2024,124.336662580602,15.446309990741
$GPGGA,080446.00,3520.0269,N,12137.8294,W,1,09,0.8,11.8,M,-32.1,M,,*6C
$PYRTM,2024,124.336674502593,15.446321912743
$GPGGA,080447.00,3520.0280,N,12137.8293,W,1,09,0.8,14.4,M,-32.1,M,,*64
$PYRTM,2024,124.336687104225,15.446334514375
$GPGGA,080448.00,3520.0289,N,12137.8296,W,1,09,0.8,13.9,M,-32.1,M,,*6D
$PYRTM,2024,124.336698692419,15.446346102558
$GPGGA,080449.00,3520.0298,N,12137.8301,W,1,09,0.8,13.8,M,-32.1,M,,*62
$PYRTM,2024,124.336710265741,15.446357675880
$GPGGA,080450.00,3520.0305,N,12137.8305,W,1,09,0.8,12.5,M,-32.1,M,,*67
$PYRTM,2024,124.336721844062,15.446369254201
$GPGGA,080451.00,3520.0314,N,12137.8306,W,1,09,0.8,11.3,M,-32.1,M,,*60
$PYRTM,2024,124.336733409549,15.446380819688
$GPGGA,080452.00,3520.0323,N,12137.8308,W,1,09,0.8,11.4,M,-32.1,M,,*6E
$PYRTM,2024,124.336744988600,15.446392398738
$GPGGA,080453.00,3520.0334,N,12137.8312,W,1,09,0.8,11.1,M,-32.1,M,,*67
$PYRTM,2024,124.336756562616,15.446403972755
$GPGGA,080454.00,3520.0343,N,12137.8317,W,1,09,0.8,12.4,M,-32.1,M,,*63
$PYRTM,2024,124.336768141620,15.446415551759
$GPGGA,080455.00,3520.0352,N,12137.8321,W,1,09,0.8,12.4,M,-32.1,M,,*67
$PYRTM,2024,124.336779705613,15.446427115752
$GPGGA,080456.00,3520.0362,N,12137.8324,W,1,09,0.8,13.1,M,-32.1,M,,*66
$PYRTM,2024,124.336791287824,15.446438697963
$GPGGA,080457.00,3520.0371,N,12137.8327,W,1,09,0.8,10.7,M,-32.1,M,,*63
$PYRTM,2024,124.336802859745,15.446450269884
$GPGGA,080458.00,3520.0381,N,12137.8330,W,1,09,0.8,10.6,M,-32.1,M,,*64
$PYRTM,2024,124.336814428194,15.446461838333
$GPGGA,080459.00,3520.0389,N,12137.8332,W,1,09,0.8,12.4,M,-32.1,M,,*6F
$PYRTM,2024,124.336826006875,15.446473417014
$GPGGA,080500.00,3520.0399,N,12137.8333,W,1,09,0.8,12.1,M,-32.1,M,,*67
$PYRTM,2024,124.336837576285,15.446484986424
$GPGGA,080501.00,3520.0411,N,12137.8334,W,1,09,0.8,11.5,M,-32.1,M,,*61
$PYRTM,2024,124.336849155914,15.446496566053
$GPGGA,080502.00,3520.0423,N,12137.8338,W,1,09,0.8,9.6,M,-32.1,M,,*55
$PYRTM,2024,124.336860729653,15.446508139792
$GPGGA,080503.00,3520.0432,N,12137.8344,W,1,09,0.8,10.3,M,-32.1,M,,*62
$PYRTM,2024,124.336872304097,15.446519714236
$GPGGA,080504.00,3520.0439,N,12137.8346,W,1,09,0.8,11.0,M,-32.1,M,,*6E
$PYRTM,2024,124.336883879514,15.446531289653
$GPGGA,080505.00,3520.0448,N,12137.8344,W,1,09,0.8,13.5,M,-32.1,M,,*6C
$PYRTM,2024,124.336895451748,15.446542861887
$GPGGA,080506.00,3520.0461,N,12137.8343,W,1,09,0.8,12.3,M,-32.1,M,,*64
$PYRTM,2024,124.336907027118,15.446554437257
$GPGGA,080507.00,3520.0473,N,12137.8347,W,1,09,0.8,11.2,M,-32.1,M,,*60
$PYRTM,2024,124.336918600683,15.446566010822
$GPGGA,080508.00,3520.0479,N,12137.8355,W,1,09,0.8,9.7,M,-32.1,M,,*5A
$PYRTM,2024,124.336930174120,15.446577584259
$GPGGA,080509.00,3520.0484,N,12137.8359,W,1,09,0.8,9.4,M,-32.1,M,,*56
$PYRTM,2024,124.336941748218,15.446589158356
$GPGGA,080510.00,3520.0493,N,12137.8357,W,1,09,0.8,11.0,M,-32.1,M,,*6B
$PYRTM,2024,124.336953336840,15.446600746979
$GPGGA,080511.00,3520.0506,N,12137.8355,W,1,09,0.8,11.5,M,-32.1,M,,*60
$PYRTM,2024,124.336964896887,15.446612307025
$GPGGA,080512.00,3520.0516,N,12137.8359,W,1,09,0.8,13.6,M,-32.1,M,,*6F
$PYRTM,2024,124.336976475278,15.446623885417
$GPGGA,080513.00,3520.0522,N,12137.8363,W,1,09,0.8,12.1,M,-32.1,M,,*66
$PYRTM,2024,124.336988041655,15.446635451794
$GPGGA,080514.00,3520.0529,N,12137.8364,W,1,09,0.8,14.6,M,-32.1,M,,*6C
$PYRTM,2024,124.336999619051,15.446647029190
$GPGGA,080515.00,3520.0538,N,12137.8362,W,1,09,0.8,18.0,M,-32.1,M,,*61
$PYRTM,2024,124.337009804838,15.446657214977
$GPGGA,080516.00,3520.0549,N,12137.8363,W,1,09,0.8,16.0,M,-32.1,M,,*6B
$PYRTM,2024,124.337021711470,15.446669121609
$GPGGA,080517.00,3520.0558,N,12137.8368,W,1,09,0.8,15.1,M,-32.1,M,,*63
$PYRTM,2024,124.337034340972,15.446681751111
$GPGGA,080518.00,3520.0565,N,12137.8370,W,1,09,0.8,16.2,M,-32.1,M,,*6B
$PYRTM,2024,124.337045915336,15.446693325475
$GPGGA,080519.00,3520.0573,N,12137.8369,W,1,09,0.8,17.0,M,-32.1,M,,*66
$PYRTM,2024,124.337057489549,15.446704899688
$GPGGA,080520.00,3520.0582,N,12137.8368,W,1,09,0.8,18.4,M,-32.1,M,,*68
$PYRTM,2024,124.337069065116,15.446716475255
$GPGGA,080521.00,3520.0593,N,12137.8370,W,1,09,0.8,17.4,M,-32.1,M,,*6F
$PYRTM,2024,124.337080638137,15.446728048275
$GPGGA,080522.00,3520.0601,N,12137.8376,W,1,09,0.8,13.8,M,-32.1,M,,*6A
$PYRTM,2024,124.337092227523,15.446739637662
$GPGGA,080523.00,3520.0607,N,12137.8380,W,1,09,0.8,14.2,M,-32.1,M,,*69
$PYRTM,2024,124.337103773981,15.446751184120
$GPGGA,080524.00,3520.0615,N,12137.8380,W,1,09,0.8,14.6,M,-32.1,M,,*69
$PYRTM,2024,124.337115375023,15.446762785162
$GPGGA,080525.00,3520.0626,N,12137.8378,W,1,09,0.8,17.6,M,-32.1,M,,*6C
$PYRTM,2024,124.337126009780,15.446773419919
$GPGGA,080526.00,3520.0636,N,12137.8379,W,1,09,0.8,17.9,M,-32.1,M,,*60
$PYRTM,2024,124.337138149039,15.446785559178
$GPGGA,080527.00,3520.0641,N,12137.8385,W,1,09,0.8,14.9,M,-32.1,M,,*61
$PYRTM,2024,124.337149737060,15.446797147199
$GPGGA,080528.00,3520.0646,N,12137.8392,W,1,09,0.8,14.6,M,-32.1,M,,*60
$PYRTM,2024,124.337160847153,15.446808257292
$GPGGA,080529.00,3520.0656,N,12137.8394,W,1,09,0.8,12.5,M,-32.1,M,,*63
$PYRTM,2024,124.337171961146,15.446819371285
$GPGGA,080530.00,3520.0667,N,12137.8390,W,1,09,0.8,11.5,M,-32.1,M,,*6E
$PYRTM,2024,124.337183518657,15.446830928796
$GPGGA,080531.00,3520.0676,N,12137.8386,W,1,09,0.8,12.0,M,-32.1,M,,*6E
$PYRTM,2024,124.337194633600,15.446842043738
$GPGGA,080532.00,3520.0684,N,12137.8385,W,1,09,0.8,13.3,M,-32.1,M,,*61
$PYRTM,2024,124.337205743368,15.446853153507
$GPGGA,080533.00,3520.0694,N,12137.8391,W,1,09,0.8,12.4,M,-32.1,M,,*62
$PYRTM,2024,124.337216852917,15.446864263056
$GPGGA,080534.00,3520.0705,N,12137.8398,W,1,09,0.8,10.9,M,-32.1,M,,*6A
$PYRTM,2024,124.337227963426,15.446875373565
$GPGGA,080535.00,3520.0713,N,12137.8401,W,1,09,0.8,13.5,M,-32.1,M,,*64
$PYRTM,2024,124.337239075787,15.446886485926
$GPGGA,080536.00,3520.0720,N,12137.8397,W,1,09,0.8,12.6,M,-32.1,M,,*6D
$PYRTM,2024,124.337250186134,15.446897596273
$GPGGA,080537.00,3520.0731,N,12137.8391,W,1,09,0.8,14.8,M,-32.1,M,,*62
$PYRTM,2024,124.337261297361,15.446908707512
$GPGGA,080538.00,3520.0741,N,12137.8391,W,1,09,0.8,15.8,M,-32.1,M,,*6B
$PYRTM,2024,124.337277401667,15.446924811806
$GPGGA,080539.00,3520.0747,N,12137.8398,W,1,09,0.8,16.3,M,-32.1,M,,*6D
$PYRTM,2024,124.337288509653,15.446935919792
$GPGGA,080540.00,3520.0753,N,12137.8408,W,1,09,0.8,15.8,M,-32.1,M,,*60
$PYRTM,2024,124.337299636424,15.446947046562
$GPGGA,080541.00,3520.0761,N,12137.8413,W,1,09,0.8,14.9,M,-32.1,M,,*6A
$PYRTM,2024,124.337310733102,15.446958143241
$GPGGA,080542.00,3520.0770,N,12137.8410,W,1,09,0.8,12.8,M,-32.1,M,,*6D
$PYRTM,2024,124.337321713484,15.446969123623
$GPGGA,080543.00,3520.0779,N,12137.8404,W,1,09,0.8,13.0,M,-32.1,M,,*69
$PYRTM,2024,124.337332823773,15.446980233912
$GPGGA,080544.00,3520.0787,N,12137.8403,W,1,09,0.8,14.5,M,-32.1,M,,*6A
$PYRTM,2024,124.337343821354,15.446991231505
$GPGGA,080545.00,3520.0795,N,12137.8410,W,1,09,0.8,15.6,M,-32.1,M,,*68
$PYRTM,2024,124.337358298646,15.447005708785
$GPGGA,080546.00,3520.0804,N,12137.8418,W,1,09,0.8,13.7,M,-32.1,M,,*63
$PYRTM,2024,124.337369411701,15.447016821840
$GPGGA,080547.00,3520.0811,N,12137.8419,W,1,09,0.8,15.2,M,-32.1,M,,*64
$PYRTM,2024,124.337380639109,15.447028049248
$GPGGA,080548.00,3520.0818,N,12137.8413,W,1,09,0.8,15.1,M,-32.1,M,,*6B
$PYRTM,2024,124.337392083657,15.447039493796
$GPGGA,080549.00,3520.0827,N,12137.8409,W,1,09,0.8,15.9,M,-32.1,M,,*65
$PYRTM,2024,124.337403671829,15.447051081968
$GPGGA,080550.00,3520.0836,N,12137.8413,W,1,09,0.8,17.1,M,-32.1,M,,*6C
$PYRTM,2024,124.337415231308,15.447062641458
$GPGGA,080551.00,3520.0846,N,12137.8420,W,1,09,0.8,14.9,M,-32.1,M,,*61
$PYRTM,2024,124.337426819641,15.447074229780
$GPGGA,080552.00,3520.0855,N,12137.8424,W,1,09,0.8,12.9,M,-32.1,M,,*62
$PYRTM,2024,124.337438380637,15.447085790775
$GPGGA,080553.00,3520.0863,N,12137.8424,W,1,09,0.8,11.4,M,-32.1,M,,*68
$PYRTM,2024,124.337449969387,15.447097379525
$GPGGA,080554.00,3520.0871,N,12137.8419,W,1,09,0.8,12.4,M,-32.1,M,,*61
$PYRTM,2024,124.337461528009,15.447108938148
$GPGGA,080555.00,3520.0882,N,12137.8417,W,1,09,0.8,11.6,M,-32.1,M,,*63
$PYRTM,2024,124.337473116736,15.447120526875
$GPGGA,080556.00,3520.0892,N,12137.8422,W,1,09,0.8,10.3,M,-32.1,M,,*63
$PYRTM,2024,124.337484676956,15.447132087095
$GPGGA,080557.00,3520.0898,N,12137.8430,W,1,09,0.8,11.1,M,-32.1,M,,*68
$PYRTM,2024,124.337496150012,15.447143560150
$GPGGA,080558.00,3520.0905,N,12137.8432,W,1,09,0.8,8.4,M,-32.1,M,,*5D
$PYRTM,2024,124.337507711377,15.447155121516
$GPGGA,080559.00,3520.0915,N,12137.8429,W,1,09,0.8,9.1,M,-32.1,M,,*53
$PYRTM,2024,124.337519300197,15.447166710336
$GPGGA,080600.00,3520.0925,N,12137.8426,W,1,09,0.8,9.7,M,-32.1,M,,*56
$PYRTM,2024,124.337530972870,15.447178383009
$GPGGA,080601.00,3520.0933,N,12137.8430,W,1,09,0.8,11.0,M,-32.1,M,,*69
$PYRTM,2024,124.337542448368,15.447189858507
$GPGGA,080602.00,3520.0941,N,12137.8436,W,1,09,0.8,8.8,M,-32.1,M,,*59
$PYRTM,2024,124.337554006215,15.447201416354
$GPGGA,080603.00,3520.0948,N,12137.8441,W,1,09,0.8,8.0,M,-32.1,M,,*59
$PYRTM,2024,124.337565710602,15.447213120752
$GPGGA,080604.00,3520.0956,N,12137.8441,W,1,09,0.8,10.0,M,-32.1,M,,*68
$PYRTM,2024,124.337577154711,15.447224564850
$GPGGA,080605.00,3520.0965,N,12137.8442,W,1,09,0.8,9.0,M,-32.1,M,,*52
$PYRTM,2024,124.337588742847,15.447236152986
$GPGGA,080606.00,3520.0975,N,12137.8445,W,1,09,0.8,6.7,M,-32.1,M,,*5F
$PYRTM,2024,124.337600303472,15.447247713611
$GPGGA,080607.00,3520.0984,N,12137.8449,W,1,09,0.8,8.4,M,-32.1,M,,*51
$PYRTM,2024,124.337611890833,15.447259300972
$GPGGA,080608.00,3520.0991,N,12137.8452,W,1,09,0.8,9.2,M,-32.1,M,,*57
$PYRTM,2024,124.337623566100,15.447270976238
$GPGGA,080609.00,3520.0998,N,12137.8454,W,1,09,0.8,12.7,M,-32.1,M,,*66
$PYRTM,2024,124.337635155162,15.447282565301
$GPGGA,080610.00,3520.1007,N,12137.8455,W,1,09,0.8,12.8,M,-32.1,M,,*6E
$PYRTM,2024,124.337646600775,15.447294010914
$GPGGA,080611.00,3520.1016,N,12137.8459,W,1,09,0.8,9.4,M,-32.1,M,,*55
$PYRTM,2024,124.337658297627,15.447305707766
$GPGGA,080612.00,3520.1023,N,12137.8464,W,1,09,0.8,10.3,M,-32.1,M,,*61
$PYRTM,2024,124.337669862292,15.447317272431
$GPGGA,080613.00,3520.1028,N,12137.8470,W,1,09,0.8,16.0,M,-32.1,M,,*6B
$PYRTM,2024,124.337681445752,15.447328855891
$GPGGA,080614.00,3520.1035,N,12137.8474,W,1,09,0.8,14.6,M,-32.1,M,,*60
$PYRTM,2024,124.337693010359,15.447340420509
$GPGGA,080615.00,3520.1045,N,12137.8477,W,1,09,0.8,13.7,M,-32.1,M,,*63
$PYRTM,2024,124.337705641377,15.447353051516
$GPGGA,080616.00,3520.1053,N,12137.8482,W,1,09,0.8,14.5,M,-32.1,M,,*68
$PYRTM,2024,124.337717214803,15.447364624942
$GPGGA,080617.00,3520.1063,N,12137.8485,W,1,09,0.8,15.7,M,-32.1,M,,*6E
$PYRTM,2024,124.337728789595,15.447376199745
$GPGGA,080618.00,3520.1074,N,12137.8488,W,1,09,0.8,17.0,M,-32.1,M,,*6F
$PYRTM,2024,124.337740366319,15.447387776458
$GPGGA,080619.00,3520.1081,N,12137.8494,W,1,09,0.8,16.9,M,-32.1,M,,*61
$PYRTM,2024,124.337751937315,15.447399347454
$GPGGA,080620.00,3520.1086,N,12137.8499,W,1,09,0.8,15.0,M,-32.1,M,,*6B
$PYRTM,2024,124.337763513912,15.447410924051
$GPGGA,080621.00,3520.1093,N,12137.8501,W,1,09,0.8,14.3,M,-32.1,M,,*6C
$PYRTM,2024,124.337775086782,15.447422496921
$GPGGA,080622.00,3520.1103,N,12137.8500,W,1,09,0.8,14.6,M,-32.1,M,,*63
$PYRTM,2024,124.337786663380,15.447434073530
$GPGGA,080623.00,3520.1116,N,12137.8502,W,1,09,0.8,15.5,M,-32.1,M,,*66
$PYRTM,2024,124.337798233553,15.447445643692
$GPGGA,080624.00,3520.1125,N,12137.8508,W,1,09,0.8,14.9,M,-32.1,M,,*66
$PYRTM,2024,124.337809810764,15.447457220903
$GPGGA,080625.00,3520.1132,N,12137.8513,W,1,09,0.8,14.3,M,-32.1,M,,*61
$PYRTM,2024,124.337821383148,15.447468793287
$GPGGA,080626.00,3520.1138,N,12137.8517,W,1,09,0.8,13.0,M,-32.1,M,,*68
$PYRTM,2024,124.337832956817,15.447480366956
$GPGGA,080627.00,3520.1147,N,12137.8514,W,1,09,0.8,13.1,M,-32.1,M,,*63
$PYRTM,2024,124.337844529896,15.447491940046
$GPGGA,080628.00,3520.1159,N,12137.8513,W,1,09,0.8,13.4,M,-32.1,M,,*61
$PYRTM,2024,124.337856099664,15.447503509803
$GPGGA,080629.00,3520.1169,N,12137.8516,W,1,09,0.8,13.4,M,-32.1,M,,*66
$PYRTM,2024,124.337867679919,15.447515090058
$GPGGA,080630.00,3520.1174,N,12137.8524,W,1,09,0.8,12.1,M,-32.1,M,,*67
$PYRTM,2024,124.337879253576,15.447526663715
$GPGGA,080631.00,3520.1176,N,12137.8531,W,1,09,0.8,12.4,M,-32.1,M,,*65
$PYRTM,2024,124.337890822338,15.447538232477
$GPGGA,080632.00,3520.1183,N,12137.8529,W,1,09,0.8,14.8,M,-32.1,M,,*6F
$PYRTM,2024,124.337902396771,15.447549806910
$GPGGA,080633.00,3520.1196,N,12137.8527,W,1,09,0.8,15.0,M,-32.1,M,,*6D
$PYRTM,2024,124.337913974722,15.447561384861
$GPGGA,080634.00,3520.1206,N,12137.8530,W,1,09,0.8,13.5,M,-32.1,M,,*65
$PYRTM,2024,124.337925553380,15.447572963519
$GPGGA,080635.00,3520.1211,N,12137.8538,W,1,09,0.8,15.6,M,-32.1,M,,*6F
$PYRTM,2024,124.337937124132,15.447584534271
$GPGGA,080636.00,3520.1216,N,12137.8543,W,1,09,0.8,13.0,M,-32.1,M,,*67
$PYRTM,2024,124.337948701007,15.447596111157
$GPGGA,080637.00,3520.1224,N,12137.8545,W,1,09,0.8,11.4,M,-32.1,M,,*67
$PYRTM,2024,124.337960271840,15.447607681979
$GPGGA,080638.00,3520.1233,N,12137.8547,W,1,09,0.8,12.3,M,-32.1,M,,*68
$PYRTM,2024,124.337971840822,15.447619250961
$GPGGA,080639.00,3520.1242,N,12137.8551,W,1,09,0.8,12.6,M,-32.1,M,,*6D
$PYRTM,2024,124.337983415961,15.447630826100
$GPGGA,080640.00,3520.1251,N,12137.8556,W,1,09,0.8,11.6,M,-32.1,M,,*65
$PYRTM,2024,124.337994996852,15.447642407002
$GPGGA,080641.00,3520.1259,N,12137.8559,W,1,09,0.8,14.4,M,-32.1,M,,*64
$PYRTM,2024,124.338006563345,15.447653973495
$GPGGA,080642.00,3520.1265,N,12137.8562,W,1,09,0.8,13.2,M,-32.1,M,,*61
$PYRTM,2024,124.338018138796,15.447665548935
$GPGGA,080643.00,3520.1274,N,12137.8568,W,1,09,0.8,12.5,M,-32.1,M,,*6C
$PYRTM,2024,124.338029715914,15.447677126053
$GPGGA,080644.00,3520.1284,N,12137.8574,W,1,09,0.8,13.4,M,-32.1,M,,*69
$PYRTM,2024,124.338041289410,15.447688699549
$GPGGA,080645.00,3520.1292,N,12137.8578,W,1,09,0.8,13.0,M,-32.1,M,,*67
$PYRTM,2024,124.338051933218,15.447699343356
$GPGGA,080646.00,3520.1296,N,12137.8578,W,1,09,0.8,13.0,M,-32.1,M,,*60
$PYRTM,2024,124.338063382928,15.447710793079
$GPGGA,080647.00,3520.1302,N,12137.8579,W,1,09,0.8,15.0,M,-32.1,M,,*6A
$PYRTM,2024,124.338076007060,15.447723417199
$GPGGA,080648.00,3520.1313,N,12137.8584,W,1,09,0.8,17.1,M,-32.1,M,,*64
$PYRTM,2024,124.338087601019,15.447735011157
$GPGGA,080649.00,3520.1325,N,12137.8591,W,1,09,0.8,13.2,M,-32.1,M,,*63
$PYRTM,2024,124.338099161586,15.447746571725
$GPGGA,080650.00,3520.1333,N,12137.8593,W,1,09,0.8,13.1,M,-32.1,M,,*6D
$PYRTM,2024,124.338110737569,15.447758147708
$GPGGA,080651.00,3520.1336,N,12137.8593,W,1,09,0.8,13.2,M,-32.1,M,,*6A
$PYRTM,2024,124.338122309051,15.447769719190
$GPGGA,080652.00,3520.1343,N,12137.8594,W,1,09,0.8,10.0,M,-32.1,M,,*6D
$PYRTM,2024,124.338133886539,15.447781296678
$GPGGA,080653.00,3520.1355,N,12137.8599,W,1,09,0.8,8.6,M,-32.1,M,,*59
$PYRTM,2024,124.338145457072,15.447792867211
$GPGGA,080654.00,3520.1363,N,12137.8606,W,1,09,0.8,8.7,M,-32.1,M,,*5F
$PYRTM,2024,124.338157031192,15.447804441331
$GPGGA,080655.00,3520.1369,N,12137.8611,W,1,09,0.8,8.6,M,-32.1,M,,*53
$PYRTM,2024,124.338168605185,15.447816015336
$GPGGA,080656.00,3520.1375,N,12137.8612,W,1,09,0.8,10.5,M,-32.1,M,,*64
$PYRTM,2024,124.338180180741,15.447827590891
$GPGGA,080657.00,3520.1385,N,12137.8610,W,1,09,0.8,8.0,M,-32.1,M,,*54
$PYRTM,2024,124.338191749352,15.447839159491
$GPGGA,080658.00,3520.1393,N,12137.8609,W,1,09,0.8,9.9,M,-32.1,M,,*5C
$PYRTM,2024,124.338203325359,15.447850735498
$GPGGA,080659.00,3520.1401,N,12137.8612,W,1,09,0.8,11.3,M,-32.1,M,,*68
$PYRTM,2024,124.338214902674,15.447862312813
$GPGGA,080700.00,3520.1410,N,12137.8618,W,1,09,0.8,10.9,M,-32.1,M,,*64
$PYRTM,2024,124.338226471574,15.447873881713
$GPGGA,080701.00,3520.1418,N,12137.8623,W,1,09,0.8,9.5,M,-32.1,M,,*51
$PYRTM,2024,124.338238049896,15.447885460035
$GPGGA,080702.00,3520.1424,N,12137.8624,W,1,09,0.8,9.5,M,-32.1,M,,*5A
$PYRTM,2024,124.338249629144,15.447897039282
$GPGGA,080703.00,3520.1430,N,12137.8624,W,1,09,0.8,8.6,M,-32.1,M,,*5C
$PYRTM,2024,124.338261198912,15.447908609051
$GPGGA,080704.00,3520.1440,N,12137.8627,W,1,09,0.8,13.2,M,-32.1,M,,*61
$PYRTM,2024,124.338272775995,15.447920186134
$GPGGA,080705.00,3520.1448,N,12137.8631,W,1,09,0.8,15.1,M,-32.1,M,,*6A
$PYRTM,2024,124.338284350046,15.447931760185
$GPGGA,080706.00,3520.1453,N,12137.8636,W,1,09,0.8,12.8,M,-32.1,M,,*6A
$PYRTM,2024,124.338295921609,15.447943331748
$GPGGA,080707.00,3520.1459,N,12137.8639,W,1,09,0.8,12.7,M,-32.1,M,,*61
$PYRTM,2024,124.338307494641,15.447954904780
$GPGGA,080708.00,3520.1469,N,12137.8639,W,1,09,0.8,14.9,M,-32.1,M,,*65
$PYRTM,2024,124.338319069502,15.447966479641
$GPGGA,080709.00,3520.1478,N,12137.8640,W,1,09,0.8,15.1,M,-32.1,M,,*63
$PYRTM,2024,124.338330639306,15.447978049444
$GPGGA,080710.00,3520.1484,N,12137.8644,W,1,09,0.8,15.6,M,-32.1,M,,*6B
$PYRTM,2024,124.338342218264,15.447989628403
$GPGGA,080711.00,3520.1490,N,12137.8649,W,1,09,0.8,13.7,M,-32.1,M,,*65
$PYRTM,2024,124.338353792014,15.448001202153
$GPGGA,080712.00,3520.1500,N,12137.8652,W,1,09,0.8,16.1,M,-32.1,M,,*67
$PYRTM,2024,124.338365366308,15.448012776447
$GPGGA,080713.00,3520.1512,N,12137.8652,W,1,09,0.8,16.9,M,-32.1,M,,*6D
$PYRTM,2024,124.338376936458,15.448024346597
$GPGGA,080714.00,3520.1522,N,12137.8654,W,1,09,0.8,16.0,M,-32.1,M,,*66
$PYRTM,2024,124.338388515069,15.448035925208
$GPGGA,080715.00,3520.1528,N,12137.8659,W,1,09,0.8,15.0,M,-32.1,M,,*63
$PYRTM,2024,124.338398701875,15.448046112014
$GPGGA,080716.00,3520.1532,N,12137.8664,W,1,09,0.8,16.8,M,-32.1,M,,*6E
$PYRTM,2024,124.338410606377,15.448058016516
$GPGGA,080717.00,3520.1540,N,12137.8665,W,1,09,0.8,19.3,M,-32.1,M,,*6F
$PYRTM,2024,124.338423236227,15.448070646366
$GPGGA,080718.00,3520.1552,N,12137.8664,W,1,09,0.8,17.3,M,-32.1,M,,*6C
$PYRTM,2024,124.338434814201,15.448082224340
$GPGGA,080719.00,3520.1562,N,12137.8666,W,1,09,0.8,17.4,M,-32.1,M,,*6B
$PYRTM,2024,124.338446384028,15.448093794167
$GPGGA,080720.00,3520.1566,N,12137.8675,W,1,09,0.8,16.2,M,-32.1,M,,*60
$PYRTM,2024,124.338457972593,15.448105382731
$GPGGA,080721.00,3520.1568,N,12137.8682,W,1,09,0.8,15.6,M,-32.1,M,,*60
$PYRTM,2024,124.338469527905,15.448116938044
$GPGGA,080722.00,3520.1576,N,12137.8681,W,1,09,0.8,15.2,M,-32.1,M,,*6B
$PYRTM,2024,124.338481102500,15.448128512639
$GPGGA,080723.00,3520.1586,N,12137.8677,W,1,09,0.8,16.5,M,-32.1,M,,*68
$PYRTM,2024,124.338492682477,15.448140092616
$GPGGA,080724.00,3520.1595,N,12137.8677,W,1,09,0.8,16.3,M,-32.1,M,,*6B
$PYRTM,2024,124.338504257986,15.448151668125
$GPGGA,080725.00,3520.1601,N,12137.8685,W,1,09,0.8,17.5,M,-32.1,M,,*6E
$PYRTM,2024,124.338515816701,15.448163226852
$GPGGA,080726.00,3520.1605,N,12137.8693,W,1,09,0.8,16.5,M,-32.1,M,,*6F
$PYRTM,2024,124.338527399398,15.448174809537
$GPGGA,080727.00,3520.1610,N,12137.8695,W,1,09,0.8,17.8,M,-32.1,M,,*60
$PYRTM,2024,124.338538977894,15.448186388032
$GPGGA,080728.00,3520.1619,N,12137.8692,W,1,09,0.8,17.5,M,-32.1,M,,*6C
$PYRTM,2024,124.338550552303,15.448197962442
$GPGGA,080729.00,3520.1628,N,12137.8693,W,1,09,0.8,14.9,M,-32.1,M,,*61
$PYRTM,2024,124.338562121366,15.448209531505
$GPGGA,080730.00,3520.1635,N,12137.8698,W,1,09,0.8,17.7,M,-32.1,M,,*63
$PYRTM,2024,124.338573714884,15.448221125023
$GPGGA,080731.00,3520.1640,N,12137.8703,W,1,09,0.8,16.6,M,-32.1,M,,*63
$PYRTM,2024,124.338584348044,15.448231758183
$GPGGA,080732.00,3520.1648,N,12137.8705,W,1,09,0.8,14.0,M,-32.1,M,,*6A
$PYRTM,2024,124.338597414039,15.448244824178
$GPGGA,080733.00,3520.1656,N,12137.8705,W,1,09,0.8,12.5,M,-32.1,M,,*67
$PYRTM,2024,124.338608070521,15.448255480660
$GPGGA,080734.00,3520.1664,N,12137.8707,W,1,09,0.8,10.5,M,-32.1,M,,*61
$PYRTM,2024,124.338619186551,15.448266596690
$GPGGA,080735.00,3520.1670,N,12137.8713,W,1,09,0.8,11.8,M,-32.1,M,,*6C
$PYRTM,2024,124.338630749410,15.448278159549
$GPGGA,080736.00,3520.1679,N,12137.8717,W,1,09,0.8,13.9,M,-32.1,M,,*61
$PYRTM,2024,124.338641860231,15.448289270370
$GPGGA,080737.00,3520.1691,N,12137.8716,W,1,09,0.8,10.0,M,-32.1,M,,*6D
$PYRTM,2024,124.338652972488,15.448300382627
$GPGGA,080738.00,3520.1699,N,12137.8716,W,1,09,0.8,9.7,M,-32.1,M,,*55
$PYRTM,2024,124.338664082222,15.448311492361
$GPGGA,080739.00,3520.1703,N,12137.8719,W,1,09,0.8,10.2,M,-32.1,M,,*64
$PYRTM,2024,124.338675193553,15.448322603692
$GPGGA,080740.00,3520.1708,N,12137.8723,W,1,09,0.8,9.2,M,-32.1,M,,*50
$PYRTM,2024,124.338686305995,15.448333716134
$GPGGA,080741.00,3520.1718,N,12137.8727,W,1,09,0.8,7.5,M,-32.1,M,,*5D
$PYRTM,2024,124.338697415266,15.448344825405
$GPGGA,080742.00,3520.1729,N,12137.8727,W,1,09,0.8,7.7,M,-32.1,M,,*5E
$PYRTM,2024,124.338708423565,15.448355833704
$GPGGA,080743.00,3520.1736,N,12137.8727,W,1,09,0.8,7.9,M,-32.1,M,,*5F
$PYRTM,2024,124.338719534595,15.448366944745
$GPGGA,080744.00,3520.1741,N,12137.8729,W,1,09,0.8,9.4,M,-32.1,M,,*55
$PYRTM,2024,124.338732830567,15.448380240706
$GPGGA,080745.00,3520.1747,N,12137.8733,W,1,09,0.8,9.2,M,-32.1,M,,*5F
$PYRTM,2024,124.338747416123,15.448394826262
$GPGGA,080746.00,3520.1756,N,12137.8736,W,1,09,0.8,9.0,M,-32.1,M,,*5B
$PYRTM,2024,124.338758527292,15.448405937431
$GPGGA,080747.00,3520.1766,N,12137.8736,W,1,09,0.8,10.0,M,-32.1,M,,*61
$PYRTM,2024,124.338769637326,15.448417047465
$GPGGA,080748.00,3520.1775,N,12137.8738,W,1,09,0.8,10.5,M,-32.1,M,,*67
$PYRTM,2024,124.338780980243,15.448428390382
$GPGGA,080749.00,3520.1780,N,12137.8742,W,1,09,0.8,10.3,M,-32.1,M,,*67
$PYRTM,2024,124.338792567731,15.448439977870
$GPGGA,080750.00,3520.1784,N,12137.8745,W,1,09,0.8,15.5,M,-32.1,M,,*6F
$PYRTM,2024,124.338804127187,15.448451537326
$GPGGA,080751.00,3520.1792,N,12137.8747,W,1,09,0.8,14.1,M,-32.1,M,,*6E
$PYRTM,2024,124.338815715081,15.448463125220
$GPGGA,080752.00,3520.1803,N,12137.8749,W,1,09,0.8,13.0,M,-32.1,M,,*62
$PYRTM,2024,124.338827275370,15.448474685509
$GPGGA,080753.00,3520.1810,N,12137.8752,W,1,09,0.8,12.7,M,-32.1,M,,*6D
$PYRTM,2024,124.338838858414,15.448486268553
$GPGGA,080754.00,3520.1813,N,12137.8754,W,1,09,0.8,12.8,M,-32.1,M,,*60
$PYRTM,2024,124.338850424294,15.448497834433
$GPGGA,080755.00,3520.1819,N,12137.8756,W,1,09,0.8,15.2,M,-32.1,M,,*64
$PYRTM,2024,124.338862008449,15.448509418588
$GPGGA,080756.00,3520.1828,N,12137.8759,W,1,09,0.8,15.8,M,-32.1,M,,*60
$PYRTM,2024,124.338873572500,15.448520982639
$GPGGA,080757.00,3520.1838,N,12137.8761,W,1,09,0.8,14.3,M,-32.1,M,,*61
$PYRTM,2024,124.338885155255,15.448532565394
$GPGGA,080758.00,3520.1846,N,12137.8760,W,1,09,0.8,17.4,M,-32.1,M,,*62
$PYRTM,2024,124.338896719745,15.448544129884
$GPGGA,080759.00,3520.1852,N,12137.8759,W,1,09,0.8,18.0,M,-32.1,M,,*67
$PYRTM,2024,124.338908308877,15.448555719016
$GPGGA,080800.00,3520.1860,N,12137.8760,W,1,09,0.8,17.1,M,-32.1,M,,*61
$PYRTM,2024,124.338919868623,15.448567278762
$GPGGA,080801.00,3520.1869,N,12137.8763,W,1,09,0.8,15.8,M,-32.1,M,,*61
$PYRTM,2024,124.338931456470,15.448578866609
$GPGGA,080802.00,3520.1877,N,12137.8768,W,1,09,0.8,12.1,M,-32.1,M,,*68
$PYRTM,2024,124.338943017338,15.448590427488
$GPGGA,080803.00,3520.1884,N,12137.8770,W,1,09,0.8,11.0,M,-32.1,M,,*6E
$PYRTM,2024,124.338954604896,15.448602015035
$GPGGA,080804.00,3520.1891,N,12137.8768,W,1,09,0.8,10.7,M,-32.1,M,,*62
$PYRTM,2024,124.338966165000,15.448613575139
$GPGGA,080805.00,3520.1900,N,12137.8765,W,1,09,0.8,12.9,M,-32.1,M,,*6B
$PYRTM,2024,124.338977753067,15.448625163206
$GPGGA,080806.00,3520.1911,N,12137.8764,W,1,09,0.8,13.6,M,-32.1,M,,*67
$PYRTM,2024,124.338989313310,15.448636723449
$GPGGA,080807.00,3520.1920,N,12137.8770,W,1,09,0.8,11.3,M,-32.1,M,,*66
$PYRTM,2024,124.339000901921,15.448648312060
$GPGGA,080808.00,3520.1926,N,12137.8778,W,1,09,0.8,12.2,M,-32.1,M,,*65
$PYRTM,2024,124.339012461817,15.448659871956
$GPGGA,080809.00,3520.1931,N,12137.8781,W,1,09,0.8,10.6,M,-32.1,M,,*62
$PYRTM,2024,124.339024044965,15.448671455116
$GPGGA,080810.00,3520.1939,N,12137.8778,W,1,09,0.8,10.9,M,-32.1,M,,*6B
$PYRTM,2024,124.339035608947,15.448683019097
$GPGGA,080811.00,3520.1948,N,12137.8777,W,1,09,0.8,11.2,M,-32.1,M,,*69
$PYRTM,2024,124.339047198229,15.448694608368
$GPGGA,080812.00,3520.1954,N,12137.8783,W,1,09,0.8,11.3,M,-32.1,M,,*6D
$PYRTM,2024,124.339058758889,15.448706169028
$GPGGA,080813.00,3520.1959,N,12137.8792,W,1,09,0.8,11.9,M,-32.1,M,,*6B
$PYRTM,2024,124.339070345914,15.448717756053
$GPGGA,080814.00,3520.1966,N,12137.8796,W,1,09,0.8,13.5,M,-32.1,M,,*6A
$PYRTM,2024,124.339081905150,15.448729315289
$GPGGA,080815.00,3520.1975,N,12137.8793,W,1,09,0.8,13.3,M,-32.1,M,,*6A
$PYRTM,2024,124.339094536921,15.448741947072
$GPGGA,080816.00,3520.1984,N,12137.8791,W,1,09,0.8,15.5,M,-32.1,M,,*65
$PYRTM,2024,124.339106114155,15.448753524294
$GPGGA,080817.00,3520.1991,N,12137.8794,W,1,09,0.8,15.3,M,-32.1,M,,*63
$PYRTM,2024,124.339117683299,15.448765093438
$GPGGA,080818.00,3520.1997,N,12137.8803,W,1,09,0.8,15.5,M,-32.1,M,,*6D
$PYRTM,2024,124.339129248438,15.448776658576
$GPGGA,080819.00,3520.2003,N,12137.8810,W,1,09,0.8,14.8,M,-32.1,M,,*65
$PYRTM,2024,124.339140828275,15.448788238426
$GPGGA,080820.00,3520.2012,N,12137.8811,W,1,09,0.8,17.5,M,-32.1,M,,*60
$PYRTM,2024,124.339152407847,15.448799817998
$GPGGA,080821.00,3520.2022,N,12137.8811,W,1,09,0.8,14.3,M,-32.1,M,,*67
$PYRTM,2024,124.339163976481,15.448811386620
$GPGGA,080822.00,3520.2029,N,12137.8814,W,1,09,0.8,12.0,M,-32.1,M,,*6F
$PYRTM,2024,124.339175555660,15.448822965799
$GPGGA,080823.00,3520.2037,N,12137.8818,W,1,09,0.8,11.6,M,-32.1,M,,*68
$PYRTM,2024,124.339187129028,15.448834539167
$GPGGA,080824.00,3520.2046,N,12137.8824,W,1,09,0.8,11.6,M,-32.1,M,,*66
$PYRTM,2024,124.339198703634,15.448846113773
$GPGGA,080825.00,3520.2054,N,12137.8830,W,1,09,0.8,10.6,M,-32.1,M,,*60
$PYRTM,2024,124.339210277766,15.448857687905
$GPGGA,080826.00,3520.2061,N,12137.8833,W,1,09,0.8,10.7,M,-32.1,M,,*67
$PYRTM,2024,124.339221852951,15.448869263090
$GPGGA,080827.00,3520.2069,N,12137.8835,W,1,09,0.8,12.3,M,-32.1,M,,*6E
$PYRTM,2024,124.339233425359,15.448880835498
$GPGGA,080828.00,3520.2078,N,12137.8837,W,1,09,0.8,10.3,M,-32.1,M,,*61
$PYRTM,2024,124.339245002882,15.448892413021
$GPGGA,080829.00,3520.2086,N,12137.8840,W,1,09,0.8,10.9,M,-32.1,M,,*6B
$PYRTM,2024,124.339256573634,15.448903983785
$GPGGA,080830.00,3520.2092,N,12137.8845,W,1,09,0.8,10.9,M,-32.1,M,,*63
$PYRTM,2024,124.339268163750,15.448915573889
$GPGGA,080831.00,3520.2100,N,12137.8850,W,1,09,0.8,9.2,M,-32.1,M,,*5F
$PYRTM,2024,124.339279722419,15.448927132558
$GPGGA,080832.00,3520.2109,N,12137.8855,W,1,09,0.8,6.4,M,-32.1,M,,*59
$PYRTM,2024,124.339291297025,15.448938707164
$GPGGA,080833.00,3520.2115,N,12137.8859,W,1,09,0.8,6.5,M,-32.1,M,,*58
$PYRTM,2024,124.339302872477,15.448950282616
$GPGGA,080834.00,3520.2121,N,12137.8861,W,1,09,0.8,9.4,M,-32.1,M,,*5D
$PYRTM,2024,124.339314444780,15.448961854931
$GPGGA,080835.00,3520.2131,N,12137.8864,W,1,09,0.8,8.8,M,-32.1,M,,*55
$PYRTM,2024,124.339326020891,15.448973431030
