$PYRTM,2024,125.166667282743,16.276314692882
$GPGGA,035958.00,3511.7769,N,12148.6826,W,1,09,1.0,11.4,M,-32.6,M,,*67
$PYRTM,2024,125.166678395000,16.276325805139
$GPGGA,035959.00,3511.7770,N,12148.6831,W,1,09,1.0,11.3,M,-32.6,M,,*6F
$PYRTM,2024,125.166689491412,16.276336901551
$GPGGA,040000.00,3511.7774,N,12148.6830,W,1,09,1.0,11.3,M,-32.6,M,,*6D
$PYRTM,2024,125.166700619271,16.276348029410
$GPGGA,040001.00,3511.7780,N,12148.6830,W,1,09,1.0,11.2,M,-32.6,M,,*66
$PYRTM,2024,125.166711716412,16.276359126551
$GPGGA,040002.00,3511.7782,N,12148.6835,W,1,09,1.0,11.0,M,-32.6,M,,*60
$PYRTM,2024,125.166722827812,16.276370237951
$GPGGA,040003.00,3511.7782,N,12148.6842,W,1,09,1.0,10.7,M,-32.6,M,,*67
$PYRTM,2024,125.166733951806,16.276381361944
$GPGGA,040004.00,3511.7783,N,12148.6845,W,1,09,1.0,10.7,M,-32.6,M,,*66
$PYRTM,2024,125.166745063403,16.276392473542
$GPGGA,040005.00,3511.7790,N,12148.6845,W,1,09,1.0,11.5,M,-32.6,M,,*66
$PYRTM,2024,125.166756173252,16.276403583391
$GPGGA,040006.00,3511.7797,N,12148.6848,W,1,09,1.0,11.2,M,-32.6,M,,*68
$PYRTM,2024,125.166767283993,16.276414694132
$GPGGA,040007.00,3511.7800,N,12148.6855,W,1,09,1.0,9.4,M,-32.6,M,,*5B
$PYRTM,2024,125.166780467766,16.276427877905
$GPGGA,040008.00,3511.7798,N,12148.6862,W,1,09,1.0,8.1,M,-32.6,M,,*5A
$PYRTM,2024,125.166791475868,16.276438886007
$GPGGA,040009.00,3511.7797,N,12148.6866,W,1,09,1.0,8.0,M,-32.6,M,,*51
$PYRTM,2024,125.166802586053,16.276449996192
$GPGGA,040010.00,3511.7803,N,12148.6866,W,1,09,1.0,9.9,M,-32.6,M,,*53
$PYRTM,2024,125.166813697037,16.276461107176
$GPGGA,040011.00,3511.7812,N,12148.6866,W,1,09,1.0,10.0,M,-32.6,M,,*63
$PYRTM,2024,125.166824808079,16.276472218218
$GPGGA,040012.00,3511.7815,N,12148.6872,W,1,09,1.0,10.1,M,-32.6,M,,*63
$PYRTM,2024,125.166836022488,16.276483432627
$GPGGA,040013.00,3511.7812,N,12148.6881,W,1,09,1.0,9.7,M,-32.6,M,,*57
$PYRTM,2024,125.166848645694,16.276496055833
$GPGGA,040014.00,3511.7811,N,12148.6888,W,1,09,1.0,9.6,M,-32.6,M,,*5B
$PYRTM,2024,125.166859641250,16.276507051400
$GPGGA,040015.00,3511.7816,N,12148.6889,W,1,09,1.0,9.8,M,-32.6,M,,*52
$PYRTM,2024,125.166871323299,16.276518733437
$GPGGA,040016.00,3511.7825,N,12148.6891,W,1,09,1.0,10.2,M,-32.6,M,,*6A
$PYRTM,2024,125.166882797789,16.276530207928
$GPGGA,040017.00,3511.7829,N,12148.6895,W,1,09,1.0,9.9,M,-32.6,M,,*50
$PYRTM,2024,125.166894356910,16.276541767049
$GPGGA,040018.00,3511.7828,N,12148.6902,W,1,09,1.0,9.8,M,-32.6,M,,*50
$PYRTM,2024,125.166905943368,16.276553353507
$GPGGA,040019.00,3511.7828,N,12148.6906,W,1,09,1.0,9.8,M,-32.6,M,,*55
$PYRTM,2024,125.166917619456,16.276565029595
$GPGGA,040020.00,3511.7833,N,12148.6908,W,1,09,1.0,10.0,M,-32.6,M,,*6B
$PYRTM,2024,125.166929208785,16.276576618935
$GPGGA,040021.00,3511.7840,N,12148.6909,W,1,09,1.0,10.0,M,-32.6,M,,*6F
$PYRTM,2024,125.166940652627,16.276588062766
$GPGGA,040022.00,3511.7842,N,12148.6913,W,1,09,1.0,9.8,M,-32.6,M,,*55
$PYRTM,2024,125.166952240706,16.276599650845
$GPGGA,040023.00,3511.7839,N,12148.6918,W,1,09,1.0,9.8,M,-32.6,M,,*53
$PYRTM,2024,125.166963801667,16.276611211817
$GPGGA,040024.00,3511.7839,N,12148.6924,W,1,09,1.0,9.6,M,-32.6,M,,*55
$PYRTM,2024,125.166975390752,16.276622800891
$GPGGA,040025.00,3511.7845,N,12148.6927,W,1,09,1.0,9.5,M,-32.6,M,,*5F
$PYRTM,2024,125.166986949977,16.276634360116
$GPGGA,040026.00,3511.7851,N,12148.6928,W,1,09,1.0,9.4,M,-32.6,M,,*57
$PYRTM,2024,125.166998990220,16.276646400359
$GPGGA,040027.00,3511.7853,N,12148.6932,W,1,09,1.0,9.3,M,-32.6,M,,*58
$PYRTM,2024,125.167010098426,16.276657508565
$GPGGA,040028.00,3511.7852,N,12148.6939,W,1,09,1.0,9.1,M,-32.6,M,,*5F
$PYRTM,2024,125.167021685266,16.276669095405
$GPGGA,040029.00,3511.7851,N,12148.6945,W,1,09,1.0,9.1,M,-32.6,M,,*56
$PYRTM,2024,125.167033246910,16.276680657049
$GPGGA,040030.00,3511.7854,N,12148.6948,W,1,09,1.0,8.9,M,-32.6,M,,*5F
$PYRTM,2024,125.167044832697,16.276692242836
$GPGGA,040031.00,3511.7863,N,12148.6949,W,1,09,1.0,9.0,M,-32.6,M,,*53
$PYRTM,2024,125.167056395856,16.276703805995
$GPGGA,040032.00,3511.7870,N,12148.6950,W,1,09,1.0,8.9,M,-32.6,M,,*52
$PYRTM,2024,125.167067980590,16.276715390729
$GPGGA,040033.00,3511.7870,N,12148.6956,W,1,09,1.0,9.3,M,-32.6,M,,*5E
$PYRTM,2024,125.167080033727,16.276727443866
$GPGGA,040034.00,3511.7868,N,12148.6963,W,1,09,1.0,9.7,M,-32.6,M,,*52
$PYRTM,2024,125.167091130394,16.276738540532
$GPGGA,040035.00,3511.7867,N,12148.6968,W,1,09,1.0,9.6,M,-32.6,M,,*56
$PYRTM,2024,125.167102691979,16.276750102118
$GPGGA,040036.00,3511.7870,N,12148.6969,W,1,09,1.0,9.7,M,-32.6,M,,*53
$PYRTM,2024,125.167114280706,16.276761690845
$GPGGA,040037.00,3511.7876,N,12148.6968,W,1,09,1.0,9.7,M,-32.6,M,,*55
$PYRTM,2024,125.167125838542,16.276773248681
$GPGGA,040038.00,3511.7881,N,12148.6971,W,1,09,1.0,9.4,M,-32.6,M,,*59
$PYRTM,2024,125.167137429225,16.276784839363
$GPGGA,040039.00,3511.7884,N,12148.6977,W,1,09,1.0,9.1,M,-32.6,M,,*5E
$PYRTM,2024,125.167148987639,16.276796397778
$GPGGA,040040.00,3511.7883,N,12148.6982,W,1,09,1.0,8.9,M,-32.6,M,,*54
$PYRTM,2024,125.167160577639,16.276807987778
$GPGGA,040041.00,3511.7882,N,12148.6985,W,1,09,1.0,8.9,M,-32.6,M,,*53
$PYRTM,2024,125.167172136169,16.276819546308
$GPGGA,040042.00,3511.7887,N,12148.6989,W,1,09,1.0,8.5,M,-32.6,M,,*55
$PYRTM,2024,125.167183837882,16.276831248021
$GPGGA,040043.00,3511.7893,N,12148.6992,W,1,09,1.0,10.4,M,-32.6,M,,*63
$PYRTM,2024,125.167196439734,16.276843849884
$GPGGA,040044.00,3511.7897,N,12148.6998,W,1,09,1.0,9.5,M,-32.6,M,,*53
$PYRTM,2024,125.167208028507,16.276855438646
$GPGGA,040045.00,3511.7898,N,12148.7005,W,1,09,1.0,9.2,M,-32.6,M,,*56
$PYRTM,2024,125.167219588623,16.276866998762
$GPGGA,040046.00,3511.7898,N,12148.7010,W,1,09,1.0,9.4,M,-32.6,M,,*57
$PYRTM,2024,125.167231178692,16.276878588831
$GPGGA,040047.00,3511.7903,N,12148.7013,W,1,09,1.0,7.6,M,-32.6,M,,*5A
$PYRTM,2024,125.167242735556,16.276890145694
$GPGGA,040048.00,3511.7910,N,12148.7016,W,1,09,0.8,7.4,M,-32.6,M,,*59
$PYRTM,2024,125.167254324456,16.276901734595
$GPGGA,040049.00,3511.7916,N,12148.7020,W,1,09,0.8,7.3,M,-32.6,M,,*5C
$PYRTM,2024,125.167265883194,16.276913293333
$GPGGA,040050.00,3511.7919,N,12148.7025,W,1,09,1.0,7.3,M,-32.6,M,,*57
$PYRTM,2024,125.167277471609,16.276924881748
$GPGGA,040051.00,3511.7920,N,12148.7030,W,1,09,0.8,7.7,M,-32.6,M,,*55
$PYRTM,2024,125.167289031910,16.276936442049
$GPGGA,040052.00,3511.7920,N,12148.7035,W,1,09,0.8,7.7,M,-32.6,M,,*53
$PYRTM,2024,125.167300622002,16.276948032141
$GPGGA,040053.00,3511.7922,N,12148.7040,W,1,09,0.8,8.2,M,-32.6,M,,*58
$PYRTM,2024,125.167312180440,16.276959590579
$GPGGA,040054.00,3511.7926,N,12148.7044,W,1,09,0.8,8.3,M,-32.6,M,,*5E
$PYRTM,2024,125.167323768831,16.276971178970
$GPGGA,040055.00,3511.7930,N,12148.7048,W,1,09,0.8,8.5,M,-32.6,M,,*52
$PYRTM,2024,125.167335328472,16.276982738611
$GPGGA,040056.00,3511.7933,N,12148.7052,W,1,09,0.8,8.6,M,-32.6,M,,*5A
$PYRTM,2024,125.167347365648,16.276994775787
$GPGGA,040057.00,3511.7935,N,12148.7056,W,1,09,0.8,8.9,M,-32.6,M,,*56
$PYRTM,2024,125.167358477917,16.277005888067
$GPGGA,040058.00,3511.7936,N,12148.7062,W,1,09,0.8,8.9,M,-32.6,M,,*5D
$PYRTM,2024,125.167370065579,16.277017475718
$GPGGA,040059.00,3511.7938,N,12148.7067,W,1,09,0.8,9.0,M,-32.6,M,,*5F
$PYRTM,2024,125.167381627384,16.277029037523
$GPGGA,040100.00,3511.7941,N,12148.7068,W,1,09,0.8,7.1,M,-32.6,M,,*5C
$PYRTM,2024,125.167393214641,16.277040624792
$GPGGA,040101.00,3511.7946,N,12148.7070,W,1,09,0.8,10.8,M,-32.6,M,,*6C
$PYRTM,2024,125.167404774734,16.277052184873
$GPGGA,040102.00,3511.7949,N,12148.7072,W,1,09,0.8,10.7,M,-32.6,M,,*6D
$PYRTM,2024,125.167416362639,16.277063772778
$GPGGA,040103.00,3511.7952,N,12148.7079,W,1,09,0.8,12.9,M,-32.6,M,,*61
$PYRTM,2024,125.167427923484,16.277075333623
$GPGGA,040104.00,3511.7954,N,12148.7085,W,1,09,0.8,13.0,M,-32.6,M,,*6B
$PYRTM,2024,125.167439511400,16.277086921551
$GPGGA,040105.00,3511.7958,N,12148.7090,W,1,09,0.8,13.0,M,-32.6,M,,*62
$PYRTM,2024,125.167451071713,16.277098481852
$GPGGA,040106.00,3511.7961,N,12148.7093,W,1,09,0.8,12.6,M,-32.6,M,,*6F
$PYRTM,2024,125.167462660532,16.277110070671
$GPGGA,040107.00,3511.7964,N,12148.7096,W,1,09,0.8,12.6,M,-32.6,M,,*6E
$PYRTM,2024,125.167474220509,16.277121630648
$GPGGA,040108.00,3511.7967,N,12148.7098,W,1,09,0.8,12.3,M,-32.6,M,,*69
$PYRTM,2024,125.167485808611,16.277133218750
$GPGGA,040109.00,3511.7970,N,12148.7101,W,1,09,0.8,12.8,M,-32.6,M,,*64
$PYRTM,2024,125.167497367674,16.277144777824
$GPGGA,040110.00,3511.7975,N,12148.7104,W,1,09,0.8,14.2,M,-32.6,M,,*60
$PYRTM,2024,125.167508950856,16.277156360995
$GPGGA,040111.00,3511.7980,N,12148.7110,W,1,09,0.8,14.5,M,-32.6,M,,*69
$PYRTM,2024,125.167520517025,16.277167927164
$GPGGA,040112.00,3511.7986,N,12148.7116,W,1,09,0.8,12.7,M,-32.6,M,,*6E
$PYRTM,2024,125.167532104444,16.277179514583
$GPGGA,040113.00,3511.7990,N,12148.7120,W,1,09,0.8,12.4,M,-32.6,M,,*6E
$PYRTM,2024,125.167544824340,16.277192234479
$GPGGA,040114.00,3511.7994,N,12148.7124,W,1,09,0.8,12.3,M,-32.6,M,,*6E
$PYRTM,2024,125.167557438090,16.277204848229
$GPGGA,040115.00,3511.7997,N,12148.7130,W,1,09,0.8,10.4,M,-32.6,M,,*6C
$PYRTM,2024,125.167566813148,16.277214223287
$GPGGA,040116.00,3511.8000,N,12148.7136,W,1,09,0.8,10.4,M,-32.6,M,,*61
$PYRTM,2024,125.167578395914,16.277225806053
$GPGGA,040117.00,3511.8006,N,12148.7140,W,1,09,0.8,12.7,M,-32.6,M,,*66
$PYRTM,2024,125.167589960833,16.277237370972
$GPGGA,040118.00,3511.8012,N,12148.7144,W,1,09,0.8,11.1,M,-32.6,M,,*6D
$PYRTM,2024,125.167601543993,16.277248954132
$GPGGA,040119.00,3511.8018,N,12148.7149,W,1,09,0.8,7.5,M,-32.6,M,,*58
$PYRTM,2024,125.167613109352,16.277260519491
$GPGGA,040120.00,3511.8021,N,12148.7154,W,1,09,0.8,7.3,M,-32.6,M,,*52
$PYRTM,2024,125.167624692303,16.277272102442
$GPGGA,040121.00,3511.8021,N,12148.7157,W,1,09,0.8,7.4,M,-32.6,M,,*57
$PYRTM,2024,125.167636258657,16.277283668796
$GPGGA,040122.00,3511.8023,N,12148.7158,W,1,09,0.8,7.4,M,-32.6,M,,*59
$PYRTM,2024,125.167647846192,16.277295256331
$GPGGA,040123.00,3511.8028,N,12148.7160,W,1,09,0.8,8.8,M,-32.6,M,,*5B
$PYRTM,2024,125.167659766794,16.277307176933
$GPGGA,040124.00,3511.8033,N,12148.7165,W,1,09,0.8,7.4,M,-32.6,M,,*50
$PYRTM,2024,125.167670992697,16.277318402836
$GPGGA,040125.00,3511.8035,N,12148.7174,W,1,09,0.8,7.3,M,-32.6,M,,*50
$PYRTM,2024,125.167682553391,16.277329963530
$GPGGA,040126.00,3511.8035,N,12148.7180,W,1,09,0.8,7.1,M,-32.6,M,,*5A
$PYRTM,2024,125.167694478206,16.277341888345
$GPGGA,040127.00,3511.8035,N,12148.7181,W,1,09,0.8,7.1,M,-32.6,M,,*5A
$PYRTM,2024,125.167705701516,16.277353111655
$GPGGA,040128.00,3511.8037,N,12148.7181,W,1,09,0.8,7.2,M,-32.6,M,,*54
$PYRTM,2024,125.167717285394,16.277364695544
$GPGGA,040129.00,3511.8044,N,12148.7184,W,1,09,0.8,7.4,M,-32.6,M,,*52
$PYRTM,2024,125.167728851215,16.277376261354
$GPGGA,040130.00,3511.8048,N,12148.7188,W,1,09,0.8,7.4,M,-32.6,M,,*5A
$PYRTM,2024,125.167740439815,16.277387849965
$GPGGA,040131.00,3511.8047,N,12148.7194,W,1,09,0.8,7.4,M,-32.6,M,,*59
$PYRTM,2024,125.167751997720,16.277399407859
$GPGGA,040132.00,3511.8047,N,12148.7199,W,1,09,0.8,7.4,M,-32.6,M,,*57
$PYRTM,2024,125.167763586262,16.277410996400
$GPGGA,040133.00,3511.8051,N,12148.7201,W,1,09,0.8,7.8,M,-32.6,M,,*5F
$PYRTM,2024,125.167775147338,16.277422557477
$GPGGA,040134.00,3511.8058,N,12148.7201,W,1,09,0.8,8.3,M,-32.6,M,,*55
$PYRTM,2024,125.167786735521,16.277434145660
$GPGGA,040135.00,3511.8064,N,12148.7203,W,1,09,0.8,8.3,M,-32.6,M,,*59
$PYRTM,2024,125.167798296933,16.277445707072
$GPGGA,040136.00,3511.8066,N,12148.7210,W,1,09,0.8,8.1,M,-32.6,M,,*58
$PYRTM,2024,125.167809886725,16.277457296863
$GPGGA,040137.00,3511.8065,N,12148.7216,W,1,09,0.8,8.0,M,-32.6,M,,*5D
$PYRTM,2024,125.167821445995,16.277468856134
$GPGGA,040138.00,3511.8066,N,12148.7217,W,1,09,0.8,8.0,M,-32.6,M,,*50
$PYRTM,2024,125.167833034618,16.277480444757
$GPGGA,040139.00,3511.8072,N,12148.7217,W,1,09,0.8,8.7,M,-32.6,M,,*53
$PYRTM,2024,125.167844593657,16.277492003808
$GPGGA,040140.00,3511.8078,N,12148.7220,W,1,09,0.8,8.7,M,-32.6,M,,*53
$PYRTM,2024,125.167856180625,16.277503590764
$GPGGA,040141.00,3511.8080,N,12148.7224,W,1,09,0.8,8.9,M,-32.6,M,,*5F
$PYRTM,2024,125.167867743079,16.277515153218
$GPGGA,040142.00,3511.8079,N,12148.7231,W,1,09,0.8,9.3,M,-32.6,M,,*55
$PYRTM,2024,125.167879323056,16.277526733194
$GPGGA,040143.00,3511.8080,N,12148.7234,W,1,09,0.8,9.2,M,-32.6,M,,*56
$PYRTM,2024,125.167891929780,16.277539339919
$GPGGA,040144.00,3511.8085,N,12148.7236,W,1,09,0.8,9.1,M,-32.6,M,,*55
$PYRTM,2024,125.167904662731,16.277552072870
$GPGGA,040145.00,3511.8093,N,12148.7238,W,1,09,0.8,9.0,M,-32.6,M,,*5C
$PYRTM,2024,125.167914038090,16.277561448229
$GPGGA,040146.00,3511.8098,N,12148.7244,W,1,09,0.8,8.9,M,-32.6,M,,*57
$PYRTM,2024,125.167925627176,16.277573037315
$GPGGA,040147.00,3511.8099,N,12148.7252,W,1,09,0.8,9.1,M,-32.6,M,,*59
$PYRTM,2024,125.167937186505,16.277584596644
$GPGGA,040148.00,3511.8099,N,12148.7257,W,1,09,0.8,9.1,M,-32.6,M,,*53
$PYRTM,2024,125.167948777280,16.277596187419
$GPGGA,040149.00,3511.8104,N,12148.7259,W,1,09,0.8,9.1,M,-32.6,M,,*59
$PYRTM,2024,125.167960335035,16.277607745174
$GPGGA,040150.00,3511.8111,N,12148.7261,W,1,09,0.8,9.3,M,-32.6,M,,*5C
$PYRTM,2024,125.167971935475,16.277619345613
$GPGGA,040151.00,3511.8118,N,12148.7264,W,1,09,0.8,8.7,M,-32.6,M,,*54
$PYRTM,2024,125.167983483924,16.277630894062
$GPGGA,040152.00,3511.8122,N,12148.7270,W,1,09,0.8,8.2,M,-32.6,M,,*5E
$PYRTM,2024,125.167995070301,16.277642480440
$GPGGA,040153.00,3511.8120,N,12148.7277,W,1,09,0.8,7.5,M,-32.6,M,,*52
$PYRTM,2024,125.168006631470,16.277654041609
$GPGGA,040154.00,3511.8118,N,12148.7282,W,1,09,0.8,7.5,M,-32.6,M,,*54
$PYRTM,2024,125.168018217951,16.277665628090
$GPGGA,040155.00,3511.8120,N,12148.7286,W,1,09,0.8,7.6,M,-32.6,M,,*59
$PYRTM,2024,125.168029779873,16.277677190012
$GPGGA,040156.00,3511.8126,N,12148.7290,W,1,09,0.8,7.8,M,-32.6,M,,*55
$PYRTM,2024,125.168041702824,16.277689112963
$GPGGA,040157.00,3511.8130,N,12148.7294,W,1,09,0.8,7.8,M,-32.6,M,,*57
$PYRTM,2024,125.168052928519,16.277700338657
$GPGGA,040158.00,3511.8131,N,12148.7301,W,1,09,0.8,8.5,M,-32.6,M,,*56
$PYRTM,2024,125.168064514792,16.277711924931
$GPGGA,040159.00,3511.8131,N,12148.7308,W,1,09,0.8,8.5,M,-32.6,M,,*5E
$PYRTM,2024,125.168075150417,16.277722560556
$GPGGA,040200.00,3511.8132,N,12148.7312,W,1,09,0.8,8.5,M,-32.6,M,,*59
$PYRTM,2024,125.168088114988,16.277735525127
$GPGGA,040201.00,3511.8136,N,12148.7316,W,1,09,0.8,8.4,M,-32.6,M,,*59
$PYRTM,2024,125.168098884444,16.277746294583
$GPGGA,040202.00,3511.8142,N,12148.7321,W,1,09,0.8,7.9,M,-32.6,M,,*5F
$PYRTM,2024,125.168109885868,16.277757296007
$GPGGA,040203.00,3511.8146,N,12148.7325,W,1,09,0.8,7.7,M,-32.6,M,,*50
$PYRTM,2024,125.168120998426,16.277768408565
$GPGGA,040204.00,3511.8147,N,12148.7329,W,1,09,0.8,7.7,M,-32.6,M,,*5A
$PYRTM,2024,125.168132110475,16.277779520613
$GPGGA,040205.00,3511.8150,N,12148.7333,W,1,09,0.8,7.8,M,-32.6,M,,*59
$PYRTM,2024,125.168143218866,16.277790629005
$GPGGA,040206.00,3511.8154,N,12148.7338,W,1,09,0.8,7.8,M,-32.6,M,,*55
$PYRTM,2024,125.168154329167,16.277801739306
$GPGGA,040207.00,3511.8157,N,12148.7342,W,1,09,0.8,7.8,M,-32.6,M,,*5A
$PYRTM,2024,125.168165440509,16.277812850660
$GPGGA,040208.00,3511.8158,N,12148.7346,W,1,09,0.8,7.8,M,-32.6,M,,*5E
$PYRTM,2024,125.168176439236,16.277823849387
$GPGGA,040209.00,3511.8157,N,12148.7350,W,1,09,0.8,7.8,M,-32.6,M,,*57
$PYRTM,2024,125.168187551146,16.277834961285
$GPGGA,040210.00,3511.8160,N,12148.7356,W,1,09,0.8,8.0,M,-32.6,M,,*5A
$PYRTM,2024,125.168198660914,16.277846071053
$GPGGA,040211.00,3511.8169,N,12148.7360,W,1,09,0.8,8.4,M,-32.6,M,,*53
$PYRTM,2024,125.168212667083,16.277860077222
$GPGGA,040212.00,3511.8177,N,12148.7362,W,1,09,0.8,8.3,M,-32.6,M,,*5A
$PYRTM,2024,125.168223659248,16.277871069387
$GPGGA,040213.00,3511.8179,N,12148.7366,W,1,09,0.8,8.3,M,-32.6,M,,*51
$PYRTM,2024,125.168234770440,16.277882180579
$GPGGA,040214.00,3511.8178,N,12148.7374,W,1,09,0.8,8.9,M,-32.6,M,,*5E
$PYRTM,2024,125.168249804120,16.277897214259
$GPGGA,040215.00,3511.8181,N,12148.7381,W,1,09,0.8,8.6,M,-32.6,M,,*5C
$PYRTM,2024,125.168260927373,16.277908337512
$GPGGA,040216.00,3511.8187,N,12148.7385,W,1,09,0.8,8.9,M,-32.6,M,,*52
$PYRTM,2024,125.168272039444,16.277919449583
$GPGGA,040217.00,3511.8193,N,12148.7384,W,1,09,0.8,9.0,M,-32.6,M,,*5F
$PYRTM,2024,125.168283265451,16.277930675590
$GPGGA,040218.00,3511.8196,N,12148.7386,W,1,09,1.0,9.0,M,-32.6,M,,*5E
$PYRTM,2024,125.168294843877,16.277942254016
$GPGGA,040219.00,3511.8196,N,12148.7392,W,1,09,0.8,9.2,M,-32.6,M,,*51
$PYRTM,2024,125.168306417581,16.277953827720
$GPGGA,040220.00,3511.8197,N,12148.7398,W,1,09,0.8,9.4,M,-32.6,M,,*56
$PYRTM,2024,125.168317984005,16.277965394144
$GPGGA,040221.00,3511.8199,N,12148.7401,W,1,09,1.0,9.5,M,-32.6,M,,*56
$PYRTM,2024,125.168329666678,16.277977076817
$GPGGA,040222.00,3511.8203,N,12148.7403,W,1,09,1.0,10.3,M,-32.6,M,,*69
$PYRTM,2024,125.168341253194,16.277988663333
$GPGGA,040223.00,3511.8207,N,12148.7405,W,1,09,0.8,10.3,M,-32.6,M,,*63
$PYRTM,2024,125.168352814456,16.278000224606
$GPGGA,040224.00,3511.8210,N,12148.7410,W,1,09,1.0,10.3,M,-32.6,M,,*6F
$PYRTM,2024,125.168364401319,16.278011811458
$GPGGA,040225.00,3511.8212,N,12148.7415,W,1,09,1.0,10.1,M,-32.6,M,,*6B
$PYRTM,2024,125.168375962500,16.278023372639
$GPGGA,040226.00,3511.8216,N,12148.7419,W,1,09,1.0,10.0,M,-32.6,M,,*61
$PYRTM,2024,125.168387896053,16.278035306204
$GPGGA,040227.00,3511.8220,N,12148.7422,W,1,09,1.0,9.8,M,-32.6,M,,*5D
$PYRTM,2024,125.168399111181,16.278046521331
$GPGGA,040228.00,3511.8223,N,12148.7426,W,1,09,0.8,9.5,M,-32.6,M,,*51
$PYRTM,2024,125.168410699769,16.278058109907
$GPGGA,040229.00,3511.8227,N,12148.7430,W,1,09,1.0,10.0,M,-32.6,M,,*67
$PYRTM,2024,125.168422259363,16.278069669502
$GPGGA,040230.00,3511.8229,N,12148.7436,W,1,09,1.0,9.7,M,-32.6,M,,*58
$PYRTM,2024,125.168433845069,16.278081255208
$GPGGA,040231.00,3511.8234,N,12148.7441,W,1,09,0.8,12.0,M,-32.6,M,,*61
$PYRTM,2024,125.168445408484,16.278092818623
$GPGGA,040232.00,3511.8239,N,12148.7444,W,1,09,0.8,10.6,M,-32.6,M,,*6E
$PYRTM,2024,125.168457008310,16.278104418449
$GPGGA,040233.00,3511.8246,N,12148.7448,W,1,09,0.8,11.8,M,-32.6,M,,*64
$PYRTM,2024,125.168468556192,16.278115966331
$GPGGA,040234.00,3511.8249,N,12148.7454,W,1,09,1.0,11.6,M,-32.6,M,,*66
$PYRTM,2024,125.168480155521,16.278127565671
$GPGGA,040235.00,3511.8250,N,12148.7458,W,1,09,1.0,11.6,M,-32.6,M,,*63
$PYRTM,2024,125.168491702847,16.278139112986
$GPGGA,040236.00,3511.8254,N,12148.7461,W,1,09,1.0,11.3,M,-32.6,M,,*6B
$PYRTM,2024,125.168503290058,16.278150700197
$GPGGA,040237.00,3511.8260,N,12148.7463,W,1,09,1.0,12.6,M,-32.6,M,,*69
$PYRTM,2024,125.168514851609,16.278162261748
$GPGGA,040238.00,3511.8264,N,12148.7468,W,1,09,1.0,12.4,M,-32.6,M,,*6B
$PYRTM,2024,125.168526439641,16.278173849780
$GPGGA,040239.00,3511.8267,N,12148.7473,W,1,09,1.0,12.0,M,-32.6,M,,*67
$PYRTM,2024,125.168538000579,16.278185410718
$GPGGA,040240.00,3511.8268,N,12148.7478,W,1,09,1.0,11.9,M,-32.6,M,,*67
$PYRTM,2024,125.168549588854,16.278196998993
$GPGGA,040241.00,3511.8271,N,12148.7482,W,1,09,1.0,11.1,M,-32.6,M,,*63
$PYRTM,2024,125.168561147778,16.278208557917
$GPGGA,040242.00,3511.8279,N,12148.7485,W,1,09,1.0,12.4,M,-32.6,M,,*69
$PYRTM,2024,125.168572736771,16.278220146910
$GPGGA,040243.00,3511.8286,N,12148.7489,W,1,09,1.0,12.2,M,-32.6,M,,*62
$PYRTM,2024,125.168585338171,16.278232748310
$GPGGA,040244.00,3511.8289,N,12148.7494,W,1,09,1.0,12.1,M,-32.6,M,,*65
$PYRTM,2024,125.168596925544,16.278244335683
$GPGGA,040245.00,3511.8290,N,12148.7498,W,1,09,1.0,12.0,M,-32.6,M,,*61
$PYRTM,2024,125.168608486944,16.278255897083
$GPGGA,040246.00,3511.8295,N,12148.7502,W,1,09,1.0,10.6,M,-32.6,M,,*61
$PYRTM,2024,125.168620076887,16.278267487025
$GPGGA,040247.00,3511.8302,N,12148.7506,W,1,09,1.0,11.5,M,-32.6,M,,*69
$PYRTM,2024,125.168631634884,16.278279045023
$GPGGA,040248.00,3511.8309,N,12148.7509,W,1,09,1.0,10.4,M,-32.6,M,,*62
$PYRTM,2024,125.168643224815,16.278290634954
$GPGGA,040249.00,3511.8313,N,12148.7514,W,1,09,1.0,10.2,M,-32.6,M,,*62
$PYRTM,2024,125.168654782188,16.278302192326
$GPGGA,040250.00,3511.8314,N,12148.7520,W,1,09,1.0,10.2,M,-32.6,M,,*6A
$PYRTM,2024,125.168666365012,16.278313775150
$GPGGA,040251.00,3511.8316,N,12148.7525,W,1,09,1.0,10.1,M,-32.6,M,,*6F
$PYRTM,2024,125.168677931076,16.278325341215
$GPGGA,040252.00,3511.8320,N,12148.7528,W,1,09,1.0,12.8,M,-32.6,M,,*6F
$PYRTM,2024,125.168689514803,16.278336924942
$GPGGA,040253.00,3511.8326,N,12148.7530,W,1,09,1.0,12.9,M,-32.6,M,,*60
$PYRTM,2024,125.168701084155,16.278348494306
$GPGGA,040254.00,3511.8330,N,12148.7533,W,1,09,1.0,12.7,M,-32.6,M,,*6D
$PYRTM,2024,125.168712667870,16.278360078021
$GPGGA,040255.00,3511.8332,N,12148.7539,W,1,09,1.0,12.8,M,-32.6,M,,*6B
$PYRTM,2024,125.168724227257,16.278371637396
$GPGGA,040256.00,3511.8332,N,12148.7547,W,1,09,1.0,11.4,M,-32.6,M,,*6E
$PYRTM,2024,125.168736266146,16.278383676285
$GPGGA,040257.00,3511.8334,N,12148.7553,W,1,09,1.0,11.3,M,-32.6,M,,*6B
$PYRTM,2024,125.168747377419,16.278394787558
$GPGGA,040258.00,3511.8340,N,12148.7552,W,1,09,1.0,12.7,M,-32.6,M,,*61
$PYRTM,2024,125.168758960243,16.278406370382
$GPGGA,040259.00,3511.8347,N,12148.7549,W,1,09,1.0,15.0,M,-32.6,M,,*6D
$PYRTM,2024,125.168770523796,16.278417933947
$GPGGA,040300.00,3511.8350,N,12148.7554,W,1,09,1.0,12.6,M,-32.6,M,,*6B
$PYRTM,2024,125.168782114549,16.278429524687
$GPGGA,040301.00,3511.8350,N,12148.7564,W,1,09,1.0,12.0,M,-32.6,M,,*6F
$PYRTM,2024,125.168793672442,16.278441082581
$GPGGA,040302.00,3511.8351,N,12148.7571,W,1,09,1.0,11.7,M,-32.6,M,,*6D
$PYRTM,2024,125.168805259109,16.278452669248
$GPGGA,040303.00,3511.8355,N,12148.7570,W,1,09,1.0,13.6,M,-32.6,M,,*6A
$PYRTM,2024,125.168817296794,16.278464706933
$GPGGA,040304.00,3511.8361,N,12148.7569,W,1,09,1.0,12.0,M,-32.6,M,,*65
$PYRTM,2024,125.168828409387,16.278475819525
$GPGGA,040305.00,3511.8365,N,12148.7574,W,1,09,1.0,11.2,M,-32.6,M,,*6D
$PYRTM,2024,125.168839970081,16.278487380231
$GPGGA,040306.00,3511.8365,N,12148.7583,W,1,09,1.0,11.6,M,-32.6,M,,*62
$PYRTM,2024,125.168851556458,16.278498966597
$GPGGA,040307.00,3511.8365,N,12148.7589,W,1,09,1.0,11.6,M,-32.6,M,,*69
$PYRTM,2024,125.168863117604,16.278510527743
$GPGGA,040308.00,3511.8367,N,12148.7590,W,1,09,1.0,11.6,M,-32.6,M,,*6C
$PYRTM,2024,125.168874705660,16.278522115799
$GPGGA,040309.00,3511.8374,N,12148.7592,W,1,09,1.0,9.4,M,-32.6,M,,*56
$PYRTM,2024,125.168886266377,16.278533676516
$GPGGA,040310.00,3511.8380,N,12148.7597,W,1,09,1.0,11.0,M,-32.6,M,,*6D
$PYRTM,2024,125.168897853125,16.278545263264
$GPGGA,040311.00,3511.8380,N,12148.7603,W,1,09,1.0,10.8,M,-32.6,M,,*6B
$PYRTM,2024,125.168909413507,16.278556823646
$GPGGA,040312.00,3511.8377,N,12148.7608,W,1,09,1.0,10.7,M,-32.6,M,,*64
$PYRTM,2024,125.168921001701,16.278568411840
$GPGGA,040313.00,3511.8381,N,12148.7610,W,1,09,1.0,11.3,M,-32.6,M,,*60
$PYRTM,2024,125.168933603796,16.278581013935
$GPGGA,040314.00,3511.8390,N,12148.7614,W,1,09,1.0,10.7,M,-32.6,M,,*66
$PYRTM,2024,125.168946334838,16.278593744977
$GPGGA,040315.00,3511.8397,N,12148.7619,W,1,09,1.0,10.6,M,-32.6,M,,*6C
$PYRTM,2024,125.168955711412,16.278603121551
$GPGGA,040316.00,3511.8398,N,12148.7624,W,1,09,1.0,10.3,M,-32.6,M,,*6B
$PYRTM,2024,125.168967311806,16.278614721944
$GPGGA,040317.00,3511.8397,N,12148.7628,W,1,09,1.0,10.3,M,-32.6,M,,*69
$PYRTM,2024,125.168978859282,16.278626269421
$GPGGA,040318.00,3511.8399,N,12148.7632,W,1,09,1.0,10.4,M,-32.6,M,,*64
$PYRTM,2024,125.168990446794,16.278637856944
$GPGGA,040319.00,3511.8402,N,12148.7635,W,1,09,1.0,10.4,M,-32.6,M,,*67
$PYRTM,2024,125.169002007361,16.278649417500
$GPGGA,040320.00,3511.8405,N,12148.7639,W,1,09,1.0,10.4,M,-32.6,M,,*66
$PYRTM,2024,125.169013593437,16.278661003576
$GPGGA,040321.00,3511.8407,N,12148.7643,W,1,09,1.0,10.4,M,-32.6,M,,*68
$PYRTM,2024,125.169025154329,16.278672564468
$GPGGA,040322.00,3511.8407,N,12148.7646,W,1,09,1.0,10.4,M,-32.6,M,,*6E
$PYRTM,2024,125.169036737836,16.278684147975
$GPGGA,040323.00,3511.8409,N,12148.7650,W,1,09,1.0,10.4,M,-32.6,M,,*66
$PYRTM,2024,125.169048304676,16.278695714815
$GPGGA,040324.00,3511.8413,N,12148.7654,W,1,09,1.0,10.3,M,-32.6,M,,*69
$PYRTM,2024,125.169059885521,16.278707295660
$GPGGA,040325.00,3511.8417,N,12148.7657,W,1,09,1.0,10.4,M,-32.6,M,,*68
$PYRTM,2024,125.169071452292,16.278718862431
$GPGGA,040326.00,3511.8421,N,12148.7661,W,1,09,1.0,10.4,M,-32.6,M,,*6B
$PYRTM,2024,125.169083489977,16.278730900116
$GPGGA,040327.00,3511.8423,N,12148.7662,W,1,09,1.0,10.4,M,-32.6,M,,*6B
$PYRTM,2024,125.169094601227,16.278742011366
$GPGGA,040328.00,3511.8425,N,12148.7666,W,1,09,1.0,10.4,M,-32.6,M,,*66
$PYRTM,2024,125.169106190671,16.278753600822
$GPGGA,040329.00,3511.8427,N,12148.7673,W,1,09,1.0,10.5,M,-32.6,M,,*60
$PYRTM,2024,125.169117749051,16.278765159201
$GPGGA,040330.00,3511.8431,N,12148.7679,W,1,09,1.0,10.5,M,-32.6,M,,*65
$PYRTM,2024,125.169129338900,16.278776749039
$GPGGA,040331.00,3511.8435,N,12148.7682,W,1,09,1.0,10.5,M,-32.6,M,,*64
$PYRTM,2024,125.169140896574,16.278788306713
$GPGGA,040332.00,3511.8438,N,12148.7686,W,1,09,1.0,10.5,M,-32.6,M,,*6E
$PYRTM,2024,125.169152479248,16.278799889387
$GPGGA,040333.00,3511.8441,N,12148.7691,W,1,09,1.0,10.5,M,-32.6,M,,*67
$PYRTM,2024,125.169164044583,16.278811454722
$GPGGA,040334.00,3511.8443,N,12148.7696,W,1,09,1.0,10.5,M,-32.6,M,,*65
$PYRTM,2024,125.169175629329,16.278823039468
$GPGGA,040335.00,3511.8445,N,12148.7700,W,1,09,1.0,10.5,M,-32.6,M,,*6C
$PYRTM,2024,125.169187193542,16.278834603681
$GPGGA,040336.00,3511.8448,N,12148.7703,W,1,09,1.0,10.5,M,-32.6,M,,*61
$PYRTM,2024,125.169198782454,16.278846192593
$GPGGA,040337.00,3511.8455,N,12148.7705,W,1,09,1.0,11.5,M,-32.6,M,,*6B
$PYRTM,2024,125.169210342037,16.278857752176
$GPGGA,040338.00,3511.8460,N,12148.7707,W,1,09,1.0,11.5,M,-32.6,M,,*60
$PYRTM,2024,125.169221928634,16.278869338773
$GPGGA,040339.00,3511.8463,N,12148.7711,W,1,09,1.0,11.5,M,-32.6,M,,*65
$PYRTM,2024,125.169233491146,16.278880901285
$GPGGA,040340.00,3511.8466,N,12148.7715,W,1,09,1.0,12.1,M,-32.6,M,,*6D
$PYRTM,2024,125.169245076921,16.278892487060
$GPGGA,040341.00,3511.8468,N,12148.7719,W,1,09,1.0,12.1,M,-32.6,M,,*6E
$PYRTM,2024,125.169256637824,16.278904047975
$GPGGA,040342.00,3511.8473,N,12148.7721,W,1,09,1.0,12.1,M,-32.6,M,,*6C
$PYRTM,2024,125.169268227836,16.278915637975
$GPGGA,040343.00,3511.8477,N,12148.7723,W,1,09,1.0,11.9,M,-32.6,M,,*60
$PYRTM,2024,125.169280826748,16.278928236887
$GPGGA,040344.00,3511.8481,N,12148.7727,W,1,09,1.0,11.8,M,-32.6,M,,*6B
$PYRTM,2024,125.169293562164,16.278940972303
$GPGGA,040345.00,3511.8483,N,12148.7730,W,1,09,1.0,11.4,M,-32.6,M,,*62
$PYRTM,2024,125.169302934884,16.278950345023
$GPGGA,040346.00,3511.8485,N,12148.7733,W,1,09,1.0,11.1,M,-32.6,M,,*61
$PYRTM,2024,125.169314524340,16.278961934479
$GPGGA,040347.00,3511.8490,N,12148.7736,W,1,09,1.0,11.2,M,-32.6,M,,*62
$PYRTM,2024,125.169326083646,16.278973493785
$GPGGA,040348.00,3511.8495,N,12148.7741,W,1,09,1.0,12.4,M,-32.6,M,,*6D
$PYRTM,2024,125.169337669954,16.278985080104
$GPGGA,040349.00,3511.8499,N,12148.7749,W,1,09,1.0,11.1,M,-32.6,M,,*6E
$PYRTM,2024,125.169349231678,16.278996641817
$GPGGA,040350.00,3511.8504,N,12148.7754,W,1,09,1.0,10.8,M,-32.6,M,,*67
$PYRTM,2024,125.169360818160,16.279008228299
$GPGGA,040351.00,3511.8508,N,12148.7757,W,1,09,1.0,11.2,M,-32.6,M,,*62
$PYRTM,2024,125.169372379792,16.279019789931
$GPGGA,040352.00,3511.8513,N,12148.7759,W,1,09,1.0,11.0,M,-32.6,M,,*67
$PYRTM,2024,125.169383966389,16.279031376528
$GPGGA,040353.00,3511.8517,N,12148.7762,W,1,09,1.0,10.2,M,-32.6,M,,*69
$PYRTM,2024,125.169396002477,16.279043412616
$GPGGA,040354.00,3511.8519,N,12148.7768,W,1,09,1.0,11.8,M,-32.6,M,,*61
$PYRTM,2024,125.169407114167,16.279054524306
$GPGGA,040355.00,3511.8521,N,12148.7773,W,1,09,1.0,11.7,M,-32.6,M,,*6E
$PYRTM,2024,125.169418676019,16.279066086157
$GPGGA,040356.00,3511.8526,N,12148.7776,W,1,09,1.0,9.1,M,-32.6,M,,*50
$PYRTM,2024,125.169430598125,16.279078008264
$GPGGA,040357.00,3511.8533,N,12148.7777,W,1,09,1.0,7.5,M,-32.6,M,,*5E
$PYRTM,2024,125.169441823958,16.279089234097
$GPGGA,040358.00,3511.8539,N,12148.7780,W,1,09,1.0,7.4,M,-32.6,M,,*52
$PYRTM,2024,125.169453414919,16.279100825058
$GPGGA,040359.00,3511.8540,N,12148.7786,W,1,09,1.0,10.5,M,-32.6,M,,*6C
$PYRTM,2024,125.169464973310,16.279112383449
$GPGGA,040400.00,3511.8541,N,12148.7793,W,1,09,1.0,10.3,M,-32.6,M,,*64
$PYRTM,2024,125.169476559421,16.279123969560
$GPGGA,040401.00,3511.8542,N,12148.7797,W,1,09,1.0,10.3,M,-32.6,M,,*62
$PYRTM,2024,125.169488123090,16.279135533229
$GPGGA,040402.00,3511.8548,N,12148.7798,W,1,09,1.0,11.1,M,-32.6,M,,*67
$PYRTM,2024,125.169499707801,16.279147117940
$GPGGA,040403.00,3511.8553,N,12148.7801,W,1,09,1.0,12.0,M,-32.6,M,,*61
$PYRTM,2024,125.169511268681,16.279158678819
$GPGGA,040404.00,3511.8556,N,12148.7806,W,1,09,1.0,11.8,M,-32.6,M,,*6F
$PYRTM,2024,125.169521929282,16.279169339421
$GPGGA,040405.00,3511.8556,N,12148.7811,W,1,09,1.0,11.4,M,-32.6,M,,*64
$PYRTM,2024,125.169535009479,16.279182419618
$GPGGA,040406.00,3511.8558,N,12148.7815,W,1,09,1.0,11.2,M,-32.6,M,,*6B
$PYRTM,2024,125.169545641898,16.279193052037
$GPGGA,040407.00,3511.8562,N,12148.7818,W,1,09,1.0,11.1,M,-32.6,M,,*6D
$PYRTM,2024,125.169556754097,16.279204164236
$GPGGA,040408.00,3511.8567,N,12148.7821,W,1,09,1.0,13.8,M,-32.6,M,,*66
$PYRTM,2024,125.169567866181,16.279215276319
$GPGGA,040409.00,3511.8571,N,12148.7826,W,1,09,1.0,13.6,M,-32.6,M,,*69
$PYRTM,2024,125.169579101505,16.279226511644
$GPGGA,040410.00,3511.8573,N,12148.7831,W,1,09,1.0,13.3,M,-32.6,M,,*60
$PYRTM,2024,125.169590232639,16.279237642778
$GPGGA,040411.00,3511.8574,N,12148.7834,W,1,09,1.0,13.4,M,-32.6,M,,*64
$PYRTM,2024,125.169601328889,16.279248739028
$GPGGA,040412.00,3511.8576,N,12148.7837,W,1,09,1.0,12.4,M,-32.6,M,,*67
$PYRTM,2024,125.169612453866,16.279259864016
$GPGGA,040413.00,3511.8582,N,12148.7840,W,1,09,1.0,11.4,M,-32.6,M,,*6E
$PYRTM,2024,125.169623551192,16.279270961331
$GPGGA,040414.00,3511.8585,N,12148.7845,W,1,09,1.0,11.0,M,-32.6,M,,*6F
$PYRTM,2024,125.169638123576,16.279285533715
$GPGGA,040415.00,3511.8586,N,12148.7851,W,1,09,1.0,10.8,M,-32.6,M,,*61
$PYRTM,2024,125.169652588924,16.279299999063
$GPGGA,040416.00,3511.8586,N,12148.7855,W,1,09,1.0,10.8,M,-32.6,M,,*66
$PYRTM,2024,125.169663712639,16.279311122778
$GPGGA,040417.00,3511.8590,N,12148.7857,W,1,09,1.0,10.0,M,-32.6,M,,*6A
$PYRTM,2024,125.169674824039,16.279322234178
$GPGGA,040418.00,3511.8597,N,12148.7858,W,1,09,1.0,10.0,M,-32.6,M,,*6D
$PYRTM,2024,125.169685922523,16.279333332662
$GPGGA,040419.00,3511.8602,N,12148.7862,W,1,09,1.0,10.0,M,-32.6,M,,*6A
$PYRTM,2024,125.169697046539,16.279344456678
$GPGGA,040420.00,3511.8605,N,12148.7868,W,1,09,1.0,9.9,M,-32.6,M,,*5C
$PYRTM,2024,125.169708145000,16.279355555139
$GPGGA,040421.00,3511.8607,N,12148.7876,W,1,09,1.0,10.1,M,-32.6,M,,*60
$PYRTM,2024,125.169719268553,16.279366678692
$GPGGA,040422.00,3511.8611,N,12148.7879,W,1,09,1.0,9.8,M,-32.6,M,,*5A
$PYRTM,2024,125.169730379861,16.279377790000
$GPGGA,040423.00,3511.8621,N,12148.7879,W,1,09,1.0,10.0,M,-32.6,M,,*68
$PYRTM,2024,125.169741615856,16.279389025995
$GPGGA,040424.00,3511.8628,N,12148.7879,W,1,09,1.0,9.9,M,-32.6,M,,*57
$PYRTM,2024,125.169753184931,16.279400595069
$GPGGA,040425.00,3511.8631,N,12148.7884,W,1,09,1.0,11.1,M,-32.6,M,,*6D
$PYRTM,2024,125.169764754873,16.279412165012
$GPGGA,040426.00,3511.8633,N,12148.7892,W,1,10,0.8,11.4,M,-32.6,M,,*6F
$PYRTM,2024,125.169776794352,16.279424204491
$GPGGA,040427.00,3511.8636,N,12148.7899,W,1,10,0.8,10.4,M,-32.6,M,,*61
$PYRTM,2024,125.169787904583,16.279435314722
$GPGGA,040428.00,3511.8641,N,12148.7902,W,1,10,0.8,10.3,M,-32.6,M,,*6A
$PYRTM,2024,125.169799478738,16.279446888877
$GPGGA,040429.00,3511.8645,N,12148.7902,W,1,10,0.8,10.3,M,-32.6,M,,*6F
$PYRTM,2024,125.169811051238,16.279458461377
$GPGGA,040430.00,3511.8648,N,12148.7905,W,1,10,0.8,10.3,M,-32.6,M,,*6D
$PYRTM,2024,125.169822629618,16.279470039757
$GPGGA,040431.00,3511.8649,N,12148.7914,W,1,10,0.8,10.1,M,-32.6,M,,*6F
$PYRTM,2024,125.169834201053,16.279481611192
$GPGGA,040432.00,3511.8651,N,12148.7924,W,1,10,0.8,11.6,M,-32.6,M,,*60
$PYRTM,2024,125.169845773426,16.279493183565
$GPGGA,040433.00,3511.8653,N,12148.7929,W,1,10,0.8,11.5,M,-32.6,M,,*6D
$PYRTM,2024,125.169857347847,16.279504757986
$GPGGA,040434.00,3511.8657,N,12148.7928,W,1,10,0.8,11.0,M,-32.6,M,,*6A
$PYRTM,2024,125.169868926308,16.279516336447
$GPGGA,040435.00,3511.8662,N,12148.7932,W,1,10,0.8,12.5,M,-32.6,M,,*60
$PYRTM,2024,125.169880496470,16.279527906609
$GPGGA,040436.00,3511.8665,N,12148.7941,W,1,10,0.8,11.4,M,-32.6,M,,*62
$PYRTM,2024,125.169892066296,16.279539476435
$GPGGA,040437.00,3511.8667,N,12148.7952,W,1,10,0.8,10.5,M,-32.6,M,,*63
$PYRTM,2024,125.169903644502,16.279551054641
$GPGGA,040438.00,3511.8670,N,12148.7956,W,1,10,0.8,10.2,M,-32.6,M,,*69
$PYRTM,2024,125.169915214375,16.279562624514
$GPGGA,040439.00,3511.8674,N,12148.7955,W,1,10,0.8,9.9,M,-32.6,M,,*5C
$PYRTM,2024,125.169926793426,16.279574203565
$GPGGA,040440.00,3511.8679,N,12148.7958,W,1,10,0.8,8.4,M,-32.6,M,,*5E
$PYRTM,2024,125.169938387014,16.279585797153
$GPGGA,040441.00,3511.8683,N,12148.7965,W,1,10,0.8,9.1,M,-32.6,M,,*50
$PYRTM,2024,125.169949942697,16.279597352836
$GPGGA,040442.00,3511.8685,N,12148.7972,W,1,10,0.8,9.1,M,-32.6,M,,*53
$PYRTM,2024,125.169961524745,16.279608934884
$GPGGA,040443.00,3511.8686,N,12148.7976,W,1,10,0.8,8.8,M,-32.6,M,,*5D
$PYRTM,2024,125.169974711262,16.279622121400
$GPGGA,040444.00,3511.8690,N,12148.7978,W,1,10,0.8,9.2,M,-32.6,M,,*58
$PYRTM,2024,125.169985821609,16.279633231748
$GPGGA,040445.00,3511.8697,N,12148.7982,W,1,10,0.8,8.7,M,-32.6,M,,*5F
$PYRTM,2024,125.169997382697,16.279644792836
$GPGGA,040446.00,3511.8701,N,12148.7986,W,1,10,0.8,8.6,M,-32.6,M,,*57
$PYRTM,2024,125.170008970081,16.279656380220
$GPGGA,040447.00,3511.8703,N,12148.7990,W,1,10,0.8,8.6,M,-32.6,M,,*53
$PYRTM,2024,125.170020531725,16.279667941875
$GPGGA,040448.00,3511.8706,N,12148.7993,W,1,10,0.8,8.5,M,-32.6,M,,*59
$PYRTM,2024,125.170032118935,16.279679529074
$GPGGA,040449.00,3511.8710,N,12148.7999,W,1,10,0.8,7.6,M,-32.6,M,,*59
$PYRTM,2024,125.170043679907,16.279691090046
$GPGGA,040450.00,3511.8715,N,12148.8004,W,1,10,0.8,6.6,M,-32.6,M,,*57
$PYRTM,2024,125.170055261678,16.279702671817
$GPGGA,040451.00,3511.8718,N,12148.8006,W,1,10,0.8,6.5,M,-32.6,M,,*5A
$PYRTM,2024,125.170066828854,16.279714239005
$GPGGA,040452.00,3511.8717,N,12148.8007,W,1,10,0.8,6.4,M,-32.6,M,,*56
$PYRTM,2024,125.170078414560,16.279725824699
$GPGGA,040453.00,3511.8719,N,12148.8011,W,1,10,0.8,6.4,M,-32.6,M,,*5E
$PYRTM,2024,125.170089977049,16.279737387187
$GPGGA,040454.00,3511.8725,N,12148.8016,W,1,10,0.8,7.2,M,-32.6,M,,*56
$PYRTM,2024,125.170101568102,16.279748978252
$GPGGA,040455.00,3511.8731,N,12148.8019,W,1,10,0.8,7.0,M,-32.6,M,,*5F
$PYRTM,2024,125.170113125069,16.279760535208
$GPGGA,040456.00,3511.8735,N,12148.8023,W,1,10,0.8,6.9,M,-32.6,M,,*59
$PYRTM,2024,125.170125046493,16.279772456632
$GPGGA,040457.00,3511.8734,N,12148.8029,W,1,10,0.8,7.0,M,-32.6,M,,*5B
$PYRTM,2024,125.170136273646,16.279783683785
$GPGGA,040458.00,3511.8735,N,12148.8034,W,1,10,0.8,6.9,M,-32.6,M,,*51
$PYRTM,2024,125.170147861273,16.279795271424
$GPGGA,040459.00,3511.8739,N,12148.8036,W,1,10,0.8,7.9,M,-32.6,M,,*5F
$PYRTM,2024,125.170159422211,16.279806832350
$GPGGA,040500.00,3511.8745,N,12148.8038,W,1,10,0.8,8.3,M,-32.6,M,,*52
$PYRTM,2024,125.170171005324,16.279818415463
$GPGGA,040501.00,3511.8749,N,12148.8042,W,1,10,0.8,8.3,M,-32.6,M,,*52
$PYRTM,2024,125.170182568553,16.279829978692
$GPGGA,040502.00,3511.8748,N,12148.8047,W,1,10,0.8,8.3,M,-32.6,M,,*55
$PYRTM,2024,125.170194151424,16.279841561563
$GPGGA,040503.00,3511.8748,N,12148.8053,W,1,09,1.0,8.3,M,-32.6,M,,*50
$PYRTM,2024,125.170205718171,16.279853128310
$GPGGA,040504.00,3511.8752,N,12148.8057,W,1,10,0.8,8.5,M,-32.6,M,,*5F
$PYRTM,2024,125.170217307662,16.279864717801
$GPGGA,040505.00,3511.8761,N,12148.8058,W,1,10,0.8,7.8,M,-32.6,M,,*53
$PYRTM,2024,125.170228865579,16.279876275718
$GPGGA,040506.00,3511.8767,N,12148.8059,W,1,10,0.8,7.7,M,-32.6,M,,*58
$PYRTM,2024,125.170240452407,16.279887862546
$GPGGA,040507.00,3511.8768,N,12148.8064,W,1,10,0.8,7.8,M,-32.6,M,,*57
$PYRTM,2024,125.170252015220,16.279899425359
$GPGGA,040508.00,3511.8768,N,12148.8073,W,1,10,0.8,7.8,M,-32.6,M,,*5E
$PYRTM,2024,125.170263604664,16.279911014803
$GPGGA,040509.00,3511.8771,N,12148.8081,W,1,10,0.8,7.5,M,-32.6,M,,*57
$PYRTM,2024,125.170275165880,16.279922576019
$GPGGA,040510.00,3511.8778,N,12148.8083,W,1,10,0.8,7.2,M,-32.6,M,,*53
$PYRTM,2024,125.170286744387,16.279934154525
$GPGGA,040511.00,3511.8784,N,12148.8084,W,1,10,0.8,7.3,M,-32.6,M,,*57
$PYRTM,2024,125.170298310914,16.279945721053
$GPGGA,040512.00,3511.8787,N,12148.8090,W,1,10,0.8,8.2,M,-32.6,M,,*5C
$PYRTM,2024,125.170309892859,16.279957302998
$GPGGA,040513.00,3511.8789,N,12148.8100,W,1,10,0.8,7.6,M,-32.6,M,,*50
$PYRTM,2024,125.170322500475,16.279969910613
$GPGGA,040514.00,3511.8791,N,12148.8107,W,1,10,0.8,7.5,M,-32.6,M,,*5A
$PYRTM,2024,125.170335233067,16.279982643206
$GPGGA,040515.00,3511.8794,N,12148.8109,W,1,10,0.8,7.5,M,-32.6,M,,*50
$PYRTM,2024,125.170344609167,16.279992019306
$GPGGA,040516.00,3511.8799,N,12148.8110,W,1,10,0.8,7.1,M,-32.6,M,,*52
$PYRTM,2024,125.170356195116,16.280003605255
$GPGGA,040517.00,3511.8803,N,12148.8114,W,1,10,0.8,7.3,M,-32.6,M,,*59
$PYRTM,2024,125.170367757512,16.280015167662
$GPGGA,040518.00,3511.8806,N,12148.8120,W,1,10,0.8,7.5,M,-32.6,M,,*52
$PYRTM,2024,125.170379343438,16.280026753576
$GPGGA,040519.00,3511.8809,N,12148.8125,W,1,10,0.8,7.4,M,-32.6,M,,*58
$PYRTM,2024,125.170390903414,16.280038313565
$GPGGA,040520.00,3511.8810,N,12148.8130,W,1,10,0.8,7.7,M,-32.6,M,,*5D
$PYRTM,2024,125.170402490961,16.280049901100
$GPGGA,040521.00,3511.8814,N,12148.8134,W,1,10,0.8,7.5,M,-32.6,M,,*5E
$PYRTM,2024,125.170414053044,16.280061463183
$GPGGA,040522.00,3511.8820,N,12148.8136,W,1,10,0.8,7.5,M,-32.6,M,,*58
$PYRTM,2024,125.170425652986,16.280073063125
$GPGGA,040523.00,3511.8825,N,12148.8139,W,1,10,0.8,7.5,M,-32.6,M,,*53
$PYRTM,2024,125.170437200556,16.280084610694
$GPGGA,040524.00,3511.8828,N,12148.8142,W,1,10,0.8,7.9,M,-32.6,M,,*59
$PYRTM,2024,125.170448790660,16.280096200799
$GPGGA,040525.00,3511.8832,N,12148.8147,W,1,10,0.8,9.6,M,-32.6,M,,*57
$PYRTM,2024,125.170460348264,16.280107758403
$GPGGA,040526.00,3511.8835,N,12148.8153,W,1,10,0.8,7.5,M,-32.6,M,,*5B
$PYRTM,2024,125.170472272546,16.280119682685
$GPGGA,040527.00,3511.8838,N,12148.8159,W,1,10,0.8,7.3,M,-32.6,M,,*5B
$PYRTM,2024,125.170483497905,16.280130908044
$GPGGA,040528.00,3511.8842,N,12148.8161,W,1,10,0.8,8.7,M,-32.6,M,,*59
$PYRTM,2024,125.170495084167,16.280142494306
$GPGGA,040529.00,3511.8848,N,12148.8162,W,1,10,0.8,8.6,M,-32.6,M,,*50
$PYRTM,2024,125.170506647118,16.280154057257
$GPGGA,040530.00,3511.8853,N,12148.8163,W,1,10,0.8,11.0,M,-32.6,M,,*6D
$PYRTM,2024,125.170518233218,16.280165643356
$GPGGA,040531.00,3511.8857,N,12148.8168,W,1,10,0.8,10.6,M,-32.6,M,,*64
$PYRTM,2024,125.170529792940,16.280177203079
$GPGGA,040532.00,3511.8858,N,12148.8174,W,1,10,0.8,10.2,M,-32.6,M,,*61
$PYRTM,2024,125.170541381933,16.280188792072
$GPGGA,040533.00,3511.8860,N,12148.8179,W,1,10,0.8,10.1,M,-32.6,M,,*65
$PYRTM,2024,125.170553302546,16.280200712685
$GPGGA,040534.00,3511.8864,N,12148.8183,W,1,10,0.8,8.4,M,-32.6,M,,*5F
$PYRTM,2024,125.170564523877,16.280211934016
$GPGGA,040535.00,3511.8869,N,12148.8186,W,1,10,0.8,8.4,M,-32.6,M,,*56
$PYRTM,2024,125.170576090544,16.280223500683
$GPGGA,040536.00,3511.8871,N,12148.8189,W,1,10,0.8,8.5,M,-32.6,M,,*52
$PYRTM,2024,125.170587681169,16.280235091308
$GPGGA,040537.00,3511.8872,N,12148.8196,W,1,10,0.8,10.1,M,-32.6,M,,*63
$PYRTM,2024,125.170599240938,16.280246651076
$GPGGA,040538.00,3511.8874,N,12148.8204,W,1,10,0.8,8.9,M,-32.6,M,,*53
$PYRTM,2024,125.170610829236,16.280258239375
$GPGGA,040539.00,3511.8878,N,12148.8209,W,1,10,0.8,8.4,M,-32.6,M,,*5E
$PYRTM,2024,125.170622386910,16.280269797049
$GPGGA,040540.00,3511.8885,N,12148.8209,W,1,10,0.8,9.5,M,-32.6,M,,*52
$PYRTM,2024,125.170633968600,16.280281378750
$GPGGA,040541.00,3511.8890,N,12148.8210,W,1,10,0.8,11.4,M,-32.6,M,,*67
$PYRTM,2024,125.170645535394,16.280292945532
$GPGGA,040542.00,3511.8892,N,12148.8218,W,1,10,0.8,7.8,M,-32.6,M,,*55
$PYRTM,2024,125.170657122627,16.280304532766
$GPGGA,040543.00,3511.8894,N,12148.8225,W,1,10,0.8,7.9,M,-32.6,M,,*5D
$PYRTM,2024,125.170669723831,16.280317133970
$GPGGA,040544.00,3511.8900,N,12148.8226,W,1,10,0.8,10.7,M,-32.6,M,,*6D
$PYRTM,2024,125.170682456458,16.280329866597
$GPGGA,040545.00,3511.8907,N,12148.8227,W,1,10,0.8,10.5,M,-32.6,M,,*68
$PYRTM,2024,125.170691833310,16.280339243449
$GPGGA,040546.00,3511.8913,N,12148.8232,W,1,10,0.8,10.7,M,-32.6,M,,*68
$PYRTM,2024,125.170703418426,16.280350828565
$GPGGA,040547.00,3511.8915,N,12148.8238,W,1,10,0.8,10.5,M,-32.6,M,,*67
$PYRTM,2024,125.170714979954,16.280362390104
$GPGGA,040548.00,3511.8917,N,12148.8242,W,1,10,0.8,10.2,M,-32.6,M,,*60
$PYRTM,2024,125.170726571817,16.280373981956
$GPGGA,040549.00,3511.8920,N,12148.8246,W,1,10,0.8,9.8,M,-32.6,M,,*53
$PYRTM,2024,125.170738128831,16.280385538970
$GPGGA,040550.00,3511.8923,N,12148.8251,W,1,10,0.8,9.5,M,-32.6,M,,*53
$PYRTM,2024,125.170749718762,16.280397128900
$GPGGA,040551.00,3511.8926,N,12148.8254,W,1,10,0.8,9.4,M,-32.6,M,,*53
$PYRTM,2024,125.170761276551,16.280408686690
$GPGGA,040552.00,3511.8929,N,12148.8258,W,1,10,0.8,9.5,M,-32.6,M,,*52
$PYRTM,2024,125.170772866782,16.280420276921
$GPGGA,040553.00,3511.8932,N,12148.8264,W,1,10,0.8,9.3,M,-32.6,M,,*50
$PYRTM,2024,125.170784426076,16.280431836215
$GPGGA,040554.00,3511.8934,N,12148.8268,W,1,10,0.8,12.3,M,-32.6,M,,*67
$PYRTM,2024,125.170796012164,16.280443422303
$GPGGA,040555.00,3511.8937,N,12148.8273,W,1,10,0.8,9.4,M,-32.6,M,,*52
$PYRTM,2024,125.170807573437,16.280454983576
$GPGGA,040556.00,3511.8942,N,12148.8275,W,1,10,0.8,9.4,M,-32.6,M,,*55
$PYRTM,2024,125.170819495613,16.280466905752
$GPGGA,040557.00,3511.8946,N,12148.8277,W,1,10,0.8,9.6,M,-32.6,M,,*50
$PYRTM,2024,125.170830723727,16.280478133866
$GPGGA,040558.00,3511.8951,N,12148.8281,W,1,10,0.8,9.8,M,-32.6,M,,*5E
$PYRTM,2024,125.170842308854,16.280489718993
$GPGGA,040559.00,3511.8954,N,12148.8287,W,1,10,0.8,9.9,M,-32.6,M,,*5D
$PYRTM,2024,125.170853869537,16.280501279676
$GPGGA,040600.00,3511.8957,N,12148.8292,W,1,10,0.8,10.0,M,-32.6,M,,*64
$PYRTM,2024,125.170865458437,16.280512868576
$GPGGA,040601.00,3511.8961,N,12148.8297,W,1,10,0.8,8.7,M,-32.6,M,,*5B
$PYRTM,2024,125.170877019051,16.280524429190
$GPGGA,040602.00,3511.8966,N,12148.8301,W,1,10,0.8,7.8,M,-32.6,M,,*51
$PYRTM,2024,125.170888605174,16.280536015324
$GPGGA,040603.00,3511.8972,N,12148.8307,W,1,10,0.8,9.8,M,-32.6,M,,*5D
$PYRTM,2024,125.170900166250,16.280547576389
$GPGGA,040604.00,3511.8975,N,12148.8314,W,1,10,0.8,9.6,M,-32.6,M,,*51
$PYRTM,2024,125.170911768588,16.280559178727
$GPGGA,040605.00,3511.8976,N,12148.8319,W,1,09,1.0,9.5,M,-32.6,M,,*5C
$PYRTM,2024,125.170923315069,16.280570725208
$GPGGA,040606.00,3511.8978,N,12148.8322,W,1,10,0.8,9.7,M,-32.6,M,,*5A
$PYRTM,2024,125.170934904803,16.280582314942
$GPGGA,040607.00,3511.8982,N,12148.8327,W,1,10,0.8,10.7,M,-32.6,M,,*63
$PYRTM,2024,125.170946462627,16.280593872778
$GPGGA,040608.00,3511.8984,N,12148.8334,W,1,10,0.8,10.6,M,-32.6,M,,*69
$PYRTM,2024,125.170958044618,16.280605454757
$GPGGA,040609.00,3511.8986,N,12148.8339,W,1,10,0.8,10.4,M,-32.6,M,,*65
$PYRTM,2024,125.170969611528,16.280617021667
$GPGGA,040610.00,3511.8988,N,12148.8340,W,1,10,0.8,10.3,M,-32.6,M,,*6A
$PYRTM,2024,125.170981648414,16.280629058553
$GPGGA,040611.00,3511.8992,N,12148.8337,W,1,10,0.8,10.7,M,-32.6,M,,*64
$PYRTM,2024,125.170992425926,16.280639836076
$GPGGA,040612.00,3511.9000,N,12148.8339,W,1,10,0.8,10.4,M,-32.6,M,,*69
$PYRTM,2024,125.171003535451,16.280650945602
$GPGGA,040613.00,3511.9004,N,12148.8345,W,1,10,0.8,9.8,M,-32.6,M,,*53
$PYRTM,2024,125.171014648657,16.280662058796
$GPGGA,040614.00,3511.9006,N,12148.8352,W,1,10,0.8,9.5,M,-32.6,M,,*5D
$PYRTM,2024,125.171029231377,16.280676641528
$GPGGA,040615.00,3511.9008,N,12148.8356,W,1,10,0.8,9.5,M,-32.6,M,,*56
$PYRTM,2024,125.171040230683,16.280687640833
$GPGGA,040616.00,3511.9014,N,12148.8356,W,1,10,0.8,9.8,M,-32.6,M,,*55
$PYRTM,2024,125.171051338426,16.280698748565
$GPGGA,040617.00,3511.9021,N,12148.8357,W,1,10,0.8,10.7,M,-32.6,M,,*64
$PYRTM,2024,125.171062448831,16.280709858970
$GPGGA,040618.00,3511.9024,N,12148.8362,W,1,10,0.8,9.8,M,-32.6,M,,*5F
$PYRTM,2024,125.171073564664,16.280720974803
$GPGGA,040619.00,3511.9025,N,12148.8370,W,1,10,0.8,8.8,M,-32.6,M,,*5D
$PYRTM,2024,125.171084670868,16.280732081007
$GPGGA,040620.00,3511.9025,N,12148.8378,W,1,10,0.8,8.2,M,-32.6,M,,*55
$PYRTM,2024,125.171095785764,16.280743195914
$GPGGA,040621.00,3511.9028,N,12148.8380,W,1,10,0.8,8.2,M,-32.6,M,,*5E
$PYRTM,2024,125.171107356748,16.280754766887
$GPGGA,040622.00,3511.9033,N,12148.8379,W,1,10,0.8,8.4,M,-32.6,M,,*57
$PYRTM,2024,125.171118929734,16.280766339873
$GPGGA,040623.00,3511.9038,N,12148.8379,W,1,10,0.8,8.3,M,-32.6,M,,*5A
$PYRTM,2024,125.171130967708,16.280778377847
$GPGGA,040624.00,3511.9042,N,12148.8386,W,1,10,0.8,7.7,M,-32.6,M,,*5B
$PYRTM,2024,125.171142078576,16.280789488715
$GPGGA,040625.00,3511.9044,N,12148.8396,W,1,10,0.8,6.4,M,-32.6,M,,*5F
$PYRTM,2024,125.171153652488,16.280801062627
$GPGGA,040626.00,3511.9046,N,12148.8403,W,1,10,0.8,6.0,M,-32.6,M,,*51
$PYRTM,2024,125.171165689560,16.280813099699
$GPGGA,040627.00,3511.9052,N,12148.8403,W,1,10,0.8,7.3,M,-32.6,M,,*57
$PYRTM,2024,125.171176801620,16.280824211759
$GPGGA,040628.00,3511.9060,N,12148.8401,W,1,10,0.8,9.6,M,-32.6,M,,*50
$PYRTM,2024,125.171188375509,16.280835785660
$GPGGA,040629.00,3511.9067,N,12148.8407,W,1,10,0.8,8.2,M,-32.6,M,,*55
$PYRTM,2024,125.171199949549,16.280847359687
$GPGGA,040630.00,3511.9072,N,12148.8417,W,1,10,0.8,7.9,M,-32.6,M,,*5C
$PYRTM,2024,125.171211518472,16.280858928611
$GPGGA,040631.00,3511.9073,N,12148.8424,W,1,10,0.8,6.4,M,-32.6,M,,*50
$PYRTM,2024,125.171223097222,16.280870507361
$GPGGA,040632.00,3511.9076,N,12148.8427,W,1,10,0.8,7.1,M,-32.6,M,,*51
$PYRTM,2024,125.171234675046,16.280882085185
$GPGGA,040633.00,3511.9082,N,12148.8426,W,1,10,0.8,10.4,M,-32.6,M,,*69
$PYRTM,2024,125.171246246644,16.280893656782
$GPGGA,040634.00,3511.9088,N,12148.8430,W,1,10,0.8,10.3,M,-32.6,M,,*64
$PYRTM,2024,125.171257834549,16.280905244687
$GPGGA,040635.00,3511.9091,N,12148.8438,W,1,10,0.8,11.2,M,-32.6,M,,*65
$PYRTM,2024,125.171269393519,16.280916803669
$GPGGA,040636.00,3511.9092,N,12148.8446,W,1,10,0.8,10.9,M,-32.6,M,,*66
$PYRTM,2024,125.171280968287,16.280928378426
$GPGGA,040637.00,3511.9096,N,12148.8450,W,1,10,0.8,11.1,M,-32.6,M,,*6D
$PYRTM,2024,125.171292544178,16.280939954317
$GPGGA,040638.00,3511.9101,N,12148.8451,W,1,10,0.8,11.9,M,-32.6,M,,*64
$PYRTM,2024,125.171304111655,16.280951521794
$GPGGA,040639.00,3511.9106,N,12148.8453,W,1,10,0.8,12.0,M,-32.6,M,,*6A
$PYRTM,2024,125.171315685891,16.280963096030
$GPGGA,040640.00,3511.9107,N,12148.8459,W,1,10,0.8,9.6,M,-32.6,M,,*53
$PYRTM,2024,125.171327264676,16.280974674815
$GPGGA,040641.00,3511.9109,N,12148.8468,W,1,10,0.8,6.7,M,-32.6,M,,*50
$PYRTM,2024,125.171338839051,16.280986249190
$GPGGA,040642.00,3511.9111,N,12148.8473,W,1,10,0.8,6.6,M,-32.6,M,,*51
$PYRTM,2024,125.171350415556,16.280997825694
$GPGGA,040643.00,3511.9116,N,12148.8474,W,1,10,0.8,7.0,M,-32.6,M,,*57
$PYRTM,2024,125.171363133414,16.281010543553
$GPGGA,040644.00,3511.9122,N,12148.8476,W,1,10,0.8,7.1,M,-32.6,M,,*54
$PYRTM,2024,125.171374719792,16.281022129931
$GPGGA,040645.00,3511.9126,N,12148.8480,W,1,10,0.8,7.1,M,-32.6,M,,*58
$PYRTM,2024,125.171386282685,16.281033692836
$GPGGA,040646.00,3511.9129,N,12148.8487,W,1,10,0.8,6.1,M,-32.6,M,,*52
$PYRTM,2024,125.171397853356,16.281045263495
$GPGGA,040647.00,3511.9132,N,12148.8495,W,1,10,0.8,3.9,M,-32.6,M,,*57
$PYRTM,2024,125.171409427593,16.281056837731
$GPGGA,040648.00,3511.9137,N,12148.8499,W,1,10,0.8,3.9,M,-32.6,M,,*51
$PYRTM,2024,125.171421016921,16.281068427060
$GPGGA,040649.00,3511.9143,N,12148.8499,W,1,10,0.8,5.6,M,-32.6,M,,*5A
$PYRTM,2024,125.171432575625,16.281079985764
$GPGGA,040650.00,3511.9148,N,12148.8501,W,1,10,0.8,5.6,M,-32.6,M,,*59
$PYRTM,2024,125.171444176979,16.281091587118
$GPGGA,040651.00,3511.9150,N,12148.8510,W,1,10,0.8,6.3,M,-32.6,M,,*57
$PYRTM,2024,125.171455725509,16.281103135648
$GPGGA,040652.00,3511.9149,N,12148.8522,W,1,10,0.8,5.2,M,-32.6,M,,*5F
$PYRTM,2024,125.171467311111,16.281114721250
$GPGGA,040653.00,3511.9149,N,12148.8530,W,1,10,0.8,5.1,M,-32.6,M,,*5E
$PYRTM,2024,125.171478872847,16.281126282986
$GPGGA,040654.00,3511.9154,N,12148.8530,W,1,10,0.8,6.0,M,-32.6,M,,*57
$PYRTM,2024,125.171490460475,16.281137870613
$GPGGA,040655.00,3511.9162,N,12148.8526,W,1,10,0.8,6.7,M,-32.6,M,,*53
$PYRTM,2024,125.171502022338,16.281149432477
$GPGGA,040656.00,3511.9169,N,12148.8528,W,1,10,0.8,7.6,M,-32.6,M,,*55
$PYRTM,2024,125.171513945972,16.281161356111
$GPGGA,040657.00,3511.9173,N,12148.8536,W,1,10,0.8,6.6,M,-32.6,M,,*51
$PYRTM,2024,125.171525172083,16.281172582234
$GPGGA,040658.00,3511.9174,N,12148.8545,W,1,10,0.8,6.0,M,-32.6,M,,*5B
$PYRTM,2024,125.171536757292,16.281184167442
$GPGGA,040659.00,3511.9177,N,12148.8549,W,1,10,0.8,5.8,M,-32.6,M,,*5E
$PYRTM,2024,125.171548319653,16.281195729792
$GPGGA,040700.00,3511.9184,N,12148.8547,W,1,10,0.8,6.1,M,-32.6,M,,*5B
$PYRTM,2024,125.171559908495,16.281207318634
$GPGGA,040701.00,3511.9192,N,12148.8546,W,1,10,0.8,6.2,M,-32.6,M,,*5F
$PYRTM,2024,125.171571470127,16.281218880266
$GPGGA,040702.00,3511.9197,N,12148.8552,W,1,10,0.8,6.1,M,-32.6,M,,*5F
$PYRTM,2024,125.171583056204,16.281230466343
$GPGGA,040703.00,3511.9198,N,12148.8561,W,1,10,0.8,5.0,M,-32.6,M,,*53
$PYRTM,2024,125.171594615289,16.281242025428
$GPGGA,040704.00,3511.9198,N,12148.8567,W,1,10,0.8,4.9,M,-32.6,M,,*5A
$PYRTM,2024,125.171606215891,16.281253626042
$GPGGA,040705.00,3511.9200,N,12148.8568,W,1,10,0.8,4.9,M,-32.6,M,,*56
$PYRTM,2024,125.171617765081,16.281265175220
$GPGGA,040706.00,3511.9205,N,12148.8570,W,1,10,0.8,7.1,M,-32.6,M,,*52
$PYRTM,2024,125.171629351655,16.281276761806
$GPGGA,040707.00,3511.9211,N,12148.8577,W,1,10,0.8,7.7,M,-32.6,M,,*57
$PYRTM,2024,125.171640911748,16.281288321898
$GPGGA,040708.00,3511.9213,N,12148.8582,W,1,10,0.8,7.7,M,-32.6,M,,*50
$PYRTM,2024,125.171652497917,16.281299908056
$GPGGA,040709.00,3511.9213,N,12148.8584,W,1,10,0.8,7.7,M,-32.6,M,,*57
$PYRTM,2024,125.171664059456,16.281311469595
$GPGGA,040710.00,3511.9214,N,12148.8586,W,1,10,0.8,7.7,M,-32.6,M,,*5A
$PYRTM,2024,125.171675641782,16.281323051921
$GPGGA,040711.00,3511.9217,N,12148.8591,W,1,10,0.8,7.7,M,-32.6,M,,*5E
$PYRTM,2024,125.171687207500,16.281334617639
$GPGGA,040712.00,3511.9222,N,12148.8597,W,1,10,0.8,8.0,M,-32.6,M,,*55
$PYRTM,2024,125.171698793461,16.281346203600
$GPGGA,040713.00,3511.9225,N,12148.8601,W,1,10,0.8,7.9,M,-32.6,M,,*59
$PYRTM,2024,125.171711874352,16.281359284491
$GPGGA,040714.00,3511.9225,N,12148.8602,W,1,10,0.8,7.8,M,-32.6,M,,*5C
$PYRTM,2024,125.171724130475,16.281371540613
$GPGGA,040715.00,3511.9226,N,12148.8604,W,1,10,0.8,7.8,M,-32.6,M,,*58
$PYRTM,2024,125.171733502882,16.281380913021
$GPGGA,040716.00,3511.9229,N,12148.8610,W,1,10,0.8,6.8,M,-32.6,M,,*50
$PYRTM,2024,125.171745095718,16.281392505856
$GPGGA,040717.00,3511.9233,N,12148.8615,W,1,10,0.8,7.6,M,-32.6,M,,*50
$PYRTM,2024,125.171756652650,16.281404062789
$GPGGA,040718.00,3511.9237,N,12148.8618,W,1,10,0.8,7.6,M,-32.6,M,,*56
$PYRTM,2024,125.171768240590,16.281415650729
$GPGGA,040719.00,3511.9238,N,12148.8620,W,1,10,0.8,7.6,M,-32.6,M,,*53
$PYRTM,2024,125.171779802569,16.281427212708
$GPGGA,040720.00,3511.9239,N,12148.8627,W,1,10,0.8,7.7,M,-32.6,M,,*5E
$PYRTM,2024,125.171791383056,16.281438793194
$GPGGA,040721.00,3511.9240,N,12148.8633,W,1,10,0.8,7.7,M,-32.6,M,,*54
$PYRTM,2024,125.171802949525,16.281450359664
$GPGGA,040722.00,3511.9245,N,12148.8636,W,1,10,0.8,7.9,M,-32.6,M,,*59
$PYRTM,2024,125.171814537257,16.281461947396
$GPGGA,040723.00,3511.9252,N,12148.8636,W,1,10,0.8,7.8,M,-32.6,M,,*5F
$PYRTM,2024,125.171826098970,16.281473509109
$GPGGA,040724.00,3511.9256,N,12148.8637,W,1,10,0.8,8.0,M,-32.6,M,,*5A
$PYRTM,2024,125.171837671458,16.281485081597
$GPGGA,040725.00,3511.9257,N,12148.8645,W,1,10,0.8,8.1,M,-32.6,M,,*5E
$PYRTM,2024,125.171849245451,16.281496655590
$GPGGA,040726.00,3511.9258,N,12148.8656,W,1,10,0.8,8.0,M,-32.6,M,,*51
$PYRTM,2024,125.171861167373,16.281508577512
$GPGGA,040727.00,3511.9261,N,12148.8661,W,1,10,0.8,7.8,M,-32.6,M,,*59
$PYRTM,2024,125.171872394398,16.281519804549
$GPGGA,040728.00,3511.9266,N,12148.8661,W,1,10,0.8,7.9,M,-32.6,M,,*50
$PYRTM,2024,125.171883978090,16.281531388229
$GPGGA,040729.00,3511.9272,N,12148.8659,W,1,10,0.8,8.0,M,-32.6,M,,*59
$PYRTM,2024,125.171895542187,16.281542952326
$GPGGA,040730.00,3511.9276,N,12148.8663,W,1,10,0.8,7.9,M,-32.6,M,,*5A
$PYRTM,2024,125.171907143588,16.281554553727
$GPGGA,040731.00,3511.9279,N,12148.8669,W,1,10,0.8,7.5,M,-32.6,M,,*52
$PYRTM,2024,125.171918691910,16.281566102049
$GPGGA,040732.00,3511.9280,N,12148.8674,W,1,10,0.8,7.5,M,-32.6,M,,*5B
$PYRTM,2024,125.171930291563,16.281577701701
$GPGGA,040733.00,3511.9282,N,12148.8677,W,1,10,0.8,7.5,M,-32.6,M,,*5B
$PYRTM,2024,125.171941839352,16.281589249491
$GPGGA,040734.00,3511.9285,N,12148.8680,W,1,10,0.8,7.5,M,-32.6,M,,*53
$PYRTM,2024,125.171953426667,16.281600836806
$GPGGA,040735.00,3511.9289,N,12148.8682,W,1,10,0.8,7.5,M,-32.6,M,,*5C
$PYRTM,2024,125.171964987593,16.281612397731
$GPGGA,040736.00,3511.9293,N,12148.8686,W,1,10,0.8,7.5,M,-32.6,M,,*50
$PYRTM,2024,125.171976575324,16.281623985463
$GPGGA,040737.00,3511.9294,N,12148.8690,W,1,10,0.8,7.5,M,-32.6,M,,*51
$PYRTM,2024,125.171988137407,16.281635547546
$GPGGA,040738.00,3511.9295,N,12148.8696,W,1,10,0.8,7.2,M,-32.6,M,,*5E
$PYRTM,2024,125.171999727975,16.281647138113
$GPGGA,040739.00,3511.9297,N,12148.8701,W,1,10,0.8,6.9,M,-32.6,M,,*58
$PYRTM,2024,125.172011285729,16.281658695880
$GPGGA,040740.00,3511.9303,N,12148.8706,W,1,10,0.8,6.0,M,-32.6,M,,*54
$PYRTM,2024,125.172022862593,16.281670272731
$GPGGA,040741.00,3511.9307,N,12148.8709,W,1,10,0.8,5.8,M,-32.6,M,,*55
$PYRTM,2024,125.172034434491,16.281681844630
$GPGGA,040742.00,3511.9310,N,12148.8713,W,1,10,0.8,5.8,M,-32.6,M,,*5B
$PYRTM,2024,125.172046018715,16.281693428854
$GPGGA,040743.00,3511.9311,N,12148.8719,W,1,10,0.8,7.2,M,-32.6,M,,*59
$PYRTM,2024,125.172058622014,16.281706032153
$GPGGA,040744.00,3511.9314,N,12148.8726,W,1,10,0.8,6.7,M,-32.6,M,,*53
$PYRTM,2024,125.172071237581,16.281718647720
$GPGGA,040745.00,3511.9318,N,12148.8730,W,1,10,0.8,6.8,M,-32.6,M,,*56
$PYRTM,2024,125.172080728715,16.281728138854
$GPGGA,040746.00,3511.9323,N,12148.8732,W,1,10,0.8,6.8,M,-32.6,M,,*5F
$PYRTM,2024,125.172092304028,16.281739714178
$GPGGA,040747.00,3511.9326,N,12148.8737,W,1,10,0.8,5.4,M,-32.6,M,,*51
$PYRTM,2024,125.172103877697,16.281751287836
$GPGGA,040748.00,3511.9326,N,12148.8745,W,1,10,0.8,6.6,M,-32.6,M,,*5A
$PYRTM,2024,125.172115464387,16.281762874525
$GPGGA,040749.00,3511.9327,N,12148.8751,W,1,10,0.8,6.4,M,-32.6,M,,*5D
$PYRTM,2024,125.172127024606,16.281774434745
$GPGGA,040750.00,3511.9330,N,12148.8753,W,1,10,0.8,6.3,M,-32.6,M,,*56
$PYRTM,2024,125.172138616238,16.281786026377
$GPGGA,040751.00,3511.9336,N,12148.8755,W,1,10,0.8,9.5,M,-32.6,M,,*5E
$PYRTM,2024,125.172150173380,16.281797583519
$GPGGA,040752.00,3511.9341,N,12148.8759,W,1,10,0.8,8.5,M,-32.6,M,,*50
$PYRTM,2024,125.172161750000,16.281809160139
$GPGGA,040753.00,3511.9345,N,12148.8765,W,1,10,0.8,8.9,M,-32.6,M,,*56
$PYRTM,2024,125.172173321296,16.281820731435
$GPGGA,040754.00,3511.9344,N,12148.8774,W,1,10,0.8,5.4,M,-32.6,M,,*50
$PYRTM,2024,125.172184908947,16.281832319097
$GPGGA,040755.00,3511.9344,N,12148.8781,W,1,10,0.8,5.6,M,-32.6,M,,*59
$PYRTM,2024,125.172196469560,16.281843879699
$GPGGA,040756.00,3511.9349,N,12148.8782,W,1,10,0.8,9.9,M,-32.6,M,,*57
$PYRTM,2024,125.172208404919,16.281855815058
$GPGGA,040757.00,3511.9357,N,12148.8782,W,1,10,0.8,9.7,M,-32.6,M,,*57
$PYRTM,2024,125.172219618681,16.281867028819
$GPGGA,040758.00,3511.9363,N,12148.8787,W,1,10,0.8,8.5,M,-32.6,M,,*59
$PYRTM,2024,125.172231219606,16.281878629745
$GPGGA,040759.00,3511.9365,N,12148.8794,W,1,10,0.8,8.9,M,-32.6,M,,*50
$PYRTM,2024,125.172242766192,16.281890176331
$GPGGA,040800.00,3511.9366,N,12148.8799,W,1,10,0.8,8.7,M,-32.6,M,,*53
$PYRTM,2024,125.172254368009,16.281901778148
$GPGGA,040801.00,3511.9369,N,12148.8799,W,1,10,0.8,8.7,M,-32.6,M,,*5D
$PYRTM,2024,125.172265916493,16.281913326632
$GPGGA,040802.00,3511.9376,N,12148.8799,W,1,10,0.8,8.4,M,-32.6,M,,*53
$PYRTM,2024,125.172277502824,16.281924912963
$GPGGA,040803.00,3511.9381,N,12148.8801,W,1,10,0.8,8.1,M,-32.6,M,,*51
$PYRTM,2024,125.172289423900,16.281936834039
$GPGGA,040804.00,3511.9384,N,12148.8808,W,1,10,0.8,7.4,M,-32.6,M,,*50
$PYRTM,2024,125.172300638889,16.281948049028
$GPGGA,040805.00,3511.9385,N,12148.8814,W,1,10,0.8,7.3,M,-32.6,M,,*5A
$PYRTM,2024,125.172312211725,16.281959621863
$GPGGA,040806.00,3511.9388,N,12148.8818,W,1,10,0.8,7.2,M,-32.6,M,,*59
$PYRTM,2024,125.172323787025,16.281971197164
$GPGGA,040807.00,3511.9393,N,12148.8822,W,1,10,0.8,7.1,M,-32.6,M,,*58
$PYRTM,2024,125.172335358600,16.281982768738
$GPGGA,040808.00,3511.9397,N,12148.8826,W,1,10,0.8,7.1,M,-32.6,M,,*57
$PYRTM,2024,125.172346947465,16.281994357616
$GPGGA,040809.00,3511.9399,N,12148.8830,W,1,10,0.8,7.1,M,-32.6,M,,*5F
$PYRTM,2024,125.172358508773,16.282005918912
$GPGGA,040810.00,3511.9402,N,12148.8835,W,1,10,0.8,7.1,M,-32.6,M,,*57
$PYRTM,2024,125.172370098553,16.282017508692
$GPGGA,040811.00,3511.9405,N,12148.8841,W,1,10,0.8,6.5,M,-32.6,M,,*57
$PYRTM,2024,125.172381656551,16.282029066690
$GPGGA,040812.00,3511.9409,N,12148.8847,W,1,10,0.8,7.9,M,-32.6,M,,*53
$PYRTM,2024,125.172393247025,16.282040657164
$GPGGA,040813.00,3511.9416,N,12148.8852,W,1,10,0.8,7.7,M,-32.6,M,,*56
$PYRTM,2024,125.172403877766,16.282051287905
$GPGGA,040814.00,3511.9421,N,12148.8854,W,1,10,0.8,7.8,M,-32.6,M,,*5C
$PYRTM,2024,125.172417071007,16.282064481157
$GPGGA,040815.00,3511.9425,N,12148.8859,W,1,10,0.8,7.9,M,-32.6,M,,*55
$PYRTM,2024,125.172428660579,16.282076070718
$GPGGA,040816.00,3511.9428,N,12148.8864,W,1,10,0.8,7.8,M,-32.6,M,,*54
$PYRTM,2024,125.172439761030,16.282087171169
$GPGGA,040817.00,3511.9430,N,12148.8871,W,1,10,0.8,7.8,M,-32.6,M,,*58
$PYRTM,2024,125.172450877488,16.282098287627
$GPGGA,040818.00,3511.9432,N,12148.8875,W,1,10,0.8,7.9,M,-32.6,M,,*50
$PYRTM,2024,125.172461877431,16.282109287569
$GPGGA,040819.00,3511.9436,N,12148.8878,W,1,10,0.8,7.9,M,-32.6,M,,*58
$PYRTM,2024,125.172473002882,16.282120413021
$GPGGA,040820.00,3511.9441,N,12148.8880,W,1,10,0.8,8.0,M,-32.6,M,,*53
$PYRTM,2024,125.172484099919,16.282131510058
$GPGGA,040821.00,3511.9445,N,12148.8883,W,1,10,0.8,8.0,M,-32.6,M,,*55
$PYRTM,2024,125.172495211331,16.282142621470
$GPGGA,040822.00,3511.9447,N,12148.8891,W,1,10,0.8,7.3,M,-32.6,M,,*5B
$PYRTM,2024,125.172506323588,16.282153733727
$GPGGA,040823.00,3511.9449,N,12148.8898,W,1,10,0.8,7.1,M,-32.6,M,,*5F
$PYRTM,2024,125.172517438160,16.282164848299
$GPGGA,040824.00,3511.9453,N,12148.8901,W,1,10,0.8,7.4,M,-32.6,M,,*57
$PYRTM,2024,125.172528443657,16.282175853796
$GPGGA,040825.00,3511.9458,N,12148.8903,W,1,10,0.8,8.7,M,-32.6,M,,*53
$PYRTM,2024,125.172539536782,16.282186946933
$GPGGA,040826.00,3511.9463,N,12148.8907,W,1,10,0.8,9.3,M,-32.6,M,,*59
$PYRTM,2024,125.172550655035,16.282198065174
$GPGGA,040827.00,3511.9467,N,12148.8913,W,1,10,0.8,8.2,M,-32.6,M,,*59
$PYRTM,2024,125.172562212894,16.282209623032
$GPGGA,040828.00,3511.9468,N,12148.8918,W,1,10,0.8,7.9,M,-32.6,M,,*56
$PYRTM,2024,125.172577730150,16.282225140289
$GPGGA,040829.00,3511.9471,N,12148.8922,W,1,10,0.8,7.4,M,-32.6,M,,*5B
$PYRTM,2024,125.172588846285,16.282236256424
$GPGGA,040830.00,3511.9477,N,12148.8925,W,1,10,0.8,8.0,M,-32.6,M,,*59
$PYRTM,2024,125.172599956863,16.282247367014
$GPGGA,040831.00,3511.9480,N,12148.8931,W,1,10,0.8,9.2,M,-32.6,M,,*56
$PYRTM,2024,125.172611068588,16.282258478738
$GPGGA,040832.00,3511.9481,N,12148.8936,W,1,10,0.8,9.0,M,-32.6,M,,*51
$PYRTM,2024,125.172622181782,16.282269591933
$GPGGA,040833.00,3511.9483,N,12148.8939,W,1,10,0.8,9.2,M,-32.6,M,,*5F
$PYRTM,2024,125.172633286632,16.282280696771
$GPGGA,040834.00,3511.9488,N,12148.8939,W,1,10,0.8,5.8,M,-32.6,M,,*55
$PYRTM,2024,125.172644286481,16.282291696620
$GPGGA,040835.00,3511.9492,N,12148.8942,W,1,10,0.8,6.5,M,-32.6,M,,*5D
$PYRTM,2024,125.172655398322,16.282302808461
$GPGGA,040836.00,3511.9493,N,12148.8947,W,1,10,0.8,9.4,M,-32.6,M,,*54
$PYRTM,2024,125.172666512396,16.282313922535
$GPGGA,040837.00,3511.9495,N,12148.8952,W,1,10,0.8,9.4,M,-32.6,M,,*57
