$PYRTM,2024,125.000009027824,16.109656437963
$GPGGA,235959.00,3510.8066,N,12128.5987,W,1,09,1.0,4.8,M,-32.3,M,,*50
$PYRTM,2024,125.000020601354,16.109668011493
$GPGGA,000000.00,3510.8067,N,12128.5989,W,1,09,1.0,4.8,M,-32.3,M,,*5E
$PYRTM,2024,125.000032175602,16.109679585741
$GPGGA,000001.00,3510.8069,N,12128.5988,W,1,09,1.0,4.8,M,-32.3,M,,*50
$PYRTM,2024,125.000043750509,16.109691160648
$GPGGA,000002.00,3510.8071,N,12128.5988,W,1,09,1.0,4.8,M,-32.3,M,,*5A
$PYRTM,2024,125.000055323889,16.109702734028
$GPGGA,000003.00,3510.8073,N,12128.5989,W,1,09,1.0,4.9,M,-32.3,M,,*59
$PYRTM,2024,125.000066902338,16.109714312488
$GPGGA,000004.00,3510.8074,N,12128.5992,W,1,09,1.0,4.9,M,-32.3,M,,*53
$PYRTM,2024,125.000078472500,16.109725882639
$GPGGA,000005.00,3510.8075,N,12128.5994,W,1,09,1.0,4.8,M,-32.3,M,,*54
$PYRTM,2024,125.000090045637,16.109737455775
$GPGGA,000006.00,3510.8077,N,12128.5993,W,1,09,1.0,4.8,M,-32.3,M,,*52
$PYRTM,2024,125.000101620694,16.109749030833
$GPGGA,000007.00,3510.8080,N,12128.5992,W,1,09,1.0,4.8,M,-32.3,M,,*5A
$PYRTM,2024,125.000113195810,16.109760605949
$GPGGA,000008.00,3510.8083,N,12128.5992,W,1,09,1.0,4.8,M,-32.3,M,,*56
$PYRTM,2024,125.000123383669,16.109770793808
$GPGGA,000009.00,3510.8084,N,12128.5995,W,1,09,1.0,4.8,M,-32.3,M,,*57
$PYRTM,2024,125.000135650243,16.109783060382
$GPGGA,000010.00,3510.8085,N,12128.5996,W,1,09,1.0,4.8,M,-32.3,M,,*5D
$PYRTM,2024,125.000147916157,16.109795326296
$GPGGA,000011.00,3510.8088,N,12128.5996,W,1,09,1.0,4.8,M,-32.3,M,,*51
$PYRTM,2024,125.000159491956,16.109806902095
$GPGGA,000012.00,3510.8091,N,12128.5996,W,1,09,1.0,4.8,M,-32.3,M,,*5A
$PYRTM,2024,125.000171066076,16.109818476215
$GPGGA,000013.00,3510.8093,N,12128.5997,W,1,09,1.0,4.8,M,-32.3,M,,*58
$PYRTM,2024,125.000182643681,16.109830053819
$GPGGA,000014.00,3510.8094,N,12128.5999,W,1,09,1.0,4.8,M,-32.3,M,,*56
$PYRTM,2024,125.000194214005,16.109841624144
$GPGGA,000015.00,3510.8095,N,12128.6000,W,1,09,1.0,4.8,M,-32.3,M,,*5C
$PYRTM,2024,125.000205789051,16.109853199190
$GPGGA,000016.00,3510.8098,N,12128.5999,W,1,09,1.0,4.8,M,-32.3,M,,*58
$PYRTM,2024,125.000217365208,16.109864775347
$GPGGA,000017.00,3510.8102,N,12128.5998,W,1,09,1.0,4.8,M,-32.3,M,,*5A
$PYRTM,2024,125.000228936400,16.109876346539
$GPGGA,000018.00,3510.8103,N,12128.6000,W,1,09,1.0,4.7,M,-32.3,M,,*50
$PYRTM,2024,125.000240510058,16.109887920197
$GPGGA,000019.00,3510.8104,N,12128.6003,W,1,09,1.0,4.7,M,-32.3,M,,*55
$PYRTM,2024,125.000252085463,16.109899495602
$GPGGA,000020.00,3510.8106,N,12128.6004,W,1,09,1.0,4.7,M,-32.3,M,,*5A
$PYRTM,2024,125.000263659225,16.109911069363
$GPGGA,000021.00,3510.8109,N,12128.6003,W,1,09,1.0,4.7,M,-32.3,M,,*53
$PYRTM,2024,125.000275235266,16.109922645405
$GPGGA,000022.00,3510.8113,N,12128.6002,W,1,09,1.0,4.7,M,-32.3,M,,*5A
$PYRTM,2024,125.000286806898,16.109934217037
$GPGGA,000023.00,3510.8115,N,12128.6003,W,1,09,1.0,4.6,M,-32.3,M,,*5D
$PYRTM,2024,125.000298384294,16.109945794433
$GPGGA,000024.00,3510.8115,N,12128.6006,W,1,09,1.0,4.6,M,-32.3,M,,*5F
$PYRTM,2024,125.000309943218,16.109957353356
$GPGGA,000025.00,3510.8115,N,12128.6009,W,1,09,1.0,4.6,M,-32.3,M,,*51
$PYRTM,2024,125.000321518970,16.109968929109
$GPGGA,000026.00,3510.8117,N,12128.6008,W,1,09,1.0,4.5,M,-32.3,M,,*52
$PYRTM,2024,125.000333104039,16.109980514178
$GPGGA,000027.00,3510.8120,N,12128.6006,W,1,09,1.0,4.5,M,-32.3,M,,*59
$PYRTM,2024,125.000344677778,16.109992087917
$GPGGA,000028.00,3510.8123,N,12128.6007,W,1,09,1.0,4.5,M,-32.3,M,,*54
$PYRTM,2024,125.000356251910,16.110003662049
$GPGGA,000029.00,3510.8124,N,12128.6010,W,1,09,1.0,4.5,M,-32.3,M,,*54
$PYRTM,2024,125.000367820833,16.110015230972
$GPGGA,000030.00,3510.8126,N,12128.6013,W,1,09,1.0,4.5,M,-32.3,M,,*5D
$PYRTM,2024,125.000379401713,16.110026811852
$GPGGA,000031.00,3510.8128,N,12128.6012,W,1,09,1.0,4.5,M,-32.3,M,,*53
$PYRTM,2024,125.000390978345,16.110038388484
$GPGGA,000032.00,3510.8130,N,12128.6011,W,1,09,1.0,4.5,M,-32.3,M,,*5A
$PYRTM,2024,125.000401621956,16.110049032095
$GPGGA,000033.00,3510.8134,N,12128.6012,W,1,09,1.0,4.5,M,-32.3,M,,*5C
$PYRTM,2024,125.000413655417,16.110061065556
$GPGGA,000034.00,3510.8135,N,12128.6014,W,1,09,1.0,4.5,M,-32.3,M,,*5C
$PYRTM,2024,125.000423387211,16.110070797350
$GPGGA,000035.00,3510.8136,N,12128.6016,W,1,09,1.0,4.5,M,-32.3,M,,*5C
$PYRTM,2024,125.000439918333,16.110087328472
$GPGGA,000036.00,3510.8139,N,12128.6017,W,1,09,1.0,4.5,M,-32.3,M,,*51
$PYRTM,2024,125.000451029005,16.110098439144
$GPGGA,000037.00,3510.8141,N,12128.6017,W,1,09,1.0,4.4,M,-32.3,M,,*5E
$PYRTM,2024,125.000462140972,16.110109551111
$GPGGA,000038.00,3510.8143,N,12128.6015,W,1,09,1.0,4.5,M,-32.3,M,,*50
$PYRTM,2024,125.000473138218,16.110120548356
$GPGGA,000039.00,3510.8145,N,12128.6014,W,1,09,1.0,4.4,M,-32.3,M,,*57
$PYRTM,2024,125.000484248866,16.110131659005
$GPGGA,000040.00,3510.8147,N,12128.6016,W,1,09,1.0,4.4,M,-32.3,M,,*59
$PYRTM,2024,125.000495720174,16.110143130324
$GPGGA,000041.00,3510.8149,N,12128.6020,W,1,09,1.0,4.4,M,-32.3,M,,*53
$PYRTM,2024,125.000506834236,16.110154244375
$GPGGA,000042.00,3510.8149,N,12128.6022,W,1,09,1.0,4.4,M,-32.3,M,,*52
$PYRTM,2024,125.000517942558,16.110165352697
$GPGGA,000043.00,3510.8149,N,12128.6020,W,1,09,1.0,4.4,M,-32.3,M,,*51
$PYRTM,2024,125.000534025336,16.110181435475
$GPGGA,000044.00,3510.8151,N,12128.6017,W,1,09,1.0,4.4,M,-32.3,M,,*5B
$PYRTM,2024,125.000545142049,16.110192552188
$GPGGA,000045.00,3510.8154,N,12128.6016,W,1,09,1.0,4.4,M,-32.3,M,,*5E
$PYRTM,2024,125.000556247280,16.110203657419
$GPGGA,000046.00,3510.8157,N,12128.6018,W,1,09,1.0,4.4,M,-32.3,M,,*50
$PYRTM,2024,125.000567247245,16.110214657384
$GPGGA,000047.00,3510.8158,N,12128.6020,W,1,09,1.0,4.0,M,-32.3,M,,*51
$PYRTM,2024,125.000578346701,16.110225756840
$GPGGA,000048.00,3510.8159,N,12128.6021,W,1,09,1.0,4.0,M,-32.3,M,,*5E
$PYRTM,2024,125.000589470683,16.110236880822
$GPGGA,000049.00,3510.8161,N,12128.6014,W,1,09,1.0,4.1,M,-32.3,M,,*53
$PYRTM,2024,125.000600570162,16.110247980301
$GPGGA,000050.00,3510.8166,N,12128.6008,W,1,09,1.0,4.5,M,-32.3,M,,*55
$PYRTM,2024,125.000611692269,16.110259102407
$GPGGA,000051.00,3510.8169,N,12128.6006,W,1,09,1.0,4.5,M,-32.3,M,,*55
$PYRTM,2024,125.000622804132,16.110270214271
$GPGGA,000052.00,3510.8170,N,12128.6013,W,1,09,1.0,4.0,M,-32.3,M,,*5F
$PYRTM,2024,125.000633799062,16.110281209201
$GPGGA,000053.00,3510.8171,N,12128.6020,W,1,09,1.0,3.9,M,-32.3,M,,*51
$PYRTM,2024,125.000644914745,16.110292324884
$GPGGA,000054.00,3510.8173,N,12128.6021,W,1,09,1.0,4.0,M,-32.3,M,,*5B
$PYRTM,2024,125.000656021296,16.110303431435
$GPGGA,000055.00,3510.8177,N,12128.6018,W,1,09,1.0,3.8,M,-32.3,M,,*5B
$PYRTM,2024,125.000667581562,16.110314991701
$GPGGA,000056.00,3510.8183,N,12128.6016,W,1,09,1.0,3.8,M,-32.3,M,,*5D
$PYRTM,2024,125.000679173912,16.110326584051
$GPGGA,000057.00,3510.8186,N,12128.6020,W,1,09,1.0,3.8,M,-32.3,M,,*5C
$PYRTM,2024,125.000690732118,16.110338142257
$GPGGA,000058.00,3510.8186,N,12128.6025,W,1,09,1.0,3.4,M,-32.3,M,,*5A
$PYRTM,2024,125.000702321759,16.110349731898
$GPGGA,000059.00,3510.8186,N,12128.6028,W,1,09,1.0,3.4,M,-32.3,M,,*56
$PYRTM,2024,125.000713878981,16.110361289120
$GPGGA,000100.00,3510.8188,N,12128.6026,W,1,09,1.0,3.4,M,-32.3,M,,*5B
$PYRTM,2024,125.000725466389,16.110372876528
$GPGGA,000101.00,3510.8192,N,12128.6021,W,1,09,1.0,3.5,M,-32.3,M,,*57
$PYRTM,2024,125.000737074155,16.110384484306
$GPGGA,000102.00,3510.8195,N,12128.6020,W,1,09,1.0,3.5,M,-32.3,M,,*52
$PYRTM,2024,125.000748614861,16.110396025000
$GPGGA,000103.00,3510.8196,N,12128.6026,W,1,09,1.0,3.5,M,-32.3,M,,*56
$PYRTM,2024,125.000760176921,16.110407587072
$GPGGA,000104.00,3510.8196,N,12128.6032,W,1,09,1.0,3.5,M,-32.3,M,,*54
$PYRTM,2024,125.000771763275,16.110419173414
$GPGGA,000105.00,3510.8196,N,12128.6032,W,1,09,1.0,3.5,M,-32.3,M,,*55
$PYRTM,2024,125.000783325174,16.110430735312
$GPGGA,000106.00,3510.8198,N,12128.6026,W,1,09,1.0,2.9,M,-32.3,M,,*50
$PYRTM,2024,125.000794912095,16.110442322245
$GPGGA,000107.00,3510.8201,N,12128.6022,W,1,09,1.0,2.9,M,-32.3,M,,*56
$PYRTM,2024,125.000806471528,16.110453881667
$GPGGA,000108.00,3510.8201,N,12128.6024,W,1,09,1.0,2.9,M,-32.3,M,,*5F
$PYRTM,2024,125.000819216377,16.110466626516
$GPGGA,000109.00,3510.8199,N,12128.6029,W,1,09,1.0,2.3,M,-32.3,M,,*5B
$PYRTM,2024,125.000830795312,16.110478205451
$GPGGA,000110.00,3510.8197,N,12128.6032,W,1,09,1.0,2.3,M,-32.3,M,,*57
$PYRTM,2024,125.000842353715,16.110489763854
$GPGGA,000111.00,3510.8198,N,12128.6030,W,1,09,1.0,2.3,M,-32.3,M,,*5B
$PYRTM,2024,125.000853939248,16.110501349387
$GPGGA,000112.00,3510.8201,N,12128.6026,W,1,09,1.0,2.2,M,-32.3,M,,*5D
$PYRTM,2024,125.000865398171,16.110512808310
$GPGGA,000113.00,3510.8204,N,12128.6024,W,1,09,1.0,2.2,M,-32.3,M,,*5B
$PYRTM,2024,125.000877089722,16.110524499873
$GPGGA,000114.00,3510.8206,N,12128.6029,W,1,09,1.0,2.2,M,-32.3,M,,*53
$PYRTM,2024,125.000888650775,16.110536060914
$GPGGA,000115.00,3510.8206,N,12128.6036,W,1,09,1.0,2.2,M,-32.3,M,,*5C
$PYRTM,2024,125.000900236609,16.110547646748
$GPGGA,000116.00,3510.8206,N,12128.6040,W,1,09,1.0,2.2,M,-32.3,M,,*5E
$PYRTM,2024,125.000911797836,16.110559207975
$GPGGA,000117.00,3510.8209,N,12128.6039,W,1,09,1.0,2.2,M,-32.3,M,,*5E
$PYRTM,2024,125.000923379606,16.110570789745
$GPGGA,000118.00,3510.8212,N,12128.6035,W,1,09,1.0,2.2,M,-32.3,M,,*57
$PYRTM,2024,125.000934958993,16.110582369132
$GPGGA,000119.00,3510.8214,N,12128.6036,W,1,09,1.0,2.2,M,-32.3,M,,*53
$PYRTM,2024,125.000946535532,16.110593945671
$GPGGA,000120.00,3510.8214,N,12128.6040,W,1,09,1.0,2.2,M,-32.3,M,,*58
$PYRTM,2024,125.000958094410,16.110605504549
$GPGGA,000121.00,3510.8215,N,12128.6045,W,1,09,1.0,2.3,M,-32.3,M,,*5C
$PYRTM,2024,125.000969669850,16.110617079988
$GPGGA,000122.00,3510.8217,N,12128.6049,W,1,09,1.0,2.3,M,-32.3,M,,*51
$PYRTM,2024,125.000981255023,16.110628665162
$GPGGA,000123.00,3510.8217,N,12128.6049,W,1,09,1.0,2.3,M,-32.3,M,,*50
$PYRTM,2024,125.000992829236,16.110640239375
$GPGGA,000124.00,3510.8219,N,12128.6048,W,1,09,1.0,2.3,M,-32.3,M,,*58
$PYRTM,2024,125.001004404861,16.110651815000
$GPGGA,000125.00,3510.8221,N,12128.6049,W,1,09,1.0,2.3,M,-32.3,M,,*53
$PYRTM,2024,125.001015977870,16.110663388009
$GPGGA,000126.00,3510.8222,N,12128.6052,W,1,09,1.0,2.3,M,-32.3,M,,*59
$PYRTM,2024,125.001027546956,16.110674957095
$GPGGA,000127.00,3510.8224,N,12128.6054,W,1,09,1.0,2.4,M,-32.3,M,,*5F
$PYRTM,2024,125.001039121574,16.110686531713
$GPGGA,000128.00,3510.8226,N,12128.6056,W,1,09,1.0,2.4,M,-32.3,M,,*50
$PYRTM,2024,125.001050700150,16.110698110289
$GPGGA,000129.00,3510.8228,N,12128.6057,W,1,09,1.0,2.4,M,-32.3,M,,*5E
$PYRTM,2024,125.001062274236,16.110709684375
$GPGGA,000130.00,3510.8229,N,12128.6057,W,1,09,0.8,2.4,M,-32.3,M,,*5E
$PYRTM,2024,125.001073849329,16.110721259468
$GPGGA,000131.00,3510.8229,N,12128.6058,W,1,09,0.8,2.4,M,-32.3,M,,*50
$PYRTM,2024,125.001085426644,16.110732836782
$GPGGA,000132.00,3510.8230,N,12128.6058,W,1,10,0.8,2.4,M,-32.3,M,,*53
$PYRTM,2024,125.001096997234,16.110744407373
$GPGGA,000133.00,3510.8233,N,12128.6057,W,1,10,0.8,2.5,M,-32.3,M,,*5F
$PYRTM,2024,125.001108574699,16.110755984838
$GPGGA,000134.00,3510.8235,N,12128.6058,W,1,10,0.8,2.5,M,-32.3,M,,*51
$PYRTM,2024,125.001120145394,16.110767555532
$GPGGA,000135.00,3510.8235,N,12128.6060,W,1,10,0.8,2.5,M,-32.3,M,,*5B
$PYRTM,2024,125.001131727326,16.110779137477
$GPGGA,000136.00,3510.8235,N,12128.6062,W,1,10,0.8,2.5,M,-32.3,M,,*5A
$PYRTM,2024,125.001143292986,16.110790703125
$GPGGA,000137.00,3510.8237,N,12128.6061,W,1,10,0.8,2.5,M,-32.3,M,,*5A
$PYRTM,2024,125.001154868704,16.110802278843
$GPGGA,000138.00,3510.8239,N,12128.6060,W,1,10,0.8,2.5,M,-32.3,M,,*5A
$PYRTM,2024,125.001165052431,16.110812462581
$GPGGA,000139.00,3510.8242,N,12128.6061,W,1,10,0.8,2.5,M,-32.3,M,,*56
$PYRTM,2024,125.001176845683,16.110824255822
$GPGGA,000140.00,3510.8244,N,12128.6064,W,1,10,0.8,2.5,M,-32.3,M,,*5B
$PYRTM,2024,125.001189584502,16.110836994653
$GPGGA,000141.00,3510.8244,N,12128.6065,W,1,10,0.8,2.5,M,-32.3,M,,*5B
$PYRTM,2024,125.001201163877,16.110848574016
$GPGGA,000142.00,3510.8246,N,12128.6066,W,1,10,0.8,2.5,M,-32.3,M,,*59
$PYRTM,2024,125.001212739977,16.110860150127
$GPGGA,000143.00,3510.8248,N,12128.6064,W,1,10,0.8,2.5,M,-32.3,M,,*54
$PYRTM,2024,125.001224312350,16.110871722488
$GPGGA,000144.00,3510.8250,N,12128.6064,W,1,10,0.8,2.6,M,-32.3,M,,*59
$PYRTM,2024,125.001235885509,16.110883295648
$GPGGA,000145.00,3510.8252,N,12128.6066,W,1,10,0.8,2.6,M,-32.3,M,,*58
$PYRTM,2024,125.001247462940,16.110894873079
$GPGGA,000146.00,3510.8253,N,12128.6070,W,1,10,0.8,2.6,M,-32.3,M,,*5D
$PYRTM,2024,125.001259034421,16.110906444560
$GPGGA,000147.00,3510.8254,N,12128.6072,W,1,10,0.8,2.6,M,-32.3,M,,*59
$PYRTM,2024,125.001270612222,16.110918022373
$GPGGA,000148.00,3510.8256,N,12128.6070,W,1,10,0.8,2.6,M,-32.3,M,,*56
$PYRTM,2024,125.001282182905,16.110929593044
$GPGGA,000149.00,3510.8260,N,12128.6067,W,1,10,0.8,2.6,M,-32.3,M,,*54
$PYRTM,2024,125.001293757245,16.110941167384
$GPGGA,000150.00,3510.8264,N,12128.6069,W,1,10,0.8,2.6,M,-32.3,M,,*56
$PYRTM,2024,125.001305326134,16.110952736273
$GPGGA,000151.00,3510.8265,N,12128.6075,W,1,10,0.8,2.6,M,-32.3,M,,*5B
$PYRTM,2024,125.001316906944,16.110964317083
$GPGGA,000152.00,3510.8265,N,12128.6080,W,1,10,0.8,2.7,M,-32.3,M,,*53
$PYRTM,2024,125.001328478484,16.110975888623
$GPGGA,000153.00,3510.8269,N,12128.6078,W,1,10,0.8,2.5,M,-32.3,M,,*5B
$PYRTM,2024,125.001340057153,16.110987467292
$GPGGA,000154.00,3510.8274,N,12128.6071,W,1,10,0.8,2.6,M,-32.3,M,,*5A
$PYRTM,2024,125.001351628067,16.110999038218
$GPGGA,000155.00,3510.8278,N,12128.6070,W,1,10,0.8,2.6,M,-32.3,M,,*56
$PYRTM,2024,125.001363216192,16.111010626343
$GPGGA,000156.00,3510.8279,N,12128.6074,W,1,10,0.8,2.4,M,-32.3,M,,*52
$PYRTM,2024,125.001374775891,16.111022186030
$GPGGA,000157.00,3510.8280,N,12128.6079,W,1,10,0.8,2.4,M,-32.3,M,,*58
$PYRTM,2024,125.001386351539,16.111033761678
$GPGGA,000158.00,3510.8281,N,12128.6078,W,1,10,0.8,2.4,M,-32.3,M,,*57
$PYRTM,2024,125.001397924942,16.111045335093
$GPGGA,000159.00,3510.8285,N,12128.6074,W,1,10,0.8,2.4,M,-32.3,M,,*5E
$PYRTM,2024,125.001409498553,16.111056908692
$GPGGA,000200.00,3510.8287,N,12128.6074,W,1,10,0.8,2.5,M,-32.3,M,,*52
$PYRTM,2024,125.001421072025,16.111068482164
$GPGGA,000201.00,3510.8289,N,12128.6079,W,1,10,0.8,2.5,M,-32.3,M,,*50
$PYRTM,2024,125.001432651725,16.111080061863
$GPGGA,000202.00,3510.8290,N,12128.6085,W,1,10,0.8,2.5,M,-32.3,M,,*58
$PYRTM,2024,125.001444215729,16.111091625868
$GPGGA,000203.00,3510.8292,N,12128.6086,W,1,10,0.8,2.5,M,-32.3,M,,*58
$PYRTM,2024,125.001455790185,16.111103200324
$GPGGA,000204.00,3510.8295,N,12128.6082,W,1,10,0.8,2.6,M,-32.3,M,,*5F
$PYRTM,2024,125.001467369433,16.111114779572
$GPGGA,000205.00,3510.8298,N,12128.6082,W,1,10,0.8,2.6,M,-32.3,M,,*53
$PYRTM,2024,125.001478944965,16.111126355104
$GPGGA,000206.00,3510.8303,N,12128.6086,W,1,10,0.8,5.1,M,-32.3,M,,*57
$PYRTM,2024,125.001490518264,16.111137928414
$GPGGA,000207.00,3510.8305,N,12128.6092,W,1,10,0.8,5.0,M,-32.3,M,,*54
$PYRTM,2024,125.001502093264,16.111149503403
$GPGGA,000208.00,3510.8308,N,12128.6091,W,1,10,0.8,4.9,M,-32.3,M,,*5D
$PYRTM,2024,125.001512739306,16.111160149444
$GPGGA,000209.00,3510.8311,N,12128.6087,W,1,10,0.8,5.7,M,-32.3,M,,*5C
$PYRTM,2024,125.001524070463,16.111171480602
$GPGGA,000210.00,3510.8315,N,12128.6086,W,1,10,0.8,5.8,M,-32.3,M,,*5E
$PYRTM,2024,125.001536813148,16.111184223287
$GPGGA,000211.00,3510.8317,N,12128.6090,W,1,10,0.8,5.8,M,-32.3,M,,*5A
$PYRTM,2024,125.001548391528,16.111195801678
$GPGGA,000212.00,3510.8317,N,12128.6096,W,1,10,0.8,5.7,M,-32.3,M,,*50
$PYRTM,2024,125.001559961898,16.111207372037
$GPGGA,000213.00,3510.8318,N,12128.6098,W,1,10,0.8,5.9,M,-32.3,M,,*5E
$PYRTM,2024,125.001571531620,16.111218941759
$GPGGA,000214.00,3510.8321,N,12128.6096,W,1,10,0.8,5.8,M,-32.3,M,,*5C
$PYRTM,2024,125.001583104606,16.111230514745
$GPGGA,000215.00,3510.8323,N,12128.6093,W,1,10,0.8,5.9,M,-32.3,M,,*5B
$PYRTM,2024,125.001594687431,16.111242097569
$GPGGA,000216.00,3510.8325,N,12128.6096,W,1,10,0.8,5.9,M,-32.3,M,,*5B
$PYRTM,2024,125.001606258426,16.111253668565
$GPGGA,000217.00,3510.8326,N,12128.6100,W,1,10,0.8,5.9,M,-32.3,M,,*57
$PYRTM,2024,125.001617832361,16.111265242512
$GPGGA,000218.00,3510.8326,N,12128.6103,W,1,10,0.8,5.7,M,-32.3,M,,*55
$PYRTM,2024,125.001629401921,16.111276812060
$GPGGA,000219.00,3510.8328,N,12128.6103,W,1,10,0.8,5.9,M,-32.3,M,,*54
$PYRTM,2024,125.001640981146,16.111288391285
$GPGGA,000220.00,3510.8331,N,12128.6100,W,1,10,0.8,5.9,M,-32.3,M,,*55
$PYRTM,2024,125.001652554039,16.111299964178
$GPGGA,000221.00,3510.8333,N,12128.6099,W,1,10,0.8,5.9,M,-32.3,M,,*57
$PYRTM,2024,125.001664125000,16.111311535139
$GPGGA,000222.00,3510.8333,N,12128.6101,W,1,10,0.8,5.9,M,-32.3,M,,*54
$PYRTM,2024,125.001675703623,16.111323113762
$GPGGA,000223.00,3510.8334,N,12128.6104,W,1,10,0.8,5.8,M,-32.3,M,,*56
$PYRTM,2024,125.001687275787,16.111334685926
$GPGGA,000224.00,3510.8336,N,12128.6106,W,1,10,0.8,5.6,M,-32.3,M,,*5F
$PYRTM,2024,125.001698840926,16.111346251065
$GPGGA,000225.00,3510.8338,N,12128.6104,W,1,10,0.8,5.6,M,-32.3,M,,*52
$PYRTM,2024,125.001710427859,16.111357837998
$GPGGA,000226.00,3510.8341,N,12128.6104,W,1,10,0.8,5.5,M,-32.3,M,,*5C
$PYRTM,2024,125.001722000498,16.111369410637
$GPGGA,000227.00,3510.8343,N,12128.6105,W,1,10,0.8,5.5,M,-32.3,M,,*5E
$PYRTM,2024,125.001733576863,16.111380987002
$GPGGA,000228.00,3510.8344,N,12128.6109,W,1,10,0.8,5.5,M,-32.3,M,,*5A
$PYRTM,2024,125.001745143275,16.111392553426
$GPGGA,000229.00,3510.8344,N,12128.6111,W,1,10,0.8,5.4,M,-32.3,M,,*53
$PYRTM,2024,125.001756710035,16.111404120174
$GPGGA,000230.00,3510.8345,N,12128.6111,W,1,10,0.8,5.3,M,-32.3,M,,*5D
$PYRTM,2024,125.001768290949,16.111415701088
$GPGGA,000231.00,3510.8348,N,12128.6110,W,1,10,0.8,5.3,M,-32.3,M,,*50
$PYRTM,2024,125.001779870266,16.111427280405
$GPGGA,000232.00,3510.8349,N,12128.6110,W,1,10,0.8,5.3,M,-32.3,M,,*52
$PYRTM,2024,125.001791444479,16.111438854618
$GPGGA,000233.00,3510.8349,N,12128.6112,W,1,10,0.8,5.3,M,-32.3,M,,*51
$PYRTM,2024,125.001803021343,16.111450431481
$GPGGA,000234.00,3510.8350,N,12128.6115,W,1,10,0.8,5.3,M,-32.3,M,,*59
$PYRTM,2024,125.001814580417,16.111461990556
$GPGGA,000235.00,3510.8353,N,12128.6115,W,1,10,0.8,5.3,M,-32.3,M,,*5B
$PYRTM,2024,125.001826162141,16.111473572280
$GPGGA,000236.00,3510.8356,N,12128.6114,W,1,10,0.8,5.3,M,-32.3,M,,*5C
$PYRTM,2024,125.001837736007,16.111485146146
$GPGGA,000237.00,3510.8358,N,12128.6113,W,1,10,0.8,5.2,M,-32.3,M,,*55
$PYRTM,2024,125.001848390706,16.111495800845
$GPGGA,000238.00,3510.8359,N,12128.6115,W,1,10,0.8,5.3,M,-32.3,M,,*5C
$PYRTM,2024,125.001862513854,16.111509923993
$GPGGA,000239.00,3510.8360,N,12128.6117,W,1,10,0.8,5.3,M,-32.3,M,,*55
$PYRTM,2024,125.001873146111,16.111520556250
$GPGGA,000240.00,3510.8362,N,12128.6119,W,1,10,0.8,5.2,M,-32.3,M,,*56
$PYRTM,2024,125.001884728461,16.111532138600
$GPGGA,000241.00,3510.8364,N,12128.6118,W,1,10,0.8,5.2,M,-32.3,M,,*50
$PYRTM,2024,125.001895845347,16.111543255486
$GPGGA,000242.00,3510.8366,N,12128.6116,W,1,10,0.8,5.1,M,-32.3,M,,*5C
$PYRTM,2024,125.001906955301,16.111554365440
$GPGGA,000243.00,3510.8367,N,12128.6117,W,1,10,0.8,5.1,M,-32.3,M,,*5D
$PYRTM,2024,125.001917950162,16.111565360301
$GPGGA,000244.00,3510.8368,N,12128.6121,W,1,10,0.8,5.1,M,-32.3,M,,*50
$PYRTM,2024,125.001929061215,16.111576471354
$GPGGA,000245.00,3510.8368,N,12128.6124,W,1,10,0.8,5.1,M,-32.3,M,,*54
$PYRTM,2024,125.001940172025,16.111587582164
$GPGGA,000246.00,3510.8370,N,12128.6125,W,1,10,0.8,5.0,M,-32.3,M,,*5E
$PYRTM,2024,125.001951287199,16.111598697338
$GPGGA,000247.00,3510.8374,N,12128.6122,W,1,10,0.8,5.0,M,-32.3,M,,*5C
$PYRTM,2024,125.001962395162,16.111609805301
$GPGGA,000248.00,3510.8376,N,12128.6121,W,1,10,0.8,5.0,M,-32.3,M,,*52
$PYRTM,2024,125.001973509907,16.111620920046
$GPGGA,000249.00,3510.8376,N,12128.6122,W,1,10,0.8,5.1,M,-32.3,M,,*51
$PYRTM,2024,125.001984501030,16.111631911169
$GPGGA,000250.00,3510.8378,N,12128.6124,W,1,10,0.8,5.1,M,-32.3,M,,*51
$PYRTM,2024,125.001995612164,16.111643022303
$GPGGA,000251.00,3510.8380,N,12128.6125,W,1,10,0.8,5.0,M,-32.3,M,,*57
$PYRTM,2024,125.002006738773,16.111654148912
$GPGGA,000252.00,3510.8382,N,12128.6125,W,1,10,0.8,5.0,M,-32.3,M,,*56
$PYRTM,2024,125.002023508426,16.111670918565
$GPGGA,000253.00,3510.8384,N,12128.6124,W,1,10,0.8,5.0,M,-32.3,M,,*50
$PYRTM,2024,125.002034619965,16.111682030104
$GPGGA,000254.00,3510.8385,N,12128.6123,W,1,10,0.8,5.0,M,-32.3,M,,*51
$PYRTM,2024,125.002045612917,16.111693023056
$GPGGA,000255.00,3510.8387,N,12128.6126,W,1,10,0.8,4.9,M,-32.3,M,,*5F
$PYRTM,2024,125.002056726782,16.111704136921
$GPGGA,000256.00,3510.8390,N,12128.6129,W,1,10,0.8,4.8,M,-32.3,M,,*54
$PYRTM,2024,125.002067834572,16.111715244722
$GPGGA,000257.00,3510.8391,N,12128.6130,W,1,10,0.8,4.7,M,-32.3,M,,*53
$PYRTM,2024,125.002078941238,16.111726351377
$GPGGA,000258.00,3510.8393,N,12128.6129,W,1,10,0.8,4.7,M,-32.3,M,,*56
$PYRTM,2024,125.002090526701,16.111737936840
$GPGGA,000259.00,3510.8396,N,12128.6126,W,1,10,0.8,4.7,M,-32.3,M,,*5D
$PYRTM,2024,125.002101516840,16.111748926979
$GPGGA,000300.00,3510.8398,N,12128.6125,W,1,10,0.8,4.7,M,-32.3,M,,*5D
$PYRTM,2024,125.002112627627,16.111760037766
$GPGGA,000301.00,3510.8399,N,12128.6128,W,1,10,0.8,4.7,M,-32.3,M,,*50
$PYRTM,2024,125.002123737361,16.111771147500
$GPGGA,000302.00,3510.8401,N,12128.6130,W,1,10,0.8,4.6,M,-32.3,M,,*5D
$PYRTM,2024,125.002134849514,16.111782259653
$GPGGA,000303.00,3510.8404,N,12128.6130,W,1,10,0.8,4.6,M,-32.3,M,,*59
$PYRTM,2024,125.002145960752,16.111793370891
$GPGGA,000304.00,3510.8407,N,12128.6127,W,1,10,0.8,4.5,M,-32.3,M,,*58
$PYRTM,2024,125.002157066481,16.111804476620
$GPGGA,000305.00,3510.8410,N,12128.6125,W,1,10,0.8,4.6,M,-32.3,M,,*5E
$PYRTM,2024,125.002170961157,16.111818371296
$GPGGA,000306.00,3510.8412,N,12128.6127,W,1,10,0.8,4.5,M,-32.3,M,,*5E
$PYRTM,2024,125.002183804282,16.111831214421
$GPGGA,000307.00,3510.8413,N,12128.6130,W,1,10,0.8,4.6,M,-32.3,M,,*5B
$PYRTM,2024,125.002195368796,16.111842778935
$GPGGA,000308.00,3510.8415,N,12128.6133,W,1,10,0.8,4.6,M,-32.3,M,,*51
$PYRTM,2024,125.002208100116,16.111855510255
$GPGGA,000309.00,3510.8417,N,12128.6132,W,1,10,0.8,4.5,M,-32.3,M,,*50
$PYRTM,2024,125.002219690313,16.111867100451
$GPGGA,000310.00,3510.8420,N,12128.6129,W,1,10,0.8,4.4,M,-32.3,M,,*57
$PYRTM,2024,125.002231261644,16.111878671782
$GPGGA,000311.00,3510.8422,N,12128.6127,W,1,10,0.8,4.4,M,-32.3,M,,*5A
$PYRTM,2024,125.002242836250,16.111890246389
$GPGGA,000312.00,3510.8423,N,12128.6129,W,1,10,0.8,4.4,M,-32.3,M,,*56
$PYRTM,2024,125.002254409514,16.111901819664
$GPGGA,000313.00,3510.8426,N,12128.6130,W,1,10,0.8,4.3,M,-32.3,M,,*5D
$PYRTM,2024,125.002265972106,16.111913382245
$GPGGA,000314.00,3510.8429,N,12128.6131,W,1,10,0.8,4.5,M,-32.3,M,,*52
$PYRTM,2024,125.002277558391,16.111924968542
$GPGGA,000315.00,3510.8430,N,12128.6130,W,1,10,0.8,4.5,M,-32.3,M,,*5A
$PYRTM,2024,125.002289132581,16.111936542720
$GPGGA,000316.00,3510.8433,N,12128.6129,W,1,10,0.8,4.4,M,-32.3,M,,*53
$PYRTM,2024,125.002300706424,16.111948116563
$GPGGA,000317.00,3510.8437,N,12128.6129,W,1,10,0.8,4.4,M,-32.3,M,,*56
$PYRTM,2024,125.002312281007,16.111959691146
$GPGGA,000318.00,3510.8440,N,12128.6131,W,1,10,0.8,4.3,M,-32.3,M,,*57
$PYRTM,2024,125.002323843044,16.111971253183
$GPGGA,000319.00,3510.8440,N,12128.6133,W,1,10,0.8,4.3,M,-32.3,M,,*54
$PYRTM,2024,125.002335433391,16.111982843530
$GPGGA,000320.00,3510.8441,N,12128.6132,W,1,10,0.8,4.3,M,-32.3,M,,*5E
$PYRTM,2024,125.002346888704,16.111994298843
$GPGGA,000321.00,3510.8446,N,12128.6131,W,1,10,0.8,3.8,M,-32.3,M,,*57
$PYRTM,2024,125.002358446979,16.112005857118
$GPGGA,000322.00,3510.8451,N,12128.6131,W,1,10,0.8,3.8,M,-32.3,M,,*52
$PYRTM,2024,125.002370031829,16.112017441968
$GPGGA,000323.00,3510.8453,N,12128.6133,W,1,10,0.8,3.8,M,-32.3,M,,*53
$PYRTM,2024,125.002381596979,16.112029007118
$GPGGA,000324.00,3510.8453,N,12128.6136,W,1,10,0.8,3.8,M,-32.3,M,,*51
$PYRTM,2024,125.002393185602,16.112040595741
$GPGGA,000325.00,3510.8454,N,12128.6136,W,1,10,0.8,3.8,M,-32.3,M,,*57
$PYRTM,2024,125.002404744873,16.112052155012
$GPGGA,000326.00,3510.8459,N,12128.6133,W,1,10,0.8,3.4,M,-32.3,M,,*50
$PYRTM,2024,125.002416332014,16.112063742153
$GPGGA,000327.00,3510.8465,N,12128.6130,W,1,10,0.8,3.5,M,-32.3,M,,*5C
$PYRTM,2024,125.002427892963,16.112075303102
$GPGGA,000328.00,3510.8468,N,12128.6133,W,1,10,0.8,3.4,M,-32.3,M,,*5C
$PYRTM,2024,125.002439481319,16.112086891458
$GPGGA,000329.00,3510.8470,N,12128.6136,W,1,10,0.8,3.4,M,-32.3,M,,*51
$PYRTM,2024,125.002451041215,16.112098451354
$GPGGA,000330.00,3510.8471,N,12128.6136,W,1,10,0.8,3.4,M,-32.3,M,,*58
$PYRTM,2024,125.002462629444,16.112110039595
$GPGGA,000331.00,3510.8474,N,12128.6135,W,1,10,0.8,3.4,M,-32.3,M,,*5F
$PYRTM,2024,125.002474188981,16.112121599120
$GPGGA,000332.00,3510.8477,N,12128.6134,W,1,10,0.8,3.4,M,-32.3,M,,*5E
$PYRTM,2024,125.002485776192,16.112133186331
$GPGGA,000333.00,3510.8479,N,12128.6135,W,1,10,0.8,3.3,M,-32.3,M,,*57
$PYRTM,2024,125.002497339051,16.112144749190
$GPGGA,000334.00,3510.8481,N,12128.6138,W,1,10,0.8,3.3,M,-32.3,M,,*5A
$PYRTM,2024,125.002508926609,16.112156336759
$GPGGA,000335.00,3510.8481,N,12128.6139,W,1,10,0.8,3.3,M,-32.3,M,,*5A
$PYRTM,2024,125.002520486435,16.112167896574
$GPGGA,000336.00,3510.8483,N,12128.6139,W,1,10,0.8,3.3,M,-32.3,M,,*5B
$PYRTM,2024,125.002532073125,16.112179483264
$GPGGA,000337.00,3510.8486,N,12128.6137,W,1,10,0.8,3.3,M,-32.3,M,,*51
$PYRTM,2024,125.002543632662,16.112191042801
$GPGGA,000338.00,3510.8488,N,12128.6136,W,1,10,0.8,3.3,M,-32.3,M,,*51
$PYRTM,2024,125.002553948565,16.112201358704
$GPGGA,000339.00,3510.8488,N,12128.6135,W,1,10,0.8,3.3,M,-32.3,M,,*53
$PYRTM,2024,125.002565742303,16.112213152442
$GPGGA,000340.00,3510.8489,N,12128.6133,W,1,10,0.8,3.3,M,-32.3,M,,*5A
$PYRTM,2024,125.002578370324,16.112225780463
$GPGGA,000341.00,3510.8493,N,12128.6133,W,1,10,0.8,3.3,M,-32.3,M,,*50
$PYRTM,2024,125.002589930938,16.112237341076
$GPGGA,000342.00,3510.8497,N,12128.6135,W,1,10,0.8,3.3,M,-32.3,M,,*51
$PYRTM,2024,125.002601518194,16.112248928333
$GPGGA,000343.00,3510.8499,N,12128.6137,W,1,10,0.8,3.3,M,-32.3,M,,*5C
$PYRTM,2024,125.002613077569,16.112260487708
$GPGGA,000344.00,3510.8501,N,12128.6137,W,1,10,0.8,3.3,M,-32.3,M,,*5B
$PYRTM,2024,125.002624666539,16.112272076678
$GPGGA,000345.00,3510.8503,N,12128.6134,W,1,10,0.8,3.3,M,-32.3,M,,*5B
$PYRTM,2024,125.002636227130,16.112283637269
$GPGGA,000346.00,3510.8507,N,12128.6133,W,1,10,0.8,3.3,M,-32.3,M,,*5B
$PYRTM,2024,125.002647929850,16.112295339988
$GPGGA,000347.00,3510.8510,N,12128.6135,W,1,10,0.8,3.3,M,-32.3,M,,*5A
$PYRTM,2024,125.002659504549,16.112306914688
$GPGGA,000348.00,3510.8512,N,12128.6138,W,1,10,0.8,3.3,M,-32.3,M,,*5A
$PYRTM,2024,125.002671078264,16.112318488403
$GPGGA,000349.00,3510.8514,N,12128.6140,W,1,10,0.8,3.3,M,-32.3,M,,*52
$PYRTM,2024,125.002682641215,16.112330051354
$GPGGA,000350.00,3510.8515,N,12128.6138,W,1,10,0.8,3.3,M,-32.3,M,,*54
$PYRTM,2024,125.002694226215,16.112341636354
$GPGGA,000351.00,3510.8517,N,12128.6135,W,1,10,0.8,3.3,M,-32.3,M,,*5A
$PYRTM,2024,125.002705801076,16.112353211215
$GPGGA,000352.00,3510.8519,N,12128.6134,W,1,10,0.8,3.3,M,-32.3,M,,*56
$PYRTM,2024,125.002717375162,16.112364785301
$GPGGA,000353.00,3510.8522,N,12128.6136,W,1,10,0.8,3.3,M,-32.3,M,,*5D
$PYRTM,2024,125.002728949583,16.112376359722
$GPGGA,000354.00,3510.8524,N,12128.6139,W,1,10,0.8,3.3,M,-32.3,M,,*53
$PYRTM,2024,125.002740523553,16.112387933692
$GPGGA,000355.00,3510.8525,N,12128.6141,W,1,10,0.8,3.3,M,-32.3,M,,*5C
$PYRTM,2024,125.002752112350,16.112399522488
$GPGGA,000356.00,3510.8527,N,12128.6139,W,1,10,0.8,3.2,M,-32.3,M,,*53
$PYRTM,2024,125.002763671262,16.112411081400
$GPGGA,000357.00,3510.8530,N,12128.6134,W,1,10,0.8,3.3,M,-32.3,M,,*58
$PYRTM,2024,125.002775249317,16.112422659456
$GPGGA,000358.00,3510.8533,N,12128.6132,W,1,10,0.8,3.3,M,-32.3,M,,*52
$PYRTM,2024,125.002786820845,16.112434230984
$GPGGA,000359.00,3510.8535,N,12128.6136,W,1,10,0.8,3.3,M,-32.3,M,,*51
$PYRTM,2024,125.002798408125,16.112445818264
$GPGGA,000400.00,3510.8535,N,12128.6141,W,1,10,0.8,3.2,M,-32.3,M,,*5B
$PYRTM,2024,125.002809967199,16.112457377338
$GPGGA,000401.00,3510.8536,N,12128.6142,W,1,10,0.8,3.2,M,-32.3,M,,*5A
$PYRTM,2024,125.002821412685,16.112468822824
$GPGGA,000402.00,3510.8540,N,12128.6135,W,1,10,0.8,2.8,M,-32.3,M,,*53
$PYRTM,2024,125.002833000428,16.112480410567
$GPGGA,000403.00,3510.8544,N,12128.6128,W,1,10,0.8,2.8,M,-32.3,M,,*5A
$PYRTM,2024,125.002844561806,16.112491971944
$GPGGA,000404.00,3510.8546,N,12128.6127,W,1,10,0.8,2.9,M,-32.3,M,,*51
$PYRTM,2024,125.002856164317,16.112503574456
$GPGGA,000405.00,3510.8547,N,12128.6130,W,1,10,0.8,2.9,M,-32.3,M,,*57
$PYRTM,2024,125.002867709572,16.112515119711
$GPGGA,000406.00,3510.8547,N,12128.6135,W,1,10,0.8,3.0,M,-32.3,M,,*59
$PYRTM,2024,125.002879302558,16.112526712697
$GPGGA,000407.00,3510.8549,N,12128.6134,W,1,10,0.8,3.0,M,-32.3,M,,*57
$PYRTM,2024,125.002890858993,16.112538269132
$GPGGA,000408.00,3510.8553,N,12128.6129,W,1,10,0.8,3.0,M,-32.3,M,,*5F
$PYRTM,2024,125.002901158345,16.112548568484
$GPGGA,000409.00,3510.8555,N,12128.6124,W,1,10,0.8,3.0,M,-32.3,M,,*55
$PYRTM,2024,125.002912966053,16.112560376192
$GPGGA,000410.00,3510.8557,N,12128.6124,W,1,10,0.8,3.0,M,-32.3,M,,*5F
$PYRTM,2024,125.002925593507,16.112573003646
$GPGGA,000411.00,3510.8559,N,12128.6128,W,1,10,0.8,3.5,M,-32.3,M,,*59
$PYRTM,2024,125.002937154699,16.112584564838
$GPGGA,000412.00,3510.8560,N,12128.6133,W,1,10,0.8,3.5,M,-32.3,M,,*5A
$PYRTM,2024,125.002948856725,16.112596266863
$GPGGA,000413.00,3510.8562,N,12128.6133,W,1,10,0.8,3.6,M,-32.3,M,,*5A
$PYRTM,2024,125.002960303287,16.112607713426
$GPGGA,000414.00,3510.8567,N,12128.6130,W,1,10,0.8,3.4,M,-32.3,M,,*59
$PYRTM,2024,125.002971889838,16.112619299988
$GPGGA,000415.00,3510.8571,N,12128.6126,W,1,10,0.8,3.5,M,-32.3,M,,*59
$PYRTM,2024,125.002983451354,16.112630861493
$GPGGA,000416.00,3510.8573,N,12128.6126,W,1,10,0.8,3.5,M,-32.3,M,,*58
$PYRTM,2024,125.002995038044,16.112642448183
$GPGGA,000417.00,3510.8575,N,12128.6130,W,1,10,0.8,3.3,M,-32.3,M,,*5E
$PYRTM,2024,125.003006714664,16.112654124803
$GPGGA,000418.00,3510.8576,N,12128.6134,W,1,10,0.8,3.1,M,-32.3,M,,*54
$PYRTM,2024,125.003018301771,16.112665711898
$GPGGA,000419.00,3510.8578,N,12128.6135,W,1,10,0.8,3.1,M,-32.3,M,,*5A
$PYRTM,2024,125.003029863368,16.112677273507
$GPGGA,000420.00,3510.8581,N,12128.6133,W,1,10,0.8,3.2,M,-32.3,M,,*53
$PYRTM,2024,125.003041450683,16.112688860822
$GPGGA,000421.00,3510.8583,N,12128.6130,W,1,10,0.8,3.3,M,-32.3,M,,*52
$PYRTM,2024,125.003053010845,16.112700420984
$GPGGA,000422.00,3510.8586,N,12128.6131,W,1,10,0.8,3.4,M,-32.3,M,,*52
$PYRTM,2024,125.003064598796,16.112712008935
$GPGGA,000423.00,3510.8588,N,12128.6136,W,1,10,0.8,3.5,M,-32.3,M,,*5B
$PYRTM,2024,125.003076159201,16.112723569340
$GPGGA,000424.00,3510.8589,N,12128.6139,W,1,10,0.8,3.5,M,-32.3,M,,*52
$PYRTM,2024,125.003087746829,16.112735156968
$GPGGA,000425.00,3510.8591,N,12128.6138,W,1,10,0.8,3.4,M,-32.3,M,,*5A
$PYRTM,2024,125.003099306921,16.112746717060
$GPGGA,000426.00,3510.8594,N,12128.6134,W,1,10,0.8,3.5,M,-32.3,M,,*51
$PYRTM,2024,125.003110895648,16.112758305787
$GPGGA,000427.00,3510.8596,N,12128.6132,W,1,10,0.8,3.5,M,-32.3,M,,*54
$PYRTM,2024,125.003122455255,16.112769865394
$GPGGA,000428.00,3510.8598,N,12128.6134,W,1,10,0.8,3.5,M,-32.3,M,,*53
$PYRTM,2024,125.003134032257,16.112781442396
$GPGGA,000429.00,3510.8598,N,12128.6139,W,1,10,0.8,3.6,M,-32.3,M,,*5C
$PYRTM,2024,125.003145604653,16.112793014792
$GPGGA,000430.00,3510.8599,N,12128.6141,W,1,10,0.8,3.5,M,-32.3,M,,*59
$PYRTM,2024,125.003157191470,16.112804601609
$GPGGA,000431.00,3510.8604,N,12128.6136,W,1,10,0.8,4.1,M,-32.3,M,,*5C
$PYRTM,2024,125.003168754421,16.112816164560
$GPGGA,000432.00,3510.8607,N,12128.6129,W,1,10,0.8,4.0,M,-32.3,M,,*53
$PYRTM,2024,125.003180340787,16.112827750926
$GPGGA,000433.00,3510.8609,N,12128.6128,W,1,10,0.8,4.0,M,-32.3,M,,*5D
$PYRTM,2024,125.003191900521,16.112839310671
$GPGGA,000434.00,3510.8610,N,12128.6129,W,1,10,0.8,4.2,M,-32.3,M,,*51
$PYRTM,2024,125.003203487986,16.112850898125
$GPGGA,000435.00,3510.8613,N,12128.6129,W,1,10,0.8,4.2,M,-32.3,M,,*53
$PYRTM,2024,125.003215048437,16.112862458576
$GPGGA,000436.00,3510.8616,N,12128.6128,W,1,10,0.8,4.2,M,-32.3,M,,*54
$PYRTM,2024,125.003226636655,16.112874046794
$GPGGA,000437.00,3510.8618,N,12128.6125,W,1,10,0.8,4.2,M,-32.3,M,,*56
$PYRTM,2024,125.003238196458,16.112885606597
$GPGGA,000438.00,3510.8618,N,12128.6125,W,1,10,0.8,4.2,M,-32.3,M,,*59
$PYRTM,2024,125.003248859363,16.112896269502
$GPGGA,000439.00,3510.8620,N,12128.6126,W,1,10,0.8,4.2,M,-32.3,M,,*50
$PYRTM,2024,125.003260189155,16.112907599294
$GPGGA,000440.00,3510.8623,N,12128.6125,W,1,10,0.8,4.2,M,-32.3,M,,*5E
$PYRTM,2024,125.003272930752,16.112920340891
$GPGGA,000441.00,3510.8625,N,12128.6124,W,1,10,0.8,4.2,M,-32.3,M,,*58
$PYRTM,2024,125.003284492801,16.112931902940
$GPGGA,000442.00,3510.8628,N,12128.6126,W,1,10,0.8,4.2,M,-32.3,M,,*54
$PYRTM,2024,125.003295154954,16.112942565093
$GPGGA,000443.00,3510.8629,N,12128.6129,W,1,10,0.8,4.3,M,-32.3,M,,*5A
$PYRTM,2024,125.003308118935,16.112955529074
$GPGGA,000444.00,3510.8631,N,12128.6131,W,1,10,0.8,4.3,M,-32.3,M,,*5D
$PYRTM,2024,125.003318882280,16.112966292419
$GPGGA,000445.00,3510.8634,N,12128.6131,W,1,10,0.8,4.2,M,-32.3,M,,*58
$PYRTM,2024,125.003329863542,16.112977273681
$GPGGA,000446.00,3510.8636,N,12128.6129,W,1,10,0.8,4.3,M,-32.3,M,,*51
$PYRTM,2024,125.003340976319,16.112988386458
$GPGGA,000447.00,3510.8638,N,12128.6129,W,1,10,0.8,4.3,M,-32.3,M,,*5E
$PYRTM,2024,125.003352086991,16.112999497130
$GPGGA,000448.00,3510.8639,N,12128.6132,W,1,10,0.8,4.3,M,-32.3,M,,*5A
$PYRTM,2024,125.003363200046,16.113010610185
$GPGGA,000449.00,3510.8640,N,12128.6135,W,1,10,0.8,4.3,M,-32.3,M,,*52
$PYRTM,2024,125.003374308356,16.113021718495
$GPGGA,000450.00,3510.8643,N,12128.6134,W,1,10,0.8,4.3,M,-32.3,M,,*58
$PYRTM,2024,125.003385419120,16.113032829259
$GPGGA,000451.00,3510.8645,N,12128.6130,W,1,10,0.8,4.3,M,-32.3,M,,*5B
$PYRTM,2024,125.003396417245,16.113043827384
$GPGGA,000452.00,3510.8648,N,12128.6126,W,1,10,0.8,4.3,M,-32.3,M,,*52
$PYRTM,2024,125.003407528472,16.113054938611
$GPGGA,000453.00,3510.8650,N,12128.6128,W,1,10,0.8,4.3,M,-32.3,M,,*54
$PYRTM,2024,125.003418638356,16.113066048495
$GPGGA,000454.00,3510.8651,N,12128.6133,W,1,10,0.8,4.3,M,-32.3,M,,*58
$PYRTM,2024,125.003436116134,16.113083526273
$GPGGA,000455.00,3510.8651,N,12128.6133,W,1,10,0.8,4.3,M,-32.3,M,,*59
$PYRTM,2024,125.003447119618,16.113094529757
$GPGGA,000456.00,3510.8653,N,12128.6129,W,1,10,0.8,4.7,M,-32.3,M,,*57
$PYRTM,2024,125.003458114606,16.113105524745
$GPGGA,000457.00,3510.8655,N,12128.6124,W,1,10,0.8,4.7,M,-32.3,M,,*5D
$PYRTM,2024,125.003469115301,16.113116525440
$GPGGA,000458.00,3510.8658,N,12128.6124,W,1,10,0.8,4.7,M,-32.3,M,,*5F
$PYRTM,2024,125.003480111400,16.113127521539
$GPGGA,000459.00,3510.8658,N,12128.6129,W,1,10,0.8,4.8,M,-32.3,M,,*5C
$PYRTM,2024,125.003491120648,16.113138530787
$GPGGA,000500.00,3510.8657,N,12128.6133,W,1,10,0.8,4.7,M,-32.3,M,,*5A
$PYRTM,2024,125.003502088391,16.113149498542
$GPGGA,000501.00,3510.8659,N,12128.6133,W,1,10,0.8,4.7,M,-32.3,M,,*55
$PYRTM,2024,125.003513084780,16.113160494919
$GPGGA,000502.00,3510.8663,N,12128.6128,W,1,10,0.8,4.3,M,-32.3,M,,*51
$PYRTM,2024,125.003524080382,16.113171490521
$GPGGA,000503.00,3510.8667,N,12128.6124,W,1,10,0.8,4.3,M,-32.3,M,,*58
$PYRTM,2024,125.003535089387,16.113182499525
$GPGGA,000504.00,3510.8669,N,12128.6126,W,1,10,0.8,4.3,M,-32.3,M,,*53
$PYRTM,2024,125.003546083472,16.113193493611
$GPGGA,000505.00,3510.8670,N,12128.6130,W,1,10,0.8,4.4,M,-32.3,M,,*5A
$PYRTM,2024,125.003563432789,16.113210842928
$GPGGA,000506.00,3510.8672,N,12128.6133,W,1,10,0.8,4.4,M,-32.3,M,,*58
$PYRTM,2024,125.003576754444,16.113224164595
$GPGGA,000507.00,3510.8675,N,12128.6132,W,1,10,0.8,3.7,M,-32.3,M,,*5B
$PYRTM,2024,125.003588791968,16.113236202106
$GPGGA,000508.00,3510.8679,N,12128.6128,W,1,10,0.8,3.7,M,-32.3,M,,*53
$PYRTM,2024,125.003600931262,16.113248341400
$GPGGA,000509.00,3510.8681,N,12128.6126,W,1,10,0.8,3.7,M,-32.3,M,,*5B
$PYRTM,2024,125.003612047164,16.113259457303
$GPGGA,000510.00,3510.8681,N,12128.6129,W,1,10,0.8,3.7,M,-32.3,M,,*5C
$PYRTM,2024,125.003623385289,16.113270795428
$GPGGA,000511.00,3510.8683,N,12128.6134,W,1,10,0.8,3.7,M,-32.3,M,,*53
$PYRTM,2024,125.003634385197,16.113281795347
$GPGGA,000512.00,3510.8685,N,12128.6135,W,1,10,0.8,3.7,M,-32.3,M,,*57
$PYRTM,2024,125.003645492303,16.113292902454
$GPGGA,000513.00,3510.8688,N,12128.6131,W,1,10,0.8,3.7,M,-32.3,M,,*5F
$PYRTM,2024,125.003656488588,16.113303898727
$GPGGA,000514.00,3510.8691,N,12128.6127,W,1,10,0.8,3.7,M,-32.3,M,,*57
$PYRTM,2024,125.003667484444,16.113314894583
$GPGGA,000515.00,3510.8693,N,12128.6128,W,1,10,0.8,3.7,M,-32.3,M,,*5B
$PYRTM,2024,125.003678491898,16.113325902037
$GPGGA,000516.00,3510.8694,N,12128.6132,W,1,10,0.8,3.7,M,-32.3,M,,*54
$PYRTM,2024,125.003689602211,16.113337012350
$GPGGA,000517.00,3510.8695,N,12128.6134,W,1,10,0.8,3.7,M,-32.3,M,,*52
$PYRTM,2024,125.003701047917,16.113348458067
$GPGGA,000518.00,3510.8696,N,12128.6129,W,1,10,0.8,3.3,M,-32.3,M,,*56
$PYRTM,2024,125.003712637118,16.113360047269
$GPGGA,000519.00,3510.8698,N,12128.6124,W,1,10,0.8,3.3,M,-32.3,M,,*54
$PYRTM,2024,125.003724196181,16.113371606319
$GPGGA,000520.00,3510.8700,N,12128.6122,W,1,10,0.8,3.3,M,-32.3,M,,*58
$PYRTM,2024,125.003735783125,16.113383193264
$GPGGA,000521.00,3510.8701,N,12128.6125,W,1,10,0.8,3.4,M,-32.3,M,,*58
$PYRTM,2024,125.003747344560,16.113394754699
$GPGGA,000522.00,3510.8702,N,12128.6130,W,1,10,0.8,3.4,M,-32.3,M,,*5C
$PYRTM,2024,125.003758934734,16.113406344873
$GPGGA,000523.00,3510.8703,N,12128.6129,W,1,10,0.8,3.4,M,-32.3,M,,*54
$PYRTM,2024,125.003770492512,16.113417902650
$GPGGA,000524.00,3510.8708,N,12128.6121,W,1,10,0.8,5.4,M,-32.3,M,,*56
$PYRTM,2024,125.003782095417,16.113429505556
$GPGGA,000525.00,3510.8714,N,12128.6117,W,1,10,0.8,5.4,M,-32.3,M,,*5F
$PYRTM,2024,125.003793642650,16.113441052789
$GPGGA,000526.00,3510.8718,N,12128.6118,W,1,10,0.8,5.4,M,-32.3,M,,*5F
$PYRTM,2024,125.003805229977,16.113452640116
$GPGGA,000527.00,3510.8720,N,12128.6122,W,1,10,0.8,5.4,M,-32.3,M,,*5C
$PYRTM,2024,125.003816789641,16.113464199780
$GPGGA,000528.00,3510.8721,N,12128.6122,W,1,10,0.8,5.4,M,-32.3,M,,*52
$PYRTM,2024,125.003828377697,16.113475787836
$GPGGA,000529.00,3510.8724,N,12128.6117,W,1,10,0.8,5.4,M,-32.3,M,,*50
$PYRTM,2024,125.003839939213,16.113487349352
$GPGGA,000530.00,3510.8728,N,12128.6114,W,1,10,0.8,5.4,M,-32.3,M,,*57
$PYRTM,2024,125.003851523912,16.113498934051
$GPGGA,000531.00,3510.8730,N,12128.6116,W,1,10,0.8,5.5,M,-32.3,M,,*5C
$PYRTM,2024,125.003863086285,16.113510496424
$GPGGA,000532.00,3510.8730,N,12128.6120,W,1,10,0.8,5.4,M,-32.3,M,,*5B
$PYRTM,2024,125.003874672731,16.113522082882
$GPGGA,000533.00,3510.8730,N,12128.6122,W,1,10,0.8,5.4,M,-32.3,M,,*58
$PYRTM,2024,125.003886233796,16.113533643935
$GPGGA,000534.00,3510.8733,N,12128.6118,W,1,10,0.8,5.6,M,-32.3,M,,*57
$PYRTM,2024,125.003897821852,16.113545231991
$GPGGA,000535.00,3510.8736,N,12128.6114,W,1,10,0.8,5.6,M,-32.3,M,,*5F
$PYRTM,2024,125.003909382674,16.113556792812
$GPGGA,000536.00,3510.8739,N,12128.6114,W,1,10,0.8,5.5,M,-32.3,M,,*50
$PYRTM,2024,125.003920972917,16.113568383067
$GPGGA,000537.00,3510.8743,N,12128.6120,W,1,10,0.8,6.3,M,-32.3,M,,*5E
$PYRTM,2024,125.003932529988,16.113579940127
$GPGGA,000538.00,3510.8747,N,12128.6125,W,1,10,0.8,6.3,M,-32.3,M,,*50
$PYRTM,2024,125.003942830440,16.113590240590
$GPGGA,000539.00,3510.8751,N,12128.6124,W,1,10,0.8,6.4,M,-32.3,M,,*50
$PYRTM,2024,125.003954637257,16.113602047407
$GPGGA,000540.00,3510.8755,N,12128.6118,W,1,10,0.8,6.6,M,-32.3,M,,*57
$PYRTM,2024,125.003967270220,16.113614680359
$GPGGA,000541.00,3510.8760,N,12128.6113,W,1,10,0.8,6.6,M,-32.3,M,,*5B
$PYRTM,2024,125.003978828380,16.113626238519
$GPGGA,000542.00,3510.8763,N,12128.6115,W,1,10,0.8,6.6,M,-32.3,M,,*5D
$PYRTM,2024,125.003990529931,16.113637940069
$GPGGA,000543.00,3510.8764,N,12128.6120,W,1,10,0.8,6.8,M,-32.3,M,,*53
$PYRTM,2024,125.004002091262,16.113649501412
$GPGGA,000544.00,3510.8766,N,12128.6123,W,1,10,0.8,6.8,M,-32.3,M,,*55
$PYRTM,2024,125.004013563762,16.113660973912
$GPGGA,000545.00,3510.8770,N,12128.6119,W,1,10,0.8,9.7,M,-32.3,M,,*5A
$PYRTM,2024,125.004025124271,16.113672534410
$GPGGA,000546.00,3510.8776,N,12128.6112,W,1,10,0.8,9.7,M,-32.3,M,,*54
$PYRTM,2024,125.004036713461,16.113684123600
$GPGGA,000547.00,3510.8779,N,12128.6111,W,1,10,0.8,9.8,M,-32.3,M,,*56
$PYRTM,2024,125.004048273275,16.113695683414
$GPGGA,000548.00,3510.8781,N,12128.6115,W,1,10,0.8,9.8,M,-32.3,M,,*5A
$PYRTM,2024,125.004059859884,16.113707270023
$GPGGA,000549.00,3510.8783,N,12128.6119,W,1,10,0.8,9.8,M,-32.3,M,,*55
$PYRTM,2024,125.004071534664,16.113718944803
$GPGGA,000550.00,3510.8785,N,12128.6123,W,1,10,0.8,9.8,M,-32.3,M,,*52
$PYRTM,2024,125.004083124155,16.113730534294
$GPGGA,000551.00,3510.8787,N,12128.6123,W,1,10,0.8,9.9,M,-32.3,M,,*50
$PYRTM,2024,125.004094682245,16.113742092384
$GPGGA,000552.00,3510.8790,N,12128.6120,W,1,10,0.8,9.9,M,-32.3,M,,*56
$PYRTM,2024,125.004106270532,16.113753680671
$GPGGA,000553.00,3510.8792,N,12128.6118,W,1,10,0.8,9.9,M,-32.3,M,,*5E
$PYRTM,2024,125.004117832488,16.113765242627
$GPGGA,000554.00,3510.8793,N,12128.6118,W,1,10,0.8,9.9,M,-32.3,M,,*58
$PYRTM,2024,125.004129420000,16.113776830139
$GPGGA,000555.00,3510.8795,N,12128.6119,W,1,10,0.8,9.9,M,-32.3,M,,*5E
$PYRTM,2024,125.004140979780,16.113788389931
$GPGGA,000556.00,3510.8796,N,12128.6121,W,1,10,0.8,9.8,M,-32.3,M,,*54
$PYRTM,2024,125.004152568437,16.113799978576
$GPGGA,000557.00,3510.8798,N,12128.6122,W,1,10,0.8,9.8,M,-32.3,M,,*58
$PYRTM,2024,125.004164127465,16.113811537604
$GPGGA,000558.00,3510.8799,N,12128.6122,W,1,10,0.8,9.8,M,-32.3,M,,*56
$PYRTM,2024,125.004175716551,16.113823126701
$GPGGA,000559.00,3510.8802,N,12128.6120,W,1,10,0.8,9.9,M,-32.3,M,,*59
$PYRTM,2024,125.004187275289,16.113834685428
$GPGGA,000600.00,3510.8804,N,12128.6119,W,1,10,0.8,9.9,M,-32.3,M,,*5A
$PYRTM,2024,125.004198860023,16.113846270162
$GPGGA,000601.00,3510.8806,N,12128.6121,W,1,10,0.8,9.9,M,-32.3,M,,*52
$PYRTM,2024,125.004210424063,16.113857834213
$GPGGA,000602.00,3510.8807,N,12128.6124,W,1,10,0.8,9.9,M,-32.3,M,,*55
$PYRTM,2024,125.004222012546,16.113869422685
$GPGGA,000603.00,3510.8808,N,12128.6127,W,1,10,0.8,9.9,M,-32.3,M,,*58
$PYRTM,2024,125.004233574664,16.113880984803
$GPGGA,000604.00,3510.8810,N,12128.6123,W,1,10,0.8,11.2,M,-32.3,M,,*60
$PYRTM,2024,125.004245046296,16.113892456435
$GPGGA,000605.00,3510.8815,N,12128.6116,W,1,10,0.8,10.8,M,-32.3,M,,*69
$PYRTM,2024,125.004256607188,16.113904017326
$GPGGA,000606.00,3510.8819,N,12128.6113,W,1,10,0.8,10.8,M,-32.3,M,,*63
$PYRTM,2024,125.004268196644,16.113915606782
$GPGGA,000607.00,3510.8821,N,12128.6115,W,1,10,0.8,10.8,M,-32.3,M,,*6F
$PYRTM,2024,125.004279754664,16.113927164815
$GPGGA,000608.00,3510.8821,N,12128.6121,W,1,10,0.8,10.8,M,-32.3,M,,*67
$PYRTM,2024,125.004290054861,16.113937465000
$GPGGA,000609.00,3510.8822,N,12128.6122,W,1,10,0.8,10.8,M,-32.3,M,,*66
$PYRTM,2024,125.004301861308,16.113949271447
$GPGGA,000610.00,3510.8826,N,12128.6118,W,1,10,0.8,11.8,M,-32.3,M,,*62
$PYRTM,2024,125.004314490613,16.113961900752
$GPGGA,000611.00,3510.8829,N,12128.6113,W,1,10,0.8,11.8,M,-32.3,M,,*67
$PYRTM,2024,125.004326052685,16.113973462824
$GPGGA,000612.00,3510.8829,N,12128.6114,W,1,10,0.8,11.8,M,-32.3,M,,*63
$PYRTM,2024,125.004337639907,16.113985050046
$GPGGA,000613.00,3510.8828,N,12128.6119,W,1,10,0.8,11.8,M,-32.3,M,,*6E
$PYRTM,2024,125.004349200544,16.113996610694
$GPGGA,000614.00,3510.8829,N,12128.6122,W,1,10,0.8,11.8,M,-32.3,M,,*60
$PYRTM,2024,125.004360786713,16.114008196852
$GPGGA,000615.00,3510.8831,N,12128.6121,W,1,10,0.8,11.8,M,-32.3,M,,*6B
$PYRTM,2024,125.004372348299,16.114019758438
$GPGGA,000616.00,3510.8833,N,12128.6118,W,1,10,0.8,11.8,M,-32.3,M,,*60
$PYRTM,2024,125.004383934317,16.114031344456
$GPGGA,000617.00,3510.8834,N,12128.6118,W,1,10,0.8,11.8,M,-32.3,M,,*66
$PYRTM,2024,125.004395497002,16.114042907141
$GPGGA,000618.00,3510.8835,N,12128.6121,W,1,10,0.8,11.8,M,-32.3,M,,*62
$PYRTM,2024,125.004407086493,16.114054496632
$GPGGA,000619.00,3510.8837,N,12128.6122,W,1,10,0.8,11.8,M,-32.3,M,,*62
$PYRTM,2024,125.004418645868,16.114066056007
$GPGGA,000620.00,3510.8839,N,12128.6123,W,1,10,0.8,11.8,M,-32.3,M,,*67
$PYRTM,2024,125.004430235324,16.114077645463
$GPGGA,000621.00,3510.8841,N,12128.6123,W,1,10,0.8,11.9,M,-32.3,M,,*68
$PYRTM,2024,125.004441793403,16.114089203553
$GPGGA,000622.00,3510.8841,N,12128.6124,W,1,10,0.8,11.8,M,-32.3,M,,*6D
$PYRTM,2024,125.004453490903,16.114100901042
$GPGGA,000623.00,3510.8842,N,12128.6125,W,1,10,0.8,11.8,M,-32.3,M,,*6E
$PYRTM,2024,125.004465055162,16.114112465301
$GPGGA,000624.00,3510.8843,N,12128.6125,W,1,10,0.8,11.8,M,-32.3,M,,*68
$PYRTM,2024,125.004476644062,16.114124054201
$GPGGA,000625.00,3510.8845,N,12128.6124,W,1,10,0.8,11.8,M,-32.3,M,,*6E
$PYRTM,2024,125.004488203623,16.114135613762
$GPGGA,000626.00,3510.8846,N,12128.6126,W,1,10,0.8,11.8,M,-32.3,M,,*6C
$PYRTM,2024,125.004499792627,16.114147202766
$GPGGA,000627.00,3510.8844,N,12128.6129,W,1,10,0.8,11.9,M,-32.3,M,,*61
$PYRTM,2024,125.004511351944,16.114158762083
$GPGGA,000628.00,3510.8843,N,12128.6132,W,1,10,0.8,11.9,M,-32.3,M,,*63
$PYRTM,2024,125.004522941007,16.114170351146
$GPGGA,000629.00,3510.8845,N,12128.6130,W,1,10,0.8,11.9,M,-32.3,M,,*66
$PYRTM,2024,125.004534500579,16.114181910718
$GPGGA,000630.00,3510.8847,N,12128.6127,W,1,10,0.8,11.9,M,-32.3,M,,*6A
$PYRTM,2024,125.004546089167,16.114193499306
$GPGGA,000631.00,3510.8849,N,12128.6126,W,1,10,0.8,11.9,M,-32.3,M,,*64
$PYRTM,2024,125.004557649190,16.114205059329
$GPGGA,000632.00,3510.8848,N,12128.6129,W,1,10,0.8,12.3,M,-32.3,M,,*60
$PYRTM,2024,125.004569237118,16.114216647257
$GPGGA,000633.00,3510.8847,N,12128.6133,W,1,10,0.8,12.3,M,-32.3,M,,*65
$PYRTM,2024,125.004580795903,16.114228206042
$GPGGA,000634.00,3510.8848,N,12128.6134,W,1,10,0.8,12.4,M,-32.3,M,,*6D
$PYRTM,2024,125.004592387569,16.114239797708
$GPGGA,000635.00,3510.8849,N,12128.6128,W,1,10,0.8,12.4,M,-32.3,M,,*60
$PYRTM,2024,125.004603944780,16.114251354919
$GPGGA,000636.00,3510.8853,N,12128.6122,W,1,10,0.8,13.2,M,-32.3,M,,*65
$PYRTM,2024,125.004615528935,16.114262939086
$GPGGA,000637.00,3510.8854,N,12128.6123,W,1,10,0.8,13.0,M,-32.3,M,,*60
$PYRTM,2024,125.004627093472,16.114274503611
$GPGGA,000638.00,3510.8853,N,12128.6131,W,1,10,0.8,12.8,M,-32.3,M,,*62
$PYRTM,2024,125.004637279282,16.114284689421
$GPGGA,000639.00,3510.8851,N,12128.6136,W,1,10,0.8,12.5,M,-32.3,M,,*6B
$PYRTM,2024,125.004649085729,16.114296495868
$GPGGA,000640.00,3510.8850,N,12128.6135,W,1,10,0.8,12.5,M,-32.3,M,,*67
$PYRTM,2024,125.004661832245,16.114309242384
$GPGGA,000641.00,3510.8853,N,12128.6129,W,1,10,0.8,13.0,M,-32.3,M,,*6C
$PYRTM,2024,125.004673390081,16.114320800220
$GPGGA,000642.00,3510.8857,N,12128.6127,W,1,10,0.8,13.0,M,-32.3,M,,*65
$PYRTM,2024,125.004684978403,16.114332388542
$GPGGA,000643.00,3510.8860,N,12128.6131,W,1,10,0.8,13.0,M,-32.3,M,,*67
$PYRTM,2024,125.004696537859,16.114343947998
$GPGGA,000644.00,3510.8860,N,12128.6136,W,1,10,0.8,13.0,M,-32.3,M,,*67
$PYRTM,2024,125.004708126157,16.114355536296
$GPGGA,000645.00,3510.8861,N,12128.6138,W,1,10,0.8,13.0,M,-32.3,M,,*69
$PYRTM,2024,125.004719687801,16.114367097940
$GPGGA,000646.00,3510.8863,N,12128.6136,W,1,10,0.8,13.0,M,-32.3,M,,*66
$PYRTM,2024,125.004731274502,16.114378684641
$GPGGA,000647.00,3510.8865,N,12128.6134,W,1,10,0.8,13.0,M,-32.3,M,,*63
$PYRTM,2024,125.004741908148,16.114389318287
$GPGGA,000648.00,3510.8867,N,12128.6134,W,1,10,0.8,13.0,M,-32.3,M,,*6E
$PYRTM,2024,125.004753944491,16.114401354630
$GPGGA,000649.00,3510.8868,N,12128.6136,W,1,10,0.8,13.0,M,-32.3,M,,*62
$PYRTM,2024,125.004764718553,16.114412128704
$GPGGA,000650.00,3510.8870,N,12128.6137,W,1,10,0.8,13.0,M,-32.3,M,,*62
$PYRTM,2024,125.004775718843,16.114423128981
$GPGGA,000651.00,3510.8871,N,12128.6138,W,1,10,0.8,13.0,M,-32.3,M,,*6D
$PYRTM,2024,125.004790290856,16.114437700995
$GPGGA,000652.00,3510.8873,N,12128.6137,W,1,10,0.8,13.0,M,-32.3,M,,*63
$PYRTM,2024,125.004802339664,16.114449749803
$GPGGA,000653.00,3510.8874,N,12128.6138,W,1,10,0.8,13.0,M,-32.3,M,,*6A
$PYRTM,2024,125.004813439282,16.114460849421
$GPGGA,000654.00,3510.8875,N,12128.6139,W,1,10,0.8,13.0,M,-32.3,M,,*6D
$PYRTM,2024,125.004824562083,16.114471972222
$GPGGA,000655.00,3510.8877,N,12128.6140,W,1,10,0.8,13.0,M,-32.3,M,,*60
$PYRTM,2024,125.004847016539,16.114494426678
$GPGGA,000656.00,3510.8878,N,12128.6138,W,1,10,0.8,13.0,M,-32.3,M,,*63
$PYRTM,2024,125.004858127095,16.114505537234
$GPGGA,000657.00,3510.8879,N,12128.6137,W,1,10,0.8,12.9,M,-32.3,M,,*64
$PYRTM,2024,125.004869237743,16.114516647894
$GPGGA,000658.00,3510.8880,N,12128.6138,W,1,10,0.8,12.9,M,-32.3,M,,*62
$PYRTM,2024,125.004880352141,16.114527762280
$GPGGA,000659.00,3510.8880,N,12128.6142,W,1,10,0.8,12.9,M,-32.3,M,,*6E
$PYRTM,2024,125.004891460000,16.114538870139
$GPGGA,000700.00,3510.8881,N,12128.6142,W,1,10,0.8,12.9,M,-32.3,M,,*62
$PYRTM,2024,125.004902572037,16.114549982176
$GPGGA,000701.00,3510.8884,N,12128.6138,W,1,10,0.8,12.9,M,-32.3,M,,*6B
$PYRTM,2024,125.004913683692,16.114561093831
$GPGGA,000702.00,3510.8888,N,12128.6137,W,1,10,0.8,12.9,M,-32.3,M,,*6B
$PYRTM,2024,125.004924788611,16.114572198750
$GPGGA,000703.00,3510.8889,N,12128.6139,W,1,10,0.8,12.9,M,-32.3,M,,*65
$PYRTM,2024,125.004935906181,16.114583316319
$GPGGA,000704.00,3510.8889,N,12128.6143,W,1,10,0.8,12.9,M,-32.3,M,,*6F
$PYRTM,2024,125.004947016910,16.114594427049
$GPGGA,000705.00,3510.8891,N,12128.6144,W,1,10,0.8,13.0,M,-32.3,M,,*68
$PYRTM,2024,125.004958128229,16.114605538380
$GPGGA,000706.00,3510.8895,N,12128.6142,W,1,10,0.8,13.0,M,-32.3,M,,*69
$PYRTM,2024,125.004969240370,16.114616650509
$GPGGA,000707.00,3510.8897,N,12128.6141,W,1,10,0.8,13.0,M,-32.3,M,,*69
$PYRTM,2024,125.004980350289,16.114627760428
$GPGGA,000708.00,3510.8898,N,12128.6142,W,1,10,0.8,13.0,M,-32.3,M,,*6A
$PYRTM,2024,125.004990536262,16.114637946412
$GPGGA,000709.00,3510.8897,N,12128.6145,W,1,10,0.8,13.0,M,-32.3,M,,*63
$PYRTM,2024,125.005001762500,16.114649172639
$GPGGA,000710.00,3510.8899,N,12128.6147,W,1,10,0.8,13.0,M,-32.3,M,,*67
$PYRTM,2024,125.005014378993,16.114661789132
$GPGGA,000711.00,3510.8900,N,12128.6147,W,1,10,0.8,13.0,M,-32.3,M,,*67
$PYRTM,2024,125.005025492882,16.114672903021
$GPGGA,000712.00,3510.8903,N,12128.6147,W,1,10,0.8,13.0,M,-32.3,M,,*67
$PYRTM,2024,125.005036600845,16.114684010984
$GPGGA,000713.00,3510.8904,N,12128.6147,W,1,10,0.8,13.0,M,-32.3,M,,*61
$PYRTM,2024,125.005047716169,16.114695126308
$GPGGA,000714.00,3510.8905,N,12128.6147,W,1,10,0.8,13.0,M,-32.3,M,,*67
$PYRTM,2024,125.005058822894,16.114706233032
$GPGGA,000715.00,3510.8907,N,12128.6148,W,1,10,0.8,13.0,M,-32.3,M,,*6B
$PYRTM,2024,125.005069933981,16.114717344120
$GPGGA,000716.00,3510.8909,N,12128.6149,W,1,10,0.8,13.0,M,-32.3,M,,*67
$PYRTM,2024,125.005081032847,16.114728442986
$GPGGA,000717.00,3510.8911,N,12128.6151,W,1,10,0.8,13.0,M,-32.3,M,,*66
$PYRTM,2024,125.005092144965,16.114739555116
$GPGGA,000718.00,3510.8912,N,12128.6151,W,1,10,0.8,12.9,M,-32.3,M,,*62
$PYRTM,2024,125.005103270694,16.114750680833
$GPGGA,000719.00,3510.8914,N,12128.6151,W,1,10,0.8,12.9,M,-32.3,M,,*65
$PYRTM,2024,125.005114366933,16.114761777072
$GPGGA,000720.00,3510.8916,N,12128.6150,W,1,10,0.8,13.0,M,-32.3,M,,*64
$PYRTM,2024,125.005125489988,16.114772900127
$GPGGA,000721.00,3510.8918,N,12128.6150,W,1,10,0.8,13.0,M,-32.3,M,,*6B
$PYRTM,2024,125.005147943449,16.114795353588
$GPGGA,000722.00,3510.8919,N,12128.6151,W,1,10,0.8,13.0,M,-32.3,M,,*68
$PYRTM,2024,125.005159056100,16.114806466238
$GPGGA,000723.00,3510.8920,N,12128.6153,W,1,10,0.8,12.9,M,-32.3,M,,*69
$PYRTM,2024,125.005170166215,16.114817576354
$GPGGA,000724.00,3510.8922,N,12128.6154,W,1,10,0.8,12.9,M,-32.3,M,,*6B
$PYRTM,2024,125.005181277650,16.114828687789
$GPGGA,000725.00,3510.8923,N,12128.6155,W,1,10,0.8,12.9,M,-32.3,M,,*6A
$PYRTM,2024,125.005192388333,16.114839798472
$GPGGA,000726.00,3510.8925,N,12128.6154,W,1,10,0.8,12.8,M,-32.3,M,,*6F
$PYRTM,2024,125.005203494676,16.114850904815
$GPGGA,000727.00,3510.8928,N,12128.6153,W,1,10,0.8,12.8,M,-32.3,M,,*64
$PYRTM,2024,125.005214610174,16.114862020313
$GPGGA,000728.00,3510.8930,N,12128.6153,W,1,10,0.8,12.8,M,-32.3,M,,*62
$PYRTM,2024,125.005225721620,16.114873131759
$GPGGA,000729.00,3510.8931,N,12128.6154,W,1,10,0.8,12.8,M,-32.3,M,,*65
$PYRTM,2024,125.005236831968,16.114884242106
$GPGGA,000730.00,3510.8932,N,12128.6158,W,1,10,0.8,12.8,M,-32.3,M,,*62
$PYRTM,2024,125.005247943391,16.114895353542
$GPGGA,000731.00,3510.8934,N,12128.6160,W,1,10,0.8,12.8,M,-32.3,M,,*6E
$PYRTM,2024,125.005259055347,16.114906465498
$GPGGA,000732.00,3510.8936,N,12128.6159,W,1,10,0.8,12.8,M,-32.3,M,,*65
$PYRTM,2024,125.005270166181,16.114917576331
$GPGGA,000733.00,3510.8939,N,12128.6157,W,1,10,0.8,12.8,M,-32.3,M,,*65
$PYRTM,2024,125.005281277512,16.114928687650
$GPGGA,000734.00,3510.8942,N,12128.6157,W,1,10,0.8,12.8,M,-32.3,M,,*6E
$PYRTM,2024,125.005292384109,16.114939794248
$GPGGA,000735.00,3510.8943,N,12128.6158,W,1,10,0.8,12.8,M,-32.3,M,,*61
$PYRTM,2024,125.005303500197,16.114950910336
$GPGGA,000736.00,3510.8945,N,12128.6161,W,1,10,0.8,12.9,M,-32.3,M,,*6F
$PYRTM,2024,125.005314611806,16.114962021944
$GPGGA,000737.00,3510.8946,N,12128.6165,W,1,10,0.8,12.8,M,-32.3,M,,*68
$PYRTM,2024,125.005325722211,16.114973132350
$GPGGA,000738.00,3510.8948,N,12128.6168,W,1,10,0.8,12.8,M,-32.3,M,,*64
$PYRTM,2024,125.005335546563,16.114982956701
$GPGGA,000739.00,3510.8951,N,12128.6167,W,1,10,0.8,12.8,M,-32.3,M,,*62
$PYRTM,2024,125.005346674815,16.114994084954
$GPGGA,000740.00,3510.8954,N,12128.6165,W,1,10,0.8,12.8,M,-32.3,M,,*6B
$PYRTM,2024,125.005359274630,16.115006684769
$GPGGA,000741.00,3510.8956,N,12128.6168,W,1,10,0.8,12.8,M,-32.3,M,,*65
$PYRTM,2024,125.005370386030,16.115017796181
$GPGGA,000742.00,3510.8957,N,12128.6172,W,1,10,0.8,12.8,M,-32.3,M,,*6C
$PYRTM,2024,125.005381497604,16.115028907743
$GPGGA,000743.00,3510.8958,N,12128.6174,W,1,10,0.8,12.8,M,-32.3,M,,*64
$PYRTM,2024,125.005392609109,16.115040019248
$GPGGA,000744.00,3510.8960,N,12128.6171,W,1,10,0.8,12.8,M,-32.3,M,,*6D
$PYRTM,2024,125.005403720382,16.115051130521
$GPGGA,000745.00,3510.8963,N,12128.6167,W,1,10,0.8,12.8,M,-32.3,M,,*68
$PYRTM,2024,125.005414830718,16.115062240856
$GPGGA,000746.00,3510.8965,N,12128.6169,W,1,10,0.8,12.7,M,-32.3,M,,*6C
$PYRTM,2024,125.005425940972,16.115073351111
$GPGGA,000747.00,3510.8966,N,12128.6174,W,1,10,0.8,12.7,M,-32.3,M,,*62
$PYRTM,2024,125.005437282593,16.115084692731
$GPGGA,000748.00,3510.8967,N,12128.6177,W,1,10,0.8,12.7,M,-32.3,M,,*6F
$PYRTM,2024,125.005448867292,16.115096277431
$GPGGA,000749.00,3510.8972,N,12128.6175,W,1,10,0.8,12.9,M,-32.3,M,,*66
$PYRTM,2024,125.005460430683,16.115107840822
$GPGGA,000750.00,3510.8978,N,12128.6172,W,1,10,0.8,12.9,M,-32.3,M,,*63
$PYRTM,2024,125.005472014259,16.115119424398
$GPGGA,000751.00,3510.8981,N,12128.6173,W,1,10,0.8,12.9,M,-32.3,M,,*65
$PYRTM,2024,125.005483580949,16.115130991088
$GPGGA,000752.00,3510.8981,N,12128.6178,W,1,10,0.8,12.9,M,-32.3,M,,*6D
$PYRTM,2024,125.005495166852,16.115142576991
$GPGGA,000753.00,3510.8982,N,12128.6180,W,1,10,0.8,12.9,M,-32.3,M,,*68
$PYRTM,2024,125.005506726794,16.115154136933
$GPGGA,000754.00,3510.8986,N,12128.6177,W,1,10,0.8,12.8,M,-32.3,M,,*62
$PYRTM,2024,125.005518316204,16.115165726343
$GPGGA,000755.00,3510.8990,N,12128.6174,W,1,10,0.8,12.8,M,-32.3,M,,*67
$PYRTM,2024,125.005529761644,16.115177171782
$GPGGA,000756.00,3510.8992,N,12128.6176,W,1,10,0.8,12.7,M,-32.3,M,,*6B
$PYRTM,2024,125.005541464086,16.115188874225
$GPGGA,000757.00,3510.8992,N,12128.6182,W,1,10,0.8,12.7,M,-32.3,M,,*61
$PYRTM,2024,125.005553024722,16.115200434861
$GPGGA,000758.00,3510.8993,N,12128.6185,W,1,10,0.8,12.7,M,-32.3,M,,*68
$PYRTM,2024,125.005564501829,16.115211911979
$GPGGA,000759.00,3510.8997,N,12128.6186,W,1,10,0.8,12.7,M,-32.3,M,,*6E
$PYRTM,2024,125.005576057882,16.115223468021
$GPGGA,000800.00,3510.9001,N,12128.6184,W,1,10,0.8,12.7,M,-32.3,M,,*68
$PYRTM,2024,125.005587647523,16.115235057662
$GPGGA,000801.00,3510.9005,N,12128.6186,W,1,10,0.8,12.7,M,-32.3,M,,*6F
$PYRTM,2024,125.005599206343,16.115246616481
$GPGGA,000802.00,3510.9006,N,12128.6191,W,1,10,0.8,12.7,M,-32.3,M,,*69
$PYRTM,2024,125.005610788866,16.115258199005
$GPGGA,000803.00,3510.9006,N,12128.6196,W,1,10,0.8,12.7,M,-32.3,M,,*6F
$PYRTM,2024,125.005622355116,16.115269765255
$GPGGA,000804.00,3510.9008,N,12128.6197,W,1,10,0.8,12.7,M,-32.3,M,,*67
$PYRTM,2024,125.005633942315,16.115281352454
$GPGGA,000805.00,3510.9011,N,12128.6187,W,1,10,0.8,13.9,M,-32.3,M,,*60
$PYRTM,2024,125.005645503056,16.115292913194
$GPGGA,000806.00,3510.9014,N,12128.6180,W,1,10,0.8,13.9,M,-32.3,M,,*61
$PYRTM,2024,125.005657089988,16.115304500139
$GPGGA,000807.00,3510.9016,N,12128.6178,W,1,10,0.8,13.3,M,-32.3,M,,*6F
$PYRTM,2024,125.005668767963,16.115316178102
$GPGGA,000808.00,3510.9016,N,12128.6181,W,1,10,0.8,13.3,M,-32.3,M,,*66
$PYRTM,2024,125.005678954977,16.115326365116
$GPGGA,000809.00,3510.9018,N,12128.6180,W,1,10,0.8,13.3,M,-32.3,M,,*68
$PYRTM,2024,125.005690771979,16.115338182118
$GPGGA,000810.00,3510.9022,N,12128.6175,W,1,10,0.8,12.6,M,-32.3,M,,*67
$PYRTM,2024,125.005703389491,16.115350799630
$GPGGA,000811.00,3510.9028,N,12128.6171,W,1,10,0.8,12.6,M,-32.3,M,,*68
$PYRTM,2024,125.005714948993,16.115362359132
$GPGGA,000812.00,3510.9031,N,12128.6170,W,1,10,0.8,12.6,M,-32.3,M,,*62
$PYRTM,2024,125.005726535069,16.115373945220
$GPGGA,000813.00,3510.9031,N,12128.6172,W,1,10,0.8,12.6,M,-32.3,M,,*61
$PYRTM,2024,125.005738095984,16.115385506123
$GPGGA,000814.00,3510.9030,N,12128.6174,W,1,10,0.8,12.6,M,-32.3,M,,*61
$PYRTM,2024,125.005749696470,16.115397106609
$GPGGA,000815.00,3510.9032,N,12128.6173,W,1,10,0.8,12.6,M,-32.3,M,,*65
$PYRTM,2024,125.005761243935,16.115408654074
$GPGGA,000816.00,3510.9036,N,12128.6169,W,1,10,0.8,12.6,M,-32.3,M,,*69
$PYRTM,2024,125.005772833947,16.115420244086
$GPGGA,000817.00,3510.9037,N,12128.6168,W,1,10,0.8,12.6,M,-32.3,M,,*68
$PYRTM,2024,125.005784394039,16.115431804178
$GPGGA,000818.00,3510.9037,N,12128.6171,W,1,10,0.8,12.6,M,-32.3,M,,*6F
$PYRTM,2024,125.005795981875,16.115443392014
$GPGGA,000819.00,3510.9036,N,12128.6174,W,1,10,0.8,12.6,M,-32.3,M,,*6A
$PYRTM,2024,125.005807542211,16.115454952350
$GPGGA,000820.00,3510.9038,N,12128.6170,W,1,10,0.8,13.4,M,-32.3,M,,*69
$PYRTM,2024,125.005819127685,16.115466537824
$GPGGA,000821.00,3510.9042,N,12128.6165,W,1,10,0.8,13.4,M,-32.3,M,,*61
$PYRTM,2024,125.005830690775,16.115478100914
$GPGGA,000822.00,3510.9043,N,12128.6162,W,1,10,0.8,13.4,M,-32.3,M,,*64
$PYRTM,2024,125.005842271019,16.115489681157
$GPGGA,000823.00,3510.9043,N,12128.6167,W,1,10,0.8,13.4,M,-32.3,M,,*60
$PYRTM,2024,125.005853836088,16.115501246227
$GPGGA,000824.00,3510.9043,N,12128.6170,W,1,10,0.8,13.4,M,-32.3,M,,*61
$PYRTM,2024,125.005865423657,16.115512833796
$GPGGA,000825.00,3510.9045,N,12128.6169,W,1,10,0.8,13.4,M,-32.3,M,,*6E
$PYRTM,2024,125.005876986435,16.115524396574
$GPGGA,000826.00,3510.9048,N,12128.6164,W,1,10,0.8,13.4,M,-32.3,M,,*6D
$PYRTM,2024,125.005888587315,16.115535997454
$GPGGA,000827.00,3510.9050,N,12128.6161,W,1,10,0.8,13.4,M,-32.3,M,,*60
$PYRTM,2024,125.005900139699,16.115547549838
$GPGGA,000828.00,3510.9051,N,12128.6164,W,1,10,0.8,13.3,M,-32.3,M,,*6C
$PYRTM,2024,125.005911720509,16.115559130648
$GPGGA,000829.00,3510.9050,N,12128.6168,W,1,10,0.8,13.3,M,-32.3,M,,*60
$PYRTM,2024,125.005923282685,16.115570692824
$GPGGA,000830.00,3510.9052,N,12128.6169,W,1,10,0.8,13.3,M,-32.3,M,,*6B
$PYRTM,2024,125.005934869248,16.115582279387
$GPGGA,000831.00,3510.9054,N,12128.6167,W,1,10,0.8,13.3,M,-32.3,M,,*62
$PYRTM,2024,125.005946429769,16.115593839907
$GPGGA,000832.00,3510.9055,N,12128.6164,W,1,10,0.8,13.3,M,-32.3,M,,*63
$PYRTM,2024,125.005958013137,16.115605423275
$GPGGA,000833.00,3510.9055,N,12128.6164,W,1,10,0.8,13.3,M,-32.3,M,,*62
$PYRTM,2024,125.005969579630,16.115616989769
$GPGGA,000834.00,3510.9056,N,12128.6166,W,1,10,0.8,13.3,M,-32.3,M,,*64
$PYRTM,2024,125.005981167812,16.115628577951
$GPGGA,000835.00,3510.9058,N,12128.6167,W,1,10,0.8,13.2,M,-32.3,M,,*6B
$PYRTM,2024,125.005992726956,16.115640137095
$GPGGA,000836.00,3510.9059,N,12128.6166,W,1,10,0.8,13.2,M,-32.3,M,,*68
$PYRTM,2024,125.006004317593,16.115651727731
$GPGGA,000837.00,3510.9061,N,12128.6164,W,1,10,0.8,13.2,M,-32.3,M,,*60
$PYRTM,2024,125.006015876076,16.115663286227
$GPGGA,000838.00,3510.9063,N,12128.6164,W,1,10,0.8,13.2,M,-32.3,M,,*6D
$PYRTM,2024,125.006026176100,16.115673586238
