$PYRTM,2024,128.166675600752,19.276323010903
$GPGGA,035959.00,3300.3528,N,11803.1273,W,1,09,1.0,7.7,M,-34.6,M,,*59
$PYRTM,2024,128.166687161192,19.276334571331
$GPGGA,040000.00,3300.3520,N,11803.1255,W,1,09,1.0,7.3,M,-34.6,M,,*56
$PYRTM,2024,128.166698748877,19.276346159016
$GPGGA,040001.00,3300.3511,N,11803.1239,W,1,09,1.0,8.0,M,-34.6,M,,*53
$PYRTM,2024,128.166710311910,19.276357722049
$GPGGA,040002.00,3300.3502,N,11803.1222,W,1,09,1.0,7.8,M,-34.6,M,,*5F
$PYRTM,2024,128.166721891470,19.276369301609
$GPGGA,040003.00,3300.3493,N,11803.1204,W,1,09,1.0,7.7,M,-34.6,M,,*5C
$PYRTM,2024,128.166733461817,19.276380871968
$GPGGA,040004.00,3300.3483,N,11803.1185,W,1,09,1.0,6.9,M,-34.6,M,,*5F
$PYRTM,2024,128.166745047685,19.276392457824
$GPGGA,040005.00,3300.3473,N,11803.1166,W,1,09,1.0,6.8,M,-34.6,M,,*5D
$PYRTM,2024,128.166756608461,19.276404018600
$GPGGA,040006.00,3300.3464,N,11803.1149,W,1,09,1.0,7.9,M,-34.6,M,,*55
$PYRTM,2024,128.166768188218,19.276415598356
$GPGGA,040007.00,3300.3455,N,11803.1132,W,1,09,1.0,10.4,M,-34.6,M,,*61
$PYRTM,2024,128.166778828704,19.276426238843
$GPGGA,040008.00,3300.3446,N,11803.1115,W,1,09,1.0,9.5,M,-34.6,M,,*50
$PYRTM,2024,128.166790750162,19.276438160301
$GPGGA,040009.00,3300.3437,N,11803.1098,W,1,09,1.0,8.5,M,-34.6,M,,*52
$PYRTM,2024,128.166801527257,19.276448937396
$GPGGA,040010.00,3300.3430,N,11803.1080,W,1,09,1.0,8.5,M,-34.6,M,,*54
$PYRTM,2024,128.166812640220,19.276460050359
$GPGGA,040011.00,3300.3422,N,11803.1063,W,1,09,1.0,7.3,M,-34.6,M,,*52
$PYRTM,2024,128.166823749919,19.276471160058
$GPGGA,040012.00,3300.3414,N,11803.1046,W,1,09,1.0,7.7,M,-34.6,M,,*57
$PYRTM,2024,128.166834860035,19.276482270174
$GPGGA,040013.00,3300.3404,N,11803.1030,W,1,09,1.0,5.6,M,-34.6,M,,*55
$PYRTM,2024,128.166845975266,19.276493385405
$GPGGA,040014.00,3300.3395,N,11803.1014,W,1,09,1.0,7.6,M,-34.6,M,,*59
$PYRTM,2024,128.166857083275,19.276504493414
$GPGGA,040015.00,3300.3387,N,11803.0997,W,1,09,1.0,4.2,M,-34.6,M,,*5F
$PYRTM,2024,128.166868197326,19.276515607465
$GPGGA,040016.00,3300.3379,N,11803.0980,W,1,09,1.0,2.4,M,-34.6,M,,*5B
$PYRTM,2024,128.166879305949,19.276526716088
$GPGGA,040017.00,3300.3371,N,11803.0961,W,1,09,1.0,4.4,M,-34.6,M,,*5B
$PYRTM,2024,128.166897125417,19.276544535567
$GPGGA,040018.00,3300.3363,N,11803.0942,W,1,09,1.0,4.3,M,-34.6,M,,*51
$PYRTM,2024,128.166908228553,19.276555638692
$GPGGA,040019.00,3300.3353,N,11803.0925,W,1,09,1.0,4.8,M,-34.6,M,,*59
$PYRTM,2024,128.166919456400,19.276566866539
$GPGGA,040020.00,3300.3342,N,11803.0911,W,1,09,1.0,1.7,M,-34.6,M,,*5E
$PYRTM,2024,128.166930929988,19.276578340139
$GPGGA,040021.00,3300.3332,N,11803.0896,W,1,09,0.8,3.6,M,-34.6,M,,*5C
$PYRTM,2024,128.166942038056,19.276589448194
$GPGGA,040022.00,3300.3324,N,11803.0881,W,1,09,0.8,4.3,M,-34.6,M,,*5C
$PYRTM,2024,128.166953164340,19.276600574479
$GPGGA,040023.00,3300.3314,N,11803.0867,W,1,09,0.8,3.2,M,-34.6,M,,*50
$PYRTM,2024,128.166969354757,19.276616764896
$GPGGA,040024.00,3300.3306,N,11803.0854,W,1,09,0.8,3.2,M,-34.6,M,,*54
$PYRTM,2024,128.166980464340,19.276627874479
$GPGGA,040025.00,3300.3298,N,11803.0838,W,1,09,0.8,4.2,M,-34.6,M,,*5E
$PYRTM,2024,128.166991575255,19.276638985394
$GPGGA,040026.00,3300.3289,N,11803.0823,W,1,09,0.8,5.4,M,-34.6,M,,*50
$PYRTM,2024,128.167002685775,19.276650095914
$GPGGA,040027.00,3300.3280,N,11803.0806,W,1,09,0.8,5.8,M,-34.6,M,,*53
$PYRTM,2024,128.167013784201,19.276661194340
$GPGGA,040028.00,3300.3271,N,11803.0788,W,1,09,0.8,9.3,M,-34.6,M,,*5C
$PYRTM,2024,128.167024895995,19.276672306134
$GPGGA,040029.00,3300.3261,N,11803.0771,W,1,09,0.8,9.6,M,-34.6,M,,*5F
$PYRTM,2024,128.167036014086,19.276683424225
$GPGGA,040030.00,3300.3251,N,11803.0753,W,1,09,0.8,9.5,M,-34.6,M,,*57
$PYRTM,2024,128.167047119630,19.276694529769
$GPGGA,040031.00,3300.3242,N,11803.0734,W,1,09,0.8,9.8,M,-34.6,M,,*58
$PYRTM,2024,128.167058242940,19.276705653079
$GPGGA,040032.00,3300.3234,N,11803.0718,W,1,09,0.8,9.9,M,-34.6,M,,*55
$PYRTM,2024,128.167069352315,19.276716762454
$GPGGA,040033.00,3300.3226,N,11803.0702,W,1,09,0.8,9.1,M,-34.6,M,,*54
$PYRTM,2024,128.167080682674,19.276728092813
$GPGGA,040034.00,3300.3217,N,11803.0689,W,1,09,0.8,8.7,M,-34.6,M,,*54
$PYRTM,2024,128.167092265208,19.276739675359
$GPGGA,040035.00,3300.3208,N,11803.0674,W,1,09,0.8,8.2,M,-34.6,M,,*5C
$PYRTM,2024,128.167103830243,19.276751240382
$GPGGA,040036.00,3300.3200,N,11803.0657,W,1,09,0.8,5.3,M,-34.6,M,,*5A
$PYRTM,2024,128.167115438877,19.276762849016
$GPGGA,040037.00,3300.3191,N,11803.0639,W,1,09,0.8,4.7,M,-34.6,M,,*5D
$PYRTM,2024,128.167126980405,19.276774390544
$GPGGA,040038.00,3300.3182,N,11803.0623,W,1,09,0.8,4.4,M,-34.6,M,,*58
$PYRTM,2024,128.167138583530,19.276785993669
$GPGGA,040039.00,3300.3172,N,11803.0606,W,1,09,0.8,3.3,M,-34.6,M,,*51
$PYRTM,2024,128.167150127465,19.276797537604
$GPGGA,040040.00,3300.3163,N,11803.0589,W,1,09,0.8,7.5,M,-34.6,M,,*59
$PYRTM,2024,128.167161714190,19.276809124329
$GPGGA,040041.00,3300.3156,N,11803.0571,W,1,09,0.8,6.7,M,-34.6,M,,*5A
$PYRTM,2024,128.167173276285,19.276820686424
$GPGGA,040042.00,3300.3148,N,11803.0553,W,1,09,0.8,9.1,M,-34.6,M,,*5F
$PYRTM,2024,128.167184863785,19.276832273935
$GPGGA,040043.00,3300.3140,N,11803.0536,W,1,09,0.8,7.3,M,-34.6,M,,*59
$PYRTM,2024,128.167196425208,19.276843835347
$GPGGA,040044.00,3300.3131,N,11803.0521,W,1,09,0.8,8.1,M,-34.6,M,,*53
$PYRTM,2024,128.167208012025,19.276855422164
$GPGGA,040045.00,3300.3121,N,11803.0506,W,1,09,0.8,8.8,M,-34.6,M,,*5F
$PYRTM,2024,128.167219572604,19.276866982743
$GPGGA,040046.00,3300.3114,N,11803.0489,W,1,09,0.8,9.5,M,-34.6,M,,*50
$PYRTM,2024,128.167231161678,19.276878571817
$GPGGA,040047.00,3300.3106,N,11803.0472,W,1,09,0.8,7.7,M,-34.6,M,,*5A
$PYRTM,2024,128.167242719583,19.276890129722
$GPGGA,040048.00,3300.3096,N,11803.0457,W,1,09,0.8,6.4,M,-34.6,M,,*58
$PYRTM,2024,128.167254307419,19.276901717558
$GPGGA,040049.00,3300.3085,N,11803.0441,W,1,09,0.8,7.3,M,-34.6,M,,*5A
$PYRTM,2024,128.167265868808,19.276913278958
$GPGGA,040050.00,3300.3074,N,11803.0423,W,1,09,0.8,7.3,M,-34.6,M,,*58
$PYRTM,2024,128.167277470868,19.276924881007
$GPGGA,040051.00,3300.3065,N,11803.0404,W,1,09,0.8,9.4,M,-34.6,M,,*55
$PYRTM,2024,128.167289017431,19.276936427569
$GPGGA,040052.00,3300.3057,N,11803.0385,W,1,09,0.8,7.4,M,-34.6,M,,*57
$PYRTM,2024,128.167300619456,19.276948029595
$GPGGA,040053.00,3300.3049,N,11803.0368,W,1,09,0.8,8.9,M,-34.6,M,,*58
$PYRTM,2024,128.167310789699,19.276958199838
$GPGGA,040054.00,3300.3039,N,11803.0353,W,1,09,0.8,8.3,M,-34.6,M,,*5A
$PYRTM,2024,128.167322595278,19.276970005417
$GPGGA,040055.00,3300.3031,N,11803.0338,W,1,09,0.8,8.8,M,-34.6,M,,*55
$PYRTM,2024,128.167335313843,19.276982723981
$GPGGA,040056.00,3300.3023,N,11803.0322,W,1,09,0.8,8.7,M,-34.6,M,,*51
$PYRTM,2024,128.167346896007,19.276994306146
$GPGGA,040057.00,3300.3016,N,11803.0304,W,1,09,0.8,7.7,M,-34.6,M,,*5D
$PYRTM,2024,128.167358463646,19.277005873785
$GPGGA,040058.00,3300.3008,N,11803.0287,W,1,09,0.8,7.0,M,-34.6,M,,*50
$PYRTM,2024,128.167370061308,19.277017471458
$GPGGA,040059.00,3300.2999,N,11803.0270,W,1,09,0.8,9.3,M,-34.6,M,,*54
$PYRTM,2024,128.167381610856,19.277029020995
$GPGGA,040100.00,3300.2988,N,11803.0253,W,1,09,0.8,8.6,M,-34.6,M,,*5C
$PYRTM,2024,128.167393199826,19.277040609965
$GPGGA,040101.00,3300.2979,N,11803.0234,W,1,09,0.8,9.4,M,-34.6,M,,*51
$PYRTM,2024,128.167404759491,19.277052169630
$GPGGA,040102.00,3300.2972,N,11803.0214,W,1,09,0.8,11.1,M,-34.6,M,,*67
$PYRTM,2024,128.167416346644,19.277063756782
$GPGGA,040103.00,3300.2964,N,11803.0196,W,1,09,0.8,9.9,M,-34.6,M,,*59
$PYRTM,2024,128.167427907153,19.277075317292
$GPGGA,040104.00,3300.2955,N,11803.0180,W,1,09,0.8,9.3,M,-34.6,M,,*51
$PYRTM,2024,128.167439497118,19.277086907257
$GPGGA,040105.00,3300.2945,N,11803.0164,W,1,09,0.8,8.6,M,-34.6,M,,*5F
$PYRTM,2024,128.167451055440,19.277098465579
$GPGGA,040106.00,3300.2936,N,11803.0150,W,1,09,0.8,8.7,M,-34.6,M,,*5E
$PYRTM,2024,128.167462644884,19.277110055023
$GPGGA,040107.00,3300.2928,N,11803.0135,W,1,09,0.8,9.1,M,-34.6,M,,*54
$PYRTM,2024,128.167474203669,19.277121613808
$GPGGA,040108.00,3300.2920,N,11803.0118,W,1,09,0.8,9.0,M,-34.6,M,,*5D
$PYRTM,2024,128.167485790880,19.277133201030
$GPGGA,040109.00,3300.2911,N,11803.0100,W,1,09,0.8,7.9,M,-34.6,M,,*50
$PYRTM,2024,128.167497351123,19.277144761262
$GPGGA,040110.00,3300.2899,N,11803.0083,W,1,09,0.8,7.3,M,-34.6,M,,*59
$PYRTM,2024,128.167508939352,19.277156349491
$GPGGA,040111.00,3300.2887,N,11803.0067,W,1,09,0.8,10.5,M,-34.6,M,,*6D
$PYRTM,2024,128.167520500231,19.277167910370
$GPGGA,040112.00,3300.2876,N,11803.0048,W,1,09,0.8,13.0,M,-34.6,M,,*6B
$PYRTM,2024,128.167532087500,19.277179497639
$GPGGA,040113.00,3300.2868,N,11803.0028,W,1,09,0.8,11.6,M,-34.6,M,,*67
$PYRTM,2024,128.167544011771,19.277191421910
$GPGGA,040114.00,3300.2861,N,11803.0010,W,1,09,0.8,12.8,M,-34.6,M,,*6F
$PYRTM,2024,128.167555235914,19.277202646053
$GPGGA,040115.00,3300.2852,N,11802.9994,W,1,09,0.8,12.6,M,-34.6,M,,*6D
$PYRTM,2024,128.167566796933,19.277214207083
$GPGGA,040116.00,3300.2842,N,11802.9981,W,1,09,0.8,11.8,M,-34.6,M,,*66
$PYRTM,2024,128.167578383229,19.277225793368
$GPGGA,040117.00,3300.2834,N,11802.9967,W,1,09,0.8,11.5,M,-34.6,M,,*63
$PYRTM,2024,128.167589944572,19.277237354711
$GPGGA,040118.00,3300.2828,N,11802.9952,W,1,09,0.8,10.9,M,-34.6,M,,*6A
$PYRTM,2024,128.167601534722,19.277248944861
$GPGGA,040119.00,3300.2822,N,11802.9935,W,1,09,0.8,10.7,M,-34.6,M,,*6E
$PYRTM,2024,128.167613094792,19.277260504942
$GPGGA,040120.00,3300.2816,N,11802.9917,W,1,09,0.8,11.9,M,-34.6,M,,*6C
$PYRTM,2024,128.167625014190,19.277272424329
$GPGGA,040121.00,3300.2809,N,11802.9900,W,1,09,0.8,12.5,M,-34.6,M,,*6A
$PYRTM,2024,128.167636242014,19.277283652153
$GPGGA,040122.00,3300.2801,N,11802.9882,W,1,09,0.8,12.9,M,-34.6,M,,*66
$PYRTM,2024,128.167647828854,19.277295238993
$GPGGA,040123.00,3300.2793,N,11802.9864,W,1,09,0.8,11.4,M,-34.6,M,,*65
$PYRTM,2024,128.167658013472,19.277305423611
$GPGGA,040124.00,3300.2785,N,11802.9846,W,1,09,0.8,10.3,M,-34.6,M,,*63
$PYRTM,2024,128.167669819595,19.277317229734
$GPGGA,040125.00,3300.2777,N,11802.9829,W,1,09,0.8,11.7,M,-34.6,M,,*63
$PYRTM,2024,128.167682539120,19.277329949259
$GPGGA,040126.00,3300.2767,N,11802.9812,W,1,09,0.8,12.3,M,-34.6,M,,*6E
$PYRTM,2024,128.167694126030,19.277341536181
$GPGGA,040127.00,3300.2758,N,11802.9795,W,1,09,0.8,11.1,M,-34.6,M,,*62
$PYRTM,2024,128.167705685891,19.277353096030
$GPGGA,040128.00,3300.2751,N,11802.9779,W,1,09,0.8,10.1,M,-34.6,M,,*67
$PYRTM,2024,128.167717273044,19.277364683183
$GPGGA,040129.00,3300.2744,N,11802.9761,W,1,09,0.8,10.4,M,-34.6,M,,*6E
$PYRTM,2024,128.167728836574,19.277376246713
$GPGGA,040130.00,3300.2736,N,11802.9743,W,1,09,0.8,7.8,M,-34.6,M,,*59
$PYRTM,2024,128.167740421343,19.277387831481
$GPGGA,040131.00,3300.2727,N,11802.9726,W,1,09,0.8,7.2,M,-34.6,M,,*51
$PYRTM,2024,128.167751982130,19.277399392269
$GPGGA,040132.00,3300.2717,N,11802.9710,W,1,09,0.8,8.1,M,-34.6,M,,*58
$PYRTM,2024,128.167763570162,19.277410980301
$GPGGA,040133.00,3300.2706,N,11802.9693,W,1,09,0.8,7.9,M,-34.6,M,,*54
$PYRTM,2024,128.167775132269,19.277422542407
$GPGGA,040134.00,3300.2698,N,11802.9675,W,1,09,0.8,6.6,M,-34.6,M,,*53
$PYRTM,2024,128.167786732211,19.277434142350
$GPGGA,040135.00,3300.2691,N,11802.9656,W,1,09,0.8,8.1,M,-34.6,M,,*53
$PYRTM,2024,128.167798279525,19.277445689664
$GPGGA,040136.00,3300.2682,N,11802.9639,W,1,09,0.8,7.2,M,-34.6,M,,*57
$PYRTM,2024,128.167809866759,19.277457276898
$GPGGA,040137.00,3300.2673,N,11802.9624,W,1,09,0.8,6.0,M,-34.6,M,,*57
$PYRTM,2024,128.167821429225,19.277468839363
$GPGGA,040138.00,3300.2664,N,11802.9609,W,1,09,0.8,6.0,M,-34.6,M,,*51
$PYRTM,2024,128.167833014630,19.277480424769
$GPGGA,040139.00,3300.2656,N,11802.9593,W,1,09,0.8,6.2,M,-34.6,M,,*53
$PYRTM,2024,128.167844576204,19.277491986343
$GPGGA,040140.00,3300.2649,N,11802.9576,W,1,09,0.8,5.8,M,-34.6,M,,*51
$PYRTM,2024,128.167856163090,19.277503573229
$GPGGA,040141.00,3300.2640,N,11802.9560,W,1,09,0.8,6.3,M,-34.6,M,,*56
$PYRTM,2024,128.167867725162,19.277515135324
$GPGGA,040142.00,3300.2629,N,11802.9545,W,1,09,0.8,8.2,M,-34.6,M,,*52
$PYRTM,2024,128.167879310671,19.277526720810
$GPGGA,040143.00,3300.2618,N,11802.9527,W,1,09,0.8,7.1,M,-34.6,M,,*59
$PYRTM,2024,128.167890874954,19.277538285093
$GPGGA,040144.00,3300.2608,N,11802.9510,W,1,09,0.8,8.5,M,-34.6,M,,*50
$PYRTM,2024,128.167902459664,19.277549869803
$GPGGA,040145.00,3300.2598,N,11802.9493,W,1,09,0.8,10.1,M,-34.6,M,,*6C
$PYRTM,2024,128.167914020197,19.277561430336
$GPGGA,040146.00,3300.2589,N,11802.9476,W,1,09,0.8,12.5,M,-34.6,M,,*62
$PYRTM,2024,128.167925611481,19.277573021620
$GPGGA,040147.00,3300.2579,N,11802.9458,W,1,09,0.8,13.1,M,-34.6,M,,*65
$PYRTM,2024,128.167937168993,19.277584579132
$GPGGA,040148.00,3300.2569,N,11802.9442,W,1,09,0.8,15.4,M,-34.6,M,,*63
$PYRTM,2024,128.167948758981,19.277596169120
$GPGGA,040149.00,3300.2560,N,11802.9425,W,1,09,0.8,14.4,M,-34.6,M,,*6B
$PYRTM,2024,128.167960316030,19.277607726169
$GPGGA,040150.00,3300.2554,N,11802.9408,W,1,09,0.8,15.0,M,-34.6,M,,*6E
$PYRTM,2024,128.167972355231,19.277619765370
$GPGGA,040151.00,3300.2547,N,11802.9392,W,1,09,0.8,13.8,M,-34.6,M,,*67
$PYRTM,2024,128.167983941424,19.277631351563
$GPGGA,040152.00,3300.2539,N,11802.9376,W,1,09,0.8,13.7,M,-34.6,M,,*68
$PYRTM,2024,128.167995502118,19.277642912257
$GPGGA,040153.00,3300.2529,N,11802.9360,W,1,09,0.8,15.4,M,-34.6,M,,*6A
$PYRTM,2024,128.168005687280,19.277653097419
$GPGGA,040154.00,3300.2522,N,11802.9342,W,1,09,0.8,13.1,M,-34.6,M,,*65
$PYRTM,2024,128.168017043241,19.277664453380
$GPGGA,040155.00,3300.2514,N,11802.9325,W,1,09,0.8,13.3,M,-34.6,M,,*62
$PYRTM,2024,128.168029762975,19.277677173113
$GPGGA,040156.00,3300.2507,N,11802.9308,W,1,09,0.8,9.4,M,-34.6,M,,*50
$PYRTM,2024,128.168041344086,19.277688754225
$GPGGA,040157.00,3300.2498,N,11802.9292,W,1,09,0.8,7.9,M,-34.6,M,,*57
$PYRTM,2024,128.168052910718,19.277700320856
$GPGGA,040158.00,3300.2488,N,11802.9274,W,1,09,0.8,8.5,M,-34.6,M,,*52
$PYRTM,2024,128.168064498507,19.277711908657
$GPGGA,040159.00,3300.2479,N,11802.9257,W,1,09,0.8,11.5,M,-34.6,M,,*64
$PYRTM,2024,128.168076059988,19.277723470127
$GPGGA,040200.00,3300.2470,N,11802.9240,W,1,09,0.8,7.1,M,-34.6,M,,*57
$PYRTM,2024,128.168087641493,19.277735051632
$GPGGA,040201.00,3300.2462,N,11802.9222,W,1,09,0.8,9.1,M,-34.6,M,,*5F
$PYRTM,2024,128.168099206435,19.277746616574
$GPGGA,040202.00,3300.2455,N,11802.9205,W,1,09,0.8,8.0,M,-34.6,M,,*5D
$PYRTM,2024,128.168110797639,19.277758207778
$GPGGA,040203.00,3300.2447,N,11802.9188,W,1,09,0.8,6.7,M,-34.6,M,,*50
$PYRTM,2024,128.168122354954,19.277769765093
$GPGGA,040204.00,3300.2439,N,11802.9172,W,1,09,0.8,5.2,M,-34.6,M,,*5D
$PYRTM,2024,128.168133943241,19.277781353380
$GPGGA,040205.00,3300.2430,N,11802.9156,W,1,09,0.8,5.4,M,-34.6,M,,*55
$PYRTM,2024,128.168145502488,19.277792912627
$GPGGA,040206.00,3300.2421,N,11802.9140,W,1,09,0.8,4.8,M,-34.6,M,,*5C
$PYRTM,2024,128.168157091493,19.277804501632
$GPGGA,040207.00,3300.2413,N,11802.9122,W,1,09,0.8,5.2,M,-34.6,M,,*53
$PYRTM,2024,128.168168652604,19.277816062743
$GPGGA,040208.00,3300.2404,N,11802.9104,W,1,09,0.8,3.7,M,-34.6,M,,*5D
$PYRTM,2024,128.168180234595,19.277827644734
$GPGGA,040209.00,3300.2394,N,11802.9083,W,1,09,0.8,9.6,M,-34.6,M,,*57
$PYRTM,2024,128.168191800081,19.277839210220
$GPGGA,040210.00,3300.2383,N,11802.9063,W,1,09,0.8,8.2,M,-34.6,M,,*52
$PYRTM,2024,128.168203387315,19.277850797454
$GPGGA,040211.00,3300.2371,N,11802.9046,W,1,09,0.8,8.2,M,-34.6,M,,*59
$PYRTM,2024,128.168214947917,19.277862358056
$GPGGA,040212.00,3300.2361,N,11802.9029,W,1,09,0.8,8.6,M,-34.6,M,,*56
$PYRTM,2024,128.168225609375,19.277873019514
$GPGGA,040213.00,3300.2351,N,11802.9012,W,1,09,0.8,8.6,M,-34.6,M,,*5C
$PYRTM,2024,128.168237530961,19.277884941100
$GPGGA,040214.00,3300.2341,N,11802.8995,W,1,09,0.8,10.0,M,-34.6,M,,*62
$PYRTM,2024,128.168248282894,19.277895693032
$GPGGA,040215.00,3300.2331,N,11802.8978,W,1,09,0.8,11.6,M,-34.6,M,,*60
$PYRTM,2024,128.168259392222,19.277906802361
$GPGGA,040216.00,3300.2321,N,11802.8960,W,1,09,0.8,10.0,M,-34.6,M,,*6C
$PYRTM,2024,128.168270504595,19.277917914734
$GPGGA,040217.00,3300.2312,N,11802.8941,W,1,09,0.8,10.2,M,-34.6,M,,*6C
$PYRTM,2024,128.168281615451,19.277929025590
$GPGGA,040218.00,3300.2302,N,11802.8923,W,1,09,0.8,8.5,M,-34.6,M,,*58
$PYRTM,2024,128.168292849630,19.277940259769
$GPGGA,040219.00,3300.2292,N,11802.8905,W,1,09,0.8,7.6,M,-34.6,M,,*59
$PYRTM,2024,128.168303952535,19.277951362674
$GPGGA,040220.00,3300.2283,N,11802.8887,W,1,09,0.8,8.2,M,-34.6,M,,*53
$PYRTM,2024,128.168315425000,19.277962835139
$GPGGA,040221.00,3300.2273,N,11802.8870,W,1,09,0.8,9.7,M,-34.6,M,,*51
$PYRTM,2024,128.168326646632,19.277974056771
$GPGGA,040222.00,3300.2264,N,11802.8852,W,1,09,0.8,10.6,M,-34.6,M,,*6D
$PYRTM,2024,128.168337764062,19.277985174201
$GPGGA,040223.00,3300.2255,N,11802.8835,W,1,09,0.8,9.3,M,-34.6,M,,*52
$PYRTM,2024,128.168353838646,19.278001248796
$GPGGA,040224.00,3300.2246,N,11802.8817,W,1,09,0.8,9.0,M,-34.6,M,,*54
$PYRTM,2024,128.168365425162,19.278012835301
$GPGGA,040225.00,3300.2238,N,11802.8800,W,1,09,0.8,12.6,M,-34.6,M,,*66
$PYRTM,2024,128.168376986111,19.278024396250
$GPGGA,040226.00,3300.2229,N,11802.8783,W,1,09,0.8,14.4,M,-34.6,M,,*65
$PYRTM,2024,128.168388573056,19.278035983194
$GPGGA,040227.00,3300.2219,N,11802.8767,W,1,09,0.8,13.7,M,-34.6,M,,*69
$PYRTM,2024,128.168400136667,19.278047546806
$GPGGA,040228.00,3300.2210,N,11802.8752,W,1,09,0.8,15.7,M,-34.6,M,,*6F
$PYRTM,2024,128.168411724803,19.278059134942
$GPGGA,040229.00,3300.2202,N,11802.8736,W,1,09,1.0,16.4,M,-34.6,M,,*66
$PYRTM,2024,128.168423281944,19.278070692083
$GPGGA,040230.00,3300.2195,N,11802.8719,W,1,09,1.0,15.3,M,-34.6,M,,*6A
$PYRTM,2024,128.168434978426,19.278082388565
$GPGGA,040231.00,3300.2188,N,11802.8702,W,1,09,1.0,13.8,M,-34.6,M,,*60
$PYRTM,2024,128.168446431424,19.278093841574
$GPGGA,040232.00,3300.2179,N,11802.8685,W,1,09,1.0,12.9,M,-34.6,M,,*63
$PYRTM,2024,128.168458021354,19.278105431493
$GPGGA,040233.00,3300.2170,N,11802.8670,W,1,09,1.0,14.1,M,-34.6,M,,*6F
$PYRTM,2024,128.168469579363,19.278116989502
$GPGGA,040234.00,3300.2161,N,11802.8654,W,1,09,1.0,15.1,M,-34.6,M,,*6F
$PYRTM,2024,128.168481167535,19.278128577685
$GPGGA,040235.00,3300.2153,N,11802.8636,W,1,09,1.0,16.3,M,-34.6,M,,*6A
$PYRTM,2024,128.168492728356,19.278140138495
$GPGGA,040236.00,3300.2145,N,11802.8619,W,1,09,1.0,14.9,M,-34.6,M,,*6B
$PYRTM,2024,128.168504314595,19.278151724734
$GPGGA,040237.00,3300.2138,N,11802.8604,W,1,09,1.0,14.0,M,-34.6,M,,*65
$PYRTM,2024,128.168515875208,19.278163285347
$GPGGA,040238.00,3300.2130,N,11802.8589,W,1,09,1.0,14.4,M,-34.6,M,,*60
$PYRTM,2024,128.168527462812,19.278174872963
$GPGGA,040239.00,3300.2121,N,11802.8574,W,1,09,1.0,14.6,M,-34.6,M,,*61
$PYRTM,2024,128.168539026007,19.278186436146
$GPGGA,040240.00,3300.2111,N,11802.8558,W,1,09,1.0,14.0,M,-34.6,M,,*64
$PYRTM,2024,128.168550611157,19.278198021308
$GPGGA,040241.00,3300.2103,N,11802.8540,W,1,09,1.0,12.1,M,-34.6,M,,*68
$PYRTM,2024,128.168562172315,19.278209582454
$GPGGA,040242.00,3300.2095,N,11802.8524,W,1,09,1.0,12.9,M,-34.6,M,,*6F
$PYRTM,2024,128.168573754259,19.278221164398
$GPGGA,040243.00,3300.2086,N,11802.8509,W,1,09,1.0,13.8,M,-34.6,M,,*63
$PYRTM,2024,128.168585321840,19.278232731979
$GPGGA,040244.00,3300.2076,N,11802.8493,W,1,09,1.0,12.5,M,-34.6,M,,*65
$PYRTM,2024,128.168596922546,19.278244332697
$GPGGA,040245.00,3300.2066,N,11802.8475,W,1,09,1.0,12.3,M,-34.6,M,,*6B
$PYRTM,2024,128.168608469456,19.278255879606
$GPGGA,040246.00,3300.2056,N,11802.8456,W,1,09,1.0,14.0,M,-34.6,M,,*6F
$PYRTM,2024,128.168620060035,19.278267470174
$GPGGA,040247.00,3300.2048,N,11802.8438,W,1,09,1.0,11.9,M,-34.6,M,,*65
$PYRTM,2024,128.168631616690,19.278279026829
$GPGGA,040248.00,3300.2040,N,11802.8421,W,1,09,1.0,12.1,M,-34.6,M,,*61
$PYRTM,2024,128.168643206782,19.278290616921
$GPGGA,040249.00,3300.2030,N,11802.8406,W,1,09,1.0,13.9,M,-34.6,M,,*6B
$PYRTM,2024,128.168654765775,19.278302175914
$GPGGA,040250.00,3300.2021,N,11802.8391,W,1,09,1.0,13.9,M,-34.6,M,,*6A
$PYRTM,2024,128.168666572072,19.278313982211
$GPGGA,040251.00,3300.2013,N,11802.8374,W,1,09,1.0,13.7,M,-34.6,M,,*6F
$PYRTM,2024,128.168677913565,19.278325323704
$GPGGA,040252.00,3300.2007,N,11802.8356,W,1,09,1.0,13.9,M,-34.6,M,,*67
$PYRTM,2024,128.168689500694,19.278336910833
$GPGGA,040253.00,3300.1999,N,11802.8338,W,1,09,1.0,13.7,M,-34.6,M,,*6D
$PYRTM,2024,128.168700135995,19.278347546134
$GPGGA,040254.00,3300.1990,N,11802.8321,W,1,09,1.0,13.9,M,-34.6,M,,*65
$PYRTM,2024,128.168711477766,19.278358887905
$GPGGA,040255.00,3300.1980,N,11802.8304,W,1,09,1.0,12.9,M,-34.6,M,,*63
$PYRTM,2024,128.168724210336,19.278371620475
$GPGGA,040256.00,3300.1970,N,11802.8285,W,1,09,1.0,14.0,M,-34.6,M,,*68
$PYRTM,2024,128.168735798380,19.278383208519
$GPGGA,040257.00,3300.1962,N,11802.8265,W,1,09,1.0,11.5,M,-34.6,M,,*64
$PYRTM,2024,128.168747358438,19.278394768576
$GPGGA,040258.00,3300.1953,N,11802.8247,W,1,09,1.0,14.7,M,-34.6,M,,*6E
$PYRTM,2024,128.168758948542,19.278406358681
$GPGGA,040259.00,3300.1943,N,11802.8231,W,1,09,1.0,12.7,M,-34.6,M,,*69
$PYRTM,2024,128.168770506204,19.278417916343
$GPGGA,040300.00,3300.1933,N,11802.8215,W,1,09,1.0,12.6,M,-34.6,M,,*64
$PYRTM,2024,128.168782096713,19.278429506863
$GPGGA,040301.00,3300.1924,N,11802.8200,W,1,09,1.0,12.0,M,-34.6,M,,*61
$PYRTM,2024,128.168793655914,19.278441066053
$GPGGA,040302.00,3300.1916,N,11802.8184,W,1,09,1.0,12.4,M,-34.6,M,,*68
$PYRTM,2024,128.168805237708,19.278452647847
$GPGGA,040303.00,3300.1909,N,11802.8168,W,1,09,1.0,13.4,M,-34.6,M,,*64
$PYRTM,2024,128.168816802951,19.278464213090
$GPGGA,040304.00,3300.1900,N,11802.8152,W,1,09,1.0,12.9,M,-34.6,M,,*6F
$PYRTM,2024,128.168828391123,19.278475801262
$GPGGA,040305.00,3300.1890,N,11802.8135,W,1,09,1.0,12.9,M,-34.6,M,,*67
$PYRTM,2024,128.168839953542,19.278487363681
$GPGGA,040306.00,3300.1881,N,11802.8117,W,1,09,1.0,13.9,M,-34.6,M,,*65
$PYRTM,2024,128.168851540243,19.278498950394
$GPGGA,040307.00,3300.1872,N,11802.8097,W,1,09,1.0,15.1,M,-34.6,M,,*6F
$PYRTM,2024,128.168863101840,19.278510511979
$GPGGA,040308.00,3300.1864,N,11802.8079,W,1,09,1.0,16.1,M,-34.6,M,,*64
$PYRTM,2024,128.168874681748,19.278522091887
$GPGGA,040309.00,3300.1854,N,11802.8062,W,1,09,1.0,12.8,M,-34.6,M,,*61
$PYRTM,2024,128.168886251377,19.278533661516
$GPGGA,040310.00,3300.1845,N,11802.8045,W,1,09,1.0,10.2,M,-34.6,M,,*64
$PYRTM,2024,128.168897830486,19.278545240625
$GPGGA,040311.00,3300.1836,N,11802.8028,W,1,09,1.0,11.0,M,-34.6,M,,*69
$PYRTM,2024,128.168909397025,19.278556807164
$GPGGA,040312.00,3300.1829,N,11802.8011,W,1,09,1.0,11.9,M,-34.6,M,,*67
$PYRTM,2024,128.168920984850,19.278568394988
$GPGGA,040313.00,3300.1822,N,11802.7995,W,1,09,1.0,11.0,M,-34.6,M,,*6E
$PYRTM,2024,128.168932545671,19.278579955810
$GPGGA,040314.00,3300.1813,N,11802.7980,W,1,09,1.0,11.9,M,-34.6,M,,*66
$PYRTM,2024,128.168944134687,19.278591544826
$GPGGA,040315.00,3300.1804,N,11802.7965,W,1,09,1.0,12.4,M,-34.6,M,,*64
$PYRTM,2024,128.168955695637,19.278603105775
$GPGGA,040316.00,3300.1795,N,11802.7949,W,1,09,1.0,13.6,M,-34.6,M,,*6D
$PYRTM,2024,128.168967281632,19.278614691771
$GPGGA,040317.00,3300.1787,N,11802.7932,W,1,09,1.0,12.6,M,-34.6,M,,*62
$PYRTM,2024,128.168978841968,19.278626252106
$GPGGA,040318.00,3300.1778,N,11802.7915,W,1,09,1.0,10.8,M,-34.6,M,,*64
$PYRTM,2024,128.168990429954,19.278637840104
$GPGGA,040319.00,3300.1768,N,11802.7898,W,1,09,1.0,11.8,M,-34.6,M,,*61
$PYRTM,2024,128.169001991285,19.278649401424
$GPGGA,040320.00,3300.1759,N,11802.7882,W,1,09,1.0,12.4,M,-34.6,M,,*6D
$PYRTM,2024,128.169013926829,19.278661336968
$GPGGA,040321.00,3300.1752,N,11802.7865,W,1,09,1.0,13.1,M,-34.6,M,,*6A
$PYRTM,2024,128.169025138032,19.278672548171
$GPGGA,040322.00,3300.1743,N,11802.7847,W,1,09,1.0,11.0,M,-34.6,M,,*6A
$PYRTM,2024,128.169036726088,19.278684136227
$GPGGA,040323.00,3300.1735,N,11802.7832,W,1,09,1.0,12.4,M,-34.6,M,,*6F
$PYRTM,2024,128.169046905833,19.278694315972
$GPGGA,040324.00,3300.1727,N,11802.7817,W,1,09,1.0,13.0,M,-34.6,M,,*69
$PYRTM,2024,128.169058702488,19.278706112627
$GPGGA,040325.00,3300.1718,N,11802.7802,W,1,09,1.0,12.9,M,-34.6,M,,*68
$PYRTM,2024,128.169071434109,19.278718844248
$GPGGA,040326.00,3300.1710,N,11802.7785,W,1,09,1.0,13.3,M,-34.6,M,,*68
$PYRTM,2024,128.169083025567,19.278730435706
$GPGGA,040327.00,3300.1703,N,11802.7768,W,1,09,1.0,13.2,M,-34.6,M,,*69
$PYRTM,2024,128.169094583831,19.278741993970
$GPGGA,040328.00,3300.1696,N,11802.7751,W,1,09,1.0,11.4,M,-34.6,M,,*65
$PYRTM,2024,128.169106185150,19.278753595289
$GPGGA,040329.00,3300.1687,N,11802.7734,W,1,09,1.0,11.3,M,-34.6,M,,*60
$PYRTM,2024,128.169117733194,19.278765143333
$GPGGA,040330.00,3300.1678,N,11802.7715,W,1,09,1.0,12.2,M,-34.6,M,,*69
$PYRTM,2024,128.169129327685,19.278776737824
$GPGGA,040331.00,3300.1667,N,11802.7697,W,1,09,1.0,11.9,M,-34.6,M,,*65
$PYRTM,2024,128.169140880961,19.278788291100
$GPGGA,040332.00,3300.1659,N,11802.7679,W,1,09,1.0,12.9,M,-34.6,M,,*68
$PYRTM,2024,128.169152466331,19.278799876481
$GPGGA,040333.00,3300.1651,N,11802.7662,W,1,09,1.0,13.2,M,-34.6,M,,*61
$PYRTM,2024,128.169164028495,19.278811438634
$GPGGA,040334.00,3300.1643,N,11802.7646,W,1,09,1.0,12.5,M,-34.6,M,,*65
$PYRTM,2024,128.169175614850,19.278823024988
$GPGGA,040335.00,3300.1633,N,11802.7630,W,1,09,1.0,15.3,M,-34.6,M,,*63
$PYRTM,2024,128.169187175949,19.278834586088
$GPGGA,040336.00,3300.1624,N,11802.7614,W,1,09,1.0,13.1,M,-34.6,M,,*64
$PYRTM,2024,128.169198764132,19.278846174282
$GPGGA,040337.00,3300.1616,N,11802.7597,W,1,09,1.0,14.0,M,-34.6,M,,*6A
$PYRTM,2024,128.169210324734,19.278857734873
$GPGGA,040338.00,3300.1609,N,11802.7580,W,1,09,1.0,14.2,M,-34.6,M,,*6F
$PYRTM,2024,128.169221911424,19.278869321562
$GPGGA,040339.00,3300.1599,N,11802.7565,W,1,09,1.0,14.3,M,-34.6,M,,*6E
$PYRTM,2024,128.169233471794,19.278880881933
$GPGGA,040340.00,3300.1589,N,11802.7548,W,1,09,1.0,13.0,M,-34.6,M,,*6A
$PYRTM,2024,128.169245059896,19.278892470035
$GPGGA,040341.00,3300.1580,N,11802.7532,W,1,09,1.0,13.0,M,-34.6,M,,*6F
$PYRTM,2024,128.169256621157,19.278904031296
$GPGGA,040342.00,3300.1572,N,11802.7514,W,1,09,1.0,10.6,M,-34.6,M,,*60
$PYRTM,2024,128.169268210289,19.278915620428
$GPGGA,040343.00,3300.1565,N,11802.7496,W,1,09,1.0,11.4,M,-34.6,M,,*6F
$PYRTM,2024,128.169280244988,19.278927655127
$GPGGA,040344.00,3300.1556,N,11802.7479,W,1,09,1.0,13.7,M,-34.6,M,,*68
$PYRTM,2024,128.169291355683,19.278938765822
$GPGGA,040345.00,3300.1547,N,11802.7464,W,1,09,1.0,14.8,M,-34.6,M,,*6D
$PYRTM,2024,128.169302919167,19.278950329306
$GPGGA,040346.00,3300.1538,N,11802.7447,W,1,09,1.0,14.3,M,-34.6,M,,*6C
$PYRTM,2024,128.169314505127,19.278961915278
$GPGGA,040347.00,3300.1530,N,11802.7430,W,1,09,1.0,12.4,M,-34.6,M,,*64
$PYRTM,2024,128.169326066435,19.278973476574
$GPGGA,040348.00,3300.1522,N,11802.7411,W,1,09,1.0,12.0,M,-34.6,M,,*6F
$PYRTM,2024,128.169337652639,19.278985062778
$GPGGA,040349.00,3300.1514,N,11802.7393,W,1,09,1.0,12.2,M,-34.6,M,,*64
$PYRTM,2024,128.169349219850,19.278996629988
$GPGGA,040350.00,3300.1506,N,11802.7377,W,1,09,1.0,12.0,M,-34.6,M,,*67
$PYRTM,2024,128.169361250625,19.279008660764
$GPGGA,040351.00,3300.1496,N,11802.7361,W,1,09,1.0,11.6,M,-34.6,M,,*6C
$PYRTM,2024,128.169372841944,19.279020252083
$GPGGA,040352.00,3300.1487,N,11802.7345,W,1,09,1.0,11.8,M,-34.6,M,,*67
$PYRTM,2024,128.169384399734,19.279031809873
$GPGGA,040353.00,3300.1478,N,11802.7328,W,1,09,1.0,10.3,M,-34.6,M,,*67
$PYRTM,2024,128.169394584375,19.279041994514
$GPGGA,040354.00,3300.1470,N,11802.7312,W,1,09,1.0,12.8,M,-34.6,M,,*68
$PYRTM,2024,128.169405926215,19.279053336354
$GPGGA,040355.00,3300.1463,N,11802.7296,W,1,09,1.0,13.6,M,-34.6,M,,*69
$PYRTM,2024,128.169418658275,19.279066068414
$GPGGA,040356.00,3300.1453,N,11802.7279,W,1,09,1.0,12.4,M,-34.6,M,,*6B
$PYRTM,2024,128.169430249873,19.279077660012
$GPGGA,040357.00,3300.1441,N,11802.7262,W,1,09,1.0,14.3,M,-34.6,M,,*62
$PYRTM,2024,128.169441806435,19.279089216574
$GPGGA,040358.00,3300.1431,N,11802.7244,W,1,09,1.0,12.0,M,-34.6,M,,*6B
$PYRTM,2024,128.169453407801,19.279100817951
$GPGGA,040359.00,3300.1421,N,11802.7227,W,1,09,1.0,12.3,M,-34.6,M,,*6D
$PYRTM,2024,128.169464956123,19.279112366262
$GPGGA,040400.00,3300.1413,N,11802.7211,W,1,09,1.0,13.8,M,-34.6,M,,*68
$PYRTM,2024,128.169476543380,19.279123953519
$GPGGA,040401.00,3300.1404,N,11802.7194,W,1,09,1.0,13.5,M,-34.6,M,,*6C
$PYRTM,2024,128.169488104248,19.279135514387
$GPGGA,040402.00,3300.1397,N,11802.7176,W,1,09,1.0,16.4,M,-34.6,M,,*6A
$PYRTM,2024,128.169499691169,19.279147101319
$GPGGA,040403.00,3300.1389,N,11802.7158,W,1,09,1.0,15.1,M,-34.6,M,,*6E
$PYRTM,2024,128.169511253634,19.279158663785
$GPGGA,040404.00,3300.1380,N,11802.7142,W,1,09,1.0,16.1,M,-34.6,M,,*68
$PYRTM,2024,128.169522838565,19.279170248704
$GPGGA,040405.00,3300.1371,N,11802.7125,W,1,09,1.0,13.5,M,-34.6,M,,*67
$PYRTM,2024,128.169534401690,19.279181811829
$GPGGA,040406.00,3300.1362,N,11802.7108,W,1,09,1.0,13.0,M,-34.6,M,,*6C
$PYRTM,2024,128.169545987442,19.279193397581
$GPGGA,040407.00,3300.1353,N,11802.7090,W,1,09,1.0,11.5,M,-34.6,M,,*68
$PYRTM,2024,128.169557548542,19.279204958681
$GPGGA,040408.00,3300.1344,N,11802.7071,W,1,09,1.0,14.3,M,-34.6,M,,*6D
$PYRTM,2024,128.169569136215,19.279216546354
$GPGGA,040409.00,3300.1335,N,11802.7052,W,1,09,1.0,13.4,M,-34.6,M,,*6B
$PYRTM,2024,128.169580696181,19.279228106319
$GPGGA,040410.00,3300.1326,N,11802.7036,W,1,09,1.0,12.5,M,-34.6,M,,*63
$PYRTM,2024,128.169592287361,19.279239697500
$GPGGA,040411.00,3300.1317,N,11802.7020,W,1,09,1.0,11.6,M,-34.6,M,,*67
$PYRTM,2024,128.169603845000,19.279251255139
$GPGGA,040412.00,3300.1309,N,11802.7005,W,1,09,1.0,10.9,M,-34.6,M,,*62
$PYRTM,2024,128.169615447211,19.279262857350
$GPGGA,040413.00,3300.1301,N,11802.6990,W,1,09,1.0,9.9,M,-34.6,M,,*57
$PYRTM,2024,128.169626992905,19.279274403044
$GPGGA,040414.00,3300.1292,N,11802.6974,W,1,09,1.0,9.1,M,-34.6,M,,*59
$PYRTM,2024,128.169638580197,19.279285990336
$GPGGA,040415.00,3300.1284,N,11802.6957,W,1,09,1.0,10.1,M,-34.6,M,,*66
$PYRTM,2024,128.169650140961,19.279297551100
$GPGGA,040416.00,3300.1276,N,11802.6940,W,1,09,1.0,11.9,M,-34.6,M,,*67
$PYRTM,2024,128.169661728299,19.279309138438
$GPGGA,040417.00,3300.1268,N,11802.6921,W,1,09,1.0,14.9,M,-34.6,M,,*6B
$PYRTM,2024,128.169672364734,19.279319774884
$GPGGA,040418.00,3300.1259,N,11802.6902,W,1,09,1.0,15.5,M,-34.6,M,,*6A
$PYRTM,2024,128.169684298553,19.279331708692
$GPGGA,040419.00,3300.1250,N,11802.6886,W,1,09,1.0,15.5,M,-34.6,M,,*6F
$PYRTM,2024,128.169695065648,19.279342475787
$GPGGA,040420.00,3300.1240,N,11802.6871,W,1,09,1.0,14.8,M,-34.6,M,,*60
$PYRTM,2024,128.169706624398,19.279354034537
$GPGGA,040421.00,3300.1231,N,11802.6855,W,1,09,1.0,15.7,M,-34.6,M,,*6F
$PYRTM,2024,128.169717736308,19.279365146447
$GPGGA,040422.00,3300.1225,N,11802.6839,W,1,09,1.0,14.8,M,-34.6,M,,*6D
$PYRTM,2024,128.169728959757,19.279376369896
$GPGGA,040423.00,3300.1219,N,11802.6821,W,1,09,1.0,13.9,M,-34.6,M,,*6C
$PYRTM,2024,128.169744586736,19.279391996887
$GPGGA,040424.00,3300.1211,N,11802.6806,W,1,09,1.0,13.3,M,-34.6,M,,*6C
$PYRTM,2024,128.169755813333,19.279403223472
$GPGGA,040425.00,3300.1203,N,11802.6790,W,1,09,1.0,12.7,M,-34.6,M,,*6B
$PYRTM,2024,128.169766924248,19.279414334398
$GPGGA,040426.00,3300.1194,N,11802.6773,W,1,09,1.0,13.6,M,-34.6,M,,*68
$PYRTM,2024,128.169778035648,19.279425445787
$GPGGA,040427.00,3300.1185,N,11802.6756,W,1,09,1.0,11.0,M,-34.6,M,,*6A
$PYRTM,2024,128.169800621887,19.279448032025
$GPGGA,040428.00,3300.1178,N,11802.6738,W,1,09,1.0,10.7,M,-34.6,M,,*69
$PYRTM,2024,128.169811729398,19.279459139537
$GPGGA,040429.00,3300.1170,N,11802.6720,W,1,09,1.0,11.3,M,-34.6,M,,*6C
$PYRTM,2024,128.169822840359,19.279470250498
$GPGGA,040430.00,3300.1160,N,11802.6702,W,1,09,1.0,10.5,M,-34.6,M,,*62
$PYRTM,2024,128.169834070058,19.279481480197
$GPGGA,040431.00,3300.1150,N,11802.6685,W,1,09,1.0,10.3,M,-34.6,M,,*68
$PYRTM,2024,128.169845178171,19.279492588310
$GPGGA,040432.00,3300.1141,N,11802.6669,W,1,09,1.0,10.3,M,-34.6,M,,*69
$PYRTM,2024,128.169856292581,19.279503702720
$GPGGA,040433.00,3300.1131,N,11802.6654,W,1,09,1.0,11.5,M,-34.6,M,,*66
$PYRTM,2024,128.169867852465,19.279515262604
$GPGGA,040434.00,3300.1122,N,11802.6637,W,1,09,1.0,11.9,M,-34.6,M,,*6A
$PYRTM,2024,128.169878961991,19.279526372130
$GPGGA,040435.00,3300.1113,N,11802.6620,W,1,09,1.0,13.0,M,-34.6,M,,*64
$PYRTM,2024,128.169890186933,19.279537597060
$GPGGA,040436.00,3300.1104,N,11802.6603,W,1,09,1.0,11.8,M,-34.6,M,,*6A
$PYRTM,2024,128.169901300093,19.279548710231
$GPGGA,040437.00,3300.1096,N,11802.6587,W,1,09,1.0,12.2,M,-34.6,M,,*67
$PYRTM,2024,128.169912410440,19.279559820579
$GPGGA,040438.00,3300.1088,N,11802.6570,W,1,09,1.0,12.7,M,-34.6,M,,*6A
$PYRTM,2024,128.169923521528,19.279570931667
$GPGGA,040439.00,3300.1081,N,11802.6553,W,1,09,1.0,12.8,M,-34.6,M,,*6C
$PYRTM,2024,128.169934762454,19.279582172593
$GPGGA,040440.00,3300.1073,N,11802.6536,W,1,09,1.0,11.3,M,-34.6,M,,*64
$PYRTM,2024,128.169945873762,19.279593283900
$GPGGA,040441.00,3300.1064,N,11802.6518,W,1,09,1.0,13.5,M,-34.6,M,,*6B
$PYRTM,2024,128.169956986181,19.279604396319
$GPGGA,040442.00,3300.1056,N,11802.6502,W,1,09,1.0,14.4,M,-34.6,M,,*64
$PYRTM,2024,128.169968110880,19.279615521019
$GPGGA,040443.00,3300.1048,N,11802.6486,W,1,09,1.0,14.0,M,-34.6,M,,*63
$PYRTM,2024,128.169979324074,19.279626734213
$GPGGA,040444.00,3300.1041,N,11802.6470,W,1,09,1.0,14.5,M,-34.6,M,,*61
$PYRTM,2024,128.169990434606,19.279637844745
$GPGGA,040445.00,3300.1033,N,11802.6453,W,1,09,1.0,13.5,M,-34.6,M,,*63
$PYRTM,2024,128.170001546377,19.279648956528
$GPGGA,040446.00,3300.1026,N,11802.6438,W,1,09,1.0,13.1,M,-34.6,M,,*6D
$PYRTM,2024,128.170011609734,19.279659019873
$GPGGA,040447.00,3300.1020,N,11802.6423,W,1,09,1.0,12.9,M,-34.6,M,,*69
$PYRTM,2024,128.170023886713,19.279671296852
$GPGGA,040448.00,3300.1012,N,11802.6407,W,1,09,1.0,12.2,M,-34.6,M,,*6A
$PYRTM,2024,128.170034994537,19.279682404687
$GPGGA,040449.00,3300.1004,N,11802.6391,W,1,09,1.0,11.8,M,-34.6,M,,*6D
$PYRTM,2024,128.170046100243,19.279693510382
$GPGGA,040450.00,3300.0997,N,11802.6373,W,1,09,1.0,10.8,M,-34.6,M,,*6A
$PYRTM,2024,128.170057665532,19.279705075671
$GPGGA,040451.00,3300.0988,N,11802.6355,W,1,09,1.0,10.2,M,-34.6,M,,*6B
$PYRTM,2024,128.170068778715,19.279716188854
$GPGGA,040452.00,3300.0979,N,11802.6337,W,1,09,1.0,11.1,M,-34.6,M,,*60
$PYRTM,2024,128.170080005602,19.279727415752
$GPGGA,040453.00,3300.0969,N,11802.6320,W,1,09,0.8,12.6,M,-34.6,M,,*6B
$PYRTM,2024,128.170089741111,19.279737151250
$GPGGA,040454.00,3300.0960,N,11802.6303,W,1,09,0.8,12.7,M,-34.6,M,,*65
$PYRTM,2024,128.170100852813,19.279748262963
$GPGGA,040455.00,3300.0951,N,11802.6286,W,1,09,0.8,13.3,M,-34.6,M,,*6F
$PYRTM,2024,128.170113223252,19.279760633391
$GPGGA,040456.00,3300.0943,N,11802.6269,W,1,09,0.8,12.2,M,-34.6,M,,*6E
$PYRTM,2024,128.170124695301,19.279772105440
$GPGGA,040457.00,3300.0936,N,11802.6252,W,1,09,0.8,12.3,M,-34.6,M,,*64
$PYRTM,2024,128.170136254850,19.279783664988
$GPGGA,040458.00,3300.0928,N,11802.6237,W,1,09,0.8,11.6,M,-34.6,M,,*61
$PYRTM,2024,128.170147845660,19.279795255799
$GPGGA,040459.00,3300.0920,N,11802.6222,W,1,09,0.8,10.9,M,-34.6,M,,*62
$PYRTM,2024,128.170159403542,19.279806813681
$GPGGA,040500.00,3300.0912,N,11802.6206,W,1,09,0.8,11.0,M,-34.6,M,,*60
$PYRTM,2024,128.170170990984,19.279818401134
$GPGGA,040501.00,3300.0904,N,11802.6187,W,1,09,0.8,12.0,M,-34.6,M,,*6F
$PYRTM,2024,128.170182552014,19.279829962153
$GPGGA,040502.00,3300.0896,N,11802.6168,W,1,09,0.8,11.0,M,-34.6,M,,*64
$PYRTM,2024,128.170194139514,19.279841549653
$GPGGA,040503.00,3300.0887,N,11802.6150,W,1,09,0.8,12.3,M,-34.6,M,,*6E
$PYRTM,2024,128.170205700648,19.279853110787
$GPGGA,040504.00,3300.0877,N,11802.6134,W,1,09,0.8,10.9,M,-34.6,M,,*6C
$PYRTM,2024,128.170217287269,19.279864697419
$GPGGA,040505.00,3300.0867,N,11802.6117,W,1,09,0.8,9.1,M,-34.6,M,,*5D
$PYRTM,2024,128.170228851030,19.279876261169
$GPGGA,040506.00,3300.0858,N,11802.6101,W,1,09,0.8,9.0,M,-34.6,M,,*54
$PYRTM,2024,128.170240436632,19.279887846771
$GPGGA,040507.00,3300.0851,N,11802.6086,W,1,09,0.8,8.2,M,-34.6,M,,*51
$PYRTM,2024,128.170251997488,19.279899407627
$GPGGA,040508.00,3300.0843,N,11802.6070,W,1,09,0.8,7.7,M,-34.6,M,,*5E
$PYRTM,2024,128.170263584062,19.279910994201
$GPGGA,040509.00,3300.0836,N,11802.6055,W,1,09,0.8,6.8,M,-34.6,M,,*54
$PYRTM,2024,128.170275145475,19.279922555613
$GPGGA,040510.00,3300.0829,N,11802.6039,W,1,09,0.8,8.3,M,-34.6,M,,*5D
$PYRTM,2024,128.170286731215,19.279934141354
$GPGGA,040511.00,3300.0820,N,11802.6024,W,1,09,1.0,8.2,M,-34.6,M,,*51
$PYRTM,2024,128.170298293866,19.279945704005
$GPGGA,040512.00,3300.0810,N,11802.6009,W,1,09,1.0,5.5,M,-34.6,M,,*54
$PYRTM,2024,128.170309883565,19.279957293704
$GPGGA,040513.00,3300.0801,N,11802.5993,W,1,09,1.0,3.5,M,-34.6,M,,*5A
$PYRTM,2024,128.170321443275,19.279968853426
$GPGGA,040514.00,3300.0794,N,11802.5976,W,1,09,1.0,5.1,M,-34.6,M,,*57
$PYRTM,2024,128.170333032535,19.279980442685
$GPGGA,040515.00,3300.0787,N,11802.5959,W,1,09,1.0,4.9,M,-34.6,M,,*50
$PYRTM,2024,128.170344591759,19.279992001898
$GPGGA,040516.00,3300.0780,N,11802.5943,W,1,09,1.0,4.1,M,-34.6,M,,*57
$PYRTM,2024,128.170356177639,19.280003587778
$GPGGA,040517.00,3300.0771,N,11802.5928,W,1,09,1.0,4.7,M,-34.6,M,,*53
$PYRTM,2024,128.170367740266,19.280015150405
$GPGGA,040518.00,3300.0762,N,11802.5912,W,1,09,1.0,5.0,M,-34.6,M,,*51
$PYRTM,2024,128.170379324711,19.280026734850
$GPGGA,040519.00,3300.0754,N,11802.5895,W,1,09,1.0,4.7,M,-34.6,M,,*5D
$PYRTM,2024,128.170390887581,19.280038297720
$GPGGA,040520.00,3300.0746,N,11802.5880,W,1,09,1.0,3.4,M,-34.6,M,,*54
$PYRTM,2024,128.170402474630,19.280049884769
$GPGGA,040521.00,3300.0735,N,11802.5863,W,1,09,1.0,5.0,M,-34.6,M,,*5E
$PYRTM,2024,128.170414035498,19.280061445637
$GPGGA,040522.00,3300.0725,N,11802.5847,W,1,09,1.0,5.6,M,-34.6,M,,*5C
$PYRTM,2024,128.170425621910,19.280073032049
$GPGGA,040523.00,3300.0717,N,11802.5830,W,1,09,1.0,7.7,M,-34.6,M,,*5F
$PYRTM,2024,128.170436256852,19.280083666991
$GPGGA,040524.00,3300.0711,N,11802.5813,W,1,09,1.0,7.0,M,-34.6,M,,*58
$PYRTM,2024,128.170447598299,19.280095008438
$GPGGA,040525.00,3300.0705,N,11802.5797,W,1,09,1.0,7.4,M,-34.6,M,,*5B
$PYRTM,2024,128.170460331424,19.280107741574
$GPGGA,040526.00,3300.0698,N,11802.5780,W,1,09,1.0,8.8,M,-34.6,M,,*58
$PYRTM,2024,128.170471921528,19.280119331678
$GPGGA,040527.00,3300.0689,N,11802.5764,W,1,09,1.0,7.2,M,-34.6,M,,*56
$PYRTM,2024,128.170483479421,19.280130889560
$GPGGA,040528.00,3300.0681,N,11802.5747,W,1,09,1.0,5.4,M,-34.6,M,,*54
$PYRTM,2024,128.170495067419,19.280142477558
$GPGGA,040529.00,3300.0674,N,11802.5729,W,1,09,1.0,5.2,M,-34.6,M,,*51
$PYRTM,2024,128.170506628808,19.280154039259
$GPGGA,040530.00,3300.0667,N,11802.5711,W,1,09,1.0,4.5,M,-34.6,M,,*56
$PYRTM,2024,128.170518215822,19.280165625961
$GPGGA,040531.00,3300.0656,N,11802.5693,W,1,09,1.0,6.4,M,-34.6,M,,*5D
$PYRTM,2024,128.170529775567,19.280177185706
$GPGGA,040532.00,3300.0645,N,11802.5676,W,1,10,0.8,2.5,M,-34.6,M,,*53
$PYRTM,2024,128.170541358148,19.280188768287
$GPGGA,040533.00,3300.0635,N,11802.5658,W,1,10,0.8,2.7,M,-34.6,M,,*5B
$PYRTM,2024,128.170552925891,19.280200336030
$GPGGA,040534.00,3300.0627,N,11802.5639,W,1,10,0.8,2.3,M,-34.6,M,,*5C
$PYRTM,2024,128.170564513600,19.280211923738
$GPGGA,040535.00,3300.0620,N,11802.5621,W,1,10,0.8,2.4,M,-34.6,M,,*54
$PYRTM,2024,128.170576073565,19.280223483715
$GPGGA,040536.00,3300.0612,N,11802.5604,W,1,10,0.8,3.1,M,-34.6,M,,*55
$PYRTM,2024,128.170587661343,19.280235071481
$GPGGA,040537.00,3300.0603,N,11802.5589,W,1,10,0.8,2.9,M,-34.6,M,,*5B
$PYRTM,2024,128.170599222037,19.280246632188
$GPGGA,040538.00,3300.0594,N,11802.5574,W,1,10,0.8,4.2,M,-34.6,M,,*56
$PYRTM,2024,128.170610807164,19.280258217303
$GPGGA,040539.00,3300.0587,N,11802.5557,W,1,10,0.8,4.6,M,-34.6,M,,*50
$PYRTM,2024,128.170622369722,19.280269779873
$GPGGA,040540.00,3300.0581,N,11802.5540,W,1,10,0.8,6.0,M,-34.6,M,,*5A
$PYRTM,2024,128.170633959919,19.280281370058
$GPGGA,040541.00,3300.0572,N,11802.5523,W,1,10,0.8,4.9,M,-34.6,M,,*59
$PYRTM,2024,128.170645518310,19.280292928449
$GPGGA,040542.00,3300.0563,N,11802.5506,W,1,10,0.8,2.4,M,-34.6,M,,*56
$PYRTM,2024,128.170657107801,19.280304517940
$GPGGA,040543.00,3300.0555,N,11802.5491,W,1,10,0.8,3.5,M,-34.6,M,,*5D
$PYRTM,2024,128.170668666574,19.280316076725
$GPGGA,040544.00,3300.0548,N,11802.5474,W,1,10,0.8,0.8,M,-34.6,M,,*53
$PYRTM,2024,128.170680252292,19.280327662431
$GPGGA,040545.00,3300.0541,N,11802.5457,W,1,10,0.8,2.7,M,-34.6,M,,*57
$PYRTM,2024,128.170691814537,19.280339224676
$GPGGA,040546.00,3300.0533,N,11802.5441,W,1,10,0.8,2.0,M,-34.6,M,,*51
$PYRTM,2024,128.170703405428,19.280350815567
$GPGGA,040547.00,3300.0522,N,11802.5426,W,1,10,0.8,2.4,M,-34.6,M,,*55
$PYRTM,2024,128.170714963218,19.280362373356
$GPGGA,040548.00,3300.0511,N,11802.5410,W,1,10,0.8,1.3,M,-34.6,M,,*5B
$PYRTM,2024,128.170726544225,19.280373954363
$GPGGA,040549.00,3300.0503,N,11802.5392,W,1,10,0.8,1.4,M,-34.6,M,,*53
$PYRTM,2024,128.170738109965,19.280385520104
$GPGGA,040550.00,3300.0495,N,11802.5375,W,1,10,0.8,1.0,M,-34.6,M,,*58
$PYRTM,2024,128.170749698322,19.280397108461
$GPGGA,040551.00,3300.0486,N,11802.5360,W,1,10,0.8,1.5,M,-34.6,M,,*5A
$PYRTM,2024,128.170761259699,19.280408669838
$GPGGA,040552.00,3300.0476,N,11802.5345,W,1,10,0.8,1.7,M,-34.6,M,,*53
$PYRTM,2024,128.170772859873,19.280420270012
$GPGGA,040553.00,3300.0467,N,11802.5329,W,1,10,0.8,1.9,M,-34.6,M,,*56
$PYRTM,2024,128.170783030417,19.280430440556
$GPGGA,040554.00,3300.0459,N,11802.5314,W,1,10,0.8,2.5,M,-34.6,M,,*5D
$PYRTM,2024,128.170794821088,19.280442231227
$GPGGA,040555.00,3300.0452,N,11802.5297,W,1,10,0.8,1.4,M,-34.6,M,,*5F
$PYRTM,2024,128.170807555984,19.280454966123
$GPGGA,040556.00,3300.0444,N,11802.5282,W,1,10,0.8,3.8,M,-34.6,M,,*51
$PYRTM,2024,128.170819156528,19.280466566667
$GPGGA,040557.00,3300.0434,N,11802.5266,W,1,10,0.8,5.0,M,-34.6,M,,*53
$PYRTM,2024,128.170830703692,19.280478113831
$GPGGA,040558.00,3300.0425,N,11802.5249,W,1,10,0.8,2.9,M,-34.6,M,,*5F
$PYRTM,2024,128.170842291481,19.280489701632
$GPGGA,040559.00,3300.0418,N,11802.5231,W,1,10,0.8,6.2,M,-34.6,M,,*50
$PYRTM,2024,128.170853851088,19.280501261227
$GPGGA,040600.00,3300.0410,N,11802.5213,W,1,10,0.8,5.8,M,-34.6,M,,*5E
$PYRTM,2024,128.170865433854,19.280512843993
$GPGGA,040601.00,3300.0401,N,11802.5197,W,1,10,0.8,6.1,M,-34.6,M,,*5A
$PYRTM,2024,128.170877000162,19.280524410301
$GPGGA,040602.00,3300.0392,N,11802.5182,W,1,10,0.8,6.3,M,-34.6,M,,*52
$PYRTM,2024,128.170888586794,19.280535996933
$GPGGA,040603.00,3300.0384,N,11802.5167,W,1,10,0.8,6.4,M,-34.6,M,,*58
$PYRTM,2024,128.170900150394,19.280547560532
$GPGGA,040604.00,3300.0376,N,11802.5153,W,1,10,0.8,6.0,M,-34.6,M,,*51
$PYRTM,2024,128.170911735035,19.280559145174
$GPGGA,040605.00,3300.0368,N,11802.5137,W,1,10,0.8,6.0,M,-34.6,M,,*5D
$PYRTM,2024,128.170923296632,19.280570706782
$GPGGA,040606.00,3300.0361,N,11802.5120,W,1,10,0.8,4.8,M,-34.6,M,,*5B
$PYRTM,2024,128.170934884097,19.280582294236
$GPGGA,040607.00,3300.0350,N,11802.5104,W,1,10,0.8,5.9,M,-34.6,M,,*5E
$PYRTM,2024,128.170946446678,19.280593856817
$GPGGA,040608.00,3300.0341,N,11802.5087,W,1,10,0.8,6.9,M,-34.6,M,,*58
$PYRTM,2024,128.170958035093,19.280605445243
$GPGGA,040609.00,3300.0332,N,11802.5069,W,1,10,0.8,2.3,M,-34.6,M,,*53
$PYRTM,2024,128.170969595012,19.280617005150
$GPGGA,040610.00,3300.0323,N,11802.5050,W,1,10,0.8,2.2,M,-34.6,M,,*50
$PYRTM,2024,128.170981183877,19.280628594016
$GPGGA,040611.00,3300.0314,N,11802.5032,W,1,10,0.8,3.5,M,-34.6,M,,*57
$PYRTM,2024,128.170992742755,19.280640152894
$GPGGA,040612.00,3300.0306,N,11802.5014,W,1,10,0.8,4.2,M,-34.6,M,,*53
$PYRTM,2024,128.171004332407,19.280651742546
$GPGGA,040613.00,3300.0298,N,11802.4997,W,1,10,0.8,5.5,M,-34.6,M,,*51
$PYRTM,2024,128.171015890324,19.280663300463
$GPGGA,040614.00,3300.0290,N,11802.4981,W,1,10,0.8,5.6,M,-34.6,M,,*5A
$PYRTM,2024,128.171027477500,19.280674887639
$GPGGA,040615.00,3300.0283,N,11802.4964,W,1,10,0.8,4.8,M,-34.6,M,,*5D
$PYRTM,2024,128.171039038461,19.280686448600
$GPGGA,040616.00,3300.0275,N,11802.4948,W,1,10,0.8,3.5,M,-34.6,M,,*53
$PYRTM,2024,128.171050626169,19.280698036308
$GPGGA,040617.00,3300.0265,N,11802.4931,W,1,10,0.8,4.0,M,-34.6,M,,*5F
$PYRTM,2024,128.171062187755,19.280709597905
$GPGGA,040618.00,3300.0255,N,11802.4913,W,1,10,0.8,3.7,M,-34.6,M,,*53
$PYRTM,2024,128.171073775174,19.280721185312
$GPGGA,040619.00,3300.0245,N,11802.4894,W,1,10,0.8,5.4,M,-34.6,M,,*58
$PYRTM,2024,128.171085335625,19.280732745764
$GPGGA,040620.00,3300.0235,N,11802.4876,W,1,10,0.8,6.0,M,-34.6,M,,*5E
$PYRTM,2024,128.171096922315,19.280744332454
$GPGGA,040621.00,3300.0225,N,11802.4858,W,1,10,0.8,7.1,M,-34.6,M,,*52
$PYRTM,2024,128.171107557037,19.280754967176
$GPGGA,040622.00,3300.0216,N,11802.4840,W,1,10,0.8,7.8,M,-34.6,M,,*51
$PYRTM,2024,128.171118566713,19.280765976852
$GPGGA,040623.00,3300.0208,N,11802.4825,W,1,10,0.8,6.8,M,-34.6,M,,*5D
$PYRTM,2024,128.171131297708,19.280778707847
$GPGGA,040624.00,3300.0200,N,11802.4809,W,1,10,0.8,7.0,M,-34.6,M,,*55
$PYRTM,2024,128.171142422894,19.280789833032
$GPGGA,040625.00,3300.0192,N,11802.4793,W,1,10,0.8,7.1,M,-34.6,M,,*51
$PYRTM,2024,128.171153520336,19.280800930475
$GPGGA,040626.00,3300.0184,N,11802.4775,W,1,10,0.8,6.1,M,-34.6,M,,*5C
$PYRTM,2024,128.171164631447,19.280812041597
$GPGGA,040627.00,3300.0175,N,11802.4758,W,1,10,0.8,6.4,M,-34.6,M,,*59
$PYRTM,2024,128.171175744977,19.280823155116
$GPGGA,040628.00,3300.0165,N,11802.4741,W,1,10,0.8,6.2,M,-34.6,M,,*59
$PYRTM,2024,128.171186848762,19.280834258900
$GPGGA,040629.00,3300.0156,N,11802.4724,W,1,10,0.8,5.2,M,-34.6,M,,*58
$PYRTM,2024,128.171197968738,19.280845378877
$GPGGA,040630.00,3300.0146,N,11802.4705,W,1,10,0.8,8.7,M,-34.6,M,,*5A
$PYRTM,2024,128.171209075648,19.280856485787
$GPGGA,040631.00,3300.0137,N,11802.4686,W,1,10,0.8,5.8,M,-34.6,M,,*55
$PYRTM,2024,128.171220191470,19.280867601609
$GPGGA,040632.00,3300.0130,N,11802.4667,W,1,10,0.8,4.1,M,-34.6,M,,*56
$PYRTM,2024,128.171231298877,19.280878709028
$GPGGA,040633.00,3300.0121,N,11802.4650,W,1,10,0.8,3.9,M,-34.6,M,,*5C
$PYRTM,2024,128.171242409005,19.280889819144
$GPGGA,040634.00,3300.0112,N,11802.4635,W,1,10,0.8,3.3,M,-34.6,M,,*52
$PYRTM,2024,128.171253636204,19.280901046343
$GPGGA,040635.00,3300.0103,N,11802.4620,W,1,10,0.8,2.4,M,-34.6,M,,*51
$PYRTM,2024,128.171265194722,19.280912604861
$GPGGA,040636.00,3300.0094,N,11802.4604,W,1,10,0.8,2.1,M,-34.6,M,,*5E
$PYRTM,2024,128.171276784583,19.280924194722
$GPGGA,040637.00,3300.0087,N,11802.4588,W,1,10,0.8,3.3,M,-34.6,M,,*59
$PYRTM,2024,128.171288343646,19.280935753785
$GPGGA,040638.00,3300.0077,N,11802.4571,W,1,10,0.8,4.4,M,-34.6,M,,*5F
$PYRTM,2024,128.171299929884,19.280947340023
$GPGGA,040639.00,3300.0068,N,11802.4554,W,1,10,0.8,3.6,M,-34.6,M,,*52
$PYRTM,2024,128.171311493437,19.280958903576
$GPGGA,040640.00,3300.0058,N,11802.4537,W,1,10,0.8,6.1,M,-34.6,M,,*58
$PYRTM,2024,128.171323082060,19.280970492199
$GPGGA,040641.00,3300.0049,N,11802.4520,W,1,10,0.8,6.5,M,-34.6,M,,*5B
$PYRTM,2024,128.171334640324,19.280982050463
$GPGGA,040642.00,3300.0040,N,11802.4503,W,1,10,0.8,6.3,M,-34.6,M,,*56
$PYRTM,2024,128.171346229340,19.280993639479
$GPGGA,040643.00,3300.0032,N,11802.4487,W,1,10,0.8,4.8,M,-34.6,M,,*56
$PYRTM,2024,128.171357790347,19.281005200486
$GPGGA,040644.00,3300.0023,N,11802.4473,W,1,10,0.8,4.4,M,-34.6,M,,*56
$PYRTM,2024,128.171369372419,19.281016782558
$GPGGA,040645.00,3300.0014,N,11802.4459,W,1,10,0.8,4.8,M,-34.6,M,,*57
$PYRTM,2024,128.171380937373,19.281028347512
$GPGGA,040646.00,3300.0006,N,11802.4444,W,1,10,0.8,3.2,M,-34.6,M,,*56
$PYRTM,2024,128.171392520046,19.281039930197
$GPGGA,040647.00,3259.9998,N,11802.4428,W,1,10,0.8,3.3,M,-34.6,M,,*56
$PYRTM,2024,128.171404085046,19.281051495185
$GPGGA,040648.00,3259.9991,N,11802.4412,W,1,10,0.8,4.1,M,-34.6,M,,*5C
$PYRTM,2024,128.171415674444,19.281063084583
$GPGGA,040649.00,3259.9983,N,11802.4396,W,1,10,0.8,3.2,M,-34.6,M,,*51
$PYRTM,2024,128.171427234491,19.281074644630
$GPGGA,040650.00,3259.9974,N,11802.4379,W,1,10,0.8,1.8,M,-34.6,M,,*58
$PYRTM,2024,128.171438821632,19.281086231771
$GPGGA,040651.00,3259.9964,N,11802.4362,W,1,10,0.8,3.0,M,-34.6,M,,*58
$PYRTM,2024,128.171450382130,19.281097792269
$GPGGA,040652.00,3259.9954,N,11802.4346,W,1,10,0.8,4.0,M,-34.6,M,,*59
$PYRTM,2024,128.171461969745,19.281109379884
$GPGGA,040653.00,3259.9945,N,11802.4329,W,1,10,0.8,5.4,M,-34.6,M,,*54
$PYRTM,2024,128.171478855278,19.281126265405
$GPGGA,040654.00,3259.9937,N,11802.4312,W,1,10,0.8,3.5,M,-34.6,M,,*59
$PYRTM,2024,128.171489270544,19.281136680683
$GPGGA,040655.00,3259.9929,N,11802.4295,W,1,10,0.8,3.0,M,-34.6,M,,*5C
$PYRTM,2024,128.171502003773,19.281149413912
$GPGGA,040656.00,3259.9921,N,11802.4277,W,1,10,0.8,5.7,M,-34.6,M,,*5A
$PYRTM,2024,128.171513590544,19.281161000683
$GPGGA,040657.00,3259.9913,N,11802.4260,W,1,10,0.8,7.8,M,-34.6,M,,*51
$PYRTM,2024,128.171525152870,19.281172563009
$GPGGA,040658.00,3259.9904,N,11802.4242,W,1,10,0.8,8.1,M,-34.6,M,,*5E
$PYRTM,2024,128.171536739572,19.281184149711
$GPGGA,040659.00,3259.9897,N,11802.4226,W,1,10,0.8,9.0,M,-34.6,M,,*56
$PYRTM,2024,128.171548300949,19.281195711088
$GPGGA,040700.00,3259.9889,N,11802.4209,W,1,10,0.8,7.3,M,-34.6,M,,*54
$PYRTM,2024,128.171559887396,19.281207297535
$GPGGA,040701.00,3259.9881,N,11802.4191,W,1,10,0.8,7.3,M,-34.6,M,,*5F
$PYRTM,2024,128.171571448623,19.281218858762
$GPGGA,040702.00,3259.9872,N,11802.4174,W,1,10,0.8,6.5,M,-34.6,M,,*5C
$PYRTM,2024,128.171583035729,19.281230445868
$GPGGA,040703.00,3259.9864,N,11802.4157,W,1,10,0.8,5.9,M,-34.6,M,,*54
$PYRTM,2024,128.171594596956,19.281242007095
$GPGGA,040704.00,3259.9857,N,11802.4140,W,1,10,0.8,5.4,M,-34.6,M,,*58
$PYRTM,2024,128.171606186817,19.281253596956
$GPGGA,040705.00,3259.9848,N,11802.4124,W,1,10,0.8,3.8,M,-34.6,M,,*5F
$PYRTM,2024,128.171617746157,19.281265156296
$GPGGA,040706.00,3259.9839,N,11802.4108,W,1,10,0.8,4.0,M,-34.6,M,,*5B
$PYRTM,2024,128.171629335648,19.281276745799
$GPGGA,040707.00,3259.9829,N,11802.4093,W,1,10,0.8,3.8,M,-34.6,M,,*57
$PYRTM,2024,128.171640895012,19.281288305150
$GPGGA,040708.00,3259.9820,N,11802.4077,W,1,10,0.8,5.7,M,-34.6,M,,*52
$PYRTM,2024,128.171652480718,19.281299890856
$GPGGA,040709.00,3259.9813,N,11802.4058,W,1,10,0.8,7.4,M,-34.6,M,,*5F
$PYRTM,2024,128.171664042917,19.281311453067
$GPGGA,040710.00,3259.9805,N,11802.4039,W,1,10,0.8,6.0,M,-34.6,M,,*52
$PYRTM,2024,128.171675624213,19.281323034352
$GPGGA,040711.00,3259.9797,N,11802.4020,W,1,10,0.8,5.2,M,-34.6,M,,*5E
$PYRTM,2024,128.171687190532,19.281334600671
$GPGGA,040712.00,3259.9786,N,11802.4003,W,1,10,0.8,6.1,M,-34.6,M,,*5C
$PYRTM,2024,128.171698777593,19.281346187731
$GPGGA,040713.00,3259.9775,N,11802.3987,W,1,10,0.8,5.7,M,-34.6,M,,*56
$PYRTM,2024,128.171710338866,19.281357749005
$GPGGA,040714.00,3259.9765,N,11802.3970,W,1,10,0.8,3.5,M,-34.6,M,,*5C
$PYRTM,2024,128.171721926655,19.281369336794
$GPGGA,040715.00,3259.9758,N,11802.3953,W,1,10,0.8,3.6,M,-34.6,M,,*51
$PYRTM,2024,128.171733489838,19.281380899977
$GPGGA,040716.00,3259.9751,N,11802.3936,W,1,10,0.8,3.1,M,-34.6,M,,*5F
$PYRTM,2024,128.171745075243,19.281392485382
$GPGGA,040717.00,3259.9743,N,11802.3921,W,1,10,0.8,3.4,M,-34.6,M,,*5E
$PYRTM,2024,128.171756636157,19.281404046296
$GPGGA,040718.00,3259.9734,N,11802.3906,W,1,10,0.8,3.2,M,-34.6,M,,*52
$PYRTM,2024,128.171768221875,19.281415632014
$GPGGA,040719.00,3259.9726,N,11802.3890,W,1,10,0.8,2.9,M,-34.6,M,,*54
$PYRTM,2024,128.171779782106,19.281427192245
$GPGGA,040720.00,3259.9716,N,11802.3873,W,1,10,0.8,3.7,M,-34.6,M,,*5F
$PYRTM,2024,128.171791373669,19.281438783808
$GPGGA,040721.00,3259.9707,N,11802.3857,W,1,10,0.8,1.9,M,-34.6,M,,*54
$PYRTM,2024,128.171802933808,19.281450343958
$GPGGA,040722.00,3259.9698,N,11802.3838,W,1,10,0.8,1.1,M,-34.6,M,,*51
$PYRTM,2024,128.171814521609,19.281461931748
$GPGGA,040723.00,3259.9690,N,11802.3820,W,1,10,0.8,2.3,M,-34.6,M,,*50
$PYRTM,2024,128.171824698681,19.281472108819
$GPGGA,040724.00,3259.9681,N,11802.3803,W,1,10,0.8,2.7,M,-34.6,M,,*52
$PYRTM,2024,128.171836496181,19.281483906319
$GPGGA,040725.00,3259.9672,N,11802.3786,W,1,10,0.8,4.7,M,-34.6,M,,*5B
$PYRTM,2024,128.171849228738,19.281496638877
$GPGGA,040726.00,3259.9662,N,11802.3769,W,1,10,0.8,2.7,M,-34.6,M,,*5E
$PYRTM,2024,128.171860816007,19.281508226157
$GPGGA,040727.00,3259.9652,N,11802.3753,W,1,10,0.8,2.8,M,-34.6,M,,*5A
$PYRTM,2024,128.171872377269,19.281519787407
$GPGGA,040728.00,3259.9643,N,11802.3735,W,1,10,0.8,2.5,M,-34.6,M,,*58
$PYRTM,2024,128.171883964525,19.281531374664
$GPGGA,040729.00,3259.9634,N,11802.3717,W,1,10,0.8,1.9,M,-34.6,M,,*56
$PYRTM,2024,128.171895526227,19.281542936366
$GPGGA,040730.00,3259.9624,N,11802.3700,W,1,10,0.8,2.8,M,-34.6,M,,*5B
$PYRTM,2024,128.171907112650,19.281554522789
$GPGGA,040731.00,3259.9613,N,11802.3683,W,1,10,0.8,4.1,M,-34.6,M,,*5B
$PYRTM,2024,128.171918673333,19.281566083472
$GPGGA,040732.00,3259.9603,N,11802.3664,W,1,10,0.8,3.7,M,-34.6,M,,*51
$PYRTM,2024,128.171930260220,19.281577670359
$GPGGA,040733.00,3259.9595,N,11802.3646,W,1,10,0.8,4.1,M,-34.6,M,,*5D
$PYRTM,2024,128.171941821852,19.281589231991
$GPGGA,040734.00,3259.9587,N,11802.3628,W,1,10,0.8,3.6,M,-34.6,M,,*51
$PYRTM,2024,128.171953411771,19.281600821910
$GPGGA,040735.00,3259.9578,N,11802.3611,W,1,10,0.8,6.3,M,-34.6,M,,*5A
$PYRTM,2024,128.171964969699,19.281612379838
$GPGGA,040736.00,3259.9570,N,11802.3595,W,1,10,0.8,8.4,M,-34.6,M,,*57
$PYRTM,2024,128.171976560312,19.281623970463
$GPGGA,040737.00,3259.9562,N,11802.3579,W,1,10,0.8,5.2,M,-34.6,M,,*5C
$PYRTM,2024,128.171988117361,19.281635527512
$GPGGA,040738.00,3259.9555,N,11802.3563,W,1,10,0.8,5.1,M,-34.6,M,,*5F
$PYRTM,2024,128.171999706296,19.281647116435
$GPGGA,040739.00,3259.9549,N,11802.3548,W,1,10,0.8,4.6,M,-34.6,M,,*5C
$PYRTM,2024,128.172011267083,19.281658677234
$GPGGA,040740.00,3259.9541,N,11802.3534,W,1,10,0.8,4.5,M,-34.6,M,,*52
$PYRTM,2024,128.172022855139,19.281670265278
$GPGGA,040741.00,3259.9532,N,11802.3520,W,1,10,0.8,3.9,M,-34.6,M,,*59
$PYRTM,2024,128.172034414572,19.281681824711
$GPGGA,040742.00,3259.9523,N,11802.3503,W,1,10,0.8,1.5,M,-34.6,M,,*55
$PYRTM,2024,128.172046001204,19.281693411354
$GPGGA,040743.00,3259.9514,N,11802.3484,W,1,10,0.8,0.7,M,-34.6,M,,*5D
$PYRTM,2024,128.172057564097,19.281704974236
$GPGGA,040744.00,3259.9505,N,11802.3465,W,1,10,0.8,5.6,M,-34.6,M,,*51
$PYRTM,2024,128.172069151956,19.281716562095
$GPGGA,040745.00,3259.9494,N,11802.3449,W,1,10,0.8,5.3,M,-34.6,M,,*52
$PYRTM,2024,128.172080711100,19.281728121238
$GPGGA,040746.00,3259.9483,N,11802.3432,W,1,10,0.8,6.4,M,-34.6,M,,*5F
$PYRTM,2024,128.172092297569,19.281739707708
$GPGGA,040747.00,3259.9473,N,11802.3416,W,1,10,0.8,5.2,M,-34.6,M,,*52
$PYRTM,2024,128.172103859514,19.281751269653
$GPGGA,040748.00,3259.9465,N,11802.3399,W,1,10,0.8,5.7,M,-34.6,M,,*5F
$PYRTM,2024,128.172115460694,19.281762870833
$GPGGA,040749.00,3259.9458,N,11802.3382,W,1,10,0.8,5.5,M,-34.6,M,,*58
$PYRTM,2024,128.172127007998,19.281774418137
$GPGGA,040750.00,3259.9451,N,11802.3366,W,1,10,0.8,4.7,M,-34.6,M,,*50
$PYRTM,2024,128.172138597269,19.281786007407
$GPGGA,040751.00,3259.9442,N,11802.3351,W,1,10,0.8,5.0,M,-34.6,M,,*51
$PYRTM,2024,128.172150157361,19.281797567500
$GPGGA,040752.00,3259.9432,N,11802.3338,W,1,10,0.8,5.3,M,-34.6,M,,*59
$PYRTM,2024,128.172161756829,19.281809166968
$GPGGA,040753.00,3259.9422,N,11802.3323,W,1,10,0.8,5.4,M,-34.6,M,,*54
$PYRTM,2024,128.172172275324,19.281819685463
$GPGGA,040754.00,3259.9415,N,11802.3305,W,1,10,0.8,6.2,M,-34.6,M,,*56
$PYRTM,2024,128.172183718762,19.281831128900
$GPGGA,040755.00,3259.9409,N,11802.3284,W,1,10,0.8,4.4,M,-34.6,M,,*56
$PYRTM,2024,128.172196454803,19.281843864942
$GPGGA,040756.00,3259.9402,N,11802.3263,W,1,10,0.8,5.3,M,-34.6,M,,*51
$PYRTM,2024,128.172208039907,19.281855450046
$GPGGA,040757.00,3259.9394,N,11802.3245,W,1,10,0.8,3.7,M,-34.6,M,,*5E
$PYRTM,2024,128.172219602488,19.281867012627
$GPGGA,040758.00,3259.9384,N,11802.3229,W,1,10,0.8,4.3,M,-34.6,M,,*59
$PYRTM,2024,128.172231187431,19.281878597581
$GPGGA,040759.00,3259.9376,N,11802.3213,W,1,10,0.8,4.6,M,-34.6,M,,*59
$PYRTM,2024,128.172242749942,19.281890160093
$GPGGA,040800.00,3259.9368,N,11802.3197,W,1,10,0.8,3.7,M,-34.6,M,,*5C
$PYRTM,2024,128.172254337176,19.281901747315
$GPGGA,040801.00,3259.9360,N,11802.3182,W,1,10,0.8,3.4,M,-34.6,M,,*52
$PYRTM,2024,128.172265898553,19.281913308704
$GPGGA,040802.00,3259.9353,N,11802.3166,W,1,10,0.8,3.1,M,-34.6,M,,*5E
$PYRTM,2024,128.172277487928,19.281924898067
$GPGGA,040803.00,3259.9344,N,11802.3151,W,1,10,0.8,2.9,M,-34.6,M,,*54
$PYRTM,2024,128.172289046331,19.281936456470
$GPGGA,040804.00,3259.9334,N,11802.3136,W,1,10,0.8,2.0,M,-34.6,M,,*5C
$PYRTM,2024,128.172300636030,19.281948046157
$GPGGA,040805.00,3259.9325,N,11802.3118,W,1,10,0.8,5.1,M,-34.6,M,,*57
$PYRTM,2024,128.172312192917,19.281959603056
$GPGGA,040806.00,3259.9317,N,11802.3099,W,1,10,0.8,7.0,M,-34.6,M,,*5E
$PYRTM,2024,128.172323780625,19.281971190764
$GPGGA,040807.00,3259.9310,N,11802.3081,W,1,10,0.8,6.4,M,-34.6,M,,*54
$PYRTM,2024,128.172335343125,19.281982753264
$GPGGA,040808.00,3259.9299,N,11802.3062,W,1,10,0.8,4.2,M,-34.6,M,,*52
$PYRTM,2024,128.172346928819,19.281994338958
$GPGGA,040809.00,3259.9288,N,11802.3046,W,1,10,0.8,5.4,M,-34.6,M,,*52
$PYRTM,2024,128.172358491458,19.282005901597
$GPGGA,040810.00,3259.9279,N,11802.3029,W,1,10,0.8,5.1,M,-34.6,M,,*58
$PYRTM,2024,128.172370078785,19.282017488924
$GPGGA,040811.00,3259.9270,N,11802.3012,W,1,10,0.8,5.2,M,-34.6,M,,*5B
$PYRTM,2024,128.172381639259,19.282029049398
$GPGGA,040812.00,3259.9263,N,11802.2996,W,1,10,0.8,4.5,M,-34.6,M,,*58
$PYRTM,2024,128.172393226250,19.282040636400
$GPGGA,040813.00,3259.9255,N,11802.2980,W,1,10,0.8,3.3,M,-34.6,M,,*5A
$PYRTM,2024,128.172404788542,19.282052198681
$GPGGA,040814.00,3259.9247,N,11802.2966,W,1,10,0.8,4.0,M,-34.6,M,,*52
$PYRTM,2024,128.172416374815,19.282063784954
$GPGGA,040815.00,3259.9237,N,11802.2949,W,1,10,0.8,2.1,M,-34.6,M,,*5E
$PYRTM,2024,128.172427938623,19.282075348773
$GPGGA,040816.00,3259.9227,N,11802.2933,W,1,10,0.8,5.0,M,-34.6,M,,*57
$PYRTM,2024,128.172439522975,19.282086933113
$GPGGA,040817.00,3259.9217,N,11802.2916,W,1,10,0.8,4.2,M,-34.6,M,,*51
$PYRTM,2024,128.172451084456,19.282098494595
$GPGGA,040818.00,3259.9206,N,11802.2899,W,1,10,0.8,6.0,M,-34.6,M,,*58
$PYRTM,2024,128.172462673229,19.282110083368
$GPGGA,040819.00,3259.9196,N,11802.2884,W,1,10,0.8,7.4,M,-34.6,M,,*5A
$PYRTM,2024,128.172474233275,19.282121643414
$GPGGA,040820.00,3259.9185,N,11802.2868,W,1,10,0.8,6.3,M,-34.6,M,,*56
$PYRTM,2024,128.172485822014,19.282133232153
$GPGGA,040821.00,3259.9176,N,11802.2851,W,1,10,0.8,5.8,M,-34.6,M,,*59
$PYRTM,2024,128.172497381065,19.282144791204
$GPGGA,040822.00,3259.9168,N,11802.2832,W,1,10,0.8,6.8,M,-34.6,M,,*53
$PYRTM,2024,128.172508967350,19.282156377500
$GPGGA,040823.00,3259.9161,N,11802.2814,W,1,10,0.8,4.1,M,-34.6,M,,*54
$PYRTM,2024,128.172519155313,19.282166565451
$GPGGA,040824.00,3259.9153,N,11802.2797,W,1,10,0.8,3.9,M,-34.6,M,,*59
$PYRTM,2024,128.172530945347,19.282178355486
$GPGGA,040825.00,3259.9143,N,11802.2781,W,1,10,0.8,6.2,M,-34.6,M,,*50
$PYRTM,2024,128.172543677477,19.282191087616
$GPGGA,040826.00,3259.9133,N,11802.2765,W,1,10,0.8,6.5,M,-34.6,M,,*59
$PYRTM,2024,128.172554338032,19.282201748171
$GPGGA,040827.00,3259.9126,N,11802.2747,W,1,10,0.8,8.2,M,-34.6,M,,*55
$PYRTM,2024,128.172566260012,19.282213670150
$GPGGA,040828.00,3259.9119,N,11802.2729,W,1,10,0.8,6.4,M,-34.6,M,,*56
$PYRTM,2024,128.172576907662,19.282224317812
$GPGGA,040829.00,3259.9112,N,11802.2712,W,1,10,0.8,5.2,M,-34.6,M,,*51
$PYRTM,2024,128.172588012975,19.282235423113
$GPGGA,040830.00,3259.9104,N,11802.2696,W,1,10,0.8,5.7,M,-34.6,M,,*56
$PYRTM,2024,128.172599130486,19.282246540625
$GPGGA,040831.00,3259.9096,N,11802.2680,W,1,10,0.8,5.3,M,-34.6,M,,*5E
$PYRTM,2024,128.172610247512,19.282257657650
$GPGGA,040832.00,3259.9087,N,11802.2665,W,1,10,0.8,4.5,M,-34.6,M,,*51
$PYRTM,2024,128.172621351979,19.282268762118
$GPGGA,040833.00,3259.9077,N,11802.2650,W,1,10,0.8,4.3,M,-34.6,M,,*5F
$PYRTM,2024,128.172632566667,19.282279976806
$GPGGA,040834.00,3259.9068,N,11802.2634,W,1,10,0.8,2.9,M,-34.6,M,,*58
$PYRTM,2024,128.172643677975,19.282291088125
$GPGGA,040835.00,3259.9060,N,11802.2617,W,1,10,0.8,3.1,M,-34.6,M,,*59
$PYRTM,2024,128.172654788819,19.282302198958
$GPGGA,040836.00,3259.9051,N,11802.2599,W,1,10,0.8,3.7,M,-34.6,M,,*5B
$PYRTM,2024,128.172672611528,19.282320021678
$GPGGA,040837.00,3259.9041,N,11802.2583,W,1,10,0.8,4.1,M,-34.6,M,,*51
$PYRTM,2024,128.172683722431,19.282331132569
$GPGGA,040838.00,3259.9031,N,11802.2565,W,1,10,0.8,4.7,M,-34.6,M,,*57
