$PYRTM,2024,124.416673301991,15.526320712130
$GPGGA,095959.00,3525.7672,N,12140.8730,W,1,09,0.8,11.8,M,-31.9,M,,*67
$PYRTM,2024,124.416684412650,15.526331822789
$GPGGA,100000.00,3525.7683,N,12140.8731,W,1,09,0.8,13.0,M,-31.9,M,,*6A
$PYRTM,2024,124.416695518715,15.526342928866
$GPGGA,100001.00,3525.7693,N,12140.8733,W,1,09,0.8,14.6,M,-31.9,M,,*69
$PYRTM,2024,124.416706635949,15.526354046088
$GPGGA,100002.00,3525.7701,N,12140.8741,W,1,09,0.8,14.7,M,-31.9,M,,*64
$PYRTM,2024,124.416717746042,15.526365156181
$GPGGA,100003.00,3525.7708,N,12140.8752,W,1,09,0.8,11.3,M,-31.9,M,,*6F
$PYRTM,2024,124.416728857407,15.526376267558
$GPGGA,100004.00,3525.7718,N,12140.8759,W,1,09,0.8,12.6,M,-31.9,M,,*64
$PYRTM,2024,124.416742038472,15.526389448611
$GPGGA,100005.00,3525.7729,N,12140.8761,W,1,09,0.8,16.4,M,-31.9,M,,*6A
$PYRTM,2024,124.416753150255,15.526400560394
$GPGGA,100006.00,3525.7741,N,12140.8763,W,1,09,0.8,12.0,M,-31.9,M,,*65
$PYRTM,2024,124.416764262720,15.526411672859
$GPGGA,100007.00,3525.7750,N,12140.8768,W,1,09,0.8,12.8,M,-31.9,M,,*67
$PYRTM,2024,124.416775843472,15.526423253623
$GPGGA,100008.00,3525.7758,N,12140.8777,W,1,09,0.8,12.2,M,-31.9,M,,*64
$PYRTM,2024,124.416787411319,15.526434821458
$GPGGA,100009.00,3525.7769,N,12140.8785,W,1,09,0.8,10.2,M,-31.9,M,,*68
$PYRTM,2024,124.416798520046,15.526445930185
$GPGGA,100010.00,3525.7782,N,12140.8791,W,1,09,0.8,11.8,M,-31.9,M,,*6B
$PYRTM,2024,124.416809632431,15.526457042569
$GPGGA,100011.00,3525.7791,N,12140.8796,W,1,09,0.8,14.1,M,-31.9,M,,*63
$PYRTM,2024,124.416820743727,15.526468153866
$GPGGA,100012.00,3525.7799,N,12140.8801,W,1,09,0.8,12.0,M,-31.9,M,,*6E
$PYRTM,2024,124.416832217674,15.526479627813
$GPGGA,100013.00,3525.7807,N,12140.8808,W,1,09,0.8,9.2,M,-31.9,M,,*56
$PYRTM,2024,124.416843776910,15.526491187049
$GPGGA,100014.00,3525.7817,N,12140.8815,W,1,09,0.8,10.8,M,-31.9,M,,*6E
$PYRTM,2024,124.416855362407,15.526502772546
$GPGGA,100015.00,3525.7826,N,12140.8820,W,1,09,0.8,14.0,M,-31.9,M,,*67
$PYRTM,2024,124.416866925949,15.526514336088
$GPGGA,100016.00,3525.7834,N,12140.8827,W,1,09,0.8,14.1,M,-31.9,M,,*61
$PYRTM,2024,124.416878513275,15.526525923414
$GPGGA,100017.00,3525.7845,N,12140.8836,W,1,09,0.8,13.8,M,-31.9,M,,*68
$PYRTM,2024,124.416890072477,15.526537482616
$GPGGA,100018.00,3525.7857,N,12140.8846,W,1,09,0.8,16.9,M,-31.9,M,,*67
$PYRTM,2024,124.416905928681,15.526553338819
$GPGGA,100019.00,3525.7866,N,12140.8852,W,1,09,0.8,12.8,M,-31.9,M,,*64
$PYRTM,2024,124.416917519734,15.526564929873
$GPGGA,100020.00,3525.7874,N,12140.8854,W,1,08,1.0,14.3,M,-31.9,M,,*6E
$PYRTM,2024,124.416929078426,15.526576488565
$GPGGA,100021.00,3525.7887,N,12140.8858,W,1,09,0.8,13.7,M,-31.9,M,,*64
$PYRTM,2024,124.416940677905,15.526588088044
$GPGGA,100022.00,3525.7899,N,12140.8865,W,1,09,0.8,14.6,M,-31.9,M,,*60
$PYRTM,2024,124.416952228160,15.526599638299
$GPGGA,100023.00,3525.7908,N,12140.8876,W,1,09,0.8,14.0,M,-31.9,M,,*6C
$PYRTM,2024,124.416963826331,15.526611236470
$GPGGA,100024.00,3525.7915,N,12140.8886,W,1,09,0.8,10.1,M,-31.9,M,,*6D
$PYRTM,2024,124.416975373414,15.526622783553
$GPGGA,100025.00,3525.7924,N,12140.8889,W,1,09,0.8,11.3,M,-31.9,M,,*62
$PYRTM,2024,124.416986960243,15.526634370382
$GPGGA,100026.00,3525.7935,N,12140.8885,W,1,09,0.8,14.4,M,-31.9,M,,*6F
$PYRTM,2024,124.416998522083,15.526645932222
$GPGGA,100027.00,3525.7945,N,12140.8887,W,1,09,0.8,13.9,M,-31.9,M,,*61
$PYRTM,2024,124.417010104306,15.526657514444
$GPGGA,100028.00,3525.7954,N,12140.8898,W,1,09,0.8,12.8,M,-31.9,M,,*60
$PYRTM,2024,124.417021671331,15.526669081470
$GPGGA,100029.00,3525.7961,N,12140.8914,W,1,09,0.8,11.5,M,-31.9,M,,*6C
$PYRTM,2024,124.417033260671,15.526680670822
$GPGGA,100030.00,3525.7968,N,12140.8922,W,1,09,0.8,10.4,M,-31.9,M,,*68
$PYRTM,2024,124.417044819861,15.526692230000
$GPGGA,100031.00,3525.7978,N,12140.8919,W,1,09,0.8,12.2,M,-31.9,M,,*64
$PYRTM,2024,124.417056405914,15.526703816053
$GPGGA,100032.00,3525.7990,N,12140.8917,W,1,09,0.8,12.1,M,-31.9,M,,*6C
$PYRTM,2024,124.417067968426,15.526715378565
$GPGGA,100033.00,3525.8000,N,12140.8925,W,1,09,0.8,11.6,M,-31.9,M,,*67
$PYRTM,2024,124.417079556921,15.526726967060
$GPGGA,100034.00,3525.8006,N,12140.8940,W,1,09,0.8,10.2,M,-31.9,M,,*60
$PYRTM,2024,124.417091000822,15.526738410961
$GPGGA,100035.00,3525.8013,N,12140.8952,W,1,09,0.8,9.8,M,-31.9,M,,*54
$PYRTM,2024,124.417102590139,15.526750000278
$GPGGA,100036.00,3525.8022,N,12140.8954,W,1,09,0.8,9.8,M,-31.9,M,,*53
$PYRTM,2024,124.417114623368,15.526762033507
$GPGGA,100037.00,3525.8031,N,12140.8952,W,1,09,0.8,10.7,M,-31.9,M,,*61
$PYRTM,2024,124.417125852535,15.526773262674
$GPGGA,100038.00,3525.8040,N,12140.8955,W,1,09,0.8,10.6,M,-31.9,M,,*6E
$PYRTM,2024,124.417137412373,15.526784822523
$GPGGA,100039.00,3525.8048,N,12140.8965,W,1,09,0.8,10.9,M,-31.9,M,,*6B
$PYRTM,2024,124.417148883553,15.526796293692
$GPGGA,100040.00,3525.8054,N,12140.8976,W,1,09,0.8,9.4,M,-31.9,M,,*5F
$PYRTM,2024,124.417160445752,15.526807855891
$GPGGA,100041.00,3525.8062,N,12140.8982,W,1,09,0.8,7.3,M,-31.9,M,,*59
$PYRTM,2024,124.417172035475,15.526819445613
$GPGGA,100042.00,3525.8074,N,12140.8985,W,1,09,0.8,8.0,M,-31.9,M,,*56
$PYRTM,2024,124.417183593449,15.526831003588
$GPGGA,100043.00,3525.8087,N,12140.8989,W,1,09,0.8,8.2,M,-31.9,M,,*55
$PYRTM,2024,124.417195296042,15.526842706181
$GPGGA,100044.00,3525.8095,N,12140.8995,W,1,09,0.8,11.5,M,-31.9,M,,*63
$PYRTM,2024,124.417206857789,15.526854267928
$GPGGA,100045.00,3525.8101,N,12140.9003,W,1,09,0.8,13.8,M,-31.9,M,,*66
$PYRTM,2024,124.417218444826,15.526865854965
$GPGGA,100046.00,3525.8110,N,12140.9010,W,1,09,0.8,14.2,M,-31.9,M,,*6A
$PYRTM,2024,124.417230005475,15.526877415613
$GPGGA,100047.00,3525.8122,N,12140.9016,W,1,09,0.8,11.1,M,-31.9,M,,*6A
$PYRTM,2024,124.417242634167,15.526890044306
$GPGGA,100048.00,3525.8131,N,12140.9023,W,1,09,0.8,11.4,M,-31.9,M,,*64
$PYRTM,2024,124.417254194028,15.526901604167
$GPGGA,100049.00,3525.8138,N,12140.9031,W,1,09,0.8,10.2,M,-31.9,M,,*68
$PYRTM,2024,124.417265781644,15.526913191782
$GPGGA,100050.00,3525.8146,N,12140.9040,W,1,09,0.8,9.1,M,-31.9,M,,*54
$PYRTM,2024,124.417277341539,15.526924751678
$GPGGA,100051.00,3525.8157,N,12140.9046,W,1,09,0.8,12.5,M,-31.9,M,,*6D
$PYRTM,2024,124.417288927037,15.526936337188
$GPGGA,100052.00,3525.8168,N,12140.9047,W,1,09,0.8,12.5,M,-31.9,M,,*63
$PYRTM,2024,124.417300490764,15.526947900903
$GPGGA,100053.00,3525.8176,N,12140.9048,W,1,09,0.8,14.7,M,-31.9,M,,*66
$PYRTM,2024,124.417312079711,15.526959489850
$GPGGA,100054.00,3525.8184,N,12140.9057,W,1,09,0.8,15.3,M,-31.9,M,,*67
$PYRTM,2024,124.417323638287,15.526971048426
$GPGGA,100055.00,3525.8192,N,12140.9068,W,1,09,0.8,15.1,M,-31.9,M,,*6F
$PYRTM,2024,124.417335227188,15.526982637326
$GPGGA,100056.00,3525.8197,N,12140.9072,W,1,09,0.8,15.6,M,-31.9,M,,*65
$PYRTM,2024,124.417346787222,15.526994197373
$GPGGA,100057.00,3525.8207,N,12140.9073,W,1,09,0.8,15.7,M,-31.9,M,,*6E
$PYRTM,2024,124.417358825463,15.527006235602
$GPGGA,100058.00,3525.8220,N,12140.9077,W,1,09,0.8,13.9,M,-31.9,M,,*68
$PYRTM,2024,124.417369935162,15.527017345312
$GPGGA,100059.00,3525.8230,N,12140.9088,W,1,09,0.8,12.9,M,-31.9,M,,*69
$PYRTM,2024,124.417381523495,15.527028933634
$GPGGA,100100.00,3525.8235,N,12140.9100,W,1,09,0.8,14.3,M,-31.9,M,,*6C
$PYRTM,2024,124.417393083634,15.527040493785
$GPGGA,100101.00,3525.8239,N,12140.9106,W,1,09,0.8,14.5,M,-31.9,M,,*61
$PYRTM,2024,124.417404672535,15.527052082674
$GPGGA,100102.00,3525.8247,N,12140.9107,W,1,09,0.8,13.8,M,-31.9,M,,*60
$PYRTM,2024,124.417416231447,15.527063641586
$GPGGA,100103.00,3525.8257,N,12140.9109,W,1,09,0.8,12.1,M,-31.9,M,,*66
$PYRTM,2024,124.417427820023,15.527075230162
$GPGGA,100104.00,3525.8266,N,12140.9117,W,1,09,0.8,15.3,M,-31.9,M,,*69
$PYRTM,2024,124.417439380116,15.527086790255
$GPGGA,100105.00,3525.8272,N,12140.9126,W,1,09,0.8,14.5,M,-31.9,M,,*68
$PYRTM,2024,124.417450970301,15.527098380440
$GPGGA,100106.00,3525.8278,N,12140.9130,W,1,09,0.8,11.6,M,-31.9,M,,*60
$PYRTM,2024,124.417463006169,15.527110416308
$GPGGA,100107.00,3525.8288,N,12140.9131,W,1,09,0.8,13.0,M,-31.9,M,,*6B
$PYRTM,2024,124.417474116748,15.527121526887
$GPGGA,100108.00,3525.8299,N,12140.9133,W,1,09,0.8,12.6,M,-31.9,M,,*61
$PYRTM,2024,124.417485676817,15.527133086956
$GPGGA,100109.00,3525.8308,N,12140.9139,W,1,08,1.0,13.7,M,-31.9,M,,*6B
$PYRTM,2024,124.417497266250,15.527144676389
$GPGGA,100110.00,3525.8315,N,12140.9147,W,1,08,1.0,11.9,M,-31.9,M,,*6A
$PYRTM,2024,124.417508824792,15.527156234931
$GPGGA,100111.00,3525.8321,N,12140.9155,W,1,09,0.8,10.6,M,-31.9,M,,*69
$PYRTM,2024,124.417520413912,15.527167824051
$GPGGA,100112.00,3525.8328,N,12140.9158,W,1,09,0.8,13.7,M,-31.9,M,,*6C
$PYRTM,2024,124.417531976400,15.527179386539
$GPGGA,100113.00,3525.8337,N,12140.9158,W,1,09,0.8,12.1,M,-31.9,M,,*64
$PYRTM,2024,124.417543562998,15.527190973137
$GPGGA,100114.00,3525.8347,N,12140.9162,W,1,09,0.8,11.9,M,-31.9,M,,*66
$PYRTM,2024,124.417555121505,15.527202531655
$GPGGA,100115.00,3525.8355,N,12140.9170,W,1,09,0.8,12.1,M,-31.9,M,,*6C
$PYRTM,2024,124.417566709792,15.527214119931
$GPGGA,100116.00,3525.8363,N,12140.9181,W,1,09,0.8,10.5,M,-31.9,M,,*62
$PYRTM,2024,124.417578270532,15.527225680671
$GPGGA,100117.00,3525.8372,N,12140.9188,W,1,09,0.8,10.2,M,-31.9,M,,*6D
$PYRTM,2024,124.417591003947,15.527238414086
$GPGGA,100118.00,3525.8381,N,12140.9190,W,1,09,0.8,12.8,M,-31.9,M,,*6F
$PYRTM,2024,124.417603620394,15.527251030532
$GPGGA,100119.00,3525.8388,N,12140.9190,W,1,08,1.0,13.5,M,-31.9,M,,*63
$PYRTM,2024,124.417613007975,15.527260418113
$GPGGA,100120.00,3525.8397,N,12140.9197,W,1,08,1.0,11.4,M,-31.9,M,,*63
$PYRTM,2024,124.417624567280,15.527271977419
$GPGGA,100121.00,3525.8408,N,12140.9206,W,1,09,0.8,12.8,M,-31.9,M,,*6F
$PYRTM,2024,124.417636154977,15.527283565116
$GPGGA,100122.00,3525.8417,N,12140.9215,W,1,09,0.8,12.4,M,-31.9,M,,*6C
$PYRTM,2024,124.417647715405,15.527295125556
$GPGGA,100123.00,3525.8424,N,12140.9221,W,1,08,1.0,10.6,M,-31.9,M,,*62
$PYRTM,2024,124.417659303275,15.527306713414
$GPGGA,100124.00,3525.8431,N,12140.9226,W,1,09,0.8,10.3,M,-31.9,M,,*6B
$PYRTM,2024,124.417670863449,15.527318273600
$GPGGA,100125.00,3525.8442,N,12140.9231,W,1,09,0.8,8.6,M,-31.9,M,,*54
$PYRTM,2024,124.417682452245,15.527329862384
$GPGGA,100126.00,3525.8454,N,12140.9238,W,1,09,0.8,9.4,M,-31.9,M,,*5A
$PYRTM,2024,124.417694011574,15.527341421713
$GPGGA,100127.00,3525.8463,N,12140.9246,W,1,09,0.8,9.5,M,-31.9,M,,*57
$PYRTM,2024,124.417705600405,15.527353010544
$GPGGA,100128.00,3525.8469,N,12140.9252,W,1,09,0.8,10.1,M,-31.9,M,,*6B
$PYRTM,2024,124.417717160683,15.527364570822
$GPGGA,100129.00,3525.8474,N,12140.9257,W,1,09,0.8,12.5,M,-31.9,M,,*65
$PYRTM,2024,124.417728748866,15.527376159005
$GPGGA,100130.00,3525.8483,N,12140.9261,W,1,09,0.8,9.6,M,-31.9,M,,*59
$PYRTM,2024,124.417740307986,15.527387718125
$GPGGA,100131.00,3525.8494,N,12140.9268,W,1,09,0.8,8.3,M,-31.9,M,,*53
$PYRTM,2024,124.417751897778,15.527399307917
$GPGGA,100132.00,3525.8503,N,12140.9276,W,1,09,0.8,7.0,M,-31.9,M,,*5C
$PYRTM,2024,124.417763456181,15.527410866319
$GPGGA,100133.00,3525.8508,N,12140.9284,W,1,08,1.0,6.5,M,-31.9,M,,*57
$PYRTM,2024,124.417775040394,15.527422450532
$GPGGA,100134.00,3525.8513,N,12140.9287,W,1,09,0.8,7.8,M,-31.9,M,,*5D
$PYRTM,2024,124.417786604745,15.527434014884
$GPGGA,100135.00,3525.8523,N,12140.9290,W,1,09,0.8,9.1,M,-31.9,M,,*5E
$PYRTM,2024,124.417798192639,15.527445602778
$GPGGA,100136.00,3525.8534,N,12140.9295,W,1,09,0.8,11.8,M,-31.9,M,,*6E
$PYRTM,2024,124.417810231238,15.527457641377
$GPGGA,100137.00,3525.8542,N,12140.9304,W,1,09,0.8,11.5,M,-31.9,M,,*6A
$PYRTM,2024,124.417821341609,15.527468751759
$GPGGA,100138.00,3525.8550,N,12140.9314,W,1,09,0.8,9.6,M,-31.9,M,,*5D
$PYRTM,2024,124.417832902153,15.527480312292
$GPGGA,100139.00,3525.8558,N,12140.9321,W,1,09,0.8,12.1,M,-31.9,M,,*6F
$PYRTM,2024,124.417844490208,15.527491900347
$GPGGA,100140.00,3525.8568,N,12140.9325,W,1,09,0.8,14.2,M,-31.9,M,,*63
$PYRTM,2024,124.417856050012,15.527503460150
$GPGGA,100141.00,3525.8578,N,12140.9326,W,1,09,0.8,12.6,M,-31.9,M,,*62
$PYRTM,2024,124.417867637731,15.527515047870
$GPGGA,100142.00,3525.8586,N,12140.9331,W,1,09,0.8,13.0,M,-31.9,M,,*61
$PYRTM,2024,124.417879197963,15.527526608113
$GPGGA,100143.00,3525.8594,N,12140.9340,W,1,09,0.8,11.9,M,-31.9,M,,*6E
$PYRTM,2024,124.417890781979,15.527538192130
$GPGGA,100144.00,3525.8603,N,12140.9351,W,1,09,0.8,10.1,M,-31.9,M,,*6D
$PYRTM,2024,124.417902346505,15.527549756655
$GPGGA,100145.00,3525.8611,N,12140.9357,W,1,09,0.8,9.2,M,-31.9,M,,*52
$PYRTM,2024,124.417913936782,15.527561346921
$GPGGA,100146.00,3525.8620,N,12140.9359,W,1,09,0.8,12.9,M,-31.9,M,,*6C
$PYRTM,2024,124.417925495521,15.527572905660
$GPGGA,100147.00,3525.8630,N,12140.9362,W,1,09,0.8,11.6,M,-31.9,M,,*68
$PYRTM,2024,124.417938591771,15.527586001910
$GPGGA,100148.00,3525.8641,N,12140.9370,W,1,09,0.8,9.5,M,-31.9,M,,*58
$PYRTM,2024,124.417950844873,15.527598255012
$GPGGA,100149.00,3525.8651,N,12140.9379,W,1,09,0.8,7.5,M,-31.9,M,,*5F
$PYRTM,2024,124.417960234306,15.527607644444
$GPGGA,100150.00,3525.8657,N,12140.9388,W,1,09,0.8,9.1,M,-31.9,M,,*55
$PYRTM,2024,124.417971791505,15.527619201644
$GPGGA,100151.00,3525.8663,N,12140.9395,W,1,08,1.0,10.3,M,-31.9,M,,*6D
$PYRTM,2024,124.417983381447,15.527630791586
$GPGGA,100152.00,3525.8675,N,12140.9400,W,1,09,0.8,11.2,M,-31.9,M,,*6A
$PYRTM,2024,124.417994940278,15.527642350417
$GPGGA,100153.00,3525.8685,N,12140.9403,W,1,09,0.8,12.5,M,-31.9,M,,*63
$PYRTM,2024,124.418006529479,15.527653939618
$GPGGA,100154.00,3525.8691,N,12140.9409,W,1,09,0.8,14.8,M,-31.9,M,,*60
$PYRTM,2024,124.418018089444,15.527665499583
$GPGGA,100155.00,3525.8697,N,12140.9419,W,1,09,0.8,13.0,M,-31.9,M,,*69
$PYRTM,2024,124.418029677650,15.527677087789
$GPGGA,100156.00,3525.8705,N,12140.9428,W,1,09,0.8,11.6,M,-31.9,M,,*66
$PYRTM,2024,124.418041235660,15.527688645799
$GPGGA,100157.00,3525.8713,N,12140.9435,W,1,09,0.8,10.2,M,-31.9,M,,*69
$PYRTM,2024,124.418051899630,15.527699309769
$GPGGA,100158.00,3525.8722,N,12140.9438,W,1,09,0.8,13.7,M,-31.9,M,,*6F
$PYRTM,2024,124.418064978090,15.527712388229
$GPGGA,100159.00,3525.8731,N,12140.9443,W,1,09,0.8,10.0,M,-31.9,M,,*64
$PYRTM,2024,124.418075629398,15.527723039537
$GPGGA,100200.00,3525.8740,N,12140.9451,W,1,09,0.8,11.9,M,-31.9,M,,*66
$PYRTM,2024,124.418086737847,15.527734147986
$GPGGA,100201.00,3525.8747,N,12140.9459,W,1,09,0.8,12.4,M,-31.9,M,,*66
$PYRTM,2024,124.418097853287,15.527745263426
$GPGGA,100202.00,3525.8754,N,12140.9467,W,1,09,0.8,10.7,M,-31.9,M,,*6B
$PYRTM,2024,124.418108960139,15.527756370278
$GPGGA,100203.00,3525.8763,N,12140.9474,W,1,09,0.8,11.5,M,-31.9,M,,*6F
$PYRTM,2024,124.418120070810,15.527767480949
$GPGGA,100204.00,3525.8773,N,12140.9478,W,1,09,0.8,15.3,M,-31.9,M,,*67
$PYRTM,2024,124.418131182292,15.527778592431
$GPGGA,100205.00,3525.8782,N,12140.9484,W,1,09,0.8,13.8,M,-31.9,M,,*66
$PYRTM,2024,124.418142409028,15.527789819167
$GPGGA,100206.00,3525.8791,N,12140.9492,W,1,09,0.8,14.3,M,-31.9,M,,*6C
$PYRTM,2024,124.418153533750,15.527800943889
$GPGGA,100207.00,3525.8800,N,12140.9499,W,1,09,0.8,13.9,M,-31.9,M,,*6C
$PYRTM,2024,124.418164979271,15.527812389410
$GPGGA,100208.00,3525.8810,N,12140.9503,W,1,08,1.0,15.9,M,-31.9,M,,*6E
$PYRTM,2024,124.418176088634,15.527823498773
$GPGGA,100209.00,3525.8820,N,12140.9509,W,1,09,0.8,17.4,M,-31.9,M,,*61
$PYRTM,2024,124.418187200127,15.527834610266
$GPGGA,100210.00,3525.8829,N,12140.9518,W,1,09,0.8,15.0,M,-31.9,M,,*66
$PYRTM,2024,124.418200974005,15.527848384155
$GPGGA,100211.00,3525.8837,N,12140.9527,W,1,09,0.8,14.5,M,-31.9,M,,*60
$PYRTM,2024,124.418212086412,15.527859496551
$GPGGA,100212.00,3525.8848,N,12140.9535,W,1,09,0.8,12.0,M,-31.9,M,,*6B
$PYRTM,2024,124.418223197269,15.527870607419
$GPGGA,100213.00,3525.8858,N,12140.9537,W,1,09,0.8,13.0,M,-31.9,M,,*68
$PYRTM,2024,124.418234307720,15.527881717870
$GPGGA,100214.00,3525.8865,N,12140.9542,W,1,09,0.8,13.4,M,-31.9,M,,*67
$PYRTM,2024,124.418245420127,15.527892830278
$GPGGA,100215.00,3525.8874,N,12140.9549,W,1,09,0.8,14.1,M,-31.9,M,,*6F
$PYRTM,2024,124.418256530370,15.527903940509
$GPGGA,100216.00,3525.8885,N,12140.9558,W,1,09,0.8,11.4,M,-31.9,M,,*62
$PYRTM,2024,124.418270417870,15.527917828009
$GPGGA,100217.00,3525.8895,N,12140.9565,W,1,09,0.8,12.9,M,-31.9,M,,*62
$PYRTM,2024,124.418281530521,15.527928940660
$GPGGA,100218.00,3525.8903,N,12140.9570,W,1,09,0.8,11.0,M,-31.9,M,,*6D
$PYRTM,2024,124.418296103704,15.527943513843
$GPGGA,100219.00,3525.8911,N,12140.9576,W,1,09,0.8,10.6,M,-31.9,M,,*6E
$PYRTM,2024,124.418307224375,15.527954634514
$GPGGA,100220.00,3525.8919,N,12140.9583,W,1,09,0.8,13.3,M,-31.9,M,,*60
$PYRTM,2024,124.418318339097,15.527965749236
$GPGGA,100221.00,3525.8928,N,12140.9590,W,1,09,0.8,14.8,M,-31.9,M,,*6D
$PYRTM,2024,124.418329562986,15.527976973137
$GPGGA,100222.00,3525.8937,N,12140.9597,W,1,09,0.8,16.3,M,-31.9,M,,*6E
$PYRTM,2024,124.418341124572,15.527988534711
$GPGGA,100223.00,3525.8947,N,12140.9603,W,1,09,0.8,11.8,M,-31.9,M,,*6A
$PYRTM,2024,124.418352711157,15.528000121296
$GPGGA,100224.00,3525.8954,N,12140.9608,W,1,09,0.8,16.4,M,-31.9,M,,*6F
$PYRTM,2024,124.418364273275,15.528011683414
$GPGGA,100225.00,3525.8960,N,12140.9614,W,1,09,0.8,14.2,M,-31.9,M,,*60
$PYRTM,2024,124.418375859398,15.528023269537
$GPGGA,100226.00,3525.8969,N,12140.9622,W,1,09,0.8,13.2,M,-31.9,M,,*68
$PYRTM,2024,124.418387420972,15.528034831100
$GPGGA,100227.00,3525.8981,N,12140.9628,W,1,09,0.8,12.6,M,-31.9,M,,*60
$PYRTM,2024,124.418399010104,15.528046420243
$GPGGA,100228.00,3525.8991,N,12140.9633,W,1,09,0.8,12.9,M,-31.9,M,,*6B
$PYRTM,2024,124.418410568900,15.528057979039
$GPGGA,100229.00,3525.8998,N,12140.9637,W,1,09,0.8,14.3,M,-31.9,M,,*6B
$PYRTM,2024,124.418422169826,15.528069579965
$GPGGA,100230.00,3525.9006,N,12140.9644,W,1,09,0.8,14.1,M,-31.9,M,,*6A
$PYRTM,2024,124.418433718403,15.528081128542
$GPGGA,100231.00,3525.9017,N,12140.9654,W,1,09,0.8,10.3,M,-31.9,M,,*6C
$PYRTM,2024,124.418445308391,15.528092718530
$GPGGA,100232.00,3525.9026,N,12140.9660,W,1,09,0.8,13.1,M,-31.9,M,,*6B
$PYRTM,2024,124.418456865359,15.528104275498
$GPGGA,100233.00,3525.9034,N,12140.9664,W,1,09,0.8,15.1,M,-31.9,M,,*6B
$PYRTM,2024,124.418468453125,15.528115863264
$GPGGA,100234.00,3525.9042,N,12140.9669,W,1,09,0.8,15.1,M,-31.9,M,,*60
$PYRTM,2024,124.418480014734,15.528127424873
$GPGGA,100235.00,3525.9052,N,12140.9675,W,1,09,0.8,14.3,M,-31.9,M,,*6E
$PYRTM,2024,124.418491493461,15.528138903600
$GPGGA,100236.00,3525.9062,N,12140.9684,W,1,09,0.8,9.8,M,-31.9,M,,*57
$PYRTM,2024,124.418503527789,15.528150937928
$GPGGA,100237.00,3525.9069,N,12140.9692,W,1,09,0.8,10.1,M,-31.9,M,,*6B
$PYRTM,2024,124.418515083160,15.528162493299
$GPGGA,100238.00,3525.9074,N,12140.9698,W,1,09,0.8,12.0,M,-31.9,M,,*61
$PYRTM,2024,124.418526310440,15.528173720579
$GPGGA,100239.00,3525.9083,N,12140.9702,W,1,09,0.8,11.7,M,-31.9,M,,*6E
$PYRTM,2024,124.418537899005,15.528185309144
$GPGGA,100240.00,3525.9094,N,12140.9706,W,1,09,0.8,11.4,M,-31.9,M,,*61
$PYRTM,2024,124.418549459826,15.528196869965
$GPGGA,100241.00,3525.9104,N,12140.9713,W,1,09,0.8,11.6,M,-31.9,M,,*6E
$PYRTM,2024,124.418561050243,15.528208460394
$GPGGA,100242.00,3525.9113,N,12140.9722,W,1,09,0.8,10.9,M,-31.9,M,,*67
$PYRTM,2024,124.418572491771,15.528219901921
$GPGGA,100243.00,3525.9119,N,12140.9730,W,1,09,0.8,6.3,M,-31.9,M,,*52
$PYRTM,2024,124.418584083067,15.528231493206
$GPGGA,100244.00,3525.9128,N,12140.9733,W,1,09,0.8,8.6,M,-31.9,M,,*5F
$PYRTM,2024,124.418595640509,15.528243050648
$GPGGA,100245.00,3525.9138,N,12140.9735,W,1,09,0.8,9.5,M,-31.9,M,,*5B
$PYRTM,2024,124.418607342813,15.528254752951
$GPGGA,100246.00,3525.9150,N,12140.9740,W,1,09,0.8,12.0,M,-31.9,M,,*6B
$PYRTM,2024,124.418618904734,15.528266314873
$GPGGA,100247.00,3525.9160,N,12140.9750,W,1,09,0.8,11.7,M,-31.9,M,,*6C
$PYRTM,2024,124.418631532847,15.528278942986
$GPGGA,100248.00,3525.9167,N,12140.9761,W,1,09,0.8,10.4,M,-31.9,M,,*64
$PYRTM,2024,124.418643092650,15.528290502789
$GPGGA,100249.00,3525.9174,N,12140.9767,W,1,09,0.8,9.9,M,-31.9,M,,*54
$PYRTM,2024,124.418654686169,15.528302096308
$GPGGA,100250.00,3525.9184,N,12140.9767,W,1,09,0.8,10.6,M,-31.9,M,,*64
$PYRTM,2024,124.418666240440,15.528313650579
$GPGGA,100251.00,3525.9194,N,12140.9771,W,1,09,0.8,12.3,M,-31.9,M,,*64
$PYRTM,2024,124.418677829398,15.528325239549
$GPGGA,100252.00,3525.9202,N,12140.9783,W,1,09,0.8,9.1,M,-31.9,M,,*5E
$PYRTM,2024,124.418689389363,15.528336799514
$GPGGA,100253.00,3525.9209,N,12140.9795,W,1,09,0.8,9.5,M,-31.9,M,,*57
$PYRTM,2024,124.418700979155,15.528348389294
$GPGGA,100254.00,3525.9216,N,12140.9802,W,1,09,0.8,8.8,M,-31.9,M,,*53
$PYRTM,2024,124.418712538519,15.528359948657
$GPGGA,100255.00,3525.9225,N,12140.9803,W,1,09,0.8,8.6,M,-31.9,M,,*5D
$PYRTM,2024,124.418724126053,15.528371536192
$GPGGA,100256.00,3525.9237,N,12140.9806,W,1,09,0.8,11.7,M,-31.9,M,,*61
$PYRTM,2024,124.418735685683,15.528383095822
$GPGGA,100257.00,3525.9247,N,12140.9813,W,1,09,0.8,11.5,M,-31.9,M,,*61
$PYRTM,2024,124.418747274815,15.528394684954
$GPGGA,100258.00,3525.9254,N,12140.9824,W,1,09,0.8,6.8,M,-31.9,M,,*53
$PYRTM,2024,124.418758834803,15.528406244954
$GPGGA,100259.00,3525.9262,N,12140.9835,W,1,09,0.8,8.5,M,-31.9,M,,*54
$PYRTM,2024,124.418770422130,15.528417832269
$GPGGA,100300.00,3525.9271,N,12140.9839,W,1,09,0.8,6.6,M,-31.9,M,,*5A
$PYRTM,2024,124.418781983333,15.528429393472
$GPGGA,100301.00,3525.9281,N,12140.9841,W,1,09,0.8,6.8,M,-31.9,M,,*55
$PYRTM,2024,124.418793565833,15.528440975972
$GPGGA,100302.00,3525.9292,N,12140.9845,W,1,09,0.8,6.8,M,-31.9,M,,*50
$PYRTM,2024,124.418805130613,15.528452540752
$GPGGA,100303.00,3525.9302,N,12140.9853,W,1,09,0.8,3.3,M,-31.9,M,,*50
$PYRTM,2024,124.418816718727,15.528464128866
$GPGGA,100304.00,3525.9310,N,12140.9864,W,1,09,0.8,4.4,M,-31.9,M,,*50
$PYRTM,2024,124.418828279225,15.528475689363
$GPGGA,100305.00,3525.9316,N,12140.9871,W,1,09,0.8,2.2,M,-31.9,M,,*53
$PYRTM,2024,124.418839867095,15.528487277234
$GPGGA,100306.00,3525.9324,N,12140.9873,W,1,09,0.8,3.8,M,-31.9,M,,*58
$PYRTM,2024,124.418851789225,15.528499199375
$GPGGA,100307.00,3525.9334,N,12140.9877,W,1,08,1.0,6.5,M,-31.9,M,,*5C
$PYRTM,2024,124.418863010162,15.528510420301
$GPGGA,100308.00,3525.9345,N,12140.9883,W,1,09,0.8,6.3,M,-31.9,M,,*50
$PYRTM,2024,124.418874576910,15.528521987049
$GPGGA,100309.00,3525.9354,N,12140.9889,W,1,09,0.8,5.8,M,-31.9,M,,*53
$PYRTM,2024,124.418886159039,15.528533569178
$GPGGA,100310.00,3525.9362,N,12140.9894,W,1,09,0.8,7.1,M,-31.9,M,,*59
$PYRTM,2024,124.418897724317,15.528545134456
$GPGGA,100311.00,3525.9370,N,12140.9901,W,1,09,0.8,8.8,M,-31.9,M,,*50
$PYRTM,2024,124.418909312488,15.528556722627
$GPGGA,100312.00,3525.9379,N,12140.9910,W,1,09,0.8,11.3,M,-31.9,M,,*69
$PYRTM,2024,124.418920871991,15.528568282130
$GPGGA,100313.00,3525.9389,N,12140.9917,W,1,09,0.8,11.9,M,-31.9,M,,*6A
$PYRTM,2024,124.418932460289,15.528579870428
$GPGGA,100314.00,3525.9397,N,12140.9919,W,1,09,0.8,12.4,M,-31.9,M,,*62
$PYRTM,2024,124.418944020845,15.528591430984
$GPGGA,100315.00,3525.9404,N,12140.9920,W,1,09,0.8,12.1,M,-31.9,M,,*61
$PYRTM,2024,124.418955608102,15.528603018241
$GPGGA,100316.00,3525.9413,N,12140.9926,W,1,09,0.8,10.8,M,-31.9,M,,*69
$PYRTM,2024,124.418967169259,15.528614579398
$GPGGA,100317.00,3525.9423,N,12140.9939,W,1,09,0.8,11.6,M,-31.9,M,,*6A
$PYRTM,2024,124.418979787928,15.528627198079
$GPGGA,100318.00,3525.9430,N,12140.9952,W,1,09,0.8,9.6,M,-31.9,M,,*53
$PYRTM,2024,124.418992517581,15.528639927720
$GPGGA,100319.00,3525.9436,N,12140.9954,W,1,09,0.8,8.8,M,-31.9,M,,*5D
$PYRTM,2024,124.419001905949,15.528649316088
$GPGGA,100320.00,3525.9447,N,12140.9950,W,1,09,0.8,9.5,M,-31.9,M,,*59
$PYRTM,2024,124.419013465775,15.528660875914
$GPGGA,100321.00,3525.9458,N,12140.9951,W,1,09,0.8,10.5,M,-31.9,M,,*6F
$PYRTM,2024,124.419025048600,15.528672458738
$GPGGA,100322.00,3525.9467,N,12140.9961,W,1,09,0.8,8.5,M,-31.9,M,,*5A
$PYRTM,2024,124.419036613588,15.528684023727
$GPGGA,100323.00,3525.9472,N,12140.9974,W,1,09,0.8,7.5,M,-31.9,M,,*54
$PYRTM,2024,124.419048197025,15.528695607164
$GPGGA,100324.00,3525.9480,N,12140.9980,W,1,09,0.8,8.1,M,-31.9,M,,*5E
$PYRTM,2024,124.419059760822,15.528707170961
$GPGGA,100325.00,3525.9490,N,12140.9981,W,1,09,0.8,8.1,M,-31.9,M,,*5F
$PYRTM,2024,124.419071351389,15.528718761539
$GPGGA,100326.00,3525.9501,N,12140.9982,W,1,09,0.8,9.4,M,-31.9,M,,*52
$PYRTM,2024,124.419082911007,15.528730321146
$GPGGA,100327.00,3525.9510,N,12140.9985,W,1,09,0.8,10.3,M,-31.9,M,,*6B
$PYRTM,2024,124.419094947199,15.528742357338
$GPGGA,100328.00,3525.9519,N,12140.9993,W,1,09,0.8,11.2,M,-31.9,M,,*6A
$PYRTM,2024,124.419106060058,15.528753470197
$GPGGA,100329.00,3525.9527,N,12141.0001,W,1,09,0.8,10.5,M,-31.9,M,,*6A
$PYRTM,2024,124.419117647523,15.528765057662
$GPGGA,100330.00,3525.9536,N,12141.0009,W,1,09,0.8,9.6,M,-31.9,M,,*51
$PYRTM,2024,124.419129206632,15.528776616771
$GPGGA,100331.00,3525.9545,N,12141.0016,W,1,09,0.8,9.4,M,-31.9,M,,*58
$PYRTM,2024,124.419140794630,15.528788204769
$GPGGA,100332.00,3525.9554,N,12141.0023,W,1,09,0.8,10.7,M,-31.9,M,,*66
$PYRTM,2024,124.419152356181,15.528799766319
$GPGGA,100333.00,3525.9563,N,12141.0026,W,1,09,0.8,12.1,M,-31.9,M,,*62
$PYRTM,2024,124.419163938461,15.528811348600
$GPGGA,100334.00,3525.9573,N,12141.0030,W,1,09,0.8,12.3,M,-31.9,M,,*61
$PYRTM,2024,124.419175503808,15.528822913947
$GPGGA,100335.00,3525.9582,N,12141.0039,W,1,09,0.8,11.5,M,-31.9,M,,*62
$PYRTM,2024,124.419187091875,15.528834502014
$GPGGA,100336.00,3525.9591,N,12141.0050,W,1,09,0.8,11.0,M,-31.9,M,,*69
$PYRTM,2024,124.419199129259,15.528846539398
$GPGGA,100337.00,3525.9598,N,12141.0059,W,1,09,0.8,10.4,M,-31.9,M,,*6D
$PYRTM,2024,124.419210235266,15.528857645405
$GPGGA,100338.00,3525.9606,N,12141.0063,W,1,09,0.8,8.9,M,-31.9,M,,*5B
$PYRTM,2024,124.419221800463,15.528869210602
$GPGGA,100339.00,3525.9616,N,12141.0064,W,1,09,0.8,8.8,M,-31.9,M,,*5D
$PYRTM,2024,124.419233388229,15.528880798368
$GPGGA,100340.00,3525.9627,N,12141.0070,W,1,09,0.8,10.4,M,-31.9,M,,*61
$PYRTM,2024,124.419244949572,15.528892359722
$GPGGA,100341.00,3525.9636,N,12141.0080,W,1,09,0.8,7.5,M,-31.9,M,,*58
$PYRTM,2024,124.419256536632,15.528903946771
$GPGGA,100342.00,3525.9644,N,12141.0092,W,1,09,0.8,8.1,M,-31.9,M,,*56
$PYRTM,2024,124.419268096470,15.528915506609
$GPGGA,100343.00,3525.9652,N,12141.0099,W,1,09,0.8,7.5,M,-31.9,M,,*50
$PYRTM,2024,124.419279684988,15.528927095127
$GPGGA,100344.00,3525.9662,N,12141.0101,W,1,09,0.8,12.0,M,-31.9,M,,*65
$PYRTM,2024,124.419291244641,15.528938654780
$GPGGA,100345.00,3525.9673,N,12141.0106,W,1,09,0.8,9.0,M,-31.9,M,,*59
$PYRTM,2024,124.419302834861,15.528950245000
$GPGGA,100346.00,3525.9681,N,12141.0112,W,1,09,0.8,8.5,M,-31.9,M,,*56
$PYRTM,2024,124.419314393275,15.528961803414
$GPGGA,100347.00,3525.9689,N,12141.0118,W,1,09,0.8,9.4,M,-31.9,M,,*55
$PYRTM,2024,124.419327010440,15.528974420579
$GPGGA,100348.00,3525.9700,N,12141.0121,W,1,09,0.8,8.8,M,-31.9,M,,*5D
$PYRTM,2024,124.419339755671,15.528987165810
$GPGGA,100349.00,3525.9712,N,12141.0125,W,1,09,0.8,10.3,M,-31.9,M,,*69
$PYRTM,2024,124.419349130231,15.528996540370
$GPGGA,100350.00,3525.9720,N,12141.0131,W,1,09,0.8,8.9,M,-31.9,M,,*56
$PYRTM,2024,124.419360689769,15.529008099907
$GPGGA,100351.00,3525.9729,N,12141.0140,W,1,09,0.8,7.6,M,-31.9,M,,*58
$PYRTM,2024,124.419372277477,15.529019687616
$GPGGA,100352.00,3525.9740,N,12141.0145,W,1,09,0.8,10.2,M,-31.9,M,,*63
$PYRTM,2024,124.419383837419,15.529031247558
$GPGGA,100353.00,3525.9752,N,12141.0146,W,1,09,0.8,10.5,M,-31.9,M,,*65
$PYRTM,2024,124.419395427442,15.529042837581
$GPGGA,100354.00,3525.9763,N,12141.0152,W,1,09,0.8,8.4,M,-31.9,M,,*5D
$PYRTM,2024,124.419406985579,15.529054395718
$GPGGA,100355.00,3525.9772,N,12141.0164,W,1,09,0.8,7.5,M,-31.9,M,,*57
$PYRTM,2024,124.419418574722,15.529065984861
$GPGGA,100356.00,3525.9778,N,12141.0175,W,1,09,0.8,8.5,M,-31.9,M,,*51
$PYRTM,2024,124.419430134132,15.529077544271
$GPGGA,100357.00,3525.9786,N,12141.0180,W,1,09,0.8,8.5,M,-31.9,M,,*5B
$PYRTM,2024,124.419441723021,15.529089133160
$GPGGA,100358.00,3525.9799,N,12141.0181,W,1,09,0.8,9.0,M,-31.9,M,,*5F
$PYRTM,2024,124.419453282083,15.529100692222
$GPGGA,100359.00,3525.9810,N,12141.0184,W,1,09,0.8,9.9,M,-31.9,M,,*5C
$PYRTM,2024,124.419464870660,15.529112280799
$GPGGA,100400.00,3525.9817,N,12141.0191,W,1,09,0.8,9.8,M,-31.9,M,,*55
$PYRTM,2024,124.419476432095,15.529123842234
$GPGGA,100401.00,3525.9821,N,12141.0202,W,1,09,0.8,6.6,M,-31.9,M,,*59
$PYRTM,2024,124.419488021273,15.529135431412
$GPGGA,100402.00,3525.9828,N,12141.0211,W,1,09,0.8,8.6,M,-31.9,M,,*5F
$PYRTM,2024,124.419498654132,15.529146064271
$GPGGA,100403.00,3525.9838,N,12141.0215,W,1,09,0.8,9.8,M,-31.9,M,,*54
$PYRTM,2024,124.419511615764,15.529159025903
$GPGGA,100404.00,3525.9848,N,12141.0219,W,1,09,0.8,12.2,M,-31.9,M,,*68
$PYRTM,2024,124.419522395660,15.529169805799
$GPGGA,100405.00,3525.9857,N,12141.0225,W,1,09,0.8,10.7,M,-31.9,M,,*6F
$PYRTM,2024,124.419533505081,15.529180915220
$GPGGA,100406.00,3525.9866,N,12141.0233,W,1,09,0.8,10.6,M,-31.9,M,,*68
$PYRTM,2024,124.419544627512,15.529192037650
$GPGGA,100407.00,3525.9873,N,12141.0239,W,1,09,0.8,13.5,M,-31.9,M,,*67
$PYRTM,2024,124.419556206644,15.529203616782
$GPGGA,100408.00,3525.9880,N,12141.0245,W,1,09,0.8,14.0,M,-31.9,M,,*6D
$PYRTM,2024,124.419567302350,15.529214712488
$GPGGA,100409.00,3525.9891,N,12141.0253,W,1,09,0.8,12.8,M,-31.9,M,,*65
$PYRTM,2024,124.419578429387,15.529225839525
$GPGGA,100410.00,3525.9902,N,12141.0261,W,1,09,0.8,11.4,M,-31.9,M,,*68
$PYRTM,2024,124.419589525775,15.529236935914
$GPGGA,100411.00,3525.9910,N,12141.0265,W,1,09,0.8,15.6,M,-31.9,M,,*68
$PYRTM,2024,124.419600650984,15.529248061123
$GPGGA,100412.00,3525.9919,N,12141.0268,W,1,09,0.8,16.0,M,-31.9,M,,*6A
$PYRTM,2024,124.419611752778,15.529259162917
$GPGGA,100413.00,3525.9929,N,12141.0274,W,1,09,0.8,12.4,M,-31.9,M,,*65
$PYRTM,2024,124.419622861794,15.529270271933
$GPGGA,100414.00,3525.9939,N,12141.0282,W,1,08,1.0,10.9,M,-31.9,M,,*6D
$PYRTM,2024,124.419633984468,15.529281394606
$GPGGA,100415.00,3525.9946,N,12141.0290,W,1,08,1.0,14.2,M,-31.9,M,,*68
$PYRTM,2024,124.419648323102,15.529295733241
$GPGGA,100416.00,3525.9953,N,12141.0295,W,1,09,0.8,13.8,M,-31.9,M,,*6F
$PYRTM,2024,124.419659432211,15.529306842350
$GPGGA,100417.00,3525.9961,N,12141.0298,W,1,09,0.8,15.5,M,-31.9,M,,*69
$PYRTM,2024,124.419670544514,15.529317954653
$GPGGA,100418.00,3525.9970,N,12141.0305,W,1,09,0.8,13.6,M,-31.9,M,,*66
$PYRTM,2024,124.419685577847,15.529332987986
$GPGGA,100419.00,3525.9979,N,12141.0314,W,1,09,0.8,12.4,M,-31.9,M,,*6D
$PYRTM,2024,124.419696691979,15.529344102118
$GPGGA,100420.00,3525.9987,N,12141.0321,W,1,09,0.8,11.5,M,-31.9,M,,*62
$PYRTM,2024,124.419707799780,15.529355209919
$GPGGA,100421.00,3525.9995,N,12141.0325,W,1,09,0.8,13.6,M,-31.9,M,,*65
$PYRTM,2024,124.419718913472,15.529366323611
$GPGGA,100422.00,3526.0005,N,12141.0328,W,1,09,0.8,13.5,M,-31.9,M,,*62
$PYRTM,2024,124.419730022627,15.529377432766
$GPGGA,100423.00,3526.0016,N,12141.0333,W,1,09,0.8,13.4,M,-31.9,M,,*6A
$PYRTM,2024,124.419741509132,15.529388919271
$GPGGA,100424.00,3526.0026,N,12141.0342,W,1,09,0.8,11.8,M,-31.9,M,,*66
$PYRTM,2024,124.419753054734,15.529400464873
$GPGGA,100425.00,3526.0034,N,12141.0354,W,1,09,0.8,11.2,M,-31.9,M,,*69
$PYRTM,2024,124.419764638715,15.529412048854
$GPGGA,100426.00,3526.0042,N,12141.0361,W,1,09,0.8,11.5,M,-31.9,M,,*6A
$PYRTM,2024,124.419776205255,15.529423615394
$GPGGA,100427.00,3526.0052,N,12141.0364,W,1,09,0.8,11.3,M,-31.9,M,,*69
$PYRTM,2024,124.419787786412,15.529435196551
$GPGGA,100428.00,3526.0064,N,12141.0366,W,1,09,0.8,13.6,M,-31.9,M,,*66
$PYRTM,2024,124.419799351273,15.529446761412
$GPGGA,100429.00,3526.0075,N,12141.0372,W,1,09,0.8,12.9,M,-31.9,M,,*6C
$PYRTM,2024,124.419810939144,15.529458349271
$GPGGA,100430.00,3526.0084,N,12141.0382,W,1,09,0.8,12.1,M,-31.9,M,,*6D
$PYRTM,2024,124.419822499954,15.529469910093
$GPGGA,100431.00,3526.0091,N,12141.0392,W,1,09,0.8,10.5,M,-31.9,M,,*6F
$PYRTM,2024,124.419834088044,15.529481498183
$GPGGA,100432.00,3526.0101,N,12141.0398,W,1,09,0.8,11.0,M,-31.9,M,,*6A
$PYRTM,2024,124.419845648241,15.529493058380
$GPGGA,100433.00,3526.0112,N,12141.0398,W,1,09,0.8,11.6,M,-31.9,M,,*6F
$PYRTM,2024,124.419857235185,15.529504645324
$GPGGA,100434.00,3526.0121,N,12141.0401,W,1,09,0.8,12.2,M,-31.9,M,,*68
$PYRTM,2024,124.419868797627,15.529516207766
$GPGGA,100435.00,3526.0129,N,12141.0410,W,1,09,0.8,9.7,M,-31.9,M,,*5E
$PYRTM,2024,124.419880399803,15.529527809942
$GPGGA,100436.00,3526.0138,N,12141.0422,W,1,09,0.8,8.1,M,-31.9,M,,*5B
$PYRTM,2024,124.419892420625,15.529539830764
$GPGGA,100437.00,3526.0146,N,12141.0429,W,1,09,0.8,9.9,M,-31.9,M,,*51
$PYRTM,2024,124.419903549109,15.529550959248
$GPGGA,100438.00,3526.0154,N,12141.0431,W,1,09,0.8,11.4,M,-31.9,M,,*60
$PYRTM,2024,124.419915094687,15.529562504826
$GPGGA,100439.00,3526.0162,N,12141.0433,W,1,09,0.8,10.9,M,-31.9,M,,*6A
$PYRTM,2024,124.419926696447,15.529574106586
$GPGGA,100440.00,3526.0172,N,12141.0441,W,1,09,0.8,9.9,M,-31.9,M,,*58
$PYRTM,2024,124.419938244676,15.529585654826
$GPGGA,100441.00,3526.0180,N,12141.0453,W,1,09,0.8,10.1,M,-31.9,M,,*67
$PYRTM,2024,124.419949832627,15.529597242766
$GPGGA,100442.00,3526.0187,N,12141.0461,W,1,09,0.8,8.1,M,-31.9,M,,*5B
$PYRTM,2024,124.419961392951,15.529608803090
$GPGGA,100443.00,3526.0196,N,12141.0462,W,1,09,0.8,8.0,M,-31.9,M,,*58
$PYRTM,2024,124.419972992581,15.529620402720
$GPGGA,100444.00,3526.0208,N,12141.0464,W,1,09,0.8,9.0,M,-31.9,M,,*5C
$PYRTM,2024,124.419984543194,15.529631953333
$GPGGA,100445.00,3526.0220,N,12141.0471,W,1,09,0.8,8.8,M,-31.9,M,,*5A
$PYRTM,2024,124.419996125625,15.529643535764
$GPGGA,100446.00,3526.0226,N,12141.0480,W,1,09,0.8,7.9,M,-31.9,M,,*5F
$PYRTM,2024,124.420007687546,15.529655097685
$GPGGA,100447.00,3526.0233,N,12141.0488,W,1,09,0.8,8.0,M,-31.9,M,,*54
$PYRTM,2024,124.420020431609,15.529667841748
$GPGGA,100448.00,3526.0243,N,12141.0491,W,1,09,0.8,9.0,M,-31.9,M,,*55
$PYRTM,2024,124.420031991065,15.529679401204
$GPGGA,100449.00,3526.0252,N,12141.0494,W,1,09,0.8,11.0,M,-31.9,M,,*68
$PYRTM,2024,124.420043579826,15.529690989965
$GPGGA,100450.00,3526.0260,N,12141.0500,W,1,09,0.8,9.0,M,-31.9,M,,*54
$PYRTM,2024,124.420055139398,15.529702549537
$GPGGA,100451.00,3526.0267,N,12141.0507,W,1,09,0.8,11.6,M,-31.9,M,,*6A
$PYRTM,2024,124.420066723877,15.529714134016
$GPGGA,100452.00,3526.0273,N,12141.0515,W,1,09,0.8,15.5,M,-31.9,M,,*68
$PYRTM,2024,124.420078287014,15.529725697153
$GPGGA,100453.00,3526.0282,N,12141.0523,W,1,09,0.8,15.4,M,-31.9,M,,*63
$PYRTM,2024,124.420089875081,15.529737285220
$GPGGA,100454.00,3526.0292,N,12141.0531,W,1,09,0.8,11.8,M,-31.9,M,,*6E
$PYRTM,2024,124.420101436539,15.529748846678
$GPGGA,100455.00,3526.0302,N,12141.0538,W,1,09,0.8,10.9,M,-31.9,M,,*6E
$PYRTM,2024,124.420113022882,15.529760433021
$GPGGA,100456.00,3526.0308,N,12141.0544,W,1,09,0.8,10.7,M,-31.9,M,,*62
$PYRTM,2024,124.420124583970,15.529771994109
$GPGGA,100457.00,3526.0313,N,12141.0550,W,1,09,0.8,10.1,M,-31.9,M,,*6A
$PYRTM,2024,124.420136172384,15.529783582523
$GPGGA,100458.00,3526.0322,N,12141.0555,W,1,09,0.8,9.8,M,-31.9,M,,*53
$PYRTM,2024,124.420147731944,15.529795142083
$GPGGA,100459.00,3526.0334,N,12141.0563,W,1,09,0.8,8.4,M,-31.9,M,,*5D
$PYRTM,2024,124.420159307882,15.529806718021
$GPGGA,100500.00,3526.0342,N,12141.0572,W,1,09,0.8,6.7,M,-31.9,M,,*5C
$PYRTM,2024,124.420170881157,15.529818291296
$GPGGA,100501.00,3526.0347,N,12141.0580,W,1,09,0.8,5.0,M,-31.9,M,,*51
$PYRTM,2024,124.420182469317,15.529829879456
$GPGGA,100502.00,3526.0355,N,12141.0585,W,1,09,0.8,4.9,M,-31.9,M,,*5C
$PYRTM,2024,124.420194029039,15.529841439178
$GPGGA,100503.00,3526.0366,N,12141.0589,W,1,09,0.8,6.8,M,-31.9,M,,*52
$PYRTM,2024,124.420205619120,15.529853029259
$GPGGA,100504.00,3526.0375,N,12141.0594,W,1,09,0.8,9.3,M,-31.9,M,,*5F
$PYRTM,2024,124.420217177847,15.529864587986
$GPGGA,100505.00,3526.0382,N,12141.0601,W,1,09,0.8,6.9,M,-31.9,M,,*5C
$PYRTM,2024,124.420228761424,15.529876171563
$GPGGA,100506.00,3526.0389,N,12141.0609,W,1,09,0.8,6.8,M,-31.9,M,,*5D
$PYRTM,2024,124.420240804815,15.529888214954
$GPGGA,100507.00,3526.0399,N,12141.0616,W,1,09,0.8,9.1,M,-31.9,M,,*55
$PYRTM,2024,124.420252248750,15.529899658889
$GPGGA,100508.00,3526.0407,N,12141.0621,W,1,09,0.8,9.0,M,-31.9,M,,*5F
$PYRTM,2024,124.420263474248,15.529910884387
$GPGGA,100509.00,3526.0411,N,12141.0626,W,1,09,0.8,5.8,M,-31.9,M,,*5A
$PYRTM,2024,124.420275062940,15.529922473079
$GPGGA,100510.00,3526.0417,N,12141.0633,W,1,09,0.8,5.9,M,-31.9,M,,*51
$PYRTM,2024,124.420286624340,15.529934034479
$GPGGA,100511.00,3526.0427,N,12141.0641,W,1,09,0.8,4.1,M,-31.9,M,,*5F
$PYRTM,2024,124.420298211505,15.529945621644
$GPGGA,100512.00,3526.0437,N,12141.0647,W,1,09,0.8,5.1,M,-31.9,M,,*5A
$PYRTM,2024,124.420309773368,15.529957183507
$GPGGA,100513.00,3526.0443,N,12141.0653,W,1,09,0.8,7.8,M,-31.9,M,,*56
$PYRTM,2024,124.420321358472,15.529968768611
$GPGGA,100514.00,3526.0447,N,12141.0658,W,1,09,0.8,9.1,M,-31.9,M,,*59
$PYRTM,2024,124.420332920255,15.529980330394
$GPGGA,100515.00,3526.0454,N,12141.0663,W,1,09,0.8,6.3,M,-31.9,M,,*5F
$PYRTM,2024,124.420344502859,15.529991912998
$GPGGA,100516.00,3526.0465,N,12141.0669,W,1,09,0.8,7.3,M,-31.9,M,,*55
$PYRTM,2024,124.420356069456,15.530003479595
$GPGGA,100517.00,3526.0475,N,12141.0675,W,1,09,0.8,6.3,M,-31.9,M,,*59
$PYRTM,2024,124.420368685752,15.530016095891
$GPGGA,100518.00,3526.0482,N,12141.0681,W,1,09,0.8,4.3,M,-31.9,M,,*57
$PYRTM,2024,124.420381416227,15.530028826366
$GPGGA,100519.00,3526.0490,N,12141.0685,W,1,09,0.8,5.8,M,-31.9,M,,*5B
$PYRTM,2024,124.420390803704,15.530038213831
$GPGGA,100520.00,3526.0500,N,12141.0690,W,1,09,0.8,8.7,M,-31.9,M,,*5F
$PYRTM,2024,124.420402365810,15.530049775949
$GPGGA,100521.00,3526.0508,N,12141.0698,W,1,08,1.0,9.2,M,-31.9,M,,*52
$PYRTM,2024,124.420413947963,15.530061358102
$GPGGA,100522.00,3526.0515,N,12141.0703,W,1,09,0.8,3.1,M,-31.9,M,,*5F
$PYRTM,2024,124.420425512535,15.530072922674
$GPGGA,100523.00,3526.0523,N,12141.0707,W,1,09,0.8,8.7,M,-31.9,M,,*52
$PYRTM,2024,124.420437102118,15.530084512269
$GPGGA,100524.00,3526.0533,N,12141.0711,W,1,09,0.8,7.9,M,-31.9,M,,*52
$PYRTM,2024,124.420448662535,15.530096072674
$GPGGA,100525.00,3526.0540,N,12141.0717,W,1,09,0.8,8.6,M,-31.9,M,,*51
$PYRTM,2024,124.420460250972,15.530107661111
$GPGGA,100526.00,3526.0546,N,12141.0723,W,1,09,0.8,9.4,M,-31.9,M,,*50
$PYRTM,2024,124.420471809699,15.530119219838
$GPGGA,100527.00,3526.0554,N,12141.0728,W,1,09,0.8,9.9,M,-31.9,M,,*54
$PYRTM,2024,124.420483397060,15.530130807199
$GPGGA,100528.00,3526.0564,N,12141.0732,W,1,09,0.8,11.3,M,-31.9,M,,*60
$PYRTM,2024,124.420494960289,15.530142370428
$GPGGA,100529.00,3526.0572,N,12141.0736,W,1,09,0.8,13.4,M,-31.9,M,,*67
$PYRTM,2024,124.420506546898,15.530153957037
$GPGGA,100530.00,3526.0579,N,12141.0744,W,1,09,0.8,12.0,M,-31.9,M,,*64
$PYRTM,2024,124.420518106655,15.530165516794
$GPGGA,100531.00,3526.0586,N,12141.0752,W,1,09,0.8,10.5,M,-31.9,M,,*65
$PYRTM,2024,124.420529693750,15.530177103889
$GPGGA,100532.00,3526.0596,N,12141.0757,W,1,09,0.8,9.5,M,-31.9,M,,*5A
$PYRTM,2024,124.420541253808,15.530188663947
$GPGGA,100533.00,3526.0605,N,12141.0760,W,1,09,0.8,9.0,M,-31.9,M,,*53
$PYRTM,2024,124.420552838160,15.530200248299
$GPGGA,100534.00,3526.0613,N,12141.0766,W,1,09,0.8,8.3,M,-31.9,M,,*57
$PYRTM,2024,124.420564402905,15.530211813044
$GPGGA,100535.00,3526.0621,N,12141.0774,W,1,09,0.8,11.1,M,-31.9,M,,*6E
$PYRTM,2024,124.420575978947,15.530223389086
$GPGGA,100536.00,3526.0631,N,12141.0782,W,1,09,0.8,9.1,M,-31.9,M,,*5C
$PYRTM,2024,124.420587916806,15.530235326956
$GPGGA,100537.00,3526.0642,N,12141.0789,W,1,09,0.8,8.7,M,-31.9,M,,*55
$PYRTM,2024,124.420599138981,15.530246549120
$GPGGA,100538.00,3526.0649,N,12141.0793,W,1,09,0.8,10.3,M,-31.9,M,,*67
$PYRTM,2024,124.420610698611,15.530258108750
$GPGGA,100539.00,3526.0656,N,12141.0798,W,1,09,0.8,9.9,M,-31.9,M,,*51
$PYRTM,2024,124.420622288727,15.530269698866
$GPGGA,100540.00,3526.0664,N,12141.0808,W,1,09,0.8,6.5,M,-31.9,M,,*5B
$PYRTM,2024,124.420633847407,15.530281257546
$GPGGA,100541.00,3526.0674,N,12141.0818,W,1,09,0.8,11.8,M,-31.9,M,,*61
$PYRTM,2024,124.420645435914,15.530292846053
$GPGGA,100542.00,3526.0682,N,12141.0824,W,1,09,0.8,11.5,M,-31.9,M,,*69
$PYRTM,2024,124.420656996192,15.530304406331
$GPGGA,100543.00,3526.0687,N,12141.0825,W,1,09,0.8,12.0,M,-31.9,M,,*6A
$PYRTM,2024,124.420668584896,15.530315995035
$GPGGA,100544.00,3526.0696,N,12141.0828,W,1,09,0.8,11.3,M,-31.9,M,,*60
$PYRTM,2024,124.420680143634,15.530327553773
$GPGGA,100545.00,3526.0707,N,12141.0836,W,1,09,0.8,9.5,M,-31.9,M,,*58
$PYRTM,2024,124.420691733241,15.530339143380
$GPGGA,100546.00,3526.0714,N,12141.0847,W,1,09,0.8,8.6,M,-31.9,M,,*5D
$PYRTM,2024,124.420703293102,15.530350703241
$GPGGA,100547.00,3526.0718,N,12141.0854,W,1,09,0.8,8.4,M,-31.9,M,,*50
$PYRTM,2024,124.420715909421,15.530363319560
$GPGGA,100548.00,3526.0725,N,12141.0858,W,1,09,0.8,10.1,M,-31.9,M,,*61
$PYRTM,2024,124.420728641296,15.530376051447
$GPGGA,100549.00,3526.0735,N,12141.0862,W,1,09,0.8,11.9,M,-31.9,M,,*61
$PYRTM,2024,124.420738024201,15.530385434340
$GPGGA,100550.00,3526.0743,N,12141.0866,W,1,09,0.8,13.1,M,-31.9,M,,*66
$PYRTM,2024,124.420749590162,15.530397000301
$GPGGA,100551.00,3526.0749,N,12141.0873,W,1,09,0.8,12.9,M,-31.9,M,,*60
$PYRTM,2024,124.420761173912,15.530408584051
$GPGGA,100552.00,3526.0757,N,12141.0881,W,1,09,0.8,11.5,M,-31.9,M,,*6E
$PYRTM,2024,124.420772736875,15.530420147014
$GPGGA,100553.00,3526.0765,N,12141.0887,W,1,09,0.8,9.3,M,-31.9,M,,*57
$PYRTM,2024,124.420784324965,15.530431735104
$GPGGA,100554.00,3526.0772,N,12141.0892,W,1,09,0.8,10.2,M,-31.9,M,,*6B
$PYRTM,2024,124.420795886169,15.530443296319
$GPGGA,100555.00,3526.0778,N,12141.0897,W,1,09,0.8,11.9,M,-31.9,M,,*6F
$PYRTM,2024,124.420807474572,15.530454884711
$GPGGA,100556.00,3526.0785,N,12141.0903,W,1,09,0.8,11.3,M,-31.9,M,,*68
$PYRTM,2024,124.420819033484,15.530466443623
$GPGGA,100557.00,3526.0792,N,12141.0909,W,1,09,0.8,9.8,M,-31.9,M,,*57
$PYRTM,2024,124.420830958275,15.530478368426
$GPGGA,100558.00,3526.0801,N,12141.0912,W,1,09,0.8,9.8,M,-31.9,M,,*57
$PYRTM,2024,124.420842182234,15.530489592373
$GPGGA,100559.00,3526.0810,N,12141.0916,W,1,09,0.8,11.7,M,-31.9,M,,*64
$PYRTM,2024,124.420853771366,15.530501181505
$GPGGA,100600.00,3526.0818,N,12141.0924,W,1,09,0.8,11.8,M,-31.9,M,,*6D
$PYRTM,2024,124.420865330324,15.530512740451
$GPGGA,100601.00,3526.0826,N,12141.0932,W,1,09,0.8,9.2,M,-31.9,M,,*55
$PYRTM,2024,124.420876906609,15.530524316748
$GPGGA,100602.00,3526.0832,N,12141.0938,W,1,09,0.8,10.6,M,-31.9,M,,*65
$PYRTM,2024,124.420888479896,15.530535890035
$GPGGA,100603.00,3526.0840,N,12141.0941,W,1,09,0.8,12.8,M,-31.9,M,,*63
$PYRTM,2024,124.420900063854,15.530547473993
$GPGGA,100604.00,3526.0849,N,12141.0944,W,1,09,0.8,14.2,M,-31.9,M,,*64
$PYRTM,2024,124.420911629456,15.530559039595
$GPGGA,100605.00,3526.0858,N,12141.0950,W,1,09,0.8,12.6,M,-31.9,M,,*62
$PYRTM,2024,124.420923210544,15.530570620683
$GPGGA,100606.00,3526.0865,N,12141.0961,W,1,09,0.8,11.7,M,-31.9,M,,*6F
$PYRTM,2024,124.420934326481,15.530581736620
$GPGGA,100607.00,3526.0871,N,12141.0970,W,1,09,0.8,10.7,M,-31.9,M,,*6A
$PYRTM,2024,124.420946358970,15.530593769109
$GPGGA,100608.00,3526.0878,N,12141.0975,W,1,10,0.8,8.9,M,-31.9,M,,*56
$PYRTM,2024,124.420958057199,15.530605467338
$GPGGA,100609.00,3526.0889,N,12141.0978,W,1,10,0.8,12.0,M,-31.9,M,,*66
$PYRTM,2024,124.420969165289,15.530616575428
$GPGGA,100610.00,3526.0901,N,12141.0983,W,1,10,0.8,10.4,M,-31.9,M,,*6D
$PYRTM,2024,124.420980145532,15.530627555671
$GPGGA,100611.00,3526.0909,N,12141.0992,W,1,10,0.8,8.1,M,-31.9,M,,*58
$PYRTM,2024,124.420991389178,15.530638799317
$GPGGA,100612.00,3526.0912,N,12141.1001,W,1,10,0.8,10.4,M,-31.9,M,,*6F
$PYRTM,2024,124.421002369653,15.530649779803
$GPGGA,100613.00,3526.0919,N,12141.1007,W,1,10,0.8,9.3,M,-31.9,M,,*5C
$PYRTM,2024,124.421013478796,15.530660888935
$GPGGA,100614.00,3526.0930,N,12141.1010,W,1,10,0.8,10.3,M,-31.9,M,,*6E
$PYRTM,2024,124.421024590926,15.530672001065
$GPGGA,100615.00,3526.0941,N,12141.1015,W,1,10,0.8,11.0,M,-31.9,M,,*6E
$PYRTM,2024,124.421035703021,15.530683113160
$GPGGA,100616.00,3526.0949,N,12141.1023,W,1,10,0.8,8.4,M,-31.9,M,,*5C
$PYRTM,2024,124.421046814942,15.530694225081
$GPGGA,100617.00,3526.0955,N,12141.1033,W,1,10,0.8,6.3,M,-31.9,M,,*58
$PYRTM,2024,124.421057925278,15.530705335428
$GPGGA,100618.00,3526.0960,N,12141.1040,W,1,10,0.8,7.0,M,-31.9,M,,*57
$PYRTM,2024,124.421072509248,15.530719919387
$GPGGA,100619.00,3526.0970,N,12141.1045,W,1,10,0.8,6.5,M,-31.9,M,,*56
$PYRTM,2024,124.421084096655,15.530731506794
$GPGGA,100620.00,3526.0983,N,12141.1050,W,1,10,0.8,7.0,M,-31.9,M,,*50
$PYRTM,2024,124.421095658414,15.530743068553
$GPGGA,100621.00,3526.0992,N,12141.1056,W,1,10,0.8,7.9,M,-31.9,M,,*5E
$PYRTM,2024,124.421107244884,15.530754655023
$GPGGA,100622.00,3526.0997,N,12141.1063,W,1,10,0.8,10.7,M,-31.9,M,,*66
$PYRTM,2024,124.421118806204,15.530766216343
$GPGGA,100623.00,3526.1002,N,12141.1070,W,1,10,0.8,10.1,M,-31.9,M,,*67
$PYRTM,2024,124.421130393692,15.530777803831
$GPGGA,100624.00,3526.1013,N,12141.1076,W,1,10,0.8,9.7,M,-31.9,M,,*58
$PYRTM,2024,124.421141954028,15.530789364167
$GPGGA,100625.00,3526.1023,N,12141.1082,W,1,10,0.8,8.0,M,-31.9,M,,*57
$PYRTM,2024,124.421153541829,15.530800951968
$GPGGA,100626.00,3526.1028,N,12141.1086,W,1,10,0.8,8.9,M,-31.9,M,,*52
$PYRTM,2024,124.421165102998,15.530812513137
$GPGGA,100627.00,3526.1031,N,12141.1089,W,1,10,0.8,9.6,M,-31.9,M,,*5A
$PYRTM,2024,124.421176692141,15.530824102280
$GPGGA,100628.00,3526.1039,N,12141.1095,W,1,10,0.8,10.8,M,-31.9,M,,*66
$PYRTM,2024,124.421188251100,15.530835661238
$GPGGA,100629.00,3526.1049,N,12141.1101,W,1,10,0.8,8.4,M,-31.9,M,,*59
$PYRTM,2024,124.421199841053,15.530847251192
$GPGGA,100630.00,3526.1057,N,12141.1110,W,1,10,0.8,9.8,M,-31.9,M,,*53
$PYRTM,2024,124.421211400741,15.530858810891
$GPGGA,100631.00,3526.1061,N,12141.1116,W,1,10,0.8,9.9,M,-31.9,M,,*50
$PYRTM,2024,124.421222999722,15.530870409861
$GPGGA,100632.00,3526.1066,N,12141.1120,W,1,10,0.8,13.0,M,-31.9,M,,*63
$PYRTM,2024,124.421234547106,15.530881957245
$GPGGA,100633.00,3526.1075,N,12141.1125,W,1,10,0.8,9.8,M,-31.9,M,,*56
$PYRTM,2024,124.421246138588,15.530893548727
$GPGGA,100634.00,3526.1084,N,12141.1132,W,1,10,0.8,9.9,M,-31.9,M,,*58
$PYRTM,2024,124.421257695775,15.530905105926
$GPGGA,100635.00,3526.1091,N,12141.1140,W,1,10,0.8,11.2,M,-31.9,M,,*6A
$PYRTM,2024,124.421269282778,15.530916692917
$GPGGA,100636.00,3526.1096,N,12141.1147,W,1,10,0.8,11.9,M,-31.9,M,,*62
$PYRTM,2024,124.421281323461,15.530928733600
$GPGGA,100637.00,3526.1104,N,12141.1152,W,1,10,0.8,10.9,M,-31.9,M,,*6C
$PYRTM,2024,124.421292431400,15.530939841551
$GPGGA,100638.00,3526.1112,N,12141.1159,W,1,10,0.8,9.3,M,-31.9,M,,*5D
$PYRTM,2024,124.421303992882,15.530951403021
$GPGGA,100639.00,3526.1121,N,12141.1168,W,1,10,0.8,9.7,M,-31.9,M,,*5A
$PYRTM,2024,124.421315578553,15.530962988692
$GPGGA,100640.00,3526.1129,N,12141.1176,W,1,10,0.8,7.3,M,-31.9,M,,*59
$PYRTM,2024,124.421327140602,15.530974550741
$GPGGA,100641.00,3526.1136,N,12141.1178,W,1,10,0.8,8.3,M,-31.9,M,,*57
$PYRTM,2024,124.421338728079,15.530986138218
$GPGGA,100642.00,3526.1143,N,12141.1180,W,1,10,0.8,9.1,M,-31.9,M,,*52
$PYRTM,2024,124.421350288785,15.530997698935
$GPGGA,100643.00,3526.1151,N,12141.1184,W,1,10,0.8,10.0,M,-31.9,M,,*6D
$PYRTM,2024,124.421361890613,15.531009300764
$GPGGA,100644.00,3526.1160,N,12141.1194,W,1,10,0.8,9.7,M,-31.9,M,,*56
$PYRTM,2024,124.421373437847,15.531020847998
$GPGGA,100645.00,3526.1169,N,12141.1204,W,1,10,0.8,9.8,M,-31.9,M,,*5B
$PYRTM,2024,124.421385027512,15.531032437650
$GPGGA,100646.00,3526.1175,N,12141.1209,W,1,10,0.8,9.9,M,-31.9,M,,*59
$PYRTM,2024,124.421396586458,15.531043996597
$GPGGA,100647.00,3526.1181,N,12141.1212,W,1,10,0.8,12.0,M,-31.9,M,,*6A
$PYRTM,2024,124.421408185995,15.531055596134
$GPGGA,100648.00,3526.1190,N,12141.1217,W,1,10,0.8,12.3,M,-31.9,M,,*63
$PYRTM,2024,124.421421018681,15.531068428819
$GPGGA,100649.00,3526.1200,N,12141.1227,W,1,10,0.8,10.5,M,-31.9,M,,*6F
$PYRTM,2024,124.421432467072,15.531079877211
$GPGGA,100650.00,3526.1208,N,12141.1236,W,1,10,0.8,11.3,M,-31.9,M,,*68
$PYRTM,2024,124.421444037685,15.531091447824
$GPGGA,100651.00,3526.1215,N,12141.1243,W,1,10,0.8,11.3,M,-31.9,M,,*67
$PYRTM,2024,124.421455626655,15.531103036794
$GPGGA,100652.00,3526.1223,N,12141.1248,W,1,09,1.0,12.7,M,-31.9,M,,*6C
$PYRTM,2024,124.421467192789,15.531114602940
$GPGGA,100653.00,3526.1233,N,12141.1253,W,1,10,0.8,14.0,M,-31.9,M,,*66
$PYRTM,2024,124.421478769954,15.531126180093
$GPGGA,100654.00,3526.1243,N,12141.1260,W,1,10,0.8,11.4,M,-31.9,M,,*67
$PYRTM,2024,124.421490334873,15.531137745012
$GPGGA,100655.00,3526.1252,N,12141.1269,W,1,10,0.8,10.9,M,-31.9,M,,*63
$PYRTM,2024,124.421501910741,15.531149320880
$GPGGA,100656.00,3526.1262,N,12141.1274,W,1,10,0.8,8.5,M,-31.9,M,,*5A
$PYRTM,2024,124.421513484595,15.531160894734
$GPGGA,100657.00,3526.1271,N,12141.1276,W,1,10,0.8,9.1,M,-31.9,M,,*5E
$PYRTM,2024,124.421525072824,15.531172482963
$GPGGA,100658.00,3526.1281,N,12141.1279,W,1,10,0.8,8.7,M,-31.9,M,,*56
$PYRTM,2024,124.421536631481,15.531184041620
$GPGGA,100659.00,3526.1290,N,12141.1288,W,1,10,0.8,5.6,M,-31.9,M,,*55
$PYRTM,2024,124.421548215023,15.531195625162
$GPGGA,100700.00,3526.1299,N,12141.1300,W,1,10,0.8,4.6,M,-31.9,M,,*51
$PYRTM,2024,124.421559780301,15.531207190451
$GPGGA,100701.00,3526.1307,N,12141.1308,W,1,10,0.8,5.8,M,-31.9,M,,*51
$PYRTM,2024,124.421571368032,15.531218778171
$GPGGA,100702.00,3526.1317,N,12141.1309,W,1,10,0.8,6.5,M,-31.9,M,,*5C
$PYRTM,2024,124.421582928183,15.531230338322
$GPGGA,100703.00,3526.1327,N,12141.1310,W,1,10,0.8,6.5,M,-31.9,M,,*56
$PYRTM,2024,124.421594511019,15.531241921157
$GPGGA,100704.00,3526.1336,N,12141.1318,W,1,10,0.8,5.4,M,-31.9,M,,*5B
$PYRTM,2024,124.421606076435,15.531253486574
$GPGGA,100705.00,3526.1343,N,12141.1333,W,1,10,0.8,5.1,M,-31.9,M,,*54
$PYRTM,2024,124.421617663993,15.531265074132
$GPGGA,100706.00,3526.1350,N,12141.1346,W,1,10,0.8,5.7,M,-31.9,M,,*51
$PYRTM,2024,124.421629589317,15.531276999456
$GPGGA,100707.00,3526.1359,N,12141.1352,W,1,10,0.8,4.4,M,-31.9,M,,*5E
$PYRTM,2024,124.421640808426,15.531288218565
$GPGGA,100708.00,3526.1371,N,12141.1351,W,1,09,1.0,4.8,M,-31.9,M,,*55
$PYRTM,2024,124.421652374051,15.531299784201
$GPGGA,100709.00,3526.1384,N,12141.1356,W,1,10,0.8,7.0,M,-31.9,M,,*53
$PYRTM,2024,124.421663962199,15.531311372338
$GPGGA,100710.00,3526.1394,N,12141.1367,W,1,10,0.8,7.5,M,-31.9,M,,*5D
$PYRTM,2024,124.421675522847,15.531322932998
$GPGGA,100711.00,3526.1401,N,12141.1379,W,1,10,0.8,10.0,M,-31.9,M,,*6B
$PYRTM,2024,124.421687098472,15.531334508611
$GPGGA,100712.00,3526.1409,N,12141.1389,W,1,10,0.8,9.2,M,-31.9,M,,*55
$PYRTM,2024,124.421698670903,15.531346081042
$GPGGA,100713.00,3526.1418,N,12141.1393,W,1,10,0.8,9.1,M,-31.9,M,,*5C
$PYRTM,2024,124.421710262199,15.531357672338
$GPGGA,100714.00,3526.1426,N,12141.1397,W,1,10,0.8,8.0,M,-31.9,M,,*52
$PYRTM,2024,124.421721819375,15.531369229514
$GPGGA,100715.00,3526.1434,N,12141.1404,W,1,10,0.8,10.8,M,-31.9,M,,*6C
$PYRTM,2024,124.421733409039,15.531380819178
$GPGGA,100716.00,3526.1441,N,12141.1411,W,1,10,0.8,11.3,M,-31.9,M,,*63
$PYRTM,2024,124.421744967049,15.531392377199
$GPGGA,100717.00,3526.1449,N,12141.1418,W,1,10,0.8,10.3,M,-31.9,M,,*62
$PYRTM,2024,124.421756554653,15.531403964792
$GPGGA,100718.00,3526.1458,N,12141.1425,W,1,10,0.8,10.6,M,-31.9,M,,*66
$PYRTM,2024,124.421766742951,15.531414153090
$GPGGA,100719.00,3526.1469,N,12141.1431,W,1,10,0.8,10.3,M,-31.9,M,,*65
$PYRTM,2024,124.421778548310,15.531425958449
$GPGGA,100720.00,3526.1477,N,12141.1437,W,1,10,0.8,11.4,M,-31.9,M,,*60
$PYRTM,2024,124.421791264387,15.531438674525
$GPGGA,100721.00,3526.1485,N,12141.1442,W,1,10,0.8,8.8,M,-31.9,M,,*5A
$PYRTM,2024,124.421802850903,15.531450261042
$GPGGA,100722.00,3526.1494,N,12141.1449,W,1,10,0.8,10.3,M,-31.9,M,,*60
$PYRTM,2024,124.421814413889,15.531461824028
$GPGGA,100723.00,3526.1507,N,12141.1455,W,1,10,0.8,8.0,M,-31.9,M,,*5D
$PYRTM,2024,124.421826000185,15.531473410324
$GPGGA,100724.00,3526.1518,N,12141.1459,W,1,10,0.8,8.1,M,-31.9,M,,*59
$PYRTM,2024,124.421837562639,15.531484972778
$GPGGA,100725.00,3526.1528,N,12141.1466,W,1,10,0.8,9.2,M,-31.9,M,,*55
$PYRTM,2024,124.421849151123,15.531496561262
$GPGGA,100726.00,3526.1536,N,12141.1476,W,1,10,0.8,9.0,M,-31.9,M,,*5A
$PYRTM,2024,124.421860708009,15.531508118148
$GPGGA,100727.00,3526.1546,N,12141.1487,W,1,10,0.8,6.9,M,-31.9,M,,*54
$PYRTM,2024,124.421872299005,15.531519709144
$GPGGA,100728.00,3526.1556,N,12141.1491,W,1,10,0.8,9.1,M,-31.9,M,,*5A
$PYRTM,2024,124.421883858947,15.531531269086
$GPGGA,100729.00,3526.1567,N,12141.1493,W,1,10,0.8,12.4,M,-31.9,M,,*64
$PYRTM,2024,124.421895447674,15.531542857812
$GPGGA,100730.00,3526.1577,N,12141.1496,W,1,10,0.8,12.2,M,-31.9,M,,*6E
$PYRTM,2024,124.421907008218,15.531554418356
$GPGGA,100731.00,3526.1584,N,12141.1508,W,1,10,0.8,12.3,M,-31.9,M,,*64
$PYRTM,2024,124.421918592928,15.531566003079
$GPGGA,100732.00,3526.1591,N,12141.1524,W,1,10,0.8,10.4,M,-31.9,M,,*68
$PYRTM,2024,124.421930157639,15.531577567789
$GPGGA,100733.00,3526.1599,N,12141.1533,W,1,10,0.8,8.2,M,-31.9,M,,*58
$PYRTM,2024,124.421941727778,15.531589137917
$GPGGA,100734.00,3526.1609,N,12141.1534,W,1,10,0.8,8.5,M,-31.9,M,,*55
$PYRTM,2024,124.421953302512,15.531600712650
$GPGGA,100735.00,3526.1620,N,12141.1535,W,1,10,0.8,9.3,M,-31.9,M,,*59
$PYRTM,2024,124.421964877141,15.531612287280
$GPGGA,100736.00,3526.1631,N,12141.1543,W,1,10,0.8,9.1,M,-31.9,M,,*59
$PYRTM,2024,124.421976450266,15.531623860405
$GPGGA,100737.00,3526.1639,N,12141.1556,W,1,10,0.8,10.5,M,-31.9,M,,*68
$PYRTM,2024,124.421988372766,15.531635782917
$GPGGA,100738.00,3526.1646,N,12141.1567,W,1,10,0.8,9.4,M,-31.9,M,,*54
$PYRTM,2024,124.421997528669,15.531644938808
$GPGGA,100739.00,3526.1654,N,12141.1570,W,1,10,0.8,9.0,M,-31.9,M,,*54
$PYRTM,2024,124.422011174190,15.531658584340
$GPGGA,100740.00,3526.1663,N,12141.1573,W,1,10,0.8,10.4,M,-31.9,M,,*61
$PYRTM,2024,124.422022747859,15.531670157998
$GPGGA,100741.00,3526.1672,N,12141.1580,W,1,10,0.8,10.7,M,-31.9,M,,*6F
$PYRTM,2024,124.422034337546,15.531681747697
$GPGGA,100742.00,3526.1682,N,12141.1589,W,1,10,0.8,10.0,M,-31.9,M,,*6D
$PYRTM,2024,124.422045898727,15.531693308866
$GPGGA,100743.00,3526.1691,N,12141.1598,W,1,10,0.8,8.5,M,-31.9,M,,*52
$PYRTM,2024,124.422057470810,15.531704880949
$GPGGA,100744.00,3526.1701,N,12141.1605,W,1,10,0.8,7.0,M,-31.9,M,,*50
$PYRTM,2024,124.422069044502,15.531716454641
$GPGGA,100745.00,3526.1711,N,12141.1612,W,1,10,0.8,10.9,M,-31.9,M,,*69
$PYRTM,2024,124.422080631412,15.531728041551
$GPGGA,100746.00,3526.1719,N,12141.1619,W,1,10,0.8,8.0,M,-31.9,M,,*59
$PYRTM,2024,124.422092193657,15.531739603808
$GPGGA,100747.00,3526.1724,N,12141.1628,W,1,10,0.8,10.7,M,-31.9,M,,*6A
$PYRTM,2024,124.422103779583,15.531751189722
$GPGGA,100748.00,3526.1732,N,12141.1634,W,1,10,0.8,10.8,M,-31.9,M,,*60
$PYRTM,2024,124.422113966736,15.531761376875
$GPGGA,100749.00,3526.1743,N,12141.1640,W,1,10,0.8,10.7,M,-31.9,M,,*6B
$PYRTM,2024,124.422125769850,15.531773179988
$GPGGA,100750.00,3526.1751,N,12141.1648,W,1,10,0.8,5.7,M,-31.9,M,,*5C
$PYRTM,2024,124.422138488542,15.531785898681
$GPGGA,100751.00,3526.1759,N,12141.1656,W,1,10,0.8,8.9,M,-31.9,M,,*59
$PYRTM,2024,124.422150070718,15.531797480856
$GPGGA,100752.00,3526.1768,N,12141.1666,W,1,10,0.8,6.0,M,-31.9,M,,*5C
$PYRTM,2024,124.422161637755,15.531809047894
$GPGGA,100753.00,3526.1780,N,12141.1673,W,1,10,0.8,6.9,M,-31.9,M,,*56
$PYRTM,2024,124.422173210903,15.531820621030
$GPGGA,100754.00,3526.1791,N,12141.1678,W,1,10,0.8,6.8,M,-31.9,M,,*5B
$PYRTM,2024,124.422184785174,15.531832195313
$GPGGA,100755.00,3526.1801,N,12141.1685,W,1,10,0.8,5.4,M,-31.9,M,,*51
$PYRTM,2024,124.422196271377,15.531843681516
$GPGGA,100756.00,3526.1808,N,12141.1693,W,1,10,0.8,8.5,M,-31.9,M,,*50
$PYRTM,2024,124.422207934167,15.531855344306
$GPGGA,100757.00,3526.1816,N,12141.1702,W,1,10,0.8,5.3,M,-31.9,M,,*5C
$PYRTM,2024,124.422219419687,15.531866829826
$GPGGA,100758.00,3526.1826,N,12141.1710,W,1,10,0.8,7.7,M,-31.9,M,,*55
$PYRTM,2024,124.422231083796,15.531878493935
$GPGGA,100759.00,3526.1837,N,12141.1717,W,1,10,0.8,6.4,M,-31.9,M,,*51
$PYRTM,2024,124.422242554016,15.531889964155
$GPGGA,100800.00,3526.1846,N,12141.1725,W,1,10,0.8,7.3,M,-31.9,M,,*53
$PYRTM,2024,124.422254115208,15.531901525347
$GPGGA,100801.00,3526.1854,N,12141.1735,W,1,10,0.8,7.3,M,-31.9,M,,*50
$PYRTM,2024,124.422265817650,15.531913227789
$GPGGA,100802.00,3526.1862,N,12141.1743,W,1,10,0.8,4.7,M,-31.9,M,,*50
$PYRTM,2024,124.422277263646,15.531924673785
$GPGGA,100803.00,3526.1873,N,12141.1749,W,1,10,0.8,8.5,M,-31.9,M,,*55
$PYRTM,2024,124.422288849329,15.531936259468
$GPGGA,100804.00,3526.1884,N,12141.1756,W,1,10,0.8,6.0,M,-31.9,M,,*5F
$PYRTM,2024,124.422300411516,15.531947821655
$GPGGA,100805.00,3526.1893,N,12141.1766,W,1,10,0.8,7.0,M,-31.9,M,,*5A
$PYRTM,2024,124.422311998183,15.531959408322
$GPGGA,100806.00,3526.1898,N,12141.1777,W,1,10,0.8,7.0,M,-31.9,M,,*52
$PYRTM,2024,124.422323676562,15.531971086701
$GPGGA,100807.00,3526.1905,N,12141.1785,W,1,10,0.8,10.2,M,-31.9,M,,*6F
$PYRTM,2024,124.422335263495,15.531982673634
$GPGGA,100808.00,3526.1915,N,12141.1790,W,1,10,0.8,11.6,M,-31.9,M,,*60
$PYRTM,2024,124.422347182755,15.531994592894
$GPGGA,100809.00,3526.1927,N,12141.1796,W,1,10,0.8,10.5,M,-31.9,M,,*64
$PYRTM,2024,124.422358413449,15.532005823588
$GPGGA,100810.00,3526.1936,N,12141.1807,W,1,10,0.8,10.3,M,-31.9,M,,*6D
$PYRTM,2024,124.422369972523,15.532017382662
$GPGGA,100811.00,3526.1941,N,12141.1818,W,1,10,0.8,11.1,M,-31.9,M,,*61
$PYRTM,2024,124.422381562153,15.532028972292
$GPGGA,100812.00,3526.1950,N,12141.1825,W,1,10,0.8,10.4,M,-31.9,M,,*68
$PYRTM,2024,124.422392194606,15.532039604745
$GPGGA,100813.00,3526.1962,N,12141.1829,W,1,10,0.8,10.4,M,-31.9,M,,*64
$PYRTM,2024,124.422405158090,15.532052568229
$GPGGA,100814.00,3526.1971,N,12141.1834,W,1,10,0.8,10.0,M,-31.9,M,,*69
$PYRTM,2024,124.422415930058,15.532063340197
$GPGGA,100815.00,3526.1980,N,12141.1843,W,1,10,0.8,10.2,M,-31.9,M,,*64
$PYRTM,2024,124.422427047604,15.532074457755
$GPGGA,100816.00,3526.1989,N,12141.1854,W,1,10,0.8,9.8,M,-31.9,M,,*5A
$PYRTM,2024,124.422438156690,15.532085566829
$GPGGA,100817.00,3526.1999,N,12141.1864,W,1,10,0.8,10.5,M,-31.9,M,,*6C
$PYRTM,2024,124.422449267106,15.532096677245
$GPGGA,100818.00,3526.2009,N,12141.1871,W,1,10,0.8,10.3,M,-31.9,M,,*62
$PYRTM,2024,124.422463851667,15.532111261806
$GPGGA,100819.00,3526.2018,N,12141.1875,W,1,10,0.8,11.4,M,-31.9,M,,*61
$PYRTM,2024,124.422474950428,15.532122360567
$GPGGA,100820.00,3526.2027,N,12141.1880,W,1,10,0.8,11.2,M,-31.9,M,,*6B
$PYRTM,2024,124.422486068333,15.532133478472
$GPGGA,100821.00,3526.2037,N,12141.1889,W,1,10,0.8,10.3,M,-31.9,M,,*62
$PYRTM,2024,124.422497185185,15.532144595324
$GPGGA,100822.00,3526.2047,N,12141.1900,W,1,10,0.8,6.9,M,-31.9,M,,*5B
$PYRTM,2024,124.422508295961,15.532155706111
$GPGGA,100823.00,3526.2056,N,12141.1909,W,1,10,0.8,4.5,M,-31.9,M,,*5D
$PYRTM,2024,124.422519421447,15.532166831586
$GPGGA,100824.00,3526.2066,N,12141.1913,W,1,10,0.8,7.7,M,-31.9,M,,*53
$PYRTM,2024,124.422530865347,15.532178275486
$GPGGA,100825.00,3526.2076,N,12141.1916,W,1,10,0.8,8.6,M,-31.9,M,,*58
$PYRTM,2024,124.422542444618,15.532189854757
$GPGGA,100826.00,3526.2084,N,12141.1923,W,1,10,0.8,9.0,M,-31.9,M,,*57
$PYRTM,2024,124.422554014375,15.532201424514
$GPGGA,100827.00,3526.2092,N,12141.1936,W,1,10,0.8,8.7,M,-31.9,M,,*53
$PYRTM,2024,124.422565588530,15.532212998669
$GPGGA,100828.00,3526.2102,N,12141.1946,W,1,10,0.8,10.1,M,-31.9,M,,*6C
$PYRTM,2024,124.422577161539,15.532224571690
$GPGGA,100829.00,3526.2112,N,12141.1950,W,1,10,0.8,9.0,M,-31.9,M,,*52
$PYRTM,2024,124.422588736701,15.532236146840
$GPGGA,100830.00,3526.2121,N,12141.1955,W,1,10,0.8,10.4,M,-31.9,M,,*63
$PYRTM,2024,124.422600304630,15.532247714769
$GPGGA,100831.00,3526.2129,N,12141.1963,W,1,10,0.8,12.2,M,-31.9,M,,*6B
$PYRTM,2024,124.422611885231,15.532259295370
$GPGGA,100832.00,3526.2136,N,12141.1974,W,1,10,0.8,11.0,M,-31.9,M,,*61
$PYRTM,2024,124.422623454016,15.532270864155
$GPGGA,100833.00,3526.2145,N,12141.1983,W,1,10,0.8,12.1,M,-31.9,M,,*6E
$PYRTM,2024,124.422635033588,15.532282443727
$GPGGA,100834.00,3526.2157,N,12141.1990,W,1,10,0.8,12.1,M,-31.9,M,,*68
$PYRTM,2024,124.422646606505,15.532294016644
$GPGGA,100835.00,3526.2169,N,12141.1996,W,1,10,0.8,10.4,M,-31.9,M,,*65
$PYRTM,2024,124.422658184861,15.532305595000
$GPGGA,100836.00,3526.2178,N,12141.2002,W,1,10,0.8,11.6,M,-31.9,M,,*62
$PYRTM,2024,124.422669755613,15.532317165752
$GPGGA,100837.00,3526.2187,N,12141.2011,W,1,10,0.8,11.3,M,-31.9,M,,*64
