$PYRTM,2024,125.416673184699,16.526320594838
$GPGGA,095959.00,3512.5576,N,12150.2010,W,1,09,0.8,7.3,M,-32.6,M,,*58
$PYRTM,2024,125.416684296146,16.526331706285
$GPGGA,100000.00,3512.5572,N,12150.2000,W,1,09,0.8,9.8,M,-32.6,M,,*50
$PYRTM,2024,125.416695402535,16.526342812674
$GPGGA,100001.00,3512.5570,N,12150.1988,W,1,09,0.8,9.0,M,-32.6,M,,*51
$PYRTM,2024,125.416706514502,16.526353924653
$GPGGA,100002.00,3512.5567,N,12150.1978,W,1,09,0.8,7.8,M,-32.6,M,,*5D
$PYRTM,2024,125.416717643241,16.526365053391
$GPGGA,100003.00,3512.5561,N,12150.1970,W,1,09,0.8,7.9,M,-32.6,M,,*53
$PYRTM,2024,125.416728624954,16.526376035093
$GPGGA,100004.00,3512.5554,N,12150.1964,W,1,09,0.8,8.0,M,-32.6,M,,*51
$PYRTM,2024,125.416739854965,16.526387265104
$GPGGA,100005.00,3512.5547,N,12150.1958,W,1,09,0.8,8.0,M,-32.6,M,,*5D
$PYRTM,2024,125.416751415023,16.526398825162
$GPGGA,100006.00,3512.5543,N,12150.1949,W,1,09,0.8,6.7,M,-32.6,M,,*53
$PYRTM,2024,125.416762994977,16.526410405116
$GPGGA,100007.00,3512.5540,N,12150.1939,W,1,09,0.8,4.0,M,-32.6,M,,*53
$PYRTM,2024,125.416774561435,16.526421971574
$GPGGA,100008.00,3512.5536,N,12150.1931,W,1,09,0.8,3.7,M,-32.6,M,,*55
$PYRTM,2024,125.416786149491,16.526433559630
$GPGGA,100009.00,3512.5531,N,12150.1925,W,1,09,0.8,4.4,M,-32.6,M,,*52
$PYRTM,2024,125.416797709502,16.526445119641
$GPGGA,100010.00,3512.5526,N,12150.1918,W,1,09,0.8,7.2,M,-32.6,M,,*57
$PYRTM,2024,125.416809291458,16.526456701597
$GPGGA,100011.00,3512.5521,N,12150.1909,W,1,09,0.8,7.8,M,-32.6,M,,*5B
$PYRTM,2024,125.416820858750,16.526468268900
$GPGGA,100012.00,3512.5518,N,12150.1899,W,1,09,0.8,8.3,M,-32.6,M,,*5E
$PYRTM,2024,125.416832445382,16.526479855521
$GPGGA,100013.00,3512.5513,N,12150.1891,W,1,09,0.8,7.7,M,-32.6,M,,*57
$PYRTM,2024,125.416844007384,16.526491417523
$GPGGA,100014.00,3512.5507,N,12150.1883,W,1,09,0.8,8.0,M,-32.6,M,,*5E
$PYRTM,2024,125.416855598854,16.526503008993
$GPGGA,100015.00,3512.5499,N,12150.1876,W,1,09,0.8,8.3,M,-32.6,M,,*50
$PYRTM,2024,125.416867154201,16.526514564340
$GPGGA,100016.00,3512.5491,N,12150.1869,W,1,09,0.8,6.5,M,-32.6,M,,*5D
$PYRTM,2024,125.416878744259,16.526526154398
$GPGGA,100017.00,3512.5486,N,12150.1862,W,1,09,0.8,6.3,M,-32.6,M,,*57
$PYRTM,2024,125.416890302049,16.526537712188
$GPGGA,100018.00,3512.5482,N,12150.1852,W,1,09,0.8,7.8,M,-32.6,M,,*55
$PYRTM,2024,125.416901893565,16.526549303704
$GPGGA,100019.00,3512.5478,N,12150.1842,W,1,09,0.8,9.4,M,-32.6,M,,*52
$PYRTM,2024,125.416913450255,16.526560860394
$GPGGA,100020.00,3512.5474,N,12150.1833,W,1,09,0.8,7.4,M,-32.6,M,,*5C
$PYRTM,2024,125.416925037650,16.526572447789
$GPGGA,100021.00,3512.5469,N,12150.1827,W,1,09,0.8,11.6,M,-32.6,M,,*61
$PYRTM,2024,125.416936601840,16.526584011979
$GPGGA,100022.00,3512.5464,N,12150.1822,W,1,09,0.8,9.2,M,-32.6,M,,*57
$PYRTM,2024,125.416953382847,16.526600792986
$GPGGA,100023.00,3512.5458,N,12150.1817,W,1,09,0.8,6.1,M,-32.6,M,,*53
$PYRTM,2024,125.416964963715,16.526612373854
$GPGGA,100024.00,3512.5453,N,12150.1811,W,1,09,0.8,7.3,M,-32.6,M,,*5A
$PYRTM,2024,125.416976531169,16.526623941308
$GPGGA,100025.00,3512.5448,N,12150.1801,W,1,09,0.8,6.3,M,-32.6,M,,*51
$PYRTM,2024,125.416988119282,16.526635529421
$GPGGA,100026.00,3512.5444,N,12150.1791,W,1,09,0.8,7.8,M,-32.6,M,,*52
$PYRTM,2024,125.416999678194,16.526647088333
$GPGGA,100027.00,3512.5440,N,12150.1782,W,1,09,0.8,7.4,M,-32.6,M,,*59
$PYRTM,2024,125.417011278727,16.526658688866
$GPGGA,100028.00,3512.5436,N,12150.1774,W,1,09,0.8,7.6,M,-32.6,M,,*5C
$PYRTM,2024,125.417022828576,16.526670238715
$GPGGA,100029.00,3512.5430,N,12150.1767,W,1,09,0.8,6.2,M,-32.6,M,,*5C
$PYRTM,2024,125.417034413958,16.526681824097
$GPGGA,100030.00,3512.5425,N,12150.1759,W,1,09,0.8,7.6,M,-32.6,M,,*58
$PYRTM,2024,125.417045975208,16.526693385359
$GPGGA,100031.00,3512.5421,N,12150.1750,W,1,09,0.8,7.5,M,-32.6,M,,*57
$PYRTM,2024,125.417057557500,16.526704967639
$GPGGA,100032.00,3512.5415,N,12150.1742,W,1,09,0.8,7.1,M,-32.6,M,,*54
$PYRTM,2024,125.417069124549,16.526716534688
$GPGGA,100033.00,3512.5410,N,12150.1734,W,1,09,0.8,6.6,M,-32.6,M,,*57
$PYRTM,2024,125.417080709757,16.526728119896
$GPGGA,100034.00,3512.5404,N,12150.1726,W,1,09,0.8,7.5,M,-32.6,M,,*54
$PYRTM,2024,125.417092271863,16.526739682002
$GPGGA,100035.00,3512.5400,N,12150.1716,W,1,09,0.8,9.6,M,-32.6,M,,*5F
$PYRTM,2024,125.417103974213,16.526751384352
$GPGGA,100036.00,3512.5397,N,12150.1705,W,1,09,0.8,10.7,M,-32.6,M,,*6E
$PYRTM,2024,125.417115534190,16.526762944340
$GPGGA,100037.00,3512.5394,N,12150.1696,W,1,09,0.8,11.1,M,-32.6,M,,*60
$PYRTM,2024,125.417127110648,16.526774520787
$GPGGA,100038.00,3512.5388,N,12150.1689,W,1,09,0.8,10.2,M,-32.6,M,,*6E
$PYRTM,2024,125.417138568981,16.526785979120
$GPGGA,100039.00,3512.5382,N,12150.1683,W,1,09,0.8,9.7,M,-32.6,M,,*52
$PYRTM,2024,125.417150258530,16.526797668669
$GPGGA,100040.00,3512.5377,N,12150.1676,W,1,09,0.8,12.8,M,-32.6,M,,*69
$PYRTM,2024,125.417161830694,16.526809240833
$GPGGA,100041.00,3512.5373,N,12150.1666,W,1,09,0.8,11.1,M,-32.6,M,,*67
$PYRTM,2024,125.417173413657,16.526820823796
$GPGGA,100042.00,3512.5370,N,12150.1657,W,1,09,0.8,10.5,M,-32.6,M,,*60
$PYRTM,2024,125.417184978032,16.526832388171
$GPGGA,100043.00,3512.5366,N,12150.1649,W,1,09,0.8,11.0,M,-32.6,M,,*6D
$PYRTM,2024,125.417196568171,16.526843978310
$GPGGA,100044.00,3512.5359,N,12150.1642,W,1,09,0.8,10.6,M,-32.6,M,,*6A
$PYRTM,2024,125.417208013218,16.526855423356
$GPGGA,100045.00,3512.5353,N,12150.1636,W,1,09,0.8,8.7,M,-32.6,M,,*5A
$PYRTM,2024,125.417219598773,16.526867008924
$GPGGA,100046.00,3512.5348,N,12150.1628,W,1,09,0.8,8.9,M,-32.6,M,,*52
$PYRTM,2024,125.417231160706,16.526878570845
$GPGGA,100047.00,3512.5345,N,12150.1619,W,1,09,0.8,7.1,M,-32.6,M,,*5B
$PYRTM,2024,125.417242747766,16.526890157905
$GPGGA,100048.00,3512.5344,N,12150.1609,W,1,09,0.8,7.8,M,-32.6,M,,*5D
$PYRTM,2024,125.417254307697,16.526901717836
$GPGGA,100049.00,3512.5341,N,12150.1602,W,1,09,0.8,7.6,M,-32.6,M,,*5C
$PYRTM,2024,125.417265890544,16.526913300683
$GPGGA,100050.00,3512.5334,N,12150.1596,W,1,09,0.8,8.7,M,-32.6,M,,*56
$PYRTM,2024,125.417277457546,16.526924867685
$GPGGA,100051.00,3512.5328,N,12150.1590,W,1,09,0.8,7.8,M,-32.6,M,,*5C
$PYRTM,2024,125.417289043912,16.526936454051
$GPGGA,100052.00,3512.5324,N,12150.1581,W,1,09,0.8,5.1,M,-32.6,M,,*58
$PYRTM,2024,125.417299340150,16.526946750289
$GPGGA,100053.00,3512.5321,N,12150.1571,W,1,09,0.8,8.2,M,-32.6,M,,*5D
$PYRTM,2024,125.417311600764,16.526959010903
$GPGGA,100054.00,3512.5317,N,12150.1562,W,1,09,0.8,8.2,M,-32.6,M,,*5D
$PYRTM,2024,125.417323753148,16.526971163287
$GPGGA,100055.00,3512.5311,N,12150.1555,W,1,09,0.8,6.4,M,-32.6,M,,*56
$PYRTM,2024,125.417335344525,16.526982754664
$GPGGA,100056.00,3512.5304,N,12150.1549,W,1,09,0.8,6.7,M,-32.6,M,,*5F
$PYRTM,2024,125.417346903206,16.526994313345
$GPGGA,100057.00,3512.5300,N,12150.1542,W,1,09,0.8,5.3,M,-32.6,M,,*56
$PYRTM,2024,125.417358488681,16.527005898819
$GPGGA,100058.00,3512.5298,N,12150.1532,W,1,09,0.8,6.1,M,-32.6,M,,*5F
$PYRTM,2024,125.417370050544,16.527017460683
$GPGGA,100059.00,3512.5296,N,12150.1522,W,1,09,0.8,6.6,M,-32.6,M,,*56
$PYRTM,2024,125.417381632350,16.527029042488
$GPGGA,100100.00,3512.5291,N,12150.1512,W,1,09,0.8,6.0,M,-32.6,M,,*59
$PYRTM,2024,125.417393200706,16.527040610845
$GPGGA,100101.00,3512.5285,N,12150.1505,W,1,09,0.8,5.9,M,-32.6,M,,*51
$PYRTM,2024,125.417404789861,16.527052200000
$GPGGA,100102.00,3512.5279,N,12150.1498,W,1,09,0.8,5.6,M,-32.6,M,,*5B
$PYRTM,2024,125.417416347292,16.527063757431
$GPGGA,100103.00,3512.5274,N,12150.1491,W,1,09,0.8,8.9,M,-32.6,M,,*5C
$PYRTM,2024,125.417428037199,16.527075447338
$GPGGA,100104.00,3512.5270,N,12150.1483,W,1,09,0.8,10.5,M,-32.6,M,,*69
$PYRTM,2024,125.417439610509,16.527087020648
$GPGGA,100105.00,3512.5265,N,12150.1474,W,1,09,0.8,10.4,M,-32.6,M,,*65
$PYRTM,2024,125.417451085069,16.527098495220
$GPGGA,100106.00,3512.5260,N,12150.1466,W,1,09,0.8,7.9,M,-32.6,M,,*5B
$PYRTM,2024,125.417462645174,16.527110055313
$GPGGA,100107.00,3512.5257,N,12150.1458,W,1,09,0.8,6.6,M,-32.6,M,,*5D
$PYRTM,2024,125.417474244329,16.527121654468
$GPGGA,100108.00,3512.5255,N,12150.1450,W,1,09,0.8,6.3,M,-32.6,M,,*5D
$PYRTM,2024,125.417485794815,16.527133204954
$GPGGA,100109.00,3512.5249,N,12150.1442,W,1,09,0.8,5.0,M,-32.6,M,,*52
$PYRTM,2024,125.417497381343,16.527144791481
$GPGGA,100110.00,3512.5243,N,12150.1435,W,1,09,0.8,6.3,M,-32.6,M,,*50
$PYRTM,2024,125.417508940602,16.527156350741
$GPGGA,100111.00,3512.5237,N,12150.1428,W,1,09,0.8,7.8,M,-32.6,M,,*54
$PYRTM,2024,125.417520526863,16.527167937002
$GPGGA,100112.00,3512.5234,N,12150.1418,W,1,09,0.8,9.0,M,-32.6,M,,*51
$PYRTM,2024,125.417532091007,16.527179501146
$GPGGA,100113.00,3512.5231,N,12150.1407,W,1,09,0.8,7.3,M,-32.6,M,,*56
$PYRTM,2024,125.417543675961,16.527191086100
$GPGGA,100114.00,3512.5226,N,12150.1397,W,1,09,0.8,7.4,M,-32.6,M,,*5E
$PYRTM,2024,125.417555236806,16.527202646944
$GPGGA,100115.00,3512.5220,N,12150.1392,W,1,09,0.8,8.5,M,-32.6,M,,*52
$PYRTM,2024,125.417566825162,16.527214235312
$GPGGA,100116.00,3512.5213,N,12150.1387,W,1,09,0.8,7.3,M,-32.6,M,,*5C
$PYRTM,2024,125.417578498299,16.527225908438
$GPGGA,100117.00,3512.5207,N,12150.1381,W,1,09,0.8,10.2,M,-32.6,M,,*69
$PYRTM,2024,125.417589972813,16.527237382951
$GPGGA,100118.00,3512.5203,N,12150.1371,W,1,09,0.8,9.5,M,-32.6,M,,*52
$PYRTM,2024,125.417601532373,16.527248942512
$GPGGA,100119.00,3512.5200,N,12150.1360,W,1,09,0.8,9.8,M,-32.6,M,,*5D
$PYRTM,2024,125.417613235301,16.527260645440
$GPGGA,100120.00,3512.5196,N,12150.1351,W,1,09,0.8,10.7,M,-32.6,M,,*6E
$PYRTM,2024,125.417624682315,16.527272092454
$GPGGA,100121.00,3512.5191,N,12150.1344,W,1,09,0.8,8.8,M,-32.6,M,,*5A
$PYRTM,2024,125.417636271748,16.527283681887
$GPGGA,100122.00,3512.5185,N,12150.1337,W,1,09,0.8,9.0,M,-32.6,M,,*51
$PYRTM,2024,125.417646569248,16.527293979387
$GPGGA,100123.00,3512.5181,N,12150.1330,W,1,09,0.8,10.0,M,-32.6,M,,*6B
$PYRTM,2024,125.417658824676,16.527306234826
$GPGGA,100124.00,3512.5179,N,12150.1320,W,1,09,0.8,7.4,M,-32.6,M,,*58
$PYRTM,2024,125.417670978507,16.527318388646
$GPGGA,100125.00,3512.5176,N,12150.1311,W,1,09,0.8,4.7,M,-32.6,M,,*54
$PYRTM,2024,125.417682559711,16.527329969850
$GPGGA,100126.00,3512.5173,N,12150.1303,W,1,09,0.8,7.2,M,-32.6,M,,*57
$PYRTM,2024,125.417694127859,16.527341538009
$GPGGA,100127.00,3512.5169,N,12150.1297,W,1,09,0.8,7.6,M,-32.6,M,,*55
$PYRTM,2024,125.417705708206,16.527353118345
$GPGGA,100128.00,3512.5164,N,12150.1289,W,1,09,0.8,8.4,M,-32.6,M,,*55
$PYRTM,2024,125.417717275475,16.527364685613
$GPGGA,100129.00,3512.5157,N,12150.1281,W,1,09,0.8,9.1,M,-32.6,M,,*58
$PYRTM,2024,125.417728856782,16.527376266921
$GPGGA,100130.00,3512.5152,N,12150.1271,W,1,09,0.8,6.4,M,-32.6,M,,*50
$PYRTM,2024,125.417740422014,16.527387832153
$GPGGA,100131.00,3512.5149,N,12150.1263,W,1,09,0.8,6.6,M,-32.6,M,,*5A
$PYRTM,2024,125.417752126655,16.527399536794
$GPGGA,100132.00,3512.5146,N,12150.1255,W,1,09,0.8,10.0,M,-32.6,M,,*62
$PYRTM,2024,125.417763571470,16.527410981609
$GPGGA,100133.00,3512.5141,N,12150.1249,W,1,09,0.8,9.2,M,-32.6,M,,*53
$PYRTM,2024,125.417775158900,16.527422569039
$GPGGA,100134.00,3512.5135,N,12150.1242,W,1,09,0.8,7.4,M,-32.6,M,,*54
$PYRTM,2024,125.417786719514,16.527434129653
$GPGGA,100135.00,3512.5130,N,12150.1234,W,1,09,0.8,7.6,M,-32.6,M,,*53
$PYRTM,2024,125.417798310220,16.527445720359
$GPGGA,100136.00,3512.5126,N,12150.1224,W,1,10,0.8,7.0,M,-32.6,M,,*58
$PYRTM,2024,125.417809867685,16.527457277824
$GPGGA,100137.00,3512.5125,N,12150.1214,W,1,10,0.8,8.0,M,-32.6,M,,*56
$PYRTM,2024,125.417821573553,16.527468983692
$GPGGA,100138.00,3512.5121,N,12150.1205,W,1,10,0.8,11.5,M,-32.6,M,,*60
$PYRTM,2024,125.417833130359,16.527480540498
$GPGGA,100139.00,3512.5114,N,12150.1197,W,1,10,0.8,10.1,M,-32.6,M,,*6A
$PYRTM,2024,125.417844718414,16.527492128553
$GPGGA,100140.00,3512.5106,N,12150.1191,W,1,10,0.8,10.9,M,-32.6,M,,*69
$PYRTM,2024,125.417856164468,16.527503574606
$GPGGA,100141.00,3512.5099,N,12150.1183,W,1,10,0.8,7.6,M,-32.6,M,,*55
$PYRTM,2024,125.417867750845,16.527515160984
$GPGGA,100142.00,3512.5096,N,12150.1173,W,1,10,0.8,8.4,M,-32.6,M,,*5B
$PYRTM,2024,125.417879311968,16.527526722106
$GPGGA,100143.00,3512.5096,N,12150.1162,W,1,10,0.8,7.4,M,-32.6,M,,*55
$PYRTM,2024,125.417890894167,16.527538304306
$GPGGA,100144.00,3512.5094,N,12150.1154,W,1,10,0.8,9.7,M,-32.6,M,,*58
$PYRTM,2024,125.417902460926,16.527549871065
$GPGGA,100145.00,3512.5087,N,12150.1147,W,1,10,0.8,6.4,M,-32.6,M,,*55
$PYRTM,2024,125.417914049433,16.527561459572
$GPGGA,100146.00,3512.5080,N,12150.1141,W,1,10,0.8,8.8,M,-32.6,M,,*55
$PYRTM,2024,125.417925609815,16.527573019954
$GPGGA,100147.00,3512.5074,N,12150.1132,W,1,10,0.8,8.6,M,-32.6,M,,*55
$PYRTM,2024,125.417937195752,16.527584605891
$GPGGA,100148.00,3512.5071,N,12150.1122,W,1,10,0.8,7.0,M,-32.6,M,,*57
$PYRTM,2024,125.417948756204,16.527596166343
$GPGGA,100149.00,3512.5068,N,12150.1111,W,1,10,0.8,8.0,M,-32.6,M,,*51
$PYRTM,2024,125.417960357813,16.527607767951
$GPGGA,100150.00,3512.5063,N,12150.1103,W,1,10,0.8,8.2,M,-32.6,M,,*53
$PYRTM,2024,125.417971905440,16.527619315579
$GPGGA,100151.00,3512.5057,N,12150.1098,W,1,10,0.8,8.6,M,-32.6,M,,*52
$PYRTM,2024,125.417983498438,16.527630908576
$GPGGA,100152.00,3512.5052,N,12150.1093,W,1,10,0.8,6.9,M,-32.6,M,,*5E
$PYRTM,2024,125.417993789792,16.527641199931
$GPGGA,100153.00,3512.5048,N,12150.1086,W,1,10,0.8,6.3,M,-32.6,M,,*5A
$PYRTM,2024,125.418006056794,16.527653466933
$GPGGA,100154.00,3512.5044,N,12150.1076,W,1,10,0.8,6.5,M,-32.6,M,,*58
$PYRTM,2024,125.418018202836,16.527665612975
$GPGGA,100155.00,3512.5041,N,12150.1065,W,1,10,0.8,7.6,M,-32.6,M,,*5C
$PYRTM,2024,125.418029791968,16.527677202106
$GPGGA,100156.00,3512.5036,N,12150.1055,W,1,10,0.8,9.0,M,-32.6,M,,*54
$PYRTM,2024,125.418041350556,16.527688760694
$GPGGA,100157.00,3512.5028,N,12150.1049,W,1,10,0.8,8.8,M,-32.6,M,,*5E
$PYRTM,2024,125.418053054884,16.527700465023
$GPGGA,100158.00,3512.5021,N,12150.1043,W,1,10,0.8,10.9,M,-32.6,M,,*6A
$PYRTM,2024,125.418063573449,16.527710983588
$GPGGA,100159.00,3512.5017,N,12150.1035,W,1,10,0.8,9.9,M,-32.6,M,,*57
$PYRTM,2024,125.418075505868,16.527722916007
$GPGGA,100200.00,3512.5014,N,12150.1024,W,1,10,0.8,9.6,M,-32.6,M,,*54
$PYRTM,2024,125.418086270567,16.527733680706
$GPGGA,100201.00,3512.5010,N,12150.1015,W,1,10,0.8,10.9,M,-32.6,M,,*64
$PYRTM,2024,125.418097381875,16.527744792014
$GPGGA,100202.00,3512.5005,N,12150.1009,W,1,10,0.8,9.9,M,-32.6,M,,*56
$PYRTM,2024,125.418108491852,16.527755901991
$GPGGA,100203.00,3512.4998,N,12150.1006,W,1,10,0.8,7.5,M,-32.6,M,,*56
$PYRTM,2024,125.418119608472,16.527767018611
$GPGGA,100204.00,3512.4991,N,12150.1002,W,1,10,0.8,5.3,M,-32.6,M,,*58
$PYRTM,2024,125.418130603530,16.527778013669
$GPGGA,100205.00,3512.4987,N,12150.0992,W,1,10,0.8,4.5,M,-32.6,M,,*58
$PYRTM,2024,125.418141710694,16.527789120833
$GPGGA,100206.00,3512.4985,N,12150.0979,W,1,10,0.8,5.3,M,-32.6,M,,*5B
$PYRTM,2024,125.418152822407,16.527800232546
$GPGGA,100207.00,3512.4981,N,12150.0970,W,1,10,0.8,7.9,M,-32.6,M,,*5F
$PYRTM,2024,125.418163933646,16.527811343785
$GPGGA,100208.00,3512.4974,N,12150.0965,W,1,10,0.8,8.1,M,-32.6,M,,*59
$PYRTM,2024,125.418175046875,16.527822457014
$GPGGA,100209.00,3512.4966,N,12150.0960,W,1,10,0.8,9.0,M,-32.6,M,,*5E
$PYRTM,2024,125.418186618785,16.527834028924
$GPGGA,100210.00,3512.4962,N,12150.0952,W,1,10,0.8,9.3,M,-32.6,M,,*50
$PYRTM,2024,125.418198208067,16.527845618206
$GPGGA,100211.00,3512.4960,N,12150.0941,W,1,10,0.8,7.9,M,-32.6,M,,*55
$PYRTM,2024,125.418209766539,16.527857176678
$GPGGA,100212.00,3512.4957,N,12150.0931,W,1,10,0.8,9.3,M,-32.6,M,,*51
$PYRTM,2024,125.418221342106,16.527868752245
$GPGGA,100213.00,3512.4951,N,12150.0926,W,1,10,0.8,10.9,M,-32.6,M,,*62
$PYRTM,2024,125.418232914977,16.527880325116
$GPGGA,100214.00,3512.4943,N,12150.0921,W,1,10,0.8,8.7,M,-32.6,M,,*56
$PYRTM,2024,125.418244489282,16.527891899433
$GPGGA,100215.00,3512.4938,N,12150.0915,W,1,10,0.8,8.0,M,-32.6,M,,*5B
$PYRTM,2024,125.418256064618,16.527903474757
$GPGGA,100216.00,3512.4936,N,12150.0903,W,1,10,0.8,10.6,M,-32.6,M,,*6E
$PYRTM,2024,125.418267638113,16.527915048252
$GPGGA,100217.00,3512.4935,N,12150.0892,W,1,10,0.8,13.2,M,-32.6,M,,*62
$PYRTM,2024,125.418279210868,16.527926621007
$GPGGA,100218.00,3512.4930,N,12150.0886,W,1,10,0.8,12.4,M,-32.6,M,,*6A
$PYRTM,2024,125.418290787130,16.527938197280
$GPGGA,100219.00,3512.4921,N,12150.0883,W,1,10,0.8,11.3,M,-32.6,M,,*6A
$PYRTM,2024,125.418302360046,16.527949770197
$GPGGA,100220.00,3512.4914,N,12150.0876,W,1,10,0.8,8.8,M,-32.6,M,,*5F
$PYRTM,2024,125.418313938218,16.527961348356
$GPGGA,100221.00,3512.4911,N,12150.0865,W,1,10,0.8,8.4,M,-32.6,M,,*55
$PYRTM,2024,125.418325510116,16.527972920255
$GPGGA,100222.00,3512.4910,N,12150.0853,W,1,10,0.8,8.8,M,-32.6,M,,*5E
$PYRTM,2024,125.418342397431,16.527989807569
$GPGGA,100223.00,3512.4906,N,12150.0845,W,1,10,0.8,10.3,M,-32.6,M,,*6D
$PYRTM,2024,125.418353983843,16.528001393981
$GPGGA,100224.00,3512.4898,N,12150.0840,W,1,10,0.8,12.4,M,-32.6,M,,*6C
$PYRTM,2024,125.418365541817,16.528012951956
$GPGGA,100225.00,3512.4890,N,12150.0835,W,1,10,0.8,11.5,M,-32.6,M,,*65
$PYRTM,2024,125.418377128021,16.528024538160
$GPGGA,100226.00,3512.4886,N,12150.0826,W,1,10,0.8,10.2,M,-32.6,M,,*65
$PYRTM,2024,125.418388573981,16.528035984120
$GPGGA,100227.00,3512.4885,N,12150.0815,W,1,10,0.8,7.9,M,-32.6,M,,*5A
$PYRTM,2024,125.418400272917,16.528047683056
$GPGGA,100228.00,3512.4882,N,12150.0807,W,1,10,0.8,10.4,M,-32.6,M,,*6A
$PYRTM,2024,125.418411724711,16.528059134850
$GPGGA,100229.00,3512.4875,N,12150.0803,W,1,10,0.8,9.8,M,-32.6,M,,*53
$PYRTM,2024,125.418423310035,16.528070720174
$GPGGA,100230.00,3512.4867,N,12150.0798,W,1,10,0.8,8.0,M,-32.6,M,,*5C
$PYRTM,2024,125.418434870625,16.528082280764
$GPGGA,100231.00,3512.4864,N,12150.0790,W,1,10,0.8,9.4,M,-32.6,M,,*53
$PYRTM,2024,125.418446575949,16.528093986088
$GPGGA,100232.00,3512.4863,N,12150.0778,W,1,10,0.8,10.6,M,-32.6,M,,*6B
$PYRTM,2024,125.418458136806,16.528105546944
$GPGGA,100233.00,3512.4861,N,12150.0768,W,1,10,0.8,13.5,M,-32.6,M,,*69
$PYRTM,2024,125.418469724514,16.528117134653
$GPGGA,100234.00,3512.4854,N,12150.0763,W,1,10,0.8,10.2,M,-32.6,M,,*67
$PYRTM,2024,125.418481167431,16.528128577569
$GPGGA,100235.00,3512.4846,N,12150.0758,W,1,10,0.8,8.2,M,-32.6,M,,*54
$PYRTM,2024,125.418492873252,16.528140283391
$GPGGA,100236.00,3512.4841,N,12150.0752,W,1,10,0.8,10.1,M,-32.6,M,,*60
$PYRTM,2024,125.418504315914,16.528151726053
$GPGGA,100237.00,3512.4839,N,12150.0742,W,1,10,0.8,9.7,M,-32.6,M,,*51
$PYRTM,2024,125.418515903727,16.528163313866
$GPGGA,100238.00,3512.4837,N,12150.0732,W,1,10,0.8,8.3,M,-32.6,M,,*52
$PYRTM,2024,125.418527465000,16.528174875139
$GPGGA,100239.00,3512.4834,N,12150.0724,W,1,10,0.8,8.0,M,-32.6,M,,*54
$PYRTM,2024,125.418539047697,16.528186457836
$GPGGA,100240.00,3512.4828,N,12150.0718,W,1,10,0.8,9.3,M,-32.6,M,,*5A
$PYRTM,2024,125.418550611470,16.528198021609
$GPGGA,100241.00,3512.4821,N,12150.0711,W,1,10,0.8,6.8,M,-32.6,M,,*5F
$PYRTM,2024,125.418562201725,16.528209611875
$GPGGA,100242.00,3512.4814,N,12150.0703,W,1,10,0.8,8.8,M,-32.6,M,,*57
$PYRTM,2024,125.418573761215,16.528221171354
$GPGGA,100243.00,3512.4809,N,12150.0694,W,1,10,0.8,7.4,M,-32.6,M,,*56
$PYRTM,2024,125.418585346562,16.528232756701
$GPGGA,100244.00,3512.4806,N,12150.0683,W,1,10,0.8,8.4,M,-32.6,M,,*57
$PYRTM,2024,125.418596908530,16.528244318669
$GPGGA,100245.00,3512.4803,N,12150.0674,W,1,10,0.8,9.2,M,-32.6,M,,*5C
$PYRTM,2024,125.418608614560,16.528256024711
$GPGGA,100246.00,3512.4797,N,12150.0667,W,1,10,0.8,10.6,M,-32.6,M,,*63
$PYRTM,2024,125.418620171794,16.528267581933
$GPGGA,100247.00,3512.4791,N,12150.0661,W,1,10,0.8,10.5,M,-32.6,M,,*61
$PYRTM,2024,125.418631647442,16.528279057581
$GPGGA,100248.00,3512.4786,N,12150.0652,W,1,10,0.8,7.6,M,-32.6,M,,*5D
$PYRTM,2024,125.418643203993,16.528290614132
$GPGGA,100249.00,3512.4783,N,12150.0642,W,1,10,0.8,5.2,M,-32.6,M,,*5E
$PYRTM,2024,125.418654798889,16.528302209028
$GPGGA,100250.00,3512.4778,N,12150.0634,W,1,10,0.8,7.0,M,-32.6,M,,*53
$PYRTM,2024,125.418666353900,16.528313764039
$GPGGA,100251.00,3512.4771,N,12150.0629,W,1,10,0.8,7.3,M,-32.6,M,,*54
$PYRTM,2024,125.418677942917,16.528325353067
$GPGGA,100252.00,3512.4764,N,12150.0624,W,1,10,0.8,7.9,M,-32.6,M,,*54
$PYRTM,2024,125.418688256563,16.528335666701
$GPGGA,100253.00,3512.4758,N,12150.0616,W,1,10,0.8,8.5,M,-32.6,M,,*58
$PYRTM,2024,125.418700504687,16.528347914826
$GPGGA,100254.00,3512.4755,N,12150.0605,W,1,10,0.8,8.8,M,-32.6,M,,*5D
$PYRTM,2024,125.418712650856,16.528360061007
$GPGGA,100255.00,3512.4753,N,12150.0592,W,1,10,0.8,6.3,M,-32.6,M,,*52
$PYRTM,2024,125.418724235463,16.528371645613
$GPGGA,100256.00,3512.4749,N,12150.0584,W,1,10,0.8,5.2,M,-32.6,M,,*5F
$PYRTM,2024,125.418735798125,16.528383208264
$GPGGA,100257.00,3512.4741,N,12150.0580,W,1,10,0.8,5.2,M,-32.6,M,,*52
$PYRTM,2024,125.418747386123,16.528394796262
$GPGGA,100258.00,3512.4734,N,12150.0577,W,1,10,0.8,9.3,M,-32.6,M,,*5A
$PYRTM,2024,125.418758949155,16.528406359294
$GPGGA,100259.00,3512.4730,N,12150.0568,W,1,10,0.8,7.7,M,-32.6,M,,*5B
$PYRTM,2024,125.418770528785,16.528417938935
$GPGGA,100300.00,3512.4730,N,12150.0556,W,1,10,0.8,7.8,M,-32.6,M,,*54
$PYRTM,2024,125.418782094132,16.528429504271
$GPGGA,100301.00,3512.4728,N,12150.0545,W,1,10,0.8,4.8,M,-32.6,M,,*5D
$PYRTM,2024,125.418793685313,16.528441095451
$GPGGA,100302.00,3512.4720,N,12150.0539,W,1,10,0.8,4.6,M,-32.6,M,,*53
$PYRTM,2024,125.418804215741,16.528451625880
$GPGGA,100303.00,3512.4711,N,12150.0534,W,1,10,0.8,6.7,M,-32.6,M,,*5E
$PYRTM,2024,125.418816834398,16.528464244537
$GPGGA,100304.00,3512.4705,N,12150.0526,W,1,10,0.8,6.2,M,-32.6,M,,*5A
$PYRTM,2024,125.418828392616,16.528475802755
$GPGGA,100305.00,3512.4702,N,12150.0515,W,1,10,0.8,6.3,M,-32.6,M,,*5D
$PYRTM,2024,125.418839973877,16.528487384016
$GPGGA,100306.00,3512.4700,N,12150.0505,W,1,10,0.8,8.6,M,-32.6,M,,*56
$PYRTM,2024,125.418851539653,16.528498949792
$GPGGA,100307.00,3512.4693,N,12150.0499,W,1,10,0.8,9.5,M,-32.6,M,,*5A
$PYRTM,2024,125.418863121748,16.528510531898
$GPGGA,100308.00,3512.4684,N,12150.0496,W,1,10,0.8,8.7,M,-32.6,M,,*5F
$PYRTM,2024,125.418874803565,16.528522213704
$GPGGA,100309.00,3512.4677,N,12150.0489,W,1,10,0.8,11.2,M,-32.6,M,,*61
$PYRTM,2024,125.418886391678,16.528533801817
$GPGGA,100310.00,3512.4674,N,12150.0479,W,1,10,0.8,12.1,M,-32.6,M,,*65
$PYRTM,2024,125.418897952870,16.528545363009
$GPGGA,100311.00,3512.4672,N,12150.0468,W,1,10,0.8,11.2,M,-32.6,M,,*62
$PYRTM,2024,125.418909539074,16.528556949213
$GPGGA,100312.00,3512.4669,N,12150.0459,W,1,10,0.8,11.1,M,-32.6,M,,*6A
$PYRTM,2024,125.418921100683,16.528568510822
$GPGGA,100313.00,3512.4662,N,12150.0453,W,1,10,0.8,12.1,M,-32.6,M,,*69
$PYRTM,2024,125.418932690741,16.528580100891
$GPGGA,100314.00,3512.4654,N,12150.0449,W,1,10,0.8,11.6,M,-32.6,M,,*64
$PYRTM,2024,125.418944136887,16.528591547025
$GPGGA,100315.00,3512.4648,N,12150.0443,W,1,10,0.8,9.8,M,-32.6,M,,*55
$PYRTM,2024,125.418955723137,16.528603133287
$GPGGA,100316.00,3512.4644,N,12150.0435,W,1,10,0.8,7.7,M,-32.6,M,,*5A
$PYRTM,2024,125.418967281157,16.528614691296
$GPGGA,100317.00,3512.4641,N,12150.0428,W,1,10,0.8,6.6,M,-32.6,M,,*52
$PYRTM,2024,125.418978863808,16.528626273947
$GPGGA,100318.00,3512.4636,N,12150.0421,W,1,10,0.8,6.6,M,-32.6,M,,*54
$PYRTM,2024,125.418990429016,16.528637839155
$GPGGA,100319.00,3512.4630,N,12150.0414,W,1,10,0.8,6.5,M,-32.6,M,,*56
$PYRTM,2024,125.419002017431,16.528649427569
$GPGGA,100320.00,3512.4626,N,12150.0406,W,1,10,0.8,8.9,M,-32.6,M,,*5A
$PYRTM,2024,125.419013577303,16.528660987442
$GPGGA,100321.00,3512.4623,N,12150.0396,W,1,10,0.8,6.3,M,-32.6,M,,*54
$PYRTM,2024,125.419025160000,16.528672570139
$GPGGA,100322.00,3512.4620,N,12150.0387,W,1,10,0.8,7.3,M,-32.6,M,,*55
$PYRTM,2024,125.419035468692,16.528682878843
$GPGGA,100323.00,3512.4614,N,12150.0379,W,1,10,0.8,7.5,M,-32.6,M,,*54
$PYRTM,2024,125.419047729525,16.528695139664
$GPGGA,100324.00,3512.4608,N,12150.0373,W,1,10,0.8,8.9,M,-32.6,M,,*57
$PYRTM,2024,125.419059875544,16.528707285694
$GPGGA,100325.00,3512.4604,N,12150.0367,W,1,10,0.8,7.9,M,-32.6,M,,*50
$PYRTM,2024,125.419071464016,16.528718874167
$GPGGA,100326.00,3512.4600,N,12150.0358,W,1,10,0.8,6.3,M,-32.6,M,,*50
$PYRTM,2024,125.419083024456,16.528730434595
$GPGGA,100327.00,3512.4597,N,12150.0347,W,1,10,0.8,4.8,M,-32.6,M,,*5B
$PYRTM,2024,125.419094609815,16.528742019954
$GPGGA,100328.00,3512.4593,N,12150.0336,W,1,10,0.8,6.5,M,-32.6,M,,*59
$PYRTM,2024,125.419106171516,16.528753581655
$GPGGA,100329.00,3512.4588,N,12150.0328,W,1,10,0.8,4.5,M,-32.6,M,,*5F
$PYRTM,2024,125.419117761157,16.528765171296
$GPGGA,100330.00,3512.4584,N,12150.0321,W,1,10,0.8,5.9,M,-32.6,M,,*5F
$PYRTM,2024,125.419129318958,16.528776729097
$GPGGA,100331.00,3512.4579,N,12150.0314,W,1,10,0.8,5.9,M,-32.6,M,,*5A
$PYRTM,2024,125.419140920914,16.528788331053
$GPGGA,100332.00,3512.4572,N,12150.0305,W,1,10,0.8,5.8,M,-32.6,M,,*53
$PYRTM,2024,125.419152482095,16.528799892234
$GPGGA,100333.00,3512.4568,N,12150.0297,W,1,10,0.8,5.2,M,-32.6,M,,*59
$PYRTM,2024,125.419164054225,16.528811464363
$GPGGA,100334.00,3512.4565,N,12150.0288,W,1,10,0.8,4.5,M,-32.6,M,,*5B
$PYRTM,2024,125.419175624780,16.528823034919
$GPGGA,100335.00,3512.4561,N,12150.0280,W,1,10,0.8,5.2,M,-32.6,M,,*50
$PYRTM,2024,125.419187202905,16.528834613044
$GPGGA,100336.00,3512.4555,N,12150.0272,W,1,10,0.8,6.9,M,-32.6,M,,*51
$PYRTM,2024,125.419198881424,16.528846291562
$GPGGA,100337.00,3512.4550,N,12150.0266,W,1,10,0.8,10.2,M,-32.6,M,,*6C
$PYRTM,2024,125.419210455093,16.528857865231
$GPGGA,100338.00,3512.4546,N,12150.0259,W,1,10,0.8,11.3,M,-32.6,M,,*68
$PYRTM,2024,125.419221920289,16.528869330428
$GPGGA,100339.00,3512.4542,N,12150.0250,W,1,10,0.8,9.1,M,-32.6,M,,*5F
$PYRTM,2024,125.419233499248,16.528880909387
$GPGGA,100340.00,3512.4538,N,12150.0239,W,1,10,0.8,9.1,M,-32.6,M,,*53
$PYRTM,2024,125.419245071933,16.528892482072
$GPGGA,100341.00,3512.4533,N,12150.0229,W,1,10,0.8,9.1,M,-32.6,M,,*58
$PYRTM,2024,125.419256660914,16.528904071053
$GPGGA,100342.00,3512.4527,N,12150.0222,W,1,10,0.8,7.9,M,-32.6,M,,*53
$PYRTM,2024,125.419268221400,16.528915631539
$GPGGA,100343.00,3512.4522,N,12150.0215,W,1,10,0.8,8.2,M,-32.6,M,,*57
$PYRTM,2024,125.419279913495,16.528927323634
$GPGGA,100344.00,3512.4518,N,12150.0208,W,1,10,0.8,11.8,M,-32.6,M,,*67
$PYRTM,2024,125.419291472303,16.528938882442
$GPGGA,100345.00,3512.4514,N,12150.0199,W,1,10,0.8,12.3,M,-32.6,M,,*69
$PYRTM,2024,125.419303073889,16.528950484028
$GPGGA,100346.00,3512.4510,N,12150.0189,W,1,10,0.8,11.1,M,-32.6,M,,*6E
$PYRTM,2024,125.419314519016,16.528961929155
$GPGGA,100347.00,3512.4505,N,12150.0181,W,1,10,0.8,9.3,M,-32.6,M,,*58
$PYRTM,2024,125.419326090694,16.528973500833
$GPGGA,100348.00,3512.4499,N,12150.0175,W,1,10,0.8,9.5,M,-32.6,M,,*5E
$PYRTM,2024,125.419337667153,16.528985077292
$GPGGA,100349.00,3512.4495,N,12150.0168,W,1,10,0.8,8.4,M,-32.6,M,,*5F
$PYRTM,2024,125.419349354664,16.528996764803
$GPGGA,100350.00,3512.4491,N,12150.0159,W,1,10,0.8,11.3,M,-32.6,M,,*6E
$PYRTM,2024,125.419360917488,16.529008327627
$GPGGA,100351.00,3512.4487,N,12150.0151,W,1,10,0.8,12.0,M,-32.6,M,,*60
$PYRTM,2024,125.419372504954,16.529019915093
$GPGGA,100352.00,3512.4480,N,12150.0142,W,1,10,0.8,10.5,M,-32.6,M,,*61
$PYRTM,2024,125.419382692234,16.529030102373
$GPGGA,100353.00,3512.4474,N,12150.0133,W,1,10,0.8,9.3,M,-32.6,M,,*53
$PYRTM,2024,125.419394957512,16.529042367650
$GPGGA,100354.00,3512.4470,N,12150.0124,W,1,10,0.8,7.3,M,-32.6,M,,*58
$PYRTM,2024,125.419407110104,16.529054520243
$GPGGA,100355.00,3512.4467,N,12150.0115,W,1,10,0.8,6.2,M,-32.6,M,,*5D
$PYRTM,2024,125.419418684942,16.529066095093
$GPGGA,100356.00,3512.4462,N,12150.0108,W,1,10,0.8,6.5,M,-32.6,M,,*50
$PYRTM,2024,125.419430258611,16.529077668750
$GPGGA,100357.00,3512.4454,N,12150.0103,W,1,10,0.8,8.4,M,-32.6,M,,*50
$PYRTM,2024,125.419441838044,16.529089248183
$GPGGA,100358.00,3512.4450,N,12150.0094,W,1,10,0.8,8.2,M,-32.6,M,,*52
$PYRTM,2024,125.419453407141,16.529100817292
$GPGGA,100359.00,3512.4448,N,12150.0083,W,1,10,0.8,8.6,M,-32.6,M,,*58
$PYRTM,2024,125.419464984062,16.529112394201
$GPGGA,100400.00,3512.4446,N,12150.0073,W,1,10,0.8,9.9,M,-32.6,M,,*5C
$PYRTM,2024,125.419476556285,16.529123966424
$GPGGA,100401.00,3512.4439,N,12150.0066,W,1,10,0.8,10.5,M,-32.6,M,,*65
$PYRTM,2024,125.419488244456,16.529135654595
$GPGGA,100402.00,3512.4430,N,12150.0062,W,1,10,0.8,12.2,M,-32.6,M,,*6E
$PYRTM,2024,125.419499806296,16.529147216435
$GPGGA,100403.00,3512.4423,N,12150.0056,W,1,10,0.8,12.8,M,-32.6,M,,*60
$PYRTM,2024,125.419510468437,16.529157878576
$GPGGA,100404.00,3512.4419,N,12150.0045,W,1,10,0.8,10.7,M,-32.6,M,,*61
$PYRTM,2024,125.419522392801,16.529169802940
$GPGGA,100405.00,3512.4417,N,12150.0034,W,1,10,0.8,10.8,M,-32.6,M,,*67
$PYRTM,2024,125.419531185613,16.529178595752
$GPGGA,100406.00,3512.4413,N,12150.0025,W,1,10,0.8,9.9,M,-32.6,M,,*59
$PYRTM,2024,125.419548778171,16.529196188310
$GPGGA,100407.00,3512.4406,N,12150.0019,W,1,10,0.8,9.3,M,-32.6,M,,*59
$PYRTM,2024,125.419559874722,16.529207284861
$GPGGA,100408.00,3512.4398,N,12150.0013,W,1,10,0.8,10.4,M,-32.6,M,,*63
$PYRTM,2024,125.419571000486,16.529218410625
$GPGGA,100409.00,3512.4395,N,12150.0004,W,1,10,0.8,10.7,M,-32.6,M,,*6A
$PYRTM,2024,125.419582099167,16.529229509294
$GPGGA,100410.00,3512.4394,N,12149.9993,W,1,10,0.8,9.5,M,-32.6,M,,*5F
$PYRTM,2024,125.419592064931,16.529239475069
$GPGGA,100411.00,3512.4391,N,12149.9983,W,1,10,0.8,6.8,M,-32.6,M,,*58
$PYRTM,2024,125.419615444583,16.529262854722
$GPGGA,100412.00,3512.4386,N,12149.9975,W,1,10,0.8,8.8,M,-32.6,M,,*5A
$PYRTM,2024,125.419626556308,16.529273966458
$GPGGA,100413.00,3512.4379,N,12149.9969,W,1,10,0.8,6.3,M,-32.6,M,,*53
$PYRTM,2024,125.419637667037,16.529285077176
$GPGGA,100414.00,3512.4375,N,12149.9962,W,1,10,0.8,5.8,M,-32.6,M,,*5B
$PYRTM,2024,125.419648778125,16.529296188264
$GPGGA,100415.00,3512.4372,N,12149.9951,W,1,10,0.8,6.1,M,-32.6,M,,*57
$PYRTM,2024,125.419659889583,16.529307299722
$GPGGA,100416.00,3512.4369,N,12149.9940,W,1,10,0.8,6.7,M,-32.6,M,,*58
$PYRTM,2024,125.419670884988,16.529318295127
$GPGGA,100417.00,3512.4364,N,12149.9931,W,1,10,0.8,7.5,M,-32.6,M,,*51
$PYRTM,2024,125.419681997014,16.529329407153
$GPGGA,100418.00,3512.4358,N,12149.9923,W,1,10,0.8,8.1,M,-32.6,M,,*59
$PYRTM,2024,125.419693106944,16.529340517083
$GPGGA,100419.00,3512.4353,N,12149.9914,W,1,10,0.8,11.0,M,-32.6,M,,*6E
$PYRTM,2024,125.419704218218,16.529351628356
$GPGGA,100420.00,3512.4348,N,12149.9903,W,1,10,0.8,9.8,M,-32.6,M,,*59
$PYRTM,2024,125.419715329861,16.529362740000
$GPGGA,100421.00,3512.4345,N,12149.9893,W,1,10,0.8,10.3,M,-32.6,M,,*6E
$PYRTM,2024,125.419726439248,16.529373849387
$GPGGA,100422.00,3512.4341,N,12149.9884,W,1,10,0.8,10.0,M,-32.6,M,,*6C
$PYRTM,2024,125.419736148194,16.529383558333
$GPGGA,100423.00,3512.4336,N,12149.9876,W,1,10,0.8,9.5,M,-32.6,M,,*5D
$PYRTM,2024,125.419747737361,16.529395147500
$GPGGA,100424.00,3512.4330,N,12149.9867,W,1,10,0.8,8.2,M,-32.6,M,,*5A
$PYRTM,2024,125.419759889468,16.529407299606
$GPGGA,100425.00,3512.4325,N,12149.9858,W,1,10,0.8,6.7,M,-32.6,M,,*58
$PYRTM,2024,125.419771000556,16.529418410694
$GPGGA,100426.00,3512.4320,N,12149.9850,W,1,10,0.8,6.9,M,-32.6,M,,*58
$PYRTM,2024,125.419782113241,16.529429523380
$GPGGA,100427.00,3512.4316,N,12149.9841,W,1,10,0.8,8.4,M,-32.6,M,,*5F
$PYRTM,2024,125.419793224213,16.529440634352
$GPGGA,100428.00,3512.4312,N,12149.9833,W,1,10,0.8,8.8,M,-32.6,M,,*5D
$PYRTM,2024,125.419804335880,16.529451746019
$GPGGA,100429.00,3512.4308,N,12149.9825,W,1,10,0.8,9.8,M,-32.6,M,,*51
$PYRTM,2024,125.419815327697,16.529462737836
$GPGGA,100430.00,3512.4304,N,12149.9816,W,1,10,0.8,7.2,M,-32.6,M,,*51
$PYRTM,2024,125.419826429873,16.529473840012
$GPGGA,100431.00,3512.4299,N,12149.9807,W,1,10,0.8,7.2,M,-32.6,M,,*55
$PYRTM,2024,125.419837539190,16.529484949340
$GPGGA,100432.00,3512.4294,N,12149.9800,W,1,10,0.8,6.2,M,-32.6,M,,*5D
$PYRTM,2024,125.419848658750,16.529496068889
$GPGGA,100433.00,3512.4290,N,12149.9793,W,1,10,0.8,8.1,M,-32.6,M,,*50
$PYRTM,2024,125.419859763565,16.529507173704
$GPGGA,100434.00,3512.4286,N,12149.9785,W,1,10,0.8,10.6,M,-32.6,M,,*69
$PYRTM,2024,125.419870885833,16.529518295972
$GPGGA,100435.00,3512.4284,N,12149.9774,W,1,10,0.8,10.1,M,-32.6,M,,*63
$PYRTM,2024,125.419893224329,16.529540634468
$GPGGA,100436.00,3512.4281,N,12149.9763,W,1,10,0.8,9.0,M,-32.6,M,,*5A
$PYRTM,2024,125.419904335729,16.529551745868
$GPGGA,100437.00,3512.4277,N,12149.9755,W,1,10,0.8,6.2,M,-32.6,M,,*5A
$PYRTM,2024,125.419915446644,16.529562856782
$GPGGA,100438.00,3512.4272,N,12149.9750,W,1,10,0.8,8.3,M,-32.6,M,,*5A
$PYRTM,2024,125.419926557674,16.529573967812
$GPGGA,100439.00,3512.4267,N,12149.9744,W,1,10,0.8,6.8,M,-32.6,M,,*5F
$PYRTM,2024,125.419937663715,16.529585073854
$GPGGA,100440.00,3512.4261,N,12149.9737,W,1,10,0.8,6.2,M,-32.6,M,,*59
$PYRTM,2024,125.419948666076,16.529596076215
$GPGGA,100441.00,3512.4256,N,12149.9728,W,1,10,0.8,7.8,M,-32.6,M,,*59
$PYRTM,2024,125.419959771563,16.529607181701
$GPGGA,100442.00,3512.4252,N,12149.9719,W,1,10,0.8,7.4,M,-32.6,M,,*50
$PYRTM,2024,125.419970887176,16.529618297315
$GPGGA,100443.00,3512.4250,N,12149.9709,W,1,10,0.8,9.0,M,-32.6,M,,*58
$PYRTM,2024,125.419981998519,16.529629408657
$GPGGA,100444.00,3512.4245,N,12149.9700,W,1,10,0.8,9.3,M,-32.6,M,,*51
$PYRTM,2024,125.419993109618,16.529640519757
$GPGGA,100445.00,3512.4238,N,12149.9691,W,1,10,0.8,7.4,M,-32.6,M,,*5A
$PYRTM,2024,125.420004219711,16.529651629850
$GPGGA,100446.00,3512.4231,N,12149.9683,W,1,10,0.8,7.1,M,-32.6,M,,*56
$PYRTM,2024,125.420015215058,16.529662625197
$GPGGA,100447.00,3512.4225,N,12149.9675,W,1,10,0.8,8.9,M,-32.6,M,,*5C
$PYRTM,2024,125.420026328125,16.529673738264
$GPGGA,100448.00,3512.4221,N,12149.9668,W,1,10,0.8,8.0,M,-32.6,M,,*52
$PYRTM,2024,125.420037438241,16.529684848380
$GPGGA,100449.00,3512.4218,N,12149.9660,W,1,10,0.8,6.0,M,-32.6,M,,*5F
$PYRTM,2024,125.420048550081,16.529695960220
$GPGGA,100450.00,3512.4214,N,12149.9652,W,1,10,0.8,4.2,M,-32.6,M,,*5A
$PYRTM,2024,125.420059664178,16.529707074317
$GPGGA,100451.00,3512.4210,N,12149.9644,W,1,10,0.8,4.4,M,-32.6,M,,*5E
$PYRTM,2024,125.420070772465,16.529718182604
$GPGGA,100452.00,3512.4207,N,12149.9635,W,1,10,0.8,5.2,M,-32.6,M,,*5A
$PYRTM,2024,125.420080944942,16.529728355093
$GPGGA,100453.00,3512.4202,N,12149.9625,W,1,10,0.8,7.1,M,-32.6,M,,*5E
$PYRTM,2024,125.420092400613,16.529739810752
$GPGGA,100454.00,3512.4196,N,12149.9617,W,1,10,0.8,7.2,M,-32.6,M,,*55
$PYRTM,2024,125.420104554734,16.529751964873
$GPGGA,100455.00,3512.4190,N,12149.9610,W,1,10,0.8,8.9,M,-32.6,M,,*51
$PYRTM,2024,125.420115665567,16.529763075706
$GPGGA,100456.00,3512.4184,N,12149.9601,W,1,10,0.8,6.6,M,-32.6,M,,*56
$PYRTM,2024,125.420126778472,16.529774188611
$GPGGA,100457.00,3512.4180,N,12149.9590,W,1,10,0.8,5.5,M,-32.6,M,,*58
$PYRTM,2024,125.420137891076,16.529785301215
$GPGGA,100458.00,3512.4177,N,12149.9578,W,1,10,0.8,4.6,M,-32.6,M,,*5B
$PYRTM,2024,125.420149001100,16.529796411238
$GPGGA,100459.00,3512.4173,N,12149.9569,W,1,10,0.8,5.7,M,-32.6,M,,*5E
$PYRTM,2024,125.420159995903,16.529807406042
$GPGGA,100500.00,3512.4166,N,12149.9563,W,1,10,0.8,6.5,M,-32.6,M,,*5C
$PYRTM,2024,125.420171337014,16.529818747153
$GPGGA,100501.00,3512.4156,N,12149.9559,W,1,10,0.8,7.9,M,-32.6,M,,*5A
$PYRTM,2024,125.420182577211,16.529829987350
$GPGGA,100502.00,3512.4148,N,12149.9554,W,1,10,0.8,8.3,M,-32.6,M,,*5E
$PYRTM,2024,125.420194148345,16.529841558495
$GPGGA,100503.00,3512.4145,N,12149.9544,W,1,10,0.8,8.5,M,-32.6,M,,*55
$PYRTM,2024,125.420204669329,16.529852079468
$GPGGA,100504.00,3512.4146,N,12149.9533,W,1,10,0.8,7.6,M,-32.6,M,,*5D
$PYRTM,2024,125.420217300972,16.529864711111
$GPGGA,100505.00,3512.4142,N,12149.9527,W,1,10,0.8,9.1,M,-32.6,M,,*54
$PYRTM,2024,125.420228876470,16.529876286609
$GPGGA,100506.00,3512.4134,N,12149.9523,W,1,10,0.8,7.8,M,-32.6,M,,*55
$PYRTM,2024,125.420240449572,16.529887859711
$GPGGA,100507.00,3512.4125,N,12149.9519,W,1,10,0.8,8.0,M,-32.6,M,,*5A
$PYRTM,2024,125.420252026736,16.529899436875
$GPGGA,100508.00,3512.4120,N,12149.9510,W,1,10,0.8,7.2,M,-32.6,M,,*54
$PYRTM,2024,125.420263597095,16.529911007234
$GPGGA,100509.00,3512.4118,N,12149.9497,W,1,10,0.8,6.1,M,-32.6,M,,*52
$PYRTM,2024,125.420275176204,16.529922586343
$GPGGA,100510.00,3512.4117,N,12149.9485,W,1,10,0.8,6.8,M,-32.6,M,,*5F
$PYRTM,2024,125.420286744491,16.529934154630
$GPGGA,100511.00,3512.4113,N,12149.9477,W,1,10,0.8,10.2,M,-32.6,M,,*6A
$PYRTM,2024,125.420298321875,16.529945732014
$GPGGA,100512.00,3512.4105,N,12149.9470,W,1,10,0.8,9.1,M,-32.6,M,,*52
$PYRTM,2024,125.420309895984,16.529957306123
$GPGGA,100513.00,3512.4099,N,12149.9462,W,1,10,0.8,10.5,M,-32.6,M,,*68
$PYRTM,2024,125.420321468484,16.529968878623
$GPGGA,100514.00,3512.4095,N,12149.9452,W,1,10,0.8,6.9,M,-32.6,M,,*5B
$PYRTM,2024,125.420333041528,16.529980451667
$GPGGA,100515.00,3512.4092,N,12149.9442,W,1,10,0.8,8.8,M,-32.6,M,,*53
$PYRTM,2024,125.420344615926,16.529992026065
$GPGGA,100516.00,3512.4088,N,12149.9435,W,1,10,0.8,6.0,M,-32.6,M,,*5D
$PYRTM,2024,125.420356191539,16.530003601690
$GPGGA,100517.00,3512.4082,N,12149.9427,W,1,10,0.8,7.8,M,-32.6,M,,*5C
$PYRTM,2024,125.420367764144,16.530015174282
$GPGGA,100518.00,3512.4075,N,12149.9418,W,1,10,0.8,8.0,M,-32.6,M,,*50
$PYRTM,2024,125.420379338437,16.530026748576
$GPGGA,100519.00,3512.4071,N,12149.9409,W,1,10,0.8,8.9,M,-32.6,M,,*5C
$PYRTM,2024,125.420390911910,16.530038322049
$GPGGA,100520.00,3512.4067,N,12149.9399,W,1,10,0.8,8.4,M,-32.6,M,,*52
$PYRTM,2024,125.420402486250,16.530049896389
$GPGGA,100521.00,3512.4063,N,12149.9390,W,1,10,0.8,8.1,M,-32.6,M,,*5B
$PYRTM,2024,125.420414075255,16.530061485405
$GPGGA,100522.00,3512.4056,N,12149.9383,W,1,10,0.8,8.7,M,-32.6,M,,*5A
$PYRTM,2024,125.420426779282,16.530074189433
$GPGGA,100523.00,3512.4049,N,12149.9377,W,1,10,0.8,7.8,M,-32.6,M,,*5E
$PYRTM,2024,125.420439856123,16.530087266262
$GPGGA,100524.00,3512.4044,N,12149.9368,W,1,10,0.8,7.4,M,-32.6,M,,*56
$PYRTM,2024,125.420448784201,16.530096194340
$GPGGA,100525.00,3512.4041,N,12149.9359,W,1,10,0.8,9.3,M,-32.6,M,,*59
$PYRTM,2024,125.420460358553,16.530107768704
$GPGGA,100526.00,3512.4037,N,12149.9351,W,1,10,0.8,10.7,M,-32.6,M,,*6F
$PYRTM,2024,125.420471932002,16.530119342141
$GPGGA,100527.00,3512.4029,N,12149.9344,W,1,10,0.8,10.5,M,-32.6,M,,*67
$PYRTM,2024,125.420483508877,16.530130919016
$GPGGA,100528.00,3512.4021,N,12149.9337,W,1,10,0.8,9.5,M,-32.6,M,,*5C
$PYRTM,2024,125.420495080752,16.530142490891
$GPGGA,100529.00,3512.4016,N,12149.9328,W,1,10,0.8,7.8,M,-32.6,M,,*54
$PYRTM,2024,125.420506649178,16.530154059317
$GPGGA,100530.00,3512.4014,N,12149.9317,W,1,10,0.8,9.0,M,-32.6,M,,*54
$PYRTM,2024,125.420518222870,16.530165633009
$GPGGA,100531.00,3512.4012,N,12149.9307,W,1,10,0.8,9.0,M,-32.6,M,,*52
$PYRTM,2024,125.420529802731,16.530177212870
$GPGGA,100532.00,3512.4007,N,12149.9300,W,1,10,0.8,9.1,M,-32.6,M,,*53
$PYRTM,2024,125.420541376053,16.530188786192
$GPGGA,100533.00,3512.3999,N,12149.9294,W,1,10,0.8,12.1,M,-32.6,M,,*6D
$PYRTM,2024,125.420552946748,16.530200356898
$GPGGA,100534.00,3512.3992,N,12149.9285,W,1,10,0.8,9.9,M,-32.6,M,,*53
$PYRTM,2024,125.420564523970,16.530211934109
$GPGGA,100535.00,3512.3989,N,12149.9274,W,1,10,0.8,8.3,M,-32.6,M,,*5D
$PYRTM,2024,125.420576098044,16.530223508183
$GPGGA,100536.00,3512.3987,N,12149.9261,W,1,10,0.8,10.6,M,-32.6,M,,*68
$PYRTM,2024,125.420587672407,16.530235082546
$GPGGA,100537.00,3512.3982,N,12149.9251,W,1,10,0.8,9.1,M,-32.6,M,,*50
$PYRTM,2024,125.420599260359,16.530246670498
$GPGGA,100538.00,3512.3974,N,12149.9245,W,1,10,0.8,8.4,M,-32.6,M,,*57
$PYRTM,2024,125.420610821146,16.530258231285
$GPGGA,100539.00,3512.3969,N,12149.9238,W,1,10,0.8,3.3,M,-32.6,M,,*5C
$PYRTM,2024,125.420622395266,16.530269805405
$GPGGA,100540.00,3512.3966,N,12149.9228,W,1,10,0.8,7.4,M,-32.6,M,,*5F
$PYRTM,2024,125.420633969109,16.530281379248
$GPGGA,100541.00,3512.3965,N,12149.9217,W,1,10,0.8,8.3,M,-32.6,M,,*59
$PYRTM,2024,125.420645538368,16.530292948507
$GPGGA,100542.00,3512.3961,N,12149.9207,W,1,10,0.8,9.5,M,-32.6,M,,*58
$PYRTM,2024,125.420657584329,16.530304994468
$GPGGA,100543.00,3512.3955,N,12149.9201,W,1,10,0.8,8.8,M,-32.6,M,,*54
$PYRTM,2024,125.420668692581,16.530316102720
$GPGGA,100544.00,3512.3949,N,12149.9196,W,1,10,0.8,7.2,M,-32.6,M,,*56
$PYRTM,2024,125.420680265567,16.530327675706
$GPGGA,100545.00,3512.3943,N,12149.9189,W,1,10,0.8,7.8,M,-32.6,M,,*59
$PYRTM,2024,125.420691839745,16.530339249884
$GPGGA,100546.00,3512.3940,N,12149.9180,W,1,10,0.8,8.4,M,-32.6,M,,*53
$PYRTM,2024,125.420703415694,16.530350825833
$GPGGA,100547.00,3512.3937,N,12149.9171,W,1,10,0.8,7.2,M,-32.6,M,,*55
$PYRTM,2024,125.420714988438,16.530362398576
$GPGGA,100548.00,3512.3932,N,12149.9161,W,1,10,0.8,7.1,M,-32.6,M,,*5D
$PYRTM,2024,125.420726557859,16.530373967998
$GPGGA,100549.00,3512.3926,N,12149.9153,W,1,10,0.8,7.8,M,-32.6,M,,*51
$PYRTM,2024,125.420738139016,16.530385549155
$GPGGA,100550.00,3512.3919,N,12149.9145,W,1,10,0.8,6.5,M,-32.6,M,,*5E
$PYRTM,2024,125.420749711586,16.530397121725
$GPGGA,100551.00,3512.3914,N,12149.9137,W,1,10,0.8,8.8,M,-32.6,M,,*54
$PYRTM,2024,125.420761286100,16.530408696238
$GPGGA,100552.00,3512.3910,N,12149.9128,W,1,10,0.8,9.8,M,-32.6,M,,*5C
$PYRTM,2024,125.420774002639,16.530421412778
$GPGGA,100553.00,3512.3906,N,12149.9117,W,1,10,0.8,10.5,M,-32.6,M,,*63
$PYRTM,2024,125.420787081852,16.530434491991
$GPGGA,100554.00,3512.3902,N,12149.9109,W,1,10,0.8,10.9,M,-32.6,M,,*63
$PYRTM,2024,125.420796007801,16.530443417940
$GPGGA,100555.00,3512.3896,N,12149.9102,W,1,10,0.8,8.1,M,-32.6,M,,*54
$PYRTM,2024,125.420807584456,16.530454994595
$GPGGA,100556.00,3512.3891,N,12149.9097,W,1,10,0.8,9.1,M,-32.6,M,,*5C
$PYRTM,2024,125.420819155613,16.530466565752
$GPGGA,100557.00,3512.3886,N,12149.9091,W,1,10,0.8,7.7,M,-32.6,M,,*55
$PYRTM,2024,125.420830731319,16.530478141458
$GPGGA,100558.00,3512.3882,N,12149.9083,W,1,10,0.8,7.7,M,-32.6,M,,*5D
$PYRTM,2024,125.420842303866,16.530489714016
$GPGGA,100559.00,3512.3878,N,12149.9073,W,1,10,0.8,6.6,M,-32.6,M,,*56
$PYRTM,2024,125.420853877824,16.530501287963
$GPGGA,100600.00,3512.3873,N,12149.9064,W,1,10,0.8,7.3,M,-32.6,M,,*50
$PYRTM,2024,125.420865452095,16.530512862245
$GPGGA,100601.00,3512.3867,N,12149.9057,W,1,10,0.8,8.1,M,-32.6,M,,*59
$PYRTM,2024,125.420877026956,16.530524437095
$GPGGA,100602.00,3512.3860,N,12149.9050,W,1,10,0.8,8.7,M,-32.6,M,,*5C
$PYRTM,2024,125.420888599745,16.530536009896
$GPGGA,100603.00,3512.3855,N,12149.9042,W,1,10,0.8,8.5,M,-32.6,M,,*5A
$PYRTM,2024,125.420900174109,16.530547584248
$GPGGA,100604.00,3512.3851,N,12149.9032,W,1,10,0.8,8.9,M,-32.6,M,,*52
$PYRTM,2024,125.420911742662,16.530559152801
$GPGGA,100605.00,3512.3848,N,12149.9023,W,1,10,0.8,9.9,M,-32.6,M,,*5A
$PYRTM,2024,125.420923323704,16.530570733843
$GPGGA,100606.00,3512.3844,N,12149.9015,W,1,10,0.8,7.7,M,-32.6,M,,*50
$PYRTM,2024,125.420934897384,16.530582307523
$GPGGA,100607.00,3512.3838,N,12149.9008,W,1,10,0.8,8.2,M,-32.6,M,,*5C
$PYRTM,2024,125.420946473507,16.530593883646
$GPGGA,100608.00,3512.3833,N,12149.8999,W,1,10,0.8,8.0,M,-32.6,M,,*5A
$PYRTM,2024,125.420957119271,16.530604529410
$GPGGA,100609.00,3512.3830,N,12149.8988,W,1,10,0.8,8.5,M,-32.6,M,,*5D
$PYRTM,2024,125.420969040764,16.530616450903
$GPGGA,100610.00,3512.3826,N,12149.8979,W,1,10,0.8,10.5,M,-32.6,M,,*65
$PYRTM,2024,125.420979805822,16.530627215961
$GPGGA,100611.00,3512.3820,N,12149.8971,W,1,10,0.8,9.6,M,-32.6,M,,*51
$PYRTM,2024,125.420990916771,16.530638326910
$GPGGA,100612.00,3512.3812,N,12149.8965,W,1,10,0.8,7.8,M,-32.6,M,,*56
$PYRTM,2024,125.421002029780,16.530649439919
$GPGGA,100613.00,3512.3806,N,12149.8958,W,1,10,0.8,8.3,M,-32.6,M,,*58
$PYRTM,2024,125.421013007558,16.530660417697
$GPGGA,100614.00,3512.3801,N,12149.8949,W,1,10,0.8,7.3,M,-32.6,M,,*57
$PYRTM,2024,125.421024120035,16.530671530174
$GPGGA,100615.00,3512.3797,N,12149.8940,W,1,10,0.8,5.2,M,-32.6,M,,*5C
$PYRTM,2024,125.421035232083,16.530682642222
$GPGGA,100616.00,3512.3791,N,12149.8931,W,1,10,0.8,6.1,M,-32.6,M,,*5F
$PYRTM,2024,125.421046342025,16.530693752164
$GPGGA,100617.00,3512.3785,N,12149.8922,W,1,10,0.8,9.3,M,-32.6,M,,*54
$PYRTM,2024,125.421057452199,16.530704862338
$GPGGA,100618.00,3512.3781,N,12149.8912,W,1,10,0.8,10.1,M,-32.6,M,,*66
$PYRTM,2024,125.421068564120,16.530715974271
$GPGGA,100619.00,3512.3777,N,12149.8903,W,1,10,0.8,7.7,M,-32.6,M,,*5E
$PYRTM,2024,125.421080152164,16.530727562303
$GPGGA,100620.00,3512.3770,N,12149.8896,W,1,10,0.8,11.0,M,-32.6,M,,*6E
$PYRTM,2024,125.421091712326,16.530739122477
$GPGGA,100621.00,3512.3763,N,12149.8891,W,1,10,0.8,8.9,M,-32.6,M,,*5B
$PYRTM,2024,125.421103296204,16.530750706343
$GPGGA,100622.00,3512.3758,N,12149.8884,W,1,10,0.8,9.3,M,-32.6,M,,*5F
$PYRTM,2024,125.421114866343,16.530762276481
$GPGGA,100623.00,3512.3756,N,12149.8874,W,1,10,0.8,9.1,M,-32.6,M,,*5D
$PYRTM,2024,125.421131660336,16.530779070475
$GPGGA,100624.00,3512.3754,N,12149.8864,W,1,10,0.8,8.4,M,-32.6,M,,*5D
$PYRTM,2024,125.421143226262,16.530790636400
$GPGGA,100625.00,3512.3750,N,12149.8856,W,1,10,0.8,7.4,M,-32.6,M,,*56
$PYRTM,2024,125.421154809051,16.530802219190
$GPGGA,100626.00,3512.3742,N,12149.8850,W,1,10,0.8,7.2,M,-32.6,M,,*56
$PYRTM,2024,125.421166380324,16.530813790463
$GPGGA,100627.00,3512.3734,N,12149.8844,W,1,10,0.8,9.7,M,-32.6,M,,*58
$PYRTM,2024,125.421177954248,16.530825364387
$GPGGA,100628.00,3512.3728,N,12149.8835,W,1,10,0.8,8.1,M,-32.6,M,,*5B
$PYRTM,2024,125.421189527211,16.530836937350
$GPGGA,100629.00,3512.3724,N,12149.8822,W,1,10,0.8,10.0,M,-32.6,M,,*68
$PYRTM,2024,125.421201102187,16.530848512326
$GPGGA,100630.00,3512.3720,N,12149.8811,W,1,10,0.8,10.0,M,-32.6,M,,*64
$PYRTM,2024,125.421212676412,16.530860086562
$GPGGA,100631.00,3512.3715,N,12149.8804,W,1,10,0.8,9.9,M,-32.6,M,,*56
$PYRTM,2024,125.421224250521,16.530871660660
$GPGGA,100632.00,3512.3708,N,12149.8798,W,1,10,0.8,11.8,M,-32.6,M,,*6B
$PYRTM,2024,125.421236273912,16.530883684051
$GPGGA,100633.00,3512.3703,N,12149.8789,W,1,10,0.8,10.1,M,-32.6,M,,*69
$PYRTM,2024,125.421247383495,16.530894793634
$GPGGA,100634.00,3512.3699,N,12149.8778,W,1,10,0.8,7.2,M,-32.6,M,,*57
$PYRTM,2024,125.421258972731,16.530906382870
$GPGGA,100635.00,3512.3697,N,12149.8766,W,1,10,0.8,10.7,M,-32.6,M,,*64
$PYRTM,2024,125.421270532465,16.530917942604
$GPGGA,100636.00,3512.3693,N,12149.8757,W,1,10,0.8,12.9,M,-32.6,M,,*6D
$PYRTM,2024,125.421282120995,16.530929531146
$GPGGA,100637.00,3512.3688,N,12149.8750,W,1,10,0.8,12.7,M,-32.6,M,,*6F
$PYRTM,2024,125.421293680567,16.530941090706
$GPGGA,100638.00,3512.3681,N,12149.8745,W,1,10,0.8,10.1,M,-32.6,M,,*69
$PYRTM,2024,125.421305268935,16.530952679074
$GPGGA,100639.00,3512.3676,N,12149.8738,W,1,10,0.8,9.5,M,-32.6,M,,*56
$PYRTM,2024,125.421316829792,16.530964239942
$GPGGA,100640.00,3512.3672,N,12149.8729,W,1,10,0.8,7.8,M,-32.6,M,,*5F
$PYRTM,2024,125.421328419062,16.530975829201
$GPGGA,100641.00,3512.3670,N,12149.8719,W,1,10,0.8,7.5,M,-32.6,M,,*52
$PYRTM,2024,125.421339977604,16.530987387743
$GPGGA,100642.00,3512.3667,N,12149.8710,W,1,10,0.8,7.0,M,-32.6,M,,*5B
$PYRTM,2024,125.421351565706,16.530998975845
$GPGGA,100643.00,3512.3660,N,12149.8703,W,1,10,0.8,7.4,M,-32.6,M,,*5B
$PYRTM,2024,125.421363125544,16.531010535683
$GPGGA,100644.00,3512.3651,N,12149.8696,W,1,10,0.8,8.6,M,-32.6,M,,*5E
$PYRTM,2024,125.421374714873,16.531022125012
$GPGGA,100645.00,3512.3644,N,12149.8688,W,1,10,0.8,11.0,M,-32.6,M,,*6A
$PYRTM,2024,125.421386273866,16.531033684005
$GPGGA,100646.00,3512.3640,N,12149.8679,W,1,10,0.8,11.9,M,-32.6,M,,*6A
$PYRTM,2024,125.421397862905,16.531045273056
$GPGGA,100647.00,3512.3637,N,12149.8669,W,1,10,0.8,12.4,M,-32.6,M,,*64
$PYRTM,2024,125.421409422431,16.531056832569
$GPGGA,100648.00,3512.3634,N,12149.8658,W,1,10,0.8,9.9,M,-32.6,M,,*5D
$PYRTM,2024,125.421421009861,16.531068420000
$GPGGA,100649.00,3512.3627,N,12149.8650,W,1,10,0.8,9.7,M,-32.6,M,,*58
$PYRTM,2024,125.421432569178,16.531079979317
$GPGGA,100650.00,3512.3621,N,12149.8646,W,1,10,0.8,8.4,M,-32.6,M,,*53
$PYRTM,2024,125.421444158009,16.531091568148
$GPGGA,100651.00,3512.3615,N,12149.8640,W,1,10,0.8,9.7,M,-32.6,M,,*51
$PYRTM,2024,125.421455718218,16.531103128368
$GPGGA,100652.00,3512.3611,N,12149.8630,W,1,10,0.8,8.5,M,-32.6,M,,*52
$PYRTM,2024,125.421468450868,16.531115861007
$GPGGA,100653.00,3512.3609,N,12149.8616,W,1,10,0.8,9.0,M,-32.6,M,,*5A
$PYRTM,2024,125.421481528611,16.531128938750
$GPGGA,100654.00,3512.3606,N,12149.8605,W,1,10,0.8,11.5,M,-32.6,M,,*6C
$PYRTM,2024,125.421490455243,16.531137865394
$GPGGA,100655.00,3512.3599,N,12149.8598,W,1,10,0.8,10.1,M,-32.6,M,,*6A
$PYRTM,2024,125.421502014225,16.531149424363
$GPGGA,100656.00,3512.3590,N,12149.8594,W,1,10,0.8,11.1,M,-32.6,M,,*6D
$PYRTM,2024,125.421513604896,16.531161015046
$GPGGA,100657.00,3512.3582,N,12149.8588,W,1,10,0.8,9.8,M,-32.6,M,,*52
$PYRTM,2024,125.421525164109,16.531172574248
$GPGGA,100658.00,3512.3578,N,12149.8578,W,1,10,0.8,10.5,M,-32.6,M,,*62
$PYRTM,2024,125.421536752083,16.531184162222
$GPGGA,100659.00,3512.3577,N,12149.8567,W,1,10,0.8,9.9,M,-32.6,M,,*56
$PYRTM,2024,125.421548311331,16.531195721470
$GPGGA,100700.00,3512.3576,N,12149.8559,W,1,10,0.8,8.7,M,-32.6,M,,*58
$PYRTM,2024,125.421559896019,16.531207306157
$GPGGA,100701.00,3512.3571,N,12149.8552,W,1,10,0.8,8.6,M,-32.6,M,,*54
$PYRTM,2024,125.421571460220,16.531218870359
$GPGGA,100702.00,3512.3562,N,12149.8545,W,1,10,0.8,8.6,M,-32.6,M,,*53
$PYRTM,2024,125.421583048993,16.531230459132
$GPGGA,100703.00,3512.3554,N,12149.8537,W,1,10,0.8,11.2,M,-32.6,M,,*6E
$PYRTM,2024,125.421594609560,16.531242019699
$GPGGA,100704.00,3512.3548,N,12149.8528,W,1,10,0.8,12.7,M,-32.6,M,,*6C
$PYRTM,2024,125.421606196759,16.531253606910
$GPGGA,100705.00,3512.3543,N,12149.8519,W,1,10,0.8,13.2,M,-32.6,M,,*60
$PYRTM,2024,125.421617757037,16.531265167176
$GPGGA,100706.00,3512.3539,N,12149.8510,W,1,10,0.8,13.0,M,-32.6,M,,*65
$PYRTM,2024,125.421629344699,16.531276754838
$GPGGA,100707.00,3512.3535,N,12149.8500,W,1,10,0.8,10.7,M,-32.6,M,,*6D
$PYRTM,2024,125.421640906470,16.531288316609
$GPGGA,100708.00,3512.3530,N,12149.8491,W,1,10,0.8,10.4,M,-32.6,M,,*6D
$PYRTM,2024,125.421652493646,16.531299903796
$GPGGA,100709.00,3512.3525,N,12149.8482,W,1,10,0.8,10.7,M,-32.6,M,,*69
$PYRTM,2024,125.421664053310,16.531311463449
$GPGGA,100710.00,3512.3519,N,12149.8476,W,1,10,0.8,12.8,M,-32.6,M,,*68
$PYRTM,2024,125.421675641273,16.531323051412
$GPGGA,100711.00,3512.3513,N,12149.8467,W,1,10,0.8,11.5,M,-32.6,M,,*6D
$PYRTM,2024,125.421686161181,16.531333571319
$GPGGA,100712.00,3512.3509,N,12149.8457,W,1,10,0.8,11.9,M,-32.6,M,,*6A
$PYRTM,2024,125.421698791910,16.531346202049
$GPGGA,100713.00,3512.3505,N,12149.8447,W,1,10,0.8,11.6,M,-32.6,M,,*69
$PYRTM,2024,125.421710350150,16.531357760289
$GPGGA,100714.00,3512.3501,N,12149.8440,W,1,10,0.8,10.7,M,-32.6,M,,*6D
$PYRTM,2024,125.421721932986,16.531369343125
$GPGGA,100715.00,3512.3496,N,12149.8434,W,1,10,0.8,10.9,M,-32.6,M,,*6E
$PYRTM,2024,125.421733498576,16.531380908715
$GPGGA,100716.00,3512.3491,N,12149.8427,W,1,10,0.8,10.5,M,-32.6,M,,*64
$PYRTM,2024,125.421745081030,16.531392491169
$GPGGA,100717.00,3512.3484,N,12149.8420,W,1,10,0.8,9.7,M,-32.6,M,,*5C
$PYRTM,2024,125.421756646887,16.531404057025
$GPGGA,100718.00,3512.3479,N,12149.8412,W,1,10,0.8,9.4,M,-32.6,M,,*53
$PYRTM,2024,125.421768229398,16.531415639549
$GPGGA,100719.00,3512.3476,N,12149.8403,W,1,10,0.8,11.3,M,-32.6,M,,*63
$PYRTM,2024,125.421779794329,16.531427204479
$GPGGA,100720.00,3512.3472,N,12149.8394,W,1,10,0.8,12.2,M,-32.6,M,,*66
$PYRTM,2024,125.421791382812,16.531438792951
$GPGGA,100721.00,3512.3465,N,12149.8386,W,1,10,0.8,11.0,M,-32.6,M,,*63
$PYRTM,2024,125.421802942836,16.531450352975
$GPGGA,100722.00,3512.3457,N,12149.8379,W,1,10,0.8,12.3,M,-32.6,M,,*61
$PYRTM,2024,125.421816148634,16.531463558773
$GPGGA,100723.00,3512.3452,N,12149.8372,W,1,10,0.8,12.0,M,-32.6,M,,*6D
$PYRTM,2024,125.421828755139,16.531476165278
$GPGGA,100724.00,3512.3449,N,12149.8361,W,1,10,0.8,10.7,M,-32.6,M,,*67
$PYRTM,2024,125.421837680231,16.531485090370
$GPGGA,100725.00,3512.3446,N,12149.8350,W,1,10,0.8,11.1,M,-32.6,M,,*6C
$PYRTM,2024,125.421849239676,16.531496649815
$GPGGA,100726.00,3512.3441,N,12149.8341,W,1,10,0.8,11.8,M,-32.6,M,,*61
$PYRTM,2024,125.421860828125,16.531508238264
$GPGGA,100727.00,3512.3435,N,12149.8334,W,1,10,0.8,10.5,M,-32.6,M,,*6D
$PYRTM,2024,125.421872388634,16.531519798773
$GPGGA,100728.00,3512.3429,N,12149.8326,W,1,10,0.8,10.3,M,-32.6,M,,*6A
$PYRTM,2024,125.421883970382,16.531531380532
$GPGGA,100729.00,3512.3426,N,12149.8316,W,1,10,0.8,11.4,M,-32.6,M,,*61
$PYRTM,2024,125.421895537257,16.531542947407
$GPGGA,100730.00,3512.3424,N,12149.8302,W,1,10,0.8,11.4,M,-32.6,M,,*6E
$PYRTM,2024,125.421907124282,16.531554534421
$GPGGA,100731.00,3512.3420,N,12149.8293,W,1,10,0.8,10.0,M,-32.6,M,,*67
$PYRTM,2024,125.421918684641,16.531566094792
$GPGGA,100732.00,3512.3414,N,12149.8287,W,1,10,0.8,10.6,M,-32.6,M,,*60
$PYRTM,2024,125.421930272431,16.531577682569
$GPGGA,100733.00,3512.3407,N,12149.8283,W,1,10,0.8,8.9,M,-32.6,M,,*51
$PYRTM,2024,125.421941832789,16.531589242928
$GPGGA,100734.00,3512.3402,N,12149.8276,W,1,10,0.8,8.8,M,-32.6,M,,*58
$PYRTM,2024,125.421953417407,16.531600827546
$GPGGA,100735.00,3512.3399,N,12149.8265,W,1,10,0.8,11.3,M,-32.6,M,,*6D
$PYRTM,2024,125.421964983171,16.531612393322
$GPGGA,100736.00,3512.3396,N,12149.8255,W,1,10,0.8,12.7,M,-32.6,M,,*65
$PYRTM,2024,125.421976574502,16.531623984641
$GPGGA,100737.00,3512.3392,N,12149.8246,W,1,10,0.8,12.5,M,-32.6,M,,*60
$PYRTM,2024,125.421988130451,16.531635540590
$GPGGA,100738.00,3512.3387,N,12149.8240,W,1,10,0.8,11.3,M,-32.6,M,,*68
$PYRTM,2024,125.421999717836,16.531647127975
$GPGGA,100739.00,3512.3381,N,12149.8233,W,1,10,0.8,11.8,M,-32.6,M,,*60
$PYRTM,2024,125.422011276470,16.531658686609
$GPGGA,100740.00,3512.3377,N,12149.8224,W,1,10,0.8,12.2,M,-32.6,M,,*68
$PYRTM,2024,125.422022866065,16.531670276204
$GPGGA,100741.00,3512.3372,N,12149.8214,W,1,10,0.8,12.9,M,-32.6,M,,*64
$PYRTM,2024,125.422034425544,16.531681835683
$GPGGA,100742.00,3512.3369,N,12149.8203,W,1,10,0.8,11.9,M,-32.6,M,,*68
$PYRTM,2024,125.422046009178,16.531693419317
$GPGGA,100743.00,3512.3365,N,12149.8195,W,1,10,0.8,10.8,M,-32.6,M,,*69
$PYRTM,2024,125.422057573310,16.531704983461
$GPGGA,100744.00,3512.3359,N,12149.8188,W,1,10,0.8,14.2,M,-32.6,M,,*63
$PYRTM,2024,125.422069157500,16.531716567639
$GPGGA,100745.00,3512.3353,N,12149.8181,W,1,10,0.8,13.4,M,-32.6,M,,*60
$PYRTM,2024,125.422080722118,16.531728132257
$GPGGA,100746.00,3512.3349,N,12149.8171,W,1,10,0.8,13.3,M,-32.6,M,,*60
$PYRTM,2024,125.422092311493,16.531739721632
$GPGGA,100747.00,3512.3345,N,12149.8162,W,1,10,0.8,11.6,M,-32.6,M,,*68
$PYRTM,2024,125.422103870475,16.531751280613
$GPGGA,100748.00,3512.3340,N,12149.8154,W,1,10,0.8,11.1,M,-32.6,M,,*60
$PYRTM,2024,125.422115458218,16.531762868356
$GPGGA,100749.00,3512.3333,N,12149.8147,W,1,10,0.8,10.6,M,-32.6,M,,*61
$PYRTM,2024,125.422127018472,16.531774428611
$GPGGA,100750.00,3512.3327,N,12149.8139,W,1,10,0.8,13.9,M,-32.6,M,,*69
$PYRTM,2024,125.422138606447,16.531786016586
$GPGGA,100751.00,3512.3323,N,12149.8129,W,1,10,0.8,14.0,M,-32.6,M,,*63
$PYRTM,2024,125.422150167975,16.531797578113
$GPGGA,100752.00,3512.3319,N,12149.8119,W,1,10,0.8,13.1,M,-32.6,M,,*6C
$PYRTM,2024,125.422162898437,16.531810308576
$GPGGA,100753.00,3512.3315,N,12149.8111,W,1,10,0.8,14.5,M,-32.6,M,,*6A
$PYRTM,2024,125.422175977639,16.531823387789
$GPGGA,100754.00,3512.3310,N,12149.8105,W,1,10,0.8,13.0,M,-32.6,M,,*6F
$PYRTM,2024,125.422184903264,16.531832313403
$GPGGA,100755.00,3512.3304,N,12149.8100,W,1,10,0.8,13.7,M,-32.6,M,,*69
$PYRTM,2024,125.422196462940,16.531843873079
$GPGGA,100756.00,3512.3300,N,12149.8093,W,1,10,0.8,12.6,M,-32.6,M,,*65
$PYRTM,2024,125.422208052685,16.531855462824
$GPGGA,100757.00,3512.3297,N,12149.8083,W,1,10,0.8,11.5,M,-32.6,M,,*6A
$PYRTM,2024,125.422219611123,16.531867021262
$GPGGA,100758.00,3512.3296,N,12149.8074,W,1,10,0.8,11.1,M,-32.6,M,,*68
$PYRTM,2024,125.422231194850,16.531878604988
$GPGGA,100759.00,3512.3292,N,12149.8065,W,1,10,0.8,11.1,M,-32.6,M,,*6D
$PYRTM,2024,125.422242761655,16.531890171794
$GPGGA,100800.00,3512.3286,N,12149.8057,W,1,10,0.8,10.2,M,-32.6,M,,*68
$PYRTM,2024,125.422254348102,16.531901758241
$GPGGA,100801.00,3512.3279,N,12149.8049,W,1,10,0.8,11.3,M,-32.6,M,,*66
$PYRTM,2024,125.422265908079,16.531913318218
$GPGGA,100802.00,3512.3272,N,12149.8041,W,1,10,0.8,13.4,M,-32.6,M,,*63
$PYRTM,2024,125.422277496910,16.531924907049
$GPGGA,100803.00,3512.3268,N,12149.8032,W,1,10,0.8,12.0,M,-32.6,M,,*68
$PYRTM,2024,125.422289056852,16.531936467002
$GPGGA,100804.00,3512.3266,N,12149.8022,W,1,10,0.8,13.4,M,-32.6,M,,*65
$PYRTM,2024,125.422300645521,16.531948055660
$GPGGA,100805.00,3512.3263,N,12149.8013,W,1,10,0.8,11.4,M,-32.6,M,,*61
$PYRTM,2024,125.422312204514,16.531959614664
$GPGGA,100806.00,3512.3259,N,12149.8004,W,1,10,0.8,9.2,M,-32.6,M,,*52
$PYRTM,2024,125.422323794236,16.531971204375
$GPGGA,100807.00,3512.3254,N,12149.7997,W,1,10,0.8,8.5,M,-32.6,M,,*54
$PYRTM,2024,125.422335353287,16.531982763426
$GPGGA,100808.00,3512.3249,N,12149.7990,W,1,10,0.8,7.1,M,-32.6,M,,*5B
$PYRTM,2024,125.422346941829,16.531994351979
$GPGGA,100809.00,3512.3245,N,12149.7981,W,1,10,0.8,6.9,M,-32.6,M,,*5F
$PYRTM,2024,125.422358500405,16.532005910544
$GPGGA,100810.00,3512.3242,N,12149.7971,W,1,10,0.8,10.1,M,-32.6,M,,*60
$PYRTM,2024,125.422370089433,16.532017499572
$GPGGA,100811.00,3512.3239,N,12149.7961,W,1,10,0.8,13.0,M,-32.6,M,,*6E
$PYRTM,2024,125.422381649838,16.532029059977
$GPGGA,100812.00,3512.3234,N,12149.7952,W,1,10,0.8,16.1,M,-32.6,M,,*64
$PYRTM,2024,125.422393688345,16.532041098484
$GPGGA,100813.00,3512.3227,N,12149.7944,W,1,10,0.8,15.0,M,-32.6,M,,*62
$PYRTM,2024,125.422402831597,16.532050241736
$GPGGA,100814.00,3512.3220,N,12149.7936,W,1,10,0.8,12.6,M,-32.6,M,,*66
$PYRTM,2024,125.422415794433,16.532063204572
$GPGGA,100815.00,3512.3216,N,12149.7928,W,1,10,0.8,9.4,M,-32.6,M,,*55
$PYRTM,2024,125.422426570660,16.532073980799
$GPGGA,100816.00,3512.3214,N,12149.7920,W,1,10,0.8,9.5,M,-32.6,M,,*5D
$PYRTM,2024,125.422437682350,16.532085092500
$GPGGA,100817.00,3512.3210,N,12149.7912,W,1,10,0.8,9.4,M,-32.6,M,,*58
$PYRTM,2024,125.422448794167,16.532096204306
$GPGGA,100818.00,3512.3204,N,12149.7903,W,1,10,0.8,10.8,M,-32.6,M,,*66
$PYRTM,2024,125.422459905197,16.532107315336
$GPGGA,100819.00,3512.3197,N,12149.7893,W,1,10,0.8,9.1,M,-32.6,M,,*57
$PYRTM,2024,125.422471017257,16.532118427396
$GPGGA,100820.00,3512.3193,N,12149.7881,W,1,10,0.8,10.8,M,-32.6,M,,*6B
$PYRTM,2024,125.422482127222,16.532129537361
$GPGGA,100821.00,3512.3191,N,12149.7869,W,1,10,0.8,11.7,M,-32.6,M,,*60
$PYRTM,2024,125.422493238299,16.532140648438
$GPGGA,100822.00,3512.3187,N,12149.7858,W,1,10,0.8,12.7,M,-32.6,M,,*65
$PYRTM,2024,125.422504350706,16.532151760845
$GPGGA,100823.00,3512.3180,N,12149.7851,W,1,10,0.8,11.0,M,-32.6,M,,*6E
$PYRTM,2024,125.422519976806,16.532167386944
$GPGGA,100824.00,3512.3173,N,12149.7845,W,1,10,0.8,11.4,M,-32.6,M,,*64
$PYRTM,2024,125.422531088218,16.532178498356
$GPGGA,100825.00,3512.3168,N,12149.7837,W,1,10,0.8,11.9,M,-32.6,M,,*67
$PYRTM,2024,125.422542645382,16.532190055521
$GPGGA,100826.00,3512.3166,N,12149.7827,W,1,10,0.8,12.2,M,-32.6,M,,*63
$PYRTM,2024,125.422554234190,16.532201644329
$GPGGA,100827.00,3512.3163,N,12149.7817,W,1,10,0.8,12.0,M,-32.6,M,,*66
$PYRTM,2024,125.422565794861,16.532213205000
$GPGGA,100828.00,3512.3158,N,12149.7810,W,1,10,0.8,14.5,M,-32.6,M,,*65
$PYRTM,2024,125.422577382604,16.532224792755
$GPGGA,100829.00,3512.3152,N,12149.7805,W,1,10,0.8,13.7,M,-32.6,M,,*6F
$PYRTM,2024,125.422588944942,16.532236355081
$GPGGA,100830.00,3512.3145,N,12149.7798,W,1,10,0.8,13.2,M,-32.6,M,,*6F
$PYRTM,2024,125.422600526713,16.532247936852
$GPGGA,100831.00,3512.3139,N,12149.7789,W,1,10,0.8,13.4,M,-32.6,M,,*63
$PYRTM,2024,125.422612091296,16.532259501435
$GPGGA,100832.00,3512.3137,N,12149.7777,W,1,10,0.8,14.1,M,-32.6,M,,*6D
$PYRTM,2024,125.422623679595,16.532271089734
$GPGGA,100833.00,3512.3134,N,12149.7766,W,1,10,0.8,12.8,M,-32.6,M,,*60
$PYRTM,2024,125.422635240336,16.532282650486
$GPGGA,100834.00,3512.3130,N,12149.7758,W,1,10,0.8,13.2,M,-32.6,M,,*65
$PYRTM,2024,125.422646827442,16.532294237581
$GPGGA,100835.00,3512.3123,N,12149.7753,W,1,10,0.8,13.8,M,-32.6,M,,*67
$PYRTM,2024,125.422658388044,16.532305798183
$GPGGA,100836.00,3512.3115,N,12149.7746,W,1,10,0.8,13.2,M,-32.6,M,,*6F
$PYRTM,2024,125.422669978206,16.532317388345
$GPGGA,100837.00,3512.3110,N,12149.7737,W,1,10,0.8,9.5,M,-32.6,M,,*51
$PYRTM,2024,125.422681537523,16.532328947674
$GPGGA,100838.00,3512.3107,N,12149.7726,W,1,10,0.8,10.8,M,-32.6,M,,*6D
