$PYRTM,2024,124.083342255833,15.192989665972
$GPGGA,015959.00,3459.3324,N,12130.1506,W,1,08,1.0,7.8,M,-32.8,M,,*53
$PYRTM,2024,124.083353813229,15.193001223368
$GPGGA,020000.00,3459.3333,N,12130.1507,W,1,08,1.0,8.5,M,-32.8,M,,*55
$PYRTM,2024,124.083365403044,15.193012813183
$GPGGA,020001.00,3459.3347,N,12130.1504,W,1,08,1.0,9.8,M,-32.8,M,,*58
$PYRTM,2024,124.083376965035,15.193024375174
$GPGGA,020002.00,3459.3363,N,12130.1503,W,1,08,1.0,9.2,M,-32.8,M,,*50
$PYRTM,2024,124.083388551539,15.193035961678
$GPGGA,020003.00,3459.3379,N,12130.1509,W,1,08,1.0,8.2,M,-32.8,M,,*51
$PYRTM,2024,124.083400113113,15.193047523252
$GPGGA,020004.00,3459.3392,N,12130.1517,W,1,08,1.0,6.7,M,-32.8,M,,*57
$PYRTM,2024,124.083411693935,15.193059104074
$GPGGA,020005.00,3459.3400,N,12130.1520,W,1,08,1.0,7.2,M,-32.8,M,,*5A
$PYRTM,2024,124.083423260637,15.193070670787
$GPGGA,020006.00,3459.3411,N,12130.1514,W,1,08,1.0,7.1,M,-32.8,M,,*5D
$PYRTM,2024,124.083433446620,15.193080856759
$GPGGA,020007.00,3459.3427,N,12130.1509,W,1,08,1.0,8.6,M,-32.8,M,,*5D
$PYRTM,2024,124.083445263380,15.193092673519
$GPGGA,020008.00,3459.3445,N,12130.1514,W,1,08,1.0,8.0,M,-32.8,M,,*5C
$PYRTM,2024,124.083457998831,15.193105408981
$GPGGA,020009.00,3459.3460,N,12130.1523,W,1,08,1.0,7.6,M,-32.8,M,,*57
$PYRTM,2024,124.083469558611,15.193116968750
$GPGGA,020010.00,3459.3471,N,12130.1528,W,1,08,1.0,7.3,M,-32.8,M,,*51
$PYRTM,2024,124.083481149606,15.193128559745
$GPGGA,020011.00,3459.3480,N,12130.1529,W,1,08,1.0,8.1,M,-32.8,M,,*52
$PYRTM,2024,124.083492706377,15.193140116516
$GPGGA,020012.00,3459.3492,N,12130.1530,W,1,08,1.0,8.0,M,-32.8,M,,*5B
$PYRTM,2024,124.083504291319,15.193151701458
$GPGGA,020013.00,3459.3510,N,12130.1533,W,1,08,1.0,5.9,M,-32.8,M,,*56
$PYRTM,2024,124.083515854259,15.193163264398
$GPGGA,020014.00,3459.3528,N,12130.1537,W,1,08,1.0,5.2,M,-32.8,M,,*55
$PYRTM,2024,124.083527435775,15.193174845914
$GPGGA,020015.00,3459.3541,N,12130.1542,W,1,08,1.0,5.8,M,-32.8,M,,*53
$PYRTM,2024,124.083539003808,15.193186413947
$GPGGA,020016.00,3459.3551,N,12130.1545,W,1,08,1.0,6.6,M,-32.8,M,,*5B
$PYRTM,2024,124.083550592685,15.193198002824
$GPGGA,020017.00,3459.3566,N,12130.1546,W,1,08,1.0,7.4,M,-32.8,M,,*5E
$PYRTM,2024,124.083561005660,15.193208415799
$GPGGA,020018.00,3459.3585,N,12130.1545,W,1,08,1.0,7.0,M,-32.8,M,,*5B
$PYRTM,2024,124.083573733183,15.193221143322
$GPGGA,020019.00,3459.3600,N,12130.1550,W,1,08,1.0,6.7,M,-32.8,M,,*56
$PYRTM,2024,124.083585299931,15.193232710069
$GPGGA,020020.00,3459.3607,N,12130.1557,W,1,08,1.0,6.8,M,-32.8,M,,*53
$PYRTM,2024,124.083596880324,15.193244290463
$GPGGA,020021.00,3459.3614,N,12130.1558,W,1,08,1.0,7.9,M,-32.8,M,,*5F
$PYRTM,2024,124.083608446076,15.193255856215
$GPGGA,020022.00,3459.3629,N,12130.1553,W,1,08,1.0,9.0,M,-32.8,M,,*5E
$PYRTM,2024,124.083620036898,15.193267447037
$GPGGA,020023.00,3459.3649,N,12130.1551,W,1,08,1.0,7.3,M,-32.8,M,,*56
$PYRTM,2024,124.083631594410,15.193279004549
$GPGGA,020024.00,3459.3662,N,12130.1555,W,1,08,1.0,7.3,M,-32.8,M,,*5C
$PYRTM,2024,124.083643184039,15.193290594190
$GPGGA,020025.00,3459.3671,N,12130.1562,W,1,08,1.0,8.2,M,-32.8,M,,*55
$PYRTM,2024,124.083654743588,15.193302153727
$GPGGA,020026.00,3459.3683,N,12130.1567,W,1,08,1.0,7.8,M,-32.8,M,,*5B
$PYRTM,2024,124.083666330590,15.193313740729
$GPGGA,020027.00,3459.3698,N,12130.1571,W,1,08,1.0,8.3,M,-32.8,M,,*53
$PYRTM,2024,124.083677891308,15.193325301447
$GPGGA,020028.00,3459.3710,N,12130.1575,W,1,08,1.0,8.5,M,-32.8,M,,*5F
$PYRTM,2024,124.083689478368,15.193336888507
$GPGGA,020029.00,3459.3719,N,12130.1580,W,1,08,1.0,9.6,M,-32.8,M,,*5F
$PYRTM,2024,124.083701041204,15.193348451343
$GPGGA,020030.00,3459.3726,N,12130.1582,W,1,08,1.0,10.4,M,-32.8,M,,*63
$PYRTM,2024,124.083712626748,15.193360036887
$GPGGA,020031.00,3459.3738,N,12130.1583,W,1,08,1.0,11.3,M,-32.8,M,,*6A
$PYRTM,2024,124.083724189213,15.193371599352
$GPGGA,020032.00,3459.3754,N,12130.1586,W,1,08,1.0,8.7,M,-32.8,M,,*5A
$PYRTM,2024,124.083735775532,15.193383185671
$GPGGA,020033.00,3459.3768,N,12130.1593,W,1,08,1.0,7.6,M,-32.8,M,,*5E
$PYRTM,2024,124.083747336620,15.193394746759
$GPGGA,020034.00,3459.3778,N,12130.1598,W,1,08,1.0,8.3,M,-32.8,M,,*59
$PYRTM,2024,124.083758917998,15.193406328137
$GPGGA,020035.00,3459.3788,N,12130.1597,W,1,08,1.0,9.1,M,-32.8,M,,*5B
$PYRTM,2024,124.083770485775,15.193417895914
$GPGGA,020036.00,3459.3801,N,12130.1596,W,1,08,1.0,9.7,M,-32.8,M,,*51
$PYRTM,2024,124.083780670602,15.193428080752
$GPGGA,020037.00,3459.3820,N,12130.1601,W,1,09,1.0,9.1,M,-32.8,M,,*59
$PYRTM,2024,124.083792489387,15.193439899525
$GPGGA,020038.00,3459.3833,N,12130.1610,W,1,09,1.0,8.2,M,-32.8,M,,*56
$PYRTM,2024,124.083805223854,15.193452633993
$GPGGA,020039.00,3459.3838,N,12130.1617,W,1,09,0.8,8.1,M,-32.8,M,,*51
$PYRTM,2024,124.083816781574,15.193464191713
$GPGGA,020040.00,3459.3846,N,12130.1616,W,1,09,0.8,7.7,M,-32.8,M,,*5E
$PYRTM,2024,124.083828369838,15.193475779977
$GPGGA,020041.00,3459.3863,N,12130.1613,W,1,09,1.0,8.0,M,-32.8,M,,*5C
$PYRTM,2024,124.083839932500,15.193487342639
$GPGGA,020042.00,3459.3880,N,12130.1615,W,1,09,0.8,7.1,M,-32.8,M,,*53
$PYRTM,2024,124.083851521609,15.193498931748
$GPGGA,020043.00,3459.3890,N,12130.1622,W,1,09,0.8,7.1,M,-32.8,M,,*57
$PYRTM,2024,124.083863082280,15.193510492419
$GPGGA,020044.00,3459.3899,N,12130.1629,W,1,09,0.8,7.3,M,-32.8,M,,*50
$PYRTM,2024,124.083874656644,15.193522066782
$GPGGA,020045.00,3459.3911,N,12130.1632,W,1,09,0.8,7.4,M,-32.8,M,,*5D
$PYRTM,2024,124.083886228958,15.193533639109
$GPGGA,020046.00,3459.3925,N,12130.1633,W,1,09,0.8,7.3,M,-32.8,M,,*5F
$PYRTM,2024,124.083897817708,15.193545227859
$GPGGA,020047.00,3459.3936,N,12130.1635,W,1,08,1.0,8.1,M,-32.8,M,,*5F
$PYRTM,2024,124.083909377731,15.193556787870
$GPGGA,020048.00,3459.3945,N,12130.1640,W,1,09,0.8,7.8,M,-32.8,M,,*58
$PYRTM,2024,124.083920965174,15.193568375312
$GPGGA,020049.00,3459.3956,N,12130.1647,W,1,09,0.8,7.6,M,-32.8,M,,*52
$PYRTM,2024,124.083932526551,15.193579936690
$GPGGA,020050.00,3459.3967,N,12130.1651,W,1,09,0.8,7.6,M,-32.8,M,,*5F
$PYRTM,2024,124.083944126354,15.193591536493
$GPGGA,020051.00,3459.3976,N,12130.1653,W,1,09,0.8,7.9,M,-32.8,M,,*53
$PYRTM,2024,124.083955672060,15.193603082199
$GPGGA,020052.00,3459.3988,N,12130.1652,W,1,09,0.8,8.1,M,-32.8,M,,*57
$PYRTM,2024,124.083967274236,15.193614684375
$GPGGA,020053.00,3459.4002,N,12130.1653,W,1,09,0.8,7.9,M,-32.8,M,,*5C
$PYRTM,2024,124.083978821088,15.193626231227
$GPGGA,020054.00,3459.4016,N,12130.1657,W,1,09,0.8,7.7,M,-32.8,M,,*54
$PYRTM,2024,124.083990410486,15.193637820625
$GPGGA,020055.00,3459.4027,N,12130.1661,W,1,09,0.8,7.9,M,-32.8,M,,*5C
$PYRTM,2024,124.084001968854,15.193649378993
$GPGGA,020056.00,3459.4041,N,12130.1666,W,1,09,0.8,7.7,M,-32.8,M,,*56
$PYRTM,2024,124.084013558831,15.193660968970
$GPGGA,020057.00,3459.4054,N,12130.1670,W,1,08,1.0,7.2,M,-32.8,M,,*59
$PYRTM,2024,124.084025115856,15.193672525995
$GPGGA,020058.00,3459.4066,N,12130.1673,W,1,08,1.0,7.1,M,-32.8,M,,*57
$PYRTM,2024,124.084036697766,15.193684107905
$GPGGA,020059.00,3459.4080,N,12130.1674,W,1,08,1.0,7.0,M,-32.8,M,,*58
$PYRTM,2024,124.084048264005,15.193695674144
$GPGGA,020100.00,3459.4096,N,12130.1678,W,1,08,1.0,6.3,M,-32.8,M,,*5C
$PYRTM,2024,124.084059853623,15.193707263762
$GPGGA,020101.00,3459.4110,N,12130.1686,W,1,08,1.0,5.8,M,-32.8,M,,*5B
$PYRTM,2024,124.084071528553,15.193718938704
$GPGGA,020102.00,3459.4118,N,12130.1692,W,1,08,1.0,5.6,M,-32.8,M,,*5B
$PYRTM,2024,124.084082999977,15.193730410116
$GPGGA,020103.00,3459.4126,N,12130.1695,W,1,08,1.0,4.9,M,-32.8,M,,*5E
$PYRTM,2024,124.084094573507,15.193741983646
$GPGGA,020104.00,3459.4141,N,12130.1698,W,1,08,1.0,4.0,M,-32.8,M,,*5C
$PYRTM,2024,124.084106151308,15.193753561447
$GPGGA,020105.00,3459.4160,N,12130.1704,W,1,08,1.0,3.3,M,-32.8,M,,*5E
$PYRTM,2024,124.084117721528,15.193765131667
$GPGGA,020106.00,3459.4170,N,12130.1709,W,1,08,1.0,2.9,M,-32.8,M,,*5A
$PYRTM,2024,124.084127902454,15.193775312593
$GPGGA,020107.00,3459.4175,N,12130.1713,W,1,08,1.0,1.0,M,-32.8,M,,*5F
$PYRTM,2024,124.084139712650,15.193787122789
$GPGGA,020108.00,3459.4187,N,12130.1714,W,1,08,1.0,1.5,M,-32.8,M,,*5F
$PYRTM,2024,124.084152448137,15.193799858275
$GPGGA,020109.00,3459.4204,N,12130.1720,W,1,08,1.0,0.5,M,-32.8,M,,*50
$PYRTM,2024,124.084164020255,15.193811430394
$GPGGA,020110.00,3459.4214,N,12130.1728,W,1,08,1.0,-1.5,M,-32.8,M,,*7D
$PYRTM,2024,124.084175593576,15.193823003715
$GPGGA,020111.00,3459.4218,N,12130.1734,W,1,08,1.0,-1.8,M,-32.8,M,,*70
$PYRTM,2024,124.084187167060,15.193834577211
$GPGGA,020112.00,3459.4226,N,12130.1736,W,1,08,1.0,-2.4,M,-32.8,M,,*73
$PYRTM,2024,124.084198743681,15.193846153831
$GPGGA,020113.00,3459.4240,N,12130.1739,W,1,08,1.0,-2.5,M,-32.8,M,,*7C
$PYRTM,2024,124.084210315683,15.193857725822
$GPGGA,020114.00,3459.4250,N,12130.1745,W,1,08,1.0,-2.8,M,-32.8,M,,*7C
$PYRTM,2024,124.084221889641,15.193869299792
$GPGGA,020115.00,3459.4258,N,12130.1750,W,1,08,1.0,-2.6,M,-32.8,M,,*7F
$PYRTM,2024,124.084232871435,15.193880281574
$GPGGA,020116.00,3459.4270,N,12130.1754,W,1,08,1.0,-2.5,M,-32.8,M,,*71
$PYRTM,2024,124.084243648275,15.193891058414
$GPGGA,020117.00,3459.4286,N,12130.1758,W,1,08,1.0,-2.7,M,-32.8,M,,*77
$PYRTM,2024,124.084254759560,15.193902169699
$GPGGA,020118.00,3459.4299,N,12130.1765,W,1,08,1.0,-2.7,M,-32.8,M,,*78
$PYRTM,2024,124.084265866447,15.193913276586
$GPGGA,020119.00,3459.4308,N,12130.1770,W,1,08,1.0,-2.4,M,-32.8,M,,*77
$PYRTM,2024,124.084276984213,15.193924394352
$GPGGA,020120.00,3459.4320,N,12130.1775,W,1,08,1.0,-2.2,M,-32.8,M,,*74
$PYRTM,2024,124.084288089664,15.193935499815
$GPGGA,020121.00,3459.4337,N,12130.1779,W,1,08,1.0,-2.9,M,-32.8,M,,*74
$PYRTM,2024,124.084299204572,15.193946614711
$GPGGA,020122.00,3459.4348,N,12130.1782,W,1,08,1.0,-2.5,M,-32.8,M,,*77
$PYRTM,2024,124.084310316597,15.193957726736
$GPGGA,020123.00,3459.4356,N,12130.1785,W,1,08,1.0,-2.0,M,-32.8,M,,*7B
$PYRTM,2024,124.084321426551,15.193968836690
$GPGGA,020124.00,3459.4367,N,12130.1787,W,1,08,1.0,-3.2,M,-32.8,M,,*7F
$PYRTM,2024,124.084339934063,15.193987344213
$GPGGA,020125.00,3459.4385,N,12130.1791,W,1,08,1.0,-4.4,M,-32.8,M,,*74
$PYRTM,2024,124.084351056192,15.193998466331
$GPGGA,020126.00,3459.4398,N,12130.1798,W,1,08,1.0,-1.7,M,-32.8,M,,*74
$PYRTM,2024,124.084362155671,15.194009565822
$GPGGA,020127.00,3459.4406,N,12130.1803,W,1,08,1.0,-1.8,M,-32.8,M,,*77
$PYRTM,2024,124.084373266551,15.194020676690
$GPGGA,020128.00,3459.4416,N,12130.1803,W,1,08,1.0,-2.5,M,-32.8,M,,*77
$PYRTM,2024,124.084384385301,15.194031795440
$GPGGA,020129.00,3459.4434,N,12130.1801,W,1,08,1.0,-1.6,M,-32.8,M,,*74
$PYRTM,2024,124.084395501736,15.194042911875
$GPGGA,020130.00,3459.4451,N,12130.1806,W,1,08,1.0,-0.4,M,-32.8,M,,*7B
$PYRTM,2024,124.084406614051,15.194054024190
$GPGGA,020131.00,3459.4461,N,12130.1815,W,1,08,1.0,-0.4,M,-32.8,M,,*7B
$PYRTM,2024,124.084417723704,15.194065133854
$GPGGA,020132.00,3459.4470,N,12130.1821,W,1,08,1.0,-1.2,M,-32.8,M,,*78
$PYRTM,2024,124.084428835764,15.194076245903
$GPGGA,020133.00,3459.4482,N,12130.1823,W,1,08,1.0,-1.1,M,-32.8,M,,*75
$PYRTM,2024,124.084440409537,15.194087819687
$GPGGA,020134.00,3459.4495,N,12130.1825,W,1,08,1.0,-1.7,M,-32.8,M,,*74
$PYRTM,2024,124.084451534641,15.194098944780
$GPGGA,020135.00,3459.4503,N,12130.1830,W,1,08,1.0,-1.7,M,-32.8,M,,*7F
$PYRTM,2024,124.084462631644,15.194110041782
$GPGGA,020136.00,3459.4509,N,12130.1837,W,1,08,1.0,-2.1,M,-32.8,M,,*74
$PYRTM,2024,124.084478707465,15.194126117604
$GPGGA,020137.00,3459.4521,N,12130.1843,W,1,08,1.0,-2.0,M,-32.8,M,,*7D
$PYRTM,2024,124.084489830370,15.194137240509
$GPGGA,020138.00,3459.4536,N,12130.1845,W,1,08,1.0,-2.2,M,-32.8,M,,*70
$PYRTM,2024,124.084500929028,15.194148339167
$GPGGA,020139.00,3459.4547,N,12130.1847,W,1,08,1.0,-2.2,M,-32.8,M,,*75
$PYRTM,2024,124.084512052836,15.194159462975
$GPGGA,020140.00,3459.4555,N,12130.1853,W,1,08,1.0,-2.8,M,-32.8,M,,*77
$PYRTM,2024,124.084523163843,15.194170573981
$GPGGA,020141.00,3459.4566,N,12130.1862,W,1,08,1.0,-2.6,M,-32.8,M,,*7A
$PYRTM,2024,124.084534390475,15.194181800613
$GPGGA,020142.00,3459.4579,N,12130.1870,W,1,08,1.0,-2.0,M,-32.8,M,,*72
$PYRTM,2024,124.084545960255,15.194193370394
$GPGGA,020143.00,3459.4592,N,12130.1872,W,1,08,1.0,-2.1,M,-32.8,M,,*75
$PYRTM,2024,124.084557540498,15.194204950637
$GPGGA,020144.00,3459.4605,N,12130.1873,W,1,08,1.0,-2.1,M,-32.8,M,,*7E
$PYRTM,2024,124.084569116389,15.194216526528
$GPGGA,020145.00,3459.4620,N,12130.1877,W,1,08,1.0,0.4,M,-32.8,M,,*56
$PYRTM,2024,124.084580688553,15.194228098692
$GPGGA,020146.00,3459.4636,N,12130.1885,W,1,08,1.0,-2.9,M,-32.8,M,,*7D
$PYRTM,2024,124.084592265532,15.194239675683
$GPGGA,020147.00,3459.4647,N,12130.1895,W,1,08,1.0,-3.0,M,-32.8,M,,*73
$PYRTM,2024,124.084603836088,15.194251246227
$GPGGA,020148.00,3459.4655,N,12130.1899,W,1,08,1.0,-2.7,M,-32.8,M,,*75
$PYRTM,2024,124.084615425579,15.194262835718
$GPGGA,020149.00,3459.4668,N,12130.1898,W,1,08,1.0,0.1,M,-32.8,M,,*52
$PYRTM,2024,124.084626985093,15.194274395231
$GPGGA,020150.00,3459.4686,N,12130.1898,W,1,08,1.0,-3.3,M,-32.8,M,,*76
$PYRTM,2024,124.084638562130,15.194285972269
$GPGGA,020151.00,3459.4700,N,12130.1905,W,1,08,1.0,-3.3,M,-32.8,M,,*7D
$PYRTM,2024,124.084650132164,15.194297542303
$GPGGA,020152.00,3459.4708,N,12130.1913,W,1,08,1.0,-3.9,M,-32.8,M,,*7B
$PYRTM,2024,124.084661701551,15.194309111690
$GPGGA,020153.00,3459.4713,N,12130.1917,W,1,08,1.0,-4.1,M,-32.8,M,,*7B
$PYRTM,2024,124.084673280648,15.194320690787
$GPGGA,020154.00,3459.4727,N,12130.1917,W,1,08,1.0,-3.7,M,-32.8,M,,*7A
$PYRTM,2024,124.084684855880,15.194332266019
$GPGGA,020155.00,3459.4745,N,12130.1920,W,1,08,1.0,-3.1,M,-32.8,M,,*7D
$PYRTM,2024,124.084696424745,15.194343834884
$GPGGA,020156.00,3459.4760,N,12130.1924,W,1,08,1.0,-3.8,M,-32.8,M,,*74
$PYRTM,2024,124.084708006435,15.194355416574
$GPGGA,020157.00,3459.4768,N,12130.1930,W,1,08,1.0,-3.1,M,-32.8,M,,*71
$PYRTM,2024,124.084719579109,15.194366989248
$GPGGA,020158.00,3459.4779,N,12130.1933,W,1,08,1.0,-2.8,M,-32.8,M,,*75
$PYRTM,2024,124.084731152176,15.194378562315
$GPGGA,020159.00,3459.4796,N,12130.1934,W,1,08,1.0,-3.9,M,-32.8,M,,*72
$PYRTM,2024,124.084742724896,15.194390135046
$GPGGA,020200.00,3459.4817,N,12130.1936,W,1,08,1.0,-3.5,M,-32.8,M,,*75
$PYRTM,2024,124.084754299502,15.194401709641
$GPGGA,020201.00,3459.4831,N,12130.1941,W,1,08,1.0,-2.5,M,-32.8,M,,*71
$PYRTM,2024,124.084765879190,15.194413289329
$GPGGA,020202.00,3459.4838,N,12130.1947,W,1,08,1.0,-2.6,M,-32.8,M,,*7E
$PYRTM,2024,124.084777451366,15.194424861505
$GPGGA,020203.00,3459.4849,N,12130.1950,W,1,08,1.0,-2.3,M,-32.8,M,,*7A
$PYRTM,2024,124.084789022049,15.194436432188
$GPGGA,020204.00,3459.4864,N,12130.1951,W,1,08,1.0,-2.4,M,-32.8,M,,*74
$PYRTM,2024,124.084800600289,15.194448010428
$GPGGA,020205.00,3459.4879,N,12130.1953,W,1,08,1.0,-2.0,M,-32.8,M,,*7F
$PYRTM,2024,124.084812171910,15.194459582049
$GPGGA,020206.00,3459.4893,N,12130.1956,W,1,08,1.0,-2.2,M,-32.8,M,,*7F
$PYRTM,2024,124.084822355949,15.194469766088
$GPGGA,020207.00,3459.4906,N,12130.1961,W,1,08,1.0,-2.8,M,-32.8,M,,*7D
$PYRTM,2024,124.084834278345,15.194481688484
$GPGGA,020208.00,3459.4918,N,12130.1965,W,1,08,1.0,-2.9,M,-32.8,M,,*78
$PYRTM,2024,124.084846895718,15.194494305856
$GPGGA,020209.00,3459.4925,N,12130.1969,W,1,08,1.0,-3.1,M,-32.8,M,,*72
$PYRTM,2024,124.084858462245,15.194505872384
$GPGGA,020210.00,3459.4937,N,12130.1972,W,1,08,1.0,-2.9,M,-32.8,M,,*7A
$PYRTM,2024,124.084870036123,15.194517446262
$GPGGA,020211.00,3459.4953,N,12130.1976,W,1,08,1.0,-2.8,M,-32.8,M,,*7C
$PYRTM,2024,124.084881615336,15.194529025475
$GPGGA,020212.00,3459.4966,N,12130.1982,W,1,08,1.0,-2.3,M,-32.8,M,,*79
$PYRTM,2024,124.084893189850,15.194540599988
$GPGGA,020213.00,3459.4976,N,12130.1987,W,1,08,1.0,-2.1,M,-32.8,M,,*7E
$PYRTM,2024,124.084904764352,15.194552174491
$GPGGA,020214.00,3459.4989,N,12130.1990,W,1,08,1.0,-1.9,M,-32.8,M,,*74
$PYRTM,2024,124.084916339537,15.194563749688
$GPGGA,020215.00,3459.5005,N,12130.1995,W,1,08,1.0,0.0,M,-32.8,M,,*59
$PYRTM,2024,124.084927911539,15.194575321678
$GPGGA,020216.00,3459.5018,N,12130.1999,W,1,08,1.0,0.6,M,-32.8,M,,*5C
$PYRTM,2024,124.084939489433,15.194586899572
$GPGGA,020217.00,3459.5027,N,12130.2002,W,1,08,1.0,1.4,M,-32.8,M,,*5A
$PYRTM,2024,124.084951060914,15.194598471065
$GPGGA,020218.00,3459.5043,N,12130.2002,W,1,08,1.3,1.3,M,-32.8,M,,*53
$PYRTM,2024,124.084962649907,15.194610060046
$GPGGA,020219.00,3459.5061,N,12130.2004,W,1,08,1.3,1.4,M,-32.8,M,,*53
$PYRTM,2024,124.084974209005,15.194621619144
$GPGGA,020220.00,3459.5074,N,12130.2011,W,1,08,1.3,1.1,M,-32.8,M,,*5C
$PYRTM,2024,124.084985784572,15.194633194711
$GPGGA,020221.00,3459.5084,N,12130.2017,W,1,08,1.3,0.5,M,-32.8,M,,*51
$PYRTM,2024,124.084997358299,15.194644768437
$GPGGA,020222.00,3459.5096,N,12130.2020,W,1,08,1.3,1.6,M,-32.8,M,,*57
$PYRTM,2024,124.085008931250,15.194656341389
$GPGGA,020223.00,3459.5114,N,12130.2019,W,1,08,1.3,2.0,M,-32.8,M,,*52
$PYRTM,2024,124.085020506285,15.194667916424
$GPGGA,020224.00,3459.5131,N,12130.2020,W,1,08,1.3,1.0,M,-32.8,M,,*5B
$PYRTM,2024,124.085032079815,15.194679489954
$GPGGA,020225.00,3459.5145,N,12130.2026,W,1,08,1.3,0.5,M,-32.8,M,,*5B
$PYRTM,2024,124.085043651956,15.194691062095
$GPGGA,020226.00,3459.5155,N,12130.2034,W,1,08,1.3,0.2,M,-32.8,M,,*5D
$PYRTM,2024,124.085055227824,15.194702637963
$GPGGA,020227.00,3459.5165,N,12130.2038,W,1,08,1.3,-0.3,M,-32.8,M,,*7F
$PYRTM,2024,124.085066801898,15.194714212037
$GPGGA,020228.00,3459.5180,N,12130.2036,W,1,08,1.3,1.4,M,-32.8,M,,*5E
$PYRTM,2024,124.085078377477,15.194725787616
$GPGGA,020229.00,3459.5199,N,12130.2036,W,1,08,1.3,-0.3,M,-32.8,M,,*7C
$PYRTM,2024,124.085089950162,15.194737360301
$GPGGA,020230.00,3459.5213,N,12130.2042,W,1,08,1.3,-1.0,M,-32.8,M,,*74
$PYRTM,2024,124.085101525347,15.194748935498
$GPGGA,020231.00,3459.5222,N,12130.2050,W,1,08,1.3,-0.4,M,-32.8,M,,*71
$PYRTM,2024,124.085113098345,15.194760508484
$GPGGA,020232.00,3459.5231,N,12130.2055,W,1,08,1.3,-0.1,M,-32.8,M,,*70
$PYRTM,2024,124.085124687454,15.194772097593
$GPGGA,020233.00,3459.5245,N,12130.2055,W,1,08,1.3,0.3,M,-32.8,M,,*5D
$PYRTM,2024,124.085136241956,15.194783652095
$GPGGA,020234.00,3459.5260,N,12130.2057,W,1,08,1.3,-1.0,M,-32.8,M,,*70
$PYRTM,2024,124.085147821701,15.194795231840
$GPGGA,020235.00,3459.5269,N,12130.2065,W,1,08,1.3,-1.9,M,-32.8,M,,*70
$PYRTM,2024,124.085159394352,15.194806804491
$GPGGA,020236.00,3459.5279,N,12130.2075,W,1,08,1.3,-1.6,M,-32.8,M,,*7C
$PYRTM,2024,124.085169580567,15.194816990706
$GPGGA,020237.00,3459.5294,N,12130.2081,W,1,08,1.3,-1.5,M,-32.8,M,,*76
$PYRTM,2024,124.085181501250,15.194828911389
$GPGGA,020238.00,3459.5309,N,12130.2083,W,1,08,1.3,-2.6,M,-32.8,M,,*7E
$PYRTM,2024,124.085194118009,15.194841528160
$GPGGA,020239.00,3459.5322,N,12130.2086,W,1,08,1.3,-2.0,M,-32.8,M,,*75
$PYRTM,2024,124.085205686678,15.194853096817
$GPGGA,020240.00,3459.5335,N,12130.2092,W,1,08,1.3,-4.0,M,-32.8,M,,*7E
$PYRTM,2024,124.085217269595,15.194864679745
$GPGGA,020241.00,3459.5351,N,12130.2102,W,1,08,1.3,-5.7,M,-32.8,M,,*73
$PYRTM,2024,124.085228841632,15.194876251782
$GPGGA,020242.00,3459.5365,N,12130.2111,W,1,08,1.3,-6.4,M,-32.8,M,,*75
$PYRTM,2024,124.085240413241,15.194887823380
$GPGGA,020243.00,3459.5377,N,12130.2113,W,1,08,1.3,-6.4,M,-32.8,M,,*75
$PYRTM,2024,124.085251987500,15.194899397639
$GPGGA,020244.00,3459.5388,N,12130.2112,W,1,08,1.3,-5.9,M,-32.8,M,,*7D
$PYRTM,2024,124.085263566898,15.194910977049
$GPGGA,020245.00,3459.5403,N,12130.2115,W,1,08,1.3,-6.1,M,-32.8,M,,*74
$PYRTM,2024,124.085275137060,15.194922547199
$GPGGA,020246.00,3459.5421,N,12130.2126,W,1,08,1.3,-6.9,M,-32.8,M,,*7F
$PYRTM,2024,124.085286714248,15.194934124387
$GPGGA,020247.00,3459.5435,N,12130.2136,W,1,08,1.3,-6.2,M,-32.8,M,,*71
$PYRTM,2024,124.085298284641,15.194945694780
$GPGGA,020248.00,3459.5446,N,12130.2137,W,1,08,1.3,-5.1,M,-32.8,M,,*7B
$PYRTM,2024,124.085309859294,15.194957269433
$GPGGA,020249.00,3459.5459,N,12130.2134,W,1,08,1.3,-3.8,M,-32.8,M,,*78
$PYRTM,2024,124.085321434178,15.194968844317
$GPGGA,020250.00,3459.5476,N,12130.2136,W,1,08,1.3,-3.3,M,-32.8,M,,*74
$PYRTM,2024,124.085333009583,15.194980419722
$GPGGA,020251.00,3459.5493,N,12130.2144,W,1,08,1.3,-3.0,M,-32.8,M,,*78
$PYRTM,2024,124.085344581944,15.194991992083
$GPGGA,020252.00,3459.5508,N,12130.2153,W,1,08,1.3,-4.4,M,-32.8,M,,*7D
$PYRTM,2024,124.085356156852,15.195003566991
$GPGGA,020253.00,3459.5521,N,12130.2157,W,1,08,1.3,-4.9,M,-32.8,M,,*7E
$PYRTM,2024,124.085367725069,15.195015135208
$GPGGA,020254.00,3459.5533,N,12130.2155,W,1,08,1.3,-3.9,M,-32.8,M,,*7F
$PYRTM,2024,124.085379303692,15.195026713831
$GPGGA,020255.00,3459.5550,N,12130.2151,W,1,08,1.3,-5.2,M,-32.8,M,,*72
$PYRTM,2024,124.085390878218,15.195038288356
$GPGGA,020256.00,3459.5571,N,12130.2154,W,1,08,1.3,-6.0,M,-32.8,M,,*76
$PYRTM,2024,124.085402454086,15.195049864225
$GPGGA,020257.00,3459.5585,N,12130.2167,W,1,08,1.3,-6.4,M,-32.8,M,,*78
$PYRTM,2024,124.085414026181,15.195061436319
$GPGGA,020258.00,3459.5589,N,12130.2176,W,1,08,1.3,-6.7,M,-32.8,M,,*78
$PYRTM,2024,124.085425604167,15.195073014306
$GPGGA,020259.00,3459.5597,N,12130.2175,W,1,08,1.3,-7.2,M,-32.8,M,,*71
$PYRTM,2024,124.085437174144,15.195084584282
$GPGGA,020300.00,3459.5614,N,12130.2169,W,1,08,1.3,-7.4,M,-32.8,M,,*7F
$PYRTM,2024,124.085448764120,15.195096174259
$GPGGA,020301.00,3459.5632,N,12130.2169,W,1,08,1.3,-7.6,M,-32.8,M,,*78
$PYRTM,2024,124.085460322581,15.195107732720
$GPGGA,020302.00,3459.5642,N,12130.2180,W,1,08,1.3,-7.8,M,-32.8,M,,*75
$PYRTM,2024,124.085471901250,15.195119311389
$GPGGA,020303.00,3459.5650,N,12130.2192,W,1,08,1.3,-6.9,M,-32.8,M,,*74
$PYRTM,2024,124.085483472951,15.195130883090
$GPGGA,020304.00,3459.5663,N,12130.2197,W,1,08,1.3,-6.6,M,-32.8,M,,*79
$PYRTM,2024,124.085495033947,15.195142444086
$GPGGA,020305.00,3459.5680,N,12130.2194,W,1,08,1.3,-5.6,M,-32.8,M,,*75
$PYRTM,2024,124.085506615984,15.195154026123
$GPGGA,020306.00,3459.5695,N,12130.2190,W,1,08,1.3,-4.7,M,-32.8,M,,*76
$PYRTM,2024,124.085516805417,15.195164215567
$GPGGA,020307.00,3459.5710,N,12130.2191,W,1,08,1.3,-5.1,M,-32.8,M,,*7D
$PYRTM,2024,124.085528721655,15.195176131794
$GPGGA,020308.00,3459.5721,N,12130.2202,W,1,08,1.3,-4.0,M,-32.8,M,,*79
$PYRTM,2024,124.085541342882,15.195188753021
$GPGGA,020309.00,3459.5730,N,12130.2211,W,1,08,1.3,-3.2,M,-32.8,M,,*7F
$PYRTM,2024,124.085552917778,15.195200327917
$GPGGA,020310.00,3459.5742,N,12130.2208,W,1,08,1.3,-2.8,M,-32.8,M,,*71
$PYRTM,2024,124.085564490405,15.195211900544
$GPGGA,020311.00,3459.5759,N,12130.2202,W,1,08,1.3,-2.0,M,-32.8,M,,*78
$PYRTM,2024,124.085576060637,15.195223470775
$GPGGA,020312.00,3459.5778,N,12130.2203,W,1,08,1.3,-3.0,M,-32.8,M,,*78
$PYRTM,2024,124.085587638924,15.195235049074
$GPGGA,020313.00,3459.5789,N,12130.2213,W,1,08,1.3,-3.3,M,-32.8,M,,*75
$PYRTM,2024,124.085599200660,15.195246610799
$GPGGA,020314.00,3459.5795,N,12130.2224,W,1,08,1.3,-3.4,M,-32.8,M,,*7C
$PYRTM,2024,124.085610790752,15.195258200891
$GPGGA,020315.00,3459.5807,N,12130.2227,W,1,08,1.3,-5.7,M,-32.8,M,,*7F
$PYRTM,2024,124.085622361574,15.195269771713
$GPGGA,020316.00,3459.5823,N,12130.2228,W,1,08,1.3,-4.9,M,-32.8,M,,*7A
$PYRTM,2024,124.085633949491,15.195281359630
$GPGGA,020317.00,3459.5838,N,12130.2230,W,1,08,1.3,-3.8,M,-32.8,M,,*7E
$PYRTM,2024,124.085645511100,15.195292921238
$GPGGA,020318.00,3459.5848,N,12130.2235,W,1,08,1.3,-2.6,M,-32.8,M,,*7C
$PYRTM,2024,124.085656158542,15.195303568681
$GPGGA,020319.00,3459.5860,N,12130.2243,W,1,08,1.3,-1.7,M,-32.8,M,,*74
$PYRTM,2024,124.085668064826,15.195315474965
$GPGGA,020320.00,3459.5876,N,12130.2251,W,1,08,1.3,-1.2,M,-32.8,M,,*7F
$PYRTM,2024,124.085678842384,15.195326252523
$GPGGA,020321.00,3459.5891,N,12130.2255,W,1,08,1.3,-1.4,M,-32.8,M,,*75
$PYRTM,2024,124.085689949213,15.195337359352
$GPGGA,020322.00,3459.5901,N,12130.2256,W,1,08,1.3,-0.8,M,-32.8,M,,*70
$PYRTM,2024,124.085701068021,15.195348478160
$GPGGA,020323.00,3459.5913,N,12130.2260,W,1,08,1.3,-0.5,M,-32.8,M,,*7A
$PYRTM,2024,124.085712175961,15.195359586100
$GPGGA,020324.00,3459.5931,N,12130.2266,W,1,08,1.3,-0.2,M,-32.8,M,,*7C
$PYRTM,2024,124.085723289178,15.195370699317
$GPGGA,020325.00,3459.5946,N,12130.2275,W,1,08,1.3,-0.9,M,-32.8,M,,*74
$PYRTM,2024,124.085734399757,15.195381809896
$GPGGA,020326.00,3459.5954,N,12130.2279,W,1,08,1.3,-1.2,M,-32.8,M,,*72
$PYRTM,2024,124.085745510891,15.195392921030
$GPGGA,020327.00,3459.5965,N,12130.2279,W,1,08,1.3,-1.3,M,-32.8,M,,*70
$PYRTM,2024,124.085756621354,15.195404031493
$GPGGA,020328.00,3459.5980,N,12130.2279,W,1,08,1.3,-1.3,M,-32.8,M,,*74
$PYRTM,2024,124.085774547350,15.195421957488
$GPGGA,020329.00,3459.5991,N,12130.2283,W,1,08,1.3,-1.1,M,-32.8,M,,*72
$PYRTM,2024,124.085785657477,15.195433067627
$GPGGA,020330.00,3459.6000,N,12130.2289,W,1,08,1.3,-1.2,M,-32.8,M,,*71
$PYRTM,2024,124.085796770162,15.195444180301
$GPGGA,020331.00,3459.6011,N,12130.2295,W,1,08,1.3,-0.5,M,-32.8,M,,*7B
$PYRTM,2024,124.085807880451,15.195455290590
$GPGGA,020332.00,3459.6025,N,12130.2298,W,1,08,1.3,0.4,M,-32.8,M,,*5E
$PYRTM,2024,124.085818876863,15.195466287014
$GPGGA,020333.00,3459.6040,N,12130.2299,W,1,08,1.3,0.6,M,-32.8,M,,*5F
$PYRTM,2024,124.085830462847,15.195477872986
$GPGGA,020334.00,3459.6053,N,12130.2303,W,1,08,1.3,0.5,M,-32.8,M,,*5B
$PYRTM,2024,124.085841574329,15.195488984468
$GPGGA,020335.00,3459.6064,N,12130.2308,W,1,08,1.3,-0.3,M,-32.8,M,,*7E
$PYRTM,2024,124.085852690035,15.195500100174
$GPGGA,020336.00,3459.6080,N,12130.2314,W,1,08,1.3,0.3,M,-32.8,M,,*57
$PYRTM,2024,124.085868311470,15.195515721609
$GPGGA,020337.00,3459.6095,N,12130.2319,W,1,08,1.3,-0.3,M,-32.8,M,,*72
$PYRTM,2024,124.085879425764,15.195526835903
$GPGGA,020338.00,3459.6107,N,12130.2322,W,1,08,1.3,-0.5,M,-32.8,M,,*79
$PYRTM,2024,124.085890533692,15.195537943831
$GPGGA,020339.00,3459.6118,N,12130.2322,W,1,08,1.3,-0.2,M,-32.8,M,,*71
$PYRTM,2024,124.085901646563,15.195549056701
$GPGGA,020340.00,3459.6134,N,12130.2322,W,1,08,1.3,0.7,M,-32.8,M,,*59
$PYRTM,2024,124.085912744016,15.195560154155
$GPGGA,020341.00,3459.6151,N,12130.2327,W,1,08,1.3,1.1,M,-32.8,M,,*59
$PYRTM,2024,124.085923870694,15.195571280833
$GPGGA,020342.00,3459.6166,N,12130.2337,W,1,08,1.3,0.0,M,-32.8,M,,*5F
$PYRTM,2024,124.085934991782,15.195582401921
$GPGGA,020343.00,3459.6176,N,12130.2345,W,1,08,1.3,-0.4,M,-32.8,M,,*73
$PYRTM,2024,124.085946435880,15.195593846007
$GPGGA,020344.00,3459.6184,N,12130.2343,W,1,08,1.3,-1.1,M,-32.8,M,,*7B
$PYRTM,2024,124.085958014190,15.195605424329
$GPGGA,020345.00,3459.6198,N,12130.2339,W,1,08,1.3,0.3,M,-32.8,M,,*54
$PYRTM,2024,124.085969583889,15.195616994028
$GPGGA,020346.00,3459.6217,N,12130.2343,W,1,08,1.3,1.0,M,-32.8,M,,*5C
$PYRTM,2024,124.085981161933,15.195628572072
$GPGGA,020347.00,3459.6234,N,12130.2353,W,1,08,1.3,-1.4,M,-32.8,M,,*74
$PYRTM,2024,124.085992721400,15.195640131539
$GPGGA,020348.00,3459.6243,N,12130.2360,W,1,08,1.3,-1.2,M,-32.8,M,,*7D
$PYRTM,2024,124.086004308634,15.195651718773
$GPGGA,020349.00,3459.6252,N,12130.2361,W,1,08,1.3,-1.1,M,-32.8,M,,*7E
$PYRTM,2024,124.086015881319,15.195663291458
$GPGGA,020350.00,3459.6269,N,12130.2362,W,1,08,1.3,-1.0,M,-32.8,M,,*7C
$PYRTM,2024,124.086027455590,15.195674865729
$GPGGA,020351.00,3459.6288,N,12130.2365,W,1,08,1.3,-0.2,M,-32.8,M,,*76
$PYRTM,2024,124.086039032002,15.195686442141
$GPGGA,020352.00,3459.6300,N,12130.2372,W,1,08,1.3,-0.3,M,-32.8,M,,*73
$PYRTM,2024,124.086050604317,15.195698014456
$GPGGA,020353.00,3459.6307,N,12130.2379,W,1,08,1.3,-0.6,M,-32.8,M,,*7B
$PYRTM,2024,124.086062178391,15.195709588519
$GPGGA,020354.00,3459.6319,N,12130.2382,W,1,08,1.3,-0.2,M,-32.8,M,,*73
$PYRTM,2024,124.086073751632,15.195721161771
$GPGGA,020355.00,3459.6335,N,12130.2384,W,1,08,1.3,0.1,M,-32.8,M,,*54
$PYRTM,2024,124.086085326377,15.195732736516
$GPGGA,020356.00,3459.6349,N,12130.2386,W,1,08,1.3,-0.8,M,-32.8,M,,*7A
$PYRTM,2024,124.086096913912,15.195744324051
$GPGGA,020357.00,3459.6360,N,12130.2391,W,1,08,1.3,-1.5,M,-32.8,M,,*7A
$PYRTM,2024,124.086108475301,15.195755885440
$GPGGA,020358.00,3459.6372,N,12130.2400,W,1,08,1.3,-1.6,M,-32.8,M,,*7A
$PYRTM,2024,124.086120063275,15.195767473414
$GPGGA,020359.00,3459.6381,N,12130.2407,W,1,08,1.3,-2.0,M,-32.8,M,,*75
$PYRTM,2024,124.086131622338,15.195779032477
$GPGGA,020400.00,3459.6389,N,12130.2408,W,1,08,1.3,-2.0,M,-32.8,M,,*79
$PYRTM,2024,124.086143197072,15.195790607211
$GPGGA,020401.00,3459.6404,N,12130.2405,W,1,08,1.3,-1.6,M,-32.8,M,,*72
$PYRTM,2024,124.086154770694,15.195802180833
$GPGGA,020402.00,3459.6422,N,12130.2407,W,1,08,1.3,-1.7,M,-32.8,M,,*76
$PYRTM,2024,124.086166345023,15.195813755162
$GPGGA,020403.00,3459.6435,N,12130.2415,W,1,08,1.3,-1.6,M,-32.8,M,,*73
$PYRTM,2024,124.086177919988,15.195825330127
$GPGGA,020404.00,3459.6446,N,12130.2424,W,1,08,1.3,-2.5,M,-32.8,M,,*72
$PYRTM,2024,124.086189483669,15.195836893808
$GPGGA,020405.00,3459.6458,N,12130.2428,W,1,08,1.3,-2.5,M,-32.8,M,,*70
$PYRTM,2024,124.086201067650,15.195848477789
$GPGGA,020406.00,3459.6471,N,12130.2429,W,1,08,1.3,-2.4,M,-32.8,M,,*78
$PYRTM,2024,124.086211716505,15.195859126644
$GPGGA,020407.00,3459.6482,N,12130.2429,W,1,08,1.3,-2.4,M,-32.8,M,,*75
$PYRTM,2024,124.086223174965,15.195870585104
$GPGGA,020408.00,3459.6494,N,12130.2432,W,1,08,1.3,-2.6,M,-32.8,M,,*75
$PYRTM,2024,124.086235792708,15.195883202847
$GPGGA,020409.00,3459.6510,N,12130.2439,W,1,08,1.3,-2.3,M,-32.8,M,,*77
$PYRTM,2024,124.086247366204,15.195894776343
$GPGGA,020410.00,3459.6524,N,12130.2444,W,1,08,1.3,-3.0,M,-32.8,M,,*70
$PYRTM,2024,124.086258939363,15.195906349502
$GPGGA,020411.00,3459.6537,N,12130.2448,W,1,08,1.3,-2.6,M,-32.8,M,,*78
$PYRTM,2024,124.086270512951,15.195917923090
$GPGGA,020412.00,3459.6550,N,12130.2453,W,1,08,1.3,-2.4,M,-32.8,M,,*72
$PYRTM,2024,124.086282090984,15.195929501123
$GPGGA,020413.00,3459.6563,N,12130.2458,W,1,08,1.3,-2.4,M,-32.8,M,,*78
$PYRTM,2024,124.086293660845,15.195941070984
$GPGGA,020414.00,3459.6576,N,12130.2460,W,1,08,1.3,-2.2,M,-32.8,M,,*76
$PYRTM,2024,124.086305235347,15.195952645486
$GPGGA,020415.00,3459.6590,N,12130.2462,W,1,08,1.3,-1.8,M,-32.8,M,,*74
$PYRTM,2024,124.086316809120,15.195964219259
$GPGGA,020416.00,3459.6606,N,12130.2468,W,1,08,1.3,-2.0,M,-32.8,M,,*7A
$PYRTM,2024,124.086328383565,15.195975793704
$GPGGA,020417.00,3459.6619,N,12130.2477,W,1,08,1.3,-3.0,M,-32.8,M,,*7A
$PYRTM,2024,124.086339957593,15.195987367731
$GPGGA,020418.00,3459.6631,N,12130.2484,W,1,08,1.3,-3.8,M,-32.8,M,,*7B
$PYRTM,2024,124.086351532014,15.195998942153
$GPGGA,020419.00,3459.6643,N,12130.2486,W,1,08,1.3,-4.1,M,-32.8,M,,*73
$PYRTM,2024,124.086363106308,15.196010516447
$GPGGA,020420.00,3459.6658,N,12130.2487,W,1,08,1.3,-2.8,M,-32.8,M,,*7D
$PYRTM,2024,124.086374680984,15.196022091123
$GPGGA,020421.00,3459.6675,N,12130.2489,W,1,08,1.3,-3.1,M,-32.8,M,,*75
$PYRTM,2024,124.086386253762,15.196033663900
$GPGGA,020422.00,3459.6691,N,12130.2496,W,1,08,1.3,-3.3,M,-32.8,M,,*70
$PYRTM,2024,124.086397828495,15.196045238634
$GPGGA,020423.00,3459.6705,N,12130.2505,W,1,08,1.3,-5.0,M,-32.8,M,,*73
$PYRTM,2024,124.086409402801,15.196056812940
$GPGGA,020424.00,3459.6719,N,12130.2512,W,1,08,1.3,-6.1,M,-32.8,M,,*7D
$PYRTM,2024,124.086420991447,15.196068401586
$GPGGA,020425.00,3459.6734,N,12130.2510,W,1,08,1.3,-6.2,M,-32.8,M,,*72
$PYRTM,2024,124.086432545683,15.196079955822
$GPGGA,020426.00,3459.6752,N,12130.2509,W,1,08,1.3,-7.0,M,-32.8,M,,*7A
$PYRTM,2024,124.086444140590,15.196091550729
$GPGGA,020427.00,3459.6771,N,12130.2515,W,1,08,1.3,-7.4,M,-32.8,M,,*73
$PYRTM,2024,124.086455699167,15.196103109317
$GPGGA,020428.00,3459.6782,N,12130.2524,W,1,08,1.3,-6.4,M,-32.8,M,,*73
$PYRTM,2024,124.086467273738,15.196114683877
$GPGGA,020429.00,3459.6792,N,12130.2528,W,1,08,1.3,-5.1,M,-32.8,M,,*79
$PYRTM,2024,124.086478847477,15.196126257616
$GPGGA,020430.00,3459.6810,N,12130.2532,W,1,08,1.3,-5.7,M,-32.8,M,,*79
$PYRTM,2024,124.086490424826,15.196137834965
$GPGGA,020431.00,3459.6830,N,12130.2538,W,1,08,1.3,-7.2,M,-32.8,M,,*77
$PYRTM,2024,124.086501995671,15.196149405810
$GPGGA,020432.00,3459.6839,N,12130.2545,W,1,08,1.3,-7.7,M,-32.8,M,,*72
$PYRTM,2024,124.086513569815,15.196160979954
$GPGGA,020433.00,3459.6842,N,12130.2548,W,1,08,1.3,-7.6,M,-32.8,M,,*73
$PYRTM,2024,124.086525144039,15.196172554178
$GPGGA,020434.00,3459.6852,N,12130.2544,W,1,08,1.3,-8.9,M,-32.8,M,,*79
$PYRTM,2024,124.086536718553,15.196184128692
$GPGGA,020435.00,3459.6870,N,12130.2544,W,1,08,1.3,-6.8,M,-32.8,M,,*77
$PYRTM,2024,124.086548293194,15.196195703333
$GPGGA,020436.00,3459.6885,N,12130.2552,W,1,08,1.3,-7.1,M,-32.8,M,,*71
$PYRTM,2024,124.086558478148,15.196205888287
$GPGGA,020437.00,3459.6896,N,12130.2558,W,1,08,1.3,-6.7,M,-32.8,M,,*7F
$PYRTM,2024,124.086570283056,15.196217693194
$GPGGA,020438.00,3459.6910,N,12130.2560,W,1,08,1.3,-7.8,M,-32.8,M,,*7A
$PYRTM,2024,124.086583015451,15.196230425590
$GPGGA,020439.00,3459.6925,N,12130.2561,W,1,08,1.3,-7.7,M,-32.8,M,,*73
$PYRTM,2024,124.086594588889,15.196241999028
$GPGGA,020440.00,3459.6937,N,12130.2559,W,1,08,1.3,-5.6,M,-32.8,M,,*76
$PYRTM,2024,124.086606167338,15.196253577477
$GPGGA,020441.00,3459.6951,N,12130.2557,W,1,08,1.3,-4.8,M,-32.8,M,,*76
$PYRTM,2024,124.086617737627,15.196265147766
$GPGGA,020442.00,3459.6971,N,12130.2559,W,1,08,1.3,-5.8,M,-32.8,M,,*78
$PYRTM,2024,124.086629311470,15.196276721609
$GPGGA,020443.00,3459.6993,N,12130.2563,W,1,08,1.3,-4.9,M,-32.8,M,,*7C
$PYRTM,2024,124.086640885220,15.196288295359
$GPGGA,020444.00,3459.7008,N,12130.2568,W,1,08,1.3,-3.6,M,-32.8,M,,*72
$PYRTM,2024,124.086652459769,15.196299869907
$GPGGA,020445.00,3459.7016,N,12130.2570,W,1,08,1.3,-3.9,M,-32.8,M,,*7A
$PYRTM,2024,124.086664034259,15.196311444398
$GPGGA,020446.00,3459.7030,N,12130.2569,W,1,08,1.3,-5.0,M,-32.8,M,,*7A
$PYRTM,2024,124.086675610093,15.196323020231
$GPGGA,020447.00,3459.7049,N,12130.2570,W,1,08,1.3,-2.7,M,-32.8,M,,*7D
$PYRTM,2024,124.086687182292,15.196334592431
$GPGGA,020448.00,3459.7064,N,12130.2573,W,1,08,1.3,-1.7,M,-32.8,M,,*7D
$PYRTM,2024,124.086698758287,15.196346168426
$GPGGA,020449.00,3459.7074,N,12130.2577,W,1,08,1.3,-2.4,M,-32.8,M,,*79
$PYRTM,2024,124.086710330312,15.196357740451
$GPGGA,020450.00,3459.7087,N,12130.2580,W,1,08,1.3,-3.0,M,-32.8,M,,*70
$PYRTM,2024,124.086721905995,15.196369316134
$GPGGA,020451.00,3459.7104,N,12130.2581,W,1,08,1.3,-4.1,M,-32.8,M,,*7C
$PYRTM,2024,124.086733474282,15.196380884421
$GPGGA,020452.00,3459.7118,N,12130.2584,W,1,08,1.3,-4.5,M,-32.8,M,,*73
$PYRTM,2024,124.086745056956,15.196392467095
$GPGGA,020453.00,3459.7127,N,12130.2588,W,1,08,1.3,-4.2,M,-32.8,M,,*75
$PYRTM,2024,124.086756627153,15.196404037292
$GPGGA,020454.00,3459.7137,N,12130.2590,W,1,08,1.3,-3.8,M,-32.8,M,,*77
$PYRTM,2024,124.086768202060,15.196415612211
$GPGGA,020455.00,3459.7154,N,12130.2591,W,1,08,1.3,-2.0,M,-32.8,M,,*7B
$PYRTM,2024,124.086779775069,15.196427185208
$GPGGA,020456.00,3459.7173,N,12130.2592,W,1,08,1.3,-1.4,M,-32.8,M,,*79
$PYRTM,2024,124.086791352859,15.196438762998
$GPGGA,020457.00,3459.7188,N,12130.2597,W,1,08,1.3,-1.0,M,-32.8,M,,*7D
$PYRTM,2024,124.086802924155,15.196450334294
$GPGGA,020458.00,3459.7198,N,12130.2606,W,1,08,1.3,-1.2,M,-32.8,M,,*7A
$PYRTM,2024,124.086814501227,15.196461911366
$GPGGA,020459.00,3459.7210,N,12130.2610,W,1,08,1.3,-1.7,M,-32.8,M,,*7A
$PYRTM,2024,124.086826071840,15.196473481979
$GPGGA,020500.00,3459.7225,N,12130.2609,W,1,08,1.3,-1.8,M,-32.8,M,,*76
$PYRTM,2024,124.086837646493,15.196485056632
$GPGGA,020501.00,3459.7242,N,12130.2608,W,1,08,1.3,-0.3,M,-32.8,M,,*7D
$PYRTM,2024,124.086849221412,15.196496631551
$GPGGA,020502.00,3459.7254,N,12130.2615,W,1,08,1.3,-1.4,M,-32.8,M,,*73
$PYRTM,2024,124.086860795544,15.196508205694
$GPGGA,020503.00,3459.7263,N,12130.2627,W,1,08,1.3,-0.9,M,-32.8,M,,*7B
$PYRTM,2024,124.086872369595,15.196519779734
$GPGGA,020504.00,3459.7275,N,12130.2633,W,1,08,1.3,-1.1,M,-32.8,M,,*77
$PYRTM,2024,124.086883944340,15.196531354479
$GPGGA,020505.00,3459.7291,N,12130.2631,W,1,08,1.3,-2.5,M,-32.8,M,,*79
$PYRTM,2024,124.086895512222,15.196542922361
$GPGGA,020506.00,3459.7306,N,12130.2630,W,1,08,1.3,-2.0,M,-32.8,M,,*71
$PYRTM,2024,124.086905702535,15.196553112674
$GPGGA,020507.00,3459.7318,N,12130.2636,W,1,08,1.3,-1.9,M,-32.8,M,,*73
$PYRTM,2024,124.086917508634,15.196564918773
$GPGGA,020508.00,3459.7329,N,12130.2646,W,1,08,1.3,-1.3,M,-32.8,M,,*73
$PYRTM,2024,124.086930256343,15.196577666481
$GPGGA,020509.00,3459.7344,N,12130.2652,W,1,08,1.3,-0.6,M,-32.8,M,,*78
$PYRTM,2024,124.086941814306,15.196589224444
$GPGGA,020510.00,3459.7360,N,12130.2655,W,1,08,1.3,-1.5,M,-32.8,M,,*73
$PYRTM,2024,124.086953390729,15.196600800868
$GPGGA,020511.00,3459.7374,N,12130.2657,W,1,08,1.3,-1.1,M,-32.8,M,,*71
$PYRTM,2024,124.086964961817,15.196612371956
$GPGGA,020512.00,3459.7387,N,12130.2663,W,1,08,1.3,0.0,M,-32.8,M,,*54
$PYRTM,2024,124.086976539583,15.196623949722
$GPGGA,020513.00,3459.7400,N,12130.2669,W,1,07,1.3,0.3,M,-32.8,M,,*5B
$PYRTM,2024,124.086988110289,15.196635520428
$GPGGA,020514.00,3459.7415,N,12130.2674,W,1,08,1.3,-0.7,M,-32.8,M,,*72
$PYRTM,2024,124.086999687720,15.196647097859
$GPGGA,020515.00,3459.7432,N,12130.2678,W,1,08,1.3,-0.3,M,-32.8,M,,*7E
$PYRTM,2024,124.087011259363,15.196658669502
$GPGGA,020516.00,3459.7446,N,12130.2683,W,1,08,1.3,-1.0,M,-32.8,M,,*78
$PYRTM,2024,124.087022834248,15.196670244387
$GPGGA,020517.00,3459.7458,N,12130.2687,W,1,08,1.3,-0.5,M,-32.8,M,,*76
$PYRTM,2024,124.087034407766,15.196681817917
$GPGGA,020518.00,3459.7472,N,12130.2691,W,1,07,1.3,0.0,M,-32.8,M,,*51
$PYRTM,2024,124.087045980914,15.196693391053
$GPGGA,020519.00,3459.7488,N,12130.2698,W,1,08,1.3,-1.5,M,-32.8,M,,*7A
$PYRTM,2024,124.087057555428,15.196704965567
$GPGGA,020520.00,3459.7504,N,12130.2705,W,1,08,1.3,-2.8,M,-32.8,M,,*7E
$PYRTM,2024,124.087069128565,15.196716538704
$GPGGA,020521.00,3459.7519,N,12130.2711,W,1,08,1.3,-3.6,M,-32.8,M,,*79
$PYRTM,2024,124.087080703333,15.196728113472
$GPGGA,020522.00,3459.7530,N,12130.2717,W,1,08,1.3,-3.1,M,-32.8,M,,*70
$PYRTM,2024,124.087092278484,15.196739688634
$GPGGA,020523.00,3459.7540,N,12130.2719,W,1,08,1.3,-2.8,M,-32.8,M,,*70
$PYRTM,2024,124.087102926690,15.196750336829
$GPGGA,020524.00,3459.7556,N,12130.2721,W,1,08,1.3,-2.0,M,-32.8,M,,*73
$PYRTM,2024,124.087114847407,15.196762257546
$GPGGA,020525.00,3459.7577,N,12130.2726,W,1,08,1.3,-3.0,M,-32.8,M,,*77
$PYRTM,2024,124.087123759595,15.196771169734
$GPGGA,020526.00,3459.7592,N,12130.2733,W,1,08,1.3,-3.3,M,-32.8,M,,*78
$PYRTM,2024,124.087141354838,15.196788764988
$GPGGA,020527.00,3459.7599,N,12130.2739,W,1,08,1.3,-2.8,M,-32.8,M,,*72
$PYRTM,2024,124.087152451400,15.196799861551
$GPGGA,020528.00,3459.7611,N,12130.2744,W,1,08,1.3,-2.0,M,-32.8,M,,*7C
$PYRTM,2024,124.087163577963,15.196810988102
$GPGGA,020529.00,3459.7628,N,12130.2749,W,1,08,1.3,-3.5,M,-32.8,M,,*7E
$PYRTM,2024,124.087174673565,15.196822083704
$GPGGA,020530.00,3459.7639,N,12130.2754,W,1,08,1.3,-3.9,M,-32.8,M,,*76
$PYRTM,2024,124.087185783218,15.196833193356
$GPGGA,020531.00,3459.7642,N,12130.2753,W,1,08,1.3,-3.9,M,-32.8,M,,*7C
$PYRTM,2024,124.087196912164,15.196844322303
$GPGGA,020532.00,3459.7654,N,12130.2750,W,1,08,1.3,-5.4,M,-32.8,M,,*70
$PYRTM,2024,124.087208019676,15.196855429815
$GPGGA,020533.00,3459.7675,N,12130.2754,W,1,08,1.3,-4.3,M,-32.8,M,,*70
$PYRTM,2024,124.087219592072,15.196867002199
$GPGGA,020534.00,3459.7695,N,12130.2765,W,1,08,1.3,-5.5,M,-32.8,M,,*7C
$PYRTM,2024,124.087238111528,15.196885521667
$GPGGA,020535.00,3459.7701,N,12130.2773,W,1,08,1.3,-5.8,M,-32.8,M,,*7B
$PYRTM,2024,124.087249223750,15.196896633889
$GPGGA,020536.00,3459.7702,N,12130.2771,W,1,08,1.3,-6.0,M,-32.8,M,,*72
$PYRTM,2024,124.087260218530,15.196907628669
$GPGGA,020537.00,3459.7714,N,12130.2763,W,1,08,1.3,-5.1,M,-32.8,M,,*75
$PYRTM,2024,124.087271330012,15.196918740150
$GPGGA,020538.00,3459.7733,N,12130.2761,W,1,08,1.3,-7.3,M,-32.8,M,,*7D
$PYRTM,2024,124.087282440694,15.196929850833
$GPGGA,020539.00,3459.7747,N,12130.2770,W,1,08,1.3,-7.6,M,-32.8,M,,*7A
$PYRTM,2024,124.087293551956,15.196940962095
$GPGGA,020540.00,3459.7753,N,12130.2785,W,1,08,1.3,-8.2,M,-32.8,M,,*70
$PYRTM,2024,124.087304662546,15.196952072685
$GPGGA,020541.00,3459.7759,N,12130.2787,W,1,08,1.3,-8.1,M,-32.8,M,,*7A
$PYRTM,2024,124.087315770625,15.196963180764
$GPGGA,020542.00,3459.7770,N,12130.2779,W,1,08,1.3,-8.2,M,-32.8,M,,*70
$PYRTM,2024,124.087326885289,15.196974295428
$GPGGA,020543.00,3459.7783,N,12130.2773,W,1,08,1.3,-5.7,M,-32.8,M,,*7F
$PYRTM,2024,124.087337996725,15.196985406863
$GPGGA,020544.00,3459.7796,N,12130.2777,W,1,08,1.3,-5.8,M,-32.8,M,,*77
$PYRTM,2024,124.087349098322,15.196996508461
$GPGGA,020545.00,3459.7808,N,12130.2787,W,1,08,1.3,-6.5,M,-32.8,M,,*7F
$PYRTM,2024,124.087360336435,15.197007746574
$GPGGA,020546.00,3459.7821,N,12130.2799,W,1,08,1.3,-7.5,M,-32.8,M,,*79
$PYRTM,2024,124.087371778912,15.197019189051
$GPGGA,020547.00,3459.7832,N,12130.2805,W,1,08,1.3,-8.0,M,-32.8,M,,*7A
$PYRTM,2024,124.087382892870,15.197030303021
$GPGGA,020548.00,3459.7841,N,12130.2800,W,1,08,1.3,-8.2,M,-32.8,M,,*76
$PYRTM,2024,124.087394001701,15.197041411840
$GPGGA,020549.00,3459.7854,N,12130.2795,W,1,08,1.3,-6.5,M,-32.8,M,,*79
$PYRTM,2024,124.087405113843,15.197052523981
$GPGGA,020550.00,3459.7871,N,12130.2797,W,1,08,1.3,-7.5,M,-32.8,M,,*75
$PYRTM,2024,124.087416349294,15.197063759433
$GPGGA,020551.00,3459.7886,N,12130.2806,W,1,08,1.3,-7.2,M,-32.8,M,,*7C
$PYRTM,2024,124.087427927326,15.197075337465
$GPGGA,020552.00,3459.7899,N,12130.2813,W,1,08,1.3,-8.1,M,-32.8,M,,*79
$PYRTM,2024,124.087439502685,15.197086912824
$GPGGA,020553.00,3459.7913,N,12130.2817,W,1,08,1.3,-8.7,M,-32.8,M,,*79
$PYRTM,2024,124.087451072558,15.197098482697
$GPGGA,020554.00,3459.7926,N,12130.2816,W,1,08,1.3,-8.1,M,-32.8,M,,*7F
$PYRTM,2024,124.087462656030,15.197110066169
$GPGGA,020555.00,3459.7936,N,12130.2815,W,1,08,1.3,-7.8,M,-32.8,M,,*7A
$PYRTM,2024,124.087474226412,15.197121636562
$GPGGA,020556.00,3459.7950,N,12130.2815,W,1,08,1.3,-6.2,M,-32.8,M,,*72
$PYRTM,2024,124.087485793137,15.197133203275
$GPGGA,020557.00,3459.7970,N,12130.2819,W,1,08,1.3,-5.7,M,-32.8,M,,*7B
$PYRTM,2024,124.087497371979,15.197144782118
$GPGGA,020558.00,3459.7986,N,12130.2825,W,1,08,1.3,-5.4,M,-32.8,M,,*71
$PYRTM,2024,124.087508949931,15.197156360069
$GPGGA,020559.00,3459.7992,N,12130.2828,W,1,08,1.3,-6.0,M,-32.8,M,,*7F
$PYRTM,2024,124.087520522025,15.197167932164
$GPGGA,020600.00,3459.8000,N,12130.2827,W,1,08,1.3,-6.8,M,-32.8,M,,*7A
$PYRTM,2024,124.087532095197,15.197179505336
$GPGGA,020601.00,3459.8014,N,12130.2827,W,1,08,1.3,-6.6,M,-32.8,M,,*70
$PYRTM,2024,124.087543663958,15.197191074097
$GPGGA,020602.00,3459.8029,N,12130.2829,W,1,08,1.3,-6.7,M,-32.8,M,,*72
$PYRTM,2024,124.087555230394,15.197202640532
$GPGGA,020603.00,3459.8040,N,12130.2832,W,1,08,1.3,-6.3,M,-32.8,M,,*72
$PYRTM,2024,124.087566817697,15.197214227836
$GPGGA,020604.00,3459.8051,N,12130.2836,W,1,08,1.3,-5.1,M,-32.8,M,,*70
$PYRTM,2024,124.087578376493,15.197225786632
$GPGGA,020605.00,3459.8066,N,12130.2841,W,1,08,1.3,-5.5,M,-32.8,M,,*71
$PYRTM,2024,124.087589961366,15.197237371505
$GPGGA,020606.00,3459.8080,N,12130.2845,W,1,08,1.3,-5.7,M,-32.8,M,,*7C
$PYRTM,2024,124.087600146609,15.197247556759
$GPGGA,020607.00,3459.8091,N,12130.2844,W,1,08,1.3,-6.5,M,-32.8,M,,*7D
$PYRTM,2024,124.087611958229,15.197259368380
$GPGGA,020608.00,3459.8105,N,12130.2841,W,1,08,1.3,-6.4,M,-32.8,M,,*7A
$PYRTM,2024,124.087624674097,15.197272084236
$GPGGA,020609.00,3459.8120,N,12130.2843,W,1,08,1.3,-6.5,M,-32.8,M,,*7F
$PYRTM,2024,124.087636258252,15.197283668391
$GPGGA,020610.00,3459.8133,N,12130.2851,W,1,08,1.3,-6.6,M,-32.8,M,,*75
$PYRTM,2024,124.087647821944,15.197295232083
$GPGGA,020611.00,3459.8147,N,12130.2860,W,1,08,1.3,-7.3,M,-32.8,M,,*71
$PYRTM,2024,124.087659410914,15.197306821053
$GPGGA,020612.00,3459.8162,N,12130.2864,W,1,08,1.3,-7.7,M,-32.8,M,,*75
$PYRTM,2024,124.087670969687,15.197318379826
$GPGGA,020613.00,3459.8172,N,12130.2863,W,1,08,1.3,-6.4,M,-32.8,M,,*70
$PYRTM,2024,124.087682559502,15.197329969641
$GPGGA,020614.00,3459.8182,N,12130.2861,W,1,08,1.3,-5.6,M,-32.8,M,,*7B
$PYRTM,2024,124.087694119664,15.197341529815
$GPGGA,020615.00,3459.8198,N,12130.2864,W,1,08,1.3,-5.8,M,-32.8,M,,*7A
$PYRTM,2024,124.087705707303,15.197353117442
$GPGGA,020616.00,3459.8216,N,12130.2872,W,1,08,1.3,-4.8,M,-32.8,M,,*7A
$PYRTM,2024,124.087717267025,15.197364677164
$GPGGA,020617.00,3459.8228,N,12130.2880,W,1,08,1.3,-3.8,M,-32.8,M,,*7C
$PYRTM,2024,124.087728856424,15.197376266562
$GPGGA,020618.00,3459.8239,N,12130.2884,W,1,08,1.3,-3.9,M,-32.8,M,,*76
$PYRTM,2024,124.087740415428,15.197387825567
$GPGGA,020619.00,3459.8252,N,12130.2883,W,1,08,1.3,-3.9,M,-32.8,M,,*7D
$PYRTM,2024,124.087752007442,15.197399417581
$GPGGA,020620.00,3459.8268,N,12130.2881,W,1,08,1.3,-2.9,M,-32.8,M,,*7D
$PYRTM,2024,124.087763569850,15.197410979988
$GPGGA,020621.00,3459.8285,N,12130.2884,W,1,08,1.0,-2.5,M,-32.8,M,,*75
$PYRTM,2024,124.087775151829,15.197422561968
$GPGGA,020622.00,3459.8302,N,12130.2891,W,1,08,1.3,-1.4,M,-32.8,M,,*7D
$PYRTM,2024,124.087786720799,15.197434130937
$GPGGA,020623.00,3459.8315,N,12130.2898,W,1,08,1.3,-0.8,M,-32.8,M,,*7E
$PYRTM,2024,124.087798300220,15.197445710359
$GPGGA,020624.00,3459.8326,N,12130.2901,W,1,08,1.0,-2.0,M,-32.8,M,,*71
$PYRTM,2024,124.087809866562,15.197457276713
$GPGGA,020625.00,3459.8341,N,12130.2900,W,1,08,1.0,-1.8,M,-32.8,M,,*7B
$PYRTM,2024,124.087821444630,15.197468854769
$GPGGA,020626.00,3459.8355,N,12130.2898,W,1,07,1.3,-1.2,M,-32.8,M,,*7B
$PYRTM,2024,124.087833012002,15.197480422153
$GPGGA,020627.00,3459.8369,N,12130.2899,W,1,07,1.3,-0.2,M,-32.8,M,,*75
$PYRTM,2024,124.087844605972,15.197492016111
$GPGGA,020628.00,3459.8384,N,12130.2908,W,1,08,1.0,-1.0,M,-32.8,M,,*7F
$PYRTM,2024,124.087856159178,15.197503569317
$GPGGA,020629.00,3459.8398,N,12130.2920,W,1,08,1.0,-2.9,M,-32.8,M,,*73
$PYRTM,2024,124.087867751991,15.197515162141
$GPGGA,020630.00,3459.8409,N,12130.2922,W,1,08,1.0,-3.1,M,-32.8,M,,*7F
$PYRTM,2024,124.087879305394,15.197526715532
$GPGGA,020631.00,3459.8422,N,12130.2915,W,1,08,1.0,-2.7,M,-32.8,M,,*74
$PYRTM,2024,124.087890888773,15.197538298924
$GPGGA,020632.00,3459.8437,N,12130.2910,W,1,08,1.0,-1.4,M,-32.8,M,,*76
$PYRTM,2024,124.087902456655,15.197549866806
$GPGGA,020633.00,3459.8454,N,12130.2916,W,1,08,1.0,-3.3,M,-32.8,M,,*71
$PYRTM,2024,124.087914377697,15.197561787836
$GPGGA,020634.00,3459.8467,N,12130.2928,W,1,08,1.0,-4.0,M,-32.8,M,,*7F
$PYRTM,2024,124.087925602431,15.197573012569
$GPGGA,020635.00,3459.8475,N,12130.2937,W,1,08,1.0,-4.5,M,-32.8,M,,*76
$PYRTM,2024,124.087937191227,15.197584601366
$GPGGA,020636.00,3459.8483,N,12130.2935,W,1,08,1.0,-3.9,M,-32.8,M,,*75
$PYRTM,2024,124.087947826296,15.197595236435
$GPGGA,020637.00,3459.8497,N,12130.2929,W,1,07,1.3,-3.8,M,-32.8,M,,*71
$PYRTM,2024,124.087959182002,15.197606592141
$GPGGA,020638.00,3459.8516,N,12130.2928,W,1,07,1.3,-2.9,M,-32.8,M,,*77
$PYRTM,2024,124.087971898009,15.197619308148
$GPGGA,020639.00,3459.8533,N,12130.2937,W,1,08,1.0,-5.4,M,-32.8,M,,*79
$PYRTM,2024,124.087983486412,15.197630896551
$GPGGA,020640.00,3459.8543,N,12130.2947,W,1,08,1.0,-5.6,M,-32.8,M,,*75
$PYRTM,2024,124.087995045266,15.197642455405
$GPGGA,020641.00,3459.8549,N,12130.2952,W,1,08,1.0,-3.9,M,-32.8,M,,*73
$PYRTM,2024,124.088006635394,15.197654045532
$GPGGA,020642.00,3459.8559,N,12130.2948,W,1,08,1.0,-5.1,M,-32.8,M,,*74
$PYRTM,2024,124.088018194954,15.197665605093
$GPGGA,020643.00,3459.8577,N,12130.2945,W,1,08,1.0,-3.0,M,-32.8,M,,*73
$PYRTM,2024,124.088029783542,15.197677193681
$GPGGA,020644.00,3459.8594,N,12130.2951,W,1,08,1.0,-3.3,M,-32.8,M,,*7F
$PYRTM,2024,124.088041346007,15.197688756146
$GPGGA,020645.00,3459.8604,N,12130.2961,W,1,08,1.0,-3.7,M,-32.8,M,,*73
$PYRTM,2024,124.088052927801,15.197700337940
$GPGGA,020646.00,3459.8611,N,12130.2967,W,1,08,1.0,-3.9,M,-32.8,M,,*7C
$PYRTM,2024,124.088064490926,15.197711901065
$GPGGA,020647.00,3459.8621,N,12130.2971,W,1,08,1.0,-2.7,M,-32.8,M,,*76
$PYRTM,2024,124.088076079456,15.197723489595
$GPGGA,020648.00,3459.8633,N,12130.2974,W,1,08,1.0,-2.7,M,-32.8,M,,*7F
$PYRTM,2024,124.088087638773,15.197735048912
$GPGGA,020649.00,3459.8649,N,12130.2974,W,1,08,1.0,-0.3,M,-32.8,M,,*75
$PYRTM,2024,124.088099229282,15.197746639421
$GPGGA,020650.00,3459.8665,N,12130.2975,W,1,08,1.0,-2.1,M,-32.8,M,,*72
$PYRTM,2024,124.088110787500,15.197758197639
$GPGGA,020651.00,3459.8680,N,12130.2980,W,1,08,1.0,-3.1,M,-32.8,M,,*73
$PYRTM,2024,124.088122364583,15.197769774722
$GPGGA,020652.00,3459.8690,N,12130.2989,W,1,08,1.0,-3.7,M,-32.8,M,,*7E
$PYRTM,2024,124.088133935741,15.197781345880
$GPGGA,020653.00,3459.8700,N,12130.2994,W,1,08,1.0,-3.8,M,-32.8,M,,*74
$PYRTM,2024,124.088145512083,15.197792922222
$GPGGA,020654.00,3459.8715,N,12130.2991,W,1,08,1.0,-2.2,M,-32.8,M,,*79
$PYRTM,2024,124.088157083970,15.197804494109
$GPGGA,020655.00,3459.8731,N,12130.2986,W,1,08,1.0,-1.5,M,-32.8,M,,*7C
$PYRTM,2024,124.088168673530,15.197816083681
$GPGGA,020656.00,3459.8746,N,12130.2988,W,1,08,1.0,-2.0,M,-32.8,M,,*77
$PYRTM,2024,124.088180234167,15.197827644317
$GPGGA,020657.00,3459.8759,N,12130.2997,W,1,08,1.0,-3.1,M,-32.8,M,,*76
$PYRTM,2024,124.088191816111,15.197839226250
$GPGGA,020658.00,3459.8772,N,12130.3006,W,1,08,1.0,-4.3,M,-32.8,M,,*75
$PYRTM,2024,124.088203382824,15.197850792963
$GPGGA,020659.00,3459.8781,N,12130.3009,W,1,08,1.0,-4.7,M,-32.8,M,,*73
$PYRTM,2024,124.088214970683,15.197862380833
$GPGGA,020700.00,3459.8793,N,12130.3007,W,1,07,1.3,-3.6,M,-32.8,M,,*79
$PYRTM,2024,124.088226529583,15.197873939722
$GPGGA,020701.00,3459.8813,N,12130.3004,W,1,07,1.3,-3.3,M,-32.8,M,,*79
$PYRTM,2024,124.088238117905,15.197885528044
$GPGGA,020702.00,3459.8831,N,12130.3008,W,1,08,1.0,-3.7,M,-32.8,M,,*7E
$PYRTM,2024,124.088249677569,15.197897087708
$GPGGA,020703.00,3459.8839,N,12130.3018,W,1,08,1.0,-3.8,M,-32.8,M,,*79
$PYRTM,2024,124.088261266007,15.197908676146
$GPGGA,020704.00,3459.8846,N,12130.3021,W,1,08,1.0,-4.1,M,-32.8,M,,*72
$PYRTM,2024,124.088272826111,15.197920236250
$GPGGA,020705.00,3459.8861,N,12130.3017,W,1,08,1.0,-4.4,M,-32.8,M,,*76
$PYRTM,2024,124.088284416065,15.197931826204
$GPGGA,020706.00,3459.8878,N,12130.3016,W,1,08,1.0,-5.7,M,-32.8,M,,*7E
$PYRTM,2024,124.088294601204,15.197942011343
$GPGGA,020707.00,3459.8891,N,12130.3022,W,1,08,1.0,-5.1,M,-32.8,M,,*79
$PYRTM,2024,124.088306405463,15.197953815613
$GPGGA,020708.00,3459.8900,N,12130.3031,W,1,08,1.0,-5.3,M,-32.8,M,,*7F
$PYRTM,2024,124.088319124815,15.197966534954
$GPGGA,020709.00,3459.8913,N,12130.3035,W,1,08,1.0,-5.1,M,-32.8,M,,*7A
$PYRTM,2024,124.088330712002,15.197978122153
$GPGGA,020710.00,3459.8928,N,12130.3032,W,1,08,1.0,-4.9,M,-32.8,M,,*74
$PYRTM,2024,124.088342270590,15.197989680729
$GPGGA,020711.00,3459.8942,N,12130.3029,W,1,08,1.0,-4.9,M,-32.8,M,,*73
$PYRTM,2024,124.088353859792,15.198001269931
$GPGGA,020712.00,3459.8958,N,12130.3034,W,1,08,1.0,-1.6,M,-32.8,M,,*7D
$PYRTM,2024,124.088365419491,15.198012829630
$GPGGA,020713.00,3459.8972,N,12130.3046,W,1,08,1.0,-2.6,M,-32.8,M,,*72
$PYRTM,2024,124.088377008275,15.198024418414
$GPGGA,020714.00,3459.8982,N,12130.3055,W,1,08,1.0,-3.0,M,-32.8,M,,*7F
$PYRTM,2024,124.088388568600,15.198035978738
$GPGGA,020715.00,3459.8994,N,12130.3056,W,1,08,1.0,-1.9,M,-32.8,M,,*71
$PYRTM,2024,124.088400156250,15.198047566389
$GPGGA,020716.00,3459.9011,N,12130.3054,W,1,07,1.3,-3.2,M,-32.8,M,,*70
$PYRTM,2024,124.088411715775,15.198059125914
$GPGGA,020717.00,3459.9030,N,12130.3058,W,1,08,1.0,-3.3,M,-32.8,M,,*73
$PYRTM,2024,124.088423293252,15.198070703391
$GPGGA,020718.00,3459.9044,N,12130.3066,W,1,08,1.0,-3.3,M,-32.8,M,,*72
$PYRTM,2024,124.088434864977,15.198082275116
$GPGGA,020719.00,3459.9053,N,12130.3076,W,1,08,1.0,-2.5,M,-32.8,M,,*73
$PYRTM,2024,124.088446454421,15.198093864560
$GPGGA,020720.00,3459.9064,N,12130.3082,W,1,08,1.0,-1.4,M,-32.8,M,,*74
$PYRTM,2024,124.088458014039,15.198105424178
$GPGGA,020721.00,3459.9079,N,12130.3087,W,1,08,1.0,-2.1,M,-32.8,M,,*7A
$PYRTM,2024,124.088469601157,15.198117011296
$GPGGA,020722.00,3459.9093,N,12130.3088,W,1,08,1.0,-1.1,M,-32.8,M,,*71
$PYRTM,2024,124.088481161238,15.198128571377
$GPGGA,020723.00,3459.9104,N,12130.3089,W,1,08,1.0,-0.8,M,-32.8,M,,*76
$PYRTM,2024,124.088492750046,15.198140160185
$GPGGA,020724.00,3459.9115,N,12130.3095,W,1,08,1.0,-1.2,M,-32.8,M,,*77
$PYRTM,2024,124.088504309653,15.198151719792
$GPGGA,020725.00,3459.9128,N,12130.3104,W,1,08,1.0,-2.3,M,-32.8,M,,*73
$PYRTM,2024,124.088515898299,15.198163308438
$GPGGA,020726.00,3459.9139,N,12130.3110,W,1,08,1.0,-3.9,M,-32.8,M,,*7E
$PYRTM,2024,124.088527458079,15.198174868218
$GPGGA,020727.00,3459.9149,N,12130.3110,W,1,08,1.0,-3.7,M,-32.8,M,,*76
$PYRTM,2024,124.088539047326,15.198186457465
$GPGGA,020728.00,3459.9164,N,12130.3106,W,1,08,1.0,-3.3,M,-32.8,M,,*75
$PYRTM,2024,124.088549680301,15.198197090440
$GPGGA,020729.00,3459.9184,N,12130.3107,W,1,08,1.0,-2.0,M,-32.8,M,,*79
$PYRTM,2024,124.088561606238,15.198209016377
$GPGGA,020730.00,3459.9199,N,12130.3115,W,1,08,1.0,-1.3,M,-32.8,M,,*7E
$PYRTM,2024,124.088572379861,15.198219790000
$GPGGA,020731.00,3459.9209,N,12130.3124,W,1,08,1.0,-1.4,M,-32.8,M,,*70
$PYRTM,2024,124.088583490579,15.198230900718
$GPGGA,020732.00,3459.9221,N,12130.3129,W,1,08,1.0,-2.5,M,-32.8,M,,*76
$PYRTM,2024,124.088594601771,15.198242011910
$GPGGA,020733.00,3459.9239,N,12130.3132,W,1,08,1.0,-3.2,M,-32.8,M,,*72
$PYRTM,2024,124.088606163322,15.198253573461
$GPGGA,020734.00,3459.9251,N,12130.3134,W,1,08,1.0,-3.7,M,-32.8,M,,*78
$PYRTM,2024,124.088617272685,15.198264682836
$GPGGA,020735.00,3459.9258,N,12130.3138,W,1,08,1.0,-2.8,M,-32.8,M,,*72
$PYRTM,2024,124.088628383912,15.198275794051
$GPGGA,020736.00,3459.9270,N,12130.3144,W,1,08,1.0,-3.3,M,-32.8,M,,*7A
$PYRTM,2024,124.088644011644,15.198291421782
$GPGGA,020737.00,3459.9287,N,12130.3152,W,1,08,1.0,-2.3,M,-32.8,M,,*75
$PYRTM,2024,124.088655123692,15.198302533843
$GPGGA,020738.00,3459.9303,N,12130.3160,W,1,08,1.0,-2.8,M,-32.8,M,,*7D
$PYRTM,2024,124.088666349225,15.198313759363
$GPGGA,020739.00,3459.9314,N,12130.3165,W,1,08,1.0,-2.1,M,-32.8,M,,*76
$PYRTM,2024,124.088677936435,15.198325346574
$GPGGA,020740.00,3459.9324,N,12130.3167,W,1,08,1.0,-1.3,M,-32.8,M,,*78
$PYRTM,2024,124.088689495891,15.198336906030
$GPGGA,020741.00,3459.9338,N,12130.3166,W,1,08,1.0,-1.0,M,-32.8,M,,*76
$PYRTM,2024,124.088701084155,15.198348494294
$GPGGA,020742.00,3459.9350,N,12130.3169,W,1,08,1.0,-1.0,M,-32.8,M,,*74
$PYRTM,2024,124.088712643044,15.198360053183
$GPGGA,020743.00,3459.9359,N,12130.3177,W,1,08,1.0,-0.9,M,-32.8,M,,*7B
$PYRTM,2024,124.088724232361,15.198371642500
$GPGGA,020744.00,3459.9370,N,12130.3188,W,1,08,1.0,-1.9,M,-32.8,M,,*76
$PYRTM,2024,124.088735793380,15.198383203519
$GPGGA,020745.00,3459.9384,N,12130.3195,W,1,08,1.0,-2.7,M,-32.8,M,,*7D
$PYRTM,2024,124.088747375278,15.198394785428
$GPGGA,020746.00,3459.9396,N,12130.3199,W,1,08,1.0,-3.5,M,-32.8,M,,*72
$PYRTM,2024,124.088758941030,15.198406351169
$GPGGA,020747.00,3459.9404,N,12130.3203,W,1,08,1.0,-3.1,M,-32.8,M,,*7B
$PYRTM,2024,124.088770528669,15.198417938808
$GPGGA,020748.00,3459.9413,N,12130.3205,W,1,07,1.3,-2.3,M,-32.8,M,,*7B
$PYRTM,2024,124.088782089641,15.198429499780
$GPGGA,020749.00,3459.9430,N,12130.3203,W,1,08,1.0,-2.1,M,-32.8,M,,*73
$PYRTM,2024,124.088793677245,15.198441087384
$GPGGA,020750.00,3459.9448,N,12130.3207,W,1,08,1.0,-5.8,M,-32.8,M,,*7E
$PYRTM,2024,124.088805237199,15.198452647338
$GPGGA,020751.00,3459.9457,N,12130.3219,W,1,08,1.0,-7.2,M,-32.8,M,,*76
$PYRTM,2024,124.088816825752,15.198464235891
$GPGGA,020752.00,3459.9463,N,12130.3227,W,1,08,1.0,-6.4,M,-32.8,M,,*78
$PYRTM,2024,124.088828385903,15.198475796042
$GPGGA,020753.00,3459.9477,N,12130.3227,W,1,08,1.0,-5.1,M,-32.8,M,,*7A
$PYRTM,2024,124.088839974259,15.198487384398
$GPGGA,020754.00,3459.9493,N,12130.3223,W,1,08,1.0,-5.0,M,-32.8,M,,*72
$PYRTM,2024,124.088851533438,15.198498943576
$GPGGA,020755.00,3459.9506,N,12130.3224,W,1,08,1.0,-3.6,M,-32.8,M,,*79
$PYRTM,2024,124.088863117361,15.198510527500
$GPGGA,020756.00,3459.9516,N,12130.3233,W,1,08,1.0,-2.8,M,-32.8,M,,*72
$PYRTM,2024,124.088874683715,15.198522093854
$GPGGA,020757.00,3459.9530,N,12130.3245,W,1,08,1.0,-3.6,M,-32.8,M,,*79
$PYRTM,2024,124.088886271308,15.198533681447
$GPGGA,020758.00,3459.9543,N,12130.3252,W,1,08,1.0,-4.8,M,-32.8,M,,*7D
$PYRTM,2024,124.088897830139,15.198545240278
$GPGGA,020759.00,3459.9554,N,12130.3253,W,1,08,1.0,-4.3,M,-32.8,M,,*70
$PYRTM,2024,124.088909418067,15.198556828206
$GPGGA,020800.00,3459.9565,N,12130.3252,W,1,08,1.0,-4.3,M,-32.8,M,,*70
$PYRTM,2024,124.088920982350,15.198568392488
$GPGGA,020801.00,3459.9580,N,12130.3251,W,1,07,1.3,-3.9,M,-32.8,M,,*78
$PYRTM,2024,124.088932567037,15.198579977176
$GPGGA,020802.00,3459.9597,N,12130.3254,W,1,08,1.0,-3.0,M,-32.8,M,,*7D
$PYRTM,2024,124.088944128113,15.198591538252
$GPGGA,020803.00,3459.9615,N,12130.3262,W,1,08,1.0,-4.0,M,-32.8,M,,*77
$PYRTM,2024,124.088955715463,15.198603125602
$GPGGA,020804.00,3459.9628,N,12130.3272,W,1,08,1.0,-4.0,M,-32.8,M,,*7F
$PYRTM,2024,124.088967276169,15.198614686319
$GPGGA,020805.00,3459.9637,N,12130.3279,W,1,08,1.0,-3.8,M,-32.8,M,,*74
$PYRTM,2024,124.088978864421,15.198626274560
$GPGGA,020806.00,3459.9649,N,12130.3277,W,1,08,1.0,-3.5,M,-32.8,M,,*7D
$PYRTM,2024,124.088989049884,15.198636460023
$GPGGA,020807.00,3459.9666,N,12130.3275,W,1,08,1.0,-4.4,M,-32.8,M,,*75
$PYRTM,2024,124.089000869005,15.198648279144
$GPGGA,020808.00,3459.9683,N,12130.3280,W,1,08,1.0,-3.8,M,-32.8,M,,*70
$PYRTM,2024,124.089013571829,15.198660981968
$GPGGA,020809.00,3459.9693,N,12130.3289,W,1,08,1.0,-4.0,M,-32.8,M,,*76
$PYRTM,2024,124.089025147801,15.198672557940
$GPGGA,020810.00,3459.9702,N,12130.3297,W,1,08,1.0,-3.0,M,-32.8,M,,*7F
$PYRTM,2024,124.089036720637,15.198684130775
$GPGGA,020811.00,3459.9716,N,12130.3298,W,1,08,1.0,-3.0,M,-32.8,M,,*74
$PYRTM,2024,124.089048307917,15.198695718056
$GPGGA,020812.00,3459.9736,N,12130.3299,W,1,08,1.0,-2.6,M,-32.8,M,,*73
$PYRTM,2024,124.089059870243,15.198707280382
$GPGGA,020813.00,3459.9751,N,12130.3304,W,1,08,1.0,-1.6,M,-32.8,M,,*75
$PYRTM,2024,124.089071456331,15.198718866470
$GPGGA,020814.00,3459.9756,N,12130.3310,W,1,08,1.0,-1.4,M,-32.8,M,,*72
$PYRTM,2024,124.089083016563,15.198730426713
$GPGGA,020815.00,3459.9765,N,12130.3312,W,1,08,1.0,-1.2,M,-32.8,M,,*77
$PYRTM,2024,124.089094604653,15.198742014792
$GPGGA,020816.00,3459.9783,N,12130.3311,W,1,08,1.0,-2.9,M,-32.8,M,,*77
$PYRTM,2024,124.089106165370,15.198753575509
$GPGGA,020817.00,3459.9803,N,12130.3315,W,1,08,1.0,-3.5,M,-32.8,M,,*78
$PYRTM,2024,124.089117754468,15.198765164606
$GPGGA,020818.00,3459.9815,N,12130.3324,W,1,08,1.0,-4.1,M,-32.8,M,,*71
$PYRTM,2024,124.089129314676,15.198776724815
$GPGGA,020819.00,3459.9821,N,12130.3330,W,1,08,1.0,-4.1,M,-32.8,M,,*72
$PYRTM,2024,124.089140903542,15.198788313681
$GPGGA,020820.00,3459.9829,N,12130.3331,W,1,08,1.0,-2.9,M,-32.8,M,,*7F
$PYRTM,2024,124.089152461204,15.198799871343
$GPGGA,020821.00,3459.9844,N,12130.3332,W,1,08,1.0,-2.6,M,-32.8,M,,*79
$PYRTM,2024,124.089164049444,15.198811459583
$GPGGA,020822.00,3459.9859,N,12130.3336,W,1,08,1.0,-2.6,M,-32.8,M,,*72
$PYRTM,2024,124.089175610938,15.198823021076
$GPGGA,020823.00,3459.9869,N,12130.3343,W,1,08,1.0,-2.4,M,-32.8,M,,*70
$PYRTM,2024,124.089187199248,15.198834609387
$GPGGA,020824.00,3459.9878,N,12130.3347,W,1,08,1.0,-2.1,M,-32.8,M,,*76
$PYRTM,2024,124.089198760336,15.198846170475
$GPGGA,020825.00,3459.9890,N,12130.3351,W,1,08,1.0,-2.4,M,-32.8,M,,*73
$PYRTM,2024,124.089210346956,15.198857757095
$GPGGA,020826.00,3459.9903,N,12130.3355,W,1,08,1.0,-2.7,M,-32.8,M,,*7C
$PYRTM,2024,124.089221907106,15.198869317245
$GPGGA,020827.00,3459.9917,N,12130.3360,W,1,08,1.0,-3.3,M,-32.8,M,,*7B
$PYRTM,2024,124.089233491053,15.198880901192
$GPGGA,020828.00,3459.9928,N,12130.3363,W,1,08,1.0,-2.8,M,-32.8,M,,*71
$PYRTM,2024,124.089245054687,15.198892464826
$GPGGA,020829.00,3459.9940,N,12130.3363,W,1,08,1.0,-2.2,M,-32.8,M,,*74
$PYRTM,2024,124.089256644005,15.198904054144
$GPGGA,020830.00,3459.9955,N,12130.3364,W,1,08,1.0,-1.7,M,-32.8,M,,*79
$PYRTM,2024,124.089268204433,15.198915614572
$GPGGA,020831.00,3459.9969,N,12130.3371,W,1,08,1.0,-1.8,M,-32.8,M,,*7C
$PYRTM,2024,124.089279787350,15.198927197488
$GPGGA,020832.00,3459.9980,N,12130.3381,W,1,08,1.0,-2.0,M,-32.8,M,,*7C
$PYRTM,2024,124.089291352037,15.198938762176
$GPGGA,020833.00,3459.9990,N,12130.3385,W,1,08,1.0,-1.5,M,-32.8,M,,*7E
$PYRTM,2024,124.089302941019,15.198950351157
$GPGGA,020834.00,3500.0005,N,12130.3382,W,1,08,1.0,-1.5,M,-32.8,M,,*7F
$PYRTM,2024,124.089314501007,15.198961911146
$GPGGA,020835.00,3500.0023,N,12130.3384,W,1,08,1.0,-1.3,M,-32.8,M,,*7A
$PYRTM,2024,124.089326087488,15.198973497639
$GPGGA,020836.00,3500.0036,N,12130.3393,W,1,08,1.0,-0.5,M,-32.8,M,,*7C
