$PYRTM,2024,128.000009050926,19.109656461076
$GPGGA,235959.00,3308.9306,N,11819.0683,W,1,10,0.8,9.4,M,-34.5,M,,*5D
$PYRTM,2024,128.000020609583,19.109668019722
$GPGGA,000000.00,3308.9290,N,11819.0661,W,1,10,0.8,8.4,M,-34.5,M,,*5F
$PYRTM,2024,128.000032200185,19.109679610324
$GPGGA,000001.00,3308.9275,N,11819.0639,W,1,10,0.8,7.3,M,-34.5,M,,*50
$PYRTM,2024,128.000043760891,19.109691171030
$GPGGA,000002.00,3308.9262,N,11819.0617,W,1,10,0.8,7.4,M,-34.5,M,,*5E
$PYRTM,2024,128.000055349340,19.109702759491
$GPGGA,000003.00,3308.9249,N,11819.0594,W,1,10,0.8,10.2,M,-34.5,M,,*6E
$PYRTM,2024,128.000066908762,19.109714318912
$GPGGA,000004.00,3308.9234,N,11819.0572,W,1,10,0.8,7.3,M,-34.5,M,,*5C
$PYRTM,2024,128.000078496447,19.109725906586
$GPGGA,000005.00,3308.9219,N,11819.0551,W,1,10,0.8,9.6,M,-34.5,M,,*58
$PYRTM,2024,128.000090056632,19.109737466782
$GPGGA,000006.00,3308.9203,N,11819.0528,W,1,10,0.8,11.2,M,-34.5,M,,*63
$PYRTM,2024,128.000101644641,19.109749054792
$GPGGA,000007.00,3308.9188,N,11819.0504,W,1,10,0.8,10.3,M,-34.5,M,,*6C
$PYRTM,2024,128.000113203137,19.109760613275
$GPGGA,000008.00,3308.9173,N,11819.0480,W,1,10,0.8,12.7,M,-34.5,M,,*6C
$PYRTM,2024,128.000124788229,19.109772198368
$GPGGA,000009.00,3308.9158,N,11819.0456,W,1,11,0.8,12.6,M,-34.5,M,,*6F
$PYRTM,2024,128.000136352234,19.109783762373
$GPGGA,000010.00,3308.9141,N,11819.0433,W,1,11,0.8,12.1,M,-34.5,M,,*6B
$PYRTM,2024,128.000147940313,19.109795350451
$GPGGA,000011.00,3308.9126,N,11819.0409,W,1,11,0.8,8.9,M,-34.5,M,,*51
$PYRTM,2024,128.000159501169,19.109806911308
$GPGGA,000012.00,3308.9111,N,11819.0386,W,1,11,0.8,6.8,M,-34.5,M,,*59
$PYRTM,2024,128.000171085486,19.109818495625
$GPGGA,000013.00,3308.9098,N,11819.0363,W,1,11,0.8,6.0,M,-34.5,M,,*5B
$PYRTM,2024,128.000182650880,19.109830061030
$GPGGA,000014.00,3308.9083,N,11819.0341,W,1,11,0.8,6.9,M,-34.5,M,,*5F
$PYRTM,2024,128.000194238160,19.109841648299
$GPGGA,000015.00,3308.9068,N,11819.0320,W,1,11,0.8,6.4,M,-34.5,M,,*51
$PYRTM,2024,128.000205798877,19.109853209016
$GPGGA,000016.00,3308.9054,N,11819.0299,W,1,11,0.8,6.4,M,-34.5,M,,*5E
$PYRTM,2024,128.000217385752,19.109864795903
$GPGGA,000017.00,3308.9040,N,11819.0276,W,1,11,0.8,9.5,M,-34.5,M,,*55
$PYRTM,2024,128.000228019271,19.109875429410
$GPGGA,000018.00,3308.9026,N,11819.0253,W,1,11,0.8,9.3,M,-34.5,M,,*5B
$PYRTM,2024,128.000239493762,19.109886903900
$GPGGA,000019.00,3308.9011,N,11819.0230,W,1,11,0.8,9.5,M,-34.5,M,,*5D
$PYRTM,2024,128.000252098576,19.109899508715
$GPGGA,000020.00,3308.8996,N,11819.0208,W,1,11,0.8,9.3,M,-34.5,M,,*5D
$PYRTM,2024,128.000263682338,19.109911092477
$GPGGA,000021.00,3308.8982,N,11819.0185,W,1,11,0.8,8.5,M,-34.5,M,,*58
$PYRTM,2024,128.000275243646,19.109922653785
$GPGGA,000022.00,3308.8968,N,11819.0161,W,1,11,0.8,7.5,M,-34.5,M,,*5A
$PYRTM,2024,128.000286826366,19.109934236505
$GPGGA,000023.00,3308.8952,N,11819.0139,W,1,11,0.8,6.8,M,-34.5,M,,*53
$PYRTM,2024,128.000298390903,19.109945801053
$GPGGA,000024.00,3308.8937,N,11819.0118,W,1,11,0.8,5.8,M,-34.5,M,,*57
$PYRTM,2024,128.000309980000,19.109957390139
$GPGGA,000025.00,3308.8921,N,11819.0097,W,1,11,0.8,6.5,M,-34.5,M,,*59
$PYRTM,2024,128.000321540313,19.109968950451
$GPGGA,000026.00,3308.8906,N,11819.0075,W,1,11,0.8,8.8,M,-34.5,M,,*50
$PYRTM,2024,128.000333127708,19.109980537859
$GPGGA,000027.00,3308.8891,N,11819.0054,W,1,11,0.8,10.0,M,-34.5,M,,*6C
$PYRTM,2024,128.000344689097,19.109992099236
$GPGGA,000028.00,3308.8875,N,11819.0032,W,1,11,0.8,9.6,M,-34.5,M,,*57
$PYRTM,2024,128.000356270243,19.110003680382
$GPGGA,000029.00,3308.8859,N,11819.0011,W,1,11,0.8,10.1,M,-34.5,M,,*66
$PYRTM,2024,128.000367836875,19.110015247025
$GPGGA,000030.00,3308.8844,N,11818.9990,W,1,11,0.8,8.8,M,-34.5,M,,*5A
$PYRTM,2024,128.000379423588,19.110026833727
$GPGGA,000031.00,3308.8828,N,11818.9968,W,1,11,0.8,8.8,M,-34.5,M,,*56
$PYRTM,2024,128.000390985104,19.110038395243
$GPGGA,000032.00,3308.8814,N,11818.9947,W,1,11,0.8,7.0,M,-34.5,M,,*50
$PYRTM,2024,128.000402566551,19.110049976690
$GPGGA,000033.00,3308.8800,N,11818.9924,W,1,11,0.8,11.2,M,-34.5,M,,*64
$PYRTM,2024,128.000414131852,19.110061542002
$GPGGA,000034.00,3308.8786,N,11818.9902,W,1,11,0.8,8.3,M,-34.5,M,,*5F
$PYRTM,2024,128.000425721273,19.110073131424
$GPGGA,000035.00,3308.8773,N,11818.9882,W,1,11,0.8,9.9,M,-34.5,M,,*56
$PYRTM,2024,128.000437281667,19.110084691806
$GPGGA,000036.00,3308.8758,N,11818.9861,W,1,11,0.8,8.3,M,-34.5,M,,*5A
$PYRTM,2024,128.000448869514,19.110096279653
$GPGGA,000037.00,3308.8743,N,11818.9840,W,1,11,0.8,9.6,M,-34.5,M,,*56
$PYRTM,2024,128.000459389549,19.110106799699
$GPGGA,000038.00,3308.8729,N,11818.9817,W,1,11,0.8,7.4,M,-34.5,M,,*5B
$PYRTM,2024,128.000472017662,19.110119427812
$GPGGA,000039.00,3308.8714,N,11818.9795,W,1,11,0.8,8.7,M,-34.5,M,,*5D
$PYRTM,2024,128.000483577350,19.110130987488
$GPGGA,000040.00,3308.8699,N,11818.9772,W,1,11,0.8,8.4,M,-34.5,M,,*5D
$PYRTM,2024,128.000495167350,19.110142577488
$GPGGA,000041.00,3308.8685,N,11818.9750,W,1,11,0.8,8.9,M,-34.5,M,,*5C
$PYRTM,2024,128.000506727477,19.110154137616
$GPGGA,000042.00,3308.8670,N,11818.9727,W,1,11,0.8,9.7,M,-34.5,M,,*5A
$PYRTM,2024,128.000518313912,19.110165724051
$GPGGA,000043.00,3308.8656,N,11818.9704,W,1,11,0.8,10.4,M,-34.5,M,,*65
$PYRTM,2024,128.000529874178,19.110177284317
$GPGGA,000044.00,3308.8640,N,11818.9680,W,1,11,0.8,11.7,M,-34.5,M,,*6A
$PYRTM,2024,128.000540651794,19.110188061933
$GPGGA,000045.00,3308.8624,N,11818.9657,W,1,11,0.8,10.7,M,-34.5,M,,*62
$PYRTM,2024,128.000552573750,19.110199983889
$GPGGA,000046.00,3308.8608,N,11818.9634,W,1,11,0.8,10.2,M,-34.5,M,,*6F
$PYRTM,2024,128.000563337211,19.110210747361
$GPGGA,000047.00,3308.8591,N,11818.9611,W,1,11,0.8,13.3,M,-34.5,M,,*68
$PYRTM,2024,128.000578951042,19.110226361181
$GPGGA,000048.00,3308.8575,N,11818.9588,W,1,11,0.8,12.8,M,-34.5,M,,*64
$PYRTM,2024,128.000590175451,19.110237585602
$GPGGA,000049.00,3308.8560,N,11818.9565,W,1,11,0.8,10.0,M,-34.5,M,,*68
$PYRTM,2024,128.000601302731,19.110248712870
$GPGGA,000050.00,3308.8545,N,11818.9542,W,1,11,0.8,8.1,M,-34.5,M,,*5A
$PYRTM,2024,128.000612415648,19.110259825787
$GPGGA,000051.00,3308.8530,N,11818.9520,W,1,11,0.8,7.4,M,-34.5,M,,*57
$PYRTM,2024,128.000623973252,19.110271383391
$GPGGA,000052.00,3308.8516,N,11818.9498,W,1,11,0.8,10.1,M,-34.5,M,,*61
$PYRTM,2024,128.000635084502,19.110282494641
$GPGGA,000053.00,3308.8501,N,11818.9477,W,1,11,0.8,10.9,M,-34.5,M,,*6F
$PYRTM,2024,128.000646208252,19.110293618391
$GPGGA,000054.00,3308.8486,N,11818.9456,W,1,11,0.8,7.7,M,-34.5,M,,*5D
$PYRTM,2024,128.000668763125,19.110316173275
$GPGGA,000055.00,3308.8472,N,11818.9435,W,1,11,0.8,9.8,M,-34.5,M,,*53
$PYRTM,2024,128.000679876921,19.110327287060
$GPGGA,000056.00,3308.8457,N,11818.9413,W,1,11,0.8,9.8,M,-34.5,M,,*53
$PYRTM,2024,128.000690986736,19.110338396875
$GPGGA,000057.00,3308.8443,N,11818.9390,W,1,11,0.8,7.6,M,-34.5,M,,*5B
$PYRTM,2024,128.000702097037,19.110349507176
$GPGGA,000058.00,3308.8428,N,11818.9367,W,1,11,0.8,9.2,M,-34.5,M,,*5B
$PYRTM,2024,128.000713208264,19.110360618403
$GPGGA,000059.00,3308.8413,N,11818.9343,W,1,11,0.8,9.7,M,-34.5,M,,*51
$PYRTM,2024,128.000724449595,19.110371859745
$GPGGA,000100.00,3308.8398,N,11818.9321,W,1,11,0.8,11.0,M,-34.5,M,,*62
$PYRTM,2024,128.000735574641,19.110382984780
$GPGGA,000101.00,3308.8383,N,11818.9298,W,1,11,0.8,11.6,M,-34.5,M,,*6C
$PYRTM,2024,128.000746671678,19.110394081817
$GPGGA,000102.00,3308.8367,N,11818.9276,W,1,11,0.8,8.8,M,-34.5,M,,*53
$PYRTM,2024,128.000757783102,19.110405193241
$GPGGA,000103.00,3308.8352,N,11818.9254,W,1,11,0.8,8.2,M,-34.5,M,,*5E
$PYRTM,2024,128.000768894537,19.110416304676
$GPGGA,000104.00,3308.8335,N,11818.9231,W,1,11,0.8,9.1,M,-34.5,M,,*59
$PYRTM,2024,128.000780005359,19.110427415509
$GPGGA,000105.00,3308.8319,N,11818.9209,W,1,11,0.8,7.5,M,-34.5,M,,*57
$PYRTM,2024,128.000791119919,19.110438530069
$GPGGA,000106.00,3308.8303,N,11818.9187,W,1,11,0.8,10.9,M,-34.5,M,,*60
$PYRTM,2024,128.000802342986,19.110449753137
$GPGGA,000107.00,3308.8288,N,11818.9165,W,1,11,0.8,10.9,M,-34.5,M,,*6F
$PYRTM,2024,128.000813802963,19.110461213102
$GPGGA,000108.00,3308.8273,N,11818.9146,W,1,11,0.8,8.8,M,-34.5,M,,*5D
$PYRTM,2024,128.000825015347,19.110472425486
$GPGGA,000109.00,3308.8258,N,11818.9126,W,1,11,0.8,10.5,M,-34.5,M,,*67
$PYRTM,2024,128.000836127025,19.110483537164
$GPGGA,000110.00,3308.8243,N,11818.9104,W,1,11,0.8,9.9,M,-34.5,M,,*51
$PYRTM,2024,128.000847239074,19.110494649213
$GPGGA,000111.00,3308.8227,N,11818.9083,W,1,11,0.8,10.4,M,-34.5,M,,*69
$PYRTM,2024,128.000858349931,19.110505760081
$GPGGA,000112.00,3308.8212,N,11818.9061,W,1,11,0.8,10.8,M,-34.5,M,,*6C
$PYRTM,2024,128.000869460891,19.110516871042
$GPGGA,000113.00,3308.8197,N,11818.9039,W,1,10,0.8,9.8,M,-34.5,M,,*57
$PYRTM,2024,128.000880572639,19.110527982778
$GPGGA,000114.00,3308.8182,N,11818.9017,W,1,10,0.8,9.8,M,-34.5,M,,*58
$PYRTM,2024,128.000891683715,19.110539093854
$GPGGA,000115.00,3308.8168,N,11818.8994,W,1,11,0.8,9.5,M,-34.5,M,,*52
$PYRTM,2024,128.000902792859,19.110550202998
$GPGGA,000116.00,3308.8154,N,11818.8973,W,1,11,0.8,9.3,M,-34.5,M,,*51
$PYRTM,2024,128.000914021586,19.110561431725
$GPGGA,000117.00,3308.8140,N,11818.8950,W,1,11,0.8,10.0,M,-34.5,M,,*6F
$PYRTM,2024,128.000923759572,19.110571169722
$GPGGA,000118.00,3308.8125,N,11818.8928,W,1,11,0.8,11.7,M,-34.5,M,,*6A
$PYRTM,2024,128.000934866979,19.110582277130
$GPGGA,000119.00,3308.8110,N,11818.8906,W,1,11,0.8,11.4,M,-34.5,M,,*62
$PYRTM,2024,128.000947135255,19.110594545394
$GPGGA,000120.00,3308.8095,N,11818.8884,W,1,11,0.8,11.8,M,-34.5,M,,*63
$PYRTM,2024,128.000958352905,19.110605763056
$GPGGA,000121.00,3308.8081,N,11818.8862,W,1,11,0.8,10.7,M,-34.5,M,,*61
$PYRTM,2024,128.000969925220,19.110617335359
$GPGGA,000122.00,3308.8066,N,11818.8839,W,1,11,0.8,11.3,M,-34.5,M,,*60
$PYRTM,2024,128.000981280417,19.110628690556
$GPGGA,000123.00,3308.8051,N,11818.8817,W,1,11,0.8,9.2,M,-34.5,M,,*51
$PYRTM,2024,128.000992840694,19.110640250845
$GPGGA,000124.00,3308.8036,N,11818.8793,W,1,11,0.8,10.6,M,-34.5,M,,*68
$PYRTM,2024,128.001004428843,19.110651838981
$GPGGA,000125.00,3308.8021,N,11818.8771,W,1,11,0.8,10.0,M,-34.5,M,,*65
$PYRTM,2024,128.001015987616,19.110663397766
$GPGGA,000126.00,3308.8006,N,11818.8749,W,1,11,0.8,11.1,M,-34.5,M,,*68
$PYRTM,2024,128.001027571030,19.110674981169
$GPGGA,000127.00,3308.7990,N,11818.8727,W,1,11,0.8,11.7,M,-34.5,M,,*6E
$PYRTM,2024,128.001039136400,19.110686546528
$GPGGA,000128.00,3308.7974,N,11818.8705,W,1,11,0.8,8.5,M,-34.5,M,,*51
$PYRTM,2024,128.001050724606,19.110698134745
$GPGGA,000129.00,3308.7959,N,11818.8683,W,1,11,0.8,8.8,M,-34.5,M,,*5D
$PYRTM,2024,128.001062285903,19.110709696053
$GPGGA,000130.00,3308.7943,N,11818.8660,W,1,11,0.8,10.3,M,-34.5,M,,*61
$PYRTM,2024,128.001073872870,19.110721283009
$GPGGA,000131.00,3308.7927,N,11818.8638,W,1,11,0.8,11.4,M,-34.5,M,,*69
$PYRTM,2024,128.001085433299,19.110732843437
$GPGGA,000132.00,3308.7911,N,11818.8616,W,1,11,0.8,10.5,M,-34.5,M,,*63
$PYRTM,2024,128.001097021111,19.110744431250
$GPGGA,000133.00,3308.7895,N,11818.8594,W,1,11,0.8,7.3,M,-34.5,M,,*56
$PYRTM,2024,128.001108581690,19.110755991829
$GPGGA,000134.00,3308.7879,N,11818.8572,W,1,11,0.8,7.7,M,-34.5,M,,*5F
$PYRTM,2024,128.001120169826,19.110767579965
$GPGGA,000135.00,3308.7863,N,11818.8550,W,1,11,0.8,9.4,M,-34.5,M,,*58
$PYRTM,2024,128.001131731887,19.110779142037
$GPGGA,000136.00,3308.7848,N,11818.8526,W,1,11,0.8,9.7,M,-34.5,M,,*50
$PYRTM,2024,128.001143313414,19.110790723553
$GPGGA,000137.00,3308.7832,N,11818.8503,W,1,11,0.8,10.0,M,-34.5,M,,*64
$PYRTM,2024,128.001154877257,19.110802287396
$GPGGA,000138.00,3308.7816,N,11818.8479,W,1,11,0.8,7.8,M,-34.5,M,,*5F
$PYRTM,2024,128.001166466481,19.110813876632
$GPGGA,000139.00,3308.7801,N,11818.8457,W,1,10,0.8,5.8,M,-34.5,M,,*57
$PYRTM,2024,128.001178026354,19.110825436493
$GPGGA,000140.00,3308.7787,N,11818.8435,W,1,11,0.8,7.0,M,-34.5,M,,*57
$PYRTM,2024,128.001189614317,19.110837024456
$GPGGA,000141.00,3308.7773,N,11818.8412,W,1,11,0.8,4.8,M,-34.5,M,,*53
$PYRTM,2024,128.001201174514,19.110848584653
$GPGGA,000142.00,3308.7758,N,11818.8390,W,1,10,0.8,2.8,M,-34.5,M,,*53
$PYRTM,2024,128.001212762350,19.110860172500
$GPGGA,000143.00,3308.7744,N,11818.8369,W,1,10,0.8,4.8,M,-34.5,M,,*5F
$PYRTM,2024,128.001224322905,19.110871733044
$GPGGA,000144.00,3308.7729,N,11818.8347,W,1,11,0.8,4.8,M,-34.5,M,,*5E
$PYRTM,2024,128.001235910856,19.110883320995
$GPGGA,000145.00,3308.7713,N,11818.8326,W,1,11,0.8,6.7,M,-34.5,M,,*5C
$PYRTM,2024,128.001247470104,19.110894880243
$GPGGA,000146.00,3308.7698,N,11818.8305,W,1,11,0.8,5.3,M,-34.5,M,,*5B
$PYRTM,2024,128.001259059896,19.110906470046
$GPGGA,000147.00,3308.7683,N,11818.8284,W,1,11,0.8,6.7,M,-34.5,M,,*5F
$PYRTM,2024,128.001269246123,19.110916656262
$GPGGA,000148.00,3308.7668,N,11818.8262,W,1,11,0.8,8.2,M,-34.5,M,,*56
$PYRTM,2024,128.001281165961,19.110928576100
$GPGGA,000149.00,3308.7652,N,11818.8239,W,1,11,0.8,7.3,M,-34.5,M,,*5E
$PYRTM,2024,128.001293769630,19.110941179780
$GPGGA,000150.00,3308.7637,N,11818.8217,W,1,11,0.8,7.7,M,-34.5,M,,*5D
$PYRTM,2024,128.001305355185,19.110952765324
$GPGGA,000151.00,3308.7622,N,11818.8194,W,1,11,0.8,8.5,M,-34.5,M,,*5D
$PYRTM,2024,128.001316915567,19.110964325706
$GPGGA,000152.00,3308.7608,N,11818.8171,W,1,11,0.8,7.5,M,-34.5,M,,*52
$PYRTM,2024,128.001328499618,19.110975909769
$GPGGA,000153.00,3308.7594,N,11818.8149,W,1,11,0.8,7.9,M,-34.5,M,,*52
$PYRTM,2024,128.001340063530,19.110987473669
$GPGGA,000154.00,3308.7580,N,11818.8127,W,1,11,0.8,8.5,M,-34.5,M,,*5B
$PYRTM,2024,128.001351651759,19.110999061898
$GPGGA,000155.00,3308.7565,N,11818.8107,W,1,11,0.8,5.8,M,-34.5,M,,*53
$PYRTM,2024,128.001363212095,19.111010622234
$GPGGA,000156.00,3308.7550,N,11818.8088,W,1,11,0.8,5.8,M,-34.5,M,,*50
$PYRTM,2024,128.001374795914,19.111022206053
$GPGGA,000157.00,3308.7534,N,11818.8068,W,1,11,0.8,5.9,M,-34.5,M,,*5C
$PYRTM,2024,128.001386359965,19.111033770104
$GPGGA,000158.00,3308.7519,N,11818.8046,W,1,11,0.8,5.1,M,-34.5,M,,*58
$PYRTM,2024,128.001397948750,19.111045358889
$GPGGA,000159.00,3308.7504,N,11818.8024,W,1,11,0.8,5.2,M,-34.5,M,,*52
$PYRTM,2024,128.001409508148,19.111056918287
$GPGGA,000200.00,3308.7489,N,11818.8002,W,1,11,0.8,4.7,M,-34.5,M,,*59
$PYRTM,2024,128.001421091887,19.111068502025
$GPGGA,000201.00,3308.7474,N,11818.7980,W,1,11,0.8,4.5,M,-34.5,M,,*54
$PYRTM,2024,128.001432657870,19.111080068009
$GPGGA,000202.00,3308.7457,N,11818.7959,W,1,11,0.8,6.6,M,-34.5,M,,*53
$PYRTM,2024,128.001444245590,19.111091655729
$GPGGA,000203.00,3308.7442,N,11818.7937,W,1,11,0.8,8.0,M,-34.5,M,,*56
$PYRTM,2024,128.001455806053,19.111103216192
$GPGGA,000204.00,3308.7428,N,11818.7913,W,1,11,0.8,9.3,M,-34.5,M,,*59
$PYRTM,2024,128.001467389745,19.111114799884
$GPGGA,000205.00,3308.7413,N,11818.7890,W,1,11,0.8,9.5,M,-34.5,M,,*5C
$PYRTM,2024,128.001478954722,19.111126364873
$GPGGA,000206.00,3308.7395,N,11818.7867,W,1,11,0.8,12.1,M,-34.5,M,,*60
$PYRTM,2024,128.001490542905,19.111137953044
$GPGGA,000207.00,3308.7379,N,11818.7845,W,1,11,0.8,10.7,M,-34.5,M,,*67
$PYRTM,2024,128.001502102060,19.111149512199
$GPGGA,000208.00,3308.7363,N,11818.7822,W,1,10,0.8,10.6,M,-34.5,M,,*62
$PYRTM,2024,128.001513685671,19.111161095822
$GPGGA,000209.00,3308.7349,N,11818.7798,W,1,11,0.8,10.5,M,-34.5,M,,*67
$PYRTM,2024,128.001525250694,19.111172660833
$GPGGA,000210.00,3308.7336,N,11818.7774,W,1,11,0.8,10.0,M,-34.5,M,,*60
$PYRTM,2024,128.001536838241,19.111184248380
$GPGGA,000211.00,3308.7321,N,11818.7752,W,1,11,0.8,10.5,M,-34.5,M,,*66
$PYRTM,2024,128.001548398472,19.111195808611
$GPGGA,000212.00,3308.7306,N,11818.7730,W,1,11,0.8,9.8,M,-34.5,M,,*51
$PYRTM,2024,128.001559986354,19.111207396493
$GPGGA,000213.00,3308.7290,N,11818.7710,W,1,11,0.8,9.6,M,-34.5,M,,*52
$PYRTM,2024,128.001571547535,19.111218957674
$GPGGA,000214.00,3308.7274,N,11818.7688,W,1,11,0.8,10.4,M,-34.5,M,,*65
$PYRTM,2024,128.001583136100,19.111230546238
$GPGGA,000215.00,3308.7259,N,11818.7666,W,1,11,0.8,5.3,M,-34.5,M,,*58
$PYRTM,2024,128.001594698160,19.111242108299
$GPGGA,000216.00,3308.7243,N,11818.7644,W,1,11,0.8,6.3,M,-34.5,M,,*53
$PYRTM,2024,128.001606278472,19.111253688611
$GPGGA,000217.00,3308.7228,N,11818.7623,W,1,11,0.8,8.1,M,-34.5,M,,*52
$PYRTM,2024,128.001616580208,19.111263990347
$GPGGA,000218.00,3308.7213,N,11818.7601,W,1,11,0.8,10.4,M,-34.5,M,,*69
$PYRTM,2024,128.001628390370,19.111275800509
$GPGGA,000219.00,3308.7199,N,11818.7579,W,1,11,0.8,10.0,M,-34.5,M,,*61
$PYRTM,2024,128.001640991713,19.111288401852
$GPGGA,000220.00,3308.7186,N,11818.7557,W,1,11,0.8,8.7,M,-34.5,M,,*57
$PYRTM,2024,128.001652575451,19.111299985590
$GPGGA,000221.00,3308.7171,N,11818.7534,W,1,11,0.8,10.4,M,-34.5,M,,*61
$PYRTM,2024,128.001664618264,19.111312028414
$GPGGA,000222.00,3308.7157,N,11818.7511,W,1,11,0.8,11.5,M,-34.5,M,,*61
$PYRTM,2024,128.001676177025,19.111323587164
$GPGGA,000223.00,3308.7141,N,11818.7489,W,1,11,0.8,12.0,M,-34.5,M,,*61
$PYRTM,2024,128.001687765069,19.111335175208
$GPGGA,000224.00,3308.7125,N,11818.7466,W,1,11,0.8,7.9,M,-34.5,M,,*58
$PYRTM,2024,128.001698876713,19.111346286852
$GPGGA,000225.00,3308.7110,N,11818.7442,W,1,11,0.8,7.5,M,-34.5,M,,*55
$PYRTM,2024,128.001710437407,19.111357847546
$GPGGA,000226.00,3308.7094,N,11818.7419,W,1,11,0.8,9.6,M,-34.5,M,,*58
$PYRTM,2024,128.001722019734,19.111369429873
$GPGGA,000227.00,3308.7078,N,11818.7396,W,1,11,0.8,10.6,M,-34.5,M,,*63
$PYRTM,2024,128.001733586609,19.111380996748
$GPGGA,000228.00,3308.7064,N,11818.7373,W,1,11,0.8,12.4,M,-34.5,M,,*6A
$PYRTM,2024,128.001745173252,19.111392583391
$GPGGA,000229.00,3308.7050,N,11818.7350,W,1,11,0.8,9.4,M,-34.5,M,,*57
$PYRTM,2024,128.001756733912,19.111404144051
$GPGGA,000230.00,3308.7036,N,11818.7328,W,1,11,0.8,9.8,M,-34.5,M,,*5C
$PYRTM,2024,128.001768320833,19.111415730972
$GPGGA,000231.00,3308.7023,N,11818.7307,W,1,11,0.8,9.3,M,-34.5,M,,*5F
$PYRTM,2024,128.001779881551,19.111427291690
$GPGGA,000232.00,3308.7008,N,11818.7286,W,1,11,0.8,11.0,M,-34.5,M,,*67
$PYRTM,2024,128.001791469317,19.111438879456
$GPGGA,000233.00,3308.6994,N,11818.7265,W,1,11,0.8,8.3,M,-34.5,M,,*5D
$PYRTM,2024,128.001803030301,19.111450440440
$GPGGA,000234.00,3308.6978,N,11818.7244,W,1,10,0.8,6.9,M,-34.5,M,,*5E
$PYRTM,2024,128.001814617975,19.111462028113
$GPGGA,000235.00,3308.6962,N,11818.7222,W,1,11,0.8,7.5,M,-34.5,M,,*58
$PYRTM,2024,128.001826177292,19.111473587431
$GPGGA,000236.00,3308.6946,N,11818.7199,W,1,11,0.8,9.5,M,-34.5,M,,*50
$PYRTM,2024,128.001837761331,19.111485171470
$GPGGA,000237.00,3308.6929,N,11818.7176,W,1,11,0.8,9.1,M,-34.5,M,,*5D
$PYRTM,2024,128.001849457303,19.111496867442
$GPGGA,000238.00,3308.6914,N,11818.7153,W,1,11,0.8,11.4,M,-34.5,M,,*67
$PYRTM,2024,128.001860914676,19.111508324815
$GPGGA,000239.00,3308.6899,N,11818.7128,W,1,10,0.8,13.1,M,-34.5,M,,*68
$PYRTM,2024,128.001872473854,19.111519883993
$GPGGA,000240.00,3308.6885,N,11818.7104,W,1,10,0.8,10.5,M,-34.5,M,,*62
$PYRTM,2024,128.001884062813,19.111531472963
$GPGGA,000241.00,3308.6871,N,11818.7081,W,1,11,0.8,9.9,M,-34.5,M,,*51
$PYRTM,2024,128.001895622535,19.111543032674
$GPGGA,000242.00,3308.6857,N,11818.7059,W,1,11,0.8,8.4,M,-34.5,M,,*5F
$PYRTM,2024,128.001907211088,19.111554621238
$GPGGA,000243.00,3308.6842,N,11818.7039,W,1,11,0.8,5.6,M,-34.5,M,,*53
$PYRTM,2024,128.001918771424,19.111566181562
$GPGGA,000244.00,3308.6827,N,11818.7018,W,1,11,0.8,6.5,M,-34.5,M,,*54
$PYRTM,2024,128.001930354201,19.111577764352
$GPGGA,000245.00,3308.6813,N,11818.6996,W,1,11,0.8,6.1,M,-34.5,M,,*58
$PYRTM,2024,128.001941918935,19.111589329074
$GPGGA,000246.00,3308.6797,N,11818.6976,W,1,11,0.8,8.2,M,-34.5,M,,*5B
$PYRTM,2024,128.001952576505,19.111599986644
$GPGGA,000247.00,3308.6781,N,11818.6954,W,1,11,0.8,7.6,M,-34.5,M,,*56
$PYRTM,2024,128.001966111100,19.111613521238
$GPGGA,000248.00,3308.6763,N,11818.6932,W,1,11,0.8,8.1,M,-34.5,M,,*5D
$PYRTM,2024,128.001976772176,19.111624182315
$GPGGA,000249.00,3308.6749,N,11818.6908,W,1,10,0.8,10.2,M,-34.5,M,,*66
$PYRTM,2024,128.001987058704,19.111634468843
$GPGGA,000250.00,3308.6734,N,11818.6884,W,1,10,0.8,9.6,M,-34.5,M,,*5D
$PYRTM,2024,128.002000022095,19.111647432234
$GPGGA,000251.00,3308.6719,N,11818.6861,W,1,11,0.8,7.6,M,-34.5,M,,*57
$PYRTM,2024,128.002010683472,19.111658093611
$GPGGA,000252.00,3308.6704,N,11818.6839,W,1,11,0.8,6.2,M,-34.5,M,,*50
$PYRTM,2024,128.002028394942,19.111675805081
$GPGGA,000253.00,3308.6689,N,11818.6818,W,1,11,0.8,7.5,M,-34.5,M,,*50
$PYRTM,2024,128.002039503380,19.111686913519
$GPGGA,000254.00,3308.6673,N,11818.6797,W,1,11,0.8,9.1,M,-34.5,M,,*50
$PYRTM,2024,128.002050614734,19.111698024873
$GPGGA,000255.00,3308.6659,N,11818.6776,W,1,11,0.8,8.7,M,-34.5,M,,*51
$PYRTM,2024,128.002061727199,19.111709137338
$GPGGA,000256.00,3308.6644,N,11818.6754,W,1,11,0.8,7.7,M,-34.5,M,,*51
$PYRTM,2024,128.002072833241,19.111720243380
$GPGGA,000257.00,3308.6629,N,11818.6733,W,1,11,0.8,8.1,M,-34.5,M,,*53
$PYRTM,2024,128.002083969120,19.111731379259
$GPGGA,000258.00,3308.6613,N,11818.6711,W,1,11,0.8,8.0,M,-34.5,M,,*54
$PYRTM,2024,128.002095048009,19.111742458148
$GPGGA,000259.00,3308.6598,N,11818.6689,W,1,11,0.8,7.8,M,-34.5,M,,*52
$PYRTM,2024,128.002106171829,19.111753581968
$GPGGA,000300.00,3308.6583,N,11818.6667,W,1,11,0.8,5.8,M,-34.5,M,,*57
$PYRTM,2024,128.002117281493,19.111764691632
$GPGGA,000301.00,3308.6568,N,11818.6643,W,1,11,0.8,8.0,M,-34.5,M,,*50
$PYRTM,2024,128.002128381227,19.111775791366
$GPGGA,000302.00,3308.6552,N,11818.6620,W,1,11,0.8,9.4,M,-34.5,M,,*5A
$PYRTM,2024,128.002139509491,19.111786919641
$GPGGA,000303.00,3308.6536,N,11818.6597,W,1,11,0.8,7.8,M,-34.5,M,,*54
$PYRTM,2024,128.002150610845,19.111798020984
$GPGGA,000304.00,3308.6521,N,11818.6575,W,1,11,0.8,7.1,M,-34.5,M,,*50
$PYRTM,2024,128.002161729769,19.111809139907
$GPGGA,000305.00,3308.6506,N,11818.6553,W,1,11,0.8,9.4,M,-34.5,M,,*5B
$PYRTM,2024,128.002172955139,19.111820365289
$GPGGA,000306.00,3308.6492,N,11818.6531,W,1,11,0.8,10.5,M,-34.5,M,,*69
$PYRTM,2024,128.002184401030,19.111831811169
$GPGGA,000307.00,3308.6478,N,11818.6509,W,1,11,0.8,8.4,M,-34.5,M,,*5F
$PYRTM,2024,128.002195986273,19.111843396412
$GPGGA,000308.00,3308.6464,N,11818.6488,W,1,11,0.8,7.1,M,-34.5,M,,*5F
$PYRTM,2024,128.002207549178,19.111854959317
$GPGGA,000309.00,3308.6449,N,11818.6467,W,1,11,0.8,6.8,M,-34.5,M,,*58
$PYRTM,2024,128.002219130486,19.111866540625
$GPGGA,000310.00,3308.6434,N,11818.6445,W,1,11,0.8,6.2,M,-34.5,M,,*50
$PYRTM,2024,128.002230696782,19.111878106921
$GPGGA,000311.00,3308.6419,N,11818.6422,W,1,11,0.8,5.0,M,-34.5,M,,*5E
$PYRTM,2024,128.002242285845,19.111889695984
$GPGGA,000312.00,3308.6403,N,11818.6399,W,1,11,0.8,7.0,M,-34.5,M,,*53
$PYRTM,2024,128.002253844641,19.111901254780
$GPGGA,000313.00,3308.6387,N,11818.6375,W,1,11,0.8,9.4,M,-34.5,M,,*51
$PYRTM,2024,128.002265435752,19.111912845891
$GPGGA,000314.00,3308.6372,N,11818.6351,W,1,11,0.8,10.0,M,-34.5,M,,*66
$PYRTM,2024,128.002276993021,19.111924403160
$GPGGA,000315.00,3308.6357,N,11818.6327,W,1,11,0.8,12.0,M,-34.5,M,,*63
$PYRTM,2024,128.002288574838,19.111935984977
$GPGGA,000316.00,3308.6343,N,11818.6304,W,1,11,0.8,8.9,M,-34.5,M,,*56
$PYRTM,2024,128.002300141771,19.111947551910
$GPGGA,000317.00,3308.6329,N,11818.6282,W,1,11,0.8,8.6,M,-34.5,M,,*5B
$PYRTM,2024,128.002312293495,19.111959703634
$GPGGA,000318.00,3308.6315,N,11818.6261,W,1,11,0.8,7.8,M,-34.5,M,,*57
$PYRTM,2024,128.002323875463,19.111971285602
$GPGGA,000319.00,3308.6300,N,11818.6240,W,1,11,0.8,8.3,M,-34.5,M,,*55
$PYRTM,2024,128.002335440694,19.111982850833
$GPGGA,000320.00,3308.6286,N,11818.6220,W,1,11,0.8,7.2,M,-34.5,M,,*58
$PYRTM,2024,128.002347029699,19.111994439838
$GPGGA,000321.00,3308.6271,N,11818.6199,W,1,11,0.8,7.4,M,-34.5,M,,*56
$PYRTM,2024,128.002358587986,19.112005998125
$GPGGA,000322.00,3308.6255,N,11818.6178,W,1,11,0.8,6.6,M,-34.5,M,,*5F
$PYRTM,2024,128.002370176539,19.112017586678
$GPGGA,000323.00,3308.6238,N,11818.6158,W,1,11,0.8,9.0,M,-34.5,M,,*5E
$PYRTM,2024,128.002381737558,19.112029147708
$GPGGA,000324.00,3308.6222,N,11818.6135,W,1,11,0.8,10.0,M,-34.5,M,,*61
$PYRTM,2024,128.002393325903,19.112040736042
$GPGGA,000325.00,3308.6207,N,11818.6111,W,1,11,0.8,10.3,M,-34.5,M,,*62
$PYRTM,2024,128.002404883819,19.112052293958
$GPGGA,000326.00,3308.6193,N,11818.6086,W,1,11,0.8,10.4,M,-34.5,M,,*67
$PYRTM,2024,128.002416474074,19.112063884213
$GPGGA,000327.00,3308.6179,N,11818.6062,W,1,11,0.8,7.3,M,-34.5,M,,*59
$PYRTM,2024,128.002428032222,19.112075442361
$GPGGA,000328.00,3308.6166,N,11818.6041,W,1,11,0.8,8.2,M,-34.5,M,,*57
$PYRTM,2024,128.002439623021,19.112087033160
$GPGGA,000329.00,3308.6152,N,11818.6020,W,1,11,0.8,7.0,M,-34.5,M,,*5B
$PYRTM,2024,128.002451181528,19.112098591667
$GPGGA,000330.00,3308.6138,N,11818.6000,W,1,10,0.8,6.3,M,-34.5,M,,*5E
$PYRTM,2024,128.002462771354,19.112110181505
$GPGGA,000331.00,3308.6123,N,11818.5980,W,1,10,0.8,6.5,M,-34.5,M,,*51
$PYRTM,2024,128.002474330498,19.112121740637
$GPGGA,000332.00,3308.6108,N,11818.5959,W,1,10,0.8,10.6,M,-34.5,M,,*6B
$PYRTM,2024,128.002485914491,19.112133324630
$GPGGA,000333.00,3308.6092,N,11818.5937,W,1,11,0.8,10.7,M,-34.5,M,,*60
$PYRTM,2024,128.002497478148,19.112144888287
$GPGGA,000334.00,3308.6077,N,11818.5914,W,1,11,0.8,9.5,M,-34.5,M,,*57
$PYRTM,2024,128.002509062222,19.112156472373
$GPGGA,000335.00,3308.6063,N,11818.5892,W,1,11,0.8,9.6,M,-34.5,M,,*5F
$PYRTM,2024,128.002520627581,19.112168037720
$GPGGA,000336.00,3308.6049,N,11818.5870,W,1,11,0.8,9.7,M,-34.5,M,,*59
$PYRTM,2024,128.002532216146,19.112179626285
$GPGGA,000337.00,3308.6036,N,11818.5847,W,1,11,0.8,8.9,M,-34.5,M,,*5B
$PYRTM,2024,128.002543774769,19.112191184907
$GPGGA,000338.00,3308.6022,N,11818.5824,W,1,11,0.8,8.0,M,-34.5,M,,*5D
$PYRTM,2024,128.002555363137,19.112202773275
$GPGGA,000339.00,3308.6008,N,11818.5802,W,1,11,0.8,8.3,M,-34.5,M,,*53
$PYRTM,2024,128.002566923368,19.112214333507
$GPGGA,000340.00,3308.5993,N,11818.5781,W,1,11,0.8,9.5,M,-34.5,M,,*56
$PYRTM,2024,128.002578511968,19.112225922106
$GPGGA,000341.00,3308.5978,N,11818.5761,W,1,11,0.8,9.2,M,-34.5,M,,*5B
$PYRTM,2024,128.002590072199,19.112237482338
$GPGGA,000342.00,3308.5963,N,11818.5740,W,1,11,0.8,11.8,M,-34.5,M,,*62
$PYRTM,2024,128.002601661343,19.112249071481
$GPGGA,000343.00,3308.5949,N,11818.5719,W,1,11,0.8,11.0,M,-34.5,M,,*6F
$PYRTM,2024,128.002613219699,19.112260629838
$GPGGA,000344.00,3308.5934,N,11818.5697,W,1,11,0.8,7.6,M,-34.5,M,,*54
$PYRTM,2024,128.002624807847,19.112272217986
$GPGGA,000345.00,3308.5918,N,11818.5677,W,1,11,0.8,8.7,M,-34.5,M,,*5B
$PYRTM,2024,128.002636369988,19.112283780127
$GPGGA,000346.00,3308.5902,N,11818.5656,W,1,11,0.8,7.2,M,-34.5,M,,*5A
$PYRTM,2024,128.002647956238,19.112295366377
$GPGGA,000347.00,3308.5885,N,11818.5635,W,1,11,0.8,6.6,M,-34.5,M,,*55
$PYRTM,2024,128.002658141065,19.112305551204
$GPGGA,000348.00,3308.5869,N,11818.5612,W,1,11,0.8,6.3,M,-34.5,M,,*58
$PYRTM,2024,128.002670066620,19.112317476771
$GPGGA,000349.00,3308.5854,N,11818.5588,W,1,11,0.8,7.8,M,-34.5,M,,*5D
$PYRTM,2024,128.002682664583,19.112330074722
$GPGGA,000350.00,3308.5839,N,11818.5566,W,1,11,0.8,8.3,M,-34.5,M,,*5A
$PYRTM,2024,128.002694253079,19.112341663218
$GPGGA,000351.00,3308.5823,N,11818.5544,W,1,11,0.8,6.4,M,-34.5,M,,*59
$PYRTM,2024,128.002705812708,19.112353222847
$GPGGA,000352.00,3308.5808,N,11818.5522,W,1,11,0.8,4.2,M,-34.5,M,,*57
$PYRTM,2024,128.002717402338,19.112364812477
$GPGGA,000353.00,3308.5794,N,11818.5500,W,1,11,0.8,5.7,M,-34.5,M,,*58
$PYRTM,2024,128.002728961424,19.112376371563
$GPGGA,000354.00,3308.5780,N,11818.5479,W,1,11,0.8,5.9,M,-34.5,M,,*5B
$PYRTM,2024,128.002740550278,19.112387960417
$GPGGA,000355.00,3308.5766,N,11818.5459,W,1,11,0.8,6.1,M,-34.5,M,,*5B
$PYRTM,2024,128.002752111632,19.112399521782
$GPGGA,000356.00,3308.5751,N,11818.5439,W,1,11,0.8,9.6,M,-34.5,M,,*52
$PYRTM,2024,128.002763695532,19.112411105671
$GPGGA,000357.00,3308.5736,N,11818.5419,W,1,11,0.8,7.9,M,-34.5,M,,*51
$PYRTM,2024,128.002775257951,19.112422668090
$GPGGA,000358.00,3308.5721,N,11818.5397,W,1,11,0.8,9.4,M,-34.5,M,,*5A
$PYRTM,2024,128.002786846620,19.112434256759
$GPGGA,000359.00,3308.5706,N,11818.5375,W,1,11,0.8,11.4,M,-34.5,M,,*6B
$PYRTM,2024,128.002798407292,19.112445817431
$GPGGA,000400.00,3308.5691,N,11818.5352,W,1,11,0.8,11.4,M,-34.5,M,,*6A
$PYRTM,2024,128.002809994838,19.112457404977
$GPGGA,000401.00,3308.5675,N,11818.5328,W,1,11,0.8,10.0,M,-34.5,M,,*69
$PYRTM,2024,128.002821554259,19.112468964398
$GPGGA,000402.00,3308.5659,N,11818.5306,W,1,11,0.8,10.1,M,-34.5,M,,*69
$PYRTM,2024,128.002833143738,19.112480553889
$GPGGA,000403.00,3308.5643,N,11818.5283,W,1,11,0.8,12.6,M,-34.5,M,,*6A
$PYRTM,2024,128.002844701852,19.112492111991
$GPGGA,000404.00,3308.5627,N,11818.5261,W,1,11,0.8,12.8,M,-34.5,M,,*6D
$PYRTM,2024,128.002856287130,19.112503697269
$GPGGA,000405.00,3308.5612,N,11818.5239,W,1,11,0.8,11.3,M,-34.5,M,,*6F
$PYRTM,2024,128.002867851007,19.112515261146
$GPGGA,000406.00,3308.5599,N,11818.5217,W,1,11,0.8,11.0,M,-34.5,M,,*63
$PYRTM,2024,128.002879439155,19.112526849294
$GPGGA,000407.00,3308.5586,N,11818.5195,W,1,11,0.8,9.1,M,-34.5,M,,*5D
$PYRTM,2024,128.002890999086,19.112538409225
$GPGGA,000408.00,3308.5571,N,11818.5174,W,1,11,0.8,8.6,M,-34.5,M,,*53
$PYRTM,2024,128.002902588241,19.112549998380
$GPGGA,000409.00,3308.5556,N,11818.5154,W,1,11,0.8,7.6,M,-34.5,M,,*5A
$PYRTM,2024,128.002914147315,19.112561557465
$GPGGA,000410.00,3308.5541,N,11818.5133,W,1,11,0.8,6.5,M,-34.5,M,,*57
$PYRTM,2024,128.002925736863,19.112573147002
$GPGGA,000411.00,3308.5526,N,11818.5112,W,1,11,0.8,6.8,M,-34.5,M,,*59
$PYRTM,2024,128.002937295127,19.112584705266
$GPGGA,000412.00,3308.5512,N,11818.5090,W,1,11,0.8,6.3,M,-34.5,M,,*5D
$PYRTM,2024,128.002948884549,19.112596294687
$GPGGA,000413.00,3308.5498,N,11818.5067,W,1,11,0.8,8.3,M,-34.5,M,,*59
$PYRTM,2024,128.002960445278,19.112607855417
$GPGGA,000414.00,3308.5483,N,11818.5044,W,1,11,0.8,6.3,M,-34.5,M,,*5B
$PYRTM,2024,128.002972028125,19.112619438264
$GPGGA,000415.00,3308.5468,N,11818.5020,W,1,11,0.8,6.0,M,-34.5,M,,*5E
$PYRTM,2024,128.002983592488,19.112631002627
$GPGGA,000416.00,3308.5454,N,11818.4997,W,1,11,0.8,8.5,M,-34.5,M,,*5D
$PYRTM,2024,128.002995183738,19.112642593877
$GPGGA,000417.00,3308.5439,N,11818.4975,W,1,11,0.8,7.9,M,-34.5,M,,*58
$PYRTM,2024,128.003005368623,19.112652778762
$GPGGA,000418.00,3308.5424,N,11818.4953,W,1,11,0.8,7.4,M,-34.5,M,,*52
$PYRTM,2024,128.003017287951,19.112664698090
$GPGGA,000419.00,3308.5408,N,11818.4931,W,1,11,0.8,5.3,M,-34.5,M,,*5C
$PYRTM,2024,128.003029890880,19.112677301019
$GPGGA,000420.00,3308.5393,N,11818.4910,W,1,11,0.8,6.4,M,-34.5,M,,*54
$PYRTM,2024,128.003041477106,19.112688887245
$GPGGA,000421.00,3308.5378,N,11818.4888,W,1,11,0.8,5.3,M,-34.5,M,,*54
$PYRTM,2024,128.003053039398,19.112700449537
$GPGGA,000422.00,3308.5364,N,11818.4866,W,1,11,0.8,8.6,M,-34.5,M,,*52
$PYRTM,2024,128.003064625451,19.112712035590
$GPGGA,000423.00,3308.5350,N,11818.4843,W,1,11,0.8,9.5,M,-34.5,M,,*51
$PYRTM,2024,128.003076186725,19.112723596863
$GPGGA,000424.00,3308.5336,N,11818.4820,W,1,11,0.8,9.8,M,-34.5,M,,*5E
$PYRTM,2024,128.003087773252,19.112735183391
$GPGGA,000425.00,3308.5322,N,11818.4799,W,1,11,0.8,6.8,M,-34.5,M,,*58
$PYRTM,2024,128.003099334653,19.112746744803
$GPGGA,000426.00,3308.5307,N,11818.4779,W,1,11,0.8,8.0,M,-34.5,M,,*54
$PYRTM,2024,128.003110923021,19.112758333160
$GPGGA,000427.00,3308.5292,N,11818.4757,W,1,11,0.8,6.4,M,-34.5,M,,*5E
$PYRTM,2024,128.003122481319,19.112769891458
$GPGGA,000428.00,3308.5277,N,11818.4736,W,1,11,0.8,8.5,M,-34.5,M,,*52
$PYRTM,2024,128.003134071586,19.112781481736
$GPGGA,000429.00,3308.5262,N,11818.4715,W,1,11,0.8,8.3,M,-34.5,M,,*50
$PYRTM,2024,128.003145630660,19.112793040810
$GPGGA,000430.00,3308.5247,N,11818.4694,W,1,11,0.8,7.5,M,-34.5,M,,*5E
$PYRTM,2024,128.003157216574,19.112804626725
$GPGGA,000431.00,3308.5231,N,11818.4673,W,1,10,0.8,7.0,M,-34.5,M,,*53
$PYRTM,2024,128.003168779456,19.112816189595
$GPGGA,000432.00,3308.5216,N,11818.4652,W,1,11,0.8,7.9,M,-34.5,M,,*5E
$PYRTM,2024,128.003180367245,19.112827777384
$GPGGA,000433.00,3308.5201,N,11818.4630,W,1,11,0.8,5.0,M,-34.5,M,,*56
$PYRTM,2024,128.003191926956,19.112839337095
$GPGGA,000434.00,3308.5187,N,11818.4607,W,1,11,0.8,6.3,M,-34.5,M,,*58
$PYRTM,2024,128.003203516516,19.112850926655
$GPGGA,000435.00,3308.5173,N,11818.4585,W,1,11,0.8,5.1,M,-34.5,M,,*5A
$PYRTM,2024,128.003215075174,19.112862485313
$GPGGA,000436.00,3308.5158,N,11818.4563,W,1,11,0.8,6.4,M,-34.5,M,,*5E
$PYRTM,2024,128.003226664560,19.112874074699
$GPGGA,000437.00,3308.5143,N,11818.4542,W,1,11,0.8,9.7,M,-34.5,M,,*5A
$PYRTM,2024,128.003238223611,19.112885633750
$GPGGA,000438.00,3308.5127,N,11818.4520,W,1,11,0.8,9.8,M,-34.5,M,,*5C
$PYRTM,2024,128.003249813553,19.112897223692
$GPGGA,000439.00,3308.5112,N,11818.4498,W,1,11,0.8,9.7,M,-34.5,M,,*56
$PYRTM,2024,128.003261372315,19.112908782454
$GPGGA,000440.00,3308.5096,N,11818.4476,W,1,11,0.8,7.9,M,-34.5,M,,*55
$PYRTM,2024,128.003272960417,19.112920370556
$GPGGA,000441.00,3308.5081,N,11818.4453,W,1,11,0.8,9.4,M,-34.5,M,,*56
$PYRTM,2024,128.003284520023,19.112931930174
$GPGGA,000442.00,3308.5067,N,11818.4431,W,1,11,0.8,10.2,M,-34.5,M,,*67
$PYRTM,2024,128.003296109792,19.112943519931
$GPGGA,000443.00,3308.5052,N,11818.4408,W,1,11,0.8,9.2,M,-34.5,M,,*52
$PYRTM,2024,128.003307668426,19.112955078565
$GPGGA,000444.00,3308.5038,N,11818.4386,W,1,11,0.8,7.9,M,-34.5,M,,*5D
$PYRTM,2024,128.003319253600,19.112966663750
$GPGGA,000445.00,3308.5025,N,11818.4364,W,1,11,0.8,7.9,M,-34.5,M,,*5C
$PYRTM,2024,128.003330818356,19.112978228495
$GPGGA,000446.00,3308.5011,N,11818.4343,W,1,11,0.8,7.6,M,-34.5,M,,*52
$PYRTM,2024,128.003342405949,19.112989816100
$GPGGA,000447.00,3308.4996,N,11818.4323,W,1,11,0.8,10.4,M,-34.5,M,,*66
$PYRTM,2024,128.003352591852,19.113000001991
$GPGGA,000448.00,3308.4980,N,11818.4301,W,1,11,0.8,9.6,M,-34.5,M,,*54
$PYRTM,2024,128.003364392060,19.113011802199
$GPGGA,000449.00,3308.4964,N,11818.4278,W,1,11,0.8,9.8,M,-34.5,M,,*5E
$PYRTM,2024,128.003377113877,19.113024524016
$GPGGA,000450.00,3308.4948,N,11818.4255,W,1,11,0.8,8.7,M,-34.5,M,,*59
$PYRTM,2024,128.003388701852,19.113036111991
$GPGGA,000451.00,3308.4932,N,11818.4230,W,1,11,0.8,9.8,M,-34.5,M,,*58
$PYRTM,2024,128.003400261759,19.113047671898
$GPGGA,000452.00,3308.4917,N,11818.4206,W,1,11,0.8,9.8,M,-34.5,M,,*59
$PYRTM,2024,128.003411850301,19.113059260440
$GPGGA,000453.00,3308.4902,N,11818.4183,W,1,11,0.8,9.6,M,-34.5,M,,*5C
$PYRTM,2024,128.003423410799,19.113070820938
$GPGGA,000454.00,3308.4887,N,11818.4160,W,1,11,0.8,10.4,M,-34.5,M,,*60
$PYRTM,2024,128.003433032743,19.113080442882
$GPGGA,000455.00,3308.4872,N,11818.4138,W,1,10,0.8,9.6,M,-34.5,M,,*5D
$PYRTM,2024,128.003445997222,19.113093407361
$GPGGA,000456.00,3308.4858,N,11818.4117,W,1,11,0.8,8.8,M,-34.5,M,,*55
$PYRTM,2024,128.003456744306,19.113104154444
$GPGGA,000457.00,3308.4845,N,11818.4096,W,1,11,0.8,8.6,M,-34.5,M,,*5E
$PYRTM,2024,128.003467857164,19.113115267303
$GPGGA,000458.00,3308.4831,N,11818.4077,W,1,11,0.8,7.0,M,-34.5,M,,*54
$PYRTM,2024,128.003478965787,19.113126375926
$GPGGA,000459.00,3308.4817,N,11818.4057,W,1,10,0.8,7.5,M,-34.5,M,,*57
$PYRTM,2024,128.003490077083,19.113137487222
$GPGGA,000500.00,3308.4801,N,11818.4037,W,1,11,0.8,7.8,M,-34.5,M,,*57
$PYRTM,2024,128.003501188009,19.113148598148
$GPGGA,000501.00,3308.4785,N,11818.4016,W,1,11,0.8,10.1,M,-34.5,M,,*69
$PYRTM,2024,128.003512299213,19.113159709352
$GPGGA,000502.00,3308.4769,N,11818.3992,W,1,11,0.8,7.5,M,-34.5,M,,*58
$PYRTM,2024,128.003523411354,19.113170821493
$GPGGA,000503.00,3308.4754,N,11818.3967,W,1,11,0.8,12.0,M,-34.5,M,,*6C
$PYRTM,2024,128.003534656863,19.113182067002
$GPGGA,000504.00,3308.4739,N,11818.3941,W,1,11,0.8,10.4,M,-34.5,M,,*62
$PYRTM,2024,128.003546107118,19.113193517257
$GPGGA,000505.00,3308.4724,N,11818.3916,W,1,11,0.8,10.1,M,-34.5,M,,*68
$PYRTM,2024,128.003557670822,19.113205080961
$GPGGA,000506.00,3308.4710,N,11818.3892,W,1,11,0.8,8.5,M,-34.5,M,,*5C
$PYRTM,2024,128.003569258021,19.113216668160
$GPGGA,000507.00,3308.4696,N,11818.3870,W,1,11,0.8,7.8,M,-34.5,M,,*5C
$PYRTM,2024,128.003580819641,19.113228229780
$GPGGA,000508.00,3308.4682,N,11818.3849,W,1,11,0.8,9.8,M,-34.5,M,,*52
$PYRTM,2024,128.003592408519,19.113239818657
$GPGGA,000509.00,3308.4669,N,11818.3829,W,1,11,0.8,8.4,M,-34.5,M,,*5D
$PYRTM,2024,128.003603966505,19.113251376644
$GPGGA,000510.00,3308.4655,N,11818.3810,W,1,11,0.8,10.3,M,-34.5,M,,*6E
$PYRTM,2024,128.003615557662,19.113262967801
$GPGGA,000511.00,3308.4641,N,11818.3790,W,1,11,0.8,11.5,M,-34.5,M,,*6A
$PYRTM,2024,128.003627114919,19.113274525058
$GPGGA,000512.00,3308.4626,N,11818.3769,W,1,11,0.8,9.7,M,-34.5,M,,*55
$PYRTM,2024,128.003638703229,19.113286113368
$GPGGA,000513.00,3308.4611,N,11818.3747,W,1,11,0.8,7.0,M,-34.5,M,,*55
$PYRTM,2024,128.003650265208,19.113297675347
$GPGGA,000514.00,3308.4595,N,11818.3725,W,1,11,0.8,9.3,M,-34.5,M,,*54
$PYRTM,2024,128.003661851840,19.113309261979
$GPGGA,000515.00,3308.4579,N,11818.3703,W,1,11,0.8,10.4,M,-34.5,M,,*6C
$PYRTM,2024,128.003673411944,19.113320822083
$GPGGA,000516.00,3308.4564,N,11818.3681,W,1,11,0.8,11.8,M,-34.5,M,,*65
$PYRTM,2024,128.003685001331,19.113332411481
$GPGGA,000517.00,3308.4550,N,11818.3659,W,1,11,0.8,8.7,M,-34.5,M,,*51
$PYRTM,2024,128.003700034433,19.113347444572
$GPGGA,000518.00,3308.4536,N,11818.3637,W,1,10,0.8,6.7,M,-34.5,M,,*59
$PYRTM,2024,128.003711624306,19.113359034444
$GPGGA,000519.00,3308.4521,N,11818.3615,W,1,11,0.8,4.8,M,-34.5,M,,*52
$PYRTM,2024,128.003723182894,19.113370593032
$GPGGA,000520.00,3308.4507,N,11818.3594,W,1,11,0.8,6.0,M,-34.5,M,,*5C
$PYRTM,2024,128.003734770382,19.113382180521
$GPGGA,000521.00,3308.4492,N,11818.3575,W,1,11,0.8,5.7,M,-34.5,M,,*5B
$PYRTM,2024,128.003746332037,19.113393742176
$GPGGA,000522.00,3308.4478,N,11818.3554,W,1,11,0.8,5.6,M,-34.5,M,,*5E
$PYRTM,2024,128.003757917512,19.113405327650
$GPGGA,000523.00,3308.4463,N,11818.3533,W,1,10,0.8,5.6,M,-34.5,M,,*55
$PYRTM,2024,128.003769478704,19.113416888843
$GPGGA,000524.00,3308.4446,N,11818.3511,W,1,11,0.8,7.8,M,-34.5,M,,*58
$PYRTM,2024,128.003781067488,19.113428477627
$GPGGA,000525.00,3308.4430,N,11818.3488,W,1,11,0.8,8.5,M,-34.5,M,,*5B
$PYRTM,2024,128.003792628229,19.113440038368
$GPGGA,000526.00,3308.4415,N,11818.3465,W,1,11,0.8,9.5,M,-34.5,M,,*5D
$PYRTM,2024,128.003804213970,19.113451624109
$GPGGA,000527.00,3308.4401,N,11818.3441,W,1,11,0.8,9.4,M,-34.5,M,,*5E
$PYRTM,2024,128.003815775035,19.113463185174
$GPGGA,000528.00,3308.4387,N,11818.3418,W,1,11,0.8,7.5,M,-34.5,M,,*5B
$PYRTM,2024,128.003827362917,19.113474773067
$GPGGA,000529.00,3308.4372,N,11818.3397,W,1,11,0.8,6.5,M,-34.5,M,,*51
$PYRTM,2024,128.003838923287,19.113486333437
$GPGGA,000530.00,3308.4358,N,11818.3376,W,1,11,0.8,8.0,M,-34.5,M,,*55
$PYRTM,2024,128.003850511655,19.113497921794
$GPGGA,000531.00,3308.4344,N,11818.3356,W,1,11,0.8,7.6,M,-34.5,M,,*52
$PYRTM,2024,128.003862071539,19.113509481690
$GPGGA,000532.00,3308.4331,N,11818.3336,W,1,11,0.8,7.5,M,-34.5,M,,*56
$PYRTM,2024,128.003873661875,19.113521072014
$GPGGA,000533.00,3308.4317,N,11818.3316,W,1,11,0.8,8.1,M,-34.5,M,,*5A
$PYRTM,2024,128.003885337049,19.113532747187
$GPGGA,000534.00,3308.4302,N,11818.3295,W,1,11,0.8,10.8,M,-34.5,M,,*63
$PYRTM,2024,128.003896811053,19.113544221204
$GPGGA,000535.00,3308.4287,N,11818.3272,W,1,11,0.8,9.9,M,-34.5,M,,*5E
$PYRTM,2024,128.003908483785,19.113555893924
$GPGGA,000536.00,3308.4272,N,11818.3250,W,1,11,0.8,11.3,M,-34.5,M,,*64
$PYRTM,2024,128.003920072164,19.113567482303
$GPGGA,000537.00,3308.4257,N,11818.3227,W,1,11,0.8,11.9,M,-34.5,M,,*68
$PYRTM,2024,128.003931516424,19.113578926563
$GPGGA,000538.00,3308.4242,N,11818.3204,W,1,11,0.8,9.8,M,-34.5,M,,*5A
$PYRTM,2024,128.003943098785,19.113590508924
$GPGGA,000539.00,3308.4227,N,11818.3181,W,1,11,0.8,8.0,M,-34.5,M,,*5F
$PYRTM,2024,128.003954664201,19.113602074340
$GPGGA,000540.00,3308.4212,N,11818.3158,W,1,11,0.8,8.0,M,-34.5,M,,*53
$PYRTM,2024,128.003966252072,19.113613662211
$GPGGA,000541.00,3308.4198,N,11818.3136,W,1,11,0.8,8.0,M,-34.5,M,,*5B
$PYRTM,2024,128.003977817292,19.113625227431
$GPGGA,000542.00,3308.4185,N,11818.3116,W,1,11,0.8,5.2,M,-34.5,M,,*59
$PYRTM,2024,128.003989401690,19.113636811829
$GPGGA,000543.00,3308.4171,N,11818.3096,W,1,11,0.8,5.4,M,-34.5,M,,*5C
$PYRTM,2024,128.004000961551,19.113648371690
$GPGGA,000544.00,3308.4157,N,11818.3076,W,1,11,0.8,5.8,M,-34.5,M,,*5D
$PYRTM,2024,128.004012543750,19.113659953889
$GPGGA,000545.00,3308.4142,N,11818.3056,W,1,11,0.8,6.6,M,-34.5,M,,*57
$PYRTM,2024,128.004024110139,19.113671520278
$GPGGA,000546.00,3308.4126,N,11818.3035,W,1,11,0.8,4.5,M,-34.5,M,,*52
$PYRTM,2024,128.004035711042,19.113683121181
$GPGGA,000547.00,3308.4110,N,11818.3013,W,1,11,0.8,6.3,M,-34.5,M,,*56
$PYRTM,2024,128.004047039236,19.113694449375
$GPGGA,000548.00,3308.4094,N,11818.2991,W,1,11,0.8,9.4,M,-34.5,M,,*5E
$PYRTM,2024,128.004060002384,19.113707412523
$GPGGA,000549.00,3308.4080,N,11818.2967,W,1,11,0.8,8.7,M,-34.5,M,,*51
$PYRTM,2024,128.004071561493,19.113718971632
$GPGGA,000550.00,3308.4065,N,11818.2944,W,1,11,0.8,8.4,M,-34.5,M,,*50
$PYRTM,2024,128.004083150405,19.113730560544
$GPGGA,000551.00,3308.4050,N,11818.2919,W,1,11,0.8,8.8,M,-34.5,M,,*53
$PYRTM,2024,128.004095188704,19.113742598843
$GPGGA,000552.00,3308.4035,N,11818.2896,W,1,11,0.8,7.9,M,-34.5,M,,*5B
$PYRTM,2024,128.004106298877,19.113753709016
$GPGGA,000553.00,3308.4022,N,11818.2874,W,1,11,0.8,7.9,M,-34.5,M,,*50
$PYRTM,2024,128.004117859815,19.113765269954
$GPGGA,000554.00,3308.4008,N,11818.2853,W,1,11,0.8,5.5,M,-34.5,M,,*54
$PYRTM,2024,128.004129446528,19.113776856667
$GPGGA,000555.00,3308.3994,N,11818.2834,W,1,11,0.8,6.8,M,-34.5,M,,*51
$PYRTM,2024,128.004141006667,19.113788416806
$GPGGA,000556.00,3308.3979,N,11818.2814,W,1,11,0.8,7.8,M,-34.5,M,,*52
$PYRTM,2024,128.004152595428,19.113800005556
$GPGGA,000557.00,3308.3965,N,11818.2793,W,1,11,0.8,10.4,M,-34.5,M,,*64
$PYRTM,2024,128.004164155903,19.113811566042
$GPGGA,000558.00,3308.3951,N,11818.2770,W,1,11,0.8,10.1,M,-34.5,M,,*64
$PYRTM,2024,128.004175744120,19.113823154259
$GPGGA,000559.00,3308.3937,N,11818.2747,W,1,11,0.8,10.0,M,-34.5,M,,*60
$PYRTM,2024,128.004187304016,19.113834714155
$GPGGA,000600.00,3308.3922,N,11818.2724,W,1,11,0.8,10.8,M,-34.5,M,,*66
$PYRTM,2024,128.004198909502,19.113846319641
$GPGGA,000601.00,3308.3907,N,11818.2700,W,1,11,0.8,8.4,M,-34.5,M,,*53
$PYRTM,2024,128.004210452894,19.113857863032
$GPGGA,000602.00,3308.3892,N,11818.2679,W,1,11,0.8,7.1,M,-34.5,M,,*58
$PYRTM,2024,128.004222041308,19.113869451447
$GPGGA,000603.00,3308.3878,N,11818.2658,W,1,11,0.8,7.2,M,-34.5,M,,*5D
$PYRTM,2024,128.004233600382,19.113881010521
$GPGGA,000604.00,3308.3864,N,11818.2637,W,1,11,0.8,6.8,M,-34.5,M,,*55
$PYRTM,2024,128.004245190023,19.113892600162
$GPGGA,000605.00,3308.3850,N,11818.2616,W,1,11,0.8,7.4,M,-34.5,M,,*5D
$PYRTM,2024,128.004256748495,19.113904158634
$GPGGA,000606.00,3308.3835,N,11818.2596,W,1,11,0.8,7.0,M,-34.5,M,,*52
$PYRTM,2024,128.004268338762,19.113915748900
$GPGGA,000607.00,3308.3819,N,11818.2576,W,1,11,0.8,6.3,M,-34.5,M,,*51
$PYRTM,2024,128.004280374734,19.113927784884
$GPGGA,000608.00,3308.3804,N,11818.2555,W,1,11,0.8,6.4,M,-34.5,M,,*54
$PYRTM,2024,128.004291480856,19.113938891007
$GPGGA,000609.00,3308.3791,N,11818.2533,W,1,11,0.8,7.1,M,-34.5,M,,*52
$PYRTM,2024,128.004303045926,19.113950456065
$GPGGA,000610.00,3308.3776,N,11818.2509,W,1,11,0.8,9.2,M,-34.5,M,,*57
$PYRTM,2024,128.004314633646,19.113962043785
$GPGGA,000611.00,3308.3761,N,11818.2486,W,1,11,0.8,8.5,M,-34.5,M,,*50
$PYRTM,2024,128.004326194086,19.113973604236
$GPGGA,000612.00,3308.3747,N,11818.2464,W,1,11,0.8,8.2,M,-34.5,M,,*5C
$PYRTM,2024,128.004337783854,19.113985194005
$GPGGA,000613.00,3308.3733,N,11818.2442,W,1,11,0.8,9.7,M,-34.5,M,,*5E
$PYRTM,2024,128.004349342697,19.113996752836
$GPGGA,000614.00,3308.3720,N,11818.2419,W,1,11,0.8,7.4,M,-34.5,M,,*58
$PYRTM,2024,128.004360929780,19.114008339919
$GPGGA,000615.00,3308.3705,N,11818.2397,W,1,11,0.8,5.8,M,-34.5,M,,*51
$PYRTM,2024,128.004372490741,19.114019900880
$GPGGA,000616.00,3308.3691,N,11818.2374,W,1,11,0.8,6.5,M,-34.5,M,,*5D
$PYRTM,2024,128.004384074294,19.114031484433
$GPGGA,000617.00,3308.3677,N,11818.2352,W,1,11,0.8,6.8,M,-34.5,M,,*5D
$PYRTM,2024,128.004396798322,19.114044208461
$GPGGA,000618.00,3308.3662,N,11818.2330,W,1,11,0.8,7.2,M,-34.5,M,,*59
$PYRTM,2024,128.004409414063,19.114056824201
$GPGGA,000619.00,3308.3646,N,11818.2307,W,1,11,0.8,7.1,M,-34.5,M,,*59
$PYRTM,2024,128.004418787581,19.114066197720
$GPGGA,000620.00,3308.3631,N,11818.2284,W,1,11,0.8,8.9,M,-34.5,M,,*5E
$PYRTM,2024,128.004430375995,19.114077786134
$GPGGA,000621.00,3308.3615,N,11818.2261,W,1,11,0.8,5.0,M,-34.5,M,,*56
$PYRTM,2024,128.004442412928,19.114089823067
$GPGGA,000622.00,3308.3599,N,11818.2238,W,1,11,0.8,7.5,M,-34.5,M,,*59
$PYRTM,2024,128.004453524363,19.114100934502
$GPGGA,000623.00,3308.3584,N,11818.2215,W,1,11,0.8,5.6,M,-34.5,M,,*5A
$PYRTM,2024,128.004465083912,19.114112494051
$GPGGA,000624.00,3308.3569,N,11818.2193,W,1,11,0.8,3.6,M,-34.5,M,,*55
$PYRTM,2024,128.004476672350,19.114124082488
$GPGGA,000625.00,3308.3555,N,11818.2172,W,1,11,0.8,6.2,M,-34.5,M,,*55
$PYRTM,2024,128.004488233009,19.114135643148
$GPGGA,000626.00,3308.3540,N,11818.2151,W,1,11,0.8,6.3,M,-34.5,M,,*52
$PYRTM,2024,128.004499821655,19.114147231794
$GPGGA,000627.00,3308.3526,N,11818.2130,W,1,11,0.8,5.5,M,-34.5,M,,*51
$PYRTM,2024,128.004511380012,19.114158790150
$GPGGA,000628.00,3308.3511,N,11818.2110,W,1,11,0.8,7.7,M,-34.5,M,,*58
$PYRTM,2024,128.004522963449,19.114170373588
$GPGGA,000629.00,3308.3496,N,11818.2088,W,1,11,0.8,8.5,M,-34.5,M,,*5A
$PYRTM,2024,128.004534529109,19.114181939248
$GPGGA,000630.00,3308.3480,N,11818.2066,W,1,11,0.8,9.3,M,-34.5,M,,*52
$PYRTM,2024,128.004546117384,19.114193527523
$GPGGA,000631.00,3308.3465,N,11818.2044,W,1,11,0.8,10.0,M,-34.5,M,,*63
$PYRTM,2024,128.004557676169,19.114205086319
$GPGGA,000632.00,3308.3450,N,11818.2021,W,1,11,0.8,10.6,M,-34.5,M,,*63
$PYRTM,2024,128.004569265104,19.114216675243
$GPGGA,000633.00,3308.3435,N,11818.1998,W,1,11,0.8,8.6,M,-34.5,M,,*50
$PYRTM,2024,128.004580824826,19.114228234965
$GPGGA,000634.00,3308.3421,N,11818.1975,W,1,11,0.8,8.1,M,-34.5,M,,*56
$PYRTM,2024,128.004592413067,19.114239823218
$GPGGA,000635.00,3308.3408,N,11818.1952,W,1,11,0.8,9.8,M,-34.5,M,,*51
$PYRTM,2024,128.004603975116,19.114251385255
$GPGGA,000636.00,3308.3393,N,11818.1929,W,1,11,0.8,6.8,M,-34.5,M,,*54
$PYRTM,2024,128.004615562766,19.114262972905
$GPGGA,000637.00,3308.3378,N,11818.1908,W,1,11,0.8,6.5,M,-34.5,M,,*5E
$PYRTM,2024,128.004627123067,19.114274533206
$GPGGA,000638.00,3308.3362,N,11818.1888,W,1,11,0.8,7.0,M,-34.5,M,,*57
$PYRTM,2024,128.004638705463,19.114286115602
$GPGGA,000639.00,3308.3346,N,11818.1868,W,1,11,0.8,6.2,M,-34.5,M,,*5D
$PYRTM,2024,128.004650271632,19.114297681771
$GPGGA,000640.00,3308.3332,N,11818.1846,W,1,11,0.8,9.0,M,-34.5,M,,*51
$PYRTM,2024,128.004661852593,19.114309262731
$GPGGA,000641.00,3308.3318,N,11818.1824,W,1,11,0.8,10.2,M,-34.5,M,,*66
$PYRTM,2024,128.004673417604,19.114320827755
$GPGGA,000642.00,3308.3304,N,11818.1800,W,1,11,0.8,11.7,M,-34.5,M,,*6A
$PYRTM,2024,128.004685006678,19.114332416829
$GPGGA,000643.00,3308.3290,N,11818.1777,W,1,11,0.8,11.0,M,-34.5,M,,*6F
$PYRTM,2024,128.004696566678,19.114343976817
$GPGGA,000644.00,3308.3276,N,11818.1755,W,1,11,0.8,10.7,M,-34.5,M,,*66
$PYRTM,2024,128.004708149271,19.114355559410
$GPGGA,000645.00,3308.3262,N,11818.1733,W,1,11,0.8,10.3,M,-34.5,M,,*66
$PYRTM,2024,128.004719715255,19.114367125405
$GPGGA,000646.00,3308.3247,N,11818.1713,W,1,11,0.8,9.3,M,-34.5,M,,*58
$PYRTM,2024,128.004731299491,19.114378709630
$GPGGA,000647.00,3308.3233,N,11818.1691,W,1,11,0.8,8.5,M,-34.5,M,,*56
$PYRTM,2024,128.004744022095,19.114391432234
$GPGGA,000648.00,3308.3219,N,11818.1669,W,1,11,0.8,6.6,M,-34.5,M,,*5B
$PYRTM,2024,128.004756635324,19.114404045475
$GPGGA,000649.00,3308.3205,N,11818.1646,W,1,11,0.8,10.3,M,-34.5,M,,*68
$PYRTM,2024,128.004766011852,19.114413422002
$GPGGA,000650.00,3308.3190,N,11818.1623,W,1,11,0.8,8.7,M,-34.5,M,,*51
$PYRTM,2024,128.004777599606,19.114425009757
$GPGGA,000651.00,3308.3174,N,11818.1601,W,1,11,0.8,9.9,M,-34.5,M,,*55
$PYRTM,2024,128.004789636204,19.114437046343
$GPGGA,000652.00,3308.3159,N,11818.1578,W,1,11,0.8,7.5,M,-34.5,M,,*56
$PYRTM,2024,128.004800748623,19.114448158762
$GPGGA,000653.00,3308.3146,N,11818.1555,W,1,11,0.8,8.4,M,-34.5,M,,*58
$PYRTM,2024,128.004812307778,19.114459717917
$GPGGA,000654.00,3308.3132,N,11818.1532,W,1,11,0.8,9.9,M,-34.5,M,,*51
$PYRTM,2024,128.004823895891,19.114471306030
$GPGGA,000655.00,3308.3117,N,11818.1510,W,1,11,0.8,9.9,M,-34.5,M,,*57
$PYRTM,2024,128.004835455868,19.114482866007
$GPGGA,000656.00,3308.3101,N,11818.1489,W,1,11,0.8,8.3,M,-34.5,M,,*59
$PYRTM,2024,128.004847043970,19.114494454109
$GPGGA,000657.00,3308.3086,N,11818.1468,W,1,11,0.8,7.3,M,-34.5,M,,*56
$PYRTM,2024,128.004859080938,19.114506491076
$GPGGA,000658.00,3308.3072,N,11818.1445,W,1,11,0.8,7.6,M,-34.5,M,,*58
$PYRTM,2024,128.004870187037,19.114517597176
$GPGGA,000659.00,3308.3058,N,11818.1422,W,1,11,0.8,8.1,M,-34.5,M,,*58
$PYRTM,2024,128.004880826898,19.114528237037
$GPGGA,000700.00,3308.3044,N,11818.1400,W,1,11,0.8,6.9,M,-34.5,M,,*5E
$PYRTM,2024,128.004892996840,19.114540406979
$GPGGA,000701.00,3308.3030,N,11818.1378,W,1,11,0.8,8.7,M,-34.5,M,,*54
$PYRTM,2024,128.004904672396,19.114552082546
$GPGGA,000702.00,3308.3016,N,11818.1357,W,1,11,0.8,10.9,M,-34.5,M,,*69
$PYRTM,2024,128.004915782269,19.114563192407
$GPGGA,000703.00,3308.3002,N,11818.1335,W,1,11,0.8,9.8,M,-34.5,M,,*50
$PYRTM,2024,128.004926892639,19.114574302778
$GPGGA,000704.00,3308.2988,N,11818.1313,W,1,11,0.8,9.6,M,-34.5,M,,*57
$PYRTM,2024,128.004938007766,19.114585417905
$GPGGA,000705.00,3308.2974,N,11818.1292,W,1,11,0.8,8.0,M,-34.5,M,,*5A
$PYRTM,2024,128.004949116447,19.114596526597
$GPGGA,000706.00,3308.2958,N,11818.1272,W,1,11,0.8,7.5,M,-34.5,M,,*53
$PYRTM,2024,128.004960227211,19.114607637350
$GPGGA,000707.00,3308.2942,N,11818.1252,W,1,11,0.8,8.2,M,-34.5,M,,*53
$PYRTM,2024,128.004971337824,19.114618747963
$GPGGA,000708.00,3308.2926,N,11818.1231,W,1,11,0.8,7.6,M,-34.5,M,,*50
$PYRTM,2024,128.004982449352,19.114629859491
$GPGGA,000709.00,3308.2912,N,11818.1209,W,1,11,0.8,7.5,M,-34.5,M,,*5E
$PYRTM,2024,128.004993560937,19.114640971076
$GPGGA,000710.00,3308.2897,N,11818.1187,W,1,11,0.8,8.7,M,-34.5,M,,*52
$PYRTM,2024,128.005004672222,19.114652082361
$GPGGA,000711.00,3308.2882,N,11818.1166,W,1,11,0.8,6.3,M,-34.5,M,,*52
$PYRTM,2024,128.005015783507,19.114663193657
$GPGGA,000712.00,3308.2868,N,11818.1145,W,1,11,0.8,6.0,M,-34.5,M,,*57
$PYRTM,2024,128.005026894375,19.114674304514
$GPGGA,000713.00,3308.2855,N,11818.1123,W,1,11,0.8,7.8,M,-34.5,M,,*51
$PYRTM,2024,128.005038481505,19.114685891644
$GPGGA,000714.00,3308.2842,N,11818.1101,W,1,11,0.8,7.5,M,-34.5,M,,*5D
$PYRTM,2024,128.005050043773,19.114697453912
$GPGGA,000715.00,3308.2829,N,11818.1079,W,1,11,0.8,8.1,M,-34.5,M,,*54
$PYRTM,2024,128.005061629549,19.114709039688
$GPGGA,000716.00,3308.2814,N,11818.1059,W,1,11,0.8,9.2,M,-34.5,M,,*59
$PYRTM,2024,128.005073191030,19.114720601169
$GPGGA,000717.00,3308.2799,N,11818.1038,W,1,11,0.8,9.4,M,-34.5,M,,*53
$PYRTM,2024,128.005088930926,19.114736341065
$GPGGA,000718.00,3308.2784,N,11818.1016,W,1,11,0.8,8.8,M,-34.5,M,,*51
$PYRTM,2024,128.005100513785,19.114747923924
$GPGGA,000719.00,3308.2769,N,11818.0992,W,1,11,0.8,9.1,M,-34.5,M,,*5F
$PYRTM,2024,128.005112196343,19.114759606481
$GPGGA,000720.00,3308.2754,N,11818.0968,W,1,11,0.8,10.2,M,-34.5,M,,*65
$PYRTM,2024,128.005123782396,19.114771192535
$GPGGA,000721.00,3308.2740,N,11818.0945,W,1,11,0.8,10.2,M,-34.5,M,,*6E
$PYRTM,2024,128.005135343889,19.114782754028
$GPGGA,000722.00,3308.2724,N,11818.0922,W,1,11,0.8,9.4,M,-34.5,M,,*50
$PYRTM,2024,128.005146815521,19.114794225660
$GPGGA,000723.00,3308.2708,N,11818.0900,W,1,11,0.8,7.6,M,-34.5,M,,*53
$PYRTM,2024,128.005158377465,19.114805787616
$GPGGA,000724.00,3308.2693,N,11818.0879,W,1,11,0.8,5.4,M,-34.5,M,,*58
$PYRTM,2024,128.005169964259,19.114817374398
$GPGGA,000725.00,3308.2679,N,11818.0858,W,1,11,0.8,5.9,M,-34.5,M,,*53
$PYRTM,2024,128.005181523947,19.114828934086
$GPGGA,000726.00,3308.2664,N,11818.0836,W,1,11,0.8,6.8,M,-34.5,M,,*56
$PYRTM,2024,128.005193111620,19.114840521771
$GPGGA,000727.00,3308.2650,N,11818.0815,W,1,11,0.8,6.8,M,-34.5,M,,*51
$PYRTM,2024,128.005204672315,19.114852082454
$GPGGA,000728.00,3308.2634,N,11818.0794,W,1,11,0.8,5.2,M,-34.5,M,,*53
$PYRTM,2024,128.005216263194,19.114863673333
$GPGGA,000729.00,3308.2619,N,11818.0773,W,1,11,0.8,4.5,M,-34.5,M,,*52
$PYRTM,2024,128.005227820683,19.114875230822
$GPGGA,000730.00,3308.2605,N,11818.0751,W,1,11,0.8,5.2,M,-34.5,M,,*51
$PYRTM,2024,128.005239403530,19.114886813681
$GPGGA,000731.00,3308.2590,N,11818.0729,W,1,11,0.8,7.9,M,-34.5,M,,*59
$PYRTM,2024,128.005250971030,19.114898381169
$GPGGA,000732.00,3308.2575,N,11818.0707,W,1,11,0.8,7.2,M,-34.5,M,,*56
$PYRTM,2024,128.005262556609,19.114909966748
$GPGGA,000733.00,3308.2560,N,11818.0685,W,1,11,0.8,7.8,M,-34.5,M,,*52
$PYRTM,2024,128.005274116551,19.114921526690
$GPGGA,000734.00,3308.2546,N,11818.0664,W,1,11,0.8,8.1,M,-34.5,M,,*58
$PYRTM,2024,128.005285704722,19.114933114861
$GPGGA,000735.00,3308.2532,N,11818.0642,W,1,11,0.8,5.7,M,-34.5,M,,*55
$PYRTM,2024,128.005297266944,19.114944677083
$GPGGA,000736.00,3308.2517,N,11818.0620,W,1,11,0.8,5.9,M,-34.5,M,,*5B
$PYRTM,2024,128.005308856157,19.114956266308
$GPGGA,000737.00,3308.2502,N,11818.0598,W,1,11,0.8,5.2,M,-34.5,M,,*55
$PYRTM,2024,128.005320414410,19.114967824560
$GPGGA,000738.00,3308.2487,N,11818.0577,W,1,11,0.8,4.1,M,-34.5,M,,*55
$PYRTM,2024,128.005332001192,19.114979411331
$GPGGA,000739.00,3308.2472,N,11818.0555,W,1,11,0.8,6.2,M,-34.5,M,,*5F
$PYRTM,2024,128.005343562188,19.114990972326
$GPGGA,000740.00,3308.2457,N,11818.0532,W,1,11,0.8,7.3,M,-34.5,M,,*57
$PYRTM,2024,128.005355150428,19.115002560567
$GPGGA,000741.00,3308.2442,N,11818.0509,W,1,11,0.8,7.0,M,-34.5,M,,*59
$PYRTM,2024,128.005366711840,19.115014121991
$GPGGA,000742.00,3308.2427,N,11818.0487,W,1,11,0.8,9.0,M,-34.5,M,,*50
$PYRTM,2024,128.005378301412,19.115025711551
$GPGGA,000743.00,3308.2412,N,11818.0465,W,1,11,0.8,9.4,M,-34.5,M,,*5F
$PYRTM,2024,128.005389976308,19.115037386447
$GPGGA,000744.00,3308.2398,N,11818.0444,W,1,11,0.8,10.0,M,-34.5,M,,*62
$PYRTM,2024,128.005401449792,19.115048859931
$GPGGA,000745.00,3308.2384,N,11818.0423,W,1,11,0.8,7.2,M,-34.5,M,,*5B
$PYRTM,2024,128.005413007986,19.115060418125
$GPGGA,000746.00,3308.2370,N,11818.0401,W,1,11,0.8,6.7,M,-34.5,M,,*57
$PYRTM,2024,128.005424595428,19.115072005579
$GPGGA,000747.00,3308.2355,N,11818.0380,W,1,11,0.8,7.4,M,-34.5,M,,*5D
$PYRTM,2024,128.005436385845,19.115083795984
$GPGGA,000748.00,3308.2340,N,11818.0358,W,1,11,0.8,6.7,M,-34.5,M,,*51
$PYRTM,2024,128.005448900231,19.115096310370
$GPGGA,000749.00,3308.2325,N,11818.0336,W,1,11,0.8,7.3,M,-34.5,M,,*5E
$PYRTM,2024,128.005460460475,19.115107870613
$GPGGA,000750.00,3308.2311,N,11818.0313,W,1,11,0.8,7.9,M,-34.5,M,,*5C
$PYRTM,2024,128.005472048264,19.115119458403
$GPGGA,000751.00,3308.2297,N,11818.0289,W,1,11,0.8,8.9,M,-34.5,M,,*5F
$PYRTM,2024,128.005484082813,19.115131492951
$GPGGA,000752.00,3308.2281,N,11818.0266,W,1,11,0.8,7.7,M,-34.5,M,,*5B
$PYRTM,2024,128.005495196968,19.115142607106
$GPGGA,000753.00,3308.2266,N,11818.0242,W,1,10,0.8,7.8,M,-34.5,M,,*5B
$PYRTM,2024,128.005506757199,19.115154167338
$GPGGA,000754.00,3308.2252,N,11818.0220,W,1,11,0.8,6.9,M,-34.5,M,,*5E
$PYRTM,2024,128.005518348171,19.115165758322
$GPGGA,000755.00,3308.2236,N,11818.0198,W,1,11,0.8,6.8,M,-34.5,M,,*5C
$PYRTM,2024,128.005529906979,19.115177317118
$GPGGA,000756.00,3308.2221,N,11818.0175,W,1,11,0.8,8.0,M,-34.5,M,,*5C
$PYRTM,2024,128.005541493623,19.115188903773
$GPGGA,000757.00,3308.2206,N,11818.0152,W,1,11,0.8,9.3,M,-34.5,M,,*5F
$PYRTM,2024,128.005553053877,19.115200464016
$GPGGA,000758.00,3308.2190,N,11818.0130,W,1,11,0.8,7.6,M,-34.5,M,,*53
$PYRTM,2024,128.005564641944,19.115212052083
$GPGGA,000759.00,3308.2175,N,11818.0109,W,1,11,0.8,6.9,M,-34.5,M,,*5D
$PYRTM,2024,128.005576202361,19.115223612500
$GPGGA,000800.00,3308.2159,N,11818.0087,W,1,11,0.8,6.5,M,-34.5,M,,*5B
$PYRTM,2024,128.005587784954,19.115235195093
$GPGGA,000801.00,3308.2144,N,11818.0066,W,1,11,0.8,6.5,M,-34.5,M,,*59
$PYRTM,2024,128.005599349606,19.115246759745
$GPGGA,000802.00,3308.2129,N,11818.0043,W,1,11,0.8,6.4,M,-34.5,M,,*57
$PYRTM,2024,128.005610938264,19.115258348403
$GPGGA,000803.00,3308.2114,N,11818.0022,W,1,11,0.8,6.1,M,-34.5,M,,*5A
$PYRTM,2024,128.005622497697,19.115269907836
$GPGGA,000804.00,3308.2099,N,11818.0000,W,1,11,0.8,7.1,M,-34.5,M,,*58
$PYRTM,2024,128.005634086007,19.115281496146
$GPGGA,000805.00,3308.2085,N,11817.9978,W,1,11,0.8,5.5,M,-34.5,M,,*52
$PYRTM,2024,128.005645646042,19.115293056181
$GPGGA,000806.00,3308.2069,N,11817.9957,W,1,11,0.8,6.8,M,-34.5,M,,*50
$PYRTM,2024,128.005657234583,19.115304644722
$GPGGA,000807.00,3308.2054,N,11817.9936,W,1,11,0.8,8.3,M,-34.5,M,,*5D
$PYRTM,2024,128.005668794225,19.115316204375
$GPGGA,000808.00,3308.2038,N,11817.9915,W,1,11,0.8,6.6,M,-34.5,M,,*52
$PYRTM,2024,128.005680383079,19.115327793218
$GPGGA,000809.00,3308.2023,N,11817.9893,W,1,11,0.8,5.2,M,-34.5,M,,*51
$PYRTM,2024,128.005691943067,19.115339353206
$GPGGA,000810.00,3308.2009,N,11817.9870,W,1,11,0.8,5.9,M,-34.5,M,,*57
$PYRTM,2024,128.005703526343,19.115350936481
$GPGGA,000811.00,3308.1995,N,11817.9846,W,1,11,0.8,7.1,M,-34.5,M,,*56
$PYRTM,2024,128.005715090775,19.115362500914
$GPGGA,000812.00,3308.1980,N,11817.9824,W,1,11,0.8,7.9,M,-34.5,M,,*5D
$PYRTM,2024,128.005726679479,19.115374089618
$GPGGA,000813.00,3308.1965,N,11817.9803,W,1,11,0.8,6.9,M,-34.5,M,,*53
$PYRTM,2024,128.005738240602,19.115385650741
$GPGGA,000814.00,3308.1949,N,11817.9782,W,1,11,0.8,7.3,M,-34.5,M,,*57
$PYRTM,2024,128.005749824282,19.115397234433
$GPGGA,000815.00,3308.1935,N,11817.9760,W,1,11,0.8,3.6,M,-34.5,M,,*50
$PYRTM,2024,128.005761388102,19.115408798241
$GPGGA,000816.00,3308.1921,N,11817.9737,W,1,11,0.8,6.9,M,-34.5,M,,*5E
$PYRTM,2024,128.005772976528,19.115420386678
$GPGGA,000817.00,3308.1906,N,11817.9714,W,1,11,0.8,7.3,M,-34.5,M,,*50
$PYRTM,2024,128.005785700359,19.115433110498
$GPGGA,000818.00,3308.1891,N,11817.9690,W,1,11,0.8,8.8,M,-34.5,M,,*59
$PYRTM,2024,128.005798310532,19.115445720671
$GPGGA,000819.00,3308.1875,N,11817.9668,W,1,11,0.8,9.6,M,-34.5,M,,*5A
$PYRTM,2024,128.005807685069,19.115455095208
$GPGGA,000820.00,3308.1860,N,11817.9645,W,1,11,0.8,7.6,M,-34.5,M,,*55
$PYRTM,2024,128.005819274618,19.115466684757
$GPGGA,000821.00,3308.1844,N,11817.9622,W,1,11,0.8,9.7,M,-34.5,M,,*5C
$PYRTM,2024,128.005831312153,19.115478722303
$GPGGA,000822.00,3308.1829,N,11817.9599,W,1,11,0.8,9.3,M,-34.5,M,,*53
$PYRTM,2024,128.005842416204,19.115489826343
$GPGGA,000823.00,3308.1814,N,11817.9577,W,1,11,0.8,11.2,M,-34.5,M,,*64
$PYRTM,2024,128.005853980833,19.115501390972
$GPGGA,000824.00,3308.1800,N,11817.9555,W,1,11,0.8,9.7,M,-34.5,M,,*5A
$PYRTM,2024,128.005865570579,19.115512980718
$GPGGA,000825.00,3308.1787,N,11817.9533,W,1,10,0.8,8.8,M,-34.5,M,,*54
$PYRTM,2024,128.005877132998,19.115524543137
$GPGGA,000826.00,3308.1773,N,11817.9512,W,1,11,0.8,9.5,M,-34.5,M,,*52
$PYRTM,2024,128.005888718634,19.115536128773
$GPGGA,000827.00,3308.1758,N,11817.9489,W,1,11,0.8,12.2,M,-34.5,M,,*64
$PYRTM,2024,128.005900278067,19.115547688206
$GPGGA,000828.00,3308.1743,N,11817.9467,W,1,11,0.8,13.2,M,-34.5,M,,*60
$PYRTM,2024,128.005911866262,19.115559276400
$GPGGA,000829.00,3308.1728,N,11817.9444,W,1,11,0.8,13.3,M,-34.5,M,,*6C
$PYRTM,2024,128.005923426412,19.115570836551
$GPGGA,000830.00,3308.1712,N,11817.9420,W,1,11,0.8,11.9,M,-34.5,M,,*67
$PYRTM,2024,128.005935009306,19.115582419444
$GPGGA,000831.00,3308.1697,N,11817.9396,W,1,11,0.8,12.5,M,-34.5,M,,*6F
$PYRTM,2024,128.005946574583,19.115593984722
$GPGGA,000832.00,3308.1681,N,11817.9371,W,1,11,0.8,8.7,M,-34.5,M,,*5B
$PYRTM,2024,128.005958162731,19.115605572870
$GPGGA,000833.00,3308.1666,N,11817.9348,W,1,11,0.8,12.0,M,-34.5,M,,*65
$PYRTM,2024,128.005969722245,19.115617132384
$GPGGA,000834.00,3308.1651,N,11817.9325,W,1,11,0.8,13.2,M,-34.5,M,,*6E
$PYRTM,2024,128.005981311319,19.115628721458
$GPGGA,000835.00,3308.1637,N,11817.9303,W,1,11,0.8,10.6,M,-34.5,M,,*6C
$PYRTM,2024,128.005992870671,19.115640280810
$GPGGA,000836.00,3308.1624,N,11817.9282,W,1,11,0.8,8.6,M,-34.5,M,,*5C
$PYRTM,2024,128.006004460023,19.115651870162
$GPGGA,000837.00,3308.1610,N,11817.9262,W,1,11,0.8,8.7,M,-34.5,M,,*55
$PYRTM,2024,128.006016491840,19.115663901979
$GPGGA,000838.00,3308.1594,N,11817.9241,W,1,11,0.8,7.9,M,-34.5,M,,*55
$PYRTM,2024,128.006027607431,19.115675017581
