$PYRTM,2024,122.833342181539,13.942989591678
$GPGGA,195959.00,3359.9878,N,11923.3432,W,1,10,0.8,9.2,M,-33.5,M,,*50
$PYRTM,2024,122.833353747176,13.943001157315
$GPGGA,200000.00,3359.9887,N,11923.3405,W,1,10,0.8,10.2,M,-33.5,M,,*66
$PYRTM,2024,122.833365335405,13.943012745556
$GPGGA,200001.00,3359.9896,N,11923.3379,W,1,10,0.8,9.8,M,-33.5,M,,*59
$PYRTM,2024,122.833376895822,13.943024305972
$GPGGA,200002.00,3359.9903,N,11923.3352,W,1,09,1.0,11.7,M,-33.5,M,,*69
$PYRTM,2024,122.833388482882,13.943035893021
$GPGGA,200003.00,3359.9911,N,11923.3325,W,1,09,1.0,14.6,M,-33.5,M,,*6F
$PYRTM,2024,122.833400044213,13.943047454352
$GPGGA,200004.00,3359.9920,N,11923.3298,W,1,10,0.8,13.8,M,-33.5,M,,*65
$PYRTM,2024,122.833411631238,13.943059041377
$GPGGA,200005.00,3359.9930,N,11923.3270,W,1,10,0.8,13.5,M,-33.5,M,,*6E
$PYRTM,2024,122.833423193576,13.943070603715
$GPGGA,200006.00,3359.9940,N,11923.3242,W,1,10,0.8,14.1,M,-33.5,M,,*68
$PYRTM,2024,122.833434782662,13.943082192801
$GPGGA,200007.00,3359.9949,N,11923.3215,W,1,10,0.8,14.6,M,-33.5,M,,*65
$PYRTM,2024,122.833446341690,13.943093751829
$GPGGA,200008.00,3359.9958,N,11923.3187,W,1,10,0.8,13.7,M,-33.5,M,,*64
$PYRTM,2024,122.833457942882,13.943105353021
$GPGGA,200009.00,3359.9968,N,11923.3160,W,1,09,0.8,13.9,M,-33.5,M,,*69
$PYRTM,2024,122.833469491157,13.943116901296
$GPGGA,200010.00,3359.9978,N,11923.3135,W,1,09,0.8,15.2,M,-33.5,M,,*6D
$PYRTM,2024,122.833481090625,13.943128500775
$GPGGA,200011.00,3359.9989,N,11923.3110,W,1,10,0.8,12.8,M,-33.5,M,,*60
$PYRTM,2024,122.833492638912,13.943140049051
$GPGGA,200012.00,3400.0001,N,11923.3083,W,1,10,0.8,14.0,M,-33.5,M,,*6D
$PYRTM,2024,122.833504227604,13.943151637743
$GPGGA,200013.00,3400.0012,N,11923.3057,W,1,10,0.8,12.4,M,-33.5,M,,*65
$PYRTM,2024,122.833515785289,13.943163195428
$GPGGA,200014.00,3400.0022,N,11923.3031,W,1,10,0.8,10.8,M,-33.5,M,,*6F
$PYRTM,2024,122.833527372616,13.943174782755
$GPGGA,200015.00,3400.0032,N,11923.3004,W,1,10,0.8,11.2,M,-33.5,M,,*62
$PYRTM,2024,122.833538934745,13.943186344884
$GPGGA,200016.00,3400.0043,N,11923.2978,W,1,10,0.8,15.3,M,-33.5,M,,*61
$PYRTM,2024,122.833550522037,13.943197932176
$GPGGA,200017.00,3400.0055,N,11923.2952,W,1,10,0.8,13.5,M,-33.5,M,,*6F
$PYRTM,2024,122.833562083218,13.943209493356
$GPGGA,200018.00,3400.0066,N,11923.2925,W,1,10,0.8,12.0,M,-33.5,M,,*64
$PYRTM,2024,122.833573670613,13.943221080752
$GPGGA,200019.00,3400.0076,N,11923.2898,W,1,10,0.8,11.7,M,-33.5,M,,*67
$PYRTM,2024,122.833584305775,13.943231715914
$GPGGA,200020.00,3400.0086,N,11923.2871,W,1,10,0.8,12.4,M,-33.5,M,,*65
$PYRTM,2024,122.833595776076,13.943243186215
$GPGGA,200021.00,3400.0096,N,11923.2845,W,1,10,0.8,14.2,M,-33.5,M,,*62
$PYRTM,2024,122.833608378148,13.943255788287
$GPGGA,200022.00,3400.0107,N,11923.2819,W,1,10,0.8,12.4,M,-33.5,M,,*61
$PYRTM,2024,122.833619966910,13.943267377049
$GPGGA,200023.00,3400.0117,N,11923.2793,W,1,10,0.8,13.0,M,-33.5,M,,*69
$PYRTM,2024,122.833631527338,13.943278937477
$GPGGA,200024.00,3400.0127,N,11923.2765,W,1,10,0.8,12.8,M,-33.5,M,,*6D
$PYRTM,2024,122.833643114826,13.943290524965
$GPGGA,200025.00,3400.0137,N,11923.2738,W,1,10,0.8,13.7,M,-33.5,M,,*6B
$PYRTM,2024,122.833654675382,13.943302085521
$GPGGA,200026.00,3400.0148,N,11923.2712,W,1,10,0.8,14.2,M,-33.5,M,,*6A
$PYRTM,2024,122.833666265729,13.943313675868
$GPGGA,200027.00,3400.0160,N,11923.2685,W,1,10,0.8,14.0,M,-33.5,M,,*6C
$PYRTM,2024,122.833677824468,13.943325234606
$GPGGA,200028.00,3400.0171,N,11923.2657,W,1,10,0.8,12.8,M,-33.5,M,,*62
$PYRTM,2024,122.833689414317,13.943336824468
$GPGGA,200029.00,3400.0182,N,11923.2630,W,1,10,0.8,13.5,M,-33.5,M,,*62
$PYRTM,2024,122.833700972442,13.943348382581
$GPGGA,200030.00,3400.0192,N,11923.2602,W,1,10,0.8,16.0,M,-33.5,M,,*6A
$PYRTM,2024,122.833712559028,13.943359969167
$GPGGA,200031.00,3400.0202,N,11923.2575,W,1,10,0.8,15.1,M,-33.5,M,,*60
$PYRTM,2024,122.833724120729,13.943371530868
$GPGGA,200032.00,3400.0213,N,11923.2547,W,1,10,0.8,13.2,M,-33.5,M,,*67
$PYRTM,2024,122.833735709317,13.943383119456
$GPGGA,200033.00,3400.0224,N,11923.2518,W,1,10,0.8,12.8,M,-33.5,M,,*63
$PYRTM,2024,122.833747269456,13.943394679595
$GPGGA,200034.00,3400.0235,N,11923.2490,W,1,10,0.8,12.0,M,-33.5,M,,*6D
$PYRTM,2024,122.833758855556,13.943406265694
$GPGGA,200035.00,3400.0244,N,11923.2461,W,1,10,0.8,15.1,M,-33.5,M,,*62
$PYRTM,2024,122.833770416586,13.943417826725
$GPGGA,200036.00,3400.0255,N,11923.2433,W,1,10,0.8,15.6,M,-33.5,M,,*61
$PYRTM,2024,122.833782000104,13.943429410255
$GPGGA,200037.00,3400.0265,N,11923.2404,W,1,10,0.8,14.9,M,-33.5,M,,*69
$PYRTM,2024,122.833793566458,13.943440976597
$GPGGA,200038.00,3400.0276,N,11923.2376,W,1,10,0.8,13.4,M,-33.5,M,,*6C
$PYRTM,2024,122.833805148426,13.943452558565
$GPGGA,200039.00,3400.0287,N,11923.2349,W,1,10,0.8,12.7,M,-33.5,M,,*6D
$PYRTM,2024,122.833816714306,13.943464124444
$GPGGA,200040.00,3400.0297,N,11923.2322,W,1,10,0.8,13.0,M,-33.5,M,,*69
$PYRTM,2024,122.833828301169,13.943475711308
$GPGGA,200041.00,3400.0308,N,11923.2295,W,1,10,0.8,12.8,M,-33.5,M,,*6B
$PYRTM,2024,122.833839861644,13.943487271782
$GPGGA,200042.00,3400.0319,N,11923.2269,W,1,10,0.8,11.3,M,-33.5,M,,*63
$PYRTM,2024,122.833851452037,13.943498862176
$GPGGA,200043.00,3400.0329,N,11923.2242,W,1,10,0.8,13.5,M,-33.5,M,,*6C
$PYRTM,2024,122.833863010648,13.943510420787
$GPGGA,200044.00,3400.0339,N,11923.2215,W,1,10,0.8,15.4,M,-33.5,M,,*6F
$PYRTM,2024,122.833874600845,13.943522010995
$GPGGA,200045.00,3400.0349,N,11923.2187,W,1,10,0.8,15.4,M,-33.5,M,,*61
$PYRTM,2024,122.833886159711,13.943533569850
$GPGGA,200046.00,3400.0359,N,11923.2161,W,1,10,0.8,15.5,M,-33.5,M,,*6A
$PYRTM,2024,122.833897744954,13.943545155093
$GPGGA,200047.00,3400.0370,N,11923.2134,W,1,10,0.8,15.5,M,-33.5,M,,*60
$PYRTM,2024,122.833909305255,13.943556715394
$GPGGA,200048.00,3400.0380,N,11923.2106,W,1,10,0.8,15.3,M,-33.5,M,,*67
$PYRTM,2024,122.833920892465,13.943568302604
$GPGGA,200049.00,3400.0391,N,11923.2078,W,1,10,0.8,14.7,M,-33.5,M,,*6B
$PYRTM,2024,122.833931217650,13.943578627789
$GPGGA,200050.00,3400.0401,N,11923.2051,W,1,10,0.8,14.5,M,-33.5,M,,*64
$PYRTM,2024,122.833942999826,13.943590409965
$GPGGA,200051.00,3400.0412,N,11923.2023,W,1,10,0.8,15.3,M,-33.5,M,,*65
$PYRTM,2024,122.833955604433,13.943603014572
$GPGGA,200052.00,3400.0423,N,11923.1995,W,1,10,0.8,13.2,M,-33.5,M,,*64
$PYRTM,2024,122.833967189850,13.943614599988
$GPGGA,200053.00,3400.0433,N,11923.1968,W,1,10,0.8,13.7,M,-33.5,M,,*63
$PYRTM,2024,122.833978751991,13.943626162130
$GPGGA,200054.00,3400.0443,N,11923.1941,W,1,10,0.8,13.6,M,-33.5,M,,*69
$PYRTM,2024,122.833990337928,13.943637748067
$GPGGA,200055.00,3400.0453,N,11923.1915,W,1,10,0.8,17.8,M,-33.5,M,,*62
$PYRTM,2024,122.834001900532,13.943649310671
$GPGGA,200056.00,3400.0464,N,11923.1888,W,1,10,0.8,18.3,M,-33.5,M,,*64
$PYRTM,2024,122.834013487650,13.943660897789
$GPGGA,200057.00,3400.0475,N,11923.1860,W,1,10,0.8,16.2,M,-33.5,M,,*6C
$PYRTM,2024,122.834025048553,13.943672458692
$GPGGA,200058.00,3400.0486,N,11923.1833,W,1,10,0.8,14.8,M,-33.5,M,,*61
$PYRTM,2024,122.834036640417,13.943684050556
$GPGGA,200059.00,3400.0496,N,11923.1804,W,1,10,0.8,13.5,M,-33.5,M,,*6F
$PYRTM,2024,122.834048196574,13.943695606713
$GPGGA,200100.00,3400.0506,N,11923.1775,W,1,10,0.8,14.7,M,-33.5,M,,*66
$PYRTM,2024,122.834059786204,13.943707196343
$GPGGA,200101.00,3400.0517,N,11923.1745,W,1,10,0.8,13.5,M,-33.5,M,,*61
$PYRTM,2024,122.834071345509,13.943718755648
$GPGGA,200102.00,3400.0529,N,11923.1717,W,1,10,0.8,12.5,M,-33.5,M,,*69
$PYRTM,2024,122.834082933079,13.943730343218
$GPGGA,200103.00,3400.0540,N,11923.1690,W,1,10,0.8,11.3,M,-33.5,M,,*6C
$PYRTM,2024,122.834094493553,13.943741903692
$GPGGA,200104.00,3400.0551,N,11923.1662,W,1,10,0.8,11.0,M,-33.5,M,,*65
$PYRTM,2024,122.834106080671,13.943753490810
$GPGGA,200105.00,3400.0562,N,11923.1635,W,1,10,0.8,12.4,M,-33.5,M,,*61
$PYRTM,2024,122.834117642350,13.943765052500
$GPGGA,200106.00,3400.0573,N,11923.1607,W,1,10,0.8,11.1,M,-33.5,M,,*65
$PYRTM,2024,122.834129228519,13.943776638657
$GPGGA,200107.00,3400.0585,N,11923.1580,W,1,10,0.8,10.1,M,-33.5,M,,*60
$PYRTM,2024,122.834140789734,13.943788199873
$GPGGA,200108.00,3400.0597,N,11923.1552,W,1,10,0.8,10.1,M,-33.5,M,,*63
$PYRTM,2024,122.834152377037,13.943799787176
$GPGGA,200109.00,3400.0608,N,11923.1524,W,1,09,0.8,9.8,M,-33.5,M,,*5F
$PYRTM,2024,122.834163938148,13.943811348287
$GPGGA,200110.00,3400.0619,N,11923.1494,W,1,10,0.8,10.8,M,-33.5,M,,*6D
$PYRTM,2024,122.834175525718,13.943822935868
$GPGGA,200111.00,3400.0630,N,11923.1466,W,1,10,0.8,9.8,M,-33.5,M,,*52
$PYRTM,2024,122.834187086701,13.943834496840
$GPGGA,200112.00,3400.0642,N,11923.1437,W,1,10,0.8,10.8,M,-33.5,M,,*68
$PYRTM,2024,122.834198675891,13.943846086030
$GPGGA,200113.00,3400.0654,N,11923.1410,W,1,10,0.8,9.5,M,-33.5,M,,*5E
$PYRTM,2024,122.834210234630,13.943857644769
$GPGGA,200114.00,3400.0665,N,11923.1383,W,1,10,0.8,10.3,M,-33.5,M,,*68
$PYRTM,2024,122.834221824387,13.943869234525
$GPGGA,200115.00,3400.0676,N,11923.1355,W,1,10,0.8,10.9,M,-33.5,M,,*6A
$PYRTM,2024,122.834233382986,13.943880793125
$GPGGA,200116.00,3400.0687,N,11923.1327,W,1,10,0.8,11.6,M,-33.5,M,,*6C
$PYRTM,2024,122.834244974144,13.943892384294
$GPGGA,200117.00,3400.0699,N,11923.1301,W,1,10,0.8,9.0,M,-33.5,M,,*59
$PYRTM,2024,122.834256531678,13.943903941817
$GPGGA,200118.00,3400.0710,N,11923.1274,W,1,10,0.8,8.7,M,-33.5,M,,*53
$PYRTM,2024,122.834268117998,13.943915528148
$GPGGA,200119.00,3400.0721,N,11923.1247,W,1,09,1.0,8.4,M,-33.5,M,,*52
$PYRTM,2024,122.834278299421,13.943925709560
$GPGGA,200120.00,3400.0732,N,11923.1219,W,1,10,0.8,9.8,M,-33.5,M,,*5D
$PYRTM,2024,122.834290223773,13.943937633912
$GPGGA,200121.00,3400.0743,N,11923.1191,W,1,10,0.8,11.6,M,-33.5,M,,*6E
$PYRTM,2024,122.834302827014,13.943950237164
$GPGGA,200122.00,3400.0755,N,11923.1164,W,1,10,0.8,10.8,M,-33.5,M,,*6F
$PYRTM,2024,122.834314414664,13.943961824803
$GPGGA,200123.00,3400.0768,N,11923.1138,W,1,10,0.8,10.7,M,-33.5,M,,*66
$PYRTM,2024,122.834325977847,13.943973387986
$GPGGA,200124.00,3400.0780,N,11923.1111,W,1,10,0.8,11.4,M,-33.5,M,,*6E
$PYRTM,2024,122.834337564190,13.943984974329
$GPGGA,200125.00,3400.0791,N,11923.1084,W,1,10,0.8,10.8,M,-33.5,M,,*6F
$PYRTM,2024,122.834349124954,13.943996535093
$GPGGA,200126.00,3400.0804,N,11923.1058,W,1,10,0.8,11.3,M,-33.5,M,,*64
$PYRTM,2024,122.834360711053,13.944008121192
$GPGGA,200127.00,3400.0816,N,11923.1031,W,1,10,0.8,10.0,M,-33.5,M,,*6B
$PYRTM,2024,122.834372273924,13.944019684062
$GPGGA,200128.00,3400.0828,N,11923.1004,W,1,10,0.8,9.1,M,-33.5,M,,*56
$PYRTM,2024,122.834383860312,13.944031270451
$GPGGA,200129.00,3400.0840,N,11923.0975,W,1,10,0.8,9.8,M,-33.5,M,,*5E
$PYRTM,2024,122.834395419664,13.944042829803
$GPGGA,200130.00,3400.0852,N,11923.0946,W,1,10,0.8,7.9,M,-33.5,M,,*5A
$PYRTM,2024,122.834407010984,13.944054421123
$GPGGA,200131.00,3400.0863,N,11923.0918,W,1,10,0.8,8.6,M,-33.5,M,,*52
$PYRTM,2024,122.834418568611,13.944065978750
$GPGGA,200132.00,3400.0874,N,11923.0890,W,1,10,0.8,7.9,M,-33.5,M,,*56
$PYRTM,2024,122.834430170359,13.944077580498
$GPGGA,200133.00,3400.0885,N,11923.0863,W,1,10,0.8,8.2,M,-33.5,M,,*51
$PYRTM,2024,122.834441717917,13.944089128056
$GPGGA,200134.00,3400.0896,N,11923.0835,W,1,10,0.8,8.4,M,-33.5,M,,*51
$PYRTM,2024,122.834453308484,13.944100718623
$GPGGA,200135.00,3400.0907,N,11923.0808,W,1,10,0.8,7.6,M,-33.5,M,,*5A
$PYRTM,2024,122.834464867708,13.944112277847
$GPGGA,200136.00,3400.0917,N,11923.0782,W,1,10,0.8,8.0,M,-33.5,M,,*5C
$PYRTM,2024,122.834476452280,13.944123862431
$GPGGA,200137.00,3400.0928,N,11923.0754,W,1,10,0.8,10.0,M,-33.5,M,,*63
$PYRTM,2024,122.834488014699,13.944135424838
$GPGGA,200138.00,3400.0939,N,11923.0726,W,1,10,0.8,9.3,M,-33.5,M,,*52
$PYRTM,2024,122.834499595856,13.944147005995
$GPGGA,200139.00,3400.0950,N,11923.0698,W,1,10,0.8,9.9,M,-33.5,M,,*52
$PYRTM,2024,122.834511175255,13.944158585394
$GPGGA,200140.00,3400.0960,N,11923.0671,W,1,09,1.0,11.3,M,-33.5,M,,*6A
$PYRTM,2024,122.834522750197,13.944170160336
$GPGGA,200141.00,3400.0971,N,11923.0644,W,1,10,0.8,11.5,M,-33.5,M,,*6A
$PYRTM,2024,122.834532356377,13.944179766516
$GPGGA,200142.00,3400.0980,N,11923.0618,W,1,10,0.8,10.1,M,-33.5,M,,*6B
$PYRTM,2024,122.834545313808,13.944192723947
$GPGGA,200143.00,3400.0990,N,11923.0592,W,1,10,0.8,10.5,M,-33.5,M,,*6E
$PYRTM,2024,122.834556429722,13.944203839861
$GPGGA,200144.00,3400.0999,N,11923.0566,W,1,10,0.8,10.4,M,-33.5,M,,*6A
$PYRTM,2024,122.834567540602,13.944214950752
$GPGGA,200145.00,3400.1009,N,11923.0539,W,1,10,0.8,10.7,M,-33.5,M,,*63
$PYRTM,2024,122.834578535567,13.944225945706
$GPGGA,200146.00,3400.1019,N,11923.0512,W,1,10,0.8,13.0,M,-33.5,M,,*6C
$PYRTM,2024,122.834589664363,13.944237074502
$GPGGA,200147.00,3400.1029,N,11923.0484,W,1,10,0.8,12.7,M,-33.5,M,,*66
$PYRTM,2024,122.834600759201,13.944248169352
$GPGGA,200148.00,3400.1039,N,11923.0457,W,1,10,0.8,12.1,M,-33.5,M,,*60
$PYRTM,2024,122.834611756933,13.944259167072
$GPGGA,200149.00,3400.1048,N,11923.0430,W,1,10,0.8,12.0,M,-33.5,M,,*67
$PYRTM,2024,122.834626323600,13.944273733738
$GPGGA,200150.00,3400.1058,N,11923.0403,W,1,10,0.8,11.4,M,-33.5,M,,*69
$PYRTM,2024,122.834637434444,13.944284844583
$GPGGA,200151.00,3400.1070,N,11923.0376,W,1,10,0.8,11.1,M,-33.5,M,,*62
$PYRTM,2024,122.834649023681,13.944296433819
$GPGGA,200152.00,3400.1081,N,11923.0350,W,1,09,1.0,12.5,M,-33.5,M,,*6D
$PYRTM,2024,122.834660582396,13.944307992546
$GPGGA,200153.00,3400.1093,N,11923.0324,W,1,10,0.8,15.1,M,-33.5,M,,*6E
$PYRTM,2024,122.834672171192,13.944319581331
$GPGGA,200154.00,3400.1104,N,11923.0298,W,1,10,0.8,11.6,M,-33.5,M,,*63
$PYRTM,2024,122.834683730278,13.944331140428
$GPGGA,200155.00,3400.1114,N,11923.0271,W,1,10,0.8,12.7,M,-33.5,M,,*66
$PYRTM,2024,122.834695319896,13.944342730046
$GPGGA,200156.00,3400.1125,N,11923.0244,W,1,09,1.0,12.8,M,-33.5,M,,*6F
$PYRTM,2024,122.834706878437,13.944354288588
$GPGGA,200157.00,3400.1136,N,11923.0217,W,1,10,0.8,13.4,M,-33.5,M,,*66
$PYRTM,2024,122.834718462639,13.944365872789
$GPGGA,200158.00,3400.1147,N,11923.0191,W,1,10,0.8,16.0,M,-33.5,M,,*63
$PYRTM,2024,122.834730028669,13.944377438808
$GPGGA,200159.00,3400.1156,N,11923.0164,W,1,10,0.8,16.3,M,-33.5,M,,*6B
$PYRTM,2024,122.834741616771,13.944389026910
$GPGGA,200200.00,3400.1166,N,11923.0136,W,1,10,0.8,14.2,M,-33.5,M,,*63
$PYRTM,2024,122.834753175289,13.944400585428
$GPGGA,200201.00,3400.1177,N,11923.0108,W,1,10,0.8,15.5,M,-33.5,M,,*69
$PYRTM,2024,122.834764763958,13.944412174097
$GPGGA,200202.00,3400.1188,N,11923.0079,W,1,10,0.8,12.1,M,-33.5,M,,*6E
$PYRTM,2024,122.834776323681,13.944423733819
$GPGGA,200203.00,3400.1200,N,11923.0051,W,1,10,0.8,13.4,M,-33.5,M,,*62
$PYRTM,2024,122.834787912812,13.944435322951
$GPGGA,200204.00,3400.1211,N,11923.0023,W,1,10,0.8,16.0,M,-33.5,M,,*61
$PYRTM,2024,122.834799471887,13.944446882025
$GPGGA,200205.00,3400.1220,N,11922.9995,W,1,09,1.0,16.4,M,-33.5,M,,*6B
$PYRTM,2024,122.834811061493,13.944458471632
$GPGGA,200206.00,3400.1230,N,11922.9967,W,1,10,0.8,14.8,M,-33.5,M,,*6B
$PYRTM,2024,122.834822620301,13.944470030440
$GPGGA,200207.00,3400.1240,N,11922.9939,W,1,10,0.8,12.7,M,-33.5,M,,*6F
$PYRTM,2024,122.834834209387,13.944481619525
$GPGGA,200208.00,3400.1252,N,11922.9911,W,1,10,0.8,11.9,M,-33.5,M,,*64
$PYRTM,2024,122.834845769109,13.944493179248
$GPGGA,200209.00,3400.1264,N,11922.9884,W,1,10,0.8,13.3,M,-33.5,M,,*65
$PYRTM,2024,122.834857357292,13.944504767431
$GPGGA,200210.00,3400.1276,N,11922.9858,W,1,10,0.8,14.0,M,-33.5,M,,*6B
$PYRTM,2024,122.834868918669,13.944516328808
$GPGGA,200211.00,3400.1287,N,11922.9830,W,1,10,0.8,11.8,M,-33.5,M,,*67
$PYRTM,2024,122.834880505995,13.944527916146
$GPGGA,200212.00,3400.1298,N,11922.9802,W,1,10,0.8,12.7,M,-33.5,M,,*67
$PYRTM,2024,122.834892065694,13.944539475833
$GPGGA,200213.00,3400.1309,N,11922.9774,W,1,10,0.8,12.2,M,-33.5,M,,*64
$PYRTM,2024,122.834903655428,13.944551065567
$GPGGA,200214.00,3400.1320,N,11922.9747,W,1,10,0.8,11.9,M,-33.5,M,,*60
$PYRTM,2024,122.834915214537,13.944562624688
$GPGGA,200215.00,3400.1331,N,11922.9720,W,1,10,0.8,12.1,M,-33.5,M,,*6B
$PYRTM,2024,122.834926803634,13.944574213773
$GPGGA,200216.00,3400.1340,N,11922.9694,W,1,10,0.8,13.4,M,-33.5,M,,*64
$PYRTM,2024,122.834938360949,13.944585771088
$GPGGA,200217.00,3400.1350,N,11922.9668,W,1,10,0.8,12.3,M,-33.5,M,,*61
$PYRTM,2024,122.834949950729,13.944597360868
$GPGGA,200218.00,3400.1360,N,11922.9642,W,1,10,0.8,11.3,M,-33.5,M,,*66
$PYRTM,2024,122.834961511782,13.944608921921
$GPGGA,200219.00,3400.1370,N,11922.9616,W,1,10,0.8,11.3,M,-33.5,M,,*67
$PYRTM,2024,122.834972871204,13.944620281343
$GPGGA,200220.00,3400.1381,N,11922.9590,W,1,10,0.8,11.1,M,-33.5,M,,*6C
$PYRTM,2024,122.834985717963,13.944633128102
$GPGGA,200221.00,3400.1392,N,11922.9563,W,1,10,0.8,12.6,M,-33.5,M,,*67
$PYRTM,2024,122.834997288090,13.944644698229
$GPGGA,200222.00,3400.1404,N,11922.9536,W,1,10,0.8,16.5,M,-33.5,M,,*6B
$PYRTM,2024,122.835008865880,13.944656276019
$GPGGA,200223.00,3400.1415,N,11922.9509,W,1,10,0.8,15.1,M,-33.5,M,,*61
$PYRTM,2024,122.835020437616,13.944667847755
$GPGGA,200224.00,3400.1425,N,11922.9482,W,1,10,0.8,13.7,M,-33.5,M,,*67
$PYRTM,2024,122.835032012049,13.944679422187
$GPGGA,200225.00,3400.1436,N,11922.9455,W,1,09,1.0,13.5,M,-33.5,M,,*6D
$PYRTM,2024,122.835043585903,13.944690996042
$GPGGA,200226.00,3400.1447,N,11922.9429,W,1,09,1.0,12.9,M,-33.5,M,,*6E
$PYRTM,2024,122.835055155845,13.944702565984
$GPGGA,200227.00,3400.1457,N,11922.9402,W,1,10,0.8,14.2,M,-33.5,M,,*6B
$PYRTM,2024,122.835066732650,13.944714142789
$GPGGA,200228.00,3400.1467,N,11922.9377,W,1,09,1.0,15.7,M,-33.5,M,,*67
$PYRTM,2024,122.835078302917,13.944725713056
$GPGGA,200229.00,3400.1476,N,11922.9350,W,1,10,0.8,15.7,M,-33.5,M,,*62
$PYRTM,2024,122.835089881354,13.944737291493
$GPGGA,200230.00,3400.1484,N,11922.9324,W,1,10,0.8,15.5,M,-33.5,M,,*66
$PYRTM,2024,122.835101458484,13.944748868623
$GPGGA,200231.00,3400.1492,N,11922.9297,W,1,10,0.8,14.9,M,-33.5,M,,*64
$PYRTM,2024,122.835113030116,13.944760440255
$GPGGA,200232.00,3400.1501,N,11922.9270,W,1,10,0.8,16.3,M,-33.5,M,,*6D
$PYRTM,2024,122.835124604907,13.944772015046
$GPGGA,200233.00,3400.1510,N,11922.9243,W,1,10,0.8,18.5,M,-33.5,M,,*64
$PYRTM,2024,122.835136178056,13.944783588194
$GPGGA,200234.00,3400.1518,N,11922.9215,W,1,10,0.8,19.3,M,-33.5,M,,*6F
$PYRTM,2024,122.835147752824,13.944795162963
$GPGGA,200235.00,3400.1527,N,11922.9186,W,1,10,0.8,18.2,M,-33.5,M,,*6B
$PYRTM,2024,122.835159328993,13.944806739132
$GPGGA,200236.00,3400.1538,N,11922.9157,W,1,10,0.8,15.4,M,-33.5,M,,*61
$PYRTM,2024,122.835170903715,13.944818313866
$GPGGA,200237.00,3400.1549,N,11922.9127,W,1,10,0.8,13.3,M,-33.5,M,,*60
$PYRTM,2024,122.835182475127,13.944829885278
$GPGGA,200238.00,3400.1561,N,11922.9098,W,1,10,0.8,16.5,M,-33.5,M,,*63
$PYRTM,2024,122.835194051782,13.944841461921
$GPGGA,200239.00,3400.1571,N,11922.9070,W,1,10,0.8,15.3,M,-33.5,M,,*60
$PYRTM,2024,122.835205617396,13.944853027546
$GPGGA,200240.00,3400.1581,N,11922.9041,W,1,10,0.8,15.9,M,-33.5,M,,*69
$PYRTM,2024,122.835217192720,13.944864602859
$GPGGA,200241.00,3400.1591,N,11922.9013,W,1,10,0.8,13.1,M,-33.5,M,,*60
$PYRTM,2024,122.835228771806,13.944876181956
$GPGGA,200242.00,3400.1601,N,11922.8986,W,1,10,0.8,12.3,M,-33.5,M,,*6E
$PYRTM,2024,122.835240347616,13.944887757755
$GPGGA,200243.00,3400.1612,N,11922.8958,W,1,10,0.8,12.7,M,-33.5,M,,*6A
$PYRTM,2024,122.835252396956,13.944899807106
$GPGGA,200244.00,3400.1623,N,11922.8931,W,1,10,0.8,13.3,M,-33.5,M,,*65
$PYRTM,2024,122.835263494039,13.944910904178
$GPGGA,200245.00,3400.1633,N,11922.8903,W,1,10,0.8,15.3,M,-33.5,M,,*62
$PYRTM,2024,122.835275069468,13.944922479606
$GPGGA,200246.00,3400.1643,N,11922.8875,W,1,09,1.0,16.0,M,-33.5,M,,*67
$PYRTM,2024,122.835286643461,13.944934053600
$GPGGA,200247.00,3400.1653,N,11922.8848,W,1,09,1.0,14.1,M,-33.5,M,,*6A
$PYRTM,2024,122.835298216238,13.944945626377
$GPGGA,200248.00,3400.1664,N,11922.8820,W,1,10,0.8,12.3,M,-33.5,M,,*6A
$PYRTM,2024,122.835309789896,13.944957200035
$GPGGA,200249.00,3400.1674,N,11922.8793,W,1,10,0.8,11.4,M,-33.5,M,,*69
$PYRTM,2024,122.835322857847,13.944970267986
$GPGGA,200250.00,3400.1684,N,11922.8767,W,1,09,1.0,12.0,M,-33.5,M,,*63
$PYRTM,2024,122.835335131539,13.944982541678
$GPGGA,200251.00,3400.1695,N,11922.8741,W,1,09,1.0,13.2,M,-33.5,M,,*65
$PYRTM,2024,122.835344507928,13.944991918067
$GPGGA,200252.00,3400.1704,N,11922.8714,W,1,09,1.0,11.0,M,-33.5,M,,*6F
$PYRTM,2024,122.835356092558,13.945003502697
$GPGGA,200253.00,3400.1713,N,11922.8688,W,1,10,0.8,10.8,M,-33.5,M,,*64
$PYRTM,2024,122.835367661771,13.945015071910
$GPGGA,200254.00,3400.1721,N,11922.8663,W,1,09,1.0,9.9,M,-33.5,M,,*5F
$PYRTM,2024,122.835379237951,13.945026648090
$GPGGA,200255.00,3400.1731,N,11922.8637,W,1,10,0.8,11.6,M,-33.5,M,,*69
$PYRTM,2024,122.835390803924,13.945038214062
$GPGGA,200256.00,3400.1740,N,11922.8611,W,1,10,0.8,14.1,M,-33.5,M,,*6A
$PYRTM,2024,122.835402383646,13.945049793785
$GPGGA,200257.00,3400.1748,N,11922.8584,W,1,10,0.8,15.0,M,-33.5,M,,*6C
$PYRTM,2024,122.835413953854,13.945061363993
$GPGGA,200258.00,3400.1757,N,11922.8558,W,1,09,1.0,13.5,M,-33.5,M,,*6E
$PYRTM,2024,122.835425529236,13.945072939387
$GPGGA,200259.00,3400.1766,N,11922.8531,W,1,10,0.8,13.3,M,-33.5,M,,*65
$PYRTM,2024,122.835437105185,13.945084515324
$GPGGA,200300.00,3400.1776,N,11922.8505,W,1,10,0.8,14.0,M,-33.5,M,,*6A
$PYRTM,2024,122.835448680069,13.945096090220
$GPGGA,200301.00,3400.1785,N,11922.8478,W,1,09,1.0,14.8,M,-33.5,M,,*65
$PYRTM,2024,122.835460255046,13.945107665185
$GPGGA,200302.00,3400.1795,N,11922.8453,W,1,09,1.0,14.5,M,-33.5,M,,*63
$PYRTM,2024,122.835471829282,13.945119239433
$GPGGA,200303.00,3400.1805,N,11922.8427,W,1,09,1.0,12.6,M,-33.5,M,,*62
$PYRTM,2024,122.835483402940,13.945130813079
$GPGGA,200304.00,3400.1815,N,11922.8402,W,1,09,1.0,12.4,M,-33.5,M,,*61
$PYRTM,2024,122.835494977002,13.945142387141
$GPGGA,200305.00,3400.1826,N,11922.8377,W,1,09,1.0,11.9,M,-33.5,M,,*6B
$PYRTM,2024,122.835506551366,13.945153961505
$GPGGA,200306.00,3400.1836,N,11922.8353,W,1,10,0.8,11.2,M,-33.5,M,,*65
$PYRTM,2024,122.835518125243,13.945165535382
$GPGGA,200307.00,3400.1845,N,11922.8329,W,1,10,0.8,11.3,M,-33.5,M,,*6C
$PYRTM,2024,122.835529698495,13.945177108646
$GPGGA,200308.00,3400.1854,N,11922.8304,W,1,10,0.8,10.1,M,-33.5,M,,*6F
$PYRTM,2024,122.835541276817,13.945188686956
$GPGGA,200309.00,3400.1863,N,11922.8279,W,1,10,0.8,12.7,M,-33.5,M,,*65
$PYRTM,2024,122.835552846771,13.945200256921
$GPGGA,200310.00,3400.1873,N,11922.8254,W,1,10,0.8,10.1,M,-33.5,M,,*67
$PYRTM,2024,122.835564424826,13.945211834965
$GPGGA,200311.00,3400.1881,N,11922.8229,W,1,10,0.8,11.5,M,-33.5,M,,*64
$PYRTM,2024,122.835575995486,13.945223405625
$GPGGA,200312.00,3400.1891,N,11922.8204,W,1,10,0.8,13.8,M,-33.5,M,,*66
$PYRTM,2024,122.835587573044,13.945234983183
$GPGGA,200313.00,3400.1901,N,11922.8178,W,1,10,0.8,15.0,M,-33.5,M,,*69
$PYRTM,2024,122.835599607303,13.945247017442
$GPGGA,200314.00,3400.1910,N,11922.8151,W,1,10,0.8,15.1,M,-33.5,M,,*64
$PYRTM,2024,122.835610721030,13.945258131169
$GPGGA,200315.00,3400.1919,N,11922.8125,W,1,09,1.0,12.0,M,-33.5,M,,*68
$PYRTM,2024,122.835622293333,13.945269703472
$GPGGA,200316.00,3400.1929,N,11922.8100,W,1,09,1.0,10.6,M,-33.5,M,,*6B
$PYRTM,2024,122.835633866493,13.945281276632
$GPGGA,200317.00,3400.1940,N,11922.8073,W,1,10,0.8,10.5,M,-33.5,M,,*62
$PYRTM,2024,122.835645440069,13.945292850220
$GPGGA,200318.00,3400.1950,N,11922.8046,W,1,10,0.8,12.0,M,-33.5,M,,*6D
$PYRTM,2024,122.835657015625,13.945304425764
$GPGGA,200319.00,3400.1960,N,11922.8020,W,1,10,0.8,14.0,M,-33.5,M,,*69
$PYRTM,2024,122.835669732396,13.945317142535
$GPGGA,200320.00,3400.1969,N,11922.7995,W,1,10,0.8,14.9,M,-33.5,M,,*6B
$PYRTM,2024,122.835682349387,13.945329759537
$GPGGA,200321.00,3400.1978,N,11922.7968,W,1,09,1.0,14.8,M,-33.5,M,,*68
$PYRTM,2024,122.835691737350,13.945339147488
$GPGGA,200322.00,3400.1989,N,11922.7942,W,1,09,1.0,14.6,M,-33.5,M,,*63
$PYRTM,2024,122.835703315116,13.945350725255
$GPGGA,200323.00,3400.1999,N,11922.7917,W,1,09,1.0,12.8,M,-33.5,M,,*6B
$PYRTM,2024,122.835714885579,13.945362295718
$GPGGA,200324.00,3400.2009,N,11922.7893,W,1,10,0.8,13.8,M,-33.5,M,,*62
$PYRTM,2024,122.835726462801,13.945373872940
$GPGGA,200325.00,3400.2019,N,11922.7867,W,1,10,0.8,15.1,M,-33.5,M,,*66
$PYRTM,2024,122.835738033646,13.945385443785
$GPGGA,200326.00,3400.2029,N,11922.7840,W,1,10,0.8,14.7,M,-33.5,M,,*64
$PYRTM,2024,122.835749611667,13.945397021817
$GPGGA,200327.00,3400.2038,N,11922.7814,W,1,10,0.8,14.4,M,-33.5,M,,*67
$PYRTM,2024,122.835761182269,13.945408592407
$GPGGA,200328.00,3400.2047,N,11922.7788,W,1,09,1.0,14.1,M,-33.5,M,,*6E
$PYRTM,2024,122.835772759086,13.945420169225
$GPGGA,200329.00,3400.2057,N,11922.7762,W,1,10,0.8,15.0,M,-33.5,M,,*6B
$PYRTM,2024,122.835784329896,13.945431740035
$GPGGA,200330.00,3400.2067,N,11922.7736,W,1,10,0.8,15.6,M,-33.5,M,,*67
$PYRTM,2024,122.835795904444,13.945443314595
$GPGGA,200331.00,3400.2076,N,11922.7710,W,1,10,0.8,16.7,M,-33.5,M,,*60
$PYRTM,2024,122.835807477234,13.945454887373
$GPGGA,200332.00,3400.2085,N,11922.7684,W,1,10,0.8,18.8,M,-33.5,M,,*62
$PYRTM,2024,122.835819047743,13.945466457894
$GPGGA,200333.00,3400.2094,N,11922.7659,W,1,10,0.8,18.7,M,-33.5,M,,*6C
$PYRTM,2024,122.835830627477,13.945478037616
$GPGGA,200334.00,3400.2104,N,11922.7634,W,1,10,0.8,19.0,M,-33.5,M,,*6E
$PYRTM,2024,122.835842201412,13.945489611551
$GPGGA,200335.00,3400.2114,N,11922.7609,W,1,10,0.8,17.8,M,-33.5,M,,*66
$PYRTM,2024,122.835853770891,13.945501181030
$GPGGA,200336.00,3400.2124,N,11922.7585,W,1,09,1.0,15.8,M,-33.5,M,,*62
$PYRTM,2024,122.835865351134,13.945512761273
$GPGGA,200337.00,3400.2134,N,11922.7559,W,1,09,1.0,15.1,M,-33.5,M,,*6A
$PYRTM,2024,122.835876924757,13.945524334907
$GPGGA,200338.00,3400.2144,N,11922.7534,W,1,09,1.0,15.4,M,-33.5,M,,*6C
$PYRTM,2024,122.835888498194,13.945535908333
$GPGGA,200339.00,3400.2154,N,11922.7508,W,1,09,1.0,15.5,M,-33.5,M,,*62
$PYRTM,2024,122.835900529965,13.945547940104
$GPGGA,200340.00,3400.2164,N,11922.7482,W,1,10,0.8,16.3,M,-33.5,M,,*68
$PYRTM,2024,122.835911641701,13.945559051840
$GPGGA,200341.00,3400.2173,N,11922.7456,W,1,10,0.8,16.8,M,-33.5,M,,*6D
$PYRTM,2024,122.835923219769,13.945570629907
$GPGGA,200342.00,3400.2184,N,11922.7428,W,1,10,0.8,18.3,M,-33.5,M,,*6A
$PYRTM,2024,122.835934797373,13.945582207512
$GPGGA,200343.00,3400.2195,N,11922.7401,W,1,10,0.8,19.5,M,-33.5,M,,*67
$PYRTM,2024,122.835946834826,13.945594244965
$GPGGA,200344.00,3400.2206,N,11922.7374,W,1,10,0.8,18.2,M,-33.5,M,,*6A
$PYRTM,2024,122.835957945602,13.945605355741
$GPGGA,200345.00,3400.2215,N,11922.7348,W,1,10,0.8,15.9,M,-33.5,M,,*60
$PYRTM,2024,122.835969517014,13.945616927153
$GPGGA,200346.00,3400.2225,N,11922.7323,W,1,10,0.8,14.5,M,-33.5,M,,*60
$PYRTM,2024,122.835980164479,13.945627574618
$GPGGA,200347.00,3400.2235,N,11922.7297,W,1,10,0.8,13.5,M,-33.5,M,,*69
$PYRTM,2024,122.835993127685,13.945640537824
$GPGGA,200348.00,3400.2245,N,11922.7273,W,1,10,0.8,14.9,M,-33.5,M,,*60
$PYRTM,2024,122.836003879132,13.945651289271
$GPGGA,200349.00,3400.2255,N,11922.7248,W,1,10,0.8,14.7,M,-33.5,M,,*66
$PYRTM,2024,122.836018346053,13.945665756192
$GPGGA,200350.00,3400.2263,N,11922.7222,W,1,10,0.8,16.1,M,-33.5,M,,*63
$PYRTM,2024,122.836029459352,13.945676869491
$GPGGA,200351.00,3400.2271,N,11922.7196,W,1,10,0.8,13.3,M,-33.5,M,,*6A
$PYRTM,2024,122.836040467593,13.945687877731
$GPGGA,200352.00,3400.2279,N,11922.7170,W,1,10,0.8,10.9,M,-33.5,M,,*60
$PYRTM,2024,122.836051564803,13.945698974942
$GPGGA,200353.00,3400.2288,N,11922.7145,W,1,09,1.0,13.7,M,-33.5,M,,*65
$PYRTM,2024,122.836062691968,13.945710102106
$GPGGA,200354.00,3400.2299,N,11922.7119,W,1,10,0.8,14.7,M,-33.5,M,,*6D
$PYRTM,2024,122.836073682593,13.945721092731
$GPGGA,200355.00,3400.2309,N,11922.7092,W,1,10,0.8,14.1,M,-33.5,M,,*60
$PYRTM,2024,122.836084794896,13.945732205023
$GPGGA,200356.00,3400.2318,N,11922.7066,W,1,10,0.8,15.5,M,-33.5,M,,*6D
$PYRTM,2024,122.836096947778,13.945744357917
$GPGGA,200357.00,3400.2328,N,11922.7039,W,1,10,0.8,15.5,M,-33.5,M,,*65
$PYRTM,2024,122.836108058773,13.945755468912
$GPGGA,200358.00,3400.2338,N,11922.7014,W,1,09,1.0,17.3,M,-33.5,M,,*61
$PYRTM,2024,122.836119173831,13.945766583970
$GPGGA,200359.00,3400.2349,N,11922.6988,W,1,10,0.8,16.5,M,-33.5,M,,*6D
$PYRTM,2024,122.836130514340,13.945777924479
$GPGGA,200400.00,3400.2359,N,11922.6962,W,1,10,0.8,16.9,M,-33.5,M,,*6F
$PYRTM,2024,122.836142072326,13.945789482477
$GPGGA,200401.00,3400.2368,N,11922.6937,W,1,09,1.0,14.8,M,-33.5,M,,*6E
$PYRTM,2024,122.836153660718,13.945801070856
$GPGGA,200402.00,3400.2377,N,11922.6912,W,1,09,1.0,12.8,M,-33.5,M,,*62
$PYRTM,2024,122.836165220243,13.945812630382
$GPGGA,200403.00,3400.2387,N,11922.6888,W,1,09,1.0,14.4,M,-33.5,M,,*64
$PYRTM,2024,122.836176809178,13.945824219329
$GPGGA,200404.00,3400.2396,N,11922.6864,W,1,09,1.0,15.5,M,-33.5,M,,*61
$PYRTM,2024,122.836188368785,13.945835778924
$GPGGA,200405.00,3400.2404,N,11922.6840,W,1,09,1.0,16.5,M,-33.5,M,,*69
$PYRTM,2024,122.836199957222,13.945847367361
$GPGGA,200406.00,3400.2413,N,11922.6814,W,1,10,0.8,17.0,M,-33.5,M,,*68
$PYRTM,2024,122.836211516910,13.945858927049
$GPGGA,200407.00,3400.2422,N,11922.6789,W,1,10,0.8,16.9,M,-33.5,M,,*68
$PYRTM,2024,122.836223105382,13.945870515521
$GPGGA,200408.00,3400.2431,N,11922.6765,W,1,10,0.8,17.9,M,-33.5,M,,*66
$PYRTM,2024,122.836234665579,13.945882075718
$GPGGA,200409.00,3400.2441,N,11922.6741,W,1,10,0.8,17.1,M,-33.5,M,,*6E
$PYRTM,2024,122.836246253530,13.945893663669
$GPGGA,200410.00,3400.2451,N,11922.6716,W,1,10,0.8,14.6,M,-33.5,M,,*61
$PYRTM,2024,122.836257814329,13.945905224468
$GPGGA,200411.00,3400.2461,N,11922.6691,W,1,10,0.8,12.6,M,-33.5,M,,*6B
$PYRTM,2024,122.836269402442,13.945916812581
$GPGGA,200412.00,3400.2471,N,11922.6666,W,1,10,0.8,12.3,M,-33.5,M,,*64
$PYRTM,2024,122.836280961678,13.945928371817
$GPGGA,200413.00,3400.2481,N,11922.6642,W,1,09,1.0,14.9,M,-33.5,M,,*61
$PYRTM,2024,122.836292549329,13.945939959479
$GPGGA,200414.00,3400.2492,N,11922.6617,W,1,10,0.8,14.7,M,-33.5,M,,*6B
$PYRTM,2024,122.836304110579,13.945951520718
$GPGGA,200415.00,3400.2503,N,11922.6592,W,1,09,1.0,12.3,M,-33.5,M,,*6E
$PYRTM,2024,122.836315709468,13.945963119606
$GPGGA,200416.00,3400.2513,N,11922.6568,W,1,09,1.0,13.8,M,-33.5,M,,*63
$PYRTM,2024,122.836327258090,13.945974668229
$GPGGA,200417.00,3400.2523,N,11922.6544,W,1,09,1.0,12.3,M,-33.5,M,,*65
$PYRTM,2024,122.836338854491,13.945986264630
$GPGGA,200418.00,3400.2535,N,11922.6519,W,1,09,1.0,13.7,M,-33.5,M,,*60
$PYRTM,2024,122.836350407083,13.945997817222
$GPGGA,200419.00,3400.2547,N,11922.6494,W,1,09,1.0,16.8,M,-33.5,M,,*6A
$PYRTM,2024,122.836361763472,13.946009173611
$GPGGA,200420.00,3400.2558,N,11922.6469,W,1,09,1.0,13.8,M,-33.5,M,,*69
$PYRTM,2024,122.836374615208,13.946022025347
$GPGGA,200421.00,3400.2569,N,11922.6443,W,1,09,1.0,16.9,M,-33.5,M,,*66
$PYRTM,2024,122.836386188241,13.946033598380
$GPGGA,200422.00,3400.2579,N,11922.6418,W,1,09,1.0,17.0,M,-33.5,M,,*62
$PYRTM,2024,122.836397759745,13.946045169884
$GPGGA,200423.00,3400.2589,N,11922.6394,W,1,09,1.0,14.9,M,-33.5,M,,*65
$PYRTM,2024,122.836409333600,13.946056743738
$GPGGA,200424.00,3400.2599,N,11922.6370,W,1,10,0.8,15.8,M,-33.5,M,,*68
$PYRTM,2024,122.836420907940,13.946068318079
$GPGGA,200425.00,3400.2609,N,11922.6346,W,1,10,0.8,16.7,M,-33.5,M,,*6A
$PYRTM,2024,122.836432482049,13.946079892187
$GPGGA,200426.00,3400.2618,N,11922.6322,W,1,10,0.8,17.7,M,-33.5,M,,*6A
$PYRTM,2024,122.836444055058,13.946091465185
$GPGGA,200427.00,3400.2628,N,11922.6298,W,1,10,0.8,15.6,M,-33.5,M,,*6B
$PYRTM,2024,122.836455625324,13.946103035463
$GPGGA,200428.00,3400.2638,N,11922.6273,W,1,10,0.8,16.8,M,-33.5,M,,*6D
$PYRTM,2024,122.836467200336,13.946114610475
$GPGGA,200429.00,3400.2648,N,11922.6248,W,1,10,0.8,16.1,M,-33.5,M,,*6A
$PYRTM,2024,122.836479241713,13.946126651852
$GPGGA,200430.00,3400.2658,N,11922.6223,W,1,10,0.8,19.7,M,-33.5,M,,*67
$PYRTM,2024,122.836490356007,13.946137766146
$GPGGA,200431.00,3400.2669,N,11922.6198,W,1,10,0.8,19.5,M,-33.5,M,,*65
$PYRTM,2024,122.836501926053,13.946149336192
$GPGGA,200432.00,3400.2680,N,11922.6172,W,1,10,0.8,21.2,M,-33.5,M,,*69
$PYRTM,2024,122.836513504514,13.946160914653
$GPGGA,200433.00,3400.2690,N,11922.6148,W,1,10,0.8,22.5,M,-33.5,M,,*64
$PYRTM,2024,122.836525075382,13.946172485521
$GPGGA,200434.00,3400.2701,N,11922.6124,W,1,10,0.8,21.0,M,-33.5,M,,*66
$PYRTM,2024,122.836536649201,13.946184059352
$GPGGA,200435.00,3400.2711,N,11922.6099,W,1,10,0.8,19.5,M,-33.5,M,,*6F
$PYRTM,2024,122.836548224155,13.946195634294
$GPGGA,200436.00,3400.2723,N,11922.6074,W,1,10,0.8,19.7,M,-33.5,M,,*6C
$PYRTM,2024,122.836559797766,13.946207207905
$GPGGA,200437.00,3400.2733,N,11922.6048,W,1,10,0.8,18.5,M,-33.5,M,,*60
$PYRTM,2024,122.836571372211,13.946218782350
$GPGGA,200438.00,3400.2744,N,11922.6022,W,1,10,0.8,18.6,M,-33.5,M,,*60
$PYRTM,2024,122.836582946354,13.946230356493
$GPGGA,200439.00,3400.2755,N,11922.5996,W,1,10,0.8,17.0,M,-33.5,M,,*6D
$PYRTM,2024,122.836594519838,13.946241929977
$GPGGA,200440.00,3400.2766,N,11922.5971,W,1,10,0.8,15.6,M,-33.5,M,,*6E
$PYRTM,2024,122.836606095127,13.946253505266
$GPGGA,200441.00,3400.2777,N,11922.5945,W,1,10,0.8,15.7,M,-33.5,M,,*69
$PYRTM,2024,122.836617669699,13.946265079850
$GPGGA,200442.00,3400.2787,N,11922.5919,W,1,10,0.8,15.7,M,-33.5,M,,*6C
$PYRTM,2024,122.836629246308,13.946276656447
$GPGGA,200443.00,3400.2797,N,11922.5894,W,1,09,1.0,16.9,M,-33.5,M,,*64
$PYRTM,2024,122.836641281632,13.946288691771
$GPGGA,200444.00,3400.2807,N,11922.5869,W,1,10,0.8,17.6,M,-33.5,M,,*68
$PYRTM,2024,122.836652386296,13.946299796435
$GPGGA,200445.00,3400.2816,N,11922.5844,W,1,10,0.8,16.2,M,-33.5,M,,*63
$PYRTM,2024,122.836663964792,13.946311374931
$GPGGA,200446.00,3400.2826,N,11922.5819,W,1,10,0.8,16.3,M,-33.5,M,,*6A
$PYRTM,2024,122.836675539896,13.946322950035
$GPGGA,200447.00,3400.2835,N,11922.5794,W,1,10,0.8,16.4,M,-33.5,M,,*64
$PYRTM,2024,122.836687112882,13.946334523021
$GPGGA,200448.00,3400.2844,N,11922.5768,W,1,10,0.8,15.2,M,-33.5,M,,*6B
$PYRTM,2024,122.836698687870,13.946346098009
$GPGGA,200449.00,3400.2853,N,11922.5744,W,1,10,0.8,17.5,M,-33.5,M,,*67
$PYRTM,2024,122.836711406817,13.946358816956
$GPGGA,200450.00,3400.2864,N,11922.5719,W,1,10,0.8,16.3,M,-33.5,M,,*64
$PYRTM,2024,122.836724024653,13.946371434792
$GPGGA,200451.00,3400.2874,N,11922.5695,W,1,10,0.8,14.4,M,-33.5,M,,*64
$PYRTM,2024,122.836733410116,13.946380820255
$GPGGA,200452.00,3400.2884,N,11922.5669,W,1,10,0.8,16.8,M,-33.5,M,,*65
$PYRTM,2024,122.836744984062,13.946392394201
$GPGGA,200453.00,3400.2894,N,11922.5643,W,1,10,0.8,16.9,M,-33.5,M,,*6C
$PYRTM,2024,122.836756558449,13.946403968600
$GPGGA,200454.00,3400.2904,N,11922.5617,W,1,10,0.8,15.1,M,-33.5,M,,*69
$PYRTM,2024,122.836768132037,13.946415542176
$GPGGA,200455.00,3400.2915,N,11922.5590,W,1,10,0.8,16.0,M,-33.5,M,,*66
$PYRTM,2024,122.836779706169,13.946427116308
$GPGGA,200456.00,3400.2925,N,11922.5564,W,1,10,0.8,16.3,M,-33.5,M,,*6E
$PYRTM,2024,122.836791275266,13.946438685405
$GPGGA,200457.00,3400.2935,N,11922.5538,W,1,10,0.8,16.7,M,-33.5,M,,*63
$PYRTM,2024,122.836802854722,13.946450264861
$GPGGA,200458.00,3400.2945,N,11922.5513,W,1,10,0.8,17.3,M,-33.5,M,,*67
$PYRTM,2024,122.836814431215,13.946461841366
$GPGGA,200459.00,3400.2955,N,11922.5489,W,1,10,0.8,16.8,M,-33.5,M,,*6F
$PYRTM,2024,122.836826003287,13.946473413437
$GPGGA,200500.00,3400.2966,N,11922.5466,W,1,10,0.8,15.5,M,-33.5,M,,*6D
$PYRTM,2024,122.836837572315,13.946484982454
$GPGGA,200501.00,3400.2978,N,11922.5441,W,1,10,0.8,14.2,M,-33.5,M,,*60
$PYRTM,2024,122.836849151667,13.946496561806
$GPGGA,200502.00,3400.2988,N,11922.5415,W,1,10,0.8,12.8,M,-33.5,M,,*61
$PYRTM,2024,122.836860728102,13.946508138252
$GPGGA,200503.00,3400.2999,N,11922.5389,W,1,10,0.8,13.5,M,-33.5,M,,*6E
$PYRTM,2024,122.836872299896,13.946519710035
$GPGGA,200504.00,3400.3010,N,11922.5363,W,1,10,0.8,15.2,M,-33.5,M,,*65
$PYRTM,2024,122.836883878206,13.946531288345
$GPGGA,200505.00,3400.3022,N,11922.5338,W,1,10,0.8,15.1,M,-33.5,M,,*68
$PYRTM,2024,122.836895447431,13.946542857581
$GPGGA,200506.00,3400.3034,N,11922.5313,W,1,10,0.8,12.8,M,-33.5,M,,*6B
$PYRTM,2024,122.836907025694,13.946554435833
$GPGGA,200507.00,3400.3046,N,11922.5287,W,1,10,0.8,14.9,M,-33.5,M,,*64
$PYRTM,2024,122.836918595880,13.946566006019
$GPGGA,200508.00,3400.3056,N,11922.5262,W,1,10,0.8,16.2,M,-33.5,M,,*68
$PYRTM,2024,122.836930165972,13.946577576111
$GPGGA,200509.00,3400.3067,N,11922.5236,W,1,10,0.8,15.2,M,-33.5,M,,*69
$PYRTM,2024,122.836941740938,13.946589151076
$GPGGA,200510.00,3400.3077,N,11922.5210,W,1,10,0.8,16.9,M,-33.5,M,,*6C
$PYRTM,2024,122.836953313588,13.946600723727
$GPGGA,200511.00,3400.3089,N,11922.5185,W,1,10,0.8,14.3,M,-33.5,M,,*6B
$PYRTM,2024,122.836964887419,13.946612297558
$GPGGA,200512.00,3400.3100,N,11922.5160,W,1,10,0.8,14.7,M,-33.5,M,,*67
$PYRTM,2024,122.836976466262,13.946623876400
$GPGGA,200513.00,3400.3111,N,11922.5135,W,1,10,0.8,17.6,M,-33.5,M,,*64
$PYRTM,2024,122.836988506933,13.946635917072
$GPGGA,200514.00,3400.3122,N,11922.5110,W,1,09,1.0,17.7,M,-33.5,M,,*64
$PYRTM,2024,122.836999615394,13.946647025544
$GPGGA,200515.00,3400.3132,N,11922.5086,W,1,10,0.8,18.2,M,-33.5,M,,*61
$PYRTM,2024,122.837011184595,13.946658594734
$GPGGA,200516.00,3400.3143,N,11922.5061,W,1,10,0.8,17.3,M,-33.5,M,,*63
$PYRTM,2024,122.837022764803,13.946670174954
$GPGGA,200517.00,3400.3154,N,11922.5037,W,1,10,0.8,16.5,M,-33.5,M,,*60
$PYRTM,2024,122.837034337141,13.946681747280
$GPGGA,200518.00,3400.3164,N,11922.5012,W,1,09,0.8,14.2,M,-33.5,M,,*66
$PYRTM,2024,122.837045914144,13.946693324282
$GPGGA,200519.00,3400.3175,N,11922.4988,W,1,10,0.8,16.2,M,-33.5,M,,*66
$PYRTM,2024,122.837058977975,13.946706388113
$GPGGA,200520.00,3400.3186,N,11922.4963,W,1,10,0.8,14.4,M,-33.5,M,,*61
$PYRTM,2024,122.837071246053,13.946718656192
$GPGGA,200521.00,3400.3197,N,11922.4939,W,1,10,0.8,14.8,M,-33.5,M,,*63
$PYRTM,2024,122.837080633310,13.946728043449
$GPGGA,200522.00,3400.3209,N,11922.4916,W,1,10,0.8,16.6,M,-33.5,M,,*65
$PYRTM,2024,122.837092211169,13.946739621308
$GPGGA,200523.00,3400.3221,N,11922.4893,W,1,10,0.8,17.6,M,-33.5,M,,*63
$PYRTM,2024,122.837103782350,13.946751192488
$GPGGA,200524.00,3400.3232,N,11922.4870,W,1,10,0.8,17.8,M,-33.5,M,,*65
$PYRTM,2024,122.837115351157,13.946762761296
$GPGGA,200525.00,3400.3242,N,11922.4846,W,1,10,0.8,18.9,M,-33.5,M,,*68
$PYRTM,2024,122.837126930220,13.946774340359
$GPGGA,200526.00,3400.3252,N,11922.4821,W,1,10,0.8,19.2,M,-33.5,M,,*61
$PYRTM,2024,122.837138508299,13.946785918438
$GPGGA,200527.00,3400.3263,N,11922.4797,W,1,10,0.8,17.7,M,-33.5,M,,*6B
$PYRTM,2024,122.837150079306,13.946797489444
$GPGGA,200528.00,3400.3273,N,11922.4773,W,1,10,0.8,16.2,M,-33.5,M,,*6B
$PYRTM,2024,122.837161652870,13.946809063009
$GPGGA,200529.00,3400.3282,N,11922.4747,W,1,10,0.8,18.3,M,-33.5,M,,*6C
$PYRTM,2024,122.837173228634,13.946820638785
$GPGGA,200530.00,3400.3291,N,11922.4722,W,1,10,0.8,18.8,M,-33.5,M,,*6E
$PYRTM,2024,122.837184801088,13.946832211227
$GPGGA,200531.00,3400.3300,N,11922.4699,W,1,10,0.8,20.0,M,-33.5,M,,*64
$PYRTM,2024,122.837196363611,13.946843773750
$GPGGA,200532.00,3400.3311,N,11922.4676,W,1,10,0.8,18.5,M,-33.5,M,,*68
$PYRTM,2024,122.837207949942,13.946855360081
$GPGGA,200533.00,3400.3321,N,11922.4651,W,1,10,0.8,18.3,M,-33.5,M,,*69
$PYRTM,2024,122.837219523785,13.946866933924
$GPGGA,200534.00,3400.3333,N,11922.4626,W,1,10,0.8,19.6,M,-33.5,M,,*69
$PYRTM,2024,122.837231092928,13.946878503067
$GPGGA,200535.00,3400.3344,N,11922.4600,W,1,09,1.0,18.1,M,-33.5,M,,*6B
$PYRTM,2024,122.837242671227,13.946890081366
$GPGGA,200536.00,3400.3355,N,11922.4574,W,1,10,0.8,17.0,M,-33.5,M,,*67
$PYRTM,2024,122.837254250197,13.946901660336
$GPGGA,200537.00,3400.3367,N,11922.4548,W,1,10,0.8,16.0,M,-33.5,M,,*69
$PYRTM,2024,122.837265820752,13.946913230891
$GPGGA,200538.00,3400.3379,N,11922.4523,W,1,10,0.8,17.2,M,-33.5,M,,*67
$PYRTM,2024,122.837277397153,13.946924807292
$GPGGA,200539.00,3400.3391,N,11922.4499,W,1,10,0.8,16.7,M,-33.5,M,,*64
$PYRTM,2024,122.837288963044,13.946936373183
$GPGGA,200540.00,3400.3402,N,11922.4475,W,1,10,0.8,15.6,M,-33.5,M,,*67
$PYRTM,2024,122.837300544398,13.946947954537
$GPGGA,200541.00,3400.3414,N,11922.4452,W,1,10,0.8,16.0,M,-33.5,M,,*61
$PYRTM,2024,122.837312111597,13.946959521736
$GPGGA,200542.00,3400.3425,N,11922.4427,W,1,10,0.8,16.4,M,-33.5,M,,*66
$PYRTM,2024,122.837323691516,13.946971101655
$GPGGA,200543.00,3400.3436,N,11922.4403,W,1,10,0.8,16.0,M,-33.5,M,,*67
$PYRTM,2024,122.837335731944,13.946983142083
$GPGGA,200544.00,3400.3447,N,11922.4379,W,1,10,0.8,15.6,M,-33.5,M,,*69
$PYRTM,2024,122.837346838958,13.946994249109
$GPGGA,200545.00,3400.3458,N,11922.4356,W,1,10,0.8,16.2,M,-33.5,M,,*6C
$PYRTM,2024,122.837358413738,13.947005823877
$GPGGA,200546.00,3400.3469,N,11922.4332,W,1,10,0.8,15.1,M,-33.5,M,,*6F
$PYRTM,2024,122.837369984178,13.947017394329
$GPGGA,200547.00,3400.3480,N,11922.4309,W,1,10,0.8,14.5,M,-33.5,M,,*64
$PYRTM,2024,122.837381562928,13.947028973067
$GPGGA,200548.00,3400.3491,N,11922.4285,W,1,10,0.8,14.6,M,-33.5,M,,*6D
$PYRTM,2024,122.837393139630,13.947040549769
$GPGGA,200549.00,3400.3502,N,11922.4261,W,1,10,0.8,15.8,M,-33.5,M,,*62
$PYRTM,2024,122.837405855185,13.947053265324
$GPGGA,200550.00,3400.3514,N,11922.4236,W,1,10,0.8,16.9,M,-33.5,M,,*6D
$PYRTM,2024,122.837418470914,13.947065881053
$GPGGA,200551.00,3400.3526,N,11922.4210,W,1,10,0.8,18.8,M,-33.5,M,,*66
$PYRTM,2024,122.837426932292,13.947074342431
$GPGGA,200552.00,3400.3538,N,11922.4184,W,1,09,0.8,18.8,M,-33.5,M,,*6C
$PYRTM,2024,122.837439891470,13.947087301609
$GPGGA,200553.00,3400.3550,N,11922.4158,W,1,10,0.8,15.6,M,-33.5,M,,*69
$PYRTM,2024,122.837450545000,13.947097955139
$GPGGA,200554.00,3400.3561,N,11922.4132,W,1,10,0.8,13.5,M,-33.5,M,,*65
$PYRTM,2024,122.837461658137,13.947109068275
$GPGGA,200555.00,3400.3572,N,11922.4106,W,1,10,0.8,15.0,M,-33.5,M,,*62
$PYRTM,2024,122.837472762106,13.947120172245
$GPGGA,200556.00,3400.3583,N,11922.4079,W,1,10,0.8,16.0,M,-33.5,M,,*65
$PYRTM,2024,122.837483748171,13.947131158310
$GPGGA,200557.00,3400.3594,N,11922.4052,W,1,10,0.8,15.9,M,-33.5,M,,*61
$PYRTM,2024,122.837494857083,13.947142267222
$GPGGA,200558.00,3400.3605,N,11922.4025,W,1,10,0.8,15.5,M,-33.5,M,,*69
$PYRTM,2024,122.837505968773,13.947153378912
$GPGGA,200559.00,3400.3615,N,11922.3999,W,1,10,0.8,14.5,M,-33.5,M,,*61
$PYRTM,2024,122.837516967431,13.947164377569
$GPGGA,200600.00,3400.3625,N,11922.3972,W,1,10,0.8,14.5,M,-33.5,M,,*68
$PYRTM,2024,122.837528079896,13.947175490046
$GPGGA,200601.00,3400.3635,N,11922.3945,W,1,10,0.8,15.6,M,-33.5,M,,*6E
$PYRTM,2024,122.837539073704,13.947186483843
$GPGGA,200602.00,3400.3645,N,11922.3918,W,1,10,0.8,13.7,M,-33.5,M,,*65
$PYRTM,2024,122.837551701273,13.947199111412
$GPGGA,200603.00,3400.3654,N,11922.3891,W,1,10,0.8,11.7,M,-33.5,M,,*66
$PYRTM,2024,122.837562813530,13.947210223669
$GPGGA,200604.00,3400.3664,N,11922.3863,W,1,10,0.8,13.8,M,-33.5,M,,*62
$PYRTM,2024,122.837573808785,13.947221218924
$GPGGA,200605.00,3400.3673,N,11922.3835,W,1,10,0.8,10.7,M,-33.5,M,,*6A
$PYRTM,2024,122.837584920914,13.947232331053
$GPGGA,200606.00,3400.3682,N,11922.3807,W,1,10,0.8,9.6,M,-33.5,M,,*5F
$PYRTM,2024,122.837596261829,13.947243671968
$GPGGA,200607.00,3400.3690,N,11922.3779,W,1,10,0.8,6.6,M,-33.5,M,,*54
$PYRTM,2024,122.837607822708,13.947255232847
$GPGGA,200608.00,3400.3700,N,11922.3751,W,1,10,0.8,5.1,M,-33.5,M,,*5D
$PYRTM,2024,122.837619406250,13.947266816389
$GPGGA,200609.00,3400.3708,N,11922.3723,W,1,10,0.8,5.1,M,-33.5,M,,*51
$PYRTM,2024,122.837630970868,13.947278381007
$GPGGA,200610.00,3400.3717,N,11922.3695,W,1,09,0.8,5.2,M,-33.5,M,,*50
$PYRTM,2024,122.837642559444,13.947289969583
$GPGGA,200611.00,3400.3726,N,11922.3667,W,1,09,0.8,4.8,M,-33.5,M,,*55
$PYRTM,2024,122.837654118380,13.947301528519
$GPGGA,200612.00,3400.3734,N,11922.3639,W,1,10,0.8,4.0,M,-33.5,M,,*5E
$PYRTM,2024,122.837665708796,13.947313118935
$GPGGA,200613.00,3400.3742,N,11922.3611,W,1,09,0.8,3.6,M,-33.5,M,,*5D
$PYRTM,2024,122.837677266910,13.947324677049
$GPGGA,200614.00,3400.3749,N,11922.3583,W,1,09,0.8,1.7,M,-33.5,M,,*5A
$PYRTM,2024,122.837688856366,13.947336266505
$GPGGA,200615.00,3400.3755,N,11922.3555,W,1,09,1.0,0.7,M,-33.5,M,,*55
$PYRTM,2024,122.837700415243,13.947347825382
$GPGGA,200616.00,3400.3761,N,11922.3528,W,1,09,1.0,-0.1,M,-33.5,M,,*70
$PYRTM,2024,122.837712004155,13.947359414294
$GPGGA,200617.00,3400.3766,N,11922.3502,W,1,10,0.8,-1.2,M,-33.5,M,,*7D
$PYRTM,2024,122.837723563866,13.947370974005
$GPGGA,200618.00,3400.3773,N,11922.3476,W,1,10,0.8,1.1,M,-33.5,M,,*5A
$PYRTM,2024,122.837735153333,13.947382563484
$GPGGA,200619.00,3400.3780,N,11922.3448,W,1,10,0.8,-0.1,M,-33.5,M,,*76
$PYRTM,2024,122.837750887488,13.947398297627
$GPGGA,200620.00,3400.3786,N,11922.3421,W,1,10,0.8,-1.4,M,-33.5,M,,*71
$PYRTM,2024,122.837762452662,13.947409862801
$GPGGA,200621.00,3400.3793,N,11922.3395,W,1,10,0.8,-2.9,M,-33.5,M,,*72
$PYRTM,2024,122.837774041887,13.947421452025
$GPGGA,200622.00,3400.3800,N,11922.3368,W,1,09,1.0,-1.6,M,-33.5,M,,*7B
$PYRTM,2024,122.837785600023,13.947433010162
$GPGGA,200623.00,3400.3806,N,11922.3341,W,1,10,0.8,-0.4,M,-33.5,M,,*75
$PYRTM,2024,122.837797189317,13.947444599456
$GPGGA,200624.00,3400.3812,N,11922.3314,W,1,10,0.8,0.9,M,-33.5,M,,*57
$PYRTM,2024,122.837808748785,13.947456158924
$GPGGA,200625.00,3400.3818,N,11922.3287,W,1,10,0.8,0.2,M,-33.5,M,,*5C
$PYRTM,2024,122.837820336250,13.947467746389
$GPGGA,200626.00,3400.3824,N,11922.3259,W,1,10,0.8,-0.3,M,-33.5,M,,*7F
$PYRTM,2024,122.837831897465,13.947479307604
$GPGGA,200627.00,3400.3830,N,11922.3230,W,1,10,0.8,-0.3,M,-33.5,M,,*74
$PYRTM,2024,122.837843486667,13.947490896806
$GPGGA,200628.00,3400.3837,N,11922.3201,W,1,10,0.8,-0.8,M,-33.5,M,,*75
$PYRTM,2024,122.837855045741,13.947502455880
$GPGGA,200629.00,3400.3844,N,11922.3172,W,1,10,0.8,-1.0,M,-33.5,M,,*7E
$PYRTM,2024,122.837866633692,13.947514043843
$GPGGA,200630.00,3400.3851,N,11922.3143,W,1,10,0.8,0.8,M,-33.5,M,,*54
$PYRTM,2024,122.837878194745,13.947525604884
$GPGGA,200631.00,3400.3857,N,11922.3115,W,1,10,0.8,1.3,M,-33.5,M,,*5A
$PYRTM,2024,122.837889782905,13.947537193044
$GPGGA,200632.00,3400.3864,N,11922.3088,W,1,10,0.8,1.2,M,-33.5,M,,*5D
$PYRTM,2024,122.837901343009,13.947548753148
$GPGGA,200633.00,3400.3872,N,11922.3061,W,1,10,0.8,1.6,M,-33.5,M,,*58
$PYRTM,2024,122.837912929687,13.947560339826
$GPGGA,200634.00,3400.3879,N,11922.3034,W,1,10,0.8,0.9,M,-33.5,M,,*5A
$PYRTM,2024,122.837924491204,13.947571901343
$GPGGA,200635.00,3400.3885,N,11922.3006,W,1,10,0.8,2.2,M,-33.5,M,,*50
$PYRTM,2024,122.837936078565,13.947583488704
$GPGGA,200636.00,3400.3891,N,11922.2978,W,1,10,0.8,-0.9,M,-33.5,M,,*73
$PYRTM,2024,122.837947638831,13.947595048970
$GPGGA,200637.00,3400.3898,N,11922.2950,W,1,10,0.8,-1.3,M,-33.5,M,,*7A
$PYRTM,2024,122.837959226354,13.947606636493
$GPGGA,200638.00,3400.3904,N,11922.2922,W,1,10,0.8,-1.5,M,-33.5,M,,*72
$PYRTM,2024,122.837970786829,13.947618196968
$GPGGA,200639.00,3400.3911,N,11922.2893,W,1,10,0.8,-1.3,M,-33.5,M,,*7A
$PYRTM,2024,122.837982370012,13.947629780150
$GPGGA,200640.00,3400.3917,N,11922.2864,W,1,10,0.8,-2.2,M,-33.5,M,,*78
$PYRTM,2024,122.837993936319,13.947641346458
$GPGGA,200641.00,3400.3924,N,11922.2835,W,1,10,0.8,-4.2,M,-33.5,M,,*7B
$PYRTM,2024,122.838005518484,13.947652928634
$GPGGA,200642.00,3400.3931,N,11922.2806,W,1,10,0.8,-2.4,M,-33.5,M,,*7C
$PYRTM,2024,122.838017085150,13.947664495289
$GPGGA,200643.00,3400.3938,N,11922.2778,W,1,10,0.8,-3.3,M,-33.5,M,,*74
$PYRTM,2024,122.838028671782,13.947676081921
$GPGGA,200644.00,3400.3945,N,11922.2751,W,1,10,0.8,-2.4,M,-33.5,M,,*74
$PYRTM,2024,122.838040232870,13.947687643021
$GPGGA,200645.00,3400.3952,N,11922.2724,W,1,10,0.8,-2.7,M,-33.5,M,,*72
$PYRTM,2024,122.838051819525,13.947699229664
$GPGGA,200646.00,3400.3959,N,11922.2697,W,1,10,0.8,-2.7,M,-33.5,M,,*73
$PYRTM,2024,122.838063382743,13.947710792894
$GPGGA,200647.00,3400.3966,N,11922.2671,W,1,10,0.8,-2.8,M,-33.5,M,,*79
$PYRTM,2024,122.838074982813,13.947722392951
$GPGGA,200648.00,3400.3973,N,11922.2644,W,1,10,0.8,-1.2,M,-33.5,M,,*7D
$PYRTM,2024,122.838086529005,13.947733939144
$GPGGA,200649.00,3400.3980,N,11922.2616,W,1,10,0.8,-0.4,M,-33.5,M,,*70
$PYRTM,2024,122.838097758924,13.947745169063
$GPGGA,200650.00,3400.3987,N,11922.2588,W,1,10,0.8,-0.4,M,-33.5,M,,*7B
$PYRTM,2024,122.838110716655,13.947758126794
$GPGGA,200651.00,3400.3994,N,11922.2560,W,1,10,0.8,-0.8,M,-33.5,M,,*72
$PYRTM,2024,122.838122305995,13.947769716134
$GPGGA,200652.00,3400.4001,N,11922.2530,W,1,10,0.8,-1.6,M,-33.5,M,,*79
$PYRTM,2024,122.838133865266,13.947781275405
$GPGGA,200653.00,3400.4008,N,11922.2501,W,1,10,0.8,1.7,M,-33.5,M,,*5F
$PYRTM,2024,122.838145454190,13.947792864329
$GPGGA,200654.00,3400.4015,N,11922.2471,W,1,10,0.8,4.5,M,-33.5,M,,*55
$PYRTM,2024,122.838157013785,13.947804423924
$GPGGA,200655.00,3400.4021,N,11922.2441,W,1,10,0.8,3.9,M,-33.5,M,,*5B
$PYRTM,2024,122.838168603958,13.947816014097
$GPGGA,200656.00,3400.4028,N,11922.2411,W,1,10,0.8,1.3,M,-33.5,M,,*5C
$PYRTM,2024,122.838180162778,13.947827572928
$GPGGA,200657.00,3400.4034,N,11922.2381,W,1,10,0.8,-0.4,M,-33.5,M,,*75
$PYRTM,2024,122.838191752211,13.947839162350
$GPGGA,200658.00,3400.4042,N,11922.2353,W,1,09,1.0,3.2,M,-33.5,M,,*5D
$PYRTM,2024,122.838203310660,13.947850720799
$GPGGA,200659.00,3400.4049,N,11922.2325,W,1,10,0.8,2.9,M,-33.5,M,,*5D
$PYRTM,2024,122.838215233461,13.947862643611
$GPGGA,200700.00,3400.4054,N,11922.2298,W,1,10,0.8,0.3,M,-33.5,M,,*53
$PYRTM,2024,122.838226460347,13.947873870486
$GPGGA,200701.00,3400.4059,N,11922.2269,W,1,10,0.8,0.0,M,-33.5,M,,*52
$PYRTM,2024,122.838238047616,13.947885457755
$GPGGA,200702.00,3400.4066,N,11922.2241,W,1,10,0.8,1.0,M,-33.5,M,,*56
$PYRTM,2024,122.838249608287,13.947897018426
$GPGGA,200703.00,3400.4072,N,11922.2214,W,1,10,0.8,1.6,M,-33.5,M,,*54
$PYRTM,2024,122.838261197373,13.947908607512
$GPGGA,200704.00,3400.4077,N,11922.2185,W,1,10,0.8,3.7,M,-33.5,M,,*5E
$PYRTM,2024,122.838272756389,13.947920166528
$GPGGA,200705.00,3400.4082,N,11922.2157,W,1,10,0.8,2.9,M,-33.5,M,,*55
$PYRTM,2024,122.838284344352,13.947931754491
$GPGGA,200706.00,3400.4087,N,11922.2128,W,1,10,0.8,1.0,M,-33.5,M,,*51
$PYRTM,2024,122.838295904444,13.947943314595
$GPGGA,200707.00,3400.4093,N,11922.2100,W,1,10,0.8,-0.3,M,-33.5,M,,*70
$PYRTM,2024,122.838307493530,13.947954903669
$GPGGA,200708.00,3400.4099,N,11922.2072,W,1,10,0.8,1.9,M,-33.5,M,,*57
$PYRTM,2024,122.838319052894,13.947966463032
$GPGGA,200709.00,3400.4107,N,11922.2045,W,1,10,0.8,2.2,M,-33.5,M,,*5C
$PYRTM,2024,122.838330641505,13.947978051644
$GPGGA,200710.00,3400.4113,N,11922.2018,W,1,10,0.8,4.3,M,-33.5,M,,*5E
$PYRTM,2024,122.838342200984,13.947989611123
$GPGGA,200711.00,3400.4119,N,11922.1991,W,1,10,0.8,2.7,M,-33.5,M,,*5C
$PYRTM,2024,122.838353777882,13.948001188021
$GPGGA,200712.00,3400.4124,N,11922.1963,W,1,10,0.8,0.8,M,-33.5,M,,*51
$PYRTM,2024,122.838365348044,13.948012758183
$GPGGA,200713.00,3400.4129,N,11922.1935,W,1,10,0.8,0.6,M,-33.5,M,,*50
$PYRTM,2024,122.838377272604,13.948024682755
$GPGGA,200714.00,3400.4135,N,11922.1908,W,1,10,0.8,2.2,M,-33.5,M,,*52
$PYRTM,2024,122.838388496644,13.948035906794
$GPGGA,200715.00,3400.4140,N,11922.1880,W,1,10,0.8,5.9,M,-33.5,M,,*5C
$PYRTM,2024,122.838400085822,13.948047495961
$GPGGA,200716.00,3400.4145,N,11922.1851,W,1,10,0.8,5.1,M,-33.5,M,,*5E
$PYRTM,2024,122.838411646678,13.948059056817
$GPGGA,200717.00,3400.4150,N,11922.1823,W,1,10,0.8,3.2,M,-33.5,M,,*5B
$PYRTM,2024,122.838423235405,13.948070645544
$GPGGA,200718.00,3400.4156,N,11922.1795,W,1,10,0.8,2.3,M,-33.5,M,,*50
$PYRTM,2024,122.838434794468,13.948082204606
$GPGGA,200719.00,3400.4163,N,11922.1768,W,1,10,0.8,4.1,M,-33.5,M,,*51
$PYRTM,2024,122.838447413426,13.948094823565
$GPGGA,200720.00,3400.4168,N,11922.1741,W,1,10,0.8,2.4,M,-33.5,M,,*58
$PYRTM,2024,122.838460142812,13.948107552951
$GPGGA,200721.00,3400.4174,N,11922.1713,W,1,10,0.8,2.5,M,-33.5,M,,*52
$PYRTM,2024,122.838469527535,13.948116937674
$GPGGA,200722.00,3400.4179,N,11922.1686,W,1,10,0.8,1.2,M,-33.5,M,,*55
$PYRTM,2024,122.838481093368,13.948128503507
$GPGGA,200723.00,3400.4185,N,11922.1657,W,1,10,0.8,0.8,M,-33.5,M,,*50
$PYRTM,2024,122.838492679271,13.948140089410
$GPGGA,200724.00,3400.4189,N,11922.1629,W,1,09,1.0,3.2,M,-33.5,M,,*5A
$PYRTM,2024,122.838504238924,13.948151649063
$GPGGA,200725.00,3400.4194,N,11922.1599,W,1,10,0.8,4.1,M,-33.5,M,,*5A
$PYRTM,2024,122.838515814745,13.948163224896
$GPGGA,200726.00,3400.4199,N,11922.1571,W,1,10,0.8,4.4,M,-33.5,M,,*57
$PYRTM,2024,122.838527386748,13.948174796887
$GPGGA,200727.00,3400.4204,N,11922.1543,W,1,10,0.8,5.3,M,-33.5,M,,*56
$PYRTM,2024,122.838538963831,13.948186373970
$GPGGA,200728.00,3400.4209,N,11922.1513,W,1,10,0.8,6.5,M,-33.5,M,,*54
$PYRTM,2024,122.838550536435,13.948197946574
$GPGGA,200729.00,3400.4215,N,11922.1484,W,1,10,0.8,4.7,M,-33.5,M,,*57
$PYRTM,2024,122.838562123495,13.948209533634
$GPGGA,200730.00,3400.4221,N,11922.1455,W,1,10,0.8,3.4,M,-33.5,M,,*50
$PYRTM,2024,122.838573684873,13.948221095012
$GPGGA,200731.00,3400.4226,N,11922.1427,W,1,10,0.8,2.7,M,-33.5,M,,*51
$PYRTM,2024,122.838585271863,13.948232682002
$GPGGA,200732.00,3400.4232,N,11922.1399,W,1,10,0.8,4.2,M,-33.5,M,,*56
$PYRTM,2024,122.838596832037,13.948244242176
$GPGGA,200733.00,3400.4239,N,11922.1372,W,1,10,0.8,3.0,M,-33.5,M,,*5C
$PYRTM,2024,122.838608421076,13.948255831227
$GPGGA,200734.00,3400.4246,N,11922.1344,W,1,10,0.8,2.0,M,-33.5,M,,*57
$PYRTM,2024,122.838619980521,13.948267390660
$GPGGA,200735.00,3400.4251,N,11922.1316,W,1,10,0.8,2.5,M,-33.5,M,,*52
$PYRTM,2024,122.838631563252,13.948278973391
$GPGGA,200736.00,3400.4256,N,11922.1289,W,1,10,0.8,2.5,M,-33.5,M,,*51
$PYRTM,2024,122.838643127951,13.948290538090
$GPGGA,200737.00,3400.4261,N,11922.1261,W,1,10,0.8,4.2,M,-33.5,M,,*53
$PYRTM,2024,122.838654718299,13.948302128437
$GPGGA,200738.00,3400.4266,N,11922.1232,W,1,10,0.8,3.0,M,-33.5,M,,*58
$PYRTM,2024,122.838666276678,13.948313686817
$GPGGA,200739.00,3400.4272,N,11922.1204,W,1,10,0.8,4.7,M,-33.5,M,,*59
$PYRTM,2024,122.838677865961,13.948325276100
$GPGGA,200740.00,3400.4278,N,11922.1177,W,1,10,0.8,6.3,M,-33.5,M,,*5C
$PYRTM,2024,122.838689425093,13.948336835231
$GPGGA,200741.00,3400.4285,N,11922.1149,W,1,10,0.8,5.5,M,-33.5,M,,*57
$PYRTM,2024,122.838701008345,13.948348418484
$GPGGA,200742.00,3400.4293,N,11922.1123,W,1,10,0.8,3.3,M,-33.5,M,,*5F
$PYRTM,2024,122.838712573970,13.948359984109
$GPGGA,200743.00,3400.4301,N,11922.1095,W,1,10,0.8,1.8,M,-33.5,M,,*51
$PYRTM,2024,122.838724497049,13.948371907188
$GPGGA,200744.00,3400.4308,N,11922.1068,W,1,10,0.8,3.0,M,-33.5,M,,*57
$PYRTM,2024,122.838735722442,13.948383132593
$GPGGA,200745.00,3400.4315,N,11922.1040,W,1,10,0.8,3.6,M,-33.5,M,,*56
$PYRTM,2024,122.838747310567,13.948394720718
$GPGGA,200746.00,3400.4323,N,11922.1012,W,1,10,0.8,2.9,M,-33.5,M,,*59
$PYRTM,2024,122.838758870127,13.948406280278
$GPGGA,200747.00,3400.4330,N,11922.0984,W,1,10,0.8,4.7,M,-33.5,M,,*55
$PYRTM,2024,122.838770446574,13.948417856725
$GPGGA,200748.00,3400.4338,N,11922.0957,W,1,10,0.8,6.0,M,-33.5,M,,*59
$PYRTM,2024,122.838782018391,13.948429428530
$GPGGA,200749.00,3400.4345,N,11922.0929,W,1,10,0.8,5.5,M,-33.5,M,,*5D
$PYRTM,2024,122.838795099294,13.948442509433
$GPGGA,200750.00,3400.4352,N,11922.0902,W,1,10,0.8,5.1,M,-33.5,M,,*5E
$PYRTM,2024,122.838807381019,13.948454791157
$GPGGA,200751.00,3400.4358,N,11922.0875,W,1,09,1.0,4.4,M,-33.5,M,,*51
$PYRTM,2024,122.838816755312,13.948464165451
$GPGGA,200752.00,3400.4364,N,11922.0848,W,1,09,1.0,6.0,M,-33.5,M,,*55
$PYRTM,2024,122.838828315451,13.948475725590
$GPGGA,200753.00,3400.4369,N,11922.0820,W,1,10,0.8,9.0,M,-33.5,M,,*59
$PYRTM,2024,122.838839890995,13.948487301134
$GPGGA,200754.00,3400.4374,N,11922.0793,W,1,10,0.8,10.4,M,-33.5,M,,*69
$PYRTM,2024,122.838851462975,13.948498873113
$GPGGA,200755.00,3400.4379,N,11922.0763,W,1,10,0.8,6.7,M,-33.5,M,,*5E
$PYRTM,2024,122.838863052616,13.948510462755
$GPGGA,200756.00,3400.4384,N,11922.0735,W,1,10,0.8,7.5,M,-33.5,M,,*5F
$PYRTM,2024,122.838873684051,13.948521094190
$GPGGA,200757.00,3400.4390,N,11922.0705,W,1,10,0.8,5.5,M,-33.5,M,,*5A
$PYRTM,2024,122.838886649456,13.948534059595
$GPGGA,200758.00,3400.4396,N,11922.0678,W,1,10,0.8,6.3,M,-33.5,M,,*5D
$PYRTM,2024,122.838897311076,13.948544721215
$GPGGA,200759.00,3400.4401,N,11922.0649,W,1,10,0.8,6.0,M,-33.5,M,,*54
$PYRTM,2024,122.838908308322,13.948555718461
$GPGGA,200800.00,3400.4406,N,11922.0621,W,1,10,0.8,7.7,M,-33.5,M,,*58
$PYRTM,2024,122.838919420833,13.948566830972
$GPGGA,200801.00,3400.4411,N,11922.0593,W,1,10,0.8,4.5,M,-33.5,M,,*54
$PYRTM,2024,122.838930413646,13.948577823785
$GPGGA,200802.00,3400.4417,N,11922.0565,W,1,10,0.8,1.6,M,-33.5,M,,*5E
$PYRTM,2024,122.838941411412,13.948588821563
$GPGGA,200803.00,3400.4422,N,11922.0537,W,1,09,1.0,2.8,M,-33.5,M,,*52
$PYRTM,2024,122.838952520903,13.948599931042
$GPGGA,200804.00,3400.4427,N,11922.0508,W,1,10,0.8,4.8,M,-33.5,M,,*5B
$PYRTM,2024,122.838963501181,13.948610911319
$GPGGA,200805.00,3400.4432,N,11922.0479,W,1,09,1.0,6.1,M,-33.5,M,,*53
$PYRTM,2024,122.838974612604,13.948622022743
$GPGGA,200806.00,3400.4437,N,11922.0452,W,1,10,0.8,8.0,M,-33.5,M,,*52
$PYRTM,2024,122.838985609097,13.948633019236
$GPGGA,200807.00,3400.4441,N,11922.0424,W,1,10,0.8,9.0,M,-33.5,M,,*52
$PYRTM,2024,122.838996719954,13.948644130093
$GPGGA,200808.00,3400.4445,N,11922.0397,W,1,10,0.8,7.0,M,-33.5,M,,*58
$PYRTM,2024,122.839008192604,13.948655602755
$GPGGA,200809.00,3400.4450,N,11922.0370,W,1,10,0.8,8.1,M,-33.5,M,,*5A
$PYRTM,2024,122.839019868900,13.948667279039
$GPGGA,200810.00,3400.4456,N,11922.0343,W,1,10,0.8,10.9,M,-33.5,M,,*65
$PYRTM,2024,122.839031340301,13.948678750451
$GPGGA,200811.00,3400.4461,N,11922.0316,W,1,10,0.8,9.4,M,-33.5,M,,*55
$PYRTM,2024,122.839042903796,13.948690313935
$GPGGA,200812.00,3400.4467,N,11922.0289,W,1,10,0.8,8.4,M,-33.5,M,,*56
$PYRTM,2024,122.839054489549,13.948701899687
$GPGGA,200813.00,3400.4472,N,11922.0261,W,1,10,0.8,7.7,M,-33.5,M,,*59
$PYRTM,2024,122.839066048900,13.948713459039
$GPGGA,200814.00,3400.4477,N,11922.0232,W,1,10,0.8,7.8,M,-33.5,M,,*52
$PYRTM,2024,122.839077643056,13.948725053194
$GPGGA,200815.00,3400.4482,N,11922.0203,W,1,10,0.8,5.3,M,-33.5,M,,*52
$PYRTM,2024,122.839089197697,13.948736607836
$GPGGA,200816.00,3400.4489,N,11922.0174,W,1,10,0.8,8.2,M,-33.5,M,,*55
$PYRTM,2024,122.839100913692,13.948748323831
$GPGGA,200817.00,3400.4496,N,11922.0145,W,1,10,0.8,10.5,M,-33.5,M,,*66
$PYRTM,2024,122.839112461354,13.948759871493
$GPGGA,200818.00,3400.4502,N,11922.0115,W,1,10,0.8,11.4,M,-33.5,M,,*60
$PYRTM,2024,122.839124052546,13.948771462685
$GPGGA,200819.00,3400.4508,N,11922.0086,W,1,10,0.8,10.3,M,-33.5,M,,*66
$PYRTM,2024,122.839139785208,13.948787195347
$GPGGA,200820.00,3400.4516,N,11922.0056,W,1,10,0.8,11.5,M,-33.5,M,,*69
$PYRTM,2024,122.839151349363,13.948798759502
$GPGGA,200821.00,3400.4524,N,11922.0027,W,1,10,0.8,12.1,M,-33.5,M,,*68
$PYRTM,2024,122.839162939653,13.948810349803
$GPGGA,200822.00,3400.4532,N,11921.9998,W,1,10,0.8,11.2,M,-33.5,M,,*6B
$PYRTM,2024,122.839174501910,13.948821912060
$GPGGA,200823.00,3400.4539,N,11921.9968,W,1,10,0.8,10.4,M,-33.5,M,,*69
$PYRTM,2024,122.839185970220,13.948833380359
$GPGGA,200824.00,3400.4545,N,11921.9939,W,1,10,0.8,9.7,M,-33.5,M,,*5A
$PYRTM,2024,122.839197530984,13.948844941123
$GPGGA,200825.00,3400.4551,N,11921.9910,W,1,10,0.8,8.6,M,-33.5,M,,*55
$PYRTM,2024,122.839209121192,13.948856531331
$GPGGA,200826.00,3400.4557,N,11921.9881,W,1,10,0.8,7.6,M,-33.5,M,,*56
$PYRTM,2024,122.839220680336,13.948868090475
$GPGGA,200827.00,3400.4562,N,11921.9852,W,1,10,0.8,7.8,M,-33.5,M,,*51
$PYRTM,2024,122.839232270463,13.948879680602
$GPGGA,200828.00,3400.4567,N,11921.9823,W,1,10,0.8,8.7,M,-33.5,M,,*5D
$PYRTM,2024,122.839243826678,13.948891236817
$GPGGA,200829.00,3400.4572,N,11921.9794,W,1,10,0.8,8.0,M,-33.5,M,,*5C
$PYRTM,2024,122.839255430231,13.948902840370
$GPGGA,200830.00,3400.4576,N,11921.9765,W,1,10,0.8,9.3,M,-33.5,M,,*5C
$PYRTM,2024,122.839266975775,13.948914385914
$GPGGA,200831.00,3400.4582,N,11921.9736,W,1,10,0.8,9.9,M,-33.5,M,,*5A
$PYRTM,2024,122.839278673900,13.948926084039
$GPGGA,200832.00,3400.4589,N,11921.9707,W,1,10,0.8,11.5,M,-33.5,M,,*65
$PYRTM,2024,122.839290240625,13.948937650775
$GPGGA,200833.00,3400.4596,N,11921.9678,W,1,10,0.8,10.9,M,-33.5,M,,*6E
$PYRTM,2024,122.839301826574,13.948949236713
$GPGGA,200834.00,3400.4602,N,11921.9650,W,1,10,0.8,11.2,M,-33.5,M,,*67
$PYRTM,2024,122.839313388657,13.948960798796
$GPGGA,200835.00,3400.4608,N,11921.9621,W,1,10,0.8,10.9,M,-33.5,M,,*60
$PYRTM,2024,122.839324974942,13.948972385081
$GPGGA,200836.00,3400.4614,N,11921.9592,W,1,10,0.8,10.3,M,-33.5,M,,*6F
