$PYRTM,2024,124.250009027778,15.359656437917
$GPGGA,055959.00,3513.7670,N,12136.1291,W,1,09,1.0,12.4,M,-32.3,M,,*65
$PYRTM,2024,124.250020619282,15.359668029433
$GPGGA,060000.00,3513.7678,N,12136.1298,W,1,09,1.0,11.2,M,-32.3,M,,*62
$PYRTM,2024,124.250032176308,15.359679586447
$GPGGA,060001.00,3513.7688,N,12136.1300,W,1,09,1.0,10.4,M,-32.3,M,,*6B
$PYRTM,2024,124.250043649051,15.359691059190
$GPGGA,060002.00,3513.7699,N,12136.1299,W,1,09,1.0,8.7,M,-32.3,M,,*53
$PYRTM,2024,124.250055324329,15.359702734468
$GPGGA,060003.00,3513.7709,N,12136.1301,W,1,09,1.0,10.7,M,-32.3,M,,*63
$PYRTM,2024,124.250066795648,15.359714205787
$GPGGA,060004.00,3513.7717,N,12136.1306,W,1,09,1.0,9.7,M,-32.3,M,,*54
$PYRTM,2024,124.250078369873,15.359725780012
$GPGGA,060005.00,3513.7724,N,12136.1310,W,1,09,1.0,9.2,M,-32.3,M,,*57
$PYRTM,2024,124.250090062535,15.359737472674
$GPGGA,060006.00,3513.7733,N,12136.1314,W,1,09,1.0,10.2,M,-32.3,M,,*6E
$PYRTM,2024,124.250101622315,15.359749032465
$GPGGA,060007.00,3513.7744,N,12136.1319,W,1,09,1.0,10.0,M,-32.3,M,,*60
$PYRTM,2024,124.250113222708,15.359760632847
$GPGGA,060008.00,3513.7751,N,12136.1321,W,1,09,1.0,10.2,M,-32.3,M,,*62
$PYRTM,2024,124.250124769190,15.359772179340
$GPGGA,060009.00,3513.7758,N,12136.1322,W,1,09,1.0,11.2,M,-32.3,M,,*68
$PYRTM,2024,124.250136358738,15.359783768877
$GPGGA,060010.00,3513.7767,N,12136.1325,W,1,09,1.0,12.3,M,-32.3,M,,*69
$PYRTM,2024,124.250147918356,15.359795328495
$GPGGA,060011.00,3513.7777,N,12136.1331,W,1,09,1.0,11.4,M,-32.3,M,,*68
$PYRTM,2024,124.250159504086,15.359806914225
$GPGGA,060012.00,3513.7787,N,12136.1333,W,1,09,1.0,13.2,M,-32.3,M,,*62
$PYRTM,2024,124.250169704572,15.359817114711
$GPGGA,060013.00,3513.7796,N,12136.1331,W,1,09,1.0,15.0,M,-32.3,M,,*65
$PYRTM,2024,124.250181480775,15.359828890914
$GPGGA,060014.00,3513.7807,N,12136.1332,W,1,09,1.0,13.1,M,-32.3,M,,*61
$PYRTM,2024,124.250194213924,15.359841624062
$GPGGA,060015.00,3513.7817,N,12136.1337,W,1,09,1.0,10.1,M,-32.3,M,,*67
$PYRTM,2024,124.250205801296,15.359853211435
$GPGGA,060016.00,3513.7826,N,12136.1345,W,1,09,1.0,10.3,M,-32.3,M,,*61
$PYRTM,2024,124.250217364421,15.359864774560
$GPGGA,060017.00,3513.7833,N,12136.1346,W,1,09,1.0,11.3,M,-32.3,M,,*66
$PYRTM,2024,124.250228953646,15.359876363785
$GPGGA,060018.00,3513.7843,N,12136.1342,W,1,09,1.0,10.2,M,-32.3,M,,*6A
$PYRTM,2024,124.250240407755,15.359887817894
$GPGGA,060019.00,3513.7856,N,12136.1339,W,1,09,1.0,8.6,M,-32.3,M,,*5E
$PYRTM,2024,124.250251996505,15.359899406655
$GPGGA,060020.00,3513.7868,N,12136.1343,W,1,09,1.0,7.7,M,-32.3,M,,*5A
$PYRTM,2024,124.250263556331,15.359910966470
$GPGGA,060021.00,3513.7877,N,12136.1349,W,1,09,1.0,8.3,M,-32.3,M,,*54
$PYRTM,2024,124.250275143588,15.359922553727
$GPGGA,060022.00,3513.7883,N,12136.1352,W,1,09,1.0,8.9,M,-32.3,M,,*5C
$PYRTM,2024,124.250286806933,15.359934217072
$GPGGA,060023.00,3513.7893,N,12136.1350,W,1,09,1.0,11.0,M,-32.3,M,,*6F
$PYRTM,2024,124.250298279491,15.359945689630
$GPGGA,060024.00,3513.7904,N,12136.1349,W,1,09,1.0,7.3,M,-32.3,M,,*5B
$PYRTM,2024,124.250309852350,15.359957262488
$GPGGA,060025.00,3513.7914,N,12136.1352,W,1,09,1.0,6.2,M,-32.3,M,,*51
$PYRTM,2024,124.250321426655,15.359968836794
$GPGGA,060026.00,3513.7922,N,12136.1354,W,1,09,1.0,9.2,M,-32.3,M,,*5E
$PYRTM,2024,124.250333105451,15.359980515590
$GPGGA,060027.00,3513.7931,N,12136.1353,W,1,09,1.0,11.2,M,-32.3,M,,*63
$PYRTM,2024,124.250344691412,15.359992101551
$GPGGA,060028.00,3513.7942,N,12136.1355,W,1,09,1.0,11.5,M,-32.3,M,,*69
$PYRTM,2024,124.250356252755,15.360003662894
$GPGGA,060029.00,3513.7953,N,12136.1358,W,1,09,1.0,10.1,M,-32.3,M,,*60
$PYRTM,2024,124.250367726539,15.360015136678
$GPGGA,060030.00,3513.7962,N,12136.1362,W,1,09,1.0,9.8,M,-32.3,M,,*52
$PYRTM,2024,124.250379400799,15.360026810937
$GPGGA,060031.00,3513.7968,N,12136.1362,W,1,09,1.0,10.0,M,-32.3,M,,*69
$PYRTM,2024,124.250390987720,15.360038397859
$GPGGA,060032.00,3513.7977,N,12136.1360,W,1,09,1.0,10.6,M,-32.3,M,,*60
$PYRTM,2024,124.250402440475,15.360049850613
$GPGGA,060033.00,3513.7990,N,12136.1360,W,1,09,1.0,7.4,M,-32.3,M,,*5C
$PYRTM,2024,124.250414028113,15.360061438252
$GPGGA,060034.00,3513.8004,N,12136.1365,W,1,09,1.0,5.9,M,-32.3,M,,*5A
$PYRTM,2024,124.250425594329,15.360073004468
$GPGGA,060035.00,3513.8013,N,12136.1369,W,1,09,1.0,8.6,M,-32.3,M,,*53
$PYRTM,2024,124.250436245509,15.360083655648
$GPGGA,060036.00,3513.8017,N,12136.1368,W,1,09,1.0,9.1,M,-32.3,M,,*53
$PYRTM,2024,124.250449321586,15.360096731725
$GPGGA,060037.00,3513.8023,N,12136.1364,W,1,09,1.0,9.4,M,-32.3,M,,*5C
$PYRTM,2024,124.250459957118,15.360107367257
$GPGGA,060038.00,3513.8034,N,12136.1361,W,1,09,1.0,7.3,M,-32.3,M,,*59
$PYRTM,2024,124.250471067697,15.360118477836
$GPGGA,060039.00,3513.8047,N,12136.1363,W,1,09,1.0,7.7,M,-32.3,M,,*5A
$PYRTM,2024,124.250482179583,15.360129589722
$GPGGA,060040.00,3513.8055,N,12136.1367,W,1,09,1.0,10.0,M,-32.3,M,,*62
$PYRTM,2024,124.250493290648,15.360140700787
$GPGGA,060041.00,3513.8059,N,12136.1371,W,1,09,1.0,12.1,M,-32.3,M,,*6B
$PYRTM,2024,124.250504402257,15.360151812396
$GPGGA,060042.00,3513.8067,N,12136.1370,W,1,09,1.0,11.8,M,-32.3,M,,*6E
$PYRTM,2024,124.250518992326,15.360166402465
$GPGGA,060043.00,3513.8078,N,12136.1367,W,1,09,1.0,10.3,M,-32.3,M,,*6D
$PYRTM,2024,124.250530097500,15.360177507639
$GPGGA,060044.00,3513.8087,N,12136.1365,W,1,09,1.0,8.7,M,-32.3,M,,*55
$PYRTM,2024,124.250541214259,15.360188624398
$GPGGA,060045.00,3513.8095,N,12136.1369,W,1,09,1.0,8.8,M,-32.3,M,,*54
$PYRTM,2024,124.250552330845,15.360199740984
$GPGGA,060046.00,3513.8103,N,12136.1377,W,1,09,1.0,8.4,M,-32.3,M,,*5A
$PYRTM,2024,124.250563441516,15.360210851655
$GPGGA,060047.00,3513.8109,N,12136.1379,W,1,09,1.0,8.5,M,-32.3,M,,*5E
$PYRTM,2024,124.250575001829,15.360222411968
$GPGGA,060048.00,3513.8116,N,12136.1375,W,1,09,1.0,9.8,M,-32.3,M,,*5F
$PYRTM,2024,124.250586589931,15.360234000081
$GPGGA,060049.00,3513.8126,N,12136.1372,W,1,09,1.0,7.3,M,-32.3,M,,*5F
$PYRTM,2024,124.250598151840,15.360245561979
$GPGGA,060050.00,3513.8134,N,12136.1376,W,1,09,1.0,7.0,M,-32.3,M,,*53
$PYRTM,2024,124.250609738553,15.360257148692
$GPGGA,060051.00,3513.8140,N,12136.1381,W,1,09,1.0,9.0,M,-32.3,M,,*57
$PYRTM,2024,124.250621302685,15.360268712824
$GPGGA,060052.00,3513.8148,N,12136.1380,W,1,09,1.0,11.2,M,-32.3,M,,*66
$PYRTM,2024,124.250632881076,15.360280291215
$GPGGA,060053.00,3513.8158,N,12136.1376,W,1,09,1.0,8.0,M,-32.3,M,,*55
$PYRTM,2024,124.250644445833,15.360291855972
$GPGGA,060054.00,3513.8168,N,12136.1377,W,1,09,1.0,6.8,M,-32.3,M,,*56
$PYRTM,2024,124.250656034572,15.360303444711
$GPGGA,060055.00,3513.8177,N,12136.1381,W,1,09,1.0,8.1,M,-32.3,M,,*57
$PYRTM,2024,124.250667594340,15.360315004479
$GPGGA,060056.00,3513.8184,N,12136.1384,W,1,09,1.0,7.5,M,-32.3,M,,*56
$PYRTM,2024,124.250679178148,15.360326588287
$GPGGA,060057.00,3513.8192,N,12136.1383,W,1,09,1.0,8.7,M,-32.3,M,,*5A
$PYRTM,2024,124.250690742836,15.360338152975
$GPGGA,060058.00,3513.8203,N,12136.1382,W,1,09,1.0,7.9,M,-32.3,M,,*5E
$PYRTM,2024,124.250702331262,15.360349741412
$GPGGA,060059.00,3513.8214,N,12136.1385,W,1,09,1.0,7.3,M,-32.3,M,,*54
$PYRTM,2024,124.250713892847,15.360361302986
$GPGGA,060100.00,3513.8222,N,12136.1389,W,1,09,1.0,6.9,M,-32.3,M,,*5B
$PYRTM,2024,124.250725479491,15.360372889630
$GPGGA,060101.00,3513.8227,N,12136.1395,W,1,09,1.0,8.7,M,-32.3,M,,*52
$PYRTM,2024,124.250737039155,15.360384449294
$GPGGA,060102.00,3513.8234,N,12136.1398,W,1,09,1.0,10.3,M,-32.3,M,,*63
$PYRTM,2024,124.250748627836,15.360396037975
$GPGGA,060103.00,3513.8244,N,12136.1398,W,1,09,1.0,11.8,M,-32.3,M,,*6F
$PYRTM,2024,124.250760188391,15.360407598530
$GPGGA,060104.00,3513.8255,N,12136.1399,W,1,09,1.0,11.1,M,-32.3,M,,*60
$PYRTM,2024,124.250771771065,15.360419181204
$GPGGA,060105.00,3513.8264,N,12136.1404,W,1,09,1.0,9.0,M,-32.3,M,,*58
$PYRTM,2024,124.250783336829,15.360430746968
$GPGGA,060106.00,3513.8270,N,12136.1409,W,1,09,1.0,9.7,M,-32.3,M,,*54
$PYRTM,2024,124.250794924271,15.360442334410
$GPGGA,060107.00,3513.8278,N,12136.1415,W,1,09,1.0,8.5,M,-32.3,M,,*53
$PYRTM,2024,124.250806485706,15.360453895845
$GPGGA,060108.00,3513.8286,N,12136.1420,W,1,09,1.0,9.8,M,-32.3,M,,*57
$PYRTM,2024,124.250818068102,15.360465478241
$GPGGA,060109.00,3513.8295,N,12136.1419,W,1,09,1.0,10.2,M,-32.3,M,,*6C
$PYRTM,2024,124.250829632164,15.360477042303
$GPGGA,060110.00,3513.8305,N,12136.1417,W,1,09,1.0,8.5,M,-32.3,M,,*5C
$PYRTM,2024,124.250841221076,15.360488631215
$GPGGA,060111.00,3513.8316,N,12136.1420,W,1,09,1.0,10.8,M,-32.3,M,,*6F
$PYRTM,2024,124.250852780556,15.360500190694
$GPGGA,060112.00,3513.8326,N,12136.1428,W,1,09,1.0,7.9,M,-32.3,M,,*50
$PYRTM,2024,124.250865411146,15.360512821285
$GPGGA,060113.00,3513.8336,N,12136.1433,W,1,09,1.0,9.3,M,-32.3,M,,*5E
$PYRTM,2024,124.250876987905,15.360524398044
$GPGGA,060114.00,3513.8345,N,12136.1432,W,1,09,1.0,9.5,M,-32.3,M,,*5A
$PYRTM,2024,124.250888560394,15.360535970532
$GPGGA,060115.00,3513.8353,N,12136.1428,W,1,09,1.0,9.0,M,-32.3,M,,*52
$PYRTM,2024,124.250900149074,15.360547559213
$GPGGA,060116.00,3513.8364,N,12136.1431,W,1,09,1.0,7.5,M,-32.3,M,,*56
$PYRTM,2024,124.250911707176,15.360559117315
$GPGGA,060117.00,3513.8373,N,12136.1440,W,1,09,1.0,8.8,M,-32.3,M,,*55
$PYRTM,2024,124.250923296678,15.360570706817
$GPGGA,060118.00,3513.8378,N,12136.1447,W,1,09,1.0,8.8,M,-32.3,M,,*56
$PYRTM,2024,124.250934855880,15.360582266019
$GPGGA,060119.00,3513.8382,N,12136.1447,W,1,09,1.0,9.2,M,-32.3,M,,*59
$PYRTM,2024,124.250946433380,15.360593843519
$GPGGA,060120.00,3513.8392,N,12136.1445,W,1,09,1.0,9.6,M,-32.3,M,,*54
$PYRTM,2024,124.250958000162,15.360605410301
$GPGGA,060121.00,3513.8405,N,12136.1446,W,1,09,1.0,8.9,M,-32.3,M,,*51
$PYRTM,2024,124.250969578160,15.360616988299
$GPGGA,060122.00,3513.8413,N,12136.1452,W,1,09,1.0,9.8,M,-32.3,M,,*50
$PYRTM,2024,124.250981153160,15.360628563299
$GPGGA,060123.00,3513.8416,N,12136.1459,W,1,09,1.0,9.8,M,-32.3,M,,*5F
$PYRTM,2024,124.250992727870,15.360640138009
$GPGGA,060124.00,3513.8423,N,12136.1463,W,1,09,1.0,6.9,M,-32.3,M,,*59
$PYRTM,2024,124.251004302130,15.360651712269
$GPGGA,060125.00,3513.8434,N,12136.1465,W,1,09,1.0,6.2,M,-32.3,M,,*53
$PYRTM,2024,124.251015875532,15.360663285671
$GPGGA,060126.00,3513.8441,N,12136.1465,W,1,09,1.0,6.3,M,-32.3,M,,*53
$PYRTM,2024,124.251027444144,15.360674854282
$GPGGA,060127.00,3513.8445,N,12136.1464,W,1,09,1.0,6.4,M,-32.3,M,,*50
$PYRTM,2024,124.251039022894,15.360686433032
$GPGGA,060128.00,3513.8449,N,12136.1465,W,1,09,1.0,9.3,M,-32.3,M,,*5A
$PYRTM,2024,124.251050596863,15.360698007002
$GPGGA,060129.00,3513.8458,N,12136.1468,W,1,09,1.0,10.2,M,-32.3,M,,*6F
$PYRTM,2024,124.251062171574,15.360709581713
$GPGGA,060130.00,3513.8465,N,12136.1470,W,1,09,1.0,10.8,M,-32.3,M,,*6A
$PYRTM,2024,124.251073744722,15.360721154861
$GPGGA,060131.00,3513.8470,N,12136.1469,W,1,09,1.0,11.1,M,-32.3,M,,*6F
$PYRTM,2024,124.251085334688,15.360732744826
$GPGGA,060132.00,3513.8475,N,12136.1468,W,1,09,1.0,11.1,M,-32.3,M,,*68
$PYRTM,2024,124.251096893611,15.360744303750
$GPGGA,060133.00,3513.8481,N,12136.1469,W,1,09,1.0,11.1,M,-32.3,M,,*63
$PYRTM,2024,124.251108471331,15.360755881470
$GPGGA,060134.00,3513.8489,N,12136.1474,W,1,09,1.0,10.5,M,-32.3,M,,*65
$PYRTM,2024,124.251120037326,15.360767447465
$GPGGA,060135.00,3513.8498,N,12136.1479,W,1,09,1.0,10.1,M,-32.3,M,,*6D
$PYRTM,2024,124.251131619178,15.360779029317
$GPGGA,060136.00,3513.8503,N,12136.1480,W,1,09,1.0,10.0,M,-32.3,M,,*6A
$PYRTM,2024,124.251143191400,15.360790601551
$GPGGA,060137.00,3513.8506,N,12136.1479,W,1,09,1.0,10.1,M,-32.3,M,,*69
$PYRTM,2024,124.251154764676,15.360802174815
$GPGGA,060138.00,3513.8513,N,12136.1480,W,1,09,1.0,11.8,M,-32.3,M,,*6C
$PYRTM,2024,124.251166338461,15.360813748600
$GPGGA,060139.00,3513.8523,N,12136.1483,W,1,09,1.0,11.6,M,-32.3,M,,*63
$PYRTM,2024,124.251177913611,15.360825323762
$GPGGA,060140.00,3513.8531,N,12136.1485,W,1,09,1.0,12.1,M,-32.3,M,,*6C
$PYRTM,2024,124.251189489757,15.360836899896
$GPGGA,060141.00,3513.8535,N,12136.1487,W,1,09,1.0,12.0,M,-32.3,M,,*6A
$PYRTM,2024,124.251201061065,15.360848471215
$GPGGA,060142.00,3513.8539,N,12136.1489,W,1,09,1.0,12.2,M,-32.3,M,,*69
$PYRTM,2024,124.251211812627,15.360859222766
$GPGGA,060143.00,3513.8547,N,12136.1491,W,1,09,1.0,12.0,M,-32.3,M,,*6A
$PYRTM,2024,124.251223152951,15.360870563090
$GPGGA,060144.00,3513.8558,N,12136.1494,W,1,09,1.0,10.9,M,-32.3,M,,*6D
$PYRTM,2024,124.251235783391,15.360883193530
$GPGGA,060145.00,3513.8569,N,12136.1498,W,1,09,1.0,9.9,M,-32.3,M,,*5A
$PYRTM,2024,124.251247360764,15.360894770903
$GPGGA,060146.00,3513.8576,N,12136.1503,W,1,09,1.0,9.9,M,-32.3,M,,*54
$PYRTM,2024,124.251258931944,15.360906342083
$GPGGA,060147.00,3513.8581,N,12136.1506,W,1,09,1.0,10.4,M,-32.3,M,,*6D
$PYRTM,2024,124.251270510046,15.360917920185
$GPGGA,060148.00,3513.8589,N,12136.1505,W,1,09,1.0,10.7,M,-32.3,M,,*6A
$PYRTM,2024,124.251282080660,15.360929490799
$GPGGA,060149.00,3513.8600,N,12136.1506,W,1,09,1.0,10.3,M,-32.3,M,,*6E
$PYRTM,2024,124.251293654074,15.360941064213
$GPGGA,060150.00,3513.8611,N,12136.1512,W,1,09,1.0,9.6,M,-32.3,M,,*5E
$PYRTM,2024,124.251305228380,15.360952638519
$GPGGA,060151.00,3513.8617,N,12136.1518,W,1,09,1.0,9.5,M,-32.3,M,,*50
$PYRTM,2024,124.251316803380,15.360964213519
$GPGGA,060152.00,3513.8624,N,12136.1520,W,1,09,1.0,9.9,M,-32.3,M,,*54
$PYRTM,2024,124.251328376852,15.360975786991
$GPGGA,060153.00,3513.8633,N,12136.1519,W,1,09,1.0,9.8,M,-32.3,M,,*58
$PYRTM,2024,124.251339950984,15.360987361123
$GPGGA,060154.00,3513.8643,N,12136.1521,W,1,09,1.0,9.3,M,-32.3,M,,*58
$PYRTM,2024,124.251351520370,15.360998930509
$GPGGA,060155.00,3513.8651,N,12136.1527,W,1,09,1.0,9.4,M,-32.3,M,,*5B
$PYRTM,2024,124.251363099525,15.361010509676
$GPGGA,060156.00,3513.8656,N,12136.1530,W,1,09,1.0,9.8,M,-32.3,M,,*55
$PYRTM,2024,124.251374674421,15.361022084560
$GPGGA,060157.00,3513.8659,N,12136.1526,W,1,09,1.0,10.0,M,-32.3,M,,*6C
$PYRTM,2024,124.251386250116,15.361033660255
$GPGGA,060158.00,3513.8668,N,12136.1525,W,1,09,1.0,9.4,M,-32.3,M,,*5E
$PYRTM,2024,124.251397822650,15.361045232789
$GPGGA,060159.00,3513.8679,N,12136.1529,W,1,09,1.0,8.9,M,-32.3,M,,*5F
$PYRTM,2024,124.251409395613,15.361056805752
$GPGGA,060200.00,3513.8684,N,12136.1532,W,1,09,1.0,8.8,M,-32.3,M,,*59
$PYRTM,2024,124.251420964745,15.361068374884
$GPGGA,060201.00,3513.8689,N,12136.1532,W,1,09,1.0,9.1,M,-32.3,M,,*5D
$PYRTM,2024,124.251432547836,15.361079957986
$GPGGA,060202.00,3513.8699,N,12136.1529,W,1,09,1.0,9.4,M,-32.3,M,,*50
$PYRTM,2024,124.251444117407,15.361091527546
$GPGGA,060203.00,3513.8710,N,12136.1527,W,1,09,1.0,8.8,M,-32.3,M,,*52
$PYRTM,2024,124.251455694132,15.361103104271
$GPGGA,060204.00,3513.8717,N,12136.1531,W,1,09,1.0,8.4,M,-32.3,M,,*59
$PYRTM,2024,124.251467266030,15.361114676169
$GPGGA,060205.00,3513.8724,N,12136.1537,W,1,09,1.0,8.5,M,-32.3,M,,*5F
$PYRTM,2024,124.251478841019,15.361126251157
$GPGGA,060206.00,3513.8734,N,12136.1534,W,1,09,1.0,9.1,M,-32.3,M,,*5B
$PYRTM,2024,124.251490414803,15.361137824942
$GPGGA,060207.00,3513.8745,N,12136.1530,W,1,09,1.0,9.0,M,-32.3,M,,*59
$PYRTM,2024,124.251501988866,15.361149399005
$GPGGA,060208.00,3513.8754,N,12136.1532,W,1,09,1.0,8.5,M,-32.3,M,,*50
$PYRTM,2024,124.251513563333,15.361160973484
$GPGGA,060209.00,3513.8763,N,12136.1536,W,1,09,1.0,9.1,M,-32.3,M,,*54
$PYRTM,2024,124.251525137998,15.361172548137
$GPGGA,060210.00,3513.8771,N,12136.1539,W,1,09,1.0,9.8,M,-32.3,M,,*59
$PYRTM,2024,124.251536711100,15.361184121238
$GPGGA,060211.00,3513.8780,N,12136.1537,W,1,09,1.0,10.5,M,-32.3,M,,*6D
$PYRTM,2024,124.251548286343,15.361195696493
$GPGGA,060212.00,3513.8792,N,12136.1534,W,1,09,1.0,10.8,M,-32.3,M,,*63
$PYRTM,2024,124.251558587095,15.361205997234
$GPGGA,060213.00,3513.8802,N,12136.1536,W,1,09,1.0,10.4,M,-32.3,M,,*6A
$PYRTM,2024,124.251570377963,15.361217788102
$GPGGA,060214.00,3513.8810,N,12136.1541,W,1,09,1.0,10.2,M,-32.3,M,,*68
$PYRTM,2024,124.251583007755,15.361230417894
$GPGGA,060215.00,3513.8816,N,12136.1543,W,1,09,1.0,10.8,M,-32.3,M,,*67
$PYRTM,2024,124.251594585093,15.361241995243
$GPGGA,060216.00,3513.8824,N,12136.1541,W,1,09,1.0,11.7,M,-32.3,M,,*69
$PYRTM,2024,124.251606155231,15.361253565370
$GPGGA,060217.00,3513.8833,N,12136.1538,W,1,09,1.0,11.8,M,-32.3,M,,*6F
$PYRTM,2024,124.251617731991,15.361265142141
$GPGGA,060218.00,3513.8844,N,12136.1540,W,1,09,1.0,11.0,M,-32.3,M,,*67
$PYRTM,2024,124.251629303669,15.361276713808
$GPGGA,060219.00,3513.8853,N,12136.1549,W,1,09,1.0,10.1,M,-32.3,M,,*69
$PYRTM,2024,124.251640881574,15.361288291713
$GPGGA,060220.00,3513.8863,N,12136.1558,W,1,09,1.0,9.2,M,-32.3,M,,*5B
$PYRTM,2024,124.251652451748,15.361299861887
$GPGGA,060221.00,3513.8871,N,12136.1560,W,1,09,1.0,10.0,M,-32.3,M,,*68
$PYRTM,2024,124.251664027269,15.361311437407
$GPGGA,060222.00,3513.8879,N,12136.1557,W,1,09,1.0,9.9,M,-32.3,M,,*56
$PYRTM,2024,124.251675596088,15.361323006227
$GPGGA,060223.00,3513.8890,N,12136.1554,W,1,09,1.0,10.4,M,-32.3,M,,*66
$PYRTM,2024,124.251687175382,15.361334585521
$GPGGA,060224.00,3513.8902,N,12136.1558,W,1,09,1.0,9.4,M,-32.3,M,,*5F
$PYRTM,2024,124.251698749433,15.361346159572
$GPGGA,060225.00,3513.8912,N,12136.1566,W,1,09,1.0,8.8,M,-32.3,M,,*5F
$PYRTM,2024,124.251710318345,15.361357728484
$GPGGA,060226.00,3513.8919,N,12136.1573,W,1,09,1.0,10.1,M,-32.3,M,,*63
$PYRTM,2024,124.251721898021,15.361369308160
$GPGGA,060227.00,3513.8925,N,12136.1573,W,1,09,1.0,10.7,M,-32.3,M,,*6B
$PYRTM,2024,124.251733485648,15.361380895787
$GPGGA,060228.00,3513.8934,N,12136.1571,W,1,09,1.0,11.5,M,-32.3,M,,*65
$PYRTM,2024,124.251745045382,15.361392455521
$GPGGA,060229.00,3513.8945,N,12136.1569,W,1,09,1.0,12.2,M,-32.3,M,,*6F
$PYRTM,2024,124.251756633623,15.361404043762
$GPGGA,060230.00,3513.8956,N,12136.1574,W,1,09,1.0,10.4,M,-32.3,M,,*6D
$PYRTM,2024,124.251768194722,15.361415604861
$GPGGA,060231.00,3513.8965,N,12136.1584,W,1,09,1.0,9.9,M,-32.3,M,,*56
$PYRTM,2024,124.251779769583,15.361427179722
$GPGGA,060232.00,3513.8973,N,12136.1595,W,1,09,1.0,9.8,M,-32.3,M,,*53
$PYRTM,2024,124.251791336713,15.361438746852
$GPGGA,060233.00,3513.8980,N,12136.1596,W,1,09,1.0,11.5,M,-32.3,M,,*69
$PYRTM,2024,124.251802916227,15.361450326366
$GPGGA,060234.00,3513.8990,N,12136.1591,W,1,09,1.0,11.2,M,-32.3,M,,*6F
$PYRTM,2024,124.251814486065,15.361461896204
$GPGGA,060235.00,3513.9001,N,12136.1591,W,1,09,1.0,10.0,M,-32.3,M,,*6D
$PYRTM,2024,124.251826065590,15.361473475729
$GPGGA,060236.00,3513.9009,N,12136.1597,W,1,09,1.0,8.8,M,-32.3,M,,*51
$PYRTM,2024,124.251837638542,15.361485048681
$GPGGA,060237.00,3513.9014,N,12136.1605,W,1,09,1.0,9.8,M,-32.3,M,,*55
$PYRTM,2024,124.251849213194,15.361496623333
$GPGGA,060238.00,3513.9022,N,12136.1610,W,1,09,1.0,10.4,M,-32.3,M,,*6F
$PYRTM,2024,124.251860890347,15.361508300486
$GPGGA,060239.00,3513.9031,N,12136.1611,W,1,09,1.0,11.5,M,-32.3,M,,*6D
$PYRTM,2024,124.251871550301,15.361518960440
$GPGGA,060240.00,3513.9041,N,12136.1609,W,1,09,1.0,10.6,M,-32.3,M,,*6F
$PYRTM,2024,124.251884510220,15.361531920359
$GPGGA,060241.00,3513.9051,N,12136.1610,W,1,09,1.0,11.1,M,-32.3,M,,*61
$PYRTM,2024,124.251895265845,15.361542675984
$GPGGA,060242.00,3513.9061,N,12136.1616,W,1,09,1.0,10.2,M,-32.3,M,,*65
$PYRTM,2024,124.251909871169,15.361557281308
$GPGGA,060243.00,3513.9069,N,12136.1625,W,1,09,1.0,9.5,M,-32.3,M,,*53
$PYRTM,2024,124.251920844942,15.361568255081
$GPGGA,060244.00,3513.9075,N,12136.1632,W,1,09,1.0,9.7,M,-32.3,M,,*5D
$PYRTM,2024,124.251931967627,15.361579377766
$GPGGA,060245.00,3513.9086,N,12136.1635,W,1,09,1.0,9.3,M,-32.3,M,,*53
$PYRTM,2024,124.251943067882,15.361590478032
$GPGGA,060246.00,3513.9100,N,12136.1633,W,1,09,1.0,8.7,M,-32.3,M,,*5C
$PYRTM,2024,124.251954190532,15.361601600671
$GPGGA,060247.00,3513.9107,N,12136.1633,W,1,09,1.0,9.0,M,-32.3,M,,*5C
$PYRTM,2024,124.251965288148,15.361612698287
$GPGGA,060248.00,3513.9110,N,12136.1638,W,1,09,1.0,11.6,M,-32.3,M,,*61
$PYRTM,2024,124.251976407859,15.361623817998
$GPGGA,060249.00,3513.9118,N,12136.1648,W,1,09,1.0,9.5,M,-32.3,M,,*55
$PYRTM,2024,124.251987523218,15.361634933356
$GPGGA,060250.00,3513.9130,N,12136.1656,W,1,09,1.0,9.9,M,-32.3,M,,*54
$PYRTM,2024,124.251998634988,15.361646045139
$GPGGA,060251.00,3513.9139,N,12136.1660,W,1,09,1.0,10.6,M,-32.3,M,,*6E
$PYRTM,2024,124.252010195729,15.361657605868
$GPGGA,060252.00,3513.9144,N,12136.1658,W,1,09,1.0,10.6,M,-32.3,M,,*6C
$PYRTM,2024,124.252021783414,15.361669193553
$GPGGA,060253.00,3513.9151,N,12136.1656,W,1,09,1.0,10.1,M,-32.3,M,,*60
$PYRTM,2024,124.252033342604,15.361680752743
$GPGGA,060254.00,3513.9162,N,12136.1660,W,1,09,1.0,9.9,M,-32.3,M,,*52
$PYRTM,2024,124.252044931956,15.361692342095
$GPGGA,060255.00,3513.9172,N,12136.1668,W,1,09,1.0,11.5,M,-32.3,M,,*6F
$PYRTM,2024,124.252056491377,15.361703901516
$GPGGA,060256.00,3513.9178,N,12136.1674,W,1,09,1.0,11.5,M,-32.3,M,,*6B
$PYRTM,2024,124.252068080486,15.361715490625
$GPGGA,060257.00,3513.9184,N,12136.1673,W,1,09,1.0,13.4,M,-32.3,M,,*6D
$PYRTM,2024,124.252079641215,15.361727051354
$GPGGA,060258.00,3513.9194,N,12136.1672,W,1,09,1.0,10.3,M,-32.3,M,,*66
$PYRTM,2024,124.252091223113,15.361738633252
$GPGGA,060259.00,3513.9205,N,12136.1675,W,1,09,1.0,9.0,M,-32.3,M,,*50
$PYRTM,2024,124.252102787928,15.361750198067
$GPGGA,060300.00,3513.9211,N,12136.1681,W,1,09,1.0,9.0,M,-32.3,M,,*53
$PYRTM,2024,124.252114376701,15.361761786840
$GPGGA,060301.00,3513.9214,N,12136.1685,W,1,09,1.0,9.3,M,-32.3,M,,*50
$PYRTM,2024,124.252125937813,15.361773347951
$GPGGA,060302.00,3513.9222,N,12136.1687,W,1,09,1.0,9.2,M,-32.3,M,,*55
$PYRTM,2024,124.252137525208,15.361784935359
$GPGGA,060303.00,3513.9234,N,12136.1689,W,1,09,1.0,9.2,M,-32.3,M,,*5D
$PYRTM,2024,124.252149084086,15.361796494225
$GPGGA,060304.00,3513.9241,N,12136.1692,W,1,09,1.0,8.8,M,-32.3,M,,*59
$PYRTM,2024,124.252160675127,15.361808085266
$GPGGA,060305.00,3513.9243,N,12136.1694,W,1,09,1.0,8.9,M,-32.3,M,,*5D
$PYRTM,2024,124.252172234190,15.361819644340
$GPGGA,060306.00,3513.9244,N,12136.1695,W,1,09,1.0,8.9,M,-32.3,M,,*58
$PYRTM,2024,124.252183820266,15.361831230405
$GPGGA,060307.00,3513.9251,N,12136.1697,W,1,09,1.0,11.9,M,-32.3,M,,*67
$PYRTM,2024,124.252195381539,15.361842791678
$GPGGA,060308.00,3513.9263,N,12136.1700,W,1,09,1.0,11.7,M,-32.3,M,,*68
$PYRTM,2024,124.252206969757,15.361854379896
$GPGGA,060309.00,3513.9269,N,12136.1704,W,1,09,1.0,11.5,M,-32.3,M,,*65
$PYRTM,2024,124.252218530509,15.361865940648
$GPGGA,060310.00,3513.9272,N,12136.1708,W,1,09,1.0,11.5,M,-32.3,M,,*6B
$PYRTM,2024,124.252230117060,15.361877527199
$GPGGA,060311.00,3513.9278,N,12136.1710,W,1,09,1.0,11.8,M,-32.3,M,,*64
$PYRTM,2024,124.252241677569,15.361889087708
$GPGGA,060312.00,3513.9286,N,12136.1711,W,1,09,1.0,11.8,M,-32.3,M,,*67
$PYRTM,2024,124.252254307894,15.361901718032
$GPGGA,060313.00,3513.9295,N,12136.1714,W,1,09,1.0,11.0,M,-32.3,M,,*69
$PYRTM,2024,124.252265885359,15.361913295498
$GPGGA,060314.00,3513.9302,N,12136.1719,W,1,09,1.0,10.4,M,-32.3,M,,*69
$PYRTM,2024,124.252277456227,15.361924866377
$GPGGA,060315.00,3513.9307,N,12136.1724,W,1,09,1.0,10.3,M,-32.3,M,,*64
$PYRTM,2024,124.252289030949,15.361936441100
$GPGGA,060316.00,3513.9313,N,12136.1725,W,1,09,1.0,11.3,M,-32.3,M,,*62
$PYRTM,2024,124.252300604641,15.361948014780
$GPGGA,060317.00,3513.9321,N,12136.1723,W,1,09,1.0,11.1,M,-32.3,M,,*66
$PYRTM,2024,124.252312179051,15.361959589190
$GPGGA,060318.00,3513.9328,N,12136.1723,W,1,09,1.0,10.7,M,-32.3,M,,*67
$PYRTM,2024,124.252323752396,15.361971162535
$GPGGA,060319.00,3513.9335,N,12136.1726,W,1,09,1.0,10.3,M,-32.3,M,,*6B
$PYRTM,2024,124.252335326458,15.361982736597
$GPGGA,060320.00,3513.9341,N,12136.1732,W,1,09,1.0,10.2,M,-32.3,M,,*66
$PYRTM,2024,124.252346900845,15.361994310984
$GPGGA,060321.00,3513.9348,N,12136.1735,W,1,09,1.0,10.8,M,-32.3,M,,*63
$PYRTM,2024,124.252358476285,15.362005886424
$GPGGA,060322.00,3513.9355,N,12136.1734,W,1,09,1.0,11.1,M,-32.3,M,,*65
$PYRTM,2024,124.252370048866,15.362017459005
$GPGGA,060323.00,3513.9363,N,12136.1732,W,1,09,1.0,11.7,M,-32.3,M,,*61
$PYRTM,2024,124.252381626539,15.362029036690
$GPGGA,060324.00,3513.9372,N,12136.1732,W,1,09,1.0,11.8,M,-32.3,M,,*69
$PYRTM,2024,124.252393192998,15.362040603137
$GPGGA,060325.00,3513.9380,N,12136.1738,W,1,09,1.0,11.2,M,-32.3,M,,*65
$PYRTM,2024,124.252404775602,15.362052185741
$GPGGA,060326.00,3513.9389,N,12136.1746,W,1,09,1.0,10.6,M,-32.3,M,,*63
$PYRTM,2024,124.252416349421,15.362063759560
$GPGGA,060327.00,3513.9398,N,12136.1750,W,1,09,1.0,11.5,M,-32.3,M,,*67
$PYRTM,2024,124.252427922697,15.362075332836
$GPGGA,060328.00,3513.9403,N,12136.1751,W,1,09,1.0,12.8,M,-32.3,M,,*62
$PYRTM,2024,124.252439488669,15.362086898808
$GPGGA,060329.00,3513.9409,N,12136.1750,W,1,09,1.0,15.2,M,-32.3,M,,*65
$PYRTM,2024,124.252451067755,15.362098477894
$GPGGA,060330.00,3513.9419,N,12136.1752,W,1,09,1.0,13.2,M,-32.3,M,,*68
$PYRTM,2024,124.252462642141,15.362110052280
$GPGGA,060331.00,3513.9432,N,12136.1755,W,1,09,1.0,10.6,M,-32.3,M,,*60
$PYRTM,2024,124.252474216227,15.362121626366
$GPGGA,060332.00,3513.9440,N,12136.1759,W,1,09,1.0,10.2,M,-32.3,M,,*6E
$PYRTM,2024,124.252485786134,15.362133196273
$GPGGA,060333.00,3513.9443,N,12136.1763,W,1,09,1.0,10.6,M,-32.3,M,,*61
$PYRTM,2024,124.252497351412,15.362144761551
$GPGGA,060334.00,3513.9449,N,12136.1766,W,1,09,1.0,14.0,M,-32.3,M,,*6B
$PYRTM,2024,124.252508933669,15.362156343808
$GPGGA,060335.00,3513.9460,N,12136.1767,W,1,09,1.0,13.2,M,-32.3,M,,*65
$PYRTM,2024,124.252520498796,15.362167908935
$GPGGA,060336.00,3513.9471,N,12136.1771,W,1,09,1.0,11.6,M,-32.3,M,,*67
$PYRTM,2024,124.252532086424,15.362179496563
$GPGGA,060337.00,3513.9477,N,12136.1777,W,1,09,1.0,10.2,M,-32.3,M,,*63
$PYRTM,2024,124.252543647500,15.362191057639
$GPGGA,060338.00,3513.9481,N,12136.1782,W,1,09,1.0,10.8,M,-32.3,M,,*65
$PYRTM,2024,124.252555235451,15.362202645590
$GPGGA,060339.00,3513.9487,N,12136.1783,W,1,09,1.0,11.6,M,-32.3,M,,*6C
$PYRTM,2024,124.252566794988,15.362214205127
$GPGGA,060340.00,3513.9496,N,12136.1784,W,1,09,1.0,14.5,M,-32.3,M,,*63
$PYRTM,2024,124.252578379387,15.362225789525
$GPGGA,060341.00,3513.9506,N,12136.1787,W,1,09,1.0,13.0,M,-32.3,M,,*6B
$PYRTM,2024,124.252589942720,15.362237352859
$GPGGA,060342.00,3513.9513,N,12136.1793,W,1,09,1.0,14.4,M,-32.3,M,,*6A
$PYRTM,2024,124.252600258750,15.362247668889
$GPGGA,060343.00,3513.9518,N,12136.1796,W,1,09,1.0,14.2,M,-32.3,M,,*63
$PYRTM,2024,124.252612050799,15.362259460937
$GPGGA,060344.00,3513.9522,N,12136.1796,W,1,09,1.0,13.9,M,-32.3,M,,*61
$PYRTM,2024,124.252624678924,15.362272089063
$GPGGA,060345.00,3513.9531,N,12136.1793,W,1,09,1.0,13.1,M,-32.3,M,,*6F
$PYRTM,2024,124.252636240972,15.362283651111
$GPGGA,060346.00,3513.9544,N,12136.1795,W,1,09,1.0,8.6,M,-32.3,M,,*55
$PYRTM,2024,124.252647829132,15.362295239271
$GPGGA,060347.00,3513.9554,N,12136.1803,W,1,09,1.0,8.2,M,-32.3,M,,*51
$PYRTM,2024,124.252659387801,15.362306797940
$GPGGA,060348.00,3513.9559,N,12136.1809,W,1,09,1.0,8.1,M,-32.3,M,,*5A
$PYRTM,2024,124.252670976424,15.362318386563
$GPGGA,060349.00,3513.9566,N,12136.1808,W,1,09,1.0,8.9,M,-32.3,M,,*5E
$PYRTM,2024,124.252682535671,15.362329945810
$GPGGA,060350.00,3513.9578,N,12136.1806,W,1,09,1.0,7.4,M,-32.3,M,,*55
$PYRTM,2024,124.252694118947,15.362341529086
$GPGGA,060351.00,3513.9589,N,12136.1808,W,1,09,1.0,7.0,M,-32.3,M,,*50
$PYRTM,2024,124.252705684155,15.362353094294
$GPGGA,060352.00,3513.9595,N,12136.1814,W,1,09,1.0,9.2,M,-32.3,M,,*5F
$PYRTM,2024,124.252717272326,15.362364682465
$GPGGA,060353.00,3513.9600,N,12136.1819,W,1,09,1.0,9.3,M,-32.3,M,,*5D
$PYRTM,2024,124.252728832431,15.362376242569
$GPGGA,060354.00,3513.9608,N,12136.1820,W,1,09,1.0,9.6,M,-32.3,M,,*5D
$PYRTM,2024,124.252740420278,15.362387830417
$GPGGA,060355.00,3513.9619,N,12136.1822,W,1,09,1.0,10.5,M,-32.3,M,,*65
$PYRTM,2024,124.252751981331,15.362399391470
$GPGGA,060356.00,3513.9627,N,12136.1822,W,1,09,1.0,8.4,M,-32.3,M,,*53
$PYRTM,2024,124.252763569016,15.362410979155
$GPGGA,060357.00,3513.9633,N,12136.1822,W,1,09,1.0,7.6,M,-32.3,M,,*5A
$PYRTM,2024,124.252775129491,15.362422539630
$GPGGA,060358.00,3513.9637,N,12136.1826,W,1,09,1.0,11.1,M,-32.3,M,,*65
$PYRTM,2024,124.252786718368,15.362434128519
$GPGGA,060359.00,3513.9644,N,12136.1831,W,1,09,1.0,11.3,M,-32.3,M,,*64
$PYRTM,2024,124.252798277106,15.362445687245
$GPGGA,060400.00,3513.9655,N,12136.1834,W,1,09,1.0,10.8,M,-32.3,M,,*60
$PYRTM,2024,124.252809866528,15.362457276667
$GPGGA,060401.00,3513.9662,N,12136.1835,W,1,09,1.0,12.5,M,-32.3,M,,*6B
$PYRTM,2024,124.252821426655,15.362468836794
$GPGGA,060402.00,3513.9666,N,12136.1833,W,1,09,1.0,12.9,M,-32.3,M,,*66
$PYRTM,2024,124.252833014572,15.362480424711
$GPGGA,060403.00,3513.9673,N,12136.1833,W,1,09,1.0,14.0,M,-32.3,M,,*6C
$PYRTM,2024,124.252844573889,15.362491984028
$GPGGA,060404.00,3513.9684,N,12136.1837,W,1,09,1.0,12.3,M,-32.3,M,,*62
$PYRTM,2024,124.252856162731,15.362503572870
$GPGGA,060405.00,3513.9695,N,12136.1843,W,1,09,1.0,12.1,M,-32.3,M,,*62
$PYRTM,2024,124.252867721921,15.362515132049
$GPGGA,060406.00,3513.9701,N,12136.1845,W,1,09,1.0,12.0,M,-32.3,M,,*6A
$PYRTM,2024,124.252879310266,15.362526720405
$GPGGA,060407.00,3513.9706,N,12136.1845,W,1,09,1.0,12.3,M,-32.3,M,,*6F
$PYRTM,2024,124.252890870312,15.362538280451
$GPGGA,060408.00,3513.9713,N,12136.1843,W,1,09,1.0,11.3,M,-32.3,M,,*61
$PYRTM,2024,124.252902459132,15.362549869271
$GPGGA,060409.00,3513.9723,N,12136.1845,W,1,09,1.0,7.6,M,-32.3,M,,*57
$PYRTM,2024,124.252914019896,15.362561430035
$GPGGA,060410.00,3513.9732,N,12136.1853,W,1,09,1.0,5.6,M,-32.3,M,,*5A
$PYRTM,2024,124.252925607535,15.362573017674
$GPGGA,060411.00,3513.9739,N,12136.1862,W,1,09,1.0,6.3,M,-32.3,M,,*54
$PYRTM,2024,124.252937166875,15.362584577014
$GPGGA,060412.00,3513.9742,N,12136.1862,W,1,09,1.0,9.3,M,-32.3,M,,*54
$PYRTM,2024,124.252947829595,15.362595239734
$GPGGA,060413.00,3513.9746,N,12136.1851,W,1,09,1.0,10.7,M,-32.3,M,,*6D
$PYRTM,2024,124.252959274167,15.362606684306
$GPGGA,060414.00,3513.9756,N,12136.1841,W,1,09,1.0,9.9,M,-32.3,M,,*5C
$PYRTM,2024,124.252971903681,15.362619313819
$GPGGA,060415.00,3513.9769,N,12136.1843,W,1,09,1.0,6.7,M,-32.3,M,,*52
$PYRTM,2024,124.252983463600,15.362630873738
$GPGGA,060416.00,3513.9775,N,12136.1852,W,1,09,1.0,8.6,M,-32.3,M,,*53
$PYRTM,2024,124.252995052280,15.362642462419
$GPGGA,060417.00,3513.9775,N,12136.1855,W,1,09,1.0,8.6,M,-32.3,M,,*55
$PYRTM,2024,124.253006612569,15.362654022708
$GPGGA,060418.00,3513.9777,N,12136.1849,W,1,09,1.0,9.4,M,-32.3,M,,*56
$PYRTM,2024,124.253018200428,15.362665610567
$GPGGA,060419.00,3513.9785,N,12136.1841,W,1,09,1.0,11.4,M,-32.3,M,,*6B
$PYRTM,2024,124.253029759410,15.362677169549
$GPGGA,060420.00,3513.9793,N,12136.1840,W,1,09,1.0,11.6,M,-32.3,M,,*65
$PYRTM,2024,124.253041347639,15.362688757778
$GPGGA,060421.00,3513.9797,N,12136.1847,W,1,09,1.0,10.6,M,-32.3,M,,*66
$PYRTM,2024,124.253052909687,15.362700319826
$GPGGA,060422.00,3513.9800,N,12136.1854,W,1,09,1.0,10.4,M,-32.3,M,,*64
$PYRTM,2024,124.253064496944,15.362711907083
$GPGGA,060423.00,3513.9805,N,12136.1853,W,1,09,1.0,10.8,M,-32.3,M,,*6B
$PYRTM,2024,124.253076057153,15.362723467292
$GPGGA,060424.00,3513.9813,N,12136.1848,W,1,09,1.0,10.1,M,-32.3,M,,*68
$PYRTM,2024,124.253087646644,15.362735056782
$GPGGA,060425.00,3513.9820,N,12136.1846,W,1,09,1.0,10.4,M,-32.3,M,,*62
$PYRTM,2024,124.253099206887,15.362746617025
$GPGGA,060426.00,3513.9827,N,12136.1849,W,1,09,1.0,10.8,M,-32.3,M,,*65
$PYRTM,2024,124.253110794352,15.362758204491
$GPGGA,060427.00,3513.9833,N,12136.1858,W,1,09,1.0,10.8,M,-32.3,M,,*61
$PYRTM,2024,124.253122354120,15.362769764259
$GPGGA,060428.00,3513.9839,N,12136.1866,W,1,09,1.0,10.1,M,-32.3,M,,*60
$PYRTM,2024,124.253133941065,15.362781351204
$GPGGA,060429.00,3513.9846,N,12136.1868,W,1,09,1.0,9.6,M,-32.3,M,,*58
$PYRTM,2024,124.253145499873,15.362792910012
$GPGGA,060430.00,3513.9854,N,12136.1866,W,1,09,1.0,9.6,M,-32.3,M,,*5D
$PYRTM,2024,124.253157089884,15.362804500023
$GPGGA,060431.00,3513.9861,N,12136.1864,W,1,09,1.0,9.9,M,-32.3,M,,*57
$PYRTM,2024,124.253168651516,15.362816061655
$GPGGA,060432.00,3513.9867,N,12136.1866,W,1,09,1.0,10.3,M,-32.3,M,,*62
$PYRTM,2024,124.253180237373,15.362827647512
$GPGGA,060433.00,3513.9872,N,12136.1871,W,1,09,1.0,10.2,M,-32.3,M,,*60
$PYRTM,2024,124.253191797303,15.362839207442
$GPGGA,060434.00,3513.9880,N,12136.1876,W,1,09,1.0,9.5,M,-32.3,M,,*52
$PYRTM,2024,124.253203382350,15.362850792488
$GPGGA,060435.00,3513.9890,N,12136.1880,W,1,09,1.0,9.2,M,-32.3,M,,*5C
$PYRTM,2024,124.253214946366,15.362862356505
$GPGGA,060436.00,3513.9898,N,12136.1882,W,1,09,1.0,9.7,M,-32.3,M,,*50
$PYRTM,2024,124.253226534097,15.362873944236
$GPGGA,060437.00,3513.9904,N,12136.1881,W,1,09,1.0,10.3,M,-32.3,M,,*6A
$PYRTM,2024,124.253238093889,15.362885504028
$GPGGA,060438.00,3513.9912,N,12136.1880,W,1,09,1.0,10.1,M,-32.3,M,,*61
$PYRTM,2024,124.253249682951,15.362897093090
$GPGGA,060439.00,3513.9921,N,12136.1882,W,1,09,1.0,8.3,M,-32.3,M,,*59
$PYRTM,2024,124.253261243796,15.362908653935
$GPGGA,060440.00,3513.9930,N,12136.1888,W,1,09,1.0,10.5,M,-32.3,M,,*62
$PYRTM,2024,124.253272830833,15.362920240972
$GPGGA,060441.00,3513.9938,N,12136.1896,W,1,09,1.0,9.5,M,-32.3,M,,*5C
$PYRTM,2024,124.253284391100,15.362931801238
$GPGGA,060442.00,3513.9947,N,12136.1899,W,1,09,1.0,9.4,M,-32.3,M,,*59
$PYRTM,2024,124.253294710359,15.362942120498
$GPGGA,060443.00,3513.9955,N,12136.1895,W,1,09,1.0,11.9,M,-32.3,M,,*63
$PYRTM,2024,124.253306499410,15.362953909560
$GPGGA,060444.00,3513.9964,N,12136.1891,W,1,09,1.0,12.5,M,-32.3,M,,*6D
$PYRTM,2024,124.253318197361,15.362965607500
$GPGGA,060445.00,3513.9972,N,12136.1893,W,1,09,1.0,15.7,M,-32.3,M,,*6C
$PYRTM,2024,124.253331281065,15.362978691204
$GPGGA,060446.00,3513.9980,N,12136.1901,W,1,09,1.0,13.4,M,-32.3,M,,*6D
$PYRTM,2024,124.253342045810,15.362989455949
$GPGGA,060447.00,3513.9987,N,12136.1910,W,1,09,1.0,10.7,M,-32.3,M,,*6B
$PYRTM,2024,124.253353157350,15.363000567488
$GPGGA,060448.00,3513.9995,N,12136.1914,W,1,09,1.0,12.0,M,-32.3,M,,*66
$PYRTM,2024,124.253364267639,15.363011677778
$GPGGA,060449.00,3514.0003,N,12136.1913,W,1,09,1.0,13.3,M,-32.3,M,,*6A
$PYRTM,2024,124.253375381701,15.363022791840
$GPGGA,060450.00,3514.0011,N,12136.1909,W,1,09,1.0,13.4,M,-32.3,M,,*6D
$PYRTM,2024,124.253386492986,15.363033903125
$GPGGA,060451.00,3514.0020,N,12136.1908,W,1,09,1.0,13.8,M,-32.3,M,,*63
$PYRTM,2024,124.253398052269,15.363045462407
$GPGGA,060452.00,3514.0032,N,12136.1915,W,1,09,1.0,11.3,M,-32.3,M,,*66
$PYRTM,2024,124.253409162801,15.363056572940
$GPGGA,060453.00,3514.0040,N,12136.1927,W,1,09,1.0,10.8,M,-32.3,M,,*69
$PYRTM,2024,124.253420272894,15.363067683032
$GPGGA,060454.00,3514.0045,N,12136.1931,W,1,09,1.0,10.6,M,-32.3,M,,*62
$PYRTM,2024,124.253431385914,15.363078796065
$GPGGA,060455.00,3514.0050,N,12136.1927,W,1,09,1.0,14.3,M,-32.3,M,,*61
$PYRTM,2024,124.253442495660,15.363089905799
$GPGGA,060456.00,3514.0060,N,12136.1924,W,1,09,1.0,11.1,M,-32.3,M,,*65
$PYRTM,2024,124.253453607153,15.363101017292
$GPGGA,060457.00,3514.0070,N,12136.1928,W,1,09,1.0,10.3,M,-32.3,M,,*6A
$PYRTM,2024,124.253470736678,15.363118146829
$GPGGA,060458.00,3514.0078,N,12136.1935,W,1,09,1.0,9.9,M,-32.3,M,,*53
$PYRTM,2024,124.253481863333,15.363129273472
$GPGGA,060459.00,3514.0084,N,12136.1943,W,1,09,1.0,10.3,M,-32.3,M,,*62
$PYRTM,2024,124.253492972662,15.363140382812
$GPGGA,060500.00,3514.0092,N,12136.1942,W,1,09,1.0,10.4,M,-32.3,M,,*6E
$PYRTM,2024,124.253504086053,15.363151496192
$GPGGA,060501.00,3514.0101,N,12136.1938,W,1,09,1.0,11.4,M,-32.3,M,,*68
$PYRTM,2024,124.253515194583,15.363162604722
$GPGGA,060502.00,3514.0108,N,12136.1936,W,1,09,1.0,11.2,M,-32.3,M,,*6A
$PYRTM,2024,124.253526754271,15.363174164410
$GPGGA,060503.00,3514.0115,N,12136.1940,W,1,09,1.0,12.4,M,-32.3,M,,*63
$PYRTM,2024,124.253537866562,15.363185276701
$GPGGA,060504.00,3514.0123,N,12136.1948,W,1,09,1.0,10.4,M,-32.3,M,,*6B
$PYRTM,2024,124.253548977245,15.363196387384
$GPGGA,060505.00,3514.0130,N,12136.1952,W,1,09,1.0,10.8,M,-32.3,M,,*6F
$PYRTM,2024,124.253560088623,15.363207498762
$GPGGA,060506.00,3514.0136,N,12136.1950,W,1,09,1.0,13.8,M,-32.3,M,,*6B
$PYRTM,2024,124.253571200231,15.363218610370
$GPGGA,060507.00,3514.0143,N,12136.1946,W,1,09,1.0,12.6,M,-32.3,M,,*60
$PYRTM,2024,124.253582310625,15.363229720764
$GPGGA,060508.00,3514.0150,N,12136.1949,W,1,09,1.0,13.8,M,-32.3,M,,*6D
$PYRTM,2024,124.253593423414,15.363240833553
$GPGGA,060509.00,3514.0159,N,12136.1957,W,1,09,1.0,12.8,M,-32.3,M,,*6B
$PYRTM,2024,124.253604534005,15.363251944144
$GPGGA,060510.00,3514.0168,N,12136.1964,W,1,09,1.0,11.5,M,-32.3,M,,*6F
$PYRTM,2024,124.253615645799,15.363263055938
$GPGGA,060511.00,3514.0176,N,12136.1966,W,1,09,1.0,14.2,M,-32.3,M,,*61
$PYRTM,2024,124.253626756273,15.363274166412
$GPGGA,060512.00,3514.0185,N,12136.1965,W,1,09,1.0,14.3,M,-32.3,M,,*6C
$PYRTM,2024,124.253642165903,15.363289576042
$GPGGA,060513.00,3514.0193,N,12136.1968,W,1,09,1.0,12.5,M,-32.3,M,,*67
$PYRTM,2024,124.253653724086,15.363301134225
$GPGGA,060514.00,3514.0201,N,12136.1971,W,1,09,1.0,15.0,M,-32.3,M,,*62
$PYRTM,2024,124.253665314838,15.363312724977
$GPGGA,060515.00,3514.0208,N,12136.1973,W,1,09,1.0,16.9,M,-32.3,M,,*62
$PYRTM,2024,124.253676872245,15.363324282384
$GPGGA,060516.00,3514.0217,N,12136.1975,W,1,09,1.0,13.1,M,-32.3,M,,*64
$PYRTM,2024,124.253688454815,15.363335864954
$GPGGA,060517.00,3514.0224,N,12136.1978,W,1,09,1.0,11.0,M,-32.3,M,,*6B
$PYRTM,2024,124.253700020903,15.363347431042
$GPGGA,060518.00,3514.0229,N,12136.1978,W,1,09,1.0,10.8,M,-32.3,M,,*60
$PYRTM,2024,124.253711609907,15.363359020046
$GPGGA,060519.00,3514.0237,N,12136.1979,W,1,09,1.0,10.5,M,-32.3,M,,*62
$PYRTM,2024,124.253723168125,15.363370578264
$GPGGA,060520.00,3514.0248,N,12136.1980,W,1,09,1.0,8.9,M,-32.3,M,,*53
$PYRTM,2024,124.253734755926,15.363382166065
$GPGGA,060521.00,3514.0258,N,12136.1984,W,1,09,1.0,9.6,M,-32.3,M,,*59
$PYRTM,2024,124.253746316377,15.363393726516
$GPGGA,060522.00,3514.0265,N,12136.1990,W,1,09,1.0,10.2,M,-32.3,M,,*6D
$PYRTM,2024,124.253757904028,15.363405314167
$GPGGA,060523.00,3514.0272,N,12136.1995,W,1,09,1.0,9.0,M,-32.3,M,,*55
$PYRTM,2024,124.253769465752,15.363416875903
$GPGGA,060524.00,3514.0283,N,12136.1993,W,1,09,1.0,11.4,M,-32.3,M,,*67
$PYRTM,2024,124.253781053194,15.363428463345
$GPGGA,060525.00,3514.0294,N,12136.1989,W,1,09,1.0,10.6,M,-32.3,M,,*68
$PYRTM,2024,124.253792614190,15.363440024329
$GPGGA,060526.00,3514.0302,N,12136.1991,W,1,09,1.0,10.9,M,-32.3,M,,*63
$PYRTM,2024,124.253804203808,15.363451613947
$GPGGA,060527.00,3514.0309,N,12136.2000,W,1,09,1.0,10.0,M,-32.3,M,,*62
$PYRTM,2024,124.253815761065,15.363463171215
$GPGGA,060528.00,3514.0317,N,12136.2010,W,1,09,1.0,9.4,M,-32.3,M,,*5F
$PYRTM,2024,124.253827349155,15.363474759294
$GPGGA,060529.00,3514.0326,N,12136.2011,W,1,09,1.0,11.2,M,-32.3,M,,*62
$PYRTM,2024,124.253838910660,15.363486320799
$GPGGA,060530.00,3514.0335,N,12136.2007,W,1,09,1.0,10.7,M,-32.3,M,,*6B
$PYRTM,2024,124.253850497743,15.363497907882
$GPGGA,060531.00,3514.0345,N,12136.2007,W,1,09,1.0,11.6,M,-32.3,M,,*6D
$PYRTM,2024,124.253862058750,15.363509468889
$GPGGA,060532.00,3514.0354,N,12136.2014,W,1,09,1.0,11.6,M,-32.3,M,,*6C
$PYRTM,2024,124.253873648032,15.363521058171
$GPGGA,060533.00,3514.0361,N,12136.2022,W,1,09,1.0,10.6,M,-32.3,M,,*6F
$PYRTM,2024,124.253885207813,15.363532617951
$GPGGA,060534.00,3514.0368,N,12136.2025,W,1,09,1.0,11.7,M,-32.3,M,,*66
$PYRTM,2024,124.253896793866,15.363544204005
$GPGGA,060535.00,3514.0376,N,12136.2022,W,1,09,1.0,12.5,M,-32.3,M,,*6E
$PYRTM,2024,124.253908354282,15.363555764421
$GPGGA,060536.00,3514.0387,N,12136.2021,W,1,09,1.0,13.3,M,-32.3,M,,*67
$PYRTM,2024,124.253919945787,15.363567355938
$GPGGA,060537.00,3514.0396,N,12136.2025,W,1,09,1.0,11.1,M,-32.3,M,,*62
$PYRTM,2024,124.253931501609,15.363578911748
$GPGGA,060538.00,3514.0403,N,12136.2030,W,1,09,1.0,14.6,M,-32.3,M,,*60
$PYRTM,2024,124.253943104109,15.363590514248
$GPGGA,060539.00,3514.0410,N,12136.2034,W,1,09,1.0,15.0,M,-32.3,M,,*60
$PYRTM,2024,124.253954651458,15.363602061597
$GPGGA,060540.00,3514.0419,N,12136.2039,W,1,09,1.0,13.3,M,-32.3,M,,*6F
$PYRTM,2024,124.253966252025,15.363613662164
$GPGGA,060541.00,3514.0431,N,12136.2043,W,1,09,1.0,10.0,M,-32.3,M,,*69
$PYRTM,2024,124.253977799155,15.363625209294
$GPGGA,060542.00,3514.0442,N,12136.2045,W,1,09,1.0,9.6,M,-32.3,M,,*56
$PYRTM,2024,124.253990427847,15.363637837986
$GPGGA,060543.00,3514.0450,N,12136.2046,W,1,09,1.0,9.7,M,-32.3,M,,*56
$PYRTM,2024,124.254001987882,15.363649398021
$GPGGA,060544.00,3514.0458,N,12136.2051,W,1,09,1.0,10.9,M,-32.3,M,,*69
$PYRTM,2024,124.254013575718,15.363660985868
$GPGGA,060545.00,3514.0469,N,12136.2059,W,1,09,1.0,12.5,M,-32.3,M,,*6C
$PYRTM,2024,124.254025136169,15.363672546308
$GPGGA,060546.00,3514.0479,N,12136.2065,W,1,09,1.0,11.1,M,-32.3,M,,*66
$PYRTM,2024,124.254036723345,15.363684133484
$GPGGA,060547.00,3514.0484,N,12136.2065,W,1,09,1.0,14.0,M,-32.3,M,,*61
$PYRTM,2024,124.254048284167,15.363695694306
$GPGGA,060548.00,3514.0491,N,12136.2061,W,1,09,1.0,13.0,M,-32.3,M,,*69
$PYRTM,2024,124.254059872303,15.363707282442
$GPGGA,060549.00,3514.0503,N,12136.2063,W,1,09,1.0,9.7,M,-32.3,M,,*5C
$PYRTM,2024,124.254071433090,15.363718843229
$GPGGA,060550.00,3514.0515,N,12136.2073,W,1,09,1.0,9.7,M,-32.3,M,,*52
$PYRTM,2024,124.254083015961,15.363730426100
$GPGGA,060551.00,3514.0519,N,12136.2078,W,1,09,1.0,9.6,M,-32.3,M,,*55
$PYRTM,2024,124.254094582245,15.363741992384
$GPGGA,060552.00,3514.0522,N,12136.2077,W,1,09,1.0,9.6,M,-32.3,M,,*51
$PYRTM,2024,124.254106163981,15.363753574120
$GPGGA,060553.00,3514.0530,N,12136.2075,W,1,09,1.0,9.3,M,-32.3,M,,*54
$PYRTM,2024,124.254117729491,15.363765139630
$GPGGA,060554.00,3514.0543,N,12136.2077,W,1,09,1.0,8.6,M,-32.3,M,,*51
$PYRTM,2024,124.254129318125,15.363776728264
$GPGGA,060555.00,3514.0550,N,12136.2085,W,1,09,1.0,8.3,M,-32.3,M,,*5A
$PYRTM,2024,124.254140878391,15.363788288530
$GPGGA,060556.00,3514.0551,N,12136.2091,W,1,09,1.0,8.6,M,-32.3,M,,*58
$PYRTM,2024,124.254152460799,15.363799870937
$GPGGA,060557.00,3514.0555,N,12136.2087,W,1,09,1.0,9.8,M,-32.3,M,,*55
$PYRTM,2024,124.254164026250,15.363811436389
$GPGGA,060558.00,3514.0566,N,12136.2081,W,1,09,1.0,9.7,M,-32.3,M,,*53
$PYRTM,2024,124.254175614514,15.363823024664
$GPGGA,060559.00,3514.0577,N,12136.2081,W,1,09,1.0,8.3,M,-32.3,M,,*57
$PYRTM,2024,124.254187173461,15.363834583600
$GPGGA,060600.00,3514.0584,N,12136.2091,W,1,09,1.0,7.5,M,-32.3,M,,*5C
$PYRTM,2024,124.254198763692,15.363846173831
$GPGGA,060601.00,3514.0587,N,12136.2099,W,1,09,1.0,7.3,M,-32.3,M,,*50
$PYRTM,2024,124.254210323171,15.363857733310
$GPGGA,060602.00,3514.0590,N,12136.2096,W,1,09,1.0,7.9,M,-32.3,M,,*50
$PYRTM,2024,124.254221911447,15.363869321586
$GPGGA,060603.00,3514.0598,N,12136.2085,W,1,09,1.0,7.6,M,-32.3,M,,*54
$PYRTM,2024,124.254233470556,15.363880880694
$GPGGA,060604.00,3514.0609,N,12136.2083,W,1,09,1.0,6.9,M,-32.3,M,,*50
$PYRTM,2024,124.254245058981,15.363892469120
$GPGGA,060605.00,3514.0618,N,12136.2092,W,1,09,1.0,6.1,M,-32.3,M,,*59
$PYRTM,2024,124.254256619282,15.363904029421
$GPGGA,060606.00,3514.0623,N,12136.2102,W,1,09,1.0,6.7,M,-32.3,M,,*5C
$PYRTM,2024,124.254268208241,15.363915618380
$GPGGA,060607.00,3514.0627,N,12136.2108,W,1,09,1.0,7.4,M,-32.3,M,,*51
$PYRTM,2024,124.254279767245,15.363927177384
$GPGGA,060608.00,3514.0631,N,12136.2107,W,1,09,1.0,8.0,M,-32.3,M,,*5D
$PYRTM,2024,124.254291351030,15.363938761169
$GPGGA,060609.00,3514.0638,N,12136.2105,W,1,09,1.0,8.6,M,-32.3,M,,*51
$PYRTM,2024,124.254302915382,15.363950325521
$GPGGA,060610.00,3514.0645,N,12136.2104,W,1,09,1.0,9.0,M,-32.3,M,,*55
$PYRTM,2024,124.254314501030,15.363961911169
$GPGGA,060611.00,3514.0652,N,12136.2108,W,1,09,1.0,8.7,M,-32.3,M,,*58
$PYRTM,2024,124.254326062882,15.363973473021
$GPGGA,060612.00,3514.0659,N,12136.2117,W,1,09,1.0,8.1,M,-32.3,M,,*58
$PYRTM,2024,124.254336248600,15.363983658738
$GPGGA,060613.00,3514.0667,N,12136.2122,W,1,09,1.0,8.3,M,-32.3,M,,*50
$PYRTM,2024,124.254348171667,15.363995581806
$GPGGA,060614.00,3514.0674,N,12136.2122,W,1,09,1.0,8.6,M,-32.3,M,,*50
$PYRTM,2024,124.254360799688,15.364008209826
$GPGGA,060615.00,3514.0681,N,12136.2118,W,1,09,1.0,9.5,M,-32.3,M,,*50
$PYRTM,2024,124.254372359780,15.364019769919
$GPGGA,060616.00,3514.0690,N,12136.2119,W,1,09,1.0,10.0,M,-32.3,M,,*6F
$PYRTM,2024,124.254383949398,15.364031359537
$GPGGA,060617.00,3514.0699,N,12136.2124,W,1,09,1.0,9.9,M,-32.3,M,,*58
$PYRTM,2024,124.254395509306,15.364042919444
$GPGGA,060618.00,3514.0708,N,12136.2130,W,1,09,1.0,9.9,M,-32.3,M,,*5B
$PYRTM,2024,124.254407097269,15.364054507419
$GPGGA,060619.00,3514.0715,N,12136.2130,W,1,09,1.0,10.5,M,-32.3,M,,*62
$PYRTM,2024,124.254418657280,15.364066067419
$GPGGA,060620.00,3514.0724,N,12136.2126,W,1,09,1.0,10.9,M,-32.3,M,,*61
$PYRTM,2024,124.254430245544,15.364077655694
$GPGGA,060621.00,3514.0737,N,12136.2128,W,1,09,1.0,9.9,M,-32.3,M,,*54
$PYRTM,2024,124.254441805486,15.364089215625
$GPGGA,060622.00,3514.0746,N,12136.2137,W,1,09,1.0,10.3,M,-32.3,M,,*6D
$PYRTM,2024,124.254453395093,15.364100805231
$GPGGA,060623.00,3514.0750,N,12136.2143,W,1,09,1.0,10.0,M,-32.3,M,,*6B
$PYRTM,2024,124.254464956076,15.364112366215
$GPGGA,060624.00,3514.0756,N,12136.2141,W,1,09,1.0,11.0,M,-32.3,M,,*69
$PYRTM,2024,124.254476537454,15.364123947593
$GPGGA,060625.00,3514.0767,N,12136.2138,W,1,09,1.0,12.1,M,-32.3,M,,*66
$PYRTM,2024,124.254488101725,15.364135511863
$GPGGA,060626.00,3514.0777,N,12136.2141,W,1,09,1.0,10.1,M,-32.3,M,,*68
$PYRTM,2024,124.254499689826,15.364147099965
$GPGGA,060627.00,3514.0783,N,12136.2147,W,1,09,1.0,11.0,M,-32.3,M,,*64
$PYRTM,2024,124.254511250602,15.364158660741
$GPGGA,060628.00,3514.0789,N,12136.2149,W,1,09,1.0,14.5,M,-32.3,M,,*6F
$PYRTM,2024,124.254522834375,15.364170244514
$GPGGA,060629.00,3514.0798,N,12136.2147,W,1,09,1.0,13.7,M,-32.3,M,,*65
$PYRTM,2024,124.254534398472,15.364181808611
$GPGGA,060630.00,3514.0808,N,12136.2145,W,1,09,1.0,16.0,M,-32.3,M,,*6B
$PYRTM,2024,124.254545988738,15.364193398877
$GPGGA,060631.00,3514.0817,N,12136.2148,W,1,09,1.0,17.0,M,-32.3,M,,*68
$PYRTM,2024,124.254557547512,15.364204957650
$GPGGA,060632.00,3514.0825,N,12136.2152,W,1,09,1.0,14.9,M,-32.3,M,,*6B
$PYRTM,2024,124.254569136215,15.364216546354
$GPGGA,060633.00,3514.0833,N,12136.2155,W,1,09,1.0,15.9,M,-32.3,M,,*6B
$PYRTM,2024,124.254580696493,15.364228106632
$GPGGA,060634.00,3514.0840,N,12136.2156,W,1,09,1.0,12.6,M,-32.3,M,,*63
$PYRTM,2024,124.254592287095,15.364239697234
$GPGGA,060635.00,3514.0848,N,12136.2154,W,1,09,1.0,13.8,M,-32.3,M,,*67
$PYRTM,2024,124.254603846134,15.364251256273
$GPGGA,060636.00,3514.0859,N,12136.2155,W,1,09,1.0,12.6,M,-32.3,M,,*6A
$PYRTM,2024,124.254615436377,15.364262846516
$GPGGA,060637.00,3514.0871,N,12136.2159,W,1,09,1.0,11.3,M,-32.3,M,,*6B
$PYRTM,2024,124.254626992928,15.364274403067
$GPGGA,060638.00,3514.0879,N,12136.2165,W,1,09,1.0,12.3,M,-32.3,M,,*60
$PYRTM,2024,124.254638593866,15.364286004005
$GPGGA,060639.00,3514.0883,N,12136.2166,W,1,09,1.0,12.4,M,-32.3,M,,*60
$PYRTM,2024,124.254650140995,15.364297551134
$GPGGA,060640.00,3514.0889,N,12136.2164,W,1,09,1.0,13.9,M,-32.3,M,,*6A
$PYRTM,2024,124.254661732801,15.364309142951
$GPGGA,060641.00,3514.0901,N,12136.2165,W,1,09,1.0,12.7,M,-32.3,M,,*64
$PYRTM,2024,124.254673289583,15.364320699722
$GPGGA,060642.00,3514.0914,N,12136.2170,W,1,09,1.0,11.5,M,-32.3,M,,*66
$PYRTM,2024,124.254683953715,15.364331363854
$GPGGA,060643.00,3514.0922,N,12136.2175,W,1,09,1.0,11.3,M,-32.3,M,,*61
$PYRTM,2024,124.254695395035,15.364342805174
$GPGGA,060644.00,3514.0927,N,12136.2177,W,1,09,1.0,13.4,M,-32.3,M,,*64
$PYRTM,2024,124.254708024711,15.364355434850
$GPGGA,060645.00,3514.0938,N,12136.2175,W,1,09,1.0,12.1,M,-32.3,M,,*6D
$PYRTM,2024,124.254719587153,15.364366997292
$GPGGA,060646.00,3514.0950,N,12136.2178,W,1,09,1.0,11.8,M,-32.3,M,,*67
$PYRTM,2024,124.254731173935,15.364378584074
$GPGGA,060647.00,3514.0959,N,12136.2183,W,1,09,1.0,11.2,M,-32.3,M,,*61
$PYRTM,2024,124.254742734259,15.364390144398
$GPGGA,060648.00,3514.0966,N,12136.2185,W,1,09,1.0,11.8,M,-32.3,M,,*6E
$PYRTM,2024,124.254754320336,15.364401730475
$GPGGA,060649.00,3514.0973,N,12136.2183,W,1,09,1.0,14.2,M,-32.3,M,,*62
$PYRTM,2024,124.254764955937,15.364412366076
$GPGGA,060650.00,3514.0983,N,12136.2184,W,1,09,1.0,13.3,M,-32.3,M,,*64
$PYRTM,2024,124.254776992280,15.364424402419
$GPGGA,060651.00,3514.0993,N,12136.2188,W,1,09,1.0,13.0,M,-32.3,M,,*6B
$PYRTM,2024,124.254788218403,15.364435628542
$GPGGA,060652.00,3514.1001,N,12136.2192,W,1,09,1.0,10.3,M,-32.3,M,,*60
$PYRTM,2024,124.254799328900,15.364446739039
$GPGGA,060653.00,3514.1007,N,12136.2194,W,1,09,1.0,10.6,M,-32.3,M,,*64
$PYRTM,2024,124.254810326713,15.364457736852
$GPGGA,060654.00,3514.1015,N,12136.2194,W,1,09,1.0,11.6,M,-32.3,M,,*61
$PYRTM,2024,124.254824910428,15.364472320567
$GPGGA,060655.00,3514.1027,N,12136.2193,W,1,09,1.0,7.7,M,-32.3,M,,*50
$PYRTM,2024,124.254836029410,15.364483439549
$GPGGA,060656.00,3514.1039,N,12136.2194,W,1,09,1.0,6.3,M,-32.3,M,,*5E
$PYRTM,2024,124.254847030822,15.364494440961
$GPGGA,060657.00,3514.1046,N,12136.2198,W,1,09,1.0,9.2,M,-32.3,M,,*55
$PYRTM,2024,124.254858141030,15.364505551169
$GPGGA,060658.00,3514.1049,N,12136.2202,W,1,09,1.0,9.5,M,-32.3,M,,*52
$PYRTM,2024,124.254875953877,15.364523364016
$GPGGA,060659.00,3514.1056,N,12136.2202,W,1,09,1.0,13.9,M,-32.3,M,,*6A
$PYRTM,2024,124.254888104745,15.364535514884
$GPGGA,060700.00,3514.1066,N,12136.2200,W,1,09,1.0,14.2,M,-32.3,M,,*6A
$PYRTM,2024,124.254899216273,15.364546626412
$GPGGA,060701.00,3514.1077,N,12136.2202,W,1,09,1.0,10.8,M,-32.3,M,,*67
$PYRTM,2024,124.254910328218,15.364557738356
$GPGGA,060702.00,3514.1083,N,12136.2208,W,1,09,1.0,12.0,M,-32.3,M,,*6F
$PYRTM,2024,124.254921439421,15.364568849560
$GPGGA,060703.00,3514.1086,N,12136.2212,W,1,09,1.0,14.0,M,-32.3,M,,*66
$PYRTM,2024,124.254932551609,15.364579961748
$GPGGA,060704.00,3514.1095,N,12136.2212,W,1,09,1.0,13.0,M,-32.3,M,,*64
$PYRTM,2024,124.254943661435,15.364591071574
$GPGGA,060705.00,3514.1109,N,12136.2211,W,1,09,1.0,10.8,M,-32.3,M,,*69
$PYRTM,2024,124.254954772616,15.364602182755
$GPGGA,060706.00,3514.1118,N,12136.2214,W,1,09,1.0,11.9,M,-32.3,M,,*6F
$PYRTM,2024,124.254965883414,15.364613293553
$GPGGA,060707.00,3514.1124,N,12136.2219,W,1,09,1.0,13.6,M,-32.3,M,,*61
$PYRTM,2024,124.254977005243,15.364624415382
$GPGGA,060708.00,3514.1132,N,12136.2224,W,1,09,1.0,13.6,M,-32.3,M,,*67
$PYRTM,2024,124.254988105914,15.364635516053
$GPGGA,060709.00,3514.1142,N,12136.2228,W,1,09,1.0,12.6,M,-32.3,M,,*6C
$PYRTM,2024,124.254999216678,15.364646626817
$GPGGA,060710.00,3514.1152,N,12136.2227,W,1,09,1.0,12.4,M,-32.3,M,,*68
$PYRTM,2024,124.255010327269,15.364657737407
$GPGGA,060711.00,3514.1161,N,12136.2227,W,1,09,1.0,14.1,M,-32.3,M,,*6A
$PYRTM,2024,124.255021439444,15.364668849583
$GPGGA,060712.00,3514.1169,N,12136.2230,W,1,09,1.0,16.3,M,-32.3,M,,*67
$PYRTM,2024,124.255031292639,15.364678702789
$GPGGA,060713.00,3514.1177,N,12136.2235,W,1,09,1.0,15.1,M,-32.3,M,,*6D
$PYRTM,2024,124.255042620926,15.364690031065
$GPGGA,060714.00,3514.1184,N,12136.2239,W,1,09,1.0,16.6,M,-32.3,M,,*6E
$PYRTM,2024,124.255055243843,15.364702653993
$GPGGA,060715.00,3514.1193,N,12136.2241,W,1,09,1.0,14.0,M,-32.3,M,,*62
$PYRTM,2024,124.255066810127,15.364714220266
$GPGGA,060716.00,3514.1202,N,12136.2242,W,1,09,1.0,12.3,M,-32.3,M,,*6C
$PYRTM,2024,124.255078398449,15.364725808588
$GPGGA,060717.00,3514.1209,N,12136.2245,W,1,09,1.0,14.3,M,-32.3,M,,*67
$PYRTM,2024,124.255089957894,15.364737368032
$GPGGA,060718.00,3514.1214,N,12136.2249,W,1,09,1.0,13.1,M,-32.3,M,,*6D
$PYRTM,2024,124.255101548438,15.364748958576
$GPGGA,060719.00,3514.1223,N,12136.2253,W,1,09,1.0,12.3,M,-32.3,M,,*60
$PYRTM,2024,124.255113108727,15.364760518866
$GPGGA,060720.00,3514.1234,N,12136.2256,W,1,09,1.0,13.6,M,-32.3,M,,*6D
$PYRTM,2024,124.255124696192,15.364772106343
$GPGGA,060721.00,3514.1245,N,12136.2263,W,1,09,1.0,11.9,M,-32.3,M,,*61
$PYRTM,2024,124.255136254757,15.364783664896
$GPGGA,060722.00,3514.1253,N,12136.2269,W,1,09,1.0,10.3,M,-32.3,M,,*64
$PYRTM,2024,124.255147855845,15.364795265995
$GPGGA,060723.00,3514.1260,N,12136.2271,W,1,09,1.0,14.0,M,-32.3,M,,*6B
$PYRTM,2024,124.255159404572,15.364806814711
$GPGGA,060724.00,3514.1271,N,12136.2271,W,1,09,1.0,12.3,M,-32.3,M,,*69
$PYRTM,2024,124.255170991875,15.364818402014
$GPGGA,060725.00,3514.1284,N,12136.2273,W,1,09,1.0,11.3,M,-32.3,M,,*63
$PYRTM,2024,124.255182553310,15.364829963449
$GPGGA,060726.00,3514.1296,N,12136.2277,W,1,09,1.0,8.8,M,-32.3,M,,*54
$PYRTM,2024,124.255194139005,15.364841549144
$GPGGA,060727.00,3514.1304,N,12136.2284,W,1,09,1.0,8.5,M,-32.3,M,,*5E
$PYRTM,2024,124.255205701470,15.364853111620
$GPGGA,060728.00,3514.1310,N,12136.2292,W,1,09,1.0,9.1,M,-32.3,M,,*56
$PYRTM,2024,124.255217281632,15.364864691771
$GPGGA,060729.00,3514.1317,N,12136.2297,W,1,09,1.0,9.1,M,-32.3,M,,*55
$PYRTM,2024,124.255228849792,15.364876259942
$GPGGA,060730.00,3514.1328,N,12136.2296,W,1,09,1.0,9.1,M,-32.3,M,,*50
$PYRTM,2024,124.255240436794,15.364887846933
$GPGGA,060731.00,3514.1341,N,12136.2296,W,1,09,1.0,8.2,M,-32.3,M,,*5C
$PYRTM,2024,124.255251994988,15.364899405127
$GPGGA,060732.00,3514.1350,N,12136.2303,W,1,09,1.0,9.5,M,-32.3,M,,*54
$PYRTM,2024,124.255263587894,15.364910998032
$GPGGA,060733.00,3514.1356,N,12136.2315,W,1,09,1.0,7.7,M,-32.3,M,,*58
$PYRTM,2024,124.255275144884,15.364922555023
$GPGGA,060734.00,3514.1362,N,12136.2322,W,1,09,1.0,8.1,M,-32.3,M,,*55
$PYRTM,2024,124.255286735162,15.364934145301
$GPGGA,060735.00,3514.1370,N,12136.2321,W,1,09,1.0,12.1,M,-32.3,M,,*6F
$PYRTM,2024,124.255298293669,15.364945703808
$GPGGA,060736.00,3514.1380,N,12136.2319,W,1,09,1.0,9.5,M,-32.3,M,,*56
$PYRTM,2024,124.255309875382,15.364957285521
$GPGGA,060737.00,3514.1392,N,12136.2322,W,1,09,1.0,8.5,M,-32.3,M,,*5D
$PYRTM,2024,124.255321441597,15.364968851736
$GPGGA,060738.00,3514.1400,N,12136.2332,W,1,09,1.0,8.4,M,-32.3,M,,*5E
$PYRTM,2024,124.255333022627,15.364980432766
$GPGGA,060739.00,3514.1406,N,12136.2339,W,1,09,1.0,10.3,M,-32.3,M,,*6C
$PYRTM,2024,124.255344589907,15.364992000046
$GPGGA,060740.00,3514.1414,N,12136.2340,W,1,09,1.0,12.0,M,-32.3,M,,*6E
$PYRTM,2024,124.255356179097,15.365003589236
$GPGGA,060741.00,3514.1424,N,12136.2338,W,1,09,1.0,13.3,M,-32.3,M,,*61
$PYRTM,2024,124.255367736829,15.365015146968
$GPGGA,060742.00,3514.1435,N,12136.2339,W,1,09,1.0,11.4,M,-32.3,M,,*66
$PYRTM,2024,124.255378039317,15.365025449456
$GPGGA,060743.00,3514.1441,N,12136.2345,W,1,09,1.0,12.5,M,-32.3,M,,*6D
$PYRTM,2024,124.255389845231,15.365037255370
$GPGGA,060744.00,3514.1447,N,12136.2350,W,1,09,1.0,13.6,M,-32.3,M,,*6A
$PYRTM,2024,124.255402472674,15.365049882824
$GPGGA,060745.00,3514.1457,N,12136.2354,W,1,09,1.0,12.3,M,-32.3,M,,*6A
$PYRTM,2024,124.255414034375,15.365061444514
$GPGGA,060746.00,3514.1469,N,12136.2358,W,1,09,1.0,11.1,M,-32.3,M,,*69
$PYRTM,2024,124.255425621921,15.365073032060
$GPGGA,060747.00,3514.1478,N,12136.2363,W,1,09,1.0,12.2,M,-32.3,M,,*60
$PYRTM,2024,124.255437182095,15.365084592234
$GPGGA,060748.00,3514.1487,N,12136.2365,W,1,09,1.0,10.5,M,-32.3,M,,*6C
$PYRTM,2024,124.255448771771,15.365096181910
$GPGGA,060749.00,3514.1497,N,12136.2366,W,1,09,1.0,9.4,M,-32.3,M,,*56
$PYRTM,2024,124.255460330000,15.365107740139
$GPGGA,060750.00,3514.1506,N,12136.2369,W,1,09,1.0,10.3,M,-32.3,M,,*67
$PYRTM,2024,124.255471930961,15.365119341100
$GPGGA,060751.00,3514.1516,N,12136.2377,W,1,09,1.0,10.6,M,-32.3,M,,*6D
$PYRTM,2024,124.255483478970,15.365130889109
$GPGGA,060752.00,3514.1527,N,12136.2382,W,1,09,1.0,9.5,M,-32.3,M,,*5D
$PYRTM,2024,124.255495066042,15.365142476181
$GPGGA,060753.00,3514.1538,N,12136.2384,W,1,09,1.0,9.0,M,-32.3,M,,*51
$PYRTM,2024,124.255506627350,15.365154037488
$GPGGA,060754.00,3514.1548,N,12136.2384,W,1,09,1.0,12.5,M,-32.3,M,,*6E
$PYRTM,2024,124.255518215440,15.365165625590
$GPGGA,060755.00,3514.1555,N,12136.2387,W,1,09,1.0,13.8,M,-32.3,M,,*6C
$PYRTM,2024,124.255529774896,15.365177185023
$GPGGA,060756.00,3514.1565,N,12136.2395,W,1,09,1.0,13.3,M,-32.3,M,,*64
$PYRTM,2024,124.255541363623,15.365188773762
$GPGGA,060757.00,3514.1578,N,12136.2403,W,1,09,1.0,10.7,M,-32.3,M,,*66
$PYRTM,2024,124.255552925301,15.365200335451
$GPGGA,060758.00,3514.1591,N,12136.2407,W,1,09,1.0,10.1,M,-32.3,M,,*6C
$PYRTM,2024,124.255564510544,15.365211920683
$GPGGA,060759.00,3514.1601,N,12136.2407,W,1,09,1.0,11.9,M,-32.3,M,,*6E
$PYRTM,2024,124.255576072025,15.365223482164
$GPGGA,060800.00,3514.1607,N,12136.2408,W,1,09,1.0,13.5,M,-32.3,M,,*6A
$PYRTM,2024,124.255587654468,15.365235064606
$GPGGA,060801.00,3514.1615,N,12136.2411,W,1,09,1.0,14.8,M,-32.3,M,,*6A
$PYRTM,2024,124.255599220208,15.365246630347
$GPGGA,060802.00,3514.1626,N,12136.2415,W,1,09,1.0,12.0,M,-32.3,M,,*63
$PYRTM,2024,124.255610811146,15.365258221285
$GPGGA,060803.00,3514.1637,N,12136.2422,W,1,09,1.0,10.9,M,-32.3,M,,*6D
$PYRTM,2024,124.255622368287,15.365269778426
$GPGGA,060804.00,3514.1645,N,12136.2428,W,1,09,1.0,9.5,M,-32.3,M,,*51
$PYRTM,2024,124.255633955150,15.365281365289
$GPGGA,060805.00,3514.1651,N,12136.2432,W,1,09,1.0,11.5,M,-32.3,M,,*67
$PYRTM,2024,124.255645517396,15.365292927535
$GPGGA,060806.00,3514.1658,N,12136.2435,W,1,09,1.0,11.9,M,-32.3,M,,*66
$PYRTM,2024,124.255657099086,15.365304509225
$GPGGA,060807.00,3514.1670,N,12136.2438,W,1,09,1.0,9.3,M,-32.3,M,,*53
$PYRTM,2024,124.255668665625,15.365316075764
$GPGGA,060808.00,3514.1683,N,12136.2443,W,1,09,1.0,10.9,M,-32.3,M,,*6E
$PYRTM,2024,124.255680253727,15.365327663866
$GPGGA,060809.00,3514.1690,N,12136.2448,W,1,09,1.0,12.5,M,-32.3,M,,*68
$PYRTM,2024,124.255691813183,15.365339223322
$GPGGA,060810.00,3514.1697,N,12136.2451,W,1,09,1.0,14.3,M,-32.3,M,,*6F
$PYRTM,2024,124.255703400556,15.365350810694
$GPGGA,060811.00,3514.1708,N,12136.2454,W,1,09,1.0,13.8,M,-32.3,M,,*60
$PYRTM,2024,124.255714961898,15.365362372037
$GPGGA,060812.00,3514.1718,N,12136.2457,W,1,09,1.0,11.3,M,-32.3,M,,*68
$PYRTM,2024,124.255725260486,15.365372670625
$GPGGA,060813.00,3514.1726,N,12136.2458,W,1,09,1.0,13.5,M,-32.3,M,,*6F
$PYRTM,2024,124.255737069931,15.365384480069
$GPGGA,060814.00,3514.1733,N,12136.2462,W,1,09,1.0,12.8,M,-32.3,M,,*69
$PYRTM,2024,124.255749697558,15.365397107697
$GPGGA,060815.00,3514.1740,N,12136.2466,W,1,09,1.0,12.7,M,-32.3,M,,*67
$PYRTM,2024,124.255761258692,15.365408668831
$GPGGA,060816.00,3514.1752,N,12136.2469,W,1,09,1.0,10.5,M,-32.3,M,,*68
$PYRTM,2024,124.255772848426,15.365420258565
$GPGGA,060817.00,3514.1763,N,12136.2472,W,1,09,1.0,9.3,M,-32.3,M,,*5F
$PYRTM,2024,124.255784407604,15.365431817743
$GPGGA,060818.00,3514.1769,N,12136.2477,W,1,09,1.0,11.6,M,-32.3,M,,*63
$PYRTM,2024,124.255795997326,15.365443407465
$GPGGA,060819.00,3514.1776,N,12136.2484,W,1,09,1.0,11.0,M,-32.3,M,,*66
$PYRTM,2024,124.255807555417,15.365454965556
$GPGGA,060820.00,3514.1786,N,12136.2488,W,1,09,1.0,11.7,M,-32.3,M,,*68
$PYRTM,2024,124.255819141875,15.365466552014
$GPGGA,060821.00,3514.1796,N,12136.2488,W,1,09,1.0,12.2,M,-32.3,M,,*6E
$PYRTM,2024,124.255830703218,15.365478113356
$GPGGA,060822.00,3514.1805,N,12136.2489,W,1,09,1.0,12.6,M,-32.3,M,,*6D
$PYRTM,2024,124.255842290069,15.365489700220
$GPGGA,060823.00,3514.1813,N,12136.2494,W,1,09,1.0,12.8,M,-32.3,M,,*69
$PYRTM,2024,124.255853851968,15.365501262106
$GPGGA,060824.00,3514.1822,N,12136.2502,W,1,09,1.0,10.7,M,-32.3,M,,*6F
$PYRTM,2024,124.255865440683,15.365512850822
$GPGGA,060825.00,3514.1831,N,12136.2508,W,1,09,1.0,9.9,M,-32.3,M,,*50
$PYRTM,2024,124.255877001111,15.365524411250
$GPGGA,060826.00,3514.1838,N,12136.2510,W,1,09,1.0,10.8,M,-32.3,M,,*6A
$PYRTM,2024,124.255888587245,15.365535997396
$GPGGA,060827.00,3514.1848,N,12136.2510,W,1,09,1.0,11.3,M,-32.3,M,,*66
$PYRTM,2024,124.255900148588,15.365547558727
$GPGGA,060828.00,3514.1860,N,12136.2512,W,1,09,1.0,11.8,M,-32.3,M,,*6A
$PYRTM,2024,124.255911738773,15.365559148924
$GPGGA,060829.00,3514.1869,N,12136.2518,W,1,09,1.0,10.4,M,-32.3,M,,*65
$PYRTM,2024,124.255923296169,15.365570706308
$GPGGA,060830.00,3514.1877,N,12136.2525,W,1,09,1.0,9.8,M,-32.3,M,,*58
$PYRTM,2024,124.255934886956,15.365582297095
$GPGGA,060831.00,3514.1886,N,12136.2529,W,1,09,1.0,10.3,M,-32.3,M,,*68
$PYRTM,2024,124.255946446019,15.365593856157
$GPGGA,060832.00,3514.1896,N,12136.2531,W,1,09,1.0,11.6,M,-32.3,M,,*67
$PYRTM,2024,124.255958034803,15.365605444942
$GPGGA,060833.00,3514.1904,N,12136.2531,W,1,09,1.0,11.0,M,-32.3,M,,*6A
$PYRTM,2024,124.255969593206,15.365617003345
$GPGGA,060834.00,3514.1912,N,12136.2533,W,1,09,1.0,10.8,M,-32.3,M,,*61
$PYRTM,2024,124.255981175903,15.365628586042
$GPGGA,060835.00,3514.1922,N,12136.2535,W,1,09,1.0,10.9,M,-32.3,M,,*64
$PYRTM,2024,124.255992742569,15.365640152708
$GPGGA,060836.00,3514.1933,N,12136.2541,W,1,09,1.0,8.4,M,-32.3,M,,*50
$PYRTM,2024,124.256004328183,15.365651738322
