$PYRTM,2024,126.083338283414,17.192985693553
$GPGGA,015959.00,3437.1765,N,12124.3286,W,1,08,1.3,10.2,M,-33.6,M,,*60
$PYRTM,2024,126.083349393368,17.192996803507
$GPGGA,020000.00,3437.1753,N,12124.3263,W,1,08,1.3,10.2,M,-33.6,M,,*6D
$PYRTM,2024,126.083360505289,17.193007915428
$GPGGA,020001.00,3437.1743,N,12124.3240,W,1,08,1.3,10.0,M,-33.6,M,,*6E
$PYRTM,2024,126.083372063588,17.193019473727
$GPGGA,020002.00,3437.1732,N,12124.3216,W,1,08,1.3,8.2,M,-33.6,M,,*53
$PYRTM,2024,126.083383174560,17.193030584711
$GPGGA,020003.00,3437.1718,N,12124.3194,W,1,08,1.3,8.1,M,-33.6,M,,*50
$PYRTM,2024,126.083394763808,17.193042173947
$GPGGA,020004.00,3437.1705,N,12124.3172,W,1,08,1.3,6.0,M,-33.6,M,,*5C
$PYRTM,2024,126.083406322500,17.193053732639
$GPGGA,020005.00,3437.1695,N,12124.3148,W,1,08,1.3,8.5,M,-33.6,M,,*57
$PYRTM,2024,126.083417913750,17.193065323889
$GPGGA,020006.00,3437.1686,N,12124.3123,W,1,08,1.3,9.7,M,-33.6,M,,*58
$PYRTM,2024,126.083429471736,17.193076881875
$GPGGA,020007.00,3437.1676,N,12124.3098,W,1,08,1.3,8.4,M,-33.6,M,,*55
$PYRTM,2024,126.083441154722,17.193088564861
$GPGGA,020008.00,3437.1661,N,12124.3074,W,1,08,1.3,8.6,M,-33.6,M,,*5C
$PYRTM,2024,126.083452626632,17.193100036771
$GPGGA,020009.00,3437.1644,N,12124.3052,W,1,08,1.3,7.3,M,-33.6,M,,*54
$PYRTM,2024,126.083464206632,17.193111616771
$GPGGA,020010.00,3437.1629,N,12124.3031,W,1,08,1.3,8.2,M,-33.6,M,,*5C
$PYRTM,2024,126.083475780116,17.193123190266
$GPGGA,020011.00,3437.1617,N,12124.3008,W,1,08,1.0,8.0,M,-33.6,M,,*5B
$PYRTM,2024,126.083492665463,17.193140075602
$GPGGA,020012.00,3437.1608,N,12124.2984,W,1,08,1.0,7.8,M,-33.6,M,,*5D
$PYRTM,2024,126.083504255532,17.193151665683
$GPGGA,020013.00,3437.1597,N,12124.2960,W,1,08,1.0,9.0,M,-33.6,M,,*55
$PYRTM,2024,126.083515815752,17.193163225891
$GPGGA,020014.00,3437.1584,N,12124.2937,W,1,08,1.0,9.2,M,-33.6,M,,*50
$PYRTM,2024,126.083527404398,17.193174814537
$GPGGA,020015.00,3437.1572,N,12124.2917,W,1,08,1.0,8.7,M,-33.6,M,,*5E
$PYRTM,2024,126.083538963484,17.193186373623
$GPGGA,020016.00,3437.1559,N,12124.2895,W,1,08,1.0,7.0,M,-33.6,M,,*57
$PYRTM,2024,126.083550552222,17.193197962373
$GPGGA,020017.00,3437.1546,N,12124.2871,W,1,08,1.0,7.0,M,-33.6,M,,*52
$PYRTM,2024,126.083562110810,17.193209520949
$GPGGA,020018.00,3437.1533,N,12124.2847,W,1,08,1.0,8.6,M,-33.6,M,,*53
$PYRTM,2024,126.083573697512,17.193221107650
$GPGGA,020019.00,3437.1521,N,12124.2822,W,1,08,1.0,8.8,M,-33.6,M,,*5C
$PYRTM,2024,126.083585258125,17.193232668264
$GPGGA,020020.00,3437.1508,N,12124.2798,W,1,08,1.0,10.3,M,-33.6,M,,*61
$PYRTM,2024,126.083596846250,17.193244256389
$GPGGA,020021.00,3437.1494,N,12124.2774,W,1,08,1.0,11.1,M,-33.6,M,,*65
$PYRTM,2024,126.083608406898,17.193255817037
$GPGGA,020022.00,3437.1480,N,12124.2751,W,1,08,1.0,10.5,M,-33.6,M,,*61
$PYRTM,2024,126.083619995671,17.193267405810
$GPGGA,020023.00,3437.1467,N,12124.2728,W,1,08,1.0,10.9,M,-33.6,M,,*6B
$PYRTM,2024,126.083631554572,17.193278964711
$GPGGA,020024.00,3437.1456,N,12124.2703,W,1,08,1.0,10.6,M,-33.6,M,,*68
$PYRTM,2024,126.083643142338,17.193290552477
$GPGGA,020025.00,3437.1446,N,12124.2680,W,1,08,1.0,9.4,M,-33.6,M,,*58
$PYRTM,2024,126.083654704074,17.193302114213
$GPGGA,020026.00,3437.1435,N,12124.2657,W,1,08,1.0,10.1,M,-33.6,M,,*68
$PYRTM,2024,126.083666292014,17.193313702153
$GPGGA,020027.00,3437.1422,N,12124.2634,W,1,08,1.0,8.4,M,-33.6,M,,*56
$PYRTM,2024,126.083677851875,17.193325262025
$GPGGA,020028.00,3437.1406,N,12124.2613,W,1,08,1.0,8.2,M,-33.6,M,,*5C
$PYRTM,2024,126.083689453009,17.193336863148
$GPGGA,020029.00,3437.1391,N,12124.2591,W,1,08,1.0,10.7,M,-33.6,M,,*61
$PYRTM,2024,126.083701000174,17.193348410324
$GPGGA,020030.00,3437.1379,N,12124.2569,W,1,08,1.0,13.1,M,-33.6,M,,*6D
$PYRTM,2024,126.083712601991,17.193360012130
$GPGGA,020031.00,3437.1370,N,12124.2544,W,1,08,1.0,10.7,M,-33.6,M,,*6F
$PYRTM,2024,126.083724148275,17.193371558414
$GPGGA,020032.00,3437.1358,N,12124.2518,W,1,08,1.0,12.4,M,-33.6,M,,*6E
$PYRTM,2024,126.083735739282,17.193383149433
$GPGGA,020033.00,3437.1344,N,12124.2494,W,1,08,1.3,11.3,M,-33.6,M,,*60
$PYRTM,2024,126.083747296968,17.193394707106
$GPGGA,020034.00,3437.1329,N,12124.2470,W,1,08,1.3,11.5,M,-33.6,M,,*60
$PYRTM,2024,126.083758885625,17.193406295764
$GPGGA,020035.00,3437.1318,N,12124.2446,W,1,08,1.3,11.5,M,-33.6,M,,*66
$PYRTM,2024,126.083770445185,17.193417855336
$GPGGA,020036.00,3437.1309,N,12124.2420,W,1,08,1.3,9.4,M,-33.6,M,,*5D
$PYRTM,2024,126.083782033947,17.193429444086
$GPGGA,020037.00,3437.1299,N,12124.2394,W,1,08,1.3,10.9,M,-33.6,M,,*69
$PYRTM,2024,126.083793594039,17.193441004178
$GPGGA,020038.00,3437.1286,N,12124.2370,W,1,08,1.3,10.9,M,-33.6,M,,*62
$PYRTM,2024,126.083805412905,17.193452823056
$GPGGA,020039.00,3437.1272,N,12124.2347,W,1,08,1.0,10.2,M,-33.6,M,,*64
$PYRTM,2024,126.083816741968,17.193464152106
$GPGGA,020040.00,3437.1260,N,12124.2324,W,1,08,1.3,13.3,M,-33.6,M,,*6D
$PYRTM,2024,126.083828324699,17.193475734838
$GPGGA,020041.00,3437.1248,N,12124.2300,W,1,08,1.3,9.9,M,-33.6,M,,*51
$PYRTM,2024,126.083838513576,17.193485923715
$GPGGA,020042.00,3437.1237,N,12124.2276,W,1,08,1.0,9.6,M,-33.6,M,,*56
$PYRTM,2024,126.083850437847,17.193497847986
$GPGGA,020043.00,3437.1224,N,12124.2251,W,1,08,1.3,10.2,M,-33.6,M,,*6F
$PYRTM,2024,126.083863040324,17.193510450463
$GPGGA,020044.00,3437.1210,N,12124.2228,W,1,08,1.3,9.6,M,-33.6,M,,*5D
$PYRTM,2024,126.083874639074,17.193522049213
$GPGGA,020045.00,3437.1198,N,12124.2202,W,1,08,1.3,6.8,M,-33.6,M,,*56
$PYRTM,2024,126.083886186678,17.193533596817
$GPGGA,020046.00,3437.1187,N,12124.2175,W,1,08,1.3,8.1,M,-33.6,M,,*5F
$PYRTM,2024,126.083897773125,17.193545183264
$GPGGA,020047.00,3437.1175,N,12124.2147,W,1,08,1.3,6.4,M,-33.6,M,,*59
$PYRTM,2024,126.083909338553,17.193556748692
$GPGGA,020048.00,3437.1161,N,12124.2122,W,1,08,1.3,6.1,M,-33.6,M,,*55
$PYRTM,2024,126.083920921551,17.193568331690
$GPGGA,020049.00,3437.1147,N,12124.2097,W,1,08,1.3,9.2,M,-33.6,M,,*53
$PYRTM,2024,126.083932483044,17.193579893183
$GPGGA,020050.00,3437.1133,N,12124.2073,W,1,08,1.3,11.2,M,-33.6,M,,*6B
$PYRTM,2024,126.083944069178,17.193591479317
$GPGGA,020051.00,3437.1120,N,12124.2048,W,1,08,1.3,10.3,M,-33.6,M,,*60
$PYRTM,2024,126.083956005116,17.193603415255
$GPGGA,020052.00,3437.1109,N,12124.2023,W,1,08,1.3,12.2,M,-33.6,M,,*66
$PYRTM,2024,126.083967217928,17.193614628067
$GPGGA,020053.00,3437.1096,N,12124.2000,W,1,08,1.3,11.6,M,-33.6,M,,*66
$PYRTM,2024,126.083978778484,17.193626188623
$GPGGA,020054.00,3437.1083,N,12124.1978,W,1,08,1.3,8.1,M,-33.6,M,,*5F
$PYRTM,2024,126.083990368715,17.193637778866
$GPGGA,020055.00,3437.1071,N,12124.1954,W,1,08,1.3,5.2,M,-33.6,M,,*53
$PYRTM,2024,126.084001929549,17.193649339699
$GPGGA,020056.00,3437.1059,N,12124.1930,W,1,08,1.3,5.3,M,-33.6,M,,*59
$PYRTM,2024,126.084013514421,17.193660924560
$GPGGA,020057.00,3437.1048,N,12124.1906,W,1,08,1.3,3.3,M,-33.6,M,,*5B
$PYRTM,2024,126.084025075880,17.193672486019
$GPGGA,020058.00,3437.1035,N,12124.1881,W,1,08,1.3,3.8,M,-33.6,M,,*5B
$PYRTM,2024,126.084036666377,17.193684076516
$GPGGA,020059.00,3437.1022,N,12124.1854,W,1,08,1.3,3.8,M,-33.6,M,,*54
$PYRTM,2024,126.084047183125,17.193694593264
$GPGGA,020100.00,3437.1010,N,12124.1827,W,1,08,1.3,4.9,M,-33.6,M,,*5A
$PYRTM,2024,126.084059817350,17.193707227488
$GPGGA,020101.00,3437.0996,N,12124.1801,W,1,08,1.3,4.4,M,-33.6,M,,*54
$PYRTM,2024,126.084071372049,17.193718782199
$GPGGA,020102.00,3437.0982,N,12124.1777,W,1,08,1.3,3.5,M,-33.6,M,,*5A
$PYRTM,2024,126.084082962755,17.193730372894
$GPGGA,020103.00,3437.0968,N,12124.1754,W,1,08,1.3,4.8,M,-33.6,M,,*54
$PYRTM,2024,126.084094522315,17.193741932465
$GPGGA,020104.00,3437.0958,N,12124.1730,W,1,08,1.3,4.5,M,-33.6,M,,*5F
$PYRTM,2024,126.084106109317,17.193753519468
$GPGGA,020105.00,3437.0949,N,12124.1705,W,1,08,1.3,5.0,M,-33.6,M,,*5C
$PYRTM,2024,126.084117669491,17.193765079630
$GPGGA,020106.00,3437.0939,N,12124.1682,W,1,08,1.3,4.2,M,-33.6,M,,*55
$PYRTM,2024,126.084129257407,17.193776667546
$GPGGA,020107.00,3437.0925,N,12124.1661,W,1,08,1.3,4.3,M,-33.6,M,,*55
$PYRTM,2024,126.084140817813,17.193788227951
$GPGGA,020108.00,3437.0912,N,12124.1640,W,1,08,1.3,4.5,M,-33.6,M,,*5B
$PYRTM,2024,126.084152405498,17.193799815648
$GPGGA,020109.00,3437.0901,N,12124.1616,W,1,08,1.3,5.6,M,-33.6,M,,*59
$PYRTM,2024,126.084163966296,17.193811376435
$GPGGA,020110.00,3437.0891,N,12124.1590,W,1,08,1.3,6.0,M,-33.6,M,,*51
$PYRTM,2024,126.084175567257,17.193822977396
$GPGGA,020111.00,3437.0879,N,12124.1564,W,1,08,1.3,7.0,M,-33.6,M,,*5C
$PYRTM,2024,126.084185738356,17.193833148495
$GPGGA,020112.00,3437.0864,N,12124.1539,W,1,08,1.3,8.9,M,-33.6,M,,*5D
$PYRTM,2024,126.084197677500,17.193845087639
$GPGGA,020113.00,3437.0848,N,12124.1515,W,1,08,1.3,9.9,M,-33.6,M,,*5D
$PYRTM,2024,126.084210262350,17.193857672488
$GPGGA,020114.00,3437.0835,N,12124.1491,W,1,08,1.3,10.5,M,-33.6,M,,*69
$PYRTM,2024,126.084221854618,17.193869264757
$GPGGA,020115.00,3437.0822,N,12124.1466,W,1,08,1.3,12.0,M,-33.6,M,,*61
$PYRTM,2024,126.084233412558,17.193880822697
$GPGGA,020116.00,3437.0811,N,12124.1442,W,1,08,1.3,10.1,M,-33.6,M,,*67
$PYRTM,2024,126.084244997338,17.193892407488
$GPGGA,020117.00,3437.0798,N,12124.1420,W,1,08,1.3,9.2,M,-33.6,M,,*57
$PYRTM,2024,126.084256561586,17.193903971725
$GPGGA,020118.00,3437.0785,N,12124.1401,W,1,08,1.3,8.7,M,-33.6,M,,*53
$PYRTM,2024,126.084268141736,17.193915551887
$GPGGA,020119.00,3437.0775,N,12124.1380,W,1,08,1.3,8.7,M,-33.6,M,,*53
$PYRTM,2024,126.084279708634,17.193927118785
$GPGGA,020120.00,3437.0768,N,12124.1357,W,1,08,1.3,11.2,M,-33.6,M,,*62
$PYRTM,2024,126.084291295012,17.193938705150
$GPGGA,020121.00,3437.0758,N,12124.1333,W,1,08,1.3,11.6,M,-33.6,M,,*66
$PYRTM,2024,126.084302857766,17.193950267917
$GPGGA,020122.00,3437.0744,N,12124.1309,W,1,08,1.3,11.7,M,-33.6,M,,*60
$PYRTM,2024,126.084314442859,17.193961852998
$GPGGA,020123.00,3437.0730,N,12124.1287,W,1,08,1.3,11.4,M,-33.6,M,,*66
$PYRTM,2024,126.084326005336,17.193973415475
$GPGGA,020124.00,3437.0715,N,12124.1263,W,1,08,1.3,12.5,M,-33.6,M,,*6E
$PYRTM,2024,126.084337591887,17.193985002025
$GPGGA,020125.00,3437.0702,N,12124.1236,W,1,08,1.3,11.8,M,-33.6,M,,*67
$PYRTM,2024,126.084349153924,17.193996564074
$GPGGA,020126.00,3437.0690,N,12124.1208,W,1,08,1.3,11.2,M,-33.6,M,,*69
$PYRTM,2024,126.084360742315,17.194008152454
$GPGGA,020127.00,3437.0676,N,12124.1181,W,1,08,1.3,10.5,M,-33.6,M,,*64
$PYRTM,2024,126.084372303160,17.194019713299
$GPGGA,020128.00,3437.0661,N,12124.1158,W,1,08,1.3,7.6,M,-33.6,M,,*5C
$PYRTM,2024,126.084383882558,17.194031292697
$GPGGA,020129.00,3437.0645,N,12124.1134,W,1,08,1.3,7.0,M,-33.6,M,,*57
$PYRTM,2024,126.084395449167,17.194042859306
$GPGGA,020130.00,3437.0632,N,12124.1111,W,1,08,1.3,8.1,M,-33.6,M,,*56
$PYRTM,2024,126.084407030764,17.194054440903
$GPGGA,020131.00,3437.0623,N,12124.1088,W,1,08,1.3,9.7,M,-33.6,M,,*51
$PYRTM,2024,126.084418597176,17.194066007315
$GPGGA,020132.00,3437.0614,N,12124.1068,W,1,08,1.3,7.5,M,-33.6,M,,*54
$PYRTM,2024,126.084430185000,17.194077595139
$GPGGA,020133.00,3437.0604,N,12124.1048,W,1,08,1.3,6.4,M,-33.6,M,,*56
$PYRTM,2024,126.084441746424,17.194089156563
$GPGGA,020134.00,3437.0594,N,12124.1024,W,1,08,1.3,6.7,M,-33.6,M,,*52
$PYRTM,2024,126.084453327766,17.194100737905
$GPGGA,020135.00,3437.0581,N,12124.0999,W,1,08,1.3,10.1,M,-33.6,M,,*68
$PYRTM,2024,126.084464893843,17.194112303981
$GPGGA,020136.00,3437.0566,N,12124.0974,W,1,08,1.3,10.3,M,-33.6,M,,*63
$PYRTM,2024,126.084476481574,17.194123891713
$GPGGA,020137.00,3437.0551,N,12124.0948,W,1,08,1.3,9.1,M,-33.6,M,,*53
$PYRTM,2024,126.084488043611,17.194135453750
$GPGGA,020138.00,3437.0537,N,12124.0920,W,1,08,1.3,11.5,M,-33.6,M,,*6F
$PYRTM,2024,126.084500194132,17.194147604271
$GPGGA,020139.00,3437.0523,N,12124.0893,W,1,08,1.3,8.3,M,-33.6,M,,*5C
$PYRTM,2024,126.084511777986,17.194159188125
$GPGGA,020140.00,3437.0509,N,12124.0868,W,1,08,1.3,7.0,M,-33.6,M,,*52
$PYRTM,2024,126.084523342523,17.194170752662
$GPGGA,020141.00,3437.0495,N,12124.0846,W,1,08,1.3,9.7,M,-33.6,M,,*52
$PYRTM,2024,126.084533884063,17.194181294201
$GPGGA,020142.00,3437.0484,N,12124.0823,W,1,08,1.3,9.3,M,-33.6,M,,*56
$PYRTM,2024,126.084545116007,17.194192526146
$GPGGA,020143.00,3437.0474,N,12124.0801,W,1,08,1.3,7.2,M,-33.6,M,,*57
$PYRTM,2024,126.084557488484,17.194204898623
$GPGGA,020144.00,3437.0461,N,12124.0779,W,1,08,1.3,9.1,M,-33.6,M,,*59
$PYRTM,2024,126.084569074873,17.194216485012
$GPGGA,020145.00,3437.0449,N,12124.0759,W,1,08,1.3,7.3,M,-33.6,M,,*5C
$PYRTM,2024,126.084580635185,17.194228045336
$GPGGA,020146.00,3437.0437,N,12124.0737,W,1,08,1.3,5.2,M,-33.6,M,,*5D
$PYRTM,2024,126.084592222303,17.194239632442
$GPGGA,020147.00,3437.0426,N,12124.0712,W,1,08,1.3,8.1,M,-33.6,M,,*55
$PYRTM,2024,126.084603784965,17.194251195104
$GPGGA,020148.00,3437.0414,N,12124.0684,W,1,08,1.3,8.5,M,-33.6,M,,*51
$PYRTM,2024,126.084615370220,17.194262780359
$GPGGA,020149.00,3437.0400,N,12124.0657,W,1,08,1.3,8.5,M,-33.6,M,,*5B
$PYRTM,2024,126.084626931042,17.194274341181
$GPGGA,020150.00,3437.0383,N,12124.0632,W,1,08,1.3,7.7,M,-33.6,M,,*51
$PYRTM,2024,126.084638513750,17.194285923889
$GPGGA,020151.00,3437.0365,N,12124.0610,W,1,08,1.3,9.8,M,-33.6,M,,*59
$PYRTM,2024,126.084650080579,17.194297490718
$GPGGA,020152.00,3437.0349,N,12124.0588,W,1,08,1.3,9.7,M,-33.6,M,,*59
$PYRTM,2024,126.084661668067,17.194309078206
$GPGGA,020153.00,3437.0336,N,12124.0565,W,1,08,1.3,8.2,M,-33.6,M,,*57
$PYRTM,2024,126.084673230706,17.194320640856
$GPGGA,020154.00,3437.0325,N,12124.0541,W,1,08,1.3,8.7,M,-33.6,M,,*51
$PYRTM,2024,126.084684818993,17.194332229132
$GPGGA,020155.00,3437.0315,N,12124.0517,W,1,08,1.3,7.6,M,-33.6,M,,*5E
$PYRTM,2024,126.084695450718,17.194342860856
$GPGGA,020156.00,3437.0305,N,12124.0494,W,1,08,1.3,9.1,M,-33.6,M,,*5F
$PYRTM,2024,126.084707372141,17.194354782280
$GPGGA,020157.00,3437.0295,N,12124.0469,W,1,08,1.3,9.0,M,-33.6,M,,*55
$PYRTM,2024,126.084718147940,17.194365558079
$GPGGA,020158.00,3437.0285,N,12124.0444,W,1,08,1.3,8.7,M,-33.6,M,,*52
$PYRTM,2024,126.084729263426,17.194376673565
$GPGGA,020159.00,3437.0272,N,12124.0420,W,1,08,1.3,9.6,M,-33.6,M,,*59
$PYRTM,2024,126.084740366898,17.194387777049
$GPGGA,020200.00,3437.0259,N,12124.0397,W,1,08,1.3,10.2,M,-33.6,M,,*68
$PYRTM,2024,126.084751497025,17.194398907164
$GPGGA,020201.00,3437.0245,N,12124.0376,W,1,08,1.3,10.5,M,-33.6,M,,*6C
$PYRTM,2024,126.084762703970,17.194410114109
$GPGGA,020202.00,3437.0232,N,12124.0354,W,1,08,1.3,12.3,M,-33.6,M,,*6B
$PYRTM,2024,126.084773821458,17.194421231609
$GPGGA,020203.00,3437.0221,N,12124.0331,W,1,08,1.3,10.5,M,-33.6,M,,*6F
$PYRTM,2024,126.084784933009,17.194432343148
$GPGGA,020204.00,3437.0211,N,12124.0307,W,1,08,1.3,10.9,M,-33.6,M,,*62
$PYRTM,2024,126.084796044294,17.194443454433
$GPGGA,020205.00,3437.0200,N,12124.0283,W,1,08,1.3,11.8,M,-33.6,M,,*6E
$PYRTM,2024,126.084813854560,17.194461264711
$GPGGA,020206.00,3437.0189,N,12124.0259,W,1,08,1.3,12.8,M,-33.6,M,,*6B
$PYRTM,2024,126.084824966019,17.194472376157
$GPGGA,020207.00,3437.0178,N,12124.0233,W,1,08,1.3,13.6,M,-33.6,M,,*67
$PYRTM,2024,126.084836089086,17.194483499225
$GPGGA,020208.00,3437.0167,N,12124.0207,W,1,08,1.3,13.3,M,-33.6,M,,*64
$PYRTM,2024,126.084847662500,17.194495072639
$GPGGA,020209.00,3437.0157,N,12124.0185,W,1,08,1.3,15.5,M,-33.6,M,,*6F
$PYRTM,2024,126.084858895440,17.194506305579
$GPGGA,020210.00,3437.0145,N,12124.0163,W,1,08,1.3,12.6,M,-33.6,M,,*68
$PYRTM,2024,126.084870002731,17.194517412870
$GPGGA,020211.00,3437.0132,N,12124.0140,W,1,08,1.3,11.9,M,-33.6,M,,*64
$PYRTM,2024,126.084885745775,17.194533155914
$GPGGA,020212.00,3437.0121,N,12124.0117,W,1,08,1.3,12.6,M,-33.6,M,,*6B
$PYRTM,2024,126.084896855556,17.194544265706
$GPGGA,020213.00,3437.0108,N,12124.0094,W,1,08,1.3,14.0,M,-33.6,M,,*6B
$PYRTM,2024,126.084907967824,17.194555377963
$GPGGA,020214.00,3437.0095,N,12124.0070,W,1,08,1.3,12.7,M,-33.6,M,,*62
$PYRTM,2024,126.084919192847,17.194566602986
$GPGGA,020215.00,3437.0081,N,12124.0048,W,1,08,1.3,11.8,M,-33.6,M,,*61
$PYRTM,2024,126.084930288866,17.194577699016
$GPGGA,020216.00,3437.0067,N,12124.0026,W,1,08,1.3,12.3,M,-33.6,M,,*6A
$PYRTM,2024,126.084941417060,17.194588827199
$GPGGA,020217.00,3437.0057,N,12124.0003,W,1,08,1.3,11.7,M,-33.6,M,,*68
$PYRTM,2024,126.084952513750,17.194599923889
$GPGGA,020218.00,3437.0047,N,12123.9978,W,1,08,1.3,8.3,M,-33.6,M,,*51
$PYRTM,2024,126.084963624259,17.194611034398
$GPGGA,020219.00,3437.0035,N,12123.9954,W,1,08,1.3,7.2,M,-33.6,M,,*55
$PYRTM,2024,126.084974747963,17.194622158102
$GPGGA,020220.00,3437.0022,N,12123.9932,W,1,08,1.3,8.1,M,-33.6,M,,*55
$PYRTM,2024,126.084985860498,17.194633270637
$GPGGA,020221.00,3437.0010,N,12123.9911,W,1,08,1.3,7.3,M,-33.6,M,,*59
$PYRTM,2024,126.084997305417,17.194644715556
$GPGGA,020222.00,3436.9999,N,12123.9888,W,1,08,1.3,8.1,M,-33.6,M,,*56
$PYRTM,2024,126.085008891921,17.194656302060
$GPGGA,020223.00,3436.9987,N,12123.9864,W,1,08,1.3,8.8,M,-33.6,M,,*53
$PYRTM,2024,126.085020453750,17.194667863900
$GPGGA,020224.00,3436.9974,N,12123.9838,W,1,08,1.3,9.7,M,-33.6,M,,*5F
$PYRTM,2024,126.085032039988,17.194679450127
$GPGGA,020225.00,3436.9961,N,12123.9814,W,1,08,1.3,10.0,M,-33.6,M,,*6B
$PYRTM,2024,126.085043602627,17.194691012766
$GPGGA,020226.00,3436.9948,N,12123.9791,W,1,08,1.3,10.1,M,-33.6,M,,*60
$PYRTM,2024,126.085055187697,17.194702597836
$GPGGA,020227.00,3436.9935,N,12123.9767,W,1,08,1.3,6.5,M,-33.6,M,,*51
$PYRTM,2024,126.085066749792,17.194714159931
$GPGGA,020228.00,3436.9923,N,12123.9744,W,1,08,1.3,5.5,M,-33.6,M,,*5B
$PYRTM,2024,126.085078339109,17.194725749248
$GPGGA,020229.00,3436.9912,N,12123.9722,W,1,08,1.3,5.4,M,-33.6,M,,*59
$PYRTM,2024,126.085089897176,17.194737307315
$GPGGA,020230.00,3436.9903,N,12123.9699,W,1,08,1.3,6.0,M,-33.6,M,,*57
$PYRTM,2024,126.085101486481,17.194748896620
$GPGGA,020231.00,3436.9892,N,12123.9675,W,1,08,1.3,6.4,M,-33.6,M,,*59
$PYRTM,2024,126.085113046366,17.194760456505
$GPGGA,020232.00,3436.9879,N,12123.9652,W,1,08,1.3,7.8,M,-33.6,M,,*57
$PYRTM,2024,126.085124648113,17.194772058264
$GPGGA,020233.00,3436.9863,N,12123.9628,W,1,08,1.3,7.2,M,-33.6,M,,*5A
$PYRTM,2024,126.085136194444,17.194783604595
$GPGGA,020234.00,3436.9851,N,12123.9602,W,1,08,1.3,10.7,M,-33.6,M,,*67
$PYRTM,2024,126.085147781493,17.194795191644
$GPGGA,020235.00,3436.9840,N,12123.9575,W,1,08,1.3,9.3,M,-33.6,M,,*59
$PYRTM,2024,126.085159342199,17.194806752350
$GPGGA,020236.00,3436.9827,N,12123.9550,W,1,08,1.3,8.4,M,-33.6,M,,*5A
$PYRTM,2024,126.085170929340,17.194818339479
$GPGGA,020237.00,3436.9814,N,12123.9526,W,1,08,1.3,7.1,M,-33.6,M,,*50
$PYRTM,2024,126.085182491134,17.194829901273
$GPGGA,020238.00,3436.9801,N,12123.9501,W,1,08,1.3,8.2,M,-33.6,M,,*52
$PYRTM,2024,126.085194078032,17.194841488171
$GPGGA,020239.00,3436.9790,N,12123.9477,W,1,08,1.3,6.7,M,-33.6,M,,*5F
$PYRTM,2024,126.085205639340,17.194853049479
$GPGGA,020240.00,3436.9778,N,12123.9454,W,1,08,1.3,7.3,M,-33.6,M,,*53
$PYRTM,2024,126.085217226678,17.194864636829
$GPGGA,020241.00,3436.9767,N,12123.9433,W,1,08,1.3,6.1,M,-33.6,M,,*5E
$PYRTM,2024,126.085227410961,17.194874821100
$GPGGA,020242.00,3436.9756,N,12123.9411,W,1,08,1.3,7.6,M,-33.6,M,,*59
$PYRTM,2024,126.085239335313,17.194886745451
$GPGGA,020243.00,3436.9745,N,12123.9388,W,1,08,1.3,6.2,M,-33.6,M,,*58
$PYRTM,2024,126.085251935069,17.194899345208
$GPGGA,020244.00,3436.9733,N,12123.9364,W,1,08,1.3,6.7,M,-33.6,M,,*59
$PYRTM,2024,126.085263525741,17.194910935880
$GPGGA,020245.00,3436.9719,N,12123.9338,W,1,08,1.3,8.8,M,-33.6,M,,*58
$PYRTM,2024,126.085275083507,17.194922493646
$GPGGA,020246.00,3436.9705,N,12123.9313,W,1,08,1.3,7.3,M,-33.6,M,,*5B
$PYRTM,2024,126.085286670775,17.194934080914
$GPGGA,020247.00,3436.9693,N,12123.9286,W,1,08,1.3,7.4,M,-33.6,M,,*5E
$PYRTM,2024,126.085298232442,17.194945642581
$GPGGA,020248.00,3436.9680,N,12123.9260,W,1,08,1.3,9.2,M,-33.6,M,,*53
$PYRTM,2024,126.085309818831,17.194957228970
$GPGGA,020249.00,3436.9667,N,12123.9234,W,1,08,1.3,6.4,M,-33.6,M,,*53
$PYRTM,2024,126.085321379873,17.194968790012
$GPGGA,020250.00,3436.9654,N,12123.9209,W,1,08,1.3,7.6,M,-33.6,M,,*56
$PYRTM,2024,126.085332967350,17.194980377488
$GPGGA,020251.00,3436.9642,N,12123.9184,W,1,08,1.3,8.7,M,-33.6,M,,*58
$PYRTM,2024,126.085344529468,17.194991939618
$GPGGA,020252.00,3436.9630,N,12123.9160,W,1,08,1.3,7.3,M,-33.6,M,,*5F
$PYRTM,2024,126.085356115336,17.195003525475
$GPGGA,020253.00,3436.9618,N,12123.9137,W,1,08,1.3,6.6,M,-33.6,M,,*52
$PYRTM,2024,126.085367676400,17.195015086539
$GPGGA,020254.00,3436.9605,N,12123.9115,W,1,08,1.3,8.3,M,-33.6,M,,*52
$PYRTM,2024,126.085379265278,17.195026675417
$GPGGA,020255.00,3436.9593,N,12123.9092,W,1,08,1.3,9.0,M,-33.6,M,,*53
$PYRTM,2024,126.085390824850,17.195038234988
$GPGGA,020256.00,3436.9581,N,12123.9068,W,1,08,1.3,8.2,M,-33.6,M,,*55
$PYRTM,2024,126.085402411562,17.195049821713
$GPGGA,020257.00,3436.9569,N,12123.9045,W,1,08,1.0,7.0,M,-33.6,M,,*53
$PYRTM,2024,126.085413973970,17.195061384109
$GPGGA,020258.00,3436.9557,N,12123.9021,W,1,08,1.0,9.0,M,-33.6,M,,*5D
$PYRTM,2024,126.085425563600,17.195072973738
$GPGGA,020259.00,3436.9543,N,12123.8996,W,1,08,1.0,9.1,M,-33.6,M,,*5C
$PYRTM,2024,126.085437120995,17.195084531146
$GPGGA,020300.00,3436.9530,N,12123.8971,W,1,08,1.0,8.3,M,-33.6,M,,*5F
$PYRTM,2024,126.085448723090,17.195096133229
$GPGGA,020301.00,3436.9516,N,12123.8945,W,1,08,1.0,9.5,M,-33.6,M,,*5A
$PYRTM,2024,126.085460271910,17.195107682049
$GPGGA,020302.00,3436.9502,N,12123.8918,W,1,08,1.0,7.1,M,-33.6,M,,*5E
$PYRTM,2024,126.085471857118,17.195119267269
$GPGGA,020303.00,3436.9488,N,12123.8893,W,1,08,1.0,8.2,M,-33.6,M,,*52
$PYRTM,2024,126.085483417488,17.195130827627
$GPGGA,020304.00,3436.9475,N,12123.8870,W,1,07,1.3,9.0,M,-33.6,M,,*55
$PYRTM,2024,126.085495005787,17.195142415926
$GPGGA,020305.00,3436.9463,N,12123.8847,W,1,08,1.0,9.1,M,-33.6,M,,*5A
$PYRTM,2024,126.085506566794,17.195153976944
$GPGGA,020306.00,3436.9451,N,12123.8823,W,1,08,1.0,8.9,M,-33.6,M,,*53
$PYRTM,2024,126.085518157234,17.195165567373
$GPGGA,020307.00,3436.9439,N,12123.8798,W,1,08,1.0,7.1,M,-33.6,M,,*54
$PYRTM,2024,126.085529715266,17.195177125405
$GPGGA,020308.00,3436.9427,N,12123.8774,W,1,08,1.0,9.8,M,-33.6,M,,*51
$PYRTM,2024,126.085541307384,17.195188717523
$GPGGA,020309.00,3436.9416,N,12123.8751,W,1,08,1.0,11.4,M,-33.6,M,,*60
$PYRTM,2024,126.085552861944,17.195200272083
$GPGGA,020310.00,3436.9406,N,12123.8727,W,1,08,1.0,13.2,M,-33.6,M,,*6C
$PYRTM,2024,126.085564453044,17.195211863183
$GPGGA,020311.00,3436.9395,N,12123.8703,W,1,08,1.0,9.3,M,-33.6,M,,*5C
$PYRTM,2024,126.085574635208,17.195222045347
$GPGGA,020312.00,3436.9382,N,12123.8679,W,1,08,1.0,7.9,M,-33.6,M,,*51
$PYRTM,2024,126.085586560069,17.195233970208
$GPGGA,020313.00,3436.9367,N,12123.8656,W,1,08,1.0,8.9,M,-33.6,M,,*59
$PYRTM,2024,126.085599160023,17.195246570162
$GPGGA,020314.00,3436.9354,N,12123.8631,W,1,08,1.0,10.8,M,-33.6,M,,*67
$PYRTM,2024,126.085610760486,17.195258170625
$GPGGA,020315.00,3436.9342,N,12123.8605,W,1,08,1.0,10.0,M,-33.6,M,,*6E
$PYRTM,2024,126.085622308264,17.195269718414
$GPGGA,020316.00,3436.9331,N,12123.8580,W,1,08,1.0,10.6,M,-33.6,M,,*61
$PYRTM,2024,126.085633895671,17.195281305810
$GPGGA,020317.00,3436.9319,N,12123.8554,W,1,08,1.0,8.3,M,-33.6,M,,*5F
$PYRTM,2024,126.085645456100,17.195292866238
$GPGGA,020318.00,3436.9305,N,12123.8529,W,1,08,1.0,8.7,M,-33.6,M,,*53
$PYRTM,2024,126.085657038530,17.195304448681
$GPGGA,020319.00,3436.9290,N,12123.8507,W,1,08,1.0,7.3,M,-33.6,M,,*58
$PYRTM,2024,126.085668604699,17.195316014850
$GPGGA,020320.00,3436.9277,N,12123.8485,W,1,08,1.0,6.2,M,-33.6,M,,*50
$PYRTM,2024,126.085680192940,17.195327603090
$GPGGA,020321.00,3436.9265,N,12123.8462,W,1,08,1.0,7.4,M,-33.6,M,,*5C
$PYRTM,2024,126.085691753634,17.195339163773
$GPGGA,020322.00,3436.9254,N,12123.8437,W,1,08,1.0,9.2,M,-33.6,M,,*55
$PYRTM,2024,126.085703341134,17.195350751273
$GPGGA,020323.00,3436.9241,N,12123.8414,W,1,08,1.0,8.4,M,-33.6,M,,*56
$PYRTM,2024,126.085714902164,17.195362312303
$GPGGA,020324.00,3436.9225,N,12123.8391,W,1,08,1.0,9.7,M,-33.6,M,,*5B
$PYRTM,2024,126.085726489248,17.195373899398
$GPGGA,020325.00,3436.9209,N,12123.8367,W,1,08,1.0,10.2,M,-33.6,M,,*60
$PYRTM,2024,126.085738049769,17.195385459907
$GPGGA,020326.00,3436.9197,N,12123.8342,W,1,08,1.0,12.7,M,-33.6,M,,*67
$PYRTM,2024,126.085749640856,17.195397050995
$GPGGA,020327.00,3436.9186,N,12123.8316,W,1,08,1.0,12.3,M,-33.6,M,,*63
$PYRTM,2024,126.085761197245,17.195408607384
$GPGGA,020328.00,3436.9173,N,12123.8292,W,1,08,1.0,10.4,M,-33.6,M,,*6E
$PYRTM,2024,126.085772799155,17.195420209294
$GPGGA,020329.00,3436.9160,N,12123.8268,W,1,08,1.0,10.8,M,-33.6,M,,*64
$PYRTM,2024,126.085784346250,17.195431756400
$GPGGA,020330.00,3436.9148,N,12123.8246,W,1,08,1.0,10.6,M,-33.6,M,,*64
$PYRTM,2024,126.085795933125,17.195443343264
$GPGGA,020331.00,3436.9136,N,12123.8223,W,1,08,1.0,10.8,M,-33.6,M,,*61
$PYRTM,2024,126.085807496053,17.195454906192
$GPGGA,020332.00,3436.9127,N,12123.8201,W,1,08,1.0,8.3,M,-33.6,M,,*50
$PYRTM,2024,126.085819081285,17.195466491435
$GPGGA,020333.00,3436.9118,N,12123.8178,W,1,08,1.0,9.2,M,-33.6,M,,*50
$PYRTM,2024,126.085830643738,17.195478053877
$GPGGA,020334.00,3436.9108,N,12123.8156,W,1,08,1.0,8.8,M,-33.6,M,,*51
$PYRTM,2024,126.085842231875,17.195489642014
$GPGGA,020335.00,3436.9096,N,12123.8133,W,1,08,1.0,8.1,M,-33.6,M,,*5C
$PYRTM,2024,126.085853791377,17.195501201516
$GPGGA,020336.00,3436.9083,N,12123.8108,W,1,08,1.0,9.1,M,-33.6,M,,*52
$PYRTM,2024,126.085865378947,17.195512789086
$GPGGA,020337.00,3436.9069,N,12123.8083,W,1,08,1.0,9.2,M,-33.6,M,,*56
$PYRTM,2024,126.085876938472,17.195524348611
$GPGGA,020338.00,3436.9056,N,12123.8058,W,1,08,1.0,11.3,M,-33.6,M,,*6B
$PYRTM,2024,126.085888976736,17.195536386875
$GPGGA,020339.00,3436.9043,N,12123.8032,W,1,08,1.0,11.7,M,-33.6,M,,*66
$PYRTM,2024,126.085900564352,17.195547974491
$GPGGA,020340.00,3436.9031,N,12123.8004,W,1,08,1.0,9.2,M,-33.6,M,,*54
$PYRTM,2024,126.085912126748,17.195559536887
$GPGGA,020341.00,3436.9018,N,12123.7977,W,1,08,1.0,9.5,M,-33.6,M,,*5B
$PYRTM,2024,126.085922310278,17.195569720417
$GPGGA,020342.00,3436.9002,N,12123.7952,W,1,08,1.0,8.6,M,-33.6,M,,*56
$PYRTM,2024,126.085933796991,17.195581207130
$GPGGA,020343.00,3436.8985,N,12123.7930,W,1,08,1.0,7.2,M,-33.6,M,,*5F
$PYRTM,2024,126.085946383843,17.195593793981
$GPGGA,020344.00,3436.8972,N,12123.7908,W,1,08,1.0,10.3,M,-33.6,M,,*6C
$PYRTM,2024,126.085957970625,17.195605380764
$GPGGA,020345.00,3436.8964,N,12123.7883,W,1,08,1.0,8.4,M,-33.6,M,,*56
$PYRTM,2024,126.085969533692,17.195616943831
$GPGGA,020346.00,3436.8956,N,12123.7858,W,1,08,1.0,7.9,M,-33.6,M,,*50
$PYRTM,2024,126.085981118900,17.195628529039
$GPGGA,020347.00,3436.8943,N,12123.7834,W,1,08,1.0,8.0,M,-33.6,M,,*59
$PYRTM,2024,126.085992679919,17.195640090058
$GPGGA,020348.00,3436.8925,N,12123.7814,W,1,08,1.0,6.4,M,-33.6,M,,*5E
$PYRTM,2024,126.086004267292,17.195651677431
$GPGGA,020349.00,3436.8910,N,12123.7794,W,1,08,1.0,6.0,M,-33.6,M,,*5A
$PYRTM,2024,126.086015827419,17.195663237558
$GPGGA,020350.00,3436.8899,N,12123.7771,W,1,08,1.0,7.7,M,-33.6,M,,*5F
$PYRTM,2024,126.086027415752,17.195674825891
$GPGGA,020351.00,3436.8888,N,12123.7744,W,1,08,1.0,5.3,M,-33.6,M,,*5E
$PYRTM,2024,126.086038976968,17.195686387106
$GPGGA,020352.00,3436.8874,N,12123.7717,W,1,08,1.0,7.4,M,-33.6,M,,*5D
$PYRTM,2024,126.086050562720,17.195697972859
$GPGGA,020353.00,3436.8858,N,12123.7693,W,1,08,1.0,7.3,M,-33.6,M,,*58
$PYRTM,2024,126.086062125359,17.195709535498
$GPGGA,020354.00,3436.8843,N,12123.7669,W,1,08,1.0,6.2,M,-33.6,M,,*50
$PYRTM,2024,126.086073714063,17.195721124201
$GPGGA,020355.00,3436.8829,N,12123.7645,W,1,08,1.0,9.0,M,-33.6,M,,*5E
$PYRTM,2024,126.086085274086,17.195732684225
$GPGGA,020356.00,3436.8817,N,12123.7620,W,1,08,1.0,6.2,M,-33.6,M,,*5E
$PYRTM,2024,126.086096864606,17.195744274745
$GPGGA,020357.00,3436.8806,N,12123.7596,W,1,08,1.0,7.1,M,-33.6,M,,*53
$PYRTM,2024,126.086108421713,17.195755831852
$GPGGA,020358.00,3436.8793,N,12123.7573,W,1,08,1.0,7.3,M,-33.6,M,,*56
$PYRTM,2024,126.086120004549,17.195767414687
$GPGGA,020359.00,3436.8780,N,12123.7552,W,1,08,1.0,9.5,M,-33.6,M,,*5E
$PYRTM,2024,126.086131569919,17.195778980058
$GPGGA,020400.00,3436.8769,N,12123.7531,W,1,08,1.0,9.6,M,-33.6,M,,*54
$PYRTM,2024,126.086142231435,17.195789641574
$GPGGA,020401.00,3436.8757,N,12123.7506,W,1,08,1.0,8.9,M,-33.6,M,,*52
$PYRTM,2024,126.086154156667,17.195801566806
$GPGGA,020402.00,3436.8746,N,12123.7479,W,1,08,1.0,9.8,M,-33.6,M,,*58
$PYRTM,2024,126.086164904873,17.195812315023
$GPGGA,020403.00,3436.8733,N,12123.7450,W,1,08,1.0,11.7,M,-33.6,M,,*66
$PYRTM,2024,126.086176014769,17.195823424907
$GPGGA,020404.00,3436.8720,N,12123.7423,W,1,08,1.0,10.8,M,-33.6,M,,*69
$PYRTM,2024,126.086187242199,17.195834652338
$GPGGA,020405.00,3436.8705,N,12123.7395,W,1,08,1.0,11.2,M,-33.6,M,,*6E
$PYRTM,2024,126.086198354051,17.195845764190
$GPGGA,020406.00,3436.8689,N,12123.7370,W,1,08,1.0,9.7,M,-33.6,M,,*5F
$PYRTM,2024,126.086209465440,17.195856875579
$GPGGA,020407.00,3436.8674,N,12123.7347,W,1,08,1.0,8.5,M,-33.6,M,,*5B
$PYRTM,2024,126.086220575289,17.195867985428
$GPGGA,020408.00,3436.8662,N,12123.7325,W,1,08,1.0,7.8,M,-33.6,M,,*55
$PYRTM,2024,126.086232050382,17.195879460521
$GPGGA,020409.00,3436.8650,N,12123.7303,W,1,08,1.0,8.8,M,-33.6,M,,*5E
$PYRTM,2024,126.086243157986,17.195890568125
$GPGGA,020410.00,3436.8640,N,12123.7281,W,1,08,1.0,7.5,M,-33.6,M,,*5E
$PYRTM,2024,126.086254384815,17.195901794954
$GPGGA,020411.00,3436.8629,N,12123.7258,W,1,08,1.0,6.0,M,-33.6,M,,*50
$PYRTM,2024,126.086270461620,17.195917871759
$GPGGA,020412.00,3436.8617,N,12123.7235,W,1,08,1.0,7.5,M,-33.6,M,,*51
$PYRTM,2024,126.086282042477,17.195929452616
$GPGGA,020413.00,3436.8604,N,12123.7211,W,1,08,1.0,6.7,M,-33.6,M,,*57
$PYRTM,2024,126.086293607141,17.195941017269
$GPGGA,020414.00,3436.8591,N,12123.7183,W,1,08,1.0,7.1,M,-33.6,M,,*50
$PYRTM,2024,126.086305191400,17.195952601539
$GPGGA,020415.00,3436.8575,N,12123.7155,W,1,08,1.0,7.3,M,-33.6,M,,*52
$PYRTM,2024,126.086316757720,17.195964167859
$GPGGA,020416.00,3436.8558,N,12123.7130,W,1,08,1.0,8.9,M,-33.6,M,,*58
$PYRTM,2024,126.086328338900,17.195975749039
$GPGGA,020417.00,3436.8540,N,12123.7106,W,1,08,1.0,10.1,M,-33.6,M,,*64
$PYRTM,2024,126.086339904919,17.195987315058
$GPGGA,020418.00,3436.8522,N,12123.7083,W,1,08,1.0,8.2,M,-33.6,M,,*59
$PYRTM,2024,126.086351492083,17.195998902222
$GPGGA,020419.00,3436.8506,N,12123.7059,W,1,08,1.0,6.7,M,-33.6,M,,*52
$PYRTM,2024,126.086363053403,17.196010463542
$GPGGA,020420.00,3436.8492,N,12123.7034,W,1,08,1.0,9.8,M,-33.6,M,,*5F
$PYRTM,2024,126.086374639525,17.196022049676
$GPGGA,020421.00,3436.8482,N,12123.7009,W,1,08,1.0,7.0,M,-33.6,M,,*57
$PYRTM,2024,126.086386201528,17.196033611667
$GPGGA,020422.00,3436.8473,N,12123.6988,W,1,08,1.0,5.3,M,-33.6,M,,*5A
$PYRTM,2024,126.086397789352,17.196045199491
$GPGGA,020423.00,3436.8462,N,12123.6967,W,1,08,1.0,6.2,M,-33.6,M,,*58
$PYRTM,2024,126.086409351319,17.196056761458
$GPGGA,020424.00,3436.8450,N,12123.6946,W,1,08,1.0,4.9,M,-33.6,M,,*54
$PYRTM,2024,126.086420939421,17.196068349560
$GPGGA,020425.00,3436.8438,N,12123.6924,W,1,08,1.0,3.8,M,-33.6,M,,*59
$PYRTM,2024,126.086432497188,17.196079907326
$GPGGA,020426.00,3436.8425,N,12123.6902,W,1,08,1.0,5.2,M,-33.6,M,,*5E
$PYRTM,2024,126.086444084687,17.196091494826
$GPGGA,020427.00,3436.8410,N,12123.6880,W,1,08,1.0,7.0,M,-33.6,M,,*52
$PYRTM,2024,126.086455646574,17.196103056713
$GPGGA,020428.00,3436.8396,N,12123.6856,W,1,08,1.0,4.8,M,-33.6,M,,*54
$PYRTM,2024,126.086467233449,17.196114643588
$GPGGA,020429.00,3436.8385,N,12123.6831,W,1,08,1.0,7.3,M,-33.6,M,,*5E
$PYRTM,2024,126.086478795012,17.196126205162
$GPGGA,020430.00,3436.8376,N,12123.6805,W,1,08,1.0,8.5,M,-33.6,M,,*54
$PYRTM,2024,126.086490381609,17.196137791748
$GPGGA,020431.00,3436.8364,N,12123.6780,W,1,08,1.0,7.6,M,-33.6,M,,*58
$PYRTM,2024,126.086501943229,17.196149353368
$GPGGA,020432.00,3436.8349,N,12123.6757,W,1,08,1.0,7.0,M,-33.6,M,,*58
$PYRTM,2024,126.086513529745,17.196160939884
$GPGGA,020433.00,3436.8332,N,12123.6736,W,1,08,1.0,7.6,M,-33.6,M,,*54
$PYRTM,2024,126.086525090822,17.196172500961
$GPGGA,020434.00,3436.8319,N,12123.6715,W,1,08,1.0,7.2,M,-33.6,M,,*5F
$PYRTM,2024,126.086536679676,17.196184089815
$GPGGA,020435.00,3436.8309,N,12123.6691,W,1,08,1.0,8.8,M,-33.6,M,,*57
$PYRTM,2024,126.086548240532,17.196195650683
$GPGGA,020436.00,3436.8300,N,12123.6665,W,1,08,1.0,7.9,M,-33.6,M,,*58
$PYRTM,2024,126.086559826296,17.196207236435
$GPGGA,020437.00,3436.8288,N,12123.6640,W,1,08,1.0,9.4,M,-33.6,M,,*5C
$PYRTM,2024,126.086571387442,17.196218797581
$GPGGA,020438.00,3436.8275,N,12123.6618,W,1,08,1.0,8.4,M,-33.6,M,,*5D
$PYRTM,2024,126.086582988785,17.196230398924
$GPGGA,020439.00,3436.8262,N,12123.6594,W,1,08,1.0,9.5,M,-33.6,M,,*5D
$PYRTM,2024,126.086594536366,17.196241946505
$GPGGA,020440.00,3436.8250,N,12123.6569,W,1,08,1.0,9.3,M,-33.6,M,,*56
$PYRTM,2024,126.086606126424,17.196253536563
$GPGGA,020441.00,3436.8237,N,12123.6544,W,1,08,1.0,8.3,M,-33.6,M,,*58
$PYRTM,2024,126.086616310660,17.196263720799
$GPGGA,020442.00,3436.8223,N,12123.6520,W,1,08,1.0,6.4,M,-33.6,M,,*55
$PYRTM,2024,126.086628238356,17.196275648495
$GPGGA,020443.00,3436.8207,N,12123.6499,W,1,08,1.0,5.5,M,-33.6,M,,*53
$PYRTM,2024,126.086640832789,17.196288242928
$GPGGA,020444.00,3436.8192,N,12123.6478,W,1,08,1.0,6.9,M,-33.6,M,,*5B
$PYRTM,2024,126.086652420602,17.196299830741
$GPGGA,020445.00,3436.8180,N,12123.6456,W,1,08,1.0,5.4,M,-33.6,M,,*5B
$PYRTM,2024,126.086663980301,17.196311390440
$GPGGA,020446.00,3436.8170,N,12123.6432,W,1,08,1.0,5.0,M,-33.6,M,,*51
$PYRTM,2024,126.086675566863,17.196322977002
$GPGGA,020447.00,3436.8159,N,12123.6407,W,1,08,1.0,3.8,M,-33.6,M,,*53
$PYRTM,2024,126.086687130868,17.196334541007
$GPGGA,020448.00,3436.8147,N,12123.6384,W,1,08,1.0,4.9,M,-33.6,M,,*59
$PYRTM,2024,126.086698716134,17.196346126273
$GPGGA,020449.00,3436.8133,N,12123.6361,W,1,08,1.0,6.1,M,-33.6,M,,*5A
$PYRTM,2024,126.086710276921,17.196357687060
$GPGGA,020450.00,3436.8119,N,12123.6337,W,1,08,1.0,7.3,M,-33.6,M,,*5A
$PYRTM,2024,126.086721865671,17.196369275810
$GPGGA,020451.00,3436.8108,N,12123.6311,W,1,08,1.0,7.6,M,-33.6,M,,*5A
$PYRTM,2024,126.086733425961,17.196380836100
$GPGGA,020452.00,3436.8097,N,12123.6285,W,1,08,1.0,6.6,M,-33.6,M,,*53
$PYRTM,2024,126.086745016123,17.196392426262
$GPGGA,020453.00,3436.8084,N,12123.6261,W,1,08,1.0,7.7,M,-33.6,M,,*5A
$PYRTM,2024,126.086756573565,17.196403983704
$GPGGA,020454.00,3436.8069,N,12123.6238,W,1,08,1.0,7.7,M,-33.6,M,,*52
$PYRTM,2024,126.086768175150,17.196415585289
$GPGGA,020455.00,3436.8055,N,12123.6215,W,1,08,1.0,7.7,M,-33.6,M,,*53
$PYRTM,2024,126.086779721748,17.196427131887
$GPGGA,020456.00,3436.8041,N,12123.6192,W,1,08,1.0,10.5,M,-33.6,M,,*6D
$PYRTM,2024,126.086791308958,17.196438719097
$GPGGA,020457.00,3436.8027,N,12123.6169,W,1,08,1.0,10.0,M,-33.6,M,,*6D
$PYRTM,2024,126.086802871238,17.196450281377
$GPGGA,020458.00,3436.8014,N,12123.6144,W,1,08,1.0,9.3,M,-33.6,M,,*56
$PYRTM,2024,126.086814458368,17.196461868507
$GPGGA,020459.00,3436.8002,N,12123.6116,W,1,08,1.0,9.8,M,-33.6,M,,*5C
$PYRTM,2024,126.086826018183,17.196473428322
$GPGGA,020500.00,3436.7990,N,12123.6088,W,1,08,1.0,9.1,M,-33.6,M,,*53
$PYRTM,2024,126.086837604722,17.196485014861
$GPGGA,020501.00,3436.7977,N,12123.6062,W,1,08,1.0,8.0,M,-33.6,M,,*5F
$PYRTM,2024,126.086849170347,17.196496580486
$GPGGA,020502.00,3436.7961,N,12123.6039,W,1,08,1.0,9.5,M,-33.6,M,,*51
$PYRTM,2024,126.086860753947,17.196508164086
$GPGGA,020503.00,3436.7945,N,12123.6017,W,1,08,1.0,8.5,M,-33.6,M,,*5B
$PYRTM,2024,126.086872315706,17.196519725845
$GPGGA,020504.00,3436.7930,N,12123.5994,W,1,08,1.0,7.1,M,-33.6,M,,*54
$PYRTM,2024,126.086883902350,17.196531312488
$GPGGA,020505.00,3436.7916,N,12123.5972,W,1,08,1.0,5.2,M,-33.6,M,,*58
$PYRTM,2024,126.086895463692,17.196542873831
$GPGGA,020506.00,3436.7904,N,12123.5948,W,1,08,1.0,7.6,M,-33.6,M,,*57
$PYRTM,2024,126.086907065243,17.196554475382
$GPGGA,020507.00,3436.7892,N,12123.5925,W,1,08,1.0,5.4,M,-33.6,M,,*53
$PYRTM,2024,126.086918613391,17.196566023530
$GPGGA,020508.00,3436.7880,N,12123.5903,W,1,08,1.0,4.1,M,-33.6,M,,*5F
$PYRTM,2024,126.086930202512,17.196577612650
$GPGGA,020509.00,3436.7868,N,12123.5882,W,1,08,1.0,6.1,M,-33.6,M,,*52
$PYRTM,2024,126.086941760718,17.196589170856
$GPGGA,020510.00,3436.7857,N,12123.5859,W,1,08,1.0,7.4,M,-33.6,M,,*54
$PYRTM,2024,126.086952177164,17.196599587303
$GPGGA,020511.00,3436.7845,N,12123.5834,W,1,08,1.0,8.7,M,-33.6,M,,*51
$PYRTM,2024,126.086963532546,17.196610942685
$GPGGA,020512.00,3436.7832,N,12123.5809,W,1,08,1.0,9.9,M,-33.6,M,,*53
$PYRTM,2024,126.086975324491,17.196622734630
$GPGGA,020513.00,3436.7817,N,12123.5785,W,1,08,1.0,8.3,M,-33.6,M,,*55
$PYRTM,2024,126.086988057373,17.196635467512
$GPGGA,020514.00,3436.7801,N,12123.5763,W,1,08,1.0,4.7,M,-33.6,M,,*55
$PYRTM,2024,126.086999643727,17.196647053866
$GPGGA,020515.00,3436.7788,N,12123.5741,W,1,08,1.0,5.1,M,-33.6,M,,*5D
$PYRTM,2024,126.087011204977,17.196658615116
$GPGGA,020516.00,3436.7778,N,12123.5719,W,1,08,1.0,7.4,M,-33.6,M,,*5B
$PYRTM,2024,126.087022791377,17.196670201516
$GPGGA,020517.00,3436.7768,N,12123.5695,W,1,08,1.0,7.9,M,-33.6,M,,*53
$PYRTM,2024,126.087034352859,17.196681762998
$GPGGA,020518.00,3436.7756,N,12123.5672,W,1,08,1.0,7.4,M,-33.6,M,,*55
$PYRTM,2024,126.087045940822,17.196693350961
$GPGGA,020519.00,3436.7742,N,12123.5648,W,1,08,1.0,5.1,M,-33.6,M,,*5F
$PYRTM,2024,126.087057501493,17.196704911632
$GPGGA,020520.00,3436.7727,N,12123.5625,W,1,08,1.0,8.1,M,-33.6,M,,*50
$PYRTM,2024,126.087069102894,17.196716513032
$GPGGA,020521.00,3436.7711,N,12123.5601,W,1,08,1.0,8.2,M,-33.6,M,,*51
$PYRTM,2024,126.087080651146,17.196728061285
$GPGGA,020522.00,3436.7698,N,12123.5578,W,1,08,1.0,9.9,M,-33.6,M,,*55
$PYRTM,2024,126.087092239734,17.196739649873
$GPGGA,020523.00,3436.7686,N,12123.5553,W,1,08,1.0,8.0,M,-33.6,M,,*5A
$PYRTM,2024,126.087103798924,17.196751209063
$GPGGA,020524.00,3436.7675,N,12123.5528,W,1,08,1.0,7.2,M,-33.6,M,,*50
$PYRTM,2024,126.087115386493,17.196762796644
$GPGGA,020525.00,3436.7662,N,12123.5505,W,1,08,1.0,6.9,M,-33.6,M,,*52
$PYRTM,2024,126.087126946551,17.196774356690
$GPGGA,020526.00,3436.7648,N,12123.5484,W,1,08,1.0,5.7,M,-33.6,M,,*5C
$PYRTM,2024,126.087138534525,17.196785944664
$GPGGA,020527.00,3436.7634,N,12123.5462,W,1,08,1.0,5.2,M,-33.6,M,,*5B
$PYRTM,2024,126.087150096829,17.196797506979
$GPGGA,020528.00,3436.7622,N,12123.5439,W,1,08,1.0,6.3,M,-33.6,M,,*5F
$PYRTM,2024,126.087161683079,17.196809093218
$GPGGA,020529.00,3436.7611,N,12123.5416,W,1,08,1.0,4.0,M,-33.6,M,,*52
$PYRTM,2024,126.087173246447,17.196820656586
$GPGGA,020530.00,3436.7601,N,12123.5392,W,1,08,1.0,7.4,M,-33.6,M,,*57
$PYRTM,2024,126.087184833519,17.196832243657
$GPGGA,020531.00,3436.7588,N,12123.5367,W,1,08,1.0,7.4,M,-33.6,M,,*5E
$PYRTM,2024,126.087196391609,17.196843801748
$GPGGA,020532.00,3436.7573,N,12123.5343,W,1,08,1.0,5.7,M,-33.6,M,,*5E
$PYRTM,2024,126.087207980637,17.196855390775
$GPGGA,020533.00,3436.7558,N,12123.5321,W,1,08,1.0,7.3,M,-33.6,M,,*54
$PYRTM,2024,126.087219540150,17.196866950289
$GPGGA,020534.00,3436.7543,N,12123.5298,W,1,08,1.0,7.2,M,-33.6,M,,*5B
$PYRTM,2024,126.087231127292,17.196878537431
$GPGGA,020535.00,3436.7530,N,12123.5274,W,1,08,1.0,9.8,M,-33.6,M,,*58
$PYRTM,2024,126.087242689572,17.196890099711
$GPGGA,020536.00,3436.7518,N,12123.5250,W,1,08,1.0,9.8,M,-33.6,M,,*57
$PYRTM,2024,126.087254289236,17.196901699375
$GPGGA,020537.00,3436.7506,N,12123.5226,W,1,08,1.0,10.4,M,-33.6,M,,*6C
$PYRTM,2024,126.087265836308,17.196913246447
$GPGGA,020538.00,3436.7493,N,12123.5202,W,1,08,1.0,11.7,M,-33.6,M,,*6A
$PYRTM,2024,126.087277873333,17.196925283472
$GPGGA,020539.00,3436.7481,N,12123.5177,W,1,08,1.0,10.1,M,-33.6,M,,*6E
$PYRTM,2024,126.087289460590,17.196936870729
$GPGGA,020540.00,3436.7469,N,12123.5152,W,1,08,1.0,8.7,M,-33.6,M,,*5E
$PYRTM,2024,126.087301021701,17.196948431840
$GPGGA,020541.00,3436.7455,N,12123.5126,W,1,08,1.0,7.7,M,-33.6,M,,*5C
$PYRTM,2024,126.087311209005,17.196958619144
$GPGGA,020542.00,3436.7441,N,12123.5102,W,1,08,1.0,8.8,M,-33.6,M,,*5C
$PYRTM,2024,126.087322549213,17.196969959363
$GPGGA,020543.00,3436.7426,N,12123.5080,W,1,08,1.0,9.8,M,-33.6,M,,*56
$PYRTM,2024,126.087335283356,17.196982693495
$GPGGA,020544.00,3436.7413,N,12123.5058,W,1,08,1.0,8.0,M,-33.6,M,,*5B
$PYRTM,2024,126.087346870243,17.196994280382
$GPGGA,020545.00,3436.7401,N,12123.5034,W,1,08,1.0,8.7,M,-33.6,M,,*54
$PYRTM,2024,126.087358432060,17.197005842199
$GPGGA,020546.00,3436.7389,N,12123.5010,W,1,08,1.0,8.4,M,-33.6,M,,*55
$PYRTM,2024,126.087370017847,17.197017427998
$GPGGA,020547.00,3436.7377,N,12123.4985,W,1,08,1.0,10.8,M,-33.6,M,,*64
$PYRTM,2024,126.087381579063,17.197028989201
$GPGGA,020548.00,3436.7363,N,12123.4959,W,1,08,1.0,9.9,M,-33.6,M,,*56
$PYRTM,2024,126.087393168958,17.197040579097
$GPGGA,020549.00,3436.7347,N,12123.4933,W,1,08,1.0,8.1,M,-33.6,M,,*54
$PYRTM,2024,126.087404726192,17.197052136331
$GPGGA,020550.00,3436.7331,N,12123.4907,W,1,08,1.0,7.8,M,-33.6,M,,*5C
$PYRTM,2024,126.087416328125,17.197063738275
$GPGGA,020551.00,3436.7317,N,12123.4882,W,1,08,1.0,9.4,M,-33.6,M,,*57
$PYRTM,2024,126.087427874954,17.197075285093
$GPGGA,020552.00,3436.7305,N,12123.4857,W,1,08,1.0,9.1,M,-33.6,M,,*5A
$PYRTM,2024,126.087439465706,17.197086875845
$GPGGA,020553.00,3436.7291,N,12123.4831,W,1,08,1.0,11.8,M,-33.6,M,,*67
$PYRTM,2024,126.087451022986,17.197098433125
$GPGGA,020554.00,3436.7277,N,12123.4807,W,1,08,1.0,11.4,M,-33.6,M,,*61
$PYRTM,2024,126.087462605266,17.197110015405
$GPGGA,020555.00,3436.7262,N,12123.4785,W,1,08,1.0,11.7,M,-33.6,M,,*62
$PYRTM,2024,126.087474172396,17.197121582535
$GPGGA,020556.00,3436.7250,N,12123.4763,W,1,08,1.0,11.5,M,-33.6,M,,*6A
$PYRTM,2024,126.087485759282,17.197133169421
$GPGGA,020557.00,3436.7239,N,12123.4740,W,1,08,1.0,9.1,M,-33.6,M,,*58
$PYRTM,2024,126.087497319572,17.197144729722
$GPGGA,020558.00,3436.7228,N,12123.4717,W,1,08,1.0,8.8,M,-33.6,M,,*5D
$PYRTM,2024,126.087508908275,17.197156318426
$GPGGA,020559.00,3436.7213,N,12123.4692,W,1,08,1.0,8.7,M,-33.6,M,,*57
$PYRTM,2024,126.087520468380,17.197167878530
$GPGGA,020600.00,3436.7197,N,12123.4669,W,1,08,1.0,8.9,M,-33.6,M,,*5D
$PYRTM,2024,126.087532050162,17.197179460301
$GPGGA,020601.00,3436.7181,N,12123.4644,W,1,08,1.0,9.4,M,-33.6,M,,*58
$PYRTM,2024,126.087543617731,17.197191027870
$GPGGA,020602.00,3436.7166,N,12123.4616,W,1,08,1.0,10.7,M,-33.6,M,,*6E
$PYRTM,2024,126.087555203900,17.197202614039
$GPGGA,020603.00,3436.7151,N,12123.4589,W,1,08,1.0,11.2,M,-33.6,M,,*6A
$PYRTM,2024,126.087566765440,17.197214175579
$GPGGA,020604.00,3436.7136,N,12123.4562,W,1,08,1.0,10.1,M,-33.6,M,,*6B
$PYRTM,2024,126.087578354687,17.197225764826
$GPGGA,020605.00,3436.7124,N,12123.4537,W,1,08,1.0,11.0,M,-33.6,M,,*69
$PYRTM,2024,126.087588986505,17.197236396644
$GPGGA,020606.00,3436.7113,N,12123.4512,W,1,08,1.0,11.6,M,-33.6,M,,*6F
$PYRTM,2024,126.087600920775,17.197248330914
$GPGGA,020607.00,3436.7101,N,12123.4487,W,1,08,1.0,9.9,M,-33.6,M,,*56
$PYRTM,2024,126.087611686493,17.197259096632
$GPGGA,020608.00,3436.7089,N,12123.4464,W,1,08,1.0,8.1,M,-33.6,M,,*5C
$PYRTM,2024,126.087623246192,17.197270656331
$GPGGA,020609.00,3436.7076,N,12123.4441,W,1,08,1.0,8.9,M,-33.6,M,,*52
$PYRTM,2024,126.087634357951,17.197281768090
$GPGGA,020610.00,3436.7061,N,12123.4420,W,1,08,1.0,7.9,M,-33.6,M,,*54
$PYRTM,2024,126.087645469711,17.197292879850
$GPGGA,020611.00,3436.7047,N,12123.4398,W,1,08,1.0,9.0,M,-33.6,M,,*52
$PYRTM,2024,126.087661210116,17.197308620266
$GPGGA,020612.00,3436.7035,N,12123.4373,W,1,08,1.0,10.9,M,-33.6,M,,*60
$PYRTM,2024,126.087672320637,17.197319730787
$GPGGA,020613.00,3436.7023,N,12123.4346,W,1,08,1.0,8.0,M,-33.6,M,,*50
$PYRTM,2024,126.087683431366,17.197330841505
$GPGGA,020614.00,3436.7009,N,12123.4317,W,1,08,1.0,9.0,M,-33.6,M,,*5A
$PYRTM,2024,126.087694544410,17.197341954549
$GPGGA,020615.00,3436.6994,N,12123.4289,W,1,08,1.0,9.0,M,-33.6,M,,*51
$PYRTM,2024,126.087705654514,17.197353064664
$GPGGA,020616.00,3436.6979,N,12123.4262,W,1,08,1.0,7.4,M,-33.6,M,,*5E
$PYRTM,2024,126.087717241400,17.197364651539
$GPGGA,020617.00,3436.6966,N,12123.4235,W,1,08,1.0,5.8,M,-33.6,M,,*5D
$PYRTM,2024,126.087728802708,17.197376212847
$GPGGA,020618.00,3436.6956,N,12123.4209,W,1,08,1.0,4.0,M,-33.6,M,,*57
$PYRTM,2024,126.087740403542,17.197387813681
$GPGGA,020619.00,3436.6945,N,12123.4187,W,1,08,1.0,4.1,M,-33.6,M,,*50
$PYRTM,2024,126.087751951134,17.197399361273
$GPGGA,020620.00,3436.6933,N,12123.4165,W,1,08,1.0,3.2,M,-33.6,M,,*53
$PYRTM,2024,126.087763541597,17.197410951736
$GPGGA,020621.00,3436.6922,N,12123.4145,W,1,08,1.0,3.2,M,-33.6,M,,*50
$PYRTM,2024,126.087775098218,17.197422508356
$GPGGA,020622.00,3436.6911,N,12123.4123,W,1,08,1.0,4.5,M,-33.6,M,,*53
$PYRTM,2024,126.087786685891,17.197434096030
$GPGGA,020623.00,3436.6901,N,12123.4100,W,1,08,1.0,6.2,M,-33.6,M,,*57
$PYRTM,2024,126.087798248287,17.197445658426
$GPGGA,020624.00,3436.6889,N,12123.4075,W,1,08,1.0,7.8,M,-33.6,M,,*59
$PYRTM,2024,126.087809835926,17.197457246065
$GPGGA,020625.00,3436.6876,N,12123.4048,W,1,08,1.0,7.5,M,-33.6,M,,*5B
$PYRTM,2024,126.087821395035,17.197468805174
$GPGGA,020626.00,3436.6861,N,12123.4020,W,1,08,1.0,7.5,M,-33.6,M,,*50
$PYRTM,2024,126.087832983310,17.197480393449
$GPGGA,020627.00,3436.6845,N,12123.3993,W,1,08,1.0,7.9,M,-33.6,M,,*5D
$PYRTM,2024,126.087844544861,17.197491955012
$GPGGA,020628.00,3436.6828,N,12123.3967,W,1,08,1.0,6.3,M,-33.6,M,,*59
$PYRTM,2024,126.087856130579,17.197503540718
$GPGGA,020629.00,3436.6812,N,12123.3940,W,1,08,1.0,5.9,M,-33.6,M,,*5D
$PYRTM,2024,126.087867692465,17.197515102604
$GPGGA,020630.00,3436.6799,N,12123.3914,W,1,08,1.0,6.8,M,-33.6,M,,*5A
$PYRTM,2024,126.087879278924,17.197526689062
$GPGGA,020631.00,3436.6788,N,12123.3890,W,1,08,1.0,5.9,M,-33.6,M,,*54
$PYRTM,2024,126.087890840856,17.197538250995
$GPGGA,020632.00,3436.6778,N,12123.3869,W,1,08,1.0,7.3,M,-33.6,M,,*56
$PYRTM,2024,126.087902430208,17.197549840347
$GPGGA,020633.00,3436.6768,N,12123.3848,W,1,08,1.0,6.5,M,-33.6,M,,*52
$PYRTM,2024,126.087913990463,17.197561400602
$GPGGA,020634.00,3436.6758,N,12123.3827,W,1,08,1.0,5.8,M,-33.6,M,,*51
$PYRTM,2024,126.087925592014,17.197573002153
$GPGGA,020635.00,3436.6747,N,12123.3806,W,1,08,1.0,5.5,M,-33.6,M,,*50
$PYRTM,2024,126.087937137743,17.197584547894
$GPGGA,020636.00,3436.6733,N,12123.3782,W,1,08,1.0,6.6,M,-33.6,M,,*53
$PYRTM,2024,126.087948725278,17.197596135417
$GPGGA,020637.00,3436.6718,N,12123.3757,W,1,08,1.0,9.4,M,-33.6,M,,*5E
$PYRTM,2024,126.087960284896,17.197607695035
$GPGGA,020638.00,3436.6702,N,12123.3732,W,1,08,1.0,9.0,M,-33.6,M,,*5D
$PYRTM,2024,126.087971872280,17.197619282431
$GPGGA,020639.00,3436.6688,N,12123.3704,W,1,08,1.0,10.2,M,-33.6,M,,*60
$PYRTM,2024,126.087983432639,17.197630842778
$GPGGA,020640.00,3436.6674,N,12123.3674,W,1,08,1.0,9.1,M,-33.6,M,,*50
$PYRTM,2024,126.087995021713,17.197642431852
$GPGGA,020641.00,3436.6660,N,12123.3644,W,1,08,1.0,8.0,M,-33.6,M,,*57
$PYRTM,2024,126.088005655127,17.197653065266
$GPGGA,020642.00,3436.6646,N,12123.3616,W,1,08,1.0,8.0,M,-33.6,M,,*57
$PYRTM,2024,126.088017126991,17.197664537130
$GPGGA,020643.00,3436.6633,N,12123.3590,W,1,08,1.0,10.5,M,-33.6,M,,*65
$PYRTM,2024,126.088029729850,17.197677139988
$GPGGA,020644.00,3436.6622,N,12123.3566,W,1,08,1.0,9.8,M,-33.6,M,,*5E
$PYRTM,2024,126.088041316956,17.197688727106
$GPGGA,020645.00,3436.6611,N,12123.3544,W,1,08,1.0,8.7,M,-33.6,M,,*51
$PYRTM,2024,126.088052878449,17.197700288588
$GPGGA,020646.00,3436.6601,N,12123.3523,W,1,08,1.0,9.3,M,-33.6,M,,*57
$PYRTM,2024,126.088064468391,17.197711878542
$GPGGA,020647.00,3436.6590,N,12123.3501,W,1,08,1.0,8.3,M,-33.6,M,,*5C
$PYRTM,2024,126.088076027731,17.197723437870
$GPGGA,020648.00,3436.6576,N,12123.3479,W,1,08,1.0,6.1,M,-33.6,M,,*59
$PYRTM,2024,126.088087616030,17.197735026169
$GPGGA,020649.00,3436.6563,N,12123.3457,W,1,08,1.0,7.1,M,-33.6,M,,*51
$PYRTM,2024,126.088099174352,17.197746584491
$GPGGA,020650.00,3436.6550,N,12123.3432,W,1,08,1.0,8.9,M,-33.6,M,,*5D
$PYRTM,2024,126.088110764282,17.197758174421
$GPGGA,020651.00,3436.6538,N,12123.3402,W,1,08,1.0,9.8,M,-33.6,M,,*51
$PYRTM,2024,126.088122322940,17.197769733079
$GPGGA,020652.00,3436.6526,N,12123.3371,W,1,08,1.0,11.0,M,-33.6,M,,*6F
$PYRTM,2024,126.088133909931,17.197781320069
$GPGGA,020653.00,3436.6512,N,12123.3342,W,1,08,1.0,11.3,M,-33.6,M,,*6A
$PYRTM,2024,126.088145471227,17.197792881354
$GPGGA,020654.00,3436.6496,N,12123.3316,W,1,08,1.0,10.3,M,-33.6,M,,*60
$PYRTM,2024,126.088157058738,17.197804468877
$GPGGA,020655.00,3436.6481,N,12123.3294,W,1,08,1.0,9.0,M,-33.6,M,,*57
$PYRTM,2024,126.088168619248,17.197816029387
$GPGGA,020656.00,3436.6470,N,12123.3271,W,1,08,1.0,8.5,M,-33.6,M,,*55
$PYRTM,2024,126.088180207222,17.197827617361
$GPGGA,020657.00,3436.6459,N,12123.3248,W,1,08,1.0,6.7,M,-33.6,M,,*59
$PYRTM,2024,126.088191767361,17.197839177500
$GPGGA,020658.00,3436.6448,N,12123.3226,W,1,08,1.0,5.3,M,-33.6,M,,*59
$PYRTM,2024,126.088203354896,17.197850765035
$GPGGA,020659.00,3436.6437,N,12123.3204,W,1,08,1.0,6.1,M,-33.6,M,,*51
$PYRTM,2024,126.088214917245,17.197862327396
$GPGGA,020700.00,3436.6425,N,12123.3180,W,1,08,1.0,8.1,M,-33.6,M,,*5E
$PYRTM,2024,126.088226506505,17.197873916655
$GPGGA,020701.00,3436.6413,N,12123.3155,W,1,08,1.0,10.3,M,-33.6,M,,*69
$PYRTM,2024,126.088238065162,17.197885475301
$GPGGA,020702.00,3436.6400,N,12123.3129,W,1,08,1.0,9.2,M,-33.6,M,,*5A
$PYRTM,2024,126.088249655718,17.197897065856
$GPGGA,020703.00,3436.6385,N,12123.3103,W,1,08,1.0,6.6,M,-33.6,M,,*52
$PYRTM,2024,126.088261213044,17.197908623183
$GPGGA,020704.00,3436.6370,N,12123.3079,W,1,08,1.0,8.2,M,-33.6,M,,*59
$PYRTM,2024,126.088272800035,17.197920210174
$GPGGA,020705.00,3436.6358,N,12123.3054,W,1,08,1.0,6.2,M,-33.6,M,,*53
$PYRTM,2024,126.088284362199,17.197931772338
$GPGGA,020706.00,3436.6346,N,12123.3029,W,1,08,1.0,7.3,M,-33.6,M,,*55
$PYRTM,2024,126.088295949005,17.197943359144
$GPGGA,020707.00,3436.6336,N,12123.3005,W,1,08,1.0,8.5,M,-33.6,M,,*54
$PYRTM,2024,126.088307509271,17.197954919421
$GPGGA,020708.00,3436.6325,N,12123.2980,W,1,08,1.0,10.5,M,-33.6,M,,*65
$PYRTM,2024,126.088319443623,17.197966853762
$GPGGA,020709.00,3436.6313,N,12123.2957,W,1,08,1.0,10.9,M,-33.6,M,,*67
$PYRTM,2024,126.088330657604,17.197978067743
$GPGGA,020710.00,3436.6300,N,12123.2934,W,1,08,1.0,8.8,M,-33.6,M,,*50
$PYRTM,2024,126.088342244525,17.197989654664
$GPGGA,020711.00,3436.6287,N,12123.2912,W,1,08,1.0,8.7,M,-33.6,M,,*54
$PYRTM,2024,126.088352426273,17.197999836412
$GPGGA,020712.00,3436.6273,N,12123.2889,W,1,08,1.0,7.8,M,-33.6,M,,*5F
$PYRTM,2024,126.088364221991,17.198011632141
$GPGGA,020713.00,3436.6261,N,12123.2865,W,1,08,1.0,7.6,M,-33.6,M,,*51
$PYRTM,2024,126.088376954606,17.198024364745
$GPGGA,020714.00,3436.6248,N,12123.2842,W,1,08,1.0,8.4,M,-33.6,M,,*55
$PYRTM,2024,126.088388541759,17.198035951898
$GPGGA,020715.00,3436.6236,N,12123.2816,W,1,08,1.0,10.4,M,-33.6,M,,*65
$PYRTM,2024,126.088400104537,17.198047514676
$GPGGA,020716.00,3436.6222,N,12123.2790,W,1,08,1.0,8.5,M,-33.6,M,,*5A
$PYRTM,2024,126.088411692095,17.198059102234
$GPGGA,020717.00,3436.6208,N,12123.2766,W,1,08,1.0,9.1,M,-33.6,M,,*5F
$PYRTM,2024,126.088423251794,17.198070661933
$GPGGA,020718.00,3436.6196,N,12123.2741,W,1,08,1.0,6.3,M,-33.6,M,,*5C
$PYRTM,2024,126.088434842326,17.198082252477
$GPGGA,020719.00,3436.6185,N,12123.2716,W,1,08,1.0,6.3,M,-33.6,M,,*5D
$PYRTM,2024,126.088446399363,17.198093809502
$GPGGA,020720.00,3436.6173,N,12123.2691,W,1,08,1.0,9.0,M,-33.6,M,,*5C
$PYRTM,2024,126.088456815266,17.198104225405
$GPGGA,020721.00,3436.6159,N,12123.2668,W,1,08,1.0,7.1,M,-33.6,M,,*5C
$PYRTM,2024,126.088469548113,17.198116958264
$GPGGA,020722.00,3436.6145,N,12123.2645,W,1,08,1.0,5.0,M,-33.6,M,,*5E
$PYRTM,2024,126.088481135174,17.198128545312
$GPGGA,020723.00,3436.6132,N,12123.2623,W,1,08,1.0,5.9,M,-33.6,M,,*56
$PYRTM,2024,126.088492695602,17.198140105741
$GPGGA,020724.00,3436.6120,N,12123.2601,W,1,08,1.0,6.3,M,-33.6,M,,*5B
$PYRTM,2024,126.088504283368,17.198151693507
$GPGGA,020725.00,3436.6109,N,12123.2578,W,1,08,1.0,5.2,M,-33.6,M,,*5E
$PYRTM,2024,126.088515845289,17.198163255428
$GPGGA,020726.00,3436.6096,N,12123.2554,W,1,08,1.0,8.5,M,-33.6,M,,*5E
$PYRTM,2024,126.088527432639,17.198174842778
$GPGGA,020727.00,3436.6083,N,12123.2530,W,1,08,1.0,11.5,M,-33.6,M,,*61
$PYRTM,2024,126.088538992338,17.198186402488
$GPGGA,020728.00,3436.6069,N,12123.2505,W,1,08,1.0,9.1,M,-33.6,M,,*51
$PYRTM,2024,126.088550582384,17.198197992523
$GPGGA,020729.00,3436.6056,N,12123.2480,W,1,08,1.0,10.4,M,-33.6,M,,*6D
$PYRTM,2024,126.088562141458,17.198209551609
$GPGGA,020730.00,3436.6043,N,12123.2454,W,1,08,1.0,9.6,M,-33.6,M,,*52
$PYRTM,2024,126.088573730521,17.198221140660
$GPGGA,020731.00,3436.6030,N,12123.2430,W,1,08,1.0,11.3,M,-33.6,M,,*69
$PYRTM,2024,126.088585765440,17.198233175590
$GPGGA,020732.00,3436.6017,N,12123.2405,W,1,08,1.0,12.7,M,-33.6,M,,*6E
$PYRTM,2024,126.088596879109,17.198244289248
$GPGGA,020733.00,3436.6004,N,12123.2379,W,1,08,1.0,11.4,M,-33.6,M,,*61
$PYRTM,2024,126.088608436551,17.198255846690
$GPGGA,020734.00,3436.5992,N,12123.2354,W,1,08,1.0,9.3,M,-33.6,M,,*52
$PYRTM,2024,126.088620028738,17.198267438877
$GPGGA,020735.00,3436.5980,N,12123.2330,W,1,08,1.0,10.0,M,-33.6,M,,*69
$PYRTM,2024,126.088631586424,17.198278996574
$GPGGA,020736.00,3436.5967,N,12123.2306,W,1,08,1.0,11.3,M,-33.6,M,,*64
$PYRTM,2024,126.088643173368,17.198290583507
$GPGGA,020737.00,3436.5955,N,12123.2281,W,1,08,1.0,8.6,M,-33.6,M,,*57
$PYRTM,2024,126.088654734572,17.198302144722
$GPGGA,020738.00,3436.5944,N,12123.2257,W,1,08,1.0,7.2,M,-33.6,M,,*58
$PYRTM,2024,126.088666320532,17.198313730671
$GPGGA,020739.00,3436.5932,N,12123.2231,W,1,08,1.0,6.6,M,-33.6,M,,*5D
$PYRTM,2024,126.088677882708,17.198325292847
$GPGGA,020740.00,3436.5920,N,12123.2205,W,1,08,1.0,7.2,M,-33.6,M,,*52
$PYRTM,2024,126.088689470660,17.198336880799
$GPGGA,020741.00,3436.5907,N,12123.2180,W,1,08,1.0,8.2,M,-33.6,M,,*57
$PYRTM,2024,126.088699654630,17.198347064769
$GPGGA,020742.00,3436.5893,N,12123.2157,W,1,08,1.0,8.1,M,-33.6,M,,*51
$PYRTM,2024,126.088711446319,17.198358856470
$GPGGA,020743.00,3436.5878,N,12123.2135,W,1,08,1.0,6.8,M,-33.6,M,,*56
$PYRTM,2024,126.088724178854,17.198371588993
$GPGGA,020744.00,3436.5864,N,12123.2113,W,1,08,1.0,6.1,M,-33.6,M,,*51
$PYRTM,2024,126.088735769259,17.198383179410
$GPGGA,020745.00,3436.5850,N,12123.2089,W,1,08,1.0,7.3,M,-33.6,M,,*56
$PYRTM,2024,126.088747327025,17.198394737164
$GPGGA,020746.00,3436.5838,N,12123.2065,W,1,08,1.0,7.6,M,-33.6,M,,*5C
$PYRTM,2024,126.088758919225,17.198406329363
$GPGGA,020747.00,3436.5826,N,12123.2040,W,1,08,1.0,8.4,M,-33.6,M,,*58
$PYRTM,2024,126.088770475266,17.198417885405
$GPGGA,020748.00,3436.5814,N,12123.2015,W,1,08,1.0,9.1,M,-33.6,M,,*52
$PYRTM,2024,126.088782062014,17.198429472153
$GPGGA,020749.00,3436.5799,N,12123.1990,W,1,08,1.0,8.8,M,-33.6,M,,*56
$PYRTM,2024,126.088793623218,17.198441033356
$GPGGA,020750.00,3436.5784,N,12123.1965,W,1,08,1.0,7.1,M,-33.6,M,,*5E
$PYRTM,2024,126.088805211632,17.198452621771
$GPGGA,020751.00,3436.5770,N,12123.1940,W,1,08,1.0,9.1,M,-33.6,M,,*5D
$PYRTM,2024,126.088816771331,17.198464181470
$GPGGA,020752.00,3436.5757,N,12123.1916,W,1,08,1.0,9.3,M,-33.6,M,,*5A
$PYRTM,2024,126.088828358426,17.198475768565
$GPGGA,020753.00,3436.5745,N,12123.1891,W,1,08,1.0,8.3,M,-33.6,M,,*57
$PYRTM,2024,126.088839919896,17.198487330035
$GPGGA,020754.00,3436.5733,N,12123.1866,W,1,08,1.0,10.2,M,-33.6,M,,*61
$PYRTM,2024,126.088851506667,17.198498916806
$GPGGA,020755.00,3436.5722,N,12123.1841,W,1,08,1.0,11.6,M,-33.6,M,,*60
$PYRTM,2024,126.088863069433,17.198510479572
$GPGGA,020756.00,3436.5711,N,12123.1817,W,1,08,1.0,11.4,M,-33.6,M,,*62
$PYRTM,2024,126.088874655394,17.198522065532
$GPGGA,020757.00,3436.5700,N,12123.1792,W,1,08,1.0,10.7,M,-33.6,M,,*63
$PYRTM,2024,126.088886216794,17.198533626933
$GPGGA,020758.00,3436.5687,N,12123.1766,W,1,08,1.0,9.2,M,-33.6,M,,*54
$PYRTM,2024,126.088897818137,17.198545228287
$GPGGA,020759.00,3436.5675,N,12123.1740,W,1,08,1.0,9.7,M,-33.6,M,,*59
$PYRTM,2024,126.088909364769,17.198556774907
$GPGGA,020800.00,3436.5662,N,12123.1714,W,1,08,1.0,9.9,M,-33.6,M,,*53
$PYRTM,2024,126.088920955579,17.198568365729
$GPGGA,020801.00,3436.5649,N,12123.1689,W,1,08,1.0,9.5,M,-33.6,M,,*52
$PYRTM,2024,126.088932512326,17.198579922465
$GPGGA,020802.00,3436.5636,N,12123.1665,W,1,08,1.0,9.9,M,-33.6,M,,*57
$PYRTM,2024,126.088944102442,17.198591512581
$GPGGA,020803.00,3436.5623,N,12123.1641,W,1,08,1.0,9.6,M,-33.6,M,,*5B
$PYRTM,2024,126.088955662153,17.198603072292
$GPGGA,020804.00,3436.5610,N,12123.1617,W,1,08,1.0,10.7,M,-33.6,M,,*66
$PYRTM,2024,126.088967243993,17.198614654132
$GPGGA,020805.00,3436.5597,N,12123.1595,W,1,08,1.0,8.8,M,-33.6,M,,*54
$PYRTM,2024,126.088978810058,17.198626220208
$GPGGA,020806.00,3436.5585,N,12123.1574,W,1,08,1.0,7.0,M,-33.6,M,,*5C
$PYRTM,2024,126.088990402269,17.198637812407
$GPGGA,020807.00,3436.5573,N,12123.1552,W,1,08,1.0,7.1,M,-33.6,M,,*51
$PYRTM,2024,126.089001958484,17.198649368623
$GPGGA,020808.00,3436.5561,N,12123.1528,W,1,08,1.0,7.0,M,-33.6,M,,*51
$PYRTM,2024,126.089013548542,17.198660958681
$GPGGA,020809.00,3436.5548,N,12123.1503,W,1,08,1.0,8.9,M,-33.6,M,,*54
$PYRTM,2024,126.089025107731,17.198672517870
$GPGGA,020810.00,3436.5535,N,12123.1478,W,1,08,1.0,8.8,M,-33.6,M,,*5A
$PYRTM,2024,126.089035767095,17.198683177234
$GPGGA,020811.00,3436.5518,N,12123.1454,W,1,08,1.0,10.8,M,-33.6,M,,*63
$PYRTM,2024,126.089048845949,17.198696256088
$GPGGA,020812.00,3436.5501,N,12123.1432,W,1,08,1.0,9.5,M,-33.6,M,,*5D
$PYRTM,2024,126.089059482627,17.198706892766
$GPGGA,020813.00,3436.5484,N,12123.1412,W,1,08,1.0,8.4,M,-33.6,M,,*52
$PYRTM,2024,126.089070707986,17.198718118125
$GPGGA,020814.00,3436.5470,N,12123.1388,W,1,08,1.0,5.9,M,-33.6,M,,*5A
$PYRTM,2024,126.089081818877,17.198729229016
$GPGGA,020815.00,3436.5460,N,12123.1364,W,1,08,1.0,6.2,M,-33.6,M,,*50
$PYRTM,2024,126.089092929120,17.198740339259
$GPGGA,020816.00,3436.5452,N,12123.1340,W,1,08,1.0,5.7,M,-33.6,M,,*52
$PYRTM,2024,126.089104041354,17.198751451493
$GPGGA,020817.00,3436.5439,N,12123.1318,W,1,08,1.0,8.7,M,-33.6,M,,*5E
$PYRTM,2024,126.089115150891,17.198762561030
$GPGGA,020818.00,3436.5424,N,12123.1295,W,1,08,1.0,9.0,M,-33.6,M,,*5F
$PYRTM,2024,126.089126261644,17.198773671782
$GPGGA,020819.00,3436.5408,N,12123.1271,W,1,08,1.0,10.7,M,-33.6,M,,*65
$PYRTM,2024,126.089137373681,17.198784783819
$GPGGA,020820.00,3436.5394,N,12123.1247,W,1,08,1.0,11.5,M,-33.6,M,,*6B
$PYRTM,2024,126.089148485475,17.198795895613
$GPGGA,020821.00,3436.5380,N,12123.1223,W,1,08,1.0,12.2,M,-33.6,M,,*69
$PYRTM,2024,126.089160073854,17.198807483993
$GPGGA,020822.00,3436.5368,N,12123.1199,W,1,08,1.0,10.6,M,-33.6,M,,*68
$PYRTM,2024,126.089171302106,17.198818712245
$GPGGA,020823.00,3436.5353,N,12123.1174,W,1,08,1.0,10.8,M,-33.6,M,,*6C
$PYRTM,2024,126.089182412604,17.198829822743
$GPGGA,020824.00,3436.5339,N,12123.1151,W,1,08,1.0,12.0,M,-33.6,M,,*6A
$PYRTM,2024,126.089201033981,17.198848444120
$GPGGA,020825.00,3436.5326,N,12123.1125,W,1,08,1.0,12.9,M,-33.6,M,,*6F
$PYRTM,2024,126.089212144826,17.198859554965
$GPGGA,020826.00,3436.5315,N,12123.1097,W,1,08,1.0,11.4,M,-33.6,M,,*6A
$PYRTM,2024,126.089223257431,17.198870667569
$GPGGA,020827.00,3436.5303,N,12123.1070,W,1,08,1.0,10.4,M,-33.6,M,,*64
$PYRTM,2024,126.089234483241,17.198881893380
$GPGGA,020828.00,3436.5286,N,12123.1045,W,1,08,1.0,11.5,M,-33.6,M,,*61
$PYRTM,2024,126.089245594769,17.198893004919
$GPGGA,020829.00,3436.5271,N,12123.1024,W,1,08,1.0,9.0,M,-33.6,M,,*53
$PYRTM,2024,126.089256706412,17.198904116562
$GPGGA,020830.00,3436.5258,N,12123.1002,W,1,08,1.0,9.4,M,-33.6,M,,*50
$PYRTM,2024,126.089267816019,17.198915226169
$GPGGA,020831.00,3436.5248,N,12123.0978,W,1,08,1.0,9.2,M,-33.6,M,,*53
$PYRTM,2024,126.089278930023,17.198926340162
$GPGGA,020832.00,3436.5237,N,12123.0953,W,1,08,1.0,12.3,M,-33.6,M,,*6A
$PYRTM,2024,126.089290038542,17.198937448681
$GPGGA,020833.00,3436.5223,N,12123.0929,W,1,08,1.0,11.4,M,-33.6,M,,*67
$PYRTM,2024,126.089301265417,17.198948675556
$GPGGA,020834.00,3436.5208,N,12123.0904,W,1,08,1.0,10.1,M,-33.6,M,,*62
$PYRTM,2024,126.089312375185,17.198959785324
$GPGGA,020835.00,3436.5192,N,12123.0880,W,1,08,1.0,10.1,M,-33.6,M,,*6E
$PYRTM,2024,126.089323485845,17.198970895984
$GPGGA,020836.00,3436.5179,N,12123.0853,W,1,08,1.0,9.1,M,-33.6,M,,*5E
$PYRTM,2024,126.089334598160,17.198982008299
$GPGGA,020837.00,3436.5169,N,12123.0825,W,1,08,1.0,8.8,M,-33.6,M,,*57
$PYRTM,2024,126.089345707894,17.198993118032
$GPGGA,020838.00,3436.5158,N,12123.0798,W,1,08,1.0,9.8,M,-33.6,M,,*52
$PYRTM,2024,126.089357304259,17.199004714398
