$PYRTM,2024,122.000008851181,13.109656261331
$GPGGA,235959.00,3307.4090,N,11821.1014,W,1,10,1.0,3.2,M,-34.6,M,,*57
$PYRTM,2024,122.000020438530,13.109667848669
$GPGGA,000000.00,3307.4100,N,11821.1036,W,1,10,1.0,3.4,M,-34.6,M,,*58
$PYRTM,2024,122.000031997477,13.109679407616
$GPGGA,000001.00,3307.4109,N,11821.1059,W,1,10,1.0,5.2,M,-34.6,M,,*59
$PYRTM,2024,122.000043585995,13.109690996134
$GPGGA,000002.00,3307.4119,N,11821.1082,W,1,10,1.0,6.4,M,-34.6,M,,*58
$PYRTM,2024,122.000055145984,13.109702556123
$GPGGA,000003.00,3307.4130,N,11821.1105,W,1,10,1.0,6.7,M,-34.6,M,,*5F
$PYRTM,2024,122.000068253495,13.109715663634
$GPGGA,000004.00,3307.4141,N,11821.1128,W,1,10,1.0,9.0,M,-34.6,M,,*59
$PYRTM,2024,122.000080494896,13.109727905046
$GPGGA,000005.00,3307.4151,N,11821.1149,W,1,10,1.0,7.2,M,-34.6,M,,*52
$PYRTM,2024,122.000089882407,13.109737292546
$GPGGA,000006.00,3307.4161,N,11821.1172,W,1,10,1.0,7.9,M,-34.6,M,,*51
$PYRTM,2024,122.000101441042,13.109748851181
$GPGGA,000007.00,3307.4171,N,11821.1196,W,1,10,1.0,8.4,M,-34.6,M,,*59
$PYRTM,2024,122.000113030301,13.109760440440
$GPGGA,000008.00,3307.4181,N,11821.1219,W,1,10,1.0,8.2,M,-34.6,M,,*5B
$PYRTM,2024,122.000124590417,13.109772000567
$GPGGA,000009.00,3307.4191,N,11821.1239,W,1,10,1.0,8.7,M,-34.6,M,,*5C
$PYRTM,2024,122.000136178183,13.109783588322
$GPGGA,000010.00,3307.4202,N,11821.1261,W,1,10,1.0,8.1,M,-34.6,M,,*56
$PYRTM,2024,122.000148215532,13.109795625671
$GPGGA,000011.00,3307.4212,N,11821.1285,W,1,10,1.0,5.3,M,-34.6,M,,*53
$PYRTM,2024,122.000159328171,13.109806738310
$GPGGA,000012.00,3307.4221,N,11821.1309,W,1,10,1.0,7.0,M,-34.6,M,,*54
$PYRTM,2024,122.000170889005,13.109818299144
$GPGGA,000013.00,3307.4230,N,11821.1331,W,1,10,1.0,4.7,M,-34.6,M,,*5A
$PYRTM,2024,122.000182477060,13.109829887199
$GPGGA,000014.00,3307.4241,N,11821.1353,W,1,10,1.0,5.9,M,-34.6,M,,*50
$PYRTM,2024,122.000194035255,13.109841445394
$GPGGA,000015.00,3307.4251,N,11821.1374,W,1,10,1.0,7.8,M,-34.6,M,,*56
$PYRTM,2024,122.000205625405,13.109853035544
$GPGGA,000016.00,3307.4260,N,11821.1395,W,1,10,1.0,6.9,M,-34.6,M,,*58
$PYRTM,2024,122.000217184387,13.109864594525
$GPGGA,000017.00,3307.4270,N,11821.1420,W,1,10,1.0,6.7,M,-34.6,M,,*5F
$PYRTM,2024,122.000228773600,13.109876183750
$GPGGA,000018.00,3307.4279,N,11821.1444,W,1,10,1.0,6.5,M,-34.6,M,,*59
$PYRTM,2024,122.000240332766,13.109887742917
$GPGGA,000019.00,3307.4288,N,11821.1464,W,1,10,1.0,8.0,M,-34.6,M,,*5F
$PYRTM,2024,122.000251920266,13.109899330405
$GPGGA,000020.00,3307.4300,N,11821.1485,W,1,10,1.0,9.4,M,-34.6,M,,*5E
$PYRTM,2024,122.000263480000,13.109910890139
$GPGGA,000021.00,3307.4311,N,11821.1508,W,1,10,1.0,9.1,M,-34.6,M,,*5E
$PYRTM,2024,122.000275070312,13.109922480451
$GPGGA,000022.00,3307.4321,N,11821.1532,W,1,10,1.0,6.1,M,-34.6,M,,*58
$PYRTM,2024,122.000286628773,13.109934038912
$GPGGA,000023.00,3307.4329,N,11821.1555,W,1,10,1.0,9.1,M,-34.6,M,,*5F
$PYRTM,2024,122.000298216308,13.109945626447
$GPGGA,000024.00,3307.4340,N,11821.1576,W,1,10,1.0,6.9,M,-34.6,M,,*51
$PYRTM,2024,122.000309776933,13.109957187072
$GPGGA,000025.00,3307.4351,N,11821.1597,W,1,10,1.0,6.5,M,-34.6,M,,*53
$PYRTM,2024,122.000321364931,13.109968775081
$GPGGA,000026.00,3307.4362,N,11821.1620,W,1,10,1.0,7.7,M,-34.6,M,,*5C
$PYRTM,2024,122.000332925752,13.109980335891
$GPGGA,000027.00,3307.4371,N,11821.1644,W,1,10,1.0,7.5,M,-34.6,M,,*5F
$PYRTM,2024,122.000343586713,13.109990996852
$GPGGA,000028.00,3307.4380,N,11821.1668,W,1,10,1.0,8.3,M,-34.6,M,,*59
$PYRTM,2024,122.000356666400,13.110004076539
$GPGGA,000029.00,3307.4389,N,11821.1689,W,1,10,1.0,6.2,M,-34.6,M,,*51
$PYRTM,2024,122.000365467523,13.110012877662
$GPGGA,000030.00,3307.4401,N,11821.1709,W,1,10,1.0,7.4,M,-34.6,M,,*50
$PYRTM,2024,122.000381999699,13.110029409838
$GPGGA,000031.00,3307.4412,N,11821.1734,W,1,10,1.0,8.3,M,-34.6,M,,*55
$PYRTM,2024,122.000393109606,13.110040519745
$GPGGA,000032.00,3307.4421,N,11821.1759,W,1,10,1.0,7.6,M,-34.6,M,,*57
$PYRTM,2024,122.000404221215,13.110051631354
$GPGGA,000033.00,3307.4429,N,11821.1781,W,1,10,1.0,9.2,M,-34.6,M,,*51
$PYRTM,2024,122.000416499444,13.110063909583
$GPGGA,000034.00,3307.4437,N,11821.1802,W,1,10,1.0,7.4,M,-34.6,M,,*55
$PYRTM,2024,122.000426329514,13.110073739653
$GPGGA,000035.00,3307.4447,N,11821.1822,W,1,10,1.0,7.9,M,-34.6,M,,*5C
$PYRTM,2024,122.000437441262,13.110084851400
$GPGGA,000036.00,3307.4458,N,11821.1843,W,1,10,1.0,9.5,M,-34.6,M,,*54
$PYRTM,2024,122.000448665856,13.110096075995
$GPGGA,000037.00,3307.4469,N,11821.1864,W,1,10,1.0,7.0,M,-34.6,M,,*59
$PYRTM,2024,122.000459776782,13.110107186921
$GPGGA,000038.00,3307.4478,N,11821.1887,W,1,10,1.0,6.7,M,-34.6,M,,*5D
$PYRTM,2024,122.000473089618,13.110120499757
$GPGGA,000039.00,3307.4487,N,11821.1911,W,1,10,1.0,6.0,M,-34.6,M,,*55
$PYRTM,2024,122.000484213750,13.110131623889
$GPGGA,000040.00,3307.4494,N,11821.1934,W,1,10,1.0,5.4,M,-34.6,M,,*59
$PYRTM,2024,122.000495774248,13.110143184387
$GPGGA,000041.00,3307.4505,N,11821.1956,W,1,10,1.0,4.0,M,-34.6,M,,*50
$PYRTM,2024,122.000506886759,13.110154296898
$GPGGA,000042.00,3307.4516,N,11821.1979,W,1,10,1.0,3.6,M,-34.6,M,,*5D
$PYRTM,2024,122.000517996898,13.110165407037
$GPGGA,000043.00,3307.4525,N,11821.2001,W,1,10,1.0,9.4,M,-34.6,M,,*51
$PYRTM,2024,122.000529108924,13.110176519062
$GPGGA,000044.00,3307.4533,N,11821.2023,W,1,10,1.0,4.9,M,-34.6,M,,*51
$PYRTM,2024,122.000540218438,13.110187628576
$GPGGA,000045.00,3307.4542,N,11821.2046,W,1,10,1.0,4.5,M,-34.6,M,,*59
$PYRTM,2024,122.000551694155,13.110199104294
$GPGGA,000046.00,3307.4553,N,11821.2068,W,1,10,1.0,7.6,M,-34.6,M,,*56
$PYRTM,2024,122.000563252778,13.110210662917
$GPGGA,000047.00,3307.4563,N,11821.2090,W,1,10,1.0,7.5,M,-34.6,M,,*50
$PYRTM,2024,122.000574839722,13.110222249861
$GPGGA,000048.00,3307.4572,N,11821.2113,W,1,10,1.0,5.1,M,-34.6,M,,*53
$PYRTM,2024,122.000586399502,13.110233809641
$GPGGA,000049.00,3307.4581,N,11821.2137,W,1,10,1.0,4.0,M,-34.6,M,,*58
$PYRTM,2024,122.000597981794,13.110245391944
$GPGGA,000050.00,3307.4590,N,11821.2160,W,1,10,1.0,6.7,M,-34.6,M,,*57
$PYRTM,2024,122.000609547338,13.110256957477
$GPGGA,000051.00,3307.4598,N,11821.2182,W,1,10,1.0,4.5,M,-34.6,M,,*52
$PYRTM,2024,122.000621134745,13.110268544884
$GPGGA,000052.00,3307.4607,N,11821.2206,W,1,10,1.0,5.3,M,-34.6,M,,*5C
$PYRTM,2024,122.000632696377,13.110280106516
$GPGGA,000053.00,3307.4615,N,11821.2229,W,1,10,1.0,5.8,M,-34.6,M,,*58
$PYRTM,2024,122.000644734028,13.110292144167
$GPGGA,000054.00,3307.4624,N,11821.2250,W,1,10,1.0,6.8,M,-34.6,M,,*50
$PYRTM,2024,122.000655843958,13.110303254109
$GPGGA,000055.00,3307.4635,N,11821.2272,W,1,10,1.0,6.7,M,-34.6,M,,*5E
$PYRTM,2024,122.000667428137,13.110314838275
$GPGGA,000056.00,3307.4647,N,11821.2296,W,1,10,1.0,6.4,M,-34.6,M,,*51
$PYRTM,2024,122.000678993275,13.110326403414
$GPGGA,000057.00,3307.4656,N,11821.2319,W,1,10,1.0,5.5,M,-34.6,M,,*54
$PYRTM,2024,122.000690580648,13.110337990787
$GPGGA,000058.00,3307.4664,N,11821.2341,W,1,10,1.0,7.7,M,-34.6,M,,*57
$PYRTM,2024,122.000702141875,13.110349552014
$GPGGA,000059.00,3307.4673,N,11821.2363,W,1,10,1.0,6.7,M,-34.6,M,,*51
$PYRTM,2024,122.000713731713,13.110361141852
$GPGGA,000100.00,3307.4685,N,11821.2388,W,1,10,1.0,6.7,M,-34.6,M,,*50
$PYRTM,2024,122.000725290046,13.110372700185
$GPGGA,000101.00,3307.4696,N,11821.2412,W,1,10,1.0,7.8,M,-34.6,M,,*59
$PYRTM,2024,122.000736879815,13.110384289954
$GPGGA,000102.00,3307.4704,N,11821.2435,W,1,10,1.0,8.2,M,-34.6,M,,*50
$PYRTM,2024,122.000748438935,13.110395849074
$GPGGA,000103.00,3307.4712,N,11821.2457,W,1,10,1.0,8.1,M,-34.6,M,,*51
$PYRTM,2024,122.000761176794,13.110408586933
$GPGGA,000104.00,3307.4722,N,11821.2480,W,1,10,1.0,8.7,M,-34.6,M,,*59
$PYRTM,2024,122.000772740382,13.110420150521
$GPGGA,000105.00,3307.4734,N,11821.2505,W,1,10,1.0,8.8,M,-34.6,M,,*5C
$PYRTM,2024,122.000784330521,13.110431740660
$GPGGA,000106.00,3307.4744,N,11821.2529,W,1,10,1.0,8.0,M,-34.6,M,,*5E
$PYRTM,2024,122.000795890451,13.110443300590
$GPGGA,000107.00,3307.4752,N,11821.2550,W,1,10,1.0,7.2,M,-34.6,M,,*5B
$PYRTM,2024,122.000807477431,13.110454887569
$GPGGA,000108.00,3307.4761,N,11821.2570,W,1,10,1.0,7.0,M,-34.6,M,,*54
$PYRTM,2024,122.000819039051,13.110466449190
$GPGGA,000109.00,3307.4773,N,11821.2594,W,1,10,1.0,6.4,M,-34.6,M,,*59
$PYRTM,2024,122.000830621597,13.110478031736
$GPGGA,000110.00,3307.4785,N,11821.2618,W,1,10,1.0,8.6,M,-34.6,M,,*53
$PYRTM,2024,122.000842658600,13.110490068738
$GPGGA,000111.00,3307.4794,N,11821.2640,W,1,10,1.0,8.5,M,-34.6,M,,*5C
$PYRTM,2024,122.000853774942,13.110501185081
$GPGGA,000112.00,3307.4803,N,11821.2660,W,1,10,1.0,7.6,M,-34.6,M,,*50
$PYRTM,2024,122.000865335926,13.110512746065
$GPGGA,000113.00,3307.4813,N,11821.2681,W,1,10,1.0,7.9,M,-34.6,M,,*50
$PYRTM,2024,122.000876923148,13.110524333299
$GPGGA,000114.00,3307.4823,N,11821.2704,W,1,10,1.0,6.8,M,-34.6,M,,*58
$PYRTM,2024,122.000888483368,13.110535893507
$GPGGA,000115.00,3307.4831,N,11821.2727,W,1,10,1.0,6.1,M,-34.6,M,,*52
$PYRTM,2024,122.000900072083,13.110547482222
$GPGGA,000116.00,3307.4841,N,11821.2750,W,1,10,1.0,8.9,M,-34.6,M,,*50
$PYRTM,2024,122.000911631875,13.110559042014
$GPGGA,000117.00,3307.4850,N,11821.2772,W,1,10,1.0,10.4,M,-34.6,M,,*65
$PYRTM,2024,122.000923219873,13.110570630012
$GPGGA,000118.00,3307.4859,N,11821.2793,W,1,10,1.0,9.0,M,-34.6,M,,*50
$PYRTM,2024,122.000934779560,13.110582189699
$GPGGA,000119.00,3307.4869,N,11821.2816,W,1,10,1.0,7.8,M,-34.6,M,,*56
$PYRTM,2024,122.000946364606,13.110593774745
$GPGGA,000120.00,3307.4878,N,11821.2839,W,1,10,1.0,9.0,M,-34.6,M,,*57
$PYRTM,2024,122.000957928611,13.110605338750
$GPGGA,000121.00,3307.4887,N,11821.2862,W,1,10,1.0,6.7,M,-34.6,M,,*50
$PYRTM,2024,122.000969517859,13.110616927998
$GPGGA,000122.00,3307.4896,N,11821.2887,W,1,10,1.0,6.9,M,-34.6,M,,*56
$PYRTM,2024,122.000981077095,13.110628487234
$GPGGA,000123.00,3307.4906,N,11821.2909,W,1,10,1.0,7.8,M,-34.6,M,,*58
$PYRTM,2024,122.000992665868,13.110640076007
$GPGGA,000124.00,3307.4917,N,11821.2930,W,1,10,1.0,8.1,M,-34.6,M,,*53
$PYRTM,2024,122.001004224468,13.110651634606
$GPGGA,000125.00,3307.4928,N,11821.2951,W,1,10,1.0,10.9,M,-34.6,M,,*68
$PYRTM,2024,122.001015813391,13.110663223530
$GPGGA,000126.00,3307.4939,N,11821.2974,W,1,10,1.0,8.0,M,-34.6,M,,*5C
$PYRTM,2024,122.001027373044,13.110674783183
$GPGGA,000127.00,3307.4948,N,11821.2996,W,1,10,1.0,6.0,M,-34.6,M,,*59
$PYRTM,2024,122.001038961528,13.110686371667
$GPGGA,000128.00,3307.4957,N,11821.3017,W,1,10,1.0,4.6,M,-34.6,M,,*5D
$PYRTM,2024,122.001050520914,13.110697931053
$GPGGA,000129.00,3307.4968,N,11821.3039,W,1,10,1.0,8.5,M,-34.6,M,,*53
$PYRTM,2024,122.001062109595,13.110709519734
$GPGGA,000130.00,3307.4979,N,11821.3062,W,1,10,1.0,7.2,M,-34.6,M,,*5D
$PYRTM,2024,122.001073669942,13.110721080081
$GPGGA,000131.00,3307.4988,N,11821.3087,W,1,10,1.0,5.8,M,-34.6,M,,*51
$PYRTM,2024,122.001085254491,13.110732664630
$GPGGA,000132.00,3307.4996,N,11821.3109,W,1,10,1.0,7.0,M,-34.6,M,,*50
$PYRTM,2024,122.001096817616,13.110744227755
$GPGGA,000133.00,3307.5005,N,11821.3130,W,1,10,1.0,9.0,M,-34.6,M,,*57
$PYRTM,2024,122.001109549306,13.110756959444
$GPGGA,000134.00,3307.5016,N,11821.3152,W,1,10,1.0,10.5,M,-34.6,M,,*6B
$PYRTM,2024,122.001122165984,13.110769576123
$GPGGA,000135.00,3307.5026,N,11821.3176,W,1,10,1.0,9.2,M,-34.6,M,,*50
$PYRTM,2024,122.001131554120,13.110778964259
$GPGGA,000136.00,3307.5034,N,11821.3198,W,1,10,1.0,7.8,M,-34.6,M,,*54
$PYRTM,2024,122.001143114398,13.110790524537
$GPGGA,000137.00,3307.5043,N,11821.3218,W,1,10,1.0,8.7,M,-34.6,M,,*5E
$PYRTM,2024,122.001154700231,13.110802110370
$GPGGA,000138.00,3307.5055,N,11821.3239,W,1,10,1.0,10.2,M,-34.6,M,,*69
$PYRTM,2024,122.001166263669,13.110813673808
$GPGGA,000139.00,3307.5066,N,11821.3262,W,1,10,1.0,9.2,M,-34.6,M,,*5E
$PYRTM,2024,122.001177849722,13.110825259861
$GPGGA,000140.00,3307.5075,N,11821.3285,W,1,10,1.0,9.5,M,-34.6,M,,*5C
$PYRTM,2024,122.001189887998,13.110837298137
$GPGGA,000141.00,3307.5084,N,11821.3307,W,1,10,1.0,9.7,M,-34.6,M,,*5A
$PYRTM,2024,122.001200998588,13.110848408727
$GPGGA,000142.00,3307.5095,N,11821.3329,W,1,10,1.0,7.1,M,-34.6,M,,*5D
$PYRTM,2024,122.001212559618,13.110859969757
$GPGGA,000143.00,3307.5107,N,11821.3352,W,1,10,1.0,9.9,M,-34.6,M,,*5C
$PYRTM,2024,122.001224596007,13.110872006146
$GPGGA,000144.00,3307.5117,N,11821.3376,W,1,10,1.0,9.2,M,-34.6,M,,*57
$PYRTM,2024,122.001235706262,13.110883116400
$GPGGA,000145.00,3307.5125,N,11821.3399,W,1,10,1.0,10.1,M,-34.6,M,,*6D
$PYRTM,2024,122.001247290556,13.110894700694
$GPGGA,000146.00,3307.5132,N,11821.3419,W,1,10,1.0,11.3,M,-34.6,M,,*64
$PYRTM,2024,122.001258855914,13.110906266053
$GPGGA,000147.00,3307.5142,N,11821.3441,W,1,10,1.0,9.4,M,-34.6,M,,*51
$PYRTM,2024,122.001270443067,13.110917853206
$GPGGA,000148.00,3307.5153,N,11821.3466,W,1,10,1.0,8.5,M,-34.6,M,,*5B
$PYRTM,2024,122.001282003426,13.110929413565
$GPGGA,000149.00,3307.5163,N,11821.3491,W,1,10,1.0,8.2,M,-34.6,M,,*56
$PYRTM,2024,122.001293593264,13.110941003403
$GPGGA,000150.00,3307.5171,N,11821.3513,W,1,10,1.0,7.6,M,-34.6,M,,*5D
$PYRTM,2024,122.001305151181,13.110952561319
$GPGGA,000151.00,3307.5180,N,11821.3534,W,1,10,1.0,6.4,M,-34.6,M,,*54
$PYRTM,2024,122.001316735602,13.110964145752
$GPGGA,000152.00,3307.5190,N,11821.3558,W,1,10,1.0,6.0,M,-34.6,M,,*58
$PYRTM,2024,122.001328300440,13.110975710579
$GPGGA,000153.00,3307.5200,N,11821.3581,W,1,10,1.0,6.4,M,-34.6,M,,*53
$PYRTM,2024,122.001339888773,13.110987298924
$GPGGA,000154.00,3307.5210,N,11821.3605,W,1,10,1.0,5.0,M,-34.6,M,,*5D
$PYRTM,2024,122.001351448472,13.110998858611
$GPGGA,000155.00,3307.5220,N,11821.3630,W,1,10,1.0,4.8,M,-34.6,M,,*50
$PYRTM,2024,122.001363038646,13.111010448785
$GPGGA,000156.00,3307.5228,N,11821.3655,W,1,10,1.0,10.2,M,-34.6,M,,*67
$PYRTM,2024,122.001374597338,13.111022007477
$GPGGA,000157.00,3307.5237,N,11821.3678,W,1,10,1.0,9.4,M,-34.6,M,,*59
$PYRTM,2024,122.001386185243,13.111033595382
$GPGGA,000158.00,3307.5246,N,11821.3699,W,1,10,1.0,8.9,M,-34.6,M,,*53
$PYRTM,2024,122.001397744977,13.111045155116
$GPGGA,000159.00,3307.5257,N,11821.3721,W,1,10,1.0,8.9,M,-34.6,M,,*50
$PYRTM,2024,122.001409328484,13.111056738623
$GPGGA,000200.00,3307.5267,N,11821.3743,W,1,10,1.0,9.1,M,-34.6,M,,*51
$PYRTM,2024,122.001420894965,13.111068305104
$GPGGA,000201.00,3307.5277,N,11821.3766,W,1,10,1.0,8.2,M,-34.6,M,,*54
$PYRTM,2024,122.001432481678,13.111079891817
$GPGGA,000202.00,3307.5286,N,11821.3789,W,1,10,1.0,7.4,M,-34.6,M,,*51
$PYRTM,2024,122.001444041829,13.111091451968
$GPGGA,000203.00,3307.5295,N,11821.3811,W,1,10,1.0,7.5,M,-34.6,M,,*5D
$PYRTM,2024,122.001456659896,13.111104070035
$GPGGA,000204.00,3307.5306,N,11821.3833,W,1,10,1.0,6.8,M,-34.6,M,,*5D
$PYRTM,2024,122.001469392650,13.111116802789
$GPGGA,000205.00,3307.5318,N,11821.3856,W,1,10,1.0,5.8,M,-34.6,M,,*53
$PYRTM,2024,122.001478777627,13.111126187766
$GPGGA,000206.00,3307.5328,N,11821.3880,W,1,10,1.0,6.3,M,-34.6,M,,*50
$PYRTM,2024,122.001490338264,13.111137748403
$GPGGA,000207.00,3307.5336,N,11821.3901,W,1,10,1.0,7.1,M,-34.6,M,,*55
$PYRTM,2024,122.001501925961,13.111149336100
$GPGGA,000208.00,3307.5344,N,11821.3924,W,1,10,1.0,7.5,M,-34.6,M,,*5C
$PYRTM,2024,122.001513487917,13.111160898056
$GPGGA,000209.00,3307.5355,N,11821.3949,W,1,10,1.0,6.0,M,-34.6,M,,*52
$PYRTM,2024,122.001525070370,13.111172480509
$GPGGA,000210.00,3307.5366,N,11821.3973,W,1,10,1.0,7.4,M,-34.6,M,,*56
$PYRTM,2024,122.001537106053,13.111184516192
$GPGGA,000211.00,3307.5376,N,11821.3994,W,1,10,1.0,7.2,M,-34.6,M,,*59
$PYRTM,2024,122.001548222743,13.111195632882
$GPGGA,000212.00,3307.5385,N,11821.4016,W,1,10,1.0,7.8,M,-34.6,M,,*58
$PYRTM,2024,122.001559782859,13.111207193009
$GPGGA,000213.00,3307.5394,N,11821.4039,W,1,10,1.0,10.4,M,-34.6,M,,*6E
$PYRTM,2024,122.001571365810,13.111218775949
$GPGGA,000214.00,3307.5404,N,11821.4064,W,1,10,1.0,12.3,M,-34.6,M,,*6A
$PYRTM,2024,122.001582931146,13.111230341285
$GPGGA,000215.00,3307.5414,N,11821.4088,W,1,10,1.0,10.5,M,-34.6,M,,*6C
$PYRTM,2024,122.001594514815,13.111241924954
$GPGGA,000216.00,3307.5423,N,11821.4111,W,1,10,1.0,9.0,M,-34.6,M,,*57
$PYRTM,2024,122.001606079352,13.111253489491
$GPGGA,000217.00,3307.5433,N,11821.4135,W,1,10,1.0,8.7,M,-34.6,M,,*57
$PYRTM,2024,122.001617667766,13.111265077905
$GPGGA,000218.00,3307.5443,N,11821.4158,W,1,10,1.0,8.8,M,-34.6,M,,*5B
$PYRTM,2024,122.001629228484,13.111276638623
$GPGGA,000219.00,3307.5453,N,11821.4182,W,1,10,1.0,9.0,M,-34.6,M,,*55
$PYRTM,2024,122.001640815312,13.111288225451
$GPGGA,000220.00,3307.5463,N,11821.4205,W,1,10,1.0,8.8,M,-34.6,M,,*59
$PYRTM,2024,122.001652375289,13.111299785440
$GPGGA,000221.00,3307.5473,N,11821.4227,W,1,10,1.0,7.4,M,-34.6,M,,*5A
$PYRTM,2024,122.001663959190,13.111311369329
$GPGGA,000222.00,3307.5483,N,11821.4251,W,1,10,1.0,7.5,M,-34.6,M,,*56
$PYRTM,2024,122.001675523773,13.111322933912
$GPGGA,000223.00,3307.5494,N,11821.4274,W,1,10,1.0,7.2,M,-34.6,M,,*51
$PYRTM,2024,122.001687107002,13.111334517141
$GPGGA,000224.00,3307.5502,N,11821.4296,W,1,10,1.0,7.7,M,-34.6,M,,*51
$PYRTM,2024,122.001698671655,13.111346081806
$GPGGA,000225.00,3307.5511,N,11821.4317,W,1,10,1.0,6.8,M,-34.6,M,,*54
$PYRTM,2024,122.001710260764,13.111357670903
$GPGGA,000226.00,3307.5522,N,11821.4339,W,1,10,1.0,8.6,M,-34.6,M,,*5B
$PYRTM,2024,122.001721819965,13.111369230104
$GPGGA,000227.00,3307.5533,N,11821.4363,W,1,10,1.0,7.6,M,-34.6,M,,*5A
$PYRTM,2024,122.001733404421,13.111380814560
$GPGGA,000228.00,3307.5543,N,11821.4386,W,1,10,1.0,9.2,M,-34.6,M,,*53
$PYRTM,2024,122.001744969271,13.111392379410
$GPGGA,000229.00,3307.5553,N,11821.4406,W,1,10,1.0,11.4,M,-34.6,M,,*63
$PYRTM,2024,122.001756556690,13.111403966840
$GPGGA,000230.00,3307.5563,N,11821.4429,W,1,10,1.0,9.6,M,-34.6,M,,*5E
$PYRTM,2024,122.001768117222,13.111415527361
$GPGGA,000231.00,3307.5573,N,11821.4454,W,1,10,1.0,10.0,M,-34.6,M,,*6A
$PYRTM,2024,122.001779706273,13.111427116412
$GPGGA,000232.00,3307.5581,N,11821.4477,W,1,10,1.0,8.9,M,-34.6,M,,*55
$PYRTM,2024,122.001790340266,13.111437750405
$GPGGA,000233.00,3307.5590,N,11821.4494,W,1,10,1.0,7.8,M,-34.6,M,,*57
$PYRTM,2024,122.001803302882,13.111450713021
$GPGGA,000234.00,3307.5600,N,11821.4515,W,1,10,1.0,7.7,M,-34.6,M,,*5D
$PYRTM,2024,122.001815587905,13.111462998044
$GPGGA,000235.00,3307.5609,N,11821.4540,W,1,10,1.0,9.4,M,-34.6,M,,*58
$PYRTM,2024,122.001826695949,13.111474106088
$GPGGA,000236.00,3307.5618,N,11821.4563,W,1,10,1.0,7.8,M,-34.6,M,,*58
$PYRTM,2024,122.001837937535,13.111485347674
$GPGGA,000237.00,3307.5627,N,11821.4582,W,1,10,1.0,7.8,M,-34.6,M,,*5A
$PYRTM,2024,122.001849035266,13.111496445405
$GPGGA,000238.00,3307.5637,N,11821.4602,W,1,10,1.0,7.5,M,-34.6,M,,*52
$PYRTM,2024,122.001860147627,13.111507557766
$GPGGA,000239.00,3307.5647,N,11821.4625,W,1,10,1.0,8.3,M,-34.6,M,,*58
$PYRTM,2024,122.001871256620,13.111518666759
$GPGGA,000240.00,3307.5655,N,11821.4648,W,1,10,1.0,4.8,M,-34.6,M,,*59
$PYRTM,2024,122.001882367882,13.111529778021
$GPGGA,000241.00,3307.5662,N,11821.4668,W,1,10,1.0,6.2,M,-34.6,M,,*56
$PYRTM,2024,122.001893813773,13.111541223912
$GPGGA,000242.00,3307.5671,N,11821.4687,W,1,10,1.0,7.3,M,-34.6,M,,*56
$PYRTM,2024,122.001905040220,13.111552450359
$GPGGA,000243.00,3307.5681,N,11821.4710,W,1,10,1.0,6.8,M,-34.6,M,,*5D
$PYRTM,2024,122.001916152581,13.111563562720
$GPGGA,000244.00,3307.5690,N,11821.4736,W,1,10,1.0,4.4,M,-34.6,M,,*50
$PYRTM,2024,122.001927261852,13.111574671991
$GPGGA,000245.00,3307.5697,N,11821.4761,W,1,10,1.0,3.8,M,-34.6,M,,*5F
$PYRTM,2024,122.001938373252,13.111585783391
$GPGGA,000246.00,3307.5704,N,11821.4781,W,1,10,1.0,7.8,M,-34.6,M,,*5D
$PYRTM,2024,122.001949484734,13.111596894873
$GPGGA,000247.00,3307.5712,N,11821.4799,W,1,10,1.0,8.8,M,-34.6,M,,*5D
$PYRTM,2024,122.001960595833,13.111608005972
$GPGGA,000248.00,3307.5722,N,11821.4819,W,1,10,1.0,9.1,M,-34.6,M,,*5E
$PYRTM,2024,122.001971708171,13.111619118310
$GPGGA,000249.00,3307.5732,N,11821.4844,W,1,10,1.0,7.0,M,-34.6,M,,*59
$PYRTM,2024,122.001985711458,13.111633121597
$GPGGA,000250.00,3307.5737,N,11821.4870,W,1,10,1.0,4.6,M,-34.6,M,,*56
$PYRTM,2024,122.001996824525,13.111644234664
$GPGGA,000251.00,3307.5744,N,11821.4894,W,1,10,1.0,3.8,M,-34.6,M,,*50
$PYRTM,2024,122.002007934595,13.111655344745
$GPGGA,000252.00,3307.5753,N,11821.4913,W,1,10,1.0,5.2,M,-34.6,M,,*57
$PYRTM,2024,122.002019045509,13.111666455660
$GPGGA,000253.00,3307.5765,N,11821.4932,W,1,10,1.0,7.1,M,-34.6,M,,*51
$PYRTM,2024,122.002030157488,13.111677567639
$GPGGA,000254.00,3307.5777,N,11821.4956,W,1,10,1.0,6.8,M,-34.6,M,,*5F
$PYRTM,2024,122.002041268854,13.111688678993
$GPGGA,000255.00,3307.5786,N,11821.4982,W,1,10,1.0,4.2,M,-34.6,M,,*51
$PYRTM,2024,122.002055157164,13.111702567303
$GPGGA,000256.00,3307.5793,N,11821.5002,W,1,10,1.0,4.6,M,-34.6,M,,*52
$PYRTM,2024,122.002066267743,13.111713677882
$GPGGA,000257.00,3307.5803,N,11821.5019,W,1,10,1.0,6.3,M,-34.6,M,,*58
$PYRTM,2024,122.002077378611,13.111724788750
$GPGGA,000258.00,3307.5816,N,11821.5040,W,1,10,1.0,7.1,M,-34.6,M,,*5C
$PYRTM,2024,122.002088490185,13.111735900324
$GPGGA,000259.00,3307.5828,N,11821.5063,W,1,10,1.0,6.4,M,-34.6,M,,*55
$PYRTM,2024,122.002099601887,13.111747012025
$GPGGA,000300.00,3307.5836,N,11821.5085,W,1,10,1.0,6.8,M,-34.6,M,,*53
$PYRTM,2024,122.002110713021,13.111758123160
$GPGGA,000301.00,3307.5842,N,11821.5104,W,1,10,1.0,6.8,M,-34.6,M,,*59
$PYRTM,2024,122.002124602731,13.111772012870
$GPGGA,000302.00,3307.5851,N,11821.5124,W,1,10,1.0,8.0,M,-34.6,M,,*5C
$PYRTM,2024,122.002135713137,13.111783123275
$GPGGA,000303.00,3307.5863,N,11821.5147,W,1,10,1.0,8.8,M,-34.6,M,,*51
$PYRTM,2024,122.002146824757,13.111794234896
$GPGGA,000304.00,3307.5874,N,11821.5170,W,1,10,1.0,8.1,M,-34.6,M,,*5D
$PYRTM,2024,122.002161419190,13.111808829329
$GPGGA,000305.00,3307.5881,N,11821.5190,W,1,10,1.0,7.7,M,-34.6,M,,*51
$PYRTM,2024,122.002172529873,13.111819940012
$GPGGA,000306.00,3307.5889,N,11821.5211,W,1,10,1.0,6.6,M,-34.6,M,,*50
$PYRTM,2024,122.002183859734,13.111831269873
$GPGGA,000307.00,3307.5899,N,11821.5235,W,1,10,1.0,9.6,M,-34.6,M,,*59
$PYRTM,2024,122.002195216609,13.111842626748
$GPGGA,000308.00,3307.5909,N,11821.5257,W,1,10,1.0,8.3,M,-34.6,M,,*5E
$PYRTM,2024,122.002206790463,13.111854200602
$GPGGA,000309.00,3307.5917,N,11821.5277,W,1,10,1.0,8.3,M,-34.6,M,,*52
$PYRTM,2024,122.002218363669,13.111865773808
$GPGGA,000310.00,3307.5925,N,11821.5298,W,1,10,1.0,11.1,M,-34.6,M,,*60
$PYRTM,2024,122.002230402558,13.111877812697
$GPGGA,000311.00,3307.5934,N,11821.5320,W,1,10,1.0,10.9,M,-34.6,M,,*6A
$PYRTM,2024,122.002241747581,13.111889157720
$GPGGA,000312.00,3307.5943,N,11821.5342,W,1,10,1.0,8.7,M,-34.6,M,,*5A
$PYRTM,2024,122.002253082338,13.111900492477
$GPGGA,000313.00,3307.5952,N,11821.5365,W,1,10,1.0,6.0,M,-34.6,M,,*57
$PYRTM,2024,122.002264664317,13.111912074456
$GPGGA,000314.00,3307.5960,N,11821.5385,W,1,10,1.0,6.1,M,-34.6,M,,*5E
$PYRTM,2024,122.002276234873,13.111923645012
$GPGGA,000315.00,3307.5968,N,11821.5405,W,1,10,1.0,7.7,M,-34.6,M,,*5F
$PYRTM,2024,122.002287811169,13.111935221308
$GPGGA,000316.00,3307.5978,N,11821.5426,W,1,10,1.0,6.6,M,-34.6,M,,*5C
$PYRTM,2024,122.002299383218,13.111946793356
$GPGGA,000317.00,3307.5989,N,11821.5449,W,1,10,1.0,6.4,M,-34.6,M,,*58
$PYRTM,2024,122.002310960405,13.111958370544
$GPGGA,000318.00,3307.5998,N,11821.5471,W,1,10,1.0,8.0,M,-34.6,M,,*56
$PYRTM,2024,122.002322533843,13.111969943981
$GPGGA,000319.00,3307.6005,N,11821.5493,W,1,10,1.0,6.5,M,-34.6,M,,*5E
$PYRTM,2024,122.002334101204,13.111981511343
$GPGGA,000320.00,3307.6012,N,11821.5514,W,1,10,1.0,6.7,M,-34.6,M,,*5E
$PYRTM,2024,122.002345680058,13.111993090197
$GPGGA,000321.00,3307.6021,N,11821.5536,W,1,10,1.0,6.9,M,-34.6,M,,*51
$PYRTM,2024,122.002357256285,13.112004666424
$GPGGA,000322.00,3307.6031,N,11821.5560,W,1,10,1.0,6.8,M,-34.6,M,,*51
$PYRTM,2024,122.002368828588,13.112016238727
$GPGGA,000323.00,3307.6040,N,11821.5582,W,1,10,1.0,7.1,M,-34.6,M,,*52
$PYRTM,2024,122.002380865428,13.112028275567
$GPGGA,000324.00,3307.6049,N,11821.5602,W,1,10,1.0,8.3,M,-34.6,M,,*5A
$PYRTM,2024,122.002391977049,13.112039387187
$GPGGA,000325.00,3307.6058,N,11821.5623,W,1,10,1.0,5.6,M,-34.6,M,,*50
$PYRTM,2024,122.002403564965,13.112050975104
$GPGGA,000326.00,3307.6068,N,11821.5648,W,1,10,1.0,5.2,M,-34.6,M,,*59
$PYRTM,2024,122.002415125012,13.112062535150
$GPGGA,000327.00,3307.6078,N,11821.5672,W,1,10,1.0,3.8,M,-34.6,M,,*5C
$PYRTM,2024,122.002426702928,13.112074113067
$GPGGA,000328.00,3307.6087,N,11821.5695,W,1,10,1.0,5.1,M,-34.6,M,,*55
$PYRTM,2024,122.002438273796,13.112085683935
$GPGGA,000329.00,3307.6097,N,11821.5714,W,1,10,1.0,6.9,M,-34.6,M,,*56
$PYRTM,2024,122.002449847836,13.112097257975
$GPGGA,000330.00,3307.6108,N,11821.5734,W,1,10,1.0,9.5,M,-34.6,M,,*58
$PYRTM,2024,122.002461422338,13.112108832477
$GPGGA,000331.00,3307.6119,N,11821.5757,W,1,10,1.0,8.3,M,-34.6,M,,*5B
$PYRTM,2024,122.002472995752,13.112120405880
$GPGGA,000332.00,3307.6130,N,11821.5781,W,1,10,1.0,5.8,M,-34.6,M,,*5E
$PYRTM,2024,122.002484569340,13.112131979479
$GPGGA,000333.00,3307.6137,N,11821.5805,W,1,10,1.0,6.4,M,-34.6,M,,*54
$PYRTM,2024,122.002497296516,13.112144706655
$GPGGA,000334.00,3307.6144,N,11821.5826,W,1,10,1.0,4.5,M,-34.6,M,,*55
$PYRTM,2024,122.002508863356,13.112156273507
$GPGGA,000335.00,3307.6154,N,11821.5844,W,1,10,1.0,6.1,M,-34.6,M,,*57
$PYRTM,2024,122.002520449769,13.112167859907
$GPGGA,000336.00,3307.6166,N,11821.5865,W,1,10,1.0,5.3,M,-34.6,M,,*57
$PYRTM,2024,122.002532011238,13.112179421377
$GPGGA,000337.00,3307.6176,N,11821.5890,W,1,10,1.0,6.0,M,-34.6,M,,*5D
$PYRTM,2024,122.002543592650,13.112191002789
$GPGGA,000338.00,3307.6184,N,11821.5915,W,1,10,1.0,4.0,M,-34.6,M,,*51
$PYRTM,2024,122.002555160914,13.112202571053
$GPGGA,000339.00,3307.6190,N,11821.5937,W,1,10,1.0,3.0,M,-34.6,M,,*52
$PYRTM,2024,122.002566742477,13.112214152627
$GPGGA,000340.00,3307.6199,N,11821.5956,W,1,10,1.0,5.6,M,-34.6,M,,*52
$PYRTM,2024,122.002578782928,13.112226193067
$GPGGA,000341.00,3307.6210,N,11821.5978,W,1,10,1.0,4.8,M,-34.6,M,,*52
$PYRTM,2024,122.002589908866,13.112237319005
$GPGGA,000342.00,3307.6221,N,11821.6001,W,1,10,1.0,3.0,M,-34.6,M,,*58
$PYRTM,2024,122.002601456354,13.112248866493
$GPGGA,000343.00,3307.6231,N,11821.6026,W,1,10,1.0,2.5,M,-34.6,M,,*59
$PYRTM,2024,122.002613042616,13.112260452766
$GPGGA,000344.00,3307.6239,N,11821.6049,W,1,10,1.0,1.8,M,-34.6,M,,*51
$PYRTM,2024,122.002624603519,13.112272013657
$GPGGA,000345.00,3307.6249,N,11821.6070,W,1,10,1.0,3.8,M,-34.6,M,,*5F
$PYRTM,2024,122.002636185428,13.112283595567
$GPGGA,000346.00,3307.6259,N,11821.6090,W,1,10,1.0,5.3,M,-34.6,M,,*5E
$PYRTM,2024,122.002647752940,13.112295163079
$GPGGA,000347.00,3307.6270,N,11821.6111,W,1,10,1.0,4.8,M,-34.6,M,,*56
$PYRTM,2024,122.002659333206,13.112306743345
$GPGGA,000348.00,3307.6279,N,11821.6136,W,1,10,1.0,2.1,M,-34.6,M,,*5A
$PYRTM,2024,122.002670901644,13.112318311782
$GPGGA,000349.00,3307.6287,N,11821.6161,W,1,10,1.0,1.7,M,-34.6,M,,*5D
$PYRTM,2024,122.002682487951,13.112329898090
$GPGGA,000350.00,3307.6294,N,11821.6181,W,1,10,1.0,3.7,M,-34.6,M,,*5B
$PYRTM,2024,122.002694051748,13.112341461887
$GPGGA,000351.00,3307.6304,N,11821.6200,W,1,10,1.0,7.7,M,-34.6,M,,*5C
$PYRTM,2024,122.002705638947,13.112353049086
$GPGGA,000352.00,3307.6317,N,11821.6223,W,1,10,1.0,6.5,M,-34.6,M,,*5F
$PYRTM,2024,122.002717198785,13.112364608924
$GPGGA,000353.00,3307.6327,N,11821.6247,W,1,10,1.0,6.1,M,-34.6,M,,*5B
$PYRTM,2024,122.002728783507,13.112376193646
$GPGGA,000354.00,3307.6335,N,11821.6272,W,1,10,1.0,7.4,M,-34.6,M,,*5D
$PYRTM,2024,122.002740344988,13.112387755127
$GPGGA,000355.00,3307.6343,N,11821.6295,W,1,10,1.0,6.7,M,-34.6,M,,*56
$PYRTM,2024,122.002751935012,13.112399345150
$GPGGA,000356.00,3307.6353,N,11821.6318,W,1,10,1.0,8.9,M,-34.6,M,,*50
$PYRTM,2024,122.002763494317,13.112410904468
$GPGGA,000357.00,3307.6364,N,11821.6339,W,1,10,1.0,8.4,M,-34.6,M,,*5B
$PYRTM,2024,122.002775084039,13.112422494178
$GPGGA,000358.00,3307.6373,N,11821.6361,W,1,10,1.0,11.3,M,-34.6,M,,*60
$PYRTM,2024,122.002786641562,13.112434051701
$GPGGA,000359.00,3307.6383,N,11821.6385,W,1,10,1.0,8.5,M,-34.6,M,,*5A
$PYRTM,2024,122.002798227905,13.112445638044
$GPGGA,000400.00,3307.6391,N,11821.6409,W,1,10,1.0,8.3,M,-34.6,M,,*57
$PYRTM,2024,122.002809789444,13.112457199583
$GPGGA,000401.00,3307.6400,N,11821.6431,W,1,10,1.0,9.6,M,-34.6,M,,*56
$PYRTM,2024,122.002821371748,13.112468781887
$GPGGA,000402.00,3307.6410,N,11821.6451,W,1,10,1.0,11.2,M,-34.6,M,,*6F
$PYRTM,2024,122.002832937373,13.112480347512
$GPGGA,000403.00,3307.6420,N,11821.6474,W,1,10,1.0,12.6,M,-34.6,M,,*6D
$PYRTM,2024,122.002845671065,13.112493081204
$GPGGA,000404.00,3307.6429,N,11821.6499,W,1,10,1.0,11.2,M,-34.6,M,,*67
$PYRTM,2024,122.002858303299,13.112505713437
$GPGGA,000405.00,3307.6437,N,11821.6524,W,1,10,1.0,5.9,M,-34.6,M,,*50
$PYRTM,2024,122.002867673102,13.112515083241
$GPGGA,000406.00,3307.6445,N,11821.6545,W,1,10,1.0,8.3,M,-34.6,M,,*56
$PYRTM,2024,122.002879235104,13.112526645243
$GPGGA,000407.00,3307.6456,N,11821.6566,W,1,10,1.0,9.1,M,-34.6,M,,*57
$PYRTM,2024,122.002890816609,13.112538226748
$GPGGA,000408.00,3307.6468,N,11821.6587,W,1,10,1.0,9.1,M,-34.6,M,,*5A
$PYRTM,2024,122.002902383808,13.112549793947
$GPGGA,000409.00,3307.6479,N,11821.6611,W,1,10,1.0,7.6,M,-34.6,M,,*5E
$PYRTM,2024,122.002913973738,13.112561383877
$GPGGA,000410.00,3307.6486,N,11821.6637,W,1,10,1.0,2.8,M,-34.6,M,,*59
$PYRTM,2024,122.002926008333,13.112573418472
$GPGGA,000411.00,3307.6494,N,11821.6660,W,1,10,1.0,5.3,M,-34.6,M,,*55
$PYRTM,2024,122.002937133437,13.112584543576
$GPGGA,000412.00,3307.6504,N,11821.6681,W,1,10,1.0,5.5,M,-34.6,M,,*57
$PYRTM,2024,122.002948678681,13.112596088819
$GPGGA,000413.00,3307.6515,N,11821.6704,W,1,10,1.0,7.0,M,-34.6,M,,*5D
$PYRTM,2024,122.002960717072,13.112608127211
$GPGGA,000414.00,3307.6524,N,11821.6728,W,1,10,1.0,9.1,M,-34.6,M,,*59
$PYRTM,2024,122.002971828623,13.112619238762
$GPGGA,000415.00,3307.6530,N,11821.6752,W,1,10,1.0,6.8,M,-34.6,M,,*56
$PYRTM,2024,122.002983414329,13.112630824468
$GPGGA,000416.00,3307.6537,N,11821.6774,W,1,10,1.0,8.8,M,-34.6,M,,*58
$PYRTM,2024,122.002994975683,13.112642385822
$GPGGA,000417.00,3307.6546,N,11821.6795,W,1,10,1.0,8.0,M,-34.6,M,,*58
$PYRTM,2024,122.003006558067,13.112653968206
$GPGGA,000418.00,3307.6556,N,11821.6816,W,1,10,1.0,8.1,M,-34.6,M,,*53
$PYRTM,2024,122.003018124815,13.112665534954
$GPGGA,000419.00,3307.6565,N,11821.6838,W,1,10,1.0,6.1,M,-34.6,M,,*50
$PYRTM,2024,122.003029713125,13.112677123264
$GPGGA,000420.00,3307.6574,N,11821.6862,W,1,10,1.0,7.5,M,-34.6,M,,*50
$PYRTM,2024,122.003041273241,13.112688683380
$GPGGA,000421.00,3307.6584,N,11821.6885,W,1,10,1.0,7.2,M,-34.6,M,,*50
$PYRTM,2024,122.003052859097,13.112700269236
$GPGGA,000422.00,3307.6596,N,11821.6908,W,1,10,1.0,7.9,M,-34.6,M,,*5F
$PYRTM,2024,122.003064420938,13.112711831076
$GPGGA,000423.00,3307.6605,N,11821.6931,W,1,10,1.0,8.2,M,-34.6,M,,*59
$PYRTM,2024,122.003076007292,13.112723417431
$GPGGA,000424.00,3307.6614,N,11821.6953,W,1,10,1.0,8.1,M,-34.6,M,,*59
$PYRTM,2024,122.003087569016,13.112734979155
$GPGGA,000425.00,3307.6624,N,11821.6974,W,1,10,1.0,7.1,M,-34.6,M,,*51
$PYRTM,2024,122.003099159954,13.112746570093
$GPGGA,000426.00,3307.6635,N,11821.6998,W,1,10,1.0,6.2,M,-34.6,M,,*52
$PYRTM,2024,122.003110718530,13.112758128669
$GPGGA,000427.00,3307.6644,N,11821.7021,W,1,10,1.0,5.1,M,-34.6,M,,*5F
$PYRTM,2024,122.003122306447,13.112769716586
$GPGGA,000428.00,3307.6652,N,11821.7040,W,1,10,1.0,5.2,M,-34.6,M,,*53
$PYRTM,2024,122.003133867130,13.112781277269
$GPGGA,000429.00,3307.6662,N,11821.7062,W,1,10,1.0,5.7,M,-34.6,M,,*54
$PYRTM,2024,122.003145456377,13.112792866528
$GPGGA,000430.00,3307.6671,N,11821.7088,W,1,10,1.0,7.0,M,-34.6,M,,*5F
$PYRTM,2024,122.003157015775,13.112804425914
$GPGGA,000431.00,3307.6680,N,11821.7112,W,1,10,1.0,5.7,M,-34.6,M,,*57
$PYRTM,2024,122.003168595289,13.112816005428
$GPGGA,000432.00,3307.6688,N,11821.7133,W,1,10,1.0,5.5,M,-34.6,M,,*5D
$PYRTM,2024,122.003180162581,13.112827572731
$GPGGA,000433.00,3307.6697,N,11821.7153,W,1,10,1.0,5.7,M,-34.6,M,,*56
$PYRTM,2024,122.003192779062,13.112840189201
$GPGGA,000434.00,3307.6707,N,11821.7176,W,1,10,1.0,7.5,M,-34.6,M,,*5E
$PYRTM,2024,122.003205522882,13.112852933032
$GPGGA,000435.00,3307.6717,N,11821.7199,W,1,10,1.0,5.1,M,-34.6,M,,*59
$PYRTM,2024,122.003214901262,13.112862311400
$GPGGA,000436.00,3307.6727,N,11821.7223,W,1,10,1.0,3.3,M,-34.6,M,,*5F
$PYRTM,2024,122.003226459132,13.112873869271
$GPGGA,000437.00,3307.6737,N,11821.7246,W,1,10,1.0,3.9,M,-34.6,M,,*56
$PYRTM,2024,122.003237123507,13.112884533646
$GPGGA,000438.00,3307.6746,N,11821.7269,W,1,10,1.0,6.4,M,-34.6,M,,*5A
$PYRTM,2024,122.003250083137,13.112897493275
$GPGGA,000439.00,3307.6756,N,11821.7294,W,1,10,1.0,6.5,M,-34.6,M,,*59
$PYRTM,2024,122.003258980162,13.112906390301
$GPGGA,000440.00,3307.6766,N,11821.7319,W,1,10,1.0,6.0,M,-34.6,M,,*55
$PYRTM,2024,122.003276011713,13.112923421852
$GPGGA,000441.00,3307.6774,N,11821.7342,W,1,10,1.0,5.8,M,-34.6,M,,*52
$PYRTM,2024,122.003287123090,13.112934533229
$GPGGA,000442.00,3307.6784,N,11821.7363,W,1,10,1.0,5.4,M,-34.6,M,,*51
$PYRTM,2024,122.003298220104,13.112945630243
$GPGGA,000443.00,3307.6795,N,11821.7387,W,1,10,1.0,5.9,M,-34.6,M,,*57
$PYRTM,2024,122.003309338125,13.112956748264
$GPGGA,000444.00,3307.6805,N,11821.7411,W,1,10,1.0,5.2,M,-34.6,M,,*55
$PYRTM,2024,122.003320441713,13.112967851852
$GPGGA,000445.00,3307.6814,N,11821.7432,W,1,10,1.0,5.9,M,-34.6,M,,*5E
$PYRTM,2024,122.003331554120,13.112978964259
$GPGGA,000446.00,3307.6824,N,11821.7453,W,1,10,1.0,5.9,M,-34.6,M,,*59
$PYRTM,2024,122.003342679942,13.112990090081
$GPGGA,000447.00,3307.6834,N,11821.7478,W,1,10,1.0,7.3,M,-34.6,M,,*58
$PYRTM,2024,122.003353787153,13.113001197292
$GPGGA,000448.00,3307.6844,N,11821.7503,W,1,10,1.0,6.9,M,-34.6,M,,*56
$PYRTM,2024,122.003364900868,13.113012311019
$GPGGA,000449.00,3307.6853,N,11821.7525,W,1,10,1.0,7.8,M,-34.6,M,,*55
$PYRTM,2024,122.003376009687,13.113023419826
$GPGGA,000450.00,3307.6864,N,11821.7547,W,1,10,1.0,8.9,M,-34.6,M,,*53
$PYRTM,2024,122.003387116944,13.113034527083
$GPGGA,000451.00,3307.6876,N,11821.7571,W,1,10,1.0,8.5,M,-34.6,M,,*58
$PYRTM,2024,122.003398341863,13.113045752002
$GPGGA,000452.00,3307.6886,N,11821.7596,W,1,10,1.0,9.2,M,-34.6,M,,*5B
$PYRTM,2024,122.003409907894,13.113057318044
$GPGGA,000453.00,3307.6894,N,11821.7618,W,1,10,1.0,9.5,M,-34.6,M,,*5B
$PYRTM,2024,122.003421490625,13.113068900764
$GPGGA,000454.00,3307.6904,N,11821.7639,W,1,10,1.0,10.4,M,-34.6,M,,*6E
$PYRTM,2024,122.003433054155,13.113080464294
$GPGGA,000455.00,3307.6914,N,11821.7661,W,1,10,1.0,9.3,M,-34.6,M,,*5C
$PYRTM,2024,122.003444644097,13.113092054236
$GPGGA,000456.00,3307.6926,N,11821.7684,W,1,10,1.0,6.0,M,-34.6,M,,*59
$PYRTM,2024,122.003456205023,13.113103615162
$GPGGA,000457.00,3307.6938,N,11821.7709,W,1,10,1.0,4.9,M,-34.6,M,,*58
$PYRTM,2024,122.003467791204,13.113115201343
$GPGGA,000458.00,3307.6947,N,11821.7732,W,1,10,1.0,5.4,M,-34.6,M,,*5B
$PYRTM,2024,122.003479352593,13.113126762731
$GPGGA,000459.00,3307.6954,N,11821.7754,W,1,10,1.0,6.2,M,-34.6,M,,*5D
$PYRTM,2024,122.003490940324,13.113138350463
$GPGGA,000500.00,3307.6963,N,11821.7775,W,1,10,1.0,8.0,M,-34.6,M,,*5B
$PYRTM,2024,122.003502499421,13.113149909560
$GPGGA,000501.00,3307.6974,N,11821.7799,W,1,10,1.0,7.9,M,-34.6,M,,*58
$PYRTM,2024,122.003514088299,13.113161498449
$GPGGA,000502.00,3307.6985,N,11821.7824,W,1,10,1.0,6.2,M,-34.6,M,,*56
$PYRTM,2024,122.003525647569,13.113173057708
$GPGGA,000503.00,3307.6993,N,11821.7849,W,1,10,1.0,4.7,M,-34.6,M,,*5C
$PYRTM,2024,122.003538736655,13.113186146794
$GPGGA,000504.00,3307.7000,N,11821.7870,W,1,10,1.0,7.4,M,-34.6,M,,*53
$PYRTM,2024,122.003549388715,13.113196798854
$GPGGA,000505.00,3307.7010,N,11821.7890,W,1,10,1.0,9.8,M,-34.6,M,,*5F
$PYRTM,2024,122.003560963993,13.113208374132
$GPGGA,000506.00,3307.7022,N,11821.7911,W,1,10,1.0,8.8,M,-34.6,M,,*54
$PYRTM,2024,122.003572537106,13.113219947245
$GPGGA,000507.00,3307.7033,N,11821.7936,W,1,10,1.0,6.0,M,-34.6,M,,*56
$PYRTM,2024,122.003584115428,13.113231525567
$GPGGA,000508.00,3307.7041,N,11821.7963,W,1,10,1.0,5.6,M,-34.6,M,,*59
$PYRTM,2024,122.003595685694,13.113243095833
$GPGGA,000509.00,3307.7047,N,11821.7987,W,1,10,1.0,5.0,M,-34.6,M,,*52
$PYRTM,2024,122.003607262813,13.113254672951
$GPGGA,000510.00,3307.7054,N,11821.8005,W,1,10,1.0,6.9,M,-34.6,M,,*5E
$PYRTM,2024,122.003619298171,13.113266708322
$GPGGA,000511.00,3307.7064,N,11821.8024,W,1,10,1.0,6.7,M,-34.6,M,,*51
$PYRTM,2024,122.003630409572,13.113277819711
$GPGGA,000512.00,3307.7074,N,11821.8045,W,1,10,1.0,5.7,M,-34.6,M,,*57
$PYRTM,2024,122.003641977361,13.113289387500
$GPGGA,000513.00,3307.7083,N,11821.8071,W,1,10,1.0,3.8,M,-34.6,M,,*50
$PYRTM,2024,122.003653556771,13.113300966910
$GPGGA,000514.00,3307.7090,N,11821.8096,W,1,10,1.0,2.9,M,-34.6,M,,*5C
$PYRTM,2024,122.003665129988,13.113312540127
$GPGGA,000515.00,3307.7099,N,11821.8120,W,1,10,1.0,1.3,M,-34.6,M,,*51
$PYRTM,2024,122.003676705347,13.113324115486
$GPGGA,000516.00,3307.7108,N,11821.8141,W,1,10,1.0,3.5,M,-34.6,M,,*58
$PYRTM,2024,122.003688274340,13.113335684479
$GPGGA,000517.00,3307.7118,N,11821.8161,W,1,10,1.0,5.9,M,-34.6,M,,*50
$PYRTM,2024,122.003699854109,13.113347264259
$GPGGA,000518.00,3307.7128,N,11821.8185,W,1,10,1.0,7.2,M,-34.6,M,,*5F
$PYRTM,2024,122.003711429583,13.113358839722
$GPGGA,000519.00,3307.7136,N,11821.8210,W,1,10,1.0,6.1,M,-34.6,M,,*5C
$PYRTM,2024,122.003723001806,13.113370411944
$GPGGA,000520.00,3307.7143,N,11821.8233,W,1,10,1.0,4.7,M,-34.6,M,,*51
$PYRTM,2024,122.003734575613,13.113381985752
$GPGGA,000521.00,3307.7152,N,11821.8255,W,1,10,1.0,4.1,M,-34.6,M,,*56
$PYRTM,2024,122.003746153056,13.113393563206
$GPGGA,000522.00,3307.7165,N,11821.8275,W,1,10,1.0,5.8,M,-34.6,M,,*5B
$PYRTM,2024,122.003757723727,13.113405133877
$GPGGA,000523.00,3307.7176,N,11821.8297,W,1,10,1.0,8.1,M,-34.6,M,,*50
$PYRTM,2024,122.003769300938,13.113416711088
$GPGGA,000524.00,3307.7185,N,11821.8321,W,1,10,1.0,8.8,M,-34.6,M,,*5E
$PYRTM,2024,122.003780872164,13.113428282303
$GPGGA,000525.00,3307.7194,N,11821.8345,W,1,10,1.0,8.5,M,-34.6,M,,*50
$PYRTM,2024,122.003792446551,13.113439856690
$GPGGA,000526.00,3307.7204,N,11821.8369,W,1,10,1.0,6.3,M,-34.6,M,,*5F
$PYRTM,2024,122.003804019398,13.113451429537
$GPGGA,000527.00,3307.7215,N,11821.8392,W,1,10,1.0,5.1,M,-34.6,M,,*5B
$PYRTM,2024,122.003815595347,13.113463005498
$GPGGA,000528.00,3307.7226,N,11821.8414,W,1,10,1.0,7.7,M,-34.6,M,,*59
$PYRTM,2024,122.003827168519,13.113474578657
$GPGGA,000529.00,3307.7235,N,11821.8434,W,1,10,1.0,8.0,M,-34.6,M,,*50
$PYRTM,2024,122.003838745220,13.113486155359
$GPGGA,000530.00,3307.7245,N,11821.8455,W,1,10,1.0,7.0,M,-34.6,M,,*57
$PYRTM,2024,122.003850316991,13.113497727130
$GPGGA,000531.00,3307.7256,N,11821.8479,W,1,10,1.0,5.9,M,-34.6,M,,*51
$PYRTM,2024,122.003861894792,13.113509304931
$GPGGA,000532.00,3307.7266,N,11821.8504,W,1,10,1.0,3.5,M,-34.6,M,,*50
$PYRTM,2024,122.003873464838,13.113520874977
$GPGGA,000533.00,3307.7275,N,11821.8526,W,1,10,1.0,3.9,M,-34.6,M,,*5F
$PYRTM,2024,122.003886200544,13.113533610683
$GPGGA,000534.00,3307.7285,N,11821.8547,W,1,10,1.0,4.9,M,-34.6,M,,*57
$PYRTM,2024,122.003897757998,13.113545168137
$GPGGA,000535.00,3307.7295,N,11821.8570,W,1,10,1.0,6.0,M,-34.6,M,,*58
$PYRTM,2024,122.003909340127,13.113556750266
$GPGGA,000536.00,3307.7306,N,11821.8594,W,1,10,1.0,5.6,M,-34.6,M,,*5F
$PYRTM,2024,122.003920906100,13.113568316238
$GPGGA,000537.00,3307.7315,N,11821.8616,W,1,10,1.0,6.5,M,-34.6,M,,*55
$PYRTM,2024,122.003932494734,13.113579904884
$GPGGA,000538.00,3307.7324,N,11821.8637,W,1,10,1.0,7.4,M,-34.6,M,,*5B
$PYRTM,2024,122.003944054109,13.113591464248
$GPGGA,000539.00,3307.7335,N,11821.8660,W,1,10,1.0,6.4,M,-34.6,M,,*59
$PYRTM,2024,122.003955636157,13.113603046296
$GPGGA,000540.00,3307.7347,N,11821.8684,W,1,10,1.0,4.7,M,-34.6,M,,*59
$PYRTM,2024,122.003967565660,13.113614975799
$GPGGA,000541.00,3307.7356,N,11821.8708,W,1,10,1.0,5.1,M,-34.6,M,,*5A
$PYRTM,2024,122.003978793218,13.113626203356
$GPGGA,000542.00,3307.7365,N,11821.8729,W,1,10,1.0,5.2,M,-34.6,M,,*59
$PYRTM,2024,122.003990350937,13.113637761076
$GPGGA,000543.00,3307.7373,N,11821.8750,W,1,10,1.0,5.8,M,-34.6,M,,*5B
$PYRTM,2024,122.004001937836,13.113649347975
$GPGGA,000544.00,3307.7383,N,11821.8774,W,1,10,1.0,5.6,M,-34.6,M,,*5B
$PYRTM,2024,122.004013498854,13.113660908993
$GPGGA,000545.00,3307.7393,N,11821.8797,W,1,10,1.0,2.7,M,-34.6,M,,*50
$PYRTM,2024,122.004025099387,13.113672509525
$GPGGA,000546.00,3307.7403,N,11821.8820,W,1,10,1.0,2.3,M,-34.6,M,,*5A
$PYRTM,2024,122.004036646736,13.113684056875
$GPGGA,000547.00,3307.7411,N,11821.8843,W,1,10,1.0,1.3,M,-34.6,M,,*5E
$PYRTM,2024,122.004048248808,13.113695658958
$GPGGA,000548.00,3307.7418,N,11821.8866,W,1,10,1.0,3.6,M,-34.6,M,,*58
$PYRTM,2024,122.004059794734,13.113707204884
$GPGGA,000549.00,3307.7427,N,11821.8888,W,1,10,1.0,5.5,M,-34.6,M,,*50
$PYRTM,2024,122.004071388646,13.113718798785
$GPGGA,000550.00,3307.7437,N,11821.8911,W,1,10,1.0,4.7,M,-34.6,M,,*5B
$PYRTM,2024,122.004082944861,13.113730355000
$GPGGA,000551.00,3307.7446,N,11821.8936,W,1,10,1.0,1.9,M,-34.6,M,,*52
$PYRTM,2024,122.004094526215,13.113741936354
$GPGGA,000552.00,3307.7455,N,11821.8961,W,1,10,1.0,2.8,M,-34.6,M,,*53
$PYRTM,2024,122.004106092338,13.113753502477
$GPGGA,000553.00,3307.7464,N,11821.8981,W,1,10,1.0,5.6,M,-34.6,M,,*57
$PYRTM,2024,122.004118015984,13.113765426123
$GPGGA,000554.00,3307.7474,N,11821.9002,W,1,10,1.0,5.5,M,-34.6,M,,*51
$PYRTM,2024,122.004129240509,13.113776650660
$GPGGA,000555.00,3307.7487,N,11821.9026,W,1,10,1.0,7.6,M,-34.6,M,,*5B
$PYRTM,2024,122.004140827118,13.113788237257
$GPGGA,000556.00,3307.7497,N,11821.9051,W,1,10,1.0,5.7,M,-34.6,M,,*5A
$PYRTM,2024,122.004152387963,13.113799798102
$GPGGA,000557.00,3307.7506,N,11821.9073,W,1,10,1.0,6.4,M,-34.6,M,,*52
$PYRTM,2024,122.004163976343,13.113811386481
$GPGGA,000558.00,3307.7515,N,11821.9094,W,1,10,1.0,6.4,M,-34.6,M,,*56
$PYRTM,2024,122.004175536435,13.113822946574
$GPGGA,000559.00,3307.7526,N,11821.9115,W,1,10,1.0,5.8,M,-34.6,M,,*50
$PYRTM,2024,122.004187122720,13.113834532859
$GPGGA,000600.00,3307.7537,N,11821.9137,W,1,10,1.0,8.9,M,-34.6,M,,*53
$PYRTM,2024,122.004198685116,13.113846095255
$GPGGA,000601.00,3307.7547,N,11821.9158,W,1,10,1.0,6.3,M,-34.6,M,,*58
$PYRTM,2024,122.004210285706,13.113857695845
$GPGGA,000602.00,3307.7555,N,11821.9179,W,1,10,1.0,4.7,M,-34.6,M,,*5D
$PYRTM,2024,122.004221833090,13.113869243229
$GPGGA,000603.00,3307.7565,N,11821.9202,W,1,10,1.0,6.5,M,-34.6,M,,*50
$PYRTM,2024,122.004234449155,13.113881859294
$GPGGA,000604.00,3307.7573,N,11821.9225,W,1,10,1.0,4.3,M,-34.6,M,,*51
$PYRTM,2024,122.004247181678,13.113894591829
$GPGGA,000605.00,3307.7583,N,11821.9247,W,1,09,1.0,3.0,M,-34.6,M,,*57
$PYRTM,2024,122.004256568646,13.113903978785
$GPGGA,000606.00,3307.7593,N,11821.9269,W,1,09,1.0,5.5,M,-34.6,M,,*5A
$PYRTM,2024,122.004268129618,13.113915539745
$GPGGA,000607.00,3307.7603,N,11821.9292,W,1,09,1.0,3.1,M,-34.6,M,,*57
$PYRTM,2024,122.004279716748,13.113927126898
$GPGGA,000608.00,3307.7612,N,11821.9316,W,1,09,1.0,4.9,M,-34.6,M,,*5A
$PYRTM,2024,122.004291276632,13.113938686771
$GPGGA,000609.00,3307.7622,N,11821.9339,W,1,09,1.0,2.8,M,-34.6,M,,*52
$PYRTM,2024,122.004302865544,13.113950275683
$GPGGA,000610.00,3307.7631,N,11821.9361,W,1,09,1.0,3.7,M,-34.6,M,,*5B
$PYRTM,2024,122.004314790116,13.113962200255
$GPGGA,000611.00,3307.7640,N,11821.9385,W,1,09,1.0,0.9,M,-34.6,M,,*5B
$PYRTM,2024,122.004326014444,13.113973424583
$GPGGA,000612.00,3307.7651,N,11821.9409,W,1,09,1.0,-0.3,M,-34.6,M,,*7C
$PYRTM,2024,122.004337574109,13.113984984248
$GPGGA,000613.00,3307.7661,N,11821.9433,W,1,09,1.0,2.3,M,-34.6,M,,*58
$PYRTM,2024,122.004349162141,13.113996572280
$GPGGA,000614.00,3307.7670,N,11821.9454,W,1,09,1.0,1.1,M,-34.6,M,,*5F
$PYRTM,2024,122.004360722697,13.114008132836
$GPGGA,000615.00,3307.7677,N,11821.9476,W,1,09,1.0,3.1,M,-34.6,M,,*5B
$PYRTM,2024,122.004372325255,13.114019735394
$GPGGA,000616.00,3307.7686,N,11821.9499,W,1,09,1.0,2.4,M,-34.6,M,,*53
$PYRTM,2024,122.004383869734,13.114031279873
$GPGGA,000617.00,3307.7695,N,11821.9521,W,1,09,1.0,3.0,M,-34.6,M,,*57
$PYRTM,2024,122.004395471620,13.114042881759
$GPGGA,000618.00,3307.7706,N,11821.9545,W,1,09,1.0,2.4,M,-34.6,M,,*54
$PYRTM,2024,122.004407018634,13.114054428773
$GPGGA,000619.00,3307.7715,N,11821.9569,W,1,09,1.0,1.6,M,-34.6,M,,*58
$PYRTM,2024,122.004418606146,13.114066016285
$GPGGA,000620.00,3307.7724,N,11821.9590,W,1,09,1.0,2.2,M,-34.6,M,,*51
$PYRTM,2024,122.004430166898,13.114077577037
$GPGGA,000621.00,3307.7734,N,11821.9610,W,1,09,1.0,4.3,M,-34.6,M,,*5D
$PYRTM,2024,122.004441750590,13.114089160729
$GPGGA,000622.00,3307.7744,N,11821.9635,W,1,09,1.0,0.2,M,-34.6,M,,*5B
$PYRTM,2024,122.004453315417,13.114100725556
$GPGGA,000623.00,3307.7754,N,11821.9660,W,1,09,1.0,0.7,M,-34.6,M,,*5E
$PYRTM,2024,122.004464903461,13.114112313600
$GPGGA,000624.00,3307.7763,N,11821.9681,W,1,09,1.0,2.7,M,-34.6,M,,*50
$PYRTM,2024,122.004476462882,13.114123873021
$GPGGA,000625.00,3307.7772,N,11821.9701,W,1,09,1.0,5.5,M,-34.6,M,,*5D
$PYRTM,2024,122.004488054387,13.114135464525
$GPGGA,000626.00,3307.7782,N,11821.9723,W,1,09,1.0,3.1,M,-34.6,M,,*53
$PYRTM,2024,122.004499611782,13.114147021921
$GPGGA,000627.00,3307.7792,N,11821.9748,W,1,09,1.0,4.4,M,-34.6,M,,*5C
$PYRTM,2024,122.004511200359,13.114158610509
$GPGGA,000628.00,3307.7800,N,11821.9774,W,1,09,1.0,3.4,M,-34.6,M,,*5F
$PYRTM,2024,122.004522760787,13.114170170926
$GPGGA,000629.00,3307.7810,N,11821.9795,W,1,09,1.0,4.4,M,-34.6,M,,*57
$PYRTM,2024,122.004534350451,13.114181760590
$GPGGA,000630.00,3307.7821,N,11821.9816,W,1,09,1.0,4.7,M,-34.6,M,,*5A
$PYRTM,2024,122.004545908299,13.114193318438
$GPGGA,000631.00,3307.7833,N,11821.9839,W,1,09,1.0,6.8,M,-34.6,M,,*58
$PYRTM,2024,122.004557498819,13.114204908958
$GPGGA,000632.00,3307.7842,N,11821.9864,W,1,09,1.0,7.6,M,-34.6,M,,*5A
$PYRTM,2024,122.004569058715,13.114216468854
$GPGGA,000633.00,3307.7850,N,11821.9886,W,1,09,1.0,5.8,M,-34.6,M,,*58
$PYRTM,2024,122.004581672616,13.114229082755
$GPGGA,000634.00,3307.7858,N,11821.9908,W,1,09,1.0,4.1,M,-34.6,M,,*58
$PYRTM,2024,122.004594402905,13.114241813044
$GPGGA,000635.00,3307.7868,N,11821.9931,W,1,09,1.0,3.4,M,-34.6,M,,*52
$PYRTM,2024,122.004603791273,13.114251201412
$GPGGA,000636.00,3307.7878,N,11821.9951,W,1,09,1.0,6.1,M,-34.6,M,,*56
$PYRTM,2024,122.004615352894,13.114262763032
$GPGGA,000637.00,3307.7889,N,11821.9970,W,1,09,1.0,4.6,M,-34.6,M,,*5F
$PYRTM,2024,122.004626942130,13.114274352280
$GPGGA,000638.00,3307.7901,N,11821.9991,W,1,09,1.0,3.9,M,-34.6,M,,*56
$PYRTM,2024,122.004638501412,13.114285911551
$GPGGA,000639.00,3307.7909,N,11822.0014,W,1,09,1.0,4.0,M,-34.6,M,,*5F
$PYRTM,2024,122.004650088924,13.114297499063
$GPGGA,000640.00,3307.7917,N,11822.0035,W,1,09,1.0,3.0,M,-34.6,M,,*5A
$PYRTM,2024,122.004662015556,13.114309425694
$GPGGA,000641.00,3307.7926,N,11822.0055,W,1,09,1.0,2.5,M,-34.6,M,,*5B
$PYRTM,2024,122.004673237396,13.114320647535
$GPGGA,000642.00,3307.7936,N,11822.0074,W,1,09,1.0,2.9,M,-34.6,M,,*56
$PYRTM,2024,122.004683872072,13.114331282211
$GPGGA,000643.00,3307.7947,N,11822.0095,W,1,09,1.0,3.9,M,-34.6,M,,*5F
$PYRTM,2024,122.004696835370,13.114344245509
$GPGGA,000644.00,3307.7956,N,11822.0117,W,1,09,1.0,3.4,M,-34.6,M,,*5E
$PYRTM,2024,122.004708061944,13.114355472083
$GPGGA,000645.00,3307.7965,N,11822.0140,W,1,09,1.0,2.7,M,-34.6,M,,*5F
$PYRTM,2024,122.004719172870,13.114366583009
$GPGGA,000646.00,3307.7975,N,11822.0164,W,1,09,1.0,3.7,M,-34.6,M,,*5A
$PYRTM,2024,122.004730283391,13.114377693542
$GPGGA,000647.00,3307.7986,N,11822.0189,W,1,09,1.0,2.3,M,-34.6,M,,*51
$PYRTM,2024,122.004741394259,13.114388804398
$GPGGA,000648.00,3307.7995,N,11822.0209,W,1,09,1.0,3.8,M,-34.6,M,,*5D
$PYRTM,2024,122.004752507118,13.114399917257
$GPGGA,000649.00,3307.8006,N,11822.0229,W,1,09,1.0,3.9,M,-34.6,M,,*53
$PYRTM,2024,122.004763617454,13.114411027593
$GPGGA,000650.00,3307.8014,N,11822.0253,W,1,09,1.0,2.8,M,-34.6,M,,*55
$PYRTM,2024,122.004774729884,13.114422140035
$GPGGA,000651.00,3307.8021,N,11822.0277,W,1,09,1.0,-0.8,M,-34.6,M,,*7B
$PYRTM,2024,122.004785838646,13.114433248785
$GPGGA,000652.00,3307.8029,N,11822.0298,W,1,09,1.0,0.3,M,-34.6,M,,*57
$PYRTM,2024,122.004796951019,13.114444361157
$GPGGA,000653.00,3307.8040,N,11822.0319,W,1,09,1.0,0.5,M,-34.6,M,,*57
$PYRTM,2024,122.004808062130,13.114455472280
$GPGGA,000654.00,3307.8052,N,11822.0342,W,1,09,1.0,1.8,M,-34.6,M,,*51
$PYRTM,2024,122.004819173808,13.114466583947
$GPGGA,000655.00,3307.8061,N,11822.0364,W,1,09,1.0,2.4,M,-34.6,M,,*5B
$PYRTM,2024,122.004830283565,13.114477693704
$GPGGA,000656.00,3307.8070,N,11822.0385,W,1,09,1.0,1.3,M,-34.6,M,,*53
$PYRTM,2024,122.004841526921,13.114488937060
$GPGGA,000657.00,3307.8080,N,11822.0408,W,1,09,1.0,1.2,M,-34.6,M,,*5E
$PYRTM,2024,122.004853101192,13.114500511331
$GPGGA,000658.00,3307.8090,N,11822.0433,W,1,09,1.0,-0.3,M,-34.6,M,,*75
$PYRTM,2024,122.004864674421,13.114512084560
$GPGGA,000659.00,3307.8100,N,11822.0455,W,1,09,1.0,0.0,M,-34.6,M,,*52
$PYRTM,2024,122.004876247211,13.114523657350
$GPGGA,000700.00,3307.8108,N,11822.0477,W,1,09,1.0,1.9,M,-34.6,M,,*5F
$PYRTM,2024,122.004887824329,13.114535234479
$GPGGA,000701.00,3307.8116,N,11822.0501,W,1,09,1.0,2.4,M,-34.6,M,,*5F
$PYRTM,2024,122.004899396169,13.114546806319
$GPGGA,000702.00,3307.8124,N,11822.0523,W,1,09,1.0,1.5,M,-34.6,M,,*5F
$PYRTM,2024,122.004910973750,13.114558383889
$GPGGA,000703.00,3307.8133,N,11822.0545,W,1,09,1.0,1.7,M,-34.6,M,,*5A
$PYRTM,2024,122.004922543206,13.114569953345
$GPGGA,000704.00,3307.8142,N,11822.0567,W,1,09,1.0,1.6,M,-34.6,M,,*5A
$PYRTM,2024,122.004938278657,13.114585688796
$GPGGA,000705.00,3307.8150,N,11822.0590,W,1,09,1.0,0.6,M,-34.6,M,,*51
$PYRTM,2024,122.004949859144,13.114597269282
$GPGGA,000706.00,3307.8157,N,11822.0615,W,1,09,1.0,0.3,M,-34.6,M,,*5E
$PYRTM,2024,122.004961433345,13.114608843484
$GPGGA,000707.00,3307.8165,N,11822.0638,W,1,09,1.0,2.0,M,-34.6,M,,*50
$PYRTM,2024,122.004973002199,13.114620412338
$GPGGA,000708.00,3307.8174,N,11822.0660,W,1,09,1.0,1.6,M,-34.6,M,,*57
$PYRTM,2024,122.004984583981,13.114631994120
$GPGGA,000709.00,3307.8184,N,11822.0683,W,1,09,1.0,2.0,M,-34.6,M,,*51
$PYRTM,2024,122.004996156042,13.114643566192
$GPGGA,000710.00,3307.8193,N,11822.0707,W,1,09,1.0,4.4,M,-34.6,M,,*50
$PYRTM,2024,122.005008192558,13.114655602697
$GPGGA,000711.00,3307.8201,N,11822.0729,W,1,09,1.0,3.1,M,-34.6,M,,*57
$PYRTM,2024,122.005019303576,13.114666713715
$GPGGA,000712.00,3307.8209,N,11822.0752,W,1,09,1.0,3.8,M,-34.6,M,,*59
$PYRTM,2024,122.005030876759,13.114678286898
$GPGGA,000713.00,3307.8220,N,11822.0776,W,1,09,1.0,1.6,M,-34.6,M,,*59
$PYRTM,2024,122.005042454826,13.114689864977
$GPGGA,000714.00,3307.8231,N,11822.0799,W,1,09,1.0,4.3,M,-34.6,M,,*5F
$PYRTM,2024,122.005054025868,13.114701436007
$GPGGA,000715.00,3307.8241,N,11822.0823,W,1,09,1.0,3.2,M,-34.6,M,,*51
$PYRTM,2024,122.005065603368,13.114713013507
$GPGGA,000716.00,3307.8250,N,11822.0847,W,1,09,1.0,3.5,M,-34.6,M,,*57
$PYRTM,2024,122.005077173912,13.114724584062
$GPGGA,000717.00,3307.8260,N,11822.0872,W,1,09,1.0,1.7,M,-34.6,M,,*53
$PYRTM,2024,122.005088748495,13.114736158634
$GPGGA,000718.00,3307.8270,N,11822.0895,W,1,09,1.0,1.7,M,-34.6,M,,*54
$PYRTM,2024,122.005100323032,13.114747733183
$GPGGA,000719.00,3307.8280,N,11822.0917,W,1,09,1.0,2.7,M,-34.6,M,,*52
$PYRTM,2024,122.005111898542,13.114759308681
$GPGGA,000720.00,3307.8290,N,11822.0940,W,1,09,1.0,1.0,M,-34.6,M,,*5F
$PYRTM,2024,122.005123471192,13.114770881331
$GPGGA,000721.00,3307.8301,N,11822.0966,W,1,09,1.0,0.4,M,-34.6,M,,*56
$PYRTM,2024,122.005135044780,13.114782454919
$GPGGA,000722.00,3307.8310,N,11822.0989,W,1,09,1.0,2.4,M,-34.6,M,,*56
$PYRTM,2024,122.005146618368,13.114794028507
$GPGGA,000723.00,3307.8320,N,11822.1008,W,1,09,1.0,4.5,M,-34.6,M,,*52
$PYRTM,2024,122.005158193171,13.114805603310
$GPGGA,000724.00,3307.8330,N,11822.1030,W,1,09,1.0,4.2,M,-34.6,M,,*58
$PYRTM,2024,122.005169766910,13.114817177049
$GPGGA,000725.00,3307.8342,N,11822.1056,W,1,09,1.0,3.2,M,-34.6,M,,*5B
$PYRTM,2024,122.005181341065,13.114828751215
$GPGGA,000726.00,3307.8352,N,11822.1083,W,1,09,1.0,4.4,M,-34.6,M,,*50
$PYRTM,2024,122.005192915301,13.114840325440
$GPGGA,000727.00,3307.8360,N,11822.1105,W,1,09,1.0,5.9,M,-34.6,M,,*53
$PYRTM,2024,122.005204492558,13.114851902697
$GPGGA,000728.00,3307.8370,N,11822.1127,W,1,09,1.0,8.4,M,-34.6,M,,*5D
$PYRTM,2024,122.005216065185,13.114863475324
$GPGGA,000729.00,3307.8380,N,11822.1149,W,1,09,1.0,6.8,M,-34.6,M,,*59
$PYRTM,2024,122.005227640741,13.114875050880
$GPGGA,000730.00,3307.8391,N,11822.1173,W,1,09,1.0,7.6,M,-34.6,M,,*57
$PYRTM,2024,122.005239212072,13.114886622211
$GPGGA,000731.00,3307.8400,N,11822.1194,W,1,09,1.0,9.0,M,-34.6,M,,*58
$PYRTM,2024,122.005250786782,13.114898196921
$GPGGA,000732.00,3307.8409,N,11822.1216,W,1,09,1.0,6.1,M,-34.6,M,,*55
$PYRTM,2024,122.005262354664,13.114909764815
$GPGGA,000733.00,3307.8420,N,11822.1238,W,1,09,1.0,5.3,M,-34.6,M,,*52
$PYRTM,2024,122.005275425926,13.114922836065
$GPGGA,000734.00,3307.8431,N,11822.1261,W,1,09,1.0,6.2,M,-34.6,M,,*5B
$PYRTM,2024,122.005286652836,13.114934062975
$GPGGA,000735.00,3307.8441,N,11822.1284,W,1,09,1.0,3.5,M,-34.6,M,,*54
$PYRTM,2024,122.005298234502,13.114945644641
$GPGGA,000736.00,3307.8451,N,11822.1304,W,1,09,1.0,3.8,M,-34.6,M,,*52
$PYRTM,2024,122.005309802164,13.114957212303
$GPGGA,000737.00,3307.8460,N,11822.1324,W,1,09,1.0,4.5,M,-34.6,M,,*59
$PYRTM,2024,122.005321388808,13.114968798947
$GPGGA,000738.00,3307.8471,N,11822.1347,W,1,09,1.0,5.3,M,-34.6,M,,*54
$PYRTM,2024,122.005332950637,13.114980360775
$GPGGA,000739.00,3307.8482,N,11822.1372,W,1,09,1.0,4.2,M,-34.6,M,,*5F
$PYRTM,2024,122.005344536343,13.114991946481
$GPGGA,000740.00,3307.8489,N,11822.1397,W,1,09,1.0,3.6,M,-34.6,M,,*52
$PYRTM,2024,122.005356459456,13.115003869595
$GPGGA,000741.00,3307.8497,N,11822.1419,W,1,09,1.0,2.7,M,-34.6,M,,*5D
$PYRTM,2024,122.005367684757,13.115015094896
$GPGGA,000742.00,3307.8505,N,11822.1439,W,1,09,1.0,3.7,M,-34.6,M,,*57
$PYRTM,2024,122.005379248588,13.115026658727
$GPGGA,000743.00,3307.8515,N,11822.1459,W,1,09,1.0,4.5,M,-34.6,M,,*54
$PYRTM,2024,122.005390835880,13.115038246030
$GPGGA,000744.00,3307.8526,N,11822.1481,W,1,09,1.0,3.7,M,-34.6,M,,*53
$PYRTM,2024,122.005402393947,13.115049804086
$GPGGA,000745.00,3307.8533,N,11822.1506,W,1,09,1.0,2.8,M,-34.6,M,,*56
$PYRTM,2024,122.005413981597,13.115061391736
$GPGGA,000746.00,3307.8540,N,11822.1531,W,1,09,1.0,0.7,M,-34.6,M,,*58
$PYRTM,2024,122.005425542222,13.115072952361
$GPGGA,000747.00,3307.8548,N,11822.1556,W,1,09,1.0,0.0,M,-34.6,M,,*57
$PYRTM,2024,122.005437125150,13.115084535289
$GPGGA,000748.00,3307.8559,N,11822.1577,W,1,09,1.0,2.1,M,-34.6,M,,*58
$PYRTM,2024,122.005448691019,13.115096101157
$GPGGA,000749.00,3307.8570,N,11822.1597,W,1,09,1.0,3.4,M,-34.6,M,,*58
$PYRTM,2024,122.005460278750,13.115107688889
$GPGGA,000750.00,3307.8579,N,11822.1617,W,1,09,1.0,4.9,M,-34.6,M,,*58
$PYRTM,2024,122.005471840185,13.115119250324
$GPGGA,000751.00,3307.8588,N,11822.1643,W,1,09,1.0,1.8,M,-34.6,M,,*52
$PYRTM,2024,122.005483420775,13.115130830914
$GPGGA,000752.00,3307.8597,N,11822.1669,W,1,09,1.0,1.8,M,-34.6,M,,*57
$PYRTM,2024,122.005494989479,13.115142399618
$GPGGA,000753.00,3307.8606,N,11822.1693,W,1,09,1.0,2.1,M,-34.6,M,,*52
$PYRTM,2024,122.005506569340,13.115153979479
$GPGGA,000754.00,3307.8616,N,11822.1714,W,1,09,1.0,3.4,M,-34.6,M,,*5E
$PYRTM,2024,122.005518135810,13.115165545949
$GPGGA,000755.00,3307.8628,N,11822.1735,W,1,09,1.0,4.3,M,-34.6,M,,*51
$PYRTM,2024,122.005529724919,13.115177135058
$GPGGA,000756.00,3307.8638,N,11822.1758,W,1,09,1.0,4.1,M,-34.6,M,,*5A
$PYRTM,2024,122.005541282975,13.115188693113
$GPGGA,000757.00,3307.8646,N,11822.1782,W,1,09,1.0,2.8,M,-34.6,M,,*5A
$PYRTM,2024,122.005552873738,13.115200283877
$GPGGA,000758.00,3307.8655,N,11822.1806,W,1,09,1.0,1.4,M,-34.6,M,,*5B
$PYRTM,2024,122.005564432106,13.115211842257
$GPGGA,000759.00,3307.8665,N,11822.1829,W,1,09,1.0,0.8,M,-34.6,M,,*59
$PYRTM,2024,122.005576022431,13.115223432569
$GPGGA,000800.00,3307.8677,N,11822.1851,W,1,09,1.0,1.9,M,-34.6,M,,*56
$PYRTM,2024,122.005587581736,13.115234991875
$GPGGA,000801.00,3307.8687,N,11822.1873,W,1,09,1.0,2.2,M,-34.6,M,,*50
$PYRTM,2024,122.005599167164,13.115246577315
$GPGGA,000802.00,3307.8695,N,11822.1897,W,1,09,1.0,3.4,M,-34.6,M,,*5D
$PYRTM,2024,122.005610729838,13.115258139977
$GPGGA,000803.00,3307.8702,N,11822.1921,W,1,09,1.0,4.6,M,-34.6,M,,*5A
$PYRTM,2024,122.005623344803,13.115270754954
$GPGGA,000804.00,3307.8711,N,11822.1943,W,1,09,1.0,3.7,M,-34.6,M,,*5D
$PYRTM,2024,122.005636078542,13.115283488681
$GPGGA,000805.00,3307.8721,N,11822.1965,W,1,09,1.0,0.9,M,-34.6,M,,*56
$PYRTM,2024,122.005645467824,13.115292877963
$GPGGA,000806.00,3307.8731,N,11822.1987,W,1,09,1.0,-2.5,M,-34.6,M,,*7B
$PYRTM,2024,122.005657025671,13.115304435810
$GPGGA,000807.00,3307.8740,N,11822.2009,W,1,09,1.0,-0.7,M,-34.6,M,,*70
$PYRTM,2024,122.005668611956,13.115316022095
$GPGGA,000808.00,3307.8748,N,11822.2031,W,1,09,1.0,0.6,M,-34.6,M,,*50
$PYRTM,2024,122.005680172951,13.115327583102
$GPGGA,000809.00,3307.8756,N,11822.2054,W,1,09,1.0,3.1,M,-34.6,M,,*59
$PYRTM,2024,122.005691759965,13.115339170104
$GPGGA,000810.00,3307.8766,N,11822.2079,W,1,09,1.0,0.0,M,-34.6,M,,*5F
$PYRTM,2024,122.005703676991,13.115351087130
$GPGGA,000811.00,3307.8776,N,11822.2104,W,1,09,1.0,0.7,M,-34.6,M,,*53
$PYRTM,2024,122.005714912014,13.115362322164
$GPGGA,000812.00,3307.8784,N,11822.2126,W,1,09,1.0,0.1,M,-34.6,M,,*5B
$PYRTM,2024,122.005726472037,13.115373882176
$GPGGA,000813.00,3307.8793,N,11822.2145,W,1,09,1.0,2.6,M,-34.6,M,,*5C
$PYRTM,2024,122.005738051748,13.115385461898
$GPGGA,000814.00,3307.8804,N,11822.2164,W,1,09,1.0,3.9,M,-34.6,M,,*57
$PYRTM,2024,122.005749621528,13.115397031667
$GPGGA,000815.00,3307.8815,N,11822.2189,W,1,09,1.0,2.2,M,-34.6,M,,*5F
$PYRTM,2024,122.005761200301,13.115408610440
$GPGGA,000816.00,3307.8824,N,11822.2215,W,1,09,1.0,1.1,M,-34.6,M,,*58
$PYRTM,2024,122.005772767847,13.115420177986
$GPGGA,000817.00,3307.8832,N,11822.2236,W,1,09,1.0,3.8,M,-34.6,M,,*54
$PYRTM,2024,122.005784359421,13.115431769560
$GPGGA,000818.00,3307.8842,N,11822.2257,W,1,09,1.0,3.8,M,-34.6,M,,*5B
$PYRTM,2024,122.005795914838,13.115443324977
$GPGGA,000819.00,3307.8854,N,11822.2280,W,1,09,1.0,4.3,M,-34.6,M,,*5B
$PYRTM,2024,122.005807505069,13.115454915208
$GPGGA,000820.00,3307.8864,N,11822.2306,W,1,09,1.0,3.1,M,-34.6,M,,*58
$PYRTM,2024,122.005819062060,13.115466472199
$GPGGA,000821.00,3307.8872,N,11822.2328,W,1,09,1.0,3.8,M,-34.6,M,,*5B
$PYRTM,2024,122.005830652789,13.115478062928
$GPGGA,000822.00,3307.8879,N,11822.2349,W,1,09,1.0,6.0,M,-34.6,M,,*59
$PYRTM,2024,122.005842211806,13.115489621944
$GPGGA,000823.00,3307.8889,N,11822.2373,W,1,09,1.0,3.8,M,-34.6,M,,*53
$PYRTM,2024,122.005854142465,13.115501552604
$GPGGA,000824.00,3307.8900,N,11822.2394,W,1,09,1.0,6.1,M,-34.6,M,,*51
$PYRTM,2024,122.005865358576,13.115512768715
$GPGGA,000825.00,3307.8909,N,11822.2414,W,1,09,1.0,7.1,M,-34.6,M,,*57
$PYRTM,2024,122.005876946111,13.115524356250
$GPGGA,000826.00,3307.8919,N,11822.2437,W,1,09,1.0,5.6,M,-34.6,M,,*51
$PYRTM,2024,122.005888508137,13.115535918275
$GPGGA,000827.00,3307.8928,N,11822.2465,W,1,09,1.0,2.5,M,-34.6,M,,*51
$PYRTM,2024,122.005900097882,13.115547508021
$GPGGA,000828.00,3307.8938,N,11822.2490,W,1,09,1.0,2.9,M,-34.6,M,,*59
$PYRTM,2024,122.005911654826,13.115559064977
$GPGGA,000829.00,3307.8948,N,11822.2511,W,1,09,1.0,4.5,M,-34.6,M,,*5D
$PYRTM,2024,122.005923243623,13.115570653773
$GPGGA,000830.00,3307.8958,N,11822.2531,W,1,09,1.0,6.1,M,-34.6,M,,*50
$PYRTM,2024,122.005934805266,13.115582215405
$GPGGA,000831.00,3307.8968,N,11822.2554,W,1,09,1.0,6.4,M,-34.6,M,,*54
$PYRTM,2024,122.005946387037,13.115593797176
$GPGGA,000832.00,3307.8977,N,11822.2577,W,1,09,1.0,4.0,M,-34.6,M,,*5E
$PYRTM,2024,122.005957952894,13.115605363032
$GPGGA,000833.00,3307.8985,N,11822.2597,W,1,09,1.0,2.1,M,-34.6,M,,*5B
$PYRTM,2024,122.005970568704,13.115617978843
$GPGGA,000834.00,3307.8996,N,11822.2619,W,1,09,1.0,1.7,M,-34.6,M,,*5E
$PYRTM,2024,122.005983298877,13.115630709016
$GPGGA,000835.00,3307.9004,N,11822.2641,W,1,09,1.0,1.4,M,-34.6,M,,*52
$PYRTM,2024,122.005992688646,13.115640098785
$GPGGA,000836.00,3307.9012,N,11822.2661,W,1,09,1.0,2.6,M,-34.6,M,,*55
$PYRTM,2024,122.006004249919,13.115651660058
$GPGGA,000837.00,3307.9022,N,11822.2682,W,1,09,1.0,5.7,M,-34.6,M,,*5C
$PYRTM,2024,122.006015838993,13.115663249132
$GPGGA,000838.00,3307.9032,N,11822.2706,W,1,09,1.0,6.9,M,-34.6,M,,*52
$PYRTM,2024,122.006027398264,13.115674808414
$GPGGA,000839.00,3307.9041,N,11822.2730,W,1,09,1.0,5.7,M,-34.6,M,,*5F
$PYRTM,2024,122.006038988252,13.115686398391
