$PYRTM,2024,123.583342532512,14.692989942650
$GPGGA,135959.00,3420.5774,N,12049.0452,W,1,10,1.0,11.7,M,-33.8,M,,*67
$PYRTM,2024,123.583354090741,14.693001500891
$GPGGA,140000.00,3420.5785,N,12049.0466,W,1,10,1.0,12.0,M,-33.8,M,,*6D
$PYRTM,2024,123.583365682396,14.693013092535
$GPGGA,140001.00,3420.5798,N,12049.0481,W,1,10,1.0,9.7,M,-33.8,M,,*54
$PYRTM,2024,123.583377239028,14.693024649167
$GPGGA,140002.00,3420.5805,N,12049.0494,W,1,10,1.0,9.3,M,-33.8,M,,*5C
$PYRTM,2024,123.583388826065,14.693036236204
$GPGGA,140003.00,3420.5807,N,12049.0506,W,1,10,1.0,11.7,M,-33.8,M,,*68
$PYRTM,2024,123.583400387731,14.693047797870
$GPGGA,140004.00,3420.5814,N,12049.0520,W,1,10,1.0,12.1,M,-33.8,M,,*6C
$PYRTM,2024,123.583411973368,14.693059383507
$GPGGA,140005.00,3420.5826,N,12049.0534,W,1,10,1.0,12.7,M,-33.8,M,,*6F
$PYRTM,2024,123.583422609583,14.693070019722
$GPGGA,140006.00,3420.5836,N,12049.0546,W,1,10,1.0,12.1,M,-33.8,M,,*6E
$PYRTM,2024,123.583434543727,14.693081953866
$GPGGA,140007.00,3420.5844,N,12049.0557,W,1,10,1.0,12.5,M,-33.8,M,,*6E
$PYRTM,2024,123.583443342766,14.693090752905
$GPGGA,140008.00,3420.5851,N,12049.0568,W,1,10,1.0,12.5,M,-33.8,M,,*69
$PYRTM,2024,123.583461048137,14.693108458275
$GPGGA,140009.00,3420.5859,N,12049.0580,W,1,10,1.0,12.7,M,-33.8,M,,*64
$PYRTM,2024,123.583472163264,14.693119573403
$GPGGA,140010.00,3420.5866,N,12049.0592,W,1,10,1.0,13.2,M,-33.8,M,,*67
$PYRTM,2024,123.583483271285,14.693130681424
$GPGGA,140011.00,3420.5874,N,12049.0601,W,1,10,1.0,13.6,M,-33.8,M,,*68
$PYRTM,2024,123.583494369317,14.693141779456
$GPGGA,140012.00,3420.5885,N,12049.0610,W,1,10,1.0,13.2,M,-33.8,M,,*61
$PYRTM,2024,123.583505481956,14.693152892106
$GPGGA,140013.00,3420.5894,N,12049.0621,W,1,10,1.0,12.7,M,-33.8,M,,*66
$PYRTM,2024,123.583516603646,14.693164013785
$GPGGA,140014.00,3420.5902,N,12049.0635,W,1,10,1.0,11.9,M,-33.8,M,,*67
$PYRTM,2024,123.583527714942,14.693175125081
$GPGGA,140015.00,3420.5909,N,12049.0650,W,1,10,1.0,11.2,M,-33.8,M,,*65
$PYRTM,2024,123.583539275949,14.693186686088
$GPGGA,140016.00,3420.5916,N,12049.0662,W,1,10,1.0,11.8,M,-33.8,M,,*63
$PYRTM,2024,123.583550865637,14.693198275775
$GPGGA,140017.00,3420.5923,N,12049.0668,W,1,10,1.0,13.0,M,-33.8,M,,*64
$PYRTM,2024,123.583562425984,14.693209836123
$GPGGA,140018.00,3420.5934,N,12049.0678,W,1,10,1.0,13.7,M,-33.8,M,,*6B
$PYRTM,2024,123.583574013634,14.693221423773
$GPGGA,140019.00,3420.5945,N,12049.0694,W,1,10,1.0,13.3,M,-33.8,M,,*6A
$PYRTM,2024,123.583585572049,14.693232982188
$GPGGA,140020.00,3420.5952,N,12049.0712,W,1,10,1.0,11.9,M,-33.8,M,,*61
$PYRTM,2024,123.583597158877,14.693244569028
$GPGGA,140021.00,3420.5955,N,12049.0725,W,1,10,1.0,12.0,M,-33.8,M,,*69
$PYRTM,2024,123.583608720752,14.693256130903
$GPGGA,140022.00,3420.5957,N,12049.0733,W,1,10,1.0,12.8,M,-33.8,M,,*67
$PYRTM,2024,123.583620308183,14.693267718322
$GPGGA,140023.00,3420.5964,N,12049.0741,W,1,10,1.0,13.0,M,-33.8,M,,*6A
$PYRTM,2024,123.583631868565,14.693279278704
$GPGGA,140024.00,3420.5976,N,12049.0755,W,1,10,1.0,10.7,M,-33.8,M,,*6F
$PYRTM,2024,123.583643455440,14.693290865579
$GPGGA,140025.00,3420.5984,N,12049.0773,W,1,10,1.0,9.1,M,-33.8,M,,*59
$PYRTM,2024,123.583655018484,14.693302428623
$GPGGA,140026.00,3420.5986,N,12049.0786,W,1,10,1.0,8.9,M,-33.8,M,,*5B
$PYRTM,2024,123.583666606620,14.693314016759
$GPGGA,140027.00,3420.5987,N,12049.0794,W,1,10,1.0,9.2,M,-33.8,M,,*52
$PYRTM,2024,123.583678165845,14.693325575984
$GPGGA,140028.00,3420.5993,N,12049.0803,W,1,10,1.0,9.5,M,-33.8,M,,*5E
$PYRTM,2024,123.583689754062,14.693337164201
$GPGGA,140029.00,3420.6002,N,12049.0819,W,1,10,1.0,9.4,M,-33.8,M,,*57
$PYRTM,2024,123.583701205451,14.693348615590
$GPGGA,140030.00,3420.6009,N,12049.0836,W,1,10,1.0,8.3,M,-33.8,M,,*5F
$PYRTM,2024,123.583712902558,14.693360312697
$GPGGA,140031.00,3420.6010,N,12049.0851,W,1,10,1.0,8.6,M,-33.8,M,,*52
$PYRTM,2024,123.583724460104,14.693371870243
$GPGGA,140032.00,3420.6015,N,12049.0861,W,1,10,1.0,9.6,M,-33.8,M,,*56
$PYRTM,2024,123.583736047882,14.693383458021
$GPGGA,140033.00,3420.6024,N,12049.0871,W,1,10,1.0,9.2,M,-33.8,M,,*50
$PYRTM,2024,123.583747609016,14.693395019155
$GPGGA,140034.00,3420.6033,N,12049.0882,W,1,10,1.0,9.1,M,-33.8,M,,*5E
$PYRTM,2024,123.583759185463,14.693406595602
$GPGGA,140035.00,3420.6039,N,12049.0894,W,1,10,1.0,8.6,M,-33.8,M,,*54
$PYRTM,2024,123.583770757245,14.693418167384
$GPGGA,140036.00,3420.6042,N,12049.0908,W,1,10,1.0,8.8,M,-33.8,M,,*51
$PYRTM,2024,123.583782229745,14.693429639884
$GPGGA,140037.00,3420.6047,N,12049.0922,W,1,10,1.0,8.5,M,-33.8,M,,*50
$PYRTM,2024,123.583793906169,14.693441316308
$GPGGA,140038.00,3420.6055,N,12049.0932,W,1,10,1.0,8.4,M,-33.8,M,,*5C
$PYRTM,2024,123.583805488611,14.693452898750
$GPGGA,140039.00,3420.6064,N,12049.0943,W,1,10,1.0,7.5,M,-33.8,M,,*57
$PYRTM,2024,123.583817053750,14.693464463900
$GPGGA,140040.00,3420.6071,N,12049.0957,W,1,10,1.0,7.4,M,-33.8,M,,*59
$PYRTM,2024,123.583828642940,14.693476053079
$GPGGA,140041.00,3420.6076,N,12049.0972,W,1,10,1.0,7.5,M,-33.8,M,,*59
$PYRTM,2024,123.583840201933,14.693487612072
$GPGGA,140042.00,3420.6082,N,12049.0986,W,1,10,1.0,7.8,M,-33.8,M,,*57
$PYRTM,2024,123.583851791366,14.693499201505
$GPGGA,140043.00,3420.6089,N,12049.0999,W,1,10,1.0,8.5,M,-33.8,M,,*51
$PYRTM,2024,123.583863242014,14.693510652153
$GPGGA,140044.00,3420.6094,N,12049.1009,W,1,10,1.0,9.6,M,-33.8,M,,*59
$PYRTM,2024,123.583874940127,14.693522350266
$GPGGA,140045.00,3420.6100,N,12049.1022,W,1,10,1.0,10.1,M,-33.8,M,,*62
$PYRTM,2024,123.583885572627,14.693532982766
$GPGGA,140046.00,3420.6111,N,12049.1038,W,1,10,1.0,11.2,M,-33.8,M,,*68
$PYRTM,2024,123.583896915856,14.693544326007
$GPGGA,140047.00,3420.6121,N,12049.1055,W,1,10,1.0,9.3,M,-33.8,M,,*59
$PYRTM,2024,123.583909543044,14.693556953183
$GPGGA,140048.00,3420.6124,N,12049.1068,W,1,10,1.0,8.6,M,-33.8,M,,*59
$PYRTM,2024,123.583921116829,14.693568526968
$GPGGA,140049.00,3420.6124,N,12049.1078,W,1,10,1.0,9.5,M,-33.8,M,,*5B
$PYRTM,2024,123.583932793727,14.693580203866
$GPGGA,140050.00,3420.6128,N,12049.1090,W,1,10,1.0,9.9,M,-33.8,M,,*55
$PYRTM,2024,123.583944264525,14.693591674664
$GPGGA,140051.00,3420.6139,N,12049.1105,W,1,10,1.0,9.1,M,-33.8,M,,*51
$PYRTM,2024,123.583955942940,14.693603353079
$GPGGA,140052.00,3420.6149,N,12049.1121,W,1,10,1.0,8.8,M,-33.8,M,,*5B
$PYRTM,2024,123.583967529144,14.693614939282
$GPGGA,140053.00,3420.6153,N,12049.1134,W,1,10,1.0,9.3,M,-33.8,M,,*5F
$PYRTM,2024,123.583978987176,14.693626397315
$GPGGA,140054.00,3420.6156,N,12049.1147,W,1,10,1.0,9.8,M,-33.8,M,,*52
$PYRTM,2024,123.583990562072,14.693637972211
$GPGGA,140055.00,3420.6165,N,12049.1161,W,1,10,1.0,9.8,M,-33.8,M,,*57
$PYRTM,2024,123.584002238646,14.693649648785
$GPGGA,140056.00,3420.6176,N,12049.1174,W,1,10,1.0,10.8,M,-33.8,M,,*6A
$PYRTM,2024,123.584013840336,14.693661250475
$GPGGA,140057.00,3420.6180,N,12049.1185,W,1,10,1.0,10.7,M,-33.8,M,,*63
$PYRTM,2024,123.584025387014,14.693672797153
$GPGGA,140058.00,3420.6182,N,12049.1197,W,1,10,1.0,11.5,M,-33.8,M,,*6E
$PYRTM,2024,123.584036862384,14.693684272523
$GPGGA,140059.00,3420.6188,N,12049.1214,W,1,10,1.0,8.8,M,-33.8,M,,*58
$PYRTM,2024,123.584048432153,14.693695842292
$GPGGA,140100.00,3420.6198,N,12049.1229,W,1,10,1.0,8.5,M,-33.8,M,,*57
$PYRTM,2024,123.584060006412,14.693707416551
$GPGGA,140101.00,3420.6205,N,12049.1238,W,1,10,1.0,7.7,M,-33.8,M,,*5C
$PYRTM,2024,123.584071579294,14.693718989421
$GPGGA,140102.00,3420.6209,N,12049.1250,W,1,10,1.0,7.9,M,-33.8,M,,*53
$PYRTM,2024,123.584083156609,14.693730566748
$GPGGA,140103.00,3420.6214,N,12049.1268,W,1,10,1.0,7.4,M,-33.8,M,,*58
$PYRTM,2024,123.584094727014,14.693742137153
$GPGGA,140104.00,3420.6221,N,12049.1284,W,1,10,1.0,7.8,M,-33.8,M,,*57
$PYRTM,2024,123.584106304664,14.693753714803
$GPGGA,140105.00,3420.6228,N,12049.1292,W,1,10,1.0,8.8,M,-33.8,M,,*57
$PYRTM,2024,123.584117979282,14.693765389421
$GPGGA,140106.00,3420.6237,N,12049.1297,W,1,10,1.0,10.3,M,-33.8,M,,*6D
$PYRTM,2024,123.584129565752,14.693776975903
$GPGGA,140107.00,3420.6246,N,12049.1310,W,1,10,1.0,10.0,M,-33.8,M,,*67
$PYRTM,2024,123.584141023553,14.693788433692
$GPGGA,140108.00,3420.6253,N,12049.1327,W,1,10,1.0,8.5,M,-33.8,M,,*54
$PYRTM,2024,123.584152716146,14.693800126285
$GPGGA,140109.00,3420.6255,N,12049.1337,W,1,10,1.0,7.7,M,-33.8,M,,*5F
$PYRTM,2024,123.584164167778,14.693811577917
$GPGGA,140110.00,3420.6256,N,12049.1339,W,1,10,1.0,7.7,M,-33.8,M,,*5A
$PYRTM,2024,123.584175761910,14.693823172049
$GPGGA,140111.00,3420.6263,N,12049.1344,W,1,10,1.0,7.6,M,-33.8,M,,*56
$PYRTM,2024,123.584187321377,14.693834731516
$GPGGA,140112.00,3420.6272,N,12049.1356,W,1,10,1.0,7.7,M,-33.8,M,,*57
$PYRTM,2024,123.584198909572,14.693846319711
$GPGGA,140113.00,3420.6278,N,12049.1370,W,1,10,1.0,6.4,M,-33.8,M,,*5A
$PYRTM,2024,123.584210468426,14.693857878565
$GPGGA,140114.00,3420.6284,N,12049.1378,W,1,10,1.0,6.5,M,-33.8,M,,*57
$PYRTM,2024,123.584222045764,14.693869455903
$GPGGA,140115.00,3420.6290,N,12049.1383,W,1,10,1.0,7.3,M,-33.8,M,,*50
$PYRTM,2024,123.584232343900,14.693879754039
$GPGGA,140116.00,3420.6296,N,12049.1392,W,1,10,1.0,7.6,M,-33.8,M,,*50
$PYRTM,2024,123.584244134039,14.693891544178
$GPGGA,140117.00,3420.6301,N,12049.1404,W,1,10,1.0,8.7,M,-33.8,M,,*58
$PYRTM,2024,123.584256764942,14.693904175081
$GPGGA,140118.00,3420.6305,N,12049.1416,W,1,10,1.0,8.7,M,-33.8,M,,*50
$PYRTM,2024,123.584268339433,14.693915749572
$GPGGA,140119.00,3420.6312,N,12049.1428,W,1,10,1.0,7.6,M,-33.8,M,,*54
$PYRTM,2024,123.584280016319,14.693927426458
$GPGGA,140120.00,3420.6321,N,12049.1439,W,1,10,1.0,6.4,M,-33.8,M,,*5D
$PYRTM,2024,123.584291488403,14.693938898542
$GPGGA,140121.00,3420.6324,N,12049.1447,W,1,10,1.0,7.0,M,-33.8,M,,*55
$PYRTM,2024,123.584303061250,14.693950471389
$GPGGA,140122.00,3420.6325,N,12049.1454,W,1,10,1.0,7.8,M,-33.8,M,,*5D
$PYRTM,2024,123.584314635498,14.693962045637
$GPGGA,140123.00,3420.6329,N,12049.1464,W,1,10,1.0,8.4,M,-33.8,M,,*50
$PYRTM,2024,123.584326209271,14.693973619410
$GPGGA,140124.00,3420.6338,N,12049.1476,W,1,10,1.0,8.1,M,-33.8,M,,*51
$PYRTM,2024,123.584337786204,14.693985196343
$GPGGA,140125.00,3420.6346,N,12049.1488,W,1,10,1.0,8.2,M,-33.8,M,,*5B
$PYRTM,2024,123.584349357593,14.693996767731
$GPGGA,140126.00,3420.6351,N,12049.1498,W,1,10,1.0,8.1,M,-33.8,M,,*5C
$PYRTM,2024,123.584360936007,14.694008346146
$GPGGA,140127.00,3420.6355,N,12049.1506,W,1,10,1.0,8.3,M,-33.8,M,,*5D
$PYRTM,2024,123.584372507176,14.694019917315
$GPGGA,140128.00,3420.6362,N,12049.1516,W,1,10,1.0,8.5,M,-33.8,M,,*51
$PYRTM,2024,123.584384094178,14.694031504317
$GPGGA,140129.00,3420.6371,N,12049.1528,W,1,10,1.0,8.4,M,-33.8,M,,*5E
$PYRTM,2024,123.584395654861,14.694043065000
$GPGGA,140130.00,3420.6377,N,12049.1541,W,1,10,1.0,8.1,M,-33.8,M,,*5A
$PYRTM,2024,123.584407230544,14.694054640683
$GPGGA,140131.00,3420.6381,N,12049.1551,W,1,10,1.0,8.3,M,-33.8,M,,*51
$PYRTM,2024,123.584418796829,14.694066206968
$GPGGA,140132.00,3420.6389,N,12049.1561,W,1,10,1.0,8.0,M,-33.8,M,,*5A
$PYRTM,2024,123.584430480752,14.694077890891
$GPGGA,140133.00,3420.6400,N,12049.1572,W,1,10,1.0,8.1,M,-33.8,M,,*5E
$PYRTM,2024,123.584442053125,14.694089463264
$GPGGA,140134.00,3420.6407,N,12049.1582,W,1,10,1.0,11.5,M,-33.8,M,,*6D
$PYRTM,2024,123.584453523843,14.694100933981
$GPGGA,140135.00,3420.6412,N,12049.1592,W,1,10,1.0,8.8,M,-33.8,M,,*5C
$PYRTM,2024,123.584465093345,14.694112503495
$GPGGA,140136.00,3420.6415,N,12049.1605,W,1,10,1.0,8.2,M,-33.8,M,,*5F
$PYRTM,2024,123.584476674630,14.694124084769
$GPGGA,140137.00,3420.6422,N,12049.1619,W,1,10,1.0,9.8,M,-33.8,M,,*5C
$PYRTM,2024,123.584488349931,14.694135760069
$GPGGA,140138.00,3420.6432,N,12049.1632,W,1,10,1.0,10.2,M,-33.8,M,,*69
$PYRTM,2024,123.584499834722,14.694147244873
$GPGGA,140139.00,3420.6440,N,12049.1641,W,1,10,1.0,7.7,M,-33.8,M,,*5A
$PYRTM,2024,123.584511394178,14.694158804317
$GPGGA,140140.00,3420.6446,N,12049.1651,W,1,10,1.0,8.8,M,-33.8,M,,*53
$PYRTM,2024,123.584522971343,14.694170381481
$GPGGA,140141.00,3420.6451,N,12049.1664,W,1,10,1.0,8.7,M,-33.8,M,,*5D
$PYRTM,2024,123.584534647199,14.694182057338
$GPGGA,140142.00,3420.6459,N,12049.1678,W,1,10,1.0,10.2,M,-33.8,M,,*67
$PYRTM,2024,123.584546118137,14.694193528275
$GPGGA,140143.00,3420.6471,N,12049.1691,W,1,10,1.0,8.6,M,-33.8,M,,*56
$PYRTM,2024,123.584557794144,14.694205204282
$GPGGA,140144.00,3420.6481,N,12049.1703,W,1,10,1.0,9.3,M,-33.8,M,,*50
$PYRTM,2024,123.584569264653,14.694216674792
$GPGGA,140145.00,3420.6486,N,12049.1716,W,1,10,1.0,8.5,M,-33.8,M,,*55
$PYRTM,2024,123.584579568819,14.694226978958
$GPGGA,140146.00,3420.6489,N,12049.1731,W,1,10,1.0,10.7,M,-33.8,M,,*67
$PYRTM,2024,123.584591356516,14.694238766655
$GPGGA,140147.00,3420.6497,N,12049.1744,W,1,10,1.0,11.9,M,-33.8,M,,*64
$PYRTM,2024,123.584604090729,14.694251500880
$GPGGA,140148.00,3420.6510,N,12049.1757,W,1,10,1.0,11.8,M,-33.8,M,,*66
$PYRTM,2024,123.584615676944,14.694263087083
$GPGGA,140149.00,3420.6523,N,12049.1772,W,1,10,1.0,11.1,M,-33.8,M,,*69
$PYRTM,2024,123.584627135069,14.694274545208
$GPGGA,140150.00,3420.6529,N,12049.1788,W,1,10,1.0,9.5,M,-33.8,M,,*53
$PYRTM,2024,123.584638709155,14.694286119294
$GPGGA,140151.00,3420.6530,N,12049.1801,W,1,10,1.0,8.5,M,-33.8,M,,*55
$PYRTM,2024,123.584650278356,14.694297688495
$GPGGA,140152.00,3420.6535,N,12049.1815,W,1,10,1.0,8.1,M,-33.8,M,,*52
$PYRTM,2024,123.584661860058,14.694309270197
$GPGGA,140153.00,3420.6545,N,12049.1829,W,1,10,1.0,8.6,M,-33.8,M,,*5C
$PYRTM,2024,123.584673430637,14.694320840775
$GPGGA,140154.00,3420.6554,N,12049.1841,W,1,10,1.0,9.2,M,-33.8,M,,*50
$PYRTM,2024,123.584685124444,14.694332534583
$GPGGA,140155.00,3420.6561,N,12049.1852,W,1,10,1.0,10.0,M,-33.8,M,,*6F
$PYRTM,2024,123.584696578692,14.694343988843
$GPGGA,140156.00,3420.6570,N,12049.1866,W,1,10,1.0,9.3,M,-33.8,M,,*50
$PYRTM,2024,123.584708167778,14.694355577917
$GPGGA,140157.00,3420.6580,N,12049.1884,W,1,10,1.0,7.8,M,-33.8,M,,*57
$PYRTM,2024,123.584719728484,14.694367138623
$GPGGA,140158.00,3420.6585,N,12049.1897,W,1,10,1.0,7.3,M,-33.8,M,,*54
$PYRTM,2024,123.584731305231,14.694378715370
$GPGGA,140159.00,3420.6588,N,12049.1905,W,1,10,1.0,8.4,M,-33.8,M,,*5A
$PYRTM,2024,123.584742879919,14.694390290058
$GPGGA,140200.00,3420.6597,N,12049.1916,W,1,10,1.0,7.5,M,-33.8,M,,*57
$PYRTM,2024,123.584754449896,14.694401860035
$GPGGA,140201.00,3420.6611,N,12049.1932,W,1,10,1.0,8.1,M,-33.8,M,,*56
$PYRTM,2024,123.584766018507,14.694413428646
$GPGGA,140202.00,3420.6621,N,12049.1947,W,1,10,1.0,7.2,M,-33.8,M,,*58
$PYRTM,2024,123.584777598449,14.694425008600
$GPGGA,140203.00,3420.6623,N,12049.1960,W,1,10,1.0,7.3,M,-33.8,M,,*5F
$PYRTM,2024,123.584789171389,14.694436581528
$GPGGA,140204.00,3420.6624,N,12049.1972,W,1,10,1.0,7.7,M,-33.8,M,,*58
$PYRTM,2024,123.584800746725,14.694448156863
$GPGGA,140205.00,3420.6631,N,12049.1983,W,1,10,1.0,7.7,M,-33.8,M,,*53
$PYRTM,2024,123.584812422951,14.694459833090
$GPGGA,140206.00,3420.6643,N,12049.1995,W,1,10,1.0,10.4,M,-33.8,M,,*67
$PYRTM,2024,123.584824009595,14.694471419734
$GPGGA,140207.00,3420.6652,N,12049.2009,W,1,10,1.0,9.0,M,-33.8,M,,*55
$PYRTM,2024,123.584835572442,14.694482982581
$GPGGA,140208.00,3420.6654,N,12049.2021,W,1,10,1.0,8.2,M,-33.8,M,,*55
$PYRTM,2024,123.584847161308,14.694494571447
$GPGGA,140209.00,3420.6656,N,12049.2034,W,1,10,1.0,8.3,M,-33.8,M,,*53
$PYRTM,2024,123.584858720590,14.694506130729
$GPGGA,140210.00,3420.6663,N,12049.2047,W,1,10,1.0,8.5,M,-33.8,M,,*5F
$PYRTM,2024,123.584869383032,14.694516793171
$GPGGA,140211.00,3420.6673,N,12049.2058,W,1,10,1.0,9.1,M,-33.8,M,,*54
$PYRTM,2024,123.584881172095,14.694528582234
$GPGGA,140212.00,3420.6682,N,12049.2069,W,1,10,1.0,8.9,M,-33.8,M,,*52
$PYRTM,2024,123.584891948947,14.694539359086
$GPGGA,140213.00,3420.6690,N,12049.2083,W,1,10,1.0,8.2,M,-33.8,M,,*5F
$PYRTM,2024,123.584903059907,14.694550470046
$GPGGA,140214.00,3420.6696,N,12049.2099,W,1,10,1.0,7.4,M,-33.8,M,,*5C
$PYRTM,2024,123.584914171296,14.694561581435
$GPGGA,140215.00,3420.6703,N,12049.2111,W,1,10,1.0,7.2,M,-33.8,M,,*57
$PYRTM,2024,123.584929792106,14.694577202245
$GPGGA,140216.00,3420.6711,N,12049.2121,W,1,10,1.0,7.7,M,-33.8,M,,*51
$PYRTM,2024,123.584940895579,14.694588305718
$GPGGA,140217.00,3420.6718,N,12049.2133,W,1,10,1.0,8.1,M,-33.8,M,,*53
$PYRTM,2024,123.584952018657,14.694599428796
$GPGGA,140218.00,3420.6725,N,12049.2150,W,1,10,1.0,7.9,M,-33.8,M,,*50
$PYRTM,2024,123.584974356562,14.694621766701
$GPGGA,140219.00,3420.6732,N,12049.2165,W,1,10,1.0,7.0,M,-33.8,M,,*58
$PYRTM,2024,123.584985467431,14.694632877569
$GPGGA,140220.00,3420.6742,N,12049.2177,W,1,10,1.0,6.1,M,-33.8,M,,*56
$PYRTM,2024,123.584996579294,14.694643989433
$GPGGA,140221.00,3420.6751,N,12049.2189,W,1,10,1.0,6.0,M,-33.8,M,,*55
$PYRTM,2024,123.585007693333,14.694655103472
$GPGGA,140222.00,3420.6758,N,12049.2202,W,1,10,1.0,5.8,M,-33.8,M,,*54
$PYRTM,2024,123.585018801100,14.694666211238
$GPGGA,140223.00,3420.6763,N,12049.2218,W,1,10,1.0,6.7,M,-33.8,M,,*5A
$PYRTM,2024,123.585029912789,14.694677322928
$GPGGA,140224.00,3420.6772,N,12049.2235,W,1,10,1.0,9.0,M,-33.8,M,,*5A
$PYRTM,2024,123.585041023056,14.694688433194
$GPGGA,140225.00,3420.6786,N,12049.2250,W,1,10,1.0,10.8,M,-33.8,M,,*63
$PYRTM,2024,123.585052467477,14.694699877616
$GPGGA,140226.00,3420.6796,N,12049.2262,W,1,10,1.0,10.5,M,-33.8,M,,*6D
$PYRTM,2024,123.585063578981,14.694710989120
$GPGGA,140227.00,3420.6801,N,12049.2273,W,1,10,1.0,11.0,M,-33.8,M,,*69
$PYRTM,2024,123.585074819595,14.694722229734
$GPGGA,140228.00,3420.6805,N,12049.2287,W,1,10,1.0,10.4,M,-33.8,M,,*6C
$PYRTM,2024,123.585085931910,14.694733342049
$GPGGA,140229.00,3420.6812,N,12049.2306,W,1,10,1.0,10.0,M,-33.8,M,,*67
$PYRTM,2024,123.585097389051,14.694744799190
$GPGGA,140230.00,3420.6820,N,12049.2324,W,1,10,1.0,8.6,M,-33.8,M,,*51
$PYRTM,2024,123.585108500475,14.694755910613
$GPGGA,140231.00,3420.6825,N,12049.2333,W,1,10,1.0,8.1,M,-33.8,M,,*54
$PYRTM,2024,123.585119612141,14.694767022280
$GPGGA,140232.00,3420.6827,N,12049.2336,W,1,10,1.0,8.2,M,-33.8,M,,*53
$PYRTM,2024,123.585130723345,14.694778133484
$GPGGA,140233.00,3420.6831,N,12049.2345,W,1,10,1.0,7.5,M,-33.8,M,,*59
$PYRTM,2024,123.585141721053,14.694789131192
$GPGGA,140234.00,3420.6842,N,12049.2363,W,1,10,1.0,9.2,M,-33.8,M,,*57
$PYRTM,2024,123.585152829942,14.694800240081
$GPGGA,140235.00,3420.6850,N,12049.2380,W,1,10,1.0,7.7,M,-33.8,M,,*53
$PYRTM,2024,123.585163940637,14.694811350775
$GPGGA,140236.00,3420.6854,N,12049.2388,W,1,10,1.0,7.3,M,-33.8,M,,*58
$PYRTM,2024,123.585175051991,14.694822462130
$GPGGA,140237.00,3420.6859,N,12049.2395,W,1,10,1.0,7.1,M,-33.8,M,,*5A
$PYRTM,2024,123.585186162639,14.694833572778
$GPGGA,140238.00,3420.6872,N,12049.2404,W,1,10,1.0,8.3,M,-33.8,M,,*5E
$PYRTM,2024,123.585197277361,14.694844687500
$GPGGA,140239.00,3420.6881,N,12049.2419,W,1,10,1.0,8.1,M,-33.8,M,,*5D
$PYRTM,2024,123.585208254919,14.694855665058
$GPGGA,140240.00,3420.6881,N,12049.2433,W,1,10,1.0,8.3,M,-33.8,M,,*59
$PYRTM,2024,123.585219499780,14.694866909919
$GPGGA,140241.00,3420.6881,N,12049.2443,W,1,10,1.0,10.2,M,-33.8,M,,*67
$PYRTM,2024,123.585230478218,14.694877888356
$GPGGA,140242.00,3420.6891,N,12049.2453,W,1,10,1.0,8.8,M,-33.8,M,,*57
$PYRTM,2024,123.585241589410,14.694888999549
$GPGGA,140243.00,3420.6908,N,12049.2464,W,1,10,1.0,10.3,M,-33.8,M,,*61
$PYRTM,2024,123.585252708704,14.694900118843
$GPGGA,140244.00,3420.6916,N,12049.2475,W,1,10,1.0,9.4,M,-33.8,M,,*56
$PYRTM,2024,123.585263939838,14.694911349977
$GPGGA,140245.00,3420.6915,N,12049.2486,W,1,10,1.0,9.3,M,-33.8,M,,*5F
$PYRTM,2024,123.585274012674,14.694921422813
$GPGGA,140246.00,3420.6917,N,12049.2498,W,1,10,1.0,10.1,M,-33.8,M,,*6B
$PYRTM,2024,123.585285800671,14.694933210810
$GPGGA,140247.00,3420.6922,N,12049.2509,W,1,10,1.0,11.4,M,-33.8,M,,*61
$PYRTM,2024,123.585298538900,14.694945949039
$GPGGA,140248.00,3420.6930,N,12049.2520,W,1,10,1.0,12.9,M,-33.8,M,,*68
$PYRTM,2024,123.585310122326,14.694957532465
$GPGGA,140249.00,3420.6937,N,12049.2535,W,1,10,1.0,11.7,M,-33.8,M,,*67
$PYRTM,2024,123.585321578519,14.694968988669
$GPGGA,140250.00,3420.6945,N,12049.2553,W,1,10,1.0,9.4,M,-33.8,M,,*50
$PYRTM,2024,123.585333154005,14.694980564144
$GPGGA,140251.00,3420.6949,N,12049.2564,W,1,10,1.0,8.7,M,-33.8,M,,*5B
$PYRTM,2024,123.585344726701,14.694992136840
$GPGGA,140252.00,3420.6952,N,12049.2570,W,1,10,1.0,8.7,M,-33.8,M,,*57
$PYRTM,2024,123.585356315289,14.695003725440
$GPGGA,140253.00,3420.6957,N,12049.2580,W,1,10,1.0,9.2,M,-33.8,M,,*58
$PYRTM,2024,123.585367877222,14.695015287361
$GPGGA,140254.00,3420.6966,N,12049.2597,W,1,10,1.0,9.0,M,-33.8,M,,*59
$PYRTM,2024,123.585379565683,14.695026975822
$GPGGA,140255.00,3420.6974,N,12049.2611,W,1,10,1.0,10.1,M,-33.8,M,,*6F
$PYRTM,2024,123.585391023322,14.695038433461
$GPGGA,140256.00,3420.6981,N,12049.2619,W,1,10,1.0,9.3,M,-33.8,M,,*54
$PYRTM,2024,123.585402598727,14.695050008866
$GPGGA,140257.00,3420.6988,N,12049.2626,W,1,10,1.0,8.8,M,-33.8,M,,*5A
$PYRTM,2024,123.585414171227,14.695061581366
$GPGGA,140258.00,3420.6992,N,12049.2637,W,1,10,1.0,9.9,M,-33.8,M,,*5E
$PYRTM,2024,123.585425744954,14.695073155081
$GPGGA,140259.00,3420.6995,N,12049.2652,W,1,10,1.0,9.6,M,-33.8,M,,*54
$PYRTM,2024,123.585437422245,14.695084832384
$GPGGA,140300.00,3420.7002,N,12049.2664,W,1,10,1.0,10.0,M,-33.8,M,,*64
$PYRTM,2024,123.585449009502,14.695096419641
$GPGGA,140301.00,3420.7012,N,12049.2670,W,1,10,1.0,10.7,M,-33.8,M,,*66
$PYRTM,2024,123.585460569479,14.695107979618
$GPGGA,140302.00,3420.7020,N,12049.2680,W,1,10,1.0,11.9,M,-33.8,M,,*64
$PYRTM,2024,123.585472157766,14.695119567905
$GPGGA,140303.00,3420.7025,N,12049.2692,W,1,10,1.0,12.6,M,-33.8,M,,*6F
$PYRTM,2024,123.585483721030,14.695131131169
$GPGGA,140304.00,3420.7029,N,12049.2705,W,1,10,1.0,13.0,M,-33.8,M,,*6C
$PYRTM,2024,123.585495308565,14.695142718704
$GPGGA,140305.00,3420.7036,N,12049.2716,W,1,10,1.0,13.4,M,-33.8,M,,*65
$PYRTM,2024,123.585506866956,14.695154277095
$GPGGA,140306.00,3420.7047,N,12049.2727,W,1,10,1.0,12.9,M,-33.8,M,,*6E
$PYRTM,2024,123.585518456944,14.695165867083
$GPGGA,140307.00,3420.7056,N,12049.2741,W,1,10,1.0,12.2,M,-33.8,M,,*64
$PYRTM,2024,123.585530015752,14.695177425891
$GPGGA,140308.00,3420.7063,N,12049.2753,W,1,10,1.0,11.9,M,-33.8,M,,*66
$PYRTM,2024,123.585541616331,14.695189026470
$GPGGA,140309.00,3420.7070,N,12049.2764,W,1,10,1.0,12.1,M,-33.8,M,,*6A
$PYRTM,2024,123.585553162315,14.695200572465
$GPGGA,140310.00,3420.7079,N,12049.2777,W,1,10,1.0,11.5,M,-33.8,M,,*6E
$PYRTM,2024,123.585563579606,14.695210989745
$GPGGA,140311.00,3420.7089,N,12049.2785,W,1,10,1.0,10.9,M,-33.8,M,,*60
$PYRTM,2024,123.585576311794,14.695223721933
$GPGGA,140312.00,3420.7094,N,12049.2793,W,1,10,1.0,10.8,M,-33.8,M,,*69
$PYRTM,2024,123.585587898229,14.695235308368
$GPGGA,140313.00,3420.7098,N,12049.2801,W,1,10,1.0,10.6,M,-33.8,M,,*6E
$PYRTM,2024,123.585599357361,14.695246767500
$GPGGA,140314.00,3420.7104,N,12049.2812,W,1,10,1.0,9.8,M,-33.8,M,,*59
$PYRTM,2024,123.585610930984,14.695258341123
$GPGGA,140315.00,3420.7113,N,12049.2826,W,1,10,1.0,9.0,M,-33.8,M,,*51
$PYRTM,2024,123.585621579375,14.695268989514
$GPGGA,140316.00,3420.7119,N,12049.2840,W,1,10,1.0,8.9,M,-33.8,M,,*50
$PYRTM,2024,123.585633025174,14.695280435313
$GPGGA,140317.00,3420.7124,N,12049.2851,W,1,10,1.0,9.3,M,-33.8,M,,*54
$PYRTM,2024,123.585645651968,14.695293062106
$GPGGA,140318.00,3420.7132,N,12049.2864,W,1,10,1.0,9.9,M,-33.8,M,,*50
$PYRTM,2024,123.585657342731,14.695304752870
$GPGGA,140319.00,3420.7139,N,12049.2878,W,1,10,1.0,10.2,M,-33.8,M,,*64
$PYRTM,2024,123.585668905081,14.695316315220
$GPGGA,140320.00,3420.7143,N,12049.2894,W,1,10,1.0,10.5,M,-33.8,M,,*66
$PYRTM,2024,123.585680495475,14.695327905613
$GPGGA,140321.00,3420.7149,N,12049.2909,W,1,10,1.0,11.0,M,-33.8,M,,*6C
$PYRTM,2024,123.585692051910,14.695339462049
$GPGGA,140322.00,3420.7160,N,12049.2923,W,1,10,1.0,10.8,M,-33.8,M,,*65
$PYRTM,2024,123.585703638715,14.695351048854
$GPGGA,140323.00,3420.7171,N,12049.2935,W,1,10,1.0,10.1,M,-33.8,M,,*6A
$PYRTM,2024,123.585715096250,14.695362506400
$GPGGA,140324.00,3420.7179,N,12049.2948,W,1,10,1.0,9.6,M,-33.8,M,,*50
$PYRTM,2024,123.585726671042,14.695374081181
$GPGGA,140325.00,3420.7184,N,12049.2964,W,1,10,1.0,9.9,M,-33.8,M,,*52
$PYRTM,2024,123.585738348299,14.695385758437
$GPGGA,140326.00,3420.7191,N,12049.2979,W,1,10,1.0,11.0,M,-33.8,M,,*69
$PYRTM,2024,123.585749936042,14.695397346192
$GPGGA,140327.00,3420.7201,N,12049.2992,W,1,10,1.0,11.6,M,-33.8,M,,*61
$PYRTM,2024,123.585761497731,14.695408907870
$GPGGA,140328.00,3420.7212,N,12049.3006,W,1,10,1.0,11.2,M,-33.8,M,,*6D
$PYRTM,2024,123.585773078565,14.695420488704
$GPGGA,140329.00,3420.7220,N,12049.3023,W,1,10,1.0,11.2,M,-33.8,M,,*6A
$PYRTM,2024,123.585784646273,14.695432056424
$GPGGA,140330.00,3420.7226,N,12049.3038,W,1,10,1.0,11.1,M,-33.8,M,,*6D
$PYRTM,2024,123.585796232315,14.695443642454
$GPGGA,140331.00,3420.7232,N,12049.3051,W,1,10,1.0,10.7,M,-33.8,M,,*61
$PYRTM,2024,123.585807794676,14.695455204815
$GPGGA,140332.00,3420.7239,N,12049.3067,W,1,10,1.0,10.6,M,-33.8,M,,*6D
$PYRTM,2024,123.585819381493,14.695466791632
$GPGGA,140333.00,3420.7247,N,12049.3083,W,1,10,1.0,10.1,M,-33.8,M,,*68
$PYRTM,2024,123.585830942060,14.695478352199
$GPGGA,140334.00,3420.7255,N,12049.3098,W,1,10,1.0,10.1,M,-33.8,M,,*66
$PYRTM,2024,123.585842530463,14.695489940602
$GPGGA,140335.00,3420.7262,N,12049.3111,W,1,10,1.0,10.5,M,-33.8,M,,*67
$PYRTM,2024,123.585854091146,14.695501501285
$GPGGA,140336.00,3420.7271,N,12049.3122,W,1,10,1.0,10.8,M,-33.8,M,,*6B
$PYRTM,2024,123.585865690822,14.695513100961
$GPGGA,140337.00,3420.7281,N,12049.3138,W,1,10,1.0,10.7,M,-33.8,M,,*61
$PYRTM,2024,123.585877238322,14.695524648461
$GPGGA,140338.00,3420.7288,N,12049.3156,W,1,10,1.0,10.2,M,-33.8,M,,*6A
$PYRTM,2024,123.585888825185,14.695536235324
$GPGGA,140339.00,3420.7293,N,12049.3169,W,1,10,1.0,10.4,M,-33.8,M,,*6B
$PYRTM,2024,123.585900384780,14.695547794919
$GPGGA,140340.00,3420.7302,N,12049.3182,W,1,10,1.0,10.8,M,-33.8,M,,*65
$PYRTM,2024,123.585911971863,14.695559382002
$GPGGA,140341.00,3420.7312,N,12049.3198,W,1,10,1.0,10.0,M,-33.8,M,,*66
$PYRTM,2024,123.585923429896,14.695570840035
$GPGGA,140342.00,3420.7319,N,12049.3215,W,1,10,1.0,9.2,M,-33.8,M,,*52
$PYRTM,2024,123.585935003588,14.695582413727
$GPGGA,140343.00,3420.7326,N,12049.3233,W,1,10,1.0,9.4,M,-33.8,M,,*5D
$PYRTM,2024,123.585946578634,14.695593988773
$GPGGA,140344.00,3420.7334,N,12049.3249,W,1,10,1.0,9.3,M,-33.8,M,,*53
$PYRTM,2024,123.585958152130,14.695605562269
$GPGGA,140345.00,3420.7341,N,12049.3259,W,1,10,1.0,9.1,M,-33.8,M,,*53
$PYRTM,2024,123.585968453067,14.695615863206
$GPGGA,140346.00,3420.7350,N,12049.3270,W,1,10,1.0,9.5,M,-33.8,M,,*5F
$PYRTM,2024,123.585980243657,14.695627653808
$GPGGA,140347.00,3420.7359,N,12049.3286,W,1,10,1.0,9.6,M,-33.8,M,,*5D
$PYRTM,2024,123.585992876979,14.695640287118
$GPGGA,140348.00,3420.7366,N,12049.3304,W,1,10,1.0,9.1,M,-33.8,M,,*52
$PYRTM,2024,123.586004463889,14.695651874039
$GPGGA,140349.00,3420.7374,N,12049.3320,W,1,10,1.0,8.2,M,-33.8,M,,*54
$PYRTM,2024,123.586016022546,14.695663432685
$GPGGA,140350.00,3420.7386,N,12049.3330,W,1,10,1.0,8.4,M,-33.8,M,,*56
$PYRTM,2024,123.586027610370,14.695675020509
$GPGGA,140351.00,3420.7398,N,12049.3339,W,1,10,1.0,8.3,M,-33.8,M,,*56
$PYRTM,2024,123.586039273507,14.695686683646
$GPGGA,140352.00,3420.7407,N,12049.3355,W,1,10,1.0,10.3,M,-33.8,M,,*67
$PYRTM,2024,123.586050859873,14.695698270012
$GPGGA,140353.00,3420.7413,N,12049.3375,W,1,10,1.0,9.0,M,-33.8,M,,*5A
$PYRTM,2024,123.586062421863,14.695709832002
$GPGGA,140354.00,3420.7420,N,12049.3393,W,1,10,1.0,8.5,M,-33.8,M,,*51
$PYRTM,2024,123.586074007882,14.695721418021
$GPGGA,140355.00,3420.7431,N,12049.3406,W,1,10,1.0,6.8,M,-33.8,M,,*58
$PYRTM,2024,123.586085466134,14.695732876273
$GPGGA,140356.00,3420.7443,N,12049.3416,W,1,10,1.0,7.5,M,-33.8,M,,*53
$PYRTM,2024,123.586097041794,14.695744451933
$GPGGA,140357.00,3420.7452,N,12049.3430,W,1,10,1.0,8.3,M,-33.8,M,,*5F
$PYRTM,2024,123.586108717315,14.695756127454
$GPGGA,140358.00,3420.7460,N,12049.3448,W,1,10,1.0,10.0,M,-33.8,M,,*64
$PYRTM,2024,123.586120306632,14.695767716771
$GPGGA,140359.00,3420.7467,N,12049.3468,W,1,10,1.0,10.4,M,-33.8,M,,*64
$PYRTM,2024,123.586132341782,14.695779751921
$GPGGA,140400.00,3420.7474,N,12049.3483,W,1,10,1.0,11.1,M,-33.8,M,,*6C
$PYRTM,2024,123.586143902581,14.695791312720
$GPGGA,140401.00,3420.7483,N,12049.3494,W,1,10,1.0,11.5,M,-33.8,M,,*67
$PYRTM,2024,123.586155491343,14.695802901481
$GPGGA,140402.00,3420.7491,N,12049.3506,W,1,10,1.0,12.3,M,-33.8,M,,*68
$PYRTM,2024,123.586167050914,14.695814461053
$GPGGA,140403.00,3420.7499,N,12049.3522,W,1,10,1.0,10.6,M,-33.8,M,,*60
$PYRTM,2024,123.586178637894,14.695826048032
$GPGGA,140404.00,3420.7508,N,12049.3539,W,1,10,1.0,10.3,M,-33.8,M,,*61
$PYRTM,2024,123.586190199491,14.695837609630
$GPGGA,140405.00,3420.7517,N,12049.3553,W,1,10,1.0,10.2,M,-33.8,M,,*63
$PYRTM,2024,123.586201788391,14.695849198542
$GPGGA,140406.00,3420.7525,N,12049.3566,W,1,10,1.0,10.6,M,-33.8,M,,*63
$PYRTM,2024,123.586213347396,14.695860757535
$GPGGA,140407.00,3420.7534,N,12049.3582,W,1,10,1.0,10.9,M,-33.8,M,,*67
$PYRTM,2024,123.586225049745,14.695872459884
$GPGGA,140408.00,3420.7545,N,12049.3602,W,1,10,1.0,11.2,M,-33.8,M,,*6F
$PYRTM,2024,123.586236611667,14.695884021806
$GPGGA,140409.00,3420.7552,N,12049.3618,W,1,10,1.0,12.0,M,-33.8,M,,*62
$PYRTM,2024,123.586248097037,14.695895507176
$GPGGA,140410.00,3420.7556,N,12049.3630,W,1,10,1.0,11.7,M,-33.8,M,,*60
$PYRTM,2024,123.586259645440,14.695907055579
$GPGGA,140411.00,3420.7563,N,12049.3642,W,1,10,1.0,9.8,M,-33.8,M,,*54
$PYRTM,2024,123.586271234074,14.695918644213
$GPGGA,140412.00,3420.7575,N,12049.3658,W,1,10,1.0,8.7,M,-33.8,M,,*55
$PYRTM,2024,123.586282791262,14.695930201400
$GPGGA,140413.00,3420.7585,N,12049.3675,W,1,10,1.0,8.4,M,-33.8,M,,*57
$PYRTM,2024,123.586294379097,14.695941789236
$GPGGA,140414.00,3420.7588,N,12049.3690,W,1,10,1.0,7.4,M,-33.8,M,,*59
$PYRTM,2024,123.586305939178,14.695953349317
$GPGGA,140415.00,3420.7591,N,12049.3703,W,1,10,1.0,8.4,M,-33.8,M,,*54
$PYRTM,2024,123.586315316088,14.695962726227
$GPGGA,140416.00,3420.7598,N,12049.3719,W,1,10,1.0,8.6,M,-33.8,M,,*57
$PYRTM,2024,123.586326426273,14.695973836412
$GPGGA,140417.00,3420.7606,N,12049.3735,W,1,10,1.0,8.2,M,-33.8,M,,*58
$PYRTM,2024,123.586342977118,14.695990387257
$GPGGA,140418.00,3420.7612,N,12049.3750,W,1,10,1.0,8.4,M,-33.8,M,,*57
$PYRTM,2024,123.586354088519,14.696001498657
$GPGGA,140419.00,3420.7620,N,12049.3764,W,1,10,1.0,7.6,M,-33.8,M,,*5D
$PYRTM,2024,123.586365199907,14.696012610046
$GPGGA,140420.00,3420.7631,N,12049.3776,W,1,10,1.0,7.4,M,-33.8,M,,*56
$PYRTM,2024,123.586376194537,14.696023604676
$GPGGA,140421.00,3420.7637,N,12049.3789,W,1,10,1.0,8.1,M,-33.8,M,,*5B
$PYRTM,2024,123.586387309907,14.696034720046
$GPGGA,140422.00,3420.7642,N,12049.3804,W,1,10,1.0,9.4,M,-33.8,M,,*54
$PYRTM,2024,123.586398428970,14.696045839109
$GPGGA,140423.00,3420.7649,N,12049.3821,W,1,10,1.0,9.6,M,-33.8,M,,*5B
$PYRTM,2024,123.586409542130,14.696056952269
$GPGGA,140424.00,3420.7658,N,12049.3835,W,1,10,1.0,9.5,M,-33.8,M,,*5A
$PYRTM,2024,123.586420652049,14.696068062187
$GPGGA,140425.00,3420.7668,N,12049.3848,W,1,10,1.0,9.0,M,-33.8,M,,*57
$PYRTM,2024,123.586431763426,14.696079173565
$GPGGA,140426.00,3420.7676,N,12049.3860,W,1,10,1.0,9.0,M,-33.8,M,,*51
$PYRTM,2024,123.586442758032,14.696090168160
$GPGGA,140427.00,3420.7682,N,12049.3874,W,1,10,1.0,9.4,M,-33.8,M,,*5A
$PYRTM,2024,123.586454203958,14.696101614097
$GPGGA,140428.00,3420.7685,N,12049.3889,W,1,10,1.0,10.1,M,-33.8,M,,*6D
$PYRTM,2024,123.586465787627,14.696113197766
$GPGGA,140429.00,3420.7690,N,12049.3906,W,1,10,1.0,10.5,M,-33.8,M,,*6A
$PYRTM,2024,123.586477353229,14.696124763368
$GPGGA,140430.00,3420.7698,N,12049.3921,W,1,10,1.0,10.4,M,-33.8,M,,*6E
$PYRTM,2024,123.586488942546,14.696136352685
$GPGGA,140431.00,3420.7710,N,12049.3935,W,1,10,1.0,10.6,M,-33.8,M,,*69
$PYRTM,2024,123.586500500081,14.696147910220
$GPGGA,140432.00,3420.7721,N,12049.3949,W,1,10,1.0,11.1,M,-33.8,M,,*65
$PYRTM,2024,123.586512090081,14.696159500220
$GPGGA,140433.00,3420.7729,N,12049.3968,W,1,10,1.0,11.2,M,-33.8,M,,*6C
$PYRTM,2024,123.586523647917,14.696171058056
$GPGGA,140434.00,3420.7735,N,12049.3987,W,1,10,1.0,10.2,M,-33.8,M,,*66
$PYRTM,2024,123.586535235613,14.696182645752
$GPGGA,140435.00,3420.7737,N,12049.4003,W,1,10,1.0,11.0,M,-33.8,M,,*64
$PYRTM,2024,123.586546795347,14.696194205486
$GPGGA,140436.00,3420.7743,N,12049.4015,W,1,10,1.0,11.0,M,-33.8,M,,*63
$PYRTM,2024,123.586558383704,14.696205793843
$GPGGA,140437.00,3420.7755,N,12049.4030,W,1,10,1.0,9.6,M,-33.8,M,,*5D
$PYRTM,2024,123.586569944803,14.696217354942
$GPGGA,140438.00,3420.7769,N,12049.4046,W,1,10,1.0,8.8,M,-33.8,M,,*53
$PYRTM,2024,123.586581530984,14.696228941123
$GPGGA,140439.00,3420.7778,N,12049.4059,W,1,10,1.0,8.6,M,-33.8,M,,*52
$PYRTM,2024,123.586593092616,14.696240502755
$GPGGA,140440.00,3420.7780,N,12049.4068,W,1,10,1.0,11.1,M,-33.8,M,,*66
$PYRTM,2024,123.586604680012,14.696252090150
$GPGGA,140441.00,3420.7781,N,12049.4081,W,1,10,1.0,12.9,M,-33.8,M,,*6A
$PYRTM,2024,123.586616241100,14.696263651238
$GPGGA,140442.00,3420.7789,N,12049.4100,W,1,10,1.0,10.8,M,-33.8,M,,*6A
$PYRTM,2024,123.586627827535,14.696275237685
$GPGGA,140443.00,3420.7801,N,12049.4117,W,1,10,1.0,10.8,M,-33.8,M,,*62
$PYRTM,2024,123.586639388403,14.696286798542
$GPGGA,140444.00,3420.7808,N,12049.4126,W,1,10,1.0,9.7,M,-33.8,M,,*59
$PYRTM,2024,123.586650990579,14.696298400718
$GPGGA,140445.00,3420.7811,N,12049.4132,W,1,10,1.0,10.4,M,-33.8,M,,*6E
$PYRTM,2024,123.586663128368,14.696310538507
$GPGGA,140446.00,3420.7816,N,12049.4144,W,1,10,1.0,10.7,M,-33.8,M,,*68
$PYRTM,2024,123.586674687882,14.696322098021
$GPGGA,140447.00,3420.7825,N,12049.4164,W,1,10,1.0,8.4,M,-33.8,M,,*51
$PYRTM,2024,123.586686275810,14.696333685949
$GPGGA,140448.00,3420.7833,N,12049.4181,W,1,10,1.0,7.8,M,-33.8,M,,*51
$PYRTM,2024,123.586697836817,14.696345246956
$GPGGA,140449.00,3420.7835,N,12049.4190,W,1,10,1.0,7.4,M,-33.8,M,,*5A
$PYRTM,2024,123.586709423912,14.696356834051
$GPGGA,140450.00,3420.7838,N,12049.4194,W,1,10,1.0,7.4,M,-33.8,M,,*5B
$PYRTM,2024,123.586720985972,14.696368396111
$GPGGA,140451.00,3420.7846,N,12049.4205,W,1,10,1.0,10.0,M,-33.8,M,,*6A
$PYRTM,2024,123.586732572581,14.696379982720
$GPGGA,140452.00,3420.7858,N,12049.4224,W,1,10,1.0,8.1,M,-33.8,M,,*5D
$PYRTM,2024,123.586744133333,14.696391543472
$GPGGA,140453.00,3420.7863,N,12049.4238,W,1,10,1.0,6.9,M,-33.8,M,,*5F
$PYRTM,2024,123.586755716134,14.696403126273
$GPGGA,140454.00,3420.7864,N,12049.4247,W,1,10,1.0,7.0,M,-33.8,M,,*5F
$PYRTM,2024,123.586767281100,14.696414691238
$GPGGA,140455.00,3420.7871,N,12049.4255,W,1,10,1.0,7.8,M,-33.8,M,,*51
$PYRTM,2024,123.586778863970,14.696426274120
$GPGGA,140456.00,3420.7885,N,12049.4266,W,1,10,1.0,7.3,M,-33.8,M,,*52
$PYRTM,2024,123.586790428958,14.696437839097
$GPGGA,140457.00,3420.7896,N,12049.4278,W,1,10,1.0,7.7,M,-33.8,M,,*5A
$PYRTM,2024,123.586802017141,14.696449427292
$GPGGA,140458.00,3420.7898,N,12049.4288,W,1,10,1.0,7.5,M,-33.8,M,,*56
$PYRTM,2024,123.586813576863,14.696460987002
$GPGGA,140459.00,3420.7899,N,12049.4296,W,1,10,1.0,8.7,M,-33.8,M,,*54
$PYRTM,2024,123.586825164757,14.696472574884
$GPGGA,140500.00,3420.7906,N,12049.4307,W,1,10,1.0,8.1,M,-33.8,M,,*51
$PYRTM,2024,123.586836724792,14.696484134931
$GPGGA,140501.00,3420.7920,N,12049.4320,W,1,10,1.0,7.1,M,-33.8,M,,*5E
$PYRTM,2024,123.586848313021,14.696495723171
$GPGGA,140502.00,3420.7927,N,12049.4331,W,1,10,1.0,6.3,M,-33.8,M,,*59
$PYRTM,2024,123.586859873160,14.696507283299
$GPGGA,140503.00,3420.7927,N,12049.4336,W,1,10,1.0,6.0,M,-33.8,M,,*5C
$PYRTM,2024,123.586871461910,14.696518872049
$GPGGA,140504.00,3420.7925,N,12049.4342,W,1,10,1.0,6.5,M,-33.8,M,,*5F
$PYRTM,2024,123.586883021991,14.696530432130
$GPGGA,140505.00,3420.7929,N,12049.4353,W,1,10,1.0,7.8,M,-33.8,M,,*5E
$PYRTM,2024,123.586894604838,14.696542014977
$GPGGA,140506.00,3420.7939,N,12049.4366,W,1,10,1.0,7.2,M,-33.8,M,,*50
$PYRTM,2024,123.586906170440,14.696553580579
$GPGGA,140507.00,3420.7946,N,12049.4374,W,1,10,1.0,6.1,M,-33.8,M,,*58
$PYRTM,2024,123.586917758611,14.696565168750
$GPGGA,140508.00,3420.7949,N,12049.4379,W,1,10,1.0,5.5,M,-33.8,M,,*52
$PYRTM,2024,123.586929318507,14.696576728646
$GPGGA,140509.00,3420.7948,N,12049.4384,W,1,10,1.0,5.6,M,-33.8,M,,*53
$PYRTM,2024,123.586940900417,14.696588310556
$GPGGA,140510.00,3420.7951,N,12049.4397,W,1,10,1.0,4.9,M,-33.8,M,,*5F
$PYRTM,2024,123.586952464757,14.696599874896
$GPGGA,140511.00,3420.7958,N,12049.4413,W,1,10,1.0,4.2,M,-33.8,M,,*57
$PYRTM,2024,123.586964053657,14.696611463796
$GPGGA,140512.00,3420.7963,N,12049.4422,W,1,10,1.0,4.7,M,-33.8,M,,*5B
$PYRTM,2024,123.586975614225,14.696623024363
$GPGGA,140513.00,3420.7967,N,12049.4426,W,1,10,1.0,4.8,M,-33.8,M,,*55
$PYRTM,2024,123.586987202384,14.696634612523
$GPGGA,140514.00,3420.7972,N,12049.4434,W,1,10,1.0,4.7,M,-33.8,M,,*5A
$PYRTM,2024,123.586998762454,14.696646172593
$GPGGA,140515.00,3420.7979,N,12049.4447,W,1,10,1.0,5.1,M,-33.8,M,,*53
$PYRTM,2024,123.587010119248,14.696657529387
$GPGGA,140516.00,3420.7985,N,12049.4460,W,1,10,1.0,4.9,M,-33.8,M,,*5F
$PYRTM,2024,123.587022969780,14.696670379931
$GPGGA,140517.00,3420.7989,N,12049.4469,W,1,10,1.0,5.0,M,-33.8,M,,*53
$PYRTM,2024,123.587034541250,14.696681951389
$GPGGA,140518.00,3420.7994,N,12049.4477,W,1,10,1.0,5.9,M,-33.8,M,,*56
$PYRTM,2024,123.587046114063,14.696693524201
$GPGGA,140519.00,3420.8002,N,12049.4488,W,1,10,1.0,6.3,M,-33.8,M,,*57
$PYRTM,2024,123.587057687720,14.696705097859
$GPGGA,140520.00,3420.8010,N,12049.4504,W,1,10,1.0,5.8,M,-33.8,M,,*53
$PYRTM,2024,123.587069262245,14.696716672384
$GPGGA,140521.00,3420.8018,N,12049.4519,W,1,10,1.0,6.0,M,-33.8,M,,*5D
$PYRTM,2024,123.587080836944,14.696728247083
$GPGGA,140522.00,3420.8024,N,12049.4530,W,1,10,1.0,7.1,M,-33.8,M,,*5A
$PYRTM,2024,123.587092410567,14.696739820706
$GPGGA,140523.00,3420.8027,N,12049.4539,W,1,10,1.0,7.8,M,-33.8,M,,*58
$PYRTM,2024,123.587103980058,14.696751390197
$GPGGA,140524.00,3420.8030,N,12049.4551,W,1,10,1.0,9.9,M,-33.8,M,,*58
$PYRTM,2024,123.587115558843,14.696762968981
$GPGGA,140525.00,3420.8037,N,12049.4567,W,1,10,1.0,8.2,M,-33.8,M,,*51
$PYRTM,2024,123.587127133183,14.696774543322
$GPGGA,140526.00,3420.8045,N,12049.4584,W,1,10,1.0,5.6,M,-33.8,M,,*53
$PYRTM,2024,123.587138707326,14.696786117465
$GPGGA,140527.00,3420.8050,N,12049.4593,W,1,10,1.0,3.9,M,-33.8,M,,*59
$PYRTM,2024,123.587150281852,14.696797691991
$GPGGA,140528.00,3420.8052,N,12049.4599,W,1,10,1.0,3.5,M,-33.8,M,,*52
$PYRTM,2024,123.587161858484,14.696809268623
$GPGGA,140529.00,3420.8055,N,12049.4610,W,1,10,1.0,3.1,M,-33.8,M,,*52
$PYRTM,2024,123.587173892060,14.696821302199
$GPGGA,140530.00,3420.8062,N,12049.4627,W,1,10,1.0,2.0,M,-33.8,M,,*5A
$PYRTM,2024,123.587185019167,14.696832429306
$GPGGA,140531.00,3420.8065,N,12049.4641,W,1,10,1.0,3.6,M,-33.8,M,,*5B
$PYRTM,2024,123.587196577060,14.696843987199
$GPGGA,140532.00,3420.8064,N,12049.4648,W,1,10,1.0,3.8,M,-33.8,M,,*5E
$PYRTM,2024,123.587208151539,14.696855561678
$GPGGA,140533.00,3420.8065,N,12049.4654,W,1,10,1.0,4.8,M,-33.8,M,,*54
$PYRTM,2024,123.587219724988,14.696867135127
$GPGGA,140534.00,3420.8073,N,12049.4663,W,1,10,1.0,5.0,M,-33.8,M,,*59
$PYRTM,2024,123.587231300312,14.696878710451
$GPGGA,140535.00,3420.8082,N,12049.4673,W,1,10,1.0,4.4,M,-33.8,M,,*52
$PYRTM,2024,123.587242873102,14.696890283241
$GPGGA,140536.00,3420.8085,N,12049.4682,W,1,10,1.0,3.5,M,-33.8,M,,*5E
$PYRTM,2024,123.587254447975,14.696901858113
$GPGGA,140537.00,3420.8085,N,12049.4690,W,1,10,1.0,4.4,M,-33.8,M,,*5A
$PYRTM,2024,123.587266021782,14.696913431921
$GPGGA,140538.00,3420.8090,N,12049.4700,W,1,10,1.0,5.9,M,-33.8,M,,*55
$PYRTM,2024,123.587277599236,14.696925009375
$GPGGA,140539.00,3420.8099,N,12049.4709,W,1,10,1.0,7.0,M,-33.8,M,,*5F
$PYRTM,2024,123.587289170278,14.696936580417
$GPGGA,140540.00,3420.8107,N,12049.4719,W,1,10,1.0,8.1,M,-33.8,M,,*58
$PYRTM,2024,123.587300743773,14.696948153912
$GPGGA,140541.00,3420.8114,N,12049.4729,W,1,10,1.0,7.7,M,-33.8,M,,*51
$PYRTM,2024,123.587312318287,14.696959728426
$GPGGA,140542.00,3420.8120,N,12049.4739,W,1,10,1.0,7.1,M,-33.8,M,,*52
$PYRTM,2024,123.587323894815,14.696971304954
$GPGGA,140543.00,3420.8125,N,12049.4749,W,1,10,1.0,6.8,M,-33.8,M,,*59
$PYRTM,2024,123.587335466030,14.696982876169
$GPGGA,140544.00,3420.8131,N,12049.4758,W,1,10,1.0,6.6,M,-33.8,M,,*55
$PYRTM,2024,123.587347043137,14.696994453275
$GPGGA,140545.00,3420.8141,N,12049.4770,W,1,10,1.0,6.2,M,-33.8,M,,*5D
$PYRTM,2024,123.587360234086,14.697007644225
$GPGGA,140546.00,3420.8149,N,12049.4781,W,1,10,1.0,6.4,M,-33.8,M,,*5E
$PYRTM,2024,123.587372375567,14.697019785706
$GPGGA,140547.00,3420.8153,N,12049.4790,W,1,10,1.0,7.1,M,-33.8,M,,*50
$PYRTM,2024,123.587381757708,14.697029167847
$GPGGA,140548.00,3420.8153,N,12049.4803,W,1,10,1.0,7.7,M,-33.8,M,,*5C
$PYRTM,2024,123.587393336181,14.697040746319
$GPGGA,140549.00,3420.8158,N,12049.4818,W,1,10,1.0,7.2,M,-33.8,M,,*59
$PYRTM,2024,123.587404911863,14.697052322002
$GPGGA,140550.00,3420.8165,N,12049.4830,W,1,10,1.0,8.0,M,-33.8,M,,*58
$PYRTM,2024,123.587416484549,14.697063894687
$GPGGA,140551.00,3420.8170,N,12049.4837,W,1,10,1.0,6.5,M,-33.8,M,,*51
$PYRTM,2024,123.587428054074,14.697075464213
$GPGGA,140552.00,3420.8174,N,12049.4848,W,1,10,1.0,5.7,M,-33.8,M,,*5F
$PYRTM,2024,123.587439633113,14.697087043252
$GPGGA,140553.00,3420.8177,N,12049.4863,W,1,10,1.0,6.6,M,-33.8,M,,*56
$PYRTM,2024,123.587451207072,14.697098617211
$GPGGA,140554.00,3420.8180,N,12049.4878,W,1,10,1.0,7.6,M,-33.8,M,,*52
$PYRTM,2024,123.587462782546,14.697110192685
$GPGGA,140555.00,3420.8188,N,12049.4890,W,1,10,1.0,6.6,M,-33.8,M,,*5C
$PYRTM,2024,123.587474356782,14.697121766921
$GPGGA,140556.00,3420.8197,N,12049.4901,W,1,10,1.0,9.1,M,-33.8,M,,*50
$PYRTM,2024,123.587486041019,14.697133451157
$GPGGA,140557.00,3420.8205,N,12049.4913,W,1,10,1.0,10.2,M,-33.8,M,,*61
$PYRTM,2024,123.587497497708,14.697144907847
$GPGGA,140558.00,3420.8208,N,12049.4929,W,1,10,1.0,9.1,M,-33.8,M,,*51
$PYRTM,2024,123.587509195637,14.697156605775
$GPGGA,140559.00,3420.8210,N,12049.4944,W,1,10,1.0,11.1,M,-33.8,M,,*6B
$PYRTM,2024,123.587521114155,14.697168524294
$GPGGA,140600.00,3420.8216,N,12049.4957,W,1,10,1.0,13.2,M,-33.8,M,,*61
$PYRTM,2024,123.587532343322,14.697179753472
$GPGGA,140601.00,3420.8228,N,12049.4967,W,1,10,1.0,12.1,M,-33.8,M,,*6C
$PYRTM,2024,123.587543902106,14.697191312245
$GPGGA,140602.00,3420.8238,N,12049.4979,W,1,10,1.0,11.7,M,-33.8,M,,*64
$PYRTM,2024,123.587555493484,14.697202903623
$GPGGA,140603.00,3420.8243,N,12049.4994,W,1,10,1.0,10.7,M,-33.8,M,,*6B
$PYRTM,2024,123.587567051493,14.697214461632
$GPGGA,140604.00,3420.8247,N,12049.5008,W,1,10,1.0,12.1,M,-33.8,M,,*61
$PYRTM,2024,123.587578637211,14.697226047350
$GPGGA,140605.00,3420.8257,N,12049.5019,W,1,10,1.0,14.3,M,-33.8,M,,*65
$PYRTM,2024,123.587590095197,14.697237505336
$GPGGA,140606.00,3420.8268,N,12049.5031,W,1,10,1.0,14.9,M,-33.8,M,,*6A
$PYRTM,2024,123.587601773345,14.697249183484
$GPGGA,140607.00,3420.8275,N,12049.5047,W,1,10,1.0,12.2,M,-33.8,M,,*6B
$PYRTM,2024,123.587613345162,14.697260755301
$GPGGA,140608.00,3420.8280,N,12049.5065,W,1,10,1.0,12.2,M,-33.8,M,,*6E
$PYRTM,2024,123.587624934641,14.697272344780
$GPGGA,140609.00,3420.8285,N,12049.5077,W,1,10,1.0,12.3,M,-33.8,M,,*68
$PYRTM,2024,123.587636494525,14.697283904664
$GPGGA,140610.00,3420.8294,N,12049.5084,W,1,10,1.0,11.5,M,-33.8,M,,*69
$PYRTM,2024,123.587647965556,14.697295375694
$GPGGA,140611.00,3420.8306,N,12049.5094,W,1,10,1.0,9.1,M,-33.8,M,,*5E
$PYRTM,2024,123.587659540856,14.697306950995
$GPGGA,140612.00,3420.8316,N,12049.5110,W,1,10,1.0,9.2,M,-33.8,M,,*52
$PYRTM,2024,123.587671113866,14.697318524005
$GPGGA,140613.00,3420.8320,N,12049.5127,W,1,10,1.0,8.1,M,-33.8,M,,*50
$PYRTM,2024,123.587682683391,14.697330093530
$GPGGA,140614.00,3420.8322,N,12049.5141,W,1,10,1.0,8.2,M,-33.8,M,,*56
$PYRTM,2024,123.587694275556,14.697341685694
$GPGGA,140615.00,3420.8329,N,12049.5152,W,1,10,1.0,8.7,M,-33.8,M,,*5B
$PYRTM,2024,123.587706981204,14.697354391343
$GPGGA,140616.00,3420.8342,N,12049.5166,W,1,10,1.0,8.7,M,-33.8,M,,*52
$PYRTM,2024,123.587719597280,14.697367007419
$GPGGA,140617.00,3420.8356,N,12049.5182,W,1,10,1.0,7.1,M,-33.8,M,,*55
$PYRTM,2024,123.587728984826,14.697376394965
$GPGGA,140618.00,3420.8362,N,12049.5199,W,1,10,1.0,9.0,M,-33.8,M,,*58
$PYRTM,2024,123.587740558183,14.697387968322
$GPGGA,140619.00,3420.8363,N,12049.5213,W,1,10,1.0,9.7,M,-33.8,M,,*5E
$PYRTM,2024,123.587751309549,14.697398719687
$GPGGA,140620.00,3420.8367,N,12049.5222,W,1,10,1.0,10.7,M,-33.8,M,,*6A
$PYRTM,2024,123.587763346817,14.697410756956
$GPGGA,140621.00,3420.8379,N,12049.5231,W,1,10,1.0,11.1,M,-33.8,M,,*61
$PYRTM,2024,123.587775051713,14.697422461852
$GPGGA,140622.00,3420.8388,N,12049.5246,W,1,10,1.0,10.5,M,-33.8,M,,*69
$PYRTM,2024,123.587786161319,14.697433571470
$GPGGA,140623.00,3420.8393,N,12049.5264,W,1,10,1.0,9.8,M,-33.8,M,,*57
$PYRTM,2024,123.587797270926,14.697444681076
$GPGGA,140624.00,3420.8398,N,12049.5279,W,1,10,1.0,10.2,M,-33.8,M,,*65
$PYRTM,2024,123.587808382986,14.697455793125
$GPGGA,140625.00,3420.8404,N,12049.5292,W,1,10,1.0,10.5,M,-33.8,M,,*64
$PYRTM,2024,123.587819494410,14.697466904549
$GPGGA,140626.00,3420.8413,N,12049.5305,W,1,10,1.0,11.9,M,-33.8,M,,*63
$PYRTM,2024,123.587830618958,14.697478029097
$GPGGA,140627.00,3420.8422,N,12049.5320,W,1,10,1.0,12.3,M,-33.8,M,,*6E
$PYRTM,2024,123.587841716470,14.697489126609
$GPGGA,140628.00,3420.8428,N,12049.5336,W,1,10,1.0,12.5,M,-33.8,M,,*6A
$PYRTM,2024,123.587852829537,14.697500239676
$GPGGA,140629.00,3420.8433,N,12049.5352,W,1,10,1.0,12.6,M,-33.8,M,,*60
$PYRTM,2024,123.587864387975,14.697511798113
$GPGGA,140630.00,3420.8440,N,12049.5369,W,1,10,1.0,11.6,M,-33.8,M,,*67
$PYRTM,2024,123.587875499236,14.697522909375
$GPGGA,140631.00,3420.8448,N,12049.5383,W,1,10,1.0,10.5,M,-33.8,M,,*68
$PYRTM,2024,123.587886611377,14.697534021516
$GPGGA,140632.00,3420.8457,N,12049.5393,W,1,10,1.0,9.6,M,-33.8,M,,*5F
$PYRTM,2024,123.587898530660,14.697545940810
$GPGGA,140633.00,3420.8465,N,12049.5407,W,1,10,1.0,10.6,M,-33.8,M,,*6D
$PYRTM,2024,123.587909641991,14.697557052130
$GPGGA,140634.00,3420.8470,N,12049.5426,W,1,10,1.0,11.5,M,-33.8,M,,*6F
$PYRTM,2024,123.587920754618,14.697568164757
$GPGGA,140635.00,3420.8475,N,12049.5444,W,1,10,1.0,11.8,M,-33.8,M,,*62
$PYRTM,2024,123.587932343843,14.697579753981
$GPGGA,140636.00,3420.8484,N,12049.5459,W,1,10,1.0,11.4,M,-33.8,M,,*6F
$PYRTM,2024,123.587943682720,14.697591092859
$GPGGA,140637.00,3420.8494,N,12049.5470,W,1,10,1.0,10.7,M,-33.8,M,,*66
$PYRTM,2024,123.587955243275,14.697602653414
$GPGGA,140638.00,3420.8501,N,12049.5484,W,1,10,1.0,10.1,M,-33.8,M,,*69
$PYRTM,2024,123.587966830069,14.697614240208
$GPGGA,140639.00,3420.8506,N,12049.5499,W,1,10,1.0,9.6,M,-33.8,M,,*5C
$PYRTM,2024,123.587978391204,14.697625801343
$GPGGA,140640.00,3420.8512,N,12049.5514,W,1,10,1.0,9.3,M,-33.8,M,,*56
$PYRTM,2024,123.587989974688,14.697637384826
$GPGGA,140641.00,3420.8520,N,12049.5528,W,1,10,1.0,10.3,M,-33.8,M,,*61
$PYRTM,2024,123.588001539699,14.697648949838
$GPGGA,140642.00,3420.8526,N,12049.5541,W,1,10,1.0,11.7,M,-33.8,M,,*6E
$PYRTM,2024,123.588013128449,14.697660538588
$GPGGA,140643.00,3420.8531,N,12049.5555,W,1,10,1.0,13.5,M,-33.8,M,,*6C
$PYRTM,2024,123.588024686250,14.697672096389
$GPGGA,140644.00,3420.8540,N,12049.5572,W,1,10,1.0,10.0,M,-33.8,M,,*6E
$PYRTM,2024,123.588036275660,14.697683685799
$GPGGA,140645.00,3420.8551,N,12049.5588,W,1,10,1.0,9.2,M,-33.8,M,,*50
$PYRTM,2024,123.588052016447,14.697699426586
$GPGGA,140646.00,3420.8555,N,12049.5600,W,1,10,1.0,8.9,M,-33.8,M,,*5E
$PYRTM,2024,123.588063576377,14.697710986516
$GPGGA,140647.00,3420.8553,N,12049.5612,W,1,10,1.0,9.6,M,-33.8,M,,*54
$PYRTM,2024,123.588075164201,14.697722574340
$GPGGA,140648.00,3420.8556,N,12049.5630,W,1,10,1.0,13.1,M,-33.8,M,,*62
$PYRTM,2024,123.588086724942,14.697734135081
$GPGGA,140649.00,3420.8566,N,12049.5648,W,1,10,1.0,9.7,M,-33.8,M,,*52
$PYRTM,2024,123.588098320278,14.697745730417
$GPGGA,140650.00,3420.8576,N,12049.5660,W,1,10,1.0,10.0,M,-33.8,M,,*6E
$PYRTM,2024,123.588109872350,14.697757282500
$GPGGA,140651.00,3420.8581,N,12049.5673,W,1,10,1.0,9.9,M,-33.8,M,,*54
$PYRTM,2024,123.588121460671,14.697768870810
$GPGGA,140652.00,3420.8584,N,12049.5690,W,1,10,1.0,9.5,M,-33.8,M,,*53
$PYRTM,2024,123.588133019780,14.697780429919
$GPGGA,140653.00,3420.8587,N,12049.5704,W,1,10,1.0,8.9,M,-33.8,M,,*50
$PYRTM,2024,123.588144619271,14.697792029410
$GPGGA,140654.00,3420.8593,N,12049.5718,W,1,10,1.0,8.6,M,-33.8,M,,*50
$PYRTM,2024,123.588156168137,14.697803578275
$GPGGA,140655.00,3420.8601,N,12049.5734,W,1,10,1.0,9.3,M,-33.8,M,,*53
$PYRTM,2024,123.588167757477,14.697815167616
$GPGGA,140656.00,3420.8608,N,12049.5751,W,1,10,1.0,8.7,M,-33.8,M,,*5F
$PYRTM,2024,123.588179317384,14.697826727523
$GPGGA,140657.00,3420.8614,N,12049.5765,W,1,10,1.0,9.3,M,-33.8,M,,*51
$PYRTM,2024,123.588190905185,14.697838315324
$GPGGA,140658.00,3420.8621,N,12049.5778,W,1,10,1.0,9.9,M,-33.8,M,,*5E
$PYRTM,2024,123.588202466019,14.697849876169
$GPGGA,140659.00,3420.8627,N,12049.5794,W,1,10,1.0,9.7,M,-33.8,M,,*55
$PYRTM,2024,123.588214053194,14.697861463345
$GPGGA,140700.00,3420.8635,N,12049.5806,W,1,10,1.0,9.3,M,-33.8,M,,*5B
$PYRTM,2024,123.588225615162,14.697873025301
$GPGGA,140701.00,3420.8644,N,12049.5813,W,1,10,1.0,9.5,M,-33.8,M,,*5E
$PYRTM,2024,123.588237201667,14.697884611806
$GPGGA,140702.00,3420.8654,N,12049.5824,W,1,10,1.0,9.0,M,-33.8,M,,*5D
$PYRTM,2024,123.588248763067,14.697896173206
$GPGGA,140703.00,3420.8661,N,12049.5843,W,1,10,1.0,7.2,M,-33.8,M,,*57
$PYRTM,2024,123.588260344641,14.697907754780
$GPGGA,140704.00,3420.8666,N,12049.5860,W,1,10,1.0,7.5,M,-33.8,M,,*51
$PYRTM,2024,123.588271909977,14.697919320116
$GPGGA,140705.00,3420.8671,N,12049.5868,W,1,10,1.0,7.3,M,-33.8,M,,*58
$PYRTM,2024,123.588283498322,14.697930908461
$GPGGA,140706.00,3420.8679,N,12049.5873,W,1,10,1.0,8.6,M,-33.8,M,,*53
$PYRTM,2024,123.588295058692,14.697942468831
$GPGGA,140707.00,3420.8688,N,12049.5885,W,1,10,1.0,8.5,M,-33.8,M,,*56
$PYRTM,2024,123.588306645602,14.697954055741
$GPGGA,140708.00,3420.8695,N,12049.5901,W,1,10,1.0,8.3,M,-33.8,M,,*5E
$PYRTM,2024,123.588318206111,14.697965616250
$GPGGA,140709.00,3420.8701,N,12049.5913,W,1,10,1.0,9.3,M,-33.8,M,,*51
$PYRTM,2024,123.588329794572,14.697977204711
$GPGGA,140710.00,3420.8713,N,12049.5917,W,1,10,1.0,10.3,M,-33.8,M,,*66
$PYRTM,2024,123.588341352905,14.697988763044
$GPGGA,140711.00,3420.8726,N,12049.5923,W,1,10,1.0,10.8,M,-33.8,M,,*6D
$PYRTM,2024,123.588352941227,14.698000351366
$GPGGA,140712.00,3420.8734,N,12049.5935,W,1,10,1.0,11.0,M,-33.8,M,,*63
$PYRTM,2024,123.588364503484,14.698011913623
$GPGGA,140713.00,3420.8740,N,12049.5950,W,1,10,1.0,11.2,M,-33.8,M,,*60
$PYRTM,2024,123.588376090093,14.698023500231
$GPGGA,140714.00,3420.8750,N,12049.5964,W,1,10,1.0,11.5,M,-33.8,M,,*66
$PYRTM,2024,123.588387649560,14.698035059699
$GPGGA,140715.00,3420.8761,N,12049.5975,W,1,10,1.0,11.0,M,-33.8,M,,*60
$PYRTM,2024,123.588399020266,14.698046430405
$GPGGA,140716.00,3420.8769,N,12049.5983,W,1,10,1.0,11.0,M,-33.8,M,,*62
$PYRTM,2024,123.588411853947,14.698059264086
$GPGGA,140717.00,3420.8776,N,12049.5995,W,1,10,1.0,10.8,M,-33.8,M,,*63
$PYRTM,2024,123.588423429375,14.698070839525
$GPGGA,140718.00,3420.8785,N,12049.6008,W,1,10,1.0,10.0,M,-33.8,M,,*66
$PYRTM,2024,123.588435005208,14.698082415359
$GPGGA,140719.00,3420.8794,N,12049.6021,W,1,10,1.0,9.1,M,-33.8,M,,*55
$PYRTM,2024,123.588446575718,14.698093985856
$GPGGA,140720.00,3420.8799,N,12049.6033,W,1,10,1.0,8.6,M,-33.8,M,,*57
$PYRTM,2024,123.588458149965,14.698105560104
$GPGGA,140721.00,3420.8806,N,12049.6044,W,1,10,1.0,9.5,M,-33.8,M,,*5D
$PYRTM,2024,123.588469720498,14.698117130637
$GPGGA,140722.00,3420.8815,N,12049.6054,W,1,10,1.0,10.3,M,-33.8,M,,*63
$PYRTM,2024,123.588481298264,14.698128708403
$GPGGA,140723.00,3420.8825,N,12049.6068,W,1,10,1.0,9.2,M,-33.8,M,,*57
$PYRTM,2024,123.588492874340,14.698140284479
$GPGGA,140724.00,3420.8833,N,12049.6084,W,1,10,1.0,8.5,M,-33.8,M,,*53
$PYRTM,2024,123.588504450625,14.698151860764
$GPGGA,140725.00,3420.8838,N,12049.6101,W,1,10,1.0,7.7,M,-33.8,M,,*58
$PYRTM,2024,123.588516485116,14.698163895255
$GPGGA,140726.00,3420.8844,N,12049.6116,W,1,10,1.0,7.8,M,-33.8,M,,*59
$PYRTM,2024,123.588527597454,14.698175007593
$GPGGA,140727.00,3420.8853,N,12049.6129,W,1,10,1.0,6.1,M,-33.8,M,,*5A
$PYRTM,2024,123.588539170822,14.698186580961
$GPGGA,140728.00,3420.8866,N,12049.6142,W,1,10,1.0,6.3,M,-33.8,M,,*5C
$PYRTM,2024,123.588550746424,14.698198156562
$GPGGA,140729.00,3420.8874,N,12049.6156,W,1,10,1.0,7.6,M,-33.8,M,,*5F
$PYRTM,2024,123.588562780324,14.698210190475
$GPGGA,140730.00,3420.8878,N,12049.6171,W,1,10,1.0,8.2,M,-33.8,M,,*55
$PYRTM,2024,123.588573889942,14.698221300081
$GPGGA,140731.00,3420.8885,N,12049.6187,W,1,10,1.0,9.1,M,-33.8,M,,*5D
$PYRTM,2024,123.588585466215,14.698232876354
$GPGGA,140732.00,3420.8897,N,12049.6202,W,1,10,1.0,7.9,M,-33.8,M,,*55
$PYRTM,2024,123.588597039907,14.698244450058
$GPGGA,140733.00,3420.8907,N,12049.6217,W,1,10,1.0,7.6,M,-33.8,M,,*57
$PYRTM,2024,123.588608612894,14.698256023032
$GPGGA,140734.00,3420.8911,N,12049.6233,W,1,10,1.0,7.5,M,-33.8,M,,*52
$PYRTM,2024,123.588620187627,14.698267597778
$GPGGA,140735.00,3420.8915,N,12049.6246,W,1,10,1.0,9.0,M,-33.8,M,,*5E
$PYRTM,2024,123.588631763218,14.698279173356
$GPGGA,140736.00,3420.8924,N,12049.6256,W,1,10,1.0,9.3,M,-33.8,M,,*5D
$PYRTM,2024,123.588643335833,14.698290745984
$GPGGA,140737.00,3420.8936,N,12049.6270,W,1,10,1.0,6.7,M,-33.8,M,,*50
$PYRTM,2024,123.588654909051,14.698302319190
$GPGGA,140738.00,3420.8945,N,12049.6288,W,1,10,1.0,5.2,M,-33.8,M,,*5A
$PYRTM,2024,123.588666487118,14.698313897257
$GPGGA,140739.00,3420.8946,N,12049.6307,W,1,10,1.0,5.6,M,-33.8,M,,*5A
$PYRTM,2024,123.588678057083,14.698325467222
$GPGGA,140740.00,3420.8947,N,12049.6323,W,1,10,1.0,6.1,M,-33.8,M,,*57
$PYRTM,2024,123.588689635174,14.698337045324
$GPGGA,140741.00,3420.8954,N,12049.6334,W,1,10,1.0,6.8,M,-33.8,M,,*5B
$PYRTM,2024,123.588701206447,14.698348616597
$GPGGA,140742.00,3420.8965,N,12049.6344,W,1,10,1.0,7.3,M,-33.8,M,,*57
$PYRTM,2024,123.588712784225,14.698360194363
$GPGGA,140743.00,3420.8978,N,12049.6361,W,1,10,1.0,7.0,M,-33.8,M,,*5E
$PYRTM,2024,123.588724353565,14.698371763704
$GPGGA,140744.00,3420.8985,N,12049.6380,W,1,10,1.0,6.5,M,-33.8,M,,*50
$PYRTM,2024,123.588735928900,14.698383339039
$GPGGA,140745.00,3420.8987,N,12049.6396,W,1,10,1.0,7.9,M,-33.8,M,,*59
$PYRTM,2024,123.588748645324,14.698396055463
$GPGGA,140746.00,3420.8990,N,12049.6407,W,1,10,1.0,10.2,M,-33.8,M,,*6E
$PYRTM,2024,123.588761264398,14.698408674537
$GPGGA,140747.00,3420.9001,N,12049.6420,W,1,10,1.0,10.4,M,-33.8,M,,*6C
$PYRTM,2024,123.588770650266,14.698418060405
$GPGGA,140748.00,3420.9016,N,12049.6436,W,1,10,1.0,9.4,M,-33.8,M,,*5A
$PYRTM,2024,123.588782223264,14.698429633403
$GPGGA,140749.00,3420.9025,N,12049.6449,W,1,10,1.0,9.6,M,-33.8,M,,*51
$PYRTM,2024,123.588793799120,14.698441209259
$GPGGA,140750.00,3420.9028,N,12049.6461,W,1,10,1.0,8.7,M,-33.8,M,,*5E
$PYRTM,2024,123.588805375417,14.698452785556
$GPGGA,140751.00,3420.9030,N,12049.6474,W,1,10,1.0,8.5,M,-33.8,M,,*50
$PYRTM,2024,123.588816946574,14.698464356713
$GPGGA,140752.00,3420.9036,N,12049.6487,W,1,10,1.0,8.3,M,-33.8,M,,*5F
$PYRTM,2024,123.588828520868,14.698475931007
$GPGGA,140753.00,3420.9044,N,12049.6500,W,1,10,1.0,9.3,M,-33.8,M,,*54
$PYRTM,2024,123.588840093218,14.698487503356
$GPGGA,140754.00,3420.9053,N,12049.6511,W,1,10,1.0,10.1,M,-33.8,M,,*6F
$PYRTM,2024,123.588851671713,14.698499081852
$GPGGA,140755.00,3420.9059,N,12049.6523,W,1,10,1.0,11.1,M,-33.8,M,,*64
$PYRTM,2024,123.588863242824,14.698510652975
$GPGGA,140756.00,3420.9064,N,12049.6535,W,1,10,1.0,11.5,M,-33.8,M,,*6A
$PYRTM,2024,123.588874820220,14.698522230359
$GPGGA,140757.00,3420.9070,N,12049.6551,W,1,10,1.0,10.5,M,-33.8,M,,*6D
$PYRTM,2024,123.588886390532,14.698533800671
$GPGGA,140758.00,3420.9078,N,12049.6568,W,1,10,1.0,8.3,M,-33.8,M,,*5F
$PYRTM,2024,123.588897965938,14.698545376088
$GPGGA,140759.00,3420.9087,N,12049.6579,W,1,10,1.0,6.9,M,-33.8,M,,*5A
$PYRTM,2024,123.588910001725,14.698557411863
$GPGGA,140800.00,3420.9095,N,12049.6588,W,1,10,1.0,7.7,M,-33.8,M,,*5B
$PYRTM,2024,123.588921113981,14.698568524120
$GPGGA,140801.00,3420.9102,N,12049.6601,W,1,10,1.0,8.3,M,-33.8,M,,*5C
$PYRTM,2024,123.588932688935,14.698580099074
$GPGGA,140802.00,3420.9106,N,12049.6616,W,1,10,1.0,8.9,M,-33.8,M,,*57
$PYRTM,2024,123.588944262940,14.698591673079
$GPGGA,140803.00,3420.9110,N,12049.6630,W,1,10,1.0,9.2,M,-33.8,M,,*5F
$PYRTM,2024,123.588955831088,14.698603241227
$GPGGA,140804.00,3420.9119,N,12049.6643,W,1,10,1.0,8.2,M,-33.8,M,,*54
$PYRTM,2024,123.588967408854,14.698614818993
$GPGGA,140805.00,3420.9128,N,12049.6656,W,1,10,1.0,6.6,M,-33.8,M,,*59
$PYRTM,2024,123.588978983935,14.698626394074
$GPGGA,140806.00,3420.9135,N,12049.6669,W,1,10,1.0,5.5,M,-33.8,M,,*5A
$PYRTM,2024,123.588990571667,14.698637981806
$GPGGA,140807.00,3420.9138,N,12049.6681,W,1,10,1.0,5.5,M,-33.8,M,,*50
$PYRTM,2024,123.589002130822,14.698649540961
$GPGGA,140808.00,3420.9146,N,12049.6695,W,1,10,1.0,5.4,M,-33.8,M,,*52
$PYRTM,2024,123.589013708704,14.698661118843
$GPGGA,140809.00,3420.9157,N,12049.6711,W,1,10,1.0,8.9,M,-33.8,M,,*5E
$PYRTM,2024,123.589025279387,14.698672689525
$GPGGA,140810.00,3420.9164,N,12049.6725,W,1,10,1.0,10.1,M,-33.8,M,,*60
$PYRTM,2024,123.589036857894,14.698684268032
$GPGGA,140811.00,3420.9169,N,12049.6737,W,1,10,1.0,9.9,M,-33.8,M,,*5F
$PYRTM,2024,123.589048422211,14.698695832350
$GPGGA,140812.00,3420.9175,N,12049.6752,W,1,10,1.0,9.0,M,-33.8,M,,*5B
$PYRTM,2024,123.589060006690,14.698707416829
$GPGGA,140813.00,3420.9184,N,12049.6767,W,1,10,1.0,8.0,M,-33.8,M,,*53
$PYRTM,2024,123.589071575532,14.698718985683
$GPGGA,140814.00,3420.9189,N,12049.6781,W,1,10,1.0,7.4,M,-33.8,M,,*5A
$PYRTM,2024,123.589083149676,14.698730559815
$GPGGA,140815.00,3420.9195,N,12049.6792,W,1,10,1.0,8.1,M,-33.8,M,,*5E
$PYRTM,2024,123.589096347164,14.698743757303
$GPGGA,140816.00,3420.9205,N,12049.6803,W,1,10,1.0,9.3,M,-33.8,M,,*53
$PYRTM,2024,123.589108484653,14.698755894803
$GPGGA,140817.00,3420.9214,N,12049.6820,W,1,10,1.0,8.7,M,-33.8,M,,*56
$PYRTM,2024,123.589117871273,14.698765281412
$GPGGA,140818.00,3420.9223,N,12049.6839,W,1,10,1.0,8.1,M,-33.8,M,,*53
$PYRTM,2024,123.589129445556,14.698776855694
$GPGGA,140819.00,3420.9233,N,12049.6853,W,1,10,1.0,7.8,M,-33.8,M,,*59
$PYRTM,2024,123.589141021574,14.698788431713
$GPGGA,140820.00,3420.9243,N,12049.6862,W,1,10,1.0,8.1,M,-33.8,M,,*50
$PYRTM,2024,123.589152595139,14.698800005278
$GPGGA,140821.00,3420.9250,N,12049.6874,W,1,10,1.0,8.7,M,-33.8,M,,*52
$PYRTM,2024,123.589164167928,14.698811578067
$GPGGA,140822.00,3420.9257,N,12049.6892,W,1,10,1.0,7.1,M,-33.8,M,,*57
$PYRTM,2024,123.589175745683,14.698823155822
$GPGGA,140823.00,3420.9265,N,12049.6911,W,1,10,1.0,6.0,M,-33.8,M,,*5D
$PYRTM,2024,123.589187318785,14.698834728924
$GPGGA,140824.00,3420.9275,N,12049.6923,W,1,10,1.0,5.1,M,-33.8,M,,*58
$PYRTM,2024,123.589197967315,14.698845377454
$GPGGA,140825.00,3420.9280,N,12049.6933,W,1,10,1.0,5.5,M,-33.8,M,,*56
$PYRTM,2024,123.589211043472,14.698858453611
$GPGGA,140826.00,3420.9284,N,12049.6946,W,1,10,1.0,5.8,M,-33.8,M,,*5E
$PYRTM,2024,123.589221678449,14.698869088588
$GPGGA,140827.00,3420.9289,N,12049.6962,W,1,10,1.0,5.1,M,-33.8,M,,*5D
$PYRTM,2024,123.589232789954,14.698880200093
$GPGGA,140828.00,3420.9297,N,12049.6979,W,1,10,1.0,5.2,M,-33.8,M,,*54
$PYRTM,2024,123.589243900764,14.698891310903
$GPGGA,140829.00,3420.9303,N,12049.6992,W,1,10,1.0,5.4,M,-33.8,M,,*5A
$PYRTM,2024,123.589255386123,14.698902796262
$GPGGA,140830.00,3420.9308,N,12049.7001,W,1,10,1.0,5.7,M,-33.8,M,,*58
$PYRTM,2024,123.589266482164,14.698913892303
$GPGGA,140831.00,3420.9313,N,12049.7014,W,1,10,1.0,5.5,M,-33.8,M,,*55
$PYRTM,2024,123.589277594039,14.698925004178
$GPGGA,140832.00,3420.9320,N,12049.7031,W,1,10,1.0,3.3,M,-33.8,M,,*51
$PYRTM,2024,123.589288705174,14.698936115313
$GPGGA,140833.00,3420.9327,N,12049.7046,W,1,10,1.0,5.3,M,-33.8,M,,*51
$PYRTM,2024,123.589299816748,14.698947226887
$GPGGA,140834.00,3420.9334,N,12049.7055,W,1,10,1.0,5.6,M,-33.8,M,,*53
$PYRTM,2024,123.589310930185,14.698958340324
$GPGGA,140835.00,3420.9341,N,12049.7063,W,1,10,1.0,6.6,M,-33.8,M,,*56
$PYRTM,2024,123.589321908588,14.698969318727
$GPGGA,140836.00,3420.9348,N,12049.7076,W,1,10,1.0,6.5,M,-33.8,M,,*5B
$PYRTM,2024,123.589333019606,14.698980429745
$GPGGA,140837.00,3420.9355,N,12049.7096,W,1,10,1.0,5.7,M,-33.8,M,,*59
$PYRTM,2024,123.589344131215,14.698991541354
$GPGGA,140838.00,3420.9364,N,12049.7113,W,1,10,1.0,4.1,M,-33.8,M,,*5F
