$PYRTM,2024,126.601872485451,17.711519895590
$GPGGA,142640.00,3401.1868,N,11930.7200,W,1,11,0.8,1.7,M,-33.5,M,,*53
$PYRTM,2024,126.601884046609,17.711531456759
$GPGGA,142641.00,3401.1847,N,11930.7207,W,1,11,0.8,1.8,M,-33.5,M,,*57
$PYRTM,2024,126.601895634306,17.711543044444
$GPGGA,142642.00,3401.1826,N,11930.7214,W,1,11,0.8,-0.1,M,-33.5,M,,*74
$PYRTM,2024,126.601907195301,17.711554605440
$GPGGA,142643.00,3401.1806,N,11930.7220,W,1,11,0.8,2.5,M,-33.5,M,,*5B
$PYRTM,2024,126.601918784086,17.711566194225
$GPGGA,142644.00,3401.1785,N,11930.7227,W,1,11,0.8,1.6,M,-33.5,M,,*5F
$PYRTM,2024,126.601930344317,17.711577754456
$GPGGA,142645.00,3401.1763,N,11930.7234,W,1,11,0.8,1.4,M,-33.5,M,,*56
$PYRTM,2024,126.601941929664,17.711589339803
$GPGGA,142646.00,3401.1742,N,11930.7241,W,1,11,0.8,2.2,M,-33.5,M,,*51
$PYRTM,2024,126.601953491250,17.711600901389
$GPGGA,142647.00,3401.1720,N,11930.7248,W,1,11,0.8,1.4,M,-33.5,M,,*58
$PYRTM,2024,126.601965079097,17.711612489248
$GPGGA,142648.00,3401.1699,N,11930.7254,W,1,11,0.8,2.3,M,-33.5,M,,*5D
$PYRTM,2024,126.601976641458,17.711624051597
$GPGGA,142649.00,3401.1677,N,11930.7260,W,1,11,0.8,2.8,M,-33.5,M,,*50
$PYRTM,2024,126.601988227373,17.711635637512
$GPGGA,142650.00,3401.1656,N,11930.7267,W,1,11,0.8,1.8,M,-33.5,M,,*5F
$PYRTM,2024,126.601999788356,17.711647198507
$GPGGA,142651.00,3401.1635,N,11930.7274,W,1,11,0.8,2.2,M,-33.5,M,,*50
$PYRTM,2024,126.602011377106,17.711658787257
$GPGGA,142652.00,3401.1615,N,11930.7280,W,1,11,0.8,0.6,M,-33.6,M,,*5F
$PYRTM,2024,126.602022937350,17.711670347500
$GPGGA,142653.00,3401.1594,N,11930.7286,W,1,11,0.8,0.4,M,-33.6,M,,*50
$PYRTM,2024,126.602034523414,17.711681933553
$GPGGA,142654.00,3401.1573,N,11930.7294,W,1,11,0.8,1.8,M,-33.6,M,,*50
$PYRTM,2024,126.602046085694,17.711693495845
$GPGGA,142655.00,3401.1552,N,11930.7300,W,1,11,0.8,2.0,M,-33.6,M,,*55
$PYRTM,2024,126.602057668380,17.711705078530
$GPGGA,142656.00,3401.1530,N,11930.7308,W,1,11,0.8,2.0,M,-33.6,M,,*5A
$PYRTM,2024,126.602068305938,17.711715716076
$GPGGA,142657.00,3401.1509,N,11930.7316,W,1,11,0.8,2.4,M,-33.6,M,,*5A
$PYRTM,2024,126.602080343785,17.711727753924
$GPGGA,142658.00,3401.1487,N,11930.7323,W,1,11,0.8,0.2,M,-33.6,M,,*50
$PYRTM,2024,126.602091001528,17.711738411667
$GPGGA,142659.00,3401.1463,N,11930.7330,W,1,11,0.8,0.8,M,-33.6,M,,*53
$PYRTM,2024,126.602106502407,17.711753912546
$GPGGA,142700.00,3401.1441,N,11930.7338,W,1,11,0.8,1.7,M,-33.6,M,,*58
$PYRTM,2024,126.602117615394,17.711765025544
$GPGGA,142701.00,3401.1420,N,11930.7346,W,1,11,0.8,1.5,M,-33.6,M,,*55
$PYRTM,2024,126.602128737431,17.711776147569
$GPGGA,142702.00,3401.1400,N,11930.7354,W,1,11,0.8,3.2,M,-33.6,M,,*52
$PYRTM,2024,126.602140879144,17.711788289282
$GPGGA,142703.00,3401.1379,N,11930.7362,W,1,11,0.8,1.4,M,-33.6,M,,*5B
$PYRTM,2024,126.602152016528,17.711799426667
$GPGGA,142704.00,3401.1358,N,11930.7370,W,1,11,0.8,1.2,M,-33.6,M,,*5A
$PYRTM,2024,126.602163100810,17.711810510949
$GPGGA,142705.00,3401.1337,N,11930.7378,W,1,11,0.8,-0.5,M,-33.6,M,,*71
$PYRTM,2024,126.602174237685,17.711821647824
$GPGGA,142706.00,3401.1317,N,11930.7386,W,1,11,0.8,0.0,M,-33.6,M,,*59
$PYRTM,2024,126.602185335012,17.711832745150
$GPGGA,142707.00,3401.1297,N,11930.7394,W,1,11,0.8,2.1,M,-33.6,M,,*51
$PYRTM,2024,126.602196561771,17.711843971910
$GPGGA,142708.00,3401.1276,N,11930.7402,W,1,11,0.8,2.3,M,-33.6,M,,*5B
$PYRTM,2024,126.602208121852,17.711855531991
$GPGGA,142709.00,3401.1254,N,11930.7410,W,1,11,0.8,-1.2,M,-33.6,M,,*76
$PYRTM,2024,126.602219709965,17.711867120104
$GPGGA,142710.00,3401.1234,N,11930.7417,W,1,11,0.8,0.4,M,-33.6,M,,*55
$PYRTM,2024,126.602231269803,17.711878679942
$GPGGA,142711.00,3401.1213,N,11930.7424,W,1,11,0.8,0.3,M,-33.6,M,,*56
$PYRTM,2024,126.602242858738,17.711890268877
$GPGGA,142712.00,3401.1191,N,11930.7429,W,1,11,0.8,-0.1,M,-33.6,M,,*7E
$PYRTM,2024,126.602254418704,17.711901828843
$GPGGA,142713.00,3401.1170,N,11930.7434,W,1,11,0.8,1.0,M,-33.6,M,,*51
$PYRTM,2024,126.602266008588,17.711913418727
$GPGGA,142714.00,3401.1148,N,11930.7439,W,1,11,0.8,-0.1,M,-33.6,M,,*7D
$PYRTM,2024,126.602277566655,17.711924976794
$GPGGA,142715.00,3401.1127,N,11930.7444,W,1,11,0.8,-1.0,M,-33.6,M,,*7F
$PYRTM,2024,126.602289150231,17.711936560370
$GPGGA,142716.00,3401.1107,N,11930.7451,W,1,11,0.8,-0.1,M,-33.6,M,,*7A
$PYRTM,2024,126.602300716678,17.711948126817
$GPGGA,142717.00,3401.1087,N,11930.7458,W,1,11,0.8,0.6,M,-33.6,M,,*51
$PYRTM,2024,126.602312303924,17.711959714074
$GPGGA,142718.00,3401.1065,N,11930.7465,W,1,11,0.8,0.4,M,-33.6,M,,*5E
$PYRTM,2024,126.602323864560,17.711971274699
$GPGGA,142719.00,3401.1043,N,11930.7470,W,1,11,0.8,-0.5,M,-33.6,M,,*73
$PYRTM,2024,126.602335452338,17.711982862477
$GPGGA,142720.00,3401.1022,N,11930.7477,W,1,11,0.8,2.1,M,-33.6,M,,*52
$PYRTM,2024,126.602347012083,17.711994422222
$GPGGA,142721.00,3401.1001,N,11930.7484,W,1,11,0.8,0.5,M,-33.6,M,,*58
$PYRTM,2024,126.602358600579,17.712006010729
$GPGGA,142722.00,3401.0980,N,11930.7492,W,1,11,0.8,1.6,M,-33.6,M,,*5F
$PYRTM,2024,126.602370159421,17.712017569560
$GPGGA,142723.00,3401.0960,N,11930.7499,W,1,11,0.8,3.0,M,-33.6,M,,*5F
$PYRTM,2024,126.602381749086,17.712029159236
$GPGGA,142724.00,3401.0939,N,11930.7505,W,1,11,0.8,3.5,M,-33.6,M,,*55
$PYRTM,2024,126.602393308692,17.712040718831
$GPGGA,142725.00,3401.0919,N,11930.7511,W,1,11,0.8,5.6,M,-33.6,M,,*56
$PYRTM,2024,126.602404898345,17.712052308484
$GPGGA,142726.00,3401.0898,N,11930.7519,W,1,11,0.8,3.4,M,-33.6,M,,*51
$PYRTM,2024,126.602416456551,17.712063866701
$GPGGA,142727.00,3401.0877,N,11930.7527,W,1,11,0.8,2.3,M,-33.6,M,,*5A
$PYRTM,2024,126.602428045012,17.712075455150
$GPGGA,142728.00,3401.0858,N,11930.7535,W,1,11,0.8,2.0,M,-33.6,M,,*58
$PYRTM,2024,126.602439969815,17.712087379954
$GPGGA,142729.00,3401.0838,N,11930.7540,W,1,11,0.8,2.6,M,-33.6,M,,*5B
$PYRTM,2024,126.602449789317,17.712097199456
$GPGGA,142730.00,3401.0817,N,11930.7546,W,1,11,0.8,3.8,M,-33.6,M,,*57
$PYRTM,2024,126.602461598021,17.712109008160
$GPGGA,142731.00,3401.0796,N,11930.7554,W,1,11,0.8,3.8,M,-33.6,M,,*53
$PYRTM,2024,126.602474341030,17.712121751169
$GPGGA,142732.00,3401.0776,N,11930.7563,W,1,11,0.8,2.3,M,-33.6,M,,*50
$PYRTM,2024,126.602485901539,17.712133311690
$GPGGA,142733.00,3401.0754,N,11930.7571,W,1,11,0.8,1.9,M,-33.6,M,,*5B
$PYRTM,2024,126.602497491250,17.712144901389
$GPGGA,142734.00,3401.0732,N,11930.7580,W,1,11,0.8,1.7,M,-33.6,M,,*5C
$PYRTM,2024,126.602509049838,17.712156459977
$GPGGA,142735.00,3401.0711,N,11930.7588,W,1,11,0.8,2.7,M,-33.6,M,,*57
$PYRTM,2024,126.602520634653,17.712168044792
$GPGGA,142736.00,3401.0689,N,11930.7595,W,1,11,0.8,3.8,M,-33.6,M,,*56
$PYRTM,2024,126.602532198542,17.712179608681
$GPGGA,142737.00,3401.0667,N,11930.7603,W,1,11,0.8,3.6,M,-33.6,M,,*55
$PYRTM,2024,126.602543784942,17.712191195081
$GPGGA,142738.00,3401.0646,N,11930.7610,W,1,11,0.8,3.3,M,-33.6,M,,*5E
$PYRTM,2024,126.602555346586,17.712202756725
$GPGGA,142739.00,3401.0626,N,11930.7618,W,1,11,0.8,2.3,M,-33.6,M,,*50
$PYRTM,2024,126.602566935046,17.712214345185
$GPGGA,142740.00,3401.0605,N,11930.7626,W,1,11,0.8,2.6,M,-33.6,M,,*57
$PYRTM,2024,126.602578495949,17.712225906088
$GPGGA,142741.00,3401.0585,N,11930.7633,W,1,11,0.8,2.9,M,-33.6,M,,*56
$PYRTM,2024,126.602590081562,17.712237491701
$GPGGA,142742.00,3401.0564,N,11930.7642,W,1,11,0.8,0.4,M,-33.6,M,,*53
$PYRTM,2024,126.602601643704,17.712249053854
$GPGGA,142743.00,3401.0543,N,11930.7649,W,1,11,0.8,0.3,M,-33.6,M,,*5B
$PYRTM,2024,126.602613226123,17.712260636262
$GPGGA,142744.00,3401.0522,N,11930.7657,W,1,10,1.0,0.5,M,-33.6,M,,*5A
$PYRTM,2024,126.602624790926,17.712272201065
$GPGGA,142745.00,3401.0500,N,11930.7666,W,1,11,0.8,-0.8,M,-33.6,M,,*71
$PYRTM,2024,126.602636379167,17.712283789306
$GPGGA,142746.00,3401.0479,N,11930.7674,W,1,11,0.8,-0.9,M,-33.6,M,,*7F
$PYRTM,2024,126.602647940810,17.712295350949
$GPGGA,142747.00,3401.0458,N,11930.7683,W,1,11,0.8,2.6,M,-33.6,M,,*55
$PYRTM,2024,126.602659527535,17.712306937674
$GPGGA,142748.00,3401.0437,N,11930.7691,W,1,11,0.8,0.4,M,-33.6,M,,*50
$PYRTM,2024,126.602671087824,17.712318497963
$GPGGA,142749.00,3401.0415,N,11930.7698,W,1,11,0.8,1.8,M,-33.6,M,,*55
$PYRTM,2024,126.602682677928,17.712330088079
$GPGGA,142750.00,3401.0393,N,11930.7705,W,1,11,0.8,1.4,M,-33.6,M,,*5D
$PYRTM,2024,126.602694236424,17.712341646562
$GPGGA,142751.00,3401.0372,N,11930.7713,W,1,11,0.8,-0.8,M,-33.6,M,,*74
$PYRTM,2024,126.602705823657,17.712353233808
$GPGGA,142752.00,3401.0352,N,11930.7721,W,1,11,0.8,-0.3,M,-33.6,M,,*7F
$PYRTM,2024,126.602717384630,17.712364794769
$GPGGA,142753.00,3401.0333,N,11930.7728,W,1,11,0.8,-0.7,M,-33.6,M,,*74
$PYRTM,2024,126.602728972083,17.712376382222
$GPGGA,142754.00,3401.0312,N,11930.7735,W,1,11,0.8,-3.0,M,-33.6,M,,*78
$PYRTM,2024,126.602740533935,17.712387944074
$GPGGA,142755.00,3401.0290,N,11930.7744,W,1,11,0.8,-2.0,M,-33.6,M,,*75
$PYRTM,2024,126.602752117083,17.712399527222
$GPGGA,142756.00,3401.0270,N,11930.7753,W,1,11,0.8,-0.6,M,-33.6,M,,*7A
$PYRTM,2024,126.602763682928,17.712411093067
$GPGGA,142757.00,3401.0250,N,11930.7761,W,1,11,0.8,0.7,M,-33.6,M,,*54
$PYRTM,2024,126.602775264028,17.712422674167
$GPGGA,142758.00,3401.0229,N,11930.7768,W,1,11,0.8,-0.8,M,-33.6,M,,*7E
$PYRTM,2024,126.602786829722,17.712434239861
$GPGGA,142759.00,3401.0207,N,11930.7775,W,1,11,0.8,-0.2,M,-33.6,M,,*75
$PYRTM,2024,126.602797014387,17.712444424525
$GPGGA,142800.00,3401.0185,N,11930.7783,W,1,11,0.8,-0.2,M,-33.6,M,,*76
$PYRTM,2024,126.602809301979,17.712456712118
$GPGGA,142801.00,3401.0164,N,11930.7792,W,1,12,0.8,0.5,M,-33.6,M,,*51
$PYRTM,2024,126.602821566551,17.712468976690
$GPGGA,142802.00,3401.0142,N,11930.7800,W,1,12,0.8,-0.7,M,-33.6,M,,*7D
$PYRTM,2024,126.602833125590,17.712480535729
$GPGGA,142803.00,3401.0121,N,11930.7808,W,1,12,0.8,-1.9,M,-33.6,M,,*7E
$PYRTM,2024,126.602844714051,17.712492124190
$GPGGA,142804.00,3401.0099,N,11930.7816,W,1,11,1.0,-1.9,M,-33.6,M,,*7E
$PYRTM,2024,126.602856275799,17.712503685949
$GPGGA,142805.00,3401.0077,N,11930.7824,W,1,12,0.8,0.2,M,-33.6,M,,*53
$PYRTM,2024,126.602867863553,17.712515273692
$GPGGA,142806.00,3401.0055,N,11930.7832,W,1,12,0.8,0.8,M,-33.6,M,,*5D
$PYRTM,2024,126.602879422546,17.712526832685
$GPGGA,142807.00,3401.0034,N,11930.7840,W,1,12,0.8,-0.6,M,-33.6,M,,*7D
$PYRTM,2024,126.602891006794,17.712538416944
$GPGGA,142808.00,3401.0014,N,11930.7848,W,1,12,0.8,-1.7,M,-33.6,M,,*78
$PYRTM,2024,126.602902571134,17.712549981273
$GPGGA,142809.00,3400.9993,N,11930.7856,W,1,12,0.8,-0.4,M,-33.6,M,,*7A
$PYRTM,2024,126.602914160579,17.712561570718
$GPGGA,142810.00,3400.9973,N,11930.7864,W,1,12,0.8,0.3,M,-33.6,M,,*57
$PYRTM,2024,126.602925718866,17.712573129005
$GPGGA,142811.00,3400.9953,N,11930.7872,W,1,12,0.8,1.7,M,-33.6,M,,*56
$PYRTM,2024,126.602937303160,17.712584713299
$GPGGA,142812.00,3400.9934,N,11930.7882,W,1,12,0.8,-0.5,M,-33.6,M,,*75
$PYRTM,2024,126.602948869456,17.712596279595
$GPGGA,142813.00,3400.9913,N,11930.7891,W,1,12,0.8,1.0,M,-33.6,M,,*5A
$PYRTM,2024,126.602960456111,17.712607866250
$GPGGA,142814.00,3400.9893,N,11930.7901,W,1,12,0.8,1.9,M,-33.6,M,,*55
$PYRTM,2024,126.602972015451,17.712619425590
$GPGGA,142815.00,3400.9874,N,11930.7910,W,1,12,0.8,0.8,M,-33.6,M,,*5D
$PYRTM,2024,126.602983603669,17.712631013808
$GPGGA,142816.00,3400.9853,N,11930.7919,W,1,12,0.8,1.6,M,-33.6,M,,*5D
$PYRTM,2024,126.602995164086,17.712642574225
$GPGGA,142817.00,3400.9833,N,11930.7929,W,1,12,0.8,1.6,M,-33.6,M,,*59
$PYRTM,2024,126.603006752442,17.712654162581
$GPGGA,142818.00,3400.9814,N,11930.7939,W,1,12,0.8,1.5,M,-33.6,M,,*51
$PYRTM,2024,126.603018313808,17.712665723947
$GPGGA,142819.00,3400.9794,N,11930.7950,W,1,12,0.8,2.3,M,-33.6,M,,*5D
$PYRTM,2024,126.603029900104,17.712677310243
$GPGGA,142820.00,3400.9774,N,11930.7961,W,1,12,0.8,3.2,M,-33.6,M,,*5B
$PYRTM,2024,126.603041460856,17.712688870995
$GPGGA,142821.00,3400.9755,N,11930.7971,W,1,12,0.8,4.7,M,-33.6,M,,*5A
$PYRTM,2024,126.603053048785,17.712700458924
$GPGGA,142822.00,3400.9736,N,11930.7982,W,1,12,0.8,4.3,M,-33.6,M,,*54
$PYRTM,2024,126.603064608264,17.712712018403
$GPGGA,142823.00,3400.9716,N,11930.7994,W,1,12,0.8,5.4,M,-33.6,M,,*56
$PYRTM,2024,126.603076196192,17.712723606331
$GPGGA,142824.00,3400.9697,N,11930.8006,W,1,12,0.8,6.7,M,-33.6,M,,*54
$PYRTM,2024,126.603087757569,17.712735167708
$GPGGA,142825.00,3400.9678,N,11930.8018,W,1,12,0.8,4.7,M,-33.6,M,,*59
$PYRTM,2024,126.603099346250,17.712746756389
$GPGGA,142826.00,3400.9658,N,11930.8030,W,1,12,0.8,3.6,M,-33.6,M,,*54
$PYRTM,2024,126.603110905729,17.712758315880
$GPGGA,142827.00,3400.9638,N,11930.8041,W,1,12,0.8,5.5,M,-33.6,M,,*50
$PYRTM,2024,126.603122493843,17.712769903993
$GPGGA,142828.00,3400.9619,N,11930.8053,W,1,12,0.8,4.8,M,-33.6,M,,*53
$PYRTM,2024,126.603134053646,17.712781463785
$GPGGA,142829.00,3400.9599,N,11930.8065,W,1,12,0.8,5.9,M,-33.6,M,,*5C
$PYRTM,2024,126.603144238310,17.712791648449
$GPGGA,142830.00,3400.9580,N,11930.8077,W,1,12,0.8,4.5,M,-33.6,M,,*52
$PYRTM,2024,126.603156045428,17.712803455567
$GPGGA,142831.00,3400.9560,N,11930.8089,W,1,12,0.8,6.0,M,-33.6,M,,*5B
$PYRTM,2024,126.603169126169,17.712816536308
$GPGGA,142832.00,3400.9541,N,11930.8101,W,1,12,0.8,6.2,M,-33.6,M,,*58
$PYRTM,2024,126.603180351551,17.712827761690
$GPGGA,142833.00,3400.9522,N,11930.8113,W,1,12,0.8,4.7,M,-33.6,M,,*58
$PYRTM,2024,126.603191939606,17.712839349757
$GPGGA,142834.00,3400.9503,N,11930.8127,W,1,12,0.8,6.3,M,-33.6,M,,*5D
$PYRTM,2024,126.603203499572,17.712850909722
$GPGGA,142835.00,3400.9483,N,11930.8140,W,1,12,0.8,5.4,M,-33.6,M,,*50
$PYRTM,2024,126.603215086169,17.712862496308
$GPGGA,142836.00,3400.9462,N,11930.8152,W,1,12,0.8,3.9,M,-33.6,M,,*54
$PYRTM,2024,126.603226647407,17.712874057546
$GPGGA,142837.00,3400.9443,N,11930.8165,W,1,12,0.8,3.8,M,-33.6,M,,*53
$PYRTM,2024,126.603238234757,17.712885644896
$GPGGA,142838.00,3400.9423,N,11930.8177,W,1,12,0.8,5.1,M,-33.6,M,,*56
$PYRTM,2024,126.603249796817,17.712897206956
$GPGGA,142839.00,3400.9404,N,11930.8188,W,1,12,0.8,5.5,M,-33.6,M,,*56
$PYRTM,2024,126.603261384248,17.712908794398
$GPGGA,142840.00,3400.9385,N,11930.8200,W,1,12,0.8,5.3,M,-33.6,M,,*53
$PYRTM,2024,126.603272943391,17.712920353542
$GPGGA,142841.00,3400.9364,N,11930.8211,W,1,12,0.8,7.2,M,-33.6,M,,*5E
$PYRTM,2024,126.603284532049,17.712931942187
$GPGGA,142842.00,3400.9345,N,11930.8223,W,1,12,0.8,6.5,M,-33.6,M,,*59
$PYRTM,2024,126.603296092350,17.712943502488
$GPGGA,142843.00,3400.9326,N,11930.8236,W,1,12,0.8,8.9,M,-33.6,M,,*5B
$PYRTM,2024,126.603307675035,17.712955085174
$GPGGA,142844.00,3400.9307,N,11930.8248,W,1,12,0.8,7.9,M,-33.6,M,,*59
$PYRTM,2024,126.603319239942,17.712966650081
$GPGGA,142845.00,3400.9288,N,11930.8262,W,1,12,0.8,7.4,M,-33.6,M,,*5B
$PYRTM,2024,126.603330827813,17.712978237951
$GPGGA,142846.00,3400.9267,N,11930.8275,W,1,12,0.8,7.6,M,-33.6,M,,*5D
$PYRTM,2024,126.603342388669,17.712989798808
$GPGGA,142847.00,3400.9248,N,11930.8288,W,1,12,0.8,8.2,M,-33.6,M,,*58
$PYRTM,2024,126.603353971690,17.713001381829
$GPGGA,142848.00,3400.9228,N,11930.8300,W,1,12,0.8,8.4,M,-33.6,M,,*56
$PYRTM,2024,126.603365538449,17.713012948588
$GPGGA,142849.00,3400.9207,N,11930.8314,W,1,12,0.8,8.2,M,-33.6,M,,*59
$PYRTM,2024,126.603377125150,17.713024535289
$GPGGA,142850.00,3400.9187,N,11930.8328,W,1,12,0.8,6.7,M,-33.6,M,,*5E
$PYRTM,2024,126.603388685266,17.713036095405
$GPGGA,142851.00,3400.9168,N,11930.8342,W,1,12,0.8,5.4,M,-33.6,M,,*52
$PYRTM,2024,126.603400273843,17.713047683981
$GPGGA,142852.00,3400.9148,N,11930.8354,W,1,12,0.8,6.4,M,-33.6,M,,*57
$PYRTM,2024,126.603411832998,17.713059243137
$GPGGA,142853.00,3400.9128,N,11930.8366,W,1,12,0.8,6.0,M,-33.6,M,,*55
$PYRTM,2024,126.603423417998,17.713070828137
$GPGGA,142854.00,3400.9108,N,11930.8380,W,1,12,0.8,6.2,M,-33.6,M,,*5A
$PYRTM,2024,126.603434981250,17.713082391389
$GPGGA,142855.00,3400.9089,N,11930.8394,W,1,12,0.8,6.9,M,-33.6,M,,*5D
$PYRTM,2024,126.603446569606,17.713093979757
$GPGGA,142856.00,3400.9069,N,11930.8408,W,1,12,0.8,7.0,M,-33.6,M,,*5A
$PYRTM,2024,126.603458129028,17.713105539178
$GPGGA,142857.00,3400.9049,N,11930.8421,W,1,12,0.8,6.6,M,-33.6,M,,*55
$PYRTM,2024,126.603469719097,17.713117129236
$GPGGA,142858.00,3400.9028,N,11930.8434,W,1,12,0.8,6.3,M,-33.6,M,,*5C
$PYRTM,2024,126.603481278252,17.713128688391
$GPGGA,142859.00,3400.9008,N,11930.8447,W,1,12,0.8,6.4,M,-33.6,M,,*5C
$PYRTM,2024,126.603491462743,17.713138872882
$GPGGA,142900.00,3400.8988,N,11930.8459,W,1,12,0.8,6.3,M,-33.6,M,,*59
$PYRTM,2024,126.603503270810,17.713150680949
$GPGGA,142901.00,3400.8968,N,11930.8472,W,1,12,0.8,5.5,M,-33.6,M,,*5A
$PYRTM,2024,126.603515088692,17.713162498831
$GPGGA,142902.00,3400.8948,N,11930.8486,W,1,12,0.8,5.5,M,-33.6,M,,*50
$PYRTM,2024,126.603527125266,17.713174535405
$GPGGA,142903.00,3400.8927,N,11930.8498,W,1,12,0.8,6.0,M,-33.6,M,,*51
$PYRTM,2024,126.603538457199,17.713185867338
$GPGGA,142904.00,3400.8906,N,11930.8511,W,1,12,0.8,8.2,M,-33.6,M,,*59
$PYRTM,2024,126.603549235972,17.713196646111
$GPGGA,142905.00,3400.8886,N,11930.8523,W,1,12,0.8,7.3,M,-33.6,M,,*5E
$PYRTM,2024,126.603560338634,17.713207748773
$GPGGA,142906.00,3400.8866,N,11930.8537,W,1,12,0.8,7.1,M,-33.6,M,,*54
$PYRTM,2024,126.603571455949,17.713218866088
$GPGGA,142907.00,3400.8845,N,11930.8551,W,1,12,0.8,8.6,M,-33.6,M,,*5C
$PYRTM,2024,126.603582565880,17.713229976019
$GPGGA,142908.00,3400.8825,N,11930.8565,W,1,12,0.8,7.0,M,-33.6,M,,*5B
$PYRTM,2024,126.603593678403,17.713241088542
$GPGGA,142909.00,3400.8804,N,11930.8578,W,1,12,0.8,8.7,M,-33.6,M,,*5D
$PYRTM,2024,126.603604792384,17.713252202535
$GPGGA,142910.00,3400.8784,N,11930.8591,W,1,12,0.8,7.2,M,-33.6,M,,*5F
$PYRTM,2024,126.603615899595,17.713263309734
$GPGGA,142911.00,3400.8763,N,11930.8605,W,1,12,0.8,6.5,M,-33.6,M,,*5F
$PYRTM,2024,126.603627009329,17.713274419468
$GPGGA,142912.00,3400.8743,N,11930.8619,W,1,12,0.8,7.0,M,-33.6,M,,*57
$PYRTM,2024,126.603645518264,17.713292928403
$GPGGA,142913.00,3400.8723,N,11930.8633,W,1,12,0.8,8.6,M,-33.6,M,,*51
$PYRTM,2024,126.603656654711,17.713304064850
$GPGGA,142914.00,3400.8702,N,11930.8647,W,1,12,0.8,8.3,M,-33.6,M,,*53
$PYRTM,2024,126.603667739676,17.713315149826
$GPGGA,142915.00,3400.8681,N,11930.8661,W,1,12,0.8,7.7,M,-33.6,M,,*57
$PYRTM,2024,126.603678850567,17.713326260706
$GPGGA,142916.00,3400.8662,N,11930.8673,W,1,12,0.8,8.3,M,-33.6,M,,*51
$PYRTM,2024,126.603689974722,17.713337384861
$GPGGA,142917.00,3400.8642,N,11930.8687,W,1,12,0.8,8.2,M,-33.6,M,,*58
$PYRTM,2024,126.603701085347,17.713348495486
$GPGGA,142918.00,3400.8623,N,11930.8701,W,1,12,0.8,8.1,M,-33.6,M,,*5C
$PYRTM,2024,126.603712307431,17.713359717569
$GPGGA,142919.00,3400.8602,N,11930.8715,W,1,12,0.8,10.3,M,-33.6,M,,*60
$PYRTM,2024,126.603723423403,17.713370833553
$GPGGA,142920.00,3400.8582,N,11930.8729,W,1,12,0.8,9.0,M,-33.6,M,,*55
$PYRTM,2024,126.603734534097,17.713381944236
$GPGGA,142921.00,3400.8563,N,11930.8742,W,1,12,0.8,10.4,M,-33.6,M,,*6A
$PYRTM,2024,126.603745645532,17.713393055683
$GPGGA,142922.00,3400.8544,N,11930.8756,W,1,12,0.8,10.2,M,-33.6,M,,*6F
$PYRTM,2024,126.603756758356,17.713404168495
$GPGGA,142923.00,3400.8525,N,11930.8772,W,1,11,0.8,9.1,M,-33.6,M,,*57
$PYRTM,2024,126.603767864931,17.713415275069
$GPGGA,142924.00,3400.8506,N,11930.8787,W,1,12,0.8,9.1,M,-33.6,M,,*58
$PYRTM,2024,126.603778974572,17.713426384711
$GPGGA,142925.00,3400.8487,N,11930.8802,W,1,12,0.8,8.1,M,-33.6,M,,*52
$PYRTM,2024,126.603790202350,17.713437612488
$GPGGA,142926.00,3400.8467,N,11930.8817,W,1,12,0.8,10.6,M,-33.6,M,,*65
$PYRTM,2024,126.603801312361,17.713448722512
$GPGGA,142927.00,3400.8447,N,11930.8831,W,1,12,0.8,10.3,M,-33.6,M,,*67
$PYRTM,2024,126.603812428843,17.713459838993
$GPGGA,142928.00,3400.8429,N,11930.8845,W,1,12,0.8,7.7,M,-33.6,M,,*51
$PYRTM,2024,126.603823540347,17.713470950486
$GPGGA,142929.00,3400.8410,N,11930.8861,W,1,12,0.8,5.8,M,-33.6,M,,*51
$PYRTM,2024,126.603840090775,17.713487500914
$GPGGA,142930.00,3400.8392,N,11930.8877,W,1,12,0.8,5.8,M,-33.6,M,,*53
$PYRTM,2024,126.603851650613,17.713499060752
$GPGGA,142931.00,3400.8373,N,11930.8891,W,1,12,0.8,6.7,M,-33.6,M,,*59
$PYRTM,2024,126.603863238762,17.713510648900
$GPGGA,142932.00,3400.8354,N,11930.8905,W,1,12,0.8,4.8,M,-33.6,M,,*5E
$PYRTM,2024,126.603874798345,17.713522208484
$GPGGA,142933.00,3400.8335,N,11930.8922,W,1,12,0.8,8.2,M,-33.6,M,,*5B
$PYRTM,2024,126.603886389201,17.713533799340
$GPGGA,142934.00,3400.8317,N,11930.8939,W,1,12,0.8,8.3,M,-33.6,M,,*57
$PYRTM,2024,126.603897949236,17.713545359375
$GPGGA,142935.00,3400.8298,N,11930.8955,W,1,12,0.8,4.7,M,-33.6,M,,*52
$PYRTM,2024,126.603909539306,17.713556949444
$GPGGA,142936.00,3400.8280,N,11930.8972,W,1,12,0.8,3.4,M,-33.6,M,,*59
$PYRTM,2024,126.603921096956,17.713568507095
$GPGGA,142937.00,3400.8262,N,11930.8988,W,1,12,0.8,3.9,M,-33.6,M,,*5C
$PYRTM,2024,126.603932683299,17.713580093437
$GPGGA,142938.00,3400.8242,N,11930.9005,W,1,12,0.8,3.9,M,-33.6,M,,*5C
$PYRTM,2024,126.603944244225,17.713591654363
$GPGGA,142939.00,3400.8223,N,11930.9021,W,1,12,0.8,6.7,M,-33.6,M,,*57
$PYRTM,2024,126.603955833044,17.713603243183
$GPGGA,142940.00,3400.8205,N,11930.9035,W,1,12,0.8,7.6,M,-33.6,M,,*58
$PYRTM,2024,126.603967394931,17.713614805069
$GPGGA,142941.00,3400.8186,N,11930.9050,W,1,12,0.8,6.0,M,-33.6,M,,*55
$PYRTM,2024,126.603978981725,17.713626391863
$GPGGA,142942.00,3400.8168,N,11930.9065,W,1,12,0.8,6.3,M,-33.6,M,,*53
$PYRTM,2024,126.603990540810,17.713637950949
$GPGGA,142943.00,3400.8150,N,11930.9080,W,1,12,0.8,5.0,M,-33.6,M,,*52
$PYRTM,2024,126.604002130683,17.713649540833
$GPGGA,142944.00,3400.8131,N,11930.9095,W,1,12,0.8,3.5,M,-33.6,M,,*55
$PYRTM,2024,126.604013688796,17.713661098935
$GPGGA,142945.00,3400.8111,N,11930.9109,W,1,12,0.8,4.6,M,-33.6,M,,*56
$PYRTM,2024,126.604025276736,17.713672686875
$GPGGA,142946.00,3400.8092,N,11930.9125,W,1,12,0.8,3.3,M,-33.6,M,,*53
$PYRTM,2024,126.604036837211,17.713684247350
$GPGGA,142947.00,3400.8073,N,11930.9141,W,1,12,0.8,4.9,M,-33.6,M,,*52
$PYRTM,2024,126.604048425417,17.713695835556
$GPGGA,142948.00,3400.8053,N,11930.9157,W,1,12,0.8,4.6,M,-33.6,M,,*57
$PYRTM,2024,126.604059984942,17.713707395081
$GPGGA,142949.00,3400.8034,N,11930.9173,W,1,12,0.8,3.3,M,-33.6,M,,*53
$PYRTM,2024,126.604071572882,17.713718983021
$GPGGA,142950.00,3400.8015,N,11930.9189,W,1,12,0.8,5.5,M,-33.6,M,,*5D
$PYRTM,2024,126.604083132106,17.713730542245
$GPGGA,142951.00,3400.7996,N,11930.9205,W,1,12,0.8,5.6,M,-33.6,M,,*55
$PYRTM,2024,126.604094721481,17.713742131620
$GPGGA,142952.00,3400.7978,N,11930.9220,W,1,12,0.8,6.8,M,-33.6,M,,*5C
$PYRTM,2024,126.604106281343,17.713753691481
$GPGGA,142953.00,3400.7960,N,11930.9236,W,1,12,0.8,7.3,M,-33.6,M,,*59
$PYRTM,2024,126.604117870185,17.713765280324
$GPGGA,142954.00,3400.7941,N,11930.9251,W,1,12,0.8,5.9,M,-33.6,M,,*54
$PYRTM,2024,126.604129430532,17.713776840671
$GPGGA,142955.00,3400.7923,N,11930.9266,W,1,12,0.8,6.3,M,-33.6,M,,*5C
$PYRTM,2024,126.604141019919,17.713788430058
$GPGGA,142956.00,3400.7904,N,11930.9282,W,1,12,0.8,8.3,M,-33.6,M,,*5E
$PYRTM,2024,126.604152577569,17.713799987708
$GPGGA,142957.00,3400.7885,N,11930.9298,W,1,12,0.8,7.7,M,-33.6,M,,*57
$PYRTM,2024,126.604164166632,17.713811576771
$GPGGA,142958.00,3400.7866,N,11930.9314,W,1,12,0.8,7.1,M,-33.6,M,,*56
$PYRTM,2024,126.604175725694,17.713823135833
$GPGGA,142959.00,3400.7847,N,11930.9329,W,1,12,0.8,4.8,M,-33.6,M,,*50
$PYRTM,2024,126.604185911759,17.713833321898
$GPGGA,143000.00,3400.7827,N,11930.9343,W,1,12,0.8,6.5,M,-33.6,M,,*51
$PYRTM,2024,126.604197717523,17.713845127662
$GPGGA,143001.00,3400.7809,N,11930.9358,W,1,12,0.8,7.8,M,-33.6,M,,*5A
$PYRTM,2024,126.604210459676,17.713857869815
$GPGGA,143002.00,3400.7790,N,11930.9373,W,1,12,0.8,8.1,M,-33.6,M,,*59
$PYRTM,2024,126.604222024838,17.713869434977
$GPGGA,143003.00,3400.7773,N,11930.9387,W,1,12,0.8,8.8,M,-33.6,M,,*57
$PYRTM,2024,126.604233611806,17.713881021944
$GPGGA,143004.00,3400.7754,N,11930.9400,W,1,12,0.8,6.7,M,-33.6,M,,*5C
$PYRTM,2024,126.604245170752,17.713892580891
$GPGGA,143005.00,3400.7736,N,11930.9414,W,1,12,0.8,6.3,M,-33.6,M,,*58
$PYRTM,2024,126.604256760729,17.713904170868
$GPGGA,143006.00,3400.7717,N,11930.9429,W,1,12,0.8,5.9,M,-33.6,M,,*5F
$PYRTM,2024,126.604268320625,17.713915730764
$GPGGA,143007.00,3400.7699,N,11930.9446,W,1,12,0.8,6.5,M,-33.6,M,,*5F
$PYRTM,2024,126.604279908843,17.713927318981
$GPGGA,143008.00,3400.7681,N,11930.9462,W,1,12,0.8,6.8,M,-33.6,M,,*52
$PYRTM,2024,126.604291469757,17.713938879907
$GPGGA,143009.00,3400.7663,N,11930.9478,W,1,12,0.8,5.7,M,-33.6,M,,*58
$PYRTM,2024,126.604303055301,17.713950465440
$GPGGA,143010.00,3400.7644,N,11930.9493,W,1,12,0.8,5.6,M,-33.6,M,,*51
$PYRTM,2024,126.604314615949,17.713962026100
$GPGGA,143011.00,3400.7625,N,11930.9509,W,1,12,0.8,6.7,M,-33.6,M,,*57
$PYRTM,2024,126.604326204676,17.713973614815
$GPGGA,143012.00,3400.7606,N,11930.9525,W,1,12,0.8,7.6,M,-33.6,M,,*5B
$PYRTM,2024,126.604337764387,17.713985174525
$GPGGA,143013.00,3400.7588,N,11930.9541,W,1,12,0.8,5.5,M,-33.6,M,,*5C
$PYRTM,2024,126.604349356632,17.713996766782
$GPGGA,143014.00,3400.7570,N,11930.9558,W,1,12,0.8,4.8,M,-33.6,M,,*58
$PYRTM,2024,126.604360914815,17.714008324954
$GPGGA,143015.00,3400.7551,N,11930.9573,W,1,12,0.8,5.4,M,-33.6,M,,*5E
$PYRTM,2024,126.604372506690,17.714019916829
$GPGGA,143016.00,3400.7532,N,11930.9589,W,1,12,0.8,6.6,M,-33.6,M,,*5C
$PYRTM,2024,126.604384065069,17.714031475208
$GPGGA,143017.00,3400.7513,N,11930.9606,W,1,12,0.8,7.3,M,-33.6,M,,*5E
$PYRTM,2024,126.604395653299,17.714043063449
$GPGGA,143018.00,3400.7495,N,11930.9621,W,1,12,0.8,6.3,M,-33.6,M,,*5A
$PYRTM,2024,126.604407211296,17.714054621435
$GPGGA,143019.00,3400.7477,N,11930.9637,W,1,12,0.8,7.0,M,-33.6,M,,*52
$PYRTM,2024,126.604418798310,17.714066208449
$GPGGA,143020.00,3400.7459,N,11930.9653,W,1,12,0.8,5.9,M,-33.6,M,,*5D
$PYRTM,2024,126.604430360961,17.714077771100
$GPGGA,143021.00,3400.7439,N,11930.9668,W,1,12,0.8,5.8,M,-33.6,M,,*53
$PYRTM,2024,126.604441949433,17.714089359572
$GPGGA,143022.00,3400.7421,N,11930.9684,W,1,12,0.8,7.4,M,-33.6,M,,*55
$PYRTM,2024,126.604453508264,17.714100918403
$GPGGA,143023.00,3400.7403,N,11930.9700,W,1,12,0.8,5.4,M,-33.6,M,,*5B
$PYRTM,2024,126.604465094514,17.714112504653
$GPGGA,143024.00,3400.7385,N,11930.9716,W,1,12,0.8,6.7,M,-33.6,M,,*52
$PYRTM,2024,126.604476656412,17.714124066551
$GPGGA,143025.00,3400.7366,N,11930.9733,W,1,12,0.8,5.9,M,-33.6,M,,*54
$PYRTM,2024,126.604488244306,17.714135654444
$GPGGA,143026.00,3400.7348,N,11930.9748,W,1,12,0.8,6.9,M,-33.6,M,,*54
$PYRTM,2024,126.604499806412,17.714147216563
$GPGGA,143027.00,3400.7330,N,11930.9764,W,1,12,0.8,5.5,M,-33.6,M,,*5B
$PYRTM,2024,126.604511391227,17.714158801366
$GPGGA,143028.00,3400.7312,N,11930.9781,W,1,12,0.8,4.9,M,-33.6,M,,*52
$PYRTM,2024,126.604522953495,17.714170363634
$GPGGA,143029.00,3400.7295,N,11930.9798,W,1,12,0.8,6.5,M,-33.6,M,,*5B
$PYRTM,2024,126.604533137512,17.714180547650
$GPGGA,143030.00,3400.7276,N,11930.9815,W,1,12,0.8,6.9,M,-33.6,M,,*58
$PYRTM,2024,126.604544955660,17.714192365799
$GPGGA,143031.00,3400.7257,N,11930.9832,W,1,12,0.8,8.0,M,-33.6,M,,*58
$PYRTM,2024,126.604557691424,17.714205101562
$GPGGA,143032.00,3400.7238,N,11930.9848,W,1,12,0.8,6.0,M,-33.6,M,,*51
$PYRTM,2024,126.604569250625,17.714216660764
$GPGGA,143033.00,3400.7220,N,11930.9866,W,1,12,0.8,8.5,M,-33.6,M,,*5E
$PYRTM,2024,126.604580839132,17.714228249271
$GPGGA,143034.00,3400.7203,N,11930.9884,W,1,12,0.8,7.1,M,-33.6,M,,*5F
$PYRTM,2024,126.604592398843,17.714239808981
$GPGGA,143035.00,3400.7184,N,11930.9902,W,1,12,0.8,7.0,M,-33.6,M,,*5C
$PYRTM,2024,126.604603865718,17.714251275868
$GPGGA,143036.00,3400.7166,N,11930.9920,W,1,12,0.8,9.6,M,-33.6,M,,*5B
$PYRTM,2024,126.604615545671,17.714262955810
$GPGGA,143037.00,3400.7148,N,11930.9939,W,1,12,0.8,9.5,M,-33.6,M,,*5D
$PYRTM,2024,126.604627134109,17.714274544248
$GPGGA,143038.00,3400.7130,N,11930.9959,W,1,12,0.8,11.1,M,-33.6,M,,*66
$PYRTM,2024,126.604638694132,17.714286104271
$GPGGA,143039.00,3400.7113,N,11930.9979,W,1,12,0.8,10.3,M,-33.6,M,,*67
$PYRTM,2024,126.604650166782,17.714297576921
$GPGGA,143040.00,3400.7097,N,11930.9998,W,1,12,0.8,9.3,M,-33.6,M,,*53
$PYRTM,2024,126.604661728866,17.714309139005
$GPGGA,143041.00,3400.7081,N,11931.0018,W,1,12,0.8,9.3,M,-33.6,M,,*5C
$PYRTM,2024,126.604673429687,17.714320839826
$GPGGA,143042.00,3400.7066,N,11931.0038,W,1,12,0.8,9.6,M,-33.6,M,,*51
$PYRTM,2024,126.604684876574,17.714332286713
$GPGGA,143043.00,3400.7049,N,11931.0058,W,1,12,0.8,8.8,M,-33.6,M,,*54
$PYRTM,2024,126.604696457245,17.714343867384
$GPGGA,143044.00,3400.7032,N,11931.0078,W,1,12,0.8,8.3,M,-33.6,M,,*56
$PYRTM,2024,126.604708022951,17.714355433102
$GPGGA,143045.00,3400.7016,N,11931.0098,W,1,12,0.8,8.2,M,-33.6,M,,*5E
$PYRTM,2024,126.604719614687,17.714367024826
$GPGGA,143046.00,3400.6999,N,11931.0118,W,1,12,0.8,4.5,M,-33.6,M,,*50
$PYRTM,2024,126.604731171111,17.714378581250
$GPGGA,143047.00,3400.6982,N,11931.0137,W,1,12,0.8,3.1,M,-33.6,M,,*55
$PYRTM,2024,126.604742761377,17.714390171516
$GPGGA,143048.00,3400.6966,N,11931.0157,W,1,12,0.8,2.9,M,-33.6,M,,*5F
$PYRTM,2024,126.604754319954,17.714401730093
$GPGGA,143049.00,3400.6950,N,11931.0178,W,1,12,0.8,2.5,M,-33.6,M,,*5A
$PYRTM,2024,126.604765910093,17.714413320231
$GPGGA,143050.00,3400.6934,N,11931.0199,W,1,12,0.8,2.5,M,-33.6,M,,*5F
$PYRTM,2024,126.604777468681,17.714424878819
$GPGGA,143051.00,3400.6917,N,11931.0219,W,1,12,0.8,2.0,M,-33.6,M,,*51
$PYRTM,2024,126.604789055625,17.714436465775
$GPGGA,143052.00,3400.6900,N,11931.0239,W,1,12,0.8,3.5,M,-33.6,M,,*52
$PYRTM,2024,126.604800617396,17.714448027535
$GPGGA,143053.00,3400.6884,N,11931.0259,W,1,12,0.8,3.9,M,-33.6,M,,*54
$PYRTM,2024,126.604812203426,17.714459613565
$GPGGA,143054.00,3400.6869,N,11931.0280,W,1,12,0.8,6.7,M,-33.6,M,,*5F
$PYRTM,2024,126.604823767025,17.714471177164
$GPGGA,143055.00,3400.6853,N,11931.0301,W,1,12,0.8,8.4,M,-33.6,M,,*52
$PYRTM,2024,126.604835352766,17.714482762905
$GPGGA,143056.00,3400.6839,N,11931.0321,W,1,12,0.8,9.4,M,-33.6,M,,*5E
$PYRTM,2024,126.604847029653,17.714494439792
$GPGGA,143057.00,3400.6824,N,11931.0341,W,1,12,0.8,11.3,M,-33.6,M,,*6B
$PYRTM,2024,126.604858616539,17.714506026678
$GPGGA,143058.00,3400.6810,N,11931.0362,W,1,12,0.8,11.0,M,-33.6,M,,*61
$PYRTM,2024,126.604870178750,17.714517588889
$GPGGA,143059.00,3400.6795,N,11931.0383,W,1,12,0.8,12.0,M,-33.6,M,,*6E
$PYRTM,2024,126.604880362674,17.714527772824
$GPGGA,143100.00,3400.6781,N,11931.0402,W,1,12,0.8,11.7,M,-33.6,M,,*6C
$PYRTM,2024,126.604892179653,17.714539589792
$GPGGA,143101.00,3400.6767,N,11931.0423,W,1,12,0.8,9.9,M,-33.6,M,,*51
$PYRTM,2024,126.604904915243,17.714552325382
$GPGGA,143102.00,3400.6752,N,11931.0443,W,1,12,0.8,10.4,M,-33.6,M,,*67
$PYRTM,2024,126.604916474317,17.714563884456
$GPGGA,143103.00,3400.6738,N,11931.0463,W,1,12,0.8,10.9,M,-33.6,M,,*65
$PYRTM,2024,126.604928626065,17.714576036204
$GPGGA,143104.00,3400.6723,N,11931.0482,W,1,12,0.8,10.0,M,-33.6,M,,*6E
$PYRTM,2024,126.604940216134,17.714587626273
$GPGGA,143105.00,3400.6708,N,11931.0502,W,1,12,0.8,11.2,M,-33.6,M,,*6C
$PYRTM,2024,126.604951659653,17.714599069792
$GPGGA,143106.00,3400.6692,N,11931.0523,W,1,12,0.8,8.7,M,-33.6,M,,*53
$PYRTM,2024,126.604969959144,17.714617369282
$GPGGA,143107.00,3400.6676,N,11931.0545,W,1,12,0.8,9.7,M,-33.6,M,,*59
$PYRTM,2024,126.604981996991,17.714629407130
$GPGGA,143108.00,3400.6660,N,11931.0565,W,1,12,0.8,8.0,M,-33.6,M,,*55
$PYRTM,2024,126.604992991609,17.714640401748
$GPGGA,143109.00,3400.6644,N,11931.0584,W,1,12,0.8,10.5,M,-33.6,M,,*61
$PYRTM,2024,126.605004102731,17.714651512870
$GPGGA,143110.00,3400.6629,N,11931.0604,W,1,12,0.8,10.2,M,-33.6,M,,*6E
$PYRTM,2024,126.605015213924,17.714662624062
$GPGGA,143111.00,3400.6613,N,11931.0624,W,1,12,0.8,9.9,M,-33.6,M,,*57
$PYRTM,2024,126.605026440567,17.714673850706
$GPGGA,143112.00,3400.6597,N,11931.0645,W,1,12,0.8,9.6,M,-33.6,M,,*53
$PYRTM,2024,126.605037552500,17.714684962650
$GPGGA,143113.00,3400.6582,N,11931.0666,W,1,12,0.8,7.9,M,-33.6,M,,*56
$PYRTM,2024,126.605048663819,17.714696073958
$GPGGA,143114.00,3400.6567,N,11931.0685,W,1,12,0.8,9.5,M,-33.6,M,,*55
$PYRTM,2024,126.605059774606,17.714707184757
$GPGGA,143115.00,3400.6552,N,11931.0705,W,1,12,0.8,10.1,M,-33.6,M,,*67
$PYRTM,2024,126.605070885069,17.714718295208
$GPGGA,143116.00,3400.6536,N,11931.0726,W,1,12,0.8,11.7,M,-33.6,M,,*60
$PYRTM,2024,126.605081997222,17.714729407361
$GPGGA,143117.00,3400.6521,N,11931.0748,W,1,12,0.8,12.1,M,-33.6,M,,*6A
$PYRTM,2024,126.605093211088,17.714740621238
$GPGGA,143118.00,3400.6506,N,11931.0767,W,1,12,0.8,10.9,M,-33.6,M,,*67
$PYRTM,2024,126.605104322257,17.714751732396
$GPGGA,143119.00,3400.6492,N,11931.0786,W,1,12,0.8,10.2,M,-33.6,M,,*6E
$PYRTM,2024,126.605115432870,17.714762843009
$GPGGA,143120.00,3400.6477,N,11931.0806,W,1,12,0.8,10.8,M,-33.6,M,,*62
$PYRTM,2024,126.605126545081,17.714773955220
$GPGGA,143121.00,3400.6462,N,11931.0827,W,1,12,0.8,11.7,M,-33.6,M,,*6A
$PYRTM,2024,126.605137655521,17.714785065660
$GPGGA,143122.00,3400.6447,N,11931.0846,W,1,12,0.8,9.9,M,-33.6,M,,*5E
$PYRTM,2024,126.605148882593,17.714796292743
$GPGGA,143123.00,3400.6433,N,11931.0863,W,1,12,0.8,10.7,M,-33.6,M,,*6D
$PYRTM,2024,126.605159995046,17.714807405185
$GPGGA,143124.00,3400.6419,N,11931.0881,W,1,12,0.8,9.9,M,-33.6,M,,*58
$PYRTM,2024,126.605171106574,17.714818516725
$GPGGA,143125.00,3400.6405,N,11931.0900,W,1,12,0.8,9.9,M,-33.6,M,,*5C
$PYRTM,2024,126.605182215845,17.714829625984
$GPGGA,143126.00,3400.6391,N,11931.0917,W,1,12,0.8,9.5,M,-33.6,M,,*5F
$PYRTM,2024,126.605193327199,17.714840737338
$GPGGA,143127.00,3400.6378,N,11931.0935,W,1,12,0.8,6.2,M,-33.6,M,,*51
$PYRTM,2024,126.605204438588,17.714851848738
$GPGGA,143128.00,3400.6365,N,11931.0952,W,1,12,0.8,9.6,M,-33.6,M,,*58
$PYRTM,2024,126.605215550243,17.714862960382
$GPGGA,143129.00,3400.6352,N,11931.0968,W,1,12,0.8,8.7,M,-33.6,M,,*54
$PYRTM,2024,126.605231288738,17.714878698877
$GPGGA,143130.00,3400.6339,N,11931.0985,W,1,12,0.8,10.0,M,-33.6,M,,*6C
$PYRTM,2024,126.605242402604,17.714889812743
$GPGGA,143131.00,3400.6325,N,11931.1003,W,1,12,0.8,10.5,M,-33.6,M,,*63
$PYRTM,2024,126.605253513322,17.714900923461
$GPGGA,143132.00,3400.6312,N,11931.1021,W,1,12,0.8,11.7,M,-33.6,M,,*67
$PYRTM,2024,126.605264624722,17.714912034861
$GPGGA,143133.00,3400.6298,N,11931.1038,W,1,12,0.8,12.1,M,-33.6,M,,*68
$PYRTM,2024,126.605276198981,17.714923609120
$GPGGA,143134.00,3400.6285,N,11931.1055,W,1,12,0.8,9.4,M,-33.6,M,,*57
$PYRTM,2024,126.605287318218,17.714934728356
$GPGGA,143135.00,3400.6270,N,11931.1072,W,1,12,0.8,8.0,M,-33.6,M,,*5C
$PYRTM,2024,126.605298549850,17.714945959988
$GPGGA,143136.00,3400.6256,N,11931.1089,W,1,12,0.8,10.3,M,-33.6,M,,*65
$PYRTM,2024,126.605309880521,17.714957290660
$GPGGA,143137.00,3400.6243,N,11931.1107,W,1,12,0.8,8.5,M,-33.6,M,,*58
$PYRTM,2024,126.605321585116,17.714968995266
$GPGGA,143138.00,3400.6230,N,11931.1125,W,1,12,0.8,10.7,M,-33.6,M,,*68
$PYRTM,2024,126.605333143981,17.714980554120
$GPGGA,143139.00,3400.6217,N,11931.1143,W,1,12,0.8,10.0,M,-33.6,M,,*6B
$PYRTM,2024,126.605344731181,17.714992141319
$GPGGA,143140.00,3400.6205,N,11931.1160,W,1,12,0.8,10.3,M,-33.6,M,,*64
$PYRTM,2024,126.605356291678,17.715003701817
$GPGGA,143141.00,3400.6192,N,11931.1177,W,1,12,0.8,12.2,M,-33.6,M,,*6D
$PYRTM,2024,126.605367878449,17.715015288588
$GPGGA,143142.00,3400.6181,N,11931.1194,W,1,12,0.8,12.8,M,-33.6,M,,*6B
$PYRTM,2024,126.605379441076,17.715026851215
$GPGGA,143143.00,3400.6170,N,11931.1210,W,1,12,0.8,12.4,M,-33.6,M,,*67
$PYRTM,2024,126.605391027130,17.715038437269
$GPGGA,143144.00,3400.6159,N,11931.1227,W,1,12,0.8,10.3,M,-33.6,M,,*6A
$PYRTM,2024,126.605402588218,17.715049998356
$GPGGA,143145.00,3400.6149,N,11931.1244,W,1,12,0.8,10.3,M,-33.6,M,,*6F
$PYRTM,2024,126.605414170775,17.715061580914
$GPGGA,143146.00,3400.6137,N,11931.1262,W,1,12,0.8,10.5,M,-33.6,M,,*67
$PYRTM,2024,126.605425735729,17.715073145868
$GPGGA,143147.00,3400.6125,N,11931.1280,W,1,12,0.8,11.6,M,-33.6,M,,*6B
$PYRTM,2024,126.605437323044,17.715084733183
$GPGGA,143148.00,3400.6114,N,11931.1297,W,1,12,0.8,12.3,M,-33.6,M,,*66
$PYRTM,2024,126.605448884815,17.715096294954
$GPGGA,143149.00,3400.6104,N,11931.1314,W,1,12,0.8,11.1,M,-33.6,M,,*6D
$PYRTM,2024,126.605460485301,17.715107895440
$GPGGA,143150.00,3400.6092,N,11931.1331,W,1,12,0.8,10.9,M,-33.6,M,,*65
$PYRTM,2024,126.605472036227,17.715119446366
$GPGGA,143151.00,3400.6082,N,11931.1349,W,1,12,0.8,13.1,M,-33.6,M,,*61
$PYRTM,2024,126.605483632616,17.715131042755
$GPGGA,143152.00,3400.6070,N,11931.1366,W,1,12,0.8,14.0,M,-33.6,M,,*64
$PYRTM,2024,126.605495182222,17.715142592361
$GPGGA,143153.00,3400.6060,N,11931.1383,W,1,12,0.8,12.3,M,-33.6,M,,*6A
$PYRTM,2024,126.605506771331,17.715154181470
$GPGGA,143154.00,3400.6051,N,11931.1401,W,1,12,0.8,12.0,M,-33.6,M,,*61
$PYRTM,2024,126.605518330266,17.715165740405
$GPGGA,143155.00,3400.6040,N,11931.1419,W,1,12,0.8,13.1,M,-33.6,M,,*69
$PYRTM,2024,126.605529916400,17.715177326539
$GPGGA,143156.00,3400.6030,N,11931.1436,W,1,12,0.8,15.6,M,-33.6,M,,*61
$PYRTM,2024,126.605541476898,17.715188887037
$GPGGA,143157.00,3400.6019,N,11931.1452,W,1,12,0.8,13.0,M,-33.6,M,,*69
$PYRTM,2024,126.605553065150,17.715200475289
$GPGGA,143158.00,3400.6009,N,11931.1467,W,1,12,0.8,11.7,M,-33.6,M,,*64
$PYRTM,2024,126.605564627454,17.715212037593
$GPGGA,143159.00,3400.5999,N,11931.1484,W,1,12,0.8,12.8,M,-33.6,M,,*67
$PYRTM,2024,126.605575287824,17.715222697963
$GPGGA,143200.00,3400.5989,N,11931.1501,W,1,12,0.8,10.5,M,-33.6,M,,*6A
$PYRTM,2024,126.605586628565,17.715234038704
$GPGGA,143201.00,3400.5978,N,11931.1516,W,1,12,0.8,9.2,M,-33.6,M,,*5C
$PYRTM,2024,126.605599361944,17.715246772083
$GPGGA,143202.00,3400.5967,N,11931.1532,W,1,12,0.8,10.3,M,-33.6,M,,*6E
$PYRTM,2024,126.605610807477,17.715258217616
$GPGGA,143203.00,3400.5956,N,11931.1549,W,1,12,0.8,9.7,M,-33.6,M,,*5D
$PYRTM,2024,126.605622509167,17.715269919306
$GPGGA,143204.00,3400.5946,N,11931.1565,W,1,12,0.8,10.2,M,-33.6,M,,*68
$PYRTM,2024,126.605634072361,17.715281482500
$GPGGA,143205.00,3400.5937,N,11931.1582,W,1,12,0.8,10.0,M,-33.6,M,,*64
$PYRTM,2024,126.605645662106,17.715293072257
$GPGGA,143206.00,3400.5927,N,11931.1599,W,1,12,0.8,10.9,M,-33.6,M,,*65
$PYRTM,2024,126.605657219491,17.715304629630
$GPGGA,143207.00,3400.5918,N,11931.1616,W,1,12,0.8,11.7,M,-33.6,M,,*63
$PYRTM,2024,126.605668821343,17.715316231481
$GPGGA,143208.00,3400.5908,N,11931.1633,W,1,12,0.8,12.5,M,-33.6,M,,*6B
$PYRTM,2024,126.605680368380,17.715327778519
$GPGGA,143209.00,3400.5900,N,11931.1650,W,1,12,0.8,12.5,M,-33.6,M,,*67
$PYRTM,2024,126.605691955197,17.715339365336
$GPGGA,143210.00,3400.5891,N,11931.1665,W,1,12,0.8,12.5,M,-33.6,M,,*60
$PYRTM,2024,126.605703514560,17.715350924699
$GPGGA,143211.00,3400.5883,N,11931.1681,W,1,12,0.8,10.7,M,-33.6,M,,*68
$PYRTM,2024,126.605715098009,17.715362508148
$GPGGA,143212.00,3400.5874,N,11931.1698,W,1,12,0.8,11.9,M,-33.6,M,,*64
$PYRTM,2024,126.605726664097,17.715374074248
$GPGGA,143213.00,3400.5866,N,11931.1713,W,1,12,0.8,13.1,M,-33.6,M,,*6E
$PYRTM,2024,126.605738251192,17.715385661331
$GPGGA,143214.00,3400.5857,N,11931.1726,W,1,12,0.8,11.9,M,-33.6,M,,*67
$PYRTM,2024,126.605748667199,17.715396077338
$GPGGA,143215.00,3400.5848,N,11931.1739,W,1,12,0.8,10.5,M,-33.6,M,,*6B
$PYRTM,2024,126.605761400567,17.715408810706
$GPGGA,143216.00,3400.5838,N,11931.1755,W,1,12,0.8,13.1,M,-33.6,M,,*62
$PYRTM,2024,126.605772962697,17.715420372836
$GPGGA,143217.00,3400.5827,N,11931.1770,W,1,12,0.8,12.8,M,-33.6,M,,*62
$PYRTM,2024,126.605784547639,17.715431957789
$GPGGA,143218.00,3400.5818,N,11931.1783,W,1,12,0.8,12.5,M,-33.6,M,,*60
$PYRTM,2024,126.605796109954,17.715443520093
$GPGGA,143219.00,3400.5810,N,11931.1797,W,1,12,0.8,12.5,M,-33.6,M,,*6C
$PYRTM,2024,126.605807696597,17.715455106736
$GPGGA,143220.00,3400.5800,N,11931.1813,W,1,12,0.8,11.7,M,-33.6,M,,*65
$PYRTM,2024,126.605819258947,17.715466669086
$GPGGA,143221.00,3400.5790,N,11931.1829,W,1,12,0.8,11.6,M,-33.6,M,,*6A
$PYRTM,2024,126.605830847604,17.715478257743
$GPGGA,143222.00,3400.5781,N,11931.1845,W,1,12,0.8,12.5,M,-33.6,M,,*63
$PYRTM,2024,126.605842405833,17.715489815972
$GPGGA,143223.00,3400.5772,N,11931.1861,W,1,12,0.8,12.4,M,-33.6,M,,*69
$PYRTM,2024,126.605854007477,17.715501417616
$GPGGA,143224.00,3400.5763,N,11931.1877,W,1,12,0.8,11.9,M,-33.6,M,,*67
$PYRTM,2024,126.605865554688,17.715512964826
$GPGGA,143225.00,3400.5755,N,11931.1891,W,1,12,0.8,11.7,M,-33.6,M,,*65
$PYRTM,2024,126.605877140984,17.715524551123
$GPGGA,143226.00,3400.5748,N,11931.1906,W,1,12,0.8,11.1,M,-33.6,M,,*63
$PYRTM,2024,126.605888702789,17.715536112928
$GPGGA,143227.00,3400.5739,N,11931.1921,W,1,12,0.8,11.7,M,-33.6,M,,*67
$PYRTM,2024,126.605900277512,17.715547687650
$GPGGA,143228.00,3400.5730,N,11931.1934,W,1,12,0.8,11.5,M,-33.6,M,,*67
$PYRTM,2024,126.605911851250,17.715559261389
$GPGGA,143229.00,3400.5721,N,11931.1949,W,1,12,0.8,11.5,M,-33.6,M,,*6C
$PYRTM,2024,126.605922036528,17.715569446667
$GPGGA,143230.00,3400.5713,N,11931.1962,W,1,12,0.8,11.4,M,-33.6,M,,*6D
$PYRTM,2024,126.605933855347,17.715581265486
$GPGGA,143231.00,3400.5704,N,11931.1975,W,1,12,0.8,11.3,M,-33.6,M,,*6B
$PYRTM,2024,126.605946573275,17.715593983414
$GPGGA,143232.00,3400.5693,N,11931.1989,W,1,12,0.8,11.5,M,-33.6,M,,*62
$PYRTM,2024,126.605958147245,17.715605557396
$GPGGA,143233.00,3400.5683,N,11931.2003,W,1,12,0.8,11.9,M,-33.6,M,,*66
$PYRTM,2024,126.605970069491,17.715617479630
$GPGGA,143234.00,3400.5674,N,11931.2017,W,1,12,0.8,12.0,M,-33.6,M,,*66
$PYRTM,2024,126.605981295174,17.715628705313
$GPGGA,143235.00,3400.5665,N,11931.2031,W,1,12,0.8,10.3,M,-33.6,M,,*62
$PYRTM,2024,126.605992876470,17.715640286609
$GPGGA,143236.00,3400.5654,N,11931.2046,W,1,12,0.8,12.1,M,-33.6,M,,*63
$PYRTM,2024,126.606004444514,17.715651854653
$GPGGA,143237.00,3400.5646,N,11931.2062,W,1,12,0.8,12.9,M,-33.6,M,,*6F
$PYRTM,2024,126.606016034792,17.715663444931
$GPGGA,143238.00,3400.5638,N,11931.2076,W,1,12,0.8,12.9,M,-33.6,M,,*6C
$PYRTM,2024,126.606027591713,17.715675001852
$GPGGA,143239.00,3400.5629,N,11931.2090,W,1,12,0.8,12.9,M,-33.6,M,,*65
$PYRTM,2024,126.606039182546,17.715686592685
$GPGGA,143240.00,3400.5621,N,11931.2104,W,1,12,0.8,12.6,M,-33.6,M,,*60
$PYRTM,2024,126.606050740243,17.715698150382
$GPGGA,143241.00,3400.5613,N,11931.2118,W,1,12,0.8,13.3,M,-33.6,M,,*69
$PYRTM,2024,126.606062318032,17.715709728171
$GPGGA,143242.00,3400.5605,N,11931.2133,W,1,12,0.8,13.1,M,-33.6,M,,*66
$PYRTM,2024,126.606073889039,17.715721299178
$GPGGA,143243.00,3400.5597,N,11931.2149,W,1,12,0.8,13.0,M,-33.6,M,,*63
$PYRTM,2024,126.606085464109,17.715732874248
$GPGGA,143244.00,3400.5589,N,11931.2164,W,1,12,0.8,13.5,M,-33.6,M,,*61
$PYRTM,2024,126.606097037176,17.715744447326
$GPGGA,143245.00,3400.5581,N,11931.2180,W,1,12,0.8,13.9,M,-33.6,M,,*6E
$PYRTM,2024,126.606108624352,17.715756034491
$GPGGA,143246.00,3400.5573,N,11931.2195,W,1,12,0.8,13.8,M,-33.6,M,,*65
$PYRTM,2024,126.606120186250,17.715767596377
$GPGGA,143247.00,3400.5564,N,11931.2210,W,1,12,0.8,13.8,M,-33.6,M,,*6C
$PYRTM,2024,126.606131772130,17.715779182269
$GPGGA,143248.00,3400.5555,N,11931.2225,W,1,12,0.8,14.5,M,-33.6,M,,*6D
$PYRTM,2024,126.606143217303,17.715790627442
$GPGGA,143249.00,3400.5546,N,11931.2238,W,1,12,0.8,14.4,M,-33.6,M,,*63
$PYRTM,2024,126.606154804144,17.715802214282
$GPGGA,143250.00,3400.5537,N,11931.2252,W,1,12,0.8,14.4,M,-33.6,M,,*61
$PYRTM,2024,126.606166480775,17.715813890914
$GPGGA,143251.00,3400.5529,N,11931.2266,W,1,12,0.8,14.4,M,-33.6,M,,*68
$PYRTM,2024,126.606177952581,17.715825362720
$GPGGA,143252.00,3400.5521,N,11931.2281,W,1,12,0.8,14.8,M,-33.6,M,,*66
$PYRTM,2024,126.606189513796,17.715836923935
$GPGGA,143253.00,3400.5513,N,11931.2296,W,1,12,0.8,15.1,M,-33.6,M,,*68
$PYRTM,2024,126.606201115891,17.715848526030
$GPGGA,143254.00,3400.5504,N,11931.2311,W,1,12,0.8,15.5,M,-33.6,M,,*63
$PYRTM,2024,126.606212662060,17.715860072199
$GPGGA,143255.00,3400.5495,N,11931.2326,W,1,12,0.8,15.1,M,-33.6,M,,*6B
$PYRTM,2024,126.606224252292,17.715871662431
$GPGGA,143256.00,3400.5486,N,11931.2340,W,1,12,0.8,12.9,M,-33.6,M,,*65
$PYRTM,2024,126.606235811829,17.715883221968
$GPGGA,143257.00,3400.5478,N,11931.2354,W,1,12,0.8,12.5,M,-33.6,M,,*6C
$PYRTM,2024,126.606247398646,17.715894808785
$GPGGA,143258.00,3400.5470,N,11931.2369,W,1,12,0.8,15.4,M,-33.6,M,,*63
$PYRTM,2024,126.606258960197,17.715906370347
$GPGGA,143259.00,3400.5461,N,11931.2383,W,1,12,0.8,13.6,M,-33.6,M,,*62
$PYRTM,2024,126.606269262963,17.715916673102
$GPGGA,143300.00,3400.5452,N,11931.2396,W,1,12,0.8,14.9,M,-33.6,M,,*63
$PYRTM,2024,126.606281074444,17.715928484583
$GPGGA,143301.00,3400.5443,N,11931.2412,W,1,12,0.8,13.8,M,-33.6,M,,*6F
$PYRTM,2024,126.606293694896,17.715941105035
$GPGGA,143302.00,3400.5435,N,11931.2426,W,1,12,0.8,12.6,M,-33.6,M,,*65
$PYRTM,2024,126.606305255081,17.715952665220
$GPGGA,143303.00,3400.5428,N,11931.2440,W,1,12,0.8,11.9,M,-33.6,M,,*64
$PYRTM,2024,126.606316842766,17.715964252905
$GPGGA,143304.00,3400.5420,N,11931.2454,W,1,12,0.8,14.0,M,-33.6,M,,*62
$PYRTM,2024,126.606328404896,17.715975815035
$GPGGA,143305.00,3400.5412,N,11931.2469,W,1,12,0.8,13.9,M,-33.6,M,,*62
$PYRTM,2024,126.606339992627,17.715987402778
$GPGGA,143306.00,3400.5402,N,11931.2482,W,1,12,0.8,13.1,M,-33.6,M,,*6D
$PYRTM,2024,126.606351552002,17.715998962141
$GPGGA,143307.00,3400.5393,N,11931.2494,W,1,12,0.8,12.7,M,-33.6,M,,*63
$PYRTM,2024,126.606363140394,17.716010550532
$GPGGA,143308.00,3400.5383,N,11931.2509,W,1,12,0.8,11.0,M,-33.6,M,,*6C
$PYRTM,2024,126.606374700613,17.716022110752
$GPGGA,143309.00,3400.5374,N,11931.2523,W,1,12,0.8,11.8,M,-33.6,M,,*65
$PYRTM,2024,126.606386301771,17.716033711910
$GPGGA,143310.00,3400.5363,N,11931.2538,W,1,12,0.8,10.7,M,-33.6,M,,*6F
$PYRTM,2024,126.606397849572,17.716045259711
$GPGGA,143311.00,3400.5353,N,11931.2551,W,1,12,0.8,11.9,M,-33.6,M,,*6D
$PYRTM,2024,126.606408640475,17.716056050613
$GPGGA,143312.00,3400.5344,N,11931.2564,W,1,12,0.8,12.2,M,-33.6,M,,*66
$PYRTM,2024,126.606420432292,17.716067842431
$GPGGA,143313.00,3400.5336,N,11931.2579,W,1,12,0.8,9.4,M,-33.6,M,,*52
$PYRTM,2024,126.606431183299,17.716078593449
$GPGGA,143314.00,3400.5327,N,11931.2594,W,1,12,0.8,12.3,M,-33.6,M,,*6B
$PYRTM,2024,126.606442294630,17.716089704769
$GPGGA,143315.00,3400.5318,N,11931.2608,W,1,12,0.8,13.4,M,-33.6,M,,*66
$PYRTM,2024,126.606453405185,17.716100815324
$GPGGA,143316.00,3400.5309,N,11931.2622,W,1,12,0.8,12.1,M,-33.6,M,,*69
$PYRTM,2024,126.606464515995,17.716111926134
$GPGGA,143317.00,3400.5300,N,11931.2636,W,1,12,0.8,12.6,M,-33.6,M,,*63
$PYRTM,2024,126.606475629109,17.716123039248
$GPGGA,143318.00,3400.5290,N,11931.2650,W,1,12,0.8,9.4,M,-33.6,M,,*5C
$PYRTM,2024,126.606486738900,17.716134149039
$GPGGA,143319.00,3400.5282,N,11931.2666,W,1,12,0.8,9.5,M,-33.6,M,,*5A
$PYRTM,2024,126.606497849583,17.716145259722
$GPGGA,143320.00,3400.5275,N,11931.2681,W,1,12,0.8,9.3,M,-33.6,M,,*57
$PYRTM,2024,126.606508960683,17.716156370833
$GPGGA,143321.00,3400.5267,N,11931.2696,W,1,12,0.8,10.4,M,-33.6,M,,*6C
$PYRTM,2024,126.606526913993,17.716174324132
$GPGGA,143322.00,3400.5257,N,11931.2711,W,1,12,0.8,9.6,M,-33.6,M,,*58
$PYRTM,2024,126.606538013009,17.716185423148
$GPGGA,143323.00,3400.5248,N,11931.2724,W,1,12,0.8,7.3,M,-33.6,M,,*5A
$PYRTM,2024,126.606549136597,17.716196546748
$GPGGA,143324.00,3400.5240,N,11931.2738,W,1,12,0.8,10.4,M,-33.6,M,,*69
$PYRTM,2024,126.606560235093,17.716207645231
$GPGGA,143325.00,3400.5233,N,11931.2751,W,1,12,0.8,7.7,M,-33.6,M,,*56
$PYRTM,2024,126.606571373866,17.716218784005
$GPGGA,143326.00,3400.5224,N,11931.2764,W,1,12,0.8,7.3,M,-33.6,M,,*51
$PYRTM,2024,126.606582471597,17.716229881736
$GPGGA,143327.00,3400.5215,N,11931.2777,W,1,12,0.8,10.0,M,-33.6,M,,*65
$PYRTM,2024,126.606593450150,17.716240860289
$GPGGA,143328.00,3400.5205,N,11931.2789,W,1,12,0.8,7.5,M,-33.6,M,,*59
$PYRTM,2024,126.606604562593,17.716251972731
$GPGGA,143329.00,3400.5196,N,11931.2802,W,1,12,0.8,8.7,M,-33.6,M,,*50
$PYRTM,2024,126.606620302905,17.716267713044
$GPGGA,143330.00,3400.5189,N,11931.2818,W,1,12,0.8,10.0,M,-33.6,M,,*63
$PYRTM,2024,126.606631414815,17.716278824954
$GPGGA,143331.00,3400.5181,N,11931.2832,W,1,12,0.8,8.6,M,-33.6,M,,*5D
$PYRTM,2024,126.606642413102,17.716289823252
$GPGGA,143332.00,3400.5173,N,11931.2846,W,1,12,0.8,8.9,M,-33.6,M,,*5F
$PYRTM,2024,126.606653521713,17.716300931863
$GPGGA,143333.00,3400.5164,N,11931.2861,W,1,12,0.8,8.2,M,-33.6,M,,*56
$PYRTM,2024,126.606665095810,17.716312505949
$GPGGA,143334.00,3400.5156,N,11931.2876,W,1,12,0.8,8.4,M,-33.6,M,,*50
$PYRTM,2024,126.606676234572,17.716323644722
$GPGGA,143335.00,3400.5148,N,11931.2892,W,1,12,0.8,8.4,M,-33.6,M,,*54
$PYRTM,2024,126.606687331319,17.716334741458
$GPGGA,143336.00,3400.5141,N,11931.2908,W,1,12,0.8,11.6,M,-33.6,M,,*66
$PYRTM,2024,126.606698776424,17.716346186563
$GPGGA,143337.00,3400.5132,N,11931.2924,W,1,12,0.8,12.4,M,-33.6,M,,*6C
$PYRTM,2024,126.606710366238,17.716357776377
$GPGGA,143338.00,3400.5123,N,11931.2940,W,1,12,0.8,14.4,M,-33.6,M,,*67
$PYRTM,2024,126.606721925949,17.716369336088
$GPGGA,143339.00,3400.5115,N,11931.2954,W,1,12,0.8,12.8,M,-33.6,M,,*6C
$PYRTM,2024,126.606733526181,17.716380936319
$GPGGA,143340.00,3400.5107,N,11931.2969,W,1,12,0.8,10.5,M,-33.6,M,,*60
$PYRTM,2024,126.606745073657,17.716392483796
$GPGGA,143341.00,3400.5099,N,11931.2984,W,1,12,0.8,11.2,M,-33.6,M,,*62
$PYRTM,2024,126.606756674687,17.716404084838
$GPGGA,143342.00,3400.5092,N,11931.2999,W,1,12,0.8,13.1,M,-33.6,M,,*67
$PYRTM,2024,126.606768222650,17.716415632789
$GPGGA,143343.00,3400.5085,N,11931.3014,W,1,12,0.8,13.4,M,-33.6,M,,*68
$PYRTM,2024,126.606779812176,17.716427222315
$GPGGA,143344.00,3400.5077,N,11931.3029,W,1,12,0.8,11.6,M,-33.6,M,,*6C
$PYRTM,2024,126.606791369734,17.716438779873
$GPGGA,143345.00,3400.5069,N,11931.3043,W,1,12,0.8,13.2,M,-33.6,M,,*68
$PYRTM,2024,126.606802957674,17.716450367813
$GPGGA,143346.00,3400.5061,N,11931.3056,W,1,12,0.8,10.8,M,-33.6,M,,*6E
$PYRTM,2024,126.606814520590,17.716461930729
$GPGGA,143347.00,3400.5054,N,11931.3070,W,1,12,0.8,10.9,M,-33.6,M,,*6C
$PYRTM,2024,126.606826106192,17.716473516331
$GPGGA,143348.00,3400.5048,N,11931.3083,W,1,12,0.8,12.1,M,-33.6,M,,*68
$PYRTM,2024,126.606837666794,17.716485076933
$GPGGA,143349.00,3400.5041,N,11931.3097,W,1,12,0.8,12.7,M,-33.6,M,,*63
$PYRTM,2024,126.606849254375,17.716496664514
$GPGGA,143350.00,3400.5033,N,11931.3110,W,1,12,0.8,14.5,M,-33.6,M,,*64
$PYRTM,2024,126.606860815336,17.716508225475
$GPGGA,143351.00,3400.5024,N,11931.3123,W,1,12,0.8,13.0,M,-33.6,M,,*61
$PYRTM,2024,126.606872396481,17.716519806620
$GPGGA,143352.00,3400.5014,N,11931.3136,W,1,12,0.8,10.1,M,-33.6,M,,*67
$PYRTM,2024,126.606883962986,17.716531373125
$GPGGA,143353.00,3400.5006,N,11931.3151,W,1,12,0.8,10.2,M,-33.6,M,,*67
$PYRTM,2024,126.606895546053,17.716542956192
$GPGGA,143354.00,3400.4998,N,11931.3166,W,1,12,0.8,12.8,M,-33.6,M,,*63
$PYRTM,2024,126.606907112049,17.716554522188
$GPGGA,143355.00,3400.4990,N,11931.3181,W,1,12,0.8,11.4,M,-33.6,M,,*6C
$PYRTM,2024,126.606918712836,17.716566122975
$GPGGA,143356.00,3400.4982,N,11931.3194,W,1,12,0.8,12.6,M,-33.6,M,,*69
$PYRTM,2024,126.606930260775,17.716577670914
$GPGGA,143357.00,3400.4973,N,11931.3208,W,1,12,0.8,13.1,M,-33.6,M,,*66
$PYRTM,2024,126.606941849595,17.716589259734
$GPGGA,143358.00,3400.4966,N,11931.3222,W,1,12,0.8,10.9,M,-33.6,M,,*6E
$PYRTM,2024,126.606953408738,17.716600818877
$GPGGA,143359.00,3400.4959,N,11931.3237,W,1,12,0.8,11.4,M,-33.6,M,,*6B
$PYRTM,2024,126.606963709919,17.716611120069
$GPGGA,143400.00,3400.4952,N,11931.3251,W,1,12,0.8,11.7,M,-33.6,M,,*68
$PYRTM,2024,126.606975528912,17.716622939051
$GPGGA,143401.00,3400.4945,N,11931.3265,W,1,12,0.8,14.0,M,-33.6,M,,*6A
$PYRTM,2024,126.606988143854,17.716635553993
$GPGGA,143402.00,3400.4938,N,11931.3278,W,1,12,0.8,14.3,M,-33.6,M,,*6C
$PYRTM,2024,126.606999705903,17.716647116042
$GPGGA,143403.00,3400.4930,N,11931.3291,W,1,12,0.8,15.2,M,-33.6,M,,*62
$PYRTM,2024,126.607011291528,17.716658701667
$GPGGA,143404.00,3400.4923,N,11931.3304,W,1,12,0.8,14.4,M,-33.6,M,,*6D
$PYRTM,2024,126.607022852801,17.716670262951
$GPGGA,143405.00,3400.4915,N,11931.3318,W,1,12,0.8,13.8,M,-33.6,M,,*6F
$PYRTM,2024,126.607034440382,17.716681850532
$GPGGA,143406.00,3400.4907,N,11931.3332,W,1,12,0.8,11.7,M,-33.6,M,,*6A
$PYRTM,2024,126.607046002697,17.716693412836
$GPGGA,143407.00,3400.4899,N,11931.3346,W,1,12,0.8,12.2,M,-33.6,M,,*68
$PYRTM,2024,126.607057591227,17.716705001366
$GPGGA,143408.00,3400.4891,N,11931.3359,W,1,12,0.8,13.0,M,-33.6,M,,*62
$PYRTM,2024,126.607069149225,17.716716559363
$GPGGA,143409.00,3400.4883,N,11931.3372,W,1,12,0.8,12.4,M,-33.6,M,,*6C
$PYRTM,2024,126.607080736817,17.716728146956
$GPGGA,143410.00,3400.4876,N,11931.3387,W,1,12,0.8,13.7,M,-33.6,M,,*66
$PYRTM,2024,126.607092297593,17.716739707731
$GPGGA,143411.00,3400.4868,N,11931.3401,W,1,12,0.8,13.3,M,-33.6,M,,*65
$PYRTM,2024,126.607103900012,17.716751310150
$GPGGA,143412.00,3400.4860,N,11931.3414,W,1,12,0.8,12.8,M,-33.6,M,,*60
$PYRTM,2024,126.607115446366,17.716762856516
$GPGGA,143413.00,3400.4851,N,11931.3428,W,1,12,0.8,13.2,M,-33.6,M,,*67
$PYRTM,2024,126.607127047350,17.716774457488
$GPGGA,143414.00,3400.4844,N,11931.3442,W,1,12,0.8,11.8,M,-33.6,M,,*60
$PYRTM,2024,126.607138607384,17.716786017523
$GPGGA,143415.00,3400.4837,N,11931.3457,W,1,12,0.8,11.8,M,-33.6,M,,*61
$PYRTM,2024,126.607150184965,17.716797595116
$GPGGA,143416.00,3400.4830,N,11931.3470,W,1,12,0.8,12.7,M,-33.6,M,,*6C
$PYRTM,2024,126.607161755000,17.716809165139
$GPGGA,143417.00,3400.4822,N,11931.3483,W,1,12,0.8,13.3,M,-33.6,M,,*67
$PYRTM,2024,126.607173329745,17.716820739884
$GPGGA,143418.00,3400.4813,N,11931.3495,W,1,12,0.8,11.9,M,-33.6,M,,*65
$PYRTM,2024,126.607184907164,17.716832317303
$GPGGA,143419.00,3400.4805,N,11931.3507,W,1,12,0.8,13.9,M,-33.6,M,,*6B
$PYRTM,2024,126.607195422257,17.716842832396
$GPGGA,143420.00,3400.4798,N,11931.3520,W,1,12,0.8,14.6,M,-33.6,M,,*67
$PYRTM,2024,126.607208052072,17.716855462211
$GPGGA,143421.00,3400.4792,N,11931.3534,W,1,12,0.8,14.1,M,-33.6,M,,*6E
$PYRTM,2024,126.607219626273,17.716867036412
$GPGGA,143422.00,3400.4785,N,11931.3548,W,1,12,0.8,13.9,M,-33.6,M,,*6F
$PYRTM,2024,126.607231200775,17.716878610914
$GPGGA,143423.00,3400.4777,N,11931.3560,W,1,12,0.8,14.0,M,-33.6,M,,*67
$PYRTM,2024,126.607241718831,17.716889128970
$GPGGA,143424.00,3400.4769,N,11931.3573,W,1,12,0.8,13.2,M,-33.6,M,,*68
$PYRTM,2024,126.607254348299,17.716901758438
$GPGGA,143425.00,3400.4761,N,11931.3585,W,1,12,0.8,14.8,M,-33.6,M,,*65
$PYRTM,2024,126.607265922894,17.716913333032
$GPGGA,143426.00,3400.4752,N,11931.3599,W,1,12,0.8,12.9,M,-33.6,M,,*6C
$PYRTM,2024,126.607277492095,17.716924902234
$GPGGA,143427.00,3400.4744,N,11931.3613,W,1,12,0.8,11.8,M,-33.6,M,,*69
$PYRTM,2024,126.607289075023,17.716936485162
$GPGGA,143428.00,3400.4737,N,11931.3627,W,1,12,0.8,11.9,M,-33.6,M,,*64
$PYRTM,2024,126.607300645370,17.716948055509
$GPGGA,143429.00,3400.4729,N,11931.3640,W,1,12,0.8,13.2,M,-33.6,M,,*62
$PYRTM,2024,126.607311296586,17.716958706725
$GPGGA,143430.00,3400.4721,N,11931.3654,W,1,12,0.8,11.1,M,-33.6,M,,*66
$PYRTM,2024,126.607322751574,17.716970161713
$GPGGA,143431.00,3400.4714,N,11931.3670,W,1,12,0.8,11.8,M,-33.6,M,,*6E
$PYRTM,2024,126.607335382662,17.716982792813
$GPGGA,143432.00,3400.4707,N,11931.3685,W,1,12,0.8,11.6,M,-33.6,M,,*6B
$PYRTM,2024,126.607346942292,17.716994352431
$GPGGA,143433.00,3400.4699,N,11931.3699,W,1,12,0.8,12.1,M,-33.6,M,,*65
$PYRTM,2024,126.607358517454,17.717005927593
$GPGGA,143434.00,3400.4690,N,11931.3712,W,1,12,0.8,10.3,M,-33.6,M,,*69
$PYRTM,2024,126.607370085370,17.717017495509
$GPGGA,143435.00,3400.4681,N,11931.3724,W,1,12,0.8,12.5,M,-33.6,M,,*69
$PYRTM,2024,126.607381664641,17.717029074780
$GPGGA,143436.00,3400.4673,N,11931.3738,W,1,12,0.8,11.0,M,-33.6,M,,*6C
$PYRTM,2024,126.607393238461,17.717040648600
$GPGGA,143437.00,3400.4665,N,11931.3752,W,1,12,0.8,11.8,M,-33.6,M,,*6E
$PYRTM,2024,126.607404812581,17.717052222720
$GPGGA,143438.00,3400.4657,N,11931.3767,W,1,12,0.8,9.2,M,-33.6,M,,*55
$PYRTM,2024,126.607416387604,17.717063797743
$GPGGA,143439.00,3400.4649,N,11931.3779,W,1,12,0.8,11.7,M,-33.6,M,,*68
$PYRTM,2024,126.607427957211,17.717075367350
$GPGGA,143440.00,3400.4641,N,11931.3791,W,1,12,0.8,11.2,M,-33.6,M,,*6D
$PYRTM,2024,126.607439534884,17.717086945023
$GPGGA,143441.00,3400.4633,N,11931.3804,W,1,12,0.8,12.4,M,-33.6,M,,*6F
$PYRTM,2024,126.607451110231,17.717098520370
$GPGGA,143442.00,3400.4627,N,11931.3818,W,1,12,0.8,12.6,M,-33.6,M,,*66
$PYRTM,2024,126.607462685706,17.717110095845
$GPGGA,143443.00,3400.4620,N,11931.3832,W,1,12,0.8,11.0,M,-33.6,M,,*6D
$PYRTM,2024,126.607474273032,17.717121683171
$GPGGA,143444.00,3400.4613,N,11931.3846,W,1,12,0.8,11.9,M,-33.6,M,,*60
$PYRTM,2024,126.607485831701,17.717133241840
$GPGGA,143445.00,3400.4605,N,11931.3859,W,1,12,0.8,13.0,M,-33.6,M,,*63
$PYRTM,2024,126.607497420556,17.717144830694
$GPGGA,143446.00,3400.4596,N,11931.3872,W,1,12,0.8,14.0,M,-33.6,M,,*67
$PYRTM,2024,126.607508980556,17.717156390694
$GPGGA,143447.00,3400.4589,N,11931.3887,W,1,12,0.8,12.0,M,-33.6,M,,*64
$PYRTM,2024,126.607520550741,17.717167960880
$GPGGA,143448.00,3400.4582,N,11931.3901,W,1,12,0.8,12.4,M,-33.6,M,,*6B
$PYRTM,2024,126.607532128137,17.717179538275
$GPGGA,143449.00,3400.4575,N,11931.3914,W,1,12,0.8,12.3,M,-33.6,M,,*61
$PYRTM,2024,126.607543702708,17.717191112847
$GPGGA,143450.00,3400.4567,N,11931.3926,W,1,12,0.8,12.3,M,-33.6,M,,*6B
$PYRTM,2024,126.607555277373,17.717202687512
$GPGGA,143451.00,3400.4559,N,11931.3939,W,1,12,0.8,10.9,M,-33.6,M,,*61
$PYRTM,2024,126.607566851875,17.717214262014
$GPGGA,143452.00,3400.4551,N,11931.3951,W,1,12,0.8,11.1,M,-33.6,M,,*6D
$PYRTM,2024,126.607578420312,17.717225830451
$GPGGA,143453.00,3400.4543,N,11931.3964,W,1,12,0.8,12.0,M,-33.6,M,,*6B
$PYRTM,2024,126.607590000255,17.717237410394
$GPGGA,143454.00,3400.4535,N,11931.3979,W,1,12,0.8,12.5,M,-33.6,M,,*64
$PYRTM,2024,126.607601573715,17.717248983854
$GPGGA,143455.00,3400.4528,N,11931.3994,W,1,12,0.8,12.6,M,-33.6,M,,*69
$PYRTM,2024,126.607613147905,17.717260558044
$GPGGA,143456.00,3400.4521,N,11931.4008,W,1,12,0.8,12.6,M,-33.6,M,,*68
$PYRTM,2024,126.607624722130,17.717272132269
$GPGGA,143457.00,3400.4514,N,11931.4021,W,1,12,0.8,10.3,M,-33.6,M,,*63
$PYRTM,2024,126.607636297569,17.717283707708
$GPGGA,143458.00,3400.4508,N,11931.4034,W,1,12,0.8,12.1,M,-33.6,M,,*65
$PYRTM,2024,126.607647865162,17.717295275301
$GPGGA,143459.00,3400.4501,N,11931.4047,W,1,12,0.8,13.4,M,-33.6,M,,*6D
$PYRTM,2024,126.607658158009,17.717305568148
$GPGGA,143500.00,3400.4493,N,11931.4060,W,1,12,0.8,11.5,M,-33.6,M,,*6C
$PYRTM,2024,126.607669976574,17.717317386713
$GPGGA,143501.00,3400.4487,N,11931.4074,W,1,12,0.8,13.4,M,-33.6,M,,*6E
$PYRTM,2024,126.607682600833,17.717330010972
$GPGGA,143502.00,3400.4480,N,11931.4086,W,1,12,0.8,13.0,M,-33.6,M,,*63
$PYRTM,2024,126.607694167025,17.717341577164
$GPGGA,143503.00,3400.4472,N,11931.4099,W,1,12,0.8,12.5,M,-33.6,M,,*65
$PYRTM,2024,126.607705743009,17.717353153148
$GPGGA,143504.00,3400.4463,N,11931.4112,W,1,12,0.8,13.0,M,-33.6,M,,*64
$PYRTM,2024,126.607717315382,17.717364725532
$GPGGA,143505.00,3400.4455,N,11931.4126,W,1,12,0.8,13.3,M,-33.6,M,,*64
$PYRTM,2024,126.607728889016,17.717376299167
$GPGGA,143506.00,3400.4447,N,11931.4140,W,1,12,0.8,14.4,M,-33.6,M,,*64
$PYRTM,2024,126.607740464155,17.717387874294
$GPGGA,143507.00,3400.4438,N,11931.4154,W,1,12,0.8,13.0,M,-33.6,M,,*6B
$PYRTM,2024,126.607752040197,17.717399450336
$GPGGA,143508.00,3400.4428,N,11931.4168,W,1,12,0.8,11.2,M,-33.6,M,,*6A
$PYRTM,2024,126.607763611574,17.717411021713
$GPGGA,143509.00,3400.4418,N,11931.4182,W,1,12,0.8,10.8,M,-33.6,M,,*67
$PYRTM,2024,126.607775185197,17.717422595336
$GPGGA,143510.00,3400.4409,N,11931.4198,W,1,12,0.8,12.4,M,-33.6,M,,*6A
$PYRTM,2024,126.607786759398,17.717434169537
$GPGGA,143511.00,3400.4400,N,11931.4213,W,1,12,0.8,13.7,M,-33.6,M,,*60
$PYRTM,2024,126.607798444838,17.717445854977
$GPGGA,143512.00,3400.4389,N,11931.4229,W,1,12,0.8,13.1,M,-33.6,M,,*6A
$PYRTM,2024,126.607810011562,17.717457421701
$GPGGA,143513.00,3400.4380,N,11931.4245,W,1,12,0.8,10.0,M,-33.6,M,,*6A
$PYRTM,2024,126.607821598877,17.717469009028
$GPGGA,143514.00,3400.4370,N,11931.4261,W,1,12,0.8,12.5,M,-33.6,M,,*63
$PYRTM,2024,126.607833159259,17.717480569398
$GPGGA,143515.00,3400.4360,N,11931.4277,W,1,12,0.8,12.3,M,-33.6,M,,*62
$PYRTM,2024,126.607844750671,17.717492160822
$GPGGA,143516.00,3400.4350,N,11931.4293,W,1,12,0.8,11.7,M,-33.6,M,,*6F
$PYRTM,2024,126.607855382708,17.717502792847
$GPGGA,143517.00,3400.4339,N,11931.4309,W,1,12,0.8,12.2,M,-33.6,M,,*65
$PYRTM,2024,126.607866273634,17.717513683785
$GPGGA,143518.00,3400.4328,N,11931.4325,W,1,12,0.8,11.4,M,-33.6,M,,*61
$PYRTM,2024,126.607877038426,17.717524448565
