$PYRTM,2024,125.333342378252,16.442989788403
$GPGGA,075959.00,3512.4036,N,12149.8679,W,1,09,0.8,16.3,M,-32.6,M,,*6D
$PYRTM,2024,125.333353960139,16.443001370278
$GPGGA,080000.00,3512.4039,N,12149.8685,W,1,09,0.8,15.8,M,-32.6,M,,*66
$PYRTM,2024,125.333365527662,16.443012937801
$GPGGA,080001.00,3512.4041,N,12149.8688,W,1,09,0.8,15.6,M,-32.6,M,,*6B
$PYRTM,2024,125.333377113657,16.443024523796
$GPGGA,080002.00,3512.4044,N,12149.8690,W,1,09,0.8,15.2,M,-32.6,M,,*60
$PYRTM,2024,125.333388675914,16.443036086065
$GPGGA,080003.00,3512.4048,N,12149.8696,W,1,09,0.8,12.5,M,-32.6,M,,*6B
$PYRTM,2024,125.333399223079,16.443046633218
$GPGGA,080004.00,3512.4055,N,12149.8705,W,1,09,0.8,11.7,M,-32.6,M,,*6A
$PYRTM,2024,125.333411824502,16.443059234653
$GPGGA,080005.00,3512.4060,N,12149.8714,W,1,09,0.8,12.2,M,-32.6,M,,*6B
$PYRTM,2024,125.333423413553,16.443070823692
$GPGGA,080006.00,3512.4062,N,12149.8718,W,1,09,0.8,12.3,M,-32.6,M,,*67
$PYRTM,2024,125.333434972581,16.443082382720
$GPGGA,080007.00,3512.4065,N,12149.8719,W,1,09,0.8,12.3,M,-32.6,M,,*60
$PYRTM,2024,125.333446553252,16.443093963403
$GPGGA,080008.00,3512.4069,N,12149.8723,W,1,09,0.8,13.3,M,-32.6,M,,*6B
$PYRTM,2024,125.333458118889,16.443105529028
$GPGGA,080009.00,3512.4074,N,12149.8731,W,1,09,0.8,12.5,M,-32.6,M,,*62
$PYRTM,2024,125.333469701181,16.443117111319
$GPGGA,080010.00,3512.4077,N,12149.8739,W,1,09,0.8,13.1,M,-32.6,M,,*64
$PYRTM,2024,125.333481266597,16.443128676736
$GPGGA,080011.00,3512.4078,N,12149.8745,W,1,09,0.8,13.3,M,-32.6,M,,*63
$PYRTM,2024,125.333492850150,16.443140260289
$GPGGA,080012.00,3512.4083,N,12149.8749,W,1,09,0.8,13.6,M,-32.6,M,,*6D
$PYRTM,2024,125.333504416597,16.443151826748
$GPGGA,080013.00,3512.4090,N,12149.8754,W,1,09,0.8,14.2,M,-32.6,M,,*61
$PYRTM,2024,125.333516006227,16.443163416366
$GPGGA,080014.00,3512.4094,N,12149.8762,W,1,09,0.8,14.4,M,-32.6,M,,*61
$PYRTM,2024,125.333527564711,16.443174974850
$GPGGA,080015.00,3512.4092,N,12149.8770,W,1,09,0.8,14.6,M,-32.6,M,,*67
$PYRTM,2024,125.333539151100,16.443186561238
$GPGGA,080016.00,3512.4091,N,12149.8777,W,1,09,0.8,15.0,M,-32.6,M,,*67
$PYRTM,2024,125.333550713009,16.443198123148
$GPGGA,080017.00,3512.4099,N,12149.8781,W,1,09,0.8,14.9,M,-32.6,M,,*6F
$PYRTM,2024,125.333562299745,16.443209709896
$GPGGA,080018.00,3512.4110,N,12149.8783,W,1,09,0.8,14.8,M,-32.6,M,,*63
$PYRTM,2024,125.333573863252,16.443221273391
$GPGGA,080019.00,3512.4120,N,12149.8790,W,1,09,0.8,13.8,M,-32.6,M,,*64
$PYRTM,2024,125.333586477083,16.443233887222
$GPGGA,080020.00,3512.4123,N,12149.8797,W,1,09,0.8,13.7,M,-32.6,M,,*65
$PYRTM,2024,125.333599210544,16.443246620683
$GPGGA,080021.00,3512.4123,N,12149.8802,W,1,09,0.8,13.8,M,-32.6,M,,*68
$PYRTM,2024,125.333608598704,16.443256008843
$GPGGA,080022.00,3512.4126,N,12149.8805,W,1,09,0.8,13.8,M,-32.6,M,,*69
$PYRTM,2024,125.333620156562,16.443267566701
$GPGGA,080023.00,3512.4131,N,12149.8805,W,1,09,0.8,14.3,M,-32.6,M,,*62
$PYRTM,2024,125.333631745266,16.443279155405
$GPGGA,080024.00,3512.4138,N,12149.8808,W,1,09,0.8,14.1,M,-32.6,M,,*63
$PYRTM,2024,125.333643306597,16.443290716736
$GPGGA,080025.00,3512.4142,N,12149.8814,W,1,09,0.8,13.8,M,-32.6,M,,*6C
$PYRTM,2024,125.333654889676,16.443302299815
$GPGGA,080026.00,3512.4144,N,12149.8821,W,1,09,0.8,13.5,M,-32.6,M,,*62
$PYRTM,2024,125.333666453669,16.443313863808
$GPGGA,080027.00,3512.4146,N,12149.8826,W,1,09,0.8,13.2,M,-32.6,M,,*61
$PYRTM,2024,125.333678041238,16.443325451377
$GPGGA,080028.00,3512.4149,N,12149.8829,W,1,09,0.8,13.2,M,-32.6,M,,*6E
$PYRTM,2024,125.333689603426,16.443337013565
$GPGGA,080029.00,3512.4152,N,12149.8832,W,1,09,0.8,13.5,M,-32.6,M,,*68
$PYRTM,2024,125.333701184722,16.443348594861
$GPGGA,080030.00,3512.4155,N,12149.8838,W,1,09,0.8,12.7,M,-32.6,M,,*6E
$PYRTM,2024,125.333712751343,16.443360161481
$GPGGA,080031.00,3512.4158,N,12149.8844,W,1,09,0.8,12.8,M,-32.6,M,,*66
$PYRTM,2024,125.333724340868,16.443371751007
$GPGGA,080032.00,3512.4162,N,12149.8849,W,1,09,0.8,12.9,M,-32.6,M,,*60
$PYRTM,2024,125.333735899213,16.443383309352
$GPGGA,080033.00,3512.4166,N,12149.8854,W,1,09,0.8,13.5,M,-32.6,M,,*64
$PYRTM,2024,125.333747488530,16.443394898669
$GPGGA,080034.00,3512.4170,N,12149.8858,W,1,09,0.8,13.1,M,-32.6,M,,*6C
$PYRTM,2024,125.333759047292,16.443406457431
$GPGGA,080035.00,3512.4173,N,12149.8863,W,1,09,0.8,13.0,M,-32.6,M,,*67
$PYRTM,2024,125.333770637488,16.443418047627
$GPGGA,080036.00,3512.4174,N,12149.8867,W,1,09,0.8,12.8,M,-32.6,M,,*6E
$PYRTM,2024,125.333782196146,16.443429606285
$GPGGA,080037.00,3512.4174,N,12149.8872,W,1,09,0.8,12.7,M,-32.6,M,,*64
$PYRTM,2024,125.333793782836,16.443441192975
$GPGGA,080038.00,3512.4176,N,12149.8875,W,1,09,0.8,12.7,M,-32.6,M,,*6E
$PYRTM,2024,125.333805349583,16.443452759722
$GPGGA,080039.00,3512.4179,N,12149.8879,W,1,09,0.8,11.5,M,-32.6,M,,*6D
$PYRTM,2024,125.333817380961,16.443464791111
$GPGGA,080040.00,3512.4183,N,12149.8887,W,1,09,0.8,15.0,M,-32.6,M,,*66
$PYRTM,2024,125.333828492338,16.443475902477
$GPGGA,080041.00,3512.4185,N,12149.8894,W,1,09,0.8,14.8,M,-32.6,M,,*6A
$PYRTM,2024,125.333840078530,16.443487488669
$GPGGA,080042.00,3512.4186,N,12149.8898,W,1,09,0.8,14.7,M,-32.6,M,,*69
$PYRTM,2024,125.333851641377,16.443499051516
$GPGGA,080043.00,3512.4190,N,12149.8900,W,1,09,0.8,15.0,M,-32.6,M,,*69
$PYRTM,2024,125.333863227361,16.443510637500
$GPGGA,080044.00,3512.4197,N,12149.8904,W,1,09,0.8,15.3,M,-32.6,M,,*6E
$PYRTM,2024,125.333875264109,16.443522674248
$GPGGA,080045.00,3512.4201,N,12149.8911,W,1,09,0.8,14.9,M,-32.6,M,,*6C
$PYRTM,2024,125.333886375961,16.443533786111
$GPGGA,080046.00,3512.4202,N,12149.8921,W,1,09,0.8,14.6,M,-32.6,M,,*60
$PYRTM,2024,125.333897936458,16.443545346597
$GPGGA,080047.00,3512.4204,N,12149.8927,W,1,09,0.8,14.2,M,-32.6,M,,*65
$PYRTM,2024,125.333909538067,16.443556948206
$GPGGA,080048.00,3512.4211,N,12149.8932,W,1,09,0.8,13.3,M,-32.6,M,,*6C
$PYRTM,2024,125.333921085463,16.443568495602
$GPGGA,080049.00,3512.4217,N,12149.8935,W,1,09,0.8,13.2,M,-32.6,M,,*6D
$PYRTM,2024,125.333933701366,16.443581111505
$GPGGA,080050.00,3512.4219,N,12149.8940,W,1,09,0.8,13.2,M,-32.6,M,,*69
$PYRTM,2024,125.333946431991,16.443593842130
$GPGGA,080051.00,3512.4221,N,12149.8946,W,1,09,0.8,13.0,M,-32.6,M,,*67
$PYRTM,2024,125.333955820880,16.443603231019
$GPGGA,080052.00,3512.4226,N,12149.8954,W,1,09,0.8,12.2,M,-32.6,M,,*63
$PYRTM,2024,125.333967382141,16.443614792280
$GPGGA,080053.00,3512.4232,N,12149.8957,W,1,09,0.8,12.3,M,-32.6,M,,*65
$PYRTM,2024,125.333978967720,16.443626377859
$GPGGA,080054.00,3512.4238,N,12149.8958,W,1,09,0.8,12.2,M,-32.6,M,,*66
$PYRTM,2024,125.333990530984,16.443637941123
$GPGGA,080055.00,3512.4241,N,12149.8959,W,1,09,0.8,12.2,M,-32.6,M,,*68
$PYRTM,2024,125.334002118218,16.443649528368
$GPGGA,080056.00,3512.4246,N,12149.8966,W,1,09,0.8,12.5,M,-32.6,M,,*67
$PYRTM,2024,125.334013677442,16.443661087581
$GPGGA,080057.00,3512.4249,N,12149.8976,W,1,09,0.8,12.1,M,-32.6,M,,*6C
$PYRTM,2024,125.334025268264,16.443672678403
$GPGGA,080058.00,3512.4253,N,12149.8982,W,1,09,0.8,11.6,M,-32.6,M,,*67
$PYRTM,2024,125.334036827755,16.443684237894
$GPGGA,080059.00,3512.4257,N,12149.8984,W,1,09,0.8,11.5,M,-32.6,M,,*67
$PYRTM,2024,125.334048408310,16.443695818449
$GPGGA,080100.00,3512.4261,N,12149.8986,W,1,09,0.8,11.5,M,-32.6,M,,*6D
$PYRTM,2024,125.334059974595,16.443707384734
$GPGGA,080101.00,3512.4264,N,12149.8990,W,1,09,0.8,11.6,M,-32.6,M,,*6D
$PYRTM,2024,125.334071564352,16.443718974491
$GPGGA,080102.00,3512.4268,N,12149.8999,W,1,09,0.8,12.5,M,-32.6,M,,*6B
$PYRTM,2024,125.334083124329,16.443730534468
$GPGGA,080103.00,3512.4271,N,12149.9008,W,1,09,0.8,14.0,M,-32.6,M,,*61
$PYRTM,2024,125.334094713750,16.443742123900
$GPGGA,080104.00,3512.4274,N,12149.9014,W,1,09,0.8,13.9,M,-32.6,M,,*60
$PYRTM,2024,125.334106271470,16.443753681609
$GPGGA,080105.00,3512.4279,N,12149.9018,W,1,09,0.8,13.4,M,-32.6,M,,*6D
$PYRTM,2024,125.334117857523,16.443765267674
$GPGGA,080106.00,3512.4285,N,12149.9021,W,1,09,0.8,13.3,M,-32.6,M,,*60
$PYRTM,2024,125.334129420116,16.443776830255
$GPGGA,080107.00,3512.4287,N,12149.9025,W,1,09,0.8,13.2,M,-32.6,M,,*66
$PYRTM,2024,125.334141006829,16.443788416968
$GPGGA,080108.00,3512.4289,N,12149.9031,W,1,09,0.8,12.1,M,-32.6,M,,*60
$PYRTM,2024,125.334152567396,16.443799977535
$GPGGA,080109.00,3512.4292,N,12149.9040,W,1,09,0.8,11.2,M,-32.6,M,,*6D
$PYRTM,2024,125.334164150035,16.443811560174
$GPGGA,080110.00,3512.4297,N,12149.9048,W,1,09,0.8,12.4,M,-32.6,M,,*6D
$PYRTM,2024,125.334175717060,16.443823127199
$GPGGA,080111.00,3512.4302,N,12149.9052,W,1,09,0.8,12.1,M,-32.6,M,,*6F
$PYRTM,2024,125.334187303519,16.443834713669
$GPGGA,080112.00,3512.4305,N,12149.9055,W,1,09,0.8,11.8,M,-32.6,M,,*66
$PYRTM,2024,125.334198864549,16.443846274688
$GPGGA,080113.00,3512.4307,N,12149.9059,W,1,09,0.8,11.8,M,-32.6,M,,*69
$PYRTM,2024,125.334210446331,16.443857856470
$GPGGA,080114.00,3512.4308,N,12149.9067,W,1,09,0.8,13.7,M,-32.6,M,,*61
$PYRTM,2024,125.334222013380,16.443869423519
$GPGGA,080115.00,3512.4312,N,12149.9076,W,1,09,0.8,14.6,M,-32.6,M,,*6D
$PYRTM,2024,125.334233595961,16.443881006100
$GPGGA,080116.00,3512.4319,N,12149.9082,W,1,09,0.8,15.0,M,-32.6,M,,*69
$PYRTM,2024,125.334245161829,16.443892571968
$GPGGA,080117.00,3512.4322,N,12149.9088,W,1,09,0.8,14.8,M,-32.6,M,,*63
$PYRTM,2024,125.334256751736,16.443904161875
$GPGGA,080118.00,3512.4323,N,12149.9093,W,1,09,0.8,14.7,M,-32.6,M,,*68
$PYRTM,2024,125.334267749201,16.443915159340
$GPGGA,080119.00,3512.4325,N,12149.9098,W,1,09,0.8,14.6,M,-32.6,M,,*65
$PYRTM,2024,125.334278497222,16.443925907361
$GPGGA,080120.00,3512.4329,N,12149.9104,W,1,09,0.8,14.2,M,-32.6,M,,*63
$PYRTM,2024,125.334294134340,16.443941544479
$GPGGA,080121.00,3512.4334,N,12149.9112,W,1,09,0.8,11.9,M,-32.6,M,,*67
$PYRTM,2024,125.334305231667,16.443952641806
$GPGGA,080122.00,3512.4337,N,12149.9119,W,1,09,0.8,11.7,M,-32.6,M,,*62
$PYRTM,2024,125.334316349919,16.443963760058
$GPGGA,080123.00,3512.4339,N,12149.9123,W,1,09,0.8,11.8,M,-32.6,M,,*6B
$PYRTM,2024,125.334327454306,16.443974864444
$GPGGA,080124.00,3512.4342,N,12149.9125,W,1,09,0.8,11.7,M,-32.6,M,,*69
$PYRTM,2024,125.334338578634,16.443985988773
$GPGGA,080125.00,3512.4347,N,12149.9128,W,1,09,0.8,12.1,M,-32.6,M,,*65
$PYRTM,2024,125.334349685127,16.443997095278
$GPGGA,080126.00,3512.4352,N,12149.9132,W,1,09,0.8,12.0,M,-32.6,M,,*68
$PYRTM,2024,125.334360902847,16.444008312986
$GPGGA,080127.00,3512.4354,N,12149.9140,W,1,09,0.8,10.6,M,-32.6,M,,*6E
$PYRTM,2024,125.334372489549,16.444019899688
$GPGGA,080128.00,3512.4357,N,12149.9147,W,1,09,0.8,10.2,M,-32.6,M,,*61
$PYRTM,2024,125.334384051030,16.444031461169
$GPGGA,080129.00,3512.4361,N,12149.9149,W,1,09,0.8,10.9,M,-32.6,M,,*60
$PYRTM,2024,125.334396089838,16.444043499988
$GPGGA,080130.00,3512.4366,N,12149.9151,W,1,09,0.8,11.4,M,-32.6,M,,*6A
$PYRTM,2024,125.334407199977,16.444054610116
$GPGGA,080131.00,3512.4370,N,12149.9156,W,1,09,0.8,11.6,M,-32.6,M,,*69
$PYRTM,2024,125.334417614063,16.444065024201
$GPGGA,080132.00,3512.4369,N,12149.9163,W,1,09,0.8,12.3,M,-32.6,M,,*62
$PYRTM,2024,125.334430347581,16.444077757720
$GPGGA,080133.00,3512.4368,N,12149.9171,W,1,09,0.8,12.8,M,-32.6,M,,*6A
$PYRTM,2024,125.334441929086,16.444089339225
$GPGGA,080134.00,3512.4373,N,12149.9179,W,1,09,0.8,12.0,M,-32.6,M,,*67
$PYRTM,2024,125.334453495868,16.444100906007
$GPGGA,080135.00,3512.4379,N,12149.9185,W,1,09,0.8,11.7,M,-32.6,M,,*6B
$PYRTM,2024,125.334465082755,16.444112492905
$GPGGA,080136.00,3512.4381,N,12149.9186,W,1,09,0.8,11.7,M,-32.6,M,,*6C
$PYRTM,2024,125.334476644236,16.444124054387
$GPGGA,080137.00,3512.4382,N,12149.9187,W,1,09,0.8,11.7,M,-32.6,M,,*6F
$PYRTM,2024,125.334488230671,16.444135640810
$GPGGA,080138.00,3512.4384,N,12149.9193,W,1,09,0.8,11.5,M,-32.6,M,,*61
$PYRTM,2024,125.334499791655,16.444147201794
$GPGGA,080139.00,3512.4389,N,12149.9203,W,1,09,0.8,11.3,M,-32.6,M,,*61
$PYRTM,2024,125.334511379873,16.444158790012
$GPGGA,080140.00,3512.4395,N,12149.9212,W,1,09,0.8,10.6,M,-32.6,M,,*66
$PYRTM,2024,125.334522941516,16.444170351655
$GPGGA,080141.00,3512.4397,N,12149.9217,W,1,09,0.8,10.5,M,-32.6,M,,*63
$PYRTM,2024,125.334534527824,16.444181937963
$GPGGA,080142.00,3512.4398,N,12149.9220,W,1,09,0.8,10.5,M,-32.6,M,,*6B
$PYRTM,2024,125.334546090914,16.444193501053
$GPGGA,080143.00,3512.4400,N,12149.9225,W,1,09,0.8,10.7,M,-32.6,M,,*6B
$PYRTM,2024,125.334557678970,16.444205089109
$GPGGA,080144.00,3512.4403,N,12149.9232,W,1,09,0.8,11.2,M,-32.6,M,,*6D
$PYRTM,2024,125.334569714595,16.444217124734
$GPGGA,080145.00,3512.4406,N,12149.9238,W,1,09,0.8,11.1,M,-32.6,M,,*60
$PYRTM,2024,125.334580827002,16.444228237141
$GPGGA,080146.00,3512.4409,N,12149.9243,W,1,09,0.8,11.9,M,-32.6,M,,*68
$PYRTM,2024,125.334592385417,16.444239795567
$GPGGA,080147.00,3512.4413,N,12149.9249,W,1,09,0.8,11.4,M,-32.6,M,,*65
$PYRTM,2024,125.334603974028,16.444251384167
$GPGGA,080148.00,3512.4417,N,12149.9254,W,1,09,0.8,11.3,M,-32.6,M,,*65
$PYRTM,2024,125.334615533183,16.444262943322
$GPGGA,080149.00,3512.4420,N,12149.9257,W,1,09,0.8,11.3,M,-32.6,M,,*63
$PYRTM,2024,125.334628151157,16.444275561296
$GPGGA,080150.00,3512.4424,N,12149.9260,W,1,09,0.8,11.3,M,-32.6,M,,*6B
$PYRTM,2024,125.334640882049,16.444288292188
$GPGGA,080151.00,3512.4426,N,12149.9267,W,1,09,0.8,11.5,M,-32.6,M,,*69
$PYRTM,2024,125.334650269456,16.444297679595
$GPGGA,080152.00,3512.4429,N,12149.9275,W,1,09,0.8,11.3,M,-32.6,M,,*60
$PYRTM,2024,125.334661830266,16.444309240417
$GPGGA,080153.00,3512.4434,N,12149.9280,W,1,09,0.8,11.0,M,-32.6,M,,*64
$PYRTM,2024,125.334673421192,16.444320831331
$GPGGA,080154.00,3512.4439,N,12149.9285,W,1,09,0.8,10.9,M,-32.6,M,,*63
$PYRTM,2024,125.334684979306,16.444332389444
$GPGGA,080155.00,3512.4442,N,12149.9294,W,1,09,0.8,11.0,M,-32.6,M,,*66
$PYRTM,2024,125.334696561620,16.444343971759
$GPGGA,080156.00,3512.4444,N,12149.9303,W,1,09,0.8,11.5,M,-32.6,M,,*69
$PYRTM,2024,125.334708126933,16.444355537072
$GPGGA,080157.00,3512.4447,N,12149.9310,W,1,09,0.8,11.7,M,-32.6,M,,*6B
$PYRTM,2024,125.334719717303,16.444367127442
$GPGGA,080158.00,3512.4451,N,12149.9313,W,1,09,0.8,11.6,M,-32.6,M,,*61
$PYRTM,2024,125.334731275301,16.444378685440
$GPGGA,080159.00,3512.4456,N,12149.9314,W,1,09,0.8,11.3,M,-32.6,M,,*65
$PYRTM,2024,125.334742876204,16.444390286343
$GPGGA,080200.00,3512.4461,N,12149.9318,W,1,09,0.8,11.6,M,-32.6,M,,*67
$PYRTM,2024,125.334754424167,16.444401834306
$GPGGA,080201.00,3512.4463,N,12149.9324,W,1,09,0.8,10.6,M,-32.6,M,,*6A
$PYRTM,2024,125.334766013981,16.444413424120
$GPGGA,080202.00,3512.4464,N,12149.9330,W,1,09,0.8,10.5,M,-32.6,M,,*68
$PYRTM,2024,125.334777573125,16.444424983264
$GPGGA,080203.00,3512.4467,N,12149.9333,W,1,09,0.8,10.8,M,-32.6,M,,*64
$PYRTM,2024,125.334789159769,16.444436569907
$GPGGA,080204.00,3512.4473,N,12149.9334,W,1,09,0.8,12.0,M,-32.6,M,,*6B
$PYRTM,2024,125.334800719873,16.444448130012
$GPGGA,080205.00,3512.4478,N,12149.9339,W,1,09,0.8,14.5,M,-32.6,M,,*6F
$PYRTM,2024,125.334812309294,16.444459719433
$GPGGA,080206.00,3512.4483,N,12149.9347,W,1,09,0.8,12.4,M,-32.6,M,,*66
$PYRTM,2024,125.334823868090,16.444471278229
$GPGGA,080207.00,3512.4485,N,12149.9356,W,1,09,0.8,14.6,M,-32.6,M,,*65
$PYRTM,2024,125.334835456088,16.444482866227
$GPGGA,080208.00,3512.4487,N,12149.9362,W,1,09,0.8,14.5,M,-32.6,M,,*6C
$PYRTM,2024,125.334847015891,16.444494426030
$GPGGA,080209.00,3512.4491,N,12149.9365,W,1,09,0.8,13.0,M,-32.6,M,,*6F
$PYRTM,2024,125.334858604097,16.444506014236
$GPGGA,080210.00,3512.4498,N,12149.9368,W,1,09,0.8,14.5,M,-32.6,M,,*61
$PYRTM,2024,125.334870164850,16.444517574988
$GPGGA,080211.00,3512.4502,N,12149.9373,W,1,09,0.8,13.7,M,-32.6,M,,*6D
$PYRTM,2024,125.334881754838,16.444529164977
$GPGGA,080212.00,3512.4502,N,12149.9381,W,1,09,0.8,16.0,M,-32.6,M,,*61
$PYRTM,2024,125.334893313634,16.444540723773
$GPGGA,080213.00,3512.4502,N,12149.9388,W,1,09,0.8,16.1,M,-32.6,M,,*68
$PYRTM,2024,125.334904902986,16.444552313125
$GPGGA,080214.00,3512.4506,N,12149.9393,W,1,09,0.8,15.1,M,-32.6,M,,*62
$PYRTM,2024,125.334916937257,16.444564347407
$GPGGA,080215.00,3512.4514,N,12149.9396,W,1,09,0.8,13.2,M,-32.6,M,,*60
$PYRTM,2024,125.334928050856,16.444575460995
$GPGGA,080216.00,3512.4518,N,12149.9401,W,1,09,0.8,12.0,M,-32.6,M,,*65
$PYRTM,2024,125.334939611146,16.444587021285
$GPGGA,080217.00,3512.4518,N,12149.9412,W,1,09,0.8,13.2,M,-32.6,M,,*65
$PYRTM,2024,125.334951196875,16.444598607014
$GPGGA,080218.00,3512.4519,N,12149.9422,W,1,09,0.8,11.6,M,-32.6,M,,*6E
$PYRTM,2024,125.334962757627,16.444610167766
$GPGGA,080219.00,3512.4525,N,12149.9428,W,1,09,0.8,14.2,M,-32.6,M,,*6B
$PYRTM,2024,125.334975837060,16.444623247199
$GPGGA,080220.00,3512.4532,N,12149.9428,W,1,09,0.8,15.7,M,-32.6,M,,*63
$PYRTM,2024,125.334988118530,16.444635528669
$GPGGA,080221.00,3512.4537,N,12149.9431,W,1,09,0.8,16.7,M,-32.6,M,,*6C
$PYRTM,2024,125.334997488542,16.444644898681
$GPGGA,080222.00,3512.4539,N,12149.9442,W,1,09,0.8,16.5,M,-32.6,M,,*67
$PYRTM,2024,125.335009055012,16.444656465150
$GPGGA,080223.00,3512.4540,N,12149.9453,W,1,09,0.8,16.8,M,-32.6,M,,*65
$PYRTM,2024,125.335020642025,16.444668052164
$GPGGA,080224.00,3512.4544,N,12149.9458,W,1,09,0.8,16.4,M,-32.6,M,,*61
$PYRTM,2024,125.335032204028,16.444679614167
$GPGGA,080225.00,3512.4549,N,12149.9459,W,1,09,0.8,16.2,M,-32.6,M,,*6A
$PYRTM,2024,125.335043789954,16.444691200104
$GPGGA,080226.00,3512.4555,N,12149.9462,W,1,09,0.8,13.2,M,-32.6,M,,*69
$PYRTM,2024,125.335055351343,16.444702761481
$GPGGA,080227.00,3512.4561,N,12149.9469,W,1,09,0.8,13.3,M,-32.6,M,,*65
$PYRTM,2024,125.335066941574,16.444714351713
$GPGGA,080228.00,3512.4564,N,12149.9478,W,1,09,0.8,15.1,M,-32.6,M,,*6B
$PYRTM,2024,125.335078499225,16.444725909363
$GPGGA,080229.00,3512.4565,N,12149.9485,W,1,09,0.8,15.4,M,-32.6,M,,*6C
$PYRTM,2024,125.335090089769,16.444737499907
$GPGGA,080230.00,3512.4567,N,12149.9489,W,1,09,0.8,15.5,M,-32.6,M,,*6B
$PYRTM,2024,125.335101648137,16.444749058275
$GPGGA,080231.00,3512.4572,N,12149.9492,W,1,09,0.8,14.6,M,-32.6,M,,*66
$PYRTM,2024,125.335113235579,16.444760645718
$GPGGA,080232.00,3512.4576,N,12149.9497,W,1,09,0.8,15.3,M,-32.6,M,,*60
$PYRTM,2024,125.335124796157,16.444772206296
$GPGGA,080233.00,3512.4579,N,12149.9501,W,1,09,0.8,15.2,M,-32.6,M,,*61
$PYRTM,2024,125.335136370590,16.444783780729
$GPGGA,080234.00,3512.4581,N,12149.9507,W,1,09,0.8,15.9,M,-32.6,M,,*6C
$PYRTM,2024,125.335147944676,16.444795354815
$GPGGA,080235.00,3512.4584,N,12149.9514,W,1,09,0.8,13.1,M,-32.6,M,,*64
$PYRTM,2024,125.335159518981,16.444806929120
$GPGGA,080236.00,3512.4588,N,12149.9521,W,1,09,0.8,14.6,M,-32.6,M,,*6D
$PYRTM,2024,125.335171094942,16.444818505081
$GPGGA,080237.00,3512.4592,N,12149.9526,W,1,09,0.8,14.6,M,-32.6,M,,*60
$PYRTM,2024,125.335182669051,16.444830079190
$GPGGA,080238.00,3512.4596,N,12149.9531,W,1,09,0.8,14.0,M,-32.6,M,,*6B
$PYRTM,2024,125.335194240903,16.444841651042
$GPGGA,080239.00,3512.4599,N,12149.9537,W,1,09,0.8,12.5,M,-32.6,M,,*60
$PYRTM,2024,125.335205830810,16.444853240949
$GPGGA,080240.00,3512.4604,N,12149.9544,W,1,09,0.8,12.5,M,-32.6,M,,*6D
$PYRTM,2024,125.335217391134,16.444864801285
$GPGGA,080241.00,3512.4608,N,12149.9549,W,1,09,0.8,12.4,M,-32.6,M,,*6C
$PYRTM,2024,125.335228980556,16.444876390694
$GPGGA,080242.00,3512.4611,N,12149.9553,W,1,09,0.8,12.4,M,-32.6,M,,*6C
$PYRTM,2024,125.335240537199,16.444887947338
$GPGGA,080243.00,3512.4616,N,12149.9557,W,1,09,0.8,12.4,M,-32.6,M,,*6E
$PYRTM,2024,125.335252124769,16.444899534907
$GPGGA,080244.00,3512.4621,N,12149.9564,W,1,09,0.8,11.3,M,-32.6,M,,*69
$PYRTM,2024,125.335264163600,16.444911573738
$GPGGA,080245.00,3512.4625,N,12149.9569,W,1,09,0.8,11.6,M,-32.6,M,,*64
$PYRTM,2024,125.335275262025,16.444922672164
$GPGGA,080246.00,3512.4628,N,12149.9573,W,1,09,0.8,12.0,M,-32.6,M,,*64
$PYRTM,2024,125.335286833854,16.444934243993
$GPGGA,080247.00,3512.4631,N,12149.9577,W,1,09,0.8,12.4,M,-32.6,M,,*6D
$PYRTM,2024,125.335298420856,16.444945830995
$GPGGA,080248.00,3512.4636,N,12149.9582,W,1,09,0.8,13.9,M,-32.6,M,,*63
$PYRTM,2024,125.335309982465,16.444957392604
$GPGGA,080249.00,3512.4641,N,12149.9588,W,1,09,0.8,12.0,M,-32.6,M,,*60
$PYRTM,2024,125.335322598611,16.444970008750
$GPGGA,080250.00,3512.4646,N,12149.9594,W,1,09,0.8,9.0,M,-32.6,M,,*58
$PYRTM,2024,125.335335341435,16.444982751574
$GPGGA,080251.00,3512.4649,N,12149.9597,W,1,09,0.8,8.9,M,-32.6,M,,*5D
$PYRTM,2024,125.335344719306,16.444992129456
$GPGGA,080252.00,3512.4653,N,12149.9600,W,1,09,0.8,9.1,M,-32.6,M,,*51
$PYRTM,2024,125.335356279074,16.445003689213
$GPGGA,080253.00,3512.4655,N,12149.9606,W,1,09,0.8,12.6,M,-32.6,M,,*6D
$PYRTM,2024,125.335367866435,16.445015276574
$GPGGA,080254.00,3512.4658,N,12149.9615,W,1,09,0.8,14.9,M,-32.6,M,,*6C
$PYRTM,2024,125.335379427350,16.445026837488
$GPGGA,080255.00,3512.4662,N,12149.9622,W,1,09,0.8,13.3,M,-32.6,M,,*6D
$PYRTM,2024,125.335391016736,16.445038426875
$GPGGA,080256.00,3512.4666,N,12149.9626,W,1,09,0.8,13.4,M,-32.6,M,,*69
$PYRTM,2024,125.335402574387,16.445049984537
$GPGGA,080257.00,3512.4669,N,12149.9629,W,1,09,0.8,13.4,M,-32.6,M,,*68
$PYRTM,2024,125.335414166875,16.445061577014
$GPGGA,080258.00,3512.4673,N,12149.9635,W,1,09,0.8,17.1,M,-32.6,M,,*60
$PYRTM,2024,125.335425723576,16.445073133715
$GPGGA,080259.00,3512.4676,N,12149.9643,W,1,09,0.8,17.3,M,-32.6,M,,*67
$PYRTM,2024,125.335437300660,16.445084710799
$GPGGA,080300.00,3512.4681,N,12149.9650,W,1,09,0.8,17.5,M,-32.6,M,,*66
$PYRTM,2024,125.335448873843,16.445096283981
$GPGGA,080301.00,3512.4687,N,12149.9656,W,1,09,0.8,16.3,M,-32.6,M,,*60
$PYRTM,2024,125.335460447106,16.445107857245
$GPGGA,080302.00,3512.4694,N,12149.9660,W,1,09,0.8,17.9,M,-32.6,M,,*6F
$PYRTM,2024,125.335472019595,16.445119429734
$GPGGA,080303.00,3512.4698,N,12149.9665,W,1,09,0.8,17.5,M,-32.6,M,,*6B
$PYRTM,2024,125.335483607222,16.445131017361
$GPGGA,080304.00,3512.4700,N,12149.9671,W,1,09,0.8,15.3,M,-32.6,M,,*6D
$PYRTM,2024,125.335495168229,16.445142578368
$GPGGA,080305.00,3512.4702,N,12149.9678,W,1,09,0.8,15.0,M,-32.6,M,,*64
$PYRTM,2024,125.335506755972,16.445154166111
$GPGGA,080306.00,3512.4706,N,12149.9684,W,1,09,0.8,14.2,M,-32.6,M,,*63
$PYRTM,2024,125.335518316771,16.445165726910
$GPGGA,080307.00,3512.4710,N,12149.9688,W,1,09,0.8,14.1,M,-32.6,M,,*6A
$PYRTM,2024,125.335529904560,16.445177314699
$GPGGA,080308.00,3512.4713,N,12149.9691,W,1,09,0.8,14.1,M,-32.6,M,,*6E
$PYRTM,2024,125.335541466481,16.445188876620
$GPGGA,080309.00,3512.4715,N,12149.9696,W,1,09,0.8,14.2,M,-32.6,M,,*6D
$PYRTM,2024,125.335553503542,16.445200913681
$GPGGA,080310.00,3512.4718,N,12149.9704,W,1,09,0.8,13.9,M,-32.6,M,,*6E
$PYRTM,2024,125.335564647546,16.445212057685
$GPGGA,080311.00,3512.4720,N,12149.9712,W,1,09,0.8,13.9,M,-32.6,M,,*63
$PYRTM,2024,125.335576202755,16.445223612894
$GPGGA,080312.00,3512.4722,N,12149.9717,W,1,09,0.8,13.6,M,-32.6,M,,*68
$PYRTM,2024,125.335587762905,16.445235173044
$GPGGA,080313.00,3512.4728,N,12149.9722,W,1,09,0.8,13.5,M,-32.6,M,,*66
$PYRTM,2024,125.335599337037,16.445246747176
$GPGGA,080314.00,3512.4734,N,12149.9728,W,1,09,0.8,13.5,M,-32.6,M,,*66
$PYRTM,2024,125.335611387674,16.445258797824
$GPGGA,080315.00,3512.4738,N,12149.9734,W,1,09,0.8,13.6,M,-32.6,M,,*65
$PYRTM,2024,125.335622498206,16.445269908345
$GPGGA,080316.00,3512.4739,N,12149.9740,W,1,09,0.8,13.6,M,-32.6,M,,*64
$PYRTM,2024,125.335634060822,16.445281470972
$GPGGA,080317.00,3512.4742,N,12149.9745,W,1,09,0.8,13.7,M,-32.6,M,,*6D
$PYRTM,2024,125.335645633681,16.445293043819
$GPGGA,080318.00,3512.4745,N,12149.9750,W,1,09,0.8,13.6,M,-32.6,M,,*60
$PYRTM,2024,125.335657206273,16.445304616412
$GPGGA,080319.00,3512.4751,N,12149.9755,W,1,09,0.8,13.4,M,-32.6,M,,*63
$PYRTM,2024,125.335669822743,16.445317232882
$GPGGA,080320.00,3512.4756,N,12149.9760,W,1,09,0.8,13.3,M,-32.6,M,,*6F
$PYRTM,2024,125.335682568530,16.445329978669
$GPGGA,080321.00,3512.4759,N,12149.9764,W,1,09,0.8,13.3,M,-32.6,M,,*65
$PYRTM,2024,125.335689843634,16.445337253773
$GPGGA,080322.00,3512.4762,N,12149.9769,W,1,09,0.8,13.3,M,-32.6,M,,*63
$PYRTM,2024,125.335702936979,16.445350347118
$GPGGA,080323.00,3512.4765,N,12149.9774,W,1,09,0.8,13.7,M,-32.6,M,,*6D
$PYRTM,2024,125.335711732812,16.445359142951
$GPGGA,080324.00,3512.4770,N,12149.9781,W,1,09,0.8,13.1,M,-32.6,M,,*62
$PYRTM,2024,125.335728401227,16.445375811366
$GPGGA,080325.00,3512.4774,N,12149.9788,W,1,09,0.8,12.6,M,-32.6,M,,*68
$PYRTM,2024,125.335739499988,16.445386910127
$GPGGA,080326.00,3512.4778,N,12149.9793,W,1,09,0.8,12.5,M,-32.6,M,,*6E
$PYRTM,2024,125.335750623403,16.445398033542
$GPGGA,080327.00,3512.4781,N,12149.9798,W,1,09,0.8,12.7,M,-32.6,M,,*60
$PYRTM,2024,125.335761734954,16.445409145093
$GPGGA,080328.00,3512.4786,N,12149.9803,W,1,09,0.8,11.8,M,-32.6,M,,*69
$PYRTM,2024,125.335772841852,16.445420251991
$GPGGA,080329.00,3512.4792,N,12149.9809,W,1,09,0.8,12.2,M,-32.6,M,,*6E
$PYRTM,2024,125.335783951632,16.445431361771
$GPGGA,080330.00,3512.4796,N,12149.9817,W,1,09,0.8,13.1,M,-32.6,M,,*6F
$PYRTM,2024,125.335795063079,16.445442473218
$GPGGA,080331.00,3512.4799,N,12149.9825,W,1,09,0.8,14.2,M,-32.6,M,,*64
$PYRTM,2024,125.335806512315,16.445453922454
$GPGGA,080332.00,3512.4804,N,12149.9832,W,1,09,0.8,12.3,M,-32.6,M,,*6D
$PYRTM,2024,125.335818095671,16.445465505810
$GPGGA,080333.00,3512.4809,N,12149.9836,W,1,09,0.8,14.1,M,-32.6,M,,*61
$PYRTM,2024,125.335829659074,16.445477069213
$GPGGA,080334.00,3512.4814,N,12149.9841,W,1,09,0.8,12.8,M,-32.6,M,,*65
$PYRTM,2024,125.335841363171,16.445488773310
$GPGGA,080335.00,3512.4817,N,12149.9848,W,1,09,0.8,13.3,M,-32.6,M,,*64
$PYRTM,2024,125.335852943553,16.445500353704
$GPGGA,080336.00,3512.4819,N,12149.9856,W,1,09,0.8,14.4,M,-32.6,M,,*66
$PYRTM,2024,125.335864507708,16.445511917847
$GPGGA,080337.00,3512.4823,N,12149.9862,W,1,09,0.8,15.7,M,-32.6,M,,*6B
$PYRTM,2024,125.335876100486,16.445523510625
$GPGGA,080338.00,3512.4828,N,12149.9866,W,1,09,0.8,13.9,M,-32.6,M,,*63
$PYRTM,2024,125.335887660301,16.445535070440
$GPGGA,080339.00,3512.4833,N,12149.9873,W,1,09,0.8,15.4,M,-32.6,M,,*67
$PYRTM,2024,125.335899237361,16.445546647512
$GPGGA,080340.00,3512.4836,N,12149.9880,W,1,09,0.8,13.4,M,-32.6,M,,*66
$PYRTM,2024,125.335910807431,16.445558217569
$GPGGA,080341.00,3512.4837,N,12149.9888,W,1,09,0.8,14.2,M,-32.6,M,,*6F
$PYRTM,2024,125.335922382558,16.445569792697
$GPGGA,080342.00,3512.4842,N,12149.9893,W,1,09,0.8,14.4,M,-32.6,M,,*62
$PYRTM,2024,125.335933956968,16.445581367106
$GPGGA,080343.00,3512.4848,N,12149.9897,W,1,09,0.8,13.7,M,-32.6,M,,*69
$PYRTM,2024,125.335945530961,16.445592941100
$GPGGA,080344.00,3512.4853,N,12149.9903,W,1,09,0.8,13.8,M,-32.6,M,,*67
$PYRTM,2024,125.335957570775,16.445604980914
$GPGGA,080345.00,3512.4854,N,12149.9911,W,1,09,0.8,15.1,M,-32.6,M,,*6D
$PYRTM,2024,125.335968678484,16.445616088623
$GPGGA,080346.00,3512.4856,N,12149.9921,W,1,09,0.8,15.4,M,-32.6,M,,*6A
$PYRTM,2024,125.335980248981,16.445627659120
$GPGGA,080347.00,3512.4859,N,12149.9926,W,1,09,0.8,11.6,M,-32.6,M,,*65
$PYRTM,2024,125.335991837558,16.445639247697
$GPGGA,080348.00,3512.4865,N,12149.9928,W,1,09,0.8,10.0,M,-32.6,M,,*6C
$PYRTM,2024,125.336003401319,16.445650811458
$GPGGA,080349.00,3512.4871,N,12149.9929,W,1,09,0.8,10.2,M,-32.6,M,,*6B
$PYRTM,2024,125.336016017801,16.445663427940
$GPGGA,080350.00,3512.4875,N,12149.9935,W,1,09,0.8,9.9,M,-32.6,M,,*59
$PYRTM,2024,125.336026433322,16.445673843461
$GPGGA,080351.00,3512.4877,N,12149.9948,W,1,09,0.8,9.5,M,-32.6,M,,*5C
$PYRTM,2024,125.336037993900,16.445685404039
$GPGGA,080352.00,3512.4880,N,12149.9958,W,1,09,0.8,8.0,M,-32.6,M,,*52
$PYRTM,2024,125.336049582153,16.445696992303
$GPGGA,080353.00,3512.4885,N,12149.9961,W,1,09,0.8,6.4,M,-32.6,M,,*56
$PYRTM,2024,125.336061141863,16.445708552002
$GPGGA,080354.00,3512.4893,N,12149.9962,W,1,09,0.8,6.6,M,-32.6,M,,*57
$PYRTM,2024,125.336072731782,16.445720141921
$GPGGA,080355.00,3512.4900,N,12149.9966,W,1,09,0.8,8.9,M,-32.6,M,,*58
$PYRTM,2024,125.336084291146,16.445731701285
$GPGGA,080356.00,3512.4905,N,12149.9974,W,1,09,0.8,9.3,M,-32.6,M,,*56
$PYRTM,2024,125.336095879259,16.445743289398
$GPGGA,080357.00,3512.4909,N,12149.9983,W,1,09,0.8,8.7,M,-32.6,M,,*56
$PYRTM,2024,125.336107438449,16.445754848588
$GPGGA,080358.00,3512.4910,N,12149.9989,W,1,09,0.8,8.6,M,-32.6,M,,*5A
$PYRTM,2024,125.336119028993,16.445766439132
$GPGGA,080359.00,3512.4911,N,12149.9991,W,1,09,0.8,8.5,M,-32.6,M,,*50
$PYRTM,2024,125.336131064502,16.445778474641
$GPGGA,080400.00,3512.4916,N,12149.9994,W,1,09,0.8,8.2,M,-32.6,M,,*5E
$PYRTM,2024,125.336142175579,16.445789585729
$GPGGA,080401.00,3512.4923,N,12150.0000,W,1,09,0.8,9.4,M,-32.6,M,,*5B
$PYRTM,2024,125.336153736285,16.445801146424
$GPGGA,080402.00,3512.4927,N,12150.0008,W,1,09,0.8,11.1,M,-32.6,M,,*68
$PYRTM,2024,125.336165327523,16.445812737662
$GPGGA,080403.00,3512.4927,N,12150.0013,W,1,09,0.8,11.3,M,-32.6,M,,*61
$PYRTM,2024,125.336176883681,16.445824293819
$GPGGA,080404.00,3512.4927,N,12150.0015,W,1,09,0.8,11.4,M,-32.6,M,,*67
$PYRTM,2024,125.336188473125,16.445835883264
$GPGGA,080405.00,3512.4931,N,12150.0018,W,1,09,0.8,11.4,M,-32.6,M,,*6C
$PYRTM,2024,125.336200032083,16.445847442222
$GPGGA,080406.00,3512.4937,N,12150.0025,W,1,09,0.8,11.5,M,-32.6,M,,*66
$PYRTM,2024,125.336211620833,16.445859030972
$GPGGA,080407.00,3512.4940,N,12150.0033,W,1,09,0.8,11.7,M,-32.6,M,,*62
$PYRTM,2024,125.336223180127,16.445870590266
$GPGGA,080408.00,3512.4941,N,12150.0038,W,1,09,0.8,11.4,M,-32.6,M,,*64
$PYRTM,2024,125.336234776921,16.445882187060
$GPGGA,080409.00,3512.4944,N,12150.0039,W,1,09,0.8,11.4,M,-32.6,M,,*61
$PYRTM,2024,125.336246328449,16.445893738588
$GPGGA,080410.00,3512.4948,N,12150.0038,W,1,09,0.8,11.5,M,-32.6,M,,*65
$PYRTM,2024,125.336257916713,16.445905326852
$GPGGA,080411.00,3512.4953,N,12150.0040,W,1,09,0.8,11.3,M,-32.6,M,,*67
$PYRTM,2024,125.336269477998,16.445916888137
$GPGGA,080412.00,3512.4958,N,12150.0047,W,1,09,0.8,10.3,M,-32.6,M,,*69
$PYRTM,2024,125.336281068669,16.445928478808
$GPGGA,080413.00,3512.4961,N,12150.0057,W,1,09,0.8,9.6,M,-32.6,M,,*5E
$PYRTM,2024,125.336292627743,16.445940037882
$GPGGA,080414.00,3512.4963,N,12150.0063,W,1,09,0.8,9.4,M,-32.6,M,,*5E
$PYRTM,2024,125.336304663900,16.445952074039
$GPGGA,080415.00,3512.4969,N,12150.0067,W,1,09,0.8,9.5,M,-32.6,M,,*50
$PYRTM,2024,125.336315774977,16.445963185116
$GPGGA,080416.00,3512.4974,N,12150.0069,W,1,09,0.8,9.6,M,-32.6,M,,*52
$PYRTM,2024,125.336327365127,16.445974775266
$GPGGA,080417.00,3512.4977,N,12150.0075,W,1,09,0.8,10.0,M,-32.6,M,,*63
$PYRTM,2024,125.336338923264,16.445986333403
$GPGGA,080418.00,3512.4980,N,12150.0083,W,1,09,0.8,9.5,M,-32.6,M,,*50
$PYRTM,2024,125.336350510116,16.445997920255
$GPGGA,080419.00,3512.4983,N,12150.0092,W,1,09,0.8,7.7,M,-32.6,M,,*5E
$PYRTM,2024,125.336363244572,16.446010654711
$GPGGA,080420.00,3512.4987,N,12150.0098,W,1,09,0.8,7.4,M,-32.6,M,,*59
$PYRTM,2024,125.336374803009,16.446022213148
$GPGGA,080421.00,3512.4991,N,12150.0101,W,1,09,0.8,8.9,M,-32.6,M,,*5C
$PYRTM,2024,125.336386405579,16.446033815718
$GPGGA,080422.00,3512.4996,N,12150.0104,W,1,09,0.8,8.8,M,-32.6,M,,*5C
$PYRTM,2024,125.336397952083,16.446045362222
$GPGGA,080423.00,3512.4998,N,12150.0109,W,1,09,0.8,10.0,M,-32.6,M,,*6F
$PYRTM,2024,125.336409527338,16.446056937477
$GPGGA,080424.00,3512.5002,N,12150.0116,W,1,09,0.8,8.9,M,-32.6,M,,*5D
$PYRTM,2024,125.336421100706,16.446068510856
$GPGGA,080425.00,3512.5007,N,12150.0123,W,1,09,0.8,8.9,M,-32.6,M,,*5F
$PYRTM,2024,125.336432675694,16.446080085833
$GPGGA,080426.00,3512.5011,N,12150.0129,W,1,09,0.8,8.3,M,-32.6,M,,*5B
$PYRTM,2024,125.336444248912,16.446091659051
$GPGGA,080427.00,3512.5015,N,12150.0133,W,1,09,0.8,9.9,M,-32.6,M,,*5E
$PYRTM,2024,125.336455822766,16.446103232905
$GPGGA,080428.00,3512.5019,N,12150.0137,W,1,09,0.8,10.4,M,-32.6,M,,*6C
$PYRTM,2024,125.336467396690,16.446114806829
$GPGGA,080429.00,3512.5022,N,12150.0142,W,1,09,0.8,10.4,M,-32.6,M,,*67
$PYRTM,2024,125.336478983981,16.446126394120
$GPGGA,080430.00,3512.5024,N,12150.0149,W,1,09,0.8,8.1,M,-32.6,M,,*5E
$PYRTM,2024,125.336490556690,16.446137966829
$GPGGA,080431.00,3512.5028,N,12150.0156,W,1,09,0.8,7.8,M,-32.6,M,,*5B
$PYRTM,2024,125.336502131377,16.446149541516
$GPGGA,080432.00,3512.5034,N,12150.0160,W,1,09,0.8,8.4,M,-32.6,M,,*53
$PYRTM,2024,125.336513705139,16.446161115278
$GPGGA,080433.00,3512.5039,N,12150.0164,W,1,09,0.8,8.2,M,-32.6,M,,*5D
$PYRTM,2024,125.336525283194,16.446172693333
$GPGGA,080434.00,3512.5042,N,12150.0168,W,1,09,0.8,8.5,M,-32.6,M,,*5D
$PYRTM,2024,125.336536853032,16.446184263171
$GPGGA,080435.00,3512.5044,N,12150.0174,W,1,09,0.8,7.6,M,-32.6,M,,*5B
$PYRTM,2024,125.336548431794,16.446195841933
$GPGGA,080436.00,3512.5047,N,12150.0180,W,1,09,0.8,7.2,M,-32.6,M,,*54
$PYRTM,2024,125.336560003299,16.446207413438
$GPGGA,080437.00,3512.5054,N,12150.0185,W,1,09,0.8,6.6,M,-32.6,M,,*57
$PYRTM,2024,125.336571580208,16.446218990347
$GPGGA,080438.00,3512.5060,N,12150.0189,W,1,09,0.8,5.4,M,-32.6,M,,*52
$PYRTM,2024,125.336583149664,16.446230559803
$GPGGA,080439.00,3512.5064,N,12150.0195,W,1,09,0.8,4.8,M,-32.6,M,,*57
$PYRTM,2024,125.336594714167,16.446242124306
$GPGGA,080440.00,3512.5066,N,12150.0204,W,1,09,0.8,6.4,M,-32.6,M,,*5E
$PYRTM,2024,125.336606298912,16.446253709039
$GPGGA,080441.00,3512.5068,N,12150.0210,W,1,09,0.8,6.7,M,-32.6,M,,*57
$PYRTM,2024,125.336617874259,16.446265284398
$GPGGA,080442.00,3512.5073,N,12150.0214,W,1,09,0.8,6.8,M,-32.6,M,,*55
$PYRTM,2024,125.336629447581,16.446276857720
$GPGGA,080443.00,3512.5080,N,12150.0218,W,1,09,0.8,8.2,M,-32.6,M,,*50
$PYRTM,2024,125.336641022500,16.446288432639
$GPGGA,080444.00,3512.5087,N,12150.0225,W,1,09,0.8,10.7,M,-32.6,M,,*62
$PYRTM,2024,125.336652931343,16.446300341481
$GPGGA,080445.00,3512.5090,N,12150.0234,W,1,09,0.8,9.9,M,-32.6,M,,*53
$PYRTM,2024,125.336664041539,16.446311451678
$GPGGA,080446.00,3512.5091,N,12150.0242,W,1,09,0.8,9.9,M,-32.6,M,,*50
$PYRTM,2024,125.336675744248,16.446323154387
$GPGGA,080447.00,3512.5092,N,12150.0245,W,1,09,0.8,10.1,M,-32.6,M,,*65
$PYRTM,2024,125.336687321366,16.446334731505
$GPGGA,080448.00,3512.5097,N,12150.0247,W,1,09,0.8,14.2,M,-32.6,M,,*6A
$PYRTM,2024,125.336698892558,16.446346302697
$GPGGA,080449.00,3512.5105,N,12150.0250,W,1,09,0.8,14.3,M,-32.6,M,,*66
$PYRTM,2024,125.336711959907,16.446359370046
$GPGGA,080450.00,3512.5109,N,12150.0256,W,1,09,0.8,15.0,M,-32.6,M,,*66
$PYRTM,2024,125.336724225150,16.446371635278
$GPGGA,080451.00,3512.5108,N,12150.0266,W,1,09,0.8,15.5,M,-32.6,M,,*60
$PYRTM,2024,125.336733615486,16.446381025637
$GPGGA,080452.00,3512.5108,N,12150.0274,W,1,09,0.8,15.3,M,-32.6,M,,*66
$PYRTM,2024,125.336745176563,16.446392586713
$GPGGA,080453.00,3512.5113,N,12150.0277,W,1,09,0.8,15.6,M,-32.6,M,,*6B
$PYRTM,2024,125.336756751354,16.446404161493
$GPGGA,080454.00,3512.5121,N,12150.0280,W,1,09,0.8,15.4,M,-32.6,M,,*67
$PYRTM,2024,125.336768333935,16.446415744074
$GPGGA,080455.00,3512.5125,N,12150.0286,W,1,09,0.8,15.3,M,-32.6,M,,*63
$PYRTM,2024,125.336779899028,16.446427309167
$GPGGA,080456.00,3512.5125,N,12150.0294,W,1,09,0.8,16.3,M,-32.6,M,,*60
$PYRTM,2024,125.336791486829,16.446438896968
$GPGGA,080457.00,3512.5127,N,12150.0302,W,1,09,0.8,16.5,M,-32.6,M,,*6B
$PYRTM,2024,125.336803059421,16.446450469560
$GPGGA,080458.00,3512.5133,N,12150.0307,W,1,09,0.8,16.0,M,-32.6,M,,*61
$PYRTM,2024,125.336814634132,16.446462044271
$GPGGA,080459.00,3512.5140,N,12150.0311,W,1,09,0.8,15.1,M,-32.6,M,,*61
$PYRTM,2024,125.336826208692,16.446473618831
$GPGGA,080500.00,3512.5144,N,12150.0315,W,1,09,0.8,14.9,M,-32.6,M,,*65
$PYRTM,2024,125.336837770081,16.446485180220
$GPGGA,080501.00,3512.5146,N,12150.0320,W,1,09,0.8,15.0,M,-32.6,M,,*68
$PYRTM,2024,125.336849359329,16.446496769468
$GPGGA,080502.00,3512.5149,N,12150.0327,W,1,09,0.8,14.7,M,-32.6,M,,*65
$PYRTM,2024,125.336860929699,16.446508339838
$GPGGA,080503.00,3512.5153,N,12150.0334,W,1,09,0.8,14.3,M,-32.6,M,,*69
$PYRTM,2024,125.336872505810,16.446519915949
$GPGGA,080504.00,3512.5158,N,12150.0338,W,1,09,0.8,13.7,M,-32.6,M,,*6A
$PYRTM,2024,125.336884066713,16.446531476852
$GPGGA,080505.00,3512.5162,N,12150.0342,W,1,09,0.8,13.4,M,-32.6,M,,*6C
$PYRTM,2024,125.336895655046,16.446543065185
$GPGGA,080506.00,3512.5165,N,12150.0347,W,1,09,0.8,13.4,M,-32.6,M,,*6D
$PYRTM,2024,125.336907214826,16.446554624965
$GPGGA,080507.00,3512.5167,N,12150.0352,W,1,09,0.8,13.5,M,-32.6,M,,*6B
$PYRTM,2024,125.336918789572,16.446566199711
$GPGGA,080508.00,3512.5168,N,12150.0358,W,1,09,0.8,13.3,M,-32.6,M,,*67
$PYRTM,2024,125.336930363067,16.446577773206
$GPGGA,080509.00,3512.5170,N,12150.0364,W,1,09,0.8,12.7,M,-32.6,M,,*65
$PYRTM,2024,125.336941938090,16.446589348229
$GPGGA,080510.00,3512.5174,N,12150.0369,W,1,09,0.8,11.8,M,-32.6,M,,*68
$PYRTM,2024,125.336953511435,16.446600921574
$GPGGA,080511.00,3512.5179,N,12150.0374,W,1,09,0.8,13.1,M,-32.6,M,,*63
$PYRTM,2024,125.336965082604,16.446612492743
$GPGGA,080512.00,3512.5183,N,12150.0380,W,1,09,0.8,12.1,M,-32.6,M,,*6F
$PYRTM,2024,125.336976671632,16.446624081782
$GPGGA,080513.00,3512.5186,N,12150.0387,W,1,09,0.8,13.9,M,-32.6,M,,*65
$PYRTM,2024,125.336988231354,16.446635641493
$GPGGA,080514.00,3512.5189,N,12150.0393,W,1,09,0.8,13.8,M,-32.6,M,,*69
$PYRTM,2024,125.337000155810,16.446647565949
$GPGGA,080515.00,3512.5193,N,12150.0396,W,1,09,0.8,13.9,M,-32.6,M,,*67
$PYRTM,2024,125.337011379630,16.446658789769
$GPGGA,080516.00,3512.5198,N,12150.0399,W,1,09,0.8,11.3,M,-32.6,M,,*68
$PYRTM,2024,125.337022967789,16.446670377928
$GPGGA,080517.00,3512.5204,N,12150.0406,W,1,09,0.8,10.4,M,-32.6,M,,*68
$PYRTM,2024,125.337034529954,16.446681940093
$GPGGA,080518.00,3512.5207,N,12150.0415,W,1,09,0.8,12.5,M,-32.6,M,,*65
$PYRTM,2024,125.337046112234,16.446693522373
$GPGGA,080519.00,3512.5208,N,12150.0424,W,1,09,0.8,12.4,M,-32.6,M,,*68
$PYRTM,2024,125.337058732558,16.446706142697
$GPGGA,080520.00,3512.5208,N,12150.0428,W,1,09,0.8,12.7,M,-32.6,M,,*6D
$PYRTM,2024,125.337071451169,16.446718861308
$GPGGA,080521.00,3512.5214,N,12150.0429,W,1,09,0.8,12.7,M,-32.6,M,,*60
$PYRTM,2024,125.337080824444,16.446728234583
$GPGGA,080522.00,3512.5222,N,12150.0434,W,1,09,0.8,13.7,M,-32.6,M,,*6B
$PYRTM,2024,125.337092412697,16.446739822836
$GPGGA,080523.00,3512.5225,N,12150.0445,W,1,09,0.8,14.7,M,-32.6,M,,*6C
$PYRTM,2024,125.337103971597,16.446751381736
$GPGGA,080524.00,3512.5224,N,12150.0457,W,1,09,0.8,14.7,M,-32.6,M,,*69
$PYRTM,2024,125.337115561609,16.446762971748
$GPGGA,080525.00,3512.5225,N,12150.0463,W,1,09,0.8,15.0,M,-32.6,M,,*68
$PYRTM,2024,125.337127120440,16.446774530579
$GPGGA,080526.00,3512.5232,N,12150.0462,W,1,09,0.8,15.2,M,-32.6,M,,*6E
$PYRTM,2024,125.337137783819,16.446785193970
$GPGGA,080527.00,3512.5241,N,12150.0462,W,1,09,0.8,16.2,M,-32.6,M,,*68
$PYRTM,2024,125.337150749063,16.446798159201
$GPGGA,080528.00,3512.5245,N,12150.0469,W,1,09,0.8,15.8,M,-32.6,M,,*61
$PYRTM,2024,125.337161511134,16.446808921285
$GPGGA,080529.00,3512.5243,N,12150.0480,W,1,09,0.8,15.4,M,-32.6,M,,*6D
$PYRTM,2024,125.337172621690,16.446820031829
$GPGGA,080530.00,3512.5245,N,12150.0488,W,1,09,0.8,15.2,M,-32.6,M,,*6D
$PYRTM,2024,125.337183733437,16.446831143576
$GPGGA,080531.00,3512.5252,N,12150.0488,W,1,09,0.8,15.0,M,-32.6,M,,*68
$PYRTM,2024,125.337194847801,16.446842257940
$GPGGA,080532.00,3512.5259,N,12150.0486,W,1,08,1.0,15.4,M,-32.6,M,,*62
$PYRTM,2024,125.337205958044,16.446853368183
$GPGGA,080533.00,3512.5265,N,12150.0491,W,1,08,1.0,15.3,M,-32.6,M,,*6D
$PYRTM,2024,125.337217067303,16.446864477442
$GPGGA,080534.00,3512.5268,N,12150.0500,W,1,08,1.0,14.6,M,-32.6,M,,*6A
$PYRTM,2024,125.337228182535,16.446875592685
$GPGGA,080535.00,3512.5270,N,12150.0509,W,1,08,1.0,13.8,M,-32.6,M,,*62
$PYRTM,2024,125.337239284491,16.446886694630
$GPGGA,080536.00,3512.5274,N,12150.0511,W,1,08,1.0,13.8,M,-32.6,M,,*6C
$PYRTM,2024,125.337250415486,16.446897825625
$GPGGA,080537.00,3512.5278,N,12150.0512,W,1,08,1.0,13.9,M,-32.6,M,,*63
$PYRTM,2024,125.337261511829,16.446908921968
$GPGGA,080538.00,3512.5280,N,12150.0516,W,1,08,1.0,13.4,M,-32.6,M,,*62
$PYRTM,2024,125.337272618854,16.446920028993
$GPGGA,080539.00,3512.5283,N,12150.0522,W,1,08,1.0,13.0,M,-32.6,M,,*63
$PYRTM,2024,125.337283849525,16.446931259664
$GPGGA,080540.00,3512.5286,N,12150.0530,W,1,08,1.0,12.1,M,-32.6,M,,*6B
$PYRTM,2024,125.337295410706,16.446942820845
$GPGGA,080541.00,3512.5291,N,12150.0533,W,1,08,1.0,12.0,M,-32.6,M,,*6E
$PYRTM,2024,125.337307001019,16.446954411157
$GPGGA,080542.00,3512.5295,N,12150.0533,W,1,08,1.0,12.2,M,-32.6,M,,*6B
$PYRTM,2024,125.337318559190,16.446965969329
$GPGGA,080543.00,3512.5298,N,12150.0535,W,1,08,1.0,12.3,M,-32.6,M,,*60
$PYRTM,2024,125.337330150451,16.446977560590
$GPGGA,080544.00,3512.5301,N,12150.0543,W,1,08,1.0,11.4,M,-32.6,M,,*63
$PYRTM,2024,125.337341708762,16.446989118900
$GPGGA,080545.00,3512.5305,N,12150.0552,W,1,08,1.0,11.6,M,-32.6,M,,*64
$PYRTM,2024,125.337353294641,16.447000704780
$GPGGA,080546.00,3512.5311,N,12150.0557,W,1,08,1.0,12.0,M,-32.6,M,,*62
$PYRTM,2024,125.337364856181,16.447012266319
$GPGGA,080547.00,3512.5316,N,12150.0558,W,1,08,1.0,11.3,M,-32.6,M,,*6B
$PYRTM,2024,125.337376443472,16.447023853611
$GPGGA,080548.00,3512.5320,N,12150.0560,W,1,08,1.0,11.1,M,-32.6,M,,*68
$PYRTM,2024,125.337388004444,16.447035414583
$GPGGA,080549.00,3512.5323,N,12150.0566,W,1,08,1.0,11.9,M,-32.6,M,,*64
$PYRTM,2024,125.337399593125,16.447047003264
$GPGGA,080550.00,3512.5326,N,12150.0575,W,1,08,1.0,10.7,M,-32.6,M,,*64
$PYRTM,2024,125.337415331586,16.447062741725
$GPGGA,080551.00,3512.5329,N,12150.0584,W,1,08,1.0,10.0,M,-32.6,M,,*63
$PYRTM,2024,125.337426892975,16.447074303113
$GPGGA,080552.00,3512.5331,N,12150.0589,W,1,08,1.0,9.5,M,-32.6,M,,*59
$PYRTM,2024,125.337438483924,16.447085894062
$GPGGA,080553.00,3512.5333,N,12150.0591,W,1,08,1.0,9.7,M,-32.6,M,,*51
$PYRTM,2024,125.337450040162,16.447097450301
$GPGGA,080554.00,3512.5336,N,12150.0593,W,1,08,1.0,9.8,M,-32.6,M,,*5E
$PYRTM,2024,125.337461644282,16.447109054421
$GPGGA,080555.00,3512.5340,N,12150.0598,W,1,08,1.0,12.0,M,-32.6,M,,*67
$PYRTM,2024,125.337473189641,16.447120599780
$GPGGA,080556.00,3512.5344,N,12150.0606,W,1,08,1.0,11.6,M,-32.6,M,,*61
$PYRTM,2024,125.337484780197,16.447132190336
$GPGGA,080557.00,3512.5345,N,12150.0613,W,1,08,1.0,11.4,M,-32.6,M,,*67
$PYRTM,2024,125.337496338056,16.447143748194
$GPGGA,080558.00,3512.5343,N,12150.0617,W,1,08,1.0,11.5,M,-32.6,M,,*6B
$PYRTM,2024,125.337507924514,16.447155334653
$GPGGA,080559.00,3512.5342,N,12150.0620,W,1,08,1.0,11.5,M,-32.6,M,,*6F
$PYRTM,2024,125.337519486516,16.447166896655
$GPGGA,080600.00,3512.5348,N,12150.0623,W,1,08,1.0,11.7,M,-32.6,M,,*6B
$PYRTM,2024,125.337531072975,16.447178483113
$GPGGA,080601.00,3512.5354,N,12150.0627,W,1,08,1.0,12.5,M,-32.6,M,,*62
$PYRTM,2024,125.337542635324,16.447190045463
$GPGGA,080602.00,3512.5358,N,12150.0630,W,1,08,1.0,12.6,M,-32.6,M,,*68
$PYRTM,2024,125.337554217373,16.447201627523
$GPGGA,080603.00,3512.5358,N,12150.0636,W,1,08,1.0,12.3,M,-32.6,M,,*6A
$PYRTM,2024,125.337565782535,16.447213192674
$GPGGA,080604.00,3512.5359,N,12150.0643,W,1,08,1.0,11.8,M,-32.6,M,,*66
$PYRTM,2024,125.337577384873,16.447224795012
$GPGGA,080605.00,3512.5363,N,12150.0648,W,1,08,1.0,11.1,M,-32.6,M,,*6C
$PYRTM,2024,125.337588932465,16.447236342604
$GPGGA,080606.00,3512.5366,N,12150.0651,W,1,08,1.0,11.1,M,-32.6,M,,*62
$PYRTM,2024,125.337600522847,16.447247932986
$GPGGA,080607.00,3512.5368,N,12150.0653,W,1,08,1.0,11.1,M,-32.6,M,,*6F
$PYRTM,2024,125.337612080382,16.447259490521
$GPGGA,080608.00,3512.5369,N,12150.0657,W,1,08,1.0,11.1,M,-32.6,M,,*65
$PYRTM,2024,125.337623668866,16.447271079005
$GPGGA,080609.00,3512.5372,N,12150.0665,W,1,08,1.0,11.3,M,-32.6,M,,*6D
$PYRTM,2024,125.337635227674,16.447282637812
$GPGGA,080610.00,3512.5374,N,12150.0674,W,1,08,1.0,10.8,M,-32.6,M,,*69
$PYRTM,2024,125.337646822766,16.447294232905
$GPGGA,080611.00,3512.5375,N,12150.0679,W,1,08,1.0,10.8,M,-32.6,M,,*64
$PYRTM,2024,125.337658392731,16.447305802870
$GPGGA,080612.00,3512.5378,N,12150.0681,W,1,08,1.0,10.8,M,-32.6,M,,*6D
$PYRTM,2024,125.337669964120,16.447317374259
$GPGGA,080613.00,3512.5385,N,12150.0684,W,1,08,1.0,12.4,M,-32.6,M,,*65
$PYRTM,2024,125.337681536782,16.447328946921
$GPGGA,080614.00,3512.5390,N,12150.0692,W,1,08,1.0,11.3,M,-32.6,M,,*65
$PYRTM,2024,125.337693574306,16.447340984444
$GPGGA,080615.00,3512.5392,N,12150.0699,W,1,08,1.0,11.2,M,-32.6,M,,*6C
$PYRTM,2024,125.337704680891,16.447352091030
$GPGGA,080616.00,3512.5394,N,12150.0704,W,1,08,1.0,11.4,M,-32.6,M,,*6A
$PYRTM,2024,125.337716260023,16.447363670174
$GPGGA,080617.00,3512.5400,N,12150.0709,W,1,08,1.0,9.5,M,-32.6,M,,*54
$PYRTM,2024,125.337727828299,16.447375238437
$GPGGA,080618.00,3512.5405,N,12150.0715,W,1,08,1.0,9.4,M,-32.6,M,,*52
$PYRTM,2024,125.337739408322,16.447386818461
$GPGGA,080619.00,3512.5406,N,12150.0720,W,1,08,1.0,9.3,M,-32.6,M,,*51
$PYRTM,2024,125.337752128542,16.447399538681
$GPGGA,080620.00,3512.5407,N,12150.0726,W,1,08,1.0,9.0,M,-32.6,M,,*5F
$PYRTM,2024,125.337763601516,16.447411011655
$GPGGA,080621.00,3512.5411,N,12150.0731,W,1,08,1.0,9.3,M,-32.6,M,,*5C
$PYRTM,2024,125.337775160937,16.447422571076
$GPGGA,080622.00,3512.5416,N,12150.0736,W,1,08,1.0,8.1,M,-32.6,M,,*5C
$PYRTM,2024,125.337786750347,16.447434160486
$GPGGA,080623.00,3512.5421,N,12150.0743,W,1,08,1.0,7.4,M,-32.6,M,,*51
$PYRTM,2024,125.337798308681,16.447445718819
$GPGGA,080624.00,3512.5421,N,12150.0750,W,1,08,1.0,7.1,M,-32.6,M,,*51
$PYRTM,2024,125.337810010683,16.447457420822
$GPGGA,080625.00,3512.5422,N,12150.0754,W,1,08,1.0,7.0,M,-32.6,M,,*56
$PYRTM,2024,125.337821455949,16.447468866088
$GPGGA,080626.00,3512.5427,N,12150.0760,W,1,08,1.0,8.0,M,-32.6,M,,*58
$PYRTM,2024,125.337833043229,16.447480453368
$GPGGA,080627.00,3512.5433,N,12150.0764,W,1,08,1.0,7.1,M,-32.6,M,,*56
$PYRTM,2024,125.337844604190,16.447492014329
$GPGGA,080628.00,3512.5436,N,12150.0769,W,1,08,1.0,6.9,M,-32.6,M,,*58
$PYRTM,2024,125.337856300995,16.447503711134
$GPGGA,080629.00,3512.5437,N,12150.0774,W,1,08,1.0,6.9,M,-32.6,M,,*54
$PYRTM,2024,125.337868233333,16.447515643472
$GPGGA,080630.00,3512.5438,N,12150.0781,W,1,08,1.0,5.6,M,-32.6,M,,*55
$PYRTM,2024,125.337879339259,16.447526749398
$GPGGA,080631.00,3512.5442,N,12150.0787,W,1,08,1.0,6.0,M,-32.6,M,,*5A
$PYRTM,2024,125.337890900185,16.447538310324
$GPGGA,080632.00,3512.5448,N,12150.0792,W,1,08,1.0,6.9,M,-32.6,M,,*5E
$PYRTM,2024,125.337902489120,16.447549899259
$GPGGA,080633.00,3512.5451,N,12150.0798,W,1,08,1.0,6.9,M,-32.6,M,,*5D
$PYRTM,2024,125.337914050069,16.447561460208
$GPGGA,080634.00,3512.5450,N,12150.0805,W,1,08,1.0,6.3,M,-32.6,M,,*5A
$PYRTM,2024,125.337925638900,16.447573049039
$GPGGA,080635.00,3512.5450,N,12150.0814,W,1,08,1.0,7.5,M,-32.6,M,,*5C
$PYRTM,2024,125.337937196979,16.447584607118
$GPGGA,080636.00,3512.5454,N,12150.0821,W,1,08,1.0,7.7,M,-32.6,M,,*5F
$PYRTM,2024,125.337948915081,16.447596325220
$GPGGA,080637.00,3512.5461,N,12150.0824,W,1,08,1.0,11.4,M,-32.6,M,,*69
$PYRTM,2024,125.337960462766,16.447607872905
$GPGGA,080638.00,3512.5465,N,12150.0827,W,1,08,1.0,11.6,M,-32.6,M,,*63
$PYRTM,2024,125.337972048160,16.447619458299
$GPGGA,080639.00,3512.5465,N,12150.0832,W,1,08,1.0,10.1,M,-32.6,M,,*60
$PYRTM,2024,125.337983610671,16.447631020810
$GPGGA,080640.00,3512.5466,N,12150.0843,W,1,08,1.0,10.4,M,-32.6,M,,*6E
$PYRTM,2024,125.337995083333,16.447642493472
$GPGGA,080641.00,3512.5468,N,12150.0852,W,1,08,1.0,9.9,M,-32.6,M,,*54
$PYRTM,2024,125.338006759144,16.447654169282
$GPGGA,080642.00,3512.5471,N,12150.0856,W,1,08,1.0,10.0,M,-32.6,M,,*6A
$PYRTM,2024,125.338018229062,16.447665639201
$GPGGA,080643.00,3512.5474,N,12150.0858,W,1,08,1.0,9.9,M,-32.6,M,,*51
$PYRTM,2024,125.338029906771,16.447677316910
$GPGGA,080644.00,3512.5481,N,12150.0865,W,1,08,1.0,10.6,M,-32.6,M,,*65
$PYRTM,2024,125.338041827465,16.447689237604
$GPGGA,080645.00,3512.5486,N,12150.0875,W,1,08,1.0,10.7,M,-32.6,M,,*63
$PYRTM,2024,125.338053055035,16.447700465174
$GPGGA,080646.00,3512.5486,N,12150.0886,W,1,08,1.0,10.6,M,-32.6,M,,*6D
$PYRTM,2024,125.338064636551,16.447712046690
$GPGGA,080647.00,3512.5485,N,12150.0893,W,1,08,1.0,10.8,M,-32.6,M,,*65
$PYRTM,2024,125.338076203669,16.447723613808
$GPGGA,080648.00,3512.5490,N,12150.0896,W,1,08,1.0,10.8,M,-32.6,M,,*6B
$PYRTM,2024,125.338087789965,16.447735200104
$GPGGA,080649.00,3512.5497,N,12150.0898,W,1,08,1.0,10.7,M,-32.6,M,,*6C
$PYRTM,2024,125.338100390602,16.447747800741
$GPGGA,080650.00,3512.5500,N,12150.0902,W,1,08,1.0,10.6,M,-32.6,M,,*68
$PYRTM,2024,125.338113123472,16.447760533611
$GPGGA,080651.00,3512.5499,N,12150.0909,W,1,08,1.0,12.0,M,-32.6,M,,*67
$PYRTM,2024,125.338122499271,16.447769909410
$GPGGA,080652.00,3512.5500,N,12150.0918,W,1,08,1.0,11.7,M,-32.6,M,,*61
$PYRTM,2024,125.338134086262,16.447781496400
$GPGGA,080653.00,3512.5504,N,12150.0925,W,1,08,1.0,10.5,M,-32.6,M,,*69
$PYRTM,2024,125.338145647176,16.447793057326
$GPGGA,080654.00,3512.5509,N,12150.0929,W,1,08,1.0,10.8,M,-32.6,M,,*62
$PYRTM,2024,125.338157221181,16.447804631319
$GPGGA,080655.00,3512.5511,N,12150.0931,W,1,08,1.0,10.9,M,-32.6,M,,*62
$PYRTM,2024,125.338168795475,16.447816205613
$GPGGA,080656.00,3512.5511,N,12150.0935,W,1,08,1.0,10.9,M,-32.6,M,,*65
$PYRTM,2024,125.338180382627,16.447827792766
$GPGGA,080657.00,3512.5510,N,12150.0943,W,1,08,1.0,11.7,M,-32.6,M,,*6B
$PYRTM,2024,125.338191943322,16.447839353461
$GPGGA,080658.00,3512.5512,N,12150.0951,W,1,08,1.0,11.3,M,-32.6,M,,*61
$PYRTM,2024,125.338203519271,16.447850929410
$GPGGA,080659.00,3512.5518,N,12150.0956,W,1,08,1.0,10.7,M,-32.6,M,,*68
$PYRTM,2024,125.338215091759,16.447862501898
$GPGGA,080700.00,3512.5521,N,12150.0962,W,1,08,1.0,10.4,M,-32.6,M,,*6B
$PYRTM,2024,125.338226668137,16.447874078287
$GPGGA,080701.00,3512.5522,N,12150.0968,W,1,08,1.0,10.4,M,-32.6,M,,*63
$PYRTM,2024,125.338238241065,16.447885651204
$GPGGA,080702.00,3512.5522,N,12150.0973,W,1,08,1.0,10.4,M,-32.6,M,,*6A
$PYRTM,2024,125.338249834919,16.447897245058
$GPGGA,080703.00,3512.5522,N,12150.0977,W,1,08,1.0,10.4,M,-32.6,M,,*6F
$PYRTM,2024,125.338261388206,16.447908798345
$GPGGA,080704.00,3512.5526,N,12150.0982,W,1,08,1.0,10.4,M,-32.6,M,,*66
$PYRTM,2024,125.338272991389,16.447920401528
$GPGGA,080705.00,3512.5533,N,12150.0990,W,1,08,1.0,10.1,M,-32.6,M,,*65
$PYRTM,2024,125.338284421678,16.447931831817
$GPGGA,080706.00,3512.5539,N,12150.0999,W,1,08,1.0,9.5,M,-32.6,M,,*59
$PYRTM,2024,125.338296009387,16.447943419525
$GPGGA,080707.00,3512.5540,N,12150.1008,W,1,08,1.0,9.2,M,-32.6,M,,*51
$PYRTM,2024,125.338307569757,16.447954979896
$GPGGA,080708.00,3512.5538,N,12150.1014,W,1,08,1.0,9.3,M,-32.6,M,,*5D
$PYRTM,2024,125.338319163021,16.447966573160
$GPGGA,080709.00,3512.5542,N,12150.1016,W,1,08,1.0,9.3,M,-32.6,M,,*53
$PYRTM,2024,125.338330719410,16.447978129549
$GPGGA,080710.00,3512.5549,N,12150.1018,W,1,08,1.0,9.3,M,-32.6,M,,*5E
$PYRTM,2024,125.338342305231,16.447989715382
$GPGGA,080711.00,3512.5556,N,12150.1025,W,1,08,1.0,8.8,M,-32.6,M,,*55
$PYRTM,2024,125.338353879780,16.448001289919
$GPGGA,080712.00,3512.5559,N,12150.1034,W,1,08,1.0,8.2,M,-32.6,M,,*53
$PYRTM,2024,125.338365453657,16.448012863796
$GPGGA,080713.00,3512.5558,N,12150.1041,W,1,08,1.0,8.0,M,-32.6,M,,*53
$PYRTM,2024,125.338377022419,16.448024432558
$GPGGA,080714.00,3512.5559,N,12150.1044,W,1,08,1.0,8.0,M,-32.6,M,,*50
$PYRTM,2024,125.338389068912,16.448036479051
$GPGGA,080715.00,3512.5564,N,12150.1046,W,1,08,1.0,8.2,M,-32.6,M,,*5F
$PYRTM,2024,125.338400175949,16.448047586100
$GPGGA,080716.00,3512.5569,N,12150.1053,W,1,08,1.0,8.6,M,-32.6,M,,*51
$PYRTM,2024,125.338411753438,16.448059163576
$GPGGA,080717.00,3512.5571,N,12150.1060,W,1,08,1.0,8.6,M,-32.6,M,,*59
$PYRTM,2024,125.338423427037,16.448070837188
$GPGGA,080718.00,3512.5569,N,12150.1068,W,1,08,1.0,9.4,M,-32.6,M,,*54
$PYRTM,2024,125.338434913981,16.448082324120
$GPGGA,080719.00,3512.5569,N,12150.1074,W,1,08,1.0,9.7,M,-32.6,M,,*5B
$PYRTM,2024,125.338448093646,16.448095503785
$GPGGA,080720.00,3512.5573,N,12150.1077,W,1,08,1.0,9.5,M,-32.6,M,,*5B
$PYRTM,2024,125.338460231690,16.448107641829
$GPGGA,080721.00,3512.5580,N,12150.1081,W,1,08,1.0,9.3,M,-32.6,M,,*59
$PYRTM,2024,125.338469620440,16.448117030579
$GPGGA,080722.00,3512.5583,N,12150.1086,W,1,08,1.0,9.1,M,-32.6,M,,*5C
$PYRTM,2024,125.338481195231,16.448128605370
$GPGGA,080723.00,3512.5581,N,12150.1091,W,1,08,1.0,9.1,M,-32.6,M,,*59
$PYRTM,2024,125.338492768299,16.448140178437
$GPGGA,080724.00,3512.5581,N,12150.1095,W,1,08,1.0,9.1,M,-32.6,M,,*5A
$PYRTM,2024,125.338504458681,16.448151868819
$GPGGA,080725.00,3512.5587,N,12150.1098,W,1,08,1.0,8.9,M,-32.6,M,,*59
$PYRTM,2024,125.338515916806,16.448163326944
$GPGGA,080726.00,3512.5594,N,12150.1102,W,1,08,1.0,9.0,M,-32.6,M,,*52
$PYRTM,2024,125.338527488287,16.448174898426
$GPGGA,080727.00,3512.5595,N,12150.1109,W,1,08,1.0,9.0,M,-32.6,M,,*59
$PYRTM,2024,125.338539170127,16.448186580266
$GPGGA,080728.00,3512.5593,N,12150.1116,W,1,08,1.0,9.1,M,-32.6,M,,*5F
$PYRTM,2024,125.338550755787,16.448198165926
$GPGGA,080729.00,3512.5594,N,12150.1123,W,1,08,1.0,9.6,M,-32.6,M,,*58
$PYRTM,2024,125.338562316076,16.448209726215
$GPGGA,080730.00,3512.5601,N,12150.1128,W,1,08,1.0,9.7,M,-32.6,M,,*55
$PYRTM,2024,125.338573791493,16.448221201632
$GPGGA,080731.00,3512.5606,N,12150.1131,W,1,08,1.0,9.7,M,-32.6,M,,*5B
$PYRTM,2024,125.338585017801,16.448232427940
$GPGGA,080732.00,3512.5607,N,12150.1135,W,1,08,1.0,9.7,M,-32.6,M,,*5D
$PYRTM,2024,125.338596691829,16.448244101968
$GPGGA,080733.00,3512.5607,N,12150.1142,W,1,08,1.0,10.0,M,-32.6,M,,*63
$PYRTM,2024,125.338608729757,16.448256139907
$GPGGA,080734.00,3512.5609,N,12150.1151,W,1,08,1.0,8.9,M,-32.6,M,,*58
$PYRTM,2024,125.338619840046,16.448267250185
$GPGGA,080735.00,3512.5614,N,12150.1156,W,1,08,1.0,9.1,M,-32.6,M,,*5B
$PYRTM,2024,125.338630951238,16.448278361389
$GPGGA,080736.00,3512.5619,N,12150.1157,W,1,08,1.0,9.0,M,-32.6,M,,*55
$PYRTM,2024,125.338641946782,16.448289356921
$GPGGA,080737.00,3512.5622,N,12150.1160,W,1,08,1.0,8.9,M,-32.6,M,,*50
$PYRTM,2024,125.338653058750,16.448300468889
$GPGGA,080738.00,3512.5623,N,12150.1166,W,1,08,1.0,8.3,M,-32.6,M,,*52
$PYRTM,2024,125.338664171400,16.448311581539
$GPGGA,080739.00,3512.5626,N,12150.1174,W,1,08,1.0,6.8,M,-32.6,M,,*50
$PYRTM,2024,125.338675281597,16.448322691736
$GPGGA,080740.00,3512.5628,N,12150.1181,W,1,08,1.0,6.8,M,-32.6,M,,*5A
$PYRTM,2024,125.338686392789,16.448333802928
$GPGGA,080741.00,3512.5630,N,12150.1185,W,1,08,1.0,6.5,M,-32.6,M,,*5B
$PYRTM,2024,125.338697502662,16.448344912801
$GPGGA,080742.00,3512.5633,N,12150.1189,W,1,08,1.0,8.7,M,-32.6,M,,*5B
$PYRTM,2024,125.338708511736,16.448355921875
$GPGGA,080743.00,3512.5637,N,12150.1196,W,1,08,1.0,8.4,M,-32.6,M,,*53
$PYRTM,2024,125.338719622014,16.448367032153
$GPGGA,080744.00,3512.5640,N,12150.1203,W,1,08,1.0,8.3,M,-32.6,M,,*5C
$PYRTM,2024,125.338732367998,16.448379778137
$GPGGA,080745.00,3512.5642,N,12150.1208,W,1,08,1.0,8.0,M,-32.6,M,,*57
$PYRTM,2024,125.338743914722,16.448391324873
$GPGGA,080746.00,3512.5645,N,12150.1212,W,1,08,1.0,7.2,M,-32.6,M,,*55
$PYRTM,2024,125.338755026563,16.448402436713
$GPGGA,080747.00,3512.5647,N,12150.1218,W,1,08,1.0,6.8,M,-32.6,M,,*57
$PYRTM,2024,125.338766139699,16.448413549850
$GPGGA,080748.00,3512.5649,N,12150.1223,W,1,08,1.0,7.0,M,-32.6,M,,*57
$PYRTM,2024,125.338777132847,16.448424542998
$GPGGA,080749.00,3512.5654,N,12150.1227,W,1,08,1.0,5.1,M,-32.6,M,,*5D
$PYRTM,2024,125.338788474583,16.448435884722
$GPGGA,080750.00,3512.5659,N,12150.1232,W,1,08,1.0,4.5,M,-32.6,M,,*59
$PYRTM,2024,125.338804214572,16.448451624711
$GPGGA,080751.00,3512.5664,N,12150.1238,W,1,08,1.0,5.6,M,-32.6,M,,*5E
$PYRTM,2024,125.338815802778,16.448463212917
$GPGGA,080752.00,3512.5666,N,12150.1245,W,1,08,1.0,5.5,M,-32.6,M,,*56
$PYRTM,2024,125.338827364398,16.448474774537
$GPGGA,080753.00,3512.5667,N,12150.1252,W,1,08,1.0,4.6,M,-32.6,M,,*52
$PYRTM,2024,125.338838951597,16.448486361748
$GPGGA,080754.00,3512.5670,N,12150.1256,W,1,08,1.0,5.3,M,-32.6,M,,*53
$PYRTM,2024,125.338850511273,16.448497921424
$GPGGA,080755.00,3512.5676,N,12150.1259,W,1,08,1.0,5.3,M,-32.6,M,,*5B
$PYRTM,2024,125.338862100150,16.448509510289
$GPGGA,080756.00,3512.5679,N,12150.1261,W,1,08,1.0,5.5,M,-32.6,M,,*5A
$PYRTM,2024,125.338873660394,16.448521070532
$GPGGA,080757.00,3512.5680,N,12150.1267,W,1,08,1.0,4.8,M,-32.6,M,,*57
$PYRTM,2024,125.338885244016,16.448532654167
$GPGGA,080758.00,3512.5679,N,12150.1277,W,1,08,1.0,4.5,M,-32.6,M,,*52
$PYRTM,2024,125.338896809039,16.448544219178
$GPGGA,080759.00,3512.5678,N,12150.1284,W,1,08,1.0,4.6,M,-32.6,M,,*5D
$PYRTM,2024,125.338908398160,16.448555808299
$GPGGA,080800.00,3512.5681,N,12150.1288,W,1,08,1.0,6.2,M,-32.6,M,,*52
$PYRTM,2024,125.338919956250,16.448567366389
$GPGGA,080801.00,3512.5689,N,12150.1292,W,1,08,1.0,6.8,M,-32.6,M,,*5A
$PYRTM,2024,125.338931546748,16.448578956887
$GPGGA,080802.00,3512.5695,N,12150.1299,W,1,08,1.0,5.4,M,-32.6,M,,*50
$PYRTM,2024,125.338943104572,16.448590514711
$GPGGA,080803.00,3512.5695,N,12150.1307,W,1,08,1.0,5.4,M,-32.6,M,,*57
$PYRTM,2024,125.338954691678,16.448602101817
$GPGGA,080804.00,3512.5694,N,12150.1315,W,1,08,1.0,4.9,M,-32.6,M,,*5E
$PYRTM,2024,125.338966253472,16.448613663611
$GPGGA,080805.00,3512.5698,N,12150.1321,W,1,08,1.0,6.2,M,-32.6,M,,*5D
$PYRTM,2024,125.338977841597,16.448625251736
$GPGGA,080806.00,3512.5706,N,12150.1324,W,1,08,1.0,5.7,M,-32.6,M,,*5B
$PYRTM,2024,125.338989402257,16.448636812396
$GPGGA,080807.00,3512.5715,N,12150.1327,W,1,08,1.0,11.9,M,-32.6,M,,*60
$PYRTM,2024,125.339000986042,16.448648396181
$GPGGA,080808.00,3512.5717,N,12150.1334,W,1,08,1.0,9.7,M,-32.6,M,,*58
$PYRTM,2024,125.339012550278,16.448659960428
$GPGGA,080809.00,3512.5713,N,12150.1341,W,1,08,1.0,7.2,M,-32.6,M,,*54
$PYRTM,2024,125.339024587731,16.448671997870
$GPGGA,080810.00,3512.5711,N,12150.1347,W,1,08,1.0,7.7,M,-32.6,M,,*5D
$PYRTM,2024,125.339035704190,16.448683114329
$GPGGA,080811.00,3512.5715,N,12150.1350,W,1,08,1.0,6.5,M,-32.6,M,,*5D
$PYRTM,2024,125.339047286215,16.448694696354
$GPGGA,080812.00,3512.5723,N,12150.1352,W,1,08,1.0,7.4,M,-32.6,M,,*59
$PYRTM,2024,125.339058847095,16.448706257234
$GPGGA,080813.00,3512.5728,N,12150.1356,W,1,08,1.0,10.1,M,-32.6,M,,*64
$PYRTM,2024,125.339070433981,16.448717844120
$GPGGA,080814.00,3512.5727,N,12150.1365,W,1,08,1.0,10.9,M,-32.6,M,,*64
$PYRTM,2024,125.339082466389,16.448729876528
$GPGGA,080815.00,3512.5727,N,12150.1375,W,1,08,1.0,10.3,M,-32.6,M,,*6E
$PYRTM,2024,125.339093582014,16.448740992153
$GPGGA,080816.00,3512.5729,N,12150.1382,W,1,08,1.0,8.0,M,-32.6,M,,*51
$PYRTM,2024,125.339105143183,16.448752553322
$GPGGA,080817.00,3512.5735,N,12150.1383,W,1,08,1.0,9.6,M,-32.6,M,,*5B
$PYRTM,2024,125.339116731574,16.448764141713
$GPGGA,080818.00,3512.5742,N,12150.1384,W,1,08,1.0,12.2,M,-32.6,M,,*6D
$PYRTM,2024,125.339128290162,16.448775700301
$GPGGA,080819.00,3512.5746,N,12150.1391,W,1,08,1.0,12.8,M,-32.6,M,,*66
$PYRTM,2024,125.339141025231,16.448788435370
$GPGGA,080820.00,3512.5748,N,12150.1402,W,1,08,1.0,9.1,M,-32.6,M,,*5C
$PYRTM,2024,125.339152490764,16.448799900903
$GPGGA,080821.00,3512.5750,N,12150.1410,W,1,08,1.0,8.9,M,-32.6,M,,*5E
$PYRTM,2024,125.339164063970,16.448811474109
$GPGGA,080822.00,3512.5755,N,12150.1413,W,1,08,1.0,9.7,M,-32.6,M,,*54
$PYRTM,2024,125.339175762141,16.448823172280
$GPGGA,080823.00,3512.5763,N,12150.1414,W,1,08,1.0,11.0,M,-32.6,M,,*69
$PYRTM,2024,125.339187321516,16.448834731655
$GPGGA,080824.00,3512.5767,N,12150.1419,W,1,08,1.0,10.0,M,-32.6,M,,*66
$PYRTM,2024,125.339198792060,16.448846202199
$GPGGA,080825.00,3512.5765,N,12150.1429,W,1,08,1.0,7.9,M,-32.6,M,,*59
$PYRTM,2024,125.339210468472,16.448857878611
$GPGGA,080826.00,3512.5764,N,12150.1438,W,1,08,1.0,10.3,M,-32.6,M,,*67
$PYRTM,2024,125.339222043021,16.448869453160
$GPGGA,080827.00,3512.5770,N,12150.1444,W,1,08,1.0,10.7,M,-32.6,M,,*6C
$PYRTM,2024,125.339233616979,16.448881027118
$GPGGA,080828.00,3512.5779,N,12150.1446,W,1,08,1.0,11.2,M,-32.6,M,,*6C
$PYRTM,2024,125.339245207106,16.448892617257
$GPGGA,080829.00,3512.5783,N,12150.1451,W,1,08,1.0,10.6,M,-32.6,M,,*6B
$PYRTM,2024,125.339256661991,16.448904072130
$GPGGA,080830.00,3512.5782,N,12150.1458,W,1,08,1.0,8.9,M,-32.6,M,,*5D
$PYRTM,2024,125.339268239375,16.448915649514
$GPGGA,080831.00,3512.5783,N,12150.1466,W,1,08,1.0,9.0,M,-32.6,M,,*58
$PYRTM,2024,125.339279810116,16.448927220266
$GPGGA,080832.00,3512.5788,N,12150.1472,W,1,08,1.0,6.6,M,-32.6,M,,*5C
$PYRTM,2024,125.339291384317,16.448938794456
$GPGGA,080833.00,3512.5793,N,12150.1476,W,1,08,1.0,6.5,M,-32.6,M,,*50
$PYRTM,2024,125.339303062789,16.448950472928
$GPGGA,080834.00,3512.5795,N,12150.1481,W,1,08,1.0,6.6,M,-32.6,M,,*5A
$PYRTM,2024,125.339314651528,16.448962061667
$GPGGA,080835.00,3512.5795,N,12150.1487,W,1,08,1.0,6.2,M,-32.6,M,,*59
$PYRTM,2024,125.339326102234,16.448973512373
$GPGGA,080836.00,3512.5798,N,12150.1493,W,1,08,1.0,6.3,M,-32.6,M,,*53
$PYRTM,2024,125.339337676424,16.448985086562
