$PYRTM,2024,125.250009003727,16.359656413866
$GPGGA,055959.00,3514.1208,N,12152.0841,W,1,09,1.0,11.4,M,-32.5,M,,*6E
$PYRTM,2024,125.250020564340,16.359667974479
$GPGGA,060000.00,3514.1213,N,12152.0845,W,1,09,1.0,12.0,M,-32.5,M,,*64
$PYRTM,2024,125.250032149630,16.359679559769
$GPGGA,060001.00,3514.1219,N,12152.0849,W,1,09,1.0,11.5,M,-32.5,M,,*65
$PYRTM,2024,125.250043711505,16.359691121644
$GPGGA,060002.00,3514.1222,N,12152.0857,W,1,09,1.0,11.0,M,-32.5,M,,*64
$PYRTM,2024,125.250055297141,16.359702707280
$GPGGA,060003.00,3514.1222,N,12152.0868,W,1,09,1.0,10.9,M,-32.5,M,,*61
$PYRTM,2024,125.250066858727,16.359714268866
$GPGGA,060004.00,3514.1223,N,12152.0876,W,1,09,1.0,11.4,M,-32.5,M,,*64
$PYRTM,2024,125.250078449421,16.359725859560
$GPGGA,060005.00,3514.1229,N,12152.0878,W,1,09,1.0,12.0,M,-32.5,M,,*66
$PYRTM,2024,125.250090486123,16.359737896273
$GPGGA,060006.00,3514.1235,N,12152.0882,W,1,09,1.0,11.0,M,-32.5,M,,*6E
$PYRTM,2024,125.250101598206,16.359749008345
$GPGGA,060007.00,3514.1238,N,12152.0889,W,1,09,1.0,10.7,M,-32.5,M,,*6F
$PYRTM,2024,125.250113156875,16.359760567014
$GPGGA,060008.00,3514.1239,N,12152.0897,W,1,09,1.0,11.8,M,-32.5,M,,*60
$PYRTM,2024,125.250124742581,16.359772152720
$GPGGA,060009.00,3514.1240,N,12152.0904,W,1,09,1.0,11.8,M,-32.5,M,,*64
$PYRTM,2024,125.250136305625,16.359783715764
$GPGGA,060010.00,3514.1244,N,12152.0908,W,1,09,1.0,10.2,M,-32.5,M,,*6F
$PYRTM,2024,125.250147890729,16.359795300868
$GPGGA,060011.00,3514.1252,N,12152.0913,W,1,09,1.0,8.6,M,-32.5,M,,*5E
$PYRTM,2024,125.250159453194,16.359806863333
$GPGGA,060012.00,3514.1259,N,12152.0918,W,1,09,1.0,10.7,M,-32.5,M,,*65
$PYRTM,2024,125.250171046215,16.359818456354
$GPGGA,060013.00,3514.1261,N,12152.0923,W,1,09,1.0,10.6,M,-32.5,M,,*66
$PYRTM,2024,125.250182601296,16.359830011435
$GPGGA,060014.00,3514.1262,N,12152.0931,W,1,09,1.0,9.8,M,-32.5,M,,*57
$PYRTM,2024,125.250194189572,16.359841599722
$GPGGA,060015.00,3514.1266,N,12152.0937,W,1,09,1.0,11.3,M,-32.5,M,,*66
$PYRTM,2024,125.250205750139,16.359853160278
$GPGGA,060016.00,3514.1274,N,12152.0941,W,1,09,1.0,8.7,M,-32.5,M,,*5B
$PYRTM,2024,125.250218484618,16.359865894757
$GPGGA,060017.00,3514.1279,N,12152.0945,W,1,09,1.0,11.5,M,-32.5,M,,*69
$PYRTM,2024,125.250231097650,16.359878507789
$GPGGA,060018.00,3514.1282,N,12152.0951,W,1,09,1.0,12.1,M,-32.5,M,,*60
$PYRTM,2024,125.250240487512,16.359887897650
$GPGGA,060019.00,3514.1283,N,12152.0958,W,1,09,1.0,13.2,M,-32.5,M,,*6B
$PYRTM,2024,125.250252045521,16.359899455660
$GPGGA,060020.00,3514.1286,N,12152.0965,W,1,09,1.0,12.6,M,-32.5,M,,*6F
$PYRTM,2024,125.250263634769,16.359911044907
$GPGGA,060021.00,3514.1291,N,12152.0970,W,1,09,1.0,10.5,M,-32.5,M,,*6D
$PYRTM,2024,125.250275195278,16.359922605417
$GPGGA,060022.00,3514.1297,N,12152.0976,W,1,09,1.0,10.5,M,-32.5,M,,*6E
$PYRTM,2024,125.250286777025,16.359934187164
$GPGGA,060023.00,3514.1301,N,12152.0982,W,1,09,1.0,11.5,M,-32.5,M,,*6B
$PYRTM,2024,125.250298341910,16.359945752049
$GPGGA,060024.00,3514.1303,N,12152.0988,W,1,09,1.0,10.0,M,-32.5,M,,*60
$PYRTM,2024,125.250309928808,16.359957338947
$GPGGA,060025.00,3514.1307,N,12152.0993,W,1,09,1.0,9.7,M,-32.5,M,,*50
$PYRTM,2024,125.250321490116,16.359968900255
$GPGGA,060026.00,3514.1313,N,12152.0998,W,1,09,1.0,10.2,M,-32.5,M,,*60
$PYRTM,2024,125.250333079618,16.359980489757
$GPGGA,060027.00,3514.1319,N,12152.1004,W,1,09,1.0,10.3,M,-32.5,M,,*67
$PYRTM,2024,125.250344639595,16.359992049734
$GPGGA,060028.00,3514.1323,N,12152.1010,W,1,09,1.0,10.7,M,-32.5,M,,*60
$PYRTM,2024,125.250356226713,16.360003636852
$GPGGA,060029.00,3514.1326,N,12152.1015,W,1,09,1.0,12.0,M,-32.5,M,,*64
$PYRTM,2024,125.250367786690,16.360015196829
$GPGGA,060030.00,3514.1331,N,12152.1020,W,1,09,1.0,13.3,M,-32.5,M,,*6E
$PYRTM,2024,125.250379368877,16.360026779016
$GPGGA,060031.00,3514.1336,N,12152.1026,W,1,09,1.0,13.5,M,-32.5,M,,*68
$PYRTM,2024,125.250390936597,16.360038346736
$GPGGA,060032.00,3514.1341,N,12152.1034,W,1,09,1.0,14.8,M,-32.5,M,,*62
$PYRTM,2024,125.250402525475,16.360049935613
$GPGGA,060033.00,3514.1343,N,12152.1041,W,1,09,1.0,15.3,M,-32.5,M,,*69
$PYRTM,2024,125.250414083079,16.360061493218
$GPGGA,060034.00,3514.1347,N,12152.1048,W,1,09,1.0,17.8,M,-32.5,M,,*6A
$PYRTM,2024,125.250425673796,16.360073083935
$GPGGA,060035.00,3514.1353,N,12152.1055,W,1,09,1.0,16.6,M,-32.5,M,,*6D
$PYRTM,2024,125.250436785174,16.360084195313
$GPGGA,060036.00,3514.1359,N,12152.1061,W,1,09,1.0,17.7,M,-32.5,M,,*63
$PYRTM,2024,125.250448818681,16.360096228819
$GPGGA,060037.00,3514.1361,N,12152.1069,W,1,09,1.0,15.8,M,-32.5,M,,*6C
$PYRTM,2024,125.250460976806,16.360108386944
$GPGGA,060038.00,3514.1362,N,12152.1076,W,1,09,1.0,17.0,M,-32.5,M,,*64
$PYRTM,2024,125.250472085127,16.360119495266
$GPGGA,060039.00,3514.1366,N,12152.1083,W,1,09,1.0,19.0,M,-32.5,M,,*65
$PYRTM,2024,125.250483208299,16.360130618426
$GPGGA,060040.00,3514.1373,N,12152.1089,W,1,09,1.0,20.2,M,-32.5,M,,*6D
$PYRTM,2024,125.250494305000,16.360141715139
$GPGGA,060041.00,3514.1379,N,12152.1095,W,1,09,1.0,18.2,M,-32.5,M,,*60
$PYRTM,2024,125.250505419514,16.360152829653
$GPGGA,060042.00,3514.1380,N,12152.1103,W,1,09,1.0,14.9,M,-32.5,M,,*6C
$PYRTM,2024,125.250516528600,16.360163938738
$GPGGA,060043.00,3514.1379,N,12152.1112,W,1,09,1.0,16.4,M,-32.5,M,,*64
$PYRTM,2024,125.250527639722,16.360175049873
$GPGGA,060044.00,3514.1383,N,12152.1120,W,1,09,1.0,15.8,M,-32.5,M,,*68
$PYRTM,2024,125.250538754896,16.360186165046
$GPGGA,060045.00,3514.1391,N,12152.1125,W,1,09,1.0,17.6,M,-32.5,M,,*63
$PYRTM,2024,125.250549861331,16.360197271470
$GPGGA,060046.00,3514.1399,N,12152.1130,W,1,09,1.0,14.9,M,-32.5,M,,*60
$PYRTM,2024,125.250560974745,16.360208384884
$GPGGA,060047.00,3514.1402,N,12152.1137,W,1,09,1.0,13.0,M,-32.5,M,,*6D
$PYRTM,2024,125.250575557998,16.360222968137
$GPGGA,060048.00,3514.1403,N,12152.1147,W,1,09,1.0,10.5,M,-32.5,M,,*62
$PYRTM,2024,125.250586666898,16.360234077037
$GPGGA,060049.00,3514.1406,N,12152.1157,W,1,09,1.0,10.6,M,-32.5,M,,*64
$PYRTM,2024,125.250598239306,16.360245649444
$GPGGA,060050.00,3514.1413,N,12152.1162,W,1,09,1.0,11.4,M,-32.5,M,,*6D
$PYRTM,2024,125.250609799039,16.360257209178
$GPGGA,060051.00,3514.1420,N,12152.1166,W,1,09,1.0,11.9,M,-32.5,M,,*65
$PYRTM,2024,125.250621387894,16.360268798032
$GPGGA,060052.00,3514.1425,N,12152.1173,W,1,09,1.0,11.7,M,-32.5,M,,*69
$PYRTM,2024,125.250632948912,16.360280359051
$GPGGA,060053.00,3514.1429,N,12152.1181,W,1,09,1.0,11.8,M,-32.5,M,,*66
$PYRTM,2024,125.250644540938,16.360291951076
$GPGGA,060054.00,3514.1431,N,12152.1190,W,1,09,1.0,11.3,M,-32.5,M,,*63
$PYRTM,2024,125.250655982431,16.360303392569
$GPGGA,060055.00,3514.1435,N,12152.1198,W,1,09,1.0,9.8,M,-32.5,M,,*5C
$PYRTM,2024,125.250667583796,16.360314993935
$GPGGA,060056.00,3514.1442,N,12152.1203,W,1,09,1.0,8.9,M,-32.5,M,,*5E
$PYRTM,2024,125.250679246470,16.360326656609
$GPGGA,060057.00,3514.1448,N,12152.1206,W,1,09,1.0,11.0,M,-32.5,M,,*61
$PYRTM,2024,125.250690837245,16.360338247384
$GPGGA,060058.00,3514.1451,N,12152.1212,W,1,09,1.0,11.7,M,-32.5,M,,*64
$PYRTM,2024,125.250702279884,16.360349690023
$GPGGA,060059.00,3514.1453,N,12152.1221,W,1,09,1.0,9.1,M,-32.5,M,,*58
$PYRTM,2024,125.250713985231,16.360361395370
$GPGGA,060100.00,3514.1455,N,12152.1230,W,1,09,1.0,10.3,M,-32.5,M,,*69
$PYRTM,2024,125.250725542604,16.360372952743
$GPGGA,060101.00,3514.1460,N,12152.1235,W,1,09,1.0,12.4,M,-32.5,M,,*6E
$PYRTM,2024,125.250737133611,16.360384543750
$GPGGA,060102.00,3514.1467,N,12152.1237,W,1,09,1.0,12.7,M,-32.5,M,,*6B
$PYRTM,2024,125.250748693472,16.360396103611
$GPGGA,060103.00,3514.1472,N,12152.1241,W,1,09,1.0,13.1,M,-32.5,M,,*68
$PYRTM,2024,125.250760274028,16.360407684167
$GPGGA,060104.00,3514.1474,N,12152.1249,W,1,09,1.0,12.6,M,-32.5,M,,*67
$PYRTM,2024,125.250771838843,16.360419248993
$GPGGA,060105.00,3514.1475,N,12152.1260,W,1,09,1.0,13.2,M,-32.5,M,,*69
$PYRTM,2024,125.250783762199,16.360431172350
$GPGGA,060106.00,3514.1478,N,12152.1267,W,1,09,1.0,14.8,M,-32.5,M,,*6D
$PYRTM,2024,125.250794987303,16.360442397442
$GPGGA,060107.00,3514.1484,N,12152.1270,W,1,09,1.0,16.1,M,-32.5,M,,*62
$PYRTM,2024,125.250806576400,16.360453986539
$GPGGA,060108.00,3514.1492,N,12152.1275,W,1,09,1.0,15.2,M,-32.5,M,,*6F
$PYRTM,2024,125.250818134329,16.360465544479
$GPGGA,060109.00,3514.1495,N,12152.1284,W,1,09,1.0,14.8,M,-32.5,M,,*6C
$PYRTM,2024,125.250829718322,16.360477128461
$GPGGA,060110.00,3514.1496,N,12152.1293,W,1,09,1.0,17.1,M,-32.5,M,,*6B
$PYRTM,2024,125.250841283310,16.360488693449
$GPGGA,060111.00,3514.1497,N,12152.1301,W,1,09,1.0,14.6,M,-32.5,M,,*65
$PYRTM,2024,125.250852871516,16.360500281655
$GPGGA,060112.00,3514.1504,N,12152.1307,W,1,09,1.0,16.4,M,-32.5,M,,*6B
$PYRTM,2024,125.250864432407,16.360511842546
$GPGGA,060113.00,3514.1513,N,12152.1313,W,1,09,1.0,13.0,M,-32.5,M,,*68
$PYRTM,2024,125.250876020671,16.360523430822
$GPGGA,060114.00,3514.1519,N,12152.1319,W,1,09,1.0,12.8,M,-32.5,M,,*66
$PYRTM,2024,125.250887582361,16.360534992500
$GPGGA,060115.00,3514.1522,N,12152.1324,W,1,09,1.0,12.7,M,-32.5,M,,*6E
$PYRTM,2024,125.250899170486,16.360546580625
$GPGGA,060116.00,3514.1525,N,12152.1332,W,1,09,1.0,11.3,M,-32.5,M,,*6A
$PYRTM,2024,125.250911788264,16.360559198414
$GPGGA,060117.00,3514.1530,N,12152.1340,W,1,09,1.0,12.5,M,-32.5,M,,*6F
$PYRTM,2024,125.250923358981,16.360570769120
$GPGGA,060118.00,3514.1537,N,12152.1346,W,1,09,1.0,14.2,M,-32.5,M,,*60
$PYRTM,2024,125.250934933738,16.360582343877
$GPGGA,060119.00,3514.1544,N,12152.1347,W,1,09,1.0,14.7,M,-32.5,M,,*61
$PYRTM,2024,125.250946503079,16.360593913218
$GPGGA,060120.00,3514.1548,N,12152.1351,W,1,09,1.0,15.5,M,-32.5,M,,*63
$PYRTM,2024,125.250958081123,16.360605491262
$GPGGA,060121.00,3514.1550,N,12152.1362,W,1,09,1.0,12.0,M,-32.5,M,,*69
$PYRTM,2024,125.250969655729,16.360617065868
$GPGGA,060122.00,3514.1550,N,12152.1373,W,1,09,1.0,10.1,M,-32.5,M,,*69
$PYRTM,2024,125.250981229340,16.360628639491
$GPGGA,060123.00,3514.1551,N,12152.1379,W,1,09,1.0,10.2,M,-32.5,M,,*60
$PYRTM,2024,125.250992803588,16.360640213727
$GPGGA,060124.00,3514.1558,N,12152.1381,W,1,09,1.0,12.2,M,-32.5,M,,*6B
$PYRTM,2024,125.251004377870,16.360651788009
$GPGGA,060125.00,3514.1566,N,12152.1384,W,1,09,1.0,12.4,M,-32.5,M,,*64
$PYRTM,2024,125.251015951620,16.360663361759
$GPGGA,060126.00,3514.1569,N,12152.1390,W,1,09,1.0,13.2,M,-32.5,M,,*6A
$PYRTM,2024,125.251027989595,16.360675399734
$GPGGA,060127.00,3514.1567,N,12152.1399,W,1,09,1.0,15.1,M,-32.5,M,,*69
$PYRTM,2024,125.251039101424,16.360686511574
$GPGGA,060128.00,3514.1570,N,12152.1408,W,1,09,1.0,14.3,M,-32.5,M,,*6C
$PYRTM,2024,125.251050678021,16.360698088160
$GPGGA,060129.00,3514.1577,N,12152.1415,W,1,09,1.0,13.1,M,-32.5,M,,*63
$PYRTM,2024,125.251062244051,16.360709654190
$GPGGA,060130.00,3514.1585,N,12152.1419,W,1,09,1.0,11.6,M,-32.5,M,,*6F
$PYRTM,2024,125.251073822928,16.360721233067
$GPGGA,060131.00,3514.1588,N,12152.1423,W,1,09,1.0,11.8,M,-32.5,M,,*64
$PYRTM,2024,125.251085397245,16.360732807384
$GPGGA,060132.00,3514.1588,N,12152.1430,W,1,09,1.0,12.2,M,-32.5,M,,*6C
$PYRTM,2024,125.251096972812,16.360744382951
$GPGGA,060133.00,3514.1591,N,12152.1440,W,1,09,1.0,14.3,M,-32.5,M,,*65
$PYRTM,2024,125.251108544514,16.360755954653
$GPGGA,060134.00,3514.1596,N,12152.1447,W,1,09,1.0,10.5,M,-32.5,M,,*60
$PYRTM,2024,125.251120120463,16.360767530602
$GPGGA,060135.00,3514.1601,N,12152.1452,W,1,09,1.0,10.5,M,-32.5,M,,*68
$PYRTM,2024,125.251132160069,16.360779570208
$GPGGA,060136.00,3514.1605,N,12152.1457,W,1,09,1.0,9.8,M,-32.5,M,,*5F
$PYRTM,2024,125.251143267431,16.360790677581
$GPGGA,060137.00,3514.1608,N,12152.1464,W,1,09,1.0,9.7,M,-32.5,M,,*5C
$PYRTM,2024,125.251154836667,16.360802246806
$GPGGA,060138.00,3514.1612,N,12152.1471,W,1,09,1.0,9.5,M,-32.5,M,,*5E
$PYRTM,2024,125.251166418218,16.360813828356
$GPGGA,060139.00,3514.1619,N,12152.1478,W,1,09,1.0,9.4,M,-32.5,M,,*5C
$PYRTM,2024,125.251177989838,16.360825399988
$GPGGA,060140.00,3514.1626,N,12152.1484,W,1,09,1.0,9.7,M,-32.5,M,,*5E
$PYRTM,2024,125.251189564155,16.360836974294
$GPGGA,060141.00,3514.1628,N,12152.1491,W,1,09,1.0,9.7,M,-32.5,M,,*55
$PYRTM,2024,125.251201138032,16.360848548171
$GPGGA,060142.00,3514.1631,N,12152.1498,W,1,09,1.0,9.7,M,-32.5,M,,*57
$PYRTM,2024,125.251212715544,16.360860125683
$GPGGA,060143.00,3514.1638,N,12152.1504,W,1,09,1.0,11.0,M,-32.5,M,,*65
$PYRTM,2024,125.251224286030,16.360871696169
$GPGGA,060144.00,3514.1648,N,12152.1509,W,1,09,1.0,11.6,M,-32.5,M,,*6E
$PYRTM,2024,125.251235874942,16.360883285081
$GPGGA,060145.00,3514.1654,N,12152.1514,W,1,09,1.0,13.3,M,-32.5,M,,*69
$PYRTM,2024,125.251247435521,16.360894845660
$GPGGA,060146.00,3514.1656,N,12152.1520,W,1,09,1.0,12.9,M,-32.5,M,,*64
$PYRTM,2024,125.251260161921,16.360907572060
$GPGGA,060147.00,3514.1658,N,12152.1526,W,1,09,1.0,10.2,M,-32.5,M,,*64
$PYRTM,2024,125.251272768553,16.360920178692
$GPGGA,060148.00,3514.1663,N,12152.1533,W,1,09,1.0,12.1,M,-32.5,M,,*66
$PYRTM,2024,125.251282157350,16.360929567488
$GPGGA,060149.00,3514.1671,N,12152.1538,W,1,09,1.0,14.2,M,-32.5,M,,*6A
$PYRTM,2024,125.251293730891,16.360941141030
$GPGGA,060150.00,3514.1678,N,12152.1542,W,1,09,1.0,11.8,M,-32.5,M,,*69
$PYRTM,2024,125.251305306331,16.360952716470
$GPGGA,060151.00,3514.1680,N,12152.1547,W,1,09,1.0,11.5,M,-32.5,M,,*67
$PYRTM,2024,125.251316876748,16.360964286898
$GPGGA,060152.00,3514.1679,N,12152.1555,W,1,09,1.0,13.3,M,-32.5,M,,*65
$PYRTM,2024,125.251328453877,16.360975864016
$GPGGA,060153.00,3514.1683,N,12152.1564,W,1,09,1.0,13.2,M,-32.5,M,,*62
$PYRTM,2024,125.251340029005,16.360987439144
$GPGGA,060154.00,3514.1689,N,12152.1571,W,1,09,1.0,14.0,M,-32.5,M,,*6E
$PYRTM,2024,125.251351617118,16.360999027257
$GPGGA,060155.00,3514.1695,N,12152.1575,W,1,09,1.0,13.7,M,-32.5,M,,*66
$PYRTM,2024,125.251363177396,16.361010587535
$GPGGA,060156.00,3514.1699,N,12152.1579,W,1,09,1.0,13.8,M,-32.5,M,,*6A
$PYRTM,2024,125.251374753623,16.361022163762
$GPGGA,060157.00,3514.1701,N,12152.1586,W,1,09,1.0,13.5,M,-32.5,M,,*66
$PYRTM,2024,125.251386323785,16.361033733924
$GPGGA,060158.00,3514.1706,N,12152.1595,W,1,09,1.0,12.0,M,-32.5,M,,*68
$PYRTM,2024,125.251397901285,16.361045311424
$GPGGA,060159.00,3514.1711,N,12152.1602,W,1,09,1.0,12.6,M,-32.5,M,,*64
$PYRTM,2024,125.251409472222,16.361056882361
$GPGGA,060200.00,3514.1716,N,12152.1607,W,1,09,1.0,13.0,M,-32.5,M,,*6E
$PYRTM,2024,125.251421050914,16.361068461053
$GPGGA,060201.00,3514.1721,N,12152.1611,W,1,09,1.0,11.5,M,-32.5,M,,*6B
$PYRTM,2024,125.251432622569,16.361080032708
$GPGGA,060202.00,3514.1725,N,12152.1615,W,1,09,1.0,11.3,M,-32.5,M,,*6E
$PYRTM,2024,125.251444195567,16.361091605706
$GPGGA,060203.00,3514.1731,N,12152.1621,W,1,09,1.0,12.4,M,-32.5,M,,*69
$PYRTM,2024,125.251455764907,16.361103175058
$GPGGA,060204.00,3514.1735,N,12152.1627,W,1,09,1.0,13.4,M,-32.5,M,,*6D
$PYRTM,2024,125.251467339873,16.361114750012
$GPGGA,060205.00,3514.1737,N,12152.1634,W,1,09,1.0,12.3,M,-32.5,M,,*6A
$PYRTM,2024,125.251479387894,16.361126798032
$GPGGA,060206.00,3514.1737,N,12152.1641,W,1,09,1.0,11.6,M,-32.5,M,,*6D
$PYRTM,2024,125.251490491759,16.361137901898
$GPGGA,060207.00,3514.1740,N,12152.1647,W,1,09,1.0,11.8,M,-32.5,M,,*64
$PYRTM,2024,125.251502061331,16.361149471470
$GPGGA,060208.00,3514.1745,N,12152.1651,W,1,09,1.0,14.1,M,-32.5,M,,*65
$PYRTM,2024,125.251513640938,16.361161051076
$GPGGA,060209.00,3514.1750,N,12152.1653,W,1,09,1.0,15.0,M,-32.5,M,,*62
$PYRTM,2024,125.251525213877,16.361172624016
$GPGGA,060210.00,3514.1753,N,12152.1657,W,1,09,1.0,13.6,M,-32.5,M,,*6D
$PYRTM,2024,125.251536793056,16.361184203206
$GPGGA,060211.00,3514.1755,N,12152.1665,W,1,09,1.0,12.6,M,-32.5,M,,*6A
$PYRTM,2024,125.251548358310,16.361195768461
$GPGGA,060212.00,3514.1758,N,12152.1676,W,1,09,1.0,14.0,M,-32.5,M,,*66
$PYRTM,2024,125.251559952338,16.361207362477
$GPGGA,060213.00,3514.1763,N,12152.1683,W,1,09,1.0,13.4,M,-32.5,M,,*66
$PYRTM,2024,125.251571511620,16.361218921759
$GPGGA,060214.00,3514.1768,N,12152.1686,W,1,09,1.0,13.6,M,-32.5,M,,*6D
$PYRTM,2024,125.251583088333,16.361230498472
$GPGGA,060215.00,3514.1770,N,12152.1691,W,1,09,1.0,18.5,M,-32.5,M,,*6B
$PYRTM,2024,125.251594660891,16.361242071042
$GPGGA,060216.00,3514.1773,N,12152.1699,W,1,09,1.0,16.1,M,-32.5,M,,*69
$PYRTM,2024,125.251607726748,16.361255136887
$GPGGA,060217.00,3514.1777,N,12152.1707,W,1,09,1.0,16.2,M,-32.5,M,,*69
$PYRTM,2024,125.251619991771,16.361267401910
$GPGGA,060218.00,3514.1780,N,12152.1711,W,1,09,1.0,17.2,M,-32.5,M,,*68
$PYRTM,2024,125.251629381111,16.361276791250
$GPGGA,060219.00,3514.1783,N,12152.1717,W,1,09,1.0,15.0,M,-32.5,M,,*6C
$PYRTM,2024,125.251640956157,16.361288366296
$GPGGA,060220.00,3514.1786,N,12152.1724,W,1,09,1.0,16.6,M,-32.5,M,,*66
$PYRTM,2024,125.251652529838,16.361299939977
$GPGGA,060221.00,3514.1791,N,12152.1729,W,1,09,1.0,16.9,M,-32.5,M,,*63
$PYRTM,2024,125.251664104815,16.361311514954
$GPGGA,060222.00,3514.1797,N,12152.1733,W,1,09,1.0,15.4,M,-32.5,M,,*63
$PYRTM,2024,125.251675680289,16.361323090428
$GPGGA,060223.00,3514.1801,N,12152.1737,W,1,09,1.0,16.8,M,-32.5,M,,*69
$PYRTM,2024,125.251687254375,16.361334664514
$GPGGA,060224.00,3514.1803,N,12152.1743,W,1,09,1.0,15.6,M,-32.5,M,,*62
$PYRTM,2024,125.251698829977,16.361346240116
$GPGGA,060225.00,3514.1804,N,12152.1753,W,1,09,1.0,15.9,M,-32.5,M,,*6A
$PYRTM,2024,125.251710400243,16.361357810382
$GPGGA,060226.00,3514.1807,N,12152.1762,W,1,09,1.0,13.9,M,-32.5,M,,*6E
$PYRTM,2024,125.251721988889,16.361369399028
$GPGGA,060227.00,3514.1813,N,12152.1766,W,1,09,1.0,14.4,M,-32.5,M,,*64
$PYRTM,2024,125.251733549248,16.361380959398
$GPGGA,060228.00,3514.1819,N,12152.1768,W,1,09,1.0,15.7,M,-32.5,M,,*6D
$PYRTM,2024,125.251745123935,16.361392534074
$GPGGA,060229.00,3514.1824,N,12152.1774,W,1,09,1.0,16.2,M,-32.5,M,,*69
$PYRTM,2024,125.251756697396,16.361404107535
$GPGGA,060230.00,3514.1825,N,12152.1785,W,1,09,1.0,15.6,M,-32.5,M,,*69
$PYRTM,2024,125.251768273403,16.361415683542
$GPGGA,060231.00,3514.1826,N,12152.1796,W,1,09,1.0,13.2,M,-32.5,M,,*6B
$PYRTM,2024,125.251779841806,16.361427251956
$GPGGA,060232.00,3514.1832,N,12152.1802,W,1,09,1.0,14.5,M,-32.5,M,,*6F
$PYRTM,2024,125.251791420544,16.361438830683
$GPGGA,060233.00,3514.1841,N,12152.1804,W,1,09,1.0,13.5,M,-32.5,M,,*6B
$PYRTM,2024,125.251802994086,16.361450404225
$GPGGA,060234.00,3514.1846,N,12152.1809,W,1,09,1.0,13.3,M,-32.5,M,,*60
$PYRTM,2024,125.251814572315,16.361461982454
$GPGGA,060235.00,3514.1846,N,12152.1819,W,1,09,1.0,13.4,M,-32.5,M,,*67
$PYRTM,2024,125.251826607975,16.361474018113
$GPGGA,060236.00,3514.1845,N,12152.1830,W,1,09,1.0,15.4,M,-32.5,M,,*6A
$PYRTM,2024,125.251837715613,16.361485125752
$GPGGA,060237.00,3514.1849,N,12152.1837,W,1,09,1.0,15.8,M,-32.5,M,,*6C
$PYRTM,2024,125.251849290231,16.361496700370
$GPGGA,060238.00,3514.1859,N,12152.1840,W,1,09,1.0,13.5,M,-32.5,M,,*69
$PYRTM,2024,125.251860865405,16.361508275544
$GPGGA,060239.00,3514.1867,N,12152.1844,W,1,09,1.0,13.4,M,-32.5,M,,*60
$PYRTM,2024,125.251872433565,16.361519843704
$GPGGA,060240.00,3514.1870,N,12152.1854,W,1,09,1.0,13.7,M,-32.5,M,,*6A
$PYRTM,2024,125.251883102095,16.361530512234
$GPGGA,060241.00,3514.1869,N,12152.1864,W,1,09,1.0,13.3,M,-32.5,M,,*64
$PYRTM,2024,125.251896166042,16.361543576181
$GPGGA,060242.00,3514.1872,N,12152.1871,W,1,09,1.0,13.2,M,-32.5,M,,*68
$PYRTM,2024,125.251906802870,16.361554213009
$GPGGA,060243.00,3514.1880,N,12152.1874,W,1,09,1.0,11.0,M,-32.5,M,,*61
$PYRTM,2024,125.251917913530,16.361565323669
$GPGGA,060244.00,3514.1891,N,12152.1879,W,1,09,1.0,8.9,M,-32.5,M,,*5A
$PYRTM,2024,125.251929024907,16.361576435046
$GPGGA,060245.00,3514.1897,N,12152.1887,W,1,09,1.0,10.7,M,-32.5,M,,*6B
$PYRTM,2024,125.251940134884,16.361587545023
$GPGGA,060246.00,3514.1898,N,12152.1897,W,1,09,1.0,9.8,M,-32.5,M,,*51
$PYRTM,2024,125.251951245775,16.361598655914
$GPGGA,060247.00,3514.1898,N,12152.1904,W,1,09,1.0,10.1,M,-32.5,M,,*6A
$PYRTM,2024,125.251965842373,16.361613252512
$GPGGA,060248.00,3514.1904,N,12152.1908,W,1,09,1.0,9.8,M,-32.5,M,,*5C
$PYRTM,2024,125.251976952685,16.361624362824
$GPGGA,060249.00,3514.1912,N,12152.1914,W,1,09,1.0,9.5,M,-32.5,M,,*5A
$PYRTM,2024,125.251988063530,16.361635473669
$GPGGA,060250.00,3514.1919,N,12152.1923,W,1,09,1.0,9.8,M,-32.5,M,,*50
$PYRTM,2024,125.251999061447,16.361646471586
$GPGGA,060251.00,3514.1924,N,12152.1931,W,1,09,1.0,8.4,M,-32.5,M,,*51
$PYRTM,2024,125.252010171516,16.361657581655
$GPGGA,060252.00,3514.1926,N,12152.1936,W,1,09,1.0,8.5,M,-32.5,M,,*56
$PYRTM,2024,125.252021733218,16.361669143368
$GPGGA,060253.00,3514.1930,N,12152.1939,W,1,09,1.0,9.5,M,-32.5,M,,*5E
$PYRTM,2024,125.252033435127,16.361680845266
$GPGGA,060254.00,3514.1935,N,12152.1944,W,1,09,1.0,11.4,M,-32.5,M,,*6E
$PYRTM,2024,125.252044996620,16.361692406759
$GPGGA,060255.00,3514.1942,N,12152.1953,W,1,09,1.0,10.4,M,-32.5,M,,*68
$PYRTM,2024,125.252056582662,16.361703992801
$GPGGA,060256.00,3514.1947,N,12152.1961,W,1,09,1.0,11.8,M,-32.5,M,,*62
$PYRTM,2024,125.252068143889,16.361715554028
$GPGGA,060257.00,3514.1951,N,12152.1967,W,1,09,1.0,11.4,M,-32.5,M,,*6E
$PYRTM,2024,125.252079726655,16.361727136806
$GPGGA,060258.00,3514.1954,N,12152.1973,W,1,09,1.0,11.2,M,-32.5,M,,*67
$PYRTM,2024,125.252091291030,16.361738701169
$GPGGA,060259.00,3514.1959,N,12152.1978,W,1,09,1.0,11.6,M,-32.5,M,,*64
$PYRTM,2024,125.252102879502,16.361750289653
$GPGGA,060300.00,3514.1965,N,12152.1982,W,1,09,1.0,14.0,M,-32.5,M,,*60
$PYRTM,2024,125.252114439306,16.361761849456
$GPGGA,060301.00,3514.1971,N,12152.1989,W,1,09,1.0,13.9,M,-32.5,M,,*61
$PYRTM,2024,125.252126028819,16.361773438958
$GPGGA,060302.00,3514.1974,N,12152.1999,W,1,09,1.0,12.1,M,-32.5,M,,*6F
$PYRTM,2024,125.252137589039,16.361784999178
$GPGGA,060303.00,3514.1977,N,12152.2005,W,1,09,1.0,11.4,M,-32.5,M,,*64
$PYRTM,2024,125.252149176366,16.361796586505
$GPGGA,060304.00,3514.1983,N,12152.2008,W,1,09,1.0,14.6,M,-32.5,M,,*62
$PYRTM,2024,125.252160735856,16.361808146007
$GPGGA,060305.00,3514.1989,N,12152.2012,W,1,09,1.0,14.3,M,-32.5,M,,*67
$PYRTM,2024,125.252172659248,16.361820069387
$GPGGA,060306.00,3514.1994,N,12152.2018,W,1,09,1.0,15.9,M,-32.5,M,,*69
$PYRTM,2024,125.252184246632,16.361831656782
$GPGGA,060307.00,3514.1996,N,12152.2025,W,1,09,1.0,14.6,M,-32.5,M,,*6A
$PYRTM,2024,125.252195474456,16.361842884595
$GPGGA,060308.00,3514.1997,N,12152.2032,W,1,09,1.0,14.6,M,-32.5,M,,*62
$PYRTM,2024,125.252207034051,16.361854444201
$GPGGA,060309.00,3514.2000,N,12152.2039,W,1,09,1.0,12.5,M,-32.5,M,,*69
$PYRTM,2024,125.252218616944,16.361866027083
$GPGGA,060310.00,3514.2007,N,12152.2042,W,1,09,1.0,11.7,M,-32.5,M,,*6B
$PYRTM,2024,125.252230182812,16.361877592963
$GPGGA,060311.00,3514.2013,N,12152.2045,W,1,09,1.0,10.9,M,-32.5,M,,*67
$PYRTM,2024,125.252241652986,16.361889063125
$GPGGA,060312.00,3514.2016,N,12152.2051,W,1,09,1.0,7.6,M,-32.5,M,,*5D
$PYRTM,2024,125.252253214468,16.361900624606
$GPGGA,060313.00,3514.2016,N,12152.2061,W,1,09,1.0,9.1,M,-32.5,M,,*56
$PYRTM,2024,125.252264805127,16.361912215266
$GPGGA,060314.00,3514.2017,N,12152.2069,W,1,09,1.0,8.5,M,-32.5,M,,*5D
$PYRTM,2024,125.252276478368,16.361923888507
$GPGGA,060315.00,3514.2020,N,12152.2075,W,1,09,1.0,10.3,M,-32.5,M,,*6A
$PYRTM,2024,125.252287954016,16.361935364155
$GPGGA,060316.00,3514.2025,N,12152.2079,W,1,09,1.0,8.6,M,-32.5,M,,*5C
$PYRTM,2024,125.252300679248,16.361948089387
$GPGGA,060317.00,3514.2029,N,12152.2084,W,1,09,1.0,10.5,M,-32.5,M,,*69
$PYRTM,2024,125.252312257153,16.361959667292
$GPGGA,060318.00,3514.2030,N,12152.2093,W,1,09,1.0,10.2,M,-32.5,M,,*6F
$PYRTM,2024,125.252323831053,16.361971241192
$GPGGA,060319.00,3514.2031,N,12152.2103,W,1,09,1.0,10.8,M,-32.5,M,,*6D
$PYRTM,2024,125.252335403414,16.361982813553
$GPGGA,060320.00,3514.2035,N,12152.2109,W,1,09,1.0,9.8,M,-32.5,M,,*51
$PYRTM,2024,125.252346993206,16.361994403345
$GPGGA,060321.00,3514.2043,N,12152.2113,W,1,09,1.0,8.9,M,-32.5,M,,*5A
$PYRTM,2024,125.252358552454,16.362005962593
$GPGGA,060322.00,3514.2051,N,12152.2116,W,1,09,1.0,10.5,M,-32.5,M,,*6A
$PYRTM,2024,125.252370130035,16.362017540185
$GPGGA,060323.00,3514.2055,N,12152.2125,W,1,09,1.0,11.4,M,-32.5,M,,*6F
$PYRTM,2024,125.252381701493,16.362029111632
$GPGGA,060324.00,3514.2056,N,12152.2134,W,1,09,1.0,9.7,M,-32.5,M,,*51
$PYRTM,2024,125.252393277940,16.362040688079
$GPGGA,060325.00,3514.2060,N,12152.2143,W,1,09,1.0,9.4,M,-32.5,M,,*56
$PYRTM,2024,125.252404849491,16.362052259630
$GPGGA,060326.00,3514.2067,N,12152.2149,W,1,09,1.0,10.5,M,-32.5,M,,*61
$PYRTM,2024,125.252416425208,16.362063835347
$GPGGA,060327.00,3514.2074,N,12152.2154,W,1,09,1.0,10.2,M,-32.5,M,,*69
$PYRTM,2024,125.252427997234,16.362075407373
$GPGGA,060328.00,3514.2078,N,12152.2159,W,1,09,1.0,10.7,M,-32.5,M,,*62
$PYRTM,2024,125.252439574757,16.362086984896
$GPGGA,060329.00,3514.2077,N,12152.2167,W,1,09,1.0,9.5,M,-32.5,M,,*5B
$PYRTM,2024,125.252451147685,16.362098557824
$GPGGA,060330.00,3514.2076,N,12152.2179,W,1,09,1.0,10.1,M,-32.5,M,,*61
$PYRTM,2024,125.252462716331,16.362110126481
$GPGGA,060331.00,3514.2080,N,12152.2188,W,1,09,1.0,12.7,M,-32.5,M,,*63
$PYRTM,2024,125.252474294317,16.362121704456
$GPGGA,060332.00,3514.2087,N,12152.2191,W,1,09,1.0,11.8,M,-32.5,M,,*63
$PYRTM,2024,125.252485868079,16.362133278218
$GPGGA,060333.00,3514.2093,N,12152.2194,W,1,09,1.0,8.6,M,-32.5,M,,*54
$PYRTM,2024,125.252497444387,16.362144854525
$GPGGA,060334.00,3514.2097,N,12152.2199,W,1,09,1.0,11.0,M,-32.5,M,,*64
$PYRTM,2024,125.252509031181,16.362156441319
$GPGGA,060335.00,3514.2100,N,12152.2207,W,1,09,1.0,11.7,M,-32.5,M,,*69
$PYRTM,2024,125.252521058113,16.362168468252
$GPGGA,060336.00,3514.2103,N,12152.2216,W,1,09,1.0,12.5,M,-32.5,M,,*68
$PYRTM,2024,125.252532167627,16.362179577778
$GPGGA,060337.00,3514.2110,N,12152.2222,W,1,09,1.0,14.5,M,-32.5,M,,*6A
$PYRTM,2024,125.252543738519,16.362191148669
$GPGGA,060338.00,3514.2117,N,12152.2226,W,1,09,1.0,12.2,M,-32.5,M,,*67
$PYRTM,2024,125.252555313426,16.362202723565
$GPGGA,060339.00,3514.2122,N,12152.2231,W,1,09,1.0,13.0,M,-32.5,M,,*65
$PYRTM,2024,125.252566887778,16.362214297917
$GPGGA,060340.00,3514.2126,N,12152.2239,W,1,09,1.0,12.4,M,-32.5,M,,*62
$PYRTM,2024,125.252578461389,16.362225871528
$GPGGA,060341.00,3514.2128,N,12152.2248,W,1,09,1.0,13.2,M,-32.5,M,,*6C
$PYRTM,2024,125.252590035220,16.362237445359
$GPGGA,060342.00,3514.2132,N,12152.2256,W,1,09,1.0,11.0,M,-32.5,M,,*6B
$PYRTM,2024,125.252601610752,16.362249020891
$GPGGA,060343.00,3514.2139,N,12152.2263,W,1,09,1.0,11.0,M,-32.5,M,,*67
$PYRTM,2024,125.252613184236,16.362260594375
$GPGGA,060344.00,3514.2146,N,12152.2268,W,1,09,1.0,12.0,M,-32.5,M,,*60
$PYRTM,2024,125.252624757720,16.362272167859
$GPGGA,060345.00,3514.2150,N,12152.2275,W,1,09,1.0,9.8,M,-32.5,M,,*58
$PYRTM,2024,125.252636331609,16.362283741748
$GPGGA,060346.00,3514.2153,N,12152.2282,W,1,09,1.0,10.6,M,-32.5,M,,*66
$PYRTM,2024,125.252649051713,16.362296461852
$GPGGA,060347.00,3514.2156,N,12152.2289,W,1,09,1.0,13.1,M,-32.5,M,,*6D
$PYRTM,2024,125.252661663854,16.362309073993
$GPGGA,060348.00,3514.2161,N,12152.2294,W,1,09,1.0,12.7,M,-32.5,M,,*6D
$PYRTM,2024,125.252671053426,16.362318463565
$GPGGA,060349.00,3514.2167,N,12152.2299,W,1,09,1.0,10.5,M,-32.5,M,,*67
$PYRTM,2024,125.252682628553,16.362330038692
$GPGGA,060350.00,3514.2173,N,12152.2305,W,1,09,1.0,12.2,M,-32.5,M,,*6B
$PYRTM,2024,125.252694217824,16.362341627963
$GPGGA,060351.00,3514.2175,N,12152.2315,W,1,09,1.0,11.0,M,-32.5,M,,*6C
$PYRTM,2024,125.252705772396,16.362353182535
$GPGGA,060352.00,3514.2176,N,12152.2323,W,1,09,1.0,10.0,M,-32.5,M,,*68
$PYRTM,2024,125.252717365637,16.362364775775
$GPGGA,060353.00,3514.2180,N,12152.2327,W,1,09,1.0,12.7,M,-32.5,M,,*61
$PYRTM,2024,125.252728926227,16.362376336366
$GPGGA,060354.00,3514.2189,N,12152.2332,W,1,09,1.0,11.2,M,-32.5,M,,*6D
$PYRTM,2024,125.252740499641,16.362387909780
$GPGGA,060355.00,3514.2195,N,12152.2339,W,1,09,1.0,11.8,M,-32.5,M,,*60
$PYRTM,2024,125.252752075984,16.362399486123
$GPGGA,060356.00,3514.2195,N,12152.2349,W,1,09,1.0,10.3,M,-32.5,M,,*6E
$PYRTM,2024,125.252764112141,16.362411522280
$GPGGA,060357.00,3514.2193,N,12152.2357,W,1,09,1.0,12.2,M,-32.5,M,,*65
$PYRTM,2024,125.252775222847,16.362422632986
$GPGGA,060358.00,3514.2195,N,12152.2363,W,1,09,1.0,15.0,M,-32.5,M,,*6E
$PYRTM,2024,125.252786795567,16.362434205706
$GPGGA,060359.00,3514.2202,N,12152.2369,W,1,09,1.0,13.1,M,-32.5,M,,*6F
$PYRTM,2024,125.252798369514,16.362445779653
$GPGGA,060400.00,3514.2209,N,12152.2375,W,1,09,1.0,11.5,M,-32.5,M,,*64
$PYRTM,2024,125.252809943368,16.362457353507
$GPGGA,060401.00,3514.2214,N,12152.2383,W,1,09,1.0,12.4,M,-32.5,M,,*62
$PYRTM,2024,125.252821518275,16.362468928414
$GPGGA,060402.00,3514.2216,N,12152.2390,W,1,09,1.0,12.3,M,-32.5,M,,*66
$PYRTM,2024,125.252833096076,16.362480506215
$GPGGA,060403.00,3514.2218,N,12152.2397,W,1,09,1.0,10.3,M,-32.5,M,,*6C
$PYRTM,2024,125.252844665822,16.362492075961
$GPGGA,060404.00,3514.2223,N,12152.2404,W,1,09,1.0,8.5,M,-32.5,M,,*51
$PYRTM,2024,125.252856255417,16.362503665556
$GPGGA,060405.00,3514.2232,N,12152.2410,W,1,09,1.0,10.3,M,-32.5,M,,*6A
$PYRTM,2024,125.252868278426,16.362515688565
$GPGGA,060406.00,3514.2240,N,12152.2414,W,1,09,1.0,10.1,M,-32.5,M,,*6A
$PYRTM,2024,125.252879389097,16.362526799236
$GPGGA,060407.00,3514.2245,N,12152.2419,W,1,09,1.0,10.2,M,-32.5,M,,*60
$PYRTM,2024,125.252890962731,16.362538372870
$GPGGA,060408.00,3514.2247,N,12152.2428,W,1,09,1.0,11.7,M,-32.5,M,,*6B
$PYRTM,2024,125.252902538160,16.362549948299
$GPGGA,060409.00,3514.2250,N,12152.2437,W,1,09,1.0,12.0,M,-32.5,M,,*66
$PYRTM,2024,125.252914111053,16.362561521192
$GPGGA,060410.00,3514.2255,N,12152.2443,W,1,09,1.0,11.3,M,-32.5,M,,*68
$PYRTM,2024,125.252925685382,16.362573095521
$GPGGA,060411.00,3514.2261,N,12152.2447,W,1,09,1.0,10.4,M,-32.5,M,,*6C
$PYRTM,2024,125.252937259016,16.362584669155
$GPGGA,060412.00,3514.2267,N,12152.2451,W,1,09,1.0,11.8,M,-32.5,M,,*63
$PYRTM,2024,125.252948836169,16.362596246308
$GPGGA,060413.00,3514.2271,N,12152.2457,W,1,09,1.0,12.2,M,-32.5,M,,*6A
$PYRTM,2024,125.252960408032,16.362607818171
$GPGGA,060414.00,3514.2272,N,12152.2466,W,1,09,1.0,10.9,M,-32.5,M,,*65
$PYRTM,2024,125.252971981181,16.362619391319
$GPGGA,060415.00,3514.2273,N,12152.2474,W,1,09,1.0,12.4,M,-32.5,M,,*69
$PYRTM,2024,125.252983556366,16.362630966505
$GPGGA,060416.00,3514.2277,N,12152.2481,W,1,09,1.0,10.9,M,-32.5,M,,*6B
$PYRTM,2024,125.252996159734,16.362643569873
$GPGGA,060417.00,3514.2283,N,12152.2488,W,1,09,1.0,13.6,M,-32.5,M,,*64
$PYRTM,2024,125.253008889062,16.362656299201
$GPGGA,060418.00,3514.2289,N,12152.2493,W,1,09,1.0,13.4,M,-32.5,M,,*69
$PYRTM,2024,125.253018281354,16.362665691481
$GPGGA,060419.00,3514.2292,N,12152.2499,W,1,09,1.0,15.1,M,-32.5,M,,*6B
$PYRTM,2024,125.253029852512,16.362677262650
$GPGGA,060420.00,3514.2295,N,12152.2507,W,1,09,1.0,13.9,M,-32.5,M,,*6E
$PYRTM,2024,125.253041430069,16.362688840208
$GPGGA,060421.00,3514.2296,N,12152.2516,W,1,09,1.0,10.5,M,-32.5,M,,*63
$PYRTM,2024,125.253053001088,16.362700411227
$GPGGA,060422.00,3514.2299,N,12152.2523,W,1,09,1.0,10.5,M,-32.5,M,,*69
$PYRTM,2024,125.253064575255,16.362711985394
$GPGGA,060423.00,3514.2307,N,12152.2528,W,1,09,1.0,12.9,M,-32.5,M,,*6B
$PYRTM,2024,125.253076149433,16.362723559583
$GPGGA,060424.00,3514.2314,N,12152.2532,W,1,09,1.0,10.2,M,-32.5,M,,*6C
$PYRTM,2024,125.253087723611,16.362735133750
$GPGGA,060425.00,3514.2318,N,12152.2538,W,1,09,1.0,9.1,M,-32.5,M,,*50
$PYRTM,2024,125.253099298391,16.362746708542
$GPGGA,060426.00,3514.2318,N,12152.2549,W,1,09,1.0,8.1,M,-32.5,M,,*54
$PYRTM,2024,125.253110872326,16.362758282477
$GPGGA,060427.00,3514.2319,N,12152.2561,W,1,09,1.0,9.7,M,-32.5,M,,*59
$PYRTM,2024,125.253122445220,16.362769855359
$GPGGA,060428.00,3514.2326,N,12152.2568,W,1,09,1.0,10.3,M,-32.5,M,,*6F
$PYRTM,2024,125.253134019479,16.362781429618
$GPGGA,060429.00,3514.2334,N,12152.2570,W,1,09,1.0,11.3,M,-32.5,M,,*65
$PYRTM,2024,125.253145594201,16.362793004340
$GPGGA,060430.00,3514.2340,N,12152.2574,W,1,09,1.0,9.9,M,-32.5,M,,*59
$PYRTM,2024,125.253157183183,16.362804593322
$GPGGA,060431.00,3514.2342,N,12152.2584,W,1,09,1.0,12.3,M,-32.5,M,,*65
$PYRTM,2024,125.253168742199,16.362816152338
$GPGGA,060432.00,3514.2342,N,12152.2596,W,1,09,1.0,11.4,M,-32.5,M,,*61
$PYRTM,2024,125.253180330301,16.362827740440
$GPGGA,060433.00,3514.2345,N,12152.2603,W,1,09,1.0,11.9,M,-32.5,M,,*65
$PYRTM,2024,125.253191889664,16.362839299803
$GPGGA,060434.00,3514.2352,N,12152.2605,W,1,09,1.0,13.9,M,-32.5,M,,*60
$PYRTM,2024,125.253203480139,16.362850890278
$GPGGA,060435.00,3514.2360,N,12152.2609,W,1,09,1.0,11.1,M,-32.5,M,,*66
$PYRTM,2024,125.253215502650,16.362862912789
$GPGGA,060436.00,3514.2365,N,12152.2616,W,1,09,1.0,10.3,M,-32.5,M,,*6D
$PYRTM,2024,125.253226612662,16.362874022801
$GPGGA,060437.00,3514.2366,N,12152.2625,W,1,09,1.0,11.8,M,-32.5,M,,*65
$PYRTM,2024,125.253238186354,16.362885596493
$GPGGA,060438.00,3514.2366,N,12152.2634,W,1,09,1.0,11.4,M,-32.5,M,,*66
$PYRTM,2024,125.253249761481,16.362897171620
$GPGGA,060439.00,3514.2371,N,12152.2642,W,1,09,1.0,10.2,M,-32.5,M,,*67
$PYRTM,2024,125.253261335417,16.362908745556
$GPGGA,060440.00,3514.2379,N,12152.2648,W,1,09,1.0,9.3,M,-32.5,M,,*52
$PYRTM,2024,125.253272909664,16.362920319803
$GPGGA,060441.00,3514.2384,N,12152.2654,W,1,09,1.0,9.5,M,-32.5,M,,*5A
$PYRTM,2024,125.253284483715,16.362931893854
$GPGGA,060442.00,3514.2385,N,12152.2661,W,1,09,1.0,8.2,M,-32.5,M,,*58
$PYRTM,2024,125.253296059537,16.362943469676
$GPGGA,060443.00,3514.2387,N,12152.2669,W,1,09,1.0,8.3,M,-32.5,M,,*52
$PYRTM,2024,125.253307632049,16.362955042188
$GPGGA,060444.00,3514.2392,N,12152.2676,W,1,09,1.0,9.1,M,-32.5,M,,*5C
$PYRTM,2024,125.253319202118,16.362966612257
$GPGGA,060445.00,3514.2398,N,12152.2682,W,1,09,1.0,9.9,M,-32.5,M,,*54
$PYRTM,2024,125.253329854595,16.362977264734
$GPGGA,060446.00,3514.2402,N,12152.2686,W,1,09,1.0,10.0,M,-32.5,M,,*66
$PYRTM,2024,125.253342818519,16.362990228669
$GPGGA,060447.00,3514.2406,N,12152.2690,W,1,09,1.0,9.0,M,-32.5,M,,*5C
$PYRTM,2024,125.253353223090,16.363000633229
$GPGGA,060448.00,3514.2410,N,12152.2696,W,1,09,1.0,9.6,M,-32.5,M,,*54
$PYRTM,2024,125.253369772662,16.363017182801
$GPGGA,060449.00,3514.2414,N,12152.2705,W,1,09,1.0,10.6,M,-32.5,M,,*62
$PYRTM,2024,125.253380884155,16.363028294294
$GPGGA,060450.00,3514.2419,N,12152.2713,W,1,09,1.0,10.6,M,-32.5,M,,*60
$PYRTM,2024,125.253391997049,16.363039407188
$GPGGA,060451.00,3514.2424,N,12152.2718,W,1,09,1.0,13.2,M,-32.5,M,,*63
$PYRTM,2024,125.253403107870,16.363050518009
$GPGGA,060452.00,3514.2428,N,12152.2724,W,1,09,1.0,13.3,M,-32.5,M,,*62
$PYRTM,2024,125.253414220255,16.363061630394
$GPGGA,060453.00,3514.2430,N,12152.2733,W,1,09,1.0,11.0,M,-32.5,M,,*6D
$PYRTM,2024,125.253425327940,16.363072738079
$GPGGA,060454.00,3514.2432,N,12152.2743,W,1,09,1.0,11.8,M,-32.5,M,,*67
$PYRTM,2024,125.253436442199,16.363083852338
$GPGGA,060455.00,3514.2437,N,12152.2750,W,1,09,1.0,9.6,M,-32.5,M,,*56
$PYRTM,2024,125.253447552037,16.363094962176
$GPGGA,060456.00,3514.2442,N,12152.2755,W,1,09,1.0,12.7,M,-32.5,M,,*69
$PYRTM,2024,125.253458662535,16.363106072674
$GPGGA,060457.00,3514.2447,N,12152.2761,W,1,09,1.0,13.9,M,-32.5,M,,*65
$PYRTM,2024,125.253469773438,16.363117183588
$GPGGA,060458.00,3514.2450,N,12152.2767,W,1,09,1.0,13.9,M,-32.5,M,,*6A
$PYRTM,2024,125.253480884896,16.363128295035
$GPGGA,060459.00,3514.2453,N,12152.2774,W,1,09,1.0,13.4,M,-32.5,M,,*67
$PYRTM,2024,125.253491995532,16.363139405671
$GPGGA,060500.00,3514.2458,N,12152.2780,W,1,09,1.0,12.1,M,-32.5,M,,*6E
$PYRTM,2024,125.253503108287,16.363150518426
$GPGGA,060501.00,3514.2464,N,12152.2784,W,1,09,1.0,12.3,M,-32.5,M,,*66
$PYRTM,2024,125.253514333981,16.363161744120
$GPGGA,060502.00,3514.2470,N,12152.2788,W,1,09,1.0,12.5,M,-32.5,M,,*6A
$PYRTM,2024,125.253525800660,16.363173210799
$GPGGA,060503.00,3514.2474,N,12152.2795,W,1,09,1.0,11.5,M,-32.5,M,,*60
$PYRTM,2024,125.253537367269,16.363184777407
$GPGGA,060504.00,3514.2479,N,12152.2802,W,1,09,1.0,13.7,M,-32.5,M,,*6B
$PYRTM,2024,125.253548954641,16.363196364780
$GPGGA,060505.00,3514.2484,N,12152.2809,W,1,09,1.0,14.3,M,-32.5,M,,*60
$PYRTM,2024,125.253560992060,16.363208402211
$GPGGA,060506.00,3514.2491,N,12152.2815,W,1,09,1.0,13.6,M,-32.5,M,,*68
$PYRTM,2024,125.253572102384,16.363219512523
$GPGGA,060507.00,3514.2496,N,12152.2821,W,1,09,1.0,16.1,M,-32.5,M,,*6B
$PYRTM,2024,125.253583663657,16.363231073796
$GPGGA,060508.00,3514.2503,N,12152.2827,W,1,08,1.0,13.7,M,-32.5,M,,*6D
$PYRTM,2024,125.253595250012,16.363242660150
$GPGGA,060509.00,3514.2508,N,12152.2833,W,1,08,1.0,15.2,M,-32.5,M,,*61
$PYRTM,2024,125.253606812998,16.363254223148
$GPGGA,060510.00,3514.2511,N,12152.2840,W,1,08,1.0,15.8,M,-32.5,M,,*6F
$PYRTM,2024,125.253618400370,16.363265810509
$GPGGA,060511.00,3514.2514,N,12152.2847,W,1,08,1.0,14.4,M,-32.5,M,,*61
$PYRTM,2024,125.253629960000,16.363277370139
$GPGGA,060512.00,3514.2518,N,12152.2853,W,1,08,1.0,14.0,M,-32.5,M,,*6F
$PYRTM,2024,125.253641547755,16.363288957894
$GPGGA,060513.00,3514.2526,N,12152.2859,W,1,08,1.0,12.4,M,-32.5,M,,*6B
$PYRTM,2024,125.253653108067,16.363300518218
$GPGGA,060514.00,3514.2532,N,12152.2866,W,1,08,1.0,12.6,M,-32.5,M,,*67
$PYRTM,2024,125.253664698125,16.363312108264
$GPGGA,060515.00,3514.2535,N,12152.2873,W,1,08,1.0,12.7,M,-32.5,M,,*64
$PYRTM,2024,125.253676257164,16.363323667315
$GPGGA,060516.00,3514.2538,N,12152.2878,W,1,08,1.0,12.8,M,-32.5,M,,*6E
$PYRTM,2024,125.253689000475,16.363336410613
$GPGGA,060517.00,3514.2542,N,12152.2884,W,1,08,1.0,14.0,M,-32.5,M,,*6F
$PYRTM,2024,125.253699998044,16.363347408183
$GPGGA,060518.00,3514.2549,N,12152.2891,W,1,08,1.0,14.4,M,-32.5,M,,*6B
$PYRTM,2024,125.253711558044,16.363358968194
$GPGGA,060519.00,3514.2555,N,12152.2898,W,1,08,1.0,13.9,M,-32.5,M,,*64
$PYRTM,2024,125.253723147176,16.363370557315
$GPGGA,060520.00,3514.2557,N,12152.2906,W,1,08,1.0,13.4,M,-32.5,M,,*67
$PYRTM,2024,125.253734705162,16.363382115301
$GPGGA,060521.00,3514.2559,N,12152.2913,W,1,08,1.0,14.1,M,-32.5,M,,*6E
$PYRTM,2024,125.253746408542,16.363393818681
$GPGGA,060522.00,3514.2564,N,12152.2920,W,1,08,1.0,12.9,M,-32.5,M,,*6D
$PYRTM,2024,125.253757853530,16.363405263669
$GPGGA,060523.00,3514.2570,N,12152.2928,W,1,08,1.0,14.4,M,-32.5,M,,*6A
$PYRTM,2024,125.253769440764,16.363416850903
$GPGGA,060524.00,3514.2573,N,12152.2936,W,1,08,1.0,12.9,M,-32.5,M,,*6A
$PYRTM,2024,125.253781117986,16.363428528125
$GPGGA,060525.00,3514.2576,N,12152.2945,W,1,08,1.0,10.0,M,-32.5,M,,*61
$PYRTM,2024,125.253792704537,16.363440114676
$GPGGA,060526.00,3514.2581,N,12152.2952,W,1,08,1.0,10.3,M,-32.5,M,,*6F
$PYRTM,2024,125.253804149954,16.363451560093
$GPGGA,060527.00,3514.2586,N,12152.2957,W,1,08,1.0,12.3,M,-32.5,M,,*6E
$PYRTM,2024,125.253815737882,16.363463148021
$GPGGA,060528.00,3514.2592,N,12152.2963,W,1,08,1.0,10.5,M,-32.5,M,,*67
$PYRTM,2024,125.253827298646,16.363474708785
$GPGGA,060529.00,3514.2597,N,12152.2969,W,1,08,1.0,11.8,M,-32.5,M,,*65
$PYRTM,2024,125.253838886030,16.363486296169
$GPGGA,060530.00,3514.2602,N,12152.2976,W,1,08,1.0,14.0,M,-32.5,M,,*61
$PYRTM,2024,125.253850447118,16.363497857292
$GPGGA,060531.00,3514.2607,N,12152.2984,W,1,08,1.0,14.0,M,-32.5,M,,*68
$PYRTM,2024,125.253862034560,16.363509444699
$GPGGA,060532.00,3514.2611,N,12152.2991,W,1,08,1.0,14.5,M,-32.5,M,,*6D
$PYRTM,2024,125.253873594630,16.363521004769
$GPGGA,060533.00,3514.2615,N,12152.2997,W,1,08,1.0,14.5,M,-32.5,M,,*6E
$PYRTM,2024,125.253885183461,16.363532593600
$GPGGA,060534.00,3514.2621,N,12152.3004,W,1,08,1.0,12.7,M,-32.5,M,,*68
$PYRTM,2024,125.253896743403,16.363544153542
$GPGGA,060535.00,3514.2626,N,12152.3010,W,1,08,1.0,13.0,M,-32.5,M,,*6D
$PYRTM,2024,125.253908783090,16.363556193241
$GPGGA,060536.00,3514.2629,N,12152.3017,W,1,08,1.0,12.6,M,-32.5,M,,*61
$PYRTM,2024,125.253920370312,16.363567780451
$GPGGA,060537.00,3514.2632,N,12152.3026,W,1,08,1.0,11.5,M,-32.5,M,,*68
$PYRTM,2024,125.253931590718,16.363579000868
$GPGGA,060538.00,3514.2638,N,12152.3034,W,1,08,1.0,12.9,M,-32.5,M,,*61
$PYRTM,2024,125.253943041493,16.363590451632
$GPGGA,060539.00,3514.2646,N,12152.3041,W,1,08,1.0,13.7,M,-32.5,M,,*64
$PYRTM,2024,125.253954630590,16.363602040729
$GPGGA,060540.00,3514.2652,N,12152.3045,W,1,08,1.0,13.6,M,-32.5,M,,*6A
$PYRTM,2024,125.253966189028,16.363613599178
$GPGGA,060541.00,3514.2656,N,12152.3049,W,1,08,1.0,15.8,M,-32.5,M,,*6B
$PYRTM,2024,125.253977776088,16.363625186227
$GPGGA,060542.00,3514.2659,N,12152.3055,W,1,08,1.0,12.8,M,-32.5,M,,*6D
$PYRTM,2024,125.253989336620,16.363636746771
$GPGGA,060543.00,3514.2663,N,12152.3067,W,1,08,1.0,13.1,M,-32.5,M,,*6C
$PYRTM,2024,125.254000924711,16.363648334850
$GPGGA,060544.00,3514.2668,N,12152.3080,W,1,08,1.0,13.1,M,-32.5,M,,*69
$PYRTM,2024,125.254012486111,16.363659896250
$GPGGA,060545.00,3514.2673,N,12152.3088,W,1,08,1.0,12.4,M,-32.5,M,,*6E
$PYRTM,2024,125.254024072095,16.363671482234
$GPGGA,060546.00,3514.2679,N,12152.3089,W,1,08,1.0,15.1,M,-32.5,M,,*64
$PYRTM,2024,125.254036804062,16.363684214201
$GPGGA,060547.00,3514.2683,N,12152.3091,W,1,08,1.0,15.4,M,-32.5,M,,*6C
$PYRTM,2024,125.254048378171,16.363695788310
$GPGGA,060548.00,3514.2684,N,12152.3100,W,1,08,1.0,13.3,M,-32.5,M,,*6C
$PYRTM,2024,125.254059953565,16.363707363704
$GPGGA,060549.00,3514.2684,N,12152.3113,W,1,08,1.0,13.5,M,-32.5,M,,*69
$PYRTM,2024,125.254071514155,16.363718924294
$GPGGA,060550.00,3514.2687,N,12152.3123,W,1,08,1.0,12.8,M,-32.5,M,,*6D
$PYRTM,2024,125.254083100058,16.363730510197
$GPGGA,060551.00,3514.2692,N,12152.3126,W,1,08,1.0,14.3,M,-32.5,M,,*60
$PYRTM,2024,125.254094675417,16.363742085556
$GPGGA,060552.00,3514.2697,N,12152.3125,W,1,08,1.0,13.3,M,-32.5,M,,*62
$PYRTM,2024,125.254106250683,16.363753660822
$GPGGA,060553.00,3514.2702,N,12152.3131,W,1,08,1.0,13.8,M,-32.5,M,,*60
$PYRTM,2024,125.254117821389,16.363765231528
$GPGGA,060554.00,3514.2706,N,12152.3140,W,1,08,1.0,14.2,M,-32.5,M,,*68
$PYRTM,2024,125.254129397558,16.363776807697
$GPGGA,060555.00,3514.2707,N,12152.3149,W,1,08,1.0,16.1,M,-32.5,M,,*60
$PYRTM,2024,125.254140970162,16.363788380301
$GPGGA,060556.00,3514.2710,N,12152.3154,W,1,08,1.0,18.0,M,-32.5,M,,*66
$PYRTM,2024,125.254152559757,16.363799969896
$GPGGA,060557.00,3514.2715,N,12152.3158,W,1,08,1.0,16.2,M,-32.5,M,,*62
$PYRTM,2024,125.254164119537,16.363811529676
$GPGGA,060558.00,3514.2721,N,12152.3163,W,1,08,1.0,16.5,M,-32.5,M,,*65
$PYRTM,2024,125.254175697025,16.363823107164
$GPGGA,060559.00,3514.2728,N,12152.3168,W,1,08,1.0,15.1,M,-32.5,M,,*61
$PYRTM,2024,125.254187266806,16.363834676944
$GPGGA,060600.00,3514.2731,N,12152.3175,W,1,08,1.0,17.7,M,-32.5,M,,*6E
$PYRTM,2024,125.254198842338,16.363846252477
$GPGGA,060601.00,3514.2733,N,12152.3184,W,1,08,1.0,17.1,M,-32.5,M,,*65
$PYRTM,2024,125.254210411273,16.363857821412
$GPGGA,060602.00,3514.2734,N,12152.3192,W,1,08,1.0,16.2,M,-32.5,M,,*64
$PYRTM,2024,125.254221994479,16.363869404618
$GPGGA,060603.00,3514.2740,N,12152.3199,W,1,08,1.0,15.4,M,-32.5,M,,*68
$PYRTM,2024,125.254233564190,16.363880974340
$GPGGA,060604.00,3514.2748,N,12152.3205,W,1,08,1.0,15.4,M,-32.5,M,,*61
$PYRTM,2024,125.254245139282,16.363892549421
$GPGGA,060605.00,3514.2753,N,12152.3213,W,1,08,1.0,15.8,M,-32.5,M,,*61
$PYRTM,2024,125.254257178819,16.363904588970
$GPGGA,060606.00,3514.2753,N,12152.3219,W,1,08,1.0,15.9,M,-32.5,M,,*69
$PYRTM,2024,125.254268286620,16.363915696759
$GPGGA,060607.00,3514.2753,N,12152.3223,W,1,08,1.0,15.9,M,-32.5,M,,*61
$PYRTM,2024,125.254279860324,16.363927270463
$GPGGA,060608.00,3514.2758,N,12152.3229,W,1,08,1.0,15.3,M,-32.5,M,,*65
$PYRTM,2024,125.254291436678,16.363938846817
$GPGGA,060609.00,3514.2763,N,12152.3239,W,1,08,1.0,12.3,M,-32.5,M,,*6A
$PYRTM,2024,125.254303009063,16.363950419201
$GPGGA,060610.00,3514.2767,N,12152.3249,W,1,08,1.0,10.4,M,-32.5,M,,*64
$PYRTM,2024,125.254314586655,16.363961996794
$GPGGA,060611.00,3514.2768,N,12152.3255,W,1,08,1.0,10.4,M,-32.5,M,,*67
$PYRTM,2024,125.254326156968,16.363973567106
$GPGGA,060612.00,3514.2770,N,12152.3260,W,1,08,1.0,8.8,M,-32.5,M,,*5E
$PYRTM,2024,125.254337746354,16.363985156493
$GPGGA,060613.00,3514.2778,N,12152.3265,W,1,08,1.0,7.5,M,-32.5,M,,*50
$PYRTM,2024,125.254349304965,16.363996715104
$GPGGA,060614.00,3514.2784,N,12152.3273,W,1,08,1.0,4.3,M,-32.5,M,,*56
$PYRTM,2024,125.254360880370,16.364008290509
$GPGGA,060615.00,3514.2786,N,12152.3280,W,1,08,1.0,6.1,M,-32.5,M,,*59
$PYRTM,2024,125.254372453611,16.364019863750
$GPGGA,060616.00,3514.2786,N,12152.3289,W,1,08,1.0,6.5,M,-32.5,M,,*57
$PYRTM,2024,125.254385057859,16.364032468009
$GPGGA,060617.00,3514.2791,N,12152.3295,W,1,08,1.0,5.8,M,-32.5,M,,*53
$PYRTM,2024,125.254397787407,16.364045197546
$GPGGA,060618.00,3514.2797,N,12152.3299,W,1,08,1.0,8.6,M,-32.5,M,,*55
$PYRTM,2024,125.254407178426,16.364054588565
$GPGGA,060619.00,3514.2802,N,12152.3303,W,1,08,1.0,10.3,M,-32.5,M,,*69
$PYRTM,2024,125.254418750405,16.364066160544
$GPGGA,060620.00,3514.2805,N,12152.3310,W,1,08,1.0,10.3,M,-32.5,M,,*66
$PYRTM,2024,125.254430325150,16.364077735289
$GPGGA,060621.00,3514.2809,N,12152.3318,W,1,08,1.0,10.2,M,-32.5,M,,*62
$PYRTM,2024,125.254441896273,16.364089306412
$GPGGA,060622.00,3514.2815,N,12152.3323,W,1,08,1.0,11.9,M,-32.5,M,,*6E
$PYRTM,2024,125.254453468900,16.364100879051
$GPGGA,060623.00,3514.2820,N,12152.3328,W,1,08,1.0,11.4,M,-32.5,M,,*6F
$PYRTM,2024,125.254465046470,16.364112456609
$GPGGA,060624.00,3514.2827,N,12152.3333,W,1,08,1.0,12.2,M,-32.5,M,,*60
$PYRTM,2024,125.254476635984,16.364124046123
$GPGGA,060625.00,3514.2831,N,12152.3341,W,1,08,1.0,14.9,M,-32.5,M,,*6E
$PYRTM,2024,125.254488195486,16.364135605625
$GPGGA,060626.00,3514.2834,N,12152.3350,W,1,08,1.0,16.6,M,-32.5,M,,*65
$PYRTM,2024,125.254500232963,16.364147643102
$GPGGA,060627.00,3514.2840,N,12152.3355,W,1,08,1.0,19.0,M,-32.5,M,,*6B
$PYRTM,2024,125.254511343866,16.364158754005
$GPGGA,060628.00,3514.2845,N,12152.3362,W,1,08,1.0,18.1,M,-32.5,M,,*65
$PYRTM,2024,125.254522920671,16.364170330810
$GPGGA,060629.00,3514.2848,N,12152.3370,W,1,08,1.0,17.2,M,-32.5,M,,*66
$PYRTM,2024,125.254534491979,16.364181902118
$GPGGA,060630.00,3514.2849,N,12152.3378,W,1,08,1.0,14.5,M,-32.5,M,,*63
$PYRTM,2024,125.254546066123,16.364193476262
$GPGGA,060631.00,3514.2853,N,12152.3382,W,1,08,1.0,15.6,M,-32.5,M,,*6E
$PYRTM,2024,125.254557641424,16.364205051563
$GPGGA,060632.00,3514.2859,N,12152.3384,W,1,08,1.0,16.7,M,-32.5,M,,*63
$PYRTM,2024,125.254569210208,16.364216620359
$GPGGA,060633.00,3514.2864,N,12152.3388,W,1,08,1.0,14.9,M,-32.5,M,,*6C
$PYRTM,2024,125.254580788576,16.364228198715
$GPGGA,060634.00,3514.2865,N,12152.3397,W,1,08,1.0,15.9,M,-32.5,M,,*65
$PYRTM,2024,125.254592362593,16.364239772731
$GPGGA,060635.00,3514.2866,N,12152.3407,W,1,08,1.0,14.5,M,-32.5,M,,*64
$PYRTM,2024,125.254604400868,16.364251811007
$GPGGA,060636.00,3514.2869,N,12152.3412,W,1,08,1.0,12.5,M,-32.5,M,,*6A
$PYRTM,2024,125.254615510984,16.364262921123
$GPGGA,060637.00,3514.2875,N,12152.3413,W,1,08,1.0,14.7,M,-32.5,M,,*63
$PYRTM,2024,125.254627084653,16.364274494803
$GPGGA,060638.00,3514.2880,N,12152.3414,W,1,08,1.0,14.7,M,-32.5,M,,*61
$PYRTM,2024,125.254638662049,16.364286072188
$GPGGA,060639.00,3514.2881,N,12152.3419,W,1,08,1.0,13.0,M,-32.5,M,,*6C
$PYRTM,2024,125.254650234363,16.364297644502
$GPGGA,060640.00,3514.2880,N,12152.3432,W,1,08,1.0,13.1,M,-32.5,M,,*6B
$PYRTM,2024,125.254661821863,16.364309232002
$GPGGA,060641.00,3514.2882,N,12152.3443,W,1,08,1.0,12.8,M,-32.5,M,,*66
$PYRTM,2024,125.254673382396,16.364320792535
$GPGGA,060642.00,3514.2889,N,12152.3448,W,1,08,1.0,12.7,M,-32.5,M,,*6A
$PYRTM,2024,125.254684955961,16.364332366100
$GPGGA,060643.00,3514.2898,N,12152.3447,W,1,08,1.0,12.0,M,-32.5,M,,*63
$PYRTM,2024,125.254696531331,16.364343941481
$GPGGA,060644.00,3514.2903,N,12152.3449,W,1,08,1.0,12.2,M,-32.5,M,,*6B
$PYRTM,2024,125.254708098484,16.364355508623
$GPGGA,060645.00,3514.2904,N,12152.3457,W,1,08,1.0,13.4,M,-32.5,M,,*65
$PYRTM,2024,125.254719673090,16.364367083229
$GPGGA,060646.00,3514.2905,N,12152.3469,W,1,08,1.0,10.8,M,-32.5,M,,*65
$PYRTM,2024,125.254732281829,16.364379691968
$GPGGA,060647.00,3514.2909,N,12152.3478,W,1,08,1.0,10.8,M,-32.5,M,,*68
$PYRTM,2024,125.254745010231,16.364392420370
$GPGGA,060648.00,3514.2917,N,12152.3481,W,1,08,1.0,11.9,M,-32.5,M,,*6E
$PYRTM,2024,125.254754400856,16.364401810995
$GPGGA,060649.00,3514.2924,N,12152.3483,W,1,08,1.0,13.0,M,-32.5,M,,*66
$PYRTM,2024,125.254765974537,16.364413384687
$GPGGA,060650.00,3514.2928,N,12152.3488,W,1,08,1.0,13.0,M,-32.5,M,,*69
$PYRTM,2024,125.254776607627,16.364424017766
$GPGGA,060651.00,3514.2929,N,12152.3499,W,1,08,1.0,13.2,M,-32.5,M,,*6B
$PYRTM,2024,125.254789571146,16.364436981285
$GPGGA,060652.00,3514.2931,N,12152.3509,W,1,08,1.0,14.3,M,-32.5,M,,*6F
$PYRTM,2024,125.254800348472,16.364447758611
$GPGGA,060653.00,3514.2936,N,12152.3516,W,1,08,1.0,13.9,M,-32.5,M,,*6A
$PYRTM,2024,125.254811461319,16.364458871458
$GPGGA,060654.00,3514.2944,N,12152.3521,W,1,08,1.0,13.9,M,-32.5,M,,*6C
$PYRTM,2024,125.254822571470,16.364469981609
$GPGGA,060655.00,3514.2948,N,12152.3526,W,1,08,1.0,13.8,M,-32.5,M,,*67
$PYRTM,2024,125.254833677743,16.364481087882
$GPGGA,060656.00,3514.2951,N,12152.3531,W,1,08,1.0,14.4,M,-32.5,M,,*61
$PYRTM,2024,125.254844794120,16.364492204259
$GPGGA,060657.00,3514.2954,N,12152.3538,W,1,08,1.0,15.8,M,-32.5,M,,*61
$PYRTM,2024,125.254855906968,16.364503317106
$GPGGA,060658.00,3514.2959,N,12152.3546,W,1,08,1.0,14.5,M,-32.5,M,,*66
$PYRTM,2024,125.254867013819,16.364514423958
$GPGGA,060659.00,3514.2965,N,12152.3552,W,1,08,1.0,15.4,M,-32.5,M,,*6D
$PYRTM,2024,125.254878124363,16.364525534514
$GPGGA,060700.00,3514.2970,N,12152.3558,W,1,08,1.0,15.2,M,-32.5,M,,*68
$PYRTM,2024,125.254889239259,16.364536649398
$GPGGA,060701.00,3514.2971,N,12152.3564,W,1,08,1.0,12.8,M,-32.5,M,,*6A
$PYRTM,2024,125.254900454896,16.364547865046
$GPGGA,060702.00,3514.2974,N,12152.3573,W,1,08,1.0,11.5,M,-32.5,M,,*64
$PYRTM,2024,125.254911464884,16.364558875023
$GPGGA,060703.00,3514.2980,N,12152.3581,W,1,08,1.0,9.6,M,-32.5,M,,*59
$PYRTM,2024,125.254922675856,16.364570085995
$GPGGA,060704.00,3514.2987,N,12152.3587,W,1,08,1.0,10.3,M,-32.5,M,,*62
$PYRTM,2024,125.254934277130,16.364581687269
$GPGGA,060705.00,3514.2990,N,12152.3593,W,1,08,1.0,10.3,M,-32.5,M,,*60
$PYRTM,2024,125.254945825845,16.364593235984
$GPGGA,060706.00,3514.2991,N,12152.3600,W,1,08,1.0,9.3,M,-32.5,M,,*53
$PYRTM,2024,125.254957413970,16.364604824109
$GPGGA,060707.00,3514.2992,N,12152.3608,W,1,08,1.0,10.5,M,-32.5,M,,*67
$PYRTM,2024,125.254968972431,16.364616382569
$GPGGA,060708.00,3514.2998,N,12152.3617,W,1,08,1.0,11.1,M,-32.5,M,,*69
$PYRTM,2024,125.254980559722,16.364627969861
$GPGGA,060709.00,3514.3006,N,12152.3623,W,1,08,1.0,12.2,M,-32.5,M,,*60
$PYRTM,2024,125.254992121181,16.364639531319
$GPGGA,060710.00,3514.3013,N,12152.3626,W,1,08,1.0,12.1,M,-32.5,M,,*6A
$PYRTM,2024,125.255003707905,16.364651118044
$GPGGA,060711.00,3514.3016,N,12152.3630,W,1,08,1.0,12.1,M,-32.5,M,,*69
$PYRTM,2024,125.255015270579,16.364662680718
$GPGGA,060712.00,3514.3019,N,12152.3637,W,1,08,1.0,12.6,M,-32.5,M,,*65
$PYRTM,2024,125.255026856748,16.364674266887
$GPGGA,060713.00,3514.3023,N,12152.3647,W,1,08,1.0,12.9,M,-32.5,M,,*65
$PYRTM,2024,125.255038418183,16.364685828322
$GPGGA,060714.00,3514.3027,N,12152.3656,W,1,08,1.0,15.5,M,-32.5,M,,*6D
$PYRTM,2024,125.255049998912,16.364697409051
$GPGGA,060715.00,3514.3032,N,12152.3661,W,1,08,1.0,15.2,M,-32.5,M,,*6B
$PYRTM,2024,125.255061567315,16.364708977454
$GPGGA,060716.00,3514.3038,N,12152.3663,W,1,08,1.0,15.2,M,-32.5,M,,*60
$PYRTM,2024,125.255073153009,16.364720563160
$GPGGA,060717.00,3514.3042,N,12152.3667,W,1,08,1.0,13.8,M,-32.5,M,,*64
$PYRTM,2024,125.255088896134,16.364736306273
$GPGGA,060718.00,3514.3044,N,12152.3677,W,1,08,1.0,13.6,M,-32.5,M,,*62
$PYRTM,2024,125.255100456424,16.364747866562
$GPGGA,060719.00,3514.3046,N,12152.3690,W,1,08,1.0,11.1,M,-32.5,M,,*6D
$PYRTM,2024,125.255112044954,16.364759455093
$GPGGA,060720.00,3514.3049,N,12152.3697,W,1,08,1.0,10.8,M,-32.5,M,,*67
$PYRTM,2024,125.255123602998,16.364771013137
$GPGGA,060721.00,3514.3053,N,12152.3698,W,1,08,1.0,12.3,M,-32.5,M,,*6B
$PYRTM,2024,125.255135190000,16.364782600139
$GPGGA,060722.00,3514.3058,N,12152.3701,W,1,08,1.0,9.6,M,-32.5,M,,*5D
$PYRTM,2024,125.255146751389,16.364794161528
$GPGGA,060723.00,3514.3062,N,12152.3708,W,1,08,1.0,10.7,M,-32.5,M,,*65
$PYRTM,2024,125.255158339433,16.364805749572
$GPGGA,060724.00,3514.3063,N,12152.3721,W,1,08,1.0,9.0,M,-32.5,M,,*57
$PYRTM,2024,125.255169899653,16.364817309792
$GPGGA,060725.00,3514.3065,N,12152.3730,W,1,08,1.0,8.8,M,-32.5,M,,*59
$PYRTM,2024,125.255181489711,16.364828899850
$GPGGA,060726.00,3514.3069,N,12152.3731,W,1,08,1.0,12.5,M,-32.5,M,,*61
$PYRTM,2024,125.255193046516,16.364840456655
$GPGGA,060727.00,3514.3077,N,12152.3731,W,1,08,1.0,10.3,M,-32.5,M,,*6B
$PYRTM,2024,125.255204638044,16.364852048183
$GPGGA,060728.00,3514.3083,N,12152.3736,W,1,08,1.0,12.3,M,-32.5,M,,*6A
$PYRTM,2024,125.255216195694,16.364863605845
$GPGGA,060729.00,3514.3085,N,12152.3747,W,1,08,1.0,11.1,M,-32.5,M,,*6A
$PYRTM,2024,125.255227797963,16.364875208102
$GPGGA,060730.00,3514.3083,N,12152.3757,W,1,08,1.0,13.7,M,-32.5,M,,*61
$PYRTM,2024,125.255239344549,16.364886754688
$GPGGA,060731.00,3514.3086,N,12152.3762,W,1,08,1.0,13.5,M,-32.5,M,,*61
$PYRTM,2024,125.255250931042,16.364898341181
$GPGGA,060732.00,3514.3093,N,12152.3763,W,1,08,1.0,12.0,M,-32.5,M,,*63
$PYRTM,2024,125.255262491481,16.364909901620
$GPGGA,060733.00,3514.3099,N,12152.3767,W,1,08,1.0,12.5,M,-32.5,M,,*69
$PYRTM,2024,125.255274078796,16.364921488935
$GPGGA,060734.00,3514.3102,N,12152.3777,W,1,08,1.0,13.2,M,-32.5,M,,*6A
$PYRTM,2024,125.255285642014,16.364933052153
$GPGGA,060735.00,3514.3100,N,12152.3786,W,1,08,1.0,12.4,M,-32.5,M,,*60
$PYRTM,2024,125.255297678032,16.364945088171
$GPGGA,060736.00,3514.3101,N,12152.3792,W,1,08,1.0,12.2,M,-32.5,M,,*61
$PYRTM,2024,125.255308789595,16.364956199734
$GPGGA,060737.00,3514.3109,N,12152.3796,W,1,08,1.0,14.1,M,-32.5,M,,*69
$PYRTM,2024,125.255320376400,16.364967786539
$GPGGA,060738.00,3514.3118,N,12152.3800,W,1,08,1.0,16.4,M,-32.5,M,,*61
$PYRTM,2024,125.255331937465,16.364979347604
$GPGGA,060739.00,3514.3121,N,12152.3805,W,1,08,1.0,16.2,M,-32.5,M,,*69
$PYRTM,2024,125.255343524525,16.364990934664
$GPGGA,060740.00,3514.3123,N,12152.3812,W,1,08,1.0,13.7,M,-32.5,M,,*63
$PYRTM,2024,125.255355086435,16.365002496574
$GPGGA,060741.00,3514.3125,N,12152.3820,W,1,08,1.0,13.3,M,-32.5,M,,*61
$PYRTM,2024,125.255366675382,16.365014085521
$GPGGA,060742.00,3514.3129,N,12152.3827,W,1,08,1.0,13.8,M,-32.5,M,,*62
$PYRTM,2024,125.255378235937,16.365025646076
$GPGGA,060743.00,3514.3135,N,12152.3829,W,1,08,1.0,12.8,M,-32.5,M,,*61
$PYRTM,2024,125.255389824248,16.365037234387
$GPGGA,060744.00,3514.3140,N,12152.3830,W,1,08,1.0,13.0,M,-32.5,M,,*65
$PYRTM,2024,125.255401382164,16.365048792303
$GPGGA,060745.00,3514.3144,N,12152.3835,W,1,08,1.0,12.2,M,-32.5,M,,*66
$PYRTM,2024,125.255412972558,16.365060382697
$GPGGA,060746.00,3514.3146,N,12152.3845,W,1,08,1.0,12.0,M,-32.5,M,,*62
$PYRTM,2024,125.255425686736,16.365073096875
$GPGGA,060747.00,3514.3150,N,12152.3854,W,1,08,1.0,10.7,M,-32.5,M,,*61
$PYRTM,2024,125.255437262616,16.365084672755
$GPGGA,060748.00,3514.3156,N,12152.3860,W,1,08,1.0,11.7,M,-32.5,M,,*6E
$PYRTM,2024,125.255448833623,16.365096243762
$GPGGA,060749.00,3514.3163,N,12152.3862,W,1,08,1.0,13.9,M,-32.5,M,,*67
$PYRTM,2024,125.255460423414,16.365107833553
$GPGGA,060750.00,3514.3167,N,12152.3866,W,1,08,1.0,14.0,M,-32.5,M,,*61
$PYRTM,2024,125.255471984063,16.365119394201
$GPGGA,060751.00,3514.3168,N,12152.3873,W,1,08,1.0,13.3,M,-32.5,M,,*6F
$PYRTM,2024,125.255483571944,16.365130982083
$GPGGA,060752.00,3514.3170,N,12152.3884,W,1,08,1.0,11.9,M,-32.5,M,,*65
$PYRTM,2024,125.255495133264,16.365142543403
$GPGGA,060753.00,3514.3174,N,12152.3894,W,1,08,1.0,13.9,M,-32.5,M,,*63
$PYRTM,2024,125.255506707963,16.365154118102
$GPGGA,060754.00,3514.3180,N,12152.3899,W,1,08,1.0,12.5,M,-32.5,M,,*6F
$PYRTM,2024,125.255518280671,16.365165690810
$GPGGA,060755.00,3514.3187,N,12152.3901,W,1,08,1.0,10.5,M,-32.5,M,,*6B
$PYRTM,2024,125.255529855949,16.365177266100
$GPGGA,060756.00,3514.3192,N,12152.3904,W,1,08,1.0,10.6,M,-32.5,M,,*6A
$PYRTM,2024,125.255541427569,16.365188837708
$GPGGA,060757.00,3514.3196,N,12152.3910,W,1,08,1.0,11.4,M,-32.5,M,,*69
$PYRTM,2024,125.255553016354,16.365200426493
$GPGGA,060758.00,3514.3199,N,12152.3921,W,1,08,1.0,12.4,M,-32.5,M,,*68
$PYRTM,2024,125.255564578113,16.365211988264
$GPGGA,060759.00,3514.3203,N,12152.3929,W,1,08,1.0,12.9,M,-32.5,M,,*6C
$PYRTM,2024,125.255576164491,16.365223574630
$GPGGA,060800.00,3514.3210,N,12152.3931,W,1,08,1.0,11.5,M,-32.5,M,,*6B
$PYRTM,2024,125.255587726632,16.365235136771
$GPGGA,060801.00,3514.3218,N,12152.3930,W,1,08,1.0,13.2,M,-32.5,M,,*66
$PYRTM,2024,125.255599312801,16.365246722940
$GPGGA,060802.00,3514.3223,N,12152.3936,W,1,08,1.0,12.8,M,-32.5,M,,*60
$PYRTM,2024,125.255610874850,16.365258284988
$GPGGA,060803.00,3514.3225,N,12152.3948,W,1,08,1.0,11.7,M,-32.5,M,,*62
$PYRTM,2024,125.255622462269,16.365269872407
$GPGGA,060804.00,3514.3226,N,12152.3958,W,1,08,1.0,13.0,M,-32.5,M,,*62
$PYRTM,2024,125.255634021806,16.365281431956
$GPGGA,060805.00,3514.3228,N,12152.3963,W,1,08,1.0,13.5,M,-32.5,M,,*60
$PYRTM,2024,125.255646058785,16.365293468924
$GPGGA,060806.00,3514.3235,N,12152.3965,W,1,08,1.0,12.3,M,-32.5,M,,*6E
$PYRTM,2024,125.255657647743,16.365305057882
$GPGGA,060807.00,3514.3242,N,12152.3968,W,1,08,1.0,12.2,M,-32.5,M,,*63
$PYRTM,2024,125.255668757049,16.365316167188
$GPGGA,060808.00,3514.3243,N,12152.3976,W,1,08,1.0,12.4,M,-32.5,M,,*64
$PYRTM,2024,125.255680317581,16.365327727720
$GPGGA,060809.00,3514.3242,N,12152.3986,W,1,08,1.0,11.9,M,-32.5,M,,*65
$PYRTM,2024,125.255691902917,16.365339313056
$GPGGA,060810.00,3514.3246,N,12152.3993,W,1,08,1.0,14.9,M,-32.5,M,,*68
$PYRTM,2024,125.255703467083,16.365350877222
$GPGGA,060811.00,3514.3253,N,12152.3995,W,1,08,1.0,13.0,M,-32.5,M,,*65
$PYRTM,2024,125.255715049907,16.365362460046
$GPGGA,060812.00,3514.3261,N,12152.3994,W,1,08,1.0,13.0,M,-32.5,M,,*66
$PYRTM,2024,125.255726614433,16.365374024572
$GPGGA,060813.00,3514.3266,N,12152.4000,W,1,08,1.0,12.3,M,-32.5,M,,*61
$PYRTM,2024,125.255738203426,16.365385613565
$GPGGA,060814.00,3514.3267,N,12152.4011,W,1,08,1.0,11.8,M,-32.5,M,,*6F
$PYRTM,2024,125.255749762674,16.365397172813
$GPGGA,060815.00,3514.3271,N,12152.4022,W,1,08,1.0,11.1,M,-32.5,M,,*60
$PYRTM,2024,125.255761351273,16.365408761412
$GPGGA,060816.00,3514.3279,N,12152.4027,W,1,08,1.0,11.6,M,-32.5,M,,*69
$PYRTM,2024,125.255773954630,16.365421364769
$GPGGA,060817.00,3514.3289,N,12152.4026,W,1,08,1.0,12.1,M,-32.5,M,,*62
$PYRTM,2024,125.255786684942,16.365434095081
$GPGGA,060818.00,3514.3295,N,12152.4028,W,1,08,1.0,12.1,M,-32.5,M,,*6E
$PYRTM,2024,125.255796059248,16.365443469398
$GPGGA,060819.00,3514.3297,N,12152.4036,W,1,08,1.0,9.5,M,-32.5,M,,*5C
$PYRTM,2024,125.255807635556,16.365455045694
$GPGGA,060820.00,3514.3298,N,12152.4047,W,1,08,1.0,12.3,M,-32.5,M,,*63
$PYRTM,2024,125.255819207882,16.365466618021
$GPGGA,060821.00,3514.3302,N,12152.4055,W,1,08,1.0,13.0,M,-32.5,M,,*61
$PYRTM,2024,125.255830795231,16.365478205370
$GPGGA,060822.00,3514.3309,N,12152.4059,W,1,08,1.0,10.6,M,-32.5,M,,*60
$PYRTM,2024,125.255842356759,16.365489766898
$GPGGA,060823.00,3514.3316,N,12152.4062,W,1,08,1.0,10.9,M,-32.5,M,,*68
$PYRTM,2024,125.255853944213,16.365501354352
$GPGGA,060824.00,3514.3319,N,12152.4069,W,1,08,1.0,9.7,M,-32.5,M,,*5D
$PYRTM,2024,125.255865504664,16.365512914803
$GPGGA,060825.00,3514.3319,N,12152.4077,W,1,08,1.0,9.8,M,-32.5,M,,*5C
$PYRTM,2024,125.255877094016,16.365524504155
$GPGGA,060826.00,3514.3322,N,12152.4087,W,1,08,1.0,9.1,M,-32.5,M,,*51
$PYRTM,2024,125.255888652222,16.365536062361
$GPGGA,060827.00,3514.3327,N,12152.4095,W,1,08,1.0,6.9,M,-32.5,M,,*51
$PYRTM,2024,125.255900241840,16.365547651991
$GPGGA,060828.00,3514.3332,N,12152.4101,W,1,08,1.0,9.1,M,-32.5,M,,*51
$PYRTM,2024,125.255911801053,16.365559211192
$GPGGA,060829.00,3514.3336,N,12152.4107,W,1,08,1.0,6.3,M,-32.5,M,,*5F
$PYRTM,2024,125.255923389063,16.365570799213
$GPGGA,060830.00,3514.3340,N,12152.4113,W,1,08,1.0,6.7,M,-32.5,M,,*57
$PYRTM,2024,125.255934950012,16.365582360150
$GPGGA,060831.00,3514.3344,N,12152.4121,W,1,08,1.0,6.8,M,-32.5,M,,*5C
$PYRTM,2024,125.255946533252,16.365593943391
$GPGGA,060832.00,3514.3348,N,12152.4129,W,1,08,1.0,8.8,M,-32.5,M,,*55
$PYRTM,2024,125.255958097859,16.365605507998
$GPGGA,060833.00,3514.3353,N,12152.4137,W,1,08,1.0,12.3,M,-32.5,M,,*61
$PYRTM,2024,125.255969685336,16.365617095475
$GPGGA,060834.00,3514.3360,N,12152.4145,W,1,08,1.0,9.9,M,-32.5,M,,*53
$PYRTM,2024,125.255981247280,16.365628657419
$GPGGA,060835.00,3514.3365,N,12152.4150,W,1,08,1.0,11.6,M,-32.5,M,,*65
$PYRTM,2024,125.255993284190,16.365640694329
