$PYRTM,2024,121.666675685856,12.776323095995
$GPGGA,155959.00,3237.2402,N,11717.2623,W,1,10,1.0,14.7,M,-34.6,M,,*61
$PYRTM,2024,121.666687268194,12.776334678333
$GPGGA,160000.00,3237.2405,N,11717.2649,W,1,10,1.0,13.1,M,-34.6,M,,*68
$PYRTM,2024,121.666698832905,12.776346243044
$GPGGA,160001.00,3237.2408,N,11717.2674,W,1,10,1.0,12.9,M,-34.6,M,,*63
$PYRTM,2024,121.666710421979,12.776357832118
$GPGGA,160002.00,3237.2413,N,11717.2699,W,1,10,1.0,11.1,M,-34.6,M,,*62
$PYRTM,2024,121.666721982095,12.776369392234
$GPGGA,160003.00,3237.2416,N,11717.2727,W,1,10,1.0,11.4,M,-34.6,M,,*67
$PYRTM,2024,121.666732416655,12.776379826794
$GPGGA,160004.00,3237.2420,N,11717.2755,W,1,10,1.0,13.2,M,-34.6,M,,*64
$PYRTM,2024,121.666745128345,12.776392538484
$GPGGA,160005.00,3237.2425,N,11717.2779,W,1,10,1.0,12.9,M,-34.6,M,,*64
$PYRTM,2024,121.666756717789,12.776404127928
$GPGGA,160006.00,3237.2430,N,11717.2803,W,1,10,1.0,13.1,M,-34.6,M,,*68
$PYRTM,2024,121.666768276782,12.776415686921
$GPGGA,160007.00,3237.2434,N,11717.2828,W,1,10,1.0,13.8,M,-34.6,M,,*6D
$PYRTM,2024,121.666780084352,12.776427494502
$GPGGA,160008.00,3237.2438,N,11717.2856,W,1,10,1.0,12.9,M,-34.6,M,,*67
$PYRTM,2024,121.666791425058,12.776438835197
$GPGGA,160009.00,3237.2442,N,11717.2883,W,1,10,1.0,12.1,M,-34.6,M,,*6B
$PYRTM,2024,121.666803014213,12.776450424352
$GPGGA,160010.00,3237.2446,N,11717.2908,W,1,10,1.0,12.3,M,-34.6,M,,*67
$PYRTM,2024,121.666814580382,12.776461990521
$GPGGA,160011.00,3237.2452,N,11717.2933,W,1,10,1.0,12.7,M,-34.6,M,,*6F
$PYRTM,2024,121.666826162812,12.776473572951
$GPGGA,160012.00,3237.2457,N,11717.2958,W,1,10,1.0,13.5,M,-34.6,M,,*67
$PYRTM,2024,121.666837723160,12.776485133299
$GPGGA,160013.00,3237.2461,N,11717.2984,W,1,10,1.0,13.2,M,-34.6,M,,*65
$PYRTM,2024,121.666849311007,12.776496721146
$GPGGA,160014.00,3237.2464,N,11717.3011,W,1,10,1.0,13.0,M,-34.6,M,,*61
$PYRTM,2024,121.666860872396,12.776508282535
$GPGGA,160015.00,3237.2468,N,11717.3037,W,1,10,1.0,12.1,M,-34.6,M,,*68
$PYRTM,2024,121.666872454479,12.776519864618
$GPGGA,160016.00,3237.2473,N,11717.3061,W,1,10,1.0,12.7,M,-34.6,M,,*64
$PYRTM,2024,121.666884019340,12.776531429479
$GPGGA,160017.00,3237.2478,N,11717.3086,W,1,10,1.0,11.1,M,-34.6,M,,*62
$PYRTM,2024,121.666895603657,12.776543013796
$GPGGA,160018.00,3237.2482,N,11717.3114,W,1,10,1.0,11.0,M,-34.6,M,,*63
$PYRTM,2024,121.666907168171,12.776554578310
$GPGGA,160019.00,3237.2486,N,11717.3140,W,1,10,1.0,12.9,M,-34.6,M,,*6D
$PYRTM,2024,121.666918752049,12.776566162187
$GPGGA,160020.00,3237.2490,N,11717.3164,W,1,10,1.0,10.9,M,-34.6,M,,*64
$PYRTM,2024,121.666929159919,12.776576570058
$GPGGA,160021.00,3237.2496,N,11717.3187,W,1,10,1.0,9.9,M,-34.6,M,,*56
$PYRTM,2024,121.666941904711,12.776589314850
$GPGGA,160022.00,3237.2502,N,11717.3213,W,1,10,1.0,10.9,M,-34.6,M,,*6F
$PYRTM,2024,121.666952089630,12.776599499769
$GPGGA,160023.00,3237.2508,N,11717.3240,W,1,10,1.0,11.5,M,-34.6,M,,*6F
$PYRTM,2024,121.666963898044,12.776611308183
$GPGGA,160024.00,3237.2514,N,11717.3269,W,1,10,1.0,11.1,M,-34.6,M,,*6A
$PYRTM,2024,121.666976612338,12.776624022477
$GPGGA,160025.00,3237.2517,N,11717.3296,W,1,10,1.0,8.9,M,-34.6,M,,*58
$PYRTM,2024,121.666988201655,12.776635611794
$GPGGA,160026.00,3237.2522,N,11717.3321,W,1,10,1.0,9.0,M,-34.6,M,,*58
$PYRTM,2024,121.666999760764,12.776647170903
$GPGGA,160027.00,3237.2528,N,11717.3348,W,1,10,1.0,12.3,M,-34.6,M,,*65
$PYRTM,2024,121.667011349931,12.776658760069
$GPGGA,160028.00,3237.2535,N,11717.3375,W,1,10,1.0,11.6,M,-34.6,M,,*6E
$PYRTM,2024,121.667022911609,12.776670321748
$GPGGA,160029.00,3237.2540,N,11717.3402,W,1,10,1.0,10.9,M,-34.6,M,,*64
$PYRTM,2024,121.667034497118,12.776681907257
$GPGGA,160030.00,3237.2542,N,11717.3427,W,1,10,1.0,14.3,M,-34.6,M,,*67
$PYRTM,2024,121.667046057164,12.776693467303
$GPGGA,160031.00,3237.2544,N,11717.3452,W,1,10,1.0,11.3,M,-34.6,M,,*67
$PYRTM,2024,121.667057646505,12.776705056644
$GPGGA,160032.00,3237.2548,N,11717.3476,W,1,10,1.0,11.4,M,-34.6,M,,*69
$PYRTM,2024,121.667069206030,12.776716616169
$GPGGA,160033.00,3237.2554,N,11717.3500,W,1,10,1.0,12.9,M,-34.6,M,,*6B
$PYRTM,2024,121.667080793773,12.776728203912
$GPGGA,160034.00,3237.2559,N,11717.3524,W,1,10,1.0,12.9,M,-34.6,M,,*67
$PYRTM,2024,121.667092353773,12.776739763924
$GPGGA,160035.00,3237.2563,N,11717.3552,W,1,10,1.0,11.9,M,-34.6,M,,*6D
$PYRTM,2024,121.667103941979,12.776751352118
$GPGGA,160036.00,3237.2567,N,11717.3580,W,1,10,1.0,11.4,M,-34.6,M,,*68
$PYRTM,2024,121.667115503206,12.776762913345
$GPGGA,160037.00,3237.2572,N,11717.3605,W,1,10,1.0,12.9,M,-34.6,M,,*6D
$PYRTM,2024,121.667127425081,12.776774835220
$GPGGA,160038.00,3237.2579,N,11717.3627,W,1,10,1.0,14.1,M,-34.6,M,,*67
$PYRTM,2024,121.667138651481,12.776786061620
$GPGGA,160039.00,3237.2586,N,11717.3653,W,1,10,1.0,13.0,M,-34.6,M,,*63
$PYRTM,2024,121.667150234213,12.776797644352
$GPGGA,160040.00,3237.2593,N,11717.3680,W,1,10,1.0,13.3,M,-34.6,M,,*64
$PYRTM,2024,121.667161798935,12.776809209074
$GPGGA,160041.00,3237.2598,N,11717.3703,W,1,10,1.0,11.9,M,-34.6,M,,*6C
$PYRTM,2024,121.667173381516,12.776820791655
$GPGGA,160042.00,3237.2601,N,11717.3728,W,1,10,1.0,11.6,M,-34.6,M,,*6A
$PYRTM,2024,121.667185423553,12.776832833692
$GPGGA,160043.00,3237.2607,N,11717.3755,W,1,10,1.0,10.7,M,-34.6,M,,*67
$PYRTM,2024,121.667196530660,12.776843940799
$GPGGA,160044.00,3237.2615,N,11717.3781,W,1,10,1.0,11.0,M,-34.6,M,,*6C
$PYRTM,2024,121.667208096042,12.776855506181
$GPGGA,160045.00,3237.2622,N,11717.3806,W,1,10,1.0,12.7,M,-34.6,M,,*6D
$PYRTM,2024,121.667219683241,12.776867093391
$GPGGA,160046.00,3237.2627,N,11717.3830,W,1,10,1.0,11.7,M,-34.6,M,,*6D
$PYRTM,2024,121.667231243565,12.776878653704
$GPGGA,160047.00,3237.2631,N,11717.3855,W,1,10,1.0,11.9,M,-34.6,M,,*66
$PYRTM,2024,121.667242833762,12.776890243900
$GPGGA,160048.00,3237.2636,N,11717.3880,W,1,10,1.0,10.0,M,-34.6,M,,*6E
$PYRTM,2024,121.667254394745,12.776901804896
$GPGGA,160049.00,3237.2641,N,11717.3903,W,1,10,1.0,9.7,M,-34.6,M,,*5A
$PYRTM,2024,121.667265982106,12.776913392245
$GPGGA,160050.00,3237.2645,N,11717.3927,W,1,10,1.0,10.0,M,-34.6,M,,*6F
$PYRTM,2024,121.667277539676,12.776924949815
$GPGGA,160051.00,3237.2651,N,11717.3950,W,1,10,1.0,10.2,M,-34.6,M,,*69
$PYRTM,2024,121.667289122789,12.776936532940
$GPGGA,160052.00,3237.2658,N,11717.3974,W,1,10,1.0,10.5,M,-34.6,M,,*62
$PYRTM,2024,121.667299313414,12.776946723553
$GPGGA,160053.00,3237.2665,N,11717.4001,W,1,10,1.0,10.1,M,-34.6,M,,*65
$PYRTM,2024,121.667311122801,12.776958532940
$GPGGA,160054.00,3237.2671,N,11717.4027,W,1,10,1.0,10.0,M,-34.6,M,,*62
$PYRTM,2024,121.667323838657,12.776971248796
$GPGGA,160055.00,3237.2677,N,11717.4052,W,1,10,1.0,12.5,M,-34.6,M,,*60
$PYRTM,2024,121.667335420162,12.776982830301
$GPGGA,160056.00,3237.2684,N,11717.4076,W,1,10,1.0,12.3,M,-34.6,M,,*6F
$PYRTM,2024,121.667346984780,12.776994394919
$GPGGA,160057.00,3237.2691,N,11717.4102,W,1,10,1.0,8.8,M,-34.6,M,,*58
$PYRTM,2024,121.667358573738,12.777005983877
$GPGGA,160058.00,3237.2696,N,11717.4130,W,1,10,1.0,8.8,M,-34.6,M,,*51
$PYRTM,2024,121.667370133380,12.777017543519
$GPGGA,160059.00,3237.2702,N,11717.4158,W,1,10,1.0,7.0,M,-34.6,M,,*55
$PYRTM,2024,121.667381722338,12.777029132477
$GPGGA,160100.00,3237.2708,N,11717.4182,W,1,10,1.0,8.7,M,-34.6,M,,*5D
$PYRTM,2024,121.667393281898,12.777040692037
$GPGGA,160101.00,3237.2715,N,11717.4205,W,1,10,1.0,10.4,M,-34.6,M,,*66
$PYRTM,2024,121.667404870498,12.777052280637
$GPGGA,160102.00,3237.2723,N,11717.4230,W,1,10,1.0,10.5,M,-34.6,M,,*67
$PYRTM,2024,121.667416429120,12.777063839259
$GPGGA,160103.00,3237.2728,N,11717.4258,W,1,10,1.0,11.5,M,-34.6,M,,*62
$PYRTM,2024,121.667428017928,12.777075428067
$GPGGA,160104.00,3237.2733,N,11717.4286,W,1,10,1.0,9.4,M,-34.6,M,,*54
$PYRTM,2024,121.667439578032,12.777086988171
$GPGGA,160105.00,3237.2740,N,11717.4311,W,1,10,1.0,8.0,M,-34.6,M,,*5B
$PYRTM,2024,121.667451168553,12.777098578692
$GPGGA,160106.00,3237.2748,N,11717.4334,W,1,10,1.0,9.3,M,-34.6,M,,*55
$PYRTM,2024,121.667462727280,12.777110137419
$GPGGA,160107.00,3237.2755,N,11717.4359,W,1,10,1.0,6.5,M,-34.6,M,,*5A
$PYRTM,2024,121.667474309549,12.777121719688
$GPGGA,160108.00,3237.2760,N,11717.4386,W,1,10,1.0,8.0,M,-34.6,M,,*5A
$PYRTM,2024,121.667485877384,12.777133287523
$GPGGA,160109.00,3237.2765,N,11717.4410,W,1,10,1.0,11.2,M,-34.6,M,,*6C
$PYRTM,2024,121.667497458646,12.777144868785
$GPGGA,160110.00,3237.2771,N,11717.4431,W,1,10,1.0,11.8,M,-34.6,M,,*68
$PYRTM,2024,121.667509025359,12.777156435498
$GPGGA,160111.00,3237.2778,N,11717.4454,W,1,10,1.0,11.7,M,-34.6,M,,*6C
$PYRTM,2024,121.667520612118,12.777168022257
$GPGGA,160112.00,3237.2786,N,11717.4480,W,1,10,1.0,11.9,M,-34.6,M,,*69
$PYRTM,2024,121.667532170949,12.777179581088
$GPGGA,160113.00,3237.2793,N,11717.4506,W,1,10,1.0,10.6,M,-34.6,M,,*6D
$PYRTM,2024,121.667543755660,12.777191165799
$GPGGA,160114.00,3237.2798,N,11717.4531,W,1,10,1.0,8.9,M,-34.6,M,,*53
$PYRTM,2024,121.667555320961,12.777202731100
$GPGGA,160115.00,3237.2804,N,11717.4557,W,1,10,1.0,6.8,M,-34.6,M,,*57
$PYRTM,2024,121.667566908391,12.777214318530
$GPGGA,160116.00,3237.2810,N,11717.4583,W,1,10,1.0,7.3,M,-34.6,M,,*52
$PYRTM,2024,121.667578468322,12.777225878461
$GPGGA,160117.00,3237.2817,N,11717.4608,W,1,10,1.0,7.7,M,-34.6,M,,*50
$PYRTM,2024,121.667590055694,12.777237465833
$GPGGA,160118.00,3237.2824,N,11717.4632,W,1,10,1.0,8.9,M,-34.6,M,,*57
$PYRTM,2024,121.667601616736,12.777249026875
$GPGGA,160119.00,3237.2831,N,11717.4657,W,1,10,1.0,8.2,M,-34.6,M,,*5A
$PYRTM,2024,121.667612278229,12.777259688368
$GPGGA,160120.00,3237.2838,N,11717.4682,W,1,10,1.0,9.7,M,-34.6,M,,*55
$PYRTM,2024,121.667624203252,12.777271613391
$GPGGA,160121.00,3237.2843,N,11717.4707,W,1,10,1.0,11.7,M,-34.6,M,,*6D
$PYRTM,2024,121.667634950926,12.777282361065
$GPGGA,160122.00,3237.2849,N,11717.4730,W,1,10,1.0,8.8,M,-34.6,M,,*57
$PYRTM,2024,121.667650690382,12.777298100521
$GPGGA,160123.00,3237.2857,N,11717.4753,W,1,10,1.0,11.4,M,-34.6,M,,*68
$PYRTM,2024,121.667661802454,12.777309212593
$GPGGA,160124.00,3237.2863,N,11717.4779,W,1,10,1.0,10.4,M,-34.6,M,,*61
$PYRTM,2024,121.667672914410,12.777320324549
$GPGGA,160125.00,3237.2869,N,11717.4805,W,1,10,1.0,11.1,M,-34.6,M,,*6A
$PYRTM,2024,121.667684026273,12.777331436412
$GPGGA,160126.00,3237.2874,N,11717.4830,W,1,10,1.0,11.8,M,-34.6,M,,*6A
$PYRTM,2024,121.667695134711,12.777342544850
$GPGGA,160127.00,3237.2880,N,11717.4855,W,1,10,1.0,7.7,M,-34.6,M,,*5B
$PYRTM,2024,121.667706247650,12.777353657789
$GPGGA,160128.00,3237.2887,N,11717.4881,W,1,10,1.0,7.2,M,-34.6,M,,*5F
$PYRTM,2024,121.667728945845,12.777376355984
$GPGGA,160129.00,3237.2893,N,11717.4907,W,1,10,1.0,10.5,M,-34.6,M,,*65
$PYRTM,2024,121.667740057581,12.777387467720
$GPGGA,160130.00,3237.2899,N,11717.4931,W,1,10,1.0,10.9,M,-34.6,M,,*6E
$PYRTM,2024,121.667751169444,12.777398579583
$GPGGA,160131.00,3237.2904,N,11717.4955,W,1,10,1.0,11.5,M,-34.6,M,,*65
$PYRTM,2024,121.667762394711,12.777409804850
$GPGGA,160132.00,3237.2910,N,11717.4980,W,1,10,1.0,11.5,M,-34.6,M,,*6B
$PYRTM,2024,121.667773965162,12.777421375301
$GPGGA,160133.00,3237.2917,N,11717.5006,W,1,10,1.0,11.4,M,-34.6,M,,*6A
$PYRTM,2024,121.667785080856,12.777432490995
$GPGGA,160134.00,3237.2923,N,11717.5031,W,1,10,1.0,10.1,M,-34.6,M,,*6A
$PYRTM,2024,121.667796187639,12.777443597778
$GPGGA,160135.00,3237.2927,N,11717.5055,W,1,10,1.0,10.1,M,-34.6,M,,*6D
$PYRTM,2024,121.667807305810,12.777454715949
$GPGGA,160136.00,3237.2933,N,11717.5078,W,1,10,1.0,12.5,M,-34.6,M,,*62
$PYRTM,2024,121.667818531609,12.777465941748
$GPGGA,160137.00,3237.2939,N,11717.5103,W,1,10,1.0,10.9,M,-34.6,M,,*6A
$PYRTM,2024,121.667830091308,12.777477501447
$GPGGA,160138.00,3237.2945,N,11717.5130,W,1,10,1.0,11.7,M,-34.6,M,,*61
$PYRTM,2024,121.667841204907,12.777488615058
$GPGGA,160139.00,3237.2951,N,11717.5156,W,1,10,1.0,11.0,M,-34.6,M,,*62
$PYRTM,2024,121.667852314595,12.777499724734
$GPGGA,160140.00,3237.2956,N,11717.5179,W,1,10,1.0,12.3,M,-34.6,M,,*66
$PYRTM,2024,121.667863425648,12.777510835787
$GPGGA,160141.00,3237.2962,N,11717.5202,W,1,10,1.0,13.8,M,-34.6,M,,*65
$PYRTM,2024,121.667874650613,12.777522060764
$GPGGA,160142.00,3237.2969,N,11717.5230,W,1,10,1.0,12.6,M,-34.6,M,,*63
$PYRTM,2024,121.667885762616,12.777533172755
$GPGGA,160143.00,3237.2975,N,11717.5257,W,1,10,1.0,10.8,M,-34.6,M,,*62
$PYRTM,2024,121.667896875498,12.777544285637
$GPGGA,160144.00,3237.2980,N,11717.5280,W,1,10,1.0,12.2,M,-34.6,M,,*6D
$PYRTM,2024,121.667907985775,12.777555395914
$GPGGA,160145.00,3237.2985,N,11717.5301,W,1,10,1.0,12.9,M,-34.6,M,,*6A
$PYRTM,2024,121.667919210868,12.777566621007
$GPGGA,160146.00,3237.2992,N,11717.5325,W,1,10,1.0,14.6,M,-34.6,M,,*60
$PYRTM,2024,121.667930322604,12.777577732743
$GPGGA,160147.00,3237.2998,N,11717.5351,W,1,10,1.0,15.5,M,-34.6,M,,*6A
$PYRTM,2024,121.667941433773,12.777588843912
$GPGGA,160148.00,3237.3000,N,11717.5377,W,1,10,1.0,11.8,M,-34.6,M,,*61
$PYRTM,2024,121.667952544525,12.777599954664
$GPGGA,160149.00,3237.3002,N,11717.5401,W,1,10,1.0,10.3,M,-34.6,M,,*6E
$PYRTM,2024,121.667963788808,12.777611198947
$GPGGA,160150.00,3237.3006,N,11717.5427,W,1,10,1.0,10.1,M,-34.6,M,,*64
$PYRTM,2024,121.667974900799,12.777622310937
$GPGGA,160151.00,3237.3013,N,11717.5452,W,1,10,1.0,11.3,M,-34.6,M,,*60
$PYRTM,2024,121.667985995301,12.777633405440
$GPGGA,160152.00,3237.3020,N,11717.5477,W,1,10,1.0,9.8,M,-34.6,M,,*56
$PYRTM,2024,121.667995726389,12.777643136528
$GPGGA,160153.00,3237.3025,N,11717.5503,W,1,10,1.0,9.0,M,-34.6,M,,*58
$PYRTM,2024,121.668006841412,12.777654251551
$GPGGA,160154.00,3237.3028,N,11717.5529,W,1,10,1.0,9.5,M,-34.6,M,,*5F
$PYRTM,2024,121.668019095590,12.777666505729
$GPGGA,160155.00,3237.3031,N,11717.5553,W,1,10,1.0,10.0,M,-34.6,M,,*66
$PYRTM,2024,121.668030207604,12.777677617743
$GPGGA,160156.00,3237.3038,N,11717.5578,W,1,10,1.0,10.8,M,-34.6,M,,*6D
$PYRTM,2024,121.668041435625,12.777688845764
$GPGGA,160157.00,3237.3046,N,11717.5603,W,1,10,1.0,7.8,M,-34.6,M,,*5C
$PYRTM,2024,121.668053021782,12.777700431921
$GPGGA,160158.00,3237.3052,N,11717.5627,W,1,10,1.0,7.8,M,-34.6,M,,*50
$PYRTM,2024,121.668064580961,12.777711991100
$GPGGA,160159.00,3237.3057,N,11717.5651,W,1,10,1.0,8.4,M,-34.6,M,,*56
$PYRTM,2024,121.668076169873,12.777723580012
$GPGGA,160200.00,3237.3063,N,11717.5675,W,1,10,1.0,8.0,M,-34.6,M,,*5C
$PYRTM,2024,121.668087730822,12.777735140961
$GPGGA,160201.00,3237.3071,N,11717.5700,W,1,10,1.0,6.1,M,-34.6,M,,*52
$PYRTM,2024,121.668099318056,12.777746728194
$GPGGA,160202.00,3237.3078,N,11717.5724,W,1,10,1.0,7.8,M,-34.6,M,,*56
$PYRTM,2024,121.668110880683,12.777758290822
$GPGGA,160203.00,3237.3083,N,11717.5749,W,1,10,1.0,8.4,M,-34.6,M,,*5B
$PYRTM,2024,121.668122467766,12.777769877917
$GPGGA,160204.00,3237.3086,N,11717.5774,W,1,10,1.0,8.0,M,-34.6,M,,*53
$PYRTM,2024,121.668134027546,12.777781437685
$GPGGA,160205.00,3237.3091,N,11717.5799,W,1,10,1.0,8.9,M,-34.6,M,,*5E
$PYRTM,2024,121.668145614896,12.777793025035
$GPGGA,160206.00,3237.3099,N,11717.5825,W,1,10,1.0,7.9,M,-34.6,M,,*52
$PYRTM,2024,121.668157175787,12.777804585926
$GPGGA,160207.00,3237.3106,N,11717.5849,W,1,10,1.0,6.0,M,-34.6,M,,*56
$PYRTM,2024,121.668168763831,12.777816173970
$GPGGA,160208.00,3237.3110,N,11717.5872,W,1,10,1.0,6.8,M,-34.6,M,,*5E
$PYRTM,2024,121.668180323681,12.777827733819
$GPGGA,160209.00,3237.3114,N,11717.5897,W,1,10,1.0,7.6,M,-34.6,M,,*5F
$PYRTM,2024,121.668191906354,12.777839316493
$GPGGA,160210.00,3237.3120,N,11717.5924,W,1,10,1.0,6.8,M,-34.6,M,,*56
$PYRTM,2024,121.668203471944,12.777850882083
$GPGGA,160211.00,3237.3126,N,11717.5950,W,1,10,1.0,5.6,M,-34.6,M,,*5F
$PYRTM,2024,121.668215060046,12.777862470185
$GPGGA,160212.00,3237.3132,N,11717.5975,W,1,10,1.0,7.4,M,-34.6,M,,*5E
$PYRTM,2024,121.668226620521,12.777874030660
$GPGGA,160213.00,3237.3137,N,11717.5998,W,1,10,1.0,8.8,M,-34.6,M,,*5A
$PYRTM,2024,121.668238202789,12.777885612928
$GPGGA,160214.00,3237.3140,N,11717.6024,W,1,10,1.0,7.8,M,-34.6,M,,*5F
$PYRTM,2024,121.668249767627,12.777897177766
$GPGGA,160215.00,3237.3143,N,11717.6051,W,1,10,1.0,8.6,M,-34.6,M,,*5E
$PYRTM,2024,121.668261356644,12.777908766782
$GPGGA,160216.00,3237.3147,N,11717.6076,W,1,10,1.0,9.6,M,-34.6,M,,*5D
$PYRTM,2024,121.668272915937,12.777920326076
$GPGGA,160217.00,3237.3153,N,11717.6100,W,1,10,1.0,11.8,M,-34.6,M,,*6E
$PYRTM,2024,121.668284505035,12.777931915174
$GPGGA,160218.00,3237.3160,N,11717.6125,W,1,10,1.0,10.2,M,-34.6,M,,*6D
$PYRTM,2024,121.668296063947,12.777943474097
$GPGGA,160219.00,3237.3166,N,11717.6152,W,1,10,1.0,10.7,M,-34.6,M,,*6F
$PYRTM,2024,121.668307652708,12.777955062847
$GPGGA,160220.00,3237.3170,N,11717.6178,W,1,10,1.0,8.3,M,-34.6,M,,*57
$PYRTM,2024,121.668319212488,12.777966622627
$GPGGA,160221.00,3237.3176,N,11717.6204,W,1,10,1.0,9.5,M,-34.6,M,,*5F
$PYRTM,2024,121.668330801343,12.777978211481
$GPGGA,160222.00,3237.3182,N,11717.6229,W,1,10,1.0,12.8,M,-34.6,M,,*6F
$PYRTM,2024,121.668341434757,12.777988844896
$GPGGA,160223.00,3237.3188,N,11717.6254,W,1,10,1.0,13.1,M,-34.6,M,,*66
$PYRTM,2024,121.668352792211,12.778000202350
$GPGGA,160224.00,3237.3193,N,11717.6280,W,1,10,1.0,11.5,M,-34.6,M,,*64
$PYRTM,2024,121.668365509757,12.778012919896
$GPGGA,160225.00,3237.3196,N,11717.6306,W,1,10,1.0,10.6,M,-34.6,M,,*6D
$PYRTM,2024,121.668377097106,12.778024507257
$GPGGA,160226.00,3237.3200,N,11717.6333,W,1,10,1.0,11.0,M,-34.6,M,,*63
$PYRTM,2024,121.668388659514,12.778036069653
$GPGGA,160227.00,3237.3207,N,11717.6358,W,1,10,1.0,8.9,M,-34.6,M,,*59
$PYRTM,2024,121.668400246516,12.778047656655
$GPGGA,160228.00,3237.3215,N,11717.6381,W,1,10,1.0,10.5,M,-34.6,M,,*64
$PYRTM,2024,121.668411807037,12.778059217176
$GPGGA,160229.00,3237.3222,N,11717.6404,W,1,10,1.0,11.4,M,-34.6,M,,*6B
$PYRTM,2024,121.668423394630,12.778070804769
$GPGGA,160230.00,3237.3227,N,11717.6433,W,1,10,1.0,10.1,M,-34.6,M,,*66
$PYRTM,2024,121.668434954931,12.778082365069
$GPGGA,160231.00,3237.3230,N,11717.6462,W,1,10,1.0,9.2,M,-34.6,M,,*5E
$PYRTM,2024,121.668446545613,12.778093955752
$GPGGA,160232.00,3237.3235,N,11717.6486,W,1,10,1.0,9.2,M,-34.6,M,,*52
$PYRTM,2024,121.668458102917,12.778105513056
$GPGGA,160233.00,3237.3241,N,11717.6506,W,1,10,1.0,9.1,M,-34.6,M,,*5A
$PYRTM,2024,121.668469690648,12.778117100787
$GPGGA,160234.00,3237.3248,N,11717.6528,W,1,10,1.0,9.8,M,-34.6,M,,*51
$PYRTM,2024,121.668481251065,12.778128661204
$GPGGA,160235.00,3237.3253,N,11717.6557,W,1,10,1.0,10.6,M,-34.6,M,,*64
$PYRTM,2024,121.668492839306,12.778140249444
$GPGGA,160236.00,3237.3258,N,11717.6586,W,1,10,1.0,9.0,M,-34.6,M,,*5E
$PYRTM,2024,121.668504399248,12.778151809387
$GPGGA,160237.00,3237.3262,N,11717.6609,W,1,10,1.0,8.2,M,-34.6,M,,*51
$PYRTM,2024,121.668515983241,12.778163393380
$GPGGA,160238.00,3237.3268,N,11717.6631,W,1,10,1.0,8.6,M,-34.6,M,,*5B
$PYRTM,2024,121.668527546829,12.778174956968
$GPGGA,160239.00,3237.3275,N,11717.6656,W,1,10,1.0,10.7,M,-34.6,M,,*6F
$PYRTM,2024,121.668539136944,12.778186547083
$GPGGA,160240.00,3237.3281,N,11717.6683,W,1,10,1.0,11.8,M,-34.6,M,,*6C
$PYRTM,2024,121.668550695914,12.778198106053
$GPGGA,160241.00,3237.3285,N,11717.6709,W,1,10,1.0,12.7,M,-34.6,M,,*66
$PYRTM,2024,121.668562284711,12.778209694861
$GPGGA,160242.00,3237.3288,N,11717.6734,W,1,10,1.0,12.8,M,-34.6,M,,*69
$PYRTM,2024,121.668573843715,12.778221253854
$GPGGA,160243.00,3237.3292,N,11717.6762,W,1,10,1.0,10.8,M,-34.6,M,,*62
$PYRTM,2024,121.668585427014,12.778232837153
$GPGGA,160244.00,3237.3297,N,11717.6785,W,1,10,1.0,10.9,M,-34.6,M,,*68
$PYRTM,2024,121.668596992662,12.778244402801
$GPGGA,160245.00,3237.3304,N,11717.6806,W,1,10,1.0,11.2,M,-34.6,M,,*6C
$PYRTM,2024,121.668608576377,12.778255986516
$GPGGA,160246.00,3237.3310,N,11717.6829,W,1,10,1.0,11.9,M,-34.6,M,,*6C
$PYRTM,2024,121.668620140868,12.778267551007
$GPGGA,160247.00,3237.3314,N,11717.6857,W,1,10,1.0,8.0,M,-34.6,M,,*51
$PYRTM,2024,121.668631729016,12.778279139155
$GPGGA,160248.00,3237.3318,N,11717.6884,W,1,10,1.0,9.6,M,-34.6,M,,*5B
$PYRTM,2024,121.668643290313,12.778290700451
$GPGGA,160249.00,3237.3323,N,11717.6906,W,1,10,1.0,11.9,M,-34.6,M,,*6F
$PYRTM,2024,121.668654872442,12.778302282581
$GPGGA,160250.00,3237.3328,N,11717.6930,W,1,10,1.0,11.3,M,-34.6,M,,*63
$PYRTM,2024,121.668666436725,12.778313846863
$GPGGA,160251.00,3237.3333,N,11717.6958,W,1,10,1.0,12.2,M,-34.6,M,,*64
$PYRTM,2024,121.668678025347,12.778325435486
$GPGGA,160252.00,3237.3337,N,11717.6983,W,1,10,1.0,13.5,M,-34.6,M,,*63
$PYRTM,2024,121.668688210243,12.778335620382
$GPGGA,160253.00,3237.3342,N,11717.7005,W,1,10,1.0,13.2,M,-34.6,M,,*61
$PYRTM,2024,121.668700016898,12.778347427037
$GPGGA,160254.00,3237.3348,N,11717.7030,W,1,10,1.0,13.2,M,-34.6,M,,*6A
$PYRTM,2024,121.668712733113,12.778360143252
$GPGGA,160255.00,3237.3354,N,11717.7057,W,1,10,1.0,12.6,M,-34.6,M,,*62
$PYRTM,2024,121.668724321296,12.778371731447
$GPGGA,160256.00,3237.3358,N,11717.7083,W,1,10,1.0,13.3,M,-34.6,M,,*60
$PYRTM,2024,121.668735880903,12.778383291042
$GPGGA,160257.00,3237.3361,N,11717.7106,W,1,10,1.0,13.6,M,-34.6,M,,*62
$PYRTM,2024,121.668747470231,12.778394880370
$GPGGA,160258.00,3237.3365,N,11717.7129,W,1,10,1.0,12.0,M,-34.6,M,,*63
$PYRTM,2024,121.668759029664,12.778406439803
$GPGGA,160259.00,3237.3369,N,11717.7154,W,1,10,1.0,11.7,M,-34.6,M,,*60
$PYRTM,2024,121.668770620486,12.778418030625
$GPGGA,160300.00,3237.3374,N,11717.7180,W,1,10,1.0,11.8,M,-34.6,M,,*67
$PYRTM,2024,121.668782177454,12.778429587593
$GPGGA,160301.00,3237.3379,N,11717.7205,W,1,10,1.0,13.5,M,-34.6,M,,*6A
$PYRTM,2024,121.668793765995,12.778441176134
$GPGGA,160302.00,3237.3383,N,11717.7229,W,1,10,1.0,12.9,M,-34.6,M,,*6F
$PYRTM,2024,121.668805327106,12.778452737245
$GPGGA,160303.00,3237.3386,N,11717.7254,W,1,10,1.0,13.1,M,-34.6,M,,*68
$PYRTM,2024,121.668816914375,12.778464324514
$GPGGA,160304.00,3237.3391,N,11717.7279,W,1,10,1.0,11.1,M,-34.6,M,,*64
$PYRTM,2024,121.668828473947,12.778475884086
$GPGGA,160305.00,3237.3398,N,11717.7303,W,1,10,1.0,12.8,M,-34.6,M,,*6A
$PYRTM,2024,121.668840062465,12.778487472604
$GPGGA,160306.00,3237.3403,N,11717.7328,W,1,10,1.0,15.8,M,-34.6,M,,*62
$PYRTM,2024,121.668851622500,12.778499032639
$GPGGA,160307.00,3237.3407,N,11717.7354,W,1,10,1.0,14.9,M,-34.6,M,,*6C
$PYRTM,2024,121.668863660255,12.778511070394
$GPGGA,160308.00,3237.3411,N,11717.7381,W,1,10,1.0,13.6,M,-34.6,M,,*64
$PYRTM,2024,121.668875243437,12.778522653576
$GPGGA,160309.00,3237.3417,N,11717.7405,W,1,10,1.0,14.2,M,-34.6,M,,*6B
$PYRTM,2024,121.668886807824,12.778534217963
$GPGGA,160310.00,3237.3424,N,11717.7431,W,1,10,1.0,12.1,M,-34.6,M,,*61
$PYRTM,2024,121.668898396944,12.778545807083
$GPGGA,160311.00,3237.3430,N,11717.7457,W,1,10,1.0,11.7,M,-34.6,M,,*60
$PYRTM,2024,121.668909957662,12.778557367801
$GPGGA,160312.00,3237.3435,N,11717.7481,W,1,10,1.0,9.9,M,-34.6,M,,*5A
$PYRTM,2024,121.668921544687,12.778568954826
$GPGGA,160313.00,3237.3440,N,11717.7506,W,1,10,1.0,10.2,M,-34.6,M,,*64
$PYRTM,2024,121.668933104479,12.778580514618
$GPGGA,160314.00,3237.3446,N,11717.7532,W,1,10,1.0,9.1,M,-34.6,M,,*59
$PYRTM,2024,121.668944809213,12.778592219352
$GPGGA,160315.00,3237.3452,N,11717.7558,W,1,10,1.0,10.0,M,-34.6,M,,*68
$PYRTM,2024,121.668956384907,12.778603795046
$GPGGA,160316.00,3237.3458,N,11717.7583,W,1,10,1.0,12.0,M,-34.6,M,,*65
$PYRTM,2024,121.668967841921,12.778615252060
$GPGGA,160317.00,3237.3463,N,11717.7608,W,1,10,1.0,9.7,M,-34.6,M,,*51
$PYRTM,2024,121.668979531562,12.778626941701
$GPGGA,160318.00,3237.3468,N,11717.7633,W,1,10,1.0,10.1,M,-34.6,M,,*63
$PYRTM,2024,121.668991105903,12.778638516042
$GPGGA,160319.00,3237.3473,N,11717.7659,W,1,10,1.0,10.9,M,-34.6,M,,*6C
$PYRTM,2024,121.669002675116,12.778650085255
$GPGGA,160320.00,3237.3478,N,11717.7686,W,1,10,1.0,11.2,M,-34.6,M,,*65
$PYRTM,2024,121.669014248252,12.778661658391
$GPGGA,160321.00,3237.3483,N,11717.7712,W,1,10,1.0,10.8,M,-34.6,M,,*67
$PYRTM,2024,121.669025827060,12.778673237199
$GPGGA,160322.00,3237.3487,N,11717.7738,W,1,10,1.0,11.2,M,-34.6,M,,*63
$PYRTM,2024,121.669036014120,12.778683424271
$GPGGA,160323.00,3237.3493,N,11717.7764,W,1,10,1.0,12.9,M,-34.6,M,,*66
$PYRTM,2024,121.669047244271,12.778694654410
$GPGGA,160324.00,3237.3498,N,11717.7788,W,1,10,1.0,13.4,M,-34.6,M,,*64
$PYRTM,2024,121.669059033032,12.778706443171
$GPGGA,160325.00,3237.3504,N,11717.7814,W,1,10,1.0,13.2,M,-34.6,M,,*6D
$PYRTM,2024,121.669070955069,12.778718365220
$GPGGA,160326.00,3237.3508,N,11717.7841,W,1,10,1.0,14.6,M,-34.6,M,,*61
$PYRTM,2024,121.669081730914,12.778729141053
$GPGGA,160327.00,3237.3512,N,11717.7865,W,1,10,1.0,14.3,M,-34.6,M,,*68
$PYRTM,2024,121.669092841748,12.778740251887
$GPGGA,160328.00,3237.3517,N,11717.7887,W,1,10,1.0,12.5,M,-34.6,M,,*6E
$PYRTM,2024,121.669104070729,12.778751480868
$GPGGA,160329.00,3237.3525,N,11717.7910,W,1,10,1.0,14.7,M,-34.6,M,,*65
$PYRTM,2024,121.669115181898,12.778762592037
$GPGGA,160330.00,3237.3531,N,11717.7937,W,1,10,1.0,13.9,M,-34.6,M,,*64
$PYRTM,2024,121.669126292153,12.778773702292
$GPGGA,160331.00,3237.3535,N,11717.7964,W,1,10,1.0,12.9,M,-34.6,M,,*66
$PYRTM,2024,121.669137411563,12.778784821701
$GPGGA,160332.00,3237.3539,N,11717.7991,W,1,10,1.0,14.0,M,-34.6,M,,*6C
$PYRTM,2024,121.669148616597,12.778796026736
$GPGGA,160333.00,3237.3544,N,11717.8018,W,1,10,1.0,14.0,M,-34.6,M,,*60
$PYRTM,2024,121.669159729676,12.778807139815
$GPGGA,160334.00,3237.3550,N,11717.8044,W,1,10,1.0,14.2,M,-34.6,M,,*69
$PYRTM,2024,121.669170839294,12.778818249433
$GPGGA,160335.00,3237.3554,N,11717.8067,W,1,10,1.0,16.8,M,-34.6,M,,*65
$PYRTM,2024,121.669182065197,12.778829475336
$GPGGA,160336.00,3237.3557,N,11717.8096,W,1,10,1.0,13.2,M,-34.6,M,,*64
$PYRTM,2024,121.669193538275,12.778840948426
$GPGGA,160337.00,3237.3561,N,11717.8124,W,1,10,1.0,11.7,M,-34.6,M,,*6F
$PYRTM,2024,121.669205213553,12.778852623692
$GPGGA,160338.00,3237.3565,N,11717.8149,W,1,10,1.0,12.0,M,-34.6,M,,*6B
$PYRTM,2024,121.669216685764,12.778864095914
$GPGGA,160339.00,3237.3569,N,11717.8172,W,1,10,1.0,10.0,M,-34.6,M,,*6C
$PYRTM,2024,121.669228247836,12.778875657975
$GPGGA,160340.00,3237.3576,N,11717.8198,W,1,10,1.0,11.2,M,-34.6,M,,*6B
$PYRTM,2024,121.669239835208,12.778887245347
$GPGGA,160341.00,3237.3584,N,11717.8226,W,1,10,1.0,9.8,M,-34.6,M,,*52
$PYRTM,2024,121.669251395069,12.778898805220
$GPGGA,160342.00,3237.3588,N,11717.8251,W,1,10,1.0,11.8,M,-34.6,M,,*64
$PYRTM,2024,121.669262985046,12.778910395185
$GPGGA,160343.00,3237.3591,N,11717.8273,W,1,10,1.0,12.0,M,-34.6,M,,*66
$PYRTM,2024,121.669274542593,12.778921952731
$GPGGA,160344.00,3237.3596,N,11717.8293,W,1,10,1.0,11.3,M,-34.6,M,,*68
$PYRTM,2024,121.669286145278,12.778933555417
$GPGGA,160345.00,3237.3602,N,11717.8317,W,1,10,1.0,10.7,M,-34.6,M,,*6F
$PYRTM,2024,121.669297692731,12.778945102870
$GPGGA,160346.00,3237.3607,N,11717.8344,W,1,10,1.0,8.6,M,-34.6,M,,*57
$PYRTM,2024,121.669309283322,12.778956693472
$GPGGA,160347.00,3237.3612,N,11717.8369,W,1,10,1.0,9.7,M,-34.6,M,,*5D
$PYRTM,2024,121.669320840405,12.778968250544
$GPGGA,160348.00,3237.3616,N,11717.8394,W,1,10,1.0,10.3,M,-34.6,M,,*68
$PYRTM,2024,121.669332422882,12.778979833021
$GPGGA,160349.00,3237.3623,N,11717.8419,W,1,10,1.0,8.1,M,-34.6,M,,*56
$PYRTM,2024,121.669343987500,12.778991397639
$GPGGA,160350.00,3237.3630,N,11717.8444,W,1,10,1.0,9.6,M,-34.6,M,,*52
$PYRTM,2024,121.669355570185,12.779002980324
$GPGGA,160351.00,3237.3636,N,11717.8470,W,1,10,1.0,9.8,M,-34.6,M,,*5C
$PYRTM,2024,121.669367137222,12.779014547361
$GPGGA,160352.00,3237.3641,N,11717.8498,W,1,10,1.0,10.6,M,-34.6,M,,*6F
$PYRTM,2024,121.669384032778,12.779031442917
$GPGGA,160353.00,3237.3646,N,11717.8522,W,1,10,1.0,9.6,M,-34.6,M,,*51
$PYRTM,2024,121.669395620718,12.779043030856
$GPGGA,160354.00,3237.3651,N,11717.8543,W,1,10,1.0,11.1,M,-34.6,M,,*69
$PYRTM,2024,121.669407181562,12.779054591701
$GPGGA,160355.00,3237.3657,N,11717.8566,W,1,10,1.0,8.5,M,-34.6,M,,*55
$PYRTM,2024,121.669418769549,12.779066179688
$GPGGA,160356.00,3237.3663,N,11717.8596,W,1,10,1.0,9.6,M,-34.6,M,,*5C
$PYRTM,2024,121.669430329664,12.779077739803
$GPGGA,160357.00,3237.3667,N,11717.8624,W,1,10,1.0,10.0,M,-34.6,M,,*6D
$PYRTM,2024,121.669441917685,12.779089327824
$GPGGA,160358.00,3237.3671,N,11717.8646,W,1,10,1.0,12.0,M,-34.6,M,,*63
$PYRTM,2024,121.669453477731,12.779100887870
$GPGGA,160359.00,3237.3677,N,11717.8668,W,1,10,1.0,13.6,M,-34.6,M,,*6F
$PYRTM,2024,121.669465065706,12.779112475845
$GPGGA,160400.00,3237.3684,N,11717.8695,W,1,10,1.0,14.6,M,-34.6,M,,*6D
$PYRTM,2024,121.669476627361,12.779124037500
$GPGGA,160401.00,3237.3689,N,11717.8725,W,1,10,1.0,12.2,M,-34.6,M,,*69
$PYRTM,2024,121.669488210266,12.779135620405
$GPGGA,160402.00,3237.3691,N,11717.8749,W,1,10,1.0,13.2,M,-34.6,M,,*68
$PYRTM,2024,121.669499904491,12.779147314630
$GPGGA,160403.00,3237.3695,N,11717.8770,W,1,10,1.0,14.6,M,-34.6,M,,*64
$PYRTM,2024,121.669511365428,12.779158775579
$GPGGA,160404.00,3237.3700,N,11717.8794,W,1,10,1.0,15.8,M,-34.6,M,,*6B
$PYRTM,2024,121.669522924155,12.779170334294
$GPGGA,160405.00,3237.3706,N,11717.8822,W,1,10,1.0,15.6,M,-34.6,M,,*60
$PYRTM,2024,121.669534515116,12.779181925255
$GPGGA,160406.00,3237.3711,N,11717.8850,W,1,10,1.0,13.9,M,-34.6,M,,*69
$PYRTM,2024,121.669546072130,12.779193482269
$GPGGA,160407.00,3237.3714,N,11717.8873,W,1,10,1.0,13.6,M,-34.6,M,,*63
$PYRTM,2024,121.669557878634,12.779205288785
$GPGGA,160408.00,3237.3717,N,11717.8897,W,1,10,1.0,14.3,M,-34.6,M,,*67
$PYRTM,2024,121.669569224282,12.779216634421
$GPGGA,160409.00,3237.3722,N,11717.8922,W,1,10,1.0,15.2,M,-34.6,M,,*6F
$PYRTM,2024,121.669580811458,12.779228221597
$GPGGA,160410.00,3237.3728,N,11717.8947,W,1,10,1.0,15.3,M,-34.6,M,,*6F
$PYRTM,2024,121.669592369051,12.779239779190
$GPGGA,160411.00,3237.3733,N,11717.8972,W,1,10,1.0,15.7,M,-34.6,M,,*66
$PYRTM,2024,121.669603960532,12.779251370671
$GPGGA,160412.00,3237.3737,N,11717.8996,W,1,10,1.0,13.7,M,-34.6,M,,*6D
$PYRTM,2024,121.669615517882,12.779262928021
$GPGGA,160413.00,3237.3740,N,11717.9022,W,1,10,1.0,12.2,M,-34.6,M,,*6F
$PYRTM,2024,121.669627107072,12.779274517211
$GPGGA,160414.00,3237.3746,N,11717.9047,W,1,10,1.0,12.8,M,-34.6,M,,*67
$PYRTM,2024,121.669638666273,12.779286076412
$GPGGA,160415.00,3237.3752,N,11717.9072,W,1,10,1.0,14.1,M,-34.6,M,,*6A
$PYRTM,2024,121.669650255648,12.779297665787
$GPGGA,160416.00,3237.3759,N,11717.9097,W,1,10,1.0,12.6,M,-34.6,M,,*68
$PYRTM,2024,121.669661814410,12.779309224549
$GPGGA,160417.00,3237.3764,N,11717.9122,W,1,10,1.0,13.6,M,-34.6,M,,*69
$PYRTM,2024,121.669673403264,12.779320813403
$GPGGA,160418.00,3237.3769,N,11717.9150,W,1,10,1.0,13.0,M,-34.6,M,,*68
$PYRTM,2024,121.669684962257,12.779332372396
$GPGGA,160419.00,3237.3774,N,11717.9176,W,1,10,1.0,13.4,M,-34.6,M,,*65
$PYRTM,2024,121.669696551412,12.779343961551
$GPGGA,160420.00,3237.3781,N,11717.9199,W,1,10,1.0,13.3,M,-34.6,M,,*63
$PYRTM,2024,121.669708111736,12.779355521887
$GPGGA,160421.00,3237.3787,N,11717.9221,W,1,10,1.0,14.0,M,-34.6,M,,*60
$PYRTM,2024,121.669719699618,12.779367109757
$GPGGA,160422.00,3237.3791,N,11717.9247,W,1,10,1.0,16.4,M,-34.6,M,,*62
$PYRTM,2024,121.669729882187,12.779377292326
$GPGGA,160423.00,3237.3792,N,11717.9275,W,1,10,1.0,14.6,M,-34.6,M,,*61
$PYRTM,2024,121.669741683646,12.779389093785
$GPGGA,160424.00,3237.3795,N,11717.9302,W,1,10,1.0,14.8,M,-34.6,M,,*6E
$PYRTM,2024,121.669754408056,12.779401818194
$GPGGA,160425.00,3237.3802,N,11717.9325,W,1,10,1.0,15.5,M,-34.6,M,,*67
$PYRTM,2024,121.669765992616,12.779413402755
$GPGGA,160426.00,3237.3809,N,11717.9350,W,1,10,1.0,15.6,M,-34.6,M,,*6E
$PYRTM,2024,121.669777554016,12.779424964155
$GPGGA,160427.00,3237.3814,N,11717.9375,W,1,10,1.0,11.8,M,-34.6,M,,*6E
$PYRTM,2024,121.669789144039,12.779436554178
$GPGGA,160428.00,3237.3816,N,11717.9404,W,1,10,1.0,14.2,M,-34.6,M,,*6D
$PYRTM,2024,121.669800703843,12.779448113981
$GPGGA,160429.00,3237.3819,N,11717.9431,W,1,10,1.0,16.8,M,-34.6,M,,*6D
$PYRTM,2024,121.669811146968,12.779458557118
$GPGGA,160430.00,3237.3825,N,11717.9454,W,1,10,1.0,15.6,M,-34.6,M,,*64
$PYRTM,2024,121.669823848947,12.779471259086
$GPGGA,160431.00,3237.3832,N,11717.9476,W,1,10,1.0,16.3,M,-34.6,M,,*65
$PYRTM,2024,121.669835433773,12.779482843924
$GPGGA,160432.00,3237.3838,N,11717.9502,W,1,10,1.0,16.6,M,-34.6,M,,*6B
$PYRTM,2024,121.669846998252,12.779494408391
$GPGGA,160433.00,3237.3841,N,11717.9530,W,1,10,1.0,13.9,M,-34.6,M,,*6F
$PYRTM,2024,121.669858587569,12.779505997708
$GPGGA,160434.00,3237.3843,N,11717.9554,W,1,10,1.0,14.8,M,-34.6,M,,*6E
$PYRTM,2024,121.669870146343,12.779517556481
$GPGGA,160435.00,3237.3848,N,11717.9576,W,1,10,1.0,12.8,M,-34.6,M,,*62
$PYRTM,2024,121.669881729225,12.779529139363
$GPGGA,160436.00,3237.3856,N,11717.9600,W,1,10,1.0,13.0,M,-34.6,M,,*65
$PYRTM,2024,121.669893293611,12.779540703750
$GPGGA,160437.00,3237.3862,N,11717.9628,W,1,10,1.0,14.4,M,-34.6,M,,*6A
$PYRTM,2024,121.669904882963,12.779552293102
$GPGGA,160438.00,3237.3866,N,11717.9653,W,1,10,1.0,14.7,M,-34.6,M,,*6E
$PYRTM,2024,121.669916442951,12.779563853090
$GPGGA,160439.00,3237.3869,N,11717.9676,W,1,10,1.0,14.7,M,-34.6,M,,*67
$PYRTM,2024,121.669928030984,12.779575441123
$GPGGA,160440.00,3237.3872,N,11717.9700,W,1,10,1.0,13.2,M,-34.6,M,,*61
$PYRTM,2024,121.669939591389,12.779587001528
$GPGGA,160441.00,3237.3877,N,11717.9725,W,1,10,1.0,12.6,M,-34.6,M,,*67
$PYRTM,2024,121.669951175660,12.779598585799
$GPGGA,160442.00,3237.3882,N,11717.9750,W,1,10,1.0,12.2,M,-34.6,M,,*68
$PYRTM,2024,121.669962740868,12.779610151007
$GPGGA,160443.00,3237.3886,N,11717.9776,W,1,10,1.0,12.5,M,-34.6,M,,*6E
$PYRTM,2024,121.669974329421,12.779621739560
$GPGGA,160444.00,3237.3890,N,11717.9801,W,1,10,1.0,13.3,M,-34.6,M,,*66
$PYRTM,2024,121.669985888032,12.779633298171
$GPGGA,160445.00,3237.3895,N,11717.9828,W,1,10,1.0,15.2,M,-34.6,M,,*6E
$PYRTM,2024,121.669997478819,12.779644888958
$GPGGA,160446.00,3237.3902,N,11717.9854,W,1,10,1.0,13.8,M,-34.6,M,,*65
$PYRTM,2024,121.670009036238,12.779656446377
$GPGGA,160447.00,3237.3909,N,11717.9878,W,1,10,1.0,12.7,M,-34.6,M,,*6F
$PYRTM,2024,121.670020619201,12.779668029340
$GPGGA,160448.00,3237.3913,N,11717.9901,W,1,10,1.0,14.3,M,-34.6,M,,*66
$PYRTM,2024,121.670032185069,12.779679595208
$GPGGA,160449.00,3237.3918,N,11717.9928,W,1,10,1.0,14.2,M,-34.6,M,,*66
$PYRTM,2024,121.670043773912,12.779691184051
$GPGGA,160450.00,3237.3922,N,11717.9954,W,1,10,1.0,13.8,M,-34.6,M,,*61
$PYRTM,2024,121.670055333299,12.779702743449
$GPGGA,160451.00,3237.3926,N,11717.9977,W,1,10,1.0,15.2,M,-34.6,M,,*69
$PYRTM,2024,121.670066915162,12.779714325301
$GPGGA,160452.00,3237.3931,N,11718.0000,W,1,10,1.0,13.4,M,-34.6,M,,*63
$PYRTM,2024,121.670077556192,12.779724966331
$GPGGA,160453.00,3237.3936,N,11718.0026,W,1,10,1.0,13.3,M,-34.6,M,,*66
$PYRTM,2024,121.670088912315,12.779736322454
$GPGGA,160454.00,3237.3942,N,11718.0054,W,1,10,1.0,13.6,M,-34.6,M,,*62
$PYRTM,2024,121.670101628970,12.779749039109
$GPGGA,160455.00,3237.3947,N,11718.0079,W,1,10,1.0,14.5,M,-34.6,M,,*6D
$PYRTM,2024,121.670113217477,12.779760627616
$GPGGA,160456.00,3237.3952,N,11718.0103,W,1,10,1.0,17.0,M,-34.6,M,,*60
$PYRTM,2024,121.670124777697,12.779772187836
$GPGGA,160457.00,3237.3957,N,11718.0129,W,1,10,1.0,19.0,M,-34.6,M,,*62
$PYRTM,2024,121.670136366794,12.779783776933
$GPGGA,160458.00,3237.3962,N,11718.0157,W,1,10,1.0,17.4,M,-34.6,M,,*68
$PYRTM,2024,121.670147925775,12.779795335914
$GPGGA,160459.00,3237.3967,N,11718.0183,W,1,10,1.0,17.7,M,-34.6,M,,*66
$PYRTM,2024,121.670159513102,12.779806923241
$GPGGA,160500.00,3237.3972,N,11718.0206,W,1,10,1.0,19.1,M,-34.6,M,,*69
$PYRTM,2024,121.670171073843,12.779818483981
$GPGGA,160501.00,3237.3977,N,11718.0231,W,1,10,1.0,19.3,M,-34.6,M,,*6B
$PYRTM,2024,121.670182663588,12.779830073727
$GPGGA,160502.00,3237.3981,N,11718.0259,W,1,10,1.0,18.4,M,-34.6,M,,*69
$PYRTM,2024,121.670194222037,12.779841632176
$GPGGA,160503.00,3237.3985,N,11718.0284,W,1,10,1.0,17.7,M,-34.6,M,,*60
$PYRTM,2024,121.670205810463,12.779853220602
$GPGGA,160504.00,3237.3989,N,11718.0307,W,1,10,1.0,19.4,M,-34.6,M,,*6C
$PYRTM,2024,121.670217369942,12.779864780081
$GPGGA,160505.00,3237.3996,N,11718.0331,W,1,10,1.0,17.3,M,-34.6,M,,*6F
$PYRTM,2024,121.670228958773,12.779876368912
$GPGGA,160506.00,3237.4002,N,11718.0356,W,1,10,1.0,17.2,M,-34.6,M,,*6F
$PYRTM,2024,121.670240520706,12.779887930856
$GPGGA,160507.00,3237.4007,N,11718.0380,W,1,10,1.0,16.6,M,-34.6,M,,*65
$PYRTM,2024,121.670252556481,12.779899966620
$GPGGA,160508.00,3237.4011,N,11718.0406,W,1,10,1.0,15.8,M,-34.6,M,,*69
$PYRTM,2024,121.670264143519,12.779911553657
$GPGGA,160509.00,3237.4015,N,11718.0432,W,1,10,1.0,15.3,M,-34.6,M,,*60
$PYRTM,2024,121.670275704456,12.779923114606
$GPGGA,160510.00,3237.4021,N,11718.0456,W,1,10,1.0,16.4,M,-34.6,M,,*69
$PYRTM,2024,121.670287287917,12.779934698056
$GPGGA,160511.00,3237.4026,N,11718.0480,W,1,10,1.0,18.6,M,-34.6,M,,*68
$PYRTM,2024,121.670298854236,12.779946264375
$GPGGA,160512.00,3237.4031,N,11718.0506,W,1,10,1.0,19.3,M,-34.6,M,,*66
$PYRTM,2024,121.670310441713,12.779957851852
$GPGGA,160513.00,3237.4036,N,11718.0534,W,1,10,1.0,18.8,M,-34.6,M,,*6B
$PYRTM,2024,121.670322000174,12.779969410312
$GPGGA,160514.00,3237.4041,N,11718.0560,W,1,10,1.0,18.3,M,-34.6,M,,*66
$PYRTM,2024,121.670333588912,12.779980999051
$GPGGA,160515.00,3237.4045,N,11718.0583,W,1,10,1.0,18.8,M,-34.6,M,,*65
$PYRTM,2024,121.670345149375,12.779992559514
$GPGGA,160516.00,3237.4049,N,11718.0608,W,1,10,1.0,18.2,M,-34.6,M,,*60
$PYRTM,2024,121.670356732025,12.780004142164
$GPGGA,160517.00,3237.4054,N,11718.0636,W,1,10,1.0,17.9,M,-34.6,M,,*64
$PYRTM,2024,121.670368299711,12.780015709850
$GPGGA,160518.00,3237.4060,N,11718.0662,W,1,10,1.0,18.5,M,-34.6,M,,*6E
$PYRTM,2024,121.670379886644,12.780027296782
$GPGGA,160519.00,3237.4065,N,11718.0684,W,1,10,1.0,17.3,M,-34.6,M,,*6B
$PYRTM,2024,121.670391447303,12.780038857442
$GPGGA,160520.00,3237.4070,N,11718.0706,W,1,10,1.0,19.8,M,-34.6,M,,*6B
$PYRTM,2024,121.670403034711,12.780050444850
$GPGGA,160521.00,3237.4074,N,11718.0733,W,1,10,1.0,16.3,M,-34.6,M,,*6C
$PYRTM,2024,121.670414724676,12.780062134815
$GPGGA,160522.00,3237.4079,N,11718.0761,W,1,10,1.0,17.6,M,-34.6,M,,*61
$PYRTM,2024,121.670424909375,12.780072319514
$GPGGA,160523.00,3237.4082,N,11718.0784,W,1,10,1.0,18.6,M,-34.6,M,,*60
$PYRTM,2024,121.670436137049,12.780083547188
$GPGGA,160524.00,3237.4085,N,11718.0806,W,1,10,1.0,17.6,M,-34.6,M,,*6A
$PYRTM,2024,121.670448855891,12.780096266030
$GPGGA,160525.00,3237.4090,N,11718.0829,W,1,10,1.0,18.0,M,-34.6,M,,*6B
$PYRTM,2024,121.670460440984,12.780107851123
$GPGGA,160526.00,3237.4095,N,11718.0856,W,1,10,1.0,18.3,M,-34.6,M,,*66
$PYRTM,2024,121.670472001157,12.780119411296
$GPGGA,160527.00,3237.4098,N,11718.0885,W,1,10,1.0,17.0,M,-34.6,M,,*68
$PYRTM,2024,121.670483585336,12.780130995475
$GPGGA,160528.00,3237.4100,N,11718.0910,W,1,10,1.0,16.8,M,-34.6,M,,*63
$PYRTM,2024,121.670494580914,12.780141991065
$GPGGA,160529.00,3237.4103,N,11718.0930,W,1,10,1.0,16.3,M,-34.6,M,,*68
$PYRTM,2024,121.670504409201,12.780151819340
$GPGGA,160530.00,3237.4108,N,11718.0949,W,1,10,1.0,18.4,M,-34.6,M,,*6C
$PYRTM,2024,121.670517502454,12.780164912593
$GPGGA,160531.00,3237.4117,N,11718.0974,W,1,10,1.0,14.2,M,-34.6,M,,*67
$PYRTM,2024,121.670529658044,12.780177068183
$GPGGA,160532.00,3237.4124,N,11718.1001,W,1,10,1.0,13.1,M,-34.6,M,,*6A
$PYRTM,2024,121.670540761273,12.780188171412
$GPGGA,160533.00,3237.4128,N,11718.1024,W,1,10,1.0,12.6,M,-34.6,M,,*66
$PYRTM,2024,121.670551880035,12.780199290174
$GPGGA,160534.00,3237.4133,N,11718.1044,W,1,10,1.0,12.1,M,-34.6,M,,*6A
$PYRTM,2024,121.670562983380,12.780210393519
$GPGGA,160535.00,3237.4140,N,11718.1066,W,1,10,1.0,13.4,M,-34.6,M,,*6B
$PYRTM,2024,121.670574210706,12.780221620845
$GPGGA,160536.00,3237.4150,N,11718.1091,W,1,10,1.0,11.4,M,-34.6,M,,*63
$PYRTM,2024,121.670585327257,12.780232737407
$GPGGA,160537.00,3237.4158,N,11718.1118,W,1,10,1.0,11.3,M,-34.6,M,,*6D
$PYRTM,2024,121.670596894769,12.780244304907
$GPGGA,160538.00,3237.4162,N,11718.1142,W,1,10,1.0,10.6,M,-34.6,M,,*60
$PYRTM,2024,121.670607999977,12.780255410116
$GPGGA,160539.00,3237.4164,N,11718.1163,W,1,10,1.0,11.3,M,-34.6,M,,*60
$PYRTM,2024,121.670619110347,12.780266520486
$GPGGA,160540.00,3237.4166,N,11718.1185,W,1,10,1.0,11.2,M,-34.6,M,,*65
$PYRTM,2024,121.670630335463,12.780277745602
$GPGGA,160541.00,3237.4173,N,11718.1211,W,1,10,1.0,10.3,M,-34.6,M,,*6E
$PYRTM,2024,121.670641447894,12.780288858032
$GPGGA,160542.00,3237.4178,N,11718.1238,W,1,10,1.0,12.1,M,-34.6,M,,*6D
$PYRTM,2024,121.670653034965,12.780300445116
$GPGGA,160543.00,3237.4181,N,11718.1261,W,1,10,1.0,13.6,M,-34.6,M,,*60
$PYRTM,2024,121.670664146644,12.780311556782
$GPGGA,160544.00,3237.4183,N,11718.1283,W,1,10,1.0,13.0,M,-34.6,M,,*6F
$PYRTM,2024,121.670682074456,12.780329484595
$GPGGA,160545.00,3237.4187,N,11718.1307,W,1,10,1.0,14.7,M,-34.6,M,,*67
$PYRTM,2024,121.670693184618,12.780340594757
$GPGGA,160546.00,3237.4194,N,11718.1332,W,1,10,1.0,13.1,M,-34.6,M,,*61
$PYRTM,2024,121.670704295625,12.780351705764
$GPGGA,160547.00,3237.4198,N,11718.1356,W,1,10,1.0,12.2,M,-34.6,M,,*6C
$PYRTM,2024,121.670715407928,12.780362818067
$GPGGA,160548.00,3237.4202,N,11718.1379,W,1,10,1.0,13.9,M,-34.6,M,,*64
$PYRTM,2024,121.670726633044,12.780374043183
$GPGGA,160549.00,3237.4203,N,11718.1403,W,1,10,1.0,14.0,M,-34.6,M,,*60
$PYRTM,2024,121.670737743229,12.780385153368
$GPGGA,160550.00,3237.4205,N,11718.1428,W,1,10,1.0,14.2,M,-34.6,M,,*65
$PYRTM,2024,121.670748855880,12.780396266019
$GPGGA,160551.00,3237.4209,N,11718.1453,W,1,10,1.0,14.0,M,-34.6,M,,*66
$PYRTM,2024,121.670759967188,12.780407377326
$GPGGA,160552.00,3237.4215,N,11718.1478,W,1,10,1.0,13.7,M,-34.6,M,,*61
$PYRTM,2024,121.670775706667,12.780423116806
$GPGGA,160553.00,3237.4221,N,11718.1501,W,1,10,1.0,13.0,M,-34.6,M,,*6F
$PYRTM,2024,121.670786817488,12.780434227639
$GPGGA,160554.00,3237.4225,N,11718.1525,W,1,10,1.0,12.3,M,-34.6,M,,*68
$PYRTM,2024,121.670798054410,12.780445464549
$GPGGA,160555.00,3237.4229,N,11718.1552,W,1,10,1.0,11.8,M,-34.6,M,,*6D
$PYRTM,2024,121.670809170475,12.780456580613
$GPGGA,160556.00,3237.4233,N,11718.1579,W,1,10,1.0,12.3,M,-34.6,M,,*64
$PYRTM,2024,121.670820284734,12.780467694873
$GPGGA,160557.00,3237.4238,N,11718.1601,W,1,10,1.0,10.8,M,-34.6,M,,*6B
$PYRTM,2024,121.670831393519,12.780478803657
$GPGGA,160558.00,3237.4245,N,11718.1622,W,1,10,1.0,13.0,M,-34.6,M,,*64
$PYRTM,2024,121.670842621562,12.780490031701
$GPGGA,160559.00,3237.4251,N,11718.1645,W,1,10,1.0,14.9,M,-34.6,M,,*6F
$PYRTM,2024,121.670853961678,12.780501371817
$GPGGA,160600.00,3237.4254,N,11718.1671,W,1,10,1.0,13.2,M,-34.6,M,,*6E
$PYRTM,2024,121.670865521817,12.780512931956
$GPGGA,160601.00,3237.4257,N,11718.1699,W,1,10,1.0,12.7,M,-34.6,M,,*6E
$PYRTM,2024,121.670877110116,12.780524520243
$GPGGA,160602.00,3237.4259,N,11718.1724,W,1,10,1.0,12.4,M,-34.6,M,,*67
$PYRTM,2024,121.670888669387,12.780536079525
$GPGGA,160603.00,3237.4265,N,11718.1746,W,1,10,1.0,11.7,M,-34.6,M,,*6D
$PYRTM,2024,121.670900257708,12.780547667847
$GPGGA,160604.00,3237.4272,N,11718.1768,W,1,10,1.0,14.3,M,-34.6,M,,*61
$PYRTM,2024,121.670911818912,12.780559229051
$GPGGA,160605.00,3237.4278,N,11718.1796,W,1,10,1.0,15.2,M,-34.6,M,,*6B
$PYRTM,2024,121.670923407188,12.780570817326
$GPGGA,160606.00,3237.4281,N,11718.1826,W,1,10,1.0,12.1,M,-34.6,M,,*6E
$PYRTM,2024,121.670934965567,12.780582375706
$GPGGA,160607.00,3237.4284,N,11718.1852,W,1,10,1.0,10.0,M,-34.6,M,,*6A
$PYRTM,2024,121.670946670532,12.780594080671
$GPGGA,160608.00,3237.4289,N,11718.1871,W,1,10,1.0,12.2,M,-34.6,M,,*69
$PYRTM,2024,121.670958115150,12.780605525289
$GPGGA,160609.00,3237.4297,N,11718.1891,W,1,10,1.0,11.1,M,-34.6,M,,*69
$PYRTM,2024,121.670969703727,12.780617113866
$GPGGA,160610.00,3237.4304,N,11718.1917,W,1,10,1.0,12.9,M,-34.6,M,,*6E
$PYRTM,2024,121.670981262847,12.780628672986
$GPGGA,160611.00,3237.4310,N,11718.1944,W,1,10,1.0,12.6,M,-34.6,M,,*63
$PYRTM,2024,121.670992851019,12.780640261157
$GPGGA,160612.00,3237.4313,N,11718.1968,W,1,10,1.0,12.3,M,-34.6,M,,*68
$PYRTM,2024,121.671004412431,12.780651822569
$GPGGA,160613.00,3237.4317,N,11718.1991,W,1,10,1.0,13.1,M,-34.6,M,,*68
$PYRTM,2024,121.671015999630,12.780663409769
$GPGGA,160614.00,3237.4324,N,11718.2018,W,1,10,1.0,13.7,M,-34.6,M,,*62
$PYRTM,2024,121.671027559954,12.780674970093
$GPGGA,160615.00,3237.4330,N,11718.2045,W,1,10,1.0,12.5,M,-34.6,M,,*6D
$PYRTM,2024,121.671039149641,12.780686559780
$GPGGA,160616.00,3237.4334,N,11718.2070,W,1,10,1.0,14.3,M,-34.6,M,,*6C
$PYRTM,2024,121.671050708854,12.780698118993
$GPGGA,160617.00,3237.4338,N,11718.2094,W,1,10,1.0,13.8,M,-34.6,M,,*67
$PYRTM,2024,121.671062296806,12.780709706944
$GPGGA,160618.00,3237.4343,N,11718.2119,W,1,10,1.0,13.3,M,-34.6,M,,*6B
$PYRTM,2024,121.671073858519,12.780721268657
$GPGGA,160619.00,3237.4348,N,11718.2145,W,1,10,1.0,13.1,M,-34.6,M,,*6A
$PYRTM,2024,121.671085439225,12.780732849363
$GPGGA,160620.00,3237.4351,N,11718.2171,W,1,10,1.0,14.4,M,-34.6,M,,*6D
$PYRTM,2024,121.671097009479,12.780744419618
$GPGGA,160621.00,3237.4353,N,11718.2197,W,1,10,1.0,14.1,M,-34.6,M,,*63
$PYRTM,2024,121.671108588715,12.780755998854
$GPGGA,160622.00,3237.4358,N,11718.2221,W,1,10,1.0,16.1,M,-34.6,M,,*67
$PYRTM,2024,121.671118778183,12.780766188333
$GPGGA,160623.00,3237.4364,N,11718.2244,W,1,10,1.0,16.6,M,-34.6,M,,*6D
$PYRTM,2024,121.671130587454,12.780777997593
$GPGGA,160624.00,3237.4368,N,11718.2269,W,1,10,1.0,13.3,M,-34.6,M,,*69
$PYRTM,2024,121.671143300764,12.780790710903
$GPGGA,160625.00,3237.4372,N,11718.2297,W,1,10,1.0,15.1,M,-34.6,M,,*66
$PYRTM,2024,121.671154889375,12.780802299525
$GPGGA,160626.00,3237.4375,N,11718.2323,W,1,10,1.0,15.9,M,-34.6,M,,*64
$PYRTM,2024,121.671166449468,12.780813859606
$GPGGA,160627.00,3237.4377,N,11718.2346,W,1,10,1.0,17.3,M,-34.6,M,,*6C
$PYRTM,2024,121.671178036771,12.780825446910
$GPGGA,160628.00,3237.4381,N,11718.2368,W,1,10,1.0,14.8,M,-34.6,M,,*6E
$PYRTM,2024,121.671189598148,12.780837008287
$GPGGA,160629.00,3237.4386,N,11718.2394,W,1,10,1.0,14.9,M,-34.6,M,,*6A
$PYRTM,2024,121.671201185868,12.780848596007
$GPGGA,160630.00,3237.4390,N,11718.2421,W,1,10,1.0,16.1,M,-34.6,M,,*66
$PYRTM,2024,121.671212745035,12.780860155174
$GPGGA,160631.00,3237.4394,N,11718.2444,W,1,10,1.0,15.6,M,-34.6,M,,*64
$PYRTM,2024,121.671224333900,12.780871744039
$GPGGA,160632.00,3237.4398,N,11718.2468,W,1,10,1.0,15.7,M,-34.6,M,,*64
$PYRTM,2024,121.671235894028,12.780883304167
$GPGGA,160633.00,3237.4402,N,11718.2492,W,1,10,1.0,17.3,M,-34.6,M,,*62
$PYRTM,2024,121.671247482465,12.780894892604
$GPGGA,160634.00,3237.4408,N,11718.2516,W,1,10,1.0,16.7,M,-34.6,M,,*67
$PYRTM,2024,121.671259044965,12.780906455116
$GPGGA,160635.00,3237.4412,N,11718.2541,W,1,10,1.0,19.3,M,-34.6,M,,*64
$PYRTM,2024,121.671270631979,12.780918042118
$GPGGA,160636.00,3237.4416,N,11718.2569,W,1,10,1.0,15.5,M,-34.6,M,,*63
$PYRTM,2024,121.671282192234,12.780929602373
$GPGGA,160637.00,3237.4420,N,11718.2596,W,1,10,1.0,16.0,M,-34.6,M,,*61
$PYRTM,2024,121.671294115104,12.780941525243
$GPGGA,160638.00,3237.4425,N,11718.2620,W,1,10,1.0,17.9,M,-34.6,M,,*6D
$PYRTM,2024,121.671305341979,12.780952752118
$GPGGA,160639.00,3237.4430,N,11718.2643,W,1,10,1.0,17.4,M,-34.6,M,,*60
$PYRTM,2024,121.671316930995,12.780964341134
$GPGGA,160640.00,3237.4437,N,11718.2667,W,1,10,1.0,16.8,M,-34.6,M,,*62
$PYRTM,2024,121.671328491076,12.780975901215
$GPGGA,160641.00,3237.4442,N,11718.2694,W,1,10,1.0,16.6,M,-34.6,M,,*63
$PYRTM,2024,121.671340063704,12.780987473843
$GPGGA,160642.00,3237.4446,N,11718.2720,W,1,10,1.0,14.7,M,-34.6,M,,*69
$PYRTM,2024,121.671351639479,12.780999049630
$GPGGA,160643.00,3237.4450,N,11718.2743,W,1,10,1.0,13.2,M,-34.6,M,,*68
$PYRTM,2024,121.671363226296,12.781010636435
$GPGGA,160644.00,3237.4456,N,11718.2764,W,1,10,1.0,12.6,M,-34.6,M,,*69
$PYRTM,2024,121.671374786991,12.781022197130
$GPGGA,160645.00,3237.4464,N,11718.2789,W,1,10,1.0,12.0,M,-34.6,M,,*6C
$PYRTM,2024,121.671386367326,12.781033777465
$GPGGA,160646.00,3237.4471,N,11718.2815,W,1,10,1.0,12.1,M,-34.6,M,,*60
$PYRTM,2024,121.671397933715,12.781045343854
$GPGGA,160647.00,3237.4476,N,11718.2840,W,1,10,1.0,13.5,M,-34.6,M,,*63
$PYRTM,2024,121.671409522118,12.781056932257
$GPGGA,160648.00,3237.4481,N,11718.2863,W,1,10,1.0,12.5,M,-34.6,M,,*64
$PYRTM,2024,121.671421083160,12.781068493299
$GPGGA,160649.00,3237.4487,N,11718.2887,W,1,10,1.0,12.5,M,-34.6,M,,*69
$PYRTM,2024,121.671432669387,12.781080079525
$GPGGA,160650.00,3237.4493,N,11718.2912,W,1,10,1.0,11.7,M,-34.6,M,,*68
$PYRTM,2024,121.671444231574,12.781091641713
$GPGGA,160651.00,3237.4499,N,11718.2937,W,1,10,1.0,12.3,M,-34.6,M,,*63
$PYRTM,2024,121.671455819861,12.781103230000
$GPGGA,160652.00,3237.4505,N,11718.2964,W,1,10,1.0,11.9,M,-34.6,M,,*6B
$PYRTM,2024,121.671466005637,12.781113415775
$GPGGA,160653.00,3237.4509,N,11718.2988,W,1,10,1.0,11.0,M,-34.6,M,,*6D
$PYRTM,2024,121.671477822465,12.781125232604
$GPGGA,160654.00,3237.4513,N,11718.3010,W,1,10,1.0,11.8,M,-34.6,M,,*60
$PYRTM,2024,121.671490528125,12.781137938264
$GPGGA,160655.00,3237.4516,N,11718.3034,W,1,10,1.0,12.6,M,-34.6,M,,*6F
$PYRTM,2024,121.671502117153,12.781149527292
$GPGGA,160656.00,3237.4521,N,11718.3060,W,1,10,1.0,12.5,M,-34.6,M,,*6A
$PYRTM,2024,121.671513675660,12.781161085810
$GPGGA,160657.00,3237.4527,N,11718.3086,W,1,10,1.0,11.6,M,-34.6,M,,*65
$PYRTM,2024,121.671525262813,12.781172672951
$GPGGA,160658.00,3237.4532,N,11718.3111,W,1,10,1.0,10.7,M,-34.6,M,,*61
$PYRTM,2024,121.671536823032,12.781184233171
$GPGGA,160659.00,3237.4537,N,11718.3136,W,1,10,1.0,10.8,M,-34.6,M,,*6F
$PYRTM,2024,121.671548410532,12.781195820671
$GPGGA,160700.00,3237.4542,N,11718.3160,W,1,10,1.0,10.7,M,-34.6,M,,*6C
$PYRTM,2024,121.671559972882,12.781207383021
$GPGGA,160701.00,3237.4548,N,11718.3185,W,1,10,1.0,10.6,M,-34.6,M,,*6D
$PYRTM,2024,121.671571553785,12.781218963924
$GPGGA,160702.00,3237.4554,N,11718.3212,W,1,10,1.0,13.0,M,-34.6,M,,*6B
$PYRTM,2024,121.671583120880,12.781230531019
$GPGGA,160703.00,3237.4559,N,11718.3240,W,1,10,1.0,13.4,M,-34.6,M,,*64
$PYRTM,2024,121.671594701968,12.781242112106
$GPGGA,160704.00,3237.4563,N,11718.3265,W,1,10,1.0,14.3,M,-34.6,M,,*6D
$PYRTM,2024,121.671606269803,12.781253679942
$GPGGA,160705.00,3237.4565,N,11718.3291,W,1,10,1.0,12.5,M,-34.6,M,,*61
$PYRTM,2024,121.671617842998,12.781265253137
$GPGGA,160706.00,3237.4570,N,11718.3318,W,1,10,1.0,12.7,M,-34.6,M,,*64
$PYRTM,2024,121.671629417581,12.781276827720
$GPGGA,160707.00,3237.4576,N,11718.3343,W,1,10,1.0,14.1,M,-34.6,M,,*6D
$PYRTM,2024,121.671641453762,12.781288863912
$GPGGA,160708.00,3237.4582,N,11718.3368,W,1,10,1.0,13.5,M,-34.6,M,,*63
$PYRTM,2024,121.671653036539,12.781300446678
$GPGGA,160709.00,3237.4586,N,11718.3393,W,1,10,1.0,12.7,M,-34.6,M,,*61
$PYRTM,2024,121.671664603553,12.781312013692
$GPGGA,160710.00,3237.4588,N,11718.3422,W,1,10,1.0,12.0,M,-34.6,M,,*6D
$PYRTM,2024,121.671676189259,12.781323599398
$GPGGA,160711.00,3237.4593,N,11718.3450,W,1,10,1.0,12.0,M,-34.6,M,,*63
$PYRTM,2024,121.671687751493,12.781335161632
$GPGGA,160712.00,3237.4599,N,11718.3475,W,1,10,1.0,12.6,M,-34.6,M,,*6B
$PYRTM,2024,121.671699336782,12.781346746921
$GPGGA,160713.00,3237.4604,N,11718.3498,W,1,10,1.0,12.6,M,-34.6,M,,*6E
$PYRTM,2024,121.671710898218,12.781358308356
$GPGGA,160714.00,3237.4609,N,11718.3523,W,1,10,1.0,13.0,M,-34.6,M,,*62
$PYRTM,2024,121.671722480683,12.781369890822
$GPGGA,160715.00,3237.4614,N,11718.3551,W,1,10,1.0,13.3,M,-34.6,M,,*69
$PYRTM,2024,121.671734047303,12.781381457442
$GPGGA,160716.00,3237.4619,N,11718.3579,W,1,10,1.0,11.3,M,-34.6,M,,*6F
$PYRTM,2024,121.671745634549,12.781393044687
$GPGGA,160717.00,3237.4625,N,11718.3602,W,1,10,1.0,13.8,M,-34.6,M,,*67
$PYRTM,2024,121.671757196690,12.781404606840
$GPGGA,160718.00,3237.4631,N,11718.3624,W,1,10,1.0,13.7,M,-34.6,M,,*66
$PYRTM,2024,121.671768786053,12.781416196192
$GPGGA,160719.00,3237.4635,N,11718.3649,W,1,10,1.0,13.2,M,-34.6,M,,*6D
$PYRTM,2024,121.671780343449,12.781427753588
$GPGGA,160720.00,3237.4640,N,11718.3678,W,1,10,1.0,10.8,M,-34.6,M,,*6E
$PYRTM,2024,121.671791945683,12.781439355833
$GPGGA,160721.00,3237.4643,N,11718.3703,W,1,10,1.0,8.5,M,-34.6,M,,*55
$PYRTM,2024,121.671803490451,12.781450900590
$GPGGA,160722.00,3237.4647,N,11718.3728,W,1,10,1.0,8.8,M,-34.6,M,,*56
$PYRTM,2024,121.671814152442,12.781461562581
$GPGGA,160723.00,3237.4652,N,11718.3754,W,1,10,1.0,9.3,M,-34.6,M,,*52
$PYRTM,2024,121.671825263414,12.781472673553
$GPGGA,160724.00,3237.4658,N,11718.3781,W,1,10,1.0,7.8,M,-34.6,M,,*52
$PYRTM,2024,121.671837751146,12.781485161285
$GPGGA,160725.00,3237.4664,N,11718.3808,W,1,10,1.0,9.0,M,-34.6,M,,*54
$PYRTM,2024,121.671849341007,12.781496751146
$GPGGA,160726.00,3237.4668,N,11718.3833,W,1,10,1.0,9.6,M,-34.6,M,,*55
$PYRTM,2024,121.671860899282,12.781508309421
$GPGGA,160727.00,3237.4672,N,11718.3857,W,1,10,1.0,9.3,M,-34.6,M,,*58
$PYRTM,2024,121.671872489352,12.781519899491
$GPGGA,160728.00,3237.4678,N,11718.3882,W,1,10,1.0,6.5,M,-34.6,M,,*5C
$PYRTM,2024,121.671884046956,12.781531457095
$GPGGA,160729.00,3237.4683,N,11718.3910,W,1,10,1.0,11.5,M,-34.6,M,,*65
$PYRTM,2024,121.671895648380,12.781543058519
$GPGGA,160730.00,3237.4688,N,11718.3936,W,1,10,1.0,12.1,M,-34.6,M,,*65
$PYRTM,2024,121.671907196725,12.781554606863
$GPGGA,160731.00,3237.4693,N,11718.3961,W,1,10,1.0,12.3,M,-34.6,M,,*6E
$PYRTM,2024,121.671918783333,12.781566193472
$GPGGA,160732.00,3237.4700,N,11718.3984,W,1,10,1.0,13.4,M,-34.6,M,,*6B
$PYRTM,2024,121.671930345405,12.781577755544
$GPGGA,160733.00,3237.4706,N,11718.4010,W,1,10,1.0,15.5,M,-34.6,M,,*68
$PYRTM,2024,121.671941919780,12.781589330162
$GPGGA,160734.00,3237.4711,N,11718.4038,W,1,10,1.0,14.0,M,-34.6,M,,*67
$PYRTM,2024,121.671952566424,12.781599976563
$GPGGA,160735.00,3237.4716,N,11718.4065,W,1,10,1.0,12.4,M,-34.6,M,,*6B
$PYRTM,2024,121.671964496331,12.781611906470
$GPGGA,160736.00,3237.4722,N,11718.4089,W,1,10,1.0,13.8,M,-34.6,M,,*60
$PYRTM,2024,121.671975279375,12.781622689525
$GPGGA,160737.00,3237.4729,N,11718.4113,W,1,10,1.0,15.2,M,-34.6,M,,*64
$PYRTM,2024,121.671986826701,12.781634236840
$GPGGA,160738.00,3237.4735,N,11718.4139,W,1,10,1.0,14.7,M,-34.6,M,,*6A
$PYRTM,2024,121.671997938345,12.781645348495
$GPGGA,160739.00,3237.4740,N,11718.4165,W,1,10,1.0,14.4,M,-34.6,M,,*63
$PYRTM,2024,121.672009047801,12.781656457940
$GPGGA,160740.00,3237.4743,N,11718.4190,W,1,10,1.0,14.0,M,-34.6,M,,*60
$PYRTM,2024,121.672020275590,12.781667685729
$GPGGA,160741.00,3237.4747,N,11718.4215,W,1,10,1.0,13.0,M,-34.6,M,,*6C
$PYRTM,2024,121.672031386285,12.781678796424
$GPGGA,160742.00,3237.4751,N,11718.4239,W,1,10,1.0,11.0,M,-34.6,M,,*64
$PYRTM,2024,121.672042497604,12.781689907755
$GPGGA,160743.00,3237.4758,N,11718.4265,W,1,10,1.0,12.6,M,-34.6,M,,*60
$PYRTM,2024,121.672053610069,12.781701020208
$GPGGA,160744.00,3237.4765,N,11718.4289,W,1,10,1.0,11.5,M,-34.6,M,,*6B
$PYRTM,2024,121.672064834502,12.781712244641
$GPGGA,160745.00,3237.4769,N,11718.4314,W,1,10,1.0,13.3,M,-34.6,M,,*67
$PYRTM,2024,121.672075945405,12.781723355556
$GPGGA,160746.00,3237.4772,N,11718.4341,W,1,10,1.0,13.9,M,-34.6,M,,*64
$PYRTM,2024,121.672087056389,12.781734466528
$GPGGA,160747.00,3237.4776,N,11718.4368,W,1,10,1.0,10.5,M,-34.6,M,,*65
$PYRTM,2024,121.672098644884,12.781746055035
$GPGGA,160748.00,3237.4782,N,11718.4394,W,1,10,1.0,12.8,M,-34.6,M,,*6D
$PYRTM,2024,121.672110207095,12.781757617234
$GPGGA,160749.00,3237.4788,N,11718.4418,W,1,10,1.0,14.6,M,-34.6,M,,*6D
$PYRTM,2024,121.672121794294,12.781769204433
$GPGGA,160750.00,3237.4792,N,11718.4444,W,1,10,1.0,14.6,M,-34.6,M,,*67
$PYRTM,2024,121.672133352824,12.781780762963
$GPGGA,160751.00,3237.4797,N,11718.4472,W,1,10,1.0,13.6,M,-34.6,M,,*61
$PYRTM,2024,121.672144941551,12.781792351690
$GPGGA,160752.00,3237.4801,N,11718.4498,W,1,10,1.0,13.6,M,-34.6,M,,*66
$PYRTM,2024,121.672161825972,12.781809236111
$GPGGA,160753.00,3237.4805,N,11718.4522,W,1,10,1.0,15.1,M,-34.6,M,,*62
$PYRTM,2024,121.672173402778,12.781820812917
$GPGGA,160754.00,3237.4809,N,11718.4545,W,1,10,1.0,13.0,M,-34.6,M,,*6F
$PYRTM,2024,121.672184976447,12.781832386586
$GPGGA,160755.00,3237.4813,N,11718.4573,W,1,10,1.0,13.0,M,-34.6,M,,*60
$PYRTM,2024,121.672196549757,12.781843959896
$GPGGA,160756.00,3237.4817,N,11718.4603,W,1,10,1.0,12.8,M,-34.6,M,,*6A
$PYRTM,2024,121.672208124676,12.781855534815
$GPGGA,160757.00,3237.4822,N,11718.4628,W,1,10,1.0,15.1,M,-34.6,M,,*6A
$PYRTM,2024,121.672219713299,12.781867123437
$GPGGA,160758.00,3237.4828,N,11718.4652,W,1,10,1.0,14.0,M,-34.6,M,,*62
$PYRTM,2024,121.672231272801,12.781878682940
$GPGGA,160759.00,3237.4834,N,11718.4676,W,1,10,1.0,14.0,M,-34.6,M,,*68
$PYRTM,2024,121.672242873206,12.781890283345
$GPGGA,160800.00,3237.4838,N,11718.4703,W,1,10,1.0,15.9,M,-34.6,M,,*6C
$PYRTM,2024,121.672254419398,12.781901829537
$GPGGA,160801.00,3237.4843,N,11718.4730,W,1,10,1.0,14.3,M,-34.6,M,,*6A
$PYRTM,2024,121.672266009560,12.781913419699
$GPGGA,160802.00,3237.4847,N,11718.4758,W,1,10,1.0,13.8,M,-34.6,M,,*6F
$PYRTM,2024,121.672277569711,12.781924979850
$GPGGA,160803.00,3237.4852,N,11718.4782,W,1,10,1.0,12.5,M,-34.6,M,,*61
$PYRTM,2024,121.672289150868,12.781936561007
$GPGGA,160804.00,3237.4858,N,11718.4803,W,1,10,1.0,12.7,M,-34.6,M,,*68
$PYRTM,2024,121.672300717396,12.781948127535
$GPGGA,160805.00,3237.4863,N,11718.4829,W,1,10,1.0,12.5,M,-34.6,M,,*6B
$PYRTM,2024,121.672312303588,12.781959713727
$GPGGA,160806.00,3237.4868,N,11718.4859,W,1,10,1.0,12.9,M,-34.6,M,,*68
$PYRTM,2024,121.672323863993,12.781971274144
$GPGGA,160807.00,3237.4874,N,11718.4885,W,1,10,1.0,13.7,M,-34.6,M,,*6A
$PYRTM,2024,121.672335566771,12.781982976910
$GPGGA,160808.00,3237.4881,N,11718.4907,W,1,10,1.0,16.1,M,-34.6,M,,*67
$PYRTM,2024,121.672347013090,12.781994423229
$GPGGA,160809.00,3237.4887,N,11718.4931,W,1,10,1.0,15.7,M,-34.6,M,,*60
$PYRTM,2024,121.672358601979,12.782006012118
$GPGGA,160810.00,3237.4893,N,11718.4957,W,1,10,1.0,14.1,M,-34.6,M,,*6A
$PYRTM,2024,121.672370161678,12.782017571817
$GPGGA,160811.00,3237.4899,N,11718.4982,W,1,10,1.0,14.1,M,-34.6,M,,*69
$PYRTM,2024,121.672381735486,12.782029145625
$GPGGA,160812.00,3237.4903,N,11718.5008,W,1,10,1.0,12.5,M,-34.6,M,,*60
$PYRTM,2024,121.672393424618,12.782040834757
$GPGGA,160813.00,3237.4909,N,11718.5034,W,1,10,1.0,12.9,M,-34.6,M,,*68
$PYRTM,2024,121.672404899630,12.782052309769
$GPGGA,160814.00,3237.4916,N,11718.5057,W,1,10,1.0,12.5,M,-34.6,M,,*68
$PYRTM,2024,121.672416460231,12.782063870370
$GPGGA,160815.00,3237.4923,N,11718.5079,W,1,10,1.0,15.1,M,-34.6,M,,*60
$PYRTM,2024,121.672428048472,12.782075458611
$GPGGA,160816.00,3237.4929,N,11718.5104,W,1,10,1.0,15.8,M,-34.6,M,,*6B
$PYRTM,2024,121.672439605995,12.782087016134
$GPGGA,160817.00,3237.4932,N,11718.5132,W,1,10,1.0,14.3,M,-34.6,M,,*6F
$PYRTM,2024,121.672451195671,12.782098605810
$GPGGA,160818.00,3237.4934,N,11718.5160,W,1,10,1.0,15.9,M,-34.6,M,,*6A
$PYRTM,2024,121.672462754838,12.782110164977
$GPGGA,160819.00,3237.4937,N,11718.5188,W,1,10,1.0,15.4,M,-34.6,M,,*63
$PYRTM,2024,121.672474336377,12.782121746516
$GPGGA,160820.00,3237.4944,N,11718.5210,W,1,10,1.0,15.6,M,-34.6,M,,*6D
$PYRTM,2024,121.672485903461,12.782133313600
$GPGGA,160821.00,3237.4951,N,11718.5233,W,1,10,1.0,16.6,M,-34.6,M,,*6A
$PYRTM,2024,121.672497490058,12.782144900197
$GPGGA,160822.00,3237.4957,N,11718.5261,W,1,10,1.0,14.9,M,-34.6,M,,*65
$PYRTM,2024,121.672507678090,12.782155088229
$GPGGA,160823.00,3237.4959,N,11718.5289,W,1,10,1.0,15.2,M,-34.6,M,,*66
$PYRTM,2024,121.672519467523,12.782166877662
$GPGGA,160824.00,3237.4961,N,11718.5314,W,1,10,1.0,15.5,M,-34.6,M,,*68
$PYRTM,2024,121.672532199954,12.782179610093
$GPGGA,160825.00,3237.4965,N,11718.5338,W,1,10,1.0,14.5,M,-34.6,M,,*62
$PYRTM,2024,121.672543780926,12.782191191065
$GPGGA,160826.00,3237.4972,N,11718.5363,W,1,10,1.0,16.4,M,-34.6,M,,*6A
$PYRTM,2024,121.672555348565,12.782202758704
$GPGGA,160827.00,3237.4978,N,11718.5388,W,1,10,1.0,14.8,M,-34.6,M,,*6A
$PYRTM,2024,121.672566934248,12.782214344387
$GPGGA,160828.00,3237.4984,N,11718.5414,W,1,10,1.0,16.9,M,-34.6,M,,*67
$PYRTM,2024,121.672578496100,12.782225906238
$GPGGA,160829.00,3237.4989,N,11718.5441,W,1,10,1.0,14.8,M,-34.6,M,,*68
$PYRTM,2024,121.672590081528,12.782237491667
$GPGGA,160830.00,3237.4993,N,11718.5467,W,1,10,1.0,14.0,M,-34.6,M,,*67
$PYRTM,2024,121.672601645544,12.782249055683
$GPGGA,160831.00,3237.4999,N,11718.5491,W,1,10,1.0,15.5,M,-34.6,M,,*61
$PYRTM,2024,121.672613235185,12.782260645324
$GPGGA,160832.00,3237.5005,N,11718.5518,W,1,10,1.0,15.9,M,-34.6,M,,*63
$PYRTM,2024,121.672624791586,12.782272201725
$GPGGA,160833.00,3237.5010,N,11718.5543,W,1,10,1.0,16.2,M,-34.6,M,,*60
$PYRTM,2024,121.672636382037,12.782283792176
$GPGGA,160834.00,3237.5014,N,11718.5566,W,1,10,1.0,15.8,M,-34.6,M,,*6D
$PYRTM,2024,121.672647939803,12.782295349942
$GPGGA,160835.00,3237.5018,N,11718.5591,W,1,10,1.0,15.2,M,-34.6,M,,*62
$PYRTM,2024,121.672659516366,12.782306926505
