$PYRTM,2024,124.000008925278,15.109656335417
$GPGGA,235959.00,3454.4331,N,12128.5532,W,1,09,1.0,3.1,M,-33.0,M,,*52
$PYRTM,2024,124.000020510556,15.109667920694
$GPGGA,000000.00,3454.4336,N,12128.5534,W,1,09,1.0,3.1,M,-33.0,M,,*52
$PYRTM,2024,124.000032072604,15.109679482743
$GPGGA,000001.00,3454.4341,N,12128.5539,W,1,09,1.0,4.1,M,-33.0,M,,*59
$PYRTM,2024,124.000043659850,15.109691069988
$GPGGA,000002.00,3454.4344,N,12128.5544,W,1,09,1.0,4.1,M,-33.0,M,,*55
$PYRTM,2024,124.000055220301,15.109702630440
$GPGGA,000003.00,3454.4347,N,12128.5544,W,1,09,1.0,4.1,M,-33.0,M,,*57
$PYRTM,2024,124.000065405694,15.109712815833
$GPGGA,000004.00,3454.4352,N,12128.5543,W,1,09,1.0,4.1,M,-33.0,M,,*53
$PYRTM,2024,124.000077340463,15.109724750602
$GPGGA,000005.00,3454.4359,N,12128.5541,W,1,09,1.0,3.9,M,-33.0,M,,*54
$PYRTM,2024,124.000089955822,15.109737365961
$GPGGA,000006.00,3454.4364,N,12128.5544,W,1,09,1.0,3.9,M,-33.0,M,,*5C
$PYRTM,2024,124.000101517546,15.109748927685
$GPGGA,000007.00,3454.4366,N,12128.5546,W,1,09,1.0,3.9,M,-33.0,M,,*5D
$PYRTM,2024,124.000113105058,15.109760515197
$GPGGA,000008.00,3454.4369,N,12128.5547,W,1,09,1.0,3.9,M,-33.0,M,,*5C
$PYRTM,2024,124.000124665625,15.109772075764
$GPGGA,000009.00,3454.4376,N,12128.5547,W,1,09,1.0,4.5,M,-33.0,M,,*58
$PYRTM,2024,124.000136253958,15.109783664097
$GPGGA,000010.00,3454.4382,N,12128.5548,W,1,09,1.0,4.5,M,-33.0,M,,*54
$PYRTM,2024,124.000147813530,15.109795223669
$GPGGA,000011.00,3454.4384,N,12128.5548,W,1,09,1.0,4.5,M,-33.0,M,,*53
$PYRTM,2024,124.000159400984,15.109806811123
$GPGGA,000012.00,3454.4385,N,12128.5547,W,1,09,1.0,4.5,M,-33.0,M,,*5E
$PYRTM,2024,124.000170961435,15.109818371574
$GPGGA,000013.00,3454.4390,N,12128.5545,W,1,09,1.0,4.8,M,-33.0,M,,*54
$PYRTM,2024,124.000182552014,15.109829962153
$GPGGA,000014.00,3454.4396,N,12128.5547,W,1,09,1.0,5.2,M,-33.0,M,,*5C
$PYRTM,2024,124.000194109687,15.109841519826
$GPGGA,000015.00,3454.4400,N,12128.5553,W,1,09,1.0,5.0,M,-33.0,M,,*52
$PYRTM,2024,124.000205697292,15.109853107431
$GPGGA,000016.00,3454.4402,N,12128.5558,W,1,09,1.0,5.0,M,-33.0,M,,*58
$PYRTM,2024,124.000217258727,15.109864668866
$GPGGA,000017.00,3454.4406,N,12128.5557,W,1,09,1.0,5.3,M,-33.0,M,,*51
$PYRTM,2024,124.000228845023,15.109876255162
$GPGGA,000018.00,3454.4412,N,12128.5554,W,1,09,1.0,5.4,M,-33.0,M,,*5F
$PYRTM,2024,124.000240406632,15.109887816771
$GPGGA,000019.00,3454.4416,N,12128.5555,W,1,09,1.0,5.4,M,-33.0,M,,*5B
$PYRTM,2024,124.000251996377,15.109899406516
$GPGGA,000020.00,3454.4418,N,12128.5558,W,1,09,1.0,5.5,M,-33.0,M,,*53
$PYRTM,2024,124.000263556771,15.109910966910
$GPGGA,000021.00,3454.4421,N,12128.5560,W,1,09,1.0,5.4,M,-33.0,M,,*52
$PYRTM,2024,124.000275144317,15.109922554456
$GPGGA,000022.00,3454.4427,N,12128.5563,W,1,09,1.0,5.5,M,-33.0,M,,*55
$PYRTM,2024,124.000286702535,15.109934112674
$GPGGA,000023.00,3454.4434,N,12128.5565,W,1,09,1.0,5.6,M,-33.0,M,,*53
$PYRTM,2024,124.000298289502,15.109945699641
$GPGGA,000024.00,3454.4436,N,12128.5564,W,1,09,1.0,5.6,M,-33.0,M,,*57
$PYRTM,2024,124.000309850764,15.109957260903
$GPGGA,000025.00,3454.4436,N,12128.5561,W,1,09,1.0,5.6,M,-33.0,M,,*53
$PYRTM,2024,124.000321438009,15.109968848160
$GPGGA,000026.00,3454.4438,N,12128.5560,W,1,09,1.0,5.6,M,-33.0,M,,*5F
$PYRTM,2024,124.000333001377,15.109980411516
$GPGGA,000027.00,3454.4446,N,12128.5562,W,1,09,1.0,5.8,M,-33.0,M,,*5B
$PYRTM,2024,124.000343662951,15.109991073102
$GPGGA,000028.00,3454.4453,N,12128.5564,W,1,09,1.0,5.8,M,-33.0,M,,*56
$PYRTM,2024,124.000355586458,15.110002996597
$GPGGA,000029.00,3454.4456,N,12128.5566,W,1,09,1.0,5.9,M,-33.0,M,,*51
$PYRTM,2024,124.000366332581,15.110013742720
$GPGGA,000030.00,3454.4458,N,12128.5567,W,1,09,1.0,5.9,M,-33.0,M,,*56
$PYRTM,2024,124.000377342558,15.110024752697
$GPGGA,000031.00,3454.4462,N,12128.5567,W,1,09,1.0,5.9,M,-33.0,M,,*5E
$PYRTM,2024,124.000388447407,15.110035857558
$GPGGA,000032.00,3454.4466,N,12128.5566,W,1,09,1.0,5.9,M,-33.0,M,,*58
$PYRTM,2024,124.000399564051,15.110046974190
$GPGGA,000033.00,3454.4469,N,12128.5565,W,1,09,1.0,5.9,M,-33.0,M,,*55
$PYRTM,2024,124.000415176539,15.110062586690
$GPGGA,000034.00,3454.4472,N,12128.5562,W,1,09,1.0,5.9,M,-33.0,M,,*5F
$PYRTM,2024,124.000426299572,15.110073709711
$GPGGA,000035.00,3454.4477,N,12128.5562,W,1,09,1.0,5.9,M,-33.0,M,,*5B
$PYRTM,2024,124.000448742512,15.110096152650
$GPGGA,000036.00,3454.4483,N,12128.5569,W,1,09,1.0,5.7,M,-33.0,M,,*56
$PYRTM,2024,124.000459852928,15.110107263067
$GPGGA,000037.00,3454.4487,N,12128.5577,W,1,09,1.0,6.0,M,-33.0,M,,*58
$PYRTM,2024,124.000470964780,15.110118374919
$GPGGA,000038.00,3454.4491,N,12128.5580,W,1,09,1.0,6.5,M,-33.0,M,,*5D
$PYRTM,2024,124.000482074190,15.110129484329
$GPGGA,000039.00,3454.4495,N,12128.5573,W,1,09,1.0,6.6,M,-33.0,M,,*57
$PYRTM,2024,124.000493084248,15.110140494387
$GPGGA,000040.00,3454.4500,N,12128.5569,W,1,09,1.0,6.5,M,-33.0,M,,*5C
$PYRTM,2024,124.000504193704,15.110151603843
$GPGGA,000041.00,3454.4503,N,12128.5573,W,1,09,1.0,5.9,M,-33.0,M,,*5A
$PYRTM,2024,124.000515303750,15.110162713889
$GPGGA,000042.00,3454.4505,N,12128.5581,W,1,09,1.0,5.6,M,-33.0,M,,*5D
$PYRTM,2024,124.000526417697,15.110173827836
$GPGGA,000043.00,3454.4506,N,12128.5583,W,1,09,1.0,5.6,M,-33.0,M,,*5D
$PYRTM,2024,124.000537993519,15.110185403657
$GPGGA,000044.00,3454.4510,N,12128.5578,W,1,09,1.0,5.4,M,-33.0,M,,*5B
$PYRTM,2024,124.000548972211,15.110196382350
$GPGGA,000045.00,3454.4517,N,12128.5573,W,1,09,1.0,5.5,M,-33.0,M,,*57
$PYRTM,2024,124.000560084630,15.110207494769
$GPGGA,000046.00,3454.4521,N,12128.5572,W,1,09,1.0,5.5,M,-33.0,M,,*50
$PYRTM,2024,124.000571194861,15.110218605000
$GPGGA,000047.00,3454.4523,N,12128.5575,W,1,09,1.0,5.6,M,-33.0,M,,*57
$PYRTM,2024,124.000582306516,15.110229716655
$GPGGA,000048.00,3454.4525,N,12128.5577,W,1,09,1.0,5.6,M,-33.0,M,,*5C
$PYRTM,2024,124.000593418009,15.110240828148
$GPGGA,000049.00,3454.4532,N,12128.5577,W,1,09,1.0,5.8,M,-33.0,M,,*55
$PYRTM,2024,124.000604528623,15.110251938762
$GPGGA,000050.00,3454.4538,N,12128.5576,W,1,09,1.0,5.9,M,-33.0,M,,*57
$PYRTM,2024,124.000615523102,15.110262933241
$GPGGA,000051.00,3454.4542,N,12128.5576,W,1,09,1.0,5.9,M,-33.0,M,,*5B
$PYRTM,2024,124.000626635972,15.110274046111
$GPGGA,000052.00,3454.4543,N,12128.5578,W,1,09,1.0,5.9,M,-33.0,M,,*57
$PYRTM,2024,124.000637745926,15.110285156065
$GPGGA,000053.00,3454.4544,N,12128.5580,W,1,09,1.0,5.9,M,-33.0,M,,*56
$PYRTM,2024,124.000649335394,15.110296745532
$GPGGA,000054.00,3454.4546,N,12128.5578,W,1,09,1.0,5.9,M,-33.0,M,,*54
$PYRTM,2024,124.000660332639,15.110307742778
$GPGGA,000055.00,3454.4550,N,12128.5576,W,1,09,1.0,6.0,M,-33.0,M,,*56
$PYRTM,2024,124.000671447477,15.110318857604
$GPGGA,000056.00,3454.4556,N,12128.5577,W,1,09,1.0,5.9,M,-33.0,M,,*58
$PYRTM,2024,124.000682553310,15.110329963449
$GPGGA,000057.00,3454.4560,N,12128.5581,W,1,09,1.0,5.6,M,-33.0,M,,*5A
$PYRTM,2024,124.000693661991,15.110341072130
$GPGGA,000058.00,3454.4561,N,12128.5584,W,1,09,1.0,5.6,M,-33.0,M,,*51
$PYRTM,2024,124.000704759606,15.110352169745
$GPGGA,000059.00,3454.4563,N,12128.5584,W,1,09,1.0,5.6,M,-33.0,M,,*52
$PYRTM,2024,124.000715900058,15.110363310197
$GPGGA,000100.00,3454.4568,N,12128.5581,W,1,09,1.0,5.5,M,-33.0,M,,*52
$PYRTM,2024,124.000726867141,15.110374277280
$GPGGA,000101.00,3454.4573,N,12128.5579,W,1,09,1.0,5.3,M,-33.0,M,,*58
$PYRTM,2024,124.000738101215,15.110385511354
$GPGGA,000102.00,3454.4576,N,12128.5578,W,1,09,1.0,5.3,M,-33.0,M,,*5F
$PYRTM,2024,124.000749680706,15.110397090845
$GPGGA,000103.00,3454.4579,N,12128.5580,W,1,09,1.0,5.3,M,-33.0,M,,*56
$PYRTM,2024,124.000759862697,15.110407272836
$GPGGA,000104.00,3454.4583,N,12128.5584,W,1,09,1.0,5.2,M,-33.0,M,,*51
$PYRTM,2024,124.000771782130,15.110419192269
$GPGGA,000105.00,3454.4586,N,12128.5589,W,1,09,1.0,5.2,M,-33.0,M,,*58
$PYRTM,2024,124.000784403600,15.110431813750
$GPGGA,000106.00,3454.4589,N,12128.5590,W,1,09,1.0,5.2,M,-33.0,M,,*5C
$PYRTM,2024,124.000795976192,15.110443386331
$GPGGA,000107.00,3454.4593,N,12128.5586,W,1,09,1.0,5.2,M,-33.0,M,,*51
$PYRTM,2024,124.000807552002,15.110454962141
$GPGGA,000108.00,3454.4598,N,12128.5584,W,1,09,1.0,5.3,M,-33.0,M,,*56
$PYRTM,2024,124.000819120255,15.110466530405
$GPGGA,000109.00,3454.4602,N,12128.5587,W,1,09,1.0,5.3,M,-33.0,M,,*54
$PYRTM,2024,124.000830714433,15.110478124572
$GPGGA,000110.00,3454.4605,N,12128.5592,W,1,09,1.0,5.3,M,-33.0,M,,*5F
$PYRTM,2024,124.000842273461,15.110489683600
$GPGGA,000111.00,3454.4610,N,12128.5595,W,1,09,1.0,5.3,M,-33.0,M,,*5D
$PYRTM,2024,124.000853843738,15.110501253877
$GPGGA,000112.00,3454.4616,N,12128.5593,W,1,09,1.0,5.5,M,-33.0,M,,*58
$PYRTM,2024,124.000865417488,15.110512827627
$GPGGA,000113.00,3454.4622,N,12128.5590,W,1,09,1.0,5.6,M,-33.0,M,,*5E
$PYRTM,2024,124.000876991516,15.110524401655
$GPGGA,000114.00,3454.4623,N,12128.5591,W,1,09,1.0,5.7,M,-33.0,M,,*58
$PYRTM,2024,124.000888565185,15.110535975324
$GPGGA,000115.00,3454.4624,N,12128.5593,W,1,09,1.0,5.7,M,-33.0,M,,*5C
$PYRTM,2024,124.000900146111,15.110547556250
$GPGGA,000116.00,3454.4626,N,12128.5590,W,1,09,1.0,5.3,M,-33.0,M,,*5A
$PYRTM,2024,124.000911719086,15.110559129225
$GPGGA,000117.00,3454.4631,N,12128.5587,W,1,09,1.0,5.3,M,-33.0,M,,*5B
$PYRTM,2024,124.000923287847,15.110570697986
$GPGGA,000118.00,3454.4636,N,12128.5585,W,1,09,1.0,6.0,M,-33.0,M,,*51
$PYRTM,2024,124.000934862118,15.110582272257
$GPGGA,000119.00,3454.4639,N,12128.5588,W,1,09,1.0,6.0,M,-33.0,M,,*52
$PYRTM,2024,124.000946443449,15.110593853588
$GPGGA,000120.00,3454.4641,N,12128.5591,W,1,09,1.0,6.0,M,-33.0,M,,*5F
$PYRTM,2024,124.000958014734,15.110605424873
$GPGGA,000121.00,3454.4644,N,12128.5593,W,1,09,1.0,5.8,M,-33.0,M,,*52
$PYRTM,2024,124.000969576609,15.110616986748
$GPGGA,000122.00,3454.4651,N,12128.5591,W,1,09,1.0,5.4,M,-33.0,M,,*5B
$PYRTM,2024,124.000981162951,15.110628573090
$GPGGA,000123.00,3454.4656,N,12128.5589,W,1,09,1.0,5.3,M,-33.0,M,,*53
$PYRTM,2024,124.000992732975,15.110640143113
$GPGGA,000124.00,3454.4658,N,12128.5588,W,1,09,1.0,5.3,M,-33.0,M,,*5B
$PYRTM,2024,124.001004311134,15.110651721273
$GPGGA,000125.00,3454.4659,N,12128.5590,W,1,09,1.0,5.3,M,-33.0,M,,*52
$PYRTM,2024,124.001015884896,15.110663295035
$GPGGA,000126.00,3454.4664,N,12128.5593,W,1,09,1.0,5.8,M,-33.0,M,,*57
$PYRTM,2024,124.001027459282,15.110674869421
$GPGGA,000127.00,3454.4670,N,12128.5597,W,1,09,1.0,5.7,M,-33.0,M,,*58
$PYRTM,2024,124.001039037731,15.110686447870
$GPGGA,000128.00,3454.4676,N,12128.5598,W,1,09,1.0,5.6,M,-33.0,M,,*5F
$PYRTM,2024,124.001050607500,15.110698017639
$GPGGA,000129.00,3454.4678,N,12128.5595,W,1,09,1.0,5.6,M,-33.0,M,,*5D
$PYRTM,2024,124.001062184213,15.110709594352
$GPGGA,000130.00,3454.4680,N,12128.5594,W,1,09,1.0,5.6,M,-33.0,M,,*53
$PYRTM,2024,124.001073751308,15.110721161447
$GPGGA,000131.00,3454.4684,N,12128.5597,W,1,09,1.0,6.1,M,-33.0,M,,*51
$PYRTM,2024,124.001085330775,15.110732740914
$GPGGA,000132.00,3454.4691,N,12128.5601,W,1,09,1.0,5.9,M,-33.0,M,,*51
$PYRTM,2024,124.001096903843,15.110744313981
$GPGGA,000133.00,3454.4694,N,12128.5602,W,1,09,1.0,5.8,M,-33.0,M,,*57
$PYRTM,2024,124.001107552650,15.110754962789
$GPGGA,000134.00,3454.4695,N,12128.5598,W,1,09,1.0,5.8,M,-33.0,M,,*51
$PYRTM,2024,124.001119010602,15.110766420741
$GPGGA,000135.00,3454.4697,N,12128.5597,W,1,09,1.0,5.8,M,-33.0,M,,*5D
$PYRTM,2024,124.001131628206,15.110779038345
$GPGGA,000136.00,3454.4702,N,12128.5602,W,1,09,1.0,5.8,M,-33.0,M,,*5C
$PYRTM,2024,124.001143201343,15.110790611481
$GPGGA,000137.00,3454.4706,N,12128.5610,W,1,09,1.0,5.8,M,-33.0,M,,*5A
$PYRTM,2024,124.001154790116,15.110802200255
$GPGGA,000138.00,3454.4708,N,12128.5613,W,1,09,1.0,5.9,M,-33.0,M,,*59
$PYRTM,2024,124.001166349444,15.110813759583
$GPGGA,000139.00,3454.4710,N,12128.5607,W,1,09,1.0,6.2,M,-33.0,M,,*5C
$PYRTM,2024,124.001177925382,15.110825335521
$GPGGA,000140.00,3454.4713,N,12128.5602,W,1,09,1.0,6.2,M,-33.0,M,,*54
$PYRTM,2024,124.001189497025,15.110836907164
$GPGGA,000141.00,3454.4718,N,12128.5604,W,1,09,1.0,6.6,M,-33.0,M,,*5C
$PYRTM,2024,124.001201071725,15.110848481863
$GPGGA,000142.00,3454.4722,N,12128.5610,W,1,09,1.0,6.4,M,-33.0,M,,*51
$PYRTM,2024,124.001212645845,15.110860055984
$GPGGA,000143.00,3454.4726,N,12128.5613,W,1,09,1.0,6.3,M,-33.0,M,,*50
$PYRTM,2024,124.001224221354,15.110871631493
$GPGGA,000144.00,3454.4731,N,12128.5609,W,1,09,1.0,6.0,M,-33.0,M,,*59
$PYRTM,2024,124.001235793530,15.110883203669
$GPGGA,000145.00,3454.4736,N,12128.5603,W,1,09,1.0,6.2,M,-33.0,M,,*57
$PYRTM,2024,124.001247369144,15.110894779282
$GPGGA,000146.00,3454.4739,N,12128.5602,W,1,09,1.0,6.3,M,-33.0,M,,*5B
$PYRTM,2024,124.001258941910,15.110906352049
$GPGGA,000147.00,3454.4739,N,12128.5607,W,1,09,1.0,6.3,M,-33.0,M,,*5F
$PYRTM,2024,124.001270521262,15.110917931412
$GPGGA,000148.00,3454.4741,N,12128.5613,W,1,09,1.0,6.3,M,-33.0,M,,*5A
$PYRTM,2024,124.001282091493,15.110929501632
$GPGGA,000149.00,3454.4745,N,12128.5613,W,1,09,1.0,6.2,M,-33.0,M,,*5E
$PYRTM,2024,124.001293535185,15.110940945324
$GPGGA,000150.00,3454.4751,N,12128.5608,W,1,09,1.0,8.0,M,-33.0,M,,*55
$PYRTM,2024,124.001305123519,15.110952533657
$GPGGA,000151.00,3454.4757,N,12128.5604,W,1,09,1.0,8.0,M,-33.0,M,,*5E
$PYRTM,2024,124.001316682685,15.110964092824
$GPGGA,000152.00,3454.4760,N,12128.5606,W,1,09,1.0,8.7,M,-33.0,M,,*5C
$PYRTM,2024,124.001328382049,15.110975792188
$GPGGA,000153.00,3454.4763,N,12128.5614,W,1,09,1.0,8.8,M,-33.0,M,,*52
$PYRTM,2024,124.001339962095,15.110987372234
$GPGGA,000154.00,3454.4767,N,12128.5618,W,1,09,1.0,7.6,M,-33.0,M,,*5C
$PYRTM,2024,124.001351534838,15.110998944977
$GPGGA,000155.00,3454.4771,N,12128.5615,W,1,09,1.0,7.0,M,-33.0,M,,*51
$PYRTM,2024,124.001363112188,15.111010522326
$GPGGA,000156.00,3454.4774,N,12128.5609,W,1,09,1.0,5.4,M,-33.0,M,,*5C
$PYRTM,2024,124.001374684525,15.111022094664
$GPGGA,000157.00,3454.4775,N,12128.5606,W,1,09,1.0,5.5,M,-33.0,M,,*52
$PYRTM,2024,124.001386260995,15.111033671146
$GPGGA,000158.00,3454.4777,N,12128.5609,W,1,09,1.0,5.0,M,-33.0,M,,*55
$PYRTM,2024,124.001397831447,15.111045241586
$GPGGA,000159.00,3454.4780,N,12128.5616,W,1,09,1.0,4.8,M,-33.0,M,,*5B
$PYRTM,2024,124.001409407685,15.111056817824
$GPGGA,000200.00,3454.4784,N,12128.5619,W,1,09,1.0,4.8,M,-33.0,M,,*5F
$PYRTM,2024,124.001420981424,15.111068391562
$GPGGA,000201.00,3454.4785,N,12128.5616,W,1,09,1.0,4.8,M,-33.0,M,,*50
$PYRTM,2024,124.001432555012,15.111079965150
$GPGGA,000202.00,3454.4787,N,12128.5610,W,1,09,1.0,4.8,M,-33.0,M,,*57
$PYRTM,2024,124.001444128796,15.111091538935
$GPGGA,000203.00,3454.4791,N,12128.5610,W,1,09,1.0,5.2,M,-33.0,M,,*5A
$PYRTM,2024,124.001454311782,15.111101721921
$GPGGA,000204.00,3454.4798,N,12128.5614,W,1,09,1.0,7.0,M,-33.0,M,,*50
$PYRTM,2024,124.001466235208,15.111113645359
$GPGGA,000205.00,3454.4804,N,12128.5618,W,1,09,1.0,6.7,M,-33.0,M,,*51
$PYRTM,2024,124.001478865255,15.111126275394
$GPGGA,000206.00,3454.4807,N,12128.5619,W,1,09,1.0,6.7,M,-33.0,M,,*50
$PYRTM,2024,124.001490420266,15.111137830405
$GPGGA,000207.00,3454.4808,N,12128.5616,W,1,09,1.0,6.7,M,-33.0,M,,*51
$PYRTM,2024,124.001501998634,15.111149408785
$GPGGA,000208.00,3454.4813,N,12128.5613,W,1,09,1.0,5.8,M,-33.0,M,,*5D
$PYRTM,2024,124.001513572940,15.111160983079
$GPGGA,000209.00,3454.4821,N,12128.5614,W,1,09,1.0,6.3,M,-33.0,M,,*52
$PYRTM,2024,124.001525146632,15.111172556782
$GPGGA,000210.00,3454.4825,N,12128.5617,W,1,09,1.0,6.0,M,-33.0,M,,*5E
$PYRTM,2024,124.001536722454,15.111184132593
$GPGGA,000211.00,3454.4825,N,12128.5619,W,1,09,1.0,6.0,M,-33.0,M,,*51
$PYRTM,2024,124.001548295313,15.111195705451
$GPGGA,000212.00,3454.4827,N,12128.5618,W,1,09,1.0,6.0,M,-33.0,M,,*51
$PYRTM,2024,124.001559869965,15.111207280116
$GPGGA,000213.00,3454.4833,N,12128.5616,W,1,09,1.0,6.5,M,-33.0,M,,*5E
$PYRTM,2024,124.001571443576,15.111218853715
$GPGGA,000214.00,3454.4841,N,12128.5616,W,1,09,1.0,6.6,M,-33.0,M,,*5F
$PYRTM,2024,124.001583018993,15.111230429132
$GPGGA,000215.00,3454.4845,N,12128.5619,W,1,09,1.0,6.7,M,-33.0,M,,*54
$PYRTM,2024,124.001594595174,15.111242005312
$GPGGA,000216.00,3454.4844,N,12128.5623,W,1,09,1.0,6.7,M,-33.0,M,,*5F
$PYRTM,2024,124.001606166076,15.111253576215
$GPGGA,000217.00,3454.4844,N,12128.5626,W,1,09,1.0,6.7,M,-33.0,M,,*5B
$PYRTM,2024,124.001617740787,15.111265150926
$GPGGA,000218.00,3454.4845,N,12128.5624,W,1,09,1.0,6.4,M,-33.0,M,,*54
$PYRTM,2024,124.001629314352,15.111276724491
$GPGGA,000219.00,3454.4850,N,12128.5621,W,1,09,1.0,6.3,M,-33.0,M,,*53
$PYRTM,2024,124.001640888646,15.111288298785
$GPGGA,000220.00,3454.4854,N,12128.5622,W,1,09,1.0,6.0,M,-33.0,M,,*5D
$PYRTM,2024,124.001652461887,15.111299872025
$GPGGA,000221.00,3454.4855,N,12128.5628,W,1,09,1.0,6.0,M,-33.0,M,,*57
$PYRTM,2024,124.001664032315,15.111311442454
$GPGGA,000222.00,3454.4854,N,12128.5634,W,1,09,1.0,6.1,M,-33.0,M,,*59
$PYRTM,2024,124.001675598125,15.111323008275
$GPGGA,000223.00,3454.4855,N,12128.5633,W,1,09,1.0,5.8,M,-33.0,M,,*54
$PYRTM,2024,124.001685203519,15.111332613657
$GPGGA,000224.00,3454.4861,N,12128.5627,W,1,09,1.0,5.5,M,-33.0,M,,*5C
$PYRTM,2024,124.001698759225,15.111346169363
$GPGGA,000225.00,3454.4865,N,12128.5626,W,1,09,1.0,5.5,M,-33.0,M,,*58
$PYRTM,2024,124.001710336042,15.111357746181
$GPGGA,000226.00,3454.4865,N,12128.5630,W,1,09,1.0,5.5,M,-33.0,M,,*5C
$PYRTM,2024,124.001721908495,15.111369318634
$GPGGA,000227.00,3454.4862,N,12128.5634,W,1,09,1.0,5.5,M,-33.0,M,,*5E
$PYRTM,2024,124.001733480625,15.111380890764
$GPGGA,000228.00,3454.4863,N,12128.5636,W,1,09,1.0,5.5,M,-33.0,M,,*52
$PYRTM,2024,124.001745054525,15.111392464664
$GPGGA,000229.00,3454.4868,N,12128.5636,W,1,09,1.0,5.4,M,-33.0,M,,*59
$PYRTM,2024,124.001756629167,15.111404039306
$GPGGA,000230.00,3454.4873,N,12128.5636,W,1,09,1.0,5.4,M,-33.0,M,,*5B
$PYRTM,2024,124.001768203009,15.111415613148
$GPGGA,000231.00,3454.4874,N,12128.5635,W,1,09,1.0,5.4,M,-33.0,M,,*5E
$PYRTM,2024,124.001779777164,15.111427187303
$GPGGA,000232.00,3454.4875,N,12128.5636,W,1,09,1.0,5.4,M,-33.0,M,,*5F
$PYRTM,2024,124.001790425093,15.111437835231
$GPGGA,000233.00,3454.4879,N,12128.5638,W,1,09,1.0,5.3,M,-33.0,M,,*5B
$PYRTM,2024,124.001803491736,15.111450901875
$GPGGA,000234.00,3454.4884,N,12128.5638,W,1,09,1.0,5.5,M,-33.0,M,,*58
$PYRTM,2024,124.001814154282,15.111461564421
$GPGGA,000235.00,3454.4888,N,12128.5638,W,1,09,1.0,5.5,M,-33.0,M,,*55
$PYRTM,2024,124.001825263553,15.111472673692
$GPGGA,000236.00,3454.4889,N,12128.5637,W,1,09,1.0,5.5,M,-33.0,M,,*58
$PYRTM,2024,124.001836374780,15.111483784919
$GPGGA,000237.00,3454.4890,N,12128.5639,W,1,09,1.0,5.4,M,-33.0,M,,*5E
$PYRTM,2024,124.001847486840,15.111494896979
$GPGGA,000238.00,3454.4893,N,12128.5642,W,1,09,1.0,5.5,M,-33.0,M,,*5F
$PYRTM,2024,124.001858484873,15.111505895012
$GPGGA,000239.00,3454.4897,N,12128.5642,W,1,09,1.0,5.4,M,-33.0,M,,*5B
$PYRTM,2024,124.001869594097,15.111517004236
$GPGGA,000240.00,3454.4901,N,12128.5641,W,1,09,1.0,5.5,M,-33.0,M,,*59
$PYRTM,2024,124.001880705405,15.111528115556
$GPGGA,000241.00,3454.4904,N,12128.5642,W,1,09,1.0,5.5,M,-33.0,M,,*5E
$PYRTM,2024,124.001891831192,15.111539241331
$GPGGA,000242.00,3454.4904,N,12128.5644,W,1,09,1.0,5.5,M,-33.0,M,,*5B
$PYRTM,2024,124.001902921933,15.111550332072
$GPGGA,000243.00,3454.4905,N,12128.5646,W,1,09,1.0,5.5,M,-33.0,M,,*59
$PYRTM,2024,124.001914040347,15.111561450486
$GPGGA,000244.00,3454.4909,N,12128.5647,W,1,09,1.0,5.5,M,-33.0,M,,*53
$PYRTM,2024,124.001932542766,15.111579952905
$GPGGA,000245.00,3454.4914,N,12128.5646,W,1,09,1.0,5.5,M,-33.0,M,,*5F
$PYRTM,2024,124.001943652315,15.111591062465
$GPGGA,000246.00,3454.4918,N,12128.5644,W,1,09,1.0,5.5,M,-33.0,M,,*52
$PYRTM,2024,124.001954764271,15.111602174410
$GPGGA,000247.00,3454.4920,N,12128.5645,W,1,09,1.0,5.5,M,-33.0,M,,*59
$PYRTM,2024,124.001965761505,15.111613171655
$GPGGA,000248.00,3454.4922,N,12128.5652,W,1,09,1.0,5.6,M,-33.0,M,,*51
$PYRTM,2024,124.001976871840,15.111624281979
$GPGGA,000249.00,3454.4924,N,12128.5657,W,1,09,1.0,5.6,M,-33.0,M,,*53
$PYRTM,2024,124.001987983009,15.111635393160
$GPGGA,000250.00,3454.4926,N,12128.5657,W,1,09,1.0,5.5,M,-33.0,M,,*5A
$PYRTM,2024,124.001999094792,15.111646504931
$GPGGA,000251.00,3454.4928,N,12128.5650,W,1,09,1.0,5.7,M,-33.0,M,,*50
$PYRTM,2024,124.002010206042,15.111657616192
$GPGGA,000252.00,3454.4934,N,12128.5647,W,1,09,1.0,5.6,M,-33.0,M,,*59
$PYRTM,2024,124.002021317546,15.111668727685
$GPGGA,000253.00,3454.4939,N,12128.5653,W,1,09,1.0,5.5,M,-33.0,M,,*53
$PYRTM,2024,124.002032791123,15.111680201262
$GPGGA,000254.00,3454.4940,N,12128.5661,W,1,09,1.0,5.1,M,-33.0,M,,*5F
$PYRTM,2024,124.002043899086,15.111691309225
$GPGGA,000255.00,3454.4941,N,12128.5665,W,1,09,1.0,5.3,M,-33.0,M,,*59
$PYRTM,2024,124.002055013426,15.111702423576
$GPGGA,000256.00,3454.4947,N,12128.5664,W,1,09,1.0,5.0,M,-33.0,M,,*5E
$PYRTM,2024,124.002066124213,15.111713534352
$GPGGA,000257.00,3454.4953,N,12128.5662,W,1,09,1.0,5.0,M,-33.0,M,,*5C
$PYRTM,2024,124.002077233715,15.111724643854
$GPGGA,000258.00,3454.4957,N,12128.5663,W,1,09,1.0,5.0,M,-33.0,M,,*56
$PYRTM,2024,124.002088228773,15.111735638924
$GPGGA,000259.00,3454.4959,N,12128.5667,W,1,09,1.0,5.0,M,-33.0,M,,*5D
$PYRTM,2024,124.002099338912,15.111746749062
$GPGGA,000300.00,3454.4962,N,12128.5672,W,1,09,1.0,4.5,M,-33.0,M,,*58
$PYRTM,2024,124.002110450764,15.111757860914
$GPGGA,000301.00,3454.4966,N,12128.5676,W,1,09,1.0,4.6,M,-33.0,M,,*5A
$PYRTM,2024,124.002121681609,15.111769091748
$GPGGA,000302.00,3454.4969,N,12128.5673,W,1,09,1.0,4.6,M,-33.0,M,,*53
$PYRTM,2024,124.002133239734,15.111780649884
$GPGGA,000303.00,3454.4975,N,12128.5667,W,1,09,1.0,4.8,M,-33.0,M,,*54
$PYRTM,2024,124.002150137257,15.111797547396
$GPGGA,000304.00,3454.4982,N,12128.5668,W,1,09,1.0,4.9,M,-33.0,M,,*55
$PYRTM,2024,124.002161723495,15.111809133634
$GPGGA,000305.00,3454.4987,N,12128.5676,W,1,09,1.0,4.2,M,-33.0,M,,*55
$PYRTM,2024,124.002173283484,15.111820693623
$GPGGA,000306.00,3454.4991,N,12128.5682,W,1,09,1.0,4.1,M,-33.0,M,,*59
$PYRTM,2024,124.002184872130,15.111832282269
$GPGGA,000307.00,3454.4993,N,12128.5680,W,1,09,1.0,4.2,M,-33.0,M,,*5B
$PYRTM,2024,124.002196431435,15.111843841586
$GPGGA,000308.00,3454.4998,N,12128.5674,W,1,09,1.0,4.3,M,-33.0,M,,*55
$PYRTM,2024,124.002208020127,15.111855430266
$GPGGA,000309.00,3454.5003,N,12128.5673,W,1,09,1.0,4.2,M,-33.0,M,,*58
$PYRTM,2024,124.002219580243,15.111866990394
$GPGGA,000310.00,3454.5006,N,12128.5678,W,1,09,1.0,4.3,M,-33.0,M,,*5F
$PYRTM,2024,124.002231169514,15.111878579653
$GPGGA,000311.00,3454.5008,N,12128.5685,W,1,09,1.0,4.0,M,-33.0,M,,*51
$PYRTM,2024,124.002242729097,15.111890139236
$GPGGA,000312.00,3454.5012,N,12128.5690,W,1,09,1.0,3.8,M,-33.0,M,,*52
$PYRTM,2024,124.002254313032,15.111901723171
$GPGGA,000313.00,3454.5017,N,12128.5688,W,1,09,1.0,4.1,M,-33.0,M,,*51
$PYRTM,2024,124.002265876921,15.111913287072
$GPGGA,000314.00,3454.5020,N,12128.5682,W,1,09,1.0,5.2,M,-33.0,M,,*5A
$PYRTM,2024,124.002277459248,15.111924869387
$GPGGA,000315.00,3454.5024,N,12128.5679,W,1,09,1.0,6.4,M,-33.0,M,,*5E
$PYRTM,2024,124.002289025208,15.111936435347
$GPGGA,000316.00,3454.5027,N,12128.5684,W,1,09,1.0,6.8,M,-33.0,M,,*50
$PYRTM,2024,124.002300608299,15.111948018437
$GPGGA,000317.00,3454.5031,N,12128.5689,W,1,09,1.0,7.1,M,-33.0,M,,*53
$PYRTM,2024,124.002312173889,15.111959584039
$GPGGA,000318.00,3454.5034,N,12128.5691,W,1,09,1.0,7.1,M,-33.0,M,,*50
$PYRTM,2024,124.002323762593,15.111971172731
$GPGGA,000319.00,3454.5037,N,12128.5689,W,1,09,1.0,6.9,M,-33.0,M,,*52
$PYRTM,2024,124.002335321331,15.111982731470
$GPGGA,000320.00,3454.5042,N,12128.5686,W,1,09,1.0,7.0,M,-33.0,M,,*5D
$PYRTM,2024,124.002346908912,15.111994319051
$GPGGA,000321.00,3454.5045,N,12128.5687,W,1,09,1.0,7.0,M,-33.0,M,,*5A
$PYRTM,2024,124.002358470000,15.112005880139
$GPGGA,000322.00,3454.5050,N,12128.5691,W,1,09,1.0,7.2,M,-33.0,M,,*58
$PYRTM,2024,124.002370057141,15.112017467280
$GPGGA,000323.00,3454.5057,N,12128.5696,W,1,09,1.0,7.3,M,-33.0,M,,*58
$PYRTM,2024,124.002381617373,15.112029027512
$GPGGA,000324.00,3454.5063,N,12128.5695,W,1,09,1.0,7.3,M,-33.0,M,,*5B
$PYRTM,2024,124.002393199919,15.112040610058
$GPGGA,000325.00,3454.5067,N,12128.5692,W,1,09,1.0,7.3,M,-33.0,M,,*59
$PYRTM,2024,124.002404765451,15.112052175602
$GPGGA,000326.00,3454.5070,N,12128.5690,W,1,09,1.0,7.4,M,-33.0,M,,*59
$PYRTM,2024,124.002416349873,15.112063760012
$GPGGA,000327.00,3454.5074,N,12128.5692,W,1,09,1.0,9.5,M,-33.0,M,,*51
$PYRTM,2024,124.002427915428,15.112075325567
$GPGGA,000328.00,3454.5078,N,12128.5698,W,1,09,1.0,9.3,M,-33.0,M,,*5E
$PYRTM,2024,124.002439501551,15.112086911690
$GPGGA,000329.00,3454.5082,N,12128.5703,W,1,09,1.0,9.0,M,-33.0,M,,*5A
$PYRTM,2024,124.002451062060,15.112098472199
$GPGGA,000330.00,3454.5086,N,12128.5703,W,1,09,1.0,4.6,M,-33.0,M,,*5D
$PYRTM,2024,124.002462651921,15.112110062060
$GPGGA,000331.00,3454.5091,N,12128.5698,W,1,09,1.0,4.6,M,-33.0,M,,*59
$PYRTM,2024,124.002474210255,15.112121620394
$GPGGA,000332.00,3454.5094,N,12128.5696,W,1,09,1.0,5.1,M,-33.0,M,,*57
$PYRTM,2024,124.002485799167,15.112133209306
$GPGGA,000333.00,3454.5097,N,12128.5702,W,1,09,1.0,5.8,M,-33.0,M,,*50
$PYRTM,2024,124.002495984896,15.112143395035
$GPGGA,000334.00,3454.5101,N,12128.5708,W,1,09,1.0,5.8,M,-33.0,M,,*53
$PYRTM,2024,124.002507920787,15.112155330926
$GPGGA,000335.00,3454.5104,N,12128.5709,W,1,09,1.0,5.8,M,-33.0,M,,*56
$PYRTM,2024,124.002520507512,15.112167917650
$GPGGA,000336.00,3454.5109,N,12128.5707,W,1,09,1.0,6.1,M,-33.0,M,,*5C
$PYRTM,2024,124.002532091412,15.112179501551
$GPGGA,000337.00,3454.5114,N,12128.5706,W,1,09,1.0,6.6,M,-33.0,M,,*57
$PYRTM,2024,124.002543656169,15.112191066308
$GPGGA,000338.00,3454.5116,N,12128.5708,W,1,09,1.0,6.7,M,-33.0,M,,*55
$PYRTM,2024,124.002555243819,15.112202653958
$GPGGA,000339.00,3454.5116,N,12128.5711,W,1,09,1.0,6.8,M,-33.0,M,,*53
$PYRTM,2024,124.002566804363,15.112214214502
$GPGGA,000340.00,3454.5121,N,12128.5712,W,1,09,1.0,5.0,M,-33.0,M,,*51
$PYRTM,2024,124.002578387037,15.112225797176
$GPGGA,000341.00,3454.5127,N,12128.5711,W,1,09,1.0,5.1,M,-33.0,M,,*54
$PYRTM,2024,124.002589951493,15.112237361632
$GPGGA,000342.00,3454.5128,N,12128.5712,W,1,09,1.0,5.1,M,-33.0,M,,*5B
$PYRTM,2024,124.002601539282,15.112248949421
$GPGGA,000343.00,3454.5128,N,12128.5716,W,1,09,1.0,5.0,M,-33.0,M,,*5F
$PYRTM,2024,124.002613099491,15.112260509630
$GPGGA,000344.00,3454.5131,N,12128.5719,W,1,09,1.0,4.8,M,-33.0,M,,*56
$PYRTM,2024,124.002624688252,15.112272098391
$GPGGA,000345.00,3454.5136,N,12128.5719,W,1,09,1.0,4.8,M,-33.0,M,,*50
$PYRTM,2024,124.002636246887,15.112283657025
$GPGGA,000346.00,3454.5139,N,12128.5716,W,1,09,1.0,4.8,M,-33.0,M,,*53
$PYRTM,2024,124.002647835023,15.112295245162
$GPGGA,000347.00,3454.5141,N,12128.5715,W,1,09,1.0,4.8,M,-33.0,M,,*5E
$PYRTM,2024,124.002659396736,15.112306806875
$GPGGA,000348.00,3454.5146,N,12128.5717,W,1,09,1.0,5.3,M,-33.0,M,,*5E
$PYRTM,2024,124.002670984375,15.112318394514
$GPGGA,000349.00,3454.5152,N,12128.5721,W,1,09,1.0,5.2,M,-33.0,M,,*5E
$PYRTM,2024,124.002682543681,15.112329953819
$GPGGA,000350.00,3454.5154,N,12128.5719,W,1,09,1.0,5.2,M,-33.0,M,,*5B
$PYRTM,2024,124.002694133681,15.112341543819
$GPGGA,000351.00,3454.5154,N,12128.5714,W,1,09,1.0,5.2,M,-33.0,M,,*57
$PYRTM,2024,124.002705691447,15.112353101586
$GPGGA,000352.00,3454.5157,N,12128.5712,W,1,09,1.0,4.7,M,-33.0,M,,*55
$PYRTM,2024,124.002717280775,15.112364690914
$GPGGA,000353.00,3454.5161,N,12128.5717,W,1,09,1.0,4.8,M,-33.0,M,,*5B
$PYRTM,2024,124.002728841296,15.112376251435
$GPGGA,000354.00,3454.5164,N,12128.5723,W,1,09,1.0,4.7,M,-33.0,M,,*51
$PYRTM,2024,124.002740429167,15.112387839306
$GPGGA,000355.00,3454.5164,N,12128.5722,W,1,09,1.0,4.7,M,-33.0,M,,*51
$PYRTM,2024,124.002751989144,15.112399399282
$GPGGA,000356.00,3454.5165,N,12128.5714,W,1,09,1.0,4.5,M,-33.0,M,,*54
$PYRTM,2024,124.002763577037,15.112410987176
$GPGGA,000357.00,3454.5167,N,12128.5710,W,1,09,1.0,4.5,M,-33.0,M,,*53
$PYRTM,2024,124.002775137975,15.112422548113
$GPGGA,000358.00,3454.5173,N,12128.5712,W,1,09,1.0,4.0,M,-33.0,M,,*5E
$PYRTM,2024,124.002786725822,15.112434135961
$GPGGA,000359.00,3454.5178,N,12128.5718,W,1,09,1.0,3.0,M,-33.0,M,,*59
$PYRTM,2024,124.002798286435,15.112445696574
$GPGGA,000400.00,3454.5177,N,12128.5719,W,1,09,1.0,3.0,M,-33.0,M,,*5C
$PYRTM,2024,124.002809874248,15.112457284387
$GPGGA,000401.00,3454.5175,N,12128.5711,W,1,09,1.0,2.5,M,-33.0,M,,*53
$PYRTM,2024,124.002821320440,15.112468730579
$GPGGA,000402.00,3454.5177,N,12128.5703,W,1,09,1.0,3.3,M,-33.0,M,,*56
$PYRTM,2024,124.002832909236,15.112480319375
$GPGGA,000403.00,3454.5183,N,12128.5701,W,1,09,1.0,6.6,M,-33.0,M,,*5E
$PYRTM,2024,124.002843655868,15.112491066007
$GPGGA,000404.00,3454.5188,N,12128.5709,W,1,09,1.0,4.5,M,-33.0,M,,*5B
$PYRTM,2024,124.002855132546,15.112502542685
$GPGGA,000405.00,3454.5187,N,12128.5717,W,1,09,1.0,3.4,M,-33.0,M,,*5C
$PYRTM,2024,124.002867615995,15.112515026123
$GPGGA,000406.00,3454.5183,N,12128.5714,W,1,09,1.0,4.6,M,-33.0,M,,*5D
$PYRTM,2024,124.002879203102,15.112526613241
$GPGGA,000407.00,3454.5184,N,12128.5704,W,1,09,1.0,4.5,M,-33.0,M,,*59
$PYRTM,2024,124.002890765590,15.112538175729
$GPGGA,000408.00,3454.5191,N,12128.5695,W,1,09,1.0,2.2,M,-33.0,M,,*5A
$PYRTM,2024,124.002902352141,15.112549762292
$GPGGA,000409.00,3454.5198,N,12128.5697,W,1,09,1.0,0.3,M,-33.0,M,,*53
$PYRTM,2024,124.002913912870,15.112561323009
$GPGGA,000410.00,3454.5195,N,12128.5705,W,1,09,1.0,1.9,M,-33.0,M,,*57
$PYRTM,2024,124.002925500069,15.112572910220
$GPGGA,000411.00,3454.5191,N,12128.5707,W,1,09,1.0,1.9,M,-33.0,M,,*50
$PYRTM,2024,124.002937060660,15.112584470799
$GPGGA,000412.00,3454.5193,N,12128.5700,W,1,09,1.0,1.4,M,-33.0,M,,*5B
$PYRTM,2024,124.002948647535,15.112596057674
$GPGGA,000413.00,3454.5199,N,12128.5695,W,1,09,1.0,1.5,M,-33.0,M,,*5C
$PYRTM,2024,124.002960208542,15.112607618692
$GPGGA,000414.00,3454.5201,N,12128.5699,W,1,09,1.0,4.4,M,-33.0,M,,*51
$PYRTM,2024,124.002971800590,15.112619210729
$GPGGA,000415.00,3454.5198,N,12128.5706,W,1,09,1.0,3.2,M,-33.0,M,,*55
$PYRTM,2024,124.002983357211,15.112630767350
$GPGGA,000416.00,3454.5197,N,12128.5706,W,1,09,1.0,4.3,M,-33.0,M,,*5F
$PYRTM,2024,124.002994947743,15.112642357882
$GPGGA,000417.00,3454.5199,N,12128.5696,W,1,09,1.0,6.3,M,-33.0,M,,*5A
$PYRTM,2024,124.003006504826,15.112653914965
$GPGGA,000418.00,3454.5202,N,12128.5690,W,1,09,1.0,5.7,M,-33.0,M,,*55
$PYRTM,2024,124.003018093773,15.112665503912
$GPGGA,000419.00,3454.5202,N,12128.5695,W,1,09,1.0,6.4,M,-33.0,M,,*51
$PYRTM,2024,124.003029767650,15.112677177789
$GPGGA,000420.00,3454.5201,N,12128.5705,W,1,09,1.0,5.9,M,-33.0,M,,*5E
$PYRTM,2024,124.003041343519,15.112688753657
$GPGGA,000421.00,3454.5202,N,12128.5707,W,1,09,1.0,5.9,M,-33.0,M,,*5E
$PYRTM,2024,124.003052915602,15.112700325729
$GPGGA,000422.00,3454.5205,N,12128.5699,W,1,09,1.0,5.8,M,-33.0,M,,*5D
$PYRTM,2024,124.003064388692,15.112711798831
$GPGGA,000423.00,3454.5211,N,12128.5689,W,1,09,1.0,6.1,M,-33.0,M,,*52
$PYRTM,2024,124.003075950405,15.112723360544
$GPGGA,000424.00,3454.5214,N,12128.5688,W,1,09,1.0,6.0,M,-33.0,M,,*50
$PYRTM,2024,124.003087652859,15.112735062998
$GPGGA,000425.00,3454.5214,N,12128.5695,W,1,09,1.0,6.2,M,-33.0,M,,*5F
$PYRTM,2024,124.003099212558,15.112746622697
$GPGGA,000426.00,3454.5214,N,12128.5701,W,1,09,1.0,6.2,M,-33.0,M,,*50
$PYRTM,2024,124.003110686424,15.112758096574
$GPGGA,000427.00,3454.5217,N,12128.5699,W,1,09,1.0,5.5,M,-33.0,M,,*56
$PYRTM,2024,124.003122247546,15.112769657685
$GPGGA,000428.00,3454.5221,N,12128.5690,W,1,09,1.0,5.8,M,-33.0,M,,*58
$PYRTM,2024,124.003133836806,15.112781246944
$GPGGA,000429.00,3454.5222,N,12128.5687,W,1,09,1.0,6.0,M,-33.0,M,,*57
$PYRTM,2024,124.003145509456,15.112792919595
$GPGGA,000430.00,3454.5223,N,12128.5691,W,1,09,1.0,6.0,M,-33.0,M,,*59
$PYRTM,2024,124.003157095243,15.112804505382
$GPGGA,000431.00,3454.5224,N,12128.5698,W,1,09,1.0,5.9,M,-33.0,M,,*5C
$PYRTM,2024,124.003168657477,15.112816067616
$GPGGA,000432.00,3454.5226,N,12128.5699,W,1,09,1.0,5.8,M,-33.0,M,,*5D
$PYRTM,2024,124.003180144375,15.112827554514
$GPGGA,000433.00,3454.5229,N,12128.5694,W,1,09,1.0,6.0,M,-33.0,M,,*55
$PYRTM,2024,124.003190430891,15.112837841030
$GPGGA,000434.00,3454.5231,N,12128.5684,W,1,09,1.0,6.3,M,-33.0,M,,*59
$PYRTM,2024,124.003202237095,15.112849647222
$GPGGA,000435.00,3454.5232,N,12128.5680,W,1,09,1.0,6.3,M,-33.0,M,,*5F
$PYRTM,2024,124.003214840220,15.112862250359
$GPGGA,000436.00,3454.5233,N,12128.5686,W,1,09,1.0,6.0,M,-33.0,M,,*58
$PYRTM,2024,124.003225616296,15.112873026447
$GPGGA,000437.00,3454.5233,N,12128.5694,W,1,09,1.0,6.0,M,-33.0,M,,*5A
$PYRTM,2024,124.003236612257,15.112884022396
$GPGGA,000438.00,3454.5233,N,12128.5695,W,1,09,1.0,6.0,M,-33.0,M,,*54
$PYRTM,2024,124.003248173472,15.112895583611
$GPGGA,000439.00,3454.5236,N,12128.5686,W,1,09,1.0,6.3,M,-33.0,M,,*51
$PYRTM,2024,124.003259167350,15.112906577488
$GPGGA,000440.00,3454.5238,N,12128.5676,W,1,09,1.0,7.1,M,-33.0,M,,*5D
$PYRTM,2024,124.003270177384,15.112917587523
$GPGGA,000441.00,3454.5240,N,12128.5673,W,1,09,1.0,7.0,M,-33.0,M,,*57
$PYRTM,2024,124.003281172176,15.112928582315
$GPGGA,000442.00,3454.5242,N,12128.5680,W,1,09,1.0,6.5,M,-33.0,M,,*5E
$PYRTM,2024,124.003292170498,15.112939580637
$GPGGA,000443.00,3454.5243,N,12128.5685,W,1,09,1.0,6.5,M,-33.0,M,,*5B
$PYRTM,2024,124.003303162882,15.112950573021
$GPGGA,000444.00,3454.5244,N,12128.5682,W,1,09,1.0,6.4,M,-33.0,M,,*5D
$PYRTM,2024,124.003321435243,15.112968845382
$GPGGA,000445.00,3454.5248,N,12128.5672,W,1,09,1.0,6.4,M,-33.0,M,,*5F
$PYRTM,2024,124.003332432350,15.112979842488
$GPGGA,000446.00,3454.5252,N,12128.5667,W,1,09,1.0,6.4,M,-33.0,M,,*53
$PYRTM,2024,124.003343429977,15.112990840116
$GPGGA,000447.00,3454.5255,N,12128.5670,W,1,09,1.0,6.2,M,-33.0,M,,*55
$PYRTM,2024,124.003354436007,15.113001846146
$GPGGA,000448.00,3454.5255,N,12128.5676,W,1,09,1.0,6.2,M,-33.0,M,,*5C
$PYRTM,2024,124.003365420556,15.113012830694
$GPGGA,000449.00,3454.5255,N,12128.5677,W,1,09,1.0,6.2,M,-33.0,M,,*5C
$PYRTM,2024,124.003376430579,15.113023840718
$GPGGA,000450.00,3454.5258,N,12128.5671,W,1,09,1.0,5.6,M,-33.0,M,,*58
$PYRTM,2024,124.003387422928,15.113034833067
$GPGGA,000451.00,3454.5263,N,12128.5667,W,1,09,1.0,5.6,M,-33.0,M,,*56
$PYRTM,2024,124.003398421713,15.113045831863
$GPGGA,000452.00,3454.5266,N,12128.5669,W,1,09,1.0,5.7,M,-33.0,M,,*5F
$PYRTM,2024,124.003409400069,15.113056810208
$GPGGA,000453.00,3454.5264,N,12128.5677,W,1,09,1.0,5.2,M,-33.0,M,,*56
$PYRTM,2024,124.003424796331,15.113072206481
$GPGGA,000454.00,3454.5264,N,12128.5681,W,1,09,1.0,5.2,M,-33.0,M,,*58
$PYRTM,2024,124.003435790069,15.113083200208
$GPGGA,000455.00,3454.5268,N,12128.5678,W,1,09,1.0,5.0,M,-33.0,M,,*51
$PYRTM,2024,124.003446786759,15.113094196910
$GPGGA,000456.00,3454.5273,N,12128.5671,W,1,09,1.0,5.1,M,-33.0,M,,*50
$PYRTM,2024,124.003457909109,15.113105319248
$GPGGA,000457.00,3454.5273,N,12128.5670,W,1,09,1.0,5.2,M,-33.0,M,,*53
$PYRTM,2024,124.003469585972,15.113116996123
$GPGGA,000458.00,3454.5269,N,12128.5678,W,1,09,1.0,5.1,M,-33.0,M,,*5C
$PYRTM,2024,124.003481173692,15.113128583831
$GPGGA,000459.00,3454.5270,N,12128.5686,W,1,09,1.0,4.6,M,-33.0,M,,*52
$PYRTM,2024,124.003492733565,15.113140143715
$GPGGA,000500.00,3454.5275,N,12128.5688,W,1,09,1.0,4.0,M,-33.0,M,,*52
$PYRTM,2024,124.003504317396,15.113151727546
$GPGGA,000501.00,3454.5280,N,12128.5685,W,1,09,1.0,3.8,M,-33.0,M,,*5B
$PYRTM,2024,124.003515881609,15.113163291748
$GPGGA,000502.00,3454.5281,N,12128.5680,W,1,09,1.0,3.9,M,-33.0,M,,*5D
$PYRTM,2024,124.003527468287,15.113174878426
$GPGGA,000503.00,3454.5281,N,12128.5679,W,1,09,1.0,3.9,M,-33.0,M,,*5A
$PYRTM,2024,124.003537654676,15.113185064815
$GPGGA,000504.00,3454.5284,N,12128.5684,W,1,09,1.0,4.1,M,-33.0,M,,*55
$PYRTM,2024,124.003549576505,15.113196986644
$GPGGA,000505.00,3454.5289,N,12128.5688,W,1,09,1.0,3.6,M,-33.0,M,,*55
$PYRTM,2024,124.003562179641,15.113209589792
$GPGGA,000506.00,3454.5290,N,12128.5689,W,1,09,1.0,3.5,M,-33.0,M,,*5C
$PYRTM,2024,124.003573765775,15.113221175914
$GPGGA,000507.00,3454.5288,N,12128.5686,W,1,09,1.0,3.5,M,-33.0,M,,*5B
$PYRTM,2024,124.003585326748,15.113232736887
$GPGGA,000508.00,3454.5290,N,12128.5683,W,1,10,0.8,3.6,M,-33.0,M,,*5A
$PYRTM,2024,124.003596917859,15.113244327998
$GPGGA,000509.00,3454.5293,N,12128.5682,W,1,10,0.8,3.6,M,-33.0,M,,*59
$PYRTM,2024,124.003608476991,15.113255887130
$GPGGA,000510.00,3454.5294,N,12128.5687,W,1,10,0.8,3.6,M,-33.0,M,,*53
$PYRTM,2024,124.003620057986,15.113267468125
$GPGGA,000511.00,3454.5292,N,12128.5692,W,1,10,0.8,3.6,M,-33.0,M,,*50
$PYRTM,2024,124.003631622292,15.113279032431
$GPGGA,000512.00,3454.5292,N,12128.5693,W,1,10,0.8,3.6,M,-33.0,M,,*52
$PYRTM,2024,124.003643213854,15.113290624005
$GPGGA,000513.00,3454.5296,N,12128.5692,W,1,10,0.8,3.6,M,-33.0,M,,*56
$PYRTM,2024,124.003654770567,15.113302180706
$GPGGA,000514.00,3454.5300,N,12128.5690,W,1,10,0.8,3.6,M,-33.0,M,,*5D
$PYRTM,2024,124.003666361736,15.113313771875
$GPGGA,000515.00,3454.5298,N,12128.5689,W,1,10,0.8,3.7,M,-33.0,M,,*55
$PYRTM,2024,124.003677921574,15.113325331713
$GPGGA,000516.00,3454.5294,N,12128.5692,W,1,10,0.8,3.7,M,-33.0,M,,*50
$PYRTM,2024,124.003689507535,15.113336917674
$GPGGA,000517.00,3454.5295,N,12128.5693,W,1,10,0.8,3.7,M,-33.0,M,,*51
$PYRTM,2024,124.003701068160,15.113348478299
$GPGGA,000518.00,3454.5301,N,12128.5688,W,1,10,0.8,3.8,M,-33.0,M,,*57
$PYRTM,2024,124.003712651227,15.113360061366
$GPGGA,000519.00,3454.5305,N,12128.5683,W,1,10,0.8,3.9,M,-33.0,M,,*58
$PYRTM,2024,124.003724215891,15.113371626030
$GPGGA,000520.00,3454.5305,N,12128.5685,W,1,10,0.8,4.4,M,-33.0,M,,*5E
$PYRTM,2024,124.003735803009,15.113383213148
$GPGGA,000521.00,3454.5305,N,12128.5692,W,1,10,0.8,4.8,M,-33.0,M,,*55
$PYRTM,2024,124.003747364259,15.113394774398
$GPGGA,000522.00,3454.5306,N,12128.5693,W,1,10,0.8,4.9,M,-33.0,M,,*55
$PYRTM,2024,124.003758951991,15.113406362130
$GPGGA,000523.00,3454.5311,N,12128.5687,W,1,10,0.8,5.3,M,-33.0,M,,*5C
$PYRTM,2024,124.003770512373,15.113417922512
$GPGGA,000524.00,3454.5315,N,12128.5681,W,1,10,0.8,5.3,M,-33.0,M,,*59
$PYRTM,2024,124.003782100231,15.113429510370
$GPGGA,000525.00,3454.5318,N,12128.5681,W,1,10,0.8,5.3,M,-33.0,M,,*55
$PYRTM,2024,124.003793660127,15.113441070266
$GPGGA,000526.00,3454.5318,N,12128.5690,W,1,10,0.8,5.3,M,-33.0,M,,*56
$PYRTM,2024,124.003805243889,15.113452654028
$GPGGA,000527.00,3454.5319,N,12128.5696,W,1,10,0.8,5.2,M,-33.0,M,,*51
$PYRTM,2024,124.003816807662,15.113464217801
$GPGGA,000528.00,3454.5323,N,12128.5692,W,1,10,0.8,5.2,M,-33.0,M,,*53
$PYRTM,2024,124.003828395706,15.113475805845
$GPGGA,000529.00,3454.5331,N,12128.5683,W,1,10,0.8,5.8,M,-33.0,M,,*5B
$PYRTM,2024,124.003839958785,15.113487368924
$GPGGA,000530.00,3454.5336,N,12128.5684,W,1,10,0.8,6.2,M,-33.0,M,,*5A
$PYRTM,2024,124.003851540660,15.113498950799
$GPGGA,000531.00,3454.5338,N,12128.5692,W,1,10,0.8,6.3,M,-33.0,M,,*53
$PYRTM,2024,124.003863104919,15.113510515058
$GPGGA,000532.00,3454.5337,N,12128.5699,W,1,10,0.8,6.2,M,-33.0,M,,*55
$PYRTM,2024,124.003873652326,15.113521062465
$GPGGA,000533.00,3454.5339,N,12128.5700,W,1,10,0.8,7.1,M,-33.0,M,,*59
$PYRTM,2024,124.003884879965,15.113532290104
$GPGGA,000534.00,3454.5344,N,12128.5693,W,1,10,0.8,7.0,M,-33.0,M,,*5E
$PYRTM,2024,124.003896800891,15.113544211030
$GPGGA,000535.00,3454.5348,N,12128.5690,W,1,10,0.8,6.8,M,-33.0,M,,*59
$PYRTM,2024,124.003909402477,15.113556812616
$GPGGA,000536.00,3454.5347,N,12128.5696,W,1,10,0.8,7.1,M,-33.0,M,,*5B
$PYRTM,2024,124.003920989850,15.113568399988
$GPGGA,000537.00,3454.5346,N,12128.5704,W,1,10,0.8,7.2,M,-33.0,M,,*52
$PYRTM,2024,124.003932550278,15.113579960417
$GPGGA,000538.00,3454.5347,N,12128.5708,W,1,10,0.8,7.1,M,-33.0,M,,*53
$PYRTM,2024,124.003944139641,15.113591549780
$GPGGA,000539.00,3454.5351,N,12128.5705,W,1,10,0.8,7.2,M,-33.0,M,,*5B
$PYRTM,2024,124.003955698484,15.113603108623
$GPGGA,000540.00,3454.5355,N,12128.5701,W,1,10,0.8,7.2,M,-33.0,M,,*55
$PYRTM,2024,124.003967287847,15.113614697986
$GPGGA,000541.00,3454.5357,N,12128.5700,W,1,10,0.8,7.2,M,-33.0,M,,*57
$PYRTM,2024,124.003978848009,15.113626258148
$GPGGA,000542.00,3454.5359,N,12128.5704,W,1,10,0.8,7.5,M,-33.0,M,,*59
$PYRTM,2024,124.003990434063,15.113637844201
$GPGGA,000543.00,3454.5362,N,12128.5711,W,1,10,0.8,7.1,M,-33.0,M,,*50
$PYRTM,2024,124.004002471319,15.113649881458
$GPGGA,000544.00,3454.5367,N,12128.5716,W,1,10,0.8,6.9,M,-33.0,M,,*5C
$PYRTM,2024,124.004013578843,15.113660988993
$GPGGA,000545.00,3454.5370,N,12128.5716,W,1,10,0.8,6.9,M,-33.0,M,,*5B
$PYRTM,2024,124.004025144225,15.113672554363
$GPGGA,000546.00,3454.5372,N,12128.5713,W,1,10,0.8,7.0,M,-33.0,M,,*57
$PYRTM,2024,124.004036731481,15.113684141620
$GPGGA,000547.00,3454.5377,N,12128.5712,W,1,10,0.8,7.1,M,-33.0,M,,*53
$PYRTM,2024,124.004048292743,15.113695702882
$GPGGA,000548.00,3454.5383,N,12128.5716,W,1,10,0.8,7.0,M,-33.0,M,,*52
$PYRTM,2024,124.004059883044,15.113707293183
$GPGGA,000549.00,3454.5386,N,12128.5721,W,1,10,0.8,6.9,M,-33.0,M,,*5A
$PYRTM,2024,124.004071439167,15.113718849306
$GPGGA,000550.00,3454.5386,N,12128.5721,W,1,10,0.8,6.9,M,-33.0,M,,*52
$PYRTM,2024,124.004083027639,15.113730437778
$GPGGA,000551.00,3454.5388,N,12128.5718,W,1,10,0.8,6.9,M,-33.0,M,,*57
$PYRTM,2024,124.004094588160,15.113741998299
$GPGGA,000552.00,3454.5393,N,12128.5717,W,1,10,0.8,6.8,M,-33.0,M,,*50
$PYRTM,2024,124.004106176609,15.113753586748
$GPGGA,000553.00,3454.5398,N,12128.5721,W,1,10,0.8,6.9,M,-33.0,M,,*5E
$PYRTM,2024,124.004117736354,15.113765146505
$GPGGA,000554.00,3454.5399,N,12128.5727,W,1,10,0.8,6.8,M,-33.0,M,,*5F
$PYRTM,2024,124.004129324317,15.113776734456
$GPGGA,000555.00,3454.5397,N,12128.5728,W,1,10,0.8,6.8,M,-33.0,M,,*5F
$PYRTM,2024,124.004140885972,15.113788296111
$GPGGA,000556.00,3454.5397,N,12128.5726,W,1,10,0.8,6.8,M,-33.0,M,,*52
$PYRTM,2024,124.004152472685,15.113799882824
$GPGGA,000557.00,3454.5401,N,12128.5724,W,1,10,0.8,6.8,M,-33.0,M,,*59
$PYRTM,2024,124.004164031620,15.113811441771
$GPGGA,000558.00,3454.5405,N,12128.5726,W,1,10,0.8,7.0,M,-33.0,M,,*59
$PYRTM,2024,124.004175621701,15.113823031840
$GPGGA,000559.00,3454.5404,N,12128.5729,W,1,10,0.8,6.9,M,-33.0,M,,*5E
$PYRTM,2024,124.004187180382,15.113834590521
$GPGGA,000600.00,3454.5402,N,12128.5730,W,1,10,0.8,7.0,M,-33.0,M,,*57
$PYRTM,2024,124.004198768889,15.113846179028
$GPGGA,000601.00,3454.5405,N,12128.5730,W,1,10,0.8,7.1,M,-33.0,M,,*50
$PYRTM,2024,124.004210329757,15.113857739896
$GPGGA,000602.00,3454.5410,N,12128.5732,W,1,10,0.8,7.1,M,-33.0,M,,*55
$PYRTM,2024,124.004221912315,15.113869322454
$GPGGA,000603.00,3454.5412,N,12128.5735,W,1,10,0.8,7.1,M,-33.0,M,,*51
$PYRTM,2024,124.004234518947,15.113881929097
$GPGGA,000604.00,3454.5411,N,12128.5735,W,1,10,0.8,7.1,M,-33.0,M,,*55
$PYRTM,2024,124.004247251319,15.113894661458
$GPGGA,000605.00,3454.5411,N,12128.5734,W,1,10,0.8,7.1,M,-33.0,M,,*55
$PYRTM,2024,124.004256625428,15.113904035567
$GPGGA,000606.00,3454.5414,N,12128.5732,W,1,10,0.8,7.1,M,-33.0,M,,*55
$PYRTM,2024,124.004268213843,15.113915623981
$GPGGA,000607.00,3454.5417,N,12128.5734,W,1,10,0.8,7.1,M,-33.0,M,,*51
$PYRTM,2024,124.004279774850,15.113927184988
$GPGGA,000608.00,3454.5417,N,12128.5738,W,1,10,0.8,7.1,M,-33.0,M,,*52
$PYRTM,2024,124.004291363924,15.113938774074
$GPGGA,000609.00,3454.5416,N,12128.5740,W,1,10,0.8,7.1,M,-33.0,M,,*5D
$PYRTM,2024,124.004302921620,15.113950331759
$GPGGA,000610.00,3454.5419,N,12128.5739,W,1,10,0.8,7.1,M,-33.0,M,,*54
$PYRTM,2024,124.004314510208,15.113961920359
$GPGGA,000611.00,3454.5423,N,12128.5738,W,1,10,0.8,7.1,M,-33.0,M,,*5D
$PYRTM,2024,124.004326069896,15.113973480035
$GPGGA,000612.00,3454.5425,N,12128.5738,W,1,10,0.8,7.1,M,-33.0,M,,*58
$PYRTM,2024,124.004337658148,15.113985068287
$GPGGA,000613.00,3454.5426,N,12128.5740,W,1,10,0.8,7.2,M,-33.0,M,,*56
$PYRTM,2024,124.004349219213,15.113996629363
$GPGGA,000614.00,3454.5429,N,12128.5742,W,1,10,0.8,7.2,M,-33.0,M,,*5C
$PYRTM,2024,124.004360806562,15.114008216701
$GPGGA,000615.00,3454.5433,N,12128.5744,W,1,10,0.8,7.2,M,-33.0,M,,*50
$PYRTM,2024,124.004372367662,15.114019777801
$GPGGA,000616.00,3454.5435,N,12128.5745,W,1,10,0.8,7.1,M,-33.0,M,,*57
$PYRTM,2024,124.004383954769,15.114031364919
$GPGGA,000617.00,3454.5435,N,12128.5745,W,1,10,0.8,7.1,M,-33.0,M,,*56
$PYRTM,2024,124.004395515532,15.114042925671
$GPGGA,000618.00,3454.5439,N,12128.5744,W,1,10,0.8,7.2,M,-33.0,M,,*57
$PYRTM,2024,124.004407103866,15.114054514005
$GPGGA,000619.00,3454.5443,N,12128.5746,W,1,10,0.8,7.1,M,-33.0,M,,*5A
$PYRTM,2024,124.004418663113,15.114066073252
$GPGGA,000620.00,3454.5444,N,12128.5748,W,1,10,0.8,7.2,M,-33.0,M,,*5A
$PYRTM,2024,124.004430251238,15.114077661389
$GPGGA,000621.00,3454.5445,N,12128.5751,W,1,10,0.8,7.2,M,-33.0,M,,*52
$PYRTM,2024,124.004441811019,15.114089221157
$GPGGA,000622.00,3454.5449,N,12128.5752,W,1,10,0.8,7.2,M,-33.0,M,,*5E
$PYRTM,2024,124.004453399468,15.114100809606
$GPGGA,000623.00,3454.5453,N,12128.5752,W,1,10,0.8,7.2,M,-33.0,M,,*54
$PYRTM,2024,124.004464960197,15.114112370347
$GPGGA,000624.00,3454.5454,N,12128.5753,W,1,10,0.8,7.2,M,-33.0,M,,*55
$PYRTM,2024,124.004476548831,15.114123958970
$GPGGA,000625.00,3454.5455,N,12128.5755,W,1,10,0.8,7.3,M,-33.0,M,,*52
$PYRTM,2024,124.004488107558,15.114135517685
$GPGGA,000626.00,3454.5457,N,12128.5756,W,1,10,0.8,7.3,M,-33.0,M,,*50
$PYRTM,2024,124.004499691794,15.114147101933
$GPGGA,000627.00,3454.5462,N,12128.5757,W,1,10,0.8,7.3,M,-33.0,M,,*56
$PYRTM,2024,124.004511255093,15.114158665231
$GPGGA,000628.00,3454.5467,N,12128.5760,W,1,10,0.8,7.3,M,-33.0,M,,*58
$PYRTM,2024,124.004522845093,15.114170255231
$GPGGA,000629.00,3454.5467,N,12128.5764,W,1,10,0.8,7.3,M,-33.0,M,,*5D
$PYRTM,2024,124.004534404942,15.114181815081
$GPGGA,000630.00,3454.5467,N,12128.5766,W,1,10,0.8,7.2,M,-33.0,M,,*56
$PYRTM,2024,124.004545993553,15.114193403692
$GPGGA,000631.00,3454.5473,N,12128.5767,W,1,10,0.8,7.7,M,-33.0,M,,*56
$PYRTM,2024,124.004557552789,15.114204962928
$GPGGA,000632.00,3454.5481,N,12128.5765,W,1,10,0.8,8.0,M,-33.0,M,,*52
$PYRTM,2024,124.004569136296,15.114216546435
$GPGGA,000633.00,3454.5486,N,12128.5768,W,1,10,0.8,7.8,M,-33.0,M,,*5E
$PYRTM,2024,124.004582207257,15.114229617407
$GPGGA,000634.00,3454.5484,N,12128.5770,W,1,10,0.8,8.3,M,-33.0,M,,*56
$PYRTM,2024,124.004594473275,15.114241883414
$GPGGA,000635.00,3454.5483,N,12128.5771,W,1,10,0.8,8.3,M,-33.0,M,,*51
$PYRTM,2024,124.004603848843,15.114251258981
$GPGGA,000636.00,3454.5485,N,12128.5770,W,1,10,0.8,9.0,M,-33.0,M,,*57
$PYRTM,2024,124.004615434178,15.114262844317
$GPGGA,000637.00,3454.5490,N,12128.5764,W,1,10,0.8,9.0,M,-33.0,M,,*57
$PYRTM,2024,124.004626997141,15.114274407280
$GPGGA,000638.00,3454.5494,N,12128.5762,W,1,10,0.8,8.8,M,-33.0,M,,*53
$PYRTM,2024,124.004638586204,15.114285996343
$GPGGA,000639.00,3454.5494,N,12128.5769,W,1,10,0.8,9.3,M,-33.0,M,,*53
$PYRTM,2024,124.004650145243,15.114297555382
$GPGGA,000640.00,3454.5492,N,12128.5777,W,1,10,0.8,9.3,M,-33.0,M,,*54
$PYRTM,2024,124.004661734468,15.114309144606
$GPGGA,000641.00,3454.5493,N,12128.5778,W,1,10,0.8,9.1,M,-33.0,M,,*59
$PYRTM,2024,124.004672367477,15.114319777616
$GPGGA,000642.00,3454.5500,N,12128.5771,W,1,10,0.8,9.3,M,-33.0,M,,*5A
$PYRTM,2024,124.004683364306,15.114330774444
$GPGGA,000643.00,3454.5508,N,12128.5764,W,1,10,0.8,8.5,M,-33.0,M,,*50
$PYRTM,2024,124.004694950625,15.114342360764
$GPGGA,000644.00,3454.5511,N,12128.5767,W,1,10,0.8,8.0,M,-33.0,M,,*59
$PYRTM,2024,124.004706064583,15.114353474722
$GPGGA,000645.00,3454.5509,N,12128.5775,W,1,10,0.8,7.5,M,-33.0,M,,*58
$PYRTM,2024,124.004717173391,15.114364583530
$GPGGA,000646.00,3454.5509,N,12128.5780,W,1,10,0.8,7.4,M,-33.0,M,,*50
$PYRTM,2024,124.004728284410,15.114375694549
$GPGGA,000647.00,3454.5514,N,12128.5776,W,1,10,0.8,7.3,M,-33.0,M,,*53
$PYRTM,2024,124.004739412060,15.114386822199
$GPGGA,000648.00,3454.5521,N,12128.5768,W,1,10,0.8,7.2,M,-33.0,M,,*54
$PYRTM,2024,124.004750507361,15.114397917500
$GPGGA,000649.00,3454.5525,N,12128.5767,W,1,10,0.8,7.2,M,-33.0,M,,*5E
$PYRTM,2024,124.004761502338,15.114408912477
$GPGGA,000650.00,3454.5524,N,12128.5775,W,1,10,0.8,7.3,M,-33.0,M,,*55
$PYRTM,2024,124.004772627720,15.114420037859
$GPGGA,000651.00,3454.5524,N,12128.5782,W,1,10,0.8,7.3,M,-33.0,M,,*5C
$PYRTM,2024,124.004783724016,15.114431134155
$GPGGA,000652.00,3454.5528,N,12128.5785,W,1,10,0.8,7.3,M,-33.0,M,,*54
$PYRTM,2024,124.004795299155,15.114442709306
$GPGGA,000653.00,3454.5532,N,12128.5782,W,1,10,0.8,7.3,M,-33.0,M,,*59
$PYRTM,2024,124.004806868484,15.114454278623
$GPGGA,000654.00,3454.5533,N,12128.5779,W,1,10,0.8,7.4,M,-33.0,M,,*5C
$PYRTM,2024,124.004818448032,15.114465858171
$GPGGA,000655.00,3454.5535,N,12128.5778,W,1,10,0.8,7.4,M,-33.0,M,,*5A
$PYRTM,2024,124.004830024132,15.114477434271
$GPGGA,000656.00,3454.5539,N,12128.5782,W,1,10,0.8,7.3,M,-33.0,M,,*57
$PYRTM,2024,124.004841595729,15.114489005868
$GPGGA,000657.00,3454.5541,N,12128.5788,W,1,10,0.8,7.3,M,-33.0,M,,*53
$PYRTM,2024,124.004853170856,15.114500580995
$GPGGA,000658.00,3454.5540,N,12128.5790,W,1,10,0.8,7.4,M,-33.0,M,,*53
$PYRTM,2024,124.004864743866,15.114512154005
$GPGGA,000659.00,3454.5540,N,12128.5788,W,1,10,0.8,7.4,M,-33.0,M,,*5B
$PYRTM,2024,124.004876318125,15.114523728264
$GPGGA,000700.00,3454.5543,N,12128.5788,W,1,10,0.8,7.7,M,-33.0,M,,*56
$PYRTM,2024,124.004887892118,15.114535302257
$GPGGA,000701.00,3454.5547,N,12128.5790,W,1,10,0.8,7.7,M,-33.0,M,,*5A
$PYRTM,2024,124.004899466609,15.114546876748
$GPGGA,000702.00,3454.5548,N,12128.5792,W,1,10,0.8,7.8,M,-33.0,M,,*5B
$PYRTM,2024,124.004911040683,15.114558450822
$GPGGA,000703.00,3454.5549,N,12128.5793,W,1,10,0.8,7.8,M,-33.0,M,,*5A
$PYRTM,2024,124.004922615069,15.114570025208
$GPGGA,000704.00,3454.5549,N,12128.5794,W,1,10,0.8,7.8,M,-33.0,M,,*5A
$PYRTM,2024,124.004939517014,15.114586927153
$GPGGA,000705.00,3454.5551,N,12128.5795,W,1,10,0.8,7.8,M,-33.0,M,,*53
$PYRTM,2024,124.004951074074,15.114598484213
$GPGGA,000706.00,3454.5553,N,12128.5797,W,1,10,0.8,7.8,M,-33.0,M,,*50
$PYRTM,2024,124.004962664097,15.114610074248
$GPGGA,000707.00,3454.5556,N,12128.5799,W,1,10,0.8,7.8,M,-33.0,M,,*5A
$PYRTM,2024,124.004974223264,15.114621633403
$GPGGA,000708.00,3454.5558,N,12128.5798,W,1,10,0.8,7.8,M,-33.0,M,,*5A
$PYRTM,2024,124.004985808993,15.114633219132
$GPGGA,000709.00,3454.5561,N,12128.5797,W,1,10,0.8,7.8,M,-33.0,M,,*5E
$PYRTM,2024,124.004997372500,15.114644782639
$GPGGA,000710.00,3454.5563,N,12128.5796,W,1,10,0.8,7.8,M,-33.0,M,,*55
$PYRTM,2024,124.005008959792,15.114656369931
$GPGGA,000711.00,3454.5565,N,12128.5797,W,1,10,0.8,7.8,M,-33.0,M,,*53
$PYRTM,2024,124.005020519213,15.114667929352
$GPGGA,000712.00,3454.5567,N,12128.5801,W,1,10,0.8,7.8,M,-33.0,M,,*52
$PYRTM,2024,124.005032093252,15.114679503403
$GPGGA,000713.00,3454.5568,N,12128.5804,W,1,10,0.8,7.8,M,-33.0,M,,*59
$PYRTM,2024,124.005043666655,15.114691076794
$GPGGA,000714.00,3454.5571,N,12128.5804,W,1,10,0.8,7.8,M,-33.0,M,,*56
$PYRTM,2024,124.005055254954,15.114702665093
$GPGGA,000715.00,3454.5575,N,12128.5802,W,1,10,0.8,7.8,M,-33.0,M,,*55
$PYRTM,2024,124.005066817222,15.114714227361
$GPGGA,000716.00,3454.5578,N,12128.5804,W,1,10,0.8,7.8,M,-33.0,M,,*5D
$PYRTM,2024,124.005078403056,15.114725813194
$GPGGA,000717.00,3454.5580,N,12128.5807,W,1,10,0.8,7.8,M,-33.0,M,,*58
$PYRTM,2024,124.005089964387,15.114737374537
$GPGGA,000718.00,3454.5580,N,12128.5808,W,1,10,0.8,7.8,M,-33.0,M,,*58
$PYRTM,2024,124.005101554294,15.114748964433
$GPGGA,000719.00,3454.5583,N,12128.5807,W,1,10,0.8,7.8,M,-33.0,M,,*55
$PYRTM,2024,124.005113111806,15.114760521944
$GPGGA,000720.00,3454.5587,N,12128.5806,W,1,10,0.8,7.9,M,-33.0,M,,*5B
$PYRTM,2024,124.005124703125,15.114772113264
$GPGGA,000721.00,3454.5591,N,12128.5808,W,1,10,0.8,7.8,M,-33.0,M,,*52
$PYRTM,2024,124.005136260231,15.114783670370
$GPGGA,000722.00,3454.5594,N,12128.5811,W,1,10,0.8,7.9,M,-33.0,M,,*5D
$PYRTM,2024,124.005147847708,15.114795257847
$GPGGA,000723.00,3454.5597,N,12128.5815,W,1,10,0.8,7.9,M,-33.0,M,,*5B
$PYRTM,2024,124.005160219410,15.114807629549
$GPGGA,000724.00,3454.5600,N,12128.5816,W,1,10,0.8,8.0,M,-33.0,M,,*54
$PYRTM,2024,124.005173179063,15.114820589201
$GPGGA,000725.00,3454.5605,N,12128.5814,W,1,10,0.8,8.0,M,-33.0,M,,*52
$PYRTM,2024,124.005182554803,15.114829964942
$GPGGA,000726.00,3454.5607,N,12128.5813,W,1,10,0.8,8.0,M,-33.0,M,,*54
$PYRTM,2024,124.005194143125,15.114841553264
$GPGGA,000727.00,3454.5610,N,12128.5815,W,1,10,0.8,8.0,M,-33.0,M,,*55
$PYRTM,2024,124.005205704155,15.114853114294
$GPGGA,000728.00,3454.5615,N,12128.5817,W,1,10,0.8,8.0,M,-33.0,M,,*5D
$PYRTM,2024,124.005217294919,15.114864705058
$GPGGA,000729.00,3454.5619,N,12128.5819,W,1,10,0.8,8.0,M,-33.0,M,,*5E
$PYRTM,2024,124.005228852998,15.114876263137
$GPGGA,000730.00,3454.5622,N,12128.5820,W,1,10,0.8,8.0,M,-33.0,M,,*54
$PYRTM,2024,124.005240443171,15.114887853322
$GPGGA,000731.00,3454.5624,N,12128.5821,W,1,10,0.8,8.0,M,-33.0,M,,*52
$PYRTM,2024,124.005252001505,15.114899411655
$GPGGA,000732.00,3454.5628,N,12128.5820,W,1,10,0.8,8.0,M,-33.0,M,,*5C
$PYRTM,2024,124.005263588125,15.114910998264
$GPGGA,000733.00,3454.5634,N,12128.5814,W,1,10,0.8,7.7,M,-33.0,M,,*5F
$PYRTM,2024,124.005276189815,15.114923599954
$GPGGA,000734.00,3454.5640,N,12128.5811,W,1,10,0.8,7.7,M,-33.0,M,,*5E
$PYRTM,2024,124.005288923576,15.114936333715
$GPGGA,000735.00,3454.5644,N,12128.5815,W,1,10,0.8,7.3,M,-33.0,M,,*5B
$PYRTM,2024,124.005298297373,15.114945707512
$GPGGA,000736.00,3454.5645,N,12128.5824,W,1,10,0.8,6.9,M,-33.0,M,,*50
$PYRTM,2024,124.005309884560,15.114957294699
$GPGGA,000737.00,3454.5647,N,12128.5829,W,1,10,0.8,6.9,M,-33.0,M,,*5E
$PYRTM,2024,124.005321446377,15.114968856528
$GPGGA,000738.00,3454.5652,N,12128.5824,W,1,10,0.8,6.5,M,-33.0,M,,*54
$PYRTM,2024,124.005333036794,15.114980446933
$GPGGA,000739.00,3454.5658,N,12128.5815,W,1,10,0.8,6.6,M,-33.0,M,,*5E
$PYRTM,2024,124.005344594201,15.114992004352
$GPGGA,000740.00,3454.5665,N,12128.5811,W,1,10,0.8,6.7,M,-33.0,M,,*5B
$PYRTM,2024,124.005356180556,15.115003590694
$GPGGA,000741.00,3454.5668,N,12128.5817,W,1,10,0.8,6.8,M,-33.0,M,,*5E
$PYRTM,2024,124.005367743681,15.115015153819
$GPGGA,000742.00,3454.5668,N,12128.5828,W,1,10,0.8,6.7,M,-33.0,M,,*5E
$PYRTM,2024,124.005379317812,15.115026727951
$GPGGA,000743.00,3454.5669,N,12128.5831,W,1,10,0.8,6.7,M,-33.0,M,,*56
$PYRTM,2024,124.005390890891,15.115038301042
$GPGGA,000744.00,3454.5673,N,12128.5825,W,1,10,0.8,6.6,M,-33.0,M,,*5E
$PYRTM,2024,124.005402473588,15.115049883727
$GPGGA,000745.00,3454.5679,N,12128.5819,W,1,10,0.8,6.7,M,-33.0,M,,*5B
$PYRTM,2024,124.005414039549,15.115061449687
$GPGGA,000746.00,3454.5682,N,12128.5819,W,1,10,0.8,6.7,M,-33.0,M,,*5C
$PYRTM,2024,124.005425626597,15.115073036736
$GPGGA,000747.00,3454.5685,N,12128.5822,W,1,10,0.8,6.7,M,-33.0,M,,*52
$PYRTM,2024,124.005437186979,15.115084597118
$GPGGA,000748.00,3454.5689,N,12128.5823,W,1,10,0.8,6.1,M,-33.0,M,,*56
$PYRTM,2024,124.005448777188,15.115096187326
$GPGGA,000749.00,3454.5694,N,12128.5823,W,1,10,0.8,6.1,M,-33.0,M,,*5B
$PYRTM,2024,124.005460335718,15.115107745856
$GPGGA,000750.00,3454.5697,N,12128.5824,W,1,10,0.8,6.1,M,-33.0,M,,*57
$PYRTM,2024,124.005471922072,15.115119332211
$GPGGA,000751.00,3454.5698,N,12128.5826,W,1,10,0.8,6.1,M,-33.0,M,,*5B
$PYRTM,2024,124.005483484306,15.115130894444
$GPGGA,000752.00,3454.5702,N,12128.5827,W,1,10,0.8,6.4,M,-33.0,M,,*5E
$PYRTM,2024,124.005495065637,15.115142475787
$GPGGA,000753.00,3454.5710,N,12128.5823,W,1,10,0.8,6.1,M,-33.0,M,,*5D
$PYRTM,2024,124.005507110417,15.115154520556
$GPGGA,000754.00,3454.5715,N,12128.5822,W,1,10,0.8,6.1,M,-33.0,M,,*5E
$PYRTM,2024,124.005518220359,15.115165630498
$GPGGA,000755.00,3454.5717,N,12128.5827,W,1,10,0.8,5.6,M,-33.0,M,,*5C
$PYRTM,2024,124.005529781481,15.115177191620
$GPGGA,000756.00,3454.5715,N,12128.5835,W,1,10,0.8,4.9,M,-33.0,M,,*50
$PYRTM,2024,124.005541363507,15.115188773657
$GPGGA,000757.00,3454.5718,N,12128.5838,W,1,10,0.8,4.3,M,-33.0,M,,*5B
$PYRTM,2024,124.005552929479,15.115200339618
$GPGGA,000758.00,3454.5725,N,12128.5834,W,1,10,0.8,4.2,M,-33.0,M,,*57
$PYRTM,2024,124.005564517500,15.115211927639
$GPGGA,000759.00,3454.5731,N,12128.5829,W,1,10,0.8,4.3,M,-33.0,M,,*5E
$PYRTM,2024,124.005576077998,15.115223488137
$GPGGA,000800.00,3454.5732,N,12128.5827,W,1,10,0.8,4.4,M,-33.0,M,,*57
$PYRTM,2024,124.005587663056,15.115235073194
$GPGGA,000801.00,3454.5731,N,12128.5829,W,1,10,0.8,4.4,M,-33.0,M,,*5B
$PYRTM,2024,124.005599224641,15.115246634780
$GPGGA,000802.00,3454.5736,N,12128.5832,W,1,10,0.8,4.0,M,-33.0,M,,*51
$PYRTM,2024,124.005610806574,15.115258216725
$GPGGA,000803.00,3454.5740,N,12128.5835,W,1,10,0.8,4.0,M,-33.0,M,,*56
$PYRTM,2024,124.005623412419,15.115270822546
$GPGGA,000804.00,3454.5741,N,12128.5834,W,1,10,0.8,4.0,M,-33.0,M,,*51
$PYRTM,2024,124.005636143681,15.115283553819
$GPGGA,000805.00,3454.5738,N,12128.5829,W,1,10,0.8,4.1,M,-33.0,M,,*53
$PYRTM,2024,124.005645406678,15.115292816817
$GPGGA,000806.00,3454.5740,N,12128.5824,W,1,10,0.8,3.9,M,-33.0,M,,*5D
$PYRTM,2024,124.005656994977,15.115304405116
$GPGGA,000807.00,3454.5745,N,12128.5823,W,1,10,0.8,3.5,M,-33.0,M,,*52
$PYRTM,2024,124.005668669965,15.115316080116
$GPGGA,000808.00,3454.5747,N,12128.5829,W,1,10,0.8,3.0,M,-33.0,M,,*50
$PYRTM,2024,124.005680260637,15.115327670775
$GPGGA,000809.00,3454.5746,N,12128.5833,W,1,10,0.8,2.7,M,-33.0,M,,*5D
$PYRTM,2024,124.005691818032,15.115339228171
$GPGGA,000810.00,3454.5746,N,12128.5831,W,1,10,0.8,2.7,M,-33.0,M,,*57
$PYRTM,2024,124.005703289896,15.115350700046
$GPGGA,000811.00,3454.5748,N,12128.5825,W,1,10,0.8,3.1,M,-33.0,M,,*5A
$PYRTM,2024,124.005714852095,15.115362262234
$GPGGA,000812.00,3454.5752,N,12128.5822,W,1,10,0.8,3.1,M,-33.0,M,,*55
$PYRTM,2024,124.005726554711,15.115373964850
$GPGGA,000813.00,3454.5753,N,12128.5826,W,1,10,0.8,3.5,M,-33.0,M,,*55
$PYRTM,2024,124.005738593912,15.115386004051
$GPGGA,000814.00,3454.5754,N,12128.5831,W,1,10,0.8,3.5,M,-33.0,M,,*53
$PYRTM,2024,124.005749697118,15.115397107269
$GPGGA,000815.00,3454.5758,N,12128.5830,W,1,10,0.8,3.2,M,-33.0,M,,*58
$PYRTM,2024,124.005761145845,15.115408555984
$GPGGA,000816.00,3454.5763,N,12128.5826,W,1,10,0.8,3.1,M,-33.0,M,,*57
$PYRTM,2024,124.005772748900,15.115420159039
$GPGGA,000817.00,3454.5766,N,12128.5825,W,1,10,0.8,3.2,M,-33.0,M,,*53
$PYRTM,2024,124.005784295394,15.115431705532
$GPGGA,000818.00,3454.5764,N,12128.5828,W,1,10,0.8,3.1,M,-33.0,M,,*50
$PYRTM,2024,124.005795881597,15.115443291736
$GPGGA,000819.00,3454.5763,N,12128.5829,W,1,10,0.8,3.1,M,-33.0,M,,*57
$PYRTM,2024,124.005807444109,15.115454854248
$GPGGA,000820.00,3454.5766,N,12128.5824,W,1,10,0.8,3.0,M,-33.0,M,,*54
$PYRTM,2024,124.005819025312,15.115466435451
$GPGGA,000821.00,3454.5772,N,12128.5818,W,1,10,0.8,2.8,M,-33.0,M,,*56
$PYRTM,2024,124.005830591389,15.115478001528
$GPGGA,000822.00,3454.5777,N,12128.5818,W,1,10,0.8,2.5,M,-33.0,M,,*5D
$PYRTM,2024,124.005842173345,15.115489583484
$GPGGA,000823.00,3454.5777,N,12128.5822,W,1,10,0.8,2.5,M,-33.0,M,,*55
$PYRTM,2024,124.005854219583,15.115501629722
$GPGGA,000824.00,3454.5777,N,12128.5826,W,1,10,0.8,2.5,M,-33.0,M,,*56
$PYRTM,2024,124.005865321470,15.115512731609
$GPGGA,000825.00,3454.5779,N,12128.5823,W,1,10,0.8,2.5,M,-33.0,M,,*5C
$PYRTM,2024,124.005876887488,15.115524297627
$GPGGA,000826.00,3454.5785,N,12128.5817,W,1,10,0.8,3.0,M,-33.0,M,,*5F
$PYRTM,2024,124.005888477546,15.115535887685
$GPGGA,000827.00,3454.5788,N,12128.5816,W,1,10,0.8,2.9,M,-33.0,M,,*5A
$PYRTM,2024,124.005900036470,15.115547446609
$GPGGA,000828.00,3454.5789,N,12128.5822,W,1,10,0.8,3.0,M,-33.0,M,,*5B
$PYRTM,2024,124.005911618877,15.115559029016
$GPGGA,000829.00,3454.5789,N,12128.5828,W,1,10,0.8,3.0,M,-33.0,M,,*50
$PYRTM,2024,124.005923185556,15.115570595694
$GPGGA,000830.00,3454.5789,N,12128.5829,W,1,10,0.8,3.0,M,-33.0,M,,*59
$PYRTM,2024,124.005934771007,15.115582181146
$GPGGA,000831.00,3454.5790,N,12128.5826,W,1,10,0.8,3.0,M,-33.0,M,,*5F
$PYRTM,2024,124.005946333252,15.115593743391
$GPGGA,000832.00,3454.5792,N,12128.5825,W,1,10,0.8,3.1,M,-33.0,M,,*5C
$PYRTM,2024,124.005958030116,15.115605440255
$GPGGA,000833.00,3454.5796,N,12128.5830,W,1,10,0.8,3.2,M,-33.0,M,,*5E
$PYRTM,2024,124.005970636030,15.115618046169
$GPGGA,000834.00,3454.5798,N,12128.5837,W,1,10,0.8,3.2,M,-33.0,M,,*50
$PYRTM,2024,124.005983369931,15.115630780069
$GPGGA,000835.00,3454.5800,N,12128.5840,W,1,10,0.8,3.2,M,-33.0,M,,*5F
$PYRTM,2024,124.005992744896,15.115640155046
$GPGGA,000836.00,3454.5801,N,12128.5838,W,1,10,0.8,3.2,M,-33.0,M,,*52
$PYRTM,2024,124.006004334711,15.115651744850
$GPGGA,000837.00,3454.5804,N,12128.5835,W,1,10,0.8,3.2,M,-33.0,M,,*5B
$PYRTM,2024,124.006015894433,15.115663304583
$GPGGA,000838.00,3454.5808,N,12128.5836,W,1,10,0.8,3.3,M,-33.0,M,,*5A
$PYRTM,2024,124.006027481447,15.115674891586
$GPGGA,000839.00,3454.5811,N,12128.5841,W,1,10,0.8,2.9,M,-33.0,M,,*58
$PYRTM,2024,124.006039041678,15.115686451817
