$PYRTM,2024,125.500008965822,16.609656375961
$GPGGA,115959.00,3511.6788,N,12148.1238,W,1,12,0.8,4.5,M,-32.6,M,,*5F
$PYRTM,2024,125.500020512407,16.609667922546
$GPGGA,120000.00,3511.6784,N,12148.1230,W,1,12,0.8,4.2,M,-32.6,M,,*5F
$PYRTM,2024,125.500032100498,16.609679510637
$GPGGA,120001.00,3511.6780,N,12148.1223,W,1,12,0.8,2.8,M,-32.6,M,,*54
$PYRTM,2024,125.500043661609,16.609691071759
$GPGGA,120002.00,3511.6775,N,12148.1218,W,1,12,0.8,6.0,M,-32.6,M,,*59
$PYRTM,2024,125.500055248565,16.609702658704
$GPGGA,120003.00,3511.6770,N,12148.1212,W,1,12,0.8,5.8,M,-32.6,M,,*5C
$PYRTM,2024,125.500066810764,16.609714220903
$GPGGA,120004.00,3511.6768,N,12148.1205,W,1,12,0.8,5.6,M,-32.6,M,,*5A
$PYRTM,2024,125.500078398542,16.609725808692
$GPGGA,120005.00,3511.6766,N,12148.1197,W,1,12,0.8,5.6,M,-32.6,M,,*5D
$PYRTM,2024,125.500089958252,16.609737368391
$GPGGA,120006.00,3511.6762,N,12148.1188,W,1,12,0.8,6.7,M,-32.6,M,,*56
$PYRTM,2024,125.500101539294,16.609748949444
$GPGGA,120007.00,3511.6758,N,12148.1180,W,1,12,0.8,4.0,M,-32.6,M,,*53
$PYRTM,2024,125.500113106956,16.609760517095
$GPGGA,120008.00,3511.6754,N,12148.1173,W,1,12,0.8,5.6,M,-32.6,M,,*5B
$PYRTM,2024,125.500124693113,16.609772103264
$GPGGA,120009.00,3511.6752,N,12148.1166,W,1,12,0.8,7.3,M,-32.6,M,,*5F
$PYRTM,2024,125.500136254549,16.609783664688
$GPGGA,120010.00,3511.6750,N,12148.1159,W,1,12,0.8,6.3,M,-32.6,M,,*58
$PYRTM,2024,125.500147845000,16.609795255139
$GPGGA,120011.00,3511.6747,N,12148.1151,W,1,12,0.8,6.4,M,-32.6,M,,*50
$PYRTM,2024,125.500159403125,16.609806813264
$GPGGA,120012.00,3511.6742,N,12148.1145,W,1,12,0.8,5.6,M,-32.6,M,,*52
$PYRTM,2024,125.500170992106,16.609818402245
$GPGGA,120013.00,3511.6737,N,12148.1139,W,1,12,0.8,4.2,M,-32.6,M,,*5F
$PYRTM,2024,125.500182551597,16.609829961748
$GPGGA,120014.00,3511.6733,N,12148.1133,W,1,12,0.8,3.7,M,-32.6,M,,*54
$PYRTM,2024,125.500194132280,16.609841542419
$GPGGA,120015.00,3511.6730,N,12148.1128,W,1,12,0.8,3.5,M,-32.6,M,,*5E
$PYRTM,2024,125.500205700498,16.609853110637
$GPGGA,120016.00,3511.6727,N,12148.1125,W,1,12,0.8,7.3,M,-32.6,M,,*54
$PYRTM,2024,125.500217286285,16.609864696424
$GPGGA,120017.00,3511.6722,N,12148.1119,W,1,12,0.8,5.6,M,-32.6,M,,*58
$PYRTM,2024,125.500228847419,16.609876257558
$GPGGA,120018.00,3511.6719,N,12148.1111,W,1,12,0.8,3.2,M,-32.6,M,,*55
$PYRTM,2024,125.500240435961,16.609887846100
$GPGGA,120019.00,3511.6717,N,12148.1102,W,1,12,0.8,4.1,M,-32.6,M,,*5C
$PYRTM,2024,125.500251996447,16.609899406597
$GPGGA,120020.00,3511.6714,N,12148.1096,W,1,12,0.8,4.4,M,-32.6,M,,*5C
$PYRTM,2024,125.500263582593,16.609910992731
$GPGGA,120021.00,3511.6710,N,12148.1091,W,1,12,0.8,5.8,M,-32.6,M,,*53
$PYRTM,2024,125.500275142280,16.609922552419
$GPGGA,120022.00,3511.6703,N,12148.1086,W,1,12,0.8,7.6,M,-32.6,M,,*58
$PYRTM,2024,125.500286732488,16.609934142627
$GPGGA,120023.00,3511.6698,N,12148.1078,W,1,12,0.8,5.5,M,-32.6,M,,*5A
$PYRTM,2024,125.500298292488,16.609945702627
$GPGGA,120024.00,3511.6697,N,12148.1068,W,1,12,0.8,7.9,M,-32.6,M,,*5D
$PYRTM,2024,125.500309882153,16.609957292292
$GPGGA,120025.00,3511.6696,N,12148.1057,W,1,12,0.8,7.6,M,-32.6,M,,*5E
$PYRTM,2024,125.500320064178,16.609967474317
$GPGGA,120026.00,3511.6693,N,12148.1049,W,1,12,0.8,5.9,M,-32.6,M,,*5A
$PYRTM,2024,125.500331989271,16.609979399410
$GPGGA,120027.00,3511.6689,N,12148.1045,W,1,12,0.8,4.5,M,-32.6,M,,*51
$PYRTM,2024,125.500344588623,16.609991998762
$GPGGA,120028.00,3511.6683,N,12148.1041,W,1,12,0.8,5.2,M,-32.6,M,,*56
$PYRTM,2024,125.500356170475,16.610003580613
$GPGGA,120029.00,3511.6678,N,12148.1036,W,1,12,0.8,2.9,M,-32.6,M,,*5F
$PYRTM,2024,125.500367737639,16.610015147778
$GPGGA,120030.00,3511.6675,N,12148.1026,W,1,12,0.8,4.9,M,-32.6,M,,*5D
$PYRTM,2024,125.500379324792,16.610026734931
$GPGGA,120031.00,3511.6674,N,12148.1017,W,1,12,0.8,8.2,M,-32.6,M,,*58
$PYRTM,2024,125.500390886412,16.610038296551
$GPGGA,120032.00,3511.6671,N,12148.1010,W,1,12,0.8,9.0,M,-32.6,M,,*5A
$PYRTM,2024,125.500402472650,16.610049882789
$GPGGA,120033.00,3511.6665,N,12148.1004,W,1,12,0.8,6.6,M,-32.6,M,,*52
$PYRTM,2024,125.500414039120,16.610061449259
$GPGGA,120034.00,3511.6660,N,12148.0997,W,1,12,0.8,6.7,M,-32.6,M,,*53
$PYRTM,2024,125.500425620694,16.610073030833
$GPGGA,120035.00,3511.6657,N,12148.0989,W,1,12,0.8,4.3,M,-32.6,M,,*5F
$PYRTM,2024,125.500436256632,16.610083666771
$GPGGA,120036.00,3511.6656,N,12148.0981,W,1,12,0.8,7.0,M,-32.6,M,,*55
$PYRTM,2024,125.500447266713,16.610094676852
$GPGGA,120037.00,3511.6653,N,12148.0972,W,1,12,0.8,8.8,M,-32.6,M,,*5A
$PYRTM,2024,125.500458953970,16.610106364109
$GPGGA,120038.00,3511.6648,N,12148.0965,W,1,12,0.8,8.0,M,-32.6,M,,*51
$PYRTM,2024,125.500469954317,16.610117364456
$GPGGA,120039.00,3511.6643,N,12148.0957,W,1,12,0.8,7.7,M,-32.6,M,,*52
$PYRTM,2024,125.500481059815,16.610128469954
$GPGGA,120040.00,3511.6640,N,12148.0950,W,1,12,0.5,9.9,M,-32.6,M,,*55
$PYRTM,2024,125.500492175498,16.610139585637
$GPGGA,120041.00,3511.6639,N,12148.0944,W,1,12,0.8,9.5,M,-32.6,M,,*5E
$PYRTM,2024,125.500503279120,16.610150689259
$GPGGA,120042.00,3511.6636,N,12148.0938,W,1,12,0.8,7.8,M,-32.6,M,,*5A
$PYRTM,2024,125.500514394919,16.610161805058
$GPGGA,120043.00,3511.6631,N,12148.0931,W,1,12,0.5,6.3,M,-32.6,M,,*52
$PYRTM,2024,125.500525509063,16.610172919201
$GPGGA,120044.00,3511.6625,N,12148.0924,W,1,12,0.5,6.5,M,-32.6,M,,*52
$PYRTM,2024,125.500536487407,16.610183897558
$GPGGA,120045.00,3511.6621,N,12148.0918,W,1,12,0.8,6.6,M,-32.6,M,,*56
$PYRTM,2024,125.500548074456,16.610195484595
$GPGGA,120046.00,3511.6618,N,12148.0912,W,1,12,0.5,7.4,M,-32.6,M,,*5B
$PYRTM,2024,125.500559302118,16.610206712257
$GPGGA,120047.00,3511.6615,N,12148.0905,W,1,12,0.5,8.5,M,-32.6,M,,*5F
$PYRTM,2024,125.500570876794,16.610218286933
$GPGGA,120048.00,3511.6612,N,12148.0898,W,1,12,0.5,7.0,M,-32.6,M,,*58
$PYRTM,2024,125.500582449745,16.610229859884
$GPGGA,120049.00,3511.6609,N,12148.0891,W,1,12,0.5,6.2,M,-32.6,M,,*59
$PYRTM,2024,125.500594026157,16.610241436296
$GPGGA,120050.00,3511.6607,N,12148.0885,W,1,12,0.5,3.9,M,-32.6,M,,*54
$PYRTM,2024,125.500605597454,16.610253007593
$GPGGA,120051.00,3511.6605,N,12148.0879,W,1,12,0.5,3.4,M,-32.6,M,,*59
$PYRTM,2024,125.500617041898,16.610264452037
$GPGGA,120052.00,3511.6604,N,12148.0874,W,1,12,0.5,3.4,M,-32.6,M,,*56
$PYRTM,2024,125.500628746042,16.610276156181
$GPGGA,120053.00,3511.6602,N,12148.0867,W,1,12,0.5,3.5,M,-32.6,M,,*52
$PYRTM,2024,125.500640320729,16.610287730868
$GPGGA,120054.00,3511.6596,N,12148.0860,W,1,12,0.5,5.5,M,-32.6,M,,*5A
$PYRTM,2024,125.500651779051,16.610299189201
$GPGGA,120055.00,3511.6590,N,12148.0852,W,1,12,0.5,6.2,M,-32.6,M,,*58
$PYRTM,2024,125.500668666192,16.610316076343
$GPGGA,120056.00,3511.6586,N,12148.0844,W,1,12,0.5,7.3,M,-32.6,M,,*5B
$PYRTM,2024,125.500680252535,16.610327662685
$GPGGA,120057.00,3511.6583,N,12148.0835,W,1,12,0.5,5.0,M,-32.6,M,,*58
$PYRTM,2024,125.500691812755,16.610339222894
$GPGGA,120058.00,3511.6581,N,12148.0827,W,1,12,0.5,6.1,M,-32.6,M,,*54
$PYRTM,2024,125.500703400231,16.610350810370
$GPGGA,120059.00,3511.6576,N,12148.0821,W,1,12,0.5,7.0,M,-32.6,M,,*5B
$PYRTM,2024,125.500714961134,16.610362371273
$GPGGA,120100.00,3511.6571,N,12148.0817,W,1,12,0.5,7.3,M,-32.6,M,,*57
$PYRTM,2024,125.500726542569,16.610373952708
$GPGGA,120101.00,3511.6568,N,12148.0811,W,1,12,0.5,4.9,M,-32.6,M,,*51
$PYRTM,2024,125.500738110498,16.610385520637
$GPGGA,120102.00,3511.6564,N,12148.0802,W,1,12,0.5,6.6,M,-32.6,M,,*51
$PYRTM,2024,125.500749697095,16.610397107234
$GPGGA,120103.00,3511.6561,N,12148.0793,W,1,12,0.5,5.5,M,-32.6,M,,*52
$PYRTM,2024,125.500761258380,16.610408668519
$GPGGA,120104.00,3511.6559,N,12148.0786,W,1,12,0.5,5.6,M,-32.6,M,,*59
$PYRTM,2024,125.500772845926,16.610420256076
$GPGGA,120105.00,3511.6555,N,12148.0782,W,1,12,0.5,5.6,M,-32.6,M,,*50
$PYRTM,2024,125.500784406632,16.610431816782
$GPGGA,120106.00,3511.6551,N,12148.0777,W,1,12,0.5,6.3,M,-32.6,M,,*5B
$PYRTM,2024,125.500795996134,16.610443406273
$GPGGA,120107.00,3511.6548,N,12148.0772,W,1,12,0.5,4.5,M,-32.6,M,,*53
$PYRTM,2024,125.500807554896,16.610454965046
$GPGGA,120108.00,3511.6547,N,12148.0765,W,1,12,0.5,2.9,M,-32.6,M,,*5F
$PYRTM,2024,125.500819144201,16.610466554340
$GPGGA,120109.00,3511.6545,N,12148.0758,W,1,12,0.5,5.0,M,-32.6,M,,*5C
$PYRTM,2024,125.500830703322,16.610478113461
$GPGGA,120110.00,3511.6542,N,12148.0751,W,1,12,0.5,5.9,M,-32.6,M,,*53
$PYRTM,2024,125.500842292118,16.610489702257
$GPGGA,120111.00,3511.6538,N,12148.0745,W,1,12,0.5,5.1,M,-32.6,M,,*52
$PYRTM,2024,125.500853850475,16.610501260613
$GPGGA,120112.00,3511.6533,N,12148.0738,W,1,12,0.5,7.8,M,-32.6,M,,*5B
$PYRTM,2024,125.500865432095,16.610512842234
$GPGGA,120113.00,3511.6528,N,12148.0730,W,1,12,0.5,7.1,M,-32.6,M,,*51
$PYRTM,2024,125.500877000150,16.610524410289
$GPGGA,120114.00,3511.6525,N,12148.0722,W,1,12,0.5,10.0,M,-32.6,M,,*6F
$PYRTM,2024,125.500888580833,16.610535990972
$GPGGA,120115.00,3511.6523,N,12148.0714,W,1,12,0.5,6.4,M,-32.6,M,,*5E
$PYRTM,2024,125.500900148137,16.610547558275
$GPGGA,120116.00,3511.6521,N,12148.0707,W,1,12,0.5,6.0,M,-32.6,M,,*59
$PYRTM,2024,125.500911728704,16.610559138843
$GPGGA,120117.00,3511.6518,N,12148.0701,W,1,12,0.5,3.9,M,-32.6,M,,*58
$PYRTM,2024,125.500923296019,16.610570706157
$GPGGA,120118.00,3511.6513,N,12148.0695,W,1,12,0.5,-0.2,M,-32.6,M,,*75
$PYRTM,2024,125.500934882535,16.610582292674
$GPGGA,120119.00,3511.6509,N,12148.0689,W,1,12,0.5,0.6,M,-32.6,M,,*5B
$PYRTM,2024,125.500946443218,16.610593853356
$GPGGA,120120.00,3511.6507,N,12148.0682,W,1,12,0.5,3.5,M,-32.6,M,,*54
$PYRTM,2024,125.500958035475,16.610605445613
$GPGGA,120121.00,3511.6504,N,12148.0675,W,1,12,0.5,5.0,M,-32.6,M,,*5D
$PYRTM,2024,125.500969594861,16.610617005000
$GPGGA,120122.00,3511.6501,N,12148.0669,W,1,12,0.5,4.0,M,-32.6,M,,*57
$PYRTM,2024,125.500981183252,16.610628593391
$GPGGA,120123.00,3511.6497,N,12148.0663,W,1,12,0.5,5.8,M,-32.6,M,,*5B
$PYRTM,2024,125.500992741296,16.610640151435
$GPGGA,120124.00,3511.6493,N,12148.0658,W,1,12,0.5,5.3,M,-32.6,M,,*5B
$PYRTM,2024,125.501004330509,16.610651740648
$GPGGA,120125.00,3511.6490,N,12148.0652,W,1,12,0.5,2.8,M,-32.6,M,,*5F
$PYRTM,2024,125.501014513785,16.610661923935
$GPGGA,120126.00,3511.6487,N,12148.0647,W,1,12,0.5,3.2,M,-32.6,M,,*55
$PYRTM,2024,125.501026435069,16.610673845208
$GPGGA,120127.00,3511.6485,N,12148.0641,W,1,12,0.5,5.2,M,-32.6,M,,*56
$PYRTM,2024,125.501039037986,16.610686448125
$GPGGA,120128.00,3511.6480,N,12148.0635,W,1,12,0.5,4.7,M,-32.6,M,,*5B
$PYRTM,2024,125.501050624618,16.610698034769
$GPGGA,120129.00,3511.6475,N,12148.0629,W,1,12,0.5,2.9,M,-32.6,M,,*55
$PYRTM,2024,125.501062188623,16.610709598762
$GPGGA,120130.00,3511.6472,N,12148.0622,W,1,12,0.5,3.8,M,-32.6,M,,*51
$PYRTM,2024,125.501073767141,16.610721177280
$GPGGA,120131.00,3511.6470,N,12148.0614,W,1,12,0.5,4.6,M,-32.6,M,,*5E
$PYRTM,2024,125.501085334074,16.610732744225
$GPGGA,120132.00,3511.6468,N,12148.0607,W,1,12,0.5,6.0,M,-32.6,M,,*52
$PYRTM,2024,125.501096923854,16.610744333993
$GPGGA,120133.00,3511.6465,N,12148.0602,W,1,12,0.5,6.6,M,-32.6,M,,*5D
$PYRTM,2024,125.501108483935,16.610755894074
$GPGGA,120134.00,3511.6460,N,12148.0598,W,1,12,0.5,5.5,M,-32.6,M,,*5F
$PYRTM,2024,125.501120071678,16.610767481817
$GPGGA,120135.00,3511.6457,N,12148.0591,W,1,12,0.5,3.5,M,-32.6,M,,*55
$PYRTM,2024,125.501131630694,16.610779040833
$GPGGA,120136.00,3511.6455,N,12148.0582,W,1,12,0.5,4.7,M,-32.6,M,,*53
$PYRTM,2024,125.501143221065,16.610790631204
$GPGGA,120137.00,3511.6452,N,12148.0573,W,1,12,0.5,4.0,M,-32.6,M,,*5C
$PYRTM,2024,125.501154778727,16.610802188866
$GPGGA,120138.00,3511.6447,N,12148.0567,W,1,12,0.5,4.0,M,-32.6,M,,*52
$PYRTM,2024,125.501166366586,16.610813776725
$GPGGA,120139.00,3511.6443,N,12148.0563,W,1,12,0.5,4.1,M,-32.6,M,,*52
$PYRTM,2024,125.501177927419,16.610825337569
$GPGGA,120140.00,3511.6440,N,12148.0557,W,1,12,0.5,7.0,M,-32.6,M,,*5A
$PYRTM,2024,125.501189515718,16.610836925856
$GPGGA,120141.00,3511.6438,N,12148.0548,W,1,12,0.5,6.0,M,-32.6,M,,*5B
$PYRTM,2024,125.501201076146,16.610848486285
$GPGGA,120142.00,3511.6437,N,12148.0540,W,1,12,0.5,7.2,M,-32.6,M,,*5C
$PYRTM,2024,125.501212662199,16.610860072338
$GPGGA,120143.00,3511.6434,N,12148.0534,W,1,12,0.5,5.9,M,-32.6,M,,*54
$PYRTM,2024,125.501224224757,16.610871634896
$GPGGA,120144.00,3511.6431,N,12148.0528,W,1,12,0.5,3.4,M,-32.6,M,,*50
$PYRTM,2024,125.501235811771,16.610883221921
$GPGGA,120145.00,3511.6429,N,12148.0522,W,1,12,0.5,7.1,M,-32.6,M,,*53
$PYRTM,2024,125.501247372581,16.610894782720
$GPGGA,120146.00,3511.6425,N,12148.0515,W,1,12,0.5,7.1,M,-32.6,M,,*58
$PYRTM,2024,125.501258958576,16.610906368715
$GPGGA,120147.00,3511.6421,N,12148.0507,W,1,12,0.5,7.2,M,-32.6,M,,*5D
$PYRTM,2024,125.501270520255,16.610917930394
$GPGGA,120148.00,3511.6416,N,12148.0499,W,1,12,0.5,6.9,M,-32.6,M,,*5A
$PYRTM,2024,125.501282107523,16.610929517662
$GPGGA,120149.00,3511.6412,N,12148.0491,W,1,12,0.5,8.4,M,-32.6,M,,*54
$PYRTM,2024,125.501293667789,16.610941077928
$GPGGA,120150.00,3511.6410,N,12148.0483,W,1,12,0.5,5.7,M,-32.6,M,,*53
$PYRTM,2024,125.501305257789,16.610952667928
$GPGGA,120151.00,3511.6406,N,12148.0477,W,1,12,0.5,6.6,M,-32.6,M,,*5C
$PYRTM,2024,125.501316817766,16.610964227905
$GPGGA,120152.00,3511.6402,N,12148.0471,W,1,12,0.5,5.3,M,-32.6,M,,*5B
$PYRTM,2024,125.501328407801,16.610975817940
$GPGGA,120153.00,3511.6398,N,12148.0464,W,1,12,0.5,5.9,M,-32.6,M,,*50
$PYRTM,2024,125.501339966331,16.610987376470
$GPGGA,120154.00,3511.6394,N,12148.0456,W,1,12,0.5,6.4,M,-32.6,M,,*54
$PYRTM,2024,125.501351558044,16.610998968183
$GPGGA,120155.00,3511.6391,N,12148.0448,W,1,12,0.5,7.0,M,-32.6,M,,*5A
$PYRTM,2024,125.501361741134,16.611009151273
$GPGGA,120156.00,3511.6389,N,12148.0442,W,1,12,0.5,6.7,M,-32.6,M,,*5C
$PYRTM,2024,125.501373659051,16.611021069190
$GPGGA,120157.00,3511.6387,N,12148.0435,W,1,12,0.5,6.4,M,-32.6,M,,*50
$PYRTM,2024,125.501386261435,16.611033671574
$GPGGA,120158.00,3511.6385,N,12148.0430,W,1,12,0.5,5.0,M,-32.6,M,,*5F
$PYRTM,2024,125.501397849537,16.611045259676
$GPGGA,120159.00,3511.6380,N,12148.0425,W,1,12,0.5,4.5,M,-32.6,M,,*5B
$PYRTM,2024,125.501409408692,16.611056818843
$GPGGA,120200.00,3511.6375,N,12148.0420,W,1,12,0.5,5.1,M,-32.6,M,,*5E
$PYRTM,2024,125.501420995764,16.611068405903
$GPGGA,120201.00,3511.6373,N,12148.0414,W,1,12,0.5,6.9,M,-32.6,M,,*55
$PYRTM,2024,125.501432559769,16.611079969907
$GPGGA,120202.00,3511.6372,N,12148.0406,W,1,12,0.5,4.5,M,-32.6,M,,*5A
$PYRTM,2024,125.501444147847,16.611091557986
$GPGGA,120203.00,3511.6370,N,12148.0399,W,1,12,0.5,5.5,M,-32.6,M,,*59
$PYRTM,2024,125.501455705706,16.611103115833
$GPGGA,120204.00,3511.6364,N,12148.0392,W,1,12,0.5,5.3,M,-32.6,M,,*56
$PYRTM,2024,125.501467307951,16.611114718090
$GPGGA,120205.00,3511.6356,N,12148.0386,W,1,12,0.5,7.0,M,-32.6,M,,*52
$PYRTM,2024,125.501478856215,16.611126266354
$GPGGA,120206.00,3511.6351,N,12148.0381,W,1,12,0.5,6.8,M,-32.6,M,,*58
$PYRTM,2024,125.501490443148,16.611137853287
$GPGGA,120207.00,3511.6349,N,12148.0375,W,1,12,0.5,6.5,M,-32.6,M,,*56
$PYRTM,2024,125.501502004965,16.611149415104
$GPGGA,120208.00,3511.6347,N,12148.0368,W,1,12,0.5,5.4,M,-32.6,M,,*59
$PYRTM,2024,125.501513589537,16.611160999688
$GPGGA,120209.00,3511.6343,N,12148.0361,W,1,12,0.5,5.3,M,-32.6,M,,*52
$PYRTM,2024,125.501525150938,16.611172561076
$GPGGA,120210.00,3511.6338,N,12148.0355,W,1,12,0.5,5.0,M,-32.6,M,,*52
$PYRTM,2024,125.501536738380,16.611184148519
$GPGGA,120211.00,3511.6333,N,12148.0348,W,1,12,0.5,2.3,M,-32.6,M,,*50
$PYRTM,2024,125.501548300370,16.611195710509
$GPGGA,120212.00,3511.6330,N,12148.0341,W,1,12,0.5,5.5,M,-32.6,M,,*58
$PYRTM,2024,125.501559887500,16.611207297639
$GPGGA,120213.00,3511.6329,N,12148.0334,W,1,12,0.5,6.8,M,-32.6,M,,*5D
$PYRTM,2024,125.501571448333,16.611218858472
$GPGGA,120214.00,3511.6327,N,12148.0327,W,1,12,0.5,7.3,M,-32.6,M,,*5C
$PYRTM,2024,125.501583029687,16.611230439826
$GPGGA,120215.00,3511.6322,N,12148.0320,W,1,12,0.5,6.3,M,-32.6,M,,*5E
$PYRTM,2024,125.501594597234,16.611242007373
$GPGGA,120216.00,3511.6317,N,12148.0313,W,1,12,0.5,4.7,M,-32.6,M,,*5D
$PYRTM,2024,125.501606185544,16.611253595683
$GPGGA,120217.00,3511.6315,N,12148.0306,W,1,12,0.5,4.3,M,-32.6,M,,*5E
$PYRTM,2024,125.501617745706,16.611265155845
$GPGGA,120218.00,3511.6314,N,12148.0299,W,1,12,0.5,3.7,M,-32.6,M,,*54
$PYRTM,2024,125.501629334537,16.611276744676
$GPGGA,120219.00,3511.6312,N,12148.0294,W,1,12,0.5,4.6,M,-32.6,M,,*58
$PYRTM,2024,125.501640893542,16.611288303692
$GPGGA,120220.00,3511.6309,N,12148.0287,W,1,12,0.5,4.8,M,-32.6,M,,*54
$PYRTM,2024,125.501652482245,16.611299892384
$GPGGA,120221.00,3511.6306,N,12148.0279,W,1,12,0.5,6.3,M,-32.6,M,,*52
$PYRTM,2024,125.501664042639,16.611311452789
$GPGGA,120222.00,3511.6303,N,12148.0270,W,1,12,0.5,6.5,M,-32.6,M,,*5B
$PYRTM,2024,125.501675623738,16.611323033877
$GPGGA,120223.00,3511.6300,N,12148.0263,W,1,12,0.5,8.0,M,-32.6,M,,*50
$PYRTM,2024,125.501687191157,16.611334601296
$GPGGA,120224.00,3511.6296,N,12148.0259,W,1,12,0.5,10.7,M,-32.6,M,,*6E
$PYRTM,2024,125.501698771331,16.611346181470
$GPGGA,120225.00,3511.6293,N,12148.0254,W,1,12,0.5,10.4,M,-32.6,M,,*64
$PYRTM,2024,125.501709411840,16.611356821979
$GPGGA,120226.00,3511.6291,N,12148.0247,W,1,12,0.5,7.2,M,-32.6,M,,*57
$PYRTM,2024,125.501720885255,16.611368295394
$GPGGA,120227.00,3511.6288,N,12148.0240,W,1,12,0.5,7.3,M,-32.6,M,,*58
$PYRTM,2024,125.501733487662,16.611380897801
$GPGGA,120228.00,3511.6283,N,12148.0234,W,1,12,0.5,6.9,M,-32.6,M,,*54
$PYRTM,2024,125.501745073171,16.611392483310
$GPGGA,120229.00,3511.6278,N,12148.0230,W,1,12,0.5,5.9,M,-32.6,M,,*56
$PYRTM,2024,125.501756632998,16.611404043137
$GPGGA,120230.00,3511.6275,N,12148.0224,W,1,12,0.5,5.3,M,-32.6,M,,*5C
$PYRTM,2024,125.501768220521,16.611415630660
$GPGGA,120231.00,3511.6273,N,12148.0215,W,1,12,0.5,5.8,M,-32.6,M,,*52
$PYRTM,2024,125.501779781863,16.611427192014
$GPGGA,120232.00,3511.6272,N,12148.0206,W,1,12,0.5,3.5,M,-32.6,M,,*59
$PYRTM,2024,125.501791383692,16.611438793831
$GPGGA,120233.00,3511.6267,N,12148.0199,W,1,12,0.5,5.3,M,-32.6,M,,*59
$PYRTM,2024,125.501802933032,16.611450343171
$GPGGA,120234.00,3511.6261,N,12148.0196,W,1,12,0.5,7.1,M,-32.6,M,,*57
$PYRTM,2024,125.501814521065,16.611461931204
$GPGGA,120235.00,3511.6255,N,12148.0191,W,1,12,0.5,6.7,M,-32.6,M,,*51
$PYRTM,2024,125.501826079398,16.611473489537
$GPGGA,120236.00,3511.6252,N,12148.0182,W,1,12,0.5,8.2,M,-32.6,M,,*5C
$PYRTM,2024,125.501837662361,16.611485072500
$GPGGA,120237.00,3511.6252,N,12148.0171,W,1,12,0.5,6.7,M,-32.6,M,,*5A
$PYRTM,2024,125.501849230706,16.611496640845
$GPGGA,120238.00,3511.6250,N,12148.0164,W,1,12,0.5,6.8,M,-32.6,M,,*5C
$PYRTM,2024,125.501860816817,16.611508226956
$GPGGA,120239.00,3511.6245,N,12148.0159,W,1,12,0.5,5.0,M,-32.6,M,,*5C
$PYRTM,2024,125.501872375625,16.611519785764
$GPGGA,120240.00,3511.6240,N,12148.0154,W,1,12,0.5,4.8,M,-32.6,M,,*53
$PYRTM,2024,125.501883037477,16.611530447616
$GPGGA,120241.00,3511.6237,N,12148.0146,W,1,12,0.5,5.0,M,-32.6,M,,*58
$PYRTM,2024,125.501894961146,16.611542371285
$GPGGA,120242.00,3511.6236,N,12148.0136,W,1,12,0.5,5.5,M,-32.6,M,,*58
$PYRTM,2024,125.501903755486,16.611551165625
$GPGGA,120243.00,3511.6232,N,12148.0130,W,1,12,0.5,6.7,M,-32.6,M,,*5A
$PYRTM,2024,125.501921460162,16.611568870301
$GPGGA,120244.00,3511.6225,N,12148.0125,W,1,11,0.8,6.6,M,-32.6,M,,*50
$PYRTM,2024,125.501932445521,16.611579855660
$GPGGA,120245.00,3511.6219,N,12148.0119,W,1,12,0.5,6.9,M,-32.6,M,,*50
$PYRTM,2024,125.501943570718,16.611590980856
$GPGGA,120246.00,3511.6217,N,12148.0108,W,1,12,0.5,8.5,M,-32.6,M,,*5F
$PYRTM,2024,125.501954668356,16.611602078495
$GPGGA,120247.00,3511.6217,N,12148.0098,W,1,12,0.5,7.8,M,-32.6,M,,*54
$PYRTM,2024,125.501965793264,16.611613203403
$GPGGA,120248.00,3511.6215,N,12148.0091,W,1,12,0.5,7.6,M,-32.6,M,,*5E
$PYRTM,2024,125.501976890602,16.611624300741
$GPGGA,120249.00,3511.6208,N,12148.0088,W,1,12,0.5,5.3,M,-32.6,M,,*5C
$PYRTM,2024,125.501988014745,16.611635424884
$GPGGA,120250.00,3511.6201,N,12148.0086,W,1,12,0.5,4.9,M,-32.6,M,,*58
$PYRTM,2024,125.501999124769,16.611646534907
$GPGGA,120251.00,3511.6198,N,12148.0079,W,1,12,0.5,6.2,M,-32.6,M,,*53
$PYRTM,2024,125.502010702442,16.611658112581
$GPGGA,120252.00,3511.6198,N,12148.0068,W,1,12,0.5,5.7,M,-32.6,M,,*56
$PYRTM,2024,125.502022273333,16.611669683472
$GPGGA,120253.00,3511.6197,N,12148.0059,W,1,12,0.5,6.5,M,-32.6,M,,*5B
$PYRTM,2024,125.502033863275,16.611681273414
$GPGGA,120254.00,3511.6192,N,12148.0054,W,1,12,0.5,7.0,M,-32.6,M,,*50
$PYRTM,2024,125.502045422650,16.611692832789
$GPGGA,120255.00,3511.6187,N,12148.0050,W,1,12,0.5,8.0,M,-32.6,M,,*5E
$PYRTM,2024,125.502057563530,16.611704973669
$GPGGA,120256.00,3511.6184,N,12148.0042,W,1,12,0.5,5.1,M,-32.6,M,,*51
$PYRTM,2024,125.502069143750,16.611716553889
$GPGGA,120257.00,3511.6183,N,12148.0033,W,1,12,0.5,6.7,M,-32.6,M,,*54
$PYRTM,2024,125.502080711007,16.611728121146
$GPGGA,120258.00,3511.6182,N,12148.0025,W,1,12,0.5,6.0,M,-32.6,M,,*5A
$PYRTM,2024,125.502092292153,16.611739702292
$GPGGA,120259.00,3511.6179,N,12148.0018,W,1,12,0.5,6.7,M,-32.6,M,,*56
$PYRTM,2024,125.502103858148,16.611751268287
$GPGGA,120300.00,3511.6173,N,12148.0012,W,1,12,0.5,7.0,M,-32.6,M,,*5D
$PYRTM,2024,125.502115449421,16.611762859560
$GPGGA,120301.00,3511.6165,N,12148.0006,W,1,12,0.5,5.8,M,-32.6,M,,*54
$PYRTM,2024,125.502127007361,16.611774417500
$GPGGA,120302.00,3511.6162,N,12148.0000,W,1,12,0.5,6.2,M,-32.6,M,,*5F
$PYRTM,2024,125.502138607639,16.611786017778
$GPGGA,120303.00,3511.6161,N,12147.9993,W,1,12,0.5,4.2,M,-32.6,M,,*5A
$PYRTM,2024,125.502150155289,16.611797565428
$GPGGA,120304.00,3511.6159,N,12147.9986,W,1,12,0.5,4.0,M,-32.6,M,,*50
$PYRTM,2024,125.502161743113,16.611809153252
$GPGGA,120305.00,3511.6154,N,12147.9980,W,1,12,0.5,5.7,M,-32.6,M,,*5C
$PYRTM,2024,125.502173303391,16.611820713542
$GPGGA,120306.00,3511.6148,N,12147.9974,W,1,12,0.5,3.9,M,-32.6,M,,*51
$PYRTM,2024,125.502184885405,16.611832295544
$GPGGA,120307.00,3511.6144,N,12147.9968,W,1,12,0.5,3.7,M,-32.6,M,,*5F
$PYRTM,2024,125.502196451991,16.611843862130
$GPGGA,120308.00,3511.6141,N,12147.9963,W,1,12,0.5,4.0,M,-32.6,M,,*5E
$PYRTM,2024,125.502208032998,16.611855443137
$GPGGA,120309.00,3511.6138,N,12147.9958,W,1,12,0.5,6.1,M,-32.6,M,,*5A
$PYRTM,2024,125.502219600532,16.611867010683
$GPGGA,120310.00,3511.6136,N,12147.9951,W,1,12,0.5,3.9,M,-32.6,M,,*58
$PYRTM,2024,125.502231187569,16.611878597708
$GPGGA,120311.00,3511.6135,N,12147.9943,W,1,12,0.5,4.5,M,-32.6,M,,*52
$PYRTM,2024,125.502242750718,16.611890160868
$GPGGA,120312.00,3511.6132,N,12147.9935,W,1,12,0.5,6.0,M,-32.6,M,,*50
$PYRTM,2024,125.502254335475,16.611901745625
$GPGGA,120313.00,3511.6129,N,12147.9928,W,1,12,0.5,7.1,M,-32.6,M,,*57
$PYRTM,2024,125.502265898681,16.611913308819
$GPGGA,120314.00,3511.6125,N,12147.9920,W,1,12,0.5,4.0,M,-32.6,M,,*56
$PYRTM,2024,125.502277497234,16.611924907373
$GPGGA,120315.00,3511.6123,N,12147.9914,W,1,12,0.5,3.6,M,-32.6,M,,*57
$PYRTM,2024,125.502289045150,16.611936455289
$GPGGA,120316.00,3511.6122,N,12147.9909,W,1,12,0.5,3.4,M,-32.6,M,,*5B
$PYRTM,2024,125.502300646551,16.611948056701
$GPGGA,120317.00,3511.6118,N,12147.9904,W,1,12,0.5,5.5,M,-32.6,M,,*59
$PYRTM,2024,125.502312193796,16.611959603935
$GPGGA,120318.00,3511.6113,N,12147.9895,W,1,12,0.5,5.6,M,-32.6,M,,*57
$PYRTM,2024,125.502323779653,16.611971189792
$GPGGA,120319.00,3511.6107,N,12147.9885,W,1,12,0.5,6.9,M,-32.6,M,,*5E
$PYRTM,2024,125.502335341701,16.611982751852
$GPGGA,120320.00,3511.6104,N,12147.9876,W,1,12,0.5,11.9,M,-32.6,M,,*6D
$PYRTM,2024,125.502346927824,16.611994337963
$GPGGA,120321.00,3511.6101,N,12147.9868,W,1,12,0.5,11.2,M,-32.6,M,,*6D
$PYRTM,2024,125.502358490185,16.612005900324
$GPGGA,120322.00,3511.6096,N,12147.9860,W,1,12,0.5,8.8,M,-32.6,M,,*5B
$PYRTM,2024,125.502370080556,16.612017490694
$GPGGA,120323.00,3511.6091,N,12147.9852,W,1,12,0.5,6.3,M,-32.6,M,,*59
$PYRTM,2024,125.502381640787,16.612029050926
$GPGGA,120324.00,3511.6087,N,12147.9846,W,1,12,0.5,6.5,M,-32.6,M,,*5A
$PYRTM,2024,125.502393224954,16.612040635093
$GPGGA,120325.00,3511.6085,N,12147.9839,W,1,12,0.5,5.8,M,-32.6,M,,*5F
$PYRTM,2024,125.502403405995,16.612050816134
$GPGGA,120326.00,3511.6084,N,12147.9834,W,1,12,0.5,5.8,M,-32.6,M,,*50
$PYRTM,2024,125.502415331273,16.612062741412
$GPGGA,120327.00,3511.6081,N,12147.9830,W,1,12,0.5,5.7,M,-32.6,M,,*5F
$PYRTM,2024,125.502427936331,16.612075346470
$GPGGA,120328.00,3511.6076,N,12147.9826,W,1,12,0.5,9.6,M,-32.6,M,,*52
$PYRTM,2024,125.502439524051,16.612086934190
$GPGGA,120329.00,3511.6073,N,12147.9819,W,1,12,0.5,5.0,M,-32.6,M,,*50
$PYRTM,2024,125.502451085069,16.612098495208
$GPGGA,120330.00,3511.6071,N,12147.9808,W,1,12,0.5,4.7,M,-32.6,M,,*5C
$PYRTM,2024,125.502462672766,16.612110082917
$GPGGA,120331.00,3511.6068,N,12147.9799,W,1,12,0.5,5.2,M,-32.6,M,,*56
$PYRTM,2024,125.502474230451,16.612121640590
$GPGGA,120332.00,3511.6064,N,12147.9793,W,1,12,0.5,2.7,M,-32.6,M,,*51
$PYRTM,2024,125.502485817627,16.612133227766
$GPGGA,120333.00,3511.6060,N,12147.9787,W,1,12,0.5,6.1,M,-32.6,M,,*53
$PYRTM,2024,125.502497379826,16.612144789965
$GPGGA,120334.00,3511.6056,N,12147.9780,W,1,12,0.5,3.8,M,-32.6,M,,*5A
$PYRTM,2024,125.502508967755,16.612156377905
$GPGGA,120335.00,3511.6053,N,12147.9773,W,1,12,0.5,4.3,M,-32.6,M,,*5E
$PYRTM,2024,125.502520527998,16.612167938137
$GPGGA,120336.00,3511.6050,N,12147.9765,W,1,12,0.5,6.9,M,-32.6,M,,*51
$PYRTM,2024,125.502532115752,16.612179525891
$GPGGA,120337.00,3511.6045,N,12147.9759,W,1,12,0.5,5.5,M,-32.6,M,,*54
$PYRTM,2024,125.502543676921,16.612191087072
$GPGGA,120338.00,3511.6039,N,12147.9751,W,1,12,0.5,5.5,M,-32.6,M,,*58
$PYRTM,2024,125.502555262847,16.612202672998
$GPGGA,120339.00,3511.6035,N,12147.9745,W,1,12,0.5,6.3,M,-32.6,M,,*55
$PYRTM,2024,125.502566823912,16.612214234051
$GPGGA,120340.00,3511.6031,N,12147.9739,W,1,12,0.5,6.7,M,-32.6,M,,*50
$PYRTM,2024,125.502578407650,16.612225817789
$GPGGA,120341.00,3511.6030,N,12147.9732,W,1,12,0.5,7.4,M,-32.6,M,,*59
$PYRTM,2024,125.502589972407,16.612237382546
$GPGGA,120342.00,3511.6027,N,12147.9725,W,1,12,0.5,8.5,M,-32.6,M,,*54
$PYRTM,2024,125.502601561921,16.612248972060
$GPGGA,120343.00,3511.6023,N,12147.9719,W,1,12,0.5,11.3,M,-32.6,M,,*60
$PYRTM,2024,125.502613120208,16.612260530347
$GPGGA,120344.00,3511.6018,N,12147.9715,W,1,12,0.5,10.3,M,-32.6,M,,*62
$PYRTM,2024,125.502624722407,16.612272132546
$GPGGA,120345.00,3511.6013,N,12147.9709,W,1,12,0.5,8.5,M,-32.6,M,,*5A
$PYRTM,2024,125.502636270012,16.612283680150
$GPGGA,120346.00,3511.6009,N,12147.9701,W,1,12,0.5,7.1,M,-32.6,M,,*51
$PYRTM,2024,125.502647855926,16.612295266076
$GPGGA,120347.00,3511.6006,N,12147.9694,W,1,12,0.5,6.4,M,-32.6,M,,*56
$PYRTM,2024,125.502659417222,16.612306827361
$GPGGA,120348.00,3511.6004,N,12147.9688,W,1,12,0.5,7.4,M,-32.6,M,,*57
$PYRTM,2024,125.502671009421,16.612318419560
$GPGGA,120349.00,3511.6000,N,12147.9682,W,1,12,0.5,8.8,M,-32.6,M,,*5B
$PYRTM,2024,125.502682565000,16.612329975139
$GPGGA,120350.00,3511.5995,N,12147.9676,W,1,12,0.5,8.1,M,-32.6,M,,*57
$PYRTM,2024,125.502694156701,16.612341566840
$GPGGA,120351.00,3511.5991,N,12147.9669,W,1,12,0.5,7.2,M,-32.6,M,,*50
$PYRTM,2024,125.502705713241,16.612353123380
$GPGGA,120352.00,3511.5988,N,12147.9662,W,1,12,0.5,5.7,M,-32.6,M,,*57
$PYRTM,2024,125.502717300984,16.612364711123
$GPGGA,120353.00,3511.5987,N,12147.9655,W,1,12,0.5,2.9,M,-32.6,M,,*54
$PYRTM,2024,125.502728863391,16.612376273530
$GPGGA,120354.00,3511.5983,N,12147.9646,W,1,12,0.5,3.0,M,-32.6,M,,*5D
$PYRTM,2024,125.502740447928,16.612387858079
$GPGGA,120355.00,3511.5978,N,12147.9638,W,1,12,0.5,4.8,M,-32.6,M,,*5E
$PYRTM,2024,125.502750637211,16.612398047350
$GPGGA,120356.00,3511.5975,N,12147.9630,W,1,12,0.5,6.3,M,-32.6,M,,*51
$PYRTM,2024,125.502762555231,16.612409965370
$GPGGA,120357.00,3511.5972,N,12147.9624,W,1,12,0.5,7.7,M,-32.6,M,,*57
$PYRTM,2024,125.502775158808,16.612422568947
$GPGGA,120358.00,3511.5968,N,12147.9618,W,1,12,0.5,8.4,M,-32.6,M,,*50
$PYRTM,2024,125.502786744352,16.612434154491
$GPGGA,120359.00,3511.5964,N,12147.9611,W,1,12,0.5,9.1,M,-32.6,M,,*50
$PYRTM,2024,125.502798305729,16.612445715868
$GPGGA,120400.00,3511.5961,N,12147.9603,W,1,12,0.5,8.1,M,-32.6,M,,*5C
$PYRTM,2024,125.502809893484,16.612457303623
$GPGGA,120401.00,3511.5960,N,12147.9596,W,1,12,0.5,8.2,M,-32.6,M,,*50
$PYRTM,2024,125.502821455741,16.612468865880
$GPGGA,120402.00,3511.5959,N,12147.9590,W,1,12,0.5,8.3,M,-32.6,M,,*5E
$PYRTM,2024,125.502833056736,16.612480466875
$GPGGA,120403.00,3511.5955,N,12147.9584,W,1,12,0.5,9.0,M,-32.6,M,,*54
$PYRTM,2024,125.502844604167,16.612492014306
$GPGGA,120404.00,3511.5950,N,12147.9577,W,1,12,0.5,7.5,M,-32.6,M,,*51
$PYRTM,2024,125.502856193090,16.612503603241
$GPGGA,120405.00,3511.5946,N,12147.9570,W,1,12,0.5,5.0,M,-32.6,M,,*57
$PYRTM,2024,125.502867752824,16.612515162963
$GPGGA,120406.00,3511.5943,N,12147.9562,W,1,12,0.5,6.1,M,-32.6,M,,*50
$PYRTM,2024,125.502879340694,16.612526750833
$GPGGA,120407.00,3511.5941,N,12147.9554,W,1,12,0.5,8.0,M,-32.6,M,,*59
$PYRTM,2024,125.502890900370,16.612538310509
$GPGGA,120408.00,3511.5936,N,12147.9548,W,1,12,0.5,7.7,M,-32.6,M,,*53
$PYRTM,2024,125.502902486968,16.612549897106
$GPGGA,120409.00,3511.5931,N,12147.9542,W,1,12,0.5,6.5,M,-32.6,M,,*5C
$PYRTM,2024,125.502914049248,16.612561459387
$GPGGA,120410.00,3511.5927,N,12147.9534,W,1,12,0.5,4.3,M,-32.6,M,,*56
$PYRTM,2024,125.502925630220,16.612573040359
$GPGGA,120411.00,3511.5923,N,12147.9525,W,1,12,0.5,5.8,M,-32.6,M,,*59
$PYRTM,2024,125.502937196192,16.612584606331
$GPGGA,120412.00,3511.5920,N,12147.9518,W,1,12,0.5,6.1,M,-32.6,M,,*5D
$PYRTM,2024,125.502948783507,16.612596193646
$GPGGA,120413.00,3511.5918,N,12147.9512,W,1,12,0.5,5.7,M,-32.6,M,,*58
$PYRTM,2024,125.502960344294,16.612607754433
$GPGGA,120414.00,3511.5915,N,12147.9507,W,1,12,0.5,5.3,M,-32.6,M,,*52
$PYRTM,2024,125.502971931829,16.612619341968
$GPGGA,120415.00,3511.5912,N,12147.9501,W,1,12,0.5,6.5,M,-32.6,M,,*57
$PYRTM,2024,125.502983492812,16.612630902951
$GPGGA,120416.00,3511.5908,N,12147.9493,W,1,12,0.5,7.8,M,-32.6,M,,*59
$PYRTM,2024,125.502995082778,16.612642492917
$GPGGA,120417.00,3511.5903,N,12147.9487,W,1,12,0.5,6.9,M,-32.6,M,,*56
$PYRTM,2024,125.503006641481,16.612654051620
$GPGGA,120418.00,3511.5900,N,12147.9483,W,1,12,0.5,6.9,M,-32.6,M,,*5E
$PYRTM,2024,125.503018231493,16.612665641632
$GPGGA,120419.00,3511.5896,N,12147.9475,W,1,12,0.5,6.3,M,-32.6,M,,*52
$PYRTM,2024,125.503029789664,16.612677199803
$GPGGA,120420.00,3511.5894,N,12147.9465,W,1,12,0.5,5.5,M,-32.6,M,,*5E
$PYRTM,2024,125.503041376771,16.612688786921
$GPGGA,120421.00,3511.5891,N,12147.9457,W,1,12,0.5,5.3,M,-32.6,M,,*5D
$PYRTM,2024,125.503052937269,16.612700347407
$GPGGA,120422.00,3511.5887,N,12147.9454,W,1,12,0.5,5.0,M,-32.6,M,,*59
$PYRTM,2024,125.503064525301,16.612711935440
$GPGGA,120423.00,3511.5883,N,12147.9451,W,1,12,0.5,4.7,M,-32.6,M,,*5F
$PYRTM,2024,125.503076086481,16.612723496620
$GPGGA,120424.00,3511.5879,N,12147.9445,W,1,12,0.5,6.7,M,-32.6,M,,*5A
$PYRTM,2024,125.503087675301,16.612735085440
$GPGGA,120425.00,3511.5876,N,12147.9439,W,1,12,0.5,8.0,M,-32.6,M,,*56
$PYRTM,2024,125.503097862373,16.612745272512
$GPGGA,120426.00,3511.5873,N,12147.9431,W,1,12,0.5,7.1,M,-32.6,M,,*56
$PYRTM,2024,125.503109782523,16.612757192662
$GPGGA,120427.00,3511.5869,N,12147.9423,W,1,12,0.5,8.3,M,-32.6,M,,*52
$PYRTM,2024,125.503122386019,16.612769796157
$GPGGA,120428.00,3511.5864,N,12147.9416,W,1,12,0.5,7.9,M,-32.6,M,,*53
$PYRTM,2024,125.503133972442,16.612781382581
$GPGGA,120429.00,3511.5859,N,12147.9409,W,1,12,0.5,5.9,M,-32.6,M,,*50
$PYRTM,2024,125.503145531412,16.612792941551
$GPGGA,120430.00,3511.5856,N,12147.9401,W,1,12,0.5,5.3,M,-32.6,M,,*55
$PYRTM,2024,125.503157120868,16.612804531007
$GPGGA,120431.00,3511.5855,N,12147.9392,W,1,12,0.5,6.2,M,-32.6,M,,*58
$PYRTM,2024,125.503168678333,16.612816088472
$GPGGA,120432.00,3511.5853,N,12147.9384,W,1,12,0.5,5.3,M,-32.6,M,,*58
$PYRTM,2024,125.503180280590,16.612827690729
$GPGGA,120433.00,3511.5848,N,12147.9378,W,1,12,0.5,5.8,M,-32.6,M,,*5B
$PYRTM,2024,125.503191827396,16.612839237535
$GPGGA,120434.00,3511.5842,N,12147.9373,W,1,12,0.5,7.4,M,-32.6,M,,*53
$PYRTM,2024,125.503203414502,16.612850824641
$GPGGA,120435.00,3511.5836,N,12147.9366,W,1,12,0.5,5.4,M,-32.6,M,,*57
$PYRTM,2024,125.503214975556,16.612862385683
$GPGGA,120436.00,3511.5833,N,12147.9357,W,1,12,0.5,6.8,M,-32.6,M,,*5C
$PYRTM,2024,125.503226562164,16.612873972303
$GPGGA,120437.00,3511.5832,N,12147.9347,W,1,12,0.5,7.5,M,-32.6,M,,*51
$PYRTM,2024,125.503238122882,16.612885533021
$GPGGA,120438.00,3511.5829,N,12147.9339,W,1,12,0.5,5.2,M,-32.6,M,,*58
$PYRTM,2024,125.503249706516,16.612897116655
$GPGGA,120439.00,3511.5825,N,12147.9333,W,1,12,0.5,6.0,M,-32.6,M,,*5E
$PYRTM,2024,125.503261273669,16.612908683808
$GPGGA,120440.00,3511.5820,N,12147.9328,W,1,12,0.5,6.0,M,-32.6,M,,*5F
$PYRTM,2024,125.503272859977,16.612920270116
$GPGGA,120441.00,3511.5817,N,12147.9322,W,1,12,0.5,5.9,M,-32.6,M,,*5A
$PYRTM,2024,125.503284422095,16.612931832234
$GPGGA,120442.00,3511.5815,N,12147.9315,W,1,12,0.5,5.9,M,-32.6,M,,*5F
$PYRTM,2024,125.503296008924,16.612943419062
$GPGGA,120443.00,3511.5813,N,12147.9307,W,1,12,0.5,9.2,M,-32.6,M,,*5C
$PYRTM,2024,125.503307570637,16.612954980775
$GPGGA,120444.00,3511.5808,N,12147.9299,W,1,12,0.5,9.4,M,-32.6,M,,*51
$PYRTM,2024,125.503319159861,16.612966570000
$GPGGA,120445.00,3511.5802,N,12147.9293,W,1,12,0.5,9.5,M,-32.6,M,,*51
$PYRTM,2024,125.503329791157,16.612977201296
$GPGGA,120446.00,3511.5796,N,12147.9287,W,1,12,0.5,10.9,M,-32.6,M,,*61
$PYRTM,2024,125.503341722280,16.612989132419
$GPGGA,120447.00,3511.5790,N,12147.9280,W,1,12,0.5,6.2,M,-32.6,M,,*5D
$PYRTM,2024,125.503352491308,16.612999901447
$GPGGA,120448.00,3511.5786,N,12147.9273,W,1,11,0.8,6.8,M,-32.6,M,,*5D
$PYRTM,2024,125.503363603576,16.613011013715
$GPGGA,120449.00,3511.5783,N,12147.9268,W,1,12,0.5,8.2,M,-32.6,M,,*59
$PYRTM,2024,125.503374599873,16.613022010012
$GPGGA,120450.00,3511.5779,N,12147.9264,W,1,12,0.5,7.6,M,-32.6,M,,*53
$PYRTM,2024,125.503385707905,16.613033118056
$GPGGA,120451.00,3511.5776,N,12147.9260,W,1,12,0.5,7.1,M,-32.6,M,,*5E
$PYRTM,2024,125.503396815382,16.613044225521
$GPGGA,120452.00,3511.5772,N,12147.9254,W,1,12,0.5,8.3,M,-32.6,M,,*53
$PYRTM,2024,125.503407930648,16.613055340787
$GPGGA,120453.00,3511.5768,N,12147.9248,W,1,12,0.5,6.5,M,-32.6,M,,*5C
$PYRTM,2024,125.503419044873,16.613066455023
$GPGGA,120454.00,3511.5765,N,12147.9242,W,1,12,0.5,4.3,M,-32.6,M,,*58
$PYRTM,2024,125.503430148056,16.613077558194
$GPGGA,120455.00,3511.5763,N,12147.9234,W,1,12,0.5,4.8,M,-32.6,M,,*55
$PYRTM,2024,125.503446459236,16.613093869375
$GPGGA,120456.00,3511.5760,N,12147.9226,W,1,12,0.5,8.7,M,-32.6,M,,*55
$PYRTM,2024,125.503458040972,16.613105451111
$GPGGA,120457.00,3511.5756,N,12147.9220,W,1,12,0.5,7.6,M,-32.6,M,,*59
$PYRTM,2024,125.503469607025,16.613117017164
$GPGGA,120458.00,3511.5751,N,12147.9212,W,1,12,0.5,8.0,M,-32.6,M,,*59
$PYRTM,2024,125.503481182824,16.613128592963
$GPGGA,120459.00,3511.5748,N,12147.9204,W,1,12,0.5,6.7,M,-32.6,M,,*5E
$PYRTM,2024,125.503492756007,16.613140166146
$GPGGA,120500.00,3511.5746,N,12147.9196,W,1,12,0.5,7.0,M,-32.6,M,,*53
$PYRTM,2024,125.503504347269,16.613151757407
$GPGGA,120501.00,3511.5746,N,12147.9188,W,1,12,0.5,6.7,M,-32.6,M,,*5B
$PYRTM,2024,125.503515905162,16.613163315301
$GPGGA,120502.00,3511.5743,N,12147.9182,W,1,12,0.5,6.8,M,-32.6,M,,*58
$PYRTM,2024,125.503527495289,16.613174905428
$GPGGA,120503.00,3511.5737,N,12147.9178,W,1,12,0.5,6.5,M,-32.6,M,,*52
$PYRTM,2024,125.503539054016,16.613186464155
$GPGGA,120504.00,3511.5731,N,12147.9172,W,1,12,0.5,6.2,M,-32.6,M,,*5E
$PYRTM,2024,125.503550639525,16.613198049664
$GPGGA,120505.00,3511.5728,N,12147.9164,W,1,12,0.5,9.6,M,-32.6,M,,*5B
$PYRTM,2024,125.503562201817,16.613209611956
$GPGGA,120506.00,3511.5728,N,12147.9154,W,1,12,0.5,9.1,M,-32.6,M,,*5C
$PYRTM,2024,125.503573789340,16.613221199479
$GPGGA,120507.00,3511.5725,N,12147.9145,W,1,12,0.5,12.1,M,-32.6,M,,*6A
$PYRTM,2024,125.503585347894,16.613232758032
$GPGGA,120508.00,3511.5719,N,12147.9139,W,1,12,0.5,11.3,M,-32.6,M,,*60
$PYRTM,2024,125.503596935660,16.613244345799
$GPGGA,120509.00,3511.5711,N,12147.9134,W,1,12,0.5,10.0,M,-32.6,M,,*66
$PYRTM,2024,125.503608496690,16.613255906829
$GPGGA,120510.00,3511.5707,N,12147.9128,W,1,12,0.5,9.8,M,-32.6,M,,*54
$PYRTM,2024,125.503620085301,16.613267495451
$GPGGA,120511.00,3511.5708,N,12147.9118,W,1,12,0.5,7.6,M,-32.6,M,,*59
$PYRTM,2024,125.503631644780,16.613279054919
$GPGGA,120512.00,3511.5709,N,12147.9109,W,1,12,0.5,7.1,M,-32.6,M,,*5C
$PYRTM,2024,125.503643235243,16.613290645382
$GPGGA,120513.00,3511.5708,N,12147.9103,W,1,12,0.5,6.8,M,-32.6,M,,*5E
$PYRTM,2024,125.503654795301,16.613302205451
$GPGGA,120514.00,3511.5702,N,12147.9099,W,1,12,0.5,6.5,M,-32.6,M,,*5C
$PYRTM,2024,125.503666380486,16.613313790625
$GPGGA,120515.00,3511.5695,N,12147.9094,W,1,12,0.5,8.3,M,-32.6,M,,*57
$PYRTM,2024,125.503677943542,16.613325353681
$GPGGA,120516.00,3511.5692,N,12147.9085,W,1,12,0.5,7.5,M,-32.6,M,,*5A
$PYRTM,2024,125.503689532512,16.613336942650
$GPGGA,120517.00,3511.5691,N,12147.9074,W,1,12,0.5,6.5,M,-32.6,M,,*57
$PYRTM,2024,125.503701091528,16.613348501667
$GPGGA,120518.00,3511.5691,N,12147.9064,W,1,12,0.5,8.2,M,-32.6,M,,*50
$PYRTM,2024,125.503712690972,16.613360101111
$GPGGA,120519.00,3511.5686,N,12147.9061,W,1,12,0.5,7.4,M,-32.6,M,,*5B
$PYRTM,2024,125.503724238889,16.613371649028
$GPGGA,120520.00,3511.5678,N,12147.9061,W,1,12,0.5,7.5,M,-32.6,M,,*51
$PYRTM,2024,125.503735824931,16.613383235081
$GPGGA,120521.00,3511.5673,N,12147.9056,W,1,12,0.5,6.5,M,-32.6,M,,*5E
$PYRTM,2024,125.503747388299,16.613394798438
$GPGGA,120522.00,3511.5673,N,12147.9045,W,1,12,0.5,3.8,M,-32.6,M,,*57
$PYRTM,2024,125.503758975116,16.613406385255
$GPGGA,120523.00,3511.5674,N,12147.9032,W,1,12,0.5,5.8,M,-32.6,M,,*57
$PYRTM,2024,125.503770535613,16.613417945752
$GPGGA,120524.00,3511.5670,N,12147.9024,W,1,12,0.5,6.9,M,-32.6,M,,*51
$PYRTM,2024,125.503782123866,16.613429534005
$GPGGA,120525.00,3511.5662,N,12147.9020,W,1,12,0.5,9.2,M,-32.6,M,,*53
$PYRTM,2024,125.503792308646,16.613439718785
$GPGGA,120526.00,3511.5653,N,12147.9016,W,1,12,0.5,7.6,M,-32.6,M,,*5D
$PYRTM,2024,125.503804228495,16.613451638634
$GPGGA,120527.00,3511.5647,N,12147.9009,W,1,12,0.5,8.0,M,-32.6,M,,*5E
$PYRTM,2024,125.503816831875,16.613464242014
$GPGGA,120528.00,3511.5645,N,12147.8998,W,1,12,0.5,7.8,M,-32.6,M,,*54
$PYRTM,2024,125.503828422894,16.613475833032
$GPGGA,120529.00,3511.5646,N,12147.8989,W,1,12,0.5,6.5,M,-32.6,M,,*5A
$PYRTM,2024,125.503839980486,16.613487390625
$GPGGA,120530.00,3511.5645,N,12147.8983,W,1,12,0.5,7.3,M,-32.6,M,,*5C
$PYRTM,2024,125.503851570301,16.613498980440
$GPGGA,120531.00,3511.5639,N,12147.8979,W,1,12,0.5,8.9,M,-32.6,M,,*56
$PYRTM,2024,125.503863127569,16.613510537708
$GPGGA,120532.00,3511.5632,N,12147.8976,W,1,12,0.5,8.4,M,-32.6,M,,*5C
$PYRTM,2024,125.503874718993,16.613522129132
$GPGGA,120533.00,3511.5629,N,12147.8968,W,1,12,0.5,10.8,M,-32.6,M,,*6D
$PYRTM,2024,125.503886276748,16.613533686887
$GPGGA,120534.00,3511.5627,N,12147.8958,W,1,12,0.5,10.1,M,-32.6,M,,*6E
$PYRTM,2024,125.503897867523,16.613545277662
$GPGGA,120535.00,3511.5624,N,12147.8950,W,1,12,0.5,7.9,M,-32.6,M,,*5A
$PYRTM,2024,125.503909425428,16.613556835567
$GPGGA,120536.00,3511.5619,N,12147.8945,W,1,12,0.5,7.0,M,-32.6,M,,*5A
$PYRTM,2024,125.503921011273,16.613568421412
$GPGGA,120537.00,3511.5614,N,12147.8940,W,1,12,0.5,6.0,M,-32.6,M,,*52
$PYRTM,2024,125.503931546505,16.613578956644
$GPGGA,120538.00,3511.5610,N,12147.8934,W,1,12,0.5,7.3,M,-32.6,M,,*58
$PYRTM,2024,125.503944160521,16.613591570660
$GPGGA,120539.00,3511.5608,N,12147.8927,W,1,12,0.5,6.7,M,-32.6,M,,*57
$PYRTM,2024,125.503955722419,16.613603132569
$GPGGA,120540.00,3511.5604,N,12147.8919,W,1,12,0.5,6.6,M,-32.6,M,,*59
$PYRTM,2024,125.503967308391,16.613614718530
$GPGGA,120541.00,3511.5600,N,12147.8913,W,1,12,0.5,9.7,M,-32.6,M,,*58
$PYRTM,2024,125.503978870394,16.613626280544
$GPGGA,120542.00,3511.5596,N,12147.8907,W,1,12,0.5,10.2,M,-32.6,M,,*6F
$PYRTM,2024,125.503990456435,16.613637866574
$GPGGA,120543.00,3511.5594,N,12147.8899,W,1,12,0.5,8.9,M,-32.6,M,,*58
$PYRTM,2024,125.504002017060,16.613649427199
$GPGGA,120544.00,3511.5592,N,12147.8890,W,1,12,0.5,7.1,M,-32.6,M,,*57
$PYRTM,2024,125.504013607847,16.613661017986
$GPGGA,120545.00,3511.5590,N,12147.8881,W,1,12,0.5,6.8,M,-32.6,M,,*5C
$PYRTM,2024,125.504025167581,16.613672577720
$GPGGA,120546.00,3511.5586,N,12147.8876,W,1,12,0.5,3.7,M,-32.6,M,,*5A
$PYRTM,2024,125.504036757697,16.613684167836
$GPGGA,120547.00,3511.5582,N,12147.8872,W,1,12,0.5,3.7,M,-32.6,M,,*5B
$PYRTM,2024,125.504048315150,16.613695725289
$GPGGA,120548.00,3511.5580,N,12147.8868,W,1,12,0.5,3.9,M,-32.6,M,,*53
$PYRTM,2024,125.504059901065,16.613707311204
$GPGGA,120549.00,3511.5578,N,12147.8862,W,1,12,0.5,4.3,M,-32.6,M,,*52
$PYRTM,2024,125.504071462604,16.613718872743
$GPGGA,120550.00,3511.5575,N,12147.8853,W,1,12,0.5,3.0,M,-32.6,M,,*51
$PYRTM,2024,125.504083051296,16.613730461435
$GPGGA,120551.00,3511.5570,N,12147.8845,W,1,12,0.5,3.7,M,-32.6,M,,*55
$PYRTM,2024,125.504094611863,16.613742022002
$GPGGA,120552.00,3511.5566,N,12147.8838,W,1,12,0.5,1.1,M,-32.6,M,,*5F
$PYRTM,2024,125.504106193426,16.613753603565
$GPGGA,120553.00,3511.5563,N,12147.8831,W,1,12,0.5,1.0,M,-32.6,M,,*53
$PYRTM,2024,125.504117760174,16.613765170312
$GPGGA,120554.00,3511.5562,N,12147.8827,W,1,12,0.5,1.3,M,-32.6,M,,*51
$PYRTM,2024,125.504129346204,16.613776756343
$GPGGA,120555.00,3511.5558,N,12147.8822,W,1,12,0.5,3.8,M,-32.6,M,,*55
$PYRTM,2024,125.504139531632,16.613786941782
$GPGGA,120556.00,3511.5554,N,12147.8816,W,1,12,0.5,5.8,M,-32.6,M,,*5B
$PYRTM,2024,125.504151455625,16.613798865764
$GPGGA,120557.00,3511.5549,N,12147.8807,W,1,12,0.5,6.3,M,-32.6,M,,*5E
$PYRTM,2024,125.504164057106,16.613811467245
$GPGGA,120558.00,3511.5547,N,12147.8799,W,1,12,0.5,5.4,M,-32.6,M,,*53
$PYRTM,2024,125.504175656157,16.613823066296
$GPGGA,120559.00,3511.5544,N,12147.8792,W,1,12,0.5,6.3,M,-32.6,M,,*5E
$PYRTM,2024,125.504187203264,16.613834613403
$GPGGA,120600.00,3511.5540,N,12147.8786,W,1,12,0.5,6.6,M,-32.6,M,,*55
$PYRTM,2024,125.504198794433,16.613846204572
$GPGGA,120601.00,3511.5536,N,12147.8780,W,1,12,0.5,4.0,M,-32.6,M,,*57
$PYRTM,2024,125.504210352882,16.613857763021
$GPGGA,120602.00,3511.5533,N,12147.8774,W,1,12,0.5,4.3,M,-32.6,M,,*59
$PYRTM,2024,125.504221934479,16.613869344618
$GPGGA,120603.00,3511.5531,N,12147.8766,W,1,12,0.5,4.3,M,-32.6,M,,*59
$PYRTM,2024,125.504233500845,16.613880910984
$GPGGA,120604.00,3511.5531,N,12147.8756,W,1,12,0.5,3.1,M,-32.6,M,,*58
$PYRTM,2024,125.504245087616,16.613892497755
$GPGGA,120605.00,3511.5528,N,12147.8749,W,1,12,0.5,7.7,M,-32.6,M,,*5D
$PYRTM,2024,125.504256649444,16.613904059583
$GPGGA,120606.00,3511.5521,N,12147.8743,W,1,12,0.5,6.9,M,-32.6,M,,*52
$PYRTM,2024,125.504268236169,16.613915646308
$GPGGA,120607.00,3511.5515,N,12147.8738,W,1,12,0.5,6.9,M,-32.6,M,,*58
$PYRTM,2024,125.504279798681,16.613927208819
$GPGGA,120608.00,3511.5512,N,12147.8731,W,1,12,0.5,6.3,M,-32.6,M,,*53
$PYRTM,2024,125.504291384618,16.613938794757
$GPGGA,120609.00,3511.5511,N,12147.8722,W,1,12,0.5,4.6,M,-32.6,M,,*54
$PYRTM,2024,125.504302945347,16.613950355486
$GPGGA,120610.00,3511.5511,N,12147.8713,W,1,12,0.5,6.0,M,-32.6,M,,*5A
$PYRTM,2024,125.504314532361,16.613961942500
$GPGGA,120611.00,3511.5507,N,12147.8707,W,1,12,0.5,5.6,M,-32.6,M,,*5C
$PYRTM,2024,125.504326094190,16.613973504329
$GPGGA,120612.00,3511.5500,N,12147.8704,W,1,12,0.5,6.1,M,-32.6,M,,*5F
$PYRTM,2024,125.504337695417,16.613985105567
$GPGGA,120613.00,3511.5495,N,12147.8701,W,1,12,0.5,5.9,M,-32.6,M,,*5D
$PYRTM,2024,125.504349243021,16.613996653160
$GPGGA,120614.00,3511.5493,N,12147.8695,W,1,12,0.5,7.4,M,-32.6,M,,*5F
$PYRTM,2024,125.504360830093,16.614008240231
$GPGGA,120615.00,3511.5491,N,12147.8686,W,1,12,0.5,5.2,M,-32.6,M,,*5A
$PYRTM,2024,125.504372390278,16.614019800417
$GPGGA,120616.00,3511.5489,N,12147.8676,W,1,12,0.5,5.6,M,-32.6,M,,*5B
$PYRTM,2024,125.504383977199,16.614031387338
$GPGGA,120617.00,3511.5483,N,12147.8671,W,1,12,0.5,5.5,M,-32.6,M,,*54
$PYRTM,2024,125.504395539271,16.614042949410
$GPGGA,120618.00,3511.5477,N,12147.8666,W,1,12,0.5,7.0,M,-32.6,M,,*51
$PYRTM,2024,125.504407128704,16.614054538843
$GPGGA,120619.00,3511.5472,N,12147.8658,W,1,12,0.5,7.5,M,-32.6,M,,*5D
$PYRTM,2024,125.504418688356,16.614066098495
$GPGGA,120620.00,3511.5471,N,12147.8648,W,1,12,0.5,8.8,M,-32.6,M,,*57
$PYRTM,2024,125.504430274931,16.614077685081
$GPGGA,120621.00,3511.5469,N,12147.8640,W,1,12,0.5,8.3,M,-32.6,M,,*5C
$PYRTM,2024,125.504441834456,16.614089244595
$GPGGA,120622.00,3511.5464,N,12147.8636,W,1,12,0.5,5.3,M,-32.6,M,,*5E
$PYRTM,2024,125.504453410012,16.614100820150
$GPGGA,120623.00,3511.5459,N,12147.8631,W,1,12,0.5,7.6,M,-32.6,M,,*51
$PYRTM,2024,125.504464984144,16.614112394294
$GPGGA,120624.00,3511.5457,N,12147.8624,W,1,12,0.5,7.6,M,-32.6,M,,*5C
$PYRTM,2024,125.504476570405,16.614123980544
$GPGGA,120625.00,3511.5457,N,12147.8613,W,1,12,0.5,7.4,M,-32.6,M,,*5B
$PYRTM,2024,125.504486756319,16.614134166458
$GPGGA,120626.00,3511.5455,N,12147.8604,W,1,12,0.5,9.8,M,-32.6,M,,*5E
$PYRTM,2024,125.504498680116,16.614146090255
$GPGGA,120627.00,3511.5447,N,12147.8601,W,1,12,0.5,8.6,M,-32.6,M,,*56
$PYRTM,2024,125.504511281516,16.614158691655
$GPGGA,120628.00,3511.5439,N,12147.8599,W,1,12,0.5,9.7,M,-32.6,M,,*52
$PYRTM,2024,125.504522870637,16.614170280775
$GPGGA,120629.00,3511.5435,N,12147.8592,W,1,12,0.5,9.0,M,-32.6,M,,*53
$PYRTM,2024,125.504534428981,16.614181839120
$GPGGA,120630.00,3511.5435,N,12147.8582,W,1,11,0.8,7.1,M,-32.6,M,,*5B
$PYRTM,2024,125.504546016632,16.614193426782
$GPGGA,120631.00,3511.5434,N,12147.8571,W,1,12,0.5,6.2,M,-32.6,M,,*5B
$PYRTM,2024,125.504557578079,16.614204988229
$GPGGA,120632.00,3511.5429,N,12147.8567,W,1,12,0.5,9.0,M,-32.6,M,,*5E
$PYRTM,2024,125.504569164259,16.614216574398
$GPGGA,120633.00,3511.5423,N,12147.8564,W,1,12,0.5,6.8,M,-32.6,M,,*51
$PYRTM,2024,125.504580724329,16.614228134468
$GPGGA,120634.00,3511.5419,N,12147.8560,W,1,12,0.5,6.8,M,-32.6,M,,*5B
$PYRTM,2024,125.504592312766,16.614239722905
$GPGGA,120635.00,3511.5417,N,12147.8552,W,1,12,0.5,8.6,M,-32.6,M,,*55
$PYRTM,2024,125.504603873553,16.614251283692
$GPGGA,120636.00,3511.5414,N,12147.8544,W,1,12,0.5,7.8,M,-32.6,M,,*53
$PYRTM,2024,125.504615463218,16.614262873356
$GPGGA,120637.00,3511.5410,N,12147.8538,W,1,12,0.5,8.7,M,-32.6,M,,*5D
$PYRTM,2024,125.504627023380,16.614274433519
$GPGGA,120638.00,3511.5407,N,12147.8533,W,1,12,0.5,8.6,M,-32.6,M,,*5E
$PYRTM,2024,125.504638608669,16.614286018808
$GPGGA,120639.00,3511.5404,N,12147.8528,W,1,12,0.5,8.4,M,-32.6,M,,*54
$PYRTM,2024,125.504650170185,16.614297580324
$GPGGA,120640.00,3511.5402,N,12147.8521,W,1,12,0.5,11.3,M,-32.6,M,,*6A
$PYRTM,2024,125.504661761134,16.614309171273
$GPGGA,120641.00,3511.5398,N,12147.8513,W,1,12,0.5,8.3,M,-32.6,M,,*56
$PYRTM,2024,125.504673320370,16.614320730509
$GPGGA,120642.00,3511.5394,N,12147.8506,W,1,12,0.5,9.3,M,-32.6,M,,*5C
$PYRTM,2024,125.504684908657,16.614332318808
$GPGGA,120643.00,3511.5392,N,12147.8499,W,1,12,0.5,8.8,M,-32.6,M,,*56
$PYRTM,2024,125.504696467350,16.614343877488
$GPGGA,120644.00,3511.5389,N,12147.8495,W,1,12,0.5,8.7,M,-32.6,M,,*58
$PYRTM,2024,125.504708053750,16.614355463889
$GPGGA,120645.00,3511.5385,N,12147.8492,W,1,12,0.5,8.3,M,-32.6,M,,*56
$PYRTM,2024,125.504719616273,16.614367026412
$GPGGA,120646.00,3511.5380,N,12147.8489,W,1,12,0.5,7.5,M,-32.6,M,,*53
$PYRTM,2024,125.504731202384,16.614378612523
$GPGGA,120647.00,3511.5375,N,12147.8483,W,1,12,0.5,5.2,M,-32.6,M,,*57
$PYRTM,2024,125.504742763137,16.614390173275
$GPGGA,120648.00,3511.5372,N,12147.8477,W,1,12,0.5,6.7,M,-32.6,M,,*52
$PYRTM,2024,125.504754349595,16.614401759734
$GPGGA,120649.00,3511.5370,N,12147.8470,W,1,12,0.5,4.8,M,-32.6,M,,*5B
$PYRTM,2024,125.504765910069,16.614413320208
$GPGGA,120650.00,3511.5367,N,12147.8464,W,1,12,0.5,6.6,M,-32.6,M,,*5C
$PYRTM,2024,125.504776571412,16.614423981551
$GPGGA,120651.00,3511.5362,N,12147.8457,W,1,12,0.5,4.0,M,-32.6,M,,*5C
$PYRTM,2024,125.504788497338,16.614435907477
$GPGGA,120652.00,3511.5359,N,12147.8450,W,1,12,0.5,4.5,M,-32.6,M,,*55
$PYRTM,2024,125.504799140394,16.614446550532
$GPGGA,120653.00,3511.5357,N,12147.8443,W,1,12,0.5,3.0,M,-32.6,M,,*5A
$PYRTM,2024,125.504810252361,16.614457662500
$GPGGA,120654.00,3511.5354,N,12147.8434,W,1,12,0.5,3.1,M,-32.6,M,,*5F
$PYRTM,2024,125.504821363785,16.614468773924
$GPGGA,120655.00,3511.5350,N,12147.8426,W,1,12,0.5,5.5,M,-32.6,M,,*5B
$PYRTM,2024,125.504836989641,16.614484399780
$GPGGA,120656.00,3511.5345,N,12147.8419,W,1,12,0.5,4.8,M,-32.6,M,,*5C
$PYRTM,2024,125.504848088125,16.614495498264
$GPGGA,120657.00,3511.5342,N,12147.8415,W,1,12,0.5,4.9,M,-32.6,M,,*57
$PYRTM,2024,125.504859212650,16.614506622789
$GPGGA,120658.00,3511.5338,N,12147.8409,W,1,12,0.5,6.1,M,-32.6,M,,*52
$PYRTM,2024,125.504881652813,16.614529062951
$GPGGA,120659.00,3511.5334,N,12147.8400,W,1,12,0.5,6.5,M,-32.6,M,,*52
$PYRTM,2024,125.504892764421,16.614540174560
$GPGGA,120700.00,3511.5331,N,12147.8391,W,1,12,0.5,6.4,M,-32.6,M,,*54
$PYRTM,2024,125.504903875752,16.614551285891
$GPGGA,120701.00,3511.5328,N,12147.8383,W,1,12,0.5,5.9,M,-32.6,M,,*50
$PYRTM,2024,125.504914884120,16.614562294259
$GPGGA,120702.00,3511.5326,N,12147.8376,W,1,12,0.5,6.0,M,-32.6,M,,*5D
$PYRTM,2024,125.504925989965,16.614573400104
$GPGGA,120703.00,3511.5322,N,12147.8370,W,1,12,0.5,5.9,M,-32.6,M,,*54
$PYRTM,2024,125.504937565174,16.614584975312
$GPGGA,120704.00,3511.5317,N,12147.8363,W,1,12,0.5,5.5,M,-32.6,M,,*5B
$PYRTM,2024,125.504948675289,16.614596085428
$GPGGA,120705.00,3511.5311,N,12147.8356,W,1,12,0.5,3.8,M,-32.6,M,,*51
$PYRTM,2024,125.504959661042,16.614607071192
$GPGGA,120706.00,3511.5306,N,12147.8350,W,1,12,0.5,4.6,M,-32.6,M,,*5B
$PYRTM,2024,125.504970772407,16.614618182546
$GPGGA,120707.00,3511.5304,N,12147.8344,W,1,12,0.5,4.8,M,-32.6,M,,*53
$PYRTM,2024,125.504981883935,16.614629294074
$GPGGA,120708.00,3511.5303,N,12147.8336,W,1,11,0.8,6.8,M,-32.6,M,,*52
$PYRTM,2024,125.504992994294,16.614640404433
$GPGGA,120709.00,3511.5301,N,12147.8327,W,1,12,0.5,8.5,M,-32.6,M,,*5C
$PYRTM,2024,125.505004105799,16.614651515937
$GPGGA,120710.00,3511.5296,N,12147.8319,W,1,12,0.5,6.9,M,-32.6,M,,*54
$PYRTM,2024,125.505015217292,16.614662627431
$GPGGA,120711.00,3511.5290,N,12147.8314,W,1,12,0.5,9.9,M,-32.6,M,,*51
$PYRTM,2024,125.505026328576,16.614673738715
$GPGGA,120712.00,3511.5283,N,12147.8308,W,1,12,0.5,10.1,M,-32.6,M,,*6D
$PYRTM,2024,125.505037439248,16.614684849387
$GPGGA,120713.00,3511.5280,N,12147.8304,W,1,12,0.5,9.8,M,-32.6,M,,*52
$PYRTM,2024,125.505048436991,16.614695847130
$GPGGA,120714.00,3511.5277,N,12147.8297,W,1,12,0.5,6.6,M,-32.6,M,,*57
$PYRTM,2024,125.505059547384,16.614706957535
$GPGGA,120715.00,3511.5274,N,12147.8289,W,1,12,0.5,7.5,M,-32.6,M,,*58
$PYRTM,2024,125.505070659155,16.614718069294
$GPGGA,120716.00,3511.5271,N,12147.8281,W,1,12,0.5,8.0,M,-32.6,M,,*5C
$PYRTM,2024,125.505081770694,16.614729180833
$GPGGA,120717.00,3511.5268,N,12147.8272,W,1,12,0.5,8.8,M,-32.6,M,,*51
$PYRTM,2024,125.505092880590,16.614740290729
$GPGGA,120718.00,3511.5266,N,12147.8263,W,1,12,0.5,9.5,M,-32.6,M,,*5C
$PYRTM,2024,125.505103990891,16.614751401030
$GPGGA,120719.00,3511.5263,N,12147.8257,W,1,12,0.5,10.9,M,-32.6,M,,*6B
$PYRTM,2024,125.505115103113,16.614762513252
$GPGGA,120720.00,3511.5259,N,12147.8252,W,1,12,0.5,9.8,M,-32.6,M,,*54
$PYRTM,2024,125.505126099977,16.614773510116
$GPGGA,120721.00,3511.5257,N,12147.8245,W,1,12,0.5,9.7,M,-32.6,M,,*52
$PYRTM,2024,125.505137209352,16.614784619491
$GPGGA,120722.00,3511.5255,N,12147.8236,W,1,12,0.5,6.5,M,-32.6,M,,*5A
$PYRTM,2024,125.505148321366,16.614795731505
$GPGGA,120723.00,3511.5253,N,12147.8228,W,1,12,0.5,7.2,M,-32.6,M,,*54
$PYRTM,2024,125.505159547951,16.614806958102
$GPGGA,120724.00,3511.5251,N,12147.8222,W,1,12,0.5,6.8,M,-32.6,M,,*50
$PYRTM,2024,125.505171034491,16.614818444630
$GPGGA,120725.00,3511.5247,N,12147.8219,W,1,12,0.5,6.6,M,-32.6,M,,*50
$PYRTM,2024,125.505181654965,16.614829065104
$GPGGA,120726.00,3511.5242,N,12147.8215,W,1,12,0.5,8.6,M,-32.6,M,,*54
$PYRTM,2024,125.505193129572,16.614840539711
$GPGGA,120727.00,3511.5237,N,12147.8209,W,1,12,0.5,8.7,M,-32.6,M,,*5B
$PYRTM,2024,125.505205729456,16.614853139595
$GPGGA,120728.00,3511.5234,N,12147.8200,W,1,12,0.5,10.0,M,-32.6,M,,*60
$PYRTM,2024,125.505217315532,16.614864725671
$GPGGA,120729.00,3511.5231,N,12147.8191,W,1,12,0.5,8.0,M,-32.6,M,,*56
$PYRTM,2024,125.505228877581,16.614876287720
$GPGGA,120730.00,3511.5227,N,12147.8185,W,1,12,0.5,7.3,M,-32.6,M,,*50
$PYRTM,2024,125.505240465625,16.614887875764
$GPGGA,120731.00,3511.5222,N,12147.8178,W,1,12,0.5,6.0,M,-32.6,M,,*54
$PYRTM,2024,125.505252024838,16.614899434977
$GPGGA,120732.00,3511.5219,N,12147.8170,W,1,12,0.5,6.1,M,-32.6,M,,*56
$PYRTM,2024,125.505263613924,16.614911024063
$GPGGA,120733.00,3511.5219,N,12147.8161,W,1,12,0.5,10.0,M,-32.6,M,,*61
$PYRTM,2024,125.505275175937,16.614922586076
$GPGGA,120734.00,3511.5219,N,12147.8151,W,1,12,0.5,10.0,M,-32.6,M,,*65
$PYRTM,2024,125.505286761771,16.614934171910
$GPGGA,120735.00,3511.5217,N,12147.8142,W,1,12,0.5,8.5,M,-32.6,M,,*54
$PYRTM,2024,125.505298324144,16.614945734294
$GPGGA,120736.00,3511.5212,N,12147.8137,W,1,12,0.5,9.6,M,-32.6,M,,*52
$PYRTM,2024,125.505309912535,16.614957322674
$GPGGA,120737.00,3511.5205,N,12147.8132,W,1,12,0.5,8.5,M,-32.6,M,,*52
$PYRTM,2024,125.505321471759,16.614968881898
$GPGGA,120738.00,3511.5200,N,12147.8125,W,1,12,0.5,9.2,M,-32.6,M,,*58
$PYRTM,2024,125.505333060637,16.614980470775
$GPGGA,120739.00,3511.5199,N,12147.8116,W,1,12,0.5,7.4,M,-32.6,M,,*52
$PYRTM,2024,125.505344620336,16.614992030475
$GPGGA,120740.00,3511.5200,N,12147.8107,W,1,12,0.5,5.3,M,-32.6,M,,*5A
$PYRTM,2024,125.505356205822,16.615003615961
$GPGGA,120741.00,3511.5197,N,12147.8098,W,1,12,0.5,7.3,M,-32.6,M,,*53
$PYRTM,2024,125.505367767072,16.615015177211
$GPGGA,120742.00,3511.5190,N,12147.8093,W,1,12,0.5,7.4,M,-32.6,M,,*5B
$PYRTM,2024,125.505379353611,16.615026763750
$GPGGA,120743.00,3511.5185,N,12147.8089,W,1,12,0.5,8.4,M,-32.6,M,,*5A
$PYRTM,2024,125.505390914456,16.615038324595
$GPGGA,120744.00,3511.5183,N,12147.8081,W,1,12,0.5,7.9,M,-32.6,M,,*51
$PYRTM,2024,125.505402497222,16.615049907361
$GPGGA,120745.00,3511.5183,N,12147.8069,W,1,12,0.5,8.0,M,-32.6,M,,*50
$PYRTM,2024,125.505414064560,16.615061474699
$GPGGA,120746.00,3511.5180,N,12147.8060,W,1,12,0.5,5.9,M,-32.6,M,,*5D
$PYRTM,2024,125.505425652454,16.615073062593
$GPGGA,120747.00,3511.5173,N,12147.8055,W,1,12,0.5,6.6,M,-32.6,M,,*5A
$PYRTM,2024,125.505437214005,16.615084624144
$GPGGA,120748.00,3511.5166,N,12147.8053,W,1,12,0.5,6.5,M,-32.6,M,,*54
$PYRTM,2024,125.505448787095,16.615096197234
$GPGGA,120749.00,3511.5163,N,12147.8047,W,1,12,0.5,8.5,M,-32.6,M,,*5B
$PYRTM,2024,125.505460361250,16.615107771400
$GPGGA,120750.00,3511.5164,N,12147.8037,W,1,11,0.8,10.4,M,-32.6,M,,*65
$PYRTM,2024,125.505471947465,16.615119357604
$GPGGA,120751.00,3511.5165,N,12147.8027,W,1,11,0.8,12.5,M,-32.6,M,,*67
$PYRTM,2024,125.505483510949,16.615130921088
$GPGGA,120752.00,3511.5160,N,12147.8021,W,1,11,0.8,10.0,M,-32.6,M,,*60
$PYRTM,2024,125.505495097801,16.615142507951
$GPGGA,120753.00,3511.5150,N,12147.8018,W,1,11,0.8,10.5,M,-32.6,M,,*6D
$PYRTM,2024,125.505506656968,16.615154067106
$GPGGA,120754.00,3511.5143,N,12147.8011,W,1,11,0.8,10.9,M,-32.6,M,,*6D
$PYRTM,2024,125.505518257593,16.615165667731
$GPGGA,120755.00,3511.5141,N,12147.8001,W,1,11,0.8,10.3,M,-32.6,M,,*65
$PYRTM,2024,125.505528429109,16.615175839248
$GPGGA,120756.00,3511.5142,N,12147.7991,W,1,11,0.8,9.8,M,-32.6,M,,*59
$PYRTM,2024,125.505540350440,16.615187760579
$GPGGA,120757.00,3511.5139,N,12147.7984,W,1,11,0.8,9.5,M,-32.6,M,,*5D
$PYRTM,2024,125.505552953160,16.615200363299
$GPGGA,120758.00,3511.5131,N,12147.7979,W,1,11,0.8,9.1,M,-32.6,M,,*5C
$PYRTM,2024,125.505564540845,16.615211950984
$GPGGA,120759.00,3511.5124,N,12147.7974,W,1,11,0.8,8.0,M,-32.6,M,,*54
$PYRTM,2024,125.505576103403,16.615223513542
$GPGGA,120800.00,3511.5122,N,12147.7967,W,1,11,0.8,8.0,M,-32.6,M,,*53
$PYRTM,2024,125.505587689664,16.615235099803
$GPGGA,120801.00,3511.5121,N,12147.7957,W,1,11,0.8,8.5,M,-32.6,M,,*57
$PYRTM,2024,125.505599250116,16.615246660266
$GPGGA,120802.00,3511.5118,N,12147.7949,W,1,11,0.8,9.9,M,-32.6,M,,*5C
$PYRTM,2024,125.505610838241,16.615258248380
$GPGGA,120803.00,3511.5112,N,12147.7943,W,1,11,0.8,8.1,M,-32.6,M,,*54
$PYRTM,2024,125.505622399757,16.615269809896
$GPGGA,120804.00,3511.5106,N,12147.7937,W,1,11,0.8,7.7,M,-32.6,M,,*5C
$PYRTM,2024,125.505633987766,16.615281397905
$GPGGA,120805.00,3511.5101,N,12147.7930,W,1,11,0.8,9.9,M,-32.6,M,,*5D
$PYRTM,2024,125.505645546435,16.615292956574
$GPGGA,120806.00,3511.5099,N,12147.7921,W,1,11,0.8,11.8,M,-32.6,M,,*66
$PYRTM,2024,125.505657136065,16.615304546204
$GPGGA,120807.00,3511.5097,N,12147.7913,W,1,11,0.8,9.7,M,-32.6,M,,*5E
$PYRTM,2024,125.505668694757,16.615316104896
$GPGGA,120808.00,3511.5093,N,12147.7907,W,1,11,0.8,9.3,M,-32.6,M,,*54
$PYRTM,2024,125.505680297164,16.615327707303
$GPGGA,120809.00,3511.5086,N,12147.7902,W,1,11,0.8,7.6,M,-32.6,M,,*5F
$PYRTM,2024,125.505691842870,16.615339253009
$GPGGA,120810.00,3511.5081,N,12147.7897,W,1,11,0.8,7.8,M,-32.6,M,,*53
$PYRTM,2024,125.505703431400,16.615350841539
$GPGGA,120811.00,3511.5079,N,12147.7891,W,1,11,0.8,7.0,M,-32.6,M,,*5B
$PYRTM,2024,125.505714991713,16.615362401852
$GPGGA,120812.00,3511.5078,N,12147.7882,W,1,11,0.8,9.3,M,-32.6,M,,*56
$PYRTM,2024,125.505726578877,16.615373989016
$GPGGA,120813.00,3511.5074,N,12147.7876,W,1,11,0.8,12.0,M,-32.6,M,,*69
$PYRTM,2024,125.505738139144,16.615385549282
$GPGGA,120814.00,3511.5067,N,12147.7870,W,1,11,0.8,9.3,M,-32.6,M,,*53
$PYRTM,2024,125.505749726806,16.615397136944
$GPGGA,120815.00,3511.5061,N,12147.7863,W,1,11,0.8,8.0,M,-32.6,M,,*54
$PYRTM,2024,125.505761287245,16.615408697384
$GPGGA,120816.00,3511.5059,N,12147.7854,W,1,11,0.8,8.6,M,-32.6,M,,*5E
$PYRTM,2024,125.505772871285,16.615420281424
$GPGGA,120817.00,3511.5059,N,12147.7845,W,1,11,0.8,8.4,M,-32.6,M,,*5D
$PYRTM,2024,125.505784437222,16.615431847361
$GPGGA,120818.00,3511.5058,N,12147.7839,W,1,11,0.8,8.7,M,-32.6,M,,*5B
$PYRTM,2024,125.505796017674,16.615443427813
$GPGGA,120819.00,3511.5052,N,12147.7836,W,1,11,0.8,8.2,M,-32.6,M,,*5A
$PYRTM,2024,125.505807588403,16.615454998542
$GPGGA,120820.00,3511.5046,N,12147.7832,W,1,11,0.8,7.5,M,-32.6,M,,*59
$PYRTM,2024,125.505819176007,16.615466586146
$GPGGA,120821.00,3511.5042,N,12147.7826,W,1,11,0.8,6.9,M,-32.6,M,,*54
$PYRTM,2024,125.505830733067,16.615478143206
$GPGGA,120822.00,3511.5042,N,12147.7818,W,1,11,0.8,5.4,M,-32.6,M,,*54
$PYRTM,2024,125.505842318657,16.615489728796
$GPGGA,120823.00,3511.5041,N,12147.7808,W,1,11,0.8,7.7,M,-32.6,M,,*56
$PYRTM,2024,125.505853880312,16.615501290451
$GPGGA,120824.00,3511.5037,N,12147.7801,W,1,11,0.8,10.5,M,-32.6,M,,*6D
$PYRTM,2024,125.505865468241,16.615512878380
$GPGGA,120825.00,3511.5031,N,12147.7795,W,1,11,0.8,9.0,M,-32.6,M,,*55
$PYRTM,2024,125.505875656505,16.615523066644
$GPGGA,120826.00,3511.5025,N,12147.7788,W,1,11,0.8,8.2,M,-32.6,M,,*5C
$PYRTM,2024,125.505887447500,16.615534857650
$GPGGA,120827.00,3511.5023,N,12147.7777,W,1,11,0.8,7.6,M,-32.6,M,,*50
$PYRTM,2024,125.505900179572,16.615547589711
$GPGGA,120828.00,3511.5022,N,12147.7768,W,1,11,0.8,8.0,M,-32.6,M,,*59
$PYRTM,2024,125.505911759572,16.615559169711
$GPGGA,120829.00,3511.5020,N,12147.7762,W,1,11,0.8,8.2,M,-32.6,M,,*52
$PYRTM,2024,125.505923327755,16.615570737894
$GPGGA,120830.00,3511.5015,N,12147.7757,W,1,11,0.8,8.1,M,-32.6,M,,*59
$PYRTM,2024,125.505934916586,16.615582326736
$GPGGA,120831.00,3511.5011,N,12147.7751,W,1,11,0.8,7.2,M,-32.6,M,,*56
$PYRTM,2024,125.505946476204,16.615593886343
$GPGGA,120832.00,3511.5009,N,12147.7742,W,1,11,0.8,6.0,M,-32.6,M,,*5D
$PYRTM,2024,125.505958055972,16.615605466111
$GPGGA,120833.00,3511.5009,N,12147.7731,W,1,11,0.8,6.9,M,-32.6,M,,*51
$PYRTM,2024,125.505969623530,16.615617033681
$GPGGA,120834.00,3511.5005,N,12147.7722,W,1,11,0.8,9.2,M,-32.6,M,,*5C
$PYRTM,2024,125.505981212836,16.615628622975
$GPGGA,120835.00,3511.4999,N,12147.7715,W,1,11,0.8,6.3,M,-32.6,M,,*5A
$PYRTM,2024,125.505992773819,16.615640183958
$GPGGA,120836.00,3511.4994,N,12147.7708,W,1,11,0.8,5.1,M,-32.6,M,,*59
$PYRTM,2024,125.506004360868,16.615651771007
$GPGGA,120837.00,3511.4991,N,12147.7701,W,1,11,0.8,5.3,M,-32.6,M,,*56
$PYRTM,2024,125.506015919167,16.615663329306
$GPGGA,120838.00,3511.4988,N,12147.7693,W,1,11,0.8,6.0,M,-32.6,M,,*5B
$PYRTM,2024,125.506027506238,16.615674916377
$GPGGA,120839.00,3511.4985,N,12147.7687,W,1,11,0.8,8.5,M,-32.6,M,,*59
$PYRTM,2024,125.506039068866,16.615686479005
