$PYRTM,2024,127.750008903333,18.859656313472
$GPGGA,175959.00,3338.5732,N,11900.9306,W,1,10,0.8,5.0,M,-34.0,M,,*53
$PYRTM,2024,127.750020465046,18.859667875185
$GPGGA,180000.00,3338.5731,N,11900.9300,W,1,10,0.8,4.9,M,-34.0,M,,*51
$PYRTM,2024,127.750032052280,18.859679462419
$GPGGA,180001.00,3338.5731,N,11900.9296,W,1,10,0.8,4.9,M,-34.0,M,,*5E
$PYRTM,2024,127.750043614572,18.859691024711
$GPGGA,180002.00,3338.5731,N,11900.9293,W,1,10,0.8,4.9,M,-34.0,M,,*58
$PYRTM,2024,127.750055199005,18.859702609132
$GPGGA,180003.00,3338.5731,N,11900.9291,W,1,10,0.8,4.8,M,-34.0,M,,*5A
$PYRTM,2024,127.750066761597,18.859714171736
$GPGGA,180004.00,3338.5729,N,11900.9288,W,1,10,0.8,5.0,M,-34.0,M,,*55
$PYRTM,2024,127.750078347280,18.859725757419
$GPGGA,180005.00,3338.5728,N,11900.9284,W,1,10,0.8,4.9,M,-34.0,M,,*51
$PYRTM,2024,127.750089909965,18.859737320104
$GPGGA,180006.00,3338.5728,N,11900.9277,W,1,10,0.8,3.8,M,-34.0,M,,*58
$PYRTM,2024,127.750101509549,18.859748919688
$GPGGA,180007.00,3338.5728,N,11900.9269,W,1,10,0.8,3.8,M,-34.0,M,,*56
$PYRTM,2024,127.750113073102,18.859760483241
$GPGGA,180008.00,3338.5727,N,11900.9263,W,1,10,0.8,3.8,M,-34.0,M,,*5C
$PYRTM,2024,127.750126251609,18.859773661748
$GPGGA,180009.00,3338.5723,N,11900.9259,W,1,10,0.8,3.8,M,-34.0,M,,*50
$PYRTM,2024,127.750138865625,18.859786275764
$GPGGA,180010.00,3338.5719,N,11900.9255,W,1,10,0.8,4.0,M,-34.0,M,,*52
$PYRTM,2024,127.750147791910,18.859795202049
$GPGGA,180011.00,3338.5718,N,11900.9251,W,1,10,0.8,4.1,M,-34.0,M,,*57
$PYRTM,2024,127.750159352465,18.859806762604
$GPGGA,180012.00,3338.5719,N,11900.9245,W,1,10,0.8,4.0,M,-34.0,M,,*51
$PYRTM,2024,127.750170941030,18.859818351169
$GPGGA,180013.00,3338.5718,N,11900.9239,W,1,10,0.8,4.0,M,-34.0,M,,*5A
$PYRTM,2024,127.750182503356,18.859829913495
$GPGGA,180014.00,3338.5715,N,11900.9235,W,1,10,0.8,4.1,M,-34.0,M,,*5D
$PYRTM,2024,127.750194089919,18.859841500069
$GPGGA,180015.00,3338.5711,N,11900.9232,W,1,10,0.8,4.1,M,-34.0,M,,*5F
$PYRTM,2024,127.750205662569,18.859853072708
$GPGGA,180016.00,3338.5709,N,11900.9228,W,1,10,0.8,4.1,M,-34.0,M,,*5E
$PYRTM,2024,127.750216310463,18.859863720602
$GPGGA,180017.00,3338.5708,N,11900.9224,W,1,10,0.8,4.1,M,-34.0,M,,*52
$PYRTM,2024,127.750229389375,18.859876799514
$GPGGA,180018.00,3338.5707,N,11900.9219,W,1,10,0.8,4.1,M,-34.0,M,,*5C
$PYRTM,2024,127.750240025243,18.859887435382
$GPGGA,180019.00,3338.5705,N,11900.9215,W,1,10,0.8,4.1,M,-34.0,M,,*53
$PYRTM,2024,127.750251033414,18.859898443553
$GPGGA,180020.00,3338.5703,N,11900.9210,W,1,10,0.8,4.1,M,-34.0,M,,*5A
$PYRTM,2024,127.750262146458,18.859909556597
$GPGGA,180021.00,3338.5701,N,11900.9205,W,1,10,0.8,4.1,M,-34.0,M,,*5D
$PYRTM,2024,127.750273254734,18.859920664873
$GPGGA,180022.00,3338.5699,N,11900.9200,W,1,10,0.8,4.2,M,-34.0,M,,*58
$PYRTM,2024,127.750284251389,18.859931661528
$GPGGA,180023.00,3338.5699,N,11900.9195,W,1,10,0.8,4.3,M,-34.0,M,,*57
$PYRTM,2024,127.750295361759,18.859942771898
$GPGGA,180024.00,3338.5697,N,11900.9191,W,1,10,0.8,4.2,M,-34.0,M,,*5B
$PYRTM,2024,127.750306468056,18.859953878194
$GPGGA,180025.00,3338.5694,N,11900.9187,W,1,10,0.8,4.2,M,-34.0,M,,*5E
$PYRTM,2024,127.750317471597,18.859964881736
$GPGGA,180026.00,3338.5692,N,11900.9182,W,1,10,0.8,4.1,M,-34.0,M,,*5D
$PYRTM,2024,127.750328580822,18.859975990961
$GPGGA,180027.00,3338.5690,N,11900.9176,W,1,10,0.8,4.7,M,-34.0,M,,*53
$PYRTM,2024,127.750342804340,18.859990214479
$GPGGA,180028.00,3338.5688,N,11900.9172,W,1,10,0.8,4.8,M,-34.0,M,,*5E
$PYRTM,2024,127.750353917558,18.860001327697
$GPGGA,180029.00,3338.5686,N,11900.9168,W,1,10,0.8,4.4,M,-34.0,M,,*56
$PYRTM,2024,127.750365026030,18.860012436169
$GPGGA,180030.00,3338.5684,N,11900.9165,W,1,10,0.8,3.9,M,-34.0,M,,*5B
$PYRTM,2024,127.750376136192,18.860023546331
$GPGGA,180031.00,3338.5682,N,11900.9160,W,1,10,0.8,3.7,M,-34.0,M,,*57
$PYRTM,2024,127.750387247847,18.860034657986
$GPGGA,180032.00,3338.5681,N,11900.9155,W,1,10,0.8,3.6,M,-34.0,M,,*50
$PYRTM,2024,127.750398358993,18.860045769144
$GPGGA,180033.00,3338.5679,N,11900.9150,W,1,10,0.8,3.7,M,-34.0,M,,*52
$PYRTM,2024,127.750409470000,18.860056880139
$GPGGA,180034.00,3338.5677,N,11900.9145,W,1,10,0.8,3.8,M,-34.0,M,,*50
$PYRTM,2024,127.750420582373,18.860067992523
$GPGGA,180035.00,3338.5675,N,11900.9140,W,1,10,0.8,4.4,M,-34.0,M,,*5D
$PYRTM,2024,127.750431921794,18.860079331933
$GPGGA,180036.00,3338.5672,N,11900.9136,W,1,10,0.8,5.0,M,-34.0,M,,*5D
$PYRTM,2024,127.750443512894,18.860090923032
$GPGGA,180037.00,3338.5671,N,11900.9131,W,1,10,0.8,4.9,M,-34.0,M,,*50
$PYRTM,2024,127.750455071956,18.860102482106
$GPGGA,180038.00,3338.5670,N,11900.9126,W,1,10,0.8,4.5,M,-34.0,M,,*54
$PYRTM,2024,127.750466661794,18.860114071933
$GPGGA,180039.00,3338.5669,N,11900.9122,W,1,10,0.8,4.0,M,-34.0,M,,*5C
$PYRTM,2024,127.750482850463,18.860130260602
$GPGGA,180040.00,3338.5668,N,11900.9118,W,1,10,0.8,4.3,M,-34.0,M,,*59
$PYRTM,2024,127.750493960810,18.860141370961
$GPGGA,180041.00,3338.5667,N,11900.9112,W,1,10,0.8,4.3,M,-34.0,M,,*5D
$PYRTM,2024,127.750505548542,18.860152958681
$GPGGA,180042.00,3338.5667,N,11900.9107,W,1,10,0.8,4.1,M,-34.0,M,,*58
$PYRTM,2024,127.750517108125,18.860164518264
$GPGGA,180043.00,3338.5665,N,11900.9101,W,1,10,0.8,4.0,M,-34.0,M,,*5C
$PYRTM,2024,127.750528696400,18.860176106539
$GPGGA,180044.00,3338.5662,N,11900.9098,W,1,10,0.8,4.3,M,-34.0,M,,*5E
$PYRTM,2024,127.750540255451,18.860187665590
$GPGGA,180045.00,3338.5658,N,11900.9094,W,1,10,0.8,4.2,M,-34.0,M,,*5B
$PYRTM,2024,127.750551844363,18.860199254514
$GPGGA,180046.00,3338.5655,N,11900.9087,W,1,10,0.8,7.3,M,-34.0,M,,*55
$PYRTM,2024,127.750563405428,18.860210815567
$GPGGA,180047.00,3338.5656,N,11900.9079,W,1,10,0.8,8.0,M,-34.0,M,,*5A
$PYRTM,2024,127.750574992998,18.860222403148
$GPGGA,180048.00,3338.5657,N,11900.9073,W,1,10,0.8,7.9,M,-34.0,M,,*58
$PYRTM,2024,127.750586552060,18.860233962199
$GPGGA,180049.00,3338.5655,N,11900.9069,W,1,10,0.8,7.9,M,-34.0,M,,*50
$PYRTM,2024,127.750598140694,18.860245550833
$GPGGA,180050.00,3338.5652,N,11900.9066,W,1,10,0.8,7.9,M,-34.0,M,,*50
$PYRTM,2024,127.750609701042,18.860257111181
$GPGGA,180051.00,3338.5650,N,11900.9062,W,1,10,0.8,7.9,M,-34.0,M,,*57
$PYRTM,2024,127.750621289838,18.860268699977
$GPGGA,180052.00,3338.5649,N,11900.9057,W,1,10,0.8,7.6,M,-34.0,M,,*55
$PYRTM,2024,127.750632851412,18.860280261551
$GPGGA,180053.00,3338.5649,N,11900.9050,W,1,10,0.8,7.5,M,-34.0,M,,*50
$PYRTM,2024,127.750644431944,18.860291842095
$GPGGA,180054.00,3338.5647,N,11900.9046,W,1,10,0.8,7.5,M,-34.0,M,,*5E
$PYRTM,2024,127.750655997431,18.860303407569
$GPGGA,180055.00,3338.5644,N,11900.9042,W,1,10,0.8,7.5,M,-34.0,M,,*58
$PYRTM,2024,127.750667587870,18.860314998009
$GPGGA,180056.00,3338.5641,N,11900.9039,W,1,10,0.8,7.5,M,-34.0,M,,*52
$PYRTM,2024,127.750679145648,18.860326555787
$GPGGA,180057.00,3338.5640,N,11900.9034,W,1,10,0.8,7.5,M,-34.0,M,,*5F
$PYRTM,2024,127.750690734572,18.860338144711
$GPGGA,180058.00,3338.5639,N,11900.9029,W,1,10,0.8,7.5,M,-34.0,M,,*52
$PYRTM,2024,127.750702772616,18.860350182755
$GPGGA,180059.00,3338.5637,N,11900.9024,W,1,10,0.8,7.4,M,-34.0,M,,*51
$PYRTM,2024,127.750713882755,18.860361292894
$GPGGA,180100.00,3338.5635,N,11900.9018,W,1,10,0.8,7.7,M,-34.0,M,,*52
$PYRTM,2024,127.750725441794,18.860372851933
$GPGGA,180101.00,3338.5632,N,11900.9014,W,1,10,0.8,7.7,M,-34.0,M,,*58
$PYRTM,2024,127.750737030683,18.860384440822
$GPGGA,180102.00,3338.5629,N,11900.9010,W,1,10,0.8,7.6,M,-34.0,M,,*54
$PYRTM,2024,127.750748590486,18.860396000637
$GPGGA,180103.00,3338.5627,N,11900.9005,W,1,10,0.8,7.3,M,-34.0,M,,*5A
$PYRTM,2024,127.750760173484,18.860407583623
$GPGGA,180104.00,3338.5627,N,11900.9000,W,1,10,0.8,7.3,M,-34.0,M,,*58
$PYRTM,2024,127.750771740046,18.860419150185
$GPGGA,180105.00,3338.5626,N,11900.8995,W,1,10,0.8,7.5,M,-34.0,M,,*5A
$PYRTM,2024,127.750783329595,18.860430739734
$GPGGA,180106.00,3338.5624,N,11900.8991,W,1,10,0.8,7.5,M,-34.0,M,,*5F
$PYRTM,2024,127.750794887072,18.860442297211
$GPGGA,180107.00,3338.5620,N,11900.8988,W,1,10,0.8,7.9,M,-34.0,M,,*5E
$PYRTM,2024,127.750806475995,18.860453886134
$GPGGA,180108.00,3338.5618,N,11900.8985,W,1,10,0.8,8.0,M,-34.0,M,,*51
$PYRTM,2024,127.750819208148,18.860466618287
$GPGGA,180109.00,3338.5618,N,11900.8979,W,1,10,0.8,7.9,M,-34.0,M,,*55
$PYRTM,2024,127.750831131169,18.860478541308
$GPGGA,180110.00,3338.5618,N,11900.8974,W,1,10,0.8,7.4,M,-34.0,M,,*5D
$PYRTM,2024,127.750842356516,18.860489766655
$GPGGA,180111.00,3338.5617,N,11900.8967,W,1,10,0.8,7.7,M,-34.0,M,,*52
$PYRTM,2024,127.750853916146,18.860501326285
$GPGGA,180112.00,3338.5614,N,11900.8961,W,1,10,0.8,7.9,M,-34.0,M,,*5A
$PYRTM,2024,127.750865491053,18.860512901192
$GPGGA,180113.00,3338.5612,N,11900.8957,W,1,10,0.8,8.0,M,-34.0,M,,*5E
$PYRTM,2024,127.750877066030,18.860524476181
$GPGGA,180114.00,3338.5613,N,11900.8952,W,1,10,0.8,8.3,M,-34.0,M,,*5E
$PYRTM,2024,127.750888647697,18.860536057836
$GPGGA,180115.00,3338.5612,N,11900.8948,W,1,10,0.8,7.9,M,-34.0,M,,*50
$PYRTM,2024,127.750900110081,18.860547520220
$GPGGA,180116.00,3338.5611,N,11900.8943,W,1,10,0.8,7.7,M,-34.0,M,,*55
$PYRTM,2024,127.750911698333,18.860559108472
$GPGGA,180117.00,3338.5608,N,11900.8938,W,1,10,0.8,7.2,M,-34.0,M,,*55
$PYRTM,2024,127.750923258206,18.860570668345
$GPGGA,180118.00,3338.5603,N,11900.8937,W,1,10,0.8,7.2,M,-34.0,M,,*5E
$PYRTM,2024,127.750934962523,18.860582372674
$GPGGA,180119.00,3338.5599,N,11900.8936,W,1,10,0.8,7.5,M,-34.0,M,,*59
$PYRTM,2024,127.750946509410,18.860593919549
$GPGGA,180120.00,3338.5597,N,11900.8932,W,1,10,0.8,7.5,M,-34.0,M,,*59
$PYRTM,2024,127.750957981921,18.860605392060
$GPGGA,180121.00,3338.5598,N,11900.8926,W,1,10,0.8,2.6,M,-34.0,M,,*54
$PYRTM,2024,127.750969550000,18.860616960139
$GPGGA,180122.00,3338.5598,N,11900.8917,W,1,10,0.8,3.4,M,-34.0,M,,*56
$PYRTM,2024,127.750981128889,18.860628539028
$GPGGA,180123.00,3338.5596,N,11900.8910,W,1,10,0.8,3.3,M,-34.0,M,,*59
$PYRTM,2024,127.750992698229,18.860640108368
$GPGGA,180124.00,3338.5592,N,11900.8907,W,1,10,0.8,3.3,M,-34.0,M,,*5C
$PYRTM,2024,127.751004278090,18.860651688241
$GPGGA,180125.00,3338.5588,N,11900.8904,W,1,10,0.8,3.8,M,-34.0,M,,*5E
$PYRTM,2024,127.751015955822,18.860663365961
$GPGGA,180126.00,3338.5586,N,11900.8901,W,1,10,0.8,4.3,M,-34.0,M,,*5A
$PYRTM,2024,127.751027426227,18.860674836366
$GPGGA,180127.00,3338.5586,N,11900.8895,W,1,10,0.8,5.3,M,-34.0,M,,*56
$PYRTM,2024,127.751038999433,18.860686409583
$GPGGA,180128.00,3338.5585,N,11900.8889,W,1,10,0.8,5.3,M,-34.0,M,,*57
$PYRTM,2024,127.751050576528,18.860697986667
$GPGGA,180129.00,3338.5582,N,11900.8884,W,1,10,0.8,5.1,M,-34.0,M,,*5E
$PYRTM,2024,127.751062252083,18.860709662222
$GPGGA,180130.00,3338.5579,N,11900.8880,W,1,10,0.8,5.4,M,-34.0,M,,*53
$PYRTM,2024,127.751073841782,18.860721251921
$GPGGA,180131.00,3338.5576,N,11900.8878,W,1,10,0.8,5.5,M,-34.0,M,,*5B
$PYRTM,2024,127.751085409086,18.860732819225
$GPGGA,180132.00,3338.5575,N,11900.8874,W,1,10,0.8,5.9,M,-34.0,M,,*5B
$PYRTM,2024,127.751096872894,18.860744283032
$GPGGA,180133.00,3338.5573,N,11900.8868,W,1,10,0.8,3.5,M,-34.0,M,,*5B
$PYRTM,2024,127.751108446308,18.860755856447
$GPGGA,180134.00,3338.5571,N,11900.8862,W,1,10,0.8,3.6,M,-34.0,M,,*57
$PYRTM,2024,127.751120019167,18.860767429306
$GPGGA,180135.00,3338.5567,N,11900.8858,W,1,10,0.8,3.5,M,-34.0,M,,*5B
$PYRTM,2024,127.751131587627,18.860778997778
$GPGGA,180136.00,3338.5564,N,11900.8855,W,1,10,0.8,3.7,M,-34.0,M,,*54
$PYRTM,2024,127.751143167280,18.860790577419
$GPGGA,180137.00,3338.5562,N,11900.8852,W,1,10,0.8,3.9,M,-34.0,M,,*5A
$PYRTM,2024,127.751154741968,18.860802152106
$GPGGA,180138.00,3338.5561,N,11900.8848,W,1,10,0.8,4.0,M,-34.0,M,,*53
$PYRTM,2024,127.751167461377,18.860814871516
$GPGGA,180139.00,3338.5559,N,11900.8842,W,1,10,0.8,4.0,M,-34.0,M,,*53
$PYRTM,2024,127.751180536979,18.860827947118
$GPGGA,180140.00,3338.5557,N,11900.8837,W,1,10,0.8,3.9,M,-34.0,M,,*5F
$PYRTM,2024,127.751189463657,18.860836873796
$GPGGA,180141.00,3338.5554,N,11900.8833,W,1,10,0.8,4.1,M,-34.0,M,,*56
$PYRTM,2024,127.751201037442,18.860848447593
$GPGGA,180142.00,3338.5552,N,11900.8829,W,1,10,0.8,4.2,M,-34.0,M,,*5B
$PYRTM,2024,127.751212611690,18.860860021829
$GPGGA,180143.00,3338.5553,N,11900.8824,W,1,10,0.8,8.2,M,-34.0,M,,*5A
$PYRTM,2024,127.751224186296,18.860871596435
$GPGGA,180144.00,3338.5554,N,11900.8818,W,1,10,0.8,8.1,M,-34.0,M,,*56
$PYRTM,2024,127.751235762662,18.860883172801
$GPGGA,180145.00,3338.5552,N,11900.8813,W,1,10,0.8,8.1,M,-34.0,M,,*5A
$PYRTM,2024,127.751247333877,18.860894744016
$GPGGA,180146.00,3338.5549,N,11900.8810,W,1,10,0.8,8.2,M,-34.0,M,,*53
$PYRTM,2024,127.751258911701,18.860906321840
$GPGGA,180147.00,3338.5546,N,11900.8807,W,1,10,0.8,8.1,M,-34.0,M,,*58
$PYRTM,2024,127.751270481852,18.860917891991
$GPGGA,180148.00,3338.5545,N,11900.8804,W,1,10,0.8,8.2,M,-34.0,M,,*54
$PYRTM,2024,127.751282518912,18.860929929051
$GPGGA,180149.00,3338.5546,N,11900.8797,W,1,10,0.8,8.4,M,-34.0,M,,*55
$PYRTM,2024,127.751293629873,18.860941040012
$GPGGA,180150.00,3338.5546,N,11900.8789,W,1,10,0.8,8.3,M,-34.0,M,,*55
$PYRTM,2024,127.751305204398,18.860952614537
$GPGGA,180151.00,3338.5545,N,11900.8784,W,1,10,0.8,8.3,M,-34.0,M,,*5A
$PYRTM,2024,127.751316778692,18.860964188831
$GPGGA,180152.00,3338.5542,N,11900.8781,W,1,10,0.8,8.3,M,-34.0,M,,*5B
$PYRTM,2024,127.751328354421,18.860975764560
$GPGGA,180153.00,3338.5539,N,11900.8778,W,1,10,0.8,8.3,M,-34.0,M,,*50
$PYRTM,2024,127.751339926343,18.860987336481
$GPGGA,180154.00,3338.5538,N,11900.8772,W,1,10,0.8,8.1,M,-34.0,M,,*5E
$PYRTM,2024,127.751351501030,18.860998911169
$GPGGA,180155.00,3338.5539,N,11900.8766,W,1,10,0.8,8.0,M,-34.0,M,,*5A
$PYRTM,2024,127.751363070023,18.861010480162
$GPGGA,180156.00,3338.5537,N,11900.8761,W,1,10,0.8,8.0,M,-34.0,M,,*50
$PYRTM,2024,127.751374648785,18.861022058924
$GPGGA,180157.00,3338.5532,N,11900.8758,W,1,10,0.8,7.1,M,-34.0,M,,*50
$PYRTM,2024,127.751386223171,18.861033633310
$GPGGA,180158.00,3338.5525,N,11900.8754,W,1,10,0.8,7.7,M,-34.0,M,,*53
$PYRTM,2024,127.751397914664,18.861045324803
$GPGGA,180159.00,3338.5523,N,11900.8749,W,1,10,0.8,7.5,M,-34.0,M,,*5A
$PYRTM,2024,127.751409371123,18.861056781273
$GPGGA,180200.00,3338.5523,N,11900.8743,W,1,10,0.8,7.1,M,-34.0,M,,*5B
$PYRTM,2024,127.751420946227,18.861068356366
$GPGGA,180201.00,3338.5522,N,11900.8738,W,1,10,0.8,6.4,M,-34.0,M,,*53
$PYRTM,2024,127.751432623090,18.861080033241
$GPGGA,180202.00,3338.5520,N,11900.8734,W,1,10,0.8,6.6,M,-34.0,M,,*5C
$PYRTM,2024,127.751444097824,18.861091507963
$GPGGA,180203.00,3338.5518,N,11900.8731,W,1,11,0.8,6.9,M,-34.0,M,,*5D
$PYRTM,2024,127.751455668333,18.861103078472
$GPGGA,180204.00,3338.5516,N,11900.8730,W,1,11,0.8,6.9,M,-34.0,M,,*55
$PYRTM,2024,127.751467245498,18.861114655637
$GPGGA,180205.00,3338.5514,N,11900.8727,W,1,11,0.8,6.9,M,-34.0,M,,*50
$PYRTM,2024,127.751478919294,18.861126329444
$GPGGA,180206.00,3338.5514,N,11900.8721,W,1,11,0.8,10.2,M,-34.0,M,,*69
$PYRTM,2024,127.751490506296,18.861137916435
$GPGGA,180207.00,3338.5513,N,11900.8714,W,1,11,0.8,10.1,M,-34.0,M,,*6A
$PYRTM,2024,127.751501963773,18.861149373912
$GPGGA,180208.00,3338.5513,N,11900.8708,W,1,11,0.8,10.2,M,-34.0,M,,*6B
$PYRTM,2024,127.751514685451,18.861162095590
$GPGGA,180209.00,3338.5511,N,11900.8701,W,1,11,0.8,8.7,M,-34.0,M,,*5D
$PYRTM,2024,127.751527761296,18.861175171435
$GPGGA,180210.00,3338.5507,N,11900.8696,W,1,11,0.8,8.6,M,-34.0,M,,*5C
$PYRTM,2024,127.751536686968,18.861184097106
$GPGGA,180211.00,3338.5505,N,11900.8691,W,1,11,0.8,8.6,M,-34.0,M,,*58
$PYRTM,2024,127.751548260590,18.861195670729
$GPGGA,180212.00,3338.5504,N,11900.8686,W,1,11,0.8,8.6,M,-34.0,M,,*5C
$PYRTM,2024,127.751559837315,18.861207247465
$GPGGA,180213.00,3338.5502,N,11900.8681,W,1,11,0.8,8.6,M,-34.0,M,,*5C
$PYRTM,2024,127.751571404606,18.861218814745
$GPGGA,180214.00,3338.5500,N,11900.8676,W,1,11,0.8,8.5,M,-34.0,M,,*52
$PYRTM,2024,127.751582985451,18.861230395590
$GPGGA,180215.00,3338.5498,N,11900.8671,W,1,11,0.8,8.5,M,-34.0,M,,*54
$PYRTM,2024,127.751594558275,18.861241968414
$GPGGA,180216.00,3338.5497,N,11900.8666,W,1,11,0.8,8.5,M,-34.0,M,,*5E
$PYRTM,2024,127.751606134769,18.861253544919
$GPGGA,180217.00,3338.5496,N,11900.8661,W,1,11,0.8,8.4,M,-34.0,M,,*58
$PYRTM,2024,127.751617705417,18.861265115556
$GPGGA,180218.00,3338.5494,N,11900.8656,W,1,11,0.8,8.5,M,-34.0,M,,*50
$PYRTM,2024,127.751629409039,18.861276819178
$GPGGA,180219.00,3338.5491,N,11900.8652,W,1,11,0.8,8.5,M,-34.0,M,,*50
$PYRTM,2024,127.751640956771,18.861288366910
$GPGGA,180220.00,3338.5488,N,11900.8649,W,1,11,0.8,8.5,M,-34.0,M,,*58
$PYRTM,2024,127.751652544745,18.861299954884
$GPGGA,180221.00,3338.5485,N,11900.8644,W,1,11,0.8,8.4,M,-34.0,M,,*58
$PYRTM,2024,127.751663180475,18.861310590613
$GPGGA,180222.00,3338.5485,N,11900.8639,W,1,11,0.8,8.4,M,-34.0,M,,*51
$PYRTM,2024,127.751675108345,18.861322518484
$GPGGA,180223.00,3338.5484,N,11900.8633,W,1,11,0.8,8.4,M,-34.0,M,,*5B
$PYRTM,2024,127.751685880579,18.861333290718
$GPGGA,180224.00,3338.5482,N,11900.8629,W,1,11,0.8,8.4,M,-34.0,M,,*51
$PYRTM,2024,127.751696989734,18.861344399884
$GPGGA,180225.00,3338.5480,N,11900.8624,W,1,11,0.8,8.1,M,-34.0,M,,*5A
$PYRTM,2024,127.751708102454,18.861355512593
$GPGGA,180226.00,3338.5477,N,11900.8620,W,1,11,0.8,8.4,M,-34.0,M,,*50
$PYRTM,2024,127.751719095150,18.861366505289
$GPGGA,180227.00,3338.5477,N,11900.8614,W,1,11,0.8,8.4,M,-34.0,M,,*56
$PYRTM,2024,127.751730208160,18.861377618310
$GPGGA,180228.00,3338.5477,N,11900.8609,W,1,11,0.8,8.9,M,-34.0,M,,*58
$PYRTM,2024,127.751741320475,18.861388730613
$GPGGA,180229.00,3338.5475,N,11900.8606,W,1,11,0.8,8.5,M,-34.0,M,,*58
$PYRTM,2024,127.751752429907,18.861399840046
$GPGGA,180230.00,3338.5473,N,11900.8602,W,1,11,0.8,9.0,M,-34.0,M,,*56
$PYRTM,2024,127.751763676574,18.861411086713
$GPGGA,180231.00,3338.5470,N,11900.8598,W,1,11,0.8,8.9,M,-34.0,M,,*5C
$PYRTM,2024,127.751778586655,18.861425996794
$GPGGA,180232.00,3338.5467,N,11900.8592,W,1,11,0.8,9.3,M,-34.0,M,,*58
$PYRTM,2024,127.751789699931,18.861437110069
$GPGGA,180233.00,3338.5466,N,11900.8587,W,1,11,0.8,9.4,M,-34.0,M,,*5B
$PYRTM,2024,127.751800808681,18.861448218819
$GPGGA,180234.00,3338.5466,N,11900.8583,W,1,11,0.8,8.8,M,-34.0,M,,*55
$PYRTM,2024,127.751811920174,18.861459330324
$GPGGA,180235.00,3338.5463,N,11900.8580,W,1,11,0.8,8.8,M,-34.0,M,,*52
$PYRTM,2024,127.751823031076,18.861470441215
$GPGGA,180236.00,3338.5459,N,11900.8576,W,1,11,0.8,8.7,M,-34.0,M,,*5E
$PYRTM,2024,127.751834136771,18.861481546910
$GPGGA,180237.00,3338.5457,N,11900.8571,W,1,11,0.8,8.8,M,-34.0,M,,*59
$PYRTM,2024,127.751845368171,18.861492778310
$GPGGA,180238.00,3338.5455,N,11900.8566,W,1,11,0.8,9.1,M,-34.0,M,,*5A
$PYRTM,2024,127.751856479734,18.861503889873
$GPGGA,180239.00,3338.5455,N,11900.8561,W,1,11,0.8,8.4,M,-34.0,M,,*58
$PYRTM,2024,127.751875925336,18.861523335475
$GPGGA,180240.00,3338.5453,N,11900.8558,W,1,11,0.8,8.5,M,-34.0,M,,*5B
$PYRTM,2024,127.751887036343,18.861534446493
$GPGGA,180241.00,3338.5449,N,11900.8555,W,1,11,0.8,8.3,M,-34.0,M,,*5A
$PYRTM,2024,127.751898131713,18.861545541852
$GPGGA,180242.00,3338.5446,N,11900.8550,W,1,11,0.8,7.9,M,-34.0,M,,*56
$PYRTM,2024,127.751909245231,18.861556655370
$GPGGA,180243.00,3338.5448,N,11900.8543,W,1,11,0.8,7.4,M,-34.0,M,,*56
$PYRTM,2024,127.751920370845,18.861567780984
$GPGGA,180244.00,3338.5449,N,11900.8536,W,1,11,0.8,7.6,M,-34.0,M,,*50
$PYRTM,2024,127.751931366829,18.861578776968
$GPGGA,180245.00,3338.5449,N,11900.8530,W,1,11,0.8,7.1,M,-34.0,M,,*50
$PYRTM,2024,127.751942477245,18.861589887384
$GPGGA,180246.00,3338.5447,N,11900.8526,W,1,11,0.8,6.9,M,-34.0,M,,*53
$PYRTM,2024,127.751953588600,18.861600998738
$GPGGA,180247.00,3338.5444,N,11900.8522,W,1,11,0.8,6.8,M,-34.0,M,,*54
$PYRTM,2024,127.751964696690,18.861612106829
$GPGGA,180248.00,3338.5443,N,11900.8517,W,1,11,0.8,7.1,M,-34.0,M,,*52
$PYRTM,2024,127.751975807940,18.861623218079
$GPGGA,180249.00,3338.5445,N,11900.8512,W,1,11,0.8,7.1,M,-34.0,M,,*50
$PYRTM,2024,127.751987035937,18.861634446076
$GPGGA,180250.00,3338.5446,N,11900.8507,W,1,11,0.8,7.2,M,-34.0,M,,*5C
$PYRTM,2024,127.751998595093,18.861646005231
$GPGGA,180251.00,3338.5444,N,11900.8504,W,1,11,0.8,7.3,M,-34.0,M,,*5D
$PYRTM,2024,127.752010183576,18.861657593715
$GPGGA,180252.00,3338.5438,N,11900.8504,W,1,11,0.8,8.5,M,-34.0,M,,*5C
$PYRTM,2024,127.752021743854,18.861669153993
$GPGGA,180253.00,3338.5436,N,11900.8500,W,1,11,0.8,6.7,M,-34.0,M,,*5B
$PYRTM,2024,127.752033332303,18.861680742442
$GPGGA,180254.00,3338.5436,N,11900.8494,W,1,11,0.8,6.8,M,-34.0,M,,*5F
$PYRTM,2024,127.752044890683,18.861692300822
$GPGGA,180255.00,3338.5435,N,11900.8490,W,1,11,0.8,7.0,M,-34.0,M,,*50
$PYRTM,2024,127.752056480359,18.861703890498
$GPGGA,180256.00,3338.5433,N,11900.8486,W,1,11,0.8,7.0,M,-34.0,M,,*52
$PYRTM,2024,127.752068039792,18.861715449931
$GPGGA,180257.00,3338.5429,N,11900.8483,W,1,11,0.8,7.2,M,-34.0,M,,*5F
$PYRTM,2024,127.752079629225,18.861727039363
$GPGGA,180258.00,3338.5424,N,11900.8480,W,1,11,0.8,7.7,M,-34.0,M,,*5B
$PYRTM,2024,127.752091188472,18.861738598611
$GPGGA,180259.00,3338.5423,N,11900.8476,W,1,11,0.8,9.7,M,-34.0,M,,*5A
$PYRTM,2024,127.752102771586,18.861750181725
$GPGGA,180300.00,3338.5423,N,11900.8470,W,1,11,0.8,9.9,M,-34.0,M,,*5F
$PYRTM,2024,127.752114336296,18.861761746447
$GPGGA,180301.00,3338.5420,N,11900.8468,W,1,11,0.8,10.0,M,-34.0,M,,*65
$PYRTM,2024,127.752125920822,18.861773330961
$GPGGA,180302.00,3338.5417,N,11900.8466,W,1,11,0.8,9.9,M,-34.0,M,,*5D
$PYRTM,2024,127.752137485475,18.861784895625
$GPGGA,180303.00,3338.5414,N,11900.8464,W,1,11,0.8,9.3,M,-34.0,M,,*57
$PYRTM,2024,127.752149075266,18.861796485405
$GPGGA,180304.00,3338.5413,N,11900.8458,W,1,11,0.8,10.2,M,-34.0,M,,*61
$PYRTM,2024,127.752160632870,18.861808043009
$GPGGA,180305.00,3338.5414,N,11900.8450,W,1,11,0.8,9.4,M,-34.0,M,,*51
$PYRTM,2024,127.752172224317,18.861819634456
$GPGGA,180306.00,3338.5413,N,11900.8443,W,1,11,0.8,9.2,M,-34.0,M,,*51
$PYRTM,2024,127.752183783750,18.861831193889
$GPGGA,180307.00,3338.5410,N,11900.8438,W,1,11,0.8,9.3,M,-34.0,M,,*5E
$PYRTM,2024,127.752195370995,18.861842781134
$GPGGA,180308.00,3338.5407,N,11900.8435,W,1,11,0.8,9.3,M,-34.0,M,,*5A
$PYRTM,2024,127.752208089039,18.861855499178
$GPGGA,180309.00,3338.5404,N,11900.8431,W,1,11,0.8,8.9,M,-34.0,M,,*57
$PYRTM,2024,127.752220027396,18.861867437535
$GPGGA,180310.00,3338.5404,N,11900.8425,W,1,11,0.8,7.0,M,-34.0,M,,*5C
$PYRTM,2024,127.752231134410,18.861878544549
$GPGGA,180311.00,3338.5405,N,11900.8419,W,1,11,0.8,6.9,M,-34.0,M,,*5B
$PYRTM,2024,127.752242708241,18.861890118380
$GPGGA,180312.00,3338.5405,N,11900.8414,W,1,11,0.8,7.0,M,-34.0,M,,*5D
$PYRTM,2024,127.752254281667,18.861901691806
$GPGGA,180313.00,3338.5402,N,11900.8410,W,1,11,0.8,7.1,M,-34.0,M,,*5E
$PYRTM,2024,127.752265855856,18.861913265995
$GPGGA,180314.00,3338.5398,N,11900.8408,W,1,11,0.8,7.3,M,-34.0,M,,*56
$PYRTM,2024,127.752277430625,18.861924840764
$GPGGA,180315.00,3338.5396,N,11900.8404,W,1,11,0.8,7.2,M,-34.0,M,,*54
$PYRTM,2024,127.752289003669,18.861936413808
$GPGGA,180316.00,3338.5395,N,11900.8399,W,1,11,0.8,6.6,M,-34.0,M,,*52
$PYRTM,2024,127.752300582546,18.861947992685
$GPGGA,180317.00,3338.5394,N,11900.8394,W,1,11,0.8,5.7,M,-34.0,M,,*5D
$PYRTM,2024,127.752312151910,18.861959562049
$GPGGA,180318.00,3338.5392,N,11900.8391,W,1,11,0.8,5.4,M,-34.0,M,,*52
$PYRTM,2024,127.752323846852,18.861971256991
$GPGGA,180319.00,3338.5389,N,11900.8388,W,1,11,0.8,5.8,M,-34.0,M,,*5D
$PYRTM,2024,127.752335300961,18.861982711100
$GPGGA,180320.00,3338.5386,N,11900.8381,W,1,11,0.8,6.1,M,-34.0,M,,*5B
$PYRTM,2024,127.752346876551,18.861994286690
$GPGGA,180321.00,3338.5385,N,11900.8374,W,1,11,0.8,6.2,M,-34.0,M,,*50
$PYRTM,2024,127.752358451354,18.862005861505
$GPGGA,180322.00,3338.5383,N,11900.8369,W,1,11,0.8,6.4,M,-34.0,M,,*5F
$PYRTM,2024,127.752370139120,18.862017549271
$GPGGA,180323.00,3338.5381,N,11900.8365,W,1,11,0.8,6.6,M,-34.0,M,,*52
$PYRTM,2024,127.752381699167,18.862029109306
$GPGGA,180324.00,3338.5379,N,11900.8361,W,1,11,0.8,7.0,M,-34.0,M,,*51
$PYRTM,2024,127.752393172014,18.862040582153
$GPGGA,180325.00,3338.5377,N,11900.8354,W,1,11,0.8,7.8,M,-34.0,M,,*50
$PYRTM,2024,127.752404745810,18.862052155949
$GPGGA,180326.00,3338.5376,N,11900.8347,W,1,11,0.8,7.7,M,-34.0,M,,*5F
$PYRTM,2024,127.752416321377,18.862063731516
$GPGGA,180327.00,3338.5375,N,11900.8342,W,1,11,0.8,7.7,M,-34.0,M,,*58
$PYRTM,2024,127.752427893947,18.862075304086
$GPGGA,180328.00,3338.5374,N,11900.8340,W,1,11,0.8,7.7,M,-34.0,M,,*54
$PYRTM,2024,127.752439931771,18.862087341910
$GPGGA,180329.00,3338.5372,N,11900.8337,W,1,11,0.8,7.6,M,-34.0,M,,*52
$PYRTM,2024,127.752451042257,18.862098452396
$GPGGA,180330.00,3338.5369,N,11900.8333,W,1,11,0.8,7.5,M,-34.0,M,,*57
$PYRTM,2024,127.752462632025,18.862110042176
$GPGGA,180331.00,3338.5367,N,11900.8327,W,1,11,0.8,7.6,M,-34.0,M,,*5E
$PYRTM,2024,127.752474190706,18.862121600856
$GPGGA,180332.00,3338.5365,N,11900.8321,W,1,11,0.8,7.5,M,-34.0,M,,*5A
$PYRTM,2024,127.752485767280,18.862133177419
$GPGGA,180333.00,3338.5365,N,11900.8315,W,1,11,0.8,7.4,M,-34.0,M,,*5D
$PYRTM,2024,127.752497339051,18.862144749201
$GPGGA,180334.00,3338.5363,N,11900.8310,W,1,11,0.8,7.4,M,-34.0,M,,*59
$PYRTM,2024,127.752508913553,18.862156323692
$GPGGA,180335.00,3338.5359,N,11900.8306,W,1,11,0.8,7.3,M,-34.0,M,,*51
$PYRTM,2024,127.752520487141,18.862167897280
$GPGGA,180336.00,3338.5356,N,11900.8303,W,1,11,0.8,7.5,M,-34.0,M,,*5E
$PYRTM,2024,127.752532057199,18.862179467338
$GPGGA,180337.00,3338.5353,N,11900.8299,W,1,11,0.8,7.5,M,-34.0,M,,*58
$PYRTM,2024,127.752543635764,18.862191045903
$GPGGA,180338.00,3338.5353,N,11900.8294,W,1,11,0.8,7.5,M,-34.0,M,,*5A
$PYRTM,2024,127.752556354120,18.862203764259
$GPGGA,180339.00,3338.5352,N,11900.8288,W,1,10,0.8,7.5,M,-34.0,M,,*56
$PYRTM,2024,127.752569433472,18.862216843611
$GPGGA,180340.00,3338.5350,N,11900.8282,W,1,10,0.8,10.0,M,-34.0,M,,*63
$PYRTM,2024,127.752578473044,18.862225883183
$GPGGA,180341.00,3338.5346,N,11900.8278,W,1,10,0.8,10.0,M,-34.0,M,,*60
$PYRTM,2024,127.752590035451,18.862237445590
$GPGGA,180342.00,3338.5343,N,11900.8273,W,1,10,0.8,10.0,M,-34.0,M,,*6D
$PYRTM,2024,127.752601624005,18.862249034144
$GPGGA,180343.00,3338.5342,N,11900.8267,W,1,10,0.8,10.0,M,-34.0,M,,*68
$PYRTM,2024,127.752613183715,18.862260593866
$GPGGA,180344.00,3338.5342,N,11900.8261,W,1,10,0.8,10.0,M,-34.0,M,,*69
$PYRTM,2024,127.752624773032,18.862272183183
$GPGGA,180345.00,3338.5340,N,11900.8255,W,1,10,0.8,10.0,M,-34.0,M,,*6D
$PYRTM,2024,127.752636330764,18.862283740903
$GPGGA,180346.00,3338.5338,N,11900.8251,W,1,10,0.8,10.1,M,-34.0,M,,*64
$PYRTM,2024,127.752647920880,18.862295331019
$GPGGA,180347.00,3338.5334,N,11900.8247,W,1,10,0.8,10.3,M,-34.0,M,,*6C
$PYRTM,2024,127.752659480729,18.862306890880
$GPGGA,180348.00,3338.5333,N,11900.8242,W,1,10,0.8,10.3,M,-34.0,M,,*61
$PYRTM,2024,127.752671066470,18.862318476620
$GPGGA,180349.00,3338.5332,N,11900.8237,W,1,10,0.8,11.0,M,-34.0,M,,*61
$PYRTM,2024,127.752682627384,18.862330037523
$GPGGA,180350.00,3338.5331,N,11900.8233,W,1,10,0.8,10.8,M,-34.0,M,,*67
$PYRTM,2024,127.752694214664,18.862341624803
$GPGGA,180351.00,3338.5328,N,11900.8230,W,1,10,0.8,10.3,M,-34.0,M,,*66
$PYRTM,2024,127.752705775995,18.862353186134
$GPGGA,180352.00,3338.5325,N,11900.8226,W,1,10,0.8,10.0,M,-34.0,M,,*6C
$PYRTM,2024,127.752717363519,18.862364773669
$GPGGA,180353.00,3338.5323,N,11900.8222,W,1,10,0.8,10.1,M,-34.0,M,,*6E
$PYRTM,2024,127.752728925787,18.862376335926
$GPGGA,180354.00,3338.5322,N,11900.8217,W,1,10,0.8,10.3,M,-34.0,M,,*6C
$PYRTM,2024,127.752740512477,18.862387922616
$GPGGA,180355.00,3338.5320,N,11900.8212,W,1,10,0.8,9.9,M,-34.0,M,,*58
$PYRTM,2024,127.752752071794,18.862399481944
$GPGGA,180356.00,3338.5318,N,11900.8208,W,1,10,0.8,9.7,M,-34.0,M,,*55
$PYRTM,2024,127.752763659109,18.862411069248
$GPGGA,180357.00,3338.5316,N,11900.8204,W,1,10,0.8,9.9,M,-34.0,M,,*58
$PYRTM,2024,127.752775220937,18.862422631076
$GPGGA,180358.00,3338.5314,N,11900.8199,W,1,10,0.8,10.8,M,-34.0,M,,*6B
$PYRTM,2024,127.752786810868,18.862434221019
$GPGGA,180359.00,3338.5313,N,11900.8193,W,1,10,0.8,10.3,M,-34.0,M,,*6C
$PYRTM,2024,127.752798371447,18.862445781586
$GPGGA,180400.00,3338.5312,N,11900.8188,W,1,10,0.8,10.0,M,-34.0,M,,*6F
$PYRTM,2024,127.752809959815,18.862457369954
$GPGGA,180401.00,3338.5310,N,11900.8183,W,1,10,0.8,9.9,M,-34.0,M,,*56
$PYRTM,2024,127.752821518032,18.862468928171
$GPGGA,180402.00,3338.5308,N,11900.8179,W,1,10,0.8,9.7,M,-34.0,M,,*57
$PYRTM,2024,127.752833104398,18.862480514537
$GPGGA,180403.00,3338.5305,N,11900.8175,W,1,10,0.8,9.8,M,-34.0,M,,*58
$PYRTM,2024,127.752844666644,18.862492076782
$GPGGA,180404.00,3338.5303,N,11900.8170,W,1,10,0.8,9.6,M,-34.0,M,,*52
$PYRTM,2024,127.752856239734,18.862503649873
$GPGGA,180405.00,3338.5303,N,11900.8165,W,1,10,0.8,9.8,M,-34.0,M,,*59
$PYRTM,2024,127.752867813356,18.862515223495
$GPGGA,180406.00,3338.5302,N,11900.8160,W,1,10,0.8,10.0,M,-34.0,M,,*6E
$PYRTM,2024,127.752879406574,18.862526816713
$GPGGA,180407.00,3338.5299,N,11900.8156,W,1,10,0.8,10.0,M,-34.0,M,,*69
$PYRTM,2024,127.752890964375,18.862538374514
$GPGGA,180408.00,3338.5297,N,11900.8152,W,1,10,0.8,10.0,M,-34.0,M,,*6C
$PYRTM,2024,127.752903578715,18.862550988854
$GPGGA,180409.00,3338.5294,N,11900.8149,W,1,10,0.8,10.0,M,-34.0,M,,*64
$PYRTM,2024,127.752916787905,18.862564198056
$GPGGA,180410.00,3338.5292,N,11900.8145,W,1,10,0.8,10.2,M,-34.0,M,,*64
$PYRTM,2024,127.752926148299,18.862573558449
$GPGGA,180411.00,3338.5290,N,11900.8140,W,1,10,0.8,10.2,M,-34.0,M,,*62
$PYRTM,2024,127.752937734259,18.862585144398
$GPGGA,180412.00,3338.5290,N,11900.8136,W,1,10,0.8,10.4,M,-34.0,M,,*66
$PYRTM,2024,127.752949297153,18.862596707292
$GPGGA,180413.00,3338.5289,N,11900.8131,W,1,10,0.8,9.6,M,-34.0,M,,*52
$PYRTM,2024,127.752960884664,18.862608294815
$GPGGA,180414.00,3338.5287,N,11900.8127,W,1,10,0.8,9.7,M,-34.0,M,,*5D
$PYRTM,2024,127.752972443935,18.862619854074
$GPGGA,180415.00,3338.5283,N,11900.8122,W,1,10,0.8,9.8,M,-34.0,M,,*52
$PYRTM,2024,127.752984024745,18.862631434884
$GPGGA,180416.00,3338.5282,N,11900.8117,W,1,10,0.8,9.4,M,-34.0,M,,*5A
$PYRTM,2024,127.752995606169,18.862643016308
$GPGGA,180417.00,3338.5281,N,11900.8112,W,1,10,0.8,9.0,M,-34.0,M,,*59
$PYRTM,2024,127.753007178924,18.862654589063
$GPGGA,180418.00,3338.5279,N,11900.8108,W,1,10,0.8,9.2,M,-34.0,M,,*58
$PYRTM,2024,127.753019205336,18.862666615475
$GPGGA,180419.00,3338.5276,N,11900.8104,W,1,10,0.8,8.6,M,-34.0,M,,*5F
$PYRTM,2024,127.753030326655,18.862677736794
$GPGGA,180420.00,3338.5273,N,11900.8100,W,1,10,0.8,8.8,M,-34.0,M,,*5A
$PYRTM,2024,127.753041902882,18.862689313021
$GPGGA,180421.00,3338.5272,N,11900.8095,W,1,10,0.8,8.7,M,-34.0,M,,*58
$PYRTM,2024,127.753053490012,18.862700900150
$GPGGA,180422.00,3338.5272,N,11900.8089,W,1,10,0.8,9.1,M,-34.0,M,,*51
$PYRTM,2024,127.753065050509,18.862712460648
$GPGGA,180423.00,3338.5270,N,11900.8085,W,1,10,0.8,9.7,M,-34.0,M,,*58
$PYRTM,2024,127.753076740903,18.862724151042
$GPGGA,180424.00,3338.5267,N,11900.8081,W,1,10,0.8,9.5,M,-34.0,M,,*5F
$PYRTM,2024,127.753088301435,18.862735711574
$GPGGA,180425.00,3338.5265,N,11900.8077,W,1,10,0.8,10.0,M,-34.0,M,,*68
$PYRTM,2024,127.753099887882,18.862747298021
$GPGGA,180426.00,3338.5264,N,11900.8071,W,1,10,0.8,10.5,M,-34.0,M,,*69
$PYRTM,2024,127.753114588414,18.862761998553
$GPGGA,180427.00,3338.5263,N,11900.8066,W,1,10,0.8,10.2,M,-34.0,M,,*6E
$PYRTM,2024,127.753127666343,18.862775076481
$GPGGA,180428.00,3338.5260,N,11900.8061,W,1,10,0.8,10.2,M,-34.0,M,,*65
$PYRTM,2024,127.753136448715,18.862783858854
$GPGGA,180429.00,3338.5258,N,11900.8057,W,1,10,0.8,10.1,M,-34.0,M,,*69
$PYRTM,2024,127.753153117431,18.862800527569
$GPGGA,180430.00,3338.5257,N,11900.8053,W,1,10,0.8,10.3,M,-34.0,M,,*68
$PYRTM,2024,127.753164227963,18.862811638102
$GPGGA,180431.00,3338.5256,N,11900.8049,W,1,10,0.8,10.4,M,-34.0,M,,*64
$PYRTM,2024,127.753175339329,18.862822749468
$GPGGA,180432.00,3338.5253,N,11900.8044,W,1,10,0.8,9.8,M,-34.0,M,,*5B
$PYRTM,2024,127.753186450162,18.862833860301
$GPGGA,180433.00,3338.5250,N,11900.8041,W,1,10,0.8,9.4,M,-34.0,M,,*50
$PYRTM,2024,127.753197561736,18.862844971875
$GPGGA,180434.00,3338.5249,N,11900.8037,W,1,10,0.8,10.2,M,-34.0,M,,*60
$PYRTM,2024,127.753208671898,18.862856082037
$GPGGA,180435.00,3338.5248,N,11900.8033,W,1,10,0.8,10.0,M,-34.0,M,,*66
$PYRTM,2024,127.753219898368,18.862867308507
$GPGGA,180436.00,3338.5248,N,11900.8027,W,1,10,0.8,9.2,M,-34.0,M,,*5A
$PYRTM,2024,127.753231009965,18.862878420104
$GPGGA,180437.00,3338.5245,N,11900.8023,W,1,10,0.8,9.3,M,-34.0,M,,*53
$PYRTM,2024,127.753242121146,18.862889531285
$GPGGA,180438.00,3338.5242,N,11900.8019,W,1,10,0.8,9.2,M,-34.0,M,,*53
$PYRTM,2024,127.753254273796,18.862901683947
$GPGGA,180439.00,3338.5239,N,11900.8015,W,1,10,0.8,9.0,M,-34.0,M,,*50
$PYRTM,2024,127.753264702940,18.862912113090
$GPGGA,180440.00,3338.5238,N,11900.8010,W,1,10,0.8,9.5,M,-34.0,M,,*5F
$PYRTM,2024,127.753275809688,18.862923219826
$GPGGA,180441.00,3338.5237,N,11900.8005,W,1,10,0.8,10.4,M,-34.0,M,,*6C
$PYRTM,2024,127.753286913021,18.862934323160
$GPGGA,180442.00,3338.5237,N,11900.8001,W,1,10,0.8,10.3,M,-34.0,M,,*6C
$PYRTM,2024,127.753298040903,18.862945451042
$GPGGA,180443.00,3338.5235,N,11900.7997,W,1,10,0.8,9.7,M,-34.0,M,,*5A
$PYRTM,2024,127.753309147940,18.862956558079
$GPGGA,180444.00,3338.5233,N,11900.7993,W,1,10,0.8,9.7,M,-34.0,M,,*5F
$PYRTM,2024,127.753320260197,18.862967670336
$GPGGA,180445.00,3338.5229,N,11900.7990,W,1,10,0.8,9.2,M,-34.0,M,,*53
$PYRTM,2024,127.753331370521,18.862978780660
$GPGGA,180446.00,3338.5226,N,11900.7987,W,1,10,0.8,8.9,M,-34.0,M,,*53
$PYRTM,2024,127.753342479120,18.862989889259
$GPGGA,180447.00,3338.5224,N,11900.7984,W,1,10,0.8,9.0,M,-34.0,M,,*5B
$PYRTM,2024,127.753353723993,18.863001134144
$GPGGA,180448.00,3338.5223,N,11900.7980,W,1,10,0.8,10.0,M,-34.0,M,,*6F
$PYRTM,2024,127.753364820289,18.863012230428
$GPGGA,180449.00,3338.5221,N,11900.7976,W,1,10,0.8,10.5,M,-34.0,M,,*60
$PYRTM,2024,127.753375946574,18.863023356713
$GPGGA,180450.00,3338.5220,N,11900.7970,W,1,10,0.8,10.6,M,-34.0,M,,*6C
$PYRTM,2024,127.753387493137,18.863034903275
$GPGGA,180451.00,3338.5219,N,11900.7965,W,1,10,0.8,10.0,M,-34.0,M,,*65
$PYRTM,2024,127.753399078704,18.863046488843
$GPGGA,180452.00,3338.5217,N,11900.7959,W,1,10,0.8,10.0,M,-34.0,M,,*67
$PYRTM,2024,127.753410640486,18.863058050625
$GPGGA,180453.00,3338.5215,N,11900.7954,W,1,10,0.8,9.3,M,-34.0,M,,*52
$PYRTM,2024,127.753422238437,18.863069648576
$GPGGA,180454.00,3338.5213,N,11900.7949,W,1,10,0.8,9.5,M,-34.0,M,,*59
$PYRTM,2024,127.753433788171,18.863081198310
$GPGGA,180455.00,3338.5210,N,11900.7944,W,1,10,0.8,9.6,M,-34.0,M,,*55
$PYRTM,2024,127.753445375116,18.863092785255
$GPGGA,180456.00,3338.5209,N,11900.7940,W,1,10,0.8,9.5,M,-34.0,M,,*59
$PYRTM,2024,127.753456937280,18.863104347419
$GPGGA,180457.00,3338.5207,N,11900.7935,W,1,10,0.8,8.9,M,-34.0,M,,*59
$PYRTM,2024,127.753468523704,18.863115933843
$GPGGA,180458.00,3338.5205,N,11900.7930,W,1,10,0.8,9.4,M,-34.0,M,,*5D
$PYRTM,2024,127.753480084664,18.863127494803
$GPGGA,180459.00,3338.5203,N,11900.7926,W,1,10,0.8,8.9,M,-34.0,M,,*51
$PYRTM,2024,127.753491672419,18.863139082569
$GPGGA,180500.00,3338.5202,N,11900.7923,W,1,10,0.8,8.8,M,-34.0,M,,*59
$PYRTM,2024,127.753503232697,18.863150642836
$GPGGA,180501.00,3338.5200,N,11900.7918,W,1,10,0.8,8.4,M,-34.0,M,,*5E
$PYRTM,2024,127.753514834641,18.863162244780
$GPGGA,180502.00,3338.5199,N,11900.7912,W,1,10,0.8,8.5,M,-34.0,M,,*55
$PYRTM,2024,127.753526381123,18.863173791262
$GPGGA,180503.00,3338.5197,N,11900.7907,W,1,10,0.8,8.7,M,-34.0,M,,*5C
$PYRTM,2024,127.753537971505,18.863185381655
$GPGGA,180504.00,3338.5195,N,11900.7903,W,1,10,0.8,9.1,M,-34.0,M,,*5A
$PYRTM,2024,127.753549529896,18.863196940035
$GPGGA,180505.00,3338.5192,N,11900.7899,W,1,10,0.8,9.1,M,-34.0,M,,*5E
$PYRTM,2024,127.753561117303,18.863208527442
$GPGGA,180506.00,3338.5192,N,11900.7891,W,1,10,0.8,11.0,M,-34.0,M,,*6D
$PYRTM,2024,127.753572677847,18.863220087986
$GPGGA,180507.00,3338.5193,N,11900.7882,W,1,10,0.8,7.4,M,-34.0,M,,*5C
$PYRTM,2024,127.753584265058,18.863231675208
$GPGGA,180508.00,3338.5194,N,11900.7876,W,1,10,0.8,7.6,M,-34.0,M,,*5D
$PYRTM,2024,127.753597340012,18.863244750150
$GPGGA,180509.00,3338.5191,N,11900.7872,W,1,10,0.8,7.6,M,-34.0,M,,*5D
$PYRTM,2024,127.753608903542,18.863256313681
$GPGGA,180510.00,3338.5189,N,11900.7868,W,1,10,0.8,7.6,M,-34.0,M,,*57
$PYRTM,2024,127.753620014063,18.863267424213
$GPGGA,180511.00,3338.5188,N,11900.7864,W,1,10,0.8,7.2,M,-34.0,M,,*5F
$PYRTM,2024,127.753631604271,18.863279014410
$GPGGA,180512.00,3338.5187,N,11900.7858,W,1,10,0.8,7.1,M,-34.0,M,,*5F
$PYRTM,2024,127.753643164317,18.863290574456
$GPGGA,180513.00,3338.5186,N,11900.7853,W,1,10,0.8,7.2,M,-34.0,M,,*57
$PYRTM,2024,127.753654751562,18.863302161701
$GPGGA,180514.00,3338.5184,N,11900.7849,W,1,10,0.8,7.0,M,-34.0,M,,*5B
$PYRTM,2024,127.753666311447,18.863313721597
$GPGGA,180515.00,3338.5182,N,11900.7845,W,1,10,0.8,7.6,M,-34.0,M,,*56
$PYRTM,2024,127.753677894919,18.863325305058
$GPGGA,180516.00,3338.5180,N,11900.7840,W,1,10,0.8,7.3,M,-34.0,M,,*57
$PYRTM,2024,127.753689589572,18.863336999711
$GPGGA,180517.00,3338.5177,N,11900.7835,W,1,10,0.8,7.3,M,-34.0,M,,*5C
$PYRTM,2024,127.753701151944,18.863348562095
$GPGGA,180518.00,3338.5176,N,11900.7831,W,1,10,0.8,7.0,M,-34.0,M,,*55
$PYRTM,2024,127.753712725995,18.863360136134
$GPGGA,180519.00,3338.5174,N,11900.7826,W,1,10,0.8,7.1,M,-34.0,M,,*51
$PYRTM,2024,127.753724313299,18.863371723437
$GPGGA,180520.00,3338.5173,N,11900.7821,W,1,10,0.8,7.3,M,-34.0,M,,*59
$PYRTM,2024,127.753735886725,18.863383296863
$GPGGA,180521.00,3338.5172,N,11900.7816,W,1,10,0.8,7.3,M,-34.0,M,,*5D
$PYRTM,2024,127.753747461030,18.863394871169
$GPGGA,180522.00,3338.5170,N,11900.7812,W,1,10,0.8,7.1,M,-34.0,M,,*5A
$PYRTM,2024,127.753759036215,18.863406446354
$GPGGA,180523.00,3338.5168,N,11900.7808,W,1,10,0.8,7.3,M,-34.0,M,,*5B
$PYRTM,2024,127.753770607222,18.863418017361
$GPGGA,180524.00,3338.5166,N,11900.7803,W,1,10,0.8,7.6,M,-34.0,M,,*5C
$PYRTM,2024,127.753782186273,18.863429596424
$GPGGA,180525.00,3338.5164,N,11900.7799,W,1,10,0.8,7.9,M,-34.0,M,,*5C
$PYRTM,2024,127.753793746887,18.863441157037
$GPGGA,180526.00,3338.5161,N,11900.7795,W,1,10,0.8,8.6,M,-34.0,M,,*56
$PYRTM,2024,127.753805332049,18.863452742187
$GPGGA,180527.00,3338.5159,N,11900.7791,W,1,10,0.8,8.5,M,-34.0,M,,*5B
$PYRTM,2024,127.753816904352,18.863464314491
$GPGGA,180528.00,3338.5159,N,11900.7786,W,1,10,0.8,8.1,M,-34.0,M,,*56
$PYRTM,2024,127.753828478831,18.863475888970
$GPGGA,180529.00,3338.5157,N,11900.7781,W,1,10,0.8,7.2,M,-34.0,M,,*52
$PYRTM,2024,127.753840052778,18.863487462917
$GPGGA,180530.00,3338.5154,N,11900.7777,W,1,10,0.8,7.6,M,-34.0,M,,*54
$PYRTM,2024,127.753851615544,18.863499025694
$GPGGA,180531.00,3338.5150,N,11900.7773,W,1,10,0.8,7.8,M,-34.0,M,,*5B
$PYRTM,2024,127.753863201181,18.863510611319
$GPGGA,180532.00,3338.5149,N,11900.7768,W,1,10,0.8,8.3,M,-34.0,M,,*5E
$PYRTM,2024,127.753874644618,18.863522054757
$GPGGA,180533.00,3338.5152,N,11900.7762,W,1,10,0.8,5.6,M,-34.0,M,,*57
$PYRTM,2024,127.753886233970,18.863533644109
$GPGGA,180534.00,3338.5152,N,11900.7755,W,1,10,0.8,5.7,M,-34.0,M,,*55
$PYRTM,2024,127.753897794063,18.863545204201
$GPGGA,180535.00,3338.5148,N,11900.7750,W,1,10,0.8,6.2,M,-34.0,M,,*5C
$PYRTM,2024,127.753909381192,18.863556791331
$GPGGA,180536.00,3338.5145,N,11900.7746,W,1,10,0.8,6.1,M,-34.0,M,,*56
$PYRTM,2024,127.753920941007,18.863568351146
$GPGGA,180537.00,3338.5144,N,11900.7742,W,1,10,0.8,6.1,M,-34.0,M,,*52
$PYRTM,2024,127.753932525023,18.863579935162
$GPGGA,180538.00,3338.5144,N,11900.7736,W,1,10,0.8,5.8,M,-34.0,M,,*54
$PYRTM,2024,127.753945263438,18.863592673576
$GPGGA,180539.00,3338.5143,N,11900.7730,W,1,10,0.8,5.9,M,-34.0,M,,*55
$PYRTM,2024,127.753958327083,18.863605737222
$GPGGA,180540.00,3338.5141,N,11900.7725,W,1,10,0.8,6.2,M,-34.0,M,,*55
$PYRTM,2024,127.753967368090,18.863614778229
$GPGGA,180541.00,3338.5138,N,11900.7721,W,1,10,0.8,6.0,M,-34.0,M,,*5C
$PYRTM,2024,127.753978941794,18.863626351933
$GPGGA,180542.00,3338.5136,N,11900.7717,W,1,10,0.8,6.0,M,-34.0,M,,*54
$PYRTM,2024,127.753990519271,18.863637929410
$GPGGA,180543.00,3338.5134,N,11900.7711,W,1,10,0.8,5.9,M,-34.0,M,,*5B
$PYRTM,2024,127.754002090278,18.863649500417
$GPGGA,180544.00,3338.5132,N,11900.7707,W,1,10,0.8,5.8,M,-34.0,M,,*5C
$PYRTM,2024,127.754013667315,18.863661077454
$GPGGA,180545.00,3338.5130,N,11900.7702,W,1,10,0.8,6.1,M,-34.0,M,,*50
$PYRTM,2024,127.754025238634,18.863672648773
$GPGGA,180546.00,3338.5128,N,11900.7695,W,1,10,0.8,10.0,M,-34.0,M,,*63
$PYRTM,2024,127.754036813958,18.863684224097
$GPGGA,180547.00,3338.5126,N,11900.7688,W,1,10,0.8,10.2,M,-34.0,M,,*62
$PYRTM,2024,127.754048387396,18.863695797546
$GPGGA,180548.00,3338.5123,N,11900.7683,W,1,10,0.8,10.1,M,-34.0,M,,*60
$PYRTM,2024,127.754059949583,18.863707359711
$GPGGA,180549.00,3338.5119,N,11900.7679,W,1,10,0.8,10.2,M,-34.0,M,,*6E
$PYRTM,2024,127.754071534641,18.863718944780
$GPGGA,180550.00,3338.5116,N,11900.7677,W,1,10,0.8,9.6,M,-34.0,M,,*5B
$PYRTM,2024,127.754083110613,18.863730520752
$GPGGA,180551.00,3338.5113,N,11900.7673,W,1,10,0.8,9.8,M,-34.0,M,,*55
$PYRTM,2024,127.754094683183,18.863742093322
$GPGGA,180552.00,3338.5112,N,11900.7668,W,1,10,0.8,9.1,M,-34.0,M,,*54
$PYRTM,2024,127.754106272014,18.863753682153
$GPGGA,180553.00,3338.5111,N,11900.7662,W,1,10,0.8,8.9,M,-34.0,M,,*55
$PYRTM,2024,127.754117719630,18.863765129769
$GPGGA,180554.00,3338.5108,N,11900.7655,W,1,10,0.8,7.1,M,-34.0,M,,*59
$PYRTM,2024,127.754129277234,18.863776687373
$GPGGA,180555.00,3338.5105,N,11900.7650,W,1,10,0.8,7.3,M,-34.0,M,,*52
$PYRTM,2024,127.754140866933,18.863788277072
$GPGGA,180556.00,3338.5102,N,11900.7645,W,1,10,0.8,7.5,M,-34.0,M,,*54
$PYRTM,2024,127.754152426516,18.863799836655
$GPGGA,180557.00,3338.5101,N,11900.7641,W,1,10,0.8,8.7,M,-34.0,M,,*5F
$PYRTM,2024,127.754164015301,18.863811425440
$GPGGA,180558.00,3338.5102,N,11900.7633,W,1,10,0.8,9.2,M,-34.0,M,,*52
$PYRTM,2024,127.754176050301,18.863823460440
$GPGGA,180559.00,3338.5104,N,11900.7625,W,1,10,0.8,8.4,M,-34.0,M,,*55
$PYRTM,2024,127.754187164201,18.863834574352
$GPGGA,180600.00,3338.5103,N,11900.7619,W,1,10,0.8,8.3,M,-34.0,M,,*55
$PYRTM,2024,127.754198721528,18.863846131667
$GPGGA,180601.00,3338.5101,N,11900.7617,W,1,10,0.8,8.2,M,-34.0,M,,*59
$PYRTM,2024,127.754210312697,18.863857722847
$GPGGA,180602.00,3338.5099,N,11900.7614,W,1,10,0.8,8.0,M,-34.0,M,,*5B
$PYRTM,2024,127.754222002604,18.863869412743
$GPGGA,180603.00,3338.5098,N,11900.7610,W,1,10,0.8,7.7,M,-34.0,M,,*57
$PYRTM,2024,127.754233574201,18.863880984340
$GPGGA,180604.00,3338.5097,N,11900.7604,W,1,10,0.8,7.6,M,-34.0,M,,*5B
$PYRTM,2024,127.754245142407,18.863892552546
$GPGGA,180605.00,3338.5096,N,11900.7599,W,1,10,0.8,7.6,M,-34.0,M,,*5C
$PYRTM,2024,127.754256709491,18.863904119641
$GPGGA,180606.00,3338.5094,N,11900.7594,W,1,10,0.8,8.0,M,-34.0,M,,*59
$PYRTM,2024,127.754268298079,18.863915708218
$GPGGA,180607.00,3338.5091,N,11900.7590,W,1,10,0.8,8.5,M,-34.0,M,,*5C
$PYRTM,2024,127.754279870845,18.863927280984
$GPGGA,180608.00,3338.5088,N,11900.7585,W,1,10,0.8,8.3,M,-34.0,M,,*59
$PYRTM,2024,127.754292488715,18.863939898854
$GPGGA,180609.00,3338.5087,N,11900.7579,W,1,10,0.8,8.3,M,-34.0,M,,*54
$PYRTM,2024,127.754305550370,18.863952960509
$GPGGA,180610.00,3338.5085,N,11900.7574,W,1,10,0.8,8.6,M,-34.0,M,,*56
$PYRTM,2024,127.754314593229,18.863962003368
$GPGGA,180611.00,3338.5082,N,11900.7570,W,1,10,0.8,8.8,M,-34.0,M,,*5A
$PYRTM,2024,127.754326166632,18.863973576771
$GPGGA,180612.00,3338.5080,N,11900.7566,W,1,10,0.8,9.3,M,-34.0,M,,*56
$PYRTM,2024,127.754337741505,18.863985151644
$GPGGA,180613.00,3338.5079,N,11900.7561,W,1,10,0.8,9.2,M,-34.0,M,,*57
$PYRTM,2024,127.754349314525,18.863996724664
$GPGGA,180614.00,3338.5078,N,11900.7556,W,1,10,0.8,9.2,M,-34.0,M,,*55
$PYRTM,2024,127.754360876690,18.864008286829
$GPGGA,180615.00,3338.5076,N,11900.7552,W,1,10,0.8,8.8,M,-34.0,M,,*55
$PYRTM,2024,127.754372451354,18.864019861493
$GPGGA,180616.00,3338.5074,N,11900.7547,W,1,10,0.8,8.9,M,-34.0,M,,*51
$PYRTM,2024,127.754384032801,18.864031442951
$GPGGA,180617.00,3338.5072,N,11900.7543,W,1,10,0.8,8.5,M,-34.0,M,,*5E
$PYRTM,2024,127.754395611493,18.864043021644
$GPGGA,180618.00,3338.5071,N,11900.7537,W,1,10,0.8,8.6,M,-34.0,M,,*52
$PYRTM,2024,127.754407185301,18.864054595440
$GPGGA,180619.00,3338.5070,N,11900.7532,W,1,10,0.8,8.6,M,-34.0,M,,*57
$PYRTM,2024,127.754418759873,18.864066170012
$GPGGA,180620.00,3338.5068,N,11900.7527,W,1,10,0.8,8.9,M,-34.0,M,,*5F
$PYRTM,2024,127.754430339525,18.864077749664
$GPGGA,180621.00,3338.5065,N,11900.7524,W,1,10,0.8,9.0,M,-34.0,M,,*58
$PYRTM,2024,127.754441910289,18.864089320428
$GPGGA,180622.00,3338.5061,N,11900.7522,W,1,10,0.8,9.0,M,-34.0,M,,*59
$PYRTM,2024,127.754453484699,18.864100894838
$GPGGA,180623.00,3338.5058,N,11900.7518,W,1,10,0.8,9.0,M,-34.0,M,,*5B
$PYRTM,2024,127.754465056019,18.864112466157
$GPGGA,180624.00,3338.5057,N,11900.7513,W,1,10,0.8,9.1,M,-34.0,M,,*59
$PYRTM,2024,127.754476634340,18.864124044491
$GPGGA,180625.00,3338.5054,N,11900.7508,W,1,10,0.8,10.9,M,-34.0,M,,*61
$PYRTM,2024,127.754488203600,18.864135613738
$GPGGA,180626.00,3338.5050,N,11900.7504,W,1,10,0.8,11.0,M,-34.0,M,,*62
$PYRTM,2024,127.754499777847,18.864147187998
$GPGGA,180627.00,3338.5046,N,11900.7500,W,1,10,0.8,10.9,M,-34.0,M,,*68
$PYRTM,2024,127.754511339201,18.864158749340
$GPGGA,180628.00,3338.5044,N,11900.7496,W,1,10,0.8,10.8,M,-34.0,M,,*6A
$PYRTM,2024,127.754522926204,18.864170336343
$GPGGA,180629.00,3338.5043,N,11900.7490,W,1,10,0.8,11.2,M,-34.0,M,,*61
$PYRTM,2024,127.754534500243,18.864181910382
$GPGGA,180630.00,3338.5041,N,11900.7486,W,1,10,0.8,11.9,M,-34.0,M,,*67
$PYRTM,2024,127.754546074954,18.864193485093
$GPGGA,180631.00,3338.5039,N,11900.7481,W,1,10,0.8,11.1,M,-34.0,M,,*66
$PYRTM,2024,127.754556723947,18.864204134097
$GPGGA,180632.00,3338.5038,N,11900.7476,W,1,10,0.8,11.4,M,-34.0,M,,*69
$PYRTM,2024,127.754569789248,18.864217199387
$GPGGA,180633.00,3338.5036,N,11900.7472,W,1,10,0.8,11.3,M,-34.0,M,,*65
$PYRTM,2024,127.754580445394,18.864227855532
$GPGGA,180634.00,3338.5033,N,11900.7467,W,1,10,0.8,10.5,M,-34.0,M,,*64
$PYRTM,2024,127.754591691505,18.864239101655
$GPGGA,180635.00,3338.5032,N,11900.7462,W,1,10,0.8,10.4,M,-34.0,M,,*60
$PYRTM,2024,127.754602787975,18.864250198113
$GPGGA,180636.00,3338.5030,N,11900.7457,W,1,10,0.8,10.5,M,-34.0,M,,*66
$PYRTM,2024,127.754613899294,18.864261309433
$GPGGA,180637.00,3338.5030,N,11900.7451,W,1,10,0.8,13.6,M,-34.0,M,,*61
$PYRTM,2024,127.754625011296,18.864272421435
$GPGGA,180638.00,3338.5029,N,11900.7444,W,1,10,0.8,10.9,M,-34.0,M,,*6E
$PYRTM,2024,127.754636121481,18.864283531620
$GPGGA,180639.00,3338.5027,N,11900.7438,W,1,10,0.8,10.3,M,-34.0,M,,*60
$PYRTM,2024,127.754651154699,18.864298564838
$GPGGA,180640.00,3338.5025,N,11900.7433,W,1,10,0.8,10.3,M,-34.0,M,,*67
$PYRTM,2024,127.754662278125,18.864309688264
$GPGGA,180641.00,3338.5024,N,11900.7428,W,1,10,0.8,9.9,M,-34.0,M,,*5F
$PYRTM,2024,127.754673384919,18.864320795058
$GPGGA,180642.00,3338.5025,N,11900.7421,W,1,10,0.8,8.2,M,-34.0,M,,*5E
$PYRTM,2024,127.754684380197,18.864331790336
$GPGGA,180643.00,3338.5024,N,11900.7415,W,1,10,0.8,8.3,M,-34.0,M,,*58
$PYRTM,2024,127.754700575891,18.864347986030
$GPGGA,180644.00,3338.5021,N,11900.7410,W,1,10,0.8,9.9,M,-34.0,M,,*54
$PYRTM,2024,127.754711686586,18.864359096725
$GPGGA,180645.00,3338.5018,N,11900.7405,W,1,10,0.8,9.3,M,-34.0,M,,*51
$PYRTM,2024,127.754722797882,18.864370208021
$GPGGA,180646.00,3338.5019,N,11900.7399,W,1,10,0.8,7.8,M,-34.0,M,,*54
$PYRTM,2024,127.754733794340,18.864381204479
$GPGGA,180647.00,3338.5020,N,11900.7393,W,1,10,0.8,7.5,M,-34.0,M,,*58
$PYRTM,2024,127.754744906030,18.864392316181
$GPGGA,180648.00,3338.5020,N,11900.7388,W,1,10,0.8,7.4,M,-34.0,M,,*5C
$PYRTM,2024,127.754756375995,18.864403786134
$GPGGA,180649.00,3338.5017,N,11900.7385,W,1,10,0.8,7.9,M,-34.0,M,,*59
$PYRTM,2024,127.754767482153,18.864414892292
$GPGGA,180650.00,3338.5014,N,11900.7383,W,1,10,0.8,7.9,M,-34.0,M,,*54
$PYRTM,2024,127.754778598472,18.864426008611
$GPGGA,180651.00,3338.5013,N,11900.7379,W,1,10,0.8,7.8,M,-34.0,M,,*56
$PYRTM,2024,127.754789709780,18.864437119919
$GPGGA,180652.00,3338.5013,N,11900.7374,W,1,10,0.8,7.7,M,-34.0,M,,*57
$PYRTM,2024,127.754800823495,18.864448233634
$GPGGA,180653.00,3338.5011,N,11900.7368,W,1,10,0.8,7.9,M,-34.0,M,,*57
$PYRTM,2024,127.754811818102,18.864459228241
$GPGGA,180654.00,3338.5009,N,11900.7364,W,1,10,0.8,8.3,M,-34.0,M,,*50
$PYRTM,2024,127.754822927581,18.864470337720
$GPGGA,180655.00,3338.5006,N,11900.7361,W,1,10,0.8,8.4,M,-34.0,M,,*5C
$PYRTM,2024,127.754834284873,18.864481695012
$GPGGA,180656.00,3338.5004,N,11900.7358,W,1,10,0.8,8.0,M,-34.0,M,,*53
$PYRTM,2024,127.754845830891,18.864493241030
$GPGGA,180657.00,3338.5003,N,11900.7354,W,1,10,0.8,7.0,M,-34.0,M,,*56
$PYRTM,2024,127.754857420926,18.864504831065
$GPGGA,180658.00,3338.5002,N,11900.7349,W,1,10,0.8,7.1,M,-34.0,M,,*55
$PYRTM,2024,127.754868979502,18.864516389641
$GPGGA,180659.00,3338.5001,N,11900.7345,W,1,10,0.8,7.4,M,-34.0,M,,*5E
$PYRTM,2024,127.754880566481,18.864527976620
$GPGGA,180700.00,3338.5000,N,11900.7341,W,1,10,0.8,7.6,M,-34.0,M,,*54
$PYRTM,2024,127.754892126771,18.864539536910
$GPGGA,180701.00,3338.4998,N,11900.7337,W,1,10,0.8,7.6,M,-34.0,M,,*5D
$PYRTM,2024,127.754903717789,18.864551127928
$GPGGA,180702.00,3338.4996,N,11900.7331,W,1,10,0.8,7.9,M,-34.0,M,,*59
$PYRTM,2024,127.754915278113,18.864562688252
$GPGGA,180703.00,3338.4995,N,11900.7327,W,1,10,0.8,8.0,M,-34.0,M,,*5A
$PYRTM,2024,127.754926863785,18.864574273924
$GPGGA,180704.00,3338.4994,N,11900.7323,W,1,10,0.8,7.9,M,-34.0,M,,*5E
$PYRTM,2024,127.754938426319,18.864585836458
$GPGGA,180705.00,3338.4992,N,11900.7319,W,1,10,0.8,7.5,M,-34.0,M,,*5C
$PYRTM,2024,127.754950007755,18.864597417905
$GPGGA,180706.00,3338.4990,N,11900.7312,W,1,10,0.8,8.1,M,-34.0,M,,*5D
$PYRTM,2024,127.754961572697,18.864608982836
$GPGGA,180707.00,3338.4988,N,11900.7305,W,1,10,0.8,7.6,M,-34.0,M,,*5B
$PYRTM,2024,127.754973160000,18.864620570139
$GPGGA,180708.00,3338.4986,N,11900.7299,W,1,10,0.8,7.4,M,-34.0,M,,*5C
$PYRTM,2024,127.754985891736,18.864633301875
$GPGGA,180709.00,3338.4984,N,11900.7296,W,1,10,0.8,7.5,M,-34.0,M,,*51
$PYRTM,2024,127.754997798576,18.864645208727
$GPGGA,180710.00,3338.4981,N,11900.7294,W,1,10,0.8,7.4,M,-34.0,M,,*5F
$PYRTM,2024,127.755008910104,18.864656320243
$GPGGA,180711.00,3338.4978,N,11900.7290,W,1,10,0.8,7.4,M,-34.0,M,,*5C
$PYRTM,2024,127.755020499190,18.864667909329
$GPGGA,180712.00,3338.4977,N,11900.7284,W,1,10,0.8,8.8,M,-34.0,M,,*56
$PYRTM,2024,127.755032057188,18.864679467326
$GPGGA,180713.00,3338.4977,N,11900.7279,W,1,10,0.8,8.6,M,-34.0,M,,*5B
$PYRTM,2024,127.755043647326,18.864691057465
$GPGGA,180714.00,3338.4976,N,11900.7274,W,1,10,0.8,8.9,M,-34.0,M,,*5F
$PYRTM,2024,127.755055206539,18.864702616678
$GPGGA,180715.00,3338.4973,N,11900.7271,W,1,10,0.8,8.5,M,-34.0,M,,*52
$PYRTM,2024,127.755066789144,18.864714199282
$GPGGA,180716.00,3338.4968,N,11900.7268,W,1,10,0.8,9.8,M,-34.0,M,,*5F
$PYRTM,2024,127.755078473137,18.864725883275
$GPGGA,180717.00,3338.4966,N,11900.7263,W,1,10,0.8,11.1,M,-34.0,M,,*6B
$PYRTM,2024,127.755089942269,18.864737352407
$GPGGA,180718.00,3338.4967,N,11900.7255,W,1,10,0.8,10.6,M,-34.0,M,,*66
$PYRTM,2024,127.755101502697,18.864748912836
$GPGGA,180719.00,3338.4967,N,11900.7250,W,1,10,0.8,10.4,M,-34.0,M,,*60
$PYRTM,2024,127.755113092141,18.864760502280
$GPGGA,180720.00,3338.4963,N,11900.7247,W,1,10,0.8,9.7,M,-34.0,M,,*53
$PYRTM,2024,127.755124650995,18.864772061134
$GPGGA,180721.00,3338.4957,N,11900.7245,W,1,10,0.8,9.6,M,-34.0,M,,*56
$PYRTM,2024,127.755136234039,18.864783644178
$GPGGA,180722.00,3338.4953,N,11900.7242,W,1,10,0.8,9.7,M,-34.0,M,,*57
$PYRTM,2024,127.755147797674,18.864795207812
$GPGGA,180723.00,3338.4954,N,11900.7236,W,1,10,0.8,9.3,M,-34.0,M,,*56
$PYRTM,2024,127.755159387442,18.864806797593
$GPGGA,180724.00,3338.4954,N,11900.7230,W,1,10,0.8,9.4,M,-34.0,M,,*50
$PYRTM,2024,127.755170947037,18.864818357176
$GPGGA,180725.00,3338.4952,N,11900.7225,W,1,10,0.8,9.5,M,-34.0,M,,*52
$PYRTM,2024,127.755182638148,18.864830048287
$GPGGA,180726.00,3338.4947,N,11900.7222,W,1,10,0.8,10.9,M,-34.0,M,,*66
$PYRTM,2024,127.755194213252,18.864841623391
$GPGGA,180727.00,3338.4945,N,11900.7218,W,1,10,0.8,10.8,M,-34.0,M,,*6D
$PYRTM,2024,127.755205683125,18.864853093264
$GPGGA,180728.00,3338.4946,N,11900.7212,W,1,10,0.8,9.1,M,-34.0,M,,*5A
$PYRTM,2024,127.755217244144,18.864864654282
$GPGGA,180729.00,3338.4947,N,11900.7206,W,1,10,0.8,8.9,M,-34.0,M,,*56
$PYRTM,2024,127.755228831632,18.864876241771
$GPGGA,180730.00,3338.4946,N,11900.7203,W,1,10,0.8,8.9,M,-34.0,M,,*5A
$PYRTM,2024,127.755240391701,18.864887801840
$GPGGA,180731.00,3338.4943,N,11900.7201,W,1,10,0.8,8.5,M,-34.0,M,,*50
$PYRTM,2024,127.755252095891,18.864899506030
$GPGGA,180732.00,3338.4939,N,11900.7200,W,1,10,0.8,8.8,M,-34.0,M,,*52
$PYRTM,2024,127.755263540243,18.864910950394
$GPGGA,180733.00,3338.4938,N,11900.7193,W,1,10,0.8,9.8,M,-34.0,M,,*5A
$PYRTM,2024,127.755275123588,18.864922533727
$GPGGA,180734.00,3338.4939,N,11900.7186,W,1,10,0.8,7.3,M,-34.0,M,,*5D
$PYRTM,2024,127.755286689294,18.864934099433
$GPGGA,180735.00,3338.4938,N,11900.7180,W,1,10,0.8,7.2,M,-34.0,M,,*5A
$PYRTM,2024,127.755298278843,18.864945688981
$GPGGA,180736.00,3338.4935,N,11900.7175,W,1,10,0.8,7.3,M,-34.0,M,,*5F
$PYRTM,2024,127.755309836563,18.864957246701
$GPGGA,180737.00,3338.4931,N,11900.7171,W,1,10,0.8,7.3,M,-34.0,M,,*5E
$PYRTM,2024,127.755321425660,18.864968835799
$GPGGA,180738.00,3338.4929,N,11900.7165,W,1,10,0.8,7.6,M,-34.0,M,,*58
$PYRTM,2024,127.755334607060,18.864982017211
$GPGGA,180739.00,3338.4929,N,11900.7159,W,1,10,0.8,7.4,M,-34.0,M,,*54
$PYRTM,2024,127.755347239086,18.864994649225
$GPGGA,180740.00,3338.4929,N,11900.7154,W,1,10,0.8,7.1,M,-34.0,M,,*52
$PYRTM,2024,127.755356133669,18.865003543808
$GPGGA,180741.00,3338.4926,N,11900.7150,W,1,10,0.8,6.6,M,-34.0,M,,*5E
$PYRTM,2024,127.755367721620,18.865015131759
$GPGGA,180742.00,3338.4923,N,11900.7147,W,1,10,0.8,6.7,M,-34.0,M,,*5F
$PYRTM,2024,127.755379283287,18.865026693426
$GPGGA,180743.00,3338.4921,N,11900.7142,W,1,10,0.8,7.1,M,-34.0,M,,*5E
$PYRTM,2024,127.755390869873,18.865038280012
$GPGGA,180744.00,3338.4921,N,11900.7136,W,1,10,0.8,8.9,M,-34.0,M,,*5D
$PYRTM,2024,127.755402429491,18.865049839641
$GPGGA,180745.00,3338.4922,N,11900.7130,W,1,10,0.8,8.7,M,-34.0,M,,*57
$PYRTM,2024,127.755414019687,18.865061429826
$GPGGA,180746.00,3338.4919,N,11900.7125,W,1,10,0.8,8.6,M,-34.0,M,,*59
$PYRTM,2024,127.755425577431,18.865072987569
$GPGGA,180747.00,3338.4914,N,11900.7123,W,1,10,0.8,8.9,M,-34.0,M,,*5C
$PYRTM,2024,127.755437167049,18.865084577199
$GPGGA,180748.00,3338.4911,N,11900.7121,W,1,10,0.8,8.8,M,-34.0,M,,*55
$PYRTM,2024,127.755448725509,18.865096135648
$GPGGA,180749.00,3338.4910,N,11900.7117,W,1,10,0.8,8.3,M,-34.0,M,,*5B
$PYRTM,2024,127.755460314363,18.865107724502
$GPGGA,180750.00,3338.4911,N,11900.7113,W,1,10,0.8,8.5,M,-34.0,M,,*50
$PYRTM,2024,127.755471875382,18.865119285521
$GPGGA,180751.00,3338.4909,N,11900.7109,W,1,10,0.8,8.9,M,-34.0,M,,*5F
$PYRTM,2024,127.755483458148,18.865130868287
$GPGGA,180752.00,3338.4904,N,11900.7106,W,1,10,0.8,8.8,M,-34.0,M,,*5F
$PYRTM,2024,127.755495023634,18.865142433773
$GPGGA,180753.00,3338.4900,N,11900.7103,W,1,10,0.8,9.0,M,-34.0,M,,*56
$PYRTM,2024,127.755506607512,18.865154017650
$GPGGA,180754.00,3338.4900,N,11900.7098,W,1,10,0.8,9.2,M,-34.0,M,,*50
$PYRTM,2024,127.755518171296,18.865165581435
$GPGGA,180755.00,3338.4902,N,11900.7091,W,1,10,0.8,9.8,M,-34.0,M,,*50
$PYRTM,2024,127.755529759144,18.865177169282
$GPGGA,180756.00,3338.4901,N,11900.7085,W,1,10,0.8,9.6,M,-34.0,M,,*5B
$PYRTM,2024,127.755541318843,18.865188728981
$GPGGA,180757.00,3338.4898,N,11900.7081,W,1,10,0.8,9.3,M,-34.0,M,,*5A
$PYRTM,2024,127.755552907257,18.865200317396
$GPGGA,180758.00,3338.4894,N,11900.7077,W,1,10,0.8,9.0,M,-34.0,M,,*53
$PYRTM,2024,127.755564467546,18.865211877674
$GPGGA,180759.00,3338.4892,N,11900.7073,W,1,10,0.8,9.0,M,-34.0,M,,*50
$PYRTM,2024,127.755576050023,18.865223460162
$GPGGA,180800.00,3338.4892,N,11900.7067,W,1,10,0.8,8.8,M,-34.0,M,,*5F
$PYRTM,2024,127.755587614954,18.865235025093
$GPGGA,180801.00,3338.4892,N,11900.7063,W,1,10,0.8,9.1,M,-34.0,M,,*52
$PYRTM,2024,127.755599203495,18.865246613646
$GPGGA,180802.00,3338.4888,N,11900.7059,W,1,10,0.8,9.0,M,-34.0,M,,*52
$PYRTM,2024,127.755610762975,18.865258173113
$GPGGA,180803.00,3338.4885,N,11900.7055,W,1,10,0.8,9.1,M,-34.0,M,,*53
$PYRTM,2024,127.755622352523,18.865269762662
$GPGGA,180804.00,3338.4882,N,11900.7050,W,1,10,0.8,9.2,M,-34.0,M,,*55
$PYRTM,2024,127.755633911331,18.865281321470
$GPGGA,180805.00,3338.4881,N,11900.7045,W,1,10,0.8,8.5,M,-34.0,M,,*55
$PYRTM,2024,127.755645499606,18.865292909745
$GPGGA,180806.00,3338.4882,N,11900.7038,W,1,10,0.8,8.4,M,-34.0,M,,*5E
$PYRTM,2024,127.755657063403,18.865304473542
$GPGGA,180807.00,3338.4882,N,11900.7032,W,1,10,0.8,8.2,M,-34.0,M,,*53
$PYRTM,2024,127.755668650197,18.865316060336
$GPGGA,180808.00,3338.4877,N,11900.7028,W,1,10,0.8,7.1,M,-34.0,M,,*51
$PYRTM,2024,127.755681369606,18.865328779745
$GPGGA,180809.00,3338.4871,N,11900.7025,W,1,10,0.8,7.2,M,-34.0,M,,*58
$PYRTM,2024,127.755694464468,18.865341874606
$GPGGA,180810.00,3338.4869,N,11900.7021,W,1,10,0.8,7.5,M,-34.0,M,,*5A
$PYRTM,2024,127.755703357674,18.865350767812
$GPGGA,180811.00,3338.4871,N,11900.7014,W,1,10,0.8,8.6,M,-34.0,M,,*58
$PYRTM,2024,127.755714944664,18.865362354803
$GPGGA,180812.00,3338.4872,N,11900.7008,W,1,10,0.8,8.6,M,-34.0,M,,*55
$PYRTM,2024,127.755726504711,18.865373914850
$GPGGA,180813.00,3338.4870,N,11900.7003,W,1,10,0.8,8.8,M,-34.0,M,,*53
$PYRTM,2024,127.755738093796,18.865385503935
$GPGGA,180814.00,3338.4866,N,11900.7001,W,1,10,0.8,6.6,M,-34.0,M,,*51
$PYRTM,2024,127.755749653843,18.865397063981
$GPGGA,180815.00,3338.4863,N,11900.6998,W,1,10,0.8,6.6,M,-34.0,M,,*5D
$PYRTM,2024,127.755761236887,18.865408647025
$GPGGA,180816.00,3338.4863,N,11900.6993,W,1,10,0.8,10.2,M,-34.0,M,,*66
$PYRTM,2024,127.755772801701,18.865420211840
$GPGGA,180817.00,3338.4864,N,11900.6985,W,1,10,0.8,8.0,M,-34.0,M,,*5C
$PYRTM,2024,127.755784389062,18.865431799201
$GPGGA,180818.00,3338.4863,N,11900.6978,W,1,10,0.8,8.1,M,-34.0,M,,*57
$PYRTM,2024,127.755795949722,18.865443359861
$GPGGA,180819.00,3338.4859,N,11900.6974,W,1,10,0.8,9.6,M,-34.0,M,,*55
$PYRTM,2024,127.755807539352,18.865454949491
$GPGGA,180820.00,3338.4855,N,11900.6972,W,1,10,0.8,9.7,M,-34.0,M,,*54
$PYRTM,2024,127.755819098021,18.865466508160
$GPGGA,180821.00,3338.4854,N,11900.6967,W,1,10,0.8,9.6,M,-34.0,M,,*51
$PYRTM,2024,127.755830686065,18.865478096204
$GPGGA,180822.00,3338.4855,N,11900.6961,W,1,10,0.8,10.0,M,-34.0,M,,*6B
$PYRTM,2024,127.755842246968,18.865489657106
$GPGGA,180823.00,3338.4855,N,11900.6956,W,1,10,0.8,10.0,M,-34.0,M,,*6E
$PYRTM,2024,127.755853834306,18.865501244444
$GPGGA,180824.00,3338.4852,N,11900.6953,W,1,10,0.8,9.7,M,-34.0,M,,*54
$PYRTM,2024,127.755865395521,18.865512805660
$GPGGA,180825.00,3338.4847,N,11900.6951,W,1,10,0.8,9.7,M,-34.0,M,,*53
$PYRTM,2024,127.755877087789,18.865524497940
$GPGGA,180826.00,3338.4844,N,11900.6947,W,1,10,0.8,10.0,M,-34.0,M,,*6B
$PYRTM,2024,127.755888544583,18.865535954722
$GPGGA,180827.00,3338.4843,N,11900.6941,W,1,10,0.8,10.8,M,-34.0,M,,*63
$PYRTM,2024,127.755900131007,18.865547541146
$GPGGA,180828.00,3338.4843,N,11900.6935,W,1,10,0.8,8.4,M,-34.0,M,,*5A
$PYRTM,2024,127.755912163090,18.865559573229
$GPGGA,180829.00,3338.4842,N,11900.6930,W,1,10,0.8,8.4,M,-34.0,M,,*5F
$PYRTM,2024,127.755923275891,18.865570686030
$GPGGA,180830.00,3338.4837,N,11900.6926,W,1,10,0.8,6.5,M,-34.0,M,,*5D
$PYRTM,2024,127.755934839525,18.865582249664
$GPGGA,180831.00,3338.4832,N,11900.6923,W,1,10,0.8,6.8,M,-34.0,M,,*51
$PYRTM,2024,127.755946427824,18.865593837963
$GPGGA,180832.00,3338.4830,N,11900.6918,W,1,10,0.8,7.9,M,-34.0,M,,*58
$PYRTM,2024,127.755957986921,18.865605397060
$GPGGA,180833.00,3338.4831,N,11900.6914,W,1,10,0.8,7.0,M,-34.0,M,,*5D
$PYRTM,2024,127.755969576042,18.865616986192
$GPGGA,180834.00,3338.4831,N,11900.6909,W,1,10,0.8,7.3,M,-34.0,M,,*55
$PYRTM,2024,127.755981137419,18.865628547569
$GPGGA,180835.00,3338.4829,N,11900.6905,W,1,10,0.8,7.5,M,-34.0,M,,*57
$PYRTM,2024,127.755992723542,18.865640133681
$GPGGA,180836.00,3338.4825,N,11900.6902,W,1,10,0.8,8.3,M,-34.0,M,,*56
$PYRTM,2024,127.756003358322,18.865650768472
$GPGGA,180837.00,3338.4823,N,11900.6897,W,1,10,0.8,8.2,M,-34.0,M,,*5D
$PYRTM,2024,127.756016465718,18.865663875856
$GPGGA,180838.00,3338.4825,N,11900.6892,W,1,10,0.8,7.8,M,-34.0,M,,*54
$PYRTM,2024,127.756027099456,18.865674509595
$GPGGA,180839.00,3338.4826,N,11900.6887,W,1,10,0.8,7.6,M,-34.0,M,,*5C
