$PYRTM,2024,124.583342341146,15.692989751285
$GPGGA,135959.00,3531.5476,N,12125.6903,W,1,10,1.0,9.8,M,-31.5,M,,*5A
$PYRTM,2024,124.583353901354,15.693001311493
$GPGGA,140000.00,3531.5469,N,12125.6877,W,1,10,1.0,7.6,M,-31.5,M,,*51
$PYRTM,2024,124.583365489120,15.693012899259
$GPGGA,140001.00,3531.5461,N,12125.6851,W,1,10,1.0,8.0,M,-31.5,M,,*55
$PYRTM,2024,124.583377049988,15.693024460127
$GPGGA,140002.00,3531.5454,N,12125.6825,W,1,10,1.0,9.9,M,-31.5,M,,*5B
$PYRTM,2024,124.583388637211,15.693036047350
$GPGGA,140003.00,3531.5447,N,12125.6797,W,1,10,1.0,10.1,M,-31.5,M,,*6E
$PYRTM,2024,124.583400200220,15.693047610359
$GPGGA,140004.00,3531.5439,N,12125.6769,W,1,10,1.0,10.5,M,-31.5,M,,*65
$PYRTM,2024,124.583411787465,15.693059197604
$GPGGA,140005.00,3531.5431,N,12125.6743,W,1,10,1.0,13.9,M,-31.5,M,,*6B
$PYRTM,2024,124.583423346458,15.693070756597
$GPGGA,140006.00,3531.5423,N,12125.6716,W,1,10,1.0,14.0,M,-31.5,M,,*65
$PYRTM,2024,124.583434937454,15.693082347593
$GPGGA,140007.00,3531.5416,N,12125.6689,W,1,10,1.0,13.6,M,-31.5,M,,*64
$PYRTM,2024,124.583446497303,15.693093907454
$GPGGA,140008.00,3531.5409,N,12125.6662,W,1,10,1.0,15.6,M,-31.5,M,,*66
$PYRTM,2024,124.583458081840,15.693105491991
$GPGGA,140009.00,3531.5402,N,12125.6635,W,1,10,1.0,15.9,M,-31.5,M,,*61
$PYRTM,2024,124.583469644745,15.693117054896
$GPGGA,140010.00,3531.5394,N,12125.6610,W,1,10,1.0,16.0,M,-31.5,M,,*6C
$PYRTM,2024,124.583481230394,15.693128640532
$GPGGA,140011.00,3531.5385,N,12125.6586,W,1,10,1.0,18.3,M,-31.5,M,,*6C
$PYRTM,2024,124.583492791678,15.693140201817
$GPGGA,140012.00,3531.5376,N,12125.6561,W,1,10,1.0,14.3,M,-31.5,M,,*66
$PYRTM,2024,124.583504373449,15.693151783588
$GPGGA,140013.00,3531.5369,N,12125.6535,W,1,10,1.0,12.5,M,-31.5,M,,*68
$PYRTM,2024,124.583516418993,15.693163829144
$GPGGA,140014.00,3531.5363,N,12125.6509,W,1,10,1.0,16.0,M,-31.5,M,,*6B
$PYRTM,2024,124.583527529444,15.693174939583
$GPGGA,140015.00,3531.5357,N,12125.6484,W,1,10,1.0,14.0,M,-31.5,M,,*6B
$PYRTM,2024,124.583539087963,15.693186498102
$GPGGA,140016.00,3531.5349,N,12125.6459,W,1,10,1.0,13.8,M,-31.5,M,,*68
$PYRTM,2024,124.583550675637,15.693198085775
$GPGGA,140017.00,3531.5340,N,12125.6434,W,1,10,1.0,15.0,M,-31.5,M,,*65
$PYRTM,2024,124.583562237731,15.693209647870
$GPGGA,140018.00,3531.5332,N,12125.6408,W,1,10,1.0,13.1,M,-31.5,M,,*67
$PYRTM,2024,124.583573824051,15.693221234190
$GPGGA,140019.00,3531.5325,N,12125.6381,W,1,10,1.0,12.8,M,-31.5,M,,*6E
$PYRTM,2024,124.583585386898,15.693232797037
$GPGGA,140020.00,3531.5319,N,12125.6355,W,1,10,1.0,12.1,M,-31.5,M,,*6B
$PYRTM,2024,124.583596972373,15.693244382512
$GPGGA,140021.00,3531.5312,N,12125.6329,W,1,10,1.0,13.0,M,-31.5,M,,*6A
$PYRTM,2024,124.583608535347,15.693255945498
$GPGGA,140022.00,3531.5304,N,12125.6302,W,1,10,1.0,12.5,M,-31.5,M,,*63
$PYRTM,2024,124.583620122685,15.693267532836
$GPGGA,140023.00,3531.5296,N,12125.6275,W,1,10,1.0,12.4,M,-31.5,M,,*68
$PYRTM,2024,124.583632837396,15.693280247535
$GPGGA,140024.00,3531.5290,N,12125.6248,W,1,10,1.0,10.2,M,-31.5,M,,*63
$PYRTM,2024,124.583645933600,15.693293343738
$GPGGA,140025.00,3531.5285,N,12125.6223,W,1,10,1.0,11.8,M,-31.5,M,,*60
$PYRTM,2024,124.583654829178,15.693302239317
$GPGGA,140026.00,3531.5279,N,12125.6197,W,1,10,1.0,10.7,M,-31.5,M,,*62
$PYRTM,2024,124.583666417627,15.693313827766
$GPGGA,140027.00,3531.5271,N,12125.6171,W,1,10,1.0,10.0,M,-31.5,M,,*64
$PYRTM,2024,124.583677979063,15.693325389201
$GPGGA,140028.00,3531.5262,N,12125.6144,W,1,10,1.0,8.5,M,-31.5,M,,*53
$PYRTM,2024,124.583689568437,15.693336978576
$GPGGA,140029.00,3531.5255,N,12125.6118,W,1,10,1.0,10.2,M,-31.5,M,,*61
$PYRTM,2024,124.583701127315,15.693348537454
$GPGGA,140030.00,3531.5249,N,12125.6092,W,1,10,1.0,11.0,M,-31.5,M,,*64
$PYRTM,2024,124.583712716620,15.693360126759
$GPGGA,140031.00,3531.5243,N,12125.6065,W,1,10,1.0,11.5,M,-31.5,M,,*62
$PYRTM,2024,124.583724274884,15.693371685023
$GPGGA,140032.00,3531.5236,N,12125.6039,W,1,10,1.0,11.1,M,-31.5,M,,*6E
$PYRTM,2024,124.583735856690,15.693383266829
$GPGGA,140033.00,3531.5229,N,12125.6014,W,1,10,1.0,9.3,M,-31.5,M,,*55
$PYRTM,2024,124.583747423877,15.693394834016
$GPGGA,140034.00,3531.5222,N,12125.5988,W,1,10,1.0,11.8,M,-31.5,M,,*64
$PYRTM,2024,124.583759009907,15.693406420046
$GPGGA,140035.00,3531.5213,N,12125.5963,W,1,10,1.0,9.9,M,-31.5,M,,*5A
$PYRTM,2024,124.583770570625,15.693417980764
$GPGGA,140036.00,3531.5206,N,12125.5937,W,1,10,1.0,9.1,M,-31.5,M,,*54
$PYRTM,2024,124.583782157998,15.693429568137
$GPGGA,140037.00,3531.5198,N,12125.5912,W,1,10,1.0,9.8,M,-31.5,M,,*5F
$PYRTM,2024,124.583793720023,15.693441130162
$GPGGA,140038.00,3531.5190,N,12125.5887,W,1,10,1.0,6.6,M,-31.5,M,,*54
$PYRTM,2024,124.583805307535,15.693452717674
$GPGGA,140039.00,3531.5183,N,12125.5861,W,1,10,1.0,8.6,M,-31.5,M,,*51
$PYRTM,2024,124.583816869074,15.693464279225
$GPGGA,140040.00,3531.5177,N,12125.5834,W,1,10,1.0,9.4,M,-31.5,M,,*57
$PYRTM,2024,124.583828456447,15.693475866586
$GPGGA,140041.00,3531.5172,N,12125.5807,W,1,10,1.0,8.8,M,-31.5,M,,*5E
$PYRTM,2024,124.583840018368,15.693487428507
$GPGGA,140042.00,3531.5165,N,12125.5778,W,1,10,1.0,8.4,M,-31.5,M,,*50
$PYRTM,2024,124.583851606632,15.693499016771
$GPGGA,140043.00,3531.5157,N,12125.5751,W,1,10,1.0,9.2,M,-31.5,M,,*5C
$PYRTM,2024,124.583863165046,15.693510575185
$GPGGA,140044.00,3531.5149,N,12125.5724,W,1,10,1.0,11.1,M,-31.5,M,,*6C
$PYRTM,2024,124.583874754595,15.693522164734
$GPGGA,140045.00,3531.5141,N,12125.5698,W,1,10,1.0,10.5,M,-31.5,M,,*66
$PYRTM,2024,124.583886312234,15.693533722373
$GPGGA,140046.00,3531.5133,N,12125.5670,W,1,10,1.0,9.1,M,-31.5,M,,*5A
$PYRTM,2024,124.583897898773,15.693545308912
$GPGGA,140047.00,3531.5126,N,12125.5643,W,1,10,1.0,10.3,M,-31.5,M,,*65
$PYRTM,2024,124.583909459340,15.693556869479
$GPGGA,140048.00,3531.5119,N,12125.5617,W,1,10,1.0,9.4,M,-31.5,M,,*58
$PYRTM,2024,124.583921047396,15.693568457535
$GPGGA,140049.00,3531.5111,N,12125.5592,W,1,10,1.0,10.5,M,-31.5,M,,*66
$PYRTM,2024,124.583932608148,15.693580018287
$GPGGA,140050.00,3531.5103,N,12125.5567,W,1,10,1.0,11.1,M,-31.5,M,,*62
$PYRTM,2024,124.583944198738,15.693591608877
$GPGGA,140051.00,3531.5096,N,12125.5542,W,1,10,1.0,10.5,M,-31.5,M,,*6C
$PYRTM,2024,124.583955759792,15.693603169931
$GPGGA,140052.00,3531.5090,N,12125.5515,W,1,10,1.0,8.9,M,-31.5,M,,*5E
$PYRTM,2024,124.583967344653,15.693614754792
$GPGGA,140053.00,3531.5085,N,12125.5489,W,1,10,1.0,8.8,M,-31.5,M,,*5E
$PYRTM,2024,124.583980061678,15.693627471817
$GPGGA,140054.00,3531.5079,N,12125.5461,W,1,10,1.0,13.2,M,-31.5,M,,*6C
$PYRTM,2024,124.583993147847,15.693640557986
$GPGGA,140055.00,3531.5071,N,12125.5434,W,1,10,1.0,15.0,M,-31.5,M,,*61
$PYRTM,2024,124.584002054745,15.693649464896
$GPGGA,140056.00,3531.5064,N,12125.5407,W,1,10,1.0,11.0,M,-31.5,M,,*62
$PYRTM,2024,124.584013644502,15.693661054641
$GPGGA,140057.00,3531.5057,N,12125.5381,W,1,10,1.0,12.5,M,-31.5,M,,*6C
$PYRTM,2024,124.584025203831,15.693672613970
$GPGGA,140058.00,3531.5050,N,12125.5354,W,1,10,1.0,14.9,M,-31.5,M,,*66
$PYRTM,2024,124.584036792766,15.693684202905
$GPGGA,140059.00,3531.5043,N,12125.5328,W,1,10,1.0,12.1,M,-31.5,M,,*60
$PYRTM,2024,124.584048351076,15.693695761215
$GPGGA,140100.00,3531.5035,N,12125.5302,W,1,10,1.0,11.0,M,-31.5,M,,*66
$PYRTM,2024,124.584059941921,15.693707352060
$GPGGA,140101.00,3531.5027,N,12125.5277,W,1,10,1.0,11.8,M,-31.5,M,,*6F
$PYRTM,2024,124.584071500174,15.693718910324
$GPGGA,140102.00,3531.5019,N,12125.5252,W,1,10,1.0,12.3,M,-31.5,M,,*6E
$PYRTM,2024,124.584083086736,15.693730496875
$GPGGA,140103.00,3531.5012,N,12125.5226,W,1,10,1.0,11.8,M,-31.5,M,,*6F
$PYRTM,2024,124.584095123854,15.693742533993
$GPGGA,140104.00,3531.5004,N,12125.5200,W,1,10,1.0,9.9,M,-31.5,M,,*53
$PYRTM,2024,124.584106234850,15.693753644988
$GPGGA,140105.00,3531.4997,N,12125.5172,W,1,10,1.0,10.5,M,-31.5,M,,*62
$PYRTM,2024,124.584117797685,15.693765207824
$GPGGA,140106.00,3531.4990,N,12125.5142,W,1,10,1.0,13.6,M,-31.5,M,,*65
$PYRTM,2024,124.584129384109,15.693776794248
$GPGGA,140107.00,3531.4983,N,12125.5114,W,1,10,1.0,12.9,M,-31.5,M,,*6B
$PYRTM,2024,124.584140943692,15.693788353843
$GPGGA,140108.00,3531.4975,N,12125.5086,W,1,10,1.0,13.3,M,-31.5,M,,*6C
$PYRTM,2024,124.584152531366,15.693799941505
$GPGGA,140109.00,3531.4965,N,12125.5061,W,1,10,1.0,12.3,M,-31.5,M,,*64
$PYRTM,2024,124.584164093322,15.693811503461
$GPGGA,140110.00,3531.4954,N,12125.5036,W,1,10,1.0,11.9,M,-31.5,M,,*65
$PYRTM,2024,124.584175696759,15.693823106898
$GPGGA,140111.00,3531.4945,N,12125.5011,W,1,10,1.0,12.9,M,-31.5,M,,*62
$PYRTM,2024,124.584187240961,15.693834651100
$GPGGA,140112.00,3531.4938,N,12125.4984,W,1,10,1.0,14.6,M,-31.5,M,,*66
$PYRTM,2024,124.584198842697,15.693846252836
$GPGGA,140113.00,3531.4932,N,12125.4958,W,1,10,1.0,12.2,M,-31.5,M,,*6E
$PYRTM,2024,124.584210389456,15.693857799595
$GPGGA,140114.00,3531.4926,N,12125.4932,W,1,10,1.0,12.6,M,-31.5,M,,*64
$PYRTM,2024,124.584220012083,15.693867422222
$GPGGA,140115.00,3531.4919,N,12125.4905,W,1,10,1.0,13.1,M,-31.5,M,,*6B
$PYRTM,2024,124.584233088021,15.693880498160
$GPGGA,140116.00,3531.4913,N,12125.4878,W,1,10,1.0,12.9,M,-31.5,M,,*60
$PYRTM,2024,124.584243723183,15.693891133322
$GPGGA,140117.00,3531.4906,N,12125.4852,W,1,10,1.0,12.4,M,-31.5,M,,*60
$PYRTM,2024,124.584254835880,15.693902246019
$GPGGA,140118.00,3531.4899,N,12125.4825,W,1,10,1.0,11.0,M,-31.5,M,,*6F
$PYRTM,2024,124.584265946794,15.693913356933
$GPGGA,140119.00,3531.4891,N,12125.4798,W,1,10,1.0,11.7,M,-31.5,M,,*68
$PYRTM,2024,124.584277056470,15.693924466609
$GPGGA,140120.00,3531.4883,N,12125.4771,W,1,10,1.0,13.7,M,-31.5,M,,*64
$PYRTM,2024,124.584288168333,15.693935578472
$GPGGA,140121.00,3531.4875,N,12125.4744,W,1,10,1.0,14.3,M,-31.5,M,,*69
$PYRTM,2024,124.584299393762,15.693946803900
$GPGGA,140122.00,3531.4868,N,12125.4718,W,1,10,1.0,15.1,M,-31.5,M,,*6C
$PYRTM,2024,124.584310505035,15.693957915174
$GPGGA,140123.00,3531.4861,N,12125.4693,W,1,10,1.0,16.0,M,-31.5,M,,*64
$PYRTM,2024,124.584321615810,15.693969025949
$GPGGA,140124.00,3531.4854,N,12125.4668,W,1,10,1.0,14.5,M,-31.5,M,,*66
$PYRTM,2024,124.584337137373,15.693984547512
$GPGGA,140125.00,3531.4847,N,12125.4641,W,1,10,1.0,11.4,M,-31.5,M,,*6A
$PYRTM,2024,124.584348244028,15.693995654167
$GPGGA,140126.00,3531.4839,N,12125.4615,W,1,10,1.0,11.5,M,-31.5,M,,*60
$PYRTM,2024,124.584359826898,15.694007237037
$GPGGA,140127.00,3531.4831,N,12125.4589,W,1,10,1.0,10.7,M,-31.5,M,,*6C
$PYRTM,2024,124.584371397836,15.694018807975
$GPGGA,140128.00,3531.4823,N,12125.4563,W,1,10,1.0,10.7,M,-31.5,M,,*64
$PYRTM,2024,124.584382975637,15.694030385775
$GPGGA,140129.00,3531.4817,N,12125.4536,W,1,10,1.0,8.3,M,-31.5,M,,*5F
$PYRTM,2024,124.584394547072,15.694041957211
$GPGGA,140130.00,3531.4808,N,12125.4510,W,1,10,1.0,8.7,M,-31.5,M,,*59
$PYRTM,2024,124.584406121053,15.694053531192
$GPGGA,140131.00,3531.4799,N,12125.4485,W,1,10,1.0,9.4,M,-31.5,M,,*50
$PYRTM,2024,124.584417695035,15.694065105185
$GPGGA,140132.00,3531.4790,N,12125.4460,W,1,10,1.0,8.7,M,-31.5,M,,*53
$PYRTM,2024,124.584429271088,15.694076681227
$GPGGA,140133.00,3531.4783,N,12125.4434,W,1,10,1.0,10.1,M,-31.5,M,,*6E
$PYRTM,2024,124.584440842975,15.694088253113
$GPGGA,140134.00,3531.4778,N,12125.4408,W,1,10,1.0,8.7,M,-31.5,M,,*5D
$PYRTM,2024,124.584452417187,15.694099827338
$GPGGA,140135.00,3531.4772,N,12125.4382,W,1,10,1.0,9.2,M,-31.5,M,,*57
$PYRTM,2024,124.584463991875,15.694111402014
$GPGGA,140136.00,3531.4765,N,12125.4358,W,1,10,1.0,8.0,M,-31.5,M,,*56
$PYRTM,2024,124.584475568148,15.694122978287
$GPGGA,140137.00,3531.4756,N,12125.4333,W,1,10,1.0,8.8,M,-31.5,M,,*52
$PYRTM,2024,124.584487139502,15.694134549641
$GPGGA,140138.00,3531.4746,N,12125.4307,W,1,10,1.0,8.8,M,-31.5,M,,*5B
$PYRTM,2024,124.584498730336,15.694146140475
$GPGGA,140139.00,3531.4738,N,12125.4280,W,1,10,1.0,8.4,M,-31.5,M,,*51
$PYRTM,2024,124.584510287350,15.694157697488
$GPGGA,140140.00,3531.4731,N,12125.4253,W,1,10,1.0,8.4,M,-31.5,M,,*58
$PYRTM,2024,124.584521876389,15.694169286528
$GPGGA,140141.00,3531.4725,N,12125.4227,W,1,10,1.0,9.3,M,-31.5,M,,*59
$PYRTM,2024,124.584533434861,15.694180845000
$GPGGA,140142.00,3531.4719,N,12125.4201,W,1,10,1.0,11.5,M,-31.5,M,,*6E
$PYRTM,2024,124.584544996470,15.694192406609
$GPGGA,140143.00,3531.4711,N,12125.4174,W,1,10,1.0,11.7,M,-31.5,M,,*64
$PYRTM,2024,124.584556583669,15.694203993808
$GPGGA,140144.00,3531.4704,N,12125.4146,W,1,10,1.0,8.8,M,-31.5,M,,*51
$PYRTM,2024,124.584568144248,15.694215554387
$GPGGA,140145.00,3531.4699,N,12125.4117,W,1,10,1.0,9.2,M,-31.5,M,,*5A
$PYRTM,2024,124.584579732072,15.694227142211
$GPGGA,140146.00,3531.4693,N,12125.4090,W,1,10,1.0,7.9,M,-31.5,M,,*58
$PYRTM,2024,124.584591293819,15.694238703958
$GPGGA,140147.00,3531.4685,N,12125.4065,W,1,10,1.0,9.7,M,-31.5,M,,*54
$PYRTM,2024,124.584602875868,15.694250286007
$GPGGA,140148.00,3531.4676,N,12125.4039,W,1,10,1.0,6.7,M,-31.5,M,,*51
$PYRTM,2024,124.584614440359,15.694261850498
$GPGGA,140149.00,3531.4668,N,12125.4013,W,1,10,1.0,6.3,M,-31.5,M,,*53
$PYRTM,2024,124.584626032350,15.694273442488
$GPGGA,140150.00,3531.4662,N,12125.3986,W,1,10,1.0,8.0,M,-31.5,M,,*5E
$PYRTM,2024,124.584637590093,15.694285000231
$GPGGA,140151.00,3531.4658,N,12125.3960,W,1,10,1.0,7.8,M,-31.5,M,,*59
$PYRTM,2024,124.584649177940,15.694296588079
$GPGGA,140152.00,3531.4652,N,12125.3933,W,1,10,1.0,10.7,M,-31.5,M,,*6F
$PYRTM,2024,124.584660738669,15.694308148808
$GPGGA,140153.00,3531.4644,N,12125.3907,W,1,10,1.0,13.1,M,-31.5,M,,*6B
$PYRTM,2024,124.584673835139,15.694321245278
$GPGGA,140154.00,3531.4636,N,12125.3879,W,1,10,1.0,10.3,M,-31.5,M,,*60
$PYRTM,2024,124.584685622940,15.694333033079
$GPGGA,140155.00,3531.4627,N,12125.3851,W,1,10,1.0,11.5,M,-31.5,M,,*6C
$PYRTM,2024,124.584696735046,15.694344145185
$GPGGA,140156.00,3531.4620,N,12125.3823,W,1,10,1.0,11.5,M,-31.5,M,,*6D
$PYRTM,2024,124.584708092894,15.694355503044
$GPGGA,140157.00,3531.4613,N,12125.3796,W,1,10,1.0,9.5,M,-31.5,M,,*54
$PYRTM,2024,124.584719663773,15.694367073924
$GPGGA,140158.00,3531.4606,N,12125.3771,W,1,10,1.0,8.8,M,-31.5,M,,*5A
$PYRTM,2024,124.584731237650,15.694378647789
$GPGGA,140159.00,3531.4599,N,12125.3745,W,1,10,1.0,9.1,M,-31.5,M,,*51
$PYRTM,2024,124.584742812928,15.694390223067
$GPGGA,140200.00,3531.4591,N,12125.3719,W,1,10,1.0,8.4,M,-31.5,M,,*5B
$PYRTM,2024,124.584754386215,15.694401796354
$GPGGA,140201.00,3531.4585,N,12125.3694,W,1,10,1.0,8.5,M,-31.5,M,,*5A
$PYRTM,2024,124.584765956273,15.694413366412
$GPGGA,140202.00,3531.4579,N,12125.3668,W,1,10,1.0,11.9,M,-31.5,M,,*6D
$PYRTM,2024,124.584777534815,15.694424944954
$GPGGA,140203.00,3531.4572,N,12125.3643,W,1,10,1.0,10.4,M,-31.5,M,,*62
$PYRTM,2024,124.584789105150,15.694436515289
$GPGGA,140204.00,3531.4564,N,12125.3617,W,1,10,1.0,10.0,M,-31.5,M,,*67
$PYRTM,2024,124.584800682685,15.694448092824
$GPGGA,140205.00,3531.4556,N,12125.3590,W,1,10,1.0,8.4,M,-31.5,M,,*56
$PYRTM,2024,124.584812256609,15.694459666748
$GPGGA,140206.00,3531.4550,N,12125.3563,W,1,10,1.0,8.9,M,-31.5,M,,*52
$PYRTM,2024,124.584823830926,15.694471241065
$GPGGA,140207.00,3531.4543,N,12125.3536,W,1,10,1.0,8.8,M,-31.5,M,,*50
$PYRTM,2024,124.584835399884,15.694482810023
$GPGGA,140208.00,3531.4536,N,12125.3510,W,1,10,1.0,12.2,M,-31.5,M,,*68
$PYRTM,2024,124.584846983773,15.694494393912
$GPGGA,140209.00,3531.4529,N,12125.3484,W,1,10,1.0,10.1,M,-31.5,M,,*6A
$PYRTM,2024,124.584858553530,15.694505963669
$GPGGA,140210.00,3531.4523,N,12125.3457,W,1,10,1.0,11.0,M,-31.5,M,,*66
$PYRTM,2024,124.584870142153,15.694517552292
$GPGGA,140211.00,3531.4517,N,12125.3430,W,1,10,1.0,11.8,M,-31.5,M,,*69
$PYRTM,2024,124.584881696285,15.694529106424
$GPGGA,140212.00,3531.4511,N,12125.3403,W,1,10,1.0,10.0,M,-31.5,M,,*65
$PYRTM,2024,124.584893269514,15.694540679653
$GPGGA,140213.00,3531.4503,N,12125.3376,W,1,10,1.0,10.2,M,-31.5,M,,*60
$PYRTM,2024,124.584904850220,15.694552260359
$GPGGA,140214.00,3531.4493,N,12125.3350,W,1,10,1.0,12.3,M,-31.5,M,,*68
$PYRTM,2024,124.584916424595,15.694563834734
$GPGGA,140215.00,3531.4485,N,12125.3323,W,1,10,1.0,10.4,M,-31.5,M,,*6F
$PYRTM,2024,124.584927998889,15.694575409028
$GPGGA,140216.00,3531.4478,N,12125.3297,W,1,10,1.0,9.0,M,-31.5,M,,*5C
$PYRTM,2024,124.584939574236,15.694586984375
$GPGGA,140217.00,3531.4471,N,12125.3270,W,1,10,1.0,9.6,M,-31.5,M,,*5B
$PYRTM,2024,124.584951145984,15.694598556123
$GPGGA,140218.00,3531.4464,N,12125.3245,W,1,10,1.0,8.6,M,-31.5,M,,*57
$PYRTM,2024,124.584962721007,15.694610131146
$GPGGA,140219.00,3531.4455,N,12125.3219,W,1,10,1.0,10.8,M,-31.5,M,,*6A
$PYRTM,2024,124.584974295324,15.694621705463
$GPGGA,140220.00,3531.4447,N,12125.3192,W,1,10,1.0,9.9,M,-31.5,M,,*5A
$PYRTM,2024,124.584985870451,15.694633280590
$GPGGA,140221.00,3531.4442,N,12125.3165,W,1,10,1.0,9.7,M,-31.5,M,,*58
$PYRTM,2024,124.584997438507,15.694644848646
$GPGGA,140222.00,3531.4435,N,12125.3138,W,1,10,1.0,9.4,M,-31.5,M,,*50
$PYRTM,2024,124.585009021493,15.694656431632
$GPGGA,140223.00,3531.4428,N,12125.3110,W,1,10,1.0,8.4,M,-31.5,M,,*56
$PYRTM,2024,124.585021736968,15.694669147118
$GPGGA,140224.00,3531.4420,N,12125.3083,W,1,10,1.0,8.7,M,-31.5,M,,*51
$PYRTM,2024,124.585034819132,15.694682229271
$GPGGA,140225.00,3531.4413,N,12125.3056,W,1,10,1.0,7.9,M,-31.5,M,,*59
$PYRTM,2024,124.585043739676,15.694691149815
$GPGGA,140226.00,3531.4406,N,12125.3028,W,1,10,1.0,7.6,M,-31.5,M,,*58
$PYRTM,2024,124.585055309630,15.694702719769
$GPGGA,140227.00,3531.4400,N,12125.3001,W,1,10,1.0,11.0,M,-31.5,M,,*65
$PYRTM,2024,124.585066888530,15.694714298669
$GPGGA,140228.00,3531.4394,N,12125.2975,W,1,10,1.0,8.4,M,-31.5,M,,*57
$PYRTM,2024,124.585078461701,15.694725871840
$GPGGA,140229.00,3531.4387,N,12125.2948,W,1,10,1.0,11.0,M,-31.5,M,,*66
$PYRTM,2024,124.585090031620,15.694737441759
$GPGGA,140230.00,3531.4379,N,12125.2921,W,1,10,1.0,9.1,M,-31.5,M,,*58
$PYRTM,2024,124.585101614329,15.694749024468
$GPGGA,140231.00,3531.4373,N,12125.2893,W,1,10,1.0,6.8,M,-31.5,M,,*5D
$PYRTM,2024,124.585113185926,15.694760596065
$GPGGA,140232.00,3531.4365,N,12125.2866,W,1,10,1.0,8.9,M,-31.5,M,,*5C
$PYRTM,2024,124.585124754086,15.694772164225
$GPGGA,140233.00,3531.4358,N,12125.2840,W,1,10,1.0,9.1,M,-31.5,M,,*5E
$PYRTM,2024,124.585136333854,15.694783744005
$GPGGA,140234.00,3531.4351,N,12125.2814,W,1,10,1.0,8.4,M,-31.5,M,,*55
$PYRTM,2024,124.585147907407,15.694795317546
$GPGGA,140235.00,3531.4344,N,12125.2788,W,1,10,1.0,9.4,M,-31.5,M,,*5B
$PYRTM,2024,124.585159481366,15.694806891505
$GPGGA,140236.00,3531.4339,N,12125.2763,W,1,10,1.0,7.5,M,-31.5,M,,*58
$PYRTM,2024,124.585171058542,15.694818468681
$GPGGA,140237.00,3531.4331,N,12125.2737,W,1,10,1.0,8.8,M,-31.5,M,,*52
$PYRTM,2024,124.585182630451,15.694830040602
$GPGGA,140238.00,3531.4323,N,12125.2712,W,1,10,1.0,9.5,M,-31.5,M,,*55
$PYRTM,2024,124.585194217917,15.694841628056
$GPGGA,140239.00,3531.4316,N,12125.2685,W,1,10,1.0,11.8,M,-31.5,M,,*69
$PYRTM,2024,124.585205773183,15.694853183322
$GPGGA,140240.00,3531.4310,N,12125.2656,W,1,10,1.0,12.7,M,-31.5,M,,*63
$PYRTM,2024,124.585217365926,15.694864776053
$GPGGA,140241.00,3531.4305,N,12125.2627,W,1,10,1.0,12.2,M,-31.5,M,,*65
$PYRTM,2024,124.585228920833,15.694876330972
$GPGGA,140242.00,3531.4297,N,12125.2599,W,1,10,1.0,12.0,M,-31.5,M,,*68
$PYRTM,2024,124.585240486076,15.694887896215
$GPGGA,140243.00,3531.4290,N,12125.2572,W,1,10,1.0,12.0,M,-31.5,M,,*6B
$PYRTM,2024,124.585252522014,15.694899932153
$GPGGA,140244.00,3531.4282,N,12125.2545,W,1,10,1.0,10.8,M,-31.5,M,,*61
$PYRTM,2024,124.585263635405,15.694911045544
$GPGGA,140245.00,3531.4275,N,12125.2519,W,1,10,1.0,11.8,M,-31.5,M,,*60
$PYRTM,2024,124.585275218438,15.694922628576
$GPGGA,140246.00,3531.4268,N,12125.2492,W,1,10,1.0,9.5,M,-31.5,M,,*59
$PYRTM,2024,124.585286782454,15.694934192593
$GPGGA,140247.00,3531.4260,N,12125.2466,W,1,10,1.0,8.8,M,-31.5,M,,*57
$PYRTM,2024,124.585298371088,15.694945781227
$GPGGA,140248.00,3531.4253,N,12125.2439,W,1,10,1.0,9.0,M,-31.5,M,,*5B
$PYRTM,2024,124.585309931551,15.694957341690
$GPGGA,140249.00,3531.4247,N,12125.2411,W,1,10,1.0,9.8,M,-31.5,M,,*5D
$PYRTM,2024,124.585321520093,15.694968930231
$GPGGA,140250.00,3531.4241,N,12125.2384,W,1,10,1.0,8.8,M,-31.5,M,,*59
$PYRTM,2024,124.585333080799,15.694980490937
$GPGGA,140251.00,3531.4234,N,12125.2357,W,1,10,1.0,10.1,M,-31.5,M,,*64
$PYRTM,2024,124.585344668438,15.694992078576
$GPGGA,140252.00,3531.4226,N,12125.2330,W,1,10,1.0,11.3,M,-31.5,M,,*66
$PYRTM,2024,124.585356228194,15.695003638333
$GPGGA,140253.00,3531.4218,N,12125.2303,W,1,10,1.0,11.6,M,-31.5,M,,*6F
$PYRTM,2024,124.585368961262,15.695016371412
$GPGGA,140254.00,3531.4212,N,12125.2276,W,1,10,1.0,11.3,M,-31.5,M,,*64
$PYRTM,2024,124.585382039294,15.695029449444
$GPGGA,140255.00,3531.4205,N,12125.2249,W,1,10,1.0,9.4,M,-31.5,M,,*51
$PYRTM,2024,124.585390964977,15.695038375116
$GPGGA,140256.00,3531.4197,N,12125.2224,W,1,10,1.0,10.1,M,-31.5,M,,*6C
$PYRTM,2024,124.585402523287,15.695049933426
$GPGGA,140257.00,3531.4188,N,12125.2198,W,1,10,1.0,7.3,M,-31.5,M,,*53
$PYRTM,2024,124.585414115949,15.695061526088
$GPGGA,140258.00,3531.4180,N,12125.2173,W,1,10,1.0,8.1,M,-31.5,M,,*5C
$PYRTM,2024,124.585425674097,15.695073084248
$GPGGA,140259.00,3531.4174,N,12125.2147,W,1,10,1.0,8.6,M,-31.5,M,,*56
$PYRTM,2024,124.585437260370,15.695084670509
$GPGGA,140300.00,3531.4167,N,12125.2120,W,1,10,1.0,10.4,M,-31.5,M,,*63
$PYRTM,2024,124.585448821262,15.695096231400
$GPGGA,140301.00,3531.4162,N,12125.2094,W,1,10,1.0,11.1,M,-31.5,M,,*6D
$PYRTM,2024,124.585460408912,15.695107819051
$GPGGA,140302.00,3531.4155,N,12125.2066,W,1,10,1.0,13.7,M,-31.5,M,,*63
$PYRTM,2024,124.585471968368,15.695119378507
$GPGGA,140303.00,3531.4150,N,12125.2039,W,1,10,1.0,14.2,M,-31.5,M,,*6F
$PYRTM,2024,124.585483557338,15.695130967477
$GPGGA,140304.00,3531.4145,N,12125.2012,W,1,10,1.0,13.3,M,-31.5,M,,*63
$PYRTM,2024,124.585495117373,15.695142527512
$GPGGA,140305.00,3531.4140,N,12125.1985,W,1,10,1.0,11.7,M,-31.5,M,,*65
$PYRTM,2024,124.585506706192,15.695154116331
$GPGGA,140306.00,3531.4134,N,12125.1958,W,1,10,1.0,11.5,M,-31.5,M,,*67
$PYRTM,2024,124.585518264433,15.695165674572
$GPGGA,140307.00,3531.4127,N,12125.1932,W,1,10,1.0,10.5,M,-31.5,M,,*69
$PYRTM,2024,124.585529854016,15.695177264155
$GPGGA,140308.00,3531.4119,N,12125.1907,W,1,10,1.0,8.7,M,-31.5,M,,*56
$PYRTM,2024,124.585541413472,15.695188823611
$GPGGA,140309.00,3531.4112,N,12125.1884,W,1,10,1.0,8.5,M,-31.5,M,,*54
$PYRTM,2024,124.585553004051,15.695200414190
$GPGGA,140310.00,3531.4105,N,12125.1859,W,1,10,1.0,9.6,M,-31.5,M,,*58
$PYRTM,2024,124.585564562870,15.695211973009
$GPGGA,140311.00,3531.4099,N,12125.1833,W,1,10,1.0,10.7,M,-31.5,M,,*68
$PYRTM,2024,124.585576151215,15.695223561366
$GPGGA,140312.00,3531.4093,N,12125.1806,W,1,10,1.0,11.0,M,-31.5,M,,*61
$PYRTM,2024,124.585587711262,15.695235121400
$GPGGA,140313.00,3531.4086,N,12125.1780,W,1,10,1.0,10.4,M,-31.5,M,,*60
$PYRTM,2024,124.585599298715,15.695246708854
$GPGGA,140314.00,3531.4078,N,12125.1753,W,1,10,1.0,9.1,M,-31.5,M,,*55
$PYRTM,2024,124.585610857998,15.695258268137
$GPGGA,140315.00,3531.4069,N,12125.1727,W,1,10,1.0,10.6,M,-31.5,M,,*68
$PYRTM,2024,124.585622447060,15.695269857199
$GPGGA,140316.00,3531.4060,N,12125.1701,W,1,10,1.0,11.3,M,-31.5,M,,*62
$PYRTM,2024,124.585634007222,15.695281417361
$GPGGA,140317.00,3531.4054,N,12125.1674,W,1,10,1.0,10.1,M,-31.5,M,,*64
$PYRTM,2024,124.585645595370,15.695293005521
$GPGGA,140318.00,3531.4048,N,12125.1647,W,1,10,1.0,9.5,M,-31.5,M,,*5A
$PYRTM,2024,124.585657156065,15.695304566204
$GPGGA,140319.00,3531.4042,N,12125.1620,W,1,10,1.0,9.5,M,-31.5,M,,*50
$PYRTM,2024,124.585667818090,15.695315228229
$GPGGA,140320.00,3531.4035,N,12125.1595,W,1,10,1.0,7.8,M,-31.5,M,,*54
$PYRTM,2024,124.585680891065,15.695328301204
$GPGGA,140321.00,3531.4027,N,12125.1570,W,1,10,1.0,6.8,M,-31.5,M,,*5C
$PYRTM,2024,124.585691544792,15.695338954931
$GPGGA,140322.00,3531.4019,N,12125.1544,W,1,10,1.0,6.5,M,-31.5,M,,*58
$PYRTM,2024,124.585702660845,15.695350070984
$GPGGA,140323.00,3531.4012,N,12125.1518,W,1,10,1.0,10.0,M,-31.5,M,,*69
$PYRTM,2024,124.585713767708,15.695361177847
$GPGGA,140324.00,3531.4005,N,12125.1490,W,1,10,1.0,8.4,M,-31.5,M,,*54
$PYRTM,2024,124.585728700312,15.695376110451
$GPGGA,140325.00,3531.3998,N,12125.1461,W,1,10,1.0,8.5,M,-31.5,M,,*50
$PYRTM,2024,124.585739809988,15.695387220127
$GPGGA,140326.00,3531.3990,N,12125.1432,W,1,10,1.0,9.0,M,-31.5,M,,*59
$PYRTM,2024,124.585750921840,15.695398331979
$GPGGA,140327.00,3531.3982,N,12125.1404,W,1,10,1.0,10.3,M,-31.5,M,,*65
$PYRTM,2024,124.585762032095,15.695409442234
$GPGGA,140328.00,3531.3974,N,12125.1377,W,1,10,1.0,7.7,M,-31.5,M,,*52
$PYRTM,2024,124.585773132141,15.695420542280
$GPGGA,140329.00,3531.3965,N,12125.1348,W,1,10,1.0,7.2,M,-31.5,M,,*5A
$PYRTM,2024,124.585784254618,15.695431664757
$GPGGA,140330.00,3531.3955,N,12125.1319,W,1,10,1.0,5.9,M,-31.5,M,,*5C
$PYRTM,2024,124.585796176586,15.695443586725
$GPGGA,140331.00,3531.3948,N,12125.1290,W,1,10,1.0,1.9,M,-31.5,M,,*55
$PYRTM,2024,124.585807290822,15.695454700961
$GPGGA,140332.00,3531.3940,N,12125.1262,W,1,10,1.0,4.7,M,-31.5,M,,*58
$PYRTM,2024,124.585818397211,15.695465807350
$GPGGA,140333.00,3531.3933,N,12125.1235,W,1,10,1.0,10.0,M,-31.5,M,,*6D
$PYRTM,2024,124.585830190486,15.695477600625
$GPGGA,140334.00,3531.3925,N,12125.1208,W,1,10,1.0,10.2,M,-31.5,M,,*61
$PYRTM,2024,124.585841302153,15.695488712292
$GPGGA,140335.00,3531.3917,N,12125.1180,W,1,10,1.0,9.2,M,-31.5,M,,*5A
$PYRTM,2024,124.585852891632,15.695500301771
$GPGGA,140336.00,3531.3909,N,12125.1153,W,1,10,1.0,8.4,M,-31.5,M,,*5F
$PYRTM,2024,124.585864450509,15.695511860648
$GPGGA,140337.00,3531.3901,N,12125.1124,W,1,10,1.0,9.4,M,-31.5,M,,*57
$PYRTM,2024,124.585876036366,15.695523446505
$GPGGA,140338.00,3531.3895,N,12125.1096,W,1,10,1.0,9.7,M,-31.5,M,,*5F
$PYRTM,2024,124.585887599109,15.695535009248
$GPGGA,140339.00,3531.3888,N,12125.1068,W,1,10,1.0,8.6,M,-31.5,M,,*53
$PYRTM,2024,124.585899184132,15.695546594271
$GPGGA,140340.00,3531.3881,N,12125.1041,W,1,10,1.0,9.6,M,-31.5,M,,*5E
$PYRTM,2024,124.585910744317,15.695558154456
$GPGGA,140341.00,3531.3873,N,12125.1014,W,1,10,1.0,7.5,M,-31.5,M,,*5F
$PYRTM,2024,124.585922332350,15.695569742488
$GPGGA,140342.00,3531.3866,N,12125.0987,W,1,10,1.0,7.2,M,-31.5,M,,*5D
$PYRTM,2024,124.585933892905,15.695581303044
$GPGGA,140343.00,3531.3857,N,12125.0960,W,1,10,1.0,8.8,M,-31.5,M,,*52
$PYRTM,2024,124.585945495556,15.695592905694
$GPGGA,140344.00,3531.3849,N,12125.0934,W,1,10,1.0,10.2,M,-31.5,M,,*68
$PYRTM,2024,124.585957043183,15.695604453322
$GPGGA,140345.00,3531.3842,N,12125.0908,W,1,10,1.0,10.6,M,-31.5,M,,*69
$PYRTM,2024,124.585968632847,15.695616042986
$GPGGA,140346.00,3531.3835,N,12125.0881,W,1,10,1.0,10.8,M,-31.5,M,,*64
$PYRTM,2024,124.585980189988,15.695627600139
$GPGGA,140347.00,3531.3828,N,12125.0855,W,1,10,1.0,9.9,M,-31.5,M,,*59
$PYRTM,2024,124.585991777766,15.695639187905
$GPGGA,140348.00,3531.3822,N,12125.0830,W,1,10,1.0,11.6,M,-31.5,M,,*69
$PYRTM,2024,124.586003338611,15.695650748750
$GPGGA,140349.00,3531.3815,N,12125.0804,W,1,10,1.0,10.9,M,-31.5,M,,*65
$PYRTM,2024,124.586014928368,15.695662338507
$GPGGA,140350.00,3531.3809,N,12125.0777,W,1,10,1.0,9.5,M,-31.5,M,,*5F
$PYRTM,2024,124.586026486759,15.695673896898
$GPGGA,140351.00,3531.3803,N,12125.0751,W,1,10,1.0,10.3,M,-31.5,M,,*6E
$PYRTM,2024,124.586038073970,15.695685484109
$GPGGA,140352.00,3531.3795,N,12125.0724,W,1,10,1.0,7.7,M,-31.5,M,,*5D
$PYRTM,2024,124.586049635706,15.695697045845
$GPGGA,140353.00,3531.3787,N,12125.0697,W,1,10,1.0,7.9,M,-31.5,M,,*58
$PYRTM,2024,124.586062264606,15.695709674745
$GPGGA,140354.00,3531.3777,N,12125.0670,W,1,10,1.0,10.4,M,-31.5,M,,*62
$PYRTM,2024,124.586074301655,15.695721711794
$GPGGA,140355.00,3531.3770,N,12125.0644,W,1,10,1.0,10.0,M,-31.5,M,,*67
$PYRTM,2024,124.586085411678,15.695732821817
$GPGGA,140356.00,3531.3764,N,12125.0618,W,1,10,1.0,6.9,M,-31.5,M,,*56
$PYRTM,2024,124.586096971424,15.695744381562
$GPGGA,140357.00,3531.3758,N,12125.0592,W,1,10,1.0,7.5,M,-31.5,M,,*54
$PYRTM,2024,124.586108560000,15.695755970139
$GPGGA,140358.00,3531.3751,N,12125.0566,W,1,10,1.0,8.3,M,-31.5,M,,*50
$PYRTM,2024,124.586120120150,15.695767530289
$GPGGA,140359.00,3531.3743,N,12125.0541,W,1,10,1.0,6.9,M,-31.5,M,,*53
$PYRTM,2024,124.586131710012,15.695779120150
$GPGGA,140400.00,3531.3736,N,12125.0514,W,1,10,1.0,7.2,M,-31.5,M,,*50
$PYRTM,2024,124.586143268565,15.695790678704
$GPGGA,140401.00,3531.3729,N,12125.0487,W,1,10,1.0,4.9,M,-31.5,M,,*5C
$PYRTM,2024,124.586154856829,15.695802266968
$GPGGA,140402.00,3531.3724,N,12125.0459,W,1,10,1.0,8.1,M,-31.5,M,,*55
$PYRTM,2024,124.586166418345,15.695813828484
$GPGGA,140403.00,3531.3718,N,12125.0432,W,1,10,1.0,8.0,M,-31.5,M,,*57
$PYRTM,2024,124.586178005035,15.695825415174
$GPGGA,140404.00,3531.3709,N,12125.0405,W,1,10,1.0,9.0,M,-31.5,M,,*55
$PYRTM,2024,124.586189565833,15.695836975972
$GPGGA,140405.00,3531.3701,N,12125.0379,W,1,10,1.0,8.5,M,-31.5,M,,*54
$PYRTM,2024,124.586201152639,15.695848562778
$GPGGA,140406.00,3531.3694,N,12125.0352,W,1,10,1.0,10.3,M,-31.5,M,,*6C
$PYRTM,2024,124.586212713264,15.695860123403
$GPGGA,140407.00,3531.3687,N,12125.0326,W,1,10,1.0,9.4,M,-31.5,M,,*53
$PYRTM,2024,124.586224301157,15.695871711296
$GPGGA,140408.00,3531.3682,N,12125.0301,W,1,10,1.0,7.1,M,-31.5,M,,*57
$PYRTM,2024,124.586235861123,15.695883271262
$GPGGA,140409.00,3531.3677,N,12125.0275,W,1,10,1.0,6.3,M,-31.5,M,,*5D
$PYRTM,2024,124.586247449641,15.695894859780
$GPGGA,140410.00,3531.3669,N,12125.0249,W,1,10,1.0,5.7,M,-31.5,M,,*52
$PYRTM,2024,124.586259010694,15.695906420833
$GPGGA,140411.00,3531.3661,N,12125.0222,W,1,10,1.0,6.7,M,-31.5,M,,*55
$PYRTM,2024,124.586270598600,15.695918008738
$GPGGA,140412.00,3531.3653,N,12125.0194,W,1,10,1.0,8.3,M,-31.5,M,,*53
$PYRTM,2024,124.586282157639,15.695929567778
$GPGGA,140413.00,3531.3645,N,12125.0165,W,1,10,1.0,9.0,M,-31.5,M,,*59
$PYRTM,2024,124.586293747847,15.695941157986
$GPGGA,140414.00,3531.3637,N,12125.0137,W,1,10,1.0,11.3,M,-31.5,M,,*66
$PYRTM,2024,124.586305306748,15.695952716887
$GPGGA,140415.00,3531.3628,N,12125.0110,W,1,10,1.0,9.9,M,-31.5,M,,*5F
$PYRTM,2024,124.586316895914,15.695964306053
$GPGGA,140416.00,3531.3620,N,12125.0083,W,1,10,1.0,7.3,M,-31.5,M,,*5B
$PYRTM,2024,124.586328455972,15.695975866123
$GPGGA,140417.00,3531.3612,N,12125.0057,W,1,10,1.0,8.0,M,-31.5,M,,*5E
$PYRTM,2024,124.586340042801,15.695987452940
$GPGGA,140418.00,3531.3606,N,12125.0030,W,1,10,1.0,8.1,M,-31.5,M,,*54
$PYRTM,2024,124.586351602743,15.695999012882
$GPGGA,140419.00,3531.3600,N,12125.0003,W,1,10,1.0,7.3,M,-31.5,M,,*5E
$PYRTM,2024,124.586363190660,15.696010600799
$GPGGA,140420.00,3531.3593,N,12124.9977,W,1,10,1.0,7.6,M,-31.5,M,,*5A
$PYRTM,2024,124.586374751215,15.696022161354
$GPGGA,140421.00,3531.3584,N,12124.9951,W,1,10,1.0,9.3,M,-31.5,M,,*52
$PYRTM,2024,124.586386340255,15.696033750394
$GPGGA,140422.00,3531.3576,N,12124.9924,W,1,10,1.0,11.2,M,-31.5,M,,*66
$PYRTM,2024,124.586397902153,15.696045312292
$GPGGA,140423.00,3531.3570,N,12124.9897,W,1,10,1.0,10.2,M,-31.5,M,,*69
$PYRTM,2024,124.586410980602,15.696058390741
$GPGGA,140424.00,3531.3564,N,12124.9868,W,1,10,1.0,9.2,M,-31.5,M,,*53
$PYRTM,2024,124.586423710972,15.696071121111
$GPGGA,140425.00,3531.3557,N,12124.9840,W,1,10,1.0,5.5,M,-31.5,M,,*53
$PYRTM,2024,124.586432637847,15.696080047986
$GPGGA,140426.00,3531.3548,N,12124.9813,W,1,10,1.0,7.6,M,-31.5,M,,*59
$PYRTM,2024,124.586444196551,15.696091606701
$GPGGA,140427.00,3531.3538,N,12124.9789,W,1,10,1.0,8.4,M,-31.5,M,,*5E
$PYRTM,2024,124.586455786296,15.696103196435
$GPGGA,140428.00,3531.3529,N,12124.9763,W,1,10,1.0,7.1,M,-31.5,M,,*5F
$PYRTM,2024,124.586467344595,15.696114754734
$GPGGA,140429.00,3531.3523,N,12124.9737,W,1,10,1.0,5.3,M,-31.5,M,,*55
$PYRTM,2024,124.586478932986,15.696126343125
$GPGGA,140430.00,3531.3516,N,12124.9710,W,1,10,1.0,5.5,M,-31.5,M,,*58
$PYRTM,2024,124.586490493194,15.696137903333
$GPGGA,140431.00,3531.3507,N,12124.9685,W,1,10,1.0,7.2,M,-31.5,M,,*51
$PYRTM,2024,124.586502081285,15.696149491424
$GPGGA,140432.00,3531.3499,N,12124.9659,W,1,10,1.0,7.9,M,-31.5,M,,*5E
$PYRTM,2024,124.586513641285,15.696161051424
$GPGGA,140433.00,3531.3491,N,12124.9633,W,1,10,1.0,9.8,M,-31.5,M,,*54
$PYRTM,2024,124.586525229618,15.696172639757
$GPGGA,140434.00,3531.3484,N,12124.9606,W,1,10,1.0,7.5,M,-31.5,M,,*52
$PYRTM,2024,124.586536788704,15.696184198843
$GPGGA,140435.00,3531.3478,N,12124.9579,W,1,10,1.0,7.8,M,-31.5,M,,*56
$PYRTM,2024,124.586548373889,15.696195784028
$GPGGA,140436.00,3531.3471,N,12124.9552,W,1,10,1.0,8.9,M,-31.5,M,,*5B
$PYRTM,2024,124.586559937037,15.696207347176
$GPGGA,140437.00,3531.3464,N,12124.9524,W,1,10,1.0,6.1,M,-31.5,M,,*59
$PYRTM,2024,124.586571527315,15.696218937454
$GPGGA,140438.00,3531.3456,N,12124.9497,W,1,10,1.0,6.4,M,-31.5,M,,*5B
$PYRTM,2024,124.586583085289,15.696230495428
$GPGGA,140439.00,3531.3450,N,12124.9470,W,1,10,1.0,6.6,M,-31.5,M,,*57
$PYRTM,2024,124.586594674074,15.696242084213
$GPGGA,140440.00,3531.3443,N,12124.9442,W,1,10,1.0,7.2,M,-31.5,M,,*5F
$PYRTM,2024,124.586606234479,15.696253644618
$GPGGA,140441.00,3531.3437,N,12124.9415,W,1,10,1.0,7.1,M,-31.5,M,,*5C
$PYRTM,2024,124.586617823484,15.696265233623
$GPGGA,140442.00,3531.3430,N,12124.9388,W,1,10,1.0,6.3,M,-31.5,M,,*58
$PYRTM,2024,124.586629386238,15.696276796377
$GPGGA,140443.00,3531.3425,N,12124.9360,W,1,10,1.0,5.5,M,-31.5,M,,*5E
$PYRTM,2024,124.586640981238,15.696288391389
$GPGGA,140444.00,3531.3420,N,12124.9333,W,1,10,1.0,7.9,M,-31.5,M,,*54
$PYRTM,2024,124.586652536690,15.696299946829
$GPGGA,140445.00,3531.3414,N,12124.9307,W,1,10,1.0,6.4,M,-31.5,M,,*59
$PYRTM,2024,124.586664129884,15.696311540023
$GPGGA,140446.00,3531.3407,N,12124.9281,W,1,10,1.0,6.4,M,-31.5,M,,*57
$PYRTM,2024,124.586675682373,15.696323092512
$GPGGA,140447.00,3531.3399,N,12124.9255,W,1,10,1.0,7.3,M,-31.5,M,,*59
$PYRTM,2024,124.586687273067,15.696334683206
$GPGGA,140448.00,3531.3390,N,12124.9229,W,1,10,1.0,8.3,M,-31.5,M,,*5B
$PYRTM,2024,124.586698830417,15.696346240556
$GPGGA,140449.00,3531.3382,N,12124.9203,W,1,10,1.0,7.8,M,-31.5,M,,*55
$PYRTM,2024,124.586710418009,15.696357828148
$GPGGA,140450.00,3531.3376,N,12124.9176,W,1,10,1.0,7.5,M,-31.5,M,,*5A
$PYRTM,2024,124.586721977951,15.696369388102
$GPGGA,140451.00,3531.3371,N,12124.9149,W,1,10,1.0,7.6,M,-31.5,M,,*53
$PYRTM,2024,124.586733565081,15.696380975220
$GPGGA,140452.00,3531.3366,N,12124.9121,W,1,10,1.0,6.0,M,-31.5,M,,*5F
$PYRTM,2024,124.586745126840,15.696392536979
$GPGGA,140453.00,3531.3360,N,12124.9094,W,1,10,1.0,8.3,M,-31.5,M,,*5A
$PYRTM,2024,124.586757858831,15.696405268981
$GPGGA,140454.00,3531.3353,N,12124.9067,W,1,10,1.0,8.6,M,-31.5,M,,*54
$PYRTM,2024,124.586770942836,15.696418352975
$GPGGA,140455.00,3531.3346,N,12124.9041,W,1,10,1.0,7.3,M,-31.5,M,,*5F
$PYRTM,2024,124.586779865301,15.696427275440
$GPGGA,140456.00,3531.3340,N,12124.9014,W,1,10,1.0,9.8,M,-31.5,M,,*5F
$PYRTM,2024,124.586791423681,15.696438833819
$GPGGA,140457.00,3531.3332,N,12124.8987,W,1,10,1.0,9.5,M,-31.5,M,,*54
$PYRTM,2024,124.586803012685,15.696450422824
$GPGGA,140458.00,3531.3325,N,12124.8960,W,1,10,1.0,9.8,M,-31.5,M,,*59
$PYRTM,2024,124.586814571748,15.696461981898
$GPGGA,140459.00,3531.3318,N,12124.8933,W,1,10,1.0,10.2,M,-31.5,M,,*62
$PYRTM,2024,124.586826160891,15.696473571030
$GPGGA,140500.00,3531.3313,N,12124.8906,W,1,10,1.0,9.1,M,-31.5,M,,*59
$PYRTM,2024,124.586837719236,15.696485129375
$GPGGA,140501.00,3531.3305,N,12124.8878,W,1,10,1.0,9.7,M,-31.5,M,,*51
$PYRTM,2024,124.586849300602,15.696496710741
$GPGGA,140502.00,3531.3296,N,12124.8851,W,1,10,1.0,8.9,M,-31.5,M,,*5D
$PYRTM,2024,124.586860869664,15.696508279803
$GPGGA,140503.00,3531.3287,N,12124.8823,W,1,10,1.0,10.1,M,-31.5,M,,*68
$PYRTM,2024,124.586872454062,15.696519864201
$GPGGA,140504.00,3531.3280,N,12124.8796,W,1,10,1.0,9.5,M,-31.5,M,,*55
$PYRTM,2024,124.586884016794,15.696531426933
$GPGGA,140505.00,3531.3272,N,12124.8771,W,1,10,1.0,10.9,M,-31.5,M,,*64
$PYRTM,2024,124.586895604074,15.696543014213
$GPGGA,140506.00,3531.3264,N,12124.8746,W,1,10,1.0,8.3,M,-31.5,M,,*57
$PYRTM,2024,124.586907164410,15.696554574549
$GPGGA,140507.00,3531.3257,N,12124.8720,W,1,10,1.0,7.3,M,-31.5,M,,*59
$PYRTM,2024,124.586918751493,15.696566161632
$GPGGA,140508.00,3531.3252,N,12124.8694,W,1,10,1.0,10.6,M,-31.5,M,,*6E
$PYRTM,2024,124.586930312315,15.696577722454
$GPGGA,140509.00,3531.3247,N,12124.8668,W,1,10,1.0,10.6,M,-31.5,M,,*68
$PYRTM,2024,124.586941901111,15.696589311250
$GPGGA,140510.00,3531.3240,N,12124.8640,W,1,10,1.0,9.6,M,-31.5,M,,*55
$PYRTM,2024,124.586953462431,15.696600872569
$GPGGA,140511.00,3531.3232,N,12124.8613,W,1,10,1.0,11.0,M,-31.5,M,,*68
$PYRTM,2024,124.586965047407,15.696612457546
$GPGGA,140512.00,3531.3223,N,12124.8586,W,1,10,1.0,8.8,M,-31.5,M,,*54
$PYRTM,2024,124.586976608067,15.696624018206
$GPGGA,140513.00,3531.3215,N,12124.8558,W,1,10,1.0,8.5,M,-31.5,M,,*5E
$PYRTM,2024,124.586988645359,15.696636055498
$GPGGA,140514.00,3531.3207,N,12124.8531,W,1,10,1.0,9.0,M,-31.5,M,,*51
$PYRTM,2024,124.586999757928,15.696647168067
$GPGGA,140515.00,3531.3198,N,12124.8504,W,1,10,1.0,9.9,M,-31.5,M,,*5A
$PYRTM,2024,124.587011349097,15.696658759236
$GPGGA,140516.00,3531.3190,N,12124.8479,W,1,10,1.0,10.8,M,-31.5,M,,*63
$PYRTM,2024,124.587022906366,15.696670316505
$GPGGA,140517.00,3531.3183,N,12124.8452,W,1,10,1.0,10.4,M,-31.5,M,,*65
$PYRTM,2024,124.587034496609,15.696681906748
$GPGGA,140518.00,3531.3177,N,12124.8425,W,1,10,1.0,8.5,M,-31.5,M,,*59
$PYRTM,2024,124.587046053646,15.696693463785
$GPGGA,140519.00,3531.3172,N,12124.8397,W,1,10,1.0,8.0,M,-31.5,M,,*56
$PYRTM,2024,124.587057642199,15.696705052338
$GPGGA,140520.00,3531.3166,N,12124.8369,W,1,10,1.0,8.2,M,-31.5,M,,*5A
$PYRTM,2024,124.587069201586,15.696716611736
$GPGGA,140521.00,3531.3157,N,12124.8343,W,1,10,1.0,6.0,M,-31.5,M,,*5D
$PYRTM,2024,124.587080789144,15.696728199282
$GPGGA,140522.00,3531.3149,N,12124.8316,W,1,10,1.0,7.5,M,-31.5,M,,*55
$PYRTM,2024,124.587092351771,15.696739761910
$GPGGA,140523.00,3531.3141,N,12124.8289,W,1,10,1.0,6.6,M,-31.5,M,,*59
$PYRTM,2024,124.587104164734,15.696751574873
$GPGGA,140524.00,3531.3133,N,12124.8262,W,1,10,1.0,6.7,M,-31.5,M,,*5F
$PYRTM,2024,124.587116206713,15.696763616863
$GPGGA,140525.00,3531.3126,N,12124.8235,W,1,10,1.0,8.0,M,-31.5,M,,*51
$PYRTM,2024,124.587128230706,15.696775640845
$GPGGA,140526.00,3531.3120,N,12124.8208,W,1,10,1.0,8.5,M,-31.5,M,,*5F
$PYRTM,2024,124.587139355914,15.696786766053
$GPGGA,140527.00,3531.3112,N,12124.8181,W,1,10,1.0,7.5,M,-31.5,M,,*52
$PYRTM,2024,124.587150466215,15.696797876354
$GPGGA,140528.00,3531.3104,N,12124.8153,W,1,10,1.0,6.4,M,-31.5,M,,*55
$PYRTM,2024,124.587161576505,15.696808986644
$GPGGA,140529.00,3531.3097,N,12124.8125,W,1,10,1.0,9.5,M,-31.5,M,,*50
$PYRTM,2024,124.587172687604,15.696820097743
$GPGGA,140530.00,3531.3090,N,12124.8097,W,1,10,1.0,10.2,M,-31.5,M,,*68
$PYRTM,2024,124.587183798762,15.696831208912
$GPGGA,140531.00,3531.3083,N,12124.8069,W,1,10,1.0,8.4,M,-31.5,M,,*55
$PYRTM,2024,124.587194793970,15.696842204109
$GPGGA,140532.00,3531.3075,N,12124.8043,W,1,10,1.0,6.4,M,-31.5,M,,*59
$PYRTM,2024,124.587205906134,15.696853316273
$GPGGA,140533.00,3531.3066,N,12124.8016,W,1,10,1.0,7.8,M,-31.5,M,,*57
$PYRTM,2024,124.587217016227,15.696864426366
$GPGGA,140534.00,3531.3058,N,12124.7989,W,1,10,1.0,9.1,M,-31.5,M,,*5A
$PYRTM,2024,124.587228128750,15.696875538900
$GPGGA,140535.00,3531.3050,N,12124.7962,W,1,10,1.0,7.9,M,-31.5,M,,*50
$PYRTM,2024,124.587239240590,15.696886650729
$GPGGA,140536.00,3531.3042,N,12124.7936,W,1,10,1.0,8.1,M,-31.5,M,,*56
$PYRTM,2024,124.587250345312,15.696897755451
$GPGGA,140537.00,3531.3035,N,12124.7909,W,1,10,1.0,7.7,M,-31.5,M,,*52
$PYRTM,2024,124.587261345764,15.696908755903
$GPGGA,140538.00,3531.3028,N,12124.7881,W,1,10,1.0,6.5,M,-31.5,M,,*53
$PYRTM,2024,124.587274079062,15.696921489201
$GPGGA,140539.00,3531.3020,N,12124.7854,W,1,10,1.0,5.2,M,-31.5,M,,*56
$PYRTM,2024,124.587285191667,15.696932601806
$GPGGA,140540.00,3531.3012,N,12124.7827,W,1,10,1.0,5.4,M,-31.5,M,,*5B
$PYRTM,2024,124.587296296713,15.696943706852
$GPGGA,140541.00,3531.3004,N,12124.7800,W,1,10,1.0,5.4,M,-31.5,M,,*58
$PYRTM,2024,124.587307281169,15.696954691308
$GPGGA,140542.00,3531.2996,N,12124.7772,W,1,10,1.0,8.3,M,-31.5,M,,*58
$PYRTM,2024,124.587318523079,15.696965933218
$GPGGA,140543.00,3531.2988,N,12124.7744,W,1,10,1.0,9.3,M,-31.5,M,,*52
$PYRTM,2024,124.587330091262,15.696977501400
$GPGGA,140544.00,3531.2980,N,12124.7718,W,1,10,1.0,8.5,M,-31.5,M,,*53
$PYRTM,2024,124.587341670000,15.696989080139
$GPGGA,140545.00,3531.2972,N,12124.7691,W,1,10,1.0,8.3,M,-31.5,M,,*59
$PYRTM,2024,124.587353240313,15.697000650451
$GPGGA,140546.00,3531.2964,N,12124.7663,W,1,10,1.0,7.5,M,-31.5,M,,*59
$PYRTM,2024,124.587364834560,15.697012244699
$GPGGA,140547.00,3531.2955,N,12124.7635,W,1,10,1.0,8.6,M,-31.5,M,,*55
$PYRTM,2024,124.587376392384,15.697023802535
$GPGGA,140548.00,3531.2947,N,12124.7608,W,1,10,1.0,8.3,M,-31.5,M,,*52
$PYRTM,2024,124.587388083576,15.697035493715
$GPGGA,140549.00,3531.2940,N,12124.7580,W,1,10,1.0,10.8,M,-31.5,M,,*65
$PYRTM,2024,124.587399541204,15.697046951343
$GPGGA,140550.00,3531.2932,N,12124.7552,W,1,10,1.0,9.7,M,-31.5,M,,*50
$PYRTM,2024,124.587411116215,15.697058526354
$GPGGA,140551.00,3531.2924,N,12124.7524,W,1,10,1.0,6.3,M,-31.5,M,,*5C
$PYRTM,2024,124.587422690394,15.697070100532
$GPGGA,140552.00,3531.2916,N,12124.7497,W,1,10,1.0,7.5,M,-31.5,M,,*50
$PYRTM,2024,124.587434267639,15.697081677778
$GPGGA,140553.00,3531.2908,N,12124.7469,W,1,10,1.0,8.0,M,-31.5,M,,*55
$PYRTM,2024,124.587445839618,15.697093249757
$GPGGA,140554.00,3531.2900,N,12124.7443,W,1,10,1.0,8.7,M,-31.5,M,,*55
$PYRTM,2024,124.587462040625,15.697109450764
$GPGGA,140555.00,3531.2893,N,12124.7418,W,1,10,1.0,7.3,M,-31.5,M,,*5A
$PYRTM,2024,124.587473272882,15.697120683021
$GPGGA,140556.00,3531.2885,N,12124.7391,W,1,10,1.0,6.2,M,-31.5,M,,*58
$PYRTM,2024,124.587484831204,15.697132241343
$GPGGA,140557.00,3531.2879,N,12124.7364,W,1,10,1.0,6.2,M,-31.5,M,,*50
$PYRTM,2024,124.587496416424,15.697143826563
$GPGGA,140558.00,3531.2872,N,12124.7336,W,1,10,1.0,4.7,M,-31.5,M,,*54
$PYRTM,2024,124.587507977778,15.697155387917
$GPGGA,140559.00,3531.2865,N,12124.7308,W,1,10,1.0,5.1,M,-31.5,M,,*59
$PYRTM,2024,124.587519567280,15.697166977419
$GPGGA,140600.00,3531.2856,N,12124.7282,W,1,10,1.0,4.6,M,-31.5,M,,*53
$PYRTM,2024,124.587531125440,15.697178535579
$GPGGA,140601.00,3531.2847,N,12124.7255,W,1,10,1.0,4.5,M,-31.5,M,,*5B
$PYRTM,2024,124.587542713681,15.697190123819
$GPGGA,140602.00,3531.2840,N,12124.7227,W,1,10,1.0,5.0,M,-31.5,M,,*5E
$PYRTM,2024,124.587554274583,15.697201684722
$GPGGA,140603.00,3531.2833,N,12124.7200,W,1,10,1.0,6.3,M,-31.5,M,,*5E
$PYRTM,2024,124.587566203715,15.697213613854
$GPGGA,140604.00,3531.2826,N,12124.7174,W,1,10,1.0,5.2,M,-31.5,M,,*5F
$PYRTM,2024,124.587577423310,15.697224833449
$GPGGA,140605.00,3531.2818,N,12124.7148,W,1,10,1.0,5.3,M,-31.5,M,,*5D
$PYRTM,2024,124.587589004410,15.697236414549
$GPGGA,140606.00,3531.2810,N,12124.7121,W,1,10,1.0,6.4,M,-31.5,M,,*5D
$PYRTM,2024,124.587600571285,15.697247981424
$GPGGA,140607.00,3531.2802,N,12124.7093,W,1,10,1.0,8.1,M,-31.5,M,,*5C
$PYRTM,2024,124.587612157431,15.697259567569
$GPGGA,140608.00,3531.2795,N,12124.7065,W,1,10,1.0,8.9,M,-31.5,M,,*53
$PYRTM,2024,124.587623720382,15.697271130521
$GPGGA,140609.00,3531.2788,N,12124.7037,W,1,10,1.0,9.3,M,-31.5,M,,*52
$PYRTM,2024,124.587635309340,15.697282719479
$GPGGA,140610.00,3531.2779,N,12124.7010,W,1,10,1.0,8.6,M,-31.5,M,,*55
$PYRTM,2024,124.587646868148,15.697294278287
$GPGGA,140611.00,3531.2771,N,12124.6983,W,1,10,1.0,7.6,M,-31.5,M,,*51
$PYRTM,2024,124.587658458669,15.697305868808
$GPGGA,140612.00,3531.2764,N,12124.6956,W,1,10,1.0,5.6,M,-31.5,M,,*5C
$PYRTM,2024,124.587670015556,15.697317425694
$GPGGA,140613.00,3531.2758,N,12124.6929,W,1,10,1.0,6.1,M,-31.5,M,,*5E
$PYRTM,2024,124.587681602755,15.697329012905
$GPGGA,140614.00,3531.2751,N,12124.6902,W,1,10,1.0,9.5,M,-31.5,M,,*52
$PYRTM,2024,124.587693164630,15.697340574769
$GPGGA,140615.00,3531.2745,N,12124.6877,W,1,10,1.0,8.8,M,-31.5,M,,*59
$PYRTM,2024,124.587704751493,15.697352161632
$GPGGA,140616.00,3531.2738,N,12124.6849,W,1,10,1.0,8.3,M,-31.5,M,,*56
$PYRTM,2024,124.587716311690,15.697363721829
$GPGGA,140617.00,3531.2732,N,12124.6822,W,1,10,1.0,6.4,M,-31.5,M,,*59
$PYRTM,2024,124.587727899491,15.697375309630
$GPGGA,140618.00,3531.2725,N,12124.6795,W,1,10,1.0,6.0,M,-31.5,M,,*57
$PYRTM,2024,124.587739460405,15.697386870544
$GPGGA,140619.00,3531.2719,N,12124.6766,W,1,10,1.0,5.5,M,-31.5,M,,*53
$PYRTM,2024,124.587751048113,15.697398458252
$GPGGA,140620.00,3531.2714,N,12124.6738,W,1,10,1.0,5.7,M,-31.5,M,,*5D
$PYRTM,2024,124.587762609213,15.697410019352
$GPGGA,140621.00,3531.2707,N,12124.6711,W,1,10,1.0,8.1,M,-31.5,M,,*5E
$PYRTM,2024,124.587774198218,15.697421608356
$GPGGA,140622.00,3531.2700,N,12124.6686,W,1,10,1.0,6.9,M,-31.5,M,,*53
$PYRTM,2024,124.587785758218,15.697433168356
$GPGGA,140623.00,3531.2691,N,12124.6660,W,1,10,1.0,6.3,M,-31.5,M,,*59
$PYRTM,2024,124.587798390556,15.697445800694
$GPGGA,140624.00,3531.2683,N,12124.6633,W,1,10,1.0,4.6,M,-31.5,M,,*5C
$PYRTM,2024,124.587810425255,15.697457835394
$GPGGA,140625.00,3531.2676,N,12124.6608,W,1,10,1.0,4.5,M,-31.5,M,,*5C
$PYRTM,2024,124.587821547546,15.697468957685
$GPGGA,140626.00,3531.2670,N,12124.6582,W,1,10,1.0,6.0,M,-31.5,M,,*5F
$PYRTM,2024,124.587833094653,15.697480504792
$GPGGA,140627.00,3531.2661,N,12124.6557,W,1,10,1.0,5.0,M,-31.5,M,,*55
$PYRTM,2024,124.587844684688,15.697492094826
$GPGGA,140628.00,3531.2652,N,12124.6533,W,1,10,1.0,2.2,M,-31.5,M,,*5D
$PYRTM,2024,124.587856246007,15.697503656146
$GPGGA,140629.00,3531.2645,N,12124.6506,W,1,10,1.0,2.5,M,-31.5,M,,*5B
$PYRTM,2024,124.587867826447,15.697515236586
$GPGGA,140630.00,3531.2640,N,12124.6478,W,1,10,1.0,3.7,M,-31.5,M,,*5D
$PYRTM,2024,124.587879391829,15.697526801968
$GPGGA,140631.00,3531.2635,N,12124.6450,W,1,10,1.0,4.4,M,-31.5,M,,*50
$PYRTM,2024,124.587890978634,15.697538388773
$GPGGA,140632.00,3531.2627,N,12124.6422,W,1,10,1.0,5.2,M,-31.5,M,,*52
$PYRTM,2024,124.587902540428,15.697549950567
$GPGGA,140633.00,3531.2619,N,12124.6395,W,1,10,1.0,5.5,M,-31.5,M,,*52
$PYRTM,2024,124.587914127280,15.697561537431
$GPGGA,140634.00,3531.2612,N,12124.6368,W,1,10,1.0,2.4,M,-31.5,M,,*5A
$PYRTM,2024,124.587925688947,15.697573099086
$GPGGA,140635.00,3531.2607,N,12124.6341,W,1,10,1.0,4.3,M,-31.5,M,,*55
$PYRTM,2024,124.587937277326,15.697584687465
$GPGGA,140636.00,3531.2603,N,12124.6313,W,1,10,1.0,4.0,M,-31.5,M,,*56
$PYRTM,2024,124.587948837488,15.697596247627
$GPGGA,140637.00,3531.2597,N,12124.6286,W,1,10,1.0,5.6,M,-31.5,M,,*53
$PYRTM,2024,124.587960427245,15.697607837384
$GPGGA,140638.00,3531.2590,N,12124.6261,W,1,10,1.0,4.6,M,-31.5,M,,*53
$PYRTM,2024,124.587971985822,15.697619395972
$GPGGA,140639.00,3531.2582,N,12124.6235,W,1,10,1.0,4.3,M,-31.5,M,,*55
$PYRTM,2024,124.587983575799,15.697630985938
$GPGGA,140640.00,3531.2576,N,12124.6207,W,1,10,1.0,5.7,M,-31.5,M,,*54
$PYRTM,2024,124.587995133299,15.697642543438
$GPGGA,140641.00,3531.2570,N,12124.6179,W,1,10,1.0,6.9,M,-31.5,M,,*54
$PYRTM,2024,124.588006721238,15.697654131377
$GPGGA,140642.00,3531.2564,N,12124.6150,W,1,10,1.0,6.9,M,-31.5,M,,*59
$PYRTM,2024,124.588018281794,15.697665691933
$GPGGA,140643.00,3531.2556,N,12124.6122,W,1,10,1.0,6.2,M,-31.5,M,,*57
$PYRTM,2024,124.588029868403,15.697677278542
$GPGGA,140644.00,3531.2548,N,12124.6095,W,1,10,1.0,6.4,M,-31.5,M,,*54
$PYRTM,2024,124.588041432465,15.697688842604
$GPGGA,140645.00,3531.2540,N,12124.6068,W,1,10,1.0,3.4,M,-31.5,M,,*5A
$PYRTM,2024,124.588053017211,15.697700427350
$GPGGA,140646.00,3531.2534,N,12124.6042,W,1,10,1.0,6.8,M,-31.5,M,,*5B
$PYRTM,2024,124.588064579398,15.697711989537
$GPGGA,140647.00,3531.2529,N,12124.6016,W,1,10,1.0,6.6,M,-31.5,M,,*59
$PYRTM,2024,124.588076164954,15.697723575093
$GPGGA,140648.00,3531.2523,N,12124.5990,W,1,10,1.0,5.8,M,-31.5,M,,*55
$PYRTM,2024,124.588087725926,15.697735136065
$GPGGA,140649.00,3531.2516,N,12124.5966,W,1,10,1.0,7.1,M,-31.5,M,,*50
$PYRTM,2024,124.588099312361,15.697746722500
$GPGGA,140650.00,3531.2508,N,12124.5940,W,1,10,1.0,6.5,M,-31.5,M,,*56
$PYRTM,2024,124.588110873495,15.697758283634
$GPGGA,140651.00,3531.2502,N,12124.5912,W,1,10,1.0,6.2,M,-31.5,M,,*5D
$PYRTM,2024,124.588122475891,15.697769886030
$GPGGA,140652.00,3531.2496,N,12124.5884,W,1,10,1.0,5.4,M,-31.5,M,,*59
$PYRTM,2024,124.588134022014,15.697781432153
$GPGGA,140653.00,3531.2490,N,12124.5855,W,1,10,1.0,7.6,M,-31.5,M,,*52
$PYRTM,2024,124.588147101308,15.697794511447
$GPGGA,140654.00,3531.2484,N,12124.5826,W,1,10,1.0,6.5,M,-31.5,M,,*56
$PYRTM,2024,124.588159833657,15.697807243796
$GPGGA,140655.00,3531.2476,N,12124.5798,W,1,10,1.0,5.9,M,-31.5,M,,*5F
$PYRTM,2024,124.588168772315,15.697816182454
$GPGGA,140656.00,3531.2468,N,12124.5771,W,1,10,1.0,5.1,M,-31.5,M,,*5C
$PYRTM,2024,124.588180318287,15.697827728426
$GPGGA,140657.00,3531.2460,N,12124.5744,W,1,10,1.0,4.2,M,-31.5,M,,*51
$PYRTM,2024,124.588191911169,15.697839321308
$GPGGA,140658.00,3531.2452,N,12124.5717,W,1,10,1.0,5.2,M,-31.5,M,,*58
$PYRTM,2024,124.588203467535,15.697850877674
$GPGGA,140659.00,3531.2445,N,12124.5690,W,1,10,1.0,5.6,M,-31.5,M,,*55
$PYRTM,2024,124.588215056111,15.697862466250
$GPGGA,140700.00,3531.2438,N,12124.5663,W,1,10,1.0,1.8,M,-31.5,M,,*54
$PYRTM,2024,124.588226615880,15.697874026019
$GPGGA,140701.00,3531.2431,N,12124.5635,W,1,10,1.0,2.0,M,-31.5,M,,*54
$PYRTM,2024,124.588238203287,15.697885613426
$GPGGA,140702.00,3531.2424,N,12124.5607,W,1,10,1.0,4.6,M,-31.5,M,,*52
$PYRTM,2024,124.588249765127,15.697897175266
$GPGGA,140703.00,3531.2418,N,12124.5578,W,1,10,1.0,6.3,M,-31.5,M,,*50
$PYRTM,2024,124.588261352384,15.697908762523
$GPGGA,140704.00,3531.2411,N,12124.5550,W,1,10,1.0,5.0,M,-31.5,M,,*54
$PYRTM,2024,124.588272912616,15.697920322755
$GPGGA,140705.00,3531.2403,N,12124.5522,W,1,10,1.0,7.8,M,-31.5,M,,*59
$PYRTM,2024,124.588284502257,15.697931912396
$GPGGA,140706.00,3531.2394,N,12124.5496,W,1,10,1.0,5.8,M,-31.5,M,,*5F
$PYRTM,2024,124.588296060810,15.697943470949
$GPGGA,140707.00,3531.2384,N,12124.5470,W,1,10,1.0,5.8,M,-31.5,M,,*57
$PYRTM,2024,124.588307653056,15.697955063206
$GPGGA,140708.00,3531.2376,N,12124.5444,W,1,10,1.0,6.4,M,-31.5,M,,*5D
$PYRTM,2024,124.588319211123,15.697966621262
$GPGGA,140709.00,3531.2370,N,12124.5418,W,1,10,1.0,5.4,M,-31.5,M,,*50
$PYRTM,2024,124.588330796123,15.697978206262
$GPGGA,140710.00,3531.2363,N,12124.5392,W,1,10,1.0,5.6,M,-31.5,M,,*5D
$PYRTM,2024,124.588342358275,15.697989768426
$GPGGA,140711.00,3531.2357,N,12124.5367,W,1,10,1.0,4.5,M,-31.5,M,,*53
$PYRTM,2024,124.588353945370,15.698001355509
$GPGGA,140712.00,3531.2350,N,12124.5341,W,1,10,1.0,3.9,M,-31.5,M,,*58
$PYRTM,2024,124.588365506111,15.698012916250
$GPGGA,140713.00,3531.2343,N,12124.5313,W,1,10,1.0,4.5,M,-31.5,M,,*57
$PYRTM,2024,124.588377093912,15.698024504051
$GPGGA,140714.00,3531.2338,N,12124.5285,W,1,10,1.0,4.5,M,-31.5,M,,*52
$PYRTM,2024,124.588388654063,15.698036064213
$GPGGA,140715.00,3531.2332,N,12124.5258,W,1,10,1.0,5.7,M,-31.5,M,,*5A
$PYRTM,2024,124.588400235787,15.698047645926
$GPGGA,140716.00,3531.2324,N,12124.5231,W,1,10,1.0,6.1,M,-31.5,M,,*54
$PYRTM,2024,124.588411802674,15.698059212813
$GPGGA,140717.00,3531.2315,N,12124.5205,W,1,10,1.0,3.8,M,-31.5,M,,*5C
$PYRTM,2024,124.588423389653,15.698070799803
$GPGGA,140718.00,3531.2307,N,12124.5178,W,1,10,1.0,4.5,M,-31.5,M,,*53
$PYRTM,2024,124.588434952801,15.698082362940
$GPGGA,140719.00,3531.2300,N,12124.5150,W,1,10,1.0,4.1,M,-31.5,M,,*5B
$PYRTM,2024,124.588446540370,15.698093950509
$GPGGA,140720.00,3531.2296,N,12124.5123,W,1,10,1.0,4.8,M,-31.5,M,,*52
$PYRTM,2024,124.588458101331,15.698105511470
$GPGGA,140721.00,3531.2290,N,12124.5096,W,1,10,1.0,5.5,M,-31.5,M,,*56
$PYRTM,2024,124.588469688773,15.698117098912
$GPGGA,140722.00,3531.2284,N,12124.5069,W,1,10,1.0,4.5,M,-31.5,M,,*51
$PYRTM,2024,124.588481247813,15.698128657951
$GPGGA,140723.00,3531.2276,N,12124.5042,W,1,10,1.0,5.8,M,-31.5,M,,*58
$PYRTM,2024,124.588493978356,15.698141388495
$GPGGA,140724.00,3531.2268,N,12124.5014,W,1,10,1.0,7.3,M,-31.5,M,,*5A
$PYRTM,2024,124.588507058056,15.698154468194
$GPGGA,140725.00,3531.2262,N,12124.4986,W,1,10,1.0,5.9,M,-31.5,M,,*5A
$PYRTM,2024,124.588515983796,15.698163393935
$GPGGA,140726.00,3531.2256,N,12124.4957,W,1,10,1.0,9.0,M,-31.5,M,,*57
$PYRTM,2024,124.588527546400,15.698174956539
$GPGGA,140727.00,3531.2248,N,12124.4930,W,1,10,1.0,8.5,M,-31.5,M,,*5C
$PYRTM,2024,124.588539132095,15.698186542234
$GPGGA,140728.00,3531.2238,N,12124.4903,W,1,10,1.0,8.3,M,-31.5,M,,*52
$PYRTM,2024,124.588550693113,15.698198103252
$GPGGA,140729.00,3531.2230,N,12124.4877,W,1,10,1.0,9.3,M,-31.5,M,,*58
$PYRTM,2024,124.588562279051,15.698209689190
$GPGGA,140730.00,3531.2223,N,12124.4851,W,1,10,1.0,9.4,M,-31.5,M,,*51
$PYRTM,2024,124.588574316377,15.698221726516
$GPGGA,140731.00,3531.2217,N,12124.4824,W,1,10,1.0,7.6,M,-31.5,M,,*59
$PYRTM,2024,124.588585068218,15.698232478356
$GPGGA,140732.00,3531.2212,N,12124.4796,W,1,10,1.0,9.6,M,-31.5,M,,*57
$PYRTM,2024,124.588596178553,15.698243588692
$GPGGA,140733.00,3531.2205,N,12124.4770,W,1,10,1.0,9.2,M,-31.5,M,,*5C
$PYRTM,2024,124.588607174398,15.698254584537
$GPGGA,140734.00,3531.2196,N,12124.4744,W,1,10,1.0,9.2,M,-31.5,M,,*55
$PYRTM,2024,124.588618285903,15.698265696042
$GPGGA,140735.00,3531.2187,N,12124.4719,W,1,10,1.0,7.3,M,-31.5,M,,*53
$PYRTM,2024,124.588629396644,15.698276806782
$GPGGA,140736.00,3531.2179,N,12124.4692,W,1,10,1.0,8.9,M,-31.5,M,,*56
$PYRTM,2024,124.588640506285,15.698287916424
$GPGGA,140737.00,3531.2173,N,12124.4666,W,1,10,1.0,9.3,M,-31.5,M,,*5D
$PYRTM,2024,124.588651618171,15.698299028310
$GPGGA,140738.00,3531.2165,N,12124.4640,W,1,10,1.0,9.9,M,-31.5,M,,*5B
$PYRTM,2024,124.588662734653,15.698310144792
$GPGGA,140739.00,3531.2157,N,12124.4615,W,1,10,1.0,8.4,M,-31.5,M,,*57
$PYRTM,2024,124.588673739491,15.698321149630
$GPGGA,140740.00,3531.2147,N,12124.4590,W,1,10,1.0,6.7,M,-31.5,M,,*5B
$PYRTM,2024,124.588684846296,15.698332256447
$GPGGA,140741.00,3531.2138,N,12124.4565,W,1,10,1.0,6.3,M,-31.5,M,,*5C
$PYRTM,2024,124.588698276042,15.698345686181
$GPGGA,140742.00,3531.2131,N,12124.4539,W,1,10,1.0,7.6,M,-31.5,M,,*5B
$PYRTM,2024,124.588709401285,15.698356811424
$GPGGA,140743.00,3531.2126,N,12124.4511,W,1,10,1.0,5.6,M,-31.5,M,,*54
$PYRTM,2024,124.588720497257,15.698367907396
$GPGGA,140744.00,3531.2121,N,12124.4484,W,1,10,1.0,4.7,M,-31.5,M,,*59
$PYRTM,2024,124.588731955683,15.698379365822
$GPGGA,140745.00,3531.2114,N,12124.4457,W,1,10,1.0,5.7,M,-31.5,M,,*51
$PYRTM,2024,124.588743067072,15.698390477222
$GPGGA,140746.00,3531.2106,N,12124.4432,W,1,10,1.0,3.9,M,-31.5,M,,*5A
$PYRTM,2024,124.588754178449,15.698401588588
$GPGGA,140747.00,3531.2098,N,12124.4406,W,1,10,1.0,2.9,M,-31.5,M,,*5B
$PYRTM,2024,124.588765290579,15.698412700718
$GPGGA,140748.00,3531.2093,N,12124.4379,W,1,10,1.0,4.1,M,-31.5,M,,*5E
$PYRTM,2024,124.588776848889,15.698424259028
$GPGGA,140749.00,3531.2088,N,12124.4352,W,1,10,1.0,3.1,M,-31.5,M,,*5B
$PYRTM,2024,124.588788437535,15.698435847685
$GPGGA,140750.00,3531.2082,N,12124.4327,W,1,10,1.0,0.8,M,-31.5,M,,*51
$PYRTM,2024,124.588799999062,15.698447409201
$GPGGA,140751.00,3531.2074,N,12124.4302,W,1,10,1.0,3.0,M,-31.5,M,,*55
$PYRTM,2024,124.588811586863,15.698458997002
$GPGGA,140752.00,3531.2066,N,12124.4277,W,1,10,1.0,4.9,M,-31.5,M,,*58
$PYRTM,2024,124.588823146308,15.698470556447
$GPGGA,140753.00,3531.2059,N,12124.4250,W,1,10,1.0,3.0,M,-31.5,M,,*5E
$PYRTM,2024,124.588834734259,15.698482144398
$GPGGA,140754.00,3531.2052,N,12124.4221,W,1,10,1.0,3.3,M,-31.5,M,,*57
$PYRTM,2024,124.588850924317,15.698498334456
$GPGGA,140755.00,3531.2044,N,12124.4192,W,1,10,1.0,4.2,M,-31.5,M,,*5C
$PYRTM,2024,124.588862165278,15.698509575417
$GPGGA,140756.00,3531.2035,N,12124.4166,W,1,10,1.0,3.4,M,-31.5,M,,*53
$PYRTM,2024,124.588873740683,15.698521150822
$GPGGA,140757.00,3531.2027,N,12124.4138,W,1,10,1.0,2.5,M,-31.5,M,,*5A
$PYRTM,2024,124.588885312836,15.698532722975
$GPGGA,140758.00,3531.2020,N,12124.4111,W,1,10,1.0,1.5,M,-31.5,M,,*5A
$PYRTM,2024,124.588896887280,15.698544297419
$GPGGA,140759.00,3531.2014,N,12124.4084,W,1,10,1.0,4.9,M,-31.5,M,,*58
$PYRTM,2024,124.588908457234,15.698555867373
$GPGGA,140800.00,3531.2007,N,12124.4058,W,1,10,1.0,3.9,M,-31.5,M,,*5F
$PYRTM,2024,124.588920035660,15.698567445799
$GPGGA,140801.00,3531.1999,N,12124.4032,W,1,10,1.0,3.9,M,-31.5,M,,*5F
$PYRTM,2024,124.588931612407,15.698579022546
$GPGGA,140802.00,3531.1992,N,12124.4007,W,1,10,1.0,4.9,M,-31.5,M,,*56
$PYRTM,2024,124.588943184583,15.698590594722
$GPGGA,140803.00,3531.1985,N,12124.3980,W,1,10,1.0,6.1,M,-31.5,M,,*5A
$PYRTM,2024,124.588954761400,15.698602171539
$GPGGA,140804.00,3531.1980,N,12124.3951,W,1,10,1.0,7.2,M,-31.5,M,,*56
$PYRTM,2024,124.588966327326,15.698613737465
$GPGGA,140805.00,3531.1974,N,12124.3922,W,1,10,1.0,7.4,M,-31.5,M,,*5E
$PYRTM,2024,124.588977910544,15.698625320683
$GPGGA,140806.00,3531.1967,N,12124.3895,W,1,10,1.0,5.1,M,-31.5,M,,*55
$PYRTM,2024,124.588989480405,15.698636890544
$GPGGA,140807.00,3531.1958,N,12124.3868,W,1,10,1.0,5.8,M,-31.5,M,,*53
$PYRTM,2024,124.589001055995,15.698648466134
$GPGGA,140808.00,3531.1950,N,12124.3840,W,1,10,1.0,3.0,M,-31.5,M,,*50
$PYRTM,2024,124.589012628843,15.698660038981
$GPGGA,140809.00,3531.1942,N,12124.3813,W,1,10,1.0,5.8,M,-31.5,M,,*5A
$PYRTM,2024,124.589024203380,15.698671613519
$GPGGA,140810.00,3531.1935,N,12124.3786,W,1,10,1.0,7.5,M,-31.5,M,,*5E
$PYRTM,2024,124.589035776319,15.698683186458
$GPGGA,140811.00,3531.1928,N,12124.3761,W,1,10,1.0,8.0,M,-31.5,M,,*50
$PYRTM,2024,124.589047351389,15.698694761528
$GPGGA,140812.00,3531.1920,N,12124.3737,W,1,10,1.0,9.0,M,-31.5,M,,*59
$PYRTM,2024,124.589058926933,15.698706337072
$GPGGA,140813.00,3531.1913,N,12124.3711,W,1,10,1.0,8.9,M,-31.5,M,,*54
$PYRTM,2024,124.589070500521,15.698717910671
$GPGGA,140814.00,3531.1908,N,12124.3683,W,1,10,1.0,7.4,M,-31.5,M,,*51
$PYRTM,2024,124.589082069745,15.698729479884
$GPGGA,140815.00,3531.1903,N,12124.3656,W,1,10,1.0,7.4,M,-31.5,M,,*53
$PYRTM,2024,124.589093648113,15.698741058252
$GPGGA,140816.00,3531.1897,N,12124.3628,W,1,10,1.0,7.9,M,-31.5,M,,*58
$PYRTM,2024,124.589105222604,15.698752632743
$GPGGA,140817.00,3531.1889,N,12124.3600,W,1,10,1.0,8.1,M,-31.5,M,,*5B
$PYRTM,2024,124.589116801632,15.698764211771
$GPGGA,140818.00,3531.1880,N,12124.3573,W,1,10,1.0,7.2,M,-31.5,M,,*56
$PYRTM,2024,124.589128370197,15.698775780336
$GPGGA,140819.00,3531.1872,N,12124.3545,W,1,10,1.0,6.3,M,-31.5,M,,*5F
$PYRTM,2024,124.589139958252,15.698787368391
$GPGGA,140820.00,3531.1865,N,12124.3518,W,1,10,1.0,7.5,M,-31.5,M,,*5C
$PYRTM,2024,124.589151517569,15.698798927708
$GPGGA,140821.00,3531.1858,N,12124.3492,W,1,10,1.0,6.6,M,-31.5,M,,*52
$PYRTM,2024,124.589163092975,15.698810503113
$GPGGA,140822.00,3531.1851,N,12124.3467,W,1,10,1.0,4.7,M,-31.5,M,,*51
$PYRTM,2024,124.589174666910,15.698822077049
$GPGGA,140823.00,3531.1844,N,12124.3441,W,1,10,1.0,4.8,M,-31.5,M,,*5F
$PYRTM,2024,124.589187282778,15.698834692917
$GPGGA,140824.00,3531.1836,N,12124.3415,W,1,10,1.0,4.3,M,-31.5,M,,*57
$PYRTM,2024,124.589199322697,15.698846732836
$GPGGA,140825.00,3531.1830,N,12124.3388,W,1,10,1.0,5.0,M,-31.5,M,,*51
$PYRTM,2024,124.589210432882,15.698857843032
$GPGGA,140826.00,3531.1825,N,12124.3360,W,1,10,1.0,4.6,M,-31.5,M,,*57
$PYRTM,2024,124.589221993021,15.698869403160
$GPGGA,140827.00,3531.1818,N,12124.3333,W,1,10,1.0,4.1,M,-31.5,M,,*59
$PYRTM,2024,124.589233574931,15.698880985069
$GPGGA,140828.00,3531.1809,N,12124.3308,W,1,10,1.0,4.0,M,-31.5,M,,*5F
$PYRTM,2024,124.589245141053,15.698892551192
$GPGGA,140829.00,3531.1801,N,12124.3282,W,1,10,1.0,5.4,M,-31.5,M,,*50
$PYRTM,2024,124.589256728600,15.698904138738
$GPGGA,140830.00,3531.1794,N,12124.3253,W,1,10,1.0,5.4,M,-31.5,M,,*57
$PYRTM,2024,124.589268289931,15.698915700069
$GPGGA,140831.00,3531.1789,N,12124.3225,W,1,10,1.0,3.8,M,-31.5,M,,*51
$PYRTM,2024,124.589279878310,15.698927288449
$GPGGA,140832.00,3531.1784,N,12124.3197,W,1,10,1.0,6.5,M,-31.5,M,,*5D
$PYRTM,2024,124.589291438565,15.698938848704
$GPGGA,140833.00,3531.1775,N,12124.3170,W,1,10,1.0,5.9,M,-31.5,M,,*54
$PYRTM,2024,124.589303475255,15.698950885394
$GPGGA,140834.00,3531.1766,N,12124.3145,W,1,10,1.0,5.1,M,-31.5,M,,*5F
$PYRTM,2024,124.589314585590,15.698961995729
$GPGGA,140835.00,3531.1760,N,12124.3120,W,1,10,1.0,4.6,M,-31.5,M,,*5D
$PYRTM,2024,124.589326188993,15.698973599132
$GPGGA,140836.00,3531.1754,N,12124.3093,W,1,10,1.0,4.5,M,-31.5,M,,*53
$PYRTM,2024,124.589337733704,15.698985143843
$GPGGA,140837.00,3531.1750,N,12124.3067,W,1,10,1.0,5.7,M,-31.5,M,,*5E
$PYRTM,2024,124.589349322188,15.698996732326
$GPGGA,140838.00,3531.1744,N,12124.3042,W,1,10,1.0,5.8,M,-31.5,M,,*5C
$PYRTM,2024,124.589360882685,15.699008292836
