$PYRTM,2024,127.250009124398,18.359656534537
$GPGGA,055959.00,3359.6438,N,11931.1907,W,1,10,1.0,16.1,M,-33.6,M,,*67
$PYRTM,2024,127.250020712338,18.359668122477
$GPGGA,060000.00,3359.6430,N,11931.1902,W,1,10,1.0,12.1,M,-33.6,M,,*6D
$PYRTM,2024,127.250032274248,18.359679684387
$GPGGA,060001.00,3359.6421,N,11931.1895,W,1,10,1.0,13.0,M,-33.6,M,,*63
$PYRTM,2024,127.250042458657,18.359689868808
$GPGGA,060002.00,3359.6412,N,11931.1887,W,1,10,1.0,12.4,M,-33.6,M,,*66
$PYRTM,2024,127.250054041019,18.359701451157
$GPGGA,060003.00,3359.6403,N,11931.1880,W,1,09,1.0,10.9,M,-33.6,M,,*67
$PYRTM,2024,127.250066194074,18.359713604225
$GPGGA,060004.00,3359.6394,N,11931.1874,W,1,10,1.0,10.9,M,-33.6,M,,*6A
$PYRTM,2024,127.250077310405,18.359724720556
$GPGGA,060005.00,3359.6384,N,11931.1869,W,1,10,0.8,9.8,M,-33.6,M,,*56
$PYRTM,2024,127.250088422095,18.359735832234
$GPGGA,060006.00,3359.6375,N,11931.1863,W,1,10,0.8,10.7,M,-33.6,M,,*66
$PYRTM,2024,127.250099533322,18.359746943461
$GPGGA,060007.00,3359.6366,N,11931.1853,W,1,10,0.8,10.2,M,-33.6,M,,*63
$PYRTM,2024,127.250110644676,18.359758054815
$GPGGA,060008.00,3359.6358,N,11931.1844,W,1,10,0.8,12.1,M,-33.6,M,,*66
$PYRTM,2024,127.250121754572,18.359769164711
$GPGGA,060009.00,3359.6347,N,11931.1839,W,1,10,0.8,11.5,M,-33.6,M,,*64
$PYRTM,2024,127.250132869363,18.359780279502
$GPGGA,060010.00,3359.6336,N,11931.1837,W,1,10,0.8,11.9,M,-33.6,M,,*68
$PYRTM,2024,127.250143977419,18.359791387558
$GPGGA,060011.00,3359.6326,N,11931.1832,W,1,10,0.8,9.7,M,-33.6,M,,*5A
$PYRTM,2024,127.250155089595,18.359802499734
$GPGGA,060012.00,3359.6319,N,11931.1822,W,1,09,1.0,10.8,M,-33.6,M,,*62
$PYRTM,2024,127.250173478079,18.359820888218
$GPGGA,060013.00,3359.6312,N,11931.1813,W,1,09,1.0,8.9,M,-33.6,M,,*52
$PYRTM,2024,127.250184602882,18.359832013021
$GPGGA,060014.00,3359.6304,N,11931.1808,W,1,10,0.8,9.1,M,-33.6,M,,*50
$PYRTM,2024,127.250195598681,18.359843008819
$GPGGA,060015.00,3359.6295,N,11931.1805,W,1,10,0.8,9.9,M,-33.6,M,,*5D
$PYRTM,2024,127.250206814468,18.359854224618
$GPGGA,060016.00,3359.6286,N,11931.1799,W,1,10,0.8,10.5,M,-33.6,M,,*62
$PYRTM,2024,127.250217808507,18.359865218646
$GPGGA,060017.00,3359.6278,N,11931.1791,W,1,10,0.8,8.9,M,-33.6,M,,*5F
$PYRTM,2024,127.250229381782,18.359876791921
$GPGGA,060018.00,3359.6269,N,11931.1782,W,1,10,0.8,8.8,M,-33.6,M,,*53
$PYRTM,2024,127.250240492882,18.359887903021
$GPGGA,060019.00,3359.6260,N,11931.1776,W,1,10,0.8,6.6,M,-33.6,M,,*50
$PYRTM,2024,127.250251604803,18.359899014942
$GPGGA,060020.00,3359.6251,N,11931.1770,W,1,09,1.0,7.9,M,-33.6,M,,*51
$PYRTM,2024,127.250262600266,18.359910010405
$GPGGA,060021.00,3359.6242,N,11931.1763,W,1,10,0.8,9.2,M,-33.6,M,,*54
$PYRTM,2024,127.250278340937,18.359925751076
$GPGGA,060022.00,3359.6234,N,11931.1754,W,1,10,0.8,8.0,M,-33.6,M,,*51
$PYRTM,2024,127.250289335787,18.359936745926
$GPGGA,060023.00,3359.6225,N,11931.1746,W,1,10,0.8,7.5,M,-33.6,M,,*59
$PYRTM,2024,127.250300562859,18.359947972998
$GPGGA,060024.00,3359.6217,N,11931.1740,W,1,10,0.8,11.0,M,-33.6,M,,*6B
$PYRTM,2024,127.250311674769,18.359959084919
$GPGGA,060025.00,3359.6208,N,11931.1732,W,1,10,0.8,12.8,M,-33.6,M,,*6A
$PYRTM,2024,127.250322669873,18.359970080012
$GPGGA,060026.00,3359.6199,N,11931.1723,W,1,10,0.8,9.5,M,-33.6,M,,*55
$PYRTM,2024,127.250333794144,18.359981204282
$GPGGA,060027.00,3359.6192,N,11931.1714,W,1,10,0.8,8.3,M,-33.6,M,,*5C
$PYRTM,2024,127.250344905660,18.359992315799
$GPGGA,060028.00,3359.6185,N,11931.1706,W,1,10,0.8,8.5,M,-33.6,M,,*50
$PYRTM,2024,127.250356351088,18.360003761227
$GPGGA,060029.00,3359.6178,N,11931.1700,W,1,10,0.8,7.9,M,-33.6,M,,*56
$PYRTM,2024,127.250367938380,18.360015348519
$GPGGA,060030.00,3359.6170,N,11931.1694,W,1,10,0.8,6.2,M,-33.6,M,,*50
$PYRTM,2024,127.250379497164,18.360026907303
$GPGGA,060031.00,3359.6163,N,11931.1685,W,1,10,0.8,9.3,M,-33.6,M,,*5D
$PYRTM,2024,127.250391085590,18.360038495729
$GPGGA,060032.00,3359.6157,N,11931.1676,W,1,10,0.8,11.5,M,-33.6,M,,*6A
$PYRTM,2024,127.250402643738,18.360050053877
$GPGGA,060033.00,3359.6149,N,11931.1669,W,1,10,0.8,12.7,M,-33.6,M,,*6B
$PYRTM,2024,127.250414234826,18.360061644977
$GPGGA,060034.00,3359.6139,N,11931.1662,W,1,10,0.8,13.4,M,-33.6,M,,*62
$PYRTM,2024,127.250425794468,18.360073204606
$GPGGA,060035.00,3359.6131,N,11931.1656,W,1,10,0.8,12.7,M,-33.6,M,,*6E
$PYRTM,2024,127.250437381875,18.360084792025
$GPGGA,060036.00,3359.6122,N,11931.1649,W,1,10,0.8,13.3,M,-33.6,M,,*64
$PYRTM,2024,127.250448942639,18.360096352778
$GPGGA,060037.00,3359.6113,N,11931.1642,W,1,10,0.8,14.5,M,-33.6,M,,*6D
$PYRTM,2024,127.250460530706,18.360107940845
$GPGGA,060038.00,3359.6103,N,11931.1633,W,1,10,0.8,15.3,M,-33.6,M,,*62
$PYRTM,2024,127.250472090775,18.360119500926
$GPGGA,060039.00,3359.6093,N,11931.1624,W,1,10,0.8,13.5,M,-33.6,M,,*6D
$PYRTM,2024,127.250483679352,18.360131089491
$GPGGA,060040.00,3359.6082,N,11931.1616,W,1,10,0.8,14.5,M,-33.6,M,,*65
$PYRTM,2024,127.250495238194,18.360142648333
$GPGGA,060041.00,3359.6073,N,11931.1608,W,1,10,0.8,15.3,M,-33.6,M,,*62
$PYRTM,2024,127.250506827211,18.360154237361
$GPGGA,060042.00,3359.6063,N,11931.1602,W,1,10,0.8,15.0,M,-33.6,M,,*69
$PYRTM,2024,127.250518386250,18.360165796389
$GPGGA,060043.00,3359.6054,N,11931.1594,W,1,10,0.8,14.2,M,-33.6,M,,*63
$PYRTM,2024,127.250529970509,18.360177380648
$GPGGA,060044.00,3359.6044,N,11931.1586,W,1,10,0.8,15.6,M,-33.6,M,,*63
$PYRTM,2024,127.250541535278,18.360188945417
$GPGGA,060045.00,3359.6035,N,11931.1579,W,1,10,0.8,14.4,M,-33.6,M,,*67
$PYRTM,2024,127.250553123912,18.360200534062
$GPGGA,060046.00,3359.6026,N,11931.1574,W,1,10,0.8,16.8,M,-33.6,M,,*65
$PYRTM,2024,127.250564684977,18.360212095116
$GPGGA,060047.00,3359.6016,N,11931.1569,W,1,10,0.8,14.7,M,-33.6,M,,*66
$PYRTM,2024,127.250576266852,18.360223676991
$GPGGA,060048.00,3359.6005,N,11931.1563,W,1,10,0.8,12.8,M,-33.6,M,,*68
$PYRTM,2024,127.250587832280,18.360235242419
$GPGGA,060049.00,3359.5996,N,11931.1556,W,1,10,0.8,13.0,M,-33.6,M,,*66
$PYRTM,2024,127.250599421042,18.360246831192
$GPGGA,060050.00,3359.5986,N,11931.1548,W,1,10,0.8,13.6,M,-33.6,M,,*66
$PYRTM,2024,127.250610980891,18.360258391030
$GPGGA,060051.00,3359.5976,N,11931.1542,W,1,10,0.8,13.6,M,-33.6,M,,*62
$PYRTM,2024,127.250621165417,18.360268575567
$GPGGA,060052.00,3359.5966,N,11931.1538,W,1,10,0.8,13.5,M,-33.6,M,,*6E
$PYRTM,2024,127.250633087639,18.360280497778
$GPGGA,060053.00,3359.5955,N,11931.1535,W,1,10,0.8,14.4,M,-33.6,M,,*64
$PYRTM,2024,127.250645717361,18.360293127500
$GPGGA,060054.00,3359.5945,N,11931.1531,W,1,10,0.8,13.0,M,-33.6,M,,*65
$PYRTM,2024,127.250657277222,18.360304687373
$GPGGA,060055.00,3359.5936,N,11931.1526,W,1,10,0.8,11.9,M,-33.6,M,,*6D
$PYRTM,2024,127.250668865289,18.360316275440
$GPGGA,060056.00,3359.5926,N,11931.1521,W,1,10,0.8,11.9,M,-33.6,M,,*68
$PYRTM,2024,127.250680425139,18.360327835278
$GPGGA,060057.00,3359.5915,N,11931.1519,W,1,10,0.8,12.3,M,-33.6,M,,*6B
$PYRTM,2024,127.250692009676,18.360339419815
$GPGGA,060058.00,3359.5903,N,11931.1517,W,1,10,0.8,11.6,M,-33.6,M,,*6B
$PYRTM,2024,127.250703573773,18.360350983912
$GPGGA,060059.00,3359.5892,N,11931.1514,W,1,10,0.8,13.9,M,-33.6,M,,*6D
$PYRTM,2024,127.250715162650,18.360362572789
$GPGGA,060100.00,3359.5883,N,11931.1509,W,1,09,1.0,12.1,M,-33.6,M,,*64
$PYRTM,2024,127.250726722361,18.360374132500
$GPGGA,060101.00,3359.5873,N,11931.1505,W,1,10,0.8,12.5,M,-33.6,M,,*63
$PYRTM,2024,127.250738310127,18.360385720266
$GPGGA,060102.00,3359.5864,N,11931.1504,W,1,10,0.8,11.7,M,-33.6,M,,*66
$PYRTM,2024,127.250749870370,18.360397280509
$GPGGA,060103.00,3359.5856,N,11931.1502,W,1,10,0.8,12.4,M,-33.6,M,,*60
$PYRTM,2024,127.250761458912,18.360408869051
$GPGGA,060104.00,3359.5848,N,11931.1498,W,1,10,0.8,13.4,M,-33.6,M,,*6B
$PYRTM,2024,127.250773019398,18.360420429537
$GPGGA,060105.00,3359.5840,N,11931.1495,W,1,10,0.8,11.6,M,-33.6,M,,*6F
$PYRTM,2024,127.250784607986,18.360432018125
$GPGGA,060106.00,3359.5833,N,11931.1492,W,1,10,0.8,11.2,M,-33.6,M,,*6B
$PYRTM,2024,127.250796167118,18.360443577257
$GPGGA,060107.00,3359.5826,N,11931.1491,W,1,10,0.8,11.5,M,-33.6,M,,*6A
$PYRTM,2024,127.250807756007,18.360455166157
$GPGGA,060108.00,3359.5818,N,11931.1488,W,1,10,1.0,10.8,M,-33.6,M,,*65
$PYRTM,2024,127.250819316458,18.360466726597
$GPGGA,060109.00,3359.5809,N,11931.1485,W,1,10,1.0,10.9,M,-33.6,M,,*68
$PYRTM,2024,127.250830902824,18.360478312963
$GPGGA,060110.00,3359.5798,N,11931.1483,W,1,10,1.0,11.3,M,-33.6,M,,*6A
$PYRTM,2024,127.250842464977,18.360489875116
$GPGGA,060111.00,3359.5789,N,11931.1481,W,1,10,1.0,11.1,M,-33.6,M,,*6B
$PYRTM,2024,127.250854051273,18.360501461412
$GPGGA,060112.00,3359.5778,N,11931.1478,W,1,10,1.0,12.6,M,-33.6,M,,*64
$PYRTM,2024,127.250865612500,18.360513022639
$GPGGA,060113.00,3359.5767,N,11931.1475,W,1,10,1.0,13.5,M,-33.6,M,,*64
$PYRTM,2024,127.250877196111,18.360524606250
$GPGGA,060114.00,3359.5757,N,11931.1474,W,1,10,1.0,14.7,M,-33.6,M,,*64
$PYRTM,2024,127.250888759699,18.360536169838
$GPGGA,060115.00,3359.5747,N,11931.1474,W,1,10,1.0,13.0,M,-33.6,M,,*64
$PYRTM,2024,127.250900348762,18.360547758912
$GPGGA,060116.00,3359.5737,N,11931.1474,W,1,10,1.0,13.0,M,-33.6,M,,*60
$PYRTM,2024,127.250911908137,18.360559318275
$GPGGA,060117.00,3359.5727,N,11931.1472,W,1,10,1.0,13.9,M,-33.6,M,,*6F
$PYRTM,2024,127.250923491343,18.360570901481
$GPGGA,060118.00,3359.5718,N,11931.1470,W,1,10,1.0,14.2,M,-33.6,M,,*62
$PYRTM,2024,127.250935058032,18.360582468171
$GPGGA,060119.00,3359.5709,N,11931.1470,W,1,10,1.0,14.8,M,-33.6,M,,*69
$PYRTM,2024,127.250946644850,18.360594054988
$GPGGA,060120.00,3359.5700,N,11931.1469,W,1,10,1.0,15.1,M,-33.6,M,,*6A
$PYRTM,2024,127.250958205451,18.360605615590
$GPGGA,060121.00,3359.5692,N,11931.1468,W,1,10,1.0,14.3,M,-33.6,M,,*63
$PYRTM,2024,127.250968389988,18.360615800139
$GPGGA,060122.00,3359.5684,N,11931.1466,W,1,10,1.0,16.9,M,-33.6,M,,*61
$PYRTM,2024,127.250980313333,18.360627723472
$GPGGA,060123.00,3359.5676,N,11931.1461,W,1,10,1.0,15.4,M,-33.6,M,,*64
$PYRTM,2024,127.250992941146,18.360640351285
$GPGGA,060124.00,3359.5667,N,11931.1458,W,1,10,1.0,15.9,M,-33.6,M,,*64
$PYRTM,2024,127.251004502442,18.360651912581
$GPGGA,060125.00,3359.5658,N,11931.1460,W,1,10,1.0,15.5,M,-33.6,M,,*6E
$PYRTM,2024,127.251016089988,18.360663500139
$GPGGA,060126.00,3359.5650,N,11931.1462,W,1,10,1.0,14.0,M,-33.6,M,,*63
$PYRTM,2024,127.251027649630,18.360675059769
$GPGGA,060127.00,3359.5642,N,11931.1460,W,1,10,1.0,14.4,M,-33.6,M,,*67
$PYRTM,2024,127.251039234236,18.360686644375
$GPGGA,060128.00,3359.5633,N,11931.1455,W,1,10,1.0,14.5,M,-33.6,M,,*69
$PYRTM,2024,127.251050799201,18.360698209340
$GPGGA,060129.00,3359.5626,N,11931.1451,W,1,10,1.0,12.6,M,-33.6,M,,*6D
$PYRTM,2024,127.251062386296,18.360709796435
$GPGGA,060130.00,3359.5617,N,11931.1450,W,1,10,1.0,14.8,M,-33.6,M,,*6E
$PYRTM,2024,127.251073945694,18.360721355833
$GPGGA,060131.00,3359.5607,N,11931.1454,W,1,10,1.0,13.9,M,-33.6,M,,*6C
$PYRTM,2024,127.251085530162,18.360732940301
$GPGGA,060132.00,3359.5597,N,11931.1455,W,1,10,1.0,14.9,M,-33.6,M,,*63
$PYRTM,2024,127.251097095671,18.360744505810
$GPGGA,060133.00,3359.5588,N,11931.1451,W,1,10,1.0,16.2,M,-33.6,M,,*61
$PYRTM,2024,127.251108682998,18.360756093148
$GPGGA,060134.00,3359.5579,N,11931.1444,W,1,10,1.0,15.8,M,-33.6,M,,*65
$PYRTM,2024,127.251120244329,18.360767654468
$GPGGA,060135.00,3359.5568,N,11931.1442,W,1,10,1.0,12.4,M,-33.6,M,,*69
$PYRTM,2024,127.251131831632,18.360779241771
$GPGGA,060136.00,3359.5556,N,11931.1444,W,1,10,1.0,12.7,M,-33.6,M,,*62
$PYRTM,2024,127.251143391204,18.360790801343
$GPGGA,060137.00,3359.5547,N,11931.1444,W,1,10,1.0,13.7,M,-33.6,M,,*62
$PYRTM,2024,127.251154979167,18.360802389306
$GPGGA,060138.00,3359.5538,N,11931.1441,W,1,10,1.0,13.7,M,-33.6,M,,*60
$PYRTM,2024,127.251166539954,18.360813950093
$GPGGA,060139.00,3359.5528,N,11931.1436,W,1,10,1.0,15.8,M,-33.6,M,,*69
$PYRTM,2024,127.251178123380,18.360825533519
$GPGGA,060140.00,3359.5517,N,11931.1433,W,1,10,1.0,16.1,M,-33.6,M,,*64
$PYRTM,2024,127.251189687581,18.360837097720
$GPGGA,060141.00,3359.5508,N,11931.1433,W,1,10,1.0,17.6,M,-33.6,M,,*6D
$PYRTM,2024,127.251201276991,18.360848687141
$GPGGA,060142.00,3359.5499,N,11931.1434,W,1,10,1.0,17.5,M,-33.6,M,,*63
$PYRTM,2024,127.251212835532,18.360860245671
$GPGGA,060143.00,3359.5491,N,11931.1434,W,1,10,1.0,16.2,M,-33.6,M,,*6C
$PYRTM,2024,127.251224424954,18.360871835093
$GPGGA,060144.00,3359.5481,N,11931.1434,W,1,10,1.0,16.5,M,-33.6,M,,*6D
$PYRTM,2024,127.251235984838,18.360883394977
$GPGGA,060145.00,3359.5473,N,11931.1431,W,1,10,1.0,15.3,M,-33.6,M,,*61
$PYRTM,2024,127.251247568021,18.360894978160
$GPGGA,060146.00,3359.5464,N,11931.1431,W,1,10,1.0,15.9,M,-33.6,M,,*6E
$PYRTM,2024,127.251259133032,18.360906543171
$GPGGA,060147.00,3359.5454,N,11931.1433,W,1,10,1.0,17.4,M,-33.6,M,,*61
$PYRTM,2024,127.251270721215,18.360918131354
$GPGGA,060148.00,3359.5445,N,11931.1433,W,1,10,1.0,13.4,M,-33.6,M,,*6A
$PYRTM,2024,127.251282280949,18.360929691088
$GPGGA,060149.00,3359.5435,N,11931.1432,W,1,10,1.0,15.5,M,-33.6,M,,*6A
$PYRTM,2024,127.251293868727,18.360941278866
$GPGGA,060150.00,3359.5425,N,11931.1430,W,1,10,1.0,14.6,M,-33.6,M,,*63
$PYRTM,2024,127.251305428229,18.360952838368
$GPGGA,060151.00,3359.5415,N,11931.1429,W,1,10,1.0,14.0,M,-33.6,M,,*6F
$PYRTM,2024,127.251315613032,18.360963023171
$GPGGA,060152.00,3359.5406,N,11931.1428,W,1,10,1.0,14.5,M,-33.6,M,,*6A
$PYRTM,2024,127.251327537986,18.360974948125
$GPGGA,060153.00,3359.5396,N,11931.1429,W,1,10,1.0,16.1,M,-33.6,M,,*62
$PYRTM,2024,127.251340165405,18.360987575544
$GPGGA,060154.00,3359.5387,N,11931.1428,W,1,10,1.0,13.8,M,-33.6,M,,*68
$PYRTM,2024,127.251351726516,18.360999136655
$GPGGA,060155.00,3359.5378,N,11931.1430,W,1,10,1.0,12.6,M,-33.6,M,,*6F
$PYRTM,2024,127.251363314780,18.361010724919
$GPGGA,060156.00,3359.5367,N,11931.1430,W,1,10,1.0,13.6,M,-33.6,M,,*63
$PYRTM,2024,127.251374874340,18.361022284479
$GPGGA,060157.00,3359.5356,N,11931.1428,W,1,10,1.0,15.5,M,-33.6,M,,*6C
$PYRTM,2024,127.251386462488,18.361033872627
$GPGGA,060158.00,3359.5347,N,11931.1426,W,1,10,1.0,16.9,M,-33.6,M,,*62
$PYRTM,2024,127.251398021771,18.361045431921
$GPGGA,060159.00,3359.5339,N,11931.1427,W,1,10,1.0,16.6,M,-33.6,M,,*64
$PYRTM,2024,127.251409612049,18.361057022187
$GPGGA,060200.00,3359.5331,N,11931.1428,W,1,10,1.0,13.9,M,-33.6,M,,*66
$PYRTM,2024,127.251421171493,18.361068581632
$GPGGA,060201.00,3359.5323,N,11931.1427,W,1,10,1.0,15.5,M,-33.6,M,,*61
$PYRTM,2024,127.251432759225,18.361080169363
$GPGGA,060202.00,3359.5314,N,11931.1423,W,1,10,1.0,17.8,M,-33.6,M,,*6D
$PYRTM,2024,127.251444319097,18.361091729248
$GPGGA,060203.00,3359.5304,N,11931.1418,W,1,10,1.0,16.0,M,-33.6,M,,*6C
$PYRTM,2024,127.251455902361,18.361103312500
$GPGGA,060204.00,3359.5294,N,11931.1416,W,1,10,1.0,14.8,M,-33.6,M,,*67
$PYRTM,2024,127.251467468079,18.361114878218
$GPGGA,060205.00,3359.5283,N,11931.1417,W,1,10,1.0,14.2,M,-33.6,M,,*6B
$PYRTM,2024,127.251479057280,18.361126467431
$GPGGA,060206.00,3359.5271,N,11931.1417,W,1,10,1.0,15.3,M,-33.6,M,,*65
$PYRTM,2024,127.251488649664,18.361136059803
$GPGGA,060207.00,3359.5260,N,11931.1413,W,1,10,1.0,16.2,M,-33.6,M,,*62
$PYRTM,2024,127.251501612998,18.361149023137
$GPGGA,060208.00,3359.5250,N,11931.1408,W,1,10,1.0,17.0,M,-33.6,M,,*67
$PYRTM,2024,127.251512388356,18.361159798495
$GPGGA,060209.00,3359.5240,N,11931.1406,W,1,10,1.0,16.5,M,-33.6,M,,*6D
$PYRTM,2024,127.251523496690,18.361170906829
$GPGGA,060210.00,3359.5229,N,11931.1409,W,1,10,1.0,16.1,M,-33.6,M,,*61
$PYRTM,2024,127.251534610961,18.361182021100
$GPGGA,060211.00,3359.5218,N,11931.1410,W,1,10,1.0,15.3,M,-33.6,M,,*6B
$PYRTM,2024,127.251545717998,18.361193128137
$GPGGA,060212.00,3359.5208,N,11931.1408,W,1,10,1.0,16.0,M,-33.6,M,,*60
$PYRTM,2024,127.251556828877,18.361204239016
$GPGGA,060213.00,3359.5199,N,11931.1404,W,1,10,1.0,14.7,M,-33.6,M,,*63
$PYRTM,2024,127.251567941181,18.361215351319
$GPGGA,060214.00,3359.5192,N,11931.1400,W,1,10,1.0,15.1,M,-33.6,M,,*6C
$PYRTM,2024,127.251579055706,18.361226465845
$GPGGA,060215.00,3359.5184,N,11931.1401,W,1,10,1.0,14.3,M,-33.6,M,,*68
$PYRTM,2024,127.251590163542,18.361237573692
$GPGGA,060216.00,3359.5174,N,11931.1403,W,1,10,1.0,13.3,M,-33.6,M,,*61
$PYRTM,2024,127.251601728507,18.361249138646
$GPGGA,060217.00,3359.5166,N,11931.1402,W,1,10,1.0,12.5,M,-33.6,M,,*65
$PYRTM,2024,127.251613317037,18.361260727211
$GPGGA,060218.00,3359.5158,N,11931.1398,W,1,10,1.0,13.8,M,-33.6,M,,*6F
$PYRTM,2024,127.251624875671,18.361272285810
$GPGGA,060219.00,3359.5149,N,11931.1393,W,1,10,1.0,13.0,M,-33.6,M,,*6D
$PYRTM,2024,127.251636465069,18.361283875208
$GPGGA,060220.00,3359.5140,N,11931.1391,W,1,10,1.0,12.4,M,-33.6,M,,*69
$PYRTM,2024,127.251648025243,18.361295435394
$GPGGA,060221.00,3359.5130,N,11931.1391,W,1,10,1.0,15.0,M,-33.6,M,,*6C
$PYRTM,2024,127.251663201562,18.361310611701
$GPGGA,060222.00,3359.5119,N,11931.1388,W,1,10,1.0,15.3,M,-33.6,M,,*6F
$PYRTM,2024,127.251674761551,18.361322171690
$GPGGA,060223.00,3359.5108,N,11931.1384,W,1,10,1.0,13.5,M,-33.6,M,,*62
$PYRTM,2024,127.251686344120,18.361333754259
$GPGGA,060224.00,3359.5097,N,11931.1380,W,1,10,1.0,15.0,M,-33.6,M,,*65
$PYRTM,2024,127.251697911806,18.361345321944
$GPGGA,060225.00,3359.5086,N,11931.1379,W,1,10,1.0,12.0,M,-33.6,M,,*65
$PYRTM,2024,127.251709500903,18.361356911042
$GPGGA,060226.00,3359.5075,N,11931.1379,W,1,10,1.0,13.0,M,-33.6,M,,*6B
$PYRTM,2024,127.251721059225,18.361368469363
$GPGGA,060227.00,3359.5065,N,11931.1378,W,1,10,1.0,15.4,M,-33.6,M,,*68
$PYRTM,2024,127.251732644965,18.361380055104
$GPGGA,060228.00,3359.5054,N,11931.1377,W,1,10,1.0,14.4,M,-33.6,M,,*6B
$PYRTM,2024,127.251744206910,18.361391617049
$GPGGA,060229.00,3359.5043,N,11931.1376,W,1,09,1.0,13.2,M,-33.6,M,,*64
$PYRTM,2024,127.251755794896,18.361403205046
$GPGGA,060230.00,3359.5032,N,11931.1374,W,1,10,1.0,14.6,M,-33.6,M,,*63
$PYRTM,2024,127.251767354896,18.361414765035
$GPGGA,060231.00,3359.5023,N,11931.1371,W,1,10,1.0,13.6,M,-33.6,M,,*60
$PYRTM,2024,127.251778944769,18.361426354907
$GPGGA,060232.00,3359.5013,N,11931.1369,W,1,10,1.0,14.3,M,-33.6,M,,*6B
$PYRTM,2024,127.251790503426,18.361437913565
$GPGGA,060233.00,3359.5003,N,11931.1369,W,1,10,1.0,15.5,M,-33.6,M,,*6C
$PYRTM,2024,127.251802096389,18.361449506528
$GPGGA,060234.00,3359.4992,N,11931.1367,W,1,10,1.0,16.6,M,-33.6,M,,*65
$PYRTM,2024,127.251813651435,18.361461061574
$GPGGA,060235.00,3359.4982,N,11931.1363,W,1,10,1.0,17.7,M,-33.6,M,,*61
$PYRTM,2024,127.251825234421,18.361472644560
$GPGGA,060236.00,3359.4973,N,11931.1357,W,1,10,1.0,16.2,M,-33.6,M,,*6F
$PYRTM,2024,127.251836800926,18.361484211065
$GPGGA,060237.00,3359.4962,N,11931.1352,W,1,10,1.0,15.5,M,-33.6,M,,*6F
$PYRTM,2024,127.251848387766,18.361495797905
$GPGGA,060238.00,3359.4951,N,11931.1350,W,1,10,1.0,15.0,M,-33.6,M,,*67
$PYRTM,2024,127.251859947766,18.361507357917
$GPGGA,060239.00,3359.4942,N,11931.1347,W,1,10,1.0,13.8,M,-33.6,M,,*6C
$PYRTM,2024,127.251871534630,18.361518944769
$GPGGA,060240.00,3359.4933,N,11931.1342,W,1,09,1.0,15.3,M,-33.6,M,,*64
$PYRTM,2024,127.251883097245,18.361530507396
$GPGGA,060241.00,3359.4922,N,11931.1337,W,1,10,1.0,13.8,M,-33.6,M,,*62
$PYRTM,2024,127.251894684155,18.361542094294
$GPGGA,060242.00,3359.4910,N,11931.1335,W,1,10,1.0,13.4,M,-33.6,M,,*6E
$PYRTM,2024,127.251906244086,18.361553654225
$GPGGA,060243.00,3359.4899,N,11931.1333,W,1,09,1.0,14.9,M,-33.6,M,,*6B
$PYRTM,2024,127.251917832685,18.361565242824
$GPGGA,060244.00,3359.4889,N,11931.1329,W,1,10,1.0,13.0,M,-33.6,M,,*60
$PYRTM,2024,127.251929392801,18.361576802940
$GPGGA,060245.00,3359.4879,N,11931.1324,W,1,10,1.0,12.4,M,-33.6,M,,*66
$PYRTM,2024,127.251940979479,18.361588389618
$GPGGA,060246.00,3359.4868,N,11931.1319,W,1,10,1.0,12.3,M,-33.6,M,,*6C
$PYRTM,2024,127.251952542269,18.361599952407
$GPGGA,060247.00,3359.4859,N,11931.1316,W,1,10,1.0,12.0,M,-33.6,M,,*63
$PYRTM,2024,127.251964133403,18.361611543542
$GPGGA,060248.00,3359.4852,N,11931.1312,W,1,10,1.0,10.5,M,-33.6,M,,*64
$PYRTM,2024,127.251975689664,18.361623099803
$GPGGA,060249.00,3359.4844,N,11931.1306,W,1,10,1.0,12.1,M,-33.6,M,,*61
$PYRTM,2024,127.251987291331,18.361634701470
$GPGGA,060250.00,3359.4834,N,11931.1301,W,1,10,1.0,13.9,M,-33.6,M,,*60
$PYRTM,2024,127.251998837326,18.361646247465
$GPGGA,060251.00,3359.4825,N,11931.1295,W,1,10,1.0,14.1,M,-33.6,M,,*62
$PYRTM,2024,127.252010062951,18.361657473090
$GPGGA,060252.00,3359.4817,N,11931.1291,W,1,10,1.0,13.7,M,-33.6,M,,*65
$PYRTM,2024,127.252023026806,18.361670436944
$GPGGA,060253.00,3359.4809,N,11931.1288,W,1,10,1.0,12.9,M,-33.6,M,,*6C
$PYRTM,2024,127.252034615880,18.361682026019
$GPGGA,060254.00,3359.4801,N,11931.1284,W,1,10,1.0,11.3,M,-33.6,M,,*66
$PYRTM,2024,127.252046176794,18.361693586933
$GPGGA,060255.00,3359.4792,N,11931.1279,W,1,10,1.0,12.5,M,-33.6,M,,*65
$PYRTM,2024,127.252057758252,18.361705168391
$GPGGA,060256.00,3359.4784,N,11931.1271,W,1,10,1.0,14.4,M,-33.6,M,,*6E
$PYRTM,2024,127.252069323090,18.361716733229
$GPGGA,060257.00,3359.4775,N,11931.1264,W,1,10,1.0,15.9,M,-33.6,M,,*69
$PYRTM,2024,127.252080913137,18.361728323275
$GPGGA,060258.00,3359.4764,N,11931.1260,W,1,10,1.0,13.2,M,-33.6,M,,*6F
$PYRTM,2024,127.252092471632,18.361739881771
$GPGGA,060259.00,3359.4753,N,11931.1258,W,1,10,1.0,11.0,M,-33.6,M,,*61
$PYRTM,2024,127.252104061192,18.361751471331
$GPGGA,060300.00,3359.4743,N,11931.1254,W,1,10,0.8,10.3,M,-33.6,M,,*6A
$PYRTM,2024,127.252115620799,18.361763030937
$GPGGA,060301.00,3359.4733,N,11931.1246,W,1,10,0.8,12.7,M,-33.6,M,,*69
$PYRTM,2024,127.252127208032,18.361774618171
$GPGGA,060302.00,3359.4723,N,11931.1239,W,1,10,0.8,12.6,M,-33.6,M,,*62
$PYRTM,2024,127.252138767373,18.361786177512
$GPGGA,060303.00,3359.4714,N,11931.1235,W,1,10,0.8,12.3,M,-33.6,M,,*6E
$PYRTM,2024,127.252150357407,18.361797767546
$GPGGA,060304.00,3359.4704,N,11931.1235,W,1,10,0.8,12.8,M,-33.6,M,,*63
$PYRTM,2024,127.252161916644,18.361809326794
$GPGGA,060305.00,3359.4693,N,11931.1233,W,1,10,1.0,15.0,M,-33.6,M,,*6D
$PYRTM,2024,127.252173505347,18.361820915486
$GPGGA,060306.00,3359.4685,N,11931.1226,W,1,10,1.0,13.3,M,-33.6,M,,*68
$PYRTM,2024,127.252185065255,18.361832475394
$GPGGA,060307.00,3359.4678,N,11931.1218,W,1,10,1.0,10.9,M,-33.6,M,,*6F
$PYRTM,2024,127.252196653495,18.361844063634
$GPGGA,060308.00,3359.4671,N,11931.1213,W,1,10,1.0,10.5,M,-33.6,M,,*6E
$PYRTM,2024,127.252208212326,18.361855622465
$GPGGA,060309.00,3359.4661,N,11931.1212,W,1,10,1.0,11.8,M,-33.6,M,,*63
$PYRTM,2024,127.252219797106,18.361867207257
$GPGGA,060310.00,3359.4652,N,11931.1210,W,1,10,1.0,15.1,M,-33.6,M,,*64
$PYRTM,2024,127.252231361991,18.361878772141
$GPGGA,060311.00,3359.4643,N,11931.1202,W,1,10,1.0,13.7,M,-33.6,M,,*66
$PYRTM,2024,127.252243398750,18.361890808889
$GPGGA,060312.00,3359.4636,N,11931.1191,W,1,10,1.0,11.9,M,-33.6,M,,*62
$PYRTM,2024,127.252254509988,18.361901920127
$GPGGA,060313.00,3359.4628,N,11931.1185,W,1,10,1.0,13.2,M,-33.6,M,,*60
$PYRTM,2024,127.252266098356,18.361913508495
$GPGGA,060314.00,3359.4617,N,11931.1184,W,1,10,1.0,14.2,M,-33.6,M,,*6D
$PYRTM,2024,127.252277658356,18.361925068495
$GPGGA,060315.00,3359.4608,N,11931.1182,W,1,10,1.0,13.7,M,-33.6,M,,*66
$PYRTM,2024,127.252289248056,18.361936658194
$GPGGA,060316.00,3359.4600,N,11931.1175,W,1,10,1.0,13.1,M,-33.6,M,,*63
$PYRTM,2024,127.252300806944,18.361948217083
$GPGGA,060317.00,3359.4592,N,11931.1166,W,1,10,1.0,13.3,M,-33.6,M,,*6A
$PYRTM,2024,127.252312843333,18.361960253472
$GPGGA,060318.00,3359.4582,N,11931.1160,W,1,10,1.0,14.8,M,-33.6,M,,*6E
$PYRTM,2024,127.252323955949,18.361971366088
$GPGGA,060319.00,3359.4572,N,11931.1159,W,1,09,1.0,13.4,M,-33.6,M,,*69
$PYRTM,2024,127.252335538600,18.361982948738
$GPGGA,060320.00,3359.4563,N,11931.1156,W,1,10,1.0,15.1,M,-33.6,M,,*67
$PYRTM,2024,127.252347102998,18.361994513137
$GPGGA,060321.00,3359.4554,N,11931.1148,W,1,10,1.0,15.1,M,-33.6,M,,*6D
$PYRTM,2024,127.252359835081,18.362007245220
$GPGGA,060322.00,3359.4546,N,11931.1140,W,1,10,1.0,14.4,M,-33.6,M,,*61
$PYRTM,2024,127.252372452269,18.362019862407
$GPGGA,060323.00,3359.4538,N,11931.1133,W,1,10,1.0,12.3,M,-33.6,M,,*6C
$PYRTM,2024,127.252381839317,18.362029249456
$GPGGA,060324.00,3359.4529,N,11931.1130,W,1,10,1.0,11.9,M,-33.6,M,,*61
$PYRTM,2024,127.252393398600,18.362040808738
$GPGGA,060325.00,3359.4519,N,11931.1128,W,1,10,1.0,13.4,M,-33.6,M,,*65
$PYRTM,2024,127.252404987326,18.362052397465
$GPGGA,060326.00,3359.4510,N,11931.1123,W,1,10,1.0,11.7,M,-33.6,M,,*65
$PYRTM,2024,127.252416549190,18.362063959329
$GPGGA,060327.00,3359.4502,N,11931.1114,W,1,10,1.0,11.8,M,-33.6,M,,*6C
$PYRTM,2024,127.252428137141,18.362075547280
$GPGGA,060328.00,3359.4493,N,11931.1108,W,1,10,1.0,11.4,M,-33.6,M,,*6B
$PYRTM,2024,127.252439696169,18.362087106308
$GPGGA,060329.00,3359.4482,N,11931.1105,W,1,10,1.0,7.5,M,-33.6,M,,*51
$PYRTM,2024,127.252451285104,18.362098695243
$GPGGA,060330.00,3359.4470,N,11931.1105,W,1,10,1.0,12.3,M,-33.6,M,,*66
$PYRTM,2024,127.252462847963,18.362110258102
$GPGGA,060331.00,3359.4460,N,11931.1102,W,1,10,1.0,12.1,M,-33.6,M,,*63
$PYRTM,2024,127.252474432407,18.362121842558
$GPGGA,060332.00,3359.4451,N,11931.1094,W,1,10,1.0,10.0,M,-33.6,M,,*6F
$PYRTM,2024,127.252485993461,18.362133403600
$GPGGA,060333.00,3359.4443,N,11931.1087,W,1,10,1.0,10.5,M,-33.6,M,,*6A
$PYRTM,2024,127.252497575995,18.362144986134
$GPGGA,060334.00,3359.4433,N,11931.1082,W,1,10,1.0,12.1,M,-33.6,M,,*69
$PYRTM,2024,127.252509141400,18.362156551551
$GPGGA,060335.00,3359.4422,N,11931.1079,W,1,10,1.0,11.8,M,-33.6,M,,*66
$PYRTM,2024,127.252520724549,18.362168134688
$GPGGA,060336.00,3359.4411,N,11931.1076,W,1,10,1.0,12.3,M,-33.6,M,,*62
$PYRTM,2024,127.252532290174,18.362179700312
$GPGGA,060337.00,3359.4401,N,11931.1070,W,1,10,1.0,10.9,M,-33.6,M,,*6C
$PYRTM,2024,127.252543878924,18.362191289063
$GPGGA,060338.00,3359.4393,N,11931.1060,W,1,10,1.0,10.5,M,-33.6,M,,*62
$PYRTM,2024,127.252555437882,18.362202848021
$GPGGA,060339.00,3359.4386,N,11931.1051,W,1,10,1.0,13.1,M,-33.6,M,,*62
$PYRTM,2024,127.252567026389,18.362214436528
$GPGGA,060340.00,3359.4376,N,11931.1046,W,1,10,1.0,13.8,M,-33.6,M,,*6C
$PYRTM,2024,127.252578586169,18.362225996308
$GPGGA,060341.00,3359.4364,N,11931.1043,W,1,10,1.0,12.8,M,-33.6,M,,*6A
$PYRTM,2024,127.252590173241,18.362237583368
$GPGGA,060342.00,3359.4352,N,11931.1038,W,1,10,1.0,13.8,M,-33.6,M,,*61
$PYRTM,2024,127.252601734225,18.362249144363
$GPGGA,060343.00,3359.4342,N,11931.1029,W,1,09,1.0,16.5,M,-33.6,M,,*61
$PYRTM,2024,127.252613317535,18.362260727685
$GPGGA,060344.00,3359.4333,N,11931.1017,W,1,09,1.0,13.4,M,-33.6,M,,*69
$PYRTM,2024,127.252624883021,18.362272293160
$GPGGA,060345.00,3359.4324,N,11931.1010,W,1,10,1.0,13.8,M,-33.6,M,,*6D
$PYRTM,2024,127.252636473102,18.362283883241
$GPGGA,060346.00,3359.4316,N,11931.1008,W,1,10,1.0,13.2,M,-33.6,M,,*6C
$PYRTM,2024,127.252648031725,18.362295441863
$GPGGA,060347.00,3359.4307,N,11931.1007,W,1,10,1.0,13.5,M,-33.6,M,,*65
$PYRTM,2024,127.252660069410,18.362307479560
$GPGGA,060348.00,3359.4298,N,11931.1001,W,1,10,1.0,12.4,M,-33.6,M,,*6B
$PYRTM,2024,127.252671179560,18.362318589699
$GPGGA,060349.00,3359.4290,N,11931.0992,W,1,10,1.0,11.0,M,-33.6,M,,*67
$PYRTM,2024,127.252682768160,18.362330178299
$GPGGA,060350.00,3359.4282,N,11931.0984,W,1,10,1.0,12.5,M,-33.6,M,,*6D
$PYRTM,2024,127.252694329502,18.362341739641
$GPGGA,060351.00,3359.4272,N,11931.0979,W,1,10,1.0,13.0,M,-33.6,M,,*65
$PYRTM,2024,127.252707061817,18.362354471956
$GPGGA,060352.00,3359.4260,N,11931.0976,W,1,10,1.0,12.5,M,-33.6,M,,*6E
$PYRTM,2024,127.252719676771,18.362367086921
$GPGGA,060353.00,3359.4251,N,11931.0971,W,1,10,1.0,12.8,M,-33.6,M,,*67
$PYRTM,2024,127.252729073947,18.362376484086
$GPGGA,060354.00,3359.4244,N,11931.0961,W,1,10,1.0,12.7,M,-33.6,M,,*6A
$PYRTM,2024,127.252740624583,18.362388034722
$GPGGA,060355.00,3359.4236,N,11931.0954,W,1,10,1.0,13.3,M,-33.6,M,,*6D
$PYRTM,2024,127.252752213310,18.362399623449
$GPGGA,060356.00,3359.4225,N,11931.0950,W,1,10,1.0,13.3,M,-33.6,M,,*68
$PYRTM,2024,127.252763773484,18.362411183623
$GPGGA,060357.00,3359.4214,N,11931.0945,W,1,10,1.0,13.2,M,-33.6,M,,*6E
$PYRTM,2024,127.252775361100,18.362422771238
$GPGGA,060358.00,3359.4206,N,11931.0939,W,1,10,1.0,12.2,M,-33.6,M,,*68
$PYRTM,2024,127.252786921400,18.362434331551
$GPGGA,060359.00,3359.4198,N,11931.0931,W,1,10,1.0,13.0,M,-33.6,M,,*66
$PYRTM,2024,127.252798509954,18.362445920093
$GPGGA,060400.00,3359.4189,N,11931.0925,W,1,10,1.0,12.8,M,-33.6,M,,*61
$PYRTM,2024,127.252810069954,18.362457480093
$GPGGA,060401.00,3359.4179,N,11931.0921,W,1,10,1.0,13.4,M,-33.6,M,,*66
$PYRTM,2024,127.252822108021,18.362469518160
$GPGGA,060402.00,3359.4169,N,11931.0917,W,1,10,1.0,11.1,M,-33.6,M,,*66
$PYRTM,2024,127.252833218275,18.362480628414
$GPGGA,060403.00,3359.4160,N,11931.0911,W,1,10,1.0,12.3,M,-33.6,M,,*69
$PYRTM,2024,127.252844805405,18.362492215544
$GPGGA,060404.00,3359.4153,N,11931.0906,W,1,09,1.0,13.5,M,-33.6,M,,*67
$PYRTM,2024,127.252856367396,18.362503777546
$GPGGA,060405.00,3359.4144,N,11931.0900,W,1,09,1.0,10.9,M,-33.6,M,,*69
$PYRTM,2024,127.252867953495,18.362515363634
$GPGGA,060406.00,3359.4135,N,11931.0896,W,1,09,1.0,12.9,M,-33.6,M,,*60
$PYRTM,2024,127.252879515150,18.362526925289
$GPGGA,060407.00,3359.4125,N,11931.0892,W,1,09,1.0,11.5,M,-33.6,M,,*6B
$PYRTM,2024,127.252891106076,18.362538516215
$GPGGA,060408.00,3359.4116,N,11931.0889,W,1,09,1.0,9.1,M,-33.6,M,,*53
$PYRTM,2024,127.252902664653,18.362550074792
$GPGGA,060409.00,3359.4107,N,11931.0885,W,1,09,1.0,9.4,M,-33.6,M,,*5B
$PYRTM,2024,127.252914254109,18.362561664248
$GPGGA,060410.00,3359.4097,N,11931.0880,W,1,09,1.0,9.7,M,-33.6,M,,*5D
$PYRTM,2024,127.252925811019,18.362573221157
$GPGGA,060411.00,3359.4090,N,11931.0870,W,1,09,1.0,13.6,M,-33.6,M,,*6E
$PYRTM,2024,127.252936473021,18.362583883160
$GPGGA,060412.00,3359.4081,N,11931.0861,W,1,09,1.0,12.8,M,-33.6,M,,*62
$PYRTM,2024,127.252949546296,18.362596956435
$GPGGA,060413.00,3359.4069,N,11931.0858,W,1,09,1.0,12.8,M,-33.6,M,,*6F
$PYRTM,2024,127.252960186782,18.362607596921
$GPGGA,060414.00,3359.4059,N,11931.0857,W,1,09,1.0,11.4,M,-33.6,M,,*6B
$PYRTM,2024,127.252971296505,18.362618706644
$GPGGA,060415.00,3359.4050,N,11931.0853,W,1,09,1.0,12.5,M,-33.6,M,,*65
$PYRTM,2024,127.252982408449,18.362629818588
$GPGGA,060416.00,3359.4043,N,11931.0845,W,1,09,1.0,11.4,M,-33.6,M,,*61
$PYRTM,2024,127.252993519178,18.362640929317
$GPGGA,060417.00,3359.4038,N,11931.0834,W,1,09,1.0,11.8,M,-33.6,M,,*66
$PYRTM,2024,127.253005107986,18.362652518125
$GPGGA,060418.00,3359.4029,N,11931.0827,W,1,09,1.0,13.6,M,-33.6,M,,*67
$PYRTM,2024,127.253016218148,18.362663628287
$GPGGA,060419.00,3359.4017,N,11931.0825,W,1,09,1.0,13.6,M,-33.6,M,,*69
$PYRTM,2024,127.253027325440,18.362674735579
$GPGGA,060420.00,3359.4007,N,11931.0824,W,1,09,1.0,12.9,M,-33.6,M,,*6D
$PYRTM,2024,127.253038436192,18.362685846343
$GPGGA,060421.00,3359.4000,N,11931.0816,W,1,09,1.0,12.9,M,-33.6,M,,*6A
$PYRTM,2024,127.253053027894,18.362700438032
$GPGGA,060422.00,3359.3996,N,11931.0803,W,1,09,1.0,12.1,M,-33.6,M,,*64
$PYRTM,2024,127.253064134942,18.362711545081
$GPGGA,060423.00,3359.3988,N,11931.0794,W,1,09,1.0,13.4,M,-33.6,M,,*6F
$PYRTM,2024,127.253076399097,18.362723809236
$GPGGA,060424.00,3359.3978,N,11931.0792,W,1,09,1.0,11.8,M,-33.6,M,,*6F
$PYRTM,2024,127.253087515150,18.362734925289
$GPGGA,060425.00,3359.3968,N,11931.0792,W,1,09,1.0,13.9,M,-33.6,M,,*6C
$PYRTM,2024,127.253098627002,18.362746037141
$GPGGA,060426.00,3359.3958,N,11931.0787,W,1,09,1.0,13.4,M,-33.6,M,,*65
$PYRTM,2024,127.253109957558,18.362757367697
$GPGGA,060427.00,3359.3948,N,11931.0777,W,1,09,1.0,15.3,M,-33.6,M,,*6B
$PYRTM,2024,127.253121543322,18.362768953461
$GPGGA,060428.00,3359.3939,N,11931.0768,W,1,09,1.0,17.2,M,-33.6,M,,*6F
$PYRTM,2024,127.253133104988,18.362780515127
$GPGGA,060429.00,3359.3930,N,11931.0765,W,1,09,1.0,15.4,M,-33.6,M,,*6E
$PYRTM,2024,127.253144692488,18.362792102627
$GPGGA,060430.00,3359.3921,N,11931.0764,W,1,09,1.0,14.8,M,-33.6,M,,*6A
$PYRTM,2024,127.253156254063,18.362803664201
$GPGGA,060431.00,3359.3911,N,11931.0761,W,1,09,1.0,12.9,M,-33.6,M,,*6A
$PYRTM,2024,127.253167841157,18.362815251296
$GPGGA,060432.00,3359.3902,N,11931.0756,W,1,09,1.0,12.9,M,-33.6,M,,*6F
$PYRTM,2024,127.253179400394,18.362826810532
$GPGGA,060433.00,3359.3892,N,11931.0751,W,1,09,1.0,13.2,M,-33.6,M,,*6B
$PYRTM,2024,127.253190989109,18.362838399248
$GPGGA,060434.00,3359.3883,N,11931.0748,W,1,09,1.0,14.1,M,-33.6,M,,*60
$PYRTM,2024,127.253202551169,18.362849961308
$GPGGA,060435.00,3359.3875,N,11931.0747,W,1,09,1.0,13.1,M,-33.6,M,,*60
$PYRTM,2024,127.253214136806,18.362861546944
$GPGGA,060436.00,3359.3865,N,11931.0747,W,1,09,1.0,14.9,M,-33.6,M,,*6D
$PYRTM,2024,127.253225698704,18.362873108843
$GPGGA,060437.00,3359.3856,N,11931.0746,W,1,09,1.0,15.1,M,-33.6,M,,*64
$PYRTM,2024,127.253237302407,18.362884712546
$GPGGA,060438.00,3359.3848,N,11931.0743,W,1,09,1.0,15.0,M,-33.6,M,,*60
$PYRTM,2024,127.253248845764,18.362896255903
$GPGGA,060439.00,3359.3840,N,11931.0739,W,1,09,1.0,15.2,M,-33.6,M,,*66
$PYRTM,2024,127.253260448646,18.362907858785
$GPGGA,060440.00,3359.3833,N,11931.0737,W,1,09,1.0,16.5,M,-33.6,M,,*66
$PYRTM,2024,127.253271993831,18.362919403970
$GPGGA,060441.00,3359.3826,N,11931.0737,W,1,09,1.0,15.7,M,-33.6,M,,*62
$PYRTM,2024,127.253283581979,18.362930992118
$GPGGA,060442.00,3359.3819,N,11931.0737,W,1,09,1.0,14.7,M,-33.6,M,,*6C
$PYRTM,2024,127.253295143819,18.362942553958
$GPGGA,060443.00,3359.3811,N,11931.0735,W,1,09,1.0,14.2,M,-33.6,M,,*62
$PYRTM,2024,127.253306729861,18.362954140012
$GPGGA,060444.00,3359.3801,N,11931.0734,W,1,09,1.0,14.2,M,-33.6,M,,*65
$PYRTM,2024,127.253318290463,18.362965700602
$GPGGA,060445.00,3359.3792,N,11931.0734,W,1,09,1.0,14.6,M,-33.6,M,,*65
$PYRTM,2024,127.253329873657,18.362977283796
$GPGGA,060446.00,3359.3784,N,11931.0733,W,1,09,1.0,14.7,M,-33.6,M,,*67
$PYRTM,2024,127.253341441088,18.362988851227
$GPGGA,060447.00,3359.3775,N,11931.0732,W,1,09,1.0,13.1,M,-33.6,M,,*68
$PYRTM,2024,127.253353026505,18.363000436644
$GPGGA,060448.00,3359.3764,N,11931.0731,W,1,09,1.0,13.5,M,-33.6,M,,*60
$PYRTM,2024,127.253364587488,18.363011997627
$GPGGA,060449.00,3359.3754,N,11931.0732,W,1,09,1.0,11.9,M,-33.6,M,,*6F
$PYRTM,2024,127.253376174653,18.363023584792
$GPGGA,060450.00,3359.3744,N,11931.0733,W,1,09,1.0,12.5,M,-33.6,M,,*68
$PYRTM,2024,127.253387735961,18.363035146100
$GPGGA,060451.00,3359.3733,N,11931.0732,W,1,09,1.0,13.7,M,-33.6,M,,*6B
$PYRTM,2024,127.253399438426,18.363046848565
$GPGGA,060452.00,3359.3724,N,11931.0730,W,1,09,1.0,14.6,M,-33.6,M,,*6A
$PYRTM,2024,127.253412157824,18.363059567963
$GPGGA,060453.00,3359.3714,N,11931.0729,W,1,08,1.0,14.8,M,-33.6,M,,*6F
$PYRTM,2024,127.253423516076,18.363070926227
$GPGGA,060454.00,3359.3704,N,11931.0729,W,1,08,1.0,14.8,M,-33.6,M,,*69
$PYRTM,2024,127.253435074977,18.363082485127
$GPGGA,060455.00,3359.3696,N,11931.0730,W,1,09,1.0,15.7,M,-33.6,M,,*65
$PYRTM,2024,127.253446664965,18.363094075104
$GPGGA,060456.00,3359.3687,N,11931.0729,W,1,09,1.0,14.0,M,-33.6,M,,*68
$PYRTM,2024,127.253458223171,18.363105633310
$GPGGA,060457.00,3359.3678,N,11931.0726,W,1,09,1.0,14.5,M,-33.6,M,,*63
$PYRTM,2024,127.253469811817,18.363117221956
$GPGGA,060458.00,3359.3670,N,11931.0722,W,1,09,1.0,14.6,M,-33.6,M,,*63
$PYRTM,2024,127.253481371169,18.363128781308
$GPGGA,060459.00,3359.3662,N,11931.0718,W,1,09,1.0,13.4,M,-33.6,M,,*6D
$PYRTM,2024,127.253492958530,18.363140368681
$GPGGA,060500.00,3359.3653,N,11931.0719,W,1,09,1.0,14.5,M,-33.6,M,,*65
$PYRTM,2024,127.253504519653,18.363151929792
$GPGGA,060501.00,3359.3645,N,11931.0721,W,1,09,1.0,15.2,M,-33.6,M,,*6E
$PYRTM,2024,127.253516107998,18.363163518137
$GPGGA,060502.00,3359.3636,N,11931.0722,W,1,08,1.0,17.1,M,-33.6,M,,*6A
$PYRTM,2024,127.253527667755,18.363175077894
$GPGGA,060503.00,3359.3627,N,11931.0719,W,1,09,1.0,15.8,M,-33.6,M,,*69
$PYRTM,2024,127.253539255417,18.363186665556
$GPGGA,060504.00,3359.3619,N,11931.0716,W,1,09,1.0,15.0,M,-33.6,M,,*64
$PYRTM,2024,127.253550815347,18.363198225486
$GPGGA,060505.00,3359.3610,N,11931.0716,W,1,09,1.0,15.1,M,-33.6,M,,*6D
$PYRTM,2024,127.253562403750,18.363209813889
$GPGGA,060506.00,3359.3602,N,11931.0720,W,1,08,1.0,12.7,M,-33.6,M,,*68
$PYRTM,2024,127.253573964398,18.363221374537
$GPGGA,060507.00,3359.3594,N,11931.0724,W,1,09,1.0,13.6,M,-33.6,M,,*60
$PYRTM,2024,127.253585552558,18.363232962697
$GPGGA,060508.00,3359.3585,N,11931.0724,W,1,09,1.0,13.5,M,-33.6,M,,*6C
$PYRTM,2024,127.253597111030,18.363244521181
$GPGGA,060509.00,3359.3575,N,11931.0722,W,1,09,1.0,13.5,M,-33.6,M,,*64
$PYRTM,2024,127.253608703877,18.363256114028
$GPGGA,060510.00,3359.3566,N,11931.0720,W,1,09,1.0,15.4,M,-33.6,M,,*6B
$PYRTM,2024,127.253620260590,18.363267670729
$GPGGA,060511.00,3359.3557,N,11931.0723,W,1,09,1.0,15.6,M,-33.6,M,,*69
$PYRTM,2024,127.253631850764,18.363279260891
$GPGGA,060512.00,3359.3549,N,11931.0727,W,1,09,1.0,15.5,M,-33.6,M,,*62
$PYRTM,2024,127.253643408183,18.363290818322
$GPGGA,060513.00,3359.3540,N,11931.0727,W,1,09,0.8,15.5,M,-33.6,M,,*63
$PYRTM,2024,127.253654996852,18.363302406991
$GPGGA,060514.00,3359.3530,N,11931.0726,W,1,09,0.8,14.4,M,-33.6,M,,*62
$PYRTM,2024,127.253666557072,18.363313967211
$GPGGA,060515.00,3359.3521,N,11931.0724,W,1,09,0.8,14.5,M,-33.6,M,,*60
$PYRTM,2024,127.253678145058,18.363325555197
$GPGGA,060516.00,3359.3512,N,11931.0726,W,1,09,0.8,14.1,M,-33.6,M,,*65
$PYRTM,2024,127.253689704757,18.363337114896
$GPGGA,060517.00,3359.3503,N,11931.0728,W,1,09,0.8,14.8,M,-33.6,M,,*63
$PYRTM,2024,127.253701743056,18.363349153194
$GPGGA,060518.00,3359.3494,N,11931.0728,W,1,09,0.8,14.9,M,-33.6,M,,*62
$PYRTM,2024,127.253712855440,18.363360265590
$GPGGA,060519.00,3359.3484,N,11931.0727,W,1,09,0.8,12.9,M,-33.6,M,,*6B
$PYRTM,2024,127.253724440926,18.363371851065
$GPGGA,060520.00,3359.3474,N,11931.0727,W,1,09,0.8,12.4,M,-33.6,M,,*63
$PYRTM,2024,127.253736002569,18.363383412708
$GPGGA,060521.00,3359.3465,N,11931.0729,W,1,09,0.8,12.6,M,-33.6,M,,*6E
$PYRTM,2024,127.253748733079,18.363396143218
$GPGGA,060522.00,3359.3456,N,11931.0731,W,1,08,1.0,14.5,M,-33.6,M,,*69
$PYRTM,2024,127.253761363056,18.363408773194
$GPGGA,060523.00,3359.3446,N,11931.0733,W,1,09,0.8,13.4,M,-33.6,M,,*65
$PYRTM,2024,127.253770738032,18.363418148171
$GPGGA,060524.00,3359.3436,N,11931.0735,W,1,09,0.8,11.1,M,-33.6,M,,*64
$PYRTM,2024,127.253782298762,18.363429708912
$GPGGA,060525.00,3359.3426,N,11931.0735,W,1,09,0.8,12.3,M,-33.6,M,,*65
$PYRTM,2024,127.253793900833,18.363441310972
$GPGGA,060526.00,3359.3417,N,11931.0735,W,1,09,0.8,13.4,M,-33.6,M,,*62
$PYRTM,2024,127.253805447292,18.363452857431
$GPGGA,060527.00,3359.3407,N,11931.0736,W,1,09,0.8,13.5,M,-33.6,M,,*60
$PYRTM,2024,127.253817048900,18.363464459039
$GPGGA,060528.00,3359.3398,N,11931.0736,W,1,09,0.8,15.3,M,-33.6,M,,*6E
$PYRTM,2024,127.253828596991,18.363476007130
$GPGGA,060529.00,3359.3389,N,11931.0737,W,1,09,0.8,14.8,M,-33.6,M,,*64
$PYRTM,2024,127.253840182407,18.363487592546
$GPGGA,060530.00,3359.3379,N,11931.0738,W,1,09,0.8,12.6,M,-33.6,M,,*64
$PYRTM,2024,127.253851743403,18.363499153542
$GPGGA,060531.00,3359.3370,N,11931.0738,W,1,09,0.8,10.0,M,-33.6,M,,*68
$PYRTM,2024,127.253863331898,18.363510742037
$GPGGA,060532.00,3359.3362,N,11931.0738,W,1,09,0.8,11.0,M,-33.6,M,,*69
$PYRTM,2024,127.253874891713,18.363522301852
$GPGGA,060533.00,3359.3352,N,11931.0738,W,1,09,0.8,13.1,M,-33.6,M,,*68
$PYRTM,2024,127.253886473958,18.363533884097
$GPGGA,060534.00,3359.3342,N,11931.0739,W,1,09,0.8,13.1,M,-33.6,M,,*6F
$PYRTM,2024,127.253898039653,18.363545449792
$GPGGA,060535.00,3359.3331,N,11931.0740,W,1,09,0.8,13.7,M,-33.6,M,,*62
$PYRTM,2024,127.253909627454,18.363557037593
$GPGGA,060536.00,3359.3321,N,11931.0740,W,1,09,0.8,12.4,M,-33.6,M,,*62
$PYRTM,2024,127.253921188646,18.363568598785
$GPGGA,060537.00,3359.3310,N,11931.0740,W,1,09,0.8,11.6,M,-33.6,M,,*60
$PYRTM,2024,127.253932770590,18.363580180729
$GPGGA,060538.00,3359.3298,N,11931.0741,W,1,09,0.8,11.4,M,-33.6,M,,*6D
$PYRTM,2024,127.253944336933,18.363591747072
$GPGGA,060539.00,3359.3287,N,11931.0740,W,1,09,0.8,11.8,M,-33.6,M,,*6F
$PYRTM,2024,127.253955925660,18.363603335799
$GPGGA,060540.00,3359.3277,N,11931.0739,W,1,09,1.0,11.9,M,-33.6,M,,*68
$PYRTM,2024,127.253967485394,18.363614895532
$GPGGA,060541.00,3359.3267,N,11931.0740,W,1,09,1.0,11.6,M,-33.6,M,,*69
$PYRTM,2024,127.253979523808,18.363626933958
$GPGGA,060542.00,3359.3256,N,11931.0741,W,1,09,1.0,10.4,M,-33.6,M,,*6A
$PYRTM,2024,127.253990633449,18.363638043588
$GPGGA,060543.00,3359.3246,N,11931.0741,W,1,09,1.0,9.9,M,-33.6,M,,*5F
$PYRTM,2024,127.254002224109,18.363649634248
$GPGGA,060544.00,3359.3235,N,11931.0741,W,1,09,1.0,10.3,M,-33.6,M,,*6E
$PYRTM,2024,127.254013785926,18.363661196065
$GPGGA,060545.00,3359.3225,N,11931.0739,W,1,09,1.0,10.9,M,-33.6,M,,*6B
$PYRTM,2024,127.254025368345,18.363672778484
$GPGGA,060546.00,3359.3214,N,11931.0737,W,1,09,1.0,11.1,M,-33.6,M,,*6D
$PYRTM,2024,127.254036930359,18.363684340509
$GPGGA,060547.00,3359.3204,N,11931.0736,W,1,09,1.0,11.9,M,-33.6,M,,*64
$PYRTM,2024,127.254048968275,18.363696378426
$GPGGA,060548.00,3359.3194,N,11931.0737,W,1,09,1.0,13.7,M,-33.6,M,,*6C
$PYRTM,2024,127.254060077685,18.363707487824
$GPGGA,060549.00,3359.3184,N,11931.0739,W,1,09,1.0,13.9,M,-33.6,M,,*6C
$PYRTM,2024,127.254071665150,18.363719075289
$GPGGA,060550.00,3359.3176,N,11931.0739,W,1,09,1.0,15.4,M,-33.6,M,,*62
$PYRTM,2024,127.254083225683,18.363730635822
$GPGGA,060551.00,3359.3166,N,11931.0736,W,1,09,1.0,14.0,M,-33.6,M,,*68
$PYRTM,2024,127.254095958623,18.363743368762
$GPGGA,060552.00,3359.3157,N,11931.0734,W,1,09,1.0,14.5,M,-33.6,M,,*6E
$PYRTM,2024,127.254108585972,18.363755996111
$GPGGA,060553.00,3359.3148,N,11931.0734,W,1,09,1.0,13.6,M,-33.6,M,,*65
$PYRTM,2024,127.254117962870,18.363765373009
$GPGGA,060554.00,3359.3139,N,11931.0737,W,1,09,1.0,14.5,M,-33.6,M,,*63
$PYRTM,2024,127.254129522627,18.363776932766
$GPGGA,060555.00,3359.3130,N,11931.0738,W,1,09,1.0,15.3,M,-33.6,M,,*63
$PYRTM,2024,127.254141109375,18.363788519514
$GPGGA,060556.00,3359.3120,N,11931.0735,W,1,09,1.0,14.6,M,-33.6,M,,*68
$PYRTM,2024,127.254152670301,18.363800080440
$GPGGA,060557.00,3359.3109,N,11931.0733,W,1,09,1.0,13.0,M,-33.6,M,,*65
$PYRTM,2024,127.254164261690,18.363811671829
$GPGGA,060558.00,3359.3100,N,11931.0731,W,1,09,1.0,15.2,M,-33.6,M,,*65
$PYRTM,2024,127.254175819699,18.363823229838
$GPGGA,060559.00,3359.3092,N,11931.0731,W,1,09,1.0,14.7,M,-33.6,M,,*6A
$PYRTM,2024,127.254187409630,18.363834819780
$GPGGA,060600.00,3359.3084,N,11931.0729,W,1,09,1.0,16.0,M,-33.6,M,,*6E
$PYRTM,2024,127.254198969340,18.363846379479
$GPGGA,060601.00,3359.3074,N,11931.0727,W,1,09,1.0,15.4,M,-33.6,M,,*69
$PYRTM,2024,127.254210555822,18.363857965961
$GPGGA,060602.00,3359.3063,N,11931.0726,W,1,09,1.0,13.8,M,-33.6,M,,*67
$PYRTM,2024,127.254222116262,18.363869526412
$GPGGA,060603.00,3359.3054,N,11931.0729,W,1,09,1.0,17.2,M,-33.6,M,,*63
$PYRTM,2024,127.254233703762,18.363881113900
$GPGGA,060604.00,3359.3046,N,11931.0732,W,1,09,1.0,17.4,M,-33.6,M,,*6B
$PYRTM,2024,127.254245264479,18.363892674618
$GPGGA,060605.00,3359.3035,N,11931.0732,W,1,09,1.0,14.7,M,-33.6,M,,*6E
$PYRTM,2024,127.254256852269,18.363904262419
$GPGGA,060606.00,3359.3025,N,11931.0729,W,1,09,1.0,13.5,M,-33.6,M,,*63
$PYRTM,2024,127.254268413681,18.363915823831
$GPGGA,060607.00,3359.3017,N,11931.0727,W,1,09,1.0,11.5,M,-33.6,M,,*6F
$PYRTM,2024,127.254280000394,18.363927410532
$GPGGA,060608.00,3359.3009,N,11931.0729,W,1,09,1.0,12.8,M,-33.6,M,,*6F
$PYRTM,2024,127.254291562269,18.363938972407
$GPGGA,060609.00,3359.3001,N,11931.0731,W,1,09,1.0,15.4,M,-33.6,M,,*64
$PYRTM,2024,127.254303150278,18.363950560417
$GPGGA,060610.00,3359.2991,N,11931.0730,W,1,09,1.0,15.9,M,-33.6,M,,*61
$PYRTM,2024,127.254314712720,18.363962122859
$GPGGA,060611.00,3359.2981,N,11931.0727,W,1,09,1.0,13.5,M,-33.6,M,,*6D
$PYRTM,2024,127.254326292975,18.363973703113
$GPGGA,060612.00,3359.2972,N,11931.0725,W,1,09,1.0,12.3,M,-33.6,M,,*67
$PYRTM,2024,127.254337859444,18.363985269595
$GPGGA,060613.00,3359.2962,N,11931.0725,W,1,09,1.0,14.4,M,-33.6,M,,*66
$PYRTM,2024,127.254349462303,18.363996872454
$GPGGA,060614.00,3359.2952,N,11931.0728,W,1,09,1.0,14.9,M,-33.6,M,,*62
$PYRTM,2024,127.254361006019,18.364008416157
$GPGGA,060615.00,3359.2942,N,11931.0728,W,1,09,1.0,12.1,M,-33.6,M,,*6C
$PYRTM,2024,127.254371669815,18.364019079954
$GPGGA,060616.00,3359.2932,N,11931.0726,W,1,09,1.0,13.3,M,-33.6,M,,*65
$PYRTM,2024,127.254383821458,18.364031231597
$GPGGA,060617.00,3359.2921,N,11931.0725,W,1,09,1.0,12.3,M,-33.6,M,,*64
$PYRTM,2024,127.254394005752,18.364041415891
$GPGGA,060618.00,3359.2912,N,11931.0726,W,1,09,1.0,13.9,M,-33.6,M,,*63
$PYRTM,2024,127.254410560150,18.364057970289
$GPGGA,060619.00,3359.2903,N,11931.0728,W,1,09,1.0,16.0,M,-33.6,M,,*60
$PYRTM,2024,127.254421668692,18.364069078831
$GPGGA,060620.00,3359.2894,N,11931.0729,W,1,09,1.0,13.8,M,-33.6,M,,*69
$PYRTM,2024,127.254432765891,18.364080176030
$GPGGA,060621.00,3359.2885,N,11931.0730,W,1,09,1.0,13.0,M,-33.6,M,,*68
$PYRTM,2024,127.254445046968,18.364092457106
$GPGGA,060622.00,3359.2876,N,11931.0731,W,1,09,1.0,13.4,M,-33.6,M,,*62
$PYRTM,2024,127.254454887072,18.364102297211
$GPGGA,060623.00,3359.2867,N,11931.0731,W,1,09,1.0,12.7,M,-33.6,M,,*61
$PYRTM,2024,127.254465998461,18.364113408600
$GPGGA,060624.00,3359.2858,N,11931.0732,W,1,09,1.0,13.7,M,-33.6,M,,*68
$PYRTM,2024,127.254477122963,18.364124533102
$GPGGA,060625.00,3359.2849,N,11931.0733,W,1,09,1.0,14.4,M,-33.6,M,,*6C
$PYRTM,2024,127.254488220370,18.364135630509
$GPGGA,060626.00,3359.2840,N,11931.0736,W,1,09,1.0,15.9,M,-33.6,M,,*6F
$PYRTM,2024,127.254499330405,18.364146740556
$GPGGA,060627.00,3359.2831,N,11931.0739,W,1,09,1.0,14.5,M,-33.6,M,,*6A
$PYRTM,2024,127.254512178634,18.364159588773
$GPGGA,060628.00,3359.2822,N,11931.0742,W,1,09,1.0,14.4,M,-33.6,M,,*6A
$PYRTM,2024,127.254523277546,18.364170687697
$GPGGA,060629.00,3359.2813,N,11931.0741,W,1,09,1.0,14.7,M,-33.6,M,,*69
$PYRTM,2024,127.254534403380,18.364181813519
$GPGGA,060630.00,3359.2804,N,11931.0738,W,1,09,1.0,15.8,M,-33.6,M,,*67
$PYRTM,2024,127.254545511389,18.364192921528
$GPGGA,060631.00,3359.2793,N,11931.0737,W,1,09,1.0,17.1,M,-33.6,M,,*63
$PYRTM,2024,127.254557085451,18.364204495590
$GPGGA,060632.00,3359.2784,N,11931.0742,W,1,09,1.0,17.2,M,-33.6,M,,*67
$PYRTM,2024,127.254568299884,18.364215710023
$GPGGA,060633.00,3359.2775,N,11931.0748,W,1,09,1.0,14.2,M,-33.6,M,,*61
$PYRTM,2024,127.254579886551,18.364227296701
$GPGGA,060634.00,3359.2767,N,11931.0751,W,1,09,1.0,13.5,M,-33.6,M,,*6D
$PYRTM,2024,127.254591446574,18.364238856713
$GPGGA,060635.00,3359.2757,N,11931.0750,W,1,09,1.0,12.6,M,-33.6,M,,*6C
$PYRTM,2024,127.254603034340,18.364250444479
$GPGGA,060636.00,3359.2748,N,11931.0749,W,1,09,1.0,11.4,M,-33.6,M,,*68
$PYRTM,2024,127.254614492292,18.364261902431
$GPGGA,060637.00,3359.2740,N,11931.0752,W,1,09,1.0,9.9,M,-33.6,M,,*5F
$PYRTM,2024,127.254626183310,18.364273593449
$GPGGA,060638.00,3359.2733,N,11931.0758,W,1,09,1.0,10.2,M,-33.6,M,,*6D
$PYRTM,2024,127.254637642141,18.364285052280
$GPGGA,060639.00,3359.2724,N,11931.0762,W,1,09,1.0,8.9,M,-33.6,M,,*51
$PYRTM,2024,127.254649331840,18.364296741991
$GPGGA,060640.00,3359.2713,N,11931.0762,W,1,09,1.0,11.5,M,-33.6,M,,*6F
$PYRTM,2024,127.254660893380,18.364308303519
$GPGGA,060641.00,3359.2703,N,11931.0762,W,1,09,1.0,12.6,M,-33.6,M,,*6F
$PYRTM,2024,127.254672480671,18.364319890810
$GPGGA,060642.00,3359.2693,N,11931.0762,W,1,09,1.0,12.0,M,-33.6,M,,*62
$PYRTM,2024,127.254684040475,18.364331450613
$GPGGA,060643.00,3359.2686,N,11931.0763,W,1,09,1.0,13.8,M,-33.6,M,,*6F
$PYRTM,2024,127.254695631551,18.364343041690
$GPGGA,060644.00,3359.2678,N,11931.0764,W,1,09,1.0,14.6,M,-33.6,M,,*67
$PYRTM,2024,127.254707190174,18.364354600312
$GPGGA,060645.00,3359.2669,N,11931.0765,W,1,09,1.0,13.9,M,-33.6,M,,*6F
$PYRTM,2024,127.254718790752,18.364366200891
$GPGGA,060646.00,3359.2658,N,11931.0765,W,1,09,1.0,16.7,M,-33.6,M,,*65
$PYRTM,2024,127.254730337095,18.364377747234
$GPGGA,060647.00,3359.2650,N,11931.0767,W,1,09,1.0,16.0,M,-33.6,M,,*69
$PYRTM,2024,127.254741925914,18.364389336065
$GPGGA,060648.00,3359.2643,N,11931.0771,W,1,09,1.0,14.2,M,-33.6,M,,*63
$PYRTM,2024,127.254753486238,18.364400896377
$GPGGA,060649.00,3359.2635,N,11931.0775,W,1,09,1.0,11.9,M,-33.6,M,,*69
$PYRTM,2024,127.254765072569,18.364412482708
$GPGGA,060650.00,3359.2626,N,11931.0779,W,1,09,1.0,12.2,M,-33.6,M,,*67
$PYRTM,2024,127.254776633738,18.364424043877
$GPGGA,060651.00,3359.2618,N,11931.0782,W,1,09,1.0,14.2,M,-33.6,M,,*69
$PYRTM,2024,127.254787860868,18.364435271007
$GPGGA,060652.00,3359.2610,N,11931.0785,W,1,09,1.0,12.6,M,-33.6,M,,*67
$PYRTM,2024,127.254800826759,18.364448236898
$GPGGA,060653.00,3359.2602,N,11931.0789,W,1,09,1.0,14.4,M,-33.6,M,,*6D
$PYRTM,2024,127.254812410926,18.364459821065
$GPGGA,060654.00,3359.2594,N,11931.0794,W,1,09,1.0,14.5,M,-33.6,M,,*6B
$PYRTM,2024,127.254823972951,18.364471383102
$GPGGA,060655.00,3359.2585,N,11931.0798,W,1,09,1.0,12.0,M,-33.6,M,,*65
$PYRTM,2024,127.254835558785,18.364482968924
$GPGGA,060656.00,3359.2577,N,11931.0801,W,1,09,1.0,12.8,M,-33.6,M,,*6C
$PYRTM,2024,127.254847120463,18.364494530602
$GPGGA,060657.00,3359.2570,N,11931.0803,W,1,09,1.0,11.3,M,-33.6,M,,*60
$PYRTM,2024,127.254858709444,18.364506119583
$GPGGA,060658.00,3359.2562,N,11931.0807,W,1,09,1.0,10.6,M,-33.6,M,,*6C
$PYRTM,2024,127.254870267998,18.364517678125
$GPGGA,060659.00,3359.2553,N,11931.0813,W,1,09,1.0,13.9,M,-33.6,M,,*66
$PYRTM,2024,127.254881860532,18.364529270683
$GPGGA,060700.00,3359.2546,N,11931.0818,W,1,09,1.0,12.3,M,-33.6,M,,*6F
$PYRTM,2024,127.254893419711,18.364540829850
$GPGGA,060701.00,3359.2539,N,11931.0821,W,1,09,1.0,12.8,M,-33.6,M,,*67
$PYRTM,2024,127.254905007442,18.364552417581
$GPGGA,060702.00,3359.2530,N,11931.0824,W,1,09,1.0,12.8,M,-33.6,M,,*68
$PYRTM,2024,127.254916566458,18.364563976597
$GPGGA,060703.00,3359.2521,N,11931.0827,W,1,09,1.0,13.4,M,-33.6,M,,*67
$PYRTM,2024,127.254928156007,18.364575566146
$GPGGA,060704.00,3359.2512,N,11931.0833,W,1,09,1.0,11.7,M,-33.6,M,,*64
$PYRTM,2024,127.254939713900,18.364587124039
$GPGGA,060705.00,3359.2504,N,11931.0838,W,1,09,1.0,12.3,M,-33.6,M,,*6E
$PYRTM,2024,127.254951301308,18.364598711447
$GPGGA,060706.00,3359.2496,N,11931.0840,W,1,09,1.0,12.6,M,-33.6,M,,*6D
$PYRTM,2024,127.254962862697,18.364610272836
$GPGGA,060707.00,3359.2486,N,11931.0843,W,1,09,1.0,13.3,M,-33.6,M,,*6A
$PYRTM,2024,127.254974450926,18.364621861065
$GPGGA,060708.00,3359.2476,N,11931.0848,W,1,09,1.0,12.2,M,-33.6,M,,*61
$PYRTM,2024,127.254986010185,18.364633420324
$GPGGA,060709.00,3359.2468,N,11931.0855,W,1,09,1.0,13.2,M,-33.6,M,,*62
$PYRTM,2024,127.254997597130,18.364645007269
$GPGGA,060710.00,3359.2461,N,11931.0861,W,1,09,1.0,12.1,M,-33.6,M,,*66
$PYRTM,2024,127.255009157963,18.364656568102
$GPGGA,060711.00,3359.2454,N,11931.0865,W,1,09,1.0,15.0,M,-33.6,M,,*63
$PYRTM,2024,127.255020743368,18.364668153507
$GPGGA,060712.00,3359.2444,N,11931.0868,W,1,09,1.0,16.2,M,-33.6,M,,*6D
$PYRTM,2024,127.255032308935,18.364679719074
$GPGGA,060713.00,3359.2435,N,11931.0873,W,1,09,1.0,12.2,M,-33.6,M,,*64
$PYRTM,2024,127.255043895845,18.364691305984
$GPGGA,060714.00,3359.2428,N,11931.0881,W,1,09,1.0,13.4,M,-33.6,M,,*65
$PYRTM,2024,127.255055456632,18.364702866771
$GPGGA,060715.00,3359.2421,N,11931.0887,W,1,09,1.0,14.0,M,-33.6,M,,*68
$PYRTM,2024,127.255067059352,18.364714469491
$GPGGA,060716.00,3359.2413,N,11931.0890,W,1,09,1.0,16.1,M,-33.6,M,,*6F
$PYRTM,2024,127.255078606227,18.364726016366
$GPGGA,060717.00,3359.2403,N,11931.0893,W,1,09,1.0,14.5,M,-33.6,M,,*6A
$PYRTM,2024,127.255090643623,18.364738053762
$GPGGA,060718.00,3359.2394,N,11931.0897,W,1,09,1.0,13.7,M,-33.6,M,,*6D
$PYRTM,2024,127.255101752662,18.364749162801
$GPGGA,060719.00,3359.2385,N,11931.0904,W,1,09,1.0,13.6,M,-33.6,M,,*66
$PYRTM,2024,127.255113353519,18.364760763657
$GPGGA,060720.00,3359.2377,N,11931.0910,W,1,09,1.0,13.6,M,-33.6,M,,*64
$PYRTM,2024,127.255124900046,18.364772310185
$GPGGA,060721.00,3359.2369,N,11931.0914,W,1,09,1.0,14.7,M,-33.6,M,,*68
$PYRTM,2024,127.255137978900,18.364785389039
$GPGGA,060722.00,3359.2359,N,11931.0916,W,1,09,1.0,15.9,M,-33.6,M,,*65
$PYRTM,2024,127.255150250127,18.364797660266
$GPGGA,060723.00,3359.2348,N,11931.0919,W,1,09,1.0,14.1,M,-33.6,M,,*62
$PYRTM,2024,127.255159635231,18.364807045370
$GPGGA,060724.00,3359.2340,N,11931.0925,W,1,09,1.0,14.9,M,-33.6,M,,*6A
$PYRTM,2024,127.255171197940,18.364818608079
$GPGGA,060725.00,3359.2334,N,11931.0931,W,1,09,1.0,14.3,M,-33.6,M,,*67
$PYRTM,2024,127.255182785648,18.364830195799
$GPGGA,060726.00,3359.2326,N,11931.0938,W,1,09,1.0,13.8,M,-33.6,M,,*62
$PYRTM,2024,127.255194346204,18.364841756343
$GPGGA,060727.00,3359.2317,N,11931.0943,W,1,09,1.0,11.8,M,-33.6,M,,*6F
$PYRTM,2024,127.255205932650,18.364853342789
$GPGGA,060728.00,3359.2309,N,11931.0946,W,1,09,1.0,12.7,M,-33.6,M,,*66
$PYRTM,2024,127.255217493657,18.364864903796
$GPGGA,060729.00,3359.2302,N,11931.0949,W,1,09,1.0,15.7,M,-33.6,M,,*64
$PYRTM,2024,127.255229080532,18.364876490671
$GPGGA,060730.00,3359.2294,N,11931.0954,W,1,09,1.0,14.7,M,-33.6,M,,*6F
$PYRTM,2024,127.255240642014,18.364888052153
$GPGGA,060731.00,3359.2285,N,11931.0961,W,1,09,1.0,14.0,M,-33.6,M,,*6F
$PYRTM,2024,127.255252231794,18.364899641933
$GPGGA,060732.00,3359.2276,N,11931.0967,W,1,09,1.0,13.1,M,-33.6,M,,*60
$PYRTM,2024,127.255263790243,18.364911200382
$GPGGA,060733.00,3359.2267,N,11931.0972,W,1,09,1.0,14.7,M,-33.6,M,,*64
$PYRTM,2024,127.255275379919,18.364922790150
$GPGGA,060734.00,3359.2258,N,11931.0975,W,1,09,1.0,15.3,M,-33.6,M,,*6D
$PYRTM,2024,127.255286938218,18.364934348356
$GPGGA,060735.00,3359.2248,N,11931.0980,W,1,09,1.0,17.2,M,-33.6,M,,*64
$PYRTM,2024,127.255298526308,18.364945936447
$GPGGA,060736.00,3359.2240,N,11931.0986,W,1,09,1.0,16.7,M,-33.6,M,,*6D
$PYRTM,2024,127.255310087442,18.364957497581
$GPGGA,060737.00,3359.2233,N,11931.0993,W,1,09,1.0,12.5,M,-33.6,M,,*6A
$PYRTM,2024,127.255321669699,18.364969079850
$GPGGA,060738.00,3359.2225,N,11931.0999,W,1,09,1.0,12.5,M,-33.6,M,,*68
$PYRTM,2024,127.255333237153,18.364980647292
$GPGGA,060739.00,3359.2218,N,11931.1006,W,1,09,1.0,12.2,M,-33.6,M,,*6E
$PYRTM,2024,127.255344822708,18.364992232847
$GPGGA,060740.00,3359.2212,N,11931.1012,W,1,09,1.0,12.4,M,-33.6,M,,*69
$PYRTM,2024,127.255356383623,18.365003793762
$GPGGA,060741.00,3359.2204,N,11931.1018,W,1,09,1.0,12.2,M,-33.6,M,,*63
$PYRTM,2024,127.255367971204,18.365015381343
$GPGGA,060742.00,3359.2196,N,11931.1024,W,1,09,1.0,13.2,M,-33.6,M,,*66
$PYRTM,2024,127.255379532060,18.365026942199
$GPGGA,060743.00,3359.2188,N,11931.1032,W,1,09,1.0,13.3,M,-33.6,M,,*6E
$PYRTM,2024,127.255391118889,18.365038529039
$GPGGA,060744.00,3359.2181,N,11931.1041,W,1,09,1.0,13.7,M,-33.6,M,,*60
$PYRTM,2024,127.255402680185,18.365050090324
$GPGGA,060745.00,3359.2174,N,11931.1048,W,1,09,1.0,13.7,M,-33.6,M,,*62
$PYRTM,2024,127.255414267581,18.365061677720
$GPGGA,060746.00,3359.2168,N,11931.1055,W,1,09,1.0,15.8,M,-33.6,M,,*69
$PYRTM,2024,127.255425830556,18.365073240694
$GPGGA,060747.00,3359.2160,N,11931.1063,W,1,09,1.0,13.9,M,-33.6,M,,*62
$PYRTM,2024,127.255437865694,18.365085275833
$GPGGA,060748.00,3359.2152,N,11931.1071,W,1,09,1.0,11.6,M,-33.6,M,,*62
$PYRTM,2024,127.255448977604,18.365096387743
$GPGGA,060749.00,3359.2146,N,11931.1079,W,1,09,1.0,12.4,M,-33.6,M,,*6F
$PYRTM,2024,127.255460566285,18.365107976424
$GPGGA,060750.00,3359.2138,N,11931.1088,W,1,09,1.0,12.3,M,-33.6,M,,*67
$PYRTM,2024,127.255472124444,18.365119534583
$GPGGA,060751.00,3359.2132,N,11931.1097,W,1,09,1.0,10.6,M,-33.6,M,,*65
$PYRTM,2024,127.255484742083,18.365132152222
$GPGGA,060752.00,3359.2124,N,11931.1103,W,1,09,1.0,10.7,M,-33.6,M,,*6C
$PYRTM,2024,127.255497473866,18.365144884005
$GPGGA,060753.00,3359.2117,N,11931.1110,W,1,09,1.0,11.0,M,-33.6,M,,*69
$PYRTM,2024,127.255506860289,18.365154270428
$GPGGA,060754.00,3359.2110,N,11931.1118,W,1,09,1.0,10.0,M,-33.6,M,,*60
$PYRTM,2024,127.255518437477,18.365165847616
$GPGGA,060755.00,3359.2104,N,11931.1127,W,1,09,1.0,9.3,M,-33.6,M,,*53
$PYRTM,2024,127.255530003611,18.365177413750
$GPGGA,060756.00,3359.2099,N,11931.1135,W,1,09,1.0,9.7,M,-33.6,M,,*52
$PYRTM,2024,127.255541569641,18.365188979780
$GPGGA,060757.00,3359.2092,N,11931.1142,W,1,09,1.0,11.8,M,-33.6,M,,*6E
$PYRTM,2024,127.255553156516,18.365200566655
$GPGGA,060758.00,3359.2085,N,11931.1149,W,1,09,1.0,12.6,M,-33.6,M,,*61
$PYRTM,2024,127.255564718611,18.365212128750
$GPGGA,060759.00,3359.2080,N,11931.1158,W,1,09,1.0,12.8,M,-33.6,M,,*6B
$PYRTM,2024,127.255576305046,18.365223715185
$GPGGA,060800.00,3359.2076,N,11931.1168,W,1,09,1.0,13.1,M,-33.6,M,,*6A
$PYRTM,2024,127.255587866238,18.365235276377
$GPGGA,060801.00,3359.2070,N,11931.1175,W,1,09,1.0,12.0,M,-33.6,M,,*61
$PYRTM,2024,127.255599453403,18.365246863542
$GPGGA,060802.00,3359.2062,N,11931.1181,W,1,09,1.0,12.3,M,-33.6,M,,*69
$PYRTM,2024,127.255611014988,18.365258425127
$GPGGA,060803.00,3359.2054,N,11931.1189,W,1,09,1.0,12.0,M,-33.6,M,,*66
$PYRTM,2024,127.255622605764,18.365270015903
$GPGGA,060804.00,3359.2047,N,11931.1195,W,1,09,1.0,11.7,M,-33.6,M,,*6A
$PYRTM,2024,127.255634164479,18.365281574618
$GPGGA,060805.00,3359.2041,N,11931.1203,W,1,09,1.0,10.8,M,-33.6,M,,*6F
$PYRTM,2024,127.255645753669,18.365293163808
$GPGGA,060806.00,3359.2035,N,11931.1210,W,1,09,1.0,11.4,M,-33.6,M,,*60
$PYRTM,2024,127.255657311921,18.365304722060
$GPGGA,060807.00,3359.2029,N,11931.1216,W,1,09,1.0,10.9,M,-33.6,M,,*66
$PYRTM,2024,127.255668898576,18.365316308715
$GPGGA,060808.00,3359.2021,N,11931.1224,W,1,09,1.0,11.7,M,-33.6,M,,*6F
$PYRTM,2024,127.255680460220,18.365327870359
$GPGGA,060809.00,3359.2015,N,11931.1233,W,1,09,1.0,10.6,M,-33.6,M,,*6F
$PYRTM,2024,127.255692047211,18.365339457361
$GPGGA,060810.00,3359.2012,N,11931.1240,W,1,09,1.0,11.4,M,-33.6,M,,*67
$PYRTM,2024,127.255703608403,18.365351018542
$GPGGA,060811.00,3359.2007,N,11931.1247,W,1,09,1.0,13.9,M,-33.6,M,,*6A
$PYRTM,2024,127.255715644942,18.365363055081
$GPGGA,060812.00,3359.2000,N,11931.1256,W,1,09,1.0,11.7,M,-33.6,M,,*62
$PYRTM,2024,127.255726756852,18.365374166991
$GPGGA,060813.00,3359.1993,N,11931.1266,W,1,09,1.0,10.1,M,-33.6,M,,*67
$PYRTM,2024,127.255738343681,18.365385753819
$GPGGA,060814.00,3359.1988,N,11931.1274,W,1,09,1.0,10.6,M,-33.6,M,,*6E
$PYRTM,2024,127.255749903831,18.365397313970
$GPGGA,060815.00,3359.1985,N,11931.1281,W,1,09,1.0,12.7,M,-33.6,M,,*6B
$PYRTM,2024,127.255761492269,18.365408902407
$GPGGA,060816.00,3359.1979,N,11931.1288,W,1,09,1.0,11.3,M,-33.6,M,,*65
$PYRTM,2024,127.255773053044,18.365420463183
$GPGGA,060817.00,3359.1973,N,11931.1296,W,1,09,1.0,11.2,M,-33.6,M,,*60
$PYRTM,2024,127.255785090706,18.365432500845
$GPGGA,060818.00,3359.1967,N,11931.1305,W,1,09,1.0,11.0,M,-33.6,M,,*63
$PYRTM,2024,127.255796200718,18.365443610856
$GPGGA,060819.00,3359.1962,N,11931.1313,W,1,09,1.0,10.3,M,-33.6,M,,*62
$PYRTM,2024,127.255807802269,18.365455212407
$GPGGA,060820.00,3359.1957,N,11931.1319,W,1,09,1.0,10.2,M,-33.6,M,,*65
$PYRTM,2024,127.255818424306,18.365465834456
$GPGGA,060821.00,3359.1950,N,11931.1326,W,1,09,1.0,9.8,M,-33.6,M,,*5D
$PYRTM,2024,127.255831500671,18.365478910810
$GPGGA,060822.00,3359.1943,N,11931.1333,W,1,09,1.0,11.3,M,-33.6,M,,*6A
$PYRTM,2024,127.255840427465,18.365487837604
$GPGGA,060823.00,3359.1936,N,11931.1342,W,1,09,1.0,13.3,M,-33.6,M,,*6D
$PYRTM,2024,127.255856977824,18.365504387963
$GPGGA,060824.00,3359.1929,N,11931.1352,W,1,09,1.0,12.0,M,-33.6,M,,*67
$PYRTM,2024,127.255868076308,18.365515486447
$GPGGA,060825.00,3359.1924,N,11931.1360,W,1,09,1.0,10.8,M,-33.6,M,,*60
$PYRTM,2024,127.255879200706,18.365526610856
$GPGGA,060826.00,3359.1919,N,11931.1367,W,1,09,1.0,10.7,M,-33.6,M,,*65
$PYRTM,2024,127.255890311273,18.365537721412
$GPGGA,060827.00,3359.1912,N,11931.1373,W,1,09,1.0,14.0,M,-33.6,M,,*69
$PYRTM,2024,127.255901410532,18.365548820671
$GPGGA,060828.00,3359.1904,N,11931.1382,W,1,09,1.0,13.0,M,-33.6,M,,*68
$PYRTM,2024,127.255912529398,18.365559939537
$GPGGA,060829.00,3359.1897,N,11931.1393,W,1,09,1.0,11.4,M,-33.6,M,,*64
$PYRTM,2024,127.255923645278,18.365571055417
$GPGGA,060830.00,3359.1893,N,11931.1402,W,1,09,1.0,13.3,M,-33.6,M,,*62
$PYRTM,2024,127.255934757616,18.365582167755
$GPGGA,060831.00,3359.1889,N,11931.1409,W,1,09,1.0,13.3,M,-33.6,M,,*63
$PYRTM,2024,127.255945867847,18.365593277986
$GPGGA,060832.00,3359.1883,N,11931.1417,W,1,09,1.0,12.4,M,-33.6,M,,*63
$PYRTM,2024,127.255956979074,18.365604389213
$GPGGA,060833.00,3359.1876,N,11931.1427,W,1,09,1.0,12.0,M,-33.6,M,,*6F
$PYRTM,2024,127.255968206898,18.365615617049
$GPGGA,060834.00,3359.1871,N,11931.1436,W,1,09,1.0,13.0,M,-33.6,M,,*6E
$PYRTM,2024,127.255979649479,18.365627059618
$GPGGA,060835.00,3359.1866,N,11931.1445,W,1,09,1.0,11.5,M,-33.6,M,,*6A
$PYRTM,2024,127.255991239387,18.365638649525
