$PYRTM,2024,123.250008836111,14.359656246250
$GPGGA,055959.00,3411.9119,N,12007.3270,W,1,09,1.0,12.4,M,-33.6,M,,*6A
$PYRTM,2024,123.250019939282,14.359667349421
$GPGGA,060000.00,3411.9124,N,12007.3288,W,1,09,1.0,12.9,M,-33.6,M,,*6D
$PYRTM,2024,123.250031058924,14.359678469062
$GPGGA,060001.00,3411.9128,N,12007.3303,W,1,09,1.0,15.1,M,-33.6,M,,*6D
$PYRTM,2024,123.250042662975,14.359690073113
$GPGGA,060002.00,3411.9131,N,12007.3320,W,1,09,1.0,15.9,M,-33.6,M,,*6F
$PYRTM,2024,123.250054203715,14.359701613866
$GPGGA,060003.00,3411.9133,N,12007.3338,W,1,09,1.0,17.1,M,-33.6,M,,*6F
$PYRTM,2024,123.250066923414,14.359714333565
$GPGGA,060004.00,3411.9135,N,12007.3354,W,1,09,1.0,16.9,M,-33.6,M,,*6D
$PYRTM,2024,123.250078513495,14.359725923634
$GPGGA,060005.00,3411.9139,N,12007.3373,W,1,09,1.0,15.0,M,-33.6,M,,*6F
$PYRTM,2024,123.250090071227,14.359737481366
$GPGGA,060006.00,3411.9146,N,12007.3394,W,1,09,1.0,14.4,M,-33.6,M,,*68
$PYRTM,2024,123.250101662465,14.359749072616
$GPGGA,060007.00,3411.9151,N,12007.3414,W,1,09,1.0,12.2,M,-33.6,M,,*60
$PYRTM,2024,123.250113221343,14.359760631481
$GPGGA,060008.00,3411.9151,N,12007.3432,W,1,09,1.0,12.4,M,-33.6,M,,*6D
$PYRTM,2024,123.250124809086,14.359772219225
$GPGGA,060009.00,3411.9149,N,12007.3448,W,1,09,1.0,13.6,M,-33.6,M,,*6B
$PYRTM,2024,123.250136366597,14.359783776736
$GPGGA,060010.00,3411.9149,N,12007.3466,W,1,09,1.0,13.7,M,-33.6,M,,*6E
$PYRTM,2024,123.250148401157,14.359795811296
$GPGGA,060011.00,3411.9150,N,12007.3483,W,1,09,1.0,14.0,M,-33.6,M,,*6C
$PYRTM,2024,123.250159763530,14.359807173681
$GPGGA,060012.00,3411.9153,N,12007.3499,W,1,09,1.0,13.6,M,-33.6,M,,*66
$PYRTM,2024,123.250171107303,14.359818517442
$GPGGA,060013.00,3411.9156,N,12007.3517,W,1,09,1.0,9.9,M,-33.6,M,,*51
$PYRTM,2024,123.250182661134,14.359830071273
$GPGGA,060014.00,3411.9159,N,12007.3535,W,1,09,1.0,8.0,M,-33.6,M,,*51
$PYRTM,2024,123.250194136343,14.359841546493
$GPGGA,060015.00,3411.9160,N,12007.3548,W,1,09,1.0,9.4,M,-33.6,M,,*55
$PYRTM,2024,123.250205810498,14.359853220637
$GPGGA,060016.00,3411.9160,N,12007.3562,W,1,09,1.0,12.0,M,-33.6,M,,*60
$PYRTM,2024,123.250217398889,14.359864809039
$GPGGA,060017.00,3411.9161,N,12007.3584,W,1,09,1.0,14.2,M,-33.6,M,,*6C
$PYRTM,2024,123.250228957940,14.359876368079
$GPGGA,060018.00,3411.9165,N,12007.3605,W,1,09,1.0,13.4,M,-33.6,M,,*6C
$PYRTM,2024,123.250240548079,14.359887958229
$GPGGA,060019.00,3411.9167,N,12007.3620,W,1,09,1.0,14.2,M,-33.6,M,,*69
$PYRTM,2024,123.250252108079,14.359899518229
$GPGGA,060020.00,3411.9168,N,12007.3633,W,1,09,1.0,14.9,M,-33.6,M,,*65
$PYRTM,2024,123.250263694086,14.359911104225
$GPGGA,060021.00,3411.9169,N,12007.3652,W,1,09,1.0,14.7,M,-33.6,M,,*6C
$PYRTM,2024,123.250275253623,14.359922663762
$GPGGA,060022.00,3411.9170,N,12007.3671,W,1,09,1.0,13.7,M,-33.6,M,,*61
$PYRTM,2024,123.250286837813,14.359934247951
$GPGGA,060023.00,3411.9171,N,12007.3687,W,1,09,1.0,13.1,M,-33.6,M,,*6E
$PYRTM,2024,123.250298403877,14.359945814016
$GPGGA,060024.00,3411.9171,N,12007.3702,W,1,09,1.0,13.8,M,-33.6,M,,*6C
$PYRTM,2024,123.250309990775,14.359957400914
$GPGGA,060025.00,3411.9172,N,12007.3717,W,1,09,1.0,14.0,M,-33.6,M,,*65
$PYRTM,2024,123.250321550069,14.359968960208
$GPGGA,060026.00,3411.9174,N,12007.3738,W,1,09,1.0,13.0,M,-33.6,M,,*6A
$PYRTM,2024,123.250333134028,14.359980544167
$GPGGA,060027.00,3411.9176,N,12007.3758,W,1,09,1.0,12.5,M,-33.6,M,,*6B
$PYRTM,2024,123.250344699225,14.359992109375
$GPGGA,060028.00,3411.9177,N,12007.3772,W,1,09,1.0,14.1,M,-33.6,M,,*6F
$PYRTM,2024,123.250356287813,14.360003697951
$GPGGA,060029.00,3411.9176,N,12007.3786,W,1,09,1.0,14.5,M,-33.6,M,,*60
$PYRTM,2024,123.250367848137,14.360015258275
$GPGGA,060030.00,3411.9177,N,12007.3806,W,1,09,1.0,13.2,M,-33.6,M,,*6E
$PYRTM,2024,123.250379435613,14.360026845752
$GPGGA,060031.00,3411.9180,N,12007.3828,W,1,09,1.0,12.0,M,-33.6,M,,*68
$PYRTM,2024,123.250390996528,14.360038406667
$GPGGA,060032.00,3411.9183,N,12007.3846,W,1,09,1.0,11.5,M,-33.6,M,,*66
$PYRTM,2024,123.250402583102,14.360049993241
$GPGGA,060033.00,3411.9184,N,12007.3861,W,1,09,1.0,13.8,M,-33.6,M,,*6A
$PYRTM,2024,123.250415663252,14.360063073391
$GPGGA,060034.00,3411.9185,N,12007.3875,W,1,09,1.0,16.4,M,-33.6,M,,*60
$PYRTM,2024,123.250427918009,14.360075328148
$GPGGA,060035.00,3411.9186,N,12007.3895,W,1,09,1.0,15.1,M,-33.6,M,,*6A
$PYRTM,2024,123.250437290058,14.360084700197
$GPGGA,060036.00,3411.9188,N,12007.3918,W,1,09,1.0,14.3,M,-33.6,M,,*60
$PYRTM,2024,123.250448879132,14.360096289271
$GPGGA,060037.00,3411.9190,N,12007.3937,W,1,09,1.0,13.1,M,-33.6,M,,*60
$PYRTM,2024,123.250460439248,14.360107849387
$GPGGA,060038.00,3411.9192,N,12007.3950,W,1,09,1.0,14.5,M,-33.6,M,,*6F
$PYRTM,2024,123.250472028067,14.360119438206
$GPGGA,060039.00,3411.9196,N,12007.3964,W,1,09,1.0,15.4,M,-33.6,M,,*6D
$PYRTM,2024,123.250483588530,14.360130998681
$GPGGA,060040.00,3411.9200,N,12007.3982,W,1,09,1.0,17.9,M,-33.6,M,,*68
$PYRTM,2024,123.250495625694,14.360143035845
$GPGGA,060041.00,3411.9203,N,12007.4002,W,1,09,1.0,18.3,M,-33.6,M,,*69
$PYRTM,2024,123.250507097465,14.360154507604
$GPGGA,060042.00,3411.9205,N,12007.4022,W,1,09,1.0,16.5,M,-33.6,M,,*66
$PYRTM,2024,123.250518323530,14.360165733669
$GPGGA,060043.00,3411.9206,N,12007.4039,W,1,09,1.0,16.1,M,-33.6,M,,*6A
$PYRTM,2024,123.250529884734,14.360177294873
$GPGGA,060044.00,3411.9207,N,12007.4052,W,1,09,1.0,16.0,M,-33.6,M,,*60
$PYRTM,2024,123.250541467303,14.360188877442
$GPGGA,060045.00,3411.9211,N,12007.4066,W,1,09,1.0,16.9,M,-33.6,M,,*68
$PYRTM,2024,123.250553030868,14.360200441007
$GPGGA,060046.00,3411.9215,N,12007.4086,W,1,09,1.0,16.9,M,-33.6,M,,*61
$PYRTM,2024,123.250564619294,14.360212029433
$GPGGA,060047.00,3411.9218,N,12007.4106,W,1,09,1.0,15.0,M,-33.6,M,,*6E
$PYRTM,2024,123.250576178889,14.360223589028
$GPGGA,060048.00,3411.9220,N,12007.4122,W,1,09,1.0,15.4,M,-33.6,M,,*68
$PYRTM,2024,123.250587768079,14.360235178218
$GPGGA,060049.00,3411.9225,N,12007.4138,W,1,09,1.0,14.8,M,-33.6,M,,*6A
$PYRTM,2024,123.250599327049,14.360246737188
$GPGGA,060050.00,3411.9229,N,12007.4155,W,1,09,1.0,14.4,M,-33.6,M,,*69
$PYRTM,2024,123.250610915984,14.360258326123
$GPGGA,060051.00,3411.9232,N,12007.4173,W,1,09,1.0,14.7,M,-33.6,M,,*65
$PYRTM,2024,123.250622475359,14.360269885498
$GPGGA,060052.00,3411.9233,N,12007.4193,W,1,09,1.0,14.7,M,-33.6,M,,*69
$PYRTM,2024,123.250634064896,14.360281475035
$GPGGA,060053.00,3411.9235,N,12007.4213,W,1,09,1.0,14.1,M,-33.6,M,,*63
$PYRTM,2024,123.250645624421,14.360293034560
$GPGGA,060054.00,3411.9238,N,12007.4234,W,1,09,1.0,11.6,M,-33.6,M,,*6E
$PYRTM,2024,123.250657212141,14.360304622280
$GPGGA,060055.00,3411.9242,N,12007.4249,W,1,09,1.0,13.6,M,-33.6,M,,*6A
$PYRTM,2024,123.250668773796,14.360316183947
$GPGGA,060056.00,3411.9244,N,12007.4260,W,1,09,1.0,14.4,M,-33.6,M,,*61
$PYRTM,2024,123.250680360995,14.360327771134
$GPGGA,060057.00,3411.9246,N,12007.4276,W,1,09,1.0,14.0,M,-33.6,M,,*61
$PYRTM,2024,123.250691921933,14.360339332072
$GPGGA,060058.00,3411.9248,N,12007.4299,W,1,09,1.0,14.0,M,-33.6,M,,*61
$PYRTM,2024,123.250703509444,14.360350919595
$GPGGA,060059.00,3411.9253,N,12007.4318,W,1,09,1.0,13.0,M,-33.6,M,,*65
$PYRTM,2024,123.250715069664,14.360362479815
$GPGGA,060100.00,3411.9257,N,12007.4331,W,1,09,1.0,13.6,M,-33.6,M,,*61
$PYRTM,2024,123.250726659005,14.360374069144
$GPGGA,060101.00,3411.9260,N,12007.4344,W,1,09,1.0,13.7,M,-33.6,M,,*67
$PYRTM,2024,123.250738217708,14.360385627847
$GPGGA,060102.00,3411.9264,N,12007.4364,W,1,09,1.0,15.3,M,-33.6,M,,*60
$PYRTM,2024,123.250749806562,14.360397216701
$GPGGA,060103.00,3411.9266,N,12007.4387,W,1,09,1.0,18.0,M,-33.6,M,,*60
$PYRTM,2024,123.250762416285,14.360409826424
$GPGGA,060104.00,3411.9269,N,12007.4405,W,1,09,1.0,15.8,M,-33.6,M,,*60
$PYRTM,2024,123.250775147431,14.360422557569
$GPGGA,060105.00,3411.9274,N,12007.4418,W,1,09,1.0,15.8,M,-33.6,M,,*61
$PYRTM,2024,123.250784514468,14.360431924606
$GPGGA,060106.00,3411.9277,N,12007.4431,W,1,09,1.0,17.1,M,-33.6,M,,*61
$PYRTM,2024,123.250796096632,14.360443506771
$GPGGA,060107.00,3411.9281,N,12007.4448,W,1,09,1.0,18.1,M,-33.6,M,,*68
$PYRTM,2024,123.250807662419,14.360455072558
$GPGGA,060108.00,3411.9285,N,12007.4470,W,1,09,1.0,15.2,M,-33.6,M,,*66
$PYRTM,2024,123.250819252326,14.360466662465
$GPGGA,060109.00,3411.9290,N,12007.4491,W,1,09,1.0,14.0,M,-33.6,M,,*6F
$PYRTM,2024,123.250830810185,14.360478220324
$GPGGA,060110.00,3411.9295,N,12007.4505,W,1,09,1.0,14.7,M,-33.6,M,,*69
$PYRTM,2024,123.250842733079,14.360490143229
$GPGGA,060111.00,3411.9301,N,12007.4517,W,1,09,1.0,15.4,M,-33.6,M,,*65
$PYRTM,2024,123.250853958252,14.360501368391
$GPGGA,060112.00,3411.9305,N,12007.4535,W,1,09,1.0,17.5,M,-33.6,M,,*61
$PYRTM,2024,123.250865534178,14.360512944317
$GPGGA,060113.00,3411.9306,N,12007.4558,W,1,09,1.0,16.6,M,-33.6,M,,*6A
$PYRTM,2024,123.250877107187,14.360524517326
$GPGGA,060114.00,3411.9308,N,12007.4577,W,1,09,1.0,16.9,M,-33.6,M,,*61
$PYRTM,2024,123.250888694132,14.360536104282
$GPGGA,060115.00,3411.9310,N,12007.4590,W,1,09,1.0,15.5,M,-33.6,M,,*6F
$PYRTM,2024,123.250900254792,14.360547664931
$GPGGA,060116.00,3411.9313,N,12007.4606,W,1,09,1.0,15.9,M,-33.6,M,,*6F
$PYRTM,2024,123.250911837720,14.360559247859
$GPGGA,060117.00,3411.9317,N,12007.4626,W,1,09,1.0,14.1,M,-33.6,M,,*61
$PYRTM,2024,123.250923402963,14.360570813102
$GPGGA,060118.00,3411.9321,N,12007.4644,W,1,09,1.0,14.2,M,-33.6,M,,*6C
$PYRTM,2024,123.250934991597,14.360582401736
$GPGGA,060119.00,3411.9323,N,12007.4658,W,1,09,1.0,15.3,M,-33.6,M,,*62
$PYRTM,2024,123.250946550741,14.360593960880
$GPGGA,060120.00,3411.9326,N,12007.4674,W,1,09,1.0,16.3,M,-33.6,M,,*60
$PYRTM,2024,123.250958138241,14.360605548380
$GPGGA,060121.00,3411.9330,N,12007.4695,W,1,09,1.0,16.7,M,-33.6,M,,*6D
$PYRTM,2024,123.250969699896,14.360617110035
$GPGGA,060122.00,3411.9332,N,12007.4715,W,1,09,1.0,15.4,M,-33.6,M,,*65
$PYRTM,2024,123.250981282766,14.360628692905
$GPGGA,060123.00,3411.9332,N,12007.4731,W,1,09,1.0,15.1,M,-33.6,M,,*67
$PYRTM,2024,123.250993208970,14.360640619109
$GPGGA,060124.00,3411.9334,N,12007.4745,W,1,09,1.0,15.3,M,-33.6,M,,*67
$PYRTM,2024,123.251004430486,14.360651840625
$GPGGA,060125.00,3411.9341,N,12007.4760,W,1,09,1.0,16.0,M,-33.6,M,,*63
$PYRTM,2024,123.251015994676,14.360663404815
$GPGGA,060126.00,3411.9347,N,12007.4779,W,1,09,1.0,15.0,M,-33.6,M,,*6D
$PYRTM,2024,123.251027582523,14.360674992662
$GPGGA,060127.00,3411.9349,N,12007.4801,W,1,09,1.0,12.1,M,-33.6,M,,*64
$PYRTM,2024,123.251039142361,14.360686552500
$GPGGA,060128.00,3411.9348,N,12007.4821,W,1,09,1.0,12.0,M,-33.6,M,,*69
$PYRTM,2024,123.251050732870,14.360698143009
$GPGGA,060129.00,3411.9349,N,12007.4837,W,1,09,1.0,12.2,M,-33.6,M,,*6C
$PYRTM,2024,123.251062292963,14.360709703102
$GPGGA,060130.00,3411.9355,N,12007.4852,W,1,09,1.0,13.1,M,-33.6,M,,*68
$PYRTM,2024,123.251072954062,14.360720364201
$GPGGA,060131.00,3411.9362,N,12007.4868,W,1,09,1.0,14.1,M,-33.6,M,,*63
$PYRTM,2024,123.251085918241,14.360733328380
$GPGGA,060132.00,3411.9365,N,12007.4887,W,1,09,1.0,13.3,M,-33.6,M,,*63
$PYRTM,2024,123.251096683819,14.360744093958
$GPGGA,060133.00,3411.9362,N,12007.4909,W,1,09,1.0,11.7,M,-33.6,M,,*64
$PYRTM,2024,123.251107792292,14.360755202431
$GPGGA,060134.00,3411.9363,N,12007.4927,W,1,09,1.0,11.3,M,-33.6,M,,*6A
$PYRTM,2024,123.251122476076,14.360769886215
$GPGGA,060135.00,3411.9367,N,12007.4940,W,1,09,1.0,12.0,M,-33.6,M,,*6E
$PYRTM,2024,123.251133594850,14.360781004988
$GPGGA,060136.00,3411.9373,N,12007.4953,W,1,09,1.0,13.5,M,-33.6,M,,*6E
$PYRTM,2024,123.251144698553,14.360792108692
$GPGGA,060137.00,3411.9377,N,12007.4974,W,1,09,1.0,12.8,M,-33.6,M,,*62
$PYRTM,2024,123.251155809502,14.360803219653
$GPGGA,060138.00,3411.9379,N,12007.4998,W,1,09,1.0,15.1,M,-33.6,M,,*6F
$PYRTM,2024,123.251166920000,14.360814330139
$GPGGA,060139.00,3411.9382,N,12007.5016,W,1,09,1.0,14.8,M,-33.6,M,,*6C
$PYRTM,2024,123.251178031667,14.360825441806
$GPGGA,060140.00,3411.9383,N,12007.5028,W,1,09,1.0,15.5,M,-33.6,M,,*62
$PYRTM,2024,123.251189620660,14.360837030799
$GPGGA,060141.00,3411.9384,N,12007.5043,W,1,09,1.0,16.5,M,-33.6,M,,*6A
$PYRTM,2024,123.251200731655,14.360848141794
$GPGGA,060142.00,3411.9385,N,12007.5064,W,1,09,1.0,16.0,M,-33.6,M,,*68
$PYRTM,2024,123.251216922593,14.360864332731
$GPGGA,060143.00,3411.9388,N,12007.5086,W,1,09,1.0,15.2,M,-33.6,M,,*69
$PYRTM,2024,123.251228033507,14.360875443646
$GPGGA,060144.00,3411.9390,N,12007.5105,W,1,09,1.0,15.7,M,-33.6,M,,*68
$PYRTM,2024,123.251239142546,14.360886552697
$GPGGA,060145.00,3411.9391,N,12007.5121,W,1,09,1.0,15.9,M,-33.6,M,,*60
$PYRTM,2024,123.251250253785,14.360897663924
$GPGGA,060146.00,3411.9391,N,12007.5137,W,1,09,1.0,16.9,M,-33.6,M,,*67
$PYRTM,2024,123.251261375336,14.360908785475
$GPGGA,060147.00,3411.9392,N,12007.5155,W,1,09,1.0,17.0,M,-33.6,M,,*69
$PYRTM,2024,123.251272609167,14.360920019306
$GPGGA,060148.00,3411.9394,N,12007.5176,W,1,09,1.0,15.7,M,-33.6,M,,*64
$PYRTM,2024,123.251283716597,14.360931126736
$GPGGA,060149.00,3411.9396,N,12007.5199,W,1,09,1.0,13.7,M,-33.6,M,,*60
$PYRTM,2024,123.251294816331,14.360942226470
$GPGGA,060150.00,3411.9400,N,12007.5215,W,1,09,1.0,13.5,M,-33.6,M,,*65
$PYRTM,2024,123.251305943738,14.360953353877
$GPGGA,060151.00,3411.9403,N,12007.5228,W,1,09,1.0,14.0,M,-33.6,M,,*6B
$PYRTM,2024,123.251317051447,14.360964461586
$GPGGA,060152.00,3411.9408,N,12007.5242,W,1,09,1.0,15.5,M,-33.6,M,,*6B
$PYRTM,2024,123.251328165093,14.360975575231
$GPGGA,060153.00,3411.9410,N,12007.5263,W,1,09,1.0,16.3,M,-33.6,M,,*65
$PYRTM,2024,123.251339383854,14.360986793993
$GPGGA,060154.00,3411.9410,N,12007.5286,W,1,09,1.0,14.9,M,-33.6,M,,*61
$PYRTM,2024,123.251350494884,14.360997905023
$GPGGA,060155.00,3411.9411,N,12007.5303,W,1,09,1.0,14.9,M,-33.6,M,,*6D
$PYRTM,2024,123.251362062083,14.361009472222
$GPGGA,060156.00,3411.9415,N,12007.5318,W,1,09,1.0,15.3,M,-33.6,M,,*6B
$PYRTM,2024,123.251373647743,14.361021057894
$GPGGA,060157.00,3411.9421,N,12007.5336,W,1,09,1.0,16.0,M,-33.6,M,,*61
$PYRTM,2024,123.251385209213,14.361032619352
$GPGGA,060158.00,3411.9427,N,12007.5358,W,1,09,1.0,13.3,M,-33.6,M,,*66
$PYRTM,2024,123.251396796157,14.361044206296
$GPGGA,060159.00,3411.9427,N,12007.5375,W,1,09,1.0,13.8,M,-33.6,M,,*63
$PYRTM,2024,123.251408357616,14.361055767755
$GPGGA,060200.00,3411.9426,N,12007.5390,W,1,09,1.0,14.2,M,-33.6,M,,*6B
$PYRTM,2024,123.251419943403,14.361067353542
$GPGGA,060201.00,3411.9428,N,12007.5406,W,1,09,1.0,13.5,M,-33.6,M,,*6C
$PYRTM,2024,123.251431505926,14.361078916065
$GPGGA,060202.00,3411.9434,N,12007.5425,W,1,09,1.0,14.4,M,-33.6,M,,*65
$PYRTM,2024,123.251443093275,14.361090503414
$GPGGA,060203.00,3411.9437,N,12007.5445,W,1,09,1.0,15.0,M,-33.6,M,,*64
$PYRTM,2024,123.251455809815,14.361103219965
$GPGGA,060204.00,3411.9437,N,12007.5463,W,1,09,1.0,13.7,M,-33.6,M,,*66
$PYRTM,2024,123.251467397847,14.361114807986
$GPGGA,060205.00,3411.9436,N,12007.5477,W,1,09,1.0,14.1,M,-33.6,M,,*62
$PYRTM,2024,123.251478958056,14.361126368194
$GPGGA,060206.00,3411.9436,N,12007.5491,W,1,09,1.0,15.3,M,-33.6,M,,*6A
$PYRTM,2024,123.251490536331,14.361137946470
$GPGGA,060207.00,3411.9438,N,12007.5509,W,1,09,1.0,14.8,M,-33.6,M,,*6F
$PYRTM,2024,123.251502108287,14.361149518426
$GPGGA,060208.00,3411.9442,N,12007.5531,W,1,09,1.0,11.4,M,-33.6,M,,*6F
$PYRTM,2024,123.251513682558,14.361161092697
$GPGGA,060209.00,3411.9444,N,12007.5548,W,1,09,1.0,12.1,M,-33.6,M,,*60
$PYRTM,2024,123.251525253889,14.361172664028
$GPGGA,060210.00,3411.9445,N,12007.5558,W,1,09,1.0,13.1,M,-33.6,M,,*69
$PYRTM,2024,123.251537177940,14.361184588079
$GPGGA,060211.00,3411.9444,N,12007.5573,W,1,09,1.0,16.7,M,-33.6,M,,*63
$PYRTM,2024,123.251548401250,14.361195811389
$GPGGA,060212.00,3411.9446,N,12007.5595,W,1,09,1.0,15.7,M,-33.6,M,,*69
$PYRTM,2024,123.251559985150,14.361207395301
$GPGGA,060213.00,3411.9449,N,12007.5618,W,1,09,1.0,15.3,M,-33.6,M,,*65
$PYRTM,2024,123.251572029954,14.361219440093
$GPGGA,060214.00,3411.9451,N,12007.5635,W,1,09,1.0,15.4,M,-33.6,M,,*63
$PYRTM,2024,123.251583241806,14.361230651956
$GPGGA,060215.00,3411.9450,N,12007.5646,W,1,09,1.0,17.8,M,-33.6,M,,*69
$PYRTM,2024,123.251594698785,14.361242108924
$GPGGA,060216.00,3411.9449,N,12007.5661,W,1,09,1.0,18.3,M,-33.6,M,,*63
$PYRTM,2024,123.251606288785,14.361253698924
$GPGGA,060217.00,3411.9450,N,12007.5683,W,1,09,1.0,15.0,M,-33.6,M,,*68
$PYRTM,2024,123.251617846192,14.361265256331
$GPGGA,060218.00,3411.9453,N,12007.5703,W,1,09,1.0,14.0,M,-33.6,M,,*6C
$PYRTM,2024,123.251629435231,14.361276845382
$GPGGA,060219.00,3411.9455,N,12007.5715,W,1,09,1.0,14.9,M,-33.6,M,,*65
$PYRTM,2024,123.251640995093,14.361288405231
$GPGGA,060220.00,3411.9455,N,12007.5725,W,1,09,1.0,15.2,M,-33.6,M,,*66
$PYRTM,2024,123.251652582975,14.361299993113
$GPGGA,060221.00,3411.9456,N,12007.5743,W,1,09,1.0,16.9,M,-33.6,M,,*6C
$PYRTM,2024,123.251664146030,14.361311556169
$GPGGA,060222.00,3411.9457,N,12007.5766,W,1,09,1.0,15.0,M,-33.6,M,,*63
$PYRTM,2024,123.251675731586,14.361323141725
$GPGGA,060223.00,3411.9459,N,12007.5784,W,1,09,1.0,14.9,M,-33.6,M,,*68
$PYRTM,2024,123.251687290660,14.361334700799
$GPGGA,060224.00,3411.9462,N,12007.5796,W,1,09,1.0,14.9,M,-33.6,M,,*64
$PYRTM,2024,123.251698879965,14.361346290116
$GPGGA,060225.00,3411.9466,N,12007.5812,W,1,09,1.0,16.4,M,-33.6,M,,*6D
$PYRTM,2024,123.251710439583,14.361357849722
$GPGGA,060226.00,3411.9470,N,12007.5832,W,1,09,1.0,16.1,M,-33.6,M,,*6E
$PYRTM,2024,123.251722023634,14.361369433773
$GPGGA,060227.00,3411.9470,N,12007.5848,W,1,09,1.0,15.6,M,-33.6,M,,*66
$PYRTM,2024,123.251733589213,14.361380999352
$GPGGA,060228.00,3411.9472,N,12007.5862,W,1,09,1.0,15.3,M,-33.6,M,,*66
$PYRTM,2024,123.251745163727,14.361392573866
$GPGGA,060229.00,3411.9476,N,12007.5881,W,1,09,1.0,12.7,M,-33.6,M,,*6D
$PYRTM,2024,123.251756738692,14.361404148831
$GPGGA,060230.00,3411.9482,N,12007.5901,W,1,09,1.0,12.3,M,-33.6,M,,*63
$PYRTM,2024,123.251768323542,14.361415733681
$GPGGA,060231.00,3411.9484,N,12007.5915,W,1,09,1.0,12.9,M,-33.6,M,,*6B
$PYRTM,2024,123.251779884016,14.361427294167
$GPGGA,060232.00,3411.9484,N,12007.5927,W,1,09,1.0,14.4,M,-33.6,M,,*62
$PYRTM,2024,123.251791468519,14.361438878657
$GPGGA,060233.00,3411.9483,N,12007.5942,W,1,09,1.0,15.1,M,-33.6,M,,*63
$PYRTM,2024,123.251804075833,14.361451485972
$GPGGA,060234.00,3411.9484,N,12007.5964,W,1,09,1.0,13.9,M,-33.6,M,,*69
$PYRTM,2024,123.251816807789,14.361464217928
$GPGGA,060235.00,3411.9486,N,12007.5985,W,1,09,1.0,10.6,M,-33.6,M,,*69
$PYRTM,2024,123.251826181019,14.361473591157
$GPGGA,060236.00,3411.9489,N,12007.5995,W,1,09,1.0,11.1,M,-33.6,M,,*62
$PYRTM,2024,123.251837769248,14.361485179387
$GPGGA,060237.00,3411.9492,N,12007.6000,W,1,09,1.0,11.3,M,-33.6,M,,*6D
$PYRTM,2024,123.251849327512,14.361496737650
$GPGGA,060238.00,3411.9491,N,12007.6010,W,1,09,1.0,12.0,M,-33.6,M,,*60
$PYRTM,2024,123.251860916771,14.361508326910
$GPGGA,060239.00,3411.9490,N,12007.6029,W,1,09,1.0,12.5,M,-33.6,M,,*6F
$PYRTM,2024,123.251872477442,14.361519887581
$GPGGA,060240.00,3411.9492,N,12007.6046,W,1,09,1.0,12.0,M,-33.6,M,,*6F
$PYRTM,2024,123.251884397986,14.361531808125
$GPGGA,060241.00,3411.9495,N,12007.6055,W,1,09,1.0,12.3,M,-33.6,M,,*68
$PYRTM,2024,123.251895625440,14.361543035579
$GPGGA,060242.00,3411.9500,N,12007.6063,W,1,09,1.0,12.7,M,-33.6,M,,*67
$PYRTM,2024,123.251907214225,14.361554624375
$GPGGA,060243.00,3411.9506,N,12007.6078,W,1,09,1.0,12.7,M,-33.6,M,,*6A
$PYRTM,2024,123.251918774317,14.361566184456
$GPGGA,060244.00,3411.9510,N,12007.6097,W,1,09,1.0,11.4,M,-33.6,M,,*6B
$PYRTM,2024,123.251930360417,14.361577770556
$GPGGA,060245.00,3411.9510,N,12007.6114,W,1,09,1.0,12.0,M,-33.6,M,,*67
$PYRTM,2024,123.251941922986,14.361589333125
$GPGGA,060246.00,3411.9510,N,12007.6127,W,1,09,1.0,13.8,M,-33.6,M,,*6D
$PYRTM,2024,123.251953508495,14.361600918634
$GPGGA,060247.00,3411.9513,N,12007.6142,W,1,09,1.0,14.9,M,-33.6,M,,*6A
$PYRTM,2024,123.251965070903,14.361612481042
$GPGGA,060248.00,3411.9515,N,12007.6160,W,1,09,1.0,15.5,M,-33.6,M,,*6E
$PYRTM,2024,123.251976652211,14.361624062350
$GPGGA,060249.00,3411.9516,N,12007.6176,W,1,09,1.0,15.3,M,-33.6,M,,*6D
$PYRTM,2024,123.251988217454,14.361635627593
$GPGGA,060250.00,3411.9518,N,12007.6185,W,1,09,1.0,14.7,M,-33.6,M,,*62
$PYRTM,2024,123.251999801759,14.361647211898
$GPGGA,060251.00,3411.9520,N,12007.6196,W,1,09,1.0,15.1,M,-33.6,M,,*6D
$PYRTM,2024,123.252011365417,14.361658775556
$GPGGA,060252.00,3411.9523,N,12007.6212,W,1,09,1.0,14.3,M,-33.6,M,,*61
$PYRTM,2024,123.252022942685,14.361670352824
$GPGGA,060253.00,3411.9525,N,12007.6230,W,1,09,1.0,14.2,M,-33.6,M,,*67
$PYRTM,2024,123.252034517442,14.361681927581
$GPGGA,060254.00,3411.9523,N,12007.6246,W,1,09,1.0,15.0,M,-33.6,M,,*64
$PYRTM,2024,123.252046098380,14.361693508519
$GPGGA,060255.00,3411.9524,N,12007.6261,W,1,09,1.0,15.1,M,-33.6,M,,*66
$PYRTM,2024,123.252057662188,14.361705072338
$GPGGA,060256.00,3411.9527,N,12007.6279,W,1,09,1.0,14.7,M,-33.6,M,,*68
$PYRTM,2024,123.252069251910,14.361716662049
$GPGGA,060257.00,3411.9531,N,12007.6297,W,1,09,1.0,14.1,M,-33.6,M,,*68
$PYRTM,2024,123.252080810775,14.361728220926
$GPGGA,060258.00,3411.9533,N,12007.6313,W,1,09,1.0,13.9,M,-33.6,M,,*67
$PYRTM,2024,123.252092399664,14.361739809803
$GPGGA,060259.00,3411.9532,N,12007.6327,W,1,09,1.0,15.2,M,-33.6,M,,*6D
$PYRTM,2024,123.252103958646,14.361751368785
$GPGGA,060300.00,3411.9532,N,12007.6343,W,1,09,1.0,15.6,M,-33.6,M,,*66
$PYRTM,2024,123.252115545590,14.361762955729
$GPGGA,060301.00,3411.9534,N,12007.6363,W,1,09,1.0,15.8,M,-33.6,M,,*6D
$PYRTM,2024,123.252127106782,14.361774516921
$GPGGA,060302.00,3411.9536,N,12007.6382,W,1,09,1.0,15.2,M,-33.6,M,,*69
$PYRTM,2024,123.252138682766,14.361786092905
$GPGGA,060303.00,3411.9538,N,12007.6395,W,1,09,1.0,16.4,M,-33.6,M,,*65
$PYRTM,2024,123.252151772836,14.361799182986
$GPGGA,060304.00,3411.9539,N,12007.6408,W,1,09,1.0,17.1,M,-33.6,M,,*64
$PYRTM,2024,123.252164029398,14.361811439537
$GPGGA,060305.00,3411.9539,N,12007.6426,W,1,09,1.0,16.1,M,-33.6,M,,*68
$PYRTM,2024,123.252173403634,14.361820813773
$GPGGA,060306.00,3411.9541,N,12007.6445,W,1,09,1.0,15.8,M,-33.6,M,,*6B
$PYRTM,2024,123.252184985382,14.361832395532
$GPGGA,060307.00,3411.9544,N,12007.6462,W,1,09,1.0,15.5,M,-33.6,M,,*67
$PYRTM,2024,123.252196553148,14.361843963287
$GPGGA,060308.00,3411.9549,N,12007.6478,W,1,09,1.0,16.4,M,-33.6,M,,*6C
$PYRTM,2024,123.252208138600,14.361855548738
$GPGGA,060309.00,3411.9551,N,12007.6496,W,1,09,1.0,14.7,M,-33.6,M,,*65
$PYRTM,2024,123.252219700660,14.361867110810
$GPGGA,060310.00,3411.9550,N,12007.6515,W,1,09,1.0,14.7,M,-33.6,M,,*66
$PYRTM,2024,123.252231622396,14.361879032535
$GPGGA,060311.00,3411.9551,N,12007.6530,W,1,09,1.0,14.8,M,-33.6,M,,*6E
$PYRTM,2024,123.252242848137,14.361890258275
$GPGGA,060312.00,3411.9556,N,12007.6549,W,1,09,1.0,13.8,M,-33.6,M,,*63
$PYRTM,2024,123.252254435370,14.361901845509
$GPGGA,060313.00,3411.9561,N,12007.6570,W,1,09,1.0,12.4,M,-33.6,M,,*61
$PYRTM,2024,123.252265994792,14.361913404931
$GPGGA,060314.00,3411.9562,N,12007.6586,W,1,09,1.0,13.0,M,-33.6,M,,*69
$PYRTM,2024,123.252277584641,14.361924994780
$GPGGA,060315.00,3411.9561,N,12007.6597,W,1,09,1.0,14.0,M,-33.6,M,,*6C
$PYRTM,2024,123.252289143866,14.361936554005
$GPGGA,060316.00,3411.9564,N,12007.6612,W,1,09,1.0,13.9,M,-33.6,M,,*6A
$PYRTM,2024,123.252300725972,14.361948136111
$GPGGA,060317.00,3411.9568,N,12007.6633,W,1,09,1.0,14.0,M,-33.6,M,,*6A
$PYRTM,2024,123.252312292442,14.361959702581
$GPGGA,060318.00,3411.9570,N,12007.6653,W,1,09,1.0,13.4,M,-33.6,M,,*69
$PYRTM,2024,123.252323881979,14.361971292118
$GPGGA,060319.00,3411.9568,N,12007.6667,W,1,09,1.0,13.8,M,-33.6,M,,*6A
$PYRTM,2024,123.252335442118,14.361982852257
$GPGGA,060320.00,3411.9568,N,12007.6679,W,1,09,1.0,15.4,M,-33.6,M,,*65
$PYRTM,2024,123.252347030822,14.361994440961
$GPGGA,060321.00,3411.9572,N,12007.6695,W,1,09,1.0,16.0,M,-33.6,M,,*6A
$PYRTM,2024,123.252358589178,14.362005999329
$GPGGA,060322.00,3411.9576,N,12007.6713,W,1,09,1.0,16.8,M,-33.6,M,,*6A
$PYRTM,2024,123.252370178970,14.362017589109
$GPGGA,060323.00,3411.9578,N,12007.6732,W,1,09,1.0,14.6,M,-33.6,M,,*6A
$PYRTM,2024,123.252381737002,14.362029147153
$GPGGA,060324.00,3411.9577,N,12007.6748,W,1,09,1.0,15.2,M,-33.6,M,,*6A
$PYRTM,2024,123.252393323275,14.362040733414
$GPGGA,060325.00,3411.9579,N,12007.6760,W,1,09,1.0,16.0,M,-33.6,M,,*6E
$PYRTM,2024,123.252404885532,14.362052295671
$GPGGA,060326.00,3411.9584,N,12007.6776,W,1,09,1.0,15.6,M,-33.6,M,,*6D
$PYRTM,2024,123.252416472951,14.362063883102
$GPGGA,060327.00,3411.9589,N,12007.6797,W,1,09,1.0,13.3,M,-33.6,M,,*6D
$PYRTM,2024,123.252428033692,14.362075443831
$GPGGA,060328.00,3411.9590,N,12007.6819,W,1,09,1.0,14.9,M,-33.6,M,,*6E
$PYRTM,2024,123.252439615417,14.362087025567
$GPGGA,060329.00,3411.9587,N,12007.6836,W,1,09,1.0,16.2,M,-33.6,M,,*6D
$PYRTM,2024,123.252451181192,14.362098591331
$GPGGA,060330.00,3411.9587,N,12007.6851,W,1,09,1.0,16.2,M,-33.6,M,,*64
$PYRTM,2024,123.252462763866,14.362110174005
$GPGGA,060331.00,3411.9590,N,12007.6871,W,1,09,1.0,16.5,M,-33.6,M,,*66
$PYRTM,2024,123.252474330683,14.362121740822
$GPGGA,060332.00,3411.9594,N,12007.6892,W,1,09,1.0,12.2,M,-33.6,M,,*6F
$PYRTM,2024,123.252485920486,14.362133330625
$GPGGA,060333.00,3411.9596,N,12007.6908,W,1,09,1.0,14.4,M,-33.6,M,,*6E
$PYRTM,2024,123.252498517627,14.362145927766
$GPGGA,060334.00,3411.9596,N,12007.6921,W,1,09,1.0,14.6,M,-33.6,M,,*60
$PYRTM,2024,123.252511250046,14.362158660185
$GPGGA,060335.00,3411.9596,N,12007.6939,W,1,09,1.0,17.7,M,-33.6,M,,*6A
$PYRTM,2024,123.252519700683,14.362167110833
$GPGGA,060336.00,3411.9598,N,12007.6960,W,1,09,1.0,15.2,M,-33.6,M,,*6C
$PYRTM,2024,123.252532775937,14.362180186076
$GPGGA,060337.00,3411.9599,N,12007.6981,W,1,09,1.0,12.4,M,-33.6,M,,*62
$PYRTM,2024,123.252543439456,14.362190849595
$GPGGA,060338.00,3411.9602,N,12007.6996,W,1,09,1.0,13.0,M,-33.6,M,,*6F
$PYRTM,2024,123.252554667384,14.362202077523
$GPGGA,060339.00,3411.9606,N,12007.7009,W,1,09,1.0,15.8,M,-33.6,M,,*6A
$PYRTM,2024,123.252565777384,14.362213187523
$GPGGA,060340.00,3411.9608,N,12007.7025,W,1,09,1.0,13.0,M,-33.6,M,,*6A
$PYRTM,2024,123.252576887905,14.362224298044
$GPGGA,060341.00,3411.9609,N,12007.7046,W,1,09,1.0,13.8,M,-33.6,M,,*67
$PYRTM,2024,123.252588465023,14.362235875162
$GPGGA,060342.00,3411.9610,N,12007.7066,W,1,09,1.0,14.8,M,-33.6,M,,*69
$PYRTM,2024,123.252599574769,14.362246984907
$GPGGA,060343.00,3411.9614,N,12007.7084,W,1,09,1.0,15.0,M,-33.6,M,,*69
$PYRTM,2024,123.252610685417,14.362258095556
$GPGGA,060344.00,3411.9619,N,12007.7101,W,1,09,1.0,15.5,M,-33.6,M,,*6A
$PYRTM,2024,123.252621795683,14.362269205822
$GPGGA,060345.00,3411.9623,N,12007.7120,W,1,09,1.0,19.2,M,-33.6,M,,*6A
$PYRTM,2024,123.252633022558,14.362280432697
$GPGGA,060346.00,3411.9627,N,12007.7140,W,1,09,1.0,18.2,M,-33.6,M,,*6A
$PYRTM,2024,123.252644136146,14.362291546285
$GPGGA,060347.00,3411.9630,N,12007.7158,W,1,09,1.0,18.5,M,-33.6,M,,*63
$PYRTM,2024,123.252655246007,14.362302656146
$GPGGA,060348.00,3411.9633,N,12007.7176,W,1,09,1.0,18.1,M,-33.6,M,,*67
$PYRTM,2024,123.252666359028,14.362313769167
$GPGGA,060349.00,3411.9636,N,12007.7198,W,1,09,1.0,17.4,M,-33.6,M,,*69
$PYRTM,2024,123.252683258171,14.362330668310
$GPGGA,060350.00,3411.9637,N,12007.7219,W,1,09,1.0,16.6,M,-33.6,M,,*69
$PYRTM,2024,123.252694364907,14.362341775046
$GPGGA,060351.00,3411.9640,N,12007.7235,W,1,09,1.0,16.6,M,-33.6,M,,*66
$PYRTM,2024,123.252705475046,14.362352885185
$GPGGA,060352.00,3411.9644,N,12007.7253,W,1,09,1.0,15.5,M,-33.6,M,,*61
$PYRTM,2024,123.252716587847,14.362363997986
$GPGGA,060353.00,3411.9650,N,12007.7276,W,1,09,1.0,13.8,M,-33.6,M,,*69
$PYRTM,2024,123.252727698426,14.362375108565
$GPGGA,060354.00,3411.9655,N,12007.7297,W,1,09,1.0,13.3,M,-33.6,M,,*6F
$PYRTM,2024,123.252739260486,14.362386670625
$GPGGA,060355.00,3411.9655,N,12007.7310,W,1,09,1.0,14.8,M,-33.6,M,,*6C
$PYRTM,2024,123.252750369618,14.362397779757
$GPGGA,060356.00,3411.9656,N,12007.7325,W,1,09,1.0,16.6,M,-33.6,M,,*66
$PYRTM,2024,123.252761610741,14.362409020880
$GPGGA,060357.00,3411.9660,N,12007.7345,W,1,09,1.0,14.5,M,-33.6,M,,*65
$PYRTM,2024,123.252772721100,14.362420131238
$GPGGA,060358.00,3411.9663,N,12007.7364,W,1,09,1.0,13.5,M,-33.6,M,,*6D
$PYRTM,2024,123.252783832037,14.362431242176
$GPGGA,060359.00,3411.9665,N,12007.7378,W,1,09,1.0,14.3,M,-33.6,M,,*66
$PYRTM,2024,123.252794929051,14.362442339190
$GPGGA,060400.00,3411.9664,N,12007.7392,W,1,09,1.0,14.6,M,-33.6,M,,*6D
$PYRTM,2024,123.252806040127,14.362453450266
$GPGGA,060401.00,3411.9666,N,12007.7411,W,1,09,1.0,14.5,M,-33.6,M,,*61
$PYRTM,2024,123.252817151759,14.362464561898
$GPGGA,060402.00,3411.9671,N,12007.7431,W,1,09,1.0,13.0,M,-33.6,M,,*64
$PYRTM,2024,123.252828395521,14.362475805660
$GPGGA,060403.00,3411.9677,N,12007.7448,W,1,09,1.0,11.6,M,-33.6,M,,*69
$PYRTM,2024,123.252839503819,14.362486913958
$GPGGA,060404.00,3411.9681,N,12007.7462,W,1,09,1.0,10.7,M,-33.6,M,,*6F
$PYRTM,2024,123.252855113924,14.362502524062
$GPGGA,060405.00,3411.9682,N,12007.7478,W,1,09,1.0,11.5,M,-33.6,M,,*65
$PYRTM,2024,123.252866702512,14.362514112650
$GPGGA,060406.00,3411.9683,N,12007.7496,W,1,09,1.0,12.0,M,-33.6,M,,*61
$PYRTM,2024,123.252878262975,14.362525673113
$GPGGA,060407.00,3411.9686,N,12007.7510,W,1,09,1.0,12.6,M,-33.6,M,,*6C
$PYRTM,2024,123.252889851586,14.362537261725
$GPGGA,060408.00,3411.9692,N,12007.7525,W,1,09,1.0,12.6,M,-33.6,M,,*60
$PYRTM,2024,123.252901410648,14.362548820787
$GPGGA,060409.00,3411.9700,N,12007.7547,W,1,09,1.0,11.0,M,-33.6,M,,*6A
$PYRTM,2024,123.252912999340,14.362560409479
$GPGGA,060410.00,3411.9705,N,12007.7567,W,1,09,1.0,11.3,M,-33.6,M,,*66
$PYRTM,2024,123.252925034769,14.362572444907
$GPGGA,060411.00,3411.9706,N,12007.7580,W,1,09,1.0,13.0,M,-33.6,M,,*6C
$PYRTM,2024,123.252936147616,14.362583557755
$GPGGA,060412.00,3411.9705,N,12007.7593,W,1,09,1.0,15.0,M,-33.6,M,,*68
$PYRTM,2024,123.252947706470,14.362595116609
$GPGGA,060413.00,3411.9708,N,12007.7611,W,1,09,1.0,15.6,M,-33.6,M,,*6B
$PYRTM,2024,123.252959296296,14.362606706435
$GPGGA,060414.00,3411.9714,N,12007.7634,W,1,09,1.0,14.2,M,-33.6,M,,*63
$PYRTM,2024,123.252970854005,14.362618264132
$GPGGA,060415.00,3411.9716,N,12007.7650,W,1,09,1.0,15.0,M,-33.6,M,,*61
$PYRTM,2024,123.252982455266,14.362629865405
$GPGGA,060416.00,3411.9713,N,12007.7658,W,1,09,1.0,16.5,M,-33.6,M,,*69
$PYRTM,2024,123.252994002685,14.362641412824
$GPGGA,060417.00,3411.9713,N,12007.7670,W,1,09,1.0,17.3,M,-33.6,M,,*65
$PYRTM,2024,123.253005592326,14.362653002465
$GPGGA,060418.00,3411.9717,N,12007.7688,W,1,09,1.0,16.6,M,-33.6,M,,*6D
$PYRTM,2024,123.253017151632,14.362664561771
$GPGGA,060419.00,3411.9720,N,12007.7706,W,1,09,1.0,15.1,M,-33.6,M,,*6B
$PYRTM,2024,123.253028748449,14.362676158588
$GPGGA,060420.00,3411.9724,N,12007.7721,W,1,09,1.0,16.2,M,-33.6,M,,*60
$PYRTM,2024,123.253040299433,14.362687709572
$GPGGA,060421.00,3411.9726,N,12007.7733,W,1,09,1.0,17.2,M,-33.6,M,,*61
$PYRTM,2024,123.253051888495,14.362699298634
$GPGGA,060422.00,3411.9727,N,12007.7746,W,1,09,1.0,17.7,M,-33.6,M,,*64
$PYRTM,2024,123.253063447604,14.362710857743
$GPGGA,060423.00,3411.9729,N,12007.7765,W,1,09,1.0,17.2,M,-33.6,M,,*6F
$PYRTM,2024,123.253075049815,14.362722459954
$GPGGA,060424.00,3411.9732,N,12007.7786,W,1,09,1.0,15.4,M,-33.6,M,,*6B
$PYRTM,2024,123.253086595602,14.362734005741
$GPGGA,060425.00,3411.9735,N,12007.7799,W,1,09,1.0,14.8,M,-33.6,M,,*6E
$PYRTM,2024,123.253098184294,14.362745594433
$GPGGA,060426.00,3411.9735,N,12007.7808,W,1,09,1.0,16.2,M,-33.6,M,,*62
$PYRTM,2024,123.253109745139,14.362757155278
$GPGGA,060427.00,3411.9737,N,12007.7822,W,1,09,1.0,17.1,M,-33.6,M,,*6B
$PYRTM,2024,123.253121333484,14.362768743634
$GPGGA,060428.00,3411.9740,N,12007.7843,W,1,09,1.0,14.8,M,-33.6,M,,*69
$PYRTM,2024,123.253132893495,14.362780303646
$GPGGA,060429.00,3411.9744,N,12007.7863,W,1,09,1.0,12.8,M,-33.6,M,,*68
$PYRTM,2024,123.253144480729,14.362791890868
$GPGGA,060430.00,3411.9748,N,12007.7879,W,1,09,1.0,12.6,M,-33.6,M,,*69
$PYRTM,2024,123.253156040556,14.362803450694
$GPGGA,060431.00,3411.9752,N,12007.7894,W,1,09,1.0,12.4,M,-33.6,M,,*62
$PYRTM,2024,123.253167629201,14.362815039340
$GPGGA,060432.00,3411.9755,N,12007.7908,W,1,09,1.0,13.9,M,-33.6,M,,*6E
$PYRTM,2024,123.253179189097,14.362826599236
$GPGGA,060433.00,3411.9756,N,12007.7923,W,1,09,1.0,14.4,M,-33.6,M,,*6F
$PYRTM,2024,123.253191923785,14.362839333924
$GPGGA,060434.00,3411.9756,N,12007.7941,W,1,09,1.0,14.4,M,-33.6,M,,*6C
$PYRTM,2024,123.253203523137,14.362850933275
$GPGGA,060435.00,3411.9758,N,12007.7959,W,1,09,1.0,14.2,M,-33.6,M,,*6C
$PYRTM,2024,123.253215070868,14.362862481019
$GPGGA,060436.00,3411.9763,N,12007.7974,W,1,09,1.0,14.0,M,-33.6,M,,*6A
$PYRTM,2024,123.253226648970,14.362874059109
$GPGGA,060437.00,3411.9768,N,12007.7988,W,1,09,1.0,14.2,M,-33.6,M,,*61
$PYRTM,2024,123.253238216933,14.362885627072
$GPGGA,060438.00,3411.9771,N,12007.8005,W,1,09,1.0,14.8,M,-33.6,M,,*6F
$PYRTM,2024,123.253249808600,14.362897218738
$GPGGA,060439.00,3411.9772,N,12007.8021,W,1,09,1.0,15.5,M,-33.6,M,,*67
$PYRTM,2024,123.253261366123,14.362908776262
$GPGGA,060440.00,3411.9773,N,12007.8036,W,1,09,1.0,16.2,M,-33.6,M,,*6A
$PYRTM,2024,123.253273299873,14.362920710012
$GPGGA,060441.00,3411.9776,N,12007.8052,W,1,09,1.0,16.4,M,-33.6,M,,*6A
$PYRTM,2024,123.253284406181,14.362931816319
$GPGGA,060442.00,3411.9781,N,12007.8070,W,1,09,1.0,14.2,M,-33.6,M,,*65
$PYRTM,2024,123.253296089097,14.362943499236
$GPGGA,060443.00,3411.9785,N,12007.8088,W,1,09,1.0,12.8,M,-33.6,M,,*6B
$PYRTM,2024,123.253308018738,14.362955428877
$GPGGA,060444.00,3411.9786,N,12007.8105,W,1,09,1.0,12.3,M,-33.6,M,,*60
$PYRTM,2024,123.253319248507,14.362966658634
$GPGGA,060445.00,3411.9786,N,12007.8122,W,1,09,1.0,13.0,M,-33.6,M,,*66
$PYRTM,2024,123.253330810394,14.362978220532
$GPGGA,060446.00,3411.9789,N,12007.8140,W,1,09,1.0,13.3,M,-33.6,M,,*6D
$PYRTM,2024,123.253342400324,14.362989810463
$GPGGA,060447.00,3411.9796,N,12007.8160,W,1,09,1.0,13.6,M,-33.6,M,,*65
$PYRTM,2024,123.253353959537,14.363001369676
$GPGGA,060448.00,3411.9802,N,12007.8179,W,1,09,1.0,15.0,M,-33.6,M,,*60
$PYRTM,2024,123.253365426123,14.363012836262
$GPGGA,060449.00,3411.9803,N,12007.8193,W,1,09,1.0,15.7,M,-33.6,M,,*63
$PYRTM,2024,123.253377107604,14.363024517743
$GPGGA,060450.00,3411.9801,N,12007.8208,W,1,09,1.0,16.1,M,-33.6,M,,*6D
$PYRTM,2024,123.253388693993,14.363036104132
$GPGGA,060451.00,3411.9803,N,12007.8228,W,1,09,1.0,14.3,M,-33.6,M,,*6C
$PYRTM,2024,123.253400254988,14.363047665139
$GPGGA,060452.00,3411.9807,N,12007.8248,W,1,09,1.0,13.4,M,-33.6,M,,*6D
$PYRTM,2024,123.253411829444,14.363059239583
$GPGGA,060453.00,3411.9809,N,12007.8259,W,1,09,1.0,13.4,M,-33.6,M,,*62
$PYRTM,2024,123.253423403542,14.363070813681
$GPGGA,060454.00,3411.9811,N,12007.8270,W,1,09,1.0,14.0,M,-33.6,M,,*64
$PYRTM,2024,123.253434991817,14.363082401956
$GPGGA,060455.00,3411.9812,N,12007.8290,W,1,09,1.0,13.8,M,-33.6,M,,*67
$PYRTM,2024,123.253446551898,14.363093962037
$GPGGA,060456.00,3411.9814,N,12007.8314,W,1,09,1.0,14.8,M,-33.6,M,,*68
$PYRTM,2024,123.253458125081,14.363105535220
$GPGGA,060457.00,3411.9817,N,12007.8331,W,1,09,1.0,14.9,M,-33.6,M,,*6C
$PYRTM,2024,123.253469699549,14.363117109687
$GPGGA,060458.00,3411.9821,N,12007.8343,W,1,09,1.0,15.7,M,-33.6,M,,*6C
$PYRTM,2024,123.253481283553,14.363128693692
$GPGGA,060459.00,3411.9823,N,12007.8358,W,1,09,1.0,17.2,M,-33.6,M,,*62
$PYRTM,2024,123.253492744271,14.363140154410
$GPGGA,060500.00,3411.9824,N,12007.8376,W,1,09,1.0,17.6,M,-33.6,M,,*60
$PYRTM,2024,123.253504437558,14.363151847697
$GPGGA,060501.00,3411.9826,N,12007.8396,W,1,09,1.0,16.5,M,-33.6,M,,*6F
$PYRTM,2024,123.253515997245,14.363163407384
$GPGGA,060502.00,3411.9828,N,12007.8415,W,1,09,1.0,14.9,M,-33.6,M,,*60
$PYRTM,2024,123.253527596204,14.363175006331
$GPGGA,060503.00,3411.9832,N,12007.8429,W,1,09,1.0,15.3,M,-33.6,M,,*6E
$PYRTM,2024,123.253540185694,14.363187595833
$GPGGA,060504.00,3411.9834,N,12007.8444,W,1,09,1.0,15.6,M,-33.6,M,,*61
$PYRTM,2024,123.253552919317,14.363200329456
$GPGGA,060505.00,3411.9836,N,12007.8462,W,1,09,1.0,14.3,M,-33.6,M,,*62
$PYRTM,2024,123.253562292164,14.363209702303
$GPGGA,060506.00,3411.9838,N,12007.8482,W,1,09,1.0,17.7,M,-33.6,M,,*66
$PYRTM,2024,123.253573763611,14.363221173750
$GPGGA,060507.00,3411.9840,N,12007.8497,W,1,09,1.0,18.1,M,-33.6,M,,*65
$PYRTM,2024,123.253585440023,14.363232850162
$GPGGA,060508.00,3411.9843,N,12007.8509,W,1,09,1.0,19.2,M,-33.6,M,,*6D
$PYRTM,2024,123.253597026620,14.363244436759
$GPGGA,060509.00,3411.9848,N,12007.8524,W,1,09,1.0,18.9,M,-33.6,M,,*62
$PYRTM,2024,123.253608587755,14.363255997894
$GPGGA,060510.00,3411.9854,N,12007.8544,W,1,09,1.0,17.8,M,-33.6,M,,*6F
$PYRTM,2024,123.253620521296,14.363267931435
$GPGGA,060511.00,3411.9858,N,12007.8566,W,1,09,1.0,15.8,M,-33.6,M,,*60
$PYRTM,2024,123.253632212546,14.363279622685
$GPGGA,060512.00,3411.9860,N,12007.8584,W,1,09,1.0,14.7,M,-33.6,M,,*6A
$PYRTM,2024,123.253643670613,14.363291080752
$GPGGA,060513.00,3411.9860,N,12007.8597,W,1,09,1.0,16.7,M,-33.6,M,,*6B
$PYRTM,2024,123.253654782813,14.363302192951
$GPGGA,060514.00,3411.9864,N,12007.8611,W,1,09,1.0,17.7,M,-33.6,M,,*64
$PYRTM,2024,123.253666474699,14.363313884838
$GPGGA,060515.00,3411.9869,N,12007.8630,W,1,09,1.0,16.6,M,-33.6,M,,*6B
$PYRTM,2024,123.253678032882,14.363325443032
$GPGGA,060516.00,3411.9873,N,12007.8651,W,1,09,1.0,17.7,M,-33.6,M,,*64
$PYRTM,2024,123.253689623692,14.363337033831
$GPGGA,060517.00,3411.9875,N,12007.8668,W,1,09,1.0,17.2,M,-33.6,M,,*6C
$PYRTM,2024,123.253701182199,14.363348592338
$GPGGA,060518.00,3411.9877,N,12007.8680,W,1,09,1.0,17.2,M,-33.6,M,,*67
$PYRTM,2024,123.253712652083,14.363360062222
$GPGGA,060519.00,3411.9880,N,12007.8692,W,1,09,1.0,18.3,M,-33.6,M,,*63
$PYRTM,2024,123.253724329896,14.363371740035
$GPGGA,060520.00,3411.9884,N,12007.8710,W,1,09,1.0,17.2,M,-33.6,M,,*68
$PYRTM,2024,123.253735903819,14.363383313970
$GPGGA,060521.00,3411.9887,N,12007.8732,W,1,09,1.0,14.8,M,-33.6,M,,*63
$PYRTM,2024,123.253747477616,14.363394887755
$GPGGA,060522.00,3411.9890,N,12007.8750,W,1,09,1.0,14.6,M,-33.6,M,,*6C
$PYRTM,2024,123.253758948669,14.363406358808
$GPGGA,060523.00,3411.9891,N,12007.8764,W,1,09,1.0,14.6,M,-33.6,M,,*6B
$PYRTM,2024,123.253770523009,14.363417933148
$GPGGA,060524.00,3411.9895,N,12007.8778,W,1,09,1.0,15.2,M,-33.6,M,,*60
$PYRTM,2024,123.253782096759,14.363429506898
$GPGGA,060525.00,3411.9899,N,12007.8796,W,1,09,1.0,15.5,M,-33.6,M,,*6A
$PYRTM,2024,123.253793774120,14.363441184259
$GPGGA,060526.00,3411.9902,N,12007.8817,W,1,09,1.0,12.9,M,-33.6,M,,*67
$PYRTM,2024,123.253805360127,14.363452770266
$GPGGA,060527.00,3411.9902,N,12007.8840,W,1,09,1.0,12.9,M,-33.6,M,,*64
$PYRTM,2024,123.253816921713,14.363464331852
$GPGGA,060528.00,3411.9903,N,12007.8860,W,1,09,1.0,14.0,M,-33.6,M,,*67
$PYRTM,2024,123.253828392859,14.363475802998
$GPGGA,060529.00,3411.9907,N,12007.8872,W,1,09,1.0,15.8,M,-33.6,M,,*68
$PYRTM,2024,123.253840069711,14.363487479850
$GPGGA,060530.00,3411.9913,N,12007.8886,W,1,09,1.0,16.5,M,-33.6,M,,*60
$PYRTM,2024,123.253851659722,14.363499069861
$GPGGA,060531.00,3411.9917,N,12007.8906,W,1,09,1.0,16.0,M,-33.6,M,,*69
$PYRTM,2024,123.253863218310,14.363510628449
$GPGGA,060532.00,3411.9919,N,12007.8927,W,1,09,1.0,14.1,M,-33.6,M,,*64
$PYRTM,2024,123.253874811481,14.363522221620
$GPGGA,060533.00,3411.9921,N,12007.8944,W,1,09,1.0,13.6,M,-33.6,M,,*6B
$PYRTM,2024,123.253887882847,14.363535292986
$GPGGA,060534.00,3411.9926,N,12007.8959,W,1,09,1.0,13.5,M,-33.6,M,,*64
$PYRTM,2024,123.253900139583,14.363547549722
$GPGGA,060535.00,3411.9932,N,12007.8974,W,1,09,1.0,14.5,M,-33.6,M,,*68
$PYRTM,2024,123.253909408657,14.363556818796
$GPGGA,060536.00,3411.9936,N,12007.8986,W,1,09,1.0,15.3,M,-33.6,M,,*65
$PYRTM,2024,123.253920980810,14.363568390949
$GPGGA,060537.00,3411.9936,N,12007.9001,W,1,09,1.0,15.0,M,-33.6,M,,*60
$PYRTM,2024,123.253932661539,14.363580071678
$GPGGA,060538.00,3411.9937,N,12007.9021,W,1,09,1.0,15.5,M,-33.6,M,,*69
$PYRTM,2024,123.253944249850,14.363591659988
$GPGGA,060539.00,3411.9940,N,12007.9039,W,1,09,1.0,14.0,M,-33.6,M,,*65
$PYRTM,2024,123.253955812650,14.363603222789
$GPGGA,060540.00,3411.9945,N,12007.9050,W,1,09,1.0,15.6,M,-33.6,M,,*66
$PYRTM,2024,123.253966818623,14.363614228762
$GPGGA,060541.00,3411.9950,N,12007.9060,W,1,09,1.0,16.0,M,-33.6,M,,*65
$PYRTM,2024,123.253979885764,14.363627295903
$GPGGA,060542.00,3411.9954,N,12007.9076,W,1,09,1.0,14.8,M,-33.6,M,,*6F
$PYRTM,2024,123.253990661389,14.363638071528
$GPGGA,060543.00,3411.9956,N,12007.9097,W,1,09,1.0,14.7,M,-33.6,M,,*6C
$PYRTM,2024,123.254001772106,14.363649182245
$GPGGA,060544.00,3411.9958,N,12007.9117,W,1,09,1.0,14.9,M,-33.6,M,,*62
$PYRTM,2024,123.254012886308,14.363660296447
$GPGGA,060545.00,3411.9961,N,12007.9132,W,1,09,1.0,14.8,M,-33.6,M,,*6F
$PYRTM,2024,123.254023995718,14.363671405856
$GPGGA,060546.00,3411.9968,N,12007.9145,W,1,09,1.0,15.3,M,-33.6,M,,*6F
$PYRTM,2024,123.254035105891,14.363682516030
$GPGGA,060547.00,3411.9976,N,12007.9161,W,1,09,1.0,16.0,M,-33.6,M,,*67
$PYRTM,2024,123.254046211458,14.363693621597
$GPGGA,060548.00,3411.9980,N,12007.9181,W,1,09,1.0,14.9,M,-33.6,M,,*64
$PYRTM,2024,123.254057322870,14.363704733009
$GPGGA,060549.00,3411.9981,N,12007.9200,W,1,09,1.0,14.0,M,-33.6,M,,*67
$PYRTM,2024,123.254068555324,14.363715965475
$GPGGA,060550.00,3411.9983,N,12007.9218,W,1,09,1.0,14.6,M,-33.6,M,,*62
$PYRTM,2024,123.254079665567,14.363727075706
$GPGGA,060551.00,3411.9989,N,12007.9236,W,1,09,1.0,13.1,M,-33.6,M,,*65
$PYRTM,2024,123.254090772234,14.363738182373
$GPGGA,060552.00,3411.9996,N,12007.9253,W,1,09,1.0,12.9,M,-33.6,M,,*62
$PYRTM,2024,123.254101882778,14.363749292917
$GPGGA,060553.00,3412.0001,N,12007.9267,W,1,09,1.0,15.3,M,-33.6,M,,*64
$PYRTM,2024,123.254112998808,14.363760408947
$GPGGA,060554.00,3412.0003,N,12007.9280,W,1,09,1.0,16.6,M,-33.6,M,,*6E
$PYRTM,2024,123.254124220648,14.363771630787
$GPGGA,060555.00,3412.0003,N,12007.9301,W,1,09,1.0,17.9,M,-33.6,M,,*69
$PYRTM,2024,123.254135671782,14.363783081933
$GPGGA,060556.00,3412.0004,N,12007.9324,W,1,09,1.0,16.6,M,-33.6,M,,*64
$PYRTM,2024,123.254147258137,14.363794668275
$GPGGA,060557.00,3412.0009,N,12007.9338,W,1,09,1.0,15.9,M,-33.6,M,,*69
$PYRTM,2024,123.254158820556,14.363806230694
$GPGGA,060558.00,3412.0015,N,12007.9347,W,1,09,1.0,16.3,M,-33.6,M,,*6A
$PYRTM,2024,123.254170406933,14.363817817072
$GPGGA,060559.00,3412.0019,N,12007.9361,W,1,09,1.0,16.5,M,-33.6,M,,*65
$PYRTM,2024,123.254181968299,14.363829378437
$GPGGA,060600.00,3412.0023,N,12007.9383,W,1,09,1.0,16.8,M,-33.6,M,,*62
$PYRTM,2024,123.254193555440,14.363840965579
$GPGGA,060601.00,3412.0024,N,12007.9405,W,1,09,1.0,14.9,M,-33.6,M,,*6E
$PYRTM,2024,123.254205114583,14.363852524722
$GPGGA,060602.00,3412.0023,N,12007.9423,W,1,09,1.0,15.5,M,-33.6,M,,*63
$PYRTM,2024,123.254216703495,14.363864113634
$GPGGA,060603.00,3412.0025,N,12007.9436,W,1,09,1.0,15.1,M,-33.6,M,,*64
$PYRTM,2024,123.254228263229,14.363875673368
$GPGGA,060604.00,3412.0030,N,12007.9452,W,1,09,1.0,16.0,M,-33.6,M,,*67
$PYRTM,2024,123.254244003414,14.363891413553
$GPGGA,060605.00,3412.0034,N,12007.9471,W,1,09,1.0,18.8,M,-33.6,M,,*65
$PYRTM,2024,123.254255591042,14.363903001181
$GPGGA,060606.00,3412.0036,N,12007.9487,W,1,09,1.0,19.2,M,-33.6,M,,*66
$PYRTM,2024,123.254267151146,14.363914561296
$GPGGA,060607.00,3412.0034,N,12007.9503,W,1,09,1.0,19.5,M,-33.6,M,,*6F
$PYRTM,2024,123.254278739595,14.363926149734
$GPGGA,060608.00,3412.0037,N,12007.9523,W,1,09,1.0,17.3,M,-33.6,M,,*69
$PYRTM,2024,123.254290299780,14.363937709919
$GPGGA,060609.00,3412.0042,N,12007.9546,W,1,09,1.0,15.8,M,-33.6,M,,*60
$PYRTM,2024,123.254301887720,14.363949297859
$GPGGA,060610.00,3412.0047,N,12007.9563,W,1,09,1.0,16.6,M,-33.6,M,,*67
$PYRTM,2024,123.254313924618,14.363961334757
$GPGGA,060611.00,3412.0048,N,12007.9575,W,1,09,1.0,17.7,M,-33.6,M,,*6E
$PYRTM,2024,123.254325037720,14.363972447859
$GPGGA,060612.00,3412.0047,N,12007.9593,W,1,09,1.0,16.7,M,-33.6,M,,*6B
$PYRTM,2024,123.254336596030,14.363984006169
$GPGGA,060613.00,3412.0050,N,12007.9615,W,1,09,1.0,14.5,M,-33.6,M,,*61
$PYRTM,2024,123.254348183900,14.363995594039
$GPGGA,060614.00,3412.0053,N,12007.9634,W,1,09,1.0,14.4,M,-33.6,M,,*67
$PYRTM,2024,123.254359743738,14.364007153877
$GPGGA,060615.00,3412.0057,N,12007.9647,W,1,09,1.0,15.3,M,-33.6,M,,*60
$PYRTM,2024,123.254371331956,14.364018742095
$GPGGA,060616.00,3412.0058,N,12007.9661,W,1,09,1.0,15.1,M,-33.6,M,,*6A
$PYRTM,2024,123.254382892153,14.364030302292
$GPGGA,060617.00,3412.0060,N,12007.9680,W,1,09,1.0,15.0,M,-33.6,M,,*6E
$PYRTM,2024,123.254394480880,14.364041891019
$GPGGA,060618.00,3412.0062,N,12007.9702,W,1,09,1.0,13.4,M,-33.6,M,,*6A
$PYRTM,2024,123.254406040660,14.364053450799
$GPGGA,060619.00,3412.0065,N,12007.9722,W,1,09,1.0,13.5,M,-33.6,M,,*6F
$PYRTM,2024,123.254417628935,14.364065039074
$GPGGA,060620.00,3412.0070,N,12007.9739,W,1,09,1.0,15.9,M,-33.6,M,,*61
$PYRTM,2024,123.254429187234,14.364076597373
$GPGGA,060621.00,3412.0077,N,12007.9753,W,1,09,1.0,15.9,M,-33.6,M,,*6B
$PYRTM,2024,123.254440777025,14.364088187164
$GPGGA,060622.00,3412.0080,N,12007.9769,W,1,09,1.0,16.0,M,-33.6,M,,*63
$PYRTM,2024,123.254452337199,14.364099747338
$GPGGA,060623.00,3412.0080,N,12007.9789,W,1,09,1.0,15.7,M,-33.6,M,,*68
$PYRTM,2024,123.254464373380,14.364111783519
$GPGGA,060624.00,3412.0082,N,12007.9809,W,1,09,1.0,13.6,M,-33.6,M,,*6D
$PYRTM,2024,123.254475730359,14.364123140498
$GPGGA,060625.00,3412.0087,N,12007.9828,W,1,09,1.0,9.6,M,-33.6,M,,*51
$PYRTM,2024,123.254487073044,14.364134483183
$GPGGA,060626.00,3412.0092,N,12007.9846,W,1,09,1.0,10.6,M,-33.6,M,,*66
$PYRTM,2024,123.254498631875,14.364146042014
$GPGGA,060627.00,3412.0097,N,12007.9860,W,1,09,1.0,12.7,M,-33.6,M,,*65
$PYRTM,2024,123.254510216736,14.364157626875
$GPGGA,060628.00,3412.0102,N,12007.9875,W,1,09,1.0,14.6,M,-33.6,M,,*64
$PYRTM,2024,123.254521780775,14.364169190914
$GPGGA,060629.00,3412.0106,N,12007.9897,W,1,09,1.0,12.5,M,-33.6,M,,*68
$PYRTM,2024,123.254533368692,14.364180778831
$GPGGA,060630.00,3412.0110,N,12007.9920,W,1,09,1.0,12.1,M,-33.6,M,,*6E
$PYRTM,2024,123.254544928981,14.364192339120
$GPGGA,060631.00,3412.0114,N,12007.9937,W,1,09,1.0,11.8,M,-33.6,M,,*67
$PYRTM,2024,123.254556512824,14.364203922963
$GPGGA,060632.00,3412.0117,N,12007.9951,W,1,09,1.0,13.8,M,-33.6,M,,*65
$PYRTM,2024,123.254568077118,14.364215487257
$GPGGA,060633.00,3412.0120,N,12007.9968,W,1,09,1.0,13.3,M,-33.6,M,,*61
$PYRTM,2024,123.254580810671,14.364228220810
$GPGGA,060634.00,3412.0124,N,12007.9986,W,1,09,1.0,14.3,M,-33.6,M,,*65
$PYRTM,2024,123.254592386123,14.364239796262
$GPGGA,060635.00,3412.0126,N,12008.0005,W,1,09,1.0,13.0,M,-33.6,M,,*66
$PYRTM,2024,123.254603957384,14.364251367523
$GPGGA,060636.00,3412.0127,N,12008.0024,W,1,09,1.0,14.9,M,-33.6,M,,*69
$PYRTM,2024,123.254615544375,14.364262954514
$GPGGA,060637.00,3412.0129,N,12008.0040,W,1,09,1.0,15.4,M,-33.6,M,,*68
$PYRTM,2024,123.254627108310,14.364274518449
$GPGGA,060638.00,3412.0131,N,12008.0056,W,1,09,1.0,15.6,M,-33.6,M,,*6B
$PYRTM,2024,123.254638688322,14.364286098472
$GPGGA,060639.00,3412.0135,N,12008.0074,W,1,09,1.0,17.4,M,-33.6,M,,*6E
$PYRTM,2024,123.254650256123,14.364297666262
$GPGGA,060640.00,3412.0140,N,12008.0093,W,1,09,1.0,18.9,M,-33.6,M,,*69
$PYRTM,2024,123.254662188634,14.364309598773
$GPGGA,060641.00,3412.0144,N,12008.0114,W,1,09,1.0,16.4,M,-33.6,M,,*61
$PYRTM,2024,123.254673634549,14.364321044688
$GPGGA,060642.00,3412.0145,N,12008.0133,W,1,09,1.0,17.5,M,-33.6,M,,*66
$PYRTM,2024,123.254684992639,14.364332402778
$GPGGA,060643.00,3412.0145,N,12008.0149,W,1,09,1.0,17.1,M,-33.6,M,,*6E
$PYRTM,2024,123.254696551493,14.364343961632
$GPGGA,060644.00,3412.0147,N,12008.0166,W,1,09,1.0,15.8,M,-33.6,M,,*6D
$PYRTM,2024,123.254708152396,14.364355562535
$GPGGA,060645.00,3412.0151,N,12008.0186,W,1,09,1.0,14.6,M,-33.6,M,,*6A
$PYRTM,2024,123.254719699653,14.364367109803
$GPGGA,060646.00,3412.0157,N,12008.0204,W,1,09,1.0,14.4,M,-33.6,M,,*64
$PYRTM,2024,123.254731274306,14.364378684444
$GPGGA,060647.00,3412.0161,N,12008.0221,W,1,09,1.0,13.6,M,-33.6,M,,*62
$PYRTM,2024,123.254742847280,14.364390257419
$GPGGA,060648.00,3412.0162,N,12008.0242,W,1,09,1.0,18.4,M,-33.6,M,,*62
$PYRTM,2024,123.254754433843,14.364401843981
$GPGGA,060649.00,3412.0163,N,12008.0262,W,1,09,1.0,18.8,M,-33.6,M,,*6C
$PYRTM,2024,123.254765993623,14.364413403762
$GPGGA,060650.00,3412.0165,N,12008.0280,W,1,09,1.0,18.0,M,-33.6,M,,*66
$PYRTM,2024,123.254777584271,14.364424994410
$GPGGA,060651.00,3412.0167,N,12008.0298,W,1,09,1.0,17.1,M,-33.6,M,,*62
$PYRTM,2024,123.254789142419,14.364436552558
$GPGGA,060652.00,3412.0169,N,12008.0317,W,1,09,1.0,16.9,M,-33.6,M,,*60
$PYRTM,2024,123.254800729745,14.364448139884
$GPGGA,060653.00,3412.0170,N,12008.0336,W,1,09,1.0,17.5,M,-33.6,M,,*67
$PYRTM,2024,123.254812291493,14.364459701632
$GPGGA,060654.00,3412.0171,N,12008.0356,W,1,09,1.0,15.4,M,-33.6,M,,*64
$PYRTM,2024,123.254823878056,14.364471288206
$GPGGA,060655.00,3412.0174,N,12008.0376,W,1,09,1.0,15.5,M,-33.6,M,,*63
$PYRTM,2024,123.254835439039,14.364482849178
$GPGGA,060656.00,3412.0179,N,12008.0396,W,1,09,1.0,16.4,M,-33.6,M,,*61
$PYRTM,2024,123.254847036632,14.364494446771
$GPGGA,060657.00,3412.0184,N,12008.0413,W,1,09,1.0,17.9,M,-33.6,M,,*64
$PYRTM,2024,123.254858588183,14.364505998333
$GPGGA,060658.00,3412.0188,N,12008.0428,W,1,09,1.0,18.8,M,-33.6,M,,*61
$PYRTM,2024,123.254870173947,14.364517584086
$GPGGA,060659.00,3412.0190,N,12008.0447,W,1,09,1.0,18.5,M,-33.6,M,,*6D
$PYRTM,2024,123.254881816377,14.364529226516
$GPGGA,060700.00,3412.0191,N,12008.0471,W,1,09,1.0,20.0,M,-33.6,M,,*6A
$PYRTM,2024,123.254893323762,14.364540733900
$GPGGA,060701.00,3412.0197,N,12008.0490,W,1,09,1.0,19.1,M,-33.6,M,,*69
$PYRTM,2024,123.254904884537,14.364552294676
$GPGGA,060702.00,3412.0205,N,12008.0501,W,1,09,1.0,19.0,M,-33.6,M,,*6A
$PYRTM,2024,123.254916471701,14.364563881840
$GPGGA,060703.00,3412.0211,N,12008.0516,W,1,09,1.0,20.1,M,-33.6,M,,*63
$PYRTM,2024,123.254929075012,14.364576485150
$GPGGA,060704.00,3412.0215,N,12008.0536,W,1,09,1.0,23.5,M,-33.6,M,,*65
$PYRTM,2024,123.254941805301,14.364589215440
$GPGGA,060705.00,3412.0216,N,12008.0556,W,1,09,1.0,22.9,M,-33.6,M,,*6C
$PYRTM,2024,123.254951181481,14.364598591632
$GPGGA,060706.00,3412.0217,N,12008.0574,W,1,09,1.0,23.0,M,-33.6,M,,*66
$PYRTM,2024,123.254962767257,14.364610177407
$GPGGA,060707.00,3412.0220,N,12008.0593,W,1,09,1.0,21.4,M,-33.6,M,,*6C
$PYRTM,2024,123.254974329884,14.364621740023
$GPGGA,060708.00,3412.0225,N,12008.0613,W,1,09,1.0,19.8,M,-33.6,M,,*6A
$PYRTM,2024,123.254985914687,14.364633324838
$GPGGA,060709.00,3412.0229,N,12008.0629,W,1,09,1.0,19.5,M,-33.6,M,,*63
$PYRTM,2024,123.254997477106,14.364644887245
$GPGGA,060710.00,3412.0230,N,12008.0645,W,1,09,1.0,20.2,M,-33.6,M,,*64
$PYRTM,2024,123.255009406076,14.364656816215
$GPGGA,060711.00,3412.0232,N,12008.0665,W,1,09,1.0,22.4,M,-33.6,M,,*61
$PYRTM,2024,123.255020981412,14.364668391551
$GPGGA,060712.00,3412.0235,N,12008.0686,W,1,09,1.0,21.1,M,-33.6,M,,*6E
$PYRTM,2024,123.255032215648,14.364679625787
$GPGGA,060713.00,3412.0240,N,12008.0703,W,1,09,1.0,20.8,M,-33.6,M,,*69
$PYRTM,2024,123.255044128762,14.364691538900
$GPGGA,060714.00,3412.0244,N,12008.0718,W,1,09,1.0,21.3,M,-33.6,M,,*6A
$PYRTM,2024,123.255055704803,14.364703114954
$GPGGA,060715.00,3412.0246,N,12008.0739,W,1,09,1.0,18.7,M,-33.6,M,,*64
$PYRTM,2024,123.255067280868,14.364714691019
$GPGGA,060716.00,3412.0247,N,12008.0760,W,1,09,1.0,18.6,M,-33.6,M,,*6B
$PYRTM,2024,123.255078851053,14.364726261192
$GPGGA,060717.00,3412.0249,N,12008.0777,W,1,09,1.0,17.7,M,-33.6,M,,*6C
$PYRTM,2024,123.255090544931,14.364737955069
$GPGGA,060718.00,3412.0252,N,12008.0795,W,1,09,1.0,17.9,M,-33.6,M,,*6B
$PYRTM,2024,123.255102106030,14.364749516169
$GPGGA,060719.00,3412.0256,N,12008.0816,W,1,09,1.0,18.8,M,-33.6,M,,*64
$PYRTM,2024,123.255113697407,14.364761107546
$GPGGA,060720.00,3412.0258,N,12008.0837,W,1,09,1.0,18.8,M,-33.6,M,,*63
$PYRTM,2024,123.255125255602,14.364772665752
$GPGGA,060721.00,3412.0260,N,12008.0853,W,1,09,1.0,19.0,M,-33.6,M,,*62
$PYRTM,2024,123.255136841238,14.364784251377
$GPGGA,060722.00,3412.0265,N,12008.0871,W,1,09,1.0,18.8,M,-33.6,M,,*6D
$PYRTM,2024,123.255148405394,14.364795815532
$GPGGA,060723.00,3412.0272,N,12008.0891,W,1,09,1.0,18.4,M,-33.6,M,,*68
$PYRTM,2024,123.255159984167,14.364807394306
$GPGGA,060724.00,3412.0276,N,12008.0910,W,1,09,1.0,18.4,M,-33.6,M,,*63
$PYRTM,2024,123.255171550475,14.364818960613
$GPGGA,060725.00,3412.0277,N,12008.0929,W,1,09,1.0,19.1,M,-33.6,M,,*6D
$PYRTM,2024,123.255183137882,14.364830548021
$GPGGA,060726.00,3412.0280,N,12008.0951,W,1,09,1.0,19.6,M,-33.6,M,,*6E
$PYRTM,2024,123.255194699167,14.364842109306
$GPGGA,060727.00,3412.0283,N,12008.0972,W,1,09,1.0,18.9,M,-33.6,M,,*63
$PYRTM,2024,123.255206285799,14.364853695938
$GPGGA,060728.00,3412.0287,N,12008.0989,W,1,09,1.0,19.1,M,-33.6,M,,*65
$PYRTM,2024,123.255217848947,14.364865259086
$GPGGA,060729.00,3412.0290,N,12008.1006,W,1,09,1.0,19.6,M,-33.6,M,,*6A
$PYRTM,2024,123.255229435417,14.364876845567
$GPGGA,060730.00,3412.0292,N,12008.1027,W,1,09,1.0,18.8,M,-33.6,M,,*6C
$PYRTM,2024,123.255240995382,14.364888405521
$GPGGA,060731.00,3412.0291,N,12008.1047,W,1,09,1.0,18.5,M,-33.6,M,,*65
$PYRTM,2024,123.255252584954,14.364899995093
$GPGGA,060732.00,3412.0292,N,12008.1065,W,1,09,1.0,19.6,M,-33.6,M,,*67
$PYRTM,2024,123.255264143391,14.364911553530
$GPGGA,060733.00,3412.0297,N,12008.1086,W,1,09,1.0,18.8,M,-33.6,M,,*61
$PYRTM,2024,123.255276882303,14.364924292454
$GPGGA,060734.00,3412.0303,N,12008.1110,W,1,09,1.0,17.3,M,-33.6,M,,*60
$PYRTM,2024,123.255289027685,14.364936437824
$GPGGA,060735.00,3412.0306,N,12008.1127,W,1,09,1.0,19.0,M,-33.6,M,,*6D
$PYRTM,2024,123.255298404329,14.364945814468
$GPGGA,060736.00,3412.0306,N,12008.1141,W,1,09,1.0,20.8,M,-33.6,M,,*6C
$PYRTM,2024,123.255309988669,14.364957398808
$GPGGA,060737.00,3412.0306,N,12008.1160,W,1,09,1.0,19.5,M,-33.6,M,,*69
$PYRTM,2024,123.255321551829,14.364968961968
$GPGGA,060738.00,3412.0309,N,12008.1183,W,1,09,1.0,19.8,M,-33.6,M,,*69
$PYRTM,2024,123.255333125914,14.364980536065
$GPGGA,060739.00,3412.0316,N,12008.1199,W,1,09,1.0,18.5,M,-33.6,M,,*61
$PYRTM,2024,123.255344699757,14.364992109896
$GPGGA,060740.00,3412.0323,N,12008.1213,W,1,09,1.0,18.3,M,-33.6,M,,*6E
$PYRTM,2024,123.255356632986,14.365004043125
$GPGGA,060741.00,3412.0326,N,12008.1230,W,1,09,1.0,17.6,M,-33.6,M,,*61
$PYRTM,2024,123.255368325417,14.365015735556
$GPGGA,060742.00,3412.0326,N,12008.1251,W,1,09,1.0,16.8,M,-33.6,M,,*6A
$PYRTM,2024,123.255379999537,14.365027409676
$GPGGA,060743.00,3412.0327,N,12008.1273,W,1,09,1.0,21.0,M,-33.6,M,,*66
$PYRTM,2024,123.255391586424,14.365038996562
$GPGGA,060744.00,3412.0329,N,12008.1291,W,1,09,1.0,20.9,M,-33.6,M,,*6B
$PYRTM,2024,123.255403147778,14.365050557917
$GPGGA,060745.00,3412.0333,N,12008.1307,W,1,09,1.0,20.8,M,-33.6,M,,*6E
$PYRTM,2024,123.255420174583,14.365067584722
$GPGGA,060746.00,3412.0338,N,12008.1324,W,1,09,1.0,20.5,M,-33.6,M,,*6A
$PYRTM,2024,123.255432211458,14.365079621597
$GPGGA,060747.00,3412.0340,N,12008.1341,W,1,09,1.0,20.0,M,-33.6,M,,*62
$PYRTM,2024,123.255442963322,14.365090373461
$GPGGA,060748.00,3412.0341,N,12008.1358,W,1,09,1.0,20.2,M,-33.6,M,,*66
$PYRTM,2024,123.255453959560,14.365101369699
$GPGGA,060749.00,3412.0344,N,12008.1376,W,1,09,1.0,19.5,M,-33.6,M,,*63
$PYRTM,2024,123.255465070822,14.365112480961
$GPGGA,060750.00,3412.0349,N,12008.1396,W,1,09,1.0,17.3,M,-33.6,M,,*60
$PYRTM,2024,123.255479783275,14.365127193414
$GPGGA,060751.00,3412.0355,N,12008.1415,W,1,09,1.0,18.5,M,-33.6,M,,*69
$PYRTM,2024,123.255490887743,14.365138297882
$GPGGA,060752.00,3412.0356,N,12008.1430,W,1,09,1.0,18.2,M,-33.6,M,,*69
$PYRTM,2024,123.255503032720,14.365150442859
$GPGGA,060753.00,3412.0357,N,12008.1447,W,1,09,1.0,18.0,M,-33.6,M,,*6B
$PYRTM,2024,123.255514142928,14.365161553067
$GPGGA,060754.00,3412.0361,N,12008.1467,W,1,09,1.0,18.3,M,-33.6,M,,*68
$PYRTM,2024,123.255525255775,14.365172665914
$GPGGA,060755.00,3412.0366,N,12008.1488,W,1,09,1.0,17.6,M,-33.6,M,,*65
$PYRTM,2024,123.255536365741,14.365183775880
$GPGGA,060756.00,3412.0368,N,12008.1507,W,1,09,1.0,19.9,M,-33.6,M,,*6F
$PYRTM,2024,123.255547592083,14.365195002222
$GPGGA,060757.00,3412.0370,N,12008.1522,W,1,09,1.0,18.5,M,-33.6,M,,*6D
$PYRTM,2024,123.255558704190,14.365206114329
$GPGGA,060758.00,3412.0373,N,12008.1543,W,1,09,1.0,16.8,M,-33.6,M,,*65
$PYRTM,2024,123.255569816840,14.365217226979
$GPGGA,060759.00,3412.0378,N,12008.1568,W,1,09,1.0,13.4,M,-33.6,M,,*6F
$PYRTM,2024,123.255580926111,14.365228336250
$GPGGA,060800.00,3412.0383,N,12008.1590,W,1,09,1.0,12.5,M,-33.6,M,,*6F
$PYRTM,2024,123.255592151389,14.365239561528
$GPGGA,060801.00,3412.0385,N,12008.1606,W,1,09,1.0,13.8,M,-33.6,M,,*68
$PYRTM,2024,123.255603261944,14.365250672083
$GPGGA,060802.00,3412.0386,N,12008.1620,W,1,09,1.0,15.4,M,-33.6,M,,*66
$PYRTM,2024,123.255614372384,14.365261782535
$GPGGA,060803.00,3412.0389,N,12008.1640,W,1,09,1.0,15.3,M,-33.6,M,,*69
$PYRTM,2024,123.255627108287,14.365274518426
$GPGGA,060804.00,3412.0392,N,12008.1661,W,1,09,1.0,14.0,M,-33.6,M,,*65
$PYRTM,2024,123.255639143866,14.365286554005
$GPGGA,060805.00,3412.0394,N,12008.1679,W,1,09,1.0,13.2,M,-33.6,M,,*6E
$PYRTM,2024,123.255648175856,14.365295585995
$GPGGA,060806.00,3412.0397,N,12008.1693,W,1,09,1.0,13.8,M,-33.6,M,,*60
$PYRTM,2024,123.255659281690,14.365306691829
$GPGGA,060807.00,3412.0401,N,12008.1710,W,1,09,1.0,15.3,M,-33.6,M,,*6E
$PYRTM,2024,123.255670405567,14.365317815718
$GPGGA,060808.00,3412.0405,N,12008.1728,W,1,09,1.0,15.4,M,-33.6,M,,*69
$PYRTM,2024,123.255681505162,14.365328915301
$GPGGA,060809.00,3412.0405,N,12008.1744,W,1,09,1.0,16.3,M,-33.6,M,,*66
$PYRTM,2024,123.255692730544,14.365340140683
$GPGGA,060810.00,3412.0404,N,12008.1762,W,1,09,1.0,17.1,M,-33.6,M,,*68
$PYRTM,2024,123.255704319236,14.365351729375
$GPGGA,060811.00,3412.0406,N,12008.1781,W,1,09,1.0,18.6,M,-33.6,M,,*6E
$PYRTM,2024,123.255715428414,14.365362838553
$GPGGA,060812.00,3412.0409,N,12008.1800,W,1,09,1.0,18.9,M,-33.6,M,,*6B
$PYRTM,2024,123.255726540451,14.365373950602
$GPGGA,060813.00,3412.0412,N,12008.1815,W,1,09,1.0,18.3,M,-33.6,M,,*6E
$PYRTM,2024,123.255738114097,14.365385524236
$GPGGA,060814.00,3412.0416,N,12008.1831,W,1,09,1.0,17.2,M,-33.6,M,,*65
$PYRTM,2024,123.255749799028,14.365397209167
$GPGGA,060815.00,3412.0418,N,12008.1848,W,1,09,1.0,16.5,M,-33.6,M,,*62
$PYRTM,2024,123.255761366343,14.365408776493
$GPGGA,060816.00,3412.0421,N,12008.1867,W,1,09,1.0,17.8,M,-33.6,M,,*6A
$PYRTM,2024,123.255772940081,14.365420350220
$GPGGA,060817.00,3412.0425,N,12008.1886,W,1,09,1.0,18.4,M,-33.6,M,,*63
$PYRTM,2024,123.255784513183,14.365431923322
$GPGGA,060818.00,3412.0430,N,12008.1905,W,1,09,1.0,17.7,M,-33.6,M,,*6E
$PYRTM,2024,123.255795979514,14.365443389653
$GPGGA,060819.00,3412.0433,N,12008.1919,W,1,09,1.0,19.4,M,-33.6,M,,*6C
$PYRTM,2024,123.255807559757,14.365454969896
$GPGGA,060820.00,3412.0434,N,12008.1930,W,1,09,1.0,21.3,M,-33.6,M,,*66
$PYRTM,2024,123.255819243368,14.365466653507
$GPGGA,060821.00,3412.0434,N,12008.1947,W,1,09,1.0,20.0,M,-33.6,M,,*65
$PYRTM,2024,123.255830810706,14.365478220845
$GPGGA,060822.00,3412.0438,N,12008.1969,W,1,09,1.0,18.7,M,-33.6,M,,*6A
$PYRTM,2024,123.255842283704,14.365489693843
$GPGGA,060823.00,3412.0443,N,12008.1984,W,1,09,1.0,17.7,M,-33.6,M,,*6B
$PYRTM,2024,123.255853849850,14.365501259988
$GPGGA,060824.00,3412.0446,N,12008.1992,W,1,09,1.0,17.6,M,-33.6,M,,*6F
$PYRTM,2024,123.255865437685,14.365512847824
$GPGGA,060825.00,3412.0450,N,12008.2004,W,1,09,1.0,19.4,M,-33.6,M,,*60
$PYRTM,2024,123.255877001968,14.365524412106
$GPGGA,060826.00,3412.0455,N,12008.2025,W,1,09,1.0,19.0,M,-33.6,M,,*61
$PYRTM,2024,123.255888688449,14.365536098588
$GPGGA,060827.00,3412.0458,N,12008.2048,W,1,09,1.0,18.3,M,-33.6,M,,*64
$PYRTM,2024,123.255900151238,14.365547561377
$GPGGA,060828.00,3412.0459,N,12008.2064,W,1,09,1.0,18.6,M,-33.6,M,,*61
$PYRTM,2024,123.255911725972,14.365559136111
$GPGGA,060829.00,3412.0459,N,12008.2075,W,1,09,1.0,17.7,M,-33.6,M,,*6E
$PYRTM,2024,123.255923300243,14.365570710382
$GPGGA,060830.00,3412.0460,N,12008.2089,W,1,09,1.0,16.4,M,-33.6,M,,*6D
$PYRTM,2024,123.255934876366,14.365582286505
$GPGGA,060831.00,3412.0463,N,12008.2110,W,1,09,1.0,16.2,M,-33.6,M,,*68
$PYRTM,2024,123.255946447998,14.365593858137
$GPGGA,060832.00,3412.0466,N,12008.2130,W,1,09,1.0,16.3,M,-33.6,M,,*6D
$PYRTM,2024,123.255958021759,14.365605431898
$GPGGA,060833.00,3412.0468,N,12008.2146,W,1,09,1.0,16.9,M,-33.6,M,,*69
$PYRTM,2024,123.255970741748,14.365618151887
$GPGGA,060834.00,3412.0472,N,12008.2159,W,1,09,1.0,16.5,M,-33.6,M,,*67
$PYRTM,2024,123.255983357847,14.365630767986
$GPGGA,060835.00,3412.0477,N,12008.2175,W,1,09,1.0,16.5,M,-33.6,M,,*6D
