$PYRTM,2024,123.666675367535,14.776322777674
$GPGGA,155959.00,3427.2890,N,12056.9871,W,1,11,0.8,6.2,M,-33.6,M,,*5B
$PYRTM,2024,123.666686925139,14.776334335278
$GPGGA,160000.00,3427.2901,N,12056.9875,W,1,11,0.8,6.5,M,-33.6,M,,*52
$PYRTM,2024,123.666698527789,14.776345937928
$GPGGA,160001.00,3427.2909,N,12056.9887,W,1,11,0.8,6.4,M,-33.6,M,,*57
$PYRTM,2024,123.666710074340,14.776357484479
$GPGGA,160002.00,3427.2921,N,12056.9901,W,1,11,0.8,5.9,M,-33.6,M,,*5F
$PYRTM,2024,123.666721665463,14.776369075602
$GPGGA,160003.00,3427.2934,N,12056.9909,W,1,11,0.8,6.6,M,-33.6,M,,*5E
$PYRTM,2024,123.666733225741,14.776380635880
$GPGGA,160004.00,3427.2947,N,12056.9910,W,1,11,0.8,6.8,M,-33.6,M,,*5B
$PYRTM,2024,123.666744808380,14.776392218519
$GPGGA,160005.00,3427.2961,N,12056.9913,W,1,11,0.8,7.2,M,-33.6,M,,*56
$PYRTM,2024,123.666756371968,14.776403782106
$GPGGA,160006.00,3427.2976,N,12056.9924,W,1,11,0.8,6.0,M,-33.6,M,,*54
$PYRTM,2024,123.666767957326,14.776415367465
$GPGGA,160007.00,3427.2990,N,12056.9937,W,1,11,0.8,5.6,M,-33.6,M,,*5A
$PYRTM,2024,123.666779519884,14.776426930023
$GPGGA,160008.00,3427.3000,N,12056.9947,W,1,11,0.8,5.6,M,-33.6,M,,*53
$PYRTM,2024,123.666791107106,14.776438517245
$GPGGA,160009.00,3427.3009,N,12056.9953,W,1,11,0.8,6.1,M,-33.6,M,,*5A
$PYRTM,2024,123.666802668576,14.776450078715
$GPGGA,160010.00,3427.3021,N,12056.9959,W,1,11,0.8,6.1,M,-33.6,M,,*52
$PYRTM,2024,123.666814253542,14.776461663681
$GPGGA,160011.00,3427.3034,N,12056.9965,W,1,11,0.8,5.8,M,-33.6,M,,*52
$PYRTM,2024,123.666825816956,14.776473227095
$GPGGA,160012.00,3427.3047,N,12056.9972,W,1,11,0.8,5.1,M,-33.6,M,,*5A
$PYRTM,2024,123.666837403194,14.776484813333
$GPGGA,160013.00,3427.3060,N,12056.9982,W,1,11,0.8,4.5,M,-33.6,M,,*54
$PYRTM,2024,123.666848965613,14.776496375752
$GPGGA,160014.00,3427.3070,N,12056.9996,W,1,11,0.8,4.0,M,-33.6,M,,*52
$PYRTM,2024,123.666860553808,14.776507963947
$GPGGA,160015.00,3427.3080,N,12057.0005,W,1,11,0.8,4.2,M,-33.6,M,,*55
$PYRTM,2024,123.666872111644,14.776519521782
$GPGGA,160016.00,3427.3091,N,12057.0008,W,1,11,0.8,5.0,M,-33.6,M,,*58
$PYRTM,2024,123.666883714132,14.776531124271
$GPGGA,160017.00,3427.3105,N,12057.0010,W,1,11,0.8,5.9,M,-33.6,M,,*55
$PYRTM,2024,123.666895260486,14.776542670625
$GPGGA,160018.00,3427.3119,N,12057.0017,W,1,11,0.8,6.4,M,-33.6,M,,*5E
$PYRTM,2024,123.666905561250,14.776552971389
$GPGGA,160019.00,3427.3130,N,12057.0032,W,1,11,0.8,5.9,M,-33.6,M,,*5D
$PYRTM,2024,123.666917378299,14.776564788438
$GPGGA,160020.00,3427.3138,N,12057.0048,W,1,11,0.8,5.5,M,-33.6,M,,*5E
$PYRTM,2024,123.666929994606,14.776577404745
$GPGGA,160021.00,3427.3149,N,12057.0055,W,1,11,0.8,5.5,M,-33.6,M,,*55
$PYRTM,2024,123.666941557940,14.776588968090
$GPGGA,160022.00,3427.3163,N,12057.0053,W,1,11,0.8,6.2,M,-33.6,M,,*5C
$PYRTM,2024,123.666953148322,14.776600558472
$GPGGA,160023.00,3427.3177,N,12057.0053,W,1,11,0.8,7.0,M,-33.6,M,,*5B
$PYRTM,2024,123.666964705741,14.776612115880
$GPGGA,160024.00,3427.3189,N,12057.0065,W,1,11,0.8,7.2,M,-33.6,M,,*5A
$PYRTM,2024,123.666976291273,14.776623701412
$GPGGA,160025.00,3427.3200,N,12057.0084,W,1,11,0.8,7.6,M,-33.6,M,,*52
$PYRTM,2024,123.666987854838,14.776635264977
$GPGGA,160026.00,3427.3211,N,12057.0097,W,1,11,0.8,6.5,M,-33.6,M,,*51
$PYRTM,2024,123.666999440012,14.776646850150
$GPGGA,160027.00,3427.3223,N,12057.0097,W,1,11,0.8,6.1,M,-33.6,M,,*55
$PYRTM,2024,123.667011002778,14.776658412917
$GPGGA,160028.00,3427.3237,N,12057.0095,W,1,11,0.8,7.1,M,-33.6,M,,*5C
$PYRTM,2024,123.667022590972,14.776670001111
$GPGGA,160029.00,3427.3251,N,12057.0104,W,1,11,0.8,8.6,M,-33.6,M,,*5C
$PYRTM,2024,123.667034150417,14.776681560567
$GPGGA,160030.00,3427.3262,N,12057.0119,W,1,11,0.8,7.5,M,-33.6,M,,*54
$PYRTM,2024,123.667045739653,14.776693149792
$GPGGA,160031.00,3427.3273,N,12057.0132,W,1,11,0.8,7.5,M,-33.6,M,,*5C
$PYRTM,2024,123.667057298623,14.776704708762
$GPGGA,160032.00,3427.3285,N,12057.0137,W,1,11,0.8,6.9,M,-33.6,M,,*5E
$PYRTM,2024,123.667068885289,14.776716295428
$GPGGA,160033.00,3427.3299,N,12057.0141,W,1,11,0.8,6.9,M,-33.6,M,,*53
$PYRTM,2024,123.667080447789,14.776727857928
$GPGGA,160034.00,3427.3313,N,12057.0145,W,1,11,0.8,7.5,M,-33.6,M,,*5E
$PYRTM,2024,123.667092033530,14.776739443669
$GPGGA,160035.00,3427.3326,N,12057.0153,W,1,11,0.8,7.7,M,-33.6,M,,*5C
$PYRTM,2024,123.667103593727,14.776751003866
$GPGGA,160036.00,3427.3337,N,12057.0166,W,1,11,0.8,8.4,M,-33.6,M,,*55
$PYRTM,2024,123.667115181713,14.776762591852
$GPGGA,160037.00,3427.3348,N,12057.0179,W,1,11,0.8,7.8,M,-33.6,M,,*51
$PYRTM,2024,123.667126744155,14.776774154294
$GPGGA,160038.00,3427.3361,N,12057.0187,W,1,11,0.8,7.7,M,-33.6,M,,*5B
$PYRTM,2024,123.667138330208,14.776785740347
$GPGGA,160039.00,3427.3375,N,12057.0191,W,1,11,0.8,7.6,M,-33.6,M,,*59
$PYRTM,2024,123.667149891586,14.776797301725
$GPGGA,160040.00,3427.3389,N,12057.0197,W,1,11,0.8,8.3,M,-33.6,M,,*58
$PYRTM,2024,123.667161478611,14.776808888750
$GPGGA,160041.00,3427.3401,N,12057.0207,W,1,11,0.8,8.3,M,-33.6,M,,*54
$PYRTM,2024,123.667173038750,14.776820448900
$GPGGA,160042.00,3427.3411,N,12057.0221,W,1,11,0.8,6.5,M,-33.6,M,,*5A
$PYRTM,2024,123.667184626030,14.776832036169
$GPGGA,160043.00,3427.3423,N,12057.0236,W,1,11,0.8,6.0,M,-33.6,M,,*59
$PYRTM,2024,123.667196189259,14.776843599398
$GPGGA,160044.00,3427.3436,N,12057.0242,W,1,11,0.8,6.8,M,-33.6,M,,*51
$PYRTM,2024,123.667207777650,14.776855187789
$GPGGA,160045.00,3427.3448,N,12057.0240,W,1,11,0.8,7.2,M,-33.6,M,,*50
$PYRTM,2024,123.667219335937,14.776866746076
$GPGGA,160046.00,3427.3460,N,12057.0243,W,1,11,0.8,7.6,M,-33.6,M,,*5E
$PYRTM,2024,123.667229996667,14.776877406806
$GPGGA,160047.00,3427.3475,N,12057.0255,W,1,11,0.8,4.9,M,-33.6,M,,*50
$PYRTM,2024,123.667241917905,14.776889328044
$GPGGA,160048.00,3427.3489,N,12057.0270,W,1,11,0.8,5.2,M,-33.6,M,,*51
$PYRTM,2024,123.667253259456,14.776900669595
$GPGGA,160049.00,3427.3499,N,12057.0279,W,1,11,0.8,4.8,M,-33.6,M,,*53
$PYRTM,2024,123.667264385637,14.776911795775
$GPGGA,160050.00,3427.3509,N,12057.0282,W,1,11,0.8,4.3,M,-33.6,M,,*5C
$PYRTM,2024,123.667275368796,14.776922778935
$GPGGA,160051.00,3427.3522,N,12057.0284,W,1,11,0.8,5.2,M,-33.6,M,,*52
$PYRTM,2024,123.667286477731,14.776933887870
$GPGGA,160052.00,3427.3536,N,12057.0290,W,1,11,0.8,5.5,M,-33.6,M,,*56
$PYRTM,2024,123.667297588356,14.776944998495
$GPGGA,160053.00,3427.3547,N,12057.0300,W,1,11,0.8,5.3,M,-33.6,M,,*5F
$PYRTM,2024,123.667308703252,14.776956113391
$GPGGA,160054.00,3427.3557,N,12057.0313,W,1,11,0.8,4.5,M,-33.6,M,,*5C
$PYRTM,2024,123.667319815278,14.776967225417
$GPGGA,160055.00,3427.3565,N,12057.0322,W,1,11,0.8,4.5,M,-33.6,M,,*5E
$PYRTM,2024,123.667330923426,14.776978333565
$GPGGA,160056.00,3427.3576,N,12057.0325,W,1,11,0.8,4.3,M,-33.6,M,,*5E
$PYRTM,2024,123.667341924155,14.776989334294
$GPGGA,160057.00,3427.3591,N,12057.0327,W,1,11,0.8,6.2,M,-33.6,M,,*57
$PYRTM,2024,123.667360542396,14.777007952535
$GPGGA,160058.00,3427.3605,N,12057.0333,W,1,11,0.8,6.9,M,-33.6,M,,*58
$PYRTM,2024,123.667371672014,14.777019082153
$GPGGA,160059.00,3427.3614,N,12057.0344,W,1,11,0.8,6.8,M,-33.6,M,,*58
$PYRTM,2024,123.667382764618,14.777030174757
$GPGGA,160100.00,3427.3621,N,12057.0354,W,1,11,0.8,7.1,M,-33.6,M,,*5A
$PYRTM,2024,123.667393889792,14.777041299931
$GPGGA,160101.00,3427.3630,N,12057.0363,W,1,11,0.8,7.0,M,-33.6,M,,*5E
$PYRTM,2024,123.667404871424,14.777052281563
$GPGGA,160102.00,3427.3644,N,12057.0371,W,1,11,0.8,6.5,M,-33.6,M,,*59
$PYRTM,2024,123.667415996181,14.777063406308
$GPGGA,160103.00,3427.3656,N,12057.0378,W,1,11,0.8,5.5,M,-33.6,M,,*51
$PYRTM,2024,123.667427105799,14.777074515938
$GPGGA,160104.00,3427.3665,N,12057.0384,W,1,11,0.8,5.8,M,-33.6,M,,*58
$PYRTM,2024,123.667438217187,14.777085627326
$GPGGA,160105.00,3427.3675,N,12057.0390,W,1,11,0.8,5.9,M,-33.6,M,,*5C
$PYRTM,2024,123.667449327558,14.777096737697
$GPGGA,160106.00,3427.3688,N,12057.0397,W,1,11,0.8,6.0,M,-33.6,M,,*50
$PYRTM,2024,123.667460438704,14.777107848843
$GPGGA,160107.00,3427.3700,N,12057.0406,W,1,11,0.8,6.7,M,-33.6,M,,*58
$PYRTM,2024,123.667471418229,14.777118828368
$GPGGA,160108.00,3427.3712,N,12057.0415,W,1,11,0.8,6.7,M,-33.6,M,,*56
$PYRTM,2024,123.667482529583,14.777129939722
$GPGGA,160109.00,3427.3724,N,12057.0423,W,1,11,0.8,5.7,M,-33.6,M,,*54
$PYRTM,2024,123.667493641262,14.777141051400
$GPGGA,160110.00,3427.3737,N,12057.0431,W,1,11,0.8,5.5,M,-33.6,M,,*5F
$PYRTM,2024,123.667504753588,14.777152163727
$GPGGA,160111.00,3427.3748,N,12057.0437,W,1,11,0.8,6.0,M,-33.6,M,,*56
$PYRTM,2024,123.667515864329,14.777163274468
$GPGGA,160112.00,3427.3759,N,12057.0441,W,1,11,0.8,6.8,M,-33.6,M,,*5C
$PYRTM,2024,123.667527339606,14.777174749745
$GPGGA,160113.00,3427.3772,N,12057.0447,W,1,11,0.8,8.4,M,-33.6,M,,*50
$PYRTM,2024,123.667538448947,14.777185859086
$GPGGA,160114.00,3427.3785,N,12057.0456,W,1,11,0.8,7.5,M,-33.6,M,,*51
$PYRTM,2024,123.667549789097,14.777197199236
$GPGGA,160115.00,3427.3798,N,12057.0464,W,1,11,0.8,8.5,M,-33.6,M,,*52
$PYRTM,2024,123.667561365197,14.777208775336
$GPGGA,160116.00,3427.3809,N,12057.0471,W,1,11,0.8,7.1,M,-33.6,M,,*59
$PYRTM,2024,123.667572938044,14.777220348183
$GPGGA,160117.00,3427.3821,N,12057.0477,W,1,11,0.8,5.4,M,-33.6,M,,*53
$PYRTM,2024,123.667584515683,14.777231925822
$GPGGA,160118.00,3427.3834,N,12057.0484,W,1,11,0.8,5.2,M,-33.6,M,,*52
$PYRTM,2024,123.667601297986,14.777248708125
$GPGGA,160119.00,3427.3845,N,12057.0489,W,1,11,0.8,5.8,M,-33.6,M,,*52
$PYRTM,2024,123.667612856030,14.777260266169
$GPGGA,160120.00,3427.3857,N,12057.0494,W,1,11,0.8,6.4,M,-33.6,M,,*58
$PYRTM,2024,123.667624444468,14.777271854606
$GPGGA,160121.00,3427.3870,N,12057.0501,W,1,11,0.8,6.7,M,-33.6,M,,*52
$PYRTM,2024,123.667636006400,14.777283416539
$GPGGA,160122.00,3427.3883,N,12057.0510,W,1,11,0.8,7.0,M,-33.6,M,,*5B
$PYRTM,2024,123.667647592593,14.777295002731
$GPGGA,160123.00,3427.3897,N,12057.0520,W,1,11,0.8,6.6,M,-33.6,M,,*5B
$PYRTM,2024,123.667659166505,14.777306576644
$GPGGA,160124.00,3427.3910,N,12057.0526,W,1,11,0.8,6.2,M,-33.6,M,,*50
$PYRTM,2024,123.667670739329,14.777318149468
$GPGGA,160125.00,3427.3921,N,12057.0534,W,1,11,0.8,6.5,M,-33.6,M,,*57
$PYRTM,2024,123.667682314051,14.777329724190
$GPGGA,160126.00,3427.3935,N,12057.0543,W,1,11,0.8,5.9,M,-33.6,M,,*5E
$PYRTM,2024,123.667693882778,14.777341292917
$GPGGA,160127.00,3427.3950,N,12057.0551,W,1,11,0.8,5.6,M,-33.6,M,,*50
$PYRTM,2024,123.667705462546,14.777352872685
$GPGGA,160128.00,3427.3963,N,12057.0558,W,1,11,0.8,5.8,M,-33.6,M,,*58
$PYRTM,2024,123.667717050637,14.777364460775
$GPGGA,160129.00,3427.3973,N,12057.0567,W,1,11,0.8,6.7,M,-33.6,M,,*58
$PYRTM,2024,123.667728610127,14.777376020266
$GPGGA,160130.00,3427.3983,N,12057.0578,W,1,11,0.8,7.0,M,-33.6,M,,*57
$PYRTM,2024,123.667740187477,14.777387597616
$GPGGA,160131.00,3427.3998,N,12057.0589,W,1,11,0.8,6.5,M,-33.6,M,,*56
$PYRTM,2024,123.667751758194,14.777399168333
$GPGGA,160132.00,3427.4013,N,12057.0597,W,1,11,0.8,5.3,M,-33.6,M,,*52
$PYRTM,2024,123.667763346991,14.777410757222
$GPGGA,160133.00,3427.4024,N,12057.0602,W,1,11,0.8,5.0,M,-33.6,M,,*5B
$PYRTM,2024,123.667774906840,14.777422316979
$GPGGA,160134.00,3427.4032,N,12057.0609,W,1,11,0.8,5.3,M,-33.6,M,,*53
$PYRTM,2024,123.667786480891,14.777433891030
$GPGGA,160135.00,3427.4043,N,12057.0620,W,1,11,0.8,6.0,M,-33.6,M,,*5F
$PYRTM,2024,123.667798055984,14.777445466123
$GPGGA,160136.00,3427.4057,N,12057.0632,W,1,11,0.8,6.0,M,-33.6,M,,*5A
$PYRTM,2024,123.667809629120,14.777457039271
$GPGGA,160137.00,3427.4071,N,12057.0639,W,1,11,0.8,5.5,M,-33.6,M,,*52
$PYRTM,2024,123.667821203021,14.777468613160
$GPGGA,160138.00,3427.4084,N,12057.0643,W,1,11,0.8,5.6,M,-33.6,M,,*59
$PYRTM,2024,123.667832779016,14.777480189155
$GPGGA,160139.00,3427.4097,N,12057.0651,W,1,11,0.8,5.5,M,-33.6,M,,*5A
$PYRTM,2024,123.667844346586,14.777491756725
$GPGGA,160140.00,3427.4107,N,12057.0663,W,1,11,0.8,6.0,M,-33.6,M,,*5B
$PYRTM,2024,123.667855928727,14.777503338866
$GPGGA,160141.00,3427.4117,N,12057.0674,W,1,11,0.8,6.7,M,-33.6,M,,*5A
$PYRTM,2024,123.667867500394,14.777514910532
$GPGGA,160142.00,3427.4128,N,12057.0681,W,1,11,0.8,7.9,M,-33.6,M,,*50
$PYRTM,2024,123.667879089306,14.777526499444
$GPGGA,160143.00,3427.4142,N,12057.0685,W,1,11,0.8,7.4,M,-33.6,M,,*54
$PYRTM,2024,123.667890647755,14.777538057894
$GPGGA,160144.00,3427.4159,N,12057.0693,W,1,11,0.8,6.0,M,-33.6,M,,*5B
$PYRTM,2024,123.667902224873,14.777549635012
$GPGGA,160145.00,3427.4170,N,12057.0706,W,1,11,0.8,5.5,M,-33.6,M,,*5A
$PYRTM,2024,123.667913797546,14.777561207685
$GPGGA,160146.00,3427.4178,N,12057.0716,W,1,11,0.8,5.3,M,-33.6,M,,*56
$PYRTM,2024,123.667925371204,14.777572781343
$GPGGA,160147.00,3427.4189,N,12057.0719,W,1,11,0.8,5.5,M,-33.6,M,,*50
$PYRTM,2024,123.667935903449,14.777583313588
$GPGGA,160148.00,3427.4207,N,12057.0719,W,1,11,0.8,6.5,M,-33.6,M,,*59
$PYRTM,2024,123.667947232685,14.777594642824
$GPGGA,160149.00,3427.4224,N,12057.0725,W,1,11,0.8,7.2,M,-33.6,M,,*50
$PYRTM,2024,123.667959052292,14.777606462442
$GPGGA,160150.00,3427.4234,N,12057.0739,W,1,11,0.8,7.2,M,-33.6,M,,*54
$PYRTM,2024,123.667971667477,14.777619077627
$GPGGA,160151.00,3427.4243,N,12057.0755,W,1,11,0.8,5.5,M,-33.6,M,,*5A
$PYRTM,2024,123.667983241794,14.777630651933
$GPGGA,160152.00,3427.4254,N,12057.0763,W,1,11,0.8,5.3,M,-33.6,M,,*5C
$PYRTM,2024,123.667994816123,14.777642226262
$GPGGA,160153.00,3427.4267,N,12057.0763,W,1,11,0.8,4.7,M,-33.6,M,,*58
$PYRTM,2024,123.668006389560,14.777653799699
$GPGGA,160154.00,3427.4279,N,12057.0766,W,1,11,0.8,5.9,M,-33.6,M,,*5A
$PYRTM,2024,123.668017964375,14.777665374514
$GPGGA,160155.00,3427.4292,N,12057.0777,W,1,11,0.8,5.7,M,-33.6,M,,*50
$PYRTM,2024,123.668029537917,14.777676948056
$GPGGA,160156.00,3427.4305,N,12057.0791,W,1,11,0.8,5.7,M,-33.6,M,,*54
$PYRTM,2024,123.668041112986,14.777688523125
$GPGGA,160157.00,3427.4317,N,12057.0801,W,1,11,0.8,5.4,M,-33.6,M,,*53
$PYRTM,2024,123.668052686296,14.777700096435
$GPGGA,160158.00,3427.4329,N,12057.0807,W,1,11,0.8,6.0,M,-33.6,M,,*50
$PYRTM,2024,123.668064260972,14.777711671111
$GPGGA,160159.00,3427.4341,N,12057.0813,W,1,11,0.8,6.3,M,-33.6,M,,*59
$PYRTM,2024,123.668075834537,14.777723244676
$GPGGA,160200.00,3427.4353,N,12057.0819,W,1,11,0.8,6.8,M,-33.6,M,,*54
$PYRTM,2024,123.668087425046,14.777734835185
$GPGGA,160201.00,3427.4363,N,12057.0828,W,1,11,0.8,7.3,M,-33.6,M,,*5E
$PYRTM,2024,123.668098982523,14.777746392662
$GPGGA,160202.00,3427.4374,N,12057.0841,W,1,11,0.8,6.5,M,-33.6,M,,*53
$PYRTM,2024,123.668110572049,14.777757982188
$GPGGA,160203.00,3427.4386,N,12057.0853,W,1,11,0.8,6.6,M,-33.6,M,,*5F
$PYRTM,2024,123.668122131562,14.777769541701
$GPGGA,160204.00,3427.4398,N,12057.0862,W,1,11,0.8,6.6,M,-33.6,M,,*55
$PYRTM,2024,123.668133706076,14.777781116215
$GPGGA,160205.00,3427.4411,N,12057.0869,W,1,11,0.8,6.2,M,-33.6,M,,*5D
$PYRTM,2024,123.668145279190,14.777792689340
$GPGGA,160206.00,3427.4422,N,12057.0876,W,1,11,0.8,6.4,M,-33.6,M,,*56
$PYRTM,2024,123.668156853935,14.777804264074
$GPGGA,160207.00,3427.4434,N,12057.0885,W,1,11,0.8,6.8,M,-33.6,M,,*50
$PYRTM,2024,123.668168428484,14.777815838623
$GPGGA,160208.00,3427.4448,N,12057.0897,W,1,11,0.8,6.6,M,-33.6,M,,*59
$PYRTM,2024,123.668180003519,14.777827413657
$GPGGA,160209.00,3427.4462,N,12057.0909,W,1,11,0.8,6.6,M,-33.6,M,,*56
$PYRTM,2024,123.668191575567,14.777838985706
$GPGGA,160210.00,3427.4472,N,12057.0915,W,1,11,0.8,6.3,M,-33.6,M,,*57
$PYRTM,2024,123.668203150660,14.777850560799
$GPGGA,160211.00,3427.4481,N,12057.0918,W,1,11,0.8,7.4,M,-33.6,M,,*51
$PYRTM,2024,123.668214718843,14.777862128981
$GPGGA,160212.00,3427.4493,N,12057.0924,W,1,11,0.8,4.9,M,-33.6,M,,*50
$PYRTM,2024,123.668226300856,14.777873710995
$GPGGA,160213.00,3427.4508,N,12057.0937,W,1,11,0.8,5.0,M,-33.6,M,,*58
$PYRTM,2024,123.668237873160,14.777885283299
$GPGGA,160214.00,3427.4520,N,12057.0949,W,1,11,0.8,5.8,M,-33.6,M,,*54
$PYRTM,2024,123.668249451065,14.777896861204
$GPGGA,160215.00,3427.4529,N,12057.0956,W,1,11,0.8,6.7,M,-33.6,M,,*5E
$PYRTM,2024,123.668261015845,14.777908425984
$GPGGA,160216.00,3427.4539,N,12057.0957,W,1,11,0.8,6.8,M,-33.6,M,,*52
$PYRTM,2024,123.668272597847,14.777920007998
$GPGGA,160217.00,3427.4553,N,12057.0959,W,1,11,0.8,9.0,M,-33.6,M,,*56
$PYRTM,2024,123.668284168762,14.777931578912
$GPGGA,160218.00,3427.4568,N,12057.0968,W,1,11,0.8,7.2,M,-33.6,M,,*5F
$PYRTM,2024,123.668294354329,14.777941764479
$GPGGA,160219.00,3427.4578,N,12057.0982,W,1,11,0.8,6.7,M,-33.6,M,,*5F
$PYRTM,2024,123.668306270926,14.777953681076
$GPGGA,160220.00,3427.4585,N,12057.0993,W,1,11,0.8,6.8,M,-33.6,M,,*58
$PYRTM,2024,123.668318892731,14.777966302870
$GPGGA,160221.00,3427.4595,N,12057.1000,W,1,11,0.8,7.2,M,-33.6,M,,*51
$PYRTM,2024,123.668330465544,14.777977875683
$GPGGA,160222.00,3427.4612,N,12057.1002,W,1,11,0.8,7.7,M,-33.6,M,,*59
$PYRTM,2024,123.668342040347,14.777989450486
$GPGGA,160223.00,3427.4629,N,12057.1006,W,1,11,0.8,8.2,M,-33.6,M,,*5E
$PYRTM,2024,123.668353614167,14.778001024306
$GPGGA,160224.00,3427.4640,N,12057.1016,W,1,11,0.8,7.8,M,-33.6,M,,*52
$PYRTM,2024,123.668365190313,14.778012600451
$GPGGA,160225.00,3427.4648,N,12057.1026,W,1,11,0.8,7.1,M,-33.6,M,,*51
$PYRTM,2024,123.668376763472,14.778024173611
$GPGGA,160226.00,3427.4659,N,12057.1036,W,1,11,0.8,6.2,M,-33.6,M,,*51
$PYRTM,2024,123.668388336215,14.778035746354
$GPGGA,160227.00,3427.4673,N,12057.1043,W,1,11,0.8,5.3,M,-33.6,M,,*58
$PYRTM,2024,123.668399910937,14.778047321076
$GPGGA,160228.00,3427.4684,N,12057.1050,W,1,11,0.8,5.0,M,-33.6,M,,*5E
$PYRTM,2024,123.668411498900,14.778058909039
$GPGGA,160229.00,3427.4692,N,12057.1056,W,1,11,0.8,6.0,M,-33.6,M,,*5D
$PYRTM,2024,123.668423059317,14.778070469456
$GPGGA,160230.00,3427.4703,N,12057.1063,W,1,11,0.8,6.9,M,-33.6,M,,*53
$PYRTM,2024,123.668434635035,14.778082045174
$GPGGA,160231.00,3427.4718,N,12057.1071,W,1,11,0.8,7.1,M,-33.6,M,,*52
$PYRTM,2024,123.668446207060,14.778093617199
$GPGGA,160232.00,3427.4731,N,12057.1079,W,1,11,0.8,7.6,M,-33.6,M,,*55
$PYRTM,2024,123.668457780266,14.778105190405
$GPGGA,160233.00,3427.4741,N,12057.1089,W,1,11,0.8,7.4,M,-33.6,M,,*5E
$PYRTM,2024,123.668469355312,14.778116765451
$GPGGA,160234.00,3427.4753,N,12057.1096,W,1,11,0.8,7.0,M,-33.6,M,,*50
$PYRTM,2024,123.668480929178,14.778128339317
$GPGGA,160235.00,3427.4767,N,12057.1102,W,1,11,0.8,6.5,M,-33.6,M,,*5E
$PYRTM,2024,123.668492503623,14.778139913762
$GPGGA,160236.00,3427.4782,N,12057.1109,W,1,11,0.8,6.0,M,-33.6,M,,*58
$PYRTM,2024,123.668504079097,14.778151489236
$GPGGA,160237.00,3427.4795,N,12057.1122,W,1,11,0.8,6.2,M,-33.6,M,,*54
$PYRTM,2024,123.668515654687,14.778163064826
$GPGGA,160238.00,3427.4807,N,12057.1134,W,1,11,0.8,5.7,M,-33.6,M,,*5E
$PYRTM,2024,123.668527225845,14.778174635995
$GPGGA,160239.00,3427.4819,N,12057.1140,W,1,11,0.8,5.8,M,-33.6,M,,*5C
$PYRTM,2024,123.668538798808,14.778186208947
$GPGGA,160240.00,3427.4833,N,12057.1141,W,1,11,0.8,5.0,M,-33.6,M,,*53
$PYRTM,2024,123.668550373542,14.778197783681
$GPGGA,160241.00,3427.4848,N,12057.1149,W,1,11,0.8,4.7,M,-33.6,M,,*50
$PYRTM,2024,123.668561944560,14.778209354699
$GPGGA,160242.00,3427.4860,N,12057.1162,W,1,11,0.8,4.2,M,-33.6,M,,*55
$PYRTM,2024,123.668573535822,14.778220945961
$GPGGA,160243.00,3427.4869,N,12057.1174,W,1,11,0.8,4.7,M,-33.6,M,,*5F
$PYRTM,2024,123.668585095255,14.778232505394
$GPGGA,160244.00,3427.4879,N,12057.1178,W,1,11,0.8,4.6,M,-33.6,M,,*54
$PYRTM,2024,123.668596685197,14.778244095336
$GPGGA,160245.00,3427.4893,N,12057.1177,W,1,11,0.8,6.3,M,-33.6,M,,*59
$PYRTM,2024,123.668608244016,14.778255654155
$GPGGA,160246.00,3427.4908,N,12057.1180,W,1,11,0.8,7.4,M,-33.6,M,,*57
$PYRTM,2024,123.668619821262,14.778267231400
$GPGGA,160247.00,3427.4921,N,12057.1191,W,1,11,0.8,4.7,M,-33.6,M,,*5D
$PYRTM,2024,123.668631394051,14.778278804190
$GPGGA,160248.00,3427.4931,N,12057.1207,W,1,11,0.8,5.1,M,-33.6,M,,*58
$PYRTM,2024,123.668641681771,14.778289091910
$GPGGA,160249.00,3427.4938,N,12057.1214,W,1,11,0.8,5.2,M,-33.6,M,,*51
$PYRTM,2024,123.668653500081,14.778300910220
$GPGGA,160250.00,3427.4949,N,12057.1213,W,1,11,0.8,5.2,M,-33.6,M,,*58
$PYRTM,2024,123.668665189688,14.778312599826
$GPGGA,160251.00,3427.4967,N,12057.1212,W,1,11,0.8,5.0,M,-33.6,M,,*56
$PYRTM,2024,123.668677095810,14.778324505949
$GPGGA,160252.00,3427.4985,N,12057.1220,W,1,11,0.8,6.6,M,-33.6,M,,*5D
$PYRTM,2024,123.668687874618,14.778335284757
$GPGGA,160253.00,3427.4995,N,12057.1231,W,1,11,0.8,6.2,M,-33.6,M,,*59
$PYRTM,2024,123.668698866042,14.778346276192
$GPGGA,160254.00,3427.5001,N,12057.1237,W,1,11,0.8,6.3,M,-33.6,M,,*5C
$PYRTM,2024,123.668709981123,14.778357391262
$GPGGA,160255.00,3427.5011,N,12057.1240,W,1,11,0.8,7.0,M,-33.6,M,,*5E
$PYRTM,2024,123.668721093241,14.778368503380
$GPGGA,160256.00,3427.5028,N,12057.1245,W,1,11,0.8,7.9,M,-33.6,M,,*5B
$PYRTM,2024,123.668732203600,14.778379613738
$GPGGA,160257.00,3427.5042,N,12057.1254,W,1,11,0.8,6.8,M,-33.6,M,,*56
$PYRTM,2024,123.668743315116,14.778390725255
$GPGGA,160258.00,3427.5052,N,12057.1263,W,1,11,0.8,6.5,M,-33.6,M,,*51
$PYRTM,2024,123.668754425764,14.778401835903
$GPGGA,160259.00,3427.5063,N,12057.1272,W,1,11,0.8,7.0,M,-33.6,M,,*56
$PYRTM,2024,123.668765424398,14.778412834537
$GPGGA,160300.00,3427.5075,N,12057.1280,W,1,11,0.8,6.8,M,-33.6,M,,*58
$PYRTM,2024,123.668776648426,14.778424058565
$GPGGA,160301.00,3427.5089,N,12057.1285,W,1,11,0.8,7.1,M,-33.6,M,,*57
$PYRTM,2024,123.668788209595,14.778435619734
$GPGGA,160302.00,3427.5099,N,12057.1288,W,1,11,0.8,7.5,M,-33.6,M,,*5C
$PYRTM,2024,123.668799791898,14.778447202037
$GPGGA,160303.00,3427.5109,N,12057.1293,W,1,11,0.8,8.1,M,-33.6,M,,*54
$PYRTM,2024,123.668811358021,14.778458768171
$GPGGA,160304.00,3427.5120,N,12057.1304,W,1,11,0.8,6.4,M,-33.6,M,,*5C
$PYRTM,2024,123.668822939491,14.778470349630
$GPGGA,160305.00,3427.5132,N,12057.1315,W,1,11,0.8,5.2,M,-33.6,M,,*5B
$PYRTM,2024,123.668834505185,14.778481915336
$GPGGA,160306.00,3427.5143,N,12057.1322,W,1,11,0.8,5.3,M,-33.6,M,,*5B
$PYRTM,2024,123.668846095451,14.778493505590
$GPGGA,160307.00,3427.5151,N,12057.1326,W,1,11,0.8,5.3,M,-33.6,M,,*5D
$PYRTM,2024,123.668857653241,14.778505063380
$GPGGA,160308.00,3427.5162,N,12057.1328,W,1,11,0.8,5.4,M,-33.6,M,,*5B
$PYRTM,2024,123.668869236875,14.778516647025
$GPGGA,160309.00,3427.5175,N,12057.1333,W,1,11,0.8,6.0,M,-33.6,M,,*51
$PYRTM,2024,123.668880801655,14.778528211794
$GPGGA,160310.00,3427.5190,N,12057.1342,W,1,11,0.8,5.6,M,-33.6,M,,*51
$PYRTM,2024,123.668892390775,14.778539800914
$GPGGA,160311.00,3427.5201,N,12057.1351,W,1,11,0.8,4.8,M,-33.6,M,,*56
$PYRTM,2024,123.668903949514,14.778551359653
$GPGGA,160312.00,3427.5210,N,12057.1357,W,1,11,0.8,4.0,M,-33.6,M,,*5B
$PYRTM,2024,123.668915538912,14.778562949063
$GPGGA,160313.00,3427.5221,N,12057.1362,W,1,11,0.8,3.8,M,-33.6,M,,*51
$PYRTM,2024,123.668927097373,14.778574507512
$GPGGA,160314.00,3427.5233,N,12057.1369,W,1,11,0.8,3.6,M,-33.6,M,,*50
$PYRTM,2024,123.668938688484,14.778586098623
$GPGGA,160315.00,3427.5245,N,12057.1379,W,1,11,0.8,3.8,M,-33.6,M,,*5F
$PYRTM,2024,123.668953025058,14.778600435197
$GPGGA,160316.00,3427.5256,N,12057.1387,W,1,11,0.8,4.7,M,-33.6,M,,*57
$PYRTM,2024,123.668964135035,14.778611545174
$GPGGA,160317.00,3427.5267,N,12057.1394,W,1,11,0.8,5.3,M,-33.6,M,,*53
$PYRTM,2024,123.668975246435,14.778622656574
$GPGGA,160318.00,3427.5279,N,12057.1398,W,1,11,0.8,5.4,M,-33.6,M,,*58
$PYRTM,2024,123.668991337037,14.778638747176
$GPGGA,160319.00,3427.5290,N,12057.1407,W,1,11,0.8,4.5,M,-33.6,M,,*5F
$PYRTM,2024,123.669002358704,14.778649768843
$GPGGA,160320.00,3427.5302,N,12057.1415,W,1,11,0.8,3.7,M,-33.6,M,,*59
$PYRTM,2024,123.669013455833,14.778660865972
$GPGGA,160321.00,3427.5315,N,12057.1421,W,1,11,0.8,3.5,M,-33.6,M,,*5B
$PYRTM,2024,123.669024912824,14.778672322963
$GPGGA,160322.00,3427.5328,N,12057.1427,W,1,11,0.8,4.1,M,-33.6,M,,*53
$PYRTM,2024,123.669036492257,14.778683902396
$GPGGA,160323.00,3427.5339,N,12057.1435,W,1,11,0.8,4.8,M,-33.6,M,,*58
$PYRTM,2024,123.669048060671,14.778695470810
$GPGGA,160324.00,3427.5349,N,12057.1440,W,1,11,0.8,5.2,M,-33.6,M,,*51
$PYRTM,2024,123.669059652500,14.778707062650
$GPGGA,160325.00,3427.5362,N,12057.1445,W,1,11,0.8,4.6,M,-33.6,M,,*59
$PYRTM,2024,123.669071210787,14.778718620926
$GPGGA,160326.00,3427.5378,N,12057.1453,W,1,11,0.8,4.0,M,-33.6,M,,*50
$PYRTM,2024,123.669082787338,14.778730197488
$GPGGA,160327.00,3427.5390,N,12057.1463,W,1,11,0.8,3.3,M,-33.6,M,,*50
$PYRTM,2024,123.669094353194,14.778741763333
$GPGGA,160328.00,3427.5397,N,12057.1470,W,1,11,0.8,3.5,M,-33.6,M,,*5C
$PYRTM,2024,123.669105933981,14.778753344120
$GPGGA,160329.00,3427.5408,N,12057.1472,W,1,11,0.8,3.8,M,-33.6,M,,*53
$PYRTM,2024,123.669117501840,14.778764911991
$GPGGA,160330.00,3427.5424,N,12057.1473,W,1,11,0.8,4.4,M,-33.6,M,,*5F
$PYRTM,2024,123.669129085590,14.778776495729
$GPGGA,160331.00,3427.5439,N,12057.1480,W,1,11,0.8,4.0,M,-33.6,M,,*5A
$PYRTM,2024,123.669140656157,14.778788066308
$GPGGA,160332.00,3427.5450,N,12057.1493,W,1,11,0.8,4.2,M,-33.6,M,,*56
$PYRTM,2024,123.669152230382,14.778799640521
$GPGGA,160333.00,3427.5458,N,12057.1505,W,1,11,0.8,4.5,M,-33.6,M,,*56
$PYRTM,2024,123.669163803762,14.778811213900
$GPGGA,160334.00,3427.5468,N,12057.1509,W,1,11,0.8,4.6,M,-33.6,M,,*5D
$PYRTM,2024,123.669175378738,14.778822788877
$GPGGA,160335.00,3427.5483,N,12057.1511,W,1,11,0.8,5.0,M,-33.6,M,,*57
$PYRTM,2024,123.669186952743,14.778834362894
$GPGGA,160336.00,3427.5497,N,12057.1518,W,1,11,0.8,5.7,M,-33.6,M,,*5F
$PYRTM,2024,123.669198524560,14.778845934699
$GPGGA,160337.00,3427.5507,N,12057.1530,W,1,11,0.8,5.8,M,-33.6,M,,*53
$PYRTM,2024,123.669210099456,14.778857509595
$GPGGA,160338.00,3427.5517,N,12057.1541,W,1,11,0.8,5.9,M,-33.6,M,,*5A
$PYRTM,2024,123.669221674190,14.778869084329
$GPGGA,160339.00,3427.5529,N,12057.1549,W,1,11,0.8,6.1,M,-33.6,M,,*55
$PYRTM,2024,123.669233247303,14.778880657442
$GPGGA,160340.00,3427.5544,N,12057.1553,W,1,11,0.8,5.7,M,-33.6,M,,*5E
$PYRTM,2024,123.669244836215,14.778892246354
$GPGGA,160341.00,3427.5559,N,12057.1558,W,1,11,0.8,5.7,M,-33.6,M,,*58
$PYRTM,2024,123.669256401713,14.778903811852
$GPGGA,160342.00,3427.5571,N,12057.1567,W,1,11,0.8,5.8,M,-33.6,M,,*52
$PYRTM,2024,123.669267987222,14.778915397373
$GPGGA,160343.00,3427.5582,N,12057.1577,W,1,11,0.8,6.0,M,-33.6,M,,*55
$PYRTM,2024,123.669279549225,14.778926959363
$GPGGA,160344.00,3427.5592,N,12057.1587,W,1,11,0.8,6.1,M,-33.6,M,,*5D
$PYRTM,2024,123.669291123113,14.778938533252
$GPGGA,160345.00,3427.5604,N,12057.1593,W,1,11,0.8,6.1,M,-33.6,M,,*55
$PYRTM,2024,123.669302697500,14.778950107639
$GPGGA,160346.00,3427.5619,N,12057.1600,W,1,11,0.8,5.0,M,-33.6,M,,*51
$PYRTM,2024,123.669314272535,14.778961682674
$GPGGA,160347.00,3427.5632,N,12057.1610,W,1,11,0.8,4.7,M,-33.6,M,,*5E
$PYRTM,2024,123.669325848380,14.778973258519
$GPGGA,160348.00,3427.5641,N,12057.1621,W,1,11,0.8,5.3,M,-33.6,M,,*52
$PYRTM,2024,123.669336024919,14.778983435046
$GPGGA,160349.00,3427.5650,N,12057.1631,W,1,11,0.8,6.6,M,-33.6,M,,*54
$PYRTM,2024,123.669347947604,14.778995357743
$GPGGA,160350.00,3427.5661,N,12057.1638,W,1,11,0.8,7.3,M,-33.6,M,,*53
$PYRTM,2024,123.669360565556,14.779007975694
$GPGGA,160351.00,3427.5678,N,12057.1643,W,1,11,0.8,7.0,M,-33.6,M,,*55
$PYRTM,2024,123.669372131574,14.779019541713
$GPGGA,160352.00,3427.5692,N,12057.1653,W,1,11,0.8,6.2,M,-33.6,M,,*50
$PYRTM,2024,123.669383730613,14.779031140752
$GPGGA,160353.00,3427.5702,N,12057.1667,W,1,11,0.8,5.5,M,-33.6,M,,*5A
$PYRTM,2024,123.669395285532,14.779042695671
$GPGGA,160354.00,3427.5711,N,12057.1676,W,1,11,0.8,6.1,M,-33.6,M,,*58
$PYRTM,2024,123.669406876458,14.779054286597
$GPGGA,160355.00,3427.5724,N,12057.1679,W,1,11,0.8,6.6,M,-33.6,M,,*57
$PYRTM,2024,123.669418433553,14.779065843692
$GPGGA,160356.00,3427.5742,N,12057.1682,W,1,11,0.8,6.5,M,-33.6,M,,*53
$PYRTM,2024,123.669430011192,14.779077421331
$GPGGA,160357.00,3427.5758,N,12057.1690,W,1,11,0.8,6.1,M,-33.6,M,,*5E
$PYRTM,2024,123.669441583553,14.779088993692
$GPGGA,160358.00,3427.5771,N,12057.1701,W,1,11,0.8,5.8,M,-33.6,M,,*59
$PYRTM,2024,123.669453157477,14.779100567616
$GPGGA,160359.00,3427.5780,N,12057.1711,W,1,11,0.8,6.1,M,-33.6,M,,*5D
$PYRTM,2024,123.669464730428,14.779112140567
$GPGGA,160400.00,3427.5789,N,12057.1716,W,1,11,0.8,6.5,M,-33.6,M,,*5C
$PYRTM,2024,123.669476304201,14.779123714340
$GPGGA,160401.00,3427.5803,N,12057.1719,W,1,11,0.8,6.7,M,-33.6,M,,*5D
$PYRTM,2024,123.669487878275,14.779135288414
$GPGGA,160402.00,3427.5819,N,12057.1725,W,1,11,0.8,6.4,M,-33.6,M,,*59
$PYRTM,2024,123.669499454664,14.779146864803
$GPGGA,160403.00,3427.5833,N,12057.1735,W,1,11,0.8,5.8,M,-33.6,M,,*5E
$PYRTM,2024,123.669511027037,14.779158437176
$GPGGA,160404.00,3427.5843,N,12057.1747,W,1,11,0.8,5.4,M,-33.6,M,,*57
$PYRTM,2024,123.669522600995,14.779170011134
$GPGGA,160405.00,3427.5854,N,12057.1756,W,1,11,0.8,5.9,M,-33.6,M,,*5D
$PYRTM,2024,123.669534174676,14.779181584815
$GPGGA,160406.00,3427.5868,N,12057.1758,W,1,11,0.8,6.9,M,-33.6,M,,*5C
$PYRTM,2024,123.669545749144,14.779193159282
$GPGGA,160407.00,3427.5883,N,12057.1760,W,1,11,0.8,7.6,M,-33.6,M,,*5D
$PYRTM,2024,123.669557323553,14.779204733692
$GPGGA,160408.00,3427.5897,N,12057.1770,W,1,11,0.8,7.0,M,-33.6,M,,*50
$PYRTM,2024,123.669568911887,14.779216322025
$GPGGA,160409.00,3427.5911,N,12057.1785,W,1,11,0.8,7.1,M,-33.6,M,,*55
$PYRTM,2024,123.669580472072,14.779227882211
$GPGGA,160410.00,3427.5923,N,12057.1795,W,1,11,0.8,6.6,M,-33.6,M,,*5B
$PYRTM,2024,123.669592049155,14.779239459294
$GPGGA,160411.00,3427.5937,N,12057.1797,W,1,11,0.8,7.5,M,-33.6,M,,*5F
$PYRTM,2024,123.669603621146,14.779251031296
$GPGGA,160412.00,3427.5951,N,12057.1800,W,1,11,0.8,7.4,M,-33.6,M,,*5C
$PYRTM,2024,123.669615194757,14.779262604896
$GPGGA,160413.00,3427.5965,N,12057.1809,W,1,11,0.8,7.1,M,-33.6,M,,*56
$PYRTM,2024,123.669626767512,14.779274177650
$GPGGA,160414.00,3427.5979,N,12057.1820,W,1,11,0.8,7.5,M,-33.6,M,,*53
$PYRTM,2024,123.669638344583,14.779285754722
$GPGGA,160415.00,3427.5990,N,12057.1828,W,1,11,0.8,6.7,M,-33.6,M,,*5E
$PYRTM,2024,123.669649917813,14.779297327951
$GPGGA,160416.00,3427.6001,N,12057.1833,W,1,11,0.8,6.5,M,-33.6,M,,*57
$PYRTM,2024,123.669661491586,14.779308901725
$GPGGA,160417.00,3427.6015,N,12057.1842,W,1,11,0.8,6.4,M,-33.6,M,,*54
$PYRTM,2024,123.669673064977,14.779320475104
$GPGGA,160418.00,3427.6029,N,12057.1852,W,1,11,0.8,5.3,M,-33.6,M,,*51
$PYRTM,2024,123.669683252153,14.779330662292
$GPGGA,160419.00,3427.6038,N,12057.1858,W,1,11,0.8,5.1,M,-33.6,M,,*58
$PYRTM,2024,123.669695175787,14.779342585926
$GPGGA,160420.00,3427.6049,N,12057.1862,W,1,11,0.8,5.1,M,-33.6,M,,*5D
$PYRTM,2024,123.669707788125,14.779355198264
$GPGGA,160421.00,3427.6063,N,12057.1868,W,1,11,0.8,5.6,M,-33.6,M,,*59
$PYRTM,2024,123.669719367002,14.779366777141
$GPGGA,160422.00,3427.6077,N,12057.1878,W,1,11,0.8,6.3,M,-33.6,M,,*58
$PYRTM,2024,123.669730939144,14.779378349282
$GPGGA,160423.00,3427.6089,N,12057.1886,W,1,11,0.8,6.2,M,-33.6,M,,*58
$PYRTM,2024,123.669742508970,14.779389919109
$GPGGA,160424.00,3427.6100,N,12057.1895,W,1,11,0.8,6.4,M,-33.6,M,,*5B
$PYRTM,2024,123.669754087616,14.779401497755
$GPGGA,160425.00,3427.6112,N,12057.1903,W,1,11,0.8,6.5,M,-33.6,M,,*56
$PYRTM,2024,123.669765658310,14.779413068449
$GPGGA,160426.00,3427.6123,N,12057.1907,W,1,11,0.8,6.8,M,-33.6,M,,*5E
$PYRTM,2024,123.669777233183,14.779424643322
$GPGGA,160427.00,3427.6136,N,12057.1910,W,1,11,0.8,7.2,M,-33.6,M,,*56
$PYRTM,2024,123.669788806400,14.779436216539
$GPGGA,160428.00,3427.6151,N,12057.1918,W,1,11,0.8,6.8,M,-33.6,M,,*5B
$PYRTM,2024,123.669800380880,14.779447791019
$GPGGA,160429.00,3427.6164,N,12057.1930,W,1,11,0.8,7.0,M,-33.6,M,,*5F
$PYRTM,2024,123.669811955382,14.779459365521
$GPGGA,160430.00,3427.6175,N,12057.1938,W,1,11,0.8,7.4,M,-33.6,M,,*5B
$PYRTM,2024,123.669823530498,14.779470940637
$GPGGA,160431.00,3427.6184,N,12057.1943,W,1,11,0.8,7.3,M,-33.6,M,,*5F
$PYRTM,2024,123.669835098218,14.779482508356
$GPGGA,160432.00,3427.6197,N,12057.1949,W,1,11,0.8,5.9,M,-33.6,M,,*5C
$PYRTM,2024,123.669846677095,14.779494087234
$GPGGA,160433.00,3427.6210,N,12057.1957,W,1,11,0.8,5.0,M,-33.6,M,,*57
$PYRTM,2024,123.669858250359,14.779505660509
$GPGGA,160434.00,3427.6221,N,12057.1963,W,1,11,0.8,4.9,M,-33.6,M,,*5D
$PYRTM,2024,123.669869825336,14.779517235475
$GPGGA,160435.00,3427.6231,N,12057.1968,W,1,11,0.8,5.1,M,-33.6,M,,*5F
$PYRTM,2024,123.669881398241,14.779528808380
$GPGGA,160436.00,3427.6245,N,12057.1976,W,1,11,0.8,5.0,M,-33.6,M,,*51
$PYRTM,2024,123.669892989294,14.779540399433
$GPGGA,160437.00,3427.6259,N,12057.1985,W,1,11,0.8,4.7,M,-33.6,M,,*57
$PYRTM,2024,123.669904547407,14.779551957546
$GPGGA,160438.00,3427.6271,N,12057.1988,W,1,11,0.8,5.3,M,-33.6,M,,*5A
$PYRTM,2024,123.669916137245,14.779563547384
$GPGGA,160439.00,3427.6280,N,12057.1988,W,1,11,0.8,5.3,M,-33.6,M,,*55
$PYRTM,2024,123.669927695556,14.779575105694
$GPGGA,160440.00,3427.6291,N,12057.1994,W,1,11,0.8,4.9,M,-33.6,M,,*5D
$PYRTM,2024,123.669939270683,14.779586680822
$GPGGA,160441.00,3427.6304,N,12057.2006,W,1,11,0.8,4.8,M,-33.6,M,,*51
$PYRTM,2024,123.669950843819,14.779598253958
$GPGGA,160442.00,3427.6315,N,12057.2014,W,1,11,0.8,4.9,M,-33.6,M,,*50
$PYRTM,2024,123.669962418275,14.779609828414
$GPGGA,160443.00,3427.6322,N,12057.2017,W,1,11,0.8,5.2,M,-33.6,M,,*5C
$PYRTM,2024,123.669973995822,14.779621405961
$GPGGA,160444.00,3427.6331,N,12057.2018,W,1,11,0.8,6.1,M,-33.6,M,,*56
$PYRTM,2024,123.669985567396,14.779632977535
$GPGGA,160445.00,3427.6346,N,12057.2025,W,1,11,0.8,6.5,M,-33.6,M,,*5D
$PYRTM,2024,123.669997140775,14.779644550926
$GPGGA,160446.00,3427.6359,N,12057.2036,W,1,11,0.8,7.2,M,-33.6,M,,*54
$PYRTM,2024,123.670008715243,14.779656125382
$GPGGA,160447.00,3427.6367,N,12057.2044,W,1,11,0.8,7.2,M,-33.6,M,,*5D
$PYRTM,2024,123.670020291806,14.779667701944
$GPGGA,160448.00,3427.6374,N,12057.2048,W,1,11,0.8,7.9,M,-33.6,M,,*57
$PYRTM,2024,123.670030476065,14.779677886204
$GPGGA,160449.00,3427.6383,N,12057.2053,W,1,11,0.8,8.6,M,-33.6,M,,*54
$PYRTM,2024,123.670042391100,14.779689801238
$GPGGA,160450.00,3427.6395,N,12057.2063,W,1,11,0.8,8.0,M,-33.6,M,,*5E
$PYRTM,2024,123.670055015081,14.779702425220
$GPGGA,160451.00,3427.6407,N,12057.2073,W,1,11,0.8,7.9,M,-33.6,M,,*54
$PYRTM,2024,123.670066584583,14.779713994722
$GPGGA,160452.00,3427.6415,N,12057.2082,W,1,11,0.8,8.2,M,-33.6,M,,*5E
$PYRTM,2024,123.670078173935,14.779725584074
$GPGGA,160453.00,3427.6420,N,12057.2089,W,1,11,0.8,8.7,M,-33.6,M,,*57
$PYRTM,2024,123.670089734155,14.779737144294
$GPGGA,160454.00,3427.6429,N,12057.2096,W,1,11,0.8,9.5,M,-33.6,M,,*54
$PYRTM,2024,123.670101322824,14.779748732975
$GPGGA,160455.00,3427.6444,N,12057.2101,W,1,11,0.8,10.3,M,-33.6,M,,*6F
$PYRTM,2024,123.670111951366,14.779759361516
$GPGGA,160456.00,3427.6457,N,12057.2104,W,1,11,0.8,9.8,M,-33.6,M,,*58
$PYRTM,2024,123.670123873264,14.779771283403
$GPGGA,160457.00,3427.6466,N,12057.2111,W,1,11,0.8,9.3,M,-33.6,M,,*54
$PYRTM,2024,123.670134645671,14.779782055810
$GPGGA,160458.00,3427.6473,N,12057.2124,W,1,11,0.8,8.3,M,-33.6,M,,*58
$PYRTM,2024,123.670146095694,14.779793505833
$GPGGA,160459.00,3427.6480,N,12057.2137,W,1,11,0.8,8.5,M,-33.6,M,,*51
$PYRTM,2024,123.670157206343,14.779804616481
$GPGGA,160500.00,3427.6493,N,12057.2142,W,1,11,0.8,10.2,M,-33.6,M,,*62
$PYRTM,2024,123.670168322465,14.779815732616
$GPGGA,160501.00,3427.6509,N,12057.2140,W,1,11,0.8,10.9,M,-33.6,M,,*68
$PYRTM,2024,123.670179433900,14.779826844039
$GPGGA,160502.00,3427.6523,N,12057.2142,W,1,11,0.8,8.4,M,-33.6,M,,*55
$PYRTM,2024,123.670190545359,14.779837955498
$GPGGA,160503.00,3427.6530,N,12057.2153,W,1,11,0.8,8.2,M,-33.6,M,,*50
$PYRTM,2024,123.670201656250,14.779849066389
$GPGGA,160504.00,3427.6536,N,12057.2169,W,1,11,0.8,7.3,M,-33.6,M,,*56
$PYRTM,2024,123.670212768287,14.779860178426
$GPGGA,160505.00,3427.6546,N,12057.2181,W,1,11,0.8,6.3,M,-33.6,M,,*57
$PYRTM,2024,123.670223762650,14.779871172789
$GPGGA,160506.00,3427.6559,N,12057.2182,W,1,11,0.8,6.1,M,-33.6,M,,*5B
$PYRTM,2024,123.670234870058,14.779882280197
$GPGGA,160507.00,3427.6569,N,12057.2179,W,1,11,0.8,6.7,M,-33.6,M,,*5B
$PYRTM,2024,123.670246435683,14.779893845833
$GPGGA,160508.00,3427.6579,N,12057.2182,W,1,11,0.8,7.2,M,-33.6,M,,*55
$PYRTM,2024,123.670258022049,14.779905432187
$GPGGA,160509.00,3427.6591,N,12057.2192,W,1,11,0.8,7.1,M,-33.6,M,,*50
$PYRTM,2024,123.670269584826,14.779916994965
$GPGGA,160510.00,3427.6605,N,12057.2201,W,1,11,0.8,6.2,M,-33.6,M,,*5D
$PYRTM,2024,123.670281165231,14.779928575370
$GPGGA,160511.00,3427.6616,N,12057.2205,W,1,11,0.8,6.3,M,-33.6,M,,*5B
$PYRTM,2024,123.670292732731,14.779940142870
$GPGGA,160512.00,3427.6624,N,12057.2210,W,1,11,0.8,5.9,M,-33.6,M,,*54
$PYRTM,2024,123.670304319340,14.779951729479
$GPGGA,160513.00,3427.6632,N,12057.2217,W,1,11,0.8,6.3,M,-33.6,M,,*5C
$PYRTM,2024,123.670315880949,14.779963291088
$GPGGA,160514.00,3427.6645,N,12057.2224,W,1,11,0.8,7.4,M,-33.6,M,,*5D
$PYRTM,2024,123.670327468322,14.779974878461
$GPGGA,160515.00,3427.6661,N,12057.2228,W,1,11,0.8,7.1,M,-33.6,M,,*53
$PYRTM,2024,123.670339030081,14.779986440220
$GPGGA,160516.00,3427.6673,N,12057.2235,W,1,11,0.8,5.8,M,-33.6,M,,*54
$PYRTM,2024,123.670350631481,14.779998041632
$GPGGA,160517.00,3427.6683,N,12057.2247,W,1,11,0.8,5.3,M,-33.6,M,,*54
$PYRTM,2024,123.670362178032,14.780009588171
$GPGGA,160518.00,3427.6693,N,12057.2260,W,1,11,0.8,4.5,M,-33.6,M,,*58
$PYRTM,2024,123.670379088160,14.780026498310
$GPGGA,160519.00,3427.6703,N,12057.2264,W,1,11,0.8,4.5,M,-33.6,M,,*55
$PYRTM,2024,123.670390661042,14.780038071181
$GPGGA,160520.00,3427.6717,N,12057.2261,W,1,11,0.8,5.6,M,-33.6,M,,*5D
$PYRTM,2024,123.670402250810,14.780049660949
$GPGGA,160521.00,3427.6732,N,12057.2262,W,1,11,0.8,5.5,M,-33.6,M,,*5B
$PYRTM,2024,123.670413809201,14.780061219340
$GPGGA,160522.00,3427.6743,N,12057.2272,W,1,11,0.8,5.3,M,-33.6,M,,*59
$PYRTM,2024,123.670425398542,14.780072808681
$GPGGA,160523.00,3427.6752,N,12057.2285,W,1,11,0.8,4.5,M,-33.6,M,,*57
$PYRTM,2024,123.670436957083,14.780084367222
$GPGGA,160524.00,3427.6764,N,12057.2293,W,1,11,0.8,4.4,M,-33.6,M,,*53
$PYRTM,2024,123.670448531771,14.780095941910
$GPGGA,160525.00,3427.6779,N,12057.2298,W,1,11,0.8,4.4,M,-33.6,M,,*55
$PYRTM,2024,123.670460106852,14.780107516991
$GPGGA,160526.00,3427.6793,N,12057.2302,W,1,11,0.8,5.0,M,-33.6,M,,*55
$PYRTM,2024,123.670471681331,14.780119091470
$GPGGA,160527.00,3427.6805,N,12057.2306,W,1,11,0.8,5.9,M,-33.6,M,,*59
$PYRTM,2024,123.670483250185,14.780130660324
$GPGGA,160528.00,3427.6816,N,12057.2312,W,1,11,0.8,7.3,M,-33.6,M,,*59
$PYRTM,2024,123.670494829236,14.780142239375
$GPGGA,160529.00,3427.6830,N,12057.2319,W,1,11,0.8,8.9,M,-33.6,M,,*52
$PYRTM,2024,123.670506403218,14.780153813356
$GPGGA,160530.00,3427.6843,N,12057.2328,W,1,11,0.8,8.1,M,-33.6,M,,*54
$PYRTM,2024,123.670517973484,14.780165383623
$GPGGA,160531.00,3427.6854,N,12057.2338,W,1,11,0.8,6.5,M,-33.6,M,,*58
$PYRTM,2024,123.670529552037,14.780176962176
$GPGGA,160532.00,3427.6866,N,12057.2345,W,1,11,0.8,4.2,M,-33.6,M,,*55
$PYRTM,2024,123.670541139850,14.780188549988
$GPGGA,160533.00,3427.6878,N,12057.2347,W,1,11,0.8,3.8,M,-33.6,M,,*54
$PYRTM,2024,123.670552700139,14.780200110289
$GPGGA,160534.00,3427.6891,N,12057.2350,W,1,11,0.8,6.5,M,-33.6,M,,*5A
$PYRTM,2024,123.670564276956,14.780211687095
$GPGGA,160535.00,3427.6903,N,12057.2358,W,1,11,0.8,4.8,M,-33.6,M,,*56
$PYRTM,2024,123.670575847407,14.780223257546
$GPGGA,160536.00,3427.6917,N,12057.2369,W,1,11,0.8,4.8,M,-33.6,M,,*52
$PYRTM,2024,123.670587424942,14.780234835081
$GPGGA,160537.00,3427.6929,N,12057.2380,W,1,11,0.8,6.1,M,-33.6,M,,*52
$PYRTM,2024,123.670598990706,14.780246400845
$GPGGA,160538.00,3427.6940,N,12057.2387,W,1,11,0.8,7.1,M,-33.6,M,,*54
$PYRTM,2024,123.670610570336,14.780257980475
$GPGGA,160539.00,3427.6952,N,12057.2395,W,1,11,0.8,7.4,M,-33.6,M,,*50
$PYRTM,2024,123.670622143808,14.780269553947
$GPGGA,160540.00,3427.6966,N,12057.2404,W,1,11,0.8,7.8,M,-33.6,M,,*5A
$PYRTM,2024,123.670633714271,14.780281124421
$GPGGA,160541.00,3427.6979,N,12057.2412,W,1,11,0.8,7.4,M,-33.6,M,,*5E
$PYRTM,2024,123.670645293773,14.780292703912
$GPGGA,160542.00,3427.6991,N,12057.2418,W,1,11,0.8,8.3,M,-33.6,M,,*59
$PYRTM,2024,123.670656870787,14.780304280926
$GPGGA,160543.00,3427.7001,N,12057.2424,W,1,11,0.8,9.2,M,-33.6,M,,*56
$PYRTM,2024,123.670668441875,14.780315852014
$GPGGA,160544.00,3427.7013,N,12057.2435,W,1,11,0.8,9.0,M,-33.6,M,,*50
$PYRTM,2024,123.670680014977,14.780327425116
$GPGGA,160545.00,3427.7027,N,12057.2448,W,1,11,0.8,6.8,M,-33.6,M,,*5B
$PYRTM,2024,123.670691590278,14.780339000417
$GPGGA,160546.00,3427.7039,N,12057.2455,W,1,11,0.8,5.7,M,-33.6,M,,*57
$PYRTM,2024,123.670703165301,14.780350575440
$GPGGA,160547.00,3427.7048,N,12057.2454,W,1,11,0.8,4.8,M,-33.6,M,,*5F
$PYRTM,2024,123.670714738727,14.780362148866
$GPGGA,160548.00,3427.7059,N,12057.2455,W,1,11,0.8,5.5,M,-33.6,M,,*5D
$PYRTM,2024,123.670725390949,14.780372801088
$GPGGA,160549.00,3427.7073,N,12057.2464,W,1,11,0.8,4.5,M,-33.6,M,,*57
$PYRTM,2024,123.670736845058,14.780384255197
$GPGGA,160550.00,3427.7085,N,12057.2478,W,1,11,0.8,3.5,M,-33.6,M,,*5C
$PYRTM,2024,123.670749474294,14.780396884433
$GPGGA,160551.00,3427.7094,N,12057.2487,W,1,11,0.8,3.1,M,-33.6,M,,*59
$PYRTM,2024,123.670761034225,14.780408444363
$GPGGA,160552.00,3427.7104,N,12057.2486,W,1,11,0.8,3.9,M,-33.6,M,,*5B
$PYRTM,2024,123.670772609641,14.780420019780
$GPGGA,160553.00,3427.7119,N,12057.2487,W,1,11,0.8,5.5,M,-33.6,M,,*5D
$PYRTM,2024,123.670784183171,14.780431593310
$GPGGA,160554.00,3427.7134,N,12057.2494,W,1,11,0.8,6.0,M,-33.6,M,,*51
$PYRTM,2024,123.670795759190,14.780443169329
$GPGGA,160555.00,3427.7148,N,12057.2508,W,1,11,0.8,7.7,M,-33.6,M,,*59
$PYRTM,2024,123.670807330069,14.780454740208
$GPGGA,160556.00,3427.7157,N,12057.2518,W,1,11,0.8,6.8,M,-33.6,M,,*5B
$PYRTM,2024,123.670818905961,14.780466316100
$GPGGA,160557.00,3427.7167,N,12057.2520,W,1,11,0.8,6.6,M,-33.6,M,,*5C
$PYRTM,2024,123.670829437118,14.780476847257
$GPGGA,160558.00,3427.7180,N,12057.2518,W,1,11,0.8,6.1,M,-33.6,M,,*56
$PYRTM,2024,123.670842054248,14.780489464387
$GPGGA,160559.00,3427.7196,N,12057.2524,W,1,11,0.8,6.5,M,-33.6,M,,*5B
$PYRTM,2024,123.670853627373,14.780501037523
$GPGGA,160600.00,3427.7207,N,12057.2535,W,1,11,0.8,6.9,M,-33.6,M,,*53
$PYRTM,2024,123.670865200590,14.780512610729
$GPGGA,160601.00,3427.7212,N,12057.2543,W,1,11,0.8,6.6,M,-33.6,M,,*58
$PYRTM,2024,123.670876775498,14.780524185648
$GPGGA,160602.00,3427.7220,N,12057.2549,W,1,11,0.8,6.6,M,-33.6,M,,*50
$PYRTM,2024,123.670888352905,14.780535763044
$GPGGA,160603.00,3427.7234,N,12057.2553,W,1,11,0.8,7.0,M,-33.6,M,,*58
$PYRTM,2024,123.670899919120,14.780547329259
$GPGGA,160604.00,3427.7249,N,12057.2557,W,1,11,0.8,5.7,M,-33.6,M,,*54
$PYRTM,2024,123.670911514931,14.780558925069
$GPGGA,160605.00,3427.7258,N,12057.2562,W,1,11,0.8,5.7,M,-33.6,M,,*53
$PYRTM,2024,123.670923072014,14.780570482153
$GPGGA,160606.00,3427.7265,N,12057.2568,W,1,11,0.8,5.8,M,-33.6,M,,*5B
$PYRTM,2024,123.670934646319,14.780582056458
$GPGGA,160607.00,3427.7277,N,12057.2575,W,1,11,0.8,4.7,M,-33.6,M,,*5B
$PYRTM,2024,123.670946219803,14.780593629942
$GPGGA,160608.00,3427.7291,N,12057.2583,W,1,11,0.8,4.2,M,-33.6,M,,*50
$PYRTM,2024,123.670957794653,14.780605204792
$GPGGA,160609.00,3427.7301,N,12057.2587,W,1,11,0.8,4.0,M,-33.6,M,,*5F
$PYRTM,2024,123.670969369259,14.780616779398
$GPGGA,160610.00,3427.7306,N,12057.2588,W,1,11,0.8,4.2,M,-33.6,M,,*5D
$PYRTM,2024,123.670980942199,14.780628352338
$GPGGA,160611.00,3427.7313,N,12057.2593,W,1,11,0.8,3.6,M,-33.6,M,,*51
$PYRTM,2024,123.670992517720,14.780639927859
$GPGGA,160612.00,3427.7325,N,12057.2601,W,1,11,0.8,3.4,M,-33.6,M,,*5D
$PYRTM,2024,123.671004091863,14.780651502014
$GPGGA,160613.00,3427.7336,N,12057.2608,W,1,11,0.8,3.0,M,-33.6,M,,*53
$PYRTM,2024,123.671015664803,14.780663074942
$GPGGA,160614.00,3427.7344,N,12057.2611,W,1,11,0.8,3.1,M,-33.6,M,,*58
$PYRTM,2024,123.671027240903,14.780674651042
$GPGGA,160615.00,3427.7350,N,12057.2615,W,1,11,0.8,3.1,M,-33.6,M,,*58
$PYRTM,2024,123.671038808981,14.780686219120
$GPGGA,160616.00,3427.7358,N,12057.2623,W,1,11,0.8,3.5,M,-33.6,M,,*52
$PYRTM,2024,123.671050389699,14.780697799838
$GPGGA,160617.00,3427.7370,N,12057.2631,W,1,11,0.8,2.8,M,-33.6,M,,*56
$PYRTM,2024,123.671061961285,14.780709371424
$GPGGA,160618.00,3427.7381,N,12057.2637,W,1,11,0.8,3.0,M,-33.6,M,,*58
$PYRTM,2024,123.671072141562,14.780719551701
$GPGGA,160619.00,3427.7388,N,12057.2641,W,1,11,0.8,2.9,M,-33.6,M,,*59
$PYRTM,2024,123.671084067743,14.780731477894
$GPGGA,160620.00,3427.7397,N,12057.2644,W,1,11,0.8,3.2,M,-33.6,M,,*52
$PYRTM,2024,123.671096686308,14.780744096447
$GPGGA,160621.00,3427.7407,N,12057.2649,W,1,11,0.8,3.4,M,-33.6,M,,*56
$PYRTM,2024,123.671108258553,14.780755668692
$GPGGA,160622.00,3427.7418,N,12057.2658,W,1,11,0.8,3.3,M,-33.6,M,,*5C
$PYRTM,2024,123.671119833333,14.780767243472
$GPGGA,160623.00,3427.7427,N,12057.2666,W,1,11,0.8,3.1,M,-33.6,M,,*5E
$PYRTM,2024,123.671131403229,14.780778813368
$GPGGA,160624.00,3427.7436,N,12057.2672,W,1,11,0.8,3.6,M,-33.6,M,,*5B
$PYRTM,2024,123.671142975764,14.780790385903
$GPGGA,160625.00,3427.7445,N,12057.2677,W,1,11,0.8,4.3,M,-33.6,M,,*59
$PYRTM,2024,123.671154554387,14.780801964525
$GPGGA,160626.00,3427.7455,N,12057.2685,W,1,11,0.8,4.8,M,-33.6,M,,*5D
$PYRTM,2024,123.671166131609,14.780813541748
$GPGGA,160627.00,3427.7468,N,12057.2693,W,1,11,0.8,5.1,M,-33.6,M,,*5D
$PYRTM,2024,123.671177703866,14.780825114005
$GPGGA,160628.00,3427.7480,N,12057.2699,W,1,11,0.8,4.2,M,-33.6,M,,*5C
$PYRTM,2024,123.671189272581,14.780836682720
$GPGGA,160629.00,3427.7491,N,12057.2703,W,1,11,0.8,4.5,M,-33.6,M,,*58
$PYRTM,2024,123.671200851250,14.780848261389
$GPGGA,160630.00,3427.7504,N,12057.2712,W,1,11,0.8,4.0,M,-33.6,M,,*58
$PYRTM,2024,123.671212439757,14.780859849896
$GPGGA,160631.00,3427.7514,N,12057.2722,W,1,11,0.8,4.1,M,-33.6,M,,*5A
$PYRTM,2024,123.671224001389,14.780871411528
$GPGGA,160632.00,3427.7524,N,12057.2728,W,1,11,0.8,2.9,M,-33.6,M,,*5E
$PYRTM,2024,123.671235576296,14.780882986447
$GPGGA,160633.00,3427.7537,N,12057.2730,W,1,11,0.8,1.5,M,-33.6,M,,*5B
$PYRTM,2024,123.671247147963,14.780894558102
$GPGGA,160634.00,3427.7551,N,12057.2733,W,1,11,0.8,1.9,M,-33.6,M,,*53
$PYRTM,2024,123.671258722234,14.780906132373
$GPGGA,160635.00,3427.7561,N,12057.2742,W,1,11,0.8,5.8,M,-33.6,M,,*52
$PYRTM,2024,123.671270297870,14.780917708009
$GPGGA,160636.00,3427.7570,N,12057.2756,W,1,11,0.8,6.3,M,-33.6,M,,*5C
$PYRTM,2024,123.671281870486,14.780929280625
$GPGGA,160637.00,3427.7581,N,12057.2764,W,1,11,0.8,4.9,M,-33.6,M,,*5A
$PYRTM,2024,123.671293445532,14.780940855671
$GPGGA,160638.00,3427.7592,N,12057.2762,W,1,11,0.8,4.6,M,-33.6,M,,*5E
$PYRTM,2024,123.671305019549,14.780952429687
$GPGGA,160639.00,3427.7606,N,12057.2760,W,1,11,0.8,4.1,M,-33.6,M,,*54
$PYRTM,2024,123.671316591979,14.780964002118
$GPGGA,160640.00,3427.7620,N,12057.2769,W,1,11,0.8,4.3,M,-33.6,M,,*55
$PYRTM,2024,123.671328167477,14.780975577616
$GPGGA,160641.00,3427.7633,N,12057.2785,W,1,11,0.8,2.7,M,-33.6,M,,*56
$PYRTM,2024,123.671339736574,14.780987146713
$GPGGA,160642.00,3427.7644,N,12057.2794,W,1,11,0.8,3.9,M,-33.6,M,,*5A
$PYRTM,2024,123.671351316088,14.780998726227
$GPGGA,160643.00,3427.7655,N,12057.2792,W,1,11,0.8,4.4,M,-33.6,M,,*57
$PYRTM,2024,123.671362889086,14.781010299225
$GPGGA,160644.00,3427.7670,N,12057.2790,W,1,11,0.8,5.3,M,-33.6,M,,*53
$PYRTM,2024,123.671374466019,14.781021876157
$GPGGA,160645.00,3427.7685,N,12057.2798,W,1,11,0.8,5.5,M,-33.6,M,,*56
$PYRTM,2024,123.671386038900,14.781033449039
$GPGGA,160646.00,3427.7695,N,12057.2814,W,1,11,0.8,4.1,M,-33.6,M,,*5A
$PYRTM,2024,123.671397614757,14.781045024896
$GPGGA,160647.00,3427.7702,N,12057.2826,W,1,11,0.8,3.2,M,-33.6,M,,*51
$PYRTM,2024,123.671409185150,14.781056595289
$GPGGA,160648.00,3427.7713,N,12057.2829,W,1,11,0.8,3.2,M,-33.6,M,,*51
$PYRTM,2024,123.671419370243,14.781066780382
$GPGGA,160649.00,3427.7727,N,12057.2827,W,1,11,0.8,3.8,M,-33.6,M,,*53
$PYRTM,2024,123.671431300220,14.781078710359
$GPGGA,160650.00,3427.7742,N,12057.2830,W,1,11,0.8,3.6,M,-33.6,M,,*50
$PYRTM,2024,123.671443908275,14.781091318414
$GPGGA,160651.00,3427.7754,N,12057.2843,W,1,11,0.8,2.6,M,-33.6,M,,*53
$PYRTM,2024,123.671455482569,14.781102892708
$GPGGA,160652.00,3427.7761,N,12057.2854,W,1,11,0.8,3.0,M,-33.6,M,,*57
$PYRTM,2024,123.671467057523,14.781114467662
$GPGGA,160653.00,3427.7768,N,12057.2861,W,1,11,0.8,3.8,M,-33.6,M,,*51
$PYRTM,2024,123.671478630428,14.781126040567
$GPGGA,160654.00,3427.7779,N,12057.2865,W,1,11,0.8,4.1,M,-33.6,M,,*5C
$PYRTM,2024,123.671490205012,14.781137615150
$GPGGA,160655.00,3427.7794,N,12057.2868,W,1,11,0.8,3.5,M,-33.6,M,,*50
$PYRTM,2024,123.671501780104,14.781149190243
$GPGGA,160656.00,3427.7806,N,12057.2874,W,1,11,0.8,3.7,M,-33.6,M,,*58
$PYRTM,2024,123.671513353519,14.781160763657
$GPGGA,160657.00,3427.7814,N,12057.2885,W,1,11,0.8,3.7,M,-33.6,M,,*54
$PYRTM,2024,123.671524926817,14.781172336956
$GPGGA,160658.00,3427.7823,N,12057.2899,W,1,11,0.8,4.2,M,-33.6,M,,*50
$PYRTM,2024,123.671536502523,14.781183912662
$GPGGA,160659.00,3427.7835,N,12057.2907,W,1,11,0.8,3.9,M,-33.6,M,,*5C
$PYRTM,2024,123.671548075961,14.781195486100
$GPGGA,160700.00,3427.7848,N,12057.2911,W,1,11,0.8,3.8,M,-33.6,M,,*5D
$PYRTM,2024,123.671558738819,14.781206148958
$GPGGA,160701.00,3427.7861,N,12057.2915,W,1,11,0.8,4.0,M,-33.6,M,,*5C
$PYRTM,2024,123.671570631007,14.781218041146
$GPGGA,160702.00,3427.7873,N,12057.2924,W,1,11,0.8,4.0,M,-33.6,M,,*5E
$PYRTM,2024,123.671579441632,14.781226851771
$GPGGA,160703.00,3427.7884,N,12057.2935,W,1,11,0.8,3.5,M,-33.6,M,,*55
$PYRTM,2024,123.671597160625,14.781244570764
$GPGGA,160704.00,3427.7895,N,12057.2943,W,1,11,0.8,3.5,M,-33.6,M,,*53
$PYRTM,2024,123.671608133252,14.781255543391
$GPGGA,160705.00,3427.7908,N,12057.2950,W,1,11,0.8,3.7,M,-33.6,M,,*57
$PYRTM,2024,123.671619255949,14.781266666100
$GPGGA,160706.00,3427.7921,N,12057.2956,W,1,11,0.8,4.0,M,-33.6,M,,*59
$PYRTM,2024,123.671630356354,14.781277766493
$GPGGA,160707.00,3427.7933,N,12057.2962,W,1,11,0.8,4.6,M,-33.6,M,,*5A
$PYRTM,2024,123.671641474028,14.781288884167
$GPGGA,160708.00,3427.7946,N,12057.2971,W,1,11,0.8,5.1,M,-33.6,M,,*53
$PYRTM,2024,123.671652590255,14.781300000394
$GPGGA,160709.00,3427.7958,N,12057.2983,W,1,11,0.8,4.6,M,-33.6,M,,*56
$PYRTM,2024,123.671663697072,14.781311107211
$GPGGA,160710.00,3427.7969,N,12057.2991,W,1,11,0.8,4.5,M,-33.6,M,,*5C
$PYRTM,2024,123.671674808102,14.781322218241
$GPGGA,160711.00,3427.7980,N,12057.2996,W,1,11,0.8,3.1,M,-33.6,M,,*5E
$PYRTM,2024,123.671686373368,14.781333783507
$GPGGA,160712.00,3427.7994,N,12057.3003,W,1,11,0.8,4.2,M,-33.6,M,,*58
$PYRTM,2024,123.671697956273,14.781345366424
$GPGGA,160713.00,3427.8006,N,12057.3013,W,1,11,0.8,3.3,M,-33.6,M,,*53
$PYRTM,2024,123.671709519479,14.781356929618
$GPGGA,160714.00,3427.8016,N,12057.3023,W,1,11,0.8,3.4,M,-33.6,M,,*51
$PYRTM,2024,123.671721108530,14.781368518669
$GPGGA,160715.00,3427.8027,N,12057.3028,W,1,11,0.8,4.6,M,-33.6,M,,*5C
$PYRTM,2024,123.671735445856,14.781382855995
$GPGGA,160716.00,3427.8038,N,12057.3031,W,1,11,0.8,4.0,M,-33.6,M,,*5F
$PYRTM,2024,123.671746557685,14.781393967824
$GPGGA,160717.00,3427.8052,N,12057.3040,W,1,11,0.8,2.6,M,-33.6,M,,*54
$PYRTM,2024,123.671757668171,14.781405078310
$GPGGA,160718.00,3427.8065,N,12057.3054,W,1,11,0.8,1.8,M,-33.6,M,,*57
$PYRTM,2024,123.671768665544,14.781416075683
$GPGGA,160719.00,3427.8077,N,12057.3066,W,1,11,0.8,2.3,M,-33.6,M,,*5C
$PYRTM,2024,123.671791133611,14.781438543750
$GPGGA,160720.00,3427.8088,N,12057.3071,W,1,11,0.8,3.0,M,-33.6,M,,*52
$PYRTM,2024,123.671802246620,14.781449656759
$GPGGA,160721.00,3427.8101,N,12057.3073,W,1,11,0.8,3.6,M,-33.6,M,,*57
$PYRTM,2024,123.671813355231,14.781460765370
$GPGGA,160722.00,3427.8115,N,12057.3078,W,1,11,0.8,4.7,M,-33.6,M,,*5C
$PYRTM,2024,123.671824336968,14.781471747106
$GPGGA,160723.00,3427.8130,N,12057.3084,W,1,11,0.8,4.6,M,-33.6,M,,*58
$PYRTM,2024,123.671835447049,14.781482857188
$GPGGA,160724.00,3427.8142,N,12057.3095,W,1,11,0.8,4.4,M,-33.6,M,,*58
$PYRTM,2024,123.671846559896,14.781493970035
$GPGGA,160725.00,3427.8152,N,12057.3106,W,1,11,0.8,3.8,M,-33.6,M,,*58
$PYRTM,2024,123.671857669618,14.781505079757
$GPGGA,160726.00,3427.8162,N,12057.3113,W,1,11,0.8,3.9,M,-33.6,M,,*5D
$PYRTM,2024,123.671868780370,14.781516190509
$GPGGA,160727.00,3427.8176,N,12057.3117,W,1,11,0.8,3.0,M,-33.6,M,,*54
$PYRTM,2024,123.671879893299,14.781527303437
$GPGGA,160728.00,3427.8193,N,12057.3122,W,1,11,0.8,3.1,M,-33.6,M,,*57
$PYRTM,2024,123.671891365590,14.781538775729
$GPGGA,160729.00,3427.8207,N,12057.3130,W,1,11,0.8,4.2,M,-33.6,M,,*5F
$PYRTM,2024,123.671902476053,14.781549886192
$GPGGA,160730.00,3427.8216,N,12057.3141,W,1,11,0.8,5.0,M,-33.6,M,,*52
$PYRTM,2024,123.671913587315,14.781560997454
$GPGGA,160731.00,3427.8228,N,12057.3150,W,1,11,0.8,4.3,M,-33.6,M,,*5C
$PYRTM,2024,123.671924699097,14.781572109236
$GPGGA,160732.00,3427.8242,N,12057.3156,W,1,11,0.8,2.8,M,-33.6,M,,*58
$PYRTM,2024,123.671935824063,14.781583234201
$GPGGA,160733.00,3427.8256,N,12057.3163,W,1,11,0.8,2.5,M,-33.6,M,,*57
$PYRTM,2024,123.671946804398,14.781594214537
$GPGGA,160734.00,3427.8268,N,12057.3172,W,1,11,0.8,2.5,M,-33.6,M,,*5D
$PYRTM,2024,123.671957915289,14.781605325428
$GPGGA,160735.00,3427.8279,N,12057.3182,W,1,11,0.8,1.3,M,-33.6,M,,*56
$PYRTM,2024,123.671969027859,14.781616437998
$GPGGA,160736.00,3427.8293,N,12057.3190,W,1,11,0.8,2.9,M,-33.6,M,,*5B
$PYRTM,2024,123.671980138611,14.781627548750
$GPGGA,160737.00,3427.8306,N,12057.3194,W,1,11,0.8,3.5,M,-33.6,M,,*5E
$PYRTM,2024,123.671991252477,14.781638662616
$GPGGA,160738.00,3427.8319,N,12057.3199,W,1,11,0.8,2.7,M,-33.6,M,,*51
$PYRTM,2024,123.672002361377,14.781649771516
$GPGGA,160739.00,3427.8332,N,12057.3211,W,1,11,0.8,1.7,M,-33.6,M,,*59
$PYRTM,2024,123.672013457708,14.781660867847
$GPGGA,160740.00,3427.8343,N,12057.3224,W,1,11,0.8,0.3,M,-33.6,M,,*52
$PYRTM,2024,123.672024582894,14.781671993032
$GPGGA,160741.00,3427.8354,N,12057.3233,W,1,11,0.8,-0.6,M,-33.6,M,,*7B
$PYRTM,2024,123.672035681933,14.781683092072
$GPGGA,160742.00,3427.8368,N,12057.3237,W,1,11,0.8,0.9,M,-33.6,M,,*51
$PYRTM,2024,123.672047141713,14.781694551852
$GPGGA,160743.00,3427.8382,N,12057.3242,W,1,11,0.8,2.2,M,-33.6,M,,*5F
$PYRTM,2024,123.672058262824,14.781705672963
$GPGGA,160744.00,3427.8396,N,12057.3251,W,1,11,0.8,4.2,M,-33.6,M,,*59
$PYRTM,2024,123.672069376296,14.781716786435
$GPGGA,160745.00,3427.8408,N,12057.3263,W,1,11,0.8,4.8,M,-33.6,M,,*53
$PYRTM,2024,123.672080705324,14.781728115463
$GPGGA,160746.00,3427.8420,N,12057.3277,W,1,11,0.8,5.9,M,-33.6,M,,*5F
$PYRTM,2024,123.672092060278,14.781739470417
$GPGGA,160747.00,3427.8434,N,12057.3289,W,1,11,0.8,6.0,M,-33.6,M,,*50
$PYRTM,2024,123.672102591331,14.781750001470
$GPGGA,160748.00,3427.8449,N,12057.3295,W,1,11,0.8,6.0,M,-33.6,M,,*58
$PYRTM,2024,123.672113819850,14.781761229988
$GPGGA,160749.00,3427.8463,N,12057.3298,W,1,11,0.8,5.7,M,-33.6,M,,*58
$PYRTM,2024,123.672125740556,14.781773150706
$GPGGA,160750.00,3427.8478,N,12057.3305,W,1,11,0.8,4.2,M,-33.6,M,,*5B
$PYRTM,2024,123.672138356979,14.781785767118
$GPGGA,160751.00,3427.8492,N,12057.3318,W,1,11,0.8,4.2,M,-33.6,M,,*52
$PYRTM,2024,123.672149926100,14.781797336250
$GPGGA,160752.00,3427.8505,N,12057.3332,W,1,11,0.8,4.6,M,-33.6,M,,*52
$PYRTM,2024,123.672160451007,14.781807861146
$GPGGA,160753.00,3427.8517,N,12057.3342,W,1,11,0.8,4.1,M,-33.6,M,,*50
$PYRTM,2024,123.672173078519,14.781820488646
$GPGGA,160754.00,3427.8532,N,12057.3344,W,1,11,0.8,5.5,M,-33.6,M,,*53
$PYRTM,2024,123.672184654433,14.781832064572
$GPGGA,160755.00,3427.8550,N,12057.3345,W,1,11,0.8,5.2,M,-33.6,M,,*50
$PYRTM,2024,123.672196226840,14.781843636979
$GPGGA,160756.00,3427.8565,N,12057.3356,W,1,11,0.8,3.6,M,-33.6,M,,*55
$PYRTM,2024,123.672207802014,14.781855212153
$GPGGA,160757.00,3427.8576,N,12057.3372,W,1,11,0.8,3.4,M,-33.6,M,,*52
$PYRTM,2024,123.672219375081,14.781866785220
$GPGGA,160758.00,3427.8588,N,12057.3385,W,1,11,0.8,3.8,M,-33.6,M,,*58
$PYRTM,2024,123.672230952616,14.781878362755
$GPGGA,160759.00,3427.8605,N,12057.3391,W,1,11,0.8,1.8,M,-33.6,M,,*58
$PYRTM,2024,123.672242524132,14.781889934271
$GPGGA,160800.00,3427.8620,N,12057.3395,W,1,11,0.8,3.0,M,-33.6,M,,*52
$PYRTM,2024,123.672254098102,14.781901508252
$GPGGA,160801.00,3427.8634,N,12057.3404,W,1,11,0.8,2.8,M,-33.6,M,,*50
$PYRTM,2024,123.672265672454,14.781913082604
$GPGGA,160802.00,3427.8647,N,12057.3416,W,1,11,0.8,2.8,M,-33.6,M,,*54
$PYRTM,2024,123.672277245417,14.781924655556
$GPGGA,160803.00,3427.8659,N,12057.3428,W,1,11,0.8,2.7,M,-33.6,M,,*58
$PYRTM,2024,123.672288815278,14.781936225417
$GPGGA,160804.00,3427.8672,N,12057.3437,W,1,11,0.8,2.8,M,-33.6,M,,*57
$PYRTM,2024,123.672300390706,14.781947800845
$GPGGA,160805.00,3427.8688,N,12057.3445,W,1,11,0.8,0.6,M,-33.6,M,,*5A
$PYRTM,2024,123.672311968553,14.781959378692
$GPGGA,160806.00,3427.8704,N,12057.3450,W,1,11,0.8,3.6,M,-33.6,M,,*5B
$PYRTM,2024,123.672323543056,14.781970953194
$GPGGA,160807.00,3427.8719,N,12057.3455,W,1,11,0.8,4.9,M,-33.6,M,,*5B
$PYRTM,2024,123.672335118009,14.781982528148
$GPGGA,160808.00,3427.8729,N,12057.3462,W,1,11,0.8,5.1,M,-33.6,M,,*5A
$PYRTM,2024,123.672346691123,14.781994101262
$GPGGA,160809.00,3427.8740,N,12057.3475,W,1,11,0.8,5.3,M,-33.6,M,,*50
$PYRTM,2024,123.672358264757,14.782005674896
$GPGGA,160810.00,3427.8753,N,12057.3489,W,1,11,0.8,4.1,M,-33.6,M,,*5A
$PYRTM,2024,123.672369854167,14.782017264306
$GPGGA,160811.00,3427.8766,N,12057.3498,W,1,11,0.8,3.5,M,-33.6,M,,*5E
$PYRTM,2024,123.672381414491,14.782028824630
$GPGGA,160812.00,3427.8777,N,12057.3502,W,1,11,0.8,4.4,M,-33.6,M,,*59
$PYRTM,2024,123.672393002025,14.782040412164
$GPGGA,160813.00,3427.8789,N,12057.3503,W,1,11,0.8,6.0,M,-33.6,M,,*5E
$PYRTM,2024,123.672404562465,14.782051972604
$GPGGA,160814.00,3427.8804,N,12057.3511,W,1,11,0.8,5.0,M,-33.6,M,,*53
$PYRTM,2024,123.672416149259,14.782063559398
$GPGGA,160815.00,3427.8818,N,12057.3525,W,1,11,0.8,7.1,M,-33.6,M,,*5B
$PYRTM,2024,123.672427711285,14.782075121424
$GPGGA,160816.00,3427.8830,N,12057.3536,W,1,11,0.8,6.4,M,-33.6,M,,*54
$PYRTM,2024,123.672439286285,14.782086696424
$GPGGA,160817.00,3427.8843,N,12057.3539,W,1,11,0.8,5.6,M,-33.6,M,,*5F
$PYRTM,2024,123.672450859086,14.782098269225
$GPGGA,160818.00,3427.8858,N,12057.3542,W,1,11,0.8,6.7,M,-33.6,M,,*54
$PYRTM,2024,123.672461506875,14.782108917014
$GPGGA,160819.00,3427.8875,N,12057.3549,W,1,11,0.8,8.3,M,-33.6,M,,*5B
$PYRTM,2024,123.672472964109,14.782120374248
$GPGGA,160820.00,3427.8888,N,12057.3559,W,1,11,0.8,6.9,M,-33.6,M,,*56
$PYRTM,2024,123.672485580961,14.782132991100
$GPGGA,160821.00,3427.8898,N,12057.3569,W,1,11,0.8,6.8,M,-33.6,M,,*54
$PYRTM,2024,123.672497155590,14.782144565729
$GPGGA,160822.00,3427.8912,N,12057.3577,W,1,11,0.8,6.6,M,-33.6,M,,*55
$PYRTM,2024,123.672508730289,14.782156140428
$GPGGA,160823.00,3427.8929,N,12057.3586,W,1,11,0.8,7.4,M,-33.6,M,,*51
$PYRTM,2024,123.672520304537,14.782167714676
$GPGGA,160824.00,3427.8943,N,12057.3593,W,1,11,0.8,6.2,M,-33.6,M,,*59
$PYRTM,2024,123.672531863079,14.782179273218
$GPGGA,160825.00,3427.8953,N,12057.3599,W,1,11,0.8,6.0,M,-33.6,M,,*51
$PYRTM,2024,123.672543450984,14.782190861123
$GPGGA,160826.00,3427.8965,N,12057.3606,W,1,11,0.8,5.8,M,-33.6,M,,*59
$PYRTM,2024,123.672555010868,14.782202421007
$GPGGA,160827.00,3427.8979,N,12057.3616,W,1,11,0.8,4.2,M,-33.6,M,,*5F
$PYRTM,2024,123.672566599016,14.782214009155
$GPGGA,160828.00,3427.8994,N,12057.3626,W,1,11,0.8,5.4,M,-33.6,M,,*57
$PYRTM,2024,123.672578160660,14.782225570799
$GPGGA,160829.00,3427.9008,N,12057.3633,W,1,11,0.8,6.1,M,-33.6,M,,*59
$PYRTM,2024,123.672589747963,14.782237158102
$GPGGA,160830.00,3427.9021,N,12057.3638,W,1,11,0.8,6.9,M,-33.6,M,,*59
$PYRTM,2024,123.672601308264,14.782248718414
$GPGGA,160831.00,3427.9034,N,12057.3643,W,1,11,0.8,5.8,M,-33.6,M,,*52
$PYRTM,2024,123.672612890914,14.782260301053
$GPGGA,160832.00,3427.9046,N,12057.3652,W,1,11,0.8,4.8,M,-33.6,M,,*55
$PYRTM,2024,123.672624456030,14.782271866181
$GPGGA,160833.00,3427.9059,N,12057.3663,W,1,11,0.8,2.9,M,-33.6,M,,*5F
$PYRTM,2024,123.672636040914,14.782283451053
$GPGGA,160834.00,3427.9074,N,12057.3671,W,1,11,0.8,2.3,M,-33.6,M,,*5E
$PYRTM,2024,123.672647604144,14.782295014282
$GPGGA,160835.00,3427.9089,N,12057.3674,W,1,11,0.8,2.6,M,-33.6,M,,*5D
$PYRTM,2024,123.672659187801,14.782306597940
$GPGGA,160836.00,3427.9102,N,12057.3677,W,1,11,0.8,3.0,M,-33.6,M,,*58
$PYRTM,2024,123.672670753102,14.782318163241
$GPGGA,160837.00,3427.9117,N,12057.3684,W,1,11,0.8,2.9,M,-33.6,M,,*59
$PYRTM,2024,123.672682342199,14.782329752338
$GPGGA,160838.00,3427.9131,N,12057.3694,W,1,11,0.8,3.0,M,-33.6,M,,*5B
$PYRTM,2024,123.672693900637,14.782341310775
$GPGGA,160839.00,3427.9145,N,12057.3706,W,1,11,0.8,4.1,M,-33.6,M,,*55
$PYRTM,2024,123.672705490764,14.782352900903
