$PYRTM,2024,127.500007884387,18.609655294525
$GPGGA,115959.00,3327.1369,N,11904.2153,W,1,12,0.8,6.5,M,-34.5,M,,*59
$PYRTM,2024,127.500019927650,18.609667337789
$GPGGA,120000.00,3327.1366,N,11904.2145,W,1,12,0.8,6.5,M,-34.5,M,,*52
$PYRTM,2024,127.500032879016,18.609680289167
$GPGGA,120001.00,3327.1359,N,11904.2141,W,1,12,0.8,4.2,M,-34.5,M,,*5E
$PYRTM,2024,127.500043655116,18.609691065266
$GPGGA,120002.00,3327.1352,N,11904.2136,W,1,12,0.8,5.5,M,-34.5,M,,*50
$PYRTM,2024,127.500054636470,18.609702046609
$GPGGA,120003.00,3327.1347,N,11904.2129,W,1,12,0.8,7.1,M,-34.5,M,,*5D
$PYRTM,2024,127.500065747975,18.609713158113
$GPGGA,120004.00,3327.1344,N,11904.2120,W,1,12,0.8,5.6,M,-34.5,M,,*55
$PYRTM,2024,127.500080334630,18.609727744769
$GPGGA,120005.00,3327.1341,N,11904.2112,W,1,12,0.8,6.3,M,-34.5,M,,*56
$PYRTM,2024,127.500092369595,18.609739779734
$GPGGA,120006.00,3327.1334,N,11904.2105,W,1,12,0.8,7.8,M,-34.5,M,,*5B
$PYRTM,2024,127.500103481574,18.609750891713
$GPGGA,120007.00,3327.1326,N,11904.2099,W,1,12,0.8,7.4,M,-34.5,M,,*51
$PYRTM,2024,127.500114594097,18.609762004248
$GPGGA,120008.00,3327.1320,N,11904.2092,W,1,12,0.8,7.6,M,-34.5,M,,*51
$PYRTM,2024,127.500125704444,18.609773114595
$GPGGA,120009.00,3327.1316,N,11904.2084,W,1,12,0.8,7.6,M,-34.5,M,,*52
$PYRTM,2024,127.500136815336,18.609784225486
$GPGGA,120010.00,3327.1313,N,11904.2074,W,1,12,0.8,6.7,M,-34.5,M,,*50
$PYRTM,2024,127.500159266678,18.609806676829
$GPGGA,120011.00,3327.1308,N,11904.2066,W,1,12,0.8,6.9,M,-34.5,M,,*56
$PYRTM,2024,127.500170378032,18.609817788171
$GPGGA,120012.00,3327.1299,N,11904.2061,W,1,12,0.8,7.6,M,-34.5,M,,*55
$PYRTM,2024,127.500181488299,18.609828898437
$GPGGA,120013.00,3327.1291,N,11904.2055,W,1,12,0.8,6.3,M,-34.5,M,,*5F
$PYRTM,2024,127.500192599178,18.609840009317
$GPGGA,120014.00,3327.1286,N,11904.2047,W,1,12,0.8,8.0,M,-34.5,M,,*50
$PYRTM,2024,127.500203712211,18.609851122350
$GPGGA,120015.00,3327.1284,N,11904.2038,W,1,12,0.8,6.9,M,-34.5,M,,*5C
$PYRTM,2024,127.500214708623,18.609862118762
$GPGGA,120016.00,3327.1281,N,11904.2029,W,1,12,0.8,5.5,M,-34.5,M,,*55
$PYRTM,2024,127.500225820347,18.609873230486
$GPGGA,120017.00,3327.1274,N,11904.2022,W,1,12,0.8,6.0,M,-34.5,M,,*53
$PYRTM,2024,127.500236930729,18.609884340868
$GPGGA,120018.00,3327.1267,N,11904.2016,W,1,12,0.8,5.8,M,-34.5,M,,*52
$PYRTM,2024,127.500248042350,18.609895452488
$GPGGA,120019.00,3327.1262,N,11904.2009,W,1,12,0.8,7.8,M,-34.5,M,,*5A
$PYRTM,2024,127.500259157211,18.609906567350
$GPGGA,120020.00,3327.1258,N,11904.2001,W,1,12,0.8,5.5,M,-34.5,M,,*5E
$PYRTM,2024,127.500270263692,18.609917673831
$GPGGA,120021.00,3327.1253,N,11904.1993,W,1,12,0.8,5.4,M,-34.5,M,,*54
$PYRTM,2024,127.500281260289,18.609928670428
$GPGGA,120022.00,3327.1248,N,11904.1984,W,1,12,0.8,4.8,M,-34.5,M,,*56
$PYRTM,2024,127.500292370880,18.609939781019
$GPGGA,120023.00,3327.1243,N,11904.1978,W,1,12,0.8,7.0,M,-34.5,M,,*54
$PYRTM,2024,127.500303481944,18.609950892095
$GPGGA,120024.00,3327.1236,N,11904.1973,W,1,12,0.8,7.4,M,-34.5,M,,*5E
$PYRTM,2024,127.500314593877,18.609962004016
$GPGGA,120025.00,3327.1230,N,11904.1965,W,1,12,0.8,7.1,M,-34.5,M,,*5B
$PYRTM,2024,127.500325705903,18.609973116042
$GPGGA,120026.00,3327.1225,N,11904.1956,W,1,12,0.8,6.9,M,-34.5,M,,*55
$PYRTM,2024,127.500336815799,18.609984225938
$GPGGA,120027.00,3327.1220,N,11904.1949,W,1,12,0.8,7.9,M,-34.5,M,,*5E
$PYRTM,2024,127.500347823843,18.609995233981
$GPGGA,120028.00,3327.1213,N,11904.1945,W,1,12,0.8,6.2,M,-34.5,M,,*57
$PYRTM,2024,127.500358934525,18.610006344664
$GPGGA,120029.00,3327.1206,N,11904.1939,W,1,12,0.8,7.0,M,-34.5,M,,*5A
$PYRTM,2024,127.500370034444,18.610017444583
$GPGGA,120030.00,3327.1200,N,11904.1930,W,1,12,0.8,7.4,M,-34.5,M,,*59
$PYRTM,2024,127.500380219826,18.610027629965
$GPGGA,120031.00,3327.1196,N,11904.1920,W,1,12,0.8,8.2,M,-34.5,M,,*5C
$PYRTM,2024,127.500391338437,18.610038748588
$GPGGA,120032.00,3327.1189,N,11904.1912,W,1,12,0.8,5.6,M,-34.5,M,,*59
$PYRTM,2024,127.500403484734,18.610050894873
$GPGGA,120033.00,3327.1183,N,11904.1907,W,1,12,0.8,5.8,M,-34.5,M,,*58
$PYRTM,2024,127.500414594502,18.610062004653
$GPGGA,120034.00,3327.1177,N,11904.1903,W,1,12,0.8,7.6,M,-34.5,M,,*5C
$PYRTM,2024,127.500425706748,18.610073116887
$GPGGA,120035.00,3327.1174,N,11904.1895,W,1,12,0.8,9.6,M,-34.5,M,,*5E
$PYRTM,2024,127.500437046019,18.610084456157
$GPGGA,120036.00,3327.1172,N,11904.1885,W,1,12,0.8,7.1,M,-34.5,M,,*53
$PYRTM,2024,127.500448632211,18.610096042361
$GPGGA,120037.00,3327.1166,N,11904.1878,W,1,12,0.8,6.7,M,-34.5,M,,*52
$PYRTM,2024,127.500460195741,18.610107605880
$GPGGA,120038.00,3327.1158,N,11904.1871,W,1,12,0.8,5.6,M,-34.5,M,,*5B
$PYRTM,2024,127.500471785498,18.610119195637
$GPGGA,120039.00,3327.1151,N,11904.1865,W,1,12,0.8,6.9,M,-34.5,M,,*5A
$PYRTM,2024,127.500483344641,18.610130754780
$GPGGA,120040.00,3327.1147,N,11904.1857,W,1,12,0.8,7.8,M,-34.5,M,,*52
$PYRTM,2024,127.500494932766,18.610142342905
$GPGGA,120041.00,3327.1145,N,11904.1847,W,1,12,0.8,5.0,M,-34.5,M,,*5A
$PYRTM,2024,127.500506492986,18.610153903125
$GPGGA,120042.00,3327.1141,N,11904.1836,W,1,12,0.8,4.0,M,-34.5,M,,*5A
$PYRTM,2024,127.500518076100,18.610165486238
$GPGGA,120043.00,3327.1135,N,11904.1828,W,1,12,0.8,6.0,M,-34.5,M,,*55
$PYRTM,2024,127.500529639641,18.610177049780
$GPGGA,120044.00,3327.1128,N,11904.1823,W,1,12,0.8,7.0,M,-34.5,M,,*54
$PYRTM,2024,127.500541227662,18.610188637801
$GPGGA,120045.00,3327.1122,N,11904.1818,W,1,12,0.8,6.7,M,-34.5,M,,*51
$PYRTM,2024,127.500552788796,18.610200198935
$GPGGA,120046.00,3327.1117,N,11904.1809,W,1,12,0.8,7.3,M,-34.5,M,,*51
$PYRTM,2024,127.500564377569,18.610211787708
$GPGGA,120047.00,3327.1113,N,11904.1800,W,1,12,0.8,8.1,M,-34.5,M,,*50
$PYRTM,2024,127.500575936586,18.610223346725
$GPGGA,120048.00,3327.1109,N,11904.1792,W,1,12,0.8,6.3,M,-34.5,M,,*5C
$PYRTM,2024,127.500587525741,18.610234935891
$GPGGA,120049.00,3327.1104,N,11904.1785,W,1,12,0.8,5.1,M,-34.5,M,,*57
$PYRTM,2024,127.500599086539,18.610246496678
$GPGGA,120050.00,3327.1098,N,11904.1777,W,1,12,0.8,5.4,M,-34.5,M,,*53
$PYRTM,2024,127.500610668634,18.610258078773
$GPGGA,120051.00,3327.1093,N,11904.1770,W,1,12,0.8,4.1,M,-34.5,M,,*5A
$PYRTM,2024,127.500622234560,18.610269644711
$GPGGA,120052.00,3327.1088,N,11904.1763,W,1,12,0.8,4.0,M,-34.5,M,,*50
$PYRTM,2024,127.500633822616,18.610281232755
$GPGGA,120053.00,3327.1082,N,11904.1756,W,1,12,0.8,4.1,M,-34.5,M,,*5C
$PYRTM,2024,127.500645381991,18.610292792130
$GPGGA,120054.00,3327.1077,N,11904.1749,W,1,12,0.8,2.6,M,-34.5,M,,*5E
$PYRTM,2024,127.500656972141,18.610304382280
$GPGGA,120055.00,3327.1071,N,11904.1742,W,1,12,0.8,4.2,M,-34.5,M,,*50
$PYRTM,2024,127.500668531759,18.610315941898
$GPGGA,120056.00,3327.1066,N,11904.1734,W,1,12,0.8,4.3,M,-34.5,M,,*55
$PYRTM,2024,127.500680114329,18.610327524468
$GPGGA,120057.00,3327.1061,N,11904.1727,W,1,12,0.8,3.7,M,-34.5,M,,*52
$PYRTM,2024,127.500691677812,18.610339087951
$GPGGA,120058.00,3327.1055,N,11904.1718,W,1,12,0.8,6.3,M,-34.5,M,,*57
$PYRTM,2024,127.500703267986,18.610350678125
$GPGGA,120059.00,3327.1048,N,11904.1712,W,1,12,0.8,8.0,M,-34.5,M,,*5D
$PYRTM,2024,127.500714833426,18.610362243565
$GPGGA,120100.00,3327.1043,N,11904.1705,W,1,12,0.8,4.6,M,-34.5,M,,*57
$PYRTM,2024,127.500725142245,18.610372552384
$GPGGA,120101.00,3327.1037,N,11904.1697,W,1,12,0.8,2.6,M,-34.5,M,,*59
$PYRTM,2024,127.500736935775,18.610384345914
$GPGGA,120102.00,3327.1033,N,11904.1689,W,1,12,0.8,2.7,M,-34.5,M,,*50
$PYRTM,2024,127.500749562963,18.610396973102
$GPGGA,120103.00,3327.1028,N,11904.1682,W,1,12,0.8,4.6,M,-34.5,M,,*57
$PYRTM,2024,127.500761124120,18.610408534259
$GPGGA,120104.00,3327.1021,N,11904.1679,W,1,12,0.8,3.4,M,-34.5,M,,*58
$PYRTM,2024,127.500772712558,18.610420122697
$GPGGA,120105.00,3327.1013,N,11904.1675,W,1,12,0.8,3.4,M,-34.5,M,,*54
$PYRTM,2024,127.500784271586,18.610431681725
$GPGGA,120106.00,3327.1008,N,11904.1669,W,1,12,0.8,6.5,M,-34.5,M,,*54
$PYRTM,2024,127.500795861076,18.610443271227
$GPGGA,120107.00,3327.1004,N,11904.1659,W,1,12,0.8,6.1,M,-34.5,M,,*5E
$PYRTM,2024,127.500807420220,18.610454830359
$GPGGA,120108.00,3327.0999,N,11904.1649,W,1,12,0.8,5.2,M,-34.5,M,,*5C
$PYRTM,2024,127.500819008854,18.610466418993
$GPGGA,120109.00,3327.0993,N,11904.1642,W,1,12,0.8,6.9,M,-34.5,M,,*54
$PYRTM,2024,127.500830569815,18.610477979954
$GPGGA,120110.00,3327.0986,N,11904.1636,W,1,12,0.8,4.8,M,-34.5,M,,*58
$PYRTM,2024,127.500842156447,18.610489566586
$GPGGA,120111.00,3327.0979,N,11904.1630,W,1,12,0.8,5.5,M,-34.5,M,,*53
$PYRTM,2024,127.500853717465,18.610501127616
$GPGGA,120112.00,3327.0973,N,11904.1624,W,1,12,0.8,6.9,M,-34.5,M,,*50
$PYRTM,2024,127.500865305880,18.610512716019
$GPGGA,120113.00,3327.0969,N,11904.1616,W,1,12,0.8,7.3,M,-34.5,M,,*50
$PYRTM,2024,127.500876866076,18.610524276215
$GPGGA,120114.00,3327.0965,N,11904.1607,W,1,12,0.8,5.4,M,-34.5,M,,*5E
$PYRTM,2024,127.500888449687,18.610535859826
$GPGGA,120115.00,3327.0959,N,11904.1599,W,1,12,0.8,5.8,M,-34.5,M,,*58
$PYRTM,2024,127.500900015509,18.610547425648
$GPGGA,120116.00,3327.0952,N,11904.1593,W,1,12,0.8,7.5,M,-34.5,M,,*55
$PYRTM,2024,127.500911602616,18.610559012755
$GPGGA,120117.00,3327.0945,N,11904.1587,W,1,12,0.8,6.3,M,-34.5,M,,*50
$PYRTM,2024,127.500923162222,18.610570572361
$GPGGA,120118.00,3327.0941,N,11904.1580,W,1,12,0.8,4.7,M,-34.5,M,,*5A
$PYRTM,2024,127.500934750266,18.610582160405
$GPGGA,120119.00,3327.0939,N,11904.1571,W,1,12,0.8,3.5,M,-34.5,M,,*5F
$PYRTM,2024,127.500946312072,18.610593722211
$GPGGA,120120.00,3327.0936,N,11904.1562,W,1,12,0.8,2.9,M,-34.5,M,,*55
$PYRTM,2024,127.500957899005,18.610605309144
$GPGGA,120121.00,3327.0929,N,11904.1555,W,1,12,0.8,5.7,M,-34.5,M,,*57
$PYRTM,2024,127.500969459583,18.610616869722
$GPGGA,120122.00,3327.0921,N,11904.1550,W,1,12,0.8,7.4,M,-34.5,M,,*58
$PYRTM,2024,127.500981048403,18.610628458542
$GPGGA,120123.00,3327.0914,N,11904.1543,W,1,12,0.8,10.2,M,-34.5,M,,*6D
$PYRTM,2024,127.500992607396,18.610640017535
$GPGGA,120124.00,3327.0908,N,11904.1534,W,1,12,0.8,9.9,M,-34.5,M,,*54
$PYRTM,2024,127.501004195579,18.610651605718
$GPGGA,120125.00,3327.0904,N,11904.1525,W,1,12,0.8,9.8,M,-34.5,M,,*58
$PYRTM,2024,127.501015756852,18.610663166991
$GPGGA,120126.00,3327.0899,N,11904.1517,W,1,12,0.8,7.6,M,-34.5,M,,*5F
$PYRTM,2024,127.501027338495,18.610674748634
$GPGGA,120127.00,3327.0894,N,11904.1510,W,1,12,0.8,7.4,M,-34.5,M,,*56
$PYRTM,2024,127.501038903148,18.610686313287
$GPGGA,120128.00,3327.0890,N,11904.1503,W,1,12,0.8,7.4,M,-34.5,M,,*5F
$PYRTM,2024,127.501050488137,18.610697898275
$GPGGA,120129.00,3327.0886,N,11904.1495,W,1,12,0.8,6.2,M,-34.5,M,,*50
$PYRTM,2024,127.501062053056,18.610709463194
$GPGGA,120130.00,3327.0880,N,11904.1487,W,1,12,0.8,6.2,M,-34.5,M,,*5D
$PYRTM,2024,127.501072368287,18.610719778426
$GPGGA,120131.00,3327.0874,N,11904.1480,W,1,12,0.8,7.7,M,-34.5,M,,*54
$PYRTM,2024,127.501084160428,18.610731570567
$GPGGA,120132.00,3327.0867,N,11904.1474,W,1,12,0.8,9.6,M,-34.5,M,,*51
$PYRTM,2024,127.501096789248,18.610744199398
$GPGGA,120133.00,3327.0862,N,11904.1466,W,1,11,0.8,10.1,M,-34.5,M,,*6A
$PYRTM,2024,127.501108349942,18.610755760081
$GPGGA,120134.00,3327.0860,N,11904.1454,W,1,12,0.8,9.9,M,-34.5,M,,*5D
$PYRTM,2024,127.501119937500,18.610767347639
$GPGGA,120135.00,3327.0857,N,11904.1442,W,1,12,0.8,6.2,M,-34.5,M,,*5B
$PYRTM,2024,127.501131497650,18.610778907789
$GPGGA,120136.00,3327.0852,N,11904.1434,W,1,12,0.8,6.0,M,-34.5,M,,*5E
$PYRTM,2024,127.501143085012,18.610790495150
$GPGGA,120137.00,3327.0845,N,11904.1430,W,1,12,0.8,4.1,M,-34.5,M,,*5E
$PYRTM,2024,127.501154644907,18.610802055046
$GPGGA,120138.00,3327.0838,N,11904.1425,W,1,12,0.8,6.8,M,-34.5,M,,*54
$PYRTM,2024,127.501166234120,18.610813644259
$GPGGA,120139.00,3327.0834,N,11904.1417,W,1,12,0.8,6.8,M,-34.5,M,,*58
$PYRTM,2024,127.501177795000,18.610825205139
$GPGGA,120140.00,3327.0830,N,11904.1408,W,1,12,0.8,7.3,M,-34.5,M,,*56
$PYRTM,2024,127.501189382616,18.610836792766
$GPGGA,120141.00,3327.0825,N,11904.1400,W,1,12,0.8,8.5,M,-34.5,M,,*52
$PYRTM,2024,127.501200944572,18.610848354722
$GPGGA,120142.00,3327.0819,N,11904.1392,W,1,12,0.8,7.5,M,-34.5,M,,*5D
$PYRTM,2024,127.501212530903,18.610859941042
$GPGGA,120143.00,3327.0813,N,11904.1384,W,1,12,0.8,6.8,M,-34.5,M,,*5D
$PYRTM,2024,127.501224092616,18.610871502766
$GPGGA,120144.00,3327.0809,N,11904.1375,W,1,12,0.8,5.7,M,-34.5,M,,*53
$PYRTM,2024,127.501235678414,18.610883088565
$GPGGA,120145.00,3327.0805,N,11904.1369,W,1,12,0.8,4.0,M,-34.5,M,,*55
$PYRTM,2024,127.501247239850,18.610894649988
$GPGGA,120146.00,3327.0801,N,11904.1362,W,1,12,0.8,6.5,M,-34.5,M,,*5E
$PYRTM,2024,127.501258827361,18.610906237500
$GPGGA,120147.00,3327.0796,N,11904.1355,W,1,12,0.8,7.3,M,-34.5,M,,*5D
$PYRTM,2024,127.501270387292,18.610917797431
$GPGGA,120148.00,3327.0790,N,11904.1347,W,1,12,0.8,6.0,M,-34.5,M,,*55
$PYRTM,2024,127.501281975775,18.610929385914
$GPGGA,120149.00,3327.0785,N,11904.1340,W,1,12,0.8,7.0,M,-34.5,M,,*56
$PYRTM,2024,127.501293535208,18.610940945347
$GPGGA,120150.00,3327.0781,N,11904.1335,W,1,12,0.8,6.9,M,-34.5,M,,*50
$PYRTM,2024,127.501305123808,18.610952533947
$GPGGA,120151.00,3327.0778,N,11904.1329,W,1,12,0.8,7.9,M,-34.5,M,,*5B
$PYRTM,2024,127.501316684225,18.610964094352
$GPGGA,120152.00,3327.0774,N,11904.1320,W,1,12,0.8,7.5,M,-34.5,M,,*51
$PYRTM,2024,127.501328271111,18.610975681250
$GPGGA,120153.00,3327.0770,N,11904.1311,W,1,12,0.8,6.8,M,-34.5,M,,*5A
$PYRTM,2024,127.501339832581,18.610987242720
$GPGGA,120154.00,3327.0764,N,11904.1304,W,1,12,0.8,6.1,M,-34.5,M,,*55
$PYRTM,2024,127.501351421366,18.610998831516
$GPGGA,120155.00,3327.0759,N,11904.1296,W,1,12,0.8,6.9,M,-34.5,M,,*58
$PYRTM,2024,127.501362982431,18.611010392569
$GPGGA,120156.00,3327.0754,N,11904.1289,W,1,12,0.8,7.0,M,-34.5,M,,*50
$PYRTM,2024,127.501374569248,18.611021979387
$GPGGA,120157.00,3327.0750,N,11904.1282,W,1,12,0.8,9.2,M,-34.5,M,,*52
$PYRTM,2024,127.501385089317,18.611032499456
$GPGGA,120158.00,3327.0745,N,11904.1273,W,1,12,0.8,10.0,M,-34.5,M,,*6D
$PYRTM,2024,127.501397717894,18.611045128032
$GPGGA,120159.00,3327.0740,N,11904.1265,W,1,12,0.8,10.5,M,-34.5,M,,*6B
$PYRTM,2024,127.501409277708,18.611056687859
$GPGGA,120200.00,3327.0734,N,11904.1257,W,1,12,0.8,9.8,M,-34.5,M,,*53
$PYRTM,2024,127.501419462951,18.611066873090
$GPGGA,120201.00,3327.0730,N,11904.1250,W,1,12,0.8,6.2,M,-34.5,M,,*54
$PYRTM,2024,127.501431384595,18.611078794734
$GPGGA,120202.00,3327.0727,N,11904.1243,W,1,12,0.8,6.9,M,-34.5,M,,*58
$PYRTM,2024,127.501444010289,18.611091420428
$GPGGA,120203.00,3327.0722,N,11904.1236,W,1,12,0.8,6.7,M,-34.5,M,,*50
$PYRTM,2024,127.501454648160,18.611102058299
$GPGGA,120204.00,3327.0714,N,11904.1230,W,1,12,0.8,9.1,M,-34.5,M,,*5D
$PYRTM,2024,127.501466572951,18.611113983090
$GPGGA,120205.00,3327.0707,N,11904.1222,W,1,11,0.8,7.0,M,-34.5,M,,*51
$PYRTM,2024,127.501477342569,18.611124752708
$GPGGA,120206.00,3327.0702,N,11904.1214,W,1,12,0.8,5.6,M,-34.5,M,,*55
$PYRTM,2024,127.501488346655,18.611135756794
$GPGGA,120207.00,3327.0698,N,11904.1205,W,1,12,0.8,6.5,M,-34.5,M,,*56
$PYRTM,2024,127.501499470463,18.611146880602
$GPGGA,120208.00,3327.0695,N,11904.1196,W,1,12,0.8,7.6,M,-34.5,M,,*5F
$PYRTM,2024,127.501510566782,18.611157976921
$GPGGA,120209.00,3327.0691,N,11904.1188,W,1,12,0.8,4.1,M,-34.5,M,,*51
$PYRTM,2024,127.501521677870,18.611169088009
$GPGGA,120210.00,3327.0686,N,11904.1180,W,1,12,0.8,5.9,M,-34.5,M,,*5E
$PYRTM,2024,127.501532788426,18.611180198565
$GPGGA,120211.00,3327.0682,N,11904.1171,W,1,12,0.8,4.6,M,-34.5,M,,*5B
$PYRTM,2024,127.501543900069,18.611191310208
$GPGGA,120212.00,3327.0676,N,11904.1163,W,1,12,0.8,7.0,M,-34.5,M,,*55
$PYRTM,2024,127.501554899352,18.611202309491
$GPGGA,120213.00,3327.0671,N,11904.1155,W,1,12,0.8,8.4,M,-34.5,M,,*5D
$PYRTM,2024,127.501566123565,18.611213533704
$GPGGA,120214.00,3327.0667,N,11904.1145,W,1,12,0.8,8.1,M,-34.5,M,,*59
$PYRTM,2024,127.501577682512,18.611225092650
$GPGGA,120215.00,3327.0664,N,11904.1136,W,1,12,0.8,7.8,M,-34.5,M,,*59
$PYRTM,2024,127.501589270174,18.611236680312
$GPGGA,120216.00,3327.0659,N,11904.1129,W,1,12,0.8,6.3,M,-34.5,M,,*50
$PYRTM,2024,127.501600832627,18.611248242778
$GPGGA,120217.00,3327.0653,N,11904.1123,W,1,12,0.8,5.7,M,-34.5,M,,*56
$PYRTM,2024,127.501612420532,18.611259830671
$GPGGA,120218.00,3327.0647,N,11904.1118,W,1,12,0.8,5.2,M,-34.5,M,,*51
$PYRTM,2024,127.501623981181,18.611271391319
$GPGGA,120219.00,3327.0643,N,11904.1113,W,1,12,0.8,7.0,M,-34.5,M,,*5F
$PYRTM,2024,127.501635571285,18.611282981424
$GPGGA,120220.00,3327.0640,N,11904.1104,W,1,12,0.8,6.2,M,-34.5,M,,*53
$PYRTM,2024,127.501647129178,18.611294539317
$GPGGA,120221.00,3327.0637,N,11904.1095,W,1,12,0.8,7.3,M,-34.5,M,,*5B
$PYRTM,2024,127.501658720231,18.611306130382
$GPGGA,120222.00,3327.0631,N,11904.1087,W,1,12,0.8,6.8,M,-34.5,M,,*57
$PYRTM,2024,127.501670278681,18.611317688819
$GPGGA,120223.00,3327.0623,N,11904.1081,W,1,12,0.8,8.7,M,-34.5,M,,*52
$PYRTM,2024,127.501681867025,18.611329277164
$GPGGA,120224.00,3327.0617,N,11904.1073,W,1,12,0.8,8.7,M,-34.5,M,,*5F
$PYRTM,2024,127.501693426134,18.611340836273
$GPGGA,120225.00,3327.0615,N,11904.1064,W,1,12,0.8,8.2,M,-34.5,M,,*5F
$PYRTM,2024,127.501705012234,18.611352422373
$GPGGA,120226.00,3327.0614,N,11904.1054,W,1,12,0.8,6.3,M,-34.5,M,,*51
$PYRTM,2024,127.501716573403,18.611363983542
$GPGGA,120227.00,3327.0609,N,11904.1047,W,1,12,0.8,6.7,M,-34.5,M,,*5A
$PYRTM,2024,127.501728161748,18.611375571887
$GPGGA,120228.00,3327.0601,N,11904.1041,W,1,12,0.8,7.0,M,-34.5,M,,*5D
$PYRTM,2024,127.501739721632,18.611387131771
$GPGGA,120229.00,3327.0595,N,11904.1037,W,1,12,0.8,8.2,M,-34.5,M,,*5E
$PYRTM,2024,127.501751310417,18.611398720556
$GPGGA,120230.00,3327.0592,N,11904.1029,W,1,12,0.8,10.4,M,-34.5,M,,*61
$PYRTM,2024,127.501768090440,18.611415500579
$GPGGA,120231.00,3327.0589,N,11904.1017,W,1,12,0.8,11.2,M,-34.5,M,,*60
$PYRTM,2024,127.501779651308,18.611427061447
$GPGGA,120232.00,3327.0585,N,11904.1006,W,1,12,0.8,8.7,M,-34.5,M,,*52
$PYRTM,2024,127.501791239433,18.611438649572
$GPGGA,120233.00,3327.0578,N,11904.0999,W,1,12,0.8,8.6,M,-34.5,M,,*5E
$PYRTM,2024,127.501802800023,18.611450210174
$GPGGA,120234.00,3327.0570,N,11904.0993,W,1,12,0.8,6.7,M,-34.5,M,,*54
$PYRTM,2024,127.501814388160,18.611461798299
$GPGGA,120235.00,3327.0564,N,11904.0989,W,1,12,0.8,4.7,M,-34.5,M,,*59
$PYRTM,2024,127.501825949329,18.611473359468
$GPGGA,120236.00,3327.0561,N,11904.0982,W,1,12,0.8,4.2,M,-34.5,M,,*51
$PYRTM,2024,127.501837535625,18.611484945764
$GPGGA,120237.00,3327.0557,N,11904.0974,W,1,12,0.8,6.5,M,-34.5,M,,*59
$PYRTM,2024,127.501849096829,18.611496506968
$GPGGA,120238.00,3327.0553,N,11904.0966,W,1,11,0.8,8.3,M,-34.5,M,,*5A
$PYRTM,2024,127.501860684618,18.611508094757
$GPGGA,120239.00,3327.0547,N,11904.0958,W,1,12,0.8,9.3,M,-34.5,M,,*51
$PYRTM,2024,127.501872244630,18.611519654780
$GPGGA,120240.00,3327.0542,N,11904.0950,W,1,12,0.8,8.4,M,-34.5,M,,*54
$PYRTM,2024,127.501883828935,18.611531239074
$GPGGA,120241.00,3327.0538,N,11904.0942,W,1,12,0.8,6.8,M,-34.5,M,,*59
$PYRTM,2024,127.501895393831,18.611542803970
$GPGGA,120242.00,3327.0533,N,11904.0933,W,1,12,0.8,7.7,M,-34.5,M,,*59
$PYRTM,2024,127.501906980278,18.611554390417
$GPGGA,120243.00,3327.0527,N,11904.0926,W,1,12,0.8,10.1,M,-34.5,M,,*69
$PYRTM,2024,127.501918540926,18.611565951065
$GPGGA,120244.00,3327.0522,N,11904.0919,W,1,12,0.8,10.9,M,-34.5,M,,*6F
$PYRTM,2024,127.501930130058,18.611577540208
$GPGGA,120245.00,3327.0517,N,11904.0911,W,1,12,0.8,10.2,M,-34.5,M,,*6B
$PYRTM,2024,127.501941689745,18.611589099884
$GPGGA,120246.00,3327.0514,N,11904.0902,W,1,12,0.8,9.1,M,-34.5,M,,*52
$PYRTM,2024,127.501953273715,18.611600683854
$GPGGA,120247.00,3327.0510,N,11904.0893,W,1,12,0.8,7.0,M,-34.5,M,,*51
$PYRTM,2024,127.501964837569,18.611612247708
$GPGGA,120248.00,3327.0506,N,11904.0886,W,1,12,0.8,9.1,M,-34.5,M,,*52
$PYRTM,2024,127.501976427083,18.611623837222
$GPGGA,120249.00,3327.0500,N,11904.0880,W,1,12,0.8,11.7,M,-34.5,M,,*6C
$PYRTM,2024,127.501987985278,18.611635395417
$GPGGA,120250.00,3327.0494,N,11904.0873,W,1,12,0.8,9.9,M,-34.5,M,,*53
$PYRTM,2024,127.501999573692,18.611646983831
$GPGGA,120251.00,3327.0488,N,11904.0865,W,1,12,0.8,9.6,M,-34.5,M,,*57
$PYRTM,2024,127.502011135162,18.611658545301
$GPGGA,120252.00,3327.0484,N,11904.0855,W,1,12,0.8,7.3,M,-34.5,M,,*50
$PYRTM,2024,127.502022721944,18.611670132083
$GPGGA,120253.00,3327.0479,N,11904.0845,W,1,12,0.8,6.9,M,-34.5,M,,*59
$PYRTM,2024,127.502034281875,18.611681692014
$GPGGA,120254.00,3327.0473,N,11904.0837,W,1,12,0.8,4.7,M,-34.5,M,,*5D
$PYRTM,2024,127.502045870613,18.611693280752
$GPGGA,120255.00,3327.0465,N,11904.0831,W,1,12,0.8,5.6,M,-34.5,M,,*5D
$PYRTM,2024,127.502057430671,18.611704840810
$GPGGA,120256.00,3327.0459,N,11904.0823,W,1,12,0.8,8.0,M,-34.5,M,,*59
$PYRTM,2024,127.502069014306,18.611716424444
$GPGGA,120257.00,3327.0455,N,11904.0815,W,1,12,0.8,5.9,M,-34.5,M,,*55
$PYRTM,2024,127.502080578021,18.611727988160
$GPGGA,120258.00,3327.0452,N,11904.0807,W,1,11,0.8,9.4,M,-34.5,M,,*5C
$PYRTM,2024,127.502092167535,18.611739577674
$GPGGA,120259.00,3327.0446,N,11904.0800,W,1,12,0.8,8.9,M,-34.5,M,,*50
$PYRTM,2024,127.502103727604,18.611751137743
$GPGGA,120300.00,3327.0439,N,11904.0792,W,1,12,0.8,5.8,M,-34.5,M,,*5D
$PYRTM,2024,127.502113912778,18.611761322917
$GPGGA,120301.00,3327.0434,N,11904.0784,W,1,12,0.8,7.3,M,-34.5,M,,*5F
$PYRTM,2024,127.502125836424,18.611773246562
$GPGGA,120302.00,3327.0431,N,11904.0776,W,1,12,0.8,7.3,M,-34.5,M,,*54
$PYRTM,2024,127.502138465741,18.611785875880
$GPGGA,120303.00,3327.0428,N,11904.0769,W,1,12,0.8,8.7,M,-34.5,M,,*58
$PYRTM,2024,127.502150023657,18.611797433796
$GPGGA,120304.00,3327.0423,N,11904.0762,W,1,12,0.8,10.2,M,-34.5,M,,*63
$PYRTM,2024,127.502161615336,18.611809025475
$GPGGA,120305.00,3327.0418,N,11904.0755,W,1,12,0.8,10.4,M,-34.5,M,,*68
$PYRTM,2024,127.502173173750,18.611820583889
$GPGGA,120306.00,3327.0415,N,11904.0746,W,1,12,0.8,7.5,M,-34.5,M,,*53
$PYRTM,2024,127.502184756725,18.611832166863
$GPGGA,120307.00,3327.0412,N,11904.0736,W,1,12,0.8,5.6,M,-34.5,M,,*53
$PYRTM,2024,127.502196321262,18.611843731400
$GPGGA,120308.00,3327.0408,N,11904.0729,W,1,12,0.8,5.8,M,-34.5,M,,*57
$PYRTM,2024,127.502207911424,18.611855321563
$GPGGA,120309.00,3327.0403,N,11904.0724,W,1,12,0.8,6.7,M,-34.5,M,,*5C
$PYRTM,2024,127.502219469595,18.611866879734
$GPGGA,120310.00,3327.0398,N,11904.0720,W,1,12,0.8,7.3,M,-34.5,M,,*50
$PYRTM,2024,127.502231058299,18.611878468437
$GPGGA,120311.00,3327.0395,N,11904.0712,W,1,12,0.8,4.2,M,-34.5,M,,*5F
$PYRTM,2024,127.502242618843,18.611890028981
$GPGGA,120312.00,3327.0393,N,11904.0702,W,1,12,0.8,4.4,M,-34.5,M,,*5D
$PYRTM,2024,127.502254201713,18.611901611863
$GPGGA,120313.00,3327.0388,N,11904.0693,W,1,12,0.8,6.1,M,-34.5,M,,*58
$PYRTM,2024,127.502265765937,18.611913176076
$GPGGA,120314.00,3327.0380,N,11904.0688,W,1,12,0.8,9.8,M,-34.5,M,,*5B
$PYRTM,2024,127.502277350718,18.611924760856
$GPGGA,120315.00,3327.0372,N,11904.0684,W,1,12,0.8,8.4,M,-34.5,M,,*56
$PYRTM,2024,127.502288914792,18.611936324931
$GPGGA,120316.00,3327.0366,N,11904.0677,W,1,12,0.8,9.3,M,-34.5,M,,*5A
$PYRTM,2024,127.502300504178,18.611947914317
$GPGGA,120317.00,3327.0363,N,11904.0668,W,1,11,0.8,9.2,M,-34.5,M,,*52
$PYRTM,2024,127.502312064259,18.611959474398
$GPGGA,120318.00,3327.0361,N,11904.0658,W,1,12,0.8,8.6,M,-34.5,M,,*5A
$PYRTM,2024,127.502323652130,18.611971062269
$GPGGA,120319.00,3327.0356,N,11904.0648,W,1,12,0.8,8.0,M,-34.5,M,,*58
$PYRTM,2024,127.502335211169,18.611982621319
$GPGGA,120320.00,3327.0349,N,11904.0641,W,1,12,0.8,9.0,M,-34.5,M,,*54
$PYRTM,2024,127.502346794583,18.611994204722
$GPGGA,120321.00,3327.0341,N,11904.0635,W,1,12,0.8,8.5,M,-34.5,M,,*5A
$PYRTM,2024,127.502358360035,18.612005770174
$GPGGA,120322.00,3327.0335,N,11904.0628,W,1,12,0.8,12.6,M,-34.5,M,,*6E
$PYRTM,2024,127.502369948241,18.612017358391
$GPGGA,120323.00,3327.0331,N,11904.0618,W,1,12,0.8,14.5,M,-34.5,M,,*6D
$PYRTM,2024,127.502381509352,18.612028919502
$GPGGA,120324.00,3327.0327,N,11904.0610,W,1,12,0.8,15.9,M,-34.5,M,,*68
$PYRTM,2024,127.502393096262,18.612040506400
$GPGGA,120325.00,3327.0321,N,11904.0603,W,1,12,0.8,12.8,M,-34.5,M,,*6B
$PYRTM,2024,127.502404656447,18.612052066586
$GPGGA,120326.00,3327.0314,N,11904.0595,W,1,12,0.8,11.8,M,-34.5,M,,*61
$PYRTM,2024,127.502416244826,18.612063654965
$GPGGA,120327.00,3327.0310,N,11904.0588,W,1,12,0.8,9.0,M,-34.5,M,,*59
$PYRTM,2024,127.502427803634,18.612075213773
$GPGGA,120328.00,3327.0306,N,11904.0581,W,1,12,0.8,7.3,M,-34.5,M,,*55
$PYRTM,2024,127.502439399954,18.612086810093
$GPGGA,120329.00,3327.0302,N,11904.0574,W,1,12,0.8,10.4,M,-34.5,M,,*6B
$PYRTM,2024,127.502450956435,18.612098366586
$GPGGA,120330.00,3327.0296,N,11904.0568,W,1,12,0.8,9.0,M,-34.5,M,,*5E
$PYRTM,2024,127.502461254016,18.612108664155
$GPGGA,120331.00,3327.0289,N,11904.0560,W,1,12,0.8,11.2,M,-34.5,M,,*62
$PYRTM,2024,127.502473061528,18.612120471667
$GPGGA,120332.00,3327.0286,N,11904.0550,W,1,12,0.8,7.8,M,-34.5,M,,*50
$PYRTM,2024,127.502485689433,18.612133099572
$GPGGA,120333.00,3327.0284,N,11904.0540,W,1,12,0.8,8.3,M,-34.5,M,,*56
$PYRTM,2024,127.502497252801,18.612144662940
$GPGGA,120334.00,3327.0280,N,11904.0531,W,1,12,0.8,9.1,M,-34.5,M,,*50
$PYRTM,2024,127.502508841597,18.612156251736
$GPGGA,120335.00,3327.0275,N,11904.0524,W,1,12,0.8,6.5,M,-34.5,M,,*54
$PYRTM,2024,127.502520399942,18.612167810081
$GPGGA,120336.00,3327.0268,N,11904.0518,W,1,12,0.8,8.9,M,-34.5,M,,*56
$PYRTM,2024,127.502531990116,18.612179400255
$GPGGA,120337.00,3327.0263,N,11904.0510,W,1,12,0.8,7.0,M,-34.5,M,,*52
$PYRTM,2024,127.502543549479,18.612190959618
$GPGGA,120338.00,3327.0261,N,11904.0501,W,1,11,0.8,6.3,M,-34.5,M,,*5E
$PYRTM,2024,127.502555135220,18.612202545359
$GPGGA,120339.00,3327.0258,N,11904.0489,W,1,11,0.8,8.0,M,-34.5,M,,*59
$PYRTM,2024,127.502566697292,18.612214107431
$GPGGA,120340.00,3327.0253,N,11904.0479,W,1,11,0.8,7.6,M,-34.5,M,,*5A
$PYRTM,2024,127.502578283981,18.612225694120
$GPGGA,120341.00,3327.0247,N,11904.0470,W,1,11,0.8,8.0,M,-34.5,M,,*5E
$PYRTM,2024,127.502589844560,18.612237254699
$GPGGA,120342.00,3327.0240,N,11904.0465,W,1,11,0.8,5.4,M,-34.5,M,,*57
$PYRTM,2024,127.502601431562,18.612248841701
$GPGGA,120343.00,3327.0235,N,11904.0458,W,1,11,0.8,6.0,M,-34.5,M,,*5D
$PYRTM,2024,127.502612994826,18.612260404965
$GPGGA,120344.00,3327.0231,N,11904.0449,W,1,11,0.8,6.6,M,-34.5,M,,*58
$PYRTM,2024,127.502624574676,18.612271984826
$GPGGA,120345.00,3327.0227,N,11904.0440,W,1,11,0.8,7.9,M,-34.5,M,,*59
$PYRTM,2024,127.502636142755,18.612283552894
$GPGGA,120346.00,3327.0224,N,11904.0430,W,1,11,0.8,7.9,M,-34.5,M,,*5E
$PYRTM,2024,127.502647730914,18.612295141053
$GPGGA,120347.00,3327.0220,N,11904.0421,W,1,11,0.8,6.3,M,-34.5,M,,*50
$PYRTM,2024,127.502659291019,18.612306701157
$GPGGA,120348.00,3327.0215,N,11904.0414,W,1,11,0.8,4.3,M,-34.5,M,,*5D
$PYRTM,2024,127.502670879549,18.612318289688
$GPGGA,120349.00,3327.0206,N,11904.0410,W,1,11,0.8,4.8,M,-34.5,M,,*51
$PYRTM,2024,127.502682439433,18.612329849572
$GPGGA,120350.00,3327.0197,N,11904.0406,W,1,11,0.8,6.2,M,-34.5,M,,*5D
$PYRTM,2024,127.502694027604,18.612341437743
$GPGGA,120351.00,3327.0192,N,11904.0399,W,1,11,0.8,8.3,M,-34.5,M,,*57
$PYRTM,2024,127.502705588102,18.612352998252
$GPGGA,120352.00,3327.0189,N,11904.0390,W,1,11,0.8,10.8,M,-34.5,M,,*65
$PYRTM,2024,127.502717176597,18.612364586736
$GPGGA,120353.00,3327.0186,N,11904.0379,W,1,11,0.8,11.8,M,-34.5,M,,*6D
$PYRTM,2024,127.502728734456,18.612376144595
$GPGGA,120354.00,3327.0180,N,11904.0370,W,1,11,0.8,10.9,M,-34.5,M,,*65
$PYRTM,2024,127.502740322616,18.612387732755
$GPGGA,120355.00,3327.0173,N,11904.0364,W,1,11,0.8,9.2,M,-34.5,M,,*5E
$PYRTM,2024,127.502751884236,18.612399294375
$GPGGA,120356.00,3327.0169,N,11904.0360,W,1,11,0.8,9.2,M,-34.5,M,,*52
$PYRTM,2024,127.502763470347,18.612410880486
$GPGGA,120357.00,3327.0166,N,11904.0354,W,1,11,0.8,9.5,M,-34.5,M,,*5C
$PYRTM,2024,127.502775031690,18.612422441829
$GPGGA,120358.00,3327.0163,N,11904.0345,W,1,11,0.8,7.4,M,-34.5,M,,*59
$PYRTM,2024,127.502786620255,18.612434030394
$GPGGA,120359.00,3327.0158,N,11904.0337,W,1,11,0.8,6.3,M,-34.5,M,,*53
$PYRTM,2024,127.502798179641,18.612445589780
$GPGGA,120400.00,3327.0152,N,11904.0330,W,1,11,0.8,10.3,M,-34.5,M,,*62
$PYRTM,2024,127.502808479583,18.612455889722
$GPGGA,120401.00,3327.0147,N,11904.0324,W,1,11,0.8,12.1,M,-34.5,M,,*62
$PYRTM,2024,127.502820285845,18.612467695984
$GPGGA,120402.00,3327.0143,N,11904.0315,W,1,11,0.8,12.7,M,-34.5,M,,*61
$PYRTM,2024,127.502832916400,18.612480326539
$GPGGA,120403.00,3327.0138,N,11904.0305,W,1,11,0.8,13.3,M,-34.5,M,,*68
$PYRTM,2024,127.502844478403,18.612491888542
$GPGGA,120404.00,3327.0134,N,11904.0294,W,1,11,0.8,12.4,M,-34.5,M,,*6C
$PYRTM,2024,127.502856066829,18.612503476968
$GPGGA,120405.00,3327.0129,N,11904.0286,W,1,11,0.8,10.4,M,-34.5,M,,*60
$PYRTM,2024,127.502867626725,18.612515036863
$GPGGA,120406.00,3327.0124,N,11904.0278,W,1,11,0.8,8.4,M,-34.5,M,,*56
$PYRTM,2024,127.502879215428,18.612526625567
$GPGGA,120407.00,3327.0117,N,11904.0269,W,1,11,0.8,9.0,M,-34.5,M,,*52
$PYRTM,2024,127.502890773935,18.612538184074
$GPGGA,120408.00,3327.0109,N,11904.0262,W,1,11,0.8,11.2,M,-34.5,M,,*62
$PYRTM,2024,127.502901429120,18.612548839259
$GPGGA,120409.00,3327.0103,N,11904.0255,W,1,11,0.8,11.5,M,-34.5,M,,*6A
$PYRTM,2024,127.502913357118,18.612560767257
$GPGGA,120410.00,3327.0098,N,11904.0246,W,1,11,0.8,9.9,M,-34.5,M,,*56
$PYRTM,2024,127.502922615046,18.612570025197
$GPGGA,120411.00,3327.0096,N,11904.0235,W,1,11,0.8,8.6,M,-34.5,M,,*53
$PYRTM,2024,127.502940323993,18.612587734132
$GPGGA,120412.00,3327.0094,N,11904.0224,W,1,11,0.8,10.0,M,-34.5,M,,*6D
$PYRTM,2024,127.502951444317,18.612598854456
$GPGGA,120413.00,3327.0090,N,11904.0215,W,1,11,0.8,10.8,M,-34.5,M,,*62
$PYRTM,2024,127.502962533912,18.612609944051
$GPGGA,120414.00,3327.0084,N,11904.0209,W,1,11,0.8,10.1,M,-34.5,M,,*64
$PYRTM,2024,127.502973657951,18.612621068090
$GPGGA,120415.00,3327.0077,N,11904.0205,W,1,11,0.8,10.2,M,-34.5,M,,*66
$PYRTM,2024,127.502984769537,18.612632179676
$GPGGA,120416.00,3327.0073,N,11904.0198,W,1,11,0.8,12.5,M,-34.5,M,,*63
$PYRTM,2024,127.502995867465,18.612643277604
$GPGGA,120417.00,3327.0068,N,11904.0188,W,1,11,0.8,11.2,M,-34.5,M,,*6D
$PYRTM,2024,127.503006993472,18.612654403611
$GPGGA,120418.00,3327.0064,N,11904.0176,W,1,10,0.8,11.0,M,-34.5,M,,*6C
$PYRTM,2024,127.503018097141,18.612665507280
$GPGGA,120419.00,3327.0059,N,11904.0166,W,1,11,0.8,11.3,M,-34.5,M,,*60
$PYRTM,2024,127.503036624688,18.612684034826
$GPGGA,120420.00,3327.0053,N,11904.0158,W,1,11,0.8,12.0,M,-34.5,M,,*6D
$PYRTM,2024,127.503047732766,18.612695142905
$GPGGA,120421.00,3327.0048,N,11904.0153,W,1,11,0.8,14.3,M,-34.5,M,,*68
$PYRTM,2024,127.503058843727,18.612706253866
$GPGGA,120422.00,3327.0044,N,11904.0148,W,1,11,0.8,15.4,M,-34.5,M,,*6B
$PYRTM,2024,127.503069955463,18.612717365602
$GPGGA,120423.00,3327.0040,N,11904.0142,W,1,11,0.8,13.3,M,-34.5,M,,*65
$PYRTM,2024,127.503081061007,18.612728471146
$GPGGA,120424.00,3327.0035,N,11904.0135,W,1,11,0.8,7.9,M,-34.5,M,,*5F
$PYRTM,2024,127.503092180116,18.612739590255
$GPGGA,120425.00,3327.0030,N,11904.0127,W,1,11,0.8,7.8,M,-34.5,M,,*59
$PYRTM,2024,127.503103289572,18.612750699722
$GPGGA,120426.00,3327.0025,N,11904.0119,W,1,11,0.8,8.3,M,-34.5,M,,*57
$PYRTM,2024,127.503114413970,18.612761824109
$GPGGA,120427.00,3327.0021,N,11904.0108,W,1,11,0.8,8.8,M,-34.5,M,,*59
$PYRTM,2024,127.503125505521,18.612772915660
$GPGGA,120428.00,3327.0016,N,11904.0097,W,1,11,0.8,10.2,M,-34.5,M,,*66
$PYRTM,2024,127.503136631319,18.612784041458
$GPGGA,120429.00,3327.0010,N,11904.0088,W,1,11,0.8,9.0,M,-34.5,M,,*55
$PYRTM,2024,127.503147734769,18.612795144907
$GPGGA,120430.00,3327.0003,N,11904.0081,W,1,11,0.8,8.1,M,-34.5,M,,*56
$PYRTM,2024,127.503159063507,18.612806473646
$GPGGA,120431.00,3326.9997,N,11904.0076,W,1,11,0.8,9.1,M,-34.5,M,,*52
$PYRTM,2024,127.503170187187,18.612817597326
$GPGGA,120432.00,3326.9995,N,11904.0068,W,1,11,0.8,7.3,M,-34.5,M,,*50
$PYRTM,2024,127.503181287083,18.612828697222
$GPGGA,120433.00,3326.9993,N,11904.0058,W,1,11,0.8,5.1,M,-34.5,M,,*54
$PYRTM,2024,127.503192404525,18.612839814664
$GPGGA,120434.00,3326.9990,N,11904.0050,W,1,11,0.8,5.3,M,-34.5,M,,*5A
$PYRTM,2024,127.503214851076,18.612862261215
$GPGGA,120435.00,3326.9983,N,11904.0044,W,1,11,0.8,7.8,M,-34.5,M,,*55
$PYRTM,2024,127.503225963970,18.612873374109
$GPGGA,120436.00,3326.9975,N,11904.0036,W,1,11,0.8,10.5,M,-34.5,M,,*61
$PYRTM,2024,127.503237074190,18.612884484329
$GPGGA,120437.00,3326.9968,N,11904.0026,W,1,11,0.8,13.1,M,-34.5,M,,*6A
$PYRTM,2024,127.503248184583,18.612895594722
$GPGGA,120438.00,3326.9964,N,11904.0015,W,1,11,0.8,10.0,M,-34.5,M,,*6B
$PYRTM,2024,127.503259295556,18.612906705694
$GPGGA,120439.00,3326.9959,N,11904.0005,W,1,11,0.8,10.7,M,-34.5,M,,*62
$PYRTM,2024,127.503270407986,18.612917818125
$GPGGA,120440.00,3326.9953,N,11903.9998,W,1,11,0.8,11.5,M,-34.5,M,,*66
$PYRTM,2024,127.503281517870,18.612928928009
$GPGGA,120441.00,3326.9947,N,11903.9993,W,1,11,0.8,11.0,M,-34.5,M,,*6C
$PYRTM,2024,127.503292630475,18.612940040613
$GPGGA,120442.00,3326.9941,N,11903.9987,W,1,11,0.8,9.0,M,-34.5,M,,*55
$PYRTM,2024,127.503303740613,18.612951150752
$GPGGA,120443.00,3326.9935,N,11903.9980,W,1,11,0.8,9.1,M,-34.5,M,,*51
$PYRTM,2024,127.503314851586,18.612962261725
$GPGGA,120444.00,3326.9931,N,11903.9972,W,1,11,0.8,11.5,M,-34.5,M,,*62
$PYRTM,2024,127.503325961840,18.612973371979
$GPGGA,120445.00,3326.9925,N,11903.9964,W,1,11,0.8,11.6,M,-34.5,M,,*62
$PYRTM,2024,127.503337075451,18.612984485602
$GPGGA,120446.00,3326.9919,N,11903.9955,W,1,11,0.8,12.6,M,-34.5,M,,*6F
$PYRTM,2024,127.503348184884,18.612995595023
$GPGGA,120447.00,3326.9914,N,11903.9945,W,1,11,0.8,12.2,M,-34.5,M,,*66
$PYRTM,2024,127.503359297350,18.613006707488
$GPGGA,120448.00,3326.9910,N,11903.9935,W,1,11,0.8,12.7,M,-34.5,M,,*6F
$PYRTM,2024,127.503370407211,18.613017817350
$GPGGA,120449.00,3326.9906,N,11903.9928,W,1,11,0.8,9.4,M,-34.5,M,,*5C
$PYRTM,2024,127.503381519722,18.613028929861
$GPGGA,120450.00,3326.9902,N,11903.9921,W,1,11,0.8,8.4,M,-34.5,M,,*58
$PYRTM,2024,127.503392630394,18.613040040532
$GPGGA,120451.00,3326.9897,N,11903.9916,W,1,11,0.8,8.6,M,-34.5,M,,*52
$PYRTM,2024,127.503403743032,18.613051153171
$GPGGA,120452.00,3326.9891,N,11903.9908,W,1,11,0.8,7.8,M,-34.5,M,,*59
$PYRTM,2024,127.503414736794,18.613062146933
$GPGGA,120453.00,3326.9887,N,11903.9899,W,1,11,0.8,9.8,M,-34.5,M,,*58
$PYRTM,2024,127.503425848657,18.613073258796
$GPGGA,120454.00,3326.9884,N,11903.9888,W,1,11,0.8,8.9,M,-34.5,M,,*5C
$PYRTM,2024,127.503436959016,18.613084369155
$GPGGA,120455.00,3326.9879,N,11903.9880,W,1,11,0.8,9.1,M,-34.5,M,,*5E
$PYRTM,2024,127.503448071667,18.613095481817
$GPGGA,120456.00,3326.9872,N,11903.9873,W,1,11,0.8,9.4,M,-34.5,M,,*5F
$PYRTM,2024,127.503459181979,18.613106592118
$GPGGA,120457.00,3326.9864,N,11903.9867,W,1,11,0.8,8.0,M,-34.5,M,,*59
$PYRTM,2024,127.503470292338,18.613117702477
$GPGGA,120458.00,3326.9860,N,11903.9859,W,1,11,0.8,7.0,M,-34.5,M,,*50
$PYRTM,2024,127.503492630648,18.613140040949
$GPGGA,120459.00,3326.9856,N,11903.9852,W,1,11,0.8,9.3,M,-34.5,M,,*52
$PYRTM,2024,127.503503742431,18.613151152569
$GPGGA,120500.00,3326.9852,N,11903.9843,W,1,11,0.8,9.2,M,-34.5,M,,*5A
$PYRTM,2024,127.503514406609,18.613161816748
$GPGGA,120501.00,3326.9846,N,11903.9835,W,1,11,0.8,12.3,M,-34.5,M,,*64
$PYRTM,2024,127.503525515509,18.613172925648
$GPGGA,120502.00,3326.9838,N,11903.9827,W,1,11,0.8,11.3,M,-34.5,M,,*6E
$PYRTM,2024,127.503537667037,18.613185077176
$GPGGA,120503.00,3326.9832,N,11903.9818,W,1,11,0.8,9.8,M,-34.5,M,,*5B
$PYRTM,2024,127.503548779120,18.613196189259
$GPGGA,120504.00,3326.9828,N,11903.9808,W,1,11,0.8,11.5,M,-34.6,M,,*61
$PYRTM,2024,127.503559890521,18.613207300660
$GPGGA,120505.00,3326.9823,N,11903.9798,W,1,11,0.8,11.2,M,-34.5,M,,*69
$PYRTM,2024,127.503571000521,18.613218410660
$GPGGA,120506.00,3326.9819,N,11903.9791,W,1,11,0.8,14.1,M,-34.6,M,,*6F
$PYRTM,2024,127.503582111690,18.613229521829
$GPGGA,120507.00,3326.9814,N,11903.9786,W,1,11,0.8,13.7,M,-34.6,M,,*64
$PYRTM,2024,127.503593224838,18.613240634977
$GPGGA,120508.00,3326.9809,N,11903.9778,W,1,11,0.8,11.7,M,-34.6,M,,*64
$PYRTM,2024,127.503604329456,18.613251739606
$GPGGA,120509.00,3326.9804,N,11903.9770,W,1,11,0.8,11.4,M,-34.6,M,,*63
$PYRTM,2024,127.503615445694,18.613262855833
$GPGGA,120510.00,3326.9798,N,11903.9761,W,1,11,0.8,13.5,M,-34.6,M,,*62
$PYRTM,2024,127.503626557778,18.613273967917
$GPGGA,120511.00,3326.9791,N,11903.9753,W,1,11,0.8,13.8,M,-34.6,M,,*66
$PYRTM,2024,127.503637664155,18.613285074294
$GPGGA,120512.00,3326.9785,N,11903.9745,W,1,11,0.8,11.0,M,-34.6,M,,*6D
$PYRTM,2024,127.503648779722,18.613296189861
$GPGGA,120513.00,3326.9779,N,11903.9735,W,1,11,0.8,12.3,M,-34.6,M,,*68
$PYRTM,2024,127.503659890486,18.613307300625
$GPGGA,120514.00,3326.9775,N,11903.9725,W,1,11,0.8,10.8,M,-34.6,M,,*6B
$PYRTM,2024,127.503671112674,18.613318522824
$GPGGA,120515.00,3326.9769,N,11903.9716,W,1,11,0.8,10.6,M,-34.6,M,,*69
$PYRTM,2024,127.503682115336,18.613329525475
$GPGGA,120516.00,3326.9762,N,11903.9709,W,1,11,0.8,9.5,M,-34.6,M,,*54
$PYRTM,2024,127.503693225926,18.613340636065
$GPGGA,120517.00,3326.9756,N,11903.9703,W,1,11,0.8,8.2,M,-34.6,M,,*5E
$PYRTM,2024,127.503704335637,18.613351745775
$GPGGA,120518.00,3326.9751,N,11903.9696,W,1,11,0.8,9.0,M,-34.6,M,,*58
$PYRTM,2024,127.503715445891,18.613362856030
$GPGGA,120519.00,3326.9747,N,11903.9688,W,1,11,0.8,9.4,M,-34.6,M,,*55
$PYRTM,2024,127.503726546632,18.613373956771
$GPGGA,120520.00,3326.9740,N,11903.9680,W,1,11,0.8,13.1,M,-34.6,M,,*6E
$PYRTM,2024,127.503737663391,18.613385073530
$GPGGA,120521.00,3326.9733,N,11903.9671,W,1,11,0.8,11.0,M,-34.6,M,,*66
$PYRTM,2024,127.503748769306,18.613396179444
$GPGGA,120522.00,3326.9728,N,11903.9659,W,1,11,0.8,10.8,M,-34.6,M,,*6C
$PYRTM,2024,127.503759879745,18.613407289884
$GPGGA,120523.00,3326.9727,N,11903.9648,W,1,11,0.8,11.1,M,-34.6,M,,*6A
$PYRTM,2024,127.503771003356,18.613418413495
$GPGGA,120524.00,3326.9725,N,11903.9639,W,1,10,0.8,12.4,M,-34.6,M,,*6E
$PYRTM,2024,127.503782335278,18.613429745417
$GPGGA,120525.00,3326.9721,N,11903.9632,W,1,11,0.8,10.3,M,-34.6,M,,*64
$PYRTM,2024,127.503793561157,18.613440971296
$GPGGA,120526.00,3326.9713,N,11903.9626,W,1,11,0.8,9.4,M,-34.6,M,,*5C
$PYRTM,2024,127.503805150787,18.613452560926
$GPGGA,120527.00,3326.9708,N,11903.9617,W,1,11,0.8,9.9,M,-34.6,M,,*58
$PYRTM,2024,127.503816710822,18.613464120961
$GPGGA,120528.00,3326.9706,N,11903.9606,W,1,11,0.8,9.1,M,-34.6,M,,*51
$PYRTM,2024,127.503828295058,18.613475705197
$GPGGA,120529.00,3326.9704,N,11903.9593,W,1,11,0.8,11.1,M,-34.6,M,,*64
$PYRTM,2024,127.503839856470,18.613487266609
$GPGGA,120530.00,3326.9699,N,11903.9583,W,1,11,0.8,10.4,M,-34.6,M,,*6C
$PYRTM,2024,127.503850159398,18.613497569537
$GPGGA,120531.00,3326.9692,N,11903.9574,W,1,11,0.8,10.7,M,-34.6,M,,*6D
$PYRTM,2024,127.503861970880,18.613509381019
$GPGGA,120532.00,3326.9686,N,11903.9567,W,1,11,0.8,11.7,M,-34.6,M,,*68
$PYRTM,2024,127.503874591238,18.613522001377
$GPGGA,120533.00,3326.9685,N,11903.9557,W,1,11,0.8,9.3,M,-34.6,M,,*54
$PYRTM,2024,127.503886154086,18.613533564236
$GPGGA,120534.00,3326.9685,N,11903.9547,W,1,11,0.8,5.9,M,-34.6,M,,*54
$PYRTM,2024,127.503897735868,18.613545146007
$GPGGA,120535.00,3326.9681,N,11903.9538,W,1,11,0.8,6.2,M,-34.6,M,,*51
$PYRTM,2024,127.503909303391,18.613556713530
$GPGGA,120536.00,3326.9672,N,11903.9532,W,1,11,0.8,7.6,M,-34.6,M,,*51
$PYRTM,2024,127.503920884294,18.613568294433
$GPGGA,120537.00,3326.9664,N,11903.9526,W,1,11,0.8,9.3,M,-34.6,M,,*59
$PYRTM,2024,127.503932449769,18.613579859907
$GPGGA,120538.00,3326.9661,N,11903.9516,W,1,11,0.8,11.6,M,-34.6,M,,*6C
$PYRTM,2024,127.503944037419,18.613591447558
$GPGGA,120539.00,3326.9661,N,11903.9504,W,1,11,0.8,11.0,M,-34.6,M,,*68
$PYRTM,2024,127.503955600046,18.613603010197
$GPGGA,120540.00,3326.9659,N,11903.9494,W,1,11,0.8,11.6,M,-34.6,M,,*63
$PYRTM,2024,127.503967188738,18.613614598877
$GPGGA,120541.00,3326.9654,N,11903.9485,W,1,11,0.8,9.0,M,-34.6,M,,*50
$PYRTM,2024,127.503978748646,18.613626158785
$GPGGA,120542.00,3326.9648,N,11903.9481,W,1,11,0.8,8.4,M,-34.6,M,,*5F
$PYRTM,2024,127.503990336725,18.613637746863
$GPGGA,120543.00,3326.9642,N,11903.9475,W,1,11,0.8,7.6,M,-34.6,M,,*52
$PYRTM,2024,127.504001895602,18.613649305752
$GPGGA,120544.00,3326.9638,N,11903.9467,W,1,11,0.8,9.6,M,-34.6,M,,*55
$PYRTM,2024,127.504013482350,18.613660892488
$GPGGA,120545.00,3326.9634,N,11903.9458,W,1,11,0.8,11.5,M,-34.6,M,,*6E
$PYRTM,2024,127.504025043160,18.613672453299
$GPGGA,120546.00,3326.9629,N,11903.9450,W,1,11,0.8,12.3,M,-34.6,M,,*6C
$PYRTM,2024,127.504036629653,18.613684039792
$GPGGA,120547.00,3326.9624,N,11903.9441,W,1,11,0.8,12.0,M,-34.6,M,,*63
$PYRTM,2024,127.504048190949,18.613695601088
$GPGGA,120548.00,3326.9620,N,11903.9432,W,1,11,0.8,12.9,M,-34.6,M,,*65
$PYRTM,2024,127.504059778333,18.613707188472
$GPGGA,120549.00,3326.9617,N,11903.9424,W,1,11,0.8,10.0,M,-34.6,M,,*6C
$PYRTM,2024,127.504071340799,18.613718750938
$GPGGA,120550.00,3326.9614,N,11903.9415,W,1,11,0.8,8.9,M,-34.6,M,,*55
$PYRTM,2024,127.504082928831,18.613730338970
$GPGGA,120551.00,3326.9609,N,11903.9408,W,1,11,0.8,7.9,M,-34.6,M,,*5B
$PYRTM,2024,127.504094489144,18.613741899282
$GPGGA,120552.00,3326.9602,N,11903.9401,W,1,11,0.8,9.6,M,-34.6,M,,*5B
$PYRTM,2024,127.504106074549,18.613753484687
$GPGGA,120553.00,3326.9595,N,11903.9394,W,1,11,0.8,9.4,M,-34.6,M,,*5E
$PYRTM,2024,127.504117637060,18.613765047199
$GPGGA,120554.00,3326.9589,N,11903.9385,W,1,11,0.8,9.4,M,-34.6,M,,*54
$PYRTM,2024,127.504129224815,18.613776634954
$GPGGA,120555.00,3326.9586,N,11903.9374,W,1,11,0.8,10.5,M,-34.6,M,,*6D
$PYRTM,2024,127.504140786019,18.613788196157
$GPGGA,120556.00,3326.9584,N,11903.9362,W,1,11,0.8,11.1,M,-34.6,M,,*6E
$PYRTM,2024,127.504152375637,18.613799785775
$GPGGA,120557.00,3326.9581,N,11903.9352,W,1,11,0.8,11.2,M,-34.6,M,,*6A
$PYRTM,2024,127.504163934097,18.613811344236
$GPGGA,120558.00,3326.9576,N,11903.9343,W,1,11,0.8,10.6,M,-34.6,M,,*68
$PYRTM,2024,127.504175524630,18.613822934769
$GPGGA,120559.00,3326.9571,N,11903.9336,W,1,11,0.8,10.0,M,-34.6,M,,*6A
$PYRTM,2024,127.504187081921,18.613834492072
$GPGGA,120600.00,3326.9566,N,11903.9329,W,1,11,0.8,12.4,M,-34.6,M,,*6B
$PYRTM,2024,127.504197383600,18.613844793738
$GPGGA,120601.00,3326.9561,N,11903.9321,W,1,11,0.8,13.1,M,-34.6,M,,*61
$PYRTM,2024,127.504209201111,18.613856611250
$GPGGA,120602.00,3326.9557,N,11903.9314,W,1,11,0.8,13.8,M,-34.6,M,,*68
$PYRTM,2024,127.504221816713,18.613869226852
$GPGGA,120603.00,3326.9554,N,11903.9305,W,1,11,0.8,12.2,M,-34.6,M,,*61
$PYRTM,2024,127.504233380058,18.613880790197
$GPGGA,120604.00,3326.9552,N,11903.9295,W,1,11,0.8,11.3,M,-34.6,M,,*6A
$PYRTM,2024,127.504244967986,18.613892378125
$GPGGA,120605.00,3326.9549,N,11903.9284,W,1,11,0.8,11.7,M,-34.6,M,,*65
$PYRTM,2024,127.504256528970,18.613903939120
$GPGGA,120606.00,3326.9546,N,11903.9273,W,1,11,0.8,10.6,M,-34.6,M,,*61
$PYRTM,2024,127.504268114225,18.613915524363
$GPGGA,120607.00,3326.9544,N,11903.9262,W,1,11,0.8,11.6,M,-34.6,M,,*63
$PYRTM,2024,127.504279676609,18.613927086748
$GPGGA,120608.00,3326.9541,N,11903.9253,W,1,11,0.8,13.5,M,-34.6,M,,*6A
$PYRTM,2024,127.504291264549,18.613938674687
$GPGGA,120609.00,3326.9537,N,11903.9244,W,1,11,0.8,11.0,M,-34.6,M,,*6B
$PYRTM,2024,127.504302824410,18.613950234549
$GPGGA,120610.00,3326.9533,N,11903.9233,W,1,11,0.8,12.6,M,-34.6,M,,*62
$PYRTM,2024,127.504314411458,18.613961821597
$GPGGA,120611.00,3326.9531,N,11903.9221,W,1,11,0.8,10.8,M,-34.6,M,,*6E
$PYRTM,2024,127.504325974352,18.613973384491
$GPGGA,120612.00,3326.9531,N,11903.9211,W,1,11,0.8,9.6,M,-34.6,M,,*58
$PYRTM,2024,127.504337563137,18.613984973275
$GPGGA,120613.00,3326.9530,N,11903.9201,W,1,11,0.8,9.3,M,-34.6,M,,*5C
$PYRTM,2024,127.504348197674,18.613995607812
$GPGGA,120614.00,3326.9527,N,11903.9190,W,1,11,0.8,10.9,M,-34.6,M,,*64
$PYRTM,2024,127.504360129294,18.614007539433
$GPGGA,120615.00,3326.9522,N,11903.9178,W,1,11,0.8,13.1,M,-34.6,M,,*6D
$PYRTM,2024,127.504370893530,18.614018303681
$GPGGA,120616.00,3326.9519,N,11903.9166,W,1,11,0.8,12.2,M,-34.6,M,,*6B
$PYRTM,2024,127.504382004757,18.614029414907
$GPGGA,120617.00,3326.9517,N,11903.9154,W,1,11,0.8,14.1,M,-34.6,M,,*60
$PYRTM,2024,127.504393118924,18.614040529074
$GPGGA,120618.00,3326.9516,N,11903.9141,W,1,11,0.8,14.8,M,-34.6,M,,*63
$PYRTM,2024,127.504404234063,18.614051644201
$GPGGA,120619.00,3326.9513,N,11903.9128,W,1,11,0.8,15.4,M,-34.6,M,,*65
$PYRTM,2024,127.504415342998,18.614062753148
$GPGGA,120620.00,3326.9510,N,11903.9117,W,1,11,0.8,11.8,M,-34.6,M,,*68
$PYRTM,2024,127.504426451840,18.614073861979
$GPGGA,120621.00,3326.9509,N,11903.9109,W,1,11,0.8,10.0,M,-34.6,M,,*67
$PYRTM,2024,127.504437445799,18.614084855937
$GPGGA,120622.00,3326.9509,N,11903.9100,W,1,11,0.8,9.2,M,-34.6,M,,*57
$PYRTM,2024,127.504448556400,18.614095966539
$GPGGA,120623.00,3326.9509,N,11903.9090,W,1,11,0.8,11.7,M,-34.6,M,,*62
$PYRTM,2024,127.504459669144,18.614107079282
$GPGGA,120624.00,3326.9508,N,11903.9079,W,1,11,0.8,11.3,M,-34.6,M,,*67
$PYRTM,2024,127.504471242477,18.614118652616
$GPGGA,120625.00,3326.9506,N,11903.9066,W,1,11,0.8,12.4,M,-34.6,M,,*62
$PYRTM,2024,127.504482815868,18.614130226007
$GPGGA,120626.00,3326.9504,N,11903.9052,W,1,11,0.8,12.7,M,-34.6,M,,*67
$PYRTM,2024,127.504494389560,18.614141799699
$GPGGA,120627.00,3326.9504,N,11903.9038,W,1,10,0.8,11.6,M,-34.6,M,,*69
$PYRTM,2024,127.504505835255,18.614153245394
$GPGGA,120628.00,3326.9503,N,11903.9026,W,1,11,0.8,9.8,M,-34.6,M,,*58
$PYRTM,2024,127.504517534537,18.614164944688
$GPGGA,120629.00,3326.9501,N,11903.9016,W,1,11,0.8,10.1,M,-34.6,M,,*69
$PYRTM,2024,127.504528982951,18.614176393090
$GPGGA,120630.00,3326.9497,N,11903.9009,W,1,11,0.8,8.1,M,-34.6,M,,*58
$PYRTM,2024,127.504545898530,18.614193308669
$GPGGA,120631.00,3326.9493,N,11903.9001,W,1,11,0.8,8.1,M,-34.6,M,,*55
$PYRTM,2024,127.504557456377,18.614204866528
$GPGGA,120632.00,3326.9490,N,11903.8992,W,1,11,0.8,8.4,M,-34.6,M,,*52
$PYRTM,2024,127.504569031493,18.614216441632
$GPGGA,120633.00,3326.9489,N,11903.8980,W,1,11,0.8,9.9,M,-34.6,M,,*54
$PYRTM,2024,127.504580605579,18.614228015718
$GPGGA,120634.00,3326.9488,N,11903.8968,W,1,11,0.8,10.9,M,-34.6,M,,*6C
$PYRTM,2024,127.504592193380,18.614239603530
$GPGGA,120635.00,3326.9486,N,11903.8954,W,1,11,0.8,12.1,M,-34.6,M,,*66
$PYRTM,2024,127.504603752662,18.614251162801
$GPGGA,120636.00,3326.9483,N,11903.8941,W,1,11,0.8,12.3,M,-34.6,M,,*66
$PYRTM,2024,127.504615335914,18.614262746065
$GPGGA,120637.00,3326.9478,N,11903.8930,W,1,11,0.8,11.1,M,-34.6,M,,*64
$PYRTM,2024,127.504626903426,18.614274313565
$GPGGA,120638.00,3326.9474,N,11903.8920,W,1,11,0.8,8.6,M,-34.6,M,,*59
$PYRTM,2024,127.504638488900,18.614285899039
$GPGGA,120639.00,3326.9473,N,11903.8908,W,1,11,0.8,12.5,M,-34.6,M,,*6D
$PYRTM,2024,127.504650048762,18.614297458900
$GPGGA,120640.00,3326.9475,N,11903.8896,W,1,11,0.8,10.1,M,-34.6,M,,*65
$PYRTM,2024,127.504661636852,18.614309046991
$GPGGA,120641.00,3326.9476,N,11903.8884,W,1,11,0.8,7.8,M,-34.5,M,,*58
$PYRTM,2024,127.504673198576,18.614320608715
$GPGGA,120642.00,3326.9475,N,11903.8873,W,1,11,0.8,8.2,M,-34.5,M,,*55
$PYRTM,2024,127.504684788900,18.614332199039
$GPGGA,120643.00,3326.9474,N,11903.8863,W,1,11,0.8,10.2,M,-34.5,M,,*6D
$PYRTM,2024,127.504696347870,18.614343758009
$GPGGA,120644.00,3326.9473,N,11903.8851,W,1,11,0.8,9.5,M,-34.5,M,,*53
$PYRTM,2024,127.504707831933,18.614355242072
$GPGGA,120645.00,3326.9472,N,11903.8840,W,1,11,0.8,8.2,M,-34.5,M,,*55
$PYRTM,2024,127.504719394016,18.614366804155
$GPGGA,120646.00,3326.9473,N,11903.8829,W,1,11,0.8,7.4,M,-34.5,M,,*51
$PYRTM,2024,127.504730980764,18.614378390903
$GPGGA,120647.00,3326.9473,N,11903.8819,W,1,11,0.8,8.3,M,-34.5,M,,*5B
$PYRTM,2024,127.504742540868,18.614389951007
$GPGGA,120648.00,3326.9472,N,11903.8808,W,1,11,0.8,8.0,M,-34.5,M,,*56
$PYRTM,2024,127.504754116863,18.614401527014
$GPGGA,120649.00,3326.9468,N,11903.8797,W,1,11,0.8,8.3,M,-34.5,M,,*56
$PYRTM,2024,127.504765688669,18.614413098808
$GPGGA,120650.00,3326.9465,N,11903.8786,W,1,10,0.8,8.7,M,-34.5,M,,*56
$PYRTM,2024,127.504777264942,18.614424675081
$GPGGA,120651.00,3326.9465,N,11903.8775,W,1,10,0.8,9.2,M,-34.5,M,,*5F
$PYRTM,2024,127.504788837072,18.614436247211
$GPGGA,120652.00,3326.9468,N,11903.8764,W,1,10,0.8,9.6,M,-34.5,M,,*55
$PYRTM,2024,127.504800526076,18.614447936215
$GPGGA,120653.00,3326.9468,N,11903.8754,W,1,10,0.8,10.0,M,-34.5,M,,*69
$PYRTM,2024,127.504811985035,18.614459395174
$GPGGA,120654.00,3326.9465,N,11903.8744,W,1,10,0.8,9.7,M,-34.5,M,,*5D
$PYRTM,2024,127.504823559525,18.614470969664
$GPGGA,120655.00,3326.9462,N,11903.8736,W,1,10,0.8,9.5,M,-34.5,M,,*5C
$PYRTM,2024,127.504835133819,18.614482543958
$GPGGA,120656.00,3326.9461,N,11903.8725,W,1,10,0.8,9.5,M,-34.5,M,,*5E
$PYRTM,2024,127.504846710625,18.614494120764
$GPGGA,120657.00,3326.9463,N,11903.8712,W,1,10,0.8,9.4,M,-34.5,M,,*58
$PYRTM,2024,127.504858385278,18.614505795417
$GPGGA,120658.00,3326.9464,N,11903.8699,W,1,10,0.8,11.6,M,-34.5,M,,*69
$PYRTM,2024,127.504869985451,18.614517395590
$GPGGA,120659.00,3326.9464,N,11903.8686,W,1,10,0.8,14.3,M,-34.5,M,,*66
$PYRTM,2024,127.504881532870,18.614528943009
$GPGGA,120700.00,3326.9462,N,11903.8674,W,1,10,0.8,14.8,M,-34.5,M,,*6B
$PYRTM,2024,127.504891721424,18.614539131563
$GPGGA,120701.00,3326.9462,N,11903.8663,W,1,10,0.8,14.8,M,-34.5,M,,*6C
$PYRTM,2024,127.504903653750,18.614551063889
$GPGGA,120702.00,3326.9463,N,11903.8652,W,1,10,0.8,12.5,M,-34.5,M,,*67
$PYRTM,2024,127.504916271273,18.614563681400
$GPGGA,120703.00,3326.9465,N,11903.8642,W,1,10,0.8,11.3,M,-34.5,M,,*64
$PYRTM,2024,127.504927830741,18.614575240880
$GPGGA,120704.00,3326.9465,N,11903.8631,W,1,10,0.8,10.2,M,-34.5,M,,*67
$PYRTM,2024,127.504939417338,18.614586827477
$GPGGA,120705.00,3326.9462,N,11903.8620,W,1,10,0.8,12.0,M,-34.5,M,,*61
$PYRTM,2024,127.504950979410,18.614598389549
$GPGGA,120706.00,3326.9461,N,11903.8609,W,1,10,0.8,12.1,M,-34.5,M,,*6B
$PYRTM,2024,127.504962566609,18.614609976759
$GPGGA,120707.00,3326.9462,N,11903.8596,W,1,10,0.8,11.2,M,-34.5,M,,*6C
$PYRTM,2024,127.504974127315,18.614621537454
$GPGGA,120708.00,3326.9462,N,11903.8584,W,1,10,0.8,13.6,M,-34.5,M,,*66
$PYRTM,2024,127.504985715023,18.614633125162
$GPGGA,120709.00,3326.9461,N,11903.8570,W,1,10,0.8,14.5,M,-34.5,M,,*6B
$PYRTM,2024,127.504997276956,18.614644687095
$GPGGA,120710.00,3326.9458,N,11903.8557,W,1,10,0.8,12.3,M,-34.5,M,,*6C
$PYRTM,2024,127.505008862755,18.614656272894
$GPGGA,120711.00,3326.9456,N,11903.8546,W,1,10,0.8,13.2,M,-34.5,M,,*63
$PYRTM,2024,127.505020424537,18.614667834688
$GPGGA,120712.00,3326.9457,N,11903.8536,W,1,10,0.8,12.1,M,-34.5,M,,*64
$PYRTM,2024,127.505032006944,18.614679417083
$GPGGA,120713.00,3326.9458,N,11903.8526,W,1,10,0.8,14.1,M,-34.5,M,,*6D
$PYRTM,2024,127.505043573287,18.614690983426
$GPGGA,120714.00,3326.9459,N,11903.8517,W,1,10,0.8,12.4,M,-34.5,M,,*6A
$PYRTM,2024,127.505055056991,18.614702467141
$GPGGA,120715.00,3326.9459,N,11903.8508,W,1,10,0.8,9.8,M,-34.5,M,,*53
$PYRTM,2024,127.505066617523,18.614714027662
$GPGGA,120716.00,3326.9457,N,11903.8496,W,1,10,0.8,7.7,M,-34.5,M,,*59
$PYRTM,2024,127.505078195220,18.614725605359
$GPGGA,120717.00,3326.9455,N,11903.8485,W,1,10,0.8,8.7,M,-34.5,M,,*57
$PYRTM,2024,127.505089760671,18.614737170810
$GPGGA,120718.00,3326.9455,N,11903.8472,W,1,10,0.8,8.8,M,-34.5,M,,*5F
$PYRTM,2024,127.505101456597,18.614748866748
$GPGGA,120719.00,3326.9456,N,11903.8458,W,1,10,0.8,12.0,M,-34.5,M,,*66
$PYRTM,2024,127.505113017812,18.614760427951
$GPGGA,120720.00,3326.9457,N,11903.8445,W,1,10,0.8,12.2,M,-34.5,M,,*63
$PYRTM,2024,127.505124604236,18.614772014375
$GPGGA,120721.00,3326.9457,N,11903.8432,W,1,10,0.8,15.7,M,-34.5,M,,*60
$PYRTM,2024,127.505136165035,18.614783575174
$GPGGA,120722.00,3326.9456,N,11903.8420,W,1,10,0.8,13.9,M,-34.5,M,,*69
$PYRTM,2024,127.505147753391,18.614795163530
$GPGGA,120723.00,3326.9455,N,11903.8408,W,1,10,0.8,10.3,M,-34.5,M,,*68
$PYRTM,2024,127.505159212454,18.614806622593
$GPGGA,120724.00,3326.9456,N,11903.8397,W,1,10,0.8,7.8,M,-34.5,M,,*50
$PYRTM,2024,127.505170785486,18.614818195625
$GPGGA,120725.00,3326.9459,N,11903.8389,W,1,10,0.8,7.1,M,-34.5,M,,*58
$PYRTM,2024,127.505182354375,18.614829764514
$GPGGA,120726.00,3326.9461,N,11903.8380,W,1,10,0.8,9.6,M,-34.5,M,,*50
$PYRTM,2024,127.505194050035,18.614841460174
$GPGGA,120727.00,3326.9462,N,11903.8368,W,1,10,0.8,11.9,M,-34.5,M,,*62
$PYRTM,2024,127.505205610602,18.614853020741
$GPGGA,120728.00,3326.9464,N,11903.8352,W,1,10,0.8,11.5,M,-34.5,M,,*6E
$PYRTM,2024,127.505217198067,18.614864608218
$GPGGA,120729.00,3326.9466,N,11903.8338,W,1,10,0.8,12.9,M,-34.5,M,,*6E
$PYRTM,2024,127.505228760787,18.614876170926
$GPGGA,120730.00,3326.9468,N,11903.8325,W,1,10,0.8,12.8,M,-34.5,M,,*65
$PYRTM,2024,127.505239434340,18.614886844479
$GPGGA,120731.00,3326.9468,N,11903.8313,W,1,10,0.8,12.2,M,-34.5,M,,*6B
$PYRTM,2024,127.505250763449,18.614898173588
$GPGGA,120732.00,3326.9468,N,11903.8304,W,1,10,0.8,8.4,M,-34.5,M,,*53
$PYRTM,2024,127.505263395972,18.614910806111
$GPGGA,120733.00,3326.9469,N,11903.8296,W,1,10,0.8,9.6,M,-34.5,M,,*5A
$PYRTM,2024,127.505275057211,18.614922467350
$GPGGA,120734.00,3326.9471,N,11903.8286,W,1,10,0.8,11.5,M,-34.5,M,,*6F
$PYRTM,2024,127.505286642245,18.614934052384
$GPGGA,120735.00,3326.9474,N,11903.8277,W,1,10,0.8,13.2,M,-34.5,M,,*60
$PYRTM,2024,127.505298203831,18.614945613970
$GPGGA,120736.00,3326.9475,N,11903.8266,W,1,10,0.8,13.6,M,-34.5,M,,*66
$PYRTM,2024,127.505309790880,18.614957201019
$GPGGA,120737.00,3326.9474,N,11903.8255,W,1,10,0.8,16.3,M,-34.5,M,,*66
$PYRTM,2024,127.505321352431,18.614968762569
$GPGGA,120738.00,3326.9474,N,11903.8244,W,1,10,0.8,15.6,M,-34.5,M,,*6F
$PYRTM,2024,127.505332926863,18.614980337002
$GPGGA,120739.00,3326.9476,N,11903.8234,W,1,10,0.8,16.0,M,-34.5,M,,*6E
$PYRTM,2024,127.505344502396,18.614991912535
$GPGGA,120740.00,3326.9480,N,11903.8223,W,1,10,0.8,13.7,M,-34.5,M,,*6D
$PYRTM,2024,127.505356089502,18.615003499641
$GPGGA,120741.00,3326.9482,N,11903.8212,W,1,10,0.8,12.7,M,-34.5,M,,*6D
$PYRTM,2024,127.505367649213,18.615015059352
$GPGGA,120742.00,3326.9483,N,11903.8201,W,1,10,0.8,13.7,M,-34.5,M,,*6C
$PYRTM,2024,127.505379236146,18.615026646285
$GPGGA,120743.00,3326.9483,N,11903.8187,W,1,10,0.8,10.8,M,-34.5,M,,*6C
$PYRTM,2024,127.505390798438,18.615038208576
$GPGGA,120744.00,3326.9485,N,11903.8175,W,1,10,0.8,14.4,M,-34.5,M,,*68
$PYRTM,2024,127.505402374444,18.615049784583
$GPGGA,120745.00,3326.9490,N,11903.8165,W,1,10,0.8,13.8,M,-34.5,M,,*67
$PYRTM,2024,127.505413946713,18.615061356852
$GPGGA,120746.00,3326.9495,N,11903.8154,W,1,10,0.8,15.0,M,-34.5,M,,*6D
$PYRTM,2024,127.505425536470,18.615072946609
$GPGGA,120747.00,3326.9497,N,11903.8142,W,1,10,0.8,11.5,M,-34.5,M,,*68
$PYRTM,2024,127.505437094769,18.615084504907
$GPGGA,120748.00,3326.9496,N,11903.8129,W,1,10,0.8,12.6,M,-34.5,M,,*6B
$PYRTM,2024,127.505448684282,18.615096094421
$GPGGA,120749.00,3326.9496,N,11903.8118,W,1,10,0.8,12.6,M,-34.5,M,,*68
$PYRTM,2024,127.505460243391,18.615107653542
$GPGGA,120750.00,3326.9499,N,11903.8108,W,1,10,0.8,13.0,M,-34.5,M,,*69
$PYRTM,2024,127.505471831227,18.615119241366
$GPGGA,120751.00,3326.9504,N,11903.8098,W,1,10,0.8,11.8,M,-34.5,M,,*6F
$PYRTM,2024,127.505483391111,18.615130801250
$GPGGA,120752.00,3326.9506,N,11903.8087,W,1,10,0.8,11.6,M,-34.5,M,,*6E
$PYRTM,2024,127.505494973576,18.615142383715
$GPGGA,120753.00,3326.9507,N,11903.8076,W,1,10,0.8,13.1,M,-34.5,M,,*65
$PYRTM,2024,127.505506540289,18.615153950428
$GPGGA,120754.00,3326.9506,N,11903.8063,W,1,10,0.8,12.5,M,-34.5,M,,*62
$PYRTM,2024,127.505518126898,18.615165537037
$GPGGA,120755.00,3326.9508,N,11903.8050,W,1,10,0.8,14.1,M,-34.5,M,,*6F
$PYRTM,2024,127.505529688275,18.615177098414
$GPGGA,120756.00,3326.9512,N,11903.8038,W,1,10,0.8,13.9,M,-34.5,M,,*66
$PYRTM,2024,127.505541270382,18.615188680521
$GPGGA,120757.00,3326.9517,N,11903.8029,W,1,10,0.8,12.3,M,-34.5,M,,*69
$PYRTM,2024,127.505552835903,18.615200246042
$GPGGA,120758.00,3326.9522,N,11903.8018,W,1,10,0.8,12.8,M,-34.5,M,,*69
$PYRTM,2024,127.505564423206,18.615211833345
$GPGGA,120759.00,3326.9525,N,11903.8007,W,1,10,0.8,13.8,M,-34.5,M,,*60
$PYRTM,2024,127.505575985937,18.615223396076
$GPGGA,120800.00,3326.9527,N,11903.7994,W,1,10,0.8,14.8,M,-34.5,M,,*6A
$PYRTM,2024,127.505586170231,18.615233580370
$GPGGA,120801.00,3326.9529,N,11903.7982,W,1,10,0.8,12.6,M,-34.5,M,,*6A
$PYRTM,2024,127.505598103715,18.615245513854
$GPGGA,120802.00,3326.9532,N,11903.7970,W,1,10,0.8,11.6,M,-34.5,M,,*6D
$PYRTM,2024,127.505610735313,18.615258145451
$GPGGA,120803.00,3326.9536,N,11903.7958,W,1,10,0.8,12.0,M,-34.5,M,,*67
$PYRTM,2024,127.505622281898,18.615269692037
$GPGGA,120804.00,3326.9538,N,11903.7945,W,1,10,0.8,12.2,M,-34.5,M,,*60
$PYRTM,2024,127.505633871956,18.615281282095
$GPGGA,120805.00,3326.9540,N,11903.7931,W,1,10,0.8,11.1,M,-34.5,M,,*6D
$PYRTM,2024,127.505645430602,18.615292840741
$GPGGA,120806.00,3326.9544,N,11903.7919,W,1,10,0.8,11.3,M,-34.5,M,,*62
$PYRTM,2024,127.505657017593,18.615304427731
$GPGGA,120807.00,3326.9547,N,11903.7908,W,1,10,0.8,15.1,M,-34.5,M,,*66
$PYRTM,2024,127.505668577488,18.615315987627
$GPGGA,120808.00,3326.9549,N,11903.7897,W,1,10,0.8,15.3,M,-34.5,M,,*62
$PYRTM,2024,127.505680162697,18.615327572836
$GPGGA,120809.00,3326.9550,N,11903.7886,W,1,10,0.8,15.3,M,-34.5,M,,*6B
$PYRTM,2024,127.505691728808,18.615339138947
$GPGGA,120810.00,3326.9552,N,11903.7875,W,1,10,0.8,15.3,M,-34.5,M,,*6D
$PYRTM,2024,127.505703315035,18.615350725185
$GPGGA,120811.00,3326.9557,N,11903.7865,W,1,10,0.8,13.1,M,-34.5,M,,*6C
$PYRTM,2024,127.505714875058,18.615362285197
$GPGGA,120812.00,3326.9562,N,11903.7856,W,1,10,0.8,14.8,M,-34.5,M,,*67
$PYRTM,2024,127.505726452512,18.615373862650
$GPGGA,120813.00,3326.9565,N,11903.7845,W,1,10,0.8,15.0,M,-34.5,M,,*6A
$PYRTM,2024,127.505738025197,18.615385435336
$GPGGA,120814.00,3326.9566,N,11903.7833,W,1,10,0.8,15.8,M,-34.5,M,,*67
$PYRTM,2024,127.505749611424,18.615397021563
$GPGGA,120815.00,3326.9567,N,11903.7821,W,1,10,0.8,14.8,M,-34.5,M,,*65
$PYRTM,2024,127.505761172199,18.615408582338
$GPGGA,120816.00,3326.9570,N,11903.7810,W,1,10,0.8,16.7,M,-34.5,M,,*6F
$PYRTM,2024,127.505772759780,18.615420169919
$GPGGA,120817.00,3326.9574,N,11903.7799,W,1,10,0.8,17.5,M,-34.5,M,,*67
$PYRTM,2024,127.505784320729,18.615431730868
$GPGGA,120818.00,3326.9578,N,11903.7787,W,1,10,0.8,15.8,M,-34.5,M,,*64
$PYRTM,2024,127.505794985174,18.615442395312
$GPGGA,120819.00,3326.9581,N,11903.7777,W,1,10,0.8,13.5,M,-34.5,M,,*67
$PYRTM,2024,127.505806902315,18.615454312454
$GPGGA,120820.00,3326.9582,N,11903.7766,W,1,10,0.8,12.9,M,-34.5,M,,*63
$PYRTM,2024,127.505816031968,18.615463442118
$GPGGA,120821.00,3326.9586,N,11903.7755,W,1,10,0.8,12.1,M,-34.5,M,,*6E
$PYRTM,2024,127.505833625891,18.615481036030
$GPGGA,120822.00,3326.9591,N,11903.7744,W,1,10,0.8,14.5,M,-34.5,M,,*69
$PYRTM,2024,127.505844620995,18.615492031134
$GPGGA,120823.00,3326.9597,N,11903.7733,W,1,10,0.8,13.0,M,-34.5,M,,*6C
$PYRTM,2024,127.505855618183,18.615503028322
$GPGGA,120824.00,3326.9602,N,11903.7722,W,1,10,0.8,11.4,M,-34.5,M,,*62
$PYRTM,2024,127.505866730069,18.615514140208
$GPGGA,120825.00,3326.9605,N,11903.7710,W,1,10,0.8,10.5,M,-34.5,M,,*65
$PYRTM,2024,127.505877736539,18.615525146678
$GPGGA,120826.00,3326.9605,N,11903.7696,W,1,10,0.8,12.6,M,-34.5,M,,*68
$PYRTM,2024,127.505888836076,18.615536246215
$GPGGA,120827.00,3326.9607,N,11903.7682,W,1,10,0.8,11.3,M,-34.5,M,,*68
$PYRTM,2024,127.505899838438,18.615547248576
$GPGGA,120828.00,3326.9610,N,11903.7670,W,1,10,0.8,9.5,M,-34.5,M,,*53
$PYRTM,2024,127.505910955544,18.615558365683
$GPGGA,120829.00,3326.9616,N,11903.7657,W,1,10,0.8,12.9,M,-34.5,M,,*67
$PYRTM,2024,127.505922515451,18.615569925590
$GPGGA,120830.00,3326.9622,N,11903.7645,W,1,10,0.8,11.8,M,-34.5,M,,*69
$PYRTM,2024,127.505934792639,18.615582202778
$GPGGA,120831.00,3326.9626,N,11903.7632,W,1,10,0.8,14.8,M,-34.5,M,,*69
$PYRTM,2024,127.505946360197,18.615593770336
$GPGGA,120832.00,3326.9628,N,11903.7616,W,1,10,0.8,14.8,M,-34.5,M,,*62
$PYRTM,2024,127.505957946644,18.615605356782
$GPGGA,120833.00,3326.9628,N,11903.7600,W,1,10,0.8,14.5,M,-34.5,M,,*69
$PYRTM,2024,127.505969507581,18.615616917720
$GPGGA,120834.00,3326.9631,N,11903.7585,W,1,10,0.8,11.8,M,-34.5,M,,*60
$PYRTM,2024,127.505981097685,18.615628507824
$GPGGA,120835.00,3326.9635,N,11903.7574,W,1,10,0.8,12.2,M,-34.5,M,,*62
$PYRTM,2024,127.505992655243,18.615640065382
$GPGGA,120836.00,3326.9639,N,11903.7563,W,1,10,0.8,11.5,M,-34.5,M,,*6F
$PYRTM,2024,127.506004246250,18.615651656389
$GPGGA,120837.00,3326.9644,N,11903.7552,W,1,10,0.8,12.2,M,-34.5,M,,*62
$PYRTM,2024,127.506015805671,18.615663215822
