$PYRTM,2024,123.750008810127,14.859656220266
$GPGGA,175959.00,3435.6218,N,12103.9059,W,1,09,0.8,5.3,M,-33.4,M,,*5E
$PYRTM,2024,123.750020390359,14.859667800498
$GPGGA,180000.00,3435.6231,N,12103.9069,W,1,09,0.8,7.2,M,-33.4,M,,*5A
$PYRTM,2024,123.750031959225,14.859679369363
$GPGGA,180001.00,3435.6242,N,12103.9082,W,1,09,0.8,3.9,M,-33.4,M,,*55
$PYRTM,2024,123.750043536146,14.859690946285
$GPGGA,180002.00,3435.6252,N,12103.9098,W,1,09,0.8,4.3,M,-33.4,M,,*51
$PYRTM,2024,123.750055107407,14.859702517546
$GPGGA,180003.00,3435.6263,N,12103.9113,W,1,09,0.8,4.9,M,-33.4,M,,*5A
$PYRTM,2024,123.750066682454,14.859714092593
$GPGGA,180004.00,3435.6275,N,12103.9125,W,1,09,0.8,5.3,M,-33.4,M,,*54
$PYRTM,2024,123.750078251134,14.859725661273
$GPGGA,180005.00,3435.6288,N,12103.9134,W,1,09,0.8,5.9,M,-33.4,M,,*5D
$PYRTM,2024,123.750089830255,14.859737240394
$GPGGA,180006.00,3435.6301,N,12103.9144,W,1,09,0.8,6.7,M,-33.4,M,,*54
$PYRTM,2024,123.750101404630,14.859748814769
$GPGGA,180007.00,3435.6313,N,12103.9157,W,1,09,0.8,7.5,M,-33.4,M,,*57
$PYRTM,2024,123.750112978438,14.859760388576
$GPGGA,180008.00,3435.6324,N,12103.9175,W,1,09,0.8,7.2,M,-33.4,M,,*5B
$PYRTM,2024,123.750124552581,14.859771962720
$GPGGA,180009.00,3435.6337,N,12103.9190,W,1,09,0.8,6.7,M,-33.4,M,,*57
$PYRTM,2024,123.750136130660,14.859783540799
$GPGGA,180010.00,3435.6346,N,12103.9199,W,1,09,0.8,7.7,M,-33.4,M,,*51
$PYRTM,2024,123.750147702303,14.859795112442
$GPGGA,180011.00,3435.6357,N,12103.9205,W,1,09,0.8,8.5,M,-33.4,M,,*5B
$PYRTM,2024,123.750159278484,14.859806688623
$GPGGA,180012.00,3435.6371,N,12103.9216,W,1,09,0.8,9.6,M,-33.4,M,,*5C
$PYRTM,2024,123.750170849097,14.859818259236
$GPGGA,180013.00,3435.6385,N,12103.9233,W,1,09,0.8,7.2,M,-33.4,M,,*5B
$PYRTM,2024,123.750182426806,14.859829836944
$GPGGA,180014.00,3435.6393,N,12103.9249,W,1,09,0.8,6.8,M,-33.4,M,,*5D
$PYRTM,2024,123.750193998947,14.859841409097
$GPGGA,180015.00,3435.6399,N,12103.9259,W,1,09,0.8,7.1,M,-33.4,M,,*5F
$PYRTM,2024,123.750205571875,14.859852982014
$GPGGA,180016.00,3435.6410,N,12103.9269,W,1,09,0.8,8.8,M,-33.4,M,,*5F
$PYRTM,2024,123.750217146898,14.859864557037
$GPGGA,180017.00,3435.6426,N,12103.9281,W,1,09,0.8,5.5,M,-33.4,M,,*5D
$PYRTM,2024,123.750228720197,14.859876130336
$GPGGA,180018.00,3435.6441,N,12103.9294,W,1,09,0.8,5.7,M,-33.4,M,,*55
$PYRTM,2024,123.750240294537,14.859887704676
$GPGGA,180019.00,3435.6449,N,12103.9304,W,1,09,0.8,6.0,M,-33.4,M,,*50
$PYRTM,2024,123.750251868900,14.859899279039
$GPGGA,180020.00,3435.6456,N,12103.9312,W,1,09,0.8,7.5,M,-33.4,M,,*57
$PYRTM,2024,123.750263443032,14.859910853171
$GPGGA,180021.00,3435.6470,N,12103.9318,W,1,09,0.8,7.0,M,-33.4,M,,*5D
$PYRTM,2024,123.750273628426,14.859921038565
$GPGGA,180022.00,3435.6486,N,12103.9329,W,1,09,0.8,6.2,M,-33.4,M,,*56
$PYRTM,2024,123.750285550000,14.859932960139
$GPGGA,180023.00,3435.6494,N,12103.9343,W,1,09,0.8,6.2,M,-33.4,M,,*58
$PYRTM,2024,123.750298166852,14.859945576991
$GPGGA,180024.00,3435.6496,N,12103.9354,W,1,09,0.8,5.6,M,-33.4,M,,*5C
$PYRTM,2024,123.750309740787,14.859957150937
$GPGGA,180025.00,3435.6504,N,12103.9363,W,1,09,0.8,6.0,M,-33.4,M,,*56
$PYRTM,2024,123.750321313715,14.859968723866
$GPGGA,180026.00,3435.6517,N,12103.9374,W,1,09,0.8,5.4,M,-33.4,M,,*56
$PYRTM,2024,123.750332882639,14.859980292778
$GPGGA,180027.00,3435.6530,N,12103.9387,W,1,09,0.8,4.8,M,-33.4,M,,*53
$PYRTM,2024,123.750344465671,14.859991875810
$GPGGA,180028.00,3435.6540,N,12103.9399,W,1,09,0.8,4.6,M,-33.4,M,,*5A
$PYRTM,2024,123.750356035961,14.860003446100
$GPGGA,180029.00,3435.6548,N,12103.9410,W,1,09,0.8,4.6,M,-33.4,M,,*55
$PYRTM,2024,123.750367613495,14.860015023634
$GPGGA,180030.00,3435.6559,N,12103.9421,W,1,09,0.8,5.0,M,-33.4,M,,*58
$PYRTM,2024,123.750379179248,14.860026589387
$GPGGA,180031.00,3435.6570,N,12103.9431,W,1,09,0.8,5.3,M,-33.4,M,,*50
$PYRTM,2024,123.750390762269,14.860038172407
$GPGGA,180032.00,3435.6582,N,12103.9442,W,1,09,0.8,5.7,M,-33.4,M,,*5E
$PYRTM,2024,123.750402333935,14.860049744074
$GPGGA,180033.00,3435.6597,N,12103.9453,W,1,09,0.8,5.4,M,-33.4,M,,*58
$PYRTM,2024,123.750413906331,14.860061316470
$GPGGA,180034.00,3435.6610,N,12103.9467,W,1,09,0.8,4.6,M,-33.4,M,,*57
$PYRTM,2024,123.750425476574,14.860072886725
$GPGGA,180035.00,3435.6616,N,12103.9480,W,1,09,0.8,5.7,M,-33.4,M,,*59
$PYRTM,2024,123.750437056065,14.860084466204
$GPGGA,180036.00,3435.6620,N,12103.9487,W,1,09,0.8,7.8,M,-33.4,M,,*55
$PYRTM,2024,123.750448631238,14.860096041377
$GPGGA,180037.00,3435.6629,N,12103.9494,W,1,09,0.8,7.1,M,-33.4,M,,*56
$PYRTM,2024,123.750460204201,14.860107614352
$GPGGA,180038.00,3435.6643,N,12103.9506,W,1,09,0.8,6.5,M,-33.4,M,,*5A
$PYRTM,2024,123.750471774063,14.860119184201
$GPGGA,180039.00,3435.6653,N,12103.9520,W,1,09,0.8,5.5,M,-33.4,M,,*5D
$PYRTM,2024,123.750483353322,14.860130763461
$GPGGA,180040.00,3435.6661,N,12103.9530,W,1,09,0.8,6.2,M,-33.4,M,,*57
$PYRTM,2024,123.750494927488,14.860142337639
$GPGGA,180041.00,3435.6671,N,12103.9538,W,1,09,0.8,6.8,M,-33.4,M,,*55
$PYRTM,2024,123.750506515035,14.860153925185
$GPGGA,180042.00,3435.6682,N,12103.9546,W,1,09,0.8,7.1,M,-33.4,M,,*5B
$PYRTM,2024,123.750518074722,14.860165484861
$GPGGA,180043.00,3435.6693,N,12103.9558,W,1,09,0.8,7.2,M,-33.4,M,,*56
$PYRTM,2024,123.750529652616,14.860177062755
$GPGGA,180044.00,3435.6703,N,12103.9571,W,1,09,0.8,6.6,M,-33.4,M,,*57
$PYRTM,2024,123.750541223715,14.860188633854
$GPGGA,180045.00,3435.6714,N,12103.9584,W,1,09,0.8,6.6,M,-33.4,M,,*5A
$PYRTM,2024,123.750552797350,14.860200207488
$GPGGA,180046.00,3435.6725,N,12103.9591,W,1,09,0.8,6.8,M,-33.4,M,,*51
$PYRTM,2024,123.750564371331,14.860211781481
$GPGGA,180047.00,3435.6736,N,12103.9595,W,1,09,0.8,7.8,M,-33.4,M,,*57
$PYRTM,2024,123.750575945313,14.860223355463
$GPGGA,180048.00,3435.6745,N,12103.9603,W,1,09,0.8,7.6,M,-33.4,M,,*5E
$PYRTM,2024,123.750587519595,14.860234929734
$GPGGA,180049.00,3435.6756,N,12103.9615,W,1,09,0.8,6.8,M,-33.4,M,,*55
$PYRTM,2024,123.750599095069,14.860246505208
$GPGGA,180050.00,3435.6770,N,12103.9628,W,1,09,0.8,6.3,M,-33.4,M,,*5C
$PYRTM,2024,123.750610668866,14.860258079005
$GPGGA,180051.00,3435.6779,N,12103.9636,W,1,09,0.8,5.8,M,-33.4,M,,*53
$PYRTM,2024,123.750621317373,14.860268727512
$GPGGA,180052.00,3435.6787,N,12103.9642,W,1,09,0.8,6.0,M,-33.4,M,,*59
$PYRTM,2024,123.750632774803,14.860280184942
$GPGGA,180053.00,3435.6799,N,12103.9653,W,1,09,0.8,6.3,M,-33.4,M,,*54
$PYRTM,2024,123.750645393750,14.860292803900
$GPGGA,180054.00,3435.6813,N,12103.9668,W,1,09,0.8,6.0,M,-33.4,M,,*55
$PYRTM,2024,123.750656967292,14.860304377431
$GPGGA,180055.00,3435.6821,N,12103.9681,W,1,09,0.8,6.8,M,-33.4,M,,*5A
$PYRTM,2024,123.750667483171,14.860314893310
$GPGGA,180056.00,3435.6827,N,12103.9689,W,1,09,0.8,6.3,M,-33.4,M,,*5C
$PYRTM,2024,123.750680113275,14.860327523414
$GPGGA,180057.00,3435.6838,N,12103.9695,W,1,09,0.8,4.4,M,-33.4,M,,*5B
$PYRTM,2024,123.750691690382,14.860339100532
$GPGGA,180058.00,3435.6852,N,12103.9704,W,1,09,0.8,4.5,M,-33.4,M,,*50
$PYRTM,2024,123.750703262234,14.860350672373
$GPGGA,180059.00,3435.6861,N,12103.9713,W,1,09,0.8,6.1,M,-33.4,M,,*51
$PYRTM,2024,123.750714836597,14.860362246736
$GPGGA,180100.00,3435.6867,N,12103.9723,W,1,09,0.8,7.1,M,-33.4,M,,*58
$PYRTM,2024,123.750726409977,14.860373820116
$GPGGA,180101.00,3435.6877,N,12103.9733,W,1,09,0.8,8.0,M,-33.4,M,,*57
$PYRTM,2024,123.750737983530,14.860385393669
$GPGGA,180102.00,3435.6888,N,12103.9741,W,1,09,0.8,8.1,M,-33.4,M,,*50
$PYRTM,2024,123.750749559028,14.860396969167
$GPGGA,180103.00,3435.6899,N,12103.9746,W,1,09,0.8,8.7,M,-33.4,M,,*50
$PYRTM,2024,123.750761127894,14.860408538032
$GPGGA,180104.00,3435.6912,N,12103.9754,W,1,09,0.8,8.7,M,-33.4,M,,*56
$PYRTM,2024,123.750772704097,14.860420114236
$GPGGA,180105.00,3435.6924,N,12103.9767,W,1,09,0.8,7.6,M,-33.4,M,,*5C
$PYRTM,2024,123.750784282315,14.860431692454
$GPGGA,180106.00,3435.6931,N,12103.9781,W,1,09,0.8,8.0,M,-33.4,M,,*5A
$PYRTM,2024,123.750795854549,14.860443264699
$GPGGA,180107.00,3435.6940,N,12103.9792,W,1,09,0.8,8.7,M,-33.4,M,,*58
$PYRTM,2024,123.750807429444,14.860454839583
$GPGGA,180108.00,3435.6956,N,12103.9799,W,1,09,0.8,7.4,M,-33.4,M,,*57
$PYRTM,2024,123.750819003646,14.860466413785
$GPGGA,180109.00,3435.6972,N,12103.9809,W,1,09,0.8,5.6,M,-33.4,M,,*56
$PYRTM,2024,123.750830593044,14.860478003183
$GPGGA,180110.00,3435.6982,N,12103.9823,W,1,09,0.8,7.0,M,-33.4,M,,*5D
$PYRTM,2024,123.750842153056,14.860489563194
$GPGGA,180111.00,3435.6987,N,12103.9839,W,1,09,0.8,7.7,M,-33.4,M,,*55
$PYRTM,2024,123.750853728993,14.860501139132
$GPGGA,180112.00,3435.6996,N,12103.9851,W,1,09,0.8,8.0,M,-33.4,M,,*50
$PYRTM,2024,123.750865299537,14.860512709676
$GPGGA,180113.00,3435.7010,N,12103.9858,W,1,09,0.8,7.6,M,-33.4,M,,*57
$PYRTM,2024,123.750876878229,14.860524288368
$GPGGA,180114.00,3435.7025,N,12103.9866,W,1,09,0.8,6.7,M,-33.4,M,,*5B
$PYRTM,2024,123.750888448437,14.860535858576
$GPGGA,180115.00,3435.7035,N,12103.9881,W,1,09,0.8,6.1,M,-33.4,M,,*54
$PYRTM,2024,123.750900025347,14.860547435486
$GPGGA,180116.00,3435.7042,N,12103.9899,W,1,09,0.8,6.1,M,-33.4,M,,*5E
$PYRTM,2024,123.750911600683,14.860559010822
$GPGGA,180117.00,3435.7051,N,12103.9912,W,1,09,0.8,7.0,M,-33.4,M,,*5F
$PYRTM,2024,123.750923174734,14.860570584873
$GPGGA,180118.00,3435.7063,N,12103.9917,W,1,09,0.8,8.0,M,-33.4,M,,*5B
$PYRTM,2024,123.750934749236,14.860582159375
$GPGGA,180119.00,3435.7075,N,12103.9922,W,1,09,0.8,9.0,M,-33.4,M,,*5A
$PYRTM,2024,123.750946323391,14.860593733530
$GPGGA,180120.00,3435.7086,N,12103.9934,W,1,09,0.8,9.4,M,-33.4,M,,*5F
$PYRTM,2024,123.750957897199,14.860605307338
$GPGGA,180121.00,3435.7095,N,12103.9951,W,1,09,0.8,6.2,M,-33.4,M,,*56
$PYRTM,2024,123.750968078924,14.860615489062
$GPGGA,180122.00,3435.7104,N,12103.9962,W,1,09,0.8,5.8,M,-33.4,M,,*55
$PYRTM,2024,123.750979999271,14.860627409410
$GPGGA,180123.00,3435.7114,N,12103.9966,W,1,09,0.8,6.4,M,-33.4,M,,*5E
$PYRTM,2024,123.750992619780,14.860640029919
$GPGGA,180124.00,3435.7129,N,12103.9974,W,1,09,0.8,9.0,M,-33.4,M,,*5F
$PYRTM,2024,123.751004185197,14.860651595336
$GPGGA,180125.00,3435.7141,N,12103.9986,W,1,09,0.8,6.3,M,-33.4,M,,*51
$PYRTM,2024,123.751015768090,14.860663178229
$GPGGA,180126.00,3435.7150,N,12104.0003,W,1,09,0.8,6.6,M,-33.4,M,,*5D
$PYRTM,2024,123.751027338935,14.860674749074
$GPGGA,180127.00,3435.7159,N,12104.0011,W,1,09,0.8,6.3,M,-33.4,M,,*53
$PYRTM,2024,123.751038914352,14.860686324491
$GPGGA,180128.00,3435.7172,N,12104.0013,W,1,09,0.8,8.6,M,-33.4,M,,*5C
$PYRTM,2024,123.751050487060,14.860697897199
$GPGGA,180129.00,3435.7186,N,12104.0017,W,1,09,0.8,8.3,M,-33.4,M,,*57
$PYRTM,2024,123.751061135729,14.860708545868
$GPGGA,180130.00,3435.7195,N,12104.0030,W,1,09,0.8,8.1,M,-33.4,M,,*5A
$PYRTM,2024,123.751073042025,14.860720452164
$GPGGA,180131.00,3435.7202,N,12104.0048,W,1,09,0.8,8.0,M,-33.4,M,,*58
$PYRTM,2024,123.751083704815,14.860731114954
$GPGGA,180132.00,3435.7212,N,12104.0059,W,1,09,0.8,8.7,M,-33.4,M,,*5D
$PYRTM,2024,123.751094816296,14.860742226435
$GPGGA,180133.00,3435.7224,N,12104.0062,W,1,09,0.8,10.4,M,-33.4,M,,*6B
$PYRTM,2024,123.751106038600,14.860753448738
$GPGGA,180134.00,3435.7239,N,12104.0066,W,1,09,0.8,11.7,M,-33.4,M,,*66
$PYRTM,2024,123.751117038935,14.860764449074
$GPGGA,180135.00,3435.7253,N,12104.0079,W,1,09,0.8,7.8,M,-33.4,M,,*5D
$PYRTM,2024,123.751128149155,14.860775559294
$GPGGA,180136.00,3435.7262,N,12104.0099,W,1,09,0.8,7.8,M,-33.4,M,,*52
$PYRTM,2024,123.751139262720,14.860786672859
$GPGGA,180137.00,3435.7269,N,12104.0113,W,1,09,0.8,10.4,M,-33.4,M,,*61
$PYRTM,2024,123.751150373125,14.860797783264
$GPGGA,180138.00,3435.7278,N,12104.0118,W,1,09,0.8,10.3,M,-33.4,M,,*62
$PYRTM,2024,123.751161599213,14.860809009352
$GPGGA,180139.00,3435.7292,N,12104.0123,W,1,09,0.8,10.2,M,-33.4,M,,*6E
$PYRTM,2024,123.751180103970,14.860827514120
$GPGGA,180140.00,3435.7307,N,12104.0134,W,1,09,0.8,8.2,M,-33.4,M,,*52
$PYRTM,2024,123.751191229005,14.860838639144
$GPGGA,180141.00,3435.7316,N,12104.0148,W,1,09,0.8,8.0,M,-33.4,M,,*5A
$PYRTM,2024,123.751202674792,14.860850084942
$GPGGA,180142.00,3435.7323,N,12104.0162,W,1,09,0.8,7.0,M,-33.4,M,,*58
$PYRTM,2024,123.751213786794,14.860861196933
$GPGGA,180143.00,3435.7336,N,12104.0175,W,1,09,0.8,5.7,M,-33.4,M,,*5E
$PYRTM,2024,123.751224897813,14.860872307951
$GPGGA,180144.00,3435.7350,N,12104.0184,W,1,09,0.8,5.6,M,-33.4,M,,*56
$PYRTM,2024,123.751236008310,14.860883418449
$GPGGA,180145.00,3435.7361,N,12104.0188,W,1,09,0.8,6.7,M,-33.4,M,,*5B
$PYRTM,2024,123.751247005150,14.860894415301
$GPGGA,180146.00,3435.7370,N,12104.0195,W,1,09,0.8,7.0,M,-33.4,M,,*52
$PYRTM,2024,123.751258115301,14.860905525451
$GPGGA,180147.00,3435.7383,N,12104.0207,W,1,09,0.8,7.9,M,-33.4,M,,*5E
$PYRTM,2024,123.751269227523,14.860916637662
$GPGGA,180148.00,3435.7394,N,12104.0223,W,1,09,0.8,6.8,M,-33.4,M,,*51
$PYRTM,2024,123.751280337465,14.860927747604
$GPGGA,180149.00,3435.7404,N,12104.0232,W,1,09,0.8,7.3,M,-33.4,M,,*54
$PYRTM,2024,123.751291450220,14.860938860359
$GPGGA,180150.00,3435.7413,N,12104.0235,W,1,09,0.8,7.4,M,-33.4,M,,*5A
$PYRTM,2024,123.751302560023,14.860949970162
$GPGGA,180151.00,3435.7425,N,12104.0238,W,1,09,0.8,7.9,M,-33.4,M,,*5E
$PYRTM,2024,123.751318186655,14.860965596806
$GPGGA,180152.00,3435.7438,N,12104.0250,W,1,09,0.8,6.6,M,-33.4,M,,*51
$PYRTM,2024,123.751329296748,14.860976706887
$GPGGA,180153.00,3435.7446,N,12104.0269,W,1,09,0.8,5.8,M,-33.4,M,,*5E
$PYRTM,2024,123.751340420185,14.860987830324
$GPGGA,180154.00,3435.7451,N,12104.0282,W,1,09,0.8,6.8,M,-33.4,M,,*59
$PYRTM,2024,123.751351518912,14.860998929051
$GPGGA,180155.00,3435.7458,N,12104.0288,W,1,09,0.8,7.8,M,-33.4,M,,*5A
$PYRTM,2024,123.751362975810,14.861010385949
$GPGGA,180156.00,3435.7473,N,12104.0292,W,1,09,0.8,9.0,M,-33.4,M,,*5D
$PYRTM,2024,123.751374564201,14.861021974340
$GPGGA,180157.00,3435.7486,N,12104.0302,W,1,09,0.8,7.7,M,-33.4,M,,*57
$PYRTM,2024,123.751386123981,14.861033534120
$GPGGA,180158.00,3435.7493,N,12104.0315,W,1,09,0.8,6.9,M,-33.4,M,,*55
$PYRTM,2024,123.751397711736,14.861045121875
$GPGGA,180159.00,3435.7499,N,12104.0326,W,1,09,0.8,7.7,M,-33.4,M,,*51
$PYRTM,2024,123.751409271609,14.861056681748
$GPGGA,180200.00,3435.7511,N,12104.0333,W,1,09,0.8,7.8,M,-33.4,M,,*54
$PYRTM,2024,123.751420861505,14.861068271644
$GPGGA,180201.00,3435.7526,N,12104.0341,W,1,09,0.8,8.3,M,-33.4,M,,*50
$PYRTM,2024,123.751432420208,14.861079830347
$GPGGA,180202.00,3435.7536,N,12104.0352,W,1,09,0.8,8.6,M,-33.4,M,,*55
$PYRTM,2024,123.751444008773,14.861091418912
$GPGGA,180203.00,3435.7542,N,12104.0364,W,1,09,0.8,9.6,M,-33.4,M,,*53
$PYRTM,2024,123.751455569074,14.861102979213
$GPGGA,180204.00,3435.7553,N,12104.0374,W,1,09,0.8,8.6,M,-33.4,M,,*54
$PYRTM,2024,123.751467158958,14.861114569097
$GPGGA,180205.00,3435.7568,N,12104.0383,W,1,09,0.8,8.0,M,-33.4,M,,*53
$PYRTM,2024,123.751478716065,14.861126126204
$GPGGA,180206.00,3435.7581,N,12104.0393,W,1,09,0.8,7.8,M,-33.4,M,,*51
$PYRTM,2024,123.751490305856,14.861137715995
$GPGGA,180207.00,3435.7586,N,12104.0403,W,1,09,0.8,8.9,M,-33.4,M,,*57
$PYRTM,2024,123.751501866019,14.861149276157
$GPGGA,180208.00,3435.7591,N,12104.0413,W,1,09,0.8,9.6,M,-33.4,M,,*51
$PYRTM,2024,123.751513453692,14.861160863843
$GPGGA,180209.00,3435.7602,N,12104.0423,W,1,09,0.8,10.1,M,-33.4,M,,*65
$PYRTM,2024,123.751525016053,14.861172426192
$GPGGA,180210.00,3435.7615,N,12104.0433,W,1,09,0.8,8.6,M,-33.4,M,,*54
$PYRTM,2024,123.751536602269,14.861184012407
$GPGGA,180211.00,3435.7626,N,12104.0443,W,1,09,0.8,6.4,M,-33.4,M,,*5E
$PYRTM,2024,123.751548164815,14.861195574954
$GPGGA,180212.00,3435.7634,N,12104.0454,W,1,09,0.8,6.0,M,-33.4,M,,*5C
$PYRTM,2024,123.751559751713,14.861207161852
$GPGGA,180213.00,3435.7637,N,12104.0465,W,1,09,0.8,7.3,M,-33.4,M,,*5E
$PYRTM,2024,123.751571311285,14.861218721435
$GPGGA,180214.00,3435.7645,N,12104.0474,W,1,09,0.8,8.9,M,-33.4,M,,*59
$PYRTM,2024,123.751582898322,14.861230308461
$GPGGA,180215.00,3435.7659,N,12104.0484,W,1,09,0.8,9.3,M,-33.4,M,,*51
$PYRTM,2024,123.751594458588,14.861241868727
$GPGGA,180216.00,3435.7675,N,12104.0498,W,1,09,0.8,6.8,M,-33.4,M,,*55
$PYRTM,2024,123.751606047998,14.861253458148
$GPGGA,180217.00,3435.7685,N,12104.0512,W,1,09,0.8,6.2,M,-33.4,M,,*52
$PYRTM,2024,123.751617606933,14.861265017072
$GPGGA,180218.00,3435.7692,N,12104.0522,W,1,09,0.8,5.1,M,-33.4,M,,*58
$PYRTM,2024,123.751629196458,14.861276606597
$GPGGA,180219.00,3435.7697,N,12104.0528,W,1,09,0.8,6.6,M,-33.4,M,,*52
$PYRTM,2024,123.751640756794,14.861288166944
$GPGGA,180220.00,3435.7705,N,12104.0533,W,1,09,0.8,8.3,M,-33.4,M,,*53
$PYRTM,2024,123.751652345394,14.861299755532
$GPGGA,180221.00,3435.7716,N,12104.0544,W,1,09,0.8,7.6,M,-33.4,M,,*5A
$PYRTM,2024,123.751662530139,14.861309940278
$GPGGA,180222.00,3435.7726,N,12104.0559,W,1,09,0.8,7.1,M,-33.4,M,,*51
$PYRTM,2024,123.751674450231,14.861321860370
$GPGGA,180223.00,3435.7733,N,12104.0574,W,1,09,0.8,7.3,M,-33.4,M,,*59
$PYRTM,2024,123.751687051910,14.861334462049
$GPGGA,180224.00,3435.7740,N,12104.0583,W,1,09,0.8,7.6,M,-33.4,M,,*57
$PYRTM,2024,123.751698640799,14.861346050938
$GPGGA,180225.00,3435.7749,N,12104.0590,W,1,09,0.8,7.7,M,-33.4,M,,*5C
$PYRTM,2024,123.751710201343,14.861357611481
$GPGGA,180226.00,3435.7762,N,12104.0598,W,1,09,0.8,7.3,M,-33.4,M,,*5A
$PYRTM,2024,123.751721789294,14.861369199433
$GPGGA,180227.00,3435.7774,N,12104.0608,W,1,09,0.8,8.3,M,-33.4,M,,*59
$PYRTM,2024,123.751733350891,14.861380761030
$GPGGA,180228.00,3435.7780,N,12104.0624,W,1,09,0.8,9.2,M,-33.4,M,,*53
$PYRTM,2024,123.751744936597,14.861392346736
$GPGGA,180229.00,3435.7788,N,12104.0641,W,1,09,0.8,8.9,M,-33.4,M,,*53
$PYRTM,2024,123.751756498866,14.861403909005
$GPGGA,180230.00,3435.7800,N,12104.0653,W,1,09,0.8,7.2,M,-33.4,M,,*53
$PYRTM,2024,123.751768085266,14.861415495405
$GPGGA,180231.00,3435.7812,N,12104.0660,W,1,09,0.8,6.5,M,-33.4,M,,*57
$PYRTM,2024,123.751779646030,14.861427056169
$GPGGA,180232.00,3435.7824,N,12104.0667,W,1,09,0.8,5.4,M,-33.4,M,,*54
$PYRTM,2024,123.751791235243,14.861438645382
$GPGGA,180233.00,3435.7834,N,12104.0682,W,1,09,0.8,4.3,M,-33.4,M,,*59
$PYRTM,2024,123.751802795359,14.861450205498
$GPGGA,180234.00,3435.7841,N,12104.0700,W,1,09,0.8,4.6,M,-33.4,M,,*52
$PYRTM,2024,123.751814383194,14.861461793333
$GPGGA,180235.00,3435.7847,N,12104.0709,W,1,09,0.8,5.6,M,-33.4,M,,*5D
$PYRTM,2024,123.751825942292,14.861473352431
$GPGGA,180236.00,3435.7856,N,12104.0710,W,1,09,0.8,7.2,M,-33.4,M,,*50
$PYRTM,2024,123.751837531366,14.861484941505
$GPGGA,180237.00,3435.7870,N,12104.0715,W,1,09,0.8,8.0,M,-33.4,M,,*5D
$PYRTM,2024,123.751849092685,14.861496502836
$GPGGA,180238.00,3435.7883,N,12104.0730,W,1,09,0.8,5.1,M,-33.4,M,,*55
$PYRTM,2024,123.751860680498,14.861508090637
$GPGGA,180239.00,3435.7892,N,12104.0750,W,1,09,0.8,6.2,M,-33.4,M,,*52
$PYRTM,2024,123.751872240880,14.861519651019
$GPGGA,180240.00,3435.7897,N,12104.0764,W,1,09,0.8,6.8,M,-33.4,M,,*54
$PYRTM,2024,123.751883827488,14.861531237627
$GPGGA,180241.00,3435.7905,N,12104.0769,W,1,09,0.8,7.1,M,-33.4,M,,*5A
$PYRTM,2024,123.751895391343,14.861542801481
$GPGGA,180242.00,3435.7918,N,12104.0773,W,1,09,0.8,7.9,M,-33.4,M,,*56
$PYRTM,2024,123.751906975718,14.861554385856
$GPGGA,180243.00,3435.7931,N,12104.0782,W,1,09,0.8,8.3,M,-33.4,M,,*57
$PYRTM,2024,123.751918536076,14.861565946215
$GPGGA,180244.00,3435.7944,N,12104.0796,W,1,09,0.8,6.8,M,-33.4,M,,*52
$PYRTM,2024,123.751930124815,14.861577534965
$GPGGA,180245.00,3435.7952,N,12104.0811,W,1,09,0.8,6.7,M,-33.4,M,,*5B
$PYRTM,2024,123.751941683646,14.861589093785
$GPGGA,180246.00,3435.7959,N,12104.0822,W,1,09,0.8,7.6,M,-33.4,M,,*53
$PYRTM,2024,123.751953268854,14.861600678993
$GPGGA,180247.00,3435.7969,N,12104.0828,W,1,09,0.8,7.5,M,-33.4,M,,*58
$PYRTM,2024,123.751964833970,14.861612244120
$GPGGA,180248.00,3435.7983,N,12104.0834,W,1,09,0.8,8.4,M,-33.4,M,,*50
$PYRTM,2024,123.751976422002,14.861623832141
$GPGGA,180249.00,3435.7996,N,12104.0841,W,1,09,0.8,8.9,M,-33.4,M,,*5A
$PYRTM,2024,123.751987981759,14.861635391898
$GPGGA,180250.00,3435.8004,N,12104.0856,W,1,09,0.8,8.2,M,-33.4,M,,*52
$PYRTM,2024,123.751999570891,14.861646981030
$GPGGA,180251.00,3435.8010,N,12104.0873,W,1,09,0.8,7.8,M,-33.4,M,,*54
$PYRTM,2024,123.752009755544,14.861657165683
$GPGGA,180252.00,3435.8019,N,12104.0887,W,1,09,0.8,8.7,M,-33.4,M,,*55
$PYRTM,2024,123.752021560394,14.861668970532
$GPGGA,180253.00,3435.8032,N,12104.0896,W,1,09,0.8,8.5,M,-33.4,M,,*5F
$PYRTM,2024,123.752034277836,14.861681687975
$GPGGA,180254.00,3435.8044,N,12104.0904,W,1,09,0.8,8.9,M,-33.4,M,,*5F
$PYRTM,2024,123.752045866435,14.861693276574
$GPGGA,180255.00,3435.8053,N,12104.0916,W,1,09,0.8,10.0,M,-33.4,M,,*6B
$PYRTM,2024,123.752057426586,14.861704836725
$GPGGA,180256.00,3435.8061,N,12104.0930,W,1,09,0.8,10.7,M,-33.4,M,,*6A
$PYRTM,2024,123.752069013727,14.861716423866
$GPGGA,180257.00,3435.8070,N,12104.0945,W,1,09,0.8,10.5,M,-33.4,M,,*6B
$PYRTM,2024,123.752080576701,14.861727986840
$GPGGA,180258.00,3435.8081,N,12104.0959,W,1,09,0.8,9.9,M,-33.4,M,,*53
$PYRTM,2024,123.752092162894,14.861739573032
$GPGGA,180259.00,3435.8092,N,12104.0972,W,1,09,0.8,9.0,M,-33.4,M,,*50
$PYRTM,2024,123.752103724734,14.861751134873
$GPGGA,180300.00,3435.8103,N,12104.0985,W,1,09,0.8,7.7,M,-33.4,M,,*55
$PYRTM,2024,123.752115310787,14.861762720926
$GPGGA,180301.00,3435.8112,N,12104.0999,W,1,09,0.8,7.7,M,-33.4,M,,*59
$PYRTM,2024,123.752126870498,14.861774280637
$GPGGA,180302.00,3435.8120,N,12104.1010,W,1,09,0.8,9.2,M,-33.4,M,,*59
$PYRTM,2024,123.752138459317,14.861785869456
$GPGGA,180303.00,3435.8129,N,12104.1021,W,1,09,0.8,10.1,M,-33.4,M,,*68
$PYRTM,2024,123.752150021065,14.861797431204
$GPGGA,180304.00,3435.8142,N,12104.1034,W,1,09,0.8,8.6,M,-33.4,M,,*58
$PYRTM,2024,123.752161602373,14.861809012512
$GPGGA,180305.00,3435.8154,N,12104.1047,W,1,09,0.8,8.3,M,-33.4,M,,*5F
$PYRTM,2024,123.752173169028,14.861820579167
$GPGGA,180306.00,3435.8163,N,12104.1059,W,1,09,0.8,8.0,M,-33.4,M,,*54
$PYRTM,2024,123.752184758125,14.861832168275
$GPGGA,180307.00,3435.8169,N,12104.1069,W,1,09,0.8,8.6,M,-33.4,M,,*5A
$PYRTM,2024,123.752196316204,14.861843726343
$GPGGA,180308.00,3435.8178,N,12104.1078,W,1,09,0.8,9.6,M,-33.4,M,,*54
$PYRTM,2024,123.752207905116,14.861855315255
$GPGGA,180309.00,3435.8190,N,12104.1090,W,1,09,0.8,9.4,M,-33.4,M,,*57
$PYRTM,2024,123.752219463750,14.861866873889
$GPGGA,180310.00,3435.8203,N,12104.1103,W,1,09,0.8,8.2,M,-33.4,M,,*5A
$PYRTM,2024,123.752231053380,14.861878463519
$GPGGA,180311.00,3435.8211,N,12104.1116,W,1,09,0.8,6.9,M,-33.4,M,,*59
$PYRTM,2024,123.752242612477,14.861890022627
$GPGGA,180312.00,3435.8217,N,12104.1128,W,1,09,0.8,6.7,M,-33.4,M,,*5F
$PYRTM,2024,123.752254197049,14.861901607187
$GPGGA,180313.00,3435.8227,N,12104.1141,W,1,09,0.8,7.5,M,-33.4,M,,*51
$PYRTM,2024,123.752265762569,14.861913172708
$GPGGA,180314.00,3435.8239,N,12104.1154,W,1,09,0.8,7.8,M,-33.4,M,,*50
$PYRTM,2024,123.752277350764,14.861924760903
$GPGGA,180315.00,3435.8249,N,12104.1165,W,1,09,0.8,7.8,M,-33.4,M,,*54
$PYRTM,2024,123.752288909190,14.861936319329
$GPGGA,180316.00,3435.8259,N,12104.1177,W,1,09,0.8,8.3,M,-33.4,M,,*51
$PYRTM,2024,123.752300494699,14.861947904850
$GPGGA,180317.00,3435.8271,N,12104.1190,W,1,09,0.8,8.6,M,-33.4,M,,*56
$PYRTM,2024,123.752312059225,14.861959469375
$GPGGA,180318.00,3435.8284,N,12104.1204,W,1,09,0.8,9.4,M,-33.4,M,,*5E
$PYRTM,2024,123.752323645660,14.861971055799
$GPGGA,180319.00,3435.8293,N,12104.1218,W,1,09,0.8,9.6,M,-33.4,M,,*56
$PYRTM,2024,123.752335205590,14.861982615741
$GPGGA,180320.00,3435.8302,N,12104.1232,W,1,09,0.8,8.6,M,-33.4,M,,*5C
$PYRTM,2024,123.752346794514,14.861994204664
$GPGGA,180321.00,3435.8313,N,12104.1246,W,1,09,0.8,8.3,M,-33.4,M,,*5B
$PYRTM,2024,123.752357428079,14.862004838218
$GPGGA,180322.00,3435.8325,N,12104.1259,W,1,09,0.8,8.2,M,-33.4,M,,*52
$PYRTM,2024,123.752368786412,14.862016196551
$GPGGA,180323.00,3435.8338,N,12104.1269,W,1,09,0.8,8.0,M,-33.4,M,,*5E
$PYRTM,2024,123.752381503067,14.862028913206
$GPGGA,180324.00,3435.8349,N,12104.1279,W,1,09,0.8,8.1,M,-33.4,M,,*5F
$PYRTM,2024,123.752393091759,14.862040501910
$GPGGA,180325.00,3435.8361,N,12104.1290,W,1,09,0.8,8.7,M,-33.4,M,,*55
$PYRTM,2024,123.752404650660,14.862052060799
$GPGGA,180326.00,3435.8370,N,12104.1304,W,1,09,0.8,8.7,M,-33.4,M,,*5A
$PYRTM,2024,123.752416239606,14.862063649757
$GPGGA,180327.00,3435.8379,N,12104.1318,W,1,09,0.8,9.3,M,-33.4,M,,*5A
$PYRTM,2024,123.752427799664,14.862075209803
$GPGGA,180328.00,3435.8391,N,12104.1326,W,1,09,0.8,8.2,M,-33.4,M,,*5E
$PYRTM,2024,123.752439389525,14.862086799676
$GPGGA,180329.00,3435.8405,N,12104.1333,W,1,09,0.8,6.6,M,-33.4,M,,*5B
$PYRTM,2024,123.752450948368,14.862098358519
$GPGGA,180330.00,3435.8419,N,12104.1344,W,1,09,0.8,7.4,M,-33.4,M,,*5D
$PYRTM,2024,123.752462536204,14.862109946343
$GPGGA,180331.00,3435.8427,N,12104.1360,W,1,09,0.8,8.2,M,-33.4,M,,*5E
$PYRTM,2024,123.752474096030,14.862121506169
$GPGGA,180332.00,3435.8435,N,12104.1375,W,1,09,0.8,8.0,M,-33.4,M,,*58
$PYRTM,2024,123.752485685116,14.862133095255
$GPGGA,180333.00,3435.8451,N,12104.1386,W,1,09,0.8,9.0,M,-33.4,M,,*56
$PYRTM,2024,123.752497245486,14.862144655625
$GPGGA,180334.00,3435.8469,N,12104.1394,W,1,09,0.8,10.5,M,-33.4,M,,*64
$PYRTM,2024,123.752508833079,14.862156243218
$GPGGA,180335.00,3435.8482,N,12104.1405,W,1,09,0.8,9.7,M,-33.4,M,,*55
$PYRTM,2024,123.752519831887,14.862167242025
$GPGGA,180336.00,3435.8492,N,12104.1421,W,1,09,0.8,8.0,M,-33.4,M,,*57
$PYRTM,2024,123.752530577859,14.862177987998
$GPGGA,180337.00,3435.8501,N,12104.1438,W,1,09,0.8,8.0,M,-33.4,M,,*55
$PYRTM,2024,123.752541690023,14.862189100162
$GPGGA,180338.00,3435.8514,N,12104.1449,W,1,09,0.8,10.1,M,-33.4,M,,*60
$PYRTM,2024,123.752552801944,14.862200212083
$GPGGA,180339.00,3435.8530,N,12104.1457,W,1,09,0.8,7.6,M,-33.4,M,,*59
$PYRTM,2024,123.752563913137,14.862211323275
$GPGGA,180340.00,3435.8543,N,12104.1470,W,1,09,0.8,9.5,M,-33.4,M,,*5B
$PYRTM,2024,123.752575024306,14.862222434444
$GPGGA,180341.00,3435.8552,N,12104.1485,W,1,09,0.8,9.2,M,-33.4,M,,*57
$PYRTM,2024,123.752586135185,14.862233545324
$GPGGA,180342.00,3435.8562,N,12104.1501,W,1,09,0.8,9.9,M,-33.4,M,,*51
$PYRTM,2024,123.752597246956,14.862244657095
$GPGGA,180343.00,3435.8576,N,12104.1514,W,1,09,0.8,9.8,M,-33.4,M,,*50
$PYRTM,2024,123.752608357488,14.862255767627
$GPGGA,180344.00,3435.8589,N,12104.1526,W,1,09,0.8,10.2,M,-33.4,M,,*64
$PYRTM,2024,123.752626313912,14.862273724051
$GPGGA,180345.00,3435.8600,N,12104.1535,W,1,09,0.8,10.2,M,-33.4,M,,*65
$PYRTM,2024,123.752637410810,14.862284820949
$GPGGA,180346.00,3435.8610,N,12104.1545,W,1,09,0.8,9.6,M,-33.4,M,,*5C
$PYRTM,2024,123.752648532593,14.862295942731
$GPGGA,180347.00,3435.8624,N,12104.1560,W,1,09,0.8,6.6,M,-33.4,M,,*52
$PYRTM,2024,123.752659644907,14.862307055046
$GPGGA,180348.00,3435.8639,N,12104.1573,W,1,09,0.8,4.7,M,-33.4,M,,*50
$PYRTM,2024,123.752670755602,14.862318165741
$GPGGA,180349.00,3435.8647,N,12104.1579,W,1,09,0.8,5.9,M,-33.4,M,,*5D
$PYRTM,2024,123.752681871238,14.862329281377
$GPGGA,180350.00,3435.8653,N,12104.1584,W,1,09,0.8,6.6,M,-33.4,M,,*5E
$PYRTM,2024,123.752692979340,14.862340389479
$GPGGA,180351.00,3435.8665,N,12104.1593,W,1,09,0.8,6.4,M,-33.4,M,,*5E
$PYRTM,2024,123.752708617384,14.862356027523
$GPGGA,180352.00,3435.8679,N,12104.1607,W,1,09,0.8,8.2,M,-33.4,M,,*56
$PYRTM,2024,123.752719701539,14.862367111678
$GPGGA,180353.00,3435.8689,N,12104.1618,W,1,09,0.8,8.1,M,-33.4,M,,*55
$PYRTM,2024,123.752730829039,14.862378239178
$GPGGA,180354.00,3435.8699,N,12104.1623,W,1,09,0.8,8.2,M,-33.4,M,,*58
$PYRTM,2024,123.752741937581,14.862389347720
$GPGGA,180355.00,3435.8712,N,12104.1630,W,1,09,0.8,6.0,M,-33.4,M,,*55
$PYRTM,2024,123.752752916956,14.862400327095
$GPGGA,180356.00,3435.8724,N,12104.1643,W,1,09,0.8,4.9,M,-33.4,M,,*5C
$PYRTM,2024,123.752764028785,14.862411438924
$GPGGA,180357.00,3435.8735,N,12104.1654,W,1,09,0.8,5.4,M,-33.4,M,,*57
$PYRTM,2024,123.752775619734,14.862423029873
$GPGGA,180358.00,3435.8745,N,12104.1662,W,1,09,0.8,6.3,M,-33.4,M,,*5E
$PYRTM,2024,123.752786724016,14.862434134155
$GPGGA,180359.00,3435.8757,N,12104.1670,W,1,09,0.8,6.6,M,-33.4,M,,*5A
$PYRTM,2024,123.752798175104,14.862445585243
$GPGGA,180400.00,3435.8770,N,12104.1680,W,1,09,0.8,6.5,M,-33.4,M,,*58
$PYRTM,2024,123.752809760579,14.862457170718
$GPGGA,180401.00,3435.8782,N,12104.1690,W,1,09,0.8,6.5,M,-33.4,M,,*55
$PYRTM,2024,123.752821322569,14.862468732708
$GPGGA,180402.00,3435.8792,N,12104.1696,W,1,09,0.8,6.8,M,-33.4,M,,*5C
$PYRTM,2024,123.752832912674,14.862480322812
$GPGGA,180403.00,3435.8802,N,12104.1701,W,1,09,0.8,7.5,M,-33.4,M,,*58
$PYRTM,2024,123.752844471285,14.862491881424
$GPGGA,180404.00,3435.8813,N,12104.1713,W,1,09,0.8,6.7,M,-33.4,M,,*5F
$PYRTM,2024,123.752856057870,14.862503468009
$GPGGA,180405.00,3435.8824,N,12104.1729,W,1,09,0.8,5.1,M,-33.4,M,,*56
$PYRTM,2024,123.752867618866,14.862515029005
$GPGGA,180406.00,3435.8833,N,12104.1741,W,1,09,0.8,5.7,M,-33.4,M,,*5B
$PYRTM,2024,123.752879205660,14.862526615799
$GPGGA,180407.00,3435.8846,N,12104.1748,W,1,09,0.8,5.3,M,-33.4,M,,*55
$PYRTM,2024,123.752890767731,14.862538177870
$GPGGA,180408.00,3435.8860,N,12104.1753,W,1,09,0.8,5.4,M,-33.4,M,,*53
$PYRTM,2024,123.752902355405,14.862549765544
$GPGGA,180409.00,3435.8872,N,12104.1762,W,1,09,0.8,5.8,M,-33.4,M,,*5F
$PYRTM,2024,123.752913916238,14.862561326377
$GPGGA,180410.00,3435.8880,N,12104.1774,W,1,09,0.8,6.4,M,-33.4,M,,*52
$PYRTM,2024,123.752925517488,14.862572927627
$GPGGA,180411.00,3435.8888,N,12104.1788,W,1,09,0.8,6.8,M,-33.4,M,,*54
$PYRTM,2024,123.752937065833,14.862584475972
$GPGGA,180412.00,3435.8900,N,12104.1799,W,1,09,0.8,5.0,M,-33.4,M,,*5D
$PYRTM,2024,123.752948666343,14.862596076481
$GPGGA,180413.00,3435.8914,N,12104.1806,W,1,09,0.8,5.2,M,-33.4,M,,*52
$PYRTM,2024,123.752960213079,14.862607623218
$GPGGA,180414.00,3435.8927,N,12104.1814,W,1,09,0.8,6.6,M,-33.4,M,,*51
$PYRTM,2024,123.752971817188,14.862619227326
$GPGGA,180415.00,3435.8938,N,12104.1824,W,1,09,0.8,8.0,M,-33.4,M,,*55
$PYRTM,2024,123.752983360093,14.862630770231
$GPGGA,180416.00,3435.8949,N,12104.1839,W,1,09,0.8,7.5,M,-33.4,M,,*56
$PYRTM,2024,123.752994948137,14.862642358275
$GPGGA,180417.00,3435.8961,N,12104.1854,W,1,09,0.8,7.7,M,-33.4,M,,*54
$PYRTM,2024,123.753006510602,14.862653920741
$GPGGA,180418.00,3435.8974,N,12104.1865,W,1,09,0.8,8.4,M,-33.4,M,,*51
$PYRTM,2024,123.753018097199,14.862665507338
$GPGGA,180419.00,3435.8988,N,12104.1875,W,1,09,0.8,6.9,M,-33.4,M,,*51
$PYRTM,2024,123.753029657986,14.862677068125
$GPGGA,180420.00,3435.9004,N,12104.1886,W,1,09,0.8,6.0,M,-33.4,M,,*52
$PYRTM,2024,123.753041244965,14.862688655104
$GPGGA,180421.00,3435.9016,N,12104.1898,W,1,09,0.8,5.8,M,-33.4,M,,*54
$PYRTM,2024,123.753051430382,14.862698840521
$GPGGA,180422.00,3435.9026,N,12104.1910,W,1,09,0.8,7.6,M,-33.4,M,,*59
$PYRTM,2024,123.753063366146,14.862710776285
$GPGGA,180423.00,3435.9039,N,12104.1923,W,1,09,0.8,10.3,M,-33.4,M,,*65
$PYRTM,2024,123.753075954919,14.862723365058
$GPGGA,180424.00,3435.9055,N,12104.1936,W,1,09,0.8,8.5,M,-33.4,M,,*53
$PYRTM,2024,123.753087547755,14.862734957905
$GPGGA,180425.00,3435.9066,N,12104.1948,W,1,09,0.8,10.4,M,-33.4,M,,*63
$PYRTM,2024,123.753099102477,14.862746512616
$GPGGA,180426.00,3435.9074,N,12104.1960,W,1,09,0.8,9.7,M,-33.4,M,,*52
$PYRTM,2024,123.753110694109,14.862758104248
$GPGGA,180427.00,3435.9087,N,12104.1975,W,1,09,0.8,7.6,M,-33.4,M,,*54
$PYRTM,2024,123.753122252951,14.862769663090
$GPGGA,180428.00,3435.9099,N,12104.1991,W,1,09,0.8,8.5,M,-33.4,M,,*52
$PYRTM,2024,123.753133834178,14.862781244317
$GPGGA,180429.00,3435.9110,N,12104.2002,W,1,09,0.8,8.1,M,-33.4,M,,*57
$PYRTM,2024,123.753145399907,14.862792810046
$GPGGA,180430.00,3435.9121,N,12104.2013,W,1,09,0.8,8.0,M,-33.4,M,,*5C
$PYRTM,2024,123.753156986481,14.862804396620
$GPGGA,180431.00,3435.9135,N,12104.2027,W,1,10,0.8,6.4,M,-33.4,M,,*5D
$PYRTM,2024,123.753168548009,14.862815958160
$GPGGA,180432.00,3435.9145,N,12104.2039,W,1,10,0.8,6.7,M,-33.4,M,,*55
$PYRTM,2024,123.753180135405,14.862827545556
$GPGGA,180433.00,3435.9153,N,12104.2049,W,1,10,0.8,7.3,M,-33.4,M,,*51
$PYRTM,2024,123.753191696736,14.862839106875
$GPGGA,180434.00,3435.9164,N,12104.2062,W,1,10,0.8,5.6,M,-33.4,M,,*5C
$PYRTM,2024,123.753203282951,14.862850693090
$GPGGA,180435.00,3435.9181,N,12104.2076,W,1,10,0.8,4.0,M,-33.4,M,,*54
$PYRTM,2024,123.753214844931,14.862862255069
$GPGGA,180436.00,3435.9194,N,12104.2089,W,1,10,0.8,3.6,M,-33.4,M,,*52
$PYRTM,2024,123.753226432604,14.862873842755
$GPGGA,180437.00,3435.9203,N,12104.2101,W,1,10,0.8,3.6,M,-33.4,M,,*5F
$PYRTM,2024,123.753237993252,14.862885403403
$GPGGA,180438.00,3435.9216,N,12104.2115,W,1,10,0.8,4.9,M,-33.4,M,,*59
$PYRTM,2024,123.753249579769,14.862896989907
$GPGGA,180439.00,3435.9231,N,12104.2131,W,1,10,0.8,7.1,M,-33.4,M,,*50
$PYRTM,2024,123.753261142326,14.862908552465
$GPGGA,180440.00,3435.9245,N,12104.2143,W,1,10,0.8,5.7,M,-33.4,M,,*5C
$PYRTM,2024,123.753272742986,14.862920153125
$GPGGA,180441.00,3435.9257,N,12104.2153,W,1,10,0.8,4.9,M,-33.4,M,,*50
$PYRTM,2024,123.753284289444,14.862931699583
$GPGGA,180442.00,3435.9266,N,12104.2162,W,1,10,0.8,4.8,M,-33.4,M,,*52
$PYRTM,2024,123.753295879931,14.862943290069
$GPGGA,180443.00,3435.9276,N,12104.2170,W,1,10,0.8,4.7,M,-33.4,M,,*5E
$PYRTM,2024,123.753307438206,14.862954848345
$GPGGA,180444.00,3435.9290,N,12104.2181,W,1,10,0.8,3.5,M,-33.4,M,,*5A
$PYRTM,2024,123.753319025428,14.862966435567
$GPGGA,180445.00,3435.9305,N,12104.2197,W,1,10,0.8,6.0,M,-33.4,M,,*51
$PYRTM,2024,123.753330585498,14.862977995637
$GPGGA,180446.00,3435.9313,N,12104.2211,W,1,10,0.8,8.3,M,-33.4,M,,*55
$PYRTM,2024,123.753342177627,14.862989587766
$GPGGA,180447.00,3435.9321,N,12104.2220,W,1,10,0.8,9.2,M,-33.4,M,,*57
$PYRTM,2024,123.753353734965,14.863001145104
$GPGGA,180448.00,3435.9334,N,12104.2228,W,1,10,0.8,7.5,M,-33.4,M,,*5D
$PYRTM,2024,123.753365322940,14.863012733079
$GPGGA,180449.00,3435.9350,N,12104.2239,W,1,10,0.8,3.8,M,-33.4,M,,*57
$PYRTM,2024,123.753376883322,14.863024293461
$GPGGA,180450.00,3435.9361,N,12104.2252,W,1,10,0.8,3.0,M,-33.4,M,,*58
$PYRTM,2024,123.753388470012,14.863035880150
$GPGGA,180451.00,3435.9368,N,12104.2265,W,1,10,0.8,5.1,M,-33.4,M,,*53
$PYRTM,2024,123.753398657153,14.863046067292
$GPGGA,180452.00,3435.9376,N,12104.2274,W,1,10,0.8,6.9,M,-33.4,M,,*54
$PYRTM,2024,123.753410447743,14.863057857882
$GPGGA,180453.00,3435.9389,N,12104.2284,W,1,10,0.8,6.8,M,-33.4,M,,*5B
$PYRTM,2024,123.753423179954,14.863070590093
$GPGGA,180454.00,3435.9404,N,12104.2296,W,1,10,0.8,7.2,M,-33.4,M,,*56
$PYRTM,2024,123.753434781262,14.863082191400
$GPGGA,180455.00,3435.9413,N,12104.2309,W,1,10,0.8,6.7,M,-33.4,M,,*52
$PYRTM,2024,123.753446328056,14.863093738194
$GPGGA,180456.00,3435.9420,N,12104.2320,W,1,10,0.8,6.3,M,-33.4,M,,*5E
$PYRTM,2024,123.753457918565,14.863105328704
$GPGGA,180457.00,3435.9432,N,12104.2331,W,1,10,0.8,7.5,M,-33.4,M,,*5B
$PYRTM,2024,123.753469477581,14.863116887720
$GPGGA,180458.00,3435.9447,N,12104.2345,W,1,10,0.8,7.5,M,-33.4,M,,*55
$PYRTM,2024,123.753481066655,14.863128476794
$GPGGA,180459.00,3435.9455,N,12104.2358,W,1,10,0.8,8.6,M,-33.4,M,,*57
$PYRTM,2024,123.753492627731,14.863140037870
$GPGGA,180500.00,3435.9462,N,12104.2368,W,1,10,0.8,8.7,M,-33.4,M,,*5C
$PYRTM,2024,123.753504211470,14.863151621597
$GPGGA,180501.00,3435.9474,N,12104.2379,W,1,10,0.8,8.1,M,-33.4,M,,*5C
$PYRTM,2024,123.753515773333,14.863163183472
$GPGGA,180502.00,3435.9488,N,12104.2392,W,1,10,0.8,7.2,M,-33.4,M,,*55
$PYRTM,2024,123.753527360856,14.863174771007
$GPGGA,180503.00,3435.9499,N,12104.2402,W,1,10,0.8,7.2,M,-33.4,M,,*5A
$PYRTM,2024,123.753538921690,14.863186331840
$GPGGA,180504.00,3435.9509,N,12104.2413,W,1,10,0.8,7.3,M,-33.4,M,,*54
$PYRTM,2024,123.753550509583,14.863197919722
$GPGGA,180505.00,3435.9520,N,12104.2423,W,1,10,0.8,7.5,M,-33.4,M,,*5B
$PYRTM,2024,123.753562069676,14.863209479815
$GPGGA,180506.00,3435.9533,N,12104.2434,W,1,10,0.8,8.4,M,-33.4,M,,*52
$PYRTM,2024,123.753573657465,14.863221067604
$GPGGA,180507.00,3435.9545,N,12104.2445,W,1,10,0.8,9.2,M,-33.4,M,,*53
$PYRTM,2024,123.753585218704,14.863232628843
$GPGGA,180508.00,3435.9555,N,12104.2460,W,1,10,0.8,8.7,M,-33.4,M,,*5E
$PYRTM,2024,123.753596809282,14.863244219421
$GPGGA,180509.00,3435.9564,N,12104.2475,W,1,10,0.8,7.5,M,-33.4,M,,*54
$PYRTM,2024,123.753608367326,14.863255777465
$GPGGA,180510.00,3435.9577,N,12104.2487,W,1,10,0.8,7.3,M,-33.4,M,,*55
$PYRTM,2024,123.753619958056,14.863267368194
$GPGGA,180511.00,3435.9591,N,12104.2495,W,1,10,0.8,7.4,M,-33.4,M,,*58
$PYRTM,2024,123.753631514282,14.863278924421
$GPGGA,180512.00,3435.9605,N,12104.2505,W,1,10,0.8,8.0,M,-33.4,M,,*56
$PYRTM,2024,123.753643102639,14.863290512778
$GPGGA,180513.00,3435.9617,N,12104.2520,W,1,10,0.8,7.5,M,-33.4,M,,*59
$PYRTM,2024,123.753654663935,14.863302074074
$GPGGA,180514.00,3435.9625,N,12104.2536,W,1,10,0.8,8.6,M,-33.4,M,,*54
$PYRTM,2024,123.753666251238,14.863313661389
$GPGGA,180515.00,3435.9634,N,12104.2550,W,1,10,0.8,9.1,M,-33.4,M,,*53
$PYRTM,2024,123.753677813079,14.863325223218
$GPGGA,180516.00,3435.9648,N,12104.2561,W,1,10,0.8,7.5,M,-33.4,M,,*53
$PYRTM,2024,123.753689400764,14.863336810903
$GPGGA,180517.00,3435.9665,N,12104.2572,W,1,10,0.8,6.3,M,-33.4,M,,*58
$PYRTM,2024,123.753700960046,14.863348370185
$GPGGA,180518.00,3435.9680,N,12104.2583,W,1,10,0.8,6.8,M,-33.4,M,,*59
$PYRTM,2024,123.753712546910,14.863359957049
$GPGGA,180519.00,3435.9689,N,12104.2598,W,1,10,0.8,8.0,M,-33.4,M,,*5D
$PYRTM,2024,123.753724109028,14.863371519167
$GPGGA,180520.00,3435.9697,N,12104.2614,W,1,10,0.8,9.0,M,-33.4,M,,*5E
$PYRTM,2024,123.753735699062,14.863383109201
$GPGGA,180521.00,3435.9709,N,12104.2628,W,1,10,0.8,10.5,M,-33.4,M,,*6B
$PYRTM,2024,123.753745883715,14.863393293854
$GPGGA,180522.00,3435.9724,N,12104.2637,W,1,10,0.8,10.3,M,-33.4,M,,*6F
$PYRTM,2024,123.753757672986,14.863405083125
$GPGGA,180523.00,3435.9739,N,12104.2648,W,1,10,0.8,8.8,M,-33.4,M,,*58
$PYRTM,2024,123.753770406655,14.863417816794
$GPGGA,180524.00,3435.9749,N,12104.2664,W,1,10,0.8,8.0,M,-33.4,M,,*5E
$PYRTM,2024,123.753782007037,14.863429417176
$GPGGA,180525.00,3435.9756,N,12104.2680,W,1,10,0.8,8.2,M,-33.4,M,,*59
$PYRTM,2024,123.753793554745,14.863440964884
$GPGGA,180526.00,3435.9764,N,12104.2691,W,1,10,0.8,9.1,M,-33.4,M,,*59
$PYRTM,2024,123.753805140567,14.863452550706
$GPGGA,180527.00,3435.9779,N,12104.2699,W,1,10,0.8,10.8,M,-33.4,M,,*6D
$PYRTM,2024,123.753817294109,14.863464704248
$GPGGA,180528.00,3435.9795,N,12104.2710,W,1,10,0.8,11.7,M,-33.4,M,,*6E
$PYRTM,2024,123.753828854954,14.863476265104
$GPGGA,180529.00,3435.9806,N,12104.2725,W,1,10,0.8,10.4,M,-33.4,M,,*6E
$PYRTM,2024,123.753840444583,14.863487854722
$GPGGA,180530.00,3435.9812,N,12104.2737,W,1,10,0.8,12.2,M,-33.4,M,,*64
$PYRTM,2024,123.753852003484,14.863499413623
$GPGGA,180531.00,3435.9820,N,12104.2748,W,1,10,0.8,12.9,M,-33.4,M,,*67
$PYRTM,2024,123.753863604942,14.863511015081
$GPGGA,180532.00,3435.9832,N,12104.2758,W,1,10,0.8,11.1,M,-33.4,M,,*6D
$PYRTM,2024,123.753875151725,14.863522561875
$GPGGA,180533.00,3435.9849,N,12104.2769,W,1,10,0.8,7.5,M,-33.4,M,,*51
$PYRTM,2024,123.753886752778,14.863534162917
$GPGGA,180534.00,3435.9863,N,12104.2781,W,1,10,0.8,6.9,M,-33.4,M,,*55
$PYRTM,2024,123.753898301238,14.863545711377
$GPGGA,180535.00,3435.9871,N,12104.2794,W,1,10,0.8,7.4,M,-33.4,M,,*5F
$PYRTM,2024,123.753909888704,14.863557298843
$GPGGA,180536.00,3435.9878,N,12104.2807,W,1,10,0.8,8.6,M,-33.4,M,,*5D
$PYRTM,2024,123.753921448275,14.863568858414
$GPGGA,180537.00,3435.9891,N,12104.2822,W,1,10,0.8,9.6,M,-33.4,M,,*5D
$PYRTM,2024,123.753933039329,14.863580449468
$GPGGA,180538.00,3435.9905,N,12104.2834,W,1,10,0.8,6.2,M,-33.4,M,,*52
$PYRTM,2024,123.753950632303,14.863598042454
$GPGGA,180539.00,3435.9916,N,12104.2843,W,1,10,0.8,8.3,M,-33.4,M,,*5E
$PYRTM,2024,123.753961625208,14.863609035347
$GPGGA,180540.00,3435.9926,N,12104.2854,W,1,10,0.8,9.0,M,-33.4,M,,*57
$PYRTM,2024,123.753971347882,14.863618758021
$GPGGA,180541.00,3435.9934,N,12104.2868,W,1,10,0.8,9.8,M,-33.4,M,,*52
$PYRTM,2024,123.753989042743,14.863636452894
$GPGGA,180542.00,3435.9943,N,12104.2884,W,1,10,0.8,9.5,M,-33.4,M,,*5E
$PYRTM,2024,123.754000152801,14.863647562940
$GPGGA,180543.00,3435.9955,N,12104.2899,W,1,10,0.8,10.4,M,-33.4,M,,*6D
$PYRTM,2024,123.754011264745,14.863658674884
$GPGGA,180544.00,3435.9967,N,12104.2912,W,1,10,0.8,10.0,M,-33.4,M,,*6D
$PYRTM,2024,123.754022492373,14.863669902512
$GPGGA,180545.00,3435.9978,N,12104.2923,W,1,10,0.8,9.3,M,-33.4,M,,*5B
$PYRTM,2024,123.754033602963,14.863681013102
$GPGGA,180546.00,3435.9988,N,12104.2936,W,1,10,0.8,9.8,M,-33.4,M,,*58
$PYRTM,2024,123.754044713738,14.863692123877
$GPGGA,180547.00,3435.9997,N,12104.2950,W,1,10,0.8,10.1,M,-33.4,M,,*66
$PYRTM,2024,123.754055824687,14.863703234826
$GPGGA,180548.00,3436.0009,N,12104.2962,W,1,10,0.8,9.7,M,-33.4,M,,*52
$PYRTM,2024,123.754066937025,14.863714347164
$GPGGA,180549.00,3436.0024,N,12104.2973,W,1,10,0.8,8.2,M,-33.4,M,,*58
$PYRTM,2024,123.754078046343,14.863725456481
$GPGGA,180550.00,3436.0038,N,12104.2987,W,1,10,0.8,5.3,M,-33.4,M,,*5A
$PYRTM,2024,123.754089159618,14.863736569757
$GPGGA,180551.00,3436.0047,N,12104.3002,W,1,10,0.8,5.5,M,-33.4,M,,*50
$PYRTM,2024,123.754100630752,14.863748040891
$GPGGA,180552.00,3436.0052,N,12104.3013,W,1,10,0.8,7.7,M,-33.4,M,,*57
$PYRTM,2024,123.754111741366,14.863759151505
$GPGGA,180553.00,3436.0063,N,12104.3020,W,1,10,0.8,9.3,M,-33.4,M,,*5E
$PYRTM,2024,123.754122855405,14.863770265544
$GPGGA,180554.00,3436.0079,N,12104.3028,W,1,10,0.8,9.2,M,-33.4,M,,*5B
$PYRTM,2024,123.754133967419,14.863781377558
$GPGGA,180555.00,3436.0096,N,12104.3042,W,1,10,0.8,7.3,M,-33.4,M,,*58
$PYRTM,2024,123.754145076088,14.863792486227
$GPGGA,180556.00,3436.0106,N,12104.3057,W,1,10,0.8,6.6,M,-33.4,M,,*53
$PYRTM,2024,123.754156201331,14.863803611470
$GPGGA,180557.00,3436.0110,N,12104.3069,W,1,10,0.8,8.7,M,-33.4,M,,*57
$PYRTM,2024,123.754167643160,14.863815053310
$GPGGA,180558.00,3436.0120,N,12104.3077,W,1,10,0.8,7.5,M,-33.4,M,,*59
$PYRTM,2024,123.754178754051,14.863826164190
$GPGGA,180559.00,3436.0135,N,12104.3088,W,1,10,0.8,7.8,M,-33.4,M,,*51
$PYRTM,2024,123.754189866528,14.863837276667
$GPGGA,180600.00,3436.0147,N,12104.3101,W,1,10,0.8,10.0,M,-33.4,M,,*65
$PYRTM,2024,123.754200963600,14.863848373738
$GPGGA,180601.00,3436.0156,N,12104.3115,W,1,10,0.8,10.1,M,-33.4,M,,*60
$PYRTM,2024,123.754212089340,14.863859499479
$GPGGA,180602.00,3436.0164,N,12104.3129,W,1,10,0.8,9.4,M,-33.4,M,,*50
$PYRTM,2024,123.754223186840,14.863870596979
$GPGGA,180603.00,3436.0176,N,12104.3143,W,1,10,0.8,10.1,M,-33.4,M,,*63
$PYRTM,2024,123.754234300463,14.863881710613
$GPGGA,180604.00,3436.0187,N,12104.3154,W,1,10,0.8,9.9,M,-33.4,M,,*5C
$PYRTM,2024,123.754245418299,14.863892828437
$GPGGA,180605.00,3436.0198,N,12104.3165,W,1,10,0.8,9.9,M,-33.4,M,,*51
$PYRTM,2024,123.754255491875,14.863902902014
$GPGGA,180606.00,3436.0211,N,12104.3175,W,1,10,0.8,9.8,M,-33.4,M,,*50
$PYRTM,2024,123.754268112477,14.863915522616
$GPGGA,180607.00,3436.0223,N,12104.3187,W,1,10,0.8,9.1,M,-33.4,M,,*54
$PYRTM,2024,123.754279677257,14.863927087396
$GPGGA,180608.00,3436.0231,N,12104.3202,W,1,10,0.8,8.8,M,-33.4,M,,*5E
$PYRTM,2024,123.754291256887,14.863938667025
$GPGGA,180609.00,3436.0238,N,12104.3217,W,1,10,0.8,8.9,M,-33.4,M,,*53
$PYRTM,2024,123.754302832801,14.863950242940
$GPGGA,180610.00,3436.0248,N,12104.3230,W,1,10,0.8,8.1,M,-33.4,M,,*51
$PYRTM,2024,123.754314405058,14.863961815197
$GPGGA,180611.00,3436.0262,N,12104.3240,W,1,10,0.8,8.9,M,-33.4,M,,*57
$PYRTM,2024,123.754325978657,14.863973388796
$GPGGA,180612.00,3436.0277,N,12104.3250,W,1,10,0.8,7.8,M,-33.4,M,,*5F
$PYRTM,2024,123.754337553414,14.863984963553
$GPGGA,180613.00,3436.0286,N,12104.3262,W,1,10,0.8,8.3,M,-33.4,M,,*55
$PYRTM,2024,123.754349127662,14.863996537801
$GPGGA,180614.00,3436.0293,N,12104.3278,W,1,10,0.8,9.0,M,-33.4,M,,*5F
$PYRTM,2024,123.754360701655,14.864008111794
$GPGGA,180615.00,3436.0303,N,12104.3294,W,1,10,0.8,10.0,M,-33.4,M,,*6C
$PYRTM,2024,123.754372275590,14.864019685729
$GPGGA,180616.00,3436.0316,N,12104.3307,W,1,10,0.8,9.9,M,-33.4,M,,*51
$PYRTM,2024,123.754383852720,14.864031262859
$GPGGA,180617.00,3436.0327,N,12104.3319,W,1,10,0.8,10.4,M,-33.4,M,,*68
$PYRTM,2024,123.754395423391,14.864042833530
$GPGGA,180618.00,3436.0335,N,12104.3331,W,1,10,0.8,10.8,M,-33.4,M,,*62
$PYRTM,2024,123.754406998900,14.864054409039
$GPGGA,180619.00,3436.0347,N,12104.3344,W,1,10,0.8,11.5,M,-33.4,M,,*68
$PYRTM,2024,123.754418571806,14.864065981944
$GPGGA,180620.00,3436.0359,N,12104.3357,W,1,10,0.8,11.7,M,-33.4,M,,*6D
$PYRTM,2024,123.754430149676,14.864077559815
$GPGGA,180621.00,3436.0372,N,12104.3371,W,1,10,0.8,8.9,M,-33.4,M,,*57
$PYRTM,2024,123.754440331910,14.864087742049
$GPGGA,180622.00,3436.0384,N,12104.3386,W,1,10,0.8,9.5,M,-33.4,M,,*58
$PYRTM,2024,123.754452126435,14.864099536586
$GPGGA,180623.00,3436.0392,N,12104.3401,W,1,10,0.8,9.7,M,-33.4,M,,*54
$PYRTM,2024,123.754464869051,14.864112279201
$GPGGA,180624.00,3436.0400,N,12104.3411,W,1,10,0.8,11.0,M,-33.4,M,,*60
$PYRTM,2024,123.754476442928,14.864123853079
$GPGGA,180625.00,3436.0412,N,12104.3421,W,1,10,0.8,11.3,M,-33.4,M,,*62
$PYRTM,2024,123.754488012500,14.864135422639
$GPGGA,180626.00,3436.0429,N,12104.3434,W,1,10,0.8,9.0,M,-33.4,M,,*57
$PYRTM,2024,123.754499591435,14.864147001586
$GPGGA,180627.00,3436.0441,N,12104.3449,W,1,10,0.8,8.9,M,-33.4,M,,*5A
$PYRTM,2024,123.754511166053,14.864158576192
$GPGGA,180628.00,3436.0446,N,12104.3462,W,1,10,0.8,9.4,M,-33.4,M,,*57
$PYRTM,2024,123.754522741296,14.864170151435
$GPGGA,180629.00,3436.0452,N,12104.3472,W,1,10,0.8,9.9,M,-33.4,M,,*5F
$PYRTM,2024,123.754534313727,14.864181723866
$GPGGA,180630.00,3436.0466,N,12104.3482,W,1,10,0.8,10.5,M,-33.4,M,,*6B
$PYRTM,2024,123.754545888241,14.864193298391
$GPGGA,180631.00,3436.0478,N,12104.3493,W,1,10,0.8,11.3,M,-33.4,M,,*62
$PYRTM,2024,123.754557461887,14.864204872037
$GPGGA,180632.00,3436.0484,N,12104.3506,W,1,10,0.8,11.0,M,-33.4,M,,*6C
$PYRTM,2024,123.754569051204,14.864216461343
$GPGGA,180633.00,3436.0492,N,12104.3521,W,1,10,0.8,10.2,M,-33.4,M,,*6C
$PYRTM,2024,123.754580610822,14.864228020972
$GPGGA,180634.00,3436.0505,N,12104.3535,W,1,10,0.8,9.7,M,-33.4,M,,*5C
$PYRTM,2024,123.754592199201,14.864239609340
$GPGGA,180635.00,3436.0517,N,12104.3544,W,1,10,0.8,9.8,M,-33.4,M,,*57
$PYRTM,2024,123.754603759109,14.864251169259
$GPGGA,180636.00,3436.0526,N,12104.3551,W,1,10,0.8,10.5,M,-33.4,M,,*67
$PYRTM,2024,123.754615336829,14.864262746968
$GPGGA,180637.00,3436.0536,N,12104.3565,W,1,10,0.8,10.3,M,-33.4,M,,*66
$PYRTM,2024,123.754626907361,14.864274317500
$GPGGA,180638.00,3436.0545,N,12104.3584,W,1,10,0.8,10.8,M,-33.4,M,,*69
$PYRTM,2024,123.754638485544,14.864285895683
$GPGGA,180639.00,3436.0553,N,12104.3600,W,1,10,0.8,11.1,M,-33.4,M,,*68
$PYRTM,2024,123.754650055822,14.864297465961
$GPGGA,180640.00,3436.0563,N,12104.3611,W,1,10,0.8,11.4,M,-33.4,M,,*60
$PYRTM,2024,123.754661629838,14.864309039977
$GPGGA,180641.00,3436.0578,N,12104.3620,W,1,10,0.8,10.0,M,-33.4,M,,*6C
$PYRTM,2024,123.754673204514,14.864320614653
$GPGGA,180642.00,3436.0591,N,12104.3630,W,1,10,0.8,10.9,M,-33.4,M,,*60
$PYRTM,2024,123.754684778542,14.864332188681
$GPGGA,180643.00,3436.0597,N,12104.3644,W,1,10,0.8,12.5,M,-33.4,M,,*6A
$PYRTM,2024,123.754696353900,14.864343764039
$GPGGA,180644.00,3436.0602,N,12104.3663,W,1,10,0.8,14.4,M,-33.4,M,,*60
$PYRTM,2024,123.754707926412,14.864355336551
$GPGGA,180645.00,3436.0612,N,12104.3682,W,1,10,0.8,11.2,M,-33.4,M,,*6C
$PYRTM,2024,123.754719502245,14.864366912384
$GPGGA,180646.00,3436.0623,N,12104.3693,W,1,10,0.8,9.9,M,-33.4,M,,*5F
$PYRTM,2024,123.754731075521,14.864378485660
$GPGGA,180647.00,3436.0632,N,12104.3696,W,1,10,0.8,10.0,M,-33.4,M,,*6A
$PYRTM,2024,123.754742644201,14.864390054340
$GPGGA,180648.00,3436.0643,N,12104.3703,W,1,10,0.8,10.0,M,-33.4,M,,*6E
$PYRTM,2024,123.754754225984,14.864401636123
$GPGGA,180649.00,3436.0654,N,12104.3718,W,1,10,0.8,11.3,M,-33.4,M,,*61
$PYRTM,2024,123.754765796701,14.864413206840
$GPGGA,180650.00,3436.0660,N,12104.3734,W,1,10,0.8,10.7,M,-33.4,M,,*65
$PYRTM,2024,123.754777385579,14.864424795718
$GPGGA,180651.00,3436.0666,N,12104.3747,W,1,10,0.8,10.8,M,-33.4,M,,*69
$PYRTM,2024,123.754787556227,14.864434966354
$GPGGA,180652.00,3436.0675,N,12104.3757,W,1,10,0.8,11.6,M,-33.4,M,,*66
$PYRTM,2024,123.754799464977,14.864446875116
$GPGGA,180653.00,3436.0688,N,12104.3764,W,1,10,0.8,11.2,M,-33.4,M,,*61
$PYRTM,2024,123.754812088484,14.864459498611
$GPGGA,180654.00,3436.0700,N,12104.3773,W,1,10,0.8,10.9,M,-33.4,M,,*6B
$PYRTM,2024,123.754823668183,14.864471078322
$GPGGA,180655.00,3436.0709,N,12104.3785,W,1,10,0.8,10.9,M,-33.4,M,,*6A
$PYRTM,2024,123.754835241991,14.864482652130
$GPGGA,180656.00,3436.0715,N,12104.3799,W,1,10,0.8,10.6,M,-33.4,M,,*66
$PYRTM,2024,123.754846817454,14.864494227604
$GPGGA,180657.00,3436.0723,N,12104.3813,W,1,10,0.8,10.6,M,-33.4,M,,*6F
$PYRTM,2024,123.754858390938,14.864505801076
$GPGGA,180658.00,3436.0734,N,12104.3823,W,1,10,0.8,10.2,M,-33.4,M,,*61
$PYRTM,2024,123.754869966181,14.864517376319
$GPGGA,180659.00,3436.0744,N,12104.3833,W,1,10,0.8,10.1,M,-33.4,M,,*65
$PYRTM,2024,123.754881539896,14.864528950035
$GPGGA,180700.00,3436.0752,N,12104.3845,W,1,10,0.8,10.2,M,-33.4,M,,*6D
$PYRTM,2024,123.754893116030,14.864540526169
$GPGGA,180701.00,3436.0759,N,12104.3859,W,1,10,0.8,10.3,M,-33.4,M,,*6B
$PYRTM,2024,123.754904687315,14.864552097465
$GPGGA,180702.00,3436.0768,N,12104.3873,W,1,10,0.8,8.2,M,-33.4,M,,*5A
$PYRTM,2024,123.754916265451,14.864563675590
$GPGGA,180703.00,3436.0779,N,12104.3884,W,1,10,0.8,8.4,M,-33.4,M,,*55
$PYRTM,2024,123.754927836782,14.864575246921
$GPGGA,180704.00,3436.0787,N,12104.3894,W,1,10,0.8,8.9,M,-33.4,M,,*5F
$PYRTM,2024,123.754939412431,14.864586822569
$GPGGA,180705.00,3436.0795,N,12104.3907,W,1,10,0.8,9.2,M,-33.4,M,,*5C
$PYRTM,2024,123.754950984109,14.864598394248
$GPGGA,180706.00,3436.0806,N,12104.3923,W,1,10,0.8,7.3,M,-33.4,M,,*53
$PYRTM,2024,123.754962558426,14.864609968565
$GPGGA,180707.00,3436.0815,N,12104.3935,W,1,10,0.8,8.3,M,-33.4,M,,*58
$PYRTM,2024,123.754974133160,14.864621543299
$GPGGA,180708.00,3436.0820,N,12104.3946,W,1,10,0.8,9.8,M,-33.4,M,,*5F
$PYRTM,2024,123.754985707037,14.864633117176
$GPGGA,180709.00,3436.0829,N,12104.3956,W,1,10,0.8,10.9,M,-33.4,M,,*6F
$PYRTM,2024,123.754997284514,14.864644694664
$GPGGA,180710.00,3436.0841,N,12104.3968,W,1,10,0.8,10.0,M,-33.4,M,,*6D
$PYRTM,2024,123.755008856505,14.864656266644
$GPGGA,180711.00,3436.0851,N,12104.3980,W,1,10,0.8,9.6,M,-33.4,M,,*55
$PYRTM,2024,123.755020429132,14.864667839271
$GPGGA,180712.00,3436.0856,N,12104.3992,W,1,10,0.8,9.8,M,-33.4,M,,*5C
$PYRTM,2024,123.755032005359,14.864679415509
$GPGGA,180713.00,3436.0861,N,12104.4002,W,1,10,0.8,11.0,M,-33.4,M,,*6F
$PYRTM,2024,123.755043578113,14.864690988264
$GPGGA,180714.00,3436.0872,N,12104.4016,W,1,10,0.8,11.8,M,-33.4,M,,*67
$PYRTM,2024,123.755055153519,14.864702563657
$GPGGA,180715.00,3436.0885,N,12104.4033,W,1,10,0.8,9.1,M,-33.4,M,,*59
$PYRTM,2024,123.755066727523,14.864714137662
$GPGGA,180716.00,3436.0895,N,12104.4047,W,1,10,0.8,8.7,M,-33.4,M,,*5F
$PYRTM,2024,123.755078301667,14.864725711806
$GPGGA,180717.00,3436.0903,N,12104.4058,W,1,10,0.8,9.1,M,-33.4,M,,*59
$PYRTM,2024,123.755089869525,14.864737279664
$GPGGA,180718.00,3436.0913,N,12104.4069,W,1,10,0.8,9.0,M,-33.4,M,,*54
$PYRTM,2024,123.755101451632,14.864748861771
$GPGGA,180719.00,3436.0923,N,12104.4083,W,1,10,0.8,7.9,M,-33.4,M,,*55
$PYRTM,2024,123.755113019109,14.864760429248
$GPGGA,180720.00,3436.0933,N,12104.4098,W,1,10,0.8,7.7,M,-33.4,M,,*5A
$PYRTM,2024,123.755124596273,14.864772006412
$GPGGA,180721.00,3436.0942,N,12104.4109,W,1,10,0.8,8.2,M,-33.4,M,,*5E
$PYRTM,2024,123.755134785856,14.864782195995
$GPGGA,180722.00,3436.0952,N,12104.4118,W,1,10,0.8,8.0,M,-33.4,M,,*5E
$PYRTM,2024,123.755146575220,14.864793985359
$GPGGA,180723.00,3436.0962,N,12104.4127,W,1,10,0.8,8.3,M,-33.4,M,,*53
$PYRTM,2024,123.755159319803,14.864806729942
$GPGGA,180724.00,3436.0973,N,12104.4138,W,1,10,0.8,8.2,M,-33.4,M,,*5B
$PYRTM,2024,123.755170888877,14.864818299016
$GPGGA,180725.00,3436.0984,N,12104.4154,W,1,10,0.8,7.2,M,-33.4,M,,*57
$PYRTM,2024,123.755182468993,14.864829879132
$GPGGA,180726.00,3436.0993,N,12104.4169,W,1,10,0.8,7.0,M,-33.4,M,,*5E
$PYRTM,2024,123.755194041412,14.864841451551
$GPGGA,180727.00,3436.1002,N,12104.4180,W,1,10,0.8,8.1,M,-33.4,M,,*56
$PYRTM,2024,123.755205611921,14.864853022060
$GPGGA,180728.00,3436.1012,N,12104.4191,W,1,10,0.8,8.1,M,-33.4,M,,*58
$PYRTM,2024,123.755217190984,14.864864601123
$GPGGA,180729.00,3436.1024,N,12104.4202,W,1,10,0.8,8.5,M,-33.4,M,,*51
$PYRTM,2024,123.755228765613,14.864876175752
$GPGGA,180730.00,3436.1035,N,12104.4215,W,1,10,0.8,7.9,M,-33.4,M,,*5C
$PYRTM,2024,123.755240342755,14.864887752894
$GPGGA,180731.00,3436.1044,N,12104.4230,W,1,10,0.8,8.5,M,-33.4,M,,*5F
$PYRTM,2024,123.755251907963,14.864899318113
$GPGGA,180732.00,3436.1053,N,12104.4244,W,1,10,0.8,9.3,M,-33.4,M,,*5E
$PYRTM,2024,123.755263490058,14.864910900197
$GPGGA,180733.00,3436.1063,N,12104.4256,W,1,10,0.8,10.0,M,-33.4,M,,*64
$PYRTM,2024,123.755275061736,14.864922471875
$GPGGA,180734.00,3436.1075,N,12104.4266,W,1,10,0.8,10.6,M,-33.4,M,,*61
$PYRTM,2024,123.755286639734,14.864934049873
$GPGGA,180735.00,3436.1087,N,12104.4277,W,1,10,0.8,10.4,M,-33.4,M,,*6F
$PYRTM,2024,123.755298210509,14.864945620648
$GPGGA,180736.00,3436.1098,N,12104.4292,W,1,10,0.8,8.3,M,-33.4,M,,*57
$PYRTM,2024,123.755309784479,14.864957194630
$GPGGA,180737.00,3436.1108,N,12104.4308,W,1,10,0.8,8.5,M,-33.4,M,,*5A
$PYRTM,2024,123.755321357963,14.864968768102
$GPGGA,180738.00,3436.1117,N,12104.4320,W,1,10,0.8,9.5,M,-33.4,M,,*50
$PYRTM,2024,123.755332932836,14.864980342975
$GPGGA,180739.00,3436.1128,N,12104.4327,W,1,10,0.8,9.4,M,-33.4,M,,*5B
$PYRTM,2024,123.755344506597,14.864991916736
$GPGGA,180740.00,3436.1140,N,12104.4336,W,1,10,0.8,9.5,M,-33.4,M,,*5A
$PYRTM,2024,123.755356077535,14.865003487674
$GPGGA,180741.00,3436.1153,N,12104.4351,W,1,10,0.8,9.0,M,-33.4,M,,*5D
$PYRTM,2024,123.755367655150,14.865015065289
$GPGGA,180742.00,3436.1160,N,12104.4368,W,1,10,0.8,9.7,M,-33.4,M,,*53
$PYRTM,2024,123.755379229259,14.865026639398
$GPGGA,180743.00,3436.1167,N,12104.4381,W,1,10,0.8,11.2,M,-33.4,M,,*6E
$PYRTM,2024,123.755389876910,14.865037287049
$GPGGA,180744.00,3436.1180,N,12104.4392,W,1,10,0.8,12.5,M,-33.4,M,,*66
$PYRTM,2024,123.755401799745,14.865049209884
$GPGGA,180745.00,3436.1194,N,12104.4403,W,1,10,0.8,11.4,M,-33.4,M,,*6F
$PYRTM,2024,123.755410711562,14.865058121701
$GPGGA,180746.00,3436.1202,N,12104.4415,W,1,10,0.8,11.0,M,-33.4,M,,*63
$PYRTM,2024,123.755428436227,14.865075846366
$GPGGA,180747.00,3436.1208,N,12104.4428,W,1,10,0.8,11.1,M,-33.4,M,,*67
$PYRTM,2024,123.755439516620,14.865086926759
$GPGGA,180748.00,3436.1216,N,12104.4442,W,1,10,0.8,11.1,M,-33.4,M,,*6B
$PYRTM,2024,123.755450657037,14.865098067176
$GPGGA,180749.00,3436.1228,N,12104.4457,W,1,10,0.8,10.6,M,-33.4,M,,*65
$PYRTM,2024,123.755461623854,14.865109033993
$GPGGA,180750.00,3436.1239,N,12104.4472,W,1,10,0.8,9.2,M,-33.4,M,,*56
$PYRTM,2024,123.755472736817,14.865120146968
$GPGGA,180751.00,3436.1249,N,12104.4486,W,1,10,0.8,9.0,M,-33.4,M,,*59
$PYRTM,2024,123.755483729225,14.865131139363
$GPGGA,180752.00,3436.1258,N,12104.4496,W,1,10,0.8,9.8,M,-33.4,M,,*53
$PYRTM,2024,123.755494970486,14.865142380625
$GPGGA,180753.00,3436.1268,N,12104.4504,W,1,10,0.8,11.0,M,-33.4,M,,*6A
$PYRTM,2024,123.755506540995,14.865153951134
$GPGGA,180754.00,3436.1281,N,12104.4517,W,1,10,0.8,9.4,M,-33.4,M,,*55
$PYRTM,2024,123.755518118796,14.865165528935
$GPGGA,180755.00,3436.1295,N,12104.4534,W,1,10,0.8,8.4,M,-33.4,M,,*51
$PYRTM,2024,123.755529694850,14.865177104988
$GPGGA,180756.00,3436.1303,N,12104.4548,W,1,10,0.8,8.5,M,-33.4,M,,*56
$PYRTM,2024,123.755541263252,14.865188673403
$GPGGA,180757.00,3436.1310,N,12104.4557,W,1,10,0.8,10.2,M,-33.4,M,,*65
$PYRTM,2024,123.755552841956,14.865200252095
$GPGGA,180758.00,3436.1322,N,12104.4566,W,1,10,0.8,11.2,M,-33.4,M,,*68
$PYRTM,2024,123.755564417153,14.865211827292
$GPGGA,180759.00,3436.1338,N,12104.4577,W,1,10,0.8,9.1,M,-33.4,M,,*58
$PYRTM,2024,123.755575990637,14.865223400787
$GPGGA,180800.00,3436.1349,N,12104.4591,W,1,10,0.8,7.8,M,-33.4,M,,*52
$PYRTM,2024,123.755587578414,14.865234988553
$GPGGA,180801.00,3436.1356,N,12104.4605,W,1,10,0.8,7.7,M,-33.4,M,,*5C
$PYRTM,2024,123.755599139583,14.865246549734
$GPGGA,180802.00,3436.1364,N,12104.4617,W,1,10,0.8,8.5,M,-33.4,M,,*50
$PYRTM,2024,123.755610726563,14.865258136701
$GPGGA,180803.00,3436.1375,N,12104.4628,W,1,10,0.8,8.6,M,-33.4,M,,*5E
$PYRTM,2024,123.755622287338,14.865269697477
$GPGGA,180804.00,3436.1389,N,12104.4639,W,1,10,0.8,7.8,M,-33.4,M,,*5B
$PYRTM,2024,123.755633855775,14.865281265914
$GPGGA,180805.00,3436.1398,N,12104.4650,W,1,10,0.8,7.7,M,-33.4,M,,*5A
$PYRTM,2024,123.755645430012,14.865292840162
$GPGGA,180806.00,3436.1405,N,12104.4662,W,1,10,0.8,8.4,M,-33.4,M,,*57
$PYRTM,2024,123.755657011690,14.865304421829
$GPGGA,180807.00,3436.1415,N,12104.4677,W,1,10,0.8,8.0,M,-33.4,M,,*57
$PYRTM,2024,123.755668578345,14.865315988484
$GPGGA,180808.00,3436.1426,N,12104.4691,W,1,10,0.8,8.5,M,-33.4,M,,*55
$PYRTM,2024,123.755680152674,14.865327562812
$GPGGA,180809.00,3436.1433,N,12104.4700,W,1,10,0.8,9.6,M,-33.4,M,,*5B
$PYRTM,2024,123.755691727431,14.865339137569
$GPGGA,180810.00,3436.1440,N,12104.4707,W,1,10,0.8,10.6,M,-33.4,M,,*68
$PYRTM,2024,123.755703306690,14.865350716829
$GPGGA,180811.00,3436.1451,N,12104.4718,W,1,10,0.8,13.0,M,-33.4,M,,*62
$PYRTM,2024,123.755714879838,14.865362289977
$GPGGA,180812.00,3436.1463,N,12104.4732,W,1,10,0.8,10.7,M,-33.4,M,,*6C
$PYRTM,2024,123.755726468380,14.865373878519
$GPGGA,180813.00,3436.1472,N,12104.4744,W,1,10,0.8,10.8,M,-33.4,M,,*63
$PYRTM,2024,123.755738027905,14.865385438044
$GPGGA,180814.00,3436.1480,N,12104.4753,W,1,10,0.8,11.2,M,-33.4,M,,*64
$PYRTM,2024,123.755749605417,14.865397015556
$GPGGA,180815.00,3436.1488,N,12104.4760,W,1,10,0.8,12.2,M,-33.4,M,,*6E
$PYRTM,2024,123.755761176065,14.865408586204
$GPGGA,180816.00,3436.1497,N,12104.4772,W,1,10,0.8,12.5,M,-33.4,M,,*67
$PYRTM,2024,123.755772753750,14.865420163889
$GPGGA,180817.00,3436.1506,N,12104.4786,W,1,10,0.8,11.7,M,-33.4,M,,*65
$PYRTM,2024,123.755784326354,14.865431736493
$GPGGA,180818.00,3436.1516,N,12104.4800,W,1,10,0.8,12.0,M,-33.4,M,,*6E
$PYRTM,2024,123.755795900822,14.865443310961
$GPGGA,180819.00,3436.1524,N,12104.4811,W,1,10,0.8,12.0,M,-33.4,M,,*6E
$PYRTM,2024,123.755807473634,14.865454883773
$GPGGA,180820.00,3436.1533,N,12104.4819,W,1,10,0.8,11.9,M,-33.4,M,,*60
$PYRTM,2024,123.755819048032,14.865466458171
$GPGGA,180821.00,3436.1546,N,12104.4828,W,1,10,0.8,8.2,M,-33.4,M,,*52
$PYRTM,2024,123.755829696123,14.865477106273
$GPGGA,180822.00,3436.1556,N,12104.4842,W,1,10,0.8,7.8,M,-33.4,M,,*59
$PYRTM,2024,123.755841025579,14.865488435718
$GPGGA,180823.00,3436.1561,N,12104.4858,W,1,10,0.8,8.9,M,-33.4,M,,*59
$PYRTM,2024,123.755853769745,14.865501179884
$GPGGA,180824.00,3436.1570,N,12104.4873,W,1,10,0.8,10.0,M,-33.4,M,,*67
$PYRTM,2024,123.755865341296,14.865512751435
$GPGGA,180825.00,3436.1584,N,12104.4884,W,1,10,0.8,9.6,M,-33.4,M,,*5B
$PYRTM,2024,123.755876918171,14.865524328310
$GPGGA,180826.00,3436.1598,N,12104.4894,W,1,10,0.8,8.9,M,-33.4,M,,*5A
$PYRTM,2024,123.755887324896,14.865534735035
$GPGGA,180827.00,3436.1605,N,12104.4905,W,1,10,0.8,9.9,M,-33.4,M,,*54
$PYRTM,2024,123.755900065752,14.865547475903
$GPGGA,180828.00,3436.1609,N,12104.4918,W,1,10,0.8,10.6,M,-33.4,M,,*6C
$PYRTM,2024,123.755911656123,14.865559066262
$GPGGA,180829.00,3436.1616,N,12104.4932,W,1,10,0.8,11.3,M,-33.4,M,,*6F
$PYRTM,2024,123.755923214676,14.865570624826
$GPGGA,180830.00,3436.1627,N,12104.4945,W,1,10,0.8,11.3,M,-33.4,M,,*65
$PYRTM,2024,123.755934792176,14.865582202315
$GPGGA,180831.00,3436.1639,N,12104.4957,W,1,10,0.8,10.8,M,-33.4,M,,*62
$PYRTM,2024,123.755946362488,14.865593772627
$GPGGA,180832.00,3436.1651,N,12104.4967,W,1,10,0.8,10.6,M,-33.4,M,,*62
$PYRTM,2024,123.755957940822,14.865605350961
$GPGGA,180833.00,3436.1660,N,12104.4979,W,1,10,0.8,10.4,M,-33.4,M,,*6C
$PYRTM,2024,123.755969511447,14.865616921586
$GPGGA,180834.00,3436.1667,N,12104.4995,W,1,10,0.8,10.3,M,-33.4,M,,*69
$PYRTM,2024,123.755981086169,14.865628496308
$GPGGA,180835.00,3436.1675,N,12104.5010,W,1,10,0.8,10.2,M,-33.4,M,,*6F
$PYRTM,2024,123.755992655069,14.865640065220
$GPGGA,180836.00,3436.1684,N,12104.5023,W,1,10,0.8,10.2,M,-33.4,M,,*62
$PYRTM,2024,123.756004234201,14.865651644340
$GPGGA,180837.00,3436.1696,N,12104.5035,W,1,10,0.8,8.5,M,-33.4,M,,*59
$PYRTM,2024,123.756015808785,14.865663218924
$GPGGA,180838.00,3436.1710,N,12104.5047,W,1,10,0.8,7.9,M,-33.4,M,,*5F
$PYRTM,2024,123.756027382407,14.865674792558
