$PYRTM,2024,121.833344396377,12.942991806516
$GPGGA,195959.00,3253.0679,N,11748.7142,W,1,10,0.8,13.2,M,-34.6,M,,*67
$PYRTM,2024,121.833353884236,12.943001294375
$GPGGA,200000.00,3253.0690,N,11748.7169,W,1,10,0.8,12.4,M,-34.6,M,,*64
$PYRTM,2024,121.833365461748,12.943012871887
$GPGGA,200001.00,3253.0697,N,11748.7194,W,1,10,0.8,12.9,M,-34.6,M,,*6D
$PYRTM,2024,121.833377032488,12.943024442627
$GPGGA,200002.00,3253.0706,N,11748.7215,W,1,10,0.8,12.6,M,-34.6,M,,*62
$PYRTM,2024,121.833388608935,12.943036019074
$GPGGA,200003.00,3253.0718,N,11748.7236,W,1,10,0.8,11.5,M,-34.6,M,,*6D
$PYRTM,2024,121.833400214109,12.943047624248
$GPGGA,200004.00,3253.0731,N,11748.7258,W,1,10,0.8,12.1,M,-34.6,M,,*6E
$PYRTM,2024,121.833411755220,12.943059165359
$GPGGA,200005.00,3253.0742,N,11748.7282,W,1,10,0.8,12.3,M,-34.6,M,,*6E
$PYRTM,2024,121.833423327986,12.943070738113
$GPGGA,200006.00,3253.0750,N,11748.7306,W,1,10,0.8,12.7,M,-34.6,M,,*67
$PYRTM,2024,121.833434915752,12.943082325891
$GPGGA,200007.00,3253.0759,N,11748.7330,W,1,10,0.8,13.1,M,-34.6,M,,*6D
$PYRTM,2024,121.833446477650,12.943093887801
$GPGGA,200008.00,3253.0772,N,11748.7352,W,1,10,0.8,11.8,M,-34.6,M,,*64
$PYRTM,2024,121.833458064201,12.943105474340
$GPGGA,200009.00,3253.0786,N,11748.7374,W,1,10,0.8,12.8,M,-34.6,M,,*69
$PYRTM,2024,121.833469626470,12.943117036609
$GPGGA,200010.00,3253.0797,N,11748.7399,W,1,09,0.8,11.5,M,-34.6,M,,*64
$PYRTM,2024,121.833481213310,12.943128623449
$GPGGA,200011.00,3253.0804,N,11748.7423,W,1,10,0.8,12.0,M,-34.6,M,,*68
$PYRTM,2024,121.833492774884,12.943140185023
$GPGGA,200012.00,3253.0813,N,11748.7446,W,1,10,0.8,13.1,M,-34.6,M,,*6E
$PYRTM,2024,121.833504361806,12.943151771944
$GPGGA,200013.00,3253.0824,N,11748.7467,W,1,10,0.8,12.6,M,-34.6,M,,*6E
$PYRTM,2024,121.833515922373,12.943163332512
$GPGGA,200014.00,3253.0836,N,11748.7486,W,1,10,0.8,14.1,M,-34.6,M,,*64
$PYRTM,2024,121.833527498576,12.943174908715
$GPGGA,200015.00,3253.0846,N,11748.7508,W,1,10,0.8,13.0,M,-34.6,M,,*63
$PYRTM,2024,121.833539071100,12.943186481238
$GPGGA,200016.00,3253.0854,N,11748.7531,W,1,10,0.8,12.3,M,-34.6,M,,*6B
$PYRTM,2024,121.833550658380,12.943198068530
$GPGGA,200017.00,3253.0862,N,11748.7553,W,1,10,0.8,13.3,M,-34.6,M,,*6A
$PYRTM,2024,121.833562218935,12.943209629074
$GPGGA,200018.00,3253.0871,N,11748.7572,W,1,10,0.8,13.7,M,-34.6,M,,*60
$PYRTM,2024,121.833573801238,12.943221211377
$GPGGA,200019.00,3253.0885,N,11748.7595,W,1,10,0.8,13.7,M,-34.6,M,,*63
$PYRTM,2024,121.833585366806,12.943232776944
$GPGGA,200020.00,3253.0896,N,11748.7620,W,1,10,0.8,11.3,M,-34.6,M,,*60
$PYRTM,2024,121.833596834063,12.943244244201
$GPGGA,200021.00,3253.0905,N,11748.7644,W,1,10,0.8,9.1,M,-34.6,M,,*53
$PYRTM,2024,121.833608517755,12.943255927905
$GPGGA,200022.00,3253.0913,N,11748.7664,W,1,10,0.8,12.2,M,-34.6,M,,*6C
$PYRTM,2024,121.833620450984,12.943267861123
$GPGGA,200023.00,3253.0924,N,11748.7684,W,1,10,0.8,13.5,M,-34.6,M,,*61
$PYRTM,2024,121.833632027245,12.943279437384
$GPGGA,200024.00,3253.0937,N,11748.7706,W,1,10,0.8,11.8,M,-34.6,M,,*60
$PYRTM,2024,121.833643593310,12.943291003449
$GPGGA,200025.00,3253.0949,N,11748.7731,W,1,10,0.8,10.6,M,-34.6,M,,*63
$PYRTM,2024,121.833655167095,12.943302577234
$GPGGA,200026.00,3253.0957,N,11748.7753,W,1,10,0.8,12.0,M,-34.6,M,,*6F
$PYRTM,2024,121.833666746632,12.943314156782
$GPGGA,200027.00,3253.0966,N,11748.7775,W,1,10,0.8,14.5,M,-34.6,M,,*6B
$PYRTM,2024,121.833679472859,12.943326882998
$GPGGA,200028.00,3253.0977,N,11748.7796,W,1,10,0.8,11.4,M,-34.6,M,,*6D
$PYRTM,2024,121.833691617049,12.943339027199
$GPGGA,200029.00,3253.0989,N,11748.7818,W,1,10,0.8,11.2,M,-34.6,M,,*62
$PYRTM,2024,121.833701107813,12.943348517951
$GPGGA,200030.00,3253.1001,N,11748.7843,W,1,10,0.8,10.1,M,-34.6,M,,*6E
$PYRTM,2024,121.833712683229,12.943360093368
$GPGGA,200031.00,3253.1012,N,11748.7866,W,1,10,0.8,11.0,M,-34.6,M,,*6A
$PYRTM,2024,121.833724257836,12.943371667975
$GPGGA,200032.00,3253.1021,N,11748.7890,W,1,10,0.8,11.9,M,-34.6,M,,*69
$PYRTM,2024,121.833735833692,12.943383243831
$GPGGA,200033.00,3253.1032,N,11748.7915,W,1,10,0.8,13.6,M,-34.6,M,,*6B
$PYRTM,2024,121.833747405613,12.943394815752
$GPGGA,200034.00,3253.1044,N,11748.7937,W,1,10,0.8,12.4,M,-34.6,M,,*6E
$PYRTM,2024,121.833758981157,12.943406391296
$GPGGA,200035.00,3253.1057,N,11748.7958,W,1,10,0.8,11.1,M,-34.6,M,,*62
$PYRTM,2024,121.833770553449,12.943417963588
$GPGGA,200036.00,3253.1069,N,11748.7980,W,1,10,0.8,12.6,M,-34.6,M,,*6D
$PYRTM,2024,121.833782130046,12.943429540185
$GPGGA,200037.00,3253.1080,N,11748.8004,W,1,10,0.8,11.4,M,-34.6,M,,*60
$PYRTM,2024,121.833793701655,12.943441111794
$GPGGA,200038.00,3253.1090,N,11748.8029,W,1,10,0.8,13.0,M,-34.6,M,,*67
$PYRTM,2024,121.833805291065,12.943452701204
$GPGGA,200039.00,3253.1101,N,11748.8053,W,1,10,0.8,13.2,M,-34.6,M,,*60
$PYRTM,2024,121.833816849838,12.943464259988
$GPGGA,200040.00,3253.1113,N,11748.8074,W,1,10,0.8,11.8,M,-34.6,M,,*60
$PYRTM,2024,121.833828453623,12.943475863762
$GPGGA,200041.00,3253.1126,N,11748.8097,W,1,10,0.8,11.8,M,-34.6,M,,*6A
$PYRTM,2024,121.833839998877,12.943487409016
$GPGGA,200042.00,3253.1137,N,11748.8124,W,1,10,0.8,12.6,M,-34.6,M,,*6D
$PYRTM,2024,121.833851600162,12.943499010301
$GPGGA,200043.00,3253.1146,N,11748.8150,W,1,10,0.8,12.7,M,-34.6,M,,*68
$PYRTM,2024,121.833863146042,12.943510556181
$GPGGA,200044.00,3253.1153,N,11748.8174,W,1,10,0.8,14.7,M,-34.6,M,,*6B
$PYRTM,2024,121.833874733623,12.943522143762
$GPGGA,200045.00,3253.1163,N,11748.8196,W,1,10,0.8,16.3,M,-34.6,M,,*63
$PYRTM,2024,121.833886293796,12.943533703935
$GPGGA,200046.00,3253.1177,N,11748.8217,W,1,10,0.8,15.1,M,-34.6,M,,*6E
$PYRTM,2024,121.833897878090,12.943545288229
$GPGGA,200047.00,3253.1189,N,11748.8238,W,1,10,0.8,13.8,M,-34.6,M,,*6C
$PYRTM,2024,121.833909817593,12.943557227731
$GPGGA,200048.00,3253.1197,N,11748.8262,W,1,10,0.8,12.1,M,-34.6,M,,*6B
$PYRTM,2024,121.833921480891,12.943568891030
$GPGGA,200049.00,3253.1203,N,11748.8287,W,1,10,0.8,12.3,M,-34.6,M,,*6D
$PYRTM,2024,121.833933068472,12.943580478611
$GPGGA,200050.00,3253.1212,N,11748.8309,W,1,10,0.8,14.2,M,-34.6,M,,*65
$PYRTM,2024,121.833944629479,12.943592039618
$GPGGA,200051.00,3253.1224,N,11748.8328,W,1,10,0.8,14.5,M,-34.6,M,,*65
$PYRTM,2024,121.833956216111,12.943603626250
$GPGGA,200052.00,3253.1237,N,11748.8350,W,1,10,0.8,15.8,M,-34.6,M,,*67
$PYRTM,2024,121.833968254028,12.943615664178
$GPGGA,200053.00,3253.1249,N,11748.8377,W,1,10,0.8,15.8,M,-34.6,M,,*6A
$PYRTM,2024,121.833979359676,12.943626769815
$GPGGA,200054.00,3253.1257,N,11748.8402,W,1,10,0.8,16.4,M,-34.6,M,,*68
$PYRTM,2024,121.833994746285,12.943642156424
$GPGGA,200055.00,3253.1266,N,11748.8423,W,1,10,0.8,16.8,M,-34.6,M,,*64
$PYRTM,2024,121.834007707755,12.943655117905
$GPGGA,200056.00,3253.1277,N,11748.8442,W,1,10,0.8,16.7,M,-34.6,M,,*6F
$PYRTM,2024,121.834018479873,12.943665890012
$GPGGA,200057.00,3253.1290,N,11748.8464,W,1,10,0.8,16.3,M,-34.6,M,,*67
$PYRTM,2024,121.834029711933,12.943677122072
$GPGGA,200058.00,3253.1304,N,11748.8489,W,1,10,0.8,16.3,M,-34.6,M,,*67
$PYRTM,2024,121.834044300984,12.943691711123
$GPGGA,200059.00,3253.1313,N,11748.8512,W,1,10,0.8,14.8,M,-34.6,M,,*6A
$PYRTM,2024,121.834055401644,12.943702811782
$GPGGA,200100.00,3253.1322,N,11748.8534,W,1,10,0.8,15.2,M,-34.6,M,,*6A
$PYRTM,2024,121.834066520370,12.943713930509
$GPGGA,200101.00,3253.1333,N,11748.8556,W,1,10,0.8,15.0,M,-34.6,M,,*6D
$PYRTM,2024,121.834077744086,12.943725154225
$GPGGA,200102.00,3253.1346,N,11748.8579,W,1,10,0.8,16.2,M,-34.6,M,,*60
$PYRTM,2024,121.834088855174,12.943736265313
$GPGGA,200103.00,3253.1358,N,11748.8602,W,1,10,0.8,15.8,M,-34.6,M,,*68
$PYRTM,2024,121.834099979861,12.943747390000
$GPGGA,200104.00,3253.1366,N,11748.8622,W,1,10,0.8,15.0,M,-34.6,M,,*68
$PYRTM,2024,121.834111077674,12.943758487813
$GPGGA,200105.00,3253.1373,N,11748.8643,W,1,10,0.8,16.5,M,-34.6,M,,*6C
$PYRTM,2024,121.834122300104,12.943769710243
$GPGGA,200106.00,3253.1382,N,11748.8665,W,1,10,0.8,14.3,M,-34.6,M,,*61
$PYRTM,2024,121.834133415417,12.943780825556
$GPGGA,200107.00,3253.1395,N,11748.8689,W,1,10,0.8,15.1,M,-34.6,M,,*67
$PYRTM,2024,121.834144526806,12.943791936944
$GPGGA,200108.00,3253.1407,N,11748.8711,W,1,10,0.8,14.9,M,-34.6,M,,*6D
$PYRTM,2024,121.834155638553,12.943803048692
$GPGGA,200109.00,3253.1416,N,11748.8732,W,1,10,0.8,13.3,M,-34.6,M,,*60
$PYRTM,2024,121.834166866042,12.943814276181
$GPGGA,200110.00,3253.1425,N,11748.8753,W,1,10,0.8,13.9,M,-34.6,M,,*65
$PYRTM,2024,121.834177965104,12.943825375243
$GPGGA,200111.00,3253.1435,N,11748.8777,W,1,10,0.8,14.0,M,-34.6,M,,*6D
$PYRTM,2024,121.834189088854,12.943836498993
$GPGGA,200112.00,3253.1447,N,11748.8801,W,1,10,0.8,13.8,M,-34.6,M,,*6A
$PYRTM,2024,121.834200185938,12.943847596076
$GPGGA,200113.00,3253.1458,N,11748.8820,W,1,10,0.8,11.2,M,-34.6,M,,*6E
$PYRTM,2024,121.834211413796,12.943858823935
$GPGGA,200114.00,3253.1468,N,11748.8838,W,1,10,0.8,10.9,M,-34.6,M,,*69
$PYRTM,2024,121.834222523912,12.943869934051
$GPGGA,200115.00,3253.1477,N,11748.8859,W,1,10,0.8,10.9,M,-34.6,M,,*61
$PYRTM,2024,121.834233635521,12.943881045660
$GPGGA,200116.00,3253.1487,N,11748.8881,W,1,10,0.8,12.5,M,-34.6,M,,*66
$PYRTM,2024,121.834244747488,12.943892157627
$GPGGA,200117.00,3253.1497,N,11748.8903,W,1,10,0.8,12.3,M,-34.6,M,,*6B
$PYRTM,2024,121.834255972512,12.943903382650
$GPGGA,200118.00,3253.1507,N,11748.8924,W,1,10,0.8,12.3,M,-34.6,M,,*69
$PYRTM,2024,121.834267085336,12.943914495475
$GPGGA,200119.00,3253.1519,N,11748.8945,W,1,10,0.8,10.9,M,-34.6,M,,*68
$PYRTM,2024,121.834278668495,12.943926078634
$GPGGA,200120.00,3253.1528,N,11748.8969,W,1,10,0.8,12.8,M,-34.6,M,,*6D
$PYRTM,2024,121.834290232373,12.943937642512
$GPGGA,200121.00,3253.1538,N,11748.8994,W,1,10,0.8,10.1,M,-34.6,M,,*64
$PYRTM,2024,121.834301820648,12.943949230787
$GPGGA,200122.00,3253.1546,N,11748.9017,W,1,10,0.8,11.9,M,-34.6,M,,*64
$PYRTM,2024,121.834313860440,12.943961270579
$GPGGA,200123.00,3253.1555,N,11748.9039,W,1,10,0.8,11.0,M,-34.6,M,,*62
$PYRTM,2024,121.834325083241,12.943972493380
$GPGGA,200124.00,3253.1565,N,11748.9059,W,1,10,0.8,10.1,M,-34.6,M,,*60
$PYRTM,2024,121.834336529375,12.943983939514
$GPGGA,200125.00,3253.1577,N,11748.9080,W,1,10,0.8,9.7,M,-34.6,M,,*58
$PYRTM,2024,121.834348116053,12.943995526204
$GPGGA,200126.00,3253.1588,N,11748.9102,W,1,10,0.8,9.4,M,-34.6,M,,*53
$PYRTM,2024,121.834359676586,12.944007086725
$GPGGA,200127.00,3253.1599,N,11748.9126,W,1,10,0.8,9.7,M,-34.6,M,,*57
$PYRTM,2024,121.834371259363,12.944018669502
$GPGGA,200128.00,3253.1610,N,11748.9149,W,1,10,0.8,10.7,M,-34.6,M,,*6B
$PYRTM,2024,121.834383866053,12.944031276192
$GPGGA,200129.00,3253.1621,N,11748.9170,W,1,10,0.8,10.2,M,-34.6,M,,*67
$PYRTM,2024,121.834395454444,12.944042864595
$GPGGA,200130.00,3253.1633,N,11748.9191,W,1,10,0.8,9.4,M,-34.6,M,,*5D
$PYRTM,2024,121.834407014306,12.944054424444
$GPGGA,200131.00,3253.1645,N,11748.9213,W,1,10,0.8,11.4,M,-34.6,M,,*6D
$PYRTM,2024,121.834418602951,12.944066013090
$GPGGA,200132.00,3253.1655,N,11748.9238,W,1,10,0.8,10.3,M,-34.6,M,,*60
$PYRTM,2024,121.834430294653,12.944077704792
$GPGGA,200133.00,3253.1665,N,11748.9264,W,1,10,0.8,10.3,M,-34.6,M,,*6B
$PYRTM,2024,121.834441753981,12.944089164120
$GPGGA,200134.00,3253.1675,N,11748.9288,W,1,10,0.8,9.5,M,-34.6,M,,*51
$PYRTM,2024,121.834453311181,12.944100721319
$GPGGA,200135.00,3253.1687,N,11748.9308,W,1,10,0.8,10.7,M,-34.6,M,,*6E
$PYRTM,2024,121.834464898623,12.944112308762
$GPGGA,200136.00,3253.1699,N,11748.9328,W,1,10,0.8,10.7,M,-34.6,M,,*60
$PYRTM,2024,121.834476459861,12.944123870000
$GPGGA,200137.00,3253.1710,N,11748.9352,W,1,10,0.8,11.3,M,-34.6,M,,*69
$PYRTM,2024,121.834488047188,12.944135457326
$GPGGA,200138.00,3253.1722,N,11748.9378,W,1,10,0.8,9.6,M,-34.6,M,,*53
$PYRTM,2024,121.834499607882,12.944147018021
$GPGGA,200139.00,3253.1731,N,11748.9401,W,1,10,0.8,11.7,M,-34.6,M,,*61
$PYRTM,2024,121.834511195764,12.944158605903
$GPGGA,200140.00,3253.1742,N,11748.9423,W,1,10,0.8,12.5,M,-34.6,M,,*6A
$PYRTM,2024,121.834522756852,12.944170166991
$GPGGA,200141.00,3253.1754,N,11748.9447,W,1,10,0.8,11.4,M,-34.6,M,,*6C
$PYRTM,2024,121.834534344248,12.944181754387
$GPGGA,200142.00,3253.1764,N,11748.9470,W,1,10,0.8,10.2,M,-34.6,M,,*6F
$PYRTM,2024,121.834545904502,12.944193314641
$GPGGA,200143.00,3253.1776,N,11748.9491,W,1,10,0.8,10.7,M,-34.6,M,,*67
$PYRTM,2024,121.834557492454,12.944204902604
$GPGGA,200144.00,3253.1787,N,11748.9512,W,1,10,0.8,12.2,M,-34.6,M,,*63
$PYRTM,2024,121.834569052130,12.944216462269
$GPGGA,200145.00,3253.1798,N,11748.9534,W,1,10,0.8,11.4,M,-34.6,M,,*6D
$PYRTM,2024,121.834580640417,12.944228050567
$GPGGA,200146.00,3253.1807,N,11748.9558,W,1,10,0.8,12.9,M,-34.6,M,,*63
$PYRTM,2024,121.834592319525,12.944239729676
$GPGGA,200147.00,3253.1817,N,11748.9581,W,1,10,0.8,11.5,M,-34.6,M,,*68
$PYRTM,2024,121.834603789317,12.944251199456
$GPGGA,200148.00,3253.1830,N,11748.9603,W,1,10,0.8,11.4,M,-34.6,M,,*6A
$PYRTM,2024,121.834615348241,12.944262758380
$GPGGA,200149.00,3253.1841,N,11748.9624,W,1,10,0.8,14.7,M,-34.6,M,,*6E
$PYRTM,2024,121.834626936898,12.944274347037
$GPGGA,200150.00,3253.1851,N,11748.9646,W,1,10,0.8,13.4,M,-34.6,M,,*67
$PYRTM,2024,121.834638498287,12.944285908437
$GPGGA,200151.00,3253.1861,N,11748.9671,W,1,10,0.8,12.1,M,-34.6,M,,*65
$PYRTM,2024,121.834650085463,12.944297495602
$GPGGA,200152.00,3253.1871,N,11748.9695,W,1,10,0.8,11.6,M,-34.6,M,,*69
$PYRTM,2024,121.834662124572,12.944309534711
$GPGGA,200153.00,3253.1882,N,11748.9718,W,1,10,0.8,11.4,M,-34.6,M,,*62
$PYRTM,2024,121.834673570509,12.944320980648
$GPGGA,200154.00,3253.1892,N,11748.9740,W,1,10,0.8,11.3,M,-34.6,M,,*6E
$PYRTM,2024,121.834684792813,12.944332202951
$GPGGA,200155.00,3253.1902,N,11748.9764,W,1,10,0.8,10.2,M,-34.6,M,,*61
$PYRTM,2024,121.834696383738,12.944343793877
$GPGGA,200156.00,3253.1912,N,11748.9788,W,1,10,0.8,10.4,M,-34.6,M,,*67
$PYRTM,2024,121.834707943287,12.944355353426
$GPGGA,200157.00,3253.1922,N,11748.9811,W,1,10,0.8,10.2,M,-34.6,M,,*6C
$PYRTM,2024,121.834719530116,12.944366940255
$GPGGA,200158.00,3253.1932,N,11748.9833,W,1,10,0.8,11.7,M,-34.6,M,,*66
$PYRTM,2024,121.834729833646,12.944377243785
$GPGGA,200159.00,3253.1944,N,11748.9856,W,1,10,0.8,12.9,M,-34.6,M,,*68
$PYRTM,2024,121.834741640116,12.944389050255
$GPGGA,200200.00,3253.1956,N,11748.9882,W,1,10,0.8,13.4,M,-34.6,M,,*61
$PYRTM,2024,121.834754239942,12.944401650081
$GPGGA,200201.00,3253.1966,N,11748.9907,W,1,10,0.8,13.6,M,-34.6,M,,*6D
$PYRTM,2024,121.834765827257,12.944413237396
$GPGGA,200202.00,3253.1974,N,11748.9929,W,1,10,0.8,11.8,M,-34.6,M,,*6D
$PYRTM,2024,121.834777386505,12.944424796644
$GPGGA,200203.00,3253.1983,N,11748.9949,W,1,10,0.8,12.3,M,-34.6,M,,*6A
$PYRTM,2024,121.834788975174,12.944436385312
$GPGGA,200204.00,3253.1995,N,11748.9972,W,1,10,0.8,11.1,M,-34.6,M,,*63
$PYRTM,2024,121.834800535602,12.944447945752
$GPGGA,200205.00,3253.2008,N,11748.9997,W,1,10,0.8,13.2,M,-34.6,M,,*66
$PYRTM,2024,121.834812123738,12.944459533877
$GPGGA,200206.00,3253.2018,N,11749.0020,W,1,10,0.8,13.3,M,-34.6,M,,*68
$PYRTM,2024,121.834823683634,12.944471093785
$GPGGA,200207.00,3253.2027,N,11749.0043,W,1,10,0.8,14.5,M,-34.6,M,,*61
$PYRTM,2024,121.834835272373,12.944482682512
$GPGGA,200208.00,3253.2038,N,11749.0067,W,1,10,0.8,14.7,M,-34.6,M,,*64
$PYRTM,2024,121.834846831690,12.944494241829
$GPGGA,200209.00,3253.2050,N,11749.0090,W,1,10,0.8,13.9,M,-34.6,M,,*6A
$PYRTM,2024,121.834858419942,12.944505830081
$GPGGA,200210.00,3253.2061,N,11749.0113,W,1,10,0.8,14.4,M,-34.6,M,,*60
$PYRTM,2024,121.834869979838,12.944517389977
$GPGGA,200211.00,3253.2071,N,11749.0137,W,1,10,0.8,11.6,M,-34.6,M,,*61
$PYRTM,2024,121.834881568102,12.944528978241
$GPGGA,200212.00,3253.2081,N,11749.0162,W,1,10,0.8,11.0,M,-34.6,M,,*6B
$PYRTM,2024,121.834893129155,12.944540539294
$GPGGA,200213.00,3253.2092,N,11749.0184,W,1,10,0.8,11.6,M,-34.6,M,,*66
$PYRTM,2024,121.834904716551,12.944552126690
$GPGGA,200214.00,3253.2104,N,11749.0207,W,1,10,0.8,11.6,M,-34.6,M,,*67
$PYRTM,2024,121.834916277384,12.944563687523
$GPGGA,200215.00,3253.2115,N,11749.0230,W,1,10,0.8,12.0,M,-34.6,M,,*67
$PYRTM,2024,121.834927867002,12.944575277141
$GPGGA,200216.00,3253.2126,N,11749.0254,W,1,10,0.8,10.0,M,-34.6,M,,*64
$PYRTM,2024,121.834939425856,12.944586835995
$GPGGA,200217.00,3253.2137,N,11749.0277,W,1,10,0.8,10.0,M,-34.6,M,,*64
$PYRTM,2024,121.834951013935,12.944598424074
$GPGGA,200218.00,3253.2147,N,11749.0298,W,1,10,0.8,9.1,M,-34.6,M,,*54
$PYRTM,2024,121.834962573009,12.944609983160
$GPGGA,200219.00,3253.2158,N,11749.0318,W,1,10,0.8,7.5,M,-34.6,M,,*58
$PYRTM,2024,121.834974161100,12.944621571238
$GPGGA,200220.00,3253.2168,N,11749.0342,W,1,10,0.8,9.5,M,-34.6,M,,*50
$PYRTM,2024,121.834985721389,12.944633131528
$GPGGA,200221.00,3253.2178,N,11749.0365,W,1,10,0.8,9.4,M,-34.6,M,,*54
$PYRTM,2024,121.834997309745,12.944644719884
$GPGGA,200222.00,3253.2189,N,11749.0389,W,1,10,0.8,8.8,M,-34.6,M,,*56
$PYRTM,2024,121.835008870231,12.944656280370
$GPGGA,200223.00,3253.2199,N,11749.0411,W,1,10,0.8,10.3,M,-34.6,M,,*62
$PYRTM,2024,121.835020906701,12.944668316840
$GPGGA,200224.00,3253.2209,N,11749.0433,W,1,10,0.8,10.9,M,-34.6,M,,*65
$PYRTM,2024,121.835032498310,12.944679908449
$GPGGA,200225.00,3253.2220,N,11749.0457,W,1,10,0.8,9.5,M,-34.6,M,,*59
$PYRTM,2024,121.835043607812,12.944691017963
$GPGGA,200226.00,3253.2230,N,11749.0481,W,1,10,0.8,10.0,M,-34.6,M,,*6D
$PYRTM,2024,121.835055167812,12.944702577963
$GPGGA,200227.00,3253.2240,N,11749.0502,W,1,10,0.8,11.1,M,-34.6,M,,*61
$PYRTM,2024,121.835066754340,12.944714164479
$GPGGA,200228.00,3253.2252,N,11749.0524,W,1,10,0.8,11.1,M,-34.6,M,,*69
$PYRTM,2024,121.835077387141,12.944724797280
$GPGGA,200229.00,3253.2262,N,11749.0546,W,1,10,0.8,10.2,M,-34.6,M,,*6D
$PYRTM,2024,121.835088864086,12.944736274236
$GPGGA,200230.00,3253.2272,N,11749.0571,W,1,10,0.8,10.1,M,-34.6,M,,*63
$PYRTM,2024,121.835101463785,12.944748873924
$GPGGA,200231.00,3253.2282,N,11749.0593,W,1,10,0.8,12.1,M,-34.6,M,,*63
$PYRTM,2024,121.835113051169,12.944760461308
$GPGGA,200232.00,3253.2294,N,11749.0613,W,1,10,0.8,12.6,M,-34.6,M,,*6B
$PYRTM,2024,121.835124610509,12.944772020648
$GPGGA,200233.00,3253.2305,N,11749.0635,W,1,10,0.8,10.8,M,-34.6,M,,*6B
$PYRTM,2024,121.835136199954,12.944783610093
$GPGGA,200234.00,3253.2317,N,11749.0659,W,1,10,0.8,9.7,M,-34.6,M,,*52
$PYRTM,2024,121.835147759965,12.944795170104
$GPGGA,200235.00,3253.2327,N,11749.0684,W,1,10,0.8,9.0,M,-34.6,M,,*57
$PYRTM,2024,121.835159348403,12.944806758553
$GPGGA,200236.00,3253.2338,N,11749.0708,W,1,10,0.8,9.6,M,-34.6,M,,*59
$PYRTM,2024,121.835170907581,12.944818317720
$GPGGA,200237.00,3253.2350,N,11749.0730,W,1,10,0.8,8.2,M,-34.6,M,,*58
$PYRTM,2024,121.835182491053,12.944829901192
$GPGGA,200238.00,3253.2361,N,11749.0752,W,1,10,0.8,9.7,M,-34.6,M,,*55
$PYRTM,2024,121.835194055347,12.944841465486
$GPGGA,200239.00,3253.2372,N,11749.0776,W,1,10,0.8,10.0,M,-34.6,M,,*6F
$PYRTM,2024,121.835205644282,12.944853054421
$GPGGA,200240.00,3253.2382,N,11749.0801,W,1,10,0.8,11.6,M,-34.6,M,,*66
$PYRTM,2024,121.835217204190,12.944864614329
$GPGGA,200241.00,3253.2393,N,11749.0825,W,1,10,0.8,12.0,M,-34.6,M,,*64
$PYRTM,2024,121.835228787662,12.944876197801
$GPGGA,200242.00,3253.2403,N,11749.0846,W,1,10,0.8,11.1,M,-34.6,M,,*6E
$PYRTM,2024,121.835240352778,12.944887762917
$GPGGA,200243.00,3253.2413,N,11749.0868,W,1,10,0.8,10.3,M,-34.6,M,,*61
$PYRTM,2024,121.835251938252,12.944899348391
$GPGGA,200244.00,3253.2424,N,11749.0892,W,1,10,0.8,10.5,M,-34.6,M,,*61
$PYRTM,2024,121.835263501644,12.944910911782
$GPGGA,200245.00,3253.2435,N,11749.0915,W,1,10,0.8,11.7,M,-34.6,M,,*6D
$PYRTM,2024,121.835275089595,12.944922499734
$GPGGA,200246.00,3253.2445,N,11749.0938,W,1,10,0.8,10.8,M,-34.6,M,,*68
$PYRTM,2024,121.835286649444,12.944934059583
$GPGGA,200247.00,3253.2456,N,11749.0960,W,1,10,0.8,10.5,M,-34.6,M,,*6B
$PYRTM,2024,121.835298238333,12.944945648484
$GPGGA,200248.00,3253.2467,N,11749.0981,W,1,10,0.8,10.2,M,-34.6,M,,*6E
$PYRTM,2024,121.835309798426,12.944957208576
$GPGGA,200249.00,3253.2477,N,11749.1003,W,1,10,0.8,11.2,M,-34.6,M,,*6D
$PYRTM,2024,121.835321387338,12.944968797477
$GPGGA,200250.00,3253.2486,N,11749.1026,W,1,10,0.8,10.2,M,-34.6,M,,*6D
$PYRTM,2024,121.835332945833,12.944980355984
$GPGGA,200251.00,3253.2495,N,11749.1048,W,1,10,0.8,11.5,M,-34.6,M,,*60
$PYRTM,2024,121.835344535197,12.944991945336
$GPGGA,200252.00,3253.2506,N,11749.1073,W,1,10,0.8,11.4,M,-34.6,M,,*61
$PYRTM,2024,121.835356094086,12.945003504225
$GPGGA,200253.00,3253.2518,N,11749.1097,W,1,10,0.8,11.7,M,-34.6,M,,*66
$PYRTM,2024,121.835367683634,12.945015093773
$GPGGA,200254.00,3253.2529,N,11749.1119,W,1,10,0.8,11.9,M,-34.6,M,,*6A
$PYRTM,2024,121.835379719514,12.945027129653
$GPGGA,200255.00,3253.2538,N,11749.1142,W,1,10,0.8,12.6,M,-34.6,M,,*69
$PYRTM,2024,121.835391404988,12.945038815127
$GPGGA,200256.00,3253.2547,N,11749.1167,W,1,10,0.8,11.3,M,-34.6,M,,*63
$PYRTM,2024,121.835402984977,12.945050395116
$GPGGA,200257.00,3253.2558,N,11749.1192,W,1,10,0.8,10.8,M,-34.6,M,,*6C
$PYRTM,2024,121.835414572396,12.945061982523
$GPGGA,200258.00,3253.2569,N,11749.1213,W,1,10,0.8,11.4,M,-34.6,M,,*66
$PYRTM,2024,121.835424865799,12.945072275938
$GPGGA,200259.00,3253.2580,N,11749.1234,W,1,10,0.8,10.4,M,-34.6,M,,*64
$PYRTM,2024,121.835435159757,12.945082569896
$GPGGA,200300.00,3253.2590,N,11749.1258,W,1,10,0.8,11.4,M,-34.6,M,,*63
$PYRTM,2024,121.835449280197,12.945096690336
$GPGGA,200301.00,3253.2601,N,11749.1280,W,1,10,0.8,11.4,M,-34.6,M,,*6C
$PYRTM,2024,121.835460044005,12.945107454144
$GPGGA,200302.00,3253.2612,N,11749.1302,W,1,10,0.8,10.6,M,-34.6,M,,*65
$PYRTM,2024,121.835471155475,12.945118565613
$GPGGA,200303.00,3253.2624,N,11749.1324,W,1,10,0.8,13.2,M,-34.6,M,,*62
$PYRTM,2024,121.835482381910,12.945129792049
$GPGGA,200304.00,3253.2634,N,11749.1348,W,1,10,0.8,11.3,M,-34.6,M,,*6D
$PYRTM,2024,121.835493496331,12.945140906470
$GPGGA,200305.00,3253.2644,N,11749.1372,W,1,10,0.8,11.4,M,-34.6,M,,*65
$PYRTM,2024,121.835504604792,12.945152014931
$GPGGA,200306.00,3253.2653,N,11749.1395,W,1,10,0.8,9.1,M,-34.6,M,,*55
$PYRTM,2024,121.835515715266,12.945163125405
$GPGGA,200307.00,3253.2663,N,11749.1416,W,1,10,0.8,9.0,M,-34.6,M,,*5A
$PYRTM,2024,121.835526828889,12.945174239028
$GPGGA,200308.00,3253.2674,N,11749.1437,W,1,10,0.8,7.8,M,-34.6,M,,*56
$PYRTM,2024,121.835537940509,12.945185350648
$GPGGA,200309.00,3253.2685,N,11749.1459,W,1,10,0.8,11.3,M,-34.6,M,,*6D
$PYRTM,2024,121.835549164086,12.945196574225
$GPGGA,200310.00,3253.2696,N,11749.1485,W,1,10,0.8,10.3,M,-34.6,M,,*67
$PYRTM,2024,121.835560276563,12.945207686701
$GPGGA,200311.00,3253.2706,N,11749.1510,W,1,10,0.8,8.7,M,-34.6,M,,*5E
$PYRTM,2024,121.835571388102,12.945218798252
$GPGGA,200312.00,3253.2715,N,11749.1532,W,1,10,0.8,11.0,M,-34.6,M,,*60
$PYRTM,2024,121.835588164977,12.945235575116
$GPGGA,200313.00,3253.2724,N,11749.1552,W,1,10,0.8,11.3,M,-34.6,M,,*66
$PYRTM,2024,121.835599276030,12.945246686169
$GPGGA,200314.00,3253.2736,N,11749.1575,W,1,10,0.8,12.2,M,-34.6,M,,*65
$PYRTM,2024,121.835610392824,12.945257802963
$GPGGA,200315.00,3253.2748,N,11749.1602,W,1,10,0.8,9.5,M,-34.6,M,,*53
$PYRTM,2024,121.835621607014,12.945269017153
$GPGGA,200316.00,3253.2759,N,11749.1624,W,1,10,0.8,10.8,M,-34.6,M,,*61
$PYRTM,2024,121.835632718507,12.945280128657
$GPGGA,200317.00,3253.2768,N,11749.1645,W,1,10,0.8,11.3,M,-34.6,M,,*6F
$PYRTM,2024,121.835643828507,12.945291238646
$GPGGA,200318.00,3253.2779,N,11749.1667,W,1,10,0.8,10.3,M,-34.6,M,,*61
$PYRTM,2024,121.835655419630,12.945302829769
$GPGGA,200319.00,3253.2791,N,11749.1691,W,1,10,0.8,12.5,M,-34.6,M,,*6B
$PYRTM,2024,121.835666530972,12.945313941111
$GPGGA,200320.00,3253.2804,N,11749.1712,W,1,10,0.8,12.1,M,-34.6,M,,*6C
$PYRTM,2024,121.835677756898,12.945325167037
$GPGGA,200321.00,3253.2815,N,11749.1734,W,1,10,0.8,12.6,M,-34.6,M,,*6E
$PYRTM,2024,121.835688866493,12.945336276644
$GPGGA,200322.00,3253.2825,N,11749.1758,W,1,10,0.8,11.7,M,-34.6,M,,*66
$PYRTM,2024,121.835699971551,12.945347381690
$GPGGA,200323.00,3253.2835,N,11749.1783,W,1,10,0.8,9.8,M,-34.6,M,,*56
$PYRTM,2024,121.835711091123,12.945358501262
$GPGGA,200324.00,3253.2847,N,11749.1804,W,1,10,0.8,12.6,M,-34.6,M,,*60
$PYRTM,2024,121.835722314190,12.945369724329
$GPGGA,200325.00,3253.2859,N,11749.1825,W,1,10,0.8,10.4,M,-34.6,M,,*6D
$PYRTM,2024,121.835733761863,12.945381172002
$GPGGA,200326.00,3253.2871,N,11749.1847,W,1,10,0.8,10.1,M,-34.6,M,,*65
$PYRTM,2024,121.835744985706,12.945392395856
$GPGGA,200327.00,3253.2881,N,11749.1874,W,1,10,0.8,9.4,M,-34.6,M,,*56
$PYRTM,2024,121.835756096701,12.945403506852
$GPGGA,200328.00,3253.2890,N,11749.1898,W,1,10,0.8,8.7,M,-34.6,M,,*59
$PYRTM,2024,121.835771723299,12.945419133438
$GPGGA,200329.00,3253.2901,N,11749.1918,W,1,10,0.8,8.7,M,-34.6,M,,*58
$PYRTM,2024,121.835783310370,12.945430720509
$GPGGA,200330.00,3253.2912,N,11749.1940,W,1,10,0.8,10.0,M,-34.6,M,,*61
$PYRTM,2024,121.835794871840,12.945442281979
$GPGGA,200331.00,3253.2925,N,11749.1964,W,1,10,0.8,12.3,M,-34.6,M,,*63
$PYRTM,2024,121.835806453137,12.945453863275
$GPGGA,200332.00,3253.2935,N,11749.1988,W,1,10,0.8,10.3,M,-34.6,M,,*61
$PYRTM,2024,121.835818020822,12.945465430961
$GPGGA,200333.00,3253.2943,N,11749.2011,W,1,10,0.8,13.5,M,-34.6,M,,*6E
$PYRTM,2024,121.835829606725,12.945477016863
$GPGGA,200334.00,3253.2952,N,11749.2034,W,1,10,0.8,14.6,M,-34.6,M,,*6A
$PYRTM,2024,121.835841169039,12.945488579178
$GPGGA,200335.00,3253.2964,N,11749.2055,W,1,10,0.8,14.7,M,-34.6,M,,*68
$PYRTM,2024,121.835852750394,12.945500160544
$GPGGA,200336.00,3253.2977,N,11749.2076,W,1,10,0.8,14.3,M,-34.6,M,,*6C
$PYRTM,2024,121.835864318889,12.945511729028
$GPGGA,200337.00,3253.2987,N,11749.2098,W,1,10,0.8,14.3,M,-34.6,M,,*62
$PYRTM,2024,121.835875902870,12.945523313009
$GPGGA,200338.00,3253.2994,N,11749.2121,W,1,10,0.8,13.6,M,-34.6,M,,*6E
$PYRTM,2024,121.835887464201,12.945534874340
$GPGGA,200339.00,3253.3002,N,11749.2145,W,1,10,0.8,16.5,M,-34.6,M,,*6C
$PYRTM,2024,121.835899051644,12.945546461782
$GPGGA,200340.00,3253.3013,N,11749.2167,W,1,10,0.8,15.5,M,-34.6,M,,*61
$PYRTM,2024,121.835910613171,12.945558023310
$GPGGA,200341.00,3253.3025,N,11749.2187,W,1,10,0.8,16.2,M,-34.6,M,,*6F
$PYRTM,2024,121.835922213553,12.945569623692
$GPGGA,200342.00,3253.3037,N,11749.2209,W,1,10,0.8,15.7,M,-34.6,M,,*6C
$PYRTM,2024,121.835933761053,12.945581171192
$GPGGA,200343.00,3253.3046,N,11749.2234,W,1,10,0.8,15.0,M,-34.6,M,,*62
$PYRTM,2024,121.835945350312,12.945592760451
$GPGGA,200344.00,3253.3055,N,11749.2258,W,1,10,0.8,14.2,M,-34.6,M,,*6E
$PYRTM,2024,121.835956909363,12.945604319502
$GPGGA,200345.00,3253.3066,N,11749.2279,W,1,10,0.8,13.8,M,-34.6,M,,*61
$PYRTM,2024,121.835968496123,12.945615906262
$GPGGA,200346.00,3253.3078,N,11749.2301,W,1,10,0.8,12.2,M,-34.6,M,,*68
$PYRTM,2024,121.835980057604,12.945627467743
$GPGGA,200347.00,3253.3091,N,11749.2323,W,1,10,0.8,14.1,M,-34.6,M,,*6B
$PYRTM,2024,121.835991644109,12.945639054248
$GPGGA,200348.00,3253.3102,N,11749.2347,W,1,10,0.8,12.5,M,-34.6,M,,*6F
$PYRTM,2024,121.836003207963,12.945650618102
$GPGGA,200349.00,3253.3112,N,11749.2371,W,1,10,0.8,14.2,M,-34.6,M,,*6B
$PYRTM,2024,121.836014793808,12.945662203947
$GPGGA,200350.00,3253.3121,N,11749.2395,W,1,10,0.8,10.9,M,-34.6,M,,*66
$PYRTM,2024,121.836026354491,12.945673764630
$GPGGA,200351.00,3253.3131,N,11749.2417,W,1,10,0.8,12.9,M,-34.6,M,,*69
$PYRTM,2024,121.836037936852,12.945685346991
$GPGGA,200352.00,3253.3143,N,11749.2440,W,1,10,0.8,11.8,M,-34.6,M,,*6F
$PYRTM,2024,121.836049505104,12.945696915243
$GPGGA,200353.00,3253.3155,N,11749.2464,W,1,10,0.8,13.4,M,-34.6,M,,*61
$PYRTM,2024,121.836061103958,12.945708514097
$GPGGA,200354.00,3253.3166,N,11749.2489,W,1,10,0.8,15.0,M,-34.6,M,,*67
$PYRTM,2024,121.836072650810,12.945720060949
$GPGGA,200355.00,3253.3176,N,11749.2514,W,1,10,0.8,12.7,M,-34.6,M,,*62
$PYRTM,2024,121.836084465023,12.945731875162
$GPGGA,200356.00,3253.3186,N,11749.2537,W,1,10,0.8,11.8,M,-34.6,M,,*63
$PYRTM,2024,121.836095799444,12.945743209583
$GPGGA,200357.00,3253.3198,N,11749.2560,W,1,10,0.8,11.1,M,-34.6,M,,*66
$PYRTM,2024,121.836107389155,12.945754799294
$GPGGA,200358.00,3253.3210,N,11749.2584,W,1,10,0.8,12.5,M,-34.6,M,,*67
$PYRTM,2024,121.836119987674,12.945767397812
$GPGGA,200359.00,3253.3221,N,11749.2610,W,1,10,0.8,12.5,M,-34.6,M,,*6A
$PYRTM,2024,121.836131575810,12.945778985949
$GPGGA,200400.00,3253.3232,N,11749.2634,W,1,10,0.8,14.1,M,-34.6,M,,*67
$PYRTM,2024,121.836143135475,12.945790545613
$GPGGA,200401.00,3253.3241,N,11749.2656,W,1,10,0.8,13.3,M,-34.6,M,,*63
$PYRTM,2024,121.836154724144,12.945802134282
$GPGGA,200402.00,3253.3252,N,11749.2678,W,1,10,0.8,13.0,M,-34.6,M,,*6D
$PYRTM,2024,121.836166285046,12.945813695185
$GPGGA,200403.00,3253.3263,N,11749.2702,W,1,10,0.8,12.1,M,-34.6,M,,*62
$PYRTM,2024,121.836177871944,12.945825282083
$GPGGA,200404.00,3253.3274,N,11749.2726,W,1,10,0.8,12.3,M,-34.6,M,,*67
$PYRTM,2024,121.836189432917,12.945836843056
$GPGGA,200405.00,3253.3283,N,11749.2747,W,1,10,0.8,13.2,M,-34.6,M,,*69
$PYRTM,2024,121.836201022350,12.945848432500
$GPGGA,200406.00,3253.3291,N,11749.2770,W,1,10,0.8,12.4,M,-34.6,M,,*6A
$PYRTM,2024,121.836212580995,12.945859991134
$GPGGA,200407.00,3253.3302,N,11749.2793,W,1,10,0.8,13.4,M,-34.6,M,,*6C
$PYRTM,2024,121.836224169907,12.945871580046
$GPGGA,200408.00,3253.3313,N,11749.2816,W,1,10,0.8,11.4,M,-34.6,M,,*63
$PYRTM,2024,121.836236079583,12.945883489722
$GPGGA,200409.00,3253.3324,N,11749.2837,W,1,10,0.8,10.8,M,-34.6,M,,*68
$PYRTM,2024,121.836247316829,12.945894726968
$GPGGA,200410.00,3253.3334,N,11749.2858,W,1,10,0.8,10.8,M,-34.6,M,,*68
$PYRTM,2024,121.836258878032,12.945906288171
$GPGGA,200411.00,3253.3343,N,11749.2882,W,1,10,0.8,10.5,M,-34.6,M,,*63
$PYRTM,2024,121.836270465289,12.945917875428
$GPGGA,200412.00,3253.3355,N,11749.2907,W,1,10,0.8,12.3,M,-34.6,M,,*6F
$PYRTM,2024,121.836282027789,12.945929437940
$GPGGA,200413.00,3253.3365,N,11749.2930,W,1,10,0.8,11.5,M,-34.6,M,,*6C
$PYRTM,2024,121.836293613796,12.945941023935
$GPGGA,200414.00,3253.3375,N,11749.2951,W,1,10,0.8,12.8,M,-34.6,M,,*63
$PYRTM,2024,121.836305174630,12.945952584769
$GPGGA,200415.00,3253.3386,N,11749.2971,W,1,10,0.8,12.9,M,-34.6,M,,*6D
$PYRTM,2024,121.836316762488,12.945964172627
$GPGGA,200416.00,3253.3396,N,11749.2995,W,1,10,0.8,13.2,M,-34.6,M,,*6F
$PYRTM,2024,121.836328323287,12.945975733426
$GPGGA,200417.00,3253.3407,N,11749.3018,W,1,10,0.8,13.1,M,-34.6,M,,*6F
$PYRTM,2024,121.836339910625,12.945987320764
$GPGGA,200418.00,3253.3418,N,11749.3040,W,1,10,0.8,11.6,M,-34.6,M,,*66
$PYRTM,2024,121.836351471319,12.945998881458
$GPGGA,200419.00,3253.3430,N,11749.3062,W,1,10,0.8,12.4,M,-34.6,M,,*6C
$PYRTM,2024,121.836363058750,12.946010468889
$GPGGA,200420.00,3253.3442,N,11749.3085,W,1,10,0.8,13.4,M,-34.6,M,,*6B
$PYRTM,2024,121.836374619248,12.946022029387
$GPGGA,200421.00,3253.3454,N,11749.3108,W,1,10,0.8,10.9,M,-34.6,M,,*67
$PYRTM,2024,121.836386207164,12.946033617303
$GPGGA,200422.00,3253.3465,N,11749.3131,W,1,10,0.8,10.9,M,-34.6,M,,*6C
$PYRTM,2024,121.836397767188,12.946045177326
$GPGGA,200423.00,3253.3477,N,11749.3156,W,1,10,0.8,10.5,M,-34.6,M,,*63
$PYRTM,2024,121.836409351169,12.946056761308
$GPGGA,200424.00,3253.3489,N,11749.3182,W,1,10,0.8,10.9,M,-34.6,M,,*60
$PYRTM,2024,121.836420915752,12.946068325891
$GPGGA,200425.00,3253.3501,N,11749.3205,W,1,10,0.8,11.1,M,-34.6,M,,*65
$PYRTM,2024,121.836432952245,12.946080362384
$GPGGA,200426.00,3253.3512,N,11749.3225,W,1,10,0.8,10.8,M,-34.6,M,,*6E
$PYRTM,2024,121.836444064468,12.946091474606
$GPGGA,200427.00,3253.3522,N,11749.3246,W,1,10,0.8,11.2,M,-34.6,M,,*62
$PYRTM,2024,121.836455647870,12.946103058009
$GPGGA,200428.00,3253.3533,N,11749.3272,W,1,10,0.8,12.6,M,-34.6,M,,*6D
$PYRTM,2024,121.836465952546,12.946113362685
$GPGGA,200429.00,3253.3543,N,11749.3298,W,1,10,0.8,11.4,M,-34.6,M,,*6E
$PYRTM,2024,121.836477758519,12.946125168657
$GPGGA,200430.00,3253.3552,N,11749.3322,W,1,10,0.8,12.6,M,-34.6,M,,*67
$PYRTM,2024,121.836490361944,12.946137772083
$GPGGA,200431.00,3253.3562,N,11749.3344,W,1,10,0.8,12.9,M,-34.6,M,,*6A
$PYRTM,2024,121.836501947546,12.946149357685
$GPGGA,200432.00,3253.3573,N,11749.3367,W,1,10,0.8,13.4,M,-34.6,M,,*64
$PYRTM,2024,121.836513508657,12.946160918796
$GPGGA,200433.00,3253.3585,N,11749.3389,W,1,10,0.8,12.7,M,-34.6,M,,*6E
$PYRTM,2024,121.836525096574,12.946172506713
$GPGGA,200434.00,3253.3597,N,11749.3411,W,1,10,0.8,12.8,M,-34.6,M,,*63
$PYRTM,2024,121.836536657998,12.946184068137
$GPGGA,200435.00,3253.3609,N,11749.3435,W,1,10,0.8,12.0,M,-34.6,M,,*68
$PYRTM,2024,121.836548240752,12.946195650903
$GPGGA,200436.00,3253.3619,N,11749.3460,W,1,10,0.8,12.2,M,-34.6,M,,*68
$PYRTM,2024,121.836559804815,12.946207214954
$GPGGA,200437.00,3253.3627,N,11749.3480,W,1,10,0.8,13.7,M,-34.6,M,,*6E
$PYRTM,2024,121.836571392928,12.946218803067
$GPGGA,200438.00,3253.3638,N,11749.3501,W,1,10,0.8,13.0,M,-34.6,M,,*60
$PYRTM,2024,121.836582953356,12.946230363495
$GPGGA,200439.00,3253.3652,N,11749.3525,W,1,10,0.8,14.0,M,-34.6,M,,*6C
$PYRTM,2024,121.836594542442,12.946241952593
$GPGGA,200440.00,3253.3665,N,11749.3548,W,1,10,0.8,14.7,M,-34.6,M,,*6A
$PYRTM,2024,121.836606102407,12.946253512546
$GPGGA,200441.00,3253.3673,N,11749.3570,W,1,10,0.8,13.8,M,-34.6,M,,*6F
$PYRTM,2024,121.836617689618,12.946265099757
$GPGGA,200442.00,3253.3682,N,11749.3595,W,1,10,0.8,14.7,M,-34.6,M,,*61
$PYRTM,2024,121.836629249896,12.946276660046
$GPGGA,200443.00,3253.3694,N,11749.3621,W,1,10,0.8,15.1,M,-34.6,M,,*6C
$PYRTM,2024,121.836640837940,12.946288248079
$GPGGA,200444.00,3253.3705,N,11749.3645,W,1,10,0.8,14.6,M,-34.6,M,,*66
$PYRTM,2024,121.836652398738,12.946299808877
$GPGGA,200445.00,3253.3714,N,11749.3666,W,1,10,0.8,17.6,M,-34.6,M,,*65
$PYRTM,2024,121.836663987708,12.946311397847
$GPGGA,200446.00,3253.3722,N,11749.3688,W,1,10,0.8,18.4,M,-34.6,M,,*6E
$PYRTM,2024,121.836675546875,12.946322957014
$GPGGA,200447.00,3253.3731,N,11749.3715,W,1,10,0.8,17.9,M,-34.6,M,,*6A
$PYRTM,2024,121.836687134340,12.946334544479
$GPGGA,200448.00,3253.3741,N,11749.3741,W,1,10,0.8,19.0,M,-34.6,M,,*64
$PYRTM,2024,121.836698695706,12.946346105845
$GPGGA,200449.00,3253.3752,N,11749.3763,W,1,10,0.8,18.8,M,-34.6,M,,*6E
$PYRTM,2024,121.836710283218,12.946357693356
$GPGGA,200450.00,3253.3764,N,11749.3785,W,1,10,0.8,17.0,M,-34.6,M,,*6C
$PYRTM,2024,121.836721842720,12.946369252859
$GPGGA,200451.00,3253.3774,N,11749.3808,W,1,10,0.8,16.5,M,-34.6,M,,*62
$PYRTM,2024,121.836733431829,12.946380841968
$GPGGA,200452.00,3253.3783,N,11749.3834,W,1,10,0.8,18.5,M,-34.6,M,,*68
$PYRTM,2024,121.836744990660,12.946392400799
$GPGGA,200453.00,3253.3792,N,11749.3858,W,1,10,0.8,17.2,M,-34.6,M,,*6B
$PYRTM,2024,121.836756579248,12.946403989387
$GPGGA,200454.00,3253.3803,N,11749.3880,W,1,10,0.8,17.3,M,-34.6,M,,*6F
$PYRTM,2024,121.836768139352,12.946415549491
$GPGGA,200455.00,3253.3815,N,11749.3900,W,1,10,0.8,16.9,M,-34.6,M,,*6B
$PYRTM,2024,121.836780309502,12.946427719641
$GPGGA,200456.00,3253.3826,N,11749.3920,W,1,10,0.8,16.5,M,-34.6,M,,*66
$PYRTM,2024,121.836791881065,12.946439291204
$GPGGA,200457.00,3253.3835,N,11749.3940,W,1,10,0.8,17.0,M,-34.6,M,,*67
$PYRTM,2024,121.836803459144,12.946450869282
$GPGGA,200458.00,3253.3844,N,11749.3962,W,1,10,0.8,15.9,M,-34.6,M,,*65
$PYRTM,2024,121.836814098715,12.946461508854
$GPGGA,200459.00,3253.3854,N,11749.3985,W,1,10,0.8,15.0,M,-34.6,M,,*65
$PYRTM,2024,121.836825214282,12.946472624421
$GPGGA,200500.00,3253.3866,N,11749.4005,W,1,10,0.8,12.1,M,-34.6,M,,*69
$PYRTM,2024,121.836837584039,12.946484994178
$GPGGA,200501.00,3253.3878,N,11749.4023,W,1,10,0.8,12.6,M,-34.6,M,,*64
$PYRTM,2024,121.836849172975,12.946496583113
$GPGGA,200502.00,3253.3888,N,11749.4043,W,1,10,0.8,13.4,M,-34.6,M,,*6D
$PYRTM,2024,121.836860732280,12.946508142431
$GPGGA,200503.00,3253.3897,N,11749.4066,W,1,10,0.8,14.1,M,-34.6,M,,*67
$PYRTM,2024,121.836872320370,12.946519730509
$GPGGA,200504.00,3253.3907,N,11749.4090,W,1,10,0.8,11.7,M,-34.6,M,,*62
$PYRTM,2024,121.836882954965,12.946530365104
$GPGGA,200505.00,3253.3919,N,11749.4111,W,1,10,0.8,10.5,M,-34.6,M,,*67
$PYRTM,2024,121.836896053252,12.946543463391
$GPGGA,200506.00,3253.3931,N,11749.4131,W,1,10,0.8,12.1,M,-34.6,M,,*6A
$PYRTM,2024,121.836906800104,12.946554210243
$GPGGA,200507.00,3253.3943,N,11749.4151,W,1,10,0.8,10.4,M,-34.6,M,,*6F
$PYRTM,2024,121.836917911030,12.946565321169
$GPGGA,200508.00,3253.3951,N,11749.4174,W,1,10,0.8,10.0,M,-34.6,M,,*60
$PYRTM,2024,121.836929136667,12.946576546806
$GPGGA,200509.00,3253.3959,N,11749.4197,W,1,10,0.8,11.6,M,-34.6,M,,*63
$PYRTM,2024,121.836940249155,12.946587659294
$GPGGA,200510.00,3253.3970,N,11749.4220,W,1,10,0.8,12.8,M,-34.6,M,,*62
$PYRTM,2024,121.836951359792,12.946598769931
$GPGGA,200511.00,3253.3982,N,11749.4245,W,1,10,0.8,13.1,M,-34.6,M,,*65
$PYRTM,2024,121.836962470752,12.946609880891
$GPGGA,200512.00,3253.3995,N,11749.4269,W,1,10,0.8,13.6,M,-34.6,M,,*69
$PYRTM,2024,121.836973695914,12.946621106053
$GPGGA,200513.00,3253.4006,N,11749.4291,W,1,10,0.8,14.9,M,-34.6,M,,*63
$PYRTM,2024,121.836984807488,12.946632217627
$GPGGA,200514.00,3253.4014,N,11749.4313,W,1,10,0.8,15.7,M,-34.6,M,,*63
$PYRTM,2024,121.836995919444,12.946643329583
$GPGGA,200515.00,3253.4024,N,11749.4335,W,1,10,0.8,11.4,M,-34.6,M,,*62
$PYRTM,2024,121.837007030613,12.946654440752
$GPGGA,200516.00,3253.4035,N,11749.4359,W,1,10,0.8,14.0,M,-34.6,M,,*6A
$PYRTM,2024,121.837018270903,12.946665681042
$GPGGA,200517.00,3253.4047,N,11749.4382,W,1,10,0.8,14.9,M,-34.6,M,,*61
$PYRTM,2024,121.837035503889,12.946682914028
$GPGGA,200518.00,3253.4060,N,11749.4405,W,1,10,0.8,13.5,M,-34.6,M,,*68
$PYRTM,2024,121.837046616563,12.946694026701
$GPGGA,200519.00,3253.4071,N,11749.4428,W,1,10,0.8,14.8,M,-34.6,M,,*6C
$PYRTM,2024,121.837057842465,12.946705252604
$GPGGA,200520.00,3253.4080,N,11749.4451,W,1,10,0.8,14.7,M,-34.6,M,,*69
$PYRTM,2024,121.837068953981,12.946716364120
$GPGGA,200521.00,3253.4091,N,11749.4473,W,1,10,0.8,13.1,M,-34.6,M,,*69
$PYRTM,2024,121.837080063530,12.946727473669
$GPGGA,200522.00,3253.4104,N,11749.4495,W,1,10,0.8,15.5,M,-34.6,M,,*6D
$PYRTM,2024,121.837091175694,12.946738585833
$GPGGA,200523.00,3253.4116,N,11749.4517,W,1,10,0.8,14.8,M,-34.6,M,,*68
$PYRTM,2024,121.837102401296,12.946749811435
$GPGGA,200524.00,3253.4126,N,11749.4541,W,1,10,0.8,15.6,M,-34.6,M,,*60
$PYRTM,2024,121.837113514317,12.946760924468
$GPGGA,200525.00,3253.4135,N,11749.4564,W,1,10,0.8,14.2,M,-34.6,M,,*61
$PYRTM,2024,121.837125100579,12.946772510718
$GPGGA,200526.00,3253.4146,N,11749.4587,W,1,10,0.8,14.4,M,-34.6,M,,*6D
$PYRTM,2024,121.837136206655,12.946783616794
$GPGGA,200527.00,3253.4160,N,11749.4611,W,1,10,0.8,15.0,M,-34.6,M,,*61
$PYRTM,2024,121.837147323241,12.946794733380
$GPGGA,200528.00,3253.4173,N,11749.4633,W,1,10,0.8,15.1,M,-34.6,M,,*6D
$PYRTM,2024,121.837162010012,12.946809420150
$GPGGA,200529.00,3253.4183,N,11749.4655,W,1,10,0.8,16.3,M,-34.6,M,,*62
$PYRTM,2024,121.837173128241,12.946820538380
$GPGGA,200530.00,3253.4191,N,11749.4680,W,1,10,0.8,14.0,M,-34.6,M,,*60
$PYRTM,2024,121.837184260486,12.946831670625
$GPGGA,200531.00,3253.4201,N,11749.4704,W,1,10,0.8,12.8,M,-34.6,M,,*68
$PYRTM,2024,121.837195470903,12.946842881042
$GPGGA,200532.00,3253.4211,N,11749.4726,W,1,10,0.8,15.8,M,-34.6,M,,*6D
$PYRTM,2024,121.837206916852,12.946854326991
$GPGGA,200533.00,3253.4222,N,11749.4749,W,1,10,0.8,13.0,M,-34.6,M,,*6B
$PYRTM,2024,121.837218506678,12.946865916817
$GPGGA,200534.00,3253.4233,N,11749.4771,W,1,10,0.8,12.3,M,-34.6,M,,*65
$PYRTM,2024,121.837230066609,12.946877476748
$GPGGA,200535.00,3253.4244,N,11749.4794,W,1,10,0.8,14.6,M,-34.6,M,,*6C
$PYRTM,2024,121.837241655289,12.946889065440
$GPGGA,200536.00,3253.4254,N,11749.4816,W,1,10,0.8,15.6,M,-34.6,M,,*6A
$PYRTM,2024,121.837253214815,12.946900624954
$GPGGA,200537.00,3253.4265,N,11749.4840,W,1,10,0.8,16.4,M,-34.6,M,,*6B
$PYRTM,2024,121.837264803958,12.946912214109
$GPGGA,200538.00,3253.4276,N,11749.4865,W,1,10,0.8,18.1,M,-34.6,M,,*6A
$PYRTM,2024,121.837276361493,12.946923771632
$GPGGA,200539.00,3253.4286,N,11749.4888,W,1,10,0.8,17.5,M,-34.6,M,,*6C
$PYRTM,2024,121.837287951852,12.946935361991
$GPGGA,200540.00,3253.4297,N,11749.4911,W,1,10,0.8,18.4,M,-34.6,M,,*6D
$PYRTM,2024,121.837299511238,12.946946921377
$GPGGA,200541.00,3253.4306,N,11749.4934,W,1,10,0.8,18.0,M,-34.6,M,,*66
$PYRTM,2024,121.837311096910,12.946958507049
$GPGGA,200542.00,3253.4315,N,11749.4957,W,1,10,0.8,18.8,M,-34.6,M,,*6A
$PYRTM,2024,121.837322658079,12.946970068218
$GPGGA,200543.00,3253.4325,N,11749.4979,W,1,10,0.8,18.0,M,-34.6,M,,*6C
$PYRTM,2024,121.837334241493,12.946981651632
$GPGGA,200544.00,3253.4336,N,11749.5002,W,1,10,0.8,21.3,M,-34.6,M,,*64
$PYRTM,2024,121.837345808194,12.946993218333
$GPGGA,200545.00,3253.4347,N,11749.5026,W,1,10,0.8,20.7,M,-34.6,M,,*60
$PYRTM,2024,121.837357393067,12.947004803206
$GPGGA,200546.00,3253.4357,N,11749.5050,W,1,10,0.8,19.3,M,-34.6,M,,*6D
$PYRTM,2024,121.837368956343,12.947016366481
$GPGGA,200547.00,3253.4368,N,11749.5073,W,1,10,0.8,19.2,M,-34.6,M,,*60
$PYRTM,2024,121.837380536424,12.947027946562
$GPGGA,200548.00,3253.4379,N,11749.5097,W,1,10,0.8,20.3,M,-34.6,M,,*6E
$PYRTM,2024,121.837392348681,12.947039758819
$GPGGA,200549.00,3253.4390,N,11749.5120,W,1,10,0.8,15.7,M,-34.6,M,,*67
$PYRTM,2024,121.837403690301,12.947051100440
$GPGGA,200550.00,3253.4401,N,11749.5143,W,1,10,0.8,15.4,M,-34.6,M,,*66
$PYRTM,2024,121.837415253461,12.947062663600
$GPGGA,200551.00,3253.4411,N,11749.5165,W,1,10,0.8,17.0,M,-34.6,M,,*64
$PYRTM,2024,121.837426841042,12.947074251181
$GPGGA,200552.00,3253.4423,N,11749.5188,W,1,10,0.8,16.8,M,-34.6,M,,*6C
$PYRTM,2024,121.837438399664,12.947085809803
$GPGGA,200553.00,3253.4434,N,11749.5214,W,1,10,0.8,15.0,M,-34.6,M,,*66
$PYRTM,2024,121.837450001551,12.947097411690
$GPGGA,200554.00,3253.4445,N,11749.5239,W,1,10,0.8,16.6,M,-34.6,M,,*6D
$PYRTM,2024,121.837461548843,12.947108958981
$GPGGA,200555.00,3253.4455,N,11749.5260,W,1,10,0.8,14.4,M,-34.6,M,,*61
$PYRTM,2024,121.837473366991,12.947120777141
$GPGGA,200556.00,3253.4467,N,11749.5279,W,1,10,0.8,15.0,M,-34.6,M,,*6E
$PYRTM,2024,121.837484696562,12.947132106701
$GPGGA,200557.00,3253.4480,N,11749.5300,W,1,10,0.8,13.3,M,-34.6,M,,*6C
$PYRTM,2024,121.837496278125,12.947143688264
$GPGGA,200558.00,3253.4492,N,11749.5324,W,1,10,0.8,11.6,M,-34.6,M,,*61
$PYRTM,2024,121.837508884769,12.947156294907
$GPGGA,200559.00,3253.4503,N,11749.5346,W,1,10,0.8,13.2,M,-34.6,M,,*6B
$PYRTM,2024,121.837520471655,12.947167881794
$GPGGA,200600.00,3253.4512,N,11749.5367,W,1,10,0.8,11.8,M,-34.6,M,,*6F
$PYRTM,2024,121.837532032350,12.947179442488
$GPGGA,200601.00,3253.4523,N,11749.5387,W,1,10,0.8,10.6,M,-34.6,M,,*6D
$PYRTM,2024,121.837543620648,12.947191030787
$GPGGA,200602.00,3253.4536,N,11749.5411,W,1,10,0.8,13.2,M,-34.6,M,,*65
$PYRTM,2024,121.837555179792,12.947202589931
$GPGGA,200603.00,3253.4549,N,11749.5435,W,1,10,0.8,11.1,M,-34.6,M,,*6B
$PYRTM,2024,121.837566769294,12.947214179433
$GPGGA,200604.00,3253.4560,N,11749.5459,W,1,10,0.8,11.4,M,-34.6,M,,*68
$PYRTM,2024,121.837578328866,12.947225739005
$GPGGA,200605.00,3253.4569,N,11749.5482,W,1,10,0.8,12.3,M,-34.6,M,,*62
$PYRTM,2024,121.837589916979,12.947237327118
$GPGGA,200606.00,3253.4579,N,11749.5504,W,1,10,0.8,11.4,M,-34.6,M,,*6B
$PYRTM,2024,121.837601477882,12.947248888021
$GPGGA,200607.00,3253.4592,N,11749.5527,W,1,10,0.8,11.6,M,-34.6,M,,*6C
$PYRTM,2024,121.837613065185,12.947260475324
$GPGGA,200608.00,3253.4604,N,11749.5549,W,1,10,0.8,12.2,M,-34.6,M,,*60
$PYRTM,2024,121.837624626076,12.947272036215
$GPGGA,200609.00,3253.4616,N,11749.5571,W,1,10,0.8,10.7,M,-34.6,M,,*6E
$PYRTM,2024,121.837636208912,12.947283619051
$GPGGA,200610.00,3253.4628,N,11749.5596,W,1,10,0.8,10.4,M,-34.6,M,,*61
$PYRTM,2024,121.837647774144,12.947295184282
$GPGGA,200611.00,3253.4638,N,11749.5618,W,1,10,0.8,10.8,M,-34.6,M,,*68
$PYRTM,2024,121.837659362049,12.947306772187
$GPGGA,200612.00,3253.4648,N,11749.5638,W,1,10,0.8,10.9,M,-34.6,M,,*6F
$PYRTM,2024,121.837670923287,12.947318333438
$GPGGA,200613.00,3253.4659,N,11749.5658,W,1,10,0.8,10.2,M,-34.6,M,,*63
$PYRTM,2024,121.837682510197,12.947329920336
$GPGGA,200614.00,3253.4672,N,11749.5681,W,1,10,0.8,10.7,M,-34.6,M,,*6C
$PYRTM,2024,121.837694071562,12.947341481713
$GPGGA,200615.00,3253.4685,N,11749.5705,W,1,10,0.8,11.1,M,-34.6,M,,*6F
$PYRTM,2024,121.837705658056,12.947353068194
$GPGGA,200616.00,3253.4695,N,11749.5729,W,1,10,0.8,7.7,M,-34.6,M,,*52
$PYRTM,2024,121.837717218796,12.947364628935
$GPGGA,200617.00,3253.4705,N,11749.5750,W,1,10,0.8,9.4,M,-34.6,M,,*58
$PYRTM,2024,121.837728807975,12.947376218125
$GPGGA,200618.00,3253.4717,N,11749.5772,W,1,10,0.8,9.1,M,-34.6,M,,*51
$PYRTM,2024,121.837740367546,12.947387777685
$GPGGA,200619.00,3253.4729,N,11749.5796,W,1,10,0.8,9.4,M,-34.6,M,,*52
$PYRTM,2024,121.837751956192,12.947399366331
$GPGGA,200620.00,3253.4740,N,11749.5819,W,1,10,0.8,12.8,M,-34.6,M,,*69
$PYRTM,2024,121.837763515347,12.947410925486
$GPGGA,200621.00,3253.4750,N,11749.5842,W,1,10,0.8,13.2,M,-34.6,M,,*6C
$PYRTM,2024,121.837775103611,12.947422513750
$GPGGA,200622.00,3253.4760,N,11749.5867,W,1,10,0.8,16.3,M,-34.6,M,,*6F
$PYRTM,2024,121.837786662465,12.947434072604
$GPGGA,200623.00,3253.4770,N,11749.5891,W,1,10,0.8,12.6,M,-34.6,M,,*67
$PYRTM,2024,121.837798251447,12.947445661586
$GPGGA,200624.00,3253.4781,N,11749.5914,W,1,10,0.8,11.3,M,-34.6,M,,*64
$PYRTM,2024,121.837809811991,12.947457222130
$GPGGA,200625.00,3253.4792,N,11749.5936,W,1,10,0.8,12.6,M,-34.6,M,,*61
$PYRTM,2024,121.837821849780,12.947469259919
$GPGGA,200626.00,3253.4802,N,11749.5958,W,1,10,0.8,15.5,M,-34.6,M,,*68
$PYRTM,2024,121.837832961609,12.947480371748
$GPGGA,200627.00,3253.4811,N,11749.5981,W,1,10,0.8,15.1,M,-34.6,M,,*6B
$PYRTM,2024,121.837844549074,12.947491959213
$GPGGA,200628.00,3253.4821,N,11749.6004,W,1,10,0.8,15.3,M,-34.6,M,,*62
$PYRTM,2024,121.837854734410,12.947502144549
$GPGGA,200629.00,3253.4831,N,11749.6028,W,1,10,0.8,13.8,M,-34.6,M,,*61
$PYRTM,2024,121.837866656250,12.947514066400
$GPGGA,200630.00,3253.4842,N,11749.6050,W,1,10,0.8,14.1,M,-34.6,M,,*6C
$PYRTM,2024,121.837879257431,12.947526667569
$GPGGA,200631.00,3253.4852,N,11749.6072,W,1,10,0.8,13.1,M,-34.6,M,,*6B
$PYRTM,2024,121.837890844051,12.947538254190
$GPGGA,200632.00,3253.4861,N,11749.6093,W,1,10,0.8,13.3,M,-34.6,M,,*65
$PYRTM,2024,121.837902404167,12.947549814306
$GPGGA,200633.00,3253.4871,N,11749.6114,W,1,10,0.8,15.9,M,-34.6,M,,*67
$PYRTM,2024,121.837913996007,12.947561406157
$GPGGA,200634.00,3253.4882,N,11749.6138,W,1,10,0.8,14.0,M,-34.6,M,,*6A
$PYRTM,2024,121.837925552477,12.947572962604
$GPGGA,200635.00,3253.4893,N,11749.6161,W,1,10,0.8,13.2,M,-34.6,M,,*62
$PYRTM,2024,121.837937136620,12.947584546759
$GPGGA,200636.00,3253.4904,N,11749.6183,W,1,10,0.8,13.2,M,-34.6,M,,*62
$PYRTM,2024,121.837948701343,12.947596111481
$GPGGA,200637.00,3253.4915,N,11749.6204,W,1,10,0.8,14.8,M,-34.6,M,,*62
$PYRTM,2024,121.837960289375,12.947607699514
$GPGGA,200638.00,3253.4926,N,11749.6226,W,1,10,0.8,13.2,M,-34.6,M,,*60
$PYRTM,2024,121.837972327650,12.947619737789
$GPGGA,200639.00,3253.4937,N,11749.6250,W,1,10,0.8,14.4,M,-34.6,M,,*61
$PYRTM,2024,121.837983887593,12.947631297731
$GPGGA,200640.00,3253.4947,N,11749.6272,W,1,10,0.8,12.6,M,-34.6,M,,*6C
$PYRTM,2024,121.837995475961,12.947642886100
$GPGGA,200641.00,3253.4957,N,11749.6296,W,1,10,0.8,11.8,M,-34.6,M,,*6B
$PYRTM,2024,121.838007035972,12.947654446111
$GPGGA,200642.00,3253.4968,N,11749.6318,W,1,10,0.8,13.3,M,-34.6,M,,*6A
$PYRTM,2024,121.838018618333,12.947666028472
$GPGGA,200643.00,3253.4980,N,11749.6339,W,1,10,0.8,12.5,M,-34.6,M,,*69
$PYRTM,2024,121.838030184340,12.947677594479
$GPGGA,200644.00,3253.4993,N,11749.6362,W,1,10,0.8,11.7,M,-34.6,M,,*63
$PYRTM,2024,121.838041773495,12.947689183634
$GPGGA,200645.00,3253.5004,N,11749.6384,W,1,10,0.8,11.5,M,-34.6,M,,*6E
$PYRTM,2024,121.838053331956,12.947700742095
$GPGGA,200646.00,3253.5016,N,11749.6407,W,1,10,0.8,10.9,M,-34.6,M,,*6F
$PYRTM,2024,121.838064920567,12.947712330706
$GPGGA,200647.00,3253.5028,N,11749.6431,W,1,10,0.8,12.4,M,-34.6,M,,*69
$PYRTM,2024,121.838076480984,12.947723891123
$GPGGA,200648.00,3253.5039,N,11749.6454,W,1,10,0.8,11.3,M,-34.6,M,,*61
$PYRTM,2024,121.838088068727,12.947735478866
$GPGGA,200649.00,3253.5049,N,11749.6476,W,1,10,0.8,11.4,M,-34.6,M,,*60
$PYRTM,2024,121.838099761655,12.947747171794
$GPGGA,200650.00,3253.5060,N,11749.6499,W,1,10,0.8,10.8,M,-34.6,M,,*6F
$PYRTM,2024,121.838111333356,12.947758743495
$GPGGA,200651.00,3253.5073,N,11749.6521,W,1,10,0.8,10.7,M,-34.6,M,,*61
$PYRTM,2024,121.838122910394,12.947770320544
$GPGGA,200652.00,3253.5085,N,11749.6545,W,1,10,0.8,10.8,M,-34.6,M,,*66
$PYRTM,2024,121.838134481389,12.947781891539
$GPGGA,200653.00,3253.5094,N,11749.6567,W,1,10,0.8,12.0,M,-34.6,M,,*6D
$PYRTM,2024,121.838146057477,12.947793467616
$GPGGA,200654.00,3253.5103,N,11749.6588,W,1,10,0.8,13.2,M,-34.6,M,,*67
$PYRTM,2024,121.838157624479,12.947805034618
$GPGGA,200655.00,3253.5116,N,11749.6611,W,1,10,0.8,13.5,M,-34.6,M,,*66
$PYRTM,2024,121.838169200058,12.947816610197
$GPGGA,200656.00,3253.5130,N,11749.6635,W,1,10,0.8,11.9,M,-34.6,M,,*69
$PYRTM,2024,121.838180778958,12.947828189097
$GPGGA,200657.00,3253.5142,N,11749.6658,W,1,10,0.8,10.3,M,-34.6,M,,*6D
$PYRTM,2024,121.838192352708,12.947839762847
$GPGGA,200658.00,3253.5152,N,11749.6679,W,1,10,0.8,10.3,M,-34.6,M,,*60
$PYRTM,2024,121.838202540509,12.947849950648
$GPGGA,200659.00,3253.5160,N,11749.6702,W,1,10,0.8,9.8,M,-34.6,M,,*5E
$PYRTM,2024,121.838213882130,12.947861292269
$GPGGA,200700.00,3253.5171,N,11749.6727,W,1,10,0.8,11.9,M,-34.6,M,,*6C
$PYRTM,2024,121.838226484444,12.947873894583
$GPGGA,200701.00,3253.5185,N,11749.6751,W,1,10,0.8,12.8,M,-34.6,M,,*65
$PYRTM,2024,121.838238078252,12.947885488391
$GPGGA,200702.00,3253.5197,N,11749.6773,W,1,10,0.8,14.2,M,-34.6,M,,*69
$PYRTM,2024,121.838249629282,12.947897039433
$GPGGA,200703.00,3253.5207,N,11749.6798,W,1,10,0.8,13.4,M,-34.6,M,,*66
$PYRTM,2024,121.838261228843,12.947908638981
$GPGGA,200704.00,3253.5217,N,11749.6823,W,1,10,0.8,12.6,M,-34.6,M,,*6C
$PYRTM,2024,121.838272894317,12.947920304456
$GPGGA,200705.00,3253.5228,N,11749.6845,W,1,10,0.8,12.1,M,-34.6,M,,*66
$PYRTM,2024,121.838284370741,12.947931780880
$GPGGA,200706.00,3253.5239,N,11749.6865,W,1,10,0.8,15.9,M,-34.6,M,,*68
$PYRTM,2024,121.838295930104,12.947943340255
$GPGGA,200707.00,3253.5251,N,11749.6887,W,1,10,0.8,16.1,M,-34.6,M,,*60
$PYRTM,2024,121.838307518484,12.947954928623
$GPGGA,200708.00,3253.5262,N,11749.6912,W,1,10,0.8,15.7,M,-34.6,M,,*67
$PYRTM,2024,121.838319075162,12.947966485312
$GPGGA,200709.00,3253.5271,N,11749.6937,W,1,10,0.8,15.1,M,-34.6,M,,*65
$PYRTM,2024,121.838329733623,12.947977143762
$GPGGA,200710.00,3253.5280,N,11749.6958,W,1,10,0.8,14.0,M,-34.6,M,,*6A
$PYRTM,2024,121.838341889502,12.947989299641
$GPGGA,200711.00,3253.5291,N,11749.6979,W,1,10,0.8,14.5,M,-34.6,M,,*6D
$PYRTM,2024,121.838351598333,12.947999008472
$GPGGA,200712.00,3253.5303,N,11749.7002,W,1,10,0.8,14.0,M,-34.6,M,,*65
$PYRTM,2024,121.838362708924,12.948010119063
$GPGGA,200713.00,3253.5315,N,11749.7026,W,1,10,0.8,15.4,M,-34.6,M,,*60
$PYRTM,2024,121.838373706794,12.948021116933
$GPGGA,200714.00,3253.5325,N,11749.7049,W,1,10,0.8,16.0,M,-34.6,M,,*6A
$PYRTM,2024,121.838384930475,12.948032340613
$GPGGA,200715.00,3253.5335,N,11749.7072,W,1,10,0.8,16.3,M,-34.6,M,,*61
$PYRTM,2024,121.838399517257,12.948046927396
$GPGGA,200716.00,3253.5346,N,11749.7096,W,1,10,0.8,17.3,M,-34.6,M,,*6D
$PYRTM,2024,121.838410630150,12.948058040289
$GPGGA,200717.00,3253.5359,N,11749.7120,W,1,10,0.8,12.4,M,-34.6,M,,*6C
$PYRTM,2024,121.838422229201,12.948069639340
$GPGGA,200718.00,3253.5371,N,11749.7142,W,1,10,0.8,14.1,M,-34.6,M,,*6E
$PYRTM,2024,121.838434818600,12.948082228738
$GPGGA,200719.00,3253.5381,N,11749.7162,W,1,10,0.8,15.7,M,-34.6,M,,*65
$PYRTM,2024,121.838446406238,12.948093816377
$GPGGA,200720.00,3253.5390,N,11749.7185,W,1,10,0.8,15.5,M,-34.6,M,,*64
$PYRTM,2024,121.838457965775,12.948105375914
$GPGGA,200721.00,3253.5401,N,11749.7211,W,1,10,0.8,15.0,M,-34.6,M,,*61
$PYRTM,2024,121.838469556725,12.948116966863
$GPGGA,200722.00,3253.5413,N,11749.7234,W,1,10,0.8,13.5,M,-34.6,M,,*65
$PYRTM,2024,121.838481113657,12.948128523796
$GPGGA,200723.00,3253.5426,N,11749.7255,W,1,10,0.8,14.7,M,-34.6,M,,*60
$PYRTM,2024,121.838492697801,12.948140107940
$GPGGA,200724.00,3253.5437,N,11749.7275,W,1,10,0.8,13.6,M,-34.6,M,,*63
$PYRTM,2024,121.838504262627,12.948151672766
$GPGGA,200725.00,3253.5447,N,11749.7299,W,1,10,0.8,13.6,M,-34.6,M,,*67
$PYRTM,2024,121.838515966597,12.948163376736
$GPGGA,200726.00,3253.5456,N,11749.7323,W,1,10,0.8,11.8,M,-34.6,M,,*68
$PYRTM,2024,121.838527410799,12.948174820938
$GPGGA,200727.00,3253.5466,N,11749.7343,W,1,10,0.8,12.7,M,-34.6,M,,*60
$PYRTM,2024,121.838538997234,12.948186407373
$GPGGA,200728.00,3253.5478,N,11749.7361,W,1,10,0.8,15.4,M,-34.6,M,,*64
$PYRTM,2024,121.838549633819,12.948197043958
$GPGGA,200729.00,3253.5489,N,11749.7384,W,1,10,0.8,14.9,M,-34.6,M,,*6C
$PYRTM,2024,121.838561099896,12.948208510035
$GPGGA,200730.00,3253.5500,N,11749.7411,W,1,10,0.8,13.5,M,-34.6,M,,*64
$PYRTM,2024,121.838573707593,12.948221117731
$GPGGA,200731.00,3253.5509,N,11749.7434,W,1,10,0.8,12.5,M,-34.6,M,,*6A
$PYRTM,2024,121.838585295208,12.948232705347
$GPGGA,200732.00,3253.5520,N,11749.7453,W,1,10,0.8,13.4,M,-34.6,M,,*63
$PYRTM,2024,121.838596857535,12.948244267674
$GPGGA,200733.00,3253.5531,N,11749.7473,W,1,10,0.8,14.8,M,-34.6,M,,*6B
$PYRTM,2024,121.838608441701,12.948255851840
$GPGGA,200734.00,3253.5544,N,11749.7496,W,1,10,0.8,16.9,M,-34.6,M,,*66
$PYRTM,2024,121.838620003646,12.948267413785
$GPGGA,200735.00,3253.5555,N,11749.7522,W,1,10,0.8,13.9,M,-34.6,M,,*6C
$PYRTM,2024,121.838631593762,12.948279003900
$GPGGA,200736.00,3253.5564,N,11749.7544,W,1,10,0.8,13.0,M,-34.6,M,,*64
$PYRTM,2024,121.838643151806,12.948290561944
$GPGGA,200737.00,3253.5573,N,11749.7565,W,1,10,0.8,13.3,M,-34.6,M,,*63
$PYRTM,2024,121.838654741493,12.948302151632
$GPGGA,200738.00,3253.5584,N,11749.7585,W,1,10,0.8,11.4,M,-34.6,M,,*6F
$PYRTM,2024,121.838666299340,12.948313709491
$GPGGA,200739.00,3253.5596,N,11749.7607,W,1,10,0.8,12.8,M,-34.6,M,,*6B
$PYRTM,2024,121.838677889433,12.948325299572
$GPGGA,200740.00,3253.5605,N,11749.7630,W,1,10,0.8,12.1,M,-34.6,M,,*61
$PYRTM,2024,121.838689450104,12.948336860243
$GPGGA,200741.00,3253.5613,N,11749.7652,W,1,10,0.8,11.1,M,-34.6,M,,*60
$PYRTM,2024,121.838701035255,12.948348445394
$GPGGA,200742.00,3253.5621,N,11749.7674,W,1,10,0.8,13.5,M,-34.6,M,,*60
$PYRTM,2024,121.838712598252,12.948360008391
$GPGGA,200743.00,3253.5632,N,11749.7695,W,1,10,0.8,12.7,M,-34.6,M,,*6F
$PYRTM,2024,121.838724183623,12.948371593762
$GPGGA,200744.00,3253.5643,N,11749.7716,W,1,10,0.8,15.7,M,-34.6,M,,*63
$PYRTM,2024,121.838735745382,12.948383155521
$GPGGA,200745.00,3253.5654,N,11749.7740,W,1,10,0.8,14.4,M,-34.6,M,,*65
$PYRTM,2024,121.838747332037,12.948394742164
$GPGGA,200746.00,3253.5662,N,11749.7764,W,1,10,0.8,12.4,M,-34.6,M,,*63
$PYRTM,2024,121.838758892870,12.948406303009
$GPGGA,200747.00,3253.5671,N,11749.7786,W,1,10,0.8,13.3,M,-34.6,M,,*6A
$PYRTM,2024,121.838770494873,12.948417905012
$GPGGA,200748.00,3253.5681,N,11749.7807,W,1,10,0.8,13.4,M,-34.6,M,,*6B
$PYRTM,2024,121.838782042650,12.948429452789
$GPGGA,200749.00,3253.5694,N,11749.7829,W,1,10,0.8,11.9,M,-34.6,M,,*6D
$PYRTM,2024,121.838793632836,12.948441042975
$GPGGA,200750.00,3253.5705,N,11749.7851,W,1,10,0.8,10.9,M,-34.6,M,,*62
$PYRTM,2024,121.838805189896,12.948452600046
$GPGGA,200751.00,3253.5715,N,11749.7873,W,1,10,0.8,10.6,M,-34.6,M,,*6D
$PYRTM,2024,121.838816780324,12.948464190463
$GPGGA,200752.00,3253.5725,N,11749.7897,W,1,10,0.8,10.7,M,-34.6,M,,*66
$PYRTM,2024,121.838828338796,12.948475748935
$GPGGA,200753.00,3253.5736,N,11749.7919,W,1,10,0.8,9.5,M,-34.6,M,,*58
$PYRTM,2024,121.838839919618,12.948487329757
$GPGGA,200754.00,3253.5748,N,11749.7940,W,1,10,0.8,8.8,M,-34.6,M,,*56
$PYRTM,2024,121.838851486632,12.948498896771
$GPGGA,200755.00,3253.5761,N,11749.7960,W,1,10,0.8,10.0,M,-34.6,M,,*6F
$PYRTM,2024,121.838863291979,12.948510702118
$GPGGA,200756.00,3253.5771,N,11749.7984,W,1,10,0.8,10.6,M,-34.6,M,,*61
$PYRTM,2024,121.838874634606,12.948522044745
$GPGGA,200757.00,3253.5781,N,11749.8007,W,1,10,0.8,10.0,M,-34.6,M,,*64
$PYRTM,2024,121.838886218102,12.948533628241
$GPGGA,200758.00,3253.5791,N,11749.8031,W,1,10,0.8,11.3,M,-34.6,M,,*6D
$PYRTM,2024,121.838896410486,12.948543820625
$GPGGA,200759.00,3253.5801,N,11749.8052,W,1,10,0.8,14.2,M,-34.6,M,,*6B
$PYRTM,2024,121.838908328877,12.948555739016
$GPGGA,200800.00,3253.5812,N,11749.8073,W,1,10,0.8,14.0,M,-34.6,M,,*6B
$PYRTM,2024,121.838920931123,12.948568341262
$GPGGA,200801.00,3253.5822,N,11749.8095,W,1,10,0.8,14.4,M,-34.6,M,,*65
$PYRTM,2024,121.838932513218,12.948579923356
$GPGGA,200802.00,3253.5833,N,11749.8117,W,1,10,0.8,13.9,M,-34.6,M,,*67
$PYRTM,2024,121.838944079213,12.948591489352
$GPGGA,200803.00,3253.5843,N,11749.8139,W,1,10,0.8,12.8,M,-34.6,M,,*6D
$PYRTM,2024,121.838955680428,12.948603090567
$GPGGA,200804.00,3253.5853,N,11749.8161,W,1,10,0.8,13.3,M,-34.6,M,,*6C
$PYRTM,2024,121.838967236794,12.948614646933
$GPGGA,200805.00,3253.5863,N,11749.8183,W,1,10,0.8,12.6,M,-34.6,M,,*66
$PYRTM,2024,121.838978815440,12.948626225579
$GPGGA,200806.00,3253.5875,N,11749.8204,W,1,10,0.8,14.3,M,-34.6,M,,*6D
$PYRTM,2024,121.838990376609,12.948637786748
$GPGGA,200807.00,3253.5889,N,11749.8228,W,1,10,0.8,13.4,M,-34.6,M,,*61
$PYRTM,2024,121.839001962245,12.948649372384
$GPGGA,200808.00,3253.5900,N,11749.8251,W,1,10,0.8,13.3,M,-34.6,M,,*67
$PYRTM,2024,121.839013523924,12.948660934063
$GPGGA,200809.00,3253.5909,N,11749.8273,W,1,10,0.8,12.8,M,-34.6,M,,*65
$PYRTM,2024,121.839025106458,12.948672516597
$GPGGA,200810.00,3253.5918,N,11749.8294,W,1,10,0.8,14.5,M,-34.6,M,,*6F
$PYRTM,2024,121.839036673345,12.948684083484
$GPGGA,200811.00,3253.5929,N,11749.8317,W,1,10,0.8,13.4,M,-34.6,M,,*60
$PYRTM,2024,121.839048260116,12.948695670255
$GPGGA,200812.00,3253.5942,N,11749.8342,W,1,10,0.8,11.9,M,-34.6,M,,*61
$PYRTM,2024,121.839059820069,12.948707230208
$GPGGA,200813.00,3253.5953,N,11749.8366,W,1,10,0.8,10.9,M,-34.6,M,,*67
$PYRTM,2024,121.839071408229,12.948718818380
$GPGGA,200814.00,3253.5961,N,11749.8388,W,1,10,0.8,13.9,M,-34.6,M,,*62
$PYRTM,2024,121.839082972037,12.948730382176
$GPGGA,200815.00,3253.5969,N,11749.8410,W,1,10,0.8,14.2,M,-34.6,M,,*61
$PYRTM,2024,121.839094556181,12.948741966319
$GPGGA,200816.00,3253.5980,N,11749.8433,W,1,10,0.8,15.3,M,-34.6,M,,*64
$PYRTM,2024,121.839106121863,12.948753532002
$GPGGA,200817.00,3253.5991,N,11749.8457,W,1,10,0.8,13.0,M,-34.6,M,,*62
$PYRTM,2024,121.839117707315,12.948765117454
$GPGGA,200818.00,3253.6001,N,11749.8481,W,1,10,0.8,12.4,M,-34.6,M,,*60
$PYRTM,2024,121.839129615822,12.948777025961
$GPGGA,200819.00,3253.6009,N,11749.8504,W,1,10,0.8,13.7,M,-34.6,M,,*67
$PYRTM,2024,121.839140855301,12.948788265440
$GPGGA,200820.00,3253.6020,N,11749.8527,W,1,10,0.8,13.7,M,-34.6,M,,*67
$PYRTM,2024,121.839152413646,12.948799823785
$GPGGA,200821.00,3253.6030,N,11749.8550,W,1,10,0.8,11.3,M,-34.6,M,,*61
$PYRTM,2024,121.839164006250,12.948811416389
$GPGGA,200822.00,3253.6040,N,11749.8572,W,1,10,0.8,13.6,M,-34.6,M,,*62
$PYRTM,2024,121.839175561956,12.948822972095
$GPGGA,200823.00,3253.6050,N,11749.8594,W,1,10,0.8,13.6,M,-34.6,M,,*6A
$PYRTM,2024,121.839187150775,12.948834560914
$GPGGA,200824.00,3253.6061,N,11749.8618,W,1,10,0.8,12.8,M,-34.6,M,,*67
$PYRTM,2024,121.839198713032,12.948846123171
$GPGGA,200825.00,3253.6072,N,11749.8644,W,1,10,0.8,14.2,M,-34.6,M,,*61
$PYRTM,2024,121.839210633079,12.948858043218
$GPGGA,200826.00,3253.6082,N,11749.8667,W,1,10,0.8,15.2,M,-34.6,M,,*6D
$PYRTM,2024,121.839221860313,12.948869270451
$GPGGA,200827.00,3253.6092,N,11749.8687,W,1,10,0.8,14.2,M,-34.6,M,,*62
$PYRTM,2024,121.839233446852,12.948880856991
$GPGGA,200828.00,3253.6103,N,11749.8706,W,1,10,0.8,14.2,M,-34.6,M,,*6C
$PYRTM,2024,121.839243631481,12.948891041632
$GPGGA,200829.00,3253.6115,N,11749.8731,W,1,10,0.8,13.8,M,-34.6,M,,*63
$PYRTM,2024,121.839255557384,12.948902967523
$GPGGA,200830.00,3253.6126,N,11749.8757,W,1,10,0.8,13.2,M,-34.6,M,,*61
$PYRTM,2024,121.839268156331,12.948915566470
$GPGGA,200831.00,3253.6136,N,11749.8778,W,1,10,0.8,11.4,M,-34.6,M,,*68
$PYRTM,2024,121.839279745289,12.948927155428
$GPGGA,200832.00,3253.6146,N,11749.8796,W,1,10,0.8,11.9,M,-34.6,M,,*61
$PYRTM,2024,121.839291304410,12.948938714549
$GPGGA,200833.00,3253.6158,N,11749.8815,W,1,10,0.8,13.5,M,-34.6,M,,*65
$PYRTM,2024,121.839302894016,12.948950304155
$GPGGA,200834.00,3253.6169,N,11749.8841,W,1,10,0.8,12.4,M,-34.6,M,,*61
$PYRTM,2024,121.839314452546,12.948961862697
$GPGGA,200835.00,3253.6178,N,11749.8869,W,1,10,0.8,15.0,M,-34.6,M,,*69
$PYRTM,2024,121.839326034745,12.948973444896
