$PYRTM,2024,123.000007056505,14.109654466644
$GPGGA,235958.00,3352.2514,N,11931.9923,W,1,10,1.0,3.8,M,-33.9,M,,*5E
$PYRTM,2024,123.000018274340,14.109665684479
$GPGGA,235959.00,3352.2520,N,11931.9918,W,1,10,1.0,5.3,M,-33.9,M,,*5D
$PYRTM,2024,123.000029169444,14.109676579583
$GPGGA,000000.00,3352.2526,N,11931.9915,W,1,10,1.0,4.6,M,-33.9,M,,*53
$PYRTM,2024,123.000040164039,14.109687574178
$GPGGA,000001.00,3352.2532,N,11931.9911,W,1,10,1.0,3.6,M,-33.9,M,,*54
$PYRTM,2024,123.000051144525,14.109698554664
$GPGGA,000002.00,3352.2537,N,11931.9907,W,1,10,1.0,2.8,M,-33.9,M,,*5A
$PYRTM,2024,123.000062142106,14.109709552245
$GPGGA,000003.00,3352.2542,N,11931.9902,W,1,10,1.0,6.2,M,-33.9,M,,*52
$PYRTM,2024,123.000073251887,14.109720662037
$GPGGA,000004.00,3352.2549,N,11931.9898,W,1,10,1.0,4.6,M,-33.9,M,,*5A
$PYRTM,2024,123.000084248750,14.109731658889
$GPGGA,000005.00,3352.2555,N,11931.9895,W,1,09,1.0,4.7,M,-33.9,M,,*52
$PYRTM,2024,123.000095255856,14.109742665995
$GPGGA,000006.00,3352.2561,N,11931.9891,W,1,10,1.0,2.9,M,-33.9,M,,*52
$PYRTM,2024,123.000106251840,14.109753661979
$GPGGA,000007.00,3352.2567,N,11931.9885,W,1,09,1.0,5.6,M,-33.9,M,,*50
$PYRTM,2024,123.000117698553,14.109765108692
$GPGGA,000008.00,3352.2572,N,11931.9880,W,1,10,1.0,6.6,M,-33.9,M,,*55
$PYRTM,2024,123.000128693194,14.109776103333
$GPGGA,000009.00,3352.2578,N,11931.9876,W,1,10,1.0,6.4,M,-33.9,M,,*55
$PYRTM,2024,123.000139803368,14.109787213519
$GPGGA,000010.00,3352.2585,N,11931.9872,W,1,10,1.0,5.8,M,-33.9,M,,*54
$PYRTM,2024,123.000150807778,14.109798217917
$GPGGA,000011.00,3352.2592,N,11931.9866,W,1,10,1.0,7.2,M,-33.9,M,,*5E
$PYRTM,2024,123.000161807951,14.109809218090
$GPGGA,000012.00,3352.2597,N,11931.9859,W,1,10,1.0,7.8,M,-33.9,M,,*5E
$PYRTM,2024,123.000172789722,14.109820199861
$GPGGA,000013.00,3352.2603,N,11931.9852,W,1,10,1.0,9.4,M,-33.9,M,,*58
$PYRTM,2024,123.000183802014,14.109831212164
$GPGGA,000014.00,3352.2609,N,11931.9849,W,1,10,1.0,8.6,M,-33.9,M,,*5C
$PYRTM,2024,123.000194896852,14.109842306991
$GPGGA,000015.00,3352.2614,N,11931.9846,W,1,09,1.0,6.4,M,-33.9,M,,*5A
$PYRTM,2024,123.000205892836,14.109853302975
$GPGGA,000016.00,3352.2620,N,11931.9840,W,1,09,1.0,4.8,M,-33.9,M,,*56
$PYRTM,2024,123.000217119259,14.109864529398
$GPGGA,000017.00,3352.2625,N,11931.9834,W,1,10,1.0,5.1,M,-33.9,M,,*51
$PYRTM,2024,123.000228359306,14.109875769444
$GPGGA,000018.00,3352.2630,N,11931.9830,W,1,10,1.0,6.1,M,-33.9,M,,*5D
$PYRTM,2024,123.000239920729,14.109887330868
$GPGGA,000019.00,3352.2636,N,11931.9829,W,1,10,1.0,6.9,M,-33.9,M,,*5A
$PYRTM,2024,123.000251501910,14.109898912060
$GPGGA,000020.00,3352.2643,N,11931.9829,W,1,10,1.0,5.4,M,-33.9,M,,*5C
$PYRTM,2024,123.000263068762,14.109910478912
$GPGGA,000021.00,3352.2650,N,11931.9824,W,1,10,1.0,5.2,M,-33.9,M,,*54
$PYRTM,2024,123.000274650266,14.109922060405
$GPGGA,000022.00,3352.2655,N,11931.9817,W,1,09,1.0,6.4,M,-33.9,M,,*5F
$PYRTM,2024,123.000286216539,14.109933626678
$GPGGA,000023.00,3352.2661,N,11931.9812,W,1,10,1.0,6.0,M,-33.9,M,,*50
$PYRTM,2024,123.000297805984,14.109945216123
$GPGGA,000024.00,3352.2667,N,11931.9811,W,1,10,1.0,7.0,M,-33.9,M,,*53
$PYRTM,2024,123.000309365266,14.109956775405
$GPGGA,000025.00,3352.2675,N,11931.9810,W,1,10,1.0,4.2,M,-33.9,M,,*51
$PYRTM,2024,123.000320141562,14.109967551701
$GPGGA,000026.00,3352.2682,N,11931.9805,W,1,10,1.0,4.9,M,-33.9,M,,*55
$PYRTM,2024,123.000331484120,14.109978894259
$GPGGA,000027.00,3352.2689,N,11931.9797,W,1,10,1.0,5.5,M,-33.9,M,,*56
$PYRTM,2024,123.000344113912,14.109991524051
$GPGGA,000028.00,3352.2694,N,11931.9789,W,1,10,1.0,6.8,M,-33.9,M,,*54
$PYRTM,2024,123.000355662176,14.110003072315
$GPGGA,000029.00,3352.2701,N,11931.9785,W,1,10,1.0,6.3,M,-33.9,M,,*5F
$PYRTM,2024,123.000367252025,14.110014662176
$GPGGA,000030.00,3352.2708,N,11931.9783,W,1,10,1.0,5.2,M,-33.9,M,,*5A
$PYRTM,2024,123.000378809248,14.110026219387
$GPGGA,000031.00,3352.2715,N,11931.9779,W,1,10,1.0,3.3,M,-33.9,M,,*55
$PYRTM,2024,123.000390397801,14.110037807940
$GPGGA,000032.00,3352.2720,N,11931.9772,W,1,10,1.0,6.1,M,-33.9,M,,*5C
$PYRTM,2024,123.000401958183,14.110049368322
$GPGGA,000033.00,3352.2724,N,11931.9765,W,1,09,1.0,6.3,M,-33.9,M,,*55
$PYRTM,2024,123.000413544815,14.110060954954
$GPGGA,000034.00,3352.2730,N,11931.9760,W,1,09,1.0,8.0,M,-33.9,M,,*5F
$PYRTM,2024,123.000425106308,14.110072516447
$GPGGA,000035.00,3352.2737,N,11931.9758,W,1,10,1.0,8.1,M,-33.9,M,,*5B
$PYRTM,2024,123.000436693657,14.110084103796
$GPGGA,000036.00,3352.2743,N,11931.9755,W,1,10,1.0,4.4,M,-33.9,M,,*5F
$PYRTM,2024,123.000448254583,14.110095664734
$GPGGA,000037.00,3352.2748,N,11931.9750,W,1,10,1.0,5.6,M,-33.9,M,,*53
$PYRTM,2024,123.000459836204,14.110107246343
$GPGGA,000038.00,3352.2753,N,11931.9743,W,1,10,1.0,6.8,M,-33.9,M,,*59
$PYRTM,2024,123.000471402581,14.110118812731
$GPGGA,000039.00,3352.2758,N,11931.9737,W,1,10,1.0,6.5,M,-33.9,M,,*5D
$PYRTM,2024,123.000482990509,14.110130400648
$GPGGA,000040.00,3352.2764,N,11931.9733,W,1,10,1.0,6.0,M,-33.9,M,,*5D
$PYRTM,2024,123.000494550752,14.110141960891
$GPGGA,000041.00,3352.2771,N,11931.9731,W,1,10,1.0,7.5,M,-33.9,M,,*5E
$PYRTM,2024,123.000506152269,14.110153562407
$GPGGA,000042.00,3352.2778,N,11931.9726,W,1,10,1.0,4.3,M,-33.9,M,,*57
$PYRTM,2024,123.000517700255,14.110165110394
$GPGGA,000043.00,3352.2784,N,11931.9719,W,1,10,1.0,6.2,M,-33.9,M,,*5A
$PYRTM,2024,123.000529299653,14.110176709792
$GPGGA,000044.00,3352.2791,N,11931.9714,W,1,10,1.0,7.3,M,-33.9,M,,*54
$PYRTM,2024,123.000540846748,14.110188256887
$GPGGA,000045.00,3352.2798,N,11931.9708,W,1,10,1.0,10.3,M,-33.9,M,,*67
$PYRTM,2024,123.000552437176,14.110199847315
$GPGGA,000046.00,3352.2806,N,11931.9704,W,1,09,1.0,9.6,M,-33.9,M,,*55
$PYRTM,2024,123.000563994144,14.110211404282
$GPGGA,000047.00,3352.2813,N,11931.9700,W,1,10,1.0,10.5,M,-33.9,M,,*67
$PYRTM,2024,123.000575583137,14.110222993275
$GPGGA,000048.00,3352.2820,N,11931.9694,W,1,10,1.0,8.8,M,-33.9,M,,*50
$PYRTM,2024,123.000587142234,14.110234552373
$GPGGA,000049.00,3352.2825,N,11931.9687,W,1,10,1.0,10.7,M,-33.9,M,,*60
$PYRTM,2024,123.000598726400,14.110246136539
$GPGGA,000050.00,3352.2830,N,11931.9680,W,1,10,1.0,10.3,M,-33.9,M,,*6F
$PYRTM,2024,123.000610291285,14.110257701424
$GPGGA,000051.00,3352.2836,N,11931.9675,W,1,10,1.0,12.0,M,-33.9,M,,*63
$PYRTM,2024,123.000621878588,14.110269288715
$GPGGA,000052.00,3352.2842,N,11931.9673,W,1,10,1.0,9.9,M,-33.9,M,,*56
$PYRTM,2024,123.000633440602,14.110280850741
$GPGGA,000053.00,3352.2848,N,11931.9669,W,1,10,1.0,7.6,M,-33.9,M,,*57
$PYRTM,2024,123.000645022627,14.110292432766
$GPGGA,000054.00,3352.2851,N,11931.9661,W,1,10,1.0,9.1,M,-33.9,M,,*59
$PYRTM,2024,123.000656588634,14.110303998773
$GPGGA,000055.00,3352.2855,N,11931.9653,W,1,10,1.0,9.3,M,-33.9,M,,*5F
$PYRTM,2024,123.000666887755,14.110314297882
$GPGGA,000056.00,3352.2861,N,11931.9646,W,1,10,1.0,8.6,M,-33.9,M,,*5B
$PYRTM,2024,123.000678706481,14.110326116620
$GPGGA,000057.00,3352.2868,N,11931.9642,W,1,10,1.0,7.8,M,-33.9,M,,*56
$PYRTM,2024,123.000691326458,14.110338736609
$GPGGA,000058.00,3352.2874,N,11931.9639,W,1,10,1.0,7.8,M,-33.9,M,,*58
$PYRTM,2024,123.000702884572,14.110350294711
$GPGGA,000059.00,3352.2878,N,11931.9632,W,1,10,1.0,10.0,M,-33.9,M,,*60
$PYRTM,2024,123.000714468056,14.110361878194
$GPGGA,000100.00,3352.2882,N,11931.9625,W,1,10,1.0,8.9,M,-33.9,M,,*5E
$PYRTM,2024,123.000726032662,14.110373442801
$GPGGA,000101.00,3352.2887,N,11931.9620,W,1,10,1.0,10.5,M,-33.9,M,,*6A
$PYRTM,2024,123.000737620093,14.110385030231
$GPGGA,000102.00,3352.2894,N,11931.9616,W,1,09,1.0,8.7,M,-33.9,M,,*5D
$PYRTM,2024,123.000749180660,14.110396590799
$GPGGA,000103.00,3352.2900,N,11931.9611,W,1,09,1.0,10.0,M,-33.9,M,,*69
$PYRTM,2024,123.000760763137,14.110408173275
$GPGGA,000104.00,3352.2905,N,11931.9605,W,1,09,1.0,10.1,M,-33.9,M,,*6F
$PYRTM,2024,123.000772328565,14.110419738704
$GPGGA,000105.00,3352.2908,N,11931.9596,W,1,09,1.0,8.7,M,-33.9,M,,*55
$PYRTM,2024,123.000783916134,14.110431326285
$GPGGA,000106.00,3352.2912,N,11931.9590,W,1,09,1.0,8.6,M,-33.9,M,,*5A
$PYRTM,2024,123.000795477500,14.110442887639
$GPGGA,000107.00,3352.2915,N,11931.9585,W,1,09,1.0,9.0,M,-33.9,M,,*5F
$PYRTM,2024,123.000807068345,14.110454478484
$GPGGA,000108.00,3352.2920,N,11931.9582,W,1,09,1.0,8.3,M,-33.9,M,,*53
$PYRTM,2024,123.000818625984,14.110466036123
$GPGGA,000109.00,3352.2924,N,11931.9576,W,1,09,1.0,8.2,M,-33.9,M,,*5C
$PYRTM,2024,123.000830212326,14.110477622465
$GPGGA,000110.00,3352.2927,N,11931.9568,W,1,09,1.0,9.5,M,-33.9,M,,*5E
$PYRTM,2024,123.000841774641,14.110489184780
$GPGGA,000111.00,3352.2929,N,11931.9560,W,1,09,1.0,12.2,M,-33.9,M,,*64
$PYRTM,2024,123.000853364549,14.110500774687
$GPGGA,000112.00,3352.2934,N,11931.9554,W,1,09,1.0,11.1,M,-33.9,M,,*6C
$PYRTM,2024,123.000864921528,14.110512331667
$GPGGA,000113.00,3352.2940,N,11931.9550,W,1,09,1.0,11.5,M,-33.9,M,,*6E
$PYRTM,2024,123.000876511644,14.110523921782
$GPGGA,000114.00,3352.2946,N,11931.9546,W,1,09,1.0,9.2,M,-33.9,M,,*56
$PYRTM,2024,123.000888083553,14.110535493692
$GPGGA,000115.00,3352.2951,N,11931.9541,W,1,09,1.0,8.2,M,-33.9,M,,*57
$PYRTM,2024,123.000899652685,14.110547062824
$GPGGA,000116.00,3352.2954,N,11931.9534,W,1,09,1.0,9.7,M,-33.9,M,,*57
$PYRTM,2024,123.000911231481,14.110558641620
$GPGGA,000117.00,3352.2959,N,11931.9528,W,1,09,1.0,8.7,M,-33.9,M,,*57
$PYRTM,2024,123.000922805833,14.110570215972
$GPGGA,000118.00,3352.2964,N,11931.9524,W,1,09,1.0,8.6,M,-33.9,M,,*5B
$PYRTM,2024,123.000933453715,14.110580863854
$GPGGA,000119.00,3352.2968,N,11931.9521,W,1,09,1.0,8.4,M,-33.9,M,,*51
$PYRTM,2024,123.000945374826,14.110592784965
$GPGGA,000120.00,3352.2973,N,11931.9516,W,1,09,1.0,6.3,M,-33.9,M,,*5C
$PYRTM,2024,123.000956010023,14.110603420162
$GPGGA,000121.00,3352.2976,N,11931.9508,W,1,09,1.0,3.8,M,-33.9,M,,*59
$PYRTM,2024,123.000967007870,14.110614418009
$GPGGA,000122.00,3352.2980,N,11931.9501,W,1,09,1.0,4.0,M,-33.9,M,,*55
$PYRTM,2024,123.000978000787,14.110625410937
$GPGGA,000123.00,3352.2984,N,11931.9494,W,1,09,1.0,3.9,M,-33.9,M,,*53
$PYRTM,2024,123.000989113414,14.110636523553
$GPGGA,000124.00,3352.2989,N,11931.9490,W,1,09,1.0,4.0,M,-33.9,M,,*53
$PYRTM,2024,123.001000119861,14.110647530000
$GPGGA,000125.00,3352.2994,N,11931.9486,W,1,09,1.0,7.6,M,-33.9,M,,*5C
$PYRTM,2024,123.001026967373,14.110674377523
$GPGGA,000126.00,3352.2998,N,11931.9479,W,1,09,1.0,5.6,M,-33.9,M,,*51
$PYRTM,2024,123.001037962257,14.110685372396
$GPGGA,000127.00,3352.3001,N,11931.9473,W,1,09,1.0,5.7,M,-33.9,M,,*53
$PYRTM,2024,123.001049079225,14.110696489363
$GPGGA,000128.00,3352.3005,N,11931.9467,W,1,09,1.0,5.8,M,-33.9,M,,*52
$PYRTM,2024,123.001060069861,14.110707480000
$GPGGA,000129.00,3352.3010,N,11931.9463,W,1,09,1.0,7.2,M,-33.9,M,,*5B
$PYRTM,2024,123.001071073241,14.110718483380
$GPGGA,000130.00,3352.3016,N,11931.9458,W,1,09,1.0,7.3,M,-33.9,M,,*5C
$PYRTM,2024,123.001082065139,14.110729475278
$GPGGA,000131.00,3352.3019,N,11931.9452,W,1,09,1.0,7.1,M,-33.9,M,,*5A
$PYRTM,2024,123.001093046725,14.110740456863
$GPGGA,000132.00,3352.3022,N,11931.9444,W,1,09,1.0,9.3,M,-33.9,M,,*5A
$PYRTM,2024,123.001104157708,14.110751567859
$GPGGA,000133.00,3352.3025,N,11931.9436,W,1,09,1.0,8.1,M,-33.9,M,,*5A
$PYRTM,2024,123.001115154977,14.110762565116
$GPGGA,000134.00,3352.3028,N,11931.9431,W,1,09,1.0,8.2,M,-33.9,M,,*54
$PYRTM,2024,123.001126148993,14.110773559132
$GPGGA,000135.00,3352.3033,N,11931.9427,W,1,09,1.0,6.8,M,-33.9,M,,*5C
$PYRTM,2024,123.001137156736,14.110784566875
$GPGGA,000136.00,3352.3036,N,11931.9422,W,1,09,1.0,6.6,M,-33.9,M,,*51
$PYRTM,2024,123.001148270556,14.110795680694
$GPGGA,000137.00,3352.3039,N,11931.9415,W,1,09,1.0,11.4,M,-33.9,M,,*6F
$PYRTM,2024,123.001159714051,14.110807124190
$GPGGA,000138.00,3352.3040,N,11931.9408,W,1,09,1.0,9.2,M,-33.9,M,,*5D
$PYRTM,2024,123.001170709826,14.110818119977
$GPGGA,000139.00,3352.3043,N,11931.9403,W,1,09,1.0,9.2,M,-33.9,M,,*54
$PYRTM,2024,123.001181705613,14.110829115752
$GPGGA,000140.00,3352.3046,N,11931.9398,W,1,09,1.0,8.6,M,-33.9,M,,*5F
$PYRTM,2024,123.001192713843,14.110840123981
$GPGGA,000141.00,3352.3049,N,11931.9394,W,1,09,1.0,8.3,M,-33.9,M,,*58
$PYRTM,2024,123.001203825069,14.110851235208
$GPGGA,000142.00,3352.3051,N,11931.9388,W,1,09,1.0,8.2,M,-33.9,M,,*5E
$PYRTM,2024,123.001214806505,14.110862216644
$GPGGA,000143.00,3352.3052,N,11931.9382,W,1,09,1.0,8.1,M,-33.9,M,,*55
$PYRTM,2024,123.001225816076,14.110873226215
$GPGGA,000144.00,3352.3053,N,11931.9375,W,1,09,1.0,6.5,M,-33.9,M,,*51
$PYRTM,2024,123.001236799630,14.110884209769
$GPGGA,000145.00,3352.3055,N,11931.9371,W,1,09,1.0,8.1,M,-33.9,M,,*58
$PYRTM,2024,123.001247909977,14.110895320116
$GPGGA,000146.00,3352.3058,N,11931.9367,W,1,09,1.0,9.8,M,-33.9,M,,*59
$PYRTM,2024,123.001258920671,14.110906330810
$GPGGA,000147.00,3352.3061,N,11931.9362,W,1,09,1.0,9.5,M,-33.9,M,,*5A
$PYRTM,2024,123.001270029167,14.110917439306
$GPGGA,000148.00,3352.3062,N,11931.9356,W,1,09,1.0,7.1,M,-33.9,M,,*5B
$PYRTM,2024,123.001281603009,14.110929013148
$GPGGA,000149.00,3352.3063,N,11931.9350,W,1,09,1.0,8.1,M,-33.9,M,,*52
$PYRTM,2024,123.001293172072,14.110940582211
$GPGGA,000150.00,3352.3064,N,11931.9343,W,1,09,1.0,9.8,M,-33.9,M,,*57
$PYRTM,2024,123.001304752917,14.110952163067
$GPGGA,000151.00,3352.3067,N,11931.9337,W,1,09,1.0,9.2,M,-33.9,M,,*5C
$PYRTM,2024,123.001316339688,14.110963749838
$GPGGA,000152.00,3352.3071,N,11931.9332,W,1,09,1.0,7.7,M,-33.9,M,,*56
$PYRTM,2024,123.001327899907,14.110975310046
$GPGGA,000153.00,3352.3073,N,11931.9327,W,1,09,1.0,7.7,M,-33.9,M,,*51
$PYRTM,2024,123.001339476794,14.110986886933
$GPGGA,000154.00,3352.3074,N,11931.9320,W,1,09,1.0,7.0,M,-33.9,M,,*51
$PYRTM,2024,123.001351047824,14.110998457963
$GPGGA,000155.00,3352.3075,N,11931.9314,W,1,09,1.0,7.1,M,-33.9,M,,*57
$PYRTM,2024,123.001361336400,14.111008746539
$GPGGA,000156.00,3352.3077,N,11931.9307,W,1,09,1.0,6.9,M,-33.9,M,,*5D
$PYRTM,2024,123.001373154421,14.111020564560
$GPGGA,000157.00,3352.3079,N,11931.9302,W,1,09,1.0,6.0,M,-33.9,M,,*5E
$PYRTM,2024,123.001385770903,14.111033181042
$GPGGA,000158.00,3352.3082,N,11931.9297,W,1,09,1.0,6.6,M,-33.9,M,,*5E
$PYRTM,2024,123.001397344769,14.111044754907
$GPGGA,000159.00,3352.3084,N,11931.9292,W,1,09,1.0,6.7,M,-33.9,M,,*5D
$PYRTM,2024,123.001408918403,14.111056328542
$GPGGA,000200.00,3352.3086,N,11931.9287,W,1,09,1.0,6.8,M,-33.9,M,,*5B
$PYRTM,2024,123.001420492778,14.111067902917
$GPGGA,000201.00,3352.3087,N,11931.9281,W,1,09,1.0,6.5,M,-33.9,M,,*50
$PYRTM,2024,123.001432067269,14.111079477407
$GPGGA,000202.00,3352.3089,N,11931.9274,W,1,09,1.0,13.2,M,-33.9,M,,*64
$PYRTM,2024,123.001443641447,14.111091051586
$GPGGA,000203.00,3352.3091,N,11931.9267,W,1,09,1.0,13.4,M,-33.9,M,,*68
$PYRTM,2024,123.001455331424,14.111102741562
$GPGGA,000204.00,3352.3094,N,11931.9262,W,1,09,1.0,13.1,M,-33.9,M,,*6A
$PYRTM,2024,123.001466891644,14.111114301794
$GPGGA,000205.00,3352.3095,N,11931.9256,W,1,09,1.0,12.4,M,-33.9,M,,*69
$PYRTM,2024,123.001478364479,14.111125774618
$GPGGA,000206.00,3352.3097,N,11931.9250,W,1,09,1.0,8.0,M,-33.9,M,,*51
$PYRTM,2024,123.001489938808,14.111137348947
$GPGGA,000207.00,3352.3097,N,11931.9243,W,1,09,1.0,8.6,M,-33.9,M,,*54
$PYRTM,2024,123.001501514907,14.111148925046
$GPGGA,000208.00,3352.3098,N,11931.9237,W,1,09,1.0,8.6,M,-33.9,M,,*57
$PYRTM,2024,123.001513086956,14.111160497095
$GPGGA,000209.00,3352.3101,N,11931.9232,W,1,09,1.0,8.7,M,-33.9,M,,*53
$PYRTM,2024,123.001524674792,14.111172084931
$GPGGA,000210.00,3352.3104,N,11931.9228,W,1,09,1.0,9.3,M,-33.9,M,,*50
$PYRTM,2024,123.001536232870,14.111183643009
$GPGGA,000211.00,3352.3105,N,11931.9223,W,1,09,1.0,11.1,M,-33.9,M,,*60
$PYRTM,2024,123.001547808183,14.111195218322
$GPGGA,000212.00,3352.3106,N,11931.9217,W,1,09,1.0,11.4,M,-33.9,M,,*62
$PYRTM,2024,123.001559377535,14.111206787674
$GPGGA,000213.00,3352.3107,N,11931.9212,W,1,09,1.0,11.1,M,-33.9,M,,*62
$PYRTM,2024,123.001571073947,14.111218484086
$GPGGA,000214.00,3352.3109,N,11931.9206,W,1,09,1.0,10.9,M,-33.9,M,,*67
$PYRTM,2024,123.001582633449,14.111230043588
$GPGGA,000215.00,3352.3111,N,11931.9201,W,1,09,1.0,10.6,M,-33.9,M,,*67
$PYRTM,2024,123.001594219838,14.111241629977
$GPGGA,000216.00,3352.3113,N,11931.9196,W,1,09,1.0,10.3,M,-33.9,M,,*6E
$PYRTM,2024,123.001605677824,14.111253087963
$GPGGA,000217.00,3352.3115,N,11931.9192,W,1,09,1.0,9.9,M,-33.9,M,,*5F
$PYRTM,2024,123.001617253252,14.111264663403
$GPGGA,000218.00,3352.3117,N,11931.9187,W,1,09,1.0,9.2,M,-33.9,M,,*5D
$PYRTM,2024,123.001628827095,14.111276237234
$GPGGA,000219.00,3352.3119,N,11931.9182,W,1,09,1.0,8.5,M,-33.9,M,,*51
$PYRTM,2024,123.001640400648,14.111287810787
$GPGGA,000220.00,3352.3120,N,11931.9176,W,1,09,1.0,8.5,M,-33.9,M,,*5A
$PYRTM,2024,123.001651974410,14.111299384549
$GPGGA,000221.00,3352.3124,N,11931.9172,W,1,09,1.0,11.2,M,-33.9,M,,*64
$PYRTM,2024,123.001663668113,14.111311078252
$GPGGA,000222.00,3352.3127,N,11931.9167,W,1,09,1.0,11.1,M,-33.9,M,,*63
$PYRTM,2024,123.001675225683,14.111322635822
$GPGGA,000223.00,3352.3129,N,11931.9161,W,1,09,1.0,10.8,M,-33.9,M,,*62
$PYRTM,2024,123.001686815729,14.111334225868
$GPGGA,000224.00,3352.3129,N,11931.9155,W,1,09,1.0,11.0,M,-33.9,M,,*6B
$PYRTM,2024,123.001698374850,14.111345784988
$GPGGA,000225.00,3352.3130,N,11931.9149,W,1,09,1.0,11.5,M,-33.9,M,,*6A
$PYRTM,2024,123.001708560220,14.111355970359
$GPGGA,000226.00,3352.3133,N,11931.9144,W,1,09,1.0,11.6,M,-33.9,M,,*64
$PYRTM,2024,123.001720493785,14.111367903935
$GPGGA,000227.00,3352.3136,N,11931.9140,W,1,09,1.0,11.1,M,-33.9,M,,*63
$PYRTM,2024,123.001733104329,14.111380514468
$GPGGA,000228.00,3352.3137,N,11931.9134,W,1,09,1.0,12.3,M,-33.9,M,,*6F
$PYRTM,2024,123.001744671088,14.111392081227
$GPGGA,000229.00,3352.3137,N,11931.9127,W,1,09,1.0,12.2,M,-33.9,M,,*6D
$PYRTM,2024,123.001756258333,14.111403668472
$GPGGA,000230.00,3352.3137,N,11931.9121,W,1,09,1.0,11.9,M,-33.9,M,,*6B
$PYRTM,2024,123.001767819745,14.111415229884
$GPGGA,000231.00,3352.3139,N,11931.9115,W,1,09,1.0,12.3,M,-33.9,M,,*6A
$PYRTM,2024,123.001779405602,14.111426815752
$GPGGA,000232.00,3352.3141,N,11931.9110,W,1,09,1.0,12.0,M,-33.9,M,,*60
$PYRTM,2024,123.001790967616,14.111438377755
$GPGGA,000233.00,3352.3143,N,11931.9104,W,1,09,1.0,12.0,M,-33.9,M,,*66
$PYRTM,2024,123.001802555567,14.111449965706
$GPGGA,000234.00,3352.3144,N,11931.9099,W,1,09,1.0,11.4,M,-33.9,M,,*64
$PYRTM,2024,123.001814115926,14.111461526065
$GPGGA,000235.00,3352.3145,N,11931.9093,W,1,09,1.0,12.0,M,-33.9,M,,*69
$PYRTM,2024,123.001825716644,14.111473126782
$GPGGA,000236.00,3352.3146,N,11931.9086,W,1,09,1.0,12.3,M,-33.9,M,,*6E
$PYRTM,2024,123.001837263368,14.111484673507
$GPGGA,000237.00,3352.3148,N,11931.9081,W,1,09,1.0,11.7,M,-33.9,M,,*61
$PYRTM,2024,123.001848866979,14.111496277118
$GPGGA,000238.00,3352.3151,N,11931.9075,W,1,09,1.0,12.1,M,-33.9,M,,*68
$PYRTM,2024,123.001860412847,14.111507822986
$GPGGA,000239.00,3352.3153,N,11931.9070,W,1,08,1.0,11.7,M,-33.9,M,,*6A
$PYRTM,2024,123.001871998762,14.111519408900
$GPGGA,000240.00,3352.3154,N,11931.9064,W,1,09,1.0,11.0,M,-33.9,M,,*60
$PYRTM,2024,123.001883561447,14.111530971574
$GPGGA,000241.00,3352.3155,N,11931.9057,W,1,09,1.0,11.3,M,-33.9,M,,*63
$PYRTM,2024,123.001895142998,14.111542553137
$GPGGA,000242.00,3352.3156,N,11931.9052,W,1,09,1.0,10.9,M,-33.9,M,,*6D
$PYRTM,2024,123.001906708148,14.111554118287
$GPGGA,000243.00,3352.3158,N,11931.9047,W,1,09,1.0,10.3,M,-33.9,M,,*6C
$PYRTM,2024,123.001918290127,14.111565700278
$GPGGA,000244.00,3352.3160,N,11931.9042,W,1,09,1.0,10.9,M,-33.9,M,,*6F
$PYRTM,2024,123.001929857060,14.111577267199
$GPGGA,000245.00,3352.3162,N,11931.9036,W,1,09,1.0,10.3,M,-33.9,M,,*65
$PYRTM,2024,123.001941322836,14.111588732975
$GPGGA,000246.00,3352.3163,N,11931.9031,W,1,09,1.0,9.3,M,-33.9,M,,*58
$PYRTM,2024,123.001952897674,14.111600307813
$GPGGA,000247.00,3352.3164,N,11931.9026,W,1,09,1.0,8.6,M,-33.9,M,,*5C
$PYRTM,2024,123.001964479780,14.111611889919
$GPGGA,000248.00,3352.3166,N,11931.9023,W,1,09,1.0,8.3,M,-33.9,M,,*51
$PYRTM,2024,123.001976050127,14.111623460266
$GPGGA,000249.00,3352.3167,N,11931.9018,W,1,09,1.0,7.7,M,-33.9,M,,*52
$PYRTM,2024,123.001987626759,14.111635036898
$GPGGA,000250.00,3352.3167,N,11931.9013,W,1,09,1.0,7.6,M,-33.9,M,,*50
$PYRTM,2024,123.001999199190,14.111646609329
$GPGGA,000251.00,3352.3169,N,11931.9007,W,1,09,1.0,7.6,M,-33.9,M,,*5A
$PYRTM,2024,123.002010775243,14.111658185382
$GPGGA,000252.00,3352.3171,N,11931.9001,W,1,09,1.0,5.4,M,-33.9,M,,*56
$PYRTM,2024,123.002022347963,14.111669758113
$GPGGA,000253.00,3352.3175,N,11931.8996,W,1,09,1.0,6.4,M,-33.9,M,,*56
$PYRTM,2024,123.002033921076,14.111681331215
$GPGGA,000254.00,3352.3178,N,11931.8989,W,1,09,1.0,8.1,M,-33.9,M,,*59
$PYRTM,2024,123.002045494919,14.111692905058
$GPGGA,000255.00,3352.3180,N,11931.8982,W,1,09,1.0,8.2,M,-33.9,M,,*57
$PYRTM,2024,123.002056259236,14.111703669375
$GPGGA,000256.00,3352.3182,N,11931.8975,W,1,09,1.0,6.8,M,-33.9,M,,*5A
$PYRTM,2024,123.002067602766,14.111715012905
$GPGGA,000257.00,3352.3185,N,11931.8968,W,1,09,1.0,12.3,M,-33.9,M,,*6E
$PYRTM,2024,123.002080217222,14.111727627361
$GPGGA,000258.00,3352.3188,N,11931.8963,W,1,09,1.0,11.8,M,-33.9,M,,*6F
$PYRTM,2024,123.002091791667,14.111739201806
$GPGGA,000259.00,3352.3191,N,11931.8960,W,1,09,1.0,12.0,M,-33.9,M,,*6E
$PYRTM,2024,123.002103481956,14.111750892095
$GPGGA,000300.00,3352.3192,N,11931.8956,W,1,09,1.0,11.9,M,-33.9,M,,*6F
$PYRTM,2024,123.002114939329,14.111762349468
$GPGGA,000301.00,3352.3192,N,11931.8949,W,1,09,1.0,12.6,M,-33.9,M,,*6C
$PYRTM,2024,123.002126628657,14.111774038796
$GPGGA,000302.00,3352.3192,N,11931.8942,W,1,09,1.0,12.2,M,-33.9,M,,*60
$PYRTM,2024,123.002138192315,14.111785602454
$GPGGA,000303.00,3352.3194,N,11931.8937,W,1,09,1.0,11.7,M,-33.9,M,,*63
$PYRTM,2024,123.002149779317,14.111797189456
$GPGGA,000304.00,3352.3196,N,11931.8932,W,1,09,1.0,11.9,M,-33.9,M,,*6D
$PYRTM,2024,123.002161338704,14.111808748843
$GPGGA,000305.00,3352.3198,N,11931.8927,W,1,09,1.0,12.7,M,-33.9,M,,*6B
$PYRTM,2024,123.002172812674,14.111820222813
$GPGGA,000306.00,3352.3200,N,11931.8921,W,1,09,1.0,9.0,M,-33.9,M,,*51
$PYRTM,2024,123.002184384479,14.111831794618
$GPGGA,000307.00,3352.3201,N,11931.8915,W,1,09,1.0,8.7,M,-33.9,M,,*50
$PYRTM,2024,123.002195953275,14.111843363414
$GPGGA,000308.00,3352.3204,N,11931.8911,W,1,09,1.0,8.7,M,-33.9,M,,*5E
$PYRTM,2024,123.002207531424,14.111854941563
$GPGGA,000309.00,3352.3207,N,11931.8908,W,1,09,1.0,8.4,M,-33.9,M,,*57
$PYRTM,2024,123.002219111539,14.111866521678
$GPGGA,000310.00,3352.3211,N,11931.8902,W,1,09,1.0,5.3,M,-33.9,M,,*58
$PYRTM,2024,123.002230681470,14.111878091609
$GPGGA,000311.00,3352.3214,N,11931.8896,W,1,09,1.0,7.8,M,-33.9,M,,*59
$PYRTM,2024,123.002242250498,14.111889660637
$GPGGA,000312.00,3352.3215,N,11931.8889,W,1,09,1.0,7.5,M,-33.9,M,,*58
$PYRTM,2024,123.002253823889,14.111901234028
$GPGGA,000313.00,3352.3217,N,11931.8884,W,1,09,1.0,8.0,M,-33.9,M,,*5C
$PYRTM,2024,123.002265402419,14.111912812558
$GPGGA,000314.00,3352.3220,N,11931.8879,W,1,09,1.0,7.7,M,-33.9,M,,*55
$PYRTM,2024,123.002276976134,14.111924386262
$GPGGA,000315.00,3352.3223,N,11931.8873,W,1,09,1.0,8.1,M,-33.9,M,,*54
$PYRTM,2024,123.002288536192,14.111935946331
$GPGGA,000316.00,3352.3224,N,11931.8866,W,1,09,1.0,5.7,M,-33.9,M,,*5F
$PYRTM,2024,123.002300125544,14.111947535694
$GPGGA,000317.00,3352.3226,N,11931.8859,W,1,09,1.0,5.9,M,-33.9,M,,*5E
$PYRTM,2024,123.002311685914,14.111959096065
$GPGGA,000318.00,3352.3227,N,11931.8854,W,1,09,1.0,6.1,M,-33.9,M,,*56
$PYRTM,2024,123.002323273403,14.111970683542
$GPGGA,000319.00,3352.3230,N,11931.8850,W,1,09,1.0,5.9,M,-33.9,M,,*5E
$PYRTM,2024,123.002334833542,14.111982243681
$GPGGA,000320.00,3352.3233,N,11931.8846,W,1,09,1.0,5.5,M,-33.9,M,,*5C
$PYRTM,2024,123.002346422407,14.111993832546
$GPGGA,000321.00,3352.3236,N,11931.8841,W,1,09,1.0,7.1,M,-33.9,M,,*59
$PYRTM,2024,123.002357982049,14.112005392187
$GPGGA,000322.00,3352.3238,N,11931.8835,W,1,09,1.0,6.8,M,-33.9,M,,*5F
$PYRTM,2024,123.002369570891,14.112016981030
$GPGGA,000323.00,3352.3239,N,11931.8829,W,1,09,1.0,7.0,M,-33.9,M,,*5B
$PYRTM,2024,123.002380204282,14.112027614421
$GPGGA,000324.00,3352.3242,N,11931.8824,W,1,09,1.0,6.7,M,-33.9,M,,*5B
$PYRTM,2024,123.002392126146,14.112039536285
$GPGGA,000325.00,3352.3246,N,11931.8820,W,1,09,1.0,6.6,M,-33.9,M,,*5B
$PYRTM,2024,123.002403940093,14.112051350231
$GPGGA,000326.00,3352.3248,N,11931.8816,W,1,09,1.0,6.5,M,-33.9,M,,*50
$PYRTM,2024,123.002414944236,14.112062354375
$GPGGA,000327.00,3352.3249,N,11931.8810,W,1,09,1.0,6.1,M,-33.9,M,,*52
$PYRTM,2024,123.002426047685,14.112073457824
$GPGGA,000328.00,3352.3249,N,11931.8804,W,1,09,1.0,6.1,M,-33.9,M,,*58
$PYRTM,2024,123.002437047211,14.112084457350
$GPGGA,000329.00,3352.3251,N,11931.8798,W,1,09,1.0,5.8,M,-33.9,M,,*50
$PYRTM,2024,123.002448045486,14.112095455625
$GPGGA,000330.00,3352.3254,N,11931.8793,W,1,09,1.0,5.8,M,-33.9,M,,*56
$PYRTM,2024,123.002459161412,14.112106571551
$GPGGA,000331.00,3352.3258,N,11931.8789,W,1,09,1.0,0.5,M,-33.9,M,,*58
$PYRTM,2024,123.002470153843,14.112117563981
$GPGGA,000332.00,3352.3261,N,11931.8783,W,1,09,1.0,0.7,M,-33.9,M,,*59
$PYRTM,2024,123.002481130046,14.112128540185
$GPGGA,000333.00,3352.3263,N,11931.8778,W,1,09,1.0,0.9,M,-33.9,M,,*50
$PYRTM,2024,123.002492243079,14.112139653218
$GPGGA,000334.00,3352.3265,N,11931.8772,W,1,09,1.0,1.0,M,-33.9,M,,*53
$PYRTM,2024,123.002503352882,14.112150763021
$GPGGA,000335.00,3352.3268,N,11931.8768,W,1,09,1.0,1.1,M,-33.9,M,,*55
$PYRTM,2024,123.002514825729,14.112162235868
$GPGGA,000336.00,3352.3270,N,11931.8763,W,1,09,1.0,1.7,M,-33.9,M,,*52
$PYRTM,2024,123.002526387836,14.112173797975
$GPGGA,000337.00,3352.3272,N,11931.8757,W,1,09,1.0,1.8,M,-33.9,M,,*59
$PYRTM,2024,123.002537968148,14.112185378287
$GPGGA,000338.00,3352.3273,N,11931.8752,W,1,09,1.0,1.5,M,-33.9,M,,*5F
$PYRTM,2024,123.002549535081,14.112196945220
$GPGGA,000339.00,3352.3275,N,11931.8746,W,1,09,1.0,1.9,M,-33.9,M,,*51
$PYRTM,2024,123.002561121852,14.112208531991
$GPGGA,000340.00,3352.3278,N,11931.8742,W,1,09,1.0,1.9,M,-33.9,M,,*56
$PYRTM,2024,123.002572683252,14.112220093391
$GPGGA,000341.00,3352.3281,N,11931.8737,W,1,09,1.0,2.5,M,-33.9,M,,*5C
$PYRTM,2024,123.002584270579,14.112231680718
$GPGGA,000342.00,3352.3283,N,11931.8732,W,1,09,1.0,3.0,M,-33.9,M,,*5C
$PYRTM,2024,123.002595833669,14.112243243808
$GPGGA,000343.00,3352.3283,N,11931.8727,W,1,09,1.0,3.8,M,-33.9,M,,*51
$PYRTM,2024,123.002607421470,14.112254831609
$GPGGA,000344.00,3352.3284,N,11931.8721,W,1,09,1.0,3.4,M,-33.9,M,,*5B
$PYRTM,2024,123.002618979815,14.112266389954
$GPGGA,000345.00,3352.3286,N,11931.8716,W,1,09,1.0,4.0,M,-33.9,M,,*5F
$PYRTM,2024,123.002630579861,14.112277990000
$GPGGA,000346.00,3352.3289,N,11931.8712,W,1,09,1.0,3.9,M,-33.9,M,,*59
$PYRTM,2024,123.002642126470,14.112289536609
$GPGGA,000347.00,3352.3293,N,11931.8707,W,1,09,1.0,8.5,M,-33.9,M,,*50
$PYRTM,2024,123.002653728762,14.112301138889
$GPGGA,000348.00,3352.3296,N,11931.8701,W,1,09,1.0,8.3,M,-33.9,M,,*5A
$PYRTM,2024,123.002665276505,14.112312686644
$GPGGA,000349.00,3352.3298,N,11931.8697,W,1,09,1.0,8.1,M,-33.9,M,,*59
$PYRTM,2024,123.002676863889,14.112324274028
$GPGGA,000350.00,3352.3300,N,11931.8692,W,1,09,1.0,7.7,M,-33.9,M,,*5D
$PYRTM,2024,123.002688423611,14.112335833750
$GPGGA,000351.00,3352.3301,N,11931.8687,W,1,09,1.0,7.4,M,-33.9,M,,*5A
$PYRTM,2024,123.002700010706,14.112347420845
$GPGGA,000352.00,3352.3304,N,11931.8681,W,1,09,1.0,7.4,M,-33.9,M,,*5A
$PYRTM,2024,123.002711572616,14.112358982755
$GPGGA,000353.00,3352.3306,N,11931.8676,W,1,09,1.0,7.2,M,-33.9,M,,*57
$PYRTM,2024,123.002723160104,14.112370570243
$GPGGA,000354.00,3352.3308,N,11931.8672,W,1,09,1.0,7.2,M,-33.9,M,,*5A
$PYRTM,2024,123.002734720845,14.112382130984
$GPGGA,000355.00,3352.3311,N,11931.8667,W,1,09,1.0,7.7,M,-33.9,M,,*52
$PYRTM,2024,123.002751500312,14.112398910451
$GPGGA,000356.00,3352.3312,N,11931.8662,W,1,09,1.0,7.3,M,-33.9,M,,*53
$PYRTM,2024,123.002763089317,14.112410499456
$GPGGA,000357.00,3352.3314,N,11931.8657,W,1,09,1.0,6.5,M,-33.9,M,,*55
$PYRTM,2024,123.002774649479,14.112422059618
$GPGGA,000358.00,3352.3316,N,11931.8652,W,1,09,1.0,6.5,M,-33.9,M,,*5D
$PYRTM,2024,123.002786237604,14.112433647743
$GPGGA,000359.00,3352.3320,N,11931.8648,W,1,09,1.0,6.5,M,-33.9,M,,*52
$PYRTM,2024,123.002797799896,14.112445210035
$GPGGA,000400.00,3352.3323,N,11931.8644,W,1,09,1.0,6.4,M,-33.9,M,,*57
$PYRTM,2024,123.002809387292,14.112456797419
$GPGGA,000401.00,3352.3326,N,11931.8638,W,1,09,1.0,7.9,M,-33.9,M,,*54
$PYRTM,2024,123.002820945012,14.112468355150
$GPGGA,000402.00,3352.3329,N,11931.8631,W,1,09,1.0,11.2,M,-33.9,M,,*6D
$PYRTM,2024,123.002832534745,14.112479944884
$GPGGA,000403.00,3352.3332,N,11931.8625,W,1,09,1.0,10.9,M,-33.9,M,,*69
$PYRTM,2024,123.002844095880,14.112491506019
$GPGGA,000404.00,3352.3335,N,11931.8620,W,1,09,1.0,10.6,M,-33.9,M,,*63
$PYRTM,2024,123.002855797894,14.112503208032
$GPGGA,000405.00,3352.3338,N,11931.8616,W,1,09,1.0,10.3,M,-33.9,M,,*6F
$PYRTM,2024,123.002867372766,14.112514782905
$GPGGA,000406.00,3352.3340,N,11931.8610,W,1,09,1.0,10.2,M,-33.9,M,,*64
$PYRTM,2024,123.002878830683,14.112526240822
$GPGGA,000407.00,3352.3342,N,11931.8605,W,1,09,1.0,9.4,M,-33.9,M,,*5D
$PYRTM,2024,123.002890390370,14.112537800509
$GPGGA,000408.00,3352.3344,N,11931.8601,W,1,09,1.0,9.8,M,-33.9,M,,*5C
$PYRTM,2024,123.002902096146,14.112549506285
$GPGGA,000409.00,3352.3346,N,11931.8596,W,1,09,1.0,10.2,M,-33.9,M,,*60
$PYRTM,2024,123.002913670648,14.112561080787
$GPGGA,000410.00,3352.3348,N,11931.8592,W,1,09,1.0,10.3,M,-33.9,M,,*63
$PYRTM,2024,123.002925128090,14.112572538229
$GPGGA,000411.00,3352.3348,N,11931.8586,W,1,09,1.0,11.2,M,-33.9,M,,*67
$PYRTM,2024,123.002936687951,14.112584098090
$GPGGA,000412.00,3352.3348,N,11931.8580,W,1,09,1.0,8.9,M,-33.9,M,,*51
$PYRTM,2024,123.002948276852,14.112595686991
$GPGGA,000413.00,3352.3349,N,11931.8575,W,1,09,1.0,8.8,M,-33.9,M,,*5A
$PYRTM,2024,123.002959835058,14.112607245197
$GPGGA,000414.00,3352.3352,N,11931.8571,W,1,09,1.0,9.0,M,-33.9,M,,*5A
$PYRTM,2024,123.002971423970,14.112618834109
$GPGGA,000415.00,3352.3356,N,11931.8568,W,1,09,1.0,8.6,M,-33.9,M,,*50
$PYRTM,2024,123.002982984282,14.112630394421
$GPGGA,000416.00,3352.3358,N,11931.8563,W,1,09,1.0,8.4,M,-33.9,M,,*54
$PYRTM,2024,123.002994572535,14.112641982674
$GPGGA,000417.00,3352.3360,N,11931.8558,W,1,09,1.0,8.1,M,-33.9,M,,*53
$PYRTM,2024,123.003006131678,14.112653541817
$GPGGA,000418.00,3352.3361,N,11931.8552,W,1,09,1.0,7.4,M,-33.9,M,,*5D
$PYRTM,2024,123.003017716516,14.112665126655
$GPGGA,000419.00,3352.3364,N,11931.8547,W,1,09,1.0,7.5,M,-33.9,M,,*5C
$PYRTM,2024,123.003029279120,14.112676689259
$GPGGA,000420.00,3352.3367,N,11931.8543,W,1,09,1.0,7.3,M,-33.9,M,,*57
$PYRTM,2024,123.003040865359,14.112688275498
$GPGGA,000421.00,3352.3369,N,11931.8539,W,1,09,1.0,7.6,M,-33.9,M,,*50
$PYRTM,2024,123.003052428495,14.112699838634
$GPGGA,000422.00,3352.3371,N,11931.8534,W,1,09,1.0,8.1,M,-33.9,M,,*5F
$PYRTM,2024,123.003064016991,14.112711427130
$GPGGA,000423.00,3352.3372,N,11931.8527,W,1,09,1.0,6.0,M,-33.9,M,,*50
$PYRTM,2024,123.003075576690,14.112722986829
$GPGGA,000424.00,3352.3373,N,11931.8520,W,1,09,1.0,6.0,M,-33.9,M,,*51
$PYRTM,2024,123.003087164896,14.112734575035
$GPGGA,000425.00,3352.3376,N,11931.8515,W,1,09,1.0,6.1,M,-33.9,M,,*52
$PYRTM,2024,123.003097466319,14.112744876458
$GPGGA,000426.00,3352.3377,N,11931.8512,W,1,09,1.0,5.6,M,-33.9,M,,*53
$PYRTM,2024,123.003109272523,14.112756682674
$GPGGA,000427.00,3352.3379,N,11931.8507,W,1,09,1.0,5.8,M,-33.9,M,,*56
$PYRTM,2024,123.003121875995,14.112769286146
$GPGGA,000428.00,3352.3381,N,11931.8502,W,1,09,1.0,5.9,M,-33.9,M,,*5A
$PYRTM,2024,123.003133463032,14.112780873171
$GPGGA,000429.00,3352.3383,N,11931.8496,W,1,09,1.0,5.9,M,-33.9,M,,*55
$PYRTM,2024,123.003145021273,14.112792431412
$GPGGA,000430.00,3352.3385,N,11931.8491,W,1,09,1.0,6.3,M,-33.9,M,,*55
$PYRTM,2024,123.003156608472,14.112804018611
$GPGGA,000431.00,3352.3388,N,11931.8486,W,1,09,1.0,6.5,M,-33.9,M,,*59
$PYRTM,2024,123.003168169630,14.112815579769
$GPGGA,000432.00,3352.3391,N,11931.8481,W,1,09,1.0,6.7,M,-33.9,M,,*57
$PYRTM,2024,123.003179757720,14.112827167859
$GPGGA,000433.00,3352.3393,N,11931.8476,W,1,09,1.0,7.1,M,-33.9,M,,*5B
$PYRTM,2024,123.003191317373,14.112838727512
$GPGGA,000434.00,3352.3395,N,11931.8471,W,1,09,1.0,6.9,M,-33.9,M,,*54
$PYRTM,2024,123.003202905741,14.112850315880
$GPGGA,000435.00,3352.3398,N,11931.8466,W,1,09,1.0,6.9,M,-33.9,M,,*5E
$PYRTM,2024,123.003214465127,14.112861875266
$GPGGA,000436.00,3352.3401,N,11931.8461,W,1,09,1.0,7.2,M,-33.9,M,,*57
$PYRTM,2024,123.003226054317,14.112873464456
$GPGGA,000437.00,3352.3403,N,11931.8457,W,1,09,1.0,6.8,M,-33.9,M,,*5A
$PYRTM,2024,123.003237612836,14.112885022975
$GPGGA,000438.00,3352.3405,N,11931.8451,W,1,09,1.0,7.5,M,-33.9,M,,*59
$PYRTM,2024,123.003249202072,14.112896612211
$GPGGA,000439.00,3352.3408,N,11931.8445,W,1,09,1.0,7.3,M,-33.9,M,,*56
$PYRTM,2024,123.003260762477,14.112908172616
$GPGGA,000440.00,3352.3410,N,11931.8440,W,1,09,1.0,7.0,M,-33.9,M,,*57
$PYRTM,2024,123.003272352187,14.112919762326
$GPGGA,000441.00,3352.3413,N,11931.8436,W,1,09,1.0,7.3,M,-33.9,M,,*57
$PYRTM,2024,123.003283911088,14.112931321227
$GPGGA,000442.00,3352.3417,N,11931.8432,W,1,09,1.0,10.3,M,-33.9,M,,*62
$PYRTM,2024,123.003295500081,14.112942910220
$GPGGA,000443.00,3352.3421,N,11931.8427,W,1,09,1.0,10.4,M,-33.9,M,,*65
$PYRTM,2024,123.003307058646,14.112954468785
$GPGGA,000444.00,3352.3423,N,11931.8422,W,1,09,1.0,10.3,M,-33.9,M,,*62
$PYRTM,2024,123.003318649282,14.112966059421
$GPGGA,000445.00,3352.3426,N,11931.8419,W,1,09,1.0,10.2,M,-33.9,M,,*6F
$PYRTM,2024,123.003330337083,14.112977747222
$GPGGA,000446.00,3352.3430,N,11931.8416,W,1,09,1.0,10.3,M,-33.9,M,,*65
$PYRTM,2024,123.003341795208,14.112989205347
$GPGGA,000447.00,3352.3433,N,11931.8411,W,1,09,1.0,9.9,M,-33.9,M,,*52
$PYRTM,2024,123.003353356458,14.113000766597
$GPGGA,000448.00,3352.3435,N,11931.8406,W,1,09,1.0,9.9,M,-33.9,M,,*5D
$PYRTM,2024,123.003364943981,14.113012354120
$GPGGA,000449.00,3352.3436,N,11931.8400,W,1,09,1.0,10.0,M,-33.9,M,,*68
$PYRTM,2024,123.003376504884,14.113023915035
$GPGGA,000450.00,3352.3438,N,11931.8395,W,1,09,1.0,9.7,M,-33.9,M,,*5A
$PYRTM,2024,123.003388092095,14.113035502234
$GPGGA,000451.00,3352.3440,N,11931.8391,W,1,09,1.0,9.3,M,-33.9,M,,*54
$PYRTM,2024,123.003399652373,14.113047062512
$GPGGA,000452.00,3352.3442,N,11931.8387,W,1,09,1.0,9.7,M,-33.9,M,,*56
$PYRTM,2024,123.003411343229,14.113058753368
$GPGGA,000453.00,3352.3444,N,11931.8382,W,1,09,1.0,10.3,M,-33.9,M,,*68
$PYRTM,2024,123.003422930995,14.113070341134
$GPGGA,000454.00,3352.3446,N,11931.8378,W,1,09,1.0,10.4,M,-33.9,M,,*6F
$PYRTM,2024,123.003434504398,14.113081914537
$GPGGA,000455.00,3352.3448,N,11931.8373,W,1,09,1.0,10.4,M,-33.9,M,,*6B
$PYRTM,2024,123.003444689861,14.113092100000
$GPGGA,000456.00,3352.3450,N,11931.8368,W,1,09,1.0,10.7,M,-33.9,M,,*68
$PYRTM,2024,123.003456610856,14.113104020995
$GPGGA,000457.00,3352.3451,N,11931.8363,W,1,09,1.0,10.0,M,-33.9,M,,*64
$PYRTM,2024,123.003469214514,14.113116624664
$GPGGA,000458.00,3352.3452,N,11931.8357,W,1,09,1.0,10.1,M,-33.9,M,,*6E
$PYRTM,2024,123.003480787396,14.113128197523
$GPGGA,000459.00,3352.3455,N,11931.8352,W,1,09,1.0,10.2,M,-33.9,M,,*6E
$PYRTM,2024,123.003492391366,14.113139801505
$GPGGA,000500.00,3352.3458,N,11931.8348,W,1,09,1.0,10.3,M,-33.9,M,,*64
$PYRTM,2024,123.003503948924,14.113151359051
$GPGGA,000501.00,3352.3460,N,11931.8345,W,1,09,1.0,10.6,M,-33.9,M,,*66
$PYRTM,2024,123.003515540000,14.113162950139
$GPGGA,000502.00,3352.3462,N,11931.8341,W,1,09,1.0,10.2,M,-33.9,M,,*67
$PYRTM,2024,123.003526982928,14.113174393067
$GPGGA,000503.00,3352.3462,N,11931.8335,W,1,09,1.0,10.2,M,-33.9,M,,*65
$PYRTM,2024,123.003538541609,14.113185951748
$GPGGA,000504.00,3352.3463,N,11931.8329,W,1,09,1.0,10.4,M,-33.9,M,,*68
$PYRTM,2024,123.003550246678,14.113197656806
$GPGGA,000505.00,3352.3466,N,11931.8326,W,1,09,1.0,10.3,M,-33.9,M,,*64
$PYRTM,2024,123.003561818785,14.113209228924
$GPGGA,000506.00,3352.3468,N,11931.8323,W,1,09,1.0,10.5,M,-33.9,M,,*6A
$PYRTM,2024,123.003573394225,14.113220804375
$GPGGA,000507.00,3352.3470,N,11931.8319,W,1,09,1.0,10.1,M,-33.9,M,,*6F
$PYRTM,2024,123.003584838044,14.113232248183
$GPGGA,000508.00,3352.3471,N,11931.8314,W,1,09,1.0,7.6,M,-33.9,M,,*5D
$PYRTM,2024,123.003596423021,14.113243833160
$GPGGA,000509.00,3352.3472,N,11931.8308,W,1,09,1.0,7.3,M,-33.9,M,,*57
$PYRTM,2024,123.003607987697,14.113255397847
$GPGGA,000510.00,3352.3475,N,11931.8303,W,1,09,1.0,8.0,M,-33.9,M,,*5F
$PYRTM,2024,123.003619575359,14.113266985498
$GPGGA,000511.00,3352.3478,N,11931.8300,W,1,09,1.0,8.3,M,-33.9,M,,*53
$PYRTM,2024,123.003631134641,14.113278544780
$GPGGA,000512.00,3352.3481,N,11931.8297,W,1,09,1.0,7.6,M,-33.9,M,,*53
$PYRTM,2024,123.003642723287,14.113290133426
$GPGGA,000513.00,3352.3482,N,11931.8292,W,1,09,1.0,8.0,M,-33.9,M,,*5D
$PYRTM,2024,123.003654282257,14.113301692396
$GPGGA,000514.00,3352.3483,N,11931.8287,W,1,09,1.0,7.2,M,-33.9,M,,*52
$PYRTM,2024,123.003665872037,14.113313282176
$GPGGA,000515.00,3352.3484,N,11931.8282,W,1,09,1.0,7.5,M,-33.9,M,,*56
$PYRTM,2024,123.003677431632,14.113324841806
$GPGGA,000516.00,3352.3485,N,11931.8277,W,1,09,1.0,7.9,M,-33.9,M,,*52
$PYRTM,2024,123.003689018553,14.113336428692
$GPGGA,000517.00,3352.3488,N,11931.8275,W,1,09,1.0,8.3,M,-33.9,M,,*59
$PYRTM,2024,123.003700579387,14.113347989525
$GPGGA,000518.00,3352.3490,N,11931.8272,W,1,09,1.0,8.4,M,-33.9,M,,*5F
$PYRTM,2024,123.003712167419,14.113359577558
$GPGGA,000519.00,3352.3491,N,11931.8268,W,1,09,1.0,8.1,M,-33.9,M,,*51
$PYRTM,2024,123.003723726782,14.113371136921
$GPGGA,000520.00,3352.3494,N,11931.8262,W,1,09,1.0,5.3,M,-33.9,M,,*5B
$PYRTM,2024,123.003735315255,14.113382725405
$GPGGA,000521.00,3352.3496,N,11931.8256,W,1,09,1.0,5.5,M,-33.9,M,,*59
$PYRTM,2024,123.003746875104,14.113394285255
$GPGGA,000522.00,3352.3500,N,11931.8252,W,1,09,1.0,5.3,M,-33.9,M,,*56
$PYRTM,2024,123.003758463542,14.113405873681
$GPGGA,000523.00,3352.3504,N,11931.8250,W,1,09,1.0,5.1,M,-33.9,M,,*53
$PYRTM,2024,123.003770022176,14.113417432315
$GPGGA,000524.00,3352.3506,N,11931.8246,W,1,09,1.0,5.2,M,-33.9,M,,*52
$PYRTM,2024,123.003781612465,14.113429022604
$GPGGA,000525.00,3352.3505,N,11931.8242,W,1,09,1.0,7.2,M,-33.9,M,,*56
$PYRTM,2024,123.003792375405,14.113439785544
$GPGGA,000526.00,3352.3504,N,11931.8237,W,1,09,1.0,7.3,M,-33.9,M,,*57
$PYRTM,2024,123.003803718681,14.113451128831
$GPGGA,000527.00,3352.3505,N,11931.8234,W,1,09,1.0,7.5,M,-33.9,M,,*52
$PYRTM,2024,123.003816320972,14.113463731123
$GPGGA,000528.00,3352.3506,N,11931.8233,W,1,09,1.0,7.4,M,-33.9,M,,*58
$PYRTM,2024,123.003826985903,14.113474396042
$GPGGA,000529.00,3352.3508,N,11931.8231,W,1,09,1.0,7.4,M,-33.9,M,,*55
$PYRTM,2024,123.003838918310,14.113486328461
$GPGGA,000530.00,3352.3508,N,11931.8226,W,1,09,1.0,7.8,M,-33.9,M,,*57
$PYRTM,2024,123.003849538854,14.113496948993
$GPGGA,000531.00,3352.3508,N,11931.8220,W,1,09,1.0,7.7,M,-33.9,M,,*5F
$PYRTM,2024,123.003860535579,14.113507945718
$GPGGA,000532.00,3352.3508,N,11931.8216,W,1,09,1.0,7.5,M,-33.9,M,,*5B
$PYRTM,2024,123.003871542095,14.113518952234
$GPGGA,000533.00,3352.3510,N,11931.8214,W,1,09,1.0,7.5,M,-33.9,M,,*51
$PYRTM,2024,123.003882541042,14.113529951181
$GPGGA,000534.00,3352.3513,N,11931.8212,W,1,09,1.0,7.6,M,-33.9,M,,*50
$PYRTM,2024,123.003893649850,14.113541059988
$GPGGA,000535.00,3352.3514,N,11931.8208,W,1,09,1.0,7.6,M,-33.9,M,,*5D
$PYRTM,2024,123.003904645405,14.113552055544
$GPGGA,000536.00,3352.3515,N,11931.8202,W,1,09,1.0,7.6,M,-33.9,M,,*55
$PYRTM,2024,123.003918172731,14.113565582870
$GPGGA,000537.00,3352.3515,N,11931.8197,W,1,09,1.0,7.7,M,-33.9,M,,*5A
$PYRTM,2024,123.003929646435,14.113577056574
$GPGGA,000538.00,3352.3516,N,11931.8193,W,1,09,1.0,7.6,M,-33.9,M,,*53
$PYRTM,2024,123.003940756713,14.113588166852
$GPGGA,000539.00,3352.3518,N,11931.8190,W,1,09,1.0,7.5,M,-33.9,M,,*5C
$PYRTM,2024,123.003951747419,14.113599157558
$GPGGA,000540.00,3352.3520,N,11931.8188,W,1,09,1.0,7.4,M,-33.9,M,,*51
$PYRTM,2024,123.003962748021,14.113610158160
$GPGGA,000541.00,3352.3520,N,11931.8183,W,1,09,1.0,7.5,M,-33.9,M,,*5A
$PYRTM,2024,123.003973728218,14.113621138356
$GPGGA,000542.00,3352.3519,N,11931.8178,W,1,09,1.0,7.5,M,-33.9,M,,*57
$PYRTM,2024,123.003984839398,14.113632249537
$GPGGA,000543.00,3352.3520,N,11931.8174,W,1,09,1.0,7.5,M,-33.9,M,,*50
$PYRTM,2024,123.003996312905,14.113643723044
$GPGGA,000544.00,3352.3523,N,11931.8172,W,1,09,1.0,7.5,M,-33.9,M,,*52
$PYRTM,2024,123.004007873692,14.113655283831
$GPGGA,000545.00,3352.3526,N,11931.8169,W,1,09,1.0,7.4,M,-33.9,M,,*5D
$PYRTM,2024,123.004019463310,14.113666873449
$GPGGA,000546.00,3352.3528,N,11931.8165,W,1,09,1.0,7.4,M,-33.9,M,,*5C
$PYRTM,2024,123.004031020880,14.113678431019
$GPGGA,000547.00,3352.3528,N,11931.8158,W,1,09,1.0,7.5,M,-33.9,M,,*52
$PYRTM,2024,123.004042607627,14.113690017766
$GPGGA,000548.00,3352.3528,N,11931.8153,W,1,09,1.0,7.5,M,-33.9,M,,*56
$PYRTM,2024,123.004054171030,14.113701581169
$GPGGA,000549.00,3352.3531,N,11931.8150,W,1,09,1.0,7.5,M,-33.9,M,,*5C
$PYRTM,2024,123.004065751863,14.113713162002
$GPGGA,000550.00,3352.3532,N,11931.8148,W,1,09,1.0,7.5,M,-33.9,M,,*5E
$PYRTM,2024,123.004077318461,14.113724728600
$GPGGA,000551.00,3352.3533,N,11931.8145,W,1,09,1.0,7.5,M,-33.9,M,,*53
$PYRTM,2024,123.004088905093,14.113736315231
$GPGGA,000552.00,3352.3533,N,11931.8141,W,1,09,1.0,7.5,M,-33.9,M,,*54
$PYRTM,2024,123.004100465856,14.113747875995
$GPGGA,000553.00,3352.3532,N,11931.8137,W,1,09,1.0,7.5,M,-33.9,M,,*55
$PYRTM,2024,123.004112057465,14.113759467604
$GPGGA,000554.00,3352.3534,N,11931.8134,W,1,09,1.0,7.5,M,-33.9,M,,*57
$PYRTM,2024,123.004123616956,14.113771027095
$GPGGA,000555.00,3352.3535,N,11931.8131,W,1,09,1.0,7.5,M,-33.9,M,,*52
$PYRTM,2024,123.004140395775,14.113787805914
$GPGGA,000556.00,3352.3537,N,11931.8129,W,1,09,1.0,7.4,M,-33.9,M,,*5B
$PYRTM,2024,123.004151979329,14.113799389479
$GPGGA,000557.00,3352.3538,N,11931.8125,W,1,09,1.0,7.5,M,-33.9,M,,*58
$PYRTM,2024,123.004163543472,14.113810953611
$GPGGA,000558.00,3352.3539,N,11931.8121,W,1,09,1.0,7.4,M,-33.9,M,,*53
$PYRTM,2024,123.004175126493,14.113822536632
$GPGGA,000559.00,3352.3540,N,11931.8116,W,1,09,1.0,7.4,M,-33.9,M,,*58
$PYRTM,2024,123.004186691863,14.113834102014
$GPGGA,000600.00,3352.3541,N,11931.8111,W,1,09,1.0,7.4,M,-33.9,M,,*51
$PYRTM,2024,123.004197234190,14.113844644329
$GPGGA,000601.00,3352.3543,N,11931.8109,W,1,09,1.0,7.4,M,-33.9,M,,*5B
$PYRTM,2024,123.004209839375,14.113857249514
$GPGGA,000602.00,3352.3545,N,11931.8107,W,1,09,1.0,7.4,M,-33.9,M,,*50
$PYRTM,2024,123.004221429653,14.113868839792
$GPGGA,000603.00,3352.3546,N,11931.8104,W,1,09,1.0,7.3,M,-33.9,M,,*56
$PYRTM,2024,123.004232988171,14.113880398310
$GPGGA,000604.00,3352.3545,N,11931.8099,W,1,09,1.0,7.2,M,-33.9,M,,*56
$PYRTM,2024,123.004244576782,14.113891986921
$GPGGA,000605.00,3352.3546,N,11931.8096,W,1,09,1.0,7.1,M,-33.9,M,,*58
$PYRTM,2024,123.004256136759,14.113903546898
$GPGGA,000606.00,3352.3547,N,11931.8093,W,1,09,1.0,7.0,M,-33.9,M,,*5E
$PYRTM,2024,123.004267724896,14.113915135046
$GPGGA,000607.00,3352.3548,N,11931.8090,W,1,09,1.0,7.0,M,-33.9,M,,*53
$PYRTM,2024,123.004279284294,14.113926694433
$GPGGA,000608.00,3352.3549,N,11931.8086,W,1,09,1.0,7.0,M,-33.9,M,,*5A
$PYRTM,2024,123.004290873113,14.113938283252
$GPGGA,000609.00,3352.3549,N,11931.8083,W,1,09,1.0,7.1,M,-33.9,M,,*5F
$PYRTM,2024,123.004302433356,14.113949843495
$GPGGA,000610.00,3352.3549,N,11931.8079,W,1,09,1.0,7.1,M,-33.9,M,,*52
$PYRTM,2024,123.004314016262,14.113961426412
$GPGGA,000611.00,3352.3551,N,11931.8075,W,1,09,1.0,7.0,M,-33.9,M,,*57
$PYRTM,2024,123.004325582211,14.113972992361
$GPGGA,000612.00,3352.3552,N,11931.8072,W,1,09,1.0,7.0,M,-33.9,M,,*50
$PYRTM,2024,123.004337170139,14.113984580278
$GPGGA,000613.00,3352.3553,N,11931.8068,W,1,09,1.0,6.9,M,-33.9,M,,*53
$PYRTM,2024,123.004348729086,14.113996139225
$GPGGA,000614.00,3352.3555,N,11931.8065,W,1,09,1.0,6.8,M,-33.9,M,,*5E
$PYRTM,2024,123.004360318160,14.114007728299
$GPGGA,000615.00,3352.3556,N,11931.8061,W,1,09,1.0,6.7,M,-33.9,M,,*57
$PYRTM,2024,123.004371877894,14.114019288032
$GPGGA,000616.00,3352.3557,N,11931.8057,W,1,09,1.0,6.7,M,-33.9,M,,*50
$PYRTM,2024,123.004383467106,14.114030877245
$GPGGA,000617.00,3352.3559,N,11931.8054,W,1,09,1.0,6.8,M,-33.9,M,,*53
$PYRTM,2024,123.004395024780,14.114042434919
$GPGGA,000618.00,3352.3561,N,11931.8053,W,1,09,1.0,6.8,M,-33.9,M,,*50
$PYRTM,2024,123.004406614549,14.114054024687
$GPGGA,000619.00,3352.3562,N,11931.8051,W,1,09,1.0,6.8,M,-33.9,M,,*50
$PYRTM,2024,123.004418174028,14.114065584178
$GPGGA,000620.00,3352.3562,N,11931.8048,W,1,09,1.0,6.8,M,-33.9,M,,*52
$PYRTM,2024,123.004429757928,14.114077168079
$GPGGA,000621.00,3352.3561,N,11931.8045,W,1,09,1.0,6.7,M,-33.9,M,,*52
$PYRTM,2024,123.004441323241,14.114088733380
$GPGGA,000622.00,3352.3561,N,11931.8041,W,1,09,1.0,6.8,M,-33.9,M,,*5A
$PYRTM,2024,123.004452910926,14.114100321065
$GPGGA,000623.00,3352.3563,N,11931.8038,W,1,09,1.0,6.8,M,-33.9,M,,*57
$PYRTM,2024,123.004464470868,14.114111881007
$GPGGA,000624.00,3352.3565,N,11931.8037,W,1,09,1.0,6.8,M,-33.9,M,,*59
$PYRTM,2024,123.004476059398,14.114123469537
$GPGGA,000625.00,3352.3566,N,11931.8035,W,1,09,1.0,6.7,M,-33.9,M,,*56
$PYRTM,2024,123.004486361863,14.114133772002
$GPGGA,000626.00,3352.3567,N,11931.8031,W,1,09,1.0,6.7,M,-33.9,M,,*50
$PYRTM,2024,123.004498168796,14.114145578935
$GPGGA,000627.00,3352.3567,N,11931.8026,W,1,09,1.0,6.7,M,-33.9,M,,*57
$PYRTM,2024,123.004510766806,14.114158176944
$GPGGA,000628.00,3352.3567,N,11931.8022,W,1,09,1.0,6.7,M,-33.9,M,,*5C
$PYRTM,2024,123.004522355602,14.114169765741
$GPGGA,000629.00,3352.3568,N,11931.8020,W,1,09,1.0,6.7,M,-33.9,M,,*50
$PYRTM,2024,123.004533915405,14.114181325544
$GPGGA,000630.00,3352.3569,N,11931.8018,W,1,09,1.0,6.6,M,-33.9,M,,*53
$PYRTM,2024,123.004545503530,14.114192913669
$GPGGA,000631.00,3352.3569,N,11931.8015,W,1,09,1.0,6.6,M,-33.9,M,,*5F
$PYRTM,2024,123.004557063669,14.114204473808
$GPGGA,000632.00,3352.3568,N,11931.8010,W,1,09,1.0,6.6,M,-33.9,M,,*58
$PYRTM,2024,123.004568646910,14.114216057049
$GPGGA,000633.00,3352.3568,N,11931.8006,W,1,09,1.0,6.6,M,-33.9,M,,*5E
$PYRTM,2024,123.004580211134,14.114227621273
$GPGGA,000634.00,3352.3569,N,11931.8004,W,1,09,1.0,6.7,M,-33.9,M,,*5B
$PYRTM,2024,123.004591794468,14.114239204606
$GPGGA,000635.00,3352.3571,N,11931.8004,W,1,09,1.0,6.6,M,-33.9,M,,*52
$PYRTM,2024,123.004603359722,14.114250769861
$GPGGA,000636.00,3352.3573,N,11931.8001,W,1,09,1.0,6.7,M,-33.9,M,,*57
$PYRTM,2024,123.004614943866,14.114262354016
$GPGGA,000637.00,3352.3573,N,11931.7997,W,1,09,1.0,6.6,M,-33.9,M,,*5E
$PYRTM,2024,123.004626508773,14.114273918912
$GPGGA,000638.00,3352.3572,N,11931.7991,W,1,09,1.0,6.5,M,-33.9,M,,*55
$PYRTM,2024,123.004638097431,14.114285507581
$GPGGA,000639.00,3352.3573,N,11931.7987,W,1,09,1.0,6.5,M,-33.9,M,,*52
$PYRTM,2024,123.004649656574,14.114297066713
$GPGGA,000640.00,3352.3575,N,11931.7985,W,1,09,1.0,6.6,M,-33.9,M,,*5B
$PYRTM,2024,123.004661244132,14.114308654271
$GPGGA,000641.00,3352.3577,N,11931.7983,W,1,09,1.0,6.6,M,-33.9,M,,*5E
$PYRTM,2024,123.004672803600,14.114320213738
$GPGGA,000642.00,3352.3578,N,11931.7979,W,1,09,1.0,6.6,M,-33.9,M,,*57
$PYRTM,2024,123.004684393345,14.114331803484
$GPGGA,000643.00,3352.3578,N,11931.7973,W,1,09,1.0,6.6,M,-33.9,M,,*5C
$PYRTM,2024,123.004695952917,14.114343363056
$GPGGA,000644.00,3352.3578,N,11931.7968,W,1,09,1.0,6.6,M,-33.9,M,,*51
$PYRTM,2024,123.004707542350,14.114354952488
$GPGGA,000645.00,3352.3580,N,11931.7966,W,1,09,1.0,6.5,M,-33.9,M,,*5A
$PYRTM,2024,123.004719101053,14.114366511192
$GPGGA,000646.00,3352.3583,N,11931.7965,W,1,09,1.0,6.5,M,-33.9,M,,*59
$PYRTM,2024,123.004730689595,14.114378099734
$GPGGA,000647.00,3352.3585,N,11931.7963,W,1,09,1.0,6.5,M,-33.9,M,,*58
$PYRTM,2024,123.004742249074,14.114389659225
$GPGGA,000648.00,3352.3585,N,11931.7959,W,1,09,1.0,6.5,M,-33.9,M,,*5E
$PYRTM,2024,123.004753837222,14.114401247361
$GPGGA,000649.00,3352.3584,N,11931.7952,W,1,09,1.0,6.5,M,-33.9,M,,*55
$PYRTM,2024,123.004765396678,14.114412806817
$GPGGA,000650.00,3352.3587,N,11931.7948,W,1,09,1.0,6.6,M,-33.9,M,,*56
$PYRTM,2024,123.004776985995,14.114424396134
$GPGGA,000651.00,3352.3591,N,11931.7947,W,1,09,1.0,6.6,M,-33.9,M,,*5F
$PYRTM,2024,123.004788544352,14.114435954491
$GPGGA,000652.00,3352.3594,N,11931.7946,W,1,09,1.0,6.6,M,-33.9,M,,*58
$PYRTM,2024,123.004800132546,14.114447542685
$GPGGA,000653.00,3352.3594,N,11931.7942,W,1,09,1.0,6.6,M,-33.9,M,,*5D
$PYRTM,2024,123.004811693623,14.114459103762
$GPGGA,000654.00,3352.3595,N,11931.7937,W,1,09,1.0,6.6,M,-33.9,M,,*59
$PYRTM,2024,123.004823281354,14.114470691505
$GPGGA,000655.00,3352.3596,N,11931.7933,W,1,09,1.0,6.6,M,-33.9,M,,*5F
$PYRTM,2024,123.004833582662,14.114480992801
$GPGGA,000656.00,3352.3598,N,11931.7930,W,1,09,1.0,6.5,M,-33.9,M,,*52
$PYRTM,2024,123.004845392940,14.114492803079
$GPGGA,000657.00,3352.3600,N,11931.7929,W,1,09,1.0,6.6,M,-33.9,M,,*5A
$PYRTM,2024,123.004857990139,14.114505400278
$GPGGA,000658.00,3352.3600,N,11931.7926,W,1,09,1.0,6.6,M,-33.9,M,,*5A
$PYRTM,2024,123.004869581215,14.114516991354
$GPGGA,000659.00,3352.3601,N,11931.7922,W,1,09,1.0,6.6,M,-33.9,M,,*5E
$PYRTM,2024,123.004881149387,14.114528559525
$GPGGA,000700.00,3352.3601,N,11931.7917,W,1,09,1.0,6.6,M,-33.9,M,,*55
$PYRTM,2024,123.004892726644,14.114540136782
$GPGGA,000701.00,3352.3603,N,11931.7913,W,1,09,1.0,6.6,M,-33.9,M,,*52
$PYRTM,2024,123.004904289699,14.114551699838
$GPGGA,000702.00,3352.3605,N,11931.7911,W,1,09,1.0,6.5,M,-33.9,M,,*56
$PYRTM,2024,123.004915875255,14.114563285394
$GPGGA,000703.00,3352.3607,N,11931.7908,W,1,09,1.0,6.5,M,-33.9,M,,*5D
$PYRTM,2024,123.004927435093,14.114574845231
$GPGGA,000704.00,3352.3607,N,11931.7904,W,1,09,1.0,6.6,M,-33.9,M,,*55
$PYRTM,2024,123.004939023947,14.114586434097
$GPGGA,000705.00,3352.3608,N,11931.7899,W,1,09,1.0,6.7,M,-33.9,M,,*5F
$PYRTM,2024,123.004950590023,14.114598000162
$GPGGA,000706.00,3352.3610,N,11931.7895,W,1,09,1.0,6.7,M,-33.9,M,,*59
$PYRTM,2024,123.004962170683,14.114609580822
$GPGGA,000707.00,3352.3612,N,11931.7892,W,1,09,1.0,6.7,M,-33.9,M,,*5D
$PYRTM,2024,123.004973732106,14.114621142257
$GPGGA,000708.00,3352.3614,N,11931.7889,W,1,09,1.0,6.7,M,-33.9,M,,*5E
$PYRTM,2024,123.004985320289,14.114632730428
$GPGGA,000709.00,3352.3615,N,11931.7885,W,1,09,1.0,6.7,M,-33.9,M,,*52
$PYRTM,2024,123.004996881343,14.114644291481
$GPGGA,000710.00,3352.3616,N,11931.7882,W,1,09,1.0,6.6,M,-33.9,M,,*5F
$PYRTM,2024,123.005008468206,14.114655878345
$GPGGA,000711.00,3352.3618,N,11931.7879,W,1,08,1.0,6.6,M,-33.9,M,,*55
$PYRTM,2024,123.005020028264,14.114667438403
$GPGGA,000712.00,3352.3618,N,11931.7877,W,1,09,1.0,6.6,M,-33.9,M,,*59
$PYRTM,2024,123.005031616748,14.114679026887
$GPGGA,000713.00,3352.3619,N,11931.7873,W,1,09,1.0,6.6,M,-33.9,M,,*5D
$PYRTM,2024,123.005043177072,14.114690587211
$GPGGA,000714.00,3352.3620,N,11931.7868,W,1,09,1.0,6.6,M,-33.9,M,,*5A
$PYRTM,2024,123.005054764248,14.114702174387
$GPGGA,000715.00,3352.3621,N,11931.7863,W,1,09,1.0,6.6,M,-33.9,M,,*51
$PYRTM,2024,123.005066324144,14.114713734282
$GPGGA,000716.00,3352.3623,N,11931.7859,W,1,10,0.8,6.7,M,-33.9,M,,*59
$PYRTM,2024,123.005077912546,14.114725322685
$GPGGA,000717.00,3352.3625,N,11931.7857,W,1,10,0.8,6.8,M,-33.9,M,,*5F
$PYRTM,2024,123.005089471944,14.114736882083
$GPGGA,000718.00,3352.3625,N,11931.7852,W,1,10,0.8,6.8,M,-33.9,M,,*55
$PYRTM,2024,123.005101060347,14.114748470486
$GPGGA,000719.00,3352.3626,N,11931.7847,W,1,10,0.8,6.9,M,-33.9,M,,*52
$PYRTM,2024,123.005112621262,14.114760031400
$GPGGA,000720.00,3352.3628,N,11931.7842,W,1,10,0.8,6.9,M,-33.9,M,,*53
$PYRTM,2024,123.005124209155,14.114771619294
$GPGGA,000721.00,3352.3633,N,11931.7837,W,1,10,0.8,9.0,M,-33.9,M,,*5C
$PYRTM,2024,123.005135769456,14.114783179595
$GPGGA,000722.00,3352.3637,N,11931.7833,W,1,10,0.8,9.0,M,-33.9,M,,*5F
$PYRTM,2024,123.005147356366,14.114794766505
$GPGGA,000723.00,3352.3639,N,11931.7829,W,1,10,0.8,9.0,M,-33.9,M,,*5B
$PYRTM,2024,123.005158918762,14.114806328900
$GPGGA,000724.00,3352.3639,N,11931.7822,W,1,10,0.8,10.0,M,-33.9,M,,*6F
$PYRTM,2024,123.005170506458,14.114817916597
$GPGGA,000725.00,3352.3639,N,11931.7815,W,1,10,0.8,10.0,M,-33.9,M,,*6A
$PYRTM,2024,123.005180806794,14.114828216933
$GPGGA,000726.00,3352.3641,N,11931.7812,W,1,10,0.8,10.0,M,-33.9,M,,*61
$PYRTM,2024,123.005192616644,14.114840026782
$GPGGA,000727.00,3352.3644,N,11931.7810,W,1,10,0.8,10.0,M,-33.9,M,,*67
$PYRTM,2024,123.005205214387,14.114852624525
$GPGGA,000728.00,3352.3647,N,11931.7807,W,1,10,0.8,10.1,M,-33.9,M,,*6C
$PYRTM,2024,123.005216803900,14.114864214039
$GPGGA,000729.00,3352.3647,N,11931.7802,W,1,10,0.8,9.8,M,-33.9,M,,*59
$PYRTM,2024,123.005228362269,14.114875772407
$GPGGA,000730.00,3352.3648,N,11931.7796,W,1,10,0.8,9.9,M,-33.9,M,,*5D
$PYRTM,2024,123.005239950370,14.114887360509
$GPGGA,000731.00,3352.3650,N,11931.7791,W,1,10,0.8,9.9,M,-33.9,M,,*52
$PYRTM,2024,123.005251511782,14.114898921921
$GPGGA,000732.00,3352.3653,N,11931.7788,W,1,10,0.8,9.6,M,-33.9,M,,*55
$PYRTM,2024,123.005263093079,14.114910503218
$GPGGA,000733.00,3352.3654,N,11931.7786,W,1,10,0.8,9.7,M,-33.9,M,,*5C
$PYRTM,2024,123.005273734028,14.114921144167
$GPGGA,000734.00,3352.3654,N,11931.7783,W,1,10,0.8,9.6,M,-33.9,M,,*5F
$PYRTM,2024,123.005285654155,14.114933064294
$GPGGA,000735.00,3352.3653,N,11931.7777,W,1,10,0.8,9.6,M,-33.9,M,,*52
$PYRTM,2024,123.005296319456,14.114943729595
$GPGGA,000736.00,3352.3655,N,11931.7773,W,1,10,0.8,9.6,M,-33.9,M,,*53
$PYRTM,2024,123.005307310868,14.114954721007
$GPGGA,000737.00,3352.3658,N,11931.7771,W,1,10,0.8,9.6,M,-33.9,M,,*5D
$PYRTM,2024,123.005318766782,14.114966176921
$GPGGA,000738.00,3352.3662,N,11931.7769,W,1,10,0.8,9.5,M,-33.9,M,,*51
$PYRTM,2024,123.005329760995,14.114977171134
$GPGGA,000739.00,3352.3665,N,11931.7764,W,1,10,0.8,9.5,M,-33.9,M,,*5A
$PYRTM,2024,123.005340761065,14.114988171204
$GPGGA,000740.00,3352.3666,N,11931.7758,W,1,10,0.8,9.0,M,-33.9,M,,*5D
$PYRTM,2024,123.005351772257,14.114999182396
$GPGGA,000741.00,3352.3668,N,11931.7752,W,1,10,0.8,9.0,M,-33.9,M,,*58
$PYRTM,2024,123.005362867685,14.115010277824
$GPGGA,000742.00,3352.3670,N,11931.7748,W,1,10,0.8,9.0,M,-33.9,M,,*59
$PYRTM,2024,123.005381257905,14.115028668044
$GPGGA,000743.00,3352.3672,N,11931.7746,W,1,10,0.8,9.0,M,-33.9,M,,*54
$PYRTM,2024,123.005392382951,14.115039793090
$GPGGA,000744.00,3352.3673,N,11931.7743,W,1,10,0.8,9.0,M,-33.9,M,,*57
$PYRTM,2024,123.005403362280,14.115050772419
$GPGGA,000745.00,3352.3673,N,11931.7738,W,1,10,0.8,9.0,M,-33.9,M,,*5A
$PYRTM,2024,123.005414360347,14.115061770498
$GPGGA,000746.00,3352.3672,N,11931.7732,W,1,10,0.8,9.0,M,-33.9,M,,*52
$PYRTM,2024,123.005425354803,14.115072764942
$GPGGA,000747.00,3352.3674,N,11931.7729,W,1,10,0.8,8.9,M,-33.9,M,,*57
$PYRTM,2024,123.005436358137,14.115083768287
$GPGGA,000748.00,3352.3677,N,11931.7726,W,1,10,0.8,8.9,M,-33.9,M,,*54
$PYRTM,2024,123.005447468715,14.115094878854
$GPGGA,000749.00,3352.3680,N,11931.7723,W,1,10,0.8,9.0,M,-33.9,M,,*50
$PYRTM,2024,123.005458470208,14.115105880347
$GPGGA,000750.00,3352.3682,N,11931.7719,W,1,10,0.8,9.0,M,-33.9,M,,*53
$PYRTM,2024,123.005469460972,14.115116871111
$GPGGA,000751.00,3352.3683,N,11931.7713,W,1,10,0.8,9.0,M,-33.9,M,,*59
$PYRTM,2024,123.005480460359,14.115127870498
$GPGGA,000752.00,3352.3683,N,11931.7708,W,1,10,0.8,9.0,M,-33.9,M,,*50
$PYRTM,2024,123.005491581551,14.115138991690
$GPGGA,000753.00,3352.3685,N,11931.7703,W,1,10,0.8,9.1,M,-33.9,M,,*5D
$PYRTM,2024,123.005502567257,14.115149977407
$GPGGA,000754.00,3352.3689,N,11931.7700,W,1,10,0.8,9.1,M,-33.9,M,,*55
$PYRTM,2024,123.005513548044,14.115160958194
$GPGGA,000755.00,3352.3691,N,11931.7697,W,1,10,0.8,9.0,M,-33.9,M,,*53
$PYRTM,2024,123.005540876887,14.115188287025
$GPGGA,000756.00,3352.3692,N,11931.7691,W,1,10,0.8,9.1,M,-33.9,M,,*54
$PYRTM,2024,123.005551872106,14.115199282245
$GPGGA,000757.00,3352.3692,N,11931.7686,W,1,10,0.8,9.1,M,-33.9,M,,*53
$PYRTM,2024,123.005562883252,14.115210293403
$GPGGA,000758.00,3352.3693,N,11931.7681,W,1,10,0.8,9.1,M,-33.9,M,,*5A
$PYRTM,2024,123.005573983044,14.115221393183
$GPGGA,000759.00,3352.3695,N,11931.7678,W,1,10,0.8,9.2,M,-33.9,M,,*58
$PYRTM,2024,123.005584975347,14.115232385486
$GPGGA,000800.00,3352.3698,N,11931.7674,W,1,10,0.8,9.3,M,-33.9,M,,*5B
$PYRTM,2024,123.005595955683,14.115243365822
$GPGGA,000801.00,3352.3698,N,11931.7669,W,1,10,0.8,9.3,M,-33.9,M,,*56
$PYRTM,2024,123.005606954537,14.115254364676
$GPGGA,000802.00,3352.3699,N,11931.7664,W,1,10,0.8,9.4,M,-33.9,M,,*5E
$PYRTM,2024,123.005617949190,14.115265359340
$GPGGA,000803.00,3352.3700,N,11931.7661,W,1,10,0.8,9.4,M,-33.9,M,,*5B
$PYRTM,2024,123.005629059583,14.115276469722
$GPGGA,000804.00,3352.3703,N,11931.7657,W,1,10,0.8,9.3,M,-33.9,M,,*5D
$PYRTM,2024,123.005640066609,14.115287476748
$GPGGA,000805.00,3352.3705,N,11931.7652,W,1,10,0.8,9.1,M,-33.9,M,,*5D
$PYRTM,2024,123.005651062801,14.115298472940
$GPGGA,000806.00,3352.3706,N,11931.7645,W,1,10,0.8,6.1,M,-33.9,M,,*54
$PYRTM,2024,123.005662053854,14.115309463993
$GPGGA,000807.00,3352.3708,N,11931.7639,W,1,10,0.8,6.5,M,-33.9,M,,*54
$PYRTM,2024,123.005673503738,14.115320913877
$GPGGA,000808.00,3352.3709,N,11931.7634,W,1,10,0.8,6.3,M,-33.9,M,,*51
$PYRTM,2024,123.005684613414,14.115332023553
$GPGGA,000809.00,3352.3712,N,11931.7629,W,1,10,0.8,7.0,M,-33.9,M,,*54
$PYRTM,2024,123.005695618854,14.115343028993
$GPGGA,000810.00,3352.3714,N,11931.7623,W,1,10,0.8,7.3,M,-33.9,M,,*53
$PYRTM,2024,123.005706729410,14.115354139549
$GPGGA,000811.00,3352.3716,N,11931.7617,W,1,10,0.8,7.0,M,-33.9,M,,*54
$PYRTM,2024,123.005717731343,14.115365141481
$GPGGA,000812.00,3352.3718,N,11931.7613,W,1,10,0.8,7.0,M,-33.9,M,,*5D
$PYRTM,2024,123.005728840498,14.115376250637
$GPGGA,000813.00,3352.3720,N,11931.7608,W,1,10,0.8,6.7,M,-33.9,M,,*5B
$PYRTM,2024,123.005739825104,14.115387235243
$GPGGA,000814.00,3352.3723,N,11931.7604,W,1,10,0.8,7.2,M,-33.9,M,,*57
$PYRTM,2024,123.005750835150,14.115398245301
$GPGGA,000815.00,3352.3725,N,11931.7600,W,1,10,0.8,7.7,M,-33.9,M,,*51
$PYRTM,2024,123.005761930475,14.115409340613
$GPGGA,000816.00,3352.3726,N,11931.7595,W,1,10,0.8,7.8,M,-33.9,M,,*51
$PYRTM,2024,123.005772933657,14.115420343796
$GPGGA,000817.00,3352.3728,N,11931.7590,W,1,10,0.8,7.2,M,-33.9,M,,*51
$PYRTM,2024,123.005784169306,14.115431579444
$GPGGA,000818.00,3352.3730,N,11931.7586,W,1,10,0.8,7.2,M,-33.9,M,,*50
$PYRTM,2024,123.005795503241,14.115442913380
$GPGGA,000819.00,3352.3732,N,11931.7583,W,1,10,0.8,7.8,M,-33.9,M,,*5C
$PYRTM,2024,123.005807067951,14.115454478090
$GPGGA,000820.00,3352.3734,N,11931.7579,W,1,10,0.8,7.9,M,-33.9,M,,*54
$PYRTM,2024,123.005818650984,14.115466061123
$GPGGA,000821.00,3352.3735,N,11931.7575,W,1,10,0.8,9.0,M,-33.9,M,,*5F
$PYRTM,2024,123.005830217141,14.115477627280
$GPGGA,000822.00,3352.3738,N,11931.7569,W,1,10,0.8,10.4,M,-33.9,M,,*60
$PYRTM,2024,123.005841803322,14.115489213461
$GPGGA,000823.00,3352.3742,N,11931.7565,W,1,10,0.8,10.3,M,-33.9,M,,*67
$PYRTM,2024,123.005853365891,14.115500776030
$GPGGA,000824.00,3352.3746,N,11931.7563,W,1,10,0.8,10.2,M,-33.9,M,,*63
$PYRTM,2024,123.005864953553,14.115512363692
$GPGGA,000825.00,3352.3751,N,11931.7560,W,1,10,0.8,10.3,M,-33.9,M,,*66
$PYRTM,2024,123.005875253519,14.115522663657
$GPGGA,000826.00,3352.3755,N,11931.7557,W,1,10,0.8,9.8,M,-33.9,M,,*56
$PYRTM,2024,123.005887061678,14.115534471817
$GPGGA,000827.00,3352.3756,N,11931.7551,W,1,10,0.8,11.6,M,-33.9,M,,*65
$PYRTM,2024,123.005899659456,14.115547069595
$GPGGA,000828.00,3352.3758,N,11931.7547,W,1,10,0.8,11.4,M,-33.9,M,,*61
$PYRTM,2024,123.005911243287,14.115558653426
$GPGGA,000829.00,3352.3760,N,11931.7544,W,1,10,0.8,11.6,M,-33.9,M,,*6A
$PYRTM,2024,123.005922809190,14.115570219329
$GPGGA,000830.00,3352.3764,N,11931.7542,W,1,10,0.8,11.0,M,-33.9,M,,*66
$PYRTM,2024,123.005934397708,14.115581807847
$GPGGA,000831.00,3352.3766,N,11931.7538,W,1,10,0.8,11.0,M,-33.9,M,,*68
$PYRTM,2024,123.005945957083,14.115593367222
$GPGGA,000832.00,3352.3767,N,11931.7533,W,1,10,0.8,11.3,M,-33.9,M,,*62
$PYRTM,2024,123.005957544803,14.115604954942
$GPGGA,000833.00,3352.3768,N,11931.7528,W,1,10,0.8,11.4,M,-33.9,M,,*61
$PYRTM,2024,123.005969105278,14.115616515417
$GPGGA,000834.00,3352.3770,N,11931.7523,W,1,10,0.8,10.8,M,-33.9,M,,*69
$PYRTM,2024,123.005980693056,14.115628103194
$GPGGA,000835.00,3352.3774,N,11931.7520,W,1,10,0.8,10.6,M,-33.9,M,,*61
$PYRTM,2024,123.005992254144,14.115639664282
$GPGGA,000836.00,3352.3777,N,11931.7516,W,1,10,0.8,11.0,M,-33.9,M,,*63
$PYRTM,2024,123.006003841273,14.115651251424
$GPGGA,000837.00,3352.3778,N,11931.7510,W,1,10,0.8,10.7,M,-33.9,M,,*6D
$PYRTM,2024,123.006015403414,14.115662813553
