$PYRTM,2024,123.500008100197,14.609655510336
$GPGGA,115959.00,3416.3007,N,12039.1100,W,1,12,0.8,9.4,M,-33.8,M,,*50
$PYRTM,2024,123.500019664039,14.609667074178
$GPGGA,120000.00,3416.3010,N,12039.1119,W,1,12,0.8,8.3,M,-33.8,M,,*5B
$PYRTM,2024,123.500031252662,14.609678662801
$GPGGA,120001.00,3416.3015,N,12039.1130,W,1,12,0.8,7.4,M,-33.8,M,,*5C
$PYRTM,2024,123.500042810810,14.609690220949
$GPGGA,120002.00,3416.3020,N,12039.1139,W,1,12,0.8,7.5,M,-33.8,M,,*51
$PYRTM,2024,123.500054401562,14.609701811701
$GPGGA,120003.00,3416.3026,N,12039.1153,W,1,12,0.8,7.1,M,-33.8,M,,*5E
$PYRTM,2024,123.500065959259,14.609713369398
$GPGGA,120004.00,3416.3029,N,12039.1172,W,1,12,0.8,8.1,M,-33.8,M,,*5A
$PYRTM,2024,123.500077545880,14.609724956019
$GPGGA,120005.00,3416.3032,N,12039.1191,W,1,12,0.8,7.8,M,-33.8,M,,*5A
$PYRTM,2024,123.500089107373,14.609736517512
$GPGGA,120006.00,3416.3035,N,12039.1205,W,1,12,0.8,8.8,M,-33.8,M,,*5F
$PYRTM,2024,123.500100807222,14.609748217361
$GPGGA,120007.00,3416.3039,N,12039.1217,W,1,12,0.8,10.1,M,-33.8,M,,*61
$PYRTM,2024,123.500112255868,14.609759666007
$GPGGA,120008.00,3416.3044,N,12039.1231,W,1,12,0.8,9.9,M,-33.8,M,,*50
$PYRTM,2024,123.500123842963,14.609771253102
$GPGGA,120009.00,3416.3050,N,12039.1249,W,1,12,0.8,9.5,M,-33.8,M,,*57
$PYRTM,2024,123.500135403715,14.609782813854
$GPGGA,120010.00,3416.3055,N,12039.1266,W,1,12,0.8,7.4,M,-33.8,M,,*58
$PYRTM,2024,123.500146991100,14.609794401238
$GPGGA,120011.00,3416.3058,N,12039.1280,W,1,12,0.8,7.1,M,-33.8,M,,*59
$PYRTM,2024,123.500158552512,14.609805962650
$GPGGA,120012.00,3416.3059,N,12039.1294,W,1,12,0.8,8.6,M,-33.8,M,,*56
$PYRTM,2024,123.500169907801,14.609817317940
$GPGGA,120013.00,3416.3062,N,12039.1308,W,1,12,0.8,9.3,M,-33.8,M,,*5F
$PYRTM,2024,123.500182871644,14.609830281782
$GPGGA,120014.00,3416.3068,N,12039.1325,W,1,12,0.8,9.3,M,-33.8,M,,*5D
$PYRTM,2024,123.500194445718,14.609841855868
$GPGGA,120015.00,3416.3071,N,12039.1342,W,1,12,0.8,9.2,M,-33.8,M,,*54
$PYRTM,2024,123.500206020266,14.609853430405
$GPGGA,120016.00,3416.3074,N,12039.1356,W,1,12,0.8,9.0,M,-33.8,M,,*55
$PYRTM,2024,123.500217593102,14.609865003241
$GPGGA,120017.00,3416.3079,N,12039.1370,W,1,12,0.8,9.1,M,-33.8,M,,*5C
$PYRTM,2024,123.500229630417,14.609877040556
$GPGGA,120018.00,3416.3085,N,12039.1382,W,1,12,0.8,9.0,M,-33.8,M,,*5C
$PYRTM,2024,123.500240741944,14.609888152083
$GPGGA,120019.00,3416.3093,N,12039.1396,W,1,12,0.8,6.8,M,-33.8,M,,*58
$PYRTM,2024,123.500252316285,14.609899726424
$GPGGA,120020.00,3416.3098,N,12039.1414,W,1,12,0.8,7.5,M,-33.8,M,,*58
$PYRTM,2024,123.500263890405,14.609911300544
$GPGGA,120021.00,3416.3099,N,12039.1432,W,1,12,0.8,8.2,M,-33.8,M,,*54
$PYRTM,2024,123.500275467153,14.609922877292
$GPGGA,120022.00,3416.3103,N,12039.1449,W,1,12,0.8,8.0,M,-33.8,M,,*5B
$PYRTM,2024,123.500287037650,14.609934447789
$GPGGA,120023.00,3416.3111,N,12039.1462,W,1,12,0.8,8.1,M,-33.8,M,,*51
$PYRTM,2024,123.500298628542,14.609946038681
$GPGGA,120024.00,3416.3118,N,12039.1471,W,1,12,0.8,8.6,M,-33.8,M,,*5A
$PYRTM,2024,123.500310187014,14.609957597153
$GPGGA,120025.00,3416.3121,N,12039.1483,W,1,12,0.8,9.2,M,-33.8,M,,*59
$PYRTM,2024,123.500321765683,14.609969175822
$GPGGA,120026.00,3416.3122,N,12039.1503,W,1,12,0.8,8.7,M,-33.8,M,,*54
$PYRTM,2024,123.500333335463,14.609980745602
$GPGGA,120027.00,3416.3127,N,12039.1524,W,1,12,0.8,7.9,M,-33.8,M,,*54
$PYRTM,2024,123.500344910498,14.609992320637
$GPGGA,120028.00,3416.3132,N,12039.1536,W,1,12,0.8,6.8,M,-33.8,M,,*5C
$PYRTM,2024,123.500356485046,14.610003895185
$GPGGA,120029.00,3416.3138,N,12039.1544,W,1,12,0.8,6.8,M,-33.8,M,,*52
$PYRTM,2024,123.500368053252,14.610015463391
$GPGGA,120030.00,3416.3146,N,12039.1557,W,1,12,0.8,8.0,M,-33.8,M,,*57
$PYRTM,2024,123.500379632257,14.610027042396
$GPGGA,120031.00,3416.3151,N,12039.1577,W,1,12,0.8,8.0,M,-33.8,M,,*52
$PYRTM,2024,123.500391206192,14.610038616331
$GPGGA,120032.00,3416.3152,N,12039.1595,W,1,12,0.8,9.5,M,-33.8,M,,*5A
$PYRTM,2024,123.500402775532,14.610050185671
$GPGGA,120033.00,3416.3154,N,12039.1605,W,1,12,0.8,10.2,M,-33.8,M,,*68
$PYRTM,2024,123.500414355532,14.610061765671
$GPGGA,120034.00,3416.3162,N,12039.1614,W,1,12,0.8,10.2,M,-33.8,M,,*6A
$PYRTM,2024,123.500425930648,14.610073340787
$GPGGA,120035.00,3416.3170,N,12039.1630,W,1,12,0.8,7.0,M,-33.8,M,,*5A
$PYRTM,2024,123.500437502407,14.610084912546
$GPGGA,120036.00,3416.3176,N,12039.1648,W,1,12,0.8,6.3,M,-33.8,M,,*52
$PYRTM,2024,123.500449076921,14.610096487060
$GPGGA,120037.00,3416.3177,N,12039.1662,W,1,12,0.8,5.5,M,-33.8,M,,*5F
$PYRTM,2024,123.500460655197,14.610108065336
$GPGGA,120038.00,3416.3178,N,12039.1673,W,1,12,0.8,6.3,M,-33.8,M,,*5A
$PYRTM,2024,123.500472225729,14.610119635868
$GPGGA,120039.00,3416.3183,N,12039.1684,W,1,12,0.8,7.5,M,-33.8,M,,*50
$PYRTM,2024,123.500483802766,14.610131212905
$GPGGA,120040.00,3416.3188,N,12039.1698,W,1,12,0.8,8.0,M,-33.8,M,,*52
$PYRTM,2024,123.500495373403,14.610142783542
$GPGGA,120041.00,3416.3192,N,12039.1714,W,1,12,0.8,7.2,M,-33.8,M,,*50
$PYRTM,2024,123.500506948600,14.610154358738
$GPGGA,120042.00,3416.3195,N,12039.1727,W,1,12,0.8,6.0,M,-33.8,M,,*57
$PYRTM,2024,123.500520027060,14.610167437199
$GPGGA,120043.00,3416.3200,N,12039.1738,W,1,12,0.8,5.5,M,-33.8,M,,*51
$PYRTM,2024,123.500532284838,14.610179694977
$GPGGA,120044.00,3416.3204,N,12039.1750,W,1,12,0.8,5.6,M,-33.8,M,,*5F
$PYRTM,2024,123.500541665394,14.610189075532
$GPGGA,120045.00,3416.3210,N,12039.1767,W,1,12,0.8,6.0,M,-33.8,M,,*5A
$PYRTM,2024,123.500553244306,14.610200654444
$GPGGA,120046.00,3416.3215,N,12039.1784,W,1,12,0.8,6.7,M,-33.8,M,,*56
$PYRTM,2024,123.500564817708,14.610212227847
$GPGGA,120047.00,3416.3220,N,12039.1795,W,1,12,0.8,7.0,M,-33.8,M,,*57
$PYRTM,2024,123.500576854792,14.610224264931
$GPGGA,120048.00,3416.3227,N,12039.1807,W,1,12,0.8,6.8,M,-33.8,M,,*52
$PYRTM,2024,123.500587966331,14.610235376470
$GPGGA,120049.00,3416.3233,N,12039.1824,W,1,12,0.8,7.3,M,-33.8,M,,*5D
$PYRTM,2024,123.500599539942,14.610246950081
$GPGGA,120050.00,3416.3238,N,12039.1839,W,1,12,0.8,7.2,M,-33.8,M,,*53
$PYRTM,2024,123.500611111053,14.610258521192
$GPGGA,120051.00,3416.3241,N,12039.1848,W,1,12,0.8,6.8,M,-33.8,M,,*51
$PYRTM,2024,123.500622703681,14.610270113819
$GPGGA,120052.00,3416.3245,N,12039.1857,W,1,12,0.8,7.1,M,-33.8,M,,*50
$PYRTM,2024,123.500634264190,14.610281674329
$GPGGA,120053.00,3416.3251,N,12039.1873,W,1,12,0.8,7.1,M,-33.8,M,,*52
$PYRTM,2024,123.500645840683,14.610293250822
$GPGGA,120054.00,3416.3257,N,12039.1890,W,1,12,0.8,7.6,M,-33.8,M,,*59
$PYRTM,2024,123.500657412130,14.610304822269
$GPGGA,120055.00,3416.3258,N,12039.1901,W,1,12,0.8,8.0,M,-33.8,M,,*57
$PYRTM,2024,123.500668987813,14.610316397951
$GPGGA,120056.00,3416.3259,N,12039.1913,W,1,12,0.8,7.9,M,-33.8,M,,*50
$PYRTM,2024,123.500680561400,14.610327971539
$GPGGA,120057.00,3416.3264,N,12039.1929,W,1,12,0.8,8.1,M,-33.8,M,,*51
$PYRTM,2024,123.500692134618,14.610339544757
$GPGGA,120058.00,3416.3271,N,12039.1944,W,1,12,0.8,7.2,M,-33.8,M,,*5D
$PYRTM,2024,123.500703709769,14.610351119907
$GPGGA,120059.00,3416.3274,N,12039.1953,W,1,12,0.8,7.6,M,-33.8,M,,*5B
$PYRTM,2024,123.500715282604,14.610362692743
$GPGGA,120100.00,3416.3273,N,12039.1966,W,1,12,0.8,8.6,M,-33.8,M,,*58
$PYRTM,2024,123.500726856979,14.610374267118
$GPGGA,120101.00,3416.3275,N,12039.1984,W,1,12,0.8,6.5,M,-33.8,M,,*5E
$PYRTM,2024,123.500738426111,14.610385836250
$GPGGA,120102.00,3416.3280,N,12039.1999,W,1,12,0.8,7.5,M,-33.8,M,,*5A
$PYRTM,2024,123.500750005417,14.610397415556
$GPGGA,120103.00,3416.3282,N,12039.2009,W,1,12,0.8,8.5,M,-33.8,M,,*55
$PYRTM,2024,123.500761580255,14.610408990405
$GPGGA,120104.00,3416.3282,N,12039.2022,W,1,12,0.8,8.9,M,-33.8,M,,*57
$PYRTM,2024,123.500773154456,14.610420564595
$GPGGA,120105.00,3416.3284,N,12039.2039,W,1,12,0.8,8.7,M,-33.8,M,,*54
$PYRTM,2024,123.500784732060,14.610432142199
$GPGGA,120106.00,3416.3289,N,12039.2051,W,1,12,0.8,8.8,M,-33.8,M,,*5B
$PYRTM,2024,123.500796296968,14.610443707106
$GPGGA,120107.00,3416.3293,N,12039.2060,W,1,12,0.8,9.2,M,-33.8,M,,*58
$PYRTM,2024,123.500807879317,14.610455289468
$GPGGA,120108.00,3416.3294,N,12039.2073,W,1,12,0.8,9.0,M,-33.8,M,,*50
$PYRTM,2024,123.500819450012,14.610466860150
$GPGGA,120109.00,3416.3296,N,12039.2091,W,1,12,0.8,7.1,M,-33.8,M,,*50
$PYRTM,2024,123.500831028843,14.610478438981
$GPGGA,120110.00,3416.3300,N,12039.2107,W,1,12,0.8,7.3,M,-33.8,M,,*5A
$PYRTM,2024,123.500842598993,14.610490009132
$GPGGA,120111.00,3416.3303,N,12039.2118,W,1,12,0.8,8.4,M,-33.8,M,,*5E
$PYRTM,2024,123.500854173032,14.610501583171
$GPGGA,120112.00,3416.3304,N,12039.2129,W,1,12,0.8,8.3,M,-33.8,M,,*5F
$PYRTM,2024,123.500866777153,14.610514187292
$GPGGA,120113.00,3416.3307,N,12039.2143,W,1,12,0.8,9.4,M,-33.8,M,,*57
$PYRTM,2024,123.500879509375,14.610526919514
$GPGGA,120114.00,3416.3312,N,12039.2160,W,1,12,0.8,8.8,M,-33.8,M,,*58
$PYRTM,2024,123.500888896690,14.610536306829
$GPGGA,120115.00,3416.3317,N,12039.2175,W,1,12,0.8,8.0,M,-33.8,M,,*50
$PYRTM,2024,123.500900469954,14.610547880093
$GPGGA,120116.00,3416.3322,N,12039.2188,W,1,12,0.8,7.5,M,-33.8,M,,*5D
$PYRTM,2024,123.500912043252,14.610559453391
$GPGGA,120117.00,3416.3325,N,12039.2202,W,1,12,0.8,7.9,M,-33.8,M,,*56
$PYRTM,2024,123.500923965162,14.610571375301
$GPGGA,120118.00,3416.3329,N,12039.2216,W,1,12,0.8,9.0,M,-33.8,M,,*57
$PYRTM,2024,123.500935192060,14.610582602199
$GPGGA,120119.00,3416.3332,N,12039.2231,W,1,12,0.8,9.9,M,-33.8,M,,*50
$PYRTM,2024,123.500946768438,14.610594178576
$GPGGA,120120.00,3416.3335,N,12039.2247,W,1,12,0.8,10.6,M,-33.8,M,,*6B
$PYRTM,2024,123.500958340417,14.610605750556
$GPGGA,120121.00,3416.3341,N,12039.2264,W,1,12,0.8,10.3,M,-33.8,M,,*6D
$PYRTM,2024,123.500969918657,14.610617328796
$GPGGA,120122.00,3416.3347,N,12039.2280,W,1,12,0.8,9.1,M,-33.8,M,,*58
$PYRTM,2024,123.500981489838,14.610628899977
$GPGGA,120123.00,3416.3350,N,12039.2292,W,1,12,0.8,9.4,M,-33.8,M,,*59
$PYRTM,2024,123.500993065787,14.610640475926
$GPGGA,120124.00,3416.3351,N,12039.2303,W,1,12,0.8,9.7,M,-33.8,M,,*55
$PYRTM,2024,123.501004637396,14.610652047535
$GPGGA,120125.00,3416.3354,N,12039.2319,W,1,12,0.8,7.8,M,-33.8,M,,*5B
$PYRTM,2024,123.501016212674,14.610663622812
$GPGGA,120126.00,3416.3360,N,12039.2336,W,1,12,0.8,6.8,M,-33.8,M,,*53
$PYRTM,2024,123.501027786100,14.610675196238
$GPGGA,120127.00,3416.3366,N,12039.2347,W,1,12,0.8,6.1,M,-33.8,M,,*5B
$PYRTM,2024,123.501039359583,14.610686769722
$GPGGA,120128.00,3416.3372,N,12039.2355,W,1,12,0.8,6.9,M,-33.8,M,,*5A
$PYRTM,2024,123.501050930486,14.610698340625
$GPGGA,120129.00,3416.3376,N,12039.2366,W,1,12,0.8,7.4,M,-33.8,M,,*53
$PYRTM,2024,123.501062508345,14.610709918484
$GPGGA,120130.00,3416.3378,N,12039.2378,W,1,12,0.8,8.2,M,-33.8,M,,*53
$PYRTM,2024,123.501073156725,14.610720566863
$GPGGA,120131.00,3416.3376,N,12039.2395,W,1,12,0.8,8.3,M,-33.8,M,,*5E
$PYRTM,2024,123.501085193414,14.610732603553
$GPGGA,120132.00,3416.3378,N,12039.2416,W,1,12,0.8,7.3,M,-33.8,M,,*50
$PYRTM,2024,123.501095378958,14.610742789097
$GPGGA,120133.00,3416.3386,N,12039.2432,W,1,12,0.8,5.1,M,-33.8,M,,*56
$PYRTM,2024,123.501111929792,14.610759339931
$GPGGA,120134.00,3416.3394,N,12039.2439,W,1,12,0.8,5.4,M,-33.8,M,,*5C
$PYRTM,2024,123.501123040532,14.610770450671
$GPGGA,120135.00,3416.3397,N,12039.2446,W,1,12,0.8,7.6,M,-33.8,M,,*56
$PYRTM,2024,123.501134139942,14.610781550081
$GPGGA,120136.00,3416.3396,N,12039.2462,W,1,12,0.8,9.3,M,-33.8,M,,*59
$PYRTM,2024,123.501145262477,14.610792672616
$GPGGA,120137.00,3416.3397,N,12039.2482,W,1,12,0.8,7.5,M,-33.8,M,,*5F
$PYRTM,2024,123.501156262049,14.610803672187
$GPGGA,120138.00,3416.3402,N,12039.2498,W,1,12,0.8,6.6,M,-33.8,M,,*52
$PYRTM,2024,123.501167370694,14.610814780833
$GPGGA,120139.00,3416.3409,N,12039.2506,W,1,12,0.8,6.0,M,-33.8,M,,*58
$PYRTM,2024,123.501178476574,14.610825886713
$GPGGA,120140.00,3416.3413,N,12039.2514,W,1,12,0.8,6.3,M,-33.8,M,,*5D
$PYRTM,2024,123.501189595498,14.610837005637
$GPGGA,120141.00,3416.3416,N,12039.2528,W,1,12,0.8,5.6,M,-33.8,M,,*50
$PYRTM,2024,123.501200703993,14.610848114144
$GPGGA,120142.00,3416.3421,N,12039.2548,W,1,12,0.8,3.9,M,-33.8,M,,*58
$PYRTM,2024,123.501211819433,14.610859229583
$GPGGA,120143.00,3416.3426,N,12039.2565,W,1,12,0.8,4.6,M,-33.8,M,,*59
$PYRTM,2024,123.501223375787,14.610870785926
$GPGGA,120144.00,3416.3429,N,12039.2575,W,1,12,0.8,5.7,M,-33.8,M,,*50
$PYRTM,2024,123.501234963877,14.610882374016
$GPGGA,120145.00,3416.3432,N,12039.2588,W,1,12,0.8,5.8,M,-33.8,M,,*56
$PYRTM,2024,123.501246526308,14.610893936447
$GPGGA,120146.00,3416.3438,N,12039.2604,W,1,12,0.8,6.4,M,-33.8,M,,*57
$PYRTM,2024,123.501258112477,14.610905522616
$GPGGA,120147.00,3416.3445,N,12039.2619,W,1,12,0.8,6.2,M,-33.8,M,,*56
$PYRTM,2024,123.501269674537,14.610917084676
$GPGGA,120148.00,3416.3450,N,12039.2630,W,1,12,0.8,5.7,M,-33.8,M,,*50
$PYRTM,2024,123.501281260694,14.610928670845
$GPGGA,120149.00,3416.3453,N,12039.2642,W,1,12,0.8,5.8,M,-33.8,M,,*58
$PYRTM,2024,123.501292821655,14.610940231806
$GPGGA,120150.00,3416.3457,N,12039.2657,W,1,12,0.8,5.8,M,-33.8,M,,*50
$PYRTM,2024,123.501304408461,14.610951818600
$GPGGA,120151.00,3416.3463,N,12039.2672,W,1,12,0.8,6.3,M,-33.8,M,,*59
$PYRTM,2024,123.501315971146,14.610963381285
$GPGGA,120152.00,3416.3470,N,12039.2687,W,1,12,0.8,6.6,M,-33.8,M,,*57
$PYRTM,2024,123.501327559363,14.610974969502
$GPGGA,120153.00,3416.3477,N,12039.2702,W,1,12,0.8,6.8,M,-33.8,M,,*53
$PYRTM,2024,123.501339118715,14.610986528854
$GPGGA,120154.00,3416.3483,N,12039.2716,W,1,12,0.8,6.8,M,-33.8,M,,*5A
$PYRTM,2024,123.501350704850,14.610998114988
$GPGGA,120155.00,3416.3487,N,12039.2728,W,1,12,0.8,6.7,M,-33.8,M,,*5D
$PYRTM,2024,123.501362266435,14.611009676574
$GPGGA,120156.00,3416.3491,N,12039.2743,W,1,12,0.8,6.4,M,-33.8,M,,*57
$PYRTM,2024,123.501373856898,14.611021267037
$GPGGA,120157.00,3416.3496,N,12039.2761,W,1,12,0.8,5.0,M,-33.8,M,,*56
$PYRTM,2024,123.501385416088,14.611032826227
$GPGGA,120158.00,3416.3502,N,12039.2778,W,1,12,0.8,5.4,M,-33.8,M,,*59
$PYRTM,2024,123.501397002836,14.611044412975
$GPGGA,120159.00,3416.3510,N,12039.2789,W,1,12,0.8,6.4,M,-33.8,M,,*56
$PYRTM,2024,123.501408563009,14.611055973160
$GPGGA,120200.00,3416.3516,N,12039.2800,W,1,12,0.8,7.1,M,-33.8,M,,*55
$PYRTM,2024,123.501420150127,14.611067560266
$GPGGA,120201.00,3416.3519,N,12039.2816,W,1,12,0.8,6.0,M,-33.8,M,,*5C
$PYRTM,2024,123.501431713611,14.611079123750
$GPGGA,120202.00,3416.3521,N,12039.2837,W,1,12,0.8,8.0,M,-33.8,M,,*59
$PYRTM,2024,123.501443298993,14.611090709144
$GPGGA,120203.00,3416.3525,N,12039.2853,W,1,12,0.8,7.6,M,-33.8,M,,*57
$PYRTM,2024,123.501454859769,14.611102269907
$GPGGA,120204.00,3416.3532,N,12039.2863,W,1,12,0.8,7.5,M,-33.8,M,,*56
$PYRTM,2024,123.501466449155,14.611113859294
$GPGGA,120205.00,3416.3538,N,12039.2876,W,1,12,0.8,6.7,M,-33.8,M,,*5A
$PYRTM,2024,123.501478009306,14.611125419444
$GPGGA,120206.00,3416.3544,N,12039.2895,W,1,12,0.8,5.8,M,-33.8,M,,*53
$PYRTM,2024,123.501489595880,14.611137006019
$GPGGA,120207.00,3416.3547,N,12039.2914,W,1,12,0.8,7.1,M,-33.8,M,,*52
$PYRTM,2024,123.501501157847,14.611148567986
$GPGGA,120208.00,3416.3549,N,12039.2925,W,1,12,0.8,9.0,M,-33.8,M,,*5E
$PYRTM,2024,123.501512859433,14.611160269572
$GPGGA,120209.00,3416.3553,N,12039.2935,W,1,12,0.8,10.5,M,-33.8,M,,*68
$PYRTM,2024,123.501524305706,14.611171715845
$GPGGA,120210.00,3416.3560,N,12039.2951,W,1,12,0.8,9.8,M,-33.8,M,,*57
$PYRTM,2024,123.501535894514,14.611183304653
$GPGGA,120211.00,3416.3566,N,12039.2970,W,1,12,0.8,7.0,M,-33.8,M,,*55
$PYRTM,2024,123.501547453669,14.611194863808
$GPGGA,120212.00,3416.3570,N,12039.2985,W,1,12,0.8,6.5,M,-33.8,M,,*5F
$PYRTM,2024,123.501558813356,14.611206223507
$GPGGA,120213.00,3416.3572,N,12039.2995,W,1,12,0.8,7.2,M,-33.8,M,,*5B
$PYRTM,2024,123.501571772095,14.611219182234
$GPGGA,120214.00,3416.3573,N,12039.3003,W,1,12,0.8,8.3,M,-33.8,M,,*54
$PYRTM,2024,123.501583346493,14.611230756632
$GPGGA,120215.00,3416.3578,N,12039.3018,W,1,12,0.8,10.0,M,-33.8,M,,*6E
$PYRTM,2024,123.501594922650,14.611242332789
$GPGGA,120216.00,3416.3585,N,12039.3035,W,1,12,0.8,6.6,M,-33.8,M,,*51
$PYRTM,2024,123.501606495718,14.611253905856
$GPGGA,120217.00,3416.3591,N,12039.3050,W,1,12,0.8,6.0,M,-33.8,M,,*50
$PYRTM,2024,123.501618416852,14.611265826991
$GPGGA,120218.00,3416.3593,N,12039.3060,W,1,12,0.8,6.2,M,-33.8,M,,*5C
$PYRTM,2024,123.501629642917,14.611277053056
$GPGGA,120219.00,3416.3594,N,12039.3071,W,1,12,0.8,6.5,M,-33.8,M,,*5D
$PYRTM,2024,123.501641230845,14.611288640984
$GPGGA,120220.00,3416.3598,N,12039.3085,W,1,12,0.8,7.7,M,-33.8,M,,*53
$PYRTM,2024,123.501652791944,14.611300202083
$GPGGA,120221.00,3416.3604,N,12039.3101,W,1,12,0.8,8.8,M,-33.8,M,,*59
$PYRTM,2024,123.501664364896,14.611311775127
$GPGGA,120222.00,3416.3609,N,12039.3114,W,1,12,0.8,8.5,M,-33.8,M,,*5E
$PYRTM,2024,123.501676273403,14.611323683553
$GPGGA,120223.00,3416.3613,N,12039.3129,W,1,12,0.8,8.1,M,-33.8,M,,*5E
$PYRTM,2024,123.501687513461,14.611334923600
$GPGGA,120224.00,3416.3617,N,12039.3144,W,1,12,0.8,7.4,M,-33.8,M,,*5C
$PYRTM,2024,123.501699083993,14.611346494132
$GPGGA,120225.00,3416.3622,N,12039.3158,W,1,12,0.8,7.4,M,-33.8,M,,*56
$PYRTM,2024,123.501710663356,14.611358073495
$GPGGA,120226.00,3416.3626,N,12039.3170,W,1,12,0.8,7.7,M,-33.8,M,,*58
$PYRTM,2024,123.501722236319,14.611369646458
$GPGGA,120227.00,3416.3630,N,12039.3186,W,1,12,0.8,8.1,M,-33.8,M,,*5E
$PYRTM,2024,123.501733812245,14.611381222384
$GPGGA,120228.00,3416.3634,N,12039.3203,W,1,12,0.8,7.9,M,-33.8,M,,*5C
$PYRTM,2024,123.501745384491,14.611392794630
$GPGGA,120229.00,3416.3638,N,12039.3220,W,1,12,0.8,7.5,M,-33.8,M,,*5C
$PYRTM,2024,123.501756959514,14.611404369653
$GPGGA,120230.00,3416.3644,N,12039.3234,W,1,12,0.8,6.9,M,-33.8,M,,*57
$PYRTM,2024,123.501768532361,14.611415942500
$GPGGA,120231.00,3416.3652,N,12039.3247,W,1,12,0.8,6.8,M,-33.8,M,,*54
$PYRTM,2024,123.501780121412,14.611427531562
$GPGGA,120232.00,3416.3658,N,12039.3261,W,1,12,0.8,7.0,M,-33.8,M,,*50
$PYRTM,2024,123.501791676065,14.611439086204
$GPGGA,120233.00,3416.3661,N,12039.3275,W,1,12,0.8,7.7,M,-33.8,M,,*59
$PYRTM,2024,123.501803259294,14.611450669444
$GPGGA,120234.00,3416.3663,N,12039.3292,W,1,12,0.8,8.1,M,-33.8,M,,*5C
$PYRTM,2024,123.501814829294,14.611462239444
$GPGGA,120235.00,3416.3667,N,12039.3314,W,1,12,0.8,7.3,M,-33.8,M,,*5B
$PYRTM,2024,123.501826402616,14.611473812755
$GPGGA,120236.00,3416.3673,N,12039.3332,W,1,12,0.8,7.8,M,-33.8,M,,*52
$PYRTM,2024,123.501837983646,14.611485393785
$GPGGA,120237.00,3416.3680,N,12039.3342,W,1,12,0.8,8.0,M,-33.8,M,,*5F
$PYRTM,2024,123.501849554606,14.611496964745
$GPGGA,120238.00,3416.3689,N,12039.3352,W,1,12,0.8,7.9,M,-33.8,M,,*5E
$PYRTM,2024,123.501861121667,14.611508531806
$GPGGA,120239.00,3416.3696,N,12039.3369,W,1,12,0.8,8.8,M,-33.8,M,,*57
$PYRTM,2024,123.501872706678,14.611520116817
$GPGGA,120240.00,3416.3698,N,12039.3390,W,1,12,0.8,8.6,M,-33.8,M,,*5F
$PYRTM,2024,123.501884274259,14.611531684398
$GPGGA,120241.00,3416.3698,N,12039.3407,W,1,12,0.8,8.9,M,-33.8,M,,*58
$PYRTM,2024,123.501895850023,14.611543260162
$GPGGA,120242.00,3416.3705,N,12039.3418,W,1,12,0.8,9.1,M,-33.8,M,,*59
$PYRTM,2024,123.501908453137,14.611555863275
$GPGGA,120243.00,3416.3716,N,12039.3430,W,1,12,0.8,8.3,M,-33.8,M,,*53
$PYRTM,2024,123.501921184792,14.611568594931
$GPGGA,120244.00,3416.3722,N,12039.3446,W,1,12,0.8,7.3,M,-33.8,M,,*5D
$PYRTM,2024,123.501930571100,14.611577981238
$GPGGA,120245.00,3416.3723,N,12039.3465,W,1,12,0.8,7.1,M,-33.8,M,,*5E
$PYRTM,2024,123.501942146053,14.611589556192
$GPGGA,120246.00,3416.3724,N,12039.3481,W,1,12,0.8,7.9,M,-33.8,M,,*58
$PYRTM,2024,123.501953720532,14.611601130671
$GPGGA,120247.00,3416.3728,N,12039.3492,W,1,12,0.8,8.8,M,-33.8,M,,*59
$PYRTM,2024,123.501965636331,14.611613046470
$GPGGA,120248.00,3416.3735,N,12039.3505,W,1,12,0.8,8.3,M,-33.8,M,,*5E
$PYRTM,2024,123.501976863762,14.611624273900
$GPGGA,120249.00,3416.3743,N,12039.3524,W,1,12,0.8,6.7,M,-33.8,M,,*57
$PYRTM,2024,123.501988442593,14.611635852731
$GPGGA,120250.00,3416.3747,N,12039.3541,W,1,12,0.8,7.4,M,-33.8,M,,*5A
$PYRTM,2024,123.502000017164,14.611647427303
$GPGGA,120251.00,3416.3748,N,12039.3554,W,1,12,0.8,8.1,M,-33.8,M,,*5A
$PYRTM,2024,123.502011585602,14.611658995741
$GPGGA,120252.00,3416.3750,N,12039.3567,W,1,12,0.8,8.2,M,-33.8,M,,*53
$PYRTM,2024,123.502023164826,14.611670574965
$GPGGA,120253.00,3416.3755,N,12039.3583,W,1,12,0.8,9.1,M,-33.8,M,,*5F
$PYRTM,2024,123.502034726250,14.611682136400
$GPGGA,120254.00,3416.3760,N,12039.3601,W,1,12,0.8,9.6,M,-33.8,M,,*50
$PYRTM,2024,123.502046313148,14.611693723287
$GPGGA,120255.00,3416.3766,N,12039.3614,W,1,12,0.8,9.1,M,-33.8,M,,*54
$PYRTM,2024,123.502057874120,14.611705284259
$GPGGA,120256.00,3416.3769,N,12039.3626,W,1,12,0.8,9.3,M,-33.8,M,,*5B
$PYRTM,2024,123.502069460903,14.611716871053
$GPGGA,120257.00,3416.3774,N,12039.3641,W,1,12,0.8,9.2,M,-33.8,M,,*56
$PYRTM,2024,123.502081021250,14.611728431389
$GPGGA,120258.00,3416.3780,N,12039.3660,W,1,12,0.8,6.6,M,-33.8,M,,*5A
$PYRTM,2024,123.502092610000,14.611740020139
$GPGGA,120259.00,3416.3787,N,12039.3676,W,1,12,0.8,7.5,M,-33.8,M,,*59
$PYRTM,2024,123.502104171481,14.611751581620
$GPGGA,120300.00,3416.3793,N,12039.3687,W,1,12,0.8,9.3,M,-33.8,M,,*57
$PYRTM,2024,123.502115757894,14.611763168044
$GPGGA,120301.00,3416.3798,N,12039.3699,W,1,12,0.8,10.1,M,-33.8,M,,*68
$PYRTM,2024,123.502127317257,14.611774727396
$GPGGA,120302.00,3416.3802,N,12039.3719,W,1,12,0.8,9.4,M,-33.8,M,,*53
$PYRTM,2024,123.502138910961,14.611786321100
$GPGGA,120303.00,3416.3807,N,12039.3740,W,1,12,0.8,8.2,M,-33.8,M,,*5C
$PYRTM,2024,123.502150468484,14.611797878623
$GPGGA,120304.00,3416.3813,N,12039.3751,W,1,12,0.8,7.4,M,-33.8,M,,*57
$PYRTM,2024,123.502162054468,14.611809464606
$GPGGA,120305.00,3416.3817,N,12039.3756,W,1,12,0.8,8.1,M,-33.8,M,,*5F
$PYRTM,2024,123.502173614132,14.611821024282
$GPGGA,120306.00,3416.3823,N,12039.3766,W,1,12,0.8,8.9,M,-33.8,M,,*50
$PYRTM,2024,123.502185208206,14.611832618345
$GPGGA,120307.00,3416.3828,N,12039.3786,W,1,12,0.8,9.2,M,-33.8,M,,*5E
$PYRTM,2024,123.502196763310,14.611844173449
$GPGGA,120308.00,3416.3832,N,12039.3808,W,1,12,0.8,8.7,M,-33.8,M,,*57
$PYRTM,2024,123.502208352940,14.611855763079
$GPGGA,120309.00,3416.3836,N,12039.3819,W,1,12,0.8,8.7,M,-33.8,M,,*52
$PYRTM,2024,123.502219914074,14.611867324213
$GPGGA,120310.00,3416.3840,N,12039.3824,W,1,12,0.8,9.7,M,-33.8,M,,*54
$PYRTM,2024,123.502231494942,14.611878905081
$GPGGA,120311.00,3416.3847,N,12039.3833,W,1,12,0.8,10.4,M,-33.8,M,,*6F
$PYRTM,2024,123.502243060046,14.611890470185
$GPGGA,120312.00,3416.3853,N,12039.3851,W,1,12,0.8,9.7,M,-33.8,M,,*56
$PYRTM,2024,123.502256153576,14.611903563715
$GPGGA,120313.00,3416.3858,N,12039.3867,W,1,12,0.8,8.2,M,-33.8,M,,*5D
$PYRTM,2024,123.502268408796,14.611915818935
$GPGGA,120314.00,3416.3865,N,12039.3877,W,1,12,0.8,7.2,M,-33.8,M,,*5A
$PYRTM,2024,123.502277796366,14.611925206505
$GPGGA,120315.00,3416.3873,N,12039.3886,W,1,12,0.8,7.3,M,-33.8,M,,*53
$PYRTM,2024,123.502289355521,14.611936765648
$GPGGA,120316.00,3416.3881,N,12039.3897,W,1,12,0.8,7.3,M,-33.8,M,,*5D
$PYRTM,2024,123.502300945197,14.611948355347
$GPGGA,120317.00,3416.3883,N,12039.3915,W,1,12,0.8,7.8,M,-33.8,M,,*5E
$PYRTM,2024,123.502312869595,14.611960279734
$GPGGA,120318.00,3416.3884,N,12039.3934,W,1,12,0.8,7.2,M,-33.8,M,,*5F
$PYRTM,2024,123.502324093090,14.611971503229
$GPGGA,120319.00,3416.3889,N,12039.3945,W,1,12,0.8,7.4,M,-33.8,M,,*53
$PYRTM,2024,123.502335654155,14.611983064294
$GPGGA,120320.00,3416.3900,N,12039.3953,W,1,12,0.8,8.3,M,-33.8,M,,*56
$PYRTM,2024,123.502347240613,14.611994650752
$GPGGA,120321.00,3416.3909,N,12039.3964,W,1,12,0.8,7.0,M,-33.8,M,,*56
$PYRTM,2024,123.502358803137,14.612006213287
$GPGGA,120322.00,3416.3912,N,12039.3983,W,1,12,0.8,5.0,M,-33.8,M,,*54
$PYRTM,2024,123.502370396840,14.612017806979
$GPGGA,120323.00,3416.3912,N,12039.4004,W,1,12,0.8,4.9,M,-33.8,M,,*5C
$PYRTM,2024,123.502381950949,14.612029361088
$GPGGA,120324.00,3416.3917,N,12039.4017,W,1,12,0.8,5.6,M,-33.8,M,,*52
$PYRTM,2024,123.502393541238,14.612040951377
$GPGGA,120325.00,3416.3928,N,12039.4023,W,1,12,0.8,6.8,M,-33.8,M,,*55
$PYRTM,2024,123.502405099410,14.612052509549
$GPGGA,120326.00,3416.3936,N,12039.4032,W,1,12,0.8,7.3,M,-33.8,M,,*53
$PYRTM,2024,123.502416691343,14.612064101481
$GPGGA,120327.00,3416.3939,N,12039.4050,W,1,12,0.8,7.7,M,-33.8,M,,*5D
$PYRTM,2024,123.502428250613,14.612075660764
$GPGGA,120328.00,3416.3940,N,12039.4070,W,1,12,0.8,7.5,M,-33.8,M,,*5C
$PYRTM,2024,123.502439839433,14.612087249572
$GPGGA,120329.00,3416.3941,N,12039.4082,W,1,12,0.8,6.9,M,-33.8,M,,*5C
$PYRTM,2024,123.502451397361,14.612098807500
$GPGGA,120330.00,3416.3945,N,12039.4091,W,1,12,0.8,7.5,M,-33.8,M,,*5F
$PYRTM,2024,123.502462986991,14.612110397130
$GPGGA,120331.00,3416.3954,N,12039.4104,W,1,12,0.8,7.9,M,-33.8,M,,*5F
$PYRTM,2024,123.502474544514,14.612121954653
$GPGGA,120332.00,3416.3962,N,12039.4121,W,1,12,0.8,6.6,M,-33.8,M,,*50
$PYRTM,2024,123.502486135856,14.612133545995
$GPGGA,120333.00,3416.3968,N,12039.4139,W,1,12,0.8,7.4,M,-33.8,M,,*51
$PYRTM,2024,123.502497694618,14.612145104757
$GPGGA,120334.00,3416.3968,N,12039.4153,W,1,12,0.8,7.8,M,-33.8,M,,*56
$PYRTM,2024,123.502509283241,14.612156693380
$GPGGA,120335.00,3416.3969,N,12039.4163,W,1,12,0.8,8.2,M,-33.8,M,,*50
$PYRTM,2024,123.502520840440,14.612168250579
$GPGGA,120336.00,3416.3974,N,12039.4176,W,1,12,0.8,8.3,M,-33.8,M,,*5A
$PYRTM,2024,123.502532433241,14.612179843380
$GPGGA,120337.00,3416.3983,N,12039.4191,W,1,12,0.8,7.8,M,-33.8,M,,*5E
$PYRTM,2024,123.502544466319,14.612191876458
$GPGGA,120338.00,3416.3987,N,12039.4204,W,1,12,0.8,7.2,M,-33.8,M,,*50
$PYRTM,2024,123.502555232234,14.612202642384
$GPGGA,120339.00,3416.3989,N,12039.4215,W,1,12,0.8,7.1,M,-33.8,M,,*5C
$PYRTM,2024,123.502566210243,14.612213620382
$GPGGA,120340.00,3416.3992,N,12039.4227,W,1,12,0.8,7.3,M,-33.8,M,,*5B
$PYRTM,2024,123.502577321725,14.612224731875
$GPGGA,120341.00,3416.3996,N,12039.4241,W,1,12,0.8,7.8,M,-33.8,M,,*55
$PYRTM,2024,123.502588433657,14.612235843808
$GPGGA,120342.00,3416.3998,N,12039.4258,W,1,12,0.8,8.4,M,-33.8,M,,*53
$PYRTM,2024,123.502603017951,14.612250428090
$GPGGA,120343.00,3416.3999,N,12039.4276,W,1,12,0.8,8.2,M,-33.8,M,,*59
$PYRTM,2024,123.502614130012,14.612261540150
$GPGGA,120344.00,3416.4003,N,12039.4292,W,1,12,0.8,7.9,M,-33.8,M,,*5D
$PYRTM,2024,123.502625239583,14.612272649722
$GPGGA,120345.00,3416.4011,N,12039.4303,W,1,12,0.8,7.8,M,-33.8,M,,*57
$PYRTM,2024,123.502636248067,14.612283658206
$GPGGA,120346.00,3416.4016,N,12039.4314,W,1,12,0.8,8.3,M,-33.8,M,,*51
$PYRTM,2024,123.502648864722,14.612296274873
$GPGGA,120347.00,3416.4015,N,12039.4331,W,1,12,0.8,9.3,M,-33.8,M,,*55
$PYRTM,2024,123.502660322245,14.612307732384
$GPGGA,120348.00,3416.4012,N,12039.4351,W,1,12,0.8,8.8,M,-33.8,M,,*51
$PYRTM,2024,123.502671421736,14.612318831875
$GPGGA,120349.00,3416.4016,N,12039.4371,W,1,12,0.8,8.6,M,-33.8,M,,*58
$PYRTM,2024,123.502682544942,14.612329955081
$GPGGA,120350.00,3416.4025,N,12039.4386,W,1,12,0.8,8.3,M,-33.8,M,,*5D
$PYRTM,2024,123.502693656748,14.612341066898
$GPGGA,120351.00,3416.4034,N,12039.4396,W,1,12,0.8,8.5,M,-33.8,M,,*5B
$PYRTM,2024,123.502704870880,14.612352281019
$GPGGA,120352.00,3416.4039,N,12039.4409,W,1,12,0.8,9.0,M,-33.8,M,,*50
$PYRTM,2024,123.502716576343,14.612363986481
$GPGGA,120353.00,3416.4040,N,12039.4427,W,1,12,0.8,10.0,M,-33.8,M,,*6B
$PYRTM,2024,123.502728018044,14.612375428183
$GPGGA,120354.00,3416.4043,N,12039.4447,W,1,12,0.8,9.6,M,-33.8,M,,*57
$PYRTM,2024,123.502739608102,14.612387018241
$GPGGA,120355.00,3416.4048,N,12039.4462,W,1,12,0.8,9.4,M,-33.8,M,,*58
$PYRTM,2024,123.502751168183,14.612398578322
$GPGGA,120356.00,3416.4055,N,12039.4476,W,1,12,0.8,9.3,M,-33.8,M,,*55
$PYRTM,2024,123.502762764444,14.612410174583
$GPGGA,120357.00,3416.4063,N,12039.4491,W,1,12,0.8,9.1,M,-33.8,M,,*5A
$PYRTM,2024,123.502774314606,14.612421724745
$GPGGA,120358.00,3416.4067,N,12039.4509,W,1,12,0.8,8.7,M,-33.8,M,,*56
$PYRTM,2024,123.502785901875,14.612433312014
$GPGGA,120359.00,3416.4067,N,12039.4530,W,1,12,0.8,8.4,M,-33.8,M,,*5E
$PYRTM,2024,123.502797465625,14.612444875775
$GPGGA,120400.00,3416.4069,N,12039.4550,W,1,12,0.8,8.7,M,-33.8,M,,*5E
$PYRTM,2024,123.502809050995,14.612456461134
$GPGGA,120401.00,3416.4077,N,12039.4562,W,1,12,0.8,8.4,M,-33.8,M,,*52
$PYRTM,2024,123.502820612350,14.612468022488
$GPGGA,120402.00,3416.4086,N,12039.4571,W,1,12,0.8,9.4,M,-33.8,M,,*5C
$PYRTM,2024,123.502832199294,14.612479609433
$GPGGA,120403.00,3416.4090,N,12039.4589,W,1,12,0.8,9.5,M,-33.8,M,,*5C
$PYRTM,2024,123.502843761678,14.612491171817
$GPGGA,120404.00,3416.4091,N,12039.4611,W,1,12,0.8,10.0,M,-33.8,M,,*65
$PYRTM,2024,123.502855361354,14.612502771493
$GPGGA,120405.00,3416.4094,N,12039.4628,W,1,12,0.8,9.9,M,-33.8,M,,*5A
$PYRTM,2024,123.502866907801,14.612514317940
$GPGGA,120406.00,3416.4101,N,12039.4642,W,1,12,0.8,8.9,M,-33.8,M,,*59
$PYRTM,2024,123.502878496898,14.612525907037
$GPGGA,120407.00,3416.4110,N,12039.4656,W,1,12,0.8,7.9,M,-33.8,M,,*52
$PYRTM,2024,123.502890057523,14.612537467662
$GPGGA,120408.00,3416.4118,N,12039.4671,W,1,12,0.8,8.0,M,-33.8,M,,*56
$PYRTM,2024,123.502901644086,14.612549054225
$GPGGA,120409.00,3416.4123,N,12039.4686,W,1,12,0.8,8.7,M,-33.8,M,,*50
$PYRTM,2024,123.502913204664,14.612560614803
$GPGGA,120410.00,3416.4127,N,12039.4702,W,1,12,0.8,9.0,M,-33.8,M,,*57
$PYRTM,2024,123.502924792755,14.612572202894
$GPGGA,120411.00,3416.4132,N,12039.4718,W,1,12,0.8,9.6,M,-33.8,M,,*5F
$PYRTM,2024,123.502936353785,14.612583763924
$GPGGA,120412.00,3416.4140,N,12039.4735,W,1,12,0.8,8.0,M,-33.8,M,,*51
$PYRTM,2024,123.502947695440,14.612595105579
$GPGGA,120413.00,3416.4146,N,12039.4754,W,1,12,0.8,7.3,M,-33.8,M,,*5D
$PYRTM,2024,123.502960658380,14.612608068519
$GPGGA,120414.00,3416.4152,N,12039.4772,W,1,12,0.8,7.4,M,-33.8,M,,*5C
$PYRTM,2024,123.502972247581,14.612619657720
$GPGGA,120415.00,3416.4159,N,12039.4786,W,1,12,0.8,8.7,M,-33.8,M,,*51
$PYRTM,2024,123.502983806331,14.612631216470
$GPGGA,120416.00,3416.4167,N,12039.4796,W,1,12,0.8,9.2,M,-33.8,M,,*5A
$PYRTM,2024,123.502995394433,14.612642804572
$GPGGA,120417.00,3416.4177,N,12039.4813,W,1,12,0.8,7.6,M,-33.8,M,,*52
$PYRTM,2024,123.503007432292,14.612654842431
$GPGGA,120418.00,3416.4183,N,12039.4835,W,1,12,0.8,8.0,M,-33.8,M,,*5B
$PYRTM,2024,123.503018543044,14.612665953194
$GPGGA,120419.00,3416.4184,N,12039.4853,W,1,12,0.8,8.9,M,-33.8,M,,*54
$PYRTM,2024,123.503030103530,14.612677513669
$GPGGA,120420.00,3416.4188,N,12039.4863,W,1,12,0.8,9.4,M,-33.8,M,,*5D
$PYRTM,2024,123.503041691019,14.612689101157
$GPGGA,120421.00,3416.4199,N,12039.4873,W,1,12,0.8,9.8,M,-33.8,M,,*51
$PYRTM,2024,123.503053254016,14.612700664155
$GPGGA,120422.00,3416.4209,N,12039.4888,W,1,12,0.8,7.6,M,-33.8,M,,*5C
$PYRTM,2024,123.503064841111,14.612712251262
$GPGGA,120423.00,3416.4214,N,12039.4908,W,1,12,0.8,6.8,M,-33.8,M,,*57
$PYRTM,2024,123.503076400127,14.612723810266
$GPGGA,120424.00,3416.4216,N,12039.4928,W,1,12,0.8,4.7,M,-33.8,M,,*5D
$PYRTM,2024,123.503087990081,14.612735400220
$GPGGA,120425.00,3416.4222,N,12039.4942,W,1,12,0.8,5.5,M,-33.8,M,,*54
$PYRTM,2024,123.503099548403,14.612746958542
$GPGGA,120426.00,3416.4232,N,12039.4949,W,1,12,0.8,5.9,M,-33.8,M,,*51
$PYRTM,2024,123.503111136042,14.612758546181
$GPGGA,120427.00,3416.4241,N,12039.4964,W,1,12,0.8,7.6,M,-33.8,M,,*56
$PYRTM,2024,123.503122697049,14.612770107187
$GPGGA,120428.00,3416.4246,N,12039.4985,W,1,12,0.8,7.7,M,-33.8,M,,*50
$PYRTM,2024,123.503134286319,14.612781696458
$GPGGA,120429.00,3416.4249,N,12039.5004,W,1,12,0.8,6.7,M,-33.8,M,,*5E
$PYRTM,2024,123.503145844618,14.612793254757
$GPGGA,120430.00,3416.4256,N,12039.5016,W,1,12,0.8,6.5,M,-33.8,M,,*59
$PYRTM,2024,123.503157432963,14.612804843102
$GPGGA,120431.00,3416.4266,N,12039.5024,W,1,12,0.8,5.7,M,-33.8,M,,*5B
$PYRTM,2024,123.503168994769,14.612816404907
$GPGGA,120432.00,3416.4275,N,12039.5037,W,1,12,0.8,6.0,M,-33.8,M,,*5C
$PYRTM,2024,123.503180581100,14.612827991238
$GPGGA,120433.00,3416.4281,N,12039.5057,W,1,12,0.8,6.8,M,-33.8,M,,*58
$PYRTM,2024,123.503192142593,14.612839552731
$GPGGA,120434.00,3416.4285,N,12039.5076,W,1,12,0.8,6.7,M,-33.8,M,,*57
$PYRTM,2024,123.503203729687,14.612851139826
$GPGGA,120435.00,3416.4288,N,12039.5088,W,1,12,0.8,7.5,M,-33.8,M,,*59
$PYRTM,2024,123.503215289502,14.612862699641
$GPGGA,120436.00,3416.4294,N,12039.5099,W,1,12,0.8,8.4,M,-33.8,M,,*59
$PYRTM,2024,123.503226878461,14.612874288600
$GPGGA,120437.00,3416.4304,N,12039.5115,W,1,12,0.8,9.7,M,-33.8,M,,*57
$PYRTM,2024,123.503238438924,14.612885849063
$GPGGA,120438.00,3416.4312,N,12039.5134,W,1,12,0.8,5.9,M,-33.8,M,,*5E
$PYRTM,2024,123.503250021887,14.612897432037
$GPGGA,120439.00,3416.4316,N,12039.5150,W,1,12,0.8,5.9,M,-33.8,M,,*59
$PYRTM,2024,123.503261587280,14.612908997419
$GPGGA,120440.00,3416.4318,N,12039.5164,W,1,12,0.8,6.3,M,-33.8,M,,*57
$PYRTM,2024,123.503273171204,14.612920581343
$GPGGA,120441.00,3416.4323,N,12039.5180,W,1,12,0.8,7.3,M,-33.8,M,,*55
$PYRTM,2024,123.503284735440,14.612932145579
$GPGGA,120442.00,3416.4331,N,12039.5195,W,1,12,0.8,8.4,M,-33.8,M,,*59
$PYRTM,2024,123.503297353831,14.612944763970
$GPGGA,120443.00,3416.4337,N,12039.5211,W,1,12,0.8,8.6,M,-33.8,M,,*53
$PYRTM,2024,123.503310097269,14.612957507407
$GPGGA,120444.00,3416.4338,N,12039.5229,W,1,12,0.8,7.9,M,-33.8,M,,*50
$PYRTM,2024,123.503319473738,14.612966883877
$GPGGA,120445.00,3416.4339,N,12039.5243,W,1,12,0.8,7.6,M,-33.8,M,,*53
$PYRTM,2024,123.503331032616,14.612978442755
$GPGGA,120446.00,3416.4344,N,12039.5256,W,1,12,0.8,7.3,M,-33.8,M,,*5B
$PYRTM,2024,123.503342620428,14.612990030567
$GPGGA,120447.00,3416.4352,N,12039.5267,W,1,12,0.8,8.0,M,-33.8,M,,*53
$PYRTM,2024,123.503354659606,14.613002069745
$GPGGA,120448.00,3416.4355,N,12039.5283,W,1,12,0.8,10.3,M,-33.8,M,,*6B
$PYRTM,2024,123.503365767211,14.613013177350
$GPGGA,120449.00,3416.4357,N,12039.5302,W,1,12,0.8,10.5,M,-33.8,M,,*66
$PYRTM,2024,123.503377328738,14.613024738877
$GPGGA,120450.00,3416.4362,N,12039.5320,W,1,12,0.8,10.8,M,-33.8,M,,*65
$PYRTM,2024,123.503388917037,14.613036327176
$GPGGA,120451.00,3416.4370,N,12039.5334,W,1,12,0.8,10.8,M,-33.8,M,,*62
$PYRTM,2024,123.503400479225,14.613047889363
$GPGGA,120452.00,3416.4376,N,12039.5347,W,1,12,0.8,10.7,M,-33.8,M,,*6C
$PYRTM,2024,123.503412513947,14.613059924086
$GPGGA,120453.00,3416.4379,N,12039.5362,W,1,12,0.8,10.3,M,-33.8,M,,*61
$PYRTM,2024,123.503423625995,14.613071036134
$GPGGA,120454.00,3416.4381,N,12039.5380,W,1,12,0.8,9.2,M,-33.8,M,,*54
$PYRTM,2024,123.503435213657,14.613082623796
$GPGGA,120455.00,3416.4387,N,12039.5396,W,1,12,0.8,7.9,M,-33.8,M,,*51
$PYRTM,2024,123.503446774329,14.613094184468
$GPGGA,120456.00,3416.4394,N,12039.5412,W,1,12,0.8,7.4,M,-33.8,M,,*56
$PYRTM,2024,123.503458362593,14.613105772731
$GPGGA,120457.00,3416.4401,N,12039.5428,W,1,12,0.8,6.8,M,-33.8,M,,*58
$PYRTM,2024,123.503469922743,14.613117332882
$GPGGA,120458.00,3416.4405,N,12039.5443,W,1,12,0.8,8.1,M,-33.8,M,,*59
$PYRTM,2024,123.503481511192,14.613128921331
$GPGGA,120459.00,3416.4404,N,12039.5455,W,1,12,0.8,9.9,M,-33.8,M,,*57
$PYRTM,2024,123.503493069641,14.613140479780
$GPGGA,120500.00,3416.4405,N,12039.5473,W,1,12,0.8,9.8,M,-33.8,M,,*5E
$PYRTM,2024,123.503504655775,14.613152065914
$GPGGA,120501.00,3416.4409,N,12039.5496,W,1,12,0.8,9.2,M,-33.8,M,,*52
$PYRTM,2024,123.503516219595,14.613163629734
$GPGGA,120502.00,3416.4415,N,12039.5515,W,1,12,0.8,7.6,M,-33.8,M,,*5C
$PYRTM,2024,123.503527807604,14.613175217743
$GPGGA,120503.00,3416.4418,N,12039.5524,W,1,12,0.8,7.0,M,-33.8,M,,*54
$PYRTM,2024,123.503539368380,14.613186778519
$GPGGA,120504.00,3416.4420,N,12039.5536,W,1,12,0.8,7.5,M,-33.8,M,,*5E
$PYRTM,2024,123.503550955532,14.613198365671
$GPGGA,120505.00,3416.4424,N,12039.5552,W,1,12,0.8,7.9,M,-33.8,M,,*55
$PYRTM,2024,123.503562516354,14.613209926493
$GPGGA,120506.00,3416.4426,N,12039.5569,W,1,12,0.8,8.9,M,-33.8,M,,*53
$PYRTM,2024,123.503574100150,14.613221510289
$GPGGA,120507.00,3416.4427,N,12039.5585,W,1,12,0.8,9.7,M,-33.8,M,,*5E
$PYRTM,2024,123.503585664005,14.613233074155
$GPGGA,120508.00,3416.4430,N,12039.5601,W,1,12,0.8,9.4,M,-33.8,M,,*5B
$PYRTM,2024,123.503597251921,14.613244662060
$GPGGA,120509.00,3416.4435,N,12039.5616,W,1,12,0.8,9.0,M,-33.8,M,,*5D
$PYRTM,2024,123.503608813970,14.613256224120
$GPGGA,120510.00,3416.4442,N,12039.5629,W,1,12,0.8,8.9,M,-33.8,M,,*51
$PYRTM,2024,123.503620401308,14.613267811447
$GPGGA,120511.00,3416.4445,N,12039.5645,W,1,12,0.8,9.0,M,-33.8,M,,*55
$PYRTM,2024,123.503631959560,14.613279369699
$GPGGA,120512.00,3416.4443,N,12039.5665,W,1,12,0.8,9.4,M,-33.8,M,,*56
$PYRTM,2024,123.503644577141,14.613291987280
$GPGGA,120513.00,3416.4445,N,12039.5682,W,1,12,0.8,9.3,M,-33.8,M,,*5F
$PYRTM,2024,123.503657325104,14.613304735255
$GPGGA,120514.00,3416.4453,N,12039.5696,W,1,12,0.8,9.2,M,-33.8,M,,*5B
$PYRTM,2024,123.503666697083,14.613314107234
$GPGGA,120515.00,3416.4462,N,12039.5711,W,1,12,0.8,8.6,M,-33.8,M,,*53
$PYRTM,2024,123.503678257755,14.613325667905
$GPGGA,120516.00,3416.4465,N,12039.5727,W,1,12,0.8,8.4,M,-33.8,M,,*50
$PYRTM,2024,123.503689845706,14.613337255845
$GPGGA,120517.00,3416.4466,N,12039.5745,W,1,12,0.8,8.0,M,-33.8,M,,*52
$PYRTM,2024,123.503701762847,14.613349172986
$GPGGA,120518.00,3416.4469,N,12039.5763,W,1,12,0.8,7.0,M,-33.8,M,,*59
$PYRTM,2024,123.503712989433,14.613360399572
$GPGGA,120519.00,3416.4476,N,12039.5780,W,1,12,0.8,7.1,M,-33.8,M,,*5A
$PYRTM,2024,123.503724555903,14.613371966042
$GPGGA,120520.00,3416.4485,N,12039.5792,W,1,12,0.8,7.0,M,-33.8,M,,*5E
$PYRTM,2024,123.503736137106,14.613383547245
$GPGGA,120521.00,3416.4493,N,12039.5801,W,1,12,0.8,7.7,M,-33.8,M,,*5A
$PYRTM,2024,123.503747702778,14.613395112917
$GPGGA,120522.00,3416.4500,N,12039.5815,W,1,12,0.8,8.5,M,-33.8,M,,*5A
$PYRTM,2024,123.503759286481,14.613406696620
$GPGGA,120523.00,3416.4502,N,12039.5834,W,1,12,0.8,7.3,M,-33.8,M,,*53
$PYRTM,2024,123.503770852222,14.613418262361
$GPGGA,120524.00,3416.4501,N,12039.5853,W,1,12,0.8,7.6,M,-33.8,M,,*53
$PYRTM,2024,123.503782439769,14.613429849907
$GPGGA,120525.00,3416.4507,N,12039.5868,W,1,12,0.8,7.5,M,-33.8,M,,*5F
$PYRTM,2024,123.503794001042,14.613441411181
$GPGGA,120526.00,3416.4518,N,12039.5881,W,1,12,0.8,6.5,M,-33.8,M,,*54
$PYRTM,2024,123.503805582442,14.613452992581
$GPGGA,120527.00,3416.4529,N,12039.5895,W,1,12,0.8,6.5,M,-33.8,M,,*52
$PYRTM,2024,123.503817149444,14.613464559583
$GPGGA,120528.00,3416.4532,N,12039.5913,W,1,12,0.8,7.8,M,-33.8,M,,*54
$PYRTM,2024,123.503828735984,14.613476146123
$GPGGA,120529.00,3416.4532,N,12039.5933,W,1,12,0.8,6.2,M,-33.8,M,,*5C
$PYRTM,2024,123.503840296065,14.613487706215
$GPGGA,120530.00,3416.4537,N,12039.5950,W,1,12,0.8,8.1,M,-33.8,M,,*59
$PYRTM,2024,123.503851880544,14.613499290683
$GPGGA,120531.00,3416.4545,N,12039.5960,W,1,12,0.8,9.5,M,-33.8,M,,*5B
$PYRTM,2024,123.503863444699,14.613510854838
$GPGGA,120532.00,3416.4552,N,12039.5972,W,1,12,0.8,8.9,M,-33.8,M,,*50
$PYRTM,2024,123.503875033229,14.613522443368
$GPGGA,120533.00,3416.4557,N,12039.5990,W,1,12,0.8,5.9,M,-33.8,M,,*55
$PYRTM,2024,123.503886593542,14.613534003681
$GPGGA,120534.00,3416.4560,N,12039.6011,W,1,12,0.8,3.6,M,-33.8,M,,*5C
$PYRTM,2024,123.503898181875,14.613545592025
$GPGGA,120535.00,3416.4565,N,12039.6026,W,1,12,0.8,3.8,M,-33.8,M,,*52
$PYRTM,2024,123.503909741725,14.613557151863
$GPGGA,120536.00,3416.4572,N,12039.6040,W,1,12,0.8,4.8,M,-33.8,M,,*50
$PYRTM,2024,123.503921329722,14.613568739861
$GPGGA,120537.00,3416.4578,N,12039.6054,W,1,12,0.8,7.2,M,-33.8,M,,*57
$PYRTM,2024,123.503932889653,14.613580299792
$GPGGA,120538.00,3416.4583,N,12039.6070,W,1,12,0.8,9.6,M,-33.8,M,,*50
$PYRTM,2024,123.503944481123,14.613591891273
$GPGGA,120539.00,3416.4588,N,12039.6089,W,1,12,0.8,9.4,M,-33.8,M,,*5E
$PYRTM,2024,123.503956038576,14.613603448715
$GPGGA,120540.00,3416.4594,N,12039.6106,W,1,12,0.8,7.9,M,-33.8,M,,*58
$PYRTM,2024,123.503966700243,14.613614110382
$GPGGA,120541.00,3416.4601,N,12039.6120,W,1,12,0.8,7.0,M,-33.8,M,,*5B
$PYRTM,2024,123.503979663553,14.613627073692
$GPGGA,120542.00,3416.4607,N,12039.6132,W,1,12,0.8,6.3,M,-33.8,M,,*5F
$PYRTM,2024,123.503988446713,14.613635856863
$GPGGA,120543.00,3416.4614,N,12039.6147,W,1,12,0.8,6.5,M,-33.8,M,,*58
$PYRTM,2024,123.504006517164,14.613653927303
$GPGGA,120544.00,3416.4620,N,12039.6166,W,1,12,0.8,6.8,M,-33.8,M,,*56
$PYRTM,2024,123.504017626620,14.613665036759
$GPGGA,120545.00,3416.4624,N,12039.6184,W,1,12,0.8,7.1,M,-33.8,M,,*57
$PYRTM,2024,123.504028737014,14.613676147153
$GPGGA,120546.00,3416.4626,N,12039.6195,W,1,12,0.8,7.9,M,-33.8,M,,*5E
$PYRTM,2024,123.504039848785,14.613687258924
$GPGGA,120547.00,3416.4629,N,12039.6208,W,1,12,0.8,8.2,M,-33.8,M,,*53
$PYRTM,2024,123.504051407928,14.613698818067
$GPGGA,120548.00,3416.4636,N,12039.6226,W,1,12,0.8,5.9,M,-33.8,M,,*58
$PYRTM,2024,123.504062405127,14.613709815266
$GPGGA,120549.00,3416.4644,N,12039.6241,W,1,12,0.8,5.8,M,-33.8,M,,*5C
$PYRTM,2024,123.504073517164,14.613720927303
$GPGGA,120550.00,3416.4649,N,12039.6250,W,1,12,0.8,6.8,M,-33.8,M,,*5A
$PYRTM,2024,123.504084628877,14.613732039016
$GPGGA,120551.00,3416.4651,N,12039.6262,W,1,12,0.8,7.4,M,-33.8,M,,*5E
$PYRTM,2024,123.504095740984,14.613743151123
$GPGGA,120552.00,3416.4653,N,12039.6280,W,1,12,0.8,7.4,M,-33.8,M,,*53
$PYRTM,2024,123.504106850417,14.613754260556
$GPGGA,120553.00,3416.4658,N,12039.6297,W,1,12,0.8,7.9,M,-33.8,M,,*52
$PYRTM,2024,123.504117962118,14.613765372257
$GPGGA,120554.00,3416.4666,N,12039.6311,W,1,12,0.8,7.5,M,-33.8,M,,*5B
$PYRTM,2024,123.504128971690,14.613776381829
$GPGGA,120555.00,3416.4673,N,12039.6322,W,1,12,0.8,7.6,M,-33.8,M,,*5D
$PYRTM,2024,123.504140081435,14.613787491574
$GPGGA,120556.00,3416.4677,N,12039.6334,W,1,12,0.8,7.2,M,-33.8,M,,*59
$PYRTM,2024,123.504153376354,14.613800786493
$GPGGA,120557.00,3416.4680,N,12039.6350,W,1,12,0.8,7.2,M,-33.8,M,,*52
$PYRTM,2024,123.504164490521,14.613811900660
$GPGGA,120558.00,3416.4684,N,12039.6367,W,1,12,0.8,7.3,M,-33.8,M,,*5C
$PYRTM,2024,123.504175599583,14.613823009722
$GPGGA,120559.00,3416.4691,N,12039.6381,W,1,12,0.8,6.9,M,-33.8,M,,*5A
$PYRTM,2024,123.504186710984,14.613834121123
$GPGGA,120600.00,3416.4698,N,12039.6394,W,1,12,0.8,6.8,M,-33.8,M,,*59
$PYRTM,2024,123.504197825463,14.613845235602
$GPGGA,120601.00,3416.4703,N,12039.6409,W,1,12,0.8,6.9,M,-33.8,M,,*59
$PYRTM,2024,123.504208934676,14.613856344815
$GPGGA,120602.00,3416.4705,N,12039.6426,W,1,12,0.8,7.7,M,-33.8,M,,*5E
$PYRTM,2024,123.504220523252,14.613867933403
$GPGGA,120603.00,3416.4707,N,12039.6444,W,1,12,0.8,8.3,M,-33.8,M,,*52
$PYRTM,2024,123.504232081516,14.613879491655
$GPGGA,120604.00,3416.4712,N,12039.6459,W,1,12,0.8,8.5,M,-33.8,M,,*5B
$PYRTM,2024,123.504243669699,14.613891079838
$GPGGA,120605.00,3416.4719,N,12039.6472,W,1,12,0.8,8.0,M,-33.8,M,,*5D
$PYRTM,2024,123.504255230521,14.613902640660
$GPGGA,120606.00,3416.4725,N,12039.6488,W,1,12,0.8,7.4,M,-33.8,M,,*5F
$PYRTM,2024,123.504266819155,14.613914229294
$GPGGA,120607.00,3416.4727,N,12039.6507,W,1,12,0.8,7.4,M,-33.8,M,,*5A
$PYRTM,2024,123.504278378194,14.613925788333
$GPGGA,120608.00,3416.4730,N,12039.6526,W,1,12,0.8,6.6,M,-33.8,M,,*53
$PYRTM,2024,123.504289961806,14.613937371944
$GPGGA,120609.00,3416.4736,N,12039.6541,W,1,12,0.8,7.7,M,-33.8,M,,*55
$PYRTM,2024,123.504301527234,14.613948937373
$GPGGA,120610.00,3416.4744,N,12039.6555,W,1,12,0.8,8.2,M,-33.8,M,,*57
$PYRTM,2024,123.504313112083,14.613960522222
$GPGGA,120611.00,3416.4751,N,12039.6573,W,1,12,0.8,9.1,M,-33.8,M,,*54
$PYRTM,2024,123.504324675613,14.613972085764
$GPGGA,120612.00,3416.4754,N,12039.6591,W,1,12,0.8,8.8,M,-33.8,M,,*56
$PYRTM,2024,123.504337299641,14.613984709780
$GPGGA,120613.00,3416.4758,N,12039.6608,W,1,12,0.8,8.6,M,-33.8,M,,*56
$PYRTM,2024,123.504348417049,14.613995827187
$GPGGA,120614.00,3416.4765,N,12039.6625,W,1,12,0.8,8.5,M,-33.8,M,,*53
$PYRTM,2024,123.504359996181,14.614007406319
$GPGGA,120615.00,3416.4772,N,12039.6641,W,1,12,0.8,8.8,M,-33.8,M,,*5B
$PYRTM,2024,123.504371566389,14.614018976528
$GPGGA,120616.00,3416.4778,N,12039.6655,W,1,12,0.8,9.2,M,-33.8,M,,*5C
$PYRTM,2024,123.504383139248,14.614030549398
$GPGGA,120617.00,3416.4784,N,12039.6671,W,1,12,0.8,8.7,M,-33.8,M,,*5C
$PYRTM,2024,123.504394713762,14.614042123900
$GPGGA,120618.00,3416.4791,N,12039.6691,W,1,12,0.8,7.0,M,-33.8,M,,*51
$PYRTM,2024,123.504406290185,14.614053700336
$GPGGA,120619.00,3416.4797,N,12039.6712,W,1,12,0.8,6.5,M,-33.8,M,,*58
$PYRTM,2024,123.504417863368,14.614065273507
$GPGGA,120620.00,3416.4800,N,12039.6727,W,1,12,0.8,8.0,M,-33.8,M,,*5E
$PYRTM,2024,123.504429436551,14.614076846690
$GPGGA,120621.00,3416.4802,N,12039.6737,W,1,12,0.8,10.3,M,-33.8,M,,*66
$PYRTM,2024,123.504441007685,14.614088417824
$GPGGA,120622.00,3416.4811,N,12039.6749,W,1,12,0.8,8.8,M,-33.8,M,,*5C
$PYRTM,2024,123.504452579954,14.614099990104
$GPGGA,120623.00,3416.4822,N,12039.6767,W,1,12,0.8,7.4,M,-33.8,M,,*52
$PYRTM,2024,123.504464158947,14.614111569086
$GPGGA,120624.00,3416.4827,N,12039.6785,W,1,12,0.8,6.4,M,-33.8,M,,*5D
$PYRTM,2024,123.504475734352,14.614123144502
$GPGGA,120625.00,3416.4828,N,12039.6800,W,1,12,0.8,6.3,M,-33.8,M,,*56
$PYRTM,2024,123.504487306956,14.614134717106
$GPGGA,120626.00,3416.4832,N,12039.6811,W,1,12,0.8,6.9,M,-33.8,M,,*54
$PYRTM,2024,123.504498883819,14.614146293958
$GPGGA,120627.00,3416.4840,N,12039.6824,W,1,12,0.8,8.7,M,-33.8,M,,*56
$PYRTM,2024,123.504510449537,14.614157859676
$GPGGA,120628.00,3416.4849,N,12039.6841,W,1,12,0.8,8.9,M,-33.8,M,,*5D
$PYRTM,2024,123.504522032269,14.614169442419
$GPGGA,120629.00,3416.4851,N,12039.6859,W,1,12,0.8,8.3,M,-33.8,M,,*56
$PYRTM,2024,123.504533604120,14.614181014259
$GPGGA,120630.00,3416.4852,N,12039.6873,W,1,12,0.8,8.6,M,-33.8,M,,*50
$PYRTM,2024,123.504545180868,14.614192591007
$GPGGA,120631.00,3416.4858,N,12039.6884,W,1,12,0.8,8.8,M,-33.8,M,,*5D
$PYRTM,2024,123.504556751887,14.614204162037
$GPGGA,120632.00,3416.4866,N,12039.6896,W,1,12,0.8,8.5,M,-33.8,M,,*5D
$PYRTM,2024,123.504568789375,14.614216199525
$GPGGA,120633.00,3416.4868,N,12039.6910,W,1,12,0.8,9.1,M,-33.8,M,,*58
$PYRTM,2024,123.504579900729,14.614227310868
$GPGGA,120634.00,3416.4868,N,12039.6928,W,1,12,0.8,9.6,M,-33.8,M,,*53
$PYRTM,2024,123.504591474005,14.614238884144
$GPGGA,120635.00,3416.4872,N,12039.6944,W,1,12,0.8,8.7,M,-33.8,M,,*53
$PYRTM,2024,123.504603047361,14.614250457500
$GPGGA,120636.00,3416.4879,N,12039.6957,W,1,12,0.8,8.6,M,-33.8,M,,*58
$PYRTM,2024,123.504614622986,14.614262033137
$GPGGA,120637.00,3416.4882,N,12039.6968,W,1,12,0.8,9.0,M,-33.8,M,,*56
$PYRTM,2024,123.504626195972,14.614273606111
$GPGGA,120638.00,3416.4883,N,12039.6982,W,1,12,0.8,9.0,M,-33.8,M,,*5C
$PYRTM,2024,123.504637770486,14.614285180625
$GPGGA,120639.00,3416.4886,N,12039.7002,W,1,12,0.8,8.0,M,-33.8,M,,*59
$PYRTM,2024,123.504649339826,14.614296749965
$GPGGA,120640.00,3416.4893,N,12039.7021,W,1,12,0.8,6.4,M,-33.8,M,,*58
$PYRTM,2024,123.504660941944,14.614308352083
$GPGGA,120641.00,3416.4897,N,12039.7032,W,1,12,0.8,6.3,M,-33.8,M,,*58
$PYRTM,2024,123.504672494965,14.614319905116
$GPGGA,120642.00,3416.4897,N,12039.7040,W,1,12,0.8,7.0,M,-33.8,M,,*5C
$PYRTM,2024,123.504685228669,14.614332638808
$GPGGA,120643.00,3416.4897,N,12039.7053,W,1,12,0.8,7.7,M,-33.8,M,,*58
$PYRTM,2024,123.504696786354,14.614344196493
$GPGGA,120644.00,3416.4902,N,12039.7071,W,1,12,0.8,7.1,M,-33.8,M,,*54
$PYRTM,2024,123.504708387384,14.614355797523
$GPGGA,120645.00,3416.4908,N,12039.7087,W,1,12,0.8,5.3,M,-33.8,M,,*56
$PYRTM,2024,123.504719934664,14.614367344803
$GPGGA,120646.00,3416.4915,N,12039.7099,W,1,12,0.8,4.0,M,-33.8,M,,*54
$PYRTM,2024,123.504731521204,14.614378931343
$GPGGA,120647.00,3416.4918,N,12039.7108,W,1,12,0.8,4.7,M,-33.8,M,,*56
$PYRTM,2024,123.504743437535,14.614390847674
$GPGGA,120648.00,3416.4918,N,12039.7120,W,1,12,0.8,6.6,M,-33.8,M,,*50
$PYRTM,2024,123.504754668669,14.614402078808
$GPGGA,120649.00,3416.4917,N,12039.7138,W,1,12,0.8,6.6,M,-33.8,M,,*57
$PYRTM,2024,123.504766230718,14.614413640856
$GPGGA,120650.00,3416.4923,N,12039.7158,W,1,12,0.8,8.3,M,-33.8,M,,*55
$PYRTM,2024,123.504777818634,14.614425228773
$GPGGA,120651.00,3416.4931,N,12039.7174,W,1,12,0.8,8.0,M,-33.8,M,,*5A
$PYRTM,2024,123.504789378738,14.614436788877
$GPGGA,120652.00,3416.4934,N,12039.7182,W,1,12,0.8,8.2,M,-33.8,M,,*57
$PYRTM,2024,123.504800969340,14.614448379479
$GPGGA,120653.00,3416.4933,N,12039.7195,W,1,12,0.8,8.0,M,-33.8,M,,*55
$PYRTM,2024,123.504812526944,14.614459937083
$GPGGA,120654.00,3416.4935,N,12039.7212,W,1,12,0.8,7.9,M,-33.8,M,,*5E
$PYRTM,2024,123.504824115764,14.614471525903
$GPGGA,120655.00,3416.4941,N,12039.7227,W,1,12,0.8,7.4,M,-33.8,M,,*57
$PYRTM,2024,123.504835676505,14.614483086644
$GPGGA,120656.00,3416.4948,N,12039.7237,W,1,12,0.8,7.9,M,-33.8,M,,*51
$PYRTM,2024,123.504847267072,14.614494677211
$GPGGA,120657.00,3416.4951,N,12039.7249,W,1,12,0.8,9.1,M,-33.8,M,,*57
$PYRTM,2024,123.504858824664,14.614506234803
$GPGGA,120658.00,3416.4951,N,12039.7266,W,1,12,0.8,9.9,M,-33.8,M,,*5D
$PYRTM,2024,123.504870414664,14.614517824803
$GPGGA,120659.00,3416.4952,N,12039.7283,W,1,12,0.8,9.4,M,-33.8,M,,*59
$PYRTM,2024,123.504881975463,14.614529385602
$GPGGA,120700.00,3416.4957,N,12039.7297,W,1,12,0.8,8.5,M,-33.8,M,,*54
$PYRTM,2024,123.504893574549,14.614540984699
$GPGGA,120701.00,3416.4962,N,12039.7310,W,1,12,0.8,8.2,M,-33.8,M,,*5A
$PYRTM,2024,123.504905120845,14.614552530984
$GPGGA,120702.00,3416.4968,N,12039.7323,W,1,12,0.8,8.8,M,-33.8,M,,*59
$PYRTM,2024,123.504916708681,14.614564118819
$GPGGA,120703.00,3416.4974,N,12039.7335,W,1,12,0.8,8.9,M,-33.8,M,,*53
$PYRTM,2024,123.504928270336,14.614575680475
$GPGGA,120704.00,3416.4978,N,12039.7351,W,1,12,0.8,8.8,M,-33.8,M,,*5B
$PYRTM,2024,123.504939858530,14.614587268657
$GPGGA,120705.00,3416.4980,N,12039.7370,W,1,12,0.8,8.7,M,-33.8,M,,*51
$PYRTM,2024,123.504951417037,14.614598827176
$GPGGA,120706.00,3416.4983,N,12039.7386,W,1,12,0.8,8.2,M,-33.8,M,,*5D
$PYRTM,2024,123.504963005266,14.614610415417
$GPGGA,120707.00,3416.4990,N,12039.7398,W,1,12,0.8,7.9,M,-33.8,M,,*55
$PYRTM,2024,123.504974566308,14.614621976447
$GPGGA,120708.00,3416.4996,N,12039.7407,W,1,12,0.8,8.4,M,-33.8,M,,*5F
$PYRTM,2024,123.504986149051,14.614633559190
$GPGGA,120709.00,3416.5000,N,12039.7418,W,1,12,0.8,8.8,M,-33.8,M,,*5B
$PYRTM,2024,123.504997716123,14.614645126262
$GPGGA,120710.00,3416.5003,N,12039.7437,W,1,12,0.8,8.5,M,-33.8,M,,*50
$PYRTM,2024,123.505009316053,14.614656726192
$GPGGA,120711.00,3416.5009,N,12039.7458,W,1,12,0.8,6.5,M,-33.8,M,,*5C
$PYRTM,2024,123.505020864815,14.614668274954
$GPGGA,120712.00,3416.5016,N,12039.7471,W,1,12,0.8,6.4,M,-33.8,M,,*5B
$PYRTM,2024,123.505033494016,14.614680904167
$GPGGA,120713.00,3416.5019,N,12039.7478,W,1,12,0.8,7.3,M,-33.8,M,,*5A
$PYRTM,2024,123.505046092269,14.614693502407
$GPGGA,120714.00,3416.5021,N,12039.7489,W,1,12,0.8,8.1,M,-33.8,M,,*55
$PYRTM,2024,123.505055598854,14.614703008993
$GPGGA,120715.00,3416.5026,N,12039.7506,W,1,12,0.8,8.5,M,-33.8,M,,*51
$PYRTM,2024,123.505067160475,14.614714570613
$GPGGA,120716.00,3416.5033,N,12039.7522,W,1,12,0.8,7.8,M,-33.8,M,,*52
$PYRTM,2024,123.505078748194,14.614726158333
$GPGGA,120717.00,3416.5038,N,12039.7533,W,1,12,0.8,6.9,M,-33.8,M,,*58
$PYRTM,2024,123.505090668935,14.614738079086
$GPGGA,120718.00,3416.5042,N,12039.7542,W,1,12,0.8,7.1,M,-33.8,M,,*55
$PYRTM,2024,123.505101895498,14.614749305637
$GPGGA,120719.00,3416.5047,N,12039.7554,W,1,12,0.8,7.5,M,-33.8,M,,*52
$PYRTM,2024,123.505113457025,14.614760867164
$GPGGA,120720.00,3416.5051,N,12039.7570,W,1,12,0.8,7.9,M,-33.8,M,,*55
$PYRTM,2024,123.505125044248,14.614772454387
$GPGGA,120721.00,3416.5055,N,12039.7587,W,1,12,0.8,8.3,M,-33.8,M,,*5D
$PYRTM,2024,123.505136604687,14.614784014826
$GPGGA,120722.00,3416.5059,N,12039.7602,W,1,12,0.8,8.0,M,-33.8,M,,*5F
$PYRTM,2024,123.505148539167,14.614795949306
$GPGGA,120723.00,3416.5066,N,12039.7612,W,1,12,0.8,8.1,M,-33.8,M,,*52
$PYRTM,2024,123.505159754792,14.614807164931
$GPGGA,120724.00,3416.5070,N,12039.7624,W,1,12,0.8,7.4,M,-33.8,M,,*5D
$PYRTM,2024,123.505171336111,14.614818746250
$GPGGA,120725.00,3416.5073,N,12039.7641,W,1,12,0.8,7.0,M,-33.8,M,,*58
$PYRTM,2024,123.505182902986,14.614830313125
$GPGGA,120726.00,3416.5075,N,12039.7660,W,1,12,0.8,6.4,M,-33.8,M,,*5B
$PYRTM,2024,123.505194503669,14.614841913808
$GPGGA,120727.00,3416.5080,N,12039.7675,W,1,12,0.8,6.4,M,-33.8,M,,*54
$PYRTM,2024,123.505206051806,14.614853461944
$GPGGA,120728.00,3416.5090,N,12039.7684,W,1,12,0.8,7.5,M,-33.8,M,,*54
$PYRTM,2024,123.505217640012,14.614865050150
$GPGGA,120729.00,3416.5099,N,12039.7692,W,1,12,0.8,8.6,M,-33.8,M,,*57
$PYRTM,2024,123.505229199097,14.614876609236
$GPGGA,120730.00,3416.5103,N,12039.7707,W,1,12,0.8,7.9,M,-33.8,M,,*50
$PYRTM,2024,123.505240786042,14.614888196181
$GPGGA,120731.00,3416.5104,N,12039.7728,W,1,12,0.8,6.4,M,-33.8,M,,*57
$PYRTM,2024,123.505252347245,14.614899757384
$GPGGA,120732.00,3416.5107,N,12039.7746,W,1,12,0.8,5.4,M,-33.8,M,,*5C
$PYRTM,2024,123.505263934479,14.614911344618
$GPGGA,120733.00,3416.5114,N,12039.7756,W,1,12,0.8,4.5,M,-33.8,M,,*5E
$PYRTM,2024,123.505275496759,14.614922906898
$GPGGA,120734.00,3416.5125,N,12039.7765,W,1,12,0.8,4.2,M,-33.8,M,,*5C
$PYRTM,2024,123.505287082500,14.614934492639
$GPGGA,120735.00,3416.5133,N,12039.7778,W,1,12,0.8,4.9,M,-33.8,M,,*5D
$PYRTM,2024,123.505298643553,14.614946053704
$GPGGA,120736.00,3416.5134,N,12039.7793,W,1,12,0.8,6.8,M,-33.8,M,,*5F
$PYRTM,2024,123.505310231100,14.614957641238
$GPGGA,120737.00,3416.5132,N,12039.7807,W,1,12,0.8,7.8,M,-33.8,M,,*5B
$PYRTM,2024,123.505321793600,14.614969203738
$GPGGA,120738.00,3416.5135,N,12039.7825,W,1,12,0.8,6.0,M,-33.8,M,,*5A
$PYRTM,2024,123.505333382963,14.614980793102
$GPGGA,120739.00,3416.5143,N,12039.7842,W,1,12,0.8,5.2,M,-33.8,M,,*5A
$PYRTM,2024,123.505344941620,14.614992351759
$GPGGA,120740.00,3416.5152,N,12039.7854,W,1,12,0.8,5.2,M,-33.8,M,,*53
$PYRTM,2024,123.505356541991,14.615003952130
$GPGGA,120741.00,3416.5155,N,12039.7861,W,1,12,0.8,7.6,M,-33.8,M,,*55
$PYRTM,2024,123.505368087176,14.615015497315
$GPGGA,120742.00,3416.5155,N,12039.7874,W,1,12,0.8,9.1,M,-33.8,M,,*5B
$PYRTM,2024,123.505380719965,14.615028130104
$GPGGA,120743.00,3416.5158,N,12039.7894,W,1,12,0.8,7.1,M,-33.8,M,,*57
$PYRTM,2024,123.505393435243,14.615040845382
$GPGGA,120744.00,3416.5163,N,12039.7912,W,1,12,0.8,7.7,M,-33.8,M,,*51
$PYRTM,2024,123.505402818947,14.615050229086
$GPGGA,120745.00,3416.5168,N,12039.7923,W,1,12,0.8,8.0,M,-33.8,M,,*51
$PYRTM,2024,123.505413458912,14.615060869051
$GPGGA,120746.00,3416.5172,N,12039.7932,W,1,12,0.8,8.3,M,-33.8,M,,*5A
$PYRTM,2024,123.505426423275,14.615073833414
$GPGGA,120747.00,3416.5177,N,12039.7945,W,1,12,0.8,7.9,M,-33.8,M,,*5B
$PYRTM,2024,123.505435234699,14.615082644838
$GPGGA,120748.00,3416.5182,N,12039.7962,W,1,12,0.8,7.4,M,-33.8,M,,*56
$PYRTM,2024,123.505452241331,14.615099651470
$GPGGA,120749.00,3416.5187,N,12039.7980,W,1,12,0.8,6.5,M,-33.8,M,,*5E
$PYRTM,2024,123.505463355926,14.615110766065
$GPGGA,120750.00,3416.5189,N,12039.7995,W,1,12,0.8,7.0,M,-33.8,M,,*58
$PYRTM,2024,123.505474454931,14.615121865069
$GPGGA,120751.00,3416.5193,N,12039.8007,W,1,12,0.8,8.0,M,-33.8,M,,*50
$PYRTM,2024,123.505485458704,14.615132868854
$GPGGA,120752.00,3416.5200,N,12039.8022,W,1,12,0.8,8.4,M,-33.8,M,,*59
$PYRTM,2024,123.505496561725,14.615143971863
$GPGGA,120753.00,3416.5210,N,12039.8039,W,1,12,0.8,6.5,M,-33.8,M,,*5C
$PYRTM,2024,123.505507685417,14.615155095556
$GPGGA,120754.00,3416.5214,N,12039.8054,W,1,12,0.8,7.4,M,-33.8,M,,*54
$PYRTM,2024,123.505518796725,14.615166206863
$GPGGA,120755.00,3416.5213,N,12039.8066,W,1,12,0.8,8.5,M,-33.8,M,,*5D
$PYRTM,2024,123.505529909144,14.615177319282
$GPGGA,120756.00,3416.5215,N,12039.8079,W,1,12,0.8,8.8,M,-33.8,M,,*5B
$PYRTM,2024,123.505541021146,14.615188431285
$GPGGA,120757.00,3416.5222,N,12039.8096,W,1,12,0.8,8.5,M,-33.8,M,,*52
$PYRTM,2024,123.505552010012,14.615199420150
$GPGGA,120758.00,3416.5229,N,12039.8111,W,1,12,0.8,8.1,M,-33.8,M,,*5C
$PYRTM,2024,123.505563124838,14.615210534977
$GPGGA,120759.00,3416.5233,N,12039.8121,W,1,12,0.8,9.0,M,-33.8,M,,*55
$PYRTM,2024,123.505574688125,14.615222098275
$GPGGA,120800.00,3416.5233,N,12039.8133,W,1,12,0.8,9.6,M,-33.8,M,,*53
$PYRTM,2024,123.505586270150,14.615233680289
$GPGGA,120801.00,3416.5238,N,12039.8148,W,1,12,0.8,9.6,M,-33.8,M,,*55
$PYRTM,2024,123.505597836215,14.615245246354
$GPGGA,120802.00,3416.5245,N,12039.8162,W,1,12,0.8,8.3,M,-33.8,M,,*50
$PYRTM,2024,123.505609424306,14.615256834444
$GPGGA,120803.00,3416.5250,N,12039.8173,W,1,12,0.8,8.1,M,-33.8,M,,*57
$PYRTM,2024,123.505620986076,14.615268396215
$GPGGA,120804.00,3416.5252,N,12039.8185,W,1,12,0.8,8.3,M,-33.8,M,,*59
$PYRTM,2024,123.505632571319,14.615279981470
$GPGGA,120805.00,3416.5254,N,12039.8202,W,1,12,0.8,8.2,M,-33.8,M,,*53
$PYRTM,2024,123.505644133623,14.615291543762
$GPGGA,120806.00,3416.5257,N,12039.8218,W,1,12,0.8,7.5,M,-33.8,M,,*50
$PYRTM,2024,123.505655722697,14.615303132847
$GPGGA,120807.00,3416.5264,N,12039.8231,W,1,12,0.8,7.4,M,-33.8,M,,*5B
$PYRTM,2024,123.505667281181,14.615314691319
$GPGGA,120808.00,3416.5270,N,12039.8242,W,1,12,0.8,8.3,M,-33.8,M,,*5D
$PYRTM,2024,123.505678882431,14.615326292569
$GPGGA,120809.00,3416.5271,N,12039.8256,W,1,12,0.8,9.2,M,-33.8,M,,*58
$PYRTM,2024,123.505690429201,14.615337839352
$GPGGA,120810.00,3416.5271,N,12039.8273,W,1,12,0.8,9.5,M,-33.8,M,,*50
$PYRTM,2024,123.505702018889,14.615349429028
$GPGGA,120811.00,3416.5275,N,12039.8288,W,1,12,0.8,8.9,M,-33.8,M,,*5C
$PYRTM,2024,123.505713577164,14.615360987315
$GPGGA,120812.00,3416.5283,N,12039.8299,W,1,12,0.8,7.9,M,-33.8,M,,*59
$PYRTM,2024,123.505726655694,14.615374065833
$GPGGA,120813.00,3416.5289,N,12039.8314,W,1,12,0.8,7.6,M,-33.8,M,,*59
$PYRTM,2024,123.505737317789,14.615384727928
$GPGGA,120814.00,3416.5292,N,12039.8332,W,1,12,0.8,7.8,M,-33.8,M,,*5E
$PYRTM,2024,123.505748877627,14.615396287766
$GPGGA,120815.00,3416.5295,N,12039.8349,W,1,12,0.8,8.3,M,-33.8,M,,*50
$PYRTM,2024,123.505760465671,14.615407875810
$GPGGA,120816.00,3416.5302,N,12039.8361,W,1,12,0.8,9.5,M,-33.8,M,,*51
$PYRTM,2024,123.505772024988,14.615419435127
$GPGGA,120817.00,3416.5310,N,12039.8373,W,1,12,0.8,9.7,M,-33.8,M,,*52
$PYRTM,2024,123.505783613484,14.615431023623
$GPGGA,120818.00,3416.5317,N,12039.8389,W,1,12,0.8,7.7,M,-33.8,M,,*51
$PYRTM,2024,123.505795176042,14.615442586181
$GPGGA,120819.00,3416.5321,N,12039.8407,W,1,12,0.8,8.6,M,-33.8,M,,*5A
$PYRTM,2024,123.505806763576,14.615454173715
$GPGGA,120820.00,3416.5321,N,12039.8422,W,1,12,0.8,8.0,M,-33.8,M,,*51
$PYRTM,2024,123.505818322095,14.615465732234
$GPGGA,120821.00,3416.5327,N,12039.8433,W,1,12,0.8,8.0,M,-33.8,M,,*56
$PYRTM,2024,123.505829911748,14.615477321887
$GPGGA,120822.00,3416.5337,N,12039.8447,W,1,12,0.8,7.7,M,-33.8,M,,*5F
$PYRTM,2024,123.505841470347,14.615488880486
$GPGGA,120823.00,3416.5345,N,12039.8462,W,1,12,0.8,7.5,M,-33.8,M,,*5E
$PYRTM,2024,123.505853053368,14.615500463507
$GPGGA,120824.00,3416.5348,N,12039.8478,W,1,12,0.8,7.9,M,-33.8,M,,*53
$PYRTM,2024,123.505864618646,14.615512028785
$GPGGA,120825.00,3416.5349,N,12039.8492,W,1,12,0.8,9.1,M,-33.8,M,,*51
$PYRTM,2024,123.505876208264,14.615523618403
$GPGGA,120826.00,3416.5354,N,12039.8506,W,1,12,0.8,9.5,M,-33.8,M,,*56
$PYRTM,2024,123.505887767037,14.615535177188
$GPGGA,120827.00,3416.5364,N,12039.8520,W,1,12,0.8,9.5,M,-33.8,M,,*50
$PYRTM,2024,123.505899350324,14.615546760463
$GPGGA,120828.00,3416.5374,N,12039.8535,W,1,12,0.8,7.2,M,-33.8,M,,*53
$PYRTM,2024,123.505910914803,14.615558324942
$GPGGA,120829.00,3416.5378,N,12039.8552,W,1,12,0.8,6.9,M,-33.8,M,,*55
$PYRTM,2024,123.505922499051,14.615569909190
$GPGGA,120830.00,3416.5378,N,12039.8569,W,1,12,0.8,8.0,M,-33.8,M,,*52
$PYRTM,2024,123.505934065486,14.615581475625
$GPGGA,120831.00,3416.5381,N,12039.8585,W,1,12,0.8,8.5,M,-33.8,M,,*52
$PYRTM,2024,123.505945651991,14.615593062130
$GPGGA,120832.00,3416.5389,N,12039.8602,W,1,12,0.8,9.3,M,-33.8,M,,*52
$PYRTM,2024,123.505957212662,14.615604622801
$GPGGA,120833.00,3416.5397,N,12039.8617,W,1,12,0.8,8.7,M,-33.8,M,,*5D
$PYRTM,2024,123.505968800451,14.615616210590
$GPGGA,120834.00,3416.5396,N,12039.8631,W,1,12,0.8,8.8,M,-33.8,M,,*50
$PYRTM,2024,123.505980360775,14.615627770914
$GPGGA,120835.00,3416.5392,N,12039.8645,W,1,12,0.8,8.8,M,-33.8,M,,*56
$PYRTM,2024,123.505991948993,14.615639359132
$GPGGA,120836.00,3416.5394,N,12039.8663,W,1,12,0.8,10.0,M,-33.8,M,,*66
$PYRTM,2024,123.506003510093,14.615650920231
$GPGGA,120837.00,3416.5403,N,12039.8679,W,1,12,0.8,10.4,M,-33.8,M,,*61
$PYRTM,2024,123.506015097627,14.615662507766
$GPGGA,120838.00,3416.5410,N,12039.8689,W,1,12,0.8,10.3,M,-33.8,M,,*64
$PYRTM,2024,123.506026656065,14.615674066204
$GPGGA,120839.00,3416.5409,N,12039.8701,W,1,12,0.8,11.3,M,-33.8,M,,*6D
$PYRTM,2024,123.506038241030,14.615685651181
