$PYRTM,2024,126.833342299039,17.942989709178
$GPGGA,195959.00,3356.5525,N,11932.2507,W,1,08,1.0,6.2,M,-33.8,M,,*52
$PYRTM,2024,126.833353854398,17.943001264537
$GPGGA,200000.00,3356.5523,N,11932.2509,W,1,08,1.0,6.2,M,-33.8,M,,*50
$PYRTM,2024,126.833365444931,17.943012855069
$GPGGA,200001.00,3356.5520,N,11932.2512,W,1,08,1.0,6.3,M,-33.8,M,,*59
$PYRTM,2024,126.833377003333,17.943024413472
$GPGGA,200002.00,3356.5519,N,11932.2516,W,1,08,1.0,6.3,M,-33.8,M,,*54
$PYRTM,2024,126.833388591354,17.943036001505
$GPGGA,200003.00,3356.5517,N,11932.2520,W,1,08,1.0,6.3,M,-33.8,M,,*5E
$PYRTM,2024,126.833400152373,17.943047562512
$GPGGA,200004.00,3356.5517,N,11932.2523,W,1,08,1.0,6.3,M,-33.8,M,,*5A
$PYRTM,2024,126.833411736088,17.943059146227
$GPGGA,200005.00,3356.5515,N,11932.2526,W,1,08,1.0,6.3,M,-33.8,M,,*5C
$PYRTM,2024,126.833423302465,17.943070712616
$GPGGA,200006.00,3356.5513,N,11932.2528,W,1,08,1.0,6.3,M,-33.8,M,,*57
$PYRTM,2024,126.833436379699,17.943083789838
$GPGGA,200007.00,3356.5510,N,11932.2530,W,1,08,1.0,6.3,M,-33.8,M,,*5C
$PYRTM,2024,126.833448661701,17.943096071840
$GPGGA,200008.00,3356.5508,N,11932.2533,W,1,08,1.0,6.4,M,-33.8,M,,*5E
$PYRTM,2024,126.833458031065,17.943105441215
$GPGGA,200009.00,3356.5507,N,11932.2538,W,1,08,1.0,6.5,M,-33.8,M,,*5A
$PYRTM,2024,126.833469597731,17.943117007870
$GPGGA,200010.00,3356.5506,N,11932.2543,W,1,08,1.0,6.5,M,-33.8,M,,*5F
$PYRTM,2024,126.833480258449,17.943127668588
$GPGGA,200011.00,3356.5504,N,11932.2546,W,1,08,1.0,6.4,M,-33.8,M,,*58
$PYRTM,2024,126.833491369190,17.943138779329
$GPGGA,200012.00,3356.5502,N,11932.2547,W,1,08,1.0,6.4,M,-33.8,M,,*5C
$PYRTM,2024,126.833502931007,17.943150341146
$GPGGA,200013.00,3356.5499,N,11932.2549,W,1,08,1.0,6.4,M,-33.8,M,,*50
$PYRTM,2024,126.833514042442,17.943161452581
$GPGGA,200014.00,3356.5496,N,11932.2552,W,1,08,1.0,6.4,M,-33.8,M,,*52
$PYRTM,2024,126.833525049780,17.943172459919
$GPGGA,200015.00,3356.5495,N,11932.2557,W,1,08,1.0,6.4,M,-33.8,M,,*55
$PYRTM,2024,126.833536161528,17.943183571667
$GPGGA,200016.00,3356.5494,N,11932.2561,W,1,08,1.0,6.4,M,-33.8,M,,*52
$PYRTM,2024,126.833550629444,17.943198039583
$GPGGA,200017.00,3356.5492,N,11932.2564,W,1,08,1.0,6.4,M,-33.8,M,,*50
$PYRTM,2024,126.833561736377,17.943209146516
$GPGGA,200018.00,3356.5489,N,11932.2565,W,1,08,1.0,6.4,M,-33.8,M,,*54
$PYRTM,2024,126.833579680162,17.943227090301
$GPGGA,200019.00,3356.5486,N,11932.2568,W,1,08,1.0,6.4,M,-33.8,M,,*57
$PYRTM,2024,126.833591711192,17.943239121343
$GPGGA,200020.00,3356.5484,N,11932.2572,W,1,08,1.0,6.4,M,-33.8,M,,*54
$PYRTM,2024,126.833602827569,17.943250237708
$GPGGA,200021.00,3356.5484,N,11932.2575,W,1,08,1.0,6.4,M,-33.8,M,,*52
$PYRTM,2024,126.833613939190,17.943261349340
$GPGGA,200022.00,3356.5483,N,11932.2576,W,1,08,1.0,6.4,M,-33.8,M,,*55
$PYRTM,2024,126.833625045012,17.943272455150
$GPGGA,200023.00,3356.5482,N,11932.2578,W,1,08,1.0,6.3,M,-33.8,M,,*5C
$PYRTM,2024,126.833636047153,17.943283457292
$GPGGA,200024.00,3356.5480,N,11932.2583,W,1,08,1.0,6.4,M,-33.8,M,,*5A
$PYRTM,2024,126.833647156586,17.943294566725
$GPGGA,200025.00,3356.5478,N,11932.2587,W,1,08,1.0,6.5,M,-33.8,M,,*59
$PYRTM,2024,126.833658267558,17.943305677697
$GPGGA,200026.00,3356.5475,N,11932.2589,W,1,08,1.0,6.5,M,-33.8,M,,*59
$PYRTM,2024,126.833669378681,17.943316788831
$GPGGA,200027.00,3356.5473,N,11932.2591,W,1,08,1.0,6.5,M,-33.8,M,,*57
$PYRTM,2024,126.833680939005,17.943328349144
$GPGGA,200028.00,3356.5473,N,11932.2595,W,1,08,1.0,6.5,M,-33.8,M,,*5C
$PYRTM,2024,126.833691933461,17.943339343588
$GPGGA,200029.00,3356.5472,N,11932.2600,W,1,08,1.0,6.5,M,-33.8,M,,*53
$PYRTM,2024,126.833703048426,17.943350458565
$GPGGA,200030.00,3356.5469,N,11932.2604,W,1,08,1.0,6.5,M,-33.8,M,,*55
$PYRTM,2024,126.833714160509,17.943361570648
$GPGGA,200031.00,3356.5466,N,11932.2605,W,1,08,1.0,6.5,M,-33.8,M,,*5A
$PYRTM,2024,126.833725269479,17.943372679618
$GPGGA,200032.00,3356.5464,N,11932.2606,W,1,08,1.0,6.5,M,-33.8,M,,*58
$PYRTM,2024,126.833736379803,17.943383789942
$GPGGA,200033.00,3356.5463,N,11932.2610,W,1,08,1.0,6.6,M,-33.8,M,,*5A
$PYRTM,2024,126.833747492234,17.943394902373
$GPGGA,200034.00,3356.5462,N,11932.2614,W,1,08,1.0,6.5,M,-33.8,M,,*5B
$PYRTM,2024,126.833758963819,17.943406373970
$GPGGA,200035.00,3356.5460,N,11932.2617,W,1,08,1.0,6.5,M,-33.8,M,,*5B
$PYRTM,2024,126.833770526157,17.943417936296
$GPGGA,200036.00,3356.5457,N,11932.2619,W,1,08,1.0,6.5,M,-33.8,M,,*52
$PYRTM,2024,126.833782561505,17.943429971644
$GPGGA,200037.00,3356.5455,N,11932.2620,W,1,08,1.0,6.5,M,-33.8,M,,*5B
$PYRTM,2024,126.833792299850,17.943439710000
$GPGGA,200038.00,3356.5453,N,11932.2624,W,1,08,1.0,6.6,M,-33.8,M,,*55
$PYRTM,2024,126.833804087442,17.943451497581
$GPGGA,200039.00,3356.5452,N,11932.2629,W,1,08,1.0,6.6,M,-33.8,M,,*58
$PYRTM,2024,126.833816820590,17.943464230741
$GPGGA,200040.00,3356.5452,N,11932.2633,W,1,08,1.0,6.7,M,-33.8,M,,*5C
$PYRTM,2024,126.833828408507,17.943475818646
$GPGGA,200041.00,3356.5450,N,11932.2635,W,1,08,1.0,6.6,M,-33.8,M,,*58
$PYRTM,2024,126.833839969954,17.943487380093
$GPGGA,200042.00,3356.5448,N,11932.2637,W,1,08,1.0,6.6,M,-33.8,M,,*50
$PYRTM,2024,126.833851556181,17.943498966319
$GPGGA,200043.00,3356.5446,N,11932.2639,W,1,08,1.0,6.7,M,-33.8,M,,*50
$PYRTM,2024,126.833863116620,17.943510526759
$GPGGA,200044.00,3356.5445,N,11932.2643,W,1,08,1.0,6.6,M,-33.8,M,,*58
$PYRTM,2024,126.833874707604,17.943522117743
$GPGGA,200045.00,3356.5443,N,11932.2647,W,1,08,1.0,6.6,M,-33.8,M,,*5B
$PYRTM,2024,126.833886265255,17.943533675394
$GPGGA,200046.00,3356.5441,N,11932.2648,W,1,08,1.0,6.7,M,-33.8,M,,*54
$PYRTM,2024,126.833897856516,17.943545266667
$GPGGA,200047.00,3356.5439,N,11932.2650,W,1,08,1.0,6.7,M,-33.8,M,,*53
$PYRTM,2024,126.833909415914,17.943556826065
$GPGGA,200048.00,3356.5437,N,11932.2654,W,1,08,1.0,6.7,M,-33.8,M,,*56
$PYRTM,2024,126.833921000278,17.943568410417
$GPGGA,200049.00,3356.5435,N,11932.2659,W,1,08,1.0,6.7,M,-33.8,M,,*58
$PYRTM,2024,126.833932561979,17.943579972118
$GPGGA,200050.00,3356.5433,N,11932.2663,W,1,08,1.0,6.7,M,-33.8,M,,*5F
$PYRTM,2024,126.833944150810,17.943591560949
$GPGGA,200051.00,3356.5430,N,11932.2664,W,1,08,1.0,6.8,M,-33.8,M,,*55
$PYRTM,2024,126.833955710556,17.943603120694
$GPGGA,200052.00,3356.5426,N,11932.2667,W,1,08,1.0,6.8,M,-33.8,M,,*52
$PYRTM,2024,126.833967293449,17.943614703588
$GPGGA,200053.00,3356.5425,N,11932.2670,W,1,08,1.0,6.9,M,-33.8,M,,*57
$PYRTM,2024,126.833978859363,17.943626269514
$GPGGA,200054.00,3356.5424,N,11932.2674,W,1,08,1.0,6.9,M,-33.8,M,,*55
$PYRTM,2024,126.833990447593,17.943637857731
$GPGGA,200055.00,3356.5422,N,11932.2676,W,1,08,1.0,6.9,M,-33.8,M,,*50
$PYRTM,2024,126.834002009259,17.943649419398
$GPGGA,200056.00,3356.5421,N,11932.2678,W,1,08,1.0,6.9,M,-33.8,M,,*5E
$PYRTM,2024,126.834013594086,17.943661004225
$GPGGA,200057.00,3356.5419,N,11932.2681,W,1,08,1.0,6.9,M,-33.8,M,,*52
$PYRTM,2024,126.834025156019,17.943672566157
$GPGGA,200058.00,3356.5418,N,11932.2682,W,1,08,1.0,6.9,M,-33.8,M,,*5F
$PYRTM,2024,126.834036745150,17.943684155289
$GPGGA,200059.00,3356.5418,N,11932.2684,W,1,08,1.0,6.9,M,-33.8,M,,*58
$PYRTM,2024,126.834048302292,17.943695712431
$GPGGA,200100.00,3356.5416,N,11932.2688,W,1,08,1.0,6.8,M,-33.8,M,,*56
$PYRTM,2024,126.834059893542,17.943707303681
$GPGGA,200101.00,3356.5415,N,11932.2693,W,1,08,1.0,6.8,M,-33.8,M,,*5E
$PYRTM,2024,126.834071452975,17.943718863125
$GPGGA,200102.00,3356.5412,N,11932.2695,W,1,08,1.0,6.8,M,-33.8,M,,*5C
$PYRTM,2024,126.834083041331,17.943730451470
$GPGGA,200103.00,3356.5411,N,11932.2696,W,1,08,1.0,6.8,M,-33.8,M,,*5D
$PYRTM,2024,126.834094599769,17.943742009907
$GPGGA,200104.00,3356.5410,N,11932.2699,W,1,08,1.0,6.8,M,-33.8,M,,*54
$PYRTM,2024,126.834106188692,17.943753598831
$GPGGA,200105.00,3356.5411,N,11932.2705,W,1,08,1.0,6.1,M,-33.8,M,,*59
$PYRTM,2024,126.834117748576,17.943765158715
$GPGGA,200106.00,3356.5409,N,11932.2711,W,1,08,1.0,6.2,M,-33.8,M,,*55
$PYRTM,2024,126.834129334606,17.943776744745
$GPGGA,200107.00,3356.5408,N,11932.2713,W,1,08,1.0,6.2,M,-33.8,M,,*57
$PYRTM,2024,126.834139522801,17.943786932951
$GPGGA,200108.00,3356.5408,N,11932.2715,W,1,08,1.3,6.2,M,-33.8,M,,*5D
$PYRTM,2024,126.834151792199,17.943799202338
$GPGGA,200109.00,3356.5409,N,11932.2718,W,1,08,1.3,6.1,M,-33.8,M,,*53
$PYRTM,2024,126.834164044954,17.943811455093
$GPGGA,200110.00,3356.5408,N,11932.2722,W,1,08,1.3,6.7,M,-33.8,M,,*55
$PYRTM,2024,126.834175631840,17.943823041979
$GPGGA,200111.00,3356.5405,N,11932.2726,W,1,08,1.3,6.7,M,-33.8,M,,*5D
$PYRTM,2024,126.834187192581,17.943834602720
$GPGGA,200112.00,3356.5404,N,11932.2727,W,1,08,1.3,6.7,M,-33.8,M,,*5E
$PYRTM,2024,126.834198781296,17.943846191435
$GPGGA,200113.00,3356.5404,N,11932.2729,W,1,08,1.3,6.7,M,-33.8,M,,*51
$PYRTM,2024,126.834210340752,17.943857750891
$GPGGA,200114.00,3356.5404,N,11932.2731,W,1,08,1.3,6.7,M,-33.8,M,,*5F
$PYRTM,2024,126.834221930729,17.943869340868
$GPGGA,200115.00,3356.5403,N,11932.2735,W,1,08,1.3,6.6,M,-33.8,M,,*5C
$PYRTM,2024,126.834233491042,17.943880901192
$GPGGA,200116.00,3356.5400,N,11932.2738,W,1,08,1.3,6.6,M,-33.8,M,,*51
$PYRTM,2024,126.834245079410,17.943892489549
$GPGGA,200117.00,3356.5396,N,11932.2740,W,1,08,1.3,6.5,M,-33.8,M,,*54
$PYRTM,2024,126.834256638310,17.943904048461
$GPGGA,200118.00,3356.5394,N,11932.2742,W,1,08,1.3,6.5,M,-33.8,M,,*5B
$PYRTM,2024,126.834268227407,17.943915637546
$GPGGA,200119.00,3356.5395,N,11932.2743,W,1,08,1.3,6.6,M,-33.8,M,,*59
$PYRTM,2024,126.834279787072,17.943927197211
$GPGGA,200120.00,3356.5394,N,11932.2746,W,1,08,1.3,6.6,M,-33.8,M,,*57
$PYRTM,2024,126.834291375521,17.943938785660
$GPGGA,200121.00,3356.5390,N,11932.2752,W,1,08,1.3,6.0,M,-33.8,M,,*51
$PYRTM,2024,126.834302933299,17.943950343437
$GPGGA,200122.00,3356.5384,N,11932.2756,W,1,08,1.3,6.0,M,-33.8,M,,*53
$PYRTM,2024,126.834314522604,17.943961932743
$GPGGA,200123.00,3356.5380,N,11932.2758,W,1,08,1.3,6.0,M,-33.8,M,,*58
$PYRTM,2024,126.834326082361,17.943973492500
$GPGGA,200124.00,3356.5377,N,11932.2760,W,1,08,1.3,6.0,M,-33.8,M,,*5C
$PYRTM,2024,126.834337670093,17.943985080231
$GPGGA,200125.00,3356.5376,N,11932.2763,W,1,08,1.3,6.0,M,-33.8,M,,*5F
$PYRTM,2024,126.834349229977,17.943996640116
$GPGGA,200126.00,3356.5375,N,11932.2767,W,1,08,1.3,6.0,M,-33.8,M,,*5B
$PYRTM,2024,126.834360818044,17.944008228194
$GPGGA,200127.00,3356.5372,N,11932.2771,W,1,08,1.3,6.0,M,-33.8,M,,*5A
$PYRTM,2024,126.834372377789,17.944019787928
$GPGGA,200128.00,3356.5369,N,11932.2774,W,1,08,1.3,6.0,M,-33.8,M,,*5A
$PYRTM,2024,126.834383966806,17.944031376944
$GPGGA,200129.00,3356.5366,N,11932.2777,W,1,08,1.3,6.0,M,-33.8,M,,*57
$PYRTM,2024,126.834395527766,17.944042937905
$GPGGA,200130.00,3356.5365,N,11932.2779,W,1,08,1.3,6.1,M,-33.8,M,,*53
$PYRTM,2024,126.834407117037,17.944054527176
$GPGGA,200131.00,3356.5364,N,11932.2782,W,1,08,1.3,6.0,M,-33.8,M,,*56
$PYRTM,2024,126.834418674942,17.944066085081
$GPGGA,200132.00,3356.5361,N,11932.2784,W,1,08,1.3,6.0,M,-33.8,M,,*56
$PYRTM,2024,126.834430265220,17.944077675359
$GPGGA,200133.00,3356.5358,N,11932.2787,W,1,08,1.3,6.0,M,-33.8,M,,*5E
$PYRTM,2024,126.834441824225,17.944089234375
$GPGGA,200134.00,3356.5355,N,11932.2790,W,1,08,1.3,6.0,M,-33.8,M,,*52
$PYRTM,2024,126.834453411551,17.944100821690
$GPGGA,200135.00,3356.5354,N,11932.2794,W,1,08,1.3,6.0,M,-33.8,M,,*56
$PYRTM,2024,126.834464972975,17.944112383113
$GPGGA,200136.00,3356.5354,N,11932.2796,W,1,08,1.3,6.0,M,-33.8,M,,*57
$PYRTM,2024,126.834476555185,17.944123965324
$GPGGA,200137.00,3356.5352,N,11932.2798,W,1,08,1.3,6.0,M,-33.8,M,,*5E
$PYRTM,2024,126.834486757650,17.944134167789
$GPGGA,200138.00,3356.5348,N,11932.2800,W,1,08,1.3,6.0,M,-33.8,M,,*54
$PYRTM,2024,126.834498546019,17.944145956157
$GPGGA,200139.00,3356.5344,N,11932.2804,W,1,08,1.3,6.0,M,-33.8,M,,*5D
$PYRTM,2024,126.834511631262,17.944159041400
$GPGGA,200140.00,3356.5343,N,11932.2808,W,1,08,1.3,6.0,M,-33.8,M,,*58
$PYRTM,2024,126.834522855359,17.944170265498
$GPGGA,200141.00,3356.5344,N,11932.2811,W,1,08,1.3,6.0,M,-33.8,M,,*56
$PYRTM,2024,126.834534417292,17.944181827431
$GPGGA,200142.00,3356.5343,N,11932.2812,W,1,08,1.3,6.0,M,-33.8,M,,*51
$PYRTM,2024,126.834546003519,17.944193413657
$GPGGA,200143.00,3356.5340,N,11932.2814,W,1,08,1.3,6.0,M,-33.8,M,,*55
$PYRTM,2024,126.834557565231,17.944204975370
$GPGGA,200144.00,3356.5336,N,11932.2818,W,1,08,1.3,6.0,M,-33.8,M,,*5F
$PYRTM,2024,126.834569155000,17.944216565150
$GPGGA,200145.00,3356.5334,N,11932.2822,W,1,08,1.3,6.0,M,-33.8,M,,*55
$PYRTM,2024,126.834580715266,17.944228125405
$GPGGA,200146.00,3356.5333,N,11932.2825,W,1,08,1.3,6.0,M,-33.8,M,,*56
$PYRTM,2024,126.834592303275,17.944239713426
$GPGGA,200147.00,3356.5332,N,11932.2827,W,1,08,1.3,6.0,M,-33.8,M,,*54
$PYRTM,2024,126.834603860995,17.944251271134
$GPGGA,200148.00,3356.5330,N,11932.2829,W,1,08,1.3,6.0,M,-33.8,M,,*57
$PYRTM,2024,126.834615447650,17.944262857789
$GPGGA,200149.00,3356.5326,N,11932.2832,W,1,08,1.3,6.0,M,-33.8,M,,*5B
$PYRTM,2024,126.834627008056,17.944274418194
$GPGGA,200150.00,3356.5324,N,11932.2837,W,1,08,1.3,6.0,M,-33.8,M,,*54
$PYRTM,2024,126.834638595845,17.944286005984
$GPGGA,200151.00,3356.5323,N,11932.2841,W,1,08,1.3,6.1,M,-33.8,M,,*52
$PYRTM,2024,126.834650157187,17.944297567326
$GPGGA,200152.00,3356.5322,N,11932.2842,W,1,08,1.3,6.1,M,-33.8,M,,*53
$PYRTM,2024,126.834661745336,17.944309155475
$GPGGA,200153.00,3356.5320,N,11932.2842,W,1,08,1.3,6.1,M,-33.8,M,,*50
$PYRTM,2024,126.834673305799,17.944320715937
$GPGGA,200154.00,3356.5318,N,11932.2844,W,1,08,1.3,6.1,M,-33.8,M,,*5A
$PYRTM,2024,126.834684892697,17.944332302836
$GPGGA,200155.00,3356.5316,N,11932.2851,W,1,08,1.3,6.7,M,-33.8,M,,*57
$PYRTM,2024,126.834696454398,17.944343864537
$GPGGA,200156.00,3356.5315,N,11932.2857,W,1,08,1.3,6.7,M,-33.8,M,,*51
$PYRTM,2024,126.834708041736,17.944355451875
$GPGGA,200157.00,3356.5313,N,11932.2859,W,1,08,1.3,6.7,M,-33.8,M,,*58
$PYRTM,2024,126.834719602558,17.944367012697
$GPGGA,200158.00,3356.5311,N,11932.2860,W,1,08,1.3,6.8,M,-33.8,M,,*50
$PYRTM,2024,126.834731192002,17.944378602141
$GPGGA,200159.00,3356.5309,N,11932.2861,W,1,08,1.3,6.8,M,-33.8,M,,*59
$PYRTM,2024,126.834742751806,17.944390161944
$GPGGA,200200.00,3356.5307,N,11932.2866,W,1,08,1.3,7.1,M,-33.8,M,,*57
$PYRTM,2024,126.834754342512,17.944401752650
$GPGGA,200201.00,3356.5305,N,11932.2871,W,1,08,1.3,7.1,M,-33.8,M,,*52
$PYRTM,2024,126.834765900116,17.944413310255
$GPGGA,200202.00,3356.5304,N,11932.2874,W,1,08,1.3,7.1,M,-33.8,M,,*55
$PYRTM,2024,126.834777487130,17.944424897280
$GPGGA,200203.00,3356.5302,N,11932.2876,W,1,08,1.3,7.1,M,-33.8,M,,*50
$PYRTM,2024,126.834789049306,17.944436459444
$GPGGA,200204.00,3356.5300,N,11932.2878,W,1,08,1.3,7.1,M,-33.8,M,,*5B
$PYRTM,2024,126.834800634282,17.944448044421
$GPGGA,200205.00,3356.5298,N,11932.2882,W,1,08,1.3,7.1,M,-33.8,M,,*5F
$PYRTM,2024,126.834812195671,17.944459605822
$GPGGA,200206.00,3356.5296,N,11932.2884,W,1,08,1.3,7.2,M,-33.8,M,,*57
$PYRTM,2024,126.834823778310,17.944471188449
$GPGGA,200207.00,3356.5294,N,11932.2887,W,1,08,1.3,7.2,M,-33.8,M,,*57
$PYRTM,2024,126.834834418646,17.944481828785
$GPGGA,200208.00,3356.5293,N,11932.2891,W,1,08,1.3,7.2,M,-33.8,M,,*58
$PYRTM,2024,126.834845759398,17.944493169537
$GPGGA,200209.00,3356.5291,N,11932.2895,W,1,08,1.3,7.3,M,-33.8,M,,*5E
$PYRTM,2024,126.834858493299,17.944505903437
$GPGGA,200210.00,3356.5289,N,11932.2897,W,1,08,1.3,7.3,M,-33.8,M,,*5D
$PYRTM,2024,126.834870420810,17.944517830949
$GPGGA,200211.00,3356.5286,N,11932.2898,W,1,08,1.3,7.2,M,-33.8,M,,*5D
$PYRTM,2024,126.834881640648,17.944529050787
$GPGGA,200212.00,3356.5285,N,11932.2900,W,1,08,1.3,7.2,M,-33.8,M,,*5D
$PYRTM,2024,126.834893230799,17.944540640938
$GPGGA,200213.00,3356.5283,N,11932.2904,W,1,08,1.3,7.2,M,-33.8,M,,*5E
$PYRTM,2024,126.834904788762,17.944552198900
$GPGGA,200214.00,3356.5281,N,11932.2909,W,1,08,1.3,7.2,M,-33.8,M,,*56
$PYRTM,2024,126.834916378912,17.944563789051
$GPGGA,200215.00,3356.5278,N,11932.2910,W,1,08,1.3,7.2,M,-33.8,M,,*59
$PYRTM,2024,126.834927010891,17.944574421030
$GPGGA,200216.00,3356.5276,N,11932.2910,W,1,08,1.3,7.2,M,-33.8,M,,*54
$PYRTM,2024,126.834938121412,17.944585531551
$GPGGA,200217.00,3356.5275,N,11932.2913,W,1,08,1.3,7.1,M,-33.8,M,,*56
$PYRTM,2024,126.834950061053,17.944597471192
$GPGGA,200218.00,3356.5274,N,11932.2918,W,1,08,1.3,7.1,M,-33.8,M,,*53
$PYRTM,2024,126.834960705220,17.944608115370
$GPGGA,200219.00,3356.5273,N,11932.2921,W,1,08,1.3,7.1,M,-33.8,M,,*5F
$PYRTM,2024,126.834971830926,17.944619241076
$GPGGA,200220.00,3356.5270,N,11932.2923,W,1,08,1.3,7.1,M,-33.8,M,,*54
$PYRTM,2024,126.834982926053,17.944630336192
$GPGGA,200221.00,3356.5267,N,11932.2924,W,1,08,1.3,7.1,M,-33.8,M,,*54
$PYRTM,2024,126.834994041840,17.944641451979
$GPGGA,200222.00,3356.5266,N,11932.2928,W,1,08,1.3,7.2,M,-33.8,M,,*59
$PYRTM,2024,126.835005018843,17.944652428981
$GPGGA,200223.00,3356.5266,N,11932.2931,W,1,08,1.3,7.2,M,-33.8,M,,*50
$PYRTM,2024,126.835016133194,17.944663543333
$GPGGA,200224.00,3356.5265,N,11932.2934,W,1,08,1.3,7.2,M,-33.8,M,,*51
$PYRTM,2024,126.835027243553,17.944674653692
$GPGGA,200225.00,3356.5262,N,11932.2938,W,1,08,1.3,7.2,M,-33.8,M,,*5B
$PYRTM,2024,126.835038352836,17.944685762986
$GPGGA,200226.00,3356.5258,N,11932.2941,W,1,08,1.3,7.2,M,-33.8,M,,*5F
$PYRTM,2024,126.835049936053,17.944697346192
$GPGGA,200227.00,3356.5256,N,11932.2944,W,1,08,1.3,7.3,M,-33.8,M,,*54
$PYRTM,2024,126.835061503241,17.944708913380
$GPGGA,200228.00,3356.5255,N,11932.2946,W,1,08,1.3,7.3,M,-33.8,M,,*5A
$PYRTM,2024,126.835073089317,17.944720499456
$GPGGA,200229.00,3356.5254,N,11932.2948,W,1,08,1.3,7.3,M,-33.8,M,,*54
$PYRTM,2024,126.835084650741,17.944732060880
$GPGGA,200230.00,3356.5252,N,11932.2950,W,1,08,1.3,7.3,M,-33.8,M,,*53
$PYRTM,2024,126.835096239271,17.944743649410
$GPGGA,200231.00,3356.5249,N,11932.2953,W,1,08,1.3,7.3,M,-33.8,M,,*5B
$PYRTM,2024,126.835107798380,17.944755208519
$GPGGA,200232.00,3356.5246,N,11932.2956,W,1,08,1.3,7.3,M,-33.8,M,,*52
$PYRTM,2024,126.835119385683,17.944766795822
$GPGGA,200233.00,3356.5245,N,11932.2959,W,1,08,1.0,7.3,M,-33.8,M,,*5C
$PYRTM,2024,126.835130945093,17.944778355231
$GPGGA,200234.00,3356.5245,N,11932.2961,W,1,08,1.0,7.3,M,-33.8,M,,*50
$PYRTM,2024,126.835142533947,17.944789944086
$GPGGA,200235.00,3356.5243,N,11932.2964,W,1,08,1.0,7.3,M,-33.8,M,,*52
$PYRTM,2024,126.835154095648,17.944801505787
$GPGGA,200236.00,3356.5240,N,11932.2967,W,1,08,1.0,7.3,M,-33.8,M,,*51
$PYRTM,2024,126.835165681354,17.944813091493
$GPGGA,200237.00,3356.5237,N,11932.2971,W,1,08,1.0,7.3,M,-33.8,M,,*57
$PYRTM,2024,126.835182567037,17.944829977176
$GPGGA,200238.00,3356.5235,N,11932.2973,W,1,08,1.0,7.3,M,-33.8,M,,*58
$PYRTM,2024,126.835194154664,17.944841564803
$GPGGA,200239.00,3356.5235,N,11932.2977,W,1,08,1.0,7.3,M,-33.8,M,,*5D
$PYRTM,2024,126.835205716169,17.944853126308
$GPGGA,200240.00,3356.5233,N,11932.2980,W,1,08,1.0,7.3,M,-33.8,M,,*5D
$PYRTM,2024,126.835217305023,17.944864715162
$GPGGA,200241.00,3356.5231,N,11932.2982,W,1,08,1.0,7.4,M,-33.8,M,,*5B
$PYRTM,2024,126.835228865197,17.944876275336
$GPGGA,200242.00,3356.5228,N,11932.2983,W,1,08,1.0,7.4,M,-33.8,M,,*51
$PYRTM,2024,126.835240454282,17.944887864433
$GPGGA,200243.00,3356.5227,N,11932.2985,W,1,08,1.0,7.3,M,-33.8,M,,*5E
$PYRTM,2024,126.835252012755,17.944899422894
$GPGGA,200244.00,3356.5225,N,11932.2990,W,1,08,1.0,7.3,M,-33.8,M,,*5F
$PYRTM,2024,126.835263603160,17.944911013310
$GPGGA,200245.00,3356.5224,N,11932.2993,W,1,08,1.0,7.3,M,-33.8,M,,*5C
$PYRTM,2024,126.835275161227,17.944922571366
$GPGGA,200246.00,3356.5221,N,11932.2995,W,1,08,1.0,7.3,M,-33.8,M,,*5C
$PYRTM,2024,126.835286746713,17.944934156852
$GPGGA,200247.00,3356.5219,N,11932.2997,W,1,08,1.0,7.3,M,-33.8,M,,*54
$PYRTM,2024,126.835298308738,17.944945718877
$GPGGA,200248.00,3356.5217,N,11932.3001,W,1,08,1.0,7.3,M,-33.8,M,,*52
$PYRTM,2024,126.835309896863,17.944957307002
$GPGGA,200249.00,3356.5216,N,11932.3005,W,1,08,1.0,7.3,M,-33.8,M,,*56
$PYRTM,2024,126.835321455787,17.944968865926
$GPGGA,200250.00,3356.5214,N,11932.3007,W,1,08,1.0,7.3,M,-33.8,M,,*5E
$PYRTM,2024,126.835333043218,17.944980453356
$GPGGA,200251.00,3356.5211,N,11932.3007,W,1,08,1.0,7.3,M,-33.8,M,,*5A
$PYRTM,2024,126.835344604919,17.944992015058
$GPGGA,200252.00,3356.5208,N,11932.3011,W,1,08,1.0,7.3,M,-33.8,M,,*56
$PYRTM,2024,126.835356193588,17.945003603738
$GPGGA,200253.00,3356.5206,N,11932.3016,W,1,08,1.0,7.3,M,-33.8,M,,*5E
$PYRTM,2024,126.835367752697,17.945015162836
$GPGGA,200254.00,3356.5205,N,11932.3019,W,1,08,1.0,7.3,M,-33.8,M,,*55
$PYRTM,2024,126.835379343345,17.945026753484
$GPGGA,200255.00,3356.5203,N,11932.3019,W,1,08,1.0,7.3,M,-33.8,M,,*52
$PYRTM,2024,126.835390900775,17.945038310914
$GPGGA,200256.00,3356.5201,N,11932.3020,W,1,08,1.0,7.3,M,-33.8,M,,*59
$PYRTM,2024,126.835402491331,17.945049901470
$GPGGA,200257.00,3356.5199,N,11932.3023,W,1,08,1.0,7.3,M,-33.8,M,,*59
$PYRTM,2024,126.835414051007,17.945061461146
$GPGGA,200258.00,3356.5198,N,11932.3027,W,1,08,1.0,7.3,M,-33.8,M,,*53
$PYRTM,2024,126.835425651215,17.945073061354
$GPGGA,200259.00,3356.5197,N,11932.3031,W,1,08,1.0,7.3,M,-33.8,M,,*5A
$PYRTM,2024,126.835437198808,17.945084608947
$GPGGA,200300.00,3356.5196,N,11932.3034,W,1,08,1.0,7.3,M,-33.8,M,,*53
$PYRTM,2024,126.835448785463,17.945096195602
$GPGGA,200301.00,3356.5194,N,11932.3036,W,1,08,1.0,7.3,M,-33.8,M,,*52
$PYRTM,2024,126.835460347743,17.945107757882
$GPGGA,200302.00,3356.5191,N,11932.3038,W,1,08,1.0,7.3,M,-33.8,M,,*5A
$PYRTM,2024,126.835471934051,17.945119344190
$GPGGA,200303.00,3356.5190,N,11932.3041,W,1,08,1.0,7.3,M,-33.8,M,,*54
$PYRTM,2024,126.835483494329,17.945130904468
$GPGGA,200304.00,3356.5188,N,11932.3045,W,1,08,1.0,7.3,M,-33.8,M,,*5E
$PYRTM,2024,126.835495082500,17.945142492650
$GPGGA,200305.00,3356.5186,N,11932.3048,W,1,08,1.0,7.3,M,-33.8,M,,*5C
$PYRTM,2024,126.835506643113,17.945154053252
$GPGGA,200306.00,3356.5184,N,11932.3051,W,1,08,1.0,7.3,M,-33.8,M,,*55
$PYRTM,2024,126.835518231875,17.945165642014
$GPGGA,200307.00,3356.5182,N,11932.3055,W,1,08,1.0,7.3,M,-33.8,M,,*56
$PYRTM,2024,126.835528416273,17.945175826412
$GPGGA,200308.00,3356.5180,N,11932.3057,W,1,08,1.0,7.2,M,-33.8,M,,*58
$PYRTM,2024,126.835540208252,17.945187618391
$GPGGA,200309.00,3356.5177,N,11932.3059,W,1,08,1.0,7.2,M,-33.8,M,,*5F
$PYRTM,2024,126.835552941296,17.945200351435
$GPGGA,200310.00,3356.5175,N,11932.3061,W,1,08,1.0,7.2,M,-33.8,M,,*5E
$PYRTM,2024,126.835564529861,17.945211940000
$GPGGA,200311.00,3356.5173,N,11932.3065,W,1,08,1.0,7.2,M,-33.8,M,,*5D
$PYRTM,2024,126.835576088345,17.945223498484
$GPGGA,200312.00,3356.5171,N,11932.3068,W,1,08,1.0,7.2,M,-33.8,M,,*51
$PYRTM,2024,126.835587678368,17.945235088519
$GPGGA,200313.00,3356.5170,N,11932.3071,W,1,08,1.0,7.2,M,-33.8,M,,*59
$PYRTM,2024,126.835599236169,17.945246646308
$GPGGA,200314.00,3356.5168,N,11932.3072,W,1,08,1.0,7.2,M,-33.8,M,,*54
$PYRTM,2024,126.835610823646,17.945258233796
$GPGGA,200315.00,3356.5166,N,11932.3075,W,1,08,1.0,7.2,M,-33.8,M,,*5C
$PYRTM,2024,126.835622384317,17.945269794456
$GPGGA,200316.00,3356.5164,N,11932.3079,W,1,08,1.3,7.2,M,-33.8,M,,*52
$PYRTM,2024,126.835633971076,17.945281381215
$GPGGA,200317.00,3356.5163,N,11932.3082,W,1,08,1.3,7.2,M,-33.8,M,,*50
$PYRTM,2024,126.835645533009,17.945292943160
$GPGGA,200318.00,3356.5161,N,11932.3083,W,1,08,1.3,7.1,M,-33.8,M,,*5F
$PYRTM,2024,126.835657114572,17.945304524711
$GPGGA,200319.00,3356.5160,N,11932.3085,W,1,08,1.3,7.2,M,-33.8,M,,*5A
$PYRTM,2024,126.835668683009,17.945316093148
$GPGGA,200320.00,3356.5158,N,11932.3090,W,1,08,1.3,7.2,M,-33.8,M,,*5F
$PYRTM,2024,126.835680268310,17.945327678449
$GPGGA,200321.00,3356.5156,N,11932.3094,W,1,08,1.3,7.2,M,-33.8,M,,*54
$PYRTM,2024,126.835691830174,17.945339240312
$GPGGA,200322.00,3356.5154,N,11932.3096,W,1,08,1.3,7.2,M,-33.8,M,,*57
$PYRTM,2024,126.835703415683,17.945350825822
$GPGGA,200323.00,3356.5152,N,11932.3098,W,1,08,1.3,7.2,M,-33.8,M,,*5E
$PYRTM,2024,126.835714979074,17.945362389213
$GPGGA,200324.00,3356.5150,N,11932.3101,W,1,08,1.3,7.1,M,-33.8,M,,*59
$PYRTM,2024,126.835726567500,17.945373977639
$GPGGA,200325.00,3356.5148,N,11932.3107,W,1,08,1.3,7.2,M,-33.8,M,,*54
$PYRTM,2024,126.835738127569,17.945385537708
$GPGGA,200326.00,3356.5146,N,11932.3111,W,1,08,1.3,7.2,M,-33.8,M,,*5E
$PYRTM,2024,126.835749716574,17.945397126713
$GPGGA,200327.00,3356.5143,N,11932.3112,W,1,08,1.3,7.2,M,-33.8,M,,*59
$PYRTM,2024,126.835761274236,17.945408684387
$GPGGA,200328.00,3356.5141,N,11932.3113,W,1,08,1.3,7.2,M,-33.8,M,,*55
$PYRTM,2024,126.835772861250,17.945420271389
$GPGGA,200329.00,3356.5140,N,11932.3117,W,1,08,1.3,7.1,M,-33.8,M,,*52
$PYRTM,2024,126.835784425660,17.945431835799
$GPGGA,200330.00,3356.5138,N,11932.3121,W,1,08,1.3,7.2,M,-33.8,M,,*53
$PYRTM,2024,126.835796010174,17.945443420313
$GPGGA,200331.00,3356.5135,N,11932.3124,W,1,08,1.3,7.2,M,-33.8,M,,*5A
$PYRTM,2024,126.835807572454,17.945454982593
$GPGGA,200332.00,3356.5133,N,11932.3125,W,1,08,1.3,7.2,M,-33.8,M,,*5E
$PYRTM,2024,126.835819158727,17.945466568866
$GPGGA,200333.00,3356.5131,N,11932.3128,W,1,08,1.3,7.2,M,-33.8,M,,*50
$PYRTM,2024,126.835830719850,17.945478129988
$GPGGA,200334.00,3356.5130,N,11932.3133,W,1,08,1.3,7.2,M,-33.8,M,,*5C
$PYRTM,2024,126.835842305613,17.945489715752
$GPGGA,200335.00,3356.5127,N,11932.3138,W,1,08,1.3,7.2,M,-33.8,M,,*50
$PYRTM,2024,126.835853868044,17.945501278183
$GPGGA,200336.00,3356.5125,N,11932.3140,W,1,08,1.3,7.2,M,-33.8,M,,*5E
$PYRTM,2024,126.835865455752,17.945512865891
$GPGGA,200337.00,3356.5123,N,11932.3141,W,1,08,1.3,7.2,M,-33.8,M,,*58
$PYRTM,2024,126.835875639282,17.945523049421
$GPGGA,200338.00,3356.5121,N,11932.3144,W,1,08,1.3,7.2,M,-33.8,M,,*50
$PYRTM,2024,126.835887430903,17.945534841042
$GPGGA,200339.00,3356.5119,N,11932.3149,W,1,08,1.3,7.2,M,-33.8,M,,*57
$PYRTM,2024,126.835900164086,17.945547574236
$GPGGA,200340.00,3356.5117,N,11932.3152,W,1,08,1.3,7.2,M,-33.8,M,,*5D
$PYRTM,2024,126.835911754155,17.945559164306
$GPGGA,200341.00,3356.5116,N,11932.3154,W,1,08,1.3,7.2,M,-33.8,M,,*5B
$PYRTM,2024,126.835923312766,17.945570722917
$GPGGA,200342.00,3356.5114,N,11932.3157,W,1,08,1.3,7.2,M,-33.8,M,,*59
$PYRTM,2024,126.835934902060,17.945582312211
$GPGGA,200343.00,3356.5112,N,11932.3160,W,1,08,1.3,7.2,M,-33.8,M,,*5A
$PYRTM,2024,126.835946460880,17.945593871030
$GPGGA,200344.00,3356.5110,N,11932.3163,W,1,08,1.3,7.2,M,-33.8,M,,*5C
$PYRTM,2024,126.835958046887,17.945605457025
$GPGGA,200345.00,3356.5108,N,11932.3166,W,1,08,1.3,7.2,M,-33.8,M,,*51
$PYRTM,2024,126.835969608530,17.945617018681
$GPGGA,200346.00,3356.5106,N,11932.3170,W,1,08,1.3,7.2,M,-33.8,M,,*5B
$PYRTM,2024,126.835981195324,17.945628605463
$GPGGA,200347.00,3356.5103,N,11932.3172,W,1,08,1.3,7.2,M,-33.8,M,,*5D
$PYRTM,2024,126.835992756238,17.945640166389
$GPGGA,200348.00,3356.5101,N,11932.3175,W,1,08,1.3,7.2,M,-33.8,M,,*57
$PYRTM,2024,126.836004343414,17.945651753553
$GPGGA,200349.00,3356.5100,N,11932.3179,W,1,08,1.3,7.3,M,-33.8,M,,*5A
$PYRTM,2024,126.836015904213,17.945663314363
$GPGGA,200350.00,3356.5098,N,11932.3183,W,1,08,1.3,7.3,M,-33.8,M,,*57
$PYRTM,2024,126.836027491979,17.945674902118
$GPGGA,200351.00,3356.5095,N,11932.3185,W,1,08,1.3,7.3,M,-33.8,M,,*5D
$PYRTM,2024,126.836039053264,17.945686463403
$GPGGA,200352.00,3356.5092,N,11932.3187,W,1,08,1.3,7.3,M,-33.8,M,,*5B
$PYRTM,2024,126.836050639699,17.945698049850
$GPGGA,200353.00,3356.5089,N,11932.3190,W,1,08,1.3,7.3,M,-33.8,M,,*56
$PYRTM,2024,126.836062202731,17.945709612870
$GPGGA,200354.00,3356.5087,N,11932.3194,W,1,08,1.3,7.3,M,-33.8,M,,*5B
$PYRTM,2024,126.836073802882,17.945721213021
$GPGGA,200355.00,3356.5086,N,11932.3197,W,1,08,1.3,7.3,M,-33.8,M,,*58
$PYRTM,2024,126.836085349606,17.945732759745
$GPGGA,200356.00,3356.5084,N,11932.3199,W,1,08,1.3,7.2,M,-33.8,M,,*56
$PYRTM,2024,126.836096940174,17.945744350324
$GPGGA,200357.00,3356.5081,N,11932.3201,W,1,08,1.3,7.2,M,-33.8,M,,*50
$PYRTM,2024,126.836108499560,17.945755909699
$GPGGA,200358.00,3356.5077,N,11932.3205,W,1,08,1.3,7.2,M,-33.8,M,,*52
$PYRTM,2024,126.836120087731,17.945767497870
$GPGGA,200359.00,3356.5076,N,11932.3208,W,1,08,1.3,7.2,M,-33.8,M,,*5F
$PYRTM,2024,126.836131646111,17.945779056250
$GPGGA,200400.00,3356.5074,N,11932.3211,W,1,08,1.3,7.2,M,-33.8,M,,*5E
$PYRTM,2024,126.836143228438,17.945790638576
$GPGGA,200401.00,3356.5072,N,11932.3213,W,1,08,1.3,7.2,M,-33.8,M,,*5B
$PYRTM,2024,126.836154795475,17.945802205625
$GPGGA,200402.00,3356.5069,N,11932.3217,W,1,08,1.3,7.3,M,-33.8,M,,*57
$PYRTM,2024,126.836166376609,17.945813786748
$GPGGA,200403.00,3356.5067,N,11932.3221,W,1,08,1.3,7.2,M,-33.8,M,,*5C
$PYRTM,2024,126.836177943275,17.945825353426
$GPGGA,200404.00,3356.5065,N,11932.3225,W,1,08,1.3,7.2,M,-33.8,M,,*5D
$PYRTM,2024,126.836189529919,17.945836940069
$GPGGA,200405.00,3356.5063,N,11932.3228,W,1,08,1.3,7.2,M,-33.8,M,,*57
$PYRTM,2024,126.836201090440,17.945848500579
$GPGGA,200406.00,3356.5061,N,11932.3231,W,1,08,1.3,7.2,M,-33.8,M,,*5E
$PYRTM,2024,126.836212678704,17.945860088843
$GPGGA,200407.00,3356.5058,N,11932.3233,W,1,08,1.3,7.2,M,-33.8,M,,*57
$PYRTM,2024,126.836222863565,17.945870273704
$GPGGA,200408.00,3356.5055,N,11932.3236,W,1,08,1.3,7.1,M,-33.8,M,,*53
$PYRTM,2024,126.836234653380,17.945882063519
$GPGGA,200409.00,3356.5054,N,11932.3240,W,1,08,1.3,7.1,M,-33.8,M,,*52
$PYRTM,2024,126.836247387523,17.945894797662
$GPGGA,200410.00,3356.5052,N,11932.3244,W,1,08,1.3,7.0,M,-33.8,M,,*59
$PYRTM,2024,126.836258988009,17.945906398148
$GPGGA,200411.00,3356.5050,N,11932.3248,W,1,08,1.3,7.0,M,-33.8,M,,*56
$PYRTM,2024,126.836270535475,17.945917945613
$GPGGA,200412.00,3356.5048,N,11932.3249,W,1,08,1.3,7.0,M,-33.8,M,,*5D
$PYRTM,2024,126.836282124734,17.945929534873
$GPGGA,200413.00,3356.5045,N,11932.3251,W,1,08,1.3,7.0,M,-33.8,M,,*58
$PYRTM,2024,126.836293683113,17.945941093264
$GPGGA,200414.00,3356.5043,N,11932.3254,W,1,08,1.3,7.0,M,-33.8,M,,*5C
$PYRTM,2024,126.836305270312,17.945952680451
$GPGGA,200415.00,3356.5043,N,11932.3257,W,1,08,1.3,5.4,M,-33.8,M,,*58
$PYRTM,2024,126.836316834248,17.945964244387
$GPGGA,200416.00,3356.5042,N,11932.3259,W,1,08,1.3,5.4,M,-33.8,M,,*54
$PYRTM,2024,126.836328420532,17.945975830671
$GPGGA,200417.00,3356.5040,N,11932.3260,W,1,08,1.3,5.4,M,-33.8,M,,*5D
$PYRTM,2024,126.836339980521,17.945987390660
$GPGGA,200418.00,3356.5037,N,11932.3259,W,1,08,1.3,5.4,M,-33.8,M,,*58
$PYRTM,2024,126.836351561968,17.945998972106
$GPGGA,200419.00,3356.5036,N,11932.3261,W,1,08,1.3,5.4,M,-33.8,M,,*53
$PYRTM,2024,126.836363128900,17.946010539039
$GPGGA,200420.00,3356.5035,N,11932.3266,W,1,08,1.3,5.4,M,-33.8,M,,*5D
$PYRTM,2024,126.836373790093,17.946021200231
$GPGGA,200421.00,3356.5034,N,11932.3269,W,1,08,1.3,5.4,M,-33.8,M,,*52
$PYRTM,2024,126.836384785127,17.946032195266
$GPGGA,200422.00,3356.5032,N,11932.3271,W,1,08,1.3,5.3,M,-33.8,M,,*59
$PYRTM,2024,126.836396354363,17.946043764502
$GPGGA,200423.00,3356.5029,N,11932.3271,W,1,08,1.3,5.3,M,-33.8,M,,*52
$PYRTM,2024,126.836407466771,17.946054876910
$GPGGA,200424.00,3356.5027,N,11932.3273,W,1,08,1.3,5.3,M,-33.8,M,,*59
$PYRTM,2024,126.836418577824,17.946065987975
$GPGGA,200425.00,3356.5024,N,11932.3277,W,1,08,1.3,3.9,M,-33.8,M,,*53
$PYRTM,2024,126.836429694479,17.946077104618
$GPGGA,200426.00,3356.5022,N,11932.3281,W,1,08,1.3,3.9,M,-33.8,M,,*5F
$PYRTM,2024,126.836440683218,17.946088093356
$GPGGA,200427.00,3356.5020,N,11932.3282,W,1,08,1.3,3.9,M,-33.8,M,,*5F
$PYRTM,2024,126.836451799167,17.946099209306
$GPGGA,200428.00,3356.5016,N,11932.3281,W,1,08,1.3,3.8,M,-33.8,M,,*57
$PYRTM,2024,126.836462909769,17.946110319907
$GPGGA,200429.00,3356.5014,N,11932.3283,W,1,08,1.3,3.8,M,-33.8,M,,*56
$PYRTM,2024,126.836474021262,17.946121431412
$GPGGA,200430.00,3356.5012,N,11932.3288,W,1,08,1.3,3.8,M,-33.8,M,,*53
$PYRTM,2024,126.836485132940,17.946132543079
$GPGGA,200431.00,3356.5010,N,11932.3291,W,1,08,1.3,3.8,M,-33.8,M,,*58
$PYRTM,2024,126.836496692569,17.946144102708
$GPGGA,200432.00,3356.5008,N,11932.3293,W,1,08,1.3,3.7,M,-33.8,M,,*5F
$PYRTM,2024,126.836508281273,17.946155691412
$GPGGA,200433.00,3356.5005,N,11932.3294,W,1,08,1.3,3.8,M,-33.8,M,,*5B
$PYRTM,2024,126.836519841447,17.946167251586
$GPGGA,200434.00,3356.5002,N,11932.3297,W,1,08,1.3,3.7,M,-33.8,M,,*57
$PYRTM,2024,126.836531430035,17.946178840174
$GPGGA,200435.00,3356.5000,N,11932.3300,W,1,08,1.3,3.7,M,-33.8,M,,*5B
$PYRTM,2024,126.836542989109,17.946190399248
$GPGGA,200436.00,3356.4999,N,11932.3304,W,1,08,1.3,3.8,M,-33.8,M,,*5B
$PYRTM,2024,126.836554570961,17.946201981111
$GPGGA,200437.00,3356.4997,N,11932.3307,W,1,08,1.3,3.8,M,-33.8,M,,*57
$PYRTM,2024,126.836571463669,17.946218873819
$GPGGA,200438.00,3356.4994,N,11932.3309,W,1,08,1.3,3.8,M,-33.8,M,,*55
$PYRTM,2024,126.836583064838,17.946230474977
$GPGGA,200439.00,3356.4992,N,11932.3311,W,1,08,1.3,3.8,M,-33.8,M,,*5B
$PYRTM,2024,126.836594612697,17.946242022836
$GPGGA,200440.00,3356.4989,N,11932.3315,W,1,08,1.3,3.8,M,-33.8,M,,*5B
$PYRTM,2024,126.836606213252,17.946253623403
$GPGGA,200441.00,3356.4987,N,11932.3320,W,1,08,1.3,3.8,M,-33.8,M,,*52
$PYRTM,2024,126.836617759722,17.946265169861
$GPGGA,200442.00,3356.4986,N,11932.3324,W,1,08,1.3,3.7,M,-33.8,M,,*5B
$PYRTM,2024,126.836629347627,17.946276757778
$GPGGA,200443.00,3356.4983,N,11932.3326,W,1,08,1.3,3.7,M,-33.8,M,,*5D
$PYRTM,2024,126.836640907951,17.946288318090
$GPGGA,200444.00,3356.4980,N,11932.3328,W,1,08,1.3,3.7,M,-33.8,M,,*57
$PYRTM,2024,126.836652489514,17.946299899653
$GPGGA,200445.00,3356.4978,N,11932.3331,W,1,08,1.3,3.7,M,-33.8,M,,*59
$PYRTM,2024,126.836664055938,17.946311466076
$GPGGA,200446.00,3356.4976,N,11932.3335,W,1,08,1.3,3.7,M,-33.8,M,,*50
$PYRTM,2024,126.836675643183,17.946323053322
$GPGGA,200447.00,3356.4974,N,11932.3338,W,1,08,1.3,3.7,M,-33.8,M,,*5E
$PYRTM,2024,126.836687204259,17.946334614398
$GPGGA,200448.00,3356.4971,N,11932.3342,W,1,08,1.3,3.7,M,-33.8,M,,*59
$PYRTM,2024,126.836698791910,17.946346202049
$GPGGA,200449.00,3356.4969,N,11932.3345,W,1,08,1.3,3.6,M,-33.8,M,,*57
$PYRTM,2024,126.836710352975,17.946357763113
$GPGGA,200450.00,3356.4966,N,11932.3347,W,1,08,1.3,3.6,M,-33.8,M,,*52
$PYRTM,2024,126.836721939502,17.946369349641
$GPGGA,200451.00,3356.4964,N,11932.3349,W,1,08,1.3,3.7,M,-33.8,M,,*5E
$PYRTM,2024,126.836733501030,17.946380911169
$GPGGA,200452.00,3356.4962,N,11932.3353,W,1,08,1.3,3.7,M,-33.8,M,,*50
$PYRTM,2024,126.836745090799,17.946392500938
$GPGGA,200453.00,3356.4960,N,11932.3357,W,1,08,1.3,3.7,M,-33.8,M,,*57
$PYRTM,2024,126.836756648576,17.946404058727
$GPGGA,200454.00,3356.4957,N,11932.3361,W,1,08,1.3,3.7,M,-33.8,M,,*51
$PYRTM,2024,126.836768238958,17.946415649097
$GPGGA,200455.00,3356.4953,N,11932.3363,W,1,08,1.3,3.7,M,-33.8,M,,*56
$PYRTM,2024,126.836779796829,17.946427206968
$GPGGA,200456.00,3356.4951,N,11932.3366,W,1,08,1.3,3.7,M,-33.8,M,,*52
$PYRTM,2024,126.836791386887,17.946438797025
$GPGGA,200457.00,3356.4949,N,11932.3369,W,1,08,1.3,3.7,M,-33.8,M,,*55
$PYRTM,2024,126.836802945752,17.946450355891
$GPGGA,200458.00,3356.4947,N,11932.3373,W,1,08,1.3,3.7,M,-33.8,M,,*5F
$PYRTM,2024,126.836814532604,17.946461942743
$GPGGA,200459.00,3356.4947,N,11932.3376,W,1,08,1.0,3.7,M,-33.8,M,,*58
$PYRTM,2024,126.836826093542,17.946473503692
$GPGGA,200500.00,3356.4946,N,11932.3379,W,1,08,1.3,3.7,M,-33.8,M,,*58
$PYRTM,2024,126.836837681979,17.946485092118
$GPGGA,200501.00,3356.4943,N,11932.3382,W,1,08,1.3,3.7,M,-33.8,M,,*58
$PYRTM,2024,126.836849241308,17.946496651447
$GPGGA,200502.00,3356.4940,N,11932.3384,W,1,08,1.0,3.6,M,-33.8,M,,*5C
$PYRTM,2024,126.836860823958,17.946508234109
$GPGGA,200503.00,3356.4939,N,11932.3386,W,1,08,1.0,3.7,M,-33.8,M,,*50
$PYRTM,2024,126.836872390150,17.946519800289
$GPGGA,200504.00,3356.4938,N,11932.3390,W,1,08,1.3,3.6,M,-33.8,M,,*53
$PYRTM,2024,126.836883977373,17.946531387512
$GPGGA,200505.00,3356.4938,N,11932.3395,W,1,08,1.0,3.6,M,-33.8,M,,*54
$PYRTM,2024,126.836895537569,17.946542947708
$GPGGA,200506.00,3356.4935,N,11932.3398,W,1,08,1.0,3.6,M,-33.8,M,,*57
$PYRTM,2024,126.836907128924,17.946554539063
$GPGGA,200507.00,3356.4932,N,11932.3398,W,1,08,1.3,3.7,M,-33.8,M,,*53
$PYRTM,2024,126.836917310683,17.946564720822
$GPGGA,200508.00,3356.4930,N,11932.3399,W,1,08,1.0,3.7,M,-33.8,M,,*5C
$PYRTM,2024,126.836929102187,17.946576512326
$GPGGA,200509.00,3356.4929,N,11932.3402,W,1,08,1.0,3.7,M,-33.8,M,,*50
$PYRTM,2024,126.836941835382,17.946589245521
$GPGGA,200510.00,3356.4928,N,11932.3407,W,1,08,1.0,3.6,M,-33.8,M,,*5D
$PYRTM,2024,126.836953422164,17.946600832303
$GPGGA,200511.00,3356.4927,N,11932.3410,W,1,08,1.3,3.6,M,-33.8,M,,*56
$PYRTM,2024,126.836964982697,17.946612392836
$GPGGA,200512.00,3356.4923,N,11932.3412,W,1,08,1.3,3.6,M,-33.8,M,,*53
$PYRTM,2024,126.836976572488,17.946623982627
$GPGGA,200513.00,3356.4920,N,11932.3414,W,1,08,1.3,3.6,M,-33.8,M,,*57
$PYRTM,2024,126.836988131088,17.946635541227
$GPGGA,200514.00,3356.4918,N,11932.3416,W,1,08,1.3,3.6,M,-33.8,M,,*59
$PYRTM,2024,126.836999719317,17.946647129456
$GPGGA,200515.00,3356.4917,N,11932.3419,W,1,08,1.0,3.6,M,-33.8,M,,*5B
$PYRTM,2024,126.837011280787,17.946658690938
$GPGGA,200516.00,3356.4916,N,11932.3423,W,1,08,1.0,3.7,M,-33.8,M,,*51
$PYRTM,2024,126.837022865868,17.946670276007
$GPGGA,200517.00,3356.4913,N,11932.3426,W,1,08,1.0,3.7,M,-33.8,M,,*50
$PYRTM,2024,126.837034427766,17.946681837905
$GPGGA,200518.00,3356.4911,N,11932.3428,W,1,08,1.0,3.7,M,-33.8,M,,*53
$PYRTM,2024,126.837046010093,17.946693420231
$GPGGA,200519.00,3356.4909,N,11932.3430,W,1,08,1.0,3.7,M,-33.8,M,,*52
$PYRTM,2024,126.837057575752,17.946704985891
$GPGGA,200520.00,3356.4909,N,11932.3433,W,1,08,1.0,3.7,M,-33.8,M,,*5B
$PYRTM,2024,126.837069163056,17.946716573194
$GPGGA,200521.00,3356.4908,N,11932.3437,W,1,08,1.0,3.7,M,-33.8,M,,*5F
$PYRTM,2024,126.837080724306,17.946728134444
$GPGGA,200522.00,3356.4905,N,11932.3440,W,1,08,1.0,3.7,M,-33.8,M,,*51
$PYRTM,2024,126.837092314676,17.946739724815
$GPGGA,200523.00,3356.4902,N,11932.3442,W,1,08,1.0,3.7,M,-33.8,M,,*55
$PYRTM,2024,126.837102726910,17.946750137049
$GPGGA,200524.00,3356.4899,N,11932.3443,W,1,08,1.0,3.7,M,-33.8,M,,*50
$PYRTM,2024,126.837115473785,17.946762883924
$GPGGA,200525.00,3356.4898,N,11932.3447,W,1,08,1.0,3.6,M,-33.8,M,,*55
$PYRTM,2024,126.837127022014,17.946774432153
$GPGGA,200526.00,3356.4897,N,11932.3451,W,1,08,1.0,3.6,M,-33.8,M,,*5E
$PYRTM,2024,126.837138609213,17.946786019352
$GPGGA,200527.00,3356.4895,N,11932.3454,W,1,08,1.0,3.7,M,-33.8,M,,*59
$PYRTM,2024,126.837150167951,17.946797578090
$GPGGA,200528.00,3356.4892,N,11932.3457,W,1,08,1.0,3.6,M,-33.8,M,,*53
$PYRTM,2024,126.837161756123,17.946809166273
$GPGGA,200529.00,3356.4888,N,11932.3461,W,1,08,1.0,3.7,M,-33.8,M,,*5D
$PYRTM,2024,126.837173317049,17.946820727188
$GPGGA,200530.00,3356.4886,N,11932.3463,W,1,08,1.0,3.7,M,-33.8,M,,*59
$PYRTM,2024,126.837184900637,17.946832310775
$GPGGA,200531.00,3356.4885,N,11932.3465,W,1,08,1.0,3.7,M,-33.8,M,,*5D
$PYRTM,2024,126.837196465556,17.946843875694
$GPGGA,200532.00,3356.4883,N,11932.3468,W,1,08,1.0,3.8,M,-33.8,M,,*5A
$PYRTM,2024,126.837208053461,17.946855463600
$GPGGA,200533.00,3356.4881,N,11932.3471,W,1,08,1.0,3.8,M,-33.8,M,,*51
$PYRTM,2024,126.837219614398,17.946867024537
$GPGGA,200534.00,3356.4878,N,11932.3474,W,1,08,1.0,3.8,M,-33.8,M,,*55
$PYRTM,2024,126.837231203738,17.946878613877
$GPGGA,200535.00,3356.4876,N,11932.3476,W,1,08,1.0,3.8,M,-33.8,M,,*58
$PYRTM,2024,126.837242762928,17.946890173067
$GPGGA,200536.00,3356.4874,N,11932.3480,W,1,08,1.0,3.8,M,-33.8,M,,*50
$PYRTM,2024,126.837254352812,17.946901762951
$GPGGA,200537.00,3356.4872,N,11932.3482,W,1,08,1.0,3.8,M,-33.8,M,,*55
$PYRTM,2024,126.837264536146,17.946911946285
$GPGGA,200538.00,3356.4870,N,11932.3485,W,1,08,1.0,3.8,M,-33.8,M,,*5F
$PYRTM,2024,126.837276325208,17.946923735347
$GPGGA,200539.00,3356.4869,N,11932.3488,W,1,08,1.0,3.9,M,-33.8,M,,*5A
$PYRTM,2024,126.837289059144,17.946936469282
$GPGGA,200540.00,3356.4867,N,11932.3493,W,1,08,1.0,3.9,M,-33.8,M,,*50
$PYRTM,2024,126.837300645914,17.946948056053
$GPGGA,200541.00,3356.4864,N,11932.3496,W,1,08,1.0,3.8,M,-33.8,M,,*56
$PYRTM,2024,126.837312208704,17.946959618843
$GPGGA,200542.00,3356.4862,N,11932.3497,W,1,08,1.0,3.9,M,-33.8,M,,*53
$PYRTM,2024,126.837323794444,17.946971204583
$GPGGA,200543.00,3356.4861,N,11932.3499,W,1,08,1.0,3.9,M,-33.8,M,,*5F
$PYRTM,2024,126.837335355729,17.946982765868
$GPGGA,200544.00,3356.4859,N,11932.3503,W,1,08,1.0,3.9,M,-33.8,M,,*51
$PYRTM,2024,126.837346942789,17.946994352940
$GPGGA,200545.00,3356.4857,N,11932.3508,W,1,08,1.0,3.9,M,-33.8,M,,*55
$PYRTM,2024,126.837358502940,17.947005913079
$GPGGA,200546.00,3356.4855,N,11932.3511,W,1,08,1.0,3.8,M,-33.8,M,,*5D
$PYRTM,2024,126.837370090764,17.947017500903
$GPGGA,200547.00,3356.4852,N,11932.3512,W,1,08,1.0,3.8,M,-33.8,M,,*58
$PYRTM,2024,126.837381650521,17.947029060660
$GPGGA,200548.00,3356.4850,N,11932.3514,W,1,08,1.0,3.9,M,-33.8,M,,*52
$PYRTM,2024,126.837393238704,17.947040648843
$GPGGA,200549.00,3356.4848,N,11932.3517,W,1,08,1.0,3.9,M,-33.8,M,,*59
$PYRTM,2024,126.837404799699,17.947052209838
$GPGGA,200550.00,3356.4846,N,11932.3521,W,1,08,1.0,3.9,M,-33.8,M,,*5A
$PYRTM,2024,126.837416402002,17.947063812141
$GPGGA,200551.00,3356.4845,N,11932.3525,W,1,08,1.0,3.9,M,-33.8,M,,*5C
$PYRTM,2024,126.837427947083,17.947075357222
$GPGGA,200552.00,3356.4842,N,11932.3526,W,1,08,1.0,3.9,M,-33.8,M,,*5B
$PYRTM,2024,126.837439537535,17.947086947674
$GPGGA,200553.00,3356.4840,N,11932.3527,W,1,08,1.0,3.9,M,-33.8,M,,*59
$PYRTM,2024,126.837451096192,17.947098506331
$GPGGA,200554.00,3356.4838,N,11932.3530,W,1,08,1.0,3.9,M,-33.8,M,,*57
$PYRTM,2024,126.837462683194,17.947110093333
$GPGGA,200555.00,3356.4837,N,11932.3534,W,1,08,1.0,3.9,M,-33.8,M,,*5D
$PYRTM,2024,126.837474244155,17.947121654294
$GPGGA,200556.00,3356.4836,N,11932.3538,W,1,08,1.0,3.9,M,-33.8,M,,*53
$PYRTM,2024,126.837485825764,17.947133235903
$GPGGA,200557.00,3356.4832,N,11932.3540,W,1,08,1.0,4.0,M,-33.8,M,,*57
$PYRTM,2024,126.837497391782,17.947144801921
$GPGGA,200558.00,3356.4829,N,11932.3543,W,1,08,1.0,4.0,M,-33.8,M,,*51
$PYRTM,2024,126.837508979792,17.947156389931
$GPGGA,200559.00,3356.4827,N,11932.3546,W,1,08,1.0,4.0,M,-33.8,M,,*5B
$PYRTM,2024,126.837520542639,17.947167952778
$GPGGA,200600.00,3356.4826,N,11932.3550,W,1,08,1.0,4.0,M,-33.8,M,,*52
$PYRTM,2024,126.837532127535,17.947179537674
$GPGGA,200601.00,3356.4824,N,11932.3552,W,1,08,1.0,4.0,M,-33.8,M,,*53
$PYRTM,2024,126.837543701458,17.947191111597
$GPGGA,200602.00,3356.4821,N,11932.3554,W,1,08,1.0,4.1,M,-33.8,M,,*52
$PYRTM,2024,126.837555276794,17.947202686933
$GPGGA,200603.00,3356.4818,N,11932.3557,W,1,08,1.0,4.1,M,-33.8,M,,*5A
$PYRTM,2024,126.837566850556,17.947214260694
$GPGGA,200604.00,3356.4816,N,11932.3561,W,1,08,1.0,4.1,M,-33.8,M,,*56
$PYRTM,2024,126.837578427558,17.947225837697
$GPGGA,200605.00,3356.4814,N,11932.3565,W,1,08,1.0,4.1,M,-33.8,M,,*51
$PYRTM,2024,126.837589998160,17.947237408299
$GPGGA,200606.00,3356.4812,N,11932.3567,W,1,08,1.0,4.1,M,-33.8,M,,*56
$PYRTM,2024,126.837601576030,17.947248986169
$GPGGA,200607.00,3356.4808,N,11932.3569,W,1,08,1.0,4.3,M,-33.8,M,,*50
$PYRTM,2024,126.837611759826,17.947259169965
$GPGGA,200608.00,3356.4805,N,11932.3571,W,1,08,1.0,4.5,M,-33.8,M,,*5D
$PYRTM,2024,126.837623551250,17.947270961389
$GPGGA,200609.00,3356.4803,N,11932.3575,W,1,08,1.0,4.4,M,-33.8,M,,*5F
$PYRTM,2024,126.837636294699,17.947283704838
$GPGGA,200610.00,3356.4802,N,11932.3579,W,1,08,1.0,4.1,M,-33.8,M,,*5F
$PYRTM,2024,126.837647870185,17.947295280336
$GPGGA,200611.00,3356.4802,N,11932.3583,W,1,08,1.0,4.1,M,-33.8,M,,*5B
$PYRTM,2024,126.837659439769,17.947306849919
$GPGGA,200612.00,3356.4800,N,11932.3587,W,1,08,1.0,4.2,M,-33.8,M,,*5D
$PYRTM,2024,126.837671018171,17.947318428310
$GPGGA,200613.00,3356.4796,N,11932.3588,W,1,08,1.0,4.5,M,-33.8,M,,*54
$PYRTM,2024,126.837682592743,17.947330002882
$GPGGA,200614.00,3356.4793,N,11932.3590,W,1,08,1.0,4.0,M,-33.8,M,,*5A
$PYRTM,2024,126.837694160868,17.947341571007
$GPGGA,200615.00,3356.4791,N,11932.3592,W,1,08,1.0,4.2,M,-33.8,M,,*59
$PYRTM,2024,126.837705739155,17.947353149294
$GPGGA,200616.00,3356.4790,N,11932.3597,W,1,08,1.0,4.4,M,-33.8,M,,*58
$PYRTM,2024,126.837717316412,17.947364726551
$GPGGA,200617.00,3356.4788,N,11932.3602,W,1,08,1.0,4.3,M,-33.8,M,,*58
$PYRTM,2024,126.837728889769,17.947376299907
$GPGGA,200618.00,3356.4785,N,11932.3605,W,1,08,1.0,3.6,M,-33.8,M,,*5F
$PYRTM,2024,126.837740465764,17.947387875903
$GPGGA,200619.00,3356.4782,N,11932.3607,W,1,08,1.0,4.2,M,-33.8,M,,*58
$PYRTM,2024,126.837752035544,17.947399445694
$GPGGA,200620.00,3356.4780,N,11932.3609,W,1,08,1.0,4.1,M,-33.8,M,,*5D
$PYRTM,2024,126.837763610405,17.947411020544
$GPGGA,200621.00,3356.4778,N,11932.3611,W,1,08,1.0,4.5,M,-33.8,M,,*56
$PYRTM,2024,126.837775184907,17.947422595046
$GPGGA,200622.00,3356.4776,N,11932.3615,W,1,08,1.0,4.4,M,-33.8,M,,*5E
$PYRTM,2024,126.837786759086,17.947434169225
$GPGGA,200623.00,3356.4773,N,11932.3619,W,1,08,1.0,4.2,M,-33.8,M,,*50
$PYRTM,2024,126.837798333275,17.947445743414
$GPGGA,200624.00,3356.4769,N,11932.3621,W,1,08,1.0,4.1,M,-33.8,M,,*54
$PYRTM,2024,126.837809906019,17.947457316157
$GPGGA,200625.00,3356.4767,N,11932.3624,W,1,08,1.0,3.9,M,-33.8,M,,*51
$PYRTM,2024,126.837820555046,17.947467965185
$GPGGA,200626.00,3356.4765,N,11932.3626,W,1,08,1.0,3.9,M,-33.8,M,,*52
$PYRTM,2024,126.837832471667,17.947479881806
$GPGGA,200627.00,3356.4763,N,11932.3630,W,1,08,1.0,4.1,M,-33.8,M,,*5D
$PYRTM,2024,126.837843111400,17.947490521539
$GPGGA,200628.00,3356.4760,N,11932.3634,W,1,08,1.0,4.0,M,-33.8,M,,*54
$PYRTM,2024,126.837854353183,17.947501763322
$GPGGA,200629.00,3356.4757,N,11932.3637,W,1,08,1.0,4.1,M,-33.8,M,,*53
$PYRTM,2024,126.837865341377,17.947512751516
$GPGGA,200630.00,3356.4754,N,11932.3639,W,1,08,1.0,4.1,M,-33.8,M,,*56
$PYRTM,2024,126.837876443958,17.947523854097
$GPGGA,200631.00,3356.4754,N,11932.3642,W,1,08,1.0,4.0,M,-33.8,M,,*5A
$PYRTM,2024,126.837887555000,17.947534965139
$GPGGA,200632.00,3356.4753,N,11932.3647,W,1,08,1.0,4.0,M,-33.8,M,,*5B
$PYRTM,2024,126.837898665868,17.947546076007
$GPGGA,200633.00,3356.4750,N,11932.3650,W,1,08,1.0,3.9,M,-33.8,M,,*51
$PYRTM,2024,126.837909778738,17.947557188877
$GPGGA,200634.00,3356.4747,N,11932.3651,W,1,08,1.0,3.9,M,-33.8,M,,*51
$PYRTM,2024,126.837920891343,17.947568301481
$GPGGA,200635.00,3356.4744,N,11932.3652,W,1,08,1.0,3.9,M,-33.8,M,,*50
$PYRTM,2024,126.837931887558,17.947579297697
$GPGGA,200636.00,3356.4744,N,11932.3656,W,1,08,1.0,3.8,M,-33.8,M,,*56
$PYRTM,2024,126.837943472940,17.947590883079
$GPGGA,200637.00,3356.4743,N,11932.3661,W,1,08,1.0,3.8,M,-33.8,M,,*54
$PYRTM,2024,126.837960364688,17.947607774826
$GPGGA,200638.00,3356.4741,N,11932.3663,W,1,08,1.0,3.8,M,-33.8,M,,*5B
$PYRTM,2024,126.837971944537,17.947619354676
$GPGGA,200639.00,3356.4737,N,11932.3664,W,1,08,1.0,3.8,M,-33.8,M,,*5C
$PYRTM,2024,126.837983516817,17.947630926968
$GPGGA,200640.00,3356.4734,N,11932.3666,W,1,08,1.0,3.8,M,-33.8,M,,*53
$PYRTM,2024,126.837995093843,17.947642503981
$GPGGA,200641.00,3356.4733,N,11932.3670,W,1,08,1.0,3.7,M,-33.8,M,,*5D
$PYRTM,2024,126.838006668241,17.947654078380
$GPGGA,200642.00,3356.4732,N,11932.3675,W,1,08,1.0,3.6,M,-33.8,M,,*5B
$PYRTM,2024,126.838018241019,17.947665651157
$GPGGA,200643.00,3356.4729,N,11932.3678,W,1,08,1.0,3.7,M,-33.8,M,,*5C
$PYRTM,2024,126.838029816817,17.947677226956
$GPGGA,200644.00,3356.4725,N,11932.3680,W,1,08,1.0,3.6,M,-33.8,M,,*51
$PYRTM,2024,126.838041393588,17.947688803727
$GPGGA,200645.00,3356.4722,N,11932.3681,W,1,08,1.0,3.6,M,-33.8,M,,*56
$PYRTM,2024,126.838052966968,17.947700377106
$GPGGA,200646.00,3356.4721,N,11932.3685,W,1,08,1.0,3.6,M,-33.8,M,,*52
$PYRTM,2024,126.838064554329,17.947711964479
$GPGGA,200647.00,3356.4719,N,11932.3688,W,1,08,1.0,3.5,M,-33.8,M,,*56
$PYRTM,2024,126.838076114329,17.947723524468
$GPGGA,200648.00,3356.4718,N,11932.3691,W,1,08,1.0,3.4,M,-33.8,M,,*51
$PYRTM,2024,126.838087689363,17.947735099502
$GPGGA,200649.00,3356.4715,N,11932.3695,W,1,08,1.0,3.5,M,-33.8,M,,*58
$PYRTM,2024,126.838099260845,17.947746670984
$GPGGA,200650.00,3356.4713,N,11932.3698,W,1,08,1.0,3.6,M,-33.8,M,,*58
$PYRTM,2024,126.838110833796,17.947758243935
$GPGGA,200651.00,3356.4711,N,11932.3702,W,1,08,1.0,3.5,M,-33.8,M,,*5A
$PYRTM,2024,126.838122403808,17.947769813947
$GPGGA,200652.00,3356.4709,N,11932.3706,W,1,08,1.0,3.6,M,-33.8,M,,*57
$PYRTM,2024,126.838133981759,17.947781391898
$GPGGA,200653.00,3356.4706,N,11932.3710,W,1,08,1.0,3.6,M,-33.8,M,,*5E
$PYRTM,2024,126.838145556620,17.947792966759
$GPGGA,200654.00,3356.4703,N,11932.3712,W,1,08,1.0,3.6,M,-33.8,M,,*5E
$PYRTM,2024,126.838157133090,17.947804543241
$GPGGA,200655.00,3356.4699,N,11932.3714,W,1,08,1.0,3.4,M,-33.8,M,,*59
$PYRTM,2024,126.838168704155,17.947816114294
$GPGGA,200656.00,3356.4697,N,11932.3716,W,1,08,1.0,3.4,M,-33.8,M,,*56
$PYRTM,2024,126.838180279792,17.947827689931
$GPGGA,200657.00,3356.4696,N,11932.3720,W,1,08,1.0,3.3,M,-33.8,M,,*54
$PYRTM,2024,126.838191852720,17.947839262859
$GPGGA,200658.00,3356.4695,N,11932.3724,W,1,08,1.0,3.3,M,-33.8,M,,*5C
$PYRTM,2024,126.838203428785,17.947850838924
$GPGGA,200659.00,3356.4692,N,11932.3726,W,1,08,1.0,3.2,M,-33.8,M,,*59
$PYRTM,2024,126.838215001111,17.947862411250
$GPGGA,200700.00,3356.4689,N,11932.3728,W,1,08,1.0,3.1,M,-33.8,M,,*53
$PYRTM,2024,126.838226561470,17.947873971609
$GPGGA,200701.00,3356.4687,N,11932.3732,W,1,08,1.0,3.0,M,-33.8,M,,*56
$PYRTM,2024,126.838238149352,17.947885559491
$GPGGA,200702.00,3356.4686,N,11932.3736,W,1,08,1.0,2.8,M,-33.8,M,,*59
$PYRTM,2024,126.838249709606,17.947897119745
$GPGGA,200703.00,3356.4685,N,11932.3739,W,1,08,1.0,2.8,M,-33.8,M,,*54
$PYRTM,2024,126.838261293009,17.947908703148
$GPGGA,200704.00,3356.4682,N,11932.3743,W,1,08,1.0,2.9,M,-33.8,M,,*58
$PYRTM,2024,126.838272859282,17.947920269421
$GPGGA,200705.00,3356.4679,N,11932.3745,W,1,08,1.3,3.0,M,-33.8,M,,*50
$PYRTM,2024,126.838284445729,17.947931855868
$GPGGA,200706.00,3356.4676,N,11932.3748,W,1,08,1.0,2.8,M,-33.8,M,,*5B
$PYRTM,2024,126.838296008519,17.947943418657
$GPGGA,200707.00,3356.4675,N,11932.3752,W,1,08,1.3,2.9,M,-33.8,M,,*50
$PYRTM,2024,126.838306665324,17.947954075463
$GPGGA,200708.00,3356.4673,N,11932.3757,W,1,08,1.3,2.8,M,-33.8,M,,*5D
$PYRTM,2024,126.838317998715,17.947965408854
$GPGGA,200709.00,3356.4671,N,11932.3759,W,1,08,1.3,2.7,M,-33.8,M,,*5F
$PYRTM,2024,126.838330744120,17.947978154259
$GPGGA,200710.00,3356.4667,N,11932.3761,W,1,08,1.3,2.7,M,-33.8,M,,*5B
$PYRTM,2024,126.838342302546,17.947989712685
$GPGGA,200711.00,3356.4665,N,11932.3763,W,1,08,1.3,2.7,M,-33.8,M,,*5A
$PYRTM,2024,126.838353890162,17.948001300313
$GPGGA,200712.00,3356.4664,N,11932.3766,W,1,08,1.3,2.8,M,-33.8,M,,*52
$PYRTM,2024,126.838364294826,17.948011704965
$GPGGA,200713.00,3356.4662,N,11932.3770,W,1,08,1.3,2.8,M,-33.8,M,,*52
$PYRTM,2024,126.838377039977,17.948024450116
$GPGGA,200714.00,3356.4660,N,11932.3773,W,1,08,1.3,2.7,M,-33.8,M,,*5B
$PYRTM,2024,126.838388598229,17.948036008368
$GPGGA,200715.00,3356.4658,N,11932.3775,W,1,08,1.3,2.6,M,-33.8,M,,*56
$PYRTM,2024,126.838400187986,17.948047598125
$GPGGA,200716.00,3356.4656,N,11932.3778,W,1,08,1.3,2.6,M,-33.8,M,,*56
$PYRTM,2024,126.838411747708,17.948059157847
$GPGGA,200717.00,3356.4655,N,11932.3782,W,1,08,1.3,2.6,M,-33.8,M,,*51
$PYRTM,2024,126.838423337546,17.948070747685
$GPGGA,200718.00,3356.4653,N,11932.3785,W,1,08,1.3,2.6,M,-33.8,M,,*5F
$PYRTM,2024,126.838434895556,17.948082305694
$GPGGA,200719.00,3356.4650,N,11932.3787,W,1,08,1.3,2.6,M,-33.8,M,,*5F
$PYRTM,2024,126.838446484988,17.948093895127
$GPGGA,200720.00,3356.4648,N,11932.3789,W,1,08,1.3,2.5,M,-33.8,M,,*51
$PYRTM,2024,126.838458046481,17.948105456620
$GPGGA,200721.00,3356.4646,N,11932.3793,W,1,08,1.3,2.5,M,-33.8,M,,*55
$PYRTM,2024,126.838469627523,17.948117037662
$GPGGA,200722.00,3356.4645,N,11932.3797,W,1,08,1.3,2.5,M,-33.8,M,,*51
$PYRTM,2024,126.838481191863,17.948128602002
$GPGGA,200723.00,3356.4642,N,11932.3799,W,1,08,1.3,2.7,M,-33.8,M,,*5B
$PYRTM,2024,126.838492780532,17.948140190671
$GPGGA,200724.00,3356.4641,N,11932.3801,W,1,08,1.3,2.7,M,-33.8,M,,*51
$PYRTM,2024,126.838504340208,17.948151750347
$GPGGA,200725.00,3356.4639,N,11932.3804,W,1,08,1.3,2.7,M,-33.8,M,,*5A
$PYRTM,2024,126.838515928762,17.948163338912
$GPGGA,200726.00,3356.4637,N,11932.3808,W,1,08,1.3,2.7,M,-33.8,M,,*5B
$PYRTM,2024,126.838527489097,17.948174899236
$GPGGA,200727.00,3356.4635,N,11932.3812,W,1,08,1.3,2.7,M,-33.8,M,,*53
$PYRTM,2024,126.838539071829,17.948186481968
$GPGGA,200728.00,3356.4634,N,11932.3815,W,1,08,1.3,2.8,M,-33.8,M,,*55
$PYRTM,2024,126.838550637604,17.948198047743
$GPGGA,200729.00,3356.4632,N,11932.3817,W,1,08,1.3,2.8,M,-33.8,M,,*50
$PYRTM,2024,126.838562226007,17.948209636146
$GPGGA,200730.00,3356.4629,N,11932.3820,W,1,08,1.3,2.8,M,-33.8,M,,*56
$PYRTM,2024,126.838573786169,17.948221196308
$GPGGA,200731.00,3356.4626,N,11932.3824,W,1,08,1.3,2.8,M,-33.8,M,,*5C
$PYRTM,2024,126.838585372940,17.948232783079
$GPGGA,200732.00,3356.4623,N,11932.3828,W,1,08,1.3,2.8,M,-33.8,M,,*56
$PYRTM,2024,126.838596934063,17.948244344201
$GPGGA,200733.00,3356.4621,N,11932.3830,W,1,08,1.3,2.9,M,-33.8,M,,*5D
$PYRTM,2024,126.838608522384,17.948255932523
$GPGGA,200734.00,3356.4619,N,11932.3833,W,1,08,1.3,2.9,M,-33.8,M,,*52
$PYRTM,2024,126.838620082384,17.948267492523
$GPGGA,200735.00,3356.4618,N,11932.3835,W,1,08,1.3,2.9,M,-33.8,M,,*54
$PYRTM,2024,126.838631670405,17.948279080544
$GPGGA,200736.00,3356.4616,N,11932.3839,W,1,08,1.3,2.9,M,-33.8,M,,*55
$PYRTM,2024,126.838643116296,17.948290526435
$GPGGA,200737.00,3356.4613,N,11932.3842,W,1,08,1.3,2.9,M,-33.8,M,,*5D
$PYRTM,2024,126.838653415220,17.948300825359
$GPGGA,200738.00,3356.4610,N,11932.3844,W,1,08,1.3,2.9,M,-33.8,M,,*57
$PYRTM,2024,126.838665223738,17.948312633877
$GPGGA,200739.00,3356.4611,N,11932.3845,W,1,08,1.3,3.0,M,-33.8,M,,*5E
$PYRTM,2024,126.838677966701,17.948325376852
$GPGGA,200740.00,3356.4611,N,11932.3850,W,1,08,1.3,3.0,M,-33.8,M,,*54
$PYRTM,2024,126.838689527940,17.948336938079
$GPGGA,200741.00,3356.4612,N,11932.3856,W,1,08,1.3,2.8,M,-33.8,M,,*59
$PYRTM,2024,126.838701114792,17.948348524931
$GPGGA,200742.00,3356.4609,N,11932.3861,W,1,08,1.3,2.7,M,-33.8,M,,*5B
$PYRTM,2024,126.838712675313,17.948360085451
$GPGGA,200743.00,3356.4606,N,11932.3862,W,1,08,1.3,2.7,M,-33.8,M,,*56
$PYRTM,2024,126.838724148241,17.948371558380
$GPGGA,200744.00,3356.4604,N,11932.3863,W,1,08,1.3,2.7,M,-33.8,M,,*52
$PYRTM,2024,126.838735822512,17.948383232650
$GPGGA,200745.00,3356.4604,N,11932.3866,W,1,08,1.3,2.7,M,-33.8,M,,*56
$PYRTM,2024,126.838747411505,17.948394821655
$GPGGA,200746.00,3356.4603,N,11932.3871,W,1,08,1.3,2.8,M,-33.8,M,,*5B
$PYRTM,2024,126.838758973449,17.948406383588
$GPGGA,200747.00,3356.4601,N,11932.3874,W,1,08,1.3,2.8,M,-33.8,M,,*5D
$PYRTM,2024,126.838770560104,17.948417970243
$GPGGA,200748.00,3356.4597,N,11932.3875,W,1,08,1.3,2.8,M,-33.8,M,,*5F
$PYRTM,2024,126.838782016053,17.948429426192
$GPGGA,200749.00,3356.4595,N,11932.3876,W,1,08,1.3,2.9,M,-33.8,M,,*5E
$PYRTM,2024,126.838793599514,17.948441009653
$GPGGA,200750.00,3356.4595,N,11932.3880,W,1,08,1.0,3.0,M,-33.8,M,,*54
$PYRTM,2024,126.838805159826,17.948452569977
$GPGGA,200751.00,3356.4594,N,11932.3884,W,1,08,1.0,3.0,M,-33.8,M,,*50
$PYRTM,2024,126.838816745463,17.948464155613
$GPGGA,200752.00,3356.4591,N,11932.3888,W,1,08,1.0,3.1,M,-33.8,M,,*5B
$PYRTM,2024,126.838828300162,17.948475710301
$GPGGA,200753.00,3356.4587,N,11932.3890,W,1,08,1.0,3.2,M,-33.8,M,,*57
$PYRTM,2024,126.838839893843,17.948487303981
$GPGGA,200754.00,3356.4584,N,11932.3891,W,1,08,1.0,3.3,M,-33.8,M,,*53
$PYRTM,2024,126.838851564711,17.948498974850
$GPGGA,200755.00,3356.4583,N,11932.3895,W,1,08,1.0,3.3,M,-33.8,M,,*51
$PYRTM,2024,126.838863153819,17.948510563970
$GPGGA,200756.00,3356.4582,N,11932.3899,W,1,08,1.0,3.3,M,-33.8,M,,*5F
$PYRTM,2024,126.838874598773,17.948522008924
$GPGGA,200757.00,3356.4580,N,11932.3904,W,1,08,1.0,3.4,M,-33.8,M,,*5E
$PYRTM,2024,126.838886184653,17.948533594792
$GPGGA,200758.00,3356.4576,N,11932.3905,W,1,08,1.0,3.5,M,-33.8,M,,*58
$PYRTM,2024,126.838897748542,17.948545158692
$GPGGA,200759.00,3356.4573,N,11932.3906,W,1,08,1.0,3.4,M,-33.8,M,,*5E
$PYRTM,2024,126.838909333194,17.948556743333
$GPGGA,200800.00,3356.4572,N,11932.3909,W,1,08,1.0,3.5,M,-33.8,M,,*52
$PYRTM,2024,126.838920895775,17.948568305914
$GPGGA,200801.00,3356.4571,N,11932.3914,W,1,08,1.0,3.5,M,-33.8,M,,*5C
$PYRTM,2024,126.838932481238,17.948579891377
$GPGGA,200802.00,3356.4569,N,11932.3917,W,1,08,1.0,3.5,M,-33.8,M,,*55
$PYRTM,2024,126.838944044711,17.948591454861
$GPGGA,200803.00,3356.4566,N,11932.3919,W,1,08,1.0,3.5,M,-33.8,M,,*55
$PYRTM,2024,126.838955629560,17.948603039711
$GPGGA,200804.00,3356.4564,N,11932.3921,W,1,08,1.0,3.6,M,-33.8,M,,*58
$PYRTM,2024,126.838967191100,17.948614601250
$GPGGA,200805.00,3356.4562,N,11932.3924,W,1,08,1.0,3.7,M,-33.8,M,,*5B
$PYRTM,2024,126.838978781736,17.948626191875
$GPGGA,200806.00,3356.4561,N,11932.3926,W,1,08,1.0,3.8,M,-33.8,M,,*56
$PYRTM,2024,126.838990339734,17.948637749873
$GPGGA,200807.00,3356.4559,N,11932.3928,W,1,08,1.0,3.8,M,-33.8,M,,*52
$PYRTM,2024,126.839000640104,17.948648050243
$GPGGA,200808.00,3356.4556,N,11932.3931,W,1,08,1.0,3.8,M,-33.8,M,,*5A
$PYRTM,2024,126.839012446470,17.948659856609
$GPGGA,200809.00,3356.4554,N,11932.3934,W,1,08,1.0,3.9,M,-33.8,M,,*5D
$PYRTM,2024,126.839025075116,17.948672485266
$GPGGA,200810.00,3356.4552,N,11932.3937,W,1,08,1.0,3.9,M,-33.8,M,,*50
$PYRTM,2024,126.839036637639,17.948684047778
$GPGGA,200811.00,3356.4552,N,11932.3939,W,1,08,1.0,3.9,M,-33.8,M,,*5F
$PYRTM,2024,126.839048224919,17.948695635058
$GPGGA,200812.00,3356.4549,N,11932.3941,W,1,08,1.0,3.9,M,-33.8,M,,*59
$PYRTM,2024,126.839059783507,17.948707193646
$GPGGA,200813.00,3356.4546,N,11932.3944,W,1,08,1.0,3.9,M,-33.8,M,,*52
$PYRTM,2024,126.839071373090,17.948718783229
$GPGGA,200814.00,3356.4542,N,11932.3947,W,1,08,1.0,3.9,M,-33.8,M,,*52
$PYRTM,2024,126.839082933565,17.948730343704
$GPGGA,200815.00,3356.4540,N,11932.3950,W,1,08,1.0,3.9,M,-33.8,M,,*57
$PYRTM,2024,126.839094519942,17.948741930081
$GPGGA,200816.00,3356.4539,N,11932.3954,W,1,08,1.0,3.9,M,-33.8,M,,*5E
$PYRTM,2024,126.839106080741,17.948753490880
$GPGGA,200817.00,3356.4538,N,11932.3956,W,1,08,1.0,3.9,M,-33.8,M,,*5C
$PYRTM,2024,126.839117668160,17.948765078299
$GPGGA,200818.00,3356.4535,N,11932.3958,W,1,08,1.0,4.0,M,-33.8,M,,*5E
$PYRTM,2024,126.839129228727,17.948776638866
$GPGGA,200819.00,3356.4531,N,11932.3961,W,1,08,1.0,4.0,M,-33.8,M,,*51
$PYRTM,2024,126.839140812951,17.948788223102
$GPGGA,200820.00,3356.4529,N,11932.3965,W,1,08,1.0,4.0,M,-33.8,M,,*56
$PYRTM,2024,126.839152380394,17.948799790532
$GPGGA,200821.00,3356.4528,N,11932.3969,W,1,08,1.0,4.0,M,-33.8,M,,*5A
$PYRTM,2024,126.839163967130,17.948811377257
$GPGGA,200822.00,3356.4527,N,11932.3972,W,1,08,1.0,4.0,M,-33.8,M,,*5C
$PYRTM,2024,126.839175525961,17.948822936100
$GPGGA,200823.00,3356.4525,N,11932.3974,W,1,08,1.0,4.1,M,-33.8,M,,*58
$PYRTM,2024,126.839187116088,17.948834526227
$GPGGA,200824.00,3356.4522,N,11932.3977,W,1,08,1.0,4.1,M,-33.8,M,,*5B
$PYRTM,2024,126.839198674271,17.948846084410
$GPGGA,200825.00,3356.4518,N,11932.3981,W,1,08,1.0,4.2,M,-33.8,M,,*59
$PYRTM,2024,126.839210261447,17.948857671586
$GPGGA,200826.00,3356.4516,N,11932.3985,W,1,08,1.0,4.3,M,-33.8,M,,*51
$PYRTM,2024,126.839221821979,17.948869232118
$GPGGA,200827.00,3356.4515,N,11932.3988,W,1,08,1.0,4.3,M,-33.8,M,,*5E
$PYRTM,2024,126.839233410683,17.948880820822
$GPGGA,200828.00,3356.4513,N,11932.3991,W,1,08,1.0,4.3,M,-33.8,M,,*5F
$PYRTM,2024,126.839245091007,17.948892501146
$GPGGA,200829.00,3356.4511,N,11932.3994,W,1,08,1.0,4.3,M,-33.8,M,,*59
$PYRTM,2024,126.839256681863,17.948904092002
$GPGGA,200830.00,3356.4507,N,11932.3998,W,1,08,1.0,4.3,M,-33.8,M,,*5A
$PYRTM,2024,126.839267306215,17.948914716354
$GPGGA,200831.00,3356.4505,N,11932.4002,W,1,08,1.0,4.3,M,-33.8,M,,*54
$PYRTM,2024,126.839278305625,17.948925715764
$GPGGA,200832.00,3356.4504,N,11932.4006,W,1,08,1.0,4.3,M,-33.8,M,,*52
$PYRTM,2024,126.839289891389,17.948937301528
$GPGGA,200833.00,3356.4501,N,11932.4010,W,1,08,1.0,4.3,M,-33.8,M,,*51
$PYRTM,2024,126.839301001308,17.948948411447
$GPGGA,200834.00,3356.4498,N,11932.4014,W,1,08,1.0,4.3,M,-33.8,M,,*53
$PYRTM,2024,126.839312113727,17.948959523866
$GPGGA,200835.00,3356.4494,N,11932.4018,W,1,08,1.0,4.3,M,-33.8,M,,*52
$PYRTM,2024,126.839323111678,17.948970521817
$GPGGA,200836.00,3356.4492,N,11932.4024,W,1,08,1.0,4.3,M,-33.8,M,,*58
$PYRTM,2024,126.839334221562,17.948981631713
$GPGGA,200837.00,3356.4493,N,11932.4030,W,1,08,1.0,3.7,M,-33.8,M,,*5E
$PYRTM,2024,126.839349964051,17.948997374190
$GPGGA,200838.00,3356.4492,N,11932.4034,W,1,08,1.0,3.7,M,-33.8,M,,*54
$PYRTM,2024,126.839372301829,17.949019711968
$GPGGA,200839.00,3356.4488,N,11932.4038,W,1,08,1.0,4.0,M,-33.8,M,,*52
$PYRTM,2024,126.839383409201,17.949030819340
