$PYRTM,2024,127.166674566088,18.276321976227
$GPGGA,035959.00,3359.1742,N,11926.2679,W,1,09,1.0,6.4,M,-33.6,M,,*57
$PYRTM,2024,127.166686127222,18.276333537361
$GPGGA,040000.00,3359.1744,N,11926.2706,W,1,09,1.0,9.6,M,-33.6,M,,*52
$PYRTM,2024,127.166697714583,18.276345124722
$GPGGA,040001.00,3359.1746,N,11926.2734,W,1,09,1.0,8.1,M,-33.6,M,,*56
$PYRTM,2024,127.166709276898,18.276356687049
$GPGGA,040002.00,3359.1748,N,11926.2764,W,1,09,1.0,9.1,M,-33.6,M,,*5F
$PYRTM,2024,127.166720863762,18.276368273912
$GPGGA,040003.00,3359.1750,N,11926.2792,W,1,09,1.0,11.3,M,-33.6,M,,*65
$PYRTM,2024,127.166732668738,18.276380078877
$GPGGA,040004.00,3359.1753,N,11926.2819,W,1,09,1.0,12.2,M,-33.6,M,,*6F
$PYRTM,2024,127.166744006979,18.276391417118
$GPGGA,040005.00,3359.1756,N,11926.2847,W,1,09,1.0,10.5,M,-33.6,M,,*65
$PYRTM,2024,127.166755572905,18.276402983044
$GPGGA,040006.00,3359.1758,N,11926.2876,W,1,09,1.0,10.7,M,-33.6,M,,*68
$PYRTM,2024,127.166767164375,18.276414574514
$GPGGA,040007.00,3359.1759,N,11926.2905,W,1,09,1.0,11.0,M,-33.6,M,,*6B
$PYRTM,2024,127.166778721343,18.276426131481
$GPGGA,040008.00,3359.1761,N,11926.2934,W,1,09,1.0,12.9,M,-33.6,M,,*67
$PYRTM,2024,127.166790312917,18.276437723056
$GPGGA,040009.00,3359.1764,N,11926.2963,W,1,09,1.0,9.8,M,-33.6,M,,*5A
$PYRTM,2024,127.166801870683,18.276449280822
$GPGGA,040010.00,3359.1767,N,11926.2990,W,1,09,1.0,9.6,M,-33.6,M,,*53
$PYRTM,2024,127.166813456759,18.276460866898
$GPGGA,040011.00,3359.1770,N,11926.3016,W,1,09,1.0,10.4,M,-33.6,M,,*68
$PYRTM,2024,127.166825017245,18.276472427384
$GPGGA,040012.00,3359.1771,N,11926.3045,W,1,09,1.0,12.4,M,-33.6,M,,*6E
$PYRTM,2024,127.166836606065,18.276484016204
$GPGGA,040013.00,3359.1773,N,11926.3075,W,1,09,1.0,10.8,M,-33.6,M,,*60
$PYRTM,2024,127.166848167500,18.276495577639
$GPGGA,040014.00,3359.1775,N,11926.3104,W,1,09,1.0,10.3,M,-33.6,M,,*6D
$PYRTM,2024,127.166859753403,18.276507163553
$GPGGA,040015.00,3359.1778,N,11926.3132,W,1,09,1.0,11.3,M,-33.6,M,,*65
$PYRTM,2024,127.166871314120,18.276518724259
$GPGGA,040016.00,3359.1782,N,11926.3161,W,1,09,1.0,9.4,M,-33.6,M,,*5B
$PYRTM,2024,127.166882901956,18.276530312095
$GPGGA,040017.00,3359.1785,N,11926.3192,W,1,09,1.0,9.8,M,-33.6,M,,*5D
$PYRTM,2024,127.166894465451,18.276541875590
$GPGGA,040018.00,3359.1785,N,11926.3222,W,1,09,1.0,9.6,M,-33.6,M,,*54
$PYRTM,2024,127.166905818542,18.276553228681
$GPGGA,040019.00,3359.1787,N,11926.3251,W,1,09,1.0,9.1,M,-33.6,M,,*54
$PYRTM,2024,127.166918651215,18.276566061354
$GPGGA,040020.00,3359.1791,N,11926.3280,W,1,09,1.0,9.1,M,-33.6,M,,*55
$PYRTM,2024,127.166930234942,18.276577645081
$GPGGA,040021.00,3359.1795,N,11926.3309,W,1,09,1.0,9.5,M,-33.6,M,,*54
$PYRTM,2024,127.166941800104,18.276589210243
$GPGGA,040022.00,3359.1798,N,11926.3337,W,1,09,1.0,9.6,M,-33.6,M,,*54
$PYRTM,2024,127.166953498565,18.276600908704
$GPGGA,040023.00,3359.1798,N,11926.3365,W,1,09,1.0,10.2,M,-33.6,M,,*6E
$PYRTM,2024,127.166964948600,18.276612358738
$GPGGA,040024.00,3359.1799,N,11926.3394,W,1,09,1.0,8.6,M,-33.6,M,,*5B
$PYRTM,2024,127.166976536528,18.276623946667
$GPGGA,040025.00,3359.1799,N,11926.3424,W,1,09,1.0,8.9,M,-33.6,M,,*59
$PYRTM,2024,127.166988225961,18.276635636100
$GPGGA,040026.00,3359.1800,N,11926.3453,W,1,09,1.0,10.0,M,-33.6,M,,*65
$PYRTM,2024,127.166999789190,18.276647199329
$GPGGA,040027.00,3359.1803,N,11926.3480,W,1,09,1.0,10.6,M,-33.6,M,,*6F
$PYRTM,2024,127.167011375312,18.276658785451
$GPGGA,040028.00,3359.1807,N,11926.3508,W,1,09,1.0,10.5,M,-33.6,M,,*66
$PYRTM,2024,127.167022832454,18.276670242593
$GPGGA,040029.00,3359.1810,N,11926.3538,W,1,09,1.0,9.3,M,-33.6,M,,*5C
$PYRTM,2024,127.167034524097,18.276681934248
$GPGGA,040030.00,3359.1812,N,11926.3568,W,1,09,1.0,11.3,M,-33.6,M,,*6A
$PYRTM,2024,127.167045981123,18.276693391262
$GPGGA,040031.00,3359.1814,N,11926.3595,W,1,09,1.0,9.4,M,-33.6,M,,*51
$PYRTM,2024,127.167057542755,18.276704952894
$GPGGA,040032.00,3359.1819,N,11926.3623,W,1,09,1.0,9.2,M,-33.6,M,,*57
$PYRTM,2024,127.167069129190,18.276716539329
$GPGGA,040033.00,3359.1824,N,11926.3651,W,1,09,1.0,7.8,M,-33.6,M,,*59
$PYRTM,2024,127.167081166516,18.276728576655
$GPGGA,040034.00,3359.1830,N,11926.3680,W,1,09,1.0,8.0,M,-33.6,M,,*50
$PYRTM,2024,127.167092278669,18.276739688819
$GPGGA,040035.00,3359.1833,N,11926.3709,W,1,09,1.0,9.4,M,-33.6,M,,*57
$PYRTM,2024,127.167103837824,18.276751247963
$GPGGA,040036.00,3359.1835,N,11926.3740,W,1,09,1.0,9.7,M,-33.6,M,,*5C
$PYRTM,2024,127.167115541968,18.276762952106
$GPGGA,040037.00,3359.1838,N,11926.3768,W,1,09,1.0,12.8,M,-33.6,M,,*6F
$PYRTM,2024,127.167127103970,18.276774514109
$GPGGA,040038.00,3359.1842,N,11926.3797,W,1,09,1.0,12.7,M,-33.6,M,,*62
$PYRTM,2024,127.167139025058,18.276786435197
$GPGGA,040039.00,3359.1846,N,11926.3827,W,1,09,1.0,14.2,M,-33.6,M,,*60
$PYRTM,2024,127.167150611968,18.276798022106
$GPGGA,040040.00,3359.1849,N,11926.3856,W,1,09,1.0,13.4,M,-33.6,M,,*66
$PYRTM,2024,127.167161838715,18.276809248854
$GPGGA,040041.00,3359.1850,N,11926.3887,W,1,09,1.0,14.1,M,-33.6,M,,*61
$PYRTM,2024,127.167173415683,18.276820825822
$GPGGA,040042.00,3359.1852,N,11926.3917,W,1,09,1.0,14.9,M,-33.6,M,,*60
$PYRTM,2024,127.167184987338,18.276832397477
$GPGGA,040043.00,3359.1854,N,11926.3948,W,1,09,0.8,14.6,M,-33.6,M,,*6B
$PYRTM,2024,127.167196561806,18.276843971944
$GPGGA,040044.00,3359.1856,N,11926.3978,W,1,09,0.8,12.7,M,-33.6,M,,*6A
$PYRTM,2024,127.167208137604,18.276855547743
$GPGGA,040045.00,3359.1857,N,11926.4007,W,1,09,0.8,12.9,M,-33.6,M,,*62
$PYRTM,2024,127.167219699653,18.276867109792
$GPGGA,040046.00,3359.1857,N,11926.4036,W,1,09,0.8,13.3,M,-33.6,M,,*68
$PYRTM,2024,127.167231271771,18.276878681910
$GPGGA,040047.00,3359.1860,N,11926.4064,W,1,09,0.8,14.8,M,-33.6,M,,*66
$PYRTM,2024,127.167242873576,18.276890283715
$GPGGA,040048.00,3359.1864,N,11926.4092,W,1,09,0.8,14.9,M,-33.6,M,,*65
$PYRTM,2024,127.167255462639,18.276902872789
$GPGGA,040049.00,3359.1869,N,11926.4120,W,1,09,0.8,15.0,M,-33.6,M,,*69
$PYRTM,2024,127.167268194190,18.276915604329
$GPGGA,040050.00,3359.1871,N,11926.4149,W,1,09,0.8,13.4,M,-33.6,M,,*65
$PYRTM,2024,127.167277581794,18.276924991944
$GPGGA,040051.00,3359.1873,N,11926.4178,W,1,09,0.8,12.6,M,-33.6,M,,*67
$PYRTM,2024,127.167289157500,18.276936567650
$GPGGA,040052.00,3359.1876,N,11926.4205,W,1,09,0.8,12.6,M,-33.6,M,,*68
$PYRTM,2024,127.167300730243,18.276948140382
$GPGGA,040053.00,3359.1879,N,11926.4232,W,1,09,0.8,10.6,M,-33.6,M,,*60
$PYRTM,2024,127.167312174271,18.276959584410
$GPGGA,040054.00,3359.1882,N,11926.4261,W,1,09,0.8,9.9,M,-33.6,M,,*52
$PYRTM,2024,127.167323872778,18.276971282917
$GPGGA,040055.00,3359.1883,N,11926.4291,W,1,09,0.8,10.6,M,-33.6,M,,*6A
$PYRTM,2024,127.167335453831,18.276982863970
$GPGGA,040056.00,3359.1885,N,11926.4319,W,1,09,0.8,12.6,M,-33.6,M,,*6C
$PYRTM,2024,127.167347026563,18.276994436701
$GPGGA,040057.00,3359.1887,N,11926.4347,W,1,09,0.8,10.9,M,-33.6,M,,*69
$PYRTM,2024,127.167358587535,18.277005997674
$GPGGA,040058.00,3359.1890,N,11926.4377,W,1,09,0.8,12.1,M,-33.6,M,,*69
$PYRTM,2024,127.167370160625,18.277017570764
$GPGGA,040059.00,3359.1893,N,11926.4408,W,1,09,0.8,12.3,M,-33.6,M,,*66
$PYRTM,2024,127.167381735069,18.277029145208
$GPGGA,040100.00,3359.1895,N,11926.4438,W,1,09,0.8,11.6,M,-33.6,M,,*68
$PYRTM,2024,127.167393319120,18.277040729259
$GPGGA,040101.00,3359.1896,N,11926.4467,W,1,09,0.8,10.5,M,-33.6,M,,*62
$PYRTM,2024,127.167404897350,18.277052307488
$GPGGA,040102.00,3359.1898,N,11926.4495,W,1,09,0.8,10.0,M,-33.6,M,,*67
$PYRTM,2024,127.167416470799,18.277063880938
$GPGGA,040103.00,3359.1900,N,11926.4525,W,1,09,0.8,10.1,M,-33.6,M,,*6D
$PYRTM,2024,127.167428392037,18.277075802188
$GPGGA,040104.00,3359.1902,N,11926.4556,W,1,09,0.8,11.6,M,-33.6,M,,*6A
$PYRTM,2024,127.167440082639,18.277087492778
$GPGGA,040105.00,3359.1904,N,11926.4585,W,1,09,0.8,11.7,M,-33.6,M,,*62
$PYRTM,2024,127.167451655937,18.277099066088
$GPGGA,040106.00,3359.1908,N,11926.4613,W,1,09,0.8,11.6,M,-33.6,M,,*60
$PYRTM,2024,127.167463231435,18.277110641574
$GPGGA,040107.00,3359.1911,N,11926.4642,W,1,09,0.8,11.7,M,-33.6,M,,*6C
$PYRTM,2024,127.167474806481,18.277122216632
$GPGGA,040108.00,3359.1914,N,11926.4668,W,1,09,0.8,12.4,M,-33.6,M,,*6E
$PYRTM,2024,127.167486382350,18.277133792500
$GPGGA,040109.00,3359.1917,N,11926.4695,W,1,09,0.8,11.6,M,-33.6,M,,*6F
$PYRTM,2024,127.167497954167,18.277145364306
$GPGGA,040110.00,3359.1920,N,11926.4724,W,1,09,0.8,13.9,M,-33.6,M,,*65
$PYRTM,2024,127.167509527014,18.277156937153
$GPGGA,040111.00,3359.1922,N,11926.4754,W,1,09,0.8,13.2,M,-33.6,M,,*6A
$PYRTM,2024,127.167521100741,18.277168510880
$GPGGA,040112.00,3359.1923,N,11926.4783,W,1,09,0.8,13.0,M,-33.6,M,,*60
$PYRTM,2024,127.167532690301,18.277180100440
$GPGGA,040113.00,3359.1926,N,11926.4810,W,1,09,0.8,11.0,M,-33.6,M,,*63
$PYRTM,2024,127.167544246991,18.277191657130
$GPGGA,040114.00,3359.1929,N,11926.4837,W,1,09,0.8,9.7,M,-33.6,M,,*50
$PYRTM,2024,127.167555839213,18.277203249352
$GPGGA,040115.00,3359.1933,N,11926.4866,W,1,09,0.8,10.1,M,-33.6,M,,*60
$PYRTM,2024,127.167567399248,18.277214809387
$GPGGA,040116.00,3359.1936,N,11926.4897,W,1,09,0.8,10.6,M,-33.6,M,,*6F
$PYRTM,2024,127.167578969201,18.277226379340
$GPGGA,040117.00,3359.1937,N,11926.4924,W,1,09,0.8,9.5,M,-33.6,M,,*5D
$PYRTM,2024,127.167590546481,18.277237956632
$GPGGA,040118.00,3359.1940,N,11926.4951,W,1,09,0.8,10.3,M,-33.6,M,,*6E
$PYRTM,2024,127.167603274120,18.277250684271
$GPGGA,040119.00,3359.1944,N,11926.4979,W,1,09,0.8,10.7,M,-33.6,M,,*65
$PYRTM,2024,127.167615879954,18.277263290093
$GPGGA,040120.00,3359.1948,N,11926.5007,W,1,09,0.8,10.6,M,-33.6,M,,*63
$PYRTM,2024,127.167625270764,18.277272680903
$GPGGA,040121.00,3359.1951,N,11926.5034,W,1,09,0.8,9.2,M,-33.6,M,,*56
$PYRTM,2024,127.167636844248,18.277284254387
$GPGGA,040122.00,3359.1952,N,11926.5063,W,1,09,0.8,11.5,M,-33.6,M,,*6A
$PYRTM,2024,127.167648417569,18.277295827708
$GPGGA,040123.00,3359.1952,N,11926.5094,W,1,09,0.8,9.4,M,-33.6,M,,*5B
$PYRTM,2024,127.167660095139,18.277307505278
$GPGGA,040124.00,3359.1954,N,11926.5123,W,1,09,0.8,10.7,M,-33.6,M,,*6C
$PYRTM,2024,127.167671902153,18.277319312292
$GPGGA,040125.00,3359.1958,N,11926.5150,W,1,09,0.8,11.4,M,-33.6,M,,*67
$PYRTM,2024,127.167684861551,18.277332271690
$GPGGA,040126.00,3359.1961,N,11926.5180,W,1,09,0.8,11.5,M,-33.6,M,,*62
$PYRTM,2024,127.167693790683,18.277341200822
$GPGGA,040127.00,3359.1962,N,11926.5209,W,1,09,0.8,13.3,M,-33.6,M,,*66
$PYRTM,2024,127.167710325359,18.277357735498
$GPGGA,040128.00,3359.1964,N,11926.5238,W,1,09,0.8,10.7,M,-33.6,M,,*6A
$PYRTM,2024,127.167721913032,18.277369323171
$GPGGA,040129.00,3359.1965,N,11926.5267,W,1,09,0.8,10.2,M,-33.6,M,,*65
$PYRTM,2024,127.167733026053,18.277380436192
$GPGGA,040130.00,3359.1968,N,11926.5297,W,1,09,0.8,9.8,M,-33.6,M,,*5D
$PYRTM,2024,127.167744248993,18.277391659132
$GPGGA,040131.00,3359.1972,N,11926.5325,W,1,09,0.8,10.8,M,-33.6,M,,*67
$PYRTM,2024,127.167755357106,18.277402767245
$GPGGA,040132.00,3359.1975,N,11926.5353,W,1,09,0.8,11.6,M,-33.6,M,,*6D
$PYRTM,2024,127.167766473634,18.277413883773
$GPGGA,040133.00,3359.1978,N,11926.5381,W,1,09,0.8,9.7,M,-33.6,M,,*56
$PYRTM,2024,127.167778048958,18.277425459097
$GPGGA,040134.00,3359.1981,N,11926.5411,W,1,09,0.8,10.8,M,-33.6,M,,*6E
$PYRTM,2024,127.167789145995,18.277436556146
$GPGGA,040135.00,3359.1983,N,11926.5442,W,1,09,0.8,9.6,M,-33.6,M,,*5D
$PYRTM,2024,127.167800271215,18.277447681354
$GPGGA,040136.00,3359.1984,N,11926.5472,W,1,09,0.8,10.5,M,-33.6,M,,*61
$PYRTM,2024,127.167811372361,18.277458782500
$GPGGA,040137.00,3359.1987,N,11926.5500,W,1,09,0.8,9.0,M,-33.6,M,,*5A
$PYRTM,2024,127.167822612211,18.277470022350
$GPGGA,040138.00,3359.1990,N,11926.5528,W,1,09,0.8,10.4,M,-33.6,M,,*65
$PYRTM,2024,127.167833720394,18.277481130544
$GPGGA,040139.00,3359.1993,N,11926.5558,W,1,09,0.8,9.3,M,-33.6,M,,*5F
$PYRTM,2024,127.167844820208,18.277492230347
$GPGGA,040140.00,3359.1994,N,11926.5588,W,1,09,0.8,10.3,M,-33.6,M,,*63
$PYRTM,2024,127.167855942407,18.277503352546
$GPGGA,040141.00,3359.1995,N,11926.5616,W,1,09,0.8,9.0,M,-33.6,M,,*5C
$PYRTM,2024,127.167867054583,18.277514464722
$GPGGA,040142.00,3359.1997,N,11926.5644,W,1,09,0.8,6.4,M,-33.6,M,,*51
$PYRTM,2024,127.167878167280,18.277525577419
$GPGGA,040143.00,3359.2001,N,11926.5672,W,1,09,0.8,9.4,M,-33.6,M,,*5F
$PYRTM,2024,127.167889276644,18.277536686782
$GPGGA,040144.00,3359.2005,N,11926.5701,W,1,09,0.8,8.8,M,-33.6,M,,*54
$PYRTM,2024,127.167900838137,18.277548248275
$GPGGA,040145.00,3359.2009,N,11926.5727,W,1,09,0.8,12.5,M,-33.6,M,,*6B
$PYRTM,2024,127.167912424132,18.277559834271
$GPGGA,040146.00,3359.2013,N,11926.5755,W,1,09,0.8,11.1,M,-33.6,M,,*61
$PYRTM,2024,127.167923985324,18.277571395463
$GPGGA,040147.00,3359.2016,N,11926.5785,W,1,09,0.8,10.6,M,-33.6,M,,*6E
$PYRTM,2024,127.167935567593,18.277582977743
$GPGGA,040148.00,3359.2021,N,11926.5814,W,1,09,0.8,10.2,M,-33.6,M,,*66
$PYRTM,2024,127.167947727025,18.277595137176
$GPGGA,040149.00,3359.2027,N,11926.5840,W,1,09,0.8,11.8,M,-33.6,M,,*6B
$PYRTM,2024,127.167959285856,18.277606695995
$GPGGA,040150.00,3359.2033,N,11926.5867,W,1,09,0.8,12.7,M,-33.6,M,,*6F
$PYRTM,2024,127.167970883194,18.277618293333
$GPGGA,040151.00,3359.2035,N,11926.5896,W,1,09,0.8,10.4,M,-33.6,M,,*67
$PYRTM,2024,127.167982434699,18.277629844838
$GPGGA,040152.00,3359.2037,N,11926.5927,W,1,09,0.8,13.0,M,-33.6,M,,*6A
$PYRTM,2024,127.167994021979,18.277641432118
$GPGGA,040153.00,3359.2039,N,11926.5956,W,1,09,0.8,10.1,M,-33.6,M,,*61
$PYRTM,2024,127.168005583079,18.277652993206
$GPGGA,040154.00,3359.2044,N,11926.5984,W,1,09,0.8,10.1,M,-33.6,M,,*63
$PYRTM,2024,127.168017171400,18.277664581539
$GPGGA,040155.00,3359.2048,N,11926.6012,W,1,09,0.8,10.6,M,-33.6,M,,*6C
$PYRTM,2024,127.168028731505,18.277676141644
$GPGGA,040156.00,3359.2052,N,11926.6042,W,1,09,0.8,10.2,M,-33.6,M,,*65
$PYRTM,2024,127.168040320046,18.277687730185
$GPGGA,040157.00,3359.2054,N,11926.6071,W,1,09,0.8,10.6,M,-33.6,M,,*66
$PYRTM,2024,127.168051880370,18.277699290509
$GPGGA,040158.00,3359.2056,N,11926.6098,W,1,09,0.8,9.5,M,-33.6,M,,*57
$PYRTM,2024,127.168063473113,18.277710883264
$GPGGA,040159.00,3359.2060,N,11926.6127,W,1,09,0.8,10.3,M,-33.6,M,,*68
$PYRTM,2024,127.168075028333,18.277722438472
$GPGGA,040200.00,3359.2063,N,11926.6157,W,1,09,0.8,8.9,M,-33.6,M,,*50
$PYRTM,2024,127.168086630752,18.277734040891
$GPGGA,040201.00,3359.2067,N,11926.6185,W,1,09,0.8,11.0,M,-33.6,M,,*6B
$PYRTM,2024,127.168098176539,18.277745586678
$GPGGA,040202.00,3359.2070,N,11926.6214,W,1,09,0.8,12.2,M,-33.6,M,,*64
$PYRTM,2024,127.168109767014,18.277757177153
$GPGGA,040203.00,3359.2071,N,11926.6242,W,1,09,0.8,11.7,M,-33.6,M,,*61
$PYRTM,2024,127.168121441030,18.277768851169
$GPGGA,040204.00,3359.2074,N,11926.6268,W,1,09,0.8,9.7,M,-33.6,M,,*52
$PYRTM,2024,127.168132913125,18.277780323264
$GPGGA,040205.00,3359.2077,N,11926.6297,W,1,09,0.8,10.4,M,-33.6,M,,*6B
$PYRTM,2024,127.168144473090,18.277791883229
$GPGGA,040206.00,3359.2080,N,11926.6326,W,1,09,0.8,12.1,M,-33.6,M,,*6C
$PYRTM,2024,127.168156061400,18.277803471539
$GPGGA,040207.00,3359.2083,N,11926.6353,W,1,09,0.8,10.2,M,-33.6,M,,*6D
$PYRTM,2024,127.168167623461,18.277815033600
$GPGGA,040208.00,3359.2087,N,11926.6381,W,1,09,0.8,11.9,M,-33.6,M,,*63
$PYRTM,2024,127.168179208414,18.277826618553
$GPGGA,040209.00,3359.2090,N,11926.6411,W,1,09,0.8,11.9,M,-33.6,M,,*6A
$PYRTM,2024,127.168190769340,18.277838179491
$GPGGA,040210.00,3359.2093,N,11926.6441,W,1,09,0.8,11.5,M,-33.6,M,,*68
$PYRTM,2024,127.168202359410,18.277849769549
$GPGGA,040211.00,3359.2096,N,11926.6469,W,1,09,0.8,10.8,M,-33.6,M,,*6A
$PYRTM,2024,127.168213918090,18.277861328241
$GPGGA,040212.00,3359.2101,N,11926.6497,W,1,09,0.8,8.9,M,-33.6,M,,*5F
$PYRTM,2024,127.168225506701,18.277872916840
$GPGGA,040213.00,3359.2105,N,11926.6527,W,1,09,0.8,10.0,M,-33.6,M,,*60
$PYRTM,2024,127.168237066030,18.277884476169
$GPGGA,040214.00,3359.2108,N,11926.6557,W,1,09,0.8,9.6,M,-33.6,M,,*53
$PYRTM,2024,127.168248656991,18.277896067130
$GPGGA,040215.00,3359.2110,N,11926.6585,W,1,09,0.8,9.8,M,-33.6,M,,*5A
$PYRTM,2024,127.168260214317,18.277907624456
$GPGGA,040216.00,3359.2113,N,11926.6613,W,1,09,0.8,9.7,M,-33.6,M,,*59
$PYRTM,2024,127.168271805532,18.277919215671
$GPGGA,040217.00,3359.2116,N,11926.6641,W,1,09,0.8,9.3,M,-33.6,M,,*5E
$PYRTM,2024,127.168283363576,18.277930773715
$GPGGA,040218.00,3359.2118,N,11926.6670,W,1,09,0.8,7.5,M,-33.6,M,,*55
$PYRTM,2024,127.168295062199,18.277942472350
$GPGGA,040219.00,3359.2120,N,11926.6699,W,1,09,0.8,9.3,M,-33.6,M,,*50
$PYRTM,2024,127.168307552558,18.277954962697
$GPGGA,040220.00,3359.2121,N,11926.6726,W,1,09,0.8,8.8,M,-33.6,M,,*54
$PYRTM,2024,127.168319140903,18.277966551042
$GPGGA,040221.00,3359.2123,N,11926.6751,W,1,09,0.8,9.3,M,-33.6,M,,*5D
$PYRTM,2024,127.168330700880,18.277978111019
$GPGGA,040222.00,3359.2127,N,11926.6779,W,1,09,0.8,9.1,M,-33.6,M,,*52
$PYRTM,2024,127.168342289201,18.277989699340
$GPGGA,040223.00,3359.2130,N,11926.6808,W,1,09,0.8,8.1,M,-33.6,M,,*5D
$PYRTM,2024,127.168353848773,18.278001258912
$GPGGA,040224.00,3359.2132,N,11926.6837,W,1,09,0.8,8.0,M,-33.6,M,,*55
$PYRTM,2024,127.168365437338,18.278012847477
$GPGGA,040225.00,3359.2133,N,11926.6865,W,1,09,0.8,6.5,M,-33.6,M,,*59
$PYRTM,2024,127.168376997824,18.278024407963
$GPGGA,040226.00,3359.2136,N,11926.6893,W,1,09,0.8,7.6,M,-33.6,M,,*54
$PYRTM,2024,127.168388585810,18.278035995949
$GPGGA,040227.00,3359.2139,N,11926.6922,W,1,09,0.8,8.5,M,-33.6,M,,*5D
$PYRTM,2024,127.168400260845,18.278047670984
$GPGGA,040228.00,3359.2143,N,11926.6953,W,1,09,0.8,10.3,M,-33.6,M,,*66
$PYRTM,2024,127.168411851435,18.278059261574
$GPGGA,040229.00,3359.2146,N,11926.6982,W,1,09,0.8,10.2,M,-33.6,M,,*6F
$PYRTM,2024,127.168423297639,18.278070707789
$GPGGA,040230.00,3359.2149,N,11926.7010,W,1,09,0.8,9.5,M,-33.6,M,,*54
$PYRTM,2024,127.168434887141,18.278082297280
$GPGGA,040231.00,3359.2151,N,11926.7038,W,1,09,0.8,7.2,M,-33.6,M,,*5F
$PYRTM,2024,127.168446558588,18.278093968727
$GPGGA,040232.00,3359.2155,N,11926.7066,W,1,09,0.8,10.1,M,-33.6,M,,*66
$PYRTM,2024,127.168458143657,18.278105553796
$GPGGA,040233.00,3359.2159,N,11926.7094,W,1,09,0.8,10.1,M,-33.6,M,,*66
$PYRTM,2024,127.168470068588,18.278117478727
$GPGGA,040234.00,3359.2164,N,11926.7124,W,1,09,0.8,11.6,M,-33.6,M,,*63
$PYRTM,2024,127.168481513762,18.278128923900
$GPGGA,040235.00,3359.2166,N,11926.7154,W,1,09,0.8,12.5,M,-33.6,M,,*67
$PYRTM,2024,127.168492742975,18.278140153113
$GPGGA,040236.00,3359.2168,N,11926.7184,W,1,09,0.8,11.9,M,-33.6,M,,*68
$PYRTM,2024,127.168504430347,18.278151840498
$GPGGA,040237.00,3359.2170,N,11926.7211,W,1,09,0.8,11.7,M,-33.6,M,,*61
$PYRTM,2024,127.168516003657,18.278163413796
$GPGGA,040238.00,3359.2173,N,11926.7240,W,1,09,0.8,12.4,M,-33.6,M,,*69
$PYRTM,2024,127.168527579271,18.278174989410
$GPGGA,040239.00,3359.2175,N,11926.7272,W,1,09,0.8,13.4,M,-33.6,M,,*6E
$PYRTM,2024,127.168539037269,18.278186447407
$GPGGA,040240.00,3359.2176,N,11926.7304,W,1,09,0.8,11.6,M,-33.6,M,,*63
$PYRTM,2024,127.168550727662,18.278198137812
$GPGGA,040241.00,3359.2175,N,11926.7333,W,1,09,1.0,12.7,M,-33.6,M,,*6E
$PYRTM,2024,127.168562300856,18.278209710995
$GPGGA,040242.00,3359.2177,N,11926.7360,W,1,09,1.0,12.9,M,-33.6,M,,*67
$PYRTM,2024,127.168573773484,18.278221183623
$GPGGA,040243.00,3359.2181,N,11926.7390,W,1,09,1.0,12.3,M,-33.6,M,,*6A
$PYRTM,2024,127.168585448981,18.278232859120
$GPGGA,040244.00,3359.2186,N,11926.7421,W,1,09,1.0,11.0,M,-33.6,M,,*67
$PYRTM,2024,127.168597023947,18.278244434086
$GPGGA,040245.00,3359.2189,N,11926.7451,W,1,09,1.0,12.0,M,-33.6,M,,*6D
$PYRTM,2024,127.168608596910,18.278256007049
$GPGGA,040246.00,3359.2190,N,11926.7478,W,1,09,1.0,11.9,M,-33.6,M,,*67
$PYRTM,2024,127.168620071238,18.278267481389
$GPGGA,040247.00,3359.2193,N,11926.7507,W,1,09,1.0,13.8,M,-33.6,M,,*6F
$PYRTM,2024,127.168631744086,18.278279154225
$GPGGA,040248.00,3359.2198,N,11926.7536,W,1,09,1.0,11.6,M,-33.6,M,,*65
$PYRTM,2024,127.168644363472,18.278291773623
$GPGGA,040249.00,3359.2202,N,11926.7566,W,1,09,1.0,12.4,M,-33.6,M,,*60
$PYRTM,2024,127.168656978657,18.278304388796
$GPGGA,040250.00,3359.2205,N,11926.7595,W,1,09,1.0,11.3,M,-33.6,M,,*67
$PYRTM,2024,127.168666481100,18.278313891238
$GPGGA,040251.00,3359.2207,N,11926.7623,W,1,09,1.0,11.7,M,-33.6,M,,*6E
$PYRTM,2024,127.168677926273,18.278325336424
$GPGGA,040252.00,3359.2209,N,11926.7653,W,1,09,1.0,13.8,M,-33.6,M,,*69
$PYRTM,2024,127.168689513461,18.278336923600
$GPGGA,040253.00,3359.2214,N,11926.7683,W,1,09,1.0,12.4,M,-33.6,M,,*64
$PYRTM,2024,127.168701075498,18.278348485637
$GPGGA,040254.00,3359.2218,N,11926.7711,W,1,09,1.0,13.0,M,-33.6,M,,*60
$PYRTM,2024,127.168712766424,18.278360176563
$GPGGA,040255.00,3359.2221,N,11926.7739,W,1,09,1.0,13.3,M,-33.6,M,,*62
$PYRTM,2024,127.168724223275,18.278371633414
$GPGGA,040256.00,3359.2223,N,11926.7769,W,1,09,1.0,11.4,M,-33.6,M,,*63
$PYRTM,2024,127.168735810463,18.278383220602
$GPGGA,040257.00,3359.2226,N,11926.7799,W,1,09,1.0,13.7,M,-33.6,M,,*69
$PYRTM,2024,127.168747371725,18.278394781863
$GPGGA,040258.00,3359.2230,N,11926.7828,W,1,09,1.0,10.6,M,-33.6,M,,*66
$PYRTM,2024,127.168758960764,18.278406370903
$GPGGA,040259.00,3359.2234,N,11926.7858,W,1,09,1.0,10.3,M,-33.6,M,,*61
$PYRTM,2024,127.168770521238,18.278417931377
$GPGGA,040300.00,3359.2237,N,11926.7887,W,1,09,1.0,7.7,M,-33.6,M,,*5F
$PYRTM,2024,127.168782108819,18.278429518958
$GPGGA,040301.00,3359.2239,N,11926.7915,W,1,09,1.0,10.4,M,-33.6,M,,*6F
$PYRTM,2024,127.168793668600,18.278441078738
$GPGGA,040302.00,3359.2240,N,11926.7945,W,1,09,1.0,11.7,M,-33.6,M,,*65
$PYRTM,2024,127.168805256574,18.278452666713
$GPGGA,040303.00,3359.2243,N,11926.7976,W,1,09,1.0,13.5,M,-33.6,M,,*67
$PYRTM,2024,127.168817292500,18.278464702639
$GPGGA,040304.00,3359.2245,N,11926.8004,W,1,09,1.0,12.1,M,-33.6,M,,*60
$PYRTM,2024,127.168828855289,18.278476265428
$GPGGA,040305.00,3359.2248,N,11926.8029,W,1,09,1.0,12.1,M,-33.6,M,,*63
$PYRTM,2024,127.168840557199,18.278487967338
$GPGGA,040306.00,3359.2251,N,11926.8056,W,1,09,1.0,11.2,M,-33.6,M,,*60
$PYRTM,2024,127.168852116806,18.278499526944
$GPGGA,040307.00,3359.2252,N,11926.8086,W,1,09,1.0,12.8,M,-33.6,M,,*66
$PYRTM,2024,127.168863705845,18.278511115984
$GPGGA,040308.00,3359.2254,N,11926.8115,W,1,09,1.0,10.4,M,-33.6,M,,*6A
$PYRTM,2024,127.168875630313,18.278523040463
$GPGGA,040309.00,3359.2258,N,11926.8141,W,1,09,1.0,11.2,M,-33.6,M,,*61
$PYRTM,2024,127.168886737836,18.278534147975
$GPGGA,040310.00,3359.2262,N,11926.8168,W,1,09,1.0,9.1,M,-33.6,M,,*51
$PYRTM,2024,127.168898414363,18.278545824502
$GPGGA,040311.00,3359.2266,N,11926.8196,W,1,09,1.0,10.6,M,-33.6,M,,*6A
$PYRTM,2024,127.168910001933,18.278557412072
$GPGGA,040312.00,3359.2269,N,11926.8225,W,1,09,1.0,8.1,M,-33.6,M,,*53
$PYRTM,2024,127.168921562419,18.278568972558
$GPGGA,040313.00,3359.2272,N,11926.8255,W,1,09,1.0,10.5,M,-33.6,M,,*62
$PYRTM,2024,127.168933151736,18.278580561887
$GPGGA,040314.00,3359.2276,N,11926.8284,W,1,09,1.0,11.2,M,-33.6,M,,*6B
$PYRTM,2024,127.168944712245,18.278592122384
$GPGGA,040315.00,3359.2279,N,11926.8310,W,1,09,1.0,10.4,M,-33.6,M,,*6E
$PYRTM,2024,127.168956299479,18.278603709618
$GPGGA,040316.00,3359.2282,N,11926.8338,W,1,09,1.0,7.3,M,-33.6,M,,*52
$PYRTM,2024,127.168967858472,18.278615268611
$GPGGA,040317.00,3359.2286,N,11926.8368,W,1,09,1.0,6.9,M,-33.6,M,,*59
$PYRTM,2024,127.168979448437,18.278626858576
$GPGGA,040318.00,3359.2288,N,11926.8397,W,1,09,1.0,8.8,M,-33.6,M,,*57
$PYRTM,2024,127.168992065139,18.278639475289
$GPGGA,040319.00,3359.2290,N,11926.8427,W,1,09,1.0,9.5,M,-33.6,M,,*5F
$PYRTM,2024,127.169004203704,18.278651613843
$GPGGA,040320.00,3359.2293,N,11926.8455,W,1,09,1.0,9.3,M,-33.6,M,,*55
$PYRTM,2024,127.169013605509,18.278661015648
$GPGGA,040321.00,3359.2297,N,11926.8483,W,1,09,1.0,7.7,M,-33.6,M,,*51
$PYRTM,2024,127.169025152454,18.278672562604
$GPGGA,040322.00,3359.2301,N,11926.8511,W,1,09,1.0,7.8,M,-33.6,M,,*59
$PYRTM,2024,127.169036742998,18.278684153148
$GPGGA,040323.00,3359.2305,N,11926.8540,W,1,09,1.0,9.2,M,-33.6,M,,*5C
$PYRTM,2024,127.169048302106,18.278695712245
$GPGGA,040324.00,3359.2307,N,11926.8570,W,1,09,1.0,8.2,M,-33.6,M,,*5B
$PYRTM,2024,127.169059883160,18.278707293299
$GPGGA,040325.00,3359.2308,N,11926.8598,W,1,09,1.0,9.2,M,-33.6,M,,*52
$PYRTM,2024,127.169071449896,18.278718860035
$GPGGA,040326.00,3359.2310,N,11926.8625,W,1,09,1.0,10.5,M,-33.6,M,,*62
$PYRTM,2024,127.169083036123,18.278730446262
$GPGGA,040327.00,3359.2315,N,11926.8653,W,1,09,1.0,9.4,M,-33.6,M,,*5E
$PYRTM,2024,127.169094712755,18.278742122894
$GPGGA,040328.00,3359.2319,N,11926.8683,W,1,09,1.0,10.5,M,-33.6,M,,*69
$PYRTM,2024,127.169106185150,18.278753595289
$GPGGA,040329.00,3359.2322,N,11926.8712,W,1,09,1.0,9.2,M,-33.6,M,,*56
$PYRTM,2024,127.169116936400,18.278764346539
$GPGGA,040330.00,3359.2323,N,11926.8741,W,1,09,1.0,11.0,M,-33.6,M,,*62
$PYRTM,2024,127.169129899016,18.278777309155
$GPGGA,040331.00,3359.2326,N,11926.8770,W,1,09,1.0,9.7,M,-33.6,M,,*5A
$PYRTM,2024,127.169138823704,18.278786233843
$GPGGA,040332.00,3359.2330,N,11926.8797,W,1,09,1.0,10.6,M,-33.6,M,,*6E
$PYRTM,2024,127.169155375903,18.278802786042
$GPGGA,040333.00,3359.2335,N,11926.8826,W,1,09,1.0,10.9,M,-33.6,M,,*60
$PYRTM,2024,127.169166936644,18.278814346782
$GPGGA,040334.00,3359.2337,N,11926.8855,W,1,09,1.0,11.8,M,-33.6,M,,*61
$PYRTM,2024,127.169178046227,18.278825456366
$GPGGA,040335.00,3359.2339,N,11926.8883,W,1,09,1.0,10.0,M,-33.6,M,,*6C
$PYRTM,2024,127.169189272569,18.278836682720
$GPGGA,040336.00,3359.2340,N,11926.8913,W,1,09,1.0,11.4,M,-33.6,M,,*6C
$PYRTM,2024,127.169200384907,18.278847795046
$GPGGA,040337.00,3359.2342,N,11926.8941,W,1,09,1.0,12.2,M,-33.6,M,,*6D
$PYRTM,2024,127.169211498056,18.278858908194
$GPGGA,040338.00,3359.2346,N,11926.8970,W,1,09,1.0,9.7,M,-33.6,M,,*5B
$PYRTM,2024,127.169222606609,18.278870016748
$GPGGA,040339.00,3359.2349,N,11926.8999,W,1,09,1.0,11.2,M,-33.6,M,,*6E
$PYRTM,2024,127.169233719653,18.278881129803
$GPGGA,040340.00,3359.2351,N,11926.9028,W,1,09,1.0,10.8,M,-33.6,M,,*60
$PYRTM,2024,127.169244959155,18.278892369294
$GPGGA,040341.00,3359.2352,N,11926.9058,W,1,09,1.0,11.2,M,-33.6,M,,*6E
$PYRTM,2024,127.169256070104,18.278903480243
$GPGGA,040342.00,3359.2352,N,11926.9087,W,1,09,1.0,11.9,M,-33.6,M,,*64
$PYRTM,2024,127.169267181667,18.278914591806
$GPGGA,040343.00,3359.2355,N,11926.9115,W,1,09,1.0,9.8,M,-33.6,M,,*50
$PYRTM,2024,127.169280492975,18.278927903113
$GPGGA,040344.00,3359.2359,N,11926.9142,W,1,09,1.0,9.7,M,-33.6,M,,*56
$PYRTM,2024,127.169291589745,18.278938999884
$GPGGA,040345.00,3359.2361,N,11926.9170,W,1,09,1.0,11.9,M,-33.6,M,,*6A
$PYRTM,2024,127.169302714514,18.278950124653
$GPGGA,040346.00,3359.2361,N,11926.9198,W,1,09,1.0,9.9,M,-33.6,M,,*56
$PYRTM,2024,127.169313824734,18.278961234873
$GPGGA,040347.00,3359.2363,N,11926.9227,W,1,09,1.0,7.7,M,-33.6,M,,*52
$PYRTM,2024,127.169324936447,18.278972346586
$GPGGA,040348.00,3359.2365,N,11926.9254,W,1,09,1.0,8.0,M,-33.6,M,,*57
$PYRTM,2024,127.169337192824,18.278984602975
$GPGGA,040349.00,3359.2370,N,11926.9281,W,1,09,1.0,8.3,M,-33.6,M,,*59
$PYRTM,2024,127.169348200752,18.278995610891
$GPGGA,040350.00,3359.2374,N,11926.9309,W,1,09,1.0,10.2,M,-33.6,M,,*6C
$PYRTM,2024,127.169359774687,18.279007184826
$GPGGA,040351.00,3359.2377,N,11926.9339,W,1,09,1.0,9.6,M,-33.6,M,,*51
$PYRTM,2024,127.169371349676,18.279018759815
$GPGGA,040352.00,3359.2377,N,11926.9368,W,1,09,1.0,9.7,M,-33.6,M,,*57
$PYRTM,2024,127.169382927755,18.279030337905
$GPGGA,040353.00,3359.2380,N,11926.9395,W,1,09,1.0,11.6,M,-33.6,M,,*64
$PYRTM,2024,127.169394498356,18.279041908495
$GPGGA,040354.00,3359.2385,N,11926.9423,W,1,09,1.0,11.6,M,-33.6,M,,*6C
$PYRTM,2024,127.169406089074,18.279053499213
$GPGGA,040355.00,3359.2389,N,11926.9453,W,1,09,1.0,10.5,M,-33.6,M,,*64
$PYRTM,2024,127.169417652245,18.279065062384
$GPGGA,040356.00,3359.2391,N,11926.9482,W,1,09,1.0,12.9,M,-33.6,M,,*6C
$PYRTM,2024,127.169429218958,18.279076629109
$GPGGA,040357.00,3359.2394,N,11926.9510,W,1,09,1.0,12.2,M,-33.6,M,,*69
$PYRTM,2024,127.169440804178,18.279088214317
$GPGGA,040358.00,3359.2399,N,11926.9539,W,1,09,1.0,12.5,M,-33.6,M,,*67
$PYRTM,2024,127.169452832326,18.279100242465
$GPGGA,040359.00,3359.2404,N,11926.9567,W,1,09,1.0,10.3,M,-33.6,M,,*6A
$PYRTM,2024,127.169464044433,18.279111454572
$GPGGA,040400.00,3359.2408,N,11926.9595,W,1,09,1.0,9.3,M,-33.6,M,,*58
$PYRTM,2024,127.169475512951,18.279122923090
$GPGGA,040401.00,3359.2410,N,11926.9624,W,1,09,1.0,9.9,M,-33.6,M,,*53
$PYRTM,2024,127.169487085903,18.279134496042
$GPGGA,040402.00,3359.2413,N,11926.9653,W,1,09,1.0,9.8,M,-33.6,M,,*52
$PYRTM,2024,127.169498673889,18.279146084028
$GPGGA,040403.00,3359.2417,N,11926.9680,W,1,09,1.0,10.7,M,-33.6,M,,*6E
$PYRTM,2024,127.169510342627,18.279157752766
$GPGGA,040404.00,3359.2421,N,11926.9709,W,1,09,1.0,10.4,M,-33.6,M,,*6F
$PYRTM,2024,127.169521809699,18.279169219838
$GPGGA,040405.00,3359.2424,N,11926.9740,W,1,09,1.0,11.1,M,-33.6,M,,*62
$PYRTM,2024,127.169533388958,18.279180799109
$GPGGA,040406.00,3359.2428,N,11926.9770,W,1,09,1.0,11.2,M,-33.6,M,,*6D
$PYRTM,2024,127.169544962303,18.279192372442
$GPGGA,040407.00,3359.2432,N,11926.9799,W,1,09,1.0,10.3,M,-33.6,M,,*60
$PYRTM,2024,127.169556536331,18.279203946470
$GPGGA,040408.00,3359.2436,N,11926.9827,W,1,09,1.0,10.4,M,-33.6,M,,*66
$PYRTM,2024,127.169568113495,18.279215523634
$GPGGA,040409.00,3359.2441,N,11926.9855,W,1,09,1.0,10.6,M,-33.6,M,,*60
$PYRTM,2024,127.169579685116,18.279227095255
$GPGGA,040410.00,3359.2444,N,11926.9885,W,1,09,1.0,10.5,M,-33.6,M,,*63
$PYRTM,2024,127.169591274537,18.279238684676
$GPGGA,040411.00,3359.2446,N,11926.9916,W,1,09,1.0,9.1,M,-33.6,M,,*57
$PYRTM,2024,127.169602832118,18.279250242257
$GPGGA,040412.00,3359.2449,N,11926.9943,W,1,09,1.0,9.8,M,-33.6,M,,*52
$PYRTM,2024,127.169614401481,18.279261811620
$GPGGA,040413.00,3359.2453,N,11926.9969,W,1,09,1.0,9.6,M,-33.6,M,,*5E
$PYRTM,2024,127.169625980833,18.279273390972
$GPGGA,040414.00,3359.2457,N,11926.9997,W,1,09,1.0,11.6,M,-33.6,M,,*65
$PYRTM,2024,127.169637556169,18.279284966308
$GPGGA,040415.00,3359.2460,N,11927.0028,W,1,09,1.0,9.8,M,-33.6,M,,*52
$PYRTM,2024,127.169649128854,18.279296538993
$GPGGA,040416.00,3359.2460,N,11927.0058,W,1,09,1.0,7.4,M,-33.6,M,,*54
$PYRTM,2024,127.169660703299,18.279308113437
$GPGGA,040417.00,3359.2461,N,11927.0085,W,1,09,1.0,10.2,M,-33.6,M,,*64
$PYRTM,2024,127.169672277442,18.279319687581
$GPGGA,040418.00,3359.2464,N,11927.0113,W,1,09,1.0,8.8,M,-33.6,M,,*53
$PYRTM,2024,127.169684893171,18.279332303310
$GPGGA,040419.00,3359.2469,N,11927.0143,W,1,09,1.0,10.3,M,-33.6,M,,*68
$PYRTM,2024,127.169696455336,18.279343865475
$GPGGA,040420.00,3359.2474,N,11927.0172,W,1,09,1.0,9.7,M,-33.6,M,,*50
$PYRTM,2024,127.169708041690,18.279355451840
$GPGGA,040421.00,3359.2476,N,11927.0200,W,1,09,1.0,10.9,M,-33.6,M,,*63
$PYRTM,2024,127.169719603426,18.279367013576
$GPGGA,040422.00,3359.2477,N,11927.0226,W,1,09,1.0,8.1,M,-33.6,M,,*54
$PYRTM,2024,127.169731190463,18.279378600602
$GPGGA,040423.00,3359.2480,N,11927.0254,W,1,09,1.0,7.0,M,-33.6,M,,*56
$PYRTM,2024,127.169742751574,18.279390161713
$GPGGA,040424.00,3359.2485,N,11927.0282,W,1,09,1.0,7.6,M,-33.6,M,,*59
$PYRTM,2024,127.169754341273,18.279401751412
$GPGGA,040425.00,3359.2489,N,11927.0309,W,1,09,1.0,9.3,M,-33.6,M,,*5D
$PYRTM,2024,127.169765899387,18.279413309525
$GPGGA,040426.00,3359.2492,N,11927.0334,W,1,09,1.0,9.1,M,-33.6,M,,*58
$PYRTM,2024,127.169777501204,18.279424911343
$GPGGA,040427.00,3359.2493,N,11927.0361,W,1,09,1.0,10.9,M,-33.6,M,,*68
$PYRTM,2024,127.169789047674,18.279436457812
$GPGGA,040428.00,3359.2494,N,11927.0391,W,1,09,1.0,9.6,M,-33.6,M,,*58
$PYRTM,2024,127.169800631910,18.279448042060
$GPGGA,040429.00,3359.2497,N,11927.0420,W,1,09,1.0,9.3,M,-33.6,M,,*52
$PYRTM,2024,127.169812196481,18.279459606620
$GPGGA,040430.00,3359.2503,N,11927.0446,W,1,09,1.0,10.9,M,-33.6,M,,*64
$PYRTM,2024,127.169823783785,18.279471193924
$GPGGA,040431.00,3359.2508,N,11927.0472,W,1,09,1.0,9.5,M,-33.6,M,,*5D
$PYRTM,2024,127.169835345301,18.279482755440
$GPGGA,040432.00,3359.2514,N,11927.0502,W,1,09,1.0,8.8,M,-33.6,M,,*59
$PYRTM,2024,127.169846931354,18.279494341493
$GPGGA,040433.00,3359.2517,N,11927.0532,W,1,09,1.0,8.0,M,-33.6,M,,*50
$PYRTM,2024,127.169858972442,18.279506382581
$GPGGA,040434.00,3359.2518,N,11927.0557,W,1,09,1.0,9.5,M,-33.6,M,,*5F
$PYRTM,2024,127.169870081319,18.279517491470
$GPGGA,040435.00,3359.2522,N,11927.0583,W,1,09,1.0,10.5,M,-33.6,M,,*66
$PYRTM,2024,127.169881641192,18.279529051331
$GPGGA,040436.00,3359.2528,N,11927.0612,W,1,09,1.0,9.8,M,-33.6,M,,*51
$PYRTM,2024,127.169893228056,18.279540638194
$GPGGA,040437.00,3359.2531,N,11927.0641,W,1,09,1.0,10.1,M,-33.6,M,,*6F
$PYRTM,2024,127.169904792037,18.279552202176
$GPGGA,040438.00,3359.2532,N,11927.0667,W,1,09,1.0,11.5,M,-33.6,M,,*62
$PYRTM,2024,127.169916377477,18.279563787616
$GPGGA,040439.00,3359.2533,N,11927.0695,W,1,09,1.0,10.4,M,-33.6,M,,*6F
$PYRTM,2024,127.169927936713,18.279575346852
$GPGGA,040440.00,3359.2536,N,11927.0725,W,1,09,1.0,7.3,M,-33.6,M,,*5F
$PYRTM,2024,127.169939528275,18.279586938426
$GPGGA,040441.00,3359.2540,N,11927.0754,W,1,09,1.0,7.4,M,-33.6,M,,*5E
$PYRTM,2024,127.169951086597,18.279598496748
$GPGGA,040442.00,3359.2543,N,11927.0782,W,1,09,1.0,8.6,M,-33.6,M,,*58
$PYRTM,2024,127.169962688762,18.279610098900
$GPGGA,040443.00,3359.2546,N,11927.0810,W,1,09,1.0,7.6,M,-33.6,M,,*57
$PYRTM,2024,127.169974237685,18.279621647824
$GPGGA,040444.00,3359.2550,N,11927.0838,W,1,09,1.0,7.6,M,-33.6,M,,*5D
$PYRTM,2024,127.169985824954,18.279633235104
$GPGGA,040445.00,3359.2554,N,11927.0867,W,1,09,1.0,8.7,M,-33.6,M,,*5C
$PYRTM,2024,127.169997383264,18.279644793403
$GPGGA,040446.00,3359.2558,N,11927.0896,W,1,09,1.0,10.0,M,-33.6,M,,*63
$PYRTM,2024,127.170008965868,18.279656376019
$GPGGA,040447.00,3359.2562,N,11927.0924,W,1,09,1.0,9.7,M,-33.6,M,,*5C
$PYRTM,2024,127.170020531250,18.279667941389
$GPGGA,040448.00,3359.2568,N,11927.0954,W,1,09,1.0,9.4,M,-33.6,M,,*5D
$PYRTM,2024,127.170033725938,18.279681136076
$GPGGA,040449.00,3359.2572,N,11927.0982,W,1,09,1.0,10.0,M,-33.6,M,,*60
$PYRTM,2024,127.170045892222,18.279693302361
$GPGGA,040450.00,3359.2575,N,11927.1009,W,1,10,0.8,10.1,M,-33.6,M,,*64
$PYRTM,2024,127.170055271100,18.279702681238
$GPGGA,040451.00,3359.2579,N,11927.1037,W,1,10,0.8,10.5,M,-33.6,M,,*60
$PYRTM,2024,127.170066828993,18.279714239144
$GPGGA,040452.00,3359.2583,N,11927.1066,W,1,09,1.0,7.9,M,-33.6,M,,*59
$PYRTM,2024,127.170078416065,18.279725826204
$GPGGA,040453.00,3359.2587,N,11927.1092,W,1,10,0.8,9.1,M,-33.6,M,,*50
$PYRTM,2024,127.170089978657,18.279737388796
$GPGGA,040454.00,3359.2589,N,11927.1118,W,1,10,0.8,12.9,M,-33.6,M,,*68
$PYRTM,2024,127.170101564491,18.279748974641
$GPGGA,040455.00,3359.2591,N,11927.1146,W,1,10,0.8,13.0,M,-33.6,M,,*63
$PYRTM,2024,127.170113126539,18.279760536678
$GPGGA,040456.00,3359.2594,N,11927.1174,W,1,10,0.8,10.6,M,-33.6,M,,*61
$PYRTM,2024,127.170124715718,18.279772125856
$GPGGA,040457.00,3359.2597,N,11927.1201,W,1,10,0.8,12.0,M,-33.6,M,,*66
$PYRTM,2024,127.170136273495,18.279783683634
$GPGGA,040458.00,3359.2600,N,11927.1228,W,1,09,1.0,12.2,M,-33.6,M,,*6C
$PYRTM,2024,127.170147874144,18.279795284282
$GPGGA,040459.00,3359.2603,N,11927.1257,W,1,10,0.8,9.0,M,-33.6,M,,*5F
$PYRTM,2024,127.170159421366,18.279806831505
$GPGGA,040500.00,3359.2606,N,11927.1285,W,1,10,0.8,10.2,M,-33.6,M,,*62
$PYRTM,2024,127.170171011539,18.279818421678
$GPGGA,040501.00,3359.2610,N,11927.1309,W,1,10,0.8,11.3,M,-33.6,M,,*61
$PYRTM,2024,127.170182570278,18.279829980417
$GPGGA,040502.00,3359.2615,N,11927.1337,W,1,10,0.8,10.4,M,-33.6,M,,*6C
$PYRTM,2024,127.170194157627,18.279841567766
$GPGGA,040503.00,3359.2618,N,11927.1368,W,1,10,0.8,8.2,M,-33.6,M,,*55
$PYRTM,2024,127.170206199352,18.279853609491
$GPGGA,040504.00,3359.2620,N,11927.1396,W,1,10,0.8,9.6,M,-33.6,M,,*5D
$PYRTM,2024,127.170217305845,18.279864715984
$GPGGA,040505.00,3359.2624,N,11927.1423,W,1,10,0.8,7.0,M,-33.6,M,,*59
$PYRTM,2024,127.170228867384,18.279876277523
$GPGGA,040506.00,3359.2629,N,11927.1453,W,1,10,0.8,8.3,M,-33.6,M,,*5C
$PYRTM,2024,127.170240455174,18.279887865312
$GPGGA,040507.00,3359.2634,N,11927.1483,W,1,10,0.8,8.3,M,-33.6,M,,*5C
$PYRTM,2024,127.170252014560,18.279899424699
$GPGGA,040508.00,3359.2637,N,11927.1512,W,1,10,0.8,10.7,M,-33.6,M,,*64
$PYRTM,2024,127.170263601586,18.279911011725
$GPGGA,040509.00,3359.2639,N,11927.1540,W,1,10,0.8,9.8,M,-33.6,M,,*5B
$PYRTM,2024,127.170275163171,18.279922573310
$GPGGA,040510.00,3359.2644,N,11927.1568,W,1,10,0.8,10.2,M,-33.6,M,,*61
$PYRTM,2024,127.170286750949,18.279934161088
$GPGGA,040511.00,3359.2648,N,11927.1593,W,1,10,0.8,11.4,M,-33.6,M,,*6F
$PYRTM,2024,127.170298310729,18.279945720868
$GPGGA,040512.00,3359.2652,N,11927.1620,W,1,10,0.8,11.3,M,-33.6,M,,*6B
$PYRTM,2024,127.170309912708,18.279957322847
$GPGGA,040513.00,3359.2655,N,11927.1649,W,1,10,0.8,9.4,M,-33.6,M,,*5C
$PYRTM,2024,127.170321460347,18.279968870486
$GPGGA,040514.00,3359.2656,N,11927.1677,W,1,10,0.8,11.8,M,-33.6,M,,*60
$PYRTM,2024,127.170333049792,18.279980459931
$GPGGA,040515.00,3359.2659,N,11927.1703,W,1,10,0.8,9.0,M,-33.6,M,,*5D
$PYRTM,2024,127.170344607245,18.279992017384
$GPGGA,040516.00,3359.2662,N,11927.1729,W,1,10,0.8,11.3,M,-33.6,M,,*64
$PYRTM,2024,127.170356209282,18.280003619421
$GPGGA,040517.00,3359.2666,N,11927.1757,W,1,10,0.8,9.3,M,-33.6,M,,*51
$PYRTM,2024,127.170367756366,18.280015166505
$GPGGA,040518.00,3359.2669,N,11927.1788,W,1,10,0.8,9.2,M,-33.6,M,,*52
$PYRTM,2024,127.170380488692,18.280027898831
$GPGGA,040519.00,3359.2672,N,11927.1815,W,1,10,0.8,8.7,M,-33.6,M,,*56
$PYRTM,2024,127.170393103657,18.280040513796
$GPGGA,040520.00,3359.2677,N,11927.1842,W,1,10,0.8,13.4,M,-33.6,M,,*62
$PYRTM,2024,127.170402492106,18.280049902245
$GPGGA,040521.00,3359.2684,N,11927.1870,W,1,10,0.8,13.5,M,-33.6,M,,*6F
$PYRTM,2024,127.170414053067,18.280061463206
$GPGGA,040522.00,3359.2689,N,11927.1901,W,1,10,0.8,12.4,M,-33.6,M,,*66
$PYRTM,2024,127.170425640208,18.280073050347
$GPGGA,040523.00,3359.2691,N,11927.1931,W,1,10,0.8,10.9,M,-33.6,M,,*62
$PYRTM,2024,127.170437200775,18.280084610926
$GPGGA,040524.00,3359.2693,N,11927.1957,W,1,10,0.8,9.9,M,-33.6,M,,*5F
$PYRTM,2024,127.170448790208,18.280096200347
$GPGGA,040525.00,3359.2698,N,11927.1984,W,1,10,0.8,11.7,M,-33.6,M,,*6C
$PYRTM,2024,127.170460349792,18.280107759931
$GPGGA,040526.00,3359.2703,N,11927.2015,W,1,10,0.8,11.8,M,-33.6,M,,*61
$PYRTM,2024,127.170471937824,18.280119347963
$GPGGA,040527.00,3359.2707,N,11927.2046,W,1,10,0.8,7.6,M,-33.6,M,,*5B
$PYRTM,2024,127.170483498368,18.280130908507
$GPGGA,040528.00,3359.2710,N,11927.2074,W,1,10,0.8,8.3,M,-33.6,M,,*59
$PYRTM,2024,127.170495088183,18.280142498333
$GPGGA,040529.00,3359.2713,N,11927.2102,W,1,10,0.8,9.6,M,-33.6,M,,*5F
$PYRTM,2024,127.170506647037,18.280154057176
$GPGGA,040530.00,3359.2715,N,11927.2132,W,1,10,0.8,8.6,M,-33.6,M,,*53
$PYRTM,2024,127.170518237002,18.280165647141
$GPGGA,040531.00,3359.2717,N,11927.2161,W,1,10,0.8,9.8,M,-33.6,M,,*59
$PYRTM,2024,127.170529795810,18.280177205949
$GPGGA,040532.00,3359.2722,N,11927.2188,W,1,10,0.8,7.8,M,-33.6,M,,*55
$PYRTM,2024,127.170541385417,18.280188795556
$GPGGA,040533.00,3359.2727,N,11927.2215,W,1,10,0.8,7.9,M,-33.6,M,,*57
$PYRTM,2024,127.170553419549,18.280200829687
$GPGGA,040534.00,3359.2730,N,11927.2243,W,1,10,0.8,9.8,M,-33.6,M,,*5A
$PYRTM,2024,127.170563604039,18.280211014178
$GPGGA,040535.00,3359.2732,N,11927.2272,W,1,10,0.8,9.1,M,-33.6,M,,*52
$PYRTM,2024,127.170576683310,18.280224093449
$GPGGA,040536.00,3359.2737,N,11927.2299,W,1,10,0.8,8.6,M,-33.6,M,,*57
$PYRTM,2024,127.170587317986,18.280234728125
$GPGGA,040537.00,3359.2743,N,11927.2327,W,1,09,1.0,9.4,M,-33.6,M,,*53
$PYRTM,2024,127.170598544294,18.280245954433
$GPGGA,040538.00,3359.2748,N,11927.2355,W,1,10,0.8,8.3,M,-33.6,M,,*55
$PYRTM,2024,127.170609655405,18.280257065544
$GPGGA,040539.00,3359.2751,N,11927.2383,W,1,10,0.8,10.8,M,-33.6,M,,*65
$PYRTM,2024,127.170621243484,18.280268653623
$GPGGA,040540.00,3359.2754,N,11927.2411,W,1,10,0.8,9.9,M,-33.6,M,,*5B
$PYRTM,2024,127.170632354803,18.280279764954
$GPGGA,040541.00,3359.2758,N,11927.2440,W,1,10,0.8,8.9,M,-33.6,M,,*53
$PYRTM,2024,127.170643466921,18.280290877060
$GPGGA,040542.00,3359.2763,N,11927.2470,W,1,10,0.8,9.3,M,-33.6,M,,*50
$PYRTM,2024,127.170654577674,18.280301987812
$GPGGA,040543.00,3359.2769,N,11927.2499,W,1,10,0.8,8.4,M,-33.6,M,,*5A
$PYRTM,2024,127.170665683715,18.280313093866
$GPGGA,040544.00,3359.2772,N,11927.2526,W,1,10,0.8,10.1,M,-33.6,M,,*6E
$PYRTM,2024,127.170676799988,18.280324210127
$GPGGA,040545.00,3359.2775,N,11927.2555,W,1,10,0.8,11.1,M,-33.6,M,,*6D
$PYRTM,2024,127.170687906782,18.280335316933
$GPGGA,040546.00,3359.2778,N,11927.2584,W,1,10,0.8,12.3,M,-33.6,M,,*6E
$PYRTM,2024,127.170699137789,18.280346547928
$GPGGA,040547.00,3359.2781,N,11927.2613,W,1,10,0.8,11.5,M,-33.6,M,,*61
$PYRTM,2024,127.170710249352,18.280357659491
$GPGGA,040548.00,3359.2784,N,11927.2641,W,1,10,0.8,11.8,M,-33.6,M,,*61
$PYRTM,2024,127.170721363125,18.280368773264
$GPGGA,040549.00,3359.2787,N,11927.2670,W,1,10,0.8,11.0,M,-33.6,M,,*69
$PYRTM,2024,127.170737100602,18.280384510741
$GPGGA,040550.00,3359.2790,N,11927.2699,W,1,10,0.8,10.3,M,-33.6,M,,*62
$PYRTM,2024,127.170748675359,18.280396085498
$GPGGA,040551.00,3359.2791,N,11927.2727,W,1,10,0.8,13.2,M,-33.6,M,,*64
$PYRTM,2024,127.170760250336,18.280407660475
$GPGGA,040552.00,3359.2793,N,11927.2754,W,1,10,0.8,15.1,M,-33.6,M,,*64
$PYRTM,2024,127.170771824664,18.280419234803
$GPGGA,040553.00,3359.2796,N,11927.2783,W,1,10,0.8,11.3,M,-33.6,M,,*6C
$PYRTM,2024,127.170783399097,18.280430809236
$GPGGA,040554.00,3359.2799,N,11927.2812,W,1,10,0.8,10.2,M,-33.6,M,,*63
$PYRTM,2024,127.170794971354,18.280442381493
$GPGGA,040555.00,3359.2801,N,11927.2839,W,1,10,0.8,11.0,M,-33.6,M,,*66
$PYRTM,2024,127.170806554178,18.280453964317
$GPGGA,040556.00,3359.2803,N,11927.2865,W,1,10,0.8,10.3,M,-33.6,M,,*6C
$PYRTM,2024,127.170818115220,18.280465525359
$GPGGA,040557.00,3359.2807,N,11927.2894,W,1,10,0.8,10.2,M,-33.6,M,,*66
$PYRTM,2024,127.170829694468,18.280477104606
$GPGGA,040558.00,3359.2811,N,11927.2923,W,1,10,0.8,8.1,M,-33.6,M,,*59
$PYRTM,2024,127.170841270648,18.280488680787
$GPGGA,040559.00,3359.2815,N,11927.2950,W,1,10,0.8,9.4,M,-33.6,M,,*5C
$PYRTM,2024,127.170852842963,18.280500253102
$GPGGA,040600.00,3359.2820,N,11927.2977,W,1,10,0.8,10.0,M,-33.6,M,,*6C
$PYRTM,2024,127.170864432442,18.280511842593
$GPGGA,040601.00,3359.2823,N,11927.3006,W,1,10,0.8,9.3,M,-33.6,M,,*5B
$PYRTM,2024,127.170875991400,18.280523401539
$GPGGA,040602.00,3359.2827,N,11927.3035,W,1,10,0.8,10.4,M,-33.6,M,,*63
$PYRTM,2024,127.170887568021,18.280534978160
$GPGGA,040603.00,3359.2832,N,11927.3061,W,1,10,0.8,11.9,M,-33.6,M,,*6B
$PYRTM,2024,127.170899603762,18.280547013900
$GPGGA,040604.00,3359.2836,N,11927.3088,W,1,10,0.8,13.5,M,-33.6,M,,*61
$PYRTM,2024,127.170910829375,18.280558239514
$GPGGA,040605.00,3359.2840,N,11927.3118,W,1,10,0.8,9.7,M,-33.6,M,,*50
$PYRTM,2024,127.170922282488,18.280569692627
$GPGGA,040606.00,3359.2843,N,11927.3148,W,1,10,0.8,10.7,M,-33.6,M,,*6D
$PYRTM,2024,127.170933863090,18.280581273229
$GPGGA,040607.00,3359.2846,N,11927.3174,W,1,10,0.8,9.3,M,-33.6,M,,*5A
$PYRTM,2024,127.170945441400,18.280592851551
$GPGGA,040608.00,3359.2851,N,11927.3202,W,1,10,0.8,10.9,M,-33.6,M,,*63
$PYRTM,2024,127.170957010382,18.280604420521
$GPGGA,040609.00,3359.2857,N,11927.3232,W,1,10,0.8,10.0,M,-33.6,M,,*6E
$PYRTM,2024,127.170968586308,18.280615996458
$GPGGA,040610.00,3359.2862,N,11927.3259,W,1,10,0.8,11.6,M,-33.6,M,,*6A
$PYRTM,2024,127.170980159282,18.280627569421
$GPGGA,040611.00,3359.2867,N,11927.3284,W,1,10,0.8,13.2,M,-33.6,M,,*68
$PYRTM,2024,127.170991727940,18.280639138079
$GPGGA,040612.00,3359.2871,N,11927.3313,W,1,10,0.8,13.4,M,-33.6,M,,*65
$PYRTM,2024,127.171003308322,18.280650718461
$GPGGA,040613.00,3359.2876,N,11927.3342,W,1,10,0.8,12.5,M,-33.6,M,,*67
$PYRTM,2024,127.171014876296,18.280662286435
$GPGGA,040614.00,3359.2880,N,11927.3370,W,1,10,0.8,11.5,M,-33.6,M,,*6B
$PYRTM,2024,127.171026457384,18.280673867523
$GPGGA,040615.00,3359.2884,N,11927.3397,W,1,10,0.8,11.9,M,-33.6,M,,*6B
$PYRTM,2024,127.171038030243,18.280685440382
$GPGGA,040616.00,3359.2888,N,11927.3424,W,1,10,0.8,13.1,M,-33.6,M,,*61
$PYRTM,2024,127.171049606991,18.280697017130
$GPGGA,040617.00,3359.2892,N,11927.3452,W,1,10,0.8,12.8,M,-33.6,M,,*62
$PYRTM,2024,127.171061178079,18.280708588218
$GPGGA,040618.00,3359.2896,N,11927.3482,W,1,10,0.8,10.8,M,-33.6,M,,*66
$PYRTM,2024,127.171073797766,18.280721207905
$GPGGA,040619.00,3359.2897,N,11927.3510,W,1,10,0.8,10.3,M,-33.6,M,,*67
$PYRTM,2024,127.171085354838,18.280732764977
$GPGGA,040620.00,3359.2899,N,11927.3537,W,1,10,0.8,9.6,M,-33.6,M,,*5B
$PYRTM,2024,127.171096945150,18.280744355289
$GPGGA,040621.00,3359.2902,N,11927.3565,W,1,10,0.8,9.2,M,-33.6,M,,*5A
$PYRTM,2024,127.171108504514,18.280755914653
$GPGGA,040622.00,3359.2906,N,11927.3593,W,1,10,0.8,11.3,M,-33.6,M,,*6C
$PYRTM,2024,127.171120090590,18.280767500729
$GPGGA,040623.00,3359.2909,N,11927.3620,W,1,10,0.8,13.8,M,-33.6,M,,*60
$PYRTM,2024,127.171131652928,18.280779063067
$GPGGA,040624.00,3359.2912,N,11927.3649,W,1,10,0.8,11.1,M,-33.6,M,,*69
$PYRTM,2024,127.171143238970,18.280790649109
$GPGGA,040625.00,3359.2914,N,11927.3678,W,1,10,0.8,9.1,M,-33.6,M,,*55
$PYRTM,2024,127.171154800000,18.280802210139
$GPGGA,040626.00,3359.2916,N,11927.3705,W,1,10,0.8,8.2,M,-33.6,M,,*5D
$PYRTM,2024,127.171166388762,18.280813798912
$GPGGA,040627.00,3359.2919,N,11927.3732,W,1,10,0.8,9.8,M,-33.6,M,,*5C
$PYRTM,2024,127.171177951065,18.280825361204
$GPGGA,040628.00,3359.2924,N,11927.3762,W,1,10,0.8,9.1,M,-33.6,M,,*51
$PYRTM,2024,127.171189989641,18.280837399780
$GPGGA,040629.00,3359.2929,N,11927.3790,W,1,10,0.8,9.3,M,-33.6,M,,*52
$PYRTM,2024,127.171201096169,18.280848506308
$GPGGA,040630.00,3359.2931,N,11927.3819,W,1,10,0.8,9.6,M,-33.6,M,,*58
$PYRTM,2024,127.171212681424,18.280860091562
$GPGGA,040631.00,3359.2933,N,11927.3848,W,1,10,0.8,7.3,M,-33.6,M,,*54
$PYRTM,2024,127.171224244097,18.280871654236
$GPGGA,040632.00,3359.2935,N,11927.3876,W,1,10,0.8,7.7,M,-33.6,M,,*58
$PYRTM,2024,127.171235846910,18.280883257049
$GPGGA,040633.00,3359.2941,N,11927.3902,W,1,10,0.8,8.3,M,-33.6,M,,*53
$PYRTM,2024,127.171247866250,18.280895276389
$GPGGA,040634.00,3359.2946,N,11927.3931,W,1,10,0.8,7.7,M,-33.6,M,,*58
$PYRTM,2024,127.171258984907,18.280906395046
$GPGGA,040635.00,3359.2948,N,11927.3960,W,1,10,0.8,8.6,M,-33.6,M,,*5D
$PYRTM,2024,127.171270542685,18.280917952824
$GPGGA,040636.00,3359.2948,N,11927.3987,W,1,10,0.8,10.0,M,-33.6,M,,*68
$PYRTM,2024,127.171282133912,18.280929544051
$GPGGA,040637.00,3359.2952,N,11927.4015,W,1,10,0.8,8.2,M,-33.6,M,,*5C
$PYRTM,2024,127.171293691412,18.280941101551
$GPGGA,040638.00,3359.2958,N,11927.4044,W,1,10,0.8,8.5,M,-33.6,M,,*5A
$PYRTM,2024,127.171305277315,18.280952687454
$GPGGA,040639.00,3359.2963,N,11927.4073,W,1,10,0.8,9.9,M,-33.6,M,,*5A
$PYRTM,2024,127.171316838738,18.280964248877
$GPGGA,040640.00,3359.2968,N,11927.4099,W,1,10,0.8,9.9,M,-33.6,M,,*5B
$PYRTM,2024,127.171328426273,18.280975836412
$GPGGA,040641.00,3359.2972,N,11927.4126,W,1,10,0.8,9.0,M,-33.6,M,,*5D
$PYRTM,2024,127.171339986979,18.280987397118
$GPGGA,040642.00,3359.2976,N,11927.4153,W,1,10,0.8,7.1,M,-33.6,M,,*57
$PYRTM,2024,127.171351569456,18.280998979595
$GPGGA,040643.00,3359.2979,N,11927.4183,W,1,10,0.8,5.6,M,-33.6,M,,*51
$PYRTM,2024,127.171363136713,18.281010546863
$GPGGA,040644.00,3359.2984,N,11927.4209,W,1,10,0.8,5.7,M,-33.6,M,,*54
$PYRTM,2024,127.171374725255,18.281022135394
$GPGGA,040645.00,3359.2992,N,11927.4232,W,1,10,0.8,7.4,M,-33.6,M,,*5B
$PYRTM,2024,127.171386284363,18.281033694502
$GPGGA,040646.00,3359.3000,N,11927.4259,W,1,10,0.8,9.0,M,-33.6,M,,*5C
$PYRTM,2024,127.171397871238,18.281045281377
$GPGGA,040647.00,3359.3004,N,11927.4292,W,1,10,0.8,8.3,M,-33.6,M,,*5C
$PYRTM,2024,127.171409432523,18.281056842662
$GPGGA,040648.00,3359.3004,N,11927.4321,W,1,10,0.8,6.5,M,-33.6,M,,*52
$PYRTM,2024,127.171422164595,18.281069574734
$GPGGA,040649.00,3359.3004,N,11927.4345,W,1,10,0.8,7.9,M,-33.6,M,,*5C
$PYRTM,2024,127.171434780752,18.281082190891
$GPGGA,040650.00,3359.3008,N,11927.4372,W,1,10,0.8,9.1,M,-33.6,M,,*5A
$PYRTM,2024,127.171444181921,18.281091592060
$GPGGA,040651.00,3359.3013,N,11927.4403,W,1,10,0.8,11.9,M,-33.6,M,,*61
$PYRTM,2024,127.171455727616,18.281103137755
$GPGGA,040652.00,3359.3016,N,11927.4433,W,1,10,0.8,12.5,M,-33.6,M,,*6B
$PYRTM,2024,127.171467318611,18.281114728750
$GPGGA,040653.00,3359.3016,N,11927.4460,W,1,10,0.8,11.1,M,-33.6,M,,*6B
$PYRTM,2024,127.171478876400,18.281126286539
$GPGGA,040654.00,3359.3017,N,11927.4486,W,1,10,0.8,10.2,M,-33.6,M,,*67
$PYRTM,2024,127.171490463287,18.281137873426
$GPGGA,040655.00,3359.3023,N,11927.4513,W,1,10,0.8,9.9,M,-33.6,M,,*5F
$PYRTM,2024,127.171502029826,18.281149439965
$GPGGA,040656.00,3359.3032,N,11927.4542,W,1,10,0.8,9.8,M,-33.6,M,,*59
$PYRTM,2024,127.171513613125,18.281161023275
$GPGGA,040657.00,3359.3038,N,11927.4572,W,1,10,0.8,10.6,M,-33.6,M,,*67
$PYRTM,2024,127.171525175521,18.281172585660
$GPGGA,040658.00,3359.3040,N,11927.4599,W,1,10,0.8,9.7,M,-33.6,M,,*5B
$PYRTM,2024,127.171536755544,18.281184165683
$GPGGA,040659.00,3359.3041,N,11927.4623,W,1,10,0.8,9.4,M,-33.6,M,,*5A
$PYRTM,2024,127.171548321944,18.281195732083
$GPGGA,040700.00,3359.3044,N,11927.4650,W,1,10,0.8,8.6,M,-33.6,M,,*55
$PYRTM,2024,127.171559910451,18.281207320590
$GPGGA,040701.00,3359.3049,N,11927.4679,W,1,10,0.8,11.0,M,-33.6,M,,*6C
$PYRTM,2024,127.171571471123,18.281218881262
$GPGGA,040702.00,3359.3053,N,11927.4706,W,1,10,0.8,8.6,M,-33.6,M,,*53
$PYRTM,2024,127.171583057894,18.281230468032
$GPGGA,040703.00,3359.3055,N,11927.4730,W,1,10,0.8,8.0,M,-33.6,M,,*57
$PYRTM,2024,127.171595095197,18.281242505336
$GPGGA,040704.00,3359.3057,N,11927.4756,W,1,10,0.8,8.6,M,-33.6,M,,*54
$PYRTM,2024,127.171606210220,18.281253620359
$GPGGA,040705.00,3359.3061,N,11927.4785,W,1,10,0.8,7.8,M,-33.6,M,,*5F
$PYRTM,2024,127.171617768391,18.281265178530
$GPGGA,040706.00,3359.3064,N,11927.4815,W,1,10,0.8,8.6,M,-33.6,M,,*5E
$PYRTM,2024,127.171629368391,18.281276778530
$GPGGA,040707.00,3359.3067,N,11927.4842,W,1,10,0.8,8.3,M,-33.6,M,,*5B
$PYRTM,2024,127.171640917812,18.281288327951
$GPGGA,040708.00,3359.3070,N,11927.4866,W,1,10,0.8,7.0,M,-33.6,M,,*58
$PYRTM,2024,127.171652507407,18.281299917546
$GPGGA,040709.00,3359.3073,N,11927.4893,W,1,10,0.8,8.0,M,-33.6,M,,*5F
$PYRTM,2024,127.171664065312,18.281311475463
$GPGGA,040710.00,3359.3078,N,11927.4922,W,1,10,0.8,6.8,M,-33.6,M,,*51
$PYRTM,2024,127.171675646319,18.281323056458
$GPGGA,040711.00,3359.3082,N,11927.4950,W,1,10,0.8,6.3,M,-33.6,M,,*5B
$PYRTM,2024,127.171687213646,18.281334623785
$GPGGA,040712.00,3359.3085,N,11927.4977,W,1,10,0.8,8.9,M,-33.6,M,,*5E
$PYRTM,2024,127.171698799444,18.281346209583
$GPGGA,040713.00,3359.3088,N,11927.5006,W,1,10,0.8,7.0,M,-33.6,M,,*5A
$PYRTM,2024,127.171710360937,18.281357771076
$GPGGA,040714.00,3359.3091,N,11927.5035,W,1,10,0.8,6.8,M,-33.6,M,,*5C
$PYRTM,2024,127.171721943102,18.281369353252
$GPGGA,040715.00,3359.3095,N,11927.5062,W,1,10,0.8,10.0,M,-33.6,M,,*64
$PYRTM,2024,127.171733509028,18.281380919178
$GPGGA,040716.00,3359.3102,N,11927.5089,W,1,10,0.8,10.8,M,-33.6,M,,*65
$PYRTM,2024,127.171745091065,18.281392501204
$GPGGA,040717.00,3359.3109,N,11927.5118,W,1,10,0.8,9.0,M,-33.6,M,,*56
$PYRTM,2024,127.171756657164,18.281404067303
$GPGGA,040718.00,3359.3114,N,11927.5146,W,1,10,0.8,8.7,M,-33.6,M,,*58
$PYRTM,2024,127.171769737407,18.281417147546
$GPGGA,040719.00,3359.3118,N,11927.5174,W,1,10,0.8,8.8,M,-33.6,M,,*5B
$PYRTM,2024,127.171782006481,18.281429416620
$GPGGA,040720.00,3359.3122,N,11927.5201,W,1,10,0.8,7.9,M,-33.6,M,,*57
$PYRTM,2024,127.171791406655,18.281438816794
$GPGGA,040721.00,3359.3126,N,11927.5228,W,1,10,0.8,7.0,M,-33.6,M,,*50
$PYRTM,2024,127.171802954560,18.281450364699
$GPGGA,040722.00,3359.3132,N,11927.5257,W,1,10,0.8,9.0,M,-33.6,M,,*50
$PYRTM,2024,127.171814544109,18.281461954248
$GPGGA,040723.00,3359.3134,N,11927.5287,W,1,10,0.8,9.3,M,-33.6,M,,*59
$PYRTM,2024,127.171826103021,18.281473513160
$GPGGA,040724.00,3359.3136,N,11927.5316,W,1,10,0.8,9.8,M,-33.6,M,,*5E
$PYRTM,2024,127.171837692407,18.281485102546
$GPGGA,040725.00,3359.3138,N,11927.5344,W,1,10,0.8,9.8,M,-33.6,M,,*56
$PYRTM,2024,127.171849251157,18.281496661296
$GPGGA,040726.00,3359.3143,N,11927.5373,W,1,10,0.8,9.3,M,-33.6,M,,*56
$PYRTM,2024,127.171860838275,18.281508248414
$GPGGA,040727.00,3359.3146,N,11927.5402,W,1,10,0.8,9.1,M,-33.6,M,,*51
$PYRTM,2024,127.171872401806,18.281519811944
$GPGGA,040728.00,3359.3148,N,11927.5430,W,1,10,0.8,8.3,M,-33.6,M,,*52
$PYRTM,2024,127.171883982928,18.281531393067
$GPGGA,040729.00,3359.3152,N,11927.5456,W,1,10,0.8,7.8,M,-33.6,M,,*5C
$PYRTM,2024,127.171895548449,18.281542958600
$GPGGA,040730.00,3359.3157,N,11927.5484,W,1,10,0.8,10.8,M,-33.6,M,,*68
$PYRTM,2024,127.171907134502,18.281554544641
$GPGGA,040731.00,3359.3162,N,11927.5513,W,1,10,0.8,8.3,M,-33.6,M,,*52
$PYRTM,2024,127.171918696597,18.281566106736
$GPGGA,040732.00,3359.3165,N,11927.5542,W,1,10,0.8,6.2,M,-33.6,M,,*5D
$PYRTM,2024,127.171930277373,18.281577687512
$GPGGA,040733.00,3359.3168,N,11927.5568,W,1,10,0.8,7.3,M,-33.6,M,,*59
$PYRTM,2024,127.171942320220,18.281589730359
$GPGGA,040734.00,3359.3171,N,11927.5594,W,1,10,0.8,7.8,M,-33.6,M,,*5E
$PYRTM,2024,127.171953434873,18.281600845012
$GPGGA,040735.00,3359.3177,N,11927.5622,W,1,10,0.8,7.9,M,-33.6,M,,*56
$PYRTM,2024,127.171964993264,18.281612403414
$GPGGA,040736.00,3359.3183,N,11927.5650,W,1,10,0.8,6.4,M,-33.6,M,,*57
$PYRTM,2024,127.171976593773,18.281624003912
$GPGGA,040737.00,3359.3185,N,11927.5678,W,1,10,0.8,7.7,M,-33.6,M,,*58
$PYRTM,2024,127.171988140764,18.281635550903
$GPGGA,040738.00,3359.3186,N,11927.5705,W,1,10,0.8,7.8,M,-33.6,M,,*50
$PYRTM,2024,127.171999731528,18.281647141678
$GPGGA,040739.00,3359.3189,N,11927.5731,W,1,10,0.8,10.0,M,-33.6,M,,*67
$PYRTM,2024,127.172010364456,18.281657774595
$GPGGA,040740.00,3359.3194,N,11927.5758,W,1,10,0.8,9.8,M,-33.6,M,,*5A
$PYRTM,2024,127.172023441493,18.281670851632
$GPGGA,040741.00,3359.3200,N,11927.5789,W,1,10,0.8,9.8,M,-33.6,M,,*59
$PYRTM,2024,127.172032252396,18.281679662535
$GPGGA,040742.00,3359.3202,N,11927.5820,W,1,10,0.8,10.8,M,-33.6,M,,*6C
$PYRTM,2024,127.172048933542,18.281696343681
$GPGGA,040743.00,3359.3202,N,11927.5848,W,1,10,0.8,9.2,M,-33.6,M,,*51
$PYRTM,2024,127.172060016725,18.281707426863
$GPGGA,040744.00,3359.3205,N,11927.5875,W,1,10,0.8,11.8,M,-33.6,M,,*6C
$PYRTM,2024,127.172071135613,18.281718545752
$GPGGA,040745.00,3359.3212,N,11927.5904,W,1,10,0.8,9.7,M,-33.6,M,,*5A
$PYRTM,2024,127.172082251863,18.281729662002
$GPGGA,040746.00,3359.3217,N,11927.5933,W,1,10,0.8,9.6,M,-33.6,M,,*59
$PYRTM,2024,127.172093350799,18.281740760949
$GPGGA,040747.00,3359.3219,N,11927.5961,W,1,10,0.8,11.1,M,-33.6,M,,*6F
$PYRTM,2024,127.172104479583,18.281751889722
$GPGGA,040748.00,3359.3219,N,11927.5990,W,1,10,0.8,8.8,M,-33.6,M,,*5F
$PYRTM,2024,127.172116730567,18.281764140706
$GPGGA,040749.00,3359.3221,N,11927.6019,W,1,10,0.8,9.2,M,-33.6,M,,*55
$PYRTM,2024,127.172126580995,18.281773991134
$GPGGA,040750.00,3359.3226,N,11927.6050,W,1,10,0.8,9.8,M,-33.6,M,,*5D
$PYRTM,2024,127.172141034560,18.281788444699
$GPGGA,040751.00,3359.3232,N,11927.6079,W,1,10,0.8,12.2,M,-33.6,M,,*62
$PYRTM,2024,127.172152149236,18.281799559375
$GPGGA,040752.00,3359.3237,N,11927.6107,W,1,10,0.8,12.7,M,-33.6,M,,*69
$PYRTM,2024,127.172163372303,18.281810782442
$GPGGA,040753.00,3359.3238,N,11927.6134,W,1,10,0.8,13.8,M,-33.6,M,,*69
$PYRTM,2024,127.172174484248,18.281821894387
$GPGGA,040754.00,3359.3239,N,11927.6165,W,1,10,0.8,10.8,M,-33.6,M,,*68
$PYRTM,2024,127.172185596053,18.281833006192
$GPGGA,040755.00,3359.3243,N,11927.6193,W,1,10,0.8,9.0,M,-33.6,M,,*5D
$PYRTM,2024,127.172196707130,18.281844117269
$GPGGA,040756.00,3359.3249,N,11927.6219,W,1,10,0.8,10.7,M,-33.6,M,,*6A
$PYRTM,2024,127.172207818032,18.281855228171
$GPGGA,040757.00,3359.3257,N,11927.6245,W,1,10,0.8,11.8,M,-33.6,M,,*63
$PYRTM,2024,127.172219061296,18.281866471447
$GPGGA,040758.00,3359.3262,N,11927.6273,W,1,10,0.8,14.8,M,-33.6,M,,*6A
$PYRTM,2024,127.172230285243,18.281877695382
$GPGGA,040759.00,3359.3266,N,11927.6301,W,1,10,0.8,12.3,M,-33.6,M,,*66
$PYRTM,2024,127.172241743588,18.281889153727
$GPGGA,040800.00,3359.3269,N,11927.6328,W,1,10,0.8,10.7,M,-33.6,M,,*67
$PYRTM,2024,127.172253319780,18.281900729919
$GPGGA,040801.00,3359.3275,N,11927.6354,W,1,10,0.8,10.1,M,-33.6,M,,*66
$PYRTM,2024,127.172264892917,18.281912303056
$GPGGA,040802.00,3359.3282,N,11927.6383,W,1,10,0.8,10.1,M,-33.6,M,,*67
$PYRTM,2024,127.172276466377,18.281923876528
$GPGGA,040803.00,3359.3288,N,11927.6412,W,1,10,0.8,8.3,M,-33.6,M,,*58
$PYRTM,2024,127.172288373484,18.281935783623
$GPGGA,040804.00,3359.3290,N,11927.6439,W,1,10,0.8,10.0,M,-33.6,M,,*65
$PYRTM,2024,127.172299726192,18.281947136331
$GPGGA,040805.00,3359.3291,N,11927.6466,W,1,10,0.8,9.9,M,-33.6,M,,*5E
$PYRTM,2024,127.172311189826,18.281958599977
$GPGGA,040806.00,3359.3295,N,11927.6494,W,1,10,0.8,7.7,M,-33.6,M,,*54
$PYRTM,2024,127.172322759039,18.281970169178
$GPGGA,040807.00,3359.3300,N,11927.6523,W,1,10,0.8,9.7,M,-33.6,M,,*5B
$PYRTM,2024,127.172334337350,18.281981747488
$GPGGA,040808.00,3359.3304,N,11927.6552,W,1,10,0.8,10.3,M,-33.6,M,,*6A
$PYRTM,2024,127.172346259225,18.281993669363
$GPGGA,040809.00,3359.3308,N,11927.6580,W,1,10,0.8,11.5,M,-33.6,M,,*6F
$PYRTM,2024,127.172357589734,18.282004999873
$GPGGA,040810.00,3359.3309,N,11927.6609,W,1,10,0.8,9.8,M,-33.6,M,,*50
$PYRTM,2024,127.172369063229,18.282016473368
$GPGGA,040811.00,3359.3310,N,11927.6638,W,1,10,0.8,9.7,M,-33.6,M,,*54
$PYRTM,2024,127.172380633773,18.282028043912
$GPGGA,040812.00,3359.3314,N,11927.6669,W,1,10,0.8,9.9,M,-33.6,M,,*59
$PYRTM,2024,127.172392211782,18.282039621921
$GPGGA,040813.00,3359.3319,N,11927.6697,W,1,10,0.8,11.5,M,-33.6,M,,*61
$PYRTM,2024,127.172403782442,18.282051192581
$GPGGA,040814.00,3359.3324,N,11927.6723,W,1,10,0.8,13.0,M,-33.6,M,,*61
$PYRTM,2024,127.172415358056,18.282062768194
$GPGGA,040815.00,3359.3327,N,11927.6751,W,1,10,0.8,12.9,M,-33.6,M,,*6E
$PYRTM,2024,127.172426930370,18.282074340509
$GPGGA,040816.00,3359.3330,N,11927.6780,W,1,10,0.8,12.1,M,-33.6,M,,*6F
$PYRTM,2024,127.172438505243,18.282085915382
$GPGGA,040817.00,3359.3332,N,11927.6807,W,1,10,0.8,7.8,M,-33.6,M,,*51
$PYRTM,2024,127.172450075694,18.282097485845
$GPGGA,040818.00,3359.3337,N,11927.6834,W,1,10,0.8,9.2,M,-33.6,M,,*5F
$PYRTM,2024,127.172462694965,18.282110105116
$GPGGA,040819.00,3359.3343,N,11927.6860,W,1,10,0.8,10.4,M,-33.6,M,,*62
$PYRTM,2024,127.172474257199,18.282121667338
$GPGGA,040820.00,3359.3348,N,11927.6887,W,1,10,0.8,12.4,M,-33.6,M,,*68
$PYRTM,2024,127.172485842836,18.282133252986
$GPGGA,040821.00,3359.3349,N,11927.6916,W,1,10,0.8,12.4,M,-33.6,M,,*61
$PYRTM,2024,127.172497405498,18.282144815637
$GPGGA,040822.00,3359.3351,N,11927.6945,W,1,10,0.8,9.5,M,-33.6,M,,*56
$PYRTM,2024,127.172508992025,18.282156402176
$GPGGA,040823.00,3359.3355,N,11927.6974,W,1,10,0.8,8.4,M,-33.6,M,,*51
$PYRTM,2024,127.172520552488,18.282167962639
$GPGGA,040824.00,3359.3360,N,11927.7001,W,1,10,0.8,10.9,M,-33.6,M,,*6E
$PYRTM,2024,127.172532143692,18.282179553831
$GPGGA,040825.00,3359.3365,N,11927.7028,W,1,10,0.8,10.1,M,-33.6,M,,*69
$PYRTM,2024,127.172543700880,18.282191111019
$GPGGA,040826.00,3359.3370,N,11927.7058,W,1,10,0.8,13.0,M,-33.6,M,,*6B
$PYRTM,2024,127.172555291794,18.282202701944
$GPGGA,040827.00,3359.3373,N,11927.7088,W,1,10,0.8,12.0,M,-33.6,M,,*65
$PYRTM,2024,127.172566849664,18.282214259803
$GPGGA,040828.00,3359.3377,N,11927.7114,W,1,10,0.8,12.0,M,-33.6,M,,*6A
$PYRTM,2024,127.172578440694,18.282225850833
$GPGGA,040829.00,3359.3382,N,11927.7141,W,1,10,0.8,10.5,M,-33.6,M,,*66
$PYRTM,2024,127.172589997882,18.282237408021
$GPGGA,040830.00,3359.3387,N,11927.7170,W,1,10,0.8,11.2,M,-33.6,M,,*6F
$PYRTM,2024,127.172601586019,18.282248996157
$GPGGA,040831.00,3359.3391,N,11927.7199,W,1,10,0.8,10.0,M,-33.6,M,,*6D
$PYRTM,2024,127.172613145903,18.282260556042
$GPGGA,040832.00,3359.3394,N,11927.7227,W,1,10,0.8,10.6,M,-33.6,M,,*6B
$PYRTM,2024,127.172624733738,18.282272143889
$GPGGA,040833.00,3359.3398,N,11927.7253,W,1,10,0.8,9.8,M,-33.6,M,,*53
$PYRTM,2024,127.172636774398,18.282284184537
$GPGGA,040834.00,3359.3404,N,11927.7278,W,1,10,0.8,9.3,M,-33.6,M,,*54
$PYRTM,2024,127.172647883912,18.282295294063
$GPGGA,040835.00,3359.3411,N,11927.7305,W,1,10,0.8,9.0,M,-33.6,M,,*59
$PYRTM,2024,127.172659443519,18.282306853657
$GPGGA,040836.00,3359.3415,N,11927.7335,W,1,10,0.8,9.8,M,-33.6,M,,*55
$PYRTM,2024,127.172671030197,18.282318440336
$GPGGA,040837.00,3359.3418,N,11927.7363,W,1,10,0.8,7.3,M,-33.6,M,,*5F
