$PYRTM,2024,126.916675483137,18.026322893275
$GPGGA,215959.00,3357.6328,N,11928.3769,W,1,10,0.8,4.3,M,-33.7,M,,*5C
$PYRTM,2024,126.916687041273,18.026334451412
$GPGGA,220000.00,3357.6333,N,11928.3740,W,1,10,0.8,4.5,M,-33.7,M,,*58
$PYRTM,2024,126.916698630069,18.026346040208
$GPGGA,220001.00,3357.6338,N,11928.3711,W,1,10,0.8,2.8,M,-33.7,M,,*5D
$PYRTM,2024,126.916710189826,18.026357599965
$GPGGA,220002.00,3357.6342,N,11928.3682,W,1,10,0.8,3.1,M,-33.7,M,,*50
$PYRTM,2024,126.916721779074,18.026369189213
$GPGGA,220003.00,3357.6348,N,11928.3653,W,1,10,0.8,3.0,M,-33.7,M,,*56
$PYRTM,2024,126.916733339074,18.026380749213
$GPGGA,220004.00,3357.6353,N,11928.3623,W,1,10,0.8,2.4,M,-33.7,M,,*59
$PYRTM,2024,126.916744926910,18.026392337049
$GPGGA,220005.00,3357.6357,N,11928.3594,W,1,10,0.8,-1.1,M,-33.7,M,,*78
$PYRTM,2024,126.916756487384,18.026403897523
$GPGGA,220006.00,3357.6361,N,11928.3566,W,1,10,0.8,0.5,M,-33.7,M,,*5B
$PYRTM,2024,126.916768076586,18.026415486725
$GPGGA,220007.00,3357.6365,N,11928.3539,W,1,10,0.8,-1.6,M,-33.7,M,,*7B
$PYRTM,2024,126.916779635532,18.026427045671
$GPGGA,220008.00,3357.6369,N,11928.3512,W,1,10,0.8,-1.7,M,-33.7,M,,*70
$PYRTM,2024,126.916791224051,18.026438634190
$GPGGA,220009.00,3357.6373,N,11928.3485,W,1,10,0.8,0.7,M,-33.7,M,,*59
$PYRTM,2024,126.916803955313,18.026451365451
$GPGGA,220010.00,3357.6378,N,11928.3458,W,1,10,0.8,1.5,M,-33.7,M,,*59
$PYRTM,2024,126.916816559583,18.026463969734
$GPGGA,220011.00,3357.6382,N,11928.3429,W,1,10,0.8,1.0,M,-33.7,M,,*5E
$PYRTM,2024,126.916825932535,18.026473342674
$GPGGA,220012.00,3357.6387,N,11928.3401,W,1,10,0.8,2.9,M,-33.7,M,,*58
$PYRTM,2024,126.916837514931,18.026484925069
$GPGGA,220013.00,3357.6391,N,11928.3372,W,1,10,0.8,4.6,M,-33.7,M,,*54
$PYRTM,2024,126.916849078785,18.026496488924
$GPGGA,220014.00,3357.6396,N,11928.3342,W,1,10,0.8,2.6,M,-33.7,M,,*51
$PYRTM,2024,126.916860670243,18.026508080382
$GPGGA,220015.00,3357.6400,N,11928.3313,W,1,10,0.8,2.8,M,-33.7,M,,*52
$PYRTM,2024,126.916872229167,18.026519639306
$GPGGA,220016.00,3357.6404,N,11928.3285,W,1,10,0.8,1.2,M,-33.7,M,,*52
$PYRTM,2024,126.916883816782,18.026531226921
$GPGGA,220017.00,3357.6407,N,11928.3256,W,1,10,0.8,1.3,M,-33.7,M,,*5F
$PYRTM,2024,126.916895376840,18.026542786979
$GPGGA,220018.00,3357.6409,N,11928.3228,W,1,10,0.8,0.8,M,-33.7,M,,*5D
$PYRTM,2024,126.916906965567,18.026554375706
$GPGGA,220019.00,3357.6413,N,11928.3199,W,1,10,0.8,-1.8,M,-33.7,M,,*72
$PYRTM,2024,126.916919002523,18.026566412662
$GPGGA,220020.00,3357.6418,N,11928.3172,W,1,10,0.8,-0.4,M,-33.7,M,,*7B
$PYRTM,2024,126.916930113831,18.026577523970
$GPGGA,220021.00,3357.6422,N,11928.3144,W,1,10,0.8,1.5,M,-33.7,M,,*5B
$PYRTM,2024,126.916941673900,18.026589084039
$GPGGA,220022.00,3357.6425,N,11928.3117,W,1,10,0.8,2.0,M,-33.7,M,,*5F
$PYRTM,2024,126.916953256644,18.026600666794
$GPGGA,220023.00,3357.6429,N,11928.3089,W,1,10,0.8,0.5,M,-33.7,M,,*53
$PYRTM,2024,126.916964822697,18.026612232836
$GPGGA,220024.00,3357.6433,N,11928.3062,W,1,10,0.8,0.7,M,-33.7,M,,*58
$PYRTM,2024,126.916976411007,18.026623821157
$GPGGA,220025.00,3357.6439,N,11928.3034,W,1,10,0.8,-2.2,M,-33.7,M,,*7A
$PYRTM,2024,126.916987970880,18.026635381019
$GPGGA,220026.00,3357.6445,N,11928.3005,W,1,10,0.8,-2.5,M,-33.7,M,,*77
$PYRTM,2024,126.916999559248,18.026646969398
$GPGGA,220027.00,3357.6448,N,11928.2977,W,1,10,0.8,-1.2,M,-33.7,M,,*72
$PYRTM,2024,126.917011117477,18.026658527616
$GPGGA,220028.00,3357.6451,N,11928.2948,W,1,10,0.8,-3.0,M,-33.7,M,,*79
$PYRTM,2024,126.917022707280,18.026670117419
$GPGGA,220029.00,3357.6454,N,11928.2920,W,1,10,0.8,-0.3,M,-33.7,M,,*73
$PYRTM,2024,126.917034738970,18.026682149109
$GPGGA,220030.00,3357.6459,N,11928.2891,W,1,10,0.8,0.6,M,-33.7,M,,*55
$PYRTM,2024,126.917045857118,18.026693267269
$GPGGA,220031.00,3357.6463,N,11928.2863,W,1,10,0.8,0.2,M,-33.7,M,,*54
$PYRTM,2024,126.917057416377,18.026704826516
$GPGGA,220032.00,3357.6468,N,11928.2834,W,1,10,0.8,-1.2,M,-33.7,M,,*72
$PYRTM,2024,126.917069004792,18.026716414931
$GPGGA,220033.00,3357.6472,N,11928.2806,W,1,10,0.8,1.1,M,-33.7,M,,*57
$PYRTM,2024,126.917080563935,18.026727974074
$GPGGA,220034.00,3357.6475,N,11928.2777,W,1,10,0.8,1.8,M,-33.7,M,,*57
$PYRTM,2024,126.917092150347,18.026739560486
$GPGGA,220035.00,3357.6479,N,11928.2748,W,1,10,0.8,2.7,M,-33.7,M,,*5A
$PYRTM,2024,126.917103712431,18.026751122581
$GPGGA,220036.00,3357.6484,N,11928.2720,W,1,10,0.8,-2.3,M,-33.7,M,,*7C
$PYRTM,2024,126.917115299618,18.026762709757
$GPGGA,220037.00,3357.6488,N,11928.2692,W,1,10,0.8,-2.3,M,-33.7,M,,*79
$PYRTM,2024,126.917126859109,18.026774269248
$GPGGA,220038.00,3357.6492,N,11928.2665,W,1,10,0.8,-2.7,M,-33.7,M,,*71
$PYRTM,2024,126.917138443183,18.026785853322
$GPGGA,220039.00,3357.6496,N,11928.2637,W,1,10,0.8,-3.8,M,-33.7,M,,*7D
$PYRTM,2024,126.917151167998,18.026798578137
$GPGGA,220040.00,3357.6499,N,11928.2609,W,1,10,0.8,-5.3,M,-33.7,M,,*7C
$PYRTM,2024,126.917163782685,18.026811192824
$GPGGA,220041.00,3357.6502,N,11928.2582,W,1,10,0.8,-6.1,M,-33.7,M,,*7F
$PYRTM,2024,126.917173156574,18.026820566725
$GPGGA,220042.00,3357.6506,N,11928.2555,W,1,10,0.8,-6.3,M,-33.7,M,,*70
$PYRTM,2024,126.917184745914,18.026832156053
$GPGGA,220043.00,3357.6510,N,11928.2528,W,1,10,0.8,-4.9,M,-33.7,M,,*74
$PYRTM,2024,126.917196304144,18.026843714282
$GPGGA,220044.00,3357.6514,N,11928.2501,W,1,10,0.8,-1.7,M,-33.7,M,,*77
$PYRTM,2024,126.917207893345,18.026855303484
$GPGGA,220045.00,3357.6518,N,11928.2473,W,1,10,0.8,-1.3,M,-33.7,M,,*7A
$PYRTM,2024,126.917219453403,18.026866863553
$GPGGA,220046.00,3357.6523,N,11928.2445,W,1,10,0.8,-5.3,M,-33.7,M,,*70
$PYRTM,2024,126.917231042407,18.026878452546
$GPGGA,220047.00,3357.6528,N,11928.2417,W,1,10,0.8,-4.9,M,-33.7,M,,*76
$PYRTM,2024,126.917242604144,18.026890014294
$GPGGA,220048.00,3357.6533,N,11928.2389,W,1,10,0.8,-5.7,M,-33.7,M,,*7C
$PYRTM,2024,126.917254186296,18.026901596435
$GPGGA,220049.00,3357.6537,N,11928.2361,W,1,10,0.8,-5.3,M,-33.7,M,,*7B
$PYRTM,2024,126.917266226655,18.026913636794
$GPGGA,220050.00,3357.6541,N,11928.2333,W,1,10,0.8,-3.3,M,-33.7,M,,*73
$PYRTM,2024,126.917277333576,18.026924743715
$GPGGA,220051.00,3357.6545,N,11928.2305,W,1,10,0.8,-2.7,M,-33.7,M,,*76
$PYRTM,2024,126.917288899838,18.026936309988
$GPGGA,220052.00,3357.6550,N,11928.2278,W,1,10,0.8,-1.7,M,-33.7,M,,*79
$PYRTM,2024,126.917300485521,18.026947895660
$GPGGA,220053.00,3357.6555,N,11928.2250,W,1,10,0.8,-2.5,M,-33.7,M,,*76
$PYRTM,2024,126.917312046262,18.026959456400
$GPGGA,220054.00,3357.6559,N,11928.2222,W,1,10,0.8,-0.1,M,-33.7,M,,*7E
$PYRTM,2024,126.917323633437,18.026971043576
$GPGGA,220055.00,3357.6562,N,11928.2193,W,1,10,0.8,2.3,M,-33.7,M,,*53
$PYRTM,2024,126.917335194873,18.026982605012
$GPGGA,220056.00,3357.6566,N,11928.2165,W,1,10,0.8,4.0,M,-33.7,M,,*58
$PYRTM,2024,126.917346783808,18.026994193947
$GPGGA,220057.00,3357.6572,N,11928.2136,W,1,10,0.8,5.7,M,-33.7,M,,*5C
$PYRTM,2024,126.917358342801,18.027005752940
$GPGGA,220058.00,3357.6577,N,11928.2107,W,1,10,0.8,3.1,M,-33.7,M,,*54
$PYRTM,2024,126.917369931285,18.027017341424
$GPGGA,220059.00,3357.6582,N,11928.2079,W,1,10,0.8,2.2,M,-33.7,M,,*55
$PYRTM,2024,126.917380565359,18.027027975498
$GPGGA,220100.00,3357.6586,N,11928.2050,W,1,10,0.8,1.4,M,-33.7,M,,*52
$PYRTM,2024,126.917393528403,18.027040938553
$GPGGA,220101.00,3357.6589,N,11928.2022,W,1,10,0.8,2.0,M,-33.7,M,,*5E
$PYRTM,2024,126.917404191586,18.027051601725
$GPGGA,220102.00,3357.6593,N,11928.1994,W,1,10,0.8,1.1,M,-33.7,M,,*53
$PYRTM,2024,126.917415301169,18.027062711308
$GPGGA,220103.00,3357.6597,N,11928.1967,W,1,10,0.8,-1.3,M,-33.7,M,,*75
$PYRTM,2024,126.917426297118,18.027073707269
$GPGGA,220104.00,3357.6602,N,11928.1940,W,1,10,0.8,-2.5,M,-33.7,M,,*7D
$PYRTM,2024,126.917437409549,18.027084819699
$GPGGA,220105.00,3357.6605,N,11928.1911,W,1,10,0.8,-1.9,M,-33.7,M,,*70
$PYRTM,2024,126.917448519329,18.027095929479
$GPGGA,220106.00,3357.6609,N,11928.1884,W,1,10,0.8,1.6,M,-33.7,M,,*50
$PYRTM,2024,126.917459525220,18.027106935359
$GPGGA,220107.00,3357.6614,N,11928.1857,W,1,10,0.8,-1.4,M,-33.7,M,,*7C
$PYRTM,2024,126.917470626609,18.027118036748
$GPGGA,220108.00,3357.6619,N,11928.1830,W,1,10,0.8,-3.8,M,-33.7,M,,*71
$PYRTM,2024,126.917481621308,18.027129031447
$GPGGA,220109.00,3357.6625,N,11928.1801,W,1,10,0.8,-4.6,M,-33.7,M,,*74
$PYRTM,2024,126.917492746713,18.027140156852
$GPGGA,220110.00,3357.6630,N,11928.1773,W,1,10,0.8,-3.7,M,-33.7,M,,*74
$PYRTM,2024,126.917507779479,18.027155189618
$GPGGA,220111.00,3357.6635,N,11928.1744,W,1,10,0.8,-5.6,M,-33.7,M,,*73
$PYRTM,2024,126.917519340069,18.027166750208
$GPGGA,220112.00,3357.6639,N,11928.1715,W,1,10,0.8,-5.0,M,-33.7,M,,*7E
$PYRTM,2024,126.917530926447,18.027178336586
$GPGGA,220113.00,3357.6643,N,11928.1687,W,1,10,0.8,-5.3,M,-33.7,M,,*7B
$PYRTM,2024,126.917542488507,18.027189898646
$GPGGA,220114.00,3357.6646,N,11928.1659,W,1,10,0.8,-4.2,M,-33.7,M,,*7A
$PYRTM,2024,126.917554076701,18.027201486840
$GPGGA,220115.00,3357.6649,N,11928.1632,W,1,10,0.8,-0.7,M,-33.7,M,,*78
$PYRTM,2024,126.917565635590,18.027213045729
$GPGGA,220116.00,3357.6652,N,11928.1604,W,1,10,0.8,-2.8,M,-33.7,M,,*79
$PYRTM,2024,126.917577238715,18.027224648854
$GPGGA,220117.00,3357.6655,N,11928.1576,W,1,10,0.8,-2.0,M,-33.7,M,,*71
$PYRTM,2024,126.917588786829,18.027236196979
$GPGGA,220118.00,3357.6659,N,11928.1548,W,1,10,0.8,-1.1,M,-33.7,M,,*7D
$PYRTM,2024,126.917600373264,18.027247783403
$GPGGA,220119.00,3357.6664,N,11928.1520,W,1,10,0.8,-0.3,M,-33.7,M,,*7F
$PYRTM,2024,126.917612859618,18.027260269757
$GPGGA,220120.00,3357.6669,N,11928.1492,W,1,10,0.8,-4.5,M,-33.7,M,,*72
$PYRTM,2024,126.917624562222,18.027271972361
$GPGGA,220121.00,3357.6673,N,11928.1463,W,1,10,0.8,-5.1,M,-33.7,M,,*73
$PYRTM,2024,126.917636122546,18.027283532685
$GPGGA,220122.00,3357.6677,N,11928.1434,W,1,10,0.8,-3.7,M,-33.7,M,,*76
$PYRTM,2024,126.917647710243,18.027295120382
$GPGGA,220123.00,3357.6681,N,11928.1405,W,1,10,0.8,-2.1,M,-33.7,M,,*7B
$PYRTM,2024,126.917659268646,18.027306678785
$GPGGA,220124.00,3357.6685,N,11928.1377,W,1,10,0.8,-0.8,M,-33.7,M,,*71
$PYRTM,2024,126.917670859097,18.027318269236
$GPGGA,220125.00,3357.6689,N,11928.1349,W,1,10,0.8,-2.4,M,-33.7,M,,*7F
$PYRTM,2024,126.917682418924,18.027329829062
$GPGGA,220126.00,3357.6694,N,11928.1321,W,1,10,0.8,-1.4,M,-33.7,M,,*7D
$PYRTM,2024,126.917694006887,18.027341417037
$GPGGA,220127.00,3357.6698,N,11928.1293,W,1,10,0.8,-2.7,M,-33.7,M,,*78
$PYRTM,2024,126.917705568218,18.027352978356
$GPGGA,220128.00,3357.6702,N,11928.1266,W,1,10,0.8,-3.3,M,-33.7,M,,*7A
$PYRTM,2024,126.917717155475,18.027364565625
$GPGGA,220129.00,3357.6706,N,11928.1238,W,1,10,0.8,-2.5,M,-33.7,M,,*73
$PYRTM,2024,126.917728714271,18.027376124410
$GPGGA,220130.00,3357.6711,N,11928.1211,W,1,10,0.8,-0.6,M,-33.7,M,,*77
$PYRTM,2024,126.917740304051,18.027387714190
$GPGGA,220131.00,3357.6716,N,11928.1183,W,1,10,0.8,1.7,M,-33.7,M,,*54
$PYRTM,2024,126.917751863981,18.027399274132
$GPGGA,220132.00,3357.6720,N,11928.1155,W,1,10,0.8,1.8,M,-33.7,M,,*56
$PYRTM,2024,126.917763450729,18.027410860868
$GPGGA,220133.00,3357.6725,N,11928.1126,W,1,10,0.8,2.2,M,-33.7,M,,*5F
$PYRTM,2024,126.917775013808,18.027422423958
$GPGGA,220134.00,3357.6729,N,11928.1097,W,1,10,0.8,1.2,M,-33.7,M,,*5C
$PYRTM,2024,126.917786599352,18.027434009491
$GPGGA,220135.00,3357.6732,N,11928.1069,W,1,10,0.8,1.9,M,-33.7,M,,*5D
$PYRTM,2024,126.917798160729,18.027445570880
$GPGGA,220136.00,3357.6736,N,11928.1040,W,1,10,0.8,4.1,M,-33.7,M,,*5C
$PYRTM,2024,126.917809748414,18.027457158553
$GPGGA,220137.00,3357.6741,N,11928.1012,W,1,10,0.8,1.9,M,-33.7,M,,*57
$PYRTM,2024,126.917821309167,18.027468719306
$GPGGA,220138.00,3357.6746,N,11928.0984,W,1,10,0.8,1.0,M,-33.7,M,,*51
$PYRTM,2024,126.917832891215,18.027480301354
$GPGGA,220139.00,3357.6751,N,11928.0956,W,1,10,0.8,2.6,M,-33.7,M,,*5C
$PYRTM,2024,126.917845616007,18.027493026146
$GPGGA,220140.00,3357.6755,N,11928.0928,W,1,10,0.8,0.9,M,-33.7,M,,*52
$PYRTM,2024,126.917858231123,18.027505641262
$GPGGA,220141.00,3357.6758,N,11928.0899,W,1,10,0.8,0.4,M,-33.7,M,,*58
$PYRTM,2024,126.917867605613,18.027515015752
$GPGGA,220142.00,3357.6762,N,11928.0871,W,1,10,0.8,-0.1,M,-33.7,M,,*7C
$PYRTM,2024,126.917879193403,18.027526603542
$GPGGA,220143.00,3357.6767,N,11928.0844,W,1,10,0.8,1.5,M,-33.7,M,,*56
$PYRTM,2024,126.917890755058,18.027538165208
$GPGGA,220144.00,3357.6772,N,11928.0817,W,1,10,0.8,0.5,M,-33.7,M,,*52
$PYRTM,2024,126.917902336215,18.027549746354
$GPGGA,220145.00,3357.6776,N,11928.0789,W,1,10,0.8,2.9,M,-33.7,M,,*51
$PYRTM,2024,126.917913900370,18.027561310509
$GPGGA,220146.00,3357.6779,N,11928.0760,W,1,10,0.8,2.8,M,-33.7,M,,*5B
$PYRTM,2024,126.917925489271,18.027572899410
$GPGGA,220147.00,3357.6782,N,11928.0731,W,1,10,0.8,3.0,M,-33.7,M,,*53
$PYRTM,2024,126.917937050613,18.027584460741
$GPGGA,220148.00,3357.6786,N,11928.0704,W,1,10,0.8,1.4,M,-33.7,M,,*58
$PYRTM,2024,126.917948637917,18.027596048056
$GPGGA,220149.00,3357.6788,N,11928.0676,W,1,10,0.8,1.5,M,-33.7,M,,*52
$PYRTM,2024,126.917960675613,18.027608085764
$GPGGA,220150.00,3357.6791,N,11928.0648,W,1,10,0.8,-0.6,M,-33.7,M,,*70
$PYRTM,2024,126.917971792106,18.027619202245
$GPGGA,220151.00,3357.6794,N,11928.0620,W,1,10,0.8,-1.2,M,-33.7,M,,*7F
$PYRTM,2024,126.917983345683,18.027630755822
$GPGGA,220152.00,3357.6798,N,11928.0593,W,1,10,0.8,1.1,M,-33.7,M,,*55
$PYRTM,2024,126.917994935428,18.027642345567
$GPGGA,220153.00,3357.6802,N,11928.0567,W,1,10,0.8,5.9,M,-33.7,M,,*5F
$PYRTM,2024,126.918006494838,18.027653904977
$GPGGA,220154.00,3357.6806,N,11928.0538,W,1,10,0.8,7.8,M,-33.7,M,,*55
$PYRTM,2024,126.918018082488,18.027665492627
$GPGGA,220155.00,3357.6810,N,11928.0510,W,1,10,0.8,8.0,M,-33.7,M,,*5E
$PYRTM,2024,126.918029642315,18.027677052454
$GPGGA,220156.00,3357.6814,N,11928.0481,W,1,10,0.8,10.8,M,-33.7,M,,*61
$PYRTM,2024,126.918041230660,18.027688640810
$GPGGA,220157.00,3357.6820,N,11928.0453,W,1,10,0.8,9.4,M,-33.7,M,,*5C
$PYRTM,2024,126.918052791470,18.027700201609
$GPGGA,220158.00,3357.6826,N,11928.0424,W,1,10,0.8,8.2,M,-33.7,M,,*52
$PYRTM,2024,126.918064378657,18.027711788796
$GPGGA,220159.00,3357.6832,N,11928.0394,W,1,10,0.8,10.2,M,-33.7,M,,*63
$PYRTM,2024,126.918075939340,18.027723349479
$GPGGA,220200.00,3357.6837,N,11928.0364,W,1,10,0.8,9.5,M,-33.7,M,,*59
$PYRTM,2024,126.918087526308,18.027734936435
$GPGGA,220201.00,3357.6842,N,11928.0335,W,1,10,0.8,5.9,M,-33.7,M,,*5E
$PYRTM,2024,126.918099085845,18.027746495984
$GPGGA,220202.00,3357.6846,N,11928.0306,W,1,10,0.8,4.3,M,-33.7,M,,*52
$PYRTM,2024,126.918110675185,18.027758085324
$GPGGA,220203.00,3357.6851,N,11928.0278,W,1,10,0.8,3.6,M,-33.7,M,,*5F
$PYRTM,2024,126.918122236111,18.027769646250
$GPGGA,220204.00,3357.6855,N,11928.0251,W,1,10,0.8,2.6,M,-33.7,M,,*56
$PYRTM,2024,126.918133826574,18.027781236725
$GPGGA,220205.00,3357.6858,N,11928.0224,W,1,10,0.8,2.5,M,-33.7,M,,*5B
$PYRTM,2024,126.918145383912,18.027792794051
$GPGGA,220206.00,3357.6861,N,11928.0198,W,1,10,0.8,-0.6,M,-33.7,M,,*7A
$PYRTM,2024,126.918156972002,18.027804382141
$GPGGA,220207.00,3357.6864,N,11928.0172,W,1,10,0.8,0.0,M,-33.7,M,,*51
$PYRTM,2024,126.918168532743,18.027815942882
$GPGGA,220208.00,3357.6867,N,11928.0145,W,1,10,0.8,4.1,M,-33.7,M,,*5C
$PYRTM,2024,126.918180119329,18.027827529468
$GPGGA,220209.00,3357.6872,N,11928.0117,W,1,10,0.8,4.1,M,-33.7,M,,*5E
$PYRTM,2024,126.918193186632,18.027840596771
$GPGGA,220210.00,3357.6878,N,11928.0089,W,1,10,0.8,2.3,M,-33.7,M,,*5E
$PYRTM,2024,126.918205456100,18.027852866238
$GPGGA,220211.00,3357.6883,N,11928.0061,W,1,10,0.8,2.4,M,-33.7,M,,*5A
$PYRTM,2024,126.918214829664,18.027862239803
$GPGGA,220212.00,3357.6888,N,11928.0033,W,1,10,0.8,2.5,M,-33.7,M,,*54
$PYRTM,2024,126.918226417558,18.027873827708
$GPGGA,220213.00,3357.6891,N,11928.0005,W,1,10,0.8,5.0,M,-33.7,M,,*5A
$PYRTM,2024,126.918237977778,18.027885387917
$GPGGA,220214.00,3357.6896,N,11927.9978,W,1,10,0.8,3.8,M,-33.7,M,,*51
$PYRTM,2024,126.918249566794,18.027896976933
$GPGGA,220215.00,3357.6900,N,11927.9953,W,1,10,0.8,2.0,M,-33.7,M,,*5E
$PYRTM,2024,126.918261124942,18.027908535093
$GPGGA,220216.00,3357.6905,N,11927.9926,W,1,10,0.8,2.0,M,-33.7,M,,*5A
$PYRTM,2024,126.918272714896,18.027920125046
$GPGGA,220217.00,3357.6909,N,11927.9900,W,1,10,0.8,0.4,M,-33.7,M,,*55
$PYRTM,2024,126.918284274282,18.027931684421
$GPGGA,220218.00,3357.6912,N,11927.9873,W,1,10,0.8,-0.5,M,-33.7,M,,*79
$PYRTM,2024,126.918295858333,18.027943268472
$GPGGA,220219.00,3357.6915,N,11927.9846,W,1,10,0.8,0.6,M,-33.7,M,,*57
$PYRTM,2024,126.918307894514,18.027955304653
$GPGGA,220220.00,3357.6919,N,11927.9817,W,1,10,0.8,2.3,M,-33.7,M,,*52
$PYRTM,2024,126.918319010243,18.027966420394
$GPGGA,220221.00,3357.6923,N,11927.9788,W,1,10,0.8,1.9,M,-33.7,M,,*5A
$PYRTM,2024,126.918330570914,18.027977981065
$GPGGA,220222.00,3357.6928,N,11927.9759,W,1,10,0.8,4.4,M,-33.7,M,,*56
$PYRTM,2024,126.918342159132,18.027989569282
$GPGGA,220223.00,3357.6934,N,11927.9730,W,1,10,0.8,5.3,M,-33.7,M,,*53
$PYRTM,2024,126.918353718993,18.028001129132
$GPGGA,220224.00,3357.6938,N,11927.9701,W,1,10,0.8,4.2,M,-33.7,M,,*5A
$PYRTM,2024,126.918365302095,18.028012712245
$GPGGA,220225.00,3357.6942,N,11927.9673,W,1,10,0.8,3.5,M,-33.7,M,,*52
$PYRTM,2024,126.918379824861,18.028027235000
$GPGGA,220226.00,3357.6946,N,11927.9644,W,1,10,0.8,4.3,M,-33.7,M,,*50
$PYRTM,2024,126.918388454873,18.028035865012
$GPGGA,220227.00,3357.6949,N,11927.9616,W,1,10,0.8,4.5,M,-33.7,M,,*5F
$PYRTM,2024,126.918400014687,18.028047424826
$GPGGA,220228.00,3357.6953,N,11927.9589,W,1,10,0.8,2.5,M,-33.7,M,,*58
$PYRTM,2024,126.918411598750,18.028059008889
$GPGGA,220229.00,3357.6956,N,11927.9562,W,1,10,0.8,2.0,M,-33.7,M,,*5C
$PYRTM,2024,126.918423164201,18.028070574352
$GPGGA,220230.00,3357.6958,N,11927.9534,W,1,10,0.8,2.5,M,-33.7,M,,*5C
$PYRTM,2024,126.918434752014,18.028082162153
$GPGGA,220231.00,3357.6961,N,11927.9507,W,1,10,0.8,5.1,M,-33.7,M,,*54
$PYRTM,2024,126.918446312431,18.028093722569
$GPGGA,220232.00,3357.6964,N,11927.9479,W,1,10,0.8,1.4,M,-33.7,M,,*5B
$PYRTM,2024,126.918457903600,18.028105313738
$GPGGA,220233.00,3357.6969,N,11927.9449,W,1,10,0.8,2.2,M,-33.7,M,,*51
$PYRTM,2024,126.918469461227,18.028116871366
$GPGGA,220234.00,3357.6973,N,11927.9421,W,1,10,0.8,2.4,M,-33.7,M,,*55
$PYRTM,2024,126.918481048264,18.028128458403
$GPGGA,220235.00,3357.6977,N,11927.9393,W,1,10,0.8,2.0,M,-33.7,M,,*5A
$PYRTM,2024,126.918492611273,18.028140021412
$GPGGA,220236.00,3357.6982,N,11927.9364,W,1,10,0.8,1.8,M,-33.7,M,,*50
$PYRTM,2024,126.918504196134,18.028151606273
$GPGGA,220237.00,3357.6986,N,11927.9337,W,1,10,0.8,1.3,M,-33.7,M,,*58
$PYRTM,2024,126.918515759537,18.028163169676
$GPGGA,220238.00,3357.6990,N,11927.9310,W,1,10,0.8,1.5,M,-33.7,M,,*53
$PYRTM,2024,126.918527344919,18.028174755058
$GPGGA,220239.00,3357.6995,N,11927.9284,W,1,10,0.8,-0.3,M,-33.7,M,,*71
$PYRTM,2024,126.918540064086,18.028187474236
$GPGGA,220240.00,3357.6999,N,11927.9257,W,1,10,0.8,2.5,M,-33.7,M,,*54
$PYRTM,2024,126.918552681053,18.028200091192
$GPGGA,220241.00,3357.7002,N,11927.9230,W,1,10,0.8,1.1,M,-33.7,M,,*59
$PYRTM,2024,126.918562054352,18.028209464502
$GPGGA,220242.00,3357.7006,N,11927.9203,W,1,10,0.8,2.7,M,-33.7,M,,*5B
$PYRTM,2024,126.918573655324,18.028221065463
$GPGGA,220243.00,3357.7010,N,11927.9176,W,1,10,0.8,2.4,M,-33.7,M,,*5F
$PYRTM,2024,126.918585202743,18.028232612882
$GPGGA,220244.00,3357.7015,N,11927.9148,W,1,10,0.8,1.5,M,-33.7,M,,*52
$PYRTM,2024,126.918596789167,18.028244199306
$GPGGA,220245.00,3357.7020,N,11927.9121,W,1,10,0.8,0.5,M,-33.7,M,,*5B
$PYRTM,2024,126.918608355278,18.028255765417
$GPGGA,220246.00,3357.7025,N,11927.9093,W,1,10,0.8,0.0,M,-33.7,M,,*50
$PYRTM,2024,126.918619938449,18.028267348588
$GPGGA,220247.00,3357.7030,N,11927.9064,W,1,10,0.8,0.1,M,-33.7,M,,*5C
$PYRTM,2024,126.918631500787,18.028278910926
$GPGGA,220248.00,3357.7033,N,11927.9037,W,1,10,0.8,-1.1,M,-33.7,M,,*7A
$PYRTM,2024,126.918643087280,18.028290497419
$GPGGA,220249.00,3357.7037,N,11927.9009,W,1,10,0.8,-0.4,M,-33.7,M,,*76
$PYRTM,2024,126.918655123275,18.028302533414
$GPGGA,220250.00,3357.7041,N,11927.8981,W,1,10,0.8,-2.5,M,-33.7,M,,*74
$PYRTM,2024,126.918666230312,18.028313640463
$GPGGA,220251.00,3357.7045,N,11927.8953,W,1,10,0.8,-1.6,M,-33.7,M,,*7E
$PYRTM,2024,126.918677797674,18.028325207813
$GPGGA,220252.00,3357.7049,N,11927.8925,W,1,10,0.8,0.4,M,-33.7,M,,*5E
$PYRTM,2024,126.918689392836,18.028336802975
$GPGGA,220253.00,3357.7053,N,11927.8897,W,1,10,0.8,-1.3,M,-33.7,M,,*77
$PYRTM,2024,126.918700944444,18.028348354583
$GPGGA,220254.00,3357.7057,N,11927.8869,W,1,10,0.8,-2.0,M,-33.7,M,,*75
$PYRTM,2024,126.918712530625,18.028359940764
$GPGGA,220255.00,3357.7062,N,11927.8841,W,1,10,0.8,-1.1,M,-33.7,M,,*7A
$PYRTM,2024,126.918724091539,18.028371501678
$GPGGA,220256.00,3357.7067,N,11927.8814,W,1,10,0.8,1.1,M,-33.7,M,,*51
$PYRTM,2024,126.918735679433,18.028383089572
$GPGGA,220257.00,3357.7073,N,11927.8786,W,1,10,0.8,2.1,M,-33.7,M,,*52
$PYRTM,2024,126.918747242245,18.028394652384
$GPGGA,220258.00,3357.7076,N,11927.8758,W,1,10,0.8,2.8,M,-33.7,M,,*52
$PYRTM,2024,126.918758826644,18.028406236782
$GPGGA,220259.00,3357.7079,N,11927.8729,W,1,10,0.8,3.7,M,-33.7,M,,*54
$PYRTM,2024,126.918770865023,18.028418275162
$GPGGA,220300.00,3357.7083,N,11927.8700,W,1,10,0.8,4.3,M,-33.7,M,,*54
$PYRTM,2024,126.918781989977,18.028429400116
$GPGGA,220301.00,3357.7088,N,11927.8672,W,1,10,0.8,4.1,M,-33.7,M,,*58
$PYRTM,2024,126.918793537141,18.028440947280
$GPGGA,220302.00,3357.7092,N,11927.8644,W,1,10,0.8,4.0,M,-33.7,M,,*54
$PYRTM,2024,126.918805127222,18.028452537373
$GPGGA,220303.00,3357.7095,N,11927.8616,W,1,10,0.8,3.0,M,-33.7,M,,*52
$PYRTM,2024,126.918816685359,18.028464095498
$GPGGA,220304.00,3357.7099,N,11927.8588,W,1,10,0.8,2.6,M,-33.7,M,,*5A
$PYRTM,2024,126.918827346516,18.028474756655
$GPGGA,220305.00,3357.7103,N,11927.8561,W,1,10,0.8,5.4,M,-33.7,M,,*5B
$PYRTM,2024,126.918840312130,18.028487722269
$GPGGA,220306.00,3357.7108,N,11927.8534,W,1,10,0.8,4.7,M,-33.7,M,,*51
$PYRTM,2024,126.918850945602,18.028498355741
$GPGGA,220307.00,3357.7112,N,11927.8508,W,1,10,0.8,3.3,M,-33.7,M,,*57
$PYRTM,2024,126.918862056319,18.028509466470
$GPGGA,220308.00,3357.7116,N,11927.8481,W,1,10,0.8,2.0,M,-33.7,M,,*5E
$PYRTM,2024,126.918873050694,18.028520460833
$GPGGA,220309.00,3357.7121,N,11927.8455,W,1,10,0.8,0.3,M,-33.7,M,,*53
$PYRTM,2024,126.918884061481,18.028531471620
$GPGGA,220310.00,3357.7125,N,11927.8428,W,1,10,0.8,1.7,M,-33.7,M,,*50
$PYRTM,2024,126.918898646806,18.028546056944
$GPGGA,220311.00,3357.7129,N,11927.8400,W,1,10,0.8,1.4,M,-33.7,M,,*54
$PYRTM,2024,126.918909625822,18.028557035972
$GPGGA,220312.00,3357.7133,N,11927.8372,W,1,10,0.8,4.4,M,-33.7,M,,*5B
$PYRTM,2024,126.918920749803,18.028568159954
$GPGGA,220313.00,3357.7136,N,11927.8342,W,1,10,0.8,4.6,M,-33.7,M,,*5E
$PYRTM,2024,126.918937763553,18.028585173692
$GPGGA,220314.00,3357.7141,N,11927.8313,W,1,10,0.8,5.0,M,-33.7,M,,*5A
$PYRTM,2024,126.918948876586,18.028596286725
$GPGGA,220315.00,3357.7146,N,11927.8284,W,1,10,0.8,6.3,M,-33.7,M,,*53
$PYRTM,2024,126.918959869745,18.028607279884
$GPGGA,220316.00,3357.7150,N,11927.8255,W,1,10,0.8,5.2,M,-33.7,M,,*59
$PYRTM,2024,126.918970981481,18.028618391620
$GPGGA,220317.00,3357.7155,N,11927.8226,W,1,10,0.8,5.3,M,-33.7,M,,*58
$PYRTM,2024,126.918981980764,18.028629390903
$GPGGA,220318.00,3357.7159,N,11927.8199,W,1,10,0.8,3.3,M,-33.7,M,,*5A
$PYRTM,2024,126.918992957384,18.028640367523
$GPGGA,220319.00,3357.7163,N,11927.8171,W,1,10,0.8,2.9,M,-33.7,M,,*5F
$PYRTM,2024,126.919004532813,18.028651942951
$GPGGA,220320.00,3357.7167,N,11927.8144,W,1,10,0.8,2.9,M,-33.7,M,,*57
$PYRTM,2024,126.919015543113,18.028662953252
$GPGGA,220321.00,3357.7171,N,11927.8117,W,1,10,0.8,1.4,M,-33.7,M,,*59
$PYRTM,2024,126.919026652743,18.028674062882
$GPGGA,220322.00,3357.7175,N,11927.8090,W,1,10,0.8,-0.1,M,-33.7,M,,*79
$PYRTM,2024,126.919037635671,18.028685045810
$GPGGA,220323.00,3357.7179,N,11927.8062,W,1,10,0.8,-1.4,M,-33.7,M,,*7D
$PYRTM,2024,126.919048760428,18.028696170567
$GPGGA,220324.00,3357.7182,N,11927.8034,W,1,10,0.8,2.8,M,-33.7,M,,*5F
$PYRTM,2024,126.919059750440,18.028707160590
$GPGGA,220325.00,3357.7186,N,11927.8005,W,1,10,0.8,3.6,M,-33.7,M,,*57
$PYRTM,2024,126.919070754410,18.028718164549
$GPGGA,220326.00,3357.7191,N,11927.7976,W,1,10,0.8,2.8,M,-33.7,M,,*5F
$PYRTM,2024,126.919081862998,18.028729273137
$GPGGA,220327.00,3357.7196,N,11927.7948,W,1,10,0.8,3.2,M,-33.7,M,,*5F
$PYRTM,2024,126.919093422257,18.028740832396
$GPGGA,220328.00,3357.7200,N,11927.7919,W,1,10,0.8,3.3,M,-33.7,M,,*59
$PYRTM,2024,126.919105012396,18.028752422535
$GPGGA,220329.00,3357.7204,N,11927.7891,W,1,10,0.8,3.0,M,-33.7,M,,*5E
$PYRTM,2024,126.919116570775,18.028763980914
$GPGGA,220330.00,3357.7209,N,11927.7864,W,1,10,0.8,4.0,M,-33.7,M,,*56
$PYRTM,2024,126.919128173553,18.028775583692
$GPGGA,220331.00,3357.7215,N,11927.7836,W,1,10,0.8,5.2,M,-33.7,M,,*5E
$PYRTM,2024,126.919139720324,18.028787130463
$GPGGA,220332.00,3357.7220,N,11927.7809,W,1,10,0.8,3.9,M,-33.7,M,,*5A
$PYRTM,2024,126.919151306088,18.028798716227
$GPGGA,220333.00,3357.7225,N,11927.7781,W,1,10,0.8,5.0,M,-33.7,M,,*5E
$PYRTM,2024,126.919162867766,18.028810277917
$GPGGA,220334.00,3357.7228,N,11927.7753,W,1,10,0.8,4.3,M,-33.7,M,,*59
$PYRTM,2024,126.919174454514,18.028821864653
$GPGGA,220335.00,3357.7232,N,11927.7724,W,1,10,0.8,4.5,M,-33.7,M,,*55
$PYRTM,2024,126.919186017176,18.028833427326
$GPGGA,220336.00,3357.7236,N,11927.7696,W,1,10,0.8,6.3,M,-33.7,M,,*5E
$PYRTM,2024,126.919197600359,18.028845010509
$GPGGA,220337.00,3357.7240,N,11927.7667,W,1,10,0.8,6.9,M,-33.7,M,,*5A
$PYRTM,2024,126.919209165162,18.028856575301
$GPGGA,220338.00,3357.7245,N,11927.7638,W,1,10,0.8,9.0,M,-33.7,M,,*5C
$PYRTM,2024,126.919220756204,18.028868166377
$GPGGA,220339.00,3357.7251,N,11927.7611,W,1,10,0.8,11.6,M,-33.7,M,,*6C
$PYRTM,2024,126.919233470451,18.028880880590
$GPGGA,220340.00,3357.7255,N,11927.7583,W,1,10,0.8,9.1,M,-33.7,M,,*50
$PYRTM,2024,126.919244945023,18.028892355162
$GPGGA,220341.00,3357.7259,N,11927.7557,W,1,10,0.8,7.2,M,-33.7,M,,*59
$PYRTM,2024,126.919256503090,18.028903913229
$GPGGA,220342.00,3357.7263,N,11927.7529,W,1,10,0.8,9.0,M,-33.7,M,,*56
$PYRTM,2024,126.919268090382,18.028915500521
$GPGGA,220343.00,3357.7266,N,11927.7502,W,1,10,0.8,8.7,M,-33.7,M,,*5D
$PYRTM,2024,126.919279652199,18.028927062350
$GPGGA,220344.00,3357.7271,N,11927.7474,W,1,10,0.8,6.9,M,-33.7,M,,*5C
$PYRTM,2024,126.919291238530,18.028938648669
$GPGGA,220345.00,3357.7275,N,11927.7446,W,1,10,0.8,5.7,M,-33.7,M,,*55
$PYRTM,2024,126.919302798206,18.028950208345
$GPGGA,220346.00,3357.7279,N,11927.7417,W,1,10,0.8,6.2,M,-33.7,M,,*58
$PYRTM,2024,126.919314382720,18.028961792859
$GPGGA,220347.00,3357.7283,N,11927.7388,W,1,10,0.8,8.4,M,-33.7,M,,*55
$PYRTM,2024,126.919325947350,18.028973357488
$GPGGA,220348.00,3357.7288,N,11927.7359,W,1,10,0.8,9.3,M,-33.7,M,,*5B
$PYRTM,2024,126.919337539144,18.028984949282
$GPGGA,220349.00,3357.7294,N,11927.7330,W,1,10,0.8,8.3,M,-33.7,M,,*59
$PYRTM,2024,126.919350022512,18.028997432650
$GPGGA,220350.00,3357.7300,N,11927.7301,W,1,10,0.8,7.7,M,-33.7,M,,*54
$PYRTM,2024,126.919362869282,18.029010279421
$GPGGA,220351.00,3357.7306,N,11927.7272,W,1,10,0.8,8.0,M,-33.7,M,,*5E
$PYRTM,2024,126.919372244120,18.029019654259
$GPGGA,220352.00,3357.7311,N,11927.7244,W,1,10,0.8,8.0,M,-33.7,M,,*5E
$PYRTM,2024,126.919383826563,18.029031236701
$GPGGA,220353.00,3357.7316,N,11927.7216,W,1,10,0.8,10.2,M,-33.7,M,,*64
$PYRTM,2024,126.919395391910,18.029042802049
$GPGGA,220354.00,3357.7320,N,11927.7189,W,1,10,0.8,10.8,M,-33.7,M,,*69
$PYRTM,2024,126.919406979236,18.029054389375
$GPGGA,220355.00,3357.7325,N,11927.7162,W,1,10,0.8,11.6,M,-33.7,M,,*67
$PYRTM,2024,126.919418540810,18.029065950949
$GPGGA,220356.00,3357.7330,N,11927.7134,W,1,10,0.8,8.4,M,-33.7,M,,*59
$PYRTM,2024,126.919430127697,18.029077537836
$GPGGA,220357.00,3357.7335,N,11927.7107,W,1,10,0.8,10.5,M,-33.7,M,,*65
$PYRTM,2024,126.919441689606,18.029089099745
$GPGGA,220358.00,3357.7339,N,11927.7078,W,1,10,0.8,8.9,M,-33.7,M,,*5A
$PYRTM,2024,126.919453289942,18.029100700081
$GPGGA,220359.00,3357.7344,N,11927.7050,W,1,10,0.8,7.5,M,-33.7,M,,*58
$PYRTM,2024,126.919464837037,18.029112247176
$GPGGA,220400.00,3357.7349,N,11927.7023,W,1,10,0.8,7.1,M,-33.7,M,,*5E
$PYRTM,2024,126.919476424051,18.029123834190
$GPGGA,220401.00,3357.7354,N,11927.6996,W,1,10,0.8,7.4,M,-33.7,M,,*50
$PYRTM,2024,126.919487987407,18.029135397546
$GPGGA,220402.00,3357.7359,N,11927.6968,W,1,10,0.8,7.0,M,-33.7,M,,*5B
$PYRTM,2024,126.919499572755,18.029146982894
$GPGGA,220403.00,3357.7363,N,11927.6940,W,1,10,0.8,8.9,M,-33.7,M,,*5F
$PYRTM,2024,126.919511134711,18.029158544850
$GPGGA,220404.00,3357.7366,N,11927.6913,W,1,10,0.8,5.1,M,-33.7,M,,*5E
$PYRTM,2024,126.919522721169,18.029170131308
$GPGGA,220405.00,3357.7371,N,11927.6886,W,1,10,0.8,3.4,M,-33.7,M,,*57
$PYRTM,2024,126.919534283171,18.029181693310
$GPGGA,220406.00,3357.7375,N,11927.6858,W,1,10,0.8,4.2,M,-33.7,M,,*52
$PYRTM,2024,126.919545869410,18.029193279549
$GPGGA,220407.00,3357.7377,N,11927.6832,W,1,10,0.8,5.7,M,-33.7,M,,*59
$PYRTM,2024,126.919557430324,18.029204840463
$GPGGA,220408.00,3357.7379,N,11927.6804,W,1,10,0.8,7.2,M,-33.7,M,,*5A
$PYRTM,2024,126.919569031632,18.029216441771
$GPGGA,220409.00,3357.7382,N,11927.6777,W,1,10,0.8,4.3,M,-33.7,M,,*56
$PYRTM,2024,126.919581735671,18.029229145810
$GPGGA,220410.00,3357.7385,N,11927.6750,W,1,10,0.8,3.5,M,-33.7,M,,*5D
$PYRTM,2024,126.919594351400,18.029241761539
$GPGGA,220411.00,3357.7390,N,11927.6723,W,1,10,0.8,4.2,M,-33.7,M,,*5C
$PYRTM,2024,126.919603725961,18.029251136100
$GPGGA,220412.00,3357.7393,N,11927.6697,W,1,10,0.8,2.0,M,-33.7,M,,*56
$PYRTM,2024,126.919615313877,18.029262724028
$GPGGA,220413.00,3357.7397,N,11927.6671,W,1,10,0.8,3.3,M,-33.7,M,,*59
$PYRTM,2024,126.919626874387,18.029274284525
$GPGGA,220414.00,3357.7402,N,11927.6644,W,1,10,0.8,1.1,M,-33.7,M,,*53
$PYRTM,2024,126.919638461528,18.029285871667
$GPGGA,220415.00,3357.7408,N,11927.6618,W,1,10,0.8,3.0,M,-33.7,M,,*52
$PYRTM,2024,126.919650024201,18.029297434340
$GPGGA,220416.00,3357.7414,N,11927.6590,W,1,10,0.8,3.8,M,-33.7,M,,*57
$PYRTM,2024,126.919661624097,18.029309034236
$GPGGA,220417.00,3357.7418,N,11927.6562,W,1,10,0.8,3.1,M,-33.7,M,,*5E
$PYRTM,2024,126.919673171968,18.029320582106
$GPGGA,220418.00,3357.7423,N,11927.6534,W,1,10,0.8,4.7,M,-33.7,M,,*5B
$PYRTM,2024,126.919684772199,18.029332182338
$GPGGA,220419.00,3357.7428,N,11927.6506,W,1,10,0.8,4.4,M,-33.7,M,,*53
$PYRTM,2024,126.919696796748,18.029344206887
$GPGGA,220420.00,3357.7434,N,11927.6478,W,1,10,0.8,3.3,M,-33.7,M,,*5C
$PYRTM,2024,126.919707902396,18.029355312535
$GPGGA,220421.00,3357.7440,N,11927.6450,W,1,10,0.8,5.1,M,-33.7,M,,*50
$PYRTM,2024,126.919719467025,18.029366877164
$GPGGA,220422.00,3357.7445,N,11927.6423,W,1,10,0.8,5.0,M,-33.7,M,,*53
$PYRTM,2024,126.919731055833,18.029378465972
$GPGGA,220423.00,3357.7449,N,11927.6395,W,1,10,0.8,7.7,M,-33.7,M,,*51
$PYRTM,2024,126.919742616748,18.029390026887
$GPGGA,220424.00,3357.7453,N,11927.6367,W,1,10,0.8,8.0,M,-33.7,M,,*58
$PYRTM,2024,126.919754205370,18.029401615509
$GPGGA,220425.00,3357.7457,N,11927.6339,W,1,10,0.8,6.2,M,-33.7,M,,*5A
$PYRTM,2024,126.919765763877,18.029413174016
$GPGGA,220426.00,3357.7461,N,11927.6311,W,1,10,0.8,10.3,M,-33.7,M,,*60
$PYRTM,2024,126.919777355035,18.029424765174
$GPGGA,220427.00,3357.7465,N,11927.6282,W,1,10,0.8,12.3,M,-33.7,M,,*6C
$PYRTM,2024,126.919788913218,18.029436323356
$GPGGA,220428.00,3357.7468,N,11927.6253,W,1,10,0.8,12.8,M,-33.7,M,,*69
$PYRTM,2024,126.919800503565,18.029447913704
$GPGGA,220429.00,3357.7472,N,11927.6223,W,1,10,0.8,12.2,M,-33.7,M,,*6E
$PYRTM,2024,126.919812061933,18.029459472083
$GPGGA,220430.00,3357.7477,N,11927.6194,W,1,10,0.8,15.5,M,-33.7,M,,*6C
$PYRTM,2024,126.919823648380,18.029471058530
$GPGGA,220431.00,3357.7482,N,11927.6167,W,1,10,0.8,16.0,M,-33.7,M,,*6D
$PYRTM,2024,126.919835209363,18.029482619502
$GPGGA,220432.00,3357.7487,N,11927.6140,W,1,10,0.8,17.8,M,-33.7,M,,*67
$PYRTM,2024,126.919846797442,18.029494207581
$GPGGA,220433.00,3357.7491,N,11927.6111,W,1,10,0.8,14.1,M,-33.7,M,,*6F
$PYRTM,2024,126.919858358102,18.029505768241
$GPGGA,220434.00,3357.7494,N,11927.6084,W,1,10,0.8,14.9,M,-33.7,M,,*68
$PYRTM,2024,126.919869944618,18.029517354757
$GPGGA,220435.00,3357.7498,N,11927.6057,W,1,10,0.8,12.4,M,-33.7,M,,*60
$PYRTM,2024,126.919881506262,18.029528916400
$GPGGA,220436.00,3357.7503,N,11927.6028,W,1,10,0.8,9.4,M,-33.7,M,,*52
$PYRTM,2024,126.919893097454,18.029540507593
$GPGGA,220437.00,3357.7507,N,11927.5999,W,1,10,0.8,10.5,M,-33.7,M,,*6E
$PYRTM,2024,126.919904654387,18.029552064525
$GPGGA,220438.00,3357.7511,N,11927.5971,W,1,10,0.8,11.7,M,-33.7,M,,*63
$PYRTM,2024,126.919916242326,18.029563652465
$GPGGA,220439.00,3357.7515,N,11927.5942,W,1,10,0.8,11.8,M,-33.7,M,,*69
$PYRTM,2024,126.919929435613,18.029576845752
$GPGGA,220440.00,3357.7520,N,11927.5913,W,1,10,0.8,10.9,M,-33.7,M,,*65
$PYRTM,2024,126.919941576123,18.029588986262
$GPGGA,220441.00,3357.7525,N,11927.5885,W,1,10,0.8,9.6,M,-33.7,M,,*58
$PYRTM,2024,126.919950953912,18.029598364063
$GPGGA,220442.00,3357.7529,N,11927.5856,W,1,10,0.8,9.4,M,-33.7,M,,*5B
$PYRTM,2024,126.919962532812,18.029609942951
$GPGGA,220443.00,3357.7534,N,11927.5829,W,1,10,0.8,8.5,M,-33.7,M,,*5E
$PYRTM,2024,126.919974098970,18.029621509109
$GPGGA,220444.00,3357.7539,N,11927.5803,W,1,10,0.8,9.0,M,-33.7,M,,*58
$PYRTM,2024,126.919985686146,18.029633096285
$GPGGA,220445.00,3357.7544,N,11927.5777,W,1,10,0.8,10.6,M,-33.7,M,,*61
$PYRTM,2024,126.919997250475,18.029644660625
$GPGGA,220446.00,3357.7548,N,11927.5750,W,1,10,0.8,9.8,M,-33.7,M,,*5D
$PYRTM,2024,126.920008837674,18.029656247813
$GPGGA,220447.00,3357.7552,N,11927.5723,W,1,10,0.8,7.3,M,-33.7,M,,*56
$PYRTM,2024,126.920020395498,18.029667805625
$GPGGA,220448.00,3357.7556,N,11927.5696,W,1,10,0.8,6.5,M,-33.7,M,,*55
$PYRTM,2024,126.920031977975,18.029679388113
$GPGGA,220449.00,3357.7559,N,11927.5668,W,1,10,0.8,6.3,M,-33.7,M,,*5C
$PYRTM,2024,126.920044020694,18.029691430833
$GPGGA,220450.00,3357.7563,N,11927.5640,W,1,10,0.8,9.4,M,-33.7,M,,*5F
$PYRTM,2024,126.920055132581,18.029702542720
$GPGGA,220451.00,3357.7567,N,11927.5612,W,1,09,0.8,11.8,M,-33.7,M,,*60
$PYRTM,2024,126.920066692222,18.029714102361
$GPGGA,220452.00,3357.7570,N,11927.5584,W,1,10,0.8,8.8,M,-33.7,M,,*59
$PYRTM,2024,126.920078275521,18.029725685671
$GPGGA,220453.00,3357.7574,N,11927.5556,W,1,10,0.8,9.5,M,-33.7,M,,*5F
$PYRTM,2024,126.920089843125,18.029737253275
$GPGGA,220454.00,3357.7577,N,11927.5528,W,1,09,0.8,8.2,M,-33.7,M,,*5C
$PYRTM,2024,126.920101430312,18.029748840451
$GPGGA,220455.00,3357.7581,N,11927.5501,W,1,09,0.8,11.2,M,-33.7,M,,*67
$PYRTM,2024,126.920112988437,18.029760398576
$GPGGA,220456.00,3357.7584,N,11927.5473,W,1,10,0.8,10.9,M,-33.7,M,,*67
$PYRTM,2024,126.920124580266,18.029771990405
$GPGGA,220457.00,3357.7588,N,11927.5444,W,1,10,0.8,10.0,M,-33.7,M,,*67
$PYRTM,2024,126.920136138287,18.029783548426
$GPGGA,220458.00,3357.7592,N,11927.5415,W,1,10,0.8,12.1,M,-33.7,M,,*64
$PYRTM,2024,126.920147719572,18.029795129711
$GPGGA,220459.00,3357.7596,N,11927.5387,W,1,10,0.8,10.1,M,-33.7,M,,*6F
$PYRTM,2024,126.920159285509,18.029806695648
$GPGGA,220500.00,3357.7601,N,11927.5359,W,1,10,0.8,8.0,M,-33.7,M,,*54
$PYRTM,2024,126.920170873102,18.029818283241
$GPGGA,220501.00,3357.7606,N,11927.5331,W,1,10,0.8,8.1,M,-33.7,M,,*5D
$PYRTM,2024,126.920182432859,18.029829842998
$GPGGA,220502.00,3357.7610,N,11927.5303,W,1,10,0.8,8.4,M,-33.7,M,,*5D
$PYRTM,2024,126.920194020602,18.029841430741
$GPGGA,220503.00,3357.7614,N,11927.5275,W,1,10,0.8,11.3,M,-33.7,M,,*67
$PYRTM,2024,126.920205582593,18.029852992731
$GPGGA,220504.00,3357.7619,N,11927.5247,W,1,10,0.8,12.9,M,-33.7,M,,*65
$PYRTM,2024,126.920217172894,18.029864583032
$GPGGA,220505.00,3357.7624,N,11927.5218,W,1,10,0.8,13.1,M,-33.7,M,,*69
$PYRTM,2024,126.920228729456,18.029876139595
$GPGGA,220506.00,3357.7628,N,11927.5188,W,1,10,0.8,12.6,M,-33.7,M,,*6A
$PYRTM,2024,126.920240321516,18.029887731655
$GPGGA,220507.00,3357.7631,N,11927.5159,W,1,10,0.8,13.9,M,-33.7,M,,*61
$PYRTM,2024,126.920251881007,18.029899291146
$GPGGA,220508.00,3357.7634,N,11927.5129,W,1,10,0.8,15.5,M,-33.7,M,,*66
$PYRTM,2024,126.920263465787,18.029910875926
$GPGGA,220509.00,3357.7639,N,11927.5102,W,1,10,0.8,12.0,M,-33.7,M,,*61
$PYRTM,2024,126.920274100903,18.029921511042
$GPGGA,220510.00,3357.7644,N,11927.5075,W,1,10,0.8,9.8,M,-33.7,M,,*50
$PYRTM,2024,126.920287179942,18.029934590081
$GPGGA,220511.00,3357.7650,N,11927.5047,W,1,10,0.8,10.5,M,-33.7,M,,*60
$PYRTM,2024,126.920294947859,18.029942358009
$GPGGA,220512.00,3357.7655,N,11927.5021,W,1,10,0.8,8.1,M,-33.7,M,,*5B
$PYRTM,2024,126.920311500266,18.029958910405
$GPGGA,220513.00,3357.7659,N,11927.4994,W,1,10,0.8,9.0,M,-33.7,M,,*50
$PYRTM,2024,126.920322596493,18.029970006632
$GPGGA,220514.00,3357.7664,N,11927.4967,W,1,10,0.8,10.4,M,-33.7,M,,*69
$PYRTM,2024,126.920333608368,18.029981018507
$GPGGA,220515.00,3357.7668,N,11927.4939,W,1,10,0.8,7.6,M,-33.7,M,,*5B
$PYRTM,2024,126.920345630000,18.029993040139
$GPGGA,220516.00,3357.7671,N,11927.4911,W,1,10,0.8,8.8,M,-33.7,M,,*5B
$PYRTM,2024,126.920356622963,18.030004033102
$GPGGA,220517.00,3357.7675,N,11927.4883,W,1,10,0.8,9.9,M,-33.7,M,,*54
$PYRTM,2024,126.920366578426,18.030013988565
$GPGGA,220518.00,3357.7679,N,11927.4855,W,1,10,0.8,10.0,M,-33.6,M,,*6C
$PYRTM,2024,126.920378165880,18.030025576030
$GPGGA,220519.00,3357.7683,N,11927.4826,W,1,10,0.8,9.4,M,-33.6,M,,*50
$PYRTM,2024,126.920390205984,18.030037616123
$GPGGA,220520.00,3357.7687,N,11927.4797,W,1,10,0.8,7.0,M,-33.6,M,,*51
$PYRTM,2024,126.920402354826,18.030049764965
$GPGGA,220521.00,3357.7691,N,11927.4769,W,1,10,0.8,9.7,M,-33.6,M,,*5F
$PYRTM,2024,126.920413915590,18.030061325729
$GPGGA,220522.00,3357.7695,N,11927.4741,W,1,10,0.8,9.7,M,-33.6,M,,*52
$PYRTM,2024,126.920425503854,18.030072913993
$GPGGA,220523.00,3357.7699,N,11927.4713,W,1,10,0.8,8.5,M,-33.6,M,,*5B
$PYRTM,2024,126.920437066111,18.030084476250
$GPGGA,220524.00,3357.7703,N,11927.4685,W,1,10,0.8,10.8,M,-33.6,M,,*64
$PYRTM,2024,126.920448666065,18.030096076204
$GPGGA,220525.00,3357.7707,N,11927.4657,W,1,10,0.8,9.1,M,-33.6,M,,*5F
$PYRTM,2024,126.920460214039,18.030107624178
$GPGGA,220526.00,3357.7713,N,11927.4629,W,1,10,0.8,7.4,M,-33.6,M,,*5B
$PYRTM,2024,126.920471800486,18.030119210625
$GPGGA,220527.00,3357.7718,N,11927.4602,W,1,10,0.8,7.8,M,-33.6,M,,*54
$PYRTM,2024,126.920483361551,18.030130771690
$GPGGA,220528.00,3357.7723,N,11927.4575,W,1,10,0.8,7.2,M,-33.6,M,,*5A
$PYRTM,2024,126.920494943322,18.030142353461
$GPGGA,220529.00,3357.7727,N,11927.4548,W,1,10,0.8,7.4,M,-33.6,M,,*57
$PYRTM,2024,126.920506509456,18.030153919595
$GPGGA,220530.00,3357.7730,N,11927.4520,W,1,10,0.8,4.5,M,-33.6,M,,*55
$PYRTM,2024,126.920518097188,18.030165507326
$GPGGA,220531.00,3357.7735,N,11927.4491,W,1,10,0.8,7.0,M,-33.6,M,,*5C
$PYRTM,2024,126.920529657581,18.030177067731
$GPGGA,220532.00,3357.7740,N,11927.4462,W,1,10,0.8,6.6,M,-33.6,M,,*56
$PYRTM,2024,126.920541239965,18.030188650104
$GPGGA,220533.00,3357.7745,N,11927.4435,W,1,10,0.8,7.7,M,-33.6,M,,*50
$PYRTM,2024,126.920552807789,18.030200217928
$GPGGA,220534.00,3357.7749,N,11927.4406,W,1,10,0.8,6.1,M,-33.6,M,,*5C
$PYRTM,2024,126.920564408565,18.030211818704
$GPGGA,220535.00,3357.7753,N,11927.4378,W,1,10,0.8,6.7,M,-33.6,M,,*5E
$PYRTM,2024,126.920575953900,18.030223364039
$GPGGA,220536.00,3357.7757,N,11927.4350,W,1,10,0.8,7.0,M,-33.6,M,,*55
$PYRTM,2024,126.920587541308,18.030234951447
$GPGGA,220537.00,3357.7760,N,11927.4323,W,1,10,0.8,6.5,M,-33.6,M,,*50
$PYRTM,2024,126.920599102512,18.030246512650
$GPGGA,220538.00,3357.7763,N,11927.4294,W,1,10,0.8,5.4,M,-33.6,M,,*53
$PYRTM,2024,126.920610690185,18.030258100324
$GPGGA,220539.00,3357.7767,N,11927.4265,W,1,10,0.8,7.3,M,-33.6,M,,*5D
$PYRTM,2024,126.920622250972,18.030269661111
$GPGGA,220540.00,3357.7769,N,11927.4236,W,1,10,0.8,7.5,M,-33.6,M,,*5D
$PYRTM,2024,126.920632551574,18.030279961713
$GPGGA,220541.00,3357.7771,N,11927.4207,W,1,10,0.8,6.9,M,-33.6,M,,*5A
$PYRTM,2024,126.920644356447,18.030291766586
$GPGGA,220542.00,3357.7774,N,11927.4179,W,1,10,0.8,6.3,M,-33.6,M,,*5C
$PYRTM,2024,126.920656989028,18.030304399167
$GPGGA,220543.00,3357.7778,N,11927.4150,W,1,10,0.8,6.5,M,-33.6,M,,*5C
$PYRTM,2024,126.920668546748,18.030315956887
$GPGGA,220544.00,3357.7783,N,11927.4121,W,1,10,0.8,8.6,M,-33.6,M,,*54
$PYRTM,2024,126.920680139421,18.030327549572
$GPGGA,220545.00,3357.7787,N,11927.4094,W,1,10,0.8,9.9,M,-33.6,M,,*50
$PYRTM,2024,126.920691697523,18.030339107674
$GPGGA,220546.00,3357.7791,N,11927.4065,W,1,10,0.8,9.1,M,-33.6,M,,*52
$PYRTM,2024,126.920703282708,18.030350692847
$GPGGA,220547.00,3357.7795,N,11927.4037,W,1,10,0.8,8.7,M,-33.6,M,,*57
$PYRTM,2024,126.920714844630,18.030362254780
$GPGGA,220548.00,3357.7801,N,11927.4009,W,1,10,0.8,8.9,M,-33.6,M,,*59
$PYRTM,2024,126.920726430532,18.030373840671
$GPGGA,220549.00,3357.7807,N,11927.3982,W,1,10,0.8,9.6,M,-33.6,M,,*5D
$PYRTM,2024,126.920737993113,18.030385403252
$GPGGA,220550.00,3357.7812,N,11927.3955,W,1,10,0.8,9.4,M,-33.6,M,,*59
$PYRTM,2024,126.920750029468,18.030397439595
$GPGGA,220551.00,3357.7817,N,11927.3927,W,1,10,0.8,11.1,M,-33.6,M,,*64
$PYRTM,2024,126.920761140197,18.030408550336
$GPGGA,220552.00,3357.7820,N,11927.3899,W,1,10,0.8,10.0,M,-33.6,M,,*67
$PYRTM,2024,126.920772730880,18.030420141019
$GPGGA,220553.00,3357.7824,N,11927.3871,W,1,10,0.8,10.3,M,-33.6,M,,*67
$PYRTM,2024,126.920784288704,18.030431698843
$GPGGA,220554.00,3357.7829,N,11927.3844,W,1,10,0.8,10.3,M,-33.6,M,,*6B
$PYRTM,2024,126.920795875706,18.030443285845
$GPGGA,220555.00,3357.7834,N,11927.3816,W,1,10,0.8,11.4,M,-33.6,M,,*67
$PYRTM,2024,126.920807437859,18.030454847998
$GPGGA,220556.00,3357.7838,N,11927.3787,W,1,09,0.8,11.6,M,-33.6,M,,*65
$PYRTM,2024,126.920819024931,18.030466435081
$GPGGA,220557.00,3357.7842,N,11927.3758,W,1,10,0.8,9.5,M,-33.6,M,,*59
$PYRTM,2024,126.920830587118,18.030477997257
$GPGGA,220558.00,3357.7845,N,11927.3728,W,1,10,0.8,9.6,M,-33.6,M,,*55
$PYRTM,2024,126.920842167118,18.030489577257
$GPGGA,220559.00,3357.7850,N,11927.3700,W,1,10,0.8,6.6,M,-33.6,M,,*55
$PYRTM,2024,126.920853733854,18.030501143993
$GPGGA,220600.00,3357.7856,N,11927.3671,W,1,10,0.8,7.8,M,-33.6,M,,*54
$PYRTM,2024,126.920865321424,18.030512731563
$GPGGA,220601.00,3357.7862,N,11927.3643,W,1,10,0.8,8.2,M,-33.6,M,,*56
$PYRTM,2024,126.920876881146,18.030524291285
$GPGGA,220602.00,3357.7865,N,11927.3614,W,1,10,0.8,13.0,M,-33.6,M,,*68
$PYRTM,2024,126.920888483600,18.030535893738
$GPGGA,220603.00,3357.7869,N,11927.3586,W,1,10,0.8,10.5,M,-33.6,M,,*6B
$PYRTM,2024,126.920900030532,18.030547440671
$GPGGA,220604.00,3357.7872,N,11927.3558,W,1,10,0.8,8.3,M,-33.6,M,,*5A
$PYRTM,2024,126.920911616771,18.030559026910
$GPGGA,220605.00,3357.7877,N,11927.3530,W,1,10,0.8,8.9,M,-33.6,M,,*5A
$PYRTM,2024,126.920923180081,18.030570590220
$GPGGA,220606.00,3357.7882,N,11927.3501,W,1,10,0.8,9.2,M,-33.6,M,,*5B
$PYRTM,2024,126.920934768102,18.030582178241
$GPGGA,220607.00,3357.7885,N,11927.3473,W,1,10,0.8,8.7,M,-33.6,M,,*5D
$PYRTM,2024,126.920946327836,18.030593737975
$GPGGA,220608.00,3357.7888,N,11927.3447,W,1,10,0.8,7.2,M,-33.6,M,,*52
$PYRTM,2024,126.920957914560,18.030605324699
$GPGGA,220609.00,3357.7891,N,11927.3420,W,1,10,0.8,6.8,M,-33.6,M,,*51
$PYRTM,2024,126.920969474317,18.030616884456
$GPGGA,220610.00,3357.7897,N,11927.3392,W,1,10,0.8,9.0,M,-33.6,M,,*56
$PYRTM,2024,126.920979776123,18.030627186262
$GPGGA,220611.00,3357.7901,N,11927.3364,W,1,10,0.8,8.3,M,-33.6,M,,*52
$PYRTM,2024,126.920991581736,18.030638991875
$GPGGA,220612.00,3357.7905,N,11927.3336,W,1,10,0.8,7.5,M,-33.6,M,,*5B
$PYRTM,2024,126.921004224919,18.030651635069
$GPGGA,220613.00,3357.7908,N,11927.3309,W,1,10,0.8,8.3,M,-33.6,M,,*52
$PYRTM,2024,126.921015774896,18.030663185046
$GPGGA,220614.00,3357.7912,N,11927.3281,W,1,10,0.8,6.2,M,-33.6,M,,*50
$PYRTM,2024,126.921027359421,18.030674769560
$GPGGA,220615.00,3357.7917,N,11927.3254,W,1,10,0.8,8.1,M,-33.6,M,,*51
$PYRTM,2024,126.921038919815,18.030686329954
$GPGGA,220616.00,3357.7922,N,11927.3226,W,1,10,0.8,11.1,M,-33.6,M,,*69
$PYRTM,2024,126.921050502153,18.030697912292
$GPGGA,220617.00,3357.7926,N,11927.3197,W,1,10,0.8,9.7,M,-33.6,M,,*5A
$PYRTM,2024,126.921062070278,18.030709480417
$GPGGA,220618.00,3357.7930,N,11927.3168,W,1,10,0.8,9.3,M,-33.6,M,,*56
$PYRTM,2024,126.921073655995,18.030721066134
$GPGGA,220619.00,3357.7934,N,11927.3140,W,1,10,0.8,11.3,M,-33.6,M,,*60
$PYRTM,2024,126.921085217338,18.030732627488
$GPGGA,220620.00,3357.7939,N,11927.3111,W,1,10,0.8,12.1,M,-33.6,M,,*62
$PYRTM,2024,126.921096807245,18.030744217384
$GPGGA,220621.00,3357.7943,N,11927.3084,W,1,10,0.8,10.3,M,-33.6,M,,*63
$PYRTM,2024,126.921108841447,18.030756251586
$GPGGA,220622.00,3357.7948,N,11927.3057,W,1,10,0.8,10.0,M,-33.6,M,,*66
$PYRTM,2024,126.921119967141,18.030767377280
$GPGGA,220623.00,3357.7950,N,11927.3030,W,1,09,0.8,7.0,M,-33.6,M,,*51
$PYRTM,2024,126.921131513819,18.030778923958
$GPGGA,220624.00,3357.7954,N,11927.3004,W,1,09,0.8,8.5,M,-33.6,M,,*5F
$PYRTM,2024,126.921143101505,18.030790511644
$GPGGA,220625.00,3357.7958,N,11927.2976,W,1,09,0.8,6.8,M,-33.6,M,,*5C
$PYRTM,2024,126.921154661505,18.030802071644
$GPGGA,220626.00,3357.7962,N,11927.2948,W,1,09,0.8,4.3,M,-33.6,M,,*52
$PYRTM,2024,126.921166243600,18.030813653738
$GPGGA,220627.00,3357.7966,N,11927.2919,W,1,10,0.8,6.7,M,-33.6,M,,*5D
$PYRTM,2024,126.921177809664,18.030825219815
$GPGGA,220628.00,3357.7970,N,11927.2890,W,1,10,0.8,7.6,M,-33.6,M,,*55
$PYRTM,2024,126.921189396424,18.030836806563
$GPGGA,220629.00,3357.7974,N,11927.2862,W,1,10,0.8,9.9,M,-33.6,M,,*5C
$PYRTM,2024,126.921200958137,18.030848368275
$GPGGA,220630.00,3357.7979,N,11927.2833,W,1,10,0.8,8.6,M,-33.6,M,,*53
$PYRTM,2024,126.921212548692,18.030859958831
$GPGGA,220631.00,3357.7983,N,11927.2805,W,1,10,0.8,8.4,M,-33.6,M,,*50
$PYRTM,2024,126.921224106389,18.030871516678
$GPGGA,220632.00,3357.7987,N,11927.2778,W,1,10,0.8,6.1,M,-33.6,M,,*59
$PYRTM,2024,126.921235696852,18.030883106991
$GPGGA,220633.00,3357.7990,N,11927.2752,W,1,10,0.8,9.4,M,-33.6,M,,*5C
$PYRTM,2024,126.921247254248,18.030894664387
$GPGGA,220634.00,3357.7994,N,11927.2725,W,1,10,0.8,8.3,M,-33.6,M,,*59
$PYRTM,2024,126.921258840891,18.030906251030
$GPGGA,220635.00,3357.7999,N,11927.2698,W,1,10,0.8,9.4,M,-33.6,M,,*54
$PYRTM,2024,126.921270402940,18.030917813079
$GPGGA,220636.00,3357.8003,N,11927.2670,W,1,10,0.8,9.1,M,-33.6,M,,*51
$PYRTM,2024,126.921281993102,18.030929403241
$GPGGA,220637.00,3357.8007,N,11927.2641,W,1,10,0.8,9.4,M,-33.6,M,,*53
$PYRTM,2024,126.921293551262,18.030940961400
$GPGGA,220638.00,3357.8010,N,11927.2612,W,1,10,0.8,7.8,M,-33.6,M,,*5E
$PYRTM,2024,126.921305134479,18.030952544630
$GPGGA,220639.00,3357.8014,N,11927.2583,W,1,10,0.8,10.2,M,-33.6,M,,*6C
$PYRTM,2024,126.921316699664,18.030964109803
$GPGGA,220640.00,3357.8019,N,11927.2554,W,1,10,0.8,8.5,M,-33.6,M,,*5B
$PYRTM,2024,126.921327001123,18.030974411262
$GPGGA,220641.00,3357.8024,N,11927.2525,W,1,10,0.8,10.1,M,-33.6,M,,*6F
$PYRTM,2024,126.921338818113,18.030986228252
$GPGGA,220642.00,3357.8028,N,11927.2496,W,1,10,0.8,11.2,M,-33.6,M,,*6B
$PYRTM,2024,126.921351434479,18.030998844618
$GPGGA,220643.00,3357.8032,N,11927.2468,W,1,10,0.8,7.3,M,-33.6,M,,*56
$PYRTM,2024,126.921362998403,18.031010408542
$GPGGA,220644.00,3357.8036,N,11927.2441,W,1,10,0.8,9.6,M,-33.6,M,,*55
$PYRTM,2024,126.921374583368,18.031021993507
$GPGGA,220645.00,3357.8041,N,11927.2413,W,1,10,0.8,10.7,M,-33.6,M,,*6A
$PYRTM,2024,126.921386145104,18.031033555243
$GPGGA,220646.00,3357.8046,N,11927.2385,W,1,10,0.8,11.4,M,-33.6,M,,*64
$PYRTM,2024,126.921397731481,18.031045141620
$GPGGA,220647.00,3357.8050,N,11927.2356,W,1,10,0.8,11.5,M,-33.6,M,,*6D
$PYRTM,2024,126.921409292963,18.031056703102
$GPGGA,220648.00,3357.8053,N,11927.2327,W,1,10,0.8,9.1,M,-33.6,M,,*5A
$PYRTM,2024,126.921420881065,18.031068291204
$GPGGA,220649.00,3357.8055,N,11927.2299,W,1,10,0.8,10.3,M,-33.6,M,,*63
$PYRTM,2024,126.921432440880,18.031079851030
$GPGGA,220650.00,3357.8058,N,11927.2271,W,1,10,0.8,6.5,M,-33.6,M,,*51
$PYRTM,2024,126.921444031019,18.031091441157
$GPGGA,220651.00,3357.8061,N,11927.2244,W,1,10,0.8,8.5,M,-33.6,M,,*52
$PYRTM,2024,126.921455589803,18.031102999954
$GPGGA,220652.00,3357.8064,N,11927.2217,W,1,10,0.8,7.9,M,-33.6,M,,*51
$PYRTM,2024,126.921467626447,18.031115036586
$GPGGA,220653.00,3357.8067,N,11927.2189,W,1,10,0.8,5.3,M,-33.6,M,,*5F
$PYRTM,2024,126.921478736528,18.031126146667
$GPGGA,220654.00,3357.8071,N,11927.2161,W,1,10,0.8,8.1,M,-33.6,M,,*56
$PYRTM,2024,126.921490323495,18.031137733634
$GPGGA,220655.00,3357.8074,N,11927.2134,W,1,10,0.8,9.7,M,-33.6,M,,*55
$PYRTM,2024,126.921501884213,18.031149294352
$GPGGA,220656.00,3357.8079,N,11927.2105,W,1,10,0.8,6.9,M,-33.6,M,,*58
$PYRTM,2024,126.921513472593,18.031160882731
$GPGGA,220657.00,3357.8084,N,11927.2075,W,1,10,0.8,9.8,M,-33.6,M,,*53
$PYRTM,2024,126.921525032650,18.031172442789
$GPGGA,220658.00,3357.8088,N,11927.2047,W,1,10,0.8,8.8,M,-33.6,M,,*50
$PYRTM,2024,126.921536620428,18.031184030556
$GPGGA,220659.00,3357.8092,N,11927.2019,W,1,10,0.8,7.4,M,-33.6,M,,*52
$PYRTM,2024,126.921548183056,18.031195593194
$GPGGA,220700.00,3357.8097,N,11927.1991,W,1,10,0.8,5.8,M,-33.6,M,,*5E
$PYRTM,2024,126.921559771817,18.031207181956
$GPGGA,220701.00,3357.8102,N,11927.1962,W,1,10,0.8,6.5,M,-33.6,M,,*50
$PYRTM,2024,126.921571330995,18.031218741134
$GPGGA,220702.00,3357.8107,N,11927.1933,W,1,10,0.8,7.8,M,-33.6,M,,*5E
$PYRTM,2024,126.921582918449,18.031230328588
$GPGGA,220703.00,3357.8110,N,11927.1904,W,1,10,0.8,8.6,M,-33.6,M,,*5C
$PYRTM,2024,126.921594478310,18.031241888461
$GPGGA,220704.00,3357.8114,N,11927.1875,W,1,10,0.8,11.2,M,-33.6,M,,*64
$PYRTM,2024,126.921606067361,18.031253477500
$GPGGA,220705.00,3357.8118,N,11927.1848,W,1,10,0.8,6.0,M,-33.6,M,,*53
$PYRTM,2024,126.921617627546,18.031265037685
$GPGGA,220706.00,3357.8123,N,11927.1820,W,1,10,0.8,7.5,M,-33.6,M,,*52
$PYRTM,2024,126.921629214711,18.031276624850
$GPGGA,220707.00,3357.8128,N,11927.1792,W,1,09,0.8,9.5,M,-33.6,M,,*58
$PYRTM,2024,126.921640775579,18.031288185718
$GPGGA,220708.00,3357.8131,N,11927.1764,W,1,10,0.8,12.0,M,-33.6,M,,*61
$PYRTM,2024,126.921652365370,18.031299775521
$GPGGA,220709.00,3357.8133,N,11927.1736,W,1,10,0.8,9.5,M,-33.6,M,,*5A
$PYRTM,2024,126.921663924734,18.031311334873
$GPGGA,220710.00,3357.8137,N,11927.1708,W,1,10,0.8,9.0,M,-33.6,M,,*5E
$PYRTM,2024,126.921674584618,18.031321994757
$GPGGA,220711.00,3357.8142,N,11927.1680,W,1,10,0.8,8.4,M,-33.6,M,,*59
$PYRTM,2024,126.921686042442,18.031333452581
$GPGGA,220712.00,3357.8146,N,11927.1652,W,1,10,0.8,7.3,M,-33.6,M,,*59
$PYRTM,2024,126.921698658704,18.031346068854
$GPGGA,220713.00,3357.8150,N,11927.1624,W,1,10,0.8,8.3,M,-33.6,M,,*51
$PYRTM,2024,126.921710220567,18.031357630706
$GPGGA,220714.00,3357.8153,N,11927.1596,W,1,09,0.8,10.5,M,-33.6,M,,*68
$PYRTM,2024,126.921720877442,18.031368287581
$GPGGA,220715.00,3357.8157,N,11927.1568,W,1,10,0.8,7.5,M,-33.6,M,,*52
$PYRTM,2024,126.921732802940,18.031380213079
$GPGGA,220716.00,3357.8162,N,11927.1542,W,1,09,0.8,7.3,M,-33.6,M,,*51
$PYRTM,2024,126.921743450637,18.031390860787
$GPGGA,220717.00,3357.8166,N,11927.1515,W,1,10,0.8,10.4,M,-33.6,M,,*6F
$PYRTM,2024,126.921754562187,18.031401972326
$GPGGA,220718.00,3357.8170,N,11927.1487,W,1,10,0.8,10.4,M,-33.6,M,,*6D
$PYRTM,2024,126.921765558241,18.031412968380
$GPGGA,220719.00,3357.8174,N,11927.1458,W,1,10,0.8,7.5,M,-33.6,M,,*5D
$PYRTM,2024,126.921776667662,18.031424077801
$GPGGA,220720.00,3357.8178,N,11927.1429,W,1,10,0.8,7.7,M,-33.6,M,,*5F
$PYRTM,2024,126.921787659074,18.031435069213
$GPGGA,220721.00,3357.8183,N,11927.1401,W,1,10,0.8,7.3,M,-33.6,M,,*54
$PYRTM,2024,126.921798662512,18.031446072650
$GPGGA,220722.00,3357.8187,N,11927.1373,W,1,10,0.8,9.5,M,-33.6,M,,*59
$PYRTM,2024,126.921809770567,18.031457180706
$GPGGA,220723.00,3357.8190,N,11927.1345,W,1,10,0.8,10.3,M,-33.6,M,,*65
$PYRTM,2024,126.921821331528,18.031468741667
$GPGGA,220724.00,3357.8194,N,11927.1316,W,1,10,0.8,8.7,M,-33.6,M,,*5D
$PYRTM,2024,126.921832803009,18.031480213148
$GPGGA,220725.00,3357.8198,N,11927.1287,W,1,10,0.8,7.6,M,-33.6,M,,*57
$PYRTM,2024,126.921843915613,18.031491325752
$GPGGA,220726.00,3357.8203,N,11927.1259,W,1,10,0.8,8.1,M,-33.6,M,,*5E
$PYRTM,2024,126.921855489873,18.031502900012
$GPGGA,220727.00,3357.8206,N,11927.1230,W,1,10,0.8,7.5,M,-33.6,M,,*5E
$PYRTM,2024,126.921867062326,18.031514472465
$GPGGA,220728.00,3357.8210,N,11927.1202,W,1,10,0.8,7.0,M,-33.6,M,,*52
$PYRTM,2024,126.921878636296,18.031526046435
$GPGGA,220729.00,3357.8215,N,11927.1174,W,1,10,0.8,8.9,M,-33.6,M,,*52
$PYRTM,2024,126.921890210660,18.031537620799
$GPGGA,220730.00,3357.8219,N,11927.1146,W,1,10,0.8,5.8,M,-33.6,M,,*5B
$PYRTM,2024,126.921901784167,18.031549194306
$GPGGA,220731.00,3357.8223,N,11927.1117,W,1,10,0.8,6.9,M,-33.6,M,,*55
$PYRTM,2024,126.921913362766,18.031560772905
$GPGGA,220732.00,3357.8227,N,11927.1088,W,1,10,0.8,7.7,M,-33.6,M,,*5A
$PYRTM,2024,126.921924933819,18.031572343958
$GPGGA,220733.00,3357.8232,N,11927.1060,W,1,10,0.8,7.2,M,-33.6,M,,*5C
$PYRTM,2024,126.921936507940,18.031583918079
$GPGGA,220734.00,3357.8237,N,11927.1031,W,1,10,0.8,10.8,M,-33.6,M,,*66
$PYRTM,2024,126.921948082188,18.031595492326
$GPGGA,220735.00,3357.8241,N,11927.1002,W,1,10,0.8,12.8,M,-33.6,M,,*64
$PYRTM,2024,126.921959656493,18.031607066632
$GPGGA,220736.00,3357.8244,N,11927.0973,W,1,10,0.8,12.2,M,-33.6,M,,*66
$PYRTM,2024,126.921971230486,18.031618640625
$GPGGA,220737.00,3357.8249,N,11927.0944,W,1,10,0.8,13.4,M,-33.6,M,,*69
$PYRTM,2024,126.921982804734,18.031630214873
$GPGGA,220738.00,3357.8254,N,11927.0915,W,1,10,0.8,14.6,M,-33.6,M,,*6B
$PYRTM,2024,126.921994378519,18.031641788657
$GPGGA,220739.00,3357.8259,N,11927.0886,W,1,10,0.8,14.8,M,-33.6,M,,*62
$PYRTM,2024,126.922005952118,18.031653362257
$GPGGA,220740.00,3357.8262,N,11927.0857,W,1,10,0.8,13.6,M,-33.6,M,,*61
$PYRTM,2024,126.922022734306,18.031670144444
$GPGGA,220741.00,3357.8265,N,11927.0827,W,1,10,0.8,13.3,M,-33.6,M,,*65
$PYRTM,2024,126.922034295718,18.031681705868
$GPGGA,220742.00,3357.8268,N,11927.0799,W,1,10,0.8,12.5,M,-33.6,M,,*66
$PYRTM,2024,126.922045883333,18.031693293472
$GPGGA,220743.00,3357.8272,N,11927.0770,W,1,10,0.8,12.6,M,-33.6,M,,*68
$PYRTM,2024,126.922057443634,18.031704853773
$GPGGA,220744.00,3357.8277,N,11927.0741,W,1,10,0.8,10.8,M,-33.6,M,,*64
$PYRTM,2024,126.922069031042,18.031716441181
$GPGGA,220745.00,3357.8280,N,11927.0714,W,1,10,0.8,14.0,M,-33.6,M,,*61
$PYRTM,2024,126.922080593669,18.031728003808
$GPGGA,220746.00,3357.8284,N,11927.0686,W,1,10,0.8,12.7,M,-33.6,M,,*6D
$PYRTM,2024,126.922092182639,18.031739592778
$GPGGA,220747.00,3357.8289,N,11927.0658,W,1,10,0.8,13.7,M,-33.6,M,,*63
$PYRTM,2024,126.922103740394,18.031751150532
$GPGGA,220748.00,3357.8293,N,11927.0630,W,1,10,0.8,10.5,M,-33.6,M,,*68
$PYRTM,2024,126.922115331042,18.031762741181
$GPGGA,220749.00,3357.8295,N,11927.0601,W,1,10,0.8,10.3,M,-33.6,M,,*6B
$PYRTM,2024,126.922126890440,18.031774300579
$GPGGA,220750.00,3357.8297,N,11927.0574,W,1,10,0.8,7.9,M,-33.6,M,,*5C
$PYRTM,2024,126.922138475949,18.031785886100
$GPGGA,220751.00,3357.8301,N,11927.0545,W,1,10,0.8,5.9,M,-33.6,M,,*53
$PYRTM,2024,126.922150037708,18.031797447847
$GPGGA,220752.00,3357.8306,N,11927.0517,W,1,10,0.8,6.9,M,-33.6,M,,*53
$PYRTM,2024,126.922161624294,18.031809034433
$GPGGA,220753.00,3357.8313,N,11927.0488,W,1,10,0.8,6.9,M,-33.6,M,,*51
$PYRTM,2024,126.922173186759,18.031820596898
$GPGGA,220754.00,3357.8317,N,11927.0460,W,1,10,0.8,7.6,M,-33.6,M,,*5A
$PYRTM,2024,126.922184774525,18.031832184664
$GPGGA,220755.00,3357.8319,N,11927.0433,W,1,10,0.8,10.3,M,-33.6,M,,*60
$PYRTM,2024,126.922196335289,18.031843745440
$GPGGA,220756.00,3357.8322,N,11927.0405,W,1,10,0.8,11.1,M,-33.6,M,,*6D
$PYRTM,2024,126.922207935926,18.031855346076
$GPGGA,220757.00,3357.8326,N,11927.0378,W,1,10,0.8,11.2,M,-33.6,M,,*66
$PYRTM,2024,126.922219482431,18.031866892581
$GPGGA,220758.00,3357.8330,N,11927.0351,W,1,10,0.8,10.6,M,-33.6,M,,*60
$PYRTM,2024,126.922231071991,18.031878482141
$GPGGA,220759.00,3357.8333,N,11927.0324,W,1,10,0.8,10.5,M,-33.6,M,,*63
$PYRTM,2024,126.922242631933,18.031890042072
$GPGGA,220800.00,3357.8335,N,11927.0297,W,1,10,0.8,11.5,M,-33.6,M,,*6E
$PYRTM,2024,126.922254218148,18.031901628287
$GPGGA,220801.00,3357.8338,N,11927.0269,W,1,10,0.8,10.1,M,-33.6,M,,*66
$PYRTM,2024,126.922265779213,18.031913189363
$GPGGA,220802.00,3357.8342,N,11927.0239,W,1,10,0.8,10.4,M,-33.6,M,,*68
$PYRTM,2024,126.922277367014,18.031924777153
$GPGGA,220803.00,3357.8346,N,11927.0209,W,1,10,0.8,8.6,M,-33.6,M,,*55
$PYRTM,2024,126.922288926632,18.031936336771
$GPGGA,220804.00,3357.8351,N,11927.0180,W,1,10,0.8,9.5,M,-33.6,M,,*54
$PYRTM,2024,126.922300515683,18.031947925822
$GPGGA,220805.00,3357.8357,N,11927.0151,W,1,10,0.8,11.7,M,-33.6,M,,*64
$PYRTM,2024,126.922312077488,18.031959487627
$GPGGA,220806.00,3357.8361,N,11927.0124,W,1,10,0.8,13.9,M,-33.6,M,,*6C
$PYRTM,2024,126.922323665185,18.031971075324
$GPGGA,220807.00,3357.8367,N,11927.0095,W,1,10,0.8,14.4,M,-33.6,M,,*6A
$PYRTM,2024,126.922335222396,18.031982632535
$GPGGA,220808.00,3357.8372,N,11927.0068,W,1,10,0.8,14.7,M,-33.6,M,,*60
$PYRTM,2024,126.922346810833,18.031994220972
$GPGGA,220809.00,3357.8377,N,11927.0040,W,1,10,0.8,16.0,M,-33.6,M,,*6B
$PYRTM,2024,126.922358371840,18.032005781979
$GPGGA,220810.00,3357.8381,N,11927.0013,W,1,10,0.8,13.0,M,-33.6,M,,*69
$PYRTM,2024,126.922368672593,18.032016082731
$GPGGA,220811.00,3357.8385,N,11926.9985,W,1,10,0.8,11.8,M,-33.6,M,,*68
$PYRTM,2024,126.922380485694,18.032027895833
$GPGGA,220812.00,3357.8390,N,11926.9957,W,1,10,0.8,13.2,M,-33.6,M,,*68
$PYRTM,2024,126.922393106111,18.032040516250
$GPGGA,220813.00,3357.8394,N,11926.9928,W,1,10,0.8,14.6,M,-33.6,M,,*66
$PYRTM,2024,126.922404667998,18.032052078137
$GPGGA,220814.00,3357.8397,N,11926.9898,W,1,09,0.8,15.0,M,-33.6,M,,*67
$PYRTM,2024,126.922416255023,18.032063665162
$GPGGA,220815.00,3357.8400,N,11926.9869,W,1,10,0.8,12.1,M,-33.6,M,,*6F
$PYRTM,2024,126.922427815741,18.032075225880
$GPGGA,220816.00,3357.8404,N,11926.9841,W,1,10,0.8,11.6,M,-33.6,M,,*66
$PYRTM,2024,126.922439406053,18.032086816192
$GPGGA,220817.00,3357.8408,N,11926.9814,W,1,10,0.8,10.7,M,-33.6,M,,*6B
$PYRTM,2024,126.922450965451,18.032098375590
$GPGGA,220818.00,3357.8412,N,11926.9786,W,1,10,0.8,7.1,M,-33.6,M,,*5B
$PYRTM,2024,126.922462555197,18.032109965336
$GPGGA,220819.00,3357.8417,N,11926.9759,W,1,10,0.8,5.9,M,-33.6,M,,*57
$PYRTM,2024,126.922474113912,18.032121524051
$GPGGA,220820.00,3357.8421,N,11926.9732,W,1,10,0.8,5.8,M,-33.6,M,,*54
$PYRTM,2024,126.922485706204,18.032133116343
$GPGGA,220821.00,3357.8425,N,11926.9703,W,1,10,0.8,5.6,M,-33.6,M,,*5D
$PYRTM,2024,126.922497266759,18.032144676898
$GPGGA,220822.00,3357.8429,N,11926.9675,W,1,10,0.8,4.2,M,-33.6,M,,*57
$PYRTM,2024,126.922508843981,18.032156254120
$GPGGA,220823.00,3357.8434,N,11926.9647,W,1,10,0.8,7.5,M,-33.6,M,,*5F
$PYRTM,2024,126.922520408796,18.032167818935
$GPGGA,220824.00,3357.8439,N,11926.9618,W,1,10,0.8,8.4,M,-33.6,M,,*51
$PYRTM,2024,126.922532000116,18.032179410266
$GPGGA,220825.00,3357.8444,N,11926.9588,W,1,10,0.8,10.1,M,-33.6,M,,*6C
$PYRTM,2024,126.922543556829,18.032190966968
$GPGGA,220826.00,3357.8449,N,11926.9558,W,1,10,0.8,13.1,M,-33.6,M,,*6C
$PYRTM,2024,126.922555154514,18.032202564653
$GPGGA,220827.00,3357.8454,N,11926.9529,W,1,10,0.8,13.1,M,-33.6,M,,*67
$PYRTM,2024,126.922566705417,18.032214115556
$GPGGA,220828.00,3357.8458,N,11926.9500,W,1,10,0.8,13.7,M,-33.6,M,,*69
$PYRTM,2024,126.922578293414,18.032225703553
$GPGGA,220829.00,3357.8462,N,11926.9471,W,1,10,0.8,12.7,M,-33.6,M,,*67
$PYRTM,2024,126.922589854340,18.032237264479
$GPGGA,220830.00,3357.8466,N,11926.9444,W,1,10,0.8,13.3,M,-33.6,M,,*68
$PYRTM,2024,126.922601443356,18.032248853495
$GPGGA,220831.00,3357.8470,N,11926.9418,W,1,10,0.8,12.6,M,-33.6,M,,*63
$PYRTM,2024,126.922613002558,18.032260412697
$GPGGA,220832.00,3357.8474,N,11926.9391,W,1,10,0.8,13.4,M,-33.6,M,,*61
$PYRTM,2024,126.922624590000,18.032272000139
$GPGGA,220833.00,3357.8479,N,11926.9364,W,1,10,0.8,10.8,M,-33.6,M,,*68
$PYRTM,2024,126.922636150938,18.032283561076
$GPGGA,220834.00,3357.8483,N,11926.9335,W,1,10,0.8,11.3,M,-33.6,M,,*64
$PYRTM,2024,126.922647741528,18.032295151667
$GPGGA,220835.00,3357.8486,N,11926.9306,W,1,10,0.8,11.8,M,-33.6,M,,*6B
$PYRTM,2024,126.922659298970,18.032306709109
$GPGGA,220836.00,3357.8488,N,11926.9277,W,1,10,0.8,10.7,M,-33.6,M,,*6F
$PYRTM,2024,126.922670891042,18.032318301181
$GPGGA,220837.00,3357.8491,N,11926.9249,W,1,10,0.8,11.1,M,-33.6,M,,*6C
$PYRTM,2024,126.922682447558,18.032329857697
$GPGGA,220838.00,3357.8495,N,11926.9221,W,1,10,0.8,9.4,M,-33.6,M,,*55
