$PYRTM,2024,125.742575296794,16.852222706933
$GNGGA,174918.50,3503.32670340,N,12208.70353909,W,2,11,0.9,7.216,M,-39.417,M,4.4,0131*6E
$PYRTM,2024,125.742575296794,16.852222706933
$GNHDT,173.574,T*28
$PYRTM,2024,125.742581135972,16.852228546111
$GNGGA,174919.00,3503.32523293,N,12208.70341808,W,2,11,0.9,6.903,M,-39.417,M,5.0,0131*68
$PYRTM,2024,125.742581135972,16.852228546111
$GNHDT,173.047,T*2D
$PYRTM,2024,125.742586875312,16.852234285451
$GNGGA,174919.50,3503.32380439,N,12208.70331814,W,2,11,0.9,6.652,M,-39.417,M,5.4,0131*61
$PYRTM,2024,125.742586875312,16.852234285451
$GNHDT,172.544,T*2A
$PYRTM,2024,125.742592708044,16.852240118183
$GNGGA,174920.00,3503.32242245,N,12208.70319264,W,2,11,0.9,6.444,M,-39.417,M,6.0,0131*69
$PYRTM,2024,125.742592708044,16.852240118183
$GNHDT,172.008,T*27
$PYRTM,2024,125.742598449039,16.852245859190
$GNGGA,174920.50,3503.32108610,N,12208.70299390,W,2,11,0.9,6.356,M,-39.417,M,6.4,0131*66
$PYRTM,2024,125.742598449039,16.852245859190
$GNHDT,171.401,T*29
$PYRTM,2024,125.742604282627,16.852251692766
$GNGGA,174921.00,3503.31978156,N,12208.70270929,W,2,11,0.9,6.366,M,-39.417,M,7.0,0131*62
$PYRTM,2024,125.742604282627,16.852251692766
$GNHDT,171.000,T*2C
$PYRTM,2024,125.742610020567,16.852257430706
$GNGGA,174921.50,3503.31850096,N,12208.70236931,W,2,11,0.9,6.402,M,-39.417,M,7.4,0131*6B
$PYRTM,2024,125.742610020567,16.852257430706
$GNHDT,170.683,T*20
$PYRTM,2024,125.742615857211,16.852263267350
$GNGGA,174922.00,3503.31723775,N,12208.70201696,W,2,11,0.9,6.403,M,-39.417,M,7.0,0131*6F
$PYRTM,2024,125.742615857211,16.852263267350
$GNHDT,169.964,T*2E
$PYRTM,2024,125.742621594120,16.852269004271
$GNGGA,174922.50,3503.31598237,N,12208.70172952,W,2,11,0.9,6.311,M,-39.417,M,7.4,0131*6B
$PYRTM,2024,125.742621594120,16.852269004271
$GNHDT,169.547,T*23
$PYRTM,2024,125.742627433113,16.852274843252
$GNGGA,174923.00,3503.31472741,N,12208.70154535,W,2,11,0.9,6.130,M,-39.417,M,7.0,0131*62
$PYRTM,2024,125.742627433113,16.852274843252
$GNHDT,169.181,T*2D
$PYRTM,2024,125.742633167118,16.852280577269
$GNGGA,174923.50,3503.31346037,N,12208.70147246,W,2,11,0.9,5.880,M,-39.417,M,7.4,0131*65
$PYRTM,2024,125.742633167118,16.852280577269
$GNHDT,169.254,T*26
$PYRTM,2024,125.742639007199,16.852286417338
$GNGGA,174924.00,3503.31218359,N,12208.70147552,W,2,11,0.9,5.640,M,-39.417,M,4.0,0131*61
$PYRTM,2024,125.742639007199,16.852286417338
$GNHDT,169.389,T*27
$PYRTM,2024,125.742644743646,16.852292153785
$GNGGA,174924.50,3503.31088994,N,12208.70148153,W,2,11,0.9,5.485,M,-39.417,M,4.4,0131*61
$PYRTM,2024,125.742644743646,16.852292153785
$GNHDT,169.884,T*21
$PYRTM,2024,125.742650577928,16.852297988067
$GNGGA,174925.00,3503.30957267,N,12208.70145075,W,2,11,0.9,5.490,M,-39.417,M,5.0,0131*61
$PYRTM,2024,125.742650577928,16.852297988067
$GNHDT,170.292,T*24
$PYRTM,2024,125.742656317384,16.852303727523
$GNGGA,174925.50,3503.30822412,N,12208.70134354,W,2,11,0.9,5.628,M,-39.417,M,5.4,0131*60
$PYRTM,2024,125.742656317384,16.852303727523
$GNHDT,170.792,T*21
$PYRTM,2024,125.742662153438,16.852309563588
$GNGGA,174926.00,3503.30683329,N,12208.70114014,W,2,11,0.9,5.882,M,-39.417,M,6.0,0131*60
$PYRTM,2024,125.742662153438,16.852309563588
$GNHDT,171.177,T*2D
$PYRTM,2024,125.742667892303,16.852315302454
$GNGGA,174926.50,3503.30541765,N,12208.70084220,W,2,11,0.9,6.231,M,-39.418,M,6.4,0131*63
$PYRTM,2024,125.742667892303,16.852315302454
$GNHDT,171.861,T*23
$PYRTM,2024,125.742673726562,16.852321136701
$GNGGA,174927.00,3503.30398441,N,12208.70044568,W,2,11,0.9,6.656,M,-39.418,M,7.0,0131*67
$PYRTM,2024,125.742673726562,16.852321136701
$GNHDT,172.361,T*2B
$PYRTM,2024,125.742679467037,16.852326877176
$GNGGA,174927.50,3503.30255684,N,12208.70001246,W,2,11,0.9,7.096,M,-39.418,M,7.4,0131*6C
$PYRTM,2024,125.742679467037,16.852326877176
$GNHDT,172.867,T*26
$PYRTM,2024,125.742685301134,16.852332711273
$GNGGA,174928.00,3503.30112335,N,12208.69957243,W,2,11,0.9,7.483,M,-39.418,M,7.0,0131*6A
$PYRTM,2024,125.742685301134,16.852332711273
$GNHDT,172.825,T*20
$PYRTM,2024,125.742691040012,16.852338450150
$GNGGA,174928.50,3503.29967929,N,12208.69920376,W,2,11,0.9,7.702,M,-39.418,M,7.4,0131*63
$PYRTM,2024,125.742691040012,16.852338450150
$GNHDT,172.804,T*23
$PYRTM,2024,125.742696882384,16.852344292523
$GNGGA,174929.00,3503.29821258,N,12208.69895634,W,2,11,0.9,7.682,M,-39.418,M,7.0,0131*68
$PYRTM,2024,125.742696882384,16.852344292523
$GNHDT,172.706,T*2E
$PYRTM,2024,125.742702611192,16.852350021331
$GNGGA,174929.50,3503.29673425,N,12208.69879599,W,2,11,0.9,7.420,M,-39.418,M,7.4,0131*60
$PYRTM,2024,125.742702611192,16.852350021331
$GNHDT,172.473,T*2F
$PYRTM,2024,125.742708449479,16.852355859618
$GNGGA,174930.00,3503.29525769,N,12208.69867736,W,2,11,0.9,7.035,M,-39.418,M,4.0,0131*69
$PYRTM,2024,125.742708449479,16.852355859618
$GNHDT,172.177,T*2E
$PYRTM,2024,125.742714186620,16.852361596759
$GNGGA,174930.50,3503.29381472,N,12208.69854811,W,2,11,0.9,6.641,M,-39.418,M,4.4,0131*67
$PYRTM,2024,125.742714186620,16.852361596759
$GNHDT,172.083,T*24
$PYRTM,2024,125.742720020255,16.852367430394
$GNGGA,174931.00,3503.29242387,N,12208.69835200,W,2,11,0.9,6.372,M,-39.418,M,5.0,0131*6D
$PYRTM,2024,125.742720020255,16.852367430394
$GNHDT,171.796,T*24
$PYRTM,2024,125.742725760174,16.852373170313
$GNGGA,174931.50,3503.29108607,N,12208.69806656,W,2,11,0.9,6.322,M,-39.418,M,5.4,0131*6E
$PYRTM,2024,125.742725760174,16.852373170313
$GNHDT,171.668,T*24
$PYRTM,2024,125.742731602315,16.852379012454
$GNGGA,174932.00,3503.28979355,N,12208.69770172,W,2,11,0.9,6.470,M,-39.418,M,6.0,0131*6D
$PYRTM,2024,125.742731602315,16.852379012454
$GNHDT,171.487,T*27
$PYRTM,2024,125.742737337523,16.852384747662
$GNGGA,174932.50,3503.28854244,N,12208.69730189,W,2,11,0.9,6.717,M,-39.418,M,6.4,0131*61
$PYRTM,2024,125.742737337523,16.852384747662
$GNHDT,171.157,T*2F
$PYRTM,2024,125.742743173472,16.852390583611
$GNGGA,174933.00,3503.28728344,N,12208.69692366,W,2,11,0.9,6.952,M,-39.418,M,7.0,0131*60
$PYRTM,2024,125.742743173472,16.852390583611
$GNHDT,171.057,T*2E
$PYRTM,2024,125.742748913229,16.852396323368
$GNGGA,174933.50,3503.28600412,N,12208.69664839,W,2,11,0.9,6.982,M,-39.418,M,7.4,0131*6B
$PYRTM,2024,125.742748913229,16.852396323368
$GNHDT,170.768,T*24
$PYRTM,2024,125.742754747789,16.852402157928
$GNGGA,174934.00,3503.28469594,N,12208.69652403,W,2,11,0.9,6.842,M,-39.418,M,7.0,0131*62
$PYRTM,2024,125.742754747789,16.852402157928
$GNHDT,171.019,T*24
$PYRTM,2024,125.742760486458,16.852407896597
$GNGGA,174934.50,3503.28337478,N,12208.69649613,W,2,11,0.9,6.584,M,-39.418,M,7.4,0131*62
$PYRTM,2024,125.742760486458,16.852407896597
$GNHDT,171.239,T*24
$PYRTM,2024,125.742766319583,16.852413729722
$GNGGA,174935.00,3503.28205307,N,12208.69653302,W,2,11,0.9,6.314,M,-39.418,M,7.0,0131*6C
$PYRTM,2024,125.742766319583,16.852413729722
$GNHDT,171.692,T*21
$PYRTM,2024,125.742772060567,16.852419470718
$GNGGA,174935.50,3503.28074350,N,12208.69653604,W,2,11,0.9,6.148,M,-39.418,M,7.4,0131*63
$PYRTM,2024,125.742772060567,16.852419470718
$GNHDT,171.969,T*2A
$PYRTM,2024,125.742777891019,16.852425301157
$GNGGA,174936.00,3503.27942579,N,12208.69645955,W,2,11,0.9,6.109,M,-39.418,M,4.0,0131*65
$PYRTM,2024,125.742777891019,16.852425301157
$GNHDT,172.333,T*2C
$PYRTM,2024,125.742783632141,16.852431042280
$GNGGA,174936.50,3503.27809209,N,12208.69628221,W,2,11,0.9,6.182,M,-39.418,M,4.4,0131*6A
$PYRTM,2024,125.742783632141,16.852431042280
$GNHDT,172.627,T*2C
$PYRTM,2024,125.742789470023,16.852436880162
$GNGGA,174937.00,3503.27672881,N,12208.69601066,W,2,11,0.9,6.317,M,-39.418,M,5.0,0131*67
$PYRTM,2024,125.742789470023,16.852436880162
$GNHDT,172.962,T*22
$PYRTM,2024,125.742795207130,16.852442617269
$GNGGA,174937.50,3503.27533501,N,12208.69569943,W,2,11,0.9,6.438,M,-39.418,M,5.4,0131*6C
$PYRTM,2024,125.742795207130,16.852442617269
$GNHDT,173.151,T*2B
$PYRTM,2024,125.742801043669,16.852448453819
$GNGGA,174938.00,3503.27392437,N,12208.69538371,W,2,11,0.9,6.490,M,-39.418,M,6.0,0131*65
$PYRTM,2024,125.742801043669,16.852448453819
$GNHDT,173.145,T*2E
$PYRTM,2024,125.742806776910,16.852454187049
$GNGGA,174938.50,3503.27249960,N,12208.69510875,W,2,11,0.9,6.495,M,-39.418,M,6.4,0131*6C
$PYRTM,2024,125.742806776910,16.852454187049
$GNHDT,173.471,T*2C
$PYRTM,2024,125.742812616134,16.852460026273
$GNGGA,174939.00,3503.27107073,N,12208.69488049,W,2,11,0.9,6.492,M,-39.418,M,7.0,0131*6F
$PYRTM,2024,125.742812616134,16.852460026273
$GNHDT,173.568,T*25
$PYRTM,2024,125.742818358877,16.852465769016
$GNGGA,174939.50,3503.26964777,N,12208.69472193,W,2,11,0.9,6.547,M,-39.418,M,7.4,0131*6B
$PYRTM,2024,125.742818358877,16.852465769016
$GNHDT,173.704,T*2D
$PYRTM,2024,125.742824188866,16.852471599005
$GNGGA,174940.00,3503.26823126,N,12208.69459407,W,2,11,0.9,6.657,M,-39.418,M,7.0,0131*67
$PYRTM,2024,125.742824188866,16.852471599005
$GNHDT,173.683,T*23
$PYRTM,2024,125.742829928218,16.852477338356
$GNGGA,174940.50,3503.26681350,N,12208.69445589,W,2,11,0.9,6.775,M,-39.418,M,7.4,0131*68
$PYRTM,2024,125.742829928218,16.852477338356
$GNHDT,173.514,T*2E
$PYRTM,2024,125.742835766678,16.852483176817
$GNGGA,174941.00,3503.26539209,N,12208.69430495,W,2,11,0.9,6.833,M,-39.418,M,7.0,0131*66
$PYRTM,2024,125.742835766678,16.852483176817
$GNHDT,173.314,T*28
$PYRTM,2024,125.742841501215,16.852488911354
$GNGGA,174941.50,3503.26397588,N,12208.69413432,W,2,11,0.9,6.833,M,-39.418,M,7.4,0131*67
$PYRTM,2024,125.742841501215,16.852488911354
$GNHDT,173.166,T*2F
$PYRTM,2024,125.742847341273,16.852494751424
$GNGGA,174942.00,3503.26257773,N,12208.69394947,W,2,11,0.9,6.779,M,-39.418,M,4.0,0131*6B
$PYRTM,2024,125.742847341273,16.852494751424
$GNHDT,172.932,T*27
$PYRTM,2024,125.742853075694,16.852500485833
$GNGGA,174942.50,3503.26121180,N,12208.69376253,W,2,11,0.9,6.719,M,-39.418,M,4.4,0131*66
$PYRTM,2024,125.742853075694,16.852500485833
$GNHDT,172.874,T*24
$PYRTM,2024,125.742858911100,16.852506321238
$GNGGA,174943.00,3503.25986754,N,12208.69354770,W,2,11,0.9,6.658,M,-39.418,M,5.0,0131*6E
$PYRTM,2024,125.742858911100,16.852506321238
$GNHDT,172.559,T*26
$PYRTM,2024,125.742864650475,16.852512060625
$GNGGA,174943.50,3503.25853877,N,12208.69332448,W,2,11,0.9,6.632,M,-39.418,M,5.4,0131*6C
$PYRTM,2024,125.742864650475,16.852512060625
$GNHDT,172.207,T*2A
$PYRTM,2024,125.742870484780,16.852517894919
$GNGGA,174944.00,3503.25721161,N,12208.69308146,W,2,11,0.9,6.619,M,-39.418,M,6.0,0131*66
$PYRTM,2024,125.742870484780,16.852517894919
$GNHDT,172.178,T*21
$PYRTM,2024,125.742876219051,16.852523629190
$GNGGA,174944.50,3503.25588479,N,12208.69283944,W,2,11,0.9,6.609,M,-39.418,M,6.4,0131*63
$PYRTM,2024,125.742876219051,16.852523629190
$GNHDT,172.163,T*2B
$PYRTM,2024,125.742882058275,16.852529468414
$GNGGA,174945.00,3503.25456406,N,12208.69261160,W,2,11,0.9,6.561,M,-39.418,M,7.0,0131*67
$PYRTM,2024,125.742882058275,16.852529468414
$GNHDT,171.929,T*2E
$PYRTM,2024,125.742887802350,16.852535212488
$GNGGA,174945.50,3503.25324871,N,12208.69239774,W,2,11,0.9,6.525,M,-39.418,M,7.4,0131*66
$PYRTM,2024,125.742887802350,16.852535212488
$GNHDT,171.625,T*2D
$PYRTM,2024,125.742893634745,16.852541044884
$GNGGA,174946.00,3503.25194605,N,12208.69220451,W,2,11,0.9,6.486,M,-39.418,M,7.0,0131*64
$PYRTM,2024,125.742893634745,16.852541044884
$GNHDT,171.464,T*2A
$PYRTM,2024,125.742899376979,16.852546787118
$GNGGA,174946.50,3503.25063733,N,12208.69203261,W,2,11,0.9,6.450,M,-39.418,M,7.4,0131*67
$PYRTM,2024,125.742899376979,16.852546787118
$GNHDT,171.637,T*2E
$PYRTM,2024,125.742905213079,16.852552623229
$GNGGA,174947.00,3503.24930559,N,12208.69188271,W,2,11,0.9,6.364,M,-39.418,M,7.0,0131*66
$PYRTM,2024,125.742905213079,16.852552623229
$GNHDT,171.929,T*2E
$PYRTM,2024,125.742910946644,16.852558356794
$GNGGA,174947.50,3503.24794125,N,12208.69175268,W,2,11,0.9,6.229,M,-39.418,M,7.4,0131*6A
$PYRTM,2024,125.742910946644,16.852558356794
$GNHDT,171.845,T*25
$PYRTM,2024,125.742916780012,16.852564190150
$GNGGA,174948.00,3503.24655893,N,12208.69163703,W,2,11,0.9,6.117,M,-39.418,M,4.0,0131*6E
$PYRTM,2024,125.742916780012,16.852564190150
$GNHDT,172.342,T*2A
$PYRTM,2024,125.742922518738,16.852569928877
$GNGGA,174948.50,3503.24517760,N,12208.69147983,W,2,11,0.9,6.110,M,-39.418,M,4.4,0131*6E
$PYRTM,2024,125.742922518738,16.852569928877
$GNHDT,172.489,T*2A
$PYRTM,2024,125.742928356400,16.852575766539
$GNGGA,174949.00,3503.24381557,N,12208.69126986,W,2,11,0.9,6.283,M,-39.418,M,5.0,0131*6B
$PYRTM,2024,125.742928356400,16.852575766539
$GNHDT,172.423,T*2A
$PYRTM,2024,125.742934094491,16.852581504630
$GNGGA,174949.50,3503.24246837,N,12208.69099994,W,2,11,0.9,6.589,M,-39.418,M,5.4,0131*60
$PYRTM,2024,125.742934094491,16.852581504630
$GNHDT,172.155,T*2E
$PYRTM,2024,125.742939929352,16.852587339491
$GNGGA,174950.00,3503.24110961,N,12208.69070671,W,2,11,0.9,6.906,M,-39.418,M,6.0,0131*60
$PYRTM,2024,125.742939929352,16.852587339491
$GNHDT,172.119,T*26
$PYRTM,2024,125.742945668947,16.852593079086
$GNGGA,174950.50,3503.23971324,N,12208.69043642,W,2,11,0.9,7.076,M,-39.418,M,6.4,0131*6D
$PYRTM,2024,125.742945668947,16.852593079086
$GNHDT,172.207,T*2A
$PYRTM,2024,125.742951504954,16.852598915093
$GNGGA,174951.00,3503.23827206,N,12208.69022980,W,2,11,0.9,7.048,M,-39.418,M,7.0,0131*64
$PYRTM,2024,125.742951504954,16.852598915093
$GNHDT,172.210,T*2C
$PYRTM,2024,125.742957242975,16.852604653113
$GNGGA,174951.50,3503.23680968,N,12208.69009605,W,2,11,0.9,6.846,M,-39.418,M,7.4,0131*69
$PYRTM,2024,125.742957242975,16.852604653113
$GNHDT,172.500,T*2A
$PYRTM,2024,125.742963080868,16.852610491007
$GNGGA,174952.00,3503.23535994,N,12208.68999306,W,2,11,0.9,6.628,M,-39.418,M,7.0,0131*64
$PYRTM,2024,125.742963080868,16.852610491007
$GNHDT,172.616,T*2E
$PYRTM,2024,125.742968814780,16.852616224919
$GNGGA,174952.50,3503.23394063,N,12208.68986408,W,2,11,0.9,6.543,M,-39.418,M,7.4,0131*60
$PYRTM,2024,125.742968814780,16.852616224919
$GNHDT,172.873,T*23
$PYRTM,2024,125.742974653819,16.852622063958
$GNGGA,174953.00,3503.23255315,N,12208.68967447,W,2,11,0.9,6.664,M,-39.418,M,7.0,0131*6C
$PYRTM,2024,125.742974653819,16.852622063958
$GNHDT,172.911,T*26
$PYRTM,2024,125.742980391296,16.852627801435
$GNGGA,174953.50,3503.23118999,N,12208.68940517,W,2,11,0.9,6.963,M,-39.419,M,7.4,0131*61
$PYRTM,2024,125.742980391296,16.852627801435
$GNHDT,172.983,T*2D
$PYRTM,2024,125.742986230903,16.852633641042
$GNGGA,174954.00,3503.22983198,N,12208.68906382,W,2,11,0.9,7.316,M,-39.419,M,4.0,0131*67
$PYRTM,2024,125.742986230903,16.852633641042
$GNHDT,173.004,T*2A
$PYRTM,2024,125.742991963438,16.852639373576
$GNGGA,174954.50,3503.22845748,N,12208.68869747,W,2,11,0.9,7.573,M,-39.419,M,4.4,0131*66
$PYRTM,2024,125.742991963438,16.852639373576
$GNHDT,173.105,T*2A
$PYRTM,2024,125.742997798704,16.852645208843
$GNGGA,174955.00,3503.22705214,N,12208.68836001,W,2,11,0.9,7.576,M,-39.419,M,5.0,0131*6A
$PYRTM,2024,125.742997798704,16.852645208843
$GNHDT,173.107,T*28
$PYRTM,2024,125.743003540833,16.852650950984
$GNGGA,174955.50,3503.22563840,N,12208.68811180,W,2,11,0.9,7.350,M,-39.419,M,5.4,0131*6D
$PYRTM,2024,125.743003540833,16.852650950984
$GNHDT,172.786,T*26
$PYRTM,2024,125.743009377940,16.852656788079
$GNGGA,174956.00,3503.22423538,N,12208.68793357,W,2,11,0.9,7.016,M,-39.419,M,6.0,0131*67
$PYRTM,2024,125.743009377940,16.852656788079
$GNHDT,172.584,T*26
$PYRTM,2024,125.743015113090,16.852662523229
$GNGGA,174956.50,3503.22284567,N,12208.68779772,W,2,11,0.9,6.614,M,-39.419,M,6.4,0131*65
$PYRTM,2024,125.743015113090,16.852662523229
$GNHDT,172.302,T*2E
$PYRTM,2024,125.743020948113,16.852668358264
$GNGGA,174957.00,3503.22148036,N,12208.68768676,W,2,11,0.9,6.251,M,-39.419,M,7.0,0131*66
$PYRTM,2024,125.743020948113,16.852668358264
$GNHDT,172.062,T*2B
$PYRTM,2024,125.743026685926,16.852674096065
$GNGGA,174957.50,3503.22012413,N,12208.68757883,W,2,11,0.9,5.970,M,-39.419,M,7.4,0131*69
$PYRTM,2024,125.743026685926,16.852674096065
$GNHDT,171.877,T*24
$PYRTM,2024,125.743032522847,16.852679932986
$GNGGA,174958.00,3503.21877737,N,12208.68745396,W,2,11,0.9,5.784,M,-39.419,M,7.0,0131*63
$PYRTM,2024,125.743032522847,16.852679932986
$GNHDT,171.869,T*2B
$PYRTM,2024,125.743038262222,16.852685672361
$GNGGA,174958.50,3503.21744724,N,12208.68728950,W,2,11,0.9,5.756,M,-39.419,M,7.4,0131*6B
$PYRTM,2024,125.743038262222,16.852685672361
$GNHDT,171.337,T*2B
$PYRTM,2024,125.743044103090,16.852691513229
$GNGGA,174959.00,3503.21612789,N,12208.68707708,W,2,11,0.9,5.826,M,-39.419,M,7.0,0131*68
$PYRTM,2024,125.743044103090,16.852691513229
$GNHDT,171.085,T*21
$PYRTM,2024,125.743049837060,16.852697247199
$GNGGA,174959.50,3503.21481695,N,12208.68683266,W,2,11,0.9,6.003,M,-39.419,M,7.4,0131*61
$PYRTM,2024,125.743049837060,16.852697247199
$GNHDT,171.066,T*2C
$PYRTM,2024,125.743055672558,16.852703082697
$GNGGA,175000.00,3503.21348430,N,12208.68659805,W,2,11,0.9,6.137,M,-39.419,M,4.0,0131*66
$PYRTM,2024,125.743055672558,16.852703082697
$GNHDT,171.034,T*2B
$PYRTM,2024,125.743061417674,16.852708827812
$GNGGA,175000.50,3503.21212129,N,12208.68640666,W,2,11,0.9,6.283,M,-39.419,M,4.4,0131*6B
$PYRTM,2024,125.743061417674,16.852708827812
$GNHDT,171.046,T*2E
$PYRTM,2024,125.743067249387,16.852714659537
$GNGGA,175001.00,3503.21073710,N,12208.68626176,W,2,11,0.9,6.406,M,-39.419,M,5.0,0131*6E
$PYRTM,2024,125.743067249387,16.852714659537
$GNHDT,171.161,T*2A
$PYRTM,2024,125.743072980139,16.852720390278
$GNGGA,175001.50,3503.20935695,N,12208.68612816,W,2,11,0.9,6.588,M,-39.419,M,5.4,0131*66
$PYRTM,2024,125.743072980139,16.852720390278
$GNHDT,171.381,T*26
$PYRTM,2024,125.743078821227,16.852726231366
$GNGGA,175002.00,3503.20798226,N,12208.68597708,W,2,11,0.9,6.838,M,-39.419,M,6.0,0131*6A
$PYRTM,2024,125.743078821227,16.852726231366
$GNHDT,171.721,T*28
$PYRTM,2024,125.743084557211,16.852731967350
$GNGGA,175002.50,3503.20660070,N,12208.68577141,W,2,11,0.9,7.094,M,-39.419,M,6.4,0131*66
$PYRTM,2024,125.743084557211,16.852731967350
$GNHDT,172.097,T*21
$PYRTM,2024,125.743090392639,16.852737802789
$GNGGA,175003.00,3503.20519860,N,12208.68553124,W,2,11,0.9,7.261,M,-39.419,M,7.0,0131*6E
$PYRTM,2024,125.743090392639,16.852737802789
$GNHDT,172.603,T*2A
$PYRTM,2024,125.743096135405,16.852743545544
$GNGGA,175003.50,3503.20376936,N,12208.68529409,W,2,11,0.9,7.351,M,-39.419,M,7.4,0131*67
$PYRTM,2024,125.743096135405,16.852743545544
$GNHDT,173.052,T*29
$PYRTM,2024,125.743101968715,16.852749378854
$GNGGA,175004.00,3503.20232206,N,12208.68506239,W,2,11,0.9,7.301,M,-39.419,M,7.0,0131*65
$PYRTM,2024,125.743101968715,16.852749378854
$GNHDT,173.465,T*29
$PYRTM,2024,125.743107709595,16.852755119734
$GNGGA,175004.50,3503.20087980,N,12208.68482542,W,2,11,0.9,7.217,M,-39.419,M,7.4,0131*6D
$PYRTM,2024,125.743107709595,16.852755119734
$GNHDT,173.996,T*28
$PYRTM,2024,125.743113547523,16.852760957662
$GNGGA,175005.00,3503.19944767,N,12208.68455053,W,2,11,0.9,7.144,M,-39.419,M,7.0,0131*6C
$PYRTM,2024,125.743113547523,16.852760957662
$GNHDT,173.920,T*25
$PYRTM,2024,125.743119280868,16.852766691007
$GNGGA,175005.50,3503.19803053,N,12208.68424331,W,2,11,0.9,7.099,M,-39.419,M,7.4,0131*6F
$PYRTM,2024,125.743119280868,16.852766691007
$GNHDT,173.763,T*2C
$PYRTM,2024,125.743125114306,16.852772524444
$GNGGA,175006.00,3503.19661701,N,12208.68392112,W,2,11,0.9,7.045,M,-39.419,M,4.0,0131*6C
$PYRTM,2024,125.743125114306,16.852772524444
$GNHDT,173.695,T*24
$PYRTM,2024,125.743130859259,16.852778269398
$GNGGA,175006.50,3503.19521523,N,12208.68361573,W,2,11,0.9,6.965,M,-39.419,M,4.4,0131*6D
$PYRTM,2024,125.743130859259,16.852778269398
$GNHDT,173.490,T*23
$PYRTM,2024,125.743136690775,16.852784100914
$GNGGA,175007.00,3503.19381966,N,12208.68334507,W,2,11,0.9,6.818,M,-39.419,M,5.0,0131*65
$PYRTM,2024,125.743136690775,16.852784100914
$GNHDT,173.200,T*2C
$PYRTM,2024,125.743142426898,16.852789837037
$GNGGA,175007.50,3503.19242963,N,12208.68312466,W,2,11,0.9,6.606,M,-39.419,M,5.4,0131*6C
$PYRTM,2024,125.743142426898,16.852789837037
$GNHDT,172.770,T*2F
$PYRTM,2024,125.743148270556,16.852795680694
$GNGGA,175008.00,3503.19104594,N,12208.68293934,W,2,11,0.9,6.360,M,-39.419,M,6.0,0131*63
$PYRTM,2024,125.743148270556,16.852795680694
$GNHDT,172.330,T*2F
$PYRTM,2024,125.743154004282,16.852801414421
$GNGGA,175008.50,3503.18967385,N,12208.68279890,W,2,11,0.9,6.149,M,-39.419,M,6.4,0131*6A
$PYRTM,2024,125.743154004282,16.852801414421
$GNHDT,171.944,T*25
$PYRTM,2024,125.743159837025,16.852807247164
$GNGGA,175009.00,3503.18830710,N,12208.68270120,W,2,11,0.9,5.979,M,-39.419,M,7.0,0131*63
$PYRTM,2024,125.743159837025,16.852807247164
$GNHDT,171.649,T*27
$PYRTM,2024,125.743165578843,16.852812988993
$GNGGA,175009.50,3503.18694643,N,12208.68262315,W,2,11,0.9,5.887,M,-39.419,M,7.4,0131*62
$PYRTM,2024,125.743165578843,16.852812988993
$GNHDT,171.475,T*2A
$PYRTM,2024,125.743171417130,16.852818827269
$GNGGA,175010.00,3503.18558877,N,12208.68254166,W,2,11,0.9,5.908,M,-39.419,M,7.0,0131*64
$PYRTM,2024,125.743171417130,16.852818827269
$GNHDT,171.197,T*23
$PYRTM,2024,125.743177152824,16.852824562963
$GNGGA,175010.50,3503.18423868,N,12208.68239713,W,2,11,0.9,6.090,M,-39.419,M,7.4,0131*62
$PYRTM,2024,125.743177152824,16.852824562963
$GNHDT,170.855,T*25
$PYRTM,2024,125.743182989062,16.852830399201
$GNGGA,175011.00,3503.18288847,N,12208.68217344,W,2,11,0.9,6.382,M,-39.419,M,7.0,0131*62
$PYRTM,2024,125.743182989062,16.852830399201
$GNHDT,170.979,T*2A
$PYRTM,2024,125.743188726921,16.852836137060
$GNGGA,175011.50,3503.18152065,N,12208.68187597,W,2,11,0.9,6.729,M,-39.419,M,7.4,0131*68
$PYRTM,2024,125.743188726921,16.852836137060
$GNHDT,171.166,T*2D
$PYRTM,2024,125.743194564676,16.852841974815
$GNGGA,175012.00,3503.18012734,N,12208.68156202,W,2,11,0.9,7.053,M,-39.419,M,4.0,0131*63
$PYRTM,2024,125.743194564676,16.852841974815
$GNHDT,171.871,T*22
$PYRTM,2024,125.743200302037,16.852847712176
$GNGGA,175012.50,3503.17871052,N,12208.68126941,W,2,11,0.9,7.283,M,-39.419,M,4.4,0131*63
$PYRTM,2024,125.743200302037,16.852847712176
$GNHDT,172.270,T*2A
$PYRTM,2024,125.743206132581,16.852853542720
$GNGGA,175013.00,3503.17726820,N,12208.68103730,W,2,11,0.9,7.370,M,-39.419,M,5.0,0131*60
$PYRTM,2024,125.743206132581,16.852853542720
$GNHDT,172.742,T*2E
$PYRTM,2024,125.743211872095,16.852859282234
$GNGGA,175013.50,3503.17580347,N,12208.68087246,W,2,11,0.9,7.308,M,-39.419,M,5.4,0131*63
$PYRTM,2024,125.743211872095,16.852859282234
$GNHDT,173.186,T*21
$PYRTM,2024,125.743217712407,16.852865122546
$GNGGA,175014.00,3503.17432790,N,12208.68076834,W,2,11,0.9,7.200,M,-39.419,M,6.0,0131*68
$PYRTM,2024,125.743217712407,16.852865122546
$GNHDT,173.561,T*2C
$PYRTM,2024,125.743223443912,16.852870854815
$GNGGA,175014.50,3503.17285815,N,12208.68064483,W,2,11,0.9,7.101,M,-39.419,M,6.4,0131*60
$PYRTM,2024,125.743223443912,16.852870854815
$GNHDT,173.594,T*26
$PYRTM,2024,125.743229284745,16.852876694884
$GNGGA,175015.00,3503.17140998,N,12208.68043919,W,2,11,0.9,7.106,M,-39.419,M,7.0,0131*63
$PYRTM,2024,125.743229284745,16.852876694884
$GNHDT,173.336,T*28
$PYRTM,2024,125.743235020856,16.852882430995
$GNGGA,175015.50,3503.16998646,N,12208.68011682,W,2,11,0.9,7.202,M,-39.419,M,7.4,0131*6F
$PYRTM,2024,125.743235020856,16.852882430995
$GNHDT,173.084,T*22
$PYRTM,2024,125.743240857234,16.852888267373
$GNGGA,175016.00,3503.16858575,N,12208.67969398,W,2,11,0.9,7.303,M,-39.419,M,7.0,0131*64
$PYRTM,2024,125.743240857234,16.852888267373
$GNHDT,172.702,T*2A
$PYRTM,2024,125.743246591204,16.852894001343
$GNGGA,175016.50,3503.16719368,N,12208.67925626,W,2,11,0.9,7.271,M,-39.419,M,7.4,0131*69
$PYRTM,2024,125.743246591204,16.852894001343
$GNHDT,172.684,T*25
$PYRTM,2024,125.743252433854,16.852899843993
$GNGGA,175017.00,3503.16580309,N,12208.67889820,W,2,11,0.9,6.986,M,-39.419,M,7.0,0131*61
$PYRTM,2024,125.743252433854,16.852899843993
$GNHDT,172.225,T*2A
$PYRTM,2024,125.743258173900,16.852905584039
$GNGGA,175017.50,3503.16441020,N,12208.67870078,W,2,11,0.9,6.472,M,-39.419,M,7.4,0131*61
$PYRTM,2024,125.743258173900,16.852905584039
$GNHDT,172.208,T*25
$PYRTM,2024,125.743264010949,16.852911421088
$GNGGA,175018.00,3503.16303152,N,12208.67864038,W,2,11,0.9,5.880,M,-39.419,M,4.0,0131*6A
$PYRTM,2024,125.743264010949,16.852911421088
$GNHDT,172.027,T*2A
$PYRTM,2024,125.743269747662,16.852917157801
$GNGGA,175018.50,3503.16168232,N,12208.67867559,W,2,11,0.9,5.359,M,-39.419,M,4.4,0131*6F
$PYRTM,2024,125.743269747662,16.852917157801
$GNHDT,171.840,T*20
$PYRTM,2024,125.743275577072,16.852922987211
$GNGGA,175019.00,3503.16036342,N,12208.67871300,W,2,11,0.9,5.072,M,-39.419,M,5.0,0131*65
$PYRTM,2024,125.743275577072,16.852922987211
$GNHDT,171.560,T*2F
$PYRTM,2024,125.743281316516,16.852928726655
$GNGGA,175019.50,3503.15906779,N,12208.67866082,W,2,11,0.9,5.077,M,-39.419,M,5.4,0131*6B
$PYRTM,2024,125.743281316516,16.852928726655
$GNHDT,171.338,T*24
$PYRTM,2024,125.743287160880,16.852934571019
$GNGGA,175020.00,3503.15778082,N,12208.67849215,W,2,11,0.9,5.380,M,-39.419,M,6.0,0131*6D
$PYRTM,2024,125.743287160880,16.852934571019
$GNHDT,171.046,T*2E
$PYRTM,2024,125.743292899525,16.852940309664
$GNGGA,175020.50,3503.15649382,N,12208.67822964,W,2,11,0.9,5.847,M,-39.420,M,6.4,0131*66
$PYRTM,2024,125.743292899525,16.852940309664
$GNHDT,171.156,T*2E
$PYRTM,2024,125.743298728079,16.852946138218
$GNGGA,175021.00,3503.15518021,N,12208.67793011,W,2,11,0.9,6.333,M,-39.420,M,7.0,0131*6F
$PYRTM,2024,125.743298728079,16.852946138218
$GNHDT,171.155,T*2D
$PYRTM,2024,125.743304465104,16.852951875243
$GNGGA,175021.50,3503.15382858,N,12208.67764922,W,2,11,0.9,6.709,M,-39.420,M,7.4,0131*61
$PYRTM,2024,125.743304465104,16.852951875243
$GNHDT,171.194,T*20
$PYRTM,2024,125.743310300475,16.852957710613
$GNGGA,175022.00,3503.15243902,N,12208.67741340,W,2,11,0.9,6.936,M,-39.420,M,7.0,0131*6A
$PYRTM,2024,125.743310300475,16.852957710613
$GNHDT,171.612,T*29
$PYRTM,2024,125.743316043356,16.852963453495
$GNGGA,175022.50,3503.15102881,N,12208.67721328,W,2,11,0.9,7.084,M,-39.420,M,7.4,0131*6E
$PYRTM,2024,125.743316043356,16.852963453495
$GNHDT,171.815,T*20
$PYRTM,2024,125.743321875278,16.852969285417
$GNGGA,175023.00,3503.14959929,N,12208.67702722,W,2,11,0.9,7.155,M,-39.420,M,7.0,0131*68
$PYRTM,2024,125.743321875278,16.852969285417
$GNHDT,172.228,T*27
$PYRTM,2024,125.743327611481,16.852975021632
$GNGGA,175023.50,3503.14816699,N,12208.67684038,W,2,11,0.9,7.236,M,-39.420,M,7.4,0131*62
$PYRTM,2024,125.743327611481,16.852975021632
$GNHDT,172.682,T*23
$PYRTM,2024,125.743333446528,16.852980856667
$GNGGA,175024.00,3503.14672513,N,12208.67664978,W,2,11,0.9,7.279,M,-39.420,M,4.0,0131*62
$PYRTM,2024,125.743333446528,16.852980856667
$GNHDT,173.216,T*2B
$PYRTM,2024,125.743339189884,16.852986600023
$GNGGA,175024.50,3503.14527416,N,12208.67644277,W,2,11,0.9,7.349,M,-39.420,M,4.4,0131*60
$PYRTM,2024,125.743339189884,16.852986600023
$GNHDT,173.717,T*2F
$PYRTM,2024,125.743345029873,16.852992440012
$GNGGA,175025.00,3503.14381277,N,12208.67620604,W,2,11,0.9,7.398,M,-39.420,M,5.0,0131*64
$PYRTM,2024,125.743345029873,16.852992440012
$GNHDT,174.021,T*2A
$PYRTM,2024,125.743350759225,16.852998169363
$GNGGA,175025.50,3503.14234590,N,12208.67591925,W,2,11,0.9,7.435,M,-39.420,M,5.4,0131*61
$PYRTM,2024,125.743350759225,16.852998169363
$GNHDT,174.209,T*22
$PYRTM,2024,125.743356599965,16.853004010104
$GNGGA,175026.00,3503.14086938,N,12208.67559786,W,2,11,0.9,7.404,M,-39.420,M,6.0,0131*64
$PYRTM,2024,125.743356599965,16.853004010104
$GNHDT,174.521,T*2F
$PYRTM,2024,125.743362332280,16.853009742419
$GNGGA,175026.50,3503.13940681,N,12208.67526598,W,2,11,0.9,7.340,M,-39.420,M,6.4,0131*6E
$PYRTM,2024,125.743362332280,16.853009742419
$GNHDT,174.669,T*20
$PYRTM,2024,125.743368169965,16.853015580116
$GNGGA,175027.00,3503.13795761,N,12208.67492903,W,2,11,0.9,7.197,M,-39.420,M,7.0,0131*6E
$PYRTM,2024,125.743368169965,16.853015580116
$GNHDT,174.691,T*27
$PYRTM,2024,125.743373909271,16.853021319410
$GNGGA,175027.50,3503.13654144,N,12208.67462123,W,2,11,0.9,7.040,M,-39.420,M,7.4,0131*6C
$PYRTM,2024,125.743373909271,16.853021319410
$GNHDT,174.344,T*2A
$PYRTM,2024,125.743379743426,16.853027153565
$GNGGA,175028.00,3503.13516150,N,12208.67437254,W,2,11,0.9,6.851,M,-39.420,M,7.0,0131*68
$PYRTM,2024,125.743379743426,16.853027153565
$GNHDT,173.955,T*27
$PYRTM,2024,125.743385481794,16.853032891933
$GNGGA,175028.50,3503.13381247,N,12208.67419586,W,2,11,0.9,6.644,M,-39.420,M,7.4,0131*6A
$PYRTM,2024,125.743385481794,16.853032891933
$GNHDT,173.121,T*2C
$PYRTM,2024,125.743391323727,16.853038733866
$GNGGA,175029.00,3503.13247782,N,12208.67408215,W,2,11,0.9,6.364,M,-39.420,M,7.0,0131*67
$PYRTM,2024,125.743391323727,16.853038733866
$GNHDT,172.207,T*2A
$PYRTM,2024,125.743397056782,16.853044466921
$GNGGA,175029.50,3503.13113772,N,12208.67400857,W,2,11,0.9,6.076,M,-39.420,M,7.4,0131*6F
$PYRTM,2024,125.743397056782,16.853044466921
$GNHDT,172.176,T*2F
$PYRTM,2024,125.743402900289,16.853050310428
$GNGGA,175030.00,3503.12979975,N,12208.67395982,W,2,11,0.9,5.750,M,-39.420,M,4.0,0131*6B
$PYRTM,2024,125.743402900289,16.853050310428
$GNHDT,171.207,T*29
$PYRTM,2024,125.743408632315,16.853056042454
$GNGGA,175030.50,3503.12846167,N,12208.67391348,W,2,11,0.9,5.495,M,-39.420,M,4.4,0131*6E
$PYRTM,2024,125.743408632315,16.853056042454
$GNHDT,170.893,T*2F
$PYRTM,2024,125.743414472350,16.853061882488
$GNGGA,175031.00,3503.12713594,N,12208.67382293,W,2,11,0.9,5.422,M,-39.420,M,5.0,0131*61
$PYRTM,2024,125.743414472350,16.853061882488
$GNHDT,170.492,T*22
$PYRTM,2024,125.743420203657,16.853067613796
$GNGGA,175031.50,3503.12581859,N,12208.67365401,W,2,11,0.9,5.518,M,-39.420,M,5.4,0131*69
$PYRTM,2024,125.743420203657,16.853067613796
$GNHDT,170.504,T*2C
$PYRTM,2024,125.743426041505,16.853073451644
$GNGGA,175032.00,3503.12449057,N,12208.67340676,W,2,11,0.9,5.789,M,-39.420,M,6.0,0131*64
$PYRTM,2024,125.743426041505,16.853073451644
$GNHDT,170.210,T*2E
$PYRTM,2024,125.743431780718,16.853079190856
$GNGGA,175032.50,3503.12313402,N,12208.67314516,W,2,11,0.9,6.136,M,-39.420,M,6.4,0131*6C
$PYRTM,2024,125.743431780718,16.853079190856
$GNHDT,170.473,T*2D
$PYRTM,2024,125.743437615752,16.853085025891
$GNGGA,175033.00,3503.12174930,N,12208.67289974,W,2,11,0.9,6.473,M,-39.420,M,7.0,0131*6B
$PYRTM,2024,125.743437615752,16.853085025891
$GNHDT,171.096,T*23
$PYRTM,2024,125.743443357535,16.853090767674
$GNGGA,175033.50,3503.12035190,N,12208.67268658,W,2,11,0.9,6.796,M,-39.420,M,7.4,0131*6A
$PYRTM,2024,125.743443357535,16.853090767674
$GNHDT,171.455,T*28
$PYRTM,2024,125.743449191400,16.853096601539
$GNGGA,175034.00,3503.11894132,N,12208.67248405,W,2,11,0.9,7.058,M,-39.420,M,7.0,0131*68
$PYRTM,2024,125.743449191400,16.853096601539
$GNHDT,171.614,T*2F
$PYRTM,2024,125.743454930706,16.853102340845
$GNGGA,175034.50,3503.11750885,N,12208.67227852,W,2,11,0.9,7.237,M,-39.420,M,7.4,0131*67
$PYRTM,2024,125.743454930706,16.853102340845
$GNHDT,172.056,T*2C
$PYRTM,2024,125.743460768854,16.853108179005
$GNGGA,175035.00,3503.11604997,N,12208.67203329,W,2,11,0.9,7.339,M,-39.420,M,7.0,0131*6B
$PYRTM,2024,125.743460768854,16.853108179005
$GNHDT,172.407,T*2C
$PYRTM,2024,125.743466500208,16.853113910347
$GNGGA,175035.50,3503.11457635,N,12208.67175443,W,2,11,0.9,7.340,M,-39.420,M,7.4,0131*6E
$PYRTM,2024,125.743466500208,16.853113910347
$GNHDT,172.215,T*29
$PYRTM,2024,125.743472337616,16.853119747755
$GNGGA,175036.00,3503.11310287,N,12208.67143428,W,2,11,0.9,7.251,M,-39.420,M,4.0,0131*6F
$PYRTM,2024,125.743472337616,16.853119747755
$GNHDT,172.294,T*20
$PYRTM,2024,125.743478078808,16.853125488947
$GNGGA,175036.50,3503.11165548,N,12208.67108937,W,2,11,0.9,7.149,M,-39.420,M,4.4,0131*6C
$PYRTM,2024,125.743478078808,16.853125488947
$GNHDT,172.417,T*2D
$PYRTM,2024,125.743483912986,16.853131323125
$GNGGA,175037.00,3503.11024919,N,12208.67072682,W,2,11,0.9,7.040,M,-39.420,M,5.0,0131*64
$PYRTM,2024,125.743483912986,16.853131323125
$GNHDT,172.416,T*2C
$PYRTM,2024,125.743489648438,16.853137058588
$GNGGA,175037.50,3503.10887070,N,12208.67038603,W,2,11,0.9,6.923,M,-39.420,M,5.4,0131*69
$PYRTM,2024,125.743489648438,16.853137058588
$GNHDT,172.087,T*20
$PYRTM,2024,125.743495486921,16.853142897060
$GNGGA,175038.00,3503.10750696,N,12208.67009220,W,2,11,0.9,6.733,M,-39.420,M,6.0,0131*67
$PYRTM,2024,125.743495486921,16.853142897060
$GNHDT,171.897,T*2A
$PYRTM,2024,125.743501225127,16.853148635278
$GNGGA,175038.50,3503.10615152,N,12208.66988125,W,2,11,0.9,6.491,M,-39.420,M,6.4,0131*65
$PYRTM,2024,125.743501225127,16.853148635278
$GNHDT,171.938,T*2E
$PYRTM,2024,125.743507058912,16.853154469051
$GNGGA,175039.00,3503.10482204,N,12208.66978045,W,2,11,0.9,6.161,M,-39.420,M,7.0,0131*6A
$PYRTM,2024,125.743507058912,16.853154469051
$GNHDT,171.919,T*2D
$PYRTM,2024,125.743512803461,16.853160213600
$GNGGA,175039.50,3503.10349380,N,12208.66971537,W,2,11,0.9,5.824,M,-39.420,M,7.4,0131*64
$PYRTM,2024,125.743512803461,16.853160213600
$GNHDT,172.044,T*2F
$PYRTM,2024,125.743518635706,16.853166045845
$GNGGA,175040.00,3503.10217749,N,12208.66965915,W,2,11,0.9,5.554,M,-39.420,M,7.0,0131*63
$PYRTM,2024,125.743518635706,16.853166045845
$GNHDT,171.806,T*22
$PYRTM,2024,125.743524368958,16.853171779097
$GNGGA,175040.50,3503.10087190,N,12208.66956753,W,2,11,0.9,5.436,M,-39.420,M,7.4,0131*62
$PYRTM,2024,125.743524368958,16.853171779097
$GNHDT,171.600,T*2A
$PYRTM,2024,125.743530210995,16.853177621146
$GNGGA,175041.00,3503.09957124,N,12208.66942349,W,2,11,0.9,5.473,M,-39.420,M,7.0,0131*6A
$PYRTM,2024,125.743530210995,16.853177621146
$GNHDT,171.364,T*2D
$PYRTM,2024,125.743535944606,16.853183354745
$GNGGA,175041.50,3503.09827039,N,12208.66923887,W,2,11,0.9,5.649,M,-39.420,M,7.4,0131*65
$PYRTM,2024,125.743535944606,16.853183354745
$GNHDT,171.392,T*24
$PYRTM,2024,125.743541781447,16.853189191586
$GNGGA,175042.00,3503.09695400,N,12208.66902710,W,2,11,0.9,5.901,M,-39.420,M,4.0,0131*6C
$PYRTM,2024,125.743541781447,16.853189191586
$GNHDT,171.385,T*22
$PYRTM,2024,125.743547528588,16.853194938727
$GNGGA,175042.50,3503.09561274,N,12208.66880743,W,2,11,0.9,6.173,M,-39.420,M,4.4,0131*63
$PYRTM,2024,125.743547528588,16.853194938727
$GNHDT,171.272,T*2B
$PYRTM,2024,125.743553360197,16.853200770336
$GNGGA,175043.00,3503.09424062,N,12208.66857843,W,2,11,0.9,6.413,M,-39.420,M,5.0,0131*61
$PYRTM,2024,125.743553360197,16.853200770336
$GNHDT,171.683,T*21
$PYRTM,2024,125.743559096331,16.853206506481
$GNGGA,175043.50,3503.09286266,N,12208.66834261,W,2,11,0.9,6.634,M,-39.420,M,5.4,0131*60
$PYRTM,2024,125.743559096331,16.853206506481
$GNHDT,171.744,T*2B
$PYRTM,2024,125.743564930764,16.853212340914
$GNGGA,175044.00,3503.09147009,N,12208.66810052,W,2,11,0.9,6.832,M,-39.420,M,6.0,0131*6C
$PYRTM,2024,125.743564930764,16.853212340914
$GNHDT,172.075,T*2D
$PYRTM,2024,125.743570665741,16.853218075880
$GNGGA,175044.50,3503.09006770,N,12208.66787792,W,2,11,0.9,6.991,M,-39.420,M,6.4,0131*62
$PYRTM,2024,125.743570665741,16.853218075880
$GNHDT,172.360,T*2A
$PYRTM,2024,125.743576502477,16.853223912616
$GNGGA,175045.00,3503.08864674,N,12208.66767603,W,2,11,0.9,7.066,M,-39.420,M,7.0,0131*6C
$PYRTM,2024,125.743576502477,16.853223912616
$GNHDT,172.917,T*20
$PYRTM,2024,125.743582246100,16.853229656238
$GNGGA,175045.50,3503.08721528,N,12208.66748505,W,2,11,0.9,7.070,M,-39.420,M,7.4,0131*66
$PYRTM,2024,125.743582246100,16.853229656238
$GNHDT,173.062,T*2A
$PYRTM,2024,125.743588080810,16.853235490949
$GNGGA,175046.00,3503.08578474,N,12208.66730737,W,2,11,0.9,7.066,M,-39.420,M,7.0,0131*69
$PYRTM,2024,125.743588080810,16.853235490949
$GNHDT,173.297,T*22
$PYRTM,2024,125.743593815035,16.853241225174
$GNGGA,175046.50,3503.08435325,N,12208.66707000,W,2,11,0.9,7.048,M,-39.420,M,7.4,0131*68
$PYRTM,2024,125.743593815035,16.853241225174
$GNHDT,173.314,T*28
$PYRTM,2024,125.743599653056,16.853247063194
$GNGGA,175047.00,3503.08291720,N,12208.66677047,W,2,11,0.9,7.009,M,-39.420,M,7.0,0131*61
$PYRTM,2024,125.743599653056,16.853247063194
$GNHDT,173.292,T*27
$PYRTM,2024,125.743605394074,16.853252804225
$GNGGA,175047.50,3503.08148285,N,12208.66645815,W,2,11,0.9,6.968,M,-39.420,M,7.4,0131*6C
$PYRTM,2024,125.743605394074,16.853252804225
$GNHDT,173.625,T*2F
$PYRTM,2024,125.743611235150,16.853258645289
$GNGGA,175048.00,3503.08005284,N,12208.66616082,W,2,11,0.9,6.899,M,-39.420,M,4.0,0131*67
$PYRTM,2024,125.743611235150,16.853258645289
$GNHDT,173.677,T*28
$PYRTM,2024,125.743616964375,16.853264374514
$GNGGA,175048.50,3503.07863502,N,12208.66589576,W,2,11,0.9,6.782,M,-39.420,M,4.4,0131*66
$PYRTM,2024,125.743616964375,16.853264374514
$GNHDT,173.661,T*2F
$PYRTM,2024,125.743622801759,16.853270211898
$GNGGA,175049.00,3503.07723582,N,12208.66568442,W,2,11,0.9,6.649,M,-39.421,M,5.0,0131*6A
$PYRTM,2024,125.743622801759,16.853270211898
$GNHDT,173.649,T*25
$PYRTM,2024,125.743628538171,16.853275948322
$GNGGA,175049.50,3503.07585424,N,12208.66551380,W,2,11,0.9,6.521,M,-39.421,M,5.4,0131*66
$PYRTM,2024,125.743628538171,16.853275948322
$GNHDT,173.359,T*21
$PYRTM,2024,125.743634374120,16.853281784271
$GNGGA,175050.00,3503.07447951,N,12208.66536136,W,2,11,0.9,6.404,M,-39.421,M,6.0,0131*64
$PYRTM,2024,125.743634374120,16.853281784271
$GNHDT,173.136,T*2A
$PYRTM,2024,125.743640112500,16.853287522639
$GNGGA,175050.50,3503.07310367,N,12208.66522565,W,2,11,0.9,6.300,M,-39.421,M,6.4,0131*6B
$PYRTM,2024,125.743640112500,16.853287522639
$GNHDT,172.932,T*27
$PYRTM,2024,125.743645945972,16.853293356111
$GNGGA,175051.00,3503.07172118,N,12208.66508877,W,2,11,0.9,6.206,M,-39.421,M,7.0,0131*67
$PYRTM,2024,125.743645945972,16.853293356111
$GNHDT,172.742,T*2E
$PYRTM,2024,125.743651687824,16.853299097963
$GNGGA,175051.50,3503.07034762,N,12208.66493532,W,2,11,0.9,6.147,M,-39.421,M,7.4,0131*67
$PYRTM,2024,125.743651687824,16.853299097963
$GNHDT,172.505,T*2F
$PYRTM,2024,125.743657529190,16.853304939340
$GNGGA,175052.00,3503.06899133,N,12208.66475384,W,2,11,0.9,6.157,M,-39.421,M,7.0,0131*6B
$PYRTM,2024,125.743657529190,16.853304939340
$GNHDT,172.355,T*2C
$PYRTM,2024,125.743663259711,16.853310669850
$GNGGA,175052.50,3503.06765214,N,12208.66452951,W,2,11,0.9,6.216,M,-39.421,M,7.4,0131*61
$PYRTM,2024,125.743663259711,16.853310669850
$GNHDT,172.062,T*2B
$PYRTM,2024,125.743669099884,16.853316510023
$GNGGA,175053.00,3503.06632649,N,12208.66427742,W,2,11,0.9,6.315,M,-39.421,M,7.0,0131*62
$PYRTM,2024,125.743669099884,16.853316510023
$GNHDT,171.835,T*22
$PYRTM,2024,125.743674837419,16.853322247558
$GNGGA,175053.50,3503.06500303,N,12208.66403151,W,2,11,0.9,6.419,M,-39.421,M,7.4,0131*63
$PYRTM,2024,125.743674837419,16.853322247558
$GNHDT,171.339,T*25
$PYRTM,2024,125.743680671215,16.853328081366
$GNGGA,175054.00,3503.06367865,N,12208.66382274,W,2,11,0.9,6.483,M,-39.421,M,4.0,0131*63
$PYRTM,2024,125.743680671215,16.853328081366
$GNHDT,171.082,T*26
$PYRTM,2024,125.743686414734,16.853333824873
$GNGGA,175054.50,3503.06233775,N,12208.66365924,W,2,11,0.9,6.477,M,-39.421,M,4.4,0131*60
$PYRTM,2024,125.743686414734,16.853333824873
$GNHDT,170.853,T*23
$PYRTM,2024,125.743692244954,16.853339655093
$GNGGA,175055.00,3503.06098083,N,12208.66352566,W,2,11,0.9,6.406,M,-39.421,M,5.0,0131*64
$PYRTM,2024,125.743692244954,16.853339655093
$GNHDT,170.691,T*23
$PYRTM,2024,125.743697986898,16.853345397037
$GNGGA,175055.50,3503.05961134,N,12208.66339648,W,2,11,0.9,6.331,M,-39.421,M,5.4,0131*65
$PYRTM,2024,125.743697986898,16.853345397037
$GNHDT,170.561,T*2F
$PYRTM,2024,125.743703821262,16.853351231400
$GNGGA,175056.00,3503.05823736,N,12208.66323419,W,2,11,0.9,6.305,M,-39.421,M,6.0,0131*6D
$PYRTM,2024,125.743703821262,16.853351231400
$GNHDT,170.764,T*28
$PYRTM,2024,125.743709556713,16.853356966852
$GNGGA,175056.50,3503.05687056,N,12208.66302935,W,2,11,0.9,6.365,M,-39.421,M,6.4,0131*6B
$PYRTM,2024,125.743709556713,16.853356966852
$GNHDT,171.214,T*2B
$PYRTM,2024,125.743715397801,16.853362807940
$GNGGA,175057.00,3503.05550749,N,12208.66278798,W,2,11,0.9,6.526,M,-39.421,M,7.0,0131*6E
$PYRTM,2024,125.743715397801,16.853362807940
$GNHDT,171.849,T*29
$PYRTM,2024,125.743721135220,16.853368545359
$GNGGA,175057.50,3503.05414268,N,12208.66253429,W,2,11,0.9,6.692,M,-39.421,M,7.4,0131*64
$PYRTM,2024,125.743721135220,16.853368545359
$GNHDT,172.269,T*22
$PYRTM,2024,125.743726968681,16.853374378819
$GNGGA,175058.00,3503.05276620,N,12208.66229778,W,2,11,0.9,6.827,M,-39.421,M,7.0,0131*6A
$PYRTM,2024,125.743726968681,16.853374378819
$GNHDT,172.820,T*25
$PYRTM,2024,125.743732706875,16.853380117014
$GNGGA,175058.50,3503.05136557,N,12208.66209290,W,2,11,0.9,6.888,M,-39.421,M,7.4,0131*6B
$PYRTM,2024,125.743732706875,16.853380117014
$GNHDT,173.253,T*2A
$PYRTM,2024,125.743738548056,16.853385958194
$GNGGA,175059.00,3503.04993918,N,12208.66192292,W,2,11,0.9,6.844,M,-39.421,M,7.0,0131*69
$PYRTM,2024,125.743738548056,16.853385958194
$GNHDT,173.713,T*2B
$PYRTM,2024,125.743744278773,16.853391688912
$GNGGA,175059.50,3503.04850155,N,12208.66177648,W,2,11,0.9,6.755,M,-39.421,M,7.4,0131*60
$PYRTM,2024,125.743744278773,16.853391688912
$GNHDT,174.082,T*23
$PYRTM,2024,125.743750116273,16.853397526412
$GNGGA,175100.00,3503.04706984,N,12208.66163006,W,2,11,0.9,6.665,M,-39.421,M,4.0,0131*6C
$PYRTM,2024,125.743750116273,16.853397526412
$GNHDT,174.310,T*2B
$PYRTM,2024,125.743755856215,16.853403266354
$GNGGA,175100.50,3503.04564967,N,12208.66146911,W,2,11,0.9,6.635,M,-39.421,M,4.4,0131*6B
$PYRTM,2024,125.743755856215,16.853403266354
$GNHDT,174.195,T*24
$PYRTM,2024,125.743761692616,16.853409102755
$GNGGA,175101.00,3503.04424517,N,12208.66129178,W,2,11,0.9,6.650,M,-39.421,M,5.0,0131*69
$PYRTM,2024,125.743761692616,16.853409102755
$GNHDT,174.222,T*2B
$PYRTM,2024,125.743767430197,16.853414840336
$GNGGA,175101.50,3503.04285686,N,12208.66107871,W,2,11,0.9,6.703,M,-39.421,M,5.4,0131*65
$PYRTM,2024,125.743767430197,16.853414840336
$GNHDT,173.620,T*2A
$PYRTM,2024,125.743773263600,16.853420673738
$GNGGA,175102.00,3503.04147415,N,12208.66083183,W,2,11,0.9,6.773,M,-39.421,M,6.0,0131*6F
$PYRTM,2024,125.743773263600,16.853420673738
$GNHDT,173.304,T*29
$PYRTM,2024,125.743779001516,16.853426411655
$GNGGA,175102.50,3503.04009786,N,12208.66057487,W,2,11,0.9,6.783,M,-39.421,M,6.4,0131*6B
$PYRTM,2024,125.743779001516,16.853426411655
$GNHDT,172.809,T*2E
$PYRTM,2024,125.743784838565,16.853432248704
$GNGGA,175103.00,3503.03871589,N,12208.66031909,W,2,11,0.9,6.679,M,-39.421,M,7.0,0131*68
$PYRTM,2024,125.743784838565,16.853432248704
$GNHDT,172.258,T*20
$PYRTM,2024,125.743790577894,16.853437988032
$GNGGA,175103.50,3503.03734409,N,12208.66006725,W,2,11,0.9,6.532,M,-39.421,M,7.4,0131*66
$PYRTM,2024,125.743790577894,16.853437988032
$GNHDT,171.671,T*2C
$PYRTM,2024,125.743796412245,16.853443822384
$GNGGA,175104.00,3503.03599341,N,12208.65983536,W,2,11,0.9,6.402,M,-39.421,M,7.0,0131*6B
$PYRTM,2024,125.743796412245,16.853443822384
$GNHDT,171.403,T*2B
$PYRTM,2024,125.743802149988,16.853449560127
$GNGGA,175104.50,3503.03466138,N,12208.65962010,W,2,11,0.9,6.329,M,-39.421,M,7.4,0131*67
$PYRTM,2024,125.743802149988,16.853449560127
$GNHDT,171.139,T*27
$PYRTM,2024,125.743807988299,16.853455398438
$GNGGA,175105.00,3503.03333858,N,12208.65943463,W,2,11,0.9,6.299,M,-39.421,M,7.0,0131*66
$PYRTM,2024,125.743807988299,16.853455398438
$GNHDT,170.838,T*2E
$PYRTM,2024,125.743813724977,16.853461135116
$GNGGA,175105.50,3503.03200757,N,12208.65927548,W,2,11,0.9,6.300,M,-39.421,M,7.4,0131*6D
$PYRTM,2024,125.743813724977,16.853461135116
$GNHDT,170.656,T*28
$PYRTM,2024,125.743819561863,16.853466972002
$GNGGA,175106.00,3503.03066147,N,12208.65913894,W,2,11,0.9,6.302,M,-39.421,M,4.0,0131*60
$PYRTM,2024,125.743819561863,16.853466972002
$GNHDT,170.582,T*22
$PYRTM,2024,125.743825298299,16.853472708438
$GNGGA,175106.50,3503.02930266,N,12208.65900421,W,2,11,0.9,6.308,M,-39.421,M,4.4,0131*60
$PYRTM,2024,125.743825298299,16.853472708438
$GNHDT,170.472,T*2C
$PYRTM,2024,125.743831135093,16.853478545231
$GNGGA,175107.00,3503.02793268,N,12208.65884965,W,2,11,0.9,6.302,M,-39.421,M,5.0,0131*62
$PYRTM,2024,125.743831135093,16.853478545231
$GNHDT,170.499,T*29
$PYRTM,2024,125.743836869618,16.853484279769
$GNGGA,175107.50,3503.02655781,N,12208.65866005,W,2,11,0.9,6.349,M,-39.421,M,5.4,0131*66
$PYRTM,2024,125.743836869618,16.853484279769
$GNHDT,170.585,T*25
$PYRTM,2024,125.743842711759,16.853490121898
$GNGGA,175108.00,3503.02516806,N,12208.65841888,W,2,11,0.9,6.413,M,-39.421,M,6.0,0131*6F
$PYRTM,2024,125.743842711759,16.853490121898
$GNHDT,170.778,T*25
$PYRTM,2024,125.743848447523,16.853495857662
$GNGGA,175108.50,3503.02377267,N,12208.65813641,W,2,11,0.9,6.506,M,-39.421,M,6.4,0131*6B
$PYRTM,2024,125.743848447523,16.853495857662
$GNHDT,170.988,T*24
$PYRTM,2024,125.743854285150,16.853501695289
$GNGGA,175109.00,3503.02236693,N,12208.65781922,W,2,11,0.9,6.616,M,-39.421,M,7.0,0131*6D
$PYRTM,2024,125.743854285150,16.853501695289
$GNHDT,171.154,T*2C
$PYRTM,2024,125.743860022697,16.853507432836
$GNGGA,175109.50,3503.02096098,N,12208.65748809,W,2,11,0.9,6.765,M,-39.421,M,7.4,0131*61
$PYRTM,2024,125.743860022697,16.853507432836
$GNHDT,171.131,T*2F
$PYRTM,2024,125.743865856898,16.853513267037
$GNGGA,175110.00,3503.01955780,N,12208.65717815,W,2,11,0.9,6.921,M,-39.421,M,7.0,0131*6A
$PYRTM,2024,125.743865856898,16.853513267037
$GNHDT,171.384,T*23
$PYRTM,2024,125.743871597569,16.853519007708
$GNGGA,175110.50,3503.01816440,N,12208.65692101,W,2,11,0.9,7.039,M,-39.421,M,7.4,0131*63
$PYRTM,2024,125.743871597569,16.853519007708
$GNHDT,171.705,T*2E
$PYRTM,2024,125.743877432083,16.853524842222
$GNGGA,175111.00,3503.01677509,N,12208.65672125,W,2,11,0.9,7.082,M,-39.421,M,7.0,0131*6E
$PYRTM,2024,125.743877432083,16.853524842222
$GNHDT,171.987,T*2A
$PYRTM,2024,125.743883171771,16.853530581921
$GNGGA,175111.50,3503.01537652,N,12208.65656102,W,2,11,0.9,7.045,M,-39.421,M,7.4,0131*6D
$PYRTM,2024,125.743883171771,16.853530581921
$GNHDT,172.013,T*2D
$PYRTM,2024,125.743889011655,16.853536421794
$GNGGA,175112.00,3503.01396158,N,12208.65642138,W,2,11,0.9,6.878,M,-39.421,M,4.0,0131*67
$PYRTM,2024,125.743889011655,16.853536421794
$GNHDT,172.162,T*2A
$PYRTM,2024,125.743894747755,16.853542157905
$GNGGA,175112.50,3503.01253785,N,12208.65626466,W,2,11,0.9,6.611,M,-39.421,M,4.4,0131*65
$PYRTM,2024,125.743894747755,16.853542157905
$GNHDT,172.199,T*2E
$PYRTM,2024,125.743900581053,16.853547991192
$GNGGA,175113.00,3503.01112551,N,12208.65606634,W,2,11,0.9,6.326,M,-39.421,M,5.0,0131*6F
$PYRTM,2024,125.743900581053,16.853547991192
$GNHDT,172.083,T*24
$PYRTM,2024,125.743906316470,16.853553726609
$GNGGA,175113.50,3503.00974630,N,12208.65581682,W,2,11,0.9,6.142,M,-39.421,M,5.4,0131*62
$PYRTM,2024,125.743906316470,16.853553726609
$GNHDT,171.920,T*27
$PYRTM,2024,125.743912154062,16.853559564201
$GNGGA,175114.00,3503.00839299,N,12208.65553566,W,2,11,0.9,6.059,M,-39.421,M,6.0,0131*65
$PYRTM,2024,125.743912154062,16.853559564201
$GNHDT,172.067,T*2E
$PYRTM,2024,125.743917894213,16.853565304363
$GNGGA,175114.50,3503.00704946,N,12208.65525900,W,2,11,0.9,6.046,M,-39.421,M,6.4,0131*6F
$PYRTM,2024,125.743917894213,16.853565304363
$GNHDT,172.212,T*2E
$PYRTM,2024,125.743923725914,16.853571136053
$GNGGA,175115.00,3503.00570555,N,12208.65499885,W,2,11,0.9,6.037,M,-39.421,M,7.0,0131*6D
$PYRTM,2024,125.743923725914,16.853571136053
$GNHDT,172.173,T*2A
$PYRTM,2024,125.743929466262,16.853576876400
$GNGGA,175115.50,3503.00435120,N,12208.65477989,W,2,11,0.9,6.008,M,-39.421,M,7.4,0131*6B
$PYRTM,2024,125.743929466262,16.853576876400
$GNHDT,172.684,T*25
$PYRTM,2024,125.743935301100,16.853582711238
$GNGGA,175116.00,3503.00298611,N,12208.65460291,W,2,11,0.9,5.955,M,-39.422,M,7.0,0131*68
$PYRTM,2024,125.743935301100,16.853582711238
$GNHDT,172.996,T*29
$PYRTM,2024,125.743941037859,16.853588448009
$GNGGA,175116.50,3503.00162377,N,12208.65444663,W,2,11,0.9,5.895,M,-39.422,M,7.4,0131*68
$PYRTM,2024,125.743941037859,16.853588448009
$GNHDT,172.994,T*2B
$PYRTM,2024,125.743946873588,16.853594283727
$GNGGA,175117.00,3503.00028971,N,12208.65430592,W,2,11,0.9,5.911,M,-39.422,M,7.0,0131*68
$PYRTM,2024,125.743946873588,16.853594283727
$GNHDT,172.960,T*20
$PYRTM,2024,125.743952615475,16.853600025613
$GNGGA,175117.50,3502.99898237,N,12208.65417650,W,2,11,0.9,6.041,M,-39.422,M,7.4,0131*65
$PYRTM,2024,125.743952615475,16.853600025613
$GNHDT,172.962,T*22
$PYRTM,2024,125.743958452975,16.853605863125
$GNGGA,175118.00,3502.99769418,N,12208.65405790,W,2,11,0.9,6.216,M,-39.422,M,4.0,0131*6C
$PYRTM,2024,125.743958452975,16.853605863125
$GNHDT,172.443,T*2C
$PYRTM,2024,125.743964186100,16.853611596250
$GNGGA,175118.50,3502.99639552,N,12208.65394785,W,2,11,0.9,6.376,M,-39.422,M,4.4,0131*6A
$PYRTM,2024,125.743964186100,16.853611596250
$GNHDT,172.004,T*2B
$PYRTM,2024,125.743970023252,16.853617433403
$GNGGA,175119.00,3502.99507705,N,12208.65382891,W,2,11,0.9,6.427,M,-39.422,M,5.0,0131*6B
$PYRTM,2024,125.743970023252,16.853617433403
$GNHDT,171.734,T*2C
$PYRTM,2024,125.743975766921,16.853623177072
$GNGGA,175119.50,3502.99373472,N,12208.65368044,W,2,11,0.9,6.383,M,-39.422,M,5.4,0131*61
$PYRTM,2024,125.743975766921,16.853623177072
$GNHDT,171.052,T*2B
$PYRTM,2024,125.743981603877,16.853629014016
$GNGGA,175120.00,3502.99238676,N,12208.65349632,W,2,11,0.9,6.316,M,-39.422,M,6.0,0131*69
$PYRTM,2024,125.743981603877,16.853629014016
$GNHDT,171.186,T*23
$PYRTM,2024,125.743987335706,16.853634745845
$GNGGA,175120.50,3502.99106575,N,12208.65326603,W,2,11,0.9,6.317,M,-39.422,M,6.4,0131*6C
$PYRTM,2024,125.743987335706,16.853634745845
$GNHDT,171.171,T*2B
$PYRTM,2024,125.743993175370,16.853640585509
$GNGGA,175121.00,3502.98977135,N,12208.65299637,W,2,11,0.9,6.480,M,-39.422,M,7.0,0131*69
$PYRTM,2024,125.743993175370,16.853640585509
$GNHDT,171.182,T*27
$PYRTM,2024,125.743998911088,16.853646321227
$GNGGA,175121.50,3502.98847462,N,12208.65272785,W,2,11,0.9,6.774,M,-39.422,M,7.4,0131*68
$PYRTM,2024,125.743998911088,16.853646321227
$GNHDT,171.253,T*28
$PYRTM,2024,125.744004746238,16.853652156377
$GNGGA,175122.00,3502.98713599,N,12208.65248833,W,2,11,0.9,7.081,M,-39.422,M,7.0,0131*66
$PYRTM,2024,125.744004746238,16.853652156377
$GNHDT,171.679,T*24
$PYRTM,2024,125.744010479132,16.853657889271
$GNGGA,175122.50,3502.98573736,N,12208.65229433,W,2,11,0.9,7.279,M,-39.422,M,7.4,0131*6A
$PYRTM,2024,125.744010479132,16.853657889271
$GNHDT,172.386,T*22
$PYRTM,2024,125.744016323727,16.853663733866
$GNGGA,175123.00,3502.98428167,N,12208.65213411,W,2,11,0.9,7.335,M,-39.422,M,7.0,0131*67
$PYRTM,2024,125.744016323727,16.853663733866
$GNHDT,173.263,T*29
$PYRTM,2024,125.744022057500,16.853669467639
$GNGGA,175123.50,3502.98280261,N,12208.65196195,W,2,11,0.9,7.296,M,-39.422,M,7.4,0131*68
$PYRTM,2024,125.744022057500,16.853669467639
$GNHDT,173.835,T*20
$PYRTM,2024,125.744027892801,16.853675302940
$GNGGA,175124.00,3502.98132778,N,12208.65174442,W,2,11,0.9,7.246,M,-39.422,M,4.0,0131*64
$PYRTM,2024,125.744027892801,16.853675302940
$GNHDT,174.110,T*29
$PYRTM,2024,125.744033636701,16.853681046852
$GNGGA,175124.50,3502.97986000,N,12208.65146552,W,2,11,0.9,7.226,M,-39.422,M,4.4,0131*62
$PYRTM,2024,125.744033636701,16.853681046852
$GNHDT,174.279,T*25
$PYRTM,2024,125.744039468681,16.853686878819
$GNGGA,175125.00,3502.97838268,N,12208.65112918,W,2,11,0.9,7.195,M,-39.422,M,5.0,0131*63
$PYRTM,2024,125.744039468681,16.853686878819
$GNHDT,174.201,T*2A
$PYRTM,2024,125.744045207269,16.853692617419
$GNGGA,175125.50,3502.97688781,N,12208.65076915,W,2,11,0.9,7.089,M,-39.422,M,5.4,0131*67
$PYRTM,2024,125.744045207269,16.853692617419
$GNHDT,174.110,T*29
$PYRTM,2024,125.744051040683,16.853698450822
$GNGGA,175126.00,3502.97537436,N,12208.65041959,W,2,11,0.9,6.859,M,-39.422,M,6.0,0131*66
$PYRTM,2024,125.744051040683,16.853698450822
$GNHDT,173.779,T*27
$PYRTM,2024,125.744056782905,16.853704193044
$GNGGA,175126.50,3502.97386898,N,12208.65012494,W,2,11,0.9,6.523,M,-39.422,M,6.4,0131*69
$PYRTM,2024,125.744056782905,16.853704193044
$GNHDT,173.304,T*29
$PYRTM,2024,125.744062616701,16.853710026840
$GNGGA,175127.00,3502.97240469,N,12208.64989405,W,2,11,0.9,6.178,M,-39.422,M,7.0,0131*69
$PYRTM,2024,125.744062616701,16.853710026840
$GNHDT,172.652,T*2E
$PYRTM,2024,125.744068353380,16.853715763530
$GNGGA,175127.50,3502.97099905,N,12208.64971072,W,2,11,0.9,5.933,M,-39.422,M,7.4,0131*6E
$PYRTM,2024,125.744068353380,16.853715763530
$GNHDT,171.770,T*2C
$PYRTM,2024,125.744074194028,16.853721604167
$GNGGA,175128.00,3502.96964867,N,12208.64955415,W,2,11,0.9,5.804,M,-39.422,M,7.0,0131*69
$PYRTM,2024,125.744074194028,16.853721604167
$GNHDT,170.839,T*2F
$PYRTM,2024,125.744079930440,16.853727340579
$GNGGA,175128.50,3502.96833016,N,12208.64941578,W,2,11,0.9,5.773,M,-39.422,M,7.4,0131*65
$PYRTM,2024,125.744079930440,16.853727340579
$GNHDT,170.362,T*2A
$PYRTM,2024,125.744085764549,16.853733174687
$GNGGA,175129.00,3502.96703780,N,12208.64927644,W,2,11,0.9,5.849,M,-39.422,M,7.0,0131*6B
$PYRTM,2024,125.744085764549,16.853733174687
$GNHDT,170.032,T*2C
$PYRTM,2024,125.744091500509,16.853738910648
$GNGGA,175129.50,3502.96576489,N,12208.64910102,W,2,11,0.9,5.983,M,-39.422,M,7.4,0131*66
$PYRTM,2024,125.744091500509,16.853738910648
$GNHDT,169.783,T*29
$PYRTM,2024,125.744097342836,16.853744752975
$GNGGA,175130.00,3502.96452063,N,12208.64888096,W,2,11,0.9,6.134,M,-39.422,M,4.0,0131*60
$PYRTM,2024,125.744097342836,16.853744752975
$GNHDT,169.480,T*29
$PYRTM,2024,125.744103077280,16.853750487431
$GNGGA,175130.50,3502.96328970,N,12208.64863272,W,2,11,0.9,6.304,M,-39.422,M,4.4,0131*6C
$PYRTM,2024,125.744103077280,16.853750487431
$GNHDT,169.472,T*24
$PYRTM,2024,125.744108913345,16.853756323484
$GNGGA,175131.00,3502.96206207,N,12208.64840058,W,2,11,0.9,6.416,M,-39.422,M,5.0,0131*64
$PYRTM,2024,125.744108913345,16.853756323484
$GNHDT,169.942,T*2A
$PYRTM,2024,125.744114652512,16.853762062650
$GNGGA,175131.50,3502.96081008,N,12208.64822331,W,2,11,0.9,6.465,M,-39.422,M,5.4,0131*69
$PYRTM,2024,125.744114652512,16.853762062650
$GNHDT,170.244,T*2F
$PYRTM,2024,125.744120489271,16.853767899421
$GNGGA,175132.00,3502.95952730,N,12208.64811563,W,2,11,0.9,6.389,M,-39.422,M,6.0,0131*64
$PYRTM,2024,125.744120489271,16.853767899421
$GNHDT,171.009,T*25
$PYRTM,2024,125.744126226782,16.853773636921
$GNGGA,175132.50,3502.95821430,N,12208.64803563,W,2,11,0.9,6.285,M,-39.422,M,6.4,0131*6D
$PYRTM,2024,125.744126226782,16.853773636921
$GNHDT,171.521,T*2A
$PYRTM,2024,125.744132063056,16.853779473194
$GNGGA,175133.00,3502.95688068,N,12208.64793542,W,2,11,0.9,6.201,M,-39.422,M,7.0,0131*61
$PYRTM,2024,125.744132063056,16.853779473194
$GNHDT,172.122,T*2E
$PYRTM,2024,125.744137800370,16.853785210509
$GNGGA,175133.50,3502.95553856,N,12208.64775895,W,2,11,0.9,6.251,M,-39.422,M,7.4,0131*6A
$PYRTM,2024,125.744137800370,16.853785210509
$GNHDT,172.400,T*2B
$PYRTM,2024,125.744143633692,16.853791043831
$GNGGA,175134.00,3502.95418049,N,12208.64750517,W,2,11,0.9,6.413,M,-39.422,M,7.0,0131*64
$PYRTM,2024,125.744143633692,16.853791043831
$GNHDT,172.809,T*2E
$PYRTM,2024,125.744149375417,16.853796785556
$GNGGA,175134.50,3502.95279507,N,12208.64717731,W,2,11,0.9,6.630,M,-39.422,M,7.4,0131*6D
$PYRTM,2024,125.744149375417,16.853796785556
$GNHDT,173.186,T*21
$PYRTM,2024,125.744155208507,16.853802618646
$GNGGA,175135.00,3502.95138799,N,12208.64679524,W,2,11,0.9,6.819,M,-39.422,M,7.0,0131*64
$PYRTM,2024,125.744155208507,16.853802618646
$GNHDT,173.430,T*29
$PYRTM,2024,125.744160945394,16.853808355532
$GNGGA,175135.50,3502.94996371,N,12208.64640302,W,2,11,0.9,6.938,M,-39.422,M,7.4,0131*60
$PYRTM,2024,125.744160945394,16.853808355532
$GNHDT,172.793,T*22
$PYRTM,2024,125.744166786794,16.853814196933
$GNGGA,175136.00,3502.94852466,N,12208.64605630,W,2,11,0.9,6.945,M,-39.422,M,4.0,0131*66
$PYRTM,2024,125.744166786794,16.853814196933
$GNHDT,172.481,T*22
$PYRTM,2024,125.744172520278,16.853819930417
$GNGGA,175136.50,3502.94707834,N,12208.64580486,W,2,11,0.9,6.834,M,-39.422,M,4.4,0131*65
$PYRTM,2024,125.744172520278,16.853819930417
$GNHDT,172.205,T*28
$PYRTM,2024,125.744178357245,16.853825767396
$GNGGA,175137.00,3502.94563220,N,12208.64564749,W,2,11,0.9,6.633,M,-39.422,M,5.0,0131*68
$PYRTM,2024,125.744178357245,16.853825767396
$GNHDT,171.643,T*2D
$PYRTM,2024,125.744184096505,16.853831506644
$GNGGA,175137.50,3502.94419301,N,12208.64556121,W,2,11,0.9,6.398,M,-39.422,M,5.4,0131*6A
$PYRTM,2024,125.744184096505,16.853831506644
$GNHDT,171.549,T*24
$PYRTM,2024,125.744189933646,16.853837343785
$GNGGA,175138.00,3502.94276429,N,12208.64551175,W,2,11,0.9,6.181,M,-39.422,M,6.0,0131*69
$PYRTM,2024,125.744189933646,16.853837343785
$GNHDT,171.459,T*24
$PYRTM,2024,125.744195665949,16.853843076088
$GNGGA,175138.50,3502.94134716,N,12208.64545408,W,2,11,0.9,6.012,M,-39.422,M,6.4,0131*63
$PYRTM,2024,125.744195665949,16.853843076088
$GNHDT,171.371,T*29
$PYRTM,2024,125.744201505289,16.853848915428
$GNGGA,175139.00,3502.93995187,N,12208.64534116,W,2,11,0.9,5.959,M,-39.422,M,7.0,0131*61
$PYRTM,2024,125.744201505289,16.853848915428
$GNHDT,171.373,T*2B
$PYRTM,2024,125.744207246505,16.853854656644
$GNGGA,175139.50,3502.93859318,N,12208.64512756,W,2,11,0.9,6.058,M,-39.422,M,7.4,0131*68
$PYRTM,2024,125.744207246505,16.853854656644
$GNHDT,171.218,T*27
$PYRTM,2024,125.744213077870,16.853860488009
$GNGGA,175140.00,3502.93727491,N,12208.64481890,W,2,11,0.9,6.269,M,-39.422,M,7.0,0131*69
$PYRTM,2024,125.744213077870,16.853860488009
$GNHDT,171.409,T*21
$PYRTM,2024,125.744218823762,16.853866233900
$GNGGA,175140.50,3502.93597216,N,12208.64446477,W,2,11,0.9,6.513,M,-39.422,M,7.4,0131*6C
$PYRTM,2024,125.744218823762,16.853866233900
$GNHDT,171.662,T*2E
$PYRTM,2024,125.744224654213,16.853872064363
$GNGGA,175141.00,3502.93465816,N,12208.64413881,W,2,11,0.9,6.670,M,-39.422,M,7.0,0131*69
$PYRTM,2024,125.744224654213,16.853872064363
$GNHDT,172.104,T*2A
$PYRTM,2024,125.744230388102,16.853877798241
$GNGGA,175141.50,3502.93332177,N,12208.64387247,W,2,11,0.9,6.675,M,-39.422,M,7.4,0131*6C
$PYRTM,2024,125.744230388102,16.853877798241
$GNHDT,172.257,T*2F
$PYRTM,2024,125.744236227928,16.853883638079
$GNGGA,175142.00,3502.93198153,N,12208.64367375,W,2,11,0.9,6.557,M,-39.422,M,4.0,0131*64
$PYRTM,2024,125.744236227928,16.853883638079
$GNHDT,172.148,T*22
$PYRTM,2024,125.744241966065,16.853889376204
$GNGGA,175142.50,3502.93064615,N,12208.64352867,W,2,11,0.9,6.401,M,-39.422,M,4.4,0131*6E
$PYRTM,2024,125.744241966065,16.853889376204
$GNHDT,172.411,T*2B
$PYRTM,2024,125.744247802164,16.853895212303
$GNGGA,175143.00,3502.92932091,N,12208.64341856,W,2,11,0.9,6.229,M,-39.423,M,5.0,0131*63
$PYRTM,2024,125.744247802164,16.853895212303
$GNHDT,172.006,T*29
$PYRTM,2024,125.744253538229,16.853900948368
$GNGGA,175143.50,3502.92799626,N,12208.64332225,W,2,11,0.9,6.078,M,-39.423,M,5.4,0131*6B
$PYRTM,2024,125.744253538229,16.853900948368
$GNHDT,172.033,T*2F
$PYRTM,2024,125.744259382593,16.853906792731
$GNGGA,175144.00,3502.92666598,N,12208.64320572,W,2,11,0.9,5.986,M,-39.423,M,6.0,0131*64
$PYRTM,2024,125.744259382593,16.853906792731
$GNHDT,172.085,T*22
$PYRTM,2024,125.744265116458,16.853912526597
$GNGGA,175144.50,3502.92532981,N,12208.64304446,W,2,11,0.9,5.975,M,-39.423,M,6.4,0131*6F
$PYRTM,2024,125.744265116458,16.853912526597
$GNHDT,172.068,T*21
$PYRTM,2024,125.744270951736,16.853918361875
$GNGGA,175145.00,3502.92398668,N,12208.64280663,W,2,11,0.9,6.089,M,-39.423,M,7.0,0131*61
$PYRTM,2024,125.744270951736,16.853918361875
$GNHDT,172.009,T*26
$PYRTM,2024,125.744276692106,16.853924102245
$GNGGA,175145.50,3502.92264424,N,12208.64249250,W,2,11,0.9,6.306,M,-39.423,M,7.4,0131*6D
$PYRTM,2024,125.744276692106,16.853924102245
$GNHDT,172.367,T*2D
$PYRTM,2024,125.744282529178,16.853929939317
$GNGGA,175146.00,3502.92129873,N,12208.64210160,W,2,11,0.9,6.601,M,-39.423,M,7.0,0131*65
$PYRTM,2024,125.744282529178,16.853929939317
$GNHDT,171.947,T*26
$PYRTM,2024,125.744288262975,16.853935673113
$GNGGA,175146.50,3502.91994328,N,12208.64171562,W,2,11,0.9,6.863,M,-39.423,M,7.4,0131*64
$PYRTM,2024,125.744288262975,16.853935673113
$GNHDT,172.291,T*25
$PYRTM,2024,125.744294094884,16.853941505023
$GNGGA,175147.00,3502.91857348,N,12208.64138057,W,2,11,0.9,7.056,M,-39.423,M,7.0,0131*6D
$PYRTM,2024,125.744294094884,16.853941505023
$GNHDT,172.453,T*2D
$PYRTM,2024,125.744299838322,16.853947248461
