$PYRTM,2024,122.500000053252,13.609647463391
$GNGGA,120000.00,3340.77327533,N,12008.49619463,W,2,13,0.7,7.095,M,-37.525,M,5.0,0135*67
$PYRTM,2024,122.500000053252,13.609647463391
$GNHDT,292.842,T*2C
$PYRTM,2024,122.500005777245,13.609653187384
$GNGGA,120000.50,3340.77382550,N,12008.49742036,W,2,13,0.7,7.443,M,-37.525,M,5.4,0135*68
$PYRTM,2024,122.500005777245,13.609653187384
$GNHDT,292.734,T*22
$PYRTM,2024,122.500011632581,13.609659042731
$GNGGA,120001.00,3340.77433248,N,12008.49866342,W,2,13,0.7,7.611,M,-37.525,M,6.0,0135*64
$PYRTM,2024,122.500011632581,13.609659042731
$GNHDT,292.538,T*2C
$PYRTM,2024,122.500017349757,13.609664759907
$GNGGA,120001.50,3340.77478105,N,12008.49990488,W,2,13,0.7,7.675,M,-37.525,M,6.4,0135*6B
$PYRTM,2024,122.500017349757,13.609664759907
$GNHDT,292.249,T*2D
$PYRTM,2024,122.500023194028,13.609670604167
$GNGGA,120002.00,3340.77516953,N,12008.50114461,W,2,13,0.7,7.612,M,-37.525,M,7.0,0135*60
$PYRTM,2024,122.500023194028,13.609670604167
$GNHDT,292.280,T*28
$PYRTM,2024,122.500028925394,13.609676335532
$GNGGA,120002.50,3340.77554934,N,12008.50238371,W,2,13,0.7,7.443,M,-37.525,M,7.4,0135*6B
$PYRTM,2024,122.500028925394,13.609676335532
$GNHDT,292.540,T*23
$PYRTM,2024,122.500034776331,13.609682186470
$GNGGA,120003.00,3340.77594747,N,12008.50363085,W,2,13,0.7,7.138,M,-37.525,M,7.0,0135*63
$PYRTM,2024,122.500034776331,13.609682186470
$GNHDT,292.387,T*2E
$PYRTM,2024,122.500040497836,13.609687907986
$GNGGA,120003.50,3340.77638300,N,12008.50487754,W,2,13,0.7,6.769,M,-37.525,M,7.4,0135*65
$PYRTM,2024,122.500040497836,13.609687907986
$GNHDT,292.617,T*22
$PYRTM,2024,122.500046343796,13.609693753935
$GNGGA,120004.00,3340.77682111,N,12008.50610344,W,2,13,0.7,6.444,M,-37.525,M,7.0,0135*65
$PYRTM,2024,122.500046343796,13.609693753935
$GNHDT,292.470,T*21
$PYRTM,2024,122.500052076412,13.609699486551
$GNGGA,120004.50,3340.77724783,N,12008.50729082,W,2,13,0.7,6.253,M,-37.525,M,7.4,0135*66
$PYRTM,2024,122.500052076412,13.609699486551
$GNHDT,292.205,T*25
$PYRTM,2024,122.500057923426,13.609705333576
$GNGGA,120005.00,3340.77765978,N,12008.50847869,W,2,13,0.7,6.225,M,-37.525,M,4.0,0135*61
$PYRTM,2024,122.500057923426,13.609705333576
$GNHDT,292.048,T*2E
$PYRTM,2024,122.500063647986,13.609711058125
$GNGGA,120005.50,3340.77808080,N,12008.50970571,W,2,13,0.7,6.244,M,-37.525,M,4.4,0135*6C
$PYRTM,2024,122.500063647986,13.609711058125
$GNHDT,291.999,T*28
$PYRTM,2024,122.500069492454,13.609716902593
$GNGGA,120006.00,3340.77851524,N,12008.51100402,W,2,13,0.7,6.255,M,-37.525,M,5.0,0135*63
$PYRTM,2024,122.500069492454,13.609716902593
$GNHDT,291.971,T*2E
$PYRTM,2024,122.500075219769,13.609722629907
$GNGGA,120006.50,3340.77896585,N,12008.51233398,W,2,13,0.7,6.259,M,-37.525,M,5.4,0135*69
$PYRTM,2024,122.500075219769,13.609722629907
$GNHDT,292.065,T*21
$PYRTM,2024,122.500081064398,13.609728474537
$GNGGA,120007.00,3340.77941394,N,12008.51362405,W,2,13,0.7,6.336,M,-37.525,M,6.0,0135*69
$PYRTM,2024,122.500081064398,13.609728474537
$GNHDT,292.161,T*24
$PYRTM,2024,122.500086795544,13.609734205683
$GNGGA,120007.50,3340.77984634,N,12008.51481094,W,2,13,0.7,6.581,M,-37.525,M,6.4,0135*62
$PYRTM,2024,122.500086795544,13.609734205683
$GNHDT,292.435,T*20
$PYRTM,2024,122.500092640104,13.609740050243
$GNGGA,120008.00,3340.78025477,N,12008.51593263,W,2,13,0.7,6.964,M,-37.525,M,7.0,0135*6A
$PYRTM,2024,122.500092640104,13.609740050243
$GNHDT,292.487,T*29
$PYRTM,2024,122.500098368692,13.609745778831
$GNGGA,120008.50,3340.78064921,N,12008.51707445,W,2,13,0.7,7.324,M,-37.525,M,7.4,0135*62
$PYRTM,2024,122.500098368692,13.609745778831
$GNHDT,292.308,T*29
$PYRTM,2024,122.500104217894,13.609751628032
$GNGGA,120009.00,3340.78104108,N,12008.51832498,W,2,13,0.7,7.423,M,-37.525,M,7.0,0135*6F
$PYRTM,2024,122.500104217894,13.609751628032
$GNHDT,292.133,T*23
$PYRTM,2024,122.500109943056,13.609757353194
$GNGGA,120009.50,3340.78146282,N,12008.51965756,W,2,13,0.7,7.191,M,-37.525,M,7.4,0135*67
$PYRTM,2024,122.500109943056,13.609757353194
$GNHDT,292.137,T*27
$PYRTM,2024,122.500115785058,13.609763195197
$GNGGA,120010.00,3340.78190078,N,12008.52099715,W,2,13,0.7,6.770,M,-37.525,M,7.0,0135*64
$PYRTM,2024,122.500115785058,13.609763195197
$GNHDT,292.246,T*22
$PYRTM,2024,122.500121516655,13.609768926794
$GNGGA,120010.50,3340.78233882,N,12008.52227624,W,2,13,0.7,6.357,M,-37.525,M,7.4,0135*67
$PYRTM,2024,122.500121516655,13.609768926794
$GNHDT,292.329,T*2A
$PYRTM,2024,122.500127365995,13.609774776134
$GNGGA,120011.00,3340.78278021,N,12008.52348108,W,2,13,0.7,6.119,M,-37.525,M,4.0,0135*63
$PYRTM,2024,122.500127365995,13.609774776134
$GNHDT,292.419,T*2E
$PYRTM,2024,122.500133093160,13.609780503299
$GNGGA,120011.50,3340.78322555,N,12008.52464822,W,2,13,0.7,6.099,M,-37.525,M,4.4,0135*6B
$PYRTM,2024,122.500133093160,13.609780503299
$GNHDT,292.350,T*24
$PYRTM,2024,122.500138940231,13.609786350370
$GNGGA,120012.00,3340.78368517,N,12008.52583705,W,2,13,0.7,6.214,M,-37.525,M,5.0,0135*65
$PYRTM,2024,122.500138940231,13.609786350370
$GNHDT,292.000,T*22
$PYRTM,2024,122.500144666701,13.609792076840
$GNGGA,120012.50,3340.78416301,N,12008.52708920,W,2,13,0.7,6.337,M,-37.525,M,5.4,0135*63
$PYRTM,2024,122.500144666701,13.609792076840
$GNHDT,291.685,T*2A
$PYRTM,2024,122.500150510729,13.609797920868
$GNGGA,120013.00,3340.78462815,N,12008.52838816,W,2,13,0.7,6.445,M,-37.525,M,6.0,0135*67
$PYRTM,2024,122.500150510729,13.609797920868
$GNHDT,291.439,T*2F
$PYRTM,2024,122.500156240440,13.609803650579
$GNGGA,120013.50,3340.78505559,N,12008.52969329,W,2,13,0.7,6.588,M,-37.525,M,6.4,0135*61
$PYRTM,2024,122.500156240440,13.609803650579
$GNHDT,291.456,T*26
$PYRTM,2024,122.500162082037,13.609809492176
$GNGGA,120014.00,3340.78543944,N,12008.53096811,W,2,13,0.7,6.806,M,-37.525,M,7.0,0135*67
$PYRTM,2024,122.500162082037,13.609809492176
$GNHDT,291.334,T*25
$PYRTM,2024,122.500167811829,13.609815221968
$GNGGA,120014.50,3340.78580289,N,12008.53220161,W,2,13,0.7,7.083,M,-37.525,M,7.4,0135*66
$PYRTM,2024,122.500167811829,13.609815221968
$GNHDT,291.253,T*25
$PYRTM,2024,122.500173657940,13.609821068079
$GNGGA,120015.00,3340.78618127,N,12008.53341573,W,2,13,0.7,7.340,M,-37.525,M,7.0,0135*6E
$PYRTM,2024,122.500173657940,13.609821068079
$GNHDT,291.349,T*2F
$PYRTM,2024,122.500179386424,13.609826796562
$GNGGA,120015.50,3340.78661978,N,12008.53465900,W,2,13,0.7,7.401,M,-37.525,M,7.4,0135*68
$PYRTM,2024,122.500179386424,13.609826796562
$GNHDT,291.427,T*20
$PYRTM,2024,122.500185236852,13.609832646991
$GNGGA,120016.00,3340.78710458,N,12008.53594051,W,2,13,0.7,7.230,M,-37.525,M,7.0,0135*64
$PYRTM,2024,122.500185236852,13.609832646991
$GNHDT,291.423,T*24
$PYRTM,2024,122.500190961042,13.609838371181
$GNGGA,120016.50,3340.78761144,N,12008.53723804,W,2,13,0.7,6.903,M,-37.525,M,7.4,0135*67
$PYRTM,2024,122.500190961042,13.609838371181
$GNHDT,291.670,T*20
$PYRTM,2024,122.500196806146,13.609844216285
$GNGGA,120017.00,3340.78809744,N,12008.53851734,W,2,13,0.7,6.537,M,-37.525,M,4.0,0135*6E
$PYRTM,2024,122.500196806146,13.609844216285
$GNHDT,291.490,T*2C
$PYRTM,2024,122.500202534931,13.609849945069
$GNGGA,120017.50,3340.78855179,N,12008.53976475,W,2,13,0.7,6.324,M,-37.525,M,4.4,0135*68
$PYRTM,2024,122.500202534931,13.609849945069
$GNHDT,291.814,T*2C
$PYRTM,2024,122.500208383947,13.609855794086
$GNGGA,120018.00,3340.78897495,N,12008.54095982,W,2,13,0.7,6.335,M,-37.525,M,5.0,0135*68
$PYRTM,2024,122.500208383947,13.609855794086
$GNHDT,291.888,T*29
$PYRTM,2024,122.500214114398,13.609861524537
$GNGGA,120018.50,3340.78939308,N,12008.54211008,W,2,13,0.7,6.578,M,-37.525,M,5.4,0135*65
$PYRTM,2024,122.500214114398,13.609861524537
$GNHDT,292.106,T*25
$PYRTM,2024,122.500219956227,13.609867366366
$GNGGA,120019.00,3340.78980994,N,12008.54325058,W,2,13,0.7,6.960,M,-37.525,M,6.0,0135*6D
$PYRTM,2024,122.500219956227,13.609867366366
$GNHDT,292.353,T*27
$PYRTM,2024,122.500225685914,13.609873096053
$GNGGA,120019.50,3340.79023290,N,12008.54445665,W,2,13,0.7,7.238,M,-37.525,M,6.4,0135*6C
$PYRTM,2024,122.500225685914,13.609873096053
$GNHDT,292.212,T*23
$PYRTM,2024,122.500231533576,13.609878943715
$GNGGA,120020.00,3340.79065950,N,12008.54575740,W,2,13,0.7,7.284,M,-37.525,M,7.0,0135*60
$PYRTM,2024,122.500231533576,13.609878943715
$GNHDT,291.827,T*2C
$PYRTM,2024,122.500237258125,13.609884668275
$GNGGA,120020.50,3340.79109599,N,12008.54712116,W,2,13,0.7,7.040,M,-37.525,M,7.4,0135*6F
$PYRTM,2024,122.500237258125,13.609884668275
$GNHDT,291.911,T*28
$PYRTM,2024,122.500243102650,13.609890512789
$GNGGA,120021.00,3340.79153108,N,12008.54849650,W,2,13,0.7,6.572,M,-37.525,M,7.0,0135*6D
$PYRTM,2024,122.500243102650,13.609890512789
$GNHDT,291.970,T*2F
$PYRTM,2024,122.500248830995,13.609896241134
$GNGGA,120021.50,3340.79197791,N,12008.54986316,W,2,13,0.7,6.025,M,-37.525,M,7.4,0135*60
$PYRTM,2024,122.500248830995,13.609896241134
$GNHDT,292.208,T*28
$PYRTM,2024,122.500254675579,13.609902085718
$GNGGA,120022.00,3340.79243687,N,12008.55119994,W,2,13,0.7,5.542,M,-37.525,M,7.0,0135*66
$PYRTM,2024,122.500254675579,13.609902085718
$GNHDT,292.332,T*20
$PYRTM,2024,122.500260410949,13.609907821088
$GNGGA,120022.50,3340.79289726,N,12008.55246147,W,2,13,0.7,5.376,M,-37.525,M,7.4,0135*65
$PYRTM,2024,122.500260410949,13.609907821088
$GNHDT,292.130,T*20
$PYRTM,2024,122.500266261481,13.609913671620
$GNGGA,120023.00,3340.79332306,N,12008.55362741,W,2,13,0.7,5.664,M,-37.525,M,4.0,0135*60
$PYRTM,2024,122.500266261481,13.609913671620
$GNHDT,291.929,T*23
$PYRTM,2024,122.500271985185,13.609919395336
$GNGGA,120023.50,3340.79371731,N,12008.55471471,W,2,13,0.7,6.328,M,-37.525,M,4.4,0135*6D
$PYRTM,2024,122.500271985185,13.609919395336
$GNHDT,292.132,T*22
$PYRTM,2024,122.500277831146,13.609925241285
$GNGGA,120024.00,3340.79409077,N,12008.55578175,W,2,13,0.7,7.112,M,-37.525,M,5.0,0135*64
$PYRTM,2024,122.500277831146,13.609925241285
$GNHDT,292.312,T*22
$PYRTM,2024,122.500283553507,13.609930963646
$GNGGA,120024.50,3340.79445089,N,12008.55688009,W,2,13,0.7,7.864,M,-37.525,M,5.4,0135*62
$PYRTM,2024,122.500283553507,13.609930963646
$GNHDT,292.477,T*26
$PYRTM,2024,122.500289402674,13.609936812812
$GNGGA,120025.00,3340.79483458,N,12008.55808578,W,2,13,0.7,8.269,M,-37.525,M,6.0,0135*6E
$PYRTM,2024,122.500289402674,13.609936812812
$GNHDT,292.662,T*20
$PYRTM,2024,122.500295141771,13.609942551910
$GNGGA,120025.50,3340.79526995,N,12008.55941956,W,2,13,0.7,8.054,M,-37.526,M,6.4,0135*6E
$PYRTM,2024,122.500295141771,13.609942551910
$GNHDT,292.172,T*26
$PYRTM,2024,122.500300974016,13.609948384155
$GNGGA,120026.00,3340.79571875,N,12008.56078261,W,2,13,0.7,7.406,M,-37.526,M,7.0,0135*63
$PYRTM,2024,122.500300974016,13.609948384155
$GNHDT,292.216,T*27
$PYRTM,2024,122.500306701458,13.609954111597
$GNGGA,120026.50,3340.79615215,N,12008.56206085,W,2,13,0.7,6.645,M,-37.526,M,7.4,0135*68
$PYRTM,2024,122.500306701458,13.609954111597
$GNHDT,292.564,T*25
$PYRTM,2024,122.500312549005,13.609959959144
$GNGGA,120027.00,3340.79657458,N,12008.56324951,W,2,13,0.7,6.039,M,-37.526,M,7.0,0135*6D
$PYRTM,2024,122.500312549005,13.609959959144
$GNHDT,292.665,T*27
$PYRTM,2024,122.500318277812,13.609965687963
$GNGGA,120027.50,3340.79701381,N,12008.56435314,W,2,13,0.7,5.740,M,-37.526,M,7.4,0135*6B
$PYRTM,2024,122.500318277812,13.609965687963
$GNHDT,292.944,T*2B
$PYRTM,2024,122.500324120694,13.609971530833
$GNGGA,120028.00,3340.79748717,N,12008.56543894,W,2,13,0.7,5.729,M,-37.526,M,7.0,0135*6F
$PYRTM,2024,122.500324120694,13.609971530833
$GNHDT,293.075,T*21
$PYRTM,2024,122.500329857697,13.609977267836
$GNGGA,120028.50,3340.79799508,N,12008.56657921,W,2,13,0.7,5.841,M,-37.526,M,7.4,0135*66
$PYRTM,2024,122.500329857697,13.609977267836
$GNHDT,293.399,T*20
$PYRTM,2024,122.500335696991,13.609983107130
$GNGGA,120029.00,3340.79853081,N,12008.56782040,W,2,13,0.7,5.960,M,-37.526,M,4.0,0135*6D
$PYRTM,2024,122.500335696991,13.609983107130
$GNHDT,293.299,T*21
$PYRTM,2024,122.500341426412,13.609988836551
$GNGGA,120029.50,3340.79905888,N,12008.56912465,W,2,13,0.7,6.081,M,-37.526,M,4.4,0135*6E
$PYRTM,2024,122.500341426412,13.609988836551
$GNHDT,293.169,T*2D
$PYRTM,2024,122.500347273866,13.609994684005
$GNGGA,120030.00,3340.79952798,N,12008.57040579,W,2,13,0.7,6.332,M,-37.526,M,5.0,0135*62
$PYRTM,2024,122.500347273866,13.609994684005
$GNHDT,293.108,T*2A
$PYRTM,2024,122.500352999977,13.610000410127
$GNGGA,120030.50,3340.79992829,N,12008.57161459,W,2,13,0.7,6.761,M,-37.526,M,5.4,0135*69
$PYRTM,2024,122.500352999977,13.610000410127
$GNHDT,293.340,T*24
$PYRTM,2024,122.500358845648,13.610006255787
$GNGGA,120031.00,3340.80029796,N,12008.57277233,W,2,13,0.7,7.276,M,-37.526,M,6.0,0135*62
$PYRTM,2024,122.500358845648,13.610006255787
$GNHDT,293.330,T*23
$PYRTM,2024,122.500364572222,13.610011982361
$GNGGA,120031.50,3340.80068758,N,12008.57393704,W,2,13,0.7,7.665,M,-37.526,M,6.4,0135*68
$PYRTM,2024,122.500364572222,13.610011982361
$GNHDT,293.269,T*2E
$PYRTM,2024,122.500370423264,13.610017833403
$GNGGA,120032.00,3340.80113554,N,12008.57516609,W,2,13,0.7,7.667,M,-37.526,M,7.0,0135*6D
$PYRTM,2024,122.500370423264,13.610017833403
$GNHDT,293.184,T*2E
$PYRTM,2024,122.500376153507,13.610023563646
$GNGGA,120032.50,3340.80162218,N,12008.57646875,W,2,13,0.7,7.244,M,-37.526,M,7.4,0135*63
$PYRTM,2024,122.500376153507,13.610023563646
$GNHDT,293.181,T*2B
$PYRTM,2024,122.500381996620,13.610029406759
$GNGGA,120033.00,3340.80209415,N,12008.57781284,W,2,13,0.7,6.535,M,-37.526,M,7.0,0135*68
$PYRTM,2024,122.500381996620,13.610029406759
$GNHDT,292.914,T*2E
$PYRTM,2024,122.500387720127,13.610035130266
$GNGGA,120033.50,3340.80252881,N,12008.57912038,W,2,13,0.7,5.836,M,-37.526,M,7.4,0135*6A
$PYRTM,2024,122.500387720127,13.610035130266
$GNHDT,292.922,T*2B
$PYRTM,2024,122.500393565706,13.610040975845
$GNGGA,120034.00,3340.80291815,N,12008.58033266,W,2,13,0.7,5.463,M,-37.526,M,7.0,0135*6E
$PYRTM,2024,122.500393565706,13.610040975845
$GNHDT,292.805,T*2F
$PYRTM,2024,122.500399299109,13.610046709248
$GNGGA,120034.50,3340.80329233,N,12008.58144771,W,2,13,0.7,5.552,M,-37.526,M,7.4,0135*62
$PYRTM,2024,122.500399299109,13.610046709248
$GNHDT,292.667,T*25
$PYRTM,2024,122.500405148553,13.610052558692
$GNGGA,120035.00,3340.80367406,N,12008.58252615,W,2,13,0.7,6.018,M,-37.526,M,4.0,0135*64
$PYRTM,2024,122.500405148553,13.610052558692
$GNHDT,292.617,T*22
$PYRTM,2024,122.500410874144,13.610058284282
$GNGGA,120035.50,3340.80409995,N,12008.58363735,W,2,13,0.7,6.590,M,-37.526,M,4.4,0135*68
$PYRTM,2024,122.500410874144,13.610058284282
$GNHDT,292.499,T*26
$PYRTM,2024,122.500416714595,13.610064124734
$GNGGA,120036.00,3340.80457584,N,12008.58482223,W,2,13,0.7,7.060,M,-37.526,M,5.0,0135*6D
$PYRTM,2024,122.500416714595,13.610064124734
$GNHDT,292.466,T*26
$PYRTM,2024,122.500422443194,13.610069853333
$GNGGA,120036.50,3340.80508615,N,12008.58606003,W,2,13,0.7,7.337,M,-37.526,M,5.4,0135*63
$PYRTM,2024,122.500422443194,13.610069853333
$GNHDT,292.505,T*22
$PYRTM,2024,122.500428290671,13.610075700810
$GNGGA,120037.00,3340.80560635,N,12008.58730716,W,2,13,0.7,7.365,M,-37.526,M,6.0,0135*6C
$PYRTM,2024,122.500428290671,13.610075700810
$GNHDT,292.490,T*2F
$PYRTM,2024,122.500434023727,13.610081433866
$GNGGA,120037.50,3340.80608333,N,12008.58852902,W,2,13,0.7,7.316,M,-37.526,M,6.4,0135*67
$PYRTM,2024,122.500434023727,13.610081433866
$GNHDT,292.362,T*25
$PYRTM,2024,122.500439864410,13.610087274549
$GNGGA,120038.00,3340.80650216,N,12008.58971963,W,2,13,0.7,7.244,M,-37.526,M,7.0,0135*62
$PYRTM,2024,122.500439864410,13.610087274549
$GNHDT,292.054,T*23
$PYRTM,2024,122.500445590660,13.610093000799
$GNGGA,120038.50,3340.80687510,N,12008.59089874,W,2,13,0.7,7.186,M,-37.526,M,7.4,0135*6D
$PYRTM,2024,122.500445590660,13.610093000799
$GNHDT,291.978,T*27
$PYRTM,2024,122.500451437500,13.610098847639
$GNGGA,120039.00,3340.80721517,N,12008.59208148,W,2,13,0.7,7.124,M,-37.526,M,7.0,0135*62
$PYRTM,2024,122.500451437500,13.610098847639
$GNHDT,291.496,T*2A
$PYRTM,2024,122.500457162951,13.610104573102
$GNGGA,120039.50,3340.80757016,N,12008.59328152,W,2,13,0.7,7.004,M,-37.526,M,7.4,0135*6D
$PYRTM,2024,122.500457162951,13.610104573102
$GNHDT,291.243,T*24
$PYRTM,2024,122.500463010984,13.610110421123
$GNGGA,120040.00,3340.80797813,N,12008.59451094,W,2,13,0.7,6.745,M,-37.526,M,7.0,0135*62
$PYRTM,2024,122.500463010984,13.610110421123
$GNHDT,291.264,T*21
$PYRTM,2024,122.500468741968,13.610116152106
$GNGGA,120040.50,3340.80847214,N,12008.59576497,W,2,13,0.7,6.342,M,-37.526,M,7.4,0135*6C
$PYRTM,2024,122.500468741968,13.610116152106
$GNHDT,291.574,T*27
$PYRTM,2024,122.500474590058,13.610122000197
$GNGGA,120041.00,3340.80903489,N,12008.59702754,W,2,13,0.7,5.913,M,-37.526,M,4.0,0135*6C
$PYRTM,2024,122.500474590058,13.610122000197
$GNHDT,291.690,T*2E
$PYRTM,2024,122.500480318125,13.610127728264
$GNGGA,120041.50,3340.80962943,N,12008.59827981,W,2,13,0.7,5.556,M,-37.526,M,4.4,0135*62
$PYRTM,2024,122.500480318125,13.610127728264
$GNHDT,291.424,T*23
$PYRTM,2024,122.500486159676,13.610133569815
$GNGGA,120042.00,3340.81019025,N,12008.59952224,W,2,13,0.7,5.437,M,-37.526,M,5.0,0135*6D
$PYRTM,2024,122.500486159676,13.610133569815
$GNHDT,291.201,T*22
$PYRTM,2024,122.500491893507,13.610139303646
$GNGGA,120042.50,3340.81065152,N,12008.60076801,W,2,13,0.7,5.648,M,-37.526,M,5.4,0135*64
$PYRTM,2024,122.500491893507,13.610139303646
$GNHDT,290.951,T*2D
$PYRTM,2024,122.500497745810,13.610145155949
$GNGGA,120043.00,3340.81100176,N,12008.60200466,W,2,13,0.7,6.166,M,-37.526,M,6.0,0135*65
$PYRTM,2024,122.500497745810,13.610145155949
$GNHDT,290.667,T*27
$PYRTM,2024,122.500503462905,13.610150873044
$GNGGA,120043.50,3340.81128683,N,12008.60324150,W,2,13,0.7,6.804,M,-37.526,M,6.4,0135*69
$PYRTM,2024,122.500503462905,13.610150873044
$GNHDT,290.694,T*2B
$PYRTM,2024,122.500509318148,13.610156728299
$GNGGA,120044.00,3340.81153940,N,12008.60447286,W,2,13,0.7,7.459,M,-37.526,M,7.0,0135*6D
$PYRTM,2024,122.500509318148,13.610156728299
$GNHDT,290.867,T*29
$PYRTM,2024,122.500515034792,13.610162444931
$GNGGA,120044.50,3340.81182649,N,12008.60572316,W,2,13,0.7,7.882,M,-37.526,M,7.4,0135*63
$PYRTM,2024,122.500515034792,13.610162444931
$GNHDT,290.706,T*21
$PYRTM,2024,122.500520887431,13.610168297569
$GNGGA,120045.00,3340.81220701,N,12008.60703283,W,2,13,0.7,7.825,M,-37.526,M,7.0,0135*61
$PYRTM,2024,122.500520887431,13.610168297569
$GNHDT,290.577,T*25
$PYRTM,2024,122.500526620914,13.610174031053
$GNGGA,120045.50,3340.81268259,N,12008.60835613,W,2,13,0.7,7.320,M,-37.526,M,7.4,0135*6D
$PYRTM,2024,122.500526620914,13.610174031053
$GNHDT,290.516,T*22
$PYRTM,2024,122.500532454745,13.610179864884
$GNGGA,120046.00,3340.81321408,N,12008.60964791,W,2,13,0.7,6.563,M,-37.526,M,7.0,0135*6F
$PYRTM,2024,122.500532454745,13.610179864884
$GNHDT,290.750,T*22
$PYRTM,2024,122.500538185775,13.610185595914
$GNGGA,120046.50,3340.81372198,N,12008.61088384,W,2,13,0.7,5.883,M,-37.526,M,7.4,0135*6E
$PYRTM,2024,122.500538185775,13.610185595914
$GNHDT,290.662,T*22
$PYRTM,2024,122.500544030856,13.610191440995
$GNGGA,120047.00,3340.81416403,N,12008.61201957,W,2,13,0.7,5.580,M,-37.526,M,4.0,0135*66
$PYRTM,2024,122.500544030856,13.610191440995
$GNHDT,290.840,T*2C
$PYRTM,2024,122.500549762303,13.610197172442
$GNGGA,120047.50,3340.81451274,N,12008.61309625,W,2,13,0.7,5.776,M,-37.526,M,4.4,0135*6A
$PYRTM,2024,122.500549762303,13.610197172442
$GNHDT,290.599,T*25
$PYRTM,2024,122.500555619387,13.610203029525
$GNGGA,120048.00,3340.81481097,N,12008.61413529,W,2,13,0.7,6.329,M,-37.526,M,5.0,0135*69
$PYRTM,2024,122.500555619387,13.610203029525
$GNHDT,290.664,T*24
$PYRTM,2024,122.500561340787,13.610208750926
$GNGGA,120048.50,3340.81508628,N,12008.61521447,W,2,13,0.7,6.969,M,-37.526,M,5.4,0135*6D
$PYRTM,2024,122.500561340787,13.610208750926
$GNHDT,290.751,T*23
$PYRTM,2024,122.500567180521,13.610214590660
$GNGGA,120049.00,3340.81537208,N,12008.61638459,W,2,13,0.7,7.441,M,-37.526,M,6.0,0135*66
$PYRTM,2024,122.500567180521,13.610214590660
$GNHDT,290.661,T*21
$PYRTM,2024,122.500572908831,13.610220318970
$GNGGA,120049.50,3340.81571769,N,12008.61767963,W,2,13,0.7,7.487,M,-37.526,M,6.4,0135*62
$PYRTM,2024,122.500572908831,13.610220318970
$GNHDT,291.085,T*2C
$PYRTM,2024,122.500578757523,13.610226167662
$GNGGA,120050.00,3340.81611801,N,12008.61908770,W,2,13,0.7,7.012,M,-37.526,M,7.0,0135*6D
$PYRTM,2024,122.500578757523,13.610226167662
$GNHDT,290.873,T*2C
$PYRTM,2024,122.500584487558,13.610231897697
$GNGGA,120050.50,3340.81654565,N,12008.62053806,W,2,13,0.7,6.149,M,-37.526,M,7.4,0135*66
$PYRTM,2024,122.500584487558,13.610231897697
$GNHDT,290.598,T*24
$PYRTM,2024,122.500590328171,13.610237738310
$GNGGA,120051.00,3340.81697311,N,12008.62191473,W,2,13,0.7,5.322,M,-37.526,M,7.0,0135*61
$PYRTM,2024,122.500590328171,13.610237738310
$GNHDT,290.426,T*20
$PYRTM,2024,122.500596057153,13.610243467292
$GNGGA,120051.50,3340.81738799,N,12008.62313388,W,2,13,0.7,4.931,M,-37.526,M,7.4,0135*62
$PYRTM,2024,122.500596057153,13.610243467292
$GNHDT,290.796,T*28
$PYRTM,2024,122.500601910440,13.610249320579
$GNGGA,120052.00,3340.81780466,N,12008.62418994,W,2,13,0.7,5.208,M,-37.526,M,7.0,0135*6B
$PYRTM,2024,122.500601910440,13.610249320579
$GNHDT,290.869,T*27
$PYRTM,2024,122.500607635845,13.610255045984
$GNGGA,120052.50,3340.81822378,N,12008.62513098,W,2,13,0.7,5.947,M,-37.526,M,7.4,0135*6A
$PYRTM,2024,122.500607635845,13.610255045984
$GNHDT,291.046,T*23
$PYRTM,2024,122.500613482338,13.610260892488
$GNGGA,120053.00,3340.81865490,N,12008.62610011,W,2,13,0.7,6.839,M,-37.526,M,4.0,0135*61
$PYRTM,2024,122.500613482338,13.610260892488
$GNHDT,291.447,T*26
$PYRTM,2024,122.500619207338,13.610266617477
$GNGGA,120053.50,3340.81910869,N,12008.62719566,W,2,13,0.7,7.540,M,-37.526,M,4.4,0135*66
$PYRTM,2024,122.500619207338,13.610266617477
$GNHDT,291.709,T*2F
$PYRTM,2024,122.500625054641,13.610272464780
$GNGGA,120054.00,3340.81959819,N,12008.62845621,W,2,13,0.7,7.767,M,-37.526,M,5.0,0135*6A
$PYRTM,2024,122.500625054641,13.610272464780
$GNHDT,291.821,T*2A
$PYRTM,2024,122.500630783021,13.610278193160
$GNGGA,120054.50,3340.82007577,N,12008.62979255,W,2,13,0.7,7.578,M,-37.526,M,5.4,0135*6A
$PYRTM,2024,122.500630783021,13.610278193160
$GNHDT,292.005,T*27
$PYRTM,2024,122.500636628704,13.610284038843
$GNGGA,120055.00,3340.82050108,N,12008.63110711,W,2,13,0.7,7.192,M,-37.526,M,6.0,0135*64
$PYRTM,2024,122.500636628704,13.610284038843
$GNHDT,292.215,T*24
$PYRTM,2024,122.500642353090,13.610289763229
$GNGGA,120055.50,3340.82084807,N,12008.63232283,W,2,13,0.7,6.908,M,-37.526,M,6.4,0135*6D
$PYRTM,2024,122.500642353090,13.610289763229
$GNHDT,292.102,T*21
$PYRTM,2024,122.500648199514,13.610295609653
$GNGGA,120056.00,3340.82114862,N,12008.63340207,W,2,13,0.7,6.892,M,-37.526,M,7.0,0135*6F
$PYRTM,2024,122.500648199514,13.610295609653
$GNHDT,292.147,T*20
$PYRTM,2024,122.500653923924,13.610301334063
$GNGGA,120056.50,3340.82145717,N,12008.63437455,W,2,13,0.7,7.119,M,-37.526,M,7.4,0135*6A
$PYRTM,2024,122.500653923924,13.610301334063
$GNHDT,292.123,T*22
$PYRTM,2024,122.500659772153,13.610307182292
$GNGGA,120057.00,3340.82180631,N,12008.63532124,W,2,13,0.7,7.438,M,-37.526,M,7.0,0135*67
$PYRTM,2024,122.500659772153,13.610307182292
$GNHDT,292.290,T*29
$PYRTM,2024,122.500665500972,13.610312911111
$GNGGA,120057.50,3340.82223231,N,12008.63634917,W,2,13,0.7,7.578,M,-37.526,M,7.4,0135*60
$PYRTM,2024,122.500665500972,13.610312911111
$GNHDT,292.571,T*21
$PYRTM,2024,122.500671350370,13.610318760509
$GNGGA,120058.00,3340.82271812,N,12008.63753524,W,2,13,0.7,7.274,M,-37.526,M,7.0,0135*65
$PYRTM,2024,122.500671350370,13.610318760509
$GNHDT,292.454,T*27
$PYRTM,2024,122.500677076678,13.610324486817
$GNGGA,120058.50,3340.82321332,N,12008.63878153,W,2,13,0.7,6.731,M,-37.526,M,7.4,0135*6E
$PYRTM,2024,122.500677076678,13.610324486817
$GNHDT,292.297,T*2E
$PYRTM,2024,122.500682923322,13.610330333472
$GNGGA,120059.00,3340.82368626,N,12008.64001070,W,2,13,0.7,6.111,M,-37.527,M,4.0,0135*64
$PYRTM,2024,122.500682923322,13.610330333472
$GNHDT,292.399,T*21
$PYRTM,2024,122.500688646655,13.610336056794
$GNGGA,120059.50,3340.82411815,N,12008.64119075,W,2,13,0.7,5.674,M,-37.527,M,4.4,0135*68
$PYRTM,2024,122.500688646655,13.610336056794
$GNHDT,292.382,T*2B
$PYRTM,2024,122.500694494595,13.610341904734
$GNGGA,120100.00,3340.82450891,N,12008.64231861,W,2,13,0.7,5.624,M,-37.527,M,5.0,0135*6D
$PYRTM,2024,122.500694494595,13.610341904734
$GNHDT,292.650,T*21
$PYRTM,2024,122.500700222419,13.610347632558
$GNGGA,120100.50,3340.82488702,N,12008.64341830,W,2,13,0.7,5.894,M,-37.527,M,5.4,0135*6B
$PYRTM,2024,122.500700222419,13.610347632558
$GNHDT,293.199,T*22
$PYRTM,2024,122.500706065961,13.610353476100
$GNGGA,120101.00,3340.82526717,N,12008.64452715,W,2,13,0.7,6.317,M,-37.527,M,6.0,0135*67
$PYRTM,2024,122.500706065961,13.610353476100
$GNHDT,293.137,T*26
$PYRTM,2024,122.500711798819,13.610359208958
$GNGGA,120101.50,3340.82565486,N,12008.64563144,W,2,13,0.7,6.802,M,-37.527,M,6.4,0135*64
$PYRTM,2024,122.500711798819,13.610359208958
$GNHDT,292.872,T*2F
$PYRTM,2024,122.500717646088,13.610365056227
$GNGGA,120102.00,3340.82603362,N,12008.64673726,W,2,13,0.7,7.217,M,-37.527,M,7.0,0135*66
$PYRTM,2024,122.500717646088,13.610365056227
$GNHDT,292.569,T*28
$PYRTM,2024,122.500723371829,13.610370781968
$GNGGA,120102.50,3340.82641401,N,12008.64788016,W,2,13,0.7,7.404,M,-37.527,M,7.4,0135*66
$PYRTM,2024,122.500723371829,13.610370781968
$GNHDT,292.445,T*27
$PYRTM,2024,122.500729216944,13.610376627083
$GNGGA,120103.00,3340.82682029,N,12008.64911682,W,2,13,0.7,7.207,M,-37.527,M,7.0,0135*67
$PYRTM,2024,122.500729216944,13.610376627083
$GNHDT,292.282,T*2A
$PYRTM,2024,122.500734950671,13.610382360810
$GNGGA,120103.50,3340.82727670,N,12008.65041358,W,2,13,0.7,6.666,M,-37.527,M,7.4,0135*6F
$PYRTM,2024,122.500734950671,13.610382360810
$GNHDT,292.509,T*2E
$PYRTM,2024,122.500740794132,13.610388204271
$GNGGA,120104.00,3340.82776940,N,12008.65170006,W,2,13,0.7,6.000,M,-37.527,M,7.0,0135*6C
$PYRTM,2024,122.500740794132,13.610388204271
$GNHDT,292.449,T*2B
$PYRTM,2024,122.500746517361,13.610393927500
$GNGGA,120104.50,3340.82826282,N,12008.65290921,W,2,13,0.7,5.493,M,-37.527,M,7.4,0135*6E
$PYRTM,2024,122.500746517361,13.610393927500
$GNHDT,292.401,T*27
$PYRTM,2024,122.500752363484,13.610399773623
$GNGGA,120105.00,3340.82870119,N,12008.65398877,W,2,13,0.7,5.432,M,-37.527,M,4.0,0135*6F
$PYRTM,2024,122.500752363484,13.610399773623
$GNHDT,292.342,T*27
$PYRTM,2024,122.500758095012,13.610405505150
$GNGGA,120105.50,3340.82905257,N,12008.65498957,W,2,13,0.7,5.840,M,-37.527,M,4.4,0135*69
$PYRTM,2024,122.500758095012,13.610405505150
$GNHDT,292.210,T*21
$PYRTM,2024,122.500763947581,13.610411357720
$GNGGA,120106.00,3340.82936019,N,12008.65596487,W,2,13,0.7,6.491,M,-37.527,M,5.0,0135*6E
$PYRTM,2024,122.500763947581,13.610411357720
$GNHDT,291.978,T*27
$PYRTM,2024,122.500769676273,13.610417086412
$GNGGA,120106.50,3340.82966500,N,12008.65699628,W,2,13,0.7,7.126,M,-37.527,M,5.4,0135*64
$PYRTM,2024,122.500769676273,13.610417086412
$GNHDT,291.846,T*2B
$PYRTM,2024,122.500775520521,13.610422930660
$GNGGA,120107.00,3340.83000302,N,12008.65817088,W,2,13,0.7,7.480,M,-37.527,M,6.0,0135*66
$PYRTM,2024,122.500775520521,13.610422930660
$GNHDT,291.722,T*26
$PYRTM,2024,122.500781243171,13.610428653310
$GNGGA,120107.50,3340.83037483,N,12008.65945163,W,2,13,0.7,7.405,M,-37.527,M,6.4,0135*62
$PYRTM,2024,122.500781243171,13.610428653310
$GNHDT,291.551,T*20
$PYRTM,2024,122.500787096285,13.610434506424
$GNGGA,120108.00,3340.83075563,N,12008.66075453,W,2,13,0.7,7.055,M,-37.527,M,7.0,0135*6A
$PYRTM,2024,122.500787096285,13.610434506424
$GNHDT,291.427,T*20
$PYRTM,2024,122.500792815255,13.610440225394
$GNGGA,120108.50,3340.83115878,N,12008.66199127,W,2,13,0.7,6.584,M,-37.527,M,7.4,0135*66
$PYRTM,2024,122.500792815255,13.610440225394
$GNHDT,291.491,T*2D
$PYRTM,2024,122.500798661435,13.610446071574
$GNGGA,120109.00,3340.83157367,N,12008.66313796,W,2,13,0.7,6.198,M,-37.527,M,7.0,0135*60
$PYRTM,2024,122.500798661435,13.610446071574
$GNHDT,291.567,T*25
$PYRTM,2024,122.500804387743,13.610451797882
$GNGGA,120109.50,3340.83200640,N,12008.66418539,W,2,13,0.7,6.032,M,-37.527,M,7.4,0135*6A
$PYRTM,2024,122.500804387743,13.610451797882
$GNHDT,291.691,T*2F
$PYRTM,2024,122.500810236921,13.610457647060
$GNGGA,120110.00,3340.83244438,N,12008.66518514,W,2,13,0.7,6.191,M,-37.527,M,7.0,0135*68
$PYRTM,2024,122.500810236921,13.610457647060
$GNHDT,291.796,T*29
$PYRTM,2024,122.500815962269,13.610463372407
$GNGGA,120110.50,3340.83287398,N,12008.66619075,W,2,13,0.7,6.541,M,-37.527,M,7.4,0135*62
$PYRTM,2024,122.500815962269,13.610463372407
$GNHDT,291.728,T*2C
$PYRTM,2024,122.500821809074,13.610469219213
$GNGGA,120111.00,3340.83329140,N,12008.66722311,W,2,13,0.7,6.992,M,-37.527,M,4.0,0135*69
$PYRTM,2024,122.500821809074,13.610469219213
$GNHDT,291.768,T*28
$PYRTM,2024,122.500827540243,13.610474950382
$GNGGA,120111.50,3340.83368407,N,12008.66829708,W,2,13,0.7,7.370,M,-37.527,M,4.4,0135*64
$PYRTM,2024,122.500827540243,13.610474950382
$GNHDT,291.780,T*2E
$PYRTM,2024,122.500833380961,13.610480791100
$GNGGA,120112.00,3340.83405158,N,12008.66943831,W,2,13,0.7,7.541,M,-37.527,M,5.0,0135*68
$PYRTM,2024,122.500833380961,13.610480791100
$GNHDT,291.783,T*2D
$PYRTM,2024,122.500839114988,13.610486525139
$GNGGA,120112.50,3340.83444082,N,12008.67066137,W,2,13,0.7,7.398,M,-37.527,M,5.4,0135*68
$PYRTM,2024,122.500839114988,13.610486525139
$GNHDT,292.086,T*2C
$PYRTM,2024,122.500844966111,13.610492376250
$GNGGA,120113.00,3340.83487199,N,12008.67198021,W,2,13,0.7,6.861,M,-37.527,M,6.0,0135*65
$PYRTM,2024,122.500844966111,13.610492376250
$GNHDT,291.923,T*29
$PYRTM,2024,122.500850696424,13.610498106562
$GNGGA,120113.50,3340.83532787,N,12008.67334632,W,2,13,0.7,6.142,M,-37.527,M,6.4,0135*6A
$PYRTM,2024,122.500850696424,13.610498106562
$GNHDT,292.080,T*2A
$PYRTM,2024,122.500856528495,13.610503938646
$GNGGA,120114.00,3340.83578312,N,12008.67464544,W,2,13,0.7,5.544,M,-37.527,M,7.0,0135*6A
$PYRTM,2024,122.500856528495,13.610503938646
$GNHDT,291.660,T*21
$PYRTM,2024,122.500862271007,13.610509681157
$GNGGA,120114.50,3340.83621277,N,12008.67577775,W,2,13,0.7,5.483,M,-37.527,M,7.4,0135*6F
$PYRTM,2024,122.500862271007,13.610509681157
$GNHDT,291.969,T*27
$PYRTM,2024,122.500868112315,13.610515522442
$GNGGA,120115.00,3340.83661129,N,12008.67670775,W,2,13,0.7,5.955,M,-37.527,M,7.0,0135*61
$PYRTM,2024,122.500868112315,13.610515522442
$GNHDT,291.889,T*28
$PYRTM,2024,122.500873842894,13.610521253044
$GNGGA,120115.50,3340.83694909,N,12008.67755049,W,2,13,0.7,6.842,M,-37.527,M,7.4,0135*6A
$PYRTM,2024,122.500873842894,13.610521253044
$GNHDT,292.202,T*22
$PYRTM,2024,122.500879688993,13.610527099132
$GNGGA,120116.00,3340.83726826,N,12008.67841782,W,2,13,0.7,7.804,M,-37.527,M,7.0,0135*65
$PYRTM,2024,122.500879688993,13.610527099132
$GNHDT,292.940,T*2F
$PYRTM,2024,122.500885406308,13.610532816447
$GNGGA,120116.50,3340.83764153,N,12008.67946277,W,2,13,0.7,8.364,M,-37.527,M,7.4,0135*62
$PYRTM,2024,122.500885406308,13.610532816447
$GNHDT,292.193,T*29
$PYRTM,2024,122.500891257141,13.610538667269
$GNGGA,120117.00,3340.83807638,N,12008.68070852,W,2,13,0.7,8.215,M,-37.527,M,4.0,0135*68
$PYRTM,2024,122.500891257141,13.610538667269
$GNHDT,292.284,T*2C
$PYRTM,2024,122.500896982697,13.610544392836
$GNGGA,120117.50,3340.83851342,N,12008.68200948,W,2,13,0.7,7.551,M,-37.527,M,4.4,0135*65
$PYRTM,2024,122.500896982697,13.610544392836
$GNHDT,292.272,T*25
$PYRTM,2024,122.500902839861,13.610550250000
$GNGGA,120118.00,3340.83888563,N,12008.68326469,W,2,13,0.7,6.707,M,-37.527,M,5.0,0135*60
$PYRTM,2024,122.500902839861,13.610550250000
$GNHDT,292.001,T*23
$PYRTM,2024,122.500908553032,13.610555963171
$GNGGA,120118.50,3340.83920551,N,12008.68437441,W,2,13,0.7,6.100,M,-37.527,M,5.4,0135*6F
$PYRTM,2024,122.500908553032,13.610555963171
$GNHDT,292.253,T*26
$PYRTM,2024,122.500914399525,13.610561809664
$GNGGA,120119.00,3340.83952102,N,12008.68530912,W,2,13,0.7,5.954,M,-37.527,M,6.0,0135*6C
$PYRTM,2024,122.500914399525,13.610561809664
$GNHDT,292.574,T*24
$PYRTM,2024,122.500920133947,13.610567544086
$GNGGA,120119.50,3340.83985714,N,12008.68613780,W,2,13,0.7,6.218,M,-37.527,M,6.4,0135*61
$PYRTM,2024,122.500920133947,13.610567544086
$GNHDT,292.843,T*2D
$PYRTM,2024,122.500925988461,13.610573398600
$GNGGA,120120.00,3340.84025534,N,12008.68696120,W,2,13,0.7,6.646,M,-37.527,M,7.0,0135*61
$PYRTM,2024,122.500925988461,13.610573398600
$GNHDT,292.984,T*27
$PYRTM,2024,122.500931709838,13.610579119988
$GNGGA,120120.50,3340.84072743,N,12008.68788970,W,2,13,0.7,6.943,M,-37.527,M,7.4,0135*69
$PYRTM,2024,122.500931709838,13.610579119988
$GNHDT,293.107,T*25
$PYRTM,2024,122.500937554468,13.610584964606
$GNGGA,120121.00,3340.84123595,N,12008.68898872,W,2,13,0.7,6.938,M,-37.527,M,7.0,0135*64
$PYRTM,2024,122.500937554468,13.610584964606
$GNHDT,293.061,T*24
$PYRTM,2024,122.500943280312,13.610590690463
$GNGGA,120121.50,3340.84173371,N,12008.69018611,W,2,13,0.7,6.671,M,-37.527,M,7.4,0135*64
$PYRTM,2024,122.500943280312,13.610590690463
$GNHDT,293.194,T*2F
$PYRTM,2024,122.500949121204,13.610596531343
$GNGGA,120122.00,3340.84216880,N,12008.69138926,W,2,13,0.7,6.352,M,-37.527,M,7.0,0135*6F
$PYRTM,2024,122.500949121204,13.610596531343
$GNHDT,292.942,T*2D
$PYRTM,2024,122.500954850278,13.610602260417
$GNGGA,120122.50,3340.84251636,N,12008.69252952,W,2,13,0.7,6.127,M,-37.527,M,7.4,0135*62
$PYRTM,2024,122.500954850278,13.610602260417
$GNHDT,292.818,T*23
$PYRTM,2024,122.500960698611,13.610608108750
$GNGGA,120123.00,3340.84278122,N,12008.69358585,W,2,13,0.7,6.159,M,-37.527,M,4.0,0135*6C
$PYRTM,2024,122.500960698611,13.610608108750
$GNHDT,292.886,T*24
$PYRTM,2024,122.500966424745,13.610613834884
$GNGGA,120123.50,3340.84305705,N,12008.69459943,W,2,13,0.7,6.344,M,-37.527,M,4.4,0135*6B
$PYRTM,2024,122.500966424745,13.610613834884
$GNHDT,293.071,T*25
$PYRTM,2024,122.500972270822,13.610619680961
$GNGGA,120124.00,3340.84340793,N,12008.69561853,W,2,13,0.7,6.539,M,-37.527,M,5.0,0135*64
$PYRTM,2024,122.500972270822,13.610619680961
$GNHDT,293.030,T*20
$PYRTM,2024,122.500977998241,13.610625408391
$GNGGA,120124.50,3340.84386087,N,12008.69667408,W,2,13,0.7,6.595,M,-37.527,M,5.4,0135*6C
$PYRTM,2024,122.500977998241,13.610625408391
$GNHDT,293.067,T*22
$PYRTM,2024,122.500983847512,13.610631257650
$GNGGA,120125.00,3340.84436779,N,12008.69777339,W,2,13,0.7,6.452,M,-37.527,M,6.0,0135*6A
$PYRTM,2024,122.500983847512,13.610631257650
$GNHDT,292.982,T*21
$PYRTM,2024,122.500989577778,13.610636987917
$GNGGA,120125.50,3340.84486421,N,12008.69889206,W,2,13,0.7,6.237,M,-37.527,M,6.4,0135*68
$PYRTM,2024,122.500989577778,13.610636987917
$GNHDT,292.806,T*2C
$PYRTM,2024,122.500995420880,13.610642831019
$GNGGA,120126.00,3340.84529525,N,12008.69998072,W,2,13,0.7,6.127,M,-37.527,M,7.0,0135*68
$PYRTM,2024,122.500995420880,13.610642831019
$GNHDT,292.636,T*21
$PYRTM,2024,122.501001151157,13.610648561296
$GNGGA,120126.50,3340.84566627,N,12008.70102175,W,2,13,0.7,6.228,M,-37.527,M,7.4,0135*6A
$PYRTM,2024,122.501001151157,13.610648561296
$GNHDT,292.753,T*23
$PYRTM,2024,122.501006994167,13.610654404317
$GNGGA,120127.00,3340.84600162,N,12008.70203720,W,2,13,0.7,6.509,M,-37.527,M,7.0,0135*6F
$PYRTM,2024,122.501006994167,13.610654404317
$GNHDT,292.804,T*2E
$PYRTM,2024,122.501012719537,13.610660129676
$GNGGA,120127.50,3340.84635265,N,12008.70308585,W,2,13,0.7,6.822,M,-37.527,M,7.4,0135*6F
$PYRTM,2024,122.501012719537,13.610660129676
$GNHDT,292.707,T*22
$PYRTM,2024,122.501018569537,13.610665979676
$GNGGA,120128.00,3340.84673918,N,12008.70421091,W,2,13,0.7,6.983,M,-37.527,M,7.0,0135*64
$PYRTM,2024,122.501018569537,13.610665979676
$GNHDT,292.536,T*22
$PYRTM,2024,122.501024295613,13.610671705752
$GNGGA,120128.50,3340.84716187,N,12008.70538431,W,2,13,0.7,6.956,M,-37.527,M,7.4,0135*66
$PYRTM,2024,122.501024295613,13.610671705752
$GNHDT,292.563,T*22
$PYRTM,2024,122.501030141273,13.610677551412
$GNGGA,120129.00,3340.84758710,N,12008.70655764,W,2,13,0.7,6.769,M,-37.527,M,4.0,0135*6E
$PYRTM,2024,122.501030141273,13.610677551412
$GNHDT,292.418,T*2F
$PYRTM,2024,122.501035871146,13.610683281285
$GNGGA,120129.50,3340.84797769,N,12008.70766324,W,2,13,0.7,6.635,M,-37.527,M,4.4,0135*6B
$PYRTM,2024,122.501035871146,13.610683281285
$GNHDT,292.023,T*23
$PYRTM,2024,122.501041714734,13.610689124873
$GNGGA,120130.00,3340.84831208,N,12008.70869951,W,2,13,0.7,6.665,M,-37.527,M,5.0,0135*6F
$PYRTM,2024,122.501041714734,13.610689124873
$GNHDT,291.698,T*26
$PYRTM,2024,122.501047442326,13.610694852465
$GNGGA,120130.50,3340.84861460,N,12008.70972157,W,2,13,0.7,6.830,M,-37.527,M,5.4,0135*68
$PYRTM,2024,122.501047442326,13.610694852465
$GNHDT,291.314,T*27
$PYRTM,2024,122.501053288275,13.610700698414
$GNGGA,120131.00,3340.84892290,N,12008.71078805,W,2,13,0.7,6.958,M,-37.527,M,6.0,0135*6D
$PYRTM,2024,122.501053288275,13.610700698414
$GNHDT,290.967,T*28
$PYRTM,2024,122.501059015382,13.610706425521
$GNGGA,120131.50,3340.84930516,N,12008.71195097,W,2,13,0.7,6.846,M,-37.527,M,6.4,0135*63
$PYRTM,2024,122.501059015382,13.610706425521
$GNHDT,291.040,T*25
$PYRTM,2024,122.501064870822,13.610712280961
$GNGGA,120132.00,3340.84974876,N,12008.71318178,W,2,13,0.7,6.476,M,-37.527,M,7.0,0135*63
$PYRTM,2024,122.501064870822,13.610712280961
$GNHDT,291.101,T*21
$PYRTM,2024,122.501070592500,13.610718002639
$GNGGA,120132.50,3340.85022774,N,12008.71441147,W,2,13,0.7,6.006,M,-37.527,M,7.4,0135*60
$PYRTM,2024,122.501070592500,13.610718002639
$GNHDT,291.365,T*21
$PYRTM,2024,122.501076440880,13.610723851019
$GNGGA,120133.00,3340.85071459,N,12008.71557510,W,2,13,0.7,5.654,M,-37.527,M,7.0,0135*68
$PYRTM,2024,122.501076440880,13.610723851019
$GNHDT,291.556,T*27
$PYRTM,2024,122.501082168542,13.610729578681
$GNGGA,120133.50,3340.85118089,N,12008.71665464,W,2,13,0.7,5.565,M,-37.527,M,7.4,0135*6F
$PYRTM,2024,122.501082168542,13.610729578681
$GNHDT,291.603,T*24
$PYRTM,2024,122.501088014919,13.610735425058
$GNGGA,120134.00,3340.85160653,N,12008.71769250,W,2,13,0.7,5.794,M,-37.527,M,7.0,0135*67
$PYRTM,2024,122.501088014919,13.610735425058
$GNHDT,291.511,T*24
$PYRTM,2024,122.501093738067,13.610741148206
$GNGGA,120134.50,3340.85198427,N,12008.71877712,W,2,13,0.7,6.178,M,-37.527,M,7.4,0135*64
$PYRTM,2024,122.501093738067,13.610741148206
$GNHDT,291.275,T*21
$PYRTM,2024,122.501099584688,13.610746994838
$GNGGA,120135.00,3340.85232705,N,12008.71995493,W,2,13,0.7,6.553,M,-37.527,M,4.0,0135*6D
$PYRTM,2024,122.501099584688,13.610746994838
$GNHDT,291.240,T*27
$PYRTM,2024,122.501105317789,13.610752727940
$GNGGA,120135.50,3340.85266077,N,12008.72124601,W,2,13,0.7,6.720,M,-37.527,M,4.4,0135*61
$PYRTM,2024,122.501105317789,13.610752727940
$GNHDT,290.814,T*2D
$PYRTM,2024,122.501111159028,13.610758569167
$GNGGA,120136.00,3340.85300482,N,12008.72255556,W,2,13,0.7,6.731,M,-37.527,M,5.0,0135*69
$PYRTM,2024,122.501111159028,13.610758569167
$GNHDT,291.005,T*24
$PYRTM,2024,122.501116887535,13.610764297674
$GNGGA,120136.50,3340.85336469,N,12008.72377483,W,2,13,0.7,6.712,M,-37.527,M,5.4,0135*61
$PYRTM,2024,122.501116887535,13.610764297674
$GNHDT,291.216,T*24
$PYRTM,2024,122.501122732569,13.610770142720
$GNGGA,120137.00,3340.85374036,N,12008.72485659,W,2,13,0.7,6.786,M,-37.527,M,6.0,0135*68
$PYRTM,2024,122.501122732569,13.610770142720
$GNHDT,291.202,T*21
$PYRTM,2024,122.501128461319,13.610775871458
$GNGGA,120137.50,3340.85412389,N,12008.72583779,W,2,13,0.7,7.008,M,-37.527,M,6.4,0135*6D
$PYRTM,2024,122.501128461319,13.610775871458
$GNHDT,291.538,T*2F
$PYRTM,2024,122.501134307812,13.610781717951
$GNGGA,120138.00,3340.85451240,N,12008.72677608,W,2,13,0.7,7.320,M,-37.527,M,7.0,0135*67
$PYRTM,2024,122.501134307812,13.610781717951
$GNHDT,291.566,T*24
$PYRTM,2024,122.501140034560,13.610787444699
$GNGGA,120138.50,3340.85492143,N,12008.72774610,W,2,13,0.7,7.529,M,-37.528,M,7.4,0135*62
$PYRTM,2024,122.501140034560,13.610787444699
$GNHDT,291.582,T*2E
$PYRTM,2024,122.501145889051,13.610793299190
$GNGGA,120139.00,3340.85531609,N,12008.72882181,W,2,13,0.7,7.469,M,-37.528,M,7.0,0135*6F
$PYRTM,2024,122.501145889051,13.610793299190
$GNHDT,291.494,T*28
$PYRTM,2024,122.501151613553,13.610799023692
$GNGGA,120139.50,3340.85569626,N,12008.73000011,W,2,13,0.7,7.040,M,-37.528,M,7.4,0135*6A
$PYRTM,2024,122.501151613553,13.610799023692
$GNHDT,291.777,T*26
$PYRTM,2024,122.501157470150,13.610804880289
$GNGGA,120140.00,3340.85604440,N,12008.73123015,W,2,13,0.7,6.426,M,-37.528,M,7.0,0135*6E
$PYRTM,2024,122.501157470150,13.610804880289
$GNHDT,292.271,T*26
$PYRTM,2024,122.501163185301,13.610810595440
$GNGGA,120140.50,3340.85637671,N,12008.73247111,W,2,13,0.7,5.782,M,-37.528,M,7.4,0135*65
$PYRTM,2024,122.501163185301,13.610810595440
$GNHDT,292.285,T*2D
$PYRTM,2024,122.501169034201,13.610816444340
$GNGGA,120141.00,3340.85670152,N,12008.73369599,W,2,13,0.7,5.287,M,-37.528,M,4.0,0135*6A
$PYRTM,2024,122.501169034201,13.610816444340
$GNHDT,292.380,T*29
$PYRTM,2024,122.501174760694,13.610822170833
$GNGGA,120141.50,3340.85703861,N,12008.73488494,W,2,13,0.7,5.067,M,-37.528,M,4.4,0135*6F
$PYRTM,2024,122.501174760694,13.610822170833
$GNHDT,292.074,T*21
$PYRTM,2024,122.501180610995,13.610828021146
$GNGGA,120142.00,3340.85738177,N,12008.73606565,W,2,13,0.7,5.128,M,-37.528,M,5.0,0135*6B
$PYRTM,2024,122.501180610995,13.610828021146
$GNHDT,291.922,T*28
$PYRTM,2024,122.501186336829,13.610833746968
$GNGGA,120142.50,3340.85775977,N,12008.73725124,W,2,13,0.7,5.424,M,-37.528,M,5.4,0135*63
$PYRTM,2024,122.501186336829,13.610833746968
$GNHDT,292.019,T*2A
$PYRTM,2024,122.501192181088,13.610839591227
$GNGGA,120143.00,3340.85818654,N,12008.73843481,W,2,13,0.7,5.877,M,-37.528,M,6.0,0135*65
$PYRTM,2024,122.501192181088,13.610839591227
$GNHDT,292.173,T*27
$PYRTM,2024,122.501197909757,13.610845319896
$GNGGA,120143.50,3340.85865064,N,12008.73959663,W,2,13,0.7,6.362,M,-37.528,M,6.4,0135*63
$PYRTM,2024,122.501197909757,13.610845319896
$GNHDT,292.213,T*22
$PYRTM,2024,122.501203755266,13.610851165405
$GNGGA,120144.00,3340.85913674,N,12008.74072368,W,2,13,0.7,6.865,M,-37.528,M,7.0,0135*66
$PYRTM,2024,122.501203755266,13.610851165405
$GNHDT,292.518,T*2E
$PYRTM,2024,122.501209480544,13.610856890683
$GNGGA,120144.50,3340.85960974,N,12008.74183417,W,2,13,0.7,7.299,M,-37.528,M,7.4,0135*64
$PYRTM,2024,122.501209480544,13.610856890683
$GNHDT,292.372,T*24
$PYRTM,2024,122.501215329352,13.610862739491
$GNGGA,120145.00,3340.86003873,N,12008.74295761,W,2,13,0.7,7.598,M,-37.528,M,7.0,0135*6D
$PYRTM,2024,122.501215329352,13.610862739491
$GNHDT,292.289,T*21
$PYRTM,2024,122.501221062118,13.610868472269
$GNGGA,120145.50,3340.86040940,N,12008.74412959,W,2,13,0.7,7.691,M,-37.528,M,7.4,0135*6C
$PYRTM,2024,122.501221062118,13.610868472269
$GNHDT,292.102,T*21
$PYRTM,2024,122.501226899792,13.610874309931
$GNGGA,120146.00,3340.86073138,N,12008.74534389,W,2,13,0.7,7.596,M,-37.528,M,7.0,0135*6F
$PYRTM,2024,122.501226899792,13.610874309931
$GNHDT,292.198,T*22
$PYRTM,2024,122.501232629560,13.610880039699
$GNGGA,120146.50,3340.86102807,N,12008.74656425,W,2,13,0.7,7.354,M,-37.528,M,7.4,0135*62
$PYRTM,2024,122.501232629560,13.610880039699
$GNHDT,292.179,T*2D
$PYRTM,2024,122.501238474016,13.610885884155
$GNGGA,120147.00,3340.86133179,N,12008.74775318,W,2,13,0.7,7.046,M,-37.528,M,4.0,0135*6A
$PYRTM,2024,122.501238474016,13.610885884155
$GNHDT,292.324,T*27
$PYRTM,2024,122.501244209954,13.610891620093
$GNGGA,120147.50,3340.86170122,N,12008.74889999,W,2,13,0.7,6.738,M,-37.528,M,4.4,0135*62
$PYRTM,2024,122.501244209954,13.610891620093
$GNHDT,292.548,T*2B
$PYRTM,2024,122.501250052095,13.610897462234
$GNGGA,120148.00,3340.86214443,N,12008.75003365,W,2,13,0.7,6.451,M,-37.528,M,5.0,0135*60
$PYRTM,2024,122.501250052095,13.610897462234
$GNHDT,292.650,T*21
$PYRTM,2024,122.501255775764,13.610903185903
$GNGGA,120148.50,3340.86263689,N,12008.75119670,W,2,13,0.7,6.216,M,-37.528,M,5.4,0135*6B
$PYRTM,2024,122.501255775764,13.610903185903
$GNHDT,292.593,T*2D
$PYRTM,2024,122.501261622963,13.610909033102
$GNGGA,120149.00,3340.86315124,N,12008.75236642,W,2,13,0.7,6.115,M,-37.528,M,6.0,0135*67
$PYRTM,2024,122.501261622963,13.610909033102
$GNHDT,292.664,T*26
$PYRTM,2024,122.501267355567,13.610914765706
$GNGGA,120149.50,3340.86363906,N,12008.75351332,W,2,13,0.7,6.198,M,-37.528,M,6.4,0135*68
$PYRTM,2024,122.501267355567,13.610914765706
$GNHDT,292.453,T*20
$PYRTM,2024,122.501273198137,13.610920608275
$GNGGA,120150.00,3340.86407855,N,12008.75463368,W,2,13,0.7,6.513,M,-37.528,M,7.0,0135*6C
$PYRTM,2024,122.501273198137,13.610920608275
$GNHDT,292.615,T*20
$PYRTM,2024,122.501278929583,13.610926339722
$GNGGA,120150.50,3340.86448305,N,12008.75577459,W,2,13,0.7,6.901,M,-37.528,M,7.4,0135*66
$PYRTM,2024,122.501278929583,13.610926339722
$GNHDT,292.829,T*21
$PYRTM,2024,122.501284775463,13.610932185602
$GNGGA,120151.00,3340.86488573,N,12008.75698113,W,2,13,0.7,7.191,M,-37.528,M,7.0,0135*64
$PYRTM,2024,122.501284775463,13.610932185602
$GNHDT,292.854,T*2B
$PYRTM,2024,122.501290503727,13.610937913866
$GNGGA,120151.50,3340.86532106,N,12008.75827835,W,2,13,0.7,7.211,M,-37.528,M,7.4,0135*6F
$PYRTM,2024,122.501290503727,13.610937913866
$GNHDT,292.982,T*21
$PYRTM,2024,122.501296350440,13.610943760579
$GNGGA,120152.00,3340.86578060,N,12008.75962971,W,2,13,0.7,6.974,M,-37.528,M,7.0,0135*6A
$PYRTM,2024,122.501296350440,13.610943760579
$GNHDT,293.034,T*24
$PYRTM,2024,122.501302075150,13.610949485289
$GNGGA,120152.50,3340.86621674,N,12008.76094155,W,2,13,0.7,6.658,M,-37.528,M,7.4,0135*6B
$PYRTM,2024,122.501302075150,13.610949485289
$GNHDT,293.026,T*27
$PYRTM,2024,122.501307922627,13.610955332766
$GNGGA,120153.00,3340.86662561,N,12008.76214674,W,2,13,0.7,6.491,M,-37.528,M,4.0,0135*61
$PYRTM,2024,122.501307922627,13.610955332766
$GNHDT,292.969,T*24
$PYRTM,2024,122.501313647060,13.610961057199
$GNGGA,120153.50,3340.86700615,N,12008.76325628,W,2,13,0.7,6.585,M,-37.528,M,4.4,0135*6B
$PYRTM,2024,122.501313647060,13.610961057199
$GNHDT,292.897,T*24
$PYRTM,2024,122.501319498576,13.610966908727
$GNGGA,120154.00,3340.86738620,N,12008.76430807,W,2,13,0.7,6.887,M,-37.528,M,5.0,0135*6E
$PYRTM,2024,122.501319498576,13.610966908727
$GNHDT,292.943,T*2C
$PYRTM,2024,122.501325219896,13.610972630035
$GNGGA,120154.50,3340.86779151,N,12008.76537763,W,2,13,0.7,7.212,M,-37.528,M,5.4,0135*67
$PYRTM,2024,122.501325219896,13.610972630035
$GNHDT,292.925,T*2C
$PYRTM,2024,122.501331070729,13.610978480868
$GNGGA,120155.00,3340.86824751,N,12008.76650705,W,2,13,0.7,7.386,M,-37.528,M,6.0,0135*6B
$PYRTM,2024,122.501331070729,13.610978480868
$GNHDT,293.021,T*20
$PYRTM,2024,122.501336796273,13.610984206412
$GNGGA,120155.50,3340.86874109,N,12008.76771107,W,2,13,0.7,7.310,M,-37.528,M,6.4,0135*6D
$PYRTM,2024,122.501336796273,13.610984206412
$GNHDT,292.948,T*27
$PYRTM,2024,122.501342642442,13.610990052581
$GNGGA,120156.00,3340.86923845,N,12008.76896623,W,2,13,0.7,7.005,M,-37.528,M,7.0,0135*6C
$PYRTM,2024,122.501342642442,13.610990052581
$GNHDT,293.068,T*2D
$PYRTM,2024,122.501348368900,13.610995779039
$GNGGA,120156.50,3340.86970301,N,12008.77022828,W,2,13,0.7,6.614,M,-37.528,M,7.4,0135*64
$PYRTM,2024,122.501348368900,13.610995779039
$GNHDT,292.981,T*22
$PYRTM,2024,122.501354217454,13.611001627593
$GNGGA,120157.00,3340.87010968,N,12008.77145831,W,2,13,0.7,6.325,M,-37.528,M,7.0,0135*60
$PYRTM,2024,122.501354217454,13.611001627593
$GNHDT,292.920,T*29
$PYRTM,2024,122.501359946736,13.611007356887
$GNGGA,120157.50,3340.87048174,N,12008.77266292,W,2,13,0.7,6.246,M,-37.528,M,7.4,0135*6C
$PYRTM,2024,122.501359946736,13.611007356887
$GNHDT,292.782,T*2F
$PYRTM,2024,122.501365790208,13.611013200347
$GNGGA,120158.00,3340.87083433,N,12008.77385524,W,2,13,0.7,6.362,M,-37.528,M,7.0,0135*62
$PYRTM,2024,122.501365790208,13.611013200347
$GNHDT,292.716,T*22
$PYRTM,2024,122.501371524236,13.611018934375
$GNGGA,120158.50,3340.87121565,N,12008.77503987,W,2,13,0.7,6.572,M,-37.528,M,7.4,0135*62
$PYRTM,2024,122.501371524236,13.611018934375
$GNHDT,293.085,T*2E
$PYRTM,2024,122.501377363264,13.611024773403
$GNGGA,120159.00,3340.87164349,N,12008.77623675,W,2,13,0.7,6.756,M,-37.528,M,4.0,0135*6F
$PYRTM,2024,122.501377363264,13.611024773403
$GNHDT,293.363,T*25
$PYRTM,2024,122.501383094178,13.611030504317
$GNGGA,120159.50,3340.87212057,N,12008.77744618,W,2,13,0.7,6.846,M,-37.528,M,4.4,0135*65
$PYRTM,2024,122.501383094178,13.611030504317
$GNHDT,293.399,T*20
$PYRTM,2024,122.501388941620,13.611036351759
$GNGGA,120200.00,3340.87261334,N,12008.77865412,W,2,13,0.7,6.843,M,-37.528,M,5.0,0135*69
$PYRTM,2024,122.501388941620,13.611036351759
$GNHDT,293.164,T*20
$PYRTM,2024,122.501394665023,13.611042075162
$GNGGA,120200.50,3340.87310121,N,12008.77986811,W,2,13,0.7,6.815,M,-37.528,M,5.4,0135*69
$PYRTM,2024,122.501394665023,13.611042075162
$GNHDT,292.935,T*2D
$PYRTM,2024,122.501400511667,13.611047921806
$GNGGA,120201.00,3340.87355987,N,12008.78110244,W,2,13,0.7,6.777,M,-37.528,M,6.0,0135*66
$PYRTM,2024,122.501400511667,13.611047921806
$GNHDT,292.641,T*21
$PYRTM,2024,122.501406248727,13.611053658866
$GNGGA,120201.50,3340.87398654,N,12008.78236118,W,2,13,0.7,6.739,M,-37.528,M,6.4,0135*60
$PYRTM,2024,122.501406248727,13.611053658866
$GNHDT,292.712,T*26
$PYRTM,2024,122.501412088113,13.611059498264
$GNGGA,120202.00,3340.87438765,N,12008.78363613,W,2,13,0.7,6.715,M,-37.528,M,7.0,0135*6E
$PYRTM,2024,122.501412088113,13.611059498264
$GNHDT,292.859,T*26
$PYRTM,2024,122.501417813449,13.611065223600
$GNGGA,120202.50,3340.87477559,N,12008.78488356,W,2,13,0.7,6.753,M,-37.528,M,7.4,0135*6D
$PYRTM,2024,122.501417813449,13.611065223600
$GNHDT,292.905,T*2E
$PYRTM,2024,122.501423663785,13.611071073935
$GNGGA,120203.00,3340.87515726,N,12008.78607572,W,2,13,0.7,6.890,M,-37.528,M,7.0,0135*67
$PYRTM,2024,122.501423663785,13.611071073935
$GNHDT,293.028,T*29
$PYRTM,2024,122.501429392674,13.611076802812
$GNGGA,120203.50,3340.87556438,N,12008.78722590,W,2,13,0.7,7.062,M,-37.528,M,7.4,0135*63
$PYRTM,2024,122.501429392674,13.611076802812
$GNHDT,293.039,T*29
$PYRTM,2024,122.501435235370,13.611082645521
$GNGGA,120204.00,3340.87600991,N,12008.78837606,W,2,13,0.7,7.186,M,-37.528,M,7.0,0135*67
$PYRTM,2024,122.501435235370,13.611082645521
$GNHDT,293.034,T*24
$PYRTM,2024,122.501440967593,13.611088377743
$GNGGA,120204.50,3340.87648233,N,12008.78957506,W,2,13,0.7,7.170,M,-37.528,M,7.4,0135*64
$PYRTM,2024,122.501440967593,13.611088377743
$GNHDT,293.108,T*2A
$PYRTM,2024,122.501446810579,13.611094220718
$GNGGA,120205.00,3340.87696098,N,12008.79083454,W,2,13,0.7,6.978,M,-37.528,M,4.0,0135*61
$PYRTM,2024,122.501446810579,13.611094220718
$GNHDT,292.961,T*2C
$PYRTM,2024,122.501452541968,13.611099952106
$GNGGA,120205.50,3340.87743258,N,12008.79212950,W,2,13,0.7,6.653,M,-37.528,M,4.4,0135*62
$PYRTM,2024,122.501452541968,13.611099952106
$GNHDT,293.097,T*2D
$PYRTM,2024,122.501458383877,13.611105794016
$GNGGA,120206.00,3340.87788947,N,12008.79338898,W,2,13,0.7,6.376,M,-37.528,M,5.0,0135*6D
$PYRTM,2024,122.501458383877,13.611105794016
$GNHDT,293.139,T*28
$PYRTM,2024,122.501464110648,13.611111520787
$GNGGA,120206.50,3340.87833640,N,12008.79459691,W,2,13,0.7,6.245,M,-37.528,M,5.4,0135*6D
$PYRTM,2024,122.501464110648,13.611111520787
$GNHDT,293.297,T*2F
$PYRTM,2024,122.501469961435,13.611117371574
$GNGGA,120207.00,3340.87879184,N,12008.79576510,W,2,13,0.7,6.291,M,-37.528,M,6.0,0135*60
$PYRTM,2024,122.501469961435,13.611117371574
$GNHDT,293.438,T*2C
$PYRTM,2024,122.501475684236,13.611123094387
$GNGGA,120207.50,3340.87925682,N,12008.79695081,W,2,13,0.7,6.437,M,-37.528,M,6.4,0135*61
$PYRTM,2024,122.501475684236,13.611123094387
$GNHDT,293.146,T*20
$PYRTM,2024,122.501481531042,13.611128941181
$GNGGA,120208.00,3340.87974717,N,12008.79813535,W,2,13,0.7,6.641,M,-37.528,M,7.0,0135*6E
$PYRTM,2024,122.501481531042,13.611128941181
$GNHDT,293.176,T*23
$PYRTM,2024,122.501487258669,13.611134668808
$GNGGA,120208.50,3340.88025043,N,12008.79932301,W,2,13,0.7,6.815,M,-37.528,M,7.4,0135*67
$PYRTM,2024,122.501487258669,13.611134668808
$GNHDT,293.399,T*20
$PYRTM,2024,122.501493107083,13.611140517222
$GNGGA,120209.00,3340.88076041,N,12008.80053418,W,2,13,0.7,6.863,M,-37.528,M,7.0,0135*65
$PYRTM,2024,122.501493107083,13.611140517222
$GNHDT,293.593,T*2C
$PYRTM,2024,122.501498832986,13.611146243125
$GNGGA,120209.50,3340.88126413,N,12008.80179004,W,2,13,0.7,6.763,M,-37.528,M,7.4,0135*6C
$PYRTM,2024,122.501498832986,13.611146243125
$GNHDT,293.892,T*20
$PYRTM,2024,122.501504678553,13.611152088692
$GNGGA,120210.00,3340.88173001,N,12008.80309336,W,2,13,0.7,6.531,M,-37.528,M,7.0,0135*60
$PYRTM,2024,122.501504678553,13.611152088692
$GNHDT,293.595,T*2A
$PYRTM,2024,122.501510408218,13.611157818356
$GNGGA,120210.50,3340.88214667,N,12008.80441480,W,2,13,0.7,6.311,M,-37.528,M,7.4,0135*60
$PYRTM,2024,122.501510408218,13.611157818356
$GNHDT,292.981,T*22
$PYRTM,2024,122.501516251181,13.611163661319
$GNGGA,120211.00,3340.88253087,N,12008.80571526,W,2,13,0.7,6.191,M,-37.528,M,4.0,0135*6D
$PYRTM,2024,122.501516251181,13.611163661319
$GNHDT,292.689,T*25
$PYRTM,2024,122.501521985278,13.611169395417
$GNGGA,120211.50,3340.88291496,N,12008.80696720,W,2,13,0.7,6.240,M,-37.528,M,4.4,0135*67
$PYRTM,2024,122.501521985278,13.611169395417
$GNHDT,292.724,T*23
$PYRTM,2024,122.501527833495,13.611175243634
$GNGGA,120212.00,3340.88332011,N,12008.80814695,W,2,13,0.7,6.487,M,-37.528,M,5.0,0135*61
$PYRTM,2024,122.501527833495,13.611175243634
$GNHDT,293.020,T*21
$PYRTM,2024,122.501533554873,13.611180965012
$GNGGA,120212.50,3340.88376029,N,12008.80928891,W,2,13,0.7,6.822,M,-37.528,M,5.4,0135*6C
$PYRTM,2024,122.501533554873,13.611180965012
$GNHDT,293.093,T*29
$PYRTM,2024,122.501539400347,13.611186810486
$GNGGA,120213.00,3340.88424622,N,12008.81042253,W,2,13,0.7,7.157,M,-37.528,M,6.0,0135*68
$PYRTM,2024,122.501539400347,13.611186810486
$GNHDT,293.164,T*20
$PYRTM,2024,122.501545134514,13.611192544653
$GNGGA,120213.50,3340.88476448,N,12008.81158749,W,2,13,0.7,7.330,M,-37.528,M,6.4,0135*67
$PYRTM,2024,122.501545134514,13.611192544653
$GNHDT,293.036,T*26
$PYRTM,2024,122.501550981134,13.611198391273
$GNGGA,120214.00,3340.88527767,N,12008.81282250,W,2,13,0.7,7.230,M,-37.528,M,7.0,0135*63
$PYRTM,2024,122.501550981134,13.611198391273
$GNHDT,292.992,T*20
$PYRTM,2024,122.501556701157,13.611204111296
$GNGGA,120214.50,3340.88575928,N,12008.81412514,W,2,13,0.7,6.901,M,-37.528,M,7.4,0135*60
$PYRTM,2024,122.501556701157,13.611204111296
$GNHDT,293.111,T*22
$PYRTM,2024,122.501562551736,13.611209961875
$GNGGA,120215.00,3340.88621458,N,12008.81548221,W,2,13,0.7,6.404,M,-37.529,M,7.0,0135*6E
$PYRTM,2024,122.501562551736,13.611209961875
$GNHDT,293.276,T*20
$PYRTM,2024,122.501568277245,13.611215687384
$GNGGA,120215.50,3340.88665837,N,12008.81687135,W,2,13,0.7,5.869,M,-37.529,M,7.4,0135*68
$PYRTM,2024,122.501568277245,13.611215687384
$GNHDT,293.249,T*2C
$PYRTM,2024,122.501574124525,13.611221534664
$GNGGA,120216.00,3340.88708875,N,12008.81825400,W,2,13,0.7,5.449,M,-37.529,M,7.0,0135*6D
$PYRTM,2024,122.501574124525,13.611221534664
$GNHDT,293.231,T*23
$PYRTM,2024,122.501579855278,13.611227265417
$GNGGA,120216.50,3340.88752425,N,12008.81957694,W,2,13,0.7,5.328,M,-37.529,M,7.4,0135*61
$PYRTM,2024,122.501579855278,13.611227265417
$GNHDT,292.886,T*24
$PYRTM,2024,122.501585700590,13.611233110729
$GNGGA,120217.00,3340.88797728,N,12008.82080862,W,2,13,0.7,5.587,M,-37.529,M,4.0,0135*61
$PYRTM,2024,122.501585700590,13.611233110729
$GNHDT,292.881,T*23
$PYRTM,2024,122.501591428819,13.611238838970
$GNGGA,120217.50,3340.88843448,N,12008.82197461,W,2,13,0.7,6.109,M,-37.529,M,4.4,0135*6A
$PYRTM,2024,122.501591428819,13.611238838970
$GNHDT,293.057,T*21
$PYRTM,2024,122.501597276979,13.611244687118
$GNGGA,120218.00,3340.88889923,N,12008.82308994,W,2,13,0.7,6.797,M,-37.529,M,5.0,0135*61
$PYRTM,2024,122.501597276979,13.611244687118
$GNHDT,293.031,T*21
$PYRTM,2024,122.501602998414,13.611250408553
$GNGGA,120218.50,3340.88938565,N,12008.82423105,W,2,13,0.7,7.416,M,-37.529,M,5.4,0135*60
$PYRTM,2024,122.501602998414,13.611250408553
$GNHDT,292.967,T*2A
$PYRTM,2024,122.501608850799,13.611256260938
$GNGGA,120219.00,3340.88991423,N,12008.82545266,W,2,13,0.7,7.725,M,-37.529,M,6.0,0135*67
$PYRTM,2024,122.501608850799,13.611256260938
$GNHDT,292.936,T*2E
$PYRTM,2024,122.501614586262,13.611261996400
$GNGGA,120219.50,3340.89043773,N,12008.82672763,W,2,13,0.7,7.642,M,-37.529,M,6.4,0135*60
$PYRTM,2024,122.501614586262,13.611261996400
$GNHDT,292.882,T*20
$PYRTM,2024,122.501620421319,13.611267831470
$GNGGA,120220.00,3340.89091264,N,12008.82802542,W,2,13,0.7,7.281,M,-37.529,M,7.0,0135*65
$PYRTM,2024,122.501620421319,13.611267831470
$GNHDT,292.935,T*2D
$PYRTM,2024,122.501626146204,13.611273556343
$GNGGA,120220.50,3340.89132625,N,12008.82932276,W,2,13,0.7,6.792,M,-37.529,M,7.4,0135*69
$PYRTM,2024,122.501626146204,13.611273556343
$GNHDT,292.765,T*26
$PYRTM,2024,122.501631995451,13.611279405590
$GNGGA,120221.00,3340.89168720,N,12008.83061255,W,2,13,0.7,6.299,M,-37.529,M,7.0,0135*63
$PYRTM,2024,122.501631995451,13.611279405590
$GNHDT,292.535,T*21
$PYRTM,2024,122.501637722095,13.611285132234
$GNGGA,120221.50,3340.89202775,N,12008.83189571,W,2,13,0.7,5.879,M,-37.529,M,7.4,0135*6C
$PYRTM,2024,122.501637722095,13.611285132234
$GNHDT,292.208,T*28
$PYRTM,2024,122.501643567083,13.611290977222
$GNGGA,120222.00,3340.89237334,N,12008.83316340,W,2,13,0.7,5.641,M,-37.529,M,7.0,0135*6C
$PYRTM,2024,122.501643567083,13.611290977222
$GNHDT,292.188,T*23
$PYRTM,2024,122.501649299676,13.611296709826
$GNGGA,120222.50,3340.89275822,N,12008.83439358,W,2,13,0.7,5.606,M,-37.529,M,7.4,0135*67
$PYRTM,2024,122.501649299676,13.611296709826
$GNHDT,292.006,T*24
$PYRTM,2024,122.501655142801,13.611302552951
$GNGGA,120223.00,3340.89320368,N,12008.83557491,W,2,13,0.7,5.780,M,-37.529,M,4.0,0135*64
$PYRTM,2024,122.501655142801,13.611302552951
$GNHDT,292.118,T*2A
$PYRTM,2024,122.501660875185,13.611308285324
$GNGGA,120223.50,3340.89370210,N,12008.83673475,W,2,13,0.7,6.077,M,-37.529,M,4.4,0135*6D
$PYRTM,2024,122.501660875185,13.611308285324
$GNHDT,292.276,T*21
$PYRTM,2024,122.501666714884,13.611314125023
$GNGGA,120224.00,3340.89424568,N,12008.83790246,W,2,13,0.7,6.425,M,-37.529,M,5.0,0135*6D
$PYRTM,2024,122.501666714884,13.611314125023
$GNHDT,292.281,T*29
$PYRTM,2024,122.501672455301,13.611319865440
$GNGGA,120224.50,3340.89479631,N,12008.83909995,W,2,13,0.7,6.713,M,-37.529,M,5.4,0135*66
$PYRTM,2024,122.501672455301,13.611319865440
$GNHDT,292.410,T*27
$PYRTM,2024,122.501678290289,13.611325700440
$GNGGA,120225.00,3340.89532372,N,12008.84036461,W,2,13,0.7,6.870,M,-37.529,M,6.0,0135*67
$PYRTM,2024,122.501678290289,13.611325700440
$GNHDT,292.442,T*20
$PYRTM,2024,122.501684024375,13.611331434514
$GNGGA,120225.50,3340.89579684,N,12008.84169282,W,2,13,0.7,6.847,M,-37.529,M,6.4,0135*61
$PYRTM,2024,122.501684024375,13.611331434514
$GNHDT,292.354,T*20
$PYRTM,2024,122.501689865440,13.611337275590
$GNGGA,120226.00,3340.89621133,N,12008.84307052,W,2,13,0.7,6.673,M,-37.529,M,7.0,0135*6B
$PYRTM,2024,122.501689865440,13.611337275590
$GNHDT,292.093,T*28
$PYRTM,2024,122.501695593796,13.611343003935
$GNGGA,120226.50,3340.89658014,N,12008.84442717,W,2,13,0.7,6.456,M,-37.529,M,7.4,0135*65
$PYRTM,2024,122.501695593796,13.611343003935
$GNHDT,292.407,T*21
$PYRTM,2024,122.501701436424,13.611348846563
$GNGGA,120227.00,3340.89691464,N,12008.84573824,W,2,13,0.7,6.305,M,-37.529,M,7.0,0135*6E
$PYRTM,2024,122.501701436424,13.611348846563
$GNHDT,292.308,T*29
$PYRTM,2024,122.501707167569,13.611354577708
$GNGGA,120227.50,3340.89725849,N,12008.84697973,W,2,13,0.7,6.290,M,-37.529,M,7.4,0135*65
$PYRTM,2024,122.501707167569,13.611354577708
$GNHDT,292.056,T*21
$PYRTM,2024,122.501713012593,13.611360422731
$GNGGA,120228.00,3340.89764771,N,12008.84817718,W,2,13,0.7,6.393,M,-37.529,M,7.0,0135*6D
$PYRTM,2024,122.501713012593,13.611360422731
$GNHDT,292.127,T*26
$PYRTM,2024,122.501718739907,13.611366150046
$GNGGA,120228.50,3340.89812142,N,12008.84937399,W,2,13,0.7,6.467,M,-37.529,M,7.4,0135*66
$PYRTM,2024,122.501718739907,13.611366150046
$GNHDT,292.056,T*21
$PYRTM,2024,122.501724591169,13.611372001308
