$PYRTM,2024,128.000000240556,19.109647650694
$GNGGA,000000.00,3308.92636012,N,11819.06774914,W,2,13,0.8,6.257,M,-37.407,M,4.0,0131*61
$PYRTM,2024,128.000000240556,19.109647650694
$GNHDT,129.729,T*2D
$PYRTM,2024,128.000005960914,19.109653371053
$GNGGA,000000.50,3308.92562410,N,11819.06664476,W,2,13,0.8,6.307,M,-37.407,M,4.4,0131*69
$PYRTM,2024,128.000005960914,19.109653371053
$GNHDT,129.727,T*23
$PYRTM,2024,128.000011805093,19.109659215231
$GNGGA,000001.00,3308.92489734,N,11819.06553451,W,2,13,0.8,6.381,M,-37.407,M,5.0,0131*65
$PYRTM,2024,128.000011805093,19.109659215231
$GNHDT,129.688,T*27
$PYRTM,2024,128.000017533819,19.109664943958
$GNGGA,000001.50,3308.92418788,N,11819.06442756,W,2,13,0.8,6.445,M,-37.407,M,5.4,0131*61
$PYRTM,2024,128.000017533819,19.109664943958
$GNHDT,129.637,T*23
$PYRTM,2024,128.000023376748,19.109670786887
$GNGGA,000002.00,3308.92348427,N,11819.06332251,W,2,13,0.8,6.528,M,-37.407,M,6.0,0131*6C
$PYRTM,2024,128.000023376748,19.109670786887
$GNHDT,129.535,T*22
$PYRTM,2024,128.000029105856,19.109676515995
$GNGGA,000002.50,3308.92278038,N,11819.06221630,W,2,13,0.8,6.599,M,-37.407,M,6.4,0131*6F
$PYRTM,2024,128.000029105856,19.109676515995
$GNHDT,129.389,T*23
$PYRTM,2024,128.000034954387,19.109682364525
$GNGGA,000003.00,3308.92207163,N,11819.06110849,W,2,13,0.8,6.646,M,-37.407,M,7.0,0131*69
$PYRTM,2024,128.000034954387,19.109682364525
$GNHDT,129.298,T*22
$PYRTM,2024,128.000040680995,19.109688091134
$GNGGA,000003.50,3308.92135215,N,11819.06001111,W,2,13,0.8,6.672,M,-37.407,M,7.4,0131*6A
$PYRTM,2024,128.000040680995,19.109688091134
$GNHDT,129.347,T*21
$PYRTM,2024,128.000046527998,19.109693938137
$GNGGA,000004.00,3308.92061987,N,11819.05893021,W,2,13,0.8,6.682,M,-37.407,M,7.0,0131*61
$PYRTM,2024,128.000046527998,19.109693938137
$GNHDT,129.431,T*27
$PYRTM,2024,128.000052257350,19.109699667488
$GNGGA,000004.50,3308.91987355,N,11819.05786017,W,2,13,0.8,6.686,M,-37.407,M,7.4,0131*6D
$PYRTM,2024,128.000052257350,19.109699667488
$GNHDT,129.580,T*2C
$PYRTM,2024,128.000058099595,19.109705509734
$GNGGA,000005.00,3308.91912687,N,11819.05677488,W,2,13,0.8,6.722,M,-37.407,M,7.0,0131*69
$PYRTM,2024,128.000058099595,19.109705509734
$GNHDT,129.780,T*2E
$PYRTM,2024,128.000063829618,19.109711239757
$GNGGA,000005.50,3308.91838208,N,11819.05567806,W,2,13,0.8,6.766,M,-37.407,M,7.4,0131*6A
$PYRTM,2024,128.000063829618,19.109711239757
$GNHDT,130.115,T*2C
$PYRTM,2024,128.000069676447,19.109717086586
$GNGGA,000006.00,3308.91764540,N,11819.05454691,W,2,13,0.8,6.801,M,-37.407,M,4.0,0131*69
$PYRTM,2024,128.000069676447,19.109717086586
$GNHDT,130.364,T*28
$PYRTM,2024,128.000075405799,19.109722815937
$GNGGA,000006.50,3308.91691329,N,11819.05338859,W,2,13,0.8,6.840,M,-37.407,M,4.4,0131*68
$PYRTM,2024,128.000075405799,19.109722815937
$GNHDT,130.625,T*28
$PYRTM,2024,128.000081250463,19.109728660602
$GNGGA,000007.00,3308.91618489,N,11819.05220204,W,2,13,0.8,6.854,M,-37.407,M,5.0,0131*6A
$PYRTM,2024,128.000081250463,19.109728660602
$GNHDT,130.866,T*21
$PYRTM,2024,128.000086977060,19.109734387199
$GNGGA,000007.50,3308.91545339,N,11819.05100827,W,2,13,0.8,6.885,M,-37.407,M,5.4,0131*6A
$PYRTM,2024,128.000086977060,19.109734387199
$GNHDT,131.109,T*20
$PYRTM,2024,128.000092825139,19.109740235278
$GNGGA,000008.00,3308.91471248,N,11819.04981481,W,2,13,0.8,6.903,M,-37.407,M,6.0,0131*69
$PYRTM,2024,128.000092825139,19.109740235278
$GNHDT,131.176,T*28
$PYRTM,2024,128.000098552662,19.109745962801
$GNGGA,000008.50,3308.91395832,N,11819.04863872,W,2,13,0.8,6.899,M,-37.407,M,6.4,0131*6D
$PYRTM,2024,128.000098552662,19.109745962801
$GNHDT,131.257,T*28
$PYRTM,2024,128.000104396551,19.109751806690
$GNGGA,000009.00,3308.91318789,N,11819.04747706,W,2,13,0.8,6.853,M,-37.407,M,7.0,0131*65
$PYRTM,2024,128.000104396551,19.109751806690
$GNHDT,131.158,T*24
$PYRTM,2024,128.000110128762,19.109757538912
$GNGGA,000009.50,3308.91240930,N,11819.04632640,W,2,13,0.8,6.765,M,-37.407,M,7.4,0131*6E
$PYRTM,2024,128.000110128762,19.109757538912
$GNHDT,131.044,T*28
$PYRTM,2024,128.000115972072,19.109763382211
$GNGGA,000010.00,3308.91162632,N,11819.04518580,W,2,13,0.8,6.640,M,-37.407,M,7.0,0131*6B
$PYRTM,2024,128.000115972072,19.109763382211
$GNHDT,130.944,T*20
$PYRTM,2024,128.000121699444,19.109769109583
$GNGGA,000010.50,3308.91085157,N,11819.04405746,W,2,13,0.8,6.518,M,-37.407,M,7.4,0131*6D
$PYRTM,2024,128.000121699444,19.109769109583
$GNHDT,130.775,T*2C
$PYRTM,2024,128.000127544421,19.109774954560
$GNGGA,000011.00,3308.91008871,N,11819.04294069,W,2,13,0.8,6.391,M,-37.407,M,7.0,0131*66
$PYRTM,2024,128.000127544421,19.109774954560
$GNHDT,130.571,T*2A
$PYRTM,2024,128.000133277708,19.109780687847
$GNGGA,000011.50,3308.90934093,N,11819.04183173,W,2,13,0.8,6.286,M,-37.407,M,7.4,0131*6C
$PYRTM,2024,128.000133277708,19.109780687847
$GNHDT,130.385,T*27
$PYRTM,2024,128.000139119317,19.109786529468
$GNGGA,000012.00,3308.90860629,N,11819.04073484,W,2,13,0.8,6.210,M,-37.407,M,4.0,0131*66
$PYRTM,2024,128.000139119317,19.109786529468
$GNHDT,130.115,T*2C
$PYRTM,2024,128.000144850012,19.109792260150
$GNGGA,000012.50,3308.90788549,N,11819.03965225,W,2,13,0.8,6.168,M,-37.407,M,4.4,0131*63
$PYRTM,2024,128.000144850012,19.109792260150
$GNHDT,130.199,T*28
$PYRTM,2024,128.000150698218,19.109798108356
$GNGGA,000013.00,3308.90716119,N,11819.03858959,W,2,13,0.8,6.142,M,-37.407,M,5.0,0131*63
$PYRTM,2024,128.000150698218,19.109798108356
$GNHDT,129.951,T*2C
$PYRTM,2024,128.000156421505,19.109803831644
$GNGGA,000013.50,3308.90642856,N,11819.03754156,W,2,13,0.8,6.111,M,-37.407,M,5.4,0131*62
$PYRTM,2024,128.000156421505,19.109803831644
$GNHDT,129.689,T*26
$PYRTM,2024,128.000162266678,19.109809676817
$GNGGA,000014.00,3308.90567884,N,11819.03650401,W,2,13,0.8,6.087,M,-37.407,M,6.0,0131*60
$PYRTM,2024,128.000162266678,19.109809676817
$GNHDT,129.589,T*25
$PYRTM,2024,128.000167998877,19.109815409016
$GNGGA,000014.50,3308.90492578,N,11819.03547372,W,2,13,0.8,6.053,M,-37.407,M,6.4,0131*6B
$PYRTM,2024,128.000167998877,19.109815409016
$GNHDT,129.457,T*27
$PYRTM,2024,128.000173843021,19.109821253160
$GNGGA,000015.00,3308.90416465,N,11819.03444357,W,2,13,0.8,6.063,M,-37.407,M,7.0,0131*6D
$PYRTM,2024,128.000173843021,19.109821253160
$GNHDT,129.499,T*25
$PYRTM,2024,128.000179569769,19.109826979919
$GNGGA,000015.50,3308.90340735,N,11819.03339638,W,2,13,0.8,6.082,M,-37.407,M,7.4,0131*60
$PYRTM,2024,128.000179569769,19.109826979919
$GNHDT,129.599,T*24
$PYRTM,2024,128.000185418067,19.109832828206
$GNGGA,000016.00,3308.90265614,N,11819.03233163,W,2,13,0.8,6.138,M,-37.407,M,7.0,0131*64
$PYRTM,2024,128.000185418067,19.109832828206
$GNHDT,129.733,T*26
$PYRTM,2024,128.000191148970,19.109838559109
$GNGGA,000016.50,3308.90191813,N,11819.03123957,W,2,13,0.8,6.226,M,-37.407,M,7.4,0131*65
$PYRTM,2024,128.000191148970,19.109838559109
$GNHDT,129.830,T*2A
$PYRTM,2024,128.000196992269,19.109844402407
$GNGGA,000017.00,3308.90118387,N,11819.03011829,W,2,13,0.8,6.345,M,-37.407,M,7.0,0131*6E
$PYRTM,2024,128.000196992269,19.109844402407
$GNHDT,129.939,T*22
$PYRTM,2024,128.000202721296,19.109850131435
$GNGGA,000017.50,3308.90045489,N,11819.02897551,W,2,13,0.8,6.487,M,-37.407,M,7.4,0131*63
$PYRTM,2024,128.000202721296,19.109850131435
$GNHDT,130.083,T*22
$PYRTM,2024,128.000208564039,19.109855974178
$GNGGA,000018.00,3308.89971955,N,11819.02781788,W,2,13,0.8,6.634,M,-37.407,M,4.0,0131*60
$PYRTM,2024,128.000208564039,19.109855974178
$GNHDT,130.119,T*20
$PYRTM,2024,128.000214296748,19.109861706887
$GNGGA,000018.50,3308.89896721,N,11819.02665643,W,2,13,0.8,6.761,M,-37.407,M,4.4,0131*68
$PYRTM,2024,128.000214296748,19.109861706887
$GNHDT,130.146,T*2A
$PYRTM,2024,128.000220140602,19.109867550741
$GNGGA,000019.00,3308.89819734,N,11819.02549211,W,2,13,0.8,6.858,M,-37.407,M,5.0,0131*61
$PYRTM,2024,128.000220140602,19.109867550741
$GNHDT,130.250,T*2E
$PYRTM,2024,128.000225870718,19.109873280856
$GNGGA,000019.50,3308.89742245,N,11819.02432445,W,2,13,0.8,6.926,M,-37.407,M,5.4,0131*60
$PYRTM,2024,128.000225870718,19.109873280856
$GNHDT,129.993,T*22
$PYRTM,2024,128.000231710694,19.109879120833
$GNGGA,000020.00,3308.89664761,N,11819.02315872,W,2,13,0.8,6.960,M,-37.407,M,6.0,0131*66
$PYRTM,2024,128.000231710694,19.109879120833
$GNHDT,129.804,T*2D
$PYRTM,2024,128.000237443831,19.109884853981
$GNGGA,000020.50,3308.89588023,N,11819.02199322,W,2,13,0.8,6.961,M,-37.407,M,6.4,0131*6E
$PYRTM,2024,128.000237443831,19.109884853981
$GNHDT,129.752,T*21
$PYRTM,2024,128.000243286979,19.109890697118
$GNGGA,000021.00,3308.89512502,N,11819.02082217,W,2,13,0.8,6.921,M,-37.407,M,7.0,0131*62
$PYRTM,2024,128.000243286979,19.109890697118
$GNHDT,129.611,T*27
$PYRTM,2024,128.000249014410,19.109896424549
$GNGGA,000021.50,3308.89437924,N,11819.01965473,W,2,13,0.8,6.855,M,-37.407,M,7.4,0131*68
$PYRTM,2024,128.000249014410,19.109896424549
$GNHDT,129.479,T*2B
$PYRTM,2024,128.000254864387,19.109902274525
$GNGGA,000022.00,3308.89363416,N,11819.01850003,W,2,13,0.8,6.763,M,-37.407,M,7.0,0131*6E
$PYRTM,2024,128.000254864387,19.109902274525
$GNHDT,129.455,T*25
$PYRTM,2024,128.000260593229,19.109908003368
$GNGGA,000022.50,3308.89289108,N,11819.01737031,W,2,13,0.8,6.678,M,-37.407,M,7.4,0131*64
$PYRTM,2024,128.000260593229,19.109908003368
$GNHDT,129.762,T*22
$PYRTM,2024,128.000266435266,19.109913845405
$GNGGA,000023.00,3308.89214302,N,11819.01627483,W,2,13,0.8,6.609,M,-37.407,M,7.0,0131*63
$PYRTM,2024,128.000266435266,19.109913845405
$GNHDT,129.700,T*26
$PYRTM,2024,128.000272163113,19.109919573264
$GNGGA,000023.50,3308.89139279,N,11819.01520236,W,2,13,0.8,6.538,M,-37.407,M,7.4,0131*6E
$PYRTM,2024,128.000272163113,19.109919573264
$GNHDT,130.104,T*2C
$PYRTM,2024,128.000278010162,19.109925420301
$GNGGA,000024.00,3308.89064390,N,11819.01413097,W,2,13,0.8,6.468,M,-37.407,M,4.0,0131*68
$PYRTM,2024,128.000278010162,19.109925420301
$GNHDT,130.315,T*2E
$PYRTM,2024,128.000283736424,19.109931146562
$GNGGA,000024.50,3308.88989847,N,11819.01304619,W,2,13,0.8,6.382,M,-37.407,M,4.4,0131*61
$PYRTM,2024,128.000283736424,19.109931146562
$GNHDT,130.390,T*23
$PYRTM,2024,128.000289583148,19.109936993299
$GNGGA,000025.00,3308.88915896,N,11819.01195216,W,2,13,0.8,6.288,M,-37.407,M,5.0,0131*63
$PYRTM,2024,128.000289583148,19.109936993299
$GNHDT,130.408,T*25
$PYRTM,2024,128.000295312882,19.109942723021
$GNGGA,000025.50,3308.88842965,N,11819.01085968,W,2,13,0.8,6.218,M,-37.407,M,5.4,0131*67
$PYRTM,2024,128.000295312882,19.109942723021
$GNHDT,130.504,T*28
$PYRTM,2024,128.000301156192,19.109948566331
$GNGGA,000026.00,3308.88770975,N,11819.00977261,W,2,13,0.8,6.194,M,-37.407,M,6.0,0131*69
$PYRTM,2024,128.000301156192,19.109948566331
$GNHDT,130.617,T*29
$PYRTM,2024,128.000306884896,19.109954295035
$GNGGA,000026.50,3308.88698743,N,11819.00869336,W,2,13,0.8,6.209,M,-37.407,M,6.4,0131*6E
$PYRTM,2024,128.000306884896,19.109954295035
$GNHDT,130.707,T*29
$PYRTM,2024,128.000312731956,19.109960142095
$GNGGA,000027.00,3308.88625206,N,11819.00762057,W,2,13,0.8,6.247,M,-37.407,M,7.0,0131*67
$PYRTM,2024,128.000312731956,19.109960142095
$GNHDT,130.705,T*2B
$PYRTM,2024,128.000318460058,19.109965870197
$GNGGA,000027.50,3308.88549946,N,11819.00654858,W,2,13,0.8,6.285,M,-37.407,M,7.4,0131*6D
$PYRTM,2024,128.000318460058,19.109965870197
$GNHDT,130.939,T*2A
$PYRTM,2024,128.000324304595,19.109971714734
$GNGGA,000028.00,3308.88473378,N,11819.00547542,W,2,13,0.8,6.309,M,-37.406,M,7.0,0131*6F
$PYRTM,2024,128.000324304595,19.109971714734
$GNHDT,131.055,T*28
$PYRTM,2024,128.000330040463,19.109977450602
$GNGGA,000028.50,3308.88396236,N,11819.00440002,W,2,13,0.8,6.314,M,-37.406,M,7.4,0131*62
$PYRTM,2024,128.000330040463,19.109977450602
$GNHDT,131.134,T*2E
$PYRTM,2024,128.000335881852,19.109983291991
$GNGGA,000029.00,3308.88318487,N,11819.00332267,W,2,13,0.8,6.318,M,-37.406,M,7.0,0131*67
$PYRTM,2024,128.000335881852,19.109983291991
$GNHDT,131.173,T*2D
$PYRTM,2024,128.000341610637,19.109989020775
$GNGGA,000029.50,3308.88240495,N,11819.00224812,W,2,13,0.8,6.347,M,-37.406,M,7.4,0131*6D
$PYRTM,2024,128.000341610637,19.109989020775
$GNHDT,131.311,T*2B
$PYRTM,2024,128.000347453576,19.109994863715
$GNGGA,000030.00,3308.88162259,N,11819.00117241,W,2,13,0.8,6.396,M,-37.406,M,4.0,0131*61
$PYRTM,2024,128.000347453576,19.109994863715
$GNHDT,131.363,T*2E
$PYRTM,2024,128.000353181319,19.110000591458
$GNGGA,000030.50,3308.88083808,N,11819.00009247,W,2,13,0.8,6.464,M,-37.406,M,4.4,0131*62
$PYRTM,2024,128.000353181319,19.110000591458
$GNHDT,131.351,T*2F
$PYRTM,2024,128.000359026030,19.110006436169
$GNGGA,000031.00,3308.88005738,N,11818.99899978,W,2,13,0.8,6.540,M,-37.406,M,5.0,0131*61
$PYRTM,2024,128.000359026030,19.110006436169
$GNHDT,131.184,T*25
$PYRTM,2024,128.000364756991,19.110012167141
$GNGGA,000031.50,3308.87928332,N,11818.99788789,W,2,13,0.8,6.604,M,-37.406,M,5.4,0131*6B
$PYRTM,2024,128.000364756991,19.110012167141
$GNHDT,131.126,T*2D
$PYRTM,2024,128.000370600486,19.110018010637
$GNGGA,000032.00,3308.87851406,N,11818.99675607,W,2,13,0.8,6.655,M,-37.406,M,6.0,0131*65
$PYRTM,2024,128.000370600486,19.110018010637
$GNHDT,130.785,T*23
$PYRTM,2024,128.000376330729,19.110023740868
$GNGGA,000032.50,3308.87775449,N,11818.99561797,W,2,13,0.8,6.680,M,-37.406,M,6.4,0131*60
$PYRTM,2024,128.000376330729,19.110023740868
$GNHDT,130.609,T*26
$PYRTM,2024,128.000382179722,19.110029589861
$GNGGA,000033.00,3308.87700190,N,11818.99448442,W,2,13,0.8,6.691,M,-37.406,M,7.0,0131*63
$PYRTM,2024,128.000382179722,19.110029589861
$GNHDT,130.372,T*2F
$PYRTM,2024,128.000387906354,19.110035316493
$GNGGA,000033.50,3308.87625761,N,11818.99334213,W,2,13,0.8,6.707,M,-37.406,M,7.4,0131*6C
$PYRTM,2024,128.000387906354,19.110035316493
$GNHDT,130.111,T*28
$PYRTM,2024,128.000393749039,19.110041159178
$GNGGA,000034.00,3308.87551238,N,11818.99221339,W,2,13,0.8,6.735,M,-37.406,M,7.0,0131*6E
$PYRTM,2024,128.000393749039,19.110041159178
$GNHDT,129.878,T*26
$PYRTM,2024,128.000399479977,19.110046890127
$GNGGA,000034.50,3308.87476172,N,11818.99109912,W,2,13,0.8,6.757,M,-37.406,M,7.4,0131*68
$PYRTM,2024,128.000399479977,19.110046890127
$GNHDT,129.742,T*20
$PYRTM,2024,128.000405324109,19.110052734248
$GNGGA,000035.00,3308.87400204,N,11818.98999764,W,2,13,0.8,6.774,M,-37.406,M,7.0,0131*65
$PYRTM,2024,128.000405324109,19.110052734248
$GNHDT,129.649,T*2A
$PYRTM,2024,128.000411052176,19.110058462315
$GNGGA,000035.50,3308.87323545,N,11818.98890071,W,2,13,0.8,6.778,M,-37.406,M,7.4,0131*67
$PYRTM,2024,128.000411052176,19.110058462315
$GNHDT,129.624,T*21
$PYRTM,2024,128.000416898032,19.110064308171
$GNGGA,000036.00,3308.87246415,N,11818.98780294,W,2,13,0.8,6.749,M,-37.406,M,4.0,0131*65
$PYRTM,2024,128.000416898032,19.110064308171
$GNHDT,129.601,T*26
$PYRTM,2024,128.000422625509,19.110070035648
$GNGGA,000036.50,3308.87169667,N,11818.98669422,W,2,13,0.8,6.667,M,-37.406,M,4.4,0131*6D
$PYRTM,2024,128.000422625509,19.110070035648
$GNHDT,129.524,T*22
$PYRTM,2024,128.000428472060,19.110075882199
$GNGGA,000037.00,3308.87093632,N,11818.98556795,W,2,13,0.8,6.566,M,-37.406,M,5.0,0131*6A
$PYRTM,2024,128.000428472060,19.110075882199
$GNHDT,129.295,T*2F
$PYRTM,2024,128.000434200428,19.110081610579
$GNGGA,000037.50,3308.87019461,N,11818.98443235,W,2,13,0.8,6.468,M,-37.406,M,5.4,0131*68
$PYRTM,2024,128.000434200428,19.110081610579
$GNHDT,129.498,T*24
$PYRTM,2024,128.000440045926,19.110087456065
$GNGGA,000038.00,3308.86946534,N,11818.98329276,W,2,13,0.8,6.396,M,-37.406,M,6.0,0131*6C
$PYRTM,2024,128.000440045926,19.110087456065
$GNHDT,129.531,T*26
$PYRTM,2024,128.000445774850,19.110093184988
$GNGGA,000038.50,3308.86874132,N,11818.98215395,W,2,13,0.8,6.347,M,-37.406,M,6.4,0131*61
$PYRTM,2024,128.000445774850,19.110093184988
$GNHDT,129.463,T*20
$PYRTM,2024,128.000451619549,19.110099029688
$GNGGA,000039.00,3308.86800741,N,11818.98102205,W,2,13,0.8,6.324,M,-37.406,M,7.0,0131*69
$PYRTM,2024,128.000451619549,19.110099029688
$GNHDT,129.379,T*2C
$PYRTM,2024,128.000457352141,19.110104762280
$GNGGA,000039.50,3308.86725912,N,11818.97990585,W,2,13,0.8,6.309,M,-37.406,M,7.4,0131*64
$PYRTM,2024,128.000457352141,19.110104762280
$GNHDT,129.391,T*2A
$PYRTM,2024,128.000463200857,19.110110610995
$GNGGA,000040.00,3308.86650150,N,11818.97880469,W,2,13,0.8,6.284,M,-37.406,M,7.0,0131*61
$PYRTM,2024,128.000463200857,19.110110610995
$GNHDT,129.235,T*25
$PYRTM,2024,128.000468923322,19.110116333461
$GNGGA,000040.50,3308.86573482,N,11818.97771488,W,2,13,0.8,6.255,M,-37.406,M,7.4,0131*6A
$PYRTM,2024,128.000468923322,19.110116333461
$GNHDT,129.174,T*23
$PYRTM,2024,128.000474768218,19.110122178356
$GNGGA,000041.00,3308.86495995,N,11818.97664052,W,2,13,0.8,6.231,M,-37.406,M,7.0,0131*6C
$PYRTM,2024,128.000474768218,19.110122178356
$GNHDT,129.008,T*29
$PYRTM,2024,128.000480500498,19.110127910637
$GNGGA,000041.50,3308.86419930,N,11818.97556206,W,2,13,0.8,6.220,M,-37.406,M,7.4,0131*67
$PYRTM,2024,128.000480500498,19.110127910637
$GNHDT,129.094,T*2C
$PYRTM,2024,128.000486344919,19.110133755058
$GNGGA,000042.00,3308.86345494,N,11818.97448979,W,2,13,0.8,6.248,M,-37.406,M,4.0,0131*68
$PYRTM,2024,128.000486344919,19.110133755058
$GNHDT,129.088,T*21
$PYRTM,2024,128.000492076262,19.110139486400
$GNGGA,000042.50,3308.86271845,N,11818.97341609,W,2,13,0.8,6.315,M,-37.406,M,4.4,0131*60
$PYRTM,2024,128.000492076262,19.110139486400
$GNHDT,129.226,T*27
$PYRTM,2024,128.000497916181,19.110145326319
$GNGGA,000043.00,3308.86199186,N,11818.97233182,W,2,13,0.8,6.403,M,-37.406,M,5.0,0131*62
$PYRTM,2024,128.000497916181,19.110145326319
$GNHDT,129.396,T*2D
$PYRTM,2024,128.000503646910,19.110151057049
$GNGGA,000043.50,3308.86127438,N,11818.97123280,W,2,13,0.8,6.495,M,-37.406,M,5.4,0131*6A
$PYRTM,2024,128.000503646910,19.110151057049
$GNHDT,129.697,T*29
$PYRTM,2024,128.000509489236,19.110156899375
$GNGGA,000044.00,3308.86055780,N,11818.97012184,W,2,13,0.8,6.590,M,-37.406,M,6.0,0131*6B
$PYRTM,2024,128.000509489236,19.110156899375
$GNHDT,130.049,T*24
$PYRTM,2024,128.000515221019,19.110162631157
$GNGGA,000044.50,3308.85984208,N,11818.96900410,W,2,13,0.8,6.673,M,-37.406,M,6.4,0131*64
$PYRTM,2024,128.000515221019,19.110162631157
$GNHDT,130.333,T*2A
$PYRTM,2024,128.000521063634,19.110168473773
$GNGGA,000045.00,3308.85912376,N,11818.96788771,W,2,13,0.8,6.748,M,-37.406,M,7.0,0131*61
$PYRTM,2024,128.000521063634,19.110168473773
$GNHDT,130.638,T*24
$PYRTM,2024,128.000526792396,19.110174202535
$GNGGA,000045.50,3308.85838893,N,11818.96678186,W,2,13,0.8,6.818,M,-37.406,M,7.4,0131*63
$PYRTM,2024,128.000526792396,19.110174202535
$GNHDT,131.044,T*28
$PYRTM,2024,128.000532639213,19.110180049352
$GNGGA,000046.00,3308.85763148,N,11818.96567666,W,2,13,0.8,6.865,M,-37.406,M,7.0,0131*61
$PYRTM,2024,128.000532639213,19.110180049352
$GNHDT,131.372,T*2E
$PYRTM,2024,128.000538376852,19.110185786991
$GNGGA,000046.50,3308.85685839,N,11818.96456393,W,2,13,0.8,6.855,M,-37.406,M,7.4,0131*69
$PYRTM,2024,128.000538376852,19.110185786991
$GNHDT,131.416,T*2B
$PYRTM,2024,128.000544211609,19.110191621748
$GNGGA,000047.00,3308.85607703,N,11818.96344678,W,2,13,0.8,6.820,M,-37.406,M,7.0,0131*63
$PYRTM,2024,128.000544211609,19.110191621748
$GNHDT,131.583,T*26
$PYRTM,2024,128.000549941887,19.110197352025
$GNGGA,000047.50,3308.85529475,N,11818.96231755,W,2,13,0.8,6.772,M,-37.406,M,7.4,0131*6A
$PYRTM,2024,128.000549941887,19.110197352025
$GNHDT,131.486,T*22
$PYRTM,2024,128.000555794491,19.110203204630
$GNGGA,000048.00,3308.85451162,N,11818.96118383,W,2,13,0.8,6.741,M,-37.406,M,4.0,0131*6D
$PYRTM,2024,128.000555794491,19.110203204630
$GNHDT,131.378,T*24
$PYRTM,2024,128.000561518044,19.110208928183
$GNGGA,000048.50,3308.85373792,N,11818.96004316,W,2,13,0.8,6.725,M,-37.406,M,4.4,0131*60
$PYRTM,2024,128.000561518044,19.110208928183
$GNHDT,131.430,T*2F
$PYRTM,2024,128.000567359225,19.110214769363
$GNGGA,000049.00,3308.85296811,N,11818.95890182,W,2,13,0.8,6.704,M,-37.406,M,5.0,0131*65
$PYRTM,2024,128.000567359225,19.110214769363
$GNHDT,131.246,T*28
$PYRTM,2024,128.000573089861,19.110220500000
$GNGGA,000049.50,3308.85219636,N,11818.95776086,W,2,13,0.8,6.692,M,-37.406,M,5.4,0131*64
$PYRTM,2024,128.000573089861,19.110220500000
$GNHDT,131.029,T*23
$PYRTM,2024,128.000578934583,19.110226344722
$GNGGA,000050.00,3308.85142267,N,11818.95662675,W,2,13,0.8,6.664,M,-37.406,M,6.0,0131*64
$PYRTM,2024,128.000578934583,19.110226344722
$GNHDT,130.728,T*24
$PYRTM,2024,128.000584662639,19.110232072778
$GNGGA,000050.50,3308.85064434,N,11818.95550264,W,2,13,0.8,6.618,M,-37.406,M,6.4,0131*6D
$PYRTM,2024,128.000584662639,19.110232072778
$GNHDT,130.189,T*29
$PYRTM,2024,128.000590509340,19.110237919479
$GNGGA,000051.00,3308.84986387,N,11818.95439540,W,2,13,0.8,6.560,M,-37.406,M,7.0,0131*64
$PYRTM,2024,128.000590509340,19.110237919479
$GNHDT,129.829,T*22
$PYRTM,2024,128.000596236632,19.110243646771
$GNGGA,000051.50,3308.84908288,N,11818.95330865,W,2,13,0.8,6.508,M,-37.406,M,7.4,0131*67
$PYRTM,2024,128.000596236632,19.110243646771
$GNHDT,129.715,T*22
$PYRTM,2024,128.000602082164,19.110249492303
$GNGGA,000052.00,3308.84831002,N,11818.95223421,W,2,13,0.8,6.465,M,-37.406,M,7.0,0131*6B
$PYRTM,2024,128.000602082164,19.110249492303
$GNHDT,129.574,T*27
$PYRTM,2024,128.000607812060,19.110255222199
$GNGGA,000052.50,3308.84755406,N,11818.95116395,W,2,13,0.8,6.463,M,-37.406,M,7.4,0131*6C
$PYRTM,2024,128.000607812060,19.110255222199
$GNHDT,129.495,T*29
$PYRTM,2024,128.000613672986,19.110261083125
$GNGGA,000053.00,3308.84680637,N,11818.95009084,W,2,13,0.8,6.481,M,-37.406,M,7.0,0131*65
$PYRTM,2024,128.000613672986,19.110261083125
$GNHDT,129.247,T*20
$PYRTM,2024,128.000619392847,19.110266802986
$GNGGA,000053.50,3308.84607493,N,11818.94900574,W,2,13,0.8,6.487,M,-37.406,M,7.4,0131*6A
$PYRTM,2024,128.000619392847,19.110266802986
$GNHDT,129.298,T*22
$PYRTM,2024,128.000625233472,19.110272643611
$GNGGA,000054.00,3308.84534776,N,11818.94791737,W,2,13,0.8,6.476,M,-37.406,M,4.0,0131*69
$PYRTM,2024,128.000625233472,19.110272643611
$GNHDT,129.135,T*26
$PYRTM,2024,128.000630959583,19.110278369722
$GNGGA,000054.50,3308.84462474,N,11818.94682684,W,2,13,0.8,6.458,M,-37.406,M,4.4,0131*6D
$PYRTM,2024,128.000630959583,19.110278369722
$GNHDT,129.087,T*2E
$PYRTM,2024,128.000636805579,19.110284215718
$GNGGA,000055.00,3308.84390059,N,11818.94574610,W,2,13,0.8,6.447,M,-37.406,M,5.0,0131*64
$PYRTM,2024,128.000636805579,19.110284215718
$GNHDT,129.148,T*2C
$PYRTM,2024,128.000642537072,19.110289947211
$GNGGA,000055.50,3308.84317747,N,11818.94466857,W,2,13,0.8,6.427,M,-37.406,M,5.4,0131*6B
$PYRTM,2024,128.000642537072,19.110289947211
$GNHDT,129.237,T*27
$PYRTM,2024,128.000648378900,19.110295789039
$GNGGA,000056.00,3308.84244841,N,11818.94358433,W,2,13,0.8,6.404,M,-37.406,M,6.0,0131*61
$PYRTM,2024,128.000648378900,19.110295789039
$GNHDT,129.415,T*21
$PYRTM,2024,128.000654107604,19.110301517743
$GNGGA,000056.50,3308.84171595,N,11818.94248617,W,2,13,0.8,6.389,M,-37.406,M,6.4,0131*67
$PYRTM,2024,128.000654107604,19.110301517743
$GNHDT,129.299,T*23
$PYRTM,2024,128.000659955417,19.110307365556
$GNGGA,000057.00,3308.84098443,N,11818.94137096,W,2,13,0.8,6.378,M,-37.406,M,7.0,0131*60
$PYRTM,2024,128.000659955417,19.110307365556
$GNHDT,129.412,T*26
$PYRTM,2024,128.000665686030,19.110313096169
$GNGGA,000057.50,3308.84025827,N,11818.94024594,W,2,13,0.8,6.402,M,-37.406,M,7.4,0131*67
$PYRTM,2024,128.000665686030,19.110313096169
$GNHDT,129.382,T*28
$PYRTM,2024,128.000671533704,19.110318943854
$GNGGA,000058.00,3308.83952802,N,11818.93911742,W,2,13,0.8,6.460,M,-37.406,M,7.0,0131*65
$PYRTM,2024,128.000671533704,19.110318943854
$GNHDT,129.497,T*2B
$PYRTM,2024,128.000677258437,19.110324668588
$GNGGA,000058.50,3308.83878423,N,11818.93800089,W,2,13,0.8,6.545,M,-37.406,M,7.4,0131*65
$PYRTM,2024,128.000677258437,19.110324668588
$GNHDT,129.619,T*2F
$PYRTM,2024,128.000683104433,19.110330514572
$GNGGA,000059.00,3308.83802303,N,11818.93689125,W,2,13,0.8,6.646,M,-37.406,M,7.0,0131*65
$PYRTM,2024,128.000683104433,19.110330514572
$GNHDT,129.829,T*22
$PYRTM,2024,128.000688832141,19.110336242292
$GNGGA,000059.50,3308.83725562,N,11818.93576630,W,2,13,0.8,6.747,M,-37.405,M,7.4,0131*6C
$PYRTM,2024,128.000688832141,19.110336242292
$GNHDT,129.877,T*29
$PYRTM,2024,128.000694679896,19.110342090035
$GNGGA,000100.00,3308.83648094,N,11818.93462748,W,2,13,0.8,6.827,M,-37.405,M,4.0,0131*66
$PYRTM,2024,128.000694679896,19.110342090035
$GNHDT,129.835,T*2F
$PYRTM,2024,128.000700407465,19.110347817604
$GNGGA,000100.50,3308.83571080,N,11818.93346755,W,2,13,0.8,6.872,M,-37.405,M,4.4,0131*66
$PYRTM,2024,128.000700407465,19.110347817604
$GNHDT,129.801,T*28
$PYRTM,2024,128.000706252951,19.110353663102
$GNGGA,000101.00,3308.83494230,N,11818.93230143,W,2,13,0.8,6.872,M,-37.405,M,5.0,0131*65
$PYRTM,2024,128.000706252951,19.110353663102
$GNHDT,129.824,T*2F
$PYRTM,2024,128.000711984988,19.110359395127
$GNGGA,000101.50,3308.83417870,N,11818.93114552,W,2,13,0.8,6.848,M,-37.405,M,5.4,0131*69
$PYRTM,2024,128.000711984988,19.110359395127
$GNHDT,130.158,T*25
$PYRTM,2024,128.000717823287,19.110365233437
$GNGGA,000102.00,3308.83341442,N,11818.93000287,W,2,13,0.8,6.825,M,-37.405,M,6.0,0131*61
$PYRTM,2024,128.000717823287,19.110365233437
$GNHDT,130.303,T*29
$PYRTM,2024,128.000723551713,19.110370961852
$GNGGA,000102.50,3308.83264936,N,11818.92887899,W,2,13,0.8,6.796,M,-37.405,M,6.4,0131*6C
$PYRTM,2024,128.000723551713,19.110370961852
$GNHDT,130.511,T*2C
$PYRTM,2024,128.000729400671,19.110376810822
$GNGGA,000103.00,3308.83187867,N,11818.92776266,W,2,13,0.8,6.735,M,-37.405,M,7.0,0131*64
$PYRTM,2024,128.000729400671,19.110376810822
$GNHDT,130.727,T*2B
$PYRTM,2024,128.000735128322,19.110382538461
$GNGGA,000103.50,3308.83110710,N,11818.92664868,W,2,13,0.8,6.651,M,-37.405,M,7.4,0131*61
$PYRTM,2024,128.000735128322,19.110382538461
$GNHDT,130.774,T*2D
$PYRTM,2024,128.000740973403,19.110388383542
$GNGGA,000104.00,3308.83033786,N,11818.92553680,W,2,13,0.8,6.549,M,-37.405,M,7.0,0131*6D
$PYRTM,2024,128.000740973403,19.110388383542
$GNHDT,130.884,T*2D
$PYRTM,2024,128.000746701470,19.110394111609
$GNGGA,000104.50,3308.82957803,N,11818.92443378,W,2,13,0.8,6.450,M,-37.405,M,7.4,0131*6F
$PYRTM,2024,128.000746701470,19.110394111609
$GNHDT,130.743,T*29
$PYRTM,2024,128.000752551262,19.110399961400
$GNGGA,000105.00,3308.82883101,N,11818.92333841,W,2,13,0.8,6.380,M,-37.405,M,7.0,0131*67
$PYRTM,2024,128.000752551262,19.110399961400
$GNHDT,130.789,T*2F
$PYRTM,2024,128.000758274491,19.110405684630
$GNGGA,000105.50,3308.82809149,N,11818.92225234,W,2,13,0.8,6.361,M,-37.405,M,7.4,0131*69
$PYRTM,2024,128.000758274491,19.110405684630
$GNHDT,131.101,T*28
$PYRTM,2024,128.000764121910,19.110411532049
$GNGGA,000106.00,3308.82735313,N,11818.92117390,W,2,13,0.8,6.379,M,-37.405,M,4.0,0131*61
$PYRTM,2024,128.000764121910,19.110411532049
$GNHDT,131.125,T*2E
$PYRTM,2024,128.000769852697,19.110417262836
$GNGGA,000106.50,3308.82660469,N,11818.92009856,W,2,13,0.8,6.414,M,-37.405,M,4.4,0131*68
$PYRTM,2024,128.000769852697,19.110417262836
$GNHDT,130.934,T*27
$PYRTM,2024,128.000775701354,19.110423111493
$GNGGA,000107.00,3308.82584238,N,11818.91902953,W,2,13,0.8,6.439,M,-37.405,M,5.0,0131*68
$PYRTM,2024,128.000775701354,19.110423111493
$GNHDT,130.966,T*20
$PYRTM,2024,128.000781422859,19.110428832998
$GNGGA,000107.50,3308.82507219,N,11818.91796651,W,2,13,0.8,6.469,M,-37.405,M,5.4,0131*6A
$PYRTM,2024,128.000781422859,19.110428832998
$GNHDT,130.757,T*2C
$PYRTM,2024,128.000787267593,19.110434677731
$GNGGA,000108.00,3308.82429675,N,11818.91689755,W,2,13,0.8,6.482,M,-37.405,M,6.0,0131*6B
$PYRTM,2024,128.000787267593,19.110434677731
$GNHDT,130.567,T*2D
$PYRTM,2024,128.000792999549,19.110440409687
$GNGGA,000108.50,3308.82352177,N,11818.91581114,W,2,13,0.8,6.483,M,-37.405,M,6.4,0131*6D
$PYRTM,2024,128.000792999549,19.110440409687
$GNHDT,130.277,T*2B
$PYRTM,2024,128.000798841910,19.110446252049
$GNGGA,000109.00,3308.82275234,N,11818.91471323,W,2,13,0.8,6.495,M,-37.405,M,7.0,0131*63
$PYRTM,2024,128.000798841910,19.110446252049
$GNHDT,130.084,T*25
$PYRTM,2024,128.000804571620,19.110451981759
$GNGGA,000109.50,3308.82199144,N,11818.91360414,W,2,13,0.8,6.537,M,-37.405,M,7.4,0131*6A
$PYRTM,2024,128.000804571620,19.110451981759
$GNHDT,129.838,T*22
$PYRTM,2024,128.000810417141,19.110457827280
$GNGGA,000110.00,3308.82123144,N,11818.91249181,W,2,13,0.8,6.599,M,-37.405,M,7.0,0131*65
$PYRTM,2024,128.000810417141,19.110457827280
$GNHDT,129.560,T*22
$PYRTM,2024,128.000816144815,19.110463554954
$GNGGA,000110.50,3308.82046987,N,11818.91138029,W,2,13,0.8,6.669,M,-37.405,M,7.4,0131*6B
$PYRTM,2024,128.000816144815,19.110463554954
$GNHDT,129.582,T*2E
$PYRTM,2024,128.000821991655,19.110469401806
$GNGGA,000111.00,3308.81970557,N,11818.91026945,W,2,13,0.8,6.723,M,-37.405,M,7.0,0131*67
$PYRTM,2024,128.000821991655,19.110469401806
$GNHDT,129.524,T*22
$PYRTM,2024,128.000827722650,19.110475132789
$GNGGA,000111.50,3308.81893322,N,11818.90915315,W,2,13,0.8,6.748,M,-37.405,M,7.4,0131*64
$PYRTM,2024,128.000827722650,19.110475132789
$GNHDT,129.574,T*27
$PYRTM,2024,128.000833563125,19.110480973264
$GNGGA,000112.00,3308.81816205,N,11818.90802561,W,2,13,0.8,6.726,M,-37.405,M,4.0,0131*66
$PYRTM,2024,128.000833563125,19.110480973264
$GNHDT,129.644,T*27
$PYRTM,2024,128.000839297604,19.110486707743
$GNGGA,000112.50,3308.81739895,N,11818.90689051,W,2,13,0.8,6.683,M,-37.405,M,4.4,0131*63
$PYRTM,2024,128.000839297604,19.110486707743
$GNHDT,129.735,T*20
$PYRTM,2024,128.000845144572,19.110492554711
$GNGGA,000113.00,3308.81664679,N,11818.90574750,W,2,13,0.8,6.634,M,-37.405,M,5.0,0131*6C
$PYRTM,2024,128.000845144572,19.110492554711
$GNHDT,129.726,T*22
$PYRTM,2024,128.000850866227,19.110498276366
$GNGGA,000113.50,3308.81590049,N,11818.90460547,W,2,13,0.8,6.601,M,-37.405,M,5.4,0131*66
$PYRTM,2024,128.000850866227,19.110498276366
$GNHDT,129.595,T*28
$PYRTM,2024,128.000856710914,19.110504121053
$GNGGA,000114.00,3308.81515486,N,11818.90346772,W,2,13,0.8,6.575,M,-37.405,M,6.0,0131*6E
$PYRTM,2024,128.000856710914,19.110504121053
$GNHDT,129.554,T*25
$PYRTM,2024,128.000862441285,19.110509851435
$GNGGA,000114.50,3308.81440575,N,11818.90233827,W,2,13,0.8,6.554,M,-37.405,M,6.4,0131*6C
$PYRTM,2024,128.000862441285,19.110509851435
$GNHDT,129.194,T*2D
$PYRTM,2024,128.000868285833,19.110515695984
$GNGGA,000115.00,3308.81364517,N,11818.90122361,W,2,13,0.8,6.550,M,-37.405,M,7.0,0131*66
$PYRTM,2024,128.000868285833,19.110515695984
$GNHDT,129.138,T*2B
$PYRTM,2024,128.000874015231,19.110521425370
$GNGGA,000115.50,3308.81289032,N,11818.90010254,W,2,13,0.8,6.543,M,-37.405,M,7.4,0131*62
$PYRTM,2024,128.000874015231,19.110521425370
$GNHDT,129.303,T*21
$PYRTM,2024,128.000879860984,19.110527271134
$GNGGA,000116.00,3308.81214033,N,11818.89898484,W,2,13,0.8,6.529,M,-37.405,M,7.0,0131*62
$PYRTM,2024,128.000879860984,19.110527271134
$GNHDT,129.370,T*25
$PYRTM,2024,128.000885589039,19.110532999178
$GNGGA,000116.50,3308.81139751,N,11818.89787207,W,2,13,0.8,6.532,M,-37.405,M,7.4,0131*6A
$PYRTM,2024,128.000885589039,19.110532999178
$GNHDT,129.372,T*27
$PYRTM,2024,128.000891436065,19.110538846204
$GNGGA,000117.00,3308.81066091,N,11818.89676884,W,2,13,0.8,6.562,M,-37.405,M,7.0,0131*61
$PYRTM,2024,128.000891436065,19.110538846204
$GNHDT,129.562,T*20
$PYRTM,2024,128.000897165185,19.110544575324
$GNGGA,000117.50,3308.80992294,N,11818.89567646,W,2,13,0.8,6.601,M,-37.405,M,7.4,0131*61
$PYRTM,2024,128.000897165185,19.110544575324
$GNHDT,129.546,T*26
$PYRTM,2024,128.000903008356,19.110550418495
$GNGGA,000118.00,3308.80917815,N,11818.89459343,W,2,13,0.8,6.627,M,-37.405,M,4.0,0131*6A
$PYRTM,2024,128.000903008356,19.110550418495
$GNHDT,129.788,T*26
$PYRTM,2024,128.000908736424,19.110556146563
$GNGGA,000118.50,3308.80842144,N,11818.89351887,W,2,13,0.8,6.626,M,-37.405,M,4.4,0131*6A
$PYRTM,2024,128.000908736424,19.110556146563
$GNHDT,130.039,T*23
$PYRTM,2024,128.000914584109,19.110561994248
$GNGGA,000119.00,3308.80765387,N,11818.89244752,W,2,13,0.8,6.603,M,-37.405,M,5.0,0131*69
$PYRTM,2024,128.000914584109,19.110561994248
$GNHDT,130.148,T*24
$PYRTM,2024,128.000920310926,19.110567721065
$GNGGA,000119.50,3308.80688424,N,11818.89136558,W,2,13,0.8,6.550,M,-37.405,M,5.4,0131*6F
$PYRTM,2024,128.000920310926,19.110567721065
$GNHDT,130.557,T*2E
$PYRTM,2024,128.000926156539,19.110573566678
$GNGGA,000120.00,3308.80611651,N,11818.89026919,W,2,13,0.8,6.489,M,-37.405,M,6.0,0131*6B
$PYRTM,2024,128.000926156539,19.110573566678
$GNHDT,130.689,T*2E
$PYRTM,2024,128.000931893738,19.110579303877
$GNGGA,000120.50,3308.80535887,N,11818.88916556,W,2,13,0.8,6.437,M,-37.405,M,6.4,0131*63
$PYRTM,2024,128.000931893738,19.110579303877
$GNHDT,130.757,T*2C
$PYRTM,2024,128.000937730289,19.110585140428
$GNGGA,000121.00,3308.80460589,N,11818.88805732,W,2,13,0.8,6.423,M,-37.405,M,7.0,0131*66
$PYRTM,2024,128.000937730289,19.110585140428
$GNHDT,130.686,T*21
$PYRTM,2024,128.000943459653,19.110590869792
$GNGGA,000121.50,3308.80385243,N,11818.88693877,W,2,13,0.8,6.452,M,-37.405,M,7.4,0131*63
$PYRTM,2024,128.000943459653,19.110590869792
$GNHDT,130.761,T*29
$PYRTM,2024,128.000949309132,19.110596719271
$GNGGA,000122.00,3308.80309534,N,11818.88582112,W,2,13,0.8,6.518,M,-37.405,M,7.0,0131*64
$PYRTM,2024,128.000949309132,19.110596719271
$GNHDT,130.802,T*23
$PYRTM,2024,128.000955032824,19.110602442963
$GNGGA,000122.50,3308.80233258,N,11818.88470566,W,2,13,0.8,6.598,M,-37.405,M,7.4,0131*63
$PYRTM,2024,128.000955032824,19.110602442963
$GNHDT,130.577,T*2C
$PYRTM,2024,128.000960881933,19.110608292072
$GNGGA,000123.00,3308.80156043,N,11818.88359166,W,2,13,0.8,6.682,M,-37.405,M,7.0,0131*6B
$PYRTM,2024,128.000960881933,19.110608292072
$GNHDT,130.402,T*2F
$PYRTM,2024,128.000966612257,19.110614022407
$GNGGA,000123.50,3308.80078150,N,11818.88246970,W,2,13,0.8,6.735,M,-37.405,M,7.4,0131*69
$PYRTM,2024,128.000966612257,19.110614022407
$GNHDT,130.122,T*28
$PYRTM,2024,128.000972451389,19.110619861528
$GNGGA,000124.00,3308.79999208,N,11818.88134652,W,2,13,0.8,6.751,M,-37.405,M,4.0,0131*69
$PYRTM,2024,128.000972451389,19.110619861528
$GNHDT,130.127,T*2D
$PYRTM,2024,128.000978186852,19.110625596991
$GNGGA,000124.50,3308.79921356,N,11818.88022275,W,2,13,0.8,6.750,M,-37.405,M,4.4,0131*67
$PYRTM,2024,128.000978186852,19.110625596991
$GNHDT,129.966,T*28
$PYRTM,2024,128.000984026979,19.110631437118
$GNGGA,000125.00,3308.79844658,N,11818.87909778,W,2,13,0.8,6.741,M,-37.405,M,5.0,0131*68
$PYRTM,2024,128.000984026979,19.110631437118
$GNHDT,129.896,T*26
$PYRTM,2024,128.000989756655,19.110637166794
$GNGGA,000125.50,3308.79768124,N,11818.87797340,W,2,13,0.8,6.733,M,-37.405,M,5.4,0131*67
$PYRTM,2024,128.000989756655,19.110637166794
$GNHDT,129.661,T*20
$PYRTM,2024,128.000995602361,19.110643012500
$GNGGA,000126.00,3308.79691707,N,11818.87685132,W,2,13,0.8,6.720,M,-37.405,M,6.0,0131*61
$PYRTM,2024,128.000995602361,19.110643012500
$GNHDT,129.486,T*2B
$PYRTM,2024,128.001001334086,19.110648744225
$GNGGA,000126.50,3308.79615221,N,11818.87572934,W,2,13,0.8,6.710,M,-37.405,M,6.4,0131*6B
$PYRTM,2024,128.001001334086,19.110648744225
$GNHDT,129.605,T*22
$PYRTM,2024,128.001007175590,19.110654585741
$GNGGA,000127.00,3308.79539561,N,11818.87460924,W,2,13,0.8,6.676,M,-37.405,M,7.0,0131*66
$PYRTM,2024,128.001007175590,19.110654585741
$GNHDT,129.547,T*27
$PYRTM,2024,128.001012903935,19.110660314074
$GNGGA,000127.50,3308.79464312,N,11818.87349744,W,2,13,0.8,6.652,M,-37.405,M,7.4,0131*6E
$PYRTM,2024,128.001012903935,19.110660314074
$GNHDT,129.818,T*20
$PYRTM,2024,128.001018751863,19.110666162002
$GNGGA,000128.00,3308.79390235,N,11818.87238878,W,2,13,0.8,6.609,M,-37.405,M,7.0,0131*61
$PYRTM,2024,128.001018751863,19.110666162002
$GNHDT,129.942,T*2E
$PYRTM,2024,128.001024478819,19.110671888958
$GNGGA,000128.50,3308.79316578,N,11818.87128608,W,2,13,0.8,6.561,M,-37.405,M,7.4,0131*66
$PYRTM,2024,128.001024478819,19.110671888958
$GNHDT,129.870,T*2E
$PYRTM,2024,128.001030323160,19.110677733299
$GNGGA,000129.00,3308.79243115,N,11818.87018875,W,2,13,0.8,6.505,M,-37.405,M,7.0,0131*6C
$PYRTM,2024,128.001030323160,19.110677733299
$GNHDT,129.901,T*29
$PYRTM,2024,128.001036054375,19.110683464525
$GNGGA,000129.50,3308.79169390,N,11818.86909940,W,2,13,0.8,6.447,M,-37.405,M,7.4,0131*61
$PYRTM,2024,128.001036054375,19.110683464525
$GNHDT,130.068,T*27
$PYRTM,2024,128.001041897546,19.110689307685
$GNGGA,000130.00,3308.79095983,N,11818.86801233,W,2,13,0.8,6.397,M,-37.405,M,4.0,0131*6D
$PYRTM,2024,128.001041897546,19.110689307685
$GNHDT,130.077,T*29
$PYRTM,2024,128.001047628762,19.110695038900
$GNGGA,000130.50,3308.79023188,N,11818.86692997,W,2,13,0.8,6.349,M,-37.405,M,4.4,0131*60
$PYRTM,2024,128.001047628762,19.110695038900
$GNHDT,130.030,T*2A
$PYRTM,2024,128.001053476238,19.110700886377
$GNGGA,000131.00,3308.78950175,N,11818.86585046,W,2,13,0.8,6.311,M,-37.404,M,5.0,0131*63
$PYRTM,2024,128.001053476238,19.110700886377
$GNHDT,129.853,T*2F
$PYRTM,2024,128.001059199919,19.110706610058
$GNGGA,000131.50,3308.78876546,N,11818.86477131,W,2,13,0.8,6.272,M,-37.404,M,5.4,0131*6A
$PYRTM,2024,128.001059199919,19.110706610058
$GNHDT,129.713,T*24
$PYRTM,2024,128.001065048345,19.110712458484
$GNGGA,000132.00,3308.78801715,N,11818.86368215,W,2,13,0.8,6.250,M,-37.404,M,6.0,0131*63
$PYRTM,2024,128.001065048345,19.110712458484
$GNHDT,129.638,T*2C
$PYRTM,2024,128.001070776134,19.110718186285
$GNGGA,000132.50,3308.78725740,N,11818.86259443,W,2,13,0.8,6.244,M,-37.404,M,6.4,0131*68
$PYRTM,2024,128.001070776134,19.110718186285
$GNHDT,129.670,T*20
$PYRTM,2024,128.001076619988,19.110724030127
$GNGGA,000133.00,3308.78648963,N,11818.86151241,W,2,13,0.8,6.261,M,-37.404,M,7.0,0131*64
$PYRTM,2024,128.001076619988,19.110724030127
$GNHDT,129.546,T*26
$PYRTM,2024,128.001082348576,19.110729758715
$GNGGA,000133.50,3308.78571594,N,11818.86042602,W,2,13,0.8,6.305,M,-37.404,M,7.4,0131*6B
$PYRTM,2024,128.001082348576,19.110729758715
$GNHDT,129.445,T*24
$PYRTM,2024,128.001088197720,19.110735607859
$GNGGA,000134.00,3308.78493886,N,11818.85933243,W,2,13,0.8,6.374,M,-37.404,M,7.0,0131*65
$PYRTM,2024,128.001088197720,19.110735607859
$GNHDT,129.590,T*2D
$PYRTM,2024,128.001093924873,19.110741335012
$GNGGA,000134.50,3308.78416203,N,11818.85822872,W,2,13,0.8,6.467,M,-37.404,M,7.4,0131*62
$PYRTM,2024,128.001093924873,19.110741335012
$GNHDT,129.804,T*2D
$PYRTM,2024,128.001099767465,19.110747177604
$GNGGA,000135.00,3308.78338154,N,11818.85710895,W,2,13,0.8,6.567,M,-37.404,M,7.0,0131*6E
$PYRTM,2024,128.001099767465,19.110747177604
$GNHDT,130.060,T*2F
$PYRTM,2024,128.001105498403,19.110752908542
$GNGGA,000135.50,3308.78259892,N,11818.85596998,W,2,13,0.8,6.645,M,-37.404,M,7.4,0131*69
$PYRTM,2024,128.001105498403,19.110752908542
$GNHDT,130.191,T*20
$PYRTM,2024,128.001111345417,19.110758755556
$GNGGA,000136.00,3308.78180675,N,11818.85482134,W,2,13,0.8,6.717,M,-37.404,M,4.0,0131*64
$PYRTM,2024,128.001111345417,19.110758755556
$GNHDT,130.389,T*2B
$PYRTM,2024,128.001117072975,19.110764483113
$GNGGA,000136.50,3308.78101598,N,11818.85366741,W,2,13,0.8,6.771,M,-37.404,M,4.4,0131*65
$PYRTM,2024,128.001117072975,19.110764483113
$GNHDT,130.562,T*28
$PYRTM,2024,128.001122917141,19.110770327280
$GNGGA,000137.00,3308.78022102,N,11818.85252267,W,2,13,0.8,6.812,M,-37.404,M,5.0,0131*6E
$PYRTM,2024,128.001122917141,19.110770327280
$GNHDT,130.742,T*28
$PYRTM,2024,128.001128644144,19.110776054282
$GNGGA,000137.50,3308.77942755,N,11818.85138256,W,2,13,0.8,6.856,M,-37.404,M,5.4,0131*66
$PYRTM,2024,128.001128644144,19.110776054282
$GNHDT,130.905,T*25
$PYRTM,2024,128.001134492326,19.110781902477
$GNGGA,000138.00,3308.77863991,N,11818.85024313,W,2,13,0.8,6.886,M,-37.404,M,6.0,0131*6E
$PYRTM,2024,128.001134492326,19.110781902477
$GNHDT,130.828,T*2B
$PYRTM,2024,128.001140219722,19.110787629873
$GNGGA,000138.50,3308.77786238,N,11818.84910603,W,2,13,0.8,6.897,M,-37.404,M,6.4,0131*68
$PYRTM,2024,128.001140219722,19.110787629873
$GNHDT,130.772,T*2B
$PYRTM,2024,128.001146064155,19.110793474294
$GNGGA,000139.00,3308.77710049,N,11818.84797561,W,2,13,0.8,6.883,M,-37.404,M,7.0,0131*61
$PYRTM,2024,128.001146064155,19.110793474294
$GNHDT,130.599,T*2C
$PYRTM,2024,128.001151792442,19.110799202593
$GNGGA,000139.50,3308.77635318,N,11818.84685289,W,2,13,0.8,6.855,M,-37.404,M,7.4,0131*69
$PYRTM,2024,128.001151792442,19.110799202593
$GNHDT,130.685,T*22
$PYRTM,2024,128.001157640706,19.110805050845
$GNGGA,000140.00,3308.77561449,N,11818.84573814,W,2,13,0.8,6.809,M,-37.404,M,7.0,0131*6A
$PYRTM,2024,128.001157640706,19.110805050845
$GNHDT,130.611,T*2F
$PYRTM,2024,128.001163366620,19.110810776771
$GNGGA,000140.50,3308.77487963,N,11818.84463357,W,2,13,0.8,6.742,M,-37.404,M,7.4,0131*6B
$PYRTM,2024,128.001163366620,19.110810776771
$GNHDT,130.271,T*2D
$PYRTM,2024,128.001169216030,19.110816626169
$GNGGA,000141.00,3308.77414775,N,11818.84354479,W,2,13,0.8,6.661,M,-37.404,M,7.0,0131*60
$PYRTM,2024,128.001169216030,19.110816626169
$GNHDT,130.115,T*2C
$PYRTM,2024,128.001174945093,19.110822355243
$GNGGA,000141.50,3308.77342045,N,11818.84247847,W,2,13,0.8,6.609,M,-37.404,M,7.4,0131*6D
$PYRTM,2024,128.001174945093,19.110822355243
$GNHDT,130.010,T*28
$PYRTM,2024,128.001180786678,19.110828196817
$GNGGA,000142.00,3308.77269621,N,11818.84142719,W,2,13,0.8,6.563,M,-37.404,M,4.0,0131*6D
$PYRTM,2024,128.001180786678,19.110828196817
$GNHDT,129.843,T*2E
$PYRTM,2024,128.001186515336,19.110833925475
$GNGGA,000142.50,3308.77197494,N,11818.84037568,W,2,13,0.8,6.509,M,-37.404,M,4.4,0131*69
$PYRTM,2024,128.001186515336,19.110833925475
$GNHDT,129.795,T*2A
$PYRTM,2024,128.001192361343,19.110839771481
$GNGGA,000143.00,3308.77124728,N,11818.83932092,W,2,13,0.8,6.446,M,-37.404,M,5.0,0131*65
$PYRTM,2024,128.001192361343,19.110839771481
$GNHDT,129.587,T*2B
$PYRTM,2024,128.001198089630,19.110845499769
$GNGGA,000143.50,3308.77051183,N,11818.83825016,W,2,13,0.8,6.361,M,-37.404,M,5.4,0131*69
$PYRTM,2024,128.001198089630,19.110845499769
$GNHDT,129.243,T*24
$PYRTM,2024,128.001203940590,19.110851350729
$GNGGA,000144.00,3308.76976950,N,11818.83717321,W,2,13,0.7,6.267,M,-37.404,M,6.0,0131*66
$PYRTM,2024,128.001203940590,19.110851350729
$GNHDT,129.085,T*2C
$PYRTM,2024,128.001209664942,19.110857075081
$GNGGA,000144.50,3308.76902688,N,11818.83609425,W,2,13,0.7,6.193,M,-37.404,M,6.4,0131*6B
$PYRTM,2024,128.001209664942,19.110857075081
$GNHDT,128.977,T*29
$PYRTM,2024,128.001215509491,19.110862919641
$GNGGA,000145.00,3308.76827881,N,11818.83501335,W,2,13,0.7,6.158,M,-37.404,M,7.0,0131*61
$PYRTM,2024,128.001215509491,19.110862919641
$GNHDT,129.082,T*2B
$PYRTM,2024,128.001221237187,19.110868647326
$GNGGA,000145.50,3308.76751629,N,11818.83393362,W,2,13,0.7,6.190,M,-37.404,M,7.4,0131*69
$PYRTM,2024,128.001221237187,19.110868647326
$GNHDT,129.106,T*26
$PYRTM,2024,128.001227084201,19.110874494340
$GNGGA,000146.00,3308.76674667,N,11818.83283409,W,2,13,0.7,6.257,M,-37.404,M,7.0,0131*65
$PYRTM,2024,128.001227084201,19.110874494340
$GNHDT,129.257,T*21
$PYRTM,2024,128.001232813137,19.110880223287
$GNGGA,000146.50,3308.76597255,N,11818.83172313,W,2,13,0.7,6.349,M,-37.404,M,7.4,0131*60
$PYRTM,2024,128.001232813137,19.110880223287
$GNHDT,129.459,T*29
$PYRTM,2024,128.001238661400,19.110886071539
$GNGGA,000147.00,3308.76519214,N,11818.83060232,W,2,13,0.7,6.469,M,-37.404,M,7.0,0131*66
$PYRTM,2024,128.001238661400,19.110886071539
$GNHDT,129.749,T*2B
$PYRTM,2024,128.001244386215,19.110891796354
$GNGGA,000147.50,3308.76440667,N,11818.82947728,W,2,13,0.7,6.592,M,-37.404,M,7.4,0131*6C
$PYRTM,2024,128.001244386215,19.110891796354
$GNHDT,130.189,T*29
$PYRTM,2024,128.001250229838,19.110897639977
$GNGGA,000148.00,3308.76360840,N,11818.82834817,W,2,13,0.7,6.707,M,-37.404,M,4.0,0131*67
$PYRTM,2024,128.001250229838,19.110897639977
$GNHDT,130.490,T*24
$PYRTM,2024,128.001255959606,19.110903369745
$GNGGA,000148.50,3308.76281342,N,11818.82720285,W,2,13,0.7,6.780,M,-37.404,M,4.4,0131*65
$PYRTM,2024,128.001255959606,19.110903369745
$GNHDT,130.840,T*25
$PYRTM,2024,128.001261806458,19.110909216597
$GNGGA,000149.00,3308.76201982,N,11818.82604055,W,2,13,0.7,6.812,M,-37.404,M,5.0,0131*66
$PYRTM,2024,128.001261806458,19.110909216597
$GNHDT,130.987,T*2F
$PYRTM,2024,128.001267536574,19.110914946713
$GNGGA,000149.50,3308.76123057,N,11818.82487834,W,2,13,0.7,6.820,M,-37.404,M,5.4,0131*62
$PYRTM,2024,128.001267536574,19.110914946713
$GNHDT,131.041,T*2D
$PYRTM,2024,128.001273382813,19.110920792951
$GNGGA,000150.00,3308.76045298,N,11818.82371738,W,2,13,0.7,6.800,M,-37.404,M,6.0,0131*67
$PYRTM,2024,128.001273382813,19.110920792951
$GNHDT,131.045,T*29
$PYRTM,2024,128.001279113391,19.110926523530
$GNGGA,000150.50,3308.75968991,N,11818.82256958,W,2,13,0.7,6.768,M,-37.404,M,6.4,0131*6C
$PYRTM,2024,128.001279113391,19.110926523530
$GNHDT,131.069,T*27
$PYRTM,2024,128.001284954213,19.110932364363
$GNGGA,000151.00,3308.75894038,N,11818.82142495,W,2,13,0.7,6.740,M,-37.404,M,7.0,0131*65
$PYRTM,2024,128.001284954213,19.110932364363
$GNHDT,130.840,T*25
$PYRTM,2024,128.001290683519,19.110938093657
$GNGGA,000151.50,3308.75819635,N,11818.82029758,W,2,13,0.7,6.699,M,-37.404,M,7.4,0131*61
$PYRTM,2024,128.001290683519,19.110938093657
$GNHDT,130.475,T*2F
$PYRTM,2024,128.001296529757,19.110943939907
$GNGGA,000152.00,3308.75745275,N,11818.81918759,W,2,13,0.7,6.643,M,-37.404,M,7.0,0131*6B
$PYRTM,2024,128.001296529757,19.110943939907
$GNHDT,130.237,T*2F
$PYRTM,2024,128.001302257326,19.110949667477
$GNGGA,000152.50,3308.75670655,N,11818.81809778,W,2,13,0.7,6.572,M,-37.404,M,7.4,0131*68
$PYRTM,2024,128.001302257326,19.110949667477
$GNHDT,129.967,T*29
$PYRTM,2024,128.001308100683,19.110955510833
$GNGGA,000153.00,3308.75596991,N,11818.81700977,W,2,13,0.7,6.505,M,-37.404,M,7.0,0131*63
$PYRTM,2024,128.001308100683,19.110955510833
$GNHDT,129.585,T*29
$PYRTM,2024,128.001313830509,19.110961240660
$GNGGA,000153.50,3308.75524280,N,11818.81593228,W,2,13,0.7,6.453,M,-37.404,M,7.4,0131*6B
$PYRTM,2024,128.001313830509,19.110961240660
$GNHDT,129.532,T*25
$PYRTM,2024,128.001319674282,19.110967084421
$GNGGA,000154.00,3308.75452555,N,11818.81487308,W,2,13,0.7,6.450,M,-37.404,M,4.0,0131*65
$PYRTM,2024,128.001319674282,19.110967084421
$GNHDT,129.598,T*25
$PYRTM,2024,128.001325409259,19.110972819410
$GNGGA,000154.50,3308.75380545,N,11818.81383074,W,2,13,0.7,6.490,M,-37.404,M,4.4,0131*6A
$PYRTM,2024,128.001325409259,19.110972819410
$GNHDT,129.323,T*23
$PYRTM,2024,128.001331250590,19.110978660729
$GNGGA,000155.00,3308.75306385,N,11818.81281652,W,2,13,0.7,6.546,M,-37.404,M,5.0,0131*64
$PYRTM,2024,128.001331250590,19.110978660729
$GNHDT,129.414,T*20
$PYRTM,2024,128.001336977801,19.110984387940
$GNGGA,000155.50,3308.75231050,N,11818.81178425,W,2,13,0.7,6.607,M,-37.404,M,5.4,0131*6A
$PYRTM,2024,128.001336977801,19.110984387940
$GNHDT,129.739,T*2C
$PYRTM,2024,128.001342823889,19.110990234028
$GNGGA,000156.00,3308.75154449,N,11818.81074235,W,2,13,0.7,6.655,M,-37.404,M,6.0,0131*6A
$PYRTM,2024,128.001342823889,19.110990234028
$GNHDT,129.828,T*23
$PYRTM,2024,128.001348552812,19.110995962951
$GNGGA,000156.50,3308.75077385,N,11818.80968055,W,2,13,0.7,6.668,M,-37.404,M,6.4,0131*63
$PYRTM,2024,128.001348552812,19.110995962951
$GNHDT,130.004,T*2D
$PYRTM,2024,128.001354405590,19.111001815729
$GNGGA,000157.00,3308.75000388,N,11818.80859941,W,2,13,0.7,6.642,M,-37.404,M,7.0,0131*68
$PYRTM,2024,128.001354405590,19.111001815729
$GNHDT,130.092,T*22
$PYRTM,2024,128.001360126019,19.111007536157
$GNGGA,000157.50,3308.74923834,N,11818.80749207,W,2,13,0.7,6.595,M,-37.404,M,7.4,0131*62
$PYRTM,2024,128.001360126019,19.111007536157
$GNHDT,130.337,T*2E
$PYRTM,2024,128.001365975799,19.111013385949
$GNGGA,000158.00,3308.74848773,N,11818.80636358,W,2,13,0.7,6.559,M,-37.404,M,7.0,0131*6E
$PYRTM,2024,128.001365975799,19.111013385949
$GNHDT,130.455,T*2D
$PYRTM,2024,128.001371702894,19.111019113032
$GNGGA,000158.50,3308.74774857,N,11818.80522891,W,2,13,0.7,6.553,M,-37.404,M,7.4,0131*64
$PYRTM,2024,128.001371702894,19.111019113032
$GNHDT,130.491,T*25
$PYRTM,2024,128.001377546690,19.111024956840
$GNGGA,000159.00,3308.74701854,N,11818.80409820,W,2,13,0.7,6.570,M,-37.404,M,7.0,0131*66
$PYRTM,2024,128.001377546690,19.111024956840
$GNHDT,130.585,T*21
$PYRTM,2024,128.001383275613,19.111030685752
$GNGGA,000159.50,3308.74628744,N,11818.80297657,W,2,13,0.7,6.604,M,-37.404,M,7.4,0131*6C
$PYRTM,2024,128.001383275613,19.111030685752
$GNHDT,130.466,T*2D
$PYRTM,2024,128.001389122037,19.111036532176
$GNGGA,000200.00,3308.74554305,N,11818.80187008,W,2,13,0.7,6.636,M,-37.404,M,4.0,0131*67
$PYRTM,2024,128.001389122037,19.111036532176
$GNHDT,130.481,T*24
$PYRTM,2024,128.001394850139,19.111042260278
$GNGGA,000200.50,3308.74477969,N,11818.80077514,W,2,13,0.7,6.620,M,-37.404,M,4.4,0131*67
$PYRTM,2024,128.001394850139,19.111042260278
$GNHDT,130.471,T*2B
$PYRTM,2024,128.001400695498,19.111048105637
$GNGGA,000201.00,3308.74399499,N,11818.79969697,W,2,13,0.7,6.550,M,-37.404,M,5.0,0131*6F
$PYRTM,2024,128.001400695498,19.111048105637
$GNHDT,130.185,T*25
$PYRTM,2024,128.001406422164,19.111053832303
$GNGGA,000201.50,3308.74319625,N,11818.79862448,W,2,13,0.7,6.450,M,-37.404,M,5.4,0131*68
$PYRTM,2024,128.001406422164,19.111053832303
$GNHDT,130.164,T*2A
$PYRTM,2024,128.001412268935,19.111059679074
$GNGGA,000202.00,3308.74239047,N,11818.79755376,W,2,13,0.7,6.345,M,-37.404,M,6.0,0131*6A
$PYRTM,2024,128.001412268935,19.111059679074
$GNHDT,130.001,T*28
$PYRTM,2024,128.001417998113,19.111065408252
$GNGGA,000202.50,3308.74161091,N,11818.79647362,W,2,13,0.7,6.284,M,-37.404,M,6.4,0131*65
$PYRTM,2024,128.001417998113,19.111065408252
$GNHDT,129.941,T*2D
$PYRTM,2024,128.001423844039,19.111071254178
$GNGGA,000203.00,3308.74085725,N,11818.79537425,W,2,13,0.7,6.289,M,-37.403,M,7.0,0131*6D
$PYRTM,2024,128.001423844039,19.111071254178
$GNHDT,129.904,T*2C
$PYRTM,2024,128.001429571875,19.111076982025
$GNGGA,000203.50,3308.74012850,N,11818.79426608,W,2,13,0.7,6.381,M,-37.403,M,7.4,0131*6A
$PYRTM,2024,128.001429571875,19.111076982025
$GNHDT,129.797,T*28
$PYRTM,2024,128.001435419456,19.111082829595
$GNGGA,000204.00,3308.73940515,N,11818.79314936,W,2,13,0.7,6.527,M,-37.403,M,7.0,0131*67
$PYRTM,2024,128.001435419456,19.111082829595
$GNHDT,129.993,T*22
$PYRTM,2024,128.001441147685,19.111088557824
$GNGGA,000204.50,3308.73866906,N,11818.79202556,W,2,13,0.7,6.696,M,-37.403,M,7.4,0131*68
$PYRTM,2024,128.001441147685,19.111088557824
$GNHDT,130.059,T*25
$PYRTM,2024,128.001446992118,19.111094402257
$GNGGA,000205.00,3308.73790941,N,11818.79091518,W,2,13,0.7,6.819,M,-37.403,M,7.0,0131*66
$PYRTM,2024,128.001446992118,19.111094402257
$GNHDT,130.102,T*2A
$PYRTM,2024,128.001452720706,19.111100130845
$GNGGA,000205.50,3308.73712886,N,11818.78979729,W,2,13,0.7,6.888,M,-37.403,M,7.4,0131*61
$PYRTM,2024,128.001452720706,19.111100130845
$GNHDT,130.338,T*21
$PYRTM,2024,128.001458564282,19.111105974421
$GNGGA,000206.00,3308.73632713,N,11818.78867636,W,2,13,0.7,6.893,M,-37.403,M,4.0,0131*6B
$PYRTM,2024,128.001458564282,19.111105974421
$GNHDT,130.398,T*2B
$PYRTM,2024,128.001464293692,19.111111703831
$GNGGA,000206.50,3308.73551735,N,11818.78755129,W,2,13,0.7,6.841,M,-37.403,M,4.4,0131*60
$PYRTM,2024,128.001464293692,19.111111703831
$GNHDT,130.209,T*22
$PYRTM,2024,128.001470140903,19.111117551042
$GNGGA,000207.00,3308.73471034,N,11818.78642276,W,2,13,0.7,6.760,M,-37.403,M,5.0,0131*66
$PYRTM,2024,128.001470140903,19.111117551042
$GNHDT,130.172,T*2D
$PYRTM,2024,128.001475870868,19.111123281007
$GNGGA,000207.50,3308.73392824,N,11818.78528402,W,2,13,0.7,6.685,M,-37.403,M,5.4,0131*64
$PYRTM,2024,128.001475870868,19.111123281007
$GNHDT,130.147,T*2B
$PYRTM,2024,128.001481711910,19.111129122049
$GNGGA,000208.00,3308.73315436,N,11818.78413396,W,2,13,0.7,6.635,M,-37.403,M,6.0,0131*61
$PYRTM,2024,128.001481711910,19.111129122049
$GNHDT,129.842,T*2F
$PYRTM,2024,128.001487443056,19.111134853194
$GNGGA,000208.50,3308.73241827,N,11818.78296965,W,2,13,0.7,6.613,M,-37.403,M,6.4,0131*65
$PYRTM,2024,128.001487443056,19.111134853194
$GNHDT,129.504,T*20
$PYRTM,2024,128.001493286262,19.111140696412
$GNGGA,000209.00,3308.73170236,N,11818.78180323,W,2,13,0.7,6.584,M,-37.403,M,7.0,0131*6E
$PYRTM,2024,128.001493286262,19.111140696412
$GNHDT,129.256,T*20
$PYRTM,2024,128.001499022847,19.111146432986
$GNGGA,000209.50,3308.73099117,N,11818.78065010,W,2,13,0.7,6.546,M,-37.403,M,7.4,0131*6E
$PYRTM,2024,128.001499022847,19.111146432986
$GNHDT,128.773,T*23
$PYRTM,2024,128.001504864225,19.111152274363
$GNGGA,000210.00,3308.73027588,N,11818.77951578,W,2,13,0.7,6.477,M,-37.403,M,7.0,0131*69
$PYRTM,2024,128.001504864225,19.111152274363
$GNHDT,128.485,T*29
$PYRTM,2024,128.001510593275,19.111158003414
$GNGGA,000210.50,3308.72955122,N,11818.77841838,W,2,13,0.7,6.382,M,-37.403,M,7.4,0131*65
$PYRTM,2024,128.001510593275,19.111158003414
$GNHDT,128.259,T*2E
$PYRTM,2024,128.001516435752,19.111163845891
$GNGGA,000211.00,3308.72882055,N,11818.77734962,W,2,13,0.7,6.291,M,-37.403,M,7.0,0131*6F
$PYRTM,2024,128.001516435752,19.111163845891
$GNHDT,128.182,T*2B
$PYRTM,2024,128.001522166343,19.111169576481
$GNGGA,000211.50,3308.72807600,N,11818.77631874,W,2,13,0.7,6.227,M,-37.403,M,7.4,0131*6A
$PYRTM,2024,128.001522166343,19.111169576481
$GNHDT,128.083,T*2B
$PYRTM,2024,128.001528010949,19.111175421100
$GNGGA,000212.00,3308.72732988,N,11818.77529172,W,2,13,0.7,6.212,M,-37.403,M,4.0,0131*6E
$PYRTM,2024,128.001528010949,19.111175421100
$GNHDT,128.370,T*24
$PYRTM,2024,128.001533740521,19.111181150660
$GNGGA,000212.50,3308.72657876,N,11818.77426092,W,2,13,0.7,6.231,M,-37.403,M,4.4,0131*6D
$PYRTM,2024,128.001533740521,19.111181150660
$GNHDT,128.661,T*21
$PYRTM,2024,128.001539582836,19.111186992975
$GNGGA,000213.00,3308.72582966,N,11818.77320291,W,2,13,0.7,6.271,M,-37.403,M,5.0,0131*63
$PYRTM,2024,128.001539582836,19.111186992975
$GNHDT,128.971,T*2F
$PYRTM,2024,128.001545313854,19.111192723993
$GNGGA,000213.50,3308.72508667,N,11818.77211747,W,2,13,0.7,6.334,M,-37.403,M,5.4,0131*63
$PYRTM,2024,128.001545313854,19.111192723993
$GNHDT,129.415,T*21
$PYRTM,2024,128.001551158623,19.111198568773
$GNGGA,000214.00,3308.72435342,N,11818.77100410,W,2,13,0.7,6.408,M,-37.403,M,6.0,0131*61
$PYRTM,2024,128.001551158623,19.111198568773
$GNHDT,129.695,T*2B
$PYRTM,2024,128.001556887442,19.111204297581
$GNGGA,000214.50,3308.72362763,N,11818.76987439,W,2,13,0.7,6.474,M,-37.403,M,6.4,0131*64
$PYRTM,2024,128.001556887442,19.111204297581
$GNHDT,130.116,T*2F
$PYRTM,2024,128.001562732431,19.111210142569
$GNGGA,000215.00,3308.72290067,N,11818.76873665,W,2,13,0.7,6.558,M,-37.403,M,7.0,0131*64
$PYRTM,2024,128.001562732431,19.111210142569
$GNHDT,130.536,T*29
$PYRTM,2024,128.001568460613,19.111215870764
$GNGGA,000215.50,3308.72216200,N,11818.76759293,W,2,13,0.7,6.627,M,-37.403,M,7.4,0131*69
$PYRTM,2024,128.001568460613,19.111215870764
$GNHDT,130.608,T*27
$PYRTM,2024,128.001574310278,19.111221720417
$GNGGA,000216.00,3308.72141426,N,11818.76644583,W,2,13,0.7,6.684,M,-37.403,M,7.0,0131*6A
$PYRTM,2024,128.001574310278,19.111221720417
$GNHDT,130.860,T*27
$PYRTM,2024,128.001580035764,19.111227445914
$GNGGA,000216.50,3308.72065546,N,11818.76529386,W,2,13,0.7,6.714,M,-37.403,M,7.4,0131*68
$PYRTM,2024,128.001580035764,19.111227445914
$GNHDT,130.849,T*2C
$PYRTM,2024,128.001585880359,19.111233290498
$GNGGA,000217.00,3308.71989082,N,11818.76415397,W,2,13,0.7,6.717,M,-37.403,M,7.0,0131*60
$PYRTM,2024,128.001585880359,19.111233290498
$GNHDT,130.826,T*25
$PYRTM,2024,128.001591611701,19.111239021840
$GNGGA,000217.50,3308.71911454,N,11818.76303036,W,2,13,0.7,6.702,M,-37.403,M,7.4,0131*63
$PYRTM,2024,128.001591611701,19.111239021840
$GNHDT,131.072,T*2D
$PYRTM,2024,128.001597455000,19.111244865139
$GNGGA,000218.00,3308.71833529,N,11818.76192395,W,2,13,0.7,6.665,M,-37.403,M,4.0,0131*64
$PYRTM,2024,128.001597455000,19.111244865139
$GNHDT,130.987,T*2F
$PYRTM,2024,128.001603186169,19.111250596308
$GNGGA,000218.50,3308.71756196,N,11818.76082435,W,2,13,0.7,6.611,M,-37.403,M,4.4,0131*67
$PYRTM,2024,128.001603186169,19.111250596308
$GNHDT,130.520,T*2E
$PYRTM,2024,128.001609027315,19.111256437454
$GNGGA,000219.00,3308.71680628,N,11818.75972938,W,2,13,0.7,6.563,M,-37.403,M,5.0,0131*6D
$PYRTM,2024,128.001609027315,19.111256437454
$GNHDT,130.317,T*2C
$PYRTM,2024,128.001614757836,19.111262167975
$GNGGA,000219.50,3308.71607077,N,11818.75863284,W,2,13,0.7,6.522,M,-37.403,M,5.4,0131*67
$PYRTM,2024,128.001614757836,19.111262167975
$GNHDT,130.256,T*28
$PYRTM,2024,128.001620605880,19.111268016019
$GNGGA,000220.00,3308.71534305,N,11818.75755068,W,2,13,0.7,6.513,M,-37.403,M,6.0,0131*62
$PYRTM,2024,128.001620605880,19.111268016019
$GNHDT,129.983,T*23
$PYRTM,2024,128.001626333287,19.111273743426
$GNGGA,000220.50,3308.71462333,N,11818.75647404,W,2,13,0.7,6.497,M,-37.403,M,6.4,0131*65
$PYRTM,2024,128.001626333287,19.111273743426
$GNHDT,129.668,T*29
$PYRTM,2024,128.001632198380,19.111279608519
$GNGGA,000221.00,3308.71389280,N,11818.75540644,W,2,13,0.7,6.475,M,-37.403,M,7.0,0131*61
$PYRTM,2024,128.001632198380,19.111279608519
$GNHDT,129.384,T*2E
$PYRTM,2024,128.001637904965,19.111285315104
$GNGGA,000221.50,3308.71314858,N,11818.75434392,W,2,13,0.7,6.449,M,-37.403,M,7.4,0131*68
$PYRTM,2024,128.001637904965,19.111285315104
$GNHDT,129.392,T*29
$PYRTM,2024,128.001643750150,19.111291160301
$GNGGA,000222.00,3308.71239418,N,11818.75328694,W,2,13,0.7,6.435,M,-37.403,M,7.0,0131*6E
$PYRTM,2024,128.001643750150,19.111291160301
$GNHDT,129.230,T*20
$PYRTM,2024,128.001649480509,19.111296890648
$GNGGA,000222.50,3308.71163829,N,11818.75222747,W,2,13,0.7,6.442,M,-37.403,M,7.4,0131*69
$PYRTM,2024,128.001649480509,19.111296890648
$GNHDT,129.090,T*28
$PYRTM,2024,128.001655328808,19.111302738958
$GNGGA,000223.00,3308.71087870,N,11818.75118248,W,2,13,0.7,6.487,M,-37.403,M,7.0,0131*67
$PYRTM,2024,128.001655328808,19.111302738958
$GNHDT,128.991,T*21
$PYRTM,2024,128.001661057477,19.111308467616
$GNGGA,000223.50,3308.71012305,N,11818.75011131,W,2,13,0.7,6.570,M,-37.403,M,7.4,0131*6F
$PYRTM,2024,128.001661057477,19.111308467616
$GNHDT,129.024,T*27
$PYRTM,2024,128.001666900162,19.111314310301
$GNGGA,000224.00,3308.70937077,N,11818.74901755,W,2,13,0.7,6.684,M,-37.403,M,4.0,0131*66
$PYRTM,2024,128.001666900162,19.111314310301
$GNHDT,129.121,T*23
$PYRTM,2024,128.001672631528,19.111320041678
$GNGGA,000224.50,3308.70862128,N,11818.74788895,W,2,13,0.7,6.804,M,-37.403,M,4.4,0131*67
$PYRTM,2024,128.001672631528,19.111320041678
$GNHDT,129.426,T*21
$PYRTM,2024,128.001678471875,19.111325882014
$GNGGA,000225.00,3308.70786590,N,11818.74674183,W,2,13,0.7,6.903,M,-37.403,M,5.0,0131*6E
$PYRTM,2024,128.001678471875,19.111325882014
$GNHDT,129.601,T*26
$PYRTM,2024,128.001684207257,19.111331617396
$GNGGA,000225.50,3308.70710483,N,11818.74557338,W,2,13,0.7,6.984,M,-37.403,M,5.4,0131*6C
$PYRTM,2024,128.001684207257,19.111331617396
$GNHDT,129.848,T*25
$PYRTM,2024,128.001690046319,19.111337456458
$GNGGA,000226.00,3308.70633668,N,11818.74440114,W,2,13,0.7,7.035,M,-37.403,M,6.0,0131*63
$PYRTM,2024,128.001690046319,19.111337456458
$GNHDT,130.172,T*2D
$PYRTM,2024,128.001695777616,19.111343187755
$GNGGA,000226.50,3308.70556935,N,11818.74322235,W,2,13,0.7,7.043,M,-37.403,M,6.4,0131*67
$PYRTM,2024,128.001695777616,19.111343187755
$GNHDT,130.467,T*2C
$PYRTM,2024,128.001701622905,19.111349033044
$GNGGA,000227.00,3308.70479884,N,11818.74204774,W,2,13,0.7,7.008,M,-37.403,M,7.0,0131*6B
$PYRTM,2024,128.001701622905,19.111349033044
$GNHDT,130.667,T*2E
$PYRTM,2024,128.001707349572,19.111354759711
$GNGGA,000227.50,3308.70403066,N,11818.74087462,W,2,13,0.7,6.947,M,-37.403,M,7.4,0131*6D
$PYRTM,2024,128.001707349572,19.111354759711
$GNHDT,130.685,T*22
$PYRTM,2024,128.001713220544,19.111360630683
$GNGGA,000228.00,3308.70326568,N,11818.73970572,W,2,13,0.7,6.846,M,-37.403,M,7.0,0131*6E
$PYRTM,2024,128.001713220544,19.111360630683
$GNHDT,130.525,T*2B
$PYRTM,2024,128.001718930000,19.111366340139
$GNGGA,000228.50,3308.70251060,N,11818.73854839,W,2,13,0.7,6.728,M,-37.403,M,7.4,0131*61
$PYRTM,2024,128.001718930000,19.111366340139
$GNHDT,130.238,T*20
$PYRTM,2024,128.001724775972,19.111372186111
