$PYRTM,2024,124.666666814780,15.776314224919
$GNGGA,160000.00,3525.01198031,N,12106.93887898,W,2,13,0.9,7.833,M,-35.511,M,7.0,0135*62
$PYRTM,2024,124.666666814780,15.776314224919
$GNHDT,110.865,T*20
$PYRTM,2024,124.666672545428,15.776319955567
$GNGGA,160000.50,3525.01154819,N,12106.93754171,W,2,13,0.9,7.824,M,-35.511,M,7.4,0135*68
$PYRTM,2024,124.666672545428,15.776319955567
$GNHDT,110.909,T*2B
$PYRTM,2024,124.666678387917,15.776325798067
$GNGGA,160001.00,3525.01114560,N,12106.93622620,W,2,13,0.9,7.895,M,-35.511,M,4.0,0135*65
$PYRTM,2024,124.666678387917,15.776325798067
$GNHDT,110.976,T*23
$PYRTM,2024,124.666684124109,15.776331534248
$GNGGA,160001.50,3525.01074853,N,12106.93491159,W,2,13,0.9,7.942,M,-35.511,M,4.4,0135*66
$PYRTM,2024,124.666684124109,15.776331534248
$GNHDT,111.214,T*2D
$PYRTM,2024,124.666689961227,15.776337371377
$GNGGA,160002.00,3525.01034406,N,12106.93361130,W,2,13,0.9,7.932,M,-35.511,M,5.0,0135*6D
$PYRTM,2024,124.666689961227,15.776337371377
$GNHDT,111.471,T*28
$PYRTM,2024,124.666695693495,15.776343103634
$GNGGA,160002.50,3525.00991753,N,12106.93232962,W,2,13,0.9,7.836,M,-35.511,M,5.4,0135*65
$PYRTM,2024,124.666695693495,15.776343103634
$GNHDT,111.889,T*23
$PYRTM,2024,124.666701536725,15.776348946863
$GNGGA,160003.00,3525.00945448,N,12106.93107406,W,2,13,0.9,7.651,M,-35.511,M,6.0,0135*63
$PYRTM,2024,124.666701536725,15.776348946863
$GNHDT,112.070,T*2E
$PYRTM,2024,124.666707270579,15.776354680729
$GNGGA,160003.50,3525.00897755,N,12106.92984026,W,2,13,0.9,7.431,M,-35.510,M,6.4,0135*62
$PYRTM,2024,124.666707270579,15.776354680729
$GNHDT,112.588,T*2C
$PYRTM,2024,124.666713108553,15.776360518692
$GNGGA,160004.00,3525.00849218,N,12106.92862807,W,2,13,0.9,7.225,M,-35.510,M,7.0,0135*6B
$PYRTM,2024,124.666713108553,15.776360518692
$GNHDT,112.933,T*20
$PYRTM,2024,124.666718842083,15.776366252222
$GNGGA,160004.50,3525.00802913,N,12106.92742106,W,2,13,0.9,7.110,M,-35.510,M,7.4,0135*65
$PYRTM,2024,124.666718842083,15.776366252222
$GNHDT,112.835,T*27
$PYRTM,2024,124.666724682176,15.776372092326
$GNGGA,160005.00,3525.00759696,N,12106.92619263,W,2,13,0.9,7.098,M,-35.510,M,7.0,0135*68
$PYRTM,2024,124.666724682176,15.776372092326
$GNHDT,112.981,T*29
$PYRTM,2024,124.666730415509,15.776377825648
$GNGGA,160005.50,3525.00719721,N,12106.92492409,W,2,13,0.9,7.184,M,-35.510,M,7.4,0135*67
$PYRTM,2024,124.666730415509,15.776377825648
$GNHDT,112.942,T*26
$PYRTM,2024,124.666736259537,15.776383669676
$GNGGA,160006.00,3525.00681298,N,12106.92361564,W,2,13,0.9,7.330,M,-35.510,M,7.0,0135*6E
$PYRTM,2024,124.666736259537,15.776383669676
$GNHDT,112.981,T*29
$PYRTM,2024,124.666741991632,15.776389401782
$GNGGA,160006.50,3525.00642597,N,12106.92226822,W,2,13,0.9,7.471,M,-35.510,M,7.4,0135*67
$PYRTM,2024,124.666741991632,15.776389401782
$GNHDT,112.662,T*2B
$PYRTM,2024,124.666747833553,15.776395243692
$GNGGA,160007.00,3525.00602509,N,12106.92089000,W,2,13,0.9,7.609,M,-35.510,M,4.0,0135*65
$PYRTM,2024,124.666747833553,15.776395243692
$GNHDT,112.188,T*28
$PYRTM,2024,124.666753565891,15.776400976030
$GNGGA,160007.50,3525.00560415,N,12106.91950609,W,2,13,0.9,7.748,M,-35.510,M,4.4,0135*6A
$PYRTM,2024,124.666753565891,15.776400976030
$GNHDT,112.036,T*2C
$PYRTM,2024,124.666759405347,15.776406815486
$GNGGA,160008.00,3525.00516142,N,12106.91812559,W,2,13,0.9,7.890,M,-35.510,M,5.0,0135*68
$PYRTM,2024,124.666759405347,15.776406815486
$GNHDT,111.639,T*26
$PYRTM,2024,124.666765137882,15.776412548021
$GNGGA,160008.50,3525.00470841,N,12106.91674471,W,2,13,0.9,8.027,M,-35.510,M,5.4,0135*6C
$PYRTM,2024,124.666765137882,15.776412548021
$GNHDT,111.376,T*28
$PYRTM,2024,124.666770980718,15.776418390856
$GNGGA,160009.00,3525.00424902,N,12106.91536424,W,2,13,0.9,8.161,M,-35.510,M,6.0,0135*6E
$PYRTM,2024,124.666770980718,15.776418390856
$GNHDT,110.995,T*2E
$PYRTM,2024,124.666776712176,15.776424122315
$GNGGA,160009.50,3525.00379132,N,12106.91398790,W,2,13,0.9,8.253,M,-35.510,M,6.4,0135*67
$PYRTM,2024,124.666776712176,15.776424122315
$GNHDT,110.533,T*2E
$PYRTM,2024,124.666782553750,15.776429963900
$GNGGA,160010.00,3525.00333833,N,12106.91262329,W,2,13,0.9,8.287,M,-35.510,M,7.0,0135*62
$PYRTM,2024,124.666782553750,15.776429963900
$GNHDT,110.404,T*2B
$PYRTM,2024,124.666788288137,15.776435698275
$GNGGA,160010.50,3525.00289293,N,12106.91127045,W,2,13,0.9,8.268,M,-35.510,M,7.4,0135*69
$PYRTM,2024,124.666788288137,15.776435698275
$GNHDT,110.523,T*2F
$PYRTM,2024,124.666794126412,15.776441536551
$GNGGA,160011.00,3525.00245652,N,12106.90992619,W,2,13,0.9,8.187,M,-35.510,M,7.0,0135*6A
$PYRTM,2024,124.666794126412,15.776441536551
$GNHDT,110.856,T*20
$PYRTM,2024,124.666799860127,15.776447270266
$GNGGA,160011.50,3525.00202870,N,12106.90859348,W,2,13,0.9,8.067,M,-35.510,M,7.4,0135*6E
$PYRTM,2024,124.666799860127,15.776447270266
$GNHDT,110.987,T*2D
$PYRTM,2024,124.666805703380,15.776453113519
$GNGGA,160012.00,3525.00161110,N,12106.90727803,W,2,13,0.9,7.933,M,-35.510,M,7.0,0135*60
$PYRTM,2024,124.666805703380,15.776453113519
$GNHDT,111.425,T*29
$PYRTM,2024,124.666811434907,15.776458845046
$GNGGA,160012.50,3525.00120731,N,12106.90597501,W,2,13,0.9,7.830,M,-35.510,M,7.4,0135*65
$PYRTM,2024,124.666811434907,15.776458845046
$GNHDT,111.591,T*27
$PYRTM,2024,124.666817277627,15.776464687766
$GNGGA,160013.00,3525.00081655,N,12106.90468970,W,2,13,0.9,7.749,M,-35.510,M,4.0,0135*65
$PYRTM,2024,124.666817277627,15.776464687766
$GNHDT,111.899,T*22
$PYRTM,2024,124.666823009005,15.776470419144
$GNGGA,160013.50,3525.00043059,N,12106.90341351,W,2,13,0.9,7.708,M,-35.510,M,4.4,0135*60
$PYRTM,2024,124.666823009005,15.776470419144
$GNHDT,112.260,T*2D
$PYRTM,2024,124.666828850370,15.776476260509
$GNGGA,160014.00,3525.00003889,N,12106.90214130,W,2,13,0.9,7.672,M,-35.510,M,5.0,0135*6E
$PYRTM,2024,124.666828850370,15.776476260509
$GNHDT,112.664,T*2D
$PYRTM,2024,124.666834584097,15.776481994236
$GNGGA,160014.50,3524.99963527,N,12106.90086569,W,2,13,0.9,7.634,M,-35.509,M,5.4,0135*63
$PYRTM,2024,124.666834584097,15.776481994236
$GNHDT,112.772,T*2B
$PYRTM,2024,124.666840423484,15.776487833623
$GNGGA,160015.00,3524.99922165,N,12106.89958350,W,2,13,0.9,7.581,M,-35.509,M,6.0,0135*64
$PYRTM,2024,124.666840423484,15.776487833623
$GNHDT,112.913,T*22
$PYRTM,2024,124.666846159190,15.776493569329
$GNGGA,160015.50,3524.99879298,N,12106.89829068,W,2,13,0.9,7.517,M,-35.509,M,6.4,0135*6B
$PYRTM,2024,124.666846159190,15.776493569329
$GNHDT,113.034,T*2F
$PYRTM,2024,124.666852001898,15.776499412037
$GNGGA,160016.00,3524.99835595,N,12106.89699217,W,2,13,0.9,7.462,M,-35.509,M,7.0,0135*66
$PYRTM,2024,124.666852001898,15.776499412037
$GNHDT,112.994,T*2D
$PYRTM,2024,124.666857730671,15.776505140810
$GNGGA,160016.50,3524.99791900,N,12106.89568853,W,2,13,0.9,7.430,M,-35.509,M,7.4,0135*66
$PYRTM,2024,124.666857730671,15.776505140810
$GNHDT,112.756,T*2D
$PYRTM,2024,124.666863571308,15.776510981447
$GNGGA,160017.00,3524.99747775,N,12106.89437702,W,2,13,0.9,7.420,M,-35.509,M,7.0,0135*60
$PYRTM,2024,124.666863571308,15.776510981447
$GNHDT,112.467,T*2C
$PYRTM,2024,124.666869306574,15.776516716713
$GNGGA,160017.50,3524.99702591,N,12106.89306291,W,2,13,0.9,7.429,M,-35.509,M,7.4,0135*6B
$PYRTM,2024,124.666869306574,15.776516716713
$GNHDT,112.336,T*2F
$PYRTM,2024,124.666875147743,15.776522557882
$GNGGA,160018.00,3524.99656172,N,12106.89174326,W,2,13,0.9,7.452,M,-35.509,M,7.0,0135*6A
$PYRTM,2024,124.666875147743,15.776522557882
$GNHDT,112.073,T*2D
$PYRTM,2024,124.666880879028,15.776528289167
$GNGGA,160018.50,3524.99609332,N,12106.89041269,W,2,13,0.9,7.463,M,-35.509,M,7.4,0135*68
$PYRTM,2024,124.666880879028,15.776528289167
$GNHDT,111.661,T*2B
$PYRTM,2024,124.666886725868,15.776534136007
$GNGGA,160019.00,3524.99562399,N,12106.88907980,W,2,13,0.9,7.493,M,-35.509,M,4.0,0135*6D
$PYRTM,2024,124.666886725868,15.776534136007
$GNHDT,111.421,T*2D
$PYRTM,2024,124.666892452477,15.776539862616
$GNGGA,160019.50,3524.99516496,N,12106.88774685,W,2,13,0.9,7.542,M,-35.509,M,4.4,0135*6A
$PYRTM,2024,124.666892452477,15.776539862616
$GNHDT,111.230,T*2B
$PYRTM,2024,124.666898297130,15.776545707280
$GNGGA,160020.00,3524.99471510,N,12106.88641052,W,2,13,0.9,7.622,M,-35.509,M,5.0,0135*61
$PYRTM,2024,124.666898297130,15.776545707280
$GNHDT,111.141,T*2E
$PYRTM,2024,124.666904032546,15.776551442685
$GNGGA,160020.50,3524.99427552,N,12106.88507498,W,2,13,0.9,7.719,M,-35.509,M,5.4,0135*6F
$PYRTM,2024,124.666904032546,15.776551442685
$GNHDT,111.338,T*22
$PYRTM,2024,124.666909870104,15.776557280243
$GNGGA,160021.00,3524.99383768,N,12106.88374599,W,2,13,0.9,7.821,M,-35.509,M,6.0,0135*68
$PYRTM,2024,124.666909870104,15.776557280243
$GNHDT,111.485,T*23
$PYRTM,2024,124.666915601458,15.776563011597
$GNGGA,160021.50,3524.99339195,N,12106.88242566,W,2,13,0.9,7.906,M,-35.509,M,6.4,0135*6C
$PYRTM,2024,124.666915601458,15.776563011597
$GNHDT,111.678,T*23
$PYRTM,2024,124.666921447118,15.776568857269
$GNGGA,160022.00,3524.99293424,N,12106.88111490,W,2,13,0.9,7.940,M,-35.509,M,7.0,0135*6E
$PYRTM,2024,124.666921447118,15.776568857269
$GNHDT,111.870,T*25
$PYRTM,2024,124.666927174132,15.776574584271
$GNGGA,160022.50,3524.99246512,N,12106.87980272,W,2,13,0.9,7.936,M,-35.509,M,7.4,0135*67
$PYRTM,2024,124.666927174132,15.776574584271
$GNHDT,112.044,T*29
$PYRTM,2024,124.666933018113,15.776580428252
$GNGGA,160023.00,3524.99199297,N,12106.87849078,W,2,13,0.9,7.895,M,-35.509,M,7.0,0135*68
$PYRTM,2024,124.666933018113,15.776580428252
$GNHDT,112.393,T*20
$PYRTM,2024,124.666938748611,15.776586158762
$GNGGA,160023.50,3524.99153199,N,12106.87718381,W,2,13,0.9,7.862,M,-35.508,M,7.4,0135*65
$PYRTM,2024,124.666938748611,15.776586158762
$GNHDT,112.579,T*22
$PYRTM,2024,124.666944591713,15.776592001852
$GNGGA,160024.00,3524.99108864,N,12106.87587927,W,2,13,0.9,7.844,M,-35.508,M,7.0,0135*60
$PYRTM,2024,124.666944591713,15.776592001852
$GNHDT,112.622,T*2F
$PYRTM,2024,124.666950324792,15.776597734931
$GNGGA,160024.50,3524.99066723,N,12106.87456067,W,2,13,0.9,7.863,M,-35.508,M,7.4,0135*61
$PYRTM,2024,124.666950324792,15.776597734931
$GNHDT,112.742,T*28
$PYRTM,2024,124.666956164537,15.776603574676
$GNGGA,160025.00,3524.99026706,N,12106.87321981,W,2,13,0.9,7.900,M,-35.508,M,4.0,0135*63
$PYRTM,2024,124.666956164537,15.776603574676
$GNHDT,112.690,T*26
$PYRTM,2024,124.666961899225,15.776609309363
$GNGGA,160025.50,3524.98988443,N,12106.87186149,W,2,13,0.9,7.909,M,-35.508,M,4.4,0135*66
$PYRTM,2024,124.666961899225,15.776609309363
$GNHDT,112.763,T*2B
$PYRTM,2024,124.666967739306,15.776615149456
$GNGGA,160026.00,3524.98950838,N,12106.87049416,W,2,13,0.9,7.885,M,-35.508,M,5.0,0135*68
$PYRTM,2024,124.666967739306,15.776615149456
$GNHDT,112.670,T*28
$PYRTM,2024,124.666973474363,15.776620884502
$GNGGA,160026.50,3524.98912501,N,12106.86913600,W,2,13,0.9,7.842,M,-35.508,M,5.4,0135*61
$PYRTM,2024,124.666973474363,15.776620884502
$GNHDT,112.617,T*29
$PYRTM,2024,124.666979313785,15.776626723924
$GNGGA,160027.00,3524.98872949,N,12106.86779694,W,2,13,0.9,7.781,M,-35.508,M,6.0,0135*6A
$PYRTM,2024,124.666979313785,15.776626723924
$GNHDT,112.407,T*2A
$PYRTM,2024,124.666985046250,15.776632456389
$GNGGA,160027.50,3524.98831400,N,12106.86648510,W,2,13,0.9,7.708,M,-35.508,M,6.4,0135*61
$PYRTM,2024,124.666985046250,15.776632456389
$GNHDT,112.060,T*2F
$PYRTM,2024,124.666990887604,15.776638297743
$GNGGA,160028.00,3524.98787117,N,12106.86519132,W,2,13,0.9,7.626,M,-35.508,M,7.0,0135*61
$PYRTM,2024,124.666990887604,15.776638297743
$GNHDT,111.865,T*21
$PYRTM,2024,124.666996621481,15.776644031632
$GNGGA,160028.50,3524.98741196,N,12106.86391164,W,2,13,0.9,7.542,M,-35.508,M,7.4,0135*67
$PYRTM,2024,124.666996621481,15.776644031632
$GNHDT,111.629,T*27
$PYRTM,2024,124.667002462778,15.776649872917
$GNGGA,160029.00,3524.98694784,N,12106.86263750,W,2,13,0.9,7.467,M,-35.508,M,7.0,0135*60
$PYRTM,2024,124.667002462778,15.776649872917
$GNHDT,111.570,T*28
$PYRTM,2024,124.667008195243,15.776655605382
$GNGGA,160029.50,3524.98648944,N,12106.86136467,W,2,13,0.9,7.420,M,-35.508,M,7.4,0135*65
$PYRTM,2024,124.667008195243,15.776655605382
$GNHDT,111.590,T*26
$PYRTM,2024,124.667014035324,15.776661445463
$GNGGA,160030.00,3524.98604591,N,12106.86008523,W,2,13,0.9,7.397,M,-35.508,M,7.0,0135*66
$PYRTM,2024,124.667014035324,15.776661445463
$GNHDT,111.428,T*24
$PYRTM,2024,124.667019771111,15.776667181250
$GNGGA,160030.50,3524.98561748,N,12106.85879747,W,2,13,0.9,7.409,M,-35.508,M,7.4,0135*6C
$PYRTM,2024,124.667019771111,15.776667181250
$GNHDT,111.248,T*24
$PYRTM,2024,124.667025609537,15.776673019676
$GNGGA,160031.00,3524.98520361,N,12106.85750186,W,2,13,0.9,7.471,M,-35.508,M,4.0,0135*65
$PYRTM,2024,124.667025609537,15.776673019676
$GNHDT,111.093,T*20
$PYRTM,2024,124.667031345706,15.776678755845
$GNGGA,160031.50,3524.98479352,N,12106.85619912,W,2,13,0.9,7.543,M,-35.508,M,4.4,0135*60
$PYRTM,2024,124.667031345706,15.776678755845
$GNHDT,111.110,T*2A
$PYRTM,2024,124.667037182072,15.776684592211
$GNGGA,160032.00,3524.98436985,N,12106.85489058,W,2,13,0.9,7.620,M,-35.508,M,5.0,0135*62
$PYRTM,2024,124.667037182072,15.776684592211
$GNHDT,111.081,T*23
$PYRTM,2024,124.667042916620,15.776690326759
$GNGGA,160032.50,3524.98392336,N,12106.85358142,W,2,13,0.9,7.680,M,-35.508,M,5.4,0135*63
$PYRTM,2024,124.667042916620,15.776690326759
$GNHDT,111.092,T*21
$PYRTM,2024,124.667048760671,15.776696170822
$GNGGA,160033.00,3524.98345400,N,12106.85226474,W,2,13,0.9,7.706,M,-35.508,M,6.0,0135*6F
$PYRTM,2024,124.667048760671,15.776696170822
$GNHDT,111.253,T*2E
$PYRTM,2024,124.667054490833,15.776701900972
$GNGGA,160033.50,3524.98297238,N,12106.85093742,W,2,13,0.9,7.706,M,-35.508,M,6.4,0135*67
$PYRTM,2024,124.667054490833,15.776701900972
$GNHDT,111.399,T*29
$PYRTM,2024,124.667060332072,15.776707742211
$GNGGA,160034.00,3524.98249051,N,12106.84960109,W,2,13,0.9,7.703,M,-35.508,M,7.0,0135*66
$PYRTM,2024,124.667060332072,15.776707742211
$GNHDT,111.612,T*2F
$PYRTM,2024,124.667066065602,15.776713475741
$GNGGA,160034.50,3524.98202159,N,12106.84825416,W,2,13,0.9,7.729,M,-35.507,M,7.4,0135*6D
$PYRTM,2024,124.667066065602,15.776713475741
$GNHDT,111.737,T*29
$PYRTM,2024,124.667071906944,15.776719317083
$GNGGA,160035.00,3524.98157071,N,12106.84689501,W,2,13,0.9,7.785,M,-35.507,M,7.0,0135*6C
$PYRTM,2024,124.667071906944,15.776719317083
$GNHDT,111.874,T*21
$PYRTM,2024,124.667077642674,15.776725052813
$GNGGA,160035.50,3524.98113256,N,12106.84552053,W,2,13,0.9,7.871,M,-35.507,M,7.4,0135*69
$PYRTM,2024,124.667077642674,15.776725052813
$GNHDT,111.996,T*2C
$PYRTM,2024,124.667083478958,15.776730889097
$GNGGA,160036.00,3524.98071062,N,12106.84413945,W,2,13,0.9,7.954,M,-35.507,M,7.0,0135*67
$PYRTM,2024,124.667083478958,15.776730889097
$GNHDT,112.138,T*23
$PYRTM,2024,124.667089213056,15.776736623206
$GNGGA,160036.50,3524.98030165,N,12106.84276003,W,2,13,0.9,8.021,M,-35.507,M,7.4,0135*6F
$PYRTM,2024,124.667089213056,15.776736623206
$GNHDT,112.344,T*2A
$PYRTM,2024,124.667095054942,15.776742465081
$GNGGA,160037.00,3524.97990465,N,12106.84138903,W,2,13,0.9,8.070,M,-35.507,M,4.0,0135*61
$PYRTM,2024,124.667095054942,15.776742465081
$GNHDT,112.314,T*2F
$PYRTM,2024,124.667100786192,15.776748196331
$GNGGA,160037.50,3524.97950891,N,12106.84003373,W,2,13,0.9,8.060,M,-35.507,M,4.4,0135*6E
$PYRTM,2024,124.667100786192,15.776748196331
$GNHDT,112.389,T*2B
$PYRTM,2024,124.667106628727,15.776754038866
$GNGGA,160038.00,3524.97910202,N,12106.83870365,W,2,13,0.9,7.994,M,-35.507,M,5.0,0135*64
$PYRTM,2024,124.667106628727,15.776754038866
$GNHDT,112.396,T*25
$PYRTM,2024,124.667112360382,15.776759770521
$GNGGA,160038.50,3524.97867755,N,12106.83740267,W,2,13,0.9,7.885,M,-35.507,M,5.4,0135*6D
$PYRTM,2024,124.667112360382,15.776759770521
$GNHDT,112.187,T*27
$PYRTM,2024,124.667118201956,15.776765612095
$GNGGA,160039.00,3524.97824007,N,12106.83613569,W,2,13,0.9,7.733,M,-35.507,M,6.0,0135*65
$PYRTM,2024,124.667118201956,15.776765612095
$GNHDT,112.105,T*2D
$PYRTM,2024,124.667123934896,15.776771345035
$GNGGA,160039.50,3524.97779966,N,12106.83488559,W,2,13,0.9,7.581,M,-35.507,M,6.4,0135*65
$PYRTM,2024,124.667123934896,15.776771345035
$GNHDT,111.940,T*27
$PYRTM,2024,124.667129775995,15.776777186134
$GNGGA,160040.00,3524.97735439,N,12106.83364951,W,2,13,0.9,7.440,M,-35.507,M,7.0,0135*69
$PYRTM,2024,124.667129775995,15.776777186134
$GNHDT,111.713,T*2F
$PYRTM,2024,124.667135508704,15.776782918843
$GNGGA,160040.50,3524.97692217,N,12106.83241135,W,2,13,0.9,7.353,M,-35.507,M,7.4,0135*67
$PYRTM,2024,124.667135508704,15.776782918843
$GNHDT,111.701,T*2C
$PYRTM,2024,124.667141350475,15.776788760613
$GNGGA,160041.00,3524.97650301,N,12106.83115620,W,2,13,0.9,7.318,M,-35.507,M,7.0,0135*61
$PYRTM,2024,124.667141350475,15.776788760613
$GNHDT,111.840,T*26
$PYRTM,2024,124.667147083854,15.776794493993
$GNGGA,160041.50,3524.97609924,N,12106.82988790,W,2,13,0.9,7.347,M,-35.507,M,7.4,0135*6C
$PYRTM,2024,124.667147083854,15.776794493993
$GNHDT,111.840,T*26
$PYRTM,2024,124.667152924838,15.776800334977
$GNGGA,160042.00,3524.97569753,N,12106.82860232,W,2,13,0.9,7.412,M,-35.507,M,7.0,0135*68
$PYRTM,2024,124.667152924838,15.776800334977
$GNHDT,111.806,T*24
$PYRTM,2024,124.667158656725,15.776806066863
$GNGGA,160042.50,3524.97528192,N,12106.82729674,W,2,13,0.9,7.496,M,-35.507,M,7.4,0135*6F
$PYRTM,2024,124.667158656725,15.776806066863
$GNHDT,112.186,T*26
$PYRTM,2024,124.667164499120,15.776811909259
$GNGGA,160043.00,3524.97485288,N,12106.82597751,W,2,13,0.9,7.601,M,-35.507,M,4.0,0135*6F
$PYRTM,2024,124.667164499120,15.776811909259
$GNHDT,112.180,T*20
$PYRTM,2024,124.667170232824,15.776817642975
$GNGGA,160043.50,3524.97440471,N,12106.82464723,W,2,13,0.9,7.708,M,-35.507,M,4.4,0135*67
$PYRTM,2024,124.667170232824,15.776817642975
$GNHDT,112.285,T*26
$PYRTM,2024,124.667176072581,15.776823482720
$GNGGA,160044.00,3524.97394009,N,12106.82329997,W,2,13,0.9,7.799,M,-35.507,M,5.0,0135*62
$PYRTM,2024,124.667176072581,15.776823482720
$GNHDT,112.370,T*2D
$PYRTM,2024,124.667181806285,15.776829216424
$GNGGA,160044.50,3524.97346434,N,12106.82193362,W,2,13,0.9,7.867,M,-35.507,M,5.4,0135*6B
$PYRTM,2024,124.667181806285,15.776829216424
$GNHDT,112.333,T*2A
$PYRTM,2024,124.667187646505,15.776835056644
$GNGGA,160045.00,3524.97298412,N,12106.82054619,W,2,13,0.9,7.879,M,-35.507,M,6.0,0135*62
$PYRTM,2024,124.667187646505,15.776835056644
$GNHDT,112.316,T*2D
$PYRTM,2024,124.667193378773,15.776840788912
$GNGGA,160045.50,3524.97250422,N,12106.81915791,W,2,13,0.9,7.858,M,-35.506,M,6.4,0135*68
$PYRTM,2024,124.667193378773,15.776840788912
$GNHDT,112.347,T*29
$PYRTM,2024,124.667199222836,15.776846632975
$GNGGA,160046.00,3524.97203132,N,12106.81777180,W,2,13,0.9,7.825,M,-35.506,M,7.0,0135*6F
$PYRTM,2024,124.667199222836,15.776846632975
$GNHDT,112.312,T*29
$PYRTM,2024,124.667204953426,15.776852363576
$GNGGA,160046.50,3524.97157508,N,12106.81640301,W,2,13,0.9,7.799,M,-35.506,M,7.4,0135*67
$PYRTM,2024,124.667204953426,15.776852363576
$GNHDT,112.178,T*27
$PYRTM,2024,124.667210793287,15.776858203426
$GNGGA,160047.00,3524.97112707,N,12106.81504697,W,2,13,0.9,7.797,M,-35.506,M,7.0,0135*6C
$PYRTM,2024,124.667210793287,15.776858203426
$GNHDT,112.003,T*2A
$PYRTM,2024,124.667216528252,15.776863938391
$GNGGA,160047.50,3524.97068850,N,12106.81370883,W,2,13,0.9,7.815,M,-35.506,M,7.4,0135*67
$PYRTM,2024,124.667216528252,15.776863938391
$GNHDT,111.921,T*20
$PYRTM,2024,124.667222369387,15.776869779525
$GNGGA,160048.00,3524.97025579,N,12106.81238695,W,2,13,0.9,7.820,M,-35.506,M,7.0,0135*64
$PYRTM,2024,124.667222369387,15.776869779525
$GNHDT,111.985,T*2E
$PYRTM,2024,124.667228101586,15.776875511725
$GNGGA,160048.50,3524.96983057,N,12106.81107611,W,2,13,0.9,7.782,M,-35.506,M,7.4,0135*6C
$PYRTM,2024,124.667228101586,15.776875511725
$GNHDT,111.968,T*2D
$PYRTM,2024,124.667233946458,15.776881356597
$GNGGA,160049.00,3524.96940291,N,12106.80978948,W,2,13,0.9,7.721,M,-35.506,M,4.0,0135*63
$PYRTM,2024,124.667233946458,15.776881356597
$GNHDT,111.860,T*24
$PYRTM,2024,124.667239675417,15.776887085556
$GNGGA,160049.50,3524.96896934,N,12106.80852444,W,2,13,0.9,7.630,M,-35.506,M,4.4,0135*65
$PYRTM,2024,124.667239675417,15.776887085556
$GNHDT,112.119,T*20
$PYRTM,2024,124.667245515752,15.776892925891
$GNGGA,160050.00,3524.96853376,N,12106.80728132,W,2,13,0.9,7.537,M,-35.506,M,5.0,0135*6A
$PYRTM,2024,124.667245515752,15.776892925891
$GNHDT,112.254,T*2A
$PYRTM,2024,124.667251250150,15.776898660289
$GNGGA,160050.50,3524.96809367,N,12106.80605947,W,2,13,0.9,7.459,M,-35.506,M,5.4,0135*69
$PYRTM,2024,124.667251250150,15.776898660289
$GNHDT,112.304,T*2E
$PYRTM,2024,124.667257088831,15.776904498970
$GNGGA,160051.00,3524.96764362,N,12106.80484644,W,2,13,0.9,7.421,M,-35.506,M,6.0,0135*63
$PYRTM,2024,124.667257088831,15.776904498970
$GNHDT,112.373,T*2E
$PYRTM,2024,124.667262824745,15.776910234884
$GNGGA,160051.50,3524.96718571,N,12106.80363031,W,2,13,0.9,7.413,M,-35.506,M,6.4,0135*66
$PYRTM,2024,124.667262824745,15.776910234884
$GNHDT,112.220,T*29
$PYRTM,2024,124.667268666123,15.776916076273
$GNGGA,160052.00,3524.96673100,N,12106.80239604,W,2,13,0.9,7.437,M,-35.506,M,7.0,0135*63
$PYRTM,2024,124.667268666123,15.776916076273
$GNHDT,112.218,T*22
$PYRTM,2024,124.667274395752,15.776921805891
$GNGGA,160052.50,3524.96628483,N,12106.80112106,W,2,13,0.9,7.480,M,-35.506,M,7.4,0135*61
$PYRTM,2024,124.667274395752,15.776921805891
$GNHDT,112.420,T*2F
$PYRTM,2024,124.667280240440,15.776927650579
$GNGGA,160053.00,3524.96585314,N,12106.79980458,W,2,13,0.9,7.530,M,-35.506,M,7.0,0135*6D
$PYRTM,2024,124.667280240440,15.776927650579
$GNHDT,112.505,T*29
$PYRTM,2024,124.667285970139,15.776933380278
$GNGGA,160053.50,3524.96543678,N,12106.79845958,W,2,13,0.9,7.587,M,-35.506,M,7.4,0135*60
$PYRTM,2024,124.667285970139,15.776933380278
$GNHDT,112.397,T*24
$PYRTM,2024,124.667291811551,15.776939221690
$GNGGA,160054.00,3524.96502951,N,12106.79709593,W,2,13,0.9,7.671,M,-35.506,M,7.0,0135*61
$PYRTM,2024,124.667291811551,15.776939221690
$GNHDT,112.352,T*2D
$PYRTM,2024,124.667297545694,15.776944955833
$GNGGA,160054.50,3524.96462204,N,12106.79572782,W,2,13,0.9,7.762,M,-35.506,M,7.4,0135*63
$PYRTM,2024,124.667297545694,15.776944955833
$GNHDT,112.501,T*2D
$PYRTM,2024,124.667303387569,15.776950797708
$GNGGA,160055.00,3524.96419692,N,12106.79436345,W,2,13,0.9,7.885,M,-35.505,M,4.0,0135*6C
$PYRTM,2024,124.667303387569,15.776950797708
$GNHDT,112.517,T*2A
$PYRTM,2024,124.667309118044,15.776956528183
$GNGGA,160055.50,3524.96374667,N,12106.79299784,W,2,13,0.9,7.988,M,-35.505,M,4.4,0135*6D
$PYRTM,2024,124.667309118044,15.776956528183
$GNHDT,112.353,T*2C
$PYRTM,2024,124.667314961516,15.776962371667
$GNGGA,160056.00,3524.96327123,N,12106.79161468,W,2,13,0.9,8.037,M,-35.505,M,5.0,0135*68
$PYRTM,2024,124.667314961516,15.776962371667
$GNHDT,112.069,T*26
$PYRTM,2024,124.667320691794,15.776968101933
$GNGGA,160056.50,3524.96278239,N,12106.79022438,W,2,13,0.9,8.024,M,-35.505,M,5.4,0135*6B
$PYRTM,2024,124.667320691794,15.776968101933
$GNHDT,112.031,T*2B
$PYRTM,2024,124.667326536736,15.776973946875
$GNGGA,160057.00,3524.96229163,N,12106.78883929,W,2,13,0.9,7.967,M,-35.505,M,6.0,0135*6E
$PYRTM,2024,124.667326536736,15.776973946875
$GNHDT,111.995,T*2F
$PYRTM,2024,124.667332267859,15.776979677998
$GNGGA,160057.50,3524.96181363,N,12106.78746084,W,2,13,0.9,7.871,M,-35.505,M,6.4,0135*62
$PYRTM,2024,124.667332267859,15.776979677998
$GNHDT,111.922,T*23
$PYRTM,2024,124.667338109016,15.776985519155
$GNGGA,160058.00,3524.96134570,N,12106.78609571,W,2,13,0.9,7.763,M,-35.505,M,7.0,0135*6E
$PYRTM,2024,124.667338109016,15.776985519155
$GNHDT,111.922,T*23
$PYRTM,2024,124.667343840463,15.776991250602
$GNGGA,160058.50,3524.96089438,N,12106.78474811,W,2,13,0.9,7.664,M,-35.505,M,7.4,0135*60
$PYRTM,2024,124.667343840463,15.776991250602
$GNHDT,111.988,T*23
$PYRTM,2024,124.667349685694,15.776997095833
$GNGGA,160059.00,3524.96045569,N,12106.78341677,W,2,13,0.9,7.582,M,-35.505,M,7.0,0135*61
$PYRTM,2024,124.667349685694,15.776997095833
$GNHDT,112.156,T*2B
$PYRTM,2024,124.667355414954,15.777002825093
$GNGGA,160059.50,3524.96001732,N,12106.78211527,W,2,13,0.9,7.519,M,-35.505,M,7.4,0135*6C
$PYRTM,2024,124.667355414954,15.777002825093
$GNHDT,111.941,T*26
$PYRTM,2024,124.667361256678,15.777008666817
$GNGGA,160100.00,3524.95957548,N,12106.78084372,W,2,13,0.9,7.480,M,-35.505,M,7.0,0135*6F
$PYRTM,2024,124.667361256678,15.777008666817
$GNHDT,111.936,T*26
$PYRTM,2024,124.667366993600,15.777014403738
$GNGGA,160100.50,3524.95913253,N,12106.77959875,W,2,13,0.9,7.476,M,-35.505,M,7.4,0135*60
$PYRTM,2024,124.667366993600,15.777014403738
$GNHDT,112.022,T*29
$PYRTM,2024,124.667372830208,15.777020240359
$GNGGA,160101.00,3524.95869270,N,12106.77836926,W,2,13,0.9,7.501,M,-35.505,M,4.0,0135*60
$PYRTM,2024,124.667372830208,15.777020240359
$GNHDT,111.992,T*28
$PYRTM,2024,124.667378562199,15.777025972326
$GNGGA,160101.50,3524.95825148,N,12106.77713990,W,2,13,0.9,7.536,M,-35.505,M,4.4,0135*60
$PYRTM,2024,124.667378562199,15.777025972326
$GNHDT,112.124,T*2E
$PYRTM,2024,124.667384406655,15.777031816794
$GNGGA,160102.00,3524.95780815,N,12106.77590824,W,2,13,0.9,7.560,M,-35.505,M,5.0,0135*66
$PYRTM,2024,124.667384406655,15.777031816794
$GNHDT,112.417,T*2B
$PYRTM,2024,124.667390137824,15.777037547963
$GNGGA,160102.50,3524.95736258,N,12106.77466815,W,2,13,0.9,7.557,M,-35.505,M,5.4,0135*67
$PYRTM,2024,124.667390137824,15.777037547963
$GNHDT,112.305,T*2F
$PYRTM,2024,124.667395979363,15.777043389502
$GNGGA,160103.00,3524.95691136,N,12106.77342021,W,2,13,0.9,7.540,M,-35.505,M,6.0,0135*6B
$PYRTM,2024,124.667395979363,15.777043389502
$GNHDT,112.468,T*23
$PYRTM,2024,124.667401713565,15.777049123704
$GNGGA,160103.50,3524.95645749,N,12106.77216110,W,2,13,0.9,7.525,M,-35.505,M,6.4,0135*6D
$PYRTM,2024,124.667401713565,15.777049123704
$GNHDT,112.784,T*22
$PYRTM,2024,124.667407557847,15.777054967986
$GNGGA,160104.00,3524.95600654,N,12106.77088672,W,2,13,0.9,7.522,M,-35.505,M,7.0,0135*67
$PYRTM,2024,124.667407557847,15.777054967986
$GNHDT,112.956,T*23
$PYRTM,2024,124.667413285428,15.777060695567
$GNGGA,160104.50,3524.95555495,N,12106.76959235,W,2,13,0.9,7.542,M,-35.505,M,7.4,0135*6F
$PYRTM,2024,124.667413285428,15.777060695567
$GNHDT,113.138,T*22
$PYRTM,2024,124.667419128600,15.777066538738
$GNGGA,160105.00,3524.95510236,N,12106.76827302,W,2,13,0.9,7.597,M,-35.505,M,7.0,0135*64
$PYRTM,2024,124.667419128600,15.777066538738
$GNHDT,113.246,T*28
$PYRTM,2024,124.667424860764,15.777072270903
$GNGGA,160105.50,3524.95465516,N,12106.76692672,W,2,13,0.9,7.695,M,-35.505,M,7.4,0135*60
$PYRTM,2024,124.667424860764,15.777072270903
$GNHDT,113.329,T*20
$PYRTM,2024,124.667430702257,15.777078112396
$GNGGA,160106.00,3524.95421435,N,12106.76554930,W,2,13,0.9,7.817,M,-35.504,M,7.0,0135*67
$PYRTM,2024,124.667430702257,15.777078112396
$GNHDT,113.265,T*29
$PYRTM,2024,124.667436435127,15.777083845266
$GNGGA,160106.50,3524.95377640,N,12106.76414655,W,2,13,0.9,7.932,M,-35.504,M,7.4,0135*6D
$PYRTM,2024,124.667436435127,15.777083845266
$GNHDT,112.992,T*2B
$PYRTM,2024,124.667442275289,15.777089685428
$GNGGA,160107.00,3524.95333759,N,12106.76272561,W,2,13,0.9,8.008,M,-35.504,M,4.0,0135*6A
$PYRTM,2024,124.667442275289,15.777089685428
$GNHDT,112.577,T*2C
$PYRTM,2024,124.667448009248,15.777095419387
$GNGGA,160107.50,3524.95289142,N,12106.76130265,W,2,13,0.9,8.028,M,-35.504,M,4.4,0135*63
$PYRTM,2024,124.667448009248,15.777095419387
$GNHDT,112.264,T*29
$PYRTM,2024,124.667453851736,15.777101261875
$GNGGA,160108.00,3524.95243032,N,12106.75988691,W,2,13,0.9,7.975,M,-35.504,M,5.0,0135*65
$PYRTM,2024,124.667453851736,15.777101261875
$GNHDT,111.820,T*20
$PYRTM,2024,124.667459583148,15.777106993299
$GNGGA,160108.50,3524.95195650,N,12106.75849110,W,2,13,0.9,7.857,M,-35.504,M,5.4,0135*6D
$PYRTM,2024,124.667459583148,15.777106993299
$GNHDT,111.424,T*28
$PYRTM,2024,124.667465429711,15.777112839850
$GNGGA,160109.00,3524.95146563,N,12106.75712475,W,2,13,0.9,7.700,M,-35.504,M,6.0,0135*69
$PYRTM,2024,124.667465429711,15.777112839850
$GNHDT,111.158,T*26
$PYRTM,2024,124.667471158843,15.777118568981
$GNGGA,160109.50,3524.95097227,N,12106.75579196,W,2,13,0.9,7.562,M,-35.504,M,6.4,0135*63
$PYRTM,2024,124.667471158843,15.777118568981
$GNHDT,110.916,T*25
$PYRTM,2024,124.667476996493,15.777124406632
$GNGGA,160110.00,3524.95048065,N,12106.75449753,W,2,13,0.9,7.482,M,-35.504,M,7.0,0135*6F
$PYRTM,2024,124.667476996493,15.777124406632
$GNHDT,111.016,T*2D
$PYRTM,2024,124.667482734757,15.777130144896
$GNGGA,160110.50,3524.95000626,N,12106.75322822,W,2,13,0.9,7.475,M,-35.504,M,7.4,0135*68
$PYRTM,2024,124.667482734757,15.777130144896
$GNHDT,111.193,T*21
$PYRTM,2024,124.667488572234,15.777135982373
$GNGGA,160111.00,3524.94955184,N,12106.75197863,W,2,13,0.9,7.535,M,-35.504,M,7.0,0135*63
$PYRTM,2024,124.667488572234,15.777135982373
$GNHDT,111.499,T*2E
$PYRTM,2024,124.667494306713,15.777141716852
$GNGGA,160111.50,3524.94911856,N,12106.75073530,W,2,13,0.9,7.601,M,-35.504,M,7.4,0135*60
$PYRTM,2024,124.667494306713,15.777141716852
$GNHDT,111.920,T*21
$PYRTM,2024,124.667500154039,15.777147564178
$GNGGA,160112.00,3524.94869279,N,12106.74949150,W,2,13,0.9,7.655,M,-35.504,M,7.0,0135*69
$PYRTM,2024,124.667500154039,15.777147564178
$GNHDT,112.561,T*2B
$PYRTM,2024,124.667505878796,15.777153288935
$GNGGA,160112.50,3524.94825681,N,12106.74824577,W,2,13,0.9,7.635,M,-35.504,M,7.4,0135*6E
$PYRTM,2024,124.667505878796,15.777153288935
$GNHDT,113.125,T*2E
$PYRTM,2024,124.667511718958,15.777159129097
$GNGGA,160113.00,3524.94780769,N,12106.74701027,W,2,13,0.9,7.536,M,-35.504,M,4.0,0135*62
$PYRTM,2024,124.667511718958,15.777159129097
$GNHDT,113.476,T*2D
$PYRTM,2024,124.667517453322,15.777164863461
$GNGGA,160113.50,3524.94734410,N,12106.74578442,W,2,13,0.9,7.409,M,-35.504,M,4.4,0135*67
$PYRTM,2024,124.667517453322,15.777164863461
$GNHDT,114.041,T*2A
$PYRTM,2024,124.667523294086,15.777170704236
$GNGGA,160114.00,3524.94687197,N,12106.74456672,W,2,13,0.9,7.298,M,-35.504,M,5.0,0135*61
$PYRTM,2024,124.667523294086,15.777170704236
$GNHDT,114.239,T*27
$PYRTM,2024,124.667529026505,15.777176436644
$GNGGA,160114.50,3524.94641054,N,12106.74333396,W,2,13,0.9,7.241,M,-35.504,M,5.4,0135*6B
$PYRTM,2024,124.667529026505,15.777176436644
$GNHDT,114.072,T*2A
$PYRTM,2024,124.667534869294,15.777182279433
$GNGGA,160115.00,3524.94596109,N,12106.74206574,W,2,13,0.9,7.264,M,-35.504,M,6.0,0135*62
$PYRTM,2024,124.667534869294,15.777182279433
$GNHDT,113.843,T*27
$PYRTM,2024,124.667540607812,15.777188017951
$GNGGA,160115.50,3524.94553126,N,12106.74075227,W,2,13,0.9,7.373,M,-35.504,M,6.4,0135*67
$PYRTM,2024,124.667540607812,15.777188017951
$GNHDT,113.798,T*2E
$PYRTM,2024,124.667546443218,15.777193853356
$GNGGA,160116.00,3524.94511999,N,12106.73938952,W,2,13,0.9,7.549,M,-35.504,M,7.0,0135*6F
$PYRTM,2024,124.667546443218,15.777193853356
$GNHDT,113.487,T*23
$PYRTM,2024,124.667552179375,15.777199589514
$GNGGA,160116.50,3524.94472120,N,12106.73798984,W,2,13,0.9,7.735,M,-35.504,M,7.4,0135*66
$PYRTM,2024,124.667552179375,15.777199589514
$GNHDT,113.004,T*2C
$PYRTM,2024,124.667558021238,15.777205431377
$GNGGA,160117.00,3524.94432363,N,12106.73657262,W,2,13,0.9,7.919,M,-35.503,M,7.0,0135*61
$PYRTM,2024,124.667558021238,15.777205431377
$GNHDT,112.354,T*2B
$PYRTM,2024,124.667563753657,15.777211163796
$GNGGA,160117.50,3524.94390514,N,12106.73516324,W,2,13,0.9,8.072,M,-35.503,M,7.4,0135*67
$PYRTM,2024,124.667563753657,15.777211163796
$GNHDT,112.069,T*26
$PYRTM,2024,124.667569592373,15.777217002523
$GNGGA,160118.00,3524.94345417,N,12106.73376936,W,2,13,0.9,8.180,M,-35.503,M,7.0,0135*66
$PYRTM,2024,124.667569592373,15.777217002523
$GNHDT,111.814,T*27
$PYRTM,2024,124.667575322708,15.777222732847
$GNGGA,160118.50,3524.94296938,N,12106.73239789,W,2,13,0.9,8.222,M,-35.503,M,7.4,0135*63
$PYRTM,2024,124.667575322708,15.777222732847
$GNHDT,111.332,T*28
$PYRTM,2024,124.667581166551,15.777228576690
$GNGGA,160119.00,3524.94244528,N,12106.73104007,W,2,13,0.9,8.198,M,-35.503,M,4.0,0135*6C
$PYRTM,2024,124.667581166551,15.777228576690
$GNHDT,110.918,T*2B
$PYRTM,2024,124.667586898889,15.777234309028
$GNGGA,160119.50,3524.94190326,N,12106.72970225,W,2,13,0.9,8.115,M,-35.503,M,4.4,0135*62
$PYRTM,2024,124.667586898889,15.777234309028
$GNHDT,111.287,T*27
$PYRTM,2024,124.667592740012,15.777240150150
$GNGGA,160120.00,3524.94135821,N,12106.72837168,W,2,13,0.9,7.989,M,-35.503,M,5.0,0135*61
$PYRTM,2024,124.667592740012,15.777240150150
$GNHDT,111.453,T*28
$PYRTM,2024,124.667598471435,15.777245881574
$GNGGA,160120.50,3524.94083601,N,12106.72704614,W,2,13,0.9,7.870,M,-35.503,M,5.4,0135*64
$PYRTM,2024,124.667598471435,15.777245881574
$GNHDT,111.915,T*27
$PYRTM,2024,124.667604314988,15.777251725127
$GNGGA,160121.00,3524.94035173,N,12106.72574087,W,2,13,0.9,7.755,M,-35.503,M,6.0,0135*69
$PYRTM,2024,124.667604314988,15.777251725127
$GNHDT,112.167,T*29
$PYRTM,2024,124.667610045914,15.777257456065
$GNGGA,160121.50,3524.93990633,N,12106.72444303,W,2,13,0.9,7.691,M,-35.503,M,6.4,0135*6E
$PYRTM,2024,124.667610045914,15.777257456065
$GNHDT,112.760,T*28
$PYRTM,2024,124.667615887176,15.777263297315
$GNGGA,160122.00,3524.93950030,N,12106.72316608,W,2,13,0.9,7.665,M,-35.503,M,7.0,0135*61
$PYRTM,2024,124.667615887176,15.777263297315
$GNHDT,113.099,T*28
$PYRTM,2024,124.667621619826,15.777269029965
$GNGGA,160122.50,3524.93910841,N,12106.72189632,W,2,13,0.9,7.663,M,-35.503,M,7.4,0135*61
$PYRTM,2024,124.667621619826,15.777269029965
$GNHDT,113.439,T*26
$PYRTM,2024,124.667627461921,15.777274872060
$GNGGA,160123.00,3524.93871373,N,12106.72064334,W,2,13,0.9,7.659,M,-35.503,M,7.0,0135*65
$PYRTM,2024,124.667627461921,15.777274872060
$GNHDT,113.650,T*2B
$PYRTM,2024,124.667633193854,15.777280603993
$GNGGA,160123.50,3524.93829601,N,12106.71940680,W,2,13,0.9,7.619,M,-35.503,M,7.4,0135*6B
$PYRTM,2024,124.667633193854,15.777280603993
$GNHDT,113.762,T*2B
$PYRTM,2024,124.667639036296,15.777286446435
$GNGGA,160124.00,3524.93784442,N,12106.71818379,W,2,13,0.9,7.545,M,-35.503,M,7.0,0135*65
$PYRTM,2024,124.667639036296,15.777286446435
$GNHDT,113.858,T*2D
$PYRTM,2024,124.667644770440,15.777292180579
$GNGGA,160124.50,3524.93736376,N,12106.71695745,W,2,13,0.9,7.439,M,-35.503,M,7.4,0135*67
$PYRTM,2024,124.667644770440,15.777292180579
$GNHDT,113.751,T*2B
$PYRTM,2024,124.667650608738,15.777298018877
$GNGGA,160125.00,3524.93686475,N,12106.71571896,W,2,13,0.9,7.318,M,-35.503,M,4.0,0135*66
$PYRTM,2024,124.667650608738,15.777298018877
$GNHDT,113.416,T*2B
$PYRTM,2024,124.667656343530,15.777303753669
$GNGGA,160125.50,3524.93636418,N,12106.71446386,W,2,13,0.9,7.237,M,-35.503,M,4.4,0135*64
$PYRTM,2024,124.667656343530,15.777303753669
$GNHDT,113.604,T*2A
$PYRTM,2024,124.667662183854,15.777309593993
$GNGGA,160126.00,3524.93587803,N,12106.71318167,W,2,13,0.9,7.229,M,-35.503,M,5.0,0135*66
$PYRTM,2024,124.667662183854,15.777309593993
$GNHDT,113.287,T*25
$PYRTM,2024,124.667667915405,15.777315325556
$GNGGA,160126.50,3524.93541512,N,12106.71186545,W,2,13,0.9,7.306,M,-35.503,M,5.4,0135*6D
$PYRTM,2024,124.667667915405,15.777315325556
$GNHDT,113.169,T*26
$PYRTM,2024,124.667673759016,15.777321169155
$GNGGA,160127.00,3524.93496938,N,12106.71051711,W,2,13,0.9,7.473,M,-35.503,M,6.0,0135*6C
$PYRTM,2024,124.667673759016,15.777321169155
$GNHDT,113.226,T*2E
$PYRTM,2024,124.667679490613,15.777326900764
$GNGGA,160127.50,3524.93452669,N,12106.70914601,W,2,13,0.9,7.673,M,-35.503,M,6.4,0135*65
$PYRTM,2024,124.667679490613,15.777326900764
$GNHDT,112.956,T*23
$PYRTM,2024,124.667685338449,15.777332748588
$GNGGA,160128.00,3524.93407202,N,12106.70776312,W,2,13,0.9,7.872,M,-35.503,M,7.0,0135*61
$PYRTM,2024,124.667685338449,15.777332748588
$GNHDT,112.850,T*24
$PYRTM,2024,124.667691065475,15.777338475625
$GNGGA,160128.50,3524.93359895,N,12106.70638355,W,2,13,0.9,8.027,M,-35.502,M,7.4,0135*66
$PYRTM,2024,124.667691065475,15.777338475625
$GNHDT,112.818,T*28
$PYRTM,2024,124.667696909502,15.777344319641
$GNGGA,160129.00,3524.93310848,N,12106.70501695,W,2,13,0.9,8.151,M,-35.502,M,7.0,0135*6B
$PYRTM,2024,124.667696909502,15.777344319641
$GNHDT,112.740,T*2A
$PYRTM,2024,124.667702639815,15.777350049954
$GNGGA,160129.50,3524.93260384,N,12106.70367419,W,2,13,0.9,8.224,M,-35.502,M,7.4,0135*66
$PYRTM,2024,124.667702639815,15.777350049954
$GNHDT,112.663,T*2A
$PYRTM,2024,124.667708480394,15.777355890532
$GNGGA,160130.00,3524.93209006,N,12106.70234870,W,2,13,0.9,8.255,M,-35.502,M,7.0,0135*6B
$PYRTM,2024,124.667708480394,15.777355890532
$GNHDT,112.799,T*2E
$PYRTM,2024,124.667714212558,15.777361622697
$GNGGA,160130.50,3524.93158302,N,12106.70103830,W,2,13,0.9,8.215,M,-35.502,M,7.4,0135*6D
$PYRTM,2024,124.667714212558,15.777361622697
$GNHDT,112.892,T*2A
$PYRTM,2024,124.667720055058,15.777367465197
$GNGGA,160131.00,3524.93109215,N,12106.69973563,W,2,13,0.9,8.102,M,-35.502,M,4.0,0135*64
$PYRTM,2024,124.667720055058,15.777367465197
$GNHDT,112.926,T*24
$PYRTM,2024,124.667725787928,15.777373198067
$GNGGA,160131.50,3524.93063119,N,12106.69842977,W,2,13,0.9,7.961,M,-35.502,M,4.4,0135*6F
$PYRTM,2024,124.667725787928,15.777373198067
$GNHDT,113.081,T*21
$PYRTM,2024,124.667731629942,15.777379040093
$GNGGA,160132.00,3524.93019599,N,12106.69713136,W,2,13,0.9,7.822,M,-35.502,M,5.0,0135*6D
$PYRTM,2024,124.667731629942,15.777379040093
$GNHDT,112.968,T*2E
$PYRTM,2024,124.667737362940,15.777384773079
$GNGGA,160132.50,3524.92978753,N,12106.69585361,W,2,13,0.9,7.718,M,-35.502,M,5.4,0135*6C
$PYRTM,2024,124.667737362940,15.777384773079
$GNHDT,112.948,T*2C
$PYRTM,2024,124.667743203889,15.777390614028
$GNGGA,160133.00,3524.92939724,N,12106.69459775,W,2,13,0.9,7.664,M,-35.502,M,6.0,0135*61
$PYRTM,2024,124.667743203889,15.777390614028
$GNHDT,112.903,T*23
$PYRTM,2024,124.667748936262,15.777396346400
$GNGGA,160133.50,3524.92900994,N,12106.69335680,W,2,13,0.9,7.667,M,-35.502,M,6.4,0135*6A
$PYRTM,2024,124.667748936262,15.777396346400
$GNHDT,112.843,T*26
$PYRTM,2024,124.667754777627,15.777402187766
$GNGGA,160134.00,3524.92860322,N,12106.69211589,W,2,13,0.9,7.682,M,-35.502,M,7.0,0135*6B
$PYRTM,2024,124.667754777627,15.777402187766
$GNHDT,112.796,T*21
$PYRTM,2024,124.667760508426,15.777407918565
$GNGGA,160134.50,3524.92817187,N,12106.69086804,W,2,13,0.9,7.674,M,-35.502,M,7.4,0135*6A
$PYRTM,2024,124.667760508426,15.777407918565
$GNHDT,112.933,T*20
$PYRTM,2024,124.667766349931,15.777413760069
$GNGGA,160135.00,3524.92772019,N,12106.68960664,W,2,13,0.9,7.633,M,-35.502,M,7.0,0135*6B
$PYRTM,2024,124.667766349931,15.777413760069
$GNHDT,113.016,T*2F
$PYRTM,2024,124.667772083368,15.777419493519
$GNGGA,160135.50,3524.92726219,N,12106.68833307,W,2,13,0.9,7.597,M,-35.502,M,7.4,0135*63
$PYRTM,2024,124.667772083368,15.777419493519
$GNHDT,112.750,T*2B
$PYRTM,2024,124.667777926898,15.777425337037
$GNGGA,160136.00,3524.92680212,N,12106.68705196,W,2,13,0.9,7.578,M,-35.502,M,7.0,0135*66
$PYRTM,2024,124.667777926898,15.777425337037
$GNHDT,112.776,T*2F
$PYRTM,2024,124.667783656713,15.777431066852
$GNGGA,160136.50,3524.92634326,N,12106.68575749,W,2,13,0.9,7.605,M,-35.502,M,7.4,0135*66
$PYRTM,2024,124.667783656713,15.777431066852
$GNHDT,112.471,T*2B
$PYRTM,2024,124.667789500868,15.777436911007
$GNGGA,160137.00,3524.92588396,N,12106.68443910,W,2,13,0.9,7.653,M,-35.502,M,4.0,0135*6F
$PYRTM,2024,124.667789500868,15.777436911007
$GNHDT,112.163,T*2D
$PYRTM,2024,124.667795230150,15.777442640289
$GNGGA,160137.50,3524.92542066,N,12106.68309709,W,2,13,0.9,7.706,M,-35.501,M,4.4,0135*69
$PYRTM,2024,124.667795230150,15.777442640289
$GNHDT,112.249,T*26
$PYRTM,2024,124.667801080382,15.777448490521
$GNGGA,160138.00,3524.92494771,N,12106.68172670,W,2,13,0.9,7.728,M,-35.501,M,5.0,0135*60
$PYRTM,2024,124.667801080382,15.777448490521
$GNHDT,112.042,T*2F
$PYRTM,2024,124.667806806146,15.777454216285
$GNGGA,160138.50,3524.92447095,N,12106.68033807,W,2,13,0.9,7.708,M,-35.501,M,5.4,0135*6A
$PYRTM,2024,124.667806806146,15.777454216285
$GNHDT,111.659,T*20
$PYRTM,2024,124.667812647546,15.777460057685
$GNGGA,160139.00,3524.92398791,N,12106.67894469,W,2,13,0.9,7.670,M,-35.501,M,6.0,0135*6F
$PYRTM,2024,124.667812647546,15.777460057685
$GNHDT,111.464,T*2C
$PYRTM,2024,124.667818381042,15.777465791181
$GNGGA,160139.50,3524.92350364,N,12106.67755890,W,2,13,0.9,7.641,M,-35.501,M,6.4,0135*6E
$PYRTM,2024,124.667818381042,15.777465791181
$GNHDT,111.547,T*2C
$PYRTM,2024,124.667824222882,15.777471633021
$GNGGA,160140.00,3524.92302131,N,12106.67619076,W,2,13,0.9,7.653,M,-35.501,M,7.0,0135*6F
$PYRTM,2024,124.667824222882,15.777471633021
$GNHDT,111.400,T*2E
$PYRTM,2024,124.667829953762,15.777477363912
$GNGGA,160140.50,3524.92254923,N,12106.67484531,W,2,13,0.9,7.717,M,-35.501,M,7.4,0135*66
$PYRTM,2024,124.667829953762,15.777477363912
$GNHDT,111.231,T*2A
$PYRTM,2024,124.667835795926,15.777483206065
$GNGGA,160141.00,3524.92208975,N,12106.67352221,W,2,13,0.9,7.833,M,-35.501,M,7.0,0135*6F
$PYRTM,2024,124.667835795926,15.777483206065
$GNHDT,111.036,T*2F
$PYRTM,2024,124.667841527697,15.777488937836
$GNGGA,160141.50,3524.92164254,N,12106.67220518,W,2,13,0.9,7.937,M,-35.501,M,7.4,0135*63
$PYRTM,2024,124.667841527697,15.777488937836
$GNHDT,110.894,T*2E
$PYRTM,2024,124.667847371910,15.777494782060
$GNGGA,160142.00,3524.92120724,N,12106.67089686,W,2,13,0.9,8.011,M,-35.501,M,7.0,0135*64
$PYRTM,2024,124.667847371910,15.777494782060
$GNHDT,110.765,T*2F
$PYRTM,2024,124.667853103808,15.777500513947
$GNGGA,160142.50,3524.92078178,N,12106.66959911,W,2,13,0.9,8.022,M,-35.501,M,7.4,0135*62
$PYRTM,2024,124.667853103808,15.777500513947
$GNHDT,110.608,T*25
$PYRTM,2024,124.667858944722,15.777506354873
$GNGGA,160143.00,3524.92036132,N,12106.66831296,W,2,13,0.9,7.955,M,-35.501,M,4.0,0135*68
$PYRTM,2024,124.667858944722,15.777506354873
$GNHDT,110.596,T*21
$PYRTM,2024,124.667864676308,15.777512086458
$GNGGA,160143.50,3524.91993973,N,12106.66703623,W,2,13,0.9,7.834,M,-35.501,M,4.4,0135*63
$PYRTM,2024,124.667864676308,15.777512086458
$GNHDT,110.697,T*23
$PYRTM,2024,124.667870517743,15.777517927882
$GNGGA,160144.00,3524.91950801,N,12106.66576696,W,2,13,0.9,7.692,M,-35.501,M,5.0,0135*63
$PYRTM,2024,124.667870517743,15.777517927882
$GNHDT,110.709,T*25
$PYRTM,2024,124.667876250023,15.777523660162
$GNGGA,160144.50,3524.91908766,N,12106.66450617,W,2,13,0.9,7.566,M,-35.501,M,5.4,0135*65
$PYRTM,2024,124.667876250023,15.777523660162
$GNHDT,110.700,T*2C
$PYRTM,2024,124.667882096794,15.777529506933
$GNGGA,160145.00,3524.91868427,N,12106.66325268,W,2,13,0.9,7.513,M,-35.501,M,6.0,0135*6C
$PYRTM,2024,124.667882096794,15.777529506933
$GNHDT,110.765,T*2F
$PYRTM,2024,124.667887825139,15.777535235278
$GNGGA,160145.50,3524.91830215,N,12106.66199746,W,2,13,0.9,7.522,M,-35.501,M,6.4,0135*69
$PYRTM,2024,124.667887825139,15.777535235278
$GNHDT,110.891,T*2B
$PYRTM,2024,124.667893670567,15.777541080706
$GNGGA,160146.00,3524.91792242,N,12106.66072536,W,2,13,0.9,7.558,M,-35.501,M,7.0,0135*63
$PYRTM,2024,124.667893670567,15.777541080706
$GNHDT,111.158,T*26
$PYRTM,2024,124.667899403102,15.777546813241
$GNGGA,160146.50,3524.91752816,N,12106.65943958,W,2,13,0.9,7.587,M,-35.501,M,7.4,0135*6B
$PYRTM,2024,124.667899403102,15.777546813241
$GNHDT,111.364,T*2B
$PYRTM,2024,124.667905240301,15.777552650440
$GNGGA,160147.00,3524.91711106,N,12106.65814120,W,2,13,0.9,7.586,M,-35.501,M,7.0,0135*61
$PYRTM,2024,124.667905240301,15.777552650440
$GNHDT,111.804,T*26
$PYRTM,2024,124.667910971470,15.777558381620
$GNGGA,160147.50,3524.91667411,N,12106.65683150,W,2,13,0.9,7.564,M,-35.501,M,7.4,0135*68
$PYRTM,2024,124.667910971470,15.777558381620
$GNHDT,112.038,T*22
$PYRTM,2024,124.667916815660,15.777564225799
$GNGGA,160148.00,3524.91622285,N,12106.65551579,W,2,13,0.9,7.542,M,-35.501,M,7.0,0135*6B
$PYRTM,2024,124.667916815660,15.777564225799
$GNHDT,112.126,T*2C
$PYRTM,2024,124.667922549537,15.777569959676
$GNGGA,160148.50,3524.91577358,N,12106.65419243,W,2,13,0.9,7.555,M,-35.500,M,7.4,0135*6C
$PYRTM,2024,124.667922549537,15.777569959676
$GNHDT,112.179,T*26
$PYRTM,2024,124.667928388241,15.777575798380
$GNGGA,160149.00,3524.91533023,N,12106.65285763,W,2,13,0.9,7.620,M,-35.500,M,4.0,0135*65
$PYRTM,2024,124.667928388241,15.777575798380
$GNHDT,112.300,T*2A
$PYRTM,2024,124.667934120856,15.777581531007
$GNGGA,160149.50,3524.91489412,N,12106.65150563,W,2,13,0.9,7.699,M,-35.500,M,4.4,0135*69
$PYRTM,2024,124.667934120856,15.777581531007
$GNHDT,112.204,T*2F
$PYRTM,2024,124.667939961389,15.777587371528
$GNGGA,160150.00,3524.91445958,N,12106.65013861,W,2,13,0.9,7.798,M,-35.500,M,5.0,0135*6B
$PYRTM,2024,124.667939961389,15.777587371528
$GNHDT,111.930,T*20
$PYRTM,2024,124.667945693912,15.777593104051
$GNGGA,160150.50,3524.91402702,N,12106.64876506,W,2,13,0.9,7.888,M,-35.500,M,5.4,0135*60
$PYRTM,2024,124.667945693912,15.777593104051
$GNHDT,111.703,T*2E
$PYRTM,2024,124.667951537280,15.777598947419
$GNGGA,160151.00,3524.91358590,N,12106.64739141,W,2,13,0.9,7.946,M,-35.500,M,6.0,0135*62
$PYRTM,2024,124.667951537280,15.777598947419
$GNHDT,111.332,T*28
$PYRTM,2024,124.667957268437,15.777604678576
$GNGGA,160151.50,3524.91313700,N,12106.64602660,W,2,13,0.9,7.978,M,-35.500,M,6.4,0135*67
$PYRTM,2024,124.667957268437,15.777604678576
$GNHDT,110.984,T*2E
$PYRTM,2024,124.667963109225,15.777610519375
$GNGGA,160152.00,3524.91268517,N,12106.64467857,W,2,13,0.9,7.964,M,-35.500,M,7.0,0135*6B
$PYRTM,2024,124.667963109225,15.777610519375
$GNHDT,110.585,T*23
$PYRTM,2024,124.667968845220,15.777616255370
$GNGGA,160152.50,3524.91222800,N,12106.64334804,W,2,13,0.9,7.940,M,-35.500,M,7.4,0135*6E
$PYRTM,2024,124.667968845220,15.777616255370
$GNHDT,110.549,T*23
$PYRTM,2024,124.667974685347,15.777622095486
$GNGGA,160153.00,3524.91176873,N,12106.64203607,W,2,13,0.9,7.898,M,-35.500,M,7.0,0135*64
$PYRTM,2024,124.667974685347,15.777622095486
$GNHDT,110.770,T*2B
$PYRTM,2024,124.667980417315,15.777627827454
$GNGGA,160153.50,3524.91132031,N,12106.64073459,W,2,13,0.9,7.854,M,-35.500,M,7.4,0135*67
$PYRTM,2024,124.667980417315,15.777627827454
$GNHDT,110.732,T*2D
$PYRTM,2024,124.667986261655,15.777633671794
$GNGGA,160154.00,3524.91088231,N,12106.63945405,W,2,13,0.9,7.810,M,-35.500,M,7.0,0135*61
$PYRTM,2024,124.667986261655,15.777633671794
$GNHDT,110.976,T*23
$PYRTM,2024,124.667991990046,15.777639400185
$GNGGA,160154.50,3524.91045084,N,12106.63819440,W,2,13,0.9,7.776,M,-35.500,M,7.4,0135*6B
$PYRTM,2024,124.667991990046,15.777639400185
$GNHDT,111.169,T*24
$PYRTM,2024,124.667997834757,15.777645244907
$GNGGA,160155.00,3524.91002551,N,12106.63695339,W,2,13,0.9,7.743,M,-35.500,M,4.0,0135*63
$PYRTM,2024,124.667997834757,15.777645244907
$GNHDT,111.488,T*2E
$PYRTM,2024,124.668003562824,15.777650972975
$GNGGA,160155.50,3524.90960478,N,12106.63571898,W,2,13,0.9,7.688,M,-35.500,M,4.4,0135*6B
$PYRTM,2024,124.668003562824,15.777650972975
$GNHDT,111.830,T*21
$PYRTM,2024,124.668009405440,15.777656815579
$GNGGA,160156.00,3524.90918502,N,12106.63448971,W,2,13,0.9,7.620,M,-35.500,M,5.0,0135*64
$PYRTM,2024,124.668009405440,15.777656815579
$GNHDT,111.905,T*26
$PYRTM,2024,124.668015139687,15.777662549826
$GNGGA,160156.50,3524.90876885,N,12106.63325448,W,2,13,0.9,7.539,M,-35.500,M,5.4,0135*6E
$PYRTM,2024,124.668015139687,15.777662549826
$GNHDT,112.032,T*28
$PYRTM,2024,124.668020982222,15.777668392361
$GNGGA,160157.00,3524.90835820,N,12106.63200260,W,2,13,0.9,7.460,M,-35.500,M,6.0,0135*62
$PYRTM,2024,124.668020982222,15.777668392361
$GNHDT,112.240,T*2F
$PYRTM,2024,124.668026712801,15.777674122940
$GNGGA,160157.50,3524.90795703,N,12106.63073591,W,2,13,0.9,7.404,M,-35.500,M,6.4,0135*65
$PYRTM,2024,124.668026712801,15.777674122940
$GNHDT,112.236,T*2E
$PYRTM,2024,124.668032556412,15.777679966551
$GNGGA,160158.00,3524.90755457,N,12106.62944754,W,2,13,0.9,7.396,M,-35.500,M,7.0,0135*6F
$PYRTM,2024,124.668032556412,15.777679966551
$GNHDT,112.384,T*26
$PYRTM,2024,124.668038285810,15.777685695949
$GNGGA,160158.50,3524.90714561,N,12106.62814746,W,2,13,0.9,7.428,M,-35.500,M,7.4,0135*6A
$PYRTM,2024,124.668038285810,15.777685695949
$GNHDT,112.409,T*24
$PYRTM,2024,124.668044129618,15.777691539757
$GNGGA,160159.00,3524.90672701,N,12106.62682741,W,2,13,0.9,7.509,M,-35.500,M,7.0,0135*6B
$PYRTM,2024,124.668044129618,15.777691539757
$GNHDT,112.306,T*2C
$PYRTM,2024,124.668049861470,15.777697271609
$GNGGA,160159.50,3524.90629594,N,12106.62548964,W,2,13,0.9,7.617,M,-35.500,M,7.4,0135*6A
$PYRTM,2024,124.668049861470,15.777697271609
$GNHDT,112.220,T*29
$PYRTM,2024,124.668055702940,15.777703113079
$GNGGA,160200.00,3524.90585095,N,12106.62413285,W,2,13,0.9,7.746,M,-35.499,M,7.0,0135*6A
$PYRTM,2024,124.668055702940,15.777703113079
$GNHDT,112.268,T*25
$PYRTM,2024,124.668061435255,15.777708845394
$GNGGA,160200.50,3524.90538913,N,12106.62276051,W,2,13,0.9,7.876,M,-35.499,M,7.4,0135*68
$PYRTM,2024,124.668061435255,15.777708845394
$GNHDT,112.259,T*27
$PYRTM,2024,124.668067277407,15.777714687546
$GNGGA,160201.00,3524.90491109,N,12106.62137212,W,2,13,0.9,7.984,M,-35.499,M,4.0,0135*65
$PYRTM,2024,124.668067277407,15.777714687546
$GNHDT,112.134,T*2F
$PYRTM,2024,124.668073008090,15.777720418229
$GNGGA,160201.50,3524.90442579,N,12106.61997498,W,2,13,0.9,8.055,M,-35.499,M,4.4,0135*66
$PYRTM,2024,124.668073008090,15.777720418229
$GNHDT,111.926,T*27
$PYRTM,2024,124.668078856134,15.777726266273
$GNGGA,160202.00,3524.90393921,N,12106.61857985,W,2,13,0.9,8.096,M,-35.499,M,5.0,0135*6C
$PYRTM,2024,124.668078856134,15.777726266273
$GNHDT,111.839,T*28
$PYRTM,2024,124.668084584491,15.777731994630
$GNGGA,160202.50,3524.90346189,N,12106.61719023,W,2,13,0.9,8.094,M,-35.499,M,5.4,0135*6D
$PYRTM,2024,124.668084584491,15.777731994630
$GNHDT,111.710,T*2C
$PYRTM,2024,124.668090424340,15.777737834479
$GNGGA,160203.00,3524.90299684,N,12106.61581829,W,2,13,0.9,8.066,M,-35.499,M,6.0,0135*6B
$PYRTM,2024,124.668090424340,15.777737834479
$GNHDT,111.537,T*2B
$PYRTM,2024,124.668096157442,15.777743567581
$GNGGA,160203.50,3524.90254223,N,12106.61447433,W,2,13,0.9,8.013,M,-35.499,M,6.4,0135*6C
$PYRTM,2024,124.668096157442,15.777743567581
$GNHDT,111.507,T*28
$PYRTM,2024,124.668101998796,15.777749408935
$GNGGA,160204.00,3524.90209519,N,12106.61315990,W,2,13,0.9,7.928,M,-35.499,M,7.0,0135*67
$PYRTM,2024,124.668101998796,15.777749408935
$GNHDT,111.606,T*2A
$PYRTM,2024,124.668107729664,15.777755139803
$GNGGA,160204.50,3524.90165405,N,12106.61187573,W,2,13,0.9,7.823,M,-35.499,M,7.4,0135*61
$PYRTM,2024,124.668107729664,15.777755139803
$GNHDT,111.592,T*24
$PYRTM,2024,124.668113573345,15.777760983484
$GNGGA,160205.00,3524.90121278,N,12106.61062636,W,2,13,0.9,7.701,M,-35.499,M,7.0,0135*6A
$PYRTM,2024,124.668113573345,15.777760983484
$GNHDT,111.536,T*2A
$PYRTM,2024,124.668119306273,15.777766716412
$GNGGA,160205.50,3524.90077854,N,12106.60939710,W,2,13,0.9,7.559,M,-35.499,M,7.4,0135*61
$PYRTM,2024,124.668119306273,15.777766716412
$GNHDT,111.551,T*2B
$PYRTM,2024,124.668125146481,15.777772556620
$GNGGA,160206.00,3524.90035125,N,12106.60819385,W,2,13,0.9,7.431,M,-35.499,M,7.0,0135*6E
$PYRTM,2024,124.668125146481,15.777772556620
$GNHDT,111.741,T*28
$PYRTM,2024,124.668130881806,15.777778291944
$GNGGA,160206.50,3524.89993205,N,12106.60699880,W,2,13,0.9,7.344,M,-35.499,M,7.4,0135*6E
$PYRTM,2024,124.668130881806,15.777778291944
$GNHDT,112.110,T*29
$PYRTM,2024,124.668136721493,15.777784131632
$GNGGA,160207.00,3524.89951914,N,12106.60581196,W,2,13,0.9,7.318,M,-35.499,M,4.0,0135*65
$PYRTM,2024,124.668136721493,15.777784131632
$GNHDT,112.358,T*27
$PYRTM,2024,124.668142455243,15.777789865382
$GNGGA,160207.50,3524.89910771,N,12106.60460483,W,2,13,0.9,7.340,M,-35.499,M,4.4,0135*6E
$PYRTM,2024,124.668142455243,15.777789865382
$GNHDT,112.444,T*2D
$PYRTM,2024,124.668148297731,15.777795707870
$GNGGA,160208.00,3524.89869454,N,12106.60336022,W,2,13,0.9,7.387,M,-35.499,M,5.0,0135*6A
$PYRTM,2024,124.668148297731,15.777795707870
$GNHDT,112.371,T*2C
$PYRTM,2024,124.668154026296,15.777801436435
$GNGGA,160208.50,3524.89827359,N,12106.60207299,W,2,13,0.9,7.414,M,-35.499,M,5.4,0135*67
$PYRTM,2024,124.668154026296,15.777801436435
$GNHDT,112.424,T*2B
$PYRTM,2024,124.668159868044,15.777807278183
$GNGGA,160209.00,3524.89784127,N,12106.60075521,W,2,13,0.9,7.442,M,-35.498,M,6.0,0135*68
$PYRTM,2024,124.668159868044,15.777807278183
$GNHDT,112.186,T*26
$PYRTM,2024,124.668165604525,15.777813014664
$GNGGA,160209.50,3524.89740146,N,12106.59941721,W,2,13,0.9,7.497,M,-35.498,M,6.4,0135*68
$PYRTM,2024,124.668165604525,15.777813014664
$GNHDT,111.999,T*23
$PYRTM,2024,124.668171443681,15.777818853819
$GNGGA,160210.00,3524.89695676,N,12106.59806355,W,2,13,0.9,7.606,M,-35.498,M,7.0,0135*62
$PYRTM,2024,124.668171443681,15.777818853819
$GNHDT,111.733,T*2D
$PYRTM,2024,124.668177179016,15.777824589155
$GNGGA,160210.50,3524.89651314,N,12106.59670234,W,2,13,0.9,7.743,M,-35.498,M,7.4,0135*63
$PYRTM,2024,124.668177179016,15.777824589155
$GNHDT,111.208,T*20
$PYRTM,2024,124.668183019213,15.777830429352
$GNGGA,160211.00,3524.89606951,N,12106.59532508,W,2,13,0.9,7.896,M,-35.498,M,7.0,0135*60
$PYRTM,2024,124.668183019213,15.777830429352
$GNHDT,110.843,T*24
$PYRTM,2024,124.668188750706,15.777836160845
$GNGGA,160211.50,3524.89563014,N,12106.59393394,W,2,13,0.9,8.033,M,-35.498,M,7.4,0135*6F
$PYRTM,2024,124.668188750706,15.777836160845
$GNHDT,110.614,T*28
$PYRTM,2024,124.668194597523,15.777842007662
$GNGGA,160212.00,3524.89519141,N,12106.59253759,W,2,13,0.9,8.097,M,-35.498,M,7.0,0135*67
$PYRTM,2024,124.668194597523,15.777842007662
$GNHDT,110.357,T*2A
$PYRTM,2024,124.668200324433,15.777847734572
$GNGGA,160212.50,3524.89474726,N,12106.59115309,W,2,13,0.9,8.101,M,-35.498,M,7.4,0135*65
$PYRTM,2024,124.668200324433,15.777847734572
$GNHDT,110.066,T*2B
$PYRTM,2024,124.668206166111,15.777853576250
$GNGGA,160213.00,3524.89428750,N,12106.58980008,W,2,13,0.9,8.023,M,-35.498,M,4.0,0135*68
$PYRTM,2024,124.668206166111,15.777853576250
$GNHDT,109.958,T*27
$PYRTM,2024,124.668211899514,15.777859309653
$GNGGA,160213.50,3524.89381177,N,12106.58847830,W,2,13,0.9,7.906,M,-35.498,M,4.4,0135*66
$PYRTM,2024,124.668211899514,15.777859309653
$GNHDT,110.098,T*2A
$PYRTM,2024,124.668217747755,15.777865157894
$GNGGA,160214.00,3524.89332942,N,12106.58718492,W,2,13,0.9,7.780,M,-35.498,M,5.0,0135*66
$PYRTM,2024,124.668217747755,15.777865157894
$GNHDT,110.289,T*28
$PYRTM,2024,124.668223476644,15.777870886782
$GNGGA,160214.50,3524.89284903,N,12106.58591423,W,2,13,0.9,7.659,M,-35.498,M,5.4,0135*62
$PYRTM,2024,124.668223476644,15.777870886782
$GNHDT,110.500,T*2E
$PYRTM,2024,124.668229314144,15.777876724294
$GNGGA,160215.00,3524.89238781,N,12106.58465942,W,2,13,0.9,7.580,M,-35.498,M,6.0,0135*65
$PYRTM,2024,124.668229314144,15.777876724294
$GNHDT,110.786,T*22
$PYRTM,2024,124.668235051875,15.777882462014
$GNGGA,160215.50,3524.89195461,N,12106.58341298,W,2,13,0.9,7.558,M,-35.498,M,6.4,0135*65
$PYRTM,2024,124.668235051875,15.777882462014
$GNHDT,111.082,T*20
$PYRTM,2024,124.668240888287,15.777888298437
$GNGGA,160216.00,3524.89155885,N,12106.58216227,W,2,13,0.9,7.595,M,-35.498,M,7.0,0135*6A
$PYRTM,2024,124.668240888287,15.777888298437
$GNHDT,111.366,T*29
$PYRTM,2024,124.668246621146,15.777894031285
$GNGGA,160216.50,3524.89119304,N,12106.58089956,W,2,13,0.9,7.658,M,-35.498,M,7.4,0135*6A
$PYRTM,2024,124.668246621146,15.777894031285
$GNHDT,111.395,T*25
$PYRTM,2024,124.668252465521,15.777899875660
$GNGGA,160217.00,3524.89084071,N,12106.57962244,W,2,13,0.9,7.731,M,-35.498,M,7.0,0135*6B
$PYRTM,2024,124.668252465521,15.777899875660
$GNHDT,111.654,T*2D
$PYRTM,2024,124.668258197014,15.777905607153
$GNGGA,160217.50,3524.89047526,N,12106.57832467,W,2,13,0.9,7.754,M,-35.498,M,7.4,0135*62
$PYRTM,2024,124.668258197014,15.777905607153
$GNHDT,111.863,T*27
$PYRTM,2024,124.668264041285,15.777911451435
$GNGGA,160218.00,3524.89008836,N,12106.57701648,W,2,13,0.9,7.720,M,-35.498,M,7.0,0135*68
$PYRTM,2024,124.668264041285,15.777911451435
$GNHDT,111.779,T*23
$PYRTM,2024,124.668269772245,15.777917182384
$GNGGA,160218.50,3524.88967121,N,12106.57570950,W,2,13,0.9,7.645,M,-35.498,M,7.4,0135*67
$PYRTM,2024,124.668269772245,15.777917182384
$GNHDT,111.719,T*25
$PYRTM,2024,124.668275613738,15.777923023889
$GNGGA,160219.00,3524.88923083,N,12106.57440992,W,2,13,0.9,7.582,M,-35.498,M,4.0,0135*69
$PYRTM,2024,124.668275613738,15.777923023889
$GNHDT,111.552,T*28
$PYRTM,2024,124.668281342488,15.777928752627
$GNGGA,160219.50,3524.88878630,N,12106.57311230,W,2,13,0.9,7.533,M,-35.498,M,4.4,0135*63
$PYRTM,2024,124.668281342488,15.777928752627
$GNHDT,111.197,T*25
$PYRTM,2024,124.668287189641,15.777934599780
$GNGGA,160220.00,3524.88833857,N,12106.57180531,W,2,13,0.9,7.545,M,-35.497,M,5.0,0135*6B
$PYRTM,2024,124.668287189641,15.777934599780
$GNHDT,111.216,T*2F
$PYRTM,2024,124.668292918958,15.777940329097
$GNGGA,160220.50,3524.88789481,N,12106.57048216,W,2,13,0.9,7.594,M,-35.497,M,5.4,0135*68
$PYRTM,2024,124.668292918958,15.777940329097
$GNHDT,110.910,T*23
$PYRTM,2024,124.668298760046,15.777946170185
$GNGGA,160221.00,3524.88745522,N,12106.56913768,W,2,13,0.9,7.648,M,-35.497,M,6.0,0135*6B
$PYRTM,2024,124.668298760046,15.777946170185
$GNHDT,110.835,T*25
$PYRTM,2024,124.668304493831,15.777951903970
$GNGGA,160221.50,3524.88701848,N,12106.56778053,W,2,13,0.9,7.701,M,-35.497,M,6.4,0135*6B
$PYRTM,2024,124.668304493831,15.777951903970
$GNHDT,110.762,T*28
$PYRTM,2024,124.668310335451,15.777957745590
$GNGGA,160222.00,3524.88657645,N,12106.56642511,W,2,13,0.9,7.750,M,-35.497,M,7.0,0135*66
$PYRTM,2024,124.668310335451,15.777957745590
$GNHDT,110.845,T*22
$PYRTM,2024,124.668316065810,15.777963475949
$GNGGA,160222.50,3524.88613965,N,12106.56508841,W,2,13,0.9,7.785,M,-35.497,M,7.4,0135*67
$PYRTM,2024,124.668316065810,15.777963475949
$GNHDT,110.791,T*24
$PYRTM,2024,124.668321909873,15.777969320012
$GNGGA,160223.00,3524.88568460,N,12106.56378021,W,2,13,0.9,7.826,M,-35.497,M,7.0,0135*69
$PYRTM,2024,124.668321909873,15.777969320012
$GNHDT,111.141,T*2E
$PYRTM,2024,124.668327639086,15.777975049225
$GNGGA,160223.50,3524.88522447,N,12106.56249769,W,2,13,0.9,7.874,M,-35.497,M,7.4,0135*6C
$PYRTM,2024,124.668327639086,15.777975049225
$GNHDT,111.285,T*25
$PYRTM,2024,124.668333483403,15.777980893542
$GNGGA,160224.00,3524.88475767,N,12106.56123241,W,2,13,0.9,7.907,M,-35.497,M,7.0,0135*6D
$PYRTM,2024,124.668333483403,15.777980893542
$GNHDT,111.478,T*21
$PYRTM,2024,124.668339214201,15.777986624340
$GNGGA,160224.50,3524.88428900,N,12106.55996548,W,2,13,0.9,7.897,M,-35.497,M,7.4,0135*68
$PYRTM,2024,124.668339214201,15.777986624340
$GNHDT,112.015,T*2D
$PYRTM,2024,124.668345056644,15.777992466782
$GNGGA,160225.00,3524.88382345,N,12106.55869416,W,2,13,0.9,7.842,M,-35.497,M,4.0,0135*64
$PYRTM,2024,124.668345056644,15.777992466782
$GNHDT,112.276,T*2A
$PYRTM,2024,124.668350787477,15.777998197616
$GNGGA,160225.50,3524.88337047,N,12106.55741556,W,2,13,0.9,7.728,M,-35.497,M,4.4,0135*69
$PYRTM,2024,124.668350787477,15.777998197616
$GNHDT,111.967,T*22
$PYRTM,2024,124.668356637199,15.778004047338
$GNGGA,160226.00,3524.88293160,N,12106.55613704,W,2,13,0.9,7.598,M,-35.497,M,5.0,0135*6B
$PYRTM,2024,124.668356637199,15.778004047338
$GNHDT,112.054,T*28
$PYRTM,2024,124.668362363576,15.778009773715
$GNGGA,160226.50,3524.88250614,N,12106.55486106,W,2,13,0.9,7.479,M,-35.497,M,5.4,0135*65
$PYRTM,2024,124.668362363576,15.778009773715
$GNHDT,112.233,T*2B
$PYRTM,2024,124.668368207604,15.778015617743
$GNGGA,160227.00,3524.88209823,N,12106.55358189,W,2,13,0.9,7.403,M,-35.497,M,6.0,0135*6E
$PYRTM,2024,124.668368207604,15.778015617743
$GNHDT,112.190,T*21
$PYRTM,2024,124.668373936887,15.778021347037
$GNGGA,160227.50,3524.88169216,N,12106.55230381,W,2,13,0.9,7.387,M,-35.497,M,6.4,0135*68
$PYRTM,2024,124.668373936887,15.778021347037
$GNHDT,112.036,T*2C
$PYRTM,2024,124.668379778588,15.778027188727
$GNGGA,160228.00,3524.88128358,N,12106.55102353,W,2,13,0.9,7.416,M,-35.497,M,7.0,0135*6B
$PYRTM,2024,124.668379778588,15.778027188727
$GNHDT,111.917,T*25
$PYRTM,2024,124.668385508600,15.778032918738
$GNGGA,160228.50,3524.88086557,N,12106.54974045,W,2,13,0.9,7.466,M,-35.497,M,7.4,0135*6D
$PYRTM,2024,124.668385508600,15.778032918738
$GNHDT,111.595,T*23
$PYRTM,2024,124.668391354965,15.778038765104
