$PYRTM,2024,127.750000136782,18.859647546921
$GNGGA,180000.00,3338.57203727,N,11900.93316873,W,2,11,0.9,7.661,M,-37.893,M,4.0,0131*66
$PYRTM,2024,127.750000136782,18.859647546921
$GNHDT,113.994,T*2C
$PYRTM,2024,127.750005867338,18.859653277477
$GNGGA,180000.50,3338.57199845,N,11900.93296633,W,2,11,0.9,7.638,M,-37.893,M,4.4,0131*63
$PYRTM,2024,127.750005867338,18.859653277477
$GNHDT,113.627,T*2B
$PYRTM,2024,127.750011705961,18.859659116100
$GNGGA,180001.00,3338.57193110,N,11900.93277865,W,2,11,0.9,7.604,M,-37.893,M,5.0,0131*6C
$PYRTM,2024,127.750011705961,18.859659116100
$GNHDT,113.705,T*2A
$PYRTM,2024,127.750017441065,18.859664851204
$GNGGA,180001.50,3338.57184110,N,11900.93260176,W,2,11,0.9,7.571,M,-37.893,M,5.4,0131*67
$PYRTM,2024,127.750017441065,18.859664851204
$GNHDT,113.700,T*2F
$PYRTM,2024,127.750023284491,18.859670694630
$GNGGA,180002.00,3338.57171387,N,11900.93242151,W,2,11,0.9,7.583,M,-37.893,M,6.0,0131*68
$PYRTM,2024,127.750023284491,18.859670694630
$GNHDT,113.886,T*2E
$PYRTM,2024,127.750029018090,18.859676428229
$GNGGA,180002.50,3338.57157788,N,11900.93224085,W,2,11,0.9,7.643,M,-37.893,M,6.4,0131*61
$PYRTM,2024,127.750029018090,18.859676428229
$GNHDT,114.041,T*2A
$PYRTM,2024,127.750034854456,18.859682264595
$GNGGA,180003.00,3338.57143984,N,11900.93204788,W,2,11,0.9,7.736,M,-37.893,M,7.0,0131*6C
$PYRTM,2024,127.750034854456,18.859682264595
$GNHDT,114.375,T*2E
$PYRTM,2024,127.750040592373,18.859688002512
$GNGGA,180003.50,3338.57131280,N,11900.93184089,W,2,11,0.9,7.851,M,-37.893,M,7.4,0131*64
$PYRTM,2024,127.750040592373,18.859688002512
$GNHDT,114.638,T*22
$PYRTM,2024,127.750046430278,18.859693840417
$GNGGA,180004.00,3338.57119564,N,11900.93161874,W,2,11,0.9,7.943,M,-37.893,M,7.0,0131*66
$PYRTM,2024,127.750046430278,18.859693840417
$GNHDT,114.829,T*2C
$PYRTM,2024,127.750052164190,18.859699574329
$GNGGA,180004.50,3338.57109373,N,11900.93137099,W,2,11,0.9,7.990,M,-37.893,M,7.4,0131*60
$PYRTM,2024,127.750052164190,18.859699574329
$GNHDT,114.753,T*2E
$PYRTM,2024,127.750058005914,18.859705416053
$GNGGA,180005.00,3338.57101012,N,11900.93109592,W,2,11,0.9,8.005,M,-37.893,M,7.0,0131*65
$PYRTM,2024,127.750058005914,18.859705416053
$GNHDT,114.649,T*24
$PYRTM,2024,127.750063742859,18.859711152998
$GNGGA,180005.50,3338.57095154,N,11900.93080729,W,2,11,0.9,8.003,M,-37.893,M,7.4,0131*6F
$PYRTM,2024,127.750063742859,18.859711152998
$GNHDT,114.442,T*2D
$PYRTM,2024,127.750069579468,18.859716989606
$GNGGA,180006.00,3338.57091583,N,11900.93050574,W,2,11,0.9,8.008,M,-37.893,M,4.0,0131*68
$PYRTM,2024,127.750069579468,18.859716989606
$GNHDT,114.170,T*29
$PYRTM,2024,127.750075313380,18.859722723519
$GNGGA,180006.50,3338.57088848,N,11900.93020858,W,2,11,0.9,8.030,M,-37.893,M,4.4,0131*64
$PYRTM,2024,127.750075313380,18.859722723519
$GNHDT,114.124,T*28
$PYRTM,2024,127.750081151991,18.859728562130
$GNGGA,180007.00,3338.57084885,N,11900.92992402,W,2,11,0.9,8.041,M,-37.893,M,5.0,0131*6C
$PYRTM,2024,127.750081151991,18.859728562130
$GNHDT,113.945,T*20
$PYRTM,2024,127.750086885394,18.859734295532
$GNGGA,180007.50,3338.57078458,N,11900.92966297,W,2,11,0.9,8.018,M,-37.893,M,5.4,0131*6F
$PYRTM,2024,127.750086885394,18.859734295532
$GNHDT,113.882,T*2A
$PYRTM,2024,127.750092726053,18.859740136192
$GNGGA,180008.00,3338.57068371,N,11900.92943243,W,2,11,0.9,7.950,M,-37.893,M,6.0,0131*6B
$PYRTM,2024,127.750092726053,18.859740136192
$GNHDT,113.997,T*2F
$PYRTM,2024,127.750098462373,18.859745872512
$GNGGA,180008.50,3338.57055201,N,11900.92922980,W,2,11,0.9,7.839,M,-37.893,M,6.4,0131*6F
$PYRTM,2024,127.750098462373,18.859745872512
$GNHDT,114.306,T*2A
$PYRTM,2024,127.750104305752,18.859751715903
$GNGGA,180009.00,3338.57039915,N,11900.92905342,W,2,11,0.9,7.708,M,-37.893,M,7.0,0131*66
$PYRTM,2024,127.750104305752,18.859751715903
$GNHDT,114.355,T*2C
$PYRTM,2024,127.750110037384,18.859757447523
$GNGGA,180009.50,3338.57024800,N,11900.92888694,W,2,11,0.9,7.610,M,-37.893,M,7.4,0131*6C
$PYRTM,2024,127.750110037384,18.859757447523
$GNHDT,114.304,T*28
$PYRTM,2024,127.750115874213,18.859763284352
$GNGGA,180010.00,3338.57011499,N,11900.92872153,W,2,11,0.9,7.550,M,-37.893,M,7.0,0131*61
$PYRTM,2024,127.750115874213,18.859763284352
$GNHDT,114.388,T*2C
$PYRTM,2024,127.750121610035,18.859769020174
$GNGGA,180010.50,3338.57001966,N,11900.92852698,W,2,11,0.9,7.580,M,-37.893,M,7.4,0131*63
$PYRTM,2024,127.750121610035,18.859769020174
$GNHDT,114.440,T*2F
$PYRTM,2024,127.750127450972,18.859774861111
$GNGGA,180011.00,3338.56996128,N,11900.92829846,W,2,11,0.9,7.668,M,-37.893,M,7.0,0131*63
$PYRTM,2024,127.750127450972,18.859774861111
$GNHDT,114.446,T*29
$PYRTM,2024,127.750133182639,18.859780592778
$GNGGA,180011.50,3338.56992861,N,11900.92803570,W,2,11,0.9,7.790,M,-37.893,M,7.4,0131*64
$PYRTM,2024,127.750133182639,18.859780592778
$GNHDT,114.287,T*22
$PYRTM,2024,127.750139021204,18.859786431493
$GNGGA,180012.00,3338.56989096,N,11900.92775905,W,2,11,0.9,7.874,M,-37.893,M,4.0,0131*6A
$PYRTM,2024,127.750139021204,18.859786431493
$GNHDT,114.314,T*29
$PYRTM,2024,127.750144758634,18.859792168773
$GNGGA,180012.50,3338.56983184,N,11900.92748788,W,2,11,0.9,7.910,M,-37.893,M,4.4,0131*65
$PYRTM,2024,127.750144758634,18.859792168773
$GNHDT,114.586,T*24
$PYRTM,2024,127.750150599120,18.859798009259
$GNGGA,180013.00,3338.56972621,N,11900.92724629,W,2,11,0.9,7.882,M,-37.893,M,5.0,0131*68
$PYRTM,2024,127.750150599120,18.859798009259
$GNHDT,114.539,T*20
$PYRTM,2024,127.750156330602,18.859803740741
$GNGGA,180013.50,3338.56958132,N,11900.92704234,W,2,11,0.9,7.798,M,-37.893,M,5.4,0131*6A
$PYRTM,2024,127.750156330602,18.859803740741
$GNHDT,114.443,T*2C
$PYRTM,2024,127.750162173090,18.859809583229
$GNGGA,180014.00,3338.56941160,N,11900.92686162,W,2,11,0.9,7.697,M,-37.893,M,6.0,0131*65
$PYRTM,2024,127.750162173090,18.859809583229
$GNHDT,114.411,T*2B
$PYRTM,2024,127.750167907222,18.859815317361
$GNGGA,180014.50,3338.56925269,N,11900.92668821,W,2,11,0.9,7.618,M,-37.893,M,6.4,0131*65
$PYRTM,2024,127.750167907222,18.859815317361
$GNHDT,114.401,T*2A
$PYRTM,2024,127.750173746771,18.859821156910
$GNGGA,180015.00,3338.56911154,N,11900.92650738,W,2,11,0.9,7.579,M,-37.893,M,7.0,0131*66
$PYRTM,2024,127.750173746771,18.859821156910
$GNHDT,114.457,T*29
$PYRTM,2024,127.750179477963,18.859826888102
$GNGGA,180015.50,3338.56899467,N,11900.92630246,W,2,11,0.9,7.596,M,-37.893,M,7.4,0131*68
$PYRTM,2024,127.750179477963,18.859826888102
$GNHDT,114.296,T*22
$PYRTM,2024,127.750185320220,18.859832730359
$GNGGA,180016.00,3338.56889107,N,11900.92607477,W,2,11,0.9,7.672,M,-37.893,M,7.0,0131*61
$PYRTM,2024,127.750185320220,18.859832730359
$GNHDT,114.202,T*2F
$PYRTM,2024,127.750191058194,18.859838468333
$GNGGA,180016.50,3338.56879908,N,11900.92583459,W,2,11,0.9,7.779,M,-37.893,M,7.4,0131*61
$PYRTM,2024,127.750191058194,18.859838468333
$GNHDT,114.312,T*2F
$PYRTM,2024,127.750196896481,18.859844306620
$GNGGA,180017.00,3338.56871965,N,11900.92559192,W,2,11,0.9,7.925,M,-37.893,M,7.0,0131*60
$PYRTM,2024,127.750196896481,18.859844306620
$GNHDT,114.442,T*2D
$PYRTM,2024,127.750202630961,18.859850041100
$GNGGA,180017.50,3338.56865768,N,11900.92534696,W,2,11,0.9,8.096,M,-37.893,M,7.4,0131*61
$PYRTM,2024,127.750202630961,18.859850041100
$GNHDT,114.558,T*27
$PYRTM,2024,127.750208467674,18.859855877812
$GNGGA,180018.00,3338.56861016,N,11900.92511129,W,2,11,0.9,8.271,M,-37.893,M,4.0,0131*69
$PYRTM,2024,127.750208467674,18.859855877812
$GNHDT,114.846,T*25
$PYRTM,2024,127.750214200289,18.859861610428
$GNGGA,180018.50,3338.56856316,N,11900.92487701,W,2,11,0.9,8.397,M,-37.893,M,4.4,0131*64
$PYRTM,2024,127.750214200289,18.859861610428
$GNHDT,114.758,T*25
$PYRTM,2024,127.750220042743,18.859867452882
$GNGGA,180019.00,3338.56850160,N,11900.92464609,W,2,11,0.9,8.439,M,-37.893,M,5.0,0131*67
$PYRTM,2024,127.750220042743,18.859867452882
$GNHDT,114.631,T*2B
$PYRTM,2024,127.750225774329,18.859873184468
$GNGGA,180019.50,3338.56841360,N,11900.92441943,W,2,11,0.9,8.388,M,-37.893,M,5.4,0131*6F
$PYRTM,2024,127.750225774329,18.859873184468
$GNHDT,114.535,T*2C
$PYRTM,2024,127.750231615625,18.859879025764
$GNGGA,180020.00,3338.56830787,N,11900.92419485,W,2,11,0.9,8.249,M,-37.893,M,6.0,0131*6A
$PYRTM,2024,127.750231615625,18.859879025764
$GNHDT,114.414,T*2E
$PYRTM,2024,127.750237347569,18.859884757708
$GNGGA,180020.50,3338.56820381,N,11900.92396536,W,2,11,0.9,8.107,M,-37.893,M,6.4,0131*68
$PYRTM,2024,127.750237347569,18.859884757708
$GNHDT,114.273,T*29
$PYRTM,2024,127.750243187917,18.859890598056
$GNGGA,180021.00,3338.56811118,N,11900.92373569,W,2,11,0.9,7.976,M,-37.893,M,7.0,0131*69
$PYRTM,2024,127.750243187917,18.859890598056
$GNHDT,114.146,T*2C
$PYRTM,2024,127.750248923542,18.859896333681
$GNGGA,180021.50,3338.56804377,N,11900.92349632,W,2,11,0.9,7.922,M,-37.893,M,7.4,0131*62
$PYRTM,2024,127.750248923542,18.859896333681
$GNHDT,114.158,T*23
$PYRTM,2024,127.750254763009,18.859902173148
$GNGGA,180022.00,3338.56799959,N,11900.92324818,W,2,10,0.9,7.927,M,-37.893,M,7.0,0131*64
$PYRTM,2024,127.750254763009,18.859902173148
$GNHDT,114.330,T*2F
$PYRTM,2024,127.750260501111,18.859907911262
$GNGGA,180022.50,3338.56796075,N,11900.92299813,W,2,10,0.9,7.982,M,-37.893,M,7.4,0131*6E
$PYRTM,2024,127.750260501111,18.859907911262
$GNHDT,114.486,T*25
$PYRTM,2024,127.750266340336,18.859913750475
$GNGGA,180023.00,3338.56791148,N,11900.92275774,W,2,10,0.9,8.028,M,-37.893,M,7.0,0131*6C
$PYRTM,2024,127.750266340336,18.859913750475
$GNHDT,114.618,T*20
$PYRTM,2024,127.750272072095,18.859919482234
$GNGGA,180023.50,3338.56783691,N,11900.92253371,W,2,10,0.9,8.038,M,-37.893,M,7.4,0131*69
$PYRTM,2024,127.750272072095,18.859919482234
$GNHDT,114.525,T*2D
$PYRTM,2024,127.750277909711,18.859925319850
$GNGGA,180024.00,3338.56772806,N,11900.92232647,W,2,10,0.9,7.994,M,-37.893,M,4.0,0131*65
$PYRTM,2024,127.750277909711,18.859925319850
$GNHDT,114.521,T*29
$PYRTM,2024,127.750283646227,18.859931056366
$GNGGA,180024.50,3338.56759860,N,11900.92212186,W,2,10,0.9,7.900,M,-37.893,M,4.4,0131*68
$PYRTM,2024,127.750283646227,18.859931056366
$GNHDT,114.409,T*22
$PYRTM,2024,127.750289483773,18.859936893912
$GNGGA,180025.00,3338.56746426,N,11900.92191378,W,2,10,0.9,7.785,M,-37.893,M,5.0,0131*61
$PYRTM,2024,127.750289483773,18.859936893912
$GNHDT,114.366,T*2C
$PYRTM,2024,127.750295218819,18.859942628958
$GNGGA,180025.50,3338.56734411,N,11900.92169364,W,2,11,0.9,7.680,M,-37.893,M,5.4,0131*6E
$PYRTM,2024,127.750295218819,18.859942628958
$GNHDT,114.085,T*22
$PYRTM,2024,127.750301058970,18.859948469109
$GNGGA,180026.00,3338.56724233,N,11900.92145947,W,2,11,0.9,7.593,M,-37.893,M,6.0,0131*6C
$PYRTM,2024,127.750301058970,18.859948469109
$GNHDT,114.172,T*2B
$PYRTM,2024,127.750306796100,18.859954206238
$GNGGA,180026.50,3338.56715435,N,11900.92121337,W,2,11,0.9,7.548,M,-37.893,M,6.4,0131*66
$PYRTM,2024,127.750306796100,18.859954206238
$GNHDT,114.253,T*2B
$PYRTM,2024,127.750312632604,18.859960042743
$GNGGA,180027.00,3338.56706736,N,11900.92096623,W,2,11,0.9,7.541,M,-37.893,M,7.0,0131*61
$PYRTM,2024,127.750312632604,18.859960042743
$GNHDT,114.210,T*2C
$PYRTM,2024,127.750318367847,18.859965777986
$GNGGA,180027.50,3338.56698037,N,11900.92072760,W,2,11,0.9,7.555,M,-37.893,M,7.4,0131*69
$PYRTM,2024,127.750318367847,18.859965777986
$GNHDT,114.452,T*2C
$PYRTM,2024,127.750324208067,18.859971618206
$GNGGA,180028.00,3338.56687991,N,11900.92049802,W,2,11,0.9,7.608,M,-37.893,M,7.0,0131*64
$PYRTM,2024,127.750324208067,18.859971618206
$GNHDT,114.513,T*28
$PYRTM,2024,127.750329941840,18.859977351979
$GNGGA,180028.50,3338.56676920,N,11900.92028213,W,2,11,0.9,7.653,M,-37.893,M,7.4,0131*62
$PYRTM,2024,127.750329941840,18.859977351979
$GNHDT,114.404,T*2F
$PYRTM,2024,127.750335783750,18.859983193889
$GNGGA,180029.00,3338.56664776,N,11900.92007499,W,2,11,0.9,7.705,M,-37.893,M,7.0,0131*67
$PYRTM,2024,127.750335783750,18.859983193889
$GNHDT,114.491,T*23
$PYRTM,2024,127.750341519549,18.859988929687
$GNGGA,180029.50,3338.56652617,N,11900.91986268,W,2,11,0.9,7.741,M,-37.893,M,7.4,0131*6E
$PYRTM,2024,127.750341519549,18.859988929687
$GNHDT,114.296,T*22
$PYRTM,2024,127.750347355451,18.859994765590
$GNGGA,180030.00,3338.56640762,N,11900.91964848,W,2,11,0.9,7.744,M,-37.893,M,4.0,0131*65
$PYRTM,2024,127.750347355451,18.859994765590
$GNHDT,114.309,T*25
$PYRTM,2024,127.750353091968,18.860000502118
$GNGGA,180030.50,3338.56629717,N,11900.91942530,W,2,11,0.9,7.726,M,-37.893,M,4.4,0131*6B
$PYRTM,2024,127.750353091968,18.860000502118
$GNHDT,114.307,T*2B
$PYRTM,2024,127.750358931285,18.860006341435
$GNGGA,180031.00,3338.56620191,N,11900.91919369,W,2,11,0.9,7.708,M,-37.893,M,5.0,0131*63
$PYRTM,2024,127.750358931285,18.860006341435
$GNHDT,114.129,T*25
$PYRTM,2024,127.750364662998,18.860012073137
$GNGGA,180031.50,3338.56612024,N,11900.91895836,W,2,11,0.9,7.699,M,-37.893,M,5.4,0131*61
$PYRTM,2024,127.750364662998,18.860012073137
$GNHDT,114.273,T*29
$PYRTM,2024,127.750370511042,18.860017921181
$GNGGA,180032.00,3338.56605105,N,11900.91872982,W,2,11,0.9,7.705,M,-37.893,M,6.0,0131*67
$PYRTM,2024,127.750370511042,18.860017921181
$GNHDT,114.235,T*2B
$PYRTM,2024,127.750376240451,18.860023650590
$GNGGA,180032.50,3338.56597990,N,11900.91851315,W,2,11,0.9,7.749,M,-37.893,M,6.4,0131*67
$PYRTM,2024,127.750376240451,18.860023650590
$GNHDT,114.375,T*2E
$PYRTM,2024,127.750382077211,18.860029487350
$GNGGA,180033.00,3338.56590242,N,11900.91829995,W,2,11,0.9,7.823,M,-37.893,M,7.0,0131*6B
$PYRTM,2024,127.750382077211,18.860029487350
$GNHDT,114.303,T*2F
$PYRTM,2024,127.750387814583,18.860035224722
$GNGGA,180033.50,3338.56581592,N,11900.91808567,W,2,11,0.9,7.918,M,-37.893,M,7.4,0131*6B
$PYRTM,2024,127.750387814583,18.860035224722
$GNHDT,114.123,T*2F
$PYRTM,2024,127.750393652141,18.860041062280
$GNGGA,180034.00,3338.56571617,N,11900.91787051,W,2,11,0.9,8.016,M,-37.893,M,7.0,0131*6C
$PYRTM,2024,127.750393652141,18.860041062280
$GNHDT,114.079,T*21
$PYRTM,2024,127.750399385093,18.860046795231
$GNGGA,180034.50,3338.56560637,N,11900.91764770,W,2,11,0.9,8.113,M,-37.893,M,7.4,0131*62
$PYRTM,2024,127.750399385093,18.860046795231
$GNHDT,114.015,T*2B
$PYRTM,2024,127.750405228576,18.860052638715
$GNGGA,180035.00,3338.56549272,N,11900.91741545,W,2,11,0.9,8.201,M,-37.893,M,7.0,0131*6F
$PYRTM,2024,127.750405228576,18.860052638715
$GNHDT,114.075,T*2D
$PYRTM,2024,127.750410962407,18.860058372546
$GNGGA,180035.50,3338.56538533,N,11900.91717730,W,2,11,0.9,8.274,M,-37.893,M,7.4,0131*6B
$PYRTM,2024,127.750410962407,18.860058372546
$GNHDT,114.291,T*25
$PYRTM,2024,127.750416800556,18.860064210694
$GNGGA,180036.00,3338.56529629,N,11900.91693368,W,2,11,0.9,8.351,M,-37.893,M,4.0,0131*60
$PYRTM,2024,127.750416800556,18.860064210694
$GNHDT,114.298,T*2C
$PYRTM,2024,127.750422534988,18.860069945127
$GNGGA,180036.50,3338.56523251,N,11900.91668268,W,2,11,0.9,8.420,M,-37.893,M,4.4,0131*64
$PYRTM,2024,127.750422534988,18.860069945127
$GNHDT,114.566,T*2A
$PYRTM,2024,127.750428378484,18.860075788623
$GNGGA,180037.00,3338.56519010,N,11900.91642184,W,2,11,0.9,8.472,M,-37.893,M,5.0,0131*65
$PYRTM,2024,127.750428378484,18.860075788623
$GNHDT,114.688,T*29
$PYRTM,2024,127.750434112523,18.860081522662
$GNGGA,180037.50,3338.56515540,N,11900.91616035,W,2,11,0.9,8.477,M,-37.893,M,5.4,0131*67
$PYRTM,2024,127.750434112523,18.860081522662
$GNHDT,114.661,T*2E
$PYRTM,2024,127.750439949653,18.860087359792
$GNGGA,180038.00,3338.56511220,N,11900.91590569,W,2,11,0.9,8.407,M,-37.893,M,6.0,0131*69
$PYRTM,2024,127.750439949653,18.860087359792
$GNHDT,114.369,T*23
$PYRTM,2024,127.750445681829,18.860093091968
$GNGGA,180038.50,3338.56504818,N,11900.91566400,W,2,11,0.9,8.259,M,-37.893,M,6.4,0131*67
$PYRTM,2024,127.750445681829,18.860093091968
$GNHDT,113.931,T*23
$PYRTM,2024,127.750451522963,18.860098933102
$GNGGA,180039.00,3338.56495972,N,11900.91543633,W,2,11,0.9,8.035,M,-37.893,M,7.0,0131*6F
$PYRTM,2024,127.750451522963,18.860098933102
$GNHDT,113.505,T*28
$PYRTM,2024,127.750457256794,18.860104666944
$GNGGA,180039.50,3338.56485266,N,11900.91522712,W,2,11,0.9,7.775,M,-37.893,M,7.4,0131*68
$PYRTM,2024,127.750457256794,18.860104666944
$GNHDT,113.368,T*25
$PYRTM,2024,127.750463098437,18.860110508576
$GNGGA,180040.00,3338.56473546,N,11900.91503026,W,2,11,0.9,7.533,M,-37.893,M,7.0,0131*68
$PYRTM,2024,127.750463098437,18.860110508576
$GNHDT,113.309,T*22
$PYRTM,2024,127.750468831620,18.860116241759
$GNGGA,180040.50,3338.56462516,N,11900.91483807,W,2,11,0.9,7.419,M,-37.893,M,7.4,0131*67
$PYRTM,2024,127.750468831620,18.860116241759
$GNHDT,113.371,T*2D
$PYRTM,2024,127.750474672118,18.860122082257
$GNGGA,180041.00,3338.56453665,N,11900.91462624,W,2,11,0.9,7.437,M,-37.893,M,7.0,0131*6E
$PYRTM,2024,127.750474672118,18.860122082257
$GNHDT,113.627,T*2B
$PYRTM,2024,127.750480405324,18.860127815463
$GNGGA,180041.50,3338.56447213,N,11900.91439023,W,2,11,0.9,7.620,M,-37.893,M,7.4,0131*64
$PYRTM,2024,127.750480405324,18.860127815463
$GNHDT,113.814,T*25
$PYRTM,2024,127.750486244988,18.860133655127
$GNGGA,180042.00,3338.56442006,N,11900.91412807,W,2,11,0.9,7.903,M,-37.893,M,4.0,0131*6F
$PYRTM,2024,127.750486244988,18.860133655127
$GNHDT,113.871,T*26
$PYRTM,2024,127.750491977731,18.860139387870
$GNGGA,180042.50,3338.56436213,N,11900.91386693,W,2,11,0.9,8.171,M,-37.893,M,4.4,0131*60
$PYRTM,2024,127.750491977731,18.860139387870
$GNHDT,114.012,T*2C
$PYRTM,2024,127.750497817743,18.860145227894
$GNGGA,180043.00,3338.56427613,N,11900.91361353,W,2,11,0.9,8.341,M,-37.893,M,5.0,0131*64
$PYRTM,2024,127.750497817743,18.860145227894
$GNHDT,114.203,T*2E
$PYRTM,2024,127.750503551435,18.860150961574
$GNGGA,180043.50,3338.56415935,N,11900.91337604,W,2,11,0.9,8.357,M,-37.893,M,5.4,0131*6C
$PYRTM,2024,127.750503551435,18.860150961574
$GNHDT,114.371,T*2A
$PYRTM,2024,127.750509394896,18.860156805035
$GNGGA,180044.00,3338.56400901,N,11900.91315466,W,2,11,0.9,8.215,M,-37.893,M,6.0,0131*6B
$PYRTM,2024,127.750509394896,18.860156805035
$GNHDT,114.326,T*28
$PYRTM,2024,127.750515129120,18.860162539259
$GNGGA,180044.50,3338.56384907,N,11900.91293783,W,2,11,0.9,7.955,M,-37.893,M,6.4,0131*60
$PYRTM,2024,127.750515129120,18.860162539259
$GNHDT,114.185,T*23
$PYRTM,2024,127.750520969155,18.860168379294
$GNGGA,180045.00,3338.56370402,N,11900.91271065,W,2,11,0.9,7.673,M,-37.893,M,7.0,0131*6A
$PYRTM,2024,127.750520969155,18.860168379294
$GNHDT,113.907,T*26
$PYRTM,2024,127.750526704398,18.860174114537
$GNGGA,180045.50,3338.56359774,N,11900.91246767,W,2,11,0.9,7.444,M,-37.893,M,7.4,0131*65
$PYRTM,2024,127.750526704398,18.860174114537
$GNHDT,113.408,T*24
$PYRTM,2024,127.750532541655,18.860179951794
$GNGGA,180046.00,3338.56353982,N,11900.91221326,W,2,11,0.9,7.321,M,-37.893,M,7.0,0131*6E
$PYRTM,2024,127.750532541655,18.860179951794
$GNHDT,113.112,T*2A
$PYRTM,2024,127.750538278090,18.860185688229
$GNGGA,180046.50,3338.56351513,N,11900.91195734,W,2,11,0.9,7.341,M,-37.893,M,7.4,0131*64
$PYRTM,2024,127.750538278090,18.860185688229
$GNHDT,113.076,T*29
$PYRTM,2024,127.750544118229,18.860191528368
$GNGGA,180047.00,3338.56350238,N,11900.91170413,W,2,11,0.9,7.445,M,-37.893,M,7.0,0131*65
$PYRTM,2024,127.750544118229,18.860191528368
$GNHDT,113.145,T*28
$PYRTM,2024,127.750549853704,18.860197263843
$GNGGA,180047.50,3338.56346925,N,11900.91146150,W,2,11,0.9,7.601,M,-37.893,M,7.4,0131*61
$PYRTM,2024,127.750549853704,18.860197263843
$GNHDT,113.523,T*2C
$PYRTM,2024,127.750555688692,18.860203098831
$GNGGA,180048.00,3338.56340041,N,11900.91124098,W,2,11,0.9,7.766,M,-37.893,M,4.0,0131*60
$PYRTM,2024,127.750555688692,18.860203098831
$GNHDT,113.853,T*26
$PYRTM,2024,127.750561423958,18.860208834109
$GNGGA,180048.50,3338.56329357,N,11900.91103835,W,2,11,0.9,7.917,M,-37.893,M,4.4,0131*68
$PYRTM,2024,127.750561423958,18.860208834109
$GNHDT,113.954,T*20
$PYRTM,2024,127.750567266725,18.860214676863
$GNGGA,180049.00,3338.56315397,N,11900.91085036,W,2,11,0.9,8.037,M,-37.893,M,5.0,0131*6A
$PYRTM,2024,127.750567266725,18.860214676863
$GNHDT,113.916,T*26
$PYRTM,2024,127.750572996424,18.860220406563
$GNGGA,180049.50,3338.56299967,N,11900.91065236,W,2,11,0.9,8.122,M,-37.893,M,5.4,0131*62
$PYRTM,2024,127.750572996424,18.860220406563
$GNHDT,114.073,T*2B
$PYRTM,2024,127.750578837789,18.860226247928
$GNGGA,180050.00,3338.56284753,N,11900.91043166,W,2,11,0.9,8.156,M,-37.893,M,6.0,0131*6C
$PYRTM,2024,127.750578837789,18.860226247928
$GNHDT,114.057,T*2D
$PYRTM,2024,127.750584571481,18.860231981620
$GNGGA,180050.50,3338.56271567,N,11900.91018682,W,2,11,0.9,8.160,M,-37.893,M,6.4,0131*64
$PYRTM,2024,127.750584571481,18.860231981620
$GNHDT,113.651,T*2A
$PYRTM,2024,127.750590412477,18.860237822616
$GNGGA,180051.00,3338.56261699,N,11900.90991730,W,2,11,0.9,8.128,M,-37.893,M,7.0,0131*6B
$PYRTM,2024,127.750590412477,18.860237822616
$GNHDT,113.792,T*24
$PYRTM,2024,127.750596144387,18.860243554525
$GNGGA,180051.50,3338.56255472,N,11900.90963521,W,2,11,0.9,8.101,M,-37.893,M,7.4,0131*6E
$PYRTM,2024,127.750596144387,18.860243554525
$GNHDT,113.686,T*20
$PYRTM,2024,127.750601986424,18.860249396563
$GNGGA,180052.00,3338.56252870,N,11900.90934782,W,2,11,0.9,8.062,M,-37.893,M,7.0,0131*68
$PYRTM,2024,127.750601986424,18.860249396563
$GNHDT,113.604,T*2A
$PYRTM,2024,127.750607719896,18.860255130035
$GNGGA,180052.50,3338.56252049,N,11900.90907129,W,2,11,0.9,8.045,M,-37.893,M,7.4,0131*69
$PYRTM,2024,127.750607719896,18.860255130035
$GNHDT,113.277,T*2A
$PYRTM,2024,127.750613560370,18.860260970509
$GNGGA,180053.00,3338.56250808,N,11900.90882154,W,2,11,0.9,8.007,M,-37.893,M,7.0,0131*66
$PYRTM,2024,127.750613560370,18.860260970509
$GNHDT,113.164,T*2B
$PYRTM,2024,127.750619296944,18.860266707083
$GNGGA,180053.50,3338.56247016,N,11900.90860695,W,2,11,0.9,7.966,M,-37.893,M,7.4,0131*61
$PYRTM,2024,127.750619296944,18.860266707083
$GNHDT,113.087,T*27
$PYRTM,2024,127.750625132130,18.860272542269
$GNGGA,180054.00,3338.56239059,N,11900.90842292,W,2,11,0.9,7.930,M,-37.893,M,4.0,0131*66
$PYRTM,2024,127.750625132130,18.860272542269
$GNHDT,113.050,T*2D
$PYRTM,2024,127.750630866204,18.860278276343
$GNGGA,180054.50,3338.56227553,N,11900.90825718,W,2,11,0.9,7.894,M,-37.893,M,4.4,0131*6E
$PYRTM,2024,127.750630866204,18.860278276343
$GNHDT,113.223,T*2B
$PYRTM,2024,127.750636711157,18.860284121296
$GNGGA,180055.00,3338.56214043,N,11900.90809833,W,2,11,0.9,7.880,M,-37.893,M,5.0,0131*66
$PYRTM,2024,127.750636711157,18.860284121296
$GNHDT,113.317,T*2D
$PYRTM,2024,127.750642440880,18.860289851019
$GNGGA,180055.50,3338.56201475,N,11900.90791985,W,2,11,0.9,7.911,M,-37.893,M,5.4,0131*69
$PYRTM,2024,127.750642440880,18.860289851019
$GNHDT,113.202,T*28
$PYRTM,2024,127.750648281412,18.860295691551
$GNGGA,180056.00,3338.56191083,N,11900.90771104,W,2,11,0.9,7.992,M,-37.893,M,6.0,0131*6B
$PYRTM,2024,127.750648281412,18.860295691551
$GNHDT,113.143,T*2E
$PYRTM,2024,127.750654016019,18.860301426157
$GNGGA,180056.50,3338.56183686,N,11900.90747523,W,2,11,0.9,8.084,M,-37.893,M,6.4,0131*6F
$PYRTM,2024,127.750654016019,18.860301426157
$GNHDT,113.406,T*2A
$PYRTM,2024,127.750659856701,18.860307266840
$GNGGA,180057.00,3338.56177992,N,11900.90721513,W,2,11,0.9,8.188,M,-37.893,M,7.0,0131*61
$PYRTM,2024,127.750659856701,18.860307266840
$GNHDT,113.434,T*2B
$PYRTM,2024,127.750665588843,18.860312998981
$GNGGA,180057.50,3338.56172798,N,11900.90694127,W,2,11,0.9,8.260,M,-37.893,M,7.4,0131*68
$PYRTM,2024,127.750665588843,18.860312998981
$GNHDT,113.336,T*2E
$PYRTM,2024,127.750671429097,18.860318839248
$GNGGA,180058.00,3338.56167064,N,11900.90666565,W,2,11,0.9,8.282,M,-37.893,M,7.0,0131*65
$PYRTM,2024,127.750671429097,18.860318839248
$GNHDT,113.382,T*21
$PYRTM,2024,127.750677162951,18.860324573102
$GNGGA,180058.50,3338.56160890,N,11900.90639216,W,2,11,0.9,8.291,M,-37.893,M,7.4,0131*6B
$PYRTM,2024,127.750677162951,18.860324573102
$GNHDT,113.290,T*23
$PYRTM,2024,127.750683002338,18.860330412477
$GNGGA,180059.00,3338.56154314,N,11900.90612287,W,2,11,0.9,8.279,M,-37.893,M,7.0,0131*6C
$PYRTM,2024,127.750683002338,18.860330412477
$GNHDT,113.458,T*21
$PYRTM,2024,127.750688736250,18.860336146389
$GNGGA,180059.50,3338.56147503,N,11900.90585538,W,2,11,0.9,8.272,M,-37.893,M,7.4,0131*6A
$PYRTM,2024,127.750688736250,18.860336146389
$GNHDT,113.714,T*2A
$PYRTM,2024,127.750694579352,18.860341989502
$GNGGA,180100.00,3338.56139347,N,11900.90559642,W,2,11,0.9,8.238,M,-37.893,M,4.0,0131*6B
$PYRTM,2024,127.750694579352,18.860341989502
$GNHDT,113.630,T*2D
$PYRTM,2024,127.750700310706,18.860347720845
$GNGGA,180100.50,3338.56129258,N,11900.90534319,W,2,11,0.9,8.174,M,-37.893,M,4.4,0131*6F
$PYRTM,2024,127.750700310706,18.860347720845
$GNHDT,113.348,T*27
$PYRTM,2024,127.750706152072,18.860353562222
$GNGGA,180101.00,3338.56117232,N,11900.90510290,W,2,11,0.9,8.051,M,-37.893,M,5.0,0131*6F
$PYRTM,2024,127.750706152072,18.860353562222
$GNHDT,113.259,T*26
$PYRTM,2024,127.750711884595,18.860359294734
$GNGGA,180101.50,3338.56104499,N,11900.90487570,W,2,11,0.9,7.916,M,-37.893,M,5.4,0131*68
$PYRTM,2024,127.750711884595,18.860359294734
$GNHDT,113.208,T*22
$PYRTM,2024,127.750717724271,18.860365134410
$GNGGA,180102.00,3338.56092895,N,11900.90465140,W,2,11,0.9,7.787,M,-37.893,M,6.0,0131*6A
$PYRTM,2024,127.750717724271,18.860365134410
$GNHDT,113.113,T*2B
$PYRTM,2024,127.750723459525,18.860370869664
$GNGGA,180102.50,3338.56083342,N,11900.90442690,W,2,11,0.9,7.700,M,-37.893,M,6.4,0131*6A
$PYRTM,2024,127.750723459525,18.860370869664
$GNHDT,113.044,T*28
$PYRTM,2024,127.750729303993,18.860376714132
$GNGGA,180103.00,3338.56076009,N,11900.90419616,W,2,11,0.9,7.694,M,-37.893,M,7.0,0131*61
$PYRTM,2024,127.750729303993,18.860376714132
$GNHDT,113.111,T*29
$PYRTM,2024,127.750735037199,18.860382447338
$GNGGA,180103.50,3338.56071303,N,11900.90396492,W,2,11,0.9,7.741,M,-37.893,M,7.4,0131*69
$PYRTM,2024,127.750735037199,18.860382447338
$GNHDT,113.220,T*28
$PYRTM,2024,127.750740872731,18.860388282870
$GNGGA,180104.00,3338.56067592,N,11900.90373621,W,2,11,0.9,7.807,M,-37.893,M,7.0,0131*6A
$PYRTM,2024,127.750740872731,18.860388282870
$GNHDT,113.202,T*28
$PYRTM,2024,127.750746607373,18.860394017512
$GNGGA,180104.50,3338.56064166,N,11900.90350560,W,2,11,0.9,7.873,M,-37.893,M,7.4,0131*63
$PYRTM,2024,127.750746607373,18.860394017512
$GNHDT,113.457,T*2E
$PYRTM,2024,127.750752449248,18.860399859387
$GNGGA,180105.00,3338.56058621,N,11900.90328530,W,2,11,0.9,7.906,M,-37.893,M,7.0,0131*61
$PYRTM,2024,127.750752449248,18.860399859387
$GNHDT,113.383,T*20
$PYRTM,2024,127.750758182488,18.860405592627
$GNGGA,180105.50,3338.56049981,N,11900.90307584,W,2,11,0.9,7.876,M,-37.893,M,7.4,0131*61
$PYRTM,2024,127.750758182488,18.860405592627
$GNHDT,113.260,T*2C
$PYRTM,2024,127.750764020405,18.860411430544
$GNGGA,180106.00,3338.56037798,N,11900.90288490,W,2,11,0.9,7.812,M,-37.893,M,4.0,0131*6F
$PYRTM,2024,127.750764020405,18.860411430544
$GNHDT,113.212,T*29
$PYRTM,2024,127.750769754769,18.860417164907
$GNGGA,180106.50,3338.56023485,N,11900.90270281,W,2,11,0.9,7.727,M,-37.893,M,4.4,0131*6C
$PYRTM,2024,127.750769754769,18.860417164907
$GNHDT,113.260,T*2C
$PYRTM,2024,127.750775601829,18.860423011968
$GNGGA,180107.00,3338.56008458,N,11900.90252991,W,2,11,0.9,7.627,M,-37.893,M,5.0,0131*6F
$PYRTM,2024,127.750775601829,18.860423011968
$GNHDT,113.344,T*2B
$PYRTM,2024,127.750781333299,18.860428743438
$GNGGA,180107.50,3338.55995353,N,11900.90235454,W,2,11,0.9,7.576,M,-37.893,M,5.4,0131*6E
$PYRTM,2024,127.750781333299,18.860428743438
$GNHDT,113.317,T*2D
$PYRTM,2024,127.750787176285,18.860434586424
$GNGGA,180108.00,3338.55985755,N,11900.90215954,W,2,11,0.9,7.586,M,-37.893,M,6.0,0131*60
$PYRTM,2024,127.750787176285,18.860434586424
$GNHDT,113.251,T*2E
$PYRTM,2024,127.750792907106,18.860440317245
$GNGGA,180108.50,3338.55979720,N,11900.90194442,W,2,11,0.9,7.678,M,-37.893,M,6.4,0131*62
$PYRTM,2024,127.750792907106,18.860440317245
$GNHDT,113.364,T*29
$PYRTM,2024,127.750798743657,18.860446153796
$GNGGA,180109.00,3338.55976530,N,11900.90169475,W,2,11,0.9,7.834,M,-37.893,M,7.0,0131*6F
$PYRTM,2024,127.750798743657,18.860446153796
$GNHDT,113.334,T*2C
$PYRTM,2024,127.750804477616,18.860451887755
$GNGGA,180109.50,3338.55974267,N,11900.90142398,W,2,11,0.9,8.020,M,-37.893,M,7.4,0131*66
$PYRTM,2024,127.750804477616,18.860451887755
$GNHDT,113.413,T*2E
$PYRTM,2024,127.750810318287,18.860457728426
$GNGGA,180110.00,3338.55970453,N,11900.90114693,W,2,11,0.9,8.203,M,-37.893,M,7.0,0131*64
$PYRTM,2024,127.750810318287,18.860457728426
$GNHDT,113.442,T*2A
$PYRTM,2024,127.750816051782,18.860463461921
$GNGGA,180110.50,3338.55962275,N,11900.90088042,W,2,11,0.9,8.356,M,-37.893,M,7.4,0131*6B
$PYRTM,2024,127.750816051782,18.860463461921
$GNHDT,113.656,T*2D
$PYRTM,2024,127.750821893866,18.860469304016
$GNGGA,180111.00,3338.55949598,N,11900.90063584,W,2,11,0.9,8.453,M,-37.893,M,7.0,0131*6E
$PYRTM,2024,127.750821893866,18.860469304016
$GNHDT,113.855,T*20
$PYRTM,2024,127.750827627407,18.860475037546
$GNGGA,180111.50,3338.55934029,N,11900.90040842,W,2,11,0.9,8.530,M,-37.893,M,7.4,0131*68
$PYRTM,2024,127.750827627407,18.860475037546
$GNHDT,113.968,T*2F
$PYRTM,2024,127.750833467662,18.860480877812
$GNGGA,180112.00,3338.55918454,N,11900.90018742,W,2,11,0.9,8.559,M,-37.893,M,4.0,0131*64
$PYRTM,2024,127.750833467662,18.860480877812
$GNHDT,114.002,T*2D
$PYRTM,2024,127.750839202535,18.860486612674
$GNGGA,180112.50,3338.55905574,N,11900.89995583,W,2,11,0.9,8.553,M,-37.893,M,4.4,0131*6B
$PYRTM,2024,127.750839202535,18.860486612674
$GNHDT,114.293,T*27
$PYRTM,2024,127.750845042442,18.860492452581
$GNGGA,180113.00,3338.55896572,N,11900.89970498,W,2,11,0.9,8.513,M,-37.893,M,5.0,0131*63
$PYRTM,2024,127.750845042442,18.860492452581
$GNHDT,114.241,T*28
$PYRTM,2024,127.750850777199,18.860498187338
$GNGGA,180113.50,3338.55891069,N,11900.89943847,W,2,11,0.9,8.439,M,-37.893,M,5.4,0131*6D
$PYRTM,2024,127.750850777199,18.860498187338
$GNHDT,114.101,T*2F
$PYRTM,2024,127.750856616146,18.860504026296
$GNGGA,180114.00,3338.55888347,N,11900.89916383,W,2,11,0.9,8.321,M,-37.893,M,6.0,0131*62
$PYRTM,2024,127.750856616146,18.860504026296
$GNHDT,114.051,T*2B
$PYRTM,2024,127.750862348414,18.860509758553
$GNGGA,180114.50,3338.55887220,N,11900.89888888,W,2,11,0.9,8.199,M,-37.893,M,6.4,0131*6B
$PYRTM,2024,127.750862348414,18.860509758553
$GNHDT,113.559,T*21
$PYRTM,2024,127.750868190590,18.860515600729
$GNGGA,180115.00,3338.55886208,N,11900.89861850,W,2,11,0.9,8.082,M,-37.893,M,7.0,0131*68
$PYRTM,2024,127.750868190590,18.860515600729
$GNHDT,113.363,T*2E
$PYRTM,2024,127.750873924803,18.860521334942
$GNGGA,180115.50,3338.55884570,N,11900.89836413,W,2,11,0.9,7.998,M,-37.893,M,7.4,0131*67
$PYRTM,2024,127.750873924803,18.860521334942
$GNHDT,113.068,T*26
$PYRTM,2024,127.750879762569,18.860527172720
$GNGGA,180116.00,3338.55881356,N,11900.89812064,W,2,11,0.9,7.971,M,-37.893,M,7.0,0131*67
$PYRTM,2024,127.750879762569,18.860527172720
$GNHDT,112.907,T*27
$PYRTM,2024,127.750885498519,18.860532908657
$GNGGA,180116.50,3338.55875289,N,11900.89789499,W,2,11,0.9,7.976,M,-37.893,M,7.4,0131*62
$PYRTM,2024,127.750885498519,18.860532908657
$GNHDT,113.195,T*25
$PYRTM,2024,127.750891335336,18.860538745475
$GNGGA,180117.00,3338.55865224,N,11900.89769368,W,2,11,0.9,8.007,M,-37.893,M,7.0,0131*63
$PYRTM,2024,127.750891335336,18.860538745475
$GNHDT,113.671,T*28
$PYRTM,2024,127.750897073981,18.860544484120
$GNGGA,180117.50,3338.55851380,N,11900.89751042,W,2,11,0.9,8.036,M,-37.893,M,7.4,0131*68
$PYRTM,2024,127.750897073981,18.860544484120
$GNHDT,113.919,T*29
$PYRTM,2024,127.750902910000,18.860550320150
$GNGGA,180118.00,3338.55834442,N,11900.89735386,W,2,11,0.9,8.041,M,-37.893,M,4.0,0131*66
$PYRTM,2024,127.750902910000,18.860550320150
$GNHDT,114.186,T*20
$PYRTM,2024,127.750908646701,18.860556056852
$GNGGA,180118.50,3338.55816969,N,11900.89719694,W,2,11,0.9,8.017,M,-37.893,M,4.4,0131*68
$PYRTM,2024,127.750908646701,18.860556056852
$GNHDT,114.390,T*25
$PYRTM,2024,127.750914486192,18.860561896331
$GNGGA,180119.00,3338.55801935,N,11900.89701749,W,2,11,0.9,7.985,M,-37.893,M,5.0,0131*63
$PYRTM,2024,127.750914486192,18.860561896331
$GNHDT,114.389,T*2D
$PYRTM,2024,127.750920233125,18.860567643264
$GNGGA,180119.50,3338.55790892,N,11900.89679962,W,2,11,0.9,7.957,M,-37.893,M,5.4,0131*6F
$PYRTM,2024,127.750920233125,18.860567643264
$GNHDT,114.620,T*2B
$PYRTM,2024,127.750926060938,18.860573471076
$GNGGA,180120.00,3338.55784582,N,11900.89654032,W,2,11,0.9,7.952,M,-37.893,M,6.0,0131*68
$PYRTM,2024,127.750926060938,18.860573471076
$GNHDT,114.508,T*22
$PYRTM,2024,127.750931792431,18.860579202581
$GNGGA,180120.50,3338.55781222,N,11900.89625076,W,2,11,0.9,7.960,M,-37.893,M,6.4,0131*66
$PYRTM,2024,127.750931792431,18.860579202581
$GNHDT,114.280,T*25
$PYRTM,2024,127.750937633981,18.860585044120
$GNGGA,180121.00,3338.55779233,N,11900.89594745,W,2,11,0.9,7.968,M,-37.893,M,7.0,0131*66
$PYRTM,2024,127.750937633981,18.860585044120
$GNHDT,114.034,T*28
$PYRTM,2024,127.750943365868,18.860590776007
$GNGGA,180121.50,3338.55775890,N,11900.89564995,W,2,11,0.9,7.947,M,-37.893,M,7.4,0131*69
$PYRTM,2024,127.750943365868,18.860590776007
$GNHDT,113.662,T*2A
$PYRTM,2024,127.750949207211,18.860596617350
$GNGGA,180122.00,3338.55770390,N,11900.89538616,W,2,11,0.9,7.913,M,-37.893,M,7.0,0131*69
$PYRTM,2024,127.750949207211,18.860596617350
$GNHDT,113.648,T*22
$PYRTM,2024,127.750954940972,18.860602351123
$GNGGA,180122.50,3338.55762040,N,11900.89516368,W,2,11,0.9,7.875,M,-37.893,M,7.4,0131*64
$PYRTM,2024,127.750954940972,18.860602351123
$GNHDT,113.695,T*22
$PYRTM,2024,127.750960785752,18.860608195891
$GNGGA,180123.00,3338.55750290,N,11900.89497022,W,2,11,0.9,7.838,M,-37.893,M,7.0,0131*66
$PYRTM,2024,127.750960785752,18.860608195891
$GNHDT,114.009,T*26
$PYRTM,2024,127.750966514340,18.860613924479
$GNGGA,180123.50,3338.55736279,N,11900.89478602,W,2,11,0.9,7.802,M,-37.893,M,7.4,0131*6C
$PYRTM,2024,127.750966514340,18.860613924479
$GNHDT,114.079,T*21
$PYRTM,2024,127.750972354421,18.860619764560
$GNGGA,180124.00,3338.55721129,N,11900.89460660,W,2,11,0.9,7.780,M,-37.893,M,4.0,0131*61
$PYRTM,2024,127.750972354421,18.860619764560
$GNHDT,114.210,T*2C
$PYRTM,2024,127.750978088356,18.860625498495
$GNGGA,180124.50,3338.55706365,N,11900.89442610,W,2,11,0.9,7.757,M,-37.893,M,4.4,0131*62
$PYRTM,2024,127.750978088356,18.860625498495
$GNHDT,114.390,T*25
$PYRTM,2024,127.750983929363,18.860631339514
$GNGGA,180125.00,3338.55693646,N,11900.89422620,W,2,11,0.9,7.768,M,-37.893,M,5.0,0131*63
$PYRTM,2024,127.750983929363,18.860631339514
$GNHDT,114.479,T*25
$PYRTM,2024,127.750989664352,18.860637074491
$GNGGA,180125.50,3338.55684060,N,11900.89400856,W,2,11,0.9,7.821,M,-37.893,M,5.4,0131*6B
$PYRTM,2024,127.750989664352,18.860637074491
$GNHDT,114.533,T*2A
$PYRTM,2024,127.750995503785,18.860642913924
$GNGGA,180126.00,3338.55677987,N,11900.89376107,W,2,11,0.9,7.884,M,-37.893,M,6.0,0131*62
$PYRTM,2024,127.750995503785,18.860642913924
$GNHDT,114.288,T*2D
$PYRTM,2024,127.751001237720,18.860648647859
$GNGGA,180126.50,3338.55673991,N,11900.89349546,W,2,11,0.9,7.960,M,-37.893,M,6.4,0131*66
$PYRTM,2024,127.751001237720,18.860648647859
$GNHDT,114.260,T*2B
$PYRTM,2024,127.751007078287,18.860654488438
$GNGGA,180127.00,3338.55671490,N,11900.89321871,W,2,11,0.9,8.044,M,-37.893,M,7.0,0131*6E
$PYRTM,2024,127.751007078287,18.860654488438
$GNHDT,114.094,T*22
$PYRTM,2024,127.751012811574,18.860660221713
$GNGGA,180127.50,3338.55666879,N,11900.89294466,W,2,11,0.9,8.104,M,-37.893,M,7.4,0131*62
$PYRTM,2024,127.751012811574,18.860660221713
$GNHDT,113.927,T*24
$PYRTM,2024,127.751018653009,18.860666063148
$GNGGA,180128.00,3338.55659912,N,11900.89268790,W,2,11,0.9,8.133,M,-37.893,M,7.0,0131*61
$PYRTM,2024,127.751018653009,18.860666063148
$GNHDT,113.888,T*20
$PYRTM,2024,127.751024383970,18.860671794120
$GNGGA,180128.50,3338.55649744,N,11900.89245156,W,2,11,0.9,8.150,M,-37.893,M,7.4,0131*6A
$PYRTM,2024,127.751024383970,18.860671794120
$GNHDT,113.978,T*2E
$PYRTM,2024,127.751030224421,18.860677634560
$GNGGA,180129.00,3338.55636296,N,11900.89223366,W,2,11,0.9,8.171,M,-37.893,M,7.0,0131*6A
$PYRTM,2024,127.751030224421,18.860677634560
$GNHDT,114.196,T*21
$PYRTM,2024,127.751035958623,18.860683368762
$GNGGA,180129.50,3338.55621847,N,11900.89202867,W,2,11,0.9,8.198,M,-37.893,M,7.4,0131*65
$PYRTM,2024,127.751035958623,18.860683368762
$GNHDT,114.438,T*20
$PYRTM,2024,127.751041797963,18.860689208102
$GNGGA,180130.00,3338.55608707,N,11900.89182585,W,2,11,0.9,8.243,M,-37.893,M,4.0,0131*60
$PYRTM,2024,127.751041797963,18.860689208102
$GNHDT,114.471,T*2D
$PYRTM,2024,127.751047532917,18.860694943056
$GNGGA,180130.50,3338.55598084,N,11900.89161721,W,2,11,0.9,8.301,M,-37.893,M,4.4,0131*61
$PYRTM,2024,127.751047532917,18.860694943056
$GNHDT,114.810,T*26
$PYRTM,2024,127.751053376400,18.860700786539
$GNGGA,180131.00,3338.55590745,N,11900.89138677,W,2,11,0.9,8.328,M,-37.893,M,5.0,0131*67
$PYRTM,2024,127.751053376400,18.860700786539
$GNHDT,114.732,T*29
$PYRTM,2024,127.751059109282,18.860706519421
$GNGGA,180131.50,3338.55585882,N,11900.89113480,W,2,11,0.9,8.327,M,-37.893,M,5.4,0131*6A
$PYRTM,2024,127.751059109282,18.860706519421
$GNHDT,114.541,T*2F
$PYRTM,2024,127.751064946933,18.860712357072
$GNGGA,180132.00,3338.55582709,N,11900.89086575,W,2,11,0.9,8.279,M,-37.893,M,6.0,0131*6C
$PYRTM,2024,127.751064946933,18.860712357072
$GNHDT,114.460,T*2D
$PYRTM,2024,127.751070683831,18.860718093970
$GNGGA,180132.50,3338.55580122,N,11900.89058964,W,2,11,0.9,8.190,M,-37.893,M,6.4,0131*6B
$PYRTM,2024,127.751070683831,18.860718093970
$GNHDT,114.531,T*28
$PYRTM,2024,127.751076523738,18.860723933889
$GNGGA,180133.00,3338.55577045,N,11900.89032074,W,2,11,0.9,8.084,M,-37.893,M,7.0,0131*62
$PYRTM,2024,127.751076523738,18.860723933889
$GNHDT,114.201,T*2C
$PYRTM,2024,127.751082256725,18.860729666863
$GNGGA,180133.50,3338.55571956,N,11900.89006570,W,2,11,0.9,7.970,M,-37.893,M,7.4,0131*65
$PYRTM,2024,127.751082256725,18.860729666863
$GNHDT,114.066,T*2F
$PYRTM,2024,127.751088096262,18.860735506412
$GNGGA,180134.00,3338.55563982,N,11900.88983283,W,2,11,0.9,7.877,M,-37.893,M,7.0,0131*61
$PYRTM,2024,127.751088096262,18.860735506412
$GNHDT,114.028,T*25
$PYRTM,2024,127.751093830347,18.860741240486
$GNGGA,180134.50,3338.55553959,N,11900.88962820,W,2,11,0.9,7.802,M,-37.893,M,7.4,0131*6B
$PYRTM,2024,127.751093830347,18.860741240486
$GNHDT,114.069,T*20
$PYRTM,2024,127.751099669167,18.860747079306
$GNGGA,180135.00,3338.55541331,N,11900.88944766,W,2,11,0.9,7.761,M,-37.893,M,7.0,0131*6F
$PYRTM,2024,127.751099669167,18.860747079306
$GNHDT,114.051,T*2B
$PYRTM,2024,127.751105407419,18.860752817558
$GNGGA,180135.50,3338.55527394,N,11900.88928616,W,2,11,0.9,7.763,M,-37.893,M,7.4,0131*6F
$PYRTM,2024,127.751105407419,18.860752817558
$GNHDT,114.031,T*2D
$PYRTM,2024,127.751111243947,18.860758654086
$GNGGA,180136.00,3338.55513816,N,11900.88913124,W,2,11,0.9,7.817,M,-37.893,M,4.0,0131*6A
$PYRTM,2024,127.751111243947,18.860758654086
$GNHDT,113.932,T*20
$PYRTM,2024,127.751116977917,18.860764388056
$GNGGA,180136.50,3338.55502131,N,11900.88896449,W,2,11,0.9,7.909,M,-37.893,M,4.4,0131*6B
$PYRTM,2024,127.751116977917,18.860764388056
$GNHDT,113.901,T*20
$PYRTM,2024,127.751122817488,18.860770227627
$GNGGA,180137.00,3338.55492842,N,11900.88876332,W,2,11,0.9,8.040,M,-37.893,M,5.0,0131*61
$PYRTM,2024,127.751122817488,18.860770227627
$GNHDT,113.886,T*2E
$PYRTM,2024,127.751128551181,18.860775961319
$GNGGA,180137.50,3338.55485726,N,11900.88852727,W,2,11,0.9,8.190,M,-37.893,M,5.4,0131*61
$PYRTM,2024,127.751128551181,18.860775961319
$GNHDT,114.019,T*27
$PYRTM,2024,127.751134393854,18.860781803993
$GNGGA,180138.00,3338.55480127,N,11900.88825403,W,2,11,0.9,8.326,M,-37.893,M,6.0,0131*64
$PYRTM,2024,127.751134393854,18.860781803993
$GNHDT,114.193,T*24
$PYRTM,2024,127.751140130116,18.860787540255
$GNGGA,180138.50,3338.55474791,N,11900.88795361,W,2,11,0.9,8.429,M,-37.893,M,6.4,0131*6A
$PYRTM,2024,127.751140130116,18.860787540255
$GNHDT,114.322,T*2C
$PYRTM,2024,127.751145970255,18.860793380394
$GNGGA,180139.00,3338.55468628,N,11900.88765357,W,2,11,0.9,8.462,M,-37.893,M,7.0,0131*60
$PYRTM,2024,127.751145970255,18.860793380394
$GNHDT,114.526,T*2E
$PYRTM,2024,127.751151700440,18.860799110579
$GNGGA,180139.50,3338.55460154,N,11900.88737236,W,2,11,0.9,8.440,M,-37.893,M,7.4,0131*64
$PYRTM,2024,127.751151700440,18.860799110579
$GNHDT,114.700,T*28
$PYRTM,2024,127.751157539201,18.860804949352
$GNGGA,180140.00,3338.55449009,N,11900.88712244,W,2,11,0.9,8.343,M,-37.893,M,7.0,0131*6F
$PYRTM,2024,127.751157539201,18.860804949352
$GNHDT,114.607,T*2E
$PYRTM,2024,127.751163274549,18.860810684688
$GNGGA,180140.50,3338.55436111,N,11900.88689116,W,2,11,0.9,8.196,M,-37.893,M,7.4,0131*63
$PYRTM,2024,127.751163274549,18.860810684688
$GNHDT,114.508,T*22
$PYRTM,2024,127.751169116829,18.860816526968
$GNGGA,180141.00,3338.55422837,N,11900.88667567,W,2,11,0.9,8.005,M,-37.893,M,7.0,0131*62
$PYRTM,2024,127.751169116829,18.860816526968
$GNHDT,114.318,T*25
$PYRTM,2024,127.751174847731,18.860822257870
$GNGGA,180141.50,3338.55411171,N,11900.88645286,W,2,11,0.9,7.808,M,-37.893,M,7.4,0131*6A
$PYRTM,2024,127.751174847731,18.860822257870
$GNHDT,114.240,T*29
$PYRTM,2024,127.751180686968,18.860828097106
$GNGGA,180142.00,3338.55402661,N,11900.88622227,W,2,11,0.9,7.602,M,-37.893,M,4.0,0131*61
$PYRTM,2024,127.751180686968,18.860828097106
$GNHDT,114.062,T*2B
$PYRTM,2024,127.751186423958,18.860833834109
$GNGGA,180142.50,3338.55397100,N,11900.88598840,W,2,11,0.9,7.441,M,-37.893,M,4.4,0131*67
$PYRTM,2024,127.751186423958,18.860833834109
$GNHDT,113.853,T*26
$PYRTM,2024,127.751192260613,18.860839670752
$GNGGA,180143.00,3338.55393379,N,11900.88575401,W,2,11,0.9,7.328,M,-37.893,M,5.0,0131*6C
$PYRTM,2024,127.751192260613,18.860839670752
$GNHDT,113.552,T*2A
$PYRTM,2024,127.751197995602,18.860845405741
$GNGGA,180143.50,3338.55389783,N,11900.88552912,W,2,11,0.9,7.305,M,-37.893,M,5.4,0131*62
$PYRTM,2024,127.751197995602,18.860845405741
$GNHDT,113.587,T*22
$PYRTM,2024,127.751203834433,18.860851244572
$GNGGA,180144.00,3338.55384300,N,11900.88531695,W,2,11,0.9,7.337,M,-37.893,M,6.0,0131*61
$PYRTM,2024,127.751203834433,18.860851244572
$GNHDT,113.374,T*28
$PYRTM,2024,127.751209574769,18.860856984919
$GNGGA,180144.50,3338.55375364,N,11900.88512313,W,2,11,0.9,7.428,M,-37.893,M,6.4,0131*6F
$PYRTM,2024,127.751209574769,18.860856984919
$GNHDT,113.393,T*21
$PYRTM,2024,127.751215410567,18.860862820718
$GNGGA,180145.00,3338.55361997,N,11900.88494666,W,2,11,0.9,7.568,M,-37.893,M,7.0,0131*60
$PYRTM,2024,127.751215410567,18.860862820718
$GNHDT,113.753,T*29
$PYRTM,2024,127.751221145764,18.860868555903
$GNGGA,180145.50,3338.55345391,N,11900.88477448,W,2,11,0.9,7.724,M,-37.893,M,7.4,0131*62
$PYRTM,2024,127.751221145764,18.860868555903
$GNHDT,113.997,T*2F
$PYRTM,2024,127.751226986667,18.860874396806
$GNGGA,180146.00,3338.55326651,N,11900.88460244,W,2,11,0.9,7.892,M,-37.893,M,7.0,0131*62
$PYRTM,2024,127.751226986667,18.860874396806
$GNHDT,114.219,T*25
$PYRTM,2024,127.751232720428,18.860880130567
$GNGGA,180146.50,3338.55309153,N,11900.88441743,W,2,11,0.9,8.069,M,-37.893,M,7.4,0131*69
$PYRTM,2024,127.751232720428,18.860880130567
$GNHDT,114.423,T*2A
$PYRTM,2024,127.751238557836,18.860885967975
$GNGGA,180147.00,3338.55294173,N,11900.88419944,W,2,11,0.9,8.265,M,-37.893,M,7.0,0131*64
$PYRTM,2024,127.751238557836,18.860885967975
$GNHDT,114.541,T*2F
$PYRTM,2024,127.751244292269,18.860891702407
$GNGGA,180147.50,3338.55284065,N,11900.88394530,W,2,11,0.9,8.434,M,-37.893,M,7.4,0131*6D
$PYRTM,2024,127.751244292269,18.860891702407
$GNHDT,114.471,T*2D
$PYRTM,2024,127.751250132257,18.860897542396
$GNGGA,180148.00,3338.55278762,N,11900.88365187,W,2,11,0.9,8.586,M,-37.893,M,4.0,0131*6D
$PYRTM,2024,127.751250132257,18.860897542396
$GNHDT,114.330,T*2F
$PYRTM,2024,127.751255870336,18.860903280475
$GNGGA,180148.50,3338.55276995,N,11900.88332243,W,2,11,0.9,8.687,M,-37.893,M,4.4,0131*6F
$PYRTM,2024,127.751255870336,18.860903280475
$GNHDT,114.159,T*22
$PYRTM,2024,127.751261704769,18.860909114907
$GNGGA,180149.00,3338.55277856,N,11900.88297128,W,2,11,0.9,8.721,M,-37.893,M,5.0,0131*6C
$PYRTM,2024,127.751261704769,18.860909114907
$GNHDT,113.974,T*22
$PYRTM,2024,127.751267443854,18.860914853993
$GNGGA,180149.50,3338.55278569,N,11900.88262133,W,2,11,0.9,8.676,M,-37.893,M,5.4,0131*60
$PYRTM,2024,127.751267443854,18.860914853993
$GNHDT,113.785,T*22
$PYRTM,2024,127.751273284410,18.860920694549
$GNGGA,180150.00,3338.55277559,N,11900.88228860,W,2,11,0.9,8.549,M,-37.893,M,6.0,0131*68
$PYRTM,2024,127.751273284410,18.860920694549
$GNHDT,113.370,T*2C
$PYRTM,2024,127.751279013090,18.860926423229
$GNGGA,180150.50,3338.55273173,N,11900.88201308,W,2,11,0.9,8.353,M,-37.893,M,6.4,0131*62
$PYRTM,2024,127.751279013090,18.860926423229
$GNHDT,113.487,T*23
$PYRTM,2024,127.751284853160,18.860932263299
$GNGGA,180151.00,3338.55264636,N,11900.88180936,W,2,11,0.9,8.129,M,-37.893,M,7.0,0131*61
$PYRTM,2024,127.751284853160,18.860932263299
$GNHDT,113.314,T*2E
$PYRTM,2024,127.751290588148,18.860937998299
$GNGGA,180151.50,3338.55252800,N,11900.88166282,W,2,11,0.9,7.908,M,-37.893,M,7.4,0131*66
$PYRTM,2024,127.751290588148,18.860937998299
$GNHDT,113.121,T*2A
$PYRTM,2024,127.751296429259,18.860943839398
$GNGGA,180152.00,3338.55238359,N,11900.88154938,W,2,11,0.9,7.708,M,-37.893,M,7.0,0131*6A
$PYRTM,2024,127.751296429259,18.860943839398
$GNHDT,113.220,T*28
$PYRTM,2024,127.751302161505,18.860949571644
$GNGGA,180152.50,3338.55224173,N,11900.88142986,W,2,11,0.9,7.571,M,-37.893,M,7.4,0131*62
$PYRTM,2024,127.751302161505,18.860949571644
$GNHDT,112.989,T*21
$PYRTM,2024,127.751308003681,18.860955413819
$GNGGA,180153.00,3338.55212885,N,11900.88127499,W,2,11,0.9,7.511,M,-37.893,M,7.0,0131*61
$PYRTM,2024,127.751308003681,18.860955413819
$GNHDT,113.103,T*2A
$PYRTM,2024,127.751313735023,18.860961145162
$GNGGA,180153.50,3338.55206034,N,11900.88106966,W,2,11,0.9,7.556,M,-37.893,M,7.4,0131*6A
$PYRTM,2024,127.751313735023,18.860961145162
$GNHDT,113.213,T*28
$PYRTM,2024,127.751319581435,18.860966991574
$GNGGA,180154.00,3338.55203185,N,11900.88082116,W,2,11,0.9,7.727,M,-37.893,M,4.0,0131*67
$PYRTM,2024,127.751319581435,18.860966991574
$GNHDT,113.429,T*27
$PYRTM,2024,127.751325310718,18.860972720856
$GNGGA,180154.50,3338.55202433,N,11900.88056141,W,2,11,0.9,7.958,M,-37.893,M,4.4,0131*62
$PYRTM,2024,127.751325310718,18.860972720856
$GNHDT,113.377,T*2B
$PYRTM,2024,127.751331150185,18.860978560324
$GNGGA,180155.00,3338.55200687,N,11900.88030523,W,2,11,0.9,8.193,M,-37.893,M,5.0,0131*6C
$PYRTM,2024,127.751331150185,18.860978560324
$GNHDT,113.401,T*2D
$PYRTM,2024,127.751336886736,18.860984296875
$GNGGA,180155.50,3338.55195030,N,11900.88005862,W,2,11,0.9,8.390,M,-37.893,M,5.4,0131*67
$PYRTM,2024,127.751336886736,18.860984296875
$GNHDT,113.289,T*2B
$PYRTM,2024,127.751342724965,18.860990135104
$GNGGA,180156.00,3338.55184189,N,11900.87981748,W,2,11,0.9,8.501,M,-37.893,M,6.0,0131*66
$PYRTM,2024,127.751342724965,18.860990135104
$GNHDT,113.504,T*29
$PYRTM,2024,127.751348462245,18.860995872396
$GNGGA,180156.50,3338.55168377,N,11900.87957488,W,2,11,0.9,8.496,M,-37.893,M,6.4,0131*6D
$PYRTM,2024,127.751348462245,18.860995872396
$GNHDT,113.785,T*22
$PYRTM,2024,127.751354297836,18.861001707975
$GNGGA,180157.00,3338.55149404,N,11900.87932962,W,2,11,0.9,8.371,M,-37.893,M,7.0,0131*68
$PYRTM,2024,127.751354297836,18.861001707975
$GNHDT,113.883,T*2B
$PYRTM,2024,127.751360032963,18.861007443102
$GNGGA,180157.50,3338.55129982,N,11900.87907535,W,2,11,0.9,8.186,M,-37.893,M,7.4,0131*6E
$PYRTM,2024,127.751360032963,18.861007443102
$GNHDT,114.085,T*22
$PYRTM,2024,127.751365873113,18.861013283252
$GNGGA,180158.00,3338.55114192,N,11900.87881151,W,2,11,0.9,7.986,M,-37.893,M,7.0,0131*69
$PYRTM,2024,127.751365873113,18.861013283252
$GNHDT,114.192,T*25
$PYRTM,2024,127.751371606586,18.861019016725
$GNGGA,180158.50,3338.55103619,N,11900.87854154,W,2,11,0.9,7.841,M,-37.893,M,7.4,0131*6D
$PYRTM,2024,127.751371606586,18.861019016725
$GNHDT,114.119,T*26
$PYRTM,2024,127.751377447280,18.861024857419
$GNGGA,180159.00,3338.55098987,N,11900.87827073,W,2,11,0.9,7.739,M,-37.893,M,7.0,0131*66
$PYRTM,2024,127.751377447280,18.861024857419
$GNHDT,113.896,T*2F
$PYRTM,2024,127.751383179630,18.861030589769
$GNGGA,180159.50,3338.55098015,N,11900.87801016,W,2,11,0.9,7.676,M,-37.893,M,7.4,0131*68
$PYRTM,2024,127.751383179630,18.861030589769
$GNHDT,113.446,T*2E
$PYRTM,2024,127.751389021377,18.861036431516
$GNGGA,180200.00,3338.55098089,N,11900.87776287,W,2,11,0.9,7.616,M,-37.893,M,4.0,0131*63
$PYRTM,2024,127.751389021377,18.861036431516
$GNHDT,113.087,T*27
$PYRTM,2024,127.751394754884,18.861042165035
$GNGGA,180200.50,3338.55095861,N,11900.87753270,W,2,11,0.9,7.533,M,-37.893,M,4.4,0131*6A
$PYRTM,2024,127.751394754884,18.861042165035
$GNHDT,112.696,T*20
$PYRTM,2024,127.751400593738,18.861048003877
$GNGGA,180201.00,3338.55089247,N,11900.87732266,W,2,11,0.9,7.446,M,-37.893,M,5.0,0131*6B
$PYRTM,2024,127.751400593738,18.861048003877
$GNHDT,112.577,T*2C
$PYRTM,2024,127.751406329560,18.861053739699
$GNGGA,180201.50,3338.55078810,N,11900.87713554,W,2,11,0.9,7.379,M,-37.893,M,5.4,0131*62
$PYRTM,2024,127.751406329560,18.861053739699
$GNHDT,112.446,T*2F
$PYRTM,2024,127.751412168600,18.861059578738
$GNGGA,180202.00,3338.55064938,N,11900.87697700,W,2,11,0.9,7.390,M,-37.893,M,6.0,0131*6C
$PYRTM,2024,127.751412168600,18.861059578738
$GNHDT,112.537,T*28
$PYRTM,2024,127.751417902118,18.861065312257
$GNGGA,180202.50,3338.55050285,N,11900.87682583,W,2,11,0.9,7.502,M,-37.893,M,6.4,0131*67
$PYRTM,2024,127.751417902118,18.861065312257
$GNHDT,112.810,T*20
$PYRTM,2024,127.751423744884,18.861071155023
$GNGGA,180203.00,3338.55036843,N,11900.87667388,W,2,11,0.9,7.727,M,-37.893,M,7.0,0131*65
$PYRTM,2024,127.751423744884,18.861071155023
$GNHDT,113.119,T*21
$PYRTM,2024,127.751429479468,18.861076889606
$GNGGA,180203.50,3338.55025455,N,11900.87650419,W,2,11,0.9,8.012,M,-37.893,M,7.4,0131*68
$PYRTM,2024,127.751429479468,18.861076889606
$GNHDT,113.500,T*2D
$PYRTM,2024,127.751435318785,18.861082728924
$GNGGA,180204.00,3338.55015770,N,11900.87630847,W,2,11,0.9,8.288,M,-37.893,M,7.0,0131*69
$PYRTM,2024,127.751435318785,18.861082728924
$GNHDT,113.716,T*28
$PYRTM,2024,127.751441055509,18.861088465648
$GNGGA,180204.50,3338.55007446,N,11900.87606904,W,2,11,0.9,8.502,M,-37.893,M,7.4,0131*6B
$PYRTM,2024,127.751441055509,18.861088465648
$GNHDT,113.954,T*20
$PYRTM,2024,127.751446891343,18.861094301481
$GNGGA,180205.00,3338.54999496,N,11900.87578800,W,2,11,0.9,8.591,M,-37.893,M,7.0,0131*6C
$PYRTM,2024,127.751446891343,18.861094301481
$GNHDT,114.146,T*2C
$PYRTM,2024,127.751452625602,18.861100035741
$GNGGA,180205.50,3338.54991573,N,11900.87547721,W,2,11,0.9,8.574,M,-37.893,M,7.4,0131*64
$PYRTM,2024,127.751452625602,18.861100035741
$GNHDT,113.881,T*29
$PYRTM,2024,127.751458467257,18.861105877407
$GNGGA,180206.00,3338.54984025,N,11900.87514126,W,2,11,0.9,8.469,M,-37.893,M,4.0,0131*6D
$PYRTM,2024,127.751458467257,18.861105877407
$GNHDT,113.712,T*2C
$PYRTM,2024,127.751464200613,18.861111610764
$GNGGA,180206.50,3338.54978100,N,11900.87480628,W,2,11,0.9,8.334,M,-37.893,M,4.4,0131*63
$PYRTM,2024,127.751464200613,18.861111610764
$GNHDT,113.589,T*2C
$PYRTM,2024,127.751470040266,18.861117450405
$GNGGA,180207.00,3338.54973935,N,11900.87449178,W,2,11,0.9,8.193,M,-37.893,M,5.0,0131*6F
$PYRTM,2024,127.751470040266,18.861117450405
$GNHDT,113.379,T*25
$PYRTM,2024,127.751475772650,18.861123182789
$GNGGA,180207.50,3338.54971069,N,11900.87420794,W,2,11,0.9,8.067,M,-37.893,M,5.4,0131*6D
$PYRTM,2024,127.751475772650,18.861123182789
$GNHDT,113.003,T*2B
$PYRTM,2024,127.751481613611,18.861129023750
$GNGGA,180208.00,3338.54966883,N,11900.87395737,W,2,11,0.9,7.947,M,-37.893,M,6.0,0131*6E
$PYRTM,2024,127.751481613611,18.861129023750
$GNHDT,112.676,T*2E
$PYRTM,2024,127.751487350324,18.861134760463
$GNGGA,180208.50,3338.54959952,N,11900.87374317,W,2,11,0.9,7.819,M,-37.893,M,6.4,0131*6D
$PYRTM,2024,127.751487350324,18.861134760463
$GNHDT,112.707,T*29
$PYRTM,2024,127.751493187280,18.861140597431
$GNGGA,180209.00,3338.54949090,N,11900.87355607,W,2,11,0.9,7.672,M,-37.893,M,7.0,0131*6E
$PYRTM,2024,127.751493187280,18.861140597431
$GNHDT,112.667,T*2E
$PYRTM,2024,127.751498913530,18.861146323669
$GNGGA,180209.50,3338.54936002,N,11900.87337616,W,2,11,0.9,7.557,M,-37.893,M,7.4,0131*6C
$PYRTM,2024,127.751498913530,18.861146323669
$GNHDT,112.638,T*24
$PYRTM,2024,127.751504751285,18.861152161424
$GNGGA,180210.00,3338.54922392,N,11900.87320020,W,2,11,0.9,7.523,M,-37.893,M,7.0,0131*6C
$PYRTM,2024,127.751504751285,18.861152161424
$GNHDT,112.808,T*29
$PYRTM,2024,127.751510492477,18.861157902627
$GNGGA,180210.50,3338.54911237,N,11900.87301838,W,2,11,0.9,7.614,M,-37.893,M,7.4,0131*66
$PYRTM,2024,127.751510492477,18.861157902627
$GNHDT,112.757,T*2C
$PYRTM,2024,127.751516321736,18.861163731875
$GNGGA,180211.00,3338.54903526,N,11900.87281880,W,2,11,0.9,7.835,M,-37.893,M,7.0,0131*65
$PYRTM,2024,127.751516321736,18.861163731875
$GNHDT,112.898,T*20
$PYRTM,2024,127.751522061667,18.861169471817
$GNGGA,180211.50,3338.54898876,N,11900.87260033,W,2,11,0.9,8.142,M,-37.893,M,7.4,0131*66
$PYRTM,2024,127.751522061667,18.861169471817
$GNHDT,113.101,T*28
$PYRTM,2024,127.751527898426,18.861175308565
$GNGGA,180212.00,3338.54895105,N,11900.87236660,W,2,11,0.9,8.453,M,-37.893,M,4.0,0131*61
$PYRTM,2024,127.751527898426,18.861175308565
$GNHDT,113.154,T*28
$PYRTM,2024,127.751533632164,18.861181042303
$GNGGA,180212.50,3338.54889942,N,11900.87211715,W,2,11,0.9,8.663,M,-37.893,M,4.4,0131*61
$PYRTM,2024,127.751533632164,18.861181042303
$GNHDT,113.511,T*2D
$PYRTM,2024,127.751539470347,18.861186880486
$GNGGA,180213.00,3338.54882518,N,11900.87185676,W,2,11,0.9,8.739,M,-37.893,M,5.0,0131*6C
$PYRTM,2024,127.751539470347,18.861186880486
$GNHDT,113.448,T*20
$PYRTM,2024,127.751545209456,18.861192619595
$GNGGA,180213.50,3338.54873159,N,11900.87158914,W,2,11,0.9,8.681,M,-37.893,M,5.4,0131*6B
$PYRTM,2024,127.751545209456,18.861192619595
$GNHDT,113.125,T*2E
$PYRTM,2024,127.751551044178,18.861198454317
$GNGGA,180214.00,3338.54862451,N,11900.87131780,W,2,11,0.9,8.515,M,-37.893,M,6.0,0131*61
$PYRTM,2024,127.751551044178,18.861198454317
$GNHDT,113.101,T*28
$PYRTM,2024,127.751556779606,18.861204189745
$GNGGA,180214.50,3338.54852526,N,11900.87104168,W,2,11,0.9,8.331,M,-37.893,M,6.4,0131*64
$PYRTM,2024,127.751556779606,18.861204189745
$GNHDT,113.087,T*27
$PYRTM,2024,127.751562622153,18.861210032292
$GNGGA,180215.00,3338.54844206,N,11900.87077428,W,2,11,0.9,8.170,M,-37.893,M,7.0,0131*64
$PYRTM,2024,127.751562622153,18.861210032292
$GNHDT,112.891,T*29
$PYRTM,2024,127.751568354861,18.861215765000
$GNGGA,180215.50,3338.54837772,N,11900.87052160,W,2,11,0.9,8.066,M,-37.893,M,7.4,0131*6F
$PYRTM,2024,127.751568354861,18.861215765000
$GNHDT,112.731,T*2C
$PYRTM,2024,127.751574192743,18.861221602894
$GNGGA,180216.00,3338.54832211,N,11900.87028680,W,2,11,0.9,8.004,M,-37.893,M,7.0,0131*68
$PYRTM,2024,127.751574192743,18.861221602894
$GNHDT,112.684,T*23
$PYRTM,2024,127.751579928542,18.861227338681
$GNGGA,180216.50,3338.54826946,N,11900.87006615,W,2,11,0.9,7.955,M,-37.893,M,7.4,0131*67
$PYRTM,2024,127.751579928542,18.861227338681
$GNHDT,112.657,T*2D
$PYRTM,2024,127.751585767060,18.861233177199
$GNGGA,180217.00,3338.54821181,N,11900.86985752,W,2,11,0.9,7.912,M,-37.893,M,7.0,0131*61
$PYRTM,2024,127.751585767060,18.861233177199
$GNHDT,112.747,T*2D
$PYRTM,2024,127.751591503866,18.861238914005
$GNGGA,180217.50,3338.54814476,N,11900.86965424,W,2,11,0.9,7.844,M,-37.893,M,7.4,0131*65
$PYRTM,2024,127.751591503866,18.861238914005
$GNHDT,112.826,T*25
$PYRTM,2024,127.751597344861,18.861244755000
$GNGGA,180218.00,3338.54806205,N,11900.86946010,W,2,11,0.9,7.770,M,-37.893,M,4.0,0131*63
$PYRTM,2024,127.751597344861,18.861244755000
$GNHDT,112.937,T*24
$PYRTM,2024,127.751603077373,18.861250487512
$GNGGA,180218.50,3338.54796035,N,11900.86927613,W,2,11,0.9,7.697,M,-37.893,M,4.4,0131*6F
$PYRTM,2024,127.751603077373,18.861250487512
$GNHDT,113.090,T*21
$PYRTM,2024,127.751608917836,18.861256327975
$GNGGA,180219.00,3338.54783923,N,11900.86909490,W,2,11,0.9,7.647,M,-37.893,M,5.0,0131*6C
$PYRTM,2024,127.751608917836,18.861256327975
$GNHDT,113.186,T*27
$PYRTM,2024,127.751614651076,18.861262061215
$GNGGA,180219.50,3338.54770581,N,11900.86891196,W,2,11,0.9,7.609,M,-37.893,M,5.4,0131*6C
$PYRTM,2024,127.751614651076,18.861262061215
$GNHDT,113.083,T*23
$PYRTM,2024,127.751620488669,18.861267898808
$GNGGA,180220.00,3338.54756627,N,11900.86871812,W,2,11,0.9,7.600,M,-37.893,M,6.0,0131*6D
$PYRTM,2024,127.751620488669,18.861267898808
$GNHDT,112.978,T*2F
$PYRTM,2024,127.751626226586,18.861273636725
$GNGGA,180220.50,3338.54743746,N,11900.86850472,W,2,11,0.9,7.620,M,-37.893,M,6.4,0131*65
$PYRTM,2024,127.751626226586,18.861273636725
$GNHDT,112.929,T*2B
$PYRTM,2024,127.751632062315,18.861279472454
$GNGGA,180221.00,3338.54733155,N,11900.86827033,W,2,11,0.9,7.681,M,-37.893,M,7.0,0131*6D
$PYRTM,2024,127.751632062315,18.861279472454
$GNHDT,112.781,T*27
$PYRTM,2024,127.751637799051,18.861285209190
$GNGGA,180221.50,3338.54725279,N,11900.86801771,W,2,11,0.9,7.789,M,-37.893,M,7.4,0131*6A
$PYRTM,2024,127.751637799051,18.861285209190
$GNHDT,112.740,T*2A
$PYRTM,2024,127.751643635521,18.861291045660
$GNGGA,180222.00,3338.54719387,N,11900.86775750,W,2,11,0.9,7.948,M,-37.893,M,7.0,0131*6B
$PYRTM,2024,127.751643635521,18.861291045660
$GNHDT,112.826,T*25
$PYRTM,2024,127.751649373044,18.861296783183
$GNGGA,180222.50,3338.54714202,N,11900.86749669,W,2,11,0.9,8.109,M,-37.893,M,7.4,0131*6D
$PYRTM,2024,127.751649373044,18.861296783183
$GNHDT,113.094,T*25
$PYRTM,2024,127.751655214583,18.861302624722
$GNGGA,180223.00,3338.54708157,N,11900.86723527,W,2,11,0.9,8.267,M,-37.893,M,7.0,0131*6D
$PYRTM,2024,127.751655214583,18.861302624722
$GNHDT,113.267,T*2B
$PYRTM,2024,127.751660947604,18.861308357743
$GNGGA,180223.50,3338.54699912,N,11900.86698878,W,2,11,0.9,8.369,M,-37.893,M,7.4,0131*65
$PYRTM,2024,127.751660947604,18.861308357743
$GNHDT,113.553,T*2B
$PYRTM,2024,127.751666786840,18.861314196979
$GNGGA,180224.00,3338.54689289,N,11900.86675308,W,2,11,0.9,8.417,M,-37.893,M,4.0,0131*69
$PYRTM,2024,127.751666786840,18.861314196979
$GNHDT,113.640,T*2A
$PYRTM,2024,127.751672522303,18.861319932442
$GNGGA,180224.50,3338.54678056,N,11900.86652406,W,2,11,0.9,8.403,M,-37.893,M,4.4,0131*6F
$PYRTM,2024,127.751672522303,18.861319932442
$GNHDT,113.303,T*28
$PYRTM,2024,127.751678361840,18.861325771991
$GNGGA,180225.00,3338.54667357,N,11900.86629790,W,2,11,0.9,8.350,M,-37.893,M,5.0,0131*63
$PYRTM,2024,127.751678361840,18.861325771991
$GNHDT,113.051,T*2C
$PYRTM,2024,127.751684096470,18.861331506609
$GNGGA,180225.50,3338.54658666,N,11900.86605877,W,2,11,0.9,8.279,M,-37.893,M,5.4,0131*6B
$PYRTM,2024,127.751684096470,18.861331506609
$GNHDT,112.963,T*25
$PYRTM,2024,127.751689934630,18.861337344769
$GNGGA,180226.00,3338.54652452,N,11900.86580673,W,2,11,0.9,8.208,M,-37.893,M,6.0,0131*67
$PYRTM,2024,127.751689934630,18.861337344769
$GNHDT,112.902,T*22
$PYRTM,2024,127.751695669954,18.861343080093
$GNGGA,180226.50,3338.54649105,N,11900.86554686,W,2,11,0.9,8.169,M,-37.893,M,6.4,0131*6C
$PYRTM,2024,127.751695669954,18.861343080093
$GNHDT,112.843,T*26
$PYRTM,2024,127.751701506725,18.861348916863
$GNGGA,180227.00,3338.54647376,N,11900.86529292,W,2,11,0.9,8.174,M,-37.893,M,7.0,0131*62
$PYRTM,2024,127.751701506725,18.861348916863
$GNHDT,112.838,T*2A
$PYRTM,2024,127.751707243275,18.861354653414
$GNGGA,180227.50,3338.54644940,N,11900.86505947,W,2,11,0.9,8.216,M,-37.893,M,7.4,0131*65
$PYRTM,2024,127.751707243275,18.861354653414
$GNHDT,113.114,T*2C
$PYRTM,2024,127.751713082234,18.861360492373
$GNGGA,180228.00,3338.54641441,N,11900.86484566,W,2,11,0.9,8.272,M,-37.893,M,7.0,0131*67
$PYRTM,2024,127.751713082234,18.861360492373
$GNHDT,113.234,T*2D
$PYRTM,2024,127.751718817431,18.861366227569
$GNGGA,180228.50,3338.54635872,N,11900.86464476,W,2,11,0.9,8.325,M,-37.893,M,7.4,0131*64
$PYRTM,2024,127.751718817431,18.861366227569
$GNHDT,113.388,T*2B
$PYRTM,2024,127.751724658542,18.861372068681
