$PYRTM,2024,125.166666761366,16.276314171505
$GNGGA,040000.00,3511.77836865,N,12148.68067620,W,2,12,0.8,8.731,M,-38.496,M,5.0,0131*61
$PYRTM,2024,125.166666761366,16.276314171505
$GNHDT,306.261,T*2B
$PYRTM,2024,125.166672489699,16.276319899838
$GNGGA,040000.50,3511.77864492,N,12148.68071583,W,2,12,0.8,8.732,M,-38.496,M,5.4,0131*6D
$PYRTM,2024,125.166672489699,16.276319899838
$GNHDT,306.419,T*22
$PYRTM,2024,125.166678335660,16.276325745799
$GNGGA,040001.00,3511.77891794,N,12148.68083960,W,2,12,0.8,8.572,M,-38.496,M,6.0,0131*6B
$PYRTM,2024,125.166678335660,16.276325745799
$GNHDT,306.414,T*2F
$PYRTM,2024,125.166684067234,16.276331477373
$GNGGA,040001.50,3511.77911967,N,12148.68108795,W,2,12,0.8,8.343,M,-38.496,M,6.4,0131*63
$PYRTM,2024,125.166684067234,16.276331477373
$GNHDT,306.279,T*22
$PYRTM,2024,125.166689908646,16.276337318785
$GNGGA,040002.00,3511.77922255,N,12148.68143382,W,2,12,0.8,8.179,M,-38.496,M,7.0,0131*6C
$PYRTM,2024,125.166689908646,16.276337318785
$GNHDT,306.156,T*2C
$PYRTM,2024,125.166695643484,16.276343053623
$GNGGA,040002.50,3511.77922780,N,12148.68181306,W,2,12,0.8,8.144,M,-38.496,M,7.4,0131*6C
$PYRTM,2024,125.166695643484,16.276343053623
$GNHDT,305.631,T*29
$PYRTM,2024,125.166701490475,16.276348900613
$GNGGA,040003.00,3511.77920263,N,12148.68214490,W,2,12,0.8,8.256,M,-38.496,M,7.0,0131*61
$PYRTM,2024,125.166701490475,16.276348900613
$GNHDT,306.025,T*29
$PYRTM,2024,125.166707217211,16.276354627350
$GNGGA,040003.50,3511.77922705,N,12148.68237820,W,2,12,0.8,8.479,M,-38.496,M,7.4,0131*6A
$PYRTM,2024,125.166707217211,16.276354627350
$GNHDT,306.477,T*2A
$PYRTM,2024,125.166713055278,16.276360465417
$GNGGA,040004.00,3511.77936272,N,12148.68249158,W,2,12,0.8,8.746,M,-38.496,M,7.0,0131*6C
$PYRTM,2024,125.166713055278,16.276360465417
$GNHDT,306.651,T*2C
$PYRTM,2024,125.166718786759,16.276366196898
$GNGGA,040004.50,3511.77961187,N,12148.68252070,W,2,12,0.8,8.957,M,-38.496,M,7.4,0131*69
$PYRTM,2024,125.166718786759,16.276366196898
$GNHDT,307.020,T*2D
$PYRTM,2024,125.166724632604,16.276372042743
$GNGGA,040005.00,3511.77992982,N,12148.68252927,W,2,12,0.8,9.027,M,-38.496,M,4.0,0131*6F
$PYRTM,2024,125.166724632604,16.276372042743
$GNHDT,307.528,T*20
$PYRTM,2024,125.166730360718,16.276377770856
$GNGGA,040005.50,3511.78024866,N,12148.68260093,W,2,12,0.8,8.888,M,-38.496,M,4.4,0131*65
$PYRTM,2024,125.166730360718,16.276377770856
$GNHDT,307.581,T*23
$PYRTM,2024,125.166736205752,16.276383615891
$GNGGA,040006.00,3511.78051415,N,12148.68276994,W,2,12,0.8,8.556,M,-38.496,M,5.0,0131*6B
$PYRTM,2024,125.166736205752,16.276383615891
$GNHDT,307.393,T*26
$PYRTM,2024,125.166741939699,16.276389349850
$GNGGA,040006.50,3511.78069551,N,12148.68303170,W,2,12,0.8,8.149,M,-38.496,M,5.4,0131*6B
$PYRTM,2024,125.166741939699,16.276389349850
$GNHDT,307.156,T*2D
$PYRTM,2024,125.166747782222,16.276395192361
$GNGGA,040007.00,3511.78078507,N,12148.68336814,W,2,12,0.8,7.797,M,-38.496,M,6.0,0131*6C
$PYRTM,2024,125.166747782222,16.276395192361
$GNHDT,307.372,T*29
$PYRTM,2024,125.166753513148,16.276400923287
$GNGGA,040007.50,3511.78080392,N,12148.68372639,W,2,12,0.8,7.632,M,-38.496,M,6.4,0131*6F
$PYRTM,2024,125.166753513148,16.276400923287
$GNHDT,307.456,T*28
$PYRTM,2024,125.166759351771,16.276406761910
$GNGGA,040008.00,3511.78077855,N,12148.68405159,W,2,12,0.8,7.704,M,-38.496,M,7.0,0131*6A
$PYRTM,2024,125.166759351771,16.276406761910
$GNHDT,307.659,T*25
$PYRTM,2024,125.166765087338,16.276412497477
$GNGGA,040008.50,3511.78078610,N,12148.68429689,W,2,12,0.8,7.948,M,-38.496,M,7.4,0131*69
$PYRTM,2024,125.166765087338,16.276412497477
$GNHDT,307.548,T*26
$PYRTM,2024,125.166770935625,16.276418345764
$GNGGA,040009.00,3511.78087828,N,12148.68444299,W,2,12,0.8,8.303,M,-38.496,M,7.0,0131*68
$PYRTM,2024,125.166770935625,16.276418345764
$GNHDT,307.497,T*25
$PYRTM,2024,125.166776666806,16.276424076956
$GNGGA,040009.50,3511.78107606,N,12148.68451668,W,2,12,0.8,8.609,M,-38.496,M,7.4,0131*63
$PYRTM,2024,125.166776666806,16.276424076956
$GNHDT,307.662,T*2D
$PYRTM,2024,125.166782507847,16.276429917986
$GNGGA,040010.00,3511.78136137,N,12148.68453668,W,2,12,0.8,8.784,M,-38.496,M,7.0,0131*6B
$PYRTM,2024,125.166782507847,16.276429917986
$GNHDT,308.002,T*22
$PYRTM,2024,125.166788236644,16.276435646794
$GNGGA,040010.50,3511.78167091,N,12148.68457261,W,2,12,0.8,8.783,M,-38.496,M,7.4,0131*6D
$PYRTM,2024,125.166788236644,16.276435646794
$GNHDT,308.213,T*20
$PYRTM,2024,125.166794075961,16.276441486100
$GNGGA,040011.00,3511.78195551,N,12148.68464443,W,2,12,0.8,8.616,M,-38.496,M,4.0,0131*61
$PYRTM,2024,125.166794075961,16.276441486100
$GNHDT,308.528,T*2F
$PYRTM,2024,125.166799812708,16.276447222847
$GNGGA,040011.50,3511.78216252,N,12148.68480271,W,2,12,0.8,8.365,M,-38.496,M,4.4,0131*60
$PYRTM,2024,125.166799812708,16.276447222847
$GNHDT,308.387,T*2C
$PYRTM,2024,125.166805658148,16.276453068287
$GNGGA,040012.00,3511.78226639,N,12148.68506868,W,2,12,0.8,8.109,M,-38.496,M,5.0,0131*6C
$PYRTM,2024,125.166805658148,16.276453068287
$GNHDT,308.337,T*27
$PYRTM,2024,125.166811379051,16.276458789190
$GNGGA,040012.50,3511.78226581,N,12148.68541198,W,2,12,0.8,7.986,M,-38.496,M,5.4,0131*68
$PYRTM,2024,125.166811379051,16.276458789190
$GNHDT,307.786,T*26
$PYRTM,2024,125.166817228194,16.276464638333
$GNGGA,040013.00,3511.78220302,N,12148.68575999,W,2,12,0.8,7.971,M,-38.496,M,6.0,0131*66
$PYRTM,2024,125.166817228194,16.276464638333
$GNHDT,307.888,T*27
$PYRTM,2024,125.166822957604,16.276470367743
$GNGGA,040013.50,3511.78217037,N,12148.68605413,W,2,12,0.8,8.072,M,-38.496,M,6.4,0131*68
$PYRTM,2024,125.166822957604,16.276470367743
$GNHDT,307.997,T*28
$PYRTM,2024,125.166828800382,16.276476210509
$GNGGA,040014.00,3511.78223982,N,12148.68623709,W,2,12,0.8,8.219,M,-38.496,M,7.0,0131*6C
$PYRTM,2024,125.166828800382,16.276476210509
$GNHDT,308.339,T*29
$PYRTM,2024,125.166834527292,16.276481937442
$GNGGA,040014.50,3511.78245272,N,12148.68632555,W,2,12,0.8,8.354,M,-38.496,M,7.4,0131*6A
$PYRTM,2024,125.166834527292,16.276481937442
$GNHDT,308.628,T*2C
$PYRTM,2024,125.166840372419,16.276487782558
$GNGGA,040015.00,3511.78276998,N,12148.68636762,W,2,12,0.8,8.352,M,-38.496,M,7.0,0131*61
$PYRTM,2024,125.166840372419,16.276487782558
$GNHDT,308.462,T*20
$PYRTM,2024,125.166846101065,16.276493511204
$GNGGA,040015.50,3511.78314913,N,12148.68642572,W,2,12,0.8,8.175,M,-38.496,M,7.4,0131*61
$PYRTM,2024,125.166846101065,16.276493511204
$GNHDT,308.921,T*2A
$PYRTM,2024,125.166851943819,16.276499353958
$GNGGA,040016.00,3511.78351931,N,12148.68656773,W,2,12,0.8,7.864,M,-38.496,M,7.0,0131*62
$PYRTM,2024,125.166851943819,16.276499353958
$GNHDT,308.603,T*25
$PYRTM,2024,125.166857675741,16.276505085891
$GNGGA,040016.50,3511.78379891,N,12148.68682055,W,2,12,0.8,7.566,M,-38.496,M,7.4,0131*67
$PYRTM,2024,125.166857675741,16.276505085891
$GNHDT,308.261,T*25
$PYRTM,2024,125.166863521030,16.276510931169
$GNGGA,040017.00,3511.78392829,N,12148.68717026,W,2,12,0.8,7.489,M,-38.496,M,4.0,0131*6B
$PYRTM,2024,125.166863521030,16.276510931169
$GNHDT,308.283,T*29
$PYRTM,2024,125.166869254560,16.276516664699
$GNGGA,040017.50,3511.78392637,N,12148.68753431,W,2,12,0.8,7.696,M,-38.497,M,4.4,0131*64
$PYRTM,2024,125.166869254560,16.276516664699
$GNHDT,308.446,T*26
$PYRTM,2024,125.166875097836,16.276522507975
$GNGGA,040018.00,3511.78385030,N,12148.68785310,W,2,12,0.8,8.136,M,-38.497,M,5.0,0131*61
$PYRTM,2024,125.166875097836,16.276522507975
$GNHDT,308.684,T*2A
$PYRTM,2024,125.166880829201,16.276528239340
$GNGGA,040018.50,3511.78378506,N,12148.68808699,W,2,12,0.8,8.648,M,-38.497,M,5.4,0131*62
$PYRTM,2024,125.166880829201,16.276528239340
$GNHDT,308.754,T*26
$PYRTM,2024,125.166886669363,16.276534079514
$GNGGA,040019.00,3511.78384850,N,12148.68820928,W,2,12,0.8,9.005,M,-38.497,M,6.0,0131*6D
$PYRTM,2024,125.166886669363,16.276534079514
$GNHDT,309.083,T*2A
$PYRTM,2024,125.166892404468,16.276539814606
$GNGGA,040019.50,3511.78409378,N,12148.68827546,W,2,12,0.8,9.019,M,-38.497,M,6.4,0131*61
$PYRTM,2024,125.166892404468,16.276539814606
$GNHDT,309.282,T*29
$PYRTM,2024,125.166898250139,16.276545660278
$GNGGA,040020.00,3511.78447102,N,12148.68833004,W,2,12,0.8,8.664,M,-38.497,M,7.0,0131*65
$PYRTM,2024,125.166898250139,16.276545660278
$GNHDT,309.297,T*2D
$PYRTM,2024,125.166903978623,16.276551388762
$GNGGA,040020.50,3511.78487003,N,12148.68840221,W,2,12,0.8,8.036,M,-38.497,M,7.4,0131*68
$PYRTM,2024,125.166903978623,16.276551388762
$GNHDT,309.358,T*2F
$PYRTM,2024,125.166909818032,16.276557228171
$GNGGA,040021.00,3511.78517972,N,12148.68853784,W,2,12,0.8,7.416,M,-38.497,M,7.0,0131*6E
$PYRTM,2024,125.166909818032,16.276557228171
$GNHDT,308.793,T*2D
$PYRTM,2024,125.166915551042,16.276562961181
$GNGGA,040021.50,3511.78535847,N,12148.68874368,W,2,12,0.8,7.053,M,-38.497,M,7.4,0131*6E
$PYRTM,2024,125.166915551042,16.276562961181
$GNHDT,308.738,T*2C
$PYRTM,2024,125.166921387928,16.276568798067
$GNGGA,040022.00,3511.78537184,N,12148.68901231,W,2,12,0.8,7.115,M,-38.497,M,7.0,0131*65
$PYRTM,2024,125.166921387928,16.276568798067
$GNHDT,308.440,T*20
$PYRTM,2024,125.166927131678,16.276574541817
$GNGGA,040022.50,3511.78529177,N,12148.68928770,W,2,12,0.8,7.508,M,-38.497,M,7.4,0131*64
$PYRTM,2024,125.166927131678,16.276574541817
$GNHDT,308.134,T*26
$PYRTM,2024,125.166932964676,16.276580374826
$GNGGA,040023.00,3511.78519547,N,12148.68955835,W,2,12,0.8,8.010,M,-38.497,M,4.0,0131*64
$PYRTM,2024,125.166932964676,16.276580374826
$GNHDT,308.141,T*24
$PYRTM,2024,125.166938697153,16.276586107303
$GNGGA,040023.50,3511.78516919,N,12148.68979457,W,2,12,0.8,8.427,M,-38.497,M,4.4,0131*6B
$PYRTM,2024,125.166938697153,16.276586107303
$GNHDT,308.268,T*2C
$PYRTM,2024,125.166944541632,16.276591951782
$GNGGA,040024.00,3511.78528227,N,12148.68999121,W,2,12,0.8,8.630,M,-38.497,M,5.0,0131*69
$PYRTM,2024,125.166944541632,16.276591951782
$GNHDT,308.313,T*21
$PYRTM,2024,125.166950272685,16.276597682824
$GNGGA,040024.50,3511.78552218,N,12148.69014020,W,2,12,0.8,8.592,M,-38.497,M,5.4,0131*6F
$PYRTM,2024,125.166950272685,16.276597682824
$GNHDT,308.463,T*21
$PYRTM,2024,125.166956122234,16.276603532384
$GNGGA,040025.00,3511.78582318,N,12148.69023575,W,2,12,0.8,8.385,M,-38.497,M,6.0,0131*61
$PYRTM,2024,125.166956122234,16.276603532384
$GNHDT,308.446,T*26
$PYRTM,2024,125.166961842130,16.276609252280
$GNGGA,040025.50,3511.78612315,N,12148.69029844,W,2,12,0.8,8.112,M,-38.497,M,6.4,0131*6E
$PYRTM,2024,125.166961842130,16.276609252280
$GNHDT,308.652,T*21
$PYRTM,2024,125.166967687280,16.276615097419
$GNGGA,040026.00,3511.78636963,N,12148.69037073,W,2,12,0.8,7.868,M,-38.497,M,7.0,0131*68
$PYRTM,2024,125.166967687280,16.276615097419
$GNHDT,308.227,T*27
$PYRTM,2024,125.166973421736,16.276620831887
$GNGGA,040026.50,3511.78654909,N,12148.69050024,W,2,12,0.8,7.697,M,-38.497,M,7.4,0131*6C
$PYRTM,2024,125.166973421736,16.276620831887
$GNHDT,307.919,T*2E
$PYRTM,2024,125.166979265046,16.276626675185
$GNGGA,040027.00,3511.78666601,N,12148.69073921,W,2,12,0.8,7.599,M,-38.497,M,7.0,0131*6A
$PYRTM,2024,125.166979265046,16.276626675185
$GNHDT,307.588,T*2A
$PYRTM,2024,125.166984996470,16.276632406609
$GNGGA,040027.50,3511.78674292,N,12148.69107224,W,2,12,0.8,7.535,M,-38.497,M,7.4,0131*6C
$PYRTM,2024,125.166984996470,16.276632406609
$GNHDT,307.740,T*2C
$PYRTM,2024,125.166990836076,16.276638246215
$GNGGA,040028.00,3511.78677929,N,12148.69146262,W,2,12,0.8,7.583,M,-38.497,M,7.0,0131*60
$PYRTM,2024,125.166990836076,16.276638246215
$GNHDT,307.503,T*29
$PYRTM,2024,125.166996567963,16.276643978102
$GNGGA,040028.50,3511.78679022,N,12148.69183549,W,2,12,0.8,7.708,M,-38.497,M,7.4,0131*6B
$PYRTM,2024,125.166996567963,16.276643978102
$GNHDT,307.244,T*2D
$PYRTM,2024,125.167002414028,16.276649824167
$GNGGA,040029.00,3511.78680316,N,12148.69214994,W,2,12,0.8,7.944,M,-38.497,M,4.0,0131*6D
$PYRTM,2024,125.167002414028,16.276649824167
$GNHDT,306.955,T*27
$PYRTM,2024,125.167008150197,16.276655560347
$GNGGA,040029.50,3511.78687973,N,12148.69236673,W,2,12,0.8,8.201,M,-38.497,M,4.4,0131*61
$PYRTM,2024,125.167008150197,16.276655560347
$GNHDT,306.899,T*26
$PYRTM,2024,125.167013987720,16.276661397870
$GNGGA,040030.00,3511.78706615,N,12148.69249184,W,2,12,0.8,8.399,M,-38.497,M,5.0,0131*69
$PYRTM,2024,125.167013987720,16.276661397870
$GNHDT,306.932,T*26
$PYRTM,2024,125.167019716505,16.276667126644
$GNGGA,040030.50,3511.78734813,N,12148.69257532,W,2,12,0.8,8.474,M,-38.497,M,5.4,0131*63
$PYRTM,2024,125.167019716505,16.276667126644
$GNHDT,306.759,T*25
$PYRTM,2024,125.167025561690,16.276672971829
$GNGGA,040031.00,3511.78767545,N,12148.69264382,W,2,12,0.8,8.468,M,-38.497,M,6.0,0131*68
$PYRTM,2024,125.167025561690,16.276672971829
$GNHDT,307.231,T*2F
$PYRTM,2024,125.167031286794,16.276678696933
$GNGGA,040031.50,3511.78797437,N,12148.69273515,W,2,12,0.8,8.450,M,-38.497,M,6.4,0131*67
$PYRTM,2024,125.167031286794,16.276678696933
$GNHDT,307.318,T*25
$PYRTM,2024,125.167037137199,16.276684547338
$GNGGA,040032.00,3511.78819551,N,12148.69285808,W,2,12,0.8,8.455,M,-38.497,M,7.0,0131*61
$PYRTM,2024,125.167037137199,16.276684547338
$GNHDT,307.348,T*20
$PYRTM,2024,125.167042859965,16.276690270116
$GNGGA,040032.50,3511.78831799,N,12148.69305007,W,2,12,0.8,8.488,M,-38.497,M,7.4,0131*62
$PYRTM,2024,125.167042859965,16.276690270116
$GNHDT,307.089,T*2E
$PYRTM,2024,125.167048703785,16.276696113924
$GNGGA,040033.00,3511.78834309,N,12148.69332683,W,2,12,0.8,8.517,M,-38.497,M,7.0,0131*63
$PYRTM,2024,125.167048703785,16.276696113924
$GNHDT,306.859,T*2A
$PYRTM,2024,125.167054438634,16.276701848773
$GNGGA,040033.50,3511.78833495,N,12148.69365120,W,2,12,0.8,8.503,M,-38.497,M,7.4,0131*6E
$PYRTM,2024,125.167054438634,16.276701848773
$GNHDT,306.548,T*27
$PYRTM,2024,125.167060282130,16.276707692269
$GNGGA,040034.00,3511.78832196,N,12148.69398625,W,2,12,0.8,8.415,M,-38.497,M,7.0,0131*69
$PYRTM,2024,125.167060282130,16.276707692269
$GNHDT,306.232,T*2D
$PYRTM,2024,125.167066015579,16.276713425718
$GNGGA,040034.50,3511.78834711,N,12148.69426304,W,2,12,0.8,8.368,M,-38.497,M,7.4,0131*6E
$PYRTM,2024,125.167066015579,16.276713425718
$GNHDT,305.993,T*2E
$PYRTM,2024,125.167071857801,16.276719267940
$GNGGA,040035.00,3511.78842325,N,12148.69445256,W,2,12,0.8,8.400,M,-38.497,M,4.0,0131*65
$PYRTM,2024,125.167071857801,16.276719267940
$GNHDT,305.865,T*26
$PYRTM,2024,125.167077584016,16.276724994155
$GNGGA,040035.50,3511.78854805,N,12148.69455732,W,2,12,0.8,8.509,M,-38.497,M,4.4,0131*64
$PYRTM,2024,125.167077584016,16.276724994155
$GNHDT,306.086,T*20
$PYRTM,2024,125.167083430799,16.276730840937
$GNGGA,040036.00,3511.78871496,N,12148.69461496,W,2,12,0.8,8.634,M,-38.497,M,5.0,0131*61
$PYRTM,2024,125.167083430799,16.276730840937
$GNHDT,305.988,T*24
$PYRTM,2024,125.167089163461,16.276736573600
$GNGGA,040036.50,3511.78890697,N,12148.69469292,W,2,12,0.8,8.650,M,-38.497,M,5.4,0131*64
$PYRTM,2024,125.167089163461,16.276736573600
$GNHDT,305.898,T*24
$PYRTM,2024,125.167095004549,16.276742414687
$GNGGA,040037.00,3511.78911564,N,12148.69482512,W,2,12,0.8,8.482,M,-38.497,M,6.0,0131*67
$PYRTM,2024,125.167095004549,16.276742414687
$GNHDT,305.792,T*21
$PYRTM,2024,125.167100732535,16.276748142674
$GNGGA,040037.50,3511.78932116,N,12148.69502112,W,2,12,0.8,8.167,M,-38.497,M,6.4,0131*65
$PYRTM,2024,125.167100732535,16.276748142674
$GNHDT,305.469,T*26
$PYRTM,2024,125.167106576134,16.276753986273
$GNGGA,040038.00,3511.78950101,N,12148.69526660,W,2,12,0.8,7.786,M,-38.497,M,7.0,0131*6A
$PYRTM,2024,125.167106576134,16.276753986273
$GNHDT,305.735,T*2C
$PYRTM,2024,125.167112307662,16.276759717801
$GNGGA,040038.50,3511.78962841,N,12148.69555224,W,2,12,0.8,7.508,M,-38.497,M,7.4,0131*63
$PYRTM,2024,125.167112307662,16.276759717801
$GNHDT,305.898,T*24
$PYRTM,2024,125.167118150914,16.276765561053
$GNGGA,040039.00,3511.78967755,N,12148.69590545,W,2,12,0.8,7.430,M,-38.497,M,7.0,0131*6F
$PYRTM,2024,125.167118150914,16.276765561053
$GNHDT,305.814,T*20
$PYRTM,2024,125.167123884780,16.276771294931
$GNGGA,040039.50,3511.78969170,N,12148.69624254,W,2,12,0.8,7.578,M,-38.497,M,7.4,0131*67
$PYRTM,2024,125.167123884780,16.276771294931
$GNHDT,305.601,T*2A
$PYRTM,2024,125.167129725347,16.276777135486
$GNGGA,040040.00,3511.78968134,N,12148.69655812,W,2,12,0.8,7.928,M,-38.497,M,7.0,0131*6E
$PYRTM,2024,125.167129725347,16.276777135486
$GNHDT,305.270,T*28
$PYRTM,2024,125.167135455903,16.276782866042
$GNGGA,040040.50,3511.78970864,N,12148.69680614,W,2,12,0.8,8.338,M,-38.497,M,7.4,0131*6E
$PYRTM,2024,125.167135455903,16.276782866042
$GNHDT,305.133,T*2C
$PYRTM,2024,125.167141296076,16.276788706215
$GNGGA,040041.00,3511.78979917,N,12148.69700253,W,2,12,0.8,8.733,M,-38.497,M,4.0,0131*60
$PYRTM,2024,125.167141296076,16.276788706215
$GNHDT,304.954,T*24
$PYRTM,2024,125.167147030266,16.276794440405
$GNGGA,040041.50,3511.78997591,N,12148.69715996,W,2,12,0.8,8.999,M,-38.497,M,4.4,0131*6B
$PYRTM,2024,125.167147030266,16.276794440405
$GNHDT,304.968,T*2B
$PYRTM,2024,125.167152877986,16.276800288125
$GNGGA,040042.00,3511.79021396,N,12148.69730525,W,2,12,0.8,9.051,M,-38.497,M,5.0,0131*63
$PYRTM,2024,125.167152877986,16.276800288125
$GNHDT,305.115,T*28
$PYRTM,2024,125.167158604410,16.276806014549
$GNGGA,040042.50,3511.79045784,N,12148.69745707,W,2,12,0.8,8.916,M,-38.497,M,5.4,0131*6C
$PYRTM,2024,125.167158604410,16.276806014549
$GNHDT,305.128,T*26
$PYRTM,2024,125.167164456713,16.276811866852
$GNGGA,040043.00,3511.79066587,N,12148.69762470,W,2,12,0.8,8.673,M,-38.497,M,6.0,0131*65
$PYRTM,2024,125.167164456713,16.276811866852
$GNHDT,304.979,T*2B
$PYRTM,2024,125.167170178681,16.276817588831
$GNGGA,040043.50,3511.79083399,N,12148.69783320,W,2,12,0.8,8.406,M,-38.497,M,6.4,0131*6B
$PYRTM,2024,125.167170178681,16.276817588831
$GNHDT,304.935,T*23
$PYRTM,2024,125.167176020509,16.276823430648
$GNGGA,040044.00,3511.79095580,N,12148.69808497,W,2,12,0.8,8.202,M,-38.497,M,7.0,0131*60
$PYRTM,2024,125.167176020509,16.276823430648
$GNHDT,304.991,T*2D
$PYRTM,2024,125.167181750370,16.276829160509
$GNGGA,040044.50,3511.79103584,N,12148.69836387,W,2,12,0.8,8.130,M,-38.497,M,7.4,0131*62
$PYRTM,2024,125.167181750370,16.276829160509
$GNHDT,304.980,T*2D
$PYRTM,2024,125.167187592986,16.276835003125
$GNGGA,040045.00,3511.79107966,N,12148.69863228,W,2,12,0.8,8.262,M,-38.497,M,7.0,0131*66
$PYRTM,2024,125.167187592986,16.276835003125
$GNHDT,304.795,T*27
$PYRTM,2024,125.167193327280,16.276840737419
$GNGGA,040045.50,3511.79111480,N,12148.69887989,W,2,12,0.8,8.508,M,-38.497,M,7.4,0131*64
$PYRTM,2024,125.167193327280,16.276840737419
$GNHDT,304.780,T*23
$PYRTM,2024,125.167199167674,16.276846577812
$GNGGA,040046.00,3511.79117237,N,12148.69908734,W,2,12,0.8,8.803,M,-38.497,M,7.0,0131*62
$PYRTM,2024,125.167199167674,16.276846577812
$GNHDT,304.753,T*2D
$PYRTM,2024,125.167204901736,16.276852311875
$GNGGA,040046.50,3511.79128691,N,12148.69925923,W,2,12,0.8,9.031,M,-38.497,M,7.4,0131*68
$PYRTM,2024,125.167204901736,16.276852311875
$GNHDT,304.700,T*2B
$PYRTM,2024,125.167210743634,16.276858153773
$GNGGA,040047.00,3511.79146630,N,12148.69941280,W,2,12,0.8,9.130,M,-38.497,M,4.0,0131*68
$PYRTM,2024,125.167210743634,16.276858153773
$GNHDT,304.697,T*24
$PYRTM,2024,125.167216478600,16.276863888750
$GNGGA,040047.50,3511.79168208,N,12148.69957135,W,2,12,0.8,9.080,M,-38.497,M,4.4,0131*6A
$PYRTM,2024,125.167216478600,16.276863888750
$GNHDT,304.937,T*21
$PYRTM,2024,125.167222324977,16.276869735116
$GNGGA,040048.00,3511.79191410,N,12148.69974177,W,2,12,0.8,8.914,M,-38.497,M,5.0,0131*6E
$PYRTM,2024,125.167222324977,16.276869735116
$GNHDT,304.980,T*2D
$PYRTM,2024,125.167228050301,16.276875460440
$GNGGA,040048.50,3511.79213314,N,12148.69991535,W,2,12,0.8,8.719,M,-38.497,M,5.4,0131*6F
$PYRTM,2024,125.167228050301,16.276875460440
$GNHDT,305.091,T*25
$PYRTM,2024,125.167233888773,16.276881298912
$GNGGA,040049.00,3511.79231852,N,12148.70009855,W,2,12,0.8,8.565,M,-38.497,M,6.0,0131*67
$PYRTM,2024,125.167233888773,16.276881298912
$GNHDT,305.189,T*2D
$PYRTM,2024,125.167239623796,16.276887033935
$GNGGA,040049.50,3511.79245455,N,12148.70029201,W,2,12,0.8,8.516,M,-38.497,M,6.4,0131*63
$PYRTM,2024,125.167239623796,16.276887033935
$GNHDT,305.261,T*28
$PYRTM,2024,125.167245464282,16.276892874421
$GNGGA,040050.00,3511.79255519,N,12148.70048065,W,2,12,0.8,8.569,M,-38.497,M,7.0,0131*6C
$PYRTM,2024,125.167245464282,16.276892874421
$GNHDT,305.524,T*2E
$PYRTM,2024,125.167251194676,16.276898604815
$GNGGA,040050.50,3511.79262229,N,12148.70068570,W,2,12,0.8,8.687,M,-38.497,M,7.4,0131*6D
$PYRTM,2024,125.167251194676,16.276898604815
$GNHDT,305.499,T*29
$PYRTM,2024,125.167257035440,16.276904445579
$GNGGA,040051.00,3511.79267213,N,12148.70090418,W,2,12,0.8,8.794,M,-38.497,M,7.0,0131*6A
$PYRTM,2024,125.167257035440,16.276904445579
$GNHDT,305.658,T*26
$PYRTM,2024,125.167262767269,16.276910177407
$GNGGA,040051.50,3511.79273777,N,12148.70114340,W,2,12,0.8,8.808,M,-38.497,M,7.4,0131*64
$PYRTM,2024,125.167262767269,16.276910177407
$GNHDT,305.728,T*20
$PYRTM,2024,125.167268611227,16.276916021366
$GNGGA,040052.00,3511.79284198,N,12148.70139417,W,2,12,0.8,8.693,M,-38.497,M,7.0,0131*6F
$PYRTM,2024,125.167268611227,16.276916021366
$GNHDT,305.665,T*28
$PYRTM,2024,125.167274346146,16.276921756285
$GNGGA,040052.50,3511.79298796,N,12148.70164940,W,2,12,0.8,8.512,M,-38.497,M,7.4,0131*66
$PYRTM,2024,125.167274346146,16.276921756285
$GNHDT,305.635,T*2D
$PYRTM,2024,125.167280191829,16.276927601968
$GNGGA,040053.00,3511.79316887,N,12148.70187828,W,2,12,0.8,8.321,M,-38.497,M,4.0,0131*69
$PYRTM,2024,125.167280191829,16.276927601968
$GNHDT,305.589,T*29
$PYRTM,2024,125.167285921609,16.276933331736
$GNGGA,040053.50,3511.79335540,N,12148.70207823,W,2,12,0.8,8.226,M,-38.497,M,4.4,0131*69
$PYRTM,2024,125.167285921609,16.276933331736
$GNHDT,305.461,T*2E
$PYRTM,2024,125.167291760868,16.276939171007
$GNGGA,040054.00,3511.79353497,N,12148.70224983,W,2,12,0.8,8.286,M,-38.497,M,5.0,0131*65
$PYRTM,2024,125.167291760868,16.276939171007
$GNHDT,305.791,T*22
$PYRTM,2024,125.167297493171,16.276944903310
$GNGGA,040054.50,3511.79369862,N,12148.70240461,W,2,12,0.8,8.460,M,-38.497,M,5.4,0131*66
$PYRTM,2024,125.167297493171,16.276944903310
$GNHDT,306.294,T*21
$PYRTM,2024,125.167303332731,16.276950742870
$GNGGA,040055.00,3511.79384714,N,12148.70256122,W,2,12,0.8,8.670,M,-38.497,M,6.0,0131*6E
$PYRTM,2024,125.167303332731,16.276950742870
$GNHDT,306.777,T*29
$PYRTM,2024,125.167309067500,16.276956477650
$GNGGA,040055.50,3511.79399980,N,12148.70272058,W,2,12,0.8,8.841,M,-38.497,M,6.4,0131*66
$PYRTM,2024,125.167309067500,16.276956477650
$GNHDT,307.203,T*2E
$PYRTM,2024,125.167314915752,16.276962325891
$GNGGA,040056.00,3511.79415100,N,12148.70289092,W,2,12,0.8,8.930,M,-38.497,M,7.0,0131*63
$PYRTM,2024,125.167314915752,16.276962325891
$GNHDT,307.446,T*29
$PYRTM,2024,125.167320640810,16.276968050949
$GNGGA,040056.50,3511.79428014,N,12148.70309560,W,2,12,0.8,8.983,M,-38.497,M,7.4,0131*61
$PYRTM,2024,125.167320640810,16.276968050949
$GNHDT,307.382,T*26
$PYRTM,2024,125.167326481134,16.276973891273
$GNGGA,040057.00,3511.79438200,N,12148.70333277,W,2,12,0.8,8.997,M,-38.497,M,7.0,0131*6A
$PYRTM,2024,125.167326481134,16.276973891273
$GNHDT,307.228,T*27
$PYRTM,2024,125.167332212338,16.276979622477
$GNGGA,040057.50,3511.79445887,N,12148.70359400,W,2,12,0.8,9.010,M,-38.497,M,7.4,0131*69
$PYRTM,2024,125.167332212338,16.276979622477
$GNHDT,306.954,T*26
$PYRTM,2024,125.167338058900,16.276985469039
$GNGGA,040058.00,3511.79453203,N,12148.70385918,W,2,12,0.8,9.010,M,-38.497,M,7.0,0131*63
$PYRTM,2024,125.167338058900,16.276985469039
$GNHDT,306.723,T*28
$PYRTM,2024,125.167343790544,16.276991200694
$GNGGA,040058.50,3511.79463363,N,12148.70409712,W,2,12,0.8,8.961,M,-38.497,M,7.4,0131*6F
$PYRTM,2024,125.167343790544,16.276991200694
$GNHDT,306.900,T*27
$PYRTM,2024,125.167349631574,16.276997041725
$GNGGA,040059.00,3511.79478125,N,12148.70428097,W,2,12,0.8,8.820,M,-38.497,M,4.0,0131*6B
$PYRTM,2024,125.167349631574,16.276997041725
$GNHDT,307.035,T*29
$PYRTM,2024,125.167355361400,16.277002771551
$GNGGA,040059.50,3511.79497301,N,12148.70442909,W,2,12,0.8,8.619,M,-38.497,M,4.4,0131*69
$PYRTM,2024,125.167355361400,16.277002771551
$GNHDT,307.086,T*21
$PYRTM,2024,125.167361235104,16.277008645243
$GNGGA,040100.00,3511.79520874,N,12148.70455322,W,2,12,0.8,8.330,M,-38.497,M,5.0,0131*6B
$PYRTM,2024,125.167361235104,16.277008645243
$GNHDT,307.631,T*2B
$PYRTM,2024,125.167366937650,16.277014347801
$GNGGA,040100.50,3511.79545682,N,12148.70469803,W,2,12,0.8,8.049,M,-38.497,M,5.4,0131*64
$PYRTM,2024,125.167366937650,16.277014347801
$GNHDT,308.077,T*20
$PYRTM,2024,125.167372783368,16.277020193507
$GNGGA,040101.00,3511.79570649,N,12148.70486840,W,2,12,0.8,7.808,M,-38.497,M,6.0,0131*62
$PYRTM,2024,125.167372783368,16.277020193507
$GNHDT,308.378,T*2C
$PYRTM,2024,125.167378508345,16.277025918484
$GNGGA,040101.50,3511.79592549,N,12148.70507950,W,2,12,0.8,7.708,M,-38.497,M,6.4,0131*6B
$PYRTM,2024,125.167378508345,16.277025918484
$GNHDT,308.624,T*20
$PYRTM,2024,125.167384353079,16.277031763218
$GNGGA,040102.00,3511.79610930,N,12148.70532000,W,2,12,0.8,7.759,M,-38.497,M,7.0,0131*6D
$PYRTM,2024,125.167384353079,16.277031763218
$GNHDT,308.808,T*20
$PYRTM,2024,125.167390092002,16.277037502141
$GNGGA,040102.50,3511.79624604,N,12148.70558462,W,2,12,0.8,7.959,M,-38.497,M,7.4,0131*61
$PYRTM,2024,125.167390092002,16.277037502141
$GNHDT,308.458,T*29
$PYRTM,2024,125.167395932639,16.277043342789
$GNGGA,040103.00,3511.79634345,N,12148.70586555,W,2,12,0.8,8.244,M,-38.497,M,7.0,0131*6E
$PYRTM,2024,125.167395932639,16.277043342789
$GNHDT,308.317,T*25
$PYRTM,2024,125.167401662662,16.277049072801
$GNGGA,040103.50,3511.79642341,N,12148.70614365,W,2,12,0.8,8.539,M,-38.497,M,7.4,0131*6A
$PYRTM,2024,125.167401662662,16.277049072801
$GNHDT,308.360,T*25
$PYRTM,2024,125.167407505845,16.277054915984
$GNGGA,040104.00,3511.79650348,N,12148.70639203,W,2,12,0.8,8.757,M,-38.497,M,7.0,0131*62
$PYRTM,2024,125.167407505845,16.277054915984
$GNHDT,308.477,T*24
$PYRTM,2024,125.167413236667,16.277060646806
$GNGGA,040104.50,3511.79662219,N,12148.70659558,W,2,12,0.8,8.865,M,-38.497,M,7.4,0131*66
$PYRTM,2024,125.167413236667,16.277060646806
$GNHDT,308.546,T*27
$PYRTM,2024,125.167419075868,16.277066486007
$GNGGA,040105.00,3511.79678630,N,12148.70675565,W,2,12,0.8,8.805,M,-38.497,M,4.0,0131*67
$PYRTM,2024,125.167419075868,16.277066486007
$GNHDT,308.640,T*22
$PYRTM,2024,125.167424806262,16.277072216400
$GNGGA,040105.50,3511.79698117,N,12148.70690537,W,2,12,0.8,8.593,M,-38.497,M,4.4,0131*64
$PYRTM,2024,125.167424806262,16.277072216400
$GNHDT,309.176,T*21
$PYRTM,2024,125.167430656968,16.277078067106
$GNGGA,040106.00,3511.79719431,N,12148.70706507,W,2,12,0.8,8.220,M,-38.497,M,5.0,0131*6C
$PYRTM,2024,125.167430656968,16.277078067106
$GNHDT,309.315,T*26
$PYRTM,2024,125.167436383206,16.277083793345
$GNGGA,040106.50,3511.79741713,N,12148.70725902,W,2,12,0.8,7.800,M,-38.497,M,5.4,0131*6C
$PYRTM,2024,125.167436383206,16.277083793345
$GNHDT,309.232,T*22
$PYRTM,2024,125.167442225891,16.277089636030
$GNGGA,040107.00,3511.79761766,N,12148.70746417,W,2,12,0.8,7.448,M,-38.497,M,6.0,0131*63
$PYRTM,2024,125.167442225891,16.277089636030
$GNHDT,309.208,T*2B
$PYRTM,2024,125.167447955359,16.277095365498
$GNGGA,040107.50,3511.79777790,N,12148.70767509,W,2,12,0.8,7.334,M,-38.497,M,6.4,0131*6D
$PYRTM,2024,125.167447955359,16.277095365498
$GNHDT,309.379,T*2C
$PYRTM,2024,125.167453806053,16.277101216192
$GNGGA,040108.00,3511.79789136,N,12148.70786508,W,2,12,0.8,7.480,M,-38.497,M,7.0,0131*6F
$PYRTM,2024,125.167453806053,16.277101216192
$GNHDT,309.514,T*21
$PYRTM,2024,125.167459533414,16.277106943553
$GNGGA,040108.50,3511.79796737,N,12148.70804531,W,2,12,0.8,7.839,M,-38.497,M,7.4,0131*66
$PYRTM,2024,125.167459533414,16.277106943553
$GNHDT,309.535,T*22
$PYRTM,2024,125.167465378090,16.277112788229
$GNGGA,040109.00,3511.79804657,N,12148.70821797,W,2,12,0.8,8.232,M,-38.497,M,7.0,0131*62
$PYRTM,2024,125.167465378090,16.277112788229
$GNHDT,309.803,T*2A
$PYRTM,2024,125.167471105648,16.277118515787
$GNGGA,040109.50,3511.79815294,N,12148.70839323,W,2,12,0.8,8.496,M,-38.497,M,7.4,0131*62
$PYRTM,2024,125.167471105648,16.277118515787
$GNHDT,309.693,T*2D
$PYRTM,2024,125.167476947870,16.277124358009
$GNGGA,040110.00,3511.79829393,N,12148.70857503,W,2,12,0.8,8.570,M,-38.497,M,7.0,0131*67
$PYRTM,2024,125.167476947870,16.277124358009
$GNHDT,309.762,T*22
$PYRTM,2024,125.167482683484,16.277130093634
$GNGGA,040110.50,3511.79845515,N,12148.70878074,W,2,12,0.8,8.469,M,-38.497,M,7.4,0131*65
$PYRTM,2024,125.167482683484,16.277130093634
$GNHDT,309.596,T*2B
$PYRTM,2024,125.167488522847,16.277135932986
$GNGGA,040111.00,3511.79862275,N,12148.70899700,W,2,12,0.8,8.184,M,-38.497,M,4.0,0131*6F
$PYRTM,2024,125.167488522847,16.277135932986
$GNHDT,309.680,T*2F
$PYRTM,2024,125.167494266227,16.277141676366
$GNGGA,040111.50,3511.79879361,N,12148.70921175,W,2,12,0.8,7.862,M,-38.497,M,4.4,0131*68
$PYRTM,2024,125.167494266227,16.277141676366
$GNHDT,309.943,T*2F
$PYRTM,2024,125.167500098981,16.277147509120
$GNGGA,040112.00,3511.79897310,N,12148.70942396,W,2,12,0.8,7.531,M,-38.497,M,5.0,0131*6C
$PYRTM,2024,125.167500098981,16.277147509120
$GNHDT,310.071,T*2F
$PYRTM,2024,125.167505829664,16.277153239803
$GNGGA,040112.50,3511.79916306,N,12148.70962234,W,2,12,0.8,7.303,M,-38.497,M,5.4,0131*6E
$PYRTM,2024,125.167505829664,16.277153239803
$GNHDT,310.100,T*28
$PYRTM,2024,125.167511674398,16.277159084537
$GNGGA,040113.00,3511.79935875,N,12148.70981377,W,2,12,0.8,7.177,M,-38.497,M,6.0,0131*69
$PYRTM,2024,125.167511674398,16.277159084537
$GNHDT,309.822,T*29
$PYRTM,2024,125.167517402731,16.277164812870
$GNGGA,040113.50,3511.79955704,N,12148.71000867,W,2,12,0.8,7.162,M,-38.497,M,6.4,0131*68
$PYRTM,2024,125.167517402731,16.277164812870
$GNHDT,310.118,T*21
$PYRTM,2024,125.167523247662,16.277170657801
$GNGGA,040114.00,3511.79974792,N,12148.71021948,W,2,12,0.8,7.247,M,-38.497,M,7.0,0131*68
$PYRTM,2024,125.167523247662,16.277170657801
$GNHDT,310.074,T*2A
$PYRTM,2024,125.167528982639,16.277176392778
$GNGGA,040114.50,3511.79991553,N,12148.71045389,W,2,12,0.8,7.409,M,-38.497,M,7.4,0131*64
$PYRTM,2024,125.167528982639,16.277176392778
$GNHDT,310.200,T*2B
$PYRTM,2024,125.167534816481,16.277182226620
$GNGGA,040115.00,3511.80007713,N,12148.71071630,W,2,12,0.8,7.602,M,-38.497,M,7.0,0131*6B
$PYRTM,2024,125.167534816481,16.277182226620
$GNHDT,310.013,T*2B
$PYRTM,2024,125.167540548970,16.277187959109
$GNGGA,040115.50,3511.80023308,N,12148.71098426,W,2,12,0.8,7.801,M,-38.497,M,7.4,0131*6D
$PYRTM,2024,125.167540548970,16.277187959109
$GNHDT,309.935,T*2E
$PYRTM,2024,125.167546391910,16.277193802049
$GNGGA,040116.00,3511.80038631,N,12148.71122280,W,2,12,0.8,8.013,M,-38.497,M,7.0,0131*64
$PYRTM,2024,125.167546391910,16.277193802049
$GNHDT,310.185,T*25
$PYRTM,2024,125.167552121157,16.277199531296
$GNGGA,040116.50,3511.80054900,N,12148.71140475,W,2,12,0.8,8.221,M,-38.497,M,7.4,0131*69
$PYRTM,2024,125.167552121157,16.277199531296
$GNHDT,310.529,T*27
$PYRTM,2024,125.167557969572,16.277205379711
$GNGGA,040117.00,3511.80073236,N,12148.71154351,W,2,12,0.8,8.375,M,-38.497,M,4.0,0131*65
$PYRTM,2024,125.167557969572,16.277205379711
$GNHDT,310.744,T*2E
$PYRTM,2024,125.167563693669,16.277211103808
$GNGGA,040117.50,3511.80094094,N,12148.71166594,W,2,12,0.8,8.374,M,-38.497,M,4.4,0131*68
$PYRTM,2024,125.167563693669,16.277211103808
$GNHDT,310.989,T*21
$PYRTM,2024,125.167569547917,16.277216958056
$GNGGA,040118.00,3511.80115992,N,12148.71182475,W,2,12,0.8,8.160,M,-38.497,M,5.0,0131*63
$PYRTM,2024,125.167569547917,16.277216958056
$GNHDT,310.912,T*23
$PYRTM,2024,125.167575274618,16.277222684757
$GNGGA,040118.50,3511.80137216,N,12148.71204016,W,2,12,0.8,7.777,M,-38.497,M,5.4,0131*66
$PYRTM,2024,125.167575274618,16.277222684757
$GNHDT,310.834,T*26
$PYRTM,2024,125.167581115822,16.277228525961
$GNGGA,040119.00,3511.80155847,N,12148.71230800,W,2,12,0.8,7.291,M,-38.497,M,6.0,0131*6A
$PYRTM,2024,125.167581115822,16.277228525961
$GNHDT,310.565,T*2F
$PYRTM,2024,125.167586845405,16.277234255556
$GNGGA,040119.50,3511.80171508,N,12148.71259294,W,2,12,0.8,6.904,M,-38.497,M,6.4,0131*65
$PYRTM,2024,125.167586845405,16.277234255556
$GNHDT,310.387,T*25
$PYRTM,2024,125.167592691528,16.277240101667
$GNGGA,040120.00,3511.80184135,N,12148.71286171,W,2,12,0.8,6.726,M,-38.497,M,7.0,0131*6B
$PYRTM,2024,125.167592691528,16.277240101667
$GNHDT,310.539,T*26
$PYRTM,2024,125.167598417130,16.277245827269
$GNGGA,040120.50,3511.80194946,N,12148.71308242,W,2,12,0.8,6.850,M,-38.497,M,7.4,0131*6D
$PYRTM,2024,125.167598417130,16.277245827269
$GNHDT,311.018,T*21
$PYRTM,2024,125.167604273009,16.277251683148
$GNGGA,040121.00,3511.80205412,N,12148.71325128,W,2,12,0.8,7.217,M,-38.497,M,7.0,0131*62
$PYRTM,2024,125.167604273009,16.277251683148
$GNHDT,311.217,T*2C
$PYRTM,2024,125.167609994491,16.277257404630
$GNGGA,040121.50,3511.80217608,N,12148.71337997,W,2,12,0.8,7.692,M,-38.497,M,7.4,0131*6F
$PYRTM,2024,125.167609994491,16.277257404630
$GNHDT,310.893,T*2B
$PYRTM,2024,125.167615839363,16.277263249514
$GNGGA,040122.00,3511.80232309,N,12148.71349015,W,2,12,0.8,8.168,M,-38.497,M,7.0,0131*69
$PYRTM,2024,125.167615839363,16.277263249514
$GNHDT,310.866,T*21
$PYRTM,2024,125.167621567778,16.277268977917
$GNGGA,040122.50,3511.80251368,N,12148.71360484,W,2,12,0.8,8.437,M,-38.497,M,7.4,0131*62
$PYRTM,2024,125.167621567778,16.277268977917
$GNHDT,310.748,T*22
$PYRTM,2024,125.167627414340,16.277274824479
$GNGGA,040123.00,3511.80274141,N,12148.71374327,W,2,12,0.8,8.390,M,-38.497,M,4.0,0131*6E
$PYRTM,2024,125.167627414340,16.277274824479
$GNHDT,310.868,T*2F
$PYRTM,2024,125.167633152407,16.277280562546
$GNGGA,040123.50,3511.80297626,N,12148.71392381,W,2,12,0.8,8.067,M,-38.497,M,4.4,0131*6B
$PYRTM,2024,125.167633152407,16.277280562546
$GNHDT,311.310,T*2A
$PYRTM,2024,125.167638990185,16.277286400324
$GNGGA,040124.00,3511.80318837,N,12148.71415861,W,2,12,0.8,7.595,M,-38.497,M,5.0,0131*6E
$PYRTM,2024,125.167638990185,16.277286400324
$GNHDT,311.208,T*22
$PYRTM,2024,125.167644719155,16.277292129294
$GNGGA,040124.50,3511.80336967,N,12148.71444186,W,2,12,0.8,7.088,M,-38.497,M,5.4,0131*6A
$PYRTM,2024,125.167644719155,16.277292129294
$GNHDT,311.142,T*2F
$PYRTM,2024,125.167650563762,16.277297973912
$GNGGA,040125.00,3511.80351436,N,12148.71474388,W,2,12,0.8,6.724,M,-38.497,M,6.0,0131*6E
$PYRTM,2024,125.167650563762,16.277297973912
$GNHDT,311.058,T*25
$PYRTM,2024,125.167656287986,16.277303698125
$GNGGA,040125.50,3511.80360570,N,12148.71503142,W,2,12,0.8,6.686,M,-38.497,M,6.4,0131*62
$PYRTM,2024,125.167656287986,16.277303698125
$GNHDT,310.796,T*21
$PYRTM,2024,125.167662135590,16.277309545729
$GNGGA,040126.00,3511.80364383,N,12148.71527221,W,2,12,0.8,6.977,M,-38.497,M,7.0,0131*6E
$PYRTM,2024,125.167662135590,16.277309545729
$GNHDT,310.654,T*2E
$PYRTM,2024,125.167667867928,16.277315278067
$GNGGA,040126.50,3511.80367513,N,12148.71543719,W,2,12,0.8,7.488,M,-38.497,M,7.4,0131*63
$PYRTM,2024,125.167667867928,16.277315278067
$GNHDT,310.786,T*20
$PYRTM,2024,125.167673708785,16.277321118924
$GNGGA,040127.00,3511.80373940,N,12148.71554769,W,2,12,0.8,8.077,M,-38.497,M,7.0,0131*66
$PYRTM,2024,125.167673708785,16.277321118924
$GNHDT,310.872,T*24
$PYRTM,2024,125.167679442315,16.277326852465
$GNGGA,040127.50,3511.80389978,N,12148.71564086,W,2,12,0.8,8.501,M,-38.497,M,7.4,0131*68
$PYRTM,2024,125.167679442315,16.277326852465
$GNHDT,310.647,T*2C
$PYRTM,2024,125.167685284826,16.277332694965
$GNGGA,040128.00,3511.80418292,N,12148.71575499,W,2,12,0.8,8.596,M,-38.497,M,7.0,0131*62
$PYRTM,2024,125.167685284826,16.277332694965
$GNHDT,310.782,T*24
$PYRTM,2024,125.167691009884,16.277338420023
$GNGGA,040128.50,3511.80452138,N,12148.71591150,W,2,12,0.8,8.355,M,-38.497,M,7.4,0131*6D
$PYRTM,2024,125.167691009884,16.277338420023
$GNHDT,310.644,T*2F
$PYRTM,2024,125.167696852454,16.277344262593
$GNGGA,040129.00,3511.80482556,N,12148.71610058,W,2,12,0.8,7.987,M,-38.498,M,4.0,0131*69
$PYRTM,2024,125.167696852454,16.277344262593
$GNHDT,310.416,T*2A
$PYRTM,2024,125.167702590833,16.277350000972
$GNGGA,040129.50,3511.80504557,N,12148.71628702,W,2,12,0.8,7.679,M,-38.498,M,4.4,0131*6B
$PYRTM,2024,125.167702590833,16.277350000972
$GNHDT,310.154,T*29
$PYRTM,2024,125.167708430868,16.277355841007
$GNGGA,040130.00,3511.80516214,N,12148.71649501,W,2,12,0.8,7.566,M,-38.498,M,5.0,0131*6B
$PYRTM,2024,125.167708430868,16.277355841007
$GNHDT,310.188,T*28
$PYRTM,2024,125.167714158218,16.277361568368
$GNGGA,040130.50,3511.80522117,N,12148.71673697,W,2,12,0.8,7.596,M,-38.498,M,5.4,0131*67
$PYRTM,2024,125.167714158218,16.277361568368
$GNHDT,310.296,T*24
$PYRTM,2024,125.167720007500,16.277367417639
$GNGGA,040131.00,3511.80525109,N,12148.71700758,W,2,12,0.8,7.737,M,-38.498,M,6.0,0131*62
$PYRTM,2024,125.167720007500,16.277367417639
$GNHDT,310.164,T*2A
$PYRTM,2024,125.167725737222,16.277373147361
$GNGGA,040131.50,3511.80531085,N,12148.71728003,W,2,12,0.8,7.871,M,-38.498,M,6.4,0131*6D
$PYRTM,2024,125.167725737222,16.277373147361
$GNHDT,309.849,T*24
$PYRTM,2024,125.167731577095,16.277378987245
$GNGGA,040132.00,3511.80544299,N,12148.71750988,W,2,12,0.8,7.991,M,-38.498,M,7.0,0131*69
$PYRTM,2024,125.167731577095,16.277378987245
$GNHDT,309.694,T*2A
$PYRTM,2024,125.167737305544,16.277384715694
$GNGGA,040132.50,3511.80564995,N,12148.71768070,W,2,12,0.8,8.023,M,-38.498,M,7.4,0131*67
$PYRTM,2024,125.167737305544,16.277384715694
$GNHDT,309.368,T*2C
$PYRTM,2024,125.167743148426,16.277390558565
$GNGGA,040133.00,3511.80592456,N,12148.71780108,W,2,12,0.8,8.023,M,-38.498,M,7.0,0131*64
$PYRTM,2024,125.167743148426,16.277390558565
$GNHDT,309.480,T*2D
$PYRTM,2024,125.167748887697,16.277396297847
$GNGGA,040133.50,3511.80622375,N,12148.71789200,W,2,12,0.8,7.958,M,-38.498,M,7.4,0131*63
$PYRTM,2024,125.167748887697,16.277396297847
$GNHDT,309.537,T*20
$PYRTM,2024,125.167754725856,16.277402135995
$GNGGA,040134.00,3511.80650627,N,12148.71799491,W,2,12,0.8,7.865,M,-38.498,M,7.0,0131*62
$PYRTM,2024,125.167754725856,16.277402135995
$GNHDT,309.692,T*2C
$PYRTM,2024,125.167760454745,16.277407864884
$GNGGA,040134.50,3511.80675675,N,12148.71815618,W,2,12,0.8,7.735,M,-38.498,M,7.4,0131*61
$PYRTM,2024,125.167760454745,16.277407864884
$GNHDT,309.325,T*25
$PYRTM,2024,125.167766298669,16.277413708808
$GNGGA,040135.00,3511.80695752,N,12148.71840121,W,2,12,0.8,7.595,M,-38.498,M,4.0,0131*6D
$PYRTM,2024,125.167766298669,16.277413708808
$GNHDT,309.235,T*25
$PYRTM,2024,125.167772027674,16.277419437813
$GNGGA,040135.50,3511.80710399,N,12148.71871579,W,2,12,0.8,7.446,M,-38.498,M,4.4,0131*67
$PYRTM,2024,125.167772027674,16.277419437813
$GNHDT,309.361,T*25
$PYRTM,2024,125.167777871944,16.277425282095
$GNGGA,040136.00,3511.80720270,N,12148.71903984,W,2,12,0.8,7.386,M,-38.498,M,5.0,0131*60
$PYRTM,2024,125.167777871944,16.277425282095
$GNHDT,309.328,T*28
$PYRTM,2024,125.167783602662,16.277431012801
$GNGGA,040136.50,3511.80725033,N,12148.71935877,W,2,12,0.8,7.441,M,-38.498,M,5.4,0131*65
$PYRTM,2024,125.167783602662,16.277431012801
$GNHDT,309.066,T*21
$PYRTM,2024,125.167789449086,16.277436859236
$GNGGA,040137.00,3511.80728909,N,12148.71962177,W,2,12,0.8,7.588,M,-38.498,M,6.0,0131*64
$PYRTM,2024,125.167789449086,16.277436859236
$GNHDT,308.943,T*2E
$PYRTM,2024,125.167795186400,16.277442596539
$GNGGA,040137.50,3511.80737337,N,12148.71979902,W,2,12,0.8,7.779,M,-38.498,M,6.4,0131*60
$PYRTM,2024,125.167795186400,16.277442596539
$GNHDT,309.155,T*20
$PYRTM,2024,125.167801019861,16.277448430000
$GNGGA,040138.00,3511.80754175,N,12148.71991261,W,2,12,0.8,7.928,M,-38.498,M,7.0,0131*6C
$PYRTM,2024,125.167801019861,16.277448430000
$GNHDT,308.990,T*20
$PYRTM,2024,125.167806756076,16.277454166215
$GNGGA,040138.50,3511.80780044,N,12148.72000967,W,2,12,0.8,7.966,M,-38.498,M,7.4,0131*62
$PYRTM,2024,125.167806756076,16.277454166215
$GNHDT,309.077,T*21
$PYRTM,2024,125.167812596354,16.277460006493
$GNGGA,040139.00,3511.80810863,N,12148.72010740,W,2,12,0.8,7.860,M,-38.498,M,7.0,0131*64
$PYRTM,2024,125.167812596354,16.277460006493
$GNHDT,308.857,T*2A
$PYRTM,2024,125.167818333866,16.277465744005
$GNGGA,040139.50,3511.80840535,N,12148.72022969,W,2,12,0.8,7.712,M,-38.498,M,7.4,0131*60
$PYRTM,2024,125.167818333866,16.277465744005
$GNHDT,308.854,T*29
$PYRTM,2024,125.167824172292,16.277471582431
$GNGGA,040140.00,3511.80863341,N,12148.72041079,W,2,12,0.8,7.572,M,-38.498,M,7.0,0131*62
$PYRTM,2024,125.167824172292,16.277471582431
$GNHDT,309.150,T*25
$PYRTM,2024,125.167829903125,16.277477313264
$GNGGA,040140.50,3511.80877854,N,12148.72064749,W,2,12,0.8,7.520,M,-38.498,M,7.4,0131*6D
$PYRTM,2024,125.167829903125,16.277477313264
$GNHDT,308.673,T*22
$PYRTM,2024,125.167835743611,16.277483153750
$GNGGA,040141.00,3511.80884547,N,12148.72096032,W,2,12,0.8,7.536,M,-38.498,M,4.0,0131*6C
$PYRTM,2024,125.167835743611,16.277483153750
$GNHDT,308.622,T*26
$PYRTM,2024,125.167841472801,16.277488882940
$GNGGA,040141.50,3511.80887235,N,12148.72128738,W,2,12,0.8,7.629,M,-38.498,M,4.4,0131*68
$PYRTM,2024,125.167841472801,16.277488882940
$GNHDT,308.868,T*26
$PYRTM,2024,125.167847317407,16.277494727546
$GNGGA,040142.00,3511.80890666,N,12148.72158777,W,2,12,0.8,7.789,M,-38.498,M,5.0,0131*68
$PYRTM,2024,125.167847317407,16.277494727546
$GNHDT,308.735,T*21
$PYRTM,2024,125.167853047488,16.277500457627
$GNGGA,040142.50,3511.80898085,N,12148.72183037,W,2,12,0.8,7.979,M,-38.498,M,5.4,0131*6E
$PYRTM,2024,125.167853047488,16.277500457627
$GNHDT,308.630,T*25
$PYRTM,2024,125.167858892072,16.277506302211
$GNGGA,040143.00,3511.80911207,N,12148.72198983,W,2,12,0.8,8.170,M,-38.498,M,6.0,0131*67
$PYRTM,2024,125.167858892072,16.277506302211
$GNHDT,308.337,T*27
$PYRTM,2024,125.167864620451,16.277512030590
$GNGGA,040143.50,3511.80931078,N,12148.72208577,W,2,12,0.8,8.341,M,-38.498,M,6.4,0131*63
$PYRTM,2024,125.167864620451,16.277512030590
$GNHDT,308.169,T*2E
$PYRTM,2024,125.167870467442,16.277517877581
$GNGGA,040144.00,3511.80957034,N,12148.72214153,W,2,12,0.8,8.378,M,-38.498,M,7.0,0131*69
$PYRTM,2024,125.167870467442,16.277517877581
$GNHDT,308.196,T*2E
$PYRTM,2024,125.167876201238,16.277523611377
$GNGGA,040144.50,3511.80986770,N,12148.72220772,W,2,12,0.8,8.274,M,-38.498,M,7.4,0131*6C
$PYRTM,2024,125.167876201238,16.277523611377
$GNHDT,308.379,T*2D
$PYRTM,2024,125.167882044525,16.277529454664
$GNGGA,040145.00,3511.81017301,N,12148.72231335,W,2,12,0.8,7.992,M,-38.498,M,7.0,0131*65
$PYRTM,2024,125.167882044525,16.277529454664
$GNHDT,308.354,T*22
$PYRTM,2024,125.167887773727,16.277535183866
$GNGGA,040145.50,3511.81044234,N,12148.72249030,W,2,12,0.8,7.664,M,-38.498,M,7.4,0131*6A
$PYRTM,2024,125.167887773727,16.277535183866
$GNHDT,308.517,T*23
$PYRTM,2024,125.167893618056,16.277541028194
$GNGGA,040146.00,3511.81064840,N,12148.72273949,W,2,12,0.8,7.374,M,-38.498,M,7.0,0131*69
$PYRTM,2024,125.167893618056,16.277541028194
$GNHDT,308.570,T*22
$PYRTM,2024,125.167899349063,16.277546759201
$GNGGA,040146.50,3511.81078591,N,12148.72304190,W,2,12,0.8,7.256,M,-38.498,M,7.4,0131*68
$PYRTM,2024,125.167899349063,16.277546759201
$GNHDT,308.768,T*29
$PYRTM,2024,125.167905188738,16.277552598889
$GNGGA,040147.00,3511.81086830,N,12148.72336796,W,2,12,0.8,7.318,M,-38.498,M,4.0,0131*66
$PYRTM,2024,125.167905188738,16.277552598889
$GNHDT,308.497,T*2A
$PYRTM,2024,125.167910924664,16.277558334803
$GNGGA,040147.50,3511.81092817,N,12148.72369358,W,2,12,0.8,7.518,M,-38.498,M,4.4,0131*6D
$PYRTM,2024,125.167910924664,16.277558334803
$GNHDT,308.110,T*20
$PYRTM,2024,125.167916762373,16.277564172512
$GNGGA,040148.00,3511.81100818,N,12148.72397054,W,2,12,0.8,7.804,M,-38.498,M,5.0,0131*69
$PYRTM,2024,125.167916762373,16.277564172512
$GNHDT,307.647,T*2A
$PYRTM,2024,125.167922492500,16.277569902639
$GNGGA,040148.50,3511.81113305,N,12148.72416671,W,2,12,0.8,8.097,M,-38.498,M,5.4,0131*6F
$PYRTM,2024,125.167922492500,16.277569902639
$GNHDT,307.158,T*23
$PYRTM,2024,125.167928332824,16.277575742963
$GNGGA,040149.00,3511.81132515,N,12148.72429102,W,2,12,0.8,8.294,M,-38.498,M,6.0,0131*66
$PYRTM,2024,125.167928332824,16.277575742963
$GNHDT,307.060,T*29
$PYRTM,2024,125.167934068646,16.277581478796
$GNGGA,040149.50,3511.81158428,N,12148.72439200,W,2,12,0.8,8.357,M,-38.498,M,6.4,0131*6A
$PYRTM,2024,125.167934068646,16.277581478796
$GNHDT,307.358,T*21
$PYRTM,2024,125.167939913426,16.277587323565
$GNGGA,040150.00,3511.81188802,N,12148.72449909,W,2,12,0.8,8.215,M,-38.498,M,7.0,0131*69
$PYRTM,2024,125.167939913426,16.277587323565
$GNHDT,307.622,T*29
$PYRTM,2024,125.167945647905,16.277593058044
$GNGGA,040150.50,3511.81219094,N,12148.72463469,W,2,12,0.8,7.917,M,-38.498,M,7.4,0131*61
$PYRTM,2024,125.167945647905,16.277593058044
$GNHDT,307.835,T*21
$PYRTM,2024,125.167951490220,16.277598900370
$GNGGA,040151.00,3511.81246578,N,12148.72479461,W,2,12,0.8,7.546,M,-38.498,M,7.0,0131*67
$PYRTM,2024,125.167951490220,16.277598900370
$GNHDT,308.293,T*28
$PYRTM,2024,125.167957213044,16.277604623183
$GNGGA,040151.50,3511.81267480,N,12148.72499386,W,2,12,0.8,7.224,M,-38.498,M,7.4,0131*60
$PYRTM,2024,125.167957213044,16.277604623183
$GNHDT,308.671,T*20
$PYRTM,2024,125.167963062025,16.277610472164
$GNGGA,040152.00,3511.81280182,N,12148.72522599,W,2,12,0.8,7.053,M,-38.498,M,7.0,0131*67
$PYRTM,2024,125.167963062025,16.277610472164
$GNHDT,308.510,T*24
$PYRTM,2024,125.167968793113,16.277616203252
$GNGGA,040152.50,3511.81285243,N,12148.72550389,W,2,12,0.8,7.070,M,-38.498,M,7.4,0131*6E
$PYRTM,2024,125.167968793113,16.277616203252
$GNHDT,308.464,T*26
$PYRTM,2024,125.167974634502,16.277622044641
$GNGGA,040153.00,3511.81286667,N,12148.72579564,W,2,12,0.8,7.233,M,-38.498,M,4.0,0131*67
$PYRTM,2024,125.167974634502,16.277622044641
$GNHDT,307.758,T*25
$PYRTM,2024,125.167980364028,16.277627774167
$GNGGA,040153.50,3511.81290921,N,12148.72608828,W,2,12,0.8,7.417,M,-38.498,M,4.4,0131*6C
$PYRTM,2024,125.167980364028,16.277627774167
$GNHDT,307.303,T*2F
$PYRTM,2024,125.167986204988,16.277633615127
$GNGGA,040154.00,3511.81301164,N,12148.72635582,W,2,12,0.8,7.560,M,-38.498,M,5.0,0131*69
$PYRTM,2024,125.167986204988,16.277633615127
$GNHDT,306.884,T*2A
$PYRTM,2024,125.167991941748,16.277639351887
$GNGGA,040154.50,3511.81318764,N,12148.72659044,W,2,12,0.8,7.636,M,-38.498,M,5.4,0131*63
$PYRTM,2024,125.167991941748,16.277639351887
$GNHDT,306.691,T*20
$PYRTM,2024,125.167997782581,16.277645192720
$GNGGA,040155.00,3511.81342772,N,12148.72678987,W,2,12,0.8,7.621,M,-38.498,M,6.0,0131*6B
$PYRTM,2024,125.167997782581,16.277645192720
$GNHDT,306.799,T*29
$PYRTM,2024,125.168003517315,16.277650927454
$GNGGA,040155.50,3511.81368478,N,12148.72694941,W,2,12,0.8,7.560,M,-38.498,M,6.4,0131*65
$PYRTM,2024,125.168003517315,16.277650927454
$GNHDT,307.195,T*22
$PYRTM,2024,125.168009368056,16.277656778194
$GNGGA,040156.00,3511.81393782,N,12148.72709725,W,2,12,0.8,7.473,M,-38.498,M,7.0,0131*6E
$PYRTM,2024,125.168009368056,16.277656778194
$GNHDT,307.199,T*2E
$PYRTM,2024,125.168015083484,16.277662493623
$GNGGA,040156.50,3511.81415837,N,12148.72725084,W,2,12,0.8,7.427,M,-38.498,M,7.4,0131*64
$PYRTM,2024,125.168015083484,16.277662493623
$GNHDT,307.172,T*2B
$PYRTM,2024,125.168020925648,16.277668335787
$GNGGA,040157.00,3511.81433539,N,12148.72744982,W,2,12,0.8,7.405,M,-38.498,M,7.0,0131*6B
$PYRTM,2024,125.168020925648,16.277668335787
$GNHDT,307.113,T*2C
$PYRTM,2024,125.168026662813,16.277674072951
$GNGGA,040157.50,3511.81448312,N,12148.72769306,W,2,12,0.8,7.418,M,-38.498,M,7.4,0131*6C
$PYRTM,2024,125.168026662813,16.277674072951
$GNHDT,307.125,T*29
$PYRTM,2024,125.168032505799,16.277679915938
$GNGGA,040158.00,3511.81461492,N,12148.72796601,W,2,12,0.8,7.457,M,-38.498,M,7.0,0131*6F
$PYRTM,2024,125.168032505799,16.277679915938
$GNHDT,307.203,T*2E
$PYRTM,2024,125.168038233738,16.277685643877
$GNGGA,040158.50,3511.81473174,N,12148.72823890,W,2,12,0.8,7.580,M,-38.498,M,7.4,0131*6C
$PYRTM,2024,125.168038233738,16.277685643877
$GNHDT,307.337,T*28
$PYRTM,2024,125.168044077894,16.277691488044
$GNGGA,040159.00,3511.81483465,N,12148.72848596,W,2,12,0.8,7.808,M,-38.498,M,4.0,0131*6E
$PYRTM,2024,125.168044077894,16.277691488044
$GNHDT,307.374,T*2F
$PYRTM,2024,125.168049811759,16.277697221898
$GNGGA,040159.50,3511.81495715,N,12148.72868778,W,2,12,0.8,8.056,M,-38.498,M,4.4,0131*60
$PYRTM,2024,125.168049811759,16.277697221898
$GNHDT,307.629,T*22
$PYRTM,2024,125.168055650312,16.277703060451
$GNGGA,040200.00,3511.81511233,N,12148.72884788,W,2,12,0.8,8.252,M,-38.498,M,5.0,0131*68
$PYRTM,2024,125.168055650312,16.277703060451
$GNHDT,307.361,T*2B
$PYRTM,2024,125.168061386053,16.277708796192
$GNGGA,040200.50,3511.81531991,N,12148.72900398,W,2,12,0.8,8.329,M,-38.498,M,5.4,0131*6D
$PYRTM,2024,125.168061386053,16.277708796192
$GNHDT,306.845,T*27
$PYRTM,2024,125.168067225220,16.277714635370
$GNGGA,040201.00,3511.81557242,N,12148.72918981,W,2,12,0.8,8.207,M,-38.498,M,6.0,0131*6D
$PYRTM,2024,125.168067225220,16.277714635370
$GNHDT,306.736,T*2C
$PYRTM,2024,125.168072959745,16.277720369884
$GNGGA,040201.50,3511.81583989,N,12148.72942439,W,2,12,0.8,7.894,M,-38.498,M,6.4,0131*67
$PYRTM,2024,125.168072959745,16.277720369884
$GNHDT,306.675,T*2A
$PYRTM,2024,125.168078802708,16.277726212847
$GNGGA,040202.00,3511.81608523,N,12148.72969237,W,2,12,0.8,7.525,M,-38.498,M,7.0,0131*6E
$PYRTM,2024,125.168078802708,16.277726212847
$GNHDT,306.633,T*28
$PYRTM,2024,125.168084529722,16.277731939861
$GNGGA,040202.50,3511.81627281,N,12148.72996186,W,2,12,0.8,7.270,M,-38.498,M,7.4,0131*63
$PYRTM,2024,125.168084529722,16.277731939861
$GNHDT,306.914,T*22
$PYRTM,2024,125.168090370637,16.277737780775
$GNGGA,040203.00,3511.81639127,N,12148.73020283,W,2,12,0.8,7.237,M,-38.498,M,7.0,0131*63
$PYRTM,2024,125.168090370637,16.277737780775
$GNHDT,307.123,T*2F
$PYRTM,2024,125.168096102627,16.277743512766
$GNGGA,040203.50,3511.81646198,N,12148.73039401,W,2,12,0.8,7.426,M,-38.498,M,7.4,0131*6C
$PYRTM,2024,125.168096102627,16.277743512766
$GNHDT,307.282,T*27
$PYRTM,2024,125.168101945116,16.277749355255
$GNGGA,040204.00,3511.81651380,N,12148.73055110,W,2,12,0.8,7.729,M,-38.498,M,7.0,0131*64
$PYRTM,2024,125.168101945116,16.277749355255
$GNHDT,307.526,T*2E
$PYRTM,2024,125.168107685231,16.277755095370
$GNGGA,040204.50,3511.81659027,N,12148.73070545,W,2,12,0.8,8.007,M,-38.498,M,7.4,0131*64
$PYRTM,2024,125.168107685231,16.277755095370
$GNHDT,307.391,T*24
$PYRTM,2024,125.168113526921,16.277760937060
$GNGGA,040205.00,3511.81672607,N,12148.73087623,W,2,12,0.8,8.104,M,-38.498,M,4.0,0131*63
$PYRTM,2024,125.168113526921,16.277760937060
$GNHDT,307.430,T*28
$PYRTM,2024,125.168119262975,16.277766673113
$GNGGA,040205.50,3511.81693138,N,12148.73108245,W,2,12,0.8,7.938,M,-38.498,M,4.4,0131*6C
$PYRTM,2024,125.168119262975,16.277766673113
$GNHDT,307.573,T*2E
$PYRTM,2024,125.168125097141,16.277772507280
$GNGGA,040206.00,3511.81718327,N,12148.73131235,W,2,12,0.8,7.582,M,-38.498,M,5.0,0131*61
$PYRTM,2024,125.168125097141,16.277772507280
$GNHDT,307.816,T*20
$PYRTM,2024,125.168130830150,16.277778240289
$GNGGA,040206.50,3511.81744622,N,12148.73154660,W,2,12,0.8,7.184,M,-38.498,M,5.4,0131*6C
$PYRTM,2024,125.168130830150,16.277778240289
$GNHDT,307.810,T*26
$PYRTM,2024,125.168136669271,16.277784079410
$GNGGA,040207.00,3511.81767388,N,12148.73177556,W,2,12,0.8,6.873,M,-38.498,M,6.0,0131*6C
$PYRTM,2024,125.168136669271,16.277784079410
$GNHDT,307.635,T*2F
$PYRTM,2024,125.168142401100,16.277789811238
$GNGGA,040207.50,3511.81781505,N,12148.73199890,W,2,12,0.8,6.807,M,-38.498,M,6.4,0131*62
$PYRTM,2024,125.168142401100,16.277789811238
$GNHDT,307.006,T*29
$PYRTM,2024,125.168148252014,16.277795662153
$GNGGA,040208.00,3511.81786546,N,12148.73221616,W,2,12,0.8,7.029,M,-38.498,M,7.0,0131*68
$PYRTM,2024,125.168148252014,16.277795662153
$GNHDT,306.830,T*25
$PYRTM,2024,125.168153975058,16.277801385197
$GNGGA,040208.50,3511.81786509,N,12148.73244081,W,2,12,0.8,7.366,M,-38.498,M,7.4,0131*61
$PYRTM,2024,125.168153975058,16.277801385197
$GNHDT,306.427,T*2F
$PYRTM,2024,125.168159823484,16.277807233623
$GNGGA,040209.00,3511.81785815,N,12148.73268870,W,2,12,0.8,7.668,M,-38.498,M,7.0,0131*61
$PYRTM,2024,125.168159823484,16.277807233623
$GNHDT,306.414,T*2F
$PYRTM,2024,125.168165550023,16.277812960162
$GNGGA,040209.50,3511.81792674,N,12148.73296236,W,2,12,0.8,7.778,M,-38.498,M,7.4,0131*66
$PYRTM,2024,125.168165550023,16.277812960162
$GNHDT,306.662,T*2C
$PYRTM,2024,125.168171395671,16.277818805822
$GNGGA,040210.00,3511.81811693,N,12148.73322211,W,2,12,0.8,7.624,M,-38.498,M,7.0,0131*61
$PYRTM,2024,125.168171395671,16.277818805822
$GNHDT,306.989,T*26
$PYRTM,2024,125.168177123611,16.277824533750
$GNGGA,040210.50,3511.81839487,N,12148.73344489,W,2,12,0.8,7.332,M,-38.498,M,7.4,0131*68
$PYRTM,2024,125.168177123611,16.277824533750
$GNHDT,307.076,T*2E
$PYRTM,2024,125.168182967072,16.277830377211
$GNGGA,040211.00,3511.81871885,N,12148.73360862,W,2,12,0.8,6.997,M,-38.498,M,4.0,0131*62
$PYRTM,2024,125.168182967072,16.277830377211
$GNHDT,306.999,T*27
$PYRTM,2024,125.168188699306,16.277836109444
$GNGGA,040211.50,3511.81901534,N,12148.73372988,W,2,12,0.8,6.821,M,-38.498,M,4.4,0131*68
$PYRTM,2024,125.168188699306,16.277836109444
$GNHDT,306.915,T*23
$PYRTM,2024,125.168194540463,16.277841950602
$GNGGA,040212.00,3511.81923387,N,12148.73384476,W,2,12,0.8,6.917,M,-38.498,M,5.0,0131*64
$PYRTM,2024,125.168194540463,16.277841950602
$GNHDT,306.908,T*2F
$PYRTM,2024,125.168200277361,16.277847687500
$GNGGA,040212.50,3511.81935702,N,12148.73398949,W,2,12,0.8,7.237,M,-38.498,M,5.4,0131*6F
$PYRTM,2024,125.168200277361,16.277847687500
$GNHDT,306.681,T*21
$PYRTM,2024,125.168206118530,16.277853528669
$GNGGA,040213.00,3511.81939736,N,12148.73419466,W,2,12,0.8,7.681,M,-38.498,M,6.0,0131*60
$PYRTM,2024,125.168206118530,16.277853528669
$GNHDT,306.771,T*2F
$PYRTM,2024,125.168211845683,16.277859255822
$GNGGA,040213.50,3511.81940738,N,12148.73446483,W,2,12,0.8,8.065,M,-38.498,M,6.4,0131*63
$PYRTM,2024,125.168211845683,16.277859255822
$GNHDT,306.581,T*22
$PYRTM,2024,125.168217691123,16.277865101273
$GNGGA,040214.00,3511.81943492,N,12148.73478978,W,2,12,0.8,8.256,M,-38.498,M,7.0,0131*62
$PYRTM,2024,125.168217691123,16.277865101273
$GNHDT,306.454,T*2B
$PYRTM,2024,125.168223422164,16.277870832303
$GNGGA,040214.50,3511.81952154,N,12148.73513025,W,2,12,0.8,8.254,M,-38.498,M,7.4,0131*63
$PYRTM,2024,125.168223422164,16.277870832303
$GNHDT,306.178,T*20
$PYRTM,2024,125.168229260660,16.277876670799
$GNGGA,040215.00,3511.81968399,N,12148.73544069,W,2,12,0.8,8.111,M,-38.498,M,7.0,0131*61
$PYRTM,2024,125.168229260660,16.277876670799
$GNHDT,305.886,T*2B
$PYRTM,2024,125.168234995382,16.277882405521
$GNGGA,040215.50,3511.81990727,N,12148.73565357,W,2,12,0.8,7.903,M,-38.498,M,7.4,0131*6F
$PYRTM,2024,125.168234995382,16.277882405521
$GNHDT,305.891,T*2D
$PYRTM,2024,125.168240838403,16.277888248542
$GNGGA,040216.00,3511.82016821,N,12148.73577291,W,2,12,0.8,7.728,M,-38.498,M,7.0,0131*6F
$PYRTM,2024,125.168240838403,16.277888248542
$GNHDT,306.035,T*28
$PYRTM,2024,125.168246565231,16.277893975370
$GNGGA,040216.50,3511.82042272,N,12148.73582884,W,2,12,0.8,7.636,M,-38.498,M,7.4,0131*69
$PYRTM,2024,125.168246565231,16.277893975370
$GNHDT,306.453,T*2C
$PYRTM,2024,125.168252408194,16.277899818333
$GNGGA,040217.00,3511.82064306,N,12148.73586836,W,2,12,0.8,7.641,M,-38.498,M,4.0,0131*61
$PYRTM,2024,125.168252408194,16.277899818333
$GNHDT,306.679,T*26
$PYRTM,2024,125.168258144086,16.277905554225
$GNGGA,040217.50,3511.82082000,N,12148.73594383,W,2,12,0.8,7.696,M,-38.498,M,4.4,0131*61
$PYRTM,2024,125.168258144086,16.277905554225
$GNHDT,307.157,T*2C
$PYRTM,2024,125.168263982905,16.277911393044
$GNGGA,040218.00,3511.82094852,N,12148.73610472,W,2,12,0.8,7.742,M,-38.498,M,5.0,0131*68
$PYRTM,2024,125.168263982905,16.277911393044
$GNHDT,307.450,T*2E
$PYRTM,2024,125.168269713241,16.277917123380
$GNGGA,040218.50,3511.82104814,N,12148.73635914,W,2,12,0.8,7.730,M,-38.498,M,5.4,0131*6C
$PYRTM,2024,125.168269713241,16.277917123380
$GNHDT,307.907,T*21
$PYRTM,2024,125.168275557998,16.277922968137
$GNGGA,040219.00,3511.82113564,N,12148.73669083,W,2,12,0.8,7.688,M,-38.498,M,6.0,0131*6F
$PYRTM,2024,125.168275557998,16.277922968137
$GNHDT,307.775,T*2A
$PYRTM,2024,125.168281287812,16.277928697951
$GNGGA,040219.50,3511.82122255,N,12148.73703386,W,2,12,0.8,7.621,M,-38.498,M,6.4,0131*61
$PYRTM,2024,125.168281287812,16.277928697951
$GNHDT,307.342,T*2A
$PYRTM,2024,125.168287136678,16.277934546817
$GNGGA,040220.00,3511.82131787,N,12148.73734918,W,2,12,0.8,7.584,M,-38.498,M,7.0,0131*66
$PYRTM,2024,125.168287136678,16.277934546817
$GNHDT,306.979,T*29
$PYRTM,2024,125.168292864375,16.277940274514
$GNGGA,040220.50,3511.82143833,N,12148.73759968,W,2,12,0.8,7.615,M,-38.498,M,7.4,0131*65
$PYRTM,2024,125.168292864375,16.277940274514
$GNHDT,307.043,T*28
$PYRTM,2024,125.168298704421,16.277946114560
$GNGGA,040221.00,3511.82160394,N,12148.73777578,W,2,12,0.8,7.683,M,-38.498,M,7.0,0131*6C
$PYRTM,2024,125.168298704421,16.277946114560
$GNHDT,307.310,T*2D
$PYRTM,2024,125.168304439549,16.277951849688
$GNGGA,040221.50,3511.82181580,N,12148.73790192,W,2,12,0.8,7.706,M,-38.498,M,7.4,0131*64
$PYRTM,2024,125.168304439549,16.277951849688
$GNHDT,307.626,T*2D
$PYRTM,2024,125.168310279525,16.277957689664
$GNGGA,040222.00,3511.82205374,N,12148.73800897,W,2,12,0.8,7.640,M,-38.498,M,7.0,0131*6D
$PYRTM,2024,125.168310279525,16.277957689664
$GNHDT,308.014,T*25
$PYRTM,2024,125.168316010058,16.277963420197
$GNGGA,040222.50,3511.82228095,N,12148.73813672,W,2,12,0.8,7.568,M,-38.498,M,7.4,0131*61
$PYRTM,2024,125.168316010058,16.277963420197
$GNHDT,307.851,T*23
$PYRTM,2024,125.168321852616,16.277969262766
$GNGGA,040223.00,3511.82246124,N,12148.73831253,W,2,12,0.8,7.515,M,-38.498,M,4.0,0131*6C
$PYRTM,2024,125.168321852616,16.277969262766
$GNHDT,307.863,T*22
$PYRTM,2024,125.168327585000,16.277974995139
$GNGGA,040223.50,3511.82259640,N,12148.73853386,W,2,12,0.8,7.512,M,-38.498,M,4.4,0131*6C
$PYRTM,2024,125.168327585000,16.277974995139
$GNHDT,308.238,T*29
$PYRTM,2024,125.168333433484,16.277980843623
$GNGGA,040224.00,3511.82271134,N,12148.73878707,W,2,12,0.8,7.546,M,-38.498,M,5.0,0131*60
$PYRTM,2024,125.168333433484,16.277980843623
$GNHDT,308.490,T*2D
$PYRTM,2024,125.168339159491,16.277986569630
$GNGGA,040224.50,3511.82282965,N,12148.73903975,W,2,12,0.8,7.627,M,-38.498,M,5.4,0131*63
$PYRTM,2024,125.168339159491,16.277986569630
$GNHDT,308.744,T*27
$PYRTM,2024,125.168345005197,16.277992415336
$GNGGA,040225.00,3511.82296167,N,12148.73926068,W,2,12,0.8,7.713,M,-38.498,M,6.0,0131*6B
$PYRTM,2024,125.168345005197,16.277992415336
$GNHDT,308.876,T*29
$PYRTM,2024,125.168350739363,16.277998149502
$GNGGA,040225.50,3511.82311401,N,12148.73944436,W,2,12,0.8,7.787,M,-38.498,M,6.4,0131*67
$PYRTM,2024,125.168350739363,16.277998149502
$GNHDT,308.893,T*22
$PYRTM,2024,125.168356575683,16.278003985833
$GNGGA,040226.00,3511.82328748,N,12148.73959075,W,2,12,0.8,7.847,M,-38.498,M,7.0,0131*6C
$PYRTM,2024,125.168356575683,16.278003985833
$GNHDT,309.111,T*20
$PYRTM,2024,125.168362306748,16.278009716887
$GNGGA,040226.50,3511.82347377,N,12148.73972442,W,2,12,0.8,7.870,M,-38.498,M,7.4,0131*61
$PYRTM,2024,125.168362306748,16.278009716887
$GNHDT,309.395,T*2E
$PYRTM,2024,125.168368152083,16.278015562222
$GNGGA,040227.00,3511.82366468,N,12148.73986106,W,2,12,0.8,7.856,M,-38.498,M,7.0,0131*61
$PYRTM,2024,125.168368152083,16.278015562222
$GNHDT,309.303,T*21
$PYRTM,2024,125.168373880648,16.278021290799
$GNGGA,040227.50,3511.82385584,N,12148.74003481,W,2,12,0.8,7.801,M,-38.498,M,7.4,0131*65
$PYRTM,2024,125.168373880648,16.278021290799
$GNHDT,309.129,T*2B
$PYRTM,2024,125.168379732130,16.278027142269
$GNGGA,040228.00,3511.82404487,N,12148.74025023,W,2,12,0.8,7.700,M,-38.498,M,7.0,0131*61
$PYRTM,2024,125.168379732130,16.278027142269
$GNHDT,308.835,T*2E
$PYRTM,2024,125.168385453912,16.278032864051
$GNGGA,040228.50,3511.82423604,N,12148.74049476,W,2,12,0.8,7.576,M,-38.498,M,7.4,0131*61
$PYRTM,2024,125.168385453912,16.278032864051
$GNHDT,308.799,T*27
$PYRTM,2024,125.168391299803,16.278038709942
