$PYRTM,2024,124.916666862095,16.026314272234
$GNGGA,220000.00,3510.63134582,N,12128.04406717,W,2,13,0.8,6.738,M,-37.356,M,5.0,0131*66
$PYRTM,2024,124.916666862095,16.026314272234
$GNHDT,239.141,T*27
$PYRTM,2024,124.916672590255,16.026320000405
$GNGGA,220000.50,3510.63130898,N,12128.04421219,W,2,13,0.8,6.800,M,-37.356,M,5.4,0131*6F
$PYRTM,2024,124.916672590255,16.026320000405
$GNHDT,238.939,T*21
$PYRTM,2024,124.916678431435,16.026325841574
$GNGGA,220001.00,3510.63127117,N,12128.04433012,W,2,13,0.8,6.878,M,-37.356,M,6.0,0131*61
$PYRTM,2024,124.916678431435,16.026325841574
$GNHDT,238.633,T*24
$PYRTM,2024,124.916684163333,16.026331573472
$GNGGA,220001.50,3510.63123816,N,12128.04444964,W,2,13,0.8,6.948,M,-37.356,M,6.4,0131*66
$PYRTM,2024,124.916684163333,16.026331573472
$GNHDT,238.337,T*25
$PYRTM,2024,124.916690004387,16.026337414525
$GNGGA,220002.00,3510.63120973,N,12128.04458888,W,2,13,0.8,6.963,M,-37.356,M,7.0,0131*63
$PYRTM,2024,124.916690004387,16.026337414525
$GNHDT,238.041,T*27
$PYRTM,2024,124.916695734398,16.026343144549
$GNGGA,220002.50,3510.63117899,N,12128.04475397,W,2,13,0.8,6.903,M,-37.356,M,7.4,0131*6F
$PYRTM,2024,124.916695734398,16.026343144549
$GNHDT,237.669,T*24
$PYRTM,2024,124.916701583368,16.026348993519
$GNGGA,220003.00,3510.63113488,N,12128.04493404,W,2,13,0.8,6.774,M,-37.356,M,7.0,0131*6C
$PYRTM,2024,124.916701583368,16.026348993519
$GNHDT,237.507,T*2F
$PYRTM,2024,124.916707308796,16.026354718935
$GNGGA,220003.50,3510.63106179,N,12128.04510705,W,2,13,0.8,6.626,M,-37.356,M,7.4,0131*6C
$PYRTM,2024,124.916707308796,16.026354718935
$GNHDT,237.410,T*28
$PYRTM,2024,124.916713154178,16.026360564317
$GNGGA,220004.00,3510.63097606,N,12128.04525982,W,2,13,0.8,6.509,M,-37.356,M,7.0,0131*65
$PYRTM,2024,124.916713154178,16.026360564317
$GNHDT,237.510,T*29
$PYRTM,2024,124.916718882257,16.026366292407
$GNGGA,220004.50,3510.63089504,N,12128.04538650,W,2,13,0.8,6.473,M,-37.356,M,7.4,0131*6A
$PYRTM,2024,124.916718882257,16.026366292407
$GNHDT,237.394,T*23
$PYRTM,2024,124.916724728970,16.026372139109
$GNGGA,220005.00,3510.63084625,N,12128.04547989,W,2,13,0.8,6.533,M,-37.356,M,4.0,0131*62
$PYRTM,2024,124.916724728970,16.026372139109
$GNHDT,237.187,T*23
$PYRTM,2024,124.916730457720,16.026377867859
$GNGGA,220005.50,3510.63079706,N,12128.04557612,W,2,13,0.8,6.626,M,-37.356,M,4.4,0131*6A
$PYRTM,2024,124.916730457720,16.026377867859
$GNHDT,236.928,T*2F
$PYRTM,2024,124.916736303576,16.026383713715
$GNGGA,220006.00,3510.63076040,N,12128.04569314,W,2,13,0.8,6.713,M,-37.356,M,5.0,0131*6A
$PYRTM,2024,124.916736303576,16.026383713715
$GNHDT,236.622,T*2A
$PYRTM,2024,124.916742037257,16.026389447396
$GNGGA,220006.50,3510.63073186,N,12128.04584693,W,2,13,0.8,6.719,M,-37.356,M,5.4,0131*66
$PYRTM,2024,124.916742037257,16.026389447396
$GNHDT,236.777,T*2B
$PYRTM,2024,124.916747879850,16.026395289988
$GNGGA,220007.00,3510.63072457,N,12128.04604143,W,2,13,0.8,6.651,M,-37.356,M,6.0,0131*61
$PYRTM,2024,124.916747879850,16.026395289988
$GNHDT,236.776,T*2A
$PYRTM,2024,124.916753606829,16.026401016968
$GNGGA,220007.50,3510.63072595,N,12128.04624824,W,2,13,0.8,6.566,M,-37.356,M,6.4,0131*62
$PYRTM,2024,124.916753606829,16.026401016968
$GNHDT,236.719,T*23
$PYRTM,2024,124.916759449398,16.026406859549
$GNGGA,220008.00,3510.63071214,N,12128.04644953,W,2,13,0.8,6.510,M,-37.356,M,7.0,0131*66
$PYRTM,2024,124.916759449398,16.026406859549
$GNHDT,236.751,T*2F
$PYRTM,2024,124.916765183958,16.026412594109
$GNGGA,220008.50,3510.63064865,N,12128.04660432,W,2,13,0.8,6.586,M,-37.356,M,7.4,0131*6C
$PYRTM,2024,124.916765183958,16.026412594109
$GNHDT,236.201,T*2F
$PYRTM,2024,124.916771023831,16.026418433970
$GNGGA,220009.00,3510.63052048,N,12128.04668949,W,2,13,0.8,6.808,M,-37.356,M,7.0,0131*6C
$PYRTM,2024,124.916771023831,16.026418433970
$GNHDT,235.950,T*23
$PYRTM,2024,124.916776754155,16.026424164294
$GNGGA,220009.50,3510.63036401,N,12128.04672137,W,2,13,0.8,7.101,M,-37.356,M,7.4,0131*6D
$PYRTM,2024,124.916776754155,16.026424164294
$GNHDT,235.778,T*27
$PYRTM,2024,124.916782600498,16.026430010648
$GNGGA,220010.00,3510.63021764,N,12128.04673462,W,2,13,0.8,7.380,M,-37.356,M,7.0,0131*6D
$PYRTM,2024,124.916782600498,16.026430010648
$GNHDT,235.497,T*25
$PYRTM,2024,124.916788330648,16.026435740787
$GNGGA,220010.50,3510.63012970,N,12128.04677873,W,2,13,0.8,7.509,M,-37.356,M,7.4,0131*68
$PYRTM,2024,124.916788330648,16.026435740787
$GNHDT,235.799,T*28
$PYRTM,2024,124.916794170938,16.026441581076
$GNGGA,220011.00,3510.63010379,N,12128.04689714,W,2,13,0.8,7.392,M,-37.356,M,4.0,0131*61
$PYRTM,2024,124.916794170938,16.026441581076
$GNHDT,235.905,T*23
$PYRTM,2024,124.916799912037,16.026447322176
$GNGGA,220011.50,3510.63012645,N,12128.04707474,W,2,13,0.8,7.087,M,-37.356,M,4.4,0131*6D
$PYRTM,2024,124.916799912037,16.026447322176
$GNHDT,235.628,T*23
$PYRTM,2024,124.916805749005,16.026453159144
$GNGGA,220012.00,3510.63016774,N,12128.04729689,W,2,13,0.8,6.689,M,-37.356,M,5.0,0131*6C
$PYRTM,2024,124.916805749005,16.026453159144
$GNHDT,235.716,T*2F
$PYRTM,2024,124.916811480475,16.026458890613
$GNGGA,220012.50,3510.63022323,N,12128.04751933,W,2,13,0.8,6.364,M,-37.356,M,5.4,0131*6B
$PYRTM,2024,124.916811480475,16.026458890613
$GNHDT,235.651,T*2D
$PYRTM,2024,124.916817326285,16.026464736424
$GNGGA,220013.00,3510.63024519,N,12128.04768878,W,2,13,0.8,6.263,M,-37.356,M,6.0,0131*63
$PYRTM,2024,124.916817326285,16.026464736424
$GNHDT,235.527,T*2F
$PYRTM,2024,124.916823050486,16.026470460625
$GNGGA,220013.50,3510.63021617,N,12128.04777876,W,2,13,0.8,6.412,M,-37.356,M,6.4,0131*6A
$PYRTM,2024,124.916823050486,16.026470460625
$GNHDT,235.347,T*2F
$PYRTM,2024,124.916828897639,16.026476307778
$GNGGA,220014.00,3510.63014688,N,12128.04779791,W,2,13,0.8,6.750,M,-37.356,M,7.0,0131*60
$PYRTM,2024,124.916828897639,16.026476307778
$GNHDT,234.908,T*2F
$PYRTM,2024,124.916834626100,16.026482036227
$GNGGA,220014.50,3510.63000687,N,12128.04778698,W,2,13,0.8,7.105,M,-37.356,M,7.4,0131*65
$PYRTM,2024,124.916834626100,16.026482036227
$GNHDT,234.562,T*2F
$PYRTM,2024,124.916840472789,16.026487882928
$GNGGA,220015.00,3510.62984178,N,12128.04778033,W,2,13,0.8,7.375,M,-37.356,M,7.0,0131*64
$PYRTM,2024,124.916840472789,16.026487882928
$GNHDT,234.162,T*2B
$PYRTM,2024,124.916846198125,16.026493608264
$GNGGA,220015.50,3510.62969691,N,12128.04781534,W,2,13,0.8,7.456,M,-37.356,M,7.4,0131*64
$PYRTM,2024,124.916846198125,16.026493608264
$GNHDT,234.081,T*27
$PYRTM,2024,124.916852042454,16.026499452593
$GNGGA,220016.00,3510.62960520,N,12128.04790618,W,2,13,0.8,7.356,M,-37.356,M,7.0,0131*6C
$PYRTM,2024,124.916852042454,16.026499452593
$GNHDT,233.932,T*21
$PYRTM,2024,124.916857774062,16.026505184201
$GNGGA,220016.50,3510.62955324,N,12128.04803715,W,2,13,0.8,7.087,M,-37.356,M,7.4,0131*6F
$PYRTM,2024,124.916857774062,16.026505184201
$GNHDT,233.977,T*20
$PYRTM,2024,124.916863615185,16.026511025324
$GNGGA,220017.00,3510.62953050,N,12128.04821797,W,2,13,0.8,6.726,M,-37.356,M,4.0,0131*6D
$PYRTM,2024,124.916863615185,16.026511025324
$GNHDT,233.747,T*2D
$PYRTM,2024,124.916869348796,16.026516758935
$GNGGA,220017.50,3510.62955280,N,12128.04841155,W,2,13,0.8,6.369,M,-37.356,M,4.4,0131*64
$PYRTM,2024,124.916869348796,16.026516758935
$GNHDT,233.932,T*21
$PYRTM,2024,124.916875190162,16.026522600301
$GNGGA,220018.00,3510.62958376,N,12128.04859988,W,2,13,0.8,6.099,M,-37.356,M,5.0,0131*63
$PYRTM,2024,124.916875190162,16.026522600301
$GNHDT,234.041,T*2B
$PYRTM,2024,124.916880919375,16.026528329514
$GNGGA,220018.50,3510.62959589,N,12128.04873917,W,2,13,0.8,5.984,M,-37.356,M,5.4,0131*6D
$PYRTM,2024,124.916880919375,16.026528329514
$GNHDT,233.892,T*2A
$PYRTM,2024,124.916886766644,16.026534176782
$GNGGA,220019.00,3510.62957360,N,12128.04882396,W,2,13,0.8,6.105,M,-37.356,M,6.0,0131*6E
$PYRTM,2024,124.916886766644,16.026534176782
$GNHDT,233.834,T*26
$PYRTM,2024,124.916892497789,16.026539907940
$GNGGA,220019.50,3510.62948570,N,12128.04886355,W,2,13,0.8,6.388,M,-37.356,M,6.4,0131*6A
$PYRTM,2024,124.916892497789,16.026539907940
$GNHDT,233.166,T*28
$PYRTM,2024,124.916898349977,16.026545760116
$GNGGA,220020.00,3510.62934772,N,12128.04887996,W,2,13,0.8,6.753,M,-37.356,M,7.0,0131*6D
$PYRTM,2024,124.916898349977,16.026545760116
$GNHDT,232.858,T*2D
$PYRTM,2024,124.916904068542,16.026551478681
$GNGGA,220020.50,3510.62917079,N,12128.04888402,W,2,13,0.8,7.081,M,-37.356,M,7.4,0131*67
$PYRTM,2024,124.916904068542,16.026551478681
$GNHDT,233.029,T*22
$PYRTM,2024,124.916909911065,16.026557321204
$GNGGA,220021.00,3510.62902950,N,12128.04891500,W,2,13,0.8,7.299,M,-37.356,M,7.0,0131*61
$PYRTM,2024,124.916909911065,16.026557321204
$GNHDT,233.042,T*2F
$PYRTM,2024,124.916915646910,16.026563057049
$GNGGA,220021.50,3510.62893514,N,12128.04898759,W,2,13,0.8,7.367,M,-37.356,M,7.4,0131*62
$PYRTM,2024,124.916915646910,16.026563057049
$GNHDT,232.666,T*2E
$PYRTM,2024,124.916921487616,16.026568897755
$GNGGA,220022.00,3510.62889748,N,12128.04910804,W,2,13,0.8,7.265,M,-37.356,M,7.0,0131*65
$PYRTM,2024,124.916921487616,16.026568897755
$GNHDT,232.518,T*24
$PYRTM,2024,124.916927224387,16.026574634537
$GNGGA,220022.50,3510.62890232,N,12128.04926149,W,2,13,0.8,7.018,M,-37.356,M,7.4,0131*69
$PYRTM,2024,124.916927224387,16.026574634537
$GNHDT,232.535,T*2B
$PYRTM,2024,124.916933065243,16.026580475382
$GNGGA,220023.00,3510.62891240,N,12128.04944473,W,2,13,0.8,6.686,M,-37.356,M,4.0,0131*66
$PYRTM,2024,124.916933065243,16.026580475382
$GNHDT,232.682,T*24
$PYRTM,2024,124.916938805498,16.026586215637
$GNGGA,220023.50,3510.62894551,N,12128.04961754,W,2,13,0.8,6.390,M,-37.356,M,4.4,0131*66
$PYRTM,2024,124.916938805498,16.026586215637
$GNHDT,232.267,T*2B
$PYRTM,2024,124.916944636620,16.026592046759
$GNGGA,220024.00,3510.62896796,N,12128.04975829,W,2,13,0.8,6.226,M,-37.356,M,5.0,0131*66
$PYRTM,2024,124.916944636620,16.026592046759
$GNHDT,232.179,T*27
$PYRTM,2024,124.916950366146,16.026597776285
$GNGGA,220024.50,3510.62893415,N,12128.04983890,W,2,13,0.8,6.251,M,-37.356,M,5.4,0131*61
$PYRTM,2024,124.916950366146,16.026597776285
$GNHDT,232.223,T*2B
$PYRTM,2024,124.916956210880,16.026603621019
$GNGGA,220025.00,3510.62884989,N,12128.04985736,W,2,13,0.8,6.456,M,-37.356,M,6.0,0131*68
$PYRTM,2024,124.916956210880,16.026603621019
$GNHDT,232.132,T*28
$PYRTM,2024,124.916961939653,16.026609349803
$GNGGA,220025.50,3510.62872322,N,12128.04984304,W,2,13,0.8,6.733,M,-37.356,M,6.4,0131*6F
$PYRTM,2024,124.916961939653,16.026609349803
$GNHDT,231.944,T*22
$PYRTM,2024,124.916967783854,16.026615193993
$GNGGA,220026.00,3510.62858863,N,12128.04982681,W,2,13,0.8,6.982,M,-37.356,M,7.0,0131*60
$PYRTM,2024,124.916967783854,16.026615193993
$GNHDT,231.954,T*23
$PYRTM,2024,124.916973512905,16.026620923044
$GNGGA,220026.50,3510.62847555,N,12128.04985305,W,2,13,0.8,7.122,M,-37.356,M,7.4,0131*6A
$PYRTM,2024,124.916973512905,16.026620923044
$GNHDT,231.740,T*28
$PYRTM,2024,124.916979356782,16.026626766933
$GNGGA,220027.00,3510.62841387,N,12128.04994963,W,2,13,0.8,7.112,M,-37.356,M,7.0,0131*6C
$PYRTM,2024,124.916979356782,16.026626766933
$GNHDT,231.770,T*2B
$PYRTM,2024,124.916985087685,16.026632497824
$GNGGA,220027.50,3510.62838887,N,12128.05008211,W,2,13,0.8,7.003,M,-37.357,M,7.4,0131*6B
$PYRTM,2024,124.916985087685,16.026632497824
$GNHDT,231.877,T*23
$PYRTM,2024,124.916990933681,16.026638343831
$GNGGA,220028.00,3510.62839084,N,12128.05023556,W,2,13,0.8,6.858,M,-37.357,M,7.0,0131*65
$PYRTM,2024,124.916990933681,16.026638343831
$GNHDT,231.690,T*24
$PYRTM,2024,124.916996662662,16.026644072813
$GNGGA,220028.50,3510.62839280,N,12128.05036175,W,2,13,0.8,6.731,M,-37.357,M,7.4,0131*63
$PYRTM,2024,124.916996662662,16.026644072813
$GNHDT,231.319,T*20
$PYRTM,2024,124.917002509965,16.026649920104
$GNGGA,220029.00,3510.62837056,N,12128.05046332,W,2,13,0.8,6.660,M,-37.357,M,4.0,0131*64
$PYRTM,2024,124.917002509965,16.026649920104
$GNHDT,231.058,T*26
$PYRTM,2024,124.917008239815,16.026655649954
$GNGGA,220029.50,3510.62833623,N,12128.05050677,W,2,13,0.8,6.692,M,-37.357,M,4.4,0131*6B
$PYRTM,2024,124.917008239815,16.026655649954
$GNHDT,231.008,T*23
$PYRTM,2024,124.917014079549,16.026661489687
$GNGGA,220030.00,3510.62829213,N,12128.05052985,W,2,13,0.8,6.756,M,-37.357,M,5.0,0131*66
$PYRTM,2024,124.917014079549,16.026661489687
$GNHDT,230.907,T*24
$PYRTM,2024,124.917019814433,16.026667224572
$GNGGA,220030.50,3510.62824693,N,12128.05056080,W,2,13,0.8,6.798,M,-37.357,M,5.4,0131*6C
$PYRTM,2024,124.917019814433,16.026667224572
$GNHDT,231.166,T*2A
$PYRTM,2024,124.917025660255,16.026673070405
$GNGGA,220031.00,3510.62818415,N,12128.05061461,W,2,13,0.8,6.776,M,-37.357,M,6.0,0131*63
$PYRTM,2024,124.917025660255,16.026673070405
$GNHDT,231.386,T*26
$PYRTM,2024,124.917031387685,16.026678797824
$GNGGA,220031.50,3510.62812177,N,12128.05067845,W,2,13,0.8,6.734,M,-37.357,M,6.4,0131*63
$PYRTM,2024,124.917031387685,16.026678797824
$GNHDT,231.115,T*2E
$PYRTM,2024,124.917037231933,16.026684642083
$GNGGA,220032.00,3510.62805504,N,12128.05075329,W,2,13,0.8,6.724,M,-37.357,M,7.0,0131*65
$PYRTM,2024,124.917037231933,16.026684642083
$GNHDT,231.036,T*2E
$PYRTM,2024,124.917042959479,16.026690369630
$GNGGA,220032.50,3510.62801372,N,12128.05079686,W,2,13,0.8,6.775,M,-37.357,M,7.4,0131*6F
$PYRTM,2024,124.917042959479,16.026690369630
$GNHDT,231.023,T*2A
$PYRTM,2024,124.917048805243,16.026696215382
$GNGGA,220033.00,3510.62796834,N,12128.05083738,W,2,13,0.8,6.879,M,-37.357,M,7.0,0131*65
$PYRTM,2024,124.917048805243,16.026696215382
$GNHDT,230.794,T*20
$PYRTM,2024,124.917054539178,16.026701949317
$GNGGA,220033.50,3510.62792059,N,12128.05087607,W,2,13,0.8,6.929,M,-37.357,M,7.4,0131*6E
$PYRTM,2024,124.917054539178,16.026701949317
$GNHDT,230.604,T*28
$PYRTM,2024,124.917060376678,16.026707786817
$GNGGA,220034.00,3510.62786720,N,12128.05094542,W,2,13,0.8,6.904,M,-37.357,M,7.0,0131*6B
$PYRTM,2024,124.917060376678,16.026707786817
$GNHDT,230.419,T*26
$PYRTM,2024,124.917066110579,16.026713520729
$GNGGA,220034.50,3510.62783978,N,12128.05101900,W,2,13,0.8,6.788,M,-37.357,M,7.4,0131*61
$PYRTM,2024,124.917066110579,16.026713520729
$GNHDT,230.230,T*2B
$PYRTM,2024,124.917071950150,16.026719360289
$GNGGA,220035.00,3510.62781860,N,12128.05110687,W,2,13,0.8,6.597,M,-37.357,M,4.0,0131*64
$PYRTM,2024,124.917071950150,16.026719360289
$GNHDT,230.260,T*2E
$PYRTM,2024,124.917077682280,16.026725092419
$GNGGA,220035.50,3510.62779644,N,12128.05119405,W,2,13,0.8,6.413,M,-37.357,M,4.4,0131*66
$PYRTM,2024,124.917077682280,16.026725092419
$GNHDT,230.082,T*20
$PYRTM,2024,124.917083529734,16.026730939873
$GNGGA,220036.00,3510.62775833,N,12128.05127777,W,2,13,0.8,6.277,M,-37.357,M,5.0,0131*68
$PYRTM,2024,124.917083529734,16.026730939873
$GNHDT,230.005,T*2F
$PYRTM,2024,124.917089256262,16.026736666400
$GNGGA,220036.50,3510.62769454,N,12128.05133831,W,2,13,0.8,6.228,M,-37.357,M,5.4,0131*6B
$PYRTM,2024,124.917089256262,16.026736666400
$GNHDT,230.078,T*25
$PYRTM,2024,124.917095098079,16.026742508218
$GNGGA,220037.00,3510.62759497,N,12128.05136305,W,2,13,0.8,6.323,M,-37.357,M,6.0,0131*67
$PYRTM,2024,124.917095098079,16.026742508218
$GNHDT,229.976,T*2A
$PYRTM,2024,124.917100837442,16.026748247581
$GNGGA,220037.50,3510.62746987,N,12128.05134349,W,2,13,0.8,6.509,M,-37.357,M,6.4,0131*60
$PYRTM,2024,124.917100837442,16.026748247581
$GNHDT,229.695,T*28
$PYRTM,2024,124.917106677234,16.026754087373
$GNGGA,220038.00,3510.62733080,N,12128.05131339,W,2,13,0.8,6.727,M,-37.357,M,7.0,0131*6F
$PYRTM,2024,124.917106677234,16.026754087373
$GNHDT,229.530,T*24
$PYRTM,2024,124.917112407812,16.026759817951
$GNGGA,220038.50,3510.62721182,N,12128.05130101,W,2,13,0.8,6.885,M,-37.357,M,7.4,0131*61
$PYRTM,2024,124.917112407812,16.026759817951
$GNHDT,229.612,T*27
$PYRTM,2024,124.917118249039,16.026765659178
$GNGGA,220039.00,3510.62713730,N,12128.05134341,W,2,13,0.8,6.890,M,-37.357,M,7.0,0131*69
$PYRTM,2024,124.917118249039,16.026765659178
$GNHDT,229.713,T*27
$PYRTM,2024,124.917123977245,16.026771387384
$GNGGA,220039.50,3510.62711157,N,12128.05144357,W,2,13,0.8,6.721,M,-37.357,M,7.4,0131*68
$PYRTM,2024,124.917123977245,16.026771387384
$GNHDT,229.465,T*25
$PYRTM,2024,124.917129826030,16.026777236169
$GNGGA,220040.00,3510.62712508,N,12128.05158091,W,2,13,0.8,6.432,M,-37.357,M,7.0,0131*6F
$PYRTM,2024,124.917129826030,16.026777236169
$GNHDT,229.394,T*2C
$PYRTM,2024,124.917135555012,16.026782965150
$GNGGA,220040.50,3510.62714822,N,12128.05173296,W,2,13,0.8,6.109,M,-37.357,M,7.4,0131*6C
$PYRTM,2024,124.917135555012,16.026782965150
$GNHDT,229.676,T*25
$PYRTM,2024,124.917141401713,16.026788811852
$GNGGA,220041.00,3510.62713884,N,12128.05184648,W,2,13,0.8,5.882,M,-37.357,M,4.0,0131*62
$PYRTM,2024,124.917141401713,16.026788811852
$GNHDT,229.161,T*24
$PYRTM,2024,124.917147125231,16.026794535382
$GNGGA,220041.50,3510.62711747,N,12128.05191796,W,2,13,0.8,5.873,M,-37.357,M,4.4,0131*69
$PYRTM,2024,124.917147125231,16.026794535382
$GNHDT,229.420,T*24
$PYRTM,2024,124.917152974433,16.026800384572
$GNGGA,220042.00,3510.62705869,N,12128.05190439,W,2,13,0.8,6.091,M,-37.357,M,5.0,0131*6C
$PYRTM,2024,124.917152974433,16.026800384572
$GNHDT,229.462,T*22
$PYRTM,2024,124.917158705162,16.026806115301
$GNGGA,220042.50,3510.62695363,N,12128.05184004,W,2,13,0.8,6.497,M,-37.357,M,5.4,0131*69
$PYRTM,2024,124.917158705162,16.026806115301
$GNHDT,229.040,T*26
$PYRTM,2024,124.917164546887,16.026811957025
$GNGGA,220043.00,3510.62682037,N,12128.05176230,W,2,13,0.8,6.970,M,-37.357,M,6.0,0131*62
$PYRTM,2024,124.917164546887,16.026811957025
$GNHDT,228.817,T*2D
$PYRTM,2024,124.917170282211,16.026817692350
$GNGGA,220043.50,3510.62669217,N,12128.05170641,W,2,13,0.8,7.376,M,-37.357,M,6.4,0131*6F
$PYRTM,2024,124.917170282211,16.026817692350
$GNHDT,229.092,T*29
$PYRTM,2024,124.917176116863,16.026823527002
$GNGGA,220044.00,3510.62659160,N,12128.05167556,W,2,13,0.8,7.611,M,-37.357,M,7.0,0131*6F
$PYRTM,2024,124.917176116863,16.026823527002
$GNHDT,229.084,T*2E
$PYRTM,2024,124.917181854398,16.026829264537
$GNGGA,220044.50,3510.62653807,N,12128.05170082,W,2,13,0.8,7.607,M,-37.357,M,7.4,0131*61
$PYRTM,2024,124.917181854398,16.026829264537
$GNHDT,228.550,T*23
$PYRTM,2024,124.917187695972,16.026835106123
$GNGGA,220045.00,3510.62657388,N,12128.05181443,W,2,13,0.8,7.339,M,-37.357,M,7.0,0131*66
$PYRTM,2024,124.917187695972,16.026835106123
$GNHDT,228.574,T*25
$PYRTM,2024,124.917193429016,16.026840839155
$GNGGA,220045.50,3510.62666010,N,12128.05198141,W,2,13,0.8,6.867,M,-37.357,M,7.4,0131*69
$PYRTM,2024,124.917193429016,16.026840839155
$GNHDT,228.809,T*22
$PYRTM,2024,124.917199267917,16.026846678056
$GNGGA,220046.00,3510.62675171,N,12128.05211488,W,2,13,0.8,6.331,M,-37.357,M,7.0,0131*65
$PYRTM,2024,124.917199267917,16.026846678056
$GNHDT,228.908,T*22
$PYRTM,2024,124.917205001169,16.026852411308
$GNGGA,220046.50,3510.62683032,N,12128.05223147,W,2,13,0.8,5.898,M,-37.357,M,7.4,0131*67
$PYRTM,2024,124.917205001169,16.026852411308
$GNHDT,228.826,T*2F
$PYRTM,2024,124.917210842153,16.026858252292
$GNGGA,220047.00,3510.62684942,N,12128.05228188,W,2,13,0.8,5.659,M,-37.357,M,4.0,0131*66
$PYRTM,2024,124.917210842153,16.026858252292
$GNHDT,228.843,T*2C
$PYRTM,2024,124.917216578877,16.026863989016
$GNGGA,220047.50,3510.62679147,N,12128.05224685,W,2,13,0.8,5.746,M,-37.357,M,4.4,0131*61
$PYRTM,2024,124.917216578877,16.026863989016
$GNHDT,229.034,T*25
$PYRTM,2024,124.917222419919,16.026869830058
$GNGGA,220048.00,3510.62667060,N,12128.05213410,W,2,13,0.8,6.083,M,-37.357,M,5.0,0131*62
$PYRTM,2024,124.917222419919,16.026869830058
$GNHDT,228.569,T*29
$PYRTM,2024,124.917228147118,16.026875557257
$GNGGA,220048.50,3510.62650247,N,12128.05199161,W,2,13,0.8,6.476,M,-37.357,M,5.4,0131*6C
$PYRTM,2024,124.917228147118,16.026875557257
$GNHDT,228.008,T*2B
$PYRTM,2024,124.917233990058,16.026881400197
$GNGGA,220049.00,3510.62631297,N,12128.05184874,W,2,13,0.8,6.867,M,-37.357,M,6.0,0131*68
$PYRTM,2024,124.917233990058,16.026881400197
$GNHDT,227.710,T*2A
$PYRTM,2024,124.917239724572,16.026887134711
$GNGGA,220049.50,3510.62612327,N,12128.05175087,W,2,13,0.8,7.119,M,-37.357,M,6.4,0131*69
$PYRTM,2024,124.917239724572,16.026887134711
$GNHDT,227.915,T*21
$PYRTM,2024,124.917245563391,16.026892973530
$GNGGA,220050.00,3510.62600797,N,12128.05174275,W,2,13,0.8,7.124,M,-37.357,M,7.0,0131*6D
$PYRTM,2024,124.917245563391,16.026892973530
$GNHDT,227.828,T*2E
$PYRTM,2024,124.917251298507,16.026898708646
$GNGGA,220050.50,3510.62597525,N,12128.05183413,W,2,13,0.8,6.919,M,-37.357,M,7.4,0131*63
$PYRTM,2024,124.917251298507,16.026898708646
$GNHDT,228.070,T*24
$PYRTM,2024,124.917257148056,16.026904558194
$GNGGA,220051.00,3510.62603798,N,12128.05201423,W,2,13,0.8,6.540,M,-37.357,M,7.0,0131*63
$PYRTM,2024,124.917257148056,16.026904558194
$GNHDT,227.974,T*26
$PYRTM,2024,124.917262874688,16.026910284815
$GNGGA,220051.50,3510.62616805,N,12128.05220847,W,2,13,0.8,6.062,M,-37.357,M,7.4,0131*65
$PYRTM,2024,124.917262874688,16.026910284815
$GNHDT,228.545,T*27
$PYRTM,2024,124.917268712292,16.026916122431
$GNGGA,220052.00,3510.62626225,N,12128.05238863,W,2,13,0.8,5.653,M,-37.357,M,7.0,0131*64
$PYRTM,2024,124.917268712292,16.026916122431
$GNHDT,228.647,T*26
$PYRTM,2024,124.917274447049,16.026921857187
$GNGGA,220052.50,3510.62628239,N,12128.05249398,W,2,13,0.8,5.491,M,-37.357,M,7.4,0131*63
$PYRTM,2024,124.917274447049,16.026921857187
$GNHDT,228.313,T*22
$PYRTM,2024,124.917280288067,16.026927698206
$GNGGA,220053.00,3510.62619580,N,12128.05247952,W,2,13,0.8,5.677,M,-37.357,M,4.0,0131*6F
$PYRTM,2024,124.917280288067,16.026927698206
$GNHDT,228.138,T*29
$PYRTM,2024,124.917286019190,16.026933429329
$GNGGA,220053.50,3510.62601972,N,12128.05236594,W,2,13,0.8,6.122,M,-37.357,M,4.4,0131*62
$PYRTM,2024,124.917286019190,16.026933429329
$GNHDT,227.885,T*29
$PYRTM,2024,124.917291862546,16.026939272685
$GNGGA,220054.00,3510.62579081,N,12128.05218739,W,2,13,0.8,6.624,M,-37.357,M,5.0,0131*64
$PYRTM,2024,124.917291862546,16.026939272685
$GNHDT,227.797,T*25
$PYRTM,2024,124.917297589248,16.026944999387
$GNGGA,220054.50,3510.62556538,N,12128.05201786,W,2,13,0.8,7.063,M,-37.357,M,5.4,0131*67
$PYRTM,2024,124.917297589248,16.026944999387
$GNHDT,227.869,T*2B
$PYRTM,2024,124.917303438519,16.026950848657
$GNGGA,220055.00,3510.62539204,N,12128.05191949,W,2,13,0.8,7.296,M,-37.357,M,6.0,0131*6A
$PYRTM,2024,124.917303438519,16.026950848657
$GNHDT,228.001,T*22
$PYRTM,2024,124.917309163831,16.026956573970
$GNGGA,220055.50,3510.62532422,N,12128.05194246,W,2,13,0.8,7.252,M,-37.357,M,6.4,0131*6B
$PYRTM,2024,124.917309163831,16.026956573970
$GNHDT,228.245,T*20
$PYRTM,2024,124.917315015012,16.026962425150
$GNGGA,220056.00,3510.62537486,N,12128.05206112,W,2,13,0.8,6.990,M,-37.357,M,7.0,0131*6D
$PYRTM,2024,124.917315015012,16.026962425150
$GNHDT,228.437,T*23
$PYRTM,2024,124.917320739722,16.026968149861
$GNGGA,220056.50,3510.62549742,N,12128.05223405,W,2,13,0.8,6.633,M,-37.357,M,7.4,0131*6C
$PYRTM,2024,124.917320739722,16.026968149861
$GNHDT,228.458,T*2A
$PYRTM,2024,124.917326585914,16.026973996053
$GNGGA,220057.00,3510.62566936,N,12128.05240819,W,2,13,0.8,6.263,M,-37.357,M,7.0,0131*69
$PYRTM,2024,124.917326585914,16.026973996053
$GNHDT,228.527,T*23
$PYRTM,2024,124.917332314178,16.026979724317
$GNGGA,220057.50,3510.62579727,N,12128.05253760,W,2,13,0.8,6.039,M,-37.357,M,7.4,0131*66
$PYRTM,2024,124.917332314178,16.026979724317
$GNHDT,228.113,T*20
$PYRTM,2024,124.917338157488,16.026985567627
$GNGGA,220058.00,3510.62584682,N,12128.05258112,W,2,13,0.8,6.067,M,-37.357,M,7.0,0131*67
$PYRTM,2024,124.917338157488,16.026985567627
$GNHDT,227.977,T*25
$PYRTM,2024,124.917343891840,16.026991301979
$GNGGA,220058.50,3510.62577986,N,12128.05252195,W,2,13,0.8,6.310,M,-37.357,M,7.4,0131*67
$PYRTM,2024,124.917343891840,16.026991301979
$GNHDT,228.322,T*20
$PYRTM,2024,124.917349735116,16.026997145255
$GNGGA,220059.00,3510.62563853,N,12128.05239248,W,2,13,0.8,6.640,M,-37.357,M,4.0,0131*66
$PYRTM,2024,124.917349735116,16.026997145255
$GNHDT,228.228,T*2B
$PYRTM,2024,124.917355458877,16.027002869016
$GNGGA,220059.50,3510.62545632,N,12128.05223416,W,2,13,0.8,6.948,M,-37.357,M,4.4,0131*6B
$PYRTM,2024,124.917355458877,16.027002869016
$GNHDT,228.570,T*21
$PYRTM,2024,124.917361301100,16.027008711238
$GNGGA,220100.00,3510.62529069,N,12128.05209759,W,2,13,0.8,7.122,M,-37.357,M,5.0,0131*61
$PYRTM,2024,124.917361301100,16.027008711238
$GNHDT,228.641,T*20
$PYRTM,2024,124.917367036794,16.027014446933
$GNGGA,220100.50,3510.62519929,N,12128.05204574,W,2,13,0.8,7.108,M,-37.357,M,5.4,0131*66
$PYRTM,2024,124.917367036794,16.027014446933
$GNHDT,228.735,T*22
$PYRTM,2024,124.917372877269,16.027020287407
$GNGGA,220101.00,3510.62519312,N,12128.05209172,W,2,13,0.8,6.937,M,-37.357,M,6.0,0131*6D
$PYRTM,2024,124.917372877269,16.027020287407
$GNHDT,228.861,T*2C
$PYRTM,2024,124.917378606794,16.027026016933
$GNGGA,220101.50,3510.62524088,N,12128.05220883,W,2,13,0.8,6.688,M,-37.357,M,6.4,0131*65
$PYRTM,2024,124.917378606794,16.027026016933
$GNHDT,228.442,T*21
$PYRTM,2024,124.917384455544,16.027031865683
$GNGGA,220102.00,3510.62531554,N,12128.05236076,W,2,13,0.8,6.413,M,-37.357,M,7.0,0131*63
$PYRTM,2024,124.917384455544,16.027031865683
$GNHDT,228.131,T*20
$PYRTM,2024,124.917390181389,16.027037591528
$GNGGA,220102.50,3510.62537167,N,12128.05248524,W,2,13,0.8,6.187,M,-37.357,M,7.4,0131*63
$PYRTM,2024,124.917390181389,16.027037591528
$GNHDT,228.316,T*27
$PYRTM,2024,124.917396024120,16.027043434259
$GNGGA,220103.00,3510.62536290,N,12128.05254114,W,2,13,0.8,6.111,M,-37.357,M,7.0,0131*6C
$PYRTM,2024,124.917396024120,16.027043434259
$GNHDT,228.356,T*23
$PYRTM,2024,124.917401756736,16.027049166875
$GNGGA,220103.50,3510.62529175,N,12128.05250478,W,2,13,0.8,6.194,M,-37.357,M,7.4,0131*6D
$PYRTM,2024,124.917401756736,16.027049166875
$GNHDT,228.264,T*23
$PYRTM,2024,124.917407604236,16.027055014387
$GNGGA,220104.00,3510.62517309,N,12128.05241109,W,2,13,0.8,6.358,M,-37.357,M,7.0,0131*6E
$PYRTM,2024,124.917407604236,16.027055014387
$GNHDT,228.369,T*2F
$PYRTM,2024,124.917413334965,16.027060745104
$GNGGA,220104.50,3510.62502253,N,12128.05230255,W,2,13,0.8,6.525,M,-37.357,M,7.4,0131*65
$PYRTM,2024,124.917413334965,16.027060745104
$GNHDT,228.075,T*21
$PYRTM,2024,124.917419172755,16.027066582905
$GNGGA,220105.00,3510.62487936,N,12128.05223744,W,2,13,0.8,6.594,M,-37.357,M,4.0,0131*6F
$PYRTM,2024,124.917419172755,16.027066582905
$GNHDT,228.368,T*2E
$PYRTM,2024,124.917424902442,16.027072312581
$GNGGA,220105.50,3510.62478170,N,12128.05223771,W,2,13,0.8,6.540,M,-37.357,M,4.4,0131*6B
$PYRTM,2024,124.917424902442,16.027072312581
$GNHDT,228.334,T*27
$PYRTM,2024,124.917430746840,16.027078156979
$GNGGA,220106.00,3510.62474303,N,12128.05230567,W,2,13,0.8,6.431,M,-37.357,M,5.0,0131*62
$PYRTM,2024,124.917430746840,16.027078156979
$GNHDT,228.282,T*2B
$PYRTM,2024,124.917436480579,16.027083890718
$GNGGA,220106.50,3510.62475013,N,12128.05240679,W,2,13,0.8,6.343,M,-37.357,M,5.4,0131*69
$PYRTM,2024,124.917436480579,16.027083890718
$GNHDT,228.065,T*20
$PYRTM,2024,124.917442321400,16.027089731539
$GNGGA,220107.00,3510.62477998,N,12128.05253195,W,2,13,0.8,6.346,M,-37.357,M,6.0,0131*60
$PYRTM,2024,124.917442321400,16.027089731539
$GNHDT,227.955,T*25
$PYRTM,2024,124.917448051771,16.027095461910
$GNGGA,220107.50,3510.62478622,N,12128.05260355,W,2,13,0.8,6.433,M,-37.357,M,6.4,0131*6B
$PYRTM,2024,124.917448051771,16.027095461910
$GNHDT,227.922,T*25
$PYRTM,2024,124.917453896644,16.027101306794
$GNGGA,220108.00,3510.62475530,N,12128.05261748,W,2,13,0.8,6.591,M,-37.357,M,7.0,0131*69
$PYRTM,2024,124.917453896644,16.027101306794
$GNHDT,227.929,T*2E
$PYRTM,2024,124.917459631296,16.027107041435
$GNGGA,220108.50,3510.62467777,N,12128.05258182,W,2,13,0.8,6.782,M,-37.357,M,7.4,0131*60
$PYRTM,2024,124.917459631296,16.027107041435
$GNHDT,227.910,T*24
$PYRTM,2024,124.917465476123,16.027112886273
$GNGGA,220109.00,3510.62457220,N,12128.05251210,W,2,13,0.8,6.940,M,-37.357,M,7.0,0131*65
$PYRTM,2024,124.917465476123,16.027112886273
$GNHDT,227.826,T*20
$PYRTM,2024,124.917471201285,16.027118611424
$GNGGA,220109.50,3510.62445675,N,12128.05244342,W,2,13,0.8,6.998,M,-37.357,M,7.4,0131*64
$PYRTM,2024,124.917471201285,16.027118611424
$GNHDT,227.623,T*2B
$PYRTM,2024,124.917477043183,16.027124453322
$GNGGA,220110.00,3510.62435136,N,12128.05240996,W,2,13,0.8,6.935,M,-37.357,M,7.0,0131*6A
$PYRTM,2024,124.917477043183,16.027124453322
$GNHDT,227.809,T*2D
$PYRTM,2024,124.917482779896,16.027130190035
$GNGGA,220110.50,3510.62427228,N,12128.05242777,W,2,13,0.8,6.776,M,-37.357,M,7.4,0131*6E
$PYRTM,2024,124.917482779896,16.027130190035
$GNHDT,227.768,T*25
$PYRTM,2024,124.917488619757,16.027136029896
$GNGGA,220111.00,3510.62424251,N,12128.05249643,W,2,13,0.8,6.594,M,-37.357,M,4.0,0131*63
$PYRTM,2024,124.917488619757,16.027136029896
$GNHDT,227.729,T*20
$PYRTM,2024,124.917494360069,16.027141770208
$GNGGA,220111.50,3510.62426138,N,12128.05260243,W,2,13,0.8,6.426,M,-37.357,M,4.4,0131*6B
$PYRTM,2024,124.917494360069,16.027141770208
$GNHDT,227.527,T*2C
$PYRTM,2024,124.917500196921,16.027147607060
$GNGGA,220112.00,3510.62431905,N,12128.05272406,W,2,13,0.8,6.344,M,-37.357,M,5.0,0131*6F
$PYRTM,2024,124.917500196921,16.027147607060
$GNHDT,227.254,T*2F
$PYRTM,2024,124.917505923148,16.027153333299
$GNGGA,220112.50,3510.62437317,N,12128.05282022,W,2,13,0.8,6.363,M,-37.357,M,5.4,0131*69
$PYRTM,2024,124.917505923148,16.027153333299
$GNHDT,227.044,T*2C
$PYRTM,2024,124.917511764699,16.027159174838
$GNGGA,220113.00,3510.62439549,N,12128.05284647,W,2,13,0.8,6.525,M,-37.357,M,6.0,0131*6E
$PYRTM,2024,124.917511764699,16.027159174838
$GNHDT,226.702,T*28
$PYRTM,2024,124.917517501157,16.027164911296
$GNGGA,220113.50,3510.62435373,N,12128.05279520,W,2,13,0.8,6.770,M,-37.357,M,6.4,0131*6E
$PYRTM,2024,124.917517501157,16.027164911296
$GNHDT,226.633,T*2B
$PYRTM,2024,124.917523341782,16.027170751991
$GNGGA,220114.00,3510.62424103,N,12128.05269297,W,2,13,0.8,7.047,M,-37.357,M,7.0,0131*64
$PYRTM,2024,124.917523341782,16.027170751991
$GNHDT,226.561,T*2F
$PYRTM,2024,124.917529078692,16.027176488831
$GNGGA,220114.50,3510.62408180,N,12128.05258310,W,2,13,0.8,7.242,M,-37.357,M,7.4,0131*6B
$PYRTM,2024,124.917529078692,16.027176488831
$GNHDT,226.412,T*2A
$PYRTM,2024,124.917534920139,16.027182330278
$GNGGA,220115.00,3510.62391961,N,12128.05251354,W,2,13,0.8,7.306,M,-37.357,M,7.0,0131*63
$PYRTM,2024,124.917534920139,16.027182330278
$GNHDT,226.250,T*2A
$PYRTM,2024,124.917540643322,16.027188053461
$GNGGA,220115.50,3510.62378418,N,12128.05249993,W,2,13,0.8,7.184,M,-37.357,M,7.4,0131*66
$PYRTM,2024,124.917540643322,16.027188053461
$GNHDT,226.220,T*2D
$PYRTM,2024,124.917546489398,16.027193899537
$GNGGA,220116.00,3510.62369324,N,12128.05255387,W,2,13,0.8,6.910,M,-37.357,M,7.0,0131*6A
$PYRTM,2024,124.917546489398,16.027193899537
$GNHDT,226.234,T*28
$PYRTM,2024,124.917552224653,16.027199634792
$GNGGA,220116.50,3510.62367627,N,12128.05265971,W,2,13,0.8,6.590,M,-37.357,M,7.4,0131*67
$PYRTM,2024,124.917552224653,16.027199634792
$GNHDT,226.230,T*2C
$PYRTM,2024,124.917558069259,16.027205479398
$GNGGA,220117.00,3510.62370130,N,12128.05278307,W,2,13,0.8,6.276,M,-37.357,M,4.0,0131*6B
$PYRTM,2024,124.917558069259,16.027205479398
$GNHDT,225.878,T*29
$PYRTM,2024,124.917563794954,16.027211205104
$GNGGA,220117.50,3510.62376546,N,12128.05291390,W,2,13,0.8,6.074,M,-37.357,M,4.4,0131*60
$PYRTM,2024,124.917563794954,16.027211205104
$GNHDT,225.629,T*23
$PYRTM,2024,124.917569638657,16.027217048796
$GNGGA,220118.00,3510.62381752,N,12128.05304594,W,2,13,0.8,5.955,M,-37.357,M,5.0,0131*66
$PYRTM,2024,124.917569638657,16.027217048796
$GNHDT,225.408,T*22
$PYRTM,2024,124.917575366111,16.027222776250
$GNGGA,220118.50,3510.62380052,N,12128.05311283,W,2,13,0.8,6.018,M,-37.357,M,5.4,0131*67
$PYRTM,2024,124.917575366111,16.027222776250
$GNHDT,225.186,T*21
$PYRTM,2024,124.917581215475,16.027228625613
$GNGGA,220119.00,3510.62371215,N,12128.05311023,W,2,13,0.8,6.226,M,-37.357,M,6.0,0131*6C
$PYRTM,2024,124.917581215475,16.027228625613
$GNHDT,225.149,T*22
$PYRTM,2024,124.917586943808,16.027234353947
$GNGGA,220119.50,3510.62354409,N,12128.05302380,W,2,13,0.8,6.540,M,-37.357,M,6.4,0131*6E
$PYRTM,2024,124.917586943808,16.027234353947
$GNHDT,224.764,T*2A
$PYRTM,2024,124.917592787500,16.027240197639
$GNGGA,220120.00,3510.62330831,N,12128.05288055,W,2,13,0.8,6.882,M,-37.357,M,7.0,0131*6A
$PYRTM,2024,124.917592787500,16.027240197639
$GNHDT,224.800,T*27
$PYRTM,2024,124.917598520382,16.027245930521
$GNGGA,220120.50,3510.62307065,N,12128.05272967,W,2,13,0.8,7.176,M,-37.357,M,7.4,0131*68
$PYRTM,2024,124.917598520382,16.027245930521
$GNHDT,224.504,T*2E
$PYRTM,2024,124.917604362025,16.027251772164
$GNGGA,220121.00,3510.62289571,N,12128.05265857,W,2,13,0.8,7.279,M,-37.357,M,7.0,0131*67
$PYRTM,2024,124.917604362025,16.027251772164
$GNHDT,224.396,T*23
$PYRTM,2024,124.917610092130,16.027257502269
$GNGGA,220121.50,3510.62282471,N,12128.05269320,W,2,13,0.8,7.163,M,-37.357,M,7.4,0131*63
$PYRTM,2024,124.917610092130,16.027257502269
$GNHDT,224.507,T*2D
$PYRTM,2024,124.917615935359,16.027263345498
$GNGGA,220122.00,3510.62284609,N,12128.05284480,W,2,13,0.8,6.865,M,-37.357,M,7.0,0131*6A
$PYRTM,2024,124.917615935359,16.027263345498
$GNHDT,224.373,T*28
$PYRTM,2024,124.917621670104,16.027269080243
$GNGGA,220122.50,3510.62291648,N,12128.05303504,W,2,13,0.8,6.448,M,-37.357,M,7.4,0131*6A
$PYRTM,2024,124.917621670104,16.027269080243
$GNHDT,224.501,T*2B
$PYRTM,2024,124.917627512292,16.027274922431
$GNGGA,220123.00,3510.62299566,N,12128.05324284,W,2,13,0.8,6.067,M,-37.357,M,4.0,0131*6D
$PYRTM,2024,124.917627512292,16.027274922431
$GNHDT,224.467,T*2A
$PYRTM,2024,124.917633236910,16.027280647049
$GNGGA,220123.50,3510.62303380,N,12128.05338510,W,2,13,0.8,5.861,M,-37.357,M,4.4,0131*6A
$PYRTM,2024,124.917633236910,16.027280647049
$GNHDT,223.838,T*2B
$PYRTM,2024,124.917639078137,16.027286488275
$GNGGA,220124.00,3510.62299014,N,12128.05344521,W,2,13,0.8,5.911,M,-37.357,M,5.0,0131*6E
$PYRTM,2024,124.917639078137,16.027286488275
$GNHDT,223.769,T*20
$PYRTM,2024,124.917644815370,16.027292225509
$GNGGA,220124.50,3510.62287091,N,12128.05340593,W,2,13,0.8,6.200,M,-37.357,M,5.4,0131*68
$PYRTM,2024,124.917644815370,16.027292225509
$GNHDT,223.731,T*2D
$PYRTM,2024,124.917650662025,16.027298072164
$GNGGA,220125.00,3510.62270337,N,12128.05330924,W,2,13,0.8,6.594,M,-37.357,M,6.0,0131*61
$PYRTM,2024,124.917650662025,16.027298072164
$GNHDT,223.529,T*26
$PYRTM,2024,124.917656386655,16.027303796794
$GNGGA,220125.50,3510.62252485,N,12128.05319602,W,2,13,0.8,6.974,M,-37.357,M,6.4,0131*6C
$PYRTM,2024,124.917656386655,16.027303796794
$GNHDT,223.374,T*28
$PYRTM,2024,124.917662228738,16.027309638877
$GNGGA,220126.00,3510.62237280,N,12128.05312850,W,2,13,0.8,7.217,M,-37.357,M,7.0,0131*62
$PYRTM,2024,124.917662228738,16.027309638877
$GNHDT,223.403,T*2F
$PYRTM,2024,124.917667964352,16.027315374491
$GNGGA,220126.50,3510.62226519,N,12128.05312517,W,2,13,0.8,7.285,M,-37.357,M,7.4,0131*61
$PYRTM,2024,124.917667964352,16.027315374491
$GNHDT,223.138,T*22
$PYRTM,2024,124.917673803021,16.027321213160
$GNGGA,220127.00,3510.62221139,N,12128.05320009,W,2,13,0.8,7.179,M,-37.357,M,7.0,0131*6B
$PYRTM,2024,124.917673803021,16.027321213160
$GNHDT,222.792,T*25
$PYRTM,2024,124.917679533345,16.027326943484
$GNGGA,220127.50,3510.62221366,N,12128.05330859,W,2,13,0.8,6.999,M,-37.357,M,7.4,0131*69
$PYRTM,2024,124.917679533345,16.027326943484
$GNHDT,222.666,T*2F
$PYRTM,2024,124.917685386296,16.027332796435
$GNGGA,220128.00,3510.62224358,N,12128.05343866,W,2,13,0.8,6.762,M,-37.357,M,7.0,0131*6D
$PYRTM,2024,124.917685386296,16.027332796435
$GNHDT,222.315,T*2E
$PYRTM,2024,124.917691109097,16.027338519236
$GNGGA,220128.50,3510.62226404,N,12128.05354563,W,2,13,0.8,6.539,M,-37.357,M,7.4,0131*62
$PYRTM,2024,124.917691109097,16.027338519236
$GNHDT,222.040,T*2D
$PYRTM,2024,124.917696957002,16.027344367141
$GNGGA,220129.00,3510.62224410,N,12128.05361955,W,2,13,0.8,6.354,M,-37.357,M,4.0,0131*64
$PYRTM,2024,124.917696957002,16.027344367141
$GNHDT,221.706,T*2B
$PYRTM,2024,124.917702683669,16.027350093808
$GNGGA,220129.50,3510.62217863,N,12128.05364996,W,2,13,0.8,6.236,M,-37.357,M,4.4,0131*62
$PYRTM,2024,124.917702683669,16.027350093808
$GNHDT,221.538,T*24
$PYRTM,2024,124.917708523461,16.027355933600
$GNGGA,220130.00,3510.62205973,N,12128.05363596,W,2,13,0.8,6.183,M,-37.357,M,5.0,0131*6F
$PYRTM,2024,124.917708523461,16.027355933600
$GNHDT,221.428,T*24
$PYRTM,2024,124.917714255093,16.027361665231
$GNGGA,220130.50,3510.62191159,N,12128.05359975,W,2,13,0.8,6.183,M,-37.357,M,5.4,0131*68
$PYRTM,2024,124.917714255093,16.027361665231
$GNHDT,221.223,T*29
$PYRTM,2024,124.917720099734,16.027367509873
$GNGGA,220131.00,3510.62175188,N,12128.05355289,W,2,13,0.8,6.229,M,-37.357,M,6.0,0131*6A
$PYRTM,2024,124.917720099734,16.027367509873
$GNHDT,221.237,T*2C
$PYRTM,2024,124.917725832199,16.027373242338
$GNGGA,220131.50,3510.62161007,N,12128.05350418,W,2,13,0.8,6.341,M,-37.357,M,6.4,0131*6C
$PYRTM,2024,124.917725832199,16.027373242338
$GNHDT,220.884,T*2F
$PYRTM,2024,124.917731674051,16.027379084190
$GNGGA,220132.00,3510.62149048,N,12128.05346571,W,2,13,0.8,6.491,M,-37.357,M,7.0,0131*6D
$PYRTM,2024,124.917731674051,16.027379084190
$GNHDT,220.510,T*2F
$PYRTM,2024,124.917737403681,16.027384813819
$GNGGA,220132.50,3510.62139228,N,12128.05344254,W,2,13,0.8,6.654,M,-37.357,M,7.4,0131*66
$PYRTM,2024,124.917737403681,16.027384813819
$GNHDT,220.120,T*28
$PYRTM,2024,124.917743248600,16.027390658738
$GNGGA,220133.00,3510.62130813,N,12128.05344212,W,2,13,0.8,6.796,M,-37.357,M,7.0,0131*60
$PYRTM,2024,124.917743248600,16.027390658738
$GNHDT,219.931,T*2A
$PYRTM,2024,124.917748977407,16.027396387546
$GNGGA,220133.50,3510.62122943,N,12128.05348686,W,2,13,0.8,6.858,M,-37.357,M,7.4,0131*6E
$PYRTM,2024,124.917748977407,16.027396387546
$GNHDT,219.809,T*20
$PYRTM,2024,124.917754821204,16.027402231343
$GNGGA,220134.00,3510.62117206,N,12128.05355220,W,2,13,0.8,6.794,M,-37.357,M,7.0,0131*6F
$PYRTM,2024,124.917754821204,16.027402231343
$GNHDT,219.429,T*2E
$PYRTM,2024,124.917760553738,16.027407963889
$GNGGA,220134.50,3510.62112841,N,12128.05363986,W,2,13,0.8,6.607,M,-37.357,M,7.4,0131*6B
$PYRTM,2024,124.917760553738,16.027407963889
$GNHDT,219.130,T*23
$PYRTM,2024,124.917766401505,16.027413811644
$GNGGA,220135.00,3510.62109310,N,12128.05373188,W,2,13,0.8,6.335,M,-37.357,M,4.0,0131*6E
$PYRTM,2024,124.917766401505,16.027413811644
$GNHDT,218.832,T*29
$PYRTM,2024,124.917772125683,16.027419535822
$GNGGA,220135.50,3510.62103712,N,12128.05380165,W,2,13,0.8,6.069,M,-37.357,M,4.4,0131*66
$PYRTM,2024,124.917772125683,16.027419535822
$GNHDT,218.289,T*23
$PYRTM,2024,124.917777968900,16.027425379039
$GNGGA,220136.00,3510.62095048,N,12128.05383213,W,2,13,0.8,5.897,M,-37.357,M,5.0,0131*68
$PYRTM,2024,124.917777968900,16.027425379039
$GNHDT,218.110,T*20
$PYRTM,2024,124.917783703993,16.027431114132
$GNGGA,220136.50,3510.62083108,N,12128.05381672,W,2,13,0.8,5.873,M,-37.357,M,5.4,0131*60
$PYRTM,2024,124.917783703993,16.027431114132
$GNHDT,217.981,T*2F
$PYRTM,2024,124.917789544398,16.027436954537
$GNGGA,220137.00,3510.62067363,N,12128.05375080,W,2,13,0.8,6.028,M,-37.357,M,6.0,0131*63
$PYRTM,2024,124.917789544398,16.027436954537
$GNHDT,217.900,T*26
$PYRTM,2024,124.917795274618,16.027442684757
$GNGGA,220137.50,3510.62050489,N,12128.05365342,W,2,13,0.8,6.307,M,-37.357,M,6.4,0131*67
$PYRTM,2024,124.917795274618,16.027442684757
$GNHDT,218.143,T*26
$PYRTM,2024,124.917801118611,16.027448528750
$GNGGA,220138.00,3510.62035393,N,12128.05354900,W,2,13,0.8,6.650,M,-37.357,M,7.0,0131*6E
$PYRTM,2024,124.917801118611,16.027448528750
$GNHDT,217.754,T*29
$PYRTM,2024,124.917806849352,16.027454259491
$GNGGA,220138.50,3510.62023859,N,12128.05348664,W,2,13,0.8,6.929,M,-37.357,M,7.4,0131*64
$PYRTM,2024,124.917806849352,16.027454259491
$GNHDT,217.518,T*23
$PYRTM,2024,124.917812691516,16.027460101655
$GNGGA,220139.00,3510.62014433,N,12128.05350569,W,2,13,0.8,7.060,M,-37.357,M,7.0,0131*62
$PYRTM,2024,124.917812691516,16.027460101655
$GNHDT,217.051,T*2B
$PYRTM,2024,124.917818426563,16.027465836713
$GNGGA,220139.50,3510.62009978,N,12128.05360685,W,2,13,0.8,6.912,M,-37.357,M,7.4,0131*62
$PYRTM,2024,124.917818426563,16.027465836713
$GNHDT,216.158,T*22
$PYRTM,2024,124.917824264745,16.027471674884
$GNGGA,220140.00,3510.62006382,N,12128.05377477,W,2,13,0.8,6.575,M,-37.357,M,7.0,0131*69
$PYRTM,2024,124.917824264745,16.027471674884
$GNHDT,215.585,T*25
$PYRTM,2024,124.917830007477,16.027477417616
$GNGGA,220140.50,3510.62002910,N,12128.05396308,W,2,13,0.8,6.157,M,-37.357,M,7.4,0131*69
$PYRTM,2024,124.917830007477,16.027477417616
$GNHDT,215.783,T*21
$PYRTM,2024,124.917835839005,16.027483249144
$GNGGA,220141.00,3510.61997217,N,12128.05412472,W,2,13,0.8,5.809,M,-37.357,M,4.0,0131*60
$PYRTM,2024,124.917835839005,16.027483249144
$GNHDT,215.612,T*28
$PYRTM,2024,124.917841577269,16.027488987407
$GNGGA,220141.50,3510.61986430,N,12128.05417654,W,2,13,0.8,5.684,M,-37.357,M,4.4,0131*6A
$PYRTM,2024,124.917841577269,16.027488987407
$GNHDT,215.270,T*28
$PYRTM,2024,124.917847416829,16.027494826968
$GNGGA,220142.00,3510.61971606,N,12128.05412542,W,2,13,0.8,5.847,M,-37.357,M,5.0,0131*66
$PYRTM,2024,124.917847416829,16.027494826968
$GNHDT,215.142,T*2A
$PYRTM,2024,124.917853151076,16.027500561215
$GNGGA,220142.50,3510.61955204,N,12128.05401227,W,2,13,0.8,6.177,M,-37.357,M,5.4,0131*68
$PYRTM,2024,124.917853151076,16.027500561215
$GNHDT,215.232,T*2E
$PYRTM,2024,124.917858989699,16.027506399838
$GNGGA,220143.00,3510.61939150,N,12128.05387466,W,2,13,0.8,6.601,M,-37.357,M,6.0,0131*6F
$PYRTM,2024,124.917858989699,16.027506399838
$GNHDT,215.141,T*29
$PYRTM,2024,124.917864717859,16.027512127998
$GNGGA,220143.50,3510.61925020,N,12128.05376977,W,2,13,0.8,6.975,M,-37.357,M,6.4,0131*6A
$PYRTM,2024,124.917864717859,16.027512127998
$GNHDT,214.577,T*29
$PYRTM,2024,124.917870560081,16.027517970220
$GNGGA,220144.00,3510.61913155,N,12128.05373501,W,2,13,0.8,7.193,M,-37.357,M,7.0,0131*62
$PYRTM,2024,124.917870560081,16.027517970220
$GNHDT,214.004,T*28
$PYRTM,2024,124.917876292928,16.027523703067
$GNGGA,220144.50,3510.61904067,N,12128.05377830,W,2,13,0.8,7.203,M,-37.357,M,7.4,0131*64
$PYRTM,2024,124.917876292928,16.027523703067
$GNHDT,213.461,T*28
$PYRTM,2024,124.917882136192,16.027529546331
$GNGGA,220145.00,3510.61895661,N,12128.05387126,W,2,13,0.8,7.037,M,-37.357,M,7.0,0131*69
$PYRTM,2024,124.917882136192,16.027529546331
$GNHDT,212.830,T*21
$PYRTM,2024,124.917887876181,16.027535286319
$GNGGA,220145.50,3510.61887166,N,12128.05398245,W,2,13,0.8,6.740,M,-37.357,M,7.4,0131*65
$PYRTM,2024,124.917887876181,16.027535286319
$GNHDT,212.395,T*25
$PYRTM,2024,124.917893711794,16.027541121933
$GNGGA,220146.00,3510.61877316,N,12128.05407893,W,2,13,0.8,6.395,M,-37.357,M,7.0,0131*61
$PYRTM,2024,124.917893711794,16.027541121933
$GNHDT,211.999,T*20
$PYRTM,2024,124.917899441493,16.027546851632
$GNGGA,220146.50,3510.61867130,N,12128.05413351,W,2,13,0.8,6.116,M,-37.357,M,7.4,0131*6E
$PYRTM,2024,124.917899441493,16.027546851632
$GNHDT,211.943,T*27
$PYRTM,2024,124.917905286817,16.027552696956
$GNGGA,220147.00,3510.61854790,N,12128.05412978,W,2,13,0.8,5.977,M,-37.357,M,4.0,0131*6D
$PYRTM,2024,124.917905286817,16.027552696956
$GNHDT,211.707,T*29
$PYRTM,2024,124.917911016516,16.027558426655
$GNGGA,220147.50,3510.61840903,N,12128.05408404,W,2,13,0.8,5.985,M,-37.357,M,4.4,0131*6D
$PYRTM,2024,124.917911016516,16.027558426655
$GNHDT,211.541,T*29
$PYRTM,2024,124.917916861238,16.027564271389
$GNGGA,220148.00,3510.61827335,N,12128.05402080,W,2,13,0.8,6.116,M,-37.357,M,5.0,0131*6F
$PYRTM,2024,124.917916861238,16.027564271389
$GNHDT,211.190,T*21
$PYRTM,2024,124.917922595046,16.027570005185
$GNGGA,220148.50,3510.61813320,N,12128.05395864,W,2,13,0.8,6.318,M,-37.357,M,5.4,0131*6A
$PYRTM,2024,124.917922595046,16.027570005185
$GNHDT,211.184,T*24
$PYRTM,2024,124.917928430602,16.027575840741
$GNGGA,220149.00,3510.61799005,N,12128.05391060,W,2,13,0.8,6.567,M,-37.357,M,6.0,0131*66
$PYRTM,2024,124.917928430602,16.027575840741
$GNHDT,210.717,T*29
$PYRTM,2024,124.917934162731,16.027581572870
$GNGGA,220149.50,3510.61784994,N,12128.05387996,W,2,13,0.8,6.789,M,-37.357,M,6.4,0131*6F
$PYRTM,2024,124.917934162731,16.027581572870
$GNHDT,210.738,T*24
$PYRTM,2024,124.917940005521,16.027587415660
$GNGGA,220150.00,3510.61771502,N,12128.05387506,W,2,13,0.8,6.961,M,-37.357,M,7.0,0131*63
$PYRTM,2024,124.917940005521,16.027587415660
$GNHDT,210.211,T*2A
$PYRTM,2024,124.917945738472,16.027593148611
$GNGGA,220150.50,3510.61759056,N,12128.05389701,W,2,13,0.8,7.027,M,-37.357,M,7.4,0131*6D
$PYRTM,2024,124.917945738472,16.027593148611
$GNHDT,210.313,T*29
$PYRTM,2024,124.917951582535,16.027598992674
$GNGGA,220151.00,3510.61748050,N,12128.05395026,W,2,13,0.8,6.968,M,-37.357,M,7.0,0131*67
$PYRTM,2024,124.917951582535,16.027598992674
$GNHDT,210.006,T*2E
$PYRTM,2024,124.917957321181,16.027604731319
$GNGGA,220151.50,3510.61738025,N,12128.05402170,W,2,13,0.8,6.804,M,-37.357,M,7.4,0131*63
$PYRTM,2024,124.917957321181,16.027604731319
$GNHDT,209.206,T*24
$PYRTM,2024,124.917963160451,16.027610570590
$GNGGA,220152.00,3510.61727655,N,12128.05410167,W,2,13,0.8,6.518,M,-37.357,M,7.0,0131*6B
$PYRTM,2024,124.917963160451,16.027610570590
$GNHDT,208.814,T*2C
$PYRTM,2024,124.917968894560,16.027616304711
$GNGGA,220152.50,3510.61716177,N,12128.05417151,W,2,13,0.8,6.234,M,-37.357,M,7.4,0131*64
$PYRTM,2024,124.917968894560,16.027616304711
$GNHDT,208.790,T*2F
$PYRTM,2024,124.917974728796,16.027622138935
$GNGGA,220153.00,3510.61701891,N,12128.05418751,W,2,13,0.8,6.021,M,-37.357,M,4.0,0131*6F
$PYRTM,2024,124.917974728796,16.027622138935
$GNHDT,208.516,T*23
$PYRTM,2024,124.917980461389,16.027627871528
$GNGGA,220153.50,3510.61687069,N,12128.05416417,W,2,13,0.8,5.968,M,-37.357,M,4.4,0131*66
$PYRTM,2024,124.917980461389,16.027627871528
$GNHDT,208.063,T*24
$PYRTM,2024,124.917986309711,16.027633719850
$GNGGA,220154.00,3510.61670544,N,12128.05409001,W,2,13,0.8,6.090,M,-37.357,M,5.0,0131*63
$PYRTM,2024,124.917986309711,16.027633719850
$GNHDT,208.159,T*2C
$PYRTM,2024,124.917992034178,16.027639444317
$GNGGA,220154.50,3510.61655512,N,12128.05399150,W,2,13,0.8,6.340,M,-37.357,M,5.4,0131*63
$PYRTM,2024,124.917992034178,16.027639444317
$GNHDT,207.518,T*22
$PYRTM,2024,124.917997882708,16.027645292847
$GNGGA,220155.00,3510.61642046,N,12128.05390301,W,2,13,0.8,6.646,M,-37.357,M,6.0,0131*6E
$PYRTM,2024,124.917997882708,16.027645292847
$GNHDT,207.089,T*2F
$PYRTM,2024,124.918003608669,16.027651018808
$GNGGA,220155.50,3510.61628895,N,12128.05383730,W,2,13,0.8,6.910,M,-37.357,M,6.4,0131*6D
$PYRTM,2024,124.918003608669,16.027651018808
$GNHDT,207.180,T*27
$PYRTM,2024,124.918009451065,16.027656861204
$GNGGA,220156.00,3510.61617992,N,12128.05384636,W,2,13,0.8,7.044,M,-37.357,M,7.0,0131*6D
$PYRTM,2024,124.918009451065,16.027656861204
$GNHDT,206.900,T*26
$PYRTM,2024,124.918015183113,16.027662593252
$GNGGA,220156.50,3510.61607820,N,12128.05391169,W,2,13,0.8,7.032,M,-37.357,M,7.4,0131*6D
$PYRTM,2024,124.918015183113,16.027662593252
$GNHDT,206.702,T*2A
$PYRTM,2024,124.918021025382,16.027668435521
$GNGGA,220157.00,3510.61599967,N,12128.05403908,W,2,13,0.8,6.868,M,-37.357,M,7.0,0131*6E
$PYRTM,2024,124.918021025382,16.027668435521
$GNHDT,206.473,T*2F
$PYRTM,2024,124.918026764317,16.027674174456
$GNGGA,220157.50,3510.61592279,N,12128.05417186,W,2,13,0.8,6.622,M,-37.357,M,7.4,0131*6B
$PYRTM,2024,124.918026764317,16.027674174456
$GNHDT,206.470,T*2C
$PYRTM,2024,124.918032604630,16.027680014769
$GNGGA,220158.00,3510.61583421,N,12128.05426573,W,2,13,0.8,6.352,M,-37.357,M,7.0,0131*60
$PYRTM,2024,124.918032604630,16.027680014769
$GNHDT,206.220,T*2F
$PYRTM,2024,124.918038333345,16.027685743484
$GNGGA,220158.50,3510.61571209,N,12128.05428823,W,2,13,0.8,6.132,M,-37.357,M,7.4,0131*62
$PYRTM,2024,124.918038333345,16.027685743484
$GNHDT,205.877,T*24
$PYRTM,2024,124.918044173461,16.027691583600
$GNGGA,220159.00,3510.61555719,N,12128.05423516,W,2,13,0.8,6.008,M,-37.357,M,4.0,0131*6B
$PYRTM,2024,124.918044173461,16.027691583600
$GNHDT,205.404,T*2C
$PYRTM,2024,124.918049905937,16.027697316076
$GNGGA,220159.50,3510.61538251,N,12128.05414215,W,2,13,0.8,5.939,M,-37.357,M,4.4,0131*60
$PYRTM,2024,124.918049905937,16.027697316076
$GNHDT,205.151,T*29
$PYRTM,2024,124.918055751146,16.027703161285
$GNGGA,220200.00,3510.61519209,N,12128.05404266,W,2,13,0.8,5.919,M,-37.357,M,5.0,0131*66
$PYRTM,2024,124.918055751146,16.027703161285
$GNHDT,205.029,T*27
$PYRTM,2024,124.918061485787,16.027708895926
$GNGGA,220200.50,3510.61500629,N,12128.05398074,W,2,13,0.8,5.909,M,-37.357,M,5.4,0131*6B
$PYRTM,2024,124.918061485787,16.027708895926
$GNHDT,204.962,T*20
$PYRTM,2024,124.918067327292,16.027714737442
$GNGGA,220201.00,3510.61483642,N,12128.05395945,W,2,13,0.8,5.930,M,-37.357,M,6.0,0131*63
$PYRTM,2024,124.918067327292,16.027714737442
$GNHDT,205.129,T*26
$PYRTM,2024,124.918073052847,16.027720462986
$GNGGA,220201.50,3510.61469658,N,12128.05397935,W,2,13,0.8,6.008,M,-37.357,M,6.4,0131*69
$PYRTM,2024,124.918073052847,16.027720462986
$GNHDT,204.798,T*2B
$PYRTM,2024,124.918078894120,16.027726304259
$GNGGA,220202.00,3510.61459333,N,12128.05403627,W,2,13,0.8,6.152,M,-37.357,M,7.0,0131*69
$PYRTM,2024,124.918078894120,16.027726304259
$GNHDT,204.615,T*2F
$PYRTM,2024,124.918084629572,16.027732039722
$GNGGA,220202.50,3510.61450472,N,12128.05408840,W,2,13,0.8,6.356,M,-37.357,M,7.4,0131*61
$PYRTM,2024,124.918084629572,16.027732039722
$GNHDT,204.243,T*28
$PYRTM,2024,124.918090469468,16.027737879606
$GNGGA,220203.00,3510.61440870,N,12128.05412646,W,2,13,0.8,6.556,M,-37.357,M,7.0,0131*6B
$PYRTM,2024,124.918090469468,16.027737879606
$GNHDT,204.042,T*2B
$PYRTM,2024,124.918096204572,16.027743614711
$GNGGA,220203.50,3510.61428994,N,12128.05413084,W,2,13,0.8,6.694,M,-37.357,M,7.4,0131*6B
$PYRTM,2024,124.918096204572,16.027743614711
$GNHDT,203.567,T*2E
$PYRTM,2024,124.918102045926,16.027749456065
$GNGGA,220204.00,3510.61413874,N,12128.05411030,W,2,13,0.8,6.715,M,-37.357,M,7.0,0131*6F
$PYRTM,2024,124.918102045926,16.027749456065
$GNHDT,203.404,T*2A
$PYRTM,2024,124.918107775660,16.027755185799
$GNGGA,220204.50,3510.61395683,N,12128.05405553,W,2,13,0.8,6.638,M,-37.357,M,7.4,0131*6A
$PYRTM,2024,124.918107775660,16.027755185799
$GNHDT,203.041,T*2F
$PYRTM,2024,124.918113617801,16.027761027940
$GNGGA,220205.00,3510.61376986,N,12128.05397998,W,2,13,0.8,6.496,M,-37.357,M,4.0,0131*6F
$PYRTM,2024,124.918113617801,16.027761027940
$GNHDT,202.996,T*2D
$PYRTM,2024,124.918119348924,16.027766759063
$GNGGA,220205.50,3510.61359549,N,12128.05388978,W,2,13,0.8,6.371,M,-37.357,M,4.4,0131*62
$PYRTM,2024,124.918119348924,16.027766759063
$GNHDT,203.206,T*2E
$PYRTM,2024,124.918125197269,16.027772607407
$GNGGA,220206.00,3510.61345136,N,12128.05381979,W,2,13,0.8,6.284,M,-37.357,M,5.0,0131*63
$PYRTM,2024,124.918125197269,16.027772607407
$GNHDT,203.281,T*21
$PYRTM,2024,124.918130924051,16.027778334190
$GNGGA,220206.50,3510.61333435,N,12128.05377969,W,2,13,0.8,6.259,M,-37.357,M,5.4,0131*6D
$PYRTM,2024,124.918130924051,16.027778334190
$GNHDT,203.336,T*2C
$PYRTM,2024,124.918136768611,16.027784178750
$GNGGA,220207.00,3510.61323626,N,12128.05377883,W,2,13,0.8,6.258,M,-37.357,M,6.0,0131*6B
$PYRTM,2024,124.918136768611,16.027784178750
$GNHDT,203.296,T*27
$PYRTM,2024,124.918142500069,16.027789910208
$GNGGA,220207.50,3510.61312720,N,12128.05379118,W,2,13,0.8,6.256,M,-37.357,M,6.4,0131*64
$PYRTM,2024,124.918142500069,16.027789910208
$GNHDT,202.925,T*25
$PYRTM,2024,124.918148342731,16.027795752870
$GNGGA,220208.00,3510.61303039,N,12128.05383334,W,2,13,0.8,6.252,M,-37.357,M,7.0,0131*69
$PYRTM,2024,124.918148342731,16.027795752870
$GNHDT,202.540,T*2A
$PYRTM,2024,124.918154070903,16.027801481053
$GNGGA,220208.50,3510.61291799,N,12128.05385405,W,2,13,0.8,6.218,M,-37.357,M,7.4,0131*62
$PYRTM,2024,124.918154070903,16.027801481053
$GNHDT,202.087,T*24
$PYRTM,2024,124.918159915729,16.027807325868
$GNGGA,220209.00,3510.61277827,N,12128.05384053,W,2,13,0.8,6.185,M,-37.358,M,7.0,0131*6E
$PYRTM,2024,124.918159915729,16.027807325868
$GNHDT,201.843,T*27
$PYRTM,2024,124.918165649711,16.027813059850
$GNGGA,220209.50,3510.61263735,N,12128.05379872,W,2,13,0.8,6.155,M,-37.358,M,7.4,0131*62
$PYRTM,2024,124.918165649711,16.027813059850
$GNHDT,201.760,T*29
$PYRTM,2024,124.918171490058,16.027818900197
$GNGGA,220210.00,3510.61247858,N,12128.05372416,W,2,13,0.8,6.178,M,-37.358,M,7.0,0131*63
$PYRTM,2024,124.918171490058,16.027818900197
$GNHDT,201.752,T*28
$PYRTM,2024,124.918177224525,16.027824634664
$GNGGA,220210.50,3510.61232792,N,12128.05364479,W,2,13,0.8,6.212,M,-37.358,M,7.4,0131*68
$PYRTM,2024,124.918177224525,16.027824634664
$GNHDT,201.875,T*22
$PYRTM,2024,124.918183061690,16.027830471829
$GNGGA,220211.00,3510.61218228,N,12128.05356723,W,2,13,0.8,6.304,M,-37.358,M,4.0,0131*6C
$PYRTM,2024,124.918183061690,16.027830471829
$GNHDT,202.185,T*27
$PYRTM,2024,124.918188793125,16.027836203264
$GNGGA,220211.50,3510.61205547,N,12128.05352420,W,2,13,0.8,6.384,M,-37.358,M,4.4,0131*63
$PYRTM,2024,124.918188793125,16.027836203264
$GNHDT,202.139,T*20
$PYRTM,2024,124.918194636262,16.027842046400
$GNGGA,220212.00,3510.61193361,N,12128.05350949,W,2,13,0.8,6.442,M,-37.358,M,5.0,0131*63
$PYRTM,2024,124.918194636262,16.027842046400
$GNHDT,201.955,T*21
$PYRTM,2024,124.918200370382,16.027847780521
$GNGGA,220212.50,3510.61182424,N,12128.05352915,W,2,13,0.8,6.442,M,-37.358,M,5.4,0131*6F
$PYRTM,2024,124.918200370382,16.027847780521
$GNHDT,202.142,T*2C
$PYRTM,2024,124.918206219537,16.027853629676
$GNGGA,220213.00,3510.61171766,N,12128.05356633,W,2,13,0.8,6.357,M,-37.358,M,6.0,0131*69
$PYRTM,2024,124.918206219537,16.027853629676
$GNHDT,201.714,T*2A
$PYRTM,2024,124.918211953657,16.027859363796
$GNGGA,220213.50,3510.61159698,N,12128.05360235,W,2,13,0.8,6.229,M,-37.358,M,6.4,0131*6D
$PYRTM,2024,124.918211953657,16.027859363796
$GNHDT,201.623,T*2F
$PYRTM,2024,124.918217784688,16.027865194826
$GNGGA,220214.00,3510.61144148,N,12128.05362349,W,2,13,0.8,6.057,M,-37.358,M,7.0,0131*6F
$PYRTM,2024,124.918217784688,16.027865194826
$GNHDT,201.375,T*29
$PYRTM,2024,124.918223518970,16.027870929109
$GNGGA,220214.50,3510.61126897,N,12128.05360847,W,2,13,0.8,5.914,M,-37.358,M,7.4,0131*6B
$PYRTM,2024,124.918223518970,16.027870929109
$GNHDT,200.895,T*2D
$PYRTM,2024,124.918229359051,16.027876769190
$GNGGA,220215.00,3510.61108717,N,12128.05353705,W,2,13,0.8,5.852,M,-37.358,M,7.0,0131*6A
$PYRTM,2024,124.918229359051,16.027876769190
$GNHDT,200.836,T*24
$PYRTM,2024,124.918235098553,16.027882508692
$GNGGA,220215.50,3510.61091132,N,12128.05341317,W,2,13,0.8,5.900,M,-37.358,M,7.4,0131*69
$PYRTM,2024,124.918235098553,16.027882508692
$GNHDT,200.832,T*20
$PYRTM,2024,124.918240937431,16.027888347569
$GNGGA,220216.00,3510.61074372,N,12128.05326188,W,2,13,0.8,6.003,M,-37.358,M,7.0,0131*6A
$PYRTM,2024,124.918240937431,16.027888347569
$GNHDT,200.738,T*25
$PYRTM,2024,124.918246664780,16.027894074919
$GNGGA,220216.50,3510.61058978,N,12128.05313436,W,2,13,0.8,6.094,M,-37.358,M,7.4,0131*6D
$PYRTM,2024,124.918246664780,16.027894074919
$GNHDT,200.548,T*20
$PYRTM,2024,124.918252507106,16.027899917245
$GNGGA,220217.00,3510.61045395,N,12128.05308359,W,2,13,0.8,6.131,M,-37.358,M,4.0,0131*61
$PYRTM,2024,124.918252507106,16.027899917245
$GNHDT,200.628,T*25
$PYRTM,2024,124.918258236968,16.027905647106
$GNGGA,220217.50,3510.61033508,N,12128.05311447,W,2,13,0.8,6.082,M,-37.358,M,4.4,0131*6A
$PYRTM,2024,124.918258236968,16.027905647106
$GNHDT,200.487,T*22
$PYRTM,2024,124.918264083449,16.027911493588
$GNGGA,220218.00,3510.61022955,N,12128.05319999,W,2,13,0.8,6.014,M,-37.358,M,5.0,0131*68
$PYRTM,2024,124.918264083449,16.027911493588
$GNHDT,200.657,T*2D
$PYRTM,2024,124.918269814468,16.027917224618
$GNGGA,220218.50,3510.61012828,N,12128.05329112,W,2,13,0.8,5.968,M,-37.358,M,5.4,0131*68
$PYRTM,2024,124.918269814468,16.027917224618
$GNHDT,200.548,T*20
$PYRTM,2024,124.918275655521,16.027923065660
$GNGGA,220219.00,3510.61004586,N,12128.05336953,W,2,13,0.8,6.013,M,-37.358,M,6.0,0131*60
$PYRTM,2024,124.918275655521,16.027923065660
$GNHDT,200.591,T*24
$PYRTM,2024,124.918281389306,16.027928799456
$GNGGA,220219.50,3510.60993610,N,12128.05336104,W,2,13,0.8,6.155,M,-37.358,M,6.4,0131*62
$PYRTM,2024,124.918281389306,16.027928799456
$GNHDT,200.279,T*25
$PYRTM,2024,124.918287230579,16.027934640718
$GNGGA,220220.00,3510.60977750,N,12128.05324985,W,2,13,0.8,6.404,M,-37.358,M,7.0,0131*64
$PYRTM,2024,124.918287230579,16.027934640718
$GNHDT,200.089,T*28
$PYRTM,2024,124.918292964884,16.027940375023
$GNGGA,220220.50,3510.60959566,N,12128.05305708,W,2,13,0.8,6.678,M,-37.358,M,7.4,0131*6F
$PYRTM,2024,124.918292964884,16.027940375023
$GNHDT,200.088,T*29
$PYRTM,2024,124.918298806736,16.027946216875
$GNGGA,220221.00,3510.60941792,N,12128.05282674,W,2,13,0.8,6.905,M,-37.358,M,7.0,0131*6E
$PYRTM,2024,124.918298806736,16.027946216875
$GNHDT,199.994,T*2E
$PYRTM,2024,124.918304535984,16.027951946123
$GNGGA,220221.50,3510.60925172,N,12128.05262753,W,2,13,0.8,6.989,M,-37.358,M,7.4,0131*6B
$PYRTM,2024,124.918304535984,16.027951946123
$GNHDT,199.815,T*26
$PYRTM,2024,124.918310378634,16.027957788773
$GNGGA,220222.00,3510.60911824,N,12128.05250905,W,2,13,0.8,6.898,M,-37.358,M,7.0,0131*69
$PYRTM,2024,124.918310378634,16.027957788773
$GNHDT,199.835,T*24
$PYRTM,2024,124.918316112847,16.027963522986
$GNGGA,220222.50,3510.60901180,N,12128.05249073,W,2,13,0.8,6.649,M,-37.358,M,7.4,0131*6C
$PYRTM,2024,124.918316112847,16.027963522986
$GNHDT,199.860,T*24
$PYRTM,2024,124.918321955127,16.027969365266
$GNGGA,220223.00,3510.60893947,N,12128.05256687,W,2,13,0.8,6.313,M,-37.358,M,4.0,0131*6F
$PYRTM,2024,124.918321955127,16.027969365266
$GNHDT,199.875,T*20
$PYRTM,2024,124.918327691898,16.027975102037
$GNGGA,220223.50,3510.60888055,N,12128.05269091,W,2,13,0.8,5.967,M,-37.358,M,4.4,0131*69
$PYRTM,2024,124.918327691898,16.027975102037
$GNHDT,199.803,T*21
$PYRTM,2024,124.918333526100,16.027980936238
$GNGGA,220224.00,3510.60880672,N,12128.05280382,W,2,13,0.8,5.703,M,-37.358,M,5.0,0131*6F
$PYRTM,2024,124.918333526100,16.027980936238
$GNHDT,199.798,T*2C
$PYRTM,2024,124.918339257269,16.027986667407
$GNGGA,220224.50,3510.60870410,N,12128.05285294,W,2,13,0.8,5.598,M,-37.358,M,5.4,0131*64
$PYRTM,2024,124.918339257269,16.027986667407
$GNHDT,199.458,T*23
$PYRTM,2024,124.918345098854,16.027992508993
$GNGGA,220225.00,3510.60856043,N,12128.05279850,W,2,13,0.8,5.734,M,-37.358,M,6.0,0131*64
$PYRTM,2024,124.918345098854,16.027992508993
$GNHDT,199.441,T*2B
$PYRTM,2024,124.918350839687,16.027998249826
$GNGGA,220225.50,3510.60839646,N,12128.05264022,W,2,13,0.8,6.022,M,-37.358,M,6.4,0131*6D
$PYRTM,2024,124.918350839687,16.027998249826
$GNHDT,199.287,T*27
$PYRTM,2024,124.918356678646,16.028004088785
$GNGGA,220226.00,3510.60820532,N,12128.05239592,W,2,13,0.8,6.408,M,-37.358,M,7.0,0131*6C
$PYRTM,2024,124.918356678646,16.028004088785
$GNHDT,199.582,T*25
$PYRTM,2024,124.918362407882,16.028009818021
$GNGGA,220226.50,3510.60800169,N,12128.05213202,W,2,13,0.8,6.766,M,-37.358,M,7.4,0131*68
$PYRTM,2024,124.918362407882,16.028009818021
$GNHDT,199.735,T*2B
$PYRTM,2024,124.918368247049,16.028015657187
$GNGGA,220227.00,3510.60781819,N,12128.05193059,W,2,13,0.8,7.005,M,-37.358,M,7.0,0131*64
$PYRTM,2024,124.918368247049,16.028015657187
$GNHDT,199.779,T*23
$PYRTM,2024,124.918373981366,16.028021391505
$GNGGA,220227.50,3510.60768038,N,12128.05188086,W,2,13,0.8,7.020,M,-37.358,M,7.4,0131*66
$PYRTM,2024,124.918373981366,16.028021391505
$GNHDT,199.756,T*2E
$PYRTM,2024,124.918379828113,16.028027238264
$GNGGA,220228.00,3510.60758861,N,12128.05196737,W,2,13,0.8,6.810,M,-37.358,M,7.0,0131*67
$PYRTM,2024,124.918379828113,16.028027238264
$GNHDT,199.574,T*2C
$PYRTM,2024,124.918385557662,16.028032967801
$GNGGA,220228.50,3510.60751039,N,12128.05212420,W,2,13,0.8,6.423,M,-37.358,M,7.4,0131*6C
$PYRTM,2024,124.918385557662,16.028032967801
$GNHDT,198.906,T*24
$PYRTM,2024,124.918391399225,16.028038809363
