$PYRTM,2024,127.583333548889,18.692980959028
$GNGGA,140000.00,3327.78216990,N,11902.68286807,W,2,13,0.9,9.411,M,-37.758,M,4.0,0131*63
$PYRTM,2024,127.583333548889,18.692980959028
$GNHDT,47.268,T*14
$PYRTM,2024,127.583339280822,18.692986690961
$GNGGA,140000.50,3327.78224827,N,11902.68277493,W,2,13,0.9,9.403,M,-37.758,M,4.4,0131*62
$PYRTM,2024,127.583339280822,18.692986690961
$GNHDT,47.342,T*1D
$PYRTM,2024,127.583345120532,18.692992530671
$GNGGA,140001.00,3327.78229761,N,11902.68262922,W,2,13,0.9,9.278,M,-37.758,M,5.0,0131*6A
$PYRTM,2024,127.583345120532,18.692992530671
$GNHDT,47.550,T*18
$PYRTM,2024,127.583350853519,18.692998263657
$GNGGA,140001.50,3327.78232875,N,11902.68244904,W,2,13,0.9,9.064,M,-37.758,M,5.4,0131*64
$PYRTM,2024,127.583350853519,18.692998263657
$GNHDT,47.916,T*16
$PYRTM,2024,127.583356703380,18.693004113519
$GNGGA,140002.00,3327.78235453,N,11902.68227129,W,2,13,0.9,8.810,M,-37.758,M,6.0,0131*62
$PYRTM,2024,127.583356703380,18.693004113519
$GNHDT,48.118,T*1F
$PYRTM,2024,127.583362431748,18.693009841887
$GNGGA,140002.50,3327.78238166,N,11902.68212222,W,2,13,0.9,8.607,M,-37.758,M,6.4,0131*6B
$PYRTM,2024,127.583362431748,18.693009841887
$GNHDT,48.351,T*10
$PYRTM,2024,127.583368270706,18.693015680845
$GNGGA,140003.00,3327.78242349,N,11902.68200571,W,2,13,0.9,8.479,M,-37.758,M,7.0,0131*61
$PYRTM,2024,127.583368270706,18.693015680845
$GNHDT,48.681,T*18
$PYRTM,2024,127.583374002870,18.693021413009
$GNGGA,140003.50,3327.78248098,N,11902.68192179,W,2,13,0.9,8.476,M,-37.758,M,7.4,0131*6E
$PYRTM,2024,127.583374002870,18.693021413009
$GNHDT,48.994,T*13
$PYRTM,2024,127.583379844097,18.693027254236
$GNGGA,140004.00,3327.78255702,N,11902.68186571,W,2,13,0.9,8.580,M,-37.758,M,7.0,0131*61
$PYRTM,2024,127.583379844097,18.693027254236
$GNHDT,49.221,T*17
$PYRTM,2024,127.583385581701,18.693032991840
$GNGGA,140004.50,3327.78265363,N,11902.68182492,W,2,13,0.9,8.765,M,-37.758,M,7.4,0131*61
$PYRTM,2024,127.583385581701,18.693032991840
$GNHDT,49.420,T*10
$PYRTM,2024,127.583391418681,18.693038828831
$GNGGA,140005.00,3327.78276509,N,11902.68178482,W,2,13,0.9,8.956,M,-37.758,M,7.0,0131*63
$PYRTM,2024,127.583391418681,18.693038828831
$GNHDT,49.471,T*14
$PYRTM,2024,127.583397150694,18.693044560833
$GNGGA,140005.50,3327.78288431,N,11902.68173097,W,2,13,0.9,9.117,M,-37.758,M,7.4,0131*6E
$PYRTM,2024,127.583397150694,18.693044560833
$GNHDT,49.778,T*1E
$PYRTM,2024,127.583402997303,18.693050407442
$GNGGA,140006.00,3327.78300580,N,11902.68164767,W,2,13,0.9,9.210,M,-37.758,M,4.0,0131*6F
$PYRTM,2024,127.583402997303,18.693050407442
$GNHDT,49.931,T*1D
$PYRTM,2024,127.583408728113,18.693056138252
$GNGGA,140006.50,3327.78312527,N,11902.68152910,W,2,13,0.9,9.237,M,-37.758,M,4.4,0131*6E
$PYRTM,2024,127.583408728113,18.693056138252
$GNHDT,49.934,T*18
$PYRTM,2024,127.583414570150,18.693061980289
$GNGGA,140007.00,3327.78323638,N,11902.68138376,W,2,13,0.9,9.191,M,-37.758,M,5.0,0131*69
$PYRTM,2024,127.583414570150,18.693061980289
$GNHDT,50.347,T*1E
$PYRTM,2024,127.583420299514,18.693067709653
$GNGGA,140007.50,3327.78334112,N,11902.68122951,W,2,13,0.9,9.149,M,-37.758,M,5.4,0131*60
$PYRTM,2024,127.583420299514,18.693067709653
$GNHDT,50.086,T*10
$PYRTM,2024,127.583426149873,18.693073560012
$GNGGA,140008.00,3327.78342881,N,11902.68107714,W,2,13,0.9,9.128,M,-37.758,M,6.0,0131*60
$PYRTM,2024,127.583426149873,18.693073560012
$GNHDT,50.289,T*1D
$PYRTM,2024,127.583431874178,18.693079284317
$GNGGA,140008.50,3327.78350799,N,11902.68092595,W,2,13,0.9,9.131,M,-37.758,M,6.4,0131*6A
$PYRTM,2024,127.583431874178,18.693079284317
$GNHDT,50.535,T*1D
$PYRTM,2024,127.583437715035,18.693085125185
$GNGGA,140009.00,3327.78359314,N,11902.68077888,W,2,13,0.9,9.171,M,-37.758,M,7.0,0131*6D
$PYRTM,2024,127.583437715035,18.693085125185
$GNHDT,50.755,T*19
$PYRTM,2024,127.583443447384,18.693090857523
$GNGGA,140009.50,3327.78369771,N,11902.68064284,W,2,13,0.9,9.226,M,-37.758,M,7.4,0131*6D
$PYRTM,2024,127.583443447384,18.693090857523
$GNHDT,51.129,T*15
$PYRTM,2024,127.583449294444,18.693096704583
$GNGGA,140010.00,3327.78382606,N,11902.68052367,W,2,13,0.9,9.273,M,-37.758,M,7.0,0131*69
$PYRTM,2024,127.583449294444,18.693096704583
$GNHDT,51.533,T*1A
$PYRTM,2024,127.583455021169,18.693102431319
$GNGGA,140010.50,3327.78397800,N,11902.68042742,W,2,13,0.9,9.281,M,-37.758,M,7.4,0131*6B
$PYRTM,2024,127.583455021169,18.693102431319
$GNHDT,51.743,T*1F
$PYRTM,2024,127.583460862280,18.693108272419
$GNGGA,140011.00,3327.78414288,N,11902.68034211,W,2,13,0.9,9.224,M,-37.758,M,7.0,0131*60
$PYRTM,2024,127.583460862280,18.693108272419
$GNHDT,51.736,T*1D
$PYRTM,2024,127.583466596042,18.693114006181
$GNGGA,140011.50,3327.78429830,N,11902.68023750,W,2,13,0.9,9.101,M,-37.758,M,7.4,0131*64
$PYRTM,2024,127.583466596042,18.693114006181
$GNHDT,51.895,T*1B
$PYRTM,2024,127.583472439097,18.693119849236
$GNGGA,140012.00,3327.78442486,N,11902.68010183,W,2,13,0.9,8.948,M,-37.758,M,4.0,0131*65
$PYRTM,2024,127.583472439097,18.693119849236
$GNHDT,52.025,T*1B
$PYRTM,2024,127.583478170174,18.693125580313
$GNGGA,140012.50,3327.78451034,N,11902.67993611,W,2,13,0.9,8.784,M,-37.758,M,4.4,0131*64
$PYRTM,2024,127.583478170174,18.693125580313
$GNHDT,52.207,T*19
$PYRTM,2024,127.583484012014,18.693131422153
$GNGGA,140013.00,3327.78455426,N,11902.67975981,W,2,13,0.9,8.670,M,-37.758,M,5.0,0131*62
$PYRTM,2024,127.583484012014,18.693131422153
$GNHDT,52.222,T*1E
$PYRTM,2024,127.583489743611,18.693137153762
$GNGGA,140013.50,3327.78458865,N,11902.67959517,W,2,13,0.9,8.614,M,-37.758,M,5.4,0131*6A
$PYRTM,2024,127.583489743611,18.693137153762
$GNHDT,52.014,T*19
$PYRTM,2024,127.583495586343,18.693142996493
$GNGGA,140014.00,3327.78462463,N,11902.67946111,W,2,13,0.9,8.645,M,-37.758,M,6.0,0131*64
$PYRTM,2024,127.583495586343,18.693142996493
$GNHDT,52.001,T*1D
$PYRTM,2024,127.583501318530,18.693148728669
$GNGGA,140014.50,3327.78468871,N,11902.67935763,W,2,13,0.9,8.736,M,-37.758,M,6.4,0131*62
$PYRTM,2024,127.583501318530,18.693148728669
$GNHDT,52.283,T*15
$PYRTM,2024,127.583507159120,18.693154569259
$GNGGA,140015.00,3327.78477944,N,11902.67928331,W,2,13,0.9,8.868,M,-37.758,M,7.0,0131*61
$PYRTM,2024,127.583507159120,18.693154569259
$GNHDT,52.614,T*1F
$PYRTM,2024,127.583512893970,18.693160304109
$GNGGA,140015.50,3327.78489744,N,11902.67920694,W,2,13,0.9,8.984,M,-37.758,M,7.4,0131*6E
$PYRTM,2024,127.583512893970,18.693160304109
$GNHDT,52.726,T*1F
$PYRTM,2024,127.583518741678,18.693166151829
$GNGGA,140016.00,3327.78501947,N,11902.67912313,W,2,13,0.9,9.060,M,-37.758,M,7.0,0131*69
$PYRTM,2024,127.583518741678,18.693166151829
$GNHDT,53.166,T*1C
$PYRTM,2024,127.583524467257,18.693171877396
$GNGGA,140016.50,3327.78512699,N,11902.67901332,W,2,13,0.9,9.091,M,-37.758,M,7.4,0131*69
$PYRTM,2024,127.583524467257,18.693171877396
$GNHDT,53.340,T*1A
$PYRTM,2024,127.583530308148,18.693177718287
$GNGGA,140017.00,3327.78518995,N,11902.67888082,W,2,13,0.9,9.075,M,-37.758,M,7.0,0131*62
$PYRTM,2024,127.583530308148,18.693177718287
$GNHDT,53.801,T*14
$PYRTM,2024,127.583536039954,18.693183450093
$GNGGA,140017.50,3327.78521177,N,11902.67872465,W,2,13,0.9,9.026,M,-37.758,M,7.4,0131*63
$PYRTM,2024,127.583536039954,18.693183450093
$GNHDT,53.928,T*1E
$PYRTM,2024,127.583541884850,18.693189294988
$GNGGA,140018.00,3327.78520107,N,11902.67854687,W,2,13,0.9,8.961,M,-37.758,M,4.0,0131*69
$PYRTM,2024,127.583541884850,18.693189294988
$GNHDT,54.103,T*18
$PYRTM,2024,127.583547616331,18.693195026470
$GNGGA,140018.50,3327.78519202,N,11902.67836736,W,2,13,0.9,8.887,M,-37.758,M,4.4,0131*62
$PYRTM,2024,127.583547616331,18.693195026470
$GNHDT,54.372,T*1C
$PYRTM,2024,127.583553456331,18.693200866470
$GNGGA,140019.00,3327.78521231,N,11902.67820213,W,2,13,0.9,8.842,M,-37.758,M,5.0,0131*64
$PYRTM,2024,127.583553456331,18.693200866470
$GNHDT,54.555,T*1F
$PYRTM,2024,127.583559195069,18.693206605208
$GNGGA,140019.50,3327.78528755,N,11902.67807661,W,2,13,0.9,8.841,M,-37.758,M,5.4,0131*6C
$PYRTM,2024,127.583559195069,18.693206605208
$GNHDT,54.514,T*1A
$PYRTM,2024,127.583565029792,18.693212439931
$GNGGA,140020.00,3327.78541934,N,11902.67800313,W,2,13,0.9,8.907,M,-37.758,M,6.0,0131*66
$PYRTM,2024,127.583565029792,18.693212439931
$GNHDT,54.653,T*1A
$PYRTM,2024,127.583570767627,18.693218177766
$GNGGA,140020.50,3327.78558041,N,11902.67797452,W,2,13,0.9,9.003,M,-37.758,M,6.4,0131*6B
$PYRTM,2024,127.583570767627,18.693218177766
$GNHDT,54.869,T*1D
$PYRTM,2024,127.583576606123,18.693224016262
$GNGGA,140021.00,3327.78573874,N,11902.67795784,W,2,13,0.9,9.099,M,-37.758,M,7.0,0131*64
$PYRTM,2024,127.583576606123,18.693224016262
$GNHDT,55.289,T*18
$PYRTM,2024,127.583582344051,18.693229754190
$GNGGA,140021.50,3327.78585004,N,11902.67790872,W,2,13,0.9,9.147,M,-37.758,M,7.4,0131*62
$PYRTM,2024,127.583582344051,18.693229754190
$GNHDT,55.335,T*1E
$PYRTM,2024,127.583588179572,18.693235589722
$GNGGA,140022.00,3327.78590503,N,11902.67779979,W,2,13,0.9,9.127,M,-37.758,M,7.0,0131*6D
$PYRTM,2024,127.583588179572,18.693235589722
$GNHDT,55.810,T*12
$PYRTM,2024,127.583593913113,18.693241323264
$GNGGA,140022.50,3327.78592299,N,11902.67763869,W,2,13,0.9,9.008,M,-37.758,M,7.4,0131*6D
$PYRTM,2024,127.583593913113,18.693241323264
$GNHDT,55.832,T*12
$PYRTM,2024,127.583599759468,18.693247169606
$GNGGA,140023.00,3327.78593441,N,11902.67745550,W,2,13,0.9,8.857,M,-37.758,M,7.0,0131*6F
$PYRTM,2024,127.583599759468,18.693247169606
$GNHDT,55.851,T*17
$PYRTM,2024,127.583605487512,18.693252897650
$GNGGA,140023.50,3327.78595721,N,11902.67727208,W,2,13,0.9,8.730,M,-37.758,M,7.4,0131*6D
$PYRTM,2024,127.583605487512,18.693252897650
$GNHDT,55.834,T*14
$PYRTM,2024,127.583611325093,18.693258735231
$GNGGA,140024.00,3327.78600981,N,11902.67709935,W,2,13,0.9,8.704,M,-37.758,M,4.0,0131*6D
$PYRTM,2024,127.583611325093,18.693258735231
$GNHDT,55.883,T*18
$PYRTM,2024,127.583617060590,18.693264470729
$GNGGA,140024.50,3327.78610029,N,11902.67693875,W,2,13,0.9,8.787,M,-37.758,M,4.4,0131*6A
$PYRTM,2024,127.583617060590,18.693264470729
$GNHDT,56.183,T*12
$PYRTM,2024,127.583622904074,18.693270314213
$GNGGA,140025.00,3327.78624338,N,11902.67679049,W,2,13,0.9,8.987,M,-37.758,M,5.0,0131*62
$PYRTM,2024,127.583622904074,18.693270314213
$GNHDT,56.239,T*10
$PYRTM,2024,127.583628637708,18.693276047859
$GNGGA,140025.50,3327.78642725,N,11902.67665576,W,2,13,0.9,9.253,M,-37.758,M,5.4,0131*6C
$PYRTM,2024,127.583628637708,18.693276047859
$GNHDT,56.230,T*19
$PYRTM,2024,127.583634480556,18.693281890694
$GNGGA,140026.00,3327.78663356,N,11902.67654098,W,2,13,0.9,9.508,M,-37.758,M,6.0,0131*60
$PYRTM,2024,127.583634480556,18.693281890694
$GNHDT,56.432,T*1D
$PYRTM,2024,127.583640209329,18.693287619468
$GNGGA,140026.50,3327.78683515,N,11902.67643812,W,2,13,0.9,9.681,M,-37.758,M,6.4,0131*60
$PYRTM,2024,127.583640209329,18.693287619468
$GNHDT,56.732,T*1E
$PYRTM,2024,127.583646048565,18.693293458704
$GNGGA,140027.00,3327.78699762,N,11902.67631833,W,2,13,0.9,9.700,M,-37.758,M,7.0,0131*66
$PYRTM,2024,127.583646048565,18.693293458704
$GNHDT,57.121,T*1B
$PYRTM,2024,127.583651780833,18.693299190972
$GNGGA,140027.50,3327.78710674,N,11902.67616463,W,2,13,0.9,9.581,M,-37.758,M,7.4,0131*66
$PYRTM,2024,127.583651780833,18.693299190972
$GNHDT,57.210,T*1A
$PYRTM,2024,127.583657625613,18.693305035764
$GNGGA,140028.00,3327.78715316,N,11902.67597008,W,2,13,0.9,9.303,M,-37.758,M,7.0,0131*63
$PYRTM,2024,127.583657625613,18.693305035764
$GNHDT,57.480,T*15
$PYRTM,2024,127.583663363218,18.693310773356
$GNGGA,140028.50,3327.78716898,N,11902.67575208,W,2,13,0.9,8.946,M,-37.758,M,7.4,0131*68
$PYRTM,2024,127.583663363218,18.693310773356
$GNHDT,57.606,T*19
$PYRTM,2024,127.583669197373,18.693316607512
$GNGGA,140029.00,3327.78718395,N,11902.67552915,W,2,13,0.9,8.549,M,-37.758,M,7.0,0131*61
$PYRTM,2024,127.583669197373,18.693316607512
$GNHDT,57.899,T*11
$PYRTM,2024,127.583674929676,18.693322339815
$GNGGA,140029.50,3327.78723644,N,11902.67533870,W,2,13,0.9,8.259,M,-37.758,M,7.4,0131*62
$PYRTM,2024,127.583674929676,18.693322339815
$GNHDT,57.746,T*1C
$PYRTM,2024,127.583680772222,18.693328182361
$GNGGA,140030.00,3327.78733313,N,11902.67519419,W,2,13,0.9,8.126,M,-37.758,M,4.0,0131*6E
$PYRTM,2024,127.583680772222,18.693328182361
$GNHDT,57.622,T*1F
$PYRTM,2024,127.583686505185,18.693333915324
$GNGGA,140030.50,3327.78747413,N,11902.67508645,W,2,13,0.9,8.216,M,-37.758,M,4.4,0131*60
$PYRTM,2024,127.583686505185,18.693333915324
$GNHDT,57.608,T*17
$PYRTM,2024,127.583692358426,18.693339768565
$GNGGA,140031.00,3327.78764536,N,11902.67499938,W,2,13,0.9,8.500,M,-37.758,M,5.0,0131*6A
$PYRTM,2024,127.583692358426,18.693339768565
$GNHDT,57.453,T*1B
$PYRTM,2024,127.583698087072,18.693345497211
$GNGGA,140031.50,3327.78783075,N,11902.67491683,W,2,13,0.9,8.878,M,-37.758,M,5.4,0131*65
$PYRTM,2024,127.583698087072,18.693345497211
$GNHDT,57.636,T*1A
$PYRTM,2024,127.583703926169,18.693351336308
$GNGGA,140032.00,3327.78801091,N,11902.67481485,W,2,13,0.9,9.286,M,-37.758,M,6.0,0131*64
$PYRTM,2024,127.583703926169,18.693351336308
$GNHDT,57.789,T*1F
$PYRTM,2024,127.583709656065,18.693357066204
$GNGGA,140032.50,3327.78815470,N,11902.67467519,W,2,13,0.9,9.611,M,-37.758,M,6.4,0131*6D
$PYRTM,2024,127.583709656065,18.693357066204
$GNHDT,57.545,T*1D
$PYRTM,2024,127.583715498345,18.693362908484
$GNGGA,140033.00,3327.78823380,N,11902.67449005,W,2,13,0.9,9.825,M,-37.758,M,7.0,0131*6C
$PYRTM,2024,127.583715498345,18.693362908484
$GNHDT,57.703,T*1D
$PYRTM,2024,127.583721230926,18.693368641065
$GNGGA,140033.50,3327.78826374,N,11902.67426628,W,2,13,0.9,9.893,M,-37.758,M,7.4,0131*6E
$PYRTM,2024,127.583721230926,18.693368641065
$GNHDT,58.034,T*11
$PYRTM,2024,127.583727073125,18.693374483264
$GNGGA,140034.00,3327.78825176,N,11902.67401376,W,2,13,0.9,9.828,M,-37.758,M,7.0,0131*60
$PYRTM,2024,127.583727073125,18.693374483264
$GNHDT,58.279,T*1A
$PYRTM,2024,127.583732804317,18.693380214456
$GNGGA,140034.50,3327.78823127,N,11902.67376208,W,2,13,0.9,9.636,M,-37.758,M,7.4,0131*6D
$PYRTM,2024,127.583732804317,18.693380214456
$GNHDT,58.432,T*13
$PYRTM,2024,127.583738641204,18.693386051343
$GNGGA,140035.00,3327.78823544,N,11902.67353136,W,2,13,0.9,9.366,M,-37.758,M,7.0,0131*65
$PYRTM,2024,127.583738641204,18.693386051343
$GNHDT,58.976,T*1E
$PYRTM,2024,127.583744377882,18.693391788021
$GNGGA,140035.50,3327.78829344,N,11902.67335273,W,2,13,0.9,9.104,M,-37.758,M,7.4,0131*6C
$PYRTM,2024,127.583744377882,18.693391788021
$GNHDT,58.979,T*11
$PYRTM,2024,127.583750228611,18.693397638762
$GNGGA,140036.00,3327.78841013,N,11902.67323033,W,2,13,0.9,8.868,M,-37.758,M,4.0,0131*61
$PYRTM,2024,127.583750228611,18.693397638762
$GNHDT,59.451,T*17
$PYRTM,2024,127.583755952025,18.693403362164
$GNGGA,140036.50,3327.78857923,N,11902.67314502,W,2,13,0.9,8.721,M,-37.758,M,4.4,0131*6C
$PYRTM,2024,127.583755952025,18.693403362164
$GNHDT,59.208,T*1D
$PYRTM,2024,127.583761792755,18.693409202894
$GNGGA,140037.00,3327.78877207,N,11902.67308057,W,2,13,0.9,8.650,M,-37.758,M,5.0,0131*6D
$PYRTM,2024,127.583761792755,18.693409202894
$GNHDT,59.252,T*12
$PYRTM,2024,127.583767526794,18.693414936933
$GNGGA,140037.50,3327.78895690,N,11902.67300153,W,2,13,0.9,8.662,M,-37.758,M,5.4,0131*66
$PYRTM,2024,127.583767526794,18.693414936933
$GNHDT,59.489,T*12
$PYRTM,2024,127.583773368241,18.693420778380
$GNGGA,140038.00,3327.78910207,N,11902.67289166,W,2,13,0.9,8.747,M,-37.758,M,6.0,0131*6D
$PYRTM,2024,127.583773368241,18.693420778380
$GNHDT,59.406,T*15
$PYRTM,2024,127.583779101725,18.693426511863
$GNGGA,140038.50,3327.78919367,N,11902.67274262,W,2,13,0.9,8.860,M,-37.758,M,6.4,0131*6D
$PYRTM,2024,127.583779101725,18.693426511863
$GNHDT,59.406,T*15
$PYRTM,2024,127.583784940463,18.693432350602
$GNGGA,140039.00,3327.78924194,N,11902.67255669,W,2,13,0.9,8.980,M,-37.758,M,7.0,0131*6F
$PYRTM,2024,127.583784940463,18.693432350602
$GNHDT,59.284,T*19
$PYRTM,2024,127.583790672373,18.693438082512
$GNGGA,140039.50,3327.78926398,N,11902.67235263,W,2,13,0.9,9.077,M,-37.758,M,7.4,0131*6A
$PYRTM,2024,127.583790672373,18.693438082512
$GNHDT,59.323,T*15
$PYRTM,2024,127.583796511285,18.693443921435
$GNGGA,140040.00,3327.78928120,N,11902.67214685,W,2,13,0.9,9.144,M,-37.758,M,7.0,0131*64
$PYRTM,2024,127.583796511285,18.693443921435
$GNHDT,59.356,T*17
$PYRTM,2024,127.583802247789,18.693449657940
$GNGGA,140040.50,3327.78931516,N,11902.67195324,W,2,13,0.9,9.172,M,-37.758,M,7.4,0131*6D
$PYRTM,2024,127.583802247789,18.693449657940
$GNHDT,59.543,T*15
$PYRTM,2024,127.583808085093,18.693455495243
$GNGGA,140041.00,3327.78937103,N,11902.67177151,W,2,13,0.9,9.171,M,-37.758,M,7.0,0131*64
$PYRTM,2024,127.583808085093,18.693455495243
$GNHDT,59.784,T*1C
$PYRTM,2024,127.583813818877,18.693461229016
$GNGGA,140041.50,3327.78945104,N,11902.67160008,W,2,13,0.9,9.145,M,-37.758,M,7.4,0131*6B
$PYRTM,2024,127.583813818877,18.693461229016
$GNHDT,59.797,T*1E
$PYRTM,2024,127.583819667014,18.693467077153
$GNGGA,140042.00,3327.78954356,N,11902.67143443,W,2,13,0.9,9.118,M,-37.758,M,4.0,0131*6D
$PYRTM,2024,127.583819667014,18.693467077153
$GNHDT,60.331,T*1C
$PYRTM,2024,127.583825395463,18.693472805602
$GNGGA,140042.50,3327.78964258,N,11902.67129523,W,2,13,0.9,9.069,M,-37.758,M,4.4,0131*6C
$PYRTM,2024,127.583825395463,18.693472805602
$GNHDT,60.535,T*1E
$PYRTM,2024,127.583831235046,18.693478645185
$GNGGA,140043.00,3327.78973897,N,11902.67117560,W,2,13,0.9,9.071,M,-37.758,M,5.0,0131*61
$PYRTM,2024,127.583831235046,18.693478645185
$GNHDT,60.697,T*15
$PYRTM,2024,127.583836966921,18.693484377072
$GNGGA,140043.50,3327.78982690,N,11902.67107286,W,2,13,0.9,9.099,M,-37.758,M,5.4,0131*6F
$PYRTM,2024,127.583836966921,18.693484377072
$GNHDT,60.892,T*1E
$PYRTM,2024,127.583842807280,18.693490217419
$GNGGA,140044.00,3327.78990320,N,11902.67098066,W,2,13,0.9,9.140,M,-37.758,M,6.0,0131*69
$PYRTM,2024,127.583842807280,18.693490217419
$GNHDT,60.766,T*1A
$PYRTM,2024,127.583848540880,18.693495951019
$GNGGA,140044.50,3327.78996575,N,11902.67087851,W,2,13,0.9,9.165,M,-37.758,M,6.4,0131*6D
$PYRTM,2024,127.583848540880,18.693495951019
$GNHDT,60.609,T*12
$PYRTM,2024,127.583854382836,18.693501792986
$GNGGA,140045.00,3327.79002493,N,11902.67075260,W,2,13,0.9,9.163,M,-37.758,M,7.0,0131*63
$PYRTM,2024,127.583854382836,18.693501792986
$GNHDT,60.748,T*16
$PYRTM,2024,127.583860114572,18.693507524722
$GNGGA,140045.50,3327.79009486,N,11902.67059351,W,2,13,0.9,9.130,M,-37.758,M,7.4,0131*66
$PYRTM,2024,127.583860114572,18.693507524722
$GNHDT,60.837,T*11
$PYRTM,2024,127.583865955914,18.693513366053
$GNGGA,140046.00,3327.79018386,N,11902.67040485,W,2,13,0.9,9.095,M,-37.758,M,7.0,0131*6B
$PYRTM,2024,127.583865955914,18.693513366053
$GNHDT,60.938,T*1F
$PYRTM,2024,127.583871688368,18.693519098519
$GNGGA,140046.50,3327.79028680,N,11902.67020133,W,2,13,0.9,9.081,M,-37.758,M,7.4,0131*61
$PYRTM,2024,127.583871688368,18.693519098519
$GNHDT,61.154,T*1C
$PYRTM,2024,127.583877530243,18.693524940394
$GNGGA,140047.00,3327.79040577,N,11902.66999929,W,2,13,0.9,9.105,M,-37.758,M,7.0,0131*60
$PYRTM,2024,127.583877530243,18.693524940394
$GNHDT,61.219,T*16
$PYRTM,2024,127.583883266748,18.693530676887
$GNGGA,140047.50,3327.79053742,N,11902.66981385,W,2,13,0.9,9.180,M,-37.758,M,7.4,0131*6F
$PYRTM,2024,127.583883266748,18.693530676887
$GNHDT,61.538,T*12
$PYRTM,2024,127.583889106366,18.693536516505
$GNGGA,140048.00,3327.79067928,N,11902.66964324,W,2,13,0.9,9.308,M,-37.758,M,4.0,0131*65
$PYRTM,2024,127.583889106366,18.693536516505
$GNHDT,61.510,T*18
$PYRTM,2024,127.583894837789,18.693542247940
$GNGGA,140048.50,3327.79081915,N,11902.66948371,W,2,13,0.9,9.459,M,-37.758,M,4.4,0131*6F
$PYRTM,2024,127.583894837789,18.693542247940
$GNHDT,61.739,T*11
$PYRTM,2024,127.583900678438,18.693548088576
$GNGGA,140049.00,3327.79094683,N,11902.66932606,W,2,13,0.9,9.580,M,-37.758,M,5.0,0131*67
$PYRTM,2024,127.583900678438,18.693548088576
$GNHDT,61.641,T*1F
$PYRTM,2024,127.583906410069,18.693553820208
$GNGGA,140049.50,3327.79105370,N,11902.66915805,W,2,13,0.9,9.642,M,-37.758,M,5.4,0131*63
$PYRTM,2024,127.583906410069,18.693553820208
$GNHDT,61.621,T*19
$PYRTM,2024,127.583912253287,18.693559663426
$GNGGA,140050.00,3327.79114396,N,11902.66898202,W,2,13,0.9,9.644,M,-37.758,M,6.0,0131*6E
$PYRTM,2024,127.583912253287,18.693559663426
$GNHDT,61.711,T*1B
$PYRTM,2024,127.583917989653,18.693565399792
$GNGGA,140050.50,3327.79122875,N,11902.66879708,W,2,13,0.9,9.563,M,-37.758,M,6.4,0131*6A
$PYRTM,2024,127.583917989653,18.693565399792
$GNHDT,61.846,T*16
$PYRTM,2024,127.583923827176,18.693571237315
$GNGGA,140051.00,3327.79131697,N,11902.66862195,W,2,13,0.9,9.418,M,-37.758,M,7.0,0131*6E
$PYRTM,2024,127.583923827176,18.693571237315
$GNHDT,61.909,T*1C
$PYRTM,2024,127.583929562257,18.693576972396
$GNGGA,140051.50,3327.79141369,N,11902.66845971,W,2,13,0.9,9.245,M,-37.758,M,7.4,0131*65
$PYRTM,2024,127.583929562257,18.693576972396
$GNHDT,61.838,T*1F
$PYRTM,2024,127.583935400451,18.693582810590
$GNGGA,140052.00,3327.79151335,N,11902.66831250,W,2,13,0.9,9.072,M,-37.758,M,7.0,0131*62
$PYRTM,2024,127.583935400451,18.693582810590
$GNHDT,61.854,T*15
$PYRTM,2024,127.583941132824,18.693588542963
$GNGGA,140052.50,3327.79161005,N,11902.66817142,W,2,13,0.9,8.947,M,-37.758,M,7.4,0131*6A
$PYRTM,2024,127.583941132824,18.693588542963
$GNHDT,61.935,T*13
$PYRTM,2024,127.583946973970,18.693594384109
$GNGGA,140053.00,3327.79170265,N,11902.66803217,W,2,13,0.9,8.897,M,-37.758,M,7.0,0131*64
$PYRTM,2024,127.583946973970,18.693594384109
$GNHDT,62.043,T*18
$PYRTM,2024,127.583952708588,18.693600118727
$GNGGA,140053.50,3327.79178648,N,11902.66788703,W,2,13,0.9,8.923,M,-37.758,M,7.4,0131*64
$PYRTM,2024,127.583952708588,18.693600118727
$GNHDT,62.029,T*14
$PYRTM,2024,127.583958548229,18.693605958368
$GNGGA,140054.00,3327.79185750,N,11902.66773811,W,2,13,0.9,8.998,M,-37.758,M,4.0,0131*63
$PYRTM,2024,127.583958548229,18.693605958368
$GNHDT,62.186,T*10
$PYRTM,2024,127.583964281042,18.693611691181
$GNGGA,140054.50,3327.79191589,N,11902.66759081,W,2,13,0.9,9.116,M,-37.758,M,4.4,0131*67
$PYRTM,2024,127.583964281042,18.693611691181
$GNHDT,62.363,T*19
$PYRTM,2024,127.583970124074,18.693617534213
$GNGGA,140055.00,3327.79196317,N,11902.66744026,W,2,13,0.9,9.216,M,-37.758,M,5.0,0131*62
$PYRTM,2024,127.583970124074,18.693617534213
$GNHDT,62.451,T*1F
$PYRTM,2024,127.583975855127,18.693623265266
$GNGGA,140055.50,3327.79201366,N,11902.66728376,W,2,13,0.9,9.270,M,-37.758,M,5.4,0131*64
$PYRTM,2024,127.583975855127,18.693623265266
$GNHDT,62.546,T*18
$PYRTM,2024,127.583981696447,18.693629106586
$GNGGA,140056.00,3327.79206867,N,11902.66711835,W,2,13,0.9,9.250,M,-37.758,M,6.0,0131*6C
$PYRTM,2024,127.583981696447,18.693629106586
$GNHDT,62.645,T*18
$PYRTM,2024,127.583987428507,18.693634838646
$GNGGA,140056.50,3327.79212837,N,11902.66694887,W,2,13,0.9,9.199,M,-37.758,M,6.4,0131*6E
$PYRTM,2024,127.583987428507,18.693634838646
$GNHDT,62.603,T*1A
$PYRTM,2024,127.583993271192,18.693640681331
$GNGGA,140057.00,3327.79218111,N,11902.66679609,W,2,13,0.9,9.165,M,-37.758,M,7.0,0131*60
$PYRTM,2024,127.583993271192,18.693640681331
$GNHDT,62.567,T*1B
$PYRTM,2024,127.583999004618,18.693646414757
$GNGGA,140057.50,3327.79222881,N,11902.66666495,W,2,13,0.9,9.176,M,-37.758,M,7.4,0131*63
$PYRTM,2024,127.583999004618,18.693646414757
$GNHDT,62.634,T*1E
$PYRTM,2024,127.584004847442,18.693652257581
$GNGGA,140058.00,3327.79227124,N,11902.66655676,W,2,13,0.9,9.230,M,-37.758,M,7.0,0131*60
$PYRTM,2024,127.584004847442,18.693652257581
$GNHDT,62.868,T*19
$PYRTM,2024,127.584010577384,18.693657987523
$GNGGA,140058.50,3327.79231762,N,11902.66644936,W,2,13,0.9,9.303,M,-37.758,M,7.4,0131*68
$PYRTM,2024,127.584010577384,18.693657987523
$GNHDT,62.866,T*17
$PYRTM,2024,127.584016423125,18.693663833264
$GNGGA,140059.00,3327.79236438,N,11902.66632847,W,2,13,0.9,9.374,M,-37.758,M,7.0,0131*65
$PYRTM,2024,127.584016423125,18.693663833264
$GNHDT,63.129,T*14
$PYRTM,2024,127.584022152546,18.693669562697
$GNGGA,140059.50,3327.79240782,N,11902.66618364,W,2,13,0.9,9.395,M,-37.758,M,7.4,0131*6A
$PYRTM,2024,127.584022152546,18.693669562697
$GNHDT,63.344,T*1D
$PYRTM,2024,127.584027995417,18.693675405556
$GNGGA,140100.00,3327.79244553,N,11902.66601879,W,2,13,0.9,9.377,M,-37.758,M,4.0,0131*6C
$PYRTM,2024,127.584027995417,18.693675405556
$GNHDT,63.556,T*18
$PYRTM,2024,127.584033731285,18.693681141424
$GNGGA,140100.50,3327.79249052,N,11902.66584466,W,2,13,0.9,9.330,M,-37.758,M,4.4,0131*6B
$PYRTM,2024,127.584033731285,18.693681141424
$GNHDT,63.649,T*15
$PYRTM,2024,127.584039570799,18.693686980937
$GNGGA,140101.00,3327.79255684,N,11902.66567455,W,2,13,0.9,9.282,M,-37.758,M,5.0,0131*6F
$PYRTM,2024,127.584039570799,18.693686980937
$GNHDT,63.819,T*1E
$PYRTM,2024,127.584045302720,18.693692712859
$GNGGA,140101.50,3327.79265439,N,11902.66552644,W,2,13,0.9,9.259,M,-37.758,M,5.4,0131*6B
$PYRTM,2024,127.584045302720,18.693692712859
$GNHDT,64.028,T*13
$PYRTM,2024,127.584051144491,18.693698554630
$GNGGA,140102.00,3327.79277787,N,11902.66539572,W,2,13,0.9,9.257,M,-37.758,M,6.0,0131*6A
$PYRTM,2024,127.584051144491,18.693698554630
$GNHDT,64.089,T*18
$PYRTM,2024,127.584056875382,18.693704285532
$GNGGA,140102.50,3327.79290835,N,11902.66527274,W,2,13,0.9,9.257,M,-37.758,M,6.4,0131*6A
$PYRTM,2024,127.584056875382,18.693704285532
$GNHDT,64.009,T*10
$PYRTM,2024,127.584062722361,18.693710132512
$GNGGA,140103.00,3327.79302407,N,11902.66513839,W,2,13,0.9,9.253,M,-37.758,M,7.0,0131*6C
$PYRTM,2024,127.584062722361,18.693710132512
$GNHDT,64.120,T*1A
$PYRTM,2024,127.584068450336,18.693715860475
$GNGGA,140103.50,3327.79311100,N,11902.66498115,W,2,13,0.9,9.209,M,-37.758,M,7.4,0131*67
$PYRTM,2024,127.584068450336,18.693715860475
$GNHDT,64.225,T*1C
$PYRTM,2024,127.584074292187,18.693721702326
$GNGGA,140104.00,3327.79316998,N,11902.66479879,W,2,13,0.9,9.140,M,-37.758,M,7.0,0131*6D
$PYRTM,2024,127.584074292187,18.693721702326
$GNHDT,64.289,T*1A
$PYRTM,2024,127.584080027199,18.693727437350
$GNGGA,140104.50,3327.79322091,N,11902.66460470,W,2,13,0.9,9.045,M,-37.758,M,7.4,0131*62
$PYRTM,2024,127.584080027199,18.693727437350
$GNHDT,64.233,T*1B
$PYRTM,2024,127.584085867037,18.693733277176
$GNGGA,140105.00,3327.79328532,N,11902.66441185,W,2,13,0.9,8.945,M,-37.758,M,7.0,0131*60
$PYRTM,2024,127.584085867037,18.693733277176
$GNHDT,64.167,T*19
$PYRTM,2024,127.584091600556,18.693739010694
$GNGGA,140105.50,3327.79337828,N,11902.66424087,W,2,13,0.9,8.890,M,-37.758,M,7.4,0131*60
$PYRTM,2024,127.584091600556,18.693739010694
$GNHDT,64.183,T*13
$PYRTM,2024,127.584097439850,18.693744849988
$GNGGA,140106.00,3327.79349167,N,11902.66409700,W,2,13,0.9,8.909,M,-37.758,M,4.0,0131*6C
$PYRTM,2024,127.584097439850,18.693744849988
$GNHDT,64.114,T*1D
$PYRTM,2024,127.584103172118,18.693750582257
$GNGGA,140106.50,3327.79361386,N,11902.66397500,W,2,13,0.9,9.024,M,-37.758,M,4.4,0131*6F
$PYRTM,2024,127.584103172118,18.693750582257
$GNHDT,64.059,T*15
$PYRTM,2024,127.584109013403,18.693756423542
$GNGGA,140107.00,3327.79373115,N,11902.66385784,W,2,13,0.9,9.236,M,-37.758,M,5.0,0131*69
$PYRTM,2024,127.584109013403,18.693756423542
$GNHDT,64.221,T*18
$PYRTM,2024,127.584114746181,18.693762156319
$GNGGA,140107.50,3327.79382952,N,11902.66373205,W,2,13,0.9,9.488,M,-37.758,M,5.4,0131*6B
$PYRTM,2024,127.584114746181,18.693762156319
$GNHDT,64.477,T*1D
$PYRTM,2024,127.584120588368,18.693767998507
$GNGGA,140108.00,3327.79390621,N,11902.66358465,W,2,13,0.9,9.716,M,-37.758,M,6.0,0131*63
$PYRTM,2024,127.584120588368,18.693767998507
$GNHDT,64.828,T*1B
$PYRTM,2024,127.584126319190,18.693773729329
$GNGGA,140108.50,3327.79396323,N,11902.66340827,W,2,13,0.9,9.844,M,-37.758,M,6.4,0131*68
$PYRTM,2024,127.584126319190,18.693773729329
$GNHDT,64.917,T*16
$PYRTM,2024,127.584132164734,18.693779574873
$GNGGA,140109.00,3327.79400766,N,11902.66320601,W,2,13,0.9,9.839,M,-37.758,M,7.0,0131*62
$PYRTM,2024,127.584132164734,18.693779574873
$GNHDT,65.083,T*13
$PYRTM,2024,127.584137897882,18.693785308021
$GNGGA,140109.50,3327.79404352,N,11902.66299233,W,2,13,0.9,9.717,M,-37.758,M,7.4,0131*61
$PYRTM,2024,127.584137897882,18.693785308021
$GNHDT,65.246,T*18
$PYRTM,2024,127.584143741250,18.693791151400
$GNGGA,140110.00,3327.79408240,N,11902.66279476,W,2,13,0.9,9.504,M,-37.758,M,7.0,0131*6F
$PYRTM,2024,127.584143741250,18.693791151400
$GNHDT,65.297,T*14
$PYRTM,2024,127.584149471713,18.693796881852
$GNGGA,140110.50,3327.79413645,N,11902.66263425,W,2,13,0.9,9.292,M,-37.758,M,7.4,0131*60
$PYRTM,2024,127.584149471713,18.693796881852
$GNHDT,65.232,T*1B
$PYRTM,2024,127.584155314248,18.693802724387
$GNGGA,140111.00,3327.79422467,N,11902.66251580,W,2,13,0.9,9.092,M,-37.758,M,7.0,0131*6D
$PYRTM,2024,127.584155314248,18.693802724387
$GNHDT,65.165,T*1A
$PYRTM,2024,127.584161045243,18.693808455394
$GNGGA,140111.50,3327.79434856,N,11902.66243139,W,2,13,0.9,8.952,M,-37.758,M,7.4,0131*64
$PYRTM,2024,127.584161045243,18.693808455394
$GNHDT,64.946,T*12
$PYRTM,2024,127.584166885324,18.693814295475
$GNGGA,140112.00,3327.79449286,N,11902.66235557,W,2,13,0.9,8.884,M,-37.758,M,4.0,0131*6F
$PYRTM,2024,127.584166885324,18.693814295475
$GNHDT,65.158,T*14
$PYRTM,2024,127.584172617743,18.693820027882
$GNGGA,140112.50,3327.79463536,N,11902.66226246,W,2,13,0.9,8.854,M,-37.758,M,4.4,0131*62
$PYRTM,2024,127.584172617743,18.693820027882
$GNHDT,64.902,T*12
$PYRTM,2024,127.584178463310,18.693825873449
$GNGGA,140113.00,3327.79474920,N,11902.66212808,W,2,13,0.9,8.863,M,-37.758,M,5.0,0131*6D
$PYRTM,2024,127.584178463310,18.693825873449
$GNHDT,65.117,T*1F
$PYRTM,2024,127.584184191424,18.693831601563
$GNGGA,140113.50,3327.79482196,N,11902.66197006,W,2,13,0.9,8.905,M,-37.758,M,5.4,0131*69
$PYRTM,2024,127.584184191424,18.693831601563
$GNHDT,65.234,T*1D
$PYRTM,2024,127.584190032836,18.693837442986
$GNGGA,140114.00,3327.79484616,N,11902.66180312,W,2,13,0.9,9.022,M,-37.758,M,6.0,0131*68
$PYRTM,2024,127.584190032836,18.693837442986
$GNHDT,65.100,T*19
$PYRTM,2024,127.584195765567,18.693843175706
$GNGGA,140114.50,3327.79483023,N,11902.66164171,W,2,13,0.9,9.190,M,-37.758,M,6.4,0131*6B
$PYRTM,2024,127.584195765567,18.693843175706
$GNHDT,65.304,T*1F
$PYRTM,2024,127.584201607627,18.693849017766
$GNGGA,140115.00,3327.79480088,N,11902.66149480,W,2,13,0.9,9.381,M,-37.758,M,7.0,0131*6E
$PYRTM,2024,127.584201607627,18.693849017766
$GNHDT,65.448,T*10
$PYRTM,2024,127.584207341042,18.693854751181
$GNGGA,140115.50,3327.79478728,N,11902.66135749,W,2,13,0.9,9.552,M,-37.758,M,7.4,0131*60
$PYRTM,2024,127.584207341042,18.693854751181
$GNHDT,65.844,T*10
$PYRTM,2024,127.584213188160,18.693860598299
$GNGGA,140116.00,3327.79480895,N,11902.66121633,W,2,13,0.9,9.624,M,-37.758,M,7.0,0131*67
$PYRTM,2024,127.584213188160,18.693860598299
$GNHDT,66.031,T*19
$PYRTM,2024,127.584218913218,18.693866323356
$GNGGA,140116.50,3327.79487519,N,11902.66106149,W,2,13,0.9,9.602,M,-37.758,M,7.4,0131*63
$PYRTM,2024,127.584218913218,18.693866323356
$GNHDT,66.148,T*16
$PYRTM,2024,127.584224756366,18.693872166505
$GNGGA,140117.00,3327.79496852,N,11902.66088761,W,2,13,0.9,9.472,M,-37.758,M,7.0,0131*6F
$PYRTM,2024,127.584224756366,18.693872166505
$GNHDT,66.414,T*1A
$PYRTM,2024,127.584230486088,18.693877896227
$GNGGA,140117.50,3327.79506636,N,11902.66069738,W,2,13,0.9,9.293,M,-37.758,M,7.4,0131*60
$PYRTM,2024,127.584230486088,18.693877896227
$GNHDT,66.411,T*1F
$PYRTM,2024,127.584236328808,18.693883738947
$GNGGA,140118.00,3327.79515693,N,11902.66050127,W,2,13,0.9,9.090,M,-37.758,M,4.0,0131*63
$PYRTM,2024,127.584236328808,18.693883738947
$GNHDT,66.259,T*15
$PYRTM,2024,127.584242063819,18.693889473970
$GNGGA,140118.50,3327.79523543,N,11902.66032220,W,2,13,0.9,8.922,M,-37.758,M,4.4,0131*68
$PYRTM,2024,127.584242063819,18.693889473970
$GNHDT,66.224,T*1F
$PYRTM,2024,127.584247901539,18.693895311667
$GNGGA,140119.00,3327.79529741,N,11902.66016814,W,2,13,0.9,8.826,M,-37.758,M,5.0,0131*6D
$PYRTM,2024,127.584247901539,18.693895311667
$GNHDT,66.202,T*1B
$PYRTM,2024,127.584253633877,18.693901044028
$GNGGA,140119.50,3327.79534804,N,11902.66004763,W,2,13,0.9,8.803,M,-37.758,M,5.4,0131*65
$PYRTM,2024,127.584253633877,18.693901044028
$GNHDT,65.991,T*19
$PYRTM,2024,127.584259476123,18.693906886262
$GNGGA,140120.00,3327.79539204,N,11902.65994983,W,2,13,0.9,8.842,M,-37.758,M,6.0,0131*6C
$PYRTM,2024,127.584259476123,18.693906886262
$GNHDT,66.243,T*1E
$PYRTM,2024,127.584265210058,18.693912620197
$GNGGA,140120.50,3327.79543716,N,11902.65985678,W,2,13,0.9,8.898,M,-37.758,M,6.4,0131*6A
$PYRTM,2024,127.584265210058,18.693912620197
$GNHDT,66.129,T*11
$PYRTM,2024,127.584271054965,18.693918465104
$GNGGA,140121.00,3327.79548310,N,11902.65975391,W,2,13,0.9,8.954,M,-37.758,M,7.0,0131*6E
$PYRTM,2024,127.584271054965,18.693918465104
$GNHDT,66.277,T*19
$PYRTM,2024,127.584276784861,18.693924195000
$GNGGA,140121.50,3327.79552865,N,11902.65963166,W,2,13,0.9,9.000,M,-37.758,M,7.4,0131*69
$PYRTM,2024,127.584276784861,18.693924195000
$GNHDT,66.576,T*1F
$PYRTM,2024,127.584282624294,18.693930034433
$GNGGA,140122.00,3327.79556931,N,11902.65949616,W,2,13,0.9,9.045,M,-37.758,M,7.0,0131*66
$PYRTM,2024,127.584282624294,18.693930034433
$GNHDT,66.711,T*1C
$PYRTM,2024,127.584288357037,18.693935767176
$GNGGA,140122.50,3327.79561299,N,11902.65935586,W,2,13,0.9,9.121,M,-37.758,M,7.4,0131*68
$PYRTM,2024,127.584288357037,18.693935767176
$GNHDT,66.965,T*11
$PYRTM,2024,127.584294201354,18.693941611493
$GNGGA,140123.00,3327.79565941,N,11902.65921621,W,2,13,0.9,9.214,M,-37.758,M,7.0,0131*6C
$PYRTM,2024,127.584294201354,18.693941611493
$GNHDT,67.056,T*19
$PYRTM,2024,127.584299933773,18.693947343912
$GNGGA,140123.50,3327.79572120,N,11902.65908204,W,2,13,0.9,9.346,M,-37.758,M,7.4,0131*6A
$PYRTM,2024,127.584299933773,18.693947343912
$GNHDT,67.121,T*18
$PYRTM,2024,127.584305775683,18.693953185822
$GNGGA,140124.00,3327.79581075,N,11902.65895066,W,2,13,0.9,9.467,M,-37.758,M,4.0,0131*65
$PYRTM,2024,127.584305775683,18.693953185822
$GNHDT,67.279,T*16
$PYRTM,2024,127.584311505903,18.693958916053
$GNGGA,140124.50,3327.79592105,N,11902.65882333,W,2,13,0.9,9.574,M,-37.758,M,4.4,0131*66
$PYRTM,2024,127.584311505903,18.693958916053
$GNHDT,67.072,T*1F
$PYRTM,2024,127.584317346690,18.693964756829
$GNGGA,140125.00,3327.79604066,N,11902.65869539,W,2,13,0.9,9.643,M,-37.758,M,5.0,0131*61
$PYRTM,2024,127.584317346690,18.693964756829
$GNHDT,67.081,T*13
$PYRTM,2024,127.584323080000,18.693970490139
$GNGGA,140125.50,3327.79615175,N,11902.65856591,W,2,13,0.9,9.672,M,-37.758,M,5.4,0131*6F
$PYRTM,2024,127.584323080000,18.693970490139
$GNHDT,67.377,T*19
$PYRTM,2024,127.584328921319,18.693976331458
$GNGGA,140126.00,3327.79624439,N,11902.65842324,W,2,13,0.9,9.647,M,-37.758,M,6.0,0131*6A
$PYRTM,2024,127.584328921319,18.693976331458
$GNHDT,67.485,T*13
$PYRTM,2024,127.584334653426,18.693982063576
$GNGGA,140126.50,3327.79631568,N,11902.65827140,W,2,13,0.9,9.583,M,-37.758,M,6.4,0131*62
$PYRTM,2024,127.584334653426,18.693982063576
$GNHDT,67.713,T*1F
$PYRTM,2024,127.584340501065,18.693987911204
$GNGGA,140127.00,3327.79637065,N,11902.65811081,W,2,13,0.9,9.499,M,-37.758,M,7.0,0131*6E
$PYRTM,2024,127.584340501065,18.693987911204
$GNHDT,67.497,T*10
$PYRTM,2024,127.584346230845,18.693993640995
$GNGGA,140127.50,3327.79642177,N,11902.65794512,W,2,13,0.9,9.386,M,-37.758,M,7.4,0131*6B
$PYRTM,2024,127.584346230845,18.693993640995
$GNHDT,67.612,T*1F
$PYRTM,2024,127.584352070833,18.693999480984
$GNGGA,140128.00,3327.79648861,N,11902.65777932,W,2,13,0.9,9.275,M,-37.758,M,7.0,0131*6F
$PYRTM,2024,127.584352070833,18.693999480984
$GNHDT,67.407,T*19
$PYRTM,2024,127.584357800451,18.694005210590
$GNGGA,140128.50,3327.79657881,N,11902.65762094,W,2,13,0.9,9.162,M,-37.758,M,7.4,0131*6A
$PYRTM,2024,127.584357800451,18.694005210590
$GNHDT,67.359,T*15
$PYRTM,2024,127.584363646829,18.694011056979
$GNGGA,140129.00,3327.79668696,N,11902.65747758,W,2,13,0.9,9.090,M,-37.758,M,7.0,0131*62
$PYRTM,2024,127.584363646829,18.694011056979
$GNHDT,67.277,T*18
$PYRTM,2024,127.584369380000,18.694016790139
$GNGGA,140129.50,3327.79679816,N,11902.65734814,W,2,13,0.9,9.060,M,-37.758,M,7.4,0131*69
$PYRTM,2024,127.584369380000,18.694016790139
$GNHDT,67.351,T*1D
$PYRTM,2024,127.584375219850,18.694022630000
$GNGGA,140130.00,3327.79690097,N,11902.65722401,W,2,13,0.9,9.086,M,-37.758,M,4.0,0131*62
$PYRTM,2024,127.584375219850,18.694022630000
$GNHDT,67.490,T*17
$PYRTM,2024,127.584380949595,18.694028359734
$GNGGA,140130.50,3327.79697713,N,11902.65709594,W,2,13,0.9,9.158,M,-37.758,M,4.4,0131*69
$PYRTM,2024,127.584380949595,18.694028359734
$GNHDT,67.663,T*19
$PYRTM,2024,127.584386792187,18.694034202326
$GNGGA,140131.00,3327.79701144,N,11902.65696407,W,2,13,0.9,9.254,M,-37.758,M,5.0,0131*61
$PYRTM,2024,127.584386792187,18.694034202326
$GNHDT,67.759,T*11
$PYRTM,2024,127.584392523542,18.694039933681
$GNGGA,140131.50,3327.79701339,N,11902.65682189,W,2,13,0.9,9.335,M,-37.758,M,5.4,0131*68
$PYRTM,2024,127.584392523542,18.694039933681
$GNHDT,67.924,T*15
$PYRTM,2024,127.584398365451,18.694045775590
$GNGGA,140132.00,3327.79699183,N,11902.65667099,W,2,13,0.9,9.363,M,-37.758,M,6.0,0131*62
$PYRTM,2024,127.584398365451,18.694045775590
$GNHDT,68.040,T*11
$PYRTM,2024,127.584404096910,18.694051507060
$GNGGA,140132.50,3327.79697414,N,11902.65651133,W,2,13,0.9,9.322,M,-37.758,M,6.4,0131*67
$PYRTM,2024,127.584404096910,18.694051507060
$GNHDT,68.080,T*1D
$PYRTM,2024,127.584409940231,18.694057350370
$GNGGA,140133.00,3327.79698018,N,11902.65634315,W,2,13,0.9,9.208,M,-37.758,M,7.0,0131*6D
$PYRTM,2024,127.584409940231,18.694057350370
$GNHDT,68.124,T*12
$PYRTM,2024,127.584415675451,18.694063085590
$GNGGA,140133.50,3327.79701889,N,11902.65617766,W,2,13,0.9,9.086,M,-37.758,M,7.4,0131*68
$PYRTM,2024,127.584415675451,18.694063085590
$GNHDT,68.057,T*17
$PYRTM,2024,127.584421519433,18.694068929583
$GNGGA,140134.00,3327.79707914,N,11902.65602620,W,2,13,0.9,8.991,M,-37.758,M,7.0,0131*64
$PYRTM,2024,127.584421519433,18.694068929583
$GNHDT,68.137,T*10
$PYRTM,2024,127.584427245729,18.694074655880
$GNGGA,140134.50,3327.79715022,N,11902.65588766,W,2,13,0.9,8.972,M,-37.758,M,7.4,0131*65
$PYRTM,2024,127.584427245729,18.694074655880
$GNHDT,68.364,T*14
$PYRTM,2024,127.584433089456,18.694080499595
$GNGGA,140135.00,3327.79722507,N,11902.65575578,W,2,13,0.9,9.017,M,-37.758,M,7.0,0131*67
$PYRTM,2024,127.584433089456,18.694080499595
$GNHDT,68.574,T*13
$PYRTM,2024,127.584438820116,18.694086230255
$GNGGA,140135.50,3327.79729895,N,11902.65562959,W,2,13,0.9,9.111,M,-37.758,M,7.4,0131*65
$PYRTM,2024,127.584438820116,18.694086230255
$GNHDT,68.703,T*11
$PYRTM,2024,127.584444661400,18.694092071539
$GNGGA,140136.00,3327.79736193,N,11902.65549922,W,2,13,0.9,9.222,M,-37.758,M,4.0,0131*63
$PYRTM,2024,127.584444661400,18.694092071539
$GNHDT,68.742,T*14
$PYRTM,2024,127.584450394259,18.694097804387
$GNGGA,140136.50,3327.79740367,N,11902.65536093,W,2,13,0.9,9.293,M,-37.758,M,4.4,0131*6B
$PYRTM,2024,127.584450394259,18.694097804387
$GNHDT,68.850,T*18
$PYRTM,2024,127.584456244745,18.694103654884
$GNGGA,140137.00,3327.79742152,N,11902.65521044,W,2,13,0.9,9.330,M,-37.758,M,5.0,0131*68
$PYRTM,2024,127.584456244745,18.694103654884
$GNHDT,68.838,T*16
$PYRTM,2024,127.584461968889,18.694109379028
$GNGGA,140137.50,3327.79742789,N,11902.65504791,W,2,13,0.9,9.305,M,-37.758,M,5.4,0131*67
$PYRTM,2024,127.584461968889,18.694109379028
$GNHDT,68.439,T*1B
$PYRTM,2024,127.584467811840,18.694115221991
$GNGGA,140138.00,3327.79742935,N,11902.65488457,W,2,13,0.9,9.227,M,-37.758,M,6.0,0131*6E
$PYRTM,2024,127.584467811840,18.694115221991
$GNHDT,68.487,T*1E
$PYRTM,2024,127.584473544132,18.694120954271
$GNGGA,140138.50,3327.79745360,N,11902.65473887,W,2,13,0.9,9.142,M,-37.758,M,6.4,0131*67
$PYRTM,2024,127.584473544132,18.694120954271
$GNHDT,68.503,T*13
$PYRTM,2024,127.584479385532,18.694126795671
$GNGGA,140139.00,3327.79750681,N,11902.65462464,W,2,13,0.9,9.062,M,-37.758,M,7.0,0131*6A
$PYRTM,2024,127.584479385532,18.694126795671
$GNHDT,68.604,T*17
$PYRTM,2024,127.584485118252,18.694132528391
$GNGGA,140139.50,3327.79757941,N,11902.65453635,W,2,13,0.9,9.020,M,-37.758,M,7.4,0131*6D
$PYRTM,2024,127.584485118252,18.694132528391
$GNHDT,68.581,T*19
$PYRTM,2024,127.584490957546,18.694138367685
$GNGGA,140140.00,3327.79766314,N,11902.65446656,W,2,13,0.9,9.011,M,-37.758,M,7.0,0131*69
$PYRTM,2024,127.584490957546,18.694138367685
$GNHDT,68.479,T*1F
$PYRTM,2024,127.584496690417,18.694144100556
$GNGGA,140140.50,3327.79774583,N,11902.65439313,W,2,13,0.9,9.022,M,-37.758,M,7.4,0131*6F
$PYRTM,2024,127.584496690417,18.694144100556
$GNHDT,68.894,T*10
$PYRTM,2024,127.584502534780,18.694149944919
$GNGGA,140141.00,3327.79783291,N,11902.65431315,W,2,13,0.9,9.066,M,-37.758,M,7.0,0131*6D
$PYRTM,2024,127.584502534780,18.694149944919
$GNHDT,68.968,T*12
$PYRTM,2024,127.584508264039,18.694155674178
$GNGGA,140141.50,3327.79791513,N,11902.65421676,W,2,13,0.9,9.104,M,-37.758,M,7.4,0131*66
$PYRTM,2024,127.584508264039,18.694155674178
$GNHDT,68.947,T*1F
$PYRTM,2024,127.584514108160,18.694161518299
$GNGGA,140142.00,3327.79798410,N,11902.65409267,W,2,13,0.9,9.133,M,-37.758,M,4.0,0131*66
$PYRTM,2024,127.584514108160,18.694161518299
$GNHDT,69.033,T*14
$PYRTM,2024,127.584519839664,18.694167249815
$GNGGA,140142.50,3327.79803524,N,11902.65394091,W,2,13,0.9,9.145,M,-37.758,M,4.4,0131*65
$PYRTM,2024,127.584519839664,18.694167249815
$GNHDT,69.475,T*12
$PYRTM,2024,127.584525682720,18.694173092859
$GNGGA,140143.00,3327.79806581,N,11902.65375335,W,2,13,0.9,9.178,M,-37.758,M,5.0,0131*62
$PYRTM,2024,127.584525682720,18.694173092859
$GNHDT,69.488,T*10
$PYRTM,2024,127.584531413461,18.694178823600
$GNGGA,140143.50,3327.79809374,N,11902.65354431,W,2,13,0.9,9.224,M,-37.758,M,5.4,0131*6A
$PYRTM,2024,127.584531413461,18.694178823600
$GNHDT,69.398,T*16
$PYRTM,2024,127.584537256343,18.694184666481
$GNGGA,140144.00,3327.79814405,N,11902.65333100,W,2,13,0.9,9.312,M,-37.758,M,6.0,0131*60
$PYRTM,2024,127.584537256343,18.694184666481
$GNHDT,69.147,T*16
$PYRTM,2024,127.584542985475,18.694190395613
$GNGGA,140144.50,3327.79822759,N,11902.65313775,W,2,13,0.9,9.445,M,-37.758,M,6.4,0131*6D
$PYRTM,2024,127.584542985475,18.694190395613
$GNHDT,69.122,T*15
$PYRTM,2024,127.584548827697,18.694196237836
$GNGGA,140145.00,3327.79833924,N,11902.65297577,W,2,13,0.9,9.585,M,-37.758,M,7.0,0131*68
$PYRTM,2024,127.584548827697,18.694196237836
$GNHDT,69.225,T*11
$PYRTM,2024,127.584554565359,18.694201975498
$GNGGA,140145.50,3327.79847050,N,11902.65285414,W,2,13,0.9,9.680,M,-37.758,M,7.4,0131*61
$PYRTM,2024,127.584554565359,18.694201975498
$GNHDT,69.317,T*11
$PYRTM,2024,127.584560402361,18.694207812512
$GNGGA,140146.00,3327.79860187,N,11902.65275624,W,2,13,0.9,9.682,M,-37.758,M,7.0,0131*61
$PYRTM,2024,127.584560402361,18.694207812512
$GNHDT,69.291,T*1E
$PYRTM,2024,127.584566134977,18.694213545116
$GNGGA,140146.50,3327.79870766,N,11902.65266575,W,2,13,0.9,9.570,M,-37.758,M,7.4,0131*63
$PYRTM,2024,127.584566134977,18.694213545116
$GNHDT,69.342,T*11
$PYRTM,2024,127.584571976887,18.694219387025
$GNGGA,140147.00,3327.79877168,N,11902.65256072,W,2,13,0.9,9.350,M,-37.758,M,7.0,0131*69
$PYRTM,2024,127.584571976887,18.694219387025
$GNHDT,69.234,T*11
$PYRTM,2024,127.584577708808,18.694225118947
$GNGGA,140147.50,3327.79879067,N,11902.65243723,W,2,13,0.9,9.080,M,-37.758,M,7.4,0131*61
$PYRTM,2024,127.584577708808,18.694225118947
$GNHDT,69.257,T*14
$PYRTM,2024,127.584583559178,18.694230969317
$GNGGA,140148.00,3327.79876883,N,11902.65230296,W,2,13,0.9,8.820,M,-37.758,M,4.0,0131*6D
$PYRTM,2024,127.584583559178,18.694230969317
$GNHDT,69.674,T*11
$PYRTM,2024,127.584589283715,18.694236693866
$GNGGA,140148.50,3327.79874251,N,11902.65217723,W,2,13,0.9,8.640,M,-37.758,M,4.4,0131*6D
$PYRTM,2024,127.584589283715,18.694236693866
$GNHDT,69.670,T*15
$PYRTM,2024,127.584595123981,18.694242534120
$GNGGA,140149.00,3327.79873638,N,11902.65205728,W,2,13,0.9,8.588,M,-37.758,M,5.0,0131*6F
$PYRTM,2024,127.584595123981,18.694242534120
$GNHDT,69.695,T*1E
$PYRTM,2024,127.584600857546,18.694248267697
$GNGGA,140149.50,3327.79877401,N,11902.65194304,W,2,13,0.9,8.642,M,-37.758,M,5.4,0131*66
$PYRTM,2024,127.584600857546,18.694248267697
$GNHDT,69.857,T*1E
$PYRTM,2024,127.584606701887,18.694254112025
$GNGGA,140150.00,3327.79885421,N,11902.65182022,W,2,13,0.9,8.825,M,-37.758,M,6.0,0131*6C
$PYRTM,2024,127.584606701887,18.694254112025
$GNHDT,69.752,T*14
$PYRTM,2024,127.584612430000,18.694259840150
$GNGGA,140150.50,3327.79895052,N,11902.65168047,W,2,13,0.9,9.072,M,-37.758,M,6.4,0131*60
$PYRTM,2024,127.584612430000,18.694259840150
$GNHDT,69.905,T*18
$PYRTM,2024,127.584618283009,18.694265693148
$GNGGA,140151.00,3327.79904036,N,11902.65152363,W,2,13,0.9,9.379,M,-37.758,M,7.0,0131*6E
$PYRTM,2024,127.584618283009,18.694265693148
$GNHDT,69.760,T*15
$PYRTM,2024,127.584624007975,18.694271418113
$GNGGA,140151.50,3327.79911140,N,11902.65134943,W,2,13,0.9,9.638,M,-37.758,M,7.4,0131*63
$PYRTM,2024,127.584624007975,18.694271418113
$GNHDT,69.752,T*14
$PYRTM,2024,127.584629848461,18.694277258600
$GNGGA,140152.00,3327.79916728,N,11902.65116514,W,2,13,0.9,9.822,M,-37.758,M,7.0,0131*65
$PYRTM,2024,127.584629848461,18.694277258600
$GNHDT,69.765,T*10
$PYRTM,2024,127.584635578044,18.694282988183
$GNGGA,140152.50,3327.79921301,N,11902.65097137,W,2,13,0.9,9.864,M,-37.758,M,7.4,0131*60
$PYRTM,2024,127.584635578044,18.694282988183
$GNHDT,69.868,T*12
$PYRTM,2024,127.584641420926,18.694288831088
$GNGGA,140153.00,3327.79925167,N,11902.65077960,W,2,13,0.9,9.761,M,-37.758,M,7.0,0131*68
$PYRTM,2024,127.584641420926,18.694288831088
$GNHDT,69.950,T*18
$PYRTM,2024,127.584647155116,18.694294565255
$GNGGA,140153.50,3327.79928886,N,11902.65059408,W,2,13,0.9,9.541,M,-37.758,M,7.4,0131*6D
$PYRTM,2024,127.584647155116,18.694294565255
$GNHDT,69.892,T*17
$PYRTM,2024,127.584652996771,18.694300406910
$GNGGA,140154.00,3327.79931820,N,11902.65042173,W,2,13,0.9,9.250,M,-37.758,M,4.0,0131*68
$PYRTM,2024,127.584652996771,18.694300406910
$GNHDT,69.882,T*16
$PYRTM,2024,127.584658727222,18.694306137361
$GNGGA,140154.50,3327.79934042,N,11902.65026775,W,2,13,0.9,8.960,M,-37.758,M,4.4,0131*6B
$PYRTM,2024,127.584658727222,18.694306137361
$GNHDT,69.738,T*18
$PYRTM,2024,127.584664570532,18.694311980671
$GNGGA,140155.00,3327.79935685,N,11902.65014577,W,2,13,0.9,8.724,M,-37.758,M,5.0,0131*69
$PYRTM,2024,127.584664570532,18.694311980671
$GNHDT,69.755,T*13
$PYRTM,2024,127.584670300069,18.694317710208
$GNGGA,140155.50,3327.79936919,N,11902.65005540,W,2,13,0.9,8.613,M,-37.758,M,5.4,0131*60
$PYRTM,2024,127.584670300069,18.694317710208
$GNHDT,69.604,T*16
$PYRTM,2024,127.584676143079,18.694323553218
$GNGGA,140156.00,3327.79937971,N,11902.64997795,W,2,13,0.9,8.642,M,-37.758,M,6.0,0131*63
$PYRTM,2024,127.584676143079,18.694323553218
$GNHDT,69.757,T*11
$PYRTM,2024,127.584681874502,18.694329284641
$GNGGA,140156.50,3327.79938441,N,11902.64994508,W,2,13,0.9,8.781,M,-37.758,M,6.4,0131*68
$PYRTM,2024,127.584681874502,18.694329284641
$GNHDT,69.999,T*1D
$PYRTM,2024,127.584687717280,18.694335127419
$GNGGA,140157.00,3327.79941349,N,11902.64989914,W,2,13,0.9,8.949,M,-37.758,M,7.0,0131*6F
$PYRTM,2024,127.584687717280,18.694335127419
$GNHDT,70.077,T*1C
$PYRTM,2024,127.584693451250,18.694340861400
$GNGGA,140157.50,3327.79945961,N,11902.64983522,W,2,13,0.9,9.100,M,-37.758,M,7.4,0131*6D
$PYRTM,2024,127.584693451250,18.694340861400
$GNHDT,70.286,T*10
$PYRTM,2024,127.584699291782,18.694346701921
$GNGGA,140158.00,3327.79951369,N,11902.64975573,W,2,13,0.9,9.203,M,-37.758,M,7.0,0131*69
$PYRTM,2024,127.584699291782,18.694346701921
$GNHDT,70.296,T*11
$PYRTM,2024,127.584705024074,18.694352434225
$GNGGA,140158.50,3327.79957490,N,11902.64964240,W,2,13,0.9,9.245,M,-37.758,M,7.4,0131*6A
$PYRTM,2024,127.584705024074,18.694352434225
$GNHDT,70.423,T*19
$PYRTM,2024,127.584710866898,18.694358277037
$GNGGA,140159.00,3327.79962349,N,11902.64951406,W,2,13,0.9,9.254,M,-37.758,M,7.0,0131*6D
$PYRTM,2024,127.584710866898,18.694358277037
$GNHDT,70.385,T*12
$PYRTM,2024,127.584716597882,18.694364008021
$GNGGA,140159.50,3327.79966549,N,11902.64937172,W,2,13,0.9,9.263,M,-37.758,M,7.4,0131*6C
$PYRTM,2024,127.584716597882,18.694364008021
$GNHDT,70.285,T*13
$PYRTM,2024,127.584722439421,18.694369849560
$GNGGA,140200.00,3327.79970036,N,11902.64921722,W,2,13,0.9,9.259,M,-37.758,M,4.0,0131*66
$PYRTM,2024,127.584722439421,18.694369849560
$GNHDT,70.364,T*1D
$PYRTM,2024,127.584728174213,18.694375584352
$GNGGA,140200.50,3327.79973302,N,11902.64906256,W,2,13,0.9,9.297,M,-37.758,M,4.4,0131*61
$PYRTM,2024,127.584728174213,18.694375584352
$GNHDT,70.366,T*1F
$PYRTM,2024,127.584734015833,18.694381425972
$GNGGA,140201.00,3327.79976755,N,11902.64892484,W,2,13,0.9,9.385,M,-37.758,M,5.0,0131*64
$PYRTM,2024,127.584734015833,18.694381425972
$GNHDT,70.433,T*18
$PYRTM,2024,127.584739746343,18.694387156481
$GNGGA,140201.50,3327.79981731,N,11902.64879299,W,2,13,0.9,9.474,M,-37.758,M,5.4,0131*69
$PYRTM,2024,127.584739746343,18.694387156481
$GNHDT,70.649,T*17
$PYRTM,2024,127.584745591111,18.694393001250
$GNGGA,140202.00,3327.79989105,N,11902.64866377,W,2,13,0.9,9.557,M,-37.758,M,6.0,0131*6E
$PYRTM,2024,127.584745591111,18.694393001250
$GNHDT,70.638,T*11
$PYRTM,2024,127.584751321771,18.694398731910
$GNGGA,140202.50,3327.79998468,N,11902.64853633,W,2,13,0.9,9.587,M,-37.758,M,6.4,0131*6F
$PYRTM,2024,127.584751321771,18.694398731910
$GNHDT,70.651,T*1E
$PYRTM,2024,127.584757162998,18.694404573148
$GNGGA,140203.00,3327.80009772,N,11902.64841027,W,2,13,0.9,9.566,M,-37.758,M,7.0,0131*6E
$PYRTM,2024,127.584757162998,18.694404573148
$GNHDT,70.429,T*13
$PYRTM,2024,127.584762895289,18.694410305428
$GNGGA,140203.50,3327.80021044,N,11902.64829637,W,2,13,0.9,9.498,M,-37.758,M,7.4,0131*6E
$PYRTM,2024,127.584762895289,18.694410305428
$GNHDT,70.423,T*19
$PYRTM,2024,127.584768735579,18.694416145718
$GNGGA,140204.00,3327.80030660,N,11902.64819352,W,2,13,0.9,9.403,M,-37.758,M,7.0,0131*6F
$PYRTM,2024,127.584768735579,18.694416145718
$GNHDT,70.434,T*1F
$PYRTM,2024,127.584774468299,18.694421878449
$GNGGA,140204.50,3327.80036771,N,11902.64810494,W,2,13,0.9,9.316,M,-37.758,M,7.4,0131*6E
$PYRTM,2024,127.584774468299,18.694421878449
$GNHDT,70.323,T*1E
$PYRTM,2024,127.584780310220,18.694427720359
$GNGGA,140205.00,3327.80039925,N,11902.64801121,W,2,13,0.9,9.227,M,-37.758,M,7.0,0131*66
$PYRTM,2024,127.584780310220,18.694427720359
$GNHDT,70.340,T*1B
$PYRTM,2024,127.584786043252,18.694433453391
$GNGGA,140205.50,3327.80040406,N,11902.64791247,W,2,13,0.9,9.153,M,-37.758,M,7.4,0131*60
$PYRTM,2024,127.584786043252,18.694433453391
$GNHDT,70.639,T*10
$PYRTM,2024,127.584791886829,18.694439296968
$GNGGA,140206.00,3327.80040791,N,11902.64778357,W,2,13,0.9,9.069,M,-37.758,M,4.0,0131*63
$PYRTM,2024,127.584791886829,18.694439296968
$GNHDT,70.651,T*1E
$PYRTM,2024,127.584797617454,18.694445027604
$GNGGA,140206.50,3327.80041586,N,11902.64763708,W,2,13,0.9,9.004,M,-37.758,M,4.4,0131*68
$PYRTM,2024,127.584797617454,18.694445027604
$GNHDT,70.687,T*15
$PYRTM,2024,127.584803463437,18.694450873576
$GNGGA,140207.00,3327.80043911,N,11902.64748714,W,2,13,0.9,9.003,M,-37.758,M,5.0,0131*6A
$PYRTM,2024,127.584803463437,18.694450873576
$GNHDT,70.557,T*1B
$PYRTM,2024,127.584809191470,18.694456601609
$GNGGA,140207.50,3327.80047655,N,11902.64734483,W,2,13,0.9,9.069,M,-37.758,M,5.4,0131*6A
$PYRTM,2024,127.584809191470,18.694456601609
$GNHDT,70.440,T*1C
$PYRTM,2024,127.584815033657,18.694462443796
$GNGGA,140208.00,3327.80053167,N,11902.64721812,W,2,13,0.9,9.226,M,-37.758,M,6.0,0131*6D
$PYRTM,2024,127.584815033657,18.694462443796
$GNHDT,70.383,T*14
$PYRTM,2024,127.584820770127,18.694468180278
$GNGGA,140208.50,3327.80060263,N,11902.64711476,W,2,13,0.9,9.425,M,-37.758,M,6.4,0131*63
$PYRTM,2024,127.584820770127,18.694468180278
$GNHDT,70.519,T*11
$PYRTM,2024,127.584826609537,18.694474019676
$GNGGA,140209.00,3327.80068591,N,11902.64703325,W,2,13,0.9,9.615,M,-37.758,M,7.0,0131*63
$PYRTM,2024,127.584826609537,18.694474019676
$GNHDT,70.597,T*17
$PYRTM,2024,127.584832340567,18.694479750706
$GNGGA,140209.50,3327.80076498,N,11902.64695817,W,2,13,0.9,9.717,M,-37.758,M,7.4,0131*62
$PYRTM,2024,127.584832340567,18.694479750706
$GNHDT,70.781,T*12
$PYRTM,2024,127.584838180023,18.694485590162
$GNGGA,140210.00,3327.80081915,N,11902.64687110,W,2,13,0.9,9.694,M,-37.758,M,7.0,0131*6C
$PYRTM,2024,127.584838180023,18.694485590162
$GNHDT,70.874,T*17
$PYRTM,2024,127.584843922384,18.694491332535
$GNGGA,140210.50,3327.80082789,N,11902.64675946,W,2,13,0.9,9.549,M,-37.758,M,7.4,0131*60
$PYRTM,2024,127.584843922384,18.694491332535
$GNHDT,70.936,T*10
$PYRTM,2024,127.584849757928,18.694497168067
$GNGGA,140211.00,3327.80078789,N,11902.64662294,W,2,13,0.9,9.305,M,-37.758,M,7.0,0131*69
$PYRTM,2024,127.584849757928,18.694497168067
$GNHDT,71.052,T*1A
$PYRTM,2024,127.584855487153,18.694502897292
$GNGGA,140211.50,3327.80073181,N,11902.64647958,W,2,13,0.9,9.030,M,-37.758,M,7.4,0131*64
$PYRTM,2024,127.584855487153,18.694502897292
$GNHDT,71.015,T*19
$PYRTM,2024,127.584861334167,18.694508744306
$GNGGA,140212.00,3327.80068462,N,11902.64634798,W,2,13,0.9,8.768,M,-37.758,M,4.0,0131*6A
$PYRTM,2024,127.584861334167,18.694508744306
$GNHDT,70.820,T*16
$PYRTM,2024,127.584867063056,18.694514473194
$GNGGA,140212.50,3327.80067138,N,11902.64625169,W,2,13,0.9,8.613,M,-37.758,M,4.4,0131*6B
$PYRTM,2024,127.584867063056,18.694514473194
$GNHDT,70.675,T*18
$PYRTM,2024,127.584872911053,18.694520321192
$GNGGA,140213.00,3327.80070212,N,11902.64617402,W,2,13,0.9,8.585,M,-37.758,M,5.0,0131*62
$PYRTM,2024,127.584872911053,18.694520321192
$GNHDT,70.606,T*1C
$PYRTM,2024,127.584878636701,18.694526046840
$GNGGA,140213.50,3327.80075749,N,11902.64614212,W,2,13,0.9,8.700,M,-37.758,M,5.4,0131*66
$PYRTM,2024,127.584878636701,18.694526046840
$GNHDT,70.769,T*14
$PYRTM,2024,127.584884477812,18.694531887963
$GNGGA,140214.00,3327.80084676,N,11902.64611576,W,2,13,0.9,8.908,M,-37.758,M,6.0,0131*66
$PYRTM,2024,127.584884477812,18.694531887963
$GNHDT,70.703,T*18
$PYRTM,2024,127.584890210382,18.694537620521
$GNGGA,140214.50,3327.80093847,N,11902.64608690,W,2,13,0.9,9.118,M,-37.758,M,6.4,0131*66
$PYRTM,2024,127.584890210382,18.694537620521
$GNHDT,70.917,T*13
$PYRTM,2024,127.584896053600,18.694543463738
$GNGGA,140215.00,3327.80102312,N,11902.64605141,W,2,13,0.9,9.323,M,-37.758,M,7.0,0131*69
$PYRTM,2024,127.584896053600,18.694543463738
$GNHDT,71.100,T*1C
$PYRTM,2024,127.584901783183,18.694549193322
$GNGGA,140215.50,3327.80107799,N,11902.64599879,W,2,13,0.9,9.469,M,-37.758,M,7.4,0131*67
$PYRTM,2024,127.584901783183,18.694549193322
$GNHDT,71.068,T*13
$PYRTM,2024,127.584907626563,18.694555036701
$GNGGA,140216.00,3327.80110418,N,11902.64591056,W,2,13,0.9,9.569,M,-37.758,M,7.0,0131*65
$PYRTM,2024,127.584907626563,18.694555036701
$GNHDT,71.131,T*1E
$PYRTM,2024,127.584913360231,18.694560770370
$GNGGA,140216.50,3327.80109356,N,11902.64582039,W,2,13,0.9,9.570,M,-37.758,M,7.4,0131*62
$PYRTM,2024,127.584913360231,18.694560770370
$GNHDT,71.410,T*18
$PYRTM,2024,127.584919199016,18.694566609155
$GNGGA,140217.00,3327.80106853,N,11902.64569125,W,2,13,0.9,9.512,M,-37.758,M,7.0,0131*6E
$PYRTM,2024,127.584919199016,18.694566609155
$GNHDT,71.372,T*1B
$PYRTM,2024,127.584924931852,18.694572342002
$GNGGA,140217.50,3327.80104987,N,11902.64555539,W,2,13,0.9,9.410,M,-37.758,M,7.4,0131*60
$PYRTM,2024,127.584924931852,18.694572342002
$GNHDT,71.258,T*12
$PYRTM,2024,127.584930775995,18.694578186134
$GNGGA,140218.00,3327.80105481,N,11902.64541947,W,2,13,0.9,9.314,M,-37.758,M,4.0,0131*64
$PYRTM,2024,127.584930775995,18.694578186134
$GNHDT,71.225,T*18
$PYRTM,2024,127.584936509051,18.694583919190
$GNGGA,140218.50,3327.80109566,N,11902.64530603,W,2,13,0.9,9.239,M,-37.758,M,4.4,0131*66
$PYRTM,2024,127.584936509051,18.694583919190
$GNHDT,71.080,T*15
$PYRTM,2024,127.584942351678,18.694589761817
$GNGGA,140219.00,3327.80117895,N,11902.64522347,W,2,13,0.9,9.202,M,-37.758,M,5.0,0131*67
$PYRTM,2024,127.584942351678,18.694589761817
$GNHDT,71.100,T*1C
$PYRTM,2024,127.584948080625,18.694595490764
$GNGGA,140219.50,3327.80129164,N,11902.64517460,W,2,13,0.9,9.199,M,-37.758,M,5.4,0131*69
$PYRTM,2024,127.584948080625,18.694595490764
$GNHDT,71.205,T*1A
$PYRTM,2024,127.584953927824,18.694601337975
$GNGGA,140220.00,3327.80141323,N,11902.64513951,W,2,13,0.9,9.207,M,-37.758,M,6.0,0131*61
$PYRTM,2024,127.584953927824,18.694601337975
$GNHDT,71.068,T*13
$PYRTM,2024,127.584959653449,18.694607063588
$GNGGA,140220.50,3327.80151645,N,11902.64510232,W,2,13,0.9,9.170,M,-37.758,M,6.4,0131*6A
$PYRTM,2024,127.584959653449,18.694607063588
$GNHDT,71.091,T*15
$PYRTM,2024,127.584965500903,18.694612911042
$GNGGA,140221.00,3327.80158530,N,11902.64503945,W,2,13,0.9,9.099,M,-37.758,M,7.0,0131*6C
$PYRTM,2024,127.584965500903,18.694612911042
$GNHDT,71.027,T*18
$PYRTM,2024,127.584971228704,18.694618638843
$GNGGA,140221.50,3327.80158536,N,11902.64497460,W,2,13,0.9,9.004,M,-37.758,M,7.4,0131*69
$PYRTM,2024,127.584971228704,18.694618638843
$GNHDT,70.886,T*1A
$PYRTM,2024,127.584977069016,18.694624479155
$GNGGA,140222.00,3327.80153959,N,11902.64490575,W,2,13,0.9,8.888,M,-37.758,M,7.0,0131*6A
$PYRTM,2024,127.584977069016,18.694624479155
$GNHDT,70.802,T*16
$PYRTM,2024,127.584982804155,18.694630214306
$GNGGA,140222.50,3327.80148992,N,11902.64486508,W,2,13,0.9,8.801,M,-37.758,M,7.4,0131*6A
$PYRTM,2024,127.584982804155,18.694630214306
$GNHDT,70.725,T*1C
$PYRTM,2024,127.584988644155,18.694636054294
$GNGGA,140223.00,3327.80145441,N,11902.64483905,W,2,13,0.9,8.737,M,-37.758,M,7.0,0131*6A
$PYRTM,2024,127.584988644155,18.694636054294
$GNHDT,70.999,T*15
$PYRTM,2024,127.584994381609,18.694641791748
$GNGGA,140223.50,3327.80146205,N,11902.64482652,W,2,13,0.9,8.760,M,-37.758,M,7.4,0131*60
$PYRTM,2024,127.584994381609,18.694641791748
$GNHDT,71.087,T*12
$PYRTM,2024,127.585000218646,18.694647628796
$GNGGA,140224.00,3327.80150964,N,11902.64480488,W,2,13,0.9,8.852,M,-37.758,M,4.0,0131*67
$PYRTM,2024,127.585000218646,18.694647628796
$GNHDT,71.197,T*12
$PYRTM,2024,127.585005949456,18.694653359595
$GNGGA,140224.50,3327.80156270,N,11902.64476926,W,2,13,0.9,8.967,M,-37.758,M,4.4,0131*69
$PYRTM,2024,127.585005949456,18.694653359595
$GNHDT,71.515,T*1C
$PYRTM,2024,127.585011794074,18.694659204213
$GNGGA,140225.00,3327.80162451,N,11902.64471080,W,2,13,0.9,9.138,M,-37.758,M,5.0,0131*6B
$PYRTM,2024,127.585011794074,18.694659204213
$GNHDT,71.582,T*12
$PYRTM,2024,127.585017528056,18.694664938194
$GNGGA,140225.50,3327.80167986,N,11902.64463891,W,2,13,0.9,9.334,M,-37.758,M,5.4,0131*6D
$PYRTM,2024,127.585017528056,18.694664938194
$GNHDT,71.645,T*1A
$PYRTM,2024,127.585023368785,18.694670778924
$GNGGA,140226.00,3327.80171461,N,11902.64456307,W,2,13,0.9,9.523,M,-37.758,M,6.0,0131*6D
$PYRTM,2024,127.585023368785,18.694670778924
$GNHDT,71.574,T*1B
$PYRTM,2024,127.585029101146,18.694676511285
$GNGGA,140226.50,3327.80172156,N,11902.64448921,W,2,13,0.9,9.662,M,-37.758,M,6.4,0131*69
$PYRTM,2024,127.585029101146,18.694676511285
$GNHDT,71.572,T*1D
$PYRTM,2024,127.585034945509,18.694682355648
$GNGGA,140227.00,3327.80170689,N,11902.64440670,W,2,13,0.9,9.749,M,-37.758,M,7.0,0131*64
$PYRTM,2024,127.585034945509,18.694682355648
$GNHDT,71.651,T*1F
$PYRTM,2024,127.585040673021,18.694688083160
$GNGGA,140227.50,3327.80170291,N,11902.64433720,W,2,13,0.9,9.731,M,-37.758,M,7.4,0131*67
$PYRTM,2024,127.585040673021,18.694688083160
$GNHDT,71.437,T*1D
$PYRTM,2024,127.585046515347,18.694693925486
$GNGGA,140228.00,3327.80172232,N,11902.64428011,W,2,13,0.9,9.604,M,-37.758,M,7.0,0131*6A
$PYRTM,2024,127.585046515347,18.694693925486
$GNHDT,71.468,T*17
$PYRTM,2024,127.585052246204,18.694699656343
$GNGGA,140228.50,3327.80176185,N,11902.64422421,W,2,13,0.9,9.422,M,-37.758,M,7.4,0131*6B
$PYRTM,2024,127.585052246204,18.694699656343
$GNHDT,71.226,T*1B
$PYRTM,2024,127.585058088310,18.694705498449
$GNGGA,140229.00,3327.80180758,N,11902.64417876,W,2,13,0.9,9.212,M,-37.758,M,7.0,0131*69
$PYRTM,2024,127.585058088310,18.694705498449
$GNHDT,71.259,T*13
$PYRTM,2024,127.585063822234,18.694711232373
$GNGGA,140229.50,3327.80184265,N,11902.64414266,W,2,13,0.9,9.038,M,-37.758,M,7.4,0131*65
$PYRTM,2024,127.585063822234,18.694711232373
$GNHDT,71.275,T*1D
