$PYRTM,2024,126.416669462697,17.526316872836
$GNGGA,100000.00,3407.92444938,N,12013.21095881,W,2,11,0.9,6.078,M,-37.037,M,4.0,0131*64
$PYRTM,2024,126.416669462697,17.526316872836
$GNHDT,95.261,T*12
$PYRTM,2024,126.416675758981,17.526323169120
$GNGGA,100000.50,3407.92430827,N,12013.20964105,W,2,11,0.9,5.970,M,-37.037,M,4.4,0131*68
$PYRTM,2024,126.416675758981,17.526323169120
$GNHDT,95.468,T*1D
$PYRTM,2024,126.416681546042,17.526328956181
$GNGGA,100001.00,3407.92415203,N,12013.20830347,W,2,11,0.9,5.919,M,-37.037,M,5.0,0131*69
$PYRTM,2024,126.416681546042,17.526328956181
$GNHDT,95.997,T*10
$PYRTM,2024,126.416684735810,17.526332145949
$GNGGA,100001.50,3407.92399202,N,12013.20694821,W,2,11,0.9,5.901,M,-37.037,M,5.4,0131*68
$PYRTM,2024,126.416684735810,17.526332145949
$GNHDT,96.375,T*15
$PYRTM,2024,126.416691314572,17.526338724711
$GNGGA,100002.00,3407.92383199,N,12013.20555776,W,2,11,0.9,5.928,M,-37.037,M,6.0,0131*6B
$PYRTM,2024,126.416691314572,17.526338724711
$GNHDT,96.542,T*17
$PYRTM,2024,126.416697610833,17.526345020972
$GNGGA,100002.50,3407.92369141,N,12013.20412464,W,2,11,0.9,5.996,M,-37.037,M,6.4,0131*6C
$PYRTM,2024,126.416697610833,17.526345020972
$GNHDT,96.966,T*1D
$PYRTM,2024,126.416703397870,17.526350808009
$GNGGA,100003.00,3407.92356732,N,12013.20263945,W,2,11,0.9,6.089,M,-37.037,M,7.0,0131*69
$PYRTM,2024,126.416703397870,17.526350808009
$GNHDT,96.881,T*15
$PYRTM,2024,126.416709694155,17.526357104294
$GNGGA,100003.50,3407.92346758,N,12013.20111717,W,2,11,0.9,6.189,M,-37.037,M,7.4,0131*6B
$PYRTM,2024,126.416709694155,17.526357104294
$GNHDT,96.424,T*16
$PYRTM,2024,126.416714323866,17.526361734005
$GNGGA,100004.00,3407.92337868,N,12013.19955861,W,2,11,0.9,6.301,M,-37.037,M,7.0,0131*69
$PYRTM,2024,126.416714323866,17.526361734005
$GNHDT,95.995,T*12
$PYRTM,2024,126.416720620150,17.526368030289
$GNGGA,100004.50,3407.92327728,N,12013.19799661,W,2,11,0.9,6.409,M,-37.037,M,7.4,0131*6D
$PYRTM,2024,126.416720620150,17.526368030289
$GNHDT,95.676,T*10
$PYRTM,2024,126.416726407141,17.526373817280
$GNGGA,100005.00,3407.92314822,N,12013.19644765,W,2,11,0.9,6.482,M,-37.037,M,7.0,0131*6F
$PYRTM,2024,126.416726407141,17.526373817280
$GNHDT,95.334,T*13
$PYRTM,2024,126.416732749757,17.526380159896
$GNGGA,100005.50,3407.92299482,N,12013.19491685,W,2,11,0.9,6.533,M,-37.037,M,7.4,0131*62
$PYRTM,2024,126.416732749757,17.526380159896
$GNHDT,94.962,T*1B
$PYRTM,2024,126.416738536840,17.526385946979
$GNGGA,100006.00,3407.92281541,N,12013.19341850,W,2,11,0.9,6.528,M,-37.037,M,4.0,0131*62
$PYRTM,2024,126.416738536840,17.526385946979
$GNHDT,94.704,T*15
$PYRTM,2024,126.416743675741,17.526391085880
$GNGGA,100006.50,3407.92262154,N,12013.19195859,W,2,11,0.9,6.467,M,-37.037,M,4.4,0131*66
$PYRTM,2024,126.416743675741,17.526391085880
$GNHDT,94.686,T*1E
$PYRTM,2024,126.416749462708,17.526396872847
$GNGGA,100007.00,3407.92242672,N,12013.19053286,W,2,11,0.9,6.360,M,-37.037,M,5.0,0131*65
$PYRTM,2024,126.416749462708,17.526396872847
$GNHDT,94.415,T*16
$PYRTM,2024,126.416754180000,17.526401590139
$GNGGA,100007.50,3407.92224555,N,12013.18914116,W,2,11,0.9,6.206,M,-37.037,M,5.4,0131*62
$PYRTM,2024,126.416754180000,17.526401590139
$GNHDT,94.490,T*1B
$PYRTM,2024,126.416760573808,17.526407983947
$GNGGA,100008.00,3407.92209253,N,12013.18779361,W,2,11,0.9,6.043,M,-37.037,M,6.0,0131*65
$PYRTM,2024,126.416760573808,17.526407983947
$GNHDT,94.570,T*14
$PYRTM,2024,126.416766360856,17.526413770995
$GNGGA,100008.50,3407.92196492,N,12013.18649366,W,2,11,0.9,5.914,M,-37.037,M,6.4,0131*67
$PYRTM,2024,126.416766360856,17.526413770995
$GNHDT,94.856,T*1D
$PYRTM,2024,126.416771916389,17.526419326528
$GNGGA,100009.00,3407.92186148,N,12013.18524144,W,2,11,0.9,5.829,M,-37.037,M,7.0,0131*60
$PYRTM,2024,126.416771916389,17.526419326528
$GNHDT,95.409,T*1A
$PYRTM,2024,126.416778259005,17.526425669144
$GNGGA,100009.50,3407.92177585,N,12013.18401285,W,2,11,0.9,5.786,M,-37.037,M,7.4,0131*68
$PYRTM,2024,126.416778259005,17.526425669144
$GNHDT,95.877,T*1F
$PYRTM,2024,126.416782888669,17.526430298808
$GNGGA,100010.00,3407.92169015,N,12013.18280124,W,2,11,0.9,5.775,M,-37.037,M,7.0,0131*69
$PYRTM,2024,126.416782888669,17.526430298808
$GNHDT,96.417,T*16
$PYRTM,2024,126.416789184942,17.526436595081
$GNGGA,100010.50,3407.92159091,N,12013.18157907,W,2,11,0.9,5.782,M,-37.037,M,7.4,0131*6F
$PYRTM,2024,126.416789184942,17.526436595081
$GNHDT,96.829,T*17
$PYRTM,2024,126.416794972037,17.526442382176
$GNGGA,100011.00,3407.92146607,N,12013.18033407,W,2,11,0.9,5.781,M,-37.037,M,7.0,0131*65
$PYRTM,2024,126.416794972037,17.526442382176
$GNHDT,97.289,T*16
$PYRTM,2024,126.416800476042,17.526447886169
$GNGGA,100011.50,3407.92131234,N,12013.17905968,W,2,11,0.9,5.779,M,-37.037,M,7.4,0131*60
$PYRTM,2024,126.416800476042,17.526447886169
$GNHDT,97.872,T*18
$PYRTM,2024,126.416806221956,17.526453632095
$GNGGA,100012.00,3407.92113262,N,12013.17772950,W,2,11,0.9,5.800,M,-37.037,M,4.0,0131*66
$PYRTM,2024,126.416806221956,17.526453632095
$GNHDT,98.267,T*19
$PYRTM,2024,126.416812518264,17.526459928403
$GNGGA,100012.50,3407.92096263,N,12013.17634137,W,2,11,0.9,5.846,M,-37.037,M,4.4,0131*62
$PYRTM,2024,126.416812518264,17.526459928403
$GNHDT,98.025,T*1D
$PYRTM,2024,126.416818305278,17.526465715417
$GNGGA,100013.00,3407.92080439,N,12013.17488863,W,2,11,0.9,5.926,M,-37.037,M,5.0,0131*67
$PYRTM,2024,126.416818305278,17.526465715417
$GNHDT,97.669,T*1C
$PYRTM,2024,126.416824647870,17.526472058009
$GNGGA,100013.50,3407.92067283,N,12013.17338839,W,2,11,0.9,6.069,M,-37.037,M,5.4,0131*6A
$PYRTM,2024,126.416824647870,17.526472058009
$GNHDT,97.428,T*1B
$PYRTM,2024,126.416829277581,17.526476687720
$GNGGA,100014.00,3407.92056592,N,12013.17184618,W,2,11,0.9,6.260,M,-37.037,M,6.0,0131*69
$PYRTM,2024,126.416829277581,17.526476687720
$GNHDT,96.841,T*19
$PYRTM,2024,126.416835573854,17.526482983993
$GNGGA,100014.50,3407.92046371,N,12013.17028087,W,2,11,0.9,6.476,M,-37.037,M,6.4,0131*64
$PYRTM,2024,126.416835573854,17.526482983993
$GNHDT,96.728,T*19
$PYRTM,2024,126.416841360833,17.526488770972
$GNGGA,100015.00,3407.92032944,N,12013.16869160,W,2,11,0.9,6.651,M,-37.037,M,7.0,0131*69
$PYRTM,2024,126.416841360833,17.526488770972
$GNHDT,96.265,T*15
$PYRTM,2024,126.416847657153,17.526495067292
$GNGGA,100015.50,3407.92014795,N,12013.16709972,W,2,11,0.9,6.768,M,-37.037,M,7.4,0131*67
$PYRTM,2024,126.416847657153,17.526495067292
$GNHDT,95.862,T*1B
$PYRTM,2024,126.416852286782,17.526499696921
$GNGGA,100016.00,3407.91991495,N,12013.16551125,W,2,11,0.9,6.847,M,-37.037,M,7.0,0131*66
$PYRTM,2024,126.416852286782,17.526499696921
$GNHDT,95.574,T*11
$PYRTM,2024,126.416858583056,17.526505993194
$GNGGA,100016.50,3407.91965376,N,12013.16395810,W,2,11,0.9,6.866,M,-37.037,M,7.4,0131*64
$PYRTM,2024,126.416858583056,17.526505993194
$GNHDT,95.187,T*19
$PYRTM,2024,126.416864185046,17.526511595185
$GNGGA,100017.00,3407.91937533,N,12013.16244543,W,2,11,0.9,6.852,M,-37.037,M,7.0,0131*65
$PYRTM,2024,126.416864185046,17.526511595185
$GNHDT,95.131,T*14
$PYRTM,2024,126.416870712674,17.526518122813
$GNGGA,100017.50,3407.91911529,N,12013.16097704,W,2,11,0.9,6.803,M,-37.037,M,7.4,0131*62
$PYRTM,2024,126.416870712674,17.526518122813
$GNHDT,95.163,T*13
$PYRTM,2024,126.416875342315,17.526522752454
$GNGGA,100018.00,3407.91888885,N,12013.15954590,W,2,11,0.9,6.699,M,-37.037,M,4.0,0131*62
$PYRTM,2024,126.416875342315,17.526522752454
$GNHDT,95.173,T*12
$PYRTM,2024,126.416881638576,17.526529048715
$GNGGA,100018.50,3407.91871808,N,12013.15814273,W,2,11,0.9,6.583,M,-37.037,M,4.4,0131*67
$PYRTM,2024,126.416881638576,17.526529048715
$GNHDT,95.182,T*1C
$PYRTM,2024,126.416887425602,17.526534835741
$GNGGA,100019.00,3407.91859691,N,12013.15677782,W,2,11,0.9,6.432,M,-37.037,M,5.0,0131*69
$PYRTM,2024,126.416887425602,17.526534835741
$GNHDT,95.270,T*12
$PYRTM,2024,126.416894879398,17.526542289537
$GNGGA,100019.50,3407.91850087,N,12013.15544790,W,2,11,0.9,6.291,M,-37.037,M,5.4,0131*6F
$PYRTM,2024,126.416894879398,17.526542289537
$GNHDT,95.401,T*12
$PYRTM,2024,126.416899508970,17.526546919109
$GNGGA,100020.00,3407.91840516,N,12013.15415591,W,2,11,0.9,6.170,M,-37.037,M,6.0,0131*61
$PYRTM,2024,126.416899508970,17.526546919109
$GNHDT,95.569,T*1D
$PYRTM,2024,126.416905805255,17.526553215394
$GNGGA,100020.50,3407.91828392,N,12013.15289160,W,2,11,0.9,6.042,M,-37.037,M,6.4,0131*6D
$PYRTM,2024,126.416905805255,17.526553215394
$GNHDT,95.685,T*1C
$PYRTM,2024,126.416911592292,17.526559002431
$GNGGA,100021.00,3407.91813466,N,12013.15163693,W,2,11,0.9,5.915,M,-37.037,M,7.0,0131*6C
$PYRTM,2024,126.416911592292,17.526559002431
$GNHDT,95.818,T*16
$PYRTM,2024,126.416917888796,17.526565298935
$GNGGA,100021.50,3407.91797160,N,12013.15037359,W,2,11,0.9,5.803,M,-37.037,M,7.4,0131*68
$PYRTM,2024,126.416917888796,17.526565298935
$GNHDT,95.940,T*1A
$PYRTM,2024,126.416923675625,17.526571085764
$GNGGA,100022.00,3407.91779941,N,12013.14910750,W,2,11,0.9,5.694,M,-37.037,M,7.0,0131*61
$PYRTM,2024,126.416923675625,17.526571085764
$GNHDT,96.231,T*14
$PYRTM,2024,126.416928860891,17.526576271030
$GNGGA,100022.50,3407.91763919,N,12013.14781885,W,2,11,0.9,5.634,M,-37.037,M,7.4,0131*6D
$PYRTM,2024,126.416928860891,17.526576271030
$GNHDT,96.489,T*11
$PYRTM,2024,126.416934647882,17.526582058021
$GNGGA,100023.00,3407.91750904,N,12013.14648735,W,2,11,0.9,5.627,M,-37.037,M,7.0,0131*63
$PYRTM,2024,126.416934647882,17.526582058021
$GNHDT,96.745,T*12
$PYRTM,2024,126.416939365613,17.526586775752
$GNGGA,100023.50,3407.91741895,N,12013.14511012,W,2,11,0.9,5.681,M,-37.037,M,7.4,0131*6A
$PYRTM,2024,126.416939365613,17.526586775752
$GNHDT,96.700,T*13
$PYRTM,2024,126.416947842373,17.526595252512
$GNGGA,100024.00,3407.91734960,N,12013.14369605,W,2,11,0.9,5.796,M,-37.037,M,4.0,0131*68
$PYRTM,2024,126.416947842373,17.526595252512
$GNHDT,96.805,T*19
$PYRTM,2024,126.416954184931,17.526601595069
$GNGGA,100024.50,3407.91728851,N,12013.14224850,W,2,11,0.9,5.961,M,-37.037,M,4.4,0131*67
$PYRTM,2024,126.416954184931,17.526601595069
$GNHDT,96.592,T*1A
$PYRTM,2024,126.416958814688,17.526606224826
$GNGGA,100025.00,3407.91721680,N,12013.14076838,W,2,11,0.9,6.122,M,-37.036,M,5.0,0131*6B
$PYRTM,2024,126.416958814688,17.526606224826
$GNHDT,96.444,T*10
$PYRTM,2024,126.416962795995,17.526610206134
$GNGGA,100025.50,3407.91712515,N,12013.13926301,W,2,11,0.9,6.243,M,-37.036,M,5.4,0131*6B
$PYRTM,2024,126.416962795995,17.526610206134
$GNHDT,96.276,T*17
$PYRTM,2024,126.416974879398,17.526622289537
$GNGGA,100026.00,3407.91699396,N,12013.13773712,W,2,11,0.9,6.293,M,-37.036,M,6.0,0131*60
$PYRTM,2024,126.416974879398,17.526622289537
$GNHDT,96.173,T*11
$PYRTM,2024,126.416974879769,17.526622289907
$GNGGA,100026.50,3407.91682726,N,12013.13620964,W,2,11,0.9,6.297,M,-37.036,M,6.4,0131*68
$PYRTM,2024,126.416974879769,17.526622289907
$GNHDT,95.735,T*16
$PYRTM,2024,126.416979509016,17.526626919155
$GNGGA,100027.00,3407.91663704,N,12013.13469003,W,2,11,0.9,6.283,M,-37.036,M,7.0,0131*64
$PYRTM,2024,126.416979509016,17.526626919155
$GNHDT,95.448,T*1F
$PYRTM,2024,126.416985805336,17.526633215475
$GNGGA,100027.50,3407.91644267,N,12013.13318997,W,2,11,0.9,6.282,M,-37.036,M,7.4,0131*64
$PYRTM,2024,126.416985805336,17.526633215475
$GNHDT,94.869,T*11
$PYRTM,2024,126.416991592326,17.526639002465
$GNGGA,100028.00,3407.91624726,N,12013.13171874,W,2,11,0.9,6.321,M,-37.036,M,7.0,0131*65
$PYRTM,2024,126.416991592326,17.526639002465
$GNHDT,94.604,T*14
$PYRTM,2024,126.416997934954,17.526645345093
$GNGGA,100028.50,3407.91607402,N,12013.13027536,W,2,11,0.9,6.388,M,-37.036,M,7.4,0131*6A
$PYRTM,2024,126.416997934954,17.526645345093
$GNHDT,94.630,T*13
$PYRTM,2024,126.417002564537,17.526649974676
$GNGGA,100029.00,3407.91592846,N,12013.12885424,W,2,11,0.9,6.440,M,-37.036,M,7.0,0131*69
$PYRTM,2024,126.417002564537,17.526649974676
$GNHDT,94.336,T*10
$PYRTM,2024,126.417008809236,17.526656219375
$GNGGA,100029.50,3407.91580336,N,12013.12744786,W,2,11,0.9,6.453,M,-37.036,M,7.4,0131*6C
$PYRTM,2024,126.417008809236,17.526656219375
$GNHDT,94.247,T*17
$PYRTM,2024,126.417017008970,17.526664419109
$GNGGA,100030.00,3407.91569089,N,12013.12606763,W,2,11,0.9,6.439,M,-37.036,M,4.0,0131*66
$PYRTM,2024,126.417017008970,17.526664419109
$GNHDT,94.319,T*1D
$PYRTM,2024,126.417023351574,17.526670761713
$GNGGA,100030.50,3407.91557064,N,12013.12471901,W,2,11,0.9,6.394,M,-37.036,M,4.4,0131*61
$PYRTM,2024,126.417023351574,17.526670761713
$GNHDT,94.540,T*17
$PYRTM,2024,126.417027981192,17.526675391331
$GNGGA,100031.00,3407.91543377,N,12013.12340521,W,2,11,0.9,6.321,M,-37.036,M,5.0,0131*61
$PYRTM,2024,126.417027981192,17.526675391331
$GNHDT,95.082,T*1D
$PYRTM,2024,126.417034277650,17.526681687789
$GNGGA,100031.50,3407.91527889,N,12013.12211859,W,2,11,0.9,6.230,M,-37.036,M,5.4,0131*6E
$PYRTM,2024,126.417034277650,17.526681687789
$GNHDT,95.611,T*11
$PYRTM,2024,126.417040064560,17.526687474699
$GNGGA,100032.00,3407.91511374,N,12013.12084867,W,2,11,0.9,6.116,M,-37.036,M,6.0,0131*67
$PYRTM,2024,126.417040064560,17.526687474699
$GNHDT,95.950,T*1B
$PYRTM,2024,126.417046407130,17.526693817269
$GNGGA,100032.50,3407.91495001,N,12013.11957659,W,2,11,0.9,6.015,M,-37.036,M,6.4,0131*6F
$PYRTM,2024,126.417046407130,17.526693817269
$GNHDT,96.155,T*15
$PYRTM,2024,126.417052194225,17.526699604363
$GNGGA,100033.00,3407.91478689,N,12013.11829493,W,2,11,0.9,5.911,M,-37.036,M,7.0,0131*69
$PYRTM,2024,126.417052194225,17.526699604363
$GNHDT,96.595,T*1D
$PYRTM,2024,126.417057333067,17.526704743206
$GNGGA,100033.50,3407.91463678,N,12013.11699285,W,2,11,0.9,5.849,M,-37.036,M,7.4,0131*64
$PYRTM,2024,126.417057333067,17.526704743206
$GNHDT,97.306,T*10
$PYRTM,2024,126.417063120116,17.526710530255
$GNGGA,100034.00,3407.91450632,N,12013.11564403,W,2,11,0.9,5.830,M,-37.036,M,7.0,0131*6B
$PYRTM,2024,126.417063120116,17.526710530255
$GNHDT,97.436,T*14
$PYRTM,2024,126.417067101667,17.526714511806
$GNGGA,100034.50,3407.91439945,N,12013.11425323,W,2,11,0.9,5.843,M,-37.036,M,7.4,0131*6F
$PYRTM,2024,126.417067101667,17.526714511806
$GNHDT,97.445,T*10
$PYRTM,2024,126.417072888634,17.526720298773
$GNGGA,100035.00,3407.91430891,N,12013.11281337,W,2,11,0.9,5.907,M,-37.036,M,7.0,0131*62
$PYRTM,2024,126.417072888634,17.526720298773
$GNHDT,97.473,T*15
$PYRTM,2024,126.417077658056,17.526725068194
$GNGGA,100035.50,3407.91422246,N,12013.11133526,W,2,11,0.9,6.015,M,-37.036,M,7.4,0131*65
$PYRTM,2024,126.417077658056,17.526725068194
$GNHDT,97.233,T*17
$PYRTM,2024,126.417083814537,17.526731224676
$GNGGA,100036.00,3407.91412009,N,12013.10982826,W,2,11,0.9,6.150,M,-37.036,M,4.0,0131*60
$PYRTM,2024,126.417083814537,17.526731224676
$GNHDT,96.821,T*1F
$PYRTM,2024,126.417090110799,17.526737520937
$GNGGA,100036.50,3407.91397782,N,12013.10830862,W,2,11,0.9,6.306,M,-37.036,M,4.4,0131*66
$PYRTM,2024,126.417090110799,17.526737520937
$GNHDT,96.413,T*12
$PYRTM,2024,126.417095897986,17.526743308125
$GNGGA,100037.00,3407.91377433,N,12013.10678109,W,2,11,0.9,6.447,M,-37.036,M,5.0,0131*64
$PYRTM,2024,126.417095897986,17.526743308125
$GNHDT,96.127,T*10
$PYRTM,2024,126.417102240509,17.526749650648
$GNGGA,100037.50,3407.91353827,N,12013.10524829,W,2,11,0.9,6.545,M,-37.036,M,5.4,0131*68
$PYRTM,2024,126.417102240509,17.526749650648
$GNHDT,95.759,T*1C
$PYRTM,2024,126.417106870162,17.526754280301
$GNGGA,100038.00,3407.91329762,N,12013.10369837,W,2,11,0.9,6.552,M,-37.036,M,6.0,0131*60
$PYRTM,2024,126.417106870162,17.526754280301
$GNHDT,95.199,T*16
$PYRTM,2024,126.417113212650,17.526760622789
$GNGGA,100038.50,3407.91308902,N,12013.10214529,W,2,11,0.9,6.511,M,-37.036,M,6.4,0131*64
$PYRTM,2024,126.417113212650,17.526760622789
$GNHDT,94.630,T*13
$PYRTM,2024,126.417118999757,17.526766409896
$GNGGA,100039.00,3407.91290860,N,12013.10062257,W,2,11,0.9,6.463,M,-37.036,M,7.0,0131*69
$PYRTM,2024,126.417118999757,17.526766409896
$GNHDT,94.091,T*1E
$PYRTM,2024,126.417125296042,17.526772706181
$GNGGA,100039.50,3407.91275841,N,12013.09914782,W,2,11,0.9,6.403,M,-37.036,M,7.4,0131*6B
$PYRTM,2024,126.417125296042,17.526772706181
$GNHDT,93.946,T*1A
$PYRTM,2024,126.417129925660,17.526777335799
$GNGGA,100040.00,3407.91263255,N,12013.09771492,W,2,11,0.9,6.334,M,-37.036,M,7.0,0131*60
$PYRTM,2024,126.417129925660,17.526777335799
$GNHDT,93.964,T*1A
$PYRTM,2024,126.417136124537,17.526783534676
$GNGGA,100040.50,3407.91251839,N,12013.09631502,W,2,11,0.9,6.249,M,-37.036,M,7.4,0131*66
$PYRTM,2024,126.417136124537,17.526783534676
$GNHDT,94.082,T*1C
$PYRTM,2024,126.417142008993,17.526789419132
$GNGGA,100041.00,3407.91239210,N,12013.09495771,W,2,11,0.9,6.121,M,-37.036,M,7.0,0131*6E
$PYRTM,2024,126.417142008993,17.526789419132
$GNHDT,94.354,T*14
$PYRTM,2024,126.417148351597,17.526795761736
$GNGGA,100041.50,3407.91224312,N,12013.09363350,W,2,11,0.9,5.967,M,-37.036,M,7.4,0131*60
$PYRTM,2024,126.417148351597,17.526795761736
$GNHDT,94.673,T*14
$PYRTM,2024,126.417152981192,17.526800391331
$GNGGA,100042.00,3407.91208015,N,12013.09234852,W,2,11,0.9,5.803,M,-37.036,M,4.0,0131*62
$PYRTM,2024,126.417152981192,17.526800391331
$GNHDT,94.936,T*1A
$PYRTM,2024,126.417159277523,17.526806687662
$GNGGA,100042.50,3407.91192112,N,12013.09109431,W,2,11,0.9,5.675,M,-37.036,M,4.4,0131*6E
$PYRTM,2024,126.417159277523,17.526806687662
$GNHDT,95.152,T*11
$PYRTM,2024,126.417165064572,17.526812474711
$GNGGA,100043.00,3407.91177171,N,12013.08985248,W,2,11,0.9,5.601,M,-37.036,M,5.0,0131*67
$PYRTM,2024,126.417165064572,17.526812474711
$GNHDT,95.497,T*1D
$PYRTM,2024,126.417171407141,17.526818817280
$GNGGA,100043.50,3407.91163791,N,12013.08859525,W,2,11,0.9,5.589,M,-37.036,M,5.4,0131*64
$PYRTM,2024,126.417171407141,17.526818817280
$GNHDT,96.326,T*13
$PYRTM,2024,126.417177194167,17.526824604306
$GNGGA,100044.00,3407.91153232,N,12013.08730639,W,2,11,0.9,5.636,M,-37.036,M,6.0,0131*67
$PYRTM,2024,126.417177194167,17.526824604306
$GNHDT,96.475,T*12
$PYRTM,2024,126.417181823796,17.526829233935
$GNGGA,100044.50,3407.91144677,N,12013.08596985,W,2,11,0.9,5.710,M,-37.036,M,6.4,0131*66
$PYRTM,2024,126.417181823796,17.526829233935
$GNHDT,96.974,T*1E
$PYRTM,2024,126.417188166400,17.526835576528
$GNGGA,100045.00,3407.91137037,N,12013.08457933,W,2,11,0.9,5.805,M,-37.036,M,7.0,0131*6B
$PYRTM,2024,126.417188166400,17.526835576528
$GNHDT,96.961,T*1A
$PYRTM,2024,126.417194462674,17.526841872813
$GNGGA,100045.50,3407.91128960,N,12013.08314700,W,2,11,0.9,5.894,M,-37.036,M,7.4,0131*69
$PYRTM,2024,126.417194462674,17.526841872813
$GNHDT,96.891,T*14
$PYRTM,2024,126.417200249722,17.526847659861
$GNGGA,100046.00,3407.91119776,N,12013.08167516,W,2,11,0.9,6.009,M,-37.036,M,7.0,0131*6C
$PYRTM,2024,126.417200249722,17.526847659861
$GNHDT,96.564,T*13
$PYRTM,2024,126.417204972280,17.526852382419
$GNGGA,100046.50,3407.91108396,N,12013.08016766,W,2,11,0.9,6.140,M,-37.036,M,7.4,0131*69
$PYRTM,2024,126.417204972280,17.526852382419
$GNHDT,96.031,T*16
$PYRTM,2024,126.417212379375,17.526859789514
$GNGGA,100047.00,3407.91094166,N,12013.07862003,W,2,11,0.9,6.305,M,-37.036,M,7.0,0131*63
$PYRTM,2024,126.417212379375,17.526859789514
$GNHDT,95.406,T*15
$PYRTM,2024,126.417218675625,17.526866085764
$GNGGA,100047.50,3407.91077023,N,12013.07705641,W,2,11,0.9,6.461,M,-37.036,M,7.4,0131*64
$PYRTM,2024,126.417218675625,17.526866085764
$GNHDT,95.019,T*1F
$PYRTM,2024,126.417224462708,17.526871872847
$GNGGA,100048.00,3407.91057854,N,12013.07548838,W,2,11,0.9,6.595,M,-37.036,M,4.0,0131*62
$PYRTM,2024,126.417224462708,17.526871872847
$GNHDT,94.566,T*13
$PYRTM,2024,126.417229647859,17.526877057998
$GNGGA,100048.50,3407.91038290,N,12013.07393022,W,2,11,0.9,6.675,M,-37.036,M,4.4,0131*66
$PYRTM,2024,126.417229647859,17.526877057998
$GNHDT,94.411,T*12
$PYRTM,2024,126.417235434931,17.526882845069
$GNGGA,100049.00,3407.91019606,N,12013.07239714,W,2,11,0.9,6.693,M,-37.036,M,5.0,0131*64
$PYRTM,2024,126.417235434931,17.526882845069
$GNHDT,94.619,T*18
$PYRTM,2024,126.417241777477,17.526889187616
$GNGGA,100049.50,3407.91003955,N,12013.07091267,W,2,11,0.9,6.655,M,-37.036,M,5.4,0131*6C
$PYRTM,2024,126.417241777477,17.526889187616
$GNHDT,94.947,T*1C
$PYRTM,2024,126.417248721875,17.526896132014
$GNGGA,100050.00,3407.90990488,N,12013.06947772,W,2,11,0.9,6.540,M,-37.036,M,6.0,0131*6C
$PYRTM,2024,126.417248721875,17.526896132014
$GNHDT,95.410,T*12
$PYRTM,2024,126.417255064549,17.526902474687
$GNGGA,100050.50,3407.90978120,N,12013.06808546,W,2,11,0.9,6.364,M,-37.036,M,6.4,0131*63
$PYRTM,2024,126.417255064549,17.526902474687
$GNHDT,95.814,T*1A
$PYRTM,2024,126.417259694271,17.526907104410
$GNGGA,100051.00,3407.90964852,N,12013.06672889,W,2,11,0.9,6.134,M,-37.036,M,7.0,0131*69
$PYRTM,2024,126.417259694271,17.526907104410
$GNHDT,96.318,T*1E
$PYRTM,2024,126.417266036852,17.526913446991
$GNGGA,100051.50,3407.90949342,N,12013.06539706,W,2,11,0.9,5.919,M,-37.036,M,7.4,0131*6D
$PYRTM,2024,126.417266036852,17.526913446991
$GNHDT,96.787,T*1C
$PYRTM,2024,126.417271823785,17.526919233924
$GNGGA,100052.00,3407.90932116,N,12013.06409189,W,2,11,0.9,5.734,M,-37.036,M,7.0,0131*62
$PYRTM,2024,126.417271823785,17.526919233924
$GNHDT,97.205,T*12
$PYRTM,2024,126.417275014016,17.526922424155
$GNGGA,100052.50,3407.90914978,N,12013.06278443,W,2,11,0.9,5.606,M,-37.036,M,7.4,0131*64
$PYRTM,2024,126.417275014016,17.526922424155
$GNHDT,97.269,T*18
$PYRTM,2024,126.417282518252,17.526929928391
$GNGGA,100053.00,3407.90899864,N,12013.06146938,W,2,11,0.9,5.607,M,-37.036,M,7.0,0131*62
$PYRTM,2024,126.417282518252,17.526929928391
$GNHDT,97.240,T*13
$PYRTM,2024,126.417287703461,17.526935113600
$GNGGA,100053.50,3407.90888643,N,12013.06014710,W,2,11,0.9,5.696,M,-37.036,M,7.4,0131*62
$PYRTM,2024,126.417287703461,17.526935113600
$GNHDT,97.048,T*19
$PYRTM,2024,126.417293490509,17.526940900648
$GNGGA,100054.00,3407.90880442,N,12013.05881237,W,2,11,0.9,5.882,M,-37.036,M,4.0,0131*60
$PYRTM,2024,126.417293490509,17.526940900648
$GNHDT,97.083,T*1E
$PYRTM,2024,126.417299786817,17.526947196956
$GNGGA,100054.50,3407.90873350,N,12013.05745378,W,2,11,0.9,6.082,M,-37.036,M,4.4,0131*6F
$PYRTM,2024,126.417299786817,17.526947196956
$GNHDT,97.121,T*17
$PYRTM,2024,126.417305573843,17.526952983981
$GNGGA,100055.00,3407.90864480,N,12013.05605596,W,2,11,0.9,6.245,M,-37.036,M,5.0,0131*68
$PYRTM,2024,126.417305573843,17.526952983981
$GNHDT,96.934,T*1A
$PYRTM,2024,126.417311870174,17.526959280313
$GNGGA,100055.50,3407.90850953,N,12013.05461448,W,2,11,0.9,6.329,M,-37.036,M,5.4,0131*64
$PYRTM,2024,126.417311870174,17.526959280313
$GNHDT,96.683,T*19
$PYRTM,2024,126.417322842396,17.526970252535
$GNGGA,100056.00,3407.90832375,N,12013.05313799,W,2,11,0.9,6.362,M,-37.036,M,6.0,0131*6D
$PYRTM,2024,126.417322842396,17.526970252535
$GNHDT,96.176,T*14
$PYRTM,2024,126.417322842824,17.526970252963
$GNGGA,100056.50,3407.90810242,N,12013.05164641,W,2,11,0.9,6.371,M,-37.036,M,6.4,0131*6D
$PYRTM,2024,126.417322842824,17.526970252963
$GNHDT,95.840,T*1B
$PYRTM,2024,126.417328629433,17.526976039572
$GNGGA,100057.00,3407.90785698,N,12013.05014857,W,2,11,0.9,6.371,M,-37.036,M,7.0,0131*63
$PYRTM,2024,126.417328629433,17.526976039572
$GNHDT,95.618,T*18
$PYRTM,2024,126.417334925671,17.526982335810
$GNGGA,100057.50,3407.90762124,N,12013.04865973,W,2,11,0.9,6.403,M,-37.036,M,7.4,0131*61
$PYRTM,2024,126.417334925671,17.526982335810
$GNHDT,95.653,T*17
$PYRTM,2024,126.417339786713,17.526987196852
$GNGGA,100058.00,3407.90740419,N,12013.04717872,W,2,11,0.9,6.439,M,-37.036,M,7.0,0131*67
$PYRTM,2024,126.417339786713,17.526987196852
$GNHDT,95.818,T*16
$PYRTM,2024,126.417344457894,17.526991868032
$GNGGA,100058.50,3407.90721603,N,12013.04570259,W,2,11,0.9,6.470,M,-37.036,M,7.4,0131*65
$PYRTM,2024,126.417344457894,17.526991868032
$GNHDT,95.966,T*1E
$PYRTM,2024,126.417351684919,17.526999095058
$GNGGA,100059.00,3407.90705184,N,12013.04424365,W,2,11,0.9,6.474,M,-37.036,M,7.0,0131*61
$PYRTM,2024,126.417351684919,17.526999095058
$GNHDT,96.222,T*16
$PYRTM,2024,126.417357981227,17.527005391366
$GNGGA,100059.50,3407.90691229,N,12013.04280541,W,2,11,0.9,6.443,M,-37.036,M,7.4,0131*64
$PYRTM,2024,126.417357981227,17.527005391366
$GNHDT,96.477,T*10
$PYRTM,2024,126.417362610891,17.527010021030
$GNGGA,100100.00,3407.90675712,N,12013.04139406,W,2,11,0.9,6.359,M,-37.036,M,4.0,0131*63
$PYRTM,2024,126.417362610891,17.527010021030
$GNHDT,96.760,T*15
$PYRTM,2024,126.417368953449,17.527016363588
$GNGGA,100100.50,3407.90661305,N,12013.04000461,W,2,11,0.9,6.237,M,-37.036,M,4.4,0131*66
$PYRTM,2024,126.417368953449,17.527016363588
$GNHDT,96.856,T*1F
$PYRTM,2024,126.417374740556,17.527022150694
$GNGGA,100101.00,3407.90647378,N,12013.03863793,W,2,11,0.9,6.082,M,-37.036,M,5.0,0131*61
$PYRTM,2024,126.417374740556,17.527022150694
$GNHDT,97.045,T*14
$PYRTM,2024,126.417381037002,17.527028447141
$GNGGA,100101.50,3407.90633296,N,12013.03728560,W,2,11,0.9,5.896,M,-37.036,M,5.4,0131*62
$PYRTM,2024,126.417381037002,17.527028447141
$GNHDT,97.594,T*1D
$PYRTM,2024,126.417385666516,17.527033076655
$GNGGA,100102.00,3407.90619081,N,12013.03594135,W,2,11,0.9,5.700,M,-37.036,M,6.0,0131*6E
$PYRTM,2024,126.417385666516,17.527033076655
$GNHDT,98.035,T*1C
$PYRTM,2024,126.417391962720,17.527039372859
$GNGGA,100102.50,3407.90605683,N,12013.03459456,W,2,11,0.9,5.536,M,-37.036,M,6.4,0131*61
$PYRTM,2024,126.417391962720,17.527039372859
$GNHDT,97.970,T*1B
$PYRTM,2024,126.417397749734,17.527045159873
$GNGGA,100103.00,3407.90594055,N,12013.03325479,W,2,11,0.9,5.455,M,-37.036,M,7.0,0131*63
$PYRTM,2024,126.417397749734,17.527045159873
$GNHDT,98.181,T*12
$PYRTM,2024,126.417404092292,17.527051502431
$GNGGA,100103.50,3407.90583733,N,12013.03191307,W,2,11,0.9,5.482,M,-37.036,M,7.4,0131*6A
$PYRTM,2024,126.417404092292,17.527051502431
$GNHDT,97.992,T*17
$PYRTM,2024,126.417408721921,17.527056132060
$GNGGA,100104.00,3407.90573952,N,12013.03056925,W,2,11,0.9,5.607,M,-37.036,M,7.0,0131*65
$PYRTM,2024,126.417408721921,17.527056132060
$GNHDT,97.860,T*1B
$PYRTM,2024,126.417413902049,17.527061312188
$GNGGA,100104.50,3407.90564740,N,12013.02921060,W,2,11,0.9,5.788,M,-37.036,M,7.4,0131*69
$PYRTM,2024,126.417413902049,17.527061312188
$GNHDT,97.532,T*11
$PYRTM,2024,126.417420805301,17.527068215440
$GNGGA,100105.00,3407.90557151,N,12013.02782421,W,2,11,0.9,6.004,M,-37.036,M,7.0,0131*69
$PYRTM,2024,126.417420805301,17.527068215440
$GNHDT,97.059,T*19
$PYRTM,2024,126.417427101609,17.527074511748
$GNGGA,100105.50,3407.90547215,N,12013.02641247,W,2,11,0.9,6.156,M,-37.036,M,7.4,0131*64
$PYRTM,2024,126.417427101609,17.527074511748
$GNHDT,96.639,T*18
$PYRTM,2024,126.417432888657,17.527080298796
$GNGGA,100106.00,3407.90533765,N,12013.02497672,W,2,11,0.9,6.269,M,-37.036,M,4.0,0131*60
$PYRTM,2024,126.417432888657,17.527080298796
$GNHDT,96.420,T*12
$PYRTM,2024,126.417439184954,17.527086595093
$GNGGA,100106.50,3407.90516007,N,12013.02352166,W,2,11,0.9,6.340,M,-37.036,M,4.4,0131*63
$PYRTM,2024,126.417439184954,17.527086595093
$GNHDT,96.024,T*12
$PYRTM,2024,126.417443814606,17.527091224745
$GNGGA,100107.00,3407.90494880,N,12013.02204905,W,2,11,0.9,6.383,M,-37.036,M,5.0,0131*6E
$PYRTM,2024,126.417443814606,17.527091224745
$GNHDT,95.759,T*1C
$PYRTM,2024,126.417450110810,17.527097520949
$GNGGA,100107.50,3407.90472001,N,12013.02056811,W,2,11,0.9,6.399,M,-37.036,M,5.4,0131*6C
$PYRTM,2024,126.417450110810,17.527097520949
$GNHDT,95.550,T*17
$PYRTM,2024,126.417455897836,17.527103307975
$GNGGA,100108.00,3407.90447556,N,12013.01908597,W,2,11,0.9,6.438,M,-37.036,M,6.0,0131*6E
$PYRTM,2024,126.417455897836,17.527103307975
$GNHDT,95.438,T*18
$PYRTM,2024,126.417462240463,17.527109650602
$GNGGA,100108.50,3407.90423091,N,12013.01762273,W,2,11,0.9,6.478,M,-37.036,M,6.4,0131*68
$PYRTM,2024,126.417462240463,17.527109650602
$GNHDT,95.782,T*1A
$PYRTM,2024,126.417466870162,17.527114280301
$GNGGA,100109.00,3407.90400139,N,12013.01616985,W,2,11,0.9,6.524,M,-37.036,M,7.0,0131*63
$PYRTM,2024,126.417466870162,17.527114280301
$GNHDT,95.893,T*15
$PYRTM,2024,126.417473166354,17.527120576493
$GNGGA,100109.50,3407.90380100,N,12013.01472415,W,2,11,0.9,6.573,M,-37.036,M,7.4,0131*61
$PYRTM,2024,126.417473166354,17.527120576493
$GNHDT,96.570,T*16
$PYRTM,2024,126.417478953426,17.527126363565
$GNGGA,100110.00,3407.90362379,N,12013.01327972,W,2,11,0.9,6.582,M,-37.036,M,7.0,0131*6D
$PYRTM,2024,126.417478953426,17.527126363565
$GNHDT,97.196,T*1B
$PYRTM,2024,126.417485295984,17.527132706123
$GNGGA,100110.50,3407.90347087,N,12013.01183307,W,2,11,0.9,6.546,M,-37.036,M,7.4,0131*65
$PYRTM,2024,126.417485295984,17.527132706123
$GNHDT,97.473,T*15
$PYRTM,2024,126.417489925683,17.527137335822
$GNGGA,100111.00,3407.90332194,N,12013.01039036,W,2,11,0.9,6.442,M,-37.036,M,7.0,0131*60
$PYRTM,2024,126.417489925683,17.527137335822
$GNHDT,97.993,T*16
$PYRTM,2024,126.417496222037,17.527143632176
$GNGGA,100111.50,3407.90316853,N,12013.00895650,W,2,11,0.9,6.319,M,-37.036,M,7.4,0131*65
$PYRTM,2024,126.417496222037,17.527143632176
$GNHDT,98.253,T*1E
$PYRTM,2024,126.417507147859,17.527154557998
$GNGGA,100112.00,3407.90301032,N,12013.00753446,W,2,11,0.9,6.168,M,-37.036,M,4.0,0131*69
$PYRTM,2024,126.417507147859,17.527154557998
$GNHDT,98.393,T*13
$PYRTM,2024,126.417507148218,17.527154558345
$GNGGA,100112.50,3407.90284882,N,12013.00611662,W,2,11,0.9,6.047,M,-37.036,M,4.4,0131*68
$PYRTM,2024,126.417507148218,17.527154558345
$GNHDT,98.577,T*1F
$PYRTM,2024,126.417511777500,17.527159187639
$GNGGA,100113.00,3407.90269084,N,12013.00470741,W,2,11,0.9,5.961,M,-37.036,M,5.0,0131*6F
$PYRTM,2024,126.417511777500,17.527159187639
$GNHDT,98.368,T*17
$PYRTM,2024,126.417518120116,17.527165530243
$GNGGA,100113.50,3407.90253339,N,12013.00330495,W,2,11,0.9,5.909,M,-37.036,M,5.4,0131*65
$PYRTM,2024,126.417518120116,17.527165530243
$GNHDT,98.163,T*1E
$PYRTM,2024,126.417523907141,17.527171317280
$GNGGA,100114.00,3407.90238207,N,12013.00190529,W,2,11,0.9,5.918,M,-37.036,M,6.0,0131*6F
$PYRTM,2024,126.417523907141,17.527171317280
$GNHDT,97.889,T*1C
$PYRTM,2024,126.417530249722,17.527177659861
$GNGGA,100114.50,3407.90224128,N,12013.00049816,W,2,11,0.9,5.971,M,-37.036,M,6.4,0131*66
$PYRTM,2024,126.417530249722,17.527177659861
$GNHDT,97.604,T*17
$PYRTM,2024,126.417534879502,17.527182289641
$GNGGA,100115.00,3407.90210883,N,12012.99908134,W,2,11,0.9,6.040,M,-37.036,M,7.0,0131*64
$PYRTM,2024,126.417534879502,17.527182289641
$GNHDT,97.262,T*13
$PYRTM,2024,126.417541217211,17.527188627350
$GNGGA,100115.50,3407.90198857,N,12012.99766069,W,2,11,0.9,6.115,M,-37.036,M,7.4,0131*61
$PYRTM,2024,126.417541217211,17.527188627350
$GNHDT,96.829,T*17
$PYRTM,2024,126.417549508947,17.527196919086
$GNGGA,100116.00,3407.90185669,N,12012.99623812,W,2,11,0.9,6.175,M,-37.036,M,7.0,0131*6E
$PYRTM,2024,126.417549508947,17.527196919086
$GNHDT,96.648,T*1E
$PYRTM,2024,126.417555805370,17.527203215509
$GNGGA,100116.50,3407.90169950,N,12012.99481964,W,2,11,0.9,6.237,M,-37.035,M,7.4,0131*64
$PYRTM,2024,126.417555805370,17.527203215509
$GNHDT,96.223,T*17
$PYRTM,2024,126.417560434838,17.527207844977
$GNGGA,100117.00,3407.90150518,N,12012.99341280,W,2,11,0.9,6.266,M,-37.035,M,7.0,0131*60
$PYRTM,2024,126.417560434838,17.527207844977
$GNHDT,95.881,T*16
$PYRTM,2024,126.417566731204,17.527214141343
$GNGGA,100117.50,3407.90128715,N,12012.99201470,W,2,11,0.9,6.286,M,-37.035,M,7.4,0131*63
$PYRTM,2024,126.417566731204,17.527214141343
$GNHDT,95.750,T*15
$PYRTM,2024,126.417578860995,17.527226271134
$GNGGA,100118.00,3407.90106145,N,12012.99062915,W,2,11,0.9,6.291,M,-37.035,M,4.0,0131*6E
$PYRTM,2024,126.417578860995,17.527226271134
$GNHDT,95.805,T*1A
$PYRTM,2024,126.417578861377,17.527226271516
$GNGGA,100118.50,3407.90085659,N,12012.98925743,W,2,11,0.9,6.301,M,-37.035,M,4.4,0131*61
$PYRTM,2024,126.417578861377,17.527226271516
$GNHDT,96.106,T*13
$PYRTM,2024,126.417583490521,17.527230900660
$GNGGA,100119.00,3407.90067780,N,12012.98789585,W,2,11,0.9,6.291,M,-37.035,M,5.0,0131*61
$PYRTM,2024,126.417583490521,17.527230900660
$GNHDT,96.593,T*1B
$PYRTM,2024,126.417589786806,17.527237196944
$GNGGA,100119.50,3407.90052834,N,12012.98654454,W,2,11,0.9,6.291,M,-37.035,M,5.4,0131*6A
$PYRTM,2024,126.417589786806,17.527237196944
$GNHDT,97.031,T*17
$PYRTM,2024,126.417595573808,17.527242983947
$GNGGA,100120.00,3407.90039040,N,12012.98519241,W,2,11,0.9,6.290,M,-37.035,M,6.0,0131*6D
$PYRTM,2024,126.417595573808,17.527242983947
$GNHDT,97.482,T*1B
$PYRTM,2024,126.417601916551,17.527249326690
$GNGGA,100120.50,3407.90024519,N,12012.98383571,W,2,11,0.9,6.259,M,-37.035,M,6.4,0131*6D
$PYRTM,2024,126.417601916551,17.527249326690
$GNHDT,97.909,T*15
$PYRTM,2024,126.417607703438,17.527255113576
$GNGGA,100121.00,3407.90008000,N,12012.98246645,W,2,11,0.9,6.212,M,-37.035,M,7.0,0131*6C
$PYRTM,2024,126.417607703438,17.527255113576
$GNHDT,98.370,T*1E
$PYRTM,2024,126.417610661539,17.527258071678
$GNGGA,100121.50,3407.89990257,N,12012.98108061,W,2,11,0.9,6.135,M,-37.035,M,7.4,0131*62
$PYRTM,2024,126.417610661539,17.527258071678
$GNHDT,98.634,T*1B
$PYRTM,2024,126.417616314618,17.527263724757
$GNGGA,100122.00,3407.89971714,N,12012.97966896,W,2,11,0.9,6.032,M,-37.035,M,7.0,0131*64
$PYRTM,2024,126.417616314618,17.527263724757
$GNHDT,98.907,T*14
$PYRTM,2024,126.417622657257,17.527270067396
$GNGGA,100122.50,3407.89952625,N,12012.97822938,W,2,11,0.9,5.912,M,-37.035,M,7.4,0131*6B
$PYRTM,2024,126.417622657257,17.527270067396
$GNHDT,98.806,T*14
$PYRTM,2024,126.417628444213,17.527275854352
$GNGGA,100123.00,3407.89933221,N,12012.97675459,W,2,11,0.9,5.829,M,-37.035,M,7.0,0131*63
$PYRTM,2024,126.417628444213,17.527275854352
$GNHDT,98.597,T*11
$PYRTM,2024,126.417634740579,17.527282150718
$GNGGA,100123.50,3407.89914819,N,12012.97525064,W,2,11,0.9,5.816,M,-37.035,M,7.4,0131*66
$PYRTM,2024,126.417634740579,17.527282150718
$GNHDT,98.078,T*15
$PYRTM,2024,126.417639370127,17.527286780266
$GNGGA,100124.00,3407.89898321,N,12012.97372104,W,2,11,0.9,5.879,M,-37.035,M,4.0,0131*6C
$PYRTM,2024,126.417639370127,17.527286780266
$GNHDT,97.615,T*17
$PYRTM,2024,126.417645666412,17.527293076551
$GNGGA,100124.50,3407.89884650,N,12012.97218841,W,2,11,0.9,6.036,M,-37.035,M,4.4,0131*66
$PYRTM,2024,126.417645666412,17.527293076551
$GNHDT,97.147,T*17
$PYRTM,2024,126.417651453484,17.527298863623
$GNGGA,100125.00,3407.89872971,N,12012.97066257,W,2,11,0.9,6.256,M,-37.035,M,5.0,0131*60
$PYRTM,2024,126.417651453484,17.527298863623
$GNHDT,96.628,T*18
$PYRTM,2024,126.417656361030,17.527303771169
$GNGGA,100125.50,3407.89861621,N,12012.96914092,W,2,11,0.9,6.495,M,-37.035,M,5.4,0131*66
$PYRTM,2024,126.417656361030,17.527303771169
$GNHDT,95.728,T*1A
$PYRTM,2024,126.417663583021,17.527310993160
$GNGGA,100126.00,3407.89847401,N,12012.96763332,W,2,11,0.9,6.692,M,-37.035,M,6.0,0131*61
$PYRTM,2024,126.417663583021,17.527310993160
$GNHDT,95.163,T*13
$PYRTM,2024,126.417669879317,17.527317289456
$GNGGA,100126.50,3407.89829675,N,12012.96614963,W,2,11,0.9,6.793,M,-37.035,M,6.4,0131*66
$PYRTM,2024,126.417669879317,17.527317289456
$GNHDT,95.134,T*11
$PYRTM,2024,126.417675666377,17.527323076516
$GNGGA,100127.00,3407.89808066,N,12012.96469806,W,2,11,0.9,6.795,M,-37.035,M,7.0,0131*6C
$PYRTM,2024,126.417675666377,17.527323076516
$GNHDT,94.830,T*1D
$PYRTM,2024,126.417679509387,17.527326919525
$GNGGA,100127.50,3407.89783840,N,12012.96329457,W,2,11,0.9,6.716,M,-37.035,M,7.4,0131*6D
$PYRTM,2024,126.417679509387,17.527326919525
$GNHDT,94.805,T*1B
$PYRTM,2024,126.417686638553,17.527334048692
$GNGGA,100128.00,3407.89757573,N,12012.96195100,W,2,11,0.9,6.581,M,-37.035,M,7.0,0131*69
$PYRTM,2024,126.417686638553,17.527334048692
$GNHDT,94.998,T*1E
$PYRTM,2024,126.417692934907,17.527340345046
$GNGGA,100128.50,3407.89731389,N,12012.96065921,W,2,11,0.9,6.408,M,-37.035,M,7.4,0131*6E
$PYRTM,2024,126.417692934907,17.527340345046
$GNHDT,95.591,T*1A
$PYRTM,2024,126.417698721979,17.527346132118
$GNGGA,100129.00,3407.89707180,N,12012.95941809,W,2,11,0.9,6.234,M,-37.035,M,7.0,0131*6E
$PYRTM,2024,126.417698721979,17.527346132118
$GNHDT,96.468,T*1E
$PYRTM,2024,126.417705064630,17.527352474769
$GNGGA,100129.50,3407.89687065,N,12012.95819737,W,2,11,0.9,6.052,M,-37.035,M,7.4,0131*60
$PYRTM,2024,126.417705064630,17.527352474769
$GNHDT,97.423,T*10
$PYRTM,2024,126.417709694167,17.527357104306
$GNGGA,100130.00,3407.89669949,N,12012.95698062,W,2,11,0.9,5.865,M,-37.035,M,4.0,0131*62
$PYRTM,2024,126.417709694167,17.527357104306
$GNHDT,98.171,T*1D
$PYRTM,2024,126.417715990440,17.527363400579
$GNGGA,100130.50,3407.89655380,N,12012.95574376,W,2,11,0.9,5.717,M,-37.035,M,4.4,0131*6E
$PYRTM,2024,126.417715990440,17.527363400579
$GNHDT,99.000,T*1B
$PYRTM,2024,126.417721546065,17.527368956204
$GNGGA,100131.00,3407.89642013,N,12012.95446872,W,2,11,0.9,5.632,M,-37.035,M,5.0,0131*69
$PYRTM,2024,126.417721546065,17.527368956204
$GNHDT,99.669,T*12
$PYRTM,2024,126.417728120162,17.527375530301
$GNGGA,100131.50,3407.89630688,N,12012.95314483,W,2,11,0.9,5.620,M,-37.035,M,5.4,0131*68
$PYRTM,2024,126.417728120162,17.527375530301
$GNHDT,99.314,T*1D
$PYRTM,2024,126.417733907188,17.527381317326
$GNGGA,100132.00,3407.89617421,N,12012.95176254,W,2,11,0.9,5.699,M,-37.035,M,6.0,0131*65
$PYRTM,2024,126.417733907188,17.527381317326
$GNHDT,98.895,T*1E
$PYRTM,2024,126.417739046030,17.527386456169
$GNGGA,100132.50,3407.89604924,N,12012.95033392,W,2,11,0.9,5.883,M,-37.035,M,6.4,0131*60
$PYRTM,2024,126.417739046030,17.527386456169
$GNHDT,98.388,T*19
$PYRTM,2024,126.417744833032,17.527392243171
$GNGGA,100133.00,3407.89595120,N,12012.94885768,W,2,11,0.9,6.125,M,-37.035,M,7.0,0131*65
$PYRTM,2024,126.417744833032,17.527392243171
$GNHDT,97.393,T*1C
$PYRTM,2024,126.417749551030,17.527396961169
$GNGGA,100133.50,3407.89582075,N,12012.94734722,W,2,11,0.9,6.365,M,-37.035,M,7.4,0131*6E
$PYRTM,2024,126.417749551030,17.527396961169
$GNHDT,96.935,T*1B
$PYRTM,2024,126.417756638611,17.527404048750
$GNGGA,100134.00,3407.89563311,N,12012.94579523,W,2,11,0.9,6.540,M,-37.035,M,7.0,0131*6F
$PYRTM,2024,126.417756638611,17.527404048750
$GNHDT,95.965,T*1D
$PYRTM,2024,126.417761777940,17.527409188079
$GNGGA,100134.50,3407.89540999,N,12012.94422232,W,2,11,0.9,6.647,M,-37.035,M,7.4,0131*69
$PYRTM,2024,126.417761777940,17.527409188079
$GNHDT,95.302,T*16
$PYRTM,2024,126.417767888657,17.527415298796
$GNGGA,100135.00,3407.89515694,N,12012.94265485,W,2,11,0.9,6.699,M,-37.035,M,7.0,0131*67
$PYRTM,2024,126.417767888657,17.527415298796
$GNHDT,94.637,T*14
$PYRTM,2024,126.417772749896,17.527420160035
$GNGGA,100135.50,3407.89489702,N,12012.94110286,W,2,11,0.9,6.722,M,-37.035,M,7.4,0131*69
$PYRTM,2024,126.417772749896,17.527420160035
$GNHDT,94.561,T*14
$PYRTM,2024,126.417780018287,17.527427428426
$GNGGA,100136.00,3407.89464736,N,12012.93958131,W,2,11,0.9,6.734,M,-37.035,M,4.0,0131*67
$PYRTM,2024,126.417780018287,17.527427428426
$GNHDT,94.551,T*17
$PYRTM,2024,126.417786314664,17.527433724803
$GNGGA,100136.50,3407.89441603,N,12012.93810054,W,2,11,0.9,6.737,M,-37.035,M,4.4,0131*6A
$PYRTM,2024,126.417786314664,17.527433724803
$GNHDT,94.620,T*12
$PYRTM,2024,126.417790944167,17.527438354306
$GNGGA,100137.00,3407.89421032,N,12012.93666566,W,2,11,0.9,6.720,M,-37.035,M,5.0,0131*64
$PYRTM,2024,126.417790944167,17.527438354306
$GNHDT,95.026,T*13
$PYRTM,2024,126.417797240451,17.527444650590
$GNGGA,100137.50,3407.89403243,N,12012.93528162,W,2,11,0.9,6.683,M,-37.035,M,5.4,0131*60
$PYRTM,2024,126.417797240451,17.527444650590
$GNHDT,95.835,T*19
$PYRTM,2024,126.417803027442,17.527450437581
$GNGGA,100138.00,3407.89387524,N,12012.93395566,W,2,11,0.9,6.599,M,-37.035,M,6.0,0131*68
$PYRTM,2024,126.417803027442,17.527450437581
$GNHDT,96.595,T*1D
$PYRTM,2024,126.417809323819,17.527456733958
$GNGGA,100138.50,3407.89372923,N,12012.93268331,W,2,11,0.9,6.469,M,-37.035,M,6.4,0131*61
$PYRTM,2024,126.417809323819,17.527456733958
$GNHDT,97.828,T*17
$PYRTM,2024,126.417813953403,17.527461363542
$GNGGA,100139.00,3407.89358569,N,12012.93145478,W,2,11,0.9,6.287,M,-37.035,M,7.0,0131*6A
$PYRTM,2024,126.417813953403,17.527461363542
$GNHDT,98.345,T*18
$PYRTM,2024,126.417818994907,17.527466405046
$GNGGA,100139.50,3407.89344447,N,12012.93024767,W,2,11,0.9,6.066,M,-37.035,M,7.4,0131*6D
$PYRTM,2024,126.417818994907,17.527466405046
$GNHDT,98.797,T*13
$PYRTM,2024,126.417826962731,17.527474372870
$GNGGA,100140.00,3407.89329999,N,12012.92904580,W,2,11,0.9,5.809,M,-37.035,M,7.0,0131*64
$PYRTM,2024,126.417826962731,17.527474372870
$GNHDT,99.360,T*1E
$PYRTM,2024,126.417833259039,17.527480669178
$GNGGA,100140.50,3407.89315485,N,12012.92783591,W,2,11,0.9,5.570,M,-37.035,M,7.4,0131*68
$PYRTM,2024,126.417833259039,17.527480669178
$GNHDT,99.155,T*1A
$PYRTM,2024,126.417839046042,17.527486456181
$GNGGA,100141.00,3407.89300315,N,12012.92661495,W,2,11,0.9,5.398,M,-37.035,M,7.0,0131*6A
$PYRTM,2024,126.417839046042,17.527486456181
$GNHDT,98.981,T*1A
$PYRTM,2024,126.417845342407,17.527492752546
$GNGGA,100141.50,3407.89285588,N,12012.92537053,W,2,11,0.9,5.345,M,-37.035,M,7.4,0131*6B
$PYRTM,2024,126.417845342407,17.527492752546
$GNHDT,98.909,T*1A
$PYRTM,2024,126.417849972002,17.527497382141
$GNGGA,100142.00,3407.89272066,N,12012.92408515,W,2,11,0.9,5.424,M,-37.035,M,4.0,0131*6D
$PYRTM,2024,126.417849972002,17.527497382141
$GNHDT,98.538,T*14
$PYRTM,2024,126.417856314549,17.527503724687
$GNGGA,100142.50,3407.89258202,N,12012.92275118,W,2,11,0.9,5.595,M,-37.035,M,4.4,0131*6A
$PYRTM,2024,126.417856314549,17.527503724687
$GNHDT,98.291,T*10
$PYRTM,2024,126.417862101620,17.527509511759
$GNGGA,100143.00,3407.89244708,N,12012.92137064,W,2,11,0.9,5.810,M,-37.035,M,5.0,0131*66
$PYRTM,2024,126.417862101620,17.527509511759
$GNHDT,97.859,T*11
$PYRTM,2024,126.417868397824,17.527515807963
$GNGGA,100143.50,3407.89232588,N,12012.91996460,W,2,11,0.9,6.067,M,-37.035,M,5.4,0131*67
$PYRTM,2024,126.417868397824,17.527515807963
$GNHDT,97.172,T*11
$PYRTM,2024,126.417873027546,17.527520437685
$GNGGA,100144.00,3407.89219486,N,12012.91854234,W,2,11,0.9,6.320,M,-37.035,M,6.0,0131*6C
$PYRTM,2024,126.417873027546,17.527520437685
$GNHDT,97.029,T*1E
$PYRTM,2024,126.417879323854,17.527526733981
$GNGGA,100144.50,3407.89203722,N,12012.91712116,W,2,11,0.9,6.537,M,-37.035,M,6.4,0131*65
$PYRTM,2024,126.417879323854,17.527526733981
$GNHDT,97.581,T*19
$PYRTM,2024,126.417884231273,17.527531641412
$GNGGA,100145.00,3407.89184573,N,12012.91569617,W,2,11,0.9,6.677,M,-37.035,M,7.0,0131*61
$PYRTM,2024,126.417884231273,17.527531641412
$GNHDT,97.724,T*14
$PYRTM,2024,126.417888439456,17.527535849595
$GNGGA,100145.50,3407.89162449,N,12012.91426455,W,2,11,0.9,6.746,M,-37.035,M,7.4,0131*6D
$PYRTM,2024,126.417888439456,17.527535849595
$GNHDT,97.617,T*15
$PYRTM,2024,126.417895203426,17.527542613565
$GNGGA,100146.00,3407.89136401,N,12012.91283281,W,2,11,0.9,6.732,M,-37.035,M,7.0,0131*67
$PYRTM,2024,126.417895203426,17.527542613565
$GNHDT,97.834,T*1A
$PYRTM,2024,126.417901499699,17.527548909838
$GNGGA,100146.50,3407.89110123,N,12012.91140657,W,2,11,0.9,6.648,M,-37.035,M,7.4,0131*68
$PYRTM,2024,126.417901499699,17.527548909838
$GNHDT,98.395,T*15
$PYRTM,2024,126.417906129387,17.527553539525
$GNGGA,100147.00,3407.89084676,N,12012.90998814,W,2,11,0.9,6.513,M,-37.035,M,7.0,0131*6B
$PYRTM,2024,126.417906129387,17.527553539525
$GNHDT,98.510,T*1E
$PYRTM,2024,126.417913583125,17.527560993264
$GNGGA,100147.50,3407.89062907,N,12012.90857696,W,2,11,0.9,6.390,M,-37.035,M,7.4,0131*60
$PYRTM,2024,126.417913583125,17.527560993264
$GNHDT,98.819,T*1A
$PYRTM,2024,126.417918212685,17.527565622824
$GNGGA,100148.00,3407.89044756,N,12012.90717288,W,2,11,0.9,6.296,M,-37.035,M,4.0,0131*64
$PYRTM,2024,126.417918212685,17.527565622824
$GNHDT,98.937,T*17
$PYRTM,2024,126.417924508981,17.527571919120
$GNGGA,100148.50,3407.89029651,N,12012.90577154,W,2,11,0.9,6.266,M,-37.035,M,4.4,0131*61
$PYRTM,2024,126.417924508981,17.527571919120
$GNHDT,98.679,T*12
$PYRTM,2024,126.417930295995,17.527577706134
$GNGGA,100149.00,3407.89017434,N,12012.90437742,W,2,11,0.9,6.302,M,-37.035,M,5.0,0131*6B
$PYRTM,2024,126.417930295995,17.527577706134
$GNHDT,98.287,T*17
$PYRTM,2024,126.417936592326,17.527584002465
$GNGGA,100149.50,3407.89005084,N,12012.90299651,W,2,11,0.9,6.371,M,-37.035,M,5.4,0131*63
$PYRTM,2024,126.417936592326,17.527584002465
$GNHDT,98.108,T*13
$PYRTM,2024,126.417941221910,17.527588632049
$GNGGA,100150.00,3407.88992795,N,12012.90163021,W,2,11,0.9,6.460,M,-37.035,M,6.0,0131*68
$PYRTM,2024,126.417941221910,17.527588632049
$GNHDT,97.782,T*18
$PYRTM,2024,126.417947518241,17.527594928380
$GNGGA,100150.50,3407.88978576,N,12012.90028392,W,2,11,0.9,6.507,M,-37.035,M,6.4,0131*67
$PYRTM,2024,126.417947518241,17.527594928380
$GNHDT,97.551,T*14
$PYRTM,2024,126.417953305313,17.527600715451
$GNGGA,100151.00,3407.88961725,N,12012.89895804,W,2,11,0.9,6.498,M,-37.035,M,7.0,0131*6F
$PYRTM,2024,126.417953305313,17.527600715451
$GNHDT,97.422,T*11
$PYRTM,2024,126.417957883866,17.527605294005
$GNGGA,100151.50,3407.88941677,N,12012.89765349,W,2,11,0.9,6.414,M,-37.035,M,7.4,0131*6C
$PYRTM,2024,126.417957883866,17.527605294005
$GNHDT,97.327,T*13
$PYRTM,2024,126.417965203495,17.527612613634
$GNGGA,100152.00,3407.88919216,N,12012.89637279,W,2,11,0.9,6.282,M,-37.035,M,7.0,0131*6D
$PYRTM,2024,126.417965203495,17.527612613634
$GNHDT,97.547,T*13
$PYRTM,2024,126.417970527581,17.527617937720
$GNGGA,100152.50,3407.88895846,N,12012.89511154,W,2,11,0.9,6.109,M,-37.035,M,7.4,0131*6D
$PYRTM,2024,126.417970527581,17.527617937720
$GNHDT,98.169,T*14
$PYRTM,2024,126.417976175799,17.527623585937
$GNGGA,100153.00,3407.88873026,N,12012.89386786,W,2,11,0.9,5.924,M,-37.035,M,7.0,0131*6E
$PYRTM,2024,126.417976175799,17.527623585937
$GNHDT,98.692,T*17
$PYRTM,2024,126.417982471991,17.527629882130
$GNGGA,100153.50,3407.88852338,N,12012.89263181,W,2,11,0.9,5.762,M,-37.035,M,7.4,0131*67
$PYRTM,2024,126.417982471991,17.527629882130
$GNHDT,99.388,T*18
$PYRTM,2024,126.417988258970,17.527635669109
$GNGGA,100154.00,3407.88834522,N,12012.89138812,W,2,11,0.9,5.642,M,-37.035,M,4.0,0131*62
$PYRTM,2024,126.417988258970,17.527635669109
$GNHDT,100.173,T*2F
$PYRTM,2024,126.417993444167,17.527640854294
$GNGGA,100154.50,3407.88819869,N,12012.89012205,W,2,11,0.9,5.559,M,-37.035,M,4.4,0131*62
$PYRTM,2024,126.417993444167,17.527640854294
$GNHDT,100.803,T*21
$PYRTM,2024,126.417998073808,17.527645483947
$GNGGA,100155.00,3407.88808759,N,12012.88881829,W,2,11,0.9,5.544,M,-37.035,M,5.0,0131*64
$PYRTM,2024,126.417998073808,17.527645483947
$GNHDT,100.856,T*21
$PYRTM,2024,126.418004370035,17.527651780162
$GNGGA,100155.50,3407.88798712,N,12012.88747688,W,2,11,0.9,5.589,M,-37.035,M,5.4,0131*6D
$PYRTM,2024,126.418004370035,17.527651780162
$GNHDT,100.695,T*20
$PYRTM,2024,126.418010157141,17.527657567280
$GNGGA,100156.00,3407.88787875,N,12012.88609312,W,2,11,0.9,5.682,M,-37.035,M,6.0,0131*69
$PYRTM,2024,126.418010157141,17.527657567280
$GNHDT,100.206,T*2E
$PYRTM,2024,126.418016499699,17.527663909838
$GNGGA,100156.50,3407.88776790,N,12012.88467360,W,2,11,0.9,5.838,M,-37.035,M,6.4,0131*62
$PYRTM,2024,126.418016499699,17.527663909838
$GNHDT,99.358,T*15
$PYRTM,2024,126.418021129363,17.527668539502
$GNGGA,100157.00,3407.88765760,N,12012.88322163,W,2,11,0.9,6.030,M,-37.035,M,7.0,0131*6A
$PYRTM,2024,126.418021129363,17.527668539502
$GNHDT,98.480,T*16
$PYRTM,2024,126.418027328750,17.527674738889
$GNGGA,100157.50,3407.88750819,N,12012.88176874,W,2,11,0.9,6.230,M,-37.035,M,7.4,0131*62
$PYRTM,2024,126.418027328750,17.527674738889
$GNHDT,97.575,T*12
$PYRTM,2024,126.418033258993,17.527680669132
$GNGGA,100158.00,3407.88734404,N,12012.88031487,W,2,11,0.9,6.472,M,-37.035,M,7.0,0131*6C
$PYRTM,2024,126.418033258993,17.527680669132
$GNHDT,97.013,T*17
$PYRTM,2024,126.418039555266,17.527686965405
$GNGGA,100158.50,3407.88715966,N,12012.87887713,W,2,11,0.9,6.676,M,-37.035,M,7.4,0131*65
$PYRTM,2024,126.418039555266,17.527686965405
$GNHDT,96.671,T*14
$PYRTM,2024,126.418044184873,17.527691595012
$GNGGA,100159.00,3407.88696618,N,12012.87743910,W,2,11,0.9,6.857,M,-37.035,M,7.0,0131*6E
$PYRTM,2024,126.418044184873,17.527691595012
$GNHDT,96.299,T*16
$PYRTM,2024,126.418050527442,17.527697937581
$GNGGA,100159.50,3407.88676517,N,12012.87601764,W,2,11,0.9,6.940,M,-37.035,M,7.4,0131*60
$PYRTM,2024,126.418050527442,17.527697937581
$GNHDT,95.972,T*1B
$PYRTM,2024,126.418056314606,17.527703724745
$GNGGA,100200.00,3407.88656462,N,12012.87461111,W,2,11,0.9,6.943,M,-37.035,M,4.0,0131*6F
$PYRTM,2024,126.418056314606,17.527703724745
$GNHDT,96.121,T*16
$PYRTM,2024,126.418062610810,17.527710020949
$GNGGA,100200.50,3407.88636182,N,12012.87323400,W,2,11,0.9,6.858,M,-37.035,M,4.4,0131*6C
$PYRTM,2024,126.418062610810,17.527710020949
$GNHDT,96.206,T*10
$PYRTM,2024,126.418067240463,17.527714650590
$GNGGA,100201.00,3407.88614875,N,12012.87188674,W,2,11,0.9,6.727,M,-37.035,M,5.0,0131*69
$PYRTM,2024,126.418067240463,17.527714650590
$GNHDT,96.682,T*18
$PYRTM,2024,126.418073027488,17.527720437627
$GNGGA,100201.50,3407.88592748,N,12012.87056697,W,2,11,0.9,6.581,M,-37.035,M,5.4,0131*65
$PYRTM,2024,126.418073027488,17.527720437627
$GNHDT,97.052,T*12
$PYRTM,2024,126.418079370104,17.527726780243
$GNGGA,100202.00,3407.88569684,N,12012.86927530,W,2,11,0.9,6.436,M,-37.035,M,6.0,0131*6C
$PYRTM,2024,126.418079370104,17.527726780243
$GNHDT,97.600,T*13
$PYRTM,2024,126.418085666400,17.527733076539
$GNGGA,100202.50,3407.88547737,N,12012.86799358,W,2,11,0.9,6.305,M,-37.035,M,6.4,0131*6C
$PYRTM,2024,126.418085666400,17.527733076539
$GNHDT,98.138,T*10
$PYRTM,2024,126.418091453449,17.527738863588
$GNGGA,100203.00,3407.88527052,N,12012.86670350,W,2,11,0.9,6.207,M,-37.035,M,7.0,0131*62
$PYRTM,2024,126.418091453449,17.527738863588
$GNHDT,98.569,T*10
$PYRTM,2024,126.418096772986,17.527744183113
$GNGGA,100203.50,3407.88509036,N,12012.86538478,W,2,11,0.9,6.144,M,-37.035,M,7.4,0131*6B
$PYRTM,2024,126.418096772986,17.527744183113
$GNHDT,98.749,T*10
$PYRTM,2024,126.418103583183,17.527750993322
$GNGGA,100204.00,3407.88493372,N,12012.86402540,W,2,11,0.9,6.085,M,-37.035,M,7.0,0131*62
$PYRTM,2024,126.418103583183,17.527750993322
$GNHDT,98.806,T*14
$PYRTM,2024,126.418109879363,17.527757289502
$GNGGA,100204.50,3407.88479898,N,12012.86262800,W,2,11,0.9,6.037,M,-37.035,M,7.4,0131*68
$PYRTM,2024,126.418109879363,17.527757289502
$GNHDT,98.552,T*18
$PYRTM,2024,126.418115666435,17.527763076574
$GNGGA,100205.00,3407.88467206,N,12012.86120019,W,2,11,0.9,6.033,M,-37.035,M,7.0,0131*6B
$PYRTM,2024,126.418115666435,17.527763076574
$GNHDT,98.369,T*16
$PYRTM,2024,126.418120897882,17.527768308021
$GNGGA,100205.50,3407.88454957,N,12012.85975836,W,2,11,0.9,6.100,M,-37.035,M,7.4,0131*6A
$PYRTM,2024,126.418120897882,17.527768308021
$GNHDT,97.933,T*1C
$PYRTM,2024,126.418127796053,17.527775206192
$GNGGA,100206.00,3407.88441351,N,12012.85830618,W,2,11,0.9,6.191,M,-37.035,M,4.0,0131*69
$PYRTM,2024,126.418127796053,17.527775206192
$GNHDT,97.463,T*14
$PYRTM,2024,126.418134092384,17.527781502523
$GNGGA,100206.50,3407.88425438,N,12012.85685425,W,2,11,0.9,6.318,M,-37.035,M,4.4,0131*6D
$PYRTM,2024,126.418134092384,17.527781502523
$GNHDT,96.893,T*16
$PYRTM,2024,126.418139879514,17.527787289653
$GNGGA,100207.00,3407.88405906,N,12012.85540591,W,2,11,0.9,6.451,M,-37.035,M,5.0,0131*60
$PYRTM,2024,126.418139879514,17.527787289653
$GNHDT,96.366,T*17
$PYRTM,2024,126.418146221991,17.527793632130
$GNGGA,100207.50,3407.88383474,N,12012.85397862,W,2,11,0.9,6.542,M,-37.035,M,5.4,0131*6E
$PYRTM,2024,126.418146221991,17.527793632130
$GNHDT,95.943,T*19
$PYRTM,2024,126.418150851609,17.527798261748
$GNGGA,100208.00,3407.88359643,N,12012.85257725,W,2,11,0.9,6.589,M,-37.035,M,6.0,0131*64
$PYRTM,2024,126.418150851609,17.527798261748
$GNHDT,95.560,T*14
$PYRTM,2024,126.418157147928,17.527804558067
$GNGGA,100208.50,3407.88337347,N,12012.85121326,W,2,11,0.9,6.605,M,-37.035,M,6.4,0131*6E
$PYRTM,2024,126.418157147928,17.527804558067
$GNHDT,95.570,T*15
$PYRTM,2024,126.418162934988,17.527810345116
$GNGGA,100209.00,3407.88316797,N,12012.84989180,W,2,11,0.9,6.590,M,-37.035,M,7.0,0131*6F
$PYRTM,2024,126.418162934988,17.527810345116
$GNHDT,95.488,T*13
$PYRTM,2024,126.418165626308,17.527813036447
$GNGGA,100209.50,3407.88298944,N,12012.84860484,W,2,11,0.9,6.559,M,-37.035,M,7.4,0131*6B
$PYRTM,2024,126.418165626308,17.527813036447
$GNHDT,95.694,T*1C
$PYRTM,2024,126.418173907164,17.527821317303
$GNGGA,100210.00,3407.88282975,N,12012.84734216,W,2,11,0.9,6.493,M,-37.035,M,7.0,0131*6F
$PYRTM,2024,126.418173907164,17.527821317303
$GNHDT,96.310,T*16
$PYRTM,2024,126.418180203449,17.527827613588
$GNGGA,100210.50,3407.88268030,N,12012.84607757,W,2,11,0.9,6.377,M,-37.035,M,7.4,0131*6E
$PYRTM,2024,126.418180203449,17.527827613588
$GNHDT,96.657,T*10
$PYRTM,2024,126.418185990498,17.527833400637
$GNGGA,100211.00,3407.88253456,N,12012.84479919,W,2,11,0.9,6.228,M,-37.035,M,7.0,0131*66
$PYRTM,2024,126.418185990498,17.527833400637
$GNHDT,96.748,T*1F
$PYRTM,2024,126.418192333218,17.527839743356
$GNGGA,100211.50,3407.88237366,N,12012.84351765,W,2,11,0.9,6.079,M,-37.035,M,7.4,0131*6F
$PYRTM,2024,126.418192333218,17.527839743356
$GNHDT,96.981,T*14
$PYRTM,2024,126.418196962685,17.527844372824
$GNGGA,100212.00,3407.88217417,N,12012.84223897,W,2,11,0.9,5.962,M,-37.035,M,4.0,0131*6B
$PYRTM,2024,126.418196962685,17.527844372824
$GNHDT,97.288,T*17
$PYRTM,2024,126.418203259005,17.527850669144
$GNGGA,100212.50,3407.88196025,N,12012.84094640,W,2,11,0.9,5.919,M,-37.035,M,4.4,0131*63
$PYRTM,2024,126.418203259005,17.527850669144
$GNHDT,97.340,T*12
$PYRTM,2024,126.418209046053,17.527856456192
$GNGGA,100213.00,3407.88175221,N,12012.83961721,W,2,11,0.9,5.932,M,-37.035,M,5.0,0131*62
$PYRTM,2024,126.418209046053,17.527856456192
$GNHDT,97.373,T*12
$PYRTM,2024,126.418215388600,17.527862798738
$GNGGA,100213.50,3407.88157434,N,12012.83823304,W,2,11,0.9,6.005,M,-37.035,M,5.4,0131*6B
$PYRTM,2024,126.418215388600,17.527862798738
$GNHDT,97.079,T*1B
$PYRTM,2024,126.418220018287,17.527867428414
$GNGGA,100214.00,3407.88143105,N,12012.83678975,W,2,11,0.9,6.126,M,-37.035,M,6.0,0131*60
$PYRTM,2024,126.418220018287,17.527867428414
$GNHDT,96.865,T*1F
$PYRTM,2024,126.418224087627,17.527871497766
$GNGGA,100214.50,3407.88132983,N,12012.83530067,W,2,11,0.9,6.278,M,-37.035,M,6.4,0131*6C
$PYRTM,2024,126.418224087627,17.527871497766
$GNHDT,96.764,T*11
$PYRTM,2024,126.418229786701,17.527877196840
$GNGGA,100215.00,3407.88125710,N,12012.83378330,W,2,11,0.9,6.422,M,-37.035,M,7.0,0131*6D
$PYRTM,2024,126.418229786701,17.527877196840
$GNHDT,96.161,T*12
$PYRTM,2024,126.418236083090,17.527883493229
$GNGGA,100215.50,3407.88118616,N,12012.83225561,W,2,11,0.9,6.554,M,-37.035,M,7.4,0131*6E
$PYRTM,2024,126.418236083090,17.527883493229
$GNHDT,96.011,T*14
$PYRTM,2024,126.418241870139,17.527889280278
$GNGGA,100216.00,3407.88109013,N,12012.83073505,W,2,11,0.9,6.653,M,-37.035,M,7.0,0131*68
$PYRTM,2024,126.418241870139,17.527889280278
$GNHDT,95.922,T*1E
$PYRTM,2024,126.418248212731,17.527895622870
$GNGGA,100216.50,3407.88094785,N,12012.82924839,W,2,11,0.9,6.684,M,-37.035,M,7.4,0131*66
$PYRTM,2024,126.418248212731,17.527895622870
$GNHDT,95.693,T*1B
$PYRTM,2024,126.418252796123,17.527900206262
$GNGGA,100217.00,3407.88074029,N,12012.82780227,W,2,11,0.9,6.662,M,-37.035,M,7.0,0131*64
$PYRTM,2024,126.418252796123,17.527900206262
$GNHDT,95.559,T*1E
$PYRTM,2024,126.418260296019,17.527907706157
$GNGGA,100217.50,3407.88049804,N,12012.82641079,W,2,11,0.9,6.600,M,-37.035,M,7.4,0131*6D
$PYRTM,2024,126.418260296019,17.527907706157
$GNHDT,95.556,T*11
$PYRTM,2024,126.418266083067,17.527913493206
$GNGGA,100218.00,3407.88023823,N,12012.82507657,W,2,11,0.9,6.501,M,-37.034,M,4.0,0131*61
$PYRTM,2024,126.418266083067,17.527913493206
$GNHDT,95.831,T*1D
$PYRTM,2024,126.418272425671,17.527919835810
$GNGGA,100218.50,3407.88000150,N,12012.82379416,W,2,11,0.9,6.407,M,-37.034,M,4.4,0131*63
$PYRTM,2024,126.418272425671,17.527919835810
$GNHDT,96.212,T*15
$PYRTM,2024,126.418277055301,17.527924465440
$GNGGA,100219.00,3407.87981442,N,12012.82255753,W,2,11,0.9,6.319,M,-37.034,M,5.0,0131*6E
$PYRTM,2024,126.418277055301,17.527924465440
$GNHDT,96.845,T*1D
$PYRTM,2024,126.418283351597,17.527930761736
$GNGGA,100219.50,3407.87969539,N,12012.82133419,W,2,11,0.9,6.249,M,-37.034,M,5.4,0131*6E
$PYRTM,2024,126.418283351597,17.527930761736
$GNHDT,97.453,T*17
$PYRTM,2024,126.418287981389,17.527935391528
$GNGGA,100220.00,3407.87962486,N,12012.82011212,W,2,11,0.9,6.179,M,-37.034,M,6.0,0131*64
$PYRTM,2024,126.418287981389,17.527935391528
$GNHDT,97.993,T*16
$PYRTM,2024,126.418292941053,17.527940351192
$GNGGA,100220.50,3407.87956912,N,12012.81887561,W,2,11,0.9,6.084,M,-37.034,M,6.4,0131*66
$PYRTM,2024,126.418292941053,17.527940351192
$GNHDT,97.955,T*1C
$PYRTM,2024,126.418300064560,17.527947474699
$GNGGA,100221.00,3407.87947890,N,12012.81762739,W,2,11,0.9,5.992,M,-37.034,M,7.0,0131*6A
$PYRTM,2024,126.418300064560,17.527947474699
$GNHDT,98.170,T*1C
$PYRTM,2024,126.418306360891,17.527953771019
$GNGGA,100221.50,3407.87933984,N,12012.81636176,W,2,11,0.9,5.909,M,-37.034,M,7.4,0131*63
$PYRTM,2024,126.418306360891,17.527953771019
$GNHDT,98.295,T*14
$PYRTM,2024,126.418312147836,17.527959557975
$GNGGA,100222.00,3407.87915082,N,12012.81507602,W,2,11,0.9,5.867,M,-37.034,M,7.0,0131*66
$PYRTM,2024,126.418312147836,17.527959557975
$GNHDT,97.955,T*1C
$PYRTM,2024,126.418318490498,17.527965900637
$GNGGA,100222.50,3407.87892662,N,12012.81376090,W,2,11,0.9,5.881,M,-37.034,M,7.4,0131*64
$PYRTM,2024,126.418318490498,17.527965900637
$GNHDT,97.673,T*17
$PYRTM,2024,126.418323120104,17.527970530243
$GNGGA,100223.00,3407.87868480,N,12012.81240632,W,2,11,0.9,5.970,M,-37.034,M,7.0,0131*6A
$PYRTM,2024,126.418323120104,17.527970530243
$GNHDT,97.492,T*1A
$PYRTM,2024,126.418329416435,17.527976826574
$GNGGA,100223.50,3407.87845711,N,12012.81101150,W,2,11,0.9,6.148,M,-37.034,M,7.4,0131*6A
$PYRTM,2024,126.418329416435,17.527976826574
$GNHDT,97.172,T*11
$PYRTM,2024,126.418335203484,17.527982613623
$GNGGA,100224.00,3407.87826252,N,12012.80956863,W,2,11,0.9,6.388,M,-37.034,M,4.0,0131*64
$PYRTM,2024,126.418335203484,17.527982613623
$GNHDT,97.139,T*1E
$PYRTM,2024,126.418341546123,17.527988956262
$GNGGA,100224.50,3407.87810202,N,12012.80808552,W,2,11,0.9,6.610,M,-37.034,M,4.4,0131*64
$PYRTM,2024,126.418341546123,17.527988956262
$GNHDT,97.405,T*14
$PYRTM,2024,126.418352471979,17.527999882118
$GNGGA,100225.00,3407.87796702,N,12012.80655249,W,2,11,0.9,6.780,M,-37.034,M,5.0,0131*62
$PYRTM,2024,126.418352471979,17.527999882118
$GNHDT,97.588,T*10
$PYRTM,2024,126.418352472234,17.527999882373
$GNGGA,100225.50,3407.87783172,N,12012.80500334,W,2,11,0.9,6.892,M,-37.034,M,5.4,0131*62
$PYRTM,2024,126.418352472234,17.527999882373
$GNHDT,97.622,T*13
$PYRTM,2024,126.418357101597,17.528004511736
$GNGGA,100226.00,3407.87767320,N,12012.80347174,W,2,11,0.9,6.950,M,-37.034,M,6.0,0131*60
$PYRTM,2024,126.418357101597,17.528004511736
$GNHDT,97.711,T*12
$PYRTM,2024,126.418363444178,17.528010854317
$GNGGA,100226.50,3407.87747794,N,12012.80198616,W,2,11,0.9,6.966,M,-37.034,M,6.4,0131*6E
$PYRTM,2024,126.418363444178,17.528010854317
$GNHDT,97.697,T*1D
$PYRTM,2024,126.418369231238,17.528016641377
$GNGGA,100227.00,3407.87724537,N,12012.80055058,W,2,11,0.9,6.942,M,-37.034,M,7.0,0131*6B
$PYRTM,2024,126.418369231238,17.528016641377
$GNHDT,97.720,T*10
$PYRTM,2024,126.418375527546,17.528022937685
$GNGGA,100227.50,3407.87700228,N,12012.79915444,W,2,11,0.9,6.882,M,-37.034,M,7.4,0131*6A
$PYRTM,2024,126.418375527546,17.528022937685
$GNHDT,98.284,T*14
$PYRTM,2024,126.418380157222,17.528027567361
$GNGGA,100228.00,3407.87676046,N,12012.79777995,W,2,11,0.9,6.752,M,-37.034,M,7.0,0131*67
$PYRTM,2024,126.418380157222,17.528027567361
$GNHDT,98.439,T*14
$PYRTM,2024,126.418386453472,17.528033863611
$GNGGA,100228.50,3407.87654007,N,12012.79641708,W,2,11,0.9,6.541,M,-37.034,M,7.4,0131*6D
$PYRTM,2024,126.418386453472,17.528033863611
$GNHDT,98.262,T*1C
$PYRTM,2024,126.418392240544,17.528039650683
$GNGGA,100229.00,3407.87635021,N,12012.79508165,W,2,11,0.9,6.285,M,-37.034,M,7.0,0131*62
$PYRTM,2024,126.418392240544,17.528039650683
$GNHDT,98.571,T*19
$PYRTM,2024,126.418398583056,17.528045993194
$GNGGA,100229.50,3407.87619890,N,12012.79377636,W,2,11,0.9,6.050,M,-37.034,M,7.4,0131*6A
$PYRTM,2024,126.418398583056,17.528045993194
