$PYRTM,2024,121.666666820579,12.776314230729
$GNGGA,160000.00,3237.24131013,N,11717.26190472,W,2,12,0.9,6.794,M,-36.230,M,5.0,0135*69
$PYRTM,2024,121.666666820579,12.776314230729
$GNHDT,279.691,T*29
$PYRTM,2024,121.666672556262,12.776319966400
$GNGGA,160000.50,3237.24144741,N,11717.26319477,W,2,12,0.9,6.934,M,-36.231,M,5.4,0135*69
$PYRTM,2024,121.666672556262,12.776319966400
$GNHDT,279.392,T*2F
$PYRTM,2024,121.666678391562,12.776325801701
$GNGGA,160001.00,3237.24158286,N,11717.26446617,W,2,12,0.9,7.129,M,-36.231,M,6.0,0135*65
$PYRTM,2024,121.666678391562,12.776325801701
$GNHDT,279.569,T*2D
$PYRTM,2024,121.666684126875,12.776331537014
$GNGGA,160001.50,3237.24173103,N,11717.26572464,W,2,12,0.9,7.316,M,-36.231,M,6.4,0135*6D
$PYRTM,2024,121.666684126875,12.776331537014
$GNHDT,279.620,T*23
$PYRTM,2024,121.666689967431,12.776337377569
$GNGGA,160002.00,3237.24189318,N,11717.26701164,W,2,12,0.9,7.404,M,-36.231,M,7.0,0135*64
$PYRTM,2024,121.666689967431,12.776337377569
$GNHDT,279.699,T*21
$PYRTM,2024,121.666695698426,12.776343108565
$GNGGA,160002.50,3237.24207003,N,11717.26834992,W,2,12,0.9,7.260,M,-36.231,M,7.4,0135*65
$PYRTM,2024,121.666695698426,12.776343108565
$GNHDT,280.001,T*20
$PYRTM,2024,121.666701542894,12.776348953044
$GNGGA,160003.00,3237.24224408,N,11717.26973947,W,2,12,0.9,6.924,M,-36.231,M,7.0,0135*6B
$PYRTM,2024,121.666701542894,12.776348953044
$GNHDT,279.839,T*25
$PYRTM,2024,121.666707274618,12.776354684757
$GNGGA,160003.50,3237.24240839,N,11717.27112514,W,2,12,0.9,6.495,M,-36.231,M,7.4,0135*65
$PYRTM,2024,121.666707274618,12.776354684757
$GNHDT,280.332,T*23
$PYRTM,2024,121.666713114745,12.776360524884
$GNGGA,160004.00,3237.24256511,N,11717.27247052,W,2,12,0.9,6.149,M,-36.231,M,7.0,0135*63
$PYRTM,2024,121.666713114745,12.776360524884
$GNHDT,280.678,T*28
$PYRTM,2024,121.666718849479,12.776366259618
$GNGGA,160004.50,3237.24272767,N,11717.27375388,W,2,12,0.9,6.027,M,-36.231,M,7.4,0135*6A
$PYRTM,2024,121.666718849479,12.776366259618
$GNHDT,280.580,T*2C
$PYRTM,2024,121.666724694838,12.776372104977
$GNGGA,160005.00,3237.24291056,N,11717.27499843,W,2,12,0.9,6.159,M,-36.232,M,4.0,0135*63
$PYRTM,2024,121.666724694838,12.776372104977
$GNHDT,280.414,T*20
$PYRTM,2024,121.666730423391,12.776377833530
$GNGGA,160005.50,3237.24310723,N,11717.27620708,W,2,12,0.9,6.467,M,-36.232,M,4.4,0135*67
$PYRTM,2024,121.666730423391,12.776377833530
$GNHDT,281.075,T*22
$PYRTM,2024,121.666736267488,12.776383677627
$GNGGA,160006.00,3237.24331175,N,11717.27742584,W,2,12,0.9,6.899,M,-36.232,M,5.0,0135*6C
$PYRTM,2024,121.666736267488,12.776383677627
$GNHDT,281.097,T*2E
$PYRTM,2024,121.666741994965,12.776389405104
$GNGGA,160006.50,3237.24351180,N,11717.27868381,W,2,12,0.9,7.277,M,-36.232,M,5.4,0135*6E
$PYRTM,2024,121.666741994965,12.776389405104
$GNHDT,281.057,T*22
$PYRTM,2024,121.666747837338,12.776395247477
$GNGGA,160007.00,3237.24370773,N,11717.28000858,W,2,12,0.9,7.464,M,-36.232,M,6.0,0135*66
$PYRTM,2024,121.666747837338,12.776395247477
$GNHDT,281.233,T*22
$PYRTM,2024,121.666753569792,12.776400979931
$GNGGA,160007.50,3237.24389888,N,11717.28136420,W,2,12,0.9,7.446,M,-36.232,M,6.4,0135*6D
$PYRTM,2024,121.666753569792,12.776400979931
$GNHDT,281.178,T*2E
$PYRTM,2024,121.666759417269,12.776406827407
$GNGGA,160008.00,3237.24410007,N,11717.28272542,W,2,12,0.9,7.257,M,-36.232,M,7.0,0135*6A
$PYRTM,2024,121.666759417269,12.776406827407
$GNHDT,281.344,T*23
$PYRTM,2024,121.666765142419,12.776412552558
$GNGGA,160008.50,3237.24429906,N,11717.28405680,W,2,12,0.9,7.010,M,-36.232,M,7.4,0135*63
$PYRTM,2024,121.666765142419,12.776412552558
$GNHDT,281.363,T*26
$PYRTM,2024,121.666770985833,12.776418395972
$GNGGA,160009.00,3237.24449807,N,11717.28535765,W,2,12,0.9,6.792,M,-36.232,M,7.0,0135*61
$PYRTM,2024,121.666770985833,12.776418395972
$GNHDT,281.166,T*21
$PYRTM,2024,121.666776716944,12.776424127083
$GNGGA,160009.50,3237.24470490,N,11717.28663361,W,2,12,0.9,6.696,M,-36.232,M,7.4,0135*6D
$PYRTM,2024,121.666776716944,12.776424127083
$GNHDT,281.126,T*25
$PYRTM,2024,121.666782559329,12.776429969468
$GNGGA,160010.00,3237.24493537,N,11717.28788578,W,2,12,0.9,6.711,M,-36.232,M,7.0,0135*61
$PYRTM,2024,121.666782559329,12.776429969468
$GNHDT,280.852,T*2E
$PYRTM,2024,121.666788294873,12.776435705012
$GNGGA,160010.50,3237.24518261,N,11717.28913233,W,2,12,0.9,6.813,M,-36.232,M,7.4,0135*6F
$PYRTM,2024,121.666788294873,12.776435705012
$GNHDT,281.069,T*2F
$PYRTM,2024,121.666794131840,12.776441541979
$GNGGA,160011.00,3237.24544854,N,11717.29038684,W,2,12,0.9,6.957,M,-36.232,M,4.0,0135*61
$PYRTM,2024,121.666794131840,12.776441541979
$GNHDT,281.040,T*24
$PYRTM,2024,121.666799865590,12.776447275729
$GNGGA,160011.50,3237.24572028,N,11717.29166282,W,2,12,0.9,7.067,M,-36.232,M,4.4,0135*65
$PYRTM,2024,121.666799865590,12.776447275729
$GNHDT,281.259,T*2E
$PYRTM,2024,121.666805706319,12.776453116458
$GNGGA,160012.00,3237.24598530,N,11717.29297273,W,2,12,0.9,7.112,M,-36.233,M,5.0,0135*6F
$PYRTM,2024,121.666805706319,12.776453116458
$GNHDT,281.187,T*2E
$PYRTM,2024,121.666811439769,12.776458849896
$GNGGA,160012.50,3237.24622208,N,11717.29430862,W,2,12,0.9,7.075,M,-36.233,M,5.4,0135*61
$PYRTM,2024,121.666811439769,12.776458849896
$GNHDT,281.111,T*21
$PYRTM,2024,121.666817281343,12.776464691493
$GNGGA,160013.00,3237.24642671,N,11717.29566369,W,2,12,0.9,6.953,M,-36.233,M,6.0,0135*60
$PYRTM,2024,121.666817281343,12.776464691493
$GNHDT,281.089,T*21
$PYRTM,2024,121.666823019236,12.776470429375
$GNGGA,160013.50,3237.24660119,N,11717.29700840,W,2,12,0.9,6.813,M,-36.233,M,6.4,0135*6F
$PYRTM,2024,121.666823019236,12.776470429375
$GNHDT,281.199,T*21
$PYRTM,2024,121.666828856586,12.776476266725
$GNGGA,160014.00,3237.24676491,N,11717.29833510,W,2,12,0.9,6.681,M,-36.233,M,7.0,0135*68
$PYRTM,2024,121.666828856586,12.776476266725
$GNHDT,281.217,T*24
$PYRTM,2024,121.666834593449,12.776482003588
$GNGGA,160014.50,3237.24693284,N,11717.29964543,W,2,12,0.9,6.613,M,-36.233,M,7.4,0135*6E
$PYRTM,2024,121.666834593449,12.776482003588
$GNHDT,281.219,T*2A
$PYRTM,2024,121.666840430220,12.776487840359
$GNGGA,160015.00,3237.24712194,N,11717.30092753,W,2,12,0.9,6.612,M,-36.233,M,7.0,0135*6E
$PYRTM,2024,121.666840430220,12.776487840359
$GNHDT,281.102,T*23
$PYRTM,2024,121.666846161875,12.776493572014
$GNGGA,160015.50,3237.24733367,N,11717.30217587,W,2,12,0.9,6.712,M,-36.233,M,7.4,0135*67
$PYRTM,2024,121.666846161875,12.776493572014
$GNHDT,280.931,T*2A
$PYRTM,2024,121.666852006794,12.776499416933
$GNGGA,160016.00,3237.24756939,N,11717.30340808,W,2,12,0.9,6.866,M,-36.233,M,7.0,0135*62
$PYRTM,2024,121.666852006794,12.776499416933
$GNHDT,280.882,T*23
$PYRTM,2024,121.666857742049,12.776505152187
$GNGGA,160016.50,3237.24781393,N,11717.30465108,W,2,12,0.9,6.988,M,-36.234,M,7.4,0135*6C
$PYRTM,2024,121.666857742049,12.776505152187
$GNHDT,281.376,T*22
$PYRTM,2024,121.666863581019,12.776510991157
$GNGGA,160017.00,3237.24804913,N,11717.30594552,W,2,12,0.9,6.996,M,-36.234,M,4.0,0135*64
$PYRTM,2024,121.666863581019,12.776510991157
$GNHDT,281.371,T*25
$PYRTM,2024,121.666869311343,12.776516721481
$GNGGA,160017.50,3237.24826727,N,11717.30729280,W,2,12,0.9,6.839,M,-36.234,M,4.4,0135*64
$PYRTM,2024,121.666869311343,12.776516721481
$GNHDT,281.399,T*23
$PYRTM,2024,121.666875151435,12.776522561586
$GNGGA,160018.00,3237.24847165,N,11717.30867995,W,2,12,0.9,6.581,M,-36.234,M,5.0,0135*68
$PYRTM,2024,121.666875151435,12.776522561586
$GNHDT,281.494,T*29
$PYRTM,2024,121.666880884306,12.776528294444
$GNGGA,160018.50,3237.24865305,N,11717.31005862,W,2,12,0.9,6.324,M,-36.234,M,5.4,0135*60
$PYRTM,2024,121.666880884306,12.776528294444
$GNHDT,281.712,T*24
$PYRTM,2024,121.666886730671,12.776534140810
$GNGGA,160019.00,3237.24881188,N,11717.31140196,W,2,12,0.9,6.212,M,-36.234,M,6.0,0135*68
$PYRTM,2024,121.666886730671,12.776534140810
$GNHDT,281.597,T*2B
$PYRTM,2024,121.666892458079,12.776539868229
$GNGGA,160019.50,3237.24897489,N,11717.31267625,W,2,12,0.9,6.309,M,-36.234,M,6.4,0135*68
$PYRTM,2024,121.666892458079,12.776539868229
$GNHDT,281.581,T*2C
$PYRTM,2024,121.666898302407,12.776545712546
$GNGGA,160020.00,3237.24916362,N,11717.31389337,W,2,12,0.9,6.607,M,-36.234,M,7.0,0135*64
$PYRTM,2024,121.666898302407,12.776545712546
$GNHDT,281.623,T*27
$PYRTM,2024,121.666904037477,12.776551447616
$GNGGA,160020.50,3237.24939516,N,11717.31509896,W,2,12,0.9,6.977,M,-36.234,M,7.4,0135*6B
$PYRTM,2024,121.666904037477,12.776551447616
$GNHDT,281.927,T*2C
$PYRTM,2024,121.666909871701,12.776557281840
$GNGGA,160021.00,3237.24965627,N,11717.31632800,W,2,12,0.9,7.299,M,-36.234,M,7.0,0135*6D
$PYRTM,2024,121.666909871701,12.776557281840
$GNHDT,282.148,T*2E
$PYRTM,2024,121.666915610370,12.776563020509
$GNGGA,160021.50,3237.24992808,N,11717.31757408,W,2,12,0.9,7.521,M,-36.234,M,7.4,0135*65
$PYRTM,2024,121.666915610370,12.776563020509
$GNHDT,282.019,T*2B
$PYRTM,2024,121.666921447326,12.776568857477
$GNGGA,160022.00,3237.25019710,N,11717.31883245,W,2,12,0.9,7.593,M,-36.234,M,7.0,0135*6A
$PYRTM,2024,121.666921447326,12.776568857477
$GNHDT,282.123,T*23
$PYRTM,2024,121.666927180347,12.776574590486
$GNGGA,160022.50,3237.25044975,N,11717.32010074,W,2,12,0.9,7.498,M,-36.234,M,7.4,0135*65
$PYRTM,2024,121.666927180347,12.776574590486
$GNHDT,282.223,T*20
$PYRTM,2024,121.666933024132,12.776580434271
$GNGGA,160023.00,3237.25068428,N,11717.32139242,W,2,12,0.9,7.206,M,-36.235,M,4.0,0135*60
$PYRTM,2024,121.666933024132,12.776580434271
$GNHDT,282.611,T*25
$PYRTM,2024,121.666938762199,12.776586172338
$GNGGA,160023.50,3237.25091404,N,11717.32271604,W,2,12,0.9,6.800,M,-36.235,M,4.4,0135*6D
$PYRTM,2024,121.666938762199,12.776586172338
$GNHDT,282.831,T*29
$PYRTM,2024,121.666944594977,12.776592005116
$GNGGA,160024.00,3237.25113972,N,11717.32406077,W,2,12,0.9,6.365,M,-36.235,M,5.0,0135*61
$PYRTM,2024,121.666944594977,12.776592005116
$GNHDT,282.834,T*2C
$PYRTM,2024,121.666950335475,12.776597745613
$GNGGA,160024.50,3237.25135270,N,11717.32540520,W,2,12,0.9,6.027,M,-36.235,M,5.4,0135*6C
$PYRTM,2024,121.666950335475,12.776597745613
$GNHDT,283.267,T*21
$PYRTM,2024,121.666956170046,12.776603580197
$GNGGA,160025.00,3237.25154450,N,11717.32672802,W,2,12,0.9,5.887,M,-36.235,M,6.0,0135*62
$PYRTM,2024,121.666956170046,12.776603580197
$GNHDT,283.101,T*22
$PYRTM,2024,121.666961904444,12.776609314583
$GNGGA,160025.50,3237.25173008,N,11717.32800584,W,2,12,0.9,6.003,M,-36.235,M,6.4,0135*60
$PYRTM,2024,121.666961904444,12.776609314583
$GNHDT,282.715,T*20
$PYRTM,2024,121.666967747847,12.776615157986
$GNGGA,160026.00,3237.25193201,N,11717.32924529,W,2,12,0.9,6.295,M,-36.235,M,7.0,0135*6B
$PYRTM,2024,121.666967747847,12.776615157986
$GNHDT,282.699,T*25
$PYRTM,2024,121.666973478785,12.776620888924
$GNGGA,160026.50,3237.25216989,N,11717.33048166,W,2,12,0.9,6.683,M,-36.235,M,7.4,0135*61
$PYRTM,2024,121.666973478785,12.776620888924
$GNHDT,283.157,T*21
$PYRTM,2024,121.666979321215,12.776626731354
$GNGGA,160027.00,3237.25244957,N,11717.33174458,W,2,12,0.9,7.027,M,-36.235,M,7.0,0135*6A
$PYRTM,2024,121.666979321215,12.776626731354
$GNHDT,283.223,T*21
$PYRTM,2024,121.666985051470,12.776632461609
$GNGGA,160027.50,3237.25276515,N,11717.33305459,W,2,12,0.9,7.201,M,-36.236,M,7.4,0135*60
$PYRTM,2024,121.666985051470,12.776632461609
$GNHDT,283.429,T*2D
$PYRTM,2024,121.666990891887,12.776638302025
$GNGGA,160028.00,3237.25308528,N,11717.33438907,W,2,12,0.9,7.194,M,-36.236,M,7.0,0135*68
$PYRTM,2024,121.666990891887,12.776638302025
$GNHDT,283.442,T*20
$PYRTM,2024,121.666996625694,12.776644035833
$GNGGA,160028.50,3237.25336689,N,11717.33570178,W,2,12,0.9,7.069,M,-36.236,M,7.4,0135*62
$PYRTM,2024,121.666996625694,12.776644035833
$GNHDT,283.838,T*21
$PYRTM,2024,121.667002470961,12.776649881100
$GNGGA,160029.00,3237.25358493,N,11717.33697483,W,2,12,0.9,6.929,M,-36.236,M,4.0,0135*67
$PYRTM,2024,121.667002470961,12.776649881100
$GNHDT,283.959,T*27
$PYRTM,2024,121.667008201319,12.776655611458
$GNGGA,160029.50,3237.25374994,N,11717.33821657,W,2,12,0.9,6.850,M,-36.236,M,4.4,0135*65
$PYRTM,2024,121.667008201319,12.776655611458
$GNHDT,283.760,T*23
$PYRTM,2024,121.667014041354,12.776661451505
$GNGGA,160030.00,3237.25388136,N,11717.33946063,W,2,12,0.9,6.845,M,-36.236,M,5.0,0135*6B
$PYRTM,2024,121.667014041354,12.776661451505
$GNHDT,283.678,T*2B
$PYRTM,2024,121.667019774132,12.776667184271
$GNGGA,160030.50,3237.25401830,N,11717.34071353,W,2,12,0.9,6.816,M,-36.236,M,5.4,0135*6F
$PYRTM,2024,121.667019774132,12.776667184271
$GNHDT,283.935,T*2D
$PYRTM,2024,121.667025614097,12.776673024236
$GNGGA,160031.00,3237.25418564,N,11717.34198627,W,2,12,0.9,6.774,M,-36.236,M,6.0,0135*63
$PYRTM,2024,121.667025614097,12.776673024236
$GNHDT,283.820,T*28
$PYRTM,2024,121.667031351748,12.776678761887
$GNGGA,160031.50,3237.25440215,N,11717.34326609,W,2,12,0.9,6.703,M,-36.236,M,6.4,0135*65
$PYRTM,2024,121.667031351748,12.776678761887
$GNHDT,283.644,T*24
$PYRTM,2024,121.667037189097,12.776684599236
$GNGGA,160032.00,3237.25466618,N,11717.34453319,W,2,12,0.9,6.633,M,-36.236,M,7.0,0135*68
$PYRTM,2024,121.667037189097,12.776684599236
$GNHDT,283.337,T*25
$PYRTM,2024,121.667042926146,12.776690336285
$GNGGA,160032.50,3237.25497464,N,11717.34578219,W,2,12,0.9,6.601,M,-36.236,M,7.4,0135*66
$PYRTM,2024,121.667042926146,12.776690336285
$GNHDT,283.639,T*2E
$PYRTM,2024,121.667048762870,12.776696173009
$GNGGA,160033.00,3237.25529585,N,11717.34702394,W,2,12,0.9,6.575,M,-36.236,M,7.0,0135*67
$PYRTM,2024,121.667048762870,12.776696173009
$GNHDT,283.453,T*20
$PYRTM,2024,121.667054494491,12.776701904630
$GNGGA,160033.50,3237.25560398,N,11717.34828254,W,2,12,0.9,6.570,M,-36.236,M,7.4,0135*6E
$PYRTM,2024,121.667054494491,12.776701904630
$GNHDT,283.565,T*24
$PYRTM,2024,121.667060337917,12.776707748056
$GNGGA,160034.00,3237.25588691,N,11717.34957361,W,2,12,0.9,6.563,M,-36.236,M,7.0,0135*6E
$PYRTM,2024,121.667060337917,12.776707748056
$GNHDT,283.598,T*26
$PYRTM,2024,121.667066077292,12.776713487431
$GNGGA,160034.50,3237.25613698,N,11717.35091305,W,2,12,0.9,6.519,M,-36.237,M,7.4,0135*6B
$PYRTM,2024,121.667066077292,12.776713487431
$GNHDT,283.472,T*23
$PYRTM,2024,121.667071910764,12.776719320903
$GNGGA,160035.00,3237.25635937,N,11717.35231060,W,2,12,0.9,6.373,M,-36.237,M,4.0,0135*64
$PYRTM,2024,121.667071910764,12.776719320903
$GNHDT,283.829,T*21
$PYRTM,2024,121.667077644352,12.776725054491
$GNGGA,160035.50,3237.25656644,N,11717.35373993,W,2,12,0.9,6.193,M,-36.237,M,4.4,0135*65
$PYRTM,2024,121.667077644352,12.776725054491
$GNHDT,283.958,T*26
$PYRTM,2024,121.667083489086,12.776730899236
$GNGGA,160036.00,3237.25677416,N,11717.35512861,W,2,12,0.9,6.116,M,-36.237,M,5.0,0135*60
$PYRTM,2024,121.667083489086,12.776730899236
$GNHDT,284.160,T*22
$PYRTM,2024,121.667089221308,12.776736631447
$GNGGA,160036.50,3237.25699575,N,11717.35640066,W,2,12,0.9,6.303,M,-36.237,M,5.4,0135*68
$PYRTM,2024,121.667089221308,12.776736631447
$GNHDT,284.127,T*21
$PYRTM,2024,121.667095063310,12.776742473449
$GNGGA,160037.00,3237.25722914,N,11717.35758353,W,2,12,0.9,6.702,M,-36.237,M,6.0,0135*69
$PYRTM,2024,121.667095063310,12.776742473449
$GNHDT,284.327,T*23
$PYRTM,2024,121.667100793264,12.776748203403
$GNGGA,160037.50,3237.25748207,N,11717.35873816,W,2,12,0.9,7.198,M,-36.237,M,6.4,0135*65
$PYRTM,2024,121.667100793264,12.776748203403
$GNHDT,284.585,T*2D
$PYRTM,2024,121.667106632905,12.776754043056
$GNGGA,160038.00,3237.25777215,N,11717.35994409,W,2,12,0.9,7.567,M,-36.237,M,7.0,0135*6B
$PYRTM,2024,121.667106632905,12.776754043056
$GNHDT,284.545,T*21
$PYRTM,2024,121.667112367477,12.776759777616
$GNGGA,160038.50,3237.25809078,N,11717.36124148,W,2,12,0.9,7.599,M,-36.237,M,7.4,0135*64
$PYRTM,2024,121.667112367477,12.776759777616
$GNHDT,284.348,T*2A
$PYRTM,2024,121.667118208264,12.776765618403
$GNGGA,160039.00,3237.25840279,N,11717.36255788,W,2,12,0.9,7.361,M,-36.238,M,7.0,0135*6B
$PYRTM,2024,121.667118208264,12.776765618403
$GNHDT,284.268,T*29
$PYRTM,2024,121.667123943102,12.776771353241
$GNGGA,160039.50,3237.25869218,N,11717.36381307,W,2,12,0.9,7.075,M,-36.238,M,7.4,0135*6B
$PYRTM,2024,121.667123943102,12.776771353241
$GNHDT,285.142,T*23
$PYRTM,2024,121.667129782870,12.776777193009
$GNGGA,160040.00,3237.25894145,N,11717.36499039,W,2,12,0.9,6.893,M,-36.238,M,7.0,0135*6C
$PYRTM,2024,121.667129782870,12.776777193009
$GNHDT,285.268,T*28
$PYRTM,2024,121.667135513669,12.776782923808
$GNGGA,160040.50,3237.25915474,N,11717.36612325,W,2,12,0.9,6.871,M,-36.238,M,7.4,0135*61
$PYRTM,2024,121.667135513669,12.776782923808
$GNHDT,285.335,T*21
$PYRTM,2024,121.667141354340,12.776788764479
$GNGGA,160041.00,3237.25934870,N,11717.36728057,W,2,12,0.9,6.922,M,-36.238,M,4.0,0135*60
$PYRTM,2024,121.667141354340,12.776788764479
$GNHDT,285.143,T*22
$PYRTM,2024,121.667147092211,12.776794502350
$GNGGA,160041.50,3237.25955071,N,11717.36851772,W,2,12,0.9,6.889,M,-36.238,M,4.4,0135*6E
$PYRTM,2024,121.667147092211,12.776794502350
$GNHDT,284.977,T*2C
$PYRTM,2024,121.667152933542,12.776800343681
$GNGGA,160042.00,3237.25977552,N,11717.36983303,W,2,12,0.9,6.689,M,-36.238,M,5.0,0135*6B
$PYRTM,2024,121.667152933542,12.776800343681
$GNHDT,285.248,T*2A
$PYRTM,2024,121.667158663194,12.776806073333
$GNGGA,160042.50,3237.26003340,N,11717.37119064,W,2,12,0.9,6.366,M,-36.238,M,5.4,0135*6A
$PYRTM,2024,121.667158663194,12.776806073333
$GNHDT,284.902,T*2E
$PYRTM,2024,121.667164509375,12.776811919514
$GNGGA,160043.00,3237.26033714,N,11717.37253095,W,2,12,0.9,6.028,M,-36.238,M,6.0,0135*65
$PYRTM,2024,121.667164509375,12.776811919514
$GNHDT,285.189,T*24
$PYRTM,2024,121.667170241910,12.776817652049
$GNGGA,160043.50,3237.26067855,N,11717.37380938,W,2,12,0.9,5.838,M,-36.238,M,6.4,0135*64
$PYRTM,2024,121.667170241910,12.776817652049
$GNHDT,285.339,T*2D
$PYRTM,2024,121.667176084861,12.776823495000
$GNGGA,160044.00,3237.26103326,N,11717.37504163,W,2,12,0.9,5.868,M,-36.238,M,7.0,0135*66
$PYRTM,2024,121.667176084861,12.776823495000
$GNHDT,285.485,T*2D
$PYRTM,2024,121.667181809340,12.776829219479
$GNGGA,160044.50,3237.26136396,N,11717.37627245,W,2,12,0.9,6.078,M,-36.238,M,7.4,0135*65
$PYRTM,2024,121.667181809340,12.776829219479
$GNHDT,285.387,T*28
$PYRTM,2024,121.667187652894,12.776835063032
$GNGGA,160045.00,3237.26164249,N,11717.37752954,W,2,12,0.9,6.422,M,-36.238,M,7.0,0135*62
$PYRTM,2024,121.667187652894,12.776835063032
$GNHDT,285.067,T*25
$PYRTM,2024,121.667193387685,12.776840797836
$GNGGA,160045.50,3237.26188574,N,11717.37881149,W,2,12,0.9,6.765,M,-36.238,M,7.4,0135*6D
$PYRTM,2024,121.667193387685,12.776840797836
$GNHDT,285.397,T*29
$PYRTM,2024,121.667199226678,12.776846636829
$GNGGA,160046.00,3237.26211370,N,11717.38009754,W,2,12,0.9,7.068,M,-36.239,M,7.0,0135*69
$PYRTM,2024,121.667199226678,12.776846636829
$GNHDT,285.613,T*20
$PYRTM,2024,121.667204957685,12.776852367824
$GNGGA,160046.50,3237.26235945,N,11717.38136500,W,2,12,0.9,7.267,M,-36.239,M,7.4,0135*61
$PYRTM,2024,121.667204957685,12.776852367824
$GNHDT,285.951,T*29
$PYRTM,2024,121.667210803241,12.776858213380
$GNGGA,160047.00,3237.26263199,N,11717.38261375,W,2,12,0.9,7.362,M,-36.239,M,4.0,0135*69
$PYRTM,2024,121.667210803241,12.776858213380
$GNHDT,286.232,T*24
$PYRTM,2024,121.667216531979,12.776863942118
$GNGGA,160047.50,3237.26293077,N,11717.38384553,W,2,12,0.9,7.322,M,-36.239,M,4.4,0135*6A
$PYRTM,2024,121.667216531979,12.776863942118
$GNHDT,286.034,T*20
$PYRTM,2024,121.667222373796,12.776869783947
$GNGGA,160048.00,3237.26324199,N,11717.38506755,W,2,12,0.9,7.184,M,-36.239,M,5.0,0135*6F
$PYRTM,2024,121.667222373796,12.776869783947
$GNHDT,286.179,T*28
$PYRTM,2024,121.667228107130,12.776875517280
$GNGGA,160048.50,3237.26354249,N,11717.38627859,W,2,12,0.9,7.006,M,-36.239,M,5.4,0135*6F
$PYRTM,2024,121.667228107130,12.776875517280
$GNHDT,285.621,T*21
$PYRTM,2024,121.667233947928,12.776881358067
$GNGGA,160049.00,3237.26381824,N,11717.38747423,W,2,12,0.9,6.885,M,-36.239,M,6.0,0135*61
$PYRTM,2024,121.667233947928,12.776881358067
$GNHDT,285.663,T*27
$PYRTM,2024,121.667239680336,12.776887090475
$GNGGA,160049.50,3237.26408120,N,11717.38867226,W,2,13,0.9,6.814,M,-36.239,M,6.4,0135*6C
$PYRTM,2024,121.667239680336,12.776887090475
$GNHDT,285.436,T*25
$PYRTM,2024,121.667245525197,12.776892935336
$GNGGA,160050.00,3237.26435261,N,11717.38989086,W,2,13,0.9,6.778,M,-36.239,M,7.0,0135*60
$PYRTM,2024,121.667245525197,12.776892935336
$GNHDT,285.576,T*20
$PYRTM,2024,121.667251262303,12.776898672454
$GNGGA,160050.50,3237.26463289,N,11717.39114331,W,2,13,0.9,6.708,M,-36.239,M,7.4,0135*61
$PYRTM,2024,121.667251262303,12.776898672454
$GNHDT,285.556,T*22
$PYRTM,2024,121.667257099491,12.776904509630
$GNGGA,160051.00,3237.26494311,N,11717.39243379,W,2,13,0.9,6.610,M,-36.240,M,7.0,0135*62
$PYRTM,2024,121.667257099491,12.776904509630
$GNHDT,285.529,T*2A
$PYRTM,2024,121.667262832928,12.776910243067
$GNGGA,160051.50,3237.26527151,N,11717.39373804,W,2,13,0.9,6.493,M,-36.240,M,7.4,0135*66
$PYRTM,2024,121.667262832928,12.776910243067
$GNHDT,285.433,T*20
$PYRTM,2024,121.667268672523,12.776916082674
$GNGGA,160052.00,3237.26561498,N,11717.39504603,W,2,13,0.9,6.407,M,-36.240,M,7.0,0135*64
$PYRTM,2024,121.667268672523,12.776916082674
$GNHDT,285.349,T*2A
$PYRTM,2024,121.667274406562,12.776921816701
$GNGGA,160052.50,3237.26595087,N,11717.39636169,W,2,13,0.9,6.365,M,-36.240,M,7.4,0135*6E
$PYRTM,2024,121.667274406562,12.776921816701
$GNHDT,285.293,T*2C
$PYRTM,2024,121.667280247188,12.776927657338
$GNGGA,160053.00,3237.26626835,N,11717.39769560,W,2,13,0.9,6.397,M,-36.240,M,4.0,0135*6C
$PYRTM,2024,121.667280247188,12.776927657338
$GNHDT,285.069,T*2B
$PYRTM,2024,121.667285988611,12.776933398750
$GNGGA,160053.50,3237.26655923,N,11717.39901751,W,2,13,0.9,6.517,M,-36.240,M,4.4,0135*61
$PYRTM,2024,121.667285988611,12.776933398750
$GNHDT,285.118,T*2C
$PYRTM,2024,121.667291822882,12.776939233021
$GNGGA,160054.00,3237.26683513,N,11717.40030463,W,2,13,0.9,6.752,M,-36.240,M,5.0,0135*66
$PYRTM,2024,121.667291822882,12.776939233021
$GNHDT,285.288,T*26
$PYRTM,2024,121.667297554896,12.776944965035
$GNGGA,160054.50,3237.26710762,N,11717.40154106,W,2,13,0.9,7.079,M,-36.240,M,5.4,0135*62
$PYRTM,2024,121.667297554896,12.776944965035
$GNHDT,285.151,T*21
$PYRTM,2024,121.667303400208,12.776950810347
$GNGGA,160055.00,3237.26739982,N,11717.40273284,W,2,13,0.9,7.457,M,-36.240,M,6.0,0135*6D
$PYRTM,2024,121.667303400208,12.776950810347
$GNHDT,285.486,T*2E
$PYRTM,2024,121.667309129560,12.776956539699
$GNGGA,160055.50,3237.26771878,N,11717.40390858,W,2,13,0.9,7.758,M,-36.240,M,6.4,0135*6F
$PYRTM,2024,121.667309129560,12.776956539699
$GNHDT,285.726,T*27
$PYRTM,2024,121.667314974537,12.776962384676
$GNGGA,160056.00,3237.26806366,N,11717.40510628,W,2,13,0.9,7.911,M,-36.240,M,7.0,0135*63
$PYRTM,2024,121.667314974537,12.776962384676
$GNHDT,285.772,T*26
$PYRTM,2024,121.667320702153,12.776968112292
$GNGGA,160056.50,3237.26841502,N,11717.40634751,W,2,13,0.9,7.813,M,-36.240,M,7.4,0135*6C
$PYRTM,2024,121.667320702153,12.776968112292
$GNHDT,285.866,T*2C
$PYRTM,2024,121.667326550903,12.776973961053
$GNGGA,160057.00,3237.26875644,N,11717.40761678,W,2,13,0.9,7.502,M,-36.240,M,7.0,0135*6C
$PYRTM,2024,121.667326550903,12.776973961053
$GNHDT,285.714,T*26
$PYRTM,2024,121.667332276204,12.776979686343
$GNGGA,160057.50,3237.26906394,N,11717.40891009,W,2,13,0.9,7.054,M,-36.240,M,7.4,0135*66
$PYRTM,2024,121.667332276204,12.776979686343
$GNHDT,285.632,T*23
$PYRTM,2024,121.667338118958,12.776985529097
$GNGGA,160058.00,3237.26932762,N,11717.41022754,W,2,13,0.9,6.556,M,-36.241,M,7.0,0135*6B
$PYRTM,2024,121.667338118958,12.776985529097
$GNHDT,285.553,T*27
$PYRTM,2024,121.667343865949,12.776991276088
$GNGGA,160058.50,3237.26957229,N,11717.41154172,W,2,13,0.9,6.146,M,-36.241,M,7.4,0135*64
$PYRTM,2024,121.667343865949,12.776991276088
$GNHDT,285.051,T*20
$PYRTM,2024,121.667349690243,12.776997100382
$GNGGA,160059.00,3237.26982327,N,11717.41283188,W,2,13,0.9,6.002,M,-36.241,M,4.0,0135*6D
$PYRTM,2024,121.667349690243,12.776997100382
$GNHDT,284.912,T*2F
$PYRTM,2024,121.667355429525,12.777002839664
$GNGGA,160059.50,3237.27009957,N,11717.41405233,W,2,13,0.9,6.126,M,-36.241,M,4.4,0135*66
$PYRTM,2024,121.667355429525,12.777002839664
$GNHDT,285.453,T*26
$PYRTM,2024,121.667361277697,12.777008687836
$GNGGA,160100.00,3237.27040621,N,11717.41523227,W,2,13,0.9,6.448,M,-36.241,M,5.0,0135*65
$PYRTM,2024,121.667361277697,12.777008687836
$GNHDT,285.244,T*26
$PYRTM,2024,121.667367001563,12.777014411701
$GNGGA,160100.50,3237.27074584,N,11717.41642121,W,2,13,0.9,6.864,M,-36.241,M,5.4,0135*6C
$PYRTM,2024,121.667367001563,12.777014411701
$GNHDT,285.264,T*24
$PYRTM,2024,121.667372841111,12.777020251262
$GNGGA,160101.00,3237.27110557,N,11717.41765061,W,2,13,0.9,7.221,M,-36.241,M,6.0,0135*69
$PYRTM,2024,121.667372841111,12.777020251262
$GNHDT,285.254,T*27
$PYRTM,2024,121.667378578727,12.777025988866
$GNGGA,160101.50,3237.27146854,N,11717.41892072,W,2,13,0.9,7.432,M,-36.241,M,6.4,0135*64
$PYRTM,2024,121.667378578727,12.777025988866
$GNHDT,285.118,T*2C
$PYRTM,2024,121.667384412975,12.777031823113
$GNGGA,160102.00,3237.27181582,N,11717.42021245,W,2,13,0.9,7.465,M,-36.241,M,7.0,0135*6D
$PYRTM,2024,121.667384412975,12.777031823113
$GNHDT,284.811,T*2D
$PYRTM,2024,121.667390148681,12.777037558819
$GNGGA,160102.50,3237.27212947,N,11717.42152314,W,2,13,0.9,7.352,M,-36.242,M,7.4,0135*60
$PYRTM,2024,121.667390148681,12.777037558819
$GNHDT,285.285,T*2B
$PYRTM,2024,121.667395987859,12.777043397998
$GNGGA,160103.00,3237.27240329,N,11717.42284830,W,2,13,0.9,7.138,M,-36.242,M,7.0,0135*6E
$PYRTM,2024,121.667395987859,12.777043397998
$GNHDT,285.147,T*26
$PYRTM,2024,121.667401719664,12.777049129815
$GNGGA,160103.50,3237.27264937,N,11717.42417389,W,2,13,0.9,6.904,M,-36.242,M,7.4,0135*6F
$PYRTM,2024,121.667401719664,12.777049129815
$GNHDT,284.770,T*25
$PYRTM,2024,121.667407572269,12.777054982407
$GNGGA,160104.00,3237.27288918,N,11717.42547138,W,2,13,0.9,6.750,M,-36.242,M,7.0,0135*65
$PYRTM,2024,121.667407572269,12.777054982407
$GNHDT,284.901,T*2D
$PYRTM,2024,121.667413293831,12.777060703970
$GNGGA,160104.50,3237.27315393,N,11717.42670910,W,2,13,0.9,6.749,M,-36.242,M,7.4,0135*65
$PYRTM,2024,121.667413293831,12.777060703970
$GNHDT,285.076,T*25
$PYRTM,2024,121.667419136528,12.777066546667
$GNGGA,160105.00,3237.27346218,N,11717.42787267,W,2,13,0.9,6.913,M,-36.242,M,4.0,0135*61
$PYRTM,2024,121.667419136528,12.777066546667
$GNHDT,285.465,T*23
$PYRTM,2024,121.667424872384,12.777072282523
$GNGGA,160105.50,3237.27382513,N,11717.42899385,W,2,13,0.9,7.175,M,-36.242,M,4.4,0135*60
$PYRTM,2024,121.667424872384,12.777072282523
$GNHDT,285.758,T*2E
$PYRTM,2024,121.667430716319,12.777078126458
$GNGGA,160106.00,3237.27423233,N,11717.43013270,W,2,13,0.9,7.404,M,-36.242,M,5.0,0135*69
$PYRTM,2024,121.667430716319,12.777078126458
$GNHDT,285.654,T*23
$PYRTM,2024,121.667436444363,12.777083854502
$GNGGA,160106.50,3237.27465083,N,11717.43137210,W,2,13,0.9,7.442,M,-36.242,M,5.4,0135*60
$PYRTM,2024,121.667436444363,12.777083854502
$GNHDT,285.558,T*2C
$PYRTM,2024,121.667442292396,12.777089702535
$GNGGA,160107.00,3237.27505013,N,11717.43270844,W,2,13,0.9,7.239,M,-36.242,M,6.0,0135*6C
$PYRTM,2024,121.667442292396,12.777089702535
$GNHDT,285.575,T*23
$PYRTM,2024,121.667448018090,12.777095428229
$GNGGA,160107.50,3237.27538997,N,11717.43408274,W,2,13,0.9,6.891,M,-36.242,M,6.4,0135*6F
$PYRTM,2024,121.667448018090,12.777095428229
$GNHDT,285.395,T*2B
$PYRTM,2024,121.667453860810,12.777101270949
$GNGGA,160108.00,3237.27566365,N,11717.43542433,W,2,13,0.9,6.585,M,-36.242,M,7.0,0135*6E
$PYRTM,2024,121.667453860810,12.777101270949
$GNHDT,285.251,T*22
$PYRTM,2024,121.667459590417,12.777107000556
$GNGGA,160108.50,3237.27588957,N,11717.43668298,W,2,13,0.9,6.512,M,-36.242,M,7.4,0135*66
$PYRTM,2024,121.667459590417,12.777107000556
$GNHDT,285.432,T*21
$PYRTM,2024,121.667465437928,12.777112848067
$GNGGA,160109.00,3237.27610818,N,11717.43784901,W,2,13,0.9,6.724,M,-36.242,M,7.0,0135*61
$PYRTM,2024,121.667465437928,12.777112848067
$GNHDT,285.765,T*20
$PYRTM,2024,121.667471169306,12.777118579444
$GNGGA,160109.50,3237.27636654,N,11717.43896705,W,2,13,0.9,7.084,M,-36.243,M,7.4,0135*69
$PYRTM,2024,121.667471169306,12.777118579444
$GNHDT,285.824,T*2A
$PYRTM,2024,121.667477008542,12.777124418681
$GNGGA,160110.00,3237.27667335,N,11717.44009096,W,2,13,0.9,7.458,M,-36.243,M,7.0,0135*67
$PYRTM,2024,121.667477008542,12.777124418681
$GNHDT,285.690,T*2B
$PYRTM,2024,121.667482740451,12.777130150590
$GNGGA,160110.50,3237.27703635,N,11717.44129901,W,2,13,0.9,7.603,M,-36.243,M,7.4,0135*68
$PYRTM,2024,121.667482740451,12.777130150590
$GNHDT,285.582,T*2B
$PYRTM,2024,121.667488581227,12.777135991366
$GNGGA,160111.00,3237.27742753,N,11717.44256319,W,2,13,0.9,7.486,M,-36.243,M,4.0,0135*68
$PYRTM,2024,121.667488581227,12.777135991366
$GNHDT,285.435,T*26
$PYRTM,2024,121.667494319606,12.777141729745
$GNGGA,160111.50,3237.27782021,N,11717.44385150,W,2,13,0.9,7.164,M,-36.243,M,4.4,0135*6E
$PYRTM,2024,121.667494319606,12.777141729745
$GNHDT,285.571,T*27
$PYRTM,2024,121.667500160150,12.777147570289
$GNGGA,160112.00,3237.27819032,N,11717.44512376,W,2,13,0.9,6.763,M,-36.243,M,5.0,0135*6C
$PYRTM,2024,121.667500160150,12.777147570289
$GNHDT,285.658,T*2F
$PYRTM,2024,121.667505891262,12.777153301400
$GNGGA,160112.50,3237.27852765,N,11717.44637345,W,2,13,0.9,6.471,M,-36.243,M,5.4,0135*63
$PYRTM,2024,121.667505891262,12.777153301400
$GNHDT,285.561,T*26
$PYRTM,2024,121.667511731597,12.777159141736
$GNGGA,160113.00,3237.27883110,N,11717.44759511,W,2,13,0.9,6.406,M,-36.243,M,6.0,0135*66
$PYRTM,2024,121.667511731597,12.777159141736
$GNHDT,285.629,T*29
$PYRTM,2024,121.667517466042,12.777164876192
$GNGGA,160113.50,3237.27911639,N,11717.44878888,W,2,13,0.9,6.571,M,-36.243,M,6.4,0135*61
$PYRTM,2024,121.667517466042,12.777164876192
$GNHDT,285.676,T*23
$PYRTM,2024,121.667523308773,12.777170718912
$GNGGA,160114.00,3237.27939385,N,11717.44997907,W,2,13,0.9,6.887,M,-36.243,M,7.0,0135*6C
$PYRTM,2024,121.667523308773,12.777170718912
$GNHDT,285.727,T*26
$PYRTM,2024,121.667529040324,12.777176450463
$GNGGA,160114.50,3237.27968918,N,11717.45121219,W,2,13,0.9,7.181,M,-36.243,M,7.4,0135*69
$PYRTM,2024,121.667529040324,12.777176450463
$GNHDT,285.959,T*21
$PYRTM,2024,121.667534880590,12.777182290729
$GNGGA,160115.00,3237.28000004,N,11717.45249683,W,2,13,0.9,7.342,M,-36.243,M,7.0,0135*62
$PYRTM,2024,121.667534880590,12.777182290729
$GNHDT,285.666,T*22
$PYRTM,2024,121.667540614699,12.777188024850
$GNGGA,160115.50,3237.28033245,N,11717.45379986,W,2,13,0.9,7.348,M,-36.243,M,7.4,0135*66
$PYRTM,2024,121.667540614699,12.777188024850
$GNHDT,285.425,T*27
$PYRTM,2024,121.667546456319,12.777193866458
$GNGGA,160116.00,3237.28068111,N,11717.45509264,W,2,13,0.9,7.247,M,-36.243,M,7.0,0135*60
$PYRTM,2024,121.667546456319,12.777193866458
$GNHDT,285.272,T*23
$PYRTM,2024,121.667552183785,12.777199593924
$GNGGA,160116.50,3237.28103263,N,11717.45635232,W,2,13,0.9,7.139,M,-36.244,M,7.4,0135*69
$PYRTM,2024,121.667552183785,12.777199593924
$GNHDT,285.268,T*28
$PYRTM,2024,121.667558025012,12.777205435150
$GNGGA,160117.00,3237.28137786,N,11717.45758127,W,2,13,0.9,7.084,M,-36.244,M,4.0,0135*69
$PYRTM,2024,121.667558025012,12.777205435150
$GNHDT,285.292,T*2D
$PYRTM,2024,121.667563764468,12.777211174618
$GNGGA,160117.50,3237.28170917,N,11717.45878581,W,2,13,0.9,7.096,M,-36.244,M,4.4,0135*6B
$PYRTM,2024,121.667563764468,12.777211174618
$GNHDT,285.236,T*23
$PYRTM,2024,121.667569601620,12.777217011759
$GNGGA,160118.00,3237.28203298,N,11717.45998336,W,2,13,0.9,7.155,M,-36.244,M,5.0,0135*64
$PYRTM,2024,121.667569601620,12.777217011759
$GNHDT,285.182,T*2F
$PYRTM,2024,121.667575333785,12.777222743924
$GNGGA,160118.50,3237.28235645,N,11717.46118414,W,2,13,0.9,7.216,M,-36.244,M,5.4,0135*64
$PYRTM,2024,121.667575333785,12.777222743924
$GNHDT,285.425,T*27
$PYRTM,2024,121.667581174630,12.777228584769
$GNGGA,160119.00,3237.28268208,N,11717.46240452,W,2,13,0.9,7.240,M,-36.244,M,6.0,0135*6D
$PYRTM,2024,121.667581174630,12.777228584769
$GNHDT,285.614,T*27
$PYRTM,2024,121.667586905312,12.777234315451
$GNGGA,160119.50,3237.28301130,N,11717.46366404,W,2,13,0.9,7.168,M,-36.244,M,6.4,0135*65
$PYRTM,2024,121.667586905312,12.777234315451
$GNHDT,285.170,T*22
$PYRTM,2024,121.667592753900,12.777240164051
$GNGGA,160120.00,3237.28333912,N,11717.46496102,W,2,13,0.9,6.988,M,-36.244,M,7.0,0135*6A
$PYRTM,2024,121.667592753900,12.777240164051
$GNHDT,284.998,T*2D
$PYRTM,2024,121.667598485567,12.777245895706
$GNGGA,160120.50,3237.28365898,N,11717.46626838,W,2,13,0.9,6.798,M,-36.244,M,7.4,0135*6D
$PYRTM,2024,121.667598485567,12.777245895706
$GNHDT,284.808,T*25
$PYRTM,2024,121.667604331586,12.777251741725
$GNGGA,160121.00,3237.28396359,N,11717.46754828,W,2,13,0.9,6.684,M,-36.245,M,7.0,0135*6F
$PYRTM,2024,121.667604331586,12.777251741725
$GNHDT,284.652,T*24
$PYRTM,2024,121.667610060174,12.777257470313
$GNGGA,160121.50,3237.28426730,N,11717.46877030,W,2,13,0.9,6.745,M,-36.245,M,7.4,0135*6A
$PYRTM,2024,121.667610060174,12.777257470313
$GNHDT,285.008,T*2C
$PYRTM,2024,121.667615903947,12.777263314086
$GNGGA,160122.00,3237.28458828,N,11717.46993639,W,2,13,0.9,6.984,M,-36.245,M,7.0,0135*60
$PYRTM,2024,121.667615903947,12.777263314086
$GNHDT,285.167,T*24
$PYRTM,2024,121.667621634699,12.777269044838
$GNGGA,160122.50,3237.28495242,N,11717.47109614,W,2,13,0.9,7.285,M,-36.245,M,7.4,0135*68
$PYRTM,2024,121.667621634699,12.777269044838
$GNHDT,285.094,T*29
$PYRTM,2024,121.667627473264,12.777274883403
$GNGGA,160123.00,3237.28533507,N,11717.47229085,W,2,13,0.9,7.526,M,-36.245,M,4.0,0135*61
$PYRTM,2024,121.667627473264,12.777274883403
$GNHDT,285.065,T*27
$PYRTM,2024,121.667633205127,12.777280615266
$GNGGA,160123.50,3237.28571051,N,11717.47354162,W,2,13,0.9,7.595,M,-36.245,M,4.4,0135*6B
$PYRTM,2024,121.667633205127,12.777280615266
$GNHDT,284.762,T*26
$PYRTM,2024,121.667639046296,12.777286456435
$GNGGA,160124.00,3237.28605848,N,11717.47483571,W,2,13,0.9,7.466,M,-36.245,M,5.0,0135*6A
$PYRTM,2024,121.667639046296,12.777286456435
$GNHDT,284.421,T*22
$PYRTM,2024,121.667644776898,12.777292187037
$GNGGA,160124.50,3237.28636480,N,11717.47613577,W,2,13,0.9,7.242,M,-36.245,M,5.4,0135*6E
$PYRTM,2024,121.667644776898,12.777292187037
$GNHDT,284.577,T*20
$PYRTM,2024,121.667650626030,12.777298036169
$GNGGA,160125.00,3237.28664370,N,11717.47742215,W,2,13,0.9,7.020,M,-36.245,M,6.0,0135*62
$PYRTM,2024,121.667650626030,12.777298036169
$GNHDT,284.461,T*26
$PYRTM,2024,121.667656351505,12.777303761644
$GNGGA,160125.50,3237.28690941,N,11717.47867591,W,2,13,0.9,6.876,M,-36.245,M,6.4,0135*69
$PYRTM,2024,121.667656351505,12.777303761644
$GNHDT,284.300,T*26
$PYRTM,2024,121.667662199016,12.777309609155
$GNGGA,160126.00,3237.28717077,N,11717.47990312,W,2,13,0.9,6.851,M,-36.245,M,7.0,0135*69
$PYRTM,2024,121.667662199016,12.777309609155
$GNHDT,284.357,T*24
$PYRTM,2024,121.667667928345,12.777315338484
$GNGGA,160126.50,3237.28744717,N,11717.48111796,W,2,13,0.9,6.899,M,-36.245,M,7.4,0135*6D
$PYRTM,2024,121.667667928345,12.777315338484
$GNHDT,284.223,T*26
$PYRTM,2024,121.667673769769,12.777321179907
$GNGGA,160127.00,3237.28774034,N,11717.48234839,W,2,13,0.9,6.942,M,-36.245,M,7.0,0135*61
$PYRTM,2024,121.667673769769,12.777321179907
$GNHDT,284.135,T*22
$PYRTM,2024,121.667679498345,12.777326908484
$GNGGA,160127.50,3237.28806211,N,11717.48361219,W,2,13,0.9,6.923,M,-36.245,M,7.4,0135*61
$PYRTM,2024,121.667679498345,12.777326908484
$GNHDT,284.240,T*23
$PYRTM,2024,121.667685341493,12.777332751632
$GNGGA,160128.00,3237.28840288,N,11717.48491741,W,2,13,0.9,6.794,M,-36.246,M,7.0,0135*6C
$PYRTM,2024,121.667685341493,12.777332751632
$GNHDT,284.311,T*26
$PYRTM,2024,121.667691072650,12.777338482789
$GNGGA,160128.50,3237.28873486,N,11717.48623640,W,2,13,0.9,6.650,M,-36.246,M,7.4,0135*67
$PYRTM,2024,121.667691072650,12.777338482789
$GNHDT,284.291,T*2F
$PYRTM,2024,121.667696919259,12.777344329398
$GNGGA,160129.00,3237.28904464,N,11717.48754470,W,2,13,0.9,6.578,M,-36.246,M,4.0,0135*60
$PYRTM,2024,121.667696919259,12.777344329398
$GNHDT,284.131,T*26
$PYRTM,2024,121.667702647928,12.777350058067
$GNGGA,160129.50,3237.28932594,N,11717.48882396,W,2,13,0.9,6.645,M,-36.246,M,4.4,0135*6C
$PYRTM,2024,121.667702647928,12.777350058067
$GNHDT,283.960,T*2D
$PYRTM,2024,121.667708492558,12.777355902708
$GNGGA,160130.00,3237.28958789,N,11717.49007227,W,2,13,0.9,6.860,M,-36.246,M,5.0,0135*60
$PYRTM,2024,121.667708492558,12.777355902708
$GNHDT,283.932,T*2A
$PYRTM,2024,121.667714235370,12.777361645509
$GNGGA,160130.50,3237.28984932,N,11717.49129673,W,2,13,0.9,7.156,M,-36.246,M,5.4,0135*6B
$PYRTM,2024,121.667714235370,12.777361645509
$GNHDT,284.184,T*28
$PYRTM,2024,121.667720063981,12.777367474120
$GNGGA,160131.00,3237.29013698,N,11717.49251216,W,2,13,0.9,7.450,M,-36.246,M,6.0,0135*69
$PYRTM,2024,121.667720063981,12.777367474120
$GNHDT,284.163,T*21
$PYRTM,2024,121.667725799502,12.777373209653
$GNGGA,160131.50,3237.29046343,N,11717.49373809,W,2,13,0.9,7.622,M,-36.246,M,6.4,0135*69
$PYRTM,2024,121.667725799502,12.777373209653
$GNHDT,283.883,T*21
$PYRTM,2024,121.667731637685,12.777379047836
$GNGGA,160132.00,3237.29081484,N,11717.49498391,W,2,13,0.9,7.636,M,-36.246,M,7.0,0135*60
$PYRTM,2024,121.667731637685,12.777379047836
$GNHDT,283.873,T*2E
$PYRTM,2024,121.667737376192,12.777384786331
$GNGGA,160132.50,3237.29118313,N,11717.49623979,W,2,13,0.9,7.504,M,-36.246,M,7.4,0135*65
$PYRTM,2024,121.667737376192,12.777384786331
$GNHDT,283.763,T*20
$PYRTM,2024,121.667743213032,12.777390623171
$GNGGA,160133.00,3237.29155649,N,11717.49748990,W,2,13,0.9,7.259,M,-36.246,M,7.0,0135*62
$PYRTM,2024,121.667743213032,12.777390623171
$GNHDT,283.890,T*23
$PYRTM,2024,121.667748948495,12.777396358634
$GNGGA,160133.50,3237.29191140,N,11717.49875110,W,2,13,0.9,7.031,M,-36.246,M,7.4,0135*68
$PYRTM,2024,121.667748948495,12.777396358634
$GNHDT,283.983,T*20
$PYRTM,2024,121.667754783623,12.777402193773
$GNGGA,160134.00,3237.29223082,N,11717.50001814,W,2,13,0.9,6.859,M,-36.246,M,7.0,0135*62
$PYRTM,2024,121.667754783623,12.777402193773
$GNHDT,283.887,T*25
$PYRTM,2024,121.667760519884,12.777407930023
$GNGGA,160134.50,3237.29249935,N,11717.50127672,W,2,13,0.9,6.813,M,-36.246,M,7.4,0135*6F
$PYRTM,2024,121.667760519884,12.777407930023
$GNHDT,283.647,T*27
$PYRTM,2024,121.667766364051,12.777413774190
$GNGGA,160135.00,3237.29273036,N,11717.50250858,W,2,13,0.9,6.939,M,-36.247,M,4.0,0135*62
$PYRTM,2024,121.667766364051,12.777413774190
$GNHDT,283.791,T*2D
$PYRTM,2024,121.667772093669,12.777419503808
$GNGGA,160135.50,3237.29296152,N,11717.50370987,W,2,13,0.9,7.174,M,-36.247,M,4.4,0135*6B
$PYRTM,2024,121.667772093669,12.777419503808
$GNHDT,283.576,T*26
$PYRTM,2024,121.667777932211,12.777425342350
$GNGGA,160136.00,3237.29322703,N,11717.50491574,W,2,13,0.9,7.417,M,-36.247,M,5.0,0135*6C
$PYRTM,2024,121.667777932211,12.777425342350
$GNHDT,283.618,T*2D
$PYRTM,2024,121.667783667419,12.777431077569
$GNGGA,160136.50,3237.29354363,N,11717.50615264,W,2,13,0.9,7.530,M,-36.247,M,5.4,0135*62
$PYRTM,2024,121.667783667419,12.777431077569
$GNHDT,283.410,T*27
$PYRTM,2024,121.667789514167,12.777436924306
$GNGGA,160137.00,3237.29388920,N,11717.50745286,W,2,13,0.9,7.424,M,-36.247,M,6.0,0135*61
$PYRTM,2024,121.667789514167,12.777436924306
$GNHDT,283.483,T*2D
$PYRTM,2024,121.667795240683,12.777442650822
$GNGGA,160137.50,3237.29422338,N,11717.50878427,W,2,13,0.9,7.131,M,-36.247,M,6.4,0135*69
$PYRTM,2024,121.667795240683,12.777442650822
$GNHDT,283.108,T*2B
$PYRTM,2024,121.667801086377,12.777448496516
$GNGGA,160138.00,3237.29452217,N,11717.51013641,W,2,13,0.9,6.700,M,-36.247,M,7.0,0135*6E
$PYRTM,2024,121.667801086377,12.777448496516
$GNHDT,283.031,T*20
$PYRTM,2024,121.667806815174,12.777454225312
$GNGGA,160138.50,3237.29476838,N,11717.51146758,W,2,13,0.9,6.335,M,-36.247,M,7.4,0135*64
$PYRTM,2024,121.667806815174,12.777454225312
$GNHDT,283.320,T*23
$PYRTM,2024,121.667812659236,12.777460069375
$GNGGA,160139.00,3237.29497810,N,11717.51271915,W,2,13,0.9,6.238,M,-36.247,M,7.0,0135*6D
$PYRTM,2024,121.667812659236,12.777460069375
$GNHDT,283.373,T*25
$PYRTM,2024,121.667818396690,12.777465806829
$GNGGA,160139.50,3237.29519401,N,11717.51389380,W,2,13,0.9,6.418,M,-36.247,M,7.4,0135*63
$PYRTM,2024,121.667818396690,12.777465806829
$GNHDT,283.782,T*2F
$PYRTM,2024,121.667824233588,12.777471643727
$GNGGA,160140.00,3237.29543939,N,11717.51501005,W,2,13,0.9,6.819,M,-36.248,M,7.0,0135*6F
$PYRTM,2024,121.667824233588,12.777471643727
$GNHDT,284.091,T*2D
$PYRTM,2024,121.667829967986,12.777477378125
$GNGGA,160140.50,3237.29573446,N,11717.51615928,W,2,13,0.9,7.227,M,-36.248,M,7.4,0135*6E
$PYRTM,2024,121.667829967986,12.777477378125
$GNHDT,283.957,T*29
$PYRTM,2024,121.667835806910,12.777483217060
$GNGGA,160141.00,3237.29607066,N,11717.51743157,W,2,13,0.9,7.359,M,-36.248,M,4.0,0135*61
$PYRTM,2024,121.667835806910,12.777483217060
$GNHDT,284.011,T*25
$PYRTM,2024,121.667841540336,12.777488950475
$GNGGA,160141.50,3237.29641459,N,11717.51880390,W,2,13,0.9,7.149,M,-36.248,M,4.4,0135*60
$PYRTM,2024,121.667841540336,12.777488950475
$GNHDT,283.798,T*24
$PYRTM,2024,121.667847382639,12.777494792778
$GNGGA,160142.00,3237.29674485,N,11717.52017972,W,2,13,0.9,6.760,M,-36.248,M,5.0,0135*6B
$PYRTM,2024,121.667847382639,12.777494792778
$GNHDT,283.590,T*2E
$PYRTM,2024,121.667853112847,12.777500522986
$GNGGA,160142.50,3237.29702824,N,11717.52151465,W,2,13,0.9,6.427,M,-36.248,M,5.4,0135*65
$PYRTM,2024,121.667853112847,12.777500522986
$GNHDT,283.611,T*24
$PYRTM,2024,121.667858953889,12.777506364028
$GNGGA,160143.00,3237.29725422,N,11717.52276396,W,2,13,0.9,6.349,M,-36.248,M,6.0,0135*6B
$PYRTM,2024,121.667858953889,12.777506364028
$GNHDT,283.668,T*2A
$PYRTM,2024,121.667864691250,12.777512101389
$GNGGA,160143.50,3237.29746037,N,11717.52395061,W,2,13,0.9,6.567,M,-36.248,M,6.4,0135*62
$PYRTM,2024,121.667864691250,12.777512101389
$GNHDT,283.319,T*29
$PYRTM,2024,121.667870528229,12.777517938380
$GNGGA,160144.00,3237.29768251,N,11717.52508754,W,2,13,0.9,6.978,M,-36.248,M,7.0,0135*6A
$PYRTM,2024,121.667870528229,12.777517938380
$GNHDT,283.191,T*2B
$PYRTM,2024,121.667876260775,12.777523670914
$GNGGA,160144.50,3237.29796320,N,11717.52622233,W,2,13,0.9,7.418,M,-36.248,M,7.4,0135*68
$PYRTM,2024,121.667876260775,12.777523670914
$GNHDT,283.729,T*2E
$PYRTM,2024,121.667882099306,12.777529509444
$GNGGA,160145.00,3237.29830054,N,11717.52737766,W,2,13,0.9,7.757,M,-36.248,M,7.0,0135*63
$PYRTM,2024,121.667882099306,12.777529509444
$GNHDT,283.704,T*21
$PYRTM,2024,121.667887833750,12.777535243889
$GNGGA,160145.50,3237.29866332,N,11717.52858737,W,2,13,0.9,7.816,M,-36.248,M,7.4,0135*6A
$PYRTM,2024,121.667887833750,12.777535243889
$GNHDT,283.773,T*21
$PYRTM,2024,121.667893679977,12.777541090116
$GNGGA,160146.00,3237.29901925,N,11717.52984484,W,2,13,0.9,7.629,M,-36.248,M,7.0,0135*6D
$PYRTM,2024,121.667893679977,12.777541090116
$GNHDT,283.845,T*2B
$PYRTM,2024,121.667899414699,12.777546824838
$GNGGA,160146.50,3237.29934947,N,11717.53110914,W,2,13,0.9,7.314,M,-36.248,M,7.4,0135*65
$PYRTM,2024,121.667899414699,12.777546824838
$GNHDT,283.897,T*24
$PYRTM,2024,121.667905256169,12.777552666319
$GNGGA,160147.00,3237.29962751,N,11717.53235452,W,2,13,0.9,6.982,M,-36.249,M,4.0,0135*62
$PYRTM,2024,121.667905256169,12.777552666319
$GNHDT,283.930,T*28
$PYRTM,2024,121.667910981736,12.777558391875
$GNGGA,160147.50,3237.29984419,N,11717.53358513,W,2,13,0.9,6.769,M,-36.249,M,4.4,0135*61
$PYRTM,2024,121.667910981736,12.777558391875
$GNHDT,283.749,T*28
$PYRTM,2024,121.667916824306,12.777564234444
$GNGGA,160148.00,3237.30000960,N,11717.53480040,W,2,13,0.9,6.725,M,-36.249,M,5.0,0135*69
$PYRTM,2024,121.667916824306,12.777564234444
$GNHDT,283.650,T*21
$PYRTM,2024,121.667922555949,12.777569966088
$GNGGA,160148.50,3237.30016404,N,11717.53601671,W,2,13,0.9,6.819,M,-36.249,M,5.4,0135*6F
$PYRTM,2024,121.667922555949,12.777569966088
$GNHDT,283.410,T*27
$PYRTM,2024,121.667928403900,12.777575814039
$GNGGA,160149.00,3237.30033694,N,11717.53724182,W,2,13,0.9,6.938,M,-36.249,M,6.0,0135*6F
$PYRTM,2024,121.667928403900,12.777575814039
$GNHDT,283.334,T*26
$PYRTM,2024,121.667934128634,12.777581538773
$GNGGA,160149.50,3237.30055880,N,11717.53850305,W,2,13,0.9,6.973,M,-36.249,M,6.4,0135*6B
$PYRTM,2024,121.667934128634,12.777581538773
$GNHDT,283.164,T*21
$PYRTM,2024,121.667939970532,12.777587380683
$GNGGA,160150.00,3237.30083199,N,11717.53979764,W,2,13,0.9,6.896,M,-36.249,M,7.0,0135*6A
$PYRTM,2024,121.667939970532,12.777587380683
$GNHDT,283.083,T*29
$PYRTM,2024,121.667945706111,12.777593116250
$GNGGA,160150.50,3237.30115336,N,11717.54108561,W,2,13,0.9,6.753,M,-36.249,M,7.4,0135*6A
$PYRTM,2024,121.667945706111,12.777593116250
$GNHDT,283.170,T*24
$PYRTM,2024,121.667951545428,12.777598955567
$GNGGA,160151.00,3237.30149667,N,11717.54234634,W,2,13,0.9,6.623,M,-36.249,M,7.0,0135*6B
$PYRTM,2024,121.667951545428,12.777598955567
$GNHDT,283.172,T*26
$PYRTM,2024,121.667957276887,12.777604687037
$GNGGA,160151.50,3237.30183526,N,11717.54357760,W,2,13,0.9,6.578,M,-36.250,M,7.4,0135*6B
$PYRTM,2024,121.667957276887,12.777604687037
$GNHDT,283.036,T*27
$PYRTM,2024,121.667963118171,12.777610528310
$GNGGA,160152.00,3237.30214164,N,11717.54480397,W,2,13,0.9,6.632,M,-36.250,M,7.0,0135*6A
$PYRTM,2024,121.667963118171,12.777610528310
$GNHDT,283.009,T*2B
$PYRTM,2024,121.667968852604,12.777616262743
$GNGGA,160152.50,3237.30240952,N,11717.54605319,W,2,13,0.9,6.748,M,-36.250,M,7.4,0135*62
$PYRTM,2024,121.667968852604,12.777616262743
$GNHDT,283.138,T*28
$PYRTM,2024,121.667974697211,12.777622107350
$GNGGA,160153.00,3237.30262626,N,11717.54733186,W,2,13,0.9,6.902,M,-36.250,M,4.0,0135*6D
$PYRTM,2024,121.667974697211,12.777622107350
$GNHDT,283.279,T*2E
$PYRTM,2024,121.667980427951,12.777627838090
$GNGGA,160153.50,3237.30279508,N,11717.54862910,W,2,13,0.9,7.062,M,-36.250,M,4.4,0135*6B
$PYRTM,2024,121.667980427951,12.777627838090
$GNHDT,282.925,T*2D
$PYRTM,2024,121.667986268889,12.777633679028
$GNGGA,160154.00,3237.30294243,N,11717.54990154,W,2,13,0.9,7.245,M,-36.250,M,5.0,0135*64
$PYRTM,2024,121.667986268889,12.777633679028
$GNHDT,282.871,T*2D
$PYRTM,2024,121.667992000278,12.777639410417
$GNGGA,160154.50,3237.30311292,N,11717.55112078,W,2,13,0.9,7.462,M,-36.250,M,5.4,0135*6A
$PYRTM,2024,121.667992000278,12.777639410417
$GNHDT,283.057,T*20
$PYRTM,2024,121.667997838287,12.777645248426
$GNGGA,160155.00,3237.30333798,N,11717.55230178,W,2,13,0.9,7.652,M,-36.250,M,6.0,0135*65
$PYRTM,2024,121.667997838287,12.777645248426
$GNHDT,283.082,T*28
$PYRTM,2024,121.668003574595,12.777650984734
$GNGGA,160155.50,3237.30363219,N,11717.55350231,W,2,13,0.9,7.690,M,-36.250,M,6.4,0135*6A
$PYRTM,2024,121.668003574595,12.777650984734
$GNHDT,283.119,T*2B
$PYRTM,2024,121.668009420775,12.777656830914
$GNGGA,160156.00,3237.30397712,N,11717.55475355,W,2,13,0.9,7.522,M,-36.250,M,7.0,0135*65
$PYRTM,2024,121.668009420775,12.777656830914
$GNHDT,283.282,T*2A
$PYRTM,2024,121.668015145856,12.777662555995
$GNGGA,160156.50,3237.30433287,N,11717.55603166,W,2,13,0.9,7.167,M,-36.250,M,7.4,0135*60
$PYRTM,2024,121.668015145856,12.777662555995
$GNHDT,283.335,T*27
$PYRTM,2024,121.668020990602,12.777668400741
$GNGGA,160157.00,3237.30465300,N,11717.55731530,W,2,13,0.9,6.776,M,-36.250,M,7.0,0135*6D
$PYRTM,2024,121.668020990602,12.777668400741
$GNHDT,283.288,T*20
$PYRTM,2024,121.668026724907,12.777674135058
$GNGGA,160157.50,3237.30490776,N,11717.55858396,W,2,13,0.9,6.469,M,-36.250,M,7.4,0135*64
$PYRTM,2024,121.668026724907,12.777674135058
$GNHDT,283.394,T*2C
$PYRTM,2024,121.668032561204,12.777679971343
$GNGGA,160158.00,3237.30509995,N,11717.55982879,W,2,13,0.9,6.371,M,-36.250,M,7.0,0135*6A
$PYRTM,2024,121.668032561204,12.777679971343
$GNHDT,283.536,T*22
$PYRTM,2024,121.668038298264,12.777685708403
$GNGGA,160158.50,3237.30526241,N,11717.56105938,W,2,13,0.9,6.479,M,-36.251,M,7.4,0135*6A
$PYRTM,2024,121.668038298264,12.777685708403
$GNHDT,283.515,T*23
$PYRTM,2024,121.668044135926,12.777691546065
$GNGGA,160159.00,3237.30543761,N,11717.56228211,W,2,13,0.9,6.731,M,-36.251,M,4.0,0135*6E
$PYRTM,2024,121.668044135926,12.777691546065
$GNHDT,283.567,T*26
$PYRTM,2024,121.668049868495,12.777697278646
$GNGGA,160159.50,3237.30565943,N,11717.56350537,W,2,13,0.9,6.997,M,-36.251,M,4.4,0135*6A
$PYRTM,2024,121.668049868495,12.777697278646
$GNHDT,283.900,T*2B
$PYRTM,2024,121.668055714144,12.777703124294
$GNGGA,160200.00,3237.30594175,N,11717.56474608,W,2,13,0.9,7.172,M,-36.251,M,5.0,0135*6A
$PYRTM,2024,121.668055714144,12.777703124294
$GNHDT,284.035,T*23
$PYRTM,2024,121.668061449317,12.777708859456
$GNGGA,160200.50,3237.30626896,N,11717.56601847,W,2,13,0.9,7.195,M,-36.251,M,5.4,0135*69
$PYRTM,2024,121.668061449317,12.777708859456
$GNHDT,284.320,T*24
$PYRTM,2024,121.668067287650,12.777714697801
$GNGGA,160201.00,3237.30661655,N,11717.56731038,W,2,13,0.9,7.044,M,-36.251,M,6.0,0135*67
$PYRTM,2024,121.668067287650,12.777714697801
$GNHDT,284.442,T*27
$PYRTM,2024,121.668073018252,12.777720428391
$GNGGA,160201.50,3237.30695472,N,11717.56859306,W,2,13,0.9,6.841,M,-36.251,M,6.4,0135*69
$PYRTM,2024,121.668073018252,12.777720428391
$GNHDT,284.251,T*23
$PYRTM,2024,121.668078861053,12.777726271204
$GNGGA,160202.00,3237.30725139,N,11717.56985593,W,2,13,0.9,6.701,M,-36.251,M,7.0,0135*6B
$PYRTM,2024,121.668078861053,12.777726271204
$GNHDT,284.099,T*25
$PYRTM,2024,121.668084590382,12.777732000521
$GNGGA,160202.50,3237.30749158,N,11717.57110345,W,2,13,0.9,6.668,M,-36.251,M,7.4,0135*61
$PYRTM,2024,121.668084590382,12.777732000521
$GNHDT,283.887,T*25
$PYRTM,2024,121.668090436933,12.777737847072
$GNGGA,160203.00,3237.30768202,N,11717.57235148,W,2,13,0.9,6.745,M,-36.251,M,7.0,0135*6B
$PYRTM,2024,121.668090436933,12.777737847072
$GNHDT,283.676,T*25
$PYRTM,2024,121.668096173333,12.777743583472
$GNGGA,160203.50,3237.30784898,N,11717.57361504,W,2,13,0.9,6.889,M,-36.251,M,7.4,0135*62
$PYRTM,2024,121.668096173333,12.777743583472
$GNHDT,284.129,T*2F
$PYRTM,2024,121.668102007870,12.777749418009
$GNGGA,160204.00,3237.30801624,N,11717.57488402,W,2,13,0.9,7.033,M,-36.251,M,7.0,0135*60
$PYRTM,2024,121.668102007870,12.777749418009
$GNHDT,284.014,T*20
$PYRTM,2024,121.668107744826,12.777755154965
$GNGGA,160204.50,3237.30822947,N,11717.57613297,W,2,13,0.9,7.143,M,-36.251,M,7.4,0135*66
$PYRTM,2024,121.668107744826,12.777755154965
$GNHDT,284.324,T*20
$PYRTM,2024,121.668113583264,12.777760993403
$GNGGA,160205.00,3237.30850271,N,11717.57737244,W,2,13,0.9,7.208,M,-36.251,M,4.0,0135*6B
$PYRTM,2024,121.668113583264,12.777760993403
$GNHDT,284.386,T*28
$PYRTM,2024,121.668119315208,12.777766725359
$GNGGA,160205.50,3237.30882969,N,11717.57862832,W,2,13,0.9,7.176,M,-36.252,M,4.4,0135*6A
$PYRTM,2024,121.668119315208,12.777766725359
$GNHDT,284.237,T*23
$PYRTM,2024,121.668125156400,12.777772566551
$GNGGA,160206.00,3237.30917724,N,11717.57991780,W,2,13,0.9,7.032,M,-36.252,M,5.0,0135*69
$PYRTM,2024,121.668125156400,12.777772566551
$GNHDT,284.072,T*20
$PYRTM,2024,121.668130888981,12.777778299120
$GNGGA,160206.50,3237.30950150,N,11717.58122244,W,2,13,0.9,6.861,M,-36.252,M,5.4,0135*63
$PYRTM,2024,121.668130888981,12.777778299120
$GNHDT,283.862,T*2E
$PYRTM,2024,121.668136729502,12.777784139641
$GNGGA,160207.00,3237.30977750,N,11717.58249142,W,2,13,0.9,6.776,M,-36.252,M,6.0,0135*61
$PYRTM,2024,121.668136729502,12.777784139641
$GNHDT,284.087,T*2A
$PYRTM,2024,121.668142459699,12.777789869838
$GNGGA,160207.50,3237.31000533,N,11717.58370636,W,2,13,0.9,6.856,M,-36.252,M,6.4,0135*6D
$PYRTM,2024,121.668142459699,12.777789869838
$GNHDT,284.238,T*2C
$PYRTM,2024,121.668148302662,12.777795712801
$GNGGA,160208.00,3237.31020950,N,11717.58490233,W,2,13,0.9,7.063,M,-36.252,M,7.0,0135*6E
$PYRTM,2024,121.668148302662,12.777795712801
$GNHDT,284.623,T*22
$PYRTM,2024,121.668154035718,12.777801445868
$GNGGA,160208.50,3237.31042229,N,11717.58612052,W,2,13,0.9,7.273,M,-36.252,M,7.4,0135*60
$PYRTM,2024,121.668154035718,12.777801445868
$GNHDT,284.314,T*23
$PYRTM,2024,121.668159875856,12.777807286007
$GNGGA,160209.00,3237.31067130,N,11717.58738903,W,2,13,0.9,7.341,M,-36.252,M,7.0,0135*68
$PYRTM,2024,121.668159875856,12.777807286007
$GNHDT,284.314,T*23
$PYRTM,2024,121.668165613924,12.777813024062
$GNGGA,160209.50,3237.31095330,N,11717.58869721,W,2,13,0.9,7.231,M,-36.252,M,7.4,0135*65
$PYRTM,2024,121.668165613924,12.777813024062
$GNHDT,284.366,T*26
$PYRTM,2024,121.668171454329,12.777818864468
$GNGGA,160210.00,3237.31125222,N,11717.59004303,W,2,13,0.9,6.934,M,-36.253,M,7.0,0135*6C
$PYRTM,2024,121.668171454329,12.777818864468
$GNHDT,284.380,T*2E
$PYRTM,2024,121.668177183461,12.777824593600
$GNGGA,160210.50,3237.31155796,N,11717.59139530,W,2,13,0.9,6.551,M,-36.253,M,7.4,0135*66
$PYRTM,2024,121.668177183461,12.777824593600
$GNHDT,284.335,T*20
$PYRTM,2024,121.668183026331,12.777830436470
$GNGGA,160211.00,3237.31186084,N,11717.59271700,W,2,13,0.9,6.228,M,-36.253,M,4.0,0135*68
$PYRTM,2024,121.668183026331,12.777830436470
$GNHDT,284.144,T*24
$PYRTM,2024,121.668188759132,12.777836169271
$GNGGA,160211.50,3237.31215828,N,11717.59397563,W,2,13,0.9,6.135,M,-36.253,M,4.4,0135*6F
$PYRTM,2024,121.668188759132,12.777836169271
$GNHDT,284.256,T*24
$PYRTM,2024,121.668194604282,12.777842014433
$GNGGA,160212.00,3237.31244295,N,11717.59515891,W,2,13,0.9,6.331,M,-36.253,M,5.0,0135*6E
$PYRTM,2024,121.668194604282,12.777842014433
$GNHDT,284.321,T*25
$PYRTM,2024,121.668200340382,12.777847750521
$GNGGA,160212.50,3237.31271999,N,11717.59631611,W,2,13,0.9,6.726,M,-36.253,M,5.4,0135*6F
$PYRTM,2024,121.668200340382,12.777847750521
$GNHDT,284.469,T*2E
$PYRTM,2024,121.668206175822,12.777853585961
$GNGGA,160213.00,3237.31299202,N,11717.59749451,W,2,13,0.9,7.164,M,-36.253,M,6.0,0135*6A
$PYRTM,2024,121.668206175822,12.777853585961
$GNHDT,284.647,T*20
$PYRTM,2024,121.668211904641,12.777859314780
$GNGGA,160213.50,3237.31325866,N,11717.59874925,W,2,13,0.9,7.468,M,-36.253,M,6.4,0135*63
$PYRTM,2024,121.668211904641,12.777859314780
$GNHDT,284.330,T*25
$PYRTM,2024,121.668217751481,12.777865161620
$GNGGA,160214.00,3237.31350922,N,11717.60005929,W,2,13,0.9,7.584,M,-36.253,M,7.0,0135*6C
$PYRTM,2024,121.668217751481,12.777865161620
$GNHDT,284.209,T*2E
$PYRTM,2024,121.668223489236,12.777870899375
$GNGGA,160214.50,3237.31373538,N,11717.60137530,W,2,13,0.9,7.548,M,-36.253,M,7.4,0135*6F
$PYRTM,2024,121.668223489236,12.777870899375
$GNHDT,284.198,T*25
$PYRTM,2024,121.668229322581,12.777876732720
$GNGGA,160215.00,3237.31394094,N,11717.60264435,W,2,13,0.9,7.447,M,-36.253,M,7.0,0135*6A
$PYRTM,2024,121.668229322581,12.777876732720
$GNHDT,284.177,T*24
$PYRTM,2024,121.668235060845,12.777882470984
$GNGGA,160215.50,3237.31415350,N,11717.60386751,W,2,13,0.9,7.375,M,-36.253,M,7.4,0135*64
$PYRTM,2024,121.668235060845,12.777882470984
$GNHDT,284.100,T*24
$PYRTM,2024,121.668240900370,12.777888310509
$GNGGA,160216.00,3237.31440604,N,11717.60506075,W,2,13,0.9,7.289,M,-36.253,M,7.0,0135*6F
$PYRTM,2024,121.668240900370,12.777888310509
$GNHDT,284.136,T*21
$PYRTM,2024,121.668246628356,12.777894038495
$GNGGA,160216.50,3237.31470325,N,11717.60625790,W,2,13,0.9,7.158,M,-36.253,M,7.4,0135*6A
$PYRTM,2024,121.668246628356,12.777894038495
$GNHDT,284.225,T*20
$PYRTM,2024,121.668252469572,12.777899879711
$GNGGA,160217.00,3237.31502801,N,11717.60748730,W,2,13,0.9,6.948,M,-36.254,M,4.0,0135*6F
$PYRTM,2024,121.668252469572,12.777899879711
$GNHDT,284.213,T*25
$PYRTM,2024,121.668258202164,12.777905612303
$GNGGA,160217.50,3237.31535639,N,11717.60875501,W,2,13,0.9,6.663,M,-36.254,M,4.4,0135*68
$PYRTM,2024,121.668258202164,12.777905612303
$GNHDT,284.228,T*2D
$PYRTM,2024,121.668264043530,12.777911453669
$GNGGA,160218.00,3237.31566414,N,11717.61005831,W,2,13,0.9,6.345,M,-36.254,M,5.0,0135*6D
$PYRTM,2024,121.668264043530,12.777911453669
$GNHDT,284.275,T*25
$PYRTM,2024,121.668269784907,12.777917195046
$GNGGA,160218.50,3237.31594470,N,11717.61140056,W,2,13,0.9,6.066,M,-36.254,M,5.4,0135*68
$PYRTM,2024,121.668269784907,12.777917195046
$GNHDT,284.449,T*2C
$PYRTM,2024,121.668275617431,12.777923027569
$GNGGA,160219.00,3237.31619441,N,11717.61276462,W,2,13,0.9,5.923,M,-36.254,M,6.0,0135*61
$PYRTM,2024,121.668275617431,12.777923027569
$GNHDT,284.146,T*26
$PYRTM,2024,121.668281351516,12.777928761655
$GNGGA,160219.50,3237.31643049,N,11717.61410891,W,2,13,0.9,5.963,M,-36.254,M,6.4,0135*61
$PYRTM,2024,121.668281351516,12.777928761655
$GNHDT,284.235,T*21
$PYRTM,2024,121.668287192836,12.777934602975
$GNGGA,160220.00,3237.31666721,N,11717.61541127,W,2,13,0.9,6.252,M,-36.254,M,7.0,0135*6E
$PYRTM,2024,121.668287192836,12.777934602975
$GNHDT,284.122,T*24
$PYRTM,2024,121.668292935197,12.777940345336
$GNGGA,160220.50,3237.31691509,N,11717.61667359,W,2,13,0.9,6.673,M,-36.254,M,7.4,0135*64
$PYRTM,2024,121.668292935197,12.777940345336
$GNHDT,283.915,T*2F
$PYRTM,2024,121.668298774109,12.777946184248
$GNGGA,160221.00,3237.31718400,N,11717.61792131,W,2,13,0.9,7.160,M,-36.254,M,7.0,0135*6F
$PYRTM,2024,121.668298774109,12.777946184248
$GNHDT,283.742,T*23
$PYRTM,2024,121.668304499433,12.777951909572
$GNGGA,160221.50,3237.31747617,N,11717.61915849,W,2,13,0.9,7.587,M,-36.255,M,7.4,0135*6B
$PYRTM,2024,121.668304499433,12.777951909572
$GNHDT,283.710,T*24
$PYRTM,2024,121.668310338438,12.777957748576
$GNGGA,160222.00,3237.31778754,N,11717.62038434,W,2,13,0.9,7.911,M,-36.255,M,7.0,0135*63
$PYRTM,2024,121.668310338438,12.777957748576
$GNHDT,283.741,T*20
$PYRTM,2024,121.668316071227,12.777963481366
$GNGGA,160222.50,3237.31810383,N,11717.62161263,W,2,13,0.9,8.041,M,-36.255,M,7.4,0135*67
$PYRTM,2024,121.668316071227,12.777963481366
$GNHDT,283.485,T*2B
$PYRTM,2024,121.668321914259,12.777969324398
$GNGGA,160223.00,3237.31839776,N,11717.62285560,W,2,13,0.9,7.954,M,-36.255,M,4.0,0135*6E
$PYRTM,2024,121.668321914259,12.777969324398
$GNHDT,283.426,T*22
$PYRTM,2024,121.668327649236,12.777975059375
$GNGGA,160223.50,3237.31866390,N,11717.62412069,W,2,13,0.9,7.704,M,-36.255,M,4.4,0135*66
$PYRTM,2024,121.668327649236,12.777975059375
$GNHDT,283.393,T*2B
$PYRTM,2024,121.668333488646,12.777980898785
$GNGGA,160224.00,3237.31888133,N,11717.62538114,W,2,13,0.9,7.393,M,-36.255,M,5.0,0135*62
$PYRTM,2024,121.668333488646,12.777980898785
$GNHDT,283.466,T*26
$PYRTM,2024,121.668339224086,12.777986634225
$GNGGA,160224.50,3237.31907576,N,11717.62663271,W,2,13,0.9,7.076,M,-36.255,M,5.4,0135*65
$PYRTM,2024,121.668339224086,12.777986634225
$GNHDT,283.557,T*25
$PYRTM,2024,121.668345066470,12.777992476609
$GNGGA,160225.00,3237.31926408,N,11717.62789889,W,2,13,0.9,6.773,M,-36.255,M,6.0,0135*66
$PYRTM,2024,121.668345066470,12.777992476609
$GNHDT,283.718,T*2C
$PYRTM,2024,121.668350795706,12.777998205845
$GNGGA,160225.50,3237.31947694,N,11717.62920412,W,2,13,0.9,6.469,M,-36.255,M,6.4,0135*6C
$PYRTM,2024,121.668350795706,12.777998205845
$GNHDT,283.746,T*27
$PYRTM,2024,121.668356640972,12.778004051111
$GNGGA,160226.00,3237.31972205,N,11717.63055915,W,2,13,0.9,6.147,M,-36.255,M,7.0,0135*6C
$PYRTM,2024,121.668356640972,12.778004051111
$GNHDT,283.606,T*22
$PYRTM,2024,121.668362378831,12.778009788970
$GNGGA,160226.50,3237.31999907,N,11717.63191920,W,2,13,0.9,5.910,M,-36.255,M,7.4,0135*67
$PYRTM,2024,121.668362378831,12.778009788970
$GNHDT,283.406,T*20
$PYRTM,2024,121.668368215058,12.778015625197
$GNGGA,160227.00,3237.32029898,N,11717.63321882,W,2,13,0.9,5.910,M,-36.255,M,7.0,0135*61
$PYRTM,2024,121.668368215058,12.778015625197
$GNHDT,283.370,T*26
$PYRTM,2024,121.668373948484,12.778021358623
$GNGGA,160227.50,3237.32060178,N,11717.63444053,W,2,13,0.9,6.184,M,-36.255,M,7.4,0135*6C
$PYRTM,2024,121.668373948484,12.778021358623
$GNHDT,284.013,T*27
$PYRTM,2024,121.668379785313,12.778027195451
$GNGGA,160228.00,3237.32090099,N,11717.63561824,W,2,13,0.9,6.670,M,-36.255,M,7.0,0135*61
$PYRTM,2024,121.668379785313,12.778027195451
$GNHDT,284.134,T*23
$PYRTM,2024,121.668385520486,12.778032930625
$GNGGA,160228.50,3237.32119270,N,11717.63681089,W,2,13,0.9,7.220,M,-36.255,M,7.4,0135*67
$PYRTM,2024,121.668385520486,12.778032930625
$GNHDT,284.167,T*25
$PYRTM,2024,121.668391364780,12.778038774919
