$PYRTM,2024,126.583335527488,17.692982937627
$GNGGA,140000.00,3403.80781124,N,11932.81065487,W,2,13,0.9,7.637,M,-37.148,M,4.0,0131*69
$PYRTM,2024,126.583335527488,17.692982937627
$GNHDT,109.214,T*24
$PYRTM,2024,126.583339828137,17.692987238275
$GNGGA,140000.50,3403.80739170,N,11932.80924157,W,2,13,0.9,7.743,M,-37.148,M,4.4,0131*6D
$PYRTM,2024,126.583339828137,17.692987238275
$GNHDT,109.548,T*2A
$PYRTM,2024,126.583345069549,17.692992479688
$GNGGA,140001.00,3403.80697671,N,11932.80781211,W,2,13,0.9,7.832,M,-37.148,M,5.0,0131*66
$PYRTM,2024,126.583345069549,17.692992479688
$GNHDT,109.782,T*2E
$PYRTM,2024,126.583350798171,17.692998208310
$GNGGA,140001.50,3403.80656317,N,11932.80637434,W,2,13,0.9,7.879,M,-37.148,M,5.4,0131*6D
$PYRTM,2024,126.583350798171,17.692998208310
$GNHDT,109.903,T*29
$PYRTM,2024,126.583375481250,17.693022891389
$GNGGA,140002.00,3403.80613870,N,11932.80493067,W,2,13,0.9,7.869,M,-37.148,M,6.0,0131*68
$PYRTM,2024,126.583375481250,17.693022891389
$GNHDT,110.162,T*2E
$PYRTM,2024,126.583375481632,17.693022891771
$GNGGA,140002.50,3403.80569931,N,11932.80349452,W,2,13,0.9,7.815,M,-37.148,M,6.4,0131*6A
$PYRTM,2024,126.583375481632,17.693022891771
$GNHDT,110.378,T*27
$PYRTM,2024,126.583375481690,17.693022891829
$GNGGA,140003.00,3403.80524585,N,11932.80206416,W,2,13,0.9,7.738,M,-37.148,M,7.0,0131*6B
$PYRTM,2024,126.583375481690,17.693022891829
$GNHDT,110.566,T*2E
$PYRTM,2024,126.583375481759,17.693022891887
$GNGGA,140003.50,3403.80478463,N,11932.80064287,W,2,13,0.9,7.668,M,-37.148,M,7.4,0131*67
$PYRTM,2024,126.583375481759,17.693022891887
$GNHDT,110.552,T*29
$PYRTM,2024,126.583380110799,17.693027520926
$GNGGA,140004.00,3403.80432508,N,11932.79921609,W,2,13,0.9,7.618,M,-37.148,M,7.0,0131*68
$PYRTM,2024,126.583380110799,17.693027520926
$GNHDT,110.694,T*20
$PYRTM,2024,126.583386453461,17.693033863600
$GNGGA,140004.50,3403.80387456,N,11932.79778478,W,2,13,0.9,7.590,M,-37.148,M,7.4,0131*6F
$PYRTM,2024,126.583386453461,17.693033863600
$GNHDT,110.460,T*29
$PYRTM,2024,126.583392240498,17.693039650637
$GNGGA,140005.00,3403.80344006,N,11932.79634759,W,2,13,0.9,7.581,M,-37.148,M,7.0,0131*68
$PYRTM,2024,126.583392240498,17.693039650637
$GNHDT,110.437,T*2B
$PYRTM,2024,126.583398536806,17.693045946944
$GNGGA,140005.50,3403.80301949,N,11932.79491384,W,2,13,0.9,7.598,M,-37.148,M,7.4,0131*6B
$PYRTM,2024,126.583398536806,17.693045946944
$GNHDT,110.586,T*20
$PYRTM,2024,126.583403166424,17.693050576563
$GNGGA,140006.00,3403.80261071,N,11932.79348988,W,2,13,0.9,7.649,M,-37.148,M,4.0,0131*65
$PYRTM,2024,126.583403166424,17.693050576563
$GNHDT,110.381,T*21
$PYRTM,2024,126.583409509005,17.693056919144
$GNGGA,140006.50,3403.80221256,N,11932.79207408,W,2,13,0.9,7.712,M,-37.148,M,4.4,0131*67
$PYRTM,2024,126.583409509005,17.693056919144
$GNHDT,110.125,T*2D
$PYRTM,2024,126.583415296088,17.693062706227
$GNGGA,140007.00,3403.80181908,N,11932.79066402,W,2,13,0.9,7.762,M,-37.148,M,5.0,0131*67
$PYRTM,2024,126.583415296088,17.693062706227
$GNHDT,109.988,T*2A
$PYRTM,2024,126.583421592338,17.693069002477
$GNGGA,140007.50,3403.80140677,N,11932.78926660,W,2,13,0.9,7.773,M,-37.148,M,5.4,0131*66
$PYRTM,2024,126.583421592338,17.693069002477
$GNHDT,110.054,T*2A
$PYRTM,2024,126.583426222072,17.693073632211
$GNGGA,140008.00,3403.80096618,N,11932.78788170,W,2,13,0.9,7.718,M,-37.148,M,6.0,0131*69
$PYRTM,2024,126.583426222072,17.693073632211
$GNHDT,110.302,T*2A
$PYRTM,2024,126.583432420313,17.693079830451
$GNGGA,140008.50,3403.80050376,N,11932.78650749,W,2,13,0.9,7.619,M,-37.148,M,6.4,0131*67
$PYRTM,2024,126.583432420313,17.693079830451
$GNHDT,110.255,T*29
$PYRTM,2024,126.583439462685,17.693086872824
$GNGGA,140009.00,3403.80003208,N,11932.78514243,W,2,13,0.9,7.488,M,-37.148,M,7.0,0131*6E
$PYRTM,2024,126.583439462685,17.693086872824
$GNHDT,110.188,T*2A
$PYRTM,2024,126.583445805255,17.693093215394
$GNGGA,140009.50,3403.79956597,N,11932.78378036,W,2,13,0.9,7.376,M,-37.148,M,7.4,0131*6B
$PYRTM,2024,126.583445805255,17.693093215394
$GNHDT,110.216,T*2E
$PYRTM,2024,126.583450434896,17.693097845035
$GNGGA,140010.00,3403.79912019,N,11932.78242116,W,2,13,0.9,7.318,M,-37.148,M,7.0,0131*62
$PYRTM,2024,126.583450434896,17.693097845035
$GNHDT,110.204,T*2D
$PYRTM,2024,126.583456731215,17.693104141343
$GNGGA,140010.50,3403.79870258,N,11932.78105823,W,2,13,0.9,7.352,M,-37.148,M,7.4,0131*60
$PYRTM,2024,126.583456731215,17.693104141343
$GNHDT,110.406,T*29
$PYRTM,2024,126.583462518218,17.693109928356
$GNGGA,140011.00,3403.79830740,N,11932.77969114,W,2,13,0.9,7.458,M,-37.148,M,7.0,0131*65
$PYRTM,2024,126.583462518218,17.693109928356
$GNHDT,110.513,T*2C
$PYRTM,2024,126.583467703681,17.693115113819
$GNGGA,140011.50,3403.79792922,N,11932.77831376,W,2,13,0.9,7.600,M,-37.148,M,7.4,0131*6C
$PYRTM,2024,126.583467703681,17.693115113819
$GNHDT,110.333,T*28
$PYRTM,2024,126.583473675648,17.693121085787
$GNGGA,140012.00,3403.79755343,N,11932.77691819,W,2,13,0.9,7.706,M,-37.148,M,4.0,0131*6A
$PYRTM,2024,126.583473675648,17.693121085787
$GNHDT,110.329,T*23
$PYRTM,2024,126.583479971910,17.693127382049
$GNGGA,140012.50,3403.79715355,N,11932.77551865,W,2,13,0.9,7.738,M,-37.148,M,4.4,0131*61
$PYRTM,2024,126.583479971910,17.693127382049
$GNHDT,110.093,T*21
$PYRTM,2024,126.583485758947,17.693133169086
$GNGGA,140013.00,3403.79671443,N,11932.77413255,W,2,13,0.9,7.702,M,-37.148,M,5.0,0131*64
$PYRTM,2024,126.583485758947,17.693133169086
$GNHDT,109.748,T*28
$PYRTM,2024,126.583492101574,17.693139511713
$GNGGA,140013.50,3403.79625097,N,11932.77275539,W,2,13,0.9,7.608,M,-37.148,M,5.4,0131*69
$PYRTM,2024,126.583492101574,17.693139511713
$GNHDT,110.182,T*20
$PYRTM,2024,126.583501866146,17.693149276285
$GNGGA,140014.00,3403.79577566,N,11932.77138992,W,2,13,0.9,7.496,M,-37.149,M,6.0,0131*60
$PYRTM,2024,126.583501866146,17.693149276285
$GNHDT,110.196,T*25
$PYRTM,2024,126.583501866574,17.693149276713
$GNGGA,140014.50,3403.79531551,N,11932.77002705,W,2,13,0.9,7.430,M,-37.149,M,6.4,0131*63
$PYRTM,2024,126.583501866574,17.693149276713
$GNHDT,110.111,T*2A
$PYRTM,2024,126.583508814537,17.693156224676
$GNGGA,140015.00,3403.79487421,N,11932.76865905,W,2,13,0.9,7.427,M,-37.149,M,7.0,0131*68
$PYRTM,2024,126.583508814537,17.693156224676
$GNHDT,110.040,T*2F
$PYRTM,2024,126.583515157164,17.693162567303
$GNGGA,140015.50,3403.79445479,N,11932.76727674,W,2,13,0.9,7.468,M,-37.149,M,7.4,0131*61
$PYRTM,2024,126.583515157164,17.693162567303
$GNHDT,109.970,T*2D
$PYRTM,2024,126.583520944144,17.693168354282
$GNGGA,140016.00,3403.79405010,N,11932.76587104,W,2,13,0.9,7.521,M,-37.149,M,7.0,0131*68
$PYRTM,2024,126.583520944144,17.693168354282
$GNHDT,110.036,T*2E
$PYRTM,2024,126.583526083148,17.693173493287
$GNGGA,140016.50,3403.79364813,N,11932.76445151,W,2,13,0.9,7.551,M,-37.149,M,7.4,0131*6A
$PYRTM,2024,126.583526083148,17.693173493287
$GNHDT,110.137,T*2E
$PYRTM,2024,126.583531870069,17.693179280208
$GNGGA,140017.00,3403.79325015,N,11932.76302606,W,2,13,0.9,7.567,M,-37.149,M,7.0,0131*65
$PYRTM,2024,126.583531870069,17.693179280208
$GNHDT,110.092,T*20
$PYRTM,2024,126.583538166424,17.693185576562
$GNGGA,140017.50,3403.79284937,N,11932.76161031,W,2,13,0.9,7.582,M,-37.149,M,7.4,0131*69
$PYRTM,2024,126.583538166424,17.693185576562
$GNHDT,110.160,T*2C
$PYRTM,2024,126.583543953414,17.693191363542
$GNGGA,140018.00,3403.79243591,N,11932.76020553,W,2,13,0.9,7.605,M,-37.149,M,4.0,0131*66
$PYRTM,2024,126.583543953414,17.693191363542
$GNHDT,110.193,T*20
$PYRTM,2024,126.583550249688,17.693197659826
$GNGGA,140018.50,3403.79200686,N,11932.75880810,W,2,13,0.9,7.634,M,-37.149,M,4.4,0131*6C
$PYRTM,2024,126.583550249688,17.693197659826
$GNHDT,110.070,T*2C
$PYRTM,2024,126.583554879398,17.693202289525
$GNGGA,140019.00,3403.79156071,N,11932.75741620,W,2,13,0.9,7.655,M,-37.149,M,5.0,0131*6B
$PYRTM,2024,126.583554879398,17.693202289525
$GNHDT,110.068,T*25
$PYRTM,2024,126.583561221921,17.693208632060
$GNGGA,140019.50,3403.79110273,N,11932.75601953,W,2,13,0.9,7.656,M,-37.149,M,5.4,0131*65
$PYRTM,2024,126.583561221921,17.693208632060
$GNHDT,110.179,T*24
$PYRTM,2024,126.583567008958,17.693214419086
$GNGGA,140020.00,3403.79064155,N,11932.75461875,W,2,13,0.9,7.625,M,-37.149,M,6.0,0131*6D
$PYRTM,2024,126.583567008958,17.693214419086
$GNHDT,110.018,T*22
$PYRTM,2024,126.583571310382,17.693218720521
$GNGGA,140020.50,3403.79018026,N,11932.75321545,W,2,13,0.9,7.576,M,-37.149,M,6.4,0131*6A
$PYRTM,2024,126.583571310382,17.693218720521
$GNHDT,110.083,T*20
$PYRTM,2024,126.583576777454,17.693224187593
$GNGGA,140021.00,3403.78973279,N,11932.75181016,W,2,13,0.9,7.536,M,-37.149,M,7.0,0131*69
$PYRTM,2024,126.583576777454,17.693224187593
$GNHDT,110.137,T*2E
$PYRTM,2024,126.583583073808,17.693230483947
$GNGGA,140021.50,3403.78931004,N,11932.75039672,W,2,13,0.9,7.522,M,-37.149,M,7.4,0131*65
$PYRTM,2024,126.583583073808,17.693230483947
$GNHDT,110.048,T*27
$PYRTM,2024,126.583588860822,17.693236270961
$GNGGA,140022.00,3403.78890776,N,11932.74898848,W,2,13,0.9,7.553,M,-37.149,M,7.0,0131*6C
$PYRTM,2024,126.583588860822,17.693236270961
$GNHDT,109.998,T*2B
$PYRTM,2024,126.583595203391,17.693242613530
$GNGGA,140022.50,3403.78852139,N,11932.74757754,W,2,13,0.9,7.614,M,-37.149,M,7.4,0131*60
$PYRTM,2024,126.583595203391,17.693242613530
$GNHDT,109.820,T*29
$PYRTM,2024,126.583599833032,17.693247243171
$GNGGA,140023.00,3403.78814961,N,11932.74616461,W,2,13,0.9,7.675,M,-37.149,M,7.0,0131*61
$PYRTM,2024,126.583599833032,17.693247243171
$GNHDT,109.826,T*2F
$PYRTM,2024,126.583606129317,17.693253539456
$GNGGA,140023.50,3403.78776940,N,11932.74475707,W,2,13,0.9,7.707,M,-37.149,M,7.4,0131*68
$PYRTM,2024,126.583606129317,17.693253539456
$GNHDT,109.953,T*2C
$PYRTM,2024,126.583611916447,17.693259326574
$GNGGA,140024.00,3403.78736059,N,11932.74336629,W,2,13,0.9,7.693,M,-37.149,M,4.0,0131*69
$PYRTM,2024,126.583611916447,17.693259326574
$GNHDT,110.122,T*2A
$PYRTM,2024,126.583618212697,17.693265622824
$GNGGA,140024.50,3403.78691236,N,11932.74199511,W,2,13,0.9,7.617,M,-37.149,M,4.4,0131*6C
$PYRTM,2024,126.583618212697,17.693265622824
$GNHDT,110.137,T*2E
$PYRTM,2024,126.583623999664,17.693271409803
$GNGGA,140025.00,3403.78643343,N,11932.74063890,W,2,13,0.9,7.502,M,-37.149,M,5.0,0131*66
$PYRTM,2024,126.583623999664,17.693271409803
$GNHDT,110.273,T*2D
$PYRTM,2024,126.583629179271,17.693276589410
$GNGGA,140025.50,3403.78595740,N,11932.73927973,W,2,13,0.9,7.389,M,-37.149,M,5.4,0131*6F
$PYRTM,2024,126.583629179271,17.693276589410
$GNHDT,110.361,T*2F
$PYRTM,2024,126.583634925648,17.693282335787
$GNGGA,140026.00,3403.78550241,N,11932.73791599,W,2,13,0.9,7.317,M,-37.149,M,6.0,0131*6F
$PYRTM,2024,126.583634925648,17.693282335787
$GNHDT,110.184,T*26
$PYRTM,2024,126.583641268229,17.693288678368
$GNGGA,140026.50,3403.78508621,N,11932.73654621,W,2,13,0.9,7.320,M,-37.149,M,6.4,0131*6D
$PYRTM,2024,126.583641268229,17.693288678368
$GNHDT,110.016,T*2C
$PYRTM,2024,126.583647055255,17.693294465394
$GNGGA,140027.00,3403.78470567,N,11932.73517118,W,2,13,0.9,7.407,M,-37.149,M,7.0,0131*68
$PYRTM,2024,126.583647055255,17.693294465394
$GNHDT,110.235,T*2F
$PYRTM,2024,126.583653351539,17.693300761678
$GNGGA,140027.50,3403.78434869,N,11932.73378576,W,2,13,0.9,7.528,M,-37.149,M,7.4,0131*65
$PYRTM,2024,126.583653351539,17.693300761678
$GNHDT,110.055,T*2B
$PYRTM,2024,126.583657981181,17.693305391319
$GNGGA,140028.00,3403.78399513,N,11932.73239037,W,2,13,0.9,7.622,M,-37.149,M,7.0,0131*66
$PYRTM,2024,126.583657981181,17.693305391319
$GNHDT,109.841,T*2E
$PYRTM,2024,126.583664323785,17.693311733924
$GNGGA,140028.50,3403.78362170,N,11932.73098859,W,2,13,0.9,7.642,M,-37.149,M,7.4,0131*6D
$PYRTM,2024,126.583664323785,17.693311733924
$GNHDT,110.066,T*2B
$PYRTM,2024,126.583670110833,17.693317520972
$GNGGA,140029.00,3403.78321147,N,11932.72959283,W,2,13,0.9,7.583,M,-37.149,M,7.0,0131*68
$PYRTM,2024,126.583670110833,17.693317520972
$GNHDT,110.056,T*28
$PYRTM,2024,126.583676407083,17.693323817222
$GNGGA,140029.50,3403.78276521,N,11932.72821530,W,2,13,0.9,7.491,M,-37.149,M,7.4,0131*6D
$PYRTM,2024,126.583676407083,17.693323817222
$GNHDT,110.219,T*21
$PYRTM,2024,126.583681036736,17.693328446875
$GNGGA,140030.00,3403.78230100,N,11932.72685055,W,2,13,0.9,7.407,M,-37.149,M,4.0,0131*6B
$PYRTM,2024,126.583681036736,17.693328446875
$GNHDT,110.294,T*24
$PYRTM,2024,126.583687332998,17.693334743137
$GNGGA,140030.50,3403.78185388,N,11932.72548526,W,2,13,0.9,7.380,M,-37.149,M,4.4,0131*6E
$PYRTM,2024,126.583687332998,17.693334743137
$GNHDT,110.302,T*2A
$PYRTM,2024,126.583693120081,17.693340530220
$GNGGA,140031.00,3403.78142803,N,11932.72411420,W,2,13,0.9,7.431,M,-37.149,M,5.0,0131*6B
$PYRTM,2024,126.583693120081,17.693340530220
$GNHDT,110.243,T*2E
$PYRTM,2024,126.583698624907,17.693346035046
$GNGGA,140031.50,3403.78101884,N,11932.72272772,W,2,13,0.9,7.502,M,-37.149,M,5.4,0131*64
$PYRTM,2024,126.583698624907,17.693346035046
$GNHDT,110.013,T*29
$PYRTM,2024,126.583704046007,17.693351456146
$GNGGA,140032.00,3403.78060676,N,11932.72133108,W,2,13,0.9,7.549,M,-37.149,M,6.0,0131*62
$PYRTM,2024,126.583704046007,17.693351456146
$GNHDT,110.253,T*2F
$PYRTM,2024,126.583710388553,17.693357798692
$GNGGA,140032.50,3403.78018898,N,11932.71992747,W,2,13,0.9,7.557,M,-37.149,M,6.4,0131*60
$PYRTM,2024,126.583710388553,17.693357798692
$GNHDT,110.108,T*22
$PYRTM,2024,126.583716175637,17.693363585764
$GNGGA,140033.00,3403.77975766,N,11932.71852781,W,2,13,0.9,7.527,M,-37.150,M,7.0,0131*6A
$PYRTM,2024,126.583716175637,17.693363585764
$GNHDT,110.297,T*27
$PYRTM,2024,126.583722471944,17.693369882083
$GNGGA,140033.50,3403.77931508,N,11932.71713091,W,2,13,0.9,7.497,M,-37.150,M,7.4,0131*67
$PYRTM,2024,126.583722471944,17.693369882083
$GNHDT,110.400,T*2F
$PYRTM,2024,126.583727101863,17.693374512002
$GNGGA,140034.00,3403.77886896,N,11932.71573451,W,2,13,0.9,7.475,M,-37.150,M,7.0,0131*66
$PYRTM,2024,126.583727101863,17.693374512002
$GNHDT,110.431,T*2D
$PYRTM,2024,126.583733444213,17.693380854352
$GNGGA,140034.50,3403.77843038,N,11932.71434144,W,2,13,0.9,7.486,M,-37.150,M,7.4,0131*6D
$PYRTM,2024,126.583733444213,17.693380854352
$GNHDT,110.320,T*2A
$PYRTM,2024,126.583739046146,17.693386456285
$GNGGA,140035.00,3403.77799713,N,11932.71295328,W,2,13,0.9,7.545,M,-37.150,M,7.0,0131*60
$PYRTM,2024,126.583739046146,17.693386456285
$GNHDT,110.401,T*2E
$PYRTM,2024,126.583745527465,17.693392937604
$GNGGA,140035.50,3403.77756640,N,11932.71156306,W,2,13,0.9,7.613,M,-37.150,M,7.4,0131*65
$PYRTM,2024,126.583745527465,17.693392937604
$GNHDT,110.466,T*2F
$PYRTM,2024,126.583751314606,17.693398724745
$GNGGA,140036.00,3403.77713262,N,11932.71017052,W,2,13,0.9,7.660,M,-37.150,M,4.0,0131*63
$PYRTM,2024,126.583751314606,17.693398724745
$GNHDT,110.622,T*2D
$PYRTM,2024,126.583756494560,17.693403904699
$GNGGA,140036.50,3403.77669495,N,11932.70877485,W,2,13,0.9,7.666,M,-37.150,M,4.4,0131*67
$PYRTM,2024,126.583756494560,17.693403904699
$GNHDT,110.723,T*2D
$PYRTM,2024,126.583764416667,17.693411826806
$GNGGA,140037.00,3403.77624612,N,11932.70738086,W,2,13,0.9,7.631,M,-37.150,M,5.0,0131*63
$PYRTM,2024,126.583764416667,17.693411826806
$GNHDT,110.663,T*28
$PYRTM,2024,126.583768072280,17.693415482431
$GNGGA,140037.50,3403.77579152,N,11932.70599538,W,2,13,0.9,7.573,M,-37.150,M,5.4,0131*66
$PYRTM,2024,126.583768072280,17.693415482431
$GNHDT,110.666,T*2D
$PYRTM,2024,126.583775527488,17.693422937627
$GNGGA,140038.00,3403.77535627,N,11932.70461813,W,2,13,0.9,7.545,M,-37.150,M,6.0,0131*61
$PYRTM,2024,126.583775527488,17.693422937627
$GNHDT,110.685,T*20
$PYRTM,2024,126.583781823854,17.693429233993
$GNGGA,140038.50,3403.77495633,N,11932.70324145,W,2,13,0.9,7.588,M,-37.150,M,6.4,0131*63
$PYRTM,2024,126.583781823854,17.693429233993
$GNHDT,110.638,T*26
$PYRTM,2024,126.583792749757,17.693440159896
$GNGGA,140039.00,3403.77458875,N,11932.70185630,W,2,13,0.9,7.674,M,-37.150,M,7.0,0131*63
$PYRTM,2024,126.583792749757,17.693440159896
$GNHDT,110.444,T*2F
$PYRTM,2024,126.583792750127,17.693440160266
$GNGGA,140039.50,3403.77422540,N,11932.70046369,W,2,13,0.9,7.733,M,-37.150,M,7.4,0131*61
$PYRTM,2024,126.583792750127,17.693440160266
$GNHDT,110.301,T*29
$PYRTM,2024,126.583798536840,17.693445946979
$GNGGA,140040.00,3403.77382951,N,11932.69907090,W,2,13,0.9,7.687,M,-37.150,M,7.0,0131*60
$PYRTM,2024,126.583798536840,17.693445946979
$GNHDT,110.526,T*2A
$PYRTM,2024,126.583804879410,17.693452289549
$GNGGA,140040.50,3403.77339017,N,11932.69769253,W,2,13,0.9,7.543,M,-37.150,M,7.4,0131*6A
$PYRTM,2024,126.583804879410,17.693452289549
$GNHDT,110.459,T*23
$PYRTM,2024,126.583809508981,17.693456919120
$GNGGA,140041.00,3403.77292601,N,11932.69633058,W,2,13,0.9,7.362,M,-37.150,M,7.0,0131*69
$PYRTM,2024,126.583809508981,17.693456919120
$GNHDT,110.369,T*27
$PYRTM,2024,126.583815805231,17.693463215370
$GNGGA,140041.50,3403.77247445,N,11932.69498223,W,2,13,0.9,7.253,M,-37.150,M,7.4,0131*6C
$PYRTM,2024,126.583815805231,17.693463215370
$GNHDT,110.429,T*24
$PYRTM,2024,126.583821592257,17.693469002396
$GNGGA,140042.00,3403.77205338,N,11932.69363012,W,2,13,0.9,7.254,M,-37.150,M,4.0,0131*62
$PYRTM,2024,126.583821592257,17.693469002396
$GNHDT,110.157,T*28
$PYRTM,2024,126.583827888565,17.693475298704
$GNGGA,140042.50,3403.77165632,N,11932.69227188,W,2,13,0.9,7.342,M,-37.150,M,4.4,0131*6C
$PYRTM,2024,126.583827888565,17.693475298704
$GNHDT,110.244,T*29
$PYRTM,2024,126.583832518160,17.693479928299
$GNGGA,140043.00,3403.77125733,N,11932.69089568,W,2,13,0.9,7.459,M,-37.150,M,5.0,0131*68
$PYRTM,2024,126.583832518160,17.693479928299
$GNHDT,110.434,T*28
$PYRTM,2024,126.583837513542,17.693484923681
$GNGGA,140043.50,3403.77084696,N,11932.68950818,W,2,13,0.9,7.542,M,-37.150,M,5.4,0131*60
$PYRTM,2024,126.583837513542,17.693484923681
$GNHDT,110.613,T*2F
$PYRTM,2024,126.583845573785,17.693492983924
$GNGGA,140044.00,3403.77042681,N,11932.68812094,W,2,13,0.9,7.603,M,-37.150,M,6.0,0131*64
$PYRTM,2024,126.583845573785,17.693492983924
$GNHDT,110.474,T*2C
$PYRTM,2024,126.583851916424,17.693499326562
$GNGGA,140044.50,3403.77000291,N,11932.68674050,W,2,13,0.9,7.645,M,-37.150,M,6.4,0131*62
$PYRTM,2024,126.583851916424,17.693499326562
$GNHDT,110.511,T*2E
$PYRTM,2024,126.583857703438,17.693505113576
$GNGGA,140045.00,3403.76957618,N,11932.68536021,W,2,13,0.9,7.691,M,-37.150,M,7.0,0131*66
$PYRTM,2024,126.583857703438,17.693505113576
$GNHDT,110.522,T*2E
$PYRTM,2024,126.583863999722,17.693511409861
$GNGGA,140045.50,3403.76914173,N,11932.68397687,W,2,13,0.9,7.724,M,-37.150,M,7.4,0131*62
$PYRTM,2024,126.583863999722,17.693511409861
$GNHDT,110.686,T*23
$PYRTM,2024,126.583868629410,17.693516039549
$GNGGA,140046.00,3403.76869730,N,11932.68258860,W,2,13,0.9,7.732,M,-37.150,M,7.0,0131*68
$PYRTM,2024,126.583868629410,17.693516039549
$GNHDT,110.887,T*2C
$PYRTM,2024,126.583874925648,17.693522335775
$GNGGA,140046.50,3403.76824665,N,11932.68119986,W,2,13,0.9,7.721,M,-37.150,M,7.4,0131*6C
$PYRTM,2024,126.583874925648,17.693522335775
$GNHDT,110.895,T*2F
$PYRTM,2024,126.583880712859,17.693528122998
$GNGGA,140047.00,3403.76779411,N,11932.67982160,W,2,13,0.9,7.725,M,-37.150,M,7.0,0131*6B
$PYRTM,2024,126.583880712859,17.693528122998
$GNHDT,110.899,T*23
$PYRTM,2024,126.583884740729,17.693532150868
$GNGGA,140047.50,3403.76735465,N,11932.67844451,W,2,13,0.9,7.743,M,-37.150,M,7.4,0131*6D
$PYRTM,2024,126.583884740729,17.693532150868
$GNHDT,110.732,T*2D
$PYRTM,2024,126.583890712639,17.693538122778
$GNGGA,140048.00,3403.76692282,N,11932.67706121,W,2,13,0.9,7.779,M,-37.150,M,4.0,0131*61
$PYRTM,2024,126.583890712639,17.693538122778
$GNHDT,110.903,T*21
$PYRTM,2024,126.583897008993,17.693544419132
$GNGGA,140048.50,3403.76650713,N,11932.67566814,W,2,13,0.9,7.804,M,-37.150,M,4.4,0131*6D
$PYRTM,2024,126.583897008993,17.693544419132
$GNHDT,111.237,T*2C
$PYRTM,2024,126.583902795949,17.693550206088
$GNGGA,140049.00,3403.76609550,N,11932.67427368,W,2,13,0.9,7.810,M,-37.150,M,5.0,0131*64
$PYRTM,2024,126.583902795949,17.693550206088
$GNHDT,111.259,T*24
$PYRTM,2024,126.583906957766,17.693554367905
$GNGGA,140049.50,3403.76567231,N,11932.67288976,W,2,13,0.9,7.784,M,-37.150,M,5.4,0131*6A
$PYRTM,2024,126.583906957766,17.693554367905
$GNHDT,110.987,T*2D
$PYRTM,2024,126.583913721944,17.693561132083
$GNGGA,140050.00,3403.76522665,N,11932.67151660,W,2,13,0.9,7.697,M,-37.150,M,6.0,0131*68
$PYRTM,2024,126.583913721944,17.693561132083
$GNHDT,111.057,T*28
$PYRTM,2024,126.583920018264,17.693567428403
$GNGGA,140050.50,3403.76476281,N,11932.67015380,W,2,13,0.9,7.579,M,-37.150,M,6.4,0131*6E
$PYRTM,2024,126.583920018264,17.693567428403
$GNHDT,111.201,T*29
$PYRTM,2024,126.583925805243,17.693573215382
$GNGGA,140051.00,3403.76430664,N,11932.66880535,W,2,13,0.9,7.504,M,-37.150,M,7.0,0131*65
$PYRTM,2024,126.583925805243,17.693573215382
$GNHDT,111.157,T*29
$PYRTM,2024,126.583932101528,17.693579511667
$GNGGA,140051.50,3403.76388169,N,11932.66746412,W,2,13,0.9,7.508,M,-37.150,M,7.4,0131*67
$PYRTM,2024,126.583932101528,17.693579511667
$GNHDT,111.032,T*2B
$PYRTM,2024,126.583936731238,17.693584141377
$GNGGA,140052.00,3403.76349408,N,11932.66611324,W,2,13,0.9,7.590,M,-37.151,M,7.0,0131*6B
$PYRTM,2024,126.583936731238,17.693584141377
$GNHDT,110.925,T*25
$PYRTM,2024,126.583943027477,17.693590437616
$GNGGA,140052.50,3403.76311699,N,11932.66475678,W,2,13,0.9,7.689,M,-37.151,M,7.4,0131*6A
$PYRTM,2024,126.583943027477,17.693590437616
$GNHDT,110.863,T*26
$PYRTM,2024,126.583948814525,17.693596224664
$GNGGA,140053.00,3403.76272965,N,11932.66339121,W,2,13,0.9,7.760,M,-37.151,M,7.0,0131*60
$PYRTM,2024,126.583948814525,17.693596224664
$GNHDT,110.927,T*27
$PYRTM,2024,126.583953861053,17.693601271192
$GNGGA,140053.50,3403.76232081,N,11932.66202530,W,2,13,0.9,7.763,M,-37.151,M,7.4,0131*68
$PYRTM,2024,126.583953861053,17.693601271192
$GNHDT,111.016,T*2D
$PYRTM,2024,126.583959740405,17.693607150532
$GNGGA,140054.00,3403.76189304,N,11932.66066513,W,2,13,0.9,7.700,M,-37.151,M,4.0,0131*64
$PYRTM,2024,126.583959740405,17.693607150532
$GNHDT,110.914,T*27
$PYRTM,2024,126.583966036725,17.693613446863
$GNGGA,140054.50,3403.76144961,N,11932.65930675,W,2,13,0.9,7.611,M,-37.151,M,4.4,0131*66
$PYRTM,2024,126.583966036725,17.693613446863
$GNHDT,111.037,T*2E
$PYRTM,2024,126.583970666366,17.693618076505
$GNGGA,140055.00,3403.76098891,N,11932.65796131,W,2,13,0.9,7.542,M,-37.151,M,5.0,0131*69
$PYRTM,2024,126.583970666366,17.693618076505
$GNHDT,111.107,T*2C
$PYRTM,2024,126.583977008924,17.693624419063
$GNGGA,140055.50,3403.76053305,N,11932.65660405,W,2,13,0.9,7.502,M,-37.151,M,5.4,0131*67
$PYRTM,2024,126.583977008924,17.693624419063
$GNHDT,111.031,T*28
$PYRTM,2024,126.583982795984,17.693630206123
$GNGGA,140056.00,3403.76008689,N,11932.65523701,W,2,13,0.9,7.516,M,-37.151,M,6.0,0131*6F
$PYRTM,2024,126.583982795984,17.693630206123
$GNHDT,111.102,T*29
$PYRTM,2024,126.583987976273,17.693635386412
$GNGGA,140056.50,3403.75964953,N,11932.65385428,W,2,13,0.9,7.575,M,-37.151,M,6.4,0131*61
$PYRTM,2024,126.583987976273,17.693635386412
$GNHDT,111.302,T*2B
$PYRTM,2024,126.583993721898,17.693641132037
$GNGGA,140057.00,3403.75921626,N,11932.65245685,W,2,13,0.9,7.659,M,-37.151,M,7.0,0131*69
$PYRTM,2024,126.583993721898,17.693641132037
$GNHDT,111.380,T*21
$PYRTM,2024,126.584000018194,17.693647428333
$GNGGA,140057.50,3403.75878841,N,11932.65104504,W,2,13,0.9,7.744,M,-37.151,M,7.4,0131*6B
$PYRTM,2024,126.584000018194,17.693647428333
$GNHDT,111.446,T*2C
$PYRTM,2024,126.584006962685,17.693654372824
$GNGGA,140058.00,3403.75836650,N,11932.64962484,W,2,13,0.9,7.821,M,-37.151,M,7.0,0131*6D
$PYRTM,2024,126.584006962685,17.693654372824
$GNHDT,111.320,T*2B
$PYRTM,2024,126.584013166389,17.693660576516
$GNGGA,140058.50,3403.75794695,N,11932.64821082,W,2,13,0.9,7.882,M,-37.151,M,7.4,0131*6F
$PYRTM,2024,126.584013166389,17.693660576516
$GNHDT,111.014,T*2F
$PYRTM,2024,126.584017934977,17.693665345116
$GNGGA,140059.00,3403.75751707,N,11932.64680552,W,2,13,0.9,7.906,M,-37.151,M,7.0,0131*6C
$PYRTM,2024,126.584017934977,17.693665345116
$GNHDT,111.030,T*29
$PYRTM,2024,126.584024277465,17.693671687604
$GNGGA,140059.50,3403.75705681,N,11932.64540970,W,2,13,0.9,7.873,M,-37.151,M,7.4,0131*63
$PYRTM,2024,126.584024277465,17.693671687604
$GNHDT,111.191,T*23
$PYRTM,2024,126.584031221933,17.693678632072
$GNGGA,140100.00,3403.75658059,N,11932.64402386,W,2,13,0.9,7.800,M,-37.151,M,4.0,0131*66
$PYRTM,2024,126.584031221933,17.693678632072
$GNHDT,111.367,T*28
$PYRTM,2024,126.584034273380,17.693681683519
$GNGGA,140100.50,3403.75611562,N,11932.64264591,W,2,13,0.9,7.726,M,-37.151,M,4.4,0131*6A
$PYRTM,2024,126.584034273380,17.693681683519
$GNHDT,111.320,T*2B
$PYRTM,2024,126.584040851539,17.693688261678
$GNGGA,140101.00,3403.75568096,N,11932.64126761,W,2,13,0.9,7.667,M,-37.151,M,5.0,0131*64
$PYRTM,2024,126.584040851539,17.693688261678
$GNHDT,111.216,T*2F
$PYRTM,2024,126.584047147894,17.693694558032
$GNGGA,140101.50,3403.75525690,N,11932.63990807,W,2,13,0.9,7.656,M,-37.151,M,5.4,0131*63
$PYRTM,2024,126.584047147894,17.693694558032
$GNHDT,111.121,T*28
$PYRTM,2024,126.584052934896,17.693700345035
$GNGGA,140102.00,3403.75485666,N,11932.63854964,W,2,13,0.9,7.664,M,-37.151,M,6.0,0131*6C
$PYRTM,2024,126.584052934896,17.693700345035
$GNHDT,111.066,T*2A
$PYRTM,2024,126.584059277488,17.693706687616
$GNGGA,140102.50,3403.75446375,N,11932.63720180,W,2,13,0.9,7.688,M,-37.151,M,6.4,0131*69
$PYRTM,2024,126.584059277488,17.693706687616
$GNHDT,111.352,T*2E
$PYRTM,2024,126.584063907176,17.693711317315
$GNGGA,140103.00,3403.75406721,N,11932.63586678,W,2,13,0.9,7.679,M,-37.151,M,7.0,0131*69
$PYRTM,2024,126.584063907176,17.693711317315
$GNHDT,111.429,T*25
$PYRTM,2024,126.584070203426,17.693717613565
$GNGGA,140103.50,3403.75365511,N,11932.63453869,W,2,13,0.9,7.632,M,-37.151,M,7.4,0131*63
$PYRTM,2024,126.584070203426,17.693717613565
$GNHDT,111.389,T*28
$PYRTM,2024,126.584075990498,17.693723400637
$GNGGA,140104.00,3403.75323557,N,11932.63320892,W,2,13,0.9,7.540,M,-37.151,M,7.0,0131*64
$PYRTM,2024,126.584075990498,17.693723400637
$GNHDT,111.322,T*29
$PYRTM,2024,126.584082333067,17.693729743194
$GNGGA,140104.50,3403.75280677,N,11932.63188353,W,2,13,0.9,7.443,M,-37.151,M,7.4,0131*68
$PYRTM,2024,126.584082333067,17.693729743194
$GNHDT,111.317,T*2F
$PYRTM,2024,126.584088120081,17.693735530220
$GNGGA,140105.00,3403.75236338,N,11932.63056300,W,2,13,0.9,7.337,M,-37.151,M,7.0,0131*6B
$PYRTM,2024,126.584088120081,17.693735530220
$GNHDT,111.423,T*2F
$PYRTM,2024,126.584093259005,17.693740669144
$GNGGA,140105.50,3403.75190377,N,11932.62924619,W,2,13,0.9,7.262,M,-37.151,M,7.4,0131*6F
$PYRTM,2024,126.584093259005,17.693740669144
$GNHDT,111.525,T*28
$PYRTM,2024,126.584103716782,17.693751126921
$GNGGA,140106.00,3403.75143220,N,11932.62792513,W,2,13,0.9,7.219,M,-37.151,M,4.0,0131*65
$PYRTM,2024,126.584103716782,17.693751126921
$GNHDT,111.689,T*2D
$PYRTM,2024,126.584103717072,17.693751127211
$GNGGA,140106.50,3403.75097613,N,11932.62658941,W,2,13,0.9,7.242,M,-37.151,M,4.4,0131*6A
$PYRTM,2024,126.584103717072,17.693751127211
$GNHDT,111.795,T*21
$PYRTM,2024,126.584109463056,17.693756873194
$GNGGA,140107.00,3403.75053741,N,11932.62523213,W,2,13,0.9,7.323,M,-37.151,M,5.0,0131*60
$PYRTM,2024,126.584109463056,17.693756873194
$GNHDT,111.742,T*2B
$PYRTM,2024,126.584115758981,17.693763169120
$GNGGA,140107.50,3403.75011401,N,11932.62385662,W,2,13,0.9,7.442,M,-37.151,M,5.4,0131*68
$PYRTM,2024,126.584115758981,17.693763169120
$GNHDT,111.321,T*2A
$PYRTM,2024,126.584121545984,17.693768956123
$GNGGA,140108.00,3403.74968547,N,11932.62246951,W,2,13,0.9,7.575,M,-37.151,M,6.0,0131*64
$PYRTM,2024,126.584121545984,17.693768956123
$GNHDT,111.475,T*2C
$PYRTM,2024,126.584127888565,17.693775298704
$GNGGA,140108.50,3403.74924672,N,11932.62107647,W,2,13,0.9,7.681,M,-37.151,M,6.4,0131*6E
$PYRTM,2024,126.584127888565,17.693775298704
$GNHDT,111.424,T*28
$PYRTM,2024,126.584132518194,17.693779928333
$GNGGA,140109.00,3403.74879449,N,11932.61968036,W,2,13,0.9,7.732,M,-37.151,M,7.0,0131*67
$PYRTM,2024,126.584132518194,17.693779928333
$GNHDT,111.402,T*2C
$PYRTM,2024,126.584138814502,17.693786224641
$GNGGA,140109.50,3403.74832742,N,11932.61828234,W,2,13,0.9,7.730,M,-37.152,M,7.4,0131*65
$PYRTM,2024,126.584138814502,17.693786224641
$GNHDT,111.520,T*2D
$PYRTM,2024,126.584144601563,17.693792011701
$GNGGA,140110.00,3403.74784764,N,11932.61688709,W,2,13,0.9,7.687,M,-37.152,M,7.0,0131*68
$PYRTM,2024,126.584144601563,17.693792011701
$GNHDT,111.456,T*2D
$PYRTM,2024,126.584150944155,17.693798354294
$GNGGA,140110.50,3403.74737011,N,11932.61549389,W,2,13,0.9,7.616,M,-37.152,M,7.4,0131*6E
$PYRTM,2024,126.584150944155,17.693798354294
$GNHDT,111.542,T*29
$PYRTM,2024,126.584155573970,17.693802984109
$GNGGA,140111.00,3403.74689395,N,11932.61410721,W,2,13,0.9,7.537,M,-37.152,M,7.0,0131*6E
$PYRTM,2024,126.584155573970,17.693802984109
$GNHDT,111.722,T*2D
$PYRTM,2024,126.584161870046,17.693809280185
$GNGGA,140111.50,3403.74641526,N,11932.61273088,W,2,13,0.9,7.462,M,-37.152,M,7.4,0131*63
$PYRTM,2024,126.584161870046,17.693809280185
$GNHDT,111.657,T*2E
$PYRTM,2024,126.584167657211,17.693815067350
$GNGGA,140112.00,3403.74593558,N,11932.61136531,W,2,13,0.9,7.407,M,-37.152,M,4.0,0131*61
$PYRTM,2024,126.584167657211,17.693815067350
$GNHDT,111.559,T*23
$PYRTM,2024,126.584173161123,17.693820571262
$GNGGA,140112.50,3403.74546723,N,11932.61000643,W,2,13,0.9,7.391,M,-37.152,M,4.4,0131*6C
$PYRTM,2024,126.584173161123,17.693820571262
$GNHDT,111.559,T*23
$PYRTM,2024,126.584180944097,17.693828354225
$GNGGA,140113.00,3403.74501640,N,11932.60865333,W,2,13,0.9,7.411,M,-37.152,M,5.0,0131*6D
$PYRTM,2024,126.584180944097,17.693828354225
$GNHDT,111.594,T*22
$PYRTM,2024,126.584184925590,17.693832335729
$GNGGA,140113.50,3403.74457781,N,11932.60729672,W,2,13,0.9,7.450,M,-37.152,M,5.4,0131*60
$PYRTM,2024,126.584184925590,17.693832335729
$GNHDT,111.648,T*20
$PYRTM,2024,126.584190712674,17.693838122813
$GNGGA,140114.00,3403.74414229,N,11932.60593573,W,2,13,0.9,7.471,M,-37.152,M,6.0,0131*67
$PYRTM,2024,126.584190712674,17.693838122813
$GNHDT,111.596,T*20
$PYRTM,2024,126.584197008912,17.693844419051
$GNGGA,140114.50,3403.74370522,N,11932.60457470,W,2,13,0.9,7.439,M,-37.152,M,6.4,0131*68
$PYRTM,2024,126.584197008912,17.693844419051
$GNHDT,111.503,T*2C
$PYRTM,2024,126.584201638530,17.693849048669
$GNGGA,140115.00,3403.74325649,N,11932.60322427,W,2,13,0.9,7.383,M,-37.152,M,7.0,0131*66
$PYRTM,2024,126.584201638530,17.693849048669
$GNHDT,111.667,T*2D
$PYRTM,2024,126.584207935046,17.693855345185
$GNGGA,140115.50,3403.74278708,N,11932.60189298,W,2,13,0.9,7.310,M,-37.152,M,7.4,0131*61
$PYRTM,2024,126.584207935046,17.693855345185
$GNHDT,111.823,T*23
$PYRTM,2024,126.584213721956,17.693861132095
$GNGGA,140116.00,3403.74229946,N,11932.60058087,W,2,13,0.9,7.259,M,-37.152,M,7.0,0131*6E
$PYRTM,2024,126.584213721956,17.693861132095
$GNHDT,111.948,T*2F
$PYRTM,2024,126.584220064479,17.693867474618
$GNGGA,140116.50,3403.74181295,N,11932.59927429,W,2,13,0.9,7.259,M,-37.152,M,7.4,0131*60
$PYRTM,2024,126.584220064479,17.693867474618
$GNHDT,112.046,T*2B
$PYRTM,2024,126.584225851539,17.693873261678
$GNGGA,140117.00,3403.74133167,N,11932.59795942,W,2,13,0.9,7.295,M,-37.152,M,7.0,0131*60
$PYRTM,2024,126.584225851539,17.693873261678
$GNHDT,112.299,T*2B
$PYRTM,2024,126.584231031157,17.693878441296
$GNGGA,140117.50,3403.74086314,N,11932.59662792,W,2,13,0.9,7.362,M,-37.152,M,7.4,0131*6B
$PYRTM,2024,126.584231031157,17.693878441296
$GNHDT,112.160,T*2E
$PYRTM,2024,126.584236777512,17.693884187650
$GNGGA,140118.00,3403.74040781,N,11932.59527503,W,2,13,0.9,7.441,M,-37.152,M,4.0,0131*6A
$PYRTM,2024,126.584236777512,17.693884187650
$GNHDT,112.053,T*2F
$PYRTM,2024,126.584242606007,17.693890016146
$GNGGA,140118.50,3403.73996311,N,11932.59390093,W,2,13,0.9,7.512,M,-37.152,M,4.4,0131*62
$PYRTM,2024,126.584242606007,17.693890016146
$GNHDT,111.853,T*24
$PYRTM,2024,126.584250064514,17.693897474653
$GNGGA,140119.00,3403.73951429,N,11932.59251393,W,2,13,0.9,7.560,M,-37.152,M,5.0,0131*6E
$PYRTM,2024,126.584250064514,17.693897474653
$GNHDT,111.897,T*2C
$PYRTM,2024,126.584256360799,17.693903770937
$GNGGA,140119.50,3403.73905844,N,11932.59112243,W,2,13,0.9,7.576,M,-37.152,M,5.4,0131*66
$PYRTM,2024,126.584256360799,17.693903770937
$GNHDT,112.185,T*25
$PYRTM,2024,126.584260990440,17.693908400579
$GNGGA,140120.00,3403.73859187,N,11932.58973737,W,2,13,0.9,7.585,M,-37.152,M,6.0,0131*64
$PYRTM,2024,126.584260990440,17.693908400579
$GNHDT,111.982,T*29
$PYRTM,2024,126.584267286829,17.693914696968
$GNGGA,140120.50,3403.73811019,N,11932.58835739,W,2,13,0.9,7.589,M,-37.152,M,6.4,0131*6E
$PYRTM,2024,126.584267286829,17.693914696968
$GNHDT,112.076,T*28
$PYRTM,2024,126.584273073831,17.693920483970
$GNGGA,140121.00,3403.73760431,N,11932.58698517,W,2,13,0.9,7.596,M,-37.152,M,7.0,0131*61
$PYRTM,2024,126.584273073831,17.693920483970
$GNHDT,112.043,T*2E
$PYRTM,2024,126.584279370069,17.693926780208
$GNGGA,140121.50,3403.73708754,N,11932.58561127,W,2,13,0.9,7.592,M,-37.152,M,7.4,0131*68
$PYRTM,2024,126.584279370069,17.693926780208
$GNHDT,112.081,T*20
$PYRTM,2024,126.584283999769,17.693931409896
$GNGGA,140122.00,3403.73656750,N,11932.58423425,W,2,13,0.9,7.587,M,-37.152,M,7.0,0131*60
$PYRTM,2024,126.584283999769,17.693931409896
$GNHDT,112.091,T*21
$PYRTM,2024,126.584290342269,17.693937752396
$GNGGA,140122.50,3403.73605740,N,11932.58284860,W,2,13,0.9,7.571,M,-37.152,M,7.4,0131*69
$PYRTM,2024,126.584290342269,17.693937752396
$GNHDT,112.181,T*21
$PYRTM,2024,126.584296129306,17.693943539444
$GNGGA,140123.00,3403.73556028,N,11932.58146040,W,2,13,0.9,7.573,M,-37.152,M,7.0,0131*60
$PYRTM,2024,126.584296129306,17.693943539444
$GNHDT,112.156,T*2B
$PYRTM,2024,126.584302425625,17.693949835752
$GNGGA,140123.50,3403.73507643,N,11932.58007702,W,2,13,0.9,7.582,M,-37.152,M,7.4,0131*65
$PYRTM,2024,126.584302425625,17.693949835752
$GNHDT,112.285,T*26
$PYRTM,2024,126.584305897905,17.693953308044
$GNGGA,140124.00,3403.73459740,N,11932.57870375,W,2,13,0.9,7.610,M,-37.152,M,4.0,0131*63
$PYRTM,2024,126.584305897905,17.693953308044
$GNHDT,112.274,T*28
$PYRTM,2024,126.584312049954,17.693959460093
$GNGGA,140124.50,3403.73411861,N,11932.57734318,W,2,13,0.9,7.631,M,-37.153,M,4.4,0131*64
$PYRTM,2024,126.584312049954,17.693959460093
$GNHDT,112.332,T*2B
$PYRTM,2024,126.584320249699,17.693967659838
$GNGGA,140125.00,3403.73364055,N,11932.57599090,W,2,13,0.9,7.647,M,-37.153,M,5.0,0131*68
$PYRTM,2024,126.584320249699,17.693967659838
$GNHDT,112.329,T*21
$PYRTM,2024,126.584326546030,17.693973956169
$GNGGA,140125.50,3403.73316459,N,11932.57464491,W,2,13,0.9,7.637,M,-37.153,M,5.4,0131*65
$PYRTM,2024,126.584326546030,17.693973956169
$GNHDT,112.259,T*27
$PYRTM,2024,126.584332333056,17.693979743194
$GNGGA,140126.00,3403.73268784,N,11932.57330787,W,2,13,0.9,7.601,M,-37.153,M,6.0,0131*68
$PYRTM,2024,126.584332333056,17.693979743194
$GNHDT,112.162,T*2C
$PYRTM,2024,126.584337471968,17.693984882106
$GNGGA,140126.50,3403.73221286,N,11932.57197866,W,2,13,0.9,7.551,M,-37.153,M,6.4,0131*6A
$PYRTM,2024,126.584337471968,17.693984882106
$GNHDT,112.272,T*2E
$PYRTM,2024,126.584343258970,17.693990669109
$GNGGA,140127.00,3403.73173138,N,11932.57065832,W,2,13,0.9,7.505,M,-37.153,M,7.0,0131*65
$PYRTM,2024,126.584343258970,17.693990669109
$GNHDT,112.147,T*2B
$PYRTM,2024,126.584349601609,17.693997011748
$GNGGA,140127.50,3403.73124013,N,11932.56934195,W,2,13,0.9,7.460,M,-37.153,M,7.4,0131*64
$PYRTM,2024,126.584349601609,17.693997011748
$GNHDT,112.331,T*28
$PYRTM,2024,126.584355388553,17.694002798692
$GNGGA,140128.00,3403.73074348,N,11932.56802330,W,2,13,0.9,7.435,M,-37.153,M,7.0,0131*6A
$PYRTM,2024,126.584355388553,17.694002798692
$GNHDT,112.471,T*2B
$PYRTM,2024,126.584361731227,17.694009141366
$GNGGA,140128.50,3403.73025039,N,11932.56669792,W,2,13,0.9,7.430,M,-37.153,M,7.4,0131*60
$PYRTM,2024,126.584361731227,17.694009141366
$GNHDT,112.384,T*26
$PYRTM,2024,126.584366360822,17.694013770961
$GNGGA,140129.00,3403.72976407,N,11932.56536448,W,2,13,0.9,7.460,M,-37.153,M,7.0,0131*6F
$PYRTM,2024,126.584366360822,17.694013770961
$GNHDT,112.442,T*2B
$PYRTM,2024,126.584372657118,17.694020067257
$GNGGA,140129.50,3403.72929409,N,11932.56401702,W,2,13,0.9,7.512,M,-37.153,M,7.4,0131*66
$PYRTM,2024,126.584372657118,17.694020067257
$GNHDT,112.211,T*2B
$PYRTM,2024,126.584378444132,17.694025854271
$GNGGA,140130.00,3403.72883747,N,11932.56264861,W,2,13,0.9,7.580,M,-37.153,M,4.0,0131*60
$PYRTM,2024,126.584378444132,17.694025854271
$GNHDT,112.062,T*2D
$PYRTM,2024,126.584381495833,17.694028905972
$GNGGA,140130.50,3403.72838784,N,11932.56126109,W,2,13,0.9,7.634,M,-37.153,M,4.4,0131*60
$PYRTM,2024,126.584381495833,17.694028905972
$GNHDT,111.852,T*25
$PYRTM,2024,126.584388258924,17.694035669063
$GNGGA,140131.00,3403.72792731,N,11932.55985666,W,2,13,0.9,7.651,M,-37.153,M,5.0,0131*6F
$PYRTM,2024,126.584388258924,17.694035669063
$GNHDT,111.802,T*20
$PYRTM,2024,126.584394601528,17.694042011667
$GNGGA,140131.50,3403.72744639,N,11932.55845444,W,2,13,0.9,7.629,M,-37.153,M,5.4,0131*6C
$PYRTM,2024,126.584394601528,17.694042011667
$GNHDT,111.685,T*21
$PYRTM,2024,126.584400388600,17.694047798738
$GNGGA,140132.00,3403.72693882,N,11932.55706263,W,2,13,0.9,7.598,M,-37.153,M,6.0,0131*6A
$PYRTM,2024,126.584400388600,17.694047798738
$GNHDT,111.692,T*27
$PYRTM,2024,126.584406684861,17.694054094988
$GNGGA,140132.50,3403.72641618,N,11932.55568030,W,2,13,0.9,7.580,M,-37.153,M,6.4,0131*6E
$PYRTM,2024,126.584406684861,17.694054094988
$GNHDT,111.550,T*2A
$PYRTM,2024,126.584411314514,17.694058724653
$GNGGA,140133.00,3403.72588027,N,11932.55430072,W,2,13,0.9,7.569,M,-37.153,M,7.0,0131*6E
$PYRTM,2024,126.584411314514,17.694058724653
$GNHDT,111.567,T*2E
$PYRTM,2024,126.584417610787,17.694065020926
$GNGGA,140133.50,3403.72535156,N,11932.55291319,W,2,13,0.9,7.569,M,-37.153,M,7.4,0131*6D
$PYRTM,2024,126.584417610787,17.694065020926
$GNHDT,111.335,T*2F
$PYRTM,2024,126.584423397778,17.694070807917
$GNGGA,140134.00,3403.72483890,N,11932.55150995,W,2,13,0.9,7.580,M,-37.153,M,7.0,0131*63
$PYRTM,2024,126.584423397778,17.694070807917
$GNHDT,111.305,T*2C
$PYRTM,2024,126.584430851516,17.694078261655
$GNGGA,140134.50,3403.72434471,N,11932.55009468,W,2,13,0.9,7.590,M,-37.153,M,7.4,0131*6E
$PYRTM,2024,126.584430851516,17.694078261655
$GNHDT,111.256,T*2B
$PYRTM,2024,126.584433166296,17.694080576435
$GNGGA,140135.00,3403.72387358,N,11932.54867753,W,2,13,0.9,7.623,M,-37.153,M,7.0,0131*6C
$PYRTM,2024,126.584433166296,17.694080576435
$GNHDT,111.287,T*27
$PYRTM,2024,126.584440620058,17.694088030197
$GNGGA,140135.50,3403.72341207,N,11932.54727568,W,2,13,0.9,7.688,M,-37.153,M,7.4,0131*6C
$PYRTM,2024,126.584440620058,17.694088030197
$GNHDT,111.307,T*2E
$PYRTM,2024,126.584446407141,17.694093817280
$GNGGA,140136.00,3403.72294997,N,11932.54589370,W,2,13,0.9,7.764,M,-37.153,M,4.0,0131*6C
$PYRTM,2024,126.584446407141,17.694093817280
$GNHDT,111.230,T*2B
$PYRTM,2024,126.584450350475,17.694097760613
$GNGGA,140136.50,3403.72247012,N,11932.54452705,W,2,13,0.9,7.827,M,-37.153,M,4.4,0131*6E
$PYRTM,2024,126.584450350475,17.694097760613
$GNHDT,111.368,T*27
$PYRTM,2024,126.584458537176,17.694105947315
$GNGGA,140137.00,3403.72198325,N,11932.54316864,W,2,13,0.9,7.850,M,-37.153,M,5.0,0131*66
$PYRTM,2024,126.584458537176,17.694105947315
$GNHDT,111.282,T*22
$PYRTM,2024,126.584464833125,17.694112243264
$GNGGA,140137.50,3403.72149714,N,11932.54181280,W,2,13,0.9,7.829,M,-37.153,M,5.4,0131*6F
$PYRTM,2024,126.584464833125,17.694112243264
$GNHDT,111.553,T*29
$PYRTM,2024,126.584470620093,17.694118030231
$GNGGA,140138.00,3403.72101543,N,11932.54045957,W,2,13,0.9,7.767,M,-37.153,M,6.0,0131*63
$PYRTM,2024,126.584470620093,17.694118030231
$GNHDT,111.728,T*27
$PYRTM,2024,126.584476916377,17.694124326516
$GNGGA,140138.50,3403.72054372,N,11932.53911163,W,2,13,0.9,7.684,M,-37.153,M,6.4,0131*6B
$PYRTM,2024,126.584476916377,17.694124326516
$GNHDT,111.825,T*25
$PYRTM,2024,126.584482703519,17.694130113657
$GNGGA,140139.00,3403.72008152,N,11932.53777768,W,2,13,0.9,7.600,M,-37.153,M,7.0,0131*6C
$PYRTM,2024,126.584482703519,17.694130113657
$GNHDT,111.966,T*23
$PYRTM,2024,126.584489046053,17.694136456192
$GNGGA,140139.50,3403.71962446,N,11932.53645194,W,2,13,0.9,7.552,M,-37.154,M,7.4,0131*6D
$PYRTM,2024,126.584489046053,17.694136456192
$GNHDT,111.836,T*27
$PYRTM,2024,126.584493675637,17.694141085775
$GNGGA,140140.00,3403.71915952,N,11932.53513108,W,2,13,0.9,7.537,M,-37.154,M,7.0,0131*6C
$PYRTM,2024,126.584493675637,17.694141085775
$GNHDT,111.841,T*27
$PYRTM,2024,126.584499971933,17.694147382072
$GNGGA,140140.50,3403.71869807,N,11932.53380625,W,2,13,0.9,7.534,M,-37.154,M,7.4,0131*61
$PYRTM,2024,126.584499971933,17.694147382072
$GNHDT,111.810,T*23
$PYRTM,2024,126.584505759016,17.694153169155
$GNGGA,140141.00,3403.71823454,N,11932.53247245,W,2,13,0.9,7.561,M,-37.154,M,7.0,0131*6D
$PYRTM,2024,126.584505759016,17.694153169155
$GNHDT,111.779,T*23
$PYRTM,2024,126.584512101562,17.694159511701
$GNGGA,140141.50,3403.71777579,N,11932.53112454,W,2,13,0.9,7.581,M,-37.154,M,7.4,0131*67
$PYRTM,2024,126.584512101562,17.694159511701
$GNHDT,111.708,T*25
$PYRTM,2024,126.584516731238,17.694164141377
$GNGGA,140142.00,3403.71731342,N,11932.52976612,W,2,13,0.9,7.609,M,-37.154,M,4.0,0131*62
$PYRTM,2024,126.584516731238,17.694164141377
$GNHDT,111.521,T*2C
$PYRTM,2024,126.584520384502,17.694167794641
$GNGGA,140142.50,3403.71684489,N,11932.52840718,W,2,13,0.9,7.633,M,-37.154,M,4.4,0131*6A
$PYRTM,2024,126.584520384502,17.694167794641
$GNHDT,111.468,T*20
$PYRTM,2024,126.584527703403,17.694175113542
$GNGGA,140143.00,3403.71636271,N,11932.52705197,W,2,13,0.9,7.656,M,-37.154,M,5.0,0131*6F
$PYRTM,2024,126.584527703403,17.694175113542
$GNHDT,111.434,T*29
$PYRTM,2024,126.584534046053,17.694181456192
$GNGGA,140143.50,3403.71586498,N,11932.52570236,W,2,13,0.9,7.670,M,-37.154,M,5.4,0131*6B
$PYRTM,2024,126.584534046053,17.694181456192
$GNHDT,111.479,T*20
$PYRTM,2024,126.584538675694,17.694186085833
$GNGGA,140144.00,3403.71534483,N,11932.52435114,W,2,13,0.9,7.681,M,-37.154,M,6.0,0131*60
$PYRTM,2024,126.584538675694,17.694186085833
$GNHDT,111.616,T*2B
$PYRTM,2024,126.584544971910,17.694192382049
$GNGGA,140144.50,3403.71481264,N,11932.52299409,W,2,13,0.9,7.672,M,-37.154,M,6.4,0131*64
$PYRTM,2024,126.584544971910,17.694192382049
$GNHDT,111.724,T*2B
$PYRTM,2024,126.584550758958,17.694198169109
$GNGGA,140145.00,3403.71428436,N,11932.52162700,W,2,13,0.9,7.671,M,-37.154,M,7.0,0131*69
$PYRTM,2024,126.584550758958,17.694198169109
$GNHDT,111.868,T*2C
$PYRTM,2024,126.584557055278,17.694204465417
$GNGGA,140145.50,3403.71377564,N,11932.52025026,W,2,13,0.9,7.705,M,-37.154,M,7.4,0131*60
$PYRTM,2024,126.584557055278,17.694204465417
$GNHDT,111.896,T*2D
$PYRTM,2024,126.584561684850,17.694209094988
$GNGGA,140146.00,3403.71328696,N,11932.51886587,W,2,13,0.9,7.772,M,-37.154,M,7.0,0131*6A
$PYRTM,2024,126.584561684850,17.694209094988
$GNHDT,112.036,T*2C
$PYRTM,2024,126.584566823866,17.694214234005
$GNGGA,140146.50,3403.71280973,N,11932.51747713,W,2,13,0.9,7.850,M,-37.154,M,7.4,0131*6E
$PYRTM,2024,126.584566823866,17.694214234005
$GNHDT,112.086,T*27
$PYRTM,2024,126.584573768241,17.694221178380
$GNGGA,140147.00,3403.71233786,N,11932.51608278,W,2,13,0.9,7.928,M,-37.154,M,7.0,0131*6E
$PYRTM,2024,126.584573768241,17.694221178380
$GNHDT,112.163,T*2D
$PYRTM,2024,126.584580064514,17.694227474653
$GNGGA,140147.50,3403.71186361,N,11932.51468699,W,2,13,0.9,7.965,M,-37.154,M,7.4,0131*69
$PYRTM,2024,126.584580064514,17.694227474653
$GNHDT,112.342,T*2C
$PYRTM,2024,126.584584694178,17.694232104317
$GNGGA,140148.00,3403.71137421,N,11932.51329592,W,2,13,0.9,7.951,M,-37.154,M,4.0,0131*60
$PYRTM,2024,126.584584694178,17.694232104317
$GNHDT,112.173,T*2C
$PYRTM,2024,126.584589828241,17.694237238380
$GNGGA,140148.50,3403.71087070,N,11932.51191879,W,2,13,0.9,7.899,M,-37.154,M,4.4,0131*67
$PYRTM,2024,126.584589828241,17.694237238380
$GNHDT,112.192,T*23
$PYRTM,2024,126.584596777488,17.694244187627
$GNGGA,140149.00,3403.71035746,N,11932.51055643,W,2,13,0.9,7.821,M,-37.154,M,5.0,0131*60
$PYRTM,2024,126.584596777488,17.694244187627
$GNHDT,112.481,T*24
$PYRTM,2024,126.584603073785,17.694250483924
$GNGGA,140149.50,3403.70984567,N,11932.50920162,W,2,13,0.9,7.744,M,-37.154,M,5.4,0131*60
$PYRTM,2024,126.584603073785,17.694250483924
$GNHDT,112.236,T*2E
$PYRTM,2024,126.584608860822,17.694256270961
$GNGGA,140150.00,3403.70934721,N,11932.50784906,W,2,13,0.9,7.665,M,-37.154,M,6.0,0131*69
$PYRTM,2024,126.584608860822,17.694256270961
$GNHDT,112.213,T*29
$PYRTM,2024,126.584615203391,17.694262613530
$GNGGA,140150.50,3403.70886444,N,11932.50649733,W,2,13,0.9,7.615,M,-37.154,M,6.4,0131*6F
$PYRTM,2024,126.584615203391,17.694262613530
$GNHDT,111.901,T*22
$PYRTM,2024,126.584619833009,17.694267243148
$GNGGA,140151.00,3403.70839533,N,11932.50514323,W,2,13,0.9,7.598,M,-37.154,M,7.0,0131*63
$PYRTM,2024,126.584619833009,17.694267243148
$GNHDT,111.821,T*21
$PYRTM,2024,126.584626175613,17.694273585752
$GNGGA,140151.50,3403.70792884,N,11932.50378801,W,2,13,0.9,7.589,M,-37.154,M,7.4,0131*6A
$PYRTM,2024,126.584626175613,17.694273585752
$GNHDT,112.074,T*2A
$PYRTM,2024,126.584631962674,17.694279372813
$GNGGA,140152.00,3403.70746314,N,11932.50242729,W,2,13,0.9,7.582,M,-37.154,M,7.0,0131*65
$PYRTM,2024,126.584631962674,17.694279372813
$GNHDT,111.809,T*2B
$PYRTM,2024,126.584638305255,17.694285715394
$GNGGA,140152.50,3403.70699886,N,11932.50106612,W,2,13,0.9,7.595,M,-37.154,M,7.4,0131*6B
$PYRTM,2024,126.584638305255,17.694285715394
$GNHDT,111.581,T*26
$PYRTM,2024,126.584642934884,17.694290345023
$GNGGA,140153.00,3403.70652971,N,11932.49971068,W,2,13,0.9,7.618,M,-37.154,M,7.0,0131*68
$PYRTM,2024,126.584642934884,17.694290345023
$GNHDT,111.522,T*2F
$PYRTM,2024,126.584649231157,17.694296641296
$GNGGA,140153.50,3403.70605247,N,11932.49836067,W,2,13,0.9,7.643,M,-37.154,M,7.4,0131*66
$PYRTM,2024,126.584649231157,17.694296641296
$GNHDT,111.298,T*29
$PYRTM,2024,126.584655018218,17.694302428356
$GNGGA,140154.00,3403.70555884,N,11932.49701454,W,2,13,0.9,7.674,M,-37.154,M,4.0,0131*6B
$PYRTM,2024,126.584655018218,17.694302428356
$GNHDT,111.261,T*2F
$PYRTM,2024,126.584658676204,17.694306086343
$GNGGA,140154.50,3403.70505973,N,11932.49566877,W,2,13,0.9,7.701,M,-37.154,M,4.4,0131*6B
$PYRTM,2024,126.584658676204,17.694306086343
$GNHDT,111.277,T*28
$PYRTM,2024,126.584665944144,17.694313354282
$GNGGA,140155.00,3403.70455167,N,11932.49432357,W,2,13,0.9,7.727,M,-37.154,M,5.0,0131*6E
$PYRTM,2024,126.584665944144,17.694313354282
$GNHDT,111.454,T*2F
$PYRTM,2024,126.584672240451,17.694319650590
$GNGGA,140155.50,3403.70404898,N,11932.49297519,W,2,13,0.9,7.774,M,-37.154,M,5.4,0131*61
$PYRTM,2024,126.584672240451,17.694319650590
$GNHDT,111.286,T*26
$PYRTM,2024,126.584678027500,17.694325437639
$GNGGA,140156.00,3403.70355538,N,11932.49162286,W,2,13,0.9,7.835,M,-37.154,M,6.0,0131*66
$PYRTM,2024,126.584678027500,17.694325437639
$GNHDT,111.272,T*2D
$PYRTM,2024,126.584684323819,17.694331733958
$GNGGA,140156.50,3403.70307743,N,11932.49025876,W,2,13,0.9,7.893,M,-37.154,M,6.4,0131*65
$PYRTM,2024,126.584684323819,17.694331733958
$GNHDT,111.179,T*25
$PYRTM,2024,126.584688953449,17.694336363588
$GNGGA,140157.00,3403.70260585,N,11932.48888551,W,2,13,0.9,7.933,M,-37.155,M,7.0,0131*60
$PYRTM,2024,126.584688953449,17.694336363588
$GNHDT,111.045,T*2B
$PYRTM,2024,126.584695296007,17.694342706146
$GNGGA,140157.50,3403.70213834,N,11932.48750367,W,2,13,0.9,7.941,M,-37.155,M,7.4,0131*6E
$PYRTM,2024,126.584695296007,17.694342706146
$GNHDT,110.835,T*25
$PYRTM,2024,126.584699925613,17.694347335752
$GNGGA,140158.00,3403.70166781,N,11932.48612158,W,2,13,0.9,7.910,M,-37.155,M,7.0,0131*6D
$PYRTM,2024,126.584699925613,17.694347335752
$GNHDT,110.828,T*29
$PYRTM,2024,126.584706221898,17.694353632037
$GNGGA,140158.50,3403.70120034,N,11932.48474098,W,2,13,0.9,7.878,M,-37.155,M,7.4,0131*67
$PYRTM,2024,126.584706221898,17.694353632037
$GNHDT,110.935,T*24
$PYRTM,2024,126.584710851632,17.694358261771
$GNGGA,140159.00,3403.70073983,N,11932.48336736,W,2,13,0.9,7.856,M,-37.155,M,7.0,0131*6B
$PYRTM,2024,126.584710851632,17.694358261771
$GNHDT,110.943,T*25
$PYRTM,2024,126.584717147975,17.694364558113
$GNGGA,140159.50,3403.70028112,N,11932.48200267,W,2,13,0.9,7.855,M,-37.155,M,7.4,0131*62
$PYRTM,2024,126.584717147975,17.694364558113
$GNHDT,110.664,T*2F
$PYRTM,2024,126.584724138634,17.694371548773
$GNGGA,140200.00,3403.69982531,N,11932.48064264,W,2,13,0.9,7.865,M,-37.155,M,4.0,0131*6B
$PYRTM,2024,126.584724138634,17.694371548773
$GNHDT,110.624,T*2B
$PYRTM,2024,126.584729277755,17.694376687894
$GNGGA,140200.50,3403.69936069,N,11932.47928823,W,2,13,0.9,7.863,M,-37.155,M,4.4,0131*6C
$PYRTM,2024,126.584729277755,17.694376687894
$GNHDT,110.763,T*29
$PYRTM,2024,126.584736221944,17.694383632083
$GNGGA,140201.00,3403.69888650,N,11932.47793190,W,2,13,0.9,7.824,M,-37.155,M,5.0,0131*69
$PYRTM,2024,126.584736221944,17.694383632083
$GNHDT,110.760,T*2A
$PYRTM,2024,126.584741360822,17.694388770961
$GNGGA,140201.50,3403.69839799,N,11932.47657626,W,2,13,0.9,7.738,M,-37.155,M,5.4,0131*67
$PYRTM,2024,126.584741360822,17.694388770961
$GNHDT,110.668,T*23
$PYRTM,2024,126.584747147882,17.694394558021
$GNGGA,140202.00,3403.69790665,N,11932.47521605,W,2,13,0.9,7.629,M,-37.155,M,6.0,0131*6A
$PYRTM,2024,126.584747147882,17.694394558021
$GNHDT,110.388,T*28
$PYRTM,2024,126.584753444132,17.694400854271
$GNGGA,140202.50,3403.69741947,N,11932.47385702,W,2,13,0.9,7.541,M,-37.155,M,6.4,0131*6B
$PYRTM,2024,126.584753444132,17.694400854271
$GNHDT,110.733,T*2C
$PYRTM,2024,126.584759231192,17.694406641331
$GNGGA,140203.00,3403.69695310,N,11932.47249462,W,2,13,0.9,7.506,M,-37.155,M,7.0,0131*6D
$PYRTM,2024,126.584759231192,17.694406641331
$GNHDT,110.427,T*2A
$PYRTM,2024,126.584765573762,17.694412983900
$GNGGA,140203.50,3403.69651490,N,11932.47113095,W,2,13,0.9,7.557,M,-37.155,M,7.4,0131*6F
$PYRTM,2024,126.584765573762,17.694412983900
$GNHDT,110.466,T*2F
$PYRTM,2024,126.584770203380,17.694417613519
$GNGGA,140204.00,3403.69609913,N,11932.46975937,W,2,13,0.9,7.667,M,-37.155,M,7.0,0131*6A
$PYRTM,2024,126.584770203380,17.694417613519
$GNHDT,110.602,T*2F
$PYRTM,2024,126.584776499687,17.694423909826
$GNGGA,140204.50,3403.69568408,N,11932.46838234,W,2,13,0.9,7.787,M,-37.155,M,7.4,0131*67
$PYRTM,2024,126.584776499687,17.694423909826
$GNHDT,110.482,T*25
$PYRTM,2024,126.584782286782,17.694429696921
$GNGGA,140205.00,3403.69525024,N,11932.46700048,W,2,13,0.9,7.860,M,-37.155,M,7.0,0131*6F
$PYRTM,2024,126.584782286782,17.694429696921
$GNHDT,110.423,T*2E
$PYRTM,2024,126.584788629352,17.694436039491
$GNGGA,140205.50,3403.69478417,N,11932.46561722,W,2,13,0.9,7.849,M,-37.155,M,7.4,0131*66
$PYRTM,2024,126.584788629352,17.694436039491
$GNHDT,110.566,T*2E
$PYRTM,2024,126.584793258970,17.694440669109
$GNGGA,140206.00,3403.69428129,N,11932.46423749,W,2,13,0.9,7.760,M,-37.155,M,4.0,0131*64
$PYRTM,2024,126.584793258970,17.694440669109
$GNHDT,110.653,T*2B
$PYRTM,2024,126.584799555255,17.694446965394
$GNGGA,140206.50,3403.69376527,N,11932.46286251,W,2,13,0.9,7.642,M,-37.155,M,4.4,0131*67
$PYRTM,2024,126.584799555255,17.694446965394
$GNHDT,110.501,T*2F
$PYRTM,2024,126.584805342326,17.694452752465
$GNGGA,140207.00,3403.69324174,N,11932.46150045,W,2,13,0.9,7.560,M,-37.155,M,5.0,0131*6F
$PYRTM,2024,126.584805342326,17.694452752465
$GNHDT,110.290,T*20
$PYRTM,2024,126.584811638611,17.694459048750
$GNGGA,140207.50,3403.69275309,N,11932.46011991,W,2,13,0.9,7.534,M,-37.155,M,5.4,0131*66
$PYRTM,2024,126.584811638611,17.694459048750
$GNHDT,110.112,T*29
$PYRTM,2024,126.584816268229,17.694463678368
$GNGGA,140208.00,3403.69228645,N,11932.45872075,W,2,13,0.9,7.577,M,-37.155,M,6.0,0131*64
$PYRTM,2024,126.584816268229,17.694463678368
$GNHDT,110.092,T*20
$PYRTM,2024,126.584822564537,17.694469974676
$GNGGA,140208.50,3403.69184569,N,11932.45731040,W,2,13,0.9,7.670,M,-37.155,M,6.4,0131*67
$PYRTM,2024,126.584822564537,17.694469974676
$GNHDT,110.062,T*2F
$PYRTM,2024,126.584828351586,17.694475761725
$GNGGA,140209.00,3403.69141107,N,11932.45589446,W,2,13,0.9,7.779,M,-37.155,M,7.0,0131*68
$PYRTM,2024,126.584828351586,17.694475761725
$GNHDT,110.265,T*2A
$PYRTM,2024,126.584832884225,17.694480294363
$GNGGA,140209.50,3403.69096073,N,11932.45448450,W,2,13,0.9,7.850,M,-37.155,M,7.4,0131*6F
$PYRTM,2024,126.584832884225,17.694480294363
$GNHDT,110.106,T*2C
$PYRTM,2024,126.584839416366,17.694486826505
$GNGGA,140210.00,3403.69049649,N,11932.45307823,W,2,13,0.9,7.857,M,-37.155,M,7.0,0131*68
$PYRTM,2024,126.584839416366,17.694486826505
$GNHDT,110.097,T*25
$PYRTM,2024,126.584845712627,17.694493122766
$GNGGA,140210.50,3403.69002036,N,11932.45168263,W,2,13,0.9,7.819,M,-37.155,M,7.4,0131*67
$PYRTM,2024,126.584845712627,17.694493122766
$GNHDT,110.109,T*23
$PYRTM,2024,126.584851499676,17.694498909815
$GNGGA,140211.00,3403.68953966,N,11932.45030399,W,2,13,0.9,7.759,M,-37.155,M,7.0,0131*64
$PYRTM,2024,126.584851499676,17.694498909815
$GNHDT,110.085,T*26
$PYRTM,2024,126.584857842419,17.694505252558
$GNGGA,140211.50,3403.68906092,N,11932.44894119,W,2,13,0.9,7.703,M,-37.155,M,7.4,0131*65
$PYRTM,2024,126.584857842419,17.694505252558
$GNHDT,109.976,T*2B
$PYRTM,2024,126.584862472002,17.694509882141
$GNGGA,140212.00,3403.68858835,N,11932.44758765,W,2,13,0.9,7.673,M,-37.156,M,4.0,0131*6C
$PYRTM,2024,126.584862472002,17.694509882141
$GNHDT,109.853,T*2D
$PYRTM,2024,126.584868768194,17.694516178333
$GNGGA,140212.50,3403.68813127,N,11932.44623926,W,2,13,0.9,7.661,M,-37.156,M,4.4,0131*6F
$PYRTM,2024,126.584868768194,17.694516178333
$GNHDT,109.901,T*2B
$PYRTM,2024,126.584874555266,17.694521965405
$GNGGA,140213.00,3403.68769407,N,11932.44488728,W,2,13,0.9,7.660,M,-37.156,M,5.0,0131*69
$PYRTM,2024,126.584874555266,17.694521965405
$GNHDT,109.962,T*2E
$PYRTM,2024,126.584880897847,17.694528307986
$GNGGA,140213.50,3403.68726681,N,11932.44352788,W,2,13,0.9,7.645,M,-37.156,M,5.4,0131*62
$PYRTM,2024,126.584880897847,17.694528307986
$GNHDT,110.170,T*2D
$PYRTM,2024,126.584886684907,17.694534095046
$GNGGA,140214.00,3403.68684019,N,11932.44216824,W,2,13,0.9,7.602,M,-37.156,M,6.0,0131*62
$PYRTM,2024,126.584886684907,17.694534095046
$GNHDT,110.351,T*2C
$PYRTM,2024,126.584891823773,17.694539233912
$GNGGA,140214.50,3403.68640655,N,11932.44082506,W,2,13,0.9,7.554,M,-37.156,M,6.4,0131*67
$PYRTM,2024,126.584891823773,17.694539233912
$GNHDT,110.367,T*29
$PYRTM,2024,126.584897610868,17.694545021007
$GNGGA,140215.00,3403.68597576,N,11932.43949422,W,2,13,0.9,7.521,M,-37.156,M,7.0,0131*61
$PYRTM,2024,126.584897610868,17.694545021007
$GNHDT,110.395,T*24
$PYRTM,2024,126.584902328125,17.694549738264
$GNGGA,140215.50,3403.68554280,N,11932.43817014,W,2,13,0.9,7.519,M,-37.156,M,7.4,0131*61
$PYRTM,2024,126.584902328125,17.694549738264
$GNHDT,110.389,T*29
$PYRTM,2024,126.584910759005,17.694558169144
$GNGGA,140216.00,3403.68509426,N,11932.43684657,W,2,13,0.9,7.543,M,-37.156,M,7.0,0131*6B
$PYRTM,2024,126.584910759005,17.694558169144
$GNHDT,110.457,T*2D
$PYRTM,2024,126.584917055313,17.694564465451
$GNGGA,140216.50,3403.68463165,N,11932.43552085,W,2,13,0.9,7.575,M,-37.156,M,7.4,0131*61
$PYRTM,2024,126.584917055313,17.694564465451
$GNHDT,110.672,T*28
$PYRTM,2024,126.584921684907,17.694569095046
$GNGGA,140217.00,3403.68416307,N,11932.43418515,W,2,13,0.9,7.612,M,-37.156,M,7.0,0131*64
$PYRTM,2024,126.584921684907,17.694569095046
$GNHDT,110.725,T*2B
$PYRTM,2024,126.584928027488,17.694575437627
$GNGGA,140217.50,3403.68370521,N,11932.43282894,W,2,13,0.9,7.649,M,-37.156,M,7.4,0131*6F
$PYRTM,2024,126.584928027488,17.694575437627
$GNHDT,110.689,T*2C
$PYRTM,2024,126.584933814514,17.694581224653
$GNGGA,140218.00,3403.68324706,N,11932.43145404,W,2,13,0.9,7.667,M,-37.156,M,4.0,0131*65
$PYRTM,2024,126.584933814514,17.694581224653
$GNHDT,110.664,T*2F
$PYRTM,2024,126.584940110856,17.694587520995
$GNGGA,140218.50,3403.68278378,N,11932.43007143,W,2,13,0.9,7.672,M,-37.156,M,4.4,0131*64
$PYRTM,2024,126.584940110856,17.694587520995
$GNHDT,110.765,T*2F
$PYRTM,2024,126.584944740463,17.694592150602
$GNGGA,140219.00,3403.68232697,N,11932.42867209,W,2,13,0.9,7.664,M,-37.156,M,5.0,0131*6A
$PYRTM,2024,126.584944740463,17.694592150602
$GNHDT,110.726,T*28
$PYRTM,2024,126.584948721921,17.694596132060
$GNGGA,140219.50,3403.68186107,N,11932.42728427,W,2,13,0.9,7.667,M,-37.156,M,5.4,0131*64
$PYRTM,2024,126.584948721921,17.694596132060
$GNHDT,110.842,T*25
$PYRTM,2024,126.584954509028,17.694601919167
$GNGGA,140220.00,3403.68138543,N,11932.42590954,W,2,13,0.9,7.710,M,-37.156,M,6.0,0131*64
$PYRTM,2024,126.584954509028,17.694601919167
$GNHDT,110.845,T*22
$PYRTM,2024,126.584960851562,17.694608261701
$GNGGA,140220.50,3403.68090321,N,11932.42453601,W,2,13,0.9,7.783,M,-37.156,M,6.4,0131*6F
$PYRTM,2024,126.584960851562,17.694608261701
$GNHDT,110.809,T*2A
$PYRTM,2024,126.584965481238,17.694612891377
$GNGGA,140221.00,3403.68041451,N,11932.42315674,W,2,13,0.9,7.860,M,-37.156,M,7.0,0131*67
$PYRTM,2024,126.584965481238,17.694612891377
$GNHDT,110.663,T*28
$PYRTM,2024,126.584971771806,17.694619181944
$GNGGA,140221.50,3403.67992646,N,11932.42176302,W,2,13,0.9,7.904,M,-37.156,M,7.4,0131*6A
$PYRTM,2024,126.584971771806,17.694619181944
$GNHDT,110.754,T*2D
$PYRTM,2024,126.584977610880,17.694625021019
$GNGGA,140222.00,3403.67943131,N,11932.42035223,W,2,13,0.9,7.885,M,-37.156,M,7.0,0131*6F
$PYRTM,2024,126.584977610880,17.694625021019
$GNHDT,110.545,T*2F
$PYRTM,2024,126.584983907130,17.694631317269
$GNGGA,140222.50,3403.67892879,N,11932.41893385,W,2,13,0.9,7.793,M,-37.156,M,7.4,0131*64
$PYRTM,2024,126.584983907130,17.694631317269
$GNHDT,110.762,T*28
$PYRTM,2024,126.584989694167,17.694637104306
$GNGGA,140223.00,3403.67842682,N,11932.41752122,W,2,13,0.9,7.671,M,-37.156,M,7.0,0131*63
$PYRTM,2024,126.584989694167,17.694637104306
$GNHDT,110.816,T*24
$PYRTM,2024,126.584994323762,17.694641733900
$GNGGA,140223.50,3403.67793724,N,11932.41613158,W,2,13,0.9,7.591,M,-37.156,M,7.4,0131*68
$PYRTM,2024,126.584994323762,17.694641733900
$GNHDT,111.055,T*2A
$PYRTM,2024,126.585000620081,17.694648030220
$GNGGA,140224.00,3403.67745916,N,11932.41476531,W,2,13,0.9,7.576,M,-37.156,M,4.0,0131*6A
$PYRTM,2024,126.585000620081,17.694648030220
$GNHDT,111.086,T*24
$PYRTM,2024,126.585006916412,17.694654326551
$GNGGA,140224.50,3403.67698850,N,11932.41340747,W,2,13,0.9,7.607,M,-37.156,M,4.4,0131*6D
$PYRTM,2024,126.585006916412,17.694654326551
$GNHDT,111.091,T*22
$PYRTM,2024,126.585012703380,17.694660113519
$GNGGA,140225.00,3403.67652243,N,11932.41204112,W,2,13,0.9,7.664,M,-37.156,M,5.0,0131*60
$PYRTM,2024,126.585012703380,17.694660113519
$GNHDT,110.914,T*27
$PYRTM,2024,126.585018999699,17.694666409838
$GNGGA,140225.50,3403.67605721,N,11932.41066297,W,2,13,0.9,7.689,M,-37.156,M,5.4,0131*69
$PYRTM,2024,126.585018999699,17.694666409838
$GNHDT,111.114,T*2E
$PYRTM,2024,126.585023629352,17.694671039491
$GNGGA,140226.00,3403.67558776,N,11932.40928138,W,2,13,0.9,7.681,M,-37.156,M,6.0,0131*6D
$PYRTM,2024,126.585023629352,17.694671039491
$GNHDT,111.101,T*2A
$PYRTM,2024,126.585029646308,17.694677056458
$GNGGA,140226.50,3403.67512394,N,11932.40790953,W,2,13,0.9,7.638,M,-37.156,M,6.4,0131*60
$PYRTM,2024,126.585029646308,17.694677056458
$GNHDT,110.957,T*20
$PYRTM,2024,126.585038212650,17.694685622789
$GNGGA,140227.00,3403.67466991,N,11932.40655223,W,2,13,0.9,7.612,M,-37.156,M,7.0,0131*60
$PYRTM,2024,126.585038212650,17.694685622789
$GNHDT,110.841,T*26
$PYRTM,2024,126.585044508912,17.694691919051
$GNGGA,140227.50,3403.67422280,N,11932.40521477,W,2,13,0.9,7.601,M,-37.156,M,7.4,0131*6F
$PYRTM,2024,126.585044508912,17.694691919051
$GNHDT,110.777,T*2C
$PYRTM,2024,126.585049138692,17.694696548831
$GNGGA,140228.00,3403.67376695,N,11932.40389173,W,2,13,0.9,7.597,M,-37.156,M,7.0,0131*6E
$PYRTM,2024,126.585049138692,17.694696548831
$GNHDT,110.816,T*24
$PYRTM,2024,126.585052981192,17.694700391331
$GNGGA,140228.50,3403.67329873,N,11932.40256877,W,2,13,0.9,7.578,M,-37.156,M,7.4,0131*6C
$PYRTM,2024,126.585052981192,17.694700391331
$GNHDT,110.916,T*25
$PYRTM,2024,126.585059925660,17.694707335799
