$PYRTM,2024,122.916672388461,14.026319798600
$GNGGA,220000.50,3353.82969865,N,11931.61329402,W,2,13,0.8,7.183,M,-37.647,M,5.4,0135*66
$PYRTM,2024,122.916672388461,14.026319798600
$GNHDT,239.993,T*20
$PYRTM,2024,122.916678229097,14.026325639236
$GNGGA,220001.00,3353.82962211,N,11931.61344493,W,2,13,0.8,7.110,M,-37.647,M,6.0,0135*6E
$PYRTM,2024,122.916678229097,14.026325639236
$GNHDT,239.657,T*27
$PYRTM,2024,122.916683965521,14.026331375660
$GNGGA,220001.50,3353.82952197,N,11931.61360061,W,2,13,0.8,7.028,M,-37.647,M,6.4,0135*64
$PYRTM,2024,122.916683965521,14.026331375660
$GNHDT,240.069,T*22
$PYRTM,2024,122.916689804711,14.026337214850
$GNGGA,220002.00,3353.82941474,N,11931.61374421,W,2,13,0.8,6.986,M,-37.647,M,7.0,0135*64
$PYRTM,2024,122.916689804711,14.026337214850
$GNHDT,240.207,T*28
$PYRTM,2024,122.916695537905,14.026342948044
$GNGGA,220002.50,3353.82929694,N,11931.61388723,W,2,13,0.8,6.976,M,-37.647,M,7.4,0135*6A
$PYRTM,2024,122.916695537905,14.026342948044
$GNHDT,240.142,T*2A
$PYRTM,2024,122.916701377211,14.026348787350
$GNGGA,220003.00,3353.82915657,N,11931.61403283,W,2,13,0.8,7.030,M,-37.647,M,7.0,0135*6B
$PYRTM,2024,122.916701377211,14.026348787350
$GNHDT,240.151,T*28
$PYRTM,2024,122.916707108229,14.026354518368
$GNGGA,220003.50,3353.82905783,N,11931.61415676,W,2,13,0.8,7.114,M,-37.647,M,7.4,0135*6D
$PYRTM,2024,122.916707108229,14.026354518368
$GNHDT,240.089,T*2C
$PYRTM,2024,122.916712951123,14.026360361262
$GNGGA,220004.00,3353.82897002,N,11931.61426875,W,2,13,0.8,7.254,M,-37.647,M,7.0,0135*65
$PYRTM,2024,122.916712951123,14.026360361262
$GNHDT,239.765,T*27
$PYRTM,2024,122.916718681667,14.026366091806
$GNGGA,220004.50,3353.82888284,N,11931.61438402,W,2,13,0.8,7.379,M,-37.647,M,7.4,0135*6B
$PYRTM,2024,122.916718681667,14.026366091806
$GNHDT,240.013,T*2F
$PYRTM,2024,122.916724521192,14.026371931343
$GNGGA,220005.00,3353.82879474,N,11931.61449847,W,2,13,0.8,7.509,M,-37.647,M,4.0,0135*65
$PYRTM,2024,122.916724521192,14.026371931343
$GNHDT,240.029,T*26
$PYRTM,2024,122.916730255810,14.026377665949
$GNGGA,220005.50,3353.82870464,N,11931.61462255,W,2,13,0.8,7.587,M,-37.647,M,4.4,0135*6A
$PYRTM,2024,122.916730255810,14.026377665949
$GNHDT,239.755,T*24
$PYRTM,2024,122.916736100729,14.026383510868
$GNGGA,220006.00,3353.82861236,N,11931.61476231,W,2,13,0.8,7.617,M,-37.647,M,5.0,0135*65
$PYRTM,2024,122.916736100729,14.026383510868
$GNHDT,239.740,T*20
$PYRTM,2024,122.916741835961,14.026389246100
$GNGGA,220006.50,3353.82851523,N,11931.61491692,W,2,13,0.8,7.585,M,-37.647,M,5.4,0135*68
$PYRTM,2024,122.916741835961,14.026389246100
$GNHDT,239.899,T*2B
$PYRTM,2024,122.916747687801,14.026395097940
$GNGGA,220007.00,3353.82838271,N,11931.61510207,W,2,13,0.8,7.511,M,-37.647,M,6.0,0135*69
$PYRTM,2024,122.916747687801,14.026395097940
$GNHDT,239.882,T*21
$PYRTM,2024,122.916753403912,14.026400814062
$GNGGA,220007.50,3353.82826693,N,11931.61526956,W,2,13,0.8,7.452,M,-37.647,M,6.4,0135*63
$PYRTM,2024,122.916753403912,14.026400814062
$GNHDT,239.922,T*2A
$PYRTM,2024,122.916759244734,14.026406654873
$GNGGA,220008.00,3353.82815407,N,11931.61542670,W,2,13,0.8,7.440,M,-37.647,M,7.0,0135*69
$PYRTM,2024,122.916759244734,14.026406654873
$GNHDT,239.797,T*2A
$PYRTM,2024,122.916764979676,14.026412389815
$GNGGA,220008.50,3353.82806379,N,11931.61556304,W,2,13,0.8,7.486,M,-37.647,M,7.4,0135*6D
$PYRTM,2024,122.916764979676,14.026412389815
$GNHDT,240.124,T*2A
$PYRTM,2024,122.916770816759,14.026418226898
$GNGGA,220009.00,3353.82796701,N,11931.61569068,W,2,13,0.8,7.565,M,-37.647,M,7.0,0135*69
$PYRTM,2024,122.916770816759,14.026418226898
$GNHDT,240.058,T*20
$PYRTM,2024,122.916776554769,14.026423964907
$GNGGA,220009.50,3353.82787097,N,11931.61581976,W,2,13,0.8,7.632,M,-37.647,M,7.4,0135*61
$PYRTM,2024,122.916776554769,14.026423964907
$GNHDT,239.838,T*20
$PYRTM,2024,122.916782393403,14.026429803553
$GNGGA,220010.00,3353.82776767,N,11931.61595064,W,2,13,0.8,7.673,M,-37.647,M,7.0,0135*64
$PYRTM,2024,122.916782393403,14.026429803553
$GNHDT,239.699,T*25
$PYRTM,2024,122.916788129363,14.026435539502
$GNGGA,220010.50,3353.82765390,N,11931.61610572,W,2,13,0.8,7.641,M,-37.647,M,7.4,0135*66
$PYRTM,2024,122.916788129363,14.026435539502
$GNHDT,239.780,T*2C
$PYRTM,2024,122.916793969560,14.026441379699
$GNGGA,220011.00,3353.82756209,N,11931.61625423,W,2,13,0.8,7.562,M,-37.647,M,4.0,0135*65
$PYRTM,2024,122.916793969560,14.026441379699
$GNHDT,239.740,T*20
$PYRTM,2024,122.916799704525,14.026447114664
$GNGGA,220011.50,3353.82743842,N,11931.61643793,W,2,13,0.8,7.453,M,-37.647,M,4.4,0135*6E
$PYRTM,2024,122.916799704525,14.026447114664
$GNHDT,239.811,T*2B
$PYRTM,2024,122.916805542755,14.026452952894
$GNGGA,220012.00,3353.82731812,N,11931.61661818,W,2,13,0.8,7.356,M,-37.647,M,5.0,0135*63
$PYRTM,2024,122.916805542755,14.026452952894
$GNHDT,239.823,T*2A
$PYRTM,2024,122.916811276586,14.026458686736
$GNGGA,220012.50,3353.82721130,N,11931.61676296,W,2,13,0.8,7.318,M,-37.647,M,5.4,0135*6A
$PYRTM,2024,122.916811276586,14.026458686736
$GNHDT,239.731,T*26
$PYRTM,2024,122.916817118021,14.026464528160
$GNGGA,220013.00,3353.82710500,N,11931.61687764,W,2,13,0.8,7.373,M,-37.647,M,6.0,0135*67
$PYRTM,2024,122.916817118021,14.026464528160
$GNHDT,239.601,T*24
$PYRTM,2024,122.916822847917,14.026470258056
$GNGGA,220013.50,3353.82701055,N,11931.61697719,W,2,13,0.8,7.480,M,-37.647,M,6.4,0135*63
$PYRTM,2024,122.916822847917,14.026470258056
$GNHDT,239.637,T*21
$PYRTM,2024,122.916828693900,14.026476104039
$GNGGA,220014.00,3353.82693198,N,11931.61707887,W,2,13,0.8,7.588,M,-37.647,M,7.0,0135*67
$PYRTM,2024,122.916828693900,14.026476104039
$GNHDT,239.479,T*29
$PYRTM,2024,122.916834423611,14.026481833750
$GNGGA,220014.50,3353.82685071,N,11931.61720210,W,2,13,0.8,7.669,M,-37.647,M,7.4,0135*6A
$PYRTM,2024,122.916834423611,14.026481833750
$GNHDT,239.436,T*22
$PYRTM,2024,122.916840263241,14.026487673391
$GNGGA,220015.00,3353.82674881,N,11931.61735707,W,2,13,0.8,7.676,M,-37.647,M,7.0,0135*6A
$PYRTM,2024,122.916840263241,14.026487673391
$GNHDT,239.296,T*2E
$PYRTM,2024,122.916846003206,14.026493413356
$GNGGA,220015.50,3353.82665179,N,11931.61751174,W,2,13,0.8,7.638,M,-37.647,M,7.4,0135*6F
$PYRTM,2024,122.916846003206,14.026493413356
$GNHDT,239.427,T*22
$PYRTM,2024,122.916851836505,14.026499246644
$GNGGA,220016.00,3353.82654547,N,11931.61766305,W,2,13,0.8,7.584,M,-37.647,M,7.0,0135*62
$PYRTM,2024,122.916851836505,14.026499246644
$GNHDT,239.467,T*26
$PYRTM,2024,122.916857573437,14.026504983576
$GNGGA,220016.50,3353.82642290,N,11931.61782135,W,2,13,0.8,7.540,M,-37.647,M,7.4,0135*6A
$PYRTM,2024,122.916857573437,14.026504983576
$GNHDT,239.514,T*23
$PYRTM,2024,122.916863416458,14.026510826597
$GNGGA,220017.00,3353.82629548,N,11931.61796999,W,2,13,0.8,7.527,M,-37.647,M,4.0,0135*6C
$PYRTM,2024,122.916863416458,14.026510826597
$GNHDT,239.559,T*2A
$PYRTM,2024,122.916869143970,14.026516554109
$GNGGA,220017.50,3353.82618152,N,11931.61810012,W,2,13,0.8,7.574,M,-37.647,M,4.4,0135*6D
$PYRTM,2024,122.916869143970,14.026516554109
$GNHDT,239.488,T*27
$PYRTM,2024,122.916874988322,14.026522398461
$GNGGA,220018.00,3353.82606284,N,11931.61822920,W,2,13,0.8,7.636,M,-37.647,M,5.0,0135*69
$PYRTM,2024,122.916874988322,14.026522398461
$GNHDT,239.348,T*2C
$PYRTM,2024,122.916880725220,14.026528135359
$GNGGA,220018.50,3353.82594914,N,11931.61835719,W,2,13,0.8,7.691,M,-37.647,M,5.4,0135*6D
$PYRTM,2024,122.916880725220,14.026528135359
$GNHDT,239.296,T*2E
$PYRTM,2024,122.916886561007,14.026533971146
$GNGGA,220019.00,3353.82584850,N,11931.61848447,W,2,13,0.8,7.707,M,-37.647,M,6.0,0135*62
$PYRTM,2024,122.916886561007,14.026533971146
$GNHDT,239.194,T*2F
$PYRTM,2024,122.916892296956,14.026539707095
$GNGGA,220019.50,3353.82573628,N,11931.61863637,W,2,13,0.8,7.698,M,-37.647,M,6.4,0135*61
$PYRTM,2024,122.916892296956,14.026539707095
$GNHDT,239.077,T*23
$PYRTM,2024,122.916898147303,14.026545557442
$GNGGA,220020.00,3353.82563090,N,11931.61879299,W,2,13,0.8,7.633,M,-37.647,M,7.0,0135*65
$PYRTM,2024,122.916898147303,14.026545557442
$GNHDT,239.151,T*26
$PYRTM,2024,122.916903869236,14.026551279375
$GNGGA,220020.50,3353.82551352,N,11931.61896370,W,2,13,0.8,7.533,M,-37.647,M,7.4,0135*6C
$PYRTM,2024,122.916903869236,14.026551279375
$GNHDT,239.112,T*21
$PYRTM,2024,122.916909709884,14.026557120023
$GNGGA,220021.00,3353.82538972,N,11931.61913285,W,2,13,0.8,7.436,M,-37.647,M,7.0,0135*68
$PYRTM,2024,122.916909709884,14.026557120023
$GNHDT,239.111,T*22
$PYRTM,2024,122.916915445845,14.026562855984
$GNGGA,220021.50,3353.82527238,N,11931.61928733,W,2,13,0.8,7.370,M,-37.647,M,7.4,0135*67
$PYRTM,2024,122.916915445845,14.026562855984
$GNHDT,239.335,T*26
$PYRTM,2024,122.916921279398,14.026568689537
$GNGGA,220022.00,3353.82515243,N,11931.61943535,W,2,13,0.8,7.342,M,-37.647,M,7.0,0135*60
$PYRTM,2024,122.916921279398,14.026568689537
$GNHDT,239.404,T*23
$PYRTM,2024,122.916927017928,14.026574428067
$GNGGA,220022.50,3353.82503903,N,11931.61957772,W,2,13,0.8,7.357,M,-37.647,M,7.4,0135*69
$PYRTM,2024,122.916927017928,14.026574428067
$GNHDT,239.111,T*22
$PYRTM,2024,122.916932857106,14.026580267245
$GNGGA,220023.00,3353.82493288,N,11931.61971200,W,2,13,0.8,7.400,M,-37.647,M,4.0,0135*6B
$PYRTM,2024,122.916932857106,14.026580267245
$GNHDT,238.994,T*26
$PYRTM,2024,122.916938590370,14.026586000509
$GNGGA,220023.50,3353.82483878,N,11931.61983660,W,2,13,0.8,7.479,M,-37.647,M,4.4,0135*6F
$PYRTM,2024,122.916938590370,14.026586000509
$GNHDT,239.104,T*26
$PYRTM,2024,122.916944428287,14.026591838426
$GNGGA,220024.00,3353.82474447,N,11931.61995956,W,2,13,0.8,7.555,M,-37.647,M,5.0,0135*62
$PYRTM,2024,122.916944428287,14.026591838426
$GNHDT,238.931,T*29
$PYRTM,2024,122.916950164387,14.026597574525
$GNGGA,220024.50,3353.82464117,N,11931.62009815,W,2,13,0.8,7.614,M,-37.647,M,5.4,0135*6D
$PYRTM,2024,122.916950164387,14.026597574525
$GNHDT,239.037,T*27
$PYRTM,2024,122.916956011574,14.026603421725
$GNGGA,220025.00,3353.82453897,N,11931.62024071,W,2,13,0.8,7.620,M,-37.647,M,6.0,0135*69
$PYRTM,2024,122.916956011574,14.026603421725
$GNHDT,239.163,T*27
$PYRTM,2024,122.916961736829,14.026609146968
$GNGGA,220025.50,3353.82443873,N,11931.62039173,W,2,13,0.8,7.581,M,-37.647,M,6.4,0135*64
$PYRTM,2024,122.916961736829,14.026609146968
$GNHDT,238.895,T*26
$PYRTM,2024,122.916967580012,14.026614990150
$GNGGA,220026.00,3353.82433549,N,11931.62054169,W,2,13,0.8,7.503,M,-37.647,M,7.0,0135*6E
$PYRTM,2024,122.916967580012,14.026614990150
$GNHDT,238.914,T*2E
$PYRTM,2024,122.916973318218,14.026620728356
$GNGGA,220026.50,3353.82422921,N,11931.62069051,W,2,13,0.8,7.421,M,-37.647,M,7.4,0135*68
$PYRTM,2024,122.916973318218,14.026620728356
$GNHDT,239.017,T*25
$PYRTM,2024,122.916979150602,14.026626560752
$GNGGA,220027.00,3353.82411231,N,11931.62082270,W,2,13,0.8,7.387,M,-37.647,M,7.0,0135*6D
$PYRTM,2024,122.916979150602,14.026626560752
$GNHDT,238.935,T*2D
$PYRTM,2024,122.916984886204,14.026632296343
$GNGGA,220027.50,3353.82399199,N,11931.62093785,W,2,13,0.8,7.379,M,-37.647,M,7.4,0135*64
$PYRTM,2024,122.916984886204,14.026632296343
$GNHDT,238.788,T*25
$PYRTM,2024,122.916990730162,14.026638140301
$GNGGA,220028.00,3353.82387697,N,11931.62104533,W,2,13,0.8,7.409,M,-37.647,M,7.0,0135*6C
$PYRTM,2024,122.916990730162,14.026638140301
$GNHDT,238.709,T*2C
$PYRTM,2024,122.916996468530,14.026643878669
$GNGGA,220028.50,3353.82376899,N,11931.62115742,W,2,13,0.8,7.450,M,-37.647,M,7.4,0135*6B
$PYRTM,2024,122.916996468530,14.026643878669
$GNHDT,238.704,T*21
$PYRTM,2024,122.917002298530,14.026649708669
$GNGGA,220029.00,3353.82366517,N,11931.62128890,W,2,13,0.8,7.440,M,-37.647,M,4.0,0135*6D
$PYRTM,2024,122.917002298530,14.026649708669
$GNHDT,238.672,T*21
$PYRTM,2024,122.917008039549,14.026655449687
$GNGGA,220029.50,3353.82355879,N,11931.62144349,W,2,13,0.8,7.401,M,-37.647,M,4.4,0135*69
$PYRTM,2024,122.917008039549,14.026655449687
$GNHDT,238.670,T*23
$PYRTM,2024,122.917013881273,14.026661291424
$GNGGA,220030.00,3353.82345281,N,11931.62160006,W,2,13,0.8,7.349,M,-37.647,M,5.0,0135*68
$PYRTM,2024,122.917013881273,14.026661291424
$GNHDT,238.663,T*21
$PYRTM,2024,122.917019609028,14.026667019167
$GNGGA,220030.50,3353.82334036,N,11931.62175188,W,2,13,0.8,7.320,M,-37.647,M,5.4,0135*6D
$PYRTM,2024,122.917019609028,14.026667019167
$GNHDT,238.628,T*2E
$PYRTM,2024,122.917025448519,14.026672858657
$GNGGA,220031.00,3353.82322254,N,11931.62188633,W,2,13,0.8,7.332,M,-37.647,M,6.0,0135*69
$PYRTM,2024,122.917025448519,14.026672858657
$GNHDT,238.583,T*2C
$PYRTM,2024,122.917031185301,14.026678595440
$GNGGA,220031.50,3353.82310667,N,11931.62200526,W,2,13,0.8,7.380,M,-37.647,M,6.4,0135*60
$PYRTM,2024,122.917031185301,14.026678595440
$GNHDT,238.549,T*2A
$PYRTM,2024,122.917037027512,14.026684437650
$GNGGA,220032.00,3353.82299539,N,11931.62211208,W,2,13,0.8,7.442,M,-37.647,M,7.0,0135*69
$PYRTM,2024,122.917037027512,14.026684437650
$GNHDT,238.601,T*25
$PYRTM,2024,122.917042759421,14.026690169560
$GNGGA,220032.50,3353.82287902,N,11931.62222675,W,2,13,0.8,7.489,M,-37.647,M,7.4,0135*6A
$PYRTM,2024,122.917042759421,14.026690169560
$GNHDT,238.543,T*20
$PYRTM,2024,122.917048599618,14.026696009757
$GNGGA,220033.00,3353.82277284,N,11931.62235126,W,2,13,0.8,7.497,M,-37.647,M,7.0,0135*68
$PYRTM,2024,122.917048599618,14.026696009757
$GNHDT,238.549,T*2A
$PYRTM,2024,122.917054333032,14.026701743171
$GNGGA,220033.50,3353.82266720,N,11931.62249857,W,2,13,0.8,7.461,M,-37.647,M,7.4,0135*6F
$PYRTM,2024,122.917054333032,14.026701743171
$GNHDT,238.461,T*21
$PYRTM,2024,122.917060169039,14.026707579178
$GNGGA,220034.00,3353.82256690,N,11931.62265572,W,2,13,0.8,7.416,M,-37.647,M,7.0,0135*64
$PYRTM,2024,122.917060169039,14.026707579178
$GNHDT,238.627,T*21
$PYRTM,2024,122.917065910880,14.026713321019
$GNGGA,220034.50,3353.82246699,N,11931.62282030,W,2,13,0.8,7.370,M,-37.647,M,7.4,0135*60
$PYRTM,2024,122.917065910880,14.026713321019
$GNHDT,238.625,T*23
$PYRTM,2024,122.917071747326,14.026719157465
$GNGGA,220035.00,3353.82237357,N,11931.62297122,W,2,13,0.8,7.400,M,-37.647,M,4.0,0135*64
$PYRTM,2024,122.917071747326,14.026719157465
$GNHDT,238.471,T*20
$PYRTM,2024,122.917077488229,14.026724898368
$GNGGA,220035.50,3353.82228849,N,11931.62311062,W,2,13,0.8,7.472,M,-37.647,M,4.4,0135*60
$PYRTM,2024,122.917077488229,14.026724898368
$GNHDT,238.585,T*2A
$PYRTM,2024,122.917083321238,14.026730731377
$GNGGA,220036.00,3353.82218295,N,11931.62324618,W,2,13,0.8,7.611,M,-37.647,M,5.0,0135*61
$PYRTM,2024,122.917083321238,14.026730731377
$GNHDT,238.544,T*27
$PYRTM,2024,122.917089055451,14.026736465590
$GNGGA,220036.50,3353.82205930,N,11931.62337908,W,2,13,0.8,7.740,M,-37.647,M,5.4,0135*61
$PYRTM,2024,122.917089055451,14.026736465590
$GNHDT,238.295,T*2C
$PYRTM,2024,122.917094895255,14.026742305394
$GNGGA,220037.00,3353.82190598,N,11931.62351908,W,2,13,0.8,7.819,M,-37.647,M,6.0,0135*60
$PYRTM,2024,122.917094895255,14.026742305394
$GNHDT,238.008,T*2A
$PYRTM,2024,122.917100629560,14.026748039711
$GNGGA,220037.50,3353.82176056,N,11931.62364461,W,2,13,0.8,7.830,M,-37.647,M,6.4,0135*61
$PYRTM,2024,122.917100629560,14.026748039711
$GNHDT,238.191,T*2B
$PYRTM,2024,122.917106466667,14.026753876806
$GNGGA,220038.00,3353.82159631,N,11931.62379400,W,2,13,0.8,7.759,M,-37.647,M,7.0,0135*6F
$PYRTM,2024,122.917106466667,14.026753876806
$GNHDT,238.238,T*2B
$PYRTM,2024,122.917112201319,14.026759611458
$GNGGA,220038.50,3353.82145570,N,11931.62393336,W,2,13,0.8,7.653,M,-37.647,M,7.4,0135*68
$PYRTM,2024,122.917112201319,14.026759611458
$GNHDT,238.029,T*29
$PYRTM,2024,122.917118042338,14.026765452477
$GNGGA,220039.00,3353.82133273,N,11931.62406794,W,2,13,0.8,7.548,M,-37.647,M,7.0,0135*63
$PYRTM,2024,122.917118042338,14.026765452477
$GNHDT,238.077,T*22
$PYRTM,2024,122.917123775162,14.026771185301
$GNGGA,220039.50,3353.82123384,N,11931.62420065,W,2,13,0.8,7.460,M,-37.647,M,7.4,0135*6C
$PYRTM,2024,122.917123775162,14.026771185301
$GNHDT,238.244,T*20
$PYRTM,2024,122.917129618727,14.026777028866
$GNGGA,220040.00,3353.82113036,N,11931.62434520,W,2,13,0.8,7.380,M,-37.647,M,7.0,0135*62
$PYRTM,2024,122.917129618727,14.026777028866
$GNHDT,238.280,T*28
$PYRTM,2024,122.917135355741,14.026782765880
$GNGGA,220040.50,3353.82104186,N,11931.62451178,W,2,13,0.8,7.292,M,-37.647,M,7.4,0135*67
$PYRTM,2024,122.917135355741,14.026782765880
$GNHDT,238.304,T*25
$PYRTM,2024,122.917141193032,14.026788603183
$GNGGA,220041.00,3353.82094057,N,11931.62469368,W,2,13,0.8,7.205,M,-37.647,M,4.0,0135*67
$PYRTM,2024,122.917141193032,14.026788603183
$GNHDT,238.371,T*27
$PYRTM,2024,122.917146926192,14.026794336343
$GNGGA,220041.50,3353.82082514,N,11931.62487047,W,2,13,0.8,7.144,M,-37.647,M,4.4,0135*6B
$PYRTM,2024,122.917146926192,14.026794336343
$GNHDT,238.239,T*2A
$PYRTM,2024,122.917152763391,14.026800173530
$GNGGA,220042.00,3353.82069565,N,11931.62503449,W,2,13,0.8,7.138,M,-37.647,M,5.0,0135*67
$PYRTM,2024,122.917152763391,14.026800173530
$GNHDT,238.365,T*22
$PYRTM,2024,122.917158502141,14.026805912280
$GNGGA,220042.50,3353.82055864,N,11931.62517100,W,2,13,0.8,7.179,M,-37.647,M,5.4,0135*6D
$PYRTM,2024,122.917158502141,14.026805912280
$GNHDT,238.376,T*20
$PYRTM,2024,122.917164341308,14.026811751447
$GNGGA,220043.00,3353.82041255,N,11931.62528693,W,2,13,0.8,7.271,M,-37.647,M,6.0,0135*69
$PYRTM,2024,122.917164341308,14.026811751447
$GNHDT,238.412,T*25
$PYRTM,2024,122.917170071343,14.026817481493
$GNGGA,220043.50,3353.82027086,N,11931.62539863,W,2,13,0.8,7.388,M,-37.647,M,6.4,0135*62
$PYRTM,2024,122.917170071343,14.026817481493
$GNHDT,238.260,T*26
$PYRTM,2024,122.917175911181,14.026823321319
$GNGGA,220044.00,3353.82014415,N,11931.62552408,W,2,13,0.8,7.509,M,-37.647,M,7.0,0135*68
$PYRTM,2024,122.917175911181,14.026823321319
$GNHDT,237.995,T*28
$PYRTM,2024,122.917181647824,14.026829057963
$GNGGA,220044.50,3353.82002003,N,11931.62564424,W,2,13,0.8,7.598,M,-37.647,M,7.4,0135*6E
$PYRTM,2024,122.917181647824,14.026829057963
$GNHDT,237.785,T*27
$PYRTM,2024,122.917187486736,14.026834896875
$GNGGA,220045.00,3353.81990658,N,11931.62578567,W,2,13,0.8,7.632,M,-37.647,M,7.0,0135*6F
$PYRTM,2024,122.917187486736,14.026834896875
$GNHDT,237.632,T*2A
$PYRTM,2024,122.917193221701,14.026840631840
$GNGGA,220045.50,3353.81981217,N,11931.62592746,W,2,13,0.8,7.585,M,-37.647,M,7.4,0135*6B
$PYRTM,2024,122.917193221701,14.026840631840
$GNHDT,237.781,T*23
$PYRTM,2024,122.917199060949,14.026846471088
$GNGGA,220046.00,3353.81973950,N,11931.62607172,W,2,13,0.8,7.463,M,-37.647,M,7.0,0135*6B
$PYRTM,2024,122.917199060949,14.026846471088
$GNHDT,237.846,T*27
$PYRTM,2024,122.917204792535,14.026852202674
$GNGGA,220046.50,3353.81965923,N,11931.62622559,W,2,13,0.8,7.306,M,-37.647,M,7.4,0135*67
$PYRTM,2024,122.917204792535,14.026852202674
$GNHDT,238.062,T*26
$PYRTM,2024,122.917210632373,14.026858042512
$GNGGA,220047.00,3353.81956508,N,11931.62637777,W,2,13,0.8,7.173,M,-37.647,M,4.0,0135*6B
$PYRTM,2024,122.917210632373,14.026858042512
$GNHDT,238.152,T*24
$PYRTM,2024,122.917216368067,14.026863778206
$GNGGA,220047.50,3353.81945779,N,11931.62651088,W,2,13,0.8,7.120,M,-37.647,M,4.4,0135*6D
$PYRTM,2024,122.917216368067,14.026863778206
$GNHDT,238.229,T*2B
$PYRTM,2024,122.917222205058,14.026869615208
$GNGGA,220048.00,3353.81936437,N,11931.62660026,W,2,13,0.8,7.176,M,-37.647,M,5.0,0135*6A
$PYRTM,2024,122.917222205058,14.026869615208
$GNHDT,238.267,T*21
$PYRTM,2024,122.917227944734,14.026875354873
$GNGGA,220048.50,3353.81925484,N,11931.62668165,W,2,13,0.8,7.306,M,-37.647,M,5.4,0135*6A
$PYRTM,2024,122.917227944734,14.026875354873
$GNHDT,237.913,T*26
$PYRTM,2024,122.917233785417,14.026881195556
$GNGGA,220049.00,3353.81912872,N,11931.62677355,W,2,13,0.8,7.470,M,-37.647,M,6.0,0135*61
$PYRTM,2024,122.917233785417,14.026881195556
$GNHDT,237.711,T*2A
$PYRTM,2024,122.917239516574,14.026886926713
$GNGGA,220049.50,3353.81898076,N,11931.62687561,W,2,13,0.8,7.604,M,-37.647,M,6.4,0135*60
$PYRTM,2024,122.917239516574,14.026886926713
$GNHDT,237.731,T*28
$PYRTM,2024,122.917245353403,14.026892763542
$GNGGA,220050.00,3353.81881901,N,11931.62701502,W,2,13,0.8,7.680,M,-37.647,M,7.0,0135*6F
$PYRTM,2024,122.917245353403,14.026892763542
$GNHDT,237.548,T*24
$PYRTM,2024,122.917251090150,14.026898500301
$GNGGA,220050.50,3353.81866754,N,11931.62717917,W,2,13,0.8,7.625,M,-37.647,M,7.4,0135*69
$PYRTM,2024,122.917251090150,14.026898500301
$GNHDT,237.539,T*22
$PYRTM,2024,122.917256926968,14.026904337106
$GNGGA,220051.00,3353.81852678,N,11931.62736004,W,2,13,0.8,7.493,M,-37.647,M,7.0,0135*66
$PYRTM,2024,122.917256926968,14.026904337106
$GNHDT,237.631,T*29
$PYRTM,2024,122.917262664595,14.026910074734
$GNGGA,220051.50,3353.81840267,N,11931.62753824,W,2,13,0.8,7.320,M,-37.647,M,7.4,0135*68
$PYRTM,2024,122.917262664595,14.026910074734
$GNHDT,237.668,T*25
$PYRTM,2024,122.917268507766,14.026915917905
$GNGGA,220052.00,3353.81829797,N,11931.62771030,W,2,13,0.8,7.183,M,-37.647,M,7.0,0135*69
$PYRTM,2024,122.917268507766,14.026915917905
$GNHDT,237.660,T*2D
$PYRTM,2024,122.917274238426,14.026921648565
$GNGGA,220052.50,3353.81821197,N,11931.62784832,W,2,13,0.8,7.129,M,-37.647,M,7.4,0135*66
$PYRTM,2024,122.917274238426,14.026921648565
$GNHDT,237.818,T*2C
$PYRTM,2024,122.917280080602,14.026927490741
$GNGGA,220053.00,3353.81812596,N,11931.62796974,W,2,13,0.8,7.176,M,-37.647,M,4.0,0135*6A
$PYRTM,2024,122.917280080602,14.026927490741
$GNHDT,237.929,T*2F
$PYRTM,2024,122.917285815046,14.026933225185
$GNGGA,220053.50,3353.81801318,N,11931.62807231,W,2,13,0.8,7.284,M,-37.647,M,4.4,0135*6A
$PYRTM,2024,122.917285815046,14.026933225185
$GNHDT,237.822,T*25
$PYRTM,2024,122.917291656343,14.026939066481
$GNGGA,220054.00,3353.81787139,N,11931.62816805,W,2,13,0.8,7.421,M,-37.647,M,5.0,0135*69
$PYRTM,2024,122.917291656343,14.026939066481
$GNHDT,237.831,T*27
$PYRTM,2024,122.917297385914,14.026944796053
$GNGGA,220054.50,3353.81772033,N,11931.62829137,W,2,13,0.8,7.526,M,-37.647,M,5.4,0135*6B
$PYRTM,2024,122.917297385914,14.026944796053
$GNHDT,237.704,T*2E
$PYRTM,2024,122.917303225324,14.026950635463
$GNGGA,220055.00,3353.81754681,N,11931.62842371,W,2,13,0.8,7.579,M,-37.647,M,6.0,0135*64
$PYRTM,2024,122.917303225324,14.026950635463
$GNHDT,237.635,T*2D
$PYRTM,2024,122.917308958935,14.026956369074
$GNGGA,220055.50,3353.81738596,N,11931.62858731,W,2,13,0.8,7.567,M,-37.647,M,6.4,0135*6E
$PYRTM,2024,122.917308958935,14.026956369074
$GNHDT,237.640,T*2F
$PYRTM,2024,122.917314803750,14.026962213889
$GNGGA,220056.00,3353.81723601,N,11931.62873223,W,2,13,0.8,7.468,M,-37.647,M,7.0,0135*6B
$PYRTM,2024,122.917314803750,14.026962213889
$GNHDT,237.836,T*20
$PYRTM,2024,122.917320531759,14.026967941898
$GNGGA,220056.50,3353.81714315,N,11931.62886220,W,2,13,0.8,7.375,M,-37.647,M,7.4,0135*6C
$PYRTM,2024,122.917320531759,14.026967941898
$GNHDT,237.598,T*29
$PYRTM,2024,122.917326374826,14.026973784965
$GNGGA,220057.00,3353.81705412,N,11931.62899815,W,2,13,0.8,7.279,M,-37.647,M,7.0,0135*63
$PYRTM,2024,122.917326374826,14.026973784965
$GNHDT,237.670,T*2C
$PYRTM,2024,122.917332109306,14.026979519444
$GNGGA,220057.50,3353.81697675,N,11931.62912005,W,2,13,0.8,7.207,M,-37.647,M,7.4,0135*69
$PYRTM,2024,122.917332109306,14.026979519444
$GNHDT,237.622,T*2B
$PYRTM,2024,122.917337949086,14.026985359225
$GNGGA,220058.00,3353.81692332,N,11931.62923168,W,2,13,0.8,7.173,M,-37.647,M,7.0,0135*6C
$PYRTM,2024,122.917337949086,14.026985359225
$GNHDT,237.658,T*26
$PYRTM,2024,122.917343686215,14.026991096354
$GNGGA,220058.50,3353.81684577,N,11931.62935213,W,2,13,0.8,7.170,M,-37.647,M,7.4,0135*66
$PYRTM,2024,122.917343686215,14.026991096354
$GNHDT,237.698,T*2A
$PYRTM,2024,122.917349525023,14.026996935162
$GNGGA,220059.00,3353.81673193,N,11931.62947622,W,2,13,0.8,7.192,M,-37.647,M,4.0,0135*6C
$PYRTM,2024,122.917349525023,14.026996935162
$GNHDT,237.704,T*2E
$PYRTM,2024,122.917355258472,14.027002668611
$GNGGA,220059.50,3353.81660154,N,11931.62960147,W,2,13,0.8,7.242,M,-37.647,M,4.4,0135*6B
$PYRTM,2024,122.917355258472,14.027002668611
$GNHDT,237.542,T*2E
$PYRTM,2024,122.917361095000,14.027008505139
$GNGGA,220100.00,3353.81644807,N,11931.62972999,W,2,13,0.8,7.311,M,-37.647,M,5.0,0135*60
$PYRTM,2024,122.917361095000,14.027008505139
$GNHDT,237.483,T*22
$PYRTM,2024,122.917366833843,14.027014243981
$GNGGA,220100.50,3353.81630465,N,11931.62986081,W,2,13,0.8,7.395,M,-37.647,M,5.4,0135*6D
$PYRTM,2024,122.917366833843,14.027014243981
$GNHDT,237.779,T*24
$PYRTM,2024,122.917372671146,14.027020081285
$GNGGA,220101.00,3353.81615558,N,11931.62998385,W,2,13,0.8,7.471,M,-37.647,M,6.0,0135*63
$PYRTM,2024,122.917372671146,14.027020081285
$GNHDT,237.713,T*28
$PYRTM,2024,122.917378401748,14.027025811887
$GNGGA,220101.50,3353.81603715,N,11931.63008576,W,2,13,0.8,7.523,M,-37.647,M,6.4,0135*63
$PYRTM,2024,122.917378401748,14.027025811887
$GNHDT,237.608,T*23
$PYRTM,2024,122.917384242662,14.027031652801
$GNGGA,220102.00,3353.81592665,N,11931.63018033,W,2,13,0.8,7.550,M,-37.647,M,7.0,0135*6C
$PYRTM,2024,122.917384242662,14.027031652801
$GNHDT,237.584,T*24
$PYRTM,2024,122.917389976644,14.027037386782
$GNGGA,220102.50,3353.81582242,N,11931.63029148,W,2,13,0.8,7.522,M,-37.647,M,7.4,0135*67
$PYRTM,2024,122.917389976644,14.027037386782
$GNHDT,237.791,T*22
$PYRTM,2024,122.917395821748,14.027043231887
$GNGGA,220103.00,3353.81574107,N,11931.63041208,W,2,13,0.8,7.454,M,-37.647,M,7.0,0135*65
$PYRTM,2024,122.917395821748,14.027043231887
$GNHDT,237.653,T*2D
$PYRTM,2024,122.917401555509,14.027048965648
$GNGGA,220103.50,3353.81565389,N,11931.63054521,W,2,13,0.8,7.349,M,-37.647,M,7.4,0135*63
$PYRTM,2024,122.917401555509,14.027048965648
$GNHDT,237.784,T*26
$PYRTM,2024,122.917407390926,14.027054801065
$GNGGA,220104.00,3353.81557748,N,11931.63067278,W,2,13,0.8,7.269,M,-37.647,M,7.0,0135*65
$PYRTM,2024,122.917407390926,14.027054801065
$GNHDT,237.779,T*24
$PYRTM,2024,122.917413135405,14.027060545544
$GNGGA,220104.50,3353.81548532,N,11931.63079371,W,2,13,0.8,7.221,M,-37.647,M,7.4,0135*6E
$PYRTM,2024,122.917413135405,14.027060545544
$GNHDT,237.973,T*20
$PYRTM,2024,122.917418964896,14.027066375035
$GNGGA,220105.00,3353.81539137,N,11931.63090378,W,2,13,0.8,7.232,M,-37.647,M,4.0,0135*66
$PYRTM,2024,122.917418964896,14.027066375035
$GNHDT,238.000,T*22
$PYRTM,2024,122.917424706991,14.027072117130
$GNGGA,220105.50,3353.81527149,N,11931.63101298,W,2,13,0.8,7.265,M,-37.647,M,4.4,0135*65
$PYRTM,2024,122.917424706991,14.027072117130
$GNHDT,237.779,T*24
$PYRTM,2024,122.917430543229,14.027077953368
$GNGGA,220106.00,3353.81512166,N,11931.63112260,W,2,13,0.8,7.294,M,-37.647,M,5.0,0135*66
$PYRTM,2024,122.917430543229,14.027077953368
$GNHDT,237.664,T*29
$PYRTM,2024,122.917436272894,14.027083683032
$GNGGA,220106.50,3353.81496825,N,11931.63125161,W,2,13,0.8,7.307,M,-37.647,M,5.4,0135*69
$PYRTM,2024,122.917436272894,14.027083683032
$GNHDT,237.659,T*27
$PYRTM,2024,122.917442115035,14.027089525174
$GNGGA,220107.00,3353.81482897,N,11931.63139263,W,2,13,0.8,7.299,M,-37.647,M,6.0,0135*6C
$PYRTM,2024,122.917442115035,14.027089525174
$GNHDT,237.608,T*23
$PYRTM,2024,122.917447847361,14.027095257500
$GNGGA,220107.50,3353.81470728,N,11931.63154242,W,2,13,0.8,7.302,M,-37.647,M,6.4,0135*60
$PYRTM,2024,122.917447847361,14.027095257500
$GNHDT,237.953,T*22
$PYRTM,2024,122.917453690428,14.027101100567
$GNGGA,220108.00,3353.81459183,N,11931.63168210,W,2,13,0.8,7.348,M,-37.647,M,7.0,0135*65
$PYRTM,2024,122.917453690428,14.027101100567
$GNHDT,237.952,T*23
$PYRTM,2024,122.917459424248,14.027106834387
$GNGGA,220108.50,3353.81448276,N,11931.63181431,W,2,13,0.8,7.427,M,-37.647,M,7.4,0135*61
$PYRTM,2024,122.917459424248,14.027106834387
$GNHDT,237.973,T*20
$PYRTM,2024,122.917465268669,14.027112678808
$GNGGA,220109.00,3353.81440025,N,11931.63194387,W,2,13,0.8,7.556,M,-37.647,M,7.0,0135*64
$PYRTM,2024,122.917465268669,14.027112678808
$GNHDT,238.072,T*27
$PYRTM,2024,122.917470995752,14.027118405891
$GNGGA,220109.50,3353.81432542,N,11931.63208867,W,2,13,0.8,7.690,M,-37.647,M,7.4,0135*6E
$PYRTM,2024,122.917470995752,14.027118405891
$GNHDT,238.032,T*23
$PYRTM,2024,122.917476839005,14.027124249155
$GNGGA,220110.00,3353.81423608,N,11931.63224913,W,2,13,0.8,7.828,M,-37.647,M,7.0,0135*6B
$PYRTM,2024,122.917476839005,14.027124249155
$GNHDT,238.129,T*28
$PYRTM,2024,122.917482573773,14.027129983912
$GNGGA,220110.50,3353.81412695,N,11931.63240157,W,2,13,0.8,7.935,M,-37.647,M,7.4,0135*6B
$PYRTM,2024,122.917482573773,14.027129983912
$GNHDT,237.991,T*2C
$PYRTM,2024,122.917488408819,14.027135818958
$GNGGA,220111.00,3353.81398112,N,11931.63254198,W,2,13,0.8,8.009,M,-37.647,M,4.0,0135*6A
$PYRTM,2024,122.917488408819,14.027135818958
$GNHDT,237.860,T*23
$PYRTM,2024,122.917494145324,14.027141555463
$GNGGA,220111.50,3353.81383680,N,11931.63266255,W,2,13,0.8,8.039,M,-37.647,M,4.4,0135*6D
$PYRTM,2024,122.917494145324,14.027141555463
$GNHDT,237.854,T*24
$PYRTM,2024,122.917499987639,14.027147397789
$GNGGA,220112.00,3353.81369631,N,11931.63277599,W,2,13,0.8,8.000,M,-37.647,M,5.0,0135*6D
$PYRTM,2024,122.917499987639,14.027147397789
$GNHDT,237.856,T*26
$PYRTM,2024,122.917505721933,14.027153132072
$GNGGA,220112.50,3353.81357128,N,11931.63288736,W,2,13,0.8,7.909,M,-37.647,M,5.4,0135*66
$PYRTM,2024,122.917505721933,14.027153132072
$GNHDT,237.922,T*24
$PYRTM,2024,122.917511558125,14.027158968264
$GNGGA,220113.00,3353.81343905,N,11931.63302532,W,2,13,0.8,7.754,M,-37.647,M,6.0,0135*64
$PYRTM,2024,122.917511558125,14.027158968264
$GNHDT,238.040,T*26
$PYRTM,2024,122.917517292164,14.027164702303
$GNGGA,220113.50,3353.81332149,N,11931.63315875,W,2,13,0.8,7.597,M,-37.647,M,6.4,0135*66
$PYRTM,2024,122.917517292164,14.027164702303
$GNHDT,238.031,T*20
$PYRTM,2024,122.917523136134,14.027170546273
$GNGGA,220114.00,3353.81321246,N,11931.63330188,W,2,13,0.8,7.442,M,-37.647,M,7.0,0135*6A
$PYRTM,2024,122.917523136134,14.027170546273
$GNHDT,238.156,T*20
$PYRTM,2024,122.917528864931,14.027176275069
$GNGGA,220114.50,3353.81312023,N,11931.63343966,W,2,13,0.8,7.335,M,-37.647,M,7.4,0135*61
$PYRTM,2024,122.917528864931,14.027176275069
$GNHDT,238.232,T*21
$PYRTM,2024,122.917534704363,14.027182114502
$GNGGA,220115.00,3353.81303591,N,11931.63359018,W,2,13,0.8,7.270,M,-37.647,M,7.0,0135*66
$PYRTM,2024,122.917534704363,14.027182114502
$GNHDT,238.264,T*22
$PYRTM,2024,122.917540446088,14.027187856238
$GNGGA,220115.50,3353.81295037,N,11931.63376007,W,2,13,0.8,7.224,M,-37.647,M,7.4,0135*62
$PYRTM,2024,122.917540446088,14.027187856238
$GNHDT,238.332,T*20
$PYRTM,2024,122.917546278819,14.027193688958
$GNGGA,220116.00,3353.81284164,N,11931.63394031,W,2,13,0.8,7.198,M,-37.647,M,7.0,0135*6A
$PYRTM,2024,122.917546278819,14.027193688958
$GNHDT,238.285,T*2D
$PYRTM,2024,122.917552016875,14.027199427014
$GNGGA,220116.50,3353.81270483,N,11931.63410224,W,2,13,0.8,7.204,M,-37.647,M,7.4,0135*67
$PYRTM,2024,122.917552016875,14.027199427014
$GNHDT,238.444,T*26
$PYRTM,2024,122.917557856007,14.027205266146
$GNGGA,220117.00,3353.81253480,N,11931.63423269,W,2,13,0.8,7.264,M,-37.647,M,4.0,0135*69
$PYRTM,2024,122.917557856007,14.027205266146
$GNHDT,238.322,T*21
$PYRTM,2024,122.917563590324,14.027211000463
$GNGGA,220117.50,3353.81234615,N,11931.63431919,W,2,13,0.8,7.371,M,-37.647,M,4.4,0135*6D
$PYRTM,2024,122.917563590324,14.027211000463
$GNHDT,238.320,T*23
$PYRTM,2024,122.917569432674,14.027216842812
$GNGGA,220118.00,3353.81214972,N,11931.63438624,W,2,13,0.8,7.467,M,-37.647,M,5.0,0135*66
$PYRTM,2024,122.917569432674,14.027216842812
$GNHDT,238.236,T*25
$PYRTM,2024,122.917575160741,14.027222570880
$GNGGA,220118.50,3353.81196484,N,11931.63446011,W,2,13,0.8,7.524,M,-37.647,M,5.4,0135*65
$PYRTM,2024,122.917575160741,14.027222570880
$GNHDT,238.293,T*2A
$PYRTM,2024,122.917581004491,14.027228414630
$GNGGA,220119.00,3353.81180357,N,11931.63455965,W,2,13,0.8,7.503,M,-37.647,M,6.0,0135*65
$PYRTM,2024,122.917581004491,14.027228414630
$GNHDT,238.397,T*2F
$PYRTM,2024,122.917586743970,14.027234154109
$GNGGA,220119.50,3353.81169034,N,11931.63468087,W,2,13,0.8,7.425,M,-37.647,M,6.4,0135*6B
$PYRTM,2024,122.917586743970,14.027234154109
$GNHDT,238.313,T*23
$PYRTM,2024,122.917592578137,14.027239988287
$GNGGA,220120.00,3353.81160677,N,11931.63483636,W,2,13,0.8,7.305,M,-37.647,M,7.0,0135*65
$PYRTM,2024,122.917592578137,14.027239988287
$GNHDT,238.299,T*20
$PYRTM,2024,122.917598309074,14.027245719213
$GNGGA,220120.50,3353.81154700,N,11931.63500284,W,2,13,0.8,7.200,M,-37.647,M,7.4,0135*61
$PYRTM,2024,122.917598309074,14.027245719213
$GNHDT,238.638,T*2F
$PYRTM,2024,122.917604148796,14.027251558935
$GNGGA,220121.00,3353.81148718,N,11931.63517259,W,2,13,0.8,7.154,M,-37.647,M,7.0,0135*61
$PYRTM,2024,122.917604148796,14.027251558935
$GNHDT,238.663,T*21
$PYRTM,2024,122.917609884398,14.027257294537
$GNGGA,220121.50,3353.81143294,N,11931.63531615,W,2,13,0.8,7.200,M,-37.647,M,7.4,0135*60
$PYRTM,2024,122.917609884398,14.027257294537
$GNHDT,238.816,T*2D
$PYRTM,2024,122.917615725116,14.027263135255
$GNGGA,220122.00,3353.81137005,N,11931.63542041,W,2,13,0.8,7.319,M,-37.647,M,7.0,0135*61
$PYRTM,2024,122.917615725116,14.027263135255
$GNHDT,238.923,T*2A
$PYRTM,2024,122.917621460590,14.027268870729
$GNGGA,220122.50,3353.81125375,N,11931.63552916,W,2,13,0.8,7.466,M,-37.647,M,7.4,0135*62
$PYRTM,2024,122.917621460590,14.027268870729
$GNHDT,238.920,T*29
$PYRTM,2024,122.917627302894,14.027274713032
$GNGGA,220123.00,3353.81109008,N,11931.63565961,W,2,13,0.8,7.602,M,-37.647,M,4.0,0135*62
$PYRTM,2024,122.917627302894,14.027274713032
$GNHDT,238.823,T*2B
$PYRTM,2024,122.917633033414,14.027280443553
$GNGGA,220123.50,3353.81092215,N,11931.63578418,W,2,13,0.8,7.701,M,-37.647,M,4.4,0135*63
$PYRTM,2024,122.917633033414,14.027280443553
$GNHDT,238.764,T*27
$PYRTM,2024,122.917638875509,14.027286285648
$GNGGA,220124.00,3353.81076386,N,11931.63591725,W,2,13,0.8,7.780,M,-37.647,M,5.0,0135*66
$PYRTM,2024,122.917638875509,14.027286285648
$GNHDT,238.794,T*28
$PYRTM,2024,122.917644608565,14.027292018715
$GNGGA,220124.50,3353.81062992,N,11931.63604799,W,2,13,0.8,7.829,M,-37.647,M,5.4,0135*69
$PYRTM,2024,122.917644608565,14.027292018715
$GNHDT,238.675,T*26
$PYRTM,2024,122.917650446389,14.027297856528
$GNGGA,220125.00,3353.81051966,N,11931.63618260,W,2,13,0.8,7.847,M,-37.647,M,6.0,0135*67
$PYRTM,2024,122.917650446389,14.027297856528
$GNHDT,238.764,T*27
$PYRTM,2024,122.917656183947,14.027303594086
$GNGGA,220125.50,3353.81044007,N,11931.63632575,W,2,13,0.8,7.826,M,-37.647,M,6.4,0135*60
$PYRTM,2024,122.917656183947,14.027303594086
$GNHDT,238.736,T*20
$PYRTM,2024,122.917662022882,14.027309433021
$GNGGA,220126.00,3353.81037651,N,11931.63647832,W,2,13,0.8,7.745,M,-37.647,M,7.0,0135*64
$PYRTM,2024,122.917662022882,14.027309433021
$GNHDT,238.769,T*2A
$PYRTM,2024,122.917667757014,14.027315167153
$GNGGA,220126.50,3353.81031323,N,11931.63664482,W,2,13,0.8,7.621,M,-37.647,M,7.4,0135*66
$PYRTM,2024,122.917667757014,14.027315167153
$GNHDT,238.778,T*2A
$PYRTM,2024,122.917673594861,14.027321005000
$GNGGA,220127.00,3353.81024036,N,11931.63680518,W,2,13,0.8,7.495,M,-37.647,M,7.0,0135*60
$PYRTM,2024,122.917673594861,14.027321005000
$GNHDT,238.757,T*27
$PYRTM,2024,122.917679328032,14.027326738171
$GNGGA,220127.50,3353.81015688,N,11931.63694874,W,2,13,0.8,7.409,M,-37.647,M,7.4,0135*67
$PYRTM,2024,122.917679328032,14.027326738171
$GNHDT,238.890,T*23
$PYRTM,2024,122.917685172512,14.027332582650
$GNGGA,220128.00,3353.81003056,N,11931.63707732,W,2,13,0.8,7.373,M,-37.647,M,7.0,0135*67
$PYRTM,2024,122.917685172512,14.027332582650
$GNHDT,238.955,T*2B
$PYRTM,2024,122.917690907535,14.027338317674
$GNGGA,220128.50,3353.80988560,N,11931.63717528,W,2,13,0.8,7.381,M,-37.647,M,7.4,0135*68
$PYRTM,2024,122.917690907535,14.027338317674
$GNHDT,239.090,T*2A
$PYRTM,2024,122.917696747940,14.027344158079
$GNGGA,220129.00,3353.80971260,N,11931.63725946,W,2,13,0.8,7.421,M,-37.647,M,4.0,0135*62
$PYRTM,2024,122.917696747940,14.027344158079
$GNHDT,239.069,T*2C
$PYRTM,2024,122.917702479502,14.027349889641
$GNGGA,220129.50,3353.80954776,N,11931.63733867,W,2,13,0.8,7.477,M,-37.647,M,4.4,0135*60
$PYRTM,2024,122.917702479502,14.027349889641
$GNHDT,239.054,T*22
$PYRTM,2024,122.917708317384,14.027355727523
$GNGGA,220130.00,3353.80940953,N,11931.63741523,W,2,13,0.8,7.489,M,-37.647,M,5.0,0135*6D
$PYRTM,2024,122.917708317384,14.027355727523
$GNHDT,238.995,T*27
$PYRTM,2024,122.917714052419,14.027361462558
$GNGGA,220130.50,3353.80928902,N,11931.63751933,W,2,13,0.8,7.448,M,-37.647,M,5.4,0135*67
$PYRTM,2024,122.917714052419,14.027361462558
$GNHDT,239.092,T*28
$PYRTM,2024,122.917719898796,14.027367308935
$GNGGA,220131.00,3353.80917623,N,11931.63765797,W,2,13,0.8,7.322,M,-37.647,M,6.0,0135*68
$PYRTM,2024,122.917719898796,14.027367308935
$GNHDT,238.791,T*2D
$PYRTM,2024,122.917725624375,14.027373034514
$GNGGA,220131.50,3353.80906695,N,11931.63782443,W,2,13,0.8,7.156,M,-37.647,M,6.4,0135*66
$PYRTM,2024,122.917725624375,14.027373034514
$GNHDT,239.025,T*24
$PYRTM,2024,122.917731466609,14.027378876759
$GNGGA,220132.00,3353.80895111,N,11931.63801191,W,2,13,0.8,6.943,M,-37.647,M,7.0,0135*66
$PYRTM,2024,122.917731466609,14.027378876759
$GNHDT,239.060,T*25
$PYRTM,2024,122.917737198009,14.027384608148
$GNGGA,220132.50,3353.80882358,N,11931.63818880,W,2,13,0.8,6.802,M,-37.647,M,7.4,0135*6B
$PYRTM,2024,122.917737198009,14.027384608148
$GNHDT,239.137,T*26
$PYRTM,2024,122.917743044757,14.027390454907
$GNGGA,220133.00,3353.80868649,N,11931.63834414,W,2,13,0.8,6.774,M,-37.647,M,7.0,0135*6B
$PYRTM,2024,122.917743044757,14.027390454907
$GNHDT,239.157,T*20
$PYRTM,2024,122.917748776204,14.027396186343
$GNGGA,220133.50,3353.80858512,N,11931.63845728,W,2,13,0.8,6.902,M,-37.647,M,7.4,0135*61
$PYRTM,2024,122.917748776204,14.027396186343
$GNHDT,239.315,T*24
$PYRTM,2024,122.917754614606,14.027402024745
$GNGGA,220134.00,3353.80850802,N,11931.63852333,W,2,13,0.8,7.127,M,-37.647,M,7.0,0135*65
$PYRTM,2024,122.917754614606,14.027402024745
$GNHDT,239.281,T*28
$PYRTM,2024,122.917760350625,14.027407760764
$GNGGA,220134.50,3353.80838481,N,11931.63860024,W,2,13,0.8,7.370,M,-37.647,M,7.4,0135*69
$PYRTM,2024,122.917760350625,14.027407760764
$GNHDT,239.356,T*23
$PYRTM,2024,122.917766189282,14.027413599421
$GNGGA,220135.00,3353.80822736,N,11931.63871468,W,2,13,0.8,7.550,M,-37.647,M,4.0,0135*66
$PYRTM,2024,122.917766189282,14.027413599421
$GNHDT,239.314,T*25
$PYRTM,2024,122.917771925833,14.027419335972
$GNGGA,220135.50,3353.80806695,N,11931.63884988,W,2,13,0.8,7.609,M,-37.647,M,4.4,0135*6F
$PYRTM,2024,122.917771925833,14.027419335972
$GNHDT,239.090,T*2A
$PYRTM,2024,122.917777760463,14.027425170602
$GNGGA,220136.00,3353.80793521,N,11931.63898891,W,2,13,0.8,7.572,M,-37.647,M,5.0,0135*68
$PYRTM,2024,122.917777760463,14.027425170602
$GNHDT,239.356,T*23
$PYRTM,2024,122.917783497188,14.027430907326
$GNGGA,220136.50,3353.80781065,N,11931.63913896,W,2,13,0.8,7.489,M,-37.647,M,5.4,0135*6F
$PYRTM,2024,122.917783497188,14.027430907326
$GNHDT,239.305,T*25
$PYRTM,2024,122.917789344977,14.027436755116
$GNGGA,220137.00,3353.80769918,N,11931.63929756,W,2,13,0.8,7.402,M,-37.647,M,6.0,0135*60
$PYRTM,2024,122.917789344977,14.027436755116
$GNHDT,239.437,T*23
$PYRTM,2024,122.917795069757,14.027442479896
$GNGGA,220137.50,3353.80762298,N,11931.63944923,W,2,13,0.8,7.343,M,-37.647,M,6.4,0135*6C
$PYRTM,2024,122.917795069757,14.027442479896
$GNHDT,239.604,T*21
$PYRTM,2024,122.917800915162,14.027448325301
$GNGGA,220138.00,3353.80756147,N,11931.63960037,W,2,13,0.8,7.336,M,-37.647,M,7.0,0135*6D
$PYRTM,2024,122.917800915162,14.027448325301
$GNHDT,239.628,T*2F
$PYRTM,2024,122.917806645012,14.027454055162
$GNGGA,220138.50,3353.80749613,N,11931.63973795,W,2,13,0.8,7.385,M,-37.647,M,7.4,0135*61
$PYRTM,2024,122.917806645012,14.027454055162
$GNHDT,239.627,T*20
$PYRTM,2024,122.917812485394,14.027459895532
$GNGGA,220139.00,3353.80742034,N,11931.63984973,W,2,13,0.8,7.454,M,-37.647,M,7.0,0135*6C
$PYRTM,2024,122.917812485394,14.027459895532
$GNHDT,239.509,T*2F
$PYRTM,2024,122.917818216562,14.027465626701
$GNGGA,220139.50,3353.80732642,N,11931.63995053,W,2,13,0.8,7.511,M,-37.647,M,7.4,0135*66
$PYRTM,2024,122.917818216562,14.027465626701
$GNHDT,239.727,T*21
$PYRTM,2024,122.917824065694,14.027471475833
$GNGGA,220140.00,3353.80720434,N,11931.64004457,W,2,13,0.8,7.546,M,-37.647,M,7.0,0135*6D
$PYRTM,2024,122.917824065694,14.027471475833
$GNHDT,239.764,T*26
$PYRTM,2024,122.917829791736,14.027477201875
$GNGGA,220140.50,3353.80704419,N,11931.64015116,W,2,13,0.8,7.535,M,-37.647,M,7.4,0135*61
$PYRTM,2024,122.917829791736,14.027477201875
$GNHDT,239.699,T*25
$PYRTM,2024,122.917835637315,14.027483047454
$GNGGA,220141.00,3353.80688163,N,11931.64027516,W,2,13,0.8,7.465,M,-37.647,M,4.0,0135*6E
$PYRTM,2024,122.917835637315,14.027483047454
$GNHDT,239.674,T*26
$PYRTM,2024,122.917841367581,14.027488777720
$GNGGA,220141.50,3353.80673044,N,11931.64040709,W,2,13,0.8,7.357,M,-37.647,M,4.4,0135*64
$PYRTM,2024,122.917841367581,14.027488777720
$GNHDT,239.567,T*27
$PYRTM,2024,122.917847209664,14.027494619803
$GNGGA,220142.00,3353.80659243,N,11931.64055987,W,2,13,0.8,7.228,M,-37.647,M,5.0,0135*6F
$PYRTM,2024,122.917847209664,14.027494619803
$GNHDT,239.757,T*26
$PYRTM,2024,122.917852943275,14.027500353414
$GNGGA,220142.50,3353.80648523,N,11931.64072111,W,2,13,0.8,7.098,M,-37.647,M,5.4,0135*64
$PYRTM,2024,122.917852943275,14.027500353414
$GNHDT,239.960,T*2C
$PYRTM,2024,122.917858778160,14.027506188299
$GNGGA,220143.00,3353.80640740,N,11931.64089617,W,2,13,0.8,7.002,M,-37.647,M,6.0,0135*6E
$PYRTM,2024,122.917858778160,14.027506188299
$GNHDT,240.129,T*27
$PYRTM,2024,122.917864511944,14.027511922083
$GNGGA,220143.50,3353.80634276,N,11931.64106600,W,2,13,0.8,6.946,M,-37.647,M,6.4,0135*64
$PYRTM,2024,122.917864511944,14.027511922083
$GNHDT,240.033,T*2D
$PYRTM,2024,122.917870355822,14.027517765961
$GNGGA,220144.00,3353.80625140,N,11931.64122171,W,2,13,0.8,6.964,M,-37.647,M,7.0,0135*62
$PYRTM,2024,122.917870355822,14.027517765961
$GNHDT,240.023,T*2C
$PYRTM,2024,122.917876088275,14.027523498414
$GNGGA,220144.50,3353.80616489,N,11931.64133873,W,2,13,0.8,7.062,M,-37.647,M,7.4,0135*66
$PYRTM,2024,122.917876088275,14.027523498414
$GNHDT,239.919,T*22
$PYRTM,2024,122.917881926713,14.027529336852
$GNGGA,220145.00,3353.80608088,N,11931.64142586,W,2,13,0.8,7.204,M,-37.647,M,7.0,0135*6F
$PYRTM,2024,122.917881926713,14.027529336852
$GNHDT,239.936,T*2F
$PYRTM,2024,122.917887661910,14.027535072060
$GNGGA,220145.50,3353.80595858,N,11931.64150875,W,2,13,0.8,7.344,M,-37.647,M,7.4,0135*6B
$PYRTM,2024,122.917887661910,14.027535072060
$GNHDT,240.099,T*2D
$PYRTM,2024,122.917893503345,14.027540913542
$GNGGA,220146.00,3353.80581500,N,11931.64158238,W,2,13,0.8,7.440,M,-37.647,M,7.0,0135*64
$PYRTM,2024,122.917893503345,14.027540913542
$GNHDT,240.101,T*2D
$PYRTM,2024,122.917899236968,14.027546647106
$GNGGA,220146.50,3353.80563962,N,11931.64169499,W,2,13,0.8,7.457,M,-37.647,M,7.4,0135*68
$PYRTM,2024,122.917899236968,14.027546647106
$GNHDT,240.357,T*2C
$PYRTM,2024,122.917905076956,14.027552487095
$GNGGA,220147.00,3353.80546932,N,11931.64183400,W,2,13,0.8,7.390,M,-37.647,M,4.0,0135*61
$PYRTM,2024,122.917905076956,14.027552487095
$GNHDT,240.405,T*2C
$PYRTM,2024,122.917910808322,14.027558218461
$GNGGA,220147.50,3353.80531284,N,11931.64197646,W,2,13,0.8,7.259,M,-37.647,M,4.4,0135*67
$PYRTM,2024,122.917910808322,14.027558218461
$GNHDT,240.208,T*27
$PYRTM,2024,122.917916647882,14.027564058021
$GNGGA,220148.00,3353.80521662,N,11931.64209668,W,2,13,0.8,7.122,M,-37.647,M,5.0,0135*62
$PYRTM,2024,122.917916647882,14.027564058021
$GNHDT,240.378,T*21
$PYRTM,2024,122.917922385498,14.027569795648
$GNGGA,220148.50,3353.80513321,N,11931.64224180,W,2,13,0.8,7.050,M,-37.647,M,5.4,0135*6A
$PYRTM,2024,122.917922385498,14.027569795648
$GNHDT,240.337,T*2A
$PYRTM,2024,122.917928225220,14.027575635370
$GNGGA,220149.00,3353.80507971,N,11931.64239358,W,2,13,0.8,7.024,M,-37.647,M,6.0,0135*6B
$PYRTM,2024,122.917928225220,14.027575635370
$GNHDT,240.408,T*21
$PYRTM,2024,122.917933967627,14.027581377766
$GNGGA,220149.50,3353.80502121,N,11931.64252074,W,2,13,0.8,7.067,M,-37.647,M,6.4,0135*65
$PYRTM,2024,122.917933967627,14.027581377766
$GNHDT,240.395,T*22
$PYRTM,2024,122.917939800069,14.027587210208
$GNGGA,220150.00,3353.80495435,N,11931.64262477,W,2,13,0.8,7.141,M,-37.647,M,7.0,0135*63
$PYRTM,2024,122.917939800069,14.027587210208
$GNHDT,240.278,T*20
$PYRTM,2024,122.917945529838,14.027592939988
$GNGGA,220150.50,3353.80484230,N,11931.64274838,W,2,13,0.8,7.200,M,-37.647,M,7.4,0135*67
$PYRTM,2024,122.917945529838,14.027592939988
$GNHDT,240.141,T*29
$PYRTM,2024,122.917951375174,14.027598785313
$GNGGA,220151.00,3353.80469512,N,11931.64287584,W,2,13,0.8,7.222,M,-37.647,M,7.0,0135*65
$PYRTM,2024,122.917951375174,14.027598785313
$GNHDT,240.287,T*20
$PYRTM,2024,122.917957105301,14.027604515440
$GNGGA,220151.50,3353.80452459,N,11931.64300476,W,2,13,0.8,7.226,M,-37.647,M,7.4,0135*64
$PYRTM,2024,122.917957105301,14.027604515440
$GNHDT,240.453,T*2F
$PYRTM,2024,122.917962945706,14.027610355845
$GNGGA,220152.00,3353.80433883,N,11931.64314337,W,2,13,0.8,7.196,M,-37.647,M,7.0,0135*65
$PYRTM,2024,122.917962945706,14.027610355845
$GNHDT,240.494,T*24
$PYRTM,2024,122.917968677130,14.027616087269
$GNGGA,220152.50,3353.80416913,N,11931.64327656,W,2,13,0.8,7.143,M,-37.647,M,7.4,0135*61
$PYRTM,2024,122.917968677130,14.027616087269
$GNHDT,240.536,T*2D
$PYRTM,2024,122.917974519884,14.027621930023
$GNGGA,220153.00,3353.80404882,N,11931.64339234,W,2,13,0.8,7.108,M,-37.647,M,4.0,0135*68
$PYRTM,2024,122.917974519884,14.027621930023
$GNHDT,240.409,T*20
$PYRTM,2024,122.917980252338,14.027627662477
$GNGGA,220153.50,3353.80395345,N,11931.64352232,W,2,13,0.8,7.117,M,-37.647,M,4.4,0135*63
$PYRTM,2024,122.917980252338,14.027627662477
$GNHDT,240.413,T*2B
$PYRTM,2024,122.917986093727,14.027633503877
$GNGGA,220154.00,3353.80388852,N,11931.64366781,W,2,13,0.8,7.116,M,-37.647,M,5.0,0135*6E
$PYRTM,2024,122.917986093727,14.027633503877
$GNHDT,240.189,T*2D
$PYRTM,2024,122.917991828218,14.027639238368
$GNGGA,220154.50,3353.80383345,N,11931.64382830,W,2,13,0.8,7.096,M,-37.647,M,5.4,0135*6F
$PYRTM,2024,122.917991828218,14.027639238368
$GNHDT,240.236,T*2A
$PYRTM,2024,122.917997671343,14.027645081481
$GNGGA,220155.00,3353.80375620,N,11931.64400015,W,2,13,0.8,7.040,M,-37.647,M,6.0,0135*6A
$PYRTM,2024,122.917997671343,14.027645081481
$GNHDT,240.270,T*28
$PYRTM,2024,122.918003399444,14.027650809583
$GNGGA,220155.50,3353.80366513,N,11931.64416887,W,2,13,0.8,6.976,M,-37.647,M,6.4,0135*63
$PYRTM,2024,122.918003399444,14.027650809583
$GNHDT,240.515,T*2C
$PYRTM,2024,122.918009241898,14.027656652037
$GNGGA,220156.00,3353.80354820,N,11931.64432134,W,2,13,0.8,6.931,M,-37.647,M,7.0,0135*68
$PYRTM,2024,122.918009241898,14.027656652037
$GNHDT,240.759,T*26
$PYRTM,2024,122.918014974005,14.027662384144
$GNGGA,220156.50,3353.80341423,N,11931.64443957,W,2,13,0.8,6.968,M,-37.647,M,7.4,0135*65
$PYRTM,2024,122.918014974005,14.027662384144
$GNHDT,240.831,T*27
$PYRTM,2024,122.918020824780,14.027668234919
$GNGGA,220157.00,3353.80325588,N,11931.64452202,W,2,13,0.8,7.075,M,-37.647,M,7.0,0135*68
$PYRTM,2024,122.918020824780,14.027668234919
$GNHDT,240.838,T*2E
$PYRTM,2024,122.918026550775,14.027673960926
$GNGGA,220157.50,3353.80309030,N,11931.64459228,W,2,13,0.8,7.189,M,-37.647,M,7.4,0135*60
$PYRTM,2024,122.918026550775,14.027673960926
$GNHDT,240.698,T*2A
$PYRTM,2024,122.918032391609,14.027679801748
$GNGGA,220158.00,3353.80292663,N,11931.64467498,W,2,13,0.8,7.271,M,-37.647,M,7.0,0135*69
$PYRTM,2024,122.918032391609,14.027679801748
$GNHDT,240.761,T*2D
$PYRTM,2024,122.918038127222,14.027685537361
$GNGGA,220158.50,3353.80279017,N,11931.64478366,W,2,13,0.8,7.277,M,-37.647,M,7.4,0135*66
$PYRTM,2024,122.918038127222,14.027685537361
$GNHDT,240.540,T*2C
$PYRTM,2024,122.918043962546,14.027691372685
$GNGGA,220159.00,3353.80268776,N,11931.64493764,W,2,13,0.8,7.200,M,-37.647,M,4.0,0135*66
$PYRTM,2024,122.918043962546,14.027691372685
$GNHDT,240.358,T*23
$PYRTM,2024,122.918049696644,14.027697106794
$GNGGA,220159.50,3353.80259789,N,11931.64510113,W,2,13,0.8,7.054,M,-37.647,M,4.4,0135*6A
$PYRTM,2024,122.918049696644,14.027697106794
$GNHDT,240.386,T*20
$PYRTM,2024,122.918055542211,14.027702952350
$GNGGA,220200.00,3353.80251818,N,11931.64526117,W,2,13,0.8,6.909,M,-37.647,M,5.0,0135*6B
$PYRTM,2024,122.918055542211,14.027702952350
$GNHDT,240.391,T*26
$PYRTM,2024,122.918061272928,14.027708683067
$GNGGA,220200.50,3353.80243616,N,11931.64540030,W,2,13,0.8,6.842,M,-37.647,M,5.4,0135*63
$PYRTM,2024,122.918061272928,14.027708683067
$GNHDT,240.527,T*2D
$PYRTM,2024,122.918067118565,14.027714528704
$GNGGA,220201.00,3353.80235460,N,11931.64551529,W,2,13,0.8,6.844,M,-37.647,M,6.0,0135*69
$PYRTM,2024,122.918067118565,14.027714528704
$GNHDT,240.391,T*26
$PYRTM,2024,122.918072849352,14.027720259491
$GNGGA,220201.50,3353.80226968,N,11931.64562269,W,2,13,0.8,6.906,M,-37.647,M,6.4,0135*6B
$PYRTM,2024,122.918072849352,14.027720259491
$GNHDT,240.754,T*2B
$PYRTM,2024,122.918078687766,14.027726097905
$GNGGA,220202.00,3353.80217237,N,11931.64573210,W,2,13,0.8,6.962,M,-37.647,M,7.0,0135*67
$PYRTM,2024,122.918078687766,14.027726097905
$GNHDT,240.864,T*27
$PYRTM,2024,122.918084420370,14.027731830509
$GNGGA,220202.50,3353.80205785,N,11931.64584521,W,2,13,0.8,6.997,M,-37.647,M,7.4,0135*6E
$PYRTM,2024,122.918084420370,14.027731830509
$GNHDT,240.715,T*2E
$PYRTM,2024,122.918090265845,14.027737675984
$GNGGA,220203.00,3353.80192877,N,11931.64596626,W,2,13,0.8,6.998,M,-37.647,M,7.0,0135*69
$PYRTM,2024,122.918090265845,14.027737675984
$GNHDT,240.716,T*2D
$PYRTM,2024,122.918095994074,14.027743404213
$GNGGA,220203.50,3353.80180544,N,11931.64609437,W,2,13,0.8,6.959,M,-37.647,M,7.4,0135*6C
$PYRTM,2024,122.918095994074,14.027743404213
$GNHDT,240.789,T*2B
$PYRTM,2024,122.918101832523,14.027749242662
$GNGGA,220204.00,3353.80169450,N,11931.64624141,W,2,13,0.8,6.930,M,-37.647,M,7.0,0135*6D
$PYRTM,2024,122.918101832523,14.027749242662
$GNHDT,240.882,T*2F
$PYRTM,2024,122.918107567315,14.027754977454
$GNGGA,220204.50,3353.80158795,N,11931.64638940,W,2,13,0.8,6.895,M,-37.647,M,7.4,0135*6E
$PYRTM,2024,122.918107567315,14.027754977454
$GNHDT,240.599,T*28
$PYRTM,2024,122.918113408704,14.027760818843
$GNGGA,220205.00,3353.80148019,N,11931.64654129,W,2,13,0.8,6.852,M,-37.647,M,4.0,0135*69
$PYRTM,2024,122.918113408704,14.027760818843
$GNHDT,240.448,T*25
$PYRTM,2024,122.918119139711,14.027766549850
$GNGGA,220205.50,3353.80138698,N,11931.64668961,W,2,13,0.8,6.813,M,-37.647,M,4.4,0135*6E
$PYRTM,2024,122.918119139711,14.027766549850
$GNHDT,240.365,T*2D
$PYRTM,2024,122.918124984525,14.027772394664
$GNGGA,220206.00,3353.80131334,N,11931.64683659,W,2,13,0.8,6.783,M,-37.647,M,5.0,0135*60
$PYRTM,2024,122.918124984525,14.027772394664
$GNHDT,240.629,T*20
$PYRTM,2024,122.918130714271,14.027778124410
$GNGGA,220206.50,3353.80123119,N,11931.64697532,W,2,13,0.8,6.767,M,-37.647,M,5.4,0135*6E
$PYRTM,2024,122.918130714271,14.027778124410
$GNHDT,240.601,T*2A
$PYRTM,2024,122.918136556516,14.027783966655
$GNGGA,220207.00,3353.80112806,N,11931.64711442,W,2,13,0.8,6.765,M,-37.647,M,6.0,0135*63
$PYRTM,2024,122.918136556516,14.027783966655
$GNHDT,240.632,T*2A
$PYRTM,2024,122.918142293692,14.027789703831
$GNGGA,220207.50,3353.80101030,N,11931.64724658,W,2,13,0.8,6.778,M,-37.647,M,6.4,0135*6E
$PYRTM,2024,122.918142293692,14.027789703831
$GNHDT,240.724,T*2C
$PYRTM,2024,122.918148130648,14.027795540787
$GNGGA,220208.00,3353.80086447,N,11931.64737704,W,2,13,0.8,6.799,M,-37.647,M,7.0,0135*6E
$PYRTM,2024,122.918148130648,14.027795540787
$GNHDT,240.653,T*2D
$PYRTM,2024,122.918153862708,14.027801272847
$GNGGA,220208.50,3353.80071031,N,11931.64750003,W,2,13,0.8,6.826,M,-37.647,M,7.4,0135*68
$PYRTM,2024,122.918153862708,14.027801272847
$GNHDT,240.525,T*2F
$PYRTM,2024,122.918159702755,14.027807112894
$GNGGA,220209.00,3353.80056144,N,11931.64761103,W,2,13,0.8,6.846,M,-37.647,M,7.0,0135*6B
$PYRTM,2024,122.918159702755,14.027807112894
$GNHDT,240.515,T*2C
$PYRTM,2024,122.918165440394,14.027812850532
$GNGGA,220209.50,3353.80043532,N,11931.64773147,W,2,13,0.8,6.877,M,-37.647,M,7.4,0135*6A
$PYRTM,2024,122.918165440394,14.027812850532
$GNHDT,240.422,T*29
$PYRTM,2024,122.918171278287,14.027818688426
$GNGGA,220210.00,3353.80033570,N,11931.64785621,W,2,13,0.8,6.881,M,-37.647,M,7.0,0135*65
$PYRTM,2024,122.918171278287,14.027818688426
$GNHDT,240.304,T*2A
$PYRTM,2024,122.918177010949,14.027824421088
$GNGGA,220210.50,3353.80024405,N,11931.64798384,W,2,13,0.8,6.877,M,-37.647,M,7.4,0135*6E
$PYRTM,2024,122.918177010949,14.027824421088
$GNHDT,240.503,T*2B
$PYRTM,2024,122.918182853380,14.027830263519
$GNGGA,220211.00,3353.80014036,N,11931.64811119,W,2,13,0.8,6.848,M,-37.647,M,4.0,0135*6E
$PYRTM,2024,122.918182853380,14.027830263519
$GNHDT,240.421,T*2A
$PYRTM,2024,122.918188585903,14.027835996042
$GNGGA,220211.50,3353.80005166,N,11931.64823176,W,2,13,0.8,6.821,M,-37.647,M,4.4,0135*6C
$PYRTM,2024,122.918188585903,14.027835996042
$GNHDT,240.554,T*29
$PYRTM,2024,122.918194424433,14.027841834572
$GNGGA,220212.00,3353.79995031,N,11931.64835185,W,2,13,0.8,6.813,M,-37.647,M,5.0,0135*60
$PYRTM,2024,122.918194424433,14.027841834572
$GNHDT,240.531,T*2A
$PYRTM,2024,122.918200158403,14.027847568542
$GNGGA,220212.50,3353.79984619,N,11931.64847493,W,2,13,0.8,6.805,M,-37.647,M,5.4,0135*6D
$PYRTM,2024,122.918200158403,14.027847568542
$GNHDT,240.493,T*23
$PYRTM,2024,122.918206007350,14.027853417488
$GNGGA,220213.00,3353.79972302,N,11931.64860242,W,2,13,0.8,6.777,M,-37.647,M,6.0,0135*6D
$PYRTM,2024,122.918206007350,14.027853417488
$GNHDT,240.365,T*2D
$PYRTM,2024,122.918211739699,14.027859149838
$GNGGA,220213.50,3353.79958585,N,11931.64872974,W,2,13,0.8,6.724,M,-37.647,M,6.4,0135*66
$PYRTM,2024,122.918211739699,14.027859149838
$GNHDT,240.412,T*2A
$PYRTM,2024,122.918217577303,14.027864987442
$GNGGA,220214.00,3353.79943899,N,11931.64886172,W,2,13,0.8,6.659,M,-37.647,M,7.0,0135*65
$PYRTM,2024,122.918217577303,14.027864987442
$GNHDT,240.441,T*2C
$PYRTM,2024,122.918223307049,14.027870717199
$GNGGA,220214.50,3353.79929785,N,11931.64899904,W,2,13,0.8,6.605,M,-37.647,M,7.4,0135*64
$PYRTM,2024,122.918223307049,14.027870717199
$GNHDT,240.490,T*20
$PYRTM,2024,122.918229152049,14.027876562187
$GNGGA,220215.00,3353.79916385,N,11931.64912584,W,2,13,0.8,6.590,M,-37.647,M,7.0,0135*65
$PYRTM,2024,122.918229152049,14.027876562187
$GNHDT,240.639,T*21
$PYRTM,2024,122.918234881192,14.027882291343
$GNGGA,220215.50,3353.79905544,N,11931.64924511,W,2,13,0.8,6.635,M,-37.647,M,7.4,0135*68
$PYRTM,2024,122.918234881192,14.027882291343
$GNHDT,240.642,T*2D
$PYRTM,2024,122.918240720625,14.027888130764
$GNGGA,220216.00,3353.79896242,N,11931.64936338,W,2,13,0.8,6.698,M,-37.647,M,7.0,0135*69
$PYRTM,2024,122.918240720625,14.027888130764
$GNHDT,240.667,T*2A
$PYRTM,2024,122.918246457257,14.027893867396
$GNGGA,220216.50,3353.79888528,N,11931.64948552,W,2,13,0.8,6.792,M,-37.647,M,7.4,0135*64
$PYRTM,2024,122.918246457257,14.027893867396
$GNHDT,240.488,T*29
$PYRTM,2024,122.918252294201,14.027899704340
$GNGGA,220217.00,3353.79881720,N,11931.64961971,W,2,13,0.8,6.871,M,-37.647,M,4.0,0135*60
$PYRTM,2024,122.918252294201,14.027899704340
$GNHDT,240.471,T*2F
$PYRTM,2024,122.918258033854,14.027905443993
$GNGGA,220217.50,3353.79874258,N,11931.64976084,W,2,13,0.8,6.915,M,-37.647,M,4.4,0135*67
$PYRTM,2024,122.918258033854,14.027905443993
$GNHDT,240.442,T*2F
$PYRTM,2024,122.918263875475,14.027911285613
$GNGGA,220218.00,3353.79865695,N,11931.64990056,W,2,13,0.8,6.921,M,-37.647,M,5.0,0135*6D
$PYRTM,2024,122.918263875475,14.027911285613
$GNHDT,240.297,T*21
$PYRTM,2024,122.918269601933,14.027917012072
$GNGGA,220218.50,3353.79856228,N,11931.65003099,W,2,13,0.8,6.913,M,-37.647,M,5.4,0135*6E
$PYRTM,2024,122.918269601933,14.027917012072
$GNHDT,240.416,T*2E
$PYRTM,2024,122.918275445093,14.027922855231
$GNGGA,220219.00,3353.79844443,N,11931.65016526,W,2,13,0.8,6.847,M,-37.647,M,6.0,0135*60
$PYRTM,2024,122.918275445093,14.027922855231
$GNHDT,240.549,T*25
$PYRTM,2024,122.918281182326,14.027928592465
$GNGGA,220219.50,3353.79832573,N,11931.65029859,W,2,13,0.8,6.786,M,-37.647,M,6.4,0135*69
$PYRTM,2024,122.918281182326,14.027928592465
$GNHDT,240.603,T*28
$PYRTM,2024,122.918287021366,14.027934431505
$GNGGA,220220.00,3353.79821003,N,11931.65042566,W,2,13,0.8,6.732,M,-37.647,M,7.0,0135*60
$PYRTM,2024,122.918287021366,14.027934431505
$GNHDT,240.532,T*29
$PYRTM,2024,122.918292754780,14.027940164919
$GNGGA,220220.50,3353.79811505,N,11931.65054422,W,2,13,0.8,6.739,M,-37.647,M,7.4,0135*6C
$PYRTM,2024,122.918292754780,14.027940164919
$GNHDT,240.490,T*20
$PYRTM,2024,122.918298599861,14.027946010000
$GNGGA,220221.00,3353.79803090,N,11931.65065612,W,2,13,0.8,6.769,M,-37.647,M,7.0,0135*60
$PYRTM,2024,122.918298599861,14.027946010000
$GNHDT,240.330,T*2D
$PYRTM,2024,122.918304326100,14.027951736238
$GNGGA,220221.50,3353.79796138,N,11931.65078717,W,2,13,0.8,6.788,M,-37.647,M,7.4,0135*66
$PYRTM,2024,122.918304326100,14.027951736238
$GNHDT,240.331,T*2C
$PYRTM,2024,122.918310168495,14.027957578634
$GNGGA,220222.00,3353.79786906,N,11931.65092863,W,2,13,0.8,6.764,M,-37.647,M,7.0,0135*6A
$PYRTM,2024,122.918310168495,14.027957578634
$GNHDT,240.241,T*2A
$PYRTM,2024,122.918315899525,14.027963309664
$GNGGA,220222.50,3353.79775921,N,11931.65108617,W,2,13,0.8,6.694,M,-37.647,M,7.4,0135*63
$PYRTM,2024,122.918315899525,14.027963309664
$GNHDT,240.356,T*2D
$PYRTM,2024,122.918321741238,14.027969151377
$GNGGA,220223.00,3353.79763125,N,11931.65123598,W,2,13,0.8,6.606,M,-37.647,M,4.0,0135*6D
$PYRTM,2024,122.918321741238,14.027969151377
$GNHDT,240.349,T*23
$PYRTM,2024,122.918327473889,14.027974884028
$GNGGA,220223.50,3353.79749648,N,11931.65137217,W,2,13,0.8,6.526,M,-37.647,M,4.4,0135*6C
$PYRTM,2024,122.918327473889,14.027974884028
$GNHDT,240.416,T*2E
$PYRTM,2024,122.918333317940,14.027980728079
$GNGGA,220224.00,3353.79734943,N,11931.65149357,W,2,13,0.8,6.454,M,-37.647,M,5.0,0135*6D
$PYRTM,2024,122.918333317940,14.027980728079
$GNHDT,240.471,T*2F
$PYRTM,2024,122.918339047627,14.027986457766
$GNGGA,220224.50,3353.79720974,N,11931.65160717,W,2,13,0.8,6.431,M,-37.647,M,5.4,0135*65
$PYRTM,2024,122.918339047627,14.027986457766
$GNHDT,240.393,T*24
$PYRTM,2024,122.918344895324,14.027992305463
$GNGGA,220225.00,3353.79706985,N,11931.65172623,W,2,13,0.8,6.415,M,-37.647,M,6.0,0135*6F
$PYRTM,2024,122.918344895324,14.027992305463
$GNHDT,240.460,T*2F
$PYRTM,2024,122.918350624549,14.027998034687
$GNGGA,220225.50,3353.79694363,N,11931.65185219,W,2,13,0.8,6.420,M,-37.647,M,6.4,0135*65
$PYRTM,2024,122.918350624549,14.027998034687
$GNHDT,240.405,T*2C
$PYRTM,2024,122.918356461759,14.028003871898
$GNGGA,220226.00,3353.79682839,N,11931.65198563,W,2,13,0.8,6.425,M,-37.647,M,7.0,0135*66
$PYRTM,2024,122.918356461759,14.028003871898
$GNHDT,240.306,T*28
$PYRTM,2024,122.918362199271,14.028009609421
$GNGGA,220226.50,3353.79672434,N,11931.65212002,W,2,13,0.8,6.440,M,-37.647,M,7.4,0135*69
$PYRTM,2024,122.918362199271,14.028009609421
$GNHDT,240.199,T*2C
$PYRTM,2024,122.918368038171,14.028015448310
$GNGGA,220227.00,3353.79661345,N,11931.65225333,W,2,13,0.8,6.464,M,-37.647,M,7.0,0135*69
$PYRTM,2024,122.918368038171,14.028015448310
$GNHDT,240.199,T*2C
$PYRTM,2024,122.918373775567,14.028021185706
$GNGGA,220227.50,3353.79649224,N,11931.65238072,W,2,13,0.8,6.473,M,-37.647,M,7.4,0135*68
$PYRTM,2024,122.918373775567,14.028021185706
$GNHDT,240.246,T*2D
$PYRTM,2024,122.918379610579,14.028027020718
$GNGGA,220228.00,3353.79636710,N,11931.65250259,W,2,13,0.8,6.483,M,-37.647,M,7.0,0135*66
$PYRTM,2024,122.918379610579,14.028027020718
$GNHDT,240.303,T*2D
$PYRTM,2024,122.918385349549,14.028032759688
$GNGGA,220228.50,3353.79623409,N,11931.65262078,W,2,13,0.8,6.487,M,-37.647,M,7.4,0135*6C
$PYRTM,2024,122.918385349549,14.028032759688
$GNHDT,240.262,T*2B
$PYRTM,2024,122.918391193704,14.028038603843
$GNGGA,220229.00,3353.79611276,N,11931.65274060,W,2,13,0.8,6.505,M,-37.647,M,4.0,0135*65
$PYRTM,2024,122.918391193704,14.028038603843
$GNHDT,240.341,T*2B
$PYRTM,2024,122.918396925637,14.028044335775
