$PYRTM,2024,122.333333480995,13.442980891134
$GNGGA,080000.00,3329.90302696,N,11932.57585197,W,2,11,0.9,5.673,M,-37.529,M,75.0,0135*5E
$PYRTM,2024,122.333333480995,13.442980891134
$GNHDT,292.901,T*2A
$PYRTM,2024,122.333339206204,13.442986616343
$GNGGA,080000.50,3329.90333652,N,11932.57712510,W,2,11,0.9,5.269,M,-37.529,M,75.4,0135*5D
$PYRTM,2024,122.333339206204,13.442986616343
$GNHDT,293.570,T*21
$PYRTM,2024,122.333345049699,13.442992459850
$GNGGA,080001.00,3329.90359635,N,11932.57834716,W,2,11,0.9,5.129,M,-37.529,M,76.0,0135*5B
$PYRTM,2024,122.333345049699,13.442992459850
$GNHDT,293.840,T*2F
$PYRTM,2024,122.333350790394,13.442998200544
$GNGGA,080001.50,3329.90388463,N,11932.57950821,W,2,11,0.9,5.297,M,-37.529,M,76.4,0135*59
$PYRTM,2024,122.333350790394,13.442998200544
$GNHDT,293.774,T*27
$PYRTM,2024,122.333356626852,13.443004036991
$GNGGA,080002.00,3329.90422722,N,11932.58062243,W,2,11,0.9,5.630,M,-37.529,M,77.0,0135*5B
$PYRTM,2024,122.333356626852,13.443004036991
$GNHDT,293.598,T*27
$PYRTM,2024,122.333362361053,13.443009771192
$GNGGA,080002.50,3329.90465399,N,11932.58172631,W,2,11,0.9,5.975,M,-37.529,M,77.4,0135*52
$PYRTM,2024,122.333362361053,13.443009771192
$GNHDT,293.793,T*2E
$PYRTM,2024,122.333368199653,13.443015609792
$GNGGA,080003.00,3329.90516476,N,11932.58285306,W,2,11,0.9,6.209,M,-37.529,M,78.0,0135*57
$PYRTM,2024,122.333368199653,13.443015609792
$GNHDT,293.825,T*2C
$PYRTM,2024,122.333373933935,13.443021344074
$GNGGA,080003.50,3329.90571235,N,11932.58404157,W,2,11,0.9,6.217,M,-37.529,M,78.4,0135*50
$PYRTM,2024,122.333373933935,13.443021344074
$GNHDT,293.450,T*22
$PYRTM,2024,122.333379775127,13.443027185266
$GNGGA,080004.00,3329.90624534,N,11932.58530435,W,2,11,0.9,6.028,M,-37.529,M,79.0,0135*5B
$PYRTM,2024,122.333379775127,13.443027185266
$GNHDT,292.927,T*2E
$PYRTM,2024,122.333385506204,13.443032916343
$GNGGA,080004.50,3329.90673980,N,11932.58662569,W,2,11,0.9,5.677,M,-37.529,M,79.4,0135*58
$PYRTM,2024,122.333385506204,13.443032916343
$GNHDT,292.990,T*22
$PYRTM,2024,122.333391351979,13.443038762118
$GNGGA,080005.00,3329.90715069,N,11932.58798077,W,2,11,0.9,5.315,M,-37.529,M,80.0,0135*5E
$PYRTM,2024,122.333391351979,13.443038762118
$GNHDT,292.842,T*2C
$PYRTM,2024,122.333397075914,13.443044486053
$GNGGA,080005.50,3329.90746134,N,11932.58927393,W,2,11,0.9,5.228,M,-37.529,M,80.4,0135*5C
$PYRTM,2024,122.333397075914,13.443044486053
$GNHDT,292.883,T*21
$PYRTM,2024,122.333402925729,13.443050335868
$GNGGA,080006.00,3329.90770264,N,11932.59047886,W,2,11,0.9,5.479,M,-37.529,M,81.0,0135*5F
$PYRTM,2024,122.333402925729,13.443050335868
$GNHDT,293.139,T*28
$PYRTM,2024,122.333408650417,13.443056060556
$GNGGA,080006.50,3329.90796119,N,11932.59162491,W,2,11,0.9,5.876,M,-37.529,M,81.4,0135*50
$PYRTM,2024,122.333408650417,13.443056060556
$GNHDT,293.068,T*2D
$PYRTM,2024,122.333414498368,13.443061908507
$GNGGA,080007.00,3329.90830547,N,11932.59277690,W,2,11,0.9,6.301,M,-37.529,M,82.0,0135*53
$PYRTM,2024,122.333414498368,13.443061908507
$GNHDT,292.873,T*2E
$PYRTM,2024,122.333420228056,13.443067638194
$GNGGA,080007.50,3329.90876097,N,11932.59400900,W,2,11,0.9,6.408,M,-37.529,M,82.4,0135*56
$PYRTM,2024,122.333420228056,13.443067638194
$GNHDT,292.834,T*2D
$PYRTM,2024,122.333426075671,13.443073485810
$GNGGA,080008.00,3329.90928552,N,11932.59531348,W,2,11,0.9,6.214,M,-37.529,M,83.0,0135*51
$PYRTM,2024,122.333426075671,13.443073485810
$GNHDT,292.402,T*24
$PYRTM,2024,122.333431801562,13.443079211701
$GNGGA,080008.50,3329.90980654,N,11932.59660438,W,2,11,0.9,5.886,M,-37.529,M,83.4,0135*52
$PYRTM,2024,122.333431801562,13.443079211701
$GNHDT,292.476,T*27
$PYRTM,2024,122.333437643449,13.443085053588
$GNGGA,080009.00,3329.91028130,N,11932.59783627,W,2,11,0.9,5.624,M,-37.529,M,84.0,0135*5C
$PYRTM,2024,122.333437643449,13.443085053588
$GNHDT,292.186,T*2D
$PYRTM,2024,122.333443373877,13.443090784016
$GNGGA,080009.50,3329.91069670,N,11932.59899755,W,2,11,0.9,5.574,M,-37.529,M,84.4,0135*5D
$PYRTM,2024,122.333443373877,13.443090784016
$GNHDT,292.271,T*26
$PYRTM,2024,122.333449222257,13.443096632396
$GNGGA,080010.00,3329.91105371,N,11932.60013163,W,2,11,0.9,5.724,M,-37.529,M,85.0,0135*5E
$PYRTM,2024,122.333449222257,13.443096632396
$GNHDT,292.277,T*20
$PYRTM,2024,122.333454948657,13.443102358796
$GNGGA,080010.50,3329.91138817,N,11932.60129890,W,2,11,0.9,5.952,M,-37.529,M,85.4,0135*58
$PYRTM,2024,122.333454948657,13.443102358796
$GNHDT,292.281,T*29
$PYRTM,2024,122.333460796505,13.443108206644
$GNGGA,080011.00,3329.91172182,N,11932.60254676,W,2,11,0.9,6.082,M,-37.529,M,86.0,0135*58
$PYRTM,2024,122.333460796505,13.443108206644
$GNHDT,292.140,T*27
$PYRTM,2024,122.333466532222,13.443113942361
$GNGGA,080011.50,3329.91208777,N,11932.60386006,W,2,11,0.9,6.036,M,-37.529,M,86.4,0135*5B
$PYRTM,2024,122.333466532222,13.443113942361
$GNHDT,292.149,T*2E
$PYRTM,2024,122.333472363542,13.443119773681
$GNGGA,080012.00,3329.91247045,N,11932.60519102,W,2,11,0.9,5.794,M,-37.529,M,87.0,0135*5C
$PYRTM,2024,122.333472363542,13.443119773681
$GNHDT,292.094,T*2F
$PYRTM,2024,122.333478099363,13.443125509502
$GNGGA,080012.50,3329.91286078,N,11932.60646554,W,2,11,0.9,5.589,M,-37.529,M,87.4,0135*5E
$PYRTM,2024,122.333478099363,13.443125509502
$GNHDT,292.207,T*27
$PYRTM,2024,122.333483939039,13.443131349178
$GNGGA,080013.00,3329.91324370,N,11932.60766302,W,2,11,0.9,5.519,M,-37.529,M,88.0,0135*5C
$PYRTM,2024,122.333483939039,13.443131349178
$GNHDT,291.891,T*21
$PYRTM,2024,122.333489672442,13.443137082593
$GNGGA,080013.50,3329.91364304,N,11932.60880848,W,2,11,0.9,5.606,M,-37.529,M,88.4,0135*55
$PYRTM,2024,122.333489672442,13.443137082593
$GNHDT,291.910,T*29
$PYRTM,2024,122.333495518438,13.443142928588
$GNGGA,080014.00,3329.91405975,N,11932.60996360,W,2,11,0.9,5.724,M,-37.529,M,89.0,0135*58
$PYRTM,2024,122.333495518438,13.443142928588
$GNHDT,291.621,T*24
$PYRTM,2024,122.333501248461,13.443148658600
$GNGGA,080014.50,3329.91449931,N,11932.61117298,W,2,11,0.9,5.779,M,-37.529,M,89.4,0135*5F
$PYRTM,2024,122.333501248461,13.443148658600
$GNHDT,291.564,T*26
$PYRTM,2024,122.333507092859,13.443154502998
$GNGGA,080015.00,3329.91493882,N,11932.61246137,W,2,11,0.9,5.669,M,-37.529,M,90.0,0135*58
$PYRTM,2024,122.333507092859,13.443154502998
$GNHDT,291.281,T*2A
$PYRTM,2024,122.333512819606,13.443160229745
$GNGGA,080015.50,3329.91536754,N,11932.61381382,W,2,11,0.9,5.402,M,-37.529,M,90.4,0135*5A
$PYRTM,2024,122.333512819606,13.443160229745
$GNHDT,291.282,T*29
$PYRTM,2024,122.333518665012,13.443166075150
$GNGGA,080016.00,3329.91575761,N,11932.61517963,W,2,11,0.9,5.097,M,-37.529,M,91.0,0135*5C
$PYRTM,2024,122.333518665012,13.443166075150
$GNHDT,291.330,T*21
$PYRTM,2024,122.333524396354,13.443171806493
$GNGGA,080016.50,3329.91610011,N,11932.61647587,W,2,11,0.9,4.989,M,-37.529,M,91.4,0135*5A
$PYRTM,2024,122.333524396354,13.443171806493
$GNHDT,291.330,T*21
$PYRTM,2024,122.333530242581,13.443177652720
$GNGGA,080017.00,3329.91640631,N,11932.61766279,W,2,11,0.9,5.194,M,-37.529,M,92.0,0135*59
$PYRTM,2024,122.333530242581,13.443177652720
$GNHDT,291.253,T*25
$PYRTM,2024,122.333535967512,13.443183377662
$GNGGA,080017.50,3329.91670914,N,11932.61878016,W,2,11,0.9,5.591,M,-37.529,M,92.4,0135*59
$PYRTM,2024,122.333535967512,13.443183377662
$GNHDT,291.397,T*2C
$PYRTM,2024,122.333541813426,13.443189223565
$GNGGA,080018.00,3329.91708060,N,11932.61987906,W,2,11,0.9,6.030,M,-37.529,M,93.0,0135*56
$PYRTM,2024,122.333541813426,13.443189223565
$GNHDT,291.679,T*29
$PYRTM,2024,122.333547546655,13.443194956794
$GNGGA,080018.50,3329.91748886,N,11932.62108079,W,2,11,0.9,6.226,M,-37.529,M,93.4,0135*5B
$PYRTM,2024,122.333547546655,13.443194956794
$GNHDT,291.593,T*2E
$PYRTM,2024,122.333553383252,13.443200793391
$GNGGA,080019.00,3329.91793544,N,11932.62237851,W,2,11,0.9,6.055,M,-37.529,M,94.0,0135*52
$PYRTM,2024,122.333553383252,13.443200793391
$GNHDT,291.545,T*25
$PYRTM,2024,122.333559115787,13.443206525926
$GNGGA,080019.50,3329.91839218,N,11932.62369510,W,2,11,0.9,5.659,M,-37.529,M,94.4,0135*59
$PYRTM,2024,122.333559115787,13.443206525926
$GNHDT,291.950,T*2D
$PYRTM,2024,122.333564961713,13.443212371852
$GNGGA,080020.00,3329.91881442,N,11932.62497058,W,2,11,0.9,5.254,M,-37.529,M,95.0,0135*5F
$PYRTM,2024,122.333564961713,13.443212371852
$GNHDT,291.810,T*28
$PYRTM,2024,122.333570690532,13.443218100671
$GNGGA,080020.50,3329.91919543,N,11932.62618947,W,2,11,0.9,5.004,M,-37.529,M,95.4,0135*5B
$PYRTM,2024,122.333570690532,13.443218100671
$GNHDT,291.792,T*2D
$PYRTM,2024,122.333576532789,13.443223942928
$GNGGA,080021.00,3329.91954401,N,11932.62737429,W,2,11,0.9,4.965,M,-37.529,M,96.0,0135*50
$PYRTM,2024,122.333576532789,13.443223942928
$GNHDT,292.050,T*27
$PYRTM,2024,122.333582264896,13.443229675046
$GNGGA,080021.50,3329.91988811,N,11932.62856649,W,2,11,0.9,5.104,M,-37.529,M,96.4,0135*5F
$PYRTM,2024,122.333582264896,13.443229675046
$GNHDT,292.006,T*24
$PYRTM,2024,122.333588109329,13.443235519468
$GNGGA,080022.00,3329.92024330,N,11932.62979145,W,2,11,0.9,5.300,M,-37.529,M,97.0,0135*59
$PYRTM,2024,122.333588109329,13.443235519468
$GNHDT,292.010,T*23
$PYRTM,2024,122.333593843958,13.443241254097
$GNGGA,080022.50,3329.92063702,N,11932.63105694,W,2,11,0.9,5.453,M,-37.529,M,97.4,0135*56
$PYRTM,2024,122.333593843958,13.443241254097
$GNHDT,291.946,T*2A
$PYRTM,2024,122.333599679468,13.443247089618
$GNGGA,080023.00,3329.92106307,N,11932.63236221,W,2,11,0.9,5.531,M,-37.529,M,98.0,0135*56
$PYRTM,2024,122.333599679468,13.443247089618
$GNHDT,291.826,T*2D
$PYRTM,2024,122.333605415486,13.443252825625
$GNGGA,080023.50,3329.92149776,N,11932.63367981,W,2,11,0.9,5.523,M,-37.529,M,98.4,0135*59
$PYRTM,2024,122.333605415486,13.443252825625
$GNHDT,292.095,T*2E
$PYRTM,2024,122.333611260463,13.443258670602
$GNGGA,080024.00,3329.92195043,N,11932.63497414,W,2,11,0.9,5.518,M,-37.529,M,99.0,0135*5F
$PYRTM,2024,122.333611260463,13.443258670602
$GNHDT,292.193,T*29
$PYRTM,2024,122.333616984120,13.443264394259
$GNGGA,080024.50,3329.92239031,N,11932.63623846,W,2,11,0.9,5.566,M,-37.529,M,99.4,0135*51
$PYRTM,2024,122.333616984120,13.443264394259
$GNHDT,292.310,T*20
$PYRTM,2024,122.333622827569,13.443270237708
$GNGGA,080025.00,3329.92280108,N,11932.63749161,W,2,11,0.9,5.686,M,-37.529,M,100.0,0135*65
$PYRTM,2024,122.333622827569,13.443270237708
$GNHDT,292.192,T*28
$PYRTM,2024,122.333628558484,13.443275968623
$GNGGA,080025.50,3329.92319363,N,11932.63874447,W,2,11,0.9,5.856,M,-37.528,M,100.4,0135*68
$PYRTM,2024,122.333628558484,13.443275968623
$GNHDT,292.094,T*2F
$PYRTM,2024,122.333634406956,13.443281817095
$GNGGA,080026.00,3329.92357541,N,11932.63999981,W,2,11,0.9,6.041,M,-37.528,M,101.0,0135*6F
$PYRTM,2024,122.333634406956,13.443281817095
$GNHDT,292.152,T*24
$PYRTM,2024,122.333640136748,13.443287546887
$GNGGA,080026.50,3329.92397472,N,11932.64124232,W,2,11,0.9,6.201,M,-37.528,M,101.4,0135*6F
$PYRTM,2024,122.333640136748,13.443287546887
$GNHDT,292.234,T*27
$PYRTM,2024,122.333645983056,13.443293393194
$GNGGA,080027.00,3329.92439764,N,11932.64248678,W,2,11,0.9,6.282,M,-37.528,M,102.0,0135*63
$PYRTM,2024,122.333645983056,13.443293393194
$GNHDT,292.474,T*25
$PYRTM,2024,122.333651704398,13.443299114537
$GNGGA,080027.50,3329.92483474,N,11932.64374923,W,2,11,0.9,6.232,M,-37.528,M,102.4,0135*65
$PYRTM,2024,122.333651704398,13.443299114537
$GNHDT,292.605,T*21
$PYRTM,2024,122.333657549248,13.443304959387
$GNGGA,080028.00,3329.92525894,N,11932.64505722,W,2,11,0.9,6.028,M,-37.528,M,103.0,0135*63
$PYRTM,2024,122.333657549248,13.443304959387
$GNHDT,292.553,T*21
$PYRTM,2024,122.333663288553,13.443310698692
$GNGGA,080028.50,3329.92567222,N,11932.64639024,W,2,11,0.9,5.739,M,-37.528,M,103.4,0135*6A
$PYRTM,2024,122.333663288553,13.443310698692
$GNHDT,292.201,T*21
$PYRTM,2024,122.333669123206,13.443316533345
$GNGGA,080029.00,3329.92607907,N,11932.64770583,W,2,11,0.9,5.475,M,-37.528,M,104.0,0135*6B
$PYRTM,2024,122.333669123206,13.443316533345
$GNHDT,292.197,T*2D
$PYRTM,2024,122.333674863056,13.443322273194
$GNGGA,080029.50,3329.92646270,N,11932.64897149,W,2,11,0.9,5.348,M,-37.528,M,104.4,0135*69
$PYRTM,2024,122.333674863056,13.443322273194
$GNHDT,292.231,T*22
$PYRTM,2024,122.333680702072,13.443328112211
$GNGGA,080030.00,3329.92683550,N,11932.65018096,W,2,11,0.9,5.369,M,-37.528,M,105.0,0135*63
$PYRTM,2024,122.333680702072,13.443328112211
$GNHDT,292.469,T*29
$PYRTM,2024,122.333686434537,13.443333844676
$GNGGA,080030.50,3329.92723691,N,11932.65137446,W,2,11,0.9,5.508,M,-37.528,M,105.4,0135*63
$PYRTM,2024,122.333686434537,13.443333844676
$GNHDT,292.526,T*23
$PYRTM,2024,122.333692273935,13.443339684074
$GNGGA,080031.00,3329.92768522,N,11932.65260632,W,2,11,0.9,5.603,M,-37.528,M,106.0,0135*6C
$PYRTM,2024,122.333692273935,13.443339684074
$GNHDT,292.650,T*21
$PYRTM,2024,122.333698009074,13.443345419213
$GNGGA,080031.50,3329.92816479,N,11932.65389168,W,2,11,0.9,5.549,M,-37.528,M,106.4,0135*67
$PYRTM,2024,122.333698009074,13.443345419213
$GNHDT,292.585,T*2A
$PYRTM,2024,122.333703847882,13.443351258021
$GNGGA,080032.00,3329.92863176,N,11932.65524329,W,2,11,0.9,5.339,M,-37.528,M,107.0,0135*6B
$PYRTM,2024,122.333703847882,13.443351258021
$GNHDT,292.574,T*24
$PYRTM,2024,122.333709586736,13.443356996875
$GNGGA,080032.50,3329.92906444,N,11932.65662032,W,2,11,0.9,5.077,M,-37.528,M,107.4,0135*6D
$PYRTM,2024,122.333709586736,13.443356996875
$GNHDT,292.561,T*20
$PYRTM,2024,122.333715427431,13.443362837569
$GNGGA,080033.00,3329.92944697,N,11932.65797686,W,2,11,0.9,4.888,M,-37.528,M,108.0,0135*63
$PYRTM,2024,122.333715427431,13.443362837569
$GNHDT,292.519,T*2F
$PYRTM,2024,122.333721155775,13.443368565914
$GNGGA,080033.50,3329.92979909,N,11932.65926470,W,2,11,0.9,4.949,M,-37.528,M,108.4,0135*67
$PYRTM,2024,122.333721155775,13.443368565914
$GNHDT,292.680,T*2C
$PYRTM,2024,122.333726997500,13.443374407639
$GNGGA,080034.00,3329.93013498,N,11932.66049506,W,2,11,0.9,5.222,M,-37.528,M,109.0,0135*65
$PYRTM,2024,122.333726997500,13.443374407639
$GNHDT,292.584,T*2B
$PYRTM,2024,122.333732725914,13.443380136053
$GNGGA,080034.50,3329.93047871,N,11932.66169544,W,2,11,0.9,5.610,M,-37.528,M,109.4,0135*6E
$PYRTM,2024,122.333732725914,13.443380136053
$GNHDT,292.518,T*2E
$PYRTM,2024,122.333738569653,13.443385979792
$GNGGA,080035.00,3329.93084740,N,11932.66292889,W,2,11,0.9,5.988,M,-37.528,M,110.0,0135*61
$PYRTM,2024,122.333738569653,13.443385979792
$GNHDT,292.320,T*23
$PYRTM,2024,122.333744306644,13.443391716782
$GNGGA,080035.50,3329.93126852,N,11932.66422771,W,2,11,0.9,6.114,M,-37.528,M,110.4,0135*6E
$PYRTM,2024,122.333744306644,13.443391716782
$GNHDT,292.248,T*2C
$PYRTM,2024,122.333750146296,13.443397556435
$GNGGA,080036.00,3329.93175919,N,11932.66555021,W,2,11,0.9,6.039,M,-37.528,M,111.0,0135*68
$PYRTM,2024,122.333750146296,13.443397556435
$GNHDT,292.347,T*22
$PYRTM,2024,122.333755874931,13.443403285069
$GNGGA,080036.50,3329.93223024,N,11932.66686197,W,2,11,0.9,5.826,M,-37.528,M,111.4,0135*6A
$PYRTM,2024,122.333755874931,13.443403285069
$GNHDT,292.500,T*27
$PYRTM,2024,122.333761717708,13.443409127847
$GNGGA,080037.00,3329.93267150,N,11932.66813672,W,2,11,0.9,5.624,M,-37.528,M,112.0,0135*69
$PYRTM,2024,122.333761717708,13.443409127847
$GNHDT,292.531,T*25
$PYRTM,2024,122.333767450359,13.443414860498
$GNGGA,080037.50,3329.93309305,N,11932.66937405,W,2,11,0.9,5.549,M,-37.528,M,112.4,0135*6E
$PYRTM,2024,122.333767450359,13.443414860498
$GNHDT,292.355,T*21
$PYRTM,2024,122.333773290428,13.443420700567
$GNGGA,080038.00,3329.93348325,N,11932.67060029,W,2,11,0.9,5.597,M,-37.528,M,113.0,0135*65
$PYRTM,2024,122.333773290428,13.443420700567
$GNHDT,292.094,T*2F
$PYRTM,2024,122.333779023275,13.443426433414
$GNGGA,080038.50,3329.93386107,N,11932.67184316,W,2,11,0.9,5.709,M,-37.528,M,113.4,0135*65
$PYRTM,2024,122.333779023275,13.443426433414
$GNHDT,292.164,T*21
$PYRTM,2024,122.333784867338,13.443432277477
$GNGGA,080039.00,3329.93423358,N,11932.67314944,W,2,11,0.9,5.738,M,-37.528,M,114.0,0135*66
$PYRTM,2024,122.333784867338,13.443432277477
$GNHDT,292.091,T*2A
$PYRTM,2024,122.333790599329,13.443438009479
$GNGGA,080039.50,3329.93465484,N,11932.67454126,W,2,11,0.9,5.576,M,-37.528,M,114.4,0135*64
$PYRTM,2024,122.333790599329,13.443438009479
$GNHDT,291.972,T*2D
$PYRTM,2024,122.333796440764,13.443443850903
$GNGGA,080040.00,3329.93511619,N,11932.67597393,W,2,11,0.9,5.263,M,-37.528,M,115.0,0135*6F
$PYRTM,2024,122.333796440764,13.443443850903
$GNHDT,292.002,T*20
$PYRTM,2024,122.333802177164,13.443449587303
$GNGGA,080040.50,3329.93558509,N,11932.67736639,W,2,11,0.9,4.956,M,-37.528,M,115.4,0135*61
$PYRTM,2024,122.333802177164,13.443449587303
$GNHDT,292.219,T*28
$PYRTM,2024,122.333808020556,13.443455430694
$GNGGA,080041.00,3329.93606917,N,11932.67864650,W,2,11,0.9,4.884,M,-37.528,M,116.0,0135*60
$PYRTM,2024,122.333808020556,13.443455430694
$GNHDT,292.632,T*25
$PYRTM,2024,122.333813753935,13.443461164074
$GNGGA,080041.50,3329.93654364,N,11932.67983274,W,2,11,0.9,5.108,M,-37.528,M,116.4,0135*6E
$PYRTM,2024,122.333813753935,13.443461164074
$GNHDT,292.768,T*2B
$PYRTM,2024,122.333819595602,13.443467005741
$GNGGA,080042.00,3329.93699014,N,11932.68100546,W,2,11,0.9,5.517,M,-37.528,M,117.0,0135*68
$PYRTM,2024,122.333819595602,13.443467005741
$GNHDT,292.658,T*29
$PYRTM,2024,122.333825321563,13.443472731701
$GNGGA,080042.50,3329.93742052,N,11932.68221096,W,2,11,0.9,6.002,M,-37.528,M,117.4,0135*66
$PYRTM,2024,122.333825321563,13.443472731701
$GNHDT,292.733,T*25
$PYRTM,2024,122.333831162037,13.443478572176
$GNGGA,080043.00,3329.93780643,N,11932.68350287,W,2,11,0.9,6.370,M,-37.528,M,118.0,0135*62
$PYRTM,2024,122.333831162037,13.443478572176
$GNHDT,292.495,T*2A
$PYRTM,2024,122.333836889942,13.443484300081
$GNGGA,080043.50,3329.93814680,N,11932.68488607,W,2,11,0.9,6.465,M,-37.528,M,118.4,0135*63
$PYRTM,2024,122.333836889942,13.443484300081
$GNHDT,292.212,T*23
$PYRTM,2024,122.333842738125,13.443490148264
$GNGGA,080044.00,3329.93845976,N,11932.68630495,W,2,11,0.9,6.332,M,-37.528,M,119.0,0135*6B
$PYRTM,2024,122.333842738125,13.443490148264
$GNHDT,292.373,T*25
$PYRTM,2024,122.333848464213,13.443495874352
$GNGGA,080044.50,3329.93878582,N,11932.68769096,W,2,11,0.9,6.044,M,-37.528,M,119.4,0135*6B
$PYRTM,2024,122.333848464213,13.443495874352
$GNHDT,291.969,T*27
$PYRTM,2024,122.333854308623,13.443501718762
$GNGGA,080045.00,3329.93914440,N,11932.68898827,W,2,11,0.9,5.750,M,-37.528,M,120.0,0135*67
$PYRTM,2024,122.333854308623,13.443501718762
$GNHDT,292.025,T*25
$PYRTM,2024,122.333860041262,13.443507451400
$GNGGA,080045.50,3329.93956847,N,11932.69019191,W,2,11,0.9,5.566,M,-37.528,M,120.4,0135*68
$PYRTM,2024,122.333860041262,13.443507451400
$GNHDT,292.337,T*25
$PYRTM,2024,122.333865888484,13.443513298623
$GNGGA,080046.00,3329.94004068,N,11932.69135252,W,2,11,0.9,5.490,M,-37.528,M,121.0,0135*6C
$PYRTM,2024,122.333865888484,13.443513298623
$GNHDT,292.528,T*2D
$PYRTM,2024,122.333871620150,13.443519030289
$GNGGA,080046.50,3329.94054572,N,11932.69253838,W,2,11,0.9,5.464,M,-37.528,M,121.4,0135*68
$PYRTM,2024,122.333871620150,13.443519030289
$GNHDT,292.482,T*2C
$PYRTM,2024,122.333877459595,13.443524869734
$GNGGA,080047.00,3329.94104736,N,11932.69376454,W,2,11,0.9,5.482,M,-37.528,M,122.0,0135*65
$PYRTM,2024,122.333877459595,13.443524869734
$GNHDT,292.250,T*25
$PYRTM,2024,122.333883187257,13.443530597396
$GNGGA,080047.50,3329.94150594,N,11932.69501342,W,2,11,0.9,5.556,M,-37.528,M,122.4,0135*61
$PYRTM,2024,122.333883187257,13.443530597396
$GNHDT,292.086,T*2C
$PYRTM,2024,122.333889042083,13.443536452222
$GNGGA,080048.00,3329.94189855,N,11932.69628070,W,2,11,0.9,5.675,M,-37.528,M,123.0,0135*62
$PYRTM,2024,122.333889042083,13.443536452222
$GNHDT,292.336,T*24
$PYRTM,2024,122.333894763495,13.443542173634
$GNGGA,080048.50,3329.94226404,N,11932.69757858,W,2,11,0.9,5.755,M,-37.528,M,123.4,0135*65
$PYRTM,2024,122.333894763495,13.443542173634
$GNHDT,292.229,T*2B
$PYRTM,2024,122.333900605463,13.443548015602
$GNGGA,080049.00,3329.94266390,N,11932.69893284,W,2,11,0.9,5.686,M,-37.528,M,124.0,0135*6F
$PYRTM,2024,122.333900605463,13.443548015602
$GNHDT,292.321,T*22
$PYRTM,2024,122.333906342812,13.443553752951
$GNGGA,080049.50,3329.94310687,N,11932.70034214,W,2,11,0.9,5.406,M,-37.528,M,124.4,0135*63
$PYRTM,2024,122.333906342812,13.443553752951
$GNHDT,292.412,T*25
$PYRTM,2024,122.333912186296,13.443559596447
$GNGGA,080050.00,3329.94360048,N,11932.70178074,W,2,11,0.9,5.023,M,-37.528,M,125.0,0135*67
$PYRTM,2024,122.333912186296,13.443559596447
$GNHDT,292.412,T*25
$PYRTM,2024,122.333917913137,13.443565323287
$GNGGA,080050.50,3329.94408624,N,11932.70316865,W,2,11,0.9,4.720,M,-37.528,M,125.4,0135*64
$PYRTM,2024,122.333917913137,13.443565323287
$GNHDT,292.236,T*25
$PYRTM,2024,122.333923766134,13.443571176273
$GNGGA,080051.00,3329.94453508,N,11932.70442439,W,2,11,0.9,4.733,M,-37.528,M,126.0,0135*65
$PYRTM,2024,122.333923766134,13.443571176273
$GNHDT,292.367,T*20
$PYRTM,2024,122.333929489479,13.443576899618
$GNGGA,080051.50,3329.94494359,N,11932.70556551,W,2,11,0.9,5.155,M,-37.528,M,126.4,0135*61
$PYRTM,2024,122.333929489479,13.443576899618
$GNHDT,292.110,T*22
$PYRTM,2024,122.333935340498,13.443582750637
$GNGGA,080052.00,3329.94533364,N,11932.70669499,W,2,11,0.9,5.774,M,-37.528,M,127.0,0135*6F
$PYRTM,2024,122.333935340498,13.443582750637
$GNHDT,291.925,T*2F
$PYRTM,2024,122.333941063275,13.443588473414
$GNGGA,080052.50,3329.94572809,N,11932.70788398,W,2,11,0.9,6.321,M,-37.528,M,127.4,0135*64
$PYRTM,2024,122.333941063275,13.443588473414
$GNHDT,292.114,T*26
$PYRTM,2024,122.333946915729,13.443594325868
$GNGGA,080053.00,3329.94613903,N,11932.70920601,W,2,11,0.9,6.581,M,-37.528,M,128.0,0135*61
$PYRTM,2024,122.333946915729,13.443594325868
$GNHDT,292.187,T*2C
$PYRTM,2024,122.333952639097,13.443600049236
$GNGGA,080053.50,3329.94655127,N,11932.71059624,W,2,11,0.9,6.505,M,-37.528,M,128.4,0135*61
$PYRTM,2024,122.333952639097,13.443600049236
$GNHDT,291.683,T*2C
$PYRTM,2024,122.333958479884,13.443605890023
$GNGGA,080054.00,3329.94695485,N,11932.71199555,W,2,11,0.9,6.166,M,-37.528,M,129.0,0135*6E
$PYRTM,2024,122.333958479884,13.443605890023
$GNHDT,291.912,T*2B
$PYRTM,2024,122.333964214340,13.443611624479
$GNGGA,080054.50,3329.94735143,N,11932.71333460,W,2,11,0.9,5.758,M,-37.528,M,129.4,0135*66
$PYRTM,2024,122.333964214340,13.443611624479
$GNHDT,292.138,T*28
$PYRTM,2024,122.333970049687,13.443617459826
$GNGGA,080055.00,3329.94772808,N,11932.71462477,W,2,11,0.9,5.390,M,-37.528,M,130.0,0135*6E
$PYRTM,2024,122.333970049687,13.443617459826
$GNHDT,292.293,T*2A
$PYRTM,2024,122.333975781586,13.443623191736
$GNGGA,080055.50,3329.94807945,N,11932.71586736,W,2,11,0.9,5.256,M,-37.528,M,130.4,0135*6C
$PYRTM,2024,122.333975781586,13.443623191736
$GNHDT,292.162,T*27
$PYRTM,2024,122.333981628461,13.443629038600
$GNGGA,080056.00,3329.94841186,N,11932.71706838,W,2,11,0.9,5.360,M,-37.528,M,131.0,0135*65
$PYRTM,2024,122.333981628461,13.443629038600
$GNHDT,292.120,T*21
$PYRTM,2024,122.333987361447,13.443634771586
$GNGGA,080056.50,3329.94875854,N,11932.71824113,W,2,11,0.9,5.623,M,-37.528,M,131.4,0135*68
$PYRTM,2024,122.333987361447,13.443634771586
$GNHDT,291.976,T*29
$PYRTM,2024,122.333993200694,13.443640610833
$GNGGA,080057.00,3329.94914061,N,11932.71944420,W,2,11,0.9,5.866,M,-37.528,M,132.0,0135*6E
$PYRTM,2024,122.333993200694,13.443640610833
$GNHDT,291.783,T*2D
$PYRTM,2024,122.333998929051,13.443646339190
$GNGGA,080057.50,3329.94957054,N,11932.72074729,W,2,11,0.9,5.849,M,-37.528,M,132.4,0135*60
$PYRTM,2024,122.333998929051,13.443646339190
$GNHDT,291.931,T*2A
$PYRTM,2024,122.334004778090,13.443652188229
$GNGGA,080058.00,3329.95002914,N,11932.72214944,W,2,11,0.9,5.563,M,-37.528,M,133.0,0135*6E
$PYRTM,2024,122.334004778090,13.443652188229
$GNHDT,292.053,T*24
$PYRTM,2024,122.334010506505,13.443657916644
$GNGGA,080058.50,3329.95049938,N,11932.72358886,W,2,11,0.9,5.108,M,-37.528,M,133.4,0135*61
$PYRTM,2024,122.334010506505,13.443657916644
$GNHDT,291.935,T*2E
$PYRTM,2024,122.334016348900,13.443663759039
$GNGGA,080059.00,3329.95095097,N,11932.72497484,W,2,11,0.9,4.749,M,-37.528,M,134.0,0135*63
$PYRTM,2024,122.334016348900,13.443663759039
$GNHDT,291.940,T*2C
$PYRTM,2024,122.334022083160,13.443669493310
$GNGGA,080059.50,3329.95136870,N,11932.72623515,W,2,11,0.9,4.714,M,-37.528,M,134.4,0135*67
$PYRTM,2024,122.334022083160,13.443669493310
$GNHDT,291.887,T*26
$PYRTM,2024,122.334027925972,13.443675336111
$GNGGA,080100.00,3329.95175827,N,11932.72736831,W,2,11,0.9,5.088,M,-37.528,M,135.0,0135*62
$PYRTM,2024,122.334027925972,13.443675336111
$GNHDT,292.307,T*26
$PYRTM,2024,122.334033655648,13.443681065787
$GNGGA,080100.50,3329.95214585,N,11932.72845213,W,2,11,0.9,5.648,M,-37.528,M,135.4,0135*69
$PYRTM,2024,122.334033655648,13.443681065787
$GNHDT,292.615,T*20
$PYRTM,2024,122.334039497951,13.443686908090
$GNGGA,080101.00,3329.95254957,N,11932.72956361,W,2,11,0.9,6.197,M,-37.528,M,136.0,0135*6C
$PYRTM,2024,122.334039497951,13.443686908090
$GNHDT,292.874,T*29
$PYRTM,2024,122.334045236042,13.443692646181
$GNGGA,080101.50,3329.95299070,N,11932.73081316,W,2,11,0.9,6.405,M,-37.528,M,136.4,0135*6C
$PYRTM,2024,122.334045236042,13.443692646181
$GNHDT,292.994,T*26
$PYRTM,2024,122.334051074097,13.443698484236
$GNGGA,080102.00,3329.95343861,N,11932.73217447,W,2,11,0.9,6.234,M,-37.528,M,137.0,0135*6B
$PYRTM,2024,122.334051074097,13.443698484236
$GNHDT,292.721,T*26
$PYRTM,2024,122.334056808437,13.443704218576
$GNGGA,080102.50,3329.95386535,N,11932.73355410,W,2,11,0.9,5.844,M,-37.528,M,137.4,0135*64
$PYRTM,2024,122.334056808437,13.443704218576
$GNHDT,292.493,T*2C
$PYRTM,2024,122.334062643449,13.443710053588
$GNGGA,080103.00,3329.95425659,N,11932.73489339,W,2,11,0.9,5.430,M,-37.528,M,138.0,0135*69
$PYRTM,2024,122.334062643449,13.443710053588
$GNHDT,292.349,T*2C
$PYRTM,2024,122.334068379676,13.443715789815
$GNGGA,080103.50,3329.95463486,N,11932.73614642,W,2,11,0.9,5.187,M,-37.528,M,138.4,0135*6C
$PYRTM,2024,122.334068379676,13.443715789815
$GNHDT,292.603,T*27
$PYRTM,2024,122.334074233484,13.443721643623
$GNGGA,080104.00,3329.95502888,N,11932.73729696,W,2,11,0.9,5.193,M,-37.528,M,139.0,0135*6C
$PYRTM,2024,122.334074233484,13.443721643623
$GNHDT,292.781,T*2C
$PYRTM,2024,122.334079952211,13.443727362350
$GNGGA,080104.50,3329.95544538,N,11932.73839963,W,2,11,0.9,5.405,M,-37.528,M,139.4,0135*68
$PYRTM,2024,122.334079952211,13.443727362350
$GNHDT,293.191,T*2A
$PYRTM,2024,122.334085799549,13.443733209676
$GNGGA,080105.00,3329.95588609,N,11932.73949994,W,2,11,0.9,5.684,M,-37.528,M,140.0,0135*62
$PYRTM,2024,122.334085799549,13.443733209676
$GNHDT,293.375,T*22
$PYRTM,2024,122.334091524039,13.443738934178
$GNGGA,080105.50,3329.95635776,N,11932.74069097,W,2,11,0.9,5.809,M,-37.528,M,140.4,0135*62
$PYRTM,2024,122.334091524039,13.443738934178
$GNHDT,293.283,T*2A
$PYRTM,2024,122.334097369954,13.443744780093
$GNGGA,080106.00,3329.95686035,N,11932.74198716,W,2,11,0.9,5.675,M,-37.528,M,141.0,0135*6D
$PYRTM,2024,122.334097369954,13.443744780093
$GNHDT,293.213,T*23
$PYRTM,2024,122.334103100301,13.443750510440
$GNGGA,080106.50,3329.95733351,N,11932.74335749,W,2,11,0.9,5.357,M,-37.528,M,141.4,0135*68
$PYRTM,2024,122.334103100301,13.443750510440
$GNHDT,292.953,T*2D
$PYRTM,2024,122.334108949190,13.443756359329
$GNGGA,080107.00,3329.95776504,N,11932.74474139,W,2,11,0.9,5.021,M,-37.528,M,142.0,0135*6D
$PYRTM,2024,122.334108949190,13.443756359329
$GNHDT,293.174,T*21
$PYRTM,2024,122.334114673542,13.443762083681
$GNGGA,080107.50,3329.95814925,N,11932.74607198,W,2,11,0.9,4.881,M,-37.528,M,142.4,0135*66
$PYRTM,2024,122.334114673542,13.443762083681
$GNHDT,293.137,T*26
$PYRTM,2024,122.334120520729,13.443767930868
$GNGGA,080108.00,3329.95849926,N,11932.74732075,W,2,11,0.9,5.022,M,-37.528,M,143.0,0135*67
$PYRTM,2024,122.334120520729,13.443767930868
$GNHDT,293.156,T*21
$PYRTM,2024,122.334126248600,13.443773658727
$GNGGA,080108.50,3329.95885205,N,11932.74849918,W,2,11,0.9,5.354,M,-37.528,M,143.4,0135*6F
$PYRTM,2024,122.334126248600,13.443773658727
$GNHDT,292.951,T*2F
$PYRTM,2024,122.334132086748,13.443779496887
$GNGGA,080109.00,3329.95924072,N,11932.74966417,W,2,11,0.9,5.741,M,-37.528,M,144.0,0135*6E
$PYRTM,2024,122.334132086748,13.443779496887
$GNHDT,293.166,T*22
$PYRTM,2024,122.334137818634,13.443785228773
$GNGGA,080109.50,3329.95967942,N,11932.75090182,W,2,11,0.9,5.931,M,-37.528,M,144.4,0135*63
$PYRTM,2024,122.334137818634,13.443785228773
$GNHDT,293.225,T*26
$PYRTM,2024,122.334143661539,13.443791071678
$GNGGA,080110.00,3329.96015991,N,11932.75222458,W,2,11,0.9,5.809,M,-37.528,M,145.0,0135*69
$PYRTM,2024,122.334143661539,13.443791071678
$GNHDT,293.235,T*27
$PYRTM,2024,122.334149392870,13.443796803009
$GNGGA,080110.50,3329.96065338,N,11932.75358442,W,2,11,0.9,5.484,M,-37.528,M,145.4,0135*68
$PYRTM,2024,122.334149392870,13.443796803009
$GNHDT,292.729,T*2E
$PYRTM,2024,122.334155240035,13.443802650174
$GNGGA,080111.00,3329.96112312,N,11932.75492234,W,2,11,0.9,5.103,M,-37.528,M,146.0,0135*6E
$PYRTM,2024,122.334155240035,13.443802650174
$GNHDT,292.611,T*24
$PYRTM,2024,122.334160970845,13.443808380984
$GNGGA,080111.50,3329.96155296,N,11932.75621670,W,2,11,0.9,4.844,M,-37.528,M,146.4,0135*64
$PYRTM,2024,122.334160970845,13.443808380984
$GNHDT,292.416,T*21
$PYRTM,2024,122.334166807940,13.443814218079
$GNGGA,080112.00,3329.96194208,N,11932.75748127,W,2,11,0.9,4.774,M,-37.528,M,147.0,0135*6A
$PYRTM,2024,122.334166807940,13.443814218079
$GNHDT,292.558,T*2A
$PYRTM,2024,122.334172541285,13.443819951424
$GNGGA,080112.50,3329.96231198,N,11932.75874742,W,2,11,0.9,4.883,M,-37.528,M,147.4,0135*6F
$PYRTM,2024,122.334172541285,13.443819951424
$GNHDT,292.712,T*26
$PYRTM,2024,122.334178386377,13.443825796516
$GNGGA,080113.00,3329.96269278,N,11932.76000412,W,2,11,0.9,5.126,M,-37.528,M,148.0,0135*69
$PYRTM,2024,122.334178386377,13.443825796516
$GNHDT,292.660,T*22
$PYRTM,2024,122.334184116296,13.443831526447
$GNGGA,080113.50,3329.96309312,N,11932.76119439,W,2,11,0.9,5.473,M,-37.528,M,148.4,0135*67
$PYRTM,2024,122.334184116296,13.443831526447
$GNHDT,292.849,T*27
$PYRTM,2024,122.334189961562,13.443837371701
$GNGGA,080114.00,3329.96350368,N,11932.76230992,W,2,11,0.9,5.946,M,-37.528,M,149.0,0135*6E
$PYRTM,2024,122.334189961562,13.443837371701
$GNHDT,292.913,T*29
$PYRTM,2024,122.334195694537,13.443843104676
$GNGGA,080114.50,3329.96392431,N,11932.76340365,W,2,11,0.9,6.401,M,-37.528,M,149.4,0135*63
$PYRTM,2024,122.334195694537,13.443843104676
$GNHDT,293.082,T*29
$PYRTM,2024,122.334201532593,13.443848942731
$GNGGA,080115.00,3329.96437297,N,11932.76457925,W,2,11,0.9,6.572,M,-37.528,M,150.0,0135*63
$PYRTM,2024,122.334201532593,13.443848942731
$GNHDT,293.067,T*22
$PYRTM,2024,122.334207269062,13.443854679201
$GNGGA,080115.50,3329.96485556,N,11932.76586798,W,2,11,0.9,6.281,M,-37.528,M,150.4,0135*6F
$PYRTM,2024,122.334207269062,13.443854679201
$GNHDT,292.884,T*26
$PYRTM,2024,122.334213111100,13.443860521238
$GNGGA,080116.00,3329.96532890,N,11932.76722448,W,2,11,0.9,5.680,M,-37.528,M,151.0,0135*62
$PYRTM,2024,122.334213111100,13.443860521238
$GNHDT,292.661,T*23
$PYRTM,2024,122.334218841308,13.443866251447
$GNGGA,080116.50,3329.96575253,N,11932.76860607,W,2,11,0.9,4.978,M,-37.528,M,151.4,0135*6C
$PYRTM,2024,122.334218841308,13.443866251447
$GNHDT,292.502,T*25
$PYRTM,2024,122.334224682025,13.443872092176
$GNGGA,080117.00,3329.96613094,N,11932.76998443,W,2,11,0.9,4.375,M,-37.528,M,152.0,0135*66
$PYRTM,2024,122.334224682025,13.443872092176
$GNHDT,292.204,T*24
$PYRTM,2024,122.334230417350,13.443877827488
$GNGGA,080117.50,3329.96648744,N,11932.77129992,W,2,11,0.9,4.131,M,-37.528,M,152.4,0135*63
$PYRTM,2024,122.334230417350,13.443877827488
$GNHDT,292.024,T*24
$PYRTM,2024,122.334236259132,13.443883669282
$GNGGA,080118.00,3329.96684650,N,11932.77250161,W,2,11,0.9,4.357,M,-37.528,M,153.0,0135*63
$PYRTM,2024,122.334236259132,13.443883669282
$GNHDT,291.810,T*28
$PYRTM,2024,122.334241990671,13.443889400810
$GNGGA,080118.50,3329.96723938,N,11932.77361595,W,2,11,0.9,4.952,M,-37.528,M,153.4,0135*6C
$PYRTM,2024,122.334241990671,13.443889400810
$GNHDT,292.192,T*28
$PYRTM,2024,122.334247828229,13.443895238380
$GNGGA,080119.00,3329.96766662,N,11932.77471069,W,2,11,0.9,5.704,M,-37.528,M,154.0,0135*66
$PYRTM,2024,122.334247828229,13.443895238380
$GNHDT,291.936,T*2D
$PYRTM,2024,122.334253564039,13.443900974178
$GNGGA,080119.50,3329.96813018,N,11932.77583217,W,2,11,0.9,6.371,M,-37.528,M,154.4,0135*63
$PYRTM,2024,122.334253564039,13.443900974178
$GNHDT,292.200,T*20
$PYRTM,2024,122.334259408727,13.443906818877
$GNGGA,080120.00,3329.96860799,N,11932.77705339,W,2,11,0.9,6.738,M,-37.528,M,155.0,0135*6B
$PYRTM,2024,122.334259408727,13.443906818877
$GNHDT,292.110,T*22
$PYRTM,2024,122.334265139502,13.443912549641
$GNGGA,080120.50,3329.96906427,N,11932.77837873,W,2,11,0.9,6.653,M,-37.528,M,155.4,0135*6A
$PYRTM,2024,122.334265139502,13.443912549641
$GNHDT,292.279,T*2E
$PYRTM,2024,122.334270980671,13.443918390822
$GNGGA,080121.00,3329.96947676,N,11932.77974327,W,2,11,0.9,6.250,M,-37.528,M,156.0,0135*61
$PYRTM,2024,122.334270980671,13.443918390822
$GNHDT,292.689,T*25
$PYRTM,2024,122.334276710903,13.443924121042
$GNGGA,080121.50,3329.96985496,N,11932.78107229,W,2,11,0.9,5.700,M,-37.528,M,156.4,0135*6D
$PYRTM,2024,122.334276710903,13.443924121042
$GNHDT,292.203,T*23
$PYRTM,2024,122.334282554317,13.443929964456
$GNGGA,080122.00,3329.97020455,N,11932.78233226,W,2,11,0.9,5.205,M,-37.528,M,157.0,0135*6D
$PYRTM,2024,122.334282554317,13.443929964456
$GNHDT,292.644,T*24
$PYRTM,2024,122.334288289734,13.443935699873
$GNGGA,080122.50,3329.97054767,N,11932.78353509,W,2,11,0.9,4.880,M,-37.528,M,157.4,0135*66
$PYRTM,2024,122.334288289734,13.443935699873
$GNHDT,292.846,T*28
$PYRTM,2024,122.334294127269,13.443941537407
$GNGGA,080123.00,3329.97091948,N,11932.78471508,W,2,11,0.9,4.765,M,-37.528,M,158.0,0135*61
$PYRTM,2024,122.334294127269,13.443941537407
$GNHDT,292.907,T*2C
$PYRTM,2024,122.334299864838,13.443947274977
$GNGGA,080123.50,3329.97134151,N,11932.78591317,W,2,11,0.9,4.734,M,-37.527,M,158.4,0135*62
$PYRTM,2024,122.334299864838,13.443947274977
$GNHDT,292.740,T*21
$PYRTM,2024,122.334305704954,13.443953115093
$GNGGA,080124.00,3329.97179160,N,11932.78715262,W,2,11,0.9,4.784,M,-37.527,M,159.0,0135*68
$PYRTM,2024,122.334305704954,13.443953115093
$GNHDT,292.554,T*26
$PYRTM,2024,122.334311436713,13.443958846852
$GNGGA,080124.50,3329.97222640,N,11932.78842697,W,2,11,0.9,4.881,M,-37.527,M,159.4,0135*68
$PYRTM,2024,122.334311436713,13.443958846852
$GNHDT,292.390,T*28
$PYRTM,2024,122.334317274132,13.443964684271
$GNGGA,080125.00,3329.97263985,N,11932.78973587,W,2,11,0.9,5.024,M,-37.527,M,160.0,0135*66
$PYRTM,2024,122.334317274132,13.443964684271
$GNHDT,292.221,T*23
$PYRTM,2024,122.334323005683,13.443970415822
$GNGGA,080125.50,3329.97307340,N,11932.79104307,W,2,11,0.9,5.188,M,-37.527,M,160.4,0135*67
$PYRTM,2024,122.334323005683,13.443970415822
$GNHDT,292.495,T*2A
$PYRTM,2024,122.334328850139,13.443976260278
$GNGGA,080126.00,3329.97351618,N,11932.79232525,W,2,11,0.9,5.392,M,-37.527,M,161.0,0135*66
$PYRTM,2024,122.334328850139,13.443976260278
$GNHDT,292.700,T*25
$PYRTM,2024,122.334334585093,13.443981995231
$GNGGA,080126.50,3329.97395062,N,11932.79356481,W,2,11,0.9,5.639,M,-37.527,M,161.4,0135*6C
$PYRTM,2024,122.334334585093,13.443981995231
$GNHDT,292.849,T*27
$PYRTM,2024,122.334340423796,13.443987833935
$GNGGA,080127.00,3329.97437649,N,11932.79475734,W,2,11,0.9,5.925,M,-37.527,M,162.0,0135*66
$PYRTM,2024,122.334340423796,13.443987833935
$GNHDT,293.018,T*2A
$PYRTM,2024,122.334346156111,13.443993566250
$GNGGA,080127.50,3329.97479380,N,11932.79593006,W,2,11,0.9,6.156,M,-37.527,M,162.4,0135*6D
$PYRTM,2024,122.334346156111,13.443993566250
$GNHDT,292.899,T*2A
$PYRTM,2024,122.334351997465,13.443999407604
$GNGGA,080128.00,3329.97519530,N,11932.79713346,W,2,11,0.9,6.220,M,-37.527,M,163.0,0135*67
$PYRTM,2024,122.334351997465,13.443999407604
$GNHDT,292.808,T*22
$PYRTM,2024,122.334357728368,13.444005138519
$GNGGA,080128.50,3329.97560142,N,11932.79840767,W,2,11,0.9,6.015,M,-37.527,M,163.4,0135*63
$PYRTM,2024,122.334357728368,13.444005138519
$GNHDT,292.703,T*26
$PYRTM,2024,122.334363577882,13.444010988032
$GNGGA,080129.00,3329.97600224,N,11932.79975855,W,2,11,0.9,5.526,M,-37.527,M,164.0,0135*6D
$PYRTM,2024,122.334363577882,13.444010988032
$GNHDT,292.464,T*24
$PYRTM,2024,122.334369306470,13.444016716609
$GNGGA,080129.50,3329.97638976,N,11932.80115908,W,2,11,0.9,4.974,M,-37.527,M,164.4,0135*60
$PYRTM,2024,122.334369306470,13.444016716609
$GNHDT,292.455,T*26
$PYRTM,2024,122.334375149699,13.444022559838
$GNGGA,080130.00,3329.97676492,N,11932.80251299,W,2,11,0.9,4.551,M,-37.527,M,165.0,0135*6E
$PYRTM,2024,122.334375149699,13.444022559838
$GNHDT,292.486,T*28
$PYRTM,2024,122.334380873553,13.444028283692
$GNGGA,080130.50,3329.97714315,N,11932.80372887,W,2,11,0.9,4.511,M,-37.527,M,165.4,0135*63
$PYRTM,2024,122.334380873553,13.444028283692
$GNHDT,292.149,T*2E
$PYRTM,2024,122.334386722558,13.444034132697
$GNGGA,080131.00,3329.97754773,N,11932.80481618,W,2,11,0.9,4.908,M,-37.527,M,166.0,0135*67
$PYRTM,2024,122.334386722558,13.444034132697
$GNHDT,292.293,T*2A
$PYRTM,2024,122.334392450660,13.444039860799
$GNGGA,080131.50,3329.97797625,N,11932.80587203,W,2,11,0.9,5.516,M,-37.527,M,166.4,0135*60
$PYRTM,2024,122.334392450660,13.444039860799
$GNHDT,292.461,T*21
$PYRTM,2024,122.334398296354,13.444045706493
$GNGGA,080132.00,3329.97843315,N,11932.80697815,W,2,11,0.9,6.086,M,-37.527,M,167.0,0135*63
$PYRTM,2024,122.334398296354,13.444045706493
$GNHDT,292.592,T*2C
$PYRTM,2024,122.334404028623,13.444051438762
$GNGGA,080132.50,3329.97893773,N,11932.80818619,W,2,11,0.9,6.371,M,-37.527,M,167.4,0135*6B
$PYRTM,2024,122.334404028623,13.444051438762
$GNHDT,292.882,T*20
$PYRTM,2024,122.334409868611,13.444057278750
$GNGGA,080133.00,3329.97943358,N,11932.80947521,W,2,11,0.9,6.309,M,-37.527,M,168.0,0135*69
$PYRTM,2024,122.334409868611,13.444057278750
$GNHDT,292.681,T*2D
$PYRTM,2024,122.334415599641,13.444063009780
$GNGGA,080133.50,3329.97989788,N,11932.81081352,W,2,11,0.9,5.988,M,-37.527,M,168.4,0135*67
$PYRTM,2024,122.334415599641,13.444063009780
$GNHDT,292.710,T*24
$PYRTM,2024,122.334421450162,13.444068860301
$GNGGA,080134.00,3329.98029059,N,11932.81217274,W,2,11,0.9,5.458,M,-37.527,M,169.0,0135*6F
$PYRTM,2024,122.334421450162,13.444068860301
$GNHDT,292.454,T*27
$PYRTM,2024,122.334427170278,13.444074580417
$GNGGA,080134.50,3329.98061658,N,11932.81354087,W,2,11,0.9,4.937,M,-37.527,M,169.4,0135*68
$PYRTM,2024,122.334427170278,13.444074580417
$GNHDT,292.574,T*24
$PYRTM,2024,122.334433014826,13.444080424965
$GNGGA,080135.00,3329.98089983,N,11932.81491053,W,2,11,0.9,4.540,M,-37.527,M,170.0,0135*64
$PYRTM,2024,122.334433014826,13.444080424965
$GNHDT,292.102,T*21
$PYRTM,2024,122.334438749861,13.444086160000
$GNGGA,080135.50,3329.98121496,N,11932.81623227,W,2,11,0.9,4.443,M,-37.527,M,170.4,0135*67
$PYRTM,2024,122.334438749861,13.444086160000
$GNHDT,292.181,T*2A
$PYRTM,2024,122.334444590417,13.444092000556
$GNGGA,080136.00,3329.98159723,N,11932.81745869,W,2,11,0.9,4.667,M,-37.527,M,171.0,0135*63
$PYRTM,2024,122.334444590417,13.444092000556
$GNHDT,292.174,T*20
$PYRTM,2024,122.334450322465,13.444097732604
$GNGGA,080136.50,3329.98205252,N,11932.81859034,W,2,11,0.9,5.109,M,-37.527,M,171.4,0135*67
$PYRTM,2024,122.334450322465,13.444097732604
$GNHDT,292.169,T*2C
$PYRTM,2024,122.334456165405,13.444103575544
$GNGGA,080137.00,3329.98258113,N,11932.81965957,W,2,11,0.9,5.700,M,-37.527,M,172.0,0135*67
$PYRTM,2024,122.334456165405,13.444103575544
$GNHDT,292.027,T*27
$PYRTM,2024,122.334461902477,13.444109312616
$GNGGA,080137.50,3329.98314036,N,11932.82073764,W,2,11,0.9,6.249,M,-37.527,M,172.4,0135*61
$PYRTM,2024,122.334461902477,13.444109312616
$GNHDT,292.358,T*2C
$PYRTM,2024,122.334467737315,13.444115147454
$GNGGA,080138.00,3329.98370163,N,11932.82190244,W,2,11,0.9,6.571,M,-37.527,M,173.0,0135*6A
$PYRTM,2024,122.334467737315,13.444115147454
$GNHDT,292.225,T*27
$PYRTM,2024,122.334473473137,13.444120883275
$GNGGA,080138.50,3329.98419572,N,11932.82317626,W,2,11,0.9,6.577,M,-37.527,M,173.4,0135*6C
$PYRTM,2024,122.334473473137,13.444120883275
$GNHDT,292.061,T*25
$PYRTM,2024,122.334479319410,13.444126729549
$GNGGA,080139.00,3329.98459600,N,11932.82450596,W,2,11,0.9,6.341,M,-37.527,M,174.0,0135*66
$PYRTM,2024,122.334479319410,13.444126729549
$GNHDT,292.128,T*29
$PYRTM,2024,122.334485039051,13.444132449190
$GNGGA,080139.50,3329.98487266,N,11932.82584860,W,2,11,0.9,5.983,M,-37.527,M,174.4,0135*6B
$PYRTM,2024,122.334485039051,13.444132449190
$GNHDT,292.130,T*20
$PYRTM,2024,122.334490889294,13.444138299433
$GNGGA,080140.00,3329.98510240,N,11932.82718573,W,2,11,0.9,5.616,M,-37.527,M,175.0,0135*65
$PYRTM,2024,122.334490889294,13.444138299433
$GNHDT,292.219,T*28
$PYRTM,2024,122.334496613125,13.444144023264
$GNGGA,080140.50,3329.98535656,N,11932.82848431,W,2,11,0.9,5.324,M,-37.527,M,175.4,0135*69
$PYRTM,2024,122.334496613125,13.444144023264
$GNHDT,292.157,T*21
$PYRTM,2024,122.334502461447,13.444149871586
$GNGGA,080141.00,3329.98568362,N,11932.82971835,W,2,11,0.9,5.171,M,-37.527,M,176.0,0135*61
$PYRTM,2024,122.334502461447,13.444149871586
$GNHDT,291.995,T*24
$PYRTM,2024,122.334508196921,13.444155607060
$GNGGA,080141.50,3329.98609661,N,11932.83089313,W,2,11,0.9,5.170,M,-37.527,M,176.4,0135*63
$PYRTM,2024,122.334508196921,13.444155607060
$GNHDT,291.718,T*2F
$PYRTM,2024,122.334514039780,13.444161449919
$GNGGA,080142.00,3329.98660282,N,11932.83203242,W,2,11,0.9,5.268,M,-37.527,M,177.0,0135*69
$PYRTM,2024,122.334514039780,13.444161449919
$GNHDT,291.666,T*27
$PYRTM,2024,122.334519766748,13.444167176887
$GNGGA,080142.50,3329.98714596,N,11932.83320685,W,2,11,0.9,5.331,M,-37.527,M,177.4,0135*6A
$PYRTM,2024,122.334519766748,13.444167176887
$GNHDT,291.717,T*20
$PYRTM,2024,122.334525614062,13.444173024201
$GNGGA,080143.00,3329.98768624,N,11932.83443489,W,2,11,0.9,5.299,M,-37.527,M,178.0,0135*6B
$PYRTM,2024,122.334525614062,13.444173024201
$GNHDT,291.695,T*2B
$PYRTM,2024,122.334531338113,13.444178748252
$GNGGA,080143.50,3329.98818884,N,11932.83572668,W,2,11,0.9,5.259,M,-37.527,M,178.4,0135*64
$PYRTM,2024,122.334531338113,13.444178748252
$GNHDT,291.602,T*25
$PYRTM,2024,122.334537187002,13.444184597141
$GNGGA,080144.00,3329.98861734,N,11932.83707945,W,2,11,0.9,5.223,M,-37.527,M,179.0,0135*64
$PYRTM,2024,122.334537187002,13.444184597141
$GNHDT,291.512,T*27
$PYRTM,2024,122.334542915567,13.444190325718
$GNGGA,080144.50,3329.98896374,N,11932.83848177,W,2,11,0.9,5.219,M,-37.527,M,179.4,0135*69
$PYRTM,2024,122.334542915567,13.444190325718
$GNHDT,291.369,T*2D
$PYRTM,2024,122.334548761759,13.444196171898
$GNGGA,080145.00,3329.98924816,N,11932.83990291,W,2,11,0.9,5.238,M,-37.527,M,180.0,0135*64
$PYRTM,2024,122.334548761759,13.444196171898
$GNHDT,291.721,T*25
$PYRTM,2024,122.334554484063,13.444201894201
$GNGGA,080145.50,3329.98953795,N,11932.84128161,W,2,11,0.9,5.357,M,-37.527,M,180.4,0135*69
$PYRTM,2024,122.334554484063,13.444201894201
$GNHDT,291.660,T*21
$PYRTM,2024,122.334560334873,13.444207745012
$GNGGA,080146.00,3329.98986177,N,11932.84259393,W,2,11,0.9,5.587,M,-37.527,M,181.0,0135*69
$PYRTM,2024,122.334560334873,13.444207745012
$GNHDT,291.552,T*23
$PYRTM,2024,122.334566059942,13.444213470081
$GNGGA,080146.50,3329.99024712,N,11932.84382654,W,2,12,0.9,5.894,M,-37.527,M,181.4,0135*68
$PYRTM,2024,122.334566059942,13.444213470081
$GNHDT,291.419,T*2D
$PYRTM,2024,122.334571904803,13.444219314942
$GNGGA,080147.00,3329.99067013,N,11932.84500411,W,2,12,0.8,6.232,M,-37.527,M,182.0,0135*61
$PYRTM,2024,122.334571904803,13.444219314942
$GNHDT,291.467,T*24
$PYRTM,2024,122.334577640660,13.444225050799
$GNGGA,080147.50,3329.99111008,N,11932.84612778,W,2,12,0.8,6.571,M,-37.527,M,182.4,0135*66
$PYRTM,2024,122.334577640660,13.444225050799
$GNHDT,291.151,T*24
$PYRTM,2024,122.334583481181,13.444230891319
$GNGGA,080148.00,3329.99154783,N,11932.84725226,W,2,12,0.8,6.798,M,-37.527,M,183.0,0135*62
$PYRTM,2024,122.334583481181,13.444230891319
$GNHDT,291.199,T*20
$PYRTM,2024,122.334589207037,13.444236617176
$GNGGA,080148.50,3329.99199675,N,11932.84843668,W,2,12,0.8,6.793,M,-37.527,M,183.4,0135*60
$PYRTM,2024,122.334589207037,13.444236617176
$GNHDT,291.567,T*25
$PYRTM,2024,122.334595056204,13.444242466343
$GNGGA,080149.00,3329.99241748,N,11932.84971785,W,2,12,0.8,6.474,M,-37.527,M,184.0,0135*66
$PYRTM,2024,122.334595056204,13.444242466343
$GNHDT,291.941,T*2D
$PYRTM,2024,122.334600786516,13.444248196655
$GNGGA,080149.50,3329.99281434,N,11932.85107615,W,2,12,0.8,5.899,M,-37.527,M,184.4,0135*6F
$PYRTM,2024,122.334600786516,13.444248196655
$GNHDT,291.799,T*26
$PYRTM,2024,122.334606632211,13.444254042361
$GNGGA,080150.00,3329.99317576,N,11932.85245549,W,2,12,0.8,5.189,M,-37.527,M,185.0,0135*69
$PYRTM,2024,122.334606632211,13.444254042361
$GNHDT,291.694,T*2A
$PYRTM,2024,122.334612360370,13.444259770509
$GNGGA,080150.50,3329.99352361,N,11932.85382288,W,2,12,0.8,4.592,M,-37.527,M,185.4,0135*66
$PYRTM,2024,122.334612360370,13.444259770509
$GNHDT,292.110,T*22
$PYRTM,2024,122.334618200995,13.444265611134
$GNGGA,080151.00,3329.99384750,N,11932.85512587,W,2,12,0.8,4.292,M,-37.527,M,186.0,0135*68
$PYRTM,2024,122.334618200995,13.444265611134
$GNHDT,292.203,T*23
$PYRTM,2024,122.334623930602,13.444271340741
$GNGGA,080151.50,3329.99417612,N,11932.85634764,W,2,12,0.8,4.394,M,-37.527,M,186.4,0135*6C
$PYRTM,2024,122.334623930602,13.444271340741
$GNHDT,292.122,T*23
$PYRTM,2024,122.334629780845,13.444277190995
$GNGGA,080152.00,3329.99454309,N,11932.85751806,W,2,12,0.8,4.751,M,-37.527,M,187.0,0135*63
$PYRTM,2024,122.334629780845,13.444277190995
$GNHDT,292.212,T*23
$PYRTM,2024,122.334635510775,13.444282920914
$GNGGA,080152.50,3329.99497387,N,11932.85869346,W,2,12,0.8,5.181,M,-37.527,M,187.4,0135*6A
$PYRTM,2024,122.334635510775,13.444282920914
$GNHDT,292.630,T*27
$PYRTM,2024,122.334641351296,13.444288761435
$GNGGA,080153.00,3329.99546547,N,11932.85995393,W,2,12,0.8,5.453,M,-37.527,M,188.0,0135*62
$PYRTM,2024,122.334641351296,13.444288761435
$GNHDT,292.614,T*21
$PYRTM,2024,122.334647083021,13.444294493160
$GNGGA,080153.50,3329.99596890,N,11932.86129837,W,2,12,0.8,5.507,M,-37.527,M,188.4,0135*60
$PYRTM,2024,122.334647083021,13.444294493160
$GNHDT,292.392,T*2A
$PYRTM,2024,122.334652927118,13.444300337257
$GNGGA,080154.00,3329.99645374,N,11932.86267739,W,2,12,0.8,5.383,M,-37.527,M,189.0,0135*69
$PYRTM,2024,122.334652927118,13.444300337257
$GNHDT,292.341,T*24
$PYRTM,2024,122.334658652627,13.444306062766
$GNGGA,080154.50,3329.99689832,N,11932.86404469,W,2,12,0.8,5.232,M,-37.527,M,189.4,0135*6F
$PYRTM,2024,122.334658652627,13.444306062766
$GNHDT,292.611,T*24
$PYRTM,2024,122.334664496528,13.444311906667
$GNGGA,080155.00,3329.99727706,N,11932.86532837,W,2,12,0.8,5.188,M,-37.527,M,190.0,0135*6B
$PYRTM,2024,122.334664496528,13.444311906667
$GNHDT,292.869,T*25
$PYRTM,2024,122.334670226389,13.444317636528
$GNGGA,080155.50,3329.99760083,N,11932.86654320,W,2,12,0.8,5.344,M,-37.527,M,190.4,0135*6F
$PYRTM,2024,122.334670226389,13.444317636528
$GNHDT,292.811,T*2A
$PYRTM,2024,122.334676076458,13.444323486597
$GNGGA,080156.00,3329.99790383,N,11932.86772953,W,2,12,0.8,5.614,M,-37.527,M,191.0,0135*6B
$PYRTM,2024,122.334676076458,13.444323486597
$GNHDT,292.619,T*2C
$PYRTM,2024,122.334681804062,13.444329214201
$GNGGA,080156.50,3329.99822858,N,11932.86895338,W,2,12,0.8,5.831,M,-37.527,M,191.4,0135*69
$PYRTM,2024,122.334681804062,13.444329214201
$GNHDT,292.416,T*21
$PYRTM,2024,122.334687645521,13.444335055671
$GNGGA,080157.00,3329.99859422,N,11932.87022525,W,2,12,0.8,5.846,M,-37.527,M,192.0,0135*68
$PYRTM,2024,122.334687645521,13.444335055671
$GNHDT,292.251,T*24
$PYRTM,2024,122.334693376991,13.444340787130
$GNGGA,080157.50,3329.99900210,N,11932.87150822,W,2,12,0.8,5.738,M,-37.527,M,192.4,0135*6B
$PYRTM,2024,122.334693376991,13.444340787130
$GNHDT,292.196,T*2C
$PYRTM,2024,122.334699215961,13.444346626100
$GNGGA,080158.00,3329.99942961,N,11932.87276395,W,2,12,0.8,5.549,M,-37.527,M,193.0,0135*6B
$PYRTM,2024,122.334699215961,13.444346626100
$GNHDT,292.214,T*25
$PYRTM,2024,122.334704952986,13.444352363125
$GNGGA,080158.50,3329.99987003,N,11932.87398383,W,2,12,0.8,5.394,M,-37.527,M,193.4,0135*6E
$PYRTM,2024,122.334704952986,13.444352363125
$GNHDT,292.503,T*24
$PYRTM,2024,122.334710792164,13.444358202303
$GNGGA,080159.00,3330.00030144,N,11932.87518643,W,2,12,0.8,5.334,M,-37.527,M,194.0,0135*6B
$PYRTM,2024,122.334710792164,13.444358202303
$GNHDT,292.579,T*29
$PYRTM,2024,122.334716525822,13.444363935961
$GNGGA,080159.50,3330.00071550,N,11932.87638221,W,2,12,0.8,5.376,M,-37.527,M,194.4,0135*69
$PYRTM,2024,122.334716525822,13.444363935961
$GNHDT,292.297,T*2E
$PYRTM,2024,122.334722377836,13.444369787975
$GNGGA,080200.00,3330.00112763,N,11932.87759531,W,2,12,0.8,5.490,M,-37.527,M,195.0,0135*6F
$PYRTM,2024,122.334722377836,13.444369787975
$GNHDT,292.239,T*2A
$PYRTM,2024,122.334728099028,13.444375509178
$GNGGA,080200.50,3330.00153017,N,11932.87886334,W,2,12,0.8,5.533,M,-37.527,M,195.4,0135*69
$PYRTM,2024,122.334728099028,13.444375509178
$GNHDT,292.507,T*20
$PYRTM,2024,122.334733939641,13.444381349780
$GNGGA,080201.00,3330.00195444,N,11932.88023120,W,2,12,0.8,5.363,M,-37.527,M,196.0,0135*6E
$PYRTM,2024,122.334733939641,13.444381349780
$GNHDT,292.496,T*29
$PYRTM,2024,122.334739674132,13.444387084282
$GNGGA,080201.50,3330.00240792,N,11932.88163865,W,2,12,0.8,5.048,M,-37.527,M,196.4,0135*6B
$PYRTM,2024,122.334739674132,13.444387084282
$GNHDT,292.572,T*22
$PYRTM,2024,122.334745524444,13.444392934595
$GNGGA,080202.00,3330.00285270,N,11932.88303193,W,2,12,0.8,4.743,M,-37.527,M,197.0,0135*61
$PYRTM,2024,122.334745524444,13.444392934595
$GNHDT,292.500,T*27
$PYRTM,2024,122.334751251366,13.444398661505
$GNGGA,080202.50,3330.00328604,N,11932.88435481,W,2,12,0.8,4.643,M,-37.527,M,197.4,0135*64
$PYRTM,2024,122.334751251366,13.444398661505
$GNHDT,292.174,T*20
$PYRTM,2024,122.334757097234,13.444404507373
$GNGGA,080203.00,3330.00370204,N,11932.88559013,W,2,12,0.8,4.840,M,-37.527,M,198.0,0135*6B
$PYRTM,2024,122.334757097234,13.444404507373
$GNHDT,292.157,T*21
$PYRTM,2024,122.334762819745,13.444410229884
$GNGGA,080203.50,3330.00409769,N,11932.88674734,W,2,12,0.8,5.281,M,-37.527,M,198.4,0135*65
$PYRTM,2024,122.334762819745,13.444410229884
$GNHDT,292.580,T*2F
$PYRTM,2024,122.334768667269,13.444416077407
$GNGGA,080204.00,3330.00449826,N,11932.88785980,W,2,12,0.8,5.865,M,-37.527,M,199.0,0135*6C
$PYRTM,2024,122.334768667269,13.444416077407
$GNHDT,292.587,T*28
$PYRTM,2024,122.334774400382,13.444421810521
$GNGGA,080204.50,3330.00491216,N,11932.88902977,W,2,12,0.8,6.291,M,-37.527,M,199.4,0135*6A
$PYRTM,2024,122.334774400382,13.444421810521
$GNHDT,292.491,T*2E
$PYRTM,2024,122.334780241528,13.444427651667
$GNGGA,080205.00,3330.00536622,N,11932.89033625,W,2,12,0.8,6.307,M,-37.527,M,200.0,0135*6A
$PYRTM,2024,122.334780241528,13.444427651667
$GNHDT,292.510,T*26
$PYRTM,2024,122.334785974028,13.444433384167
$GNGGA,080205.50,3330.00584578,N,11932.89178235,W,2,12,0.8,5.714,M,-37.527,M,200.4,0135*60
$PYRTM,2024,122.334785974028,13.444433384167
$GNHDT,292.636,T*21
$PYRTM,2024,122.334791824884,13.444439235023
$GNGGA,080206.00,3330.00630527,N,11932.89325629,W,2,12,0.8,4.806,M,-37.527,M,201.0,0135*6B
$PYRTM,2024,122.334791824884,13.444439235023
$GNHDT,292.272,T*25
$PYRTM,2024,122.334797546539,13.444444956678
$GNGGA,080206.50,3330.00670458,N,11932.89464167,W,2,12,0.8,4.124,M,-37.527,M,201.4,0135*61
$PYRTM,2024,122.334797546539,13.444444956678
$GNHDT,292.308,T*29
$PYRTM,2024,122.334803391470,13.444450801609
$GNGGA,080207.00,3330.00702657,N,11932.89583907,W,2,12,0.8,4.041,M,-37.527,M,202.0,0135*6F
$PYRTM,2024,122.334803391470,13.444450801609
$GNHDT,292.398,T*20
$PYRTM,2024,122.334809125949,13.444456536088
$GNGGA,080207.50,3330.00729612,N,11932.89685222,W,2,12,0.8,4.596,M,-37.527,M,202.4,0135*60
$PYRTM,2024,122.334809125949,13.444456536088
$GNHDT,292.249,T*2D
$PYRTM,2024,122.334814978194,13.444462388333
$GNGGA,080208.00,3330.00755520,N,11932.89775636,W,2,12,0.8,5.587,M,-37.527,M,203.0,0135*68
$PYRTM,2024,122.334814978194,13.444462388333
$GNHDT,292.084,T*2E
$PYRTM,2024,122.334820686933,13.444468097072
$GNGGA,080208.50,3330.00787149,N,11932.89869756,W,2,12,0.8,6.566,M,-37.527,M,203.4,0135*64
$PYRTM,2024,122.334820686933,13.444468097072
$GNHDT,292.354,T*20
$PYRTM,2024,122.334826537164,13.444473947303
$GNGGA,080209.00,3330.00826706,N,11932.89980200,W,2,12,0.8,7.118,M,-37.527,M,204.0,0135*66
$PYRTM,2024,122.334826537164,13.444473947303
$GNHDT,292.559,T*2B
$PYRTM,2024,122.334832262037,13.444479672176
$GNGGA,080209.50,3330.00873507,N,11932.90107923,W,2,12,0.8,6.967,M,-37.527,M,204.4,0135*60
$PYRTM,2024,122.334832262037,13.444479672176
$GNHDT,292.501,T*26
$PYRTM,2024,122.334838113322,13.444485523461
$GNGGA,080210.00,3330.00918861,N,11932.90239913,W,2,12,0.8,6.323,M,-37.527,M,205.0,0135*6E
$PYRTM,2024,122.334838113322,13.444485523461
$GNHDT,292.477,T*26
$PYRTM,2024,122.334843848785,13.444491258924
$GNGGA,080210.50,3330.00957130,N,11932.90364935,W,2,12,0.8,5.517,M,-37.527,M,205.4,0135*66
$PYRTM,2024,122.334843848785,13.444491258924
$GNHDT,292.544,T*27
$PYRTM,2024,122.334849684016,13.444497094155
$GNGGA,080211.00,3330.00990108,N,11932.90482023,W,2,12,0.8,4.842,M,-37.527,M,206.0,0135*68
$PYRTM,2024,122.334849684016,13.444497094155
$GNHDT,292.481,T*2F
$PYRTM,2024,122.334855415926,13.444502826065
$GNGGA,080211.50,3330.01020463,N,11932.90593339,W,2,12,0.8,4.492,M,-37.527,M,206.4,0135*6A
$PYRTM,2024,122.334855415926,13.444502826065
$GNHDT,292.381,T*28
$PYRTM,2024,122.334861257975,13.444508668113
$GNGGA,080212.00,3330.01051032,N,11932.90703503,W,2,12,0.8,4.466,M,-37.527,M,207.0,0135*60
$PYRTM,2024,122.334861257975,13.444508668113
$GNHDT,292.458,T*2B
$PYRTM,2024,122.334866987269,13.444514397407
$GNGGA,080212.50,3330.01084547,N,11932.90817536,W,2,12,0.8,4.591,M,-37.527,M,207.4,0135*6B
$PYRTM,2024,122.334866987269,13.444514397407
$GNHDT,292.423,T*27
$PYRTM,2024,122.334872830579,13.444520240729
$GNGGA,080213.00,3330.01122884,N,11932.90937672,W,2,12,0.8,4.731,M,-37.527,M,208.0,0135*63
$PYRTM,2024,122.334872830579,13.444520240729
$GNHDT,292.328,T*2B
$PYRTM,2024,122.334878561898,13.444525972049
$GNGGA,080213.50,3330.01165539,N,11932.91064424,W,2,12,0.8,4.803,M,-37.527,M,208.4,0135*6B
$PYRTM,2024,122.334878561898,13.444525972049
$GNHDT,292.161,T*24
$PYRTM,2024,122.334884406065,13.444531816204
$GNGGA,080214.00,3330.01211673,N,11932.91194617,W,2,12,0.8,4.791,M,-37.527,M,209.0,0135*69
$PYRTM,2024,122.334884406065,13.444531816204
$GNHDT,291.936,T*2D
$PYRTM,2024,122.334890138125,13.444537548264
$GNGGA,080214.50,3330.01256406,N,11932.91324313,W,2,12,0.8,4.779,M,-37.527,M,209.4,0135*65
$PYRTM,2024,122.334890138125,13.444537548264
$GNHDT,291.838,T*22
$PYRTM,2024,122.334895981725,13.444543391863
$GNGGA,080215.00,3330.01297746,N,11932.91450939,W,2,12,0.8,4.890,M,-37.527,M,210.0,0135*69
$PYRTM,2024,122.334895981725,13.444543391863
$GNHDT,291.746,T*24
$PYRTM,2024,122.334901712789,13.444549122928
$GNGGA,080215.50,3330.01335345,N,11932.91575028,W,2,12,0.8,5.166,M,-37.527,M,210.4,0135*68
$PYRTM,2024,122.334901712789,13.444549122928
$GNHDT,291.470,T*22
$PYRTM,2024,122.334907555255,13.444554965394
$GNGGA,080216.00,3330.01369711,N,11932.91697148,W,2,12,0.8,5.544,M,-37.527,M,211.0,0135*6B
$PYRTM,2024,122.334907555255,13.444554965394
$GNHDT,291.438,T*2E
$PYRTM,2024,122.334913287419,13.444560697569
$GNGGA,080216.50,3330.01403057,N,11932.91817018,W,2,12,0.8,5.953,M,-37.527,M,211.4,0135*6C
$PYRTM,2024,122.334913287419,13.444560697569
$GNHDT,291.357,T*20
$PYRTM,2024,122.334919127558,13.444566537697
$GNGGA,080217.00,3330.01436751,N,11932.91933209,W,2,12,0.8,6.306,M,-37.527,M,212.0,0135*64
$PYRTM,2024,122.334919127558,13.444566537697
$GNHDT,291.394,T*2F
$PYRTM,2024,122.334924864410,13.444572274549
$GNGGA,080217.50,3330.01473150,N,11932.92045118,W,2,12,0.8,6.534,M,-37.527,M,212.4,0135*6C
$PYRTM,2024,122.334924864410,13.444572274549
$GNHDT,291.474,T*26
$PYRTM,2024,122.334930701424,13.444578111563
$GNGGA,080218.00,3330.01513910,N,11932.92154846,W,2,12,0.8,6.599,M,-37.527,M,213.0,0135*6C
$PYRTM,2024,122.334930701424,13.444578111563
$GNHDT,291.849,T*24
$PYRTM,2024,122.334936430729,13.444583840868
$GNGGA,080218.50,3330.01558338,N,11932.92266658,W,2,12,0.8,6.455,M,-37.527,M,213.4,0135*60
$PYRTM,2024,122.334936430729,13.444583840868
$GNHDT,292.307,T*26
$PYRTM,2024,122.334942281262,13.444589691400
$GNGGA,080219.00,3330.01602703,N,11932.92382627,W,2,12,0.8,6.105,M,-37.527,M,214.0,0135*64
$PYRTM,2024,122.334942281262,13.444589691400
$GNHDT,292.441,T*23
$PYRTM,2024,122.334948005822,13.444595415961
$GNGGA,080219.50,3330.01643239,N,11932.92502581,W,2,12,0.8,5.697,M,-37.527,M,214.4,0135*62
$PYRTM,2024,122.334948005822,13.444595415961
$GNHDT,291.801,T*28
$PYRTM,2024,122.334953858900,13.444601269039
$GNGGA,080220.00,3330.01676562,N,11932.92620864,W,2,12,0.8,5.365,M,-37.527,M,215.0,0135*6A
$PYRTM,2024,122.334953858900,13.444601269039
$GNHDT,291.535,T*22
$PYRTM,2024,122.334959585069,13.444606995208
$GNGGA,080220.50,3330.01705233,N,11932.92736844,W,2,12,0.8,5.192,M,-37.527,M,215.4,0135*63
$PYRTM,2024,122.334959585069,13.444606995208
$GNHDT,291.696,T*28
$PYRTM,2024,122.334965425359,13.444612835498
$GNGGA,080221.00,3330.01734303,N,11932.92855891,W,2,12,0.8,5.050,M,-37.527,M,216.0,0135*6D
$PYRTM,2024,122.334965425359,13.444612835498
$GNHDT,292.001,T*23
$PYRTM,2024,122.334971154572,13.444618564711
$GNGGA,080221.50,3330.01768354,N,11932.92988445,W,2,12,0.8,4.711,M,-37.527,M,216.4,0135*60
$PYRTM,2024,122.334971154572,13.444618564711
$GNHDT,291.853,T*2F
$PYRTM,2024,122.334977000602,13.444624410741
$GNGGA,080222.00,3330.01811780,N,11932.93132856,W,2,12,0.8,4.132,M,-37.527,M,217.0,0135*6E
$PYRTM,2024,122.334977000602,13.444624410741
$GNHDT,291.622,T*27
$PYRTM,2024,122.334982733669,13.444630143808
$GNGGA,080222.50,3330.01859101,N,11932.93272741,W,2,12,0.8,3.629,M,-37.527,M,217.4,0135*68
$PYRTM,2024,122.334982733669,13.444630143808
$GNHDT,291.652,T*20
$PYRTM,2024,122.334988573183,13.444635983322
$GNGGA,080223.00,3330.01905517,N,11932.93398659,W,2,12,0.8,3.537,M,-37.527,M,218.0,0135*6D
$PYRTM,2024,122.334988573183,13.444635983322
$GNHDT,291.561,T*23
$PYRTM,2024,122.334994302014,13.444641712164
$GNGGA,080223.50,3330.01949499,N,11932.93507229,W,2,12,0.8,3.965,M,-37.527,M,218.4,0135*6B
$PYRTM,2024,122.334994302014,13.444641712164
$GNHDT,291.830,T*2A
$PYRTM,2024,122.335000148854,13.444647558993
$GNGGA,080224.00,3330.01991428,N,11932.93606997,W,2,12,0.8,4.786,M,-37.527,M,219.0,0135*6B
$PYRTM,2024,122.335000148854,13.444647558993
$GNHDT,292.397,T*2F
$PYRTM,2024,122.335005876563,13.444653286701
$GNGGA,080224.50,3330.02032217,N,11932.93709852,W,2,12,0.8,5.721,M,-37.527,M,219.4,0135*69
$PYRTM,2024,122.335005876563,13.444653286701
$GNHDT,292.643,T*23
$PYRTM,2024,122.335011721007,13.444659131146
$GNGGA,080225.00,3330.02071943,N,11932.93827097,W,2,12,0.8,6.401,M,-37.526,M,220.0,0135*6F
$PYRTM,2024,122.335011721007,13.444659131146
$GNHDT,292.814,T*2F
$PYRTM,2024,122.335017453900,13.444664864039
$GNGGA,080225.50,3330.02110280,N,11932.93959842,W,2,12,0.8,6.581,M,-37.526,M,220.4,0135*6D
$PYRTM,2024,122.335017453900,13.444664864039
$GNHDT,292.992,T*20
$PYRTM,2024,122.335023301157,13.444670711296
$GNGGA,080226.00,3330.02147492,N,11932.94097308,W,2,12,0.8,6.309,M,-37.526,M,221.0,0135*66
$PYRTM,2024,122.335023301157,13.444670711296
$GNHDT,293.100,T*22
$PYRTM,2024,122.335029024699,13.444676434850
$GNGGA,080226.50,3330.02182745,N,11932.94230941,W,2,12,0.8,5.803,M,-37.526,M,221.4,0135*6D
$PYRTM,2024,122.335029024699,13.444676434850
$GNHDT,292.819,T*22
$PYRTM,2024,122.335034872975,13.444682283113
$GNGGA,080227.00,3330.02216267,N,11932.94353644,W,2,12,0.8,5.389,M,-37.526,M,222.0,0135*62
$PYRTM,2024,122.335034872975,13.444682283113
$GNHDT,293.031,T*21
$PYRTM,2024,122.335040596771,13.444688006910
$GNGGA,080227.50,3330.02250022,N,11932.94464409,W,2,12,0.8,5.273,M,-37.526,M,222.4,0135*6E
