$PYRTM,2024,124.416672379005,15.526319789144
$GNGGA,100000.50,3525.76841232,N,12140.87121194,W,2,10,1.2,5.159,M,-37.556,M,7.4,0135*61
$PYRTM,2024,124.416672379005,15.526319789144
$GNHDT,340.885,T*29
$PYRTM,2024,124.416678219329,15.526325629479
$GNGGA,100001.00,3525.76889746,N,12140.87146024,W,2,10,1.2,5.066,M,-37.556,M,4.0,0135*66
$PYRTM,2024,124.416678219329,15.526325629479
$GNHDT,340.710,T*2A
$PYRTM,2024,124.416683959155,15.526331369294
$GNGGA,100001.50,3525.76935486,N,12140.87183375,W,2,10,1.2,5.102,M,-37.556,M,4.4,0135*63
$PYRTM,2024,124.416683959155,15.526331369294
$GNHDT,340.227,T*2B
$PYRTM,2024,124.416689794259,15.526337204398
$GNGGA,100002.00,3525.76979186,N,12140.87231831,W,2,10,1.2,5.237,M,-37.556,M,5.0,0135*69
$PYRTM,2024,124.416689794259,15.526337204398
$GNHDT,339.656,T*27
$PYRTM,2024,124.416695527581,15.526342937731
$GNGGA,100002.50,3525.77020919,N,12140.87283195,W,2,10,1.2,5.401,M,-37.556,M,5.4,0135*6F
$PYRTM,2024,124.416695527581,15.526342937731
$GNHDT,339.999,T*2B
$PYRTM,2024,124.416701362141,15.526348772280
$GNGGA,100003.00,3525.77062568,N,12140.87328481,W,2,10,1.2,5.588,M,-37.556,M,6.0,0135*60
$PYRTM,2024,124.416701362141,15.526348772280
$GNHDT,340.222,T*2E
$PYRTM,2024,124.416707102014,15.526354512153
$GNGGA,100003.50,3525.77105866,N,12140.87362458,W,2,10,1.2,5.728,M,-37.556,M,6.4,0135*60
$PYRTM,2024,124.416707102014,15.526354512153
$GNHDT,340.669,T*25
$PYRTM,2024,124.416712938958,15.526360349097
$GNGGA,100004.00,3525.77153195,N,12140.87385605,W,2,10,1.2,5.788,M,-37.556,M,7.0,0135*68
$PYRTM,2024,124.416712938958,15.526360349097
$GNHDT,340.619,T*22
$PYRTM,2024,124.416718677361,15.526366087500
$GNGGA,100004.50,3525.77205008,N,12140.87402286,W,2,10,1.2,5.733,M,-37.556,M,7.4,0135*6B
$PYRTM,2024,124.416718677361,15.526366087500
$GNHDT,340.312,T*2C
$PYRTM,2024,124.416724514433,15.526371924572
$GNGGA,100005.00,3525.77260257,N,12140.87417214,W,2,10,1.2,5.538,M,-37.556,M,7.0,0135*66
$PYRTM,2024,124.416724514433,15.526371924572
$GNHDT,340.296,T*21
$PYRTM,2024,124.416730248854,15.526377658993
$GNGGA,100005.50,3525.77315496,N,12140.87436291,W,2,10,1.2,5.309,M,-37.556,M,7.4,0135*65
$PYRTM,2024,124.416730248854,15.526377658993
$GNHDT,340.081,T*25
$PYRTM,2024,124.416736083704,15.526383493843
$GNGGA,100006.00,3525.77368280,N,12140.87462447,W,2,10,1.2,5.139,M,-37.556,M,7.0,0135*61
$PYRTM,2024,124.416736083704,15.526383493843
$GNHDT,340.015,T*28
$PYRTM,2024,124.416741821273,15.526389231412
$GNGGA,100006.50,3525.77414664,N,12140.87494690,W,2,10,1.2,5.152,M,-37.556,M,7.4,0135*6E
$PYRTM,2024,124.416741821273,15.526389231412
$GNHDT,340.190,T*24
$PYRTM,2024,124.416747661412,15.526395071551
$GNGGA,100007.00,3525.77454958,N,12140.87531583,W,2,10,1.2,5.377,M,-37.556,M,4.0,0135*63
$PYRTM,2024,124.416747661412,15.526395071551
$GNHDT,340.235,T*28
$PYRTM,2024,124.416753402477,15.526400812616
$GNGGA,100007.50,3525.77493304,N,12140.87570039,W,2,10,1.2,5.681,M,-37.556,M,4.4,0135*67
$PYRTM,2024,124.416753402477,15.526400812616
$GNHDT,340.617,T*2C
$PYRTM,2024,124.416759237685,15.526406647824
$GNGGA,100008.00,3525.77537176,N,12140.87607831,W,2,10,1.2,5.896,M,-37.556,M,5.0,0135*6B
$PYRTM,2024,124.416759237685,15.526406647824
$GNHDT,340.626,T*2E
$PYRTM,2024,124.416764968866,15.526412379005
$GNGGA,100008.50,3525.77589938,N,12140.87641027,W,2,10,1.2,5.861,M,-37.556,M,5.4,0135*68
$PYRTM,2024,124.416764968866,15.526412379005
$GNHDT,340.286,T*20
$PYRTM,2024,124.416770814329,15.526418224468
$GNGGA,100009.00,3525.77649940,N,12140.87668675,W,2,10,1.2,5.612,M,-37.556,M,6.0,0135*6B
$PYRTM,2024,124.416770814329,15.526418224468
$GNHDT,340.019,T*24
$PYRTM,2024,124.416776546701,15.526423956840
$GNGGA,100009.50,3525.77709561,N,12140.87693688,W,2,10,1.2,5.348,M,-37.556,M,6.4,0135*6C
$PYRTM,2024,124.416776546701,15.526423956840
$GNHDT,340.326,T*2B
$PYRTM,2024,124.416782383449,15.526429793588
$GNGGA,100010.00,3525.77764262,N,12140.87719846,W,2,10,1.2,5.172,M,-37.556,M,7.0,0135*6F
$PYRTM,2024,124.416782383449,15.526429793588
$GNHDT,340.243,T*29
$PYRTM,2024,124.416788119688,15.526435529826
$GNGGA,100010.50,3525.77810411,N,12140.87747948,W,2,10,1.2,5.205,M,-37.556,M,7.4,0135*67
$PYRTM,2024,124.416788119688,15.526435529826
$GNHDT,339.811,T*2A
$PYRTM,2024,124.416793954468,15.526441364606
$GNGGA,100011.00,3525.77850306,N,12140.87776632,W,2,10,1.2,5.409,M,-37.556,M,7.0,0135*68
$PYRTM,2024,124.416793954468,15.526441364606
$GNHDT,339.845,T*2B
$PYRTM,2024,124.416799691366,15.526447101516
$GNGGA,100011.50,3525.77889702,N,12140.87805078,W,2,10,1.2,5.685,M,-37.556,M,7.4,0135*68
$PYRTM,2024,124.416799691366,15.526447101516
$GNHDT,340.127,T*28
$PYRTM,2024,124.416805533576,15.526452943715
$GNGGA,100012.00,3525.77933015,N,12140.87835773,W,2,10,1.2,5.856,M,-37.556,M,7.0,0135*64
$PYRTM,2024,124.416805533576,15.526452943715
$GNHDT,340.399,T*2F
$PYRTM,2024,124.416811272419,15.526458682558
$GNGGA,100012.50,3525.77983825,N,12140.87869032,W,2,10,1.2,5.820,M,-37.556,M,7.4,0135*6F
$PYRTM,2024,124.416811272419,15.526458682558
$GNHDT,340.719,T*23
$PYRTM,2024,124.416817104757,15.526464514907
$GNGGA,100013.00,3525.78039400,N,12140.87902913,W,2,10,1.2,5.649,M,-37.556,M,4.0,0135*67
$PYRTM,2024,124.416817104757,15.526464514907
$GNHDT,340.715,T*2F
$PYRTM,2024,124.416822839259,15.526470249398
$GNGGA,100013.50,3525.78093443,N,12140.87934601,W,2,10,1.2,5.463,M,-37.556,M,4.4,0135*62
$PYRTM,2024,124.416822839259,15.526470249398
$GNHDT,340.568,T*27
$PYRTM,2024,124.416828682361,15.526476092500
$GNGGA,100014.00,3525.78141708,N,12140.87962608,W,2,10,1.2,5.409,M,-37.556,M,5.0,0135*61
$PYRTM,2024,124.416828682361,15.526476092500
$GNHDT,340.151,T*29
$PYRTM,2024,124.416834420579,15.526481830718
$GNGGA,100014.50,3525.78184015,N,12140.87988547,W,2,10,1.2,5.519,M,-37.556,M,5.4,0135*6E
$PYRTM,2024,124.416834420579,15.526481830718
$GNHDT,339.970,T*2C
$PYRTM,2024,124.416840253831,15.526487663970
$GNGGA,100015.00,3525.78222654,N,12140.88015713,W,2,10,1.2,5.736,M,-37.556,M,6.0,0135*6F
$PYRTM,2024,124.416840253831,15.526487663970
$GNHDT,339.863,T*2F
$PYRTM,2024,124.416845990116,15.526493400255
$GNGGA,100015.50,3525.78263772,N,12140.88046166,W,2,10,1.2,5.876,M,-37.556,M,6.4,0135*67
$PYRTM,2024,124.416845990116,15.526493400255
$GNHDT,339.753,T*23
$PYRTM,2024,124.416851827662,15.526499237801
$GNGGA,100016.00,3525.78310291,N,12140.88079013,W,2,10,1.2,5.823,M,-37.556,M,7.0,0135*66
$PYRTM,2024,124.416851827662,15.526499237801
$GNHDT,339.943,T*2C
$PYRTM,2024,124.416857565926,15.526504976065
$GNGGA,100016.50,3525.78363360,N,12140.88114359,W,2,10,1.2,5.536,M,-37.556,M,7.4,0135*62
$PYRTM,2024,124.416857565926,15.526504976065
$GNHDT,340.331,T*2D
$PYRTM,2024,124.416863400845,15.526510810984
$GNGGA,100017.00,3525.78419014,N,12140.88153189,W,2,10,1.2,5.114,M,-37.556,M,7.0,0135*60
$PYRTM,2024,124.416863400845,15.526510810984
$GNHDT,340.390,T*26
$PYRTM,2024,124.416869136447,15.526516546586
$GNGGA,100017.50,3525.78472669,N,12140.88193694,W,2,10,1.2,4.743,M,-37.556,M,7.4,0135*62
$PYRTM,2024,124.416869136447,15.526516546586
$GNHDT,340.240,T*2A
$PYRTM,2024,124.416874972998,15.526522383137
$GNGGA,100018.00,3525.78519052,N,12140.88231543,W,2,10,1.2,4.645,M,-37.556,M,7.0,0135*6B
$PYRTM,2024,124.416874972998,15.526522383137
$GNHDT,340.147,T*2E
$PYRTM,2024,124.416880719780,15.526528129919
$GNGGA,100018.50,3525.78557351,N,12140.88260991,W,2,10,1.2,4.889,M,-37.556,M,7.4,0135*69
$PYRTM,2024,124.416880719780,15.526528129919
$GNHDT,339.602,T*26
$PYRTM,2024,124.416886549132,15.526533959271
$GNGGA,100019.00,3525.78592569,N,12140.88281404,W,2,10,1.2,5.344,M,-37.556,M,4.0,0135*6B
$PYRTM,2024,124.416886549132,15.526533959271
$GNHDT,339.655,T*24
$PYRTM,2024,124.416892292569,15.526539702708
$GNGGA,100019.50,3525.78629865,N,12140.88297876,W,2,10,1.2,5.856,M,-37.556,M,4.4,0135*6E
$PYRTM,2024,124.416892292569,15.526539702708
$GNHDT,340.203,T*2D
$PYRTM,2024,124.416898123692,15.526545533831
$GNGGA,100020.00,3525.78675223,N,12140.88314723,W,2,10,1.2,6.183,M,-37.556,M,5.0,0135*62
$PYRTM,2024,124.416898123692,15.526545533831
$GNHDT,340.279,T*20
$PYRTM,2024,124.416903861528,15.526551271667
$GNGGA,100020.50,3525.78729029,N,12140.88335578,W,2,10,1.2,6.169,M,-37.556,M,5.4,0135*68
$PYRTM,2024,124.416903861528,15.526551271667
$GNHDT,340.612,T*29
$PYRTM,2024,124.416909705301,15.526557115440
$GNGGA,100021.00,3525.78785652,N,12140.88361381,W,2,10,1.2,5.913,M,-37.556,M,6.0,0135*60
$PYRTM,2024,124.416909705301,15.526557115440
$GNHDT,340.502,T*2B
$PYRTM,2024,124.416915433102,15.526562843241
$GNGGA,100021.50,3525.78838277,N,12140.88391536,W,2,10,1.2,5.572,M,-37.556,M,6.4,0135*65
$PYRTM,2024,124.416915433102,15.526562843241
$GNHDT,340.506,T*2F
$PYRTM,2024,124.416921272199,15.526568682338
$GNGGA,100022.00,3525.78884883,N,12140.88427257,W,2,10,1.2,5.309,M,-37.556,M,7.0,0135*60
$PYRTM,2024,124.416921272199,15.526568682338
$GNHDT,340.358,T*22
$PYRTM,2024,124.416927015972,15.526574426111
$GNGGA,100022.50,3525.78925402,N,12140.88469455,W,2,10,1.2,5.179,M,-37.556,M,7.4,0135*65
$PYRTM,2024,124.416927015972,15.526574426111
$GNHDT,339.796,T*2A
$PYRTM,2024,124.416932844606,15.526580254745
$GNGGA,100023.00,3525.78962000,N,12140.88514385,W,2,10,1.2,5.207,M,-37.556,M,7.0,0135*6B
$PYRTM,2024,124.416932844606,15.526580254745
$GNHDT,339.697,T*2A
$PYRTM,2024,124.416938585602,15.526585995741
$GNGGA,100023.50,3525.79000754,N,12140.88560232,W,2,10,1.2,5.255,M,-37.556,M,7.4,0135*69
$PYRTM,2024,124.416938585602,15.526585995741
$GNHDT,339.511,T*27
$PYRTM,2024,124.416944420556,15.526591830706
$GNGGA,100024.00,3525.79043289,N,12140.88598275,W,2,10,1.2,5.330,M,-37.556,M,7.0,0135*6B
$PYRTM,2024,124.416944420556,15.526591830706
$GNHDT,339.284,T*2C
$PYRTM,2024,124.416950151250,15.526597561389
$GNGGA,100024.50,3525.79089545,N,12140.88620908,W,2,10,1.2,5.466,M,-37.556,M,7.4,0135*6E
$PYRTM,2024,124.416950151250,15.526597561389
$GNHDT,339.426,T*22
$PYRTM,2024,124.416955994329,15.526603404468
$GNGGA,100025.00,3525.79136415,N,12140.88630782,W,2,10,1.2,5.647,M,-37.556,M,4.0,0135*60
$PYRTM,2024,124.416955994329,15.526603404468
$GNHDT,339.798,T*24
$PYRTM,2024,124.416961725208,15.526609135347
$GNGGA,100025.50,3525.79183450,N,12140.88634292,W,2,10,1.2,5.842,M,-37.556,M,4.4,0135*65
$PYRTM,2024,124.416961725208,15.526609135347
$GNHDT,340.026,T*28
$PYRTM,2024,124.416967568461,15.526614978600
$GNGGA,100026.00,3525.79232050,N,12140.88639657,W,2,10,1.2,5.931,M,-37.556,M,5.0,0135*6E
$PYRTM,2024,124.416967568461,15.526614978600
$GNHDT,340.422,T*28
$PYRTM,2024,124.416973296354,15.526620706493
$GNGGA,100026.50,3525.79280411,N,12140.88654796,W,2,10,1.2,5.879,M,-37.556,M,5.4,0135*6D
$PYRTM,2024,124.416973296354,15.526620706493
$GNHDT,340.231,T*2C
$PYRTM,2024,124.416979135475,15.526626545613
$GNGGA,100027.00,3525.79327153,N,12140.88682484,W,2,10,1.2,5.703,M,-37.556,M,6.0,0135*68
$PYRTM,2024,124.416979135475,15.526626545613
$GNHDT,339.965,T*28
$PYRTM,2024,124.416984874653,15.526632284792
$GNGGA,100027.50,3525.79371148,N,12140.88724545,W,2,10,1.2,5.491,M,-37.556,M,6.4,0135*69
$PYRTM,2024,124.416984874653,15.526632284792
$GNHDT,339.851,T*2E
$PYRTM,2024,124.416990706898,15.526638117037
$GNGGA,100028.00,3525.79412004,N,12140.88780446,W,2,10,1.2,5.263,M,-37.556,M,7.0,0135*6A
$PYRTM,2024,124.416990706898,15.526638117037
$GNHDT,339.321,T*22
$PYRTM,2024,124.416996441528,15.526643851667
$GNGGA,100028.50,3525.79450631,N,12140.88841374,W,2,10,1.2,5.123,M,-37.556,M,7.4,0135*6E
$PYRTM,2024,124.416996441528,15.526643851667
$GNHDT,339.637,T*20
$PYRTM,2024,124.417002288044,15.526649698183
$GNGGA,100029.00,3525.79487735,N,12140.88898094,W,2,10,1.2,5.078,M,-37.556,M,7.0,0135*67
$PYRTM,2024,124.417002288044,15.526649698183
$GNHDT,339.690,T*2D
$PYRTM,2024,124.417008019178,15.526655429317
$GNGGA,100029.50,3525.79526375,N,12140.88937037,W,2,10,1.2,5.175,M,-37.556,M,7.4,0135*6D
$PYRTM,2024,124.417008019178,15.526655429317
$GNHDT,339.593,T*2D
$PYRTM,2024,124.417013873206,15.526661283356
$GNGGA,100030.00,3525.79568596,N,12140.88954204,W,2,10,1.2,5.379,M,-37.556,M,7.0,0135*6C
$PYRTM,2024,124.417013873206,15.526661283356
$GNHDT,339.584,T*2B
$PYRTM,2024,124.417019598773,15.526667008912
$GNGGA,100030.50,3525.79615439,N,12140.88958111,W,2,10,1.2,5.625,M,-37.556,M,7.4,0135*67
$PYRTM,2024,124.417019598773,15.526667008912
$GNHDT,339.681,T*2D
$PYRTM,2024,124.417025435775,15.526672845914
$GNGGA,100031.00,3525.79666279,N,12140.88957790,W,2,10,1.2,5.813,M,-37.556,M,4.0,0135*69
$PYRTM,2024,124.417025435775,15.526672845914
$GNHDT,339.690,T*2D
$PYRTM,2024,124.417031163681,15.526678573819
$GNGGA,100031.50,3525.79720609,N,12140.88964341,W,2,10,1.2,5.856,M,-37.556,M,4.4,0135*61
$PYRTM,2024,124.417031163681,15.526678573819
$GNHDT,340.043,T*2B
$PYRTM,2024,124.417037013843,15.526684423981
$GNGGA,100032.00,3525.79773873,N,12140.88984531,W,2,10,1.2,5.830,M,-37.556,M,5.0,0135*68
$PYRTM,2024,124.417037013843,15.526684423981
$GNHDT,339.956,T*28
$PYRTM,2024,124.417042739201,15.526690149340
$GNGGA,100032.50,3525.79824368,N,12140.89019545,W,2,10,1.2,5.764,M,-37.556,M,5.4,0135*64
$PYRTM,2024,124.417042739201,15.526690149340
$GNHDT,339.611,T*24
$PYRTM,2024,124.417048584167,15.526695994306
$GNGGA,100033.00,3525.79870612,N,12140.89068506,W,2,10,1.2,5.701,M,-37.556,M,6.0,0135*6C
$PYRTM,2024,124.417048584167,15.526695994306
$GNHDT,339.457,T*24
$PYRTM,2024,124.417054315486,15.526701725625
$GNGGA,100033.50,3525.79914043,N,12140.89126296,W,2,10,1.2,5.648,M,-37.556,M,6.4,0135*65
$PYRTM,2024,124.417054315486,15.526701725625
$GNHDT,339.176,T*22
$PYRTM,2024,124.417060155637,15.526707565787
$GNGGA,100034.00,3525.79954921,N,12140.89185657,W,2,10,1.2,5.615,M,-37.556,M,7.0,0135*63
$PYRTM,2024,124.417060155637,15.526707565787
$GNHDT,339.131,T*21
$PYRTM,2024,124.417065887778,15.526713297917
$GNGGA,100034.50,3525.79995554,N,12140.89237116,W,2,10,1.2,5.625,M,-37.556,M,7.4,0135*6A
$PYRTM,2024,124.417065887778,15.526713297917
$GNHDT,339.297,T*2E
$PYRTM,2024,124.417071732789,15.526719142928
$GNGGA,100035.00,3525.80037751,N,12140.89272073,W,2,10,1.2,5.683,M,-37.556,M,7.0,0135*65
$PYRTM,2024,124.417071732789,15.526719142928
$GNHDT,339.472,T*23
$PYRTM,2024,124.417077464306,15.526724874444
$GNGGA,100035.50,3525.80082942,N,12140.89289527,W,2,10,1.2,5.759,M,-37.556,M,7.4,0135*60
$PYRTM,2024,124.417077464306,15.526724874444
$GNHDT,339.531,T*25
$PYRTM,2024,124.417083304306,15.526730714444
$GNGGA,100036.00,3525.80131632,N,12140.89295427,W,2,10,1.2,5.842,M,-37.556,M,7.0,0135*6A
$PYRTM,2024,124.417083304306,15.526730714444
$GNHDT,339.355,T*21
$PYRTM,2024,124.417089039977,15.526736450116
$GNGGA,100036.50,3525.80183122,N,12140.89298937,W,2,10,1.2,5.864,M,-37.556,M,7.4,0135*61
$PYRTM,2024,124.417089039977,15.526736450116
$GNHDT,339.575,T*25
$PYRTM,2024,124.417094881100,15.526742291238
$GNGGA,100037.00,3525.80236871,N,12140.89308624,W,2,10,1.2,5.776,M,-37.556,M,4.0,0135*69
$PYRTM,2024,124.417094881100,15.526742291238
$GNHDT,339.569,T*28
$PYRTM,2024,124.417100608287,15.526748018426
$GNGGA,100037.50,3525.80291487,N,12140.89328654,W,2,10,1.2,5.635,M,-37.556,M,4.4,0135*63
$PYRTM,2024,124.417100608287,15.526748018426
$GNHDT,339.587,T*28
$PYRTM,2024,124.417106451678,15.526753861817
$GNGGA,100038.00,3525.80344305,N,12140.89360887,W,2,10,1.2,5.461,M,-37.556,M,5.0,0135*67
$PYRTM,2024,124.417106451678,15.526753861817
$GNHDT,339.477,T*26
$PYRTM,2024,124.417112188530,15.526759598669
$GNGGA,100038.50,3525.80392278,N,12140.89404432,W,2,10,1.2,5.410,M,-37.556,M,5.4,0135*67
$PYRTM,2024,124.417112188530,15.526759598669
$GNHDT,339.223,T*21
$PYRTM,2024,124.417118022303,15.526765432442
$GNGGA,100039.00,3525.80433241,N,12140.89454535,W,2,10,1.2,5.506,M,-37.556,M,6.0,0135*67
$PYRTM,2024,124.417118022303,15.526765432442
$GNHDT,339.316,T*26
$PYRTM,2024,124.417123760394,15.526771170532
$GNGGA,100039.50,3525.80468152,N,12140.89501514,W,2,10,1.2,5.735,M,-37.556,M,6.4,0135*69
$PYRTM,2024,124.417123760394,15.526771170532
$GNHDT,339.302,T*23
$PYRTM,2024,124.417129603333,15.526777013484
$GNGGA,100040.00,3525.80500799,N,12140.89538748,W,2,10,1.2,6.009,M,-37.556,M,7.0,0135*63
$PYRTM,2024,124.417129603333,15.526777013484
$GNHDT,339.242,T*26
$PYRTM,2024,124.417135331690,15.526782741829
$GNGGA,100040.50,3525.80537270,N,12140.89565650,W,2,10,1.2,6.155,M,-37.556,M,7.4,0135*6C
$PYRTM,2024,124.417135331690,15.526782741829
$GNHDT,339.622,T*24
$PYRTM,2024,124.417141174907,15.526788585046
$GNGGA,100041.00,3525.80584352,N,12140.89586094,W,2,10,1.2,6.040,M,-37.556,M,7.0,0135*63
$PYRTM,2024,124.417141174907,15.526788585046
$GNHDT,339.671,T*22
$PYRTM,2024,124.417146914282,15.526794324433
$GNGGA,100041.50,3525.80641069,N,12140.89606616,W,2,10,1.2,5.617,M,-37.556,M,7.4,0135*63
$PYRTM,2024,124.417146914282,15.526794324433
$GNHDT,339.803,T*29
$PYRTM,2024,124.417152751227,15.526800161366
$GNGGA,100042.00,3525.80701607,N,12140.89628653,W,2,10,1.2,5.058,M,-37.556,M,7.0,0135*6A
$PYRTM,2024,124.417152751227,15.526800161366
$GNHDT,339.228,T*2A
$PYRTM,2024,124.417158480255,15.526805890394
$GNGGA,100042.50,3525.80759295,N,12140.89655878,W,2,10,1.2,4.529,M,-37.556,M,7.4,0135*66
$PYRTM,2024,124.417158480255,15.526805890394
$GNHDT,339.087,T*2D
$PYRTM,2024,124.417164324618,15.526811734757
$GNGGA,100043.00,3525.80807455,N,12140.89689644,W,2,10,1.2,4.321,M,-37.556,M,4.0,0135*65
$PYRTM,2024,124.417164324618,15.526811734757
$GNHDT,339.195,T*2F
$PYRTM,2024,124.417170057662,15.526817467801
$GNGGA,100043.50,3525.80843930,N,12140.89730220,W,2,10,1.2,4.534,M,-37.556,M,4.4,0135*6D
$PYRTM,2024,124.417170057662,15.526817467801
$GNHDT,339.267,T*21
$PYRTM,2024,124.417175901759,15.526823311898
$GNGGA,100044.00,3525.80874109,N,12140.89772967,W,2,10,1.2,5.046,M,-37.556,M,5.0,0135*63
$PYRTM,2024,124.417175901759,15.526823311898
$GNHDT,339.744,T*25
$PYRTM,2024,124.417181626053,15.526829036192
$GNGGA,100044.50,3525.80904441,N,12140.89813609,W,2,10,1.2,5.615,M,-37.556,M,5.4,0135*62
$PYRTM,2024,124.417181626053,15.526829036192
$GNHDT,339.458,T*2B
$PYRTM,2024,124.417187472280,15.526834882419
$GNGGA,100045.00,3525.80941417,N,12140.89847507,W,2,10,1.2,6.091,M,-37.556,M,6.0,0135*66
$PYRTM,2024,124.417187472280,15.526834882419
$GNHDT,339.312,T*22
$PYRTM,2024,124.417193201285,15.526840611435
$GNGGA,100045.50,3525.80989643,N,12140.89875679,W,2,10,1.2,6.267,M,-37.556,M,6.4,0135*60
$PYRTM,2024,124.417193201285,15.526840611435
$GNHDT,339.172,T*26
$PYRTM,2024,124.417199045313,15.526846455451
$GNGGA,100046.00,3525.81046674,N,12140.89899346,W,2,10,1.2,6.075,M,-37.556,M,7.0,0135*66
$PYRTM,2024,124.417199045313,15.526846455451
$GNHDT,338.842,T*2D
$PYRTM,2024,124.417204779387,15.526852189525
$GNGGA,100046.50,3525.81106204,N,12140.89923742,W,2,10,1.2,5.704,M,-37.556,M,7.4,0135*63
$PYRTM,2024,124.417204779387,15.526852189525
$GNHDT,338.899,T*2B
$PYRTM,2024,124.417210619120,15.526858029259
$GNGGA,100047.00,3525.81162246,N,12140.89948919,W,2,10,1.2,5.336,M,-37.556,M,7.0,0135*6F
$PYRTM,2024,124.417210619120,15.526858029259
$GNHDT,338.768,T*2A
$PYRTM,2024,124.417216350822,15.526863760949
$GNGGA,100047.50,3525.81212701,N,12140.89974951,W,2,10,1.2,5.188,M,-37.556,M,7.4,0135*68
$PYRTM,2024,124.417216350822,15.526863760949
$GNHDT,338.150,T*27
$PYRTM,2024,124.417222191829,15.526869601968
$GNGGA,100048.00,3525.81255554,N,12140.90001728,W,2,10,1.2,5.344,M,-37.556,M,7.0,0135*66
$PYRTM,2024,124.417222191829,15.526869601968
$GNHDT,338.127,T*27
$PYRTM,2024,124.417227929259,15.526875339398
$GNGGA,100048.50,3525.81292597,N,12140.90032752,W,2,10,1.2,5.691,M,-37.556,M,7.4,0135*63
$PYRTM,2024,124.417227929259,15.526875339398
$GNHDT,338.192,T*29
$PYRTM,2024,124.417233763657,15.526881173796
$GNGGA,100049.00,3525.81325828,N,12140.90067594,W,2,10,1.2,6.114,M,-37.556,M,4.0,0135*65
$PYRTM,2024,124.417233763657,15.526881173796
$GNHDT,338.337,T*24
$PYRTM,2024,124.417239500741,15.526886910891
$GNGGA,100049.50,3525.81363198,N,12140.90105387,W,2,10,1.2,6.377,M,-37.556,M,4.4,0135*62
$PYRTM,2024,124.417239500741,15.526886910891
$GNHDT,338.403,T*24
$PYRTM,2024,124.417245339294,15.526892749433
$GNGGA,100050.00,3525.81412982,N,12140.90143228,W,2,10,1.2,6.291,M,-37.556,M,5.0,0135*67
$PYRTM,2024,124.417245339294,15.526892749433
$GNHDT,338.507,T*21
$PYRTM,2024,124.417251070278,15.526898480417
$GNGGA,100050.50,3525.81471014,N,12140.90175788,W,2,10,1.2,5.915,M,-37.556,M,5.4,0135*6B
$PYRTM,2024,124.417251070278,15.526898480417
$GNHDT,338.489,T*26
$PYRTM,2024,124.417256909502,15.526904319641
$GNGGA,100051.00,3525.81529532,N,12140.90199324,W,2,10,1.2,5.504,M,-37.555,M,6.0,0135*6A
$PYRTM,2024,124.417256909502,15.526904319641
$GNHDT,338.380,T*28
$PYRTM,2024,124.417262644016,15.526910054155
$GNGGA,100051.50,3525.81580860,N,12140.90215861,W,2,10,1.2,5.224,M,-37.555,M,6.4,0135*6A
$PYRTM,2024,124.417262644016,15.526910054155
$GNHDT,338.259,T*2D
$PYRTM,2024,124.417268491701,15.526915901840
$GNGGA,100052.00,3525.81623976,N,12140.90228323,W,2,10,1.2,5.204,M,-37.555,M,7.0,0135*64
$PYRTM,2024,124.417268491701,15.526915901840
$GNHDT,338.270,T*26
$PYRTM,2024,124.417274219502,15.526921629641
$GNGGA,100052.50,3525.81662575,N,12140.90243021,W,2,10,1.2,5.379,M,-37.555,M,7.4,0135*68
$PYRTM,2024,124.417274219502,15.526921629641
$GNHDT,338.237,T*25
$PYRTM,2024,124.417280060336,15.526927470475
$GNGGA,100053.00,3525.81700931,N,12140.90268483,W,2,10,1.2,5.562,M,-37.555,M,7.0,0135*68
$PYRTM,2024,124.417280060336,15.526927470475
$GNHDT,338.492,T*2C
$PYRTM,2024,124.417285799167,15.526933209306
$GNGGA,100053.50,3525.81743068,N,12140.90308579,W,2,10,1.2,5.569,M,-37.555,M,7.4,0135*63
$PYRTM,2024,124.417285799167,15.526933209306
$GNHDT,338.094,T*2E
$PYRTM,2024,124.417291636019,15.526939046157
$GNGGA,100054.00,3525.81786715,N,12140.90356642,W,2,10,1.2,5.434,M,-37.555,M,7.0,0135*68
$PYRTM,2024,124.417291636019,15.526939046157
$GNHDT,338.136,T*27
$PYRTM,2024,124.417297367373,15.526944777512
$GNGGA,100054.50,3525.81827568,N,12140.90404611,W,2,10,1.2,5.276,M,-37.555,M,7.4,0135*63
$PYRTM,2024,124.417297367373,15.526944777512
$GNHDT,338.437,T*23
$PYRTM,2024,124.417303208981,15.526950619120
$GNGGA,100055.00,3525.81863082,N,12140.90442316,W,2,10,1.2,5.222,M,-37.555,M,4.0,0135*60
$PYRTM,2024,124.417303208981,15.526950619120
$GNHDT,338.948,T*26
$PYRTM,2024,124.417308945243,15.526956355382
$GNGGA,100055.50,3525.81893646,N,12140.90466989,W,2,10,1.2,5.330,M,-37.555,M,4.4,0135*68
$PYRTM,2024,124.417308945243,15.526956355382
$GNHDT,339.370,T*26
$PYRTM,2024,124.417314787361,15.526962197500
$GNGGA,100056.00,3525.81922644,N,12140.90481213,W,2,10,1.2,5.550,M,-37.555,M,5.0,0135*63
$PYRTM,2024,124.417314787361,15.526962197500
$GNHDT,339.513,T*25
$PYRTM,2024,124.417320516065,15.526967926204
$GNGGA,100056.50,3525.81957765,N,12140.90490551,W,2,10,1.2,5.653,M,-37.555,M,5.4,0135*63
$PYRTM,2024,124.417320516065,15.526967926204
$GNHDT,339.299,T*20
$PYRTM,2024,124.417326359444,15.526973769583
$GNGGA,100057.00,3525.82001309,N,12140.90502356,W,2,10,1.2,5.513,M,-37.555,M,6.0,0135*6B
$PYRTM,2024,124.417326359444,15.526973769583
$GNHDT,339.239,T*2A
$PYRTM,2024,124.417332095799,15.526979505937
$GNGGA,100057.50,3525.82051637,N,12140.90524027,W,2,10,1.2,5.084,M,-37.555,M,6.4,0135*6D
$PYRTM,2024,124.417332095799,15.526979505937
$GNHDT,339.266,T*20
$PYRTM,2024,124.417337933530,15.526985343681
$GNGGA,100058.00,3525.82102693,N,12140.90557172,W,2,10,1.2,4.555,M,-37.555,M,7.0,0135*66
$PYRTM,2024,124.417337933530,15.526985343681
$GNHDT,338.765,T*27
$PYRTM,2024,124.417343671678,15.526991081817
$GNGGA,100058.50,3525.82148789,N,12140.90600235,W,2,10,1.2,4.188,M,-37.555,M,7.4,0135*66
$PYRTM,2024,124.417343671678,15.526991081817
$GNHDT,338.828,T*21
$PYRTM,2024,124.417349515637,15.526996925775
$GNGGA,100059.00,3525.82185544,N,12140.90649031,W,2,10,1.2,4.199,M,-37.555,M,7.0,0135*6F
$PYRTM,2024,124.417349515637,15.526996925775
$GNHDT,338.799,T*24
$PYRTM,2024,124.417355241956,15.527002652095
$GNGGA,100059.50,3525.82212441,N,12140.90693686,W,2,10,1.2,4.646,M,-37.555,M,7.4,0135*6F
$PYRTM,2024,124.417355241956,15.527002652095
$GNHDT,338.785,T*29
$PYRTM,2024,124.417361085428,15.527008495579
$GNGGA,100100.00,3525.82234622,N,12140.90730360,W,2,10,1.2,5.312,M,-37.555,M,7.0,0135*60
$PYRTM,2024,124.417361085428,15.527008495579
$GNHDT,338.731,T*26
$PYRTM,2024,124.417366822153,15.527014232292
$GNGGA,100100.50,3525.82258473,N,12140.90755709,W,2,10,1.2,6.011,M,-37.555,M,7.4,0135*66
$PYRTM,2024,124.417366822153,15.527014232292
$GNHDT,339.522,T*27
$PYRTM,2024,124.417372657812,15.527020067963
$GNGGA,100101.00,3525.82292522,N,12140.90769506,W,2,10,1.2,6.533,M,-37.555,M,4.0,0135*61
$PYRTM,2024,124.417372657812,15.527020067963
$GNHDT,339.861,T*2D
$PYRTM,2024,124.417378386771,15.527025796910
$GNGGA,100101.50,3525.82337938,N,12140.90777221,W,2,10,1.2,6.730,M,-37.555,M,4.4,0135*65
$PYRTM,2024,124.417378386771,15.527025796910
$GNHDT,339.995,T*27
$PYRTM,2024,124.417384228623,15.527031638762
$GNGGA,100102.00,3525.82392213,N,12140.90785269,W,2,10,1.2,6.524,M,-37.555,M,5.0,0135*6D
$PYRTM,2024,124.417384228623,15.527031638762
$GNHDT,339.892,T*21
$PYRTM,2024,124.417389964919,15.527037375058
$GNGGA,100102.50,3525.82449282,N,12140.90800918,W,2,10,1.2,6.001,M,-37.555,M,5.4,0135*68
$PYRTM,2024,124.417389964919,15.527037375058
$GNHDT,339.371,T*27
$PYRTM,2024,124.417395812720,15.527043222859
$GNGGA,100103.00,3525.82501123,N,12140.90828392,W,2,10,1.2,5.373,M,-37.555,M,6.0,0135*69
$PYRTM,2024,124.417395812720,15.527043222859
$GNHDT,338.817,T*2D
$PYRTM,2024,124.417401539549,15.527048949687
$GNGGA,100103.50,3525.82545941,N,12140.90865219,W,2,10,1.2,4.950,M,-37.555,M,6.4,0135*65
$PYRTM,2024,124.417401539549,15.527048949687
$GNHDT,338.858,T*26
$PYRTM,2024,124.417407378299,15.527054788437
$GNGGA,100104.00,3525.82582076,N,12140.90905434,W,2,10,1.2,4.857,M,-37.555,M,7.0,0135*6C
$PYRTM,2024,124.417407378299,15.527054788437
$GNHDT,339.003,T*21
$PYRTM,2024,124.417413110660,15.527060520799
$GNGGA,100104.50,3525.82611647,N,12140.90942145,W,2,10,1.2,5.119,M,-37.555,M,7.4,0135*62
$PYRTM,2024,124.417413110660,15.527060520799
$GNHDT,339.186,T*2D
$PYRTM,2024,124.417418959942,15.527066370081
$GNGGA,100105.00,3525.82638642,N,12140.90971175,W,2,10,1.2,5.596,M,-37.555,M,7.0,0135*6C
$PYRTM,2024,124.417418959942,15.527066370081
$GNHDT,339.489,T*27
$PYRTM,2024,124.417424688912,15.527072099063
$GNGGA,100105.50,3525.82670229,N,12140.90994121,W,2,10,1.2,6.028,M,-37.555,M,7.4,0135*61
$PYRTM,2024,124.417424688912,15.527072099063
$GNHDT,340.221,T*2D
$PYRTM,2024,124.417430523194,15.527077933333
$GNGGA,100106.00,3525.82712607,N,12140.91012480,W,2,10,1.2,6.263,M,-37.555,M,7.0,0135*6B
$PYRTM,2024,124.417430523194,15.527077933333
$GNHDT,340.069,T*23
$PYRTM,2024,124.417436261933,15.527083672072
$GNGGA,100106.50,3525.82762261,N,12140.91027679,W,2,10,1.2,6.254,M,-37.555,M,7.4,0135*6F
$PYRTM,2024,124.417436261933,15.527083672072
$GNHDT,339.533,T*27
$PYRTM,2024,124.417442096840,15.527089506979
$GNGGA,100107.00,3525.82814563,N,12140.91041228,W,2,10,1.2,6.103,M,-37.555,M,4.0,0135*66
$PYRTM,2024,124.417442096840,15.527089506979
$GNHDT,339.546,T*25
$PYRTM,2024,124.417447838924,15.527095249063
$GNGGA,100107.50,3525.82865126,N,12140.91057643,W,2,10,1.2,5.829,M,-37.555,M,4.4,0135*68
$PYRTM,2024,124.417447838924,15.527095249063
$GNHDT,339.202,T*22
$PYRTM,2024,124.417453679549,15.527101089688
$GNGGA,100108.00,3525.82909689,N,12140.91078935,W,2,10,1.2,5.571,M,-37.555,M,5.0,0135*6D
$PYRTM,2024,124.417453679549,15.527101089688
$GNHDT,339.134,T*24
$PYRTM,2024,124.417459410625,15.527106820764
$GNGGA,100108.50,3525.82949213,N,12140.91105320,W,2,10,1.2,5.412,M,-37.555,M,5.4,0135*6E
$PYRTM,2024,124.417459410625,15.527106820764
$GNHDT,339.719,T*2D
$PYRTM,2024,124.417465252650,15.527112662789
$GNGGA,100109.00,3525.82985264,N,12140.91137456,W,2,10,1.2,5.342,M,-37.555,M,6.0,0135*68
$PYRTM,2024,124.417465252650,15.527112662789
$GNHDT,339.931,T*29
$PYRTM,2024,124.417470979167,15.527118389306
$GNGGA,100109.50,3525.83020175,N,12140.91175371,W,2,10,1.2,5.297,M,-37.555,M,6.4,0135*60
$PYRTM,2024,124.417470979167,15.527118389306
$GNHDT,340.016,T*2B
$PYRTM,2024,124.417476820764,15.527124230914
$GNGGA,100110.00,3525.83055081,N,12140.91215352,W,2,10,1.2,5.233,M,-37.555,M,7.0,0135*6A
$PYRTM,2024,124.417476820764,15.527124230914
$GNHDT,339.995,T*27
$PYRTM,2024,124.417482552836,15.527129962986
$GNGGA,100110.50,3525.83090626,N,12140.91252637,W,2,10,1.2,5.183,M,-37.555,M,7.4,0135*64
$PYRTM,2024,124.417482552836,15.527129962986
$GNHDT,340.005,T*29
$PYRTM,2024,124.417488393762,15.527135803900
$GNGGA,100111.00,3525.83127068,N,12140.91285295,W,2,10,1.2,5.151,M,-37.555,M,7.0,0135*6C
$PYRTM,2024,124.417488393762,15.527135803900
$GNHDT,340.169,T*22
$PYRTM,2024,124.417494132523,15.527141542674
$GNGGA,100111.50,3525.83166066,N,12140.91311408,W,2,10,1.2,5.153,M,-37.555,M,7.4,0135*6A
$PYRTM,2024,124.417494132523,15.527141542674
$GNHDT,340.290,T*27
$PYRTM,2024,124.417499968206,15.527147378345
$GNGGA,100112.00,3525.83207976,N,12140.91330510,W,2,10,1.2,5.202,M,-37.555,M,7.0,0135*68
$PYRTM,2024,124.417499968206,15.527147378345
$GNHDT,340.228,T*24
$PYRTM,2024,124.417505703634,15.527153113773
$GNGGA,100112.50,3525.83252809,N,12140.91344358,W,2,10,1.2,5.278,M,-37.555,M,7.4,0135*64
$PYRTM,2024,124.417505703634,15.527153113773
$GNHDT,339.737,T*21
$PYRTM,2024,124.417511544398,15.527158954537
$GNGGA,100113.00,3525.83298196,N,12140.91356165,W,2,10,1.2,5.377,M,-37.555,M,4.0,0135*6F
$PYRTM,2024,124.417511544398,15.527158954537
$GNHDT,339.425,T*21
$PYRTM,2024,124.417517276794,15.527164686933
$GNGGA,100113.50,3525.83341292,N,12140.91371927,W,2,10,1.2,5.503,M,-37.555,M,4.4,0135*62
$PYRTM,2024,124.417517276794,15.527164686933
$GNHDT,339.466,T*26
$PYRTM,2024,124.417523120799,15.527170530938
$GNGGA,100114.00,3525.83379499,N,12140.91394646,W,2,10,1.2,5.658,M,-37.555,M,5.0,0135*6D
$PYRTM,2024,124.417523120799,15.527170530938
$GNHDT,339.628,T*2E
$PYRTM,2024,124.417528855440,15.527176265579
$GNGGA,100114.50,3525.83414158,N,12140.91425969,W,2,10,1.2,5.821,M,-37.555,M,5.4,0135*67
$PYRTM,2024,124.417528855440,15.527176265579
$GNHDT,340.150,T*28
$PYRTM,2024,124.417534696400,15.527182106539
$GNGGA,100115.00,3525.83448403,N,12140.91464541,W,2,10,1.2,5.886,M,-37.555,M,6.0,0135*68
$PYRTM,2024,124.417534696400,15.527182106539
$GNHDT,340.174,T*2E
$PYRTM,2024,124.417540423356,15.527187833495
$GNGGA,100115.50,3525.83486196,N,12140.91507969,W,2,10,1.2,5.779,M,-37.555,M,6.4,0135*6F
$PYRTM,2024,124.417540423356,15.527187833495
$GNHDT,339.760,T*23
$PYRTM,2024,124.417546268715,15.527193678854
$GNGGA,100116.00,3525.83528830,N,12140.91550752,W,2,10,1.2,5.528,M,-37.555,M,7.0,0135*6E
$PYRTM,2024,124.417546268715,15.527193678854
$GNHDT,339.456,T*25
$PYRTM,2024,124.417552002419,15.527199412558
$GNGGA,100116.50,3525.83575525,N,12140.91587627,W,2,10,1.2,5.235,M,-37.555,M,7.4,0135*6C
$PYRTM,2024,124.417552002419,15.527199412558
$GNHDT,339.263,T*25
$PYRTM,2024,124.417557841366,15.527205251505
$GNGGA,100117.00,3525.83622011,N,12140.91615727,W,2,10,1.2,5.062,M,-37.555,M,7.0,0135*66
$PYRTM,2024,124.417557841366,15.527205251505
$GNHDT,339.303,T*22
$PYRTM,2024,124.417563573657,15.527210983796
$GNGGA,100117.50,3525.83665786,N,12140.91635636,W,2,10,1.2,5.139,M,-37.555,M,7.4,0135*61
$PYRTM,2024,124.417563573657,15.527210983796
$GNHDT,339.146,T*21
$PYRTM,2024,124.417569421991,15.527216832130
$GNGGA,100118.00,3525.83706098,N,12140.91650842,W,2,10,1.2,5.474,M,-37.555,M,7.0,0135*61
$PYRTM,2024,124.417569421991,15.527216832130
$GNHDT,339.231,T*22
$PYRTM,2024,124.417575152998,15.527222563137
$GNGGA,100118.50,3525.83746387,N,12140.91666666,W,2,10,1.2,5.888,M,-37.555,M,7.4,0135*6B
$PYRTM,2024,124.417575152998,15.527222563137
$GNHDT,339.080,T*2A
$PYRTM,2024,124.417580989780,15.527228399919
$GNGGA,100119.00,3525.83790060,N,12140.91689499,W,2,10,1.2,6.208,M,-37.555,M,4.0,0135*6B
$PYRTM,2024,124.417580989780,15.527228399919
$GNHDT,338.903,T*29
$PYRTM,2024,124.417586724294,15.527234134433
$GNGGA,100119.50,3525.83838340,N,12140.91720392,W,2,10,1.2,6.281,M,-37.555,M,4.4,0135*69
$PYRTM,2024,124.417586724294,15.527234134433
$GNHDT,338.343,T*27
$PYRTM,2024,124.417592568900,15.527239979039
$GNGGA,100120.00,3525.83889989,N,12140.91758076,W,2,10,1.2,6.093,M,-37.555,M,5.0,0135*61
$PYRTM,2024,124.417592568900,15.527239979039
$GNHDT,338.481,T*2E
$PYRTM,2024,124.417598302940,15.527245713090
$GNGGA,100120.50,3525.83942721,N,12140.91797028,W,2,10,1.2,5.787,M,-37.555,M,5.4,0135*63
$PYRTM,2024,124.417598302940,15.527245713090
$GNHDT,338.820,T*29
$PYRTM,2024,124.417604139803,15.527251549942
$GNGGA,100121.00,3525.83993541,N,12140.91834098,W,2,10,1.2,5.520,M,-37.555,M,6.0,0135*6A
$PYRTM,2024,124.417604139803,15.527251549942
$GNHDT,338.915,T*2E
$PYRTM,2024,124.417609870567,15.527257280706
$GNGGA,100121.50,3525.84039647,N,12140.91866368,W,2,10,1.2,5.436,M,-37.555,M,6.4,0135*6D
$PYRTM,2024,124.417609870567,15.527257280706
$GNHDT,338.888,T*2B
$PYRTM,2024,124.417615715880,15.527263126019
$GNGGA,100122.00,3525.84078532,N,12140.91892256,W,2,10,1.2,5.604,M,-37.555,M,7.0,0135*6E
$PYRTM,2024,124.417615715880,15.527263126019
$GNHDT,338.692,T*2E
$PYRTM,2024,124.417621442963,15.527268853102
$GNGGA,100122.50,3525.84111778,N,12140.91914702,W,2,10,1.2,5.957,M,-37.555,M,7.4,0135*6F
$PYRTM,2024,124.417621442963,15.527268853102
$GNHDT,338.642,T*23
$PYRTM,2024,124.417627285521,15.527274695660
$GNGGA,100123.00,3525.84142663,N,12140.91937513,W,2,10,1.2,6.360,M,-37.555,M,7.0,0135*6C
$PYRTM,2024,124.417627285521,15.527274695660
$GNHDT,338.398,T*21
$PYRTM,2024,124.417633018403,15.527280428542
$GNGGA,100123.50,3525.84177635,N,12140.91963718,W,2,10,1.2,6.600,M,-37.555,M,7.4,0135*63
$PYRTM,2024,124.417633018403,15.527280428542
$GNHDT,338.170,T*25
$PYRTM,2024,124.417638871007,15.527286281146
$GNGGA,100124.00,3525.84220240,N,12140.91993186,W,2,10,1.2,6.568,M,-37.555,M,7.0,0135*61
$PYRTM,2024,124.417638871007,15.527286281146
$GNHDT,337.927,T*20
$PYRTM,2024,124.417644595150,15.527292005289
$GNGGA,100124.50,3525.84268989,N,12140.92023705,W,2,10,1.2,6.248,M,-37.555,M,7.4,0135*6B
$PYRTM,2024,124.417644595150,15.527292005289
$GNHDT,338.050,T*26
$PYRTM,2024,124.417650429363,15.527297839502
$GNGGA,100125.00,3525.84320678,N,12140.92055092,W,2,10,1.2,5.731,M,-37.555,M,4.0,0135*64
$PYRTM,2024,124.417650429363,15.527297839502
$GNHDT,337.711,T*2B
$PYRTM,2024,124.417656169826,15.527303579965
$GNGGA,100125.50,3525.84370919,N,12140.92088559,W,2,10,1.2,5.176,M,-37.555,M,4.4,0135*6F
$PYRTM,2024,124.417656169826,15.527303579965
$GNHDT,337.789,T*2A
$PYRTM,2024,124.417662004479,15.527309414618
$GNGGA,100126.00,3525.84417092,N,12140.92122968,W,2,10,1.2,4.770,M,-37.555,M,5.0,0135*6E
$PYRTM,2024,124.417662004479,15.527309414618
$GNHDT,337.603,T*29
$PYRTM,2024,124.417667744144,15.527315154282
$GNGGA,100126.50,3525.84457736,N,12140.92159215,W,2,10,1.2,4.645,M,-37.555,M,5.4,0135*68
$PYRTM,2024,124.417667744144,15.527315154282
$GNHDT,337.428,T*22
$PYRTM,2024,124.417673581632,15.527320991771
$GNGGA,100127.00,3525.84493405,N,12140.92192803,W,2,10,1.2,4.844,M,-37.555,M,6.0,0135*65
$PYRTM,2024,124.417673581632,15.527320991771
$GNHDT,337.617,T*2C
$PYRTM,2024,124.417679324387,15.527326734525
$GNGGA,100127.50,3525.84526406,N,12140.92224608,W,2,10,1.2,5.209,M,-37.555,M,6.4,0135*61
$PYRTM,2024,124.417679324387,15.527326734525
$GNHDT,337.810,T*25
$PYRTM,2024,124.417685158426,15.527332568565
$GNGGA,100128.00,3525.84557424,N,12140.92253254,W,2,10,1.2,5.697,M,-37.555,M,7.0,0135*66
$PYRTM,2024,124.417685158426,15.527332568565
$GNHDT,337.871,T*22
$PYRTM,2024,124.417690888461,15.527338298600
$GNGGA,100128.50,3525.84589310,N,12140.92277640,W,2,10,1.2,6.210,M,-37.555,M,7.4,0135*6B
$PYRTM,2024,124.417690888461,15.527338298600
$GNHDT,337.925,T*22
$PYRTM,2024,124.417696733113,15.527344143252
$GNGGA,100129.00,3525.84626323,N,12140.92299294,W,2,10,1.2,6.553,M,-37.555,M,7.0,0135*60
$PYRTM,2024,124.417696733113,15.527344143252
$GNHDT,338.113,T*20
$PYRTM,2024,124.417702462569,15.527349872708
$GNGGA,100129.50,3525.84670491,N,12140.92319720,W,2,10,1.2,6.595,M,-37.555,M,7.4,0135*65
$PYRTM,2024,124.417702462569,15.527349872708
$GNHDT,338.186,T*2C
$PYRTM,2024,124.417708306227,15.527355716366
$GNGGA,100130.00,3525.84718495,N,12140.92342849,W,2,10,1.2,6.317,M,-37.555,M,7.0,0135*65
$PYRTM,2024,124.417708306227,15.527355716366
$GNHDT,337.879,T*2A
$PYRTM,2024,124.417714040498,15.527361450648
$GNGGA,100130.50,3525.84765814,N,12140.92372808,W,2,10,1.2,5.825,M,-37.555,M,7.4,0135*64
$PYRTM,2024,124.417714040498,15.527361450648
$GNHDT,337.838,T*2F
$PYRTM,2024,124.417719878588,15.527367288727
$GNGGA,100131.00,3525.84811372,N,12140.92409999,W,2,10,1.2,5.233,M,-37.555,M,4.0,0135*6F
$PYRTM,2024,124.417719878588,15.527367288727
$GNHDT,337.709,T*22
$PYRTM,2024,124.417725612731,15.527373022870
$GNGGA,100131.50,3525.84853937,N,12140.92452988,W,2,10,1.2,4.758,M,-37.555,M,4.4,0135*64
$PYRTM,2024,124.417725612731,15.527373022870
$GNHDT,337.354,T*2E
$PYRTM,2024,124.417731454352,15.527378864502
$GNGGA,100132.00,3525.84891920,N,12140.92497487,W,2,10,1.2,4.581,M,-37.555,M,5.0,0135*62
$PYRTM,2024,124.417731454352,15.527378864502
$GNHDT,337.166,T*2D
$PYRTM,2024,124.417737182315,15.527384592454
$GNGGA,100132.50,3525.84927193,N,12140.92539043,W,2,10,1.2,4.697,M,-37.555,M,5.4,0135*62
$PYRTM,2024,124.417737182315,15.527384592454
$GNHDT,337.108,T*25
$PYRTM,2024,124.417743028553,15.527390438692
$GNGGA,100133.00,3525.84961794,N,12140.92572399,W,2,10,1.2,5.080,M,-37.555,M,6.0,0135*68
$PYRTM,2024,124.417743028553,15.527390438692
$GNHDT,337.285,T*23
$PYRTM,2024,124.417748765579,15.527396175718
$GNGGA,100133.50,3525.84998970,N,12140.92596152,W,2,10,1.2,5.571,M,-37.555,M,6.4,0135*6F
$PYRTM,2024,124.417748765579,15.527396175718
$GNHDT,337.151,T*29
$PYRTM,2024,124.417754603738,15.527402013877
$GNGGA,100134.00,3525.85040688,N,12140.92613191,W,2,10,1.2,6.040,M,-37.555,M,7.0,0135*68
$PYRTM,2024,124.417754603738,15.527402013877
$GNHDT,337.282,T*24
$PYRTM,2024,124.417760338970,15.527407749109
$GNGGA,100134.50,3525.85088509,N,12140.92630182,W,2,10,1.2,6.307,M,-37.555,M,7.4,0135*64
$PYRTM,2024,124.417760338970,15.527407749109
$GNHDT,337.495,T*24
$PYRTM,2024,124.417766172072,15.527413582211
$GNGGA,100135.00,3525.85140728,N,12140.92651391,W,2,10,1.2,6.330,M,-37.555,M,7.0,0135*63
$PYRTM,2024,124.417766172072,15.527413582211
$GNHDT,337.558,T*24
$PYRTM,2024,124.417771915081,15.527419325220
$GNGGA,100135.50,3525.85192194,N,12140.92679253,W,2,10,1.2,6.144,M,-37.555,M,7.4,0135*68
$PYRTM,2024,124.417771915081,15.527419325220
$GNHDT,337.848,T*28
$PYRTM,2024,124.417777747917,15.527425158056
$GNGGA,100136.00,3525.85241342,N,12140.92712221,W,2,10,1.2,5.912,M,-37.555,M,7.0,0135*6F
$PYRTM,2024,124.417777747917,15.527425158056
$GNHDT,337.910,T*24
$PYRTM,2024,124.417783489132,15.527430899271
$GNGGA,100136.50,3525.85284743,N,12140.92749769,W,2,10,1.2,5.760,M,-37.555,M,7.4,0135*6E
$PYRTM,2024,124.417783489132,15.527430899271
$GNHDT,337.899,T*24
$PYRTM,2024,124.417789324178,15.527436734317
$GNGGA,100137.00,3525.85323358,N,12140.92789677,W,2,10,1.2,5.740,M,-37.555,M,4.0,0135*6F
$PYRTM,2024,124.417789324178,15.527436734317
$GNHDT,337.766,T*2B
$PYRTM,2024,124.417795053993,15.527442464132
$GNGGA,100137.50,3525.85359671,N,12140.92830080,W,2,10,1.2,5.833,M,-37.555,M,4.4,0135*65
$PYRTM,2024,124.417795053993,15.527442464132
$GNHDT,337.406,T*2E
$PYRTM,2024,124.417800897350,15.527448307488
$GNGGA,100138.00,3525.85397243,N,12140.92867318,W,2,10,1.2,5.971,M,-37.555,M,5.0,0135*6A
$PYRTM,2024,124.417800897350,15.527448307488
$GNHDT,337.272,T*2B
$PYRTM,2024,124.417806630324,15.527454040475
$GNGGA,100138.50,3525.85439265,N,12140.92901657,W,2,10,1.2,6.036,M,-37.555,M,5.4,0135*6A
$PYRTM,2024,124.417806630324,15.527454040475
$GNHDT,337.294,T*23
$PYRTM,2024,124.417812472569,15.527459882720
$GNGGA,100139.00,3525.85487002,N,12140.92932068,W,2,10,1.2,5.971,M,-37.555,M,6.0,0135*6C
$PYRTM,2024,124.417812472569,15.527459882720
$GNHDT,337.200,T*2E
$PYRTM,2024,124.417818205000,15.527465615139
$GNGGA,100139.50,3525.85539304,N,12140.92959415,W,2,10,1.2,5.820,M,-37.555,M,6.4,0135*6A
$PYRTM,2024,124.417818205000,15.527465615139
$GNHDT,337.197,T*23
$PYRTM,2024,124.417824043345,15.527471453484
$GNGGA,100140.00,3525.85591258,N,12140.92983044,W,2,10,1.2,5.700,M,-37.555,M,7.0,0135*64
$PYRTM,2024,124.417824043345,15.527471453484
$GNHDT,337.095,T*20
$PYRTM,2024,124.417829776111,15.527477186250
$GNGGA,100140.50,3525.85639328,N,12140.93004455,W,2,10,1.2,5.674,M,-37.555,M,7.4,0135*63
$PYRTM,2024,124.417829776111,15.527477186250
$GNHDT,337.273,T*2A
$PYRTM,2024,124.417835615174,15.527483025312
$GNGGA,100141.00,3525.85683625,N,12140.93027366,W,2,10,1.2,5.745,M,-37.555,M,7.0,0135*6F
$PYRTM,2024,124.417835615174,15.527483025312
$GNHDT,337.582,T*23
$PYRTM,2024,124.417841349988,15.527488760127
$GNGGA,100141.50,3525.85727059,N,12140.93055662,W,2,10,1.2,5.845,M,-37.555,M,7.4,0135*67
$PYRTM,2024,124.417841349988,15.527488760127
$GNHDT,337.553,T*2F
$PYRTM,2024,124.417847192963,15.527494603102
$GNGGA,100142.00,3525.85773057,N,12140.93092368,W,2,10,1.2,5.837,M,-37.555,M,7.0,0135*6B
$PYRTM,2024,124.417847192963,15.527494603102
$GNHDT,337.422,T*28
$PYRTM,2024,124.417852928322,15.527500338472
$GNGGA,100142.50,3525.85820114,N,12140.93136203,W,2,10,1.2,5.730,M,-37.555,M,7.4,0135*6E
$PYRTM,2024,124.417852928322,15.527500338472
$GNHDT,337.390,T*26
$PYRTM,2024,124.417858770926,15.527506181065
$GNGGA,100143.00,3525.85864667,N,12140.93181192,W,2,10,1.2,5.580,M,-37.555,M,4.0,0135*60
$PYRTM,2024,124.417858770926,15.527506181065
$GNHDT,337.291,T*26
$PYRTM,2024,124.417864501157,15.527511911296
$GNGGA,100143.50,3525.85906545,N,12140.93223993,W,2,10,1.2,5.467,M,-37.555,M,4.4,0135*6D
$PYRTM,2024,124.417864501157,15.527511911296
$GNHDT,337.296,T*21
$PYRTM,2024,124.417870346435,15.527517756574
$GNGGA,100144.00,3525.85945707,N,12140.93260976,W,2,10,1.2,5.439,M,-37.555,M,5.0,0135*6E
$PYRTM,2024,124.417870346435,15.527517756574
$GNHDT,337.843,T*23
$PYRTM,2024,124.417876073889,15.527523484039
$GNGGA,100144.50,3525.85985076,N,12140.93292132,W,2,10,1.2,5.469,M,-37.555,M,5.4,0135*62
$PYRTM,2024,124.417876073889,15.527523484039
$GNHDT,337.883,T*2F
$PYRTM,2024,124.417881916644,15.527529326782
$GNGGA,100145.00,3525.86024570,N,12140.93318195,W,2,10,1.2,5.553,M,-37.555,M,6.0,0135*65
$PYRTM,2024,124.417881916644,15.527529326782
$GNHDT,337.879,T*2A
$PYRTM,2024,124.417887648380,15.527535058519
$GNGGA,100145.50,3525.86065253,N,12140.93342394,W,2,10,1.2,5.620,M,-37.555,M,6.4,0135*6C
$PYRTM,2024,124.417887648380,15.527535058519
$GNHDT,337.483,T*23
$PYRTM,2024,124.417893486412,15.527540896551
$GNGGA,100146.00,3525.86106454,N,12140.93364929,W,2,10,1.2,5.700,M,-37.555,M,7.0,0135*61
$PYRTM,2024,124.417893486412,15.527540896551
$GNHDT,337.314,T*2A
$PYRTM,2024,124.417899221759,15.527546631898
$GNGGA,100146.50,3525.86150321,N,12140.93389020,W,2,10,1.2,5.718,M,-37.555,M,7.4,0135*6C
$PYRTM,2024,124.417899221759,15.527546631898
$GNHDT,337.308,T*27
$PYRTM,2024,124.417905066863,15.527552477002
$GNGGA,100147.00,3525.86197831,N,12140.93415970,W,2,10,1.2,5.593,M,-37.555,M,7.0,0135*62
$PYRTM,2024,124.417905066863,15.527552477002
$GNHDT,337.337,T*2B
$PYRTM,2024,124.417910801505,15.527558211644
$GNGGA,100147.50,3525.86248817,N,12140.93448376,W,2,10,1.2,5.367,M,-37.555,M,7.4,0135*6F
$PYRTM,2024,124.417910801505,15.527558211644
$GNHDT,337.684,T*26
$PYRTM,2024,124.417916636516,15.527564046655
$GNGGA,100148.00,3525.86299669,N,12140.93487505,W,2,10,1.2,5.138,M,-37.555,M,7.0,0135*63
$PYRTM,2024,124.417916636516,15.527564046655
$GNHDT,337.592,T*22
$PYRTM,2024,124.417922372419,15.527569782558
$GNGGA,100148.50,3525.86345844,N,12140.93529154,W,2,10,1.2,5.074,M,-37.555,M,7.4,0135*6F
$PYRTM,2024,124.417922372419,15.527569782558
$GNHDT,337.427,T*2D
$PYRTM,2024,124.417928210856,15.527575620995
$GNGGA,100149.00,3525.86384070,N,12140.93572862,W,2,10,1.2,5.253,M,-37.555,M,4.0,0135*6B
$PYRTM,2024,124.417928210856,15.527575620995
$GNHDT,337.313,T*2D
$PYRTM,2024,124.417933950637,15.527581360775
$GNGGA,100149.50,3525.86414921,N,12140.93613164,W,2,10,1.2,5.643,M,-37.555,M,4.4,0135*67
$PYRTM,2024,124.417933950637,15.527581360775
$GNHDT,337.037,T*28
$PYRTM,2024,124.417939789514,15.527587199653
$GNGGA,100150.00,3525.86443665,N,12140.93650665,W,2,10,1.2,6.081,M,-37.555,M,5.0,0135*68
$PYRTM,2024,124.417939789514,15.527587199653
$GNHDT,336.547,T*2B
$PYRTM,2024,124.417945517859,15.527592927998
$GNGGA,100150.50,3525.86479624,N,12140.93684858,W,2,10,1.2,6.364,M,-37.555,M,5.4,0135*64
$PYRTM,2024,124.417945517859,15.527592927998
$GNHDT,336.905,T*21
$PYRTM,2024,124.417951366100,15.527598776238
$GNGGA,100151.00,3525.86527106,N,12140.93717153,W,2,10,1.2,6.316,M,-37.555,M,6.0,0135*66
$PYRTM,2024,124.417951366100,15.527598776238
$GNHDT,336.906,T*22
$PYRTM,2024,124.417957096076,15.527604506215
$GNGGA,100151.50,3525.86582158,N,12140.93745120,W,2,10,1.2,6.024,M,-37.555,M,6.4,0135*62
$PYRTM,2024,124.417957096076,15.527604506215
$GNHDT,337.095,T*20
$PYRTM,2024,124.417962935104,15.527610345255
$GNGGA,100152.00,3525.86637296,N,12140.93769863,W,2,10,1.2,5.666,M,-37.555,M,7.0,0135*6E
$PYRTM,2024,124.417962935104,15.527610345255
$GNHDT,337.050,T*29
$PYRTM,2024,124.417968664792,15.527616074931
$GNGGA,100152.50,3525.86687303,N,12140.93793353,W,2,10,1.2,5.354,M,-37.555,M,7.4,0135*60
$PYRTM,2024,124.417968664792,15.527616074931
$GNHDT,337.102,T*2F
$PYRTM,2024,124.417974505532,15.527621915671
$GNGGA,100153.00,3525.86728158,N,12140.93818411,W,2,10,1.2,5.291,M,-37.555,M,7.0,0135*6D
$PYRTM,2024,124.417974505532,15.527621915671
$GNHDT,337.073,T*28
$PYRTM,2024,124.417980241169,15.527627651319
$GNGGA,100153.50,3525.86763551,N,12140.93849474,W,2,10,1.2,5.437,M,-37.555,M,7.4,0135*63
$PYRTM,2024,124.417980241169,15.527627651319
$GNHDT,336.928,T*2E
$PYRTM,2024,124.417986080208,15.527633490359
$GNGGA,100154.00,3525.86798362,N,12140.93887405,W,2,10,1.2,5.700,M,-37.555,M,7.0,0135*64
$PYRTM,2024,124.417986080208,15.527633490359
$GNHDT,336.529,T*23
$PYRTM,2024,124.417991817257,15.527639227396
$GNGGA,100154.50,3525.86836969,N,12140.93930884,W,2,10,1.2,5.897,M,-37.555,M,7.4,0135*66
$PYRTM,2024,124.417991817257,15.527639227396
$GNHDT,336.453,T*2F
$PYRTM,2024,124.417997657211,15.527645067350
$GNGGA,100155.00,3525.86879924,N,12140.93975785,W,2,10,1.2,6.021,M,-37.555,M,4.0,0135*6E
$PYRTM,2024,124.417997657211,15.527645067350
$GNHDT,336.249,T*22
$PYRTM,2024,124.418003389803,15.527650799942
$GNGGA,100155.50,3525.86925372,N,12140.94018609,W,2,10,1.2,6.054,M,-37.555,M,4.4,0135*6C
$PYRTM,2024,124.418003389803,15.527650799942
$GNHDT,336.201,T*2E
$PYRTM,2024,124.418009238044,15.527656648183
$GNGGA,100156.00,3525.86971264,N,12140.94055380,W,2,10,1.2,6.050,M,-37.555,M,5.0,0135*61
$PYRTM,2024,124.418009238044,15.527656648183
$GNHDT,336.306,T*28
$PYRTM,2024,124.418014962199,15.527662372338
$GNGGA,100156.50,3525.87016249,N,12140.94086478,W,2,10,1.2,6.025,M,-37.555,M,5.4,0135*6A
$PYRTM,2024,124.418014962199,15.527662372338
$GNHDT,336.308,T*26
$PYRTM,2024,124.418020803102,15.527668213241
$GNGGA,100157.00,3525.87059923,N,12140.94113354,W,2,10,1.2,5.987,M,-37.555,M,6.0,0135*63
$PYRTM,2024,124.418020803102,15.527668213241
$GNHDT,336.263,T*2A
$PYRTM,2024,124.418026542674,15.527673952812
$GNGGA,100157.50,3525.87103459,N,12140.94136098,W,2,10,1.2,5.948,M,-37.555,M,6.4,0135*6B
$PYRTM,2024,124.418026542674,15.527673952812
$GNHDT,336.335,T*28
$PYRTM,2024,124.418032379757,15.527679789896
$GNGGA,100158.00,3525.87148725,N,12140.94158336,W,2,10,1.2,5.847,M,-37.555,M,7.0,0135*62
$PYRTM,2024,124.418032379757,15.527679789896
$GNHDT,336.465,T*2A
$PYRTM,2024,124.418038112130,15.527685522269
$GNGGA,100158.50,3525.87195622,N,12140.94184508,W,2,10,1.2,5.690,M,-37.555,M,7.4,0135*6B
$PYRTM,2024,124.418038112130,15.527685522269
$GNHDT,336.610,T*2A
$PYRTM,2024,124.418043953692,15.527691363831
$GNGGA,100159.00,3525.87242423,N,12140.94217732,W,2,10,1.2,5.544,M,-37.555,M,7.0,0135*69
$PYRTM,2024,124.418043953692,15.527691363831
$GNHDT,336.553,T*2E
$PYRTM,2024,124.418049684201,15.527697094340
$GNGGA,100159.50,3525.87286753,N,12140.94257070,W,2,10,1.2,5.466,M,-37.555,M,7.4,0135*60
$PYRTM,2024,124.418049684201,15.527697094340
$GNHDT,336.696,T*24
$PYRTM,2024,124.418055525602,15.527702935741
$GNGGA,100200.00,3525.87325892,N,12140.94299738,W,2,10,1.2,5.540,M,-37.555,M,7.0,0135*68
$PYRTM,2024,124.418055525602,15.527702935741
$GNHDT,336.773,T*2E
$PYRTM,2024,124.418061261991,15.527708672130
$GNGGA,100200.50,3525.87361509,N,12140.94341457,W,2,10,1.2,5.745,M,-37.555,M,7.4,0135*6F
$PYRTM,2024,124.418061261991,15.527708672130
$GNHDT,336.975,T*26
$PYRTM,2024,124.418067104063,15.527714514201
$GNGGA,100201.00,3525.87396187,N,12140.94380285,W,2,10,1.2,6.009,M,-37.555,M,4.0,0135*6E
$PYRTM,2024,124.418067104063,15.527714514201
$GNHDT,336.997,T*2A
$PYRTM,2024,124.418072833935,15.527720244074
$GNGGA,100201.50,3525.87435068,N,12140.94415465,W,2,10,1.2,6.179,M,-37.555,M,4.4,0135*64
$PYRTM,2024,124.418072833935,15.527720244074
$GNHDT,336.690,T*22
$PYRTM,2024,124.418078678484,15.527726088634
$GNGGA,100202.00,3525.87480894,N,12140.94447898,W,2,10,1.2,6.137,M,-37.555,M,5.0,0135*61
$PYRTM,2024,124.418078678484,15.527726088634
$GNHDT,336.722,T*2A
$PYRTM,2024,124.418084409225,15.527731819363
$GNGGA,100202.50,3525.87530371,N,12140.94477506,W,2,10,1.2,5.952,M,-37.555,M,5.4,0135*6B
$PYRTM,2024,124.418084409225,15.527731819363
$GNHDT,336.748,T*26
$PYRTM,2024,124.418090246308,15.527737656458
$GNGGA,100203.00,3525.87579344,N,12140.94504026,W,2,10,1.2,5.729,M,-37.555,M,6.0,0135*63
$PYRTM,2024,124.418090246308,15.527737656458
$GNHDT,336.870,T*22
$PYRTM,2024,124.418095981933,15.527743392083
$GNGGA,100203.50,3525.87625514,N,12140.94529656,W,2,10,1.2,5.576,M,-37.555,M,6.4,0135*6D
$PYRTM,2024,124.418095981933,15.527743392083
$GNHDT,336.994,T*29
$PYRTM,2024,124.418101826713,15.527749236852
$GNGGA,100204.00,3525.87668438,N,12140.94557668,W,2,10,1.2,5.518,M,-37.555,M,7.0,0135*60
$PYRTM,2024,124.418101826713,15.527749236852
$GNHDT,336.982,T*2E
$PYRTM,2024,124.418107554942,15.527754965081
$GNGGA,100204.50,3525.87710011,N,12140.94591463,W,2,10,1.2,5.514,M,-37.555,M,7.4,0135*6F
$PYRTM,2024,124.418107554942,15.527754965081
$GNHDT,337.054,T*2D
$PYRTM,2024,124.418113400394,15.527760810532
$GNGGA,100205.00,3525.87751615,N,12140.94632366,W,2,10,1.2,5.514,M,-37.555,M,7.0,0135*60
$PYRTM,2024,124.418113400394,15.527760810532
$GNHDT,336.907,T*23
$PYRTM,2024,124.418119131817,15.527766541956
$GNGGA,100205.50,3525.87794295,N,12140.94677318,W,2,10,1.2,5.492,M,-37.555,M,7.4,0135*63
$PYRTM,2024,124.418119131817,15.527766541956
$GNHDT,337.379,T*21
$PYRTM,2024,124.418124971111,15.527772381262
$GNGGA,100206.00,3525.87836749,N,12140.94721980,W,2,10,1.2,5.508,M,-37.555,M,7.0,0135*69
$PYRTM,2024,124.418124971111,15.527772381262
$GNHDT,337.650,T*2F
$PYRTM,2024,124.418130706331,15.527778116470
$GNGGA,100206.50,3525.87879790,N,12140.94761262,W,2,10,1.2,5.566,M,-37.555,M,7.4,0135*6C
$PYRTM,2024,124.418130706331,15.527778116470
$GNHDT,337.739,T*21
$PYRTM,2024,124.418136542685,15.527783952824
$GNGGA,100207.00,3525.87923272,N,12140.94792120,W,2,10,1.2,5.698,M,-37.555,M,4.0,0135*63
$PYRTM,2024,124.418136542685,15.527783952824
$GNHDT,338.111,T*22
$PYRTM,2024,124.418142280613,15.527789690752
$GNGGA,100207.50,3525.87969010,N,12140.94816396,W,2,10,1.2,5.840,M,-37.555,M,4.4,0135*6D
$PYRTM,2024,124.418142280613,15.527789690752
$GNHDT,338.107,T*25
$PYRTM,2024,124.418148124850,15.527795535000
$GNGGA,100208.00,3525.88016960,N,12140.94839909,W,2,10,1.2,5.955,M,-37.555,M,5.0,0135*66
$PYRTM,2024,124.418148124850,15.527795535000
$GNHDT,337.785,T*26
$PYRTM,2024,124.418153856944,15.527801267083
$GNGGA,100208.50,3525.88065697,N,12140.94866424,W,2,10,1.2,6.022,M,-37.555,M,5.4,0135*66
$PYRTM,2024,124.418153856944,15.527801267083
$GNHDT,337.306,T*29
$PYRTM,2024,124.418159693472,15.527807103611
$GNGGA,100209.00,3525.88112809,N,12140.94898708,W,2,10,1.2,6.025,M,-37.555,M,6.0,0135*66
$PYRTM,2024,124.418159693472,15.527807103611
$GNHDT,337.008,T*24
$PYRTM,2024,124.418165425278,15.527812835417
$GNGGA,100209.50,3525.88156824,N,12140.94935669,W,2,10,1.2,5.990,M,-37.555,M,6.4,0135*6C
$PYRTM,2024,124.418165425278,15.527812835417
$GNHDT,337.369,T*20
$PYRTM,2024,124.418171272407,15.527818682535
$GNGGA,100210.00,3525.88198806,N,12140.94975763,W,2,10,1.2,5.921,M,-37.555,M,7.0,0135*63
$PYRTM,2024,124.418171272407,15.527818682535
$GNHDT,337.891,T*2C
$PYRTM,2024,124.418177004132,15.527824414271
$GNGGA,100210.50,3525.88242213,N,12140.95017134,W,2,10,1.2,5.820,M,-37.555,M,7.4,0135*60
$PYRTM,2024,124.418177004132,15.527824414271
$GNHDT,338.085,T*2E
$PYRTM,2024,124.418182840370,15.527830250509
$GNGGA,100211.00,3525.88289716,N,12140.95056142,W,2,10,1.2,5.671,M,-37.555,M,7.0,0135*69
$PYRTM,2024,124.418182840370,15.527830250509
$GNHDT,338.309,T*29
$PYRTM,2024,124.418188572940,15.527835983079
$GNGGA,100211.50,3525.88341186,N,12140.95091097,W,2,10,1.2,5.535,M,-37.555,M,7.4,0135*63
$PYRTM,2024,124.418188572940,15.527835983079
$GNHDT,338.552,T*21
$PYRTM,2024,124.418194419988,15.527841830127
$GNGGA,100212.00,3525.88393704,N,12140.95119636,W,2,10,1.2,5.462,M,-37.555,M,7.0,0135*6D
$PYRTM,2024,124.418194419988,15.527841830127
$GNHDT,338.162,T*26
$PYRTM,2024,124.418200153125,15.527847563264
$GNGGA,100212.50,3525.88443238,N,12140.95143330,W,2,10,1.2,5.565,M,-37.555,M,7.4,0135*66
$PYRTM,2024,124.418200153125,15.527847563264
$GNHDT,338.317,T*26
$PYRTM,2024,124.418205993009,15.527853403148
$GNGGA,100213.00,3525.88486501,N,12140.95167429,W,2,10,1.2,5.832,M,-37.555,M,4.0,0135*67
$PYRTM,2024,124.418205993009,15.527853403148
$GNHDT,338.245,T*20
$PYRTM,2024,124.418211726435,15.527859136574
$GNGGA,100213.50,3525.88526468,N,12140.95195261,W,2,10,1.2,6.182,M,-37.555,M,4.4,0135*65
$PYRTM,2024,124.418211726435,15.527859136574
$GNHDT,337.856,T*27
$PYRTM,2024,124.418217567407,15.527864977558
$GNGGA,100214.00,3525.88567914,N,12140.95227218,W,2,10,1.2,6.472,M,-37.555,M,5.0,0135*6F
$PYRTM,2024,124.418217567407,15.527864977558
$GNHDT,337.981,T*2C
$PYRTM,2024,124.418223296539,15.527870706678
$GNGGA,100214.50,3525.88613736,N,12140.95262680,W,2,10,1.2,6.571,M,-37.555,M,5.4,0135*66
$PYRTM,2024,124.418223296539,15.527870706678
$GNHDT,338.182,T*28
$PYRTM,2024,124.418229139931,15.527876550069
$GNGGA,100215.00,3525.88665083,N,12140.95299870,W,2,10,1.2,6.400,M,-37.555,M,6.0,0135*6F
$PYRTM,2024,124.418229139931,15.527876550069
$GNHDT,338.296,T*2E
$PYRTM,2024,124.418234880336,15.527882290475
$GNGGA,100215.50,3525.88718401,N,12140.95337180,W,2,10,1.2,6.052,M,-37.555,M,6.4,0135*6B
$PYRTM,2024,124.418234880336,15.527882290475
$GNHDT,338.448,T*2B
$PYRTM,2024,124.418240710694,15.527888120845
$GNGGA,100216.00,3525.88771653,N,12140.95372532,W,2,10,1.2,5.647,M,-37.555,M,7.0,0135*6F
$PYRTM,2024,124.418240710694,15.527888120845
$GNHDT,338.251,T*25
$PYRTM,2024,124.418246446458,15.527893856597
$GNGGA,100216.50,3525.88820985,N,12140.95404382,W,2,10,1.2,5.360,M,-37.555,M,7.4,0135*6A
$PYRTM,2024,124.418246446458,15.527893856597
$GNHDT,338.651,T*21
$PYRTM,2024,124.418252284560,15.527899694699
$GNGGA,100217.00,3525.88865762,N,12140.95432663,W,2,10,1.2,5.282,M,-37.555,M,7.0,0135*6E
$PYRTM,2024,124.418252284560,15.527899694699
$GNHDT,338.916,T*2D
$PYRTM,2024,124.418258021644,15.527905431782
$GNGGA,100217.50,3525.88907585,N,12140.95459946,W,2,10,1.2,5.404,M,-37.555,M,7.4,0135*6C
$PYRTM,2024,124.418258021644,15.527905431782
$GNHDT,338.818,T*22
$PYRTM,2024,124.418263861377,15.527911271516
$GNGGA,100218.00,3525.88950535,N,12140.95487828,W,2,10,1.2,5.621,M,-37.555,M,7.0,0135*64
$PYRTM,2024,124.418263861377,15.527911271516
$GNHDT,338.922,T*2A
$PYRTM,2024,124.418269591748,15.527917001887
$GNGGA,100218.50,3525.88999179,N,12140.95519606,W,2,10,1.2,5.762,M,-37.555,M,7.4,0135*6E
$PYRTM,2024,124.418269591748,15.527917001887
$GNHDT,338.537,T*22
$PYRTM,2024,124.418275430937,15.527922841076
$GNGGA,100219.00,3525.89051232,N,12140.95552826,W,2,10,1.2,5.831,M,-37.555,M,4.0,0135*67
$PYRTM,2024,124.418275430937,15.527922841076
$GNHDT,338.416,T*20
$PYRTM,2024,124.418281167731,15.527928577870
$GNGGA,100219.50,3525.89100947,N,12140.95587018,W,2,10,1.2,5.897,M,-37.555,M,4.4,0135*6B
$PYRTM,2024,124.418281167731,15.527928577870
$GNHDT,338.516,T*21
$PYRTM,2024,124.418287010718,15.527934420856
$GNGGA,100220.00,3525.89144732,N,12140.95622330,W,2,10,1.2,6.009,M,-37.555,M,5.0,0135*64
$PYRTM,2024,124.418287010718,15.527934420856
$GNHDT,338.703,T*27
$PYRTM,2024,124.418292744618,15.527940154757
$GNGGA,100220.50,3525.89183434,N,12140.95659772,W,2,10,1.2,6.134,M,-37.555,M,5.4,0135*6A
$PYRTM,2024,124.418292744618,15.527940154757
$GNHDT,338.709,T*2D
$PYRTM,2024,124.418298585648,15.527945995787
$GNGGA,100221.00,3525.89222759,N,12140.95696803,W,2,10,1.2,6.159,M,-37.555,M,6.0,0135*68
$PYRTM,2024,124.418298585648,15.527945995787
$GNHDT,338.997,T*24
$PYRTM,2024,124.418304316794,15.527951726933
$GNGGA,100221.50,3525.89270832,N,12140.95731287,W,2,10,1.2,5.919,M,-37.555,M,6.4,0135*69
$PYRTM,2024,124.418304316794,15.527951726933
$GNHDT,339.071,T*24
$PYRTM,2024,124.418310155648,15.527957565787
$GNGGA,100222.00,3525.89325898,N,12140.95761602,W,2,10,1.2,5.495,M,-37.555,M,7.0,0135*6E
$PYRTM,2024,124.418310155648,15.527957565787
$GNHDT,339.103,T*20
$PYRTM,2024,124.418315887940,15.527963298079
$GNGGA,100222.50,3525.89380967,N,12140.95788369,W,2,10,1.2,5.092,M,-37.555,M,7.4,0135*6D
$PYRTM,2024,124.418315887940,15.527963298079
$GNHDT,339.143,T*24
$PYRTM,2024,124.418321732824,15.527969142963
$GNGGA,100223.00,3525.89429241,N,12140.95811673,W,2,10,1.2,4.966,M,-37.555,M,7.0,0135*64
$PYRTM,2024,124.418321732824,15.527969142963
$GNHDT,339.303,T*22
$PYRTM,2024,124.418327467917,15.527974878067
$GNGGA,100223.50,3525.89467607,N,12140.95833906,W,2,10,1.2,5.231,M,-37.555,M,7.4,0135*6C
$PYRTM,2024,124.418327467917,15.527974878067
$GNHDT,339.229,T*2B
$PYRTM,2024,124.418333307292,15.527980717431
$GNGGA,100224.00,3525.89499891,N,12140.95859597,W,2,10,1.2,5.685,M,-37.555,M,7.0,0135*69
$PYRTM,2024,124.418333307292,15.527980717431
$GNHDT,338.968,T*24
$PYRTM,2024,124.418339040741,15.527986450880
$GNGGA,100224.50,3525.89532270,N,12140.95889850,W,2,10,1.2,6.184,M,-37.555,M,7.4,0135*63
$PYRTM,2024,124.418339040741,15.527986450880
$GNHDT,339.274,T*23
$PYRTM,2024,124.418344880544,15.527992290694
$GNGGA,100225.00,3525.89570567,N,12140.95925940,W,2,10,1.2,6.484,M,-37.555,M,4.0,0135*65
$PYRTM,2024,124.418344880544,15.527992290694
$GNHDT,339.380,T*29
$PYRTM,2024,124.418350611123,15.527998021262
$GNGGA,100225.50,3525.89617656,N,12140.95963986,W,2,10,1.2,6.460,M,-37.555,M,4.4,0135*65
$PYRTM,2024,124.418350611123,15.527998021262
$GNHDT,339.421,T*25
$PYRTM,2024,124.418356458160,15.528003868299
$GNGGA,100226.00,3525.89671204,N,12140.95999010,W,2,10,1.2,6.148,M,-37.555,M,5.0,0135*69
$PYRTM,2024,124.418356458160,15.528003868299
$GNHDT,339.470,T*21
$PYRTM,2024,124.418362188368,15.528009598507
$GNGGA,100226.50,3525.89725526,N,12140.96029302,W,2,10,1.2,5.732,M,-37.555,M,5.4,0135*66
$PYRTM,2024,124.418362188368,15.528009598507
$GNHDT,339.861,T*2D
$PYRTM,2024,124.418368028924,15.528015439063
$GNGGA,100227.00,3525.89775574,N,12140.96054635,W,2,10,1.2,5.393,M,-37.555,M,6.0,0135*63
$PYRTM,2024,124.418368028924,15.528015439063
$GNHDT,339.870,T*2D
$PYRTM,2024,124.418373763762,15.528021173900
$GNGGA,100227.50,3525.89818505,N,12140.96077799,W,2,10,1.2,5.312,M,-37.555,M,6.4,0135*6F
$PYRTM,2024,124.418373763762,15.528021173900
$GNHDT,339.701,T*24
$PYRTM,2024,124.418379603669,15.528027013819
$GNGGA,100228.00,3525.89856251,N,12140.96099100,W,2,10,1.2,5.476,M,-37.555,M,7.0,0135*6F
$PYRTM,2024,124.418379603669,15.528027013819
$GNHDT,339.620,T*26
$PYRTM,2024,124.418385345972,15.528032756111
$GNGGA,100228.50,3525.89891382,N,12140.96123021,W,2,10,1.2,5.757,M,-37.555,M,7.4,0135*68
$PYRTM,2024,124.418385345972,15.528032756111
$GNHDT,339.133,T*23
$PYRTM,2024,124.418391177338,15.528038587488
$GNGGA,100229.00,3525.89928166,N,12140.96151652,W,2,10,1.2,6.008,M,-37.555,M,7.0,0135*6A
$PYRTM,2024,124.418391177338,15.528038587488
$GNHDT,339.490,T*2F
$PYRTM,2024,124.418396908229,15.528044318368
