$PYRTM,2024,123.916666956238,15.026314366377
$GNGGA,220000.00,3450.05604686,N,12120.39295094,W,2,13,0.8,7.411,M,-37.618,M,5.0,0135*64
$PYRTM,2024,123.916666956238,15.026314366377
$GNHDT,304.056,T*2F
$PYRTM,2024,123.916672684595,15.026320094734
$GNGGA,220000.50,3450.05642045,N,12120.39375510,W,2,13,0.8,7.230,M,-37.618,M,5.4,0135*6D
$PYRTM,2024,123.916672684595,15.026320094734
$GNHDT,303.670,T*2A
$PYRTM,2024,123.916678523218,15.026325933356
$GNGGA,220001.00,3450.05677208,N,12120.39456493,W,2,13,0.8,6.948,M,-37.618,M,6.0,0135*6A
$PYRTM,2024,123.916678523218,15.026325933356
$GNHDT,303.492,T*24
$PYRTM,2024,123.916684259340,15.026331669479
$GNGGA,220001.50,3450.05711680,N,12120.39534400,W,2,13,0.8,6.669,M,-37.618,M,6.4,0135*6D
$PYRTM,2024,123.916684259340,15.026331669479
$GNHDT,303.553,T*28
$PYRTM,2024,123.916690102164,15.026337512303
$GNGGA,220002.00,3450.05747901,N,12120.39606293,W,2,13,0.8,6.464,M,-37.618,M,7.0,0135*6A
$PYRTM,2024,123.916690102164,15.026337512303
$GNHDT,303.994,T*2F
$PYRTM,2024,123.916695833009,15.026343243148
$GNGGA,220002.50,3450.05784361,N,12120.39671495,W,2,13,0.8,6.429,M,-37.618,M,7.4,0135*61
$PYRTM,2024,123.916695833009,15.026343243148
$GNHDT,304.529,T*22
$PYRTM,2024,123.916701676007,15.026349086146
$GNGGA,220003.00,3450.05821372,N,12120.39733718,W,2,13,0.8,6.534,M,-37.618,M,7.0,0135*6F
$PYRTM,2024,123.916701676007,15.026349086146
$GNHDT,304.805,T*21
$PYRTM,2024,123.916707409468,15.026354819606
$GNGGA,220003.50,3450.05859858,N,12120.39796980,W,2,13,0.8,6.697,M,-37.618,M,7.4,0135*68
$PYRTM,2024,123.916707409468,15.026354819606
$GNHDT,305.189,T*2D
$PYRTM,2024,123.916713249363,15.026360659502
$GNGGA,220004.00,3450.05898173,N,12120.39863673,W,2,13,0.8,6.900,M,-37.618,M,7.0,0135*64
$PYRTM,2024,123.916713249363,15.026360659502
$GNHDT,304.998,T*24
$PYRTM,2024,123.916718980637,15.026366390775
$GNGGA,220004.50,3450.05934110,N,12120.39936188,W,2,13,0.8,7.063,M,-37.618,M,7.4,0135*68
$PYRTM,2024,123.916718980637,15.026366390775
$GNHDT,304.464,T*2A
$PYRTM,2024,123.916724822824,15.026372232975
$GNGGA,220005.00,3450.05966775,N,12120.40016497,W,2,13,0.8,7.132,M,-37.618,M,4.0,0135*62
$PYRTM,2024,123.916724822824,15.026372232975
$GNHDT,304.264,T*2C
$PYRTM,2024,123.916730555382,15.026377965521
$GNGGA,220005.50,3450.05998375,N,12120.40104186,W,2,13,0.8,7.035,M,-37.618,M,4.4,0135*67
$PYRTM,2024,123.916730555382,15.026377965521
$GNHDT,304.398,T*2E
$PYRTM,2024,123.916736400035,15.026383810185
$GNGGA,220006.00,3450.06030266,N,12120.40196948,W,2,13,0.8,6.751,M,-37.618,M,5.0,0135*6A
$PYRTM,2024,123.916736400035,15.026383810185
$GNHDT,304.821,T*27
$PYRTM,2024,123.916742131123,15.026389541262
$GNGGA,220006.50,3450.06065367,N,12120.40285873,W,2,13,0.8,6.419,M,-37.618,M,5.4,0135*6C
$PYRTM,2024,123.916742131123,15.026389541262
$GNHDT,305.277,T*2F
$PYRTM,2024,123.916747972662,15.026395382813
$GNGGA,220007.00,3450.06102851,N,12120.40363152,W,2,13,0.8,6.205,M,-37.618,M,6.0,0135*69
$PYRTM,2024,123.916747972662,15.026395382813
$GNHDT,305.340,T*2A
$PYRTM,2024,123.916753709815,15.026401119954
$GNGGA,220007.50,3450.06141436,N,12120.40424469,W,2,13,0.8,6.277,M,-37.618,M,6.4,0135*6E
$PYRTM,2024,123.916753709815,15.026401119954
$GNHDT,304.749,T*26
$PYRTM,2024,123.916759552546,15.026406962685
$GNGGA,220008.00,3450.06179903,N,12120.40476568,W,2,13,0.8,6.602,M,-37.618,M,7.0,0135*60
$PYRTM,2024,123.916759552546,15.026406962685
$GNHDT,304.742,T*2D
$PYRTM,2024,123.916765280741,15.026412690880
$GNGGA,220008.50,3450.06217529,N,12120.40528623,W,2,13,0.8,7.025,M,-37.618,M,7.4,0135*6A
$PYRTM,2024,123.916765280741,15.026412690880
$GNHDT,304.229,T*25
$PYRTM,2024,123.916771121701,15.026418531852
$GNGGA,220009.00,3450.06253730,N,12120.40589489,W,2,13,0.8,7.413,M,-37.618,M,7.0,0135*68
$PYRTM,2024,123.916771121701,15.026418531852
$GNHDT,303.918,T*2B
$PYRTM,2024,123.916776858310,15.026424268449
$GNGGA,220009.50,3450.06286948,N,12120.40665526,W,2,13,0.8,7.522,M,-37.618,M,7.4,0135*66
$PYRTM,2024,123.916776858310,15.026424268449
$GNHDT,304.003,T*2F
$PYRTM,2024,123.916782695139,15.026430105278
$GNGGA,220010.00,3450.06317764,N,12120.40754254,W,2,13,0.8,7.326,M,-37.618,M,7.0,0135*65
$PYRTM,2024,123.916782695139,15.026430105278
$GNHDT,303.924,T*24
$PYRTM,2024,123.916788429734,15.026435839873
$GNGGA,220010.50,3450.06349011,N,12120.40847439,W,2,13,0.8,6.840,M,-37.618,M,7.4,0135*60
$PYRTM,2024,123.916788429734,15.026435839873
$GNHDT,303.838,T*28
$PYRTM,2024,123.916794272176,15.026441682326
$GNGGA,220011.00,3450.06381106,N,12120.40937058,W,2,13,0.8,6.236,M,-37.618,M,4.0,0135*6E
$PYRTM,2024,123.916794272176,15.026441682326
$GNHDT,304.035,T*2A
$PYRTM,2024,123.916800001354,15.026447411493
$GNGGA,220011.50,3450.06414229,N,12120.41014054,W,2,13,0.8,5.781,M,-37.618,M,4.4,0135*65
$PYRTM,2024,123.916800001354,15.026447411493
$GNHDT,304.646,T*28
$PYRTM,2024,123.916805845347,15.026453255486
$GNGGA,220012.00,3450.06445803,N,12120.41076722,W,2,13,0.8,5.738,M,-37.618,M,5.0,0135*60
$PYRTM,2024,123.916805845347,15.026453255486
$GNHDT,304.509,T*20
$PYRTM,2024,123.916811591794,15.026459001933
$GNGGA,220012.50,3450.06476191,N,12120.41129796,W,2,13,0.8,6.097,M,-37.619,M,5.4,0135*67
$PYRTM,2024,123.916811591794,15.026459001933
$GNHDT,304.513,T*2B
$PYRTM,2024,123.916817418380,15.026464828519
$GNGGA,220013.00,3450.06507450,N,12120.41182275,W,2,13,0.8,6.661,M,-37.619,M,6.0,0135*6D
$PYRTM,2024,123.916817418380,15.026464828519
$GNHDT,304.668,T*24
$PYRTM,2024,123.916823155648,15.026470565787
$GNGGA,220013.50,3450.06543360,N,12120.41243462,W,2,13,0.8,7.123,M,-37.619,M,6.4,0135*66
$PYRTM,2024,123.916823155648,15.026470565787
$GNHDT,304.406,T*2E
$PYRTM,2024,123.916828995579,15.026476405718
$GNGGA,220014.00,3450.06585367,N,12120.41317783,W,2,13,0.8,7.246,M,-37.619,M,7.0,0135*60
$PYRTM,2024,123.916828995579,15.026476405718
$GNHDT,304.128,T*27
$PYRTM,2024,123.916834723264,15.026482133403
$GNGGA,220014.50,3450.06628376,N,12120.41400349,W,2,13,0.8,7.058,M,-37.619,M,7.4,0135*6B
$PYRTM,2024,123.916834723264,15.026482133403
$GNHDT,304.201,T*2F
$PYRTM,2024,123.916840566748,15.026487976887
$GNGGA,220015.00,3450.06668613,N,12120.41485536,W,2,13,0.8,6.716,M,-37.619,M,7.0,0135*66
$PYRTM,2024,123.916840566748,15.026487976887
$GNHDT,304.214,T*2B
$PYRTM,2024,123.916846293241,15.026493703380
$GNGGA,220015.50,3450.06703343,N,12120.41567131,W,2,13,0.8,6.410,M,-37.619,M,7.4,0135*60
$PYRTM,2024,123.916846293241,15.026493703380
$GNHDT,304.567,T*28
$PYRTM,2024,123.916852136968,15.026499547106
$GNGGA,220016.00,3450.06730042,N,12120.41639714,W,2,13,0.8,6.371,M,-37.619,M,7.0,0135*69
$PYRTM,2024,123.916852136968,15.026499547106
$GNHDT,304.408,T*20
$PYRTM,2024,123.916857871968,15.026505282106
$GNGGA,220016.50,3450.06751075,N,12120.41704738,W,2,13,0.8,6.617,M,-37.619,M,7.4,0135*6F
$PYRTM,2024,123.916857871968,15.026505282106
$GNHDT,304.060,T*2A
$PYRTM,2024,123.916863716667,15.026511126806
$GNGGA,220017.00,3450.06769300,N,12120.41765217,W,2,13,0.8,7.056,M,-37.619,M,4.0,0135*6B
$PYRTM,2024,123.916863716667,15.026511126806
$GNHDT,303.728,T*26
$PYRTM,2024,123.916869438600,15.026516848738
$GNGGA,220017.50,3450.06791111,N,12120.41828191,W,2,13,0.8,7.427,M,-37.619,M,4.4,0135*66
$PYRTM,2024,123.916869438600,15.026516848738
$GNHDT,303.393,T*22
$PYRTM,2024,123.916875286308,15.026522696447
$GNGGA,220018.00,3450.06823622,N,12120.41897530,W,2,13,0.8,7.456,M,-37.619,M,5.0,0135*65
$PYRTM,2024,123.916875286308,15.026522696447
$GNHDT,303.288,T*29
$PYRTM,2024,123.916881020972,15.026528431111
$GNGGA,220018.50,3450.06865535,N,12120.41972155,W,2,13,0.8,7.038,M,-37.619,M,5.4,0135*62
$PYRTM,2024,123.916881020972,15.026528431111
$GNHDT,303.399,T*28
$PYRTM,2024,123.916886860150,15.026534270289
$GNGGA,220019.00,3450.06910796,N,12120.42047764,W,2,13,0.8,6.415,M,-37.619,M,6.0,0135*6B
$PYRTM,2024,123.916886860150,15.026534270289
$GNHDT,303.656,T*2E
$PYRTM,2024,123.916892591007,15.026540001157
$GNGGA,220019.50,3450.06953801,N,12120.42122288,W,2,13,0.8,5.788,M,-37.619,M,6.4,0135*6D
$PYRTM,2024,123.916892591007,15.026540001157
$GNHDT,303.636,T*28
$PYRTM,2024,123.916898434468,15.026545844606
$GNGGA,220020.00,3450.06989190,N,12120.42192805,W,2,13,0.8,5.458,M,-37.619,M,7.0,0135*6B
$PYRTM,2024,123.916898434468,15.026545844606
$GNHDT,303.242,T*2F
$PYRTM,2024,123.916904176181,15.026551586319
$GNGGA,220020.50,3450.07014743,N,12120.42259297,W,2,13,0.8,5.615,M,-37.619,M,7.4,0135*60
$PYRTM,2024,123.916904176181,15.026551586319
$GNHDT,303.076,T*2A
$PYRTM,2024,123.916910009699,15.026557419838
$GNGGA,220021.00,3450.07032614,N,12120.42324491,W,2,13,0.8,6.150,M,-37.619,M,7.0,0135*69
$PYRTM,2024,123.916910009699,15.026557419838
$GNHDT,302.879,T*2C
$PYRTM,2024,123.916915746285,15.026563156424
$GNGGA,220021.50,3450.07048599,N,12120.42393077,W,2,13,0.8,6.845,M,-37.619,M,7.4,0135*6E
$PYRTM,2024,123.916915746285,15.026563156424
$GNHDT,302.583,T*24
$PYRTM,2024,123.916921584803,15.026568994942
$GNGGA,220022.00,3450.07069031,N,12120.42465589,W,2,13,0.8,7.424,M,-37.619,M,7.0,0135*68
$PYRTM,2024,123.916921584803,15.026568994942
$GNHDT,302.698,T*2D
$PYRTM,2024,123.916927318854,15.026574728993
$GNGGA,220022.50,3450.07099313,N,12120.42544011,W,2,13,0.8,7.623,M,-37.619,M,7.4,0135*66
$PYRTM,2024,123.916927318854,15.026574728993
$GNHDT,302.806,T*24
$PYRTM,2024,123.916933160891,15.026580571030
$GNGGA,220023.00,3450.07139179,N,12120.42620399,W,2,13,0.8,7.427,M,-37.619,M,4.0,0135*64
$PYRTM,2024,123.916933160891,15.026580571030
$GNHDT,302.863,T*27
$PYRTM,2024,123.916938885116,15.026586295266
$GNGGA,220023.50,3450.07181218,N,12120.42691253,W,2,13,0.8,7.015,M,-37.619,M,4.4,0135*6A
$PYRTM,2024,123.916938885116,15.026586295266
$GNHDT,302.986,T*2D
$PYRTM,2024,123.916944732060,15.026592142199
$GNGGA,220024.00,3450.07219000,N,12120.42757515,W,2,13,0.8,6.626,M,-37.619,M,5.0,0135*6D
$PYRTM,2024,123.916944732060,15.026592142199
$GNHDT,303.007,T*2C
$PYRTM,2024,123.916950459120,15.026597869259
$GNGGA,220024.50,3450.07249889,N,12120.42822549,W,2,13,0.8,6.388,M,-37.619,M,5.4,0135*65
$PYRTM,2024,123.916950459120,15.026597869259
$GNHDT,302.614,T*29
$PYRTM,2024,123.916956302882,15.026603713021
$GNGGA,220025.00,3450.07273681,N,12120.42890856,W,2,13,0.8,6.349,M,-37.619,M,6.0,0135*6E
$PYRTM,2024,123.916956302882,15.026603713021
$GNHDT,302.331,T*2B
$PYRTM,2024,123.916962035995,15.026609446134
$GNGGA,220025.50,3450.07295874,N,12120.42965611,W,2,13,0.8,6.401,M,-37.619,M,6.4,0135*6E
$PYRTM,2024,123.916962035995,15.026609446134
$GNHDT,301.954,T*21
$PYRTM,2024,123.916967881273,15.026615291412
$GNGGA,220026.00,3450.07320321,N,12120.43046948,W,2,13,0.8,6.448,M,-37.619,M,7.0,0135*6E
$PYRTM,2024,123.916967881273,15.026615291412
$GNHDT,302.003,T*29
$PYRTM,2024,123.916973607627,15.026621017766
$GNGGA,220026.50,3450.07348973,N,12120.43131555,W,2,13,0.8,6.439,M,-37.619,M,7.4,0135*6B
$PYRTM,2024,123.916973607627,15.026621017766
$GNHDT,302.119,T*23
$PYRTM,2024,123.916979456181,15.026626866319
$GNGGA,220027.00,3450.07381868,N,12120.43214479,W,2,13,0.8,6.376,M,-37.619,M,7.0,0135*62
$PYRTM,2024,123.916979456181,15.026626866319
$GNHDT,302.509,T*26
$PYRTM,2024,123.916985182766,15.026632592905
$GNGGA,220027.50,3450.07417741,N,12120.43289895,W,2,13,0.8,6.341,M,-37.619,M,7.4,0135*61
$PYRTM,2024,123.916985182766,15.026632592905
$GNHDT,302.488,T*2E
$PYRTM,2024,123.916991024132,15.026638434271
$GNGGA,220028.00,3450.07455479,N,12120.43354374,W,2,13,0.8,6.423,M,-37.619,M,7.0,0135*67
$PYRTM,2024,123.916991024132,15.026638434271
$GNHDT,302.612,T*2F
$PYRTM,2024,123.916996767222,15.026644177373
$GNGGA,220028.50,3450.07491168,N,12120.43412178,W,2,13,0.8,6.627,M,-37.619,M,7.4,0135*66
$PYRTM,2024,123.916996767222,15.026644177373
$GNHDT,302.908,T*2B
$PYRTM,2024,123.917002611065,15.026650021204
$GNGGA,220029.00,3450.07523636,N,12120.43470172,W,2,13,0.8,6.912,M,-37.619,M,4.0,0135*66
$PYRTM,2024,123.917002611065,15.026650021204
$GNHDT,303.122,T*2A
$PYRTM,2024,123.917008329664,15.026655739803
$GNGGA,220029.50,3450.07553877,N,12120.43536846,W,2,13,0.8,7.136,M,-37.619,M,4.4,0135*69
$PYRTM,2024,123.917008329664,15.026655739803
$GNHDT,303.221,T*2A
$PYRTM,2024,123.917014177870,15.026661588009
$GNGGA,220030.00,3450.07581372,N,12120.43614445,W,2,13,0.8,7.215,M,-37.619,M,5.0,0135*6E
$PYRTM,2024,123.917014177870,15.026661588009
$GNHDT,303.054,T*2A
$PYRTM,2024,123.917019904201,15.026667314340
$GNGGA,220030.50,3450.07606323,N,12120.43701192,W,2,13,0.8,7.059,M,-37.619,M,5.4,0135*67
$PYRTM,2024,123.917019904201,15.026667314340
$GNHDT,302.697,T*22
$PYRTM,2024,123.917025746632,15.026673156771
$GNGGA,220031.00,3450.07631297,N,12120.43790659,W,2,13,0.8,6.675,M,-37.619,M,6.0,0135*6F
$PYRTM,2024,123.917025746632,15.026673156771
$GNHDT,302.723,T*2C
$PYRTM,2024,123.917031476979,15.026678887130
$GNGGA,220031.50,3450.07658810,N,12120.43877521,W,2,13,0.8,6.248,M,-37.619,M,6.4,0135*64
$PYRTM,2024,123.917031476979,15.026678887130
$GNHDT,302.841,T*27
$PYRTM,2024,123.917037325231,15.026684735370
$GNGGA,220032.00,3450.07691439,N,12120.43954064,W,2,13,0.8,5.880,M,-37.619,M,7.0,0135*6C
$PYRTM,2024,123.917037325231,15.026684735370
$GNHDT,303.142,T*2C
$PYRTM,2024,123.917043052650,15.026690462789
$GNGGA,220032.50,3450.07728443,N,12120.44015921,W,2,13,0.8,5.786,M,-37.619,M,7.4,0135*69
$PYRTM,2024,123.917043052650,15.026690462789
$GNHDT,303.524,T*28
$PYRTM,2024,123.917048907373,15.026696317512
$GNGGA,220033.00,3450.07767428,N,12120.44068059,W,2,13,0.8,6.009,M,-37.620,M,7.0,0135*6A
$PYRTM,2024,123.917048907373,15.026696317512
$GNHDT,304.044,T*2C
$PYRTM,2024,123.917054632708,15.026702042847
$GNGGA,220033.50,3450.07805365,N,12120.44118091,W,2,13,0.8,6.444,M,-37.620,M,7.4,0135*61
$PYRTM,2024,123.917054632708,15.026702042847
$GNHDT,304.221,T*2D
$PYRTM,2024,123.917060474884,15.026707885023
$GNGGA,220034.00,3450.07842058,N,12120.44174833,W,2,13,0.8,6.957,M,-37.620,M,7.0,0135*6C
$PYRTM,2024,123.917060474884,15.026707885023
$GNHDT,304.547,T*2A
$PYRTM,2024,123.917066202697,15.026713612836
$GNGGA,220034.50,3450.07877985,N,12120.44246837,W,2,13,0.8,7.245,M,-37.620,M,7.4,0135*6D
$PYRTM,2024,123.917066202697,15.026713612836
$GNHDT,304.423,T*29
$PYRTM,2024,123.917072048877,15.026719459016
$GNGGA,220035.00,3450.07912030,N,12120.44330201,W,2,13,0.8,7.260,M,-37.620,M,4.0,0135*63
$PYRTM,2024,123.917072048877,15.026719459016
$GNHDT,304.363,T*2A
$PYRTM,2024,123.917077782512,15.026725192650
$GNGGA,220035.50,3450.07942358,N,12120.44416951,W,2,13,0.8,7.088,M,-37.620,M,4.4,0135*63
$PYRTM,2024,123.917077782512,15.026725192650
$GNHDT,304.263,T*2B
$PYRTM,2024,123.917083617118,15.026731027257
$GNGGA,220036.00,3450.07966529,N,12120.44502256,W,2,13,0.8,6.859,M,-37.620,M,5.0,0135*6B
$PYRTM,2024,123.917083617118,15.026731027257
$GNHDT,304.112,T*2E
$PYRTM,2024,123.917089350451,15.026736760590
$GNGGA,220036.50,3450.07986551,N,12120.44579956,W,2,13,0.8,6.755,M,-37.620,M,5.4,0135*6F
$PYRTM,2024,123.917089350451,15.026736760590
$GNHDT,304.043,T*2B
$PYRTM,2024,123.917095191898,15.026742602049
$GNGGA,220037.00,3450.08006512,N,12120.44646978,W,2,13,0.8,6.801,M,-37.620,M,6.0,0135*68
$PYRTM,2024,123.917095191898,15.026742602049
$GNHDT,304.052,T*2B
$PYRTM,2024,123.917100923345,15.026748333484
$GNGGA,220037.50,3450.08031566,N,12120.44706488,W,2,13,0.8,6.940,M,-37.620,M,6.4,0135*6D
$PYRTM,2024,123.917100923345,15.026748333484
$GNHDT,304.033,T*2C
$PYRTM,2024,123.917106772002,15.026754182141
$GNGGA,220038.00,3450.08066196,N,12120.44764111,W,2,13,0.8,6.996,M,-37.620,M,7.0,0135*61
$PYRTM,2024,123.917106772002,15.026754182141
$GNHDT,303.948,T*2E
$PYRTM,2024,123.917112496725,15.026759906863
$GNGGA,220038.50,3450.08110495,N,12120.44827787,W,2,13,0.8,6.824,M,-37.620,M,7.4,0135*6F
$PYRTM,2024,123.917112496725,15.026759906863
$GNHDT,304.245,T*2F
$PYRTM,2024,123.917118340752,15.026765750891
$GNGGA,220039.00,3450.08156338,N,12120.44897349,W,2,13,0.8,6.491,M,-37.620,M,7.0,0135*62
$PYRTM,2024,123.917118340752,15.026765750891
$GNHDT,304.104,T*29
$PYRTM,2024,123.917124070405,15.026771480544
$GNGGA,220039.50,3450.08197095,N,12120.44970474,W,2,13,0.8,6.167,M,-37.620,M,7.4,0135*67
$PYRTM,2024,123.917124070405,15.026771480544
$GNHDT,303.919,T*2A
$PYRTM,2024,123.917129917257,15.026777327396
$GNGGA,220040.00,3450.08230796,N,12120.45043616,W,2,13,0.8,6.011,M,-37.620,M,7.0,0135*6C
$PYRTM,2024,123.917129917257,15.026777327396
$GNHDT,303.626,T*29
$PYRTM,2024,123.917135647407,15.026783057546
$GNGGA,220040.50,3450.08258627,N,12120.45115835,W,2,13,0.8,6.088,M,-37.620,M,7.4,0135*65
$PYRTM,2024,123.917135647407,15.026783057546
$GNHDT,303.704,T*28
$PYRTM,2024,123.917141488137,15.026788898275
$GNGGA,220041.00,3450.08284816,N,12120.45187080,W,2,13,0.8,6.363,M,-37.620,M,4.0,0135*60
$PYRTM,2024,123.917141488137,15.026788898275
$GNHDT,303.947,T*21
$PYRTM,2024,123.917147218831,15.026794628970
$GNGGA,220041.50,3450.08313181,N,12120.45259410,W,2,13,0.8,6.696,M,-37.620,M,4.4,0135*6B
$PYRTM,2024,123.917147218831,15.026794628970
$GNHDT,303.912,T*21
$PYRTM,2024,123.917153068773,15.026800478924
$GNGGA,220042.00,3450.08343340,N,12120.45331955,W,2,13,0.8,7.046,M,-37.620,M,5.0,0135*6B
$PYRTM,2024,123.917153068773,15.026800478924
$GNHDT,304.003,T*2F
$PYRTM,2024,123.917158798472,15.026806208611
$GNGGA,220042.50,3450.08374646,N,12120.45402676,W,2,13,0.8,7.357,M,-37.620,M,5.4,0135*67
$PYRTM,2024,123.917158798472,15.026806208611
$GNHDT,303.732,T*2D
$PYRTM,2024,123.917164635833,15.026812045972
$GNGGA,220043.00,3450.08405510,N,12120.45472024,W,2,13,0.8,7.582,M,-37.620,M,6.0,0135*6D
$PYRTM,2024,123.917164635833,15.026812045972
$GNHDT,303.401,T*2E
$PYRTM,2024,123.917170369838,15.026817779977
$GNGGA,220043.50,3450.08435252,N,12120.45542712,W,2,13,0.8,7.691,M,-37.620,M,6.4,0135*6F
$PYRTM,2024,123.917170369838,15.026817779977
$GNHDT,303.140,T*2E
$PYRTM,2024,123.917176210741,15.026823620880
$GNGGA,220044.00,3450.08465300,N,12120.45615851,W,2,13,0.8,7.608,M,-37.620,M,7.0,0135*62
$PYRTM,2024,123.917176210741,15.026823620880
$GNHDT,302.970,T*24
$PYRTM,2024,123.917181942303,15.026829352442
$GNGGA,220044.50,3450.08497946,N,12120.45692753,W,2,13,0.8,7.291,M,-37.620,M,7.4,0135*60
$PYRTM,2024,123.917181942303,15.026829352442
$GNHDT,302.787,T*22
$PYRTM,2024,123.917187784896,15.026835195035
$GNGGA,220045.00,3450.08535261,N,12120.45770239,W,2,13,0.8,6.818,M,-37.620,M,7.0,0135*69
$PYRTM,2024,123.917187784896,15.026835195035
$GNHDT,303.047,T*28
$PYRTM,2024,123.917193517940,15.026840928079
$GNGGA,220045.50,3450.08576671,N,12120.45846351,W,2,13,0.8,6.301,M,-37.620,M,7.4,0135*6C
$PYRTM,2024,123.917193517940,15.026840928079
$GNHDT,303.098,T*2A
$PYRTM,2024,123.917199362731,15.026846772870
$GNGGA,220046.00,3450.08619643,N,12120.45916793,W,2,13,0.8,5.960,M,-37.620,M,7.0,0135*65
$PYRTM,2024,123.917199362731,15.026846772870
$GNHDT,303.377,T*28
$PYRTM,2024,123.917205090625,15.026852500764
$GNGGA,220046.50,3450.08659394,N,12120.45982098,W,2,13,0.8,5.972,M,-37.620,M,7.4,0135*6D
$PYRTM,2024,123.917205090625,15.026852500764
$GNHDT,303.584,T*22
$PYRTM,2024,123.917210938738,15.026858348889
$GNGGA,220047.00,3450.08693290,N,12120.46045463,W,2,13,0.8,6.310,M,-37.620,M,4.0,0135*61
$PYRTM,2024,123.917210938738,15.026858348889
$GNHDT,303.682,T*27
$PYRTM,2024,123.917216668044,15.026864078183
$GNGGA,220047.50,3450.08719359,N,12120.46114963,W,2,13,0.8,6.827,M,-37.620,M,4.4,0135*60
$PYRTM,2024,123.917216668044,15.026864078183
$GNHDT,303.289,T*28
$PYRTM,2024,123.917222509086,15.026869919225
$GNGGA,220048.00,3450.08740628,N,12120.46194172,W,2,13,0.8,7.322,M,-37.620,M,5.0,0135*6F
$PYRTM,2024,123.917222509086,15.026869919225
$GNHDT,303.210,T*28
$PYRTM,2024,123.917228243530,15.026875653669
$GNGGA,220048.50,3450.08762961,N,12120.46284596,W,2,13,0.8,7.551,M,-37.620,M,5.4,0135*62
$PYRTM,2024,123.917228243530,15.026875653669
$GNHDT,302.389,T*28
$PYRTM,2024,123.917234083171,15.026881493322
$GNGGA,220049.00,3450.08792207,N,12120.46379350,W,2,13,0.8,7.416,M,-37.620,M,6.0,0135*68
$PYRTM,2024,123.917234083171,15.026881493322
$GNHDT,302.068,T*24
$PYRTM,2024,123.917239814688,15.026887224826
$GNGGA,220049.50,3450.08826219,N,12120.46466799,W,2,13,0.8,7.109,M,-37.620,M,6.4,0135*65
$PYRTM,2024,123.917239814688,15.026887224826
$GNHDT,302.667,T*2D
$PYRTM,2024,123.917245658738,15.026893068877
$GNGGA,220050.00,3450.08863227,N,12120.46541436,W,2,13,0.8,6.786,M,-37.620,M,7.0,0135*63
$PYRTM,2024,123.917245658738,15.026893068877
$GNHDT,302.887,T*2D
$PYRTM,2024,123.917251386481,15.026898796620
$GNGGA,220050.50,3450.08902736,N,12120.46603049,W,2,13,0.8,6.588,M,-37.620,M,7.4,0135*64
$PYRTM,2024,123.917251386481,15.026898796620
$GNHDT,302.787,T*22
$PYRTM,2024,123.917257230023,15.026904640162
$GNGGA,220051.00,3450.08944776,N,12120.46656823,W,2,13,0.8,6.556,M,-37.620,M,7.0,0135*65
$PYRTM,2024,123.917257230023,15.026904640162
$GNHDT,303.234,T*2E
$PYRTM,2024,123.917262959109,15.026910369248
$GNGGA,220051.50,3450.08987643,N,12120.46711364,W,2,13,0.8,6.626,M,-37.620,M,7.4,0135*62
$PYRTM,2024,123.917262959109,15.026910369248
$GNHDT,303.542,T*28
$PYRTM,2024,123.917268805394,15.026916215532
$GNGGA,220052.00,3450.09028578,N,12120.46773261,W,2,13,0.8,6.718,M,-37.620,M,7.0,0135*6A
$PYRTM,2024,123.917268805394,15.026916215532
$GNHDT,303.893,T*29
$PYRTM,2024,123.917274532049,15.026921942187
$GNGGA,220052.50,3450.09063534,N,12120.46844723,W,2,13,0.8,6.848,M,-37.620,M,7.4,0135*6E
$PYRTM,2024,123.917274532049,15.026921942187
$GNHDT,303.683,T*26
$PYRTM,2024,123.917280380197,15.026927790336
$GNGGA,220053.00,3450.09089673,N,12120.46924409,W,2,13,0.8,6.987,M,-37.620,M,4.0,0135*67
$PYRTM,2024,123.917280380197,15.026927790336
$GNHDT,303.379,T*26
$PYRTM,2024,123.917286105660,15.026933515799
$GNGGA,220053.50,3450.09107014,N,12120.47006991,W,2,13,0.8,7.171,M,-37.620,M,4.4,0135*62
$PYRTM,2024,123.917286105660,15.026933515799
$GNHDT,303.091,T*23
$PYRTM,2024,123.917291953009,15.026939363148
$GNGGA,220054.00,3450.09120113,N,12120.47088077,W,2,13,0.8,7.347,M,-37.620,M,5.0,0135*66
$PYRTM,2024,123.917291953009,15.026939363148
$GNHDT,303.029,T*20
$PYRTM,2024,123.917297679942,15.026945090081
$GNGGA,220054.50,3450.09138086,N,12120.47166346,W,2,13,0.8,7.455,M,-37.620,M,5.4,0135*67
$PYRTM,2024,123.917297679942,15.026945090081
$GNHDT,303.010,T*2A
$PYRTM,2024,123.917303530440,15.026950940579
$GNGGA,220055.00,3450.09170424,N,12120.47244738,W,2,13,0.8,7.255,M,-37.620,M,6.0,0135*6C
$PYRTM,2024,123.917303530440,15.026950940579
$GNHDT,303.269,T*26
$PYRTM,2024,123.917309257512,15.026956667650
$GNGGA,220055.50,3450.09217961,N,12120.47323309,W,2,13,0.8,6.717,M,-37.620,M,6.4,0135*67
$PYRTM,2024,123.917309257512,15.026956667650
$GNHDT,303.461,T*28
$PYRTM,2024,123.917315100984,15.026962511123
$GNGGA,220056.00,3450.09274269,N,12120.47395399,W,2,13,0.8,6.117,M,-37.620,M,7.0,0135*60
$PYRTM,2024,123.917315100984,15.026962511123
$GNHDT,303.691,T*25
$PYRTM,2024,123.917320827535,15.026968237674
$GNGGA,220056.50,3450.09328619,N,12120.47460274,W,2,13,0.8,5.708,M,-37.620,M,7.4,0135*6E
$PYRTM,2024,123.917320827535,15.026968237674
$GNHDT,303.734,T*2B
$PYRTM,2024,123.917326676215,15.026974086354
$GNGGA,220057.00,3450.09373905,N,12120.47521442,W,2,13,0.8,5.719,M,-37.621,M,7.0,0135*64
$PYRTM,2024,123.917326676215,15.026974086354
$GNHDT,303.414,T*2A
$PYRTM,2024,123.917332411759,15.026979821898
$GNGGA,220057.50,3450.09405111,N,12120.47586031,W,2,13,0.8,6.242,M,-37.621,M,7.4,0135*6B
$PYRTM,2024,123.917332411759,15.026979821898
$GNHDT,303.168,T*24
$PYRTM,2024,123.917338247998,15.026985658137
$GNGGA,220058.00,3450.09423194,N,12120.47655830,W,2,13,0.8,7.054,M,-37.621,M,7.0,0135*6C
$PYRTM,2024,123.917338247998,15.026985658137
$GNHDT,302.966,T*23
$PYRTM,2024,123.917343983368,15.026991393519
$GNGGA,220058.50,3450.09434116,N,12120.47733225,W,2,13,0.8,7.904,M,-37.621,M,7.4,0135*62
$PYRTM,2024,123.917343983368,15.026991393519
$GNHDT,302.186,T*25
$PYRTM,2024,123.917349825289,15.026997235428
$GNGGA,220059.00,3450.09445428,N,12120.47818454,W,2,13,0.8,8.492,M,-37.621,M,4.0,0135*64
$PYRTM,2024,123.917349825289,15.026997235428
$GNHDT,302.010,T*2B
$PYRTM,2024,123.917355557975,15.027002968113
$GNGGA,220059.50,3450.09467017,N,12120.47909888,W,2,13,0.8,8.514,M,-37.621,M,4.4,0135*6E
$PYRTM,2024,123.917355557975,15.027002968113
$GNHDT,302.098,T*2B
$PYRTM,2024,123.917361407211,15.027008817350
$GNGGA,220100.00,3450.09502649,N,12120.48001514,W,2,13,0.8,7.926,M,-37.621,M,5.0,0135*68
$PYRTM,2024,123.917361407211,15.027008817350
$GNHDT,302.204,T*2C
$PYRTM,2024,123.917367142662,15.027014552801
$GNGGA,220100.50,3450.09547927,N,12120.48083268,W,2,13,0.8,7.037,M,-37.621,M,5.4,0135*60
$PYRTM,2024,123.917367142662,15.027014552801
$GNHDT,302.575,T*2D
$PYRTM,2024,123.917372973218,15.027020383356
$GNGGA,220101.00,3450.09595420,N,12120.48150593,W,2,13,0.8,6.136,M,-37.621,M,6.0,0135*6B
$PYRTM,2024,123.917372973218,15.027020383356
$GNHDT,302.674,T*2F
$PYRTM,2024,123.917378702477,15.027026112616
$GNGGA,220101.50,3450.09638301,N,12120.48208034,W,2,13,0.8,5.643,M,-37.621,M,6.4,0135*6A
$PYRTM,2024,123.917378702477,15.027026112616
$GNHDT,302.670,T*2B
$PYRTM,2024,123.917384553252,15.027031963391
$GNGGA,220102.00,3450.09673843,N,12120.48260292,W,2,13,0.8,5.671,M,-37.621,M,7.0,0135*6A
$PYRTM,2024,123.917384553252,15.027031963391
$GNHDT,302.776,T*2C
$PYRTM,2024,123.917390276956,15.027037687095
$GNGGA,220102.50,3450.09701998,N,12120.48315683,W,2,13,0.8,6.119,M,-37.621,M,7.4,0135*65
$PYRTM,2024,123.917390276956,15.027037687095
$GNHDT,302.853,T*24
$PYRTM,2024,123.917396120868,15.027043531007
$GNGGA,220103.00,3450.09724911,N,12120.48380204,W,2,13,0.8,6.717,M,-37.621,M,7.0,0135*6C
$PYRTM,2024,123.917396120868,15.027043531007
$GNHDT,302.708,T*25
$PYRTM,2024,123.917401855336,15.027049265475
$GNGGA,220103.50,3450.09745303,N,12120.48455696,W,2,13,0.8,7.294,M,-37.621,M,7.4,0135*6C
$PYRTM,2024,123.917401855336,15.027049265475
$GNHDT,302.323,T*28
$PYRTM,2024,123.917407693102,15.027055103241
$GNGGA,220104.00,3450.09766352,N,12120.48537564,W,2,13,0.8,7.696,M,-37.621,M,7.0,0135*62
$PYRTM,2024,123.917407693102,15.027055103241
$GNHDT,302.242,T*2E
$PYRTM,2024,123.917413426829,15.027060836968
$GNGGA,220104.50,3450.09791295,N,12120.48619380,W,2,13,0.8,7.811,M,-37.621,M,7.4,0135*63
$PYRTM,2024,123.917413426829,15.027060836968
$GNHDT,302.198,T*2A
$PYRTM,2024,123.917419272662,15.027066682812
$GNGGA,220105.00,3450.09821700,N,12120.48697384,W,2,13,0.8,7.637,M,-37.621,M,4.0,0135*65
$PYRTM,2024,123.917419272662,15.027066682812
$GNHDT,302.209,T*21
$PYRTM,2024,123.917425003044,15.027072413183
$GNGGA,220105.50,3450.09857135,N,12120.48769203,W,2,13,0.8,7.280,M,-37.621,M,4.4,0135*63
$PYRTM,2024,123.917425003044,15.027072413183
$GNHDT,302.988,T*23
$PYRTM,2024,123.917430845069,15.027078255197
$GNGGA,220106.00,3450.09895012,N,12120.48836712,W,2,13,0.8,6.877,M,-37.621,M,5.0,0135*69
$PYRTM,2024,123.917430845069,15.027078255197
$GNHDT,302.903,T*20
$PYRTM,2024,123.917436580405,15.027083990544
$GNGGA,220106.50,3450.09931694,N,12120.48901858,W,2,13,0.8,6.529,M,-37.621,M,5.4,0135*6D
$PYRTM,2024,123.917436580405,15.027083990544
$GNHDT,302.564,T*2D
$PYRTM,2024,123.917442417604,15.027089827743
$GNGGA,220107.00,3450.09965131,N,12120.48966491,W,2,13,0.8,6.331,M,-37.621,M,6.0,0135*60
$PYRTM,2024,123.917442417604,15.027089827743
$GNHDT,302.539,T*25
$PYRTM,2024,123.917448148113,15.027095558264
$GNGGA,220107.50,3450.09992895,N,12120.49033764,W,2,13,0.8,6.302,M,-37.621,M,6.4,0135*6F
$PYRTM,2024,123.917448148113,15.027095558264
$GNHDT,302.458,T*23
$PYRTM,2024,123.917453990405,15.027101400544
$GNGGA,220108.00,3450.10017148,N,12120.49103733,W,2,13,0.8,6.432,M,-37.621,M,7.0,0135*61
$PYRTM,2024,123.917453990405,15.027101400544
$GNHDT,302.795,T*21
$PYRTM,2024,123.917459717222,15.027107127361
$GNGGA,220108.50,3450.10042223,N,12120.49173422,W,2,13,0.8,6.628,M,-37.621,M,7.4,0135*63
$PYRTM,2024,123.917459717222,15.027107127361
$GNHDT,303.183,T*21
$PYRTM,2024,123.917465563681,15.027112973819
$GNGGA,220109.00,3450.10071703,N,12120.49244214,W,2,13,0.8,6.816,M,-37.621,M,7.0,0135*63
$PYRTM,2024,123.917465563681,15.027112973819
$GNHDT,303.544,T*2E
$PYRTM,2024,123.917471295231,15.027118705370
$GNGGA,220109.50,3450.10106682,N,12120.49318150,W,2,13,0.8,6.904,M,-37.621,M,7.4,0135*62
$PYRTM,2024,123.917471295231,15.027118705370
$GNHDT,303.618,T*24
$PYRTM,2024,123.917477138414,15.027124548553
$GNGGA,220110.00,3450.10145795,N,12120.49395537,W,2,13,0.8,6.844,M,-37.621,M,7.0,0135*6E
$PYRTM,2024,123.917477138414,15.027124548553
$GNHDT,303.594,T*23
$PYRTM,2024,123.917482864329,15.027130274468
$GNGGA,220110.50,3450.10185866,N,12120.49474059,W,2,13,0.8,6.713,M,-37.621,M,7.4,0135*68
$PYRTM,2024,123.917482864329,15.027130274468
$GNHDT,303.406,T*29
$PYRTM,2024,123.917488710266,15.027136120405
$GNGGA,220111.00,3450.10223392,N,12120.49550836,W,2,13,0.8,6.624,M,-37.621,M,4.0,0135*67
$PYRTM,2024,123.917488710266,15.027136120405
$GNHDT,303.530,T*2D
$PYRTM,2024,123.917494439120,15.027141849259
$GNGGA,220111.50,3450.10254568,N,12120.49624029,W,2,13,0.8,6.676,M,-37.621,M,4.4,0135*64
$PYRTM,2024,123.917494439120,15.027141849259
$GNHDT,303.620,T*2F
$PYRTM,2024,123.917500286181,15.027147696319
$GNGGA,220112.00,3450.10279106,N,12120.49693406,W,2,13,0.8,6.909,M,-37.621,M,5.0,0135*66
$PYRTM,2024,123.917500286181,15.027147696319
$GNHDT,303.700,T*2C
$PYRTM,2024,123.917506016748,15.027153426887
$GNGGA,220112.50,3450.10301999,N,12120.49759715,W,2,13,0.8,7.209,M,-37.621,M,5.4,0135*6B
$PYRTM,2024,123.917506016748,15.027153426887
$GNHDT,303.710,T*2D
$PYRTM,2024,123.917511857616,15.027159267755
$GNGGA,220113.00,3450.10328601,N,12120.49825702,W,2,13,0.8,7.386,M,-37.621,M,6.0,0135*69
$PYRTM,2024,123.917511857616,15.027159267755
$GNHDT,303.714,T*29
$PYRTM,2024,123.917517595266,15.027165005405
$GNGGA,220113.50,3450.10362637,N,12120.49897684,W,2,13,0.8,7.280,M,-37.621,M,6.4,0135*62
$PYRTM,2024,123.917517595266,15.027165005405
$GNHDT,303.742,T*2A
$PYRTM,2024,123.917523436794,15.027170846933
$GNGGA,220114.00,3450.10400316,N,12120.49975764,W,2,13,0.8,6.925,M,-37.621,M,7.0,0135*67
$PYRTM,2024,123.917523436794,15.027170846933
$GNHDT,303.996,T*2D
$PYRTM,2024,123.917529166030,15.027176576169
$GNGGA,220114.50,3450.10439205,N,12120.50057873,W,2,13,0.8,6.417,M,-37.621,M,7.4,0135*6B
$PYRTM,2024,123.917529166030,15.027176576169
$GNHDT,303.661,T*2A
$PYRTM,2024,123.917535007581,15.027182417720
$GNGGA,220115.00,3450.10478313,N,12120.50138266,W,2,13,0.8,5.931,M,-37.621,M,7.0,0135*64
$PYRTM,2024,123.917535007581,15.027182417720
$GNHDT,303.757,T*2E
$PYRTM,2024,123.917540735671,15.027188145810
$GNGGA,220115.50,3450.10516937,N,12120.50210784,W,2,13,0.8,5.691,M,-37.621,M,7.4,0135*65
$PYRTM,2024,123.917540735671,15.027188145810
$GNHDT,304.166,T*2D
$PYRTM,2024,123.917546586123,15.027193996262
$GNGGA,220116.00,3450.10552432,N,12120.50274312,W,2,13,0.8,5.823,M,-37.621,M,7.0,0135*61
$PYRTM,2024,123.917546586123,15.027193996262
$GNHDT,304.506,T*2F
$PYRTM,2024,123.917552312072,15.027199722211
$GNGGA,220116.50,3450.10581583,N,12120.50335592,W,2,13,0.8,6.300,M,-37.621,M,7.4,0135*66
$PYRTM,2024,123.917552312072,15.027199722211
$GNHDT,304.384,T*23
$PYRTM,2024,123.917558161389,15.027205571528
$GNGGA,220117.00,3450.10605498,N,12120.50398687,W,2,13,0.8,6.959,M,-37.621,M,4.0,0135*67
$PYRTM,2024,123.917558161389,15.027205571528
$GNHDT,304.437,T*2C
$PYRTM,2024,123.917563894606,15.027211304745
$GNGGA,220117.50,3450.10629323,N,12120.50463663,W,2,13,0.8,7.576,M,-37.622,M,4.4,0135*65
$PYRTM,2024,123.917563894606,15.027211304745
$GNHDT,304.461,T*2F
$PYRTM,2024,123.917569727199,15.027217137338
$GNGGA,220118.00,3450.10658655,N,12120.50533164,W,2,13,0.8,7.914,M,-37.622,M,5.0,0135*64
$PYRTM,2024,123.917569727199,15.027217137338
$GNHDT,304.211,T*2E
$PYRTM,2024,123.917575456794,15.027222866933
$GNGGA,220118.50,3450.10694713,N,12120.50606765,W,2,13,0.8,7.784,M,-37.622,M,5.4,0135*63
$PYRTM,2024,123.917575456794,15.027222866933
$GNHDT,304.395,T*23
$PYRTM,2024,123.917581310486,15.027228720625
$GNGGA,220119.00,3450.10733091,N,12120.50683941,W,2,13,0.8,7.296,M,-37.622,M,6.0,0135*62
$PYRTM,2024,123.917581310486,15.027228720625
$GNHDT,304.517,T*2F
$PYRTM,2024,123.917587033426,15.027234443565
$GNGGA,220119.50,3450.10770359,N,12120.50761655,W,2,13,0.8,6.674,M,-37.622,M,6.4,0135*6D
$PYRTM,2024,123.917587033426,15.027234443565
$GNHDT,303.993,T*28
$PYRTM,2024,123.917592876956,15.027240287095
$GNGGA,220120.00,3450.10806182,N,12120.50836531,W,2,13,0.8,6.087,M,-37.622,M,7.0,0135*6B
$PYRTM,2024,123.917592876956,15.027240287095
$GNHDT,304.036,T*29
$PYRTM,2024,123.917598611528,15.027246021667
$GNGGA,220120.50,3450.10839702,N,12120.50906931,W,2,13,0.8,5.774,M,-37.622,M,7.4,0135*6E
$PYRTM,2024,123.917598611528,15.027246021667
$GNHDT,303.753,T*2A
$PYRTM,2024,123.917604459340,15.027251869479
$GNGGA,220121.00,3450.10871712,N,12120.50971501,W,2,13,0.8,5.803,M,-37.622,M,7.0,0135*63
$PYRTM,2024,123.917604459340,15.027251869479
$GNHDT,303.956,T*21
$PYRTM,2024,123.917610187917,15.027257598067
$GNGGA,220121.50,3450.10903655,N,12120.51031020,W,2,13,0.8,6.095,M,-37.622,M,7.4,0135*6A
$PYRTM,2024,123.917610187917,15.027257598067
$GNHDT,303.950,T*27
$PYRTM,2024,123.917616023345,15.027263433484
$GNGGA,220122.00,3450.10934360,N,12120.51090809,W,2,13,0.8,6.522,M,-37.622,M,7.0,0135*6E
$PYRTM,2024,123.917616023345,15.027263433484
$GNHDT,304.072,T*29
$PYRTM,2024,123.917621754329,15.027269164468
$GNGGA,220122.50,3450.10965980,N,12120.51157568,W,2,13,0.8,6.920,M,-37.622,M,7.4,0135*61
$PYRTM,2024,123.917621754329,15.027269164468
$GNHDT,304.229,T*25
$PYRTM,2024,123.917627605150,15.027275015289
$GNGGA,220123.00,3450.11001235,N,12120.51235171,W,2,13,0.8,7.092,M,-37.622,M,4.0,0135*67
$PYRTM,2024,123.917627605150,15.027275015289
$GNHDT,304.074,T*2F
$PYRTM,2024,123.917633331400,15.027280741539
$GNGGA,220123.50,3450.11037745,N,12120.51315745,W,2,13,0.8,7.058,M,-37.622,M,4.4,0135*65
$PYRTM,2024,123.917633331400,15.027280741539
$GNHDT,304.183,T*26
$PYRTM,2024,123.917639172998,15.027286583148
$GNGGA,220124.00,3450.11073923,N,12120.51394793,W,2,13,0.8,6.906,M,-37.622,M,5.0,0135*6D
$PYRTM,2024,123.917639172998,15.027286583148
$GNHDT,304.093,T*26
$PYRTM,2024,123.917644902836,15.027292312986
$GNGGA,220124.50,3450.11107489,N,12120.51467746,W,2,13,0.8,6.771,M,-37.622,M,5.4,0135*6E
$PYRTM,2024,123.917644902836,15.027292312986
$GNHDT,304.173,T*29
$PYRTM,2024,123.917650746898,15.027298157037
$GNGGA,220125.00,3450.11137139,N,12120.51533013,W,2,13,0.8,6.749,M,-37.622,M,6.0,0135*6C
$PYRTM,2024,123.917650746898,15.027298157037
$GNHDT,304.152,T*2A
$PYRTM,2024,123.917656476979,15.027303887130
$GNGGA,220125.50,3450.11163798,N,12120.51593420,W,2,13,0.8,6.843,M,-37.622,M,6.4,0135*6A
$PYRTM,2024,123.917656476979,15.027303887130
$GNHDT,304.177,T*2D
$PYRTM,2024,123.917662327315,15.027309737454
$GNGGA,220126.00,3450.11189656,N,12120.51654214,W,2,13,0.8,6.948,M,-37.622,M,7.0,0135*6D
$PYRTM,2024,123.917662327315,15.027309737454
$GNHDT,304.380,T*27
$PYRTM,2024,123.917668050602,15.027315460741
$GNGGA,220126.50,3450.11219041,N,12120.51722966,W,2,13,0.8,6.896,M,-37.622,M,7.4,0135*6A
$PYRTM,2024,123.917668050602,15.027315460741
$GNHDT,304.251,T*2A
$PYRTM,2024,123.917673899931,15.027321310069
$GNGGA,220127.00,3450.11253341,N,12120.51800532,W,2,13,0.8,6.616,M,-37.622,M,7.0,0135*63
$PYRTM,2024,123.917673899931,15.027321310069
$GNHDT,304.194,T*20
$PYRTM,2024,123.917679624745,15.027327034896
$GNGGA,220127.50,3450.11289419,N,12120.51881244,W,2,13,0.8,6.256,M,-37.622,M,7.4,0135*60
$PYRTM,2024,123.917679624745,15.027327034896
$GNHDT,303.987,T*2D
$PYRTM,2024,123.917685473738,15.027332883877
$GNGGA,220128.00,3450.11325358,N,12120.51959781,W,2,13,0.8,5.920,M,-37.622,M,7.0,0135*6A
$PYRTM,2024,123.917685473738,15.027332883877
$GNHDT,304.066,T*2C
$PYRTM,2024,123.917691201655,15.027338611794
$GNGGA,220128.50,3450.11358395,N,12120.52033013,W,2,13,0.8,5.786,M,-37.622,M,7.4,0135*68
$PYRTM,2024,123.917691201655,15.027338611794
$GNHDT,304.225,T*29
$PYRTM,2024,123.917697045984,15.027344456123
$GNGGA,220129.00,3450.11390062,N,12120.52100502,W,2,13,0.8,5.906,M,-37.622,M,4.0,0135*66
$PYRTM,2024,123.917697045984,15.027344456123
$GNHDT,304.210,T*2F
$PYRTM,2024,123.917702772234,15.027350182373
$GNGGA,220129.50,3450.11422012,N,12120.52166189,W,2,13,0.8,6.177,M,-37.622,M,4.4,0135*64
$PYRTM,2024,123.917702772234,15.027350182373
$GNHDT,304.239,T*24
$PYRTM,2024,123.917708623611,15.027356033750
$GNGGA,220130.00,3450.11455348,N,12120.52233122,W,2,13,0.8,6.516,M,-37.622,M,5.0,0135*61
$PYRTM,2024,123.917708623611,15.027356033750
$GNHDT,304.018,T*25
$PYRTM,2024,123.917714354699,15.027361764838
$GNGGA,220130.50,3450.11491375,N,12120.52304857,W,2,13,0.8,6.776,M,-37.622,M,5.4,0135*6C
$PYRTM,2024,123.917714354699,15.027361764838
$GNHDT,304.148,T*21
$PYRTM,2024,123.917720191308,15.027367601447
$GNGGA,220131.00,3450.11528016,N,12120.52379093,W,2,13,0.8,6.942,M,-37.622,M,6.0,0135*69
$PYRTM,2024,123.917720191308,15.027367601447
$GNHDT,304.236,T*2B
$PYRTM,2024,123.917725921238,15.027373331389
$GNGGA,220131.50,3450.11562409,N,12120.52453116,W,2,13,0.8,7.059,M,-37.622,M,6.4,0135*6D
$PYRTM,2024,123.917725921238,15.027373331389
$GNHDT,304.267,T*2F
$PYRTM,2024,123.917731770532,15.027379180671
$GNGGA,220132.00,3450.11595379,N,12120.52523433,W,2,13,0.8,7.175,M,-37.622,M,7.0,0135*6D
$PYRTM,2024,123.917731770532,15.027379180671
$GNHDT,304.080,T*24
$PYRTM,2024,123.917737494988,15.027384905127
$GNGGA,220132.50,3450.11627308,N,12120.52588654,W,2,13,0.8,7.259,M,-37.622,M,7.4,0135*6F
$PYRTM,2024,123.917737494988,15.027384905127
$GNHDT,304.161,T*2A
$PYRTM,2024,123.917743350590,15.027390760729
$GNGGA,220133.00,3450.11659632,N,12120.52650504,W,2,13,0.8,7.327,M,-37.622,M,7.0,0135*62
$PYRTM,2024,123.917743350590,15.027390760729
$GNHDT,303.875,T*21
$PYRTM,2024,123.917749071574,15.027396481713
$GNGGA,220133.50,3450.11693416,N,12120.52713690,W,2,13,0.8,7.302,M,-37.622,M,7.4,0135*6E
$PYRTM,2024,123.917749071574,15.027396481713
$GNHDT,303.945,T*23
$PYRTM,2024,123.917754918391,15.027402328530
$GNGGA,220134.00,3450.11729898,N,12120.52783995,W,2,13,0.8,7.066,M,-37.622,M,7.0,0135*60
$PYRTM,2024,123.917754918391,15.027402328530
$GNHDT,304.342,T*29
$PYRTM,2024,123.917760648310,15.027408058449
$GNGGA,220134.50,3450.11768303,N,12120.52861967,W,2,13,0.8,6.705,M,-37.622,M,7.4,0135*60
$PYRTM,2024,123.917760648310,15.027408058449
$GNHDT,304.644,T*2A
$PYRTM,2024,123.917766491551,15.027413901690
$GNGGA,220135.00,3450.11807937,N,12120.52942256,W,2,13,0.8,6.323,M,-37.622,M,4.0,0135*61
$PYRTM,2024,123.917766491551,15.027413901690
$GNHDT,304.369,T*20
$PYRTM,2024,123.917772221887,15.027419632025
$GNGGA,220135.50,3450.11846333,N,12120.53018911,W,2,13,0.8,6.068,M,-37.622,M,4.4,0135*68
$PYRTM,2024,123.917772221887,15.027419632025
$GNHDT,304.063,T*29
$PYRTM,2024,123.917778066910,15.027425477060
$GNGGA,220136.00,3450.11882079,N,12120.53089914,W,2,13,0.8,6.050,M,-37.622,M,5.0,0135*68
$PYRTM,2024,123.917778066910,15.027425477060
$GNHDT,303.920,T*20
$PYRTM,2024,123.917783795174,15.027431205312
$GNGGA,220136.50,3450.11915637,N,12120.53156999,W,2,13,0.8,6.277,M,-37.622,M,5.4,0135*6B
$PYRTM,2024,123.917783795174,15.027431205312
$GNHDT,304.009,T*25
$PYRTM,2024,123.917789643194,15.027437053333
$GNGGA,220137.00,3450.11946387,N,12120.53221706,W,2,13,0.8,6.664,M,-37.622,M,6.0,0135*6D
$PYRTM,2024,123.917789643194,15.027437053333
$GNHDT,303.965,T*21
$PYRTM,2024,123.917795365301,15.027442775440
$GNGGA,220137.50,3450.11977716,N,12120.53285528,W,2,13,0.8,7.101,M,-37.622,M,6.4,0135*67
$PYRTM,2024,123.917795365301,15.027442775440
$GNHDT,304.227,T*2B
$PYRTM,2024,123.917801212894,15.027448623032
$GNGGA,220138.00,3450.12013224,N,12120.53351614,W,2,13,0.8,7.391,M,-37.623,M,7.0,0135*6A
$PYRTM,2024,123.917801212894,15.027448623032
$GNHDT,304.537,T*2D
$PYRTM,2024,123.917806945845,15.027454355984
$GNGGA,220138.50,3450.12054029,N,12120.53422025,W,2,13,0.8,7.375,M,-37.623,M,7.4,0135*6A
$PYRTM,2024,123.917806945845,15.027454355984
$GNHDT,304.533,T*29
$PYRTM,2024,123.917812785139,15.027460195278
$GNGGA,220139.00,3450.12097547,N,12120.53496556,W,2,13,0.8,6.993,M,-37.623,M,7.0,0135*65
$PYRTM,2024,123.917812785139,15.027460195278
$GNHDT,304.826,T*20
$PYRTM,2024,123.917818523056,15.027465933194
$GNGGA,220139.50,3450.12137529,N,12120.53573407,W,2,13,0.8,6.482,M,-37.623,M,7.4,0135*65
$PYRTM,2024,123.917818523056,15.027465933194
$GNHDT,304.850,T*21
$PYRTM,2024,123.917824363576,15.027471773715
$GNGGA,220140.00,3450.12170560,N,12120.53648825,W,2,13,0.8,6.083,M,-37.623,M,7.0,0135*66
$PYRTM,2024,123.917824363576,15.027471773715
$GNHDT,304.772,T*2E
$PYRTM,2024,123.917830087303,15.027477497442
$GNGGA,220140.50,3450.12194657,N,12120.53719212,W,2,13,0.8,6.005,M,-37.623,M,7.4,0135*6F
$PYRTM,2024,123.917830087303,15.027477497442
$GNHDT,304.516,T*2E
$PYRTM,2024,123.917835937523,15.027483347662
$GNGGA,220141.00,3450.12213565,N,12120.53784481,W,2,13,0.8,6.219,M,-37.623,M,4.0,0135*65
$PYRTM,2024,123.917835937523,15.027483347662
$GNHDT,304.291,T*26
$PYRTM,2024,123.917841669225,15.027489079363
$GNGGA,220141.50,3450.12233737,N,12120.53846406,W,2,13,0.8,6.591,M,-37.623,M,4.4,0135*6A
$PYRTM,2024,123.917841669225,15.027489079363
$GNHDT,304.403,T*2B
$PYRTM,2024,123.917847513565,15.027494923704
$GNGGA,220142.00,3450.12260187,N,12120.53909713,W,2,13,0.8,6.903,M,-37.623,M,5.0,0135*68
$PYRTM,2024,123.917847513565,15.027494923704
$GNHDT,304.391,T*27
$PYRTM,2024,123.917853240590,15.027500650729
$GNGGA,220142.50,3450.12296931,N,12120.53979859,W,2,13,0.8,6.914,M,-37.623,M,5.4,0135*65
$PYRTM,2024,123.917853240590,15.027500650729
$GNHDT,304.380,T*27
$PYRTM,2024,123.917859080382,15.027506490532
$GNGGA,220143.00,3450.12342653,N,12120.54058145,W,2,13,0.8,6.551,M,-37.623,M,6.0,0135*61
$PYRTM,2024,123.917859080382,15.027506490532
$GNHDT,304.468,T*26
$PYRTM,2024,123.917864816065,15.027512226204
$GNGGA,220143.50,3450.12391672,N,12120.54141322,W,2,13,0.8,5.941,M,-37.623,M,6.4,0135*69
$PYRTM,2024,123.917864816065,15.027512226204
$GNHDT,304.321,T*2C
$PYRTM,2024,123.917870652535,15.027518062674
$GNGGA,220144.00,3450.12437655,N,12120.54222107,W,2,13,0.8,5.422,M,-37.623,M,7.0,0135*6B
$PYRTM,2024,123.917870652535,15.027518062674
$GNHDT,304.159,T*21
$PYRTM,2024,123.917876389502,15.027523799641
$GNGGA,220144.50,3450.12473324,N,12120.54295580,W,2,13,0.8,5.293,M,-37.623,M,7.4,0135*62
$PYRTM,2024,123.917876389502,15.027523799641
$GNHDT,304.284,T*22
$PYRTM,2024,123.917882237338,15.027529647477
$GNGGA,220145.00,3450.12497509,N,12120.54360887,W,2,13,0.8,5.745,M,-37.623,M,7.0,0135*6E
$PYRTM,2024,123.917882237338,15.027529647477
$GNHDT,304.389,T*2E
$PYRTM,2024,123.917887961690,15.027535371829
$GNGGA,220145.50,3450.12514423,N,12120.54422280,W,2,13,0.8,6.527,M,-37.623,M,7.4,0135*65
$PYRTM,2024,123.917887961690,15.027535371829
$GNHDT,304.490,T*21
$PYRTM,2024,123.917893807882,15.027541218021
$GNGGA,220146.00,3450.12531845,N,12120.54483897,W,2,13,0.8,7.381,M,-37.623,M,7.0,0135*60
$PYRTM,2024,123.917893807882,15.027541218021
$GNHDT,304.678,T*25
$PYRTM,2024,123.917899535046,15.027546945185
$GNGGA,220146.50,3450.12556131,N,12120.54551003,W,2,13,0.8,7.980,M,-37.623,M,7.4,0135*6A
$PYRTM,2024,123.917899535046,15.027546945185
$GNHDT,304.328,T*25
$PYRTM,2024,123.917905380174,15.027552790312
$GNGGA,220147.00,3450.12591606,N,12120.54622421,W,2,13,0.8,8.099,M,-37.623,M,4.0,0135*6C
$PYRTM,2024,123.917905380174,15.027552790312
$GNHDT,304.116,T*2A
$PYRTM,2024,123.917911112373,15.027558522512
$GNGGA,220147.50,3450.12633347,N,12120.54693832,W,2,13,0.8,7.807,M,-37.623,M,4.4,0135*62
$PYRTM,2024,123.917911112373,15.027558522512
$GNHDT,303.853,T*25
$PYRTM,2024,123.917916955764,15.027564365914
$GNGGA,220148.00,3450.12675558,N,12120.54760555,W,2,13,0.8,7.290,M,-37.623,M,5.0,0135*62
$PYRTM,2024,123.917916955764,15.027564365914
$GNHDT,303.887,T*2C
$PYRTM,2024,123.917922685220,15.027570095359
$GNGGA,220148.50,3450.12713768,N,12120.54825024,W,2,13,0.8,6.746,M,-37.623,M,5.4,0135*61
$PYRTM,2024,123.917922685220,15.027570095359
$GNHDT,303.802,T*21
$PYRTM,2024,123.917928526389,15.027575936528
$GNGGA,220149.00,3450.12747260,N,12120.54889341,W,2,13,0.8,6.332,M,-37.623,M,6.0,0135*6F
$PYRTM,2024,123.917928526389,15.027575936528
$GNHDT,303.663,T*28
$PYRTM,2024,123.917934261539,15.027581671678
$GNGGA,220149.50,3450.12778417,N,12120.54956432,W,2,13,0.8,6.080,M,-37.623,M,6.4,0135*6E
$PYRTM,2024,123.917934261539,15.027581671678
$GNHDT,303.613,T*2F
$PYRTM,2024,123.917940101806,15.027587511944
$GNGGA,220150.00,3450.12811372,N,12120.55028455,W,2,13,0.8,5.965,M,-37.623,M,7.0,0135*63
$PYRTM,2024,123.917940101806,15.027587511944
$GNHDT,303.696,T*22
$PYRTM,2024,123.917945829201,15.027593239340
$GNGGA,220150.50,3450.12846950,N,12120.55103263,W,2,13,0.8,5.945,M,-37.623,M,7.4,0135*63
$PYRTM,2024,123.917945829201,15.027593239340
$GNHDT,303.908,T*2A
$PYRTM,2024,123.917951672176,15.027599082315
$GNGGA,220151.00,3450.12882758,N,12120.55179717,W,2,13,0.8,6.054,M,-37.623,M,7.0,0135*6C
$PYRTM,2024,123.917951672176,15.027599082315
$GNHDT,303.755,T*2C
$PYRTM,2024,123.917957410451,15.027604820602
$GNGGA,220151.50,3450.12916480,N,12120.55255618,W,2,13,0.8,6.282,M,-37.623,M,7.4,0135*6D
$PYRTM,2024,123.917957410451,15.027604820602
$GNHDT,303.277,T*29
$PYRTM,2024,123.917963252685,15.027610662824
$GNGGA,220152.00,3450.12947642,N,12120.55332055,W,2,13,0.8,6.630,M,-37.623,M,7.0,0135*65
$PYRTM,2024,123.917963252685,15.027610662824
$GNHDT,302.926,T*27
$PYRTM,2024,123.917968979039,15.027616389178
$GNGGA,220152.50,3450.12979339,N,12120.55409301,W,2,13,0.8,6.957,M,-37.623,M,7.4,0135*63
$PYRTM,2024,123.917968979039,15.027616389178
$GNHDT,302.796,T*22
$PYRTM,2024,123.917974830347,15.027622240498
$GNGGA,220153.00,3450.13012870,N,12120.55487685,W,2,13,0.8,7.179,M,-37.623,M,4.0,0135*69
$PYRTM,2024,123.917974830347,15.027622240498
$GNHDT,303.007,T*2C
$PYRTM,2024,123.917980552350,15.027627962488
$GNGGA,220153.50,3450.13048898,N,12120.55564254,W,2,13,0.8,7.245,M,-37.623,M,4.4,0135*69
$PYRTM,2024,123.917980552350,15.027627962488
$GNHDT,303.506,T*28
$PYRTM,2024,123.917986394398,15.027633804537
$GNGGA,220154.00,3450.13085450,N,12120.55636464,W,2,13,0.8,7.201,M,-37.623,M,5.0,0135*66
$PYRTM,2024,123.917986394398,15.027633804537
$GNHDT,303.724,T*2A
$PYRTM,2024,123.917992125093,15.027639535231
$GNGGA,220154.50,3450.13121518,N,12120.55703424,W,2,13,0.8,7.101,M,-37.623,M,5.4,0135*65
$PYRTM,2024,123.917992125093,15.027639535231
$GNHDT,303.282,T*23
$PYRTM,2024,123.917997969606,15.027645379745
$GNGGA,220155.00,3450.13154937,N,12120.55768194,W,2,13,0.8,6.960,M,-37.623,M,6.0,0135*68
$PYRTM,2024,123.917997969606,15.027645379745
$GNHDT,303.066,T*2B
$PYRTM,2024,123.918003700845,15.027651110984
$GNGGA,220155.50,3450.13184190,N,12120.55835716,W,2,13,0.8,6.787,M,-37.623,M,6.4,0135*6D
$PYRTM,2024,123.918003700845,15.027651110984
$GNHDT,302.929,T*28
$PYRTM,2024,123.918009544120,15.027656954259
$GNGGA,220156.00,3450.13209315,N,12120.55907551,W,2,13,0.8,6.594,M,-37.623,M,7.0,0135*66
$PYRTM,2024,123.918009544120,15.027656954259
$GNHDT,302.817,T*24
$PYRTM,2024,123.918015280660,15.027662690799
$GNGGA,220156.50,3450.13232218,N,12120.55982716,W,2,13,0.8,6.420,M,-37.623,M,7.4,0135*61
$PYRTM,2024,123.918015280660,15.027662690799
$GNHDT,303.317,T*2E
$PYRTM,2024,123.918021123345,15.027668533484
$GNGGA,220157.00,3450.13255166,N,12120.56061032,W,2,13,0.8,6.259,M,-37.623,M,7.0,0135*64
$PYRTM,2024,123.918021123345,15.027668533484
$GNHDT,303.557,T*2C
$PYRTM,2024,123.918026846910,15.027674257049
$GNGGA,220157.50,3450.13282277,N,12120.56141818,W,2,13,0.8,6.061,M,-37.623,M,7.4,0135*66
$PYRTM,2024,123.918026846910,15.027674257049
$GNHDT,303.007,T*2C
$PYRTM,2024,123.918032698368,15.027680108507
$GNGGA,220158.00,3450.13317418,N,12120.56222498,W,2,13,0.8,5.820,M,-37.624,M,7.0,0135*61
$PYRTM,2024,123.918032698368,15.027680108507
$GNHDT,303.150,T*2F
$PYRTM,2024,123.918038425069,15.027685835208
$GNGGA,220158.50,3450.13360429,N,12120.56298188,W,2,13,0.8,5.624,M,-37.624,M,7.4,0135*6D
$PYRTM,2024,123.918038425069,15.027685835208
$GNHDT,303.349,T*25
$PYRTM,2024,123.918044274005,15.027691684144
$GNGGA,220159.00,3450.13405180,N,12120.56367339,W,2,13,0.8,5.664,M,-37.624,M,4.0,0135*61
$PYRTM,2024,123.918044274005,15.027691684144
$GNHDT,303.724,T*2A
$PYRTM,2024,123.918050005822,15.027697415972
$GNGGA,220159.50,3450.13444297,N,12120.56432747,W,2,13,0.8,6.018,M,-37.624,M,4.4,0135*64
$PYRTM,2024,123.918050005822,15.027697415972
$GNHDT,303.352,T*2F
$PYRTM,2024,123.918055846308,15.027703256447
$GNGGA,220200.00,3450.13475629,N,12120.56500019,W,2,13,0.8,6.598,M,-37.624,M,5.0,0135*69
$PYRTM,2024,123.918055846308,15.027703256447
$GNHDT,302.945,T*22
$PYRTM,2024,123.918061572500,15.027708982639
$GNGGA,220200.50,3450.13500738,N,12120.56572582,W,2,13,0.8,7.208,M,-37.624,M,5.4,0135*67
$PYRTM,2024,123.918061572500,15.027708982639
$GNHDT,302.480,T*26
$PYRTM,2024,123.918067417153,15.027714827292
$GNGGA,220201.00,3450.13522989,N,12120.56654552,W,2,13,0.8,7.616,M,-37.624,M,6.0,0135*61
$PYRTM,2024,123.918067417153,15.027714827292
$GNHDT,302.338,T*22
$PYRTM,2024,123.918073155150,15.027720565289
$GNGGA,220201.50,3450.13546325,N,12120.56743279,W,2,13,0.8,7.662,M,-37.624,M,6.4,0135*64
$PYRTM,2024,123.918073155150,15.027720565289
$GNHDT,302.299,T*28
$PYRTM,2024,123.918078993079,15.027726403218
$GNGGA,220202.00,3450.13572458,N,12120.56828024,W,2,13,0.8,7.439,M,-37.624,M,7.0,0135*69
$PYRTM,2024,123.918078993079,15.027726403218
$GNHDT,302.539,T*25
$PYRTM,2024,123.918084721331,15.027732131470
$GNGGA,220202.50,3450.13604580,N,12120.56903804,W,2,13,0.8,7.074,M,-37.624,M,7.4,0135*61
$PYRTM,2024,123.918084721331,15.027732131470
$GNHDT,302.823,T*23
$PYRTM,2024,123.918090562639,15.027737972778
$GNGGA,220203.00,3450.13642626,N,12120.56968783,W,2,13,0.8,6.676,M,-37.624,M,7.0,0135*64
$PYRTM,2024,123.918090562639,15.027737972778
$GNHDT,302.901,T*22
$PYRTM,2024,123.918096294502,15.027743704641
$GNGGA,220203.50,3450.13683027,N,12120.57029128,W,2,13,0.8,6.369,M,-37.624,M,7.4,0135*6E
$PYRTM,2024,123.918096294502,15.027743704641
$GNHDT,303.083,T*20
$PYRTM,2024,123.918102141053,15.027749551192
$GNGGA,220204.00,3450.13722742,N,12120.57089870,W,2,13,0.8,6.203,M,-37.624,M,7.0,0135*65
$PYRTM,2024,123.918102141053,15.027749551192
$GNHDT,303.277,T*29
$PYRTM,2024,123.918107864838,15.027755274977
$GNGGA,220204.50,3450.13758587,N,12120.57156205,W,2,13,0.8,6.197,M,-37.624,M,7.4,0135*67
$PYRTM,2024,123.918107864838,15.027755274977
$GNHDT,303.082,T*21
$PYRTM,2024,123.918113719896,15.027761130035
$GNGGA,220205.00,3450.13790314,N,12120.57229389,W,2,13,0.8,6.271,M,-37.624,M,4.0,0135*69
$PYRTM,2024,123.918113719896,15.027761130035
$GNHDT,303.238,T*22
$PYRTM,2024,123.918119442917,15.027766853056
$GNGGA,220205.50,3450.13820047,N,12120.57310426,W,2,13,0.8,6.303,M,-37.624,M,4.4,0135*64
$PYRTM,2024,123.918119442917,15.027766853056
$GNHDT,303.412,T*2C
$PYRTM,2024,123.918125283542,15.027772693681
$GNGGA,220206.00,3450.13849571,N,12120.57396102,W,2,13,0.8,6.291,M,-37.624,M,5.0,0135*6F
$PYRTM,2024,123.918125283542,15.027772693681
$GNHDT,303.309,T*21
$PYRTM,2024,123.918131014769,15.027778424919
$GNGGA,220206.50,3450.13880749,N,12120.57480227,W,2,13,0.8,6.288,M,-37.624,M,5.4,0135*6E
$PYRTM,2024,123.918131014769,15.027778424919
$GNHDT,303.301,T*29
$PYRTM,2024,123.918136859340,15.027784269479
$GNGGA,220207.00,3450.13913219,N,12120.57561489,W,2,13,0.8,6.356,M,-37.624,M,6.0,0135*68
$PYRTM,2024,123.918136859340,15.027784269479
$GNHDT,303.306,T*2E
$PYRTM,2024,123.918142587199,15.027789997338
$GNGGA,220207.50,3450.13946058,N,12120.57639657,W,2,13,0.8,6.528,M,-37.624,M,6.4,0135*6E
$PYRTM,2024,123.918142587199,15.027789997338
$GNHDT,303.145,T*2B
$PYRTM,2024,123.918148430093,15.027795840231
$GNGGA,220208.00,3450.13978159,N,12120.57716043,W,2,13,0.8,6.785,M,-37.624,M,7.0,0135*66
$PYRTM,2024,123.918148430093,15.027795840231
$GNHDT,303.278,T*26
$PYRTM,2024,123.918154160949,15.027801571088
$GNGGA,220208.50,3450.14010722,N,12120.57789236,W,2,13,0.8,7.059,M,-37.624,M,7.4,0135*6C
$PYRTM,2024,123.918154160949,15.027801571088
$GNHDT,303.546,T*2C
$PYRTM,2024,123.918160010775,15.027807420914
$GNGGA,220209.00,3450.14045242,N,12120.57858519,W,2,13,0.8,7.278,M,-37.624,M,7.0,0135*67
$PYRTM,2024,123.918160010775,15.027807420914
$GNHDT,303.803,T*20
$PYRTM,2024,123.918165744410,15.027813154549
$GNGGA,220209.50,3450.14083116,N,12120.57926417,W,2,13,0.8,7.328,M,-37.624,M,7.4,0135*6D
$PYRTM,2024,123.918165744410,15.027813154549
$GNHDT,303.997,T*2C
$PYRTM,2024,123.918171584630,15.027818994769
$GNGGA,220210.00,3450.14124443,N,12120.57996870,W,2,13,0.8,7.165,M,-37.624,M,7.0,0135*60
$PYRTM,2024,123.918171584630,15.027818994769
$GNHDT,304.186,T*23
$PYRTM,2024,123.918177314456,15.027824724595
$GNGGA,220210.50,3450.14166862,N,12120.58072373,W,2,13,0.8,6.866,M,-37.624,M,7.4,0135*67
$PYRTM,2024,123.918177314456,15.027824724595
$GNHDT,304.377,T*2F
$PYRTM,2024,123.918183158750,15.027830568889
$GNGGA,220211.00,3450.14206668,N,12120.58151851,W,2,13,0.8,6.533,M,-37.624,M,4.0,0135*63
$PYRTM,2024,123.918183158750,15.027830568889
$GNHDT,304.286,T*20
$PYRTM,2024,123.918188890093,15.027836300231
$GNGGA,220211.50,3450.14240228,N,12120.58231367,W,2,13,0.8,6.367,M,-37.624,M,4.4,0135*6C
$PYRTM,2024,123.918188890093,15.027836300231
$GNHDT,304.229,T*25
$PYRTM,2024,123.918194733542,15.027842143681
$GNGGA,220212.00,3450.14267372,N,12120.58307817,W,2,13,0.8,6.425,M,-37.624,M,5.0,0135*6D
$PYRTM,2024,123.918194733542,15.027842143681
$GNHDT,303.841,T*26
$PYRTM,2024,123.918200460405,15.027847870544
$GNGGA,220212.50,3450.14291168,N,12120.58381143,W,2,13,0.8,6.647,M,-37.624,M,5.4,0135*6C
$PYRTM,2024,123.918200460405,15.027847870544
$GNHDT,303.931,T*20
$PYRTM,2024,123.918206301528,15.027853711667
$GNGGA,220213.00,3450.14315213,N,12120.58455919,W,2,13,0.8,6.888,M,-37.624,M,6.0,0135*69
$PYRTM,2024,123.918206301528,15.027853711667
$GNHDT,303.907,T*25
$PYRTM,2024,123.918212033333,15.027859443484
$GNGGA,220213.50,3450.14345457,N,12120.58538115,W,2,13,0.8,6.941,M,-37.624,M,6.4,0135*61
$PYRTM,2024,123.918212033333,15.027859443484
$GNHDT,304.018,T*25
$PYRTM,2024,123.918217882882,15.027865293021
$GNGGA,220214.00,3450.14383264,N,12120.58624285,W,2,13,0.8,6.744,M,-37.624,M,7.0,0135*65
$PYRTM,2024,123.918217882882,15.027865293021
$GNHDT,304.291,T*26
$PYRTM,2024,123.918223612465,15.027871022604
$GNGGA,220214.50,3450.14427143,N,12120.58705552,W,2,13,0.8,6.422,M,-37.624,M,7.4,0135*67
$PYRTM,2024,123.918223612465,15.027871022604
$GNHDT,304.559,T*25
$PYRTM,2024,123.918229449456,15.027876859595
$GNGGA,220215.00,3450.14474470,N,12120.58774636,W,2,13,0.8,6.152,M,-37.624,M,7.0,0135*61
$PYRTM,2024,123.918229449456,15.027876859595
$GNHDT,304.890,T*2D
$PYRTM,2024,123.918235189028,15.027882599167
$GNGGA,220215.50,3450.14521169,N,12120.58831506,W,2,13,0.8,6.047,M,-37.624,M,7.4,0135*67
$PYRTM,2024,123.918235189028,15.027882599167
$GNHDT,305.089,T*2C
$PYRTM,2024,123.918241030463,15.027888440602
$GNGGA,220216.00,3450.14563671,N,12120.58879967,W,2,13,0.8,6.198,M,-37.624,M,7.0,0135*69
$PYRTM,2024,123.918241030463,15.027888440602
$GNHDT,305.524,T*2E
$PYRTM,2024,123.918246756424,15.027894166563
$GNGGA,220216.50,3450.14597597,N,12120.58934002,W,2,13,0.8,6.536,M,-37.624,M,7.4,0135*6A
$PYRTM,2024,123.918246756424,15.027894166563
$GNHDT,305.247,T*2C
$PYRTM,2024,123.918252603715,15.027900013854
$GNGGA,220217.00,3450.14622141,N,12120.59001481,W,2,13,0.8,6.899,M,-37.624,M,4.0,0135*62
$PYRTM,2024,123.918252603715,15.027900013854
$GNHDT,304.925,T*22
$PYRTM,2024,123.918258337882,15.027905748021
$GNGGA,220217.50,3450.14643414,N,12120.59086543,W,2,13,0.8,7.090,M,-37.624,M,4.4,0135*61
$PYRTM,2024,123.918258337882,15.027905748021
$GNHDT,304.375,T*2D
$PYRTM,2024,123.918264182130,15.027911592280
$GNGGA,220218.00,3450.14666350,N,12120.59181367,W,2,13,0.8,6.921,M,-37.625,M,5.0,0135*6B
$PYRTM,2024,123.918264182130,15.027911592280
$GNHDT,304.232,T*2F
$PYRTM,2024,123.918269902743,15.027917312894
$GNGGA,220218.50,3450.14691502,N,12120.59270422,W,2,13,0.8,6.636,M,-37.625,M,5.4,0135*61
$PYRTM,2024,123.918269902743,15.027917312894
$GNHDT,304.742,T*2D
$PYRTM,2024,123.918275748426,15.027923158565
$GNGGA,220219.00,3450.14719903,N,12120.59350673,W,2,13,0.8,6.342,M,-37.625,M,6.0,0135*6D
$PYRTM,2024,123.918275748426,15.027923158565
$GNHDT,305.194,T*21
$PYRTM,2024,123.918281486759,15.027928896898
$GNGGA,220219.50,3450.14752550,N,12120.59417876,W,2,13,0.8,6.142,M,-37.625,M,6.4,0135*64
$PYRTM,2024,123.918281486759,15.027928896898
$GNHDT,305.256,T*2C
$PYRTM,2024,123.918287322373,15.027934732512
$GNGGA,220220.00,3450.14791064,N,12120.59474504,W,2,13,0.8,6.094,M,-37.625,M,7.0,0135*64
$PYRTM,2024,123.918287322373,15.027934732512
$GNHDT,305.396,T*21
$PYRTM,2024,123.918293066169,15.027940476308
$GNGGA,220220.50,3450.14835469,N,12120.59528999,W,2,13,0.8,6.126,M,-37.625,M,7.4,0135*65
$PYRTM,2024,123.918293066169,15.027940476308
$GNHDT,305.430,T*2A
$PYRTM,2024,123.918298903426,15.027946313565
$GNGGA,220221.00,3450.14883295,N,12120.59585986,W,2,13,0.8,6.201,M,-37.625,M,7.0,0135*62
$PYRTM,2024,123.918298903426,15.027946313565
$GNHDT,305.583,T*23
$PYRTM,2024,123.918304624329,15.027952034468
$GNGGA,220221.50,3450.14928890,N,12120.59650673,W,2,13,0.8,6.285,M,-37.625,M,7.4,0135*6E
$PYRTM,2024,123.918304624329,15.027952034468
$GNHDT,305.789,T*2B
$PYRTM,2024,123.918310466458,15.027957876609
$GNGGA,220222.00,3450.14968831,N,12120.59724137,W,2,13,0.8,6.422,M,-37.625,M,7.0,0135*6D
$PYRTM,2024,123.918310466458,15.027957876609
$GNHDT,306.106,T*29
$PYRTM,2024,123.918316204190,15.027963614340
$GNGGA,220222.50,3450.15002511,N,12120.59803916,W,2,13,0.8,6.573,M,-37.625,M,7.4,0135*63
$PYRTM,2024,123.918316204190,15.027963614340
$GNHDT,306.022,T*2E
$PYRTM,2024,123.918322045648,15.027969455787
$GNGGA,220223.00,3450.15032717,N,12120.59888361,W,2,13,0.8,6.692,M,-37.625,M,4.0,0135*62
$PYRTM,2024,123.918322045648,15.027969455787
$GNHDT,306.208,T*24
$PYRTM,2024,123.918327775162,15.027975185301
$GNGGA,220223.50,3450.15064288,N,12120.59974997,W,2,13,0.8,6.703,M,-37.625,M,4.4,0135*6B
$PYRTM,2024,123.918327775162,15.027975185301
$GNHDT,305.918,T*2D
$PYRTM,2024,123.918333622535,15.027981032674
$GNGGA,220224.00,3450.15098889,N,12120.60059336,W,2,13,0.8,6.663,M,-37.625,M,5.0,0135*6E
$PYRTM,2024,123.918333622535,15.027981032674
$GNHDT,306.115,T*2B
$PYRTM,2024,123.918339353704,15.027986763843
$GNGGA,220224.50,3450.15134608,N,12120.60135001,W,2,13,0.8,6.675,M,-37.625,M,5.4,0135*64
$PYRTM,2024,123.918339353704,15.027986763843
$GNHDT,306.277,T*2C
$PYRTM,2024,123.918345191759,15.027992601898
$GNGGA,220225.00,3450.15169796,N,12120.60200052,W,2,13,0.8,6.788,M,-37.625,M,6.0,0135*69
$PYRTM,2024,123.918345191759,15.027992601898
$GNHDT,306.214,T*29
$PYRTM,2024,123.918350920741,15.027998330880
$GNGGA,220225.50,3450.15205375,N,12120.60258533,W,2,13,0.8,6.983,M,-37.625,M,6.4,0135*62
$PYRTM,2024,123.918350920741,15.027998330880
$GNHDT,305.616,T*2C
$PYRTM,2024,123.918356765718,15.028004175856
$GNGGA,220226.00,3450.15243002,N,12120.60316082,W,2,13,0.8,7.143,M,-37.625,M,7.0,0135*61
$PYRTM,2024,123.918356765718,15.028004175856
$GNHDT,305.833,T*25
$PYRTM,2024,123.918362498137,15.028009908275
$GNGGA,220226.50,3450.15283884,N,12120.60377770,W,2,13,0.8,7.170,M,-37.625,M,7.4,0135*67
$PYRTM,2024,123.918362498137,15.028009908275
$GNHDT,306.230,T*2F
$PYRTM,2024,123.918368343970,15.028015754109
$GNGGA,220227.00,3450.15326525,N,12120.60442666,W,2,13,0.8,7.060,M,-37.625,M,7.0,0135*68
$PYRTM,2024,123.918368343970,15.028015754109
$GNHDT,306.043,T*29
$PYRTM,2024,123.918374072269,15.028021482407
$GNGGA,220227.50,3450.15369419,N,12120.60512137,W,2,13,0.8,6.806,M,-37.625,M,7.4,0135*62
$PYRTM,2024,123.918374072269,15.028021482407
$GNHDT,306.029,T*25
$PYRTM,2024,123.918379915671,15.028027325822
$GNGGA,220228.00,3450.15410164,N,12120.60586657,W,2,13,0.8,6.495,M,-37.625,M,7.0,0135*60
$PYRTM,2024,123.918379915671,15.028027325822
$GNHDT,306.152,T*28
$PYRTM,2024,123.918385643067,15.028033053206
$GNGGA,220228.50,3450.15445116,N,12120.60663525,W,2,13,0.8,6.264,M,-37.625,M,7.4,0135*62
$PYRTM,2024,123.918385643067,15.028033053206
$GNHDT,306.208,T*24
$PYRTM,2024,123.918391489572,15.028038899711
