$PYRTM,2024,126.666666874016,17.776314284155
$GNGGA,160000.00,3400.95879736,N,11931.76810270,W,2,13,0.9,9.424,M,-37.340,M,4.0,0131*6A
$PYRTM,2024,126.666666874016,17.776314284155
$GNHDT,273.685,T*26
$PYRTM,2024,126.666672602627,17.776320012766
$GNGGA,160000.50,3400.95892387,N,11931.76806497,W,2,13,0.9,9.389,M,-37.340,M,4.4,0131*68
$PYRTM,2024,126.666672602627,17.776320012766
$GNHDT,273.747,T*29
$PYRTM,2024,126.666678445856,17.776325855995
$GNGGA,160001.00,3400.95904949,N,11931.76803816,W,2,13,0.9,9.355,M,-37.340,M,5.0,0131*6E
$PYRTM,2024,126.666678445856,17.776325855995
$GNHDT,273.888,T*25
$PYRTM,2024,126.666684178449,17.776331588588
$GNGGA,160001.50,3400.95916904,N,11931.76800803,W,2,13,0.9,9.352,M,-37.340,M,5.4,0131*65
$PYRTM,2024,126.666684178449,17.776331588588
$GNHDT,273.942,T*22
$PYRTM,2024,126.666690019097,17.776337429236
$GNGGA,160002.00,3400.95927334,N,11931.76796015,W,2,13,0.9,9.380,M,-37.340,M,6.0,0131*6F
$PYRTM,2024,126.666690019097,17.776337429236
$GNHDT,273.983,T*2F
$PYRTM,2024,126.666695754664,17.776343164803
$GNGGA,160002.50,3400.95936240,N,11931.76791405,W,2,13,0.9,9.400,M,-37.340,M,6.4,0131*61
$PYRTM,2024,126.666695754664,17.776343164803
$GNHDT,274.024,T*2C
$PYRTM,2024,126.666701597558,17.776349007697
$GNGGA,160003.00,3400.95944520,N,11931.76786516,W,2,13,0.9,9.404,M,-37.340,M,7.0,0131*65
$PYRTM,2024,126.666701597558,17.776349007697
$GNHDT,274.050,T*2F
$PYRTM,2024,126.666707331852,17.776354741991
$GNGGA,160003.50,3400.95949391,N,11931.76782630,W,2,13,0.9,9.374,M,-37.340,M,7.4,0131*66
$PYRTM,2024,126.666707331852,17.776354741991
$GNHDT,273.974,T*27
$PYRTM,2024,126.666713169120,17.776360579259
$GNGGA,160004.00,3400.95953441,N,11931.76777834,W,2,13,0.9,9.303,M,-37.340,M,7.0,0131*61
$PYRTM,2024,126.666713169120,17.776360579259
$GNHDT,273.977,T*24
$PYRTM,2024,126.666718900845,17.776366310984
$GNGGA,160004.50,3400.95957056,N,11931.76771969,W,2,13,0.9,9.230,M,-37.340,M,7.4,0131*68
$PYRTM,2024,126.666718900845,17.776366310984
$GNHDT,274.140,T*2F
$PYRTM,2024,126.666724742280,17.776372152419
$GNGGA,160005.00,3400.95961596,N,11931.76765838,W,2,13,0.9,9.137,M,-37.340,M,7.0,0131*60
$PYRTM,2024,126.666724742280,17.776372152419
$GNHDT,274.139,T*21
$PYRTM,2024,126.666730478657,17.776377888796
$GNGGA,160005.50,3400.95967996,N,11931.76759166,W,2,13,0.9,9.053,M,-37.340,M,7.4,0131*65
$PYRTM,2024,126.666730478657,17.776377888796
$GNHDT,274.109,T*22
$PYRTM,2024,126.666736316551,17.776383726690
$GNGGA,160006.00,3400.95975793,N,11931.76752345,W,2,13,0.9,8.966,M,-37.340,M,4.0,0131*6A
$PYRTM,2024,126.666736316551,17.776383726690
$GNHDT,274.038,T*21
$PYRTM,2024,126.666742052338,17.776389462488
$GNGGA,160006.50,3400.95984854,N,11931.76745976,W,2,13,0.9,8.914,M,-37.340,M,4.4,0131*68
$PYRTM,2024,126.666742052338,17.776389462488
$GNHDT,273.963,T*21
$PYRTM,2024,126.666747889757,17.776395299896
$GNGGA,160007.00,3400.95993719,N,11931.76740317,W,2,13,0.9,8.893,M,-37.340,M,5.0,0131*6F
$PYRTM,2024,126.666747889757,17.776395299896
$GNHDT,273.867,T*24
$PYRTM,2024,126.666753626817,17.776401036956
$GNGGA,160007.50,3400.96001538,N,11931.76733945,W,2,13,0.9,8.907,M,-37.340,M,5.4,0131*6B
$PYRTM,2024,126.666753626817,17.776401036956
$GNHDT,274.072,T*2F
$PYRTM,2024,126.666759468762,17.776406878900
$GNGGA,160008.00,3400.96007896,N,11931.76727801,W,2,13,0.9,8.959,M,-37.340,M,6.0,0131*66
$PYRTM,2024,126.666759468762,17.776406878900
$GNHDT,274.072,T*2F
$PYRTM,2024,126.666765197130,17.776412607269
$GNGGA,160008.50,3400.96013381,N,11931.76720755,W,2,13,0.9,9.043,M,-37.340,M,6.4,0131*65
$PYRTM,2024,126.666765197130,17.776412607269
$GNHDT,274.065,T*29
$PYRTM,2024,126.666771038299,17.776418448438
$GNGGA,160009.00,3400.96018166,N,11931.76714398,W,2,13,0.9,9.131,M,-37.340,M,7.0,0131*62
$PYRTM,2024,126.666771038299,17.776418448438
$GNHDT,274.085,T*27
$PYRTM,2024,126.666776773032,17.776424183171
$GNGGA,160009.50,3400.96023474,N,11931.76708626,W,2,13,0.9,9.197,M,-37.340,M,7.4,0131*6C
$PYRTM,2024,126.666776773032,17.776424183171
$GNHDT,274.195,T*27
$PYRTM,2024,126.666782613692,17.776430023831
$GNGGA,160010.00,3400.96029301,N,11931.76703100,W,2,13,0.9,9.246,M,-37.340,M,7.0,0131*6D
$PYRTM,2024,126.666782613692,17.776430023831
$GNHDT,274.304,T*2D
$PYRTM,2024,126.666788344687,17.776435754838
$GNGGA,160010.50,3400.96036836,N,11931.76696623,W,2,13,0.9,9.297,M,-37.340,M,7.4,0131*6A
$PYRTM,2024,126.666788344687,17.776435754838
$GNHDT,274.121,T*28
$PYRTM,2024,126.666794186898,17.776441597037
$GNGGA,160011.00,3400.96045575,N,11931.76690081,W,2,13,0.9,9.310,M,-37.340,M,7.0,0131*62
$PYRTM,2024,126.666794186898,17.776441597037
$GNHDT,274.062,T*2E
$PYRTM,2024,126.666799920278,17.776447330417
$GNGGA,160011.50,3400.96055317,N,11931.76684370,W,2,13,0.9,9.295,M,-37.340,M,7.4,0131*64
$PYRTM,2024,126.666799920278,17.776447330417
$GNHDT,273.996,T*2B
$PYRTM,2024,126.666805764016,17.776453174155
$GNGGA,160012.00,3400.96065992,N,11931.76679772,W,2,13,0.9,9.247,M,-37.340,M,4.0,0131*6A
$PYRTM,2024,126.666805764016,17.776453174155
$GNHDT,273.984,T*28
$PYRTM,2024,126.666811493426,17.776458903576
$GNGGA,160012.50,3400.96078223,N,11931.76676272,W,2,13,0.9,9.203,M,-37.340,M,4.4,0131*6C
$PYRTM,2024,126.666811493426,17.776458903576
$GNHDT,273.882,T*2F
$PYRTM,2024,126.666817335451,17.776464745590
$GNGGA,160013.00,3400.96089917,N,11931.76671675,W,2,13,0.9,9.179,M,-37.340,M,5.0,0131*65
$PYRTM,2024,126.666817335451,17.776464745590
$GNHDT,273.993,T*2E
$PYRTM,2024,126.666823072257,17.776470482396
$GNGGA,160013.50,3400.96100163,N,11931.76664898,W,2,13,0.9,9.174,M,-37.340,M,5.4,0131*6B
$PYRTM,2024,126.666823072257,17.776470482396
$GNHDT,274.055,T*2A
$PYRTM,2024,126.666828912928,17.776476323079
$GNGGA,160014.00,3400.96109906,N,11931.76657652,W,2,13,0.9,9.199,M,-37.340,M,6.0,0131*67
$PYRTM,2024,126.666828912928,17.776476323079
$GNHDT,274.097,T*24
$PYRTM,2024,126.666834641875,17.776482052025
$GNGGA,160014.50,3400.96119943,N,11931.76651932,W,2,13,0.9,9.235,M,-37.340,M,6.4,0131*6C
$PYRTM,2024,126.666834641875,17.776482052025
$GNHDT,274.314,T*2C
$PYRTM,2024,126.666840484271,17.776487894410
$GNGGA,160015.00,3400.96128904,N,11931.76647486,W,2,13,0.9,9.264,M,-37.340,M,7.0,0131*6D
$PYRTM,2024,126.666840484271,17.776487894410
$GNHDT,274.405,T*2B
$PYRTM,2024,126.666846217014,17.776493627153
$GNGGA,160015.50,3400.96136842,N,11931.76643973,W,2,13,0.9,9.278,M,-37.340,M,7.4,0131*6E
$PYRTM,2024,126.666846217014,17.776493627153
$GNHDT,274.277,T*28
$PYRTM,2024,126.666852057593,17.776499467731
$GNGGA,160016.00,3400.96144679,N,11931.76639417,W,2,13,0.9,9.260,M,-37.340,M,7.0,0131*64
$PYRTM,2024,126.666852057593,17.776499467731
$GNHDT,274.235,T*2E
$PYRTM,2024,126.666857788715,17.776505198854
$GNGGA,160016.50,3400.96150715,N,11931.76635336,W,2,13,0.9,9.227,M,-37.340,M,7.4,0131*60
$PYRTM,2024,126.666857788715,17.776505198854
$GNHDT,274.289,T*29
$PYRTM,2024,126.666863632708,17.776511042847
$GNGGA,160017.00,3400.96158315,N,11931.76630996,W,2,13,0.9,9.168,M,-37.340,M,7.0,0131*61
$PYRTM,2024,126.666863632708,17.776511042847
$GNHDT,274.519,T*27
$PYRTM,2024,126.666869369144,17.776516779282
$GNGGA,160017.50,3400.96166553,N,11931.76626546,W,2,13,0.9,9.107,M,-37.340,M,7.4,0131*66
$PYRTM,2024,126.666869369144,17.776516779282
$GNHDT,274.430,T*2D
$PYRTM,2024,126.666875207072,17.776522617211
$GNGGA,160018.00,3400.96176175,N,11931.76622237,W,2,13,0.9,9.021,M,-37.340,M,4.0,0131*6A
$PYRTM,2024,126.666875207072,17.776522617211
$GNHDT,274.474,T*2D
$PYRTM,2024,126.666880940336,17.776528350475
$GNGGA,160018.50,3400.96186241,N,11931.76617824,W,2,13,0.9,8.952,M,-37.340,M,4.4,0131*62
$PYRTM,2024,126.666880940336,17.776528350475
$GNHDT,274.487,T*21
$PYRTM,2024,126.666886780787,17.776534190938
$GNGGA,160019.00,3400.96195911,N,11931.76613410,W,2,13,0.9,8.881,M,-37.340,M,5.0,0131*6F
$PYRTM,2024,126.666886780787,17.776534190938
$GNHDT,274.398,T*28
$PYRTM,2024,126.666892511215,17.776539921354
$GNGGA,160019.50,3400.96204049,N,11931.76609512,W,2,13,0.9,8.834,M,-37.340,M,5.4,0131*67
$PYRTM,2024,126.666892511215,17.776539921354
$GNHDT,274.432,T*2F
$PYRTM,2024,126.666898358044,17.776545768183
$GNGGA,160020.00,3400.96211838,N,11931.76604932,W,2,13,0.9,8.813,M,-37.340,M,6.0,0131*63
$PYRTM,2024,126.666898358044,17.776545768183
$GNHDT,274.379,T*27
$PYRTM,2024,126.666904086539,17.776551496678
$GNGGA,160020.50,3400.96216288,N,11931.76600755,W,2,13,0.9,8.830,M,-37.340,M,6.4,0131*6E
$PYRTM,2024,126.666904086539,17.776551496678
$GNHDT,274.395,T*25
$PYRTM,2024,126.666909927500,17.776557337639
$GNGGA,160021.00,3400.96219298,N,11931.76595699,W,2,13,0.9,8.887,M,-37.340,M,7.0,0131*63
$PYRTM,2024,126.666909927500,17.776557337639
$GNHDT,274.447,T*2D
$PYRTM,2024,126.666915664826,17.776563074965
$GNGGA,160021.50,3400.96221813,N,11931.76590392,W,2,13,0.9,8.980,M,-37.340,M,7.4,0131*6D
$PYRTM,2024,126.666915664826,17.776563074965
$GNHDT,274.426,T*2A
$PYRTM,2024,126.666921501481,17.776568911632
$GNGGA,160022.00,3400.96225589,N,11931.76585734,W,2,13,0.9,9.066,M,-37.340,M,7.0,0131*69
$PYRTM,2024,126.666921501481,17.776568911632
$GNHDT,274.442,T*28
$PYRTM,2024,126.666927234028,17.776574644167
$GNGGA,160022.50,3400.96232358,N,11931.76580598,W,2,13,0.9,9.137,M,-37.340,M,7.4,0131*60
$PYRTM,2024,126.666927234028,17.776574644167
$GNHDT,274.627,T*29
$PYRTM,2024,126.666933077303,17.776580487454
$GNGGA,160023.00,3400.96240936,N,11931.76576871,W,2,13,0.9,9.168,M,-37.340,M,7.0,0131*6E
$PYRTM,2024,126.666933077303,17.776580487454
$GNHDT,274.605,T*29
$PYRTM,2024,126.666938813229,17.776586223368
$GNGGA,160023.50,3400.96251380,N,11931.76573286,W,2,13,0.9,9.164,M,-37.340,M,7.4,0131*63
$PYRTM,2024,126.666938813229,17.776586223368
$GNHDT,274.634,T*2B
$PYRTM,2024,126.666944650984,17.776592061123
$GNGGA,160024.00,3400.96262774,N,11931.76570619,W,2,13,0.9,9.130,M,-37.340,M,4.0,0131*69
$PYRTM,2024,126.666944650984,17.776592061123
$GNHDT,274.470,T*29
$PYRTM,2024,126.666950387037,17.776597797176
$GNGGA,160024.50,3400.96273304,N,11931.76567822,W,2,13,0.9,9.105,M,-37.340,M,4.4,0131*6D
$PYRTM,2024,126.666950387037,17.776597797176
$GNHDT,274.382,T*23
$PYRTM,2024,126.666956227083,17.776603637222
$GNGGA,160025.00,3400.96282018,N,11931.76564787,W,2,13,0.9,9.099,M,-37.340,M,5.0,0131*6B
$PYRTM,2024,126.666956227083,17.776603637222
$GNHDT,274.262,T*2C
$PYRTM,2024,126.666961960660,17.776609370799
$GNGGA,160025.50,3400.96289648,N,11931.76560477,W,2,13,0.9,9.145,M,-37.340,M,5.4,0131*6A
$PYRTM,2024,126.666961960660,17.776609370799
$GNHDT,274.327,T*2C
$PYRTM,2024,126.666967799271,17.776615209410
$GNGGA,160026.00,3400.96295452,N,11931.76555273,W,2,13,0.9,9.220,M,-37.340,M,6.0,0131*6B
$PYRTM,2024,126.666967799271,17.776615209410
$GNHDT,274.296,T*27
$PYRTM,2024,126.666973536111,17.776620946250
$GNGGA,160026.50,3400.96301846,N,11931.76549484,W,2,13,0.9,9.305,M,-37.340,M,6.4,0131*6A
$PYRTM,2024,126.666973536111,17.776620946250
$GNHDT,274.467,T*2F
$PYRTM,2024,126.666979372847,17.776626782986
$GNGGA,160027.00,3400.96310218,N,11931.76544131,W,2,13,0.9,9.390,M,-37.340,M,7.0,0131*60
$PYRTM,2024,126.666979372847,17.776626782986
$GNHDT,274.656,T*2F
$PYRTM,2024,126.666985104016,17.776632514155
$GNGGA,160027.50,3400.96320853,N,11931.76538635,W,2,13,0.9,9.431,M,-37.340,M,7.4,0131*63
$PYRTM,2024,126.666985104016,17.776632514155
$GNHDT,274.736,T*28
$PYRTM,2024,126.666990952072,17.776638362211
$GNGGA,160028.00,3400.96333895,N,11931.76534199,W,2,13,0.9,9.426,M,-37.340,M,7.0,0131*6E
$PYRTM,2024,126.666990952072,17.776638362211
$GNHDT,274.681,T*25
$PYRTM,2024,126.666996678796,17.776644088935
$GNGGA,160028.50,3400.96347628,N,11931.76529193,W,2,13,0.9,9.376,M,-37.340,M,7.4,0131*60
$PYRTM,2024,126.666996678796,17.776644088935
$GNHDT,274.696,T*23
$PYRTM,2024,126.667002522558,17.776649932708
$GNGGA,160029.00,3400.96361332,N,11931.76524170,W,2,13,0.9,9.297,M,-37.340,M,7.0,0131*64
$PYRTM,2024,126.667002522558,17.776649932708
$GNHDT,274.571,T*29
$PYRTM,2024,126.667008252269,17.776655662407
$GNGGA,160029.50,3400.96373617,N,11931.76518897,W,2,13,0.9,9.192,M,-37.340,M,7.4,0131*6D
$PYRTM,2024,126.667008252269,17.776655662407
$GNHDT,274.681,T*25
$PYRTM,2024,126.667014096817,17.776661506956
$GNGGA,160030.00,3400.96382752,N,11931.76513630,W,2,13,0.9,9.112,M,-37.340,M,4.0,0131*69
$PYRTM,2024,126.667014096817,17.776661506956
$GNHDT,274.677,T*2C
$PYRTM,2024,126.667019829109,17.776667239248
$GNGGA,160030.50,3400.96389173,N,11931.76507873,W,2,13,0.9,9.049,M,-37.340,M,4.4,0131*65
$PYRTM,2024,126.667019829109,17.776667239248
$GNHDT,274.617,T*2A
$PYRTM,2024,126.667025670729,17.776673080880
$GNGGA,160031.00,3400.96392802,N,11931.76501321,W,2,13,0.9,9.026,M,-37.340,M,5.0,0131*62
$PYRTM,2024,126.667025670729,17.776673080880
$GNHDT,274.559,T*23
$PYRTM,2024,126.667031403287,17.776678813426
$GNGGA,160031.50,3400.96395576,N,11931.76496042,W,2,13,0.9,9.035,M,-37.340,M,5.4,0131*61
$PYRTM,2024,126.667031403287,17.776678813426
$GNHDT,274.575,T*2D
$PYRTM,2024,126.667037246620,17.776684656759
$GNGGA,160032.00,3400.96399756,N,11931.76490094,W,2,13,0.9,9.057,M,-37.340,M,6.0,0131*65
$PYRTM,2024,126.667037246620,17.776684656759
$GNHDT,274.676,T*2D
$PYRTM,2024,126.667042974132,17.776690384271
$GNGGA,160032.50,3400.96406599,N,11931.76483361,W,2,13,0.9,9.078,M,-37.340,M,6.4,0131*62
$PYRTM,2024,126.667042974132,17.776690384271
$GNHDT,274.943,T*24
$PYRTM,2024,126.667048819792,17.776696229931
$GNGGA,160033.00,3400.96416831,N,11931.76475509,W,2,13,0.9,9.094,M,-37.340,M,7.0,0131*6E
$PYRTM,2024,126.667048819792,17.776696229931
$GNHDT,275.098,T*2A
$PYRTM,2024,126.667054548553,17.776701958692
$GNGGA,160033.50,3400.96429311,N,11931.76467873,W,2,13,0.9,9.077,M,-37.340,M,7.4,0131*64
$PYRTM,2024,126.667054548553,17.776701958692
$GNHDT,274.922,T*23
$PYRTM,2024,126.667060395394,17.776707805532
$GNGGA,160034.00,3400.96441408,N,11931.76461284,W,2,13,0.9,9.033,M,-37.340,M,7.0,0131*67
$PYRTM,2024,126.667060395394,17.776707805532
$GNHDT,274.845,T*23
$PYRTM,2024,126.667066123148,17.776713533287
$GNGGA,160034.50,3400.96450678,N,11931.76455614,W,2,13,0.9,8.967,M,-37.340,M,7.4,0131*60
$PYRTM,2024,126.667066123148,17.776713533287
$GNHDT,274.916,T*24
$PYRTM,2024,126.667071974097,17.776719384248
$GNGGA,160035.00,3400.96456538,N,11931.76449392,W,2,13,0.9,8.898,M,-37.340,M,7.0,0131*66
$PYRTM,2024,126.667071974097,17.776719384248
$GNHDT,275.023,T*2A
$PYRTM,2024,126.667077697801,17.776725107940
$GNGGA,160035.50,3400.96456913,N,11931.76444390,W,2,13,0.9,8.890,M,-37.340,M,7.4,0131*65
$PYRTM,2024,126.667077697801,17.776725107940
$GNHDT,274.793,T*27
$PYRTM,2024,126.667083543993,17.776730954132
$GNGGA,160036.00,3400.96454688,N,11931.76438114,W,2,13,0.9,8.955,M,-37.340,M,4.0,0131*66
$PYRTM,2024,126.667083543993,17.776730954132
$GNHDT,274.882,T*28
$PYRTM,2024,126.667089276898,17.776736687049
$GNGGA,160036.50,3400.96454366,N,11931.76431506,W,2,13,0.9,9.072,M,-37.340,M,4.4,0131*61
$PYRTM,2024,126.667089276898,17.776736687049
$GNHDT,275.068,T*25
$PYRTM,2024,126.667095114560,17.776742524699
$GNGGA,160037.00,3400.96457896,N,11931.76425206,W,2,13,0.9,9.205,M,-37.340,M,5.0,0131*67
$PYRTM,2024,126.667095114560,17.776742524699
$GNHDT,275.127,T*2F
$PYRTM,2024,126.667100850532,17.776748260671
$GNGGA,160037.50,3400.96467102,N,11931.76419231,W,2,13,0.9,9.316,M,-37.340,M,5.4,0131*69
$PYRTM,2024,126.667100850532,17.776748260671
$GNHDT,275.078,T*24
$PYRTM,2024,126.667106690475,17.776754100625
$GNGGA,160038.00,3400.96480966,N,11931.76415011,W,2,13,0.9,9.367,M,-37.340,M,6.0,0131*6D
$PYRTM,2024,126.667106690475,17.776754100625
$GNHDT,275.022,T*2B
$PYRTM,2024,126.667112420069,17.776759830208
$GNGGA,160038.50,3400.96496704,N,11931.76411878,W,2,13,0.9,9.353,M,-37.340,M,6.4,0131*65
$PYRTM,2024,126.667112420069,17.776759830208
$GNHDT,274.927,T*26
$PYRTM,2024,126.667118262662,17.776765672813
$GNGGA,160039.00,3400.96510620,N,11931.76409891,W,2,13,0.9,9.299,M,-37.340,M,7.0,0131*65
$PYRTM,2024,126.667118262662,17.776765672813
$GNHDT,274.872,T*27
$PYRTM,2024,126.667123995035,17.776771405174
$GNGGA,160039.50,3400.96520877,N,11931.76407909,W,2,13,0.9,9.252,M,-37.340,M,7.4,0131*62
$PYRTM,2024,126.667123995035,17.776771405174
$GNHDT,274.827,T*27
$PYRTM,2024,126.667129836713,17.776777246863
$GNGGA,160040.00,3400.96528562,N,11931.76405271,W,2,13,0.9,9.250,M,-37.340,M,7.0,0131*68
$PYRTM,2024,126.667129836713,17.776777246863
$GNHDT,274.719,T*25
$PYRTM,2024,126.667135571204,17.776782981343
$GNGGA,160040.50,3400.96532555,N,11931.76401900,W,2,13,0.9,9.315,M,-37.340,M,7.4,0131*6F
$PYRTM,2024,126.667135571204,17.776782981343
$GNHDT,274.570,T*28
$PYRTM,2024,126.667141414086,17.776788824225
$GNGGA,160041.00,3400.96536138,N,11931.76397921,W,2,13,0.9,9.436,M,-37.340,M,7.0,0131*69
$PYRTM,2024,126.667141414086,17.776788824225
$GNHDT,274.926,T*27
$PYRTM,2024,126.667147145058,17.776794555197
$GNGGA,160041.50,3400.96542758,N,11931.76393993,W,2,13,0.9,9.547,M,-37.340,M,7.4,0131*61
$PYRTM,2024,126.667147145058,17.776794555197
$GNHDT,274.766,T*2D
$PYRTM,2024,126.667152984699,17.776800394838
$GNGGA,160042.00,3400.96553189,N,11931.76390851,W,2,13,0.9,9.614,M,-37.340,M,4.0,0131*63
$PYRTM,2024,126.667152984699,17.776800394838
$GNHDT,274.815,T*26
$PYRTM,2024,126.667158722037,17.776806132176
$GNGGA,160042.50,3400.96567322,N,11931.76389306,W,2,13,0.9,9.603,M,-37.340,M,4.4,0131*61
$PYRTM,2024,126.667158722037,17.776806132176
$GNHDT,274.935,T*25
$PYRTM,2024,126.667164560914,17.776811971065
$GNGGA,160043.00,3400.96583657,N,11931.76388641,W,2,13,0.9,9.502,M,-37.340,M,5.0,0131*68
$PYRTM,2024,126.667164560914,17.776811971065
$GNHDT,274.920,T*21
$PYRTM,2024,126.667170290394,17.776817700532
$GNGGA,160043.50,3400.96599728,N,11931.76386882,W,2,13,0.9,9.352,M,-37.340,M,5.4,0131*67
$PYRTM,2024,126.667170290394,17.776817700532
$GNHDT,274.988,T*23
$PYRTM,2024,126.667176136076,17.776823546227
$GNGGA,160044.00,3400.96613761,N,11931.76383535,W,2,13,0.9,9.210,M,-37.340,M,6.0,0131*6D
$PYRTM,2024,126.667176136076,17.776823546227
$GNHDT,275.019,T*23
$PYRTM,2024,126.667181868125,17.776829278264
$GNGGA,160044.50,3400.96624462,N,11931.76378402,W,2,13,0.9,9.118,M,-37.340,M,6.4,0131*62
$PYRTM,2024,126.667181868125,17.776829278264
$GNHDT,274.998,T*22
$PYRTM,2024,126.667187709815,17.776835119954
$GNGGA,160045.00,3400.96631121,N,11931.76372073,W,2,13,0.9,9.092,M,-37.340,M,7.0,0131*6E
$PYRTM,2024,126.667187709815,17.776835119954
$GNHDT,275.056,T*28
$PYRTM,2024,126.667193441701,17.776840851852
$GNGGA,160045.50,3400.96635558,N,11931.76364385,W,2,13,0.9,9.140,M,-37.340,M,7.4,0131*62
$PYRTM,2024,126.667193441701,17.776840851852
$GNHDT,275.109,T*23
$PYRTM,2024,126.667199281921,17.776846692060
$GNGGA,160046.00,3400.96638492,N,11931.76357379,W,2,13,0.9,9.236,M,-37.340,M,7.0,0131*6B
$PYRTM,2024,126.667199281921,17.776846692060
$GNHDT,275.059,T*27
$PYRTM,2024,126.667205015370,17.776852425509
$GNGGA,160046.50,3400.96642198,N,11931.76351469,W,2,13,0.9,9.323,M,-37.340,M,7.4,0131*6D
$PYRTM,2024,126.667205015370,17.776852425509
$GNHDT,275.192,T*21
$PYRTM,2024,126.667210857627,17.776858267766
$GNGGA,160047.00,3400.96647343,N,11931.76346231,W,2,13,0.9,9.365,M,-37.340,M,7.0,0131*63
$PYRTM,2024,126.667210857627,17.776858267766
$GNHDT,275.245,T*28
$PYRTM,2024,126.667216586782,17.776863996921
$GNGGA,160047.50,3400.96654427,N,11931.76340375,W,2,13,0.9,9.360,M,-37.340,M,7.4,0131*67
$PYRTM,2024,126.667216586782,17.776863996921
$GNHDT,275.090,T*22
$PYRTM,2024,126.667222433356,17.776869843495
$GNGGA,160048.00,3400.96662861,N,11931.76334621,W,2,13,0.9,9.300,M,-37.340,M,4.0,0131*60
$PYRTM,2024,126.667222433356,17.776869843495
$GNHDT,275.170,T*2D
$PYRTM,2024,126.667228160382,17.776875570521
$GNGGA,160048.50,3400.96670974,N,11931.76327331,W,2,13,0.9,9.214,M,-37.340,M,4.4,0131*65
$PYRTM,2024,126.667228160382,17.776875570521
$GNHDT,275.079,T*25
$PYRTM,2024,126.667234008137,17.776881418275
$GNGGA,160049.00,3400.96678090,N,11931.76318665,W,2,13,0.9,9.124,M,-37.340,M,5.0,0131*67
$PYRTM,2024,126.667234008137,17.776881418275
$GNHDT,275.030,T*28
$PYRTM,2024,126.667239735058,17.776887145208
$GNGGA,160049.50,3400.96684299,N,11931.76309228,W,2,13,0.9,9.053,M,-37.340,M,5.4,0131*62
$PYRTM,2024,126.667239735058,17.776887145208
$GNHDT,275.224,T*2F
$PYRTM,2024,126.667245580266,17.776892990405
$GNGGA,160050.00,3400.96689243,N,11931.76299632,W,2,13,0.9,9.029,M,-37.340,M,6.0,0131*68
$PYRTM,2024,126.667245580266,17.776892990405
$GNHDT,275.280,T*21
$PYRTM,2024,126.667251315150,17.776898725289
$GNGGA,160050.50,3400.96694132,N,11931.76289990,W,2,13,0.9,9.041,M,-37.340,M,6.4,0131*68
$PYRTM,2024,126.667251315150,17.776898725289
$GNHDT,275.205,T*2C
$PYRTM,2024,126.667257152477,17.776904562616
$GNGGA,160051.00,3400.96698864,N,11931.76282762,W,2,13,0.9,9.081,M,-37.340,M,7.0,0131*6B
$PYRTM,2024,126.667257152477,17.776904562616
$GNHDT,275.145,T*2B
$PYRTM,2024,126.667262883090,17.776910293229
$GNGGA,160051.50,3400.96703892,N,11931.76277532,W,2,13,0.9,9.128,M,-37.340,M,7.4,0131*6F
$PYRTM,2024,126.667262883090,17.776910293229
$GNHDT,275.027,T*2E
$PYRTM,2024,126.667268725093,17.776916135231
$GNGGA,160052.00,3400.96710331,N,11931.76272487,W,2,13,0.9,9.184,M,-37.340,M,7.0,0131*61
$PYRTM,2024,126.667268725093,17.776916135231
$GNHDT,274.992,T*28
$PYRTM,2024,126.667274456887,17.776921867037
$GNGGA,160052.50,3400.96717236,N,11931.76268867,W,2,13,0.9,9.222,M,-37.340,M,7.4,0131*67
$PYRTM,2024,126.667274456887,17.776921867037
$GNHDT,275.199,T*2A
$PYRTM,2024,126.667280314769,17.776927724907
$GNGGA,160053.00,3400.96726420,N,11931.76264408,W,2,13,0.9,9.260,M,-37.340,M,7.0,0131*6B
$PYRTM,2024,126.667280314769,17.776927724907
$GNHDT,275.241,T*2C
$PYRTM,2024,126.667286033981,17.776933444120
$GNGGA,160053.50,3400.96737250,N,11931.76259033,W,2,13,0.9,9.275,M,-37.340,M,7.4,0131*6D
$PYRTM,2024,126.667286033981,17.776933444120
$GNHDT,275.182,T*20
$PYRTM,2024,126.667291873113,17.776939283252
$GNGGA,160054.00,3400.96748101,N,11931.76253946,W,2,13,0.9,9.289,M,-37.340,M,4.0,0131*65
$PYRTM,2024,126.667291873113,17.776939283252
$GNHDT,275.158,T*27
$PYRTM,2024,126.667297605706,17.776945015845
$GNGGA,160054.50,3400.96757992,N,11931.76249149,W,2,13,0.9,9.304,M,-37.340,M,4.4,0131*60
$PYRTM,2024,126.667297605706,17.776945015845
$GNHDT,275.141,T*2F
$PYRTM,2024,126.667303448900,17.776950859039
$GNGGA,160055.00,3400.96766533,N,11931.76244825,W,2,13,0.9,9.319,M,-37.340,M,5.0,0131*66
$PYRTM,2024,126.667303448900,17.776950859039
$GNHDT,275.102,T*28
$PYRTM,2024,126.667309182106,17.776956592245
$GNGGA,160055.50,3400.96773152,N,11931.76241521,W,2,13,0.9,9.353,M,-37.340,M,5.4,0131*62
$PYRTM,2024,126.667309182106,17.776956592245
$GNHDT,275.080,T*23
$PYRTM,2024,126.667315028472,17.776962438611
$GNGGA,160056.00,3400.96780003,N,11931.76238413,W,2,13,0.9,9.394,M,-37.340,M,6.0,0131*6F
$PYRTM,2024,126.667315028472,17.776962438611
$GNHDT,275.041,T*2E
$PYRTM,2024,126.667320752755,17.776968162894
$GNGGA,160056.50,3400.96787033,N,11931.76236157,W,2,13,0.9,9.410,M,-37.340,M,6.4,0131*6A
$PYRTM,2024,126.667320752755,17.776968162894
$GNHDT,275.028,T*21
$PYRTM,2024,126.667326595648,17.776974005787
$GNGGA,160057.00,3400.96796102,N,11931.76234069,W,2,13,0.9,9.417,M,-37.340,M,7.0,0131*61
$PYRTM,2024,126.667326595648,17.776974005787
$GNHDT,275.117,T*2C
$PYRTM,2024,126.667332327535,17.776979737685
$GNGGA,160057.50,3400.96807235,N,11931.76232039,W,2,13,0.9,9.404,M,-37.340,M,7.4,0131*61
$PYRTM,2024,126.667332327535,17.776979737685
$GNHDT,275.073,T*2F
$PYRTM,2024,126.667338174688,17.776985584826
$GNGGA,160058.00,3400.96818888,N,11931.76229999,W,2,13,0.9,9.375,M,-37.339,M,7.0,0131*6B
$PYRTM,2024,126.667338174688,17.776985584826
$GNHDT,275.028,T*21
$PYRTM,2024,126.667343908553,17.776991318704
$GNGGA,160058.50,3400.96830117,N,11931.76226793,W,2,13,0.9,9.352,M,-37.339,M,7.4,0131*61
$PYRTM,2024,126.667343908553,17.776991318704
$GNHDT,275.073,T*2F
$PYRTM,2024,126.667349743843,17.776997153981
$GNGGA,160059.00,3400.96840829,N,11931.76222273,W,2,13,0.9,9.345,M,-37.339,M,7.0,0131*6B
$PYRTM,2024,126.667349743843,17.776997153981
$GNHDT,275.217,T*2F
$PYRTM,2024,126.667355480197,17.777002890336
$GNGGA,160059.50,3400.96851350,N,11931.76216904,W,2,13,0.9,9.368,M,-37.339,M,7.4,0131*6C
$PYRTM,2024,126.667355480197,17.777002890336
$GNHDT,275.323,T*29
$PYRTM,2024,126.667361320104,17.777008730243
$GNGGA,160100.00,3400.96862097,N,11931.76211101,W,2,13,0.9,9.402,M,-37.339,M,4.0,0131*6A
$PYRTM,2024,126.667361320104,17.777008730243
$GNHDT,275.380,T*20
$PYRTM,2024,126.667367049873,17.777014460012
$GNGGA,160100.50,3400.96872538,N,11931.76205734,W,2,13,0.9,9.440,M,-37.339,M,4.4,0131*69
$PYRTM,2024,126.667367049873,17.777014460012
$GNHDT,275.280,T*21
$PYRTM,2024,126.667372893588,17.777020303727
$GNGGA,160101.00,3400.96882278,N,11931.76201355,W,2,13,0.9,9.451,M,-37.339,M,5.0,0131*63
$PYRTM,2024,126.667372893588,17.777020303727
$GNHDT,275.276,T*28
$PYRTM,2024,126.667378632708,17.777026042847
$GNGGA,160101.50,3400.96890329,N,11931.76197704,W,2,13,0.9,9.425,M,-37.339,M,5.4,0131*6B
$PYRTM,2024,126.667378632708,17.777026042847
$GNHDT,275.129,T*21
$PYRTM,2024,126.667384467141,17.777031877280
$GNGGA,160102.00,3400.96898229,N,11931.76192737,W,2,13,0.9,9.355,M,-37.339,M,6.0,0131*66
$PYRTM,2024,126.667384467141,17.777031877280
$GNHDT,275.163,T*2F
$PYRTM,2024,126.667390198380,17.777037608519
$GNGGA,160102.50,3400.96903988,N,11931.76188412,W,2,13,0.9,9.295,M,-37.339,M,6.4,0131*66
$PYRTM,2024,126.667390198380,17.777037608519
$GNHDT,275.405,T*2A
$PYRTM,2024,126.667396043368,17.777043453519
$GNGGA,160103.00,3400.96909370,N,11931.76183254,W,2,13,0.9,9.222,M,-37.339,M,7.0,0131*63
$PYRTM,2024,126.667396043368,17.777043453519
$GNHDT,275.463,T*2A
$PYRTM,2024,126.667401772685,17.777049182824
$GNGGA,160103.50,3400.96916033,N,11931.76177144,W,2,13,0.9,9.172,M,-37.339,M,7.4,0131*67
$PYRTM,2024,126.667401772685,17.777049182824
$GNHDT,275.403,T*2C
$PYRTM,2024,126.667407619560,17.777055029711
$GNGGA,160104.00,3400.96923485,N,11931.76170821,W,2,13,0.9,9.140,M,-37.339,M,7.0,0131*62
$PYRTM,2024,126.667407619560,17.777055029711
$GNHDT,275.392,T*23
$PYRTM,2024,126.667413346343,17.777060756481
$GNGGA,160104.50,3400.96931595,N,11931.76164238,W,2,13,0.9,9.120,M,-37.339,M,7.4,0131*61
$PYRTM,2024,126.667413346343,17.777060756481
$GNHDT,275.317,T*2E
$PYRTM,2024,126.667419188704,17.777066598843
$GNGGA,160105.00,3400.96940401,N,11931.76157937,W,2,13,0.9,9.115,M,-37.339,M,7.0,0131*69
$PYRTM,2024,126.667419188704,17.777066598843
$GNHDT,275.381,T*21
$PYRTM,2024,126.667424921725,17.777072331863
$GNGGA,160105.50,3400.96949115,N,11931.76152041,W,2,13,0.9,9.119,M,-37.339,M,7.4,0131*60
$PYRTM,2024,126.667424921725,17.777072331863
$GNHDT,275.401,T*2E
$PYRTM,2024,126.667430763634,17.777078173773
$GNGGA,160106.00,3400.96956564,N,11931.76146135,W,2,13,0.9,9.149,M,-37.339,M,4.0,0131*6F
$PYRTM,2024,126.667430763634,17.777078173773
$GNHDT,275.432,T*2E
$PYRTM,2024,126.667436496817,17.777083906956
$GNGGA,160106.50,3400.96963076,N,11931.76140041,W,2,13,0.9,9.197,M,-37.339,M,4.4,0131*69
$PYRTM,2024,126.667436496817,17.777083906956
$GNHDT,275.404,T*2B
$PYRTM,2024,126.667442338623,17.777089748762
$GNGGA,160107.00,3400.96968827,N,11931.76133659,W,2,13,0.9,9.264,M,-37.339,M,5.0,0131*6B
$PYRTM,2024,126.667442338623,17.777089748762
$GNHDT,275.493,T*25
$PYRTM,2024,126.667448069039,17.777095479190
$GNGGA,160107.50,3400.96973885,N,11931.76126902,W,2,13,0.9,9.332,M,-37.339,M,5.4,0131*6F
$PYRTM,2024,126.667448069039,17.777095479190
$GNHDT,275.375,T*2A
$PYRTM,2024,126.667453915903,17.777101326042
$GNGGA,160108.00,3400.96978438,N,11931.76120577,W,2,13,0.9,9.389,M,-37.339,M,6.0,0131*6B
$PYRTM,2024,126.667453915903,17.777101326042
$GNHDT,275.470,T*28
$PYRTM,2024,126.667459648148,17.777107058299
$GNGGA,160108.50,3400.96982569,N,11931.76115695,W,2,13,0.9,9.406,M,-37.339,M,6.4,0131*63
$PYRTM,2024,126.667459648148,17.777107058299
$GNHDT,275.490,T*26
$PYRTM,2024,126.667465492998,17.777112903148
$GNGGA,160109.00,3400.96988169,N,11931.76111209,W,2,13,0.9,9.393,M,-37.339,M,7.0,0131*62
$PYRTM,2024,126.667465492998,17.777112903148
$GNHDT,275.530,T*2D
$PYRTM,2024,126.667471219225,17.777118629363
$GNGGA,160109.50,3400.96995494,N,11931.76105718,W,2,13,0.9,9.378,M,-37.339,M,7.4,0131*6D
$PYRTM,2024,126.667471219225,17.777118629363
$GNHDT,275.482,T*25
$PYRTM,2024,126.667477060000,17.777124470139
$GNGGA,160110.00,3400.97004069,N,11931.76099715,W,2,13,0.9,9.364,M,-37.339,M,7.0,0131*66
$PYRTM,2024,126.667477060000,17.777124470139
$GNHDT,275.487,T*20
$PYRTM,2024,126.667482794144,17.777130204282
$GNGGA,160110.50,3400.97014303,N,11931.76093238,W,2,13,0.9,9.355,M,-37.339,M,7.4,0131*6B
$PYRTM,2024,126.667482794144,17.777130204282
$GNHDT,275.450,T*2A
$PYRTM,2024,126.667488636991,17.777136047130
$GNGGA,160111.00,3400.97025095,N,11931.76087187,W,2,13,0.9,9.340,M,-37.339,M,7.0,0131*63
$PYRTM,2024,126.667488636991,17.777136047130
$GNHDT,275.489,T*2E
$PYRTM,2024,126.667494368993,17.777141779132
$GNGGA,160111.50,3400.97035518,N,11931.76082216,W,2,13,0.9,9.322,M,-37.339,M,7.4,0131*69
$PYRTM,2024,126.667494368993,17.777141779132
$GNHDT,275.569,T*21
$PYRTM,2024,126.667500206007,17.777147616146
$GNGGA,160112.00,3400.97044761,N,11931.76078410,W,2,13,0.9,9.302,M,-37.339,M,4.0,0131*65
$PYRTM,2024,126.667500206007,17.777147616146
$GNHDT,275.469,T*20
$PYRTM,2024,126.667505939433,17.777153349572
$GNGGA,160112.50,3400.97052975,N,11931.76075070,W,2,13,0.9,9.305,M,-37.339,M,4.4,0131*60
$PYRTM,2024,126.667505939433,17.777153349572
$GNHDT,275.443,T*28
$PYRTM,2024,126.667511780220,17.777159190359
$GNGGA,160113.00,3400.97061192,N,11931.76070381,W,2,13,0.9,9.346,M,-37.339,M,5.0,0131*6F
$PYRTM,2024,126.667511780220,17.777159190359
$GNHDT,275.449,T*22
$PYRTM,2024,126.667517512535,17.777164922685
$GNGGA,160113.50,3400.97066502,N,11931.76065858,W,2,13,0.9,9.420,M,-37.339,M,5.4,0131*68
$PYRTM,2024,126.667517512535,17.777164922685
$GNHDT,275.499,T*2F
$PYRTM,2024,126.667523357789,17.777170767940
$GNGGA,160114.00,3400.97072971,N,11931.76059249,W,2,13,0.9,9.512,M,-37.339,M,6.0,0131*65
$PYRTM,2024,126.667523357789,17.777170767940
$GNHDT,275.601,T*2C
$PYRTM,2024,126.667529090000,17.777176500139
$GNGGA,160114.50,3400.97078675,N,11931.76054046,W,2,13,0.9,9.559,M,-37.339,M,6.4,0131*6A
$PYRTM,2024,126.667529090000,17.777176500139
$GNHDT,275.631,T*2F
$PYRTM,2024,126.667534929352,17.777182339491
$GNGGA,160115.00,3400.97086535,N,11931.76049567,W,2,13,0.9,9.546,M,-37.339,M,7.0,0131*69
$PYRTM,2024,126.667534929352,17.777182339491
$GNHDT,275.562,T*2A
$PYRTM,2024,126.667540665671,17.777188075810
$GNGGA,160115.50,3400.97096325,N,11931.76045693,W,2,13,0.9,9.482,M,-37.339,M,7.4,0131*63
$PYRTM,2024,126.667540665671,17.777188075810
$GNHDT,275.564,T*2C
$PYRTM,2024,126.667546508044,17.777193918183
$GNGGA,160116.00,3400.97107260,N,11931.76042687,W,2,13,0.9,9.358,M,-37.339,M,7.0,0131*6A
$PYRTM,2024,126.667546508044,17.777193918183
$GNHDT,275.309,T*21
$PYRTM,2024,126.667552243692,17.777199653831
$GNGGA,160116.50,3400.97118086,N,11931.76039796,W,2,13,0.9,9.241,M,-37.339,M,7.4,0131*6B
$PYRTM,2024,126.667552243692,17.777199653831
$GNHDT,275.324,T*2E
$PYRTM,2024,126.667558080289,17.777205490428
$GNGGA,160117.00,3400.97128602,N,11931.76035704,W,2,13,0.9,9.175,M,-37.339,M,7.0,0131*61
$PYRTM,2024,126.667558080289,17.777205490428
$GNHDT,275.420,T*2D
$PYRTM,2024,126.667563808519,17.777211218657
$GNGGA,160117.50,3400.97138656,N,11931.76029999,W,2,13,0.9,9.174,M,-37.339,M,7.4,0131*66
$PYRTM,2024,126.667563808519,17.777211218657
$GNHDT,275.563,T*2B
$PYRTM,2024,126.667569656088,17.777217066227
$GNGGA,160118.00,3400.97147989,N,11931.76022833,W,2,13,0.9,9.249,M,-37.339,M,4.0,0131*69
$PYRTM,2024,126.667569656088,17.777217066227
$GNHDT,275.829,T*28
$PYRTM,2024,126.667575383090,17.777222793229
$GNGGA,160118.50,3400.97156733,N,11931.76015561,W,2,13,0.9,9.341,M,-37.339,M,4.4,0131*60
$PYRTM,2024,126.667575383090,17.777222793229
$GNHDT,275.980,T*2A
$PYRTM,2024,126.667581227245,17.777228637384
$GNGGA,160119.00,3400.97164859,N,11931.76009080,W,2,13,0.9,9.406,M,-37.339,M,5.0,0131*60
$PYRTM,2024,126.667581227245,17.777228637384
$GNHDT,276.024,T*2E
$PYRTM,2024,126.667586957512,17.777234367650
$GNGGA,160119.50,3400.97173135,N,11931.76003788,W,2,13,0.9,9.421,M,-37.339,M,5.4,0131*64
$PYRTM,2024,126.667586957512,17.777234367650
$GNHDT,275.930,T*21
$PYRTM,2024,126.667592804734,17.777240214873
$GNGGA,160120.00,3400.97180748,N,11931.75999302,W,2,13,0.9,9.373,M,-37.339,M,6.0,0131*63
$PYRTM,2024,126.667592804734,17.777240214873
$GNHDT,275.877,T*23
$PYRTM,2024,126.667598531759,17.777245941898
$GNGGA,160120.50,3400.97186723,N,11931.75996369,W,2,13,0.9,9.295,M,-37.339,M,6.4,0131*62
$PYRTM,2024,126.667598531759,17.777245941898
$GNHDT,275.819,T*2B
$PYRTM,2024,126.667604373461,17.777251783600
$GNGGA,160121.00,3400.97193402,N,11931.75992620,W,2,13,0.9,9.216,M,-37.339,M,7.0,0131*60
$PYRTM,2024,126.667604373461,17.777251783600
$GNHDT,275.845,T*22
$PYRTM,2024,126.667610105463,17.777257515602
$GNGGA,160121.50,3400.97200475,N,11931.75987622,W,2,13,0.9,9.166,M,-37.339,M,7.4,0131*6A
$PYRTM,2024,126.667610105463,17.777257515602
$GNHDT,275.960,T*24
$PYRTM,2024,126.667615949375,17.777263359514
$GNGGA,160122.00,3400.97207418,N,11931.75981150,W,2,13,0.9,9.163,M,-37.339,M,7.0,0131*65
$PYRTM,2024,126.667615949375,17.777263359514
$GNHDT,276.044,T*28
$PYRTM,2024,126.667621680428,17.777269090567
$GNGGA,160122.50,3400.97214093,N,11931.75973967,W,2,13,0.9,9.196,M,-37.339,M,7.4,0131*6A
$PYRTM,2024,126.667621680428,17.777269090567
$GNHDT,275.992,T*29
$PYRTM,2024,126.667627524572,17.777274934722
$GNGGA,160123.00,3400.97221590,N,11931.75967393,W,2,13,0.9,9.233,M,-37.339,M,7.0,0131*62
$PYRTM,2024,126.667627524572,17.777274934722
$GNHDT,276.048,T*24
$PYRTM,2024,126.667633253877,17.777280664016
$GNGGA,160123.50,3400.97230704,N,11931.75961800,W,2,13,0.9,9.256,M,-37.339,M,7.4,0131*68
$PYRTM,2024,126.667633253877,17.777280664016
$GNHDT,275.978,T*2D
$PYRTM,2024,126.667639098160,17.777286508299
$GNGGA,160124.00,3400.97240579,N,11931.75957480,W,2,13,0.9,9.256,M,-37.339,M,4.0,0131*63
$PYRTM,2024,126.667639098160,17.777286508299
$GNHDT,275.848,T*2F
$PYRTM,2024,126.667644828229,17.777292238380
$GNGGA,160124.50,3400.97250325,N,11931.75953740,W,2,13,0.9,9.247,M,-37.339,M,4.4,0131*67
$PYRTM,2024,126.667644828229,17.777292238380
$GNHDT,275.987,T*2D
$PYRTM,2024,126.667650675347,17.777298085486
$GNGGA,160125.00,3400.97259486,N,11931.75949934,W,2,13,0.9,9.250,M,-37.339,M,5.0,0131*61
$PYRTM,2024,126.667650675347,17.777298085486
$GNHDT,276.024,T*2E
$PYRTM,2024,126.667656404259,17.777303814398
$GNGGA,160125.50,3400.97265579,N,11931.75946194,W,2,13,0.9,9.298,M,-37.339,M,5.4,0131*67
$PYRTM,2024,126.667656404259,17.777303814398
$GNHDT,276.072,T*2D
$PYRTM,2024,126.667662254225,17.777309664363
$GNGGA,160126.00,3400.97269469,N,11931.75942582,W,2,13,0.9,9.386,M,-37.339,M,6.0,0131*63
$PYRTM,2024,126.667662254225,17.777309664363
$GNHDT,276.138,T*22
$PYRTM,2024,126.667667980301,17.777315390440
$GNGGA,160126.50,3400.97274244,N,11931.75938681,W,2,13,0.9,9.486,M,-37.339,M,6.4,0131*6D
$PYRTM,2024,126.667667980301,17.777315390440
$GNHDT,276.175,T*2B
$PYRTM,2024,126.667673822697,17.777321232836
$GNGGA,160127.00,3400.97280649,N,11931.75934858,W,2,13,0.9,9.541,M,-37.339,M,7.0,0131*62
$PYRTM,2024,126.667673822697,17.777321232836
$GNHDT,276.215,T*2E
$PYRTM,2024,126.667679550799,17.777326960938
$GNGGA,160127.50,3400.97287871,N,11931.75932343,W,2,13,0.9,9.553,M,-37.339,M,7.4,0131*65
$PYRTM,2024,126.667679550799,17.777326960938
$GNHDT,276.151,T*2D
$PYRTM,2024,126.667685396505,17.777332806644
$GNGGA,160128.00,3400.97297907,N,11931.75929094,W,2,13,0.9,9.528,M,-37.339,M,7.0,0131*65
$PYRTM,2024,126.667685396505,17.777332806644
$GNHDT,276.007,T*2F
$PYRTM,2024,126.667691125509,17.777338535648
$GNGGA,160128.50,3400.97310000,N,11931.75925259,W,2,13,0.9,9.481,M,-37.339,M,7.4,0131*69
$PYRTM,2024,126.667691125509,17.777338535648
$GNHDT,275.917,T*24
$PYRTM,2024,126.667696972639,17.777344382778
$GNGGA,160129.00,3400.97322863,N,11931.75920456,W,2,13,0.9,9.418,M,-37.339,M,7.0,0131*69
$PYRTM,2024,126.667696972639,17.777344382778
$GNHDT,275.978,T*2D
$PYRTM,2024,126.667702699387,17.777350109537
$GNGGA,160129.50,3400.97334887,N,11931.75915122,W,2,13,0.9,9.365,M,-37.339,M,7.4,0131*68
$PYRTM,2024,126.667702699387,17.777350109537
$GNHDT,275.998,T*23
$PYRTM,2024,126.667708544005,17.777355954144
$GNGGA,160130.00,3400.97344633,N,11931.75910037,W,2,13,0.9,9.325,M,-37.339,M,4.0,0131*60
$PYRTM,2024,126.667708544005,17.777355954144
$GNHDT,276.044,T*28
$PYRTM,2024,126.667714272141,17.777361682280
$GNGGA,160130.50,3400.97352630,N,11931.75904015,W,2,13,0.9,9.299,M,-37.339,M,4.4,0131*66
$PYRTM,2024,126.667714272141,17.777361682280
$GNHDT,276.211,T*2A
$PYRTM,2024,126.667720118090,17.777367528229
$GNGGA,160131.00,3400.97358526,N,11931.75897208,W,2,13,0.9,9.294,M,-37.339,M,5.0,0131*61
$PYRTM,2024,126.667720118090,17.777367528229
$GNHDT,276.274,T*29
$PYRTM,2024,126.667725847141,17.777373257292
$GNGGA,160131.50,3400.97362624,N,11931.75890797,W,2,13,0.9,9.301,M,-37.339,M,5.4,0131*61
$PYRTM,2024,126.667725847141,17.777373257292
$GNHDT,276.291,T*22
$PYRTM,2024,126.667731694653,17.777379104792
$GNGGA,160132.00,3400.97368160,N,11931.75883871,W,2,13,0.9,9.291,M,-37.339,M,6.0,0131*60
$PYRTM,2024,126.667731694653,17.777379104792
$GNHDT,276.404,T*28
$PYRTM,2024,126.667737420995,17.777384831146
$GNGGA,160132.50,3400.97374322,N,11931.75878315,W,2,13,0.9,9.259,M,-37.339,M,6.4,0131*61
$PYRTM,2024,126.667737420995,17.777384831146
$GNHDT,276.527,T*28
$PYRTM,2024,126.667743268692,17.777390678831
$GNGGA,160133.00,3400.97382048,N,11931.75871563,W,2,13,0.9,9.215,M,-37.339,M,7.0,0131*60
$PYRTM,2024,126.667743268692,17.777390678831
$GNHDT,276.426,T*28
$PYRTM,2024,126.667748994618,17.777396404757
$GNGGA,160133.50,3400.97391558,N,11931.75865087,W,2,13,0.9,9.164,M,-37.339,M,7.4,0131*68
$PYRTM,2024,126.667748994618,17.777396404757
$GNHDT,276.464,T*2E
$PYRTM,2024,126.667754842187,17.777402252326
$GNGGA,160134.00,3400.97401012,N,11931.75857840,W,2,13,0.9,9.113,M,-37.339,M,7.0,0131*69
$PYRTM,2024,126.667754842187,17.777402252326
$GNHDT,276.435,T*2A
$PYRTM,2024,126.667760570509,17.777407980648
$GNGGA,160134.50,3400.97410162,N,11931.75850932,W,2,13,0.9,9.084,M,-37.339,M,7.4,0131*62
$PYRTM,2024,126.667760570509,17.777407980648
$GNHDT,276.442,T*2A
$PYRTM,2024,126.667766415799,17.777413825938
$GNGGA,160135.00,3400.97418188,N,11931.75844200,W,2,13,0.9,9.081,M,-37.339,M,7.0,0131*64
$PYRTM,2024,126.667766415799,17.777413825938
$GNHDT,276.553,T*2B
$PYRTM,2024,126.667772143125,17.777419553264
$GNGGA,160135.50,3400.97425314,N,11931.75838205,W,2,13,0.9,9.118,M,-37.339,M,7.4,0131*63
$PYRTM,2024,126.667772143125,17.777419553264
$GNHDT,276.591,T*25
$PYRTM,2024,126.667777989745,17.777425399884
$GNGGA,160136.00,3400.97433048,N,11931.75832514,W,2,13,0.9,9.178,M,-37.339,M,4.0,0131*64
$PYRTM,2024,126.667777989745,17.777425399884
$GNHDT,276.608,T*26
$PYRTM,2024,126.667783716412,17.777431126551
$GNGGA,160136.50,3400.97439078,N,11931.75828440,W,2,13,0.9,9.230,M,-37.339,M,4.4,0131*68
$PYRTM,2024,126.667783716412,17.777431126551
$GNHDT,276.546,T*2F
$PYRTM,2024,126.667789560590,17.777436970729
$GNGGA,160137.00,3400.97445907,N,11931.75824443,W,2,13,0.9,9.287,M,-37.339,M,5.0,0131*60
$PYRTM,2024,126.667789560590,17.777436970729
$GNHDT,276.600,T*2E
$PYRTM,2024,126.667795292083,17.777442702222
$GNGGA,160137.50,3400.97453051,N,11931.75819525,W,2,13,0.9,9.332,M,-37.339,M,5.4,0131*6C
$PYRTM,2024,126.667795292083,17.777442702222
$GNHDT,276.662,T*2A
$PYRTM,2024,126.667801141100,17.777448551238
$GNGGA,160138.00,3400.97460749,N,11931.75814530,W,2,13,0.9,9.367,M,-37.339,M,6.0,0131*66
$PYRTM,2024,126.667801141100,17.777448551238
$GNHDT,276.782,T*25
$PYRTM,2024,126.667806865926,17.777454276065
$GNGGA,160138.50,3400.97469302,N,11931.75809042,W,2,13,0.9,9.387,M,-37.339,M,6.4,0131*67
$PYRTM,2024,126.667806865926,17.777454276065
$GNHDT,276.651,T*2A
$PYRTM,2024,126.667812714965,17.777460125104
$GNGGA,160139.00,3400.97479402,N,11931.75803884,W,2,13,0.9,9.385,M,-37.339,M,7.0,0131*6A
$PYRTM,2024,126.667812714965,17.777460125104
$GNHDT,276.679,T*20
$PYRTM,2024,126.667818438669,17.777465848819
$GNGGA,160139.50,3400.97490846,N,11931.75799372,W,2,13,0.9,9.353,M,-37.339,M,7.4,0131*65
$PYRTM,2024,126.667818438669,17.777465848819
$GNHDT,276.743,T*28
$PYRTM,2024,126.667824284792,17.777471694931
$GNGGA,160140.00,3400.97502609,N,11931.75796659,W,2,13,0.9,9.318,M,-37.339,M,7.0,0131*69
$PYRTM,2024,126.667824284792,17.777471694931
$GNHDT,276.716,T*28
$PYRTM,2024,126.667830013148,17.777477423287
$GNGGA,160140.50,3400.97512908,N,11931.75794381,W,2,13,0.9,9.291,M,-37.339,M,7.4,0131*65
$PYRTM,2024,126.667830013148,17.777477423287
$GNHDT,276.522,T*2D
$PYRTM,2024,126.667835867465,17.777483277604
$GNGGA,160141.00,3400.97522210,N,11931.75791203,W,2,13,0.9,9.303,M,-37.339,M,7.0,0131*60
$PYRTM,2024,126.667835867465,17.777483277604
$GNHDT,276.718,T*26
$PYRTM,2024,126.667841588264,17.777488998403
$GNGGA,160141.50,3400.97528449,N,11931.75787013,W,2,13,0.9,9.354,M,-37.339,M,7.4,0131*67
$PYRTM,2024,126.667841588264,17.777488998403
$GNHDT,276.762,T*2B
$PYRTM,2024,126.667847435718,17.777494845856
$GNGGA,160142.00,3400.97533823,N,11931.75782167,W,2,13,0.9,9.434,M,-37.339,M,4.0,0131*6A
$PYRTM,2024,126.667847435718,17.777494845856
$GNHDT,276.747,T*2C
$PYRTM,2024,126.667853164433,17.777500574572
$GNGGA,160142.50,3400.97541039,N,11931.75777081,W,2,13,0.9,9.498,M,-37.339,M,4.4,0131*68
$PYRTM,2024,126.667853164433,17.777500574572
$GNHDT,276.966,T*21
$PYRTM,2024,126.667859010984,17.777506421123
$GNGGA,160143.00,3400.97550782,N,11931.75772399,W,2,13,0.9,9.536,M,-37.339,M,5.0,0131*64
$PYRTM,2024,126.667859010984,17.777506421123
$GNHDT,276.901,T*20
$PYRTM,2024,126.667864735093,17.777512145231
$GNGGA,160143.50,3400.97562790,N,11931.75768388,W,2,13,0.9,9.510,M,-37.339,M,5.4,0131*68
$PYRTM,2024,126.667864735093,17.777512145231
$GNHDT,276.914,T*24
$PYRTM,2024,126.667870583137,17.777517993275
$GNGGA,160144.00,3400.97575347,N,11931.75765281,W,2,13,0.9,9.435,M,-37.339,M,6.0,0131*66
$PYRTM,2024,126.667870583137,17.777517993275
$GNHDT,276.901,T*20
$PYRTM,2024,126.667876309780,17.777523719919
$GNGGA,160144.50,3400.97586803,N,11931.75762009,W,2,13,0.9,9.344,M,-37.339,M,6.4,0131*64
$PYRTM,2024,126.667876309780,17.777523719919
$GNHDT,277.018,T*20
$PYRTM,2024,126.667882159815,17.777529569954
$GNGGA,160145.00,3400.97595621,N,11931.75758291,W,2,13,0.9,9.267,M,-37.339,M,7.0,0131*63
$PYRTM,2024,126.667882159815,17.777529569954
$GNHDT,277.049,T*24
$PYRTM,2024,126.667887884167,17.777535294306
$GNGGA,160145.50,3400.97602727,N,11931.75752382,W,2,13,0.9,9.227,M,-37.339,M,7.4,0131*65
$PYRTM,2024,126.667887884167,17.777535294306
$GNHDT,276.965,T*22
$PYRTM,2024,126.667893732500,17.777541142639
$GNGGA,160146.00,3400.97607047,N,11931.75744812,W,2,13,0.9,9.237,M,-37.339,M,7.0,0131*67
$PYRTM,2024,126.667893732500,17.777541142639
$GNHDT,277.055,T*29
$PYRTM,2024,126.667899457616,17.777546867766
$GNGGA,160146.50,3400.97610197,N,11931.75738193,W,2,13,0.9,9.268,M,-37.339,M,7.4,0131*6D
$PYRTM,2024,126.667899457616,17.777546867766
$GNHDT,277.053,T*2F
$PYRTM,2024,126.667905308657,17.777552718796
$GNGGA,160147.00,3400.97614508,N,11931.75730675,W,2,13,0.9,9.322,M,-37.339,M,7.0,0131*63
$PYRTM,2024,126.667905308657,17.777552718796
$GNHDT,277.063,T*2C
$PYRTM,2024,126.667911034618,17.777558444769
$GNGGA,160147.50,3400.97620404,N,11931.75725278,W,2,13,0.9,9.342,M,-37.339,M,7.4,0131*63
$PYRTM,2024,126.667911034618,17.777558444769
$GNHDT,277.239,T*21
$PYRTM,2024,126.667916880046,17.777564290197
$GNGGA,160148.00,3400.97627711,N,11931.75719563,W,2,13,0.9,9.356,M,-37.339,M,4.0,0131*69
$PYRTM,2024,126.667916880046,17.777564290197
$GNHDT,277.136,T*2D
$PYRTM,2024,126.667922608542,17.777570018681
$GNGGA,160148.50,3400.97636348,N,11931.75713500,W,2,13,0.9,9.352,M,-37.339,M,4.4,0131*6B
$PYRTM,2024,126.667922608542,17.777570018681
$GNHDT,277.221,T*28
$PYRTM,2024,126.667928453519,17.777575863657
$GNGGA,160149.00,3400.97644715,N,11931.75707142,W,2,13,0.9,9.351,M,-37.339,M,5.0,0131*67
$PYRTM,2024,126.667928453519,17.777575863657
$GNHDT,277.223,T*2A
$PYRTM,2024,126.667934179120,17.777581589259
$GNGGA,160149.50,3400.97652330,N,11931.75701018,W,2,13,0.9,9.364,M,-37.339,M,5.4,0131*6C
$PYRTM,2024,126.667934179120,17.777581589259
$GNHDT,277.189,T*29
$PYRTM,2024,126.667940029687,17.777587439826
$GNGGA,160150.00,3400.97659632,N,11931.75694384,W,2,13,0.9,9.398,M,-37.339,M,6.0,0131*62
$PYRTM,2024,126.667940029687,17.777587439826
$GNHDT,277.125,T*2F
$PYRTM,2024,126.667945752789,17.777593162928
$GNGGA,160150.50,3400.97665417,N,11931.75688000,W,2,13,0.9,9.445,M,-37.339,M,6.4,0131*6C
$PYRTM,2024,126.667945752789,17.777593162928
$GNHDT,277.158,T*25
$PYRTM,2024,126.667951602558,17.777599012697
$GNGGA,160151.00,3400.97670665,N,11931.75681697,W,2,13,0.9,9.498,M,-37.339,M,7.0,0131*6F
$PYRTM,2024,126.667951602558,17.777599012697
$GNHDT,277.110,T*29
$PYRTM,2024,126.667957328148,17.777604738287
$GNGGA,160151.50,3400.97675397,N,11931.75676852,W,2,13,0.9,9.535,M,-37.339,M,7.4,0131*6A
$PYRTM,2024,126.667957328148,17.777604738287
$GNHDT,277.194,T*25
$PYRTM,2024,126.667963174444,17.777610584583
$GNGGA,160152.00,3400.97681125,N,11931.75672302,W,2,13,0.9,9.550,M,-37.339,M,7.0,0131*61
$PYRTM,2024,126.667963174444,17.777610584583
$GNHDT,277.241,T*2E
$PYRTM,2024,126.667968902581,17.777616312720
$GNGGA,160152.50,3400.97687036,N,11931.75668106,W,2,13,0.9,9.551,M,-37.339,M,7.4,0131*69
$PYRTM,2024,126.667968902581,17.777616312720
$GNHDT,277.221,T*28
$PYRTM,2024,126.667974747512,17.777622157650
$GNGGA,160153.00,3400.97695081,N,11931.75663876,W,2,13,0.9,9.543,M,-37.339,M,7.0,0131*60
$PYRTM,2024,126.667974747512,17.777622157650
$GNHDT,277.244,T*2B
$PYRTM,2024,126.667980477222,17.777627887373
$GNGGA,160153.50,3400.97706461,N,11931.75659034,W,2,13,0.9,9.533,M,-37.339,M,7.4,0131*60
$PYRTM,2024,126.667980477222,17.777627887373
$GNHDT,277.163,T*2D
$PYRTM,2024,126.667986327824,17.777633737963
$GNGGA,160154.00,3400.97719893,N,11931.75653712,W,2,13,0.9,9.517,M,-37.339,M,4.0,0131*65
$PYRTM,2024,126.667986327824,17.777633737963
$GNHDT,277.303,T*29
$PYRTM,2024,126.667992050093,17.777639460231
$GNGGA,160154.50,3400.97734260,N,11931.75648382,W,2,13,0.9,9.482,M,-37.339,M,4.4,0131*67
$PYRTM,2024,126.667992050093,17.777639460231
$GNHDT,277.290,T*22
$PYRTM,2024,126.667997903264,17.777645313403
$GNGGA,160155.00,3400.97747339,N,11931.75643054,W,2,13,0.9,9.452,M,-37.339,M,5.0,0131*61
$PYRTM,2024,126.667997903264,17.777645313403
$GNHDT,277.354,T*2B
$PYRTM,2024,126.668003628056,17.777651038206
$GNGGA,160155.50,3400.97758788,N,11931.75638203,W,2,13,0.9,9.427,M,-37.339,M,5.4,0131*6E
$PYRTM,2024,126.668003628056,17.777651038206
$GNHDT,277.371,T*2C
$PYRTM,2024,126.668009476157,17.777656886296
$GNGGA,160156.00,3400.97767373,N,11931.75633800,W,2,13,0.9,9.413,M,-37.339,M,6.0,0131*66
$PYRTM,2024,126.668009476157,17.777656886296
$GNHDT,277.406,T*2B
$PYRTM,2024,126.668015200799,17.777662610949
$GNGGA,160156.50,3400.97774806,N,11931.75629482,W,2,13,0.9,9.416,M,-37.339,M,6.4,0131*64
$PYRTM,2024,126.668015200799,17.777662610949
$GNHDT,277.419,T*25
$PYRTM,2024,126.668021051146,17.777668461285
$GNGGA,160157.00,3400.97780241,N,11931.75626019,W,2,13,0.9,9.399,M,-37.339,M,7.0,0131*6E
$PYRTM,2024,126.668021051146,17.777668461285
$GNHDT,277.543,T*2B
$PYRTM,2024,126.668026776574,17.777674186713
$GNGGA,160157.50,3400.97785042,N,11931.75622649,W,2,13,0.9,9.382,M,-37.339,M,7.4,0131*66
$PYRTM,2024,126.668026776574,17.777674186713
$GNHDT,277.660,T*29
$PYRTM,2024,126.668032625984,17.777680036123
$GNGGA,160158.00,3400.97791065,N,11931.75618445,W,2,13,0.9,9.338,M,-37.339,M,7.0,0131*6E
$PYRTM,2024,126.668032625984,17.777680036123
$GNHDT,277.689,T*2E
$PYRTM,2024,126.668038352465,17.777685762616
$GNGGA,160158.50,3400.97797560,N,11931.75613912,W,2,13,0.9,9.304,M,-37.339,M,7.4,0131*62
$PYRTM,2024,126.668038352465,17.777685762616
$GNHDT,277.535,T*2A
$PYRTM,2024,126.668044197477,17.777691607627
$GNGGA,160159.00,3400.97807154,N,11931.75608103,W,2,13,0.9,9.271,M,-37.339,M,7.0,0131*66
$PYRTM,2024,126.668044197477,17.777691607627
$GNHDT,277.607,T*28
$PYRTM,2024,126.668049927002,17.777697337141
$GNGGA,160159.50,3400.97818574,N,11931.75601747,W,2,13,0.9,9.248,M,-37.339,M,7.4,0131*6A
$PYRTM,2024,126.668049927002,17.777697337141
$GNHDT,277.612,T*2C
$PYRTM,2024,126.668055779039,17.777703189178
$GNGGA,160200.00,3400.97830612,N,11931.75595093,W,2,13,0.9,9.213,M,-37.339,M,4.0,0131*60
$PYRTM,2024,126.668055779039,17.777703189178
$GNHDT,277.777,T*2E
$PYRTM,2024,126.668061497153,17.777708907292
$GNGGA,160200.50,3400.97841983,N,11931.75589102,W,2,13,0.9,9.192,M,-37.339,M,4.4,0131*6E
$PYRTM,2024,126.668061497153,17.777708907292
$GNHDT,277.664,T*2D
$PYRTM,2024,126.668067348345,17.777714758484
$GNGGA,160201.00,3400.97852349,N,11931.75583358,W,2,13,0.9,9.186,M,-37.339,M,5.0,0131*63
$PYRTM,2024,126.668067348345,17.777714758484
$GNHDT,277.723,T*2F
$PYRTM,2024,126.668073076701,17.777720486840
$GNGGA,160201.50,3400.97857882,N,11931.75578707,W,2,14,0.9,9.212,M,-37.339,M,5.4,0131*68
$PYRTM,2024,126.668073076701,17.777720486840
$GNHDT,277.598,T*2D
$PYRTM,2024,126.668078921979,17.777726332130
$GNGGA,160202.00,3400.97858592,N,11931.75572777,W,2,14,0.8,9.295,M,-37.339,M,6.0,0131*69
$PYRTM,2024,126.668078921979,17.777726332130
$GNHDT,277.625,T*28
$PYRTM,2024,126.668084648102,17.777732058241
$GNGGA,160202.50,3400.97856849,N,11931.75567003,W,2,14,0.8,9.388,M,-37.339,M,6.4,0131*60
$PYRTM,2024,126.668084648102,17.777732058241
$GNHDT,277.760,T*28
$PYRTM,2024,126.668090495231,17.777737905370
$GNGGA,160203.00,3400.97854928,N,11931.75560453,W,2,14,0.8,9.498,M,-37.339,M,7.0,0131*65
$PYRTM,2024,126.668090495231,17.777737905370
$GNHDT,277.763,T*2B
$PYRTM,2024,126.668096224664,17.777743634803
$GNGGA,160203.50,3400.97857074,N,11931.75553574,W,2,14,0.8,9.578,M,-37.339,M,7.4,0131*6C
$PYRTM,2024,126.668096224664,17.777743634803
$GNHDT,277.745,T*2F
$PYRTM,2024,126.668102065150,17.777749475289
$GNGGA,160204.00,3400.97863608,N,11931.75547680,W,2,14,0.8,9.617,M,-37.339,M,7.0,0131*67
$PYRTM,2024,126.668102065150,17.777749475289
$GNHDT,277.772,T*2B
$PYRTM,2024,126.668107796968,17.777755207106
$GNGGA,160204.50,3400.97874546,N,11931.75542186,W,2,14,0.8,9.595,M,-37.339,M,7.4,0131*64
$PYRTM,2024,126.668107796968,17.777755207106
$GNHDT,277.685,T*22
$PYRTM,2024,126.668113641586,17.777761051736
$GNGGA,160205.00,3400.97888213,N,11931.75538406,W,2,14,0.8,9.535,M,-37.339,M,7.0,0131*6A
$PYRTM,2024,126.668113641586,17.777761051736
$GNHDT,277.679,T*21
$PYRTM,2024,126.668119373079,17.777766783229
$GNGGA,160205.50,3400.97901726,N,11931.75534723,W,2,14,0.8,9.463,M,-37.339,M,7.4,0131*62
$PYRTM,2024,126.668119373079,17.777766783229
$GNHDT,277.613,T*2D
$PYRTM,2024,126.668125213785,17.777772623924
$GNGGA,160206.00,3400.97912289,N,11931.75531188,W,2,14,0.8,9.422,M,-37.339,M,4.0,0131*66
$PYRTM,2024,126.668125213785,17.777772623924
$GNHDT,277.627,T*2A
$PYRTM,2024,126.668130942569,17.777778352708
$GNGGA,160206.50,3400.97919948,N,11931.75527092,W,2,14,0.8,9.430,M,-37.339,M,4.4,0131*64
$PYRTM,2024,126.668130942569,17.777778352708
$GNHDT,277.525,T*2B
$PYRTM,2024,126.668136789988,17.777784200127
$GNGGA,160207.00,3400.97923835,N,11931.75522413,W,2,14,0.8,9.510,M,-37.339,M,5.0,0131*6C
$PYRTM,2024,126.668136789988,17.777784200127
$GNHDT,277.529,T*27
$PYRTM,2024,126.668142516644,17.777789926794
$GNGGA,160207.50,3400.97926173,N,11931.75518201,W,2,14,0.8,9.612,M,-37.339,M,5.4,0131*6E
$PYRTM,2024,126.668142516644,17.777789926794
$GNHDT,277.818,T*28
$PYRTM,2024,126.668148368403,17.777795778542
$GNGGA,160208.00,3400.97930322,N,11931.75513377,W,2,14,0.8,9.707,M,-37.339,M,6.0,0131*6C
$PYRTM,2024,126.668148368403,17.777795778542
$GNHDT,278.156,T*24
$PYRTM,2024,126.668154094803,17.777801504942
$GNGGA,160208.50,3400.97937389,N,11931.75509231,W,2,14,0.8,9.742,M,-37.339,M,6.4,0131*62
$PYRTM,2024,126.668154094803,17.777801504942
$GNHDT,277.973,T*24
$PYRTM,2024,126.668159942616,17.777807352755
$GNGGA,160209.00,3400.97948672,N,11931.75504969,W,2,14,0.8,9.719,M,-37.339,M,7.0,0131*6F
$PYRTM,2024,126.668159942616,17.777807352755
$GNHDT,278.007,T*21
$PYRTM,2024,126.668165671319,17.777813081458
$GNGGA,160209.50,3400.97962813,N,11931.75500524,W,2,14,0.8,9.632,M,-37.339,M,7.4,0131*66
$PYRTM,2024,126.668165671319,17.777813081458
$GNHDT,277.858,T*2C
$PYRTM,2024,126.668171514525,17.777818924664
$GNGGA,160210.00,3400.97976992,N,11931.75496093,W,2,14,0.8,9.510,M,-37.339,M,7.0,0131*66
$PYRTM,2024,126.668171514525,17.777818924664
$GNHDT,277.867,T*20
$PYRTM,2024,126.668177240845,17.777824650984
$GNGGA,160210.50,3400.97989377,N,11931.75490940,W,2,14,0.8,9.383,M,-37.339,M,7.4,0131*6B
$PYRTM,2024,126.668177240845,17.777824650984
$GNHDT,277.876,T*20
$PYRTM,2024,126.668183089734,17.777830499884
$GNGGA,160211.00,3400.97998242,N,11931.75484920,W,2,14,0.8,9.309,M,-37.339,M,7.0,0131*6D
$PYRTM,2024,126.668183089734,17.777830499884
$GNHDT,277.913,T*22
$PYRTM,2024,126.668188820046,17.777836230185
$GNGGA,160211.50,3400.98004294,N,11931.75478030,W,2,14,0.8,9.296,M,-37.339,M,7.4,0131*68
$PYRTM,2024,126.668188820046,17.777836230185
$GNHDT,277.875,T*23
$PYRTM,2024,126.668194662176,17.777842072315
$GNGGA,160212.00,3400.98009966,N,11931.75469364,W,2,14,0.8,9.345,M,-37.339,M,4.0,0131*6F
$PYRTM,2024,126.668194662176,17.777842072315
$GNHDT,278.088,T*26
$PYRTM,2024,126.668200387153,17.777847797292
$GNGGA,160212.50,3400.98014356,N,11931.75463236,W,2,14,0.8,9.408,M,-37.339,M,4.4,0131*69
$PYRTM,2024,126.668200387153,17.777847797292
$GNHDT,278.154,T*26
$PYRTM,2024,126.668206237535,17.777853647674
$GNGGA,160213.00,3400.98020266,N,11931.75457251,W,2,14,0.8,9.467,M,-37.339,M,5.0,0131*62
$PYRTM,2024,126.668206237535,17.777853647674
$GNHDT,278.207,T*23
$PYRTM,2024,126.668211965150,17.777859375289
$GNGGA,160213.50,3400.98028158,N,11931.75452101,W,2,14,0.8,9.501,M,-37.339,M,5.4,0131*67
$PYRTM,2024,126.668211965150,17.777859375289
$GNHDT,278.181,T*2E
$PYRTM,2024,126.668217809063,17.777865219201
$GNGGA,160214.00,3400.98037541,N,11931.75446934,W,2,14,0.8,9.513,M,-37.339,M,6.0,0131*68
$PYRTM,2024,126.668217809063,17.777865219201
$GNHDT,278.241,T*21
$PYRTM,2024,126.668223535255,17.777870945394
$GNGGA,160214.50,3400.98047164,N,11931.75441256,W,2,14,0.8,9.512,M,-37.339,M,6.4,0131*64
$PYRTM,2024,126.668223535255,17.777870945394
$GNHDT,278.220,T*26
$PYRTM,2024,126.668229382292,17.777876792431
$GNGGA,160215.00,3400.98056241,N,11931.75435296,W,2,14,0.8,9.509,M,-37.339,M,7.0,0131*64
$PYRTM,2024,126.668229382292,17.777876792431
$GNHDT,278.073,T*22
$PYRTM,2024,126.668235109734,17.777882519873
$GNGGA,160215.50,3400.98064596,N,11931.75429108,W,2,14,0.8,9.516,M,-37.339,M,7.4,0131*6E
$PYRTM,2024,126.668235109734,17.777882519873
$GNHDT,278.149,T*2A
$PYRTM,2024,126.668240959722,17.777888369861
$GNGGA,160216.00,3400.98072174,N,11931.75423307,W,2,14,0.8,9.535,M,-37.339,M,7.0,0131*65
$PYRTM,2024,126.668240959722,17.777888369861
$GNHDT,278.031,T*24
$PYRTM,2024,126.668246686806,17.777894096944
$GNGGA,160216.50,3400.98079744,N,11931.75417725,W,2,14,0.8,9.567,M,-37.339,M,7.4,0131*6E
$PYRTM,2024,126.668246686806,17.777894096944
$GNHDT,278.106,T*21
$PYRTM,2024,126.668252530394,17.777899940532
$GNGGA,160217.00,3400.98086999,N,11931.75413477,W,2,14,0.8,9.600,M,-37.339,M,7.0,0131*62
$PYRTM,2024,126.668252530394,17.777899940532
$GNHDT,278.136,T*22
$PYRTM,2024,126.668258260856,17.777905670995
$GNGGA,160217.50,3400.98093539,N,11931.75410342,W,2,14,0.8,9.633,M,-37.339,M,7.4,0131*63
$PYRTM,2024,126.668258260856,17.777905670995
$GNHDT,278.172,T*22
$PYRTM,2024,126.668264106366,17.777911516516
$GNGGA,160218.00,3400.98100826,N,11931.75406544,W,2,14,0.8,9.665,M,-37.339,M,4.0,0131*62
$PYRTM,2024,126.668264106366,17.777911516516
$GNHDT,278.130,T*24
$PYRTM,2024,126.668269831065,17.777917241204
$GNGGA,160218.50,3400.98109567,N,11931.75402002,W,2,14,0.8,9.696,M,-37.339,M,4.4,0131*6D
$PYRTM,2024,126.668269831065,17.777917241204
$GNHDT,278.115,T*23
$PYRTM,2024,126.668275680891,17.777923091030
$GNGGA,160219.00,3400.98118908,N,11931.75397501,W,2,14,0.8,9.708,M,-37.339,M,5.0,0131*62
$PYRTM,2024,126.668275680891,17.777923091030
$GNHDT,278.084,T*2A
$PYRTM,2024,126.668281407384,17.777928817523
$GNGGA,160219.50,3400.98127703,N,11931.75392857,W,2,14,0.8,9.712,M,-37.339,M,5.4,0131*6A
$PYRTM,2024,126.668281407384,17.777928817523
$GNHDT,278.136,T*22
$PYRTM,2024,126.668287254352,17.777934664491
$GNGGA,160220.00,3400.98135186,N,11931.75388144,W,2,14,0.8,9.694,M,-37.339,M,6.0,0131*65
$PYRTM,2024,126.668287254352,17.777934664491
$GNHDT,278.067,T*27
$PYRTM,2024,126.668292978970,17.777940389120
$GNGGA,160220.50,3400.98143080,N,11931.75382907,W,2,14,0.8,9.668,M,-37.339,M,6.4,0131*64
$PYRTM,2024,126.668292978970,17.777940389120
$GNHDT,278.151,T*23
$PYRTM,2024,126.668298825729,17.777946235868
$GNGGA,160221.00,3400.98150846,N,11931.75377521,W,2,14,0.8,9.651,M,-37.339,M,7.0,0131*6D
$PYRTM,2024,126.668298825729,17.777946235868
$GNHDT,278.314,T*20
$PYRTM,2024,126.668304552998,17.777951963137
$GNGGA,160221.50,3400.98157252,N,11931.75373062,W,2,14,0.8,9.643,M,-37.339,M,7.4,0131*61
$PYRTM,2024,126.668304552998,17.777951963137
$GNHDT,278.393,T*2F
$PYRTM,2024,126.668310398785,17.777957808924
$GNGGA,160222.00,3400.98165650,N,11931.75368182,W,2,14,0.8,9.631,M,-37.339,M,7.0,0131*64
$PYRTM,2024,126.668310398785,17.777957808924
$GNHDT,278.405,T*27
$PYRTM,2024,126.668316128762,17.777963538900
$GNGGA,160222.50,3400.98175785,N,11931.75363356,W,2,14,0.8,9.605,M,-37.339,M,7.4,0131*6A
$PYRTM,2024,126.668316128762,17.777963538900
$GNHDT,278.398,T*24
$PYRTM,2024,126.668321974896,17.777969385035
$GNGGA,160223.00,3400.98186717,N,11931.75358825,W,2,14,0.8,9.553,M,-37.339,M,7.0,0131*6A
$PYRTM,2024,126.668321974896,17.777969385035
$GNHDT,278.390,T*2C
$PYRTM,2024,126.668327702697,17.777975112847
$GNGGA,160223.50,3400.98197041,N,11931.75353877,W,2,14,0.8,9.486,M,-37.339,M,7.4,0131*6A
$PYRTM,2024,126.668327702697,17.777975112847
$GNHDT,278.454,T*23
$PYRTM,2024,126.668333548333,17.777980958472
$GNGGA,160224.00,3400.98205140,N,11931.75348823,W,2,14,0.8,9.414,M,-37.339,M,4.0,0131*67
$PYRTM,2024,126.668333548333,17.777980958472
$GNHDT,278.539,T*29
$PYRTM,2024,126.668339280637,17.777986690787
$GNGGA,160224.50,3400.98212036,N,11931.75343476,W,2,14,0.8,9.349,M,-37.339,M,4.4,0131*68
$PYRTM,2024,126.668339280637,17.777986690787
$GNHDT,278.652,T*27
$PYRTM,2024,126.668345125775,17.777992535914
$GNGGA,160225.00,3400.98216790,N,11931.75338338,W,2,14,0.8,9.306,M,-37.339,M,5.0,0131*6C
$PYRTM,2024,126.668345125775,17.777992535914
$GNHDT,278.694,T*2D
$PYRTM,2024,126.668350850069,17.777998260208
$GNGGA,160225.50,3400.98220587,N,11931.75334063,W,2,14,0.8,9.305,M,-37.339,M,5.4,0131*6E
$PYRTM,2024,126.668350850069,17.777998260208
$GNHDT,278.597,T*2D
$PYRTM,2024,126.668356697998,17.778004108137
$GNGGA,160226.00,3400.98225127,N,11931.75328344,W,2,14,0.8,9.344,M,-37.339,M,6.0,0131*6A
$PYRTM,2024,126.668356697998,17.778004108137
$GNHDT,278.687,T*2F
$PYRTM,2024,126.668362424502,17.778009834641
$GNGGA,160226.50,3400.98229999,N,11931.75322505,W,2,14,0.8,9.395,M,-37.339,M,6.4,0131*6F
$PYRTM,2024,126.668362424502,17.778009834641
$GNHDT,278.623,T*21
$PYRTM,2024,126.668368270949,17.778015681088
$GNGGA,160227.00,3400.98236504,N,11931.75316439,W,2,14,0.8,9.466,M,-37.339,M,7.0,0131*6A
$PYRTM,2024,126.668368270949,17.778015681088
$GNHDT,278.649,T*2D
$PYRTM,2024,126.668373998808,17.778021408947
$GNGGA,160227.50,3400.98246017,N,11931.75310000,W,2,14,0.8,9.517,M,-37.339,M,7.4,0131*64
$PYRTM,2024,126.668373998808,17.778021408947
$GNHDT,278.528,T*29
$PYRTM,2024,126.668379846319,17.778027256470
$GNGGA,160228.00,3400.98257527,N,11931.75304151,W,2,14,0.8,9.536,M,-37.339,M,7.0,0131*6F
$PYRTM,2024,126.668379846319,17.778027256470
$GNHDT,278.598,T*22
$PYRTM,2024,126.668385572477,17.778032982627
$GNGGA,160228.50,3400.98269769,N,11931.75299034,W,2,14,0.8,9.528,M,-37.339,M,7.4,0131*63
$PYRTM,2024,126.668385572477,17.778032982627
$GNHDT,278.501,T*22
$PYRTM,2024,126.668391423449,17.778038833588
